passes_logs/2026/01/22/R3.2S_Murmansk/R3.2S_Murmansk__20260122_031827_FENGYUN_3D_rec.log

#Pass ID: 20260122_031827_FENGYUN 3D
#Satellite: FENGYUN 3D
#Configuration: FENGYUN 3D
#almurnet v.1.7.20251203
#Start time: 2026-01-22 03:18:29

#Version: 2.2.20231116
#Station: R3.2S_Murmansk
#Location: 33.079688 lon 68.888172 lat
#TLE: 1 43010U 17072A   26021.48744220  .00000253  00000+0  14133-3 0  9991
#TLE: 2 43010  98.9948 353.4037 0002485  97.2578 262.8880 14.19697766424177

#Time	Az	El	Level	Level2	SNR	BER	BlckErr	Temp	State	Recorded	gain1	gain2
2026-01-22 03:18:29.23	27.29	2.12	-49.9	-61.8	3.8	8.46e-01	0	39	0	0	70	14912
2026-01-22 03:18:33.26	27.25	2.38	-49.9	-61.8	3.8	8.47e-01	0	39	104	0	70	14932
2026-01-22 03:18:37.30	27.21	2.64	-49.9	-61.8	3.8	8.46e-01	0	39	104	0	70	14964
2026-01-22 03:18:41.33	27.17	2.91	-49.9	-61.8	3.8	8.46e-01	0	39	104	0	70	14911
2026-01-22 03:18:45.37	27.13	3.17	-49.9	-61.8	3.8	8.47e-01	0	39	104	0	70	14918
2026-01-22 03:18:49.39	27.09	3.44	-49.9	-61.8	3.8	8.47e-01	0	39	104	0	70	14955
2026-01-22 03:18:53.43	27.05	3.71	-49.9	-61.8	3.8	8.46e-01	0	39	104	0	70	14949
2026-01-22 03:18:57.46	27.00	3.99	-49.9	-61.8	3.8	8.46e-01	0	39	104	0	70	14977
2026-01-22 03:19:01.49	26.96	4.26	-49.9	-61.8	3.8	8.46e-01	0	40	104	0	70	14946
2026-01-22 03:19:05.53	26.91	4.54	-49.9	-61.7	3.8	8.46e-01	0	39	104	0	70	14874
2026-01-22 03:19:09.56	26.86	4.83	-49.9	-61.8	3.8	8.46e-01	0	40	104	0	70	14948
2026-01-22 03:19:13.59	26.81	5.11	-49.9	-61.8	3.8	8.47e-01	0	40	104	0	70	14962
2026-01-22 03:19:17.63	26.76	5.40	-49.8	-61.8	3.8	8.46e-01	0	40	104	0	70	14949
2026-01-22 03:19:21.66	26.71	5.69	-49.9	-61.8	3.8	8.46e-01	0	40	104	0	70	14920
2026-01-22 03:19:25.69	26.66	5.99	-49.8	-61.8	3.8	8.47e-01	0	40	104	0	70	14922
2026-01-22 03:19:29.72	26.60	6.29	-49.9	-61.8	3.8	8.46e-01	0	40	104	0	70	14997
2026-01-22 03:19:33.75	26.54	6.59	-49.9	-61.8	3.8	8.46e-01	0	40	104	0	70	14959
2026-01-22 03:19:37.79	26.49	6.90	-49.9	-61.8	3.8	8.46e-01	0	40	104	0	70	14924
2026-01-22 03:19:41.82	26.43	7.21	-49.9	-61.8	3.8	8.47e-01	0	40	104	0	70	14952
2026-01-22 03:19:45.85	26.37	7.52	-49.9	-61.8	3.8	8.47e-01	0	40	104	0	70	14943
2026-01-22 03:19:49.88	26.30	7.84	-49.9	-61.8	3.8	8.45e-01	0	40	104	0	70	14944
2026-01-22 03:19:53.91	26.24	8.16	-49.9	-61.8	3.8	8.47e-01	0	40	104	0	70	14907
2026-01-22 03:19:57.95	26.17	8.48	-49.9	-61.8	3.8	8.46e-01	0	40	104	0	70	14965
2026-01-22 03:20:01.98	26.10	8.81	-49.9	-61.8	3.8	8.46e-01	0	41	104	0	70	14938
2026-01-22 03:20:06.02	26.03	9.14	-49.9	-61.8	3.8	8.47e-01	0	40	104	0	70	14952
2026-01-22 03:20:10.05	25.96	9.48	-49.9	-61.8	3.8	8.46e-01	0	40	104	0	70	14952
2026-01-22 03:20:14.09	25.89	9.83	-49.9	-61.8	3.8	8.45e-01	0	40	104	0	70	14921
2026-01-22 03:20:18.12	25.81	10.17	-49.9	-61.8	3.8	8.46e-01	0	41	104	0	70	14973
2026-01-22 03:20:22.15	25.73	10.53	-49.9	-61.8	3.8	8.45e-01	0	40	104	0	70	14974
2026-01-22 03:20:26.18	25.65	10.88	-49.9	-61.8	3.8	8.47e-01	0	40	104	0	70	14986
2026-01-22 03:20:30.22	25.57	11.25	-49.9	-61.8	3.8	8.45e-01	0	40	104	0	70	14949
2026-01-22 03:20:34.25	25.48	11.61	-49.9	-61.8	3.8	8.46e-01	0	41	104	0	70	14957
2026-01-22 03:20:38.28	25.39	11.99	-49.9	-61.8	3.8	8.46e-01	0	41	104	0	70	14962
2026-01-22 03:20:42.32	25.30	12.37	-49.9	-61.8	3.8	8.48e-01	0	41	104	0	70	14956
2026-01-22 03:20:46.35	25.21	12.75	-49.9	-61.8	3.8	8.45e-01	0	41	104	0	70	14969
2026-01-22 03:20:50.39	25.11	13.14	-49.9	-61.8	3.8	8.45e-01	0	41	104	0	70	14941
2026-01-22 03:20:54.43	25.01	13.54	-49.9	-61.8	3.8	8.45e-01	0	40	104	0	70	14969
2026-01-22 03:20:58.46	24.91	13.94	-49.9	-61.8	3.8	8.47e-01	0	41	104	0	70	14957
2026-01-22 03:21:02.49	24.80	14.36	-49.9	-61.8	3.8	8.45e-01	0	41	104	0	70	15009
2026-01-22 03:21:06.53	24.69	14.77	-49.9	-61.8	3.8	8.46e-01	0	41	104	0	70	14957
2026-01-22 03:21:10.56	24.57	15.20	-49.9	-61.8	3.8	8.46e-01	0	41	104	0	70	14996
2026-01-22 03:21:14.59	24.46	15.63	-49.9	-61.8	3.8	8.46e-01	0	41	104	0	70	14978
2026-01-22 03:21:18.63	24.33	16.07	-49.9	-61.8	3.8	8.46e-01	0	41	104	0	70	14997
2026-01-22 03:21:22.66	24.21	16.52	-49.9	-61.8	3.8	8.47e-01	0	41	104	0	70	14964
2026-01-22 03:21:26.69	24.08	16.97	-49.9	-61.8	3.8	8.45e-01	0	41	104	0	70	14962
2026-01-22 03:21:30.72	23.94	17.44	-49.9	-61.8	3.8	8.46e-01	0	41	104	0	70	14980
2026-01-22 03:21:34.76	23.80	17.91	-49.9	-61.8	3.8	8.46e-01	0	41	104	0	70	14947
2026-01-22 03:21:38.80	23.66	18.40	-49.9	-61.8	3.8	8.46e-01	0	41	104	0	70	14953
2026-01-22 03:21:42.83	23.51	18.89	-49.9	-61.8	3.8	8.46e-01	0	41	104	0	70	14969
2026-01-22 03:21:46.87	23.35	19.39	-49.9	-61.8	3.8	8.45e-01	0	41	104	0	70	14982
2026-01-22 03:21:50.90	23.19	19.90	-49.9	-61.8	3.8	8.46e-01	0	41	104	0	70	14979
2026-01-22 03:21:54.93	23.02	20.42	-49.9	-61.8	3.8	8.46e-01	0	41	104	0	70	14986
2026-01-22 03:21:58.97	22.85	20.96	-49.9	-61.8	3.8	8.45e-01	0	41	104	0	70	14970
2026-01-22 03:22:03.00	22.67	21.50	-49.9	-61.8	3.8	8.47e-01	0	41	104	0	70	14997
2026-01-22 03:22:07.04	22.48	22.06	-49.9	-61.8	3.8	8.47e-01	0	41	104	0	70	14991
2026-01-22 03:22:11.07	22.29	22.63	-49.9	-61.8	3.8	8.45e-01	0	41	104	0	70	14951
2026-01-22 03:22:15.11	22.08	23.21	-49.9	-61.8	3.8	8.46e-01	0	41	104	0	70	14969
2026-01-22 03:22:19.14	21.87	23.80	-49.9	-61.8	3.8	8.46e-01	0	41	104	0	70	14960
2026-01-22 03:22:23.17	21.65	24.41	-49.9	-61.8	3.8	8.47e-01	0	41	104	0	70	14996
2026-01-22 03:22:27.20	21.42	25.03	-49.9	-61.8	3.8	8.46e-01	0	41	104	0	70	14942
2026-01-22 03:22:31.24	21.18	25.66	-49.9	-61.8	3.8	8.46e-01	0	41	104	0	70	14971
2026-01-22 03:22:35.27	20.93	26.31	-49.9	-61.8	3.8	8.47e-01	0	41	104	0	70	14979
2026-01-22 03:22:39.31	20.67	26.98	-49.9	-61.8	3.8	8.46e-01	0	41	104	0	70	14972
2026-01-22 03:22:43.34	20.40	27.66	-49.9	-61.8	3.8	8.46e-01	0	41	104	0	70	14991
2026-01-22 03:22:47.37	20.11	28.36	-49.9	-61.8	3.8	8.47e-01	0	41	104	0	70	14991
2026-01-22 03:22:51.40	19.81	29.07	-49.9	-61.8	3.8	8.47e-01	0	41	104	0	70	14980
2026-01-22 03:22:55.44	19.50	29.81	-49.9	-61.8	3.8	8.45e-01	0	41	104	0	70	14984
2026-01-22 03:22:59.47	19.17	30.56	-49.9	-61.8	3.8	8.47e-01	0	41	104	0	70	14943
2026-01-22 03:23:03.51	18.82	31.33	-49.9	-61.8	3.8	8.45e-01	0	41	104	0	70	14961
2026-01-22 03:23:07.55	18.45	32.12	-49.9	-61.8	3.8	8.45e-01	0	41	104	0	70	15000
2026-01-22 03:23:11.58	18.07	32.93	-49.9	-61.8	3.8	8.46e-01	0	41	104	0	70	14976
2026-01-22 03:23:15.61	17.67	33.76	-49.9	-61.8	3.8	8.46e-01	0	41	104	0	70	14971
2026-01-22 03:23:19.65	17.24	34.61	-49.9	-61.8	3.8	8.46e-01	0	41	104	0	70	14977
2026-01-22 03:23:23.68	16.79	35.49	-49.9	-61.8	3.8	8.44e-01	0	41	104	0	70	14975
2026-01-22 03:23:27.71	16.31	36.38	-49.9	-61.8	3.8	8.47e-01	0	41	104	0	70	14962
2026-01-22 03:23:31.75	15.81	37.30	-49.9	-61.8	3.8	8.45e-01	0	41	104	0	70	15017
2026-01-22 03:23:35.79	15.27	38.25	-49.9	-61.8	3.8	8.47e-01	0	41	104	0	70	15036
2026-01-22 03:23:39.82	14.70	39.21	-49.9	-61.8	3.8	8.46e-01	0	41	104	0	70	14995
2026-01-22 03:23:43.85	14.10	40.20	-49.9	-61.8	3.8	8.46e-01	0	41	104	0	70	14980
2026-01-22 03:23:47.89	13.46	41.22	-49.9	-61.8	3.8	8.45e-01	0	41	104	0	70	14999
2026-01-22 03:23:51.92	12.77	42.26	-49.9	-61.8	3.8	8.46e-01	0	41	104	0	70	15035
2026-01-22 03:23:55.95	12.03	43.32	-49.9	-61.8	3.8	8.46e-01	0	41	104	0	70	15004
2026-01-22 03:23:59.98	11.25	44.41	-49.9	-61.8	3.8	8.44e-01	0	41	104	0	70	14962
2026-01-22 03:24:04.01	10.41	45.52	-49.9	-61.8	3.8	8.46e-01	0	41	104	0	70	14958
2026-01-22 03:24:08.05	9.50	46.66	-49.9	-61.8	3.8	8.46e-01	0	41	104	0	70	14914
2026-01-22 03:24:12.08	8.52	47.82	-49.9	-61.8	3.8	8.45e-01	0	41	104	0	70	15007
2026-01-22 03:24:16.11	7.46	49.00	-49.9	-61.8	3.8	8.48e-01	0	41	104	0	70	14940
2026-01-22 03:24:20.14	6.32	50.21	-49.9	-61.8	3.8	8.45e-01	0	41	104	0	70	15010
2026-01-22 03:24:24.17	5.09	51.43	-49.9	-61.8	3.8	8.46e-01	0	41	104	0	70	14939
2026-01-22 03:24:28.21	3.74	52.67	-49.9	-61.8	3.8	8.46e-01	0	41	104	0	70	14968
2026-01-22 03:24:32.23	2.27	53.92	-49.9	-61.8	3.8	8.47e-01	0	41	104	0	70	15042
2026-01-22 03:24:36.27	0.67	55.18	-49.9	-61.8	3.8	8.47e-01	0	41	104	0	70	15019
2026-01-22 03:24:40.30	358.92	56.45	-49.9	-61.8	3.8	8.46e-01	0	41	104	0	70	15024
2026-01-22 03:24:44.33	357.00	57.72	-49.9	-61.8	3.8	8.46e-01	0	41	104	0	70	14952
2026-01-22 03:24:48.36	354.89	58.98	-49.9	-61.8	3.8	8.46e-01	0	41	104	0	70	14967
2026-01-22 03:24:52.40	352.55	60.23	-49.9	-61.8	3.8	8.46e-01	0	41	104	0	70	14945
2026-01-22 03:24:56.43	349.99	61.45	-49.9	-61.8	3.8	8.46e-01	0	41	104	0	70	14979
2026-01-22 03:25:00.46	347.17	62.65	-49.9	-61.8	3.8	8.46e-01	0	41	104	0	70	14990
2026-01-22 03:25:04.49	344.05	63.79	-49.9	-61.8	3.8	8.46e-01	0	41	104	0	70	14960
2026-01-22 03:25:08.52	340.62	64.88	-49.9	-61.8	3.8	8.47e-01	0	41	104	0	70	14953
2026-01-22 03:25:12.56	336.84	65.89	-49.9	-61.8	3.8	8.46e-01	0	41	104	0	70	14901
2026-01-22 03:25:16.59	332.72	66.81	-49.9	-61.8	3.8	8.47e-01	0	41	104	0	70	14987
2026-01-22 03:25:20.63	328.24	67.62	-49.9	-61.8	3.8	8.47e-01	0	41	104	0	70	14945
2026-01-22 03:25:24.66	323.43	68.30	-49.9	-61.8	3.8	8.46e-01	0	41	104	0	70	14974
2026-01-22 03:25:28.70	318.30	68.84	-49.9	-61.8	3.8	8.46e-01	0	41	104	0	70	14937
2026-01-22 03:25:32.73	312.95	69.21	-49.9	-61.8	3.8	8.47e-01	0	41	104	0	70	14956
2026-01-22 03:25:36.77	307.42	69.40	-49.9	-61.8	3.8	8.46e-01	0	41	104	0	70	14990
2026-01-22 03:25:40.80	301.84	69.42	-49.9	-61.8	3.8	8.46e-01	0	41	104	0	70	14942
2026-01-22 03:25:44.83	296.31	69.25	-49.9	-61.8	3.8	8.45e-01	0	41	104	0	70	14950
2026-01-22 03:25:48.86	290.92	68.91	-49.9	-61.8	3.8	8.46e-01	0	41	104	0	70	14953
2026-01-22 03:25:52.90	285.75	68.40	-49.9	-61.8	3.8	8.46e-01	0	41	104	0	70	14932
2026-01-22 03:25:56.93	280.89	67.74	-49.9	-61.8	3.8	8.46e-01	0	41	104	0	70	14966
2026-01-22 03:26:00.97	276.35	66.95	-49.9	-61.8	3.8	8.47e-01	0	41	104	0	70	14925
2026-01-22 03:26:05.00	272.17	66.05	-49.9	-61.8	3.8	8.48e-01	0	41	104	0	70	14942
2026-01-22 03:26:09.03	268.34	65.05	-49.9	-61.8	3.8	8.46e-01	0	41	104	0	70	14962
2026-01-22 03:26:13.07	264.84	63.97	-49.9	-61.8	3.8	8.46e-01	0	41	104	0	70	14946
2026-01-22 03:26:17.10	261.67	62.83	-49.9	-61.8	3.8	8.47e-01	0	41	104	0	70	14959
2026-01-22 03:26:21.13	258.80	61.64	-49.9	-61.8	3.8	8.45e-01	0	41	104	0	70	14942
2026-01-22 03:26:25.17	256.19	60.41	-49.9	-61.8	3.8	8.47e-01	0	41	104	0	70	14947
2026-01-22 03:26:29.20	253.82	59.17	-49.9	-61.8	3.8	8.47e-01	0	41	104	0	70	14954
2026-01-22 03:26:33.23	251.68	57.90	-49.9	-61.8	3.8	8.47e-01	0	41	104	0	70	14913
2026-01-22 03:26:37.27	249.72	56.63	-49.9	-61.8	3.8	8.47e-01	0	41	104	0	70	14912
2026-01-22 03:26:41.31	247.94	55.36	-49.9	-61.8	3.8	8.46e-01	0	41	104	0	70	14959
2026-01-22 03:26:45.34	246.31	54.09	-49.9	-61.8	3.8	8.47e-01	0	41	104	0	70	14951
2026-01-22 03:26:49.38	244.82	52.83	-49.9	-61.8	3.8	8.45e-01	0	41	104	0	70	14983
2026-01-22 03:26:53.41	243.46	51.59	-49.9	-61.8	3.8	8.46e-01	0	41	104	0	70	14932
2026-01-22 03:26:57.44	242.20	50.36	-49.9	-61.8	3.8	8.45e-01	0	41	104	0	70	14957
2026-01-22 03:27:01.47	241.04	49.15	-49.9	-61.8	3.8	8.46e-01	0	41	104	0	70	14949
2026-01-22 03:27:05.51	239.97	47.96	-49.9	-61.8	3.8	8.47e-01	0	41	104	0	70	14998
2026-01-22 03:27:09.54	238.98	46.80	-49.9	-61.8	3.8	8.47e-01	0	41	104	0	70	14974
2026-01-22 03:27:13.57	238.06	45.65	-49.9	-61.8	3.8	8.47e-01	0	41	104	0	70	14979
2026-01-22 03:27:17.61	237.21	44.53	-49.9	-61.8	3.8	8.46e-01	0	41	104	0	70	14991
2026-01-22 03:27:21.65	236.41	43.43	-49.9	-61.8	3.8	8.47e-01	0	41	104	0	70	14965
2026-01-22 03:27:25.68	235.67	42.36	-49.9	-61.8	3.8	8.46e-01	0	41	104	0	70	14984
2026-01-22 03:27:29.71	234.97	41.32	-49.9	-61.8	3.8	8.45e-01	0	41	104	0	70	14923
2026-01-22 03:27:33.75	234.32	40.30	-49.9	-61.8	3.8	8.45e-01	0	41	104	0	70	14924
2026-01-22 03:27:37.78	233.71	39.30	-49.9	-61.8	3.8	8.46e-01	0	41	104	0	70	14892
2026-01-22 03:27:41.82	233.13	38.33	-49.9	-61.8	3.8	8.47e-01	0	41	104	0	70	14935
2026-01-22 03:27:45.85	232.59	37.38	-49.9	-61.8	3.8	8.46e-01	0	41	104	0	70	14961
2026-01-22 03:27:49.89	232.08	36.45	-49.9	-61.8	3.8	8.46e-01	0	41	104	0	70	14945
2026-01-22 03:27:53.92	231.60	35.55	-49.9	-61.8	3.8	8.46e-01	0	41	104	0	70	14969
2026-01-22 03:27:57.96	231.14	34.67	-49.9	-61.8	3.8	8.45e-01	0	41	104	0	70	14970
2026-01-22 03:28:01.99	230.71	33.81	-49.9	-61.8	3.8	8.46e-01	0	41	104	0	70	14988
2026-01-22 03:28:06.03	230.30	32.98	-49.9	-61.8	3.8	8.46e-01	0	41	104	0	70	14946
2026-01-22 03:28:10.07	229.92	32.16	-49.9	-61.8	3.8	8.45e-01	0	41	104	0	70	14968
2026-01-22 03:28:14.10	229.55	31.37	-49.9	-61.8	3.8	8.47e-01	0	41	104	0	70	15012
2026-01-22 03:28:18.13	229.20	30.59	-49.9	-61.8	3.8	8.47e-01	0	41	104	0	70	14992
2026-01-22 03:28:22.17	228.86	29.84	-49.9	-61.8	3.8	8.45e-01	0	41	104	0	70	14926
2026-01-22 03:28:26.20	228.55	29.10	-49.9	-61.8	3.8	8.46e-01	0	41	104	0	70	14915
2026-01-22 03:28:30.23	228.24	28.38	-49.9	-61.8	3.8	8.46e-01	0	41	104	0	70	15010
2026-01-22 03:28:34.27	227.95	27.68	-49.9	-61.8	3.8	8.46e-01	0	41	104	0	70	14981
2026-01-22 03:28:38.30	227.68	26.99	-49.9	-61.8	3.8	8.46e-01	0	41	104	0	70	14976
2026-01-22 03:28:42.33	227.41	26.32	-49.9	-61.8	3.8	8.47e-01	0	41	104	0	70	14920
2026-01-22 03:28:46.36	227.16	25.67	-49.9	-61.8	3.8	8.47e-01	0	41	104	0	70	14984
2026-01-22 03:28:50.40	226.92	25.03	-49.9	-61.8	3.8	8.47e-01	0	41	104	0	70	14964
2026-01-22 03:28:54.43	226.68	24.41	-49.9	-61.8	3.8	8.46e-01	0	41	104	0	70	15027
2026-01-22 03:28:58.46	226.46	23.80	-49.9	-61.8	3.8	8.46e-01	0	41	104	0	70	14910
2026-01-22 03:29:02.49	226.25	23.20	-49.9	-61.8	3.8	8.46e-01	0	41	104	0	70	14955
2026-01-22 03:29:06.52	226.04	22.62	-49.9	-61.8	3.8	8.46e-01	0	41	104	0	70	15001
2026-01-22 03:29:10.56	225.84	22.05	-49.9	-61.8	3.8	8.45e-01	0	41	104	0	70	14961
2026-01-22 03:29:14.59	225.65	21.49	-49.9	-61.8	3.8	8.45e-01	0	41	104	0	70	14987
2026-01-22 03:29:18.62	225.47	20.94	-49.9	-61.8	3.8	8.46e-01	0	41	104	0	70	14967
2026-01-22 03:29:22.66	225.29	20.40	-49.9	-61.8	3.8	8.47e-01	0	41	104	0	70	14968
2026-01-22 03:29:26.69	225.12	19.88	-49.9	-61.8	3.8	8.46e-01	0	41	104	0	70	14972
2026-01-22 03:29:30.72	224.96	19.37	-49.9	-61.8	3.8	8.45e-01	0	41	104	0	70	14967
2026-01-22 03:29:34.76	224.80	18.86	-49.9	-61.8	3.8	8.45e-01	0	41	104	0	70	14932
2026-01-22 03:29:38.79	224.65	18.37	-49.9	-61.8	3.8	8.46e-01	0	41	104	0	70	14985
2026-01-22 03:29:42.83	224.50	17.88	-49.9	-61.8	3.8	8.47e-01	0	41	104	0	70	14939
2026-01-22 03:29:46.86	224.36	17.41	-49.9	-61.8	3.8	8.46e-01	0	41	104	0	70	14929
2026-01-22 03:29:50.89	224.22	16.94	-49.9	-61.8	3.8	8.47e-01	0	41	104	0	70	14953
2026-01-22 03:29:54.92	224.09	16.48	-49.9	-61.8	3.8	8.45e-01	0	41	104	0	70	14945
2026-01-22 03:29:58.95	223.96	16.03	-49.9	-61.8	3.8	8.47e-01	0	41	104	0	70	14931
2026-01-22 03:30:02.99	223.84	15.59	-49.9	-61.8	3.8	8.46e-01	0	41	104	0	70	14955
2026-01-22 03:30:07.02	223.72	15.15	-49.9	-61.8	3.8	8.46e-01	0	41	104	0	70	14975
2026-01-22 03:30:11.05	223.60	14.73	-49.9	-61.8	3.8	8.46e-01	0	41	104	0	70	14996
2026-01-22 03:30:15.09	223.49	14.31	-49.9	-61.8	3.8	8.47e-01	0	41	104	0	70	14954
2026-01-22 03:30:19.12	223.38	13.90	-49.9	-61.8	3.8	8.46e-01	0	41	104	0	70	14970
2026-01-22 03:30:23.15	223.27	13.49	-49.9	-61.8	3.8	8.46e-01	0	41	104	0	70	14965
2026-01-22 03:30:27.19	223.17	13.09	-49.9	-61.8	3.8	8.45e-01	0	41	104	0	70	14999
2026-01-22 03:30:31.22	223.07	12.70	-49.9	-61.8	3.8	8.46e-01	0	41	104	0	70	14940
2026-01-22 03:30:35.26	222.97	12.31	-49.9	-61.8	3.8	8.46e-01	0	41	104	0	70	14968
2026-01-22 03:30:39.29	222.88	11.93	-49.9	-61.8	3.8	8.46e-01	0	41	104	0	70	14983
2026-01-22 03:30:43.32	222.78	11.56	-49.9	-61.8	3.8	8.47e-01	0	41	104	0	70	14965
2026-01-22 03:30:47.36	222.70	11.19	-49.9	-61.8	3.8	8.46e-01	0	41	104	0	70	14972
2026-01-22 03:30:51.39	222.61	10.82	-49.9	-61.8	3.8	8.46e-01	0	41	104	0	70	14945
2026-01-22 03:30:55.42	222.53	10.46	-49.9	-61.8	3.8	8.48e-01	0	41	104	0	70	14953
2026-01-22 03:30:59.45	222.44	10.11	-49.9	-61.8	3.8	8.46e-01	0	41	104	0	70	14958
2026-01-22 03:31:03.49	222.37	9.76	-49.9	-61.8	3.8	8.45e-01	0	41	104	0	70	14972
2026-01-22 03:31:07.52	222.29	9.42	-49.9	-61.8	3.8	8.47e-01	0	41	104	0	70	14986
2026-01-22 03:31:11.56	222.21	9.08	-49.9	-61.8	3.8	8.46e-01	0	41	104	0	70	14988
2026-01-22 03:31:15.59	222.14	8.74	-49.9	-61.8	3.8	8.46e-01	0	41	104	0	70	14962
2026-01-22 03:31:19.62	222.07	8.41	-49.9	-61.8	3.8	8.47e-01	0	41	104	0	70	14939
2026-01-22 03:31:23.66	222.00	8.09	-49.9	-61.8	3.8	8.46e-01	0	41	104	0	70	14952
2026-01-22 03:31:27.69	221.93	7.76	-49.9	-61.8	3.8	8.46e-01	0	41	104	0	70	14985
2026-01-22 03:31:31.73	221.87	7.45	-49.9	-61.8	3.8	8.46e-01	0	41	104	0	70	15005
2026-01-22 03:31:35.76	221.80	7.13	-49.9	-61.8	3.8	8.46e-01	0	41	104	0	70	14945
2026-01-22 03:31:39.79	221.74	6.82	-49.9	-61.8	3.8	8.46e-01	0	41	104	0	70	14958
2026-01-22 03:31:43.83	221.68	6.51	-49.9	-61.8	3.8	8.47e-01	0	41	104	0	70	14970
2026-01-22 03:31:47.86	221.62	6.21	-49.9	-61.8	3.8	8.45e-01	0	41	104	0	70	14960
2026-01-22 03:31:51.90	221.56	5.91	-49.9	-61.8	3.8	8.47e-01	0	41	104	0	70	14949
2026-01-22 03:31:55.93	221.51	5.61	-49.9	-61.8	3.8	8.47e-01	0	41	104	0	70	15000
2026-01-22 03:31:59.97	221.45	5.32	-49.9	-61.8	3.8	8.46e-01	0	41	104	0	70	15001
2026-01-22 03:32:04.00	221.40	5.03	-49.9	-61.8	3.8	8.47e-01	0	41	104	0	70	14951
2026-01-22 03:32:08.03	221.35	4.74	-49.9	-61.8	3.8	8.46e-01	0	41	104	0	70	14972
2026-01-22 03:32:12.06	221.30	4.46	-49.9	-61.8	3.8	8.47e-01	0	41	104	0	70	15001
2026-01-22 03:32:16.10	221.25	4.18	-49.9	-61.8	3.8	8.45e-01	0	41	104	0	70	14970
2026-01-22 03:32:20.13	221.20	3.90	-49.9	-61.8	3.8	8.47e-01	0	41	104	0	70	14975
2026-01-22 03:32:24.17	221.15	3.63	-49.9	-61.8	3.8	8.47e-01	0	41	104	0	70	14960
2026-01-22 03:32:28.21	221.10	3.35	-49.9	-61.8	3.8	8.46e-01	0	41	104	0	70	14955
2026-01-22 03:32:32.24	221.06	3.08	-49.9	-61.8	3.8	8.46e-01	0	41	104	0	70	14956
2026-01-22 03:32:36.27	221.02	2.82	-49.9	-61.8	3.8	8.47e-01	0	41	104	0	70	15012
2026-01-22 03:32:40.30	220.97	2.55	-49.9	-61.8	3.8	8.46e-01	0	41	104	0	70	15004
2026-01-22 03:32:44.34	220.93	2.29	-49.9	-61.8	3.8	8.46e-01	0	41	104	0	70	15022
2026-01-22 03:32:48.37	220.89	2.03	-49.9	-61.8	3.8	8.49e-01	0	41	104	0	70	14997

#Closed at: 2026-01-22 03:32:50
#Recorded file [0 MB]: D:/lorett/data/31041_260122_061829.dat