passes_logs/2026/01/22/R3.2S_Murmansk/R3.2S_Murmansk__20260122_013801_FENGYUN_3D_rec.log

#Pass ID: 20260122_013801_FENGYUN 3D
#Satellite: FENGYUN 3D
#Configuration: FENGYUN 3D
#almurnet v.1.7.20251203
#Start time: 2026-01-22 01:38:02

#Version: 2.2.20231116
#Station: R3.2S_Murmansk
#Location: 33.079688 lon 68.888172 lat
#TLE: 1 43010U 17072A   26021.48744220  .00000253  00000+0  14133-3 0  9991
#TLE: 2 43010  98.9948 353.4037 0002485  97.2578 262.8880 14.19697766424177

#Time	Az	El	Level	Level2	SNR	BER	BlckErr	Temp	State	Recorded	gain1	gain2
2026-01-22 01:38:02.15	21.60	2.05	-52.4	-64.3	3.8	8.47e-01	0	39	0	0	76	14114
2026-01-22 01:38:06.17	21.74	2.30	-52.3	-64.3	3.8	8.47e-01	0	39	104	0	75	14902
2026-01-22 01:38:10.21	21.89	2.55	-52.3	-64.2	3.8	8.47e-01	0	39	104	0	75	14856
2026-01-22 01:38:14.24	22.05	2.80	-52.3	-64.0	3.8	8.47e-01	0	39	104	0	75	14482
2026-01-22 01:38:18.27	22.20	3.06	-52.3	-64.2	3.8	8.46e-01	0	39	104	0	75	14773
2026-01-22 01:38:22.30	22.36	3.32	-52.3	-63.9	3.8	8.46e-01	0	40	104	0	75	14287
2026-01-22 01:38:26.33	22.52	3.58	-52.2	-63.3	3.8	8.46e-01	0	39	104	0	75	13265
2026-01-22 01:38:30.37	22.68	3.84	-51.6	-58.9	4.9	8.08e-01	0	40	0	0	75	8036
2026-01-22 01:38:34.41	22.84	4.11	-48.0	-50.4	12.9	2.00e-04	0	40	0	19922944	68	4497
2026-01-22 01:38:38.44	23.01	4.37	-44.3	-45.5	17.8	0.00e+00	0	40	0	41943040	60	4088
2026-01-22 01:38:42.47	23.18	4.64	-43.8	-44.9	18.8	0.00e+00	0	40	0	65011712	59	4024
2026-01-22 01:38:46.51	23.35	4.92	-45.1	-46.5	16.8	0.00e+00	0	40	0	88080384	60	4593
2026-01-22 01:38:50.54	23.53	5.19	-47.2	-49.1	14.0	6.00e-01	0	40	0	109051904	66	4360
2026-01-22 01:38:54.57	23.70	5.47	-43.7	-44.8	19.0	0.00e+00	0	40	0	132120576	58	4229
2026-01-22 01:38:58.61	23.89	5.75	-43.1	-44.1	19.7	0.00e+00	0	40	0	154140672	57	4116
2026-01-22 01:39:02.64	24.07	6.04	-42.7	-43.7	20.2	0.00e+00	0	40	0	177209344	57	3922
2026-01-22 01:39:06.67	24.26	6.32	-42.8	-43.8	20.1	0.00e+00	0	40	0	200278016	57	3965
2026-01-22 01:39:10.70	24.45	6.61	-42.8	-43.8	20.1	0.00e+00	0	40	0	222298112	57	3977
2026-01-22 01:39:14.74	24.64	6.91	-42.7	-43.7	20.3	0.00e+00	0	40	0	245366784	57	3926
2026-01-22 01:39:18.77	24.84	7.20	-42.4	-43.4	20.5	0.00e+00	0	40	0	268435456	56	4027
2026-01-22 01:39:22.80	25.04	7.50	-42.6	-43.5	20.4	0.00e+00	0	40	0	290455552	56	4097
2026-01-22 01:39:26.83	25.25	7.80	-42.3	-43.2	20.8	0.00e+00	0	40	0	312475648	56	3953
2026-01-22 01:39:30.86	25.46	8.11	-41.9	-42.8	21.1	0.00e+00	0	40	0	335544320	55	3997
2026-01-22 01:39:34.90	25.67	8.42	-41.8	-42.7	21.2	0.00e+00	0	40	0	358612992	55	3948
2026-01-22 01:39:38.93	25.89	8.73	-41.9	-42.8	21.2	0.00e+00	0	40	0	380633088	55	3995
2026-01-22 01:39:42.96	26.11	9.05	-41.8	-42.7	21.4	0.00e+00	0	40	0	403701760	55	3914
2026-01-22 01:39:46.99	26.34	9.37	-41.6	-42.5	21.5	0.00e+00	0	40	0	426770432	55	3845
2026-01-22 01:39:51.02	26.57	9.69	-41.5	-42.4	21.6	0.00e+00	0	40	0	448790528	55	3796
2026-01-22 01:39:55.05	26.81	10.02	-41.4	-42.3	21.8	0.00e+00	0	40	0	471859200	54	3959
2026-01-22 01:39:59.09	27.05	10.35	-41.3	-42.2	21.9	0.00e+00	0	40	0	494927872	54	3914
2026-01-22 01:40:03.12	27.30	10.69	-41.1	-42.0	22.1	0.00e+00	0	40	0	516947968	54	3831
2026-01-22 01:40:07.16	27.55	11.03	-41.0	-41.8	22.3	0.00e+00	0	40	0	540016640	53	3971
2026-01-22 01:40:11.19	27.80	11.37	-40.8	-41.6	22.4	0.00e+00	0	40	0	563085312	53	3912
2026-01-22 01:40:15.22	28.07	11.72	-41.0	-41.8	22.3	0.00e+00	0	40	0	585105408	53	3973
2026-01-22 01:40:19.25	28.34	12.07	-41.0	-41.8	22.3	0.00e+00	0	40	0	608174080	53	3999
2026-01-22 01:40:23.29	28.61	12.43	-41.0	-41.8	22.4	0.00e+00	0	41	0	631242752	53	3970
2026-01-22 01:40:27.33	28.89	12.80	-40.9	-41.7	22.5	0.00e+00	0	41	0	653262848	53	3933
2026-01-22 01:40:31.36	29.18	13.16	-40.7	-41.5	22.7	0.00e+00	0	41	0	676331520	53	3848
2026-01-22 01:40:35.39	29.47	13.54	-40.8	-41.6	22.6	0.00e+00	0	40	0	699400192	53	3903
2026-01-22 01:40:39.43	29.78	13.91	-40.5	-41.3	22.9	0.00e+00	0	40	0	721420288	53	3758
2026-01-22 01:40:43.46	30.09	14.30	-40.4	-41.2	23.0	0.00e+00	0	40	0	744488960	52	3940
2026-01-22 01:40:47.49	30.40	14.69	-40.2	-41.0	23.2	0.00e+00	0	40	0	766509056	52	3829
2026-01-22 01:40:51.53	30.73	15.08	-40.0	-40.7	23.5	0.00e+00	0	41	0	789577728	52	3725
2026-01-22 01:40:55.57	31.06	15.48	-40.1	-40.9	23.4	0.00e+00	0	41	0	812646400	51	4007
2026-01-22 01:40:59.61	31.40	15.89	-39.9	-40.7	23.6	0.00e+00	0	41	0	834666496	51	3932
2026-01-22 01:41:03.64	31.75	16.30	-39.9	-40.6	23.7	0.00e+00	0	41	0	857735168	51	3909
2026-01-22 01:41:07.67	32.11	16.72	-39.8	-40.6	23.8	0.00e+00	0	40	0	880803840	51	3886
2026-01-22 01:41:11.71	32.48	17.14	-39.8	-40.5	23.8	0.00e+00	0	40	0	902823936	51	3868
2026-01-22 01:41:15.74	32.86	17.57	-39.4	-40.2	24.2	0.00e+00	0	41	0	925892608	50	3914
2026-01-22 01:41:19.78	33.25	18.01	-39.1	-39.8	24.5	0.00e+00	0	41	0	948961280	50	3743
2026-01-22 01:41:23.81	33.65	18.46	-39.3	-40.0	24.3	0.00e+00	0	40	0	970981376	50	3837
2026-01-22 01:41:27.85	34.07	18.91	-39.4	-40.1	24.2	0.00e+00	0	40	0	994050048	50	3900
2026-01-22 01:41:31.88	34.49	19.37	-39.1	-39.8	24.5	0.00e+00	0	41	0	1017118720	50	3757
2026-01-22 01:41:35.91	34.93	19.83	-39.0	-39.7	24.6	0.00e+00	0	40	0	1039138816	50	3737
2026-01-22 01:41:39.95	35.38	20.30	-39.2	-39.9	24.5	0.00e+00	0	41	0	1062207488	50	3799
2026-01-22 01:41:43.98	35.84	20.78	-39.2	-40.0	24.4	0.00e+00	0	40	0	1085276160	50	3830
2026-01-22 01:41:48.02	36.32	21.27	-39.1	-39.8	24.5	0.00e+00	0	41	0	1107296256	50	3779
2026-01-22 01:41:52.05	36.81	21.76	-38.9	-39.6	24.7	0.00e+00	0	40	0	1130364928	49	3901
2026-01-22 01:41:56.09	37.32	22.27	-38.8	-39.5	24.8	0.00e+00	0	41	0	1152385024	49	3847
2026-01-22 01:42:00.13	37.84	22.78	-38.6	-39.3	25.0	0.00e+00	0	41	0	1175453696	49	3743
2026-01-22 01:42:04.16	38.38	23.30	-38.6	-39.3	25.0	0.00e+00	0	41	0	1198522368	49	3763
2026-01-22 01:42:08.19	38.94	23.82	-38.3	-39.0	25.3	0.00e+00	0	41	0	1220542464	48	3831
2026-01-22 01:42:12.22	39.52	24.36	-38.0	-38.7	25.6	0.00e+00	0	40	0	1243611136	48	3697
2026-01-22 01:42:16.25	40.12	24.90	-37.6	-38.3	25.4	0.00e+00	0	40	0	1266679808	47	3777
2026-01-22 01:42:20.28	40.73	25.45	-37.8	-38.5	25.3	0.00e+00	0	40	0	1288699904	47	3835
2026-01-22 01:42:24.31	41.37	26.01	-38.0	-38.7	25.1	0.00e+00	0	40	0	1311768576	47	3927
2026-01-22 01:42:28.35	42.03	26.57	-37.9	-38.6	25.2	0.00e+00	0	40	0	1333788672	47	3873
2026-01-22 01:42:32.38	42.71	27.15	-37.4	-38.1	25.6	0.00e+00	0	40	0	1356857344	46	3892
2026-01-22 01:42:36.41	43.42	27.73	-37.5	-38.2	25.6	0.00e+00	0	41	0	1379926016	46	3918
2026-01-22 01:42:40.44	44.16	28.32	-37.6	-38.3	25.4	0.00e+00	0	40	0	1401946112	46	3991
2026-01-22 01:42:44.47	44.92	28.92	-37.6	-38.3	25.5	0.00e+00	0	41	0	1425014784	46	3969
2026-01-22 01:42:48.50	45.71	29.52	-37.6	-38.3	25.5	0.00e+00	0	40	0	1448083456	46	3965
2026-01-22 01:42:52.53	46.53	30.14	-37.6	-38.3	25.6	0.00e+00	0	40	0	1470103552	46	3959
2026-01-22 01:42:56.57	47.38	30.76	-37.6	-38.3	25.5	0.00e+00	0	40	0	1493172224	46	3975
2026-01-22 01:43:00.60	48.26	31.38	-37.3	-38.0	25.8	0.00e+00	0	41	0	1515192320	46	3853
2026-01-22 01:43:04.63	49.18	32.01	-37.3	-38.0	25.8	0.00e+00	0	41	0	1538260992	46	3848
2026-01-22 01:43:08.67	50.13	32.65	-37.5	-38.2	25.6	0.00e+00	0	41	0	1561329664	46	3950
2026-01-22 01:43:12.70	51.12	33.30	-37.3	-38.0	25.8	0.00e+00	0	41	0	1583349760	46	3837
2026-01-22 01:43:16.73	52.15	33.94	-37.4	-38.2	25.7	0.00e+00	0	40	0	1606418432	46	3915
2026-01-22 01:43:20.77	53.22	34.59	-37.6	-38.3	25.5	0.00e+00	0	41	0	1629487104	46	3996
2026-01-22 01:43:24.80	54.34	35.25	-37.3	-38.0	25.9	0.00e+00	0	40	0	1651507200	46	3837
2026-01-22 01:43:28.83	55.50	35.90	-37.3	-38.0	25.9	0.00e+00	0	41	0	1674575872	46	3851
2026-01-22 01:43:32.86	56.70	36.55	-37.1	-37.7	26.1	0.00e+00	0	40	0	1697644544	46	3729
2026-01-22 01:43:36.89	57.95	37.20	-37.3	-38.0	25.9	0.00e+00	0	40	0	1719664640	46	3854
2026-01-22 01:43:40.92	59.26	37.85	-37.0	-37.7	26.2	0.00e+00	0	40	0	1742733312	46	3696
2026-01-22 01:43:44.95	60.61	38.50	-37.3	-38.0	25.9	0.00e+00	0	41	0	1765801984	46	3840
2026-01-22 01:43:48.99	62.03	39.14	-37.5	-38.2	25.7	0.00e+00	0	41	0	1787822080	46	3934
2026-01-22 01:43:53.02	63.49	39.77	-37.3	-38.0	25.8	0.00e+00	0	40	0	1810890752	46	3867
2026-01-22 01:43:57.05	65.02	40.39	-37.3	-38.0	25.9	0.00e+00	0	40	0	1833959424	46	3836
2026-01-22 01:44:01.08	66.60	41.00	-37.1	-37.8	26.1	0.00e+00	0	40	0	1855979520	46	3747
2026-01-22 01:44:05.11	68.24	41.60	-37.3	-37.9	26.0	0.00e+00	0	41	0	1877999616	46	3824
2026-01-22 01:44:09.15	69.94	42.17	-37.1	-37.8	26.0	0.00e+00	0	41	0	1901068288	46	3772
2026-01-22 01:44:13.18	71.70	42.73	-37.6	-38.3	25.7	0.00e+00	0	41	0	1924136960	46	3962
2026-01-22 01:44:17.21	73.52	43.27	-37.4	-38.1	25.8	0.00e+00	0	41	0	1946157056	46	3899
2026-01-22 01:44:21.24	75.40	43.78	-37.8	-38.5	25.4	0.00e+00	0	41	0	1969225728	46	4080
2026-01-22 01:44:25.27	77.34	44.26	-37.5	-38.2	25.8	0.00e+00	0	40	0	1992294400	46	3930
2026-01-22 01:44:29.31	79.34	44.71	-37.5	-38.2	25.8	0.00e+00	0	41	0	2014314496	46	3928
2026-01-22 01:44:33.34	81.39	45.13	-37.8	-38.5	25.5	0.00e+00	0	41	0	2037383168	46	4057
2026-01-22 01:44:37.38	83.50	45.51	-37.6	-38.3	25.6	0.00e+00	0	41	0	2060451840	46	3990
2026-01-22 01:44:41.41	85.65	45.85	-37.8	-38.5	25.5	0.00e+00	0	40	0	2082471936	46	4084
2026-01-22 01:44:45.45	87.85	46.15	-37.6	-38.3	25.7	0.00e+00	0	41	0	2105540608	46	3995
2026-01-22 01:44:49.48	90.08	46.40	-38.0	-38.7	25.3	0.00e+00	0	41	0	2128609280	46	4190
2026-01-22 01:44:53.52	92.36	46.61	-38.0	-38.7	25.3	0.00e+00	0	41	0	2150629376	46	4178
2026-01-22 01:44:57.55	94.65	46.77	-37.6	-38.2	25.7	0.00e+00	0	41	0	2173698048	46	3956
2026-01-22 01:45:01.58	96.96	46.88	-37.8	-38.5	25.5	0.00e+00	0	41	0	2196766720	46	4090
2026-01-22 01:45:05.61	99.29	46.94	-37.9	-38.6	25.4	0.00e+00	0	41	0	2218786816	46	4111
2026-01-22 01:45:09.65	101.63	46.96	-38.0	-38.7	25.3	0.00e+00	0	41	0	2240806912	46	4167
2026-01-22 01:45:13.68	103.96	46.92	-37.9	-38.6	25.4	0.00e+00	0	41	0	2263875584	46	4113
2026-01-22 01:45:17.71	106.28	46.83	-38.1	-38.9	25.2	0.00e+00	0	41	0	2286944256	46	4243
2026-01-22 01:45:21.74	108.58	46.69	-38.0	-38.7	25.3	0.00e+00	0	41	0	2308964352	47	3942
2026-01-22 01:45:25.77	110.86	46.50	-37.8	-38.5	25.5	0.00e+00	0	41	0	2332033024	47	3846
2026-01-22 01:45:29.81	113.12	46.26	-38.0	-38.7	25.4	0.00e+00	0	41	0	2355101696	47	3922
2026-01-22 01:45:33.84	115.33	45.98	-38.1	-38.8	25.2	0.00e+00	0	41	0	2377121792	47	4001
2026-01-22 01:45:37.87	117.51	45.66	-37.8	-38.6	25.5	0.00e+00	0	41	0	2400190464	47	3870
2026-01-22 01:45:41.90	119.63	45.29	-37.9	-38.6	25.4	0.00e+00	0	40	0	2423259136	47	3877
2026-01-22 01:45:45.93	121.71	44.89	-37.6	-38.3	25.6	0.00e+00	0	41	0	2445279232	47	3762
2026-01-22 01:45:49.96	123.73	44.45	-37.7	-38.4	25.6	0.00e+00	0	41	0	2468347904	47	3796
2026-01-22 01:45:54.00	125.70	43.98	-38.1	-38.8	25.2	0.00e+00	0	41	0	2491416576	47	3991
2026-01-22 01:45:58.03	127.61	43.48	-37.7	-38.3	25.6	0.00e+00	0	41	0	2513436672	47	3780
2026-01-22 01:46:02.06	129.46	42.96	-37.3	-38.0	25.8	0.00e+00	0	41	0	2536505344	46	3855
2026-01-22 01:46:06.09	131.25	42.41	-37.4	-38.1	25.8	0.00e+00	0	41	0	2559574016	46	3889
2026-01-22 01:46:10.13	132.99	41.84	-37.3	-38.0	25.9	0.00e+00	0	41	0	2581594112	46	3842
2026-01-22 01:46:14.16	134.65	41.25	-37.0	-37.7	26.1	0.00e+00	0	41	0	2604662784	46	3705
2026-01-22 01:46:18.19	136.26	40.64	-37.1	-37.8	26.0	0.00e+00	0	41	0	2626682880	45	3983
2026-01-22 01:46:22.23	137.82	40.02	-37.2	-37.8	26.0	0.00e+00	0	41	0	2649751552	45	4000
2026-01-22 01:46:26.26	139.31	39.39	-37.0	-37.7	26.1	0.00e+00	0	40	0	2672820224	45	3916
2026-01-22 01:46:30.30	140.75	38.75	-37.0	-37.7	26.0	0.00e+00	0	40	0	2694840320	45	3943
2026-01-22 01:46:34.34	142.13	38.10	-37.0	-37.7	26.1	0.00e+00	0	41	0	2717908992	45	3918
2026-01-22 01:46:38.38	143.47	37.45	-37.1	-37.8	25.9	0.00e+00	0	40	0	2740977664	45	3993
2026-01-22 01:46:42.41	144.74	36.80	-37.1	-37.8	25.9	0.00e+00	0	41	0	2762997760	45	3987
2026-01-22 01:46:46.45	145.97	36.14	-37.4	-38.1	25.6	0.00e+00	0	41	0	2786066432	45	4137
2026-01-22 01:46:50.48	147.15	35.48	-37.0	-37.7	25.5	0.00e+00	0	41	0	2809135104	45	3956
2026-01-22 01:46:54.51	148.29	34.83	-37.3	-38.1	25.2	0.00e+00	0	41	0	2831155200	45	4104
2026-01-22 01:46:58.55	149.38	34.17	-37.0	-37.8	25.4	0.00e+00	0	40	0	2854223872	45	3966
2026-01-22 01:47:02.59	150.43	33.52	-37.1	-37.8	25.3	0.00e+00	0	41	0	2877292544	45	4004
2026-01-22 01:47:06.62	151.44	32.87	-37.2	-38.0	25.2	0.00e+00	0	41	0	2899312640	45	4053
2026-01-22 01:47:10.66	152.41	32.23	-37.2	-38.0	25.1	0.00e+00	0	41	0	2922381312	45	4078
2026-01-22 01:47:14.69	153.34	31.59	-37.2	-38.0	25.2	0.00e+00	0	41	0	2945449984	45	4068
2026-01-22 01:47:18.73	154.24	30.96	-37.4	-38.2	25.0	0.00e+00	0	41	0	2967470080	45	4160
2026-01-22 01:47:22.76	155.11	30.33	-37.1	-37.9	25.3	0.00e+00	0	41	0	2990538752	45	4014
2026-01-22 01:47:26.80	155.94	29.71	-37.3	-38.0	25.1	0.00e+00	0	40	0	3012558848	45	4073
2026-01-22 01:47:30.83	156.74	29.10	-37.6	-38.3	24.9	0.00e+00	0	40	0	3035627520	45	4236
2026-01-22 01:47:34.86	157.52	28.50	-37.6	-38.4	24.8	0.00e+00	0	41	0	3058696192	45	4257
2026-01-22 01:47:38.89	158.26	27.90	-37.3	-38.1	25.1	0.00e+00	0	40	0	3080716288	45	4101
2026-01-22 01:47:42.93	158.98	27.31	-37.1	-37.8	25.3	0.00e+00	0	40	0	3103784960	45	4003
2026-01-22 01:47:46.97	159.68	26.73	-37.3	-38.1	25.1	0.00e+00	0	41	0	3126853632	45	4121
2026-01-22 01:47:51.00	160.35	26.16	-37.6	-38.4	24.8	0.00e+00	0	40	0	3148873728	45	4247
2026-01-22 01:47:55.04	161.00	25.60	-37.7	-38.5	24.7	0.00e+00	0	40	0	3171942400	46	4082
2026-01-22 01:47:59.07	161.62	25.04	-37.6	-38.4	24.8	0.00e+00	0	41	0	3195011072	46	4009
2026-01-22 01:48:03.10	162.23	24.49	-37.6	-38.4	24.8	0.00e+00	0	41	0	3217031168	46	4017
2026-01-22 01:48:07.13	162.81	23.95	-37.8	-38.5	24.7	0.00e+00	0	41	0	3240099840	46	4087
2026-01-22 01:48:11.16	163.38	23.42	-37.9	-38.6	24.6	0.00e+00	0	41	0	3263168512	46	4132
2026-01-22 01:48:15.20	163.92	22.90	-38.1	-38.8	24.4	0.00e+00	0	41	0	3285188608	46	4238
2026-01-22 01:48:19.23	164.45	22.38	-38.3	-39.1	24.2	0.00e+00	0	41	0	3308257280	47	4130
2026-01-22 01:48:23.26	164.97	21.87	-38.4	-39.2	24.0	0.00e+00	0	41	0	3331325952	47	4190
2026-01-22 01:48:27.29	165.46	21.37	-38.5	-39.3	24.0	0.00e+00	0	41	0	3353346048	47	4199
2026-01-22 01:48:31.32	165.95	20.88	-38.5	-39.2	24.0	0.00e+00	0	41	0	3375366144	47	4192
2026-01-22 01:48:35.36	166.42	20.40	-38.5	-39.3	23.9	0.00e+00	0	41	0	3398434816	47	4233
2026-01-22 01:48:39.39	166.87	19.92	-38.6	-39.4	23.8	0.00e+00	0	41	0	3421503488	47	4282
2026-01-22 01:48:43.41	167.31	19.45	-39.1	-39.9	24.0	0.00e+00	0	41	0	3443523584	48	4246
2026-01-22 01:48:47.45	167.74	18.99	-39.3	-40.0	23.8	0.00e+00	0	41	0	3466592256	49	4096
2026-01-22 01:48:51.48	168.15	18.53	-39.3	-40.1	23.8	0.00e+00	0	41	0	3489660928	49	4102
2026-01-22 01:48:55.51	168.56	18.09	-39.5	-40.3	23.6	0.00e+00	0	41	0	3511681024	49	4199
2026-01-22 01:48:59.54	168.95	17.64	-39.6	-40.4	23.5	0.00e+00	0	40	0	3534749696	49	4269
2026-01-22 01:49:03.57	169.33	17.21	-39.8	-40.7	23.3	0.00e+00	0	41	0	3557818368	50	4157
2026-01-22 01:49:07.61	169.71	16.78	-39.8	-40.7	23.3	0.00e+00	0	41	0	3579838464	50	4149
2026-01-22 01:49:11.64	170.07	16.36	-40.0	-40.8	23.1	0.00e+00	0	41	0	3602907136	50	4235
2026-01-22 01:49:15.67	170.42	15.94	-40.1	-40.9	23.0	0.00e+00	0	40	0	3625975808	50	4278
2026-01-22 01:49:19.70	170.77	15.53	-40.2	-41.0	22.8	0.00e+00	0	41	0	3647995904	51	4094
2026-01-22 01:49:23.74	171.10	15.13	-40.3	-41.2	22.7	0.00e+00	0	41	0	3671064576	51	4152
2026-01-22 01:49:27.77	171.43	14.73	-40.5	-41.3	22.6	0.00e+00	0	41	0	3694133248	51	4223
2026-01-22 01:49:31.80	171.75	14.34	-40.6	-41.4	22.4	0.00e+00	0	41	0	3716153344	52	4032
2026-01-22 01:49:35.84	172.06	13.95	-40.7	-41.6	22.3	0.00e+00	0	40	0	3738173440	52	4100
2026-01-22 01:49:39.87	172.36	13.57	-40.8	-41.6	22.1	0.00e+00	0	41	0	3761242112	52	4131
2026-01-22 01:49:43.90	172.65	13.19	-40.8	-41.7	22.1	0.00e+00	0	41	0	3784310784	52	4164
2026-01-22 01:49:47.94	172.94	12.82	-41.0	-41.8	22.0	0.00e+00	0	41	0	3806330880	52	4236
2026-01-22 01:49:51.97	173.23	12.45	-40.9	-41.8	22.0	0.00e+00	0	41	0	3829399552	52	4214
2026-01-22 01:49:56.00	173.50	12.09	-41.0	-41.9	21.9	0.00e+00	0	41	0	3852468224	52	4272
2026-01-22 01:50:00.03	173.77	11.73	-41.0	-41.9	21.8	0.00e+00	0	41	0	3874488320	52	4261
2026-01-22 01:50:04.07	174.03	11.38	-41.3	-42.2	21.6	0.00e+00	0	41	0	3897556992	53	4170
2026-01-22 01:50:08.11	174.29	11.03	-41.2	-42.1	21.7	0.00e+00	0	41	0	3920625664	53	4107
2026-01-22 01:50:12.14	174.54	10.69	-41.1	-41.9	21.8	0.00e+00	0	41	0	3942645760	53	4049
2026-01-22 01:50:16.17	174.79	10.35	-41.1	-42.0	21.7	0.00e+00	0	41	0	3965714432	53	4060
2026-01-22 01:50:20.21	175.03	10.02	-41.3	-42.2	21.4	0.00e+00	0	41	0	3988783104	53	4181
2026-01-22 01:50:24.24	175.27	9.69	-41.4	-42.3	21.3	0.00e+00	0	41	0	4010803200	53	4213
2026-01-22 01:50:28.27	175.50	9.36	-41.6	-42.5	21.1	0.00e+00	0	41	0	4033871872	53	4334
2026-01-22 01:50:32.31	175.72	9.04	-41.6	-42.5	21.0	0.00e+00	0	41	0	4056940544	53	4338
2026-01-22 01:50:36.35	175.95	8.72	-41.8	-42.8	20.9	0.00e+00	0	41	0	4078960640	54	4197
2026-01-22 01:50:40.38	176.16	8.40	-41.7	-42.7	20.9	0.00e+00	0	41	0	4102029312	54	4150
2026-01-22 01:50:44.41	176.38	8.09	-42.0	-43.0	20.6	0.00e+00	0	41	0	4124049408	54	4324
2026-01-22 01:50:48.44	176.59	7.78	-42.0	-42.9	20.6	0.00e+00	0	41	0	4147118080	54	4289
2026-01-22 01:50:52.48	176.79	7.48	-42.0	-43.0	20.5	0.00e+00	0	41	0	4170186752	54	4336
2026-01-22 01:50:56.51	176.99	7.17	-42.2	-43.2	20.3	0.00e+00	0	41	0	4192206848	54	4402
2026-01-22 01:51:00.55	177.19	6.88	-42.5	-43.5	20.0	0.00e+00	0	41	0	4215275520	55	4307
2026-01-22 01:51:04.59	177.38	6.58	-42.5	-43.5	19.9	0.00e+00	0	41	0	4238344192	55	4334
2026-01-22 01:51:08.62	177.57	6.29	-42.6	-43.6	19.8	0.00e+00	0	41	0	4260364288	55	4357
2026-01-22 01:51:12.65	177.76	6.00	-42.6	-43.6	19.8	0.00e+00	0	41	0	4283432960	56	4133
2026-01-22 01:51:16.68	177.94	5.71	-42.7	-43.8	19.7	0.00e+00	0	41	0	4306501632	56	4218
2026-01-22 01:51:20.72	178.12	5.43	-43.0	-44.1	19.3	0.00e+00	0	41	0	4328521728	56	4374
2026-01-22 01:51:24.74	178.30	5.15	-42.8	-43.9	19.5	0.00e+00	0	41	0	4351590400	56	4260
2026-01-22 01:51:28.78	178.47	4.87	-53.2	-65.2	3.8	8.46e-01	0	41	104	4362076160	76	15674
2026-01-22 01:51:32.81	178.64	4.60	-53.7	-65.7	3.8	8.45e-01	0	41	104	4362076160	78	14799
2026-01-22 01:51:36.85	178.81	4.33	-54.0	-66.0	3.8	8.47e-01	0	41	104	4362076160	78	15329
2026-01-22 01:51:40.88	178.97	4.06	-54.3	-66.3	3.8	8.46e-01	0	41	104	4362076160	79	14903
2026-01-22 01:51:44.91	179.14	3.79	-54.4	-66.4	3.8	8.46e-01	0	41	104	4362076160	79	15146
2026-01-22 01:51:48.95	179.30	3.52	-54.5	-66.4	3.8	8.48e-01	0	41	104	4362076160	79	15219
2026-01-22 01:51:52.98	179.45	3.26	-54.4	-66.4	3.8	8.46e-01	0	41	104	4362076160	79	15144
2026-01-22 01:51:57.01	179.61	3.00	-54.2	-66.2	3.8	8.46e-01	0	41	104	4362076160	79	14786
2026-01-22 01:52:01.04	179.76	2.74	-53.9	-65.9	3.8	8.45e-01	0	41	104	4362076160	79	14228
2026-01-22 01:52:05.07	179.91	2.49	-53.5	-65.5	3.8	8.47e-01	0	41	104	4362076160	79	13610
2026-01-22 01:52:09.11	180.06	2.24	-53.5	-65.5	3.8	8.47e-01	0	41	104	4362076160	79	13593
2026-01-22 01:52:13.14	180.20	1.98	-53.5	-65.4	3.8	8.47e-01	0	41	104	4362076160	78	14321

#Closed at: 2026-01-22 01:52:13
#Recorded file [4362 MB]: D:/lorett/data/31041_260122_043801.dat