passes_logs/2026/01/22/R3.2S_Murmansk/R3.2S_Murmansk__20260122_080806_KANOPUS-V_5_rec.log

#Pass ID: 20260122_080806_KANOPUS-V 5
#Satellite: KANOPUS-V 5
#Configuration: KANOPUS-V_8320
#almurnet v.1.7.20251203
#Start time: 2026-01-22 08:08:05

#Version: 2.2.20231116
#Station: R3.2S_Murmansk
#Location: 33.079688 lon 68.888172 lat
#TLE: 1 43876U 18111A   26021.54180787  .00007275  00000+0  30771-3 0  9992
#TLE: 2 43876  97.3683 289.9378 0001818  88.0577 272.0869 15.23499060392462

#Time	Az	El	Level	Level2	SNR	BER	BlckErr	Temp	State	Recorded	gain1	gain2
2026-01-22 08:08:05.83	169.57	1.98	-55.1	-63.9	3.8	7.44e-01	0	39	0	0	81	10159
2026-01-22 08:08:08.84	169.65	2.19	-54.9	-63.7	3.8	7.45e-01	0	39	104	0	81	9887
2026-01-22 08:08:11.86	169.73	2.40	-54.7	-63.5	3.8	7.47e-01	0	39	104	0	81	9648
2026-01-22 08:08:14.89	169.81	2.62	-54.4	-63.3	3.8	7.44e-01	0	39	104	0	80	9969
2026-01-22 08:08:17.91	169.89	2.83	-53.7	-62.4	3.8	7.47e-01	0	39	104	0	79	9590
2026-01-22 08:08:20.94	169.98	3.05	-53.6	-62.3	3.8	7.45e-01	0	40	104	0	79	9471
2026-01-22 08:08:23.96	170.06	3.28	-53.6	-62.4	3.8	7.45e-01	0	40	104	0	79	9532
2026-01-22 08:08:26.99	170.15	3.50	-53.5	-62.0	3.8	7.44e-01	0	39	104	0	78	9691
2026-01-22 08:08:30.01	170.24	3.73	-53.4	-61.5	3.8	7.46e-01	0	40	104	0	78	9162
2026-01-22 08:08:33.03	170.33	3.96	-53.3	-61.3	3.8	7.44e-01	0	40	104	0	78	8927
2026-01-22 08:08:36.06	170.42	4.19	-51.8	-57.1	4.8	7.06e-01	0	40	104	0	75	6510
2026-01-22 08:08:39.08	170.51	4.43	-49.0	-52.1	9.0	6.07e-01	0	40	0	41943040	69	5215
2026-01-22 08:08:42.10	170.60	4.66	-46.5	-49.0	12.1	5.95e-01	0	40	0	88080384	64	4855
2026-01-22 08:08:45.12	170.70	4.90	-45.6	-47.9	13.2	5.92e-01	0	40	0	134217728	62	4787
2026-01-22 08:08:48.15	170.80	5.15	-46.4	-48.9	12.2	5.94e-01	0	40	0	180355072	64	4797
2026-01-22 08:08:51.17	170.90	5.39	-47.1	-49.7	11.7	5.95e-01	0	40	0	226492416	66	4665
2026-01-22 08:08:54.20	171.00	5.64	-46.3	-48.7	12.5	5.93e-01	0	40	0	272629760	64	4699
2026-01-22 08:08:57.23	171.10	5.90	-45.9	-48.2	13.1	5.92e-01	0	40	0	320864256	62	4967
2026-01-22 08:09:00.25	171.21	6.15	-45.4	-47.7	13.5	6.07e-01	0	40	0	367001600	62	4660
2026-01-22 08:09:03.28	171.32	6.41	-44.6	-46.8	14.3	6.00e-01	0	40	0	413138944	61	4463
2026-01-22 08:09:06.30	171.43	6.67	-45.4	-47.6	13.5	5.99e-01	0	40	0	459276288	61	4913
2026-01-22 08:09:09.33	171.54	6.94	-45.0	-47.2	14.0	6.02e-01	0	40	0	505413632	61	4668
2026-01-22 08:09:12.35	171.66	7.21	-44.8	-47.0	14.2	6.02e-01	0	40	0	551550976	61	4548
2026-01-22 08:09:15.37	171.77	7.49	-44.5	-46.7	14.4	5.98e-01	0	40	0	597688320	60	4666
2026-01-22 08:09:18.39	171.89	7.76	-44.5	-46.6	14.6	5.99e-01	0	41	0	643825664	60	4614
2026-01-22 08:09:21.42	172.02	8.05	-44.4	-46.5	14.6	5.97e-01	0	40	0	689963008	60	4593
2026-01-22 08:09:24.44	172.14	8.33	-44.2	-46.3	14.9	6.01e-01	0	40	0	738197504	60	4467
2026-01-22 08:09:27.47	172.27	8.62	-44.4	-46.6	14.6	6.01e-01	0	41	0	784334848	59	4876
2026-01-22 08:09:30.50	172.40	8.92	-44.2	-46.3	14.8	6.02e-01	0	41	0	830472192	59	4742
2026-01-22 08:09:33.53	172.54	9.22	-44.0	-46.1	15.1	6.03e-01	0	41	0	876609536	59	4611
2026-01-22 08:09:36.55	172.67	9.52	-43.9	-45.9	15.2	6.04e-01	0	41	0	924844032	59	4526
2026-01-22 08:09:39.58	172.81	9.83	-43.7	-45.7	15.4	6.01e-01	0	41	0	970981376	59	4437
2026-01-22 08:09:42.60	172.96	10.15	-43.6	-45.6	15.5	6.03e-01	0	41	0	1017118720	59	4342
2026-01-22 08:09:45.63	173.11	10.47	-43.4	-45.4	15.6	6.05e-01	0	41	0	1063256064	58	4521
2026-01-22 08:09:48.66	173.26	10.80	-43.3	-45.3	15.7	6.03e-01	0	41	0	1109393408	58	4473
2026-01-22 08:09:51.68	173.41	11.13	-43.1	-45.1	16.0	6.06e-01	0	41	0	1155530752	58	4375
2026-01-22 08:09:54.71	173.57	11.47	-43.1	-45.1	16.0	6.05e-01	0	41	0	1201668096	57	4610
2026-01-22 08:09:57.73	173.74	11.81	-43.0	-45.0	16.1	6.06e-01	0	41	0	1249902592	57	4560
2026-01-22 08:10:00.75	173.91	12.16	-42.9	-44.8	16.2	6.03e-01	0	41	0	1296039936	57	4468
2026-01-22 08:10:03.78	174.08	12.52	-42.6	-44.5	16.5	6.03e-01	0	41	0	1342177280	57	4333
2026-01-22 08:10:06.80	174.26	12.88	-42.5	-44.4	16.5	6.03e-01	0	41	0	1388314624	56	4526
2026-01-22 08:10:09.83	174.44	13.25	-42.3	-44.2	16.7	6.04e-01	0	41	0	1436549120	56	4419
2026-01-22 08:10:12.85	174.63	13.63	-42.2	-44.1	17.0	6.06e-01	0	41	0	1482686464	55	4651
2026-01-22 08:10:15.88	174.82	14.01	-42.1	-44.1	17.0	6.01e-01	0	41	0	1528823808	55	4614
2026-01-22 08:10:18.90	175.02	14.41	-41.9	-43.9	17.2	6.03e-01	0	41	0	1574961152	55	4506
2026-01-22 08:10:21.93	175.23	14.81	-41.8	-43.7	17.3	6.05e-01	0	41	0	1621098496	55	4420
2026-01-22 08:10:24.96	175.44	15.22	-41.6	-43.5	17.5	6.06e-01	0	41	0	1667235840	55	4329
2026-01-22 08:10:27.98	175.66	15.64	-41.4	-43.3	17.6	6.06e-01	0	41	0	1713373184	54	4492
2026-01-22 08:10:31.01	175.88	16.07	-41.1	-43.1	17.8	6.02e-01	0	41	0	1759510528	54	4357
2026-01-22 08:10:34.04	176.12	16.51	-41.0	-43.0	17.9	6.05e-01	0	41	0	1807745024	54	4300
2026-01-22 08:10:37.07	176.36	16.96	-40.9	-42.8	18.0	6.06e-01	0	41	0	1853882368	53	4464
2026-01-22 08:10:40.09	176.61	17.42	-40.6	-42.6	18.1	6.04e-01	0	41	0	1900019712	53	4352
2026-01-22 08:10:43.12	176.87	17.89	-40.6	-42.5	18.2	6.06e-01	0	41	0	1946157056	53	4307
2026-01-22 08:10:46.15	177.13	18.37	-40.6	-42.6	18.1	6.04e-01	0	41	0	1994391552	53	4350
2026-01-22 08:10:49.18	177.41	18.86	-40.3	-42.2	18.4	5.97e-01	0	41	0	2038431744	52	4428
2026-01-22 08:10:52.20	177.70	19.37	-40.2	-42.1	18.5	5.90e-01	0	41	0	2084569088	52	4374
2026-01-22 08:10:55.23	178.00	19.89	-40.1	-42.1	18.5	5.90e-01	0	41	0	2132803584	52	4388
2026-01-22 08:10:58.26	178.31	20.42	-40.2	-42.3	18.5	5.90e-01	0	41	0	2178940928	52	4446
2026-01-22 08:11:01.28	178.63	20.97	-40.1	-42.2	18.5	5.90e-01	0	41	0	2225078272	52	4437
2026-01-22 08:11:04.30	178.96	21.52	-39.9	-41.8	18.8	5.90e-01	0	41	0	2271215616	51	4488
2026-01-22 08:11:07.33	179.31	22.10	-39.6	-41.5	19.1	5.90e-01	0	41	0	2319450112	51	4309
2026-01-22 08:11:10.35	179.67	22.69	-39.5	-41.3	19.2	5.89e-01	0	41	0	2365587456	51	4202
2026-01-22 08:11:13.37	180.05	23.30	-39.7	-41.5	19.0	5.90e-01	0	41	0	2411724800	51	4309
2026-01-22 08:11:16.40	180.44	23.92	-39.7	-41.4	19.1	5.95e-01	0	41	0	2457862144	51	4251
2026-01-22 08:11:19.42	180.85	24.56	-39.6	-41.2	19.3	5.96e-01	0	41	0	2503999488	51	4180
2026-01-22 08:11:22.45	181.28	25.22	-39.6	-41.3	19.2	5.99e-01	0	41	0	2550136832	51	4204
2026-01-22 08:11:25.47	181.73	25.90	-39.7	-41.3	19.1	6.00e-01	0	41	0	2596274176	51	4222
2026-01-22 08:11:28.50	182.21	26.60	-39.6	-41.2	19.2	6.00e-01	0	41	0	2642411520	51	4181
2026-01-22 08:11:31.53	182.70	27.32	-39.6	-41.2	19.2	5.91e-01	0	41	0	2690646016	51	4193
2026-01-22 08:11:34.55	183.22	28.06	-39.6	-41.1	19.3	5.96e-01	0	41	0	2736783360	51	4138
2026-01-22 08:11:37.58	183.77	28.82	-39.7	-41.3	19.2	5.97e-01	0	41	0	2782920704	51	4227
2026-01-22 08:11:40.60	184.34	29.61	-39.7	-41.3	19.2	5.93e-01	0	41	0	2829058048	51	4237
2026-01-22 08:11:43.62	184.95	30.42	-39.8	-41.4	19.1	5.97e-01	0	41	0	2875195392	51	4287
2026-01-22 08:11:46.65	185.59	31.25	-39.8	-41.4	19.1	6.01e-01	0	41	0	2923429888	51	4274
2026-01-22 08:11:49.67	186.27	32.11	-39.7	-41.4	19.1	5.96e-01	0	41	0	2969567232	51	4264
2026-01-22 08:11:52.70	186.98	32.99	-39.6	-41.3	19.2	5.95e-01	0	41	0	3015704576	51	4208
2026-01-22 08:11:55.73	187.74	33.91	-39.9	-41.7	18.9	5.97e-01	0	41	0	3061841920	51	4419
2026-01-22 08:11:58.75	188.55	34.84	-39.7	-41.4	19.2	5.96e-01	0	41	0	3107979264	51	4249
2026-01-22 08:12:01.78	189.41	35.81	-39.5	-41.3	19.3	5.96e-01	0	41	0	3154116608	50	4444
2026-01-22 08:12:04.80	190.32	36.80	-39.4	-41.2	19.3	5.98e-01	0	41	0	3200253952	50	4402
2026-01-22 08:12:07.83	191.29	37.82	-38.9	-40.6	19.6	5.92e-01	0	41	0	3246391296	49	4385
2026-01-22 08:12:10.85	192.33	38.87	-38.6	-40.6	19.5	5.95e-01	0	41	0	3294625792	49	4387
2026-01-22 08:12:13.88	193.44	39.95	-38.7	-40.7	19.5	6.00e-01	0	41	0	3340763136	49	4422
2026-01-22 08:12:16.91	194.63	41.05	-36.8	-38.9	19.5	6.00e-01	0	41	0	3386900480	45	4520
2026-01-22 08:12:19.93	195.91	42.17	-36.4	-38.4	19.8	5.97e-01	0	41	0	3435134976	44	4510
2026-01-22 08:12:22.96	197.28	43.32	-36.4	-38.4	19.8	6.01e-01	0	41	0	3481272320	44	4495
2026-01-22 08:12:25.98	198.76	44.49	-36.2	-38.3	19.9	5.94e-01	0	41	0	3525312512	44	4456
2026-01-22 08:12:29.00	200.36	45.68	-36.2	-38.3	20.0	5.99e-01	0	41	0	3571449856	43	4736
2026-01-22 08:12:32.03	202.09	46.88	-36.2	-38.3	20.0	5.94e-01	0	41	0	3619684352	43	4751
2026-01-22 08:12:35.05	203.95	48.09	-35.9	-37.9	20.2	5.96e-01	0	41	0	3665821696	43	4525
2026-01-22 08:12:38.08	205.98	49.31	-36.0	-38.0	20.1	5.98e-01	0	41	0	3711959040	43	4567
2026-01-22 08:12:41.10	208.17	50.52	-36.1	-38.2	20.0	6.00e-01	0	41	0	3758096384	43	4670
2026-01-22 08:12:44.12	210.55	51.72	-35.9	-38.0	20.2	6.03e-01	0	41	0	3804233728	43	4558
2026-01-22 08:12:47.15	213.13	52.90	-35.9	-38.0	20.1	5.94e-01	0	41	0	3852468224	43	4594
2026-01-22 08:12:50.17	215.93	54.05	-36.5	-38.7	19.8	5.96e-01	0	41	0	3898605568	43	4947
2026-01-22 08:12:53.20	218.96	55.15	-36.6	-38.6	19.7	5.96e-01	0	41	0	3944742912	44	4628
2026-01-22 08:12:56.22	222.23	56.19	-36.4	-38.5	19.8	5.96e-01	0	41	0	3990880256	44	4581
2026-01-22 08:12:59.24	225.74	57.16	-36.7	-38.8	19.6	5.97e-01	0	41	0	4037017600	44	4724
2026-01-22 08:13:02.27	229.52	58.03	-36.8	-38.9	19.6	5.96e-01	0	41	0	4083154944	44	4786
2026-01-22 08:13:05.29	233.52	58.80	-36.9	-39.0	19.5	5.97e-01	0	41	0	4129292288	44	4839
2026-01-22 08:13:08.32	237.76	59.44	-37.2	-39.4	19.3	5.97e-01	0	41	0	4175429632	44	5096
2026-01-22 08:13:11.34	242.17	59.94	-37.0	-39.3	19.4	5.94e-01	0	41	0	4223664128	45	4721
2026-01-22 08:13:14.36	246.73	60.29	-37.0	-39.0	19.6	5.94e-01	0	41	0	4269801472	45	4551
2026-01-22 08:13:17.39	251.41	60.48	-37.0	-39.0	19.6	5.96e-01	0	41	0	4315938816	45	4565
2026-01-22 08:13:20.41	256.11	60.50	-37.0	-39.2	19.5	5.97e-01	0	41	0	4362076160	45	4669
2026-01-22 08:13:23.44	260.80	60.36	-37.3	-39.4	19.4	5.95e-01	0	41	0	4410310656	45	4765
2026-01-22 08:13:26.46	265.39	60.05	-36.9	-38.9	19.7	5.94e-01	0	41	0	4456448000	45	4511
2026-01-22 08:13:29.48	269.84	59.58	-36.9	-38.9	19.7	6.00e-01	0	41	0	4502585344	45	4545
2026-01-22 08:13:32.51	274.13	58.97	-36.8	-38.7	19.8	5.97e-01	0	41	0	4548722688	45	4413
2026-01-22 08:13:35.53	278.18	58.23	-36.7	-38.6	19.8	5.95e-01	0	41	0	4594860032	45	4383
2026-01-22 08:13:38.55	282.00	57.39	-36.5	-38.4	19.9	5.94e-01	0	41	0	4640997376	44	4509
2026-01-22 08:13:41.58	285.58	56.44	-36.4	-38.1	20.1	5.95e-01	0	41	0	4687134720	44	4388
2026-01-22 08:13:44.60	288.91	55.42	-36.4	-38.3	20.0	5.99e-01	0	41	0	4733272064	44	4477
2026-01-22 08:13:47.62	291.99	54.34	-36.2	-38.2	20.1	5.95e-01	0	41	0	4779409408	44	4393
2026-01-22 08:13:50.64	294.83	53.20	-36.1	-38.0	20.2	5.98e-01	0	41	0	4827643904	43	4589
2026-01-22 08:13:53.67	297.47	52.03	-36.0	-37.9	20.3	5.97e-01	0	41	0	4873781248	43	4515
2026-01-22 08:13:56.69	299.89	50.84	-35.9	-37.8	20.4	5.95e-01	0	41	0	4919918592	43	4447
2026-01-22 08:13:59.72	302.13	49.63	-35.7	-37.6	20.6	6.00e-01	0	41	0	4966055936	43	4378
2026-01-22 08:14:02.74	304.19	48.42	-35.9	-37.9	20.3	5.96e-01	0	41	0	5012193280	43	4536
2026-01-22 08:14:05.76	306.09	47.22	-36.1	-38.3	20.2	5.96e-01	0	41	0	5058330624	43	4710
2026-01-22 08:14:08.79	307.85	46.01	-36.3	-38.4	20.0	5.95e-01	0	41	0	5104467968	43	4776
2026-01-22 08:14:11.81	309.47	44.83	-36.5	-38.4	20.0	5.95e-01	0	41	0	5150605312	43	4773
2026-01-22 08:14:14.83	310.98	43.66	-36.7	-38.5	19.9	6.00e-01	0	41	0	5198839808	44	4569
2026-01-22 08:14:17.85	312.37	42.51	-36.9	-38.6	19.8	5.95e-01	0	41	0	5244977152	44	4635
2026-01-22 08:14:20.88	313.68	41.38	-37.3	-39.2	19.4	5.95e-01	0	41	0	5291114496	45	4684
2026-01-22 08:14:23.90	314.89	40.28	-37.7	-39.7	19.3	5.95e-01	0	41	0	5337251840	46	4667
2026-01-22 08:14:26.93	316.02	39.20	-37.9	-39.8	19.1	5.94e-01	0	41	0	5385486336	46	4751
2026-01-22 08:14:29.95	317.07	38.15	-38.2	-40.1	18.9	5.98e-01	0	41	0	5431623680	46	4895
2026-01-22 08:14:32.98	318.06	37.12	-38.5	-40.4	18.7	5.93e-01	0	41	0	5477761024	47	4801
2026-01-22 08:14:36.00	318.98	36.13	-39.8	-41.7	19.1	5.92e-01	0	41	0	5523898368	50	4679
2026-01-22 08:14:39.02	319.85	35.16	-39.9	-41.8	19.1	5.96e-01	0	41	0	5570035712	50	4713
2026-01-22 08:14:42.05	320.67	34.22	-40.0	-41.9	19.0	5.90e-01	0	41	0	5616173056	50	4788
2026-01-22 08:14:45.07	321.44	33.31	-39.8	-41.6	19.1	5.90e-01	0	42	0	5662310400	50	4642
2026-01-22 08:14:48.10	322.17	32.42	-39.8	-41.7	19.1	5.90e-01	0	41	0	5708447744	50	4668
2026-01-22 08:14:51.12	322.85	31.55	-40.0	-41.9	18.9	5.89e-01	0	41	0	5754585088	50	4814
2026-01-22 08:14:54.14	323.50	30.72	-54.7	-63.6	3.8	7.45e-01	0	41	104	5783945216	80	10380
2026-01-22 08:14:57.17	324.11	29.90	-54.7	-63.5	3.8	7.46e-01	0	41	104	5783945216	80	10239
2026-01-22 08:15:00.19	324.70	29.12	-54.7	-63.5	3.8	7.45e-01	0	41	104	5783945216	80	10247
2026-01-22 08:15:03.22	325.25	28.35	-54.7	-63.5	3.8	7.45e-01	0	41	104	5783945216	80	10234
2026-01-22 08:15:06.24	325.78	27.61	-54.6	-63.5	3.8	7.44e-01	0	42	104	5783945216	80	10242
2026-01-22 08:15:09.26	326.28	26.89	-54.6	-63.5	3.8	7.45e-01	0	41	104	5783945216	80	10216
2026-01-22 08:15:12.29	326.76	26.18	-54.6	-63.5	3.8	7.45e-01	0	41	104	5783945216	80	10183
2026-01-22 08:15:15.31	327.21	25.50	-54.6	-63.4	3.8	7.45e-01	0	41	104	5783945216	80	10120
2026-01-22 08:15:18.33	327.65	24.84	-54.5	-63.4	3.8	7.45e-01	0	41	104	5783945216	80	10106
2026-01-22 08:15:21.36	328.07	24.20	-54.5	-63.4	3.8	7.45e-01	0	41	104	5783945216	80	10080
2026-01-22 08:15:24.38	328.47	23.57	-54.5	-63.4	3.8	7.46e-01	0	41	104	5783945216	80	10069
2026-01-22 08:15:27.40	328.85	22.96	-54.5	-63.3	3.8	7.46e-01	0	41	104	5783945216	80	10025
2026-01-22 08:15:30.43	329.21	22.37	-54.4	-63.3	3.8	7.47e-01	0	41	104	5783945216	80	9950
2026-01-22 08:15:33.45	329.57	21.79	-54.4	-63.3	3.8	7.46e-01	0	41	104	5783945216	80	9962
2026-01-22 08:15:36.48	329.90	21.23	-54.4	-63.2	3.8	7.45e-01	0	41	104	5783945216	80	9937
2026-01-22 08:15:39.50	330.23	20.68	-54.4	-63.2	3.8	7.46e-01	0	41	104	5783945216	80	9891
2026-01-22 08:15:42.52	330.54	20.15	-54.3	-63.2	3.8	7.46e-01	0	41	104	5783945216	80	9881
2026-01-22 08:15:45.55	330.84	19.63	-54.3	-63.2	3.8	7.45e-01	0	42	104	5783945216	80	9839
2026-01-22 08:15:48.57	331.13	19.12	-54.3	-63.1	3.8	7.44e-01	0	42	104	5783945216	80	9808
2026-01-22 08:15:51.60	331.41	18.63	-54.3	-63.1	3.8	7.45e-01	0	41	104	5783945216	80	9785
2026-01-22 08:15:54.62	331.68	18.14	-54.2	-63.1	3.8	7.44e-01	0	41	104	5783945216	80	9776
2026-01-22 08:15:57.64	331.95	17.67	-54.3	-63.0	3.8	7.47e-01	0	41	104	5783945216	80	9706
2026-01-22 08:16:00.64	332.20	17.22	-54.2	-63.0	3.8	7.46e-01	0	41	104	5783945216	80	9711
2026-01-22 08:16:03.67	332.44	16.76	-54.2	-63.0	3.8	7.45e-01	0	41	104	5783945216	79	10287
2026-01-22 08:16:06.69	332.68	16.32	-54.2	-63.0	3.8	7.46e-01	0	41	104	5783945216	79	10226
2026-01-22 08:16:09.72	332.91	15.89	-54.2	-63.0	3.8	7.46e-01	0	41	104	5783945216	79	10214
2026-01-22 08:16:12.74	333.13	15.47	-54.1	-62.9	3.8	7.45e-01	0	41	104	5783945216	78	10763
2026-01-22 08:16:15.77	333.34	15.06	-54.1	-62.9	3.8	7.47e-01	0	41	104	5783945216	78	10714
2026-01-22 08:16:18.79	333.55	14.66	-54.0	-62.9	3.8	7.45e-01	0	41	104	5783945216	78	10663
2026-01-22 08:16:21.82	333.75	14.26	-54.1	-62.9	3.8	7.47e-01	0	41	104	5783945216	78	10677
2026-01-22 08:16:24.84	333.95	13.87	-54.0	-62.8	3.8	7.47e-01	0	41	104	5783945216	78	10610
2026-01-22 08:16:27.87	334.14	13.49	-54.0	-62.8	3.8	7.45e-01	0	41	104	5783945216	78	10592
2026-01-22 08:16:30.89	334.33	13.12	-53.9	-62.7	3.8	7.46e-01	0	41	104	5783945216	78	10530
2026-01-22 08:16:33.92	334.51	12.76	-53.9	-62.7	3.8	7.46e-01	0	41	104	5783945216	78	10529
2026-01-22 08:16:36.95	334.68	12.40	-53.9	-62.7	3.8	7.47e-01	0	41	104	5783945216	78	10466
2026-01-22 08:16:39.97	334.85	12.05	-53.9	-62.7	3.8	7.46e-01	0	41	104	5783945216	78	10489
2026-01-22 08:16:43.00	335.02	11.70	-53.8	-62.7	3.8	7.46e-01	0	41	104	5783945216	78	10435
2026-01-22 08:16:46.02	335.18	11.36	-53.9	-62.7	3.8	7.46e-01	0	41	104	5783945216	78	10486
2026-01-22 08:16:49.05	335.34	11.03	-53.8	-62.6	3.8	7.47e-01	0	41	104	5783945216	78	10363
2026-01-22 08:16:52.07	335.49	10.71	-53.8	-62.6	3.8	7.44e-01	0	41	104	5783945216	78	10355
2026-01-22 08:16:55.10	335.64	10.38	-53.7	-62.6	3.8	7.45e-01	0	41	104	5783945216	78	10316
2026-01-22 08:16:58.12	335.79	10.07	-53.8	-62.6	3.8	7.45e-01	0	41	104	5783945216	78	10325
2026-01-22 08:17:01.14	335.93	9.76	-53.6	-62.4	3.8	7.45e-01	0	41	104	5783945216	77	10770
2026-01-22 08:17:04.17	336.07	9.45	-53.6	-62.4	3.8	7.44e-01	0	41	104	5783945216	77	10766
2026-01-22 08:17:07.19	336.21	9.15	-53.6	-62.4	3.8	7.45e-01	0	41	104	5783945216	77	10775
2026-01-22 08:17:10.22	336.34	8.85	-53.6	-62.5	3.8	7.46e-01	0	41	104	5783945216	77	10795
2026-01-22 08:17:13.24	336.47	8.56	-53.5	-62.3	3.8	7.44e-01	0	41	104	5783945216	77	10650
2026-01-22 08:17:16.27	336.60	8.28	-53.5	-62.4	3.8	7.46e-01	0	41	104	5783945216	77	10685
2026-01-22 08:17:19.29	336.73	7.99	-53.5	-62.3	3.8	7.46e-01	0	41	104	5783945216	77	10624
2026-01-22 08:17:22.32	336.85	7.71	-53.5	-62.3	3.8	7.44e-01	0	41	104	5783945216	77	10629
2026-01-22 08:17:25.34	336.97	7.44	-53.5	-62.3	3.8	7.46e-01	0	41	104	5783945216	77	10580
2026-01-22 08:17:28.37	337.09	7.17	-53.4	-62.2	3.8	7.46e-01	0	42	104	5783945216	77	10519
2026-01-22 08:17:31.39	337.20	6.90	-53.4	-62.2	3.8	7.44e-01	0	41	104	5783945216	77	10492
2026-01-22 08:17:34.42	337.31	6.64	-53.4	-62.2	3.8	7.45e-01	0	41	104	5783945216	77	10480
2026-01-22 08:17:37.44	337.42	6.38	-53.4	-62.2	3.8	7.46e-01	0	41	104	5783945216	77	10424
2026-01-22 08:17:40.46	337.53	6.12	-53.3	-62.2	3.8	7.45e-01	0	41	104	5783945216	77	10438
2026-01-22 08:17:43.49	337.64	5.87	-53.3	-62.1	3.8	7.45e-01	0	41	104	5783945216	77	10367
2026-01-22 08:17:46.51	337.74	5.62	-53.3	-62.1	3.8	7.46e-01	0	41	104	5783945216	77	10358
2026-01-22 08:17:49.54	337.84	5.37	-53.2	-62.1	3.8	7.45e-01	0	41	104	5783945216	77	10301
2026-01-22 08:17:52.56	337.94	5.13	-53.0	-61.8	3.8	7.46e-01	0	41	104	5783945216	75	11269
2026-01-22 08:17:55.58	338.04	4.89	-53.6	-62.4	3.8	7.45e-01	0	41	104	5783945216	77	10667
2026-01-22 08:17:58.61	338.14	4.65	-54.1	-62.9	3.8	7.45e-01	0	41	104	5783945216	78	10757
2026-01-22 08:18:01.63	338.24	4.41	-54.4	-63.2	3.8	7.47e-01	0	41	104	5783945216	79	10517
2026-01-22 08:18:04.65	338.33	4.18	-54.5	-63.3	3.8	7.44e-01	0	41	104	5783945216	79	10548
2026-01-22 08:18:07.68	338.42	3.95	-54.2	-63.0	3.8	7.45e-01	0	41	104	5783945216	79	10287
2026-01-22 08:18:10.71	338.51	3.72	-54.3	-63.1	3.8	7.46e-01	0	41	104	5783945216	79	10374
2026-01-22 08:18:13.73	338.60	3.50	-54.4	-63.2	3.8	7.44e-01	0	41	104	5783945216	79	10482
2026-01-22 08:18:16.76	338.69	3.27	-54.4	-63.2	3.8	7.45e-01	0	41	104	5783945216	79	10479
2026-01-22 08:18:19.78	338.77	3.05	-54.2	-63.2	3.8	7.45e-01	0	41	104	5783945216	79	10438
2026-01-22 08:18:22.81	338.86	2.84	-54.3	-63.2	3.8	7.46e-01	0	41	104	5783945216	79	10427
2026-01-22 08:18:25.83	338.94	2.62	-54.2	-63.1	3.8	7.46e-01	0	41	104	5783945216	79	10403
2026-01-22 08:18:28.86	339.02	2.41	-54.3	-63.1	3.8	7.47e-01	0	41	104	5783945216	79	10385
2026-01-22 08:18:31.88	339.10	2.19	-54.3	-63.1	3.8	7.47e-01	0	41	104	5783945216	79	10405

#Closed at: 2026-01-22 08:18:34
#Recorded file [5783 MB]: D:/lorett/data/31041_260122_110805.dat