passes_logs/2026/01/22/R3.2S_Murmansk/R3.2S_Murmansk__20260122_042042_NOAA_20_JPSS-1_rec.log

#Pass ID: 20260122_042042_NOAA 20 (JPSS-1)
#Satellite: NOAA 20 (JPSS-1)
#Configuration: NOAA 20
#almurnet v.1.7.20251203
#Start time: 2026-01-22 04:20:42

#Version: 2.2.20231116
#Station: R3.2S_Murmansk
#Location: 33.079688 lon 68.888172 lat
#TLE: 1 43013U 17073A   26021.46221703  .00000173  00000+0  10299-3 0  9999
#TLE: 2 43013  98.7644 322.3335 0001238  29.7597 330.3649 14.19538314423652

#Time	Az	El	Level	Level2	SNR	BER	BlckErr	Temp	State	Recorded	gain1	gain2
2026-01-22 04:20:42.61	51.07	2.00	-49.9	-64.9	3.8	1.49e+00	0	39	0	0	70	21348
2026-01-22 04:20:45.62	50.89	2.17	-49.9	-64.9	3.8	1.49e+00	0	39	104	0	70	21394
2026-01-22 04:20:48.65	50.70	2.34	-49.9	-64.9	3.8	1.49e+00	0	39	104	0	70	21333
2026-01-22 04:20:51.68	50.51	2.52	-49.9	-64.9	3.8	1.49e+00	0	39	104	0	70	21351
2026-01-22 04:20:54.70	50.31	2.69	-49.9	-64.9	3.8	1.49e+00	0	39	104	0	70	21349
2026-01-22 04:20:57.73	50.12	2.87	-49.9	-64.9	3.8	1.49e+00	0	39	104	0	70	21374
2026-01-22 04:21:00.75	49.92	3.05	-49.9	-64.9	3.8	1.49e+00	0	39	104	0	70	21345
2026-01-22 04:21:03.77	49.72	3.22	-49.9	-64.9	3.8	1.49e+00	0	39	104	0	70	21370
2026-01-22 04:21:06.80	49.51	3.40	-49.9	-64.9	3.8	1.49e+00	0	39	104	0	70	21309
2026-01-22 04:21:09.82	49.31	3.58	-49.9	-64.9	3.8	1.49e+00	0	40	104	0	70	21394
2026-01-22 04:21:12.85	49.10	3.76	-49.9	-64.9	3.8	1.49e+00	0	39	104	0	70	21367
2026-01-22 04:21:15.87	48.89	3.94	-49.9	-64.9	3.8	1.49e+00	0	39	104	0	70	21327
2026-01-22 04:21:18.90	48.67	4.13	-49.9	-64.9	3.8	1.49e+00	0	40	104	0	70	21315
2026-01-22 04:21:21.92	48.46	4.31	-49.9	-64.9	3.8	1.49e+00	0	40	104	0	70	21322
2026-01-22 04:21:24.95	48.24	4.49	-49.9	-64.9	3.8	1.49e+00	0	40	104	0	70	21348
2026-01-22 04:21:27.97	48.01	4.68	-49.9	-64.9	3.8	1.49e+00	0	40	104	0	70	21359
2026-01-22 04:21:31.00	47.79	4.86	-49.9	-64.9	3.8	1.49e+00	0	40	104	0	70	21390
2026-01-22 04:21:34.02	47.56	5.05	-49.9	-64.9	3.8	1.49e+00	0	40	104	0	70	21371
2026-01-22 04:21:37.05	47.33	5.23	-49.9	-64.9	3.8	1.49e+00	0	40	104	0	70	21339
2026-01-22 04:21:40.08	47.09	5.42	-49.9	-64.9	3.8	1.49e+00	0	40	104	0	70	21350
2026-01-22 04:21:43.10	46.85	5.61	-49.9	-64.9	3.8	1.49e+00	0	40	104	0	70	21350
2026-01-22 04:21:46.13	46.61	5.80	-49.9	-64.9	3.8	1.49e+00	0	40	104	0	70	21350
2026-01-22 04:21:49.15	46.36	5.99	-49.9	-64.9	3.8	1.49e+00	0	40	104	0	70	21331
2026-01-22 04:21:52.17	46.12	6.18	-49.9	-64.9	3.8	1.49e+00	0	40	104	0	70	21380
2026-01-22 04:21:55.20	45.86	6.37	-49.9	-64.9	3.8	1.49e+00	0	40	104	0	70	21407
2026-01-22 04:21:58.23	45.61	6.57	-49.9	-64.9	3.8	1.49e+00	0	40	104	0	70	21397
2026-01-22 04:22:01.25	45.35	6.76	-49.9	-64.9	3.8	1.49e+00	0	40	104	0	70	21394
2026-01-22 04:22:04.27	45.09	6.96	-49.9	-64.9	3.8	1.49e+00	0	40	104	0	70	21346
2026-01-22 04:22:07.30	44.82	7.15	-49.9	-64.9	3.8	1.49e+00	0	40	104	0	70	21344
2026-01-22 04:22:10.32	44.55	7.35	-50.0	-64.9	3.8	1.49e+00	0	40	104	0	70	21371
2026-01-22 04:22:13.35	44.28	7.55	-49.9	-64.9	3.8	1.49e+00	0	40	104	0	70	21388
2026-01-22 04:22:16.37	44.00	7.74	-49.9	-64.9	3.8	1.49e+00	0	40	104	0	70	21382
2026-01-22 04:22:19.39	43.72	7.94	-49.9	-64.9	3.8	1.49e+00	0	40	104	0	70	21372
2026-01-22 04:22:22.42	43.43	8.14	-49.9	-64.9	3.8	1.49e+00	0	41	104	0	70	21348
2026-01-22 04:22:25.44	43.14	8.34	-49.9	-64.9	3.8	1.49e+00	0	40	104	0	70	21396
2026-01-22 04:22:28.47	42.85	8.55	-49.9	-64.9	3.8	1.49e+00	0	40	104	0	70	21394
2026-01-22 04:22:31.49	42.55	8.75	-49.9	-64.9	3.8	1.49e+00	0	41	104	0	70	21365
2026-01-22 04:22:34.51	42.25	8.95	-49.9	-64.9	3.8	1.49e+00	0	40	104	0	70	21364
2026-01-22 04:22:37.54	41.94	9.16	-50.0	-64.9	3.8	1.49e+00	0	40	104	0	70	21342
2026-01-22 04:22:40.56	41.63	9.36	-49.9	-64.9	3.8	1.49e+00	0	40	104	0	70	21397
2026-01-22 04:22:43.58	41.32	9.57	-49.9	-64.9	3.8	1.49e+00	0	40	104	0	70	21426
2026-01-22 04:22:46.61	41.00	9.78	-49.9	-64.9	3.8	1.49e+00	0	40	104	0	70	21358
2026-01-22 04:22:49.63	40.67	9.98	-49.9	-64.9	3.8	1.49e+00	0	40	104	0	70	21380
2026-01-22 04:22:52.65	40.34	10.19	-49.9	-64.9	3.8	1.49e+00	0	40	104	0	70	21316
2026-01-22 04:22:55.68	40.01	10.40	-49.9	-64.9	3.8	1.49e+00	0	40	104	0	70	21390
2026-01-22 04:22:58.71	39.67	10.61	-49.9	-64.9	3.8	1.49e+00	0	40	104	0	70	21386
2026-01-22 04:23:01.73	39.32	10.82	-49.9	-64.9	3.8	1.49e+00	0	41	104	0	70	21420
2026-01-22 04:23:04.76	38.97	11.04	-50.0	-64.9	3.8	1.49e+00	0	40	104	0	70	21431
2026-01-22 04:23:07.78	38.62	11.25	-50.0	-64.9	3.8	1.49e+00	0	41	104	0	70	21418
2026-01-22 04:23:10.81	38.25	11.46	-49.9	-64.9	3.8	1.49e+00	0	40	104	0	70	21340
2026-01-22 04:23:13.83	37.89	11.68	-50.0	-64.9	3.8	1.49e+00	0	40	104	0	70	21350
2026-01-22 04:23:16.86	37.52	11.89	-50.0	-64.9	3.8	1.49e+00	0	40	104	0	70	21403
2026-01-22 04:23:19.88	37.14	12.11	-49.9	-64.9	3.8	1.49e+00	0	40	104	0	70	21417
2026-01-22 04:23:22.90	36.76	12.32	-49.9	-64.9	3.8	1.49e+00	0	41	104	0	70	21420
2026-01-22 04:23:25.93	36.37	12.54	-49.9	-64.9	3.8	1.49e+00	0	41	104	0	70	21380
2026-01-22 04:23:28.95	35.97	12.76	-49.9	-64.9	3.8	1.49e+00	0	41	104	0	70	21317
2026-01-22 04:23:31.98	35.57	12.97	-49.9	-64.9	3.8	1.49e+00	0	41	104	0	70	21413
2026-01-22 04:23:35.00	35.17	13.19	-49.9	-64.9	3.8	1.49e+00	0	41	104	0	70	21357
2026-01-22 04:23:38.03	34.75	13.41	-49.9	-64.9	3.8	1.49e+00	0	41	104	0	70	21402
2026-01-22 04:23:41.05	34.33	13.63	-49.9	-64.9	3.8	1.49e+00	0	41	104	0	70	21424
2026-01-22 04:23:44.07	33.91	13.85	-49.9	-64.9	3.8	1.49e+00	0	40	104	0	70	21385
2026-01-22 04:23:47.10	33.48	14.07	-49.9	-64.9	3.8	1.49e+00	0	41	104	0	70	21379
2026-01-22 04:23:50.13	33.04	14.29	-49.9	-64.9	3.8	1.49e+00	0	40	104	0	70	21346
2026-01-22 04:23:53.15	32.59	14.51	-49.9	-64.9	3.8	1.49e+00	0	41	104	0	70	21365
2026-01-22 04:23:56.18	32.14	14.73	-50.0	-64.9	3.8	1.49e+00	0	41	104	0	70	21418
2026-01-22 04:23:59.20	31.68	14.95	-49.9	-64.9	3.8	1.49e+00	0	41	104	0	70	21376
2026-01-22 04:24:02.22	31.21	15.17	-50.0	-64.9	3.8	1.49e+00	0	41	104	0	70	21456
2026-01-22 04:24:05.25	30.74	15.40	-49.9	-64.9	3.8	1.49e+00	0	40	104	0	70	21402
2026-01-22 04:24:08.27	30.26	15.62	-50.0	-64.9	3.8	1.49e+00	0	41	104	0	70	21462
2026-01-22 04:24:11.30	29.77	15.84	-50.0	-64.9	3.8	1.49e+00	0	41	104	0	70	21421
2026-01-22 04:24:14.32	29.28	16.06	-50.0	-64.9	3.8	1.49e+00	0	40	104	0	70	21443
2026-01-22 04:24:17.35	28.77	16.28	-49.9	-64.9	3.8	1.49e+00	0	41	104	0	70	21432
2026-01-22 04:24:20.37	28.26	16.50	-49.9	-64.9	3.8	1.49e+00	0	41	104	0	70	21413
2026-01-22 04:24:23.39	27.75	16.72	-50.0	-64.9	3.8	1.49e+00	0	41	104	0	70	21367
2026-01-22 04:24:26.42	27.22	16.94	-50.0	-64.9	3.8	1.49e+00	0	41	104	0	70	21427
2026-01-22 04:24:29.44	26.69	17.16	-50.0	-64.9	3.8	1.49e+00	0	41	104	0	70	21402
2026-01-22 04:24:32.46	26.15	17.38	-50.0	-64.9	3.8	1.49e+00	0	41	104	0	70	21372
2026-01-22 04:24:35.49	25.60	17.59	-50.0	-64.9	3.8	1.49e+00	0	40	104	0	70	21392
2026-01-22 04:24:38.51	25.04	17.81	-50.0	-64.9	3.8	1.49e+00	0	41	104	0	70	21432
2026-01-22 04:24:41.54	24.47	18.03	-49.9	-64.9	3.8	1.49e+00	0	41	104	0	70	21361
2026-01-22 04:24:44.56	23.90	18.24	-50.0	-64.9	3.8	1.49e+00	0	41	104	0	70	21396
2026-01-22 04:24:47.59	23.32	18.46	-50.0	-64.9	3.8	1.49e+00	0	41	104	0	70	21442
2026-01-22 04:24:50.61	22.73	18.67	-50.0	-64.9	3.8	1.49e+00	0	40	104	0	70	21402
2026-01-22 04:24:53.63	22.13	18.88	-50.0	-64.9	3.8	1.49e+00	0	41	104	0	70	21364
2026-01-22 04:24:56.66	21.52	19.09	-49.9	-64.9	3.8	1.49e+00	0	41	104	0	70	21433
2026-01-22 04:24:59.68	20.91	19.30	-50.0	-64.9	3.8	1.49e+00	0	41	104	0	70	21389
2026-01-22 04:25:02.70	20.28	19.50	-49.9	-64.9	3.8	1.49e+00	0	41	104	0	70	21415
2026-01-22 04:25:05.73	19.65	19.70	-49.9	-64.9	3.8	1.49e+00	0	41	104	0	70	21369
2026-01-22 04:25:08.75	19.01	19.91	-50.0	-64.9	3.8	1.49e+00	0	41	104	0	70	21379
2026-01-22 04:25:11.77	18.36	20.11	-49.9	-64.9	3.8	1.49e+00	0	41	104	0	70	21425
2026-01-22 04:25:14.80	17.70	20.30	-49.9	-64.9	3.8	1.49e+00	0	41	104	0	70	21436
2026-01-22 04:25:17.82	17.04	20.50	-49.9	-64.9	3.8	1.49e+00	0	41	104	0	70	21354
2026-01-22 04:25:20.85	16.36	20.69	-50.0	-64.9	3.8	1.49e+00	0	41	104	0	70	21392
2026-01-22 04:25:23.87	15.68	20.88	-50.0	-64.9	3.8	1.49e+00	0	41	104	0	70	21411
2026-01-22 04:25:26.90	14.98	21.07	-50.0	-64.9	3.8	1.49e+00	0	41	104	0	70	21421
2026-01-22 04:25:29.92	14.28	21.25	-50.0	-64.9	3.8	1.49e+00	0	41	104	0	70	21399
2026-01-22 04:25:32.95	13.57	21.43	-50.0	-64.9	3.8	1.49e+00	0	41	104	0	70	21411
2026-01-22 04:25:35.97	12.86	21.60	-49.9	-64.9	3.8	1.49e+00	0	41	104	0	70	21365
2026-01-22 04:25:39.00	12.13	21.78	-49.9	-64.9	3.8	1.49e+00	0	41	104	0	70	21437
2026-01-22 04:25:42.03	11.39	21.95	-49.9	-64.9	3.8	1.49e+00	0	40	104	0	70	21330
2026-01-22 04:25:45.05	10.65	22.11	-49.9	-64.9	3.8	1.49e+00	0	41	104	0	70	21382
2026-01-22 04:25:48.07	9.91	22.27	-50.0	-64.9	3.8	1.49e+00	0	41	104	0	70	21380
2026-01-22 04:25:51.10	9.15	22.43	-50.0	-64.9	3.8	1.49e+00	0	41	104	0	70	21430
2026-01-22 04:25:54.12	8.38	22.58	-50.0	-64.9	3.8	1.49e+00	0	41	104	0	70	21451
2026-01-22 04:25:57.15	7.61	22.73	-50.0	-64.9	3.8	1.49e+00	0	41	104	0	70	21342
2026-01-22 04:26:00.18	6.83	22.87	-50.0	-64.9	3.8	1.49e+00	0	41	104	0	70	21412
2026-01-22 04:26:03.20	6.04	23.00	-49.9	-64.9	3.8	1.49e+00	0	41	104	0	70	21394
2026-01-22 04:26:06.23	5.25	23.14	-50.0	-64.9	3.8	1.49e+00	0	41	104	0	70	21404
2026-01-22 04:26:09.25	4.45	23.26	-50.0	-64.9	3.8	1.49e+00	0	41	104	0	70	21429
2026-01-22 04:26:12.28	3.64	23.38	-49.9	-64.9	3.8	1.49e+00	0	41	104	0	70	21383
2026-01-22 04:26:15.30	2.83	23.50	-50.0	-64.9	3.8	1.49e+00	0	41	104	0	70	21405
2026-01-22 04:26:18.33	2.01	23.61	-50.0	-64.9	3.8	1.49e+00	0	41	104	0	70	21366
2026-01-22 04:26:21.36	1.18	23.71	-50.0	-64.9	3.8	1.49e+00	0	41	104	0	70	21429
2026-01-22 04:26:24.38	0.35	23.81	-50.0	-64.9	3.8	1.49e+00	0	41	104	0	70	21366
2026-01-22 04:26:27.41	359.52	23.90	-50.0	-64.9	3.8	1.49e+00	0	41	104	0	70	21389
2026-01-22 04:26:30.43	358.68	23.99	-50.0	-64.9	3.8	1.49e+00	0	41	104	0	70	21407
2026-01-22 04:26:33.46	357.83	24.07	-50.0	-64.9	3.8	1.49e+00	0	41	104	0	70	21418
2026-01-22 04:26:36.48	356.99	24.14	-50.0	-64.9	3.8	1.49e+00	0	41	104	0	70	21392
2026-01-22 04:26:39.51	356.13	24.20	-50.0	-64.9	3.8	1.49e+00	0	41	104	0	70	21435
2026-01-22 04:26:42.54	355.28	24.26	-49.9	-64.9	3.8	1.49e+00	0	41	104	0	70	21381
2026-01-22 04:26:45.56	354.42	24.31	-50.0	-64.9	3.8	1.49e+00	0	41	104	0	70	21366
2026-01-22 04:26:48.59	353.56	24.36	-50.0	-64.9	3.8	1.49e+00	0	41	104	0	70	21435
2026-01-22 04:26:51.61	352.69	24.40	-49.9	-64.9	3.8	1.49e+00	0	41	104	0	70	21425
2026-01-22 04:26:54.64	351.83	24.43	-49.9	-64.9	3.8	1.49e+00	0	41	104	0	70	21412
2026-01-22 04:26:57.67	350.96	24.45	-49.9	-64.9	3.8	1.49e+00	0	41	104	0	70	21386
2026-01-22 04:27:00.70	350.09	24.47	-50.0	-64.9	3.8	1.49e+00	0	41	104	0	70	21391
2026-01-22 04:27:03.72	349.22	24.48	-49.9	-64.9	3.8	1.49e+00	0	41	104	0	70	21391
2026-01-22 04:27:06.75	348.35	24.48	-50.0	-64.9	3.8	1.49e+00	0	41	104	0	70	21389
2026-01-22 04:27:09.77	347.48	24.47	-49.9	-64.9	3.8	1.49e+00	0	41	104	0	70	21433
2026-01-22 04:27:12.80	346.61	24.46	-50.0	-64.9	3.8	1.49e+00	0	41	104	0	70	21456
2026-01-22 04:27:15.83	345.74	24.44	-50.0	-64.9	3.8	1.49e+00	0	41	104	0	70	21440
2026-01-22 04:27:18.85	344.88	24.41	-50.0	-64.9	3.8	1.49e+00	0	41	104	0	70	21411
2026-01-22 04:27:21.88	344.01	24.38	-50.0	-64.9	3.8	1.49e+00	0	41	104	0	70	21440
2026-01-22 04:27:24.90	343.15	24.34	-50.0	-64.9	3.8	1.49e+00	0	41	104	0	70	21392
2026-01-22 04:27:27.93	342.29	24.29	-49.9	-64.9	3.8	1.49e+00	0	41	104	0	70	21343
2026-01-22 04:27:30.95	341.43	24.24	-49.9	-64.9	3.8	1.49e+00	0	40	104	0	70	21412
2026-01-22 04:27:33.97	340.58	24.18	-49.9	-64.9	3.8	1.49e+00	0	41	104	0	70	21441
2026-01-22 04:27:37.00	339.73	24.11	-49.9	-64.9	3.8	1.49e+00	0	41	104	0	70	21366
2026-01-22 04:27:40.03	338.88	24.03	-49.9	-64.9	3.8	1.49e+00	0	41	104	0	70	21391
2026-01-22 04:27:43.05	338.04	23.95	-50.0	-64.9	3.8	1.49e+00	0	41	104	0	70	21425
2026-01-22 04:27:46.08	337.20	23.86	-50.0	-64.9	3.8	1.49e+00	0	41	104	0	70	21366
2026-01-22 04:27:49.10	336.37	23.77	-50.0	-64.9	3.8	1.49e+00	0	41	104	0	70	21375
2026-01-22 04:27:52.13	335.54	23.67	-49.9	-64.9	3.8	1.49e+00	0	41	104	0	70	21374
2026-01-22 04:27:55.15	334.72	23.56	-50.0	-64.9	3.8	1.49e+00	0	41	104	0	70	21417
2026-01-22 04:27:58.18	333.90	23.45	-50.0	-64.9	3.8	1.49e+00	0	41	104	0	70	21422
2026-01-22 04:28:01.21	333.09	23.33	-49.9	-64.9	3.8	1.49e+00	0	41	104	0	70	21407
2026-01-22 04:28:04.23	332.29	23.21	-49.9	-64.9	3.8	1.49e+00	0	41	104	0	70	21394
2026-01-22 04:28:07.26	331.49	23.08	-50.0	-64.9	3.8	1.49e+00	0	41	104	0	70	21419
2026-01-22 04:28:10.28	330.70	22.95	-49.9	-64.9	3.8	1.49e+00	0	41	104	0	70	21384
2026-01-22 04:28:13.31	329.91	22.81	-49.9	-64.9	3.8	1.49e+00	0	41	104	0	70	21398
2026-01-22 04:28:16.33	329.14	22.66	-49.9	-64.9	3.8	1.49e+00	0	41	104	0	70	21396
2026-01-22 04:28:19.36	328.36	22.51	-49.9	-64.9	3.8	1.49e+00	0	41	104	0	70	21400
2026-01-22 04:28:22.38	327.60	22.36	-50.0	-64.9	3.8	1.49e+00	0	41	104	0	70	21420
2026-01-22 04:28:25.41	326.85	22.20	-49.9	-64.9	3.8	1.49e+00	0	41	104	0	70	21410
2026-01-22 04:28:28.43	326.10	22.04	-50.0	-64.9	3.8	1.49e+00	0	41	104	0	70	21416
2026-01-22 04:28:31.46	325.36	21.87	-49.9	-64.9	3.8	1.49e+00	0	41	104	0	70	21369
2026-01-22 04:28:34.49	324.63	21.70	-50.0	-64.9	3.8	1.49e+00	0	41	104	0	70	21416
2026-01-22 04:28:37.51	323.91	21.53	-50.0	-64.9	3.8	1.49e+00	0	41	104	0	70	21417
2026-01-22 04:28:40.53	323.20	21.35	-50.0	-64.9	3.8	1.49e+00	0	41	104	0	70	21390
2026-01-22 04:28:43.56	322.49	21.17	-49.9	-64.9	3.8	1.49e+00	0	41	104	0	70	21422
2026-01-22 04:28:46.58	321.79	20.99	-50.0	-64.9	3.8	1.49e+00	0	41	104	0	70	21373
2026-01-22 04:28:49.61	321.10	20.80	-49.9	-64.9	3.8	1.49e+00	0	41	104	0	70	21385
2026-01-22 04:28:52.63	320.42	20.61	-49.9	-64.9	3.8	1.49e+00	0	41	104	0	70	21370
2026-01-22 04:28:55.66	319.75	20.41	-49.9	-64.9	3.8	1.49e+00	0	41	104	0	70	21389
2026-01-22 04:28:58.69	319.08	20.22	-49.9	-64.9	3.8	1.49e+00	0	41	104	0	70	21393
2026-01-22 04:29:01.71	318.43	20.02	-49.9	-64.9	3.8	1.49e+00	0	41	104	0	70	21411
2026-01-22 04:29:04.74	317.78	19.82	-49.9	-64.9	3.8	1.49e+00	0	41	104	0	70	21416
2026-01-22 04:29:07.77	317.14	19.62	-50.0	-64.9	3.8	1.49e+00	0	41	104	0	70	21446
2026-01-22 04:29:10.79	316.52	19.41	-49.9	-64.9	3.8	1.49e+00	0	41	104	0	70	21367
2026-01-22 04:29:13.82	315.89	19.20	-49.9	-64.9	3.8	1.49e+00	0	41	104	0	70	21376
2026-01-22 04:29:16.84	315.28	19.00	-50.0	-64.9	3.8	1.49e+00	0	41	104	0	70	21441
2026-01-22 04:29:19.87	314.68	18.79	-50.0	-64.9	3.8	1.49e+00	0	41	104	0	70	21389
2026-01-22 04:29:22.89	314.08	18.57	-49.9	-64.9	3.8	1.49e+00	0	41	104	0	70	21465
2026-01-22 04:29:25.91	313.50	18.36	-49.9	-64.9	3.8	1.49e+00	0	41	104	0	70	21413
2026-01-22 04:29:28.94	312.92	18.15	-49.9	-64.9	3.8	1.49e+00	0	41	104	0	70	21403
2026-01-22 04:29:31.96	312.35	17.93	-50.0	-64.9	3.8	1.49e+00	0	41	104	0	70	21411
2026-01-22 04:29:34.99	311.78	17.72	-50.0	-64.9	3.8	1.49e+00	0	41	104	0	70	21380
2026-01-22 04:29:38.01	311.23	17.50	-50.0	-64.9	3.8	1.49e+00	0	41	104	0	70	21422
2026-01-22 04:29:41.04	310.68	17.28	-50.0	-64.9	3.8	1.49e+00	0	41	104	0	70	21416
2026-01-22 04:29:44.06	310.14	17.06	-49.9	-64.9	3.8	1.49e+00	0	41	104	0	70	21377
2026-01-22 04:29:47.09	309.61	16.84	-50.0	-64.9	3.8	1.49e+00	0	41	104	0	70	21432
2026-01-22 04:29:50.11	309.09	16.62	-49.9	-64.9	3.8	1.49e+00	0	41	104	0	70	21391
2026-01-22 04:29:53.14	308.58	16.40	-50.0	-64.9	3.8	1.49e+00	0	41	104	0	70	21386
2026-01-22 04:29:56.17	308.07	16.18	-49.9	-64.9	3.8	1.49e+00	0	41	104	0	70	21400
2026-01-22 04:29:59.19	307.57	15.96	-50.0	-64.9	3.8	1.49e+00	0	41	104	0	70	21367
2026-01-22 04:30:02.21	307.08	15.74	-50.0	-64.9	3.8	1.49e+00	0	41	104	0	70	21368
2026-01-22 04:30:05.24	306.59	15.52	-49.9	-64.9	3.8	1.49e+00	0	41	104	0	70	21393
2026-01-22 04:30:08.27	306.11	15.30	-50.0	-64.9	3.8	1.49e+00	0	41	104	0	70	21450
2026-01-22 04:30:11.29	305.64	15.08	-49.9	-64.9	3.8	1.49e+00	0	41	104	0	70	21412
2026-01-22 04:30:14.32	305.18	14.85	-50.0	-64.9	3.8	1.49e+00	0	41	104	0	70	21422
2026-01-22 04:30:17.35	304.72	14.63	-49.9	-64.9	3.8	1.49e+00	0	41	104	0	70	21408
2026-01-22 04:30:20.37	304.27	14.41	-50.0	-64.9	3.8	1.49e+00	0	41	104	0	70	21417
2026-01-22 04:30:23.39	303.83	14.19	-49.9	-64.9	3.8	1.49e+00	0	41	104	0	70	21358
2026-01-22 04:30:26.42	303.39	13.97	-49.9	-64.9	3.8	1.49e+00	0	40	104	0	70	21366
2026-01-22 04:30:29.44	302.96	13.75	-49.9	-64.9	3.8	1.49e+00	0	41	104	0	70	21373
2026-01-22 04:30:32.46	302.54	13.53	-49.9	-64.9	3.8	1.49e+00	0	41	104	0	70	21410
2026-01-22 04:30:35.49	302.12	13.31	-49.9	-64.9	3.8	1.49e+00	0	41	104	0	70	21417
2026-01-22 04:30:38.51	301.71	13.09	-50.0	-64.9	3.8	1.49e+00	0	41	104	0	70	21408
2026-01-22 04:30:41.54	301.31	12.87	-49.9	-64.9	3.8	1.49e+00	0	41	104	0	70	21416
2026-01-22 04:30:44.56	300.91	12.66	-49.9	-64.9	3.8	1.49e+00	0	41	104	0	70	21416
2026-01-22 04:30:47.59	300.52	12.44	-49.9	-64.9	3.8	1.49e+00	0	41	104	0	70	21424
2026-01-22 04:30:50.61	300.13	12.22	-49.9	-64.9	3.8	1.49e+00	0	40	104	0	70	21391
2026-01-22 04:30:53.65	299.75	12.01	-49.9	-64.9	3.8	1.49e+00	0	41	104	0	70	21377
2026-01-22 04:30:56.67	299.37	11.79	-49.9	-64.9	3.8	1.49e+00	0	41	104	0	70	21419
2026-01-22 04:30:59.70	299.00	11.58	-49.9	-64.9	3.8	1.49e+00	0	41	104	0	70	21426
2026-01-22 04:31:02.72	298.64	11.36	-50.0	-64.9	3.8	1.49e+00	0	41	104	0	70	21426
2026-01-22 04:31:05.75	298.28	11.15	-50.0	-64.9	3.8	1.49e+00	0	41	104	0	70	21404
2026-01-22 04:31:08.77	297.93	10.94	-49.9	-64.9	3.8	1.49e+00	0	41	104	0	70	21391
2026-01-22 04:31:11.80	297.58	10.73	-49.9	-64.9	3.8	1.49e+00	0	41	104	0	70	21426
2026-01-22 04:31:14.82	297.24	10.51	-50.0	-64.9	3.8	1.49e+00	0	41	104	0	70	21425
2026-01-22 04:31:17.84	296.90	10.30	-50.0	-64.9	3.8	1.49e+00	0	41	104	0	70	21367
2026-01-22 04:31:20.87	296.56	10.10	-50.0	-64.9	3.8	1.49e+00	0	41	104	0	70	21478
2026-01-22 04:31:23.89	296.24	9.89	-49.9	-64.9	3.8	1.49e+00	0	41	104	0	70	21392
2026-01-22 04:31:26.92	295.91	9.68	-50.0	-64.9	3.8	1.49e+00	0	41	104	0	70	21396
2026-01-22 04:31:29.95	295.59	9.47	-49.9	-64.9	3.8	1.49e+00	0	41	104	0	70	21445
2026-01-22 04:31:32.97	295.28	9.27	-50.0	-64.9	3.8	1.49e+00	0	41	104	0	70	21398
2026-01-22 04:31:36.00	294.97	9.06	-50.0	-64.9	3.8	1.49e+00	0	41	104	0	70	21430
2026-01-22 04:31:39.02	294.66	8.86	-50.0	-64.9	3.8	1.49e+00	0	41	104	0	70	21426
2026-01-22 04:31:42.05	294.36	8.65	-50.0	-64.9	3.8	1.49e+00	0	41	104	0	70	21382
2026-01-22 04:31:45.07	294.07	8.45	-50.0	-64.9	3.8	1.49e+00	0	41	104	0	70	21385
2026-01-22 04:31:48.10	293.77	8.25	-50.0	-64.9	3.8	1.49e+00	0	41	104	0	70	21428
2026-01-22 04:31:51.13	293.48	8.05	-50.0	-64.9	3.8	1.49e+00	0	41	104	0	70	21389
2026-01-22 04:31:54.15	293.20	7.85	-50.0	-64.9	3.8	1.49e+00	0	41	104	0	70	21456
2026-01-22 04:31:57.17	292.92	7.65	-50.0	-64.9	3.8	1.49e+00	0	41	104	0	70	21400
2026-01-22 04:32:00.20	292.64	7.45	-50.0	-64.9	3.8	1.49e+00	0	41	104	0	70	21420
2026-01-22 04:32:03.22	292.37	7.25	-50.0	-64.9	3.8	1.49e+00	0	41	104	0	70	21397
2026-01-22 04:32:06.25	292.10	7.06	-50.0	-64.9	3.8	1.49e+00	0	41	104	0	70	21467
2026-01-22 04:32:09.27	291.84	6.86	-50.0	-64.9	3.8	1.49e+00	0	41	104	0	70	21408
2026-01-22 04:32:12.30	291.58	6.67	-50.0	-64.9	3.8	1.49e+00	0	41	104	0	70	21380
2026-01-22 04:32:15.32	291.32	6.48	-50.0	-64.9	3.8	1.49e+00	0	41	104	0	70	21418
2026-01-22 04:32:18.35	291.06	6.28	-50.0	-64.9	3.8	1.49e+00	0	41	104	0	70	21414
2026-01-22 04:32:21.38	290.81	6.09	-50.0	-64.9	3.8	1.49e+00	0	41	104	0	70	21443
2026-01-22 04:32:24.40	290.57	5.90	-50.0	-64.9	3.8	1.49e+00	0	41	104	0	70	21383
2026-01-22 04:32:27.43	290.32	5.71	-50.0	-64.9	3.8	1.49e+00	0	41	104	0	70	21448
2026-01-22 04:32:30.45	290.08	5.52	-50.0	-64.9	3.8	1.49e+00	0	41	104	0	70	21424
2026-01-22 04:32:33.48	289.84	5.33	-50.0	-64.9	3.8	1.49e+00	0	41	104	0	70	21420
2026-01-22 04:32:36.50	289.61	5.14	-50.0	-64.9	3.8	1.49e+00	0	41	104	0	70	21457
2026-01-22 04:32:39.53	289.38	4.96	-50.0	-64.9	3.8	1.49e+00	0	41	104	0	70	21442
2026-01-22 04:32:42.55	289.15	4.77	-50.0	-64.9	3.8	1.49e+00	0	40	104	0	70	21454
2026-01-22 04:32:45.58	288.92	4.59	-50.0	-64.9	3.8	1.49e+00	0	41	104	0	70	21416
2026-01-22 04:32:48.60	288.70	4.40	-50.0	-64.9	3.8	1.49e+00	0	41	104	0	70	21397
2026-01-22 04:32:51.63	288.48	4.22	-49.9	-64.9	3.8	1.49e+00	0	41	104	0	70	21427
2026-01-22 04:32:54.65	288.27	4.04	-50.0	-64.9	3.8	1.49e+00	0	41	104	0	70	21380
2026-01-22 04:32:57.68	288.05	3.86	-49.9	-64.9	3.8	1.49e+00	0	41	104	0	70	21400
2026-01-22 04:33:00.70	287.84	3.68	-50.0	-64.9	3.8	1.49e+00	0	41	104	0	70	21388
2026-01-22 04:33:03.72	287.63	3.50	-50.0	-64.9	3.8	1.49e+00	0	41	104	0	70	21379
2026-01-22 04:33:06.75	287.43	3.32	-50.0	-64.9	3.8	1.49e+00	0	41	104	0	70	21415
2026-01-22 04:33:09.77	287.22	3.14	-50.0	-64.9	3.8	1.49e+00	0	41	104	0	70	21389
2026-01-22 04:33:12.80	287.02	2.96	-50.0	-64.9	3.8	1.49e+00	0	41	104	0	70	21435
2026-01-22 04:33:15.82	286.83	2.78	-50.0	-64.9	3.8	1.49e+00	0	41	104	0	70	21408
2026-01-22 04:33:18.85	286.63	2.61	-49.9	-64.9	3.8	1.49e+00	0	41	104	0	70	21447
2026-01-22 04:33:21.88	286.44	2.43	-49.9	-64.9	3.8	1.49e+00	0	41	104	0	70	21376
2026-01-22 04:33:24.90	286.25	2.26	-50.0	-64.9	3.8	1.49e+00	0	41	104	0	70	21424
2026-01-22 04:33:27.93	286.06	2.09	-50.0	-64.9	3.8	1.49e+00	0	41	104	0	70	21459

#Closed at: 2026-01-22 04:33:30
#Recorded file [0 MB]: D:/lorett/data/31041_260122_072042.dat