passes_logs/2026/01/22/R3.2S_Murmansk/R3.2S_Murmansk__20260122_010053_NOAA_20_JPSS-1_rec.log

#Pass ID: 20260122_010053_NOAA 20 (JPSS-1)
#Satellite: NOAA 20 (JPSS-1)
#Configuration: NOAA 20
#almurnet v.1.7.20251203
#Start time: 2026-01-22 01:00:52

#Version: 2.2.20231116
#Station: R3.2S_Murmansk
#Location: 33.079688 lon 68.888172 lat
#TLE: 1 43013U 17073A   26021.46221703  .00000173  00000+0  10299-3 0  9999
#TLE: 2 43013  98.7644 322.3335 0001238  29.7597 330.3649 14.19538314423652

#Time	Az	El	Level	Level2	SNR	BER	BlckErr	Temp	State	Recorded	gain1	gain2
2026-01-22 01:00:52.87	25.82	1.96	-54.2	-69.2	3.8	1.49e+00	0	39	0	0	79	20845
2026-01-22 01:00:56.88	25.80	2.22	-54.4	-69.4	3.8	1.49e+00	0	39	104	0	79	21406
2026-01-22 01:01:00.92	25.78	2.48	-54.3	-69.3	3.8	1.49e+00	0	39	104	0	79	21229
2026-01-22 01:01:04.95	25.76	2.74	-54.2	-69.2	3.8	1.49e+00	0	39	104	0	79	20882
2026-01-22 01:01:08.98	25.74	3.01	-54.0	-69.0	3.8	1.49e+00	0	39	104	0	79	20347
2026-01-22 01:01:13.01	25.71	3.28	-53.5	-68.5	3.8	1.49e+00	0	39	104	0	79	19280
2026-01-22 01:01:17.04	25.69	3.55	-52.3	-66.9	3.8	1.49e+00	0	40	104	0	76	18975
2026-01-22 01:01:21.07	25.67	3.82	-51.9	-61.6	5.1	8.26e-01	0	39	0	1048576	75	10913
2026-01-22 01:01:25.10	25.64	4.09	-50.5	-55.3	10.7	6.68e-03	0	40	0	8388608	73	5934
2026-01-22 01:01:29.14	25.62	4.37	-49.2	-52.4	13.9	5.30e-06	0	40	0	15728640	70	5053
2026-01-22 01:01:33.17	25.59	4.66	-48.8	-51.8	14.5	7.00e-07	0	40	0	24117248	69	4989
2026-01-22 01:01:37.21	25.57	4.94	-49.9	-53.9	12.4	8.08e-05	0	40	0	31457280	70	5993
2026-01-22 01:01:41.24	25.54	5.23	-50.4	-54.9	11.4	5.92e-04	0	40	0	38797312	71	6373
2026-01-22 01:01:45.27	25.51	5.52	-48.5	-51.2	15.1	8.95e-02	0	40	0	44040192	69	4656
2026-01-22 01:01:49.30	25.48	5.81	-48.5	-51.1	15.4	0.00e+00	0	40	0	51380224	68	4890
2026-01-22 01:01:53.33	25.45	6.11	-48.0	-50.3	16.2	0.00e+00	0	40	0	58720256	68	4489
2026-01-22 01:01:57.36	25.42	6.41	-48.2	-50.6	16.0	0.00e+00	0	40	0	67108864	68	4611
2026-01-22 01:02:01.39	25.38	6.71	-48.2	-50.6	16.1	0.00e+00	0	40	0	74448896	68	4599
2026-01-22 01:02:05.42	25.35	7.02	-48.1	-50.5	16.3	0.00e+00	0	40	0	81788928	68	4546
2026-01-22 01:02:09.45	25.32	7.33	-48.0	-50.2	16.5	0.00e+00	0	40	0	89128960	68	4424
2026-01-22 01:02:13.48	25.28	7.65	-48.0	-50.3	16.4	0.00e+00	0	40	0	97517568	67	4713
2026-01-22 01:02:17.51	25.24	7.97	-47.9	-50.1	16.6	0.00e+00	0	40	0	104857600	67	4614
2026-01-22 01:02:21.54	25.21	8.29	-48.0	-50.3	16.5	0.00e+00	0	40	0	112197632	67	4714
2026-01-22 01:02:25.58	25.17	8.62	-47.7	-49.8	17.0	0.00e+00	0	40	0	119537664	67	4459
2026-01-22 01:02:29.61	25.12	8.95	-47.6	-49.7	17.1	0.00e+00	0	40	0	126877696	67	4401
2026-01-22 01:02:33.64	25.08	9.29	-47.5	-49.5	17.3	0.00e+00	0	40	0	134217728	67	4328
2026-01-22 01:02:37.67	25.04	9.63	-47.5	-49.5	17.4	0.00e+00	0	40	0	142606336	66	4547
2026-01-22 01:02:41.71	24.99	9.97	-47.4	-49.3	17.6	0.00e+00	0	40	0	149946368	66	4473
2026-01-22 01:02:45.73	24.95	10.32	-47.2	-49.1	17.8	0.00e+00	0	40	0	157286400	66	4346
2026-01-22 01:02:49.77	24.90	10.68	-47.3	-49.2	17.7	0.00e+00	0	40	0	164626432	66	4410
2026-01-22 01:02:53.80	24.85	11.04	-47.1	-48.9	18.1	0.00e+00	0	40	0	173015040	66	4261
2026-01-22 01:02:57.83	24.80	11.40	-47.0	-48.8	18.2	0.00e+00	0	40	0	180355072	66	4217
2026-01-22 01:03:01.86	24.75	11.77	-46.8	-48.5	18.4	0.00e+00	0	40	0	187695104	65	4319
2026-01-22 01:03:05.89	24.69	12.15	-46.8	-48.4	18.6	0.00e+00	0	40	0	195035136	65	4280
2026-01-22 01:03:09.92	24.63	12.53	-46.8	-48.5	18.6	0.00e+00	0	40	0	202375168	65	4319
2026-01-22 01:03:13.96	24.58	12.92	-46.8	-48.4	18.6	0.00e+00	0	40	0	210763776	65	4284
2026-01-22 01:03:17.99	24.51	13.32	-46.6	-48.2	18.9	0.00e+00	0	40	0	218103808	65	4151
2026-01-22 01:03:22.02	24.45	13.72	-46.4	-48.0	19.1	0.00e+00	0	40	0	225443840	64	4308
2026-01-22 01:03:26.05	24.39	14.13	-46.3	-47.8	19.3	0.00e+00	0	40	0	232783872	64	4209
2026-01-22 01:03:30.09	24.32	14.54	-46.2	-47.6	19.4	0.00e+00	0	40	0	241172480	64	4144
2026-01-22 01:03:34.12	24.25	14.97	-46.1	-47.5	19.7	0.00e+00	0	40	0	248512512	63	4316
2026-01-22 01:03:38.15	24.18	15.40	-46.0	-47.4	19.8	0.00e+00	0	40	0	255852544	63	4273
2026-01-22 01:03:42.19	24.10	15.84	-45.9	-47.3	19.9	0.00e+00	0	40	0	263192576	63	4222
2026-01-22 01:03:46.22	24.02	16.28	-45.9	-47.3	20.0	0.00e+00	0	40	0	270532608	63	4210
2026-01-22 01:03:50.25	23.94	16.73	-45.7	-47.1	20.2	0.00e+00	0	40	0	277872640	63	4106
2026-01-22 01:03:54.28	23.86	17.20	-45.5	-46.8	20.5	0.00e+00	0	40	0	286261248	63	3991
2026-01-22 01:03:58.32	23.77	17.67	-45.6	-46.9	20.4	0.00e+00	0	40	0	293601280	62	4253
2026-01-22 01:04:02.35	23.68	18.15	-45.1	-46.4	20.9	0.00e+00	0	40	0	300941312	62	4020
2026-01-22 01:04:06.38	23.59	18.64	-45.1	-46.3	21.0	0.00e+00	0	40	0	308281344	62	3976
2026-01-22 01:04:10.41	23.49	19.14	-45.2	-46.4	20.9	0.00e+00	0	40	0	316669952	62	4027
2026-01-22 01:04:14.44	23.39	19.65	-44.9	-46.1	21.2	0.00e+00	0	40	0	324009984	61	4100
2026-01-22 01:04:18.48	23.29	20.17	-44.9	-46.1	21.2	0.00e+00	0	40	0	331350016	61	4103
2026-01-22 01:04:22.51	23.18	20.70	-44.8	-46.0	21.3	0.00e+00	0	41	0	338690048	61	4078
2026-01-22 01:04:26.54	23.07	21.24	-44.7	-45.9	21.4	0.00e+00	0	40	0	346030080	61	4010
2026-01-22 01:04:30.57	22.95	21.79	-44.5	-45.7	21.6	0.00e+00	0	40	0	354418688	60	4151
2026-01-22 01:04:34.61	22.82	22.36	-44.6	-45.8	21.5	0.00e+00	0	40	0	361758720	60	4206
2026-01-22 01:04:38.64	22.70	22.94	-44.6	-45.7	21.6	0.00e+00	0	40	0	369098752	60	4166
2026-01-22 01:04:42.67	22.56	23.53	-44.8	-45.9	21.4	0.00e+00	0	40	0	376438784	60	4278
2026-01-22 01:04:46.70	22.42	24.14	-44.8	-45.9	21.5	0.00e+00	0	40	0	383778816	60	4270
2026-01-22 01:04:50.74	22.28	24.76	-44.9	-46.1	21.3	0.00e+00	0	40	0	392167424	60	4383
2026-01-22 01:04:54.77	22.12	25.40	-45.1	-46.3	21.1	0.00e+00	0	40	0	399507456	60	4490
2026-01-22 01:04:58.80	21.96	26.05	-45.1	-46.3	21.1	0.00e+00	0	40	0	406847488	60	4478
2026-01-22 01:05:02.83	21.80	26.71	-45.4	-46.6	20.9	0.00e+00	0	40	0	414187520	61	4377
2026-01-22 01:05:06.86	21.62	27.39	-45.5	-46.8	20.8	0.00e+00	0	40	0	421527552	61	4448
2026-01-22 01:05:10.89	21.44	28.09	-46.1	-47.5	20.1	0.00e+00	0	40	0	429916160	62	4547
2026-01-22 01:05:14.92	21.25	28.81	-46.6	-48.0	19.6	0.00e+00	0	41	0	437256192	63	4586
2026-01-22 01:05:18.96	21.05	29.55	-47.0	-48.6	19.0	0.00e+00	0	40	0	444596224	64	4605
2026-01-22 01:05:22.99	20.83	30.30	-47.0	-48.6	19.0	0.00e+00	0	40	0	451936256	65	4370
2026-01-22 01:05:27.02	20.61	31.08	-47.5	-49.2	18.5	0.00e+00	0	40	0	460324864	65	4666
2026-01-22 01:05:31.05	20.38	31.87	-47.7	-49.4	18.2	0.00e+00	0	40	0	467664896	66	4535
2026-01-22 01:05:35.09	20.13	32.69	-47.8	-49.6	18.1	0.00e+00	0	40	0	475004928	66	4615
2026-01-22 01:05:39.12	19.87	33.53	-47.8	-49.6	18.1	0.00e+00	0	41	0	482344960	66	4644
2026-01-22 01:05:43.15	19.59	34.39	-47.1	-48.7	19.0	0.00e+00	0	40	0	489684992	66	4150
2026-01-22 01:05:47.18	19.30	35.28	-46.4	-47.8	19.9	0.00e+00	0	40	0	498073600	64	4194
2026-01-22 01:05:51.21	18.99	36.19	-45.6	-46.9	20.8	0.00e+00	0	41	0	505413632	63	4014
2026-01-22 01:05:55.25	18.66	37.13	-45.3	-46.5	21.0	0.00e+00	0	40	0	512753664	62	4084
2026-01-22 01:05:59.27	18.31	38.09	-45.4	-46.6	21.1	0.00e+00	0	40	0	520093696	62	4113
2026-01-22 01:06:03.30	17.94	39.07	-46.0	-47.3	20.4	0.00e+00	0	40	0	527433728	62	4492
2026-01-22 01:06:07.34	17.54	40.09	-46.6	-48.0	19.8	0.00e+00	0	40	0	535822336	63	4590
2026-01-22 01:06:11.37	17.11	41.14	-47.5	-49.2	18.6	0.00e+00	0	40	0	543162368	66	4393
2026-01-22 01:06:15.40	16.66	42.21	-47.3	-48.9	18.9	0.00e+00	0	40	0	550502400	66	4264
2026-01-22 01:06:19.43	16.17	43.31	-47.2	-48.7	19.1	0.00e+00	0	40	0	557842432	66	4192
2026-01-22 01:06:23.46	15.65	44.45	-47.6	-49.3	18.6	0.00e+00	0	40	0	565182464	66	4454
2026-01-22 01:06:27.49	15.09	45.61	-47.5	-49.1	18.8	0.00e+00	0	40	0	573571072	66	4346
2026-01-22 01:06:31.53	14.48	46.81	-47.8	-49.5	18.4	0.00e+00	0	41	0	580911104	66	4566
2026-01-22 01:06:35.56	13.82	48.04	-48.3	-50.2	17.7	0.00e+00	0	40	0	588251136	67	4673
2026-01-22 01:06:39.59	13.11	49.30	-47.7	-49.3	18.6	0.00e+00	0	40	0	595591168	67	4230
2026-01-22 01:06:43.62	12.33	50.58	-46.2	-47.5	20.3	0.00e+00	0	40	0	603979776	64	4090
2026-01-22 01:06:47.65	11.48	51.90	-45.3	-46.4	21.4	0.00e+00	0	40	0	611319808	62	4033
2026-01-22 01:06:51.68	10.55	53.25	-44.1	-45.1	22.6	0.00e+00	0	40	0	618659840	60	3908
2026-01-22 01:06:55.72	9.53	54.63	-44.2	-45.2	22.6	0.00e+00	0	40	0	625999872	60	3927
2026-01-22 01:06:59.75	8.40	56.04	-45.3	-46.5	21.4	0.00e+00	0	40	0	633339904	61	4308
2026-01-22 01:07:03.78	7.14	57.47	-46.9	-48.4	19.6	0.00e+00	0	40	0	641728512	64	4515
2026-01-22 01:07:07.82	5.75	58.92	-47.1	-48.6	19.4	0.00e+00	0	40	0	649068544	66	4105
2026-01-22 01:07:11.85	4.19	60.39	-45.3	-46.4	21.4	0.00e+00	0	40	0	656408576	62	4032
2026-01-22 01:07:15.88	2.43	61.87	-44.0	-45.0	23.1	0.00e+00	0	40	0	663748608	59	4062
2026-01-22 01:07:19.91	0.45	63.36	-44.7	-45.7	22.1	0.00e+00	0	40	0	671088640	60	4181
2026-01-22 01:07:23.94	358.20	64.84	-45.2	-46.3	21.6	0.00e+00	0	40	0	679477248	61	4235
2026-01-22 01:07:27.97	355.64	66.32	-47.2	-48.8	19.3	0.00e+00	0	40	0	686817280	65	4455
2026-01-22 01:07:32.01	352.69	67.77	-47.2	-48.7	19.3	0.00e+00	0	40	0	694157312	65	4399
2026-01-22 01:07:36.04	349.30	69.18	-46.7	-48.1	19.9	0.00e+00	0	40	0	701497344	65	4131
2026-01-22 01:07:40.06	345.39	70.53	-44.9	-46.0	22.0	0.00e+00	0	40	0	708837376	61	4058
2026-01-22 01:07:44.09	340.87	71.81	-45.8	-47.0	21.1	0.00e+00	0	40	0	717225984	62	4325
2026-01-22 01:07:48.12	335.66	72.97	-45.1	-46.2	21.8	0.00e+00	0	40	0	724566016	62	3951
2026-01-22 01:07:52.16	329.68	73.99	-47.0	-48.4	19.6	0.00e+00	0	40	0	731906048	64	4541
2026-01-22 01:07:56.19	322.94	74.82	-47.1	-48.6	19.4	0.00e+00	0	40	0	739246080	65	4365
2026-01-22 01:08:00.22	315.50	75.44	-49.4	-51.7	16.6	0.00e+00	0	40	0	747634688	69	4940
2026-01-22 01:08:04.25	307.53	75.80	-49.4	-51.6	16.5	0.00e+00	0	40	0	754974720	70	4642
2026-01-22 01:08:08.28	299.29	75.88	-47.9	-49.6	18.6	0.00e+00	0	40	0	762314752	67	4348
2026-01-22 01:08:12.32	291.11	75.68	-48.5	-50.3	17.9	0.00e+00	0	40	0	769654784	68	4466
2026-01-22 01:08:16.35	283.33	75.21	-49.0	-51.1	17.2	0.00e+00	0	40	0	776994816	68	4887
2026-01-22 01:08:20.37	276.19	74.50	-48.8	-50.8	17.5	0.00e+00	0	40	0	785383424	69	4456
2026-01-22 01:08:24.40	269.77	73.58	-47.7	-49.3	18.8	0.00e+00	0	40	0	792723456	67	4237
2026-01-22 01:08:28.44	264.11	72.49	-46.8	-48.1	20.0	0.00e+00	0	40	0	800063488	65	4138
2026-01-22 01:08:32.47	259.20	71.28	-45.9	-47.1	21.0	0.00e+00	0	41	0	807403520	63	4123
2026-01-22 01:08:36.50	254.94	69.97	-48.0	-49.7	18.5	0.00e+00	0	40	0	814743552	66	4673
2026-01-22 01:08:40.54	251.25	68.58	-48.8	-50.8	17.5	0.00e+00	0	40	0	823132160	68	4709
2026-01-22 01:08:44.57	248.06	67.15	-47.7	-49.2	18.8	0.00e+00	0	41	0	830472192	67	4191
2026-01-22 01:08:48.60	245.28	65.68	-45.6	-46.8	21.3	0.00e+00	0	41	0	837812224	63	3972
2026-01-22 01:08:52.63	242.85	64.20	-44.2	-45.2	23.0	0.00e+00	0	40	0	845152256	59	4179
2026-01-22 01:08:56.67	240.72	62.71	-43.8	-44.7	23.5	0.00e+00	0	41	0	853540864	59	3936
2026-01-22 01:09:00.70	238.84	61.22	-45.7	-46.9	21.3	0.00e+00	0	41	0	860880896	61	4494
2026-01-22 01:09:04.73	237.17	59.74	-47.4	-49.0	19.1	0.00e+00	0	41	0	868220928	65	4563
2026-01-22 01:09:08.77	235.68	58.27	-50.1	-52.6	15.5	0.00e+00	0	41	0	875560960	71	4917
2026-01-22 01:09:12.80	234.35	56.83	-48.0	-49.8	18.3	0.00e+00	0	40	0	882900992	67	4449
2026-01-22 01:09:16.83	233.15	55.41	-46.3	-47.7	20.3	0.00e+00	0	41	0	890241024	64	4147
2026-01-22 01:09:20.86	232.06	54.01	-45.4	-46.6	21.4	0.00e+00	0	40	0	898629632	62	4104
2026-01-22 01:09:24.89	231.08	52.64	-45.3	-46.4	21.5	0.00e+00	0	41	0	905969664	62	4033
2026-01-22 01:09:28.93	230.18	51.30	-46.1	-47.4	20.6	0.00e+00	0	40	0	913309696	62	4518
2026-01-22 01:09:32.97	229.36	49.99	-47.1	-48.6	19.4	0.00e+00	0	40	0	920649728	64	4615
2026-01-22 01:09:37.00	228.61	48.71	-48.2	-50.1	18.0	0.00e+00	0	41	0	929038336	67	4601
2026-01-22 01:09:41.03	227.92	47.46	-47.1	-48.6	19.3	0.00e+00	0	41	0	936378368	66	4124
2026-01-22 01:09:45.06	227.29	46.24	-46.9	-48.4	19.4	0.00e+00	0	41	0	943718400	65	4272
2026-01-22 01:09:49.10	226.70	45.06	-47.5	-49.1	18.9	0.00e+00	0	41	0	951058432	65	4629
2026-01-22 01:09:53.13	226.15	43.90	-47.4	-49.0	18.9	0.00e+00	0	41	0	958398464	65	4556
2026-01-22 01:09:57.17	225.64	42.78	-48.4	-50.2	17.6	0.00e+00	0	41	0	966787072	67	4701
2026-01-22 01:10:01.20	225.17	41.68	-48.1	-49.9	18.0	0.00e+00	0	41	0	974127104	67	4495
2026-01-22 01:10:05.24	224.73	40.62	-48.2	-50.0	17.9	0.00e+00	0	41	0	981467136	67	4567
2026-01-22 01:10:09.27	224.31	39.58	-48.5	-50.5	17.4	0.00e+00	0	41	0	988807168	67	4818
2026-01-22 01:10:13.31	223.93	38.58	-47.5	-49.1	18.8	0.00e+00	0	40	0	997195776	66	4374
2026-01-22 01:10:17.34	223.56	37.60	-46.8	-48.2	19.6	0.00e+00	0	41	0	1004535808	65	4191
2026-01-22 01:10:21.36	223.22	36.65	-47.2	-48.8	19.0	0.00e+00	0	41	0	1011875840	65	4461
2026-01-22 01:10:25.39	222.90	35.72	-47.3	-49.0	18.8	0.00e+00	0	41	0	1019215872	65	4554
2026-01-22 01:10:29.43	222.60	34.82	-47.5	-49.2	18.5	0.00e+00	0	41	0	1026555904	65	4691
2026-01-22 01:10:33.46	222.31	33.94	-47.8	-49.6	18.1	0.00e+00	0	40	0	1033895936	66	4634
2026-01-22 01:10:37.50	222.04	33.08	-48.5	-50.5	17.2	0.00e+00	0	41	0	1042284544	67	4836
2026-01-22 01:10:41.53	221.78	32.25	-47.9	-49.8	18.0	0.00e+00	0	40	0	1049624576	67	4445
2026-01-22 01:10:45.56	221.54	31.44	-47.9	-49.7	18.1	0.00e+00	0	40	0	1056964608	67	4401
2026-01-22 01:10:49.59	221.31	30.66	-48.3	-50.3	17.5	0.00e+00	0	40	0	1064304640	67	4714
2026-01-22 01:10:53.62	221.09	29.89	-48.5	-50.6	17.1	0.00e+00	0	40	0	1072693248	67	4891
2026-01-22 01:10:57.65	220.88	29.14	-48.3	-50.3	17.4	0.00e+00	0	41	0	1080033280	67	4706
2026-01-22 01:11:01.68	220.68	28.41	-48.1	-49.9	17.7	0.00e+00	0	41	0	1087373312	67	4542
2026-01-22 01:11:05.71	220.49	27.70	-47.5	-49.2	18.4	0.00e+00	0	41	0	1094713344	67	4161
2026-01-22 01:11:09.75	220.31	27.00	-46.9	-48.5	19.0	0.00e+00	0	41	0	1102053376	65	4319
2026-01-22 01:11:13.78	220.14	26.33	-47.3	-48.9	18.6	0.00e+00	0	41	0	1110441984	65	4529
2026-01-22 01:11:17.81	219.97	25.67	-47.5	-49.2	18.3	0.00e+00	0	41	0	1117782016	65	4699
2026-01-22 01:11:21.85	219.81	25.02	-46.8	-48.3	19.2	0.00e+00	0	41	0	1125122048	65	4230
2026-01-22 01:11:25.88	219.66	24.39	-46.4	-47.8	19.6	0.00e+00	0	41	0	1132462080	64	4223
2026-01-22 01:11:29.91	219.52	23.78	-45.9	-47.2	20.3	0.00e+00	0	41	0	1139802112	63	4181
2026-01-22 01:11:33.94	219.38	23.18	-45.7	-47.0	20.5	0.00e+00	0	41	0	1148190720	63	4084
2026-01-22 01:11:37.98	219.25	22.59	-45.9	-47.3	20.2	0.00e+00	0	41	0	1155530752	63	4212
2026-01-22 01:11:42.02	219.12	22.01	-45.9	-47.3	20.2	0.00e+00	0	41	0	1162870784	63	4204
2026-01-22 01:11:46.05	219.00	21.45	-46.0	-47.3	20.1	0.00e+00	0	41	0	1170210816	63	4229
2026-01-22 01:11:50.08	218.88	20.90	-46.2	-47.7	19.8	0.00e+00	0	41	0	1178599424	63	4393
2026-01-22 01:11:54.11	218.77	20.36	-46.5	-48.0	19.5	0.00e+00	0	40	0	1185939456	63	4567
2026-01-22 01:11:58.14	218.66	19.83	-46.7	-48.3	19.1	0.00e+00	0	40	0	1193279488	64	4446
2026-01-22 01:12:02.15	218.55	19.32	-46.8	-48.4	19.0	0.00e+00	0	40	0	1200619520	64	4500
2026-01-22 01:12:06.18	218.45	18.82	-46.8	-48.4	18.9	0.00e+00	0	40	0	1207959552	64	4513
2026-01-22 01:12:10.21	218.36	18.32	-46.7	-48.3	19.0	0.00e+00	0	40	0	1216348160	64	4475
2026-01-22 01:12:14.25	218.26	17.83	-46.8	-48.3	18.9	0.00e+00	0	41	0	1223688192	64	4492
2026-01-22 01:12:18.28	218.17	17.36	-46.7	-48.2	19.0	0.00e+00	0	41	0	1231028224	64	4411
2026-01-22 01:12:22.31	218.08	16.89	-46.6	-48.2	19.1	0.00e+00	0	41	0	1238368256	64	4394
2026-01-22 01:12:26.35	218.00	16.43	-46.7	-48.2	19.0	0.00e+00	0	40	0	1245708288	64	4435
2026-01-22 01:12:30.38	217.92	15.98	-47.0	-48.6	18.6	0.00e+00	0	40	0	1254096896	64	4622
2026-01-22 01:12:34.41	217.84	15.53	-47.1	-48.8	18.4	0.00e+00	0	41	0	1261436928	64	4722
2026-01-22 01:12:38.45	217.76	15.10	-47.3	-49.1	18.0	0.00e+00	0	41	0	1268776960	65	4637
2026-01-22 01:12:42.48	217.69	14.67	-47.5	-49.3	17.9	0.00e+00	0	40	0	1276116992	65	4746
2026-01-22 01:12:46.51	217.62	14.25	-47.4	-49.3	17.9	0.00e+00	0	41	0	1283457024	65	4707
2026-01-22 01:12:50.54	217.55	13.84	-47.4	-49.2	17.9	0.00e+00	0	41	0	1291845632	65	4691
2026-01-22 01:12:54.57	217.49	13.43	-47.2	-49.0	18.1	0.00e+00	0	41	0	1299185664	65	4576
2026-01-22 01:12:58.61	217.42	13.03	-47.2	-48.9	18.2	0.00e+00	0	41	0	1306525696	65	4518
2026-01-22 01:13:02.64	217.36	12.64	-46.9	-48.6	18.5	0.00e+00	0	41	0	1313865728	65	4357
2026-01-22 01:13:06.67	217.30	12.25	-47.0	-48.7	18.4	0.00e+00	0	41	0	1322254336	65	4394
2026-01-22 01:13:10.70	217.24	11.87	-47.0	-48.7	18.3	0.00e+00	0	41	0	1329594368	65	4408
2026-01-22 01:13:14.73	217.19	11.50	-46.9	-48.6	18.4	0.00e+00	0	41	0	1336934400	65	4376
2026-01-22 01:13:18.77	217.13	11.13	-47.1	-48.8	18.1	0.00e+00	0	40	0	1344274432	65	4488
2026-01-22 01:13:22.80	217.08	10.76	-47.0	-48.8	18.1	0.00e+00	0	41	0	1351614464	65	4468
2026-01-22 01:13:26.83	217.03	10.40	-47.2	-49.0	17.9	0.00e+00	0	41	0	1360003072	65	4574
2026-01-22 01:13:30.86	216.98	10.05	-47.3	-49.2	17.7	0.00e+00	0	41	0	1367343104	65	4687
2026-01-22 01:13:34.90	216.93	9.70	-47.6	-49.6	17.3	0.00e+00	0	41	0	1374683136	65	4886
2026-01-22 01:13:38.93	216.88	9.36	-47.5	-49.5	17.3	0.00e+00	0	41	0	1382023168	65	4845
2026-01-22 01:13:42.97	216.84	9.02	-47.9	-50.0	16.8	0.00e+00	0	41	0	1389363200	66	4831
2026-01-22 01:13:47.00	216.79	8.68	-47.9	-50.0	16.8	0.00e+00	0	41	0	1397751808	66	4840
2026-01-22 01:13:51.03	216.75	8.35	-47.9	-50.1	16.6	0.00e+00	0	41	0	1405091840	66	4909
2026-01-22 01:13:55.06	216.71	8.03	-48.0	-50.2	16.5	0.00e+00	0	41	0	1412431872	66	4976
2026-01-22 01:13:59.09	216.67	7.71	-48.1	-50.4	16.3	0.00e+00	0	41	0	1419771904	66	5065
2026-01-22 01:14:03.12	216.63	7.39	-48.1	-50.4	16.2	0.00e+00	0	41	0	1427111936	66	5055
2026-01-22 01:14:07.15	216.59	7.07	-48.5	-51.0	15.6	0.00e+00	0	41	0	1435500544	67	5128
2026-01-22 01:14:11.19	216.55	6.76	-48.4	-50.9	15.6	0.00e+00	0	41	0	1442840576	67	5098
2026-01-22 01:14:15.22	216.52	6.46	-48.3	-50.8	15.7	0.00e+00	0	41	0	1450180608	67	5022
2026-01-22 01:14:19.25	216.48	6.15	-48.0	-50.4	16.0	0.00e+00	0	41	0	1457520640	67	4810
2026-01-22 01:14:23.29	216.45	5.85	-48.2	-50.7	15.6	0.00e+00	0	41	0	1465909248	67	4948
2026-01-22 01:14:27.32	216.42	5.56	-48.2	-50.7	15.6	0.00e+00	0	41	0	1473249280	67	4950
2026-01-22 01:14:31.35	216.39	5.27	-48.2	-50.8	15.4	7.00e-07	0	41	0	1480589312	67	5025
2026-01-22 01:14:35.38	216.35	4.98	-49.1	-52.2	14.4	0.00e+00	0	40	0	1487929344	68	5561
2026-01-22 01:14:39.41	216.32	4.69	-53.6	-68.6	3.8	1.49e+00	0	41	104	1488977920	77	21823
2026-01-22 01:14:43.44	216.29	4.41	-53.9	-68.9	3.8	1.49e+00	0	41	104	1488977920	78	21275
2026-01-22 01:14:47.48	216.27	4.12	-54.0	-69.0	3.8	1.49e+00	0	40	104	1488977920	78	21584
2026-01-22 01:14:51.51	216.24	3.85	-54.0	-69.0	3.8	1.49e+00	0	41	104	1488977920	78	21641
2026-01-22 01:14:55.55	216.21	3.57	-53.9	-68.9	3.8	1.49e+00	0	41	104	1488977920	78	21304
2026-01-22 01:14:59.59	216.18	3.30	-53.6	-68.6	3.8	1.49e+00	0	41	104	1488977920	78	20556
2026-01-22 01:15:03.62	216.16	3.03	-53.5	-68.5	3.8	1.49e+00	0	41	104	1488977920	78	20449
2026-01-22 01:15:07.65	216.13	2.76	-53.5	-68.5	3.8	1.49e+00	0	41	104	1488977920	78	20409
2026-01-22 01:15:11.69	216.11	2.50	-53.5	-68.5	3.8	1.49e+00	0	41	104	1488977920	78	20413
2026-01-22 01:15:15.72	216.09	2.24	-53.5	-68.5	3.8	1.49e+00	0	41	104	1488977920	78	20356

#Closed at: 2026-01-22 01:15:19
#Recorded file [1488 MB]: D:/lorett/data/31041_260122_040052.dat