passes_logs/2026/01/22/R3.2S_Murmansk/R3.2S_Murmansk__20260122_114953_NOAA_21_JPSS-2_rec.log

#Pass ID: 20260122_114953_NOAA 21 (JPSS-2)
#Satellite: NOAA 21 (JPSS-2)
#Configuration: NOAA-21
#almurnet v.1.7.20251203
#Start time: 2026-01-22 11:50:01

#Version: 2.2.20231116
#Station: R3.2S_Murmansk
#Location: 33.079688 lon 68.888172 lat
#TLE: 1 54234U 22150A   26021.42686626  .00000211  00000+0  12107-3 0  9996
#TLE: 2 54234  98.7506 322.2490 0000636 241.9299 118.1812 14.19537149165725

#Time	Az	El	Level	Level2	SNR	BER	BlckErr	Temp	State	Recorded	gain1	gain2
2026-01-22 11:50:01.35	210.45	2.46	-53.5	-65.5	3.8	8.46e-01	0	40	0	0	77	15307
2026-01-22 11:50:05.38	210.74	2.69	-54.5	-67.3	3.8	1.49e+00	0	41	104	0	79	16766
2026-01-22 11:50:09.41	211.03	2.92	-54.5	-67.4	3.8	1.49e+00	0	41	104	0	79	16972
2026-01-22 11:50:13.45	211.32	3.15	-54.6	-67.5	3.8	1.49e+00	0	41	104	0	79	17118
2026-01-22 11:50:17.48	211.62	3.38	-54.7	-67.5	3.8	1.49e+00	0	41	104	0	79	17230
2026-01-22 11:50:21.51	211.92	3.62	-54.7	-67.5	3.8	1.49e+00	0	41	104	0	79	17154
2026-01-22 11:50:25.54	212.22	3.85	-54.6	-67.4	3.8	1.49e+00	0	41	104	0	79	17026
2026-01-22 11:50:29.58	212.53	4.09	-54.5	-67.3	3.8	1.49e+00	0	41	104	0	79	16844
2026-01-22 11:50:33.61	212.85	4.33	-54.5	-67.3	3.8	1.49e+00	0	41	104	0	79	16883
2026-01-22 11:50:37.64	213.17	4.56	-54.5	-67.3	3.8	1.49e+00	0	41	104	0	79	16750
2026-01-22 11:50:41.68	213.49	4.81	-54.4	-67.2	3.8	1.49e+00	0	41	104	0	79	16663
2026-01-22 11:50:45.72	213.83	5.05	-54.4	-67.2	3.8	1.49e+00	0	41	104	0	79	16614
2026-01-22 11:50:49.75	214.16	5.29	-54.4	-67.2	3.8	1.49e+00	0	41	104	0	79	16564
2026-01-22 11:50:53.78	214.50	5.54	-54.4	-67.2	3.8	1.49e+00	0	41	104	0	79	16558
2026-01-22 11:50:57.81	214.85	5.78	-54.7	-67.5	3.8	1.49e+00	0	41	104	0	79	17206
2026-01-22 11:51:01.85	215.20	6.03	-54.6	-67.4	3.8	1.49e+00	0	41	104	0	80	15985
2026-01-22 11:51:05.88	215.56	6.28	-54.4	-67.2	3.8	1.49e+00	0	41	104	0	80	15709
2026-01-22 11:51:09.92	215.92	6.53	-54.2	-67.0	3.8	1.49e+00	0	41	104	0	80	15389
2026-01-22 11:51:13.95	216.29	6.78	-54.0	-66.7	3.8	1.49e+00	0	41	104	0	79	15708
2026-01-22 11:51:17.98	216.67	7.04	-49.9	-52.7	12.3	0.00e+00	0	41	0	2097152	70	5264
2026-01-22 11:51:22.01	217.05	7.29	-46.4	-47.8	17.1	0.00e+00	0	41	0	14680064	63	4484
2026-01-22 11:51:26.04	217.44	7.55	-44.5	-45.6	19.2	0.00e+00	0	41	0	27262976	60	4117
2026-01-22 11:51:30.08	217.84	7.81	-44.6	-45.7	19.4	0.00e+00	0	41	0	39845888	59	4409
2026-01-22 11:51:34.11	218.24	8.07	-44.4	-45.5	19.6	0.00e+00	0	41	0	52428800	59	4307
2026-01-22 11:51:38.15	218.65	8.33	-44.3	-45.3	19.8	0.00e+00	0	41	0	65011712	59	4230
2026-01-22 11:51:42.18	219.06	8.59	-44.1	-45.1	20.0	0.00e+00	0	41	0	77594624	59	4120
2026-01-22 11:51:46.22	219.49	8.86	-44.2	-45.2	19.9	0.00e+00	0	41	0	90177536	59	4171
2026-01-22 11:51:50.25	219.92	9.12	-44.1	-45.1	20.1	0.00e+00	0	41	0	102760448	59	4106
2026-01-22 11:51:54.29	220.36	9.39	-44.3	-45.3	19.9	0.00e+00	0	41	0	115343360	59	4214
2026-01-22 11:51:58.32	220.80	9.66	-44.0	-45.0	20.2	0.00e+00	0	41	0	127926272	59	4078
2026-01-22 11:52:02.36	221.26	9.93	-43.9	-44.9	20.3	0.00e+00	0	41	0	140509184	59	4040
2026-01-22 11:52:06.39	221.72	10.20	-43.8	-44.8	20.4	0.00e+00	0	41	0	153092096	59	3964
2026-01-22 11:52:10.42	222.19	10.48	-43.7	-44.6	20.5	0.00e+00	0	41	0	165675008	59	3908
2026-01-22 11:52:14.46	222.67	10.75	-43.6	-44.6	20.6	0.00e+00	0	41	0	178257920	59	3869
2026-01-22 11:52:18.49	223.16	11.03	-43.4	-44.3	20.8	0.00e+00	0	41	0	190840832	58	3988
2026-01-22 11:52:22.52	223.66	11.30	-43.4	-44.4	20.8	0.00e+00	0	41	0	203423744	58	4007
2026-01-22 11:52:26.55	224.16	11.58	-43.4	-44.3	20.8	0.00e+00	0	41	0	216006656	58	3991
2026-01-22 11:52:30.59	224.68	11.86	-43.3	-44.2	21.0	0.00e+00	0	41	0	228589568	58	3926
2026-01-22 11:52:34.62	225.20	12.14	-43.2	-44.1	21.1	0.00e+00	0	41	0	241172480	58	3896
2026-01-22 11:52:38.65	225.74	12.42	-43.2	-44.1	21.1	0.00e+00	0	41	0	253755392	58	3885
2026-01-22 11:52:42.69	226.28	12.70	-43.1	-44.0	21.2	0.00e+00	0	41	0	266338304	58	3832
2026-01-22 11:52:46.72	226.84	12.99	-43.0	-43.9	21.3	0.00e+00	0	41	0	278921216	57	4019
2026-01-22 11:52:50.75	227.40	13.27	-43.0	-43.8	21.4	0.00e+00	0	41	0	291504128	57	3999
2026-01-22 11:52:54.79	227.98	13.56	-43.0	-43.9	21.4	0.00e+00	0	41	0	305135616	57	4009
2026-01-22 11:52:58.82	228.56	13.84	-42.9	-43.8	21.4	0.00e+00	0	41	0	316669952	57	3980
2026-01-22 11:53:02.85	229.16	14.13	-42.9	-43.8	21.5	0.00e+00	0	41	0	329252864	57	3961
2026-01-22 11:53:06.88	229.77	14.41	-42.9	-43.8	21.4	0.00e+00	0	41	0	342884352	57	3977
2026-01-22 11:53:10.92	230.39	14.70	-43.1	-44.0	21.3	0.00e+00	0	41	0	354418688	57	4063
2026-01-22 11:53:14.95	231.02	14.99	-43.1	-43.9	21.3	0.00e+00	0	41	0	367001600	57	4049
2026-01-22 11:53:18.98	231.66	15.28	-43.1	-43.9	21.3	0.00e+00	0	41	0	380633088	57	4045
2026-01-22 11:53:23.01	232.32	15.56	-43.1	-44.0	21.3	0.00e+00	0	41	0	393216000	57	4075
2026-01-22 11:53:27.05	232.99	15.85	-43.0	-43.9	21.3	0.00e+00	0	41	0	404750336	57	4037
2026-01-22 11:53:31.08	233.67	16.14	-43.2	-44.1	21.2	0.00e+00	0	41	0	418381824	57	4105
2026-01-22 11:53:35.11	234.36	16.42	-43.0	-43.9	21.3	0.00e+00	0	41	0	430964736	57	4015
2026-01-22 11:53:39.14	235.07	16.71	-43.3	-44.2	21.1	0.00e+00	0	41	0	443547648	57	4176
2026-01-22 11:53:43.18	235.79	16.99	-43.1	-44.0	21.3	0.00e+00	0	41	0	456130560	57	4083
2026-01-22 11:53:47.20	236.52	17.28	-43.0	-43.9	21.4	0.00e+00	0	41	0	468713472	57	4027
2026-01-22 11:53:51.24	237.26	17.56	-42.9	-43.8	21.4	0.00e+00	0	41	0	481296384	57	3990
2026-01-22 11:53:55.27	238.02	17.84	-42.8	-43.6	21.6	0.00e+00	0	41	0	493879296	57	3913
2026-01-22 11:53:59.30	238.79	18.12	-42.9	-43.8	21.5	0.00e+00	0	41	0	506462208	57	3976
2026-01-22 11:54:03.33	239.58	18.40	-42.8	-43.6	21.7	0.00e+00	0	41	0	519045120	57	3904
2026-01-22 11:54:07.36	240.38	18.67	-42.6	-43.5	21.8	0.00e+00	0	41	0	531628032	57	3825
2026-01-22 11:54:11.40	241.20	18.94	-42.9	-43.7	21.6	0.00e+00	0	41	0	544210944	57	3940
2026-01-22 11:54:15.42	242.02	19.21	-42.8	-43.6	21.7	0.00e+00	0	41	0	556793856	57	3913
2026-01-22 11:54:19.46	242.87	19.48	-42.8	-43.7	21.7	0.00e+00	0	41	0	569376768	57	3927
2026-01-22 11:54:23.49	243.73	19.74	-42.9	-43.8	21.6	0.00e+00	0	41	0	581959680	57	3964
2026-01-22 11:54:27.52	244.60	20.00	-43.0	-43.9	21.5	0.00e+00	0	41	0	594542592	57	4034
2026-01-22 11:54:31.55	245.48	20.26	-42.9	-43.8	21.6	0.00e+00	0	41	0	607125504	57	3980
2026-01-22 11:54:35.58	246.38	20.51	-42.8	-43.7	21.7	0.00e+00	0	41	0	619708416	57	3932
2026-01-22 11:54:39.62	247.30	20.76	-42.9	-43.8	21.5	0.00e+00	0	41	0	632291328	57	3975
2026-01-22 11:54:43.65	248.23	21.00	-43.0	-43.8	21.5	0.00e+00	0	41	0	644874240	57	3996
2026-01-22 11:54:47.68	249.17	21.24	-42.4	-43.3	22.0	0.00e+00	0	41	0	657457152	56	3961
2026-01-22 11:54:51.72	250.13	21.47	-42.4	-43.2	21.9	0.00e+00	0	41	0	670040064	56	3945
2026-01-22 11:54:55.75	251.10	21.69	-42.6	-43.5	21.8	0.00e+00	0	41	0	682622976	56	4069
2026-01-22 11:54:59.78	252.09	21.91	-42.3	-43.1	22.2	0.00e+00	0	41	0	695205888	56	3887
2026-01-22 11:55:03.81	253.08	22.12	-42.4	-43.3	22.0	0.00e+00	0	41	0	707788800	56	3966
2026-01-22 11:55:07.85	254.10	22.33	-42.3	-43.1	22.2	0.00e+00	0	41	0	720371712	56	3900
2026-01-22 11:55:11.88	255.12	22.52	-42.1	-42.9	22.3	0.00e+00	0	41	0	732954624	56	3808
2026-01-22 11:55:15.91	256.16	22.71	-42.4	-43.2	22.1	0.00e+00	0	41	0	745537536	56	3920
2026-01-22 11:55:19.94	257.20	22.89	-42.3	-43.1	22.1	0.00e+00	0	41	0	758120448	56	3912
2026-01-22 11:55:23.98	258.27	23.07	-42.6	-43.4	21.8	0.00e+00	0	41	0	770703360	56	4051
2026-01-22 11:55:28.01	259.34	23.23	-42.3	-43.1	22.2	0.00e+00	0	41	0	783286272	56	3871
2026-01-22 11:55:32.04	260.42	23.38	-42.6	-43.4	21.8	0.00e+00	0	41	0	795869184	56	4051
2026-01-22 11:55:36.07	261.51	23.53	-42.4	-43.2	22.1	0.00e+00	0	41	0	808452096	56	3930
2026-01-22 11:55:40.10	262.61	23.66	-42.4	-43.2	22.0	0.00e+00	0	41	0	821035008	56	3958
2026-01-22 11:55:44.14	263.72	23.78	-42.3	-43.1	22.2	0.00e+00	0	41	0	833617920	56	3903
2026-01-22 11:55:48.17	264.84	23.90	-42.3	-43.1	22.1	0.00e+00	0	41	0	846200832	56	3912
2026-01-22 11:55:52.20	265.96	24.00	-42.2	-43.0	22.3	0.00e+00	0	41	0	858783744	56	3845
2026-01-22 11:55:56.23	267.09	24.09	-42.3	-43.1	22.2	0.00e+00	0	41	0	871366656	56	3870
2026-01-22 11:56:00.26	268.23	24.17	-42.1	-42.9	22.4	0.00e+00	0	41	0	883949568	56	3808
2026-01-22 11:56:04.29	269.38	24.24	-41.8	-42.6	22.5	0.00e+00	0	41	0	896532480	55	3900
2026-01-22 11:56:08.33	270.53	24.30	-42.0	-42.8	22.4	0.00e+00	0	41	0	909115392	55	3962
2026-01-22 11:56:12.36	271.68	24.34	-41.9	-42.7	22.4	0.00e+00	0	41	0	921698304	55	3919
2026-01-22 11:56:16.39	272.83	24.38	-42.2	-43.1	22.0	0.00e+00	0	41	0	934281216	55	4102
2026-01-22 11:56:20.42	273.98	24.40	-42.3	-43.1	22.0	0.00e+00	0	41	0	946864128	55	4128
2026-01-22 11:56:24.45	275.14	24.41	-42.3	-43.1	22.1	0.00e+00	0	41	0	959447040	55	4141
2026-01-22 11:56:28.49	276.30	24.40	-42.0	-42.8	22.4	0.00e+00	0	41	0	972029952	55	3982
2026-01-22 11:56:32.52	277.46	24.39	-42.1	-42.9	22.3	0.00e+00	0	41	0	984612864	55	4046
2026-01-22 11:56:36.55	278.61	24.36	-42.2	-43.0	22.1	0.00e+00	0	41	0	997195776	55	4098
2026-01-22 11:56:40.59	279.77	24.32	-42.1	-43.0	22.3	0.00e+00	0	41	0	1009778688	55	4055
2026-01-22 11:56:44.62	280.91	24.27	-42.2	-42.9	22.3	0.00e+00	0	41	0	1022361600	55	4050
2026-01-22 11:56:48.66	282.06	24.21	-41.9	-42.6	22.6	0.00e+00	0	41	0	1035993088	55	3911
2026-01-22 11:56:52.69	283.20	24.14	-42.0	-42.8	22.5	0.00e+00	0	41	0	1048576000	55	3981
2026-01-22 11:56:56.72	284.33	24.05	-42.0	-42.8	22.5	0.00e+00	0	41	0	1060110336	55	3973
2026-01-22 11:57:00.76	285.46	23.96	-41.9	-42.7	22.6	0.00e+00	0	41	0	1073741824	55	3924
2026-01-22 11:57:04.79	286.59	23.85	-41.8	-42.6	22.7	0.00e+00	0	41	0	1086324736	55	3885
2026-01-22 11:57:08.82	287.70	23.73	-42.0	-42.7	22.5	0.00e+00	0	41	0	1097859072	55	3957
2026-01-22 11:57:12.86	288.80	23.61	-42.3	-43.1	22.3	0.00e+00	0	41	0	1111490560	55	4106
2026-01-22 11:57:16.90	289.90	23.47	-42.3	-43.1	22.3	0.00e+00	0	41	0	1124073472	55	4145
2026-01-22 11:57:20.93	290.99	23.32	-42.3	-43.1	22.3	0.00e+00	0	41	0	1136656384	55	4114
2026-01-22 11:57:24.96	292.06	23.16	-42.2	-43.1	22.4	0.00e+00	0	41	0	1149239296	55	4101
2026-01-22 11:57:29.00	293.13	23.00	-42.1	-42.9	22.4	0.00e+00	0	41	0	1161822208	55	4050
2026-01-22 11:57:33.04	294.18	22.82	-42.4	-43.3	22.2	0.00e+00	0	41	0	1174405120	55	4198
2026-01-22 11:57:37.07	295.22	22.64	-42.4	-43.2	22.2	0.00e+00	0	41	0	1186988032	55	4168
2026-01-22 11:57:41.10	296.25	22.45	-42.4	-43.2	22.2	0.00e+00	0	41	0	1199570944	55	4179
2026-01-22 11:57:45.14	297.27	22.25	-42.5	-43.3	22.1	0.00e+00	0	41	0	1212153856	55	4222
2026-01-22 11:57:49.17	298.27	22.04	-42.5	-43.3	22.1	0.00e+00	0	41	0	1224736768	55	4228
2026-01-22 11:57:53.20	299.26	21.83	-42.6	-43.5	21.9	0.00e+00	0	41	0	1237319680	55	4305
2026-01-22 11:57:57.23	300.23	21.61	-42.4	-43.2	22.1	0.00e+00	0	41	0	1249902592	55	4193
2026-01-22 11:58:01.27	301.20	21.38	-42.4	-43.2	22.0	0.00e+00	0	41	0	1262485504	55	4193
2026-01-22 11:58:05.30	302.15	21.15	-42.6	-43.4	21.9	0.00e+00	0	41	0	1275068416	55	4290
2026-01-22 11:58:09.34	303.08	20.91	-42.5	-43.3	22.0	0.00e+00	0	41	0	1287651328	55	4203
2026-01-22 11:58:13.37	304.00	20.67	-42.3	-43.1	22.1	0.00e+00	0	41	0	1300234240	55	4112
2026-01-22 11:58:17.40	304.91	20.42	-42.6	-43.4	21.8	0.00e+00	0	41	0	1312817152	55	4288
2026-01-22 11:58:21.44	305.80	20.17	-42.5	-43.3	21.9	0.00e+00	0	41	0	1325400064	55	4214
2026-01-22 11:58:25.47	306.68	19.91	-42.5	-43.4	21.9	0.00e+00	0	41	0	1337982976	55	4244
2026-01-22 11:58:29.50	307.54	19.65	-42.5	-43.3	21.9	0.00e+00	0	41	0	1350565888	55	4226
2026-01-22 11:58:33.54	308.39	19.39	-42.8	-43.7	21.7	0.00e+00	0	41	0	1363148800	56	4165
2026-01-22 11:58:37.57	309.23	19.12	-42.6	-43.4	21.7	0.00e+00	0	41	0	1375731712	56	4031
2026-01-22 11:58:41.61	310.05	18.85	-42.6	-43.4	21.8	0.00e+00	0	41	0	1388314624	56	4037
2026-01-22 11:58:45.64	310.85	18.58	-42.5	-43.3	21.9	0.00e+00	0	41	0	1400897536	56	4004
2026-01-22 11:58:49.68	311.65	18.31	-42.4	-43.2	21.9	0.00e+00	0	41	0	1413480448	56	3947
2026-01-22 11:58:53.71	312.43	18.03	-42.5	-43.3	21.8	0.00e+00	0	41	0	1426063360	56	3974
2026-01-22 11:58:57.75	313.19	17.75	-42.6	-43.4	21.7	0.00e+00	0	41	0	1438646272	56	4045
2026-01-22 11:59:01.78	313.94	17.47	-42.8	-43.7	21.5	0.00e+00	0	41	0	1451229184	56	4165
2026-01-22 11:59:05.81	314.68	17.19	-42.8	-43.7	21.5	0.00e+00	0	41	0	1463812096	56	4170
2026-01-22 11:59:09.84	315.40	16.91	-42.6	-43.4	21.7	0.00e+00	0	41	0	1476395008	56	4034
2026-01-22 11:59:13.88	316.12	16.63	-42.7	-43.6	21.1	0.00e+00	0	41	0	1488977920	56	4117
2026-01-22 11:59:17.91	316.81	16.34	-42.8	-43.7	21.5	0.00e+00	0	41	0	1501560832	56	4172
2026-01-22 11:59:21.94	317.50	16.06	-42.9	-43.8	21.4	0.00e+00	0	41	0	1514143744	56	4207
2026-01-22 11:59:25.98	318.17	15.77	-42.6	-43.4	21.8	0.00e+00	0	41	0	1526726656	56	4018
2026-01-22 11:59:30.02	318.84	15.49	-42.8	-43.6	21.4	0.00e+00	0	41	0	1539309568	56	4119
2026-01-22 11:59:34.05	319.48	15.20	-43.2	-44.1	20.9	0.00e+00	0	41	0	1551892480	56	4348
2026-01-22 11:59:38.09	320.12	14.92	-43.4	-44.4	20.8	0.00e+00	0	41	0	1564475392	57	4255
2026-01-22 11:59:42.12	320.75	14.63	-43.5	-44.5	20.7	0.00e+00	0	41	0	1577058304	57	4299
2026-01-22 11:59:46.15	321.36	14.35	-43.4	-44.3	20.9	0.00e+00	0	41	0	1589641216	57	4205
2026-01-22 11:59:50.19	321.96	14.06	-43.6	-44.6	20.5	0.00e+00	0	41	0	1602224128	57	4364
2026-01-22 11:59:54.22	322.55	13.78	-43.7	-44.6	20.6	0.00e+00	0	41	0	1614807040	58	4125
2026-01-22 11:59:58.26	323.14	13.49	-43.4	-44.3	20.9	0.00e+00	0	41	0	1628438528	58	3978
2026-01-22 12:00:02.29	323.71	13.21	-43.4	-44.3	20.8	0.00e+00	0	41	0	1641021440	58	3982
2026-01-22 12:00:06.32	324.26	12.93	-43.7	-44.7	20.4	0.00e+00	0	41	0	1652555776	58	4168
2026-01-22 12:00:10.35	324.81	12.65	-43.9	-44.9	20.2	0.00e+00	0	41	0	1665138688	58	4259
2026-01-22 12:00:14.38	325.35	12.37	-44.0	-44.9	20.1	0.00e+00	0	41	0	1678770176	58	4289
2026-01-22 12:00:18.42	325.88	12.09	-43.9	-44.8	20.2	0.00e+00	0	41	0	1691353088	58	4232
2026-01-22 12:00:22.45	326.40	11.81	-43.6	-44.6	20.5	0.00e+00	0	41	0	1702887424	58	4103
2026-01-22 12:00:26.48	326.91	11.54	-43.9	-44.9	20.2	0.00e+00	0	41	0	1716518912	58	4263
2026-01-22 12:00:30.51	327.41	11.26	-44.0	-45.0	20.1	0.00e+00	0	41	0	1729101824	58	4333
2026-01-22 12:00:34.54	327.91	10.99	-44.0	-45.0	20.0	0.00e+00	0	41	0	1741684736	58	4314
2026-01-22 12:00:38.58	328.39	10.71	-44.1	-45.2	19.8	0.00e+00	0	41	0	1754267648	58	4412
2026-01-22 12:00:42.61	328.87	10.44	-44.2	-45.2	19.8	0.00e+00	0	41	0	1766850560	58	4421
2026-01-22 12:00:46.64	329.33	10.17	-44.1	-45.1	19.8	0.00e+00	0	41	0	1779433472	58	4389
2026-01-22 12:00:50.68	329.79	9.90	-44.0	-45.1	19.8	0.00e+00	0	41	0	1792016384	59	4115
2026-01-22 12:00:54.71	330.24	9.63	-44.0	-45.1	19.8	0.00e+00	0	41	0	1804599296	59	4099
2026-01-22 12:00:58.74	330.69	9.37	-44.2	-45.3	19.6	0.00e+00	0	41	0	1817182208	59	4214
2026-01-22 12:01:02.77	331.12	9.10	-44.3	-45.3	19.6	0.00e+00	0	41	0	1829765120	59	4238
2026-01-22 12:01:06.80	331.55	8.84	-44.2	-45.3	19.6	0.00e+00	0	41	0	1842348032	59	4195
2026-01-22 12:01:10.84	331.97	8.58	-44.3	-45.4	19.5	0.00e+00	0	41	0	1854930944	59	4254
2026-01-22 12:01:14.87	332.39	8.32	-44.3	-45.3	19.6	0.00e+00	0	41	0	1867513856	59	4224
2026-01-22 12:01:18.90	332.79	8.06	-44.2	-45.3	19.6	0.00e+00	0	41	0	1880096768	59	4202
2026-01-22 12:01:22.93	333.19	7.80	-44.5	-45.6	19.2	0.00e+00	0	41	0	1892679680	59	4388
2026-01-22 12:01:26.96	333.59	7.55	-44.5	-45.6	18.9	0.00e+00	0	41	0	1905262592	60	4131
2026-01-22 12:01:30.99	333.97	7.29	-44.3	-45.4	19.0	0.00e+00	0	41	0	1917845504	60	4044
2026-01-22 12:01:35.02	334.35	7.04	-44.5	-45.7	18.7	0.00e+00	0	41	0	1930428416	60	4169
2026-01-22 12:01:39.06	334.73	6.79	-44.5	-45.7	18.7	0.00e+00	0	41	0	1943011328	60	4148
2026-01-22 12:01:43.09	335.10	6.54	-44.6	-45.8	18.6	0.00e+00	0	41	0	1955594240	60	4214
2026-01-22 12:01:47.12	335.46	6.29	-44.9	-46.2	18.1	0.00e+00	0	41	0	1968177152	60	4410
2026-01-22 12:01:51.15	335.81	6.04	-44.8	-46.0	18.3	0.00e+00	0	41	0	1980760064	60	4328
2026-01-22 12:01:55.18	336.16	5.80	-45.2	-46.4	17.9	0.00e+00	0	41	0	1993342976	61	4288
2026-01-22 12:01:59.21	336.51	5.55	-45.4	-46.7	17.5	0.00e+00	0	41	0	2005925888	61	4423
2026-01-22 12:02:03.24	336.85	5.31	-45.3	-46.6	17.6	0.00e+00	0	41	0	2018508800	61	4382
2026-01-22 12:02:07.28	337.19	5.07	-45.3	-46.7	17.5	0.00e+00	0	41	0	2031091712	62	4154
2026-01-22 12:02:11.31	337.52	4.83	-53.4	-66.1	3.8	1.49e+00	0	41	104	2035286016	77	16486
2026-01-22 12:02:15.35	337.84	4.59	-53.8	-66.5	3.8	1.49e+00	0	41	104	2035286016	78	16311
2026-01-22 12:02:19.37	338.16	4.35	-53.8	-66.5	3.8	1.49e+00	0	41	104	2035286016	78	16311
2026-01-22 12:02:23.41	338.48	4.12	-53.5	-66.3	3.8	1.49e+00	0	41	104	2035286016	78	15866
2026-01-22 12:02:27.44	338.79	3.88	-53.7	-66.4	3.8	1.49e+00	0	41	104	2035286016	78	16099
2026-01-22 12:02:31.48	339.09	3.65	-53.6	-66.4	3.8	1.49e+00	0	41	104	2035286016	78	16069
2026-01-22 12:02:35.51	339.39	3.42	-53.6	-66.4	3.8	1.49e+00	0	41	104	2035286016	78	16010
2026-01-22 12:02:39.54	339.69	3.19	-53.6	-66.4	3.8	1.49e+00	0	41	104	2035286016	78	15944
2026-01-22 12:02:43.58	339.98	2.96	-53.6	-66.4	3.8	1.49e+00	0	41	104	2035286016	78	16036
2026-01-22 12:02:47.61	340.27	2.73	-53.6	-66.4	3.8	1.49e+00	0	41	104	2035286016	78	15994
2026-01-22 12:02:51.64	340.56	2.50	-53.6	-66.3	3.8	1.49e+00	0	41	104	2035286016	78	15924
2026-01-22 12:02:55.68	340.84	2.28	-53.5	-66.3	3.8	1.49e+00	0	41	104	2035286016	78	15940
2026-01-22 12:02:59.71	341.11	2.06	-53.5	-66.3	3.8	1.49e+00	0	41	104	2035286016	78	15923

#Closed at: 2026-01-22 12:03:01
#Recorded file [2035 MB]: D:/lorett/data/31041_260122_145001.dat