passes_logs/2026/01/22/R3.2S_Murmansk/R3.2S_Murmansk__20260122_001030_NOAA_21_JPSS-2_rec.log

#Pass ID: 20260122_001030_NOAA 21 (JPSS-2)
#Satellite: NOAA 21 (JPSS-2)
#Configuration: NOAA-21
#almurnet v.1.7.20251203
#Start time: 2026-01-22 00:10:30

#Version: 2.2.20231116
#Station: R3.2S_Murmansk
#Location: 33.079688 lon 68.888172 lat
#TLE: 1 54234U 22150A   26021.42686626  .00000211  00000+0  12107-3 0  9996
#TLE: 2 54234  98.7506 322.2490 0000636 241.9299 118.1812 14.19537149165725

#Time	Az	El	Level	Level2	SNR	BER	BlckErr	Temp	State	Recorded	gain1	gain2
2026-01-22 00:10:30.24	22.69	1.96	-54.3	-67.1	3.8	1.49e+00	0	41	0	0	79	16370
2026-01-22 00:10:34.27	22.77	2.22	-54.2	-67.0	3.8	1.49e+00	0	41	104	0	79	16162
2026-01-22 00:10:38.30	22.84	2.47	-54.2	-67.0	3.8	1.49e+00	0	41	104	0	79	16189
2026-01-22 00:10:42.34	22.91	2.73	-54.4	-67.2	3.8	1.49e+00	0	41	104	0	79	16517
2026-01-22 00:10:46.38	22.98	3.00	-54.4	-67.2	3.8	1.49e+00	0	41	104	0	79	16559
2026-01-22 00:10:50.41	23.06	3.26	-54.3	-67.1	3.8	1.49e+00	0	41	104	0	79	16339
2026-01-22 00:10:54.44	23.13	3.53	-54.2	-67.0	3.8	1.49e+00	0	41	104	0	79	16129
2026-01-22 00:10:58.48	23.21	3.80	-53.9	-66.7	3.8	1.49e+00	0	41	104	0	79	15588
2026-01-22 00:11:02.51	23.29	4.07	-53.2	-66.0	3.8	1.49e+00	0	41	104	0	78	15233
2026-01-22 00:11:06.55	23.37	4.35	-45.0	-46.3	17.7	0.00e+00	0	41	0	6291456	62	3987
2026-01-22 00:11:10.58	23.45	4.63	-46.5	-48.2	15.9	0.00e+00	0	41	0	18874368	63	4654
2026-01-22 00:11:14.61	23.53	4.91	-49.1	-52.2	11.8	1.99e-04	0	41	0	30408704	68	5538
2026-01-22 00:11:18.65	23.61	5.20	-52.1	-62.7	4.0	2.50e-02	6	41	0	44040192	74	13231
2026-01-22 00:11:22.68	23.70	5.48	-45.1	-46.4	17.7	0.00e+00	0	41	0	52428800	62	4039
2026-01-22 00:11:26.71	23.78	5.77	-45.1	-46.4	17.8	0.00e+00	0	41	0	65011712	62	4036
2026-01-22 00:11:30.75	23.87	6.07	-45.0	-46.3	17.9	0.00e+00	0	41	0	77594624	62	3974
2026-01-22 00:11:34.78	23.96	6.37	-44.9	-46.1	18.1	0.00e+00	0	41	0	90177536	61	4143
2026-01-22 00:11:38.81	24.05	6.67	-44.5	-45.6	18.6	0.00e+00	0	41	0	102760448	60	4135
2026-01-22 00:11:42.84	24.14	6.97	-44.4	-45.6	18.7	0.00e+00	0	41	0	115343360	60	4107
2026-01-22 00:11:46.87	24.23	7.28	-44.4	-45.5	18.8	0.00e+00	0	41	0	127926272	60	4091
2026-01-22 00:11:50.91	24.32	7.59	-44.4	-45.6	18.8	0.00e+00	0	41	0	140509184	60	4112
2026-01-22 00:11:54.94	24.42	7.91	-44.1	-45.2	19.1	0.00e+00	0	41	0	153092096	60	3943
2026-01-22 00:11:58.97	24.52	8.22	-44.2	-45.3	19.1	0.00e+00	0	41	0	165675008	60	3971
2026-01-22 00:12:02.98	24.62	8.55	-44.4	-45.5	19.2	0.00e+00	0	41	0	178257920	59	4323
2026-01-22 00:12:07.02	24.72	8.87	-44.7	-45.8	19.0	0.00e+00	0	41	0	190840832	59	4465
2026-01-22 00:12:11.05	24.82	9.21	-44.4	-45.5	19.3	0.00e+00	0	41	0	203423744	59	4296
2026-01-22 00:12:15.09	24.92	9.54	-44.1	-45.2	19.6	0.00e+00	0	41	0	216006656	59	4151
2026-01-22 00:12:19.12	25.03	9.88	-44.0	-45.0	19.8	0.00e+00	0	41	0	228589568	59	4086
2026-01-22 00:12:23.16	25.14	10.23	-43.7	-44.7	20.0	0.00e+00	0	41	0	241172480	59	3955
2026-01-22 00:12:27.20	25.25	10.58	-43.6	-44.6	20.2	0.00e+00	0	41	0	253755392	59	3883
2026-01-22 00:12:31.23	25.37	10.94	-43.5	-44.5	20.3	0.00e+00	0	41	0	266338304	58	4060
2026-01-22 00:12:35.27	25.48	11.30	-43.4	-44.3	20.4	0.00e+00	0	41	0	278921216	58	4002
2026-01-22 00:12:39.30	25.60	11.66	-43.2	-44.2	20.6	0.00e+00	0	41	0	291504128	58	3917
2026-01-22 00:12:43.33	25.72	12.03	-42.9	-43.8	20.9	0.00e+00	0	41	0	304087040	57	4003
2026-01-22 00:12:47.36	25.84	12.41	-42.9	-43.8	20.9	0.00e+00	0	41	0	316669952	57	4000
2026-01-22 00:12:51.40	25.97	12.79	-42.9	-43.8	21.0	0.00e+00	0	41	0	329252864	57	3962
2026-01-22 00:12:55.43	26.10	13.18	-42.9	-43.8	21.0	0.00e+00	0	41	0	341835776	57	3982
2026-01-22 00:12:59.47	26.23	13.58	-42.9	-43.9	20.9	0.00e+00	0	41	0	354418688	57	4009
2026-01-22 00:13:03.50	26.37	13.98	-42.8	-43.7	21.0	0.00e+00	0	41	0	367001600	57	3957
2026-01-22 00:13:07.54	26.50	14.39	-42.7	-43.6	21.2	0.00e+00	0	41	0	379584512	57	3897
2026-01-22 00:13:11.57	26.65	14.80	-42.8	-43.7	21.1	0.00e+00	0	41	0	393216000	57	3947
2026-01-22 00:13:15.61	26.79	15.22	-42.9	-43.8	21.1	0.00e+00	0	41	0	404750336	57	3991
2026-01-22 00:13:19.64	26.94	15.65	-43.1	-44.0	20.9	0.00e+00	0	41	0	418381824	57	4055
2026-01-22 00:13:23.67	27.09	16.09	-43.1	-44.1	20.8	0.00e+00	0	41	0	430964736	57	4105
2026-01-22 00:13:27.71	27.25	16.53	-42.9	-43.8	21.0	0.00e+00	0	41	0	443547648	57	4001
2026-01-22 00:13:31.74	27.41	16.99	-43.1	-44.0	20.9	0.00e+00	0	41	0	455081984	57	4062
2026-01-22 00:13:35.77	27.58	17.45	-42.9	-43.8	21.1	0.00e+00	0	41	0	468713472	57	3963
2026-01-22 00:13:39.80	27.75	17.92	-43.0	-43.9	21.0	0.00e+00	0	40	0	481296384	57	4006
2026-01-22 00:13:43.83	27.92	18.40	-42.6	-43.5	21.3	0.00e+00	0	41	0	492830720	57	3846
2026-01-22 00:13:47.87	28.10	18.88	-42.6	-43.4	21.4	0.00e+00	0	41	0	506462208	57	3818
2026-01-22 00:13:51.90	28.29	19.38	-42.5	-43.3	21.5	0.00e+00	0	41	0	519045120	57	3769
2026-01-22 00:13:55.93	28.48	19.89	-42.5	-43.4	21.5	0.00e+00	0	41	0	531628032	56	4011
2026-01-22 00:13:59.96	28.67	20.41	-42.2	-43.0	21.8	0.00e+00	0	41	0	544210944	56	3868
2026-01-22 00:14:03.99	28.87	20.93	-42.3	-43.1	21.8	0.00e+00	0	41	0	556793856	56	3896
2026-01-22 00:14:08.02	29.08	21.47	-42.3	-43.1	21.9	0.00e+00	0	41	0	569376768	56	3880
2026-01-22 00:14:12.06	29.30	22.02	-42.0	-42.8	22.1	0.00e+00	0	41	0	581959680	56	3751
2026-01-22 00:14:16.09	29.52	22.59	-41.6	-42.4	22.4	0.00e+00	0	41	0	594542592	55	3786
2026-01-22 00:14:20.11	29.75	23.16	-41.3	-42.1	22.6	0.00e+00	0	40	0	607125504	54	3891
2026-01-22 00:14:24.15	29.99	23.75	-41.0	-41.8	22.9	0.00e+00	0	41	0	619708416	54	3753
2026-01-22 00:14:28.18	30.24	24.35	-41.2	-41.9	22.8	0.00e+00	0	41	0	632291328	53	4041
2026-01-22 00:14:32.21	30.50	24.96	-41.4	-42.2	22.7	0.00e+00	0	41	0	644874240	53	4146
2026-01-22 00:14:36.24	30.76	25.59	-41.9	-42.6	22.3	0.00e+00	0	41	0	657457152	54	4143
2026-01-22 00:14:40.28	31.04	26.23	-42.1	-42.9	22.0	0.00e+00	0	40	0	670040064	54	4285
2026-01-22 00:14:44.31	31.33	26.89	-42.2	-43.0	22.0	0.00e+00	0	41	0	682622976	55	4079
2026-01-22 00:14:48.34	31.63	27.57	-42.5	-43.3	21.7	0.00e+00	0	41	0	695205888	55	4214
2026-01-22 00:14:52.38	31.94	28.26	-42.9	-43.8	21.4	0.00e+00	0	41	0	707788800	56	4215
2026-01-22 00:14:56.41	32.26	28.96	-43.3	-44.2	20.9	0.00e+00	0	41	0	720371712	57	4192
2026-01-22 00:15:00.45	32.60	29.69	-43.1	-44.0	21.2	0.00e+00	0	40	0	732954624	57	4069
2026-01-22 00:15:04.48	32.95	30.43	-42.9	-43.7	21.5	0.00e+00	0	40	0	745537536	57	3952
2026-01-22 00:15:08.51	33.32	31.19	-42.3	-43.1	22.1	0.00e+00	0	41	0	758120448	56	3877
2026-01-22 00:15:12.55	33.71	31.97	-42.6	-43.4	21.8	0.00e+00	0	41	0	770703360	56	4044
2026-01-22 00:15:16.58	34.11	32.77	-42.4	-43.2	22.1	0.00e+00	0	41	0	783286272	56	3933
2026-01-22 00:15:20.61	34.53	33.59	-42.8	-43.6	21.8	0.00e+00	0	40	0	795869184	56	4112
2026-01-22 00:15:24.64	34.98	34.43	-43.2	-44.0	21.4	0.00e+00	0	41	0	808452096	56	4337
2026-01-22 00:15:28.68	35.45	35.29	-43.9	-44.9	20.7	0.00e+00	0	41	0	821035008	58	4248
2026-01-22 00:15:32.71	35.94	36.17	-43.8	-44.7	20.8	0.00e+00	0	40	0	833617920	58	4191
2026-01-22 00:15:36.74	36.46	37.08	-43.9	-44.8	20.7	0.00e+00	0	41	0	846200832	58	4212
2026-01-22 00:15:40.77	37.01	38.01	-44.4	-45.4	20.2	0.00e+00	0	41	0	858783744	59	4268
2026-01-22 00:15:44.80	37.59	38.96	-44.2	-45.2	20.5	0.00e+00	0	41	0	871366656	59	4146
2026-01-22 00:15:48.83	38.20	39.94	-44.3	-45.2	20.3	0.00e+00	0	41	0	883949568	59	4176
2026-01-22 00:15:52.87	38.86	40.94	-44.5	-45.5	19.8	0.00e+00	0	41	0	896532480	60	4075
2026-01-22 00:15:56.90	39.55	41.96	-44.8	-45.8	19.5	0.00e+00	0	40	0	909115392	60	4223
2026-01-22 00:16:00.93	40.29	43.01	-44.9	-45.9	19.4	0.00e+00	0	41	0	921698304	60	4269
2026-01-22 00:16:04.96	41.07	44.09	-45.4	-46.6	18.9	0.00e+00	0	41	0	934281216	61	4355
2026-01-22 00:16:08.99	41.91	45.19	-44.9	-46.0	19.4	0.00e+00	0	40	0	946864128	61	4052
2026-01-22 00:16:13.03	42.82	46.31	-45.0	-46.0	19.4	0.00e+00	0	41	0	959447040	61	4084
2026-01-22 00:16:17.06	43.78	47.46	-44.3	-45.3	20.1	0.00e+00	0	41	0	972029952	60	3972
2026-01-22 00:16:21.09	44.82	48.62	-44.2	-45.2	20.2	0.00e+00	0	40	0	984612864	60	3938
2026-01-22 00:16:25.13	45.95	49.81	-44.1	-45.0	20.6	0.00e+00	0	40	0	997195776	59	4090
2026-01-22 00:16:29.16	47.16	51.02	-44.5	-45.5	20.2	0.00e+00	0	41	0	1009778688	59	4334
2026-01-22 00:16:33.19	48.47	52.25	-43.8	-44.7	21.0	0.00e+00	0	41	0	1022361600	59	3941
2026-01-22 00:16:37.22	49.90	53.49	-44.2	-45.1	20.5	0.00e+00	0	40	0	1034944512	59	4138
2026-01-22 00:16:41.25	51.45	54.74	-43.4	-44.3	21.3	0.00e+00	0	41	0	1047527424	58	3983
2026-01-22 00:16:45.29	53.15	56.01	-43.5	-44.4	21.2	0.00e+00	0	41	0	1060110336	58	4015
2026-01-22 00:16:49.32	55.00	57.27	-42.9	-43.8	21.7	0.00e+00	0	41	0	1072693248	57	3968
2026-01-22 00:16:53.35	57.03	58.53	-41.5	-42.2	23.0	0.00e+00	0	41	0	1086324736	54	3932
2026-01-22 00:16:57.39	59.27	59.79	-41.9	-42.6	22.7	0.00e+00	0	41	0	1097859072	54	4134
2026-01-22 00:17:01.42	61.73	61.02	-41.5	-42.3	22.9	0.00e+00	0	41	0	1110441984	54	3977
2026-01-22 00:17:05.45	64.44	62.23	-41.8	-42.6	22.7	0.00e+00	0	41	0	1124073472	54	4117
2026-01-22 00:17:09.49	67.43	63.40	-41.2	-41.9	23.0	0.00e+00	0	41	0	1136656384	54	3805
2026-01-22 00:17:13.53	70.72	64.52	-40.9	-41.6	23.4	0.00e+00	0	41	0	1148190720	53	3872
2026-01-22 00:17:17.56	74.33	65.57	-41.6	-42.3	22.8	0.00e+00	0	40	0	1161822208	53	4240
2026-01-22 00:17:21.59	78.29	66.54	-40.7	-41.4	23.6	0.00e+00	0	41	0	1174405120	53	3785
2026-01-22 00:17:25.63	82.61	67.41	-40.6	-41.3	23.6	0.00e+00	0	40	0	1186988032	53	3749
2026-01-22 00:17:29.66	87.28	68.17	-40.9	-41.6	23.3	0.00e+00	0	41	0	1199570944	53	3890
2026-01-22 00:17:33.69	92.27	68.78	-40.7	-41.4	23.4	0.00e+00	0	41	0	1212153856	52	4038
2026-01-22 00:17:37.73	97.55	69.24	-40.8	-41.6	23.2	0.00e+00	0	41	0	1224736768	52	4107
2026-01-22 00:17:41.76	103.03	69.54	-41.3	-42.0	22.8	0.00e+00	0	41	0	1237319680	53	4073
2026-01-22 00:17:45.80	108.65	69.65	-42.0	-42.8	22.3	0.00e+00	0	41	0	1249902592	54	4222
2026-01-22 00:17:49.83	114.26	69.59	-41.4	-42.2	23.0	0.00e+00	0	41	0	1262485504	54	3943
2026-01-22 00:17:53.87	119.80	69.34	-40.7	-41.4	23.5	0.00e+00	0	41	0	1275068416	53	3790
2026-01-22 00:17:57.90	125.14	68.93	-41.4	-42.2	22.8	0.00e+00	0	41	0	1287651328	53	4152
2026-01-22 00:18:01.93	130.22	68.35	-40.8	-41.5	23.4	0.00e+00	0	41	0	1300234240	53	3830
2026-01-22 00:18:05.96	134.98	67.64	-41.0	-41.8	23.3	0.00e+00	0	41	0	1312817152	53	3960
2026-01-22 00:18:10.00	139.41	66.80	-41.3	-42.0	23.1	0.00e+00	0	41	0	1325400064	53	4072
2026-01-22 00:18:14.03	143.47	65.85	-40.6	-41.3	23.7	0.00e+00	0	41	0	1337982976	53	3763
2026-01-22 00:18:18.06	147.18	64.82	-40.8	-41.5	23.5	0.00e+00	0	41	0	1350565888	53	3844
2026-01-22 00:18:22.09	150.56	63.72	-41.4	-42.2	22.9	0.00e+00	0	41	0	1363148800	53	4171
2026-01-22 00:18:26.13	153.64	62.55	-41.4	-42.1	22.8	0.00e+00	0	41	0	1375731712	54	3896
2026-01-22 00:18:30.16	156.42	61.35	-42.6	-43.5	21.8	0.00e+00	0	41	0	1388314624	55	4301
2026-01-22 00:18:34.20	158.95	60.12	-40.9	-41.6	23.4	0.00e+00	0	41	0	1400897536	53	3877
2026-01-22 00:18:38.24	161.25	58.87	-43.5	-44.5	20.5	0.00e+00	0	41	0	1413480448	57	4295
2026-01-22 00:18:42.27	163.34	57.60	-41.2	-41.9	22.8	0.00e+00	0	41	0	1426063360	53	4019
2026-01-22 00:18:46.30	165.24	56.34	-43.7	-44.6	19.9	0.00e+00	0	41	0	1438646272	58	4132
2026-01-22 00:18:50.33	166.98	55.07	-42.4	-43.2	21.9	0.00e+00	0	41	0	1451229184	56	3931
2026-01-22 00:18:54.37	168.58	53.81	-44.2	-45.3	19.6	0.00e+00	0	41	0	1463812096	60	3964
2026-01-22 00:18:58.40	170.04	52.56	-42.3	-43.0	22.2	0.00e+00	0	41	0	1476395008	56	3854
2026-01-22 00:19:02.44	171.39	51.32	-45.0	-46.2	18.8	0.00e+00	0	41	0	1488977920	60	4395
2026-01-22 00:19:06.47	172.63	50.10	-45.4	-46.5	18.2	0.00e+00	0	41	0	1501560832	62	4082
2026-01-22 00:19:10.50	173.77	48.91	-44.6	-45.6	19.3	0.00e+00	0	41	0	1514143744	60	4141
2026-01-22 00:19:14.53	174.83	47.73	-45.6	-46.9	18.7	0.00e+00	0	41	0	1526726656	61	4496
2026-01-22 00:19:18.56	175.82	46.57	-44.2	-45.1	20.4	0.00e+00	0	41	0	1539309568	59	4127
2026-01-22 00:19:22.60	176.74	45.44	-44.5	-45.5	20.2	0.00e+00	0	41	0	1551892480	59	4321
2026-01-22 00:19:26.63	177.60	44.33	-44.2	-45.1	20.2	0.00e+00	0	41	0	1564475392	60	3913
2026-01-22 00:19:30.66	178.40	43.25	-45.8	-47.0	18.2	0.00e+00	0	41	0	1577058304	62	4337
2026-01-22 00:19:34.69	179.15	42.19	-44.5	-45.5	19.7	0.00e+00	0	41	0	1589641216	61	3858
2026-01-22 00:19:38.72	179.85	41.15	-44.6	-45.7	19.6	0.00e+00	0	41	0	1602224128	60	4150
2026-01-22 00:19:42.76	180.52	40.14	-44.4	-45.4	19.9	0.00e+00	0	41	0	1614807040	60	4048
2026-01-22 00:19:46.79	181.14	39.15	-44.5	-45.5	19.8	0.00e+00	0	41	0	1627389952	60	4056
2026-01-22 00:19:50.82	181.73	38.19	-44.9	-46.0	19.4	0.00e+00	0	40	0	1639972864	61	4073
2026-01-22 00:19:54.85	182.29	37.25	-43.9	-44.8	20.5	0.00e+00	0	41	0	1652555776	59	3987
2026-01-22 00:19:58.89	182.81	36.34	-44.2	-45.2	20.3	0.00e+00	0	41	0	1665138688	59	4170
2026-01-22 00:20:02.92	183.31	35.44	-43.3	-44.2	20.9	0.00e+00	0	41	0	1677721600	58	3937
2026-01-22 00:20:06.95	183.79	34.57	-43.7	-44.7	20.6	0.00e+00	0	41	0	1691353088	58	4160
2026-01-22 00:20:10.98	184.24	33.72	-43.8	-44.7	20.5	0.00e+00	0	41	0	1702887424	58	4170
2026-01-22 00:20:15.01	184.67	32.90	-43.8	-44.8	20.6	0.00e+00	0	41	0	1715470336	58	4224
2026-01-22 00:20:19.05	185.08	32.09	-43.9	-44.9	20.5	0.00e+00	0	41	0	1729101824	59	4041
2026-01-22 00:20:23.08	185.46	31.30	-43.3	-44.2	21.2	0.00e+00	0	41	0	1741684736	58	3925
2026-01-22 00:20:27.11	185.84	30.53	-42.8	-43.7	21.5	0.00e+00	0	40	0	1753219072	57	3932
2026-01-22 00:20:31.14	186.19	29.78	-42.6	-43.4	21.6	0.00e+00	0	41	0	1766850560	56	4051
2026-01-22 00:20:35.18	186.53	29.05	-42.4	-43.2	21.9	0.00e+00	0	41	0	1779433472	56	3939
2026-01-22 00:20:39.21	186.86	28.34	-41.7	-42.5	22.4	0.00e+00	0	41	0	1790967808	55	3834
2026-01-22 00:20:43.24	187.17	27.64	-42.0	-42.8	22.1	0.00e+00	0	41	0	1803550720	55	3979
2026-01-22 00:20:47.27	187.47	26.96	-41.9	-42.7	22.3	0.00e+00	0	41	0	1817182208	55	3923
2026-01-22 00:20:51.31	187.76	26.30	-42.0	-42.8	22.1	0.00e+00	0	41	0	1829765120	55	4004
2026-01-22 00:20:55.34	188.04	25.65	-41.6	-42.4	22.5	0.00e+00	0	41	0	1841299456	55	3793
2026-01-22 00:20:59.38	188.31	25.01	-41.9	-42.7	22.1	0.00e+00	0	41	0	1854930944	55	3943
2026-01-22 00:21:03.41	188.57	24.39	-42.1	-42.9	21.9	0.00e+00	0	41	0	1867513856	55	4023
2026-01-22 00:21:07.45	188.82	23.79	-41.7	-42.5	22.2	0.00e+00	0	41	0	1880096768	55	3837
2026-01-22 00:21:11.48	189.06	23.19	-42.0	-42.8	21.8	0.00e+00	0	41	0	1892679680	55	3972
2026-01-22 00:21:15.51	189.29	22.61	-42.2	-43.1	21.5	0.00e+00	0	40	0	1905262592	55	4118
2026-01-22 00:21:19.54	189.51	22.05	-42.4	-43.2	21.5	0.00e+00	0	41	0	1917845504	55	4179
2026-01-22 00:21:23.58	189.73	21.49	-42.1	-43.0	21.8	0.00e+00	0	41	0	1930428416	55	4065
2026-01-22 00:21:27.61	189.94	20.95	-41.8	-42.6	22.0	0.00e+00	0	40	0	1943011328	55	3912
2026-01-22 00:21:31.64	190.14	20.42	-41.6	-42.4	22.2	0.00e+00	0	41	0	1955594240	55	3808
2026-01-22 00:21:35.68	190.34	19.89	-41.7	-42.5	22.2	0.00e+00	0	41	0	1968177152	55	3844
2026-01-22 00:21:39.71	190.53	19.38	-41.8	-42.6	22.1	0.00e+00	0	41	0	1980760064	55	3898
2026-01-22 00:21:43.74	190.71	18.88	-41.8	-42.6	22.1	0.00e+00	0	40	0	1993342976	55	3901
2026-01-22 00:21:47.77	190.89	18.39	-42.1	-42.9	21.9	0.00e+00	0	41	0	2005925888	55	4015
2026-01-22 00:21:51.81	191.07	17.91	-42.2	-43.0	21.7	0.00e+00	0	41	0	2018508800	55	4087
2026-01-22 00:21:55.84	191.23	17.43	-42.5	-43.4	21.4	0.00e+00	0	41	0	2031091712	55	4245
2026-01-22 00:21:59.87	191.40	16.97	-42.6	-43.5	21.3	0.00e+00	0	41	0	2043674624	55	4325
2026-01-22 00:22:03.91	191.56	16.51	-43.1	-44.1	20.9	0.00e+00	0	41	0	2056257536	56	4350
2026-01-22 00:22:07.94	191.72	16.06	-43.4	-44.3	20.6	0.00e+00	0	41	0	2068840448	57	4227
2026-01-22 00:22:11.98	191.87	15.62	-43.4	-44.4	20.5	0.00e+00	0	40	0	2081423360	57	4277
2026-01-22 00:22:16.01	192.02	15.19	-43.6	-44.6	20.4	0.00e+00	0	41	0	2094006272	57	4348
2026-01-22 00:22:20.04	192.16	14.77	-43.4	-44.3	20.6	0.00e+00	0	41	0	2106589184	57	4235
2026-01-22 00:22:24.07	192.30	14.35	-43.4	-44.4	20.5	0.00e+00	0	41	0	2119172096	57	4248
2026-01-22 00:22:28.10	192.44	13.94	-43.4	-44.3	20.5	0.00e+00	0	40	0	2131755008	57	4237
2026-01-22 00:22:32.13	192.57	13.53	-43.4	-44.4	20.4	0.00e+00	0	41	0	2144337920	57	4256
2026-01-22 00:22:36.16	192.70	13.14	-43.5	-44.4	20.3	0.00e+00	0	41	0	2156920832	57	4289
2026-01-22 00:22:40.20	192.83	12.75	-43.6	-44.6	20.2	0.00e+00	0	40	0	2169503744	57	4350
2026-01-22 00:22:44.22	192.95	12.36	-43.6	-44.6	20.1	0.00e+00	0	41	0	2182086656	58	4140
2026-01-22 00:22:48.25	193.07	11.98	-43.5	-44.4	20.3	0.00e+00	0	41	0	2194669568	58	4044
2026-01-22 00:22:52.28	193.19	11.61	-43.6	-44.6	20.1	0.00e+00	0	41	0	2207252480	58	4116
2026-01-22 00:22:56.32	193.31	11.24	-43.4	-44.4	20.3	0.00e+00	0	41	0	2219835392	58	4036
2026-01-22 00:23:00.35	193.42	10.88	-43.5	-44.5	20.2	0.00e+00	0	41	0	2232418304	58	4062
2026-01-22 00:23:04.38	193.54	10.52	-43.7	-44.7	20.0	0.00e+00	0	41	0	2245001216	58	4147
2026-01-22 00:23:08.41	193.64	10.17	-43.7	-44.7	20.0	0.00e+00	0	40	0	2257584128	58	4168
2026-01-22 00:23:12.44	193.75	9.82	-43.9	-44.9	19.8	0.00e+00	0	41	0	2270167040	58	4270
2026-01-22 00:23:16.47	193.86	9.48	-44.0	-45.1	19.6	0.00e+00	0	40	0	2282749952	58	4359
2026-01-22 00:23:20.51	193.96	9.14	-44.1	-45.2	19.5	0.00e+00	0	40	0	2295332864	59	4177
2026-01-22 00:23:24.54	194.06	8.81	-44.3	-45.5	19.2	0.00e+00	0	41	0	2307915776	59	4296
2026-01-22 00:23:28.57	194.16	8.48	-44.5	-45.6	19.0	0.00e+00	0	40	0	2320498688	59	4371
2026-01-22 00:23:32.60	194.26	8.15	-44.4	-45.5	18.8	0.00e+00	0	41	0	2333081600	60	4076
2026-01-22 00:23:36.64	194.35	7.83	-44.3	-45.4	18.8	0.00e+00	0	41	0	2345664512	60	4044
2026-01-22 00:23:40.67	194.44	7.51	-44.4	-45.6	18.7	0.00e+00	0	41	0	2358247424	60	4103
2026-01-22 00:23:44.70	194.54	7.20	-44.5	-45.6	18.5	0.00e+00	0	40	0	2370830336	60	4138
2026-01-22 00:23:48.73	194.63	6.89	-44.8	-46.0	18.2	0.00e+00	0	41	0	2383413248	60	4314
2026-01-22 00:23:52.76	194.71	6.58	-44.7	-46.0	18.1	0.00e+00	0	41	0	2395996160	60	4310
2026-01-22 00:23:56.79	194.80	6.28	-44.9	-46.2	17.9	0.00e+00	0	41	0	2408579072	60	4435
2026-01-22 00:24:00.83	194.89	5.98	-45.0	-46.3	17.8	0.00e+00	0	41	0	2421161984	60	4456
2026-01-22 00:24:04.86	194.97	5.69	-45.1	-46.4	17.6	0.00e+00	0	41	0	2434793472	61	4265
2026-01-22 00:24:08.89	195.05	5.39	-45.4	-46.8	17.1	0.00e+00	0	40	0	2446327808	61	4490
2026-01-22 00:24:12.92	195.13	5.11	-45.4	-46.9	17.1	0.00e+00	0	41	0	2458910720	62	4255
2026-01-22 00:24:16.96	195.21	4.82	-53.3	-66.1	3.8	1.49e+00	0	41	104	2464153600	77	16436
2026-01-22 00:24:20.99	195.29	4.54	-53.8	-66.6	3.8	1.49e+00	0	40	104	2464153600	78	16400
2026-01-22 00:24:25.02	195.37	4.26	-54.1	-66.9	3.8	1.49e+00	0	41	104	2464153600	78	16939
2026-01-22 00:24:29.05	195.45	3.98	-54.2	-67.0	3.8	1.49e+00	0	41	104	2464153600	78	17187
2026-01-22 00:24:33.09	195.52	3.70	-54.3	-67.1	3.8	1.49e+00	0	41	104	2464153600	79	16337
2026-01-22 00:24:37.12	195.59	3.43	-54.3	-67.1	3.8	1.49e+00	0	41	104	2464153600	79	16355
2026-01-22 00:24:41.16	195.67	3.16	-54.1	-66.9	3.8	1.49e+00	0	41	104	2464153600	79	15964
2026-01-22 00:24:45.19	195.74	2.90	-53.5	-66.3	3.8	1.49e+00	0	41	104	2464153600	79	14985
2026-01-22 00:24:49.23	195.81	2.63	-53.5	-66.3	3.8	1.49e+00	0	41	104	2464153600	79	14884
2026-01-22 00:24:53.26	195.88	2.37	-53.4	-66.3	3.8	1.49e+00	0	41	104	2464153600	78	15764
2026-01-22 00:24:57.29	195.95	2.11	-53.4	-66.2	3.8	1.49e+00	0	41	104	2464153600	78	15699

#Closed at: 2026-01-22 00:24:59
#Recorded file [2464 MB]: D:/lorett/data/31041_260122_031030.dat