passes_logs/2026/01/22/R3.2S_Murmansk/R3.2S_Murmansk__20260122_210835_JL1KF02B02_rec.log

#Pass ID: 20260122_210835_JL1KF02B02
#Satellite: JL1KF02B02
#Configuration: 01B_900M
#almurnet v.1.7.20251203
#Start time: 2026-01-22 21:08:37

#Version: 2.2.20231116
#Station: R3.2S_Murmansk
#Location: 33.079688 lon 68.888172 lat
#TLE: 1 61193U 24169E   26022.40808490  .00007244  00000+0  45160-3 0  9992
#TLE: 2 61193  97.5730 114.1865 0013674 111.0098 249.2596 15.09762919 73848

#Time	Az	El	Level	Level2	SNR	BER	BlckErr	Temp	State	Recorded	gain1	gain2
2026-01-22 21:08:37.97	192.03	2.14	-55.3	-57.4	6.2	0.00e+00	0	43	0	0	81	19176
2026-01-22 21:08:40.87	192.21	2.33	-55.4	-57.5	6.2	0.00e+00	0	43	104	0	82	18185
2026-01-22 21:08:43.79	192.40	2.52	-55.2	-57.3	6.2	0.00e+00	0	43	104	0	82	17887
2026-01-22 21:08:46.71	192.59	2.72	-55.1	-57.2	6.2	0.00e+00	0	43	104	0	82	17675
2026-01-22 21:08:49.63	192.78	2.91	-55.0	-57.1	6.2	0.00e+00	0	43	104	0	82	17403
2026-01-22 21:08:52.54	192.97	3.11	-54.7	-56.8	6.2	0.00e+00	0	43	104	0	81	17960
2026-01-22 21:08:55.44	193.17	3.31	-54.4	-56.5	6.2	0.00e+00	0	43	104	0	80	18289
2026-01-22 21:08:58.36	193.37	3.51	-53.8	-55.9	6.2	0.00e+00	0	43	104	0	79	18108
2026-01-22 21:09:01.27	193.57	3.71	-53.8	-55.9	6.2	0.00e+00	0	43	104	0	79	18067
2026-01-22 21:09:04.18	193.78	3.91	-53.8	-55.9	6.2	0.00e+00	0	43	104	0	79	18004
2026-01-22 21:09:07.09	193.99	4.12	-53.8	-55.9	6.2	0.00e+00	0	44	104	0	79	18035
2026-01-22 21:09:10.00	194.21	4.33	-53.8	-55.8	6.2	0.00e+00	0	44	104	0	79	17895
2026-01-22 21:09:12.91	194.43	4.54	-53.7	-55.8	6.2	0.00e+00	0	44	104	0	79	17953
2026-01-22 21:09:15.83	194.65	4.75	-53.7	-55.8	6.2	0.00e+00	0	44	104	0	79	17913
2026-01-22 21:09:18.74	194.87	4.96	-53.7	-55.8	6.2	0.00e+00	0	44	104	0	79	17949
2026-01-22 21:09:21.64	195.10	5.18	-53.8	-55.9	6.2	0.00e+00	0	44	104	0	79	18154
2026-01-22 21:09:24.55	195.34	5.39	-53.7	-55.8	6.2	0.00e+00	0	44	104	0	79	17955
2026-01-22 21:09:27.47	195.57	5.61	-53.7	-55.8	6.2	0.00e+00	0	44	104	0	79	17776
2026-01-22 21:09:30.38	195.82	5.83	-53.8	-55.9	6.2	0.00e+00	0	44	104	0	79	18039
2026-01-22 21:09:33.30	196.06	6.06	-53.8	-55.9	6.2	0.00e+00	0	44	104	0	79	18102
2026-01-22 21:09:36.21	196.31	6.28	-53.7	-55.8	6.2	0.00e+00	0	44	104	0	79	17812
2026-01-22 21:09:39.12	196.57	6.51	-53.7	-55.8	6.2	0.00e+00	0	44	104	0	79	17898
2026-01-22 21:09:42.03	196.83	6.74	-53.8	-55.9	6.2	0.00e+00	0	44	104	0	79	18107
2026-01-22 21:09:44.95	197.10	6.97	-53.8	-55.9	6.2	0.00e+00	0	44	104	0	79	18125
2026-01-22 21:09:47.87	197.37	7.20	-53.7	-55.8	6.2	0.00e+00	0	44	104	0	79	17850
2026-01-22 21:09:50.79	197.64	7.44	-53.8	-55.9	6.2	0.00e+00	0	44	104	0	79	18012
2026-01-22 21:09:53.70	197.92	7.68	-53.9	-56.0	6.2	0.00e+00	0	44	104	0	79	18212
2026-01-22 21:09:56.62	198.21	7.92	-53.8	-55.9	6.2	0.00e+00	0	44	104	0	79	18143
2026-01-22 21:09:59.53	198.50	8.16	-53.8	-55.9	6.2	0.00e+00	0	44	104	0	79	18063
2026-01-22 21:10:02.44	198.80	8.41	-49.7	-50.3	6.8	0.00e+00	0	44	104	0	71	15060
2026-01-22 21:10:05.35	199.10	8.66	-50.3	-51.2	6.3	0.00e+00	0	44	104	0	72	15807
2026-01-22 21:10:08.26	199.41	8.91	-46.8	-47.2	6.2	0.00e+00	0	44	104	0	65	14896
2026-01-22 21:10:11.17	199.73	9.16	-48.9	-49.5	6.3	0.00e+00	0	45	104	0	69	15390
2026-01-22 21:10:14.08	200.05	9.42	-46.5	-47.1	6.3	0.00e+00	0	45	104	0	65	14660
2026-01-22 21:10:17.00	200.38	9.68	-50.8	-51.8	6.3	0.00e+00	0	44	104	0	72	16963
2026-01-22 21:10:19.91	200.71	9.94	-42.8	-42.8	11.9	5.51e-03	0	45	0	25165824	56	14953
2026-01-22 21:10:22.82	201.05	10.21	-36.0	-35.9	15.2	2.40e-04	0	45	0	352321536	43	14314
2026-01-22 21:10:25.73	201.40	10.48	-34.6	-34.5	14.4	4.77e-04	0	45	0	671088640	41	13703
2026-01-22 21:10:28.64	201.76	10.75	-33.2	-33.0	14.6	1.70e-04	0	44	0	998244352	38	13725
2026-01-22 21:10:31.56	202.13	11.02	-28.9	-28.7	13.8	2.90e-04	0	45	0	1325400064	29	14054
2026-01-22 21:10:34.47	202.50	11.30	-28.8	-28.6	13.7	2.57e-04	0	45	0	1669332992	29	13875
2026-01-22 21:10:37.39	202.88	11.58	-28.8	-28.7	13.9	1.72e-04	0	45	0	1988100096	29	13953
2026-01-22 21:10:40.31	203.28	11.86	-28.2	-28.0	13.7	1.89e-04	0	45	0	2315255808	28	13761
2026-01-22 21:10:43.22	203.67	12.15	-28.0	-27.9	13.7	2.14e-04	0	45	0	2642411520	28	13532
2026-01-22 21:10:46.13	204.08	12.44	-28.1	-27.9	13.8	1.89e-04	0	45	0	2969567232	28	13567
2026-01-22 21:10:49.04	204.50	12.73	-28.1	-27.9	13.8	1.98e-04	0	45	0	3296722944	27	14383
2026-01-22 21:10:51.95	204.93	13.03	-27.9	-27.7	13.7	1.94e-04	0	45	0	3623878656	27	14099
2026-01-22 21:10:54.86	205.36	13.33	-27.8	-27.6	13.7	2.08e-04	0	45	0	3951034368	27	13920
2026-01-22 21:10:57.77	205.81	13.63	-27.8	-27.6	13.7	1.75e-04	0	45	0	4286578688	27	13895
2026-01-22 21:11:00.68	206.27	13.94	-27.5	-27.4	13.7	1.37e-04	0	45	0	4613734400	26	14300
2026-01-22 21:11:03.59	206.74	14.25	-27.6	-27.4	13.8	1.41e-04	0	45	0	4940890112	26	14385
2026-01-22 21:11:06.51	207.22	14.57	-27.3	-27.1	13.7	1.35e-04	0	45	0	5268045824	26	13891
2026-01-22 21:11:09.42	207.71	14.88	-27.0	-26.9	13.7	9.53e-05	0	45	0	5595201536	25	14304
2026-01-22 21:11:12.33	208.21	15.20	-27.1	-26.9	13.7	9.15e-05	0	45	0	5913968640	25	14347
2026-01-22 21:11:15.25	208.73	15.53	-26.8	-26.7	13.8	8.96e-05	0	45	0	6241124352	25	13990
2026-01-22 21:11:18.16	209.26	15.86	-26.8	-26.7	13.8	8.01e-05	0	45	0	6568280064	25	13985
2026-01-22 21:11:21.07	209.80	16.19	-26.6	-26.5	13.8	7.82e-05	0	46	0	6903824384	25	13659
2026-01-22 21:11:23.97	210.36	16.52	-26.4	-26.2	13.8	5.72e-05	0	45	0	7230980096	24	14015
2026-01-22 21:11:26.88	210.93	16.86	-26.2	-26.0	13.9	7.24e-05	0	45	0	7558135808	24	13776
2026-01-22 21:11:29.79	211.51	17.20	-26.2	-26.0	13.8	5.91e-05	0	45	0	7885291520	24	13780
2026-01-22 21:11:32.71	212.11	17.55	-26.1	-26.0	13.9	7.82e-05	0	46	0	8212447232	24	13670
2026-01-22 21:11:35.62	212.73	17.89	-25.9	-25.8	13.9	7.43e-05	0	46	0	8539602944	23	14160
2026-01-22 21:11:38.53	213.36	18.25	-25.7	-25.6	14.0	4.00e-05	0	45	0	8866758656	23	13794
2026-01-22 21:11:41.44	214.01	18.60	-25.7	-25.5	14.0	5.72e-05	0	46	0	9193914368	23	13773
2026-01-22 21:11:44.35	214.67	18.96	-25.5	-25.4	13.9	5.91e-05	0	46	0	9521070080	22	14282
2026-01-22 21:11:47.26	215.35	19.32	-25.4	-25.2	14.0	4.95e-05	0	46	0	9848225792	22	14101
2026-01-22 21:11:50.17	216.06	19.68	-25.2	-25.0	13.9	3.81e-05	0	46	0	10183770112	22	13700
2026-01-22 21:11:53.08	216.77	20.05	-25.1	-25.0	13.9	4.38e-05	0	46	0	10510925824	22	13641
2026-01-22 21:11:56.00	217.52	20.42	-25.0	-24.8	13.9	4.00e-05	0	45	0	10838081536	22	13468
2026-01-22 21:11:58.91	218.28	20.79	-24.7	-24.6	14.0	3.43e-05	0	46	0	11156848640	21	13819
2026-01-22 21:12:01.82	219.05	21.16	-24.7	-24.6	14.0	1.90e-05	0	45	0	11484004352	21	13791
2026-01-22 21:12:04.74	219.86	21.54	-24.5	-24.4	14.1	2.47e-05	0	46	0	11811160064	21	13482
2026-01-22 21:12:07.65	220.68	21.92	-24.4	-24.2	14.1	1.71e-05	0	46	0	12138315776	20	14100
2026-01-22 21:12:10.55	221.52	22.29	-24.3	-24.2	14.1	2.47e-05	0	46	0	12465471488	20	13961
2026-01-22 21:12:13.46	222.39	22.67	-24.2	-24.0	14.0	3.24e-05	0	46	0	12792627200	20	13742
2026-01-22 21:12:16.38	223.28	23.05	-24.1	-23.9	14.0	3.24e-05	0	46	0	13128171520	20	13623
2026-01-22 21:12:19.28	224.19	23.43	-24.0	-23.9	13.9	3.05e-05	0	46	0	13455327232	20	13524
2026-01-22 21:12:22.19	225.13	23.81	-24.2	-24.0	13.9	3.81e-05	0	45	0	13782482944	19	14536
2026-01-22 21:12:25.11	226.10	24.18	-24.0	-23.8	13.9	3.24e-05	0	46	0	14109638656	19	14185
2026-01-22 21:12:28.01	227.08	24.56	-24.0	-23.8	13.8	6.86e-05	0	46	0	14436794368	19	14239
2026-01-22 21:12:30.94	228.10	24.94	-23.9	-23.8	13.8	4.76e-05	0	45	0	14763950080	19	14121
2026-01-22 21:12:33.84	229.14	25.31	-23.8	-23.6	13.9	4.19e-05	0	46	0	15082717184	19	13921
2026-01-22 21:12:36.75	230.21	25.68	-23.8	-23.6	13.6	8.39e-05	0	46	0	15409872896	19	13944
2026-01-22 21:12:39.66	231.30	26.04	-23.8	-23.6	13.8	6.86e-05	0	46	0	15737028608	19	13865
2026-01-22 21:12:42.59	232.43	26.40	-23.4	-23.3	13.7	8.58e-05	0	46	0	16072572928	18	14131
2026-01-22 21:12:45.52	233.59	26.76	-23.4	-23.3	13.7	7.05e-05	0	46	0	16399728640	18	14157
2026-01-22 21:12:48.42	234.76	27.11	-23.5	-23.3	13.8	5.91e-05	0	46	0	16726884352	18	14174
2026-01-22 21:12:51.34	235.97	27.45	-23.2	-23.0	14.1	7.05e-05	0	46	0	17054040064	18	13706
2026-01-22 21:12:54.25	237.20	27.78	-23.1	-23.0	14.3	5.53e-05	0	46	0	17381195776	18	13685
2026-01-22 21:12:57.17	238.47	28.11	-22.9	-22.8	14.6	4.00e-05	0	46	0	17716740096	17	14129
2026-01-22 21:13:00.09	239.76	28.42	-22.8	-22.6	14.7	2.67e-05	0	46	0	18043895808	17	13863
2026-01-22 21:13:03.00	241.07	28.72	-22.9	-22.7	14.4	9.15e-05	0	46	0	18371051520	17	14046
2026-01-22 21:13:05.91	242.41	29.02	-22.7	-22.5	14.7	4.00e-05	0	46	0	18698207232	17	13771
2026-01-22 21:13:08.83	243.78	29.30	-22.6	-22.4	14.9	9.50e-06	0	45	0	19025362944	17	13573
2026-01-22 21:13:11.74	245.17	29.56	-22.6	-22.4	14.9	1.90e-05	0	46	0	19352518656	17	13599
2026-01-22 21:13:14.66	246.59	29.81	-22.6	-22.5	15.1	1.14e-05	0	46	0	19679674368	17	13684
2026-01-22 21:13:17.57	248.03	30.05	-22.6	-22.5	15.5	5.70e-06	0	46	0	20006830080	17	13668
2026-01-22 21:13:20.48	249.49	30.27	-22.7	-22.5	15.4	5.70e-06	0	46	0	20342374400	17	13679
2026-01-22 21:13:23.40	250.97	30.47	-22.4	-22.3	14.7	2.67e-05	0	46	0	20669530112	16	14156
2026-01-22 21:13:26.31	252.47	30.65	-22.4	-22.3	14.4	5.14e-05	0	45	0	20996685824	16	14139
2026-01-22 21:13:29.22	253.98	30.81	-22.4	-22.3	14.7	2.67e-05	0	46	0	21315452928	16	14113
2026-01-22 21:13:32.12	255.51	30.96	-22.4	-22.2	14.6	7.62e-05	0	46	0	21642608640	16	14096
2026-01-22 21:13:35.03	257.05	31.08	-22.5	-22.3	14.4	6.48e-05	0	46	0	21969764352	16	14216
2026-01-22 21:13:37.95	258.61	31.18	-22.5	-22.3	14.3	8.20e-05	0	46	0	22296920064	16	14207
2026-01-22 21:13:40.86	260.18	31.26	-22.5	-22.4	14.2	1.43e-04	0	46	0	22624075776	16	14279
2026-01-22 21:13:43.77	261.75	31.32	-22.7	-22.5	14.1	1.64e-04	0	46	0	22959620096	16	14523
2026-01-22 21:13:46.68	263.32	31.36	-22.5	-22.3	13.9	1.28e-04	0	45	0	23286775808	16	14238
2026-01-22 21:13:49.60	264.90	31.37	-22.7	-22.6	13.9	1.81e-04	0	45	0	23613931520	16	14631
2026-01-22 21:13:52.50	266.48	31.36	-22.6	-22.5	13.7	1.70e-04	0	46	0	23941087232	16	14497
2026-01-22 21:13:55.42	268.06	31.33	-22.7	-22.5	13.8	1.35e-04	0	46	0	24268242944	16	14516
2026-01-22 21:13:58.33	269.63	31.28	-22.8	-22.6	13.8	1.09e-04	0	46	0	24595398656	16	14719
2026-01-22 21:14:01.25	271.20	31.20	-22.9	-22.7	13.9	8.77e-05	0	46	0	24922554368	16	14836
2026-01-22 21:14:04.16	272.76	31.10	-22.9	-22.7	13.9	9.91e-05	0	46	0	25241321472	16	14839
2026-01-22 21:14:07.07	274.30	30.99	-22.9	-22.7	14.0	6.10e-05	0	46	0	25585254400	16	14823
2026-01-22 21:14:09.99	275.84	30.85	-22.9	-22.8	13.9	7.62e-05	0	46	0	25912410112	16	14980
2026-01-22 21:14:12.89	277.35	30.69	-23.0	-22.8	14.0	8.39e-05	0	46	0	26239565824	16	15056
2026-01-22 21:14:15.80	278.85	30.51	-23.1	-22.9	13.9	1.01e-04	0	46	0	26558332928	16	15230
2026-01-22 21:14:18.70	280.33	30.32	-23.0	-22.8	13.9	7.62e-05	0	46	0	26885488640	16	15007
2026-01-22 21:14:21.62	281.80	30.10	-23.1	-22.9	13.9	1.09e-04	0	46	0	27212644352	16	15223
2026-01-22 21:14:24.53	283.24	29.87	-23.2	-23.1	13.8	1.56e-04	0	46	0	27539800064	17	14631
2026-01-22 21:14:27.43	284.65	29.63	-23.3	-23.2	13.8	1.26e-04	0	46	0	27866955776	17	14783
2026-01-22 21:14:30.35	286.05	29.36	-23.3	-23.1	13.8	1.32e-04	0	46	0	28194111488	17	14733
2026-01-22 21:14:33.27	287.43	29.09	-23.5	-23.3	13.8	1.75e-04	0	46	0	28529655808	17	15057
2026-01-22 21:14:36.18	288.77	28.80	-23.5	-23.3	13.8	1.28e-04	0	46	0	28856811520	17	15042
2026-01-22 21:14:39.09	290.09	28.50	-23.6	-23.4	13.9	1.43e-04	0	46	0	29183967232	17	15264
2026-01-22 21:14:42.00	291.38	28.19	-23.7	-23.6	13.9	1.49e-04	0	46	0	29511122944	18	14611
2026-01-22 21:14:44.91	292.65	27.87	-23.9	-23.7	13.8	9.15e-05	0	46	0	29838278656	18	14888
2026-01-22 21:14:47.82	293.89	27.54	-24.0	-23.8	13.9	1.47e-04	0	46	0	30165434368	18	15055
2026-01-22 21:14:50.73	295.10	27.20	-24.1	-24.0	13.9	1.68e-04	0	46	0	30484201472	18	15324
2026-01-22 21:14:53.63	296.28	26.85	-24.2	-24.1	13.9	1.54e-04	0	46	0	30811357184	19	14617
2026-01-22 21:14:56.55	297.44	26.50	-24.4	-24.2	13.8	1.28e-04	0	46	0	31138512896	19	14910
2026-01-22 21:14:59.46	298.56	26.14	-24.5	-24.3	13.8	1.52e-04	0	46	0	31465668608	19	15113
2026-01-22 21:15:02.37	299.66	25.78	-24.6	-24.5	13.9	1.54e-04	0	46	0	31801212928	19	15321
2026-01-22 21:15:05.28	300.74	25.42	-24.5	-24.4	13.8	1.45e-04	0	46	0	32128368640	20	14312
2026-01-22 21:15:08.19	301.78	25.05	-24.6	-24.4	13.8	1.47e-04	0	46	0	32455524352	20	14415
2026-01-22 21:15:11.10	302.81	24.67	-24.7	-24.6	13.8	1.72e-04	0	46	0	32782680064	20	14648
2026-01-22 21:15:14.02	303.80	24.30	-24.9	-24.7	13.8	1.79e-04	0	46	0	33109835776	20	14894
2026-01-22 21:15:16.93	304.77	23.92	-24.9	-24.8	13.8	1.81e-04	0	46	0	33436991488	20	14970
2026-01-22 21:15:19.84	305.72	23.54	-24.9	-24.7	13.8	2.42e-04	0	46	0	33764147200	20	14932
2026-01-22 21:15:22.76	306.64	23.16	-25.1	-25.0	13.7	2.55e-04	0	46	0	34091302912	20	15297
2026-01-22 21:15:25.67	307.53	22.79	-25.2	-25.0	13.7	2.48e-04	0	46	0	34426847232	21	14572
2026-01-22 21:15:28.58	308.41	22.41	-25.5	-25.3	13.9	2.94e-04	0	46	0	34754002944	21	15047
2026-01-22 21:15:31.50	309.26	22.03	-25.5	-25.3	13.8	2.37e-04	0	46	0	35081158656	21	15044
2026-01-22 21:15:34.41	310.09	21.65	-25.6	-25.4	13.7	3.07e-04	0	46	0	35399925760	21	15196
2026-01-22 21:15:37.31	310.89	21.28	-25.7	-25.5	13.9	2.94e-04	0	46	0	35727081472	22	14545
2026-01-22 21:15:40.22	311.67	20.91	-25.8	-25.6	14.0	4.00e-04	0	46	0	36054237184	22	14742
2026-01-22 21:15:43.12	312.43	20.54	-25.9	-25.7	14.1	2.67e-04	0	45	0	36381392896	22	14866
2026-01-22 21:15:46.03	313.18	20.17	-26.0	-25.8	14.0	3.57e-04	0	46	0	36708548608	22	15058
2026-01-22 21:15:48.93	313.90	19.81	-26.0	-25.9	14.0	3.05e-04	0	46	0	37035704320	22	15152
2026-01-22 21:15:51.85	314.61	19.44	-26.3	-26.1	13.9	3.05e-04	0	46	0	37362860032	23	14694
2026-01-22 21:15:54.76	315.29	19.08	-26.4	-26.2	14.1	3.43e-04	0	46	0	37690015744	23	14876
2026-01-22 21:15:57.66	315.96	18.72	-26.4	-26.3	13.8	3.91e-04	0	46	0	38017171456	23	15007
2026-01-22 21:16:00.57	316.61	18.37	-26.6	-26.5	13.9	3.91e-04	0	46	0	38352715776	23	15317
2026-01-22 21:16:03.48	317.25	18.02	-26.8	-26.6	14.0	3.64e-04	0	46	0	38679871488	24	14697
2026-01-22 21:16:06.39	317.87	17.67	-26.8	-26.6	13.8	4.29e-04	0	46	0	39007027200	24	14759
2026-01-22 21:16:09.31	318.48	17.32	-26.9	-26.7	13.9	4.04e-04	0	46	0	39334182912	24	14917
2026-01-22 21:16:12.22	319.06	16.98	-27.0	-26.9	13.9	3.58e-04	0	46	0	39652950016	24	15153
2026-01-22 21:16:15.13	319.64	16.64	-27.2	-27.1	13.8	4.56e-04	0	46	0	39980105728	25	14639
2026-01-22 21:16:18.04	320.20	16.31	-27.3	-27.1	13.8	4.08e-04	0	46	0	40307261440	25	14754
2026-01-22 21:16:20.96	320.75	15.98	-27.4	-27.2	14.1	3.64e-04	0	46	0	40634417152	25	14914
2026-01-22 21:16:23.86	321.28	15.65	-27.5	-27.4	14.1	2.99e-04	0	46	0	40961572864	25	15139
2026-01-22 21:16:26.78	321.80	15.33	-27.8	-27.6	14.0	3.51e-04	0	46	0	41297117184	26	14678
2026-01-22 21:16:29.68	322.30	15.01	-27.8	-27.7	14.1	3.36e-04	0	46	0	41624272896	26	14806
2026-01-22 21:16:32.60	322.80	14.69	-27.9	-27.8	14.1	3.32e-04	0	46	0	41951428608	26	14952
2026-01-22 21:16:35.51	323.28	14.37	-54.4	-56.7	6.2	0.00e+00	0	46	104	42135977984	79	19706
2026-01-22 21:16:38.42	323.76	14.06	-54.5	-56.6	6.2	0.00e+00	0	46	104	42135977984	79	19481
2026-01-22 21:16:41.33	324.22	13.76	-54.4	-56.5	6.2	0.00e+00	0	46	104	42135977984	79	19397
2026-01-22 21:16:44.23	324.67	13.45	-54.3	-56.4	6.2	0.00e+00	0	45	104	42135977984	79	19172
2026-01-22 21:16:47.14	325.11	13.15	-54.3	-56.4	6.2	0.00e+00	0	45	104	42135977984	79	19049
2026-01-22 21:16:50.05	325.54	12.86	-54.2	-56.3	6.2	0.00e+00	0	45	104	42135977984	79	18959
2026-01-22 21:16:52.96	325.96	12.56	-54.2	-56.3	6.2	0.00e+00	0	45	104	42135977984	79	18905
2026-01-22 21:16:55.87	326.37	12.27	-54.2	-56.3	6.2	0.00e+00	0	45	104	42135977984	79	18837
2026-01-22 21:16:58.78	326.77	11.99	-54.2	-56.3	6.2	0.00e+00	0	45	104	42135977984	79	18828
2026-01-22 21:17:01.70	327.16	11.70	-54.1	-56.2	6.2	0.00e+00	0	46	104	42135977984	79	18687
2026-01-22 21:17:04.60	327.55	11.42	-54.0	-56.2	6.2	0.00e+00	0	45	104	42135977984	79	18608
2026-01-22 21:17:07.51	327.92	11.15	-54.0	-56.1	6.2	0.00e+00	0	45	104	42135977984	79	18575
2026-01-22 21:17:10.41	328.29	10.87	-54.0	-56.1	6.2	0.00e+00	0	45	104	42135977984	79	18478
2026-01-22 21:17:13.33	328.65	10.60	-54.0	-56.0	6.2	0.00e+00	0	45	104	42135977984	79	18368
2026-01-22 21:17:16.23	329.00	10.33	-53.9	-56.0	6.2	0.00e+00	0	45	104	42135977984	79	18387
2026-01-22 21:17:19.13	329.35	10.07	-53.9	-56.0	6.2	0.00e+00	0	45	104	42135977984	79	18341
2026-01-22 21:17:22.03	329.68	9.81	-53.9	-56.0	6.2	0.00e+00	0	45	104	42135977984	79	18212
2026-01-22 21:17:24.94	330.02	9.55	-53.8	-56.0	6.2	0.00e+00	0	45	104	42135977984	79	18189
2026-01-22 21:17:27.84	330.34	9.29	-53.8	-55.9	6.2	0.00e+00	0	45	104	42135977984	79	18074
2026-01-22 21:17:30.75	330.66	9.04	-53.8	-55.9	6.2	0.00e+00	0	45	104	42135977984	79	18143
2026-01-22 21:17:33.67	330.97	8.78	-53.8	-55.9	6.2	0.00e+00	0	45	104	42135977984	79	17975
2026-01-22 21:17:36.57	331.28	8.54	-53.8	-55.9	6.2	0.00e+00	0	45	104	42135977984	79	18053
2026-01-22 21:17:39.48	331.58	8.29	-53.7	-55.8	6.2	0.00e+00	0	45	104	42135977984	79	17892
2026-01-22 21:17:42.39	331.87	8.05	-53.7	-55.8	6.2	0.00e+00	0	45	104	42135977984	79	17889
2026-01-22 21:17:45.30	332.16	7.81	-53.7	-55.7	6.2	0.00e+00	0	45	104	42135977984	79	17740
2026-01-22 21:17:48.20	332.44	7.57	-53.6	-55.7	6.2	0.00e+00	0	45	104	42135977984	79	17713
2026-01-22 21:17:51.11	332.72	7.33	-53.6	-55.8	6.2	0.00e+00	0	45	104	42135977984	79	17820
2026-01-22 21:17:54.02	332.99	7.10	-53.5	-55.6	6.2	0.00e+00	0	45	104	42135977984	79	17562
2026-01-22 21:17:56.93	333.26	6.87	-53.6	-55.7	6.2	0.00e+00	0	45	104	42135977984	79	17602
2026-01-22 21:17:59.85	333.52	6.64	-53.5	-55.6	6.2	0.00e+00	0	45	104	42135977984	79	17441
2026-01-22 21:18:02.75	333.78	6.41	-53.5	-55.6	6.2	0.00e+00	0	45	104	42135977984	78	18550
2026-01-22 21:18:05.67	334.03	6.18	-53.4	-55.5	6.2	0.00e+00	0	45	104	42135977984	78	18197
2026-01-22 21:18:08.58	334.28	5.96	-53.4	-55.5	6.2	0.00e+00	0	45	104	42135977984	78	18339
2026-01-22 21:18:11.49	334.53	5.74	-52.8	-54.8	6.2	0.00e+00	0	45	104	42135977984	77	17906
2026-01-22 21:18:14.39	334.77	5.52	-52.2	-54.3	6.2	0.00e+00	0	45	104	42135977984	76	17817
2026-01-22 21:18:17.30	335.00	5.30	-53.0	-55.1	6.2	0.00e+00	0	45	104	42135977984	76	19584
2026-01-22 21:18:20.21	335.24	5.09	-52.4	-54.5	6.2	0.00e+00	0	45	104	42135977984	76	18282
2026-01-22 21:18:23.13	335.47	4.88	-54.1	-56.1	6.2	0.00e+00	0	45	104	42135977984	78	19671
2026-01-22 21:18:26.03	335.69	4.67	-54.7	-56.8	6.2	0.00e+00	0	45	104	42135977984	80	18926
2026-01-22 21:18:28.94	335.91	4.46	-54.9	-57.0	6.2	0.00e+00	0	45	104	42135977984	80	19416
2026-01-22 21:18:31.85	336.13	4.25	-54.8	-56.9	6.2	0.00e+00	0	45	104	42135977984	80	19254
2026-01-22 21:18:34.76	336.34	4.04	-54.6	-56.7	6.2	0.00e+00	0	45	104	42135977984	80	18799
2026-01-22 21:18:37.67	336.55	3.84	-54.7	-56.7	6.2	0.00e+00	0	45	104	42135977984	80	18816
2026-01-22 21:18:40.57	336.76	3.64	-54.6	-56.7	6.2	0.00e+00	0	45	104	42135977984	80	18746
2026-01-22 21:18:43.49	336.96	3.44	-54.5	-56.6	6.2	0.00e+00	0	45	104	42135977984	80	18508
2026-01-22 21:18:46.40	337.16	3.24	-54.4	-56.5	6.2	0.00e+00	0	45	104	42135977984	80	18286
2026-01-22 21:18:49.30	337.36	3.04	-54.4	-56.5	6.2	0.00e+00	0	45	104	42135977984	80	18262
2026-01-22 21:18:52.21	337.55	2.84	-54.4	-56.5	6.2	0.00e+00	0	45	104	42135977984	80	18210
2026-01-22 21:18:55.12	337.75	2.65	-54.3	-56.4	6.2	0.00e+00	0	45	104	42135977984	80	18164
2026-01-22 21:18:58.02	337.93	2.46	-54.3	-56.4	6.2	0.00e+00	0	45	104	42135977984	80	18126
2026-01-22 21:19:00.93	338.12	2.27	-54.3	-56.4	6.2	0.00e+00	0	45	104	42135977984	80	18084
2026-01-22 21:19:03.84	338.30	2.08	-54.3	-56.4	6.2	0.00e+00	0	45	104	42135977984	80	18041

#Closed at: 2026-01-22 21:19:06
#Recorded file [42135 MB]: D:/lorett/data/31041_260123_000837.dat