passes_logs/2026/01/22/R3.2S_Murmansk/R3.2S_Murmansk__20260122_095547_FENGYUN_3D_rec.log

#Pass ID: 20260122_095547_FENGYUN 3D
#Satellite: FENGYUN 3D
#Configuration: FENGYUN 3D
#almurnet v.1.7.20251203
#Start time: 2026-01-22 09:55:49

#Version: 2.2.20231116
#Station: R3.2S_Murmansk
#Location: 33.079688 lon 68.888172 lat
#TLE: 1 43010U 17072A   26021.48744220  .00000253  00000+0  14133-3 0  9991
#TLE: 2 43010  98.9948 353.4037 0002485  97.2578 262.8880 14.19697766424177

#Time	Az	El	Level	Level2	SNR	BER	BlckErr	Temp	State	Recorded	gain1	gain2
2026-01-22 09:55:49.51	113.51	2.14	-54.2	-66.2	3.8	8.47e-01	0	39	0	0	79	14828
2026-01-22 09:55:53.54	113.36	2.39	-54.4	-66.4	3.8	8.46e-01	0	39	104	0	79	15126
2026-01-22 09:55:57.58	113.22	2.64	-54.3	-66.3	3.8	8.46e-01	0	39	104	0	79	15015
2026-01-22 09:56:01.61	113.07	2.90	-54.2	-66.2	3.8	8.46e-01	0	39	104	0	79	14716
2026-01-22 09:56:05.65	112.91	3.16	-54.0	-66.0	3.8	8.47e-01	0	39	104	0	79	14453
2026-01-22 09:56:09.68	112.76	3.42	-53.8	-65.8	3.8	8.46e-01	0	40	104	0	79	14198
2026-01-22 09:56:13.71	112.60	3.68	-53.5	-65.5	3.8	8.46e-01	0	40	104	0	79	13609
2026-01-22 09:56:17.74	112.44	3.95	-52.5	-62.9	3.8	8.46e-01	0	40	104	0	77	11384
2026-01-22 09:56:21.78	112.27	4.22	-52.1	-61.0	4.1	8.43e-01	0	40	104	0	76	9702
2026-01-22 09:56:25.82	112.10	4.49	-48.8	-51.5	11.9	1.78e-03	0	40	0	16777216	69	4837
2026-01-22 09:56:29.85	111.93	4.76	-45.8	-47.3	16.2	0.00e+00	0	40	0	38797312	63	4200
2026-01-22 09:56:33.89	111.76	5.04	-45.4	-46.9	16.6	0.00e+00	0	40	0	61865984	62	4266
2026-01-22 09:56:37.92	111.58	5.31	-47.0	-48.8	14.9	0.00e+00	0	40	0	84934656	64	4728
2026-01-22 09:56:41.95	111.40	5.59	-44.2	-45.4	18.6	0.00e+00	0	40	0	106954752	59	4274
2026-01-22 09:56:45.98	111.21	5.88	-43.5	-44.6	19.4	0.00e+00	0	40	0	130023424	58	4126
2026-01-22 09:56:50.01	111.02	6.16	-43.8	-44.9	19.1	0.00e+00	0	40	0	153092096	58	4291
2026-01-22 09:56:54.04	110.83	6.45	-43.7	-44.8	19.3	0.00e+00	0	40	0	175112192	58	4200
2026-01-22 09:56:58.08	110.63	6.74	-43.3	-44.4	19.6	0.00e+00	0	40	0	197132288	58	4020
2026-01-22 09:57:02.11	110.42	7.04	-43.1	-44.2	19.8	0.00e+00	0	40	0	220200960	58	3929
2026-01-22 09:57:06.14	110.22	7.34	-43.1	-44.2	19.9	0.00e+00	0	40	0	243269632	58	3938
2026-01-22 09:57:10.17	110.00	7.64	-43.2	-44.2	19.8	0.00e+00	0	40	0	265289728	57	4183
2026-01-22 09:57:14.21	109.79	7.94	-43.1	-44.1	20.0	0.00e+00	0	41	0	288358400	57	4129
2026-01-22 09:57:18.24	109.57	8.25	-42.8	-43.9	20.2	0.00e+00	0	40	0	311427072	57	4006
2026-01-22 09:57:22.28	109.34	8.56	-42.8	-43.8	20.3	0.00e+00	0	41	0	333447168	57	3962
2026-01-22 09:57:26.31	109.11	8.88	-42.6	-43.6	20.5	0.00e+00	0	40	0	356515840	57	3890
2026-01-22 09:57:30.35	108.87	9.20	-42.6	-43.6	20.6	0.00e+00	0	40	0	379584512	56	4100
2026-01-22 09:57:34.38	108.63	9.52	-42.3	-43.3	20.8	0.00e+00	0	40	0	401604608	56	3975
2026-01-22 09:57:38.42	108.38	9.84	-42.2	-43.2	20.9	0.00e+00	0	40	0	424673280	56	3933
2026-01-22 09:57:42.45	108.13	10.17	-42.3	-43.2	20.9	0.00e+00	0	40	0	447741952	56	3948
2026-01-22 09:57:46.48	107.87	10.50	-41.9	-42.9	21.1	0.00e+00	0	41	0	469762048	55	4019
2026-01-22 09:57:50.51	107.60	10.84	-42.0	-42.9	21.1	0.00e+00	0	40	0	492830720	55	4035
2026-01-22 09:57:54.54	107.33	11.18	-41.7	-42.6	21.4	0.00e+00	0	40	0	515899392	55	3905
2026-01-22 09:57:58.58	107.05	11.53	-41.6	-42.5	21.5	0.00e+00	0	40	0	537919488	55	3850
2026-01-22 09:58:02.61	106.76	11.88	-41.6	-42.5	21.5	0.00e+00	0	40	0	559939584	55	3833
2026-01-22 09:58:06.64	106.46	12.23	-41.3	-42.2	21.8	0.00e+00	0	40	0	583008256	54	3919
2026-01-22 09:58:10.67	106.16	12.59	-41.4	-42.2	21.8	0.00e+00	0	41	0	606076928	54	3950
2026-01-22 09:58:14.70	105.85	12.95	-41.2	-42.1	21.9	0.00e+00	0	40	0	628097024	54	3891
2026-01-22 09:58:18.73	105.54	13.32	-41.2	-42.0	21.9	0.00e+00	0	41	0	651165696	54	3862
2026-01-22 09:58:22.76	105.21	13.69	-40.9	-41.7	22.2	0.00e+00	0	41	0	674234368	53	3954
2026-01-22 09:58:26.79	104.88	14.06	-40.7	-41.6	22.4	0.00e+00	0	41	0	696254464	53	3883
2026-01-22 09:58:30.82	104.53	14.44	-40.7	-41.5	22.4	0.00e+00	0	41	0	719323136	53	3867
2026-01-22 09:58:34.85	104.18	14.83	-40.7	-41.6	22.3	0.00e+00	0	41	0	742391808	53	3888
2026-01-22 09:58:38.88	103.82	15.22	-40.7	-41.5	22.5	0.00e+00	0	41	0	764411904	53	3868
2026-01-22 09:58:42.90	103.45	15.62	-40.7	-41.5	22.5	0.00e+00	0	41	0	787480576	53	3857
2026-01-22 09:58:46.94	103.06	16.02	-40.4	-41.3	22.7	0.00e+00	0	41	0	810549248	52	3974
2026-01-22 09:58:50.97	102.67	16.42	-40.3	-41.1	22.8	0.00e+00	0	41	0	832569344	52	3889
2026-01-22 09:58:55.00	102.27	16.84	-40.3	-41.0	23.1	0.00e+00	0	41	0	855638016	52	3866
2026-01-22 09:58:59.03	101.85	17.25	-40.1	-40.9	23.4	0.00e+00	0	41	0	878706688	52	3784
2026-01-22 09:59:03.06	101.42	17.68	-40.1	-40.9	23.5	0.00e+00	0	41	0	900726784	51	4008
2026-01-22 09:59:07.10	100.98	18.11	-39.8	-40.5	23.8	0.00e+00	0	41	0	922746880	51	3860
2026-01-22 09:59:11.13	100.53	18.54	-39.9	-40.7	23.7	0.00e+00	0	41	0	945815552	51	3921
2026-01-22 09:59:15.16	100.06	18.98	-39.9	-40.6	23.7	0.00e+00	0	41	0	968884224	51	3907
2026-01-22 09:59:19.20	99.58	19.43	-39.7	-40.4	23.9	0.00e+00	0	41	0	990904320	51	3811
2026-01-22 09:59:23.22	99.08	19.88	-39.4	-40.1	24.2	0.00e+00	0	41	0	1013972992	50	3900
2026-01-22 09:59:27.26	98.57	20.34	-39.2	-40.0	24.4	0.00e+00	0	41	0	1037041664	50	3826
2026-01-22 09:59:31.29	98.04	20.80	-39.4	-40.1	24.2	0.00e+00	0	41	0	1059061760	50	3909
2026-01-22 09:59:35.32	97.50	21.27	-38.9	-39.6	24.6	0.00e+00	0	41	0	1082130432	49	3911
2026-01-22 09:59:39.36	96.94	21.75	-38.9	-39.6	24.7	0.00e+00	0	41	0	1105199104	49	3907
2026-01-22 09:59:43.39	96.36	22.23	-39.0	-39.7	24.6	0.00e+00	0	41	0	1127219200	49	3951
2026-01-22 09:59:47.42	95.76	22.72	-38.6	-39.3	24.9	0.00e+00	0	41	0	1150287872	49	3777
2026-01-22 09:59:51.46	95.14	23.21	-38.6	-39.3	25.0	0.00e+00	0	41	0	1173356544	49	3753
2026-01-22 09:59:55.49	94.50	23.71	-38.7	-39.4	24.9	0.00e+00	0	41	0	1195376640	49	3813
2026-01-22 09:59:59.52	93.84	24.22	-38.8	-39.5	24.8	0.00e+00	0	41	0	1218445312	49	3859
2026-01-22 10:00:03.54	93.16	24.73	-38.6	-39.3	25.0	0.00e+00	0	41	0	1241513984	49	3775
2026-01-22 10:00:07.58	92.46	25.24	-38.3	-39.0	25.3	0.00e+00	0	41	0	1263534080	48	3838
2026-01-22 10:00:11.61	91.73	25.76	-38.2	-38.9	25.4	0.00e+00	0	41	0	1286602752	48	3822
2026-01-22 10:00:15.64	90.98	26.29	-38.4	-39.1	25.3	0.00e+00	0	41	0	1308622848	48	3883
2026-01-22 10:00:19.67	90.20	26.82	-38.6	-39.3	25.1	0.00e+00	0	41	0	1331691520	48	3962
2026-01-22 10:00:23.71	89.40	27.36	-38.4	-39.1	25.3	0.00e+00	0	41	0	1353711616	48	3880
2026-01-22 10:00:27.74	88.56	27.90	-38.6	-39.3	25.1	0.00e+00	0	41	0	1376780288	48	3979
2026-01-22 10:00:31.77	87.70	28.44	-38.4	-39.1	25.3	0.00e+00	0	41	0	1399848960	48	3869
2026-01-22 10:00:35.81	86.81	28.99	-38.4	-39.1	25.3	0.00e+00	0	41	0	1421869056	48	3898
2026-01-22 10:00:39.84	85.88	29.53	-38.2	-38.9	25.5	0.00e+00	0	41	0	1444937728	48	3810
2026-01-22 10:00:43.87	84.93	30.08	-38.1	-38.8	25.6	0.00e+00	0	41	0	1468006400	48	3748
2026-01-22 10:00:47.91	83.94	30.64	-38.1	-38.8	25.6	0.00e+00	0	41	0	1490026496	48	3742
2026-01-22 10:00:51.94	82.91	31.19	-37.8	-38.5	25.3	0.00e+00	0	41	0	1513095168	47	3862
2026-01-22 10:00:55.97	81.85	31.74	-37.7	-38.4	25.5	0.00e+00	0	41	0	1536163840	47	3795
2026-01-22 10:01:00.00	80.76	32.29	-37.7	-38.4	25.5	0.00e+00	0	41	0	1558183936	47	3788
2026-01-22 10:01:04.03	79.62	32.84	-37.5	-38.2	25.6	0.00e+00	0	41	0	1581252608	47	3713
2026-01-22 10:01:08.07	78.45	33.38	-37.5	-38.2	25.6	0.00e+00	0	40	0	1604321280	46	3936
2026-01-22 10:01:12.09	77.24	33.92	-37.4	-38.1	25.7	0.00e+00	0	41	0	1626341376	46	3907
2026-01-22 10:01:16.13	75.98	34.46	-37.5	-38.2	25.6	0.00e+00	0	41	0	1649410048	46	3928
2026-01-22 10:01:20.16	74.68	34.99	-37.5	-38.2	25.6	0.00e+00	0	41	0	1671430144	46	3938
2026-01-22 10:01:24.19	73.34	35.50	-37.7	-38.4	25.4	0.00e+00	0	41	0	1694498816	46	4038
2026-01-22 10:01:28.22	71.96	36.01	-37.4	-38.1	25.7	0.00e+00	0	41	0	1717567488	46	3905
2026-01-22 10:01:32.25	70.53	36.51	-37.2	-37.9	25.9	0.00e+00	0	41	0	1739587584	46	3806
2026-01-22 10:01:36.28	69.07	36.99	-37.5	-38.2	25.6	0.00e+00	0	41	0	1762656256	46	3947
2026-01-22 10:01:40.32	67.55	37.46	-37.3	-38.0	25.8	0.00e+00	0	41	0	1785724928	46	3840
2026-01-22 10:01:44.35	65.99	37.91	-37.5	-38.2	25.7	0.00e+00	0	41	0	1807745024	46	3928
2026-01-22 10:01:48.38	64.39	38.34	-37.6	-38.3	25.6	0.00e+00	0	41	0	1830813696	46	3965
2026-01-22 10:01:52.41	62.75	38.75	-37.6	-38.4	25.6	0.00e+00	0	41	0	1853882368	46	4006
2026-01-22 10:01:56.45	61.07	39.14	-37.2	-37.9	25.9	0.00e+00	0	41	0	1875902464	46	3811
2026-01-22 10:02:00.47	59.35	39.50	-37.3	-37.9	25.9	0.00e+00	0	41	0	1898971136	46	3819
2026-01-22 10:02:04.50	57.59	39.83	-37.6	-38.3	25.6	0.00e+00	0	41	0	1920991232	46	3967
2026-01-22 10:02:08.54	55.79	40.14	-37.1	-37.8	26.0	0.00e+00	0	41	0	1944059904	46	3762
2026-01-22 10:02:12.57	53.97	40.42	-37.1	-37.8	26.0	0.00e+00	0	41	0	1967128576	46	3767
2026-01-22 10:02:16.61	52.10	40.66	-37.1	-37.8	26.1	0.00e+00	0	41	0	1989148672	46	3751
2026-01-22 10:02:20.64	50.22	40.88	-37.3	-38.0	25.9	0.00e+00	0	41	0	2012217344	45	4070
2026-01-22 10:02:24.67	48.31	41.05	-37.3	-38.0	25.9	0.00e+00	0	41	0	2035286016	45	4055
2026-01-22 10:02:28.70	46.39	41.20	-37.4	-38.1	25.8	0.00e+00	0	41	0	2057306112	45	4142
2026-01-22 10:02:32.73	44.45	41.30	-37.2	-37.9	26.0	0.00e+00	0	41	0	2080374784	45	4029
2026-01-22 10:02:36.77	42.50	41.37	-37.5	-38.2	25.7	0.00e+00	0	41	0	2102394880	45	4191
2026-01-22 10:02:40.80	40.54	41.40	-37.3	-38.0	25.9	0.00e+00	0	41	0	2125463552	45	4077
2026-01-22 10:02:44.83	38.58	41.39	-37.0	-37.6	26.2	0.00e+00	0	41	0	2148532224	45	3898
2026-01-22 10:02:48.86	36.63	41.35	-37.1	-37.8	26.0	0.00e+00	0	41	0	2170552320	45	3991
2026-01-22 10:02:52.89	34.68	41.26	-37.3	-38.0	25.9	0.00e+00	0	41	0	2193620992	45	4065
2026-01-22 10:02:56.92	32.75	41.14	-37.0	-37.7	26.1	0.00e+00	0	41	0	2216689664	45	3936
2026-01-22 10:03:00.95	30.83	40.99	-37.0	-37.7	26.2	0.00e+00	0	41	0	2238709760	45	3920
2026-01-22 10:03:04.99	28.93	40.80	-36.8	-37.4	26.4	0.00e+00	0	41	0	2261778432	45	3809
2026-01-22 10:03:09.02	27.06	40.57	-37.0	-37.7	26.1	0.00e+00	0	41	0	2284847104	45	3935
2026-01-22 10:03:13.05	25.22	40.31	-36.8	-37.5	26.4	0.00e+00	0	41	0	2306867200	45	3836
2026-01-22 10:03:17.08	23.40	40.03	-36.7	-37.4	26.5	0.00e+00	0	41	0	2329935872	45	3781
2026-01-22 10:03:21.12	21.62	39.71	-37.1	-37.8	26.1	0.00e+00	0	41	0	2353004544	45	3960
2026-01-22 10:03:25.15	19.88	39.36	-36.9	-37.6	26.3	0.00e+00	0	41	0	2375024640	45	3879
2026-01-22 10:03:29.18	18.17	38.99	-37.0	-37.7	26.2	0.00e+00	0	41	0	2398093312	45	3948
2026-01-22 10:03:33.21	16.51	38.59	-36.7	-37.4	26.4	0.00e+00	0	41	0	2420113408	45	3816
2026-01-22 10:03:37.24	14.89	38.18	-36.9	-37.6	26.3	0.00e+00	0	41	0	2443182080	45	3885
2026-01-22 10:03:41.28	13.30	37.74	-36.8	-37.5	26.3	0.00e+00	0	41	0	2465202176	45	3838
2026-01-22 10:03:45.31	11.76	37.28	-36.9	-37.6	26.3	0.00e+00	0	41	0	2488270848	45	3897
2026-01-22 10:03:49.34	10.27	36.81	-37.0	-37.6	26.2	0.00e+00	0	41	0	2511339520	45	3913
2026-01-22 10:03:53.37	8.82	36.32	-37.1	-37.8	26.1	0.00e+00	0	41	0	2533359616	45	3974
2026-01-22 10:03:57.41	7.41	35.82	-36.9	-37.6	26.3	0.00e+00	0	41	0	2556428288	45	3874
2026-01-22 10:04:01.44	6.05	35.31	-37.0	-37.6	26.2	0.00e+00	0	41	0	2579496960	45	3909
2026-01-22 10:04:05.47	4.73	34.79	-37.0	-37.6	26.2	0.00e+00	0	41	0	2601517056	45	3909
2026-01-22 10:04:09.50	3.45	34.26	-36.8	-37.5	26.3	0.00e+00	0	41	0	2624585728	45	3849
2026-01-22 10:04:13.54	2.21	33.72	-36.6	-37.3	26.5	0.00e+00	0	41	0	2647654400	45	3741
2026-01-22 10:04:17.57	1.02	33.18	-36.9	-37.6	26.2	0.00e+00	0	41	0	2669674496	45	3882
2026-01-22 10:04:21.60	359.86	32.64	-37.2	-37.9	25.9	0.00e+00	0	41	0	2692743168	45	4043
2026-01-22 10:04:25.63	358.74	32.09	-37.0	-37.7	26.1	0.00e+00	0	41	0	2715811840	45	3929
2026-01-22 10:04:29.67	357.66	31.54	-37.2	-37.9	25.9	0.00e+00	0	41	0	2737831936	45	4034
2026-01-22 10:04:33.70	356.62	30.99	-37.3	-38.0	25.8	0.00e+00	0	41	0	2760900608	45	4087
2026-01-22 10:04:37.73	355.61	30.44	-37.5	-38.3	25.6	0.00e+00	0	41	0	2783969280	45	4195
2026-01-22 10:04:41.76	354.64	29.89	-37.6	-38.3	25.6	0.00e+00	0	41	0	2805989376	45	4201
2026-01-22 10:04:45.79	353.70	29.34	-37.3	-38.0	25.8	0.00e+00	0	41	0	2828009472	45	4073
2026-01-22 10:04:49.82	352.79	28.79	-37.5	-38.3	25.6	0.00e+00	0	41	0	2851078144	45	4194
2026-01-22 10:04:53.86	351.91	28.25	-37.8	-38.6	25.3	0.00e+00	0	41	0	2874146816	46	4100
2026-01-22 10:04:57.89	351.06	27.71	-37.5	-38.2	25.6	0.00e+00	0	41	0	2896166912	46	3934
2026-01-22 10:05:01.92	350.24	27.17	-37.6	-38.3	25.5	0.00e+00	0	41	0	2919235584	46	4004
2026-01-22 10:05:05.95	349.45	26.64	-37.8	-38.5	25.3	0.00e+00	0	41	0	2942304256	46	4093
2026-01-22 10:05:09.98	348.68	26.11	-37.7	-38.4	25.4	0.00e+00	0	41	0	2964324352	46	4038
2026-01-22 10:05:14.01	347.94	25.59	-37.8	-38.6	25.3	0.00e+00	0	41	0	2987393024	46	4099
2026-01-22 10:05:18.04	347.23	25.07	-37.8	-38.5	25.3	0.00e+00	0	41	0	3010461696	46	4083
2026-01-22 10:05:22.08	346.53	24.56	-37.9	-38.7	25.2	0.00e+00	0	41	0	3032481792	46	4149
2026-01-22 10:05:26.11	345.86	24.05	-37.8	-38.5	25.4	0.00e+00	0	41	0	3055550464	46	4056
2026-01-22 10:05:30.14	345.21	23.55	-37.8	-38.5	25.3	0.00e+00	0	41	0	3078619136	46	4082
2026-01-22 10:05:34.17	344.59	23.05	-37.9	-38.6	25.2	0.00e+00	0	41	0	3100639232	46	4131
2026-01-22 10:05:38.20	343.98	22.56	-37.9	-38.6	25.2	0.00e+00	0	41	0	3123707904	46	4115
2026-01-22 10:05:42.24	343.39	22.08	-38.0	-38.8	25.0	0.00e+00	0	41	0	3146776576	46	4199
2026-01-22 10:05:46.27	342.82	21.60	-38.3	-39.0	24.8	0.00e+00	0	41	0	3168796672	47	4088
2026-01-22 10:05:50.30	342.27	21.13	-38.5	-39.2	24.6	0.00e+00	0	41	0	3190816768	47	4179
2026-01-22 10:05:54.33	341.73	20.66	-38.5	-39.2	24.6	0.00e+00	0	41	0	3213885440	47	4192
2026-01-22 10:05:58.36	341.21	20.20	-38.5	-39.2	24.6	0.00e+00	0	41	0	3236954112	47	4162
2026-01-22 10:06:02.40	340.71	19.75	-38.6	-39.3	24.5	0.00e+00	0	41	0	3258974208	47	4216
2026-01-22 10:06:06.43	340.22	19.30	-39.2	-39.9	24.5	0.00e+00	0	41	0	3282042880	48	4286
2026-01-22 10:06:10.46	339.74	18.85	-39.4	-40.2	24.2	0.00e+00	0	41	0	3305111552	49	4161
2026-01-22 10:06:14.49	339.28	18.42	-39.5	-40.2	24.1	0.00e+00	0	41	0	3327131648	49	4193
2026-01-22 10:06:18.52	338.84	17.99	-39.7	-40.4	24.0	0.00e+00	0	41	0	3350200320	49	4276
2026-01-22 10:06:22.55	338.40	17.56	-39.7	-40.4	24.0	0.00e+00	0	41	0	3373268992	50	4051
2026-01-22 10:06:26.59	337.98	17.14	-39.9	-40.7	23.8	0.00e+00	0	41	0	3395289088	50	4154
2026-01-22 10:06:30.62	337.57	16.72	-39.8	-40.6	23.8	0.00e+00	0	41	0	3418357760	50	4106
2026-01-22 10:06:34.66	337.17	16.31	-39.9	-40.6	23.7	0.00e+00	0	41	0	3441426432	50	4138
2026-01-22 10:06:38.69	336.78	15.91	-39.9	-40.7	23.7	0.00e+00	0	41	0	3463446528	50	4162
2026-01-22 10:06:42.72	336.41	15.51	-40.1	-40.9	23.5	0.00e+00	0	41	0	3486515200	50	4247
2026-01-22 10:06:46.75	336.04	15.12	-40.1	-40.9	23.5	0.00e+00	0	41	0	3509583872	51	4006
2026-01-22 10:06:50.78	335.68	14.73	-40.3	-41.1	23.3	0.00e+00	0	41	0	3531603968	51	4115
2026-01-22 10:06:54.81	335.34	14.35	-40.6	-41.4	22.9	0.00e+00	0	41	0	3553624064	51	4286
2026-01-22 10:06:58.84	335.00	13.97	-40.5	-41.3	22.9	0.00e+00	0	41	0	3576692736	52	3995
2026-01-22 10:07:02.87	334.67	13.60	-40.6	-41.4	22.9	0.00e+00	0	41	0	3599761408	52	4028
2026-01-22 10:07:06.90	334.35	13.23	-40.5	-41.3	22.9	0.00e+00	0	41	0	3621781504	52	3978
2026-01-22 10:07:10.94	334.04	12.86	-40.6	-41.4	22.8	0.00e+00	0	41	0	3644850176	52	4032
2026-01-22 10:07:14.97	333.73	12.50	-40.9	-41.7	22.6	0.00e+00	0	41	0	3667918848	52	4166
2026-01-22 10:07:19.00	333.44	12.15	-40.9	-41.8	22.4	0.00e+00	0	41	0	3689938944	52	4198
2026-01-22 10:07:23.04	333.15	11.80	-41.0	-41.8	22.4	0.00e+00	0	41	0	3713007616	52	4216
2026-01-22 10:07:27.07	332.86	11.45	-40.9	-41.7	22.4	0.00e+00	0	41	0	3736076288	52	4187
2026-01-22 10:07:31.10	332.59	11.11	-40.9	-41.7	22.4	0.00e+00	0	41	0	3758096384	52	4192
2026-01-22 10:07:35.14	332.32	10.77	-41.2	-42.0	22.1	0.00e+00	0	41	0	3781165056	53	4087
2026-01-22 10:07:39.17	332.06	10.43	-41.3	-42.1	22.0	0.00e+00	0	41	0	3804233728	53	4125
2026-01-22 10:07:43.20	331.80	10.10	-41.4	-42.2	21.9	0.00e+00	0	41	0	3826253824	53	4181
2026-01-22 10:07:47.23	331.55	9.78	-41.7	-42.6	21.5	0.00e+00	0	41	0	3849322496	54	4129
2026-01-22 10:07:51.26	331.31	9.45	-41.4	-42.2	21.8	0.00e+00	0	41	0	3872391168	54	3956
2026-01-22 10:07:55.29	331.07	9.13	-41.4	-42.3	21.8	0.00e+00	0	41	0	3894411264	54	3967
2026-01-22 10:07:59.32	330.84	8.82	-41.5	-42.4	21.6	0.00e+00	0	41	0	3917479936	54	4024
2026-01-22 10:08:03.36	330.61	8.50	-41.7	-42.6	21.4	0.00e+00	0	41	0	3939500032	54	4114
2026-01-22 10:08:07.39	330.39	8.19	-41.7	-42.5	21.4	0.00e+00	0	41	0	3962568704	54	4083
2026-01-22 10:08:11.42	330.17	7.89	-41.8	-42.7	21.3	0.00e+00	0	41	0	3985637376	54	4172
2026-01-22 10:08:15.45	329.96	7.59	-42.0	-42.9	21.0	0.00e+00	0	41	0	4007657472	54	4268
2026-01-22 10:08:19.48	329.75	7.29	-42.1	-43.0	20.9	0.00e+00	0	41	0	4030726144	55	4064
2026-01-22 10:08:23.51	329.55	6.99	-42.1	-43.1	20.8	0.00e+00	0	41	0	4053794816	55	4100
2026-01-22 10:08:27.54	329.35	6.70	-42.5	-43.5	20.3	0.00e+00	0	41	0	4075814912	55	4316
2026-01-22 10:08:31.58	329.15	6.41	-42.2	-43.1	20.6	0.00e+00	0	41	0	4098883584	55	4131
2026-01-22 10:08:35.61	328.96	6.12	-42.3	-43.3	20.5	0.00e+00	0	41	0	4121952256	55	4206
2026-01-22 10:08:39.64	328.77	5.83	-42.5	-43.5	20.3	0.00e+00	0	41	0	4143972352	55	4310
2026-01-22 10:08:43.68	328.59	5.55	-42.8	-43.8	19.9	0.00e+00	0	41	0	4167041024	56	4234
2026-01-22 10:08:47.71	328.41	5.27	-42.6	-43.6	20.2	0.00e+00	0	41	0	4190109696	56	4131
2026-01-22 10:08:51.75	328.24	5.00	-51.9	-59.9	5.3	8.00e-06	0	41	0	4212129792	74	9600
2026-01-22 10:08:55.78	328.06	4.72	-53.3	-65.3	3.8	8.45e-01	0	41	104	4212129792	77	14915
2026-01-22 10:08:59.82	327.90	4.45	-53.3	-65.3	3.8	8.46e-01	0	41	104	4212129792	77	14928
2026-01-22 10:09:03.85	327.73	4.18	-53.3	-65.3	3.8	8.46e-01	0	41	104	4212129792	77	14887
2026-01-22 10:09:07.88	327.57	3.91	-53.4	-65.4	3.8	8.46e-01	0	41	104	4212129792	77	15180
2026-01-22 10:09:11.91	327.41	3.65	-53.5	-65.5	3.8	8.46e-01	0	41	104	4212129792	77	15290
2026-01-22 10:09:15.95	327.26	3.39	-53.4	-65.4	3.8	8.47e-01	0	41	104	4212129792	77	15117
2026-01-22 10:09:19.98	327.10	3.13	-53.4	-65.4	3.8	8.45e-01	0	41	104	4212129792	77	15201
2026-01-22 10:09:24.01	326.96	2.87	-53.4	-65.4	3.8	8.46e-01	0	41	104	4212129792	77	15090
2026-01-22 10:09:28.04	326.81	2.62	-53.4	-65.4	3.8	8.45e-01	0	41	104	4212129792	77	15134
2026-01-22 10:09:32.07	326.67	2.36	-53.4	-65.4	3.8	8.47e-01	0	41	104	4212129792	77	15066
2026-01-22 10:09:36.10	326.52	2.11	-53.4	-65.4	3.8	8.47e-01	0	41	104	4212129792	77	15151

#Closed at: 2026-01-22 10:09:39
#Recorded file [4212 MB]: D:/lorett/data/31041_260122_125549.dat