passes_logs/2026/01/22/R3.2S_Murmansk/R3.2S_Murmansk__20260122_122020_SUOMI_NPP_rec.log

#Pass ID: 20260122_122020_SUOMI NPP
#Satellite: SUOMI NPP
#Configuration: NPP
#almurnet v.1.7.20251203
#Start time: 2026-01-22 12:20:22

#Version: 2.2.20231116
#Station: R3.2S_Murmansk
#Location: 33.079688 lon 68.888172 lat
#TLE: 1 37849U 11061A   26021.51818991  .00000201  00000+0  11636-3 0  9995
#TLE: 2 37849  98.7819 323.5108 0002300  52.3548 307.7836 14.19527793737637

#Time	Az	El	Level	Level2	SNR	BER	BlckErr	Temp	State	Recorded	gain1	gain2
2026-01-22 12:20:22.14	221.77	2.06	-54.4	-69.4	3.8	1.49e+00	0	39	0	0	79	21446
2026-01-22 12:20:25.16	222.01	2.22	-54.3	-69.4	3.8	1.49e+00	0	39	104	0	79	21355
2026-01-22 12:20:28.18	222.26	2.38	-54.6	-69.7	3.8	1.49e+00	0	39	104	0	79	22012
2026-01-22 12:20:31.21	222.51	2.54	-54.7	-69.8	3.8	1.49e+00	0	39	104	0	79	22294
2026-01-22 12:20:34.23	222.76	2.70	-54.6	-69.6	3.8	1.49e+00	0	39	104	0	79	21973
2026-01-22 12:20:37.26	223.02	2.86	-54.5	-69.5	3.8	1.49e+00	0	39	104	0	79	21571
2026-01-22 12:20:40.29	223.27	3.02	-54.3	-69.4	3.8	1.49e+00	0	39	104	0	79	21325
2026-01-22 12:20:43.31	223.53	3.18	-54.1	-69.2	3.8	1.49e+00	0	40	104	0	79	20814
2026-01-22 12:20:46.33	223.79	3.35	-53.8	-68.8	3.8	1.49e+00	0	39	104	0	79	20015
2026-01-22 12:20:49.36	224.06	3.51	-52.8	-67.8	3.8	1.49e+00	0	40	104	0	77	20009
2026-01-22 12:20:52.38	224.33	3.67	-52.8	-67.8	3.8	1.49e+00	0	40	104	0	77	19893
2026-01-22 12:20:55.41	224.60	3.83	-52.8	-67.8	3.8	1.49e+00	0	40	104	0	77	19983
2026-01-22 12:20:58.43	224.87	4.00	-52.8	-67.8	3.8	1.49e+00	0	40	104	0	77	19935
2026-01-22 12:21:01.46	225.15	4.16	-52.8	-67.4	3.8	1.49e+00	0	40	104	0	77	19109
2026-01-22 12:21:04.48	225.43	4.33	-52.7	-66.9	3.8	1.49e+00	0	40	104	0	77	18017
2026-01-22 12:21:07.51	225.71	4.49	-52.5	-63.7	4.4	1.46e+00	92	40	104	0	77	12385
2026-01-22 12:21:10.53	226.00	4.66	-50.7	-55.1	11.4	2.45e-03	0	40	0	5242880	73	5854
2026-01-22 12:21:13.56	226.28	4.82	-48.7	-51.2	15.5	0.00e+00	0	40	0	10485760	69	4676
2026-01-22 12:21:16.58	226.58	4.99	-48.0	-50.3	16.4	0.00e+00	0	40	0	16777216	67	4725
2026-01-22 12:21:19.61	226.87	5.16	-48.9	-51.5	15.3	7.00e-07	0	40	0	22020096	68	5155
2026-01-22 12:21:22.63	227.17	5.32	-49.2	-52.0	14.6	1.20e-02	0	40	0	28311552	70	4840
2026-01-22 12:21:25.65	227.47	5.49	-48.3	-50.6	16.2	0.00e+00	0	40	0	33554432	68	4624
2026-01-22 12:21:28.67	227.78	5.66	-48.8	-51.3	15.5	0.00e+00	0	40	0	38797312	68	5020
2026-01-22 12:21:31.70	228.08	5.83	-48.5	-50.8	16.0	0.00e+00	0	40	0	45088768	68	4755
2026-01-22 12:21:34.72	228.40	6.00	-48.2	-50.4	16.4	0.00e+00	0	40	0	50331648	68	4529
2026-01-22 12:21:37.75	228.71	6.17	-48.2	-50.4	16.5	0.00e+00	0	40	0	56623104	68	4502
2026-01-22 12:21:40.78	229.03	6.34	-47.9	-50.0	16.8	0.00e+00	0	40	0	61865984	67	4598
2026-01-22 12:21:43.81	229.35	6.51	-47.8	-49.9	16.9	0.00e+00	0	40	0	67108864	67	4520
2026-01-22 12:21:46.84	229.68	6.68	-47.6	-49.6	17.3	0.00e+00	0	40	0	73400320	67	4361
2026-01-22 12:21:49.87	230.01	6.85	-47.1	-48.9	17.9	0.00e+00	0	40	0	78643200	66	4262
2026-01-22 12:21:52.89	230.34	7.02	-47.1	-48.9	18.0	0.00e+00	0	40	0	84934656	66	4250
2026-01-22 12:21:55.91	230.68	7.19	-47.1	-48.8	18.1	0.00e+00	0	40	0	90177536	66	4212
2026-01-22 12:21:58.94	231.02	7.36	-47.3	-49.1	17.8	0.00e+00	0	40	0	96468992	65	4614
2026-01-22 12:22:01.96	231.37	7.53	-47.2	-48.9	18.0	0.00e+00	0	40	0	101711872	65	4545
2026-01-22 12:22:04.98	231.71	7.71	-47.4	-49.3	17.6	0.00e+00	0	41	0	106954752	65	4735
2026-01-22 12:22:08.01	232.07	7.88	-47.3	-49.1	17.8	0.00e+00	0	41	0	113246208	65	4636
2026-01-22 12:22:11.03	232.42	8.05	-47.4	-49.3	17.7	0.00e+00	0	40	0	118489088	65	4739
2026-01-22 12:22:14.06	232.78	8.23	-47.5	-49.3	17.7	0.00e+00	0	40	0	124780544	65	4756
2026-01-22 12:22:17.08	233.15	8.40	-47.0	-48.8	18.2	0.00e+00	0	40	0	130023424	65	4444
2026-01-22 12:22:20.10	233.52	8.57	-46.6	-48.2	18.8	0.00e+00	0	40	0	135266304	65	4161
2026-01-22 12:22:23.13	233.89	8.75	-46.4	-48.0	19.0	0.00e+00	0	40	0	141557760	64	4302
2026-01-22 12:22:26.15	234.27	8.92	-46.5	-48.1	18.8	0.00e+00	0	40	0	146800640	64	4360
2026-01-22 12:22:29.18	234.65	9.09	-46.6	-48.2	18.8	0.00e+00	0	40	0	153092096	64	4429
2026-01-22 12:22:32.20	235.04	9.27	-46.5	-48.0	18.9	0.00e+00	0	40	0	158334976	64	4340
2026-01-22 12:22:35.23	235.43	9.44	-46.4	-47.9	19.2	0.00e+00	0	40	0	163577856	64	4250
2026-01-22 12:22:38.26	235.83	9.62	-46.4	-47.9	19.0	0.00e+00	0	41	0	169869312	64	4291
2026-01-22 12:22:41.28	236.23	9.79	-46.5	-48.0	19.0	0.00e+00	0	40	0	175112192	64	4316
2026-01-22 12:22:44.30	236.63	9.97	-46.5	-48.0	19.0	0.00e+00	0	40	0	181403648	64	4329
2026-01-22 12:22:47.33	237.04	10.14	-46.6	-48.2	18.8	0.00e+00	0	40	0	186646528	64	4436
2026-01-22 12:22:50.35	237.45	10.32	-46.9	-48.5	18.6	0.00e+00	0	40	0	192937984	64	4568
2026-01-22 12:22:53.38	237.87	10.49	-46.6	-48.2	18.9	0.00e+00	0	41	0	198180864	64	4413
2026-01-22 12:22:56.40	238.30	10.66	-46.5	-48.1	19.0	0.00e+00	0	41	0	203423744	64	4352
2026-01-22 12:22:59.42	238.72	10.84	-46.4	-48.0	19.1	0.00e+00	0	40	0	209715200	64	4307
2026-01-22 12:23:02.45	239.16	11.01	-46.5	-48.0	19.0	0.00e+00	0	40	0	214958080	64	4335
2026-01-22 12:23:05.47	239.60	11.18	-46.5	-48.1	19.0	0.00e+00	0	40	0	221249536	64	4344
2026-01-22 12:23:08.49	240.04	11.36	-46.2	-47.7	19.4	0.00e+00	0	40	0	226492416	64	4167
2026-01-22 12:23:11.51	240.49	11.53	-46.1	-47.5	19.6	0.00e+00	0	40	0	231735296	64	4081
2026-01-22 12:23:14.54	240.94	11.70	-46.2	-47.6	19.6	0.00e+00	0	40	0	238026752	63	4363
2026-01-22 12:23:17.56	241.40	11.88	-46.2	-47.6	19.6	0.00e+00	0	41	0	243269632	63	4360
2026-01-22 12:23:20.59	241.86	12.05	-46.5	-48.0	19.2	0.00e+00	0	41	0	249561088	63	4587
2026-01-22 12:23:23.61	242.33	12.22	-46.6	-48.2	18.9	0.00e+00	0	41	0	254803968	64	4399
2026-01-22 12:23:26.64	242.81	12.39	-46.3	-47.8	19.4	0.00e+00	0	41	0	260046848	64	4203
2026-01-22 12:23:29.66	243.29	12.56	-46.1	-47.6	19.6	0.00e+00	0	41	0	266338304	64	4099
2026-01-22 12:23:32.69	243.77	12.73	-46.5	-48.0	19.3	0.00e+00	0	41	0	271581184	63	4561
2026-01-22 12:23:35.72	244.26	12.90	-46.2	-47.6	19.6	0.00e+00	0	40	0	277872640	63	4371
2026-01-22 12:23:38.74	244.76	13.07	-45.8	-47.2	20.0	0.00e+00	0	40	0	283115520	63	4163
2026-01-22 12:23:41.77	245.26	13.23	-45.5	-46.8	20.4	0.00e+00	0	41	0	288358400	62	4203
2026-01-22 12:23:44.79	245.77	13.40	-45.8	-47.1	20.1	0.00e+00	0	41	0	294649856	62	4371
2026-01-22 12:23:47.82	246.28	13.57	-46.1	-47.5	19.8	0.00e+00	0	40	0	299892736	63	4326
2026-01-22 12:23:50.85	246.80	13.73	-45.7	-47.0	20.2	0.00e+00	0	40	0	306184192	63	4069
2026-01-22 12:23:53.87	247.32	13.89	-45.5	-46.8	20.3	0.00e+00	0	40	0	311427072	63	3996
2026-01-22 12:23:56.89	247.85	14.06	-45.4	-46.7	20.5	0.00e+00	0	40	0	316669952	62	4163
2026-01-22 12:23:59.92	248.39	14.22	-45.6	-46.9	20.3	0.00e+00	0	41	0	322961408	62	4246
2026-01-22 12:24:02.94	248.93	14.38	-45.7	-47.1	20.1	0.00e+00	0	40	0	328204288	62	4357
2026-01-22 12:24:05.97	249.48	14.54	-46.0	-47.4	19.9	0.00e+00	0	41	0	334495744	62	4512
2026-01-22 12:24:08.99	250.03	14.69	-46.1	-47.5	19.8	0.00e+00	0	40	0	339738624	62	4578
2026-01-22 12:24:12.02	250.59	14.85	-45.8	-47.2	20.0	0.00e+00	0	41	0	344981504	62	4402
2026-01-22 12:24:15.04	251.15	15.00	-45.9	-47.3	19.9	0.00e+00	0	40	0	351272960	62	4469
2026-01-22 12:24:18.06	251.72	15.15	-46.3	-47.7	19.5	0.00e+00	0	41	0	356515840	63	4441
2026-01-22 12:24:21.08	252.29	15.31	-46.2	-47.6	19.6	0.00e+00	0	41	0	362807296	63	4379
2026-01-22 12:24:24.11	252.87	15.45	-46.6	-48.1	19.2	0.00e+00	0	41	0	368050176	63	4622
2026-01-22 12:24:27.13	253.45	15.60	-46.8	-48.4	18.9	0.00e+00	0	41	0	373293056	64	4509
2026-01-22 12:24:30.15	254.05	15.75	-46.7	-48.2	19.1	0.00e+00	0	41	0	379584512	64	4416
2026-01-22 12:24:33.18	254.64	15.89	-46.5	-48.0	19.2	0.00e+00	0	41	0	384827392	64	4323
2026-01-22 12:24:36.21	255.25	16.03	-46.5	-48.0	19.2	0.00e+00	0	41	0	391118848	64	4334
2026-01-22 12:24:39.23	255.85	16.17	-46.7	-48.2	19.0	0.00e+00	0	41	0	396361728	64	4425
2026-01-22 12:24:42.26	256.47	16.31	-46.8	-48.4	18.9	0.00e+00	0	40	0	402653184	64	4513
2026-01-22 12:24:45.28	257.08	16.44	-46.7	-48.2	19.0	0.00e+00	0	40	0	407896064	64	4427
2026-01-22 12:24:48.30	257.71	16.57	-46.7	-48.3	19.0	0.00e+00	0	40	0	413138944	64	4460
2026-01-22 12:24:51.33	258.34	16.70	-47.2	-48.9	18.4	0.00e+00	0	41	0	419430400	64	4781
2026-01-22 12:24:54.35	258.97	16.83	-47.0	-48.6	18.6	0.00e+00	0	41	0	424673280	65	4378
2026-01-22 12:24:57.38	259.61	16.95	-46.9	-48.5	18.8	0.00e+00	0	41	0	430964736	65	4292
2026-01-22 12:25:00.40	260.25	17.07	-46.6	-48.1	19.1	0.00e+00	0	41	0	436207616	64	4385
2026-01-22 12:25:03.42	260.90	17.19	-46.3	-47.8	19.4	0.00e+00	0	41	0	441450496	64	4202
2026-01-22 12:25:06.45	261.56	17.31	-46.4	-47.8	19.4	0.00e+00	0	40	0	447741952	64	4242
2026-01-22 12:25:09.47	262.22	17.42	-46.7	-48.3	19.0	0.00e+00	0	41	0	452984832	64	4467
2026-01-22 12:25:12.50	262.88	17.53	-46.2	-47.7	19.6	0.00e+00	0	41	0	459276288	64	4146
2026-01-22 12:25:15.52	263.55	17.63	-45.9	-47.2	20.1	0.00e+00	0	41	0	464519168	63	4162
2026-01-22 12:25:18.55	264.22	17.74	-46.5	-48.0	19.3	0.00e+00	0	41	0	470810624	63	4584
2026-01-22 12:25:21.57	264.90	17.83	-46.4	-47.9	19.4	0.00e+00	0	41	0	476053504	63	4521
2026-01-22 12:25:24.60	265.58	17.93	-46.2	-47.6	19.7	0.00e+00	0	41	0	481296384	63	4375
2026-01-22 12:25:27.62	266.27	18.02	-45.9	-47.2	20.1	0.00e+00	0	41	0	487587840	63	4168
2026-01-22 12:25:30.65	266.96	18.11	-45.3	-46.6	20.7	0.00e+00	0	41	0	492830720	62	4100
2026-01-22 12:25:33.68	267.65	18.20	-46.0	-47.4	19.9	0.00e+00	0	41	0	499122176	62	4526
2026-01-22 12:25:36.70	268.35	18.28	-45.9	-47.3	20.0	0.00e+00	0	41	0	504365056	62	4453
2026-01-22 12:25:39.73	269.05	18.35	-46.0	-47.3	20.0	0.00e+00	0	41	0	509607936	62	4477
2026-01-22 12:25:42.75	269.75	18.43	-45.6	-46.9	20.4	0.00e+00	0	41	0	515899392	62	4256
2026-01-22 12:25:45.78	270.46	18.50	-45.3	-46.5	20.7	0.00e+00	0	41	0	521142272	62	4082
2026-01-22 12:25:48.80	271.17	18.56	-45.6	-46.9	20.5	0.00e+00	0	41	0	527433728	62	4247
2026-01-22 12:25:51.82	271.88	18.62	-45.2	-46.4	20.9	0.00e+00	0	41	0	532676608	62	4033
2026-01-22 12:25:54.85	272.60	18.68	-45.8	-47.1	20.3	0.00e+00	0	41	0	537919488	62	4350
2026-01-22 12:25:57.87	273.31	18.73	-46.4	-47.8	19.7	0.00e+00	0	41	0	544210944	63	4464
2026-01-22 12:26:00.90	274.03	18.78	-46.1	-47.5	20.0	0.00e+00	0	41	0	549453824	63	4305
2026-01-22 12:26:03.92	274.75	18.82	-46.7	-48.2	19.2	0.00e+00	0	41	0	555745280	64	4421
2026-01-22 12:26:06.94	275.48	18.86	-46.2	-47.6	19.7	0.00e+00	0	41	0	560988160	64	4109
2026-01-22 12:26:09.97	276.20	18.90	-46.7	-48.1	19.2	0.00e+00	0	41	0	566231040	64	4384
2026-01-22 12:26:12.99	276.93	18.93	-46.9	-48.5	19.0	0.00e+00	0	41	0	572522496	64	4548
2026-01-22 12:26:16.02	277.66	18.95	-46.3	-47.8	19.6	0.00e+00	0	41	0	577765376	64	4194
2026-01-22 12:26:19.05	278.39	18.97	-46.6	-48.0	19.3	0.00e+00	0	41	0	584056832	64	4336
2026-01-22 12:26:22.07	279.12	18.99	-46.4	-47.8	19.6	0.00e+00	0	41	0	589299712	64	4200
2026-01-22 12:26:25.10	279.85	19.00	-46.5	-47.9	19.5	0.00e+00	0	41	0	594542592	64	4283
2026-01-22 12:26:28.13	280.59	19.01	-46.5	-47.9	19.5	0.00e+00	0	41	0	600834048	64	4261
2026-01-22 12:26:31.15	281.32	19.02	-46.3	-47.7	19.7	0.00e+00	0	41	0	606076928	64	4159
2026-01-22 12:26:34.18	282.05	19.02	-46.7	-48.2	19.3	0.00e+00	0	41	0	612368384	64	4424
2026-01-22 12:26:37.20	282.78	19.01	-46.9	-48.5	19.1	0.00e+00	0	41	0	617611264	64	4551
2026-01-22 12:26:40.23	283.51	19.00	-47.1	-48.7	18.8	0.00e+00	0	41	0	622854144	64	4705
2026-01-22 12:26:43.25	284.24	18.98	-46.9	-48.4	19.1	0.00e+00	0	41	0	629145600	65	4290
2026-01-22 12:26:46.27	284.97	18.97	-46.3	-47.7	19.8	0.00e+00	0	41	0	634388480	64	4180
2026-01-22 12:26:49.30	285.70	18.94	-46.6	-48.1	19.5	0.00e+00	0	41	0	640679936	64	4344
2026-01-22 12:26:52.32	286.43	18.91	-46.8	-48.3	19.2	0.00e+00	0	40	0	645922816	64	4492
2026-01-22 12:26:55.34	287.15	18.88	-47.2	-48.8	18.8	0.00e+00	0	41	0	652214272	65	4483
2026-01-22 12:26:58.37	287.88	18.84	-47.1	-48.7	18.9	0.00e+00	0	41	0	657457152	65	4409
2026-01-22 12:27:01.39	288.60	18.80	-46.8	-48.3	19.3	0.00e+00	0	41	0	662700032	65	4214
2026-01-22 12:27:04.41	289.32	18.76	-46.8	-48.3	19.2	0.00e+00	0	41	0	668991488	65	4220
2026-01-22 12:27:07.43	290.03	18.71	-46.3	-47.7	19.9	0.00e+00	0	41	0	674234368	64	4149
2026-01-22 12:27:10.46	290.75	18.65	-45.8	-47.1	20.4	0.00e+00	0	41	0	680525824	63	4126
2026-01-22 12:27:13.48	291.46	18.60	-45.8	-47.1	20.5	0.00e+00	0	41	0	685768704	63	4112
2026-01-22 12:27:16.50	292.17	18.53	-46.6	-48.0	19.7	0.00e+00	0	41	0	691011584	63	4571
2026-01-22 12:27:19.53	292.88	18.47	-46.6	-48.1	19.6	0.00e+00	0	41	0	697303040	64	4341
2026-01-22 12:27:22.55	293.58	18.40	-46.6	-48.0	19.6	0.00e+00	0	41	0	702545920	64	4314
2026-01-22 12:27:25.58	294.29	18.32	-46.4	-47.8	19.8	0.00e+00	0	41	0	708837376	64	4228
2026-01-22 12:27:28.60	294.98	18.24	-46.1	-47.4	20.3	0.00e+00	0	41	0	714080256	63	4250
2026-01-22 12:27:31.62	295.68	18.16	-46.6	-48.1	19.6	0.00e+00	0	41	0	719323136	63	4614
2026-01-22 12:27:34.65	296.37	18.07	-46.8	-48.3	19.3	0.00e+00	0	41	0	725614592	64	4452
2026-01-22 12:27:37.66	297.05	17.99	-46.2	-47.5	20.0	0.00e+00	0	41	0	730857472	64	4088
2026-01-22 12:27:40.69	297.73	17.89	-46.1	-47.4	20.2	0.00e+00	0	41	0	737148928	63	4288
2026-01-22 12:27:43.71	298.41	17.80	-46.2	-47.6	20.1	0.00e+00	0	41	0	742391808	63	4344
2026-01-22 12:27:46.74	299.08	17.70	-45.6	-46.9	20.6	0.00e+00	0	41	0	748683264	63	4007
2026-01-22 12:27:49.76	299.75	17.59	-45.4	-46.6	20.8	0.00e+00	0	41	0	753926144	62	4123
2026-01-22 12:27:52.78	300.42	17.49	-45.6	-46.9	20.6	0.00e+00	0	41	0	759169024	62	4261
2026-01-22 12:27:55.81	301.08	17.38	-45.7	-47.0	20.5	0.00e+00	0	41	0	765460480	62	4303
2026-01-22 12:27:58.84	301.73	17.26	-45.6	-46.8	20.6	0.00e+00	0	41	0	770703360	62	4240
2026-01-22 12:28:01.86	302.38	17.15	-45.6	-46.8	20.6	0.00e+00	0	41	0	776994816	62	4232
2026-01-22 12:28:04.89	303.03	17.03	-45.4	-46.6	20.8	0.00e+00	0	41	0	782237696	62	4135
2026-01-22 12:28:07.91	303.67	16.91	-45.6	-46.9	20.5	0.00e+00	0	41	0	787480576	62	4275
2026-01-22 12:28:10.93	304.30	16.78	-45.6	-46.8	20.6	0.00e+00	0	41	0	793772032	62	4228
2026-01-22 12:28:13.96	304.93	16.65	-45.4	-46.6	20.8	0.00e+00	0	41	0	799014912	62	4135
2026-01-22 12:28:16.98	305.56	16.53	-45.8	-47.2	20.2	0.00e+00	0	41	0	805306368	62	4397
2026-01-22 12:28:20.01	306.18	16.39	-45.7	-47.0	20.4	0.00e+00	0	41	0	810549248	62	4292
2026-01-22 12:28:23.03	306.79	16.26	-45.8	-47.1	20.4	0.00e+00	0	41	0	815792128	62	4343
2026-01-22 12:28:26.05	307.40	16.12	-46.6	-48.1	19.4	0.00e+00	0	41	0	822083584	63	4633
2026-01-22 12:28:29.07	308.00	15.98	-46.8	-48.3	19.1	0.00e+00	0	41	0	827326464	64	4483
2026-01-22 12:28:32.10	308.60	15.84	-46.3	-47.8	19.6	0.00e+00	0	41	0	833617920	64	4209
2026-01-22 12:28:35.12	309.19	15.70	-46.1	-47.4	20.0	0.00e+00	0	41	0	838860800	63	4282
2026-01-22 12:28:38.14	309.78	15.55	-45.9	-47.2	20.1	0.00e+00	0	41	0	844103680	63	4171
2026-01-22 12:28:41.17	310.36	15.41	-45.9	-47.2	20.2	0.00e+00	0	41	0	850395136	63	4175
2026-01-22 12:28:44.19	310.93	15.26	-46.7	-48.2	19.2	0.00e+00	0	41	0	855638016	64	4411
2026-01-22 12:28:47.22	311.50	15.11	-47.5	-49.3	18.2	0.00e+00	0	41	0	861929472	65	4717
2026-01-22 12:28:50.24	312.07	14.96	-47.4	-49.2	18.2	0.00e+00	0	41	0	867172352	66	4406
2026-01-22 12:28:53.26	312.62	14.80	-46.8	-48.3	19.0	0.00e+00	0	41	0	872415232	65	4231
2026-01-22 12:28:56.29	313.18	14.65	-46.4	-47.8	19.4	0.00e+00	0	41	0	878706688	64	4231
2026-01-22 12:28:59.31	313.72	14.49	-46.3	-47.7	19.6	0.00e+00	0	41	0	883949568	64	4158
2026-01-22 12:29:02.34	314.27	14.33	-46.2	-47.7	19.5	0.00e+00	0	41	0	890241024	64	4146
2026-01-22 12:29:05.36	314.80	14.17	-46.7	-48.3	19.0	0.00e+00	0	41	0	895483904	64	4455
2026-01-22 12:29:08.38	315.33	14.01	-46.7	-48.2	19.0	0.00e+00	0	41	0	900726784	64	4411
2026-01-22 12:29:11.41	315.86	13.85	-46.4	-47.9	19.3	0.00e+00	0	41	0	907018240	64	4265
2026-01-22 12:29:14.43	316.38	13.69	-46.9	-48.5	18.7	0.00e+00	0	41	0	912261120	64	4589
2026-01-22 12:29:17.46	316.89	13.52	-46.7	-48.2	19.0	0.00e+00	0	41	0	918552576	64	4410
2026-01-22 12:29:20.48	317.40	13.36	-46.3	-47.7	19.3	0.00e+00	0	41	0	923795456	64	4192
2026-01-22 12:29:23.51	317.90	13.19	-46.4	-47.9	19.3	0.00e+00	0	41	0	929038336	64	4247
2026-01-22 12:29:26.52	318.40	13.03	-46.5	-48.1	19.1	0.00e+00	0	41	0	935329792	64	4347
2026-01-22 12:29:29.55	318.89	12.86	-46.2	-47.6	19.5	0.00e+00	0	41	0	940572672	64	4131
2026-01-22 12:29:32.57	319.38	12.69	-45.9	-47.3	19.9	0.00e+00	0	41	0	946864128	63	4194
2026-01-22 12:29:35.60	319.86	12.52	-46.0	-47.5	19.8	0.00e+00	0	41	0	952107008	63	4299
2026-01-22 12:29:38.62	320.34	12.36	-46.3	-47.7	19.4	0.00e+00	0	41	0	957349888	63	4439
2026-01-22 12:29:41.65	320.81	12.19	-46.2	-47.6	19.5	0.00e+00	0	41	0	963641344	63	4375
2026-01-22 12:29:44.66	321.27	12.02	-46.0	-47.4	19.7	0.00e+00	0	41	0	968884224	63	4287
2026-01-22 12:29:47.68	321.73	11.85	-46.1	-47.6	19.5	0.00e+00	0	41	0	975175680	63	4348
2026-01-22 12:29:50.71	322.19	11.68	-46.1	-47.5	19.6	0.00e+00	0	41	0	980418560	63	4324
2026-01-22 12:29:53.73	322.64	11.50	-45.4	-46.7	20.4	0.00e+00	0	41	0	986710016	62	4150
2026-01-22 12:29:56.76	323.08	11.33	-45.3	-46.5	20.5	0.00e+00	0	41	0	991952896	62	4082
2026-01-22 12:29:59.78	323.52	11.16	-45.3	-46.5	20.4	0.00e+00	0	41	0	997195776	62	4097
2026-01-22 12:30:02.80	323.96	10.99	-45.6	-47.0	20.0	0.00e+00	0	41	0	1003487232	62	4313
2026-01-22 12:30:05.83	324.39	10.82	-45.7	-47.0	20.0	0.00e+00	0	41	0	1008730112	62	4330
2026-01-22 12:30:08.85	324.81	10.64	-45.8	-47.3	19.7	0.00e+00	0	41	0	1015021568	62	4446
2026-01-22 12:30:11.88	325.23	10.47	-46.5	-48.0	19.0	0.00e+00	0	41	0	1020264448	63	4591
2026-01-22 12:30:14.90	325.65	10.30	-46.6	-48.2	18.8	0.00e+00	0	41	0	1025507328	64	4402
2026-01-22 12:30:17.92	326.06	10.12	-46.0	-47.5	19.4	0.00e+00	0	41	0	1031798784	64	4061
2026-01-22 12:30:20.94	326.46	9.95	-45.8	-47.2	19.7	0.00e+00	0	41	0	1037041664	63	4159
2026-01-22 12:30:23.97	326.87	9.78	-45.7	-47.0	19.9	0.00e+00	0	41	0	1043333120	63	4089
2026-01-22 12:30:26.99	327.26	9.61	-46.5	-48.0	18.9	0.00e+00	0	41	0	1048576000	63	4583
2026-01-22 12:30:30.02	327.66	9.43	-46.8	-48.4	18.5	0.00e+00	0	41	0	1053818880	64	4536
2026-01-22 12:30:33.04	328.04	9.26	-46.4	-48.0	18.8	0.00e+00	0	41	0	1060110336	64	4334
2026-01-22 12:30:36.06	328.43	9.09	-46.7	-48.3	18.5	0.00e+00	0	41	0	1065353216	64	4485
2026-01-22 12:30:39.08	328.81	8.92	-46.9	-48.6	18.2	0.00e+00	0	41	0	1071644672	64	4623
2026-01-22 12:30:42.11	329.18	8.74	-47.1	-49.0	17.9	0.00e+00	0	41	0	1076887552	64	4820
2026-01-22 12:30:45.13	329.55	8.57	-46.9	-48.7	18.1	0.00e+00	0	41	0	1083179008	65	4420
2026-01-22 12:30:48.16	329.92	8.40	-46.9	-48.7	18.1	0.00e+00	0	41	0	1088421888	65	4401
2026-01-22 12:30:51.18	330.28	8.23	-47.4	-49.3	17.5	0.00e+00	0	41	0	1093664768	65	4729
2026-01-22 12:30:54.21	330.64	8.05	-47.3	-49.2	17.6	0.00e+00	0	41	0	1099956224	65	4699
2026-01-22 12:30:57.23	331.00	7.88	-47.4	-49.3	17.4	0.00e+00	0	41	0	1105199104	65	4728
2026-01-22 12:31:00.25	331.35	7.71	-46.7	-48.4	18.3	0.00e+00	0	41	0	1111490560	65	4249
2026-01-22 12:31:03.28	331.69	7.54	-46.4	-48.0	18.7	0.00e+00	0	40	0	1116733440	64	4309
2026-01-22 12:31:06.31	332.04	7.37	-46.4	-48.0	18.6	0.00e+00	0	40	0	1121976320	64	4339
2026-01-22 12:31:09.33	332.38	7.20	-47.0	-48.7	18.0	0.00e+00	0	41	0	1128267776	64	4699
2026-01-22 12:31:12.36	332.71	7.03	-47.5	-49.5	17.2	0.00e+00	0	41	0	1133510656	65	4829
2026-01-22 12:31:15.38	333.04	6.86	-47.4	-49.3	17.3	0.00e+00	0	41	0	1139802112	66	4484
2026-01-22 12:31:18.41	333.37	6.69	-47.1	-49.0	17.7	0.00e+00	0	41	0	1145044992	66	4293
2026-01-22 12:31:21.44	333.70	6.52	-46.8	-48.6	18.0	0.00e+00	0	41	0	1150287872	65	4363
2026-01-22 12:31:24.46	334.02	6.35	-47.2	-49.1	17.5	0.00e+00	0	41	0	1156579328	65	4645
2026-01-22 12:31:27.49	334.33	6.18	-47.3	-49.2	17.4	0.00e+00	0	41	0	1161822208	65	4687
2026-01-22 12:31:30.51	334.65	6.02	-47.6	-49.7	16.9	0.00e+00	0	41	0	1168113664	65	4946
2026-01-22 12:31:33.54	334.96	5.85	-47.6	-49.7	16.9	0.00e+00	0	41	0	1173356544	66	4662
2026-01-22 12:31:36.56	335.27	5.68	-47.6	-49.7	16.8	0.00e+00	0	41	0	1178599424	66	4675
2026-01-22 12:31:39.58	335.57	5.52	-47.5	-49.6	16.9	0.00e+00	0	41	0	1184890880	66	4614
2026-01-22 12:31:42.61	335.87	5.35	-48.2	-50.6	15.9	0.00e+00	0	41	0	1190133760	67	4882
2026-01-22 12:31:45.63	336.17	5.18	-48.7	-51.5	15.0	0.00e+00	0	41	0	1196425216	68	5115
2026-01-22 12:31:48.66	336.46	5.02	-48.6	-51.4	15.1	0.00e+00	0	41	0	1201668096	68	5043
2026-01-22 12:31:51.68	336.75	4.85	-53.3	-68.3	3.8	1.49e+00	0	41	104	1203765248	77	21141
2026-01-22 12:31:54.71	337.04	4.69	-53.6	-68.7	3.8	1.49e+00	0	41	104	1203765248	77	22037
2026-01-22 12:31:57.73	337.32	4.53	-53.8	-68.8	3.8	1.49e+00	0	41	104	1203765248	78	21226
2026-01-22 12:32:00.76	337.61	4.36	-53.7	-68.7	3.8	1.49e+00	0	41	104	1203765248	78	20984
2026-01-22 12:32:03.78	337.88	4.20	-53.6	-68.6	3.8	1.49e+00	0	41	104	1203765248	78	20652
2026-01-22 12:32:06.81	338.16	4.04	-53.7	-68.7	3.8	1.49e+00	0	41	104	1203765248	78	20932
2026-01-22 12:32:09.83	338.43	3.87	-53.8	-68.8	3.8	1.49e+00	0	41	104	1203765248	78	21122
2026-01-22 12:32:12.86	338.70	3.71	-53.7	-68.7	3.8	1.49e+00	0	41	104	1203765248	78	20995
2026-01-22 12:32:15.88	338.97	3.55	-53.7	-68.7	3.8	1.49e+00	0	41	104	1203765248	78	20954
2026-01-22 12:32:18.90	339.24	3.39	-53.7	-68.7	3.8	1.49e+00	0	41	104	1203765248	78	20905
2026-01-22 12:32:21.93	339.50	3.23	-53.7	-68.7	3.8	1.49e+00	0	41	104	1203765248	78	20815
2026-01-22 12:32:24.95	339.76	3.07	-53.7	-68.7	3.8	1.49e+00	0	41	104	1203765248	78	20826
2026-01-22 12:32:27.98	340.01	2.91	-53.6	-68.6	3.8	1.49e+00	0	41	104	1203765248	78	20775
2026-01-22 12:32:31.00	340.27	2.75	-53.6	-68.7	3.8	1.49e+00	0	41	104	1203765248	78	20803
2026-01-22 12:32:34.03	340.52	2.59	-53.6	-68.6	3.8	1.49e+00	0	41	104	1203765248	78	20766
2026-01-22 12:32:37.05	340.77	2.44	-53.6	-68.6	3.8	1.49e+00	0	41	104	1203765248	78	20768
2026-01-22 12:32:40.07	341.01	2.28	-53.6	-68.6	3.8	1.49e+00	0	41	104	1203765248	78	20666
2026-01-22 12:32:43.10	341.26	2.12	-53.6	-68.6	3.8	1.49e+00	0	41	104	1203765248	78	20634
2026-01-22 12:32:46.13	341.50	1.97	-53.6	-68.6	3.8	1.49e+00	0	41	104	1203765248	78	20652

#Closed at: 2026-01-22 12:32:48
#Recorded file [1203 MB]: D:/lorett/data/31041_260122_152021.dat