passes_logs/2026/01/22/R3.2S_Murmansk/R3.2S_Murmansk__20260122_064853_NOAA_21_JPSS-2_rec.log

#Pass ID: 20260122_064853_NOAA 21 (JPSS-2)
#Satellite: NOAA 21 (JPSS-2)
#Configuration: NOAA-21
#almurnet v.1.7.20251203
#Start time: 2026-01-22 06:48:53

#Version: 2.2.20231116
#Station: R3.2S_Murmansk
#Location: 33.079688 lon 68.888172 lat
#TLE: 1 54234U 22150A   26021.42686626  .00000211  00000+0  12107-3 0  9996
#TLE: 2 54234  98.7506 322.2490 0000636 241.9299 118.1812 14.19537149165725

#Time	Az	El	Level	Level2	SNR	BER	BlckErr	Temp	State	Recorded	gain1	gain2
2026-01-22 06:48:53.52	91.21	2.03	-53.9	-66.7	3.8	1.49e+00	0	39	0	0	79	15689
2026-01-22 06:48:57.54	91.00	2.26	-52.7	-65.5	3.8	1.49e+00	0	39	104	0	77	15263
2026-01-22 06:49:01.58	90.78	2.51	-52.5	-65.3	3.8	1.49e+00	0	39	104	0	77	14964
2026-01-22 06:49:05.61	90.55	2.75	-52.5	-65.3	3.8	1.49e+00	0	39	104	0	77	14936
2026-01-22 06:49:09.64	90.33	2.99	-52.5	-65.3	3.8	1.49e+00	0	39	104	0	77	14918
2026-01-22 06:49:13.68	90.09	3.24	-52.5	-65.2	3.8	1.49e+00	0	40	104	0	77	14783
2026-01-22 06:49:17.71	89.86	3.48	-52.5	-65.3	3.8	1.49e+00	0	40	104	0	77	14960
2026-01-22 06:49:21.74	89.62	3.73	-52.5	-64.7	3.8	1.49e+00	0	40	104	0	76	14744
2026-01-22 06:49:25.77	89.37	3.98	-52.4	-64.5	3.8	1.49e+00	0	40	104	0	76	14406
2026-01-22 06:49:29.81	89.12	4.24	-51.4	-57.5	6.5	3.70e-01	0	40	0	2097152	74	7250
2026-01-22 06:49:33.84	88.87	4.49	-48.3	-50.7	13.5	1.83e-05	0	40	0	15728640	68	4658
2026-01-22 06:49:37.87	88.61	4.75	-47.5	-49.6	14.5	0.00e+00	0	40	0	27262976	65	4884
2026-01-22 06:49:41.90	88.35	5.01	-49.0	-51.9	12.3	6.10e-05	0	40	0	39845888	68	5350
2026-01-22 06:49:45.94	88.08	5.27	-45.2	-46.5	17.7	3.08e-01	0	40	104	49283072	61	4297
2026-01-22 06:49:49.97	87.81	5.53	-44.9	-46.2	18.2	0.00e+00	0	40	0	61865984	61	4154
2026-01-22 06:49:54.00	87.53	5.79	-44.7	-45.9	18.5	0.00e+00	0	40	0	73400320	61	4040
2026-01-22 06:49:58.03	87.25	6.06	-44.9	-46.1	18.3	0.00e+00	0	40	0	87031808	61	4115
2026-01-22 06:50:02.06	86.96	6.33	-44.4	-45.6	18.8	0.00e+00	0	40	0	99614720	60	4119
2026-01-22 06:50:06.10	86.67	6.60	-44.1	-45.1	19.3	0.00e+00	0	40	0	112197632	60	3909
2026-01-22 06:50:10.13	86.37	6.87	-44.6	-45.7	18.8	0.00e+00	0	40	0	124780544	60	4162
2026-01-22 06:50:14.16	86.06	7.15	-44.3	-45.4	19.3	0.00e+00	0	40	0	137363456	59	4268
2026-01-22 06:50:18.20	85.75	7.42	-44.3	-45.4	19.1	0.00e+00	0	40	0	149946368	60	4008
2026-01-22 06:50:22.23	85.43	7.70	-44.2	-45.3	19.2	0.00e+00	0	40	0	162529280	60	3994
2026-01-22 06:50:26.26	85.10	7.98	-44.7	-45.9	19.0	0.00e+00	0	40	0	175112192	59	4495
2026-01-22 06:50:30.29	84.77	8.27	-44.6	-45.7	19.2	0.00e+00	0	40	0	187695104	59	4409
2026-01-22 06:50:34.32	84.44	8.55	-44.1	-45.2	19.7	0.00e+00	0	40	0	200278016	59	4156
2026-01-22 06:50:38.35	84.09	8.84	-44.2	-45.2	19.7	0.00e+00	0	40	0	212860928	59	4173
2026-01-22 06:50:42.38	83.74	9.13	-44.2	-45.2	19.7	0.00e+00	0	41	0	225443840	59	4163
2026-01-22 06:50:46.42	83.38	9.42	-43.8	-44.8	20.1	0.00e+00	0	40	0	238026752	59	3987
2026-01-22 06:50:50.45	83.01	9.72	-44.2	-45.3	19.6	0.00e+00	0	40	0	250609664	59	4204
2026-01-22 06:50:54.48	82.64	10.02	-43.8	-44.8	20.1	0.00e+00	0	40	0	263192576	59	3972
2026-01-22 06:50:58.51	82.25	10.31	-44.1	-45.1	19.9	0.00e+00	0	41	0	275775488	59	4125
2026-01-22 06:51:02.55	81.86	10.62	-43.8	-44.8	20.1	0.00e+00	0	41	0	288358400	59	3996
2026-01-22 06:51:06.58	81.46	10.92	-43.5	-44.4	20.5	0.00e+00	0	40	0	300941312	58	4050
2026-01-22 06:51:10.62	81.05	11.23	-43.2	-44.1	20.9	0.00e+00	0	40	0	313524224	58	3882
2026-01-22 06:51:14.66	80.64	11.54	-43.3	-44.2	20.7	0.00e+00	0	40	0	326107136	58	3958
2026-01-22 06:51:18.69	80.21	11.85	-43.1	-44.0	20.9	0.00e+00	0	41	0	338690048	58	3862
2026-01-22 06:51:22.72	79.77	12.16	-42.9	-43.8	21.1	0.00e+00	0	41	0	351272960	57	3982
2026-01-22 06:51:26.75	79.33	12.48	-42.6	-43.5	21.4	0.00e+00	0	41	0	363855872	57	3854
2026-01-22 06:51:30.78	78.87	12.80	-42.7	-43.6	21.3	0.00e+00	0	41	0	376438784	57	3885
2026-01-22 06:51:34.82	78.41	13.12	-42.8	-43.7	21.3	0.00e+00	0	41	0	389021696	57	3917
2026-01-22 06:51:38.85	77.93	13.44	-42.5	-43.4	21.6	0.00e+00	0	41	0	401604608	57	3795
2026-01-22 06:51:42.88	77.44	13.77	-42.4	-43.3	21.6	0.00e+00	0	40	0	414187520	56	3963
2026-01-22 06:51:46.91	76.95	14.09	-42.5	-43.3	21.6	0.00e+00	0	40	0	426770432	56	3987
2026-01-22 06:51:50.95	76.44	14.42	-42.7	-43.6	21.4	0.00e+00	0	40	0	439353344	56	4128
2026-01-22 06:51:54.98	75.92	14.76	-42.9	-43.7	21.3	0.00e+00	0	40	0	451936256	56	4184
2026-01-22 06:51:59.02	75.38	15.09	-42.6	-43.4	21.6	0.00e+00	0	41	0	464519168	56	4034
2026-01-22 06:52:03.05	74.84	15.43	-42.8	-43.7	21.3	0.00e+00	0	41	0	477102080	56	4185
2026-01-22 06:52:07.09	74.28	15.76	-43.1	-44.0	21.1	0.00e+00	0	41	0	489684992	56	4292
2026-01-22 06:52:11.12	73.71	16.10	-42.8	-43.7	21.4	0.00e+00	0	41	0	502267904	56	4147
2026-01-22 06:52:15.16	73.12	16.45	-42.8	-43.7	21.3	0.00e+00	0	41	0	514850816	56	4158
2026-01-22 06:52:19.19	72.52	16.79	-42.8	-43.7	21.4	0.00e+00	0	41	0	527433728	56	4168
2026-01-22 06:52:23.23	71.91	17.13	-43.0	-43.8	21.3	0.00e+00	0	41	0	540016640	56	4238
2026-01-22 06:52:27.26	71.28	17.48	-42.9	-43.7	21.4	0.00e+00	0	41	0	552599552	56	4177
2026-01-22 06:52:31.30	70.64	17.83	-42.9	-43.7	21.3	0.00e+00	0	41	0	565182464	56	4186
2026-01-22 06:52:35.33	69.99	18.17	-42.9	-43.8	21.3	0.00e+00	0	41	0	577765376	56	4204
2026-01-22 06:52:39.37	69.31	18.52	-42.7	-43.6	21.5	0.00e+00	0	40	0	590348288	56	4123
2026-01-22 06:52:43.40	68.62	18.87	-42.7	-43.5	21.6	0.00e+00	0	41	0	602931200	56	4079
2026-01-22 06:52:47.44	67.92	19.23	-42.6	-43.5	21.6	0.00e+00	0	41	0	616562688	56	4062
2026-01-22 06:52:51.47	67.20	19.58	-42.5	-43.4	21.7	0.00e+00	0	41	0	628097024	56	4016
2026-01-22 06:52:55.50	66.46	19.93	-42.5	-43.3	21.8	0.00e+00	0	40	0	640679936	56	3985
2026-01-22 06:52:59.54	65.71	20.28	-42.4	-43.3	21.8	0.00e+00	0	41	0	654311424	56	3964
2026-01-22 06:53:03.57	64.93	20.63	-42.2	-43.0	22.1	0.00e+00	0	40	0	666894336	56	3844
2026-01-22 06:53:07.60	64.14	20.98	-42.0	-42.8	22.2	0.00e+00	0	41	0	678428672	56	3774
2026-01-22 06:53:11.64	63.33	21.32	-42.1	-42.9	22.2	0.00e+00	0	41	0	692060160	56	3815
2026-01-22 06:53:15.67	62.51	21.67	-42.0	-42.8	22.3	0.00e+00	0	41	0	704643072	56	3767
2026-01-22 06:53:19.71	61.66	22.02	-41.8	-42.6	22.3	0.00e+00	0	41	0	717225984	55	3898
2026-01-22 06:53:23.74	60.79	22.36	-41.7	-42.4	22.5	0.00e+00	0	41	0	729808896	55	3823
2026-01-22 06:53:27.78	59.91	22.70	-41.6	-42.3	22.6	0.00e+00	0	40	0	742391808	55	3768
2026-01-22 06:53:31.81	59.00	23.03	-41.7	-42.4	22.5	0.00e+00	0	41	0	754974720	55	3823
2026-01-22 06:53:35.84	58.08	23.37	-41.8	-42.5	22.4	0.00e+00	0	41	0	767557632	55	3867
2026-01-22 06:53:39.88	57.13	23.70	-42.0	-42.8	22.2	0.00e+00	0	41	0	780140544	55	3981
2026-01-22 06:53:43.91	56.17	24.02	-42.2	-43.0	22.0	0.00e+00	0	41	0	792723456	55	4090
2026-01-22 06:53:47.94	55.19	24.34	-42.4	-43.2	21.9	0.00e+00	0	41	0	805306368	55	4168
2026-01-22 06:53:51.98	54.18	24.65	-42.1	-42.9	22.2	0.00e+00	0	40	0	817889280	55	4031
2026-01-22 06:53:56.02	53.15	24.96	-42.3	-43.1	22.0	0.00e+00	0	41	0	830472192	55	4141
2026-01-22 06:54:00.06	52.11	25.26	-42.2	-43.0	22.0	0.00e+00	0	40	0	843055104	55	4076
2026-01-22 06:54:04.09	51.04	25.56	-42.7	-43.5	21.6	0.00e+00	0	41	0	855638016	55	4330
2026-01-22 06:54:08.12	49.96	25.84	-42.7	-43.6	21.7	0.00e+00	0	41	0	868220928	56	4102
2026-01-22 06:54:12.15	48.86	26.12	-42.4	-43.2	22.0	0.00e+00	0	41	0	880803840	56	3938
2026-01-22 06:54:16.19	47.73	26.39	-42.2	-43.0	22.2	0.00e+00	0	41	0	893386752	56	3839
2026-01-22 06:54:20.22	46.59	26.64	-42.4	-43.2	22.0	0.00e+00	0	41	0	905969664	56	3948
2026-01-22 06:54:24.25	45.43	26.89	-42.1	-42.9	22.2	0.00e+00	0	41	0	918552576	56	3819
2026-01-22 06:54:28.28	44.25	27.13	-42.2	-43.0	22.1	0.00e+00	0	40	0	931135488	56	3861
2026-01-22 06:54:32.32	43.05	27.35	-42.2	-43.0	22.2	0.00e+00	0	41	0	943718400	56	3838
2026-01-22 06:54:36.35	41.84	27.57	-42.1	-42.9	22.3	0.00e+00	0	41	0	956301312	56	3781
2026-01-22 06:54:40.38	40.62	27.77	-42.3	-43.1	22.0	0.00e+00	0	41	0	968884224	56	3901
2026-01-22 06:54:44.42	39.37	27.95	-42.2	-43.0	22.2	0.00e+00	0	40	0	981467136	56	3843
2026-01-22 06:54:48.45	38.11	28.12	-42.3	-43.1	22.0	0.00e+00	0	41	0	994050048	56	3904
2026-01-22 06:54:52.48	36.84	28.28	-42.1	-42.9	22.3	0.00e+00	0	41	0	1006632960	56	3803
2026-01-22 06:54:56.51	35.56	28.42	-42.1	-42.9	22.3	0.00e+00	0	41	0	1019215872	56	3794
2026-01-22 06:55:00.54	34.27	28.55	-42.5	-43.3	21.9	0.00e+00	0	41	0	1031798784	56	3994
2026-01-22 06:55:04.58	32.97	28.66	-42.5	-43.3	21.9	0.00e+00	0	41	0	1044381696	56	3998
2026-01-22 06:55:08.61	31.66	28.76	-42.6	-43.4	21.8	0.00e+00	0	41	0	1056964608	56	4047
2026-01-22 06:55:12.64	30.34	28.83	-42.5	-43.3	22.0	0.00e+00	0	41	0	1069547520	56	3992
2026-01-22 06:55:16.67	29.02	28.89	-42.4	-43.2	22.1	0.00e+00	0	41	0	1082130432	56	3926
2026-01-22 06:55:20.70	27.69	28.94	-42.5	-43.3	22.0	0.00e+00	0	41	0	1094713344	56	3977
2026-01-22 06:55:24.74	26.36	28.97	-42.6	-43.4	21.8	0.00e+00	0	41	0	1107296256	56	4043
2026-01-22 06:55:28.77	25.03	28.97	-42.1	-42.9	22.3	0.00e+00	0	41	0	1119879168	56	3797
2026-01-22 06:55:32.80	23.69	28.97	-42.4	-43.2	22.1	0.00e+00	0	41	0	1132462080	56	3935
2026-01-22 06:55:36.83	22.36	28.94	-42.2	-43.0	22.2	0.00e+00	0	41	0	1145044992	56	3863
2026-01-22 06:55:40.86	21.04	28.90	-42.1	-42.9	22.4	0.00e+00	0	41	0	1157627904	56	3810
2026-01-22 06:55:44.90	19.71	28.84	-42.0	-42.8	22.3	0.00e+00	0	41	0	1170210816	55	3995
2026-01-22 06:55:48.93	18.39	28.76	-41.9	-42.7	22.5	0.00e+00	0	41	0	1182793728	55	3917
2026-01-22 06:55:52.96	17.08	28.67	-42.2	-43.0	22.1	0.00e+00	0	41	0	1195376640	55	4097
2026-01-22 06:55:56.99	15.78	28.56	-42.6	-43.5	21.8	0.00e+00	0	40	0	1207959552	55	4301
2026-01-22 06:56:01.02	14.49	28.44	-42.5	-43.3	21.9	0.00e+00	0	40	0	1221591040	55	4221
2026-01-22 06:56:05.06	13.20	28.30	-42.2	-43.0	22.2	0.00e+00	0	41	0	1233125376	55	4079
2026-01-22 06:56:09.09	11.93	28.14	-42.3	-43.1	22.0	0.00e+00	0	41	0	1245708288	55	4125
2026-01-22 06:56:13.12	10.68	27.97	-42.3	-43.1	22.1	0.00e+00	0	41	0	1259339776	55	4125
2026-01-22 06:56:17.15	9.44	27.79	-42.4	-43.2	22.0	0.00e+00	0	41	0	1271922688	55	4169
2026-01-22 06:56:21.18	8.21	27.59	-42.3	-43.1	22.1	0.00e+00	0	41	0	1283457024	55	4111
2026-01-22 06:56:25.22	6.99	27.38	-42.6	-43.5	21.6	0.00e+00	0	41	0	1296039936	55	4314
2026-01-22 06:56:29.25	5.80	27.15	-42.7	-43.6	21.7	0.00e+00	0	41	0	1309671424	56	4108
2026-01-22 06:56:33.28	4.62	26.92	-42.7	-43.6	21.8	0.00e+00	0	41	0	1321205760	56	4110
2026-01-22 06:56:37.31	3.46	26.67	-42.5	-43.4	21.9	0.00e+00	0	41	0	1333788672	56	4005
2026-01-22 06:56:41.34	2.32	26.42	-41.8	-42.6	22.5	0.00e+00	0	41	0	1347420160	55	3887
2026-01-22 06:56:45.38	1.19	26.15	-42.9	-43.8	21.6	0.00e+00	0	41	0	1360003072	56	4195
2026-01-22 06:56:49.41	0.09	25.88	-42.3	-43.1	22.2	0.00e+00	0	41	0	1371537408	56	3888
2026-01-22 06:56:53.44	359.00	25.59	-42.1	-43.0	22.2	0.00e+00	0	41	0	1385168896	54	4296
2026-01-22 06:56:57.47	357.94	25.30	-42.6	-43.5	21.8	0.00e+00	0	41	0	1397751808	56	4059
2026-01-22 06:57:01.51	356.89	25.00	-42.2	-43.0	22.2	0.00e+00	0	41	0	1410334720	56	3867
2026-01-22 06:57:05.54	355.86	24.69	-42.3	-43.1	22.0	0.00e+00	0	41	0	1422917632	56	3891
2026-01-22 06:57:09.57	354.86	24.38	-41.6	-42.4	22.6	0.00e+00	0	41	0	1435500544	55	3788
2026-01-22 06:57:13.60	353.88	24.06	-41.8	-42.6	22.5	0.00e+00	0	41	0	1448083456	54	4102
2026-01-22 06:57:17.63	352.91	23.74	-41.7	-42.5	22.5	0.00e+00	0	41	0	1460666368	54	4063
2026-01-22 06:57:21.66	351.97	23.41	-41.6	-42.4	22.6	0.00e+00	0	41	0	1473249280	54	4008
2026-01-22 06:57:25.69	351.04	23.08	-41.8	-42.5	22.4	0.00e+00	0	41	0	1485832192	54	4094
2026-01-22 06:57:29.73	350.14	22.74	-41.9	-42.6	22.4	0.00e+00	0	41	0	1498415104	54	4140
2026-01-22 06:57:33.76	349.25	22.40	-42.1	-43.0	22.1	0.00e+00	0	41	0	1510998016	55	4053
2026-01-22 06:57:37.79	348.39	22.06	-41.8	-42.6	22.4	0.00e+00	0	41	0	1523580928	55	3889
2026-01-22 06:57:41.82	347.54	21.72	-41.8	-42.6	22.4	0.00e+00	0	41	0	1536163840	55	3894
2026-01-22 06:57:45.86	346.71	21.37	-42.4	-43.3	21.9	0.00e+00	0	41	0	1548746752	55	4197
2026-01-22 06:57:49.89	345.90	21.03	-42.4	-43.2	21.9	0.00e+00	0	41	0	1561329664	55	4167
2026-01-22 06:57:53.92	345.11	20.68	-42.4	-43.2	21.9	0.00e+00	0	41	0	1573912576	55	4181
2026-01-22 06:57:57.95	344.34	20.33	-42.6	-43.4	21.8	0.00e+00	0	41	0	1586495488	55	4263
2026-01-22 06:58:01.99	343.58	19.98	-42.1	-42.9	22.1	0.00e+00	0	41	0	1599078400	55	4033
2026-01-22 06:58:06.02	342.84	19.63	-42.1	-42.9	22.1	0.00e+00	0	41	0	1611661312	55	4051
2026-01-22 06:58:10.05	342.12	19.28	-42.1	-42.9	22.1	0.00e+00	0	41	0	1624244224	55	4029
2026-01-22 06:58:14.08	341.42	18.93	-42.2	-43.0	22.0	0.00e+00	0	41	0	1636827136	55	4067
2026-01-22 06:58:18.11	340.73	18.58	-42.3	-43.1	21.8	0.00e+00	0	41	0	1649410048	55	4132
2026-01-22 06:58:22.14	340.06	18.23	-42.3	-43.2	21.8	0.00e+00	0	41	0	1661992960	55	4150
2026-01-22 06:58:26.17	339.40	17.89	-43.0	-43.9	21.3	0.00e+00	0	41	0	1674575872	56	4278
2026-01-22 06:58:30.20	338.76	17.54	-43.1	-44.0	21.1	0.00e+00	0	41	0	1687158784	56	4335
2026-01-22 06:58:34.24	338.13	17.19	-42.6	-43.5	21.6	0.00e+00	0	41	0	1699741696	56	4072
2026-01-22 06:58:38.27	337.52	16.85	-42.5	-43.4	21.7	0.00e+00	0	41	0	1712324608	56	4009
2026-01-22 06:58:42.30	336.92	16.51	-43.1	-44.0	21.2	0.00e+00	0	41	0	1724907520	56	4339
2026-01-22 06:58:46.34	336.34	16.16	-42.9	-43.7	21.3	0.00e+00	0	41	0	1737490432	57	3958
2026-01-22 06:58:50.37	335.76	15.83	-42.7	-43.5	21.5	0.00e+00	0	41	0	1750073344	57	3865
2026-01-22 06:58:54.40	335.21	15.49	-42.7	-43.5	21.6	0.00e+00	0	41	0	1762656256	57	3852
2026-01-22 06:58:58.43	334.66	15.15	-43.2	-44.1	21.0	0.00e+00	0	41	0	1775239168	57	4140
2026-01-22 06:59:02.46	334.13	14.82	-43.1	-43.9	21.1	0.00e+00	0	41	0	1787822080	57	4048
2026-01-22 06:59:06.50	333.61	14.49	-42.5	-43.4	21.6	0.00e+00	0	41	0	1800404992	57	3788
2026-01-22 06:59:10.53	333.10	14.16	-42.5	-43.3	21.7	0.00e+00	0	40	0	1812987904	56	3992
2026-01-22 06:59:14.56	332.60	13.83	-42.8	-43.7	21.3	0.00e+00	0	41	0	1825570816	56	4161
2026-01-22 06:59:18.59	332.11	13.51	-43.2	-44.1	20.9	0.00e+00	0	41	0	1838153728	57	4121
2026-01-22 06:59:22.62	331.64	13.18	-43.0	-43.9	21.0	0.00e+00	0	41	0	1850736640	57	4015
2026-01-22 06:59:26.66	331.17	12.86	-42.5	-43.4	21.5	0.00e+00	0	41	0	1863319552	57	3797
2026-01-22 06:59:30.69	330.72	12.54	-42.6	-43.5	21.5	0.00e+00	0	41	0	1875902464	57	3832
2026-01-22 06:59:34.72	330.27	12.23	-43.3	-44.3	20.8	0.00e+00	0	41	0	1888485376	57	4203
2026-01-22 06:59:38.75	329.84	11.91	-43.9	-44.9	20.2	0.00e+00	0	41	0	1901068288	58	4250
2026-01-22 06:59:42.78	329.41	11.60	-43.8	-44.7	20.3	0.00e+00	0	41	0	1913651200	58	4187
2026-01-22 06:59:46.82	328.99	11.29	-43.5	-44.4	20.5	0.00e+00	0	41	0	1926234112	58	4051
2026-01-22 06:59:50.85	328.59	10.99	-43.5	-44.4	20.5	0.00e+00	0	41	0	1938817024	58	4049
2026-01-22 06:59:54.88	328.19	10.68	-43.8	-44.8	20.2	0.00e+00	0	41	0	1951399936	58	4210
2026-01-22 06:59:58.91	327.80	10.38	-44.6	-45.7	19.4	0.00e+00	0	41	0	1963982848	59	4416
2026-01-22 07:00:02.94	327.41	10.08	-44.2	-45.2	19.5	0.00e+00	0	40	0	1976565760	60	3957
2026-01-22 07:00:06.97	327.04	9.79	-44.2	-45.3	19.4	0.00e+00	0	41	0	1989148672	60	3977
2026-01-22 07:00:11.00	326.67	9.49	-44.4	-45.4	19.2	0.00e+00	0	41	0	2001731584	60	4040
2026-01-22 07:00:15.04	326.31	9.20	-44.5	-45.6	19.0	0.00e+00	0	41	0	2014314496	60	4130
2026-01-22 07:00:19.07	325.96	8.91	-44.3	-45.3	19.6	0.00e+00	0	41	0	2026897408	59	4239
2026-01-22 07:00:23.10	325.62	8.62	-44.5	-45.6	19.3	0.00e+00	0	41	0	2039480320	59	4361
2026-01-22 07:00:27.13	325.28	8.34	-44.8	-46.0	18.6	0.00e+00	0	41	0	2053111808	60	4319
2026-01-22 07:00:31.16	324.95	8.05	-45.0	-46.3	18.4	0.00e+00	0	41	0	2064646144	60	4444
2026-01-22 07:00:35.20	324.62	7.77	-45.2	-46.5	18.1	0.00e+00	0	41	0	2077229056	61	4307
2026-01-22 07:00:39.23	324.31	7.49	-44.8	-45.9	18.5	0.00e+00	0	41	0	2090860544	61	4049
2026-01-22 07:00:43.27	323.99	7.22	-44.2	-45.3	19.1	0.00e+00	0	41	0	2103443456	60	3993
2026-01-22 07:00:47.30	323.69	6.94	-44.4	-45.5	18.9	0.00e+00	0	41	0	2114977792	60	4073
2026-01-22 07:00:51.34	323.39	6.67	-44.9	-46.1	18.3	0.00e+00	0	41	0	2128609280	60	4355
2026-01-22 07:00:55.37	323.09	6.40	-44.5	-45.7	18.6	0.00e+00	0	41	0	2141192192	60	4151
2026-01-22 07:00:59.41	322.81	6.13	-45.2	-46.5	17.9	0.00e+00	0	41	0	2153775104	60	4567
2026-01-22 07:01:03.44	322.52	5.86	-44.7	-46.0	18.3	0.00e+00	0	41	0	2166358016	61	4054
2026-01-22 07:01:07.47	322.25	5.60	-45.0	-46.3	18.0	0.00e+00	0	41	0	2178940928	61	4194
2026-01-22 07:01:11.51	321.97	5.34	-45.1	-46.4	17.9	0.00e+00	0	41	0	2191523840	61	4252
2026-01-22 07:01:15.54	321.71	5.08	-44.9	-46.1	18.0	0.00e+00	0	41	0	2204106752	61	4143
2026-01-22 07:01:19.58	321.45	4.82	-53.2	-66.0	3.8	1.49e+00	0	41	104	2207252480	76	17156
2026-01-22 07:01:23.61	321.19	4.56	-53.3	-66.1	3.8	1.49e+00	0	41	104	2207252480	77	16338
2026-01-22 07:01:27.64	320.94	4.31	-53.3	-66.1	3.8	1.49e+00	0	41	104	2207252480	77	16393
2026-01-22 07:01:31.68	320.69	4.05	-53.5	-66.3	3.8	1.49e+00	0	41	104	2207252480	77	16798
2026-01-22 07:01:35.72	320.44	3.80	-53.6	-66.4	3.8	1.49e+00	0	41	104	2207252480	77	16930
2026-01-22 07:01:39.75	320.21	3.55	-53.6	-66.3	3.8	1.49e+00	0	41	104	2207252480	77	16877
2026-01-22 07:01:43.78	319.97	3.30	-53.5	-66.3	3.8	1.49e+00	0	41	104	2207252480	77	16810
2026-01-22 07:01:47.82	319.74	3.06	-53.5	-66.3	3.8	1.49e+00	0	41	104	2207252480	77	16774
2026-01-22 07:01:51.85	319.51	2.81	-53.5	-66.3	3.8	1.49e+00	0	41	104	2207252480	77	16826
2026-01-22 07:01:55.89	319.29	2.57	-53.5	-66.3	3.8	1.49e+00	0	41	104	2207252480	77	16792
2026-01-22 07:01:59.92	319.07	2.33	-53.5	-66.3	3.8	1.49e+00	0	41	104	2207252480	77	16736
2026-01-22 07:02:03.95	318.86	2.09	-53.5	-66.2	3.8	1.49e+00	0	41	104	2207252480	77	16674

#Closed at: 2026-01-22 07:02:07
#Recorded file [2207 MB]: D:/lorett/data/31041_260122_094853.dat