passes_logs/2026/01/22/R3.2S_Murmansk/R3.2S_Murmansk__20260122_015402_AQUA_rec.log

#Pass ID: 20260122_015402_AQUA
#Satellite: AQUA
#Configuration: AQUA
#almurnet v.1.7.20251203
#Start time: 2026-01-22 01:54:04

#Version: 2.2.20231116
#Station: R3.2S_Murmansk
#Location: 33.079688 lon 68.888172 lat
#TLE: 1 27424U 02022A   26021.53721517  .00002456  00000+0  50140-3 0  9996
#TLE: 2 27424  98.4098 348.0744 0002012  70.1009  46.1672 14.61843091261845

#Time	Az	El	Level	Level2	SNR	BER	BlckErr	Temp	State	Recorded	gain1	gain2
2026-01-22 01:54:04.10	22.59	2.09	-55.8	-73.7	3.8	7.46e-01	0	40	0	0	82	29368
2026-01-22 01:54:07.11	22.64	2.29	-55.8	-73.6	3.8	7.46e-01	0	40	104	0	82	29244
2026-01-22 01:54:10.14	22.70	2.49	-55.7	-73.4	3.8	7.46e-01	0	40	104	0	82	28540
2026-01-22 01:54:13.16	22.76	2.69	-55.6	-73.4	3.8	7.44e-01	0	40	104	0	82	28511
2026-01-22 01:54:16.18	22.81	2.90	-55.3	-72.7	3.8	7.46e-01	0	40	104	0	82	26278
2026-01-22 01:54:19.21	22.87	3.10	-55.0	-72.3	3.8	7.46e-01	0	40	104	0	81	26651
2026-01-22 01:54:22.23	22.93	3.31	-54.0	-71.8	3.8	7.47e-01	0	40	104	0	80	26611
2026-01-22 01:54:25.26	22.99	3.52	-53.9	-71.4	3.8	7.46e-01	0	40	104	0	79	26839
2026-01-22 01:54:28.29	23.05	3.73	-53.1	-68.4	3.8	7.42e-01	0	40	104	0	78	20077
2026-01-22 01:54:31.31	23.12	3.95	-51.0	-63.7	3.8	7.45e-01	0	40	104	0	74	14798
2026-01-22 01:54:34.34	23.18	4.16	-48.3	-59.8	3.8	7.47e-01	0	40	104	0	68	13287
2026-01-22 01:54:37.37	23.24	4.38	-47.1	-58.3	3.8	7.44e-01	0	40	104	0	66	12535
2026-01-22 01:54:40.39	23.31	4.60	-46.5	-57.6	3.8	7.44e-01	0	40	104	0	65	12255
2026-01-22 01:54:43.42	23.37	4.82	-47.7	-59.0	3.8	7.43e-01	0	40	104	0	67	12952
2026-01-22 01:54:46.44	23.44	5.04	-48.8	-60.4	3.8	7.42e-01	0	40	104	0	69	13442
2026-01-22 01:54:49.46	23.50	5.27	-53.3	-69.6	3.9	7.41e-01	0	40	104	0	78	23289
2026-01-22 01:54:52.49	23.57	5.49	-46.6	-57.6	3.8	7.47e-01	0	40	104	0	64	13006
2026-01-22 01:54:55.51	23.64	5.72	-46.8	-57.9	3.9	7.44e-01	0	40	104	0	65	12720
2026-01-22 01:54:58.53	23.71	5.96	-46.1	-57.0	3.9	7.41e-01	0	40	104	0	64	12198
2026-01-22 01:55:01.56	23.78	6.19	-46.3	-57.3	3.8	7.45e-01	0	40	104	0	64	12533
2026-01-22 01:55:04.58	23.85	6.43	-50.1	-62.1	3.8	7.46e-01	0	40	104	0	70	15523
2026-01-22 01:55:07.60	23.92	6.66	-46.6	-57.7	3.8	7.45e-01	0	40	104	0	65	12385
2026-01-22 01:55:10.63	24.00	6.91	-47.1	-58.2	3.8	7.45e-01	0	40	104	0	64	14013
2026-01-22 01:55:13.66	24.07	7.15	-49.8	-61.7	3.9	7.43e-01	0	40	104	0	71	13942
2026-01-22 01:55:16.68	24.15	7.40	-45.9	-56.9	3.9	7.43e-01	0	40	104	0	63	12750
2026-01-22 01:55:19.71	24.23	7.65	-45.7	-56.7	3.8	7.43e-01	0	40	104	0	63	12391
2026-01-22 01:55:22.74	24.30	7.90	-46.6	-57.5	3.8	7.47e-01	0	40	104	0	63	13674
2026-01-22 01:55:25.75	24.38	8.15	-45.8	-56.7	3.8	7.43e-01	0	40	104	0	63	12419
2026-01-22 01:55:28.78	24.46	8.41	-53.8	-70.1	3.7	7.47e-01	0	40	104	0	78	24430
2026-01-22 01:55:31.81	24.55	8.67	-45.9	-56.9	3.8	7.46e-01	0	40	104	0	63	12701
2026-01-22 01:55:34.83	24.63	8.93	-45.6	-56.5	3.8	7.46e-01	0	41	104	0	62	12869
2026-01-22 01:55:37.86	24.71	9.20	-49.1	-60.7	3.8	7.46e-01	0	41	104	0	70	13217
2026-01-22 01:55:40.89	24.80	9.47	-45.5	-56.3	3.8	7.45e-01	0	41	104	0	63	11945
2026-01-22 01:55:43.91	24.89	9.74	-45.4	-56.2	3.8	7.44e-01	0	40	104	0	62	12472
2026-01-22 01:55:46.94	24.98	10.02	-47.7	-58.8	3.9	7.41e-01	0	40	104	0	65	14099
2026-01-22 01:55:49.96	25.07	10.30	-45.4	-56.2	3.8	7.42e-01	0	41	104	0	62	12462
2026-01-22 01:55:52.99	25.16	10.58	-54.3	-71.5	3.8	7.45e-01	0	40	104	0	79	27077
2026-01-22 01:55:56.01	25.26	10.87	-45.4	-56.2	3.8	7.44e-01	0	41	104	0	62	12427
2026-01-22 01:55:59.04	25.35	11.16	-45.7	-56.6	3.8	7.45e-01	0	41	104	0	61	13735
2026-01-22 01:56:02.06	25.45	11.46	-48.9	-60.3	3.8	7.43e-01	0	40	104	0	69	13383
2026-01-22 01:56:05.08	25.55	11.75	-45.0	-55.8	3.8	7.46e-01	0	41	104	0	62	11941
2026-01-22 01:56:08.11	25.65	12.06	-44.8	-55.6	3.8	7.42e-01	0	41	104	0	61	12251
2026-01-22 01:56:11.14	25.75	12.36	-47.6	-58.8	3.8	7.44e-01	0	40	104	0	66	13384
2026-01-22 01:56:14.16	25.86	12.67	-45.0	-55.8	3.8	7.47e-01	0	41	104	0	61	12540
2026-01-22 01:56:17.19	25.97	12.99	-54.4	-71.5	3.8	7.46e-01	0	41	104	0	79	27178
2026-01-22 01:56:20.22	26.08	13.31	-44.9	-55.7	3.9	7.44e-01	0	40	104	0	61	12425
2026-01-22 01:56:23.24	26.19	13.64	-45.2	-56.0	3.8	7.47e-01	0	41	104	0	61	12888
2026-01-22 01:56:26.27	26.30	13.97	-47.2	-58.2	3.9	7.47e-01	0	40	104	0	66	12518
2026-01-22 01:56:29.29	26.42	14.30	-44.8	-55.5	3.9	7.45e-01	0	40	104	0	61	12196
2026-01-22 01:56:32.32	26.54	14.64	-44.6	-55.4	3.9	7.47e-01	0	40	104	0	60	12666
2026-01-22 01:56:35.34	26.66	14.98	-46.5	-57.5	3.9	7.44e-01	0	40	104	0	65	12168
2026-01-22 01:56:38.37	26.79	15.33	-44.4	-55.2	3.8	7.46e-01	0	40	104	0	60	12444
2026-01-22 01:56:41.39	26.91	15.69	-54.1	-70.2	3.8	7.44e-01	0	40	104	0	79	23506
2026-01-22 01:56:44.42	27.04	16.05	-44.7	-55.4	3.8	7.43e-01	0	41	104	0	61	12075
2026-01-22 01:56:47.44	27.18	16.42	-44.5	-55.2	3.9	7.42e-01	0	41	104	0	60	12511
2026-01-22 01:56:50.47	27.31	16.79	-44.6	-55.3	3.9	7.42e-01	0	41	104	0	61	11890
2026-01-22 01:56:53.49	27.45	17.17	-44.2	-55.0	3.8	7.46e-01	0	41	104	0	60	12159
2026-01-22 01:56:56.52	27.60	17.56	-48.5	-59.9	3.8	7.44e-01	0	41	104	0	67	14349
2026-01-22 01:56:59.55	27.74	17.95	-45.5	-56.4	3.8	7.44e-01	0	40	104	0	63	11960
2026-01-22 01:57:02.57	27.90	18.35	-44.3	-55.1	3.8	7.43e-01	0	41	104	0	60	12239
2026-01-22 01:57:05.60	28.05	18.76	-50.1	-62.0	3.9	7.43e-01	0	41	104	0	72	13612
2026-01-22 01:57:08.62	28.21	19.17	-44.2	-55.0	3.8	7.46e-01	0	40	104	0	60	12127
2026-01-22 01:57:11.65	28.37	19.59	-44.5	-55.2	3.8	7.45e-01	0	41	104	0	61	11724
2026-01-22 01:57:14.67	28.54	20.02	-44.9	-55.6	3.9	7.42e-01	0	41	104	0	60	13077
2026-01-22 01:57:17.69	28.71	20.46	-44.3	-55.0	3.8	7.44e-01	0	41	104	0	60	12167
2026-01-22 01:57:20.72	28.89	20.91	-53.8	-68.2	3.8	7.46e-01	0	41	104	0	77	20834
2026-01-22 01:57:23.75	29.07	21.36	-44.9	-55.7	3.8	7.48e-01	0	41	104	0	61	12398
2026-01-22 01:57:26.77	29.26	21.82	-44.8	-55.6	3.8	7.45e-01	0	41	104	0	60	12983
2026-01-22 01:57:29.80	29.45	22.30	-48.2	-59.3	3.8	7.40e-01	0	40	104	0	68	12636
2026-01-22 01:57:32.82	29.65	22.78	-44.4	-55.2	3.9	7.41e-01	0	40	104	0	60	12390
2026-01-22 01:57:35.85	29.86	23.27	-45.0	-55.8	3.8	7.42e-01	0	41	104	0	61	12520
2026-01-22 01:57:38.87	30.07	23.77	-47.1	-58.0	3.8	7.40e-01	0	41	104	0	64	13707
2026-01-22 01:57:41.90	30.29	24.28	-44.6	-55.2	3.8	7.43e-01	0	41	104	0	61	11812
2026-01-22 01:57:44.92	30.51	24.81	-54.8	-72.0	3.8	7.47e-01	0	41	104	0	80	27136
2026-01-22 01:57:47.95	30.75	25.34	-45.0	-55.8	3.8	7.49e-01	0	41	104	0	62	11900
2026-01-22 01:57:50.97	30.99	25.89	-46.8	-57.8	3.8	7.43e-01	0	41	104	0	64	13277
2026-01-22 01:57:54.00	31.24	26.44	-48.8	-60.1	3.8	7.42e-01	0	41	104	0	69	12973
2026-01-22 01:57:57.02	31.50	27.01	-44.5	-55.2	3.8	7.43e-01	0	41	104	0	61	11799
2026-01-22 01:58:00.05	31.77	27.60	-44.9	-55.6	3.8	7.45e-01	0	41	104	0	61	12281
2026-01-22 01:58:03.07	32.04	28.19	-47.6	-58.6	3.8	7.42e-01	0	41	104	0	65	13828
2026-01-22 01:58:06.09	32.33	28.80	-44.3	-54.9	3.8	7.43e-01	0	41	104	0	60	12089
2026-01-22 01:58:09.11	32.63	29.42	-54.8	-71.9	3.8	7.47e-01	0	41	104	0	80	26810
2026-01-22 01:58:12.14	32.94	30.05	-44.1	-54.8	3.8	7.46e-01	0	41	104	0	60	11910
2026-01-22 01:58:15.17	33.27	30.71	-44.9	-55.7	3.8	7.45e-01	0	41	104	0	60	13154
2026-01-22 01:58:18.19	33.60	31.37	-48.4	-59.6	3.8	7.45e-01	0	40	104	0	68	13026
2026-01-22 01:58:21.21	33.95	32.05	-44.5	-55.3	3.9	7.41e-01	0	41	104	0	61	11910
2026-01-22 01:58:24.24	34.32	32.75	-44.4	-55.1	3.9	7.44e-01	0	40	104	0	60	12244
2026-01-22 01:58:27.26	34.70	33.46	-47.2	-58.2	3.9	7.44e-01	0	41	104	0	66	12516
2026-01-22 01:58:30.28	35.10	34.19	-45.0	-55.8	3.8	7.48e-01	0	41	104	0	61	12652
2026-01-22 01:58:33.31	35.52	34.94	-53.9	-68.3	3.9	7.40e-01	0	41	104	0	79	18854
2026-01-22 01:58:36.33	35.96	35.71	-45.6	-56.4	3.8	7.46e-01	0	41	104	0	62	12749
2026-01-22 01:58:39.36	36.42	36.49	-46.6	-57.5	3.8	7.43e-01	0	41	104	0	65	12159
2026-01-22 01:58:42.38	36.90	37.30	-47.8	-59.0	3.9	7.44e-01	0	41	104	0	67	12825
2026-01-22 01:58:45.40	37.41	38.12	-46.2	-57.0	3.8	7.44e-01	0	41	104	0	64	12153
2026-01-22 01:58:48.42	37.94	38.96	-47.3	-58.7	3.8	7.43e-01	0	41	104	0	65	13938
2026-01-22 01:58:51.45	38.50	39.82	-47.4	-58.1	3.8	7.44e-01	0	41	104	0	66	12333
2026-01-22 01:58:54.47	39.09	40.70	-46.0	-56.8	3.8	7.48e-01	0	41	104	0	63	12658
2026-01-22 01:58:57.50	39.72	41.60	-52.0	-64.6	3.9	7.45e-01	0	41	104	0	76	14634
2026-01-22 01:59:00.52	40.38	42.52	-44.7	-55.4	3.8	7.43e-01	0	41	104	0	61	12076
2026-01-22 01:59:03.55	41.08	43.46	-45.8	-56.6	3.8	7.43e-01	0	41	104	0	63	12358
2026-01-22 01:59:06.57	41.82	44.42	-44.2	-54.8	3.8	7.43e-01	0	41	104	0	60	11894
2026-01-22 01:59:09.59	42.61	45.40	-44.0	-54.7	3.8	7.45e-01	0	41	104	0	60	11777
2026-01-22 01:59:12.62	43.46	46.40	-50.1	-61.7	3.8	7.48e-01	0	41	104	0	70	14795
2026-01-22 01:59:15.64	44.35	47.42	-44.1	-45.2	26.4	6.03e-01	0	41	0	2097152	60	3946
2026-01-22 01:59:18.67	45.31	48.46	-43.9	-44.9	26.9	6.02e-01	0	41	0	7864320	59	4050
2026-01-22 01:59:21.69	46.34	49.51	-43.7	-44.7	27.0	6.01e-01	0	41	0	13107200	59	3951
2026-01-22 01:59:24.71	47.43	50.58	-43.6	-44.7	27.2	6.02e-01	0	40	0	18874368	58	4155
2026-01-22 01:59:27.73	48.61	51.66	-43.4	-44.5	27.3	6.03e-01	0	40	0	24641536	58	4074
2026-01-22 01:59:30.76	49.88	52.76	-43.3	-44.4	27.5	6.02e-01	0	41	0	30408704	58	4024
2026-01-22 01:59:33.78	51.25	53.87	-43.4	-44.5	27.4	6.03e-01	0	41	0	36175872	58	4057
2026-01-22 01:59:36.81	52.73	54.99	-43.7	-44.8	27.1	6.03e-01	0	41	0	41943040	58	4209
2026-01-22 01:59:39.83	54.33	56.11	-44.0	-45.1	26.8	6.03e-01	0	41	0	47185920	58	4362
2026-01-22 01:59:42.85	56.06	57.23	-44.5	-45.7	26.4	6.02e-01	0	41	0	52953088	59	4403
2026-01-22 01:59:45.87	57.94	58.35	-45.2	-46.4	25.9	6.00e-01	0	41	0	58720256	61	4251
2026-01-22 01:59:48.90	59.99	59.46	-46.4	-47.8	24.7	6.06e-01	0	40	0	64487424	63	4458
2026-01-22 01:59:51.92	62.22	60.56	-46.8	-48.2	24.1	6.03e-01	0	41	0	70254592	64	4416
2026-01-22 01:59:54.95	64.65	61.63	-46.8	-48.1	24.2	6.01e-01	0	40	0	75497472	64	4383
2026-01-22 01:59:57.97	67.29	62.68	-47.0	-48.4	24.0	6.03e-01	0	40	0	81264640	64	4517
2026-01-22 02:00:00.99	70.16	63.68	-47.1	-48.5	23.9	6.02e-01	0	41	0	87031808	64	4582
2026-01-22 02:00:04.01	73.29	64.63	-48.3	-49.9	22.5	6.01e-01	0	41	0	92798976	67	4544
2026-01-22 02:00:07.04	76.69	65.53	-48.4	-50.1	22.3	6.02e-01	0	40	0	98566144	67	4617
2026-01-22 02:00:10.06	80.36	66.35	-48.6	-50.3	22.1	6.04e-01	0	40	0	103809024	67	4725
2026-01-22 02:00:13.09	84.31	67.08	-48.8	-50.6	21.8	6.03e-01	0	40	0	109576192	68	4643
2026-01-22 02:00:16.11	88.52	67.72	-48.4	-50.0	22.4	6.00e-01	0	40	0	115343360	67	4582
2026-01-22 02:00:19.13	92.97	68.24	-48.5	-50.1	22.2	6.04e-01	0	40	0	121110528	67	4644
2026-01-22 02:00:22.16	97.64	68.64	-48.0	-49.5	22.7	6.02e-01	0	41	0	126877696	68	4091
2026-01-22 02:00:25.18	102.46	68.90	-47.5	-48.9	23.4	6.04e-01	0	41	0	132120576	67	4048
2026-01-22 02:00:28.21	107.40	69.03	-47.5	-49.0	23.4	6.02e-01	0	40	0	138412032	66	4301
2026-01-22 02:00:31.24	112.36	69.01	-47.6	-49.1	23.2	6.05e-01	0	41	0	143654912	66	4374
2026-01-22 02:00:34.26	117.26	68.85	-47.8	-49.3	23.1	6.01e-01	0	41	0	149422080	66	4464
2026-01-22 02:00:37.28	122.04	68.55	-47.6	-49.1	23.3	6.06e-01	0	41	0	155189248	66	4342
2026-01-22 02:00:40.31	126.67	68.11	-47.4	-48.8	23.6	6.04e-01	0	41	0	160956416	66	4239
2026-01-22 02:00:43.33	131.06	67.56	-47.1	-48.6	23.8	6.03e-01	0	41	0	166723584	65	4344
2026-01-22 02:00:46.36	135.22	66.90	-47.2	-48.6	23.7	6.02e-01	0	40	0	171966464	65	4383
2026-01-22 02:00:49.38	139.09	66.14	-47.2	-48.6	23.7	6.04e-01	0	41	0	177733632	65	4368
2026-01-22 02:00:52.41	142.70	65.29	-46.6	-48.0	24.3	6.05e-01	0	41	0	183500800	64	4329
2026-01-22 02:00:55.43	146.02	64.38	-45.8	-47.1	25.2	6.01e-01	0	40	0	189267968	63	4117
2026-01-22 02:00:58.45	149.08	63.41	-45.8	-47.1	25.2	6.01e-01	0	40	0	195035136	63	4113
2026-01-22 02:01:01.47	151.90	62.40	-46.1	-47.4	25.0	6.00e-01	0	40	0	200278016	63	4244
2026-01-22 02:01:04.50	154.49	61.34	-45.5	-46.8	25.6	6.01e-01	0	40	0	206045184	62	4201
2026-01-22 02:01:07.52	156.86	60.26	-45.1	-46.3	25.9	6.04e-01	0	41	0	211812352	62	3990
2026-01-22 02:01:10.55	159.05	59.16	-45.4	-46.6	25.5	6.03e-01	0	40	0	217579520	61	4349
2026-01-22 02:01:13.57	161.05	58.04	-45.4	-46.7	25.5	6.03e-01	0	41	0	223346688	61	4399
2026-01-22 02:01:16.59	162.89	56.92	-44.6	-45.8	26.4	6.04e-01	0	41	0	228589568	61	3968
2026-01-22 02:01:19.61	164.58	55.80	-44.3	-45.4	26.5	6.01e-01	0	40	0	234356736	59	4279
2026-01-22 02:01:22.64	166.15	54.67	-43.8	-44.8	27.0	6.02e-01	0	40	0	240123904	59	4001
2026-01-22 02:01:25.66	167.60	53.55	-43.8	-44.8	27.0	6.02e-01	0	41	0	245891072	59	3991
2026-01-22 02:01:28.69	168.95	52.44	-44.0	-45.1	26.8	6.02e-01	0	40	0	251658240	59	4121
2026-01-22 02:01:31.71	170.19	51.34	-44.1	-45.2	26.6	6.01e-01	0	41	0	257425408	59	4188
2026-01-22 02:01:34.73	171.35	50.26	-44.7	-45.8	26.1	6.03e-01	0	41	0	262668288	59	4483
2026-01-22 02:01:37.76	172.43	49.19	-44.5	-45.7	26.4	6.02e-01	0	40	0	268435456	60	4146
2026-01-22 02:01:40.78	173.44	48.14	-44.8	-45.9	26.1	6.03e-01	0	40	0	274202624	60	4281
2026-01-22 02:01:43.81	174.38	47.10	-44.6	-45.7	26.2	6.03e-01	0	41	0	279969792	60	4193
2026-01-22 02:01:46.83	175.26	46.08	-44.3	-45.4	26.5	6.02e-01	0	40	0	285736960	60	4051
2026-01-22 02:01:49.85	176.09	45.09	-44.6	-45.7	26.3	6.00e-01	0	41	0	290979840	60	4189
2026-01-22 02:01:52.87	176.86	44.11	-44.5	-45.6	26.4	6.00e-01	0	40	0	296747008	60	4135
2026-01-22 02:01:55.90	177.60	43.15	-44.5	-45.6	26.4	6.01e-01	0	40	0	302514176	60	4139
2026-01-22 02:01:58.92	178.28	42.22	-44.5	-45.6	26.3	6.04e-01	0	40	0	308281344	60	4139
2026-01-22 02:02:01.95	178.94	41.30	-44.8	-46.0	26.0	6.01e-01	0	40	0	314048512	60	4323
2026-01-22 02:02:04.97	179.55	40.40	-45.5	-46.7	25.4	6.04e-01	0	41	0	319291392	61	4422
2026-01-22 02:02:08.00	180.14	39.52	-45.2	-46.4	25.6	6.02e-01	0	41	0	325058560	61	4260
2026-01-22 02:02:11.02	180.69	38.66	-44.9	-46.0	26.0	6.03e-01	0	41	0	330825728	61	4090
2026-01-22 02:02:14.05	181.22	37.82	-44.9	-46.1	25.8	6.02e-01	0	41	0	336592896	61	4137
2026-01-22 02:02:17.07	181.72	37.01	-44.6	-45.8	26.2	6.01e-01	0	41	0	342360064	61	3966
2026-01-22 02:02:20.09	182.19	36.21	-44.3	-45.5	26.3	6.03e-01	0	40	0	347602944	60	4068
2026-01-22 02:02:23.12	182.64	35.43	-44.2	-45.4	26.6	6.03e-01	0	41	0	353370112	60	4012
2026-01-22 02:02:26.14	183.08	34.66	-43.8	-44.9	26.8	6.01e-01	0	41	0	359137280	59	4029
2026-01-22 02:02:29.17	183.49	33.92	-43.6	-44.7	27.0	6.03e-01	0	41	0	364904448	59	3948
2026-01-22 02:02:32.19	183.88	33.19	-43.2	-44.3	27.3	6.04e-01	0	40	0	370671616	58	3961
2026-01-22 02:02:35.21	184.26	32.48	-43.3	-44.3	27.3	6.03e-01	0	41	0	376438784	58	4003
2026-01-22 02:02:38.24	184.62	31.78	-43.0	-44.0	27.6	6.00e-01	0	41	0	381681664	58	3860
2026-01-22 02:02:41.26	184.97	31.10	-43.0	-44.1	27.5	6.04e-01	0	41	0	387448832	57	4117
2026-01-22 02:02:44.28	185.30	30.44	-43.2	-44.2	27.4	6.02e-01	0	41	0	393216000	57	4179
2026-01-22 02:02:47.31	185.62	29.79	-42.9	-43.9	27.5	6.02e-01	0	41	0	398983168	57	4051
2026-01-22 02:02:50.33	185.93	29.16	-43.1	-44.1	27.3	6.02e-01	0	41	0	404750336	57	4133
2026-01-22 02:02:53.36	186.23	28.54	-43.5	-44.6	26.9	6.02e-01	0	41	0	409993216	57	4391
2026-01-22 02:02:56.38	186.51	27.93	-43.7	-44.8	26.7	6.04e-01	0	41	0	415760384	58	4225
2026-01-22 02:02:59.40	186.78	27.34	-43.8	-44.9	26.7	6.01e-01	0	40	0	421527552	58	4247
2026-01-22 02:03:02.43	187.05	26.76	-43.8	-44.9	26.6	6.03e-01	0	41	0	427294720	58	4260
2026-01-22 02:03:05.45	187.30	26.19	-44.0	-45.1	26.4	6.03e-01	0	41	0	433061888	58	4388
2026-01-22 02:03:08.48	187.55	25.63	-44.2	-45.4	26.2	6.04e-01	0	40	0	438304768	59	4247
2026-01-22 02:03:11.50	187.79	25.09	-44.2	-45.4	26.2	6.02e-01	0	41	0	444596224	59	4247
2026-01-22 02:03:14.52	188.02	24.56	-44.1	-45.3	26.2	6.04e-01	0	41	0	449839104	59	4211
2026-01-22 02:03:17.55	188.24	24.04	-44.2	-45.3	26.2	6.00e-01	0	41	0	455606272	59	4234
2026-01-22 02:03:20.57	188.46	23.53	-44.3	-45.4	26.1	6.03e-01	0	41	0	461373440	59	4290
2026-01-22 02:03:23.60	188.67	23.03	-44.2	-45.4	26.2	6.02e-01	0	41	0	466616320	59	4258
2026-01-22 02:03:26.62	188.87	22.54	-44.3	-45.4	26.1	6.01e-01	0	41	0	472907776	59	4279
2026-01-22 02:03:29.65	189.07	22.06	-44.3	-45.4	26.1	6.03e-01	0	41	0	478150656	59	4287
2026-01-22 02:03:32.67	189.26	21.59	-44.1	-45.3	26.2	6.05e-01	0	40	0	483917824	59	4209
2026-01-22 02:03:35.69	189.44	21.13	-44.1	-45.2	26.2	6.03e-01	0	40	0	489684992	59	4191
2026-01-22 02:03:38.72	189.62	20.67	-44.1	-45.2	26.2	6.01e-01	0	41	0	495452160	59	4175
2026-01-22 02:03:41.74	189.80	20.23	-44.1	-45.2	26.2	6.03e-01	0	41	0	501219328	59	4184
2026-01-22 02:03:44.76	189.97	19.79	-43.9	-45.1	26.3	6.01e-01	0	41	0	506462208	59	4101
2026-01-22 02:03:47.79	190.13	19.36	-43.9	-45.0	26.4	6.02e-01	0	40	0	512229376	59	4073
2026-01-22 02:03:50.81	190.29	18.94	-43.7	-44.8	26.5	6.01e-01	0	41	0	517996544	59	3986
2026-01-22 02:03:53.84	190.45	18.53	-43.7	-44.8	26.6	6.02e-01	0	41	0	523763712	59	3978
2026-01-22 02:03:56.86	190.60	18.12	-43.7	-44.8	26.5	6.03e-01	0	41	0	529530880	59	3984
2026-01-22 02:03:59.89	190.75	17.72	-43.8	-44.9	26.4	6.02e-01	0	41	0	534773760	59	4047
2026-01-22 02:04:02.91	190.90	17.33	-43.9	-45.0	26.4	6.04e-01	0	41	0	540540928	59	4066
2026-01-22 02:04:05.93	191.04	16.95	-43.7	-44.8	25.4	6.04e-01	0	41	0	546308096	59	3969
2026-01-22 02:04:08.96	191.18	16.57	-43.6	-44.7	26.6	6.01e-01	0	41	0	552075264	59	3936
2026-01-22 02:04:11.98	191.31	16.20	-43.7	-44.8	26.5	6.02e-01	0	41	0	557842432	59	3982
2026-01-22 02:04:15.01	191.44	15.83	-43.6	-44.7	26.6	6.03e-01	0	41	0	563609600	59	3933
2026-01-22 02:04:18.03	191.57	15.47	-43.7	-44.8	26.5	6.02e-01	0	40	0	568852480	59	3983
2026-01-22 02:04:21.06	191.70	15.11	-43.7	-44.8	26.5	6.02e-01	0	41	0	574619648	59	3987
2026-01-22 02:04:24.08	191.82	14.77	-43.8	-45.0	26.4	6.01e-01	0	40	0	580386816	59	4053
2026-01-22 02:04:27.11	191.94	14.42	-43.9	-45.1	26.2	6.02e-01	0	41	0	586153984	59	4119
2026-01-22 02:04:30.13	192.05	14.08	-43.9	-45.1	26.2	6.02e-01	0	41	0	591921152	59	4099
2026-01-22 02:04:33.15	192.17	13.75	-43.9	-45.1	26.1	6.01e-01	0	41	0	597164032	59	4112
2026-01-22 02:04:36.17	192.28	13.42	-43.9	-45.1	26.1	6.00e-01	0	41	0	602931200	59	4112
2026-01-22 02:04:39.19	192.39	13.10	-44.0	-45.2	25.9	6.03e-01	0	41	0	608698368	59	4175
2026-01-22 02:04:42.22	192.50	12.78	-44.1	-45.3	25.8	6.01e-01	0	41	0	614465536	59	4197
2026-01-22 02:04:45.24	192.60	12.46	-44.1	-45.2	25.9	6.03e-01	0	41	0	620232704	59	4191
2026-01-22 02:04:48.27	192.71	12.15	-44.1	-45.3	25.8	6.06e-01	0	40	0	625475584	59	4195
2026-01-22 02:04:51.29	192.81	11.85	-44.2	-45.4	25.7	6.01e-01	0	40	0	631242752	59	4262
2026-01-22 02:04:54.32	192.91	11.54	-44.2	-45.3	25.7	6.01e-01	0	41	0	637009920	59	4239
2026-01-22 02:04:57.34	193.01	11.25	-44.4	-45.6	25.5	6.02e-01	0	41	0	642777088	59	4345
2026-01-22 02:05:00.36	193.10	10.95	-44.3	-45.5	25.6	6.02e-01	0	41	0	648544256	59	4318
2026-01-22 02:05:03.38	193.19	10.66	-44.4	-45.6	25.5	6.01e-01	0	40	0	653787136	59	4368
2026-01-22 02:05:06.41	193.29	10.38	-44.5	-45.7	25.4	6.02e-01	0	41	0	659554304	59	4405
2026-01-22 02:05:09.43	193.38	10.09	-44.4	-45.6	25.4	6.04e-01	0	41	0	665321472	59	4388
2026-01-22 02:05:12.45	193.47	9.81	-44.5	-45.7	25.3	6.01e-01	0	41	0	671088640	59	4433
2026-01-22 02:05:15.48	193.55	9.54	-44.6	-45.8	25.2	6.02e-01	0	41	0	676855808	59	4487
2026-01-22 02:05:18.50	193.64	9.27	-44.7	-45.9	25.2	6.02e-01	0	41	0	682622976	60	4276
2026-01-22 02:05:21.53	193.72	9.00	-44.7	-45.9	25.2	6.00e-01	0	40	0	687865856	60	4270
2026-01-22 02:05:24.55	193.81	8.73	-44.7	-46.0	25.0	6.00e-01	0	40	0	693633024	60	4324
2026-01-22 02:05:27.57	193.89	8.47	-44.7	-46.0	25.1	6.04e-01	0	40	0	699400192	60	4296
2026-01-22 02:05:30.59	193.97	8.21	-44.8	-46.1	24.9	6.01e-01	0	40	0	705167360	60	4371
2026-01-22 02:05:33.61	194.04	7.95	-44.9	-46.2	24.8	6.02e-01	0	41	0	710934528	60	4428
2026-01-22 02:05:36.63	194.12	7.70	-45.2	-46.5	24.5	6.03e-01	0	41	0	716177408	61	4340
2026-01-22 02:05:39.66	194.20	7.44	-45.0	-46.3	24.6	6.02e-01	0	41	0	721944576	61	4239
2026-01-22 02:05:42.68	194.27	7.20	-45.1	-46.4	24.6	6.00e-01	0	40	0	727711744	61	4267
2026-01-22 02:05:45.71	194.35	6.95	-45.3	-46.7	24.3	6.03e-01	0	41	0	733478912	61	4410
2026-01-22 02:05:48.73	194.42	6.71	-45.3	-46.6	24.3	6.04e-01	0	40	0	739246080	61	4391
2026-01-22 02:05:51.76	194.49	6.46	-45.5	-46.9	24.1	6.01e-01	0	41	0	744488960	61	4523
2026-01-22 02:05:54.79	194.56	6.22	-45.8	-47.2	23.8	6.04e-01	0	40	0	750256128	62	4419
2026-01-22 02:05:57.81	194.63	5.99	-45.6	-47.0	22.4	6.05e-01	0	41	0	756023296	62	4308
2026-01-22 02:06:00.83	194.70	5.76	-45.9	-47.4	23.5	6.03e-01	0	41	0	761790464	62	4515
2026-01-22 02:06:03.86	194.77	5.52	-45.8	-47.3	23.5	6.05e-01	0	41	0	767557632	62	4471
2026-01-22 02:06:06.88	194.83	5.29	-45.8	-47.3	23.5	6.03e-01	0	40	0	772800512	62	4486
2026-01-22 02:06:09.91	194.90	5.07	-45.9	-47.5	23.3	6.06e-01	0	40	0	779091968	62	4551
2026-01-22 02:06:12.93	194.96	4.84	-54.8	-72.6	3.8	7.45e-01	0	41	104	780140544	80	29255
2026-01-22 02:06:15.96	195.03	4.62	-55.2	-73.0	3.8	7.47e-01	0	41	104	780140544	81	28990
2026-01-22 02:06:18.98	195.09	4.40	-55.4	-73.2	3.8	7.47e-01	0	41	104	780140544	81	29680
2026-01-22 02:06:22.01	195.15	4.18	-55.6	-73.4	3.8	7.46e-01	0	41	104	780140544	81	30108
2026-01-22 02:06:25.04	195.21	3.96	-55.7	-73.5	3.8	7.47e-01	0	41	104	780140544	81	30537
2026-01-22 02:06:28.07	195.27	3.74	-55.8	-73.6	3.8	7.48e-01	0	41	104	780140544	82	29186
2026-01-22 02:06:31.10	195.33	3.53	-55.8	-73.6	3.8	7.42e-01	0	41	104	780140544	82	29283
2026-01-22 02:06:34.12	195.39	3.32	-55.7	-73.6	3.8	7.44e-01	0	41	104	780140544	82	29049
2026-01-22 02:06:37.15	195.45	3.11	-55.6	-73.4	3.8	7.46e-01	0	41	104	780140544	82	28508
2026-01-22 02:06:40.17	195.50	2.90	-55.2	-73.0	3.8	7.46e-01	0	41	104	780140544	82	27386
2026-01-22 02:06:43.20	195.56	2.70	-55.0	-72.8	3.8	7.43e-01	0	41	104	780140544	82	26733
2026-01-22 02:06:46.22	195.62	2.49	-55.0	-72.8	3.8	7.46e-01	0	41	104	780140544	82	26647
2026-01-22 02:06:49.24	195.67	2.29	-55.0	-72.8	3.8	7.45e-01	0	41	104	780140544	82	26665
2026-01-22 02:06:52.27	195.73	2.09	-55.0	-72.8	3.8	7.46e-01	0	41	104	780140544	82	26636

#Closed at: 2026-01-22 02:06:54
#Recorded file [780 MB]: D:/lorett/data/31041_260122_045403.dat