passes_logs/2026/01/22/R3.2S_Murmansk/R3.2S_Murmansk__20260122_022033_SUOMI_NPP_rec.log

#Pass ID: 20260122_022033_SUOMI NPP
#Satellite: SUOMI NPP
#Configuration: NPP
#almurnet v.1.7.20251203
#Start time: 2026-01-22 02:20:35

#Version: 2.2.20231116
#Station: R3.2S_Murmansk
#Location: 33.079688 lon 68.888172 lat
#TLE: 1 37849U 11061A   26021.51818991  .00000201  00000+0  11636-3 0  9995
#TLE: 2 37849  98.7819 323.5108 0002300  52.3548 307.7836 14.19527793737637

#Time	Az	El	Level	Level2	SNR	BER	BlckErr	Temp	State	Recorded	gain1	gain2
2026-01-22 02:20:35.13	32.35	2.10	-54.3	-69.3	3.8	1.49e+00	0	39	0	0	79	21205
2026-01-22 02:20:39.17	32.21	2.35	-54.1	-69.1	3.8	1.49e+00	0	39	104	0	79	20599
2026-01-22 02:20:43.21	32.07	2.61	-53.8	-68.8	3.8	1.49e+00	0	39	104	0	79	19905
2026-01-22 02:20:47.24	31.93	2.86	-52.9	-67.8	3.8	1.49e+00	0	39	104	0	77	19909
2026-01-22 02:20:51.28	31.79	3.12	-52.4	-67.4	3.8	1.49e+00	0	39	104	0	76	20258
2026-01-22 02:20:55.31	31.64	3.38	-52.4	-67.1	3.8	1.49e+00	0	39	104	0	76	19514
2026-01-22 02:20:59.35	31.49	3.64	-52.3	-66.1	3.8	1.49e+00	0	39	104	0	76	17311
2026-01-22 02:21:03.38	31.33	3.91	-52.4	-66.9	3.8	1.49e+00	0	40	104	0	76	19144
2026-01-22 02:21:07.41	31.18	4.17	-51.5	-58.6	7.4	1.98e-01	0	40	0	3145728	75	7781
2026-01-22 02:21:11.45	31.01	4.44	-48.6	-51.5	14.8	3.00e-06	0	40	0	10485760	69	4822
2026-01-22 02:21:15.48	30.85	4.71	-47.1	-49.1	17.1	0.00e+00	0	39	0	17825792	66	4380
2026-01-22 02:21:19.51	30.68	4.99	-47.4	-49.6	16.6	0.00e+00	0	40	0	25165824	65	4901
2026-01-22 02:21:23.54	30.51	5.27	-48.3	-50.9	15.4	6.08e-02	0	40	0	33554432	68	4777
2026-01-22 02:21:27.57	30.34	5.55	-46.4	-48.2	17.9	0.00e+00	0	40	0	40894464	64	4439
2026-01-22 02:21:31.60	30.16	5.83	-46.5	-48.4	17.8	0.00e+00	0	40	0	48234496	64	4522
2026-01-22 02:21:35.64	29.98	6.11	-46.7	-48.7	17.6	0.00e+00	0	40	0	55574528	64	4673
2026-01-22 02:21:39.67	29.79	6.40	-46.5	-48.4	18.0	0.00e+00	0	40	0	62914560	64	4509
2026-01-22 02:21:43.70	29.60	6.69	-46.7	-48.7	17.7	0.00e+00	0	40	0	71303168	64	4654
2026-01-22 02:21:47.73	29.41	6.99	-46.5	-48.3	18.1	0.00e+00	0	40	0	78643200	64	4463
2026-01-22 02:21:51.77	29.21	7.28	-46.8	-48.7	17.7	0.00e+00	0	40	0	85983232	64	4656
2026-01-22 02:21:55.80	29.01	7.58	-46.5	-48.2	18.2	0.00e+00	0	40	0	93323264	64	4441
2026-01-22 02:21:59.83	28.80	7.89	-46.5	-48.3	18.1	0.00e+00	0	40	0	100663296	64	4483
2026-01-22 02:22:03.86	28.59	8.19	-46.5	-48.3	18.2	0.00e+00	0	40	0	109051904	64	4479
2026-01-22 02:22:07.89	28.37	8.50	-46.5	-48.3	18.3	0.00e+00	0	40	0	116391936	64	4474
2026-01-22 02:22:11.92	28.15	8.82	-46.2	-47.9	18.6	0.00e+00	0	40	0	123731968	64	4270
2026-01-22 02:22:15.95	27.92	9.13	-46.3	-47.9	18.7	0.00e+00	0	40	0	131072000	63	4542
2026-01-22 02:22:19.98	27.69	9.45	-46.1	-47.7	18.9	0.00e+00	0	40	0	138412032	63	4440
2026-01-22 02:22:24.01	27.45	9.78	-46.1	-47.7	19.0	0.00e+00	0	40	0	146800640	63	4421
2026-01-22 02:22:28.05	27.21	10.11	-45.9	-47.5	19.2	0.00e+00	0	40	0	154140672	63	4320
2026-01-22 02:22:32.08	26.96	10.44	-45.8	-47.3	19.4	0.00e+00	0	40	0	161480704	63	4234
2026-01-22 02:22:36.11	26.71	10.77	-45.9	-47.5	19.3	0.00e+00	0	40	0	168820736	63	4292
2026-01-22 02:22:40.14	26.44	11.11	-46.3	-47.9	18.8	0.00e+00	0	40	0	177209344	63	4533
2026-01-22 02:22:44.17	26.18	11.46	-46.1	-47.7	19.0	0.00e+00	0	40	0	184549376	63	4432
2026-01-22 02:22:48.20	25.90	11.80	-46.1	-47.7	19.1	0.00e+00	0	40	0	191889408	63	4405
2026-01-22 02:22:52.24	25.62	12.16	-46.1	-47.7	19.1	0.00e+00	0	40	0	199229440	63	4405
2026-01-22 02:22:56.27	25.33	12.51	-45.8	-47.4	19.4	0.00e+00	0	40	0	206569472	63	4250
2026-01-22 02:23:00.30	25.03	12.87	-45.8	-47.3	19.5	0.00e+00	0	40	0	214958080	63	4201
2026-01-22 02:23:04.33	24.73	13.24	-45.8	-47.3	19.5	0.00e+00	0	40	0	222298112	63	4205
2026-01-22 02:23:08.37	24.41	13.61	-45.6	-47.1	19.7	0.00e+00	0	40	0	229638144	63	4108
2026-01-22 02:23:12.39	24.09	13.98	-45.6	-47.0	19.9	0.00e+00	0	40	0	236978176	62	4332
2026-01-22 02:23:16.43	23.76	14.37	-45.7	-47.1	19.7	0.00e+00	0	40	0	244318208	62	4368
2026-01-22 02:23:20.46	23.42	14.75	-45.5	-47.0	19.9	0.00e+00	0	40	0	252706816	62	4293
2026-01-22 02:23:24.49	23.08	15.14	-45.5	-47.0	19.9	0.00e+00	0	40	0	260046848	62	4305
2026-01-22 02:23:28.53	22.72	15.54	-45.8	-47.3	19.6	0.00e+00	0	40	0	267386880	62	4455
2026-01-22 02:23:32.56	22.35	15.94	-45.5	-47.0	19.8	0.00e+00	0	40	0	274726912	62	4313
2026-01-22 02:23:36.59	21.97	16.34	-45.4	-46.8	20.0	0.00e+00	0	40	0	282066944	62	4219
2026-01-22 02:23:40.63	21.58	16.76	-45.9	-47.5	19.5	0.00e+00	0	40	0	290455552	62	4553
2026-01-22 02:23:44.66	21.18	17.17	-45.8	-47.2	19.7	0.00e+00	0	40	0	297795584	62	4440
2026-01-22 02:23:48.69	20.77	17.60	-45.7	-47.1	19.8	0.00e+00	0	40	0	305135616	62	4371
2026-01-22 02:23:52.72	20.34	18.02	-45.7	-47.1	19.9	0.00e+00	0	41	0	312475648	62	4362
2026-01-22 02:23:56.75	19.91	18.46	-45.8	-47.2	19.8	0.00e+00	0	40	0	320864256	62	4431
2026-01-22 02:24:00.78	19.46	18.90	-45.8	-47.2	19.8	0.00e+00	0	40	0	328204288	62	4420
2026-01-22 02:24:04.81	18.99	19.35	-45.9	-47.4	19.8	0.00e+00	0	41	0	335544320	62	4502
2026-01-22 02:24:08.84	18.52	19.80	-45.8	-47.1	20.0	0.00e+00	0	40	0	342884352	62	4389
2026-01-22 02:24:12.87	18.02	20.26	-45.9	-47.3	19.8	0.00e+00	0	40	0	350224384	63	4221
2026-01-22 02:24:16.91	17.51	20.72	-45.3	-46.5	20.5	0.00e+00	0	40	0	357564416	62	4097
2026-01-22 02:24:20.94	16.99	21.19	-45.7	-47.1	20.0	0.00e+00	0	41	0	365953024	62	4389
2026-01-22 02:24:24.97	16.45	21.67	-46.1	-47.6	19.5	0.00e+00	0	40	0	373293056	62	4648
2026-01-22 02:24:29.01	15.89	22.15	-46.3	-47.8	19.4	0.00e+00	0	41	0	380633088	63	4472
2026-01-22 02:24:33.04	15.31	22.64	-46.2	-47.8	19.4	0.00e+00	0	41	0	387973120	63	4464
2026-01-22 02:24:37.07	14.71	23.14	-46.3	-47.9	19.3	0.00e+00	0	40	0	396361728	63	4499
2026-01-22 02:24:41.10	14.10	23.64	-46.3	-47.9	19.2	0.00e+00	0	41	0	403701760	63	4539
2026-01-22 02:24:45.13	13.46	24.15	-46.1	-47.7	19.4	0.00e+00	0	41	0	411041792	63	4412
2026-01-22 02:24:49.17	12.80	24.66	-46.2	-47.7	19.4	0.00e+00	0	41	0	418381824	63	4433
2026-01-22 02:24:53.20	12.12	25.18	-45.8	-47.2	19.9	0.00e+00	0	40	0	425721856	63	4173
2026-01-22 02:24:57.23	11.42	25.71	-46.2	-47.7	19.5	0.00e+00	0	40	0	434110464	63	4428
2026-01-22 02:25:01.26	10.69	26.24	-46.4	-48.0	19.3	0.00e+00	0	40	0	441450496	63	4554
2026-01-22 02:25:05.30	9.94	26.77	-46.2	-47.8	19.4	0.00e+00	0	40	0	448790528	63	4475
2026-01-22 02:25:09.33	9.16	27.32	-46.8	-48.6	18.6	0.00e+00	0	41	0	456130560	64	4635
2026-01-22 02:25:13.36	8.35	27.86	-46.3	-47.9	19.3	0.00e+00	0	41	0	464519168	64	4257
2026-01-22 02:25:17.39	7.52	28.41	-46.9	-48.6	18.6	0.00e+00	0	41	0	471859200	64	4651
2026-01-22 02:25:21.43	6.65	28.96	-47.4	-49.2	18.0	0.00e+00	0	41	0	479199232	65	4690
2026-01-22 02:25:25.46	5.75	29.52	-47.7	-49.7	17.6	0.00e+00	0	40	0	486539264	66	4695
2026-01-22 02:25:29.49	4.82	30.08	-48.6	-51.1	16.4	0.00e+00	0	41	0	493879296	68	4875
2026-01-22 02:25:33.52	3.86	30.64	-47.8	-49.8	17.6	0.00e+00	0	40	0	501219328	67	4485
2026-01-22 02:25:37.55	2.87	31.21	-49.3	-52.0	15.6	0.00e+00	0	40	0	509607936	69	5127
2026-01-22 02:25:41.59	1.83	31.77	-47.8	-49.7	17.8	0.00e+00	0	40	0	516947968	67	4406
2026-01-22 02:25:45.62	0.76	32.34	-49.6	-52.4	15.2	0.00e+00	0	41	0	524288000	69	5368
2026-01-22 02:25:49.65	359.66	32.90	-47.6	-49.4	18.0	0.00e+00	0	41	0	531628032	66	4520
2026-01-22 02:25:53.68	358.51	33.46	-47.4	-49.1	18.3	0.00e+00	0	40	0	540016640	66	4380
2026-01-22 02:25:57.72	357.32	34.02	-47.4	-49.3	18.2	0.00e+00	0	40	0	547356672	66	4450
2026-01-22 02:26:01.75	356.09	34.57	-47.5	-49.4	18.0	0.00e+00	0	41	0	554696704	65	4806
2026-01-22 02:26:05.78	354.82	35.12	-47.3	-49.1	18.5	0.00e+00	0	41	0	562036736	66	4349
2026-01-22 02:26:09.82	353.51	35.66	-48.2	-50.4	17.2	0.00e+00	0	41	0	569376768	67	4787
2026-01-22 02:26:13.85	352.15	36.19	-47.7	-49.6	17.7	0.00e+00	0	41	0	577765376	66	4648
2026-01-22 02:26:17.88	350.74	36.71	-48.9	-51.6	15.9	0.00e+00	0	41	0	585105408	68	5217
2026-01-22 02:26:21.91	349.30	37.21	-48.3	-50.7	16.8	0.00e+00	0	41	0	592445440	67	4958
2026-01-22 02:26:25.94	347.80	37.71	-46.2	-47.7	19.6	0.00e+00	0	41	0	599785472	64	4174
2026-01-22 02:26:29.97	346.26	38.18	-47.7	-49.7	17.8	0.00e+00	0	41	0	607125504	67	4419
2026-01-22 02:26:34.01	344.67	38.64	-46.0	-47.5	19.9	0.00e+00	0	41	0	615514112	63	4320
2026-01-22 02:26:38.04	343.04	39.08	-46.6	-48.3	19.0	0.00e+00	0	41	0	622854144	65	4203
2026-01-22 02:26:42.08	341.36	39.50	-45.3	-46.7	20.5	0.00e+00	0	41	0	630194176	62	4146
2026-01-22 02:26:46.11	339.65	39.90	-45.6	-47.1	20.1	0.00e+00	0	41	0	637534208	62	4375
2026-01-22 02:26:50.14	337.89	40.27	-45.9	-47.5	19.6	0.00e+00	0	41	0	645922816	62	4575
2026-01-22 02:26:54.17	336.09	40.61	-44.3	-45.5	21.7	0.00e+00	0	41	0	653262848	59	4324
2026-01-22 02:26:58.21	334.25	40.92	-44.2	-45.3	21.7	0.00e+00	0	41	0	660602880	60	4003
2026-01-22 02:27:02.23	332.39	41.20	-45.7	-47.1	20.3	0.00e+00	0	41	0	667942912	62	4385
2026-01-22 02:27:06.27	330.49	41.44	-46.0	-47.6	20.0	0.00e+00	0	41	0	675282944	62	4600
2026-01-22 02:27:10.30	328.56	41.65	-46.4	-48.0	19.6	0.00e+00	0	41	0	683671552	63	4549
2026-01-22 02:27:14.33	326.61	41.83	-46.5	-48.2	19.2	0.00e+00	0	41	0	691011584	63	4655
2026-01-22 02:27:18.36	324.64	41.97	-46.0	-47.4	20.1	0.00e+00	0	41	0	698351616	63	4260
2026-01-22 02:27:22.39	322.66	42.06	-46.2	-47.7	19.9	0.00e+00	0	41	0	705691648	63	4398
2026-01-22 02:27:26.43	320.66	42.13	-46.5	-48.1	19.6	0.00e+00	0	41	0	713031680	63	4611
2026-01-22 02:27:30.46	318.66	42.15	-47.8	-49.9	17.8	0.00e+00	0	41	0	721420288	66	4780
2026-01-22 02:27:34.50	316.66	42.13	-47.3	-49.2	18.3	0.00e+00	0	41	0	728760320	66	4439
2026-01-22 02:27:38.53	314.67	42.07	-46.7	-48.4	19.1	0.00e+00	0	40	0	736100352	64	4517
2026-01-22 02:27:42.56	312.68	41.97	-49.0	-51.8	15.6	0.00e+00	0	40	0	743440384	69	4990
2026-01-22 02:27:46.59	310.71	41.84	-48.0	-50.1	17.3	0.00e+00	0	41	0	750780416	67	4649
2026-01-22 02:27:50.62	308.76	41.67	-48.9	-51.6	15.8	0.00e+00	0	41	0	759169024	69	4904
2026-01-22 02:27:54.65	306.83	41.46	-48.8	-51.4	16.3	0.00e+00	0	40	0	766509056	68	5079
2026-01-22 02:27:58.68	304.93	41.22	-48.6	-51.2	16.1	0.00e+00	0	41	0	773849088	69	4680
2026-01-22 02:28:02.72	303.05	40.94	-48.5	-51.2	16.3	0.00e+00	0	41	0	781189120	68	4958
2026-01-22 02:28:06.75	301.21	40.63	-46.8	-48.6	18.8	0.00e+00	0	41	0	789577728	65	4344
2026-01-22 02:28:10.78	299.41	40.29	-45.0	-46.3	20.9	0.00e+00	0	41	0	796917760	61	4233
2026-01-22 02:28:14.81	297.65	39.93	-45.0	-46.3	21.0	0.00e+00	0	41	0	804257792	61	4198
2026-01-22 02:28:18.84	295.93	39.53	-44.1	-45.3	21.8	0.00e+00	0	41	0	811597824	60	3987
2026-01-22 02:28:22.87	294.25	39.12	-44.2	-45.4	22.0	0.00e+00	0	41	0	818937856	59	4261
2026-01-22 02:28:26.90	292.61	38.68	-43.9	-45.0	22.3	0.00e+00	0	41	0	827326464	59	4091
2026-01-22 02:28:30.93	291.02	38.22	-45.1	-46.4	20.9	0.00e+00	0	41	0	834666496	60	4521
2026-01-22 02:28:34.96	289.47	37.74	-44.5	-45.7	21.5	0.00e+00	0	41	0	842006528	60	4189
2026-01-22 02:28:39.00	287.97	37.25	-45.2	-46.5	20.8	0.00e+00	0	41	0	849346560	61	4312
2026-01-22 02:28:43.03	286.52	36.74	-44.2	-45.3	22.2	0.00e+00	0	41	0	856686592	59	4211
2026-01-22 02:28:47.06	285.11	36.22	-46.2	-47.7	19.9	0.00e+00	0	41	0	865075200	62	4692
2026-01-22 02:28:51.09	283.74	35.69	-45.2	-46.4	21.1	0.00e+00	0	40	0	872415232	62	4047
2026-01-22 02:28:55.13	282.42	35.15	-45.8	-47.1	20.4	0.00e+00	0	41	0	879755264	62	4361
2026-01-22 02:28:59.16	281.14	34.61	-46.5	-48.0	19.5	0.00e+00	0	41	0	887095296	64	4320
2026-01-22 02:29:03.19	279.91	34.05	-47.1	-48.8	18.8	0.00e+00	0	41	0	894435328	65	4451
2026-01-22 02:29:07.23	278.71	33.49	-46.1	-47.5	19.9	0.00e+00	0	41	0	902823936	64	4087
2026-01-22 02:29:11.26	277.56	32.93	-47.2	-49.0	18.6	0.00e+00	0	41	0	910163968	65	4567
2026-01-22 02:29:15.29	276.45	32.37	-46.3	-47.8	19.7	0.00e+00	0	41	0	917504000	64	4199
2026-01-22 02:29:19.33	275.37	31.80	-47.8	-49.8	17.8	0.00e+00	0	41	0	924844032	66	4718
2026-01-22 02:29:23.36	274.34	31.24	-49.5	-52.3	15.3	1.50e-06	0	41	0	933232640	70	5009
2026-01-22 02:29:27.39	273.34	30.67	-47.7	-49.7	17.9	0.00e+00	0	41	0	940572672	66	4654
2026-01-22 02:29:31.42	272.37	30.11	-47.3	-49.0	18.4	0.00e+00	0	41	0	947912704	66	4333
2026-01-22 02:29:35.45	271.44	29.55	-47.5	-49.3	18.3	0.00e+00	0	41	0	955252736	65	4750
2026-01-22 02:29:39.49	270.54	28.99	-47.5	-49.4	18.1	0.00e+00	0	41	0	962592768	66	4508
2026-01-22 02:29:43.52	269.67	28.43	-47.3	-49.0	18.4	0.00e+00	0	41	0	969932800	66	4338
2026-01-22 02:29:47.55	268.83	27.88	-46.1	-47.5	19.8	0.00e+00	0	41	0	978321408	64	4090
2026-01-22 02:29:51.58	268.01	27.34	-45.3	-46.5	20.6	0.00e+00	0	41	0	985661440	62	4077
2026-01-22 02:29:55.61	267.23	26.79	-45.5	-46.7	20.6	0.00e+00	0	41	0	993001472	62	4190
2026-01-22 02:29:59.64	266.47	26.26	-46.8	-48.5	18.9	0.00e+00	0	41	0	1000341504	64	4578
2026-01-22 02:30:03.67	265.74	25.72	-47.4	-49.3	18.0	0.00e+00	0	41	0	1008730112	65	4752
2026-01-22 02:30:07.70	265.04	25.20	-47.2	-49.0	18.3	0.00e+00	0	41	0	1016070144	65	4595
2026-01-22 02:30:11.74	264.35	24.68	-46.5	-48.1	19.2	0.00e+00	0	40	0	1023410176	64	4358
2026-01-22 02:30:15.77	263.69	24.16	-46.1	-47.5	19.8	0.00e+00	0	41	0	1030750208	64	4081
2026-01-22 02:30:19.80	263.05	23.65	-46.5	-48.0	19.3	0.00e+00	0	41	0	1038090240	64	4321
2026-01-22 02:30:23.83	262.43	23.15	-45.8	-47.2	20.1	0.00e+00	0	41	0	1046478848	63	4165
2026-01-22 02:30:27.87	261.83	22.65	-46.0	-47.5	19.9	0.00e+00	0	41	0	1053818880	62	4549
2026-01-22 02:30:31.90	261.25	22.16	-48.2	-50.5	16.9	0.00e+00	0	41	0	1061158912	67	4823
2026-01-22 02:30:35.93	260.69	21.67	-47.7	-49.6	17.7	0.00e+00	0	41	0	1068498944	67	4373
2026-01-22 02:30:39.96	260.14	21.20	-47.0	-48.8	18.4	0.00e+00	0	41	0	1076887552	65	4457
2026-01-22 02:30:43.99	259.61	20.72	-46.9	-48.6	18.6	0.00e+00	0	41	0	1084227584	65	4359
2026-01-22 02:30:48.03	259.10	20.26	-46.7	-48.3	18.9	0.00e+00	0	41	0	1091567616	65	4212
2026-01-22 02:30:52.06	258.61	19.80	-46.0	-47.4	19.7	0.00e+00	0	41	0	1098907648	63	4290
2026-01-22 02:30:56.09	258.13	19.34	-45.5	-46.8	20.3	0.00e+00	0	41	0	1106247680	62	4215
2026-01-22 02:31:00.12	257.66	18.90	-46.1	-47.6	19.6	0.00e+00	0	40	0	1113587712	62	4610
2026-01-22 02:31:04.15	257.21	18.45	-46.7	-48.4	18.7	0.00e+00	0	41	0	1121976320	64	4524
2026-01-22 02:31:08.19	256.76	18.02	-46.3	-47.8	19.2	0.00e+00	0	41	0	1129316352	64	4236
2026-01-22 02:31:12.22	256.34	17.59	-46.1	-47.6	19.5	0.00e+00	0	40	0	1136656384	63	4361
2026-01-22 02:31:16.25	255.92	17.16	-46.3	-47.9	19.3	0.00e+00	0	41	0	1143996416	63	4505
2026-01-22 02:31:20.28	255.52	16.75	-46.6	-48.2	18.9	0.00e+00	0	41	0	1152385024	64	4431
2026-01-22 02:31:24.31	255.13	16.33	-47.1	-48.9	18.2	0.00e+00	0	41	0	1159725056	64	4770
2026-01-22 02:31:28.34	254.75	15.93	-47.1	-48.9	18.2	0.00e+00	0	40	0	1167065088	65	4505
2026-01-22 02:31:32.37	254.38	15.52	-46.3	-47.8	19.2	0.00e+00	0	40	0	1174405120	64	4223
2026-01-22 02:31:36.41	254.02	15.13	-45.6	-47.0	19.9	0.00e+00	0	41	0	1181745152	63	4093
2026-01-22 02:31:40.44	253.67	14.74	-45.6	-47.0	20.0	0.00e+00	0	40	0	1190133760	62	4318
2026-01-22 02:31:44.47	253.32	14.35	-46.1	-47.6	19.4	0.00e+00	0	41	0	1197473792	62	4617
2026-01-22 02:31:48.50	252.99	13.97	-46.2	-47.8	19.3	0.00e+00	0	41	0	1204813824	63	4444
2026-01-22 02:31:52.54	252.67	13.59	-46.2	-47.7	19.3	0.00e+00	0	41	0	1212153856	63	4432
2026-01-22 02:31:56.57	252.35	13.22	-46.5	-48.0	19.0	0.00e+00	0	41	0	1219493888	63	4593
2026-01-22 02:32:00.60	252.04	12.85	-46.7	-48.4	18.6	0.00e+00	0	40	0	1227882496	64	4497
2026-01-22 02:32:04.63	251.75	12.49	-47.1	-48.9	18.1	0.00e+00	0	41	0	1235222528	64	4778
2026-01-22 02:32:08.66	251.45	12.13	-47.1	-48.9	18.0	0.00e+00	0	41	0	1242562560	64	4794
2026-01-22 02:32:12.69	251.17	11.78	-47.0	-48.8	18.1	0.00e+00	0	41	0	1249902592	64	4736
2026-01-22 02:32:16.73	250.89	11.43	-47.5	-49.5	17.3	0.00e+00	0	41	0	1257242624	65	4866
2026-01-22 02:32:20.75	250.62	11.09	-47.8	-50.0	16.9	0.00e+00	0	41	0	1265631232	66	4844
2026-01-22 02:32:24.79	250.36	10.75	-47.9	-50.1	16.8	0.00e+00	0	41	0	1272971264	66	4905
2026-01-22 02:32:28.82	250.10	10.41	-47.7	-49.8	16.9	0.00e+00	0	41	0	1280311296	66	4741
2026-01-22 02:32:32.85	249.85	10.08	-47.6	-49.6	17.2	0.00e+00	0	41	0	1287651328	66	4649
2026-01-22 02:32:36.88	249.60	9.75	-47.0	-48.9	17.8	0.00e+00	0	41	0	1296039936	66	4254
2026-01-22 02:32:40.91	249.36	9.43	-46.9	-48.7	18.0	0.00e+00	0	41	0	1303379968	65	4433
2026-01-22 02:32:44.94	249.13	9.10	-47.0	-48.8	17.8	0.00e+00	0	41	0	1310720000	65	4491
2026-01-22 02:32:48.97	248.90	8.79	-47.2	-49.2	17.5	0.00e+00	0	41	0	1318060032	65	4667
2026-01-22 02:32:53.00	248.67	8.47	-47.1	-49.0	17.7	0.00e+00	0	41	0	1325400064	65	4563
2026-01-22 02:32:57.03	248.45	8.16	-47.6	-49.7	16.9	0.00e+00	0	41	0	1333788672	65	4942
2026-01-22 02:33:01.06	248.24	7.86	-47.6	-49.8	16.8	0.00e+00	0	41	0	1341128704	66	4730
2026-01-22 02:33:05.10	248.03	7.55	-47.9	-50.1	16.5	0.00e+00	0	41	0	1348468736	66	4906
2026-01-22 02:33:09.13	247.82	7.25	-48.3	-50.9	15.7	0.00e+00	0	41	0	1355808768	67	5052
2026-01-22 02:33:13.16	247.62	6.95	-48.6	-51.3	15.3	0.00e+00	0	41	0	1363148800	67	5288
2026-01-22 02:33:17.19	247.43	6.66	-48.8	-51.7	14.9	0.00e+00	0	41	0	1371537408	68	5238
2026-01-22 02:33:21.22	247.23	6.37	-48.9	-51.7	14.8	7.00e-07	0	41	0	1378877440	68	5277
2026-01-22 02:33:25.26	247.05	6.08	-48.6	-51.4	15.1	0.00e+00	0	41	0	1386217472	68	5059
2026-01-22 02:33:29.29	246.86	5.79	-48.4	-51.0	15.4	0.00e+00	0	41	0	1393557504	68	4827
2026-01-22 02:33:33.32	246.68	5.51	-48.3	-51.0	15.4	0.00e+00	0	41	0	1400897536	68	4823
2026-01-22 02:33:37.35	246.50	5.23	-48.3	-51.0	15.3	0.00e+00	0	41	0	1409286144	68	4827
2026-01-22 02:33:41.38	246.33	4.95	-51.7	-66.7	3.8	1.49e+00	0	41	104	1415577600	75	19841
2026-01-22 02:33:45.42	246.16	4.68	-50.0	-65.0	3.8	1.49e+00	0	41	104	1415577600	71	20411
2026-01-22 02:33:49.45	245.99	4.40	-50.0	-64.9	3.8	1.49e+00	0	41	104	1415577600	71	20284
2026-01-22 02:33:53.48	245.83	4.13	-50.0	-64.9	3.8	1.49e+00	0	41	104	1415577600	71	20274
2026-01-22 02:33:57.51	245.67	3.87	-50.0	-65.0	3.8	1.49e+00	0	41	104	1415577600	71	20368
2026-01-22 02:34:01.55	245.52	3.60	-50.0	-64.9	3.8	1.49e+00	0	41	104	1415577600	71	20293
2026-01-22 02:34:05.58	245.36	3.34	-50.0	-65.0	3.8	1.49e+00	0	41	104	1415577600	71	20308
2026-01-22 02:34:09.62	245.21	3.08	-50.0	-64.9	3.8	1.49e+00	0	41	104	1415577600	71	20282
2026-01-22 02:34:13.65	245.06	2.82	-50.0	-65.0	3.8	1.49e+00	0	41	104	1415577600	71	20310
2026-01-22 02:34:17.69	244.92	2.56	-50.0	-64.9	3.8	1.49e+00	0	41	104	1415577600	71	20281
2026-01-22 02:34:21.72	244.77	2.31	-50.0	-65.0	3.8	1.49e+00	0	41	104	1415577600	71	20365
2026-01-22 02:34:25.75	244.64	2.06	-50.0	-64.9	3.8	1.49e+00	0	41	104	1415577600	71	20266

#Closed at: 2026-01-22 02:34:28
#Recorded file [1415 MB]: D:/lorett/data/31041_260122_052034.dat