passes_logs/2026/01/22/R3.2S_Murmansk/R3.2S_Murmansk__20260122_124149_NOAA_20_JPSS-1_rec.log

#Pass ID: 20260122_124149_NOAA 20 (JPSS-1)
#Satellite: NOAA 20 (JPSS-1)
#Configuration: NOAA 20
#almurnet v.1.7.20251203
#Start time: 2026-01-22 12:50:22

#Version: 2.2.20231116
#Station: R3.2S_Murmansk
#Location: 33.079688 lon 68.888172 lat
#TLE: 1 43013U 17073A   26021.46221703  .00000173  00000+0  10299-3 0  9999
#TLE: 2 43013  98.7644 322.3335 0001238  29.7597 330.3649 14.19538314423652

#Time	Az	El	Level	Level2	SNR	BER	BlckErr	Temp	State	Recorded	gain1	gain2
2026-01-22 12:50:22.02	319.45	10.62	
2026-01-22 12:50:23.03	319.61	10.58	-53.0	-68.0	3.8	1.49e+00	0	38	0	0	76	21723
2026-01-22 12:50:24.04	319.77	10.53	-53.0	-68.0	3.8	1.49e+00	0	38	0	0	76	21723
2026-01-22 12:50:25.04	319.93	10.49	-53.0	-68.0	3.8	1.49e+00	0	38	0	0	76	21723
2026-01-22 12:50:26.05	320.09	10.45	-53.0	-68.0	3.8	1.49e+00	0	38	0	0	76	21723
2026-01-22 12:50:27.06	320.25	10.40	-53.0	-68.0	3.8	1.49e+00	0	38	0	0	76	21723
2026-01-22 12:50:28.07	320.41	10.36	-53.0	-68.0	3.8	1.49e+00	0	38	0	0	76	21723
2026-01-22 12:50:29.08	320.57	10.31	-53.0	-68.0	3.8	1.49e+00	0	38	0	0	76	21723
2026-01-22 12:50:30.08	320.72	10.27	-53.0	-68.0	3.8	1.49e+00	0	38	0	0	76	21723
2026-01-22 12:50:31.11	320.88	10.22	-53.0	-68.0	3.8	1.49e+00	0	38	0	0	76	21723
2026-01-22 12:50:32.12	321.04	10.18	-53.0	-68.0	3.8	1.49e+00	0	38	0	0	76	21723
2026-01-22 12:50:33.12	321.19	10.13	-53.0	-68.0	3.8	1.49e+00	0	38	0	0	76	21723
2026-01-22 12:50:34.13	321.35	10.09	-53.0	-68.0	3.8	1.49e+00	0	37	0	0	76	21723
2026-01-22 12:50:35.14	321.51	10.04	-53.0	-68.0	3.8	1.49e+00	0	37	0	0	76	21723
2026-01-22 12:50:36.15	321.66	10.00	-53.0	-68.0	3.8	1.49e+00	0	38	0	0	76	21723
2026-01-22 12:50:37.16	321.81	9.95	-53.0	-68.0	3.8	1.49e+00	0	37	0	0	76	21723
2026-01-22 12:50:38.17	321.97	9.91	-53.0	-68.0	3.8	1.49e+00	0	37	0	0	76	21723
2026-01-22 12:50:39.18	322.12	9.86	-53.0	-68.0	3.8	1.49e+00	0	37	0	0	76	21723
2026-01-22 12:50:40.18	322.27	9.82	-53.0	-68.0	3.8	1.49e+00	0	37	0	0	76	21723
2026-01-22 12:50:41.19	322.43	9.77	-53.0	-68.0	3.8	1.49e+00	0	37	0	0	76	21723
2026-01-22 12:50:42.20	322.58	9.73	-53.0	-68.0	3.8	1.49e+00	0	37	0	0	76	21723
2026-01-22 12:50:43.20	322.73	9.68	-53.0	-68.0	3.8	1.49e+00	0	37	0	0	76	21723
2026-01-22 12:50:44.21	322.88	9.64	-53.0	-68.0	3.8	1.49e+00	0	37	0	0	76	21723
2026-01-22 12:50:45.22	323.03	9.59	-53.0	-68.0	3.8	1.49e+00	0	37	0	0	76	21723
2026-01-22 12:50:46.23	323.18	9.55	-53.0	-68.0	3.8	1.49e+00	0	37	0	0	76	21723
2026-01-22 12:50:47.23	323.33	9.50	-53.0	-68.0	3.8	1.49e+00	0	37	0	0	76	21723
2026-01-22 12:50:48.24	323.48	9.45	-53.0	-68.0	3.8	1.49e+00	0	37	0	0	76	21723
2026-01-22 12:50:49.25	323.62	9.41	-53.0	-68.0	3.8	1.49e+00	0	37	0	0	76	21723
2026-01-22 12:50:50.26	323.77	9.36	-53.0	-68.0	3.8	1.49e+00	0	37	0	0	76	21723
2026-01-22 12:50:51.27	323.92	9.32	-53.0	-68.0	3.8	1.49e+00	0	37	0	0	76	21723
2026-01-22 12:50:52.27	324.07	9.27	-53.0	-68.0	3.8	1.49e+00	0	37	0	0	76	21723
2026-01-22 12:50:53.28	324.21	9.22	-53.0	-68.0	3.8	1.49e+00	0	37	0	0	76	21723
2026-01-22 12:50:54.29	324.36	9.18	-53.0	-68.0	3.8	1.49e+00	0	37	0	0	76	21723
2026-01-22 12:50:55.30	324.51	9.13	-53.0	-68.0	3.8	1.49e+00	0	37	0	0	76	21723
2026-01-22 12:50:56.31	324.65	9.08	-53.0	-68.0	3.8	1.49e+00	0	37	0	0	76	21723
2026-01-22 12:50:57.31	324.80	9.04	-53.0	-68.0	3.8	1.49e+00	0	37	0	0	76	21723
2026-01-22 12:50:58.32	324.94	8.99	-53.0	-68.0	3.8	1.49e+00	0	36	0	0	76	21723
2026-01-22 12:50:59.33	325.08	8.94	-53.0	-68.0	3.8	1.49e+00	0	37	0	0	76	21723
2026-01-22 12:51:00.34	325.23	8.90	-53.0	-68.0	3.8	1.49e+00	0	36	0	0	76	21723
2026-01-22 12:51:01.34	325.37	8.85	-53.0	-68.0	3.8	1.49e+00	0	37	0	0	76	21723
2026-01-22 12:51:02.35	325.51	8.80	-53.0	-68.0	3.8	1.49e+00	0	36	0	0	76	21723
2026-01-22 12:51:03.36	325.66	8.76	-53.0	-68.0	3.8	1.49e+00	0	36	0	0	76	21723
2026-01-22 12:51:04.37	325.80	8.71	-53.0	-68.0	3.8	1.49e+00	0	36	0	0	76	21723
2026-01-22 12:51:05.38	325.94	8.66	-53.0	-68.0	3.8	1.49e+00	0	36	0	0	76	21723
2026-01-22 12:51:06.38	326.08	8.61	-53.0	-68.0	3.8	1.49e+00	0	36	0	0	76	21723
2026-01-22 12:51:07.39	326.22	8.57	-53.0	-68.0	3.8	1.49e+00	0	36	0	0	76	21723
2026-01-22 12:51:08.40	326.36	8.52	-53.0	-68.0	3.8	1.49e+00	0	36	0	0	76	21723
2026-01-22 12:51:09.41	326.50	8.47	-53.0	-68.0	3.8	1.49e+00	0	36	0	0	76	21723
2026-01-22 12:51:10.41	326.64	8.42	-53.0	-68.0	3.8	1.49e+00	0	36	0	0	76	21723
2026-01-22 12:51:11.43	326.78	8.38	-53.0	-68.0	3.8	1.49e+00	0	36	0	0	76	21723
2026-01-22 12:51:12.43	326.92	8.33	-53.0	-68.0	3.8	1.49e+00	0	36	0	0	76	21723
2026-01-22 12:51:13.44	327.05	8.28	-53.0	-68.0	3.8	1.49e+00	0	36	0	0	76	21723
2026-01-22 12:51:14.45	327.19	8.23	-53.0	-68.0	3.8	1.49e+00	0	36	0	0	76	21723
2026-01-22 12:51:15.46	327.33	8.19	-53.0	-68.0	3.8	1.49e+00	0	36	0	0	76	21723
2026-01-22 12:51:16.47	327.47	8.14	-53.0	-68.0	3.8	1.49e+00	0	36	0	0	76	21723
2026-01-22 12:51:17.48	327.60	8.09	-53.0	-68.0	3.8	1.49e+00	0	36	0	0	76	21723
2026-01-22 12:51:18.48	327.74	8.04	-53.0	-68.0	3.8	1.49e+00	0	36	0	0	76	21723
2026-01-22 12:51:19.49	327.87	8.00	-53.0	-68.0	3.8	1.49e+00	0	36	0	0	76	21723
2026-01-22 12:51:20.50	328.01	7.95	-53.0	-68.0	3.8	1.49e+00	0	36	0	0	76	21723
2026-01-22 12:51:21.50	328.14	7.90	-53.0	-68.0	3.8	1.49e+00	0	36	0	0	76	21723
2026-01-22 12:51:22.52	328.28	7.85	-53.0	-68.0	3.8	1.49e+00	0	36	0	0	76	21723
2026-01-22 12:51:23.52	328.41	7.80	-53.0	-68.0	3.8	1.49e+00	0	36	0	0	76	21723
2026-01-22 12:51:24.53	328.54	7.76	-53.0	-68.0	3.8	1.49e+00	0	36	0	0	76	21723
2026-01-22 12:51:25.54	328.67	7.71	-53.0	-68.0	3.8	1.49e+00	0	36	0	0	76	21723
2026-01-22 12:51:26.55	328.81	7.66	-53.0	-68.0	3.8	1.49e+00	0	36	0	0	76	21723
2026-01-22 12:51:27.56	328.94	7.61	-53.0	-68.0	3.8	1.49e+00	0	36	0	0	76	21723
2026-01-22 12:51:28.57	329.07	7.56	-53.0	-68.0	3.8	1.49e+00	0	36	0	0	76	21723
2026-01-22 12:51:29.58	329.20	7.51	-53.0	-68.0	3.8	1.49e+00	0	36	0	0	76	21723
2026-01-22 12:51:30.58	329.33	7.47	-53.0	-68.0	3.8	1.49e+00	0	36	0	0	76	21723
2026-01-22 12:51:31.59	329.46	7.42	-53.0	-68.0	3.8	1.49e+00	0	36	0	0	76	21723
2026-01-22 12:51:32.60	329.59	7.37	-53.0	-68.0	3.8	1.49e+00	0	36	0	0	76	21723
2026-01-22 12:51:33.61	329.72	7.32	-53.0	-68.0	3.8	1.49e+00	0	36	0	0	76	21723
2026-01-22 12:51:34.62	329.85	7.27	-53.0	-68.0	3.8	1.49e+00	0	36	0	0	76	21723
2026-01-22 12:51:35.63	329.98	7.22	-53.0	-68.0	3.8	1.49e+00	0	35	0	0	76	21723
2026-01-22 12:51:36.64	330.11	7.18	-53.0	-68.0	3.8	1.49e+00	0	35	0	0	76	21723
2026-01-22 12:51:37.64	330.24	7.13	-53.0	-68.0	3.8	1.49e+00	0	36	0	0	76	21723
2026-01-22 12:51:38.65	330.36	7.08	-53.0	-68.0	3.8	1.49e+00	0	35	0	0	76	21723
2026-01-22 12:51:39.66	330.49	7.03	-53.0	-68.0	3.8	1.49e+00	0	35	0	0	76	21723
2026-01-22 12:51:40.67	330.62	6.98	-53.0	-68.0	3.8	1.49e+00	0	35	0	0	76	21723
2026-01-22 12:51:41.68	330.74	6.93	-53.0	-68.0	3.8	1.49e+00	0	35	0	0	76	21723
2026-01-22 12:51:42.68	330.87	6.88	-53.0	-68.0	3.8	1.49e+00	0	35	0	0	76	21723
2026-01-22 12:51:43.69	330.99	6.84	-53.0	-68.0	3.8	1.49e+00	0	36	0	0	76	21723
2026-01-22 12:51:44.70	331.12	6.79	-53.0	-68.0	3.8	1.49e+00	0	35	0	0	76	21723
2026-01-22 12:51:45.71	331.24	6.74	-53.0	-68.0	3.8	1.49e+00	0	35	0	0	76	21723
2026-01-22 12:51:46.72	331.37	6.69	-53.0	-68.0	3.8	1.49e+00	0	36	0	0	76	21723
2026-01-22 12:51:47.73	331.49	6.64	-53.0	-68.0	3.8	1.49e+00	0	36	0	0	76	21723
2026-01-22 12:51:48.74	331.61	6.59	-53.0	-68.0	3.8	1.49e+00	0	35	0	0	76	21723
2026-01-22 12:51:49.74	331.74	6.54	-53.0	-68.0	3.8	1.49e+00	0	35	0	0	76	21723
2026-01-22 12:51:50.75	331.86	6.49	-53.0	-68.0	3.8	1.49e+00	0	35	0	0	76	21723
2026-01-22 12:51:51.76	331.98	6.45	-53.0	-68.0	3.8	1.49e+00	0	35	0	0	76	21723
2026-01-22 12:51:52.77	332.10	6.40	-53.0	-68.0	3.8	1.49e+00	0	35	0	0	76	21723
2026-01-22 12:51:53.78	332.23	6.35	-53.0	-68.0	3.8	1.49e+00	0	35	0	0	76	21723
2026-01-22 12:51:54.78	332.35	6.30	-53.0	-68.0	3.8	1.49e+00	0	35	0	0	76	21723
2026-01-22 12:51:55.79	332.47	6.25	-53.0	-68.0	3.8	1.49e+00	0	35	0	0	76	21723
2026-01-22 12:51:56.80	332.59	6.20	-53.0	-68.0	3.8	1.49e+00	0	35	0	0	76	21723
2026-01-22 12:51:57.81	332.71	6.15	-53.0	-68.0	3.8	1.49e+00	0	35	0	0	76	21723
2026-01-22 12:51:58.82	332.83	6.10	-53.0	-68.0	3.8	1.49e+00	0	35	0	0	76	21723
2026-01-22 12:51:59.82	332.94	6.06	-53.0	-68.0	3.8	1.49e+00	0	35	0	0	76	21723
2026-01-22 12:52:00.83	333.06	6.01	-53.0	-68.0	3.8	1.49e+00	0	35	0	0	76	21723
2026-01-22 12:52:01.84	333.18	5.96	-53.0	-68.0	3.8	1.49e+00	0	35	0	0	76	21723
2026-01-22 12:52:02.85	333.30	5.91	-53.0	-68.0	3.8	1.49e+00	0	35	0	0	76	21723
2026-01-22 12:52:03.86	333.42	5.86	-53.0	-68.0	3.8	1.49e+00	0	35	0	0	76	21723
2026-01-22 12:52:04.86	333.53	5.81	-53.0	-68.0	3.8	1.49e+00	0	35	0	0	76	21723
2026-01-22 12:52:05.87	333.65	5.76	-53.0	-68.0	3.8	1.49e+00	0	35	0	0	76	21723
2026-01-22 12:52:06.88	333.77	5.71	-53.0	-68.0	3.8	1.49e+00	0	35	0	0	76	21723
2026-01-22 12:52:07.89	333.88	5.66	-53.0	-68.0	3.8	1.49e+00	0	35	0	0	76	21723
2026-01-22 12:52:08.90	334.00	5.62	-53.0	-68.0	3.8	1.49e+00	0	35	0	0	76	21723
2026-01-22 12:52:09.91	334.11	5.57	-53.0	-68.0	3.8	1.49e+00	0	35	0	0	76	21723
2026-01-22 12:52:10.92	334.23	5.52	-53.0	-68.0	3.8	1.49e+00	0	35	0	0	76	21723
2026-01-22 12:52:11.92	334.34	5.47	-53.0	-68.0	3.8	1.49e+00	0	35	0	0	76	21723
2026-01-22 12:52:12.93	334.46	5.42	-53.0	-68.0	3.8	1.49e+00	0	35	0	0	76	21723
2026-01-22 12:52:13.94	334.57	5.37	-53.0	-68.0	3.8	1.49e+00	0	35	0	0	76	21723
2026-01-22 12:52:14.95	334.69	5.32	-53.0	-68.0	3.8	1.49e+00	0	35	0	0	76	21723
2026-01-22 12:52:15.96	334.80	5.27	-53.0	-68.0	3.8	1.49e+00	0	35	0	0	76	21723
2026-01-22 12:52:16.97	334.91	5.22	-53.0	-68.0	3.8	1.49e+00	0	35	0	0	76	21723
2026-01-22 12:52:17.98	335.02	5.17	-53.0	-68.0	3.8	1.49e+00	0	35	0	0	76	21723
2026-01-22 12:52:18.98	335.14	5.13	-53.0	-68.0	3.8	1.49e+00	0	35	0	0	76	21723
2026-01-22 12:52:19.99	335.25	5.08	-53.0	-68.0	3.8	1.49e+00	0	35	0	0	76	21723
2026-01-22 12:52:21.00	335.36	5.03	-53.0	-68.0	3.8	1.49e+00	0	35	0	0	76	21723
2026-01-22 12:52:22.01	335.47	4.98	-53.0	-68.0	3.8	1.49e+00	0	35	0	0	76	21723
2026-01-22 12:52:23.01	335.58	4.93	-53.0	-68.0	3.8	1.49e+00	0	35	0	0	76	21723
2026-01-22 12:52:24.02	335.69	4.88	-53.0	-68.0	3.8	1.49e+00	0	35	0	0	76	21723
2026-01-22 12:52:25.03	335.80	4.83	-53.0	-68.0	3.8	1.49e+00	0	35	0	0	76	21723
2026-01-22 12:52:26.04	335.91	4.78	-53.0	-68.0	3.8	1.49e+00	0	35	0	0	76	21723
2026-01-22 12:52:27.05	336.02	4.73	-53.0	-68.0	3.8	1.49e+00	0	35	0	0	76	21723
2026-01-22 12:52:28.05	336.13	4.69	-53.0	-68.0	3.8	1.49e+00	0	35	0	0	76	21723
2026-01-22 12:52:29.07	336.24	4.64	-53.0	-68.0	3.8	1.49e+00	0	35	0	0	76	21723
2026-01-22 12:52:30.08	336.35	4.59	-53.0	-68.0	3.8	1.49e+00	0	35	0	0	76	21723
2026-01-22 12:52:31.08	336.45	4.54	-53.0	-68.0	3.8	1.49e+00	0	35	0	0	76	21723
2026-01-22 12:52:32.09	336.56	4.49	-53.0	-68.0	3.8	1.49e+00	0	35	0	0	76	21723
2026-01-22 12:52:33.10	336.67	4.44	-53.0	-68.0	3.8	1.49e+00	0	35	0	0	76	21723
2026-01-22 12:52:34.11	336.77	4.39	-53.0	-68.0	3.8	1.49e+00	0	35	0	0	76	21723
2026-01-22 12:52:35.12	336.88	4.34	-53.0	-68.0	3.8	1.49e+00	0	35	0	0	76	21723
2026-01-22 12:52:36.13	336.99	4.29	-53.0	-68.0	3.8	1.49e+00	0	35	0	0	76	21723
2026-01-22 12:52:37.14	337.09	4.25	-53.0	-68.0	3.8	1.49e+00	0	35	0	0	76	21723
2026-01-22 12:52:38.14	337.20	4.20	-53.0	-68.0	3.8	1.49e+00	0	35	0	0	76	21723
2026-01-22 12:52:39.15	337.30	4.15	-53.0	-68.0	3.8	1.49e+00	0	35	0	0	76	21723
2026-01-22 12:52:40.16	337.41	4.10	-53.0	-68.0	3.8	1.49e+00	0	35	0	0	76	21723
2026-01-22 12:52:41.17	337.51	4.05	-53.0	-68.0	3.8	1.49e+00	0	35	0	0	76	21723
2026-01-22 12:52:42.18	337.62	4.00	-53.0	-68.0	3.8	1.49e+00	0	35	0	0	76	21723
2026-01-22 12:52:43.19	337.72	3.95	-53.0	-68.0	3.8	1.49e+00	0	35	0	0	76	21723
2026-01-22 12:52:44.20	337.82	3.90	-53.0	-68.0	3.8	1.49e+00	0	35	0	0	76	21723
2026-01-22 12:52:45.21	337.93	3.86	-53.0	-68.0	3.8	1.49e+00	0	35	0	0	76	21723
2026-01-22 12:52:46.22	338.03	3.81	-53.0	-68.0	3.8	1.49e+00	0	35	0	0	76	21723
2026-01-22 12:52:47.23	338.13	3.76	-53.0	-68.0	3.8	1.49e+00	0	35	0	0	76	21723
2026-01-22 12:52:48.23	338.24	3.71	-53.0	-68.0	3.8	1.49e+00	0	35	0	0	76	21723
2026-01-22 12:52:49.24	338.34	3.66	-53.0	-68.0	3.8	1.49e+00	0	35	0	0	76	21723
2026-01-22 12:52:50.25	338.44	3.61	-53.0	-68.0	3.8	1.49e+00	0	35	0	0	76	21723
2026-01-22 12:52:51.26	338.54	3.56	-53.0	-68.0	3.8	1.49e+00	0	35	0	0	76	21723
2026-01-22 12:52:52.26	338.64	3.52	-53.0	-68.0	3.8	1.49e+00	0	35	0	0	76	21723
2026-01-22 12:52:53.27	338.74	3.47	-53.0	-68.0	3.8	1.49e+00	0	35	0	0	76	21723
2026-01-22 12:52:54.30	338.84	3.42	-53.0	-68.0	3.8	1.49e+00	0	35	0	0	76	21723
2026-01-22 12:52:55.31	338.94	3.37	-53.0	-68.0	3.8	1.49e+00	0	35	0	0	76	21723
2026-01-22 12:52:56.32	339.04	3.32	-53.0	-68.0	3.8	1.49e+00	0	35	0	0	76	21723
2026-01-22 12:52:57.33	339.14	3.27	-53.0	-68.0	3.8	1.49e+00	0	35	0	0	76	21723
2026-01-22 12:52:58.34	339.24	3.22	-53.0	-68.0	3.8	1.49e+00	0	35	0	0	76	21723
2026-01-22 12:52:59.34	339.34	3.18	-53.0	-68.0	3.8	1.49e+00	0	35	0	0	76	21723
2026-01-22 12:53:00.35	339.44	3.13	-53.0	-68.0	3.8	1.49e+00	0	35	0	0	76	21723
2026-01-22 12:53:01.36	339.54	3.08	-53.0	-68.0	3.8	1.49e+00	0	35	0	0	76	21723
2026-01-22 12:53:02.37	339.63	3.03	-53.0	-68.0	3.8	1.49e+00	0	35	0	0	76	21723
2026-01-22 12:53:03.38	339.73	2.98	-53.0	-68.0	3.8	1.49e+00	0	35	0	0	76	21723
2026-01-22 12:53:04.38	339.83	2.93	-53.0	-68.0	3.8	1.49e+00	0	35	0	0	76	21723
2026-01-22 12:53:05.39	339.93	2.88	-53.0	-68.0	3.8	1.49e+00	0	35	0	0	76	21723
2026-01-22 12:53:06.40	340.02	2.84	-53.0	-68.0	3.8	1.49e+00	0	35	0	0	76	21723
2026-01-22 12:53:07.41	340.12	2.79	-53.0	-68.0	3.8	1.49e+00	0	35	0	0	76	21723
2026-01-22 12:53:08.42	340.22	2.74	-53.0	-68.0	3.8	1.49e+00	0	35	0	0	76	21723
2026-01-22 12:53:09.42	340.31	2.69	-53.0	-68.0	3.8	1.49e+00	0	35	0	0	76	21723
2026-01-22 12:53:10.43	340.41	2.64	-53.0	-68.0	3.8	1.49e+00	0	35	0	0	76	21723
2026-01-22 12:53:11.44	340.50	2.60	-53.0	-68.0	3.8	1.49e+00	0	35	0	0	76	21723
2026-01-22 12:53:12.45	340.60	2.55	-53.0	-68.0	3.8	1.49e+00	0	35	0	0	76	21723
2026-01-22 12:53:13.45	340.69	2.50	-53.0	-68.0	3.8	1.49e+00	0	35	0	0	76	21723
2026-01-22 12:53:14.46	340.78	2.45	-53.0	-68.0	3.8	1.49e+00	0	35	0	0	76	21723
2026-01-22 12:53:15.47	340.88	2.40	-53.0	-68.0	3.8	1.49e+00	0	35	0	0	76	21723
2026-01-22 12:53:16.48	340.97	2.35	-53.0	-68.0	3.8	1.49e+00	0	35	0	0	76	21723
2026-01-22 12:53:17.49	341.07	2.31	-53.0	-68.0	3.8	1.49e+00	0	35	0	0	76	21723
2026-01-22 12:53:18.49	341.16	2.26	-53.0	-68.0	3.8	1.49e+00	0	35	0	0	76	21723
2026-01-22 12:53:19.50	341.25	2.21	-53.0	-68.0	3.8	1.49e+00	0	35	0	0	76	21723
2026-01-22 12:53:20.51	341.34	2.16	-53.0	-68.0	3.8	1.49e+00	0	35	0	0	76	21723
2026-01-22 12:53:21.52	341.44	2.11	-53.0	-68.0	3.8	1.49e+00	0	35	0	0	76	21723
2026-01-22 12:53:22.53	341.53	2.07	-53.0	-68.0	3.8	1.49e+00	0	35	0	0	76	21723
2026-01-22 12:53:23.54	341.62	2.02	-53.0	-68.0	3.8	1.49e+00	0	35	0	0	76	21723

#Closed at: 2026-01-22 12:53:24
#Recorded file [0 MB]: D:/lorett/data/31041_260122_155021.datB]: D:/lorett/data/31041_260122_155021.dat