passes_logs/2026/01/22/R3.2S_Murmansk/R3.2S_Murmansk__20260122_221107_NOAA_21_JPSS-2_rec.log

#Pass ID: 20260122_221107_NOAA 21 (JPSS-2)
#Satellite: NOAA 21 (JPSS-2)
#Configuration: NOAA-21
#almurnet v.1.7.20251203
#Start time: 2026-01-22 22:11:07

#Version: 2.2.20231116
#Station: R3.2S_Murmansk
#Location: 33.079688 lon 68.888172 lat
#TLE: 1 54234U 22150A   26022.41365820  .00000211  00000+0  12084-3 0  9990
#TLE: 2 54234  98.7507 323.2240 0000658 234.5287 125.5828 14.19537645165864

#Time	Az	El	Level	Level2	SNR	BER	BlckErr	Temp	State	Recorded	gain1	gain2
2026-01-22 22:11:07.66	18.60	2.01	-54.4	-67.2	3.8	1.49e+00	0	41	0	0	79	16508
2026-01-22 22:11:11.69	18.90	2.23	-54.5	-67.3	3.8	1.49e+00	0	41	104	0	79	16761
2026-01-22 22:11:15.73	19.21	2.44	-54.5	-67.2	3.8	1.49e+00	0	41	104	0	79	16692
2026-01-22 22:11:19.76	19.52	2.66	-54.3	-67.1	3.8	1.49e+00	0	41	104	0	79	16402
2026-01-22 22:11:23.80	19.83	2.88	-54.1	-66.9	3.8	1.49e+00	0	42	104	0	79	15964
2026-01-22 22:11:27.83	20.15	3.10	-53.7	-66.5	3.8	1.49e+00	0	42	104	0	79	15286
2026-01-22 22:11:31.87	20.47	3.33	-52.5	-65.0	3.8	1.49e+00	0	42	104	0	76	15288
2026-01-22 22:11:35.90	20.79	3.55	-52.5	-65.2	3.8	1.49e+00	0	42	104	0	76	15624
2026-01-22 22:11:39.93	21.12	3.77	-52.4	-65.1	3.8	1.49e+00	0	42	104	0	76	15473
2026-01-22 22:11:43.96	21.46	4.00	-52.3	-64.0	3.8	1.49e+00	0	42	104	0	76	13646
2026-01-22 22:11:47.99	21.80	4.22	-52.1	-61.6	4.2	1.46e+00	0	42	104	0	76	10357
2026-01-22 22:11:52.02	22.14	4.45	-50.4	-54.7	9.2	3.52e-02	0	42	0	7340032	72	5914
2026-01-22 22:11:56.05	22.49	4.68	-48.7	-51.3	12.8	8.01e-05	0	42	0	19922944	69	4732
2026-01-22 22:12:00.09	22.85	4.91	-50.2	-54.2	9.9	3.54e-03	0	42	0	32505856	70	6208
2026-01-22 22:12:04.12	23.21	5.14	-48.6	-51.2	12.9	7.60e-06	0	42	0	45088768	67	5276
2026-01-22 22:12:08.15	23.58	5.37	-45.6	-47.0	17.3	0.00e+00	0	42	0	50331648	63	4086
2026-01-22 22:12:12.19	23.95	5.60	-45.8	-47.3	17.0	0.00e+00	0	42	0	62914560	63	4201
2026-01-22 22:12:16.21	24.33	5.84	-45.5	-46.8	17.5	0.00e+00	0	42	0	75497472	62	4232
2026-01-22 22:12:20.25	24.71	6.07	-45.4	-46.8	17.6	0.00e+00	0	42	0	88080384	62	4196
2026-01-22 22:12:24.28	25.10	6.31	-45.4	-46.8	17.7	0.00e+00	0	43	0	100663296	62	4201
2026-01-22 22:12:28.31	25.50	6.55	-45.3	-46.6	17.9	0.00e+00	0	43	0	113246208	62	4113
2026-01-22 22:12:32.35	25.90	6.78	-45.3	-46.6	17.9	0.00e+00	0	43	0	125829120	62	4103
2026-01-22 22:12:36.38	26.30	7.02	-45.2	-46.4	18.0	0.00e+00	0	43	0	139460608	62	4047
2026-01-22 22:12:40.42	26.72	7.26	-45.1	-46.3	18.2	0.00e+00	0	43	0	150994944	62	3987
2026-01-22 22:12:44.45	27.14	7.51	-45.0	-46.2	18.2	0.00e+00	0	43	0	163577856	61	4185
2026-01-22 22:12:48.49	27.57	7.75	-44.8	-46.0	18.5	0.00e+00	0	43	0	177209344	61	4083
2026-01-22 22:12:52.52	28.00	7.99	-44.6	-45.7	18.7	0.00e+00	0	43	0	189792256	61	3941
2026-01-22 22:12:56.55	28.44	8.24	-44.6	-45.8	18.7	0.00e+00	0	43	0	201326592	61	3973
2026-01-22 22:13:00.59	28.89	8.48	-44.9	-46.1	18.5	0.00e+00	0	43	0	214958080	61	4107
2026-01-22 22:13:04.62	29.35	8.73	-44.4	-45.5	19.0	0.00e+00	0	43	0	227540992	60	4088
2026-01-22 22:13:08.65	29.81	8.98	-44.2	-45.3	19.2	0.00e+00	0	43	0	240123904	60	3987
2026-01-22 22:13:12.69	30.28	9.22	-44.2	-45.2	19.3	0.00e+00	0	43	0	252706816	60	3957
2026-01-22 22:13:16.73	30.76	9.47	-44.5	-45.6	19.3	0.00e+00	0	43	0	265289728	59	4371
2026-01-22 22:13:20.76	31.25	9.72	-44.5	-45.5	19.4	0.00e+00	0	43	0	277872640	59	4334
2026-01-22 22:13:24.79	31.74	9.97	-44.3	-45.4	19.5	0.00e+00	0	43	0	290455552	59	4266
2026-01-22 22:13:28.82	32.24	10.22	-43.6	-44.5	20.3	0.00e+00	0	43	0	303038464	59	3851
2026-01-22 22:13:32.85	32.76	10.48	-43.7	-44.7	20.2	0.00e+00	0	43	0	315621376	59	3928
2026-01-22 22:13:36.88	33.27	10.73	-43.8	-44.8	20.1	0.00e+00	0	43	0	328204288	59	3975
2026-01-22 22:13:40.91	33.80	10.98	-43.9	-44.9	20.0	0.00e+00	0	43	0	340787200	59	4050
2026-01-22 22:13:44.95	34.34	11.23	-43.8	-44.8	20.1	0.00e+00	0	43	0	353370112	59	3983
2026-01-22 22:13:48.98	34.89	11.49	-43.8	-44.8	20.2	0.00e+00	0	43	0	365953024	59	3980
2026-01-22 22:13:53.02	35.44	11.74	-43.9	-44.9	20.1	0.00e+00	0	43	0	378535936	59	4041
2026-01-22 22:13:57.05	36.01	12.00	-44.0	-45.0	20.0	0.00e+00	0	43	0	391118848	59	4077
2026-01-22 22:14:01.08	36.58	12.25	-43.9	-44.9	20.2	0.00e+00	0	43	0	403701760	59	4009
2026-01-22 22:14:05.11	37.16	12.51	-43.6	-44.5	20.5	0.00e+00	0	43	0	416284672	59	3861
2026-01-22 22:14:09.14	37.76	12.76	-43.6	-44.6	20.4	0.00e+00	0	43	0	428867584	58	4120
2026-01-22 22:14:13.17	38.36	13.01	-43.8	-44.8	20.2	0.00e+00	0	43	0	441450496	58	4208
2026-01-22 22:14:17.21	38.97	13.27	-43.3	-44.2	20.8	0.00e+00	0	43	0	454033408	58	3927
2026-01-22 22:14:21.24	39.60	13.52	-43.2	-44.1	20.9	0.00e+00	0	43	0	466616320	58	3876
2026-01-22 22:14:25.28	40.23	13.78	-43.6	-44.6	20.5	0.00e+00	0	43	0	479199232	58	4114
2026-01-22 22:14:29.32	40.88	14.03	-43.3	-44.2	20.7	0.00e+00	0	43	0	491782144	58	3928
2026-01-22 22:14:33.35	41.53	14.28	-43.3	-44.2	20.7	0.00e+00	0	43	0	504365056	58	3955
2026-01-22 22:14:37.38	42.20	14.53	-43.6	-44.6	20.5	0.00e+00	0	43	0	516947968	58	4121
2026-01-22 22:14:41.42	42.88	14.78	-43.5	-44.5	20.6	0.00e+00	0	43	0	529530880	58	4052
2026-01-22 22:14:45.45	43.57	15.03	-43.3	-44.2	20.8	0.00e+00	0	43	0	542113792	58	3957
2026-01-22 22:14:49.48	44.27	15.28	-43.3	-44.2	20.8	0.00e+00	0	43	0	554696704	58	3942
2026-01-22 22:14:53.52	44.98	15.53	-43.3	-44.3	20.8	0.00e+00	0	43	0	567279616	58	3974
2026-01-22 22:14:57.56	45.70	15.77	-43.4	-44.4	20.7	0.00e+00	0	43	0	579862528	58	4020
2026-01-22 22:15:01.59	46.44	16.02	-43.3	-44.2	20.9	0.00e+00	0	43	0	592445440	58	3944
2026-01-22 22:15:05.62	47.18	16.26	-43.1	-44.0	21.1	0.00e+00	0	43	0	605028352	58	3848
2026-01-22 22:15:09.65	47.94	16.49	-43.1	-44.0	21.0	0.00e+00	0	43	0	617611264	58	3867
2026-01-22 22:15:13.68	48.71	16.73	-43.3	-44.2	20.9	0.00e+00	0	43	0	630194176	58	3949
2026-01-22 22:15:17.72	49.49	16.96	-43.3	-44.2	20.9	0.00e+00	0	43	0	642777088	58	3949
2026-01-22 22:15:21.75	50.28	17.19	-43.0	-43.8	21.2	0.00e+00	0	43	0	655360000	57	3998
2026-01-22 22:15:25.78	51.09	17.42	-43.1	-44.0	21.0	0.00e+00	0	43	0	667942912	57	4059
2026-01-22 22:15:29.81	51.90	17.65	-43.0	-43.9	21.1	0.00e+00	0	43	0	680525824	57	4023
2026-01-22 22:15:33.84	52.73	17.87	-42.8	-43.7	21.4	0.00e+00	0	43	0	693108736	57	3925
2026-01-22 22:15:37.87	53.57	18.08	-42.9	-43.8	21.3	0.00e+00	0	43	0	705691648	57	3972
2026-01-22 22:15:41.91	54.42	18.29	-42.8	-43.7	21.2	0.00e+00	0	43	0	718274560	57	3944
2026-01-22 22:15:45.94	55.29	18.50	-42.6	-43.4	21.6	0.00e+00	0	43	0	730857472	57	3810
2026-01-22 22:15:49.98	56.16	18.71	-42.6	-43.5	21.6	0.00e+00	0	43	0	744488960	57	3838
2026-01-22 22:15:54.01	57.05	18.90	-42.7	-43.6	21.3	0.00e+00	0	43	0	756023296	57	3874
2026-01-22 22:15:58.05	57.95	19.10	-42.5	-43.3	21.7	0.00e+00	0	43	0	768606208	57	3769
2026-01-22 22:16:02.08	58.85	19.29	-42.6	-43.4	21.6	0.00e+00	0	43	0	782237696	56	4044
2026-01-22 22:16:06.11	59.77	19.47	-42.6	-43.5	21.6	0.00e+00	0	43	0	794820608	56	4068
2026-01-22 22:16:10.15	60.71	19.64	-42.1	-42.9	22.1	0.00e+00	0	43	0	806354944	56	3785
2026-01-22 22:16:14.18	61.65	19.81	-42.3	-43.1	21.9	0.00e+00	0	43	0	819986432	56	3889
2026-01-22 22:16:18.21	62.60	19.98	-42.3	-43.1	21.9	0.00e+00	0	43	0	832569344	56	3902
2026-01-22 22:16:22.25	63.56	20.13	-42.2	-43.0	21.9	0.00e+00	0	43	0	844103680	56	3847
2026-01-22 22:16:26.28	64.53	20.28	-42.2	-43.0	22.0	0.00e+00	0	44	0	857735168	56	3852
2026-01-22 22:16:30.31	65.50	20.43	-42.2	-43.0	22.0	0.00e+00	0	43	0	870318080	56	3834
2026-01-22 22:16:34.35	66.49	20.56	-42.3	-43.2	21.9	0.00e+00	0	43	0	882900992	56	3920
2026-01-22 22:16:38.38	67.49	20.69	-42.2	-43.0	22.0	0.00e+00	0	43	0	895483904	56	3841
2026-01-22 22:16:42.41	68.49	20.81	-42.4	-43.3	21.8	0.00e+00	0	43	0	908066816	56	3969
2026-01-22 22:16:46.45	69.51	20.92	-42.5	-43.3	21.8	0.00e+00	0	43	0	920649728	56	3984
2026-01-22 22:16:50.48	70.52	21.02	-42.4	-43.2	21.8	0.00e+00	0	43	0	933232640	56	3954
2026-01-22 22:16:54.51	71.55	21.11	-42.2	-43.0	22.1	0.00e+00	0	43	0	945815552	56	3829
2026-01-22 22:16:58.54	72.58	21.20	-42.2	-43.0	22.0	0.00e+00	0	43	0	958398464	56	3833
2026-01-22 22:17:02.58	73.61	21.27	-42.2	-43.0	22.0	0.00e+00	0	43	0	970981376	56	3860
2026-01-22 22:17:06.61	74.65	21.34	-42.3	-43.1	21.9	0.00e+00	0	43	0	983564288	56	3900
2026-01-22 22:17:10.64	75.70	21.40	-42.2	-43.1	21.9	0.00e+00	0	43	0	996147200	56	3877
2026-01-22 22:17:14.67	76.75	21.44	-42.1	-43.0	22.1	0.00e+00	0	43	0	1008730112	56	3825
2026-01-22 22:17:18.70	77.80	21.48	-42.2	-43.0	22.0	0.00e+00	0	43	0	1021313024	56	3832
2026-01-22 22:17:22.74	78.85	21.51	-41.8	-42.6	22.2	0.00e+00	0	43	0	1033895936	55	3906
2026-01-22 22:17:26.77	79.91	21.53	-42.1	-42.9	22.0	0.00e+00	0	43	0	1046478848	55	4027
2026-01-22 22:17:30.81	80.97	21.54	-42.2	-43.0	21.9	0.00e+00	0	44	0	1059061760	55	4096
2026-01-22 22:17:34.84	82.02	21.54	-42.2	-43.1	21.8	0.00e+00	0	43	0	1071644672	55	4110
2026-01-22 22:17:38.87	83.08	21.53	-42.0	-42.8	22.1	0.00e+00	0	43	0	1084227584	55	3970
2026-01-22 22:17:42.90	84.13	21.51	-42.2	-43.0	21.9	0.00e+00	0	43	0	1096810496	55	4083
2026-01-22 22:17:46.94	85.19	21.48	-41.8	-42.6	22.2	0.00e+00	0	43	0	1109393408	55	3891
2026-01-22 22:17:50.97	86.24	21.44	-42.0	-42.8	22.1	0.00e+00	0	43	0	1121976320	55	3989
2026-01-22 22:17:55.01	87.29	21.39	-42.2	-43.0	21.9	0.00e+00	0	43	0	1134559232	55	4064
2026-01-22 22:17:59.04	88.33	21.33	-41.9	-42.7	22.2	0.00e+00	0	43	0	1147142144	55	3940
2026-01-22 22:18:03.08	89.38	21.26	-42.0	-42.8	22.0	0.00e+00	0	44	0	1159725056	55	3987
2026-01-22 22:18:07.11	90.41	21.19	-42.0	-42.9	22.0	0.00e+00	0	44	0	1172307968	55	4006
2026-01-22 22:18:11.15	91.44	21.10	-42.1	-42.9	22.0	0.00e+00	0	43	0	1184890880	55	4026
2026-01-22 22:18:15.18	92.47	21.01	-41.9	-42.7	22.2	0.00e+00	0	44	0	1197473792	55	3952
2026-01-22 22:18:19.21	93.49	20.90	-42.0	-42.8	22.1	0.00e+00	0	44	0	1210056704	55	3988
2026-01-22 22:18:23.24	94.50	20.79	-42.1	-43.0	21.9	0.00e+00	0	43	0	1222639616	55	4065
2026-01-22 22:18:27.27	95.50	20.67	-42.0	-42.9	22.0	0.00e+00	0	44	0	1235222528	55	4014
2026-01-22 22:18:31.31	96.50	20.54	-42.0	-42.8	22.0	0.00e+00	0	44	0	1247805440	55	3993
2026-01-22 22:18:35.34	97.49	20.40	-42.1	-42.9	21.9	0.00e+00	0	44	0	1260388352	55	4029
2026-01-22 22:18:39.37	98.47	20.26	-42.2	-43.0	21.9	0.00e+00	0	44	0	1272971264	55	4073
2026-01-22 22:18:43.41	99.44	20.11	-42.1	-42.9	22.0	0.00e+00	0	43	0	1285554176	55	4014
2026-01-22 22:18:47.44	100.40	19.95	-42.1	-43.0	21.9	0.00e+00	0	44	0	1298137088	55	4061
2026-01-22 22:18:51.47	101.36	19.79	-42.1	-42.9	21.9	0.00e+00	0	44	0	1310720000	55	4034
2026-01-22 22:18:55.49	102.29	19.62	-42.1	-42.9	21.9	0.00e+00	0	43	0	1323302912	55	4048
2026-01-22 22:18:59.53	103.23	19.44	-42.2	-43.0	21.8	0.00e+00	0	44	0	1335885824	55	4072
2026-01-22 22:19:03.56	104.15	19.25	-42.3	-43.2	21.6	0.00e+00	0	44	0	1348468736	55	4154
2026-01-22 22:19:07.59	105.06	19.06	-42.2	-43.1	21.7	0.00e+00	0	44	0	1361051648	55	4117
2026-01-22 22:19:11.63	105.96	18.87	-42.5	-43.4	21.5	0.00e+00	0	44	0	1373634560	55	4257
2026-01-22 22:19:15.66	106.84	18.67	-42.6	-43.4	21.4	0.00e+00	0	44	0	1387266048	55	4282
2026-01-22 22:19:19.69	107.72	18.46	-42.3	-43.1	21.7	0.00e+00	0	44	0	1398800384	55	4112
2026-01-22 22:19:23.72	108.58	18.25	-42.3	-43.2	21.8	0.00e+00	0	44	0	1411383296	55	4148
2026-01-22 22:19:27.75	109.44	18.04	-42.8	-43.7	21.4	0.00e+00	0	44	0	1423966208	56	4153
2026-01-22 22:19:31.79	110.28	17.82	-42.7	-43.6	21.4	0.00e+00	0	44	0	1437597696	56	4109
2026-01-22 22:19:35.82	111.11	17.60	-42.6	-43.4	21.6	0.00e+00	0	44	0	1449132032	56	4050
2026-01-22 22:19:39.86	111.93	17.37	-42.9	-43.8	21.2	0.00e+00	0	44	0	1462763520	56	4228
2026-01-22 22:19:43.89	112.73	17.14	-43.1	-44.1	21.0	0.00e+00	0	44	0	1475346432	56	4348
2026-01-22 22:19:47.92	113.53	16.91	-43.0	-43.9	21.2	0.00e+00	0	44	0	1487929344	57	4021
2026-01-22 22:19:51.95	114.31	16.67	-42.9	-43.8	21.3	0.00e+00	0	44	0	1499463680	57	3963
2026-01-22 22:19:55.98	115.08	16.44	-43.1	-44.0	21.1	0.00e+00	0	44	0	1513095168	57	4063
2026-01-22 22:20:00.01	115.84	16.20	-43.1	-44.0	21.0	0.00e+00	0	44	0	1525678080	57	4085
2026-01-22 22:20:04.05	116.58	15.95	-43.0	-43.9	21.1	0.00e+00	0	44	0	1538260992	57	4028
2026-01-22 22:20:08.08	117.32	15.71	-43.2	-44.1	20.9	0.00e+00	0	44	0	1550843904	57	4112
2026-01-22 22:20:12.11	118.04	15.46	-43.2	-44.1	20.9	0.00e+00	0	44	0	1563426816	57	4119
2026-01-22 22:20:16.14	118.75	15.21	-43.0	-43.9	21.1	0.00e+00	0	43	0	1576009728	57	4005
2026-01-22 22:20:20.17	119.45	14.96	-43.0	-44.0	21.0	0.00e+00	0	44	0	1588592640	57	4052
2026-01-22 22:20:24.20	120.14	14.71	-43.1	-44.0	21.0	0.00e+00	0	44	0	1601175552	57	4071
2026-01-22 22:20:28.24	120.82	14.46	-42.8	-43.7	21.2	0.00e+00	0	44	0	1613758464	57	3925
2026-01-22 22:20:32.27	121.49	14.21	-42.7	-43.6	21.3	0.00e+00	0	44	0	1626341376	57	3879
2026-01-22 22:20:36.30	122.14	13.95	-43.0	-43.9	20.9	0.00e+00	0	44	0	1638924288	57	4021
2026-01-22 22:20:40.33	122.79	13.70	-43.1	-44.1	20.8	0.00e+00	0	44	0	1651507200	57	4104
2026-01-22 22:20:44.37	123.43	13.44	-43.4	-44.3	20.6	0.00e+00	0	44	0	1664090112	57	4227
2026-01-22 22:20:48.40	124.05	13.19	-43.6	-44.6	20.3	0.00e+00	0	44	0	1676673024	57	4350
2026-01-22 22:20:52.43	124.66	12.93	-43.6	-44.6	20.2	0.00e+00	0	44	0	1689255936	57	4376
2026-01-22 22:20:56.47	125.27	12.67	-43.7	-44.7	20.2	0.00e+00	0	44	0	1701838848	58	4161
2026-01-22 22:21:00.50	125.86	12.42	-43.6	-44.6	20.3	0.00e+00	0	44	0	1714421760	58	4121
2026-01-22 22:21:04.53	126.44	12.16	-43.3	-44.3	20.5	0.00e+00	0	44	0	1727004672	58	3968
2026-01-22 22:21:08.56	127.02	11.91	-43.5	-44.5	20.3	0.00e+00	0	44	0	1739587584	58	4072
2026-01-22 22:21:12.59	127.58	11.65	-44.0	-45.0	19.8	0.00e+00	0	43	0	1752170496	58	4337
2026-01-22 22:21:16.63	128.14	11.39	-43.9	-45.0	19.8	0.00e+00	0	44	0	1764753408	58	4300
2026-01-22 22:21:20.67	128.69	11.14	-43.7	-44.7	20.0	0.00e+00	0	44	0	1777336320	58	4191
2026-01-22 22:21:24.70	129.22	10.88	-43.9	-44.9	19.8	0.00e+00	0	44	0	1789919232	58	4269
2026-01-22 22:21:28.73	129.75	10.63	-43.9	-45.0	19.7	0.00e+00	0	43	0	1802502144	58	4298
2026-01-22 22:21:32.77	130.27	10.37	-44.0	-45.1	19.6	0.00e+00	0	44	0	1815085056	58	4367
2026-01-22 22:21:36.80	130.78	10.12	-44.0	-45.1	19.7	0.00e+00	0	44	0	1827667968	59	4110
2026-01-22 22:21:40.83	131.28	9.87	-44.0	-45.1	19.6	0.00e+00	0	44	0	1840250880	59	4117
2026-01-22 22:21:44.87	131.78	9.61	-44.1	-45.2	19.5	0.00e+00	0	44	0	1852833792	59	4160
2026-01-22 22:21:48.90	132.26	9.36	-44.2	-45.3	19.3	0.00e+00	0	44	0	1865416704	59	4226
2026-01-22 22:21:52.93	132.74	9.11	-44.2	-45.3	19.4	0.00e+00	0	44	0	1877999616	59	4209
2026-01-22 22:21:56.96	133.21	8.86	-44.1	-45.1	19.5	0.00e+00	0	44	0	1890582528	59	4139
2026-01-22 22:22:00.99	133.67	8.61	-44.4	-45.5	19.1	0.00e+00	0	44	0	1903165440	59	4312
2026-01-22 22:22:05.02	134.13	8.36	-44.2	-45.3	19.3	0.00e+00	0	44	0	1915748352	59	4229
2026-01-22 22:22:09.05	134.57	8.12	-44.3	-45.4	19.2	0.00e+00	0	44	0	1928331264	59	4266
2026-01-22 22:22:13.09	135.01	7.87	-44.2	-45.3	19.3	0.00e+00	0	44	0	1940914176	59	4212
2026-01-22 22:22:17.12	135.45	7.63	-44.3	-45.4	19.2	0.00e+00	0	44	0	1953497088	59	4262
2026-01-22 22:22:21.15	135.87	7.38	-44.5	-45.7	18.6	0.00e+00	0	44	0	1966080000	60	4149
2026-01-22 22:22:25.18	136.29	7.14	-44.4	-45.6	18.9	0.00e+00	0	44	0	1978662912	59	4355
2026-01-22 22:22:29.21	136.71	6.90	-44.2	-45.3	18.9	0.00e+00	0	44	0	1991245824	60	3981
2026-01-22 22:22:33.24	137.11	6.66	-44.7	-46.0	18.2	0.00e+00	0	44	0	2003828736	60	4301
2026-01-22 22:22:37.28	137.51	6.41	-44.6	-45.8	18.3	0.00e+00	0	44	0	2016411648	60	4234
2026-01-22 22:22:41.31	137.91	6.18	-44.7	-46.0	18.2	0.00e+00	0	44	0	2028994560	60	4292
2026-01-22 22:22:45.34	138.29	5.94	-44.8	-46.1	18.0	0.00e+00	0	44	0	2041577472	60	4351
2026-01-22 22:22:49.38	138.68	5.70	-44.9	-46.2	17.9	0.00e+00	0	44	0	2054160384	60	4424
2026-01-22 22:22:53.41	139.05	5.47	-44.8	-46.0	18.0	0.00e+00	0	44	0	2066743296	60	4324
2026-01-22 22:22:57.45	139.42	5.23	-44.9	-46.2	17.7	0.00e+00	0	44	0	2079326208	61	4181
2026-01-22 22:23:01.48	139.79	5.00	-47.2	-49.2	15.0	0.00e+00	0	44	0	2091909120	64	4955
2026-01-22 22:23:05.51	140.15	4.77	-53.4	-66.2	3.8	1.49e+00	0	44	104	2092957696	77	16550
2026-01-22 22:23:09.54	140.50	4.53	-53.8	-66.6	3.8	1.49e+00	0	44	104	2092957696	78	16425
2026-01-22 22:23:13.58	140.85	4.30	-54.1	-66.9	3.8	1.49e+00	0	44	104	2092957696	78	17018
2026-01-22 22:23:17.61	141.19	4.08	-54.3	-67.1	3.8	1.49e+00	0	44	104	2092957696	79	16428
2026-01-22 22:23:21.64	141.53	3.85	-54.4	-67.2	3.8	1.49e+00	0	44	104	2092957696	79	16615
2026-01-22 22:23:25.68	141.87	3.62	-54.5	-67.3	3.8	1.49e+00	0	44	104	2092957696	79	16823
2026-01-22 22:23:29.71	142.19	3.40	-54.6	-67.4	3.8	1.49e+00	0	44	104	2092957696	79	16983
2026-01-22 22:23:33.75	142.52	3.17	-54.6	-67.4	3.8	1.49e+00	0	44	104	2092957696	79	16973
2026-01-22 22:23:37.77	142.84	2.95	-54.5	-67.3	3.8	1.49e+00	0	44	104	2092957696	79	16812
2026-01-22 22:23:41.81	143.15	2.73	-54.4	-67.2	3.8	1.49e+00	0	44	104	2092957696	79	16640
2026-01-22 22:23:45.84	143.46	2.50	-54.2	-67.0	3.8	1.49e+00	0	44	104	2092957696	79	16247
2026-01-22 22:23:49.87	143.77	2.28	-53.9	-66.7	3.8	1.49e+00	0	44	104	2092957696	79	15601
2026-01-22 22:23:53.90	144.07	2.07	-53.6	-66.3	3.8	1.49e+00	0	44	104	2092957696	79	14999

#Closed at: 2026-01-22 22:23:55
#Recorded file [2092 MB]: D:/lorett/data/31041_260123_011107.dat