passes_logs/2026/01/22/R3.2S_Murmansk/R3.2S_Murmansk__20260122_053928_SUOMI_NPP_rec.log

#Pass ID: 20260122_053928_SUOMI NPP
#Satellite: SUOMI NPP
#Configuration: NPP
#almurnet v.1.7.20251203
#Start time: 2026-01-22 05:39:28

#Version: 2.2.20231116
#Station: R3.2S_Murmansk
#Location: 33.079688 lon 68.888172 lat
#TLE: 1 37849U 11061A   26021.51818991  .00000201  00000+0  11636-3 0  9995
#TLE: 2 37849  98.7819 323.5108 0002300  52.3548 307.7836 14.19527793737637

#Time	Az	El	Level	Level2	SNR	BER	BlckErr	Temp	State	Recorded	gain1	gain2
2026-01-22 05:39:28.66	68.68	2.03	-50.0	-65.0	3.8	1.49e+00	0	39	0	0	70	21602
2026-01-22 05:39:31.67	68.48	2.21	-50.0	-65.0	3.8	1.49e+00	0	39	104	0	70	21563
2026-01-22 05:39:34.70	68.29	2.38	-50.0	-65.0	3.8	1.49e+00	0	39	104	0	70	21540
2026-01-22 05:39:37.72	68.09	2.55	-50.0	-65.0	3.8	1.49e+00	0	39	104	0	70	21532
2026-01-22 05:39:40.75	67.89	2.73	-50.0	-65.0	3.8	1.49e+00	0	39	104	0	70	21524
2026-01-22 05:39:43.77	67.69	2.90	-50.0	-65.0	3.8	1.49e+00	0	39	104	0	70	21537
2026-01-22 05:39:46.80	67.49	3.08	-50.0	-65.0	3.8	1.49e+00	0	39	104	0	70	21547
2026-01-22 05:39:49.82	67.28	3.26	-50.0	-65.0	3.8	1.49e+00	0	39	104	0	70	21513
2026-01-22 05:39:52.85	67.07	3.43	-50.0	-65.0	3.8	1.49e+00	0	39	104	0	70	21584
2026-01-22 05:39:55.87	66.86	3.61	-50.0	-65.0	3.8	1.49e+00	0	39	104	0	70	21555
2026-01-22 05:39:58.90	66.64	3.79	-50.0	-65.0	3.8	1.49e+00	0	39	104	0	70	21577
2026-01-22 05:40:01.92	66.42	3.97	-50.0	-65.0	3.8	1.49e+00	0	40	104	0	70	21557
2026-01-22 05:40:04.95	66.20	4.15	-50.0	-65.0	3.8	1.49e+00	0	40	104	0	70	21587
2026-01-22 05:40:07.97	65.98	4.33	-50.0	-65.0	3.8	1.49e+00	0	40	104	0	70	21592
2026-01-22 05:40:11.00	65.75	4.52	-50.0	-65.0	3.8	1.49e+00	0	40	104	0	70	21601
2026-01-22 05:40:14.02	65.52	4.70	-50.0	-65.0	3.8	1.49e+00	0	40	104	0	70	21569
2026-01-22 05:40:17.05	65.29	4.88	-50.0	-65.0	3.8	1.49e+00	0	40	104	0	70	21582
2026-01-22 05:40:20.07	65.06	5.07	-50.0	-65.0	3.8	1.49e+00	0	40	104	0	70	21563
2026-01-22 05:40:23.10	64.82	5.25	-50.0	-65.0	3.8	1.49e+00	0	40	104	0	70	21560
2026-01-22 05:40:26.12	64.57	5.44	-50.0	-65.0	3.8	1.49e+00	0	40	104	0	70	21568
2026-01-22 05:40:29.15	64.33	5.63	-50.0	-65.0	3.8	1.49e+00	0	40	104	0	70	21581
2026-01-22 05:40:32.17	64.08	5.82	-50.0	-65.0	3.8	1.49e+00	0	40	104	0	70	21571
2026-01-22 05:40:35.19	63.83	6.00	-50.0	-65.0	3.8	1.49e+00	0	40	104	0	70	21631
2026-01-22 05:40:38.22	63.57	6.19	-50.0	-65.0	3.8	1.49e+00	0	40	104	0	70	21551
2026-01-22 05:40:41.24	63.32	6.38	-50.0	-65.0	3.8	1.49e+00	0	40	104	0	70	21509
2026-01-22 05:40:44.26	63.05	6.58	-50.0	-65.0	3.8	1.49e+00	0	40	104	0	70	21571
2026-01-22 05:40:47.29	62.79	6.77	-52.1	-67.1	3.8	1.49e+00	0	40	104	0	74	21801
2026-01-22 05:40:50.31	62.52	6.96	-53.0	-68.0	3.8	1.49e+00	0	40	104	0	76	21674
2026-01-22 05:40:53.34	62.24	7.16	-53.0	-68.0	3.8	1.49e+00	0	40	104	0	76	21635
2026-01-22 05:40:56.36	61.97	7.35	-53.0	-68.0	3.8	1.49e+00	0	40	104	0	76	21588
2026-01-22 05:40:59.39	61.69	7.55	-53.0	-68.0	3.8	1.49e+00	0	40	104	0	76	21547
2026-01-22 05:41:02.42	61.40	7.74	-53.0	-68.0	3.8	1.49e+00	0	40	104	0	76	21545
2026-01-22 05:41:05.45	61.11	7.94	-53.0	-68.0	3.8	1.49e+00	0	40	104	0	76	21590
2026-01-22 05:41:08.47	60.82	8.14	-53.0	-68.0	3.8	1.49e+00	0	40	104	0	76	21561
2026-01-22 05:41:11.49	60.52	8.34	-53.4	-68.5	3.8	1.49e+00	0	40	104	0	77	21549
2026-01-22 05:41:14.51	60.22	8.54	-53.7	-68.7	3.8	1.49e+00	0	40	104	0	77	22193
2026-01-22 05:41:17.54	59.91	8.74	-53.9	-68.9	3.8	1.49e+00	0	40	104	0	78	21414
2026-01-22 05:41:20.56	59.60	8.94	-53.9	-69.0	3.8	1.49e+00	0	40	104	0	78	21574
2026-01-22 05:41:23.59	59.29	9.14	-53.9	-69.0	3.8	1.49e+00	0	40	104	0	78	21516
2026-01-22 05:41:26.61	58.97	9.34	-54.2	-69.2	3.8	1.49e+00	0	40	104	0	78	22212
2026-01-22 05:41:29.63	58.65	9.55	-54.4	-69.4	3.8	1.49e+00	0	40	104	0	79	21479
2026-01-22 05:41:32.66	58.32	9.75	-54.6	-69.6	3.8	1.49e+00	0	40	104	0	79	21901
2026-01-22 05:41:35.68	57.99	9.96	-54.6	-69.6	3.8	1.49e+00	0	40	104	0	79	21983
2026-01-22 05:41:38.70	57.65	10.16	-54.6	-69.6	3.8	1.49e+00	0	40	104	0	79	21850
2026-01-22 05:41:41.73	57.31	10.37	-54.5	-69.5	3.8	1.49e+00	0	40	104	0	79	21722
2026-01-22 05:41:44.75	56.96	10.58	-54.6	-69.6	3.8	1.49e+00	0	40	104	0	79	21831
2026-01-22 05:41:47.78	56.60	10.78	-54.5	-69.5	3.8	1.49e+00	0	40	104	0	79	21613
2026-01-22 05:41:50.81	56.25	10.99	-54.4	-69.5	3.8	1.49e+00	0	40	104	0	79	21545
2026-01-22 05:41:53.84	55.88	11.20	-54.4	-69.4	3.8	1.49e+00	0	40	104	0	79	21488
2026-01-22 05:41:56.86	55.51	11.41	-54.4	-69.4	3.8	1.49e+00	0	40	104	0	79	21360
2026-01-22 05:41:59.89	55.14	11.62	-54.4	-69.4	3.8	1.49e+00	0	41	104	0	79	21381
2026-01-22 05:42:02.92	54.76	11.84	-54.3	-69.4	3.8	1.49e+00	0	41	104	0	79	21278
2026-01-22 05:42:05.94	54.37	12.05	-54.3	-69.3	3.8	1.49e+00	0	40	104	0	79	21255
2026-01-22 05:42:08.97	53.98	12.26	-54.3	-69.3	3.8	1.49e+00	0	40	104	0	79	21174
2026-01-22 05:42:11.99	53.58	12.47	-54.3	-69.3	3.8	1.49e+00	0	40	104	0	79	21080
2026-01-22 05:42:15.02	53.18	12.69	-54.3	-69.3	3.8	1.49e+00	0	41	104	0	79	21103
2026-01-22 05:42:18.04	52.77	12.90	-54.2	-69.3	3.8	1.49e+00	0	41	104	0	79	21047
2026-01-22 05:42:21.07	52.36	13.11	-54.2	-69.3	3.8	1.49e+00	0	41	104	0	79	21063
2026-01-22 05:42:24.10	51.93	13.33	-54.2	-69.3	3.8	1.49e+00	0	40	104	0	79	21054
2026-01-22 05:42:27.12	51.51	13.54	-54.2	-69.3	3.8	1.49e+00	0	40	104	0	79	21072
2026-01-22 05:42:30.15	51.07	13.76	-54.2	-69.3	3.8	1.49e+00	0	41	104	0	79	21024
2026-01-22 05:42:33.17	50.63	13.97	-54.2	-69.2	3.8	1.49e+00	0	40	104	0	79	20983
2026-01-22 05:42:36.19	50.19	14.19	-54.2	-69.2	3.8	1.49e+00	0	40	104	0	79	21005
2026-01-22 05:42:39.21	49.73	14.40	-54.2	-69.2	3.8	1.49e+00	0	41	104	0	79	20964
2026-01-22 05:42:42.24	49.27	14.62	-54.2	-69.2	3.8	1.49e+00	0	40	104	0	79	20992
2026-01-22 05:42:45.26	48.81	14.84	-54.2	-69.2	3.8	1.49e+00	0	40	104	0	79	20928
2026-01-22 05:42:48.29	48.33	15.05	-54.2	-69.2	3.8	1.49e+00	0	41	104	0	79	20961
2026-01-22 05:42:51.31	47.85	15.27	-54.2	-69.2	3.8	1.49e+00	0	41	104	0	79	20962
2026-01-22 05:42:54.34	47.36	15.48	-54.2	-69.2	3.8	1.49e+00	0	40	104	0	79	20884
2026-01-22 05:42:57.37	46.86	15.70	-54.2	-69.2	3.8	1.49e+00	0	41	104	0	79	20902
2026-01-22 05:43:00.39	46.36	15.91	-54.2	-69.2	3.8	1.49e+00	0	41	104	0	79	20904
2026-01-22 05:43:03.42	45.85	16.13	-54.2	-69.2	3.8	1.49e+00	0	41	104	0	79	20952
2026-01-22 05:43:06.44	45.34	16.34	-54.2	-69.2	3.8	1.49e+00	0	41	104	0	79	20891
2026-01-22 05:43:09.47	44.81	16.56	-54.2	-69.2	3.8	1.49e+00	0	41	104	0	79	20977
2026-01-22 05:43:12.49	44.28	16.77	-54.2	-69.2	3.8	1.49e+00	0	41	104	0	79	20962
2026-01-22 05:43:15.52	43.74	16.98	-54.2	-69.2	3.8	1.49e+00	0	41	104	0	79	20944
2026-01-22 05:43:18.54	43.19	17.19	-54.2	-69.2	3.8	1.49e+00	0	41	104	0	79	20905
2026-01-22 05:43:21.57	42.63	17.40	-54.2	-69.2	3.8	1.49e+00	0	40	104	0	79	20975
2026-01-22 05:43:24.59	42.07	17.61	-54.2	-69.2	3.8	1.49e+00	0	40	104	0	79	20926
2026-01-22 05:43:27.62	41.50	17.82	-54.2	-69.2	3.8	1.49e+00	0	41	104	0	79	20922
2026-01-22 05:43:30.65	40.91	18.02	-54.2	-69.2	3.8	1.49e+00	0	41	104	0	79	20944
2026-01-22 05:43:33.67	40.33	18.23	-54.2	-69.2	3.8	1.49e+00	0	41	104	0	79	20873
2026-01-22 05:43:36.70	39.73	18.43	-54.2	-69.2	3.8	1.49e+00	0	41	104	0	79	20893
2026-01-22 05:43:39.73	39.13	18.64	-54.2	-69.2	3.8	1.49e+00	0	41	104	0	79	20907
2026-01-22 05:43:42.75	38.51	18.84	-54.2	-69.2	3.8	1.49e+00	0	41	104	0	79	20906
2026-01-22 05:43:45.78	37.89	19.04	-54.2	-69.2	3.8	1.49e+00	0	41	104	0	79	20912
2026-01-22 05:43:48.80	37.27	19.23	-54.2	-69.2	3.8	1.49e+00	0	41	104	0	79	20920
2026-01-22 05:43:51.83	36.63	19.43	-54.2	-69.2	3.8	1.49e+00	0	41	104	0	79	20852
2026-01-22 05:43:54.86	35.98	19.62	-54.2	-69.2	3.8	1.49e+00	0	41	104	0	79	20908
2026-01-22 05:43:57.88	35.33	19.81	-54.2	-69.2	3.8	1.49e+00	0	41	104	0	79	20933
2026-01-22 05:44:00.91	34.67	20.00	-54.2	-69.2	3.8	1.49e+00	0	41	104	0	79	20933
2026-01-22 05:44:03.93	34.00	20.18	-54.2	-69.2	3.8	1.49e+00	0	41	104	0	79	20860
2026-01-22 05:44:06.96	33.32	20.36	-54.2	-69.2	3.8	1.49e+00	0	41	104	0	79	20913
2026-01-22 05:44:09.99	32.63	20.54	-54.2	-69.2	3.8	1.49e+00	0	41	104	0	79	20909
2026-01-22 05:44:13.01	31.94	20.72	-54.2	-69.2	3.8	1.49e+00	0	41	104	0	79	20904
2026-01-22 05:44:16.04	31.24	20.89	-54.2	-69.2	3.8	1.49e+00	0	41	104	0	79	20853
2026-01-22 05:44:19.06	30.53	21.06	-54.2	-69.2	3.8	1.49e+00	0	40	104	0	79	20838
2026-01-22 05:44:22.09	29.81	21.22	-54.2	-69.2	3.8	1.49e+00	0	40	104	0	79	20801
2026-01-22 05:44:25.11	29.09	21.38	-54.2	-69.2	3.8	1.49e+00	0	41	104	0	79	20809
2026-01-22 05:44:28.14	28.35	21.54	-54.1	-69.2	3.8	1.49e+00	0	41	104	0	79	20815
2026-01-22 05:44:31.17	27.61	21.70	-54.1	-69.2	3.8	1.49e+00	0	41	104	0	79	20798
2026-01-22 05:44:34.19	26.86	21.84	-54.1	-69.1	3.8	1.49e+00	0	41	104	0	79	20745
2026-01-22 05:44:37.21	26.11	21.99	-54.1	-69.2	3.8	1.49e+00	0	41	104	0	79	20777
2026-01-22 05:44:40.24	25.35	22.13	-54.1	-69.1	3.8	1.49e+00	0	41	104	0	79	20770
2026-01-22 05:44:43.27	24.58	22.27	-54.1	-69.1	3.8	1.49e+00	0	41	104	0	79	20725
2026-01-22 05:44:46.30	23.80	22.40	-54.1	-69.1	3.8	1.49e+00	0	41	104	0	79	20711
2026-01-22 05:44:49.32	23.02	22.52	-54.1	-69.1	3.8	1.49e+00	0	41	104	0	79	20705
2026-01-22 05:44:52.35	22.23	22.64	-54.1	-69.2	3.8	1.49e+00	0	41	104	0	79	20798
2026-01-22 05:44:55.37	21.44	22.76	-54.1	-69.1	3.8	1.49e+00	0	41	104	0	79	20758
2026-01-22 05:44:58.39	20.64	22.87	-54.1	-69.1	3.8	1.49e+00	0	41	104	0	79	20768
2026-01-22 05:45:01.42	19.84	22.97	-54.1	-69.2	3.8	1.49e+00	0	41	104	0	79	20803
2026-01-22 05:45:04.45	19.02	23.07	-54.1	-69.1	3.8	1.49e+00	0	41	104	0	79	20728
2026-01-22 05:45:07.47	18.21	23.16	-54.1	-69.1	3.8	1.49e+00	0	41	104	0	79	20751
2026-01-22 05:45:10.50	17.39	23.25	-54.1	-69.2	3.8	1.49e+00	0	41	104	0	79	20780
2026-01-22 05:45:13.52	16.56	23.33	-54.1	-69.2	3.8	1.49e+00	0	41	104	0	79	20777
2026-01-22 05:45:16.55	15.73	23.40	-54.1	-69.1	3.8	1.49e+00	0	41	104	0	79	20754
2026-01-22 05:45:19.57	14.90	23.47	-54.1	-69.1	3.8	1.49e+00	0	41	104	0	79	20714
2026-01-22 05:45:22.59	14.07	23.53	-54.1	-69.1	3.8	1.49e+00	0	41	104	0	79	20724
2026-01-22 05:45:25.62	13.23	23.58	-54.1	-69.1	3.8	1.49e+00	0	41	104	0	79	20722
2026-01-22 05:45:28.64	12.39	23.63	-54.1	-69.1	3.8	1.49e+00	0	40	104	0	79	20744
2026-01-22 05:45:31.67	11.54	23.67	-54.1	-69.1	3.8	1.49e+00	0	41	104	0	79	20680
2026-01-22 05:45:34.69	10.70	23.71	-54.1	-69.1	3.8	1.49e+00	0	41	104	0	79	20708
2026-01-22 05:45:37.71	9.85	23.74	-54.1	-69.1	3.8	1.49e+00	0	41	104	0	79	20709
2026-01-22 05:45:40.73	9.00	23.76	-54.1	-69.1	3.8	1.49e+00	0	41	104	0	79	20763
2026-01-22 05:45:43.76	8.15	23.77	-54.1	-69.1	3.8	1.49e+00	0	41	104	0	79	20667
2026-01-22 05:45:46.78	7.30	23.78	-54.1	-69.1	3.8	1.49e+00	0	41	104	0	79	20709
2026-01-22 05:45:49.81	6.45	23.78	-54.1	-69.1	3.8	1.49e+00	0	41	104	0	79	20709
2026-01-22 05:45:52.83	5.60	23.77	-54.1	-69.1	3.8	1.49e+00	0	41	104	0	79	20679
2026-01-22 05:45:55.85	4.75	23.76	-54.1	-69.1	3.8	1.49e+00	0	41	104	0	79	20693
2026-01-22 05:45:58.88	3.90	23.74	-54.1	-69.1	3.8	1.49e+00	0	41	104	0	79	20663
2026-01-22 05:46:01.90	3.05	23.72	-54.1	-69.1	3.8	1.49e+00	0	41	104	0	79	20701
2026-01-22 05:46:04.93	2.21	23.68	-54.1	-69.1	3.8	1.49e+00	0	41	104	0	79	20729
2026-01-22 05:46:07.96	1.36	23.64	-54.1	-69.1	3.8	1.49e+00	0	41	104	0	79	20697
2026-01-22 05:46:10.98	0.52	23.60	-54.1	-69.1	3.8	1.49e+00	0	41	104	0	79	20706
2026-01-22 05:46:14.01	359.68	23.54	-54.1	-69.1	3.8	1.49e+00	0	41	104	0	79	20742
2026-01-22 05:46:17.04	358.84	23.48	-54.1	-69.1	3.8	1.49e+00	0	41	104	0	79	20643
2026-01-22 05:46:20.06	358.01	23.42	-54.1	-69.1	3.8	1.49e+00	0	40	104	0	79	20668
2026-01-22 05:46:23.08	357.18	23.34	-54.1	-69.1	3.8	1.49e+00	0	41	104	0	79	20707
2026-01-22 05:46:26.11	356.36	23.27	-54.1	-69.1	3.8	1.49e+00	0	41	104	0	79	20648
2026-01-22 05:46:29.13	355.54	23.18	-54.1	-69.1	3.8	1.49e+00	0	41	104	0	79	20739
2026-01-22 05:46:32.15	354.72	23.09	-54.1	-69.1	3.8	1.49e+00	0	41	104	0	79	20665
2026-01-22 05:46:35.17	353.91	22.99	-54.1	-69.1	3.8	1.49e+00	0	41	104	0	79	20687
2026-01-22 05:46:38.20	353.10	22.89	-54.1	-69.1	3.8	1.49e+00	0	41	104	0	79	20679
2026-01-22 05:46:41.22	352.30	22.78	-54.1	-69.1	3.8	1.49e+00	0	41	104	0	79	20698
2026-01-22 05:46:44.25	351.51	22.67	-54.1	-69.1	3.8	1.49e+00	0	41	104	0	79	20660
2026-01-22 05:46:47.28	350.72	22.55	-54.1	-69.1	3.8	1.49e+00	0	41	104	0	79	20682
2026-01-22 05:46:50.30	349.94	22.43	-54.1	-69.1	3.8	1.49e+00	0	41	104	0	79	20733
2026-01-22 05:46:53.33	349.16	22.30	-54.1	-69.1	3.8	1.49e+00	0	41	104	0	79	20718
2026-01-22 05:46:56.36	348.39	22.16	-54.1	-69.1	3.8	1.49e+00	0	41	104	0	79	20627
2026-01-22 05:46:59.38	347.63	22.02	-54.1	-69.1	3.8	1.49e+00	0	41	104	0	79	20634
2026-01-22 05:47:02.41	346.87	21.88	-54.1	-69.1	3.8	1.49e+00	0	41	104	0	79	20611
2026-01-22 05:47:05.43	346.12	21.73	-54.1	-69.1	3.8	1.49e+00	0	41	104	0	79	20666
2026-01-22 05:47:08.46	345.38	21.58	-54.1	-69.1	3.8	1.49e+00	0	41	104	0	79	20630
2026-01-22 05:47:11.48	344.65	21.42	-54.1	-69.1	3.8	1.49e+00	0	41	104	0	79	20610
2026-01-22 05:47:14.50	343.92	21.26	-54.1	-69.1	3.8	1.49e+00	0	41	104	0	79	20586
2026-01-22 05:47:17.53	343.20	21.10	-54.1	-69.1	3.8	1.49e+00	0	41	104	0	79	20620
2026-01-22 05:47:20.55	342.49	20.93	-54.1	-69.1	3.8	1.49e+00	0	41	104	0	79	20581
2026-01-22 05:47:23.58	341.79	20.76	-54.1	-69.1	3.8	1.49e+00	0	41	104	0	79	20622
2026-01-22 05:47:26.61	341.09	20.58	-54.1	-69.1	3.8	1.49e+00	0	41	104	0	79	20586
2026-01-22 05:47:29.63	340.41	20.41	-54.0	-69.1	3.8	1.49e+00	0	41	104	0	79	20561
2026-01-22 05:47:32.65	339.73	20.23	-54.0	-69.1	3.8	1.49e+00	0	41	104	0	79	20617
2026-01-22 05:47:35.68	339.06	20.04	-54.0	-69.1	3.8	1.49e+00	0	41	104	0	79	20590
2026-01-22 05:47:38.71	338.39	19.85	-54.1	-69.1	3.8	1.49e+00	0	41	104	0	79	20573
2026-01-22 05:47:41.73	337.74	19.67	-54.0	-69.1	3.8	1.49e+00	0	41	104	0	79	20596
2026-01-22 05:47:44.76	337.09	19.47	-54.1	-69.1	3.8	1.49e+00	0	41	104	0	79	20578
2026-01-22 05:47:47.78	336.45	19.28	-54.0	-69.1	3.8	1.49e+00	0	41	104	0	79	20621
2026-01-22 05:47:50.81	335.82	19.08	-54.0	-69.1	3.8	1.49e+00	0	41	104	0	79	20542
2026-01-22 05:47:53.83	335.20	18.89	-54.0	-69.1	3.8	1.49e+00	0	41	104	0	79	20560
2026-01-22 05:47:56.86	334.59	18.69	-54.0	-69.0	3.8	1.49e+00	0	41	104	0	79	20538
2026-01-22 05:47:59.89	333.98	18.48	-54.0	-69.0	3.8	1.49e+00	0	41	104	0	79	20536
2026-01-22 05:48:02.91	333.39	18.28	-54.0	-69.1	3.8	1.49e+00	0	41	104	0	79	20596
2026-01-22 05:48:05.94	332.80	18.08	-54.0	-69.0	3.8	1.49e+00	0	41	104	0	79	20499
2026-01-22 05:48:08.96	332.21	17.87	-54.0	-69.1	3.8	1.49e+00	0	41	104	0	79	20552
2026-01-22 05:48:11.99	331.64	17.66	-54.0	-69.0	3.8	1.49e+00	0	41	104	0	79	20486
2026-01-22 05:48:15.01	331.08	17.45	-54.0	-69.1	3.8	1.49e+00	0	41	104	0	79	20549
2026-01-22 05:48:18.04	330.52	17.24	-54.0	-69.1	3.8	1.49e+00	0	41	104	0	79	20566
2026-01-22 05:48:21.07	329.97	17.03	-54.0	-69.1	3.8	1.49e+00	0	41	104	0	79	20575
2026-01-22 05:48:24.09	329.43	16.82	-54.0	-69.0	3.8	1.49e+00	0	41	104	0	79	20530
2026-01-22 05:48:27.12	328.89	16.61	-54.0	-69.0	3.8	1.49e+00	0	41	104	0	79	20536
2026-01-22 05:48:30.14	328.37	16.40	-54.0	-69.1	3.8	1.49e+00	0	41	104	0	79	20554
2026-01-22 05:48:33.16	327.85	16.18	-54.0	-69.1	3.8	1.49e+00	0	41	104	0	79	20577
2026-01-22 05:48:36.19	327.34	15.97	-54.0	-69.1	3.8	1.49e+00	0	41	104	0	79	20582
2026-01-22 05:48:39.22	326.83	15.76	-54.0	-69.1	3.8	1.49e+00	0	41	104	0	79	20570
2026-01-22 05:48:42.24	326.34	15.54	-54.0	-69.0	3.8	1.49e+00	0	41	104	0	79	20514
2026-01-22 05:48:45.27	325.84	15.33	-54.1	-69.1	3.8	1.49e+00	0	41	104	0	79	20617
2026-01-22 05:48:48.30	325.36	15.11	-54.0	-69.1	3.8	1.49e+00	0	41	104	0	79	20570
2026-01-22 05:48:51.32	324.89	14.89	-54.0	-69.0	3.8	1.49e+00	0	41	104	0	79	20526
2026-01-22 05:48:54.35	324.42	14.68	-54.0	-69.0	3.8	1.49e+00	0	41	104	0	79	20534
2026-01-22 05:48:57.37	323.96	14.46	-54.0	-69.0	3.8	1.49e+00	0	41	104	0	79	20505
2026-01-22 05:49:00.39	323.50	14.25	-54.0	-69.0	3.8	1.49e+00	0	41	104	0	79	20479
2026-01-22 05:49:03.42	323.05	14.03	-54.0	-69.0	3.8	1.49e+00	0	41	104	0	79	20523
2026-01-22 05:49:06.44	322.61	13.82	-54.0	-69.0	3.8	1.49e+00	0	41	104	0	79	20489
2026-01-22 05:49:09.46	322.18	13.60	-54.0	-69.1	3.8	1.49e+00	0	41	104	0	79	20545
2026-01-22 05:49:12.48	321.75	13.39	-54.0	-69.0	3.8	1.49e+00	0	41	104	0	79	20437
2026-01-22 05:49:15.51	321.33	13.17	-54.0	-69.0	3.8	1.49e+00	0	41	104	0	79	20436
2026-01-22 05:49:18.53	320.91	12.96	-54.0	-69.0	3.8	1.49e+00	0	41	104	0	79	20455
2026-01-22 05:49:21.56	320.50	12.75	-54.0	-69.0	3.8	1.49e+00	0	41	104	0	79	20444
2026-01-22 05:49:24.58	320.10	12.53	-54.0	-69.0	3.8	1.49e+00	0	41	104	0	79	20453
2026-01-22 05:49:27.61	319.70	12.32	-54.0	-69.0	3.8	1.49e+00	0	41	104	0	79	20442
2026-01-22 05:49:30.63	319.31	12.11	-54.0	-69.0	3.8	1.49e+00	0	41	104	0	79	20499
2026-01-22 05:49:33.66	318.92	11.90	-54.0	-69.0	3.8	1.49e+00	0	41	104	0	79	20435
2026-01-22 05:49:36.68	318.54	11.69	-54.0	-69.0	3.8	1.49e+00	0	41	104	0	79	20435
2026-01-22 05:49:39.71	318.17	11.47	-54.0	-69.0	3.8	1.49e+00	0	41	104	0	79	20451
2026-01-22 05:49:42.73	317.80	11.27	-54.0	-69.0	3.8	1.49e+00	0	41	104	0	79	20336
2026-01-22 05:49:45.76	317.43	11.06	-54.0	-69.0	3.8	1.49e+00	0	41	104	0	79	20405
2026-01-22 05:49:48.79	317.07	10.85	-54.0	-69.0	3.8	1.49e+00	0	41	104	0	79	20398
2026-01-22 05:49:51.81	316.72	10.64	-54.0	-69.0	3.8	1.49e+00	0	41	104	0	79	20434
2026-01-22 05:49:54.84	316.37	10.43	-54.0	-69.0	3.8	1.49e+00	0	41	104	0	79	20419
2026-01-22 05:49:57.86	316.03	10.22	-54.0	-69.0	3.8	1.49e+00	0	41	104	0	79	20385
2026-01-22 05:50:00.89	315.69	10.02	-54.0	-69.0	3.8	1.49e+00	0	41	104	0	79	20485
2026-01-22 05:50:03.91	315.35	9.81	-54.0	-69.0	3.8	1.49e+00	0	41	104	0	79	20460
2026-01-22 05:50:06.93	315.03	9.61	-54.0	-69.0	3.8	1.49e+00	0	41	104	0	79	20400
2026-01-22 05:50:09.96	314.70	9.41	-54.0	-69.0	3.8	1.49e+00	0	41	104	0	79	20415
2026-01-22 05:50:12.98	314.38	9.20	-54.0	-69.0	3.8	1.49e+00	0	41	104	0	79	20392
2026-01-22 05:50:16.01	314.07	9.00	-54.0	-69.0	3.8	1.49e+00	0	41	104	0	79	20436
2026-01-22 05:50:19.04	313.75	8.80	-54.0	-69.0	3.8	1.49e+00	0	41	104	0	79	20363
2026-01-22 05:50:22.06	313.45	8.60	-54.0	-69.0	3.8	1.49e+00	0	41	104	0	79	20370
2026-01-22 05:50:25.09	313.15	8.40	-54.0	-69.0	3.8	1.49e+00	0	41	104	0	79	20417
2026-01-22 05:50:28.11	312.85	8.20	-54.0	-69.0	3.8	1.49e+00	0	41	104	0	79	20416
2026-01-22 05:50:31.14	312.56	8.00	-54.0	-69.0	3.8	1.49e+00	0	41	104	0	79	20374
2026-01-22 05:50:34.16	312.27	7.80	-54.0	-69.0	3.8	1.49e+00	0	41	104	0	79	20414
2026-01-22 05:50:37.18	311.98	7.61	-54.0	-69.0	3.8	1.49e+00	0	41	104	0	79	20397
2026-01-22 05:50:40.21	311.70	7.41	-54.0	-69.0	3.8	1.49e+00	0	41	104	0	79	20379
2026-01-22 05:50:43.24	311.42	7.22	-54.0	-69.0	3.8	1.49e+00	0	41	104	0	79	20442
2026-01-22 05:50:46.27	311.15	7.02	-54.0	-69.0	3.8	1.49e+00	0	41	104	0	79	20436
2026-01-22 05:50:49.29	310.88	6.83	-54.0	-69.0	3.8	1.49e+00	0	41	104	0	79	20391
2026-01-22 05:50:52.31	310.61	6.64	-54.0	-69.0	3.8	1.49e+00	0	41	104	0	79	20381
2026-01-22 05:50:55.34	310.35	6.45	-54.0	-69.0	3.8	1.49e+00	0	41	104	0	79	20347
2026-01-22 05:50:58.36	310.09	6.25	-53.9	-69.0	3.8	1.49e+00	0	41	104	0	79	20391
2026-01-22 05:51:01.38	309.83	6.07	-54.0	-69.0	3.8	1.49e+00	0	41	104	0	79	20325
2026-01-22 05:51:04.41	309.58	5.88	-54.0	-69.0	3.8	1.49e+00	0	41	104	0	79	20359
2026-01-22 05:51:07.43	309.33	5.69	-54.0	-68.9	3.8	1.49e+00	0	41	104	0	79	20300
2026-01-22 05:51:10.46	309.09	5.50	-54.0	-69.0	3.8	1.49e+00	0	41	104	0	79	20355
2026-01-22 05:51:13.49	308.84	5.31	-53.9	-69.0	3.8	1.49e+00	0	41	104	0	79	20365
2026-01-22 05:51:16.51	308.61	5.13	-53.9	-68.9	3.8	1.49e+00	0	41	104	0	79	20297
2026-01-22 05:51:19.53	308.37	4.94	-53.9	-69.0	3.8	1.49e+00	0	41	104	0	79	20346
2026-01-22 05:51:22.56	308.14	4.76	-53.9	-69.0	3.8	1.49e+00	0	41	104	0	79	20319
2026-01-22 05:51:25.58	307.91	4.58	-53.9	-69.0	3.8	1.49e+00	0	41	104	0	79	20314
2026-01-22 05:51:28.61	307.68	4.39	-53.9	-68.9	3.8	1.49e+00	0	41	104	0	79	20272
2026-01-22 05:51:31.63	307.46	4.21	-53.9	-69.0	3.8	1.49e+00	0	41	104	0	79	20384
2026-01-22 05:51:34.65	307.24	4.03	-53.9	-69.0	3.8	1.49e+00	0	41	104	0	79	20304
2026-01-22 05:51:37.68	307.02	3.85	-54.0	-69.0	3.8	1.49e+00	0	41	104	0	79	20435
2026-01-22 05:51:40.70	306.80	3.67	-54.0	-69.0	3.8	1.49e+00	0	41	104	0	79	20409
2026-01-22 05:51:43.72	306.59	3.49	-54.0	-69.0	3.8	1.49e+00	0	41	104	0	79	20383
2026-01-22 05:51:46.75	306.38	3.32	-53.9	-69.0	3.8	1.49e+00	0	41	104	0	79	20360
2026-01-22 05:51:49.77	306.17	3.14	-54.0	-69.0	3.8	1.49e+00	0	41	104	0	79	20373
2026-01-22 05:51:52.80	305.97	2.96	-53.9	-68.9	3.8	1.49e+00	0	41	104	0	79	20293
2026-01-22 05:51:55.82	305.77	2.79	-53.9	-69.0	3.8	1.49e+00	0	41	104	0	79	20332
2026-01-22 05:51:58.85	305.57	2.61	-53.9	-69.0	3.8	1.49e+00	0	41	104	0	79	20325
2026-01-22 05:52:01.88	305.37	2.44	-53.9	-69.0	3.8	1.49e+00	0	41	104	0	79	20388
2026-01-22 05:52:04.90	305.17	2.27	-53.9	-69.0	3.8	1.49e+00	0	41	104	0	79	20336
2026-01-22 05:52:07.93	304.98	2.09	-53.9	-69.0	3.8	1.49e+00	0	41	104	0	79	20319

#Closed at: 2026-01-22 05:52:10
#Recorded file [0 MB]: D:/lorett/data/31041_260122_083928.dat