passes_logs/2026/01/22/R3.2S_Murmansk/R3.2S_Murmansk__20260122_113524_FENGYUN_3D_rec.log

#Pass ID: 20260122_113524_FENGYUN 3D
#Satellite: FENGYUN 3D
#Configuration: FENGYUN 3D
#almurnet v.1.7.20251203
#Start time: 2026-01-22 11:35:24

#Version: 2.2.20231116
#Station: R3.2S_Murmansk
#Location: 33.079688 lon 68.888172 lat
#TLE: 1 43010U 17072A   26021.48744220  .00000253  00000+0  14133-3 0  9991
#TLE: 2 43010  98.9948 353.4037 0002485  97.2578 262.8880 14.19697766424177

#Time	Az	El	Level	Level2	SNR	BER	BlckErr	Temp	State	Recorded	gain1	gain2
2026-01-22 11:35:24.23	151.86	1.97	-54.3	-66.3	3.8	8.47e-01	0	39	0	0	79	15047
2026-01-22 11:35:28.26	151.87	2.23	-54.3	-66.3	3.8	8.46e-01	0	39	104	0	79	15047
2026-01-22 11:35:32.29	151.89	2.49	-54.6	-66.6	3.8	8.46e-01	0	39	104	0	79	15454
2026-01-22 11:35:36.32	151.90	2.76	-54.5	-66.5	3.8	8.45e-01	0	39	104	0	79	15346
2026-01-22 11:35:40.35	151.92	3.03	-54.3	-66.3	3.8	8.46e-01	0	39	104	0	79	14894
2026-01-22 11:35:44.38	151.94	3.30	-54.0	-66.0	3.8	8.47e-01	0	39	104	0	79	14467
2026-01-22 11:35:48.42	151.95	3.57	-53.5	-65.5	3.8	8.46e-01	0	40	104	0	79	13682
2026-01-22 11:35:52.45	151.97	3.84	-52.6	-63.8	3.8	8.46e-01	0	40	104	0	77	12539
2026-01-22 11:35:56.48	151.98	4.12	-51.6	-57.8	5.8	6.57e-01	0	40	0	0	75	7083
2026-01-22 11:36:00.52	152.00	4.40	-47.8	-49.9	13.6	2.74e-05	0	40	0	23068672	67	4522
2026-01-22 11:36:04.55	152.02	4.69	-44.8	-46.1	17.4	0.00e+00	0	40	0	46137344	61	4140
2026-01-22 11:36:08.59	152.03	4.97	-43.9	-45.0	18.9	0.00e+00	0	40	0	68157440	58	4330
2026-01-22 11:36:12.62	152.05	5.26	-45.9	-47.4	16.4	0.00e+00	0	40	0	91226112	62	4494
2026-01-22 11:36:16.66	152.06	5.56	-43.4	-44.4	19.4	0.00e+00	0	40	0	114294784	58	4049
2026-01-22 11:36:20.69	152.08	5.86	-43.0	-44.1	19.8	0.00e+00	0	40	0	136314880	58	3883
2026-01-22 11:36:24.73	152.10	6.16	-42.9	-44.0	20.0	0.00e+00	0	40	0	159383552	57	4055
2026-01-22 11:36:28.76	152.11	6.46	-42.5	-43.5	20.4	0.00e+00	0	40	0	182452224	56	4083
2026-01-22 11:36:32.79	152.13	6.77	-42.5	-43.5	20.5	0.00e+00	0	40	0	204472320	56	4068
2026-01-22 11:36:36.82	152.15	7.08	-42.2	-43.2	20.8	0.00e+00	0	40	0	227540992	56	3931
2026-01-22 11:36:40.86	152.16	7.39	-42.3	-43.3	20.7	0.00e+00	0	40	0	250609664	56	3976
2026-01-22 11:36:44.89	152.18	7.71	-42.1	-43.1	21.0	0.00e+00	0	40	0	272629760	56	3876
2026-01-22 11:36:48.92	152.20	8.03	-42.0	-42.9	21.1	0.00e+00	0	40	0	295698432	56	3819
2026-01-22 11:36:52.96	152.21	8.36	-42.1	-43.0	21.0	0.00e+00	0	40	0	317718528	55	4077
2026-01-22 11:36:56.99	152.23	8.69	-41.8	-42.7	21.3	0.00e+00	0	40	0	340787200	55	3944
2026-01-22 11:37:01.02	152.25	9.03	-41.7	-42.6	21.4	0.00e+00	0	40	0	363855872	55	3899
2026-01-22 11:37:05.06	152.26	9.37	-41.8	-42.7	21.4	0.00e+00	0	40	0	385875968	55	3919
2026-01-22 11:37:09.08	152.28	9.72	-41.5	-42.4	21.6	0.00e+00	0	40	0	408944640	55	3809
2026-01-22 11:37:13.12	152.30	10.07	-41.6	-42.5	21.6	0.00e+00	0	40	0	430964736	55	3844
2026-01-22 11:37:17.14	152.32	10.42	-41.6	-42.5	21.6	0.00e+00	0	40	0	454033408	55	3863
2026-01-22 11:37:21.18	152.33	10.78	-41.7	-42.6	21.6	0.00e+00	0	40	0	477102080	55	3876
2026-01-22 11:37:25.21	152.35	11.15	-41.5	-42.4	21.7	0.00e+00	0	40	0	499122176	54	4014
2026-01-22 11:37:29.24	152.37	11.52	-41.5	-42.3	21.8	0.00e+00	0	40	0	522190848	54	3996
2026-01-22 11:37:33.28	152.39	11.90	-41.4	-42.2	21.9	0.00e+00	0	40	0	545259520	54	3951
2026-01-22 11:37:37.31	152.40	12.28	-41.3	-42.1	22.0	0.00e+00	0	41	0	567279616	54	3888
2026-01-22 11:37:41.35	152.42	12.67	-41.1	-42.0	22.2	0.00e+00	0	41	0	590348288	54	3826
2026-01-22 11:37:45.38	152.44	13.06	-41.0	-41.9	22.3	0.00e+00	0	41	0	613416960	54	3782
2026-01-22 11:37:49.41	152.46	13.46	-40.9	-41.7	22.4	0.00e+00	0	41	0	635437056	53	3944
2026-01-22 11:37:53.45	152.48	13.87	-40.6	-41.5	22.7	0.00e+00	0	41	0	658505728	53	3836
2026-01-22 11:37:57.48	152.49	14.29	-40.6	-41.4	22.7	0.00e+00	0	41	0	680525824	53	3814
2026-01-22 11:38:01.52	152.51	14.71	-40.4	-41.2	22.9	0.00e+00	0	41	0	703594496	52	3954
2026-01-22 11:38:05.55	152.53	15.14	-40.4	-41.2	22.9	0.00e+00	0	41	0	726663168	52	3929
2026-01-22 11:38:09.59	152.55	15.58	-40.2	-41.1	23.0	0.00e+00	0	41	0	748683264	52	3870
2026-01-22 11:38:13.62	152.57	16.03	-40.1	-40.9	23.2	0.00e+00	0	41	0	771751936	52	3809
2026-01-22 11:38:17.66	152.59	16.48	-40.0	-40.8	23.3	0.00e+00	0	41	0	794820608	51	3996
2026-01-22 11:38:21.69	152.61	16.95	-40.1	-40.9	23.3	0.00e+00	0	41	0	816840704	51	4017
2026-01-22 11:38:25.72	152.63	17.42	-39.8	-40.6	23.6	0.00e+00	0	41	0	839909376	51	3881
2026-01-22 11:38:29.76	152.64	17.90	-39.7	-40.4	23.7	0.00e+00	0	41	0	862978048	51	3822
2026-01-22 11:38:33.79	152.66	18.39	-39.4	-40.2	24.0	0.00e+00	0	41	0	884998144	50	3933
2026-01-22 11:38:37.83	152.68	18.89	-39.4	-40.1	24.0	0.00e+00	0	41	0	908066816	50	3902
2026-01-22 11:38:41.86	152.70	19.41	-39.2	-39.9	24.2	0.00e+00	0	41	0	931135488	50	3810
2026-01-22 11:38:45.89	152.72	19.93	-39.2	-39.9	24.2	0.00e+00	0	41	0	953155584	50	3810
2026-01-22 11:38:49.93	152.74	20.46	-39.0	-39.8	24.4	0.00e+00	0	41	0	976224256	50	3738
2026-01-22 11:38:53.96	152.76	21.01	-38.9	-39.7	24.5	0.00e+00	0	41	0	999292928	49	3914
2026-01-22 11:38:58.00	152.79	21.56	-38.8	-39.5	24.5	0.00e+00	0	41	0	1021313024	49	3864
2026-01-22 11:39:02.03	152.81	22.13	-38.9	-39.7	24.4	0.00e+00	0	41	0	1044381696	49	3925
2026-01-22 11:39:06.07	152.83	22.72	-39.0	-39.7	24.3	0.00e+00	0	41	0	1066401792	49	3954
2026-01-22 11:39:10.10	152.85	23.31	-38.8	-39.6	24.5	0.00e+00	0	41	0	1089470464	49	3897
2026-01-22 11:39:14.14	152.87	23.93	-39.0	-39.7	24.4	0.00e+00	0	41	0	1112539136	49	3958
2026-01-22 11:39:18.17	152.89	24.55	-38.7	-39.4	24.6	0.00e+00	0	41	0	1134559232	49	3824
2026-01-22 11:39:22.20	152.91	25.19	-38.4	-39.1	25.0	0.00e+00	0	41	0	1157627904	48	3892
2026-01-22 11:39:26.23	152.94	25.85	-38.4	-39.2	24.9	0.00e+00	0	41	0	1180696576	48	3928
2026-01-22 11:39:30.26	152.96	26.52	-38.4	-39.1	25.0	0.00e+00	0	41	0	1202716672	48	3911
2026-01-22 11:39:34.30	152.98	27.21	-38.3	-39.0	25.1	0.00e+00	0	41	0	1225785344	48	3851
2026-01-22 11:39:38.33	153.01	27.92	-38.3	-39.0	25.0	0.00e+00	0	41	0	1248854016	48	3865
2026-01-22 11:39:42.36	153.03	28.64	-38.2	-38.9	25.1	0.00e+00	0	41	0	1270874112	48	3822
2026-01-22 11:39:46.39	153.06	29.39	-38.0	-38.7	25.3	0.00e+00	0	41	0	1293942784	48	3723
2026-01-22 11:39:50.42	153.08	30.16	-37.5	-38.4	25.1	0.00e+00	0	41	0	1317011456	46	4006
2026-01-22 11:39:54.46	153.11	30.94	-37.5	-38.2	25.2	0.00e+00	0	41	0	1339031552	46	3952
2026-01-22 11:39:58.49	153.13	31.75	-37.4	-38.1	25.3	0.00e+00	0	41	0	1362100224	46	3889
2026-01-22 11:40:02.52	153.16	32.59	-37.4	-38.2	25.3	0.00e+00	0	41	0	1385168896	46	3924
2026-01-22 11:40:06.56	153.19	33.44	-37.6	-38.3	25.1	0.00e+00	0	41	0	1407188992	46	3992
2026-01-22 11:40:10.59	153.21	34.32	-37.3	-38.0	25.4	0.00e+00	0	41	0	1429209088	46	3861
2026-01-22 11:40:14.62	153.24	35.23	-37.5	-38.3	25.2	0.00e+00	0	41	0	1452277760	46	3979
2026-01-22 11:40:18.65	153.27	36.16	-37.2	-37.9	25.6	0.00e+00	0	41	0	1475346432	46	3798
2026-01-22 11:40:22.68	153.30	37.12	-36.8	-37.5	25.9	0.00e+00	0	41	0	1497366528	45	3859
2026-01-22 11:40:26.72	153.33	38.11	-37.1	-37.7	26.1	0.00e+00	0	41	0	1520435200	45	3953
2026-01-22 11:40:30.75	153.37	39.13	-37.5	-38.2	25.7	0.00e+00	0	41	0	1543503872	45	4162
2026-01-22 11:40:34.78	153.40	40.18	-37.7	-38.3	25.6	0.00e+00	0	41	0	1565523968	45	4239
2026-01-22 11:40:38.81	153.43	41.26	-38.0	-38.7	25.3	0.00e+00	0	41	0	1588592640	46	4176
2026-01-22 11:40:42.84	153.47	42.38	-37.9	-38.6	25.4	0.00e+00	0	41	0	1611661312	46	4145
2026-01-22 11:40:46.87	153.51	43.53	-37.8	-38.5	25.5	0.00e+00	0	41	0	1633681408	46	4090
2026-01-22 11:40:50.90	153.55	44.71	-37.8	-38.5	25.6	0.00e+00	0	41	0	1656750080	46	4057
2026-01-22 11:40:54.94	153.59	45.94	-37.8	-38.5	25.6	0.00e+00	0	41	0	1679818752	46	4055
2026-01-22 11:40:58.97	153.63	47.20	-37.8	-38.5	25.5	0.00e+00	0	41	0	1701838848	46	4097
2026-01-22 11:41:03.00	153.68	48.49	-37.7	-38.4	25.7	0.00e+00	0	41	0	1724907520	46	4018
2026-01-22 11:41:07.04	153.73	49.83	-38.1	-38.8	25.3	0.00e+00	0	41	0	1747976192	46	4205
2026-01-22 11:41:11.07	153.78	51.21	-38.1	-38.8	25.3	0.00e+00	0	41	0	1769996288	47	3991
2026-01-22 11:41:15.10	153.83	52.63	-39.7	-40.4	24.5	0.00e+00	0	41	0	1792016384	50	4036
2026-01-22 11:41:19.14	153.89	54.10	-39.6	-40.3	24.6	0.00e+00	0	41	0	1815085056	50	3991
2026-01-22 11:41:23.17	153.96	55.60	-39.3	-39.9	24.9	0.00e+00	0	41	0	1838153728	50	3818
2026-01-22 11:41:27.20	154.02	57.15	-38.6	-39.2	25.5	0.00e+00	0	41	0	1860173824	49	3727
2026-01-22 11:41:31.23	154.10	58.74	-38.7	-39.4	25.3	0.00e+00	0	41	0	1883242496	49	3813
2026-01-22 11:41:35.26	154.18	60.38	-38.3	-39.0	25.7	0.00e+00	0	41	0	1906311168	48	3830
2026-01-22 11:41:39.30	154.28	62.06	-38.0	-38.6	26.0	0.00e+00	0	41	0	1928331264	48	3693
2026-01-22 11:41:43.33	154.38	63.78	-37.1	-37.7	26.3	0.00e+00	0	41	0	1951399936	46	3735
2026-01-22 11:41:47.36	154.50	65.54	-37.2	-37.9	26.1	0.00e+00	0	41	0	1974468608	46	3804
2026-01-22 11:41:51.39	154.64	67.34	-36.8	-37.4	26.5	0.00e+00	0	41	0	1996488704	45	3823
2026-01-22 11:41:55.42	154.80	69.18	-36.9	-37.6	26.4	0.00e+00	0	41	0	2019557376	44	4133
2026-01-22 11:41:59.46	154.99	71.06	-37.1	-37.8	26.3	0.00e+00	0	41	0	2042626048	45	3970
2026-01-22 11:42:03.49	155.23	72.97	-36.4	-37.1	26.7	0.00e+00	0	41	0	2064646144	44	3900
2026-01-22 11:42:07.52	155.52	74.92	-36.4	-37.0	26.8	0.00e+00	0	41	0	2087714816	44	3868
2026-01-22 11:42:11.55	155.90	76.89	-36.3	-36.9	27.0	0.00e+00	0	41	0	2110783488	44	3811
2026-01-22 11:42:15.58	156.42	78.89	-35.5	-36.2	27.5	0.00e+00	0	41	0	2132803584	42	3922
2026-01-22 11:42:19.62	157.16	80.92	-35.1	-35.7	27.8	0.00e+00	0	41	0	2154823680	41	3933
2026-01-22 11:42:23.65	158.33	82.95	-35.3	-36.0	27.7	0.00e+00	0	41	0	2177892352	41	4057
2026-01-22 11:42:27.68	160.45	85.00	-35.2	-35.8	27.7	0.00e+00	0	41	0	2200961024	41	4000
2026-01-22 11:42:31.71	165.50	87.04	-35.3	-35.9	27.7	0.00e+00	0	41	0	2222981120	41	4051
2026-01-22 11:42:35.75	190.96	88.98	-36.3	-37.0	26.7	0.00e+00	0	41	0	2246049792	43	4084
2026-01-22 11:42:39.78	306.98	88.59	-35.5	-36.1	27.6	0.00e+00	0	41	0	2269118464	42	3892
2026-01-22 11:42:43.81	322.72	86.60	-35.2	-35.9	27.7	0.00e+00	0	41	0	2291138560	42	3783
2026-01-22 11:42:47.84	326.75	84.56	-34.9	-35.6	27.9	0.00e+00	0	41	0	2314207232	41	3891
2026-01-22 11:42:51.88	328.59	82.51	-34.2	-34.8	28.5	0.00e+00	0	41	0	2337275904	40	3771
2026-01-22 11:42:55.91	329.64	80.48	-35.0	-35.7	27.9	0.00e+00	0	41	0	2359296000	40	4157
2026-01-22 11:42:59.94	330.32	78.46	-35.3	-35.9	27.8	0.00e+00	0	41	0	2382364672	41	4049
2026-01-22 11:43:03.97	330.80	76.47	-36.0	-36.7	27.1	0.00e+00	0	41	0	2405433344	42	4179
2026-01-22 11:43:08.01	331.16	74.50	-36.2	-36.9	26.9	0.00e+00	0	41	0	2427453440	43	4036
2026-01-22 11:43:12.04	331.44	72.56	-36.1	-36.8	27.1	0.00e+00	0	41	0	2450522112	43	3973
2026-01-22 11:43:16.08	331.66	70.66	-36.8	-37.5	26.6	0.00e+00	0	41	0	2473590784	44	4074
2026-01-22 11:43:20.12	331.85	68.79	-36.7	-37.3	26.8	0.00e+00	0	41	0	2495610880	44	3995
2026-01-22 11:43:24.15	332.00	66.96	-36.7	-37.4	26.7	0.00e+00	0	41	0	2518679552	45	3784
2026-01-22 11:43:28.19	332.14	65.16	-37.4	-38.0	26.1	0.00e+00	0	41	0	2540699648	45	4094
2026-01-22 11:43:32.23	332.25	63.41	-37.0	-37.7	26.5	0.00e+00	0	41	0	2563768320	45	3930
2026-01-22 11:43:36.26	332.35	61.70	-37.5	-38.2	26.0	0.00e+00	0	41	0	2586836992	45	4175
2026-01-22 11:43:40.30	332.45	60.04	-37.8	-38.6	25.7	0.00e+00	0	41	0	2608857088	46	4109
2026-01-22 11:43:44.34	332.53	58.41	-37.8	-38.5	25.8	0.00e+00	0	41	0	2631925760	46	4059
2026-01-22 11:43:48.37	332.60	56.83	-38.3	-39.0	25.3	0.00e+00	0	41	0	2654994432	47	4083
2026-01-22 11:43:52.41	332.67	55.29	-39.3	-40.0	25.0	0.00e+00	0	41	0	2677014528	49	4094
2026-01-22 11:43:56.44	332.74	53.80	-39.4	-40.1	24.9	0.00e+00	0	41	0	2700083200	49	4111
2026-01-22 11:44:00.48	332.80	52.35	-38.6	-39.2	25.7	0.00e+00	0	41	0	2723151872	49	3721
2026-01-22 11:44:04.51	332.85	50.94	-38.5	-39.2	25.7	0.00e+00	0	41	0	2745171968	48	3939
2026-01-22 11:44:08.56	332.90	49.57	-37.6	-38.3	25.9	0.00e+00	0	41	0	2768240640	47	3753
2026-01-22 11:44:12.59	332.95	48.24	-38.0	-38.7	25.6	0.00e+00	0	41	0	2791309312	47	3939
2026-01-22 11:44:16.62	333.00	46.96	-37.6	-38.3	25.9	0.00e+00	0	41	0	2813329408	47	3749
2026-01-22 11:44:20.66	333.04	45.71	-37.5	-38.2	26.0	0.00e+00	0	41	0	2836398080	46	3917
2026-01-22 11:44:24.70	333.08	44.49	-37.6	-38.3	25.8	0.00e+00	0	41	0	2859466752	46	3986
2026-01-22 11:44:28.73	333.12	43.32	-37.6	-38.3	25.9	0.00e+00	0	41	0	2882535424	46	3968
2026-01-22 11:44:32.76	333.16	42.18	-37.7	-38.4	25.8	0.00e+00	0	41	0	2904555520	46	4022
2026-01-22 11:44:36.79	333.20	41.08	-37.4	-38.1	26.0	0.00e+00	0	41	0	2926575616	46	3897
2026-01-22 11:44:40.83	333.23	40.00	-37.1	-37.8	26.2	0.00e+00	0	41	0	2949644288	46	3768
2026-01-22 11:44:44.86	333.26	38.96	-37.3	-38.1	26.0	0.00e+00	0	41	0	2972712960	46	3873
2026-01-22 11:44:48.90	333.30	37.95	-37.2	-37.9	26.2	0.00e+00	0	41	0	2994733056	46	3784
2026-01-22 11:44:52.93	333.33	36.97	-37.0	-37.7	26.3	0.00e+00	0	41	0	3017801728	45	3924
2026-01-22 11:44:56.97	333.36	36.02	-37.4	-38.1	26.0	0.00e+00	0	41	0	3040870400	45	4109
2026-01-22 11:45:01.00	333.39	35.09	-37.0	-37.7	26.3	0.00e+00	0	41	0	3062890496	45	3919
2026-01-22 11:45:05.04	333.42	34.20	-37.2	-37.8	26.1	0.00e+00	0	41	0	3085959168	45	4004
2026-01-22 11:45:09.07	333.45	33.32	-37.6	-38.3	25.7	0.00e+00	0	41	0	3109027840	45	4235
2026-01-22 11:45:13.11	333.48	32.47	-37.7	-38.5	25.6	0.00e+00	0	41	0	3131047936	46	4056
2026-01-22 11:45:17.14	333.51	31.65	-37.6	-38.3	25.7	0.00e+00	0	41	0	3154116608	46	3996
2026-01-22 11:45:21.17	333.53	30.85	-37.4	-38.1	25.9	0.00e+00	0	41	0	3177185280	46	3886
2026-01-22 11:45:25.20	333.56	30.07	-37.5	-38.2	25.8	0.00e+00	0	41	0	3199205376	46	3918
2026-01-22 11:45:29.24	333.59	29.31	-37.6	-38.3	25.7	0.00e+00	0	41	0	3222274048	46	3969
2026-01-22 11:45:33.28	333.61	28.57	-37.7	-38.4	25.6	0.00e+00	0	41	0	3245342720	46	4033
2026-01-22 11:45:37.31	333.64	27.85	-37.7	-38.4	25.5	0.00e+00	0	41	0	3267362816	46	4036
2026-01-22 11:45:41.34	333.66	27.14	-37.7	-38.4	25.5	0.00e+00	0	41	0	3290431488	46	4036
2026-01-22 11:45:45.38	333.69	26.46	-37.7	-38.4	25.5	0.00e+00	0	41	0	3312451584	46	4028
2026-01-22 11:45:49.41	333.71	25.79	-37.8	-38.5	25.4	0.00e+00	0	41	0	3335520256	46	4094
2026-01-22 11:45:53.45	333.73	25.14	-38.0	-38.7	25.2	0.00e+00	0	41	0	3358588928	46	4186
2026-01-22 11:45:57.48	333.76	24.50	-37.9	-38.6	25.3	0.00e+00	0	41	0	3380609024	46	4145
2026-01-22 11:46:01.51	333.78	23.88	-37.9	-38.6	25.3	0.00e+00	0	41	0	3403677696	46	4129
2026-01-22 11:46:05.55	333.80	23.28	-38.0	-38.7	25.2	0.00e+00	0	41	0	3426746368	46	4193
2026-01-22 11:46:09.57	333.83	22.69	-38.1	-38.9	25.1	0.00e+00	0	41	0	3448766464	47	4010
2026-01-22 11:46:13.61	333.85	22.11	-38.3	-39.1	24.9	0.00e+00	0	41	0	3471835136	47	4111
2026-01-22 11:46:17.64	333.87	21.54	-38.5	-39.2	24.7	0.00e+00	0	41	0	3494903808	47	4166
2026-01-22 11:46:21.68	333.90	20.99	-38.7	-39.4	24.5	0.00e+00	0	41	0	3516923904	47	4266
2026-01-22 11:46:25.71	333.92	20.45	-39.0	-39.8	24.7	0.00e+00	0	41	0	3539992576	49	3968
2026-01-22 11:46:29.74	333.94	19.92	-39.1	-39.9	24.6	0.00e+00	0	41	0	3563061248	49	4008
2026-01-22 11:46:33.78	333.96	19.40	-39.2	-39.9	24.6	1.10e-06	0	41	0	3585081344	49	4011
2026-01-22 11:46:37.81	333.98	18.89	-39.4	-40.1	24.4	0.00e+00	0	41	0	3608150016	49	4114
2026-01-22 11:46:41.85	334.00	18.39	-39.4	-40.2	24.3	0.00e+00	0	41	0	3631218688	49	4147
2026-01-22 11:46:45.88	334.03	17.90	-39.6	-40.3	24.1	0.00e+00	0	41	0	3653238784	49	4223
2026-01-22 11:46:49.92	334.05	17.42	-39.8	-40.5	23.9	0.00e+00	0	41	0	3675258880	50	4087
2026-01-22 11:46:53.95	334.07	16.96	-39.9	-40.7	23.8	0.00e+00	0	41	0	3698327552	50	4160
2026-01-22 11:46:57.99	334.09	16.49	-40.2	-40.9	23.5	0.00e+00	0	41	0	3721396224	50	4277
2026-01-22 11:47:02.02	334.11	16.04	-40.2	-40.9	23.5	0.00e+00	0	41	0	3744464896	50	4277
2026-01-22 11:47:06.06	334.13	15.60	-40.4	-41.1	23.3	0.00e+00	0	41	0	3766484992	51	4142
2026-01-22 11:47:10.10	334.15	15.16	-40.4	-41.2	23.2	0.00e+00	0	41	0	3789553664	51	4166
2026-01-22 11:47:14.13	334.17	14.73	-40.5	-41.3	23.1	0.00e+00	0	41	0	3812622336	51	4210
2026-01-22 11:47:18.16	334.19	14.31	-40.7	-41.5	22.9	0.00e+00	0	41	0	3834642432	51	4292
2026-01-22 11:47:22.19	334.21	13.90	-40.6	-41.4	22.9	0.00e+00	0	41	0	3857711104	52	4023
2026-01-22 11:47:26.23	334.23	13.49	-40.7	-41.5	22.8	0.00e+00	0	41	0	3880779776	52	4059
2026-01-22 11:47:30.26	334.25	13.09	-40.8	-41.6	22.6	0.00e+00	0	41	0	3902799872	52	4130
2026-01-22 11:47:34.30	334.27	12.70	-40.8	-41.6	22.6	0.00e+00	0	41	0	3925868544	52	4128
2026-01-22 11:47:38.33	334.29	12.31	-41.0	-41.8	22.5	0.00e+00	0	41	0	3948937216	52	4198
2026-01-22 11:47:42.36	334.31	11.93	-41.1	-41.9	22.4	0.00e+00	0	41	0	3970957312	52	4257
2026-01-22 11:47:46.40	334.33	11.56	-41.2	-42.1	22.2	0.00e+00	0	41	0	3994025984	53	4108
2026-01-22 11:47:50.43	334.35	11.19	-41.3	-42.2	22.0	0.00e+00	0	41	0	4017094656	53	4162
2026-01-22 11:47:54.46	334.37	10.83	-41.4	-42.3	21.9	0.00e+00	0	41	0	4039114752	53	4215
2026-01-22 11:47:58.50	334.39	10.47	-41.5	-42.3	21.8	0.00e+00	0	41	0	4061134848	53	4240
2026-01-22 11:48:02.53	334.41	10.11	-41.6	-42.5	21.7	0.00e+00	0	41	0	4084203520	53	4296
2026-01-22 11:48:06.56	334.43	9.76	-41.7	-42.5	21.6	0.00e+00	0	41	0	4107272192	54	4096
2026-01-22 11:48:10.59	334.45	9.42	-41.8	-42.7	21.4	3.40e-06	0	41	0	4129292288	54	4161
2026-01-22 11:48:14.62	334.47	9.08	-41.7	-42.6	21.5	0.00e+00	0	41	0	4152360960	54	4103
2026-01-22 11:48:18.66	334.49	8.75	-42.0	-42.9	21.2	0.00e+00	0	41	0	4175429632	54	4246
2026-01-22 11:48:22.69	334.51	8.42	-42.1	-43.0	21.0	0.00e+00	0	41	0	4197449728	54	4302
2026-01-22 11:48:26.72	334.53	8.09	-42.3	-43.2	20.8	0.00e+00	0	41	0	4220518400	55	4165
2026-01-22 11:48:30.76	334.55	7.77	-42.2	-43.1	20.9	0.00e+00	0	41	0	4243587072	55	4116
2026-01-22 11:48:34.80	334.57	7.45	-42.2	-43.1	20.8	0.00e+00	0	41	0	4265607168	55	4137
2026-01-22 11:48:38.83	334.59	7.14	-42.3	-43.2	20.7	0.00e+00	0	41	0	4288675840	55	4177
2026-01-22 11:48:42.87	334.61	6.83	-42.5	-43.4	20.4	0.00e+00	0	41	0	4311744512	55	4287
2026-01-22 11:48:46.89	334.63	6.52	-42.6	-43.6	20.3	0.00e+00	0	41	0	4333764608	56	4116
2026-01-22 11:48:50.93	334.65	6.22	-42.7	-43.7	20.2	0.00e+00	0	41	0	4356833280	56	4152
2026-01-22 11:48:54.96	334.66	5.92	-42.9	-43.9	20.0	0.00e+00	0	41	0	4379901952	56	4247
2026-01-22 11:48:58.99	334.68	5.63	-43.2	-44.2	19.6	0.00e+00	0	41	0	4401922048	57	4171
2026-01-22 11:49:03.02	334.70	5.33	-43.1	-44.1	19.5	0.00e+00	0	41	0	4423942144	57	4125
2026-01-22 11:49:07.05	334.72	5.05	-43.2	-44.3	19.2	0.00e+00	0	41	0	4447010816	57	4198
2026-01-22 11:49:11.08	334.74	4.76	-53.4	-65.3	3.8	8.45e-01	0	41	104	4451205120	77	15040
2026-01-22 11:49:15.12	334.76	4.48	-53.6	-65.6	3.8	8.45e-01	0	41	104	4451205120	77	15529
2026-01-22 11:49:19.14	334.78	4.20	-53.5	-65.5	3.8	8.46e-01	0	41	104	4451205120	77	15233
2026-01-22 11:49:23.18	334.80	3.92	-53.5	-65.5	3.8	8.46e-01	0	41	104	4451205120	77	15318
2026-01-22 11:49:27.21	334.82	3.65	-53.7	-65.6	3.8	8.45e-01	0	41	104	4451205120	77	15576
2026-01-22 11:49:31.24	334.84	3.37	-53.6	-65.6	3.8	8.47e-01	0	41	104	4451205120	77	15459
2026-01-22 11:49:35.27	334.86	3.11	-53.6	-65.6	3.8	8.46e-01	0	41	104	4451205120	77	15459
2026-01-22 11:49:39.30	334.87	2.84	-53.6	-65.6	3.8	8.46e-01	0	41	104	4451205120	77	15427
2026-01-22 11:49:43.34	334.89	2.58	-53.6	-65.5	3.8	8.46e-01	0	41	104	4451205120	77	15386
2026-01-22 11:49:47.37	334.91	2.31	-53.5	-65.5	3.8	8.46e-01	0	41	104	4451205120	77	15310
2026-01-22 11:49:51.41	334.93	2.05	-53.5	-65.5	3.8	8.47e-01	0	41	104	4451205120	77	15275

#Closed at: 2026-01-22 11:49:53
#Recorded file [4451 MB]: D:/lorett/data/31041_260122_143524.dat