passes_logs/2026/01/22/R3.2S_Murmansk/R3.2S_Murmansk__20260122_063440_KANOPUS-V_5_rec.log

#Pass ID: 20260122_063440_KANOPUS-V 5
#Satellite: KANOPUS-V 5
#Configuration: KANOPUS-V_8320
#almurnet v.1.7.20251203
#Start time: 2026-01-22 06:34:43

#Version: 2.2.20231116
#Station: R3.2S_Murmansk
#Location: 33.079688 lon 68.888172 lat
#TLE: 1 43876U 18111A   26021.54180787  .00007275  00000+0  30771-3 0  9992
#TLE: 2 43876  97.3683 289.9378 0001818  88.0577 272.0869 15.23499060392462

#Time	Az	El	Level	Level2	SNR	BER	BlckErr	Temp	State	Recorded	gain1	gain2
2026-01-22 06:34:43.11	126.82	2.16	-53.6	-62.4	3.8	7.45e-01	0	39	0	0	79	9564
2026-01-22 06:34:46.13	126.68	2.36	-53.3	-62.1	3.8	7.47e-01	0	39	104	0	77	10359
2026-01-22 06:34:49.15	126.54	2.57	-53.2	-62.1	3.8	7.46e-01	0	39	104	0	77	10314
2026-01-22 06:34:52.18	126.39	2.79	-53.2	-62.1	3.8	7.45e-01	0	40	104	0	77	10305
2026-01-22 06:34:55.20	126.24	3.00	-53.2	-62.1	3.8	7.45e-01	0	40	104	0	77	10315
2026-01-22 06:34:58.23	126.09	3.22	-53.2	-62.1	3.8	7.45e-01	0	40	104	0	77	10317
2026-01-22 06:35:01.25	125.93	3.44	-53.2	-62.0	3.8	7.44e-01	0	40	104	0	77	10278
2026-01-22 06:35:04.28	125.77	3.66	-53.2	-62.0	3.8	7.45e-01	0	40	104	0	77	10280
2026-01-22 06:35:07.30	125.61	3.88	-53.2	-62.0	3.8	7.46e-01	0	40	104	0	77	10263
2026-01-22 06:35:10.33	125.44	4.10	-53.2	-62.0	3.8	7.46e-01	0	40	104	0	77	10283
2026-01-22 06:35:13.35	125.27	4.33	-53.2	-62.0	3.8	7.45e-01	0	40	104	0	77	10281
2026-01-22 06:35:16.37	125.09	4.56	-53.2	-62.0	3.8	7.45e-01	0	40	104	0	77	10237
2026-01-22 06:35:19.40	124.92	4.79	-53.2	-62.0	3.8	7.45e-01	0	40	104	0	77	10262
2026-01-22 06:35:22.42	124.74	5.03	-47.6	-50.0	10.7	6.22e-01	0	40	104	0	67	4593
2026-01-22 06:35:25.45	124.55	5.26	-47.7	-50.2	10.9	6.19e-01	0	40	0	46137344	67	4691
2026-01-22 06:35:28.47	124.36	5.50	-50.3	-54.0	6.6	6.73e-01	0	40	104	81788928	72	5415
2026-01-22 06:35:31.50	124.17	5.75	-44.1	-46.0	14.8	6.09e-01	0	40	0	123731968	60	4295
2026-01-22 06:35:34.53	123.97	5.99	-44.3	-46.2	14.6	6.09e-01	0	40	0	171966464	60	4415
2026-01-22 06:35:37.55	123.76	6.24	-44.1	-46.0	14.7	6.09e-01	0	40	0	218103808	59	4563
2026-01-22 06:35:40.57	123.56	6.49	-44.2	-46.1	14.7	6.09e-01	0	40	0	262144000	59	4607
2026-01-22 06:35:43.60	123.34	6.75	-44.2	-46.3	14.7	5.90e-01	0	40	0	308281344	59	4742
2026-01-22 06:35:46.62	123.13	7.00	-44.2	-46.3	14.7	5.89e-01	0	40	0	356515840	59	4720
2026-01-22 06:35:49.65	122.91	7.26	-44.1	-46.2	14.8	5.89e-01	0	41	0	402653184	59	4691
2026-01-22 06:35:52.67	122.68	7.53	-44.0	-46.1	15.0	5.89e-01	0	40	0	448790528	59	4607
2026-01-22 06:35:55.69	122.45	7.79	-44.0	-46.0	15.0	5.89e-01	0	41	0	494927872	59	4598
2026-01-22 06:35:58.72	122.21	8.06	-43.9	-45.9	15.1	5.89e-01	0	41	0	543162368	59	4531
2026-01-22 06:36:01.74	121.96	8.34	-43.8	-45.8	15.2	5.89e-01	0	41	0	589299712	59	4473
2026-01-22 06:36:04.77	121.71	8.62	-43.6	-45.6	15.4	5.88e-01	0	41	0	635437056	58	4613
2026-01-22 06:36:07.79	121.45	8.90	-43.7	-45.7	15.3	5.89e-01	0	41	0	681574400	58	4701
2026-01-22 06:36:10.82	121.19	9.18	-43.4	-45.4	15.7	5.89e-01	0	41	0	727711744	58	4509
2026-01-22 06:36:13.84	120.92	9.47	-43.3	-45.3	15.7	5.99e-01	0	41	0	773849088	58	4450
2026-01-22 06:36:16.86	120.64	9.76	-43.2	-45.2	15.7	6.01e-01	0	41	0	819986432	58	4427
2026-01-22 06:36:19.89	120.36	10.06	-43.4	-45.4	15.6	5.99e-01	0	41	0	866123776	58	4519
2026-01-22 06:36:22.91	120.07	10.36	-43.0	-45.0	16.0	6.03e-01	0	41	0	914358272	58	4333
2026-01-22 06:36:25.94	119.77	10.67	-43.1	-45.1	15.9	5.98e-01	0	41	0	960495616	57	4641
2026-01-22 06:36:28.96	119.46	10.98	-42.9	-44.9	16.1	5.99e-01	0	41	0	1006632960	57	4524
2026-01-22 06:36:31.99	119.14	11.29	-42.7	-44.7	16.3	6.02e-01	0	41	0	1052770304	57	4414
2026-01-22 06:36:35.01	118.82	11.61	-42.8	-44.7	16.3	5.99e-01	0	41	0	1101004800	57	4435
2026-01-22 06:36:38.03	118.49	11.94	-42.4	-44.4	16.5	6.01e-01	0	41	0	1147142144	56	4514
2026-01-22 06:36:41.06	118.14	12.27	-42.3	-44.2	16.7	6.01e-01	0	41	0	1193279488	56	4421
2026-01-22 06:36:44.08	117.79	12.60	-42.1	-44.1	16.9	5.99e-01	0	41	0	1239416832	56	4344
2026-01-22 06:36:47.11	117.43	12.94	-42.2	-44.1	16.8	6.03e-01	0	41	0	1285554176	56	4363
2026-01-22 06:36:50.13	117.05	13.29	-42.2	-44.1	17.1	6.02e-01	0	41	0	1331691520	55	4605
2026-01-22 06:36:53.15	116.67	13.63	-41.8	-43.7	17.3	6.00e-01	0	41	0	1377828864	55	4425
2026-01-22 06:36:56.18	116.27	13.99	-42.0	-43.9	17.2	6.00e-01	0	41	0	1423966208	55	4517
2026-01-22 06:36:59.20	115.87	14.35	-42.0	-43.9	17.2	6.02e-01	0	41	0	1470103552	55	4518
2026-01-22 06:37:02.23	115.44	14.72	-41.8	-43.8	17.4	6.02e-01	0	41	0	1518338048	55	4455
2026-01-22 06:37:05.25	115.01	15.09	-41.9	-43.9	17.3	6.02e-01	0	41	0	1564475392	55	4510
2026-01-22 06:37:08.28	114.56	15.47	-41.8	-43.8	17.3	6.02e-01	0	41	0	1610612736	55	4492
2026-01-22 06:37:11.30	114.10	15.86	-41.5	-43.6	17.6	6.02e-01	0	41	0	1656750080	55	4346
2026-01-22 06:37:14.33	113.63	16.25	-41.4	-43.3	17.7	6.00e-01	0	41	0	1704984576	54	4468
2026-01-22 06:37:17.35	113.14	16.65	-41.1	-43.0	18.0	5.98e-01	0	41	0	1749024768	54	4332
2026-01-22 06:37:20.37	112.63	17.05	-40.8	-42.7	18.2	5.98e-01	0	41	0	1795162112	53	4399
2026-01-22 06:37:23.40	112.11	17.47	-40.9	-42.7	18.1	5.97e-01	0	41	0	1841299456	53	4420
2026-01-22 06:37:26.42	111.57	17.89	-40.7	-42.5	18.3	5.99e-01	0	41	0	1889533952	53	4310
2026-01-22 06:37:29.44	111.01	18.31	-40.7	-42.5	18.3	5.99e-01	0	41	0	1935671296	53	4320
2026-01-22 06:37:32.47	110.43	18.74	-40.6	-42.4	18.4	6.02e-01	0	41	0	1981808640	53	4252
2026-01-22 06:37:35.49	109.84	19.18	-40.4	-42.3	18.4	6.03e-01	0	41	0	2027945984	52	4450
2026-01-22 06:37:38.52	109.22	19.63	-40.3	-42.1	18.6	6.02e-01	0	41	0	2076180480	52	4354
2026-01-22 06:37:41.54	108.58	20.08	-40.3	-42.1	18.6	6.02e-01	0	41	0	2122317824	52	4359
2026-01-22 06:37:44.57	107.92	20.54	-40.2	-42.0	18.7	6.03e-01	0	41	0	2168455168	52	4312
2026-01-22 06:37:47.59	107.23	21.01	-40.2	-41.9	18.7	6.02e-01	0	41	0	2214592512	52	4285
2026-01-22 06:37:50.61	106.53	21.49	-40.1	-41.9	18.7	6.03e-01	0	41	0	2260729856	52	4270
2026-01-22 06:37:53.63	105.79	21.97	-40.0	-41.8	18.9	6.03e-01	0	41	0	2306867200	51	4448
2026-01-22 06:37:56.66	105.03	22.46	-40.0	-41.6	18.9	6.03e-01	0	41	0	2353004544	51	4385
2026-01-22 06:37:59.68	104.24	22.95	-39.8	-41.5	18.9	6.03e-01	0	41	0	2399141888	51	4332
2026-01-22 06:38:02.71	103.42	23.45	-39.7	-41.3	19.2	6.03e-01	0	41	0	2445279232	51	4234
2026-01-22 06:38:05.73	102.57	23.96	-39.7	-41.4	19.0	6.03e-01	0	41	0	2493513728	51	4287
2026-01-22 06:38:08.75	101.69	24.47	-40.0	-41.7	18.9	6.02e-01	0	41	0	2539651072	51	4422
2026-01-22 06:38:11.77	100.78	24.99	-39.9	-41.6	18.9	6.03e-01	0	41	0	2585788416	51	4389
2026-01-22 06:38:14.80	99.83	25.52	-39.7	-41.4	19.1	6.03e-01	0	41	0	2631925760	51	4267
2026-01-22 06:38:17.82	98.85	26.05	-39.9	-41.6	18.9	6.01e-01	0	41	0	2680160256	51	4345
2026-01-22 06:38:20.85	97.83	26.58	-40.1	-41.8	18.7	6.03e-01	0	41	0	2726297600	51	4485
2026-01-22 06:38:23.87	96.77	27.11	-40.0	-41.7	18.9	6.06e-01	0	41	0	2772434944	51	4433
2026-01-22 06:38:26.89	95.67	27.65	-40.1	-41.8	18.8	6.03e-01	0	41	0	2818572288	51	4483
2026-01-22 06:38:29.92	94.52	28.19	-40.1	-42.0	18.7	6.05e-01	0	41	0	2864709632	51	4554
2026-01-22 06:38:32.94	93.34	28.73	-40.2	-42.0	18.7	6.00e-01	0	41	0	2910846976	51	4565
2026-01-22 06:38:35.96	92.11	29.27	-40.3	-42.1	18.6	6.05e-01	0	42	0	2956984320	51	4634
2026-01-22 06:38:38.99	90.83	29.81	-40.3	-42.0	18.8	6.05e-01	0	41	0	3003121664	51	4579
2026-01-22 06:38:42.01	89.51	30.34	-40.1	-41.8	18.8	6.05e-01	0	41	0	3049259008	51	4456
2026-01-22 06:38:45.03	88.14	30.87	-40.6	-42.7	18.2	6.06e-01	0	41	0	3097493504	51	4950
2026-01-22 06:38:48.06	86.72	31.39	-40.5	-42.5	18.4	6.04e-01	0	41	0	3143630848	52	4575
2026-01-22 06:38:51.08	85.25	31.91	-40.6	-42.6	18.3	6.05e-01	0	41	0	3189768192	52	4612
2026-01-22 06:38:54.10	83.74	32.41	-40.5	-42.6	18.3	6.05e-01	0	41	0	3235905536	52	4606
2026-01-22 06:38:57.13	82.16	32.90	-40.6	-42.8	18.2	6.05e-01	0	41	0	3282042880	52	4706
2026-01-22 06:39:00.15	80.54	33.38	-40.7	-42.8	18.2	6.05e-01	0	41	0	3328180224	52	4709
2026-01-22 06:39:03.18	78.86	33.84	-40.4	-42.6	18.3	6.05e-01	0	41	0	3374317568	52	4623
2026-01-22 06:39:06.20	77.14	34.28	-40.4	-42.6	18.2	6.05e-01	0	41	0	3420454912	52	4640
2026-01-22 06:39:09.23	75.37	34.70	-40.5	-42.7	18.2	6.04e-01	0	41	0	3468689408	52	4694
2026-01-22 06:39:12.25	73.55	35.09	-40.1	-42.4	18.4	6.04e-01	0	42	0	3514826752	51	4811
2026-01-22 06:39:15.27	71.68	35.46	-40.1	-42.5	18.4	6.05e-01	0	41	0	3560964096	51	4831
2026-01-22 06:39:18.30	69.77	35.80	-39.9	-42.2	18.6	6.02e-01	0	41	0	3607101440	51	4655
2026-01-22 06:39:21.32	67.82	36.11	-39.9	-42.2	18.6	6.06e-01	0	41	0	3655335936	51	4653
2026-01-22 06:39:24.35	65.83	36.38	-40.1	-42.4	18.5	6.05e-01	0	41	0	3701473280	51	4782
2026-01-22 06:39:27.37	63.81	36.62	-39.8	-42.2	18.6	6.04e-01	0	41	0	3747610624	51	4678
2026-01-22 06:39:30.39	61.77	36.82	-39.6	-41.9	18.8	6.05e-01	0	42	0	3793747968	51	4494
2026-01-22 06:39:33.42	59.69	36.98	-39.7	-41.9	18.8	6.05e-01	0	41	0	3839885312	51	4534
2026-01-22 06:39:36.44	57.60	37.11	-39.6	-42.0	18.7	6.04e-01	0	41	0	3886022656	50	4817
2026-01-22 06:39:39.46	55.49	37.19	-39.5	-41.8	18.9	5.98e-01	0	41	0	3932160000	50	4755
2026-01-22 06:39:42.49	53.37	37.22	-39.5	-41.9	18.9	5.88e-01	0	41	0	3978297344	50	4773
2026-01-22 06:39:45.51	51.26	37.22	-39.7	-42.0	18.9	5.88e-01	0	41	0	4024434688	50	4836
2026-01-22 06:39:48.53	49.15	37.17	-39.4	-41.7	19.0	5.88e-01	0	42	0	4072669184	50	4681
2026-01-22 06:39:51.56	47.04	37.09	-39.5	-41.8	19.0	5.89e-01	0	41	0	4118806528	50	4716
2026-01-22 06:39:54.59	44.95	36.96	-39.8	-42.2	18.7	5.88e-01	0	41	0	4164943872	50	4950
2026-01-22 06:39:57.61	42.88	36.79	-39.9	-42.2	18.7	5.88e-01	0	41	0	4211081216	50	4942
2026-01-22 06:40:00.63	40.84	36.58	-40.0	-42.3	18.6	5.88e-01	0	41	0	4259315712	50	4988
2026-01-22 06:40:03.65	38.83	36.34	-40.0	-42.3	18.6	5.88e-01	0	41	0	4305453056	50	5000
2026-01-22 06:40:06.68	36.85	36.06	-40.1	-42.6	18.4	6.02e-01	0	41	0	4349493248	50	5171
2026-01-22 06:40:09.70	34.91	35.74	-40.4	-42.7	18.3	6.04e-01	0	41	0	4395630592	51	4980
2026-01-22 06:40:12.73	33.00	35.40	-40.5	-42.8	18.3	6.00e-01	0	41	0	4443865088	51	4997
2026-01-22 06:40:15.75	31.15	35.03	-40.7	-43.2	18.0	5.92e-01	0	41	0	4490002432	52	4963
2026-01-22 06:40:18.77	29.34	34.63	-40.5	-42.6	18.3	6.00e-01	0	41	0	4536139776	52	4633
2026-01-22 06:40:21.80	27.58	34.21	-40.9	-42.9	18.1	6.02e-01	0	41	0	4582277120	52	4810
2026-01-22 06:40:24.82	25.87	33.77	-41.0	-43.4	17.8	6.02e-01	0	41	0	4630511616	52	5046
2026-01-22 06:40:27.85	24.21	33.30	-41.1	-43.2	17.9	6.01e-01	0	41	0	4676648960	52	4947
2026-01-22 06:40:30.87	22.60	32.83	-41.3	-43.3	17.8	6.01e-01	0	42	0	4722786304	53	4755
2026-01-22 06:40:33.89	21.04	32.33	-41.3	-43.3	17.8	6.00e-01	0	41	0	4768923648	53	4754
2026-01-22 06:40:36.92	19.53	31.83	-41.7	-43.7	17.6	6.01e-01	0	42	0	4815060992	53	4932
2026-01-22 06:40:39.94	18.08	31.32	-41.7	-43.8	17.5	5.99e-01	0	41	0	4861198336	54	4729
2026-01-22 06:40:42.96	16.67	30.80	-41.3	-43.3	17.9	5.99e-01	0	41	0	4907335680	54	4474
2026-01-22 06:40:45.99	15.31	30.27	-41.4	-43.3	17.9	5.98e-01	0	41	0	4953473024	54	4452
2026-01-22 06:40:49.01	14.00	29.73	-41.2	-43.1	18.1	6.01e-01	0	41	0	5001707520	54	4362
2026-01-22 06:40:52.03	12.74	29.20	-41.1	-42.9	18.1	6.03e-01	0	41	0	5047844864	54	4252
2026-01-22 06:40:55.06	11.52	28.66	-41.1	-42.9	18.2	6.02e-01	0	41	0	5093982208	54	4263
2026-01-22 06:40:58.09	10.34	28.12	-41.0	-42.8	18.3	6.02e-01	0	41	0	5140119552	54	4203
2026-01-22 06:41:01.11	9.21	27.58	-40.8	-42.6	18.3	6.03e-01	0	41	0	5186256896	53	4344
2026-01-22 06:41:04.13	8.12	27.05	-40.8	-42.7	18.2	6.04e-01	0	41	0	5234491392	53	4407
2026-01-22 06:41:07.16	7.07	26.51	-40.8	-42.8	18.2	6.04e-01	0	42	0	5280628736	53	4470
2026-01-22 06:41:10.18	6.06	25.99	-40.6	-42.5	18.4	5.99e-01	0	41	0	5326766080	53	4298
2026-01-22 06:41:13.21	5.09	25.46	-40.5	-42.3	18.5	5.98e-01	0	42	0	5372903424	53	4237
2026-01-22 06:41:16.23	4.15	24.94	-40.6	-42.5	18.3	5.98e-01	0	41	0	5419040768	53	4330
2026-01-22 06:41:19.25	3.24	24.42	-40.6	-42.4	18.4	5.97e-01	0	41	0	5465178112	53	4267
2026-01-22 06:41:22.28	2.37	23.91	-40.3	-42.2	18.5	6.00e-01	0	41	0	5511315456	52	4400
2026-01-22 06:41:25.30	1.53	23.41	-40.3	-42.2	18.5	5.99e-01	0	41	0	5557452800	52	4433
2026-01-22 06:41:28.33	0.72	22.91	-40.4	-42.5	18.3	6.02e-01	0	41	0	5605687296	52	4558
2026-01-22 06:41:31.35	359.94	22.42	-40.5	-42.6	18.2	6.02e-01	0	41	0	5651824640	52	4617
2026-01-22 06:41:34.38	359.18	21.93	-40.4	-42.5	18.3	6.02e-01	0	41	0	5697961984	52	4548
2026-01-22 06:41:37.40	358.45	21.45	-40.5	-42.4	18.3	6.02e-01	0	41	0	5744099328	52	4523
2026-01-22 06:41:40.43	357.75	20.98	-40.6	-42.6	18.2	6.01e-01	0	41	0	5790236672	52	4613
2026-01-22 06:41:43.45	357.07	20.51	-40.6	-42.6	18.2	6.01e-01	0	41	0	5836374016	52	4616
2026-01-22 06:41:46.48	356.42	20.06	-40.6	-42.7	18.2	6.00e-01	0	41	0	5882511360	52	4653
2026-01-22 06:41:49.50	355.79	19.61	-40.6	-42.7	18.1	6.00e-01	0	41	0	5928648704	52	4665
2026-01-22 06:41:52.53	355.17	19.16	-40.7	-42.8	18.0	5.99e-01	0	41	0	5976883200	52	4746
2026-01-22 06:41:55.55	354.58	18.73	-40.9	-43.0	17.8	5.95e-01	0	42	0	6023020544	52	4862
2026-01-22 06:41:58.57	354.01	18.30	-41.2	-43.3	17.6	5.98e-01	0	41	0	6069157888	52	5019
2026-01-22 06:42:01.59	353.46	17.87	-41.2	-43.3	17.6	5.99e-01	0	41	0	6115295232	53	4733
2026-01-22 06:42:04.62	352.92	17.46	-41.2	-43.3	17.7	5.94e-01	0	41	0	6163529728	53	4736
2026-01-22 06:42:07.64	352.41	17.05	-41.4	-43.5	17.5	5.97e-01	0	41	0	6209667072	53	4857
2026-01-22 06:42:10.67	351.90	16.65	-41.4	-43.5	17.5	5.69e-01	0	41	0	6255804416	53	4859
2026-01-22 06:42:13.69	351.42	16.25	-41.5	-43.7	17.4	5.60e-01	0	41	0	6301941760	53	4927
2026-01-22 06:42:16.72	350.95	15.86	-41.8	-43.9	17.1	5.99e-01	0	41	0	6348079104	54	4794
2026-01-22 06:42:19.74	350.49	15.48	-42.0	-44.2	17.1	5.88e-01	0	42	0	6394216448	54	4942
2026-01-22 06:42:22.77	350.05	15.10	-42.1	-44.3	16.9	5.89e-01	0	41	0	6440353792	54	5012
2026-01-22 06:42:25.79	349.62	14.73	-42.1	-44.3	16.9	5.88e-01	0	41	0	6486491136	54	5040
2026-01-22 06:42:28.81	349.20	14.36	-43.5	-44.4	16.7	5.88e-01	0	41	0	6534725632	57	4246
2026-01-22 06:42:31.84	348.80	14.00	-54.2	-63.1	3.8	7.46e-01	0	41	104	6549405696	79	10357
2026-01-22 06:42:34.86	348.41	13.65	-54.2	-63.0	3.8	7.44e-01	0	41	104	6549405696	79	10283
2026-01-22 06:42:37.89	348.03	13.30	-54.2	-63.0	3.8	7.44e-01	0	41	104	6549405696	79	10240
2026-01-22 06:42:40.91	347.66	12.96	-54.2	-63.0	3.8	7.47e-01	0	41	104	6549405696	79	10257
2026-01-22 06:42:43.94	347.30	12.62	-54.2	-62.9	3.8	7.45e-01	0	41	104	6549405696	79	10168
2026-01-22 06:42:46.96	346.95	12.29	-54.1	-62.9	3.8	7.44e-01	0	41	104	6549405696	79	10135
2026-01-22 06:42:49.99	346.61	11.96	-54.1	-62.9	3.8	7.45e-01	0	41	104	6549405696	79	10117
2026-01-22 06:42:53.01	346.28	11.64	-54.1	-62.9	3.8	7.46e-01	0	41	104	6549405696	79	10126
2026-01-22 06:42:56.03	345.96	11.32	-54.1	-62.9	3.8	7.45e-01	0	41	104	6549405696	79	10113
2026-01-22 06:42:59.06	345.64	11.01	-54.0	-62.8	3.8	7.46e-01	0	41	104	6549405696	79	10019
2026-01-22 06:43:02.08	345.34	10.70	-54.0	-62.8	3.8	7.45e-01	0	41	104	6549405696	79	9990
2026-01-22 06:43:05.10	345.04	10.40	-54.0	-62.8	3.8	7.45e-01	0	41	104	6549405696	79	10011
2026-01-22 06:43:08.13	344.75	10.09	-54.0	-62.8	3.8	7.45e-01	0	41	104	6549405696	79	10016
2026-01-22 06:43:11.15	344.47	9.80	-53.9	-62.7	3.8	7.44e-01	0	41	104	6549405696	79	9842
2026-01-22 06:43:14.18	344.20	9.51	-53.9	-62.7	3.8	7.45e-01	0	41	104	6549405696	79	9892
2026-01-22 06:43:17.20	343.93	9.22	-53.9	-62.8	3.8	7.47e-01	0	41	104	6549405696	79	9959
2026-01-22 06:43:20.23	343.67	8.94	-53.9	-62.7	3.8	7.45e-01	0	41	104	6549405696	79	9847
2026-01-22 06:43:23.25	343.42	8.66	-53.8	-62.6	3.8	7.44e-01	0	41	104	6549405696	79	9789
2026-01-22 06:43:26.28	343.17	8.38	-53.7	-62.6	3.8	7.46e-01	0	41	104	6549405696	79	9727
2026-01-22 06:43:29.31	342.92	8.11	-53.8	-62.6	3.8	7.44e-01	0	41	104	6549405696	79	9774
2026-01-22 06:43:32.33	342.69	7.84	-53.8	-62.6	3.8	7.46e-01	0	41	104	6549405696	79	9726
2026-01-22 06:43:35.36	342.46	7.57	-53.7	-62.5	3.8	7.46e-01	0	41	104	6549405696	79	9681
2026-01-22 06:43:38.38	342.23	7.31	-53.6	-62.4	3.8	7.45e-01	0	41	104	6549405696	79	9593
2026-01-22 06:43:41.40	342.01	7.05	-53.7	-62.5	3.8	7.45e-01	0	41	104	6549405696	79	9649
2026-01-22 06:43:44.43	341.80	6.79	-53.7	-62.4	3.8	7.45e-01	0	41	104	6549405696	79	9596
2026-01-22 06:43:47.46	341.59	6.54	-53.6	-62.4	3.8	7.46e-01	0	41	104	6549405696	79	9541
2026-01-22 06:43:50.48	341.38	6.29	-53.4	-62.3	3.8	7.46e-01	0	41	104	6549405696	78	9975
2026-01-22 06:43:53.51	341.18	6.04	-53.5	-62.3	3.8	7.46e-01	0	41	104	6549405696	78	9967
2026-01-22 06:43:56.53	340.99	5.80	-53.5	-62.4	3.8	7.45e-01	0	41	104	6549405696	78	10083
2026-01-22 06:43:59.55	340.80	5.56	-53.4	-62.2	3.8	7.44e-01	0	41	104	6549405696	78	9911
2026-01-22 06:44:02.57	340.61	5.32	-53.2	-62.0	3.8	7.45e-01	0	41	104	6549405696	78	9697
2026-01-22 06:44:05.59	340.43	5.08	-53.2	-62.1	3.8	7.46e-01	0	41	104	6549405696	78	9737
2026-01-22 06:44:08.62	340.25	4.85	-54.0	-62.8	3.8	7.45e-01	0	41	104	6549405696	78	10655
2026-01-22 06:44:11.64	340.07	4.62	-54.5	-63.3	3.8	7.46e-01	0	41	104	6549405696	79	10633
2026-01-22 06:44:14.67	339.90	4.39	-54.7	-63.5	3.8	7.45e-01	0	41	104	6549405696	79	10856
2026-01-22 06:44:17.69	339.73	4.16	-54.7	-63.5	3.8	7.46e-01	0	41	104	6549405696	79	10840
2026-01-22 06:44:20.71	339.57	3.94	-54.4	-63.2	3.8	7.47e-01	0	41	104	6549405696	79	10515
2026-01-22 06:44:23.74	339.41	3.72	-54.5	-63.3	3.8	7.44e-01	0	41	104	6549405696	79	10577
2026-01-22 06:44:26.77	339.25	3.50	-54.5	-63.3	3.8	7.46e-01	0	41	104	6549405696	79	10647
2026-01-22 06:44:29.79	339.10	3.28	-54.5	-63.3	3.8	7.45e-01	0	41	104	6549405696	79	10591
2026-01-22 06:44:32.82	338.94	3.06	-54.5	-63.3	3.8	7.45e-01	0	41	104	6549405696	79	10614
2026-01-22 06:44:35.85	338.80	2.85	-54.5	-63.3	3.8	7.44e-01	0	41	104	6549405696	79	10556
2026-01-22 06:44:38.87	338.65	2.64	-54.5	-63.3	3.8	7.44e-01	0	41	104	6549405696	79	10608
2026-01-22 06:44:41.90	338.51	2.43	-54.4	-63.3	3.8	7.44e-01	0	41	104	6549405696	79	10578
2026-01-22 06:44:44.92	338.37	2.22	-54.4	-63.3	3.8	7.47e-01	0	41	104	6549405696	79	10560
2026-01-22 06:44:47.95	338.23	2.02	-54.4	-63.3	3.8	7.45e-01	0	41	104	6549405696	79	10556

#Closed at: 2026-01-22 06:44:50
#Recorded file [6549 MB]: D:/lorett/data/31041_260122_093442.dat