passes_logs/2026/01/22/R3.2S_Murmansk/R3.2S_Murmansk__20260122_071813_SUOMI_NPP_rec.log

#Pass ID: 20260122_071813_SUOMI NPP
#Satellite: SUOMI NPP
#Configuration: NPP
#almurnet v.1.7.20251203
#Start time: 2026-01-22 07:18:13

#Version: 2.2.20231116
#Station: R3.2S_Murmansk
#Location: 33.079688 lon 68.888172 lat
#TLE: 1 37849U 11061A   26021.51818991  .00000201  00000+0  11636-3 0  9995
#TLE: 2 37849  98.7819 323.5108 0002300  52.3548 307.7836 14.19527793737637

#Time	Az	El	Level	Level2	SNR	BER	BlckErr	Temp	State	Recorded	gain1	gain2
2026-01-22 07:18:13.35	99.65	2.02	-54.4	-69.4	3.8	1.49e+00	0	39	0	0	79	21362
2026-01-22 07:18:17.37	99.46	2.26	-54.3	-69.4	3.8	1.49e+00	0	39	104	0	79	21271
2026-01-22 07:18:21.41	99.26	2.50	-54.5	-69.5	3.8	1.49e+00	0	39	104	0	79	21724
2026-01-22 07:18:25.44	99.06	2.75	-54.5	-69.5	3.8	1.49e+00	0	39	104	0	79	21739
2026-01-22 07:18:29.48	98.86	3.00	-54.4	-69.4	3.8	1.49e+00	0	39	104	0	79	21439
2026-01-22 07:18:33.51	98.65	3.25	-54.2	-69.2	3.8	1.49e+00	0	39	104	0	79	20810
2026-01-22 07:18:37.54	98.44	3.50	-53.7	-68.7	3.8	1.49e+00	0	39	104	0	79	19780
2026-01-22 07:18:41.57	98.23	3.76	-53.2	-68.2	3.8	1.49e+00	0	39	104	0	78	19798
2026-01-22 07:18:45.60	98.01	4.02	-52.8	-67.8	3.8	1.49e+00	0	40	104	0	77	19974
2026-01-22 07:18:49.63	97.79	4.28	-52.2	-63.0	4.5	1.39e+00	75	40	0	0	76	12167
2026-01-22 07:18:53.67	97.56	4.54	-50.9	-56.3	9.9	2.60e-02	0	40	0	7340032	73	6687
2026-01-22 07:18:57.70	97.33	4.80	-49.6	-53.0	13.4	9.90e-06	0	40	0	14680064	70	5448
2026-01-22 07:19:01.73	97.09	5.07	-50.0	-53.9	12.5	4.50e-05	0	40	0	22020096	70	6032
2026-01-22 07:19:05.76	96.85	5.33	-52.1	-61.3	6.0	3.00e-06	0	40	0	30408704	74	11210
2026-01-22 07:19:09.80	96.61	5.60	-48.1	-50.3	16.2	0.00e+00	0	40	0	35651584	68	4487
2026-01-22 07:19:13.84	96.36	5.88	-48.5	-51.0	15.4	0.00e+00	0	40	0	42991616	67	5153
2026-01-22 07:19:17.87	96.11	6.15	-47.9	-50.2	16.3	0.00e+00	0	40	0	51380224	67	4675
2026-01-22 07:19:21.90	95.85	6.43	-47.6	-49.6	16.8	0.00e+00	0	40	0	58720256	66	4651
2026-01-22 07:19:25.93	95.58	6.71	-47.6	-49.7	16.8	0.00e+00	0	40	0	66060288	66	4698
2026-01-22 07:19:29.97	95.31	6.99	-47.3	-49.3	17.2	0.00e+00	0	40	0	73400320	66	4464
2026-01-22 07:19:34.00	95.04	7.27	-47.0	-48.8	17.7	0.00e+00	0	40	0	80740352	65	4479
2026-01-22 07:19:38.03	94.75	7.56	-46.9	-48.7	17.8	0.00e+00	0	40	0	89128960	65	4433
2026-01-22 07:19:42.06	94.47	7.85	-47.4	-49.4	17.2	0.00e+00	0	40	0	96468992	65	4794
2026-01-22 07:19:46.10	94.17	8.14	-47.0	-48.8	17.7	0.00e+00	0	40	0	103809024	65	4489
2026-01-22 07:19:50.13	93.87	8.43	-47.2	-49.3	17.2	0.00e+00	0	40	0	111149056	65	4750
2026-01-22 07:19:54.16	93.57	8.73	-47.3	-49.4	17.2	0.00e+00	0	40	0	119537664	66	4508
2026-01-22 07:19:58.19	93.26	9.03	-46.9	-48.8	17.7	0.00e+00	0	40	0	126877696	65	4450
2026-01-22 07:20:02.22	92.94	9.33	-46.8	-48.7	17.9	0.00e+00	0	40	0	134217728	65	4422
2026-01-22 07:20:06.26	92.61	9.64	-47.2	-49.2	17.4	0.00e+00	0	40	0	141557760	65	4694
2026-01-22 07:20:10.29	92.28	9.95	-47.2	-49.3	17.4	0.00e+00	0	40	0	148897792	65	4721
2026-01-22 07:20:14.32	91.94	10.26	-46.8	-48.6	18.0	0.00e+00	0	40	0	156237824	65	4384
2026-01-22 07:20:18.35	91.59	10.57	-47.0	-49.0	17.6	0.00e+00	0	40	0	164626432	65	4575
2026-01-22 07:20:22.38	91.23	10.89	-46.4	-48.2	18.4	0.00e+00	0	40	0	171966464	64	4411
2026-01-22 07:20:26.42	90.87	11.21	-46.3	-48.0	18.6	0.00e+00	0	40	0	179306496	64	4328
2026-01-22 07:20:30.45	90.49	11.53	-46.2	-47.9	18.8	0.00e+00	0	40	0	186646528	63	4523
2026-01-22 07:20:34.48	90.11	11.86	-46.2	-47.9	18.8	0.00e+00	0	40	0	195035136	63	4501
2026-01-22 07:20:38.52	89.72	12.19	-46.2	-47.8	19.0	0.00e+00	0	40	0	202375168	63	4450
2026-01-22 07:20:42.55	89.32	12.52	-46.2	-47.8	19.0	0.00e+00	0	40	0	209715200	63	4467
2026-01-22 07:20:46.58	88.91	12.85	-46.1	-47.7	19.1	0.00e+00	0	40	0	217055232	63	4412
2026-01-22 07:20:50.61	88.50	13.19	-46.1	-47.6	19.2	0.00e+00	0	40	0	224395264	63	4366
2026-01-22 07:20:54.64	88.07	13.53	-46.1	-47.6	19.2	0.00e+00	0	40	0	232783872	63	4372
2026-01-22 07:20:58.68	87.63	13.88	-46.2	-47.7	19.1	0.00e+00	0	40	0	240123904	63	4431
2026-01-22 07:21:02.71	87.18	14.23	-46.2	-47.7	19.1	0.00e+00	0	40	0	247463936	63	4439
2026-01-22 07:21:06.74	86.72	14.58	-46.3	-47.9	19.0	0.00e+00	0	41	0	254803968	63	4517
2026-01-22 07:21:10.77	86.25	14.93	-46.3	-48.0	18.9	0.00e+00	0	40	0	262144000	63	4573
2026-01-22 07:21:14.80	85.76	15.29	-45.9	-47.4	19.5	0.00e+00	0	40	0	270532608	63	4273
2026-01-22 07:21:18.83	85.27	15.65	-46.5	-48.2	18.8	0.00e+00	0	40	0	277872640	63	4676
2026-01-22 07:21:22.86	84.76	16.01	-45.4	-46.7	20.1	0.00e+00	0	40	0	285212672	62	4193
2026-01-22 07:21:26.90	84.24	16.38	-46.0	-47.5	19.5	0.00e+00	0	41	0	292552704	62	4561
2026-01-22 07:21:30.93	83.71	16.75	-46.2	-47.8	19.2	0.00e+00	0	40	0	299892736	63	4444
2026-01-22 07:21:34.96	83.16	17.12	-47.1	-48.9	18.1	0.00e+00	0	40	0	308281344	64	4809
2026-01-22 07:21:38.99	82.60	17.50	-46.7	-48.4	18.5	0.00e+00	0	40	0	315621376	64	4529
2026-01-22 07:21:43.02	82.02	17.88	-46.6	-48.3	18.6	0.00e+00	0	40	0	322961408	64	4478
2026-01-22 07:21:47.05	81.43	18.26	-46.0	-47.5	19.5	0.00e+00	0	41	0	330301440	63	4325
2026-01-22 07:21:51.08	80.83	18.64	-46.0	-47.6	19.5	0.00e+00	0	40	0	338690048	63	4361
2026-01-22 07:21:55.12	80.20	19.03	-46.0	-47.5	19.6	0.00e+00	0	40	0	346030080	63	4308
2026-01-22 07:21:59.15	79.56	19.42	-45.9	-47.3	19.7	0.00e+00	0	40	0	353370112	63	4234
2026-01-22 07:22:03.18	78.91	19.81	-45.8	-47.2	19.9	0.00e+00	0	40	0	360710144	63	4161
2026-01-22 07:22:07.21	78.24	20.20	-46.3	-47.9	19.3	0.00e+00	0	40	0	368050176	63	4513
2026-01-22 07:22:11.24	77.55	20.60	-46.6	-48.2	19.0	0.00e+00	0	40	0	375390208	63	4689
2026-01-22 07:22:15.28	76.84	21.00	-46.5	-48.1	19.0	0.00e+00	0	40	0	383778816	64	4355
2026-01-22 07:22:19.31	76.11	21.39	-45.7	-47.1	19.9	0.00e+00	0	40	0	391118848	63	4127
2026-01-22 07:22:23.34	75.37	21.79	-45.7	-47.2	19.9	0.00e+00	0	40	0	398458880	62	4397
2026-01-22 07:22:27.37	74.60	22.19	-45.9	-47.4	19.8	0.00e+00	0	40	0	405798912	62	4496
2026-01-22 07:22:31.40	73.81	22.59	-45.8	-47.2	19.9	0.00e+00	0	41	0	414187520	62	4435
2026-01-22 07:22:35.44	73.01	23.00	-45.8	-47.2	19.9	0.00e+00	0	41	0	421527552	62	4426
2026-01-22 07:22:39.47	72.18	23.40	-45.8	-47.2	20.0	0.00e+00	0	40	0	428867584	62	4426
2026-01-22 07:22:43.50	71.33	23.80	-46.1	-47.6	19.7	0.00e+00	0	41	0	436207616	63	4349
2026-01-22 07:22:47.54	70.45	24.20	-46.3	-47.9	19.4	0.00e+00	0	40	0	443547648	63	4519
2026-01-22 07:22:51.57	69.56	24.60	-46.6	-48.2	19.2	0.00e+00	0	40	0	451936256	63	4671
2026-01-22 07:22:55.60	68.64	24.99	-46.0	-47.4	19.7	0.00e+00	0	40	0	459276288	64	4045
2026-01-22 07:22:59.63	67.70	25.39	-45.7	-47.1	20.2	0.00e+00	0	40	0	466616320	63	4121
2026-01-22 07:23:03.66	66.74	25.78	-44.9	-46.1	21.0	0.00e+00	0	40	0	473956352	61	4138
2026-01-22 07:23:07.70	65.74	26.17	-44.4	-45.6	21.4	0.00e+00	0	40	0	482344960	60	4130
2026-01-22 07:23:11.73	64.73	26.55	-45.1	-46.4	20.7	0.00e+00	0	40	0	489684992	61	4269
2026-01-22 07:23:15.76	63.69	26.93	-46.0	-47.6	19.7	0.00e+00	0	40	0	497025024	62	4601
2026-01-22 07:23:19.79	62.63	27.30	-46.4	-48.0	19.4	0.00e+00	0	40	0	504365056	63	4558
2026-01-22 07:23:23.82	61.54	27.67	-45.8	-47.1	20.1	0.00e+00	0	40	0	511705088	63	4126
2026-01-22 07:23:27.86	60.42	28.03	-46.2	-47.6	19.6	0.00e+00	0	41	0	520093696	63	4383
2026-01-22 07:23:31.89	59.28	28.38	-46.2	-47.7	19.6	0.00e+00	0	41	0	527433728	63	4439
2026-01-22 07:23:35.92	58.12	28.73	-47.5	-49.5	17.9	0.00e+00	0	40	0	534773760	65	4844
2026-01-22 07:23:39.95	56.93	29.06	-48.6	-51.0	16.4	0.00e+00	0	41	0	542113792	67	5131
2026-01-22 07:23:43.98	55.72	29.38	-47.4	-49.3	18.1	0.00e+00	0	41	0	549453824	66	4475
2026-01-22 07:23:48.01	54.48	29.70	-46.3	-47.8	19.5	0.00e+00	0	40	0	557842432	64	4208
2026-01-22 07:23:52.04	53.22	30.00	-46.6	-48.3	18.9	0.00e+00	0	40	0	565182464	64	4476
2026-01-22 07:23:56.07	51.93	30.28	-46.5	-48.1	19.1	0.00e+00	0	41	0	572522496	64	4371
2026-01-22 07:24:00.10	50.62	30.56	-46.6	-48.3	18.9	0.00e+00	0	41	0	579862528	64	4445
2026-01-22 07:24:04.14	49.29	30.82	-46.5	-48.2	19.1	0.00e+00	0	40	0	587202560	64	4424
2026-01-22 07:24:08.17	47.94	31.06	-47.1	-49.0	18.3	0.00e+00	0	41	0	595591168	64	4833
2026-01-22 07:24:12.20	46.57	31.29	-46.1	-47.7	19.5	0.00e+00	0	40	0	602931200	64	4152
2026-01-22 07:24:16.23	45.18	31.50	-45.7	-47.1	20.1	0.00e+00	0	40	0	610271232	63	4139
2026-01-22 07:24:20.27	43.77	31.69	-46.1	-47.6	19.8	0.00e+00	0	40	0	617611264	63	4361
2026-01-22 07:24:24.30	42.34	31.86	-46.5	-48.1	19.2	0.00e+00	0	40	0	624951296	64	4360
2026-01-22 07:24:28.34	40.90	32.02	-45.6	-47.0	20.3	0.00e+00	0	40	0	633339904	62	4318
2026-01-22 07:24:32.37	39.45	32.15	-47.3	-49.2	18.1	0.00e+00	0	40	0	640679936	65	4661
2026-01-22 07:24:36.40	37.99	32.27	-46.0	-47.4	19.9	0.00e+00	0	41	0	648019968	63	4274
2026-01-22 07:24:40.44	36.52	32.36	-46.5	-48.0	19.4	0.00e+00	0	41	0	655360000	64	4321
2026-01-22 07:24:44.47	35.04	32.43	-46.0	-47.4	19.9	0.00e+00	0	41	0	663748608	63	4275
2026-01-22 07:24:48.51	33.55	32.48	-47.3	-49.2	18.2	0.00e+00	0	41	0	671088640	65	4681
2026-01-22 07:24:52.54	32.06	32.51	-47.8	-49.8	17.6	0.00e+00	0	41	0	678428672	67	4482
2026-01-22 07:24:56.57	30.58	32.51	-47.6	-49.5	17.9	0.00e+00	0	40	0	685768704	66	4581
2026-01-22 07:25:00.60	29.09	32.50	-46.3	-47.7	19.6	0.00e+00	0	41	0	693108736	64	4181
2026-01-22 07:25:04.63	27.60	32.46	-46.9	-48.6	18.8	0.00e+00	0	40	0	701497344	64	4644
2026-01-22 07:25:08.67	26.12	32.40	-46.8	-48.5	18.9	0.00e+00	0	41	0	708837376	65	4310
2026-01-22 07:25:12.69	24.65	32.32	-47.3	-49.1	18.3	0.00e+00	0	40	0	716177408	65	4648
2026-01-22 07:25:16.72	23.18	32.22	-46.5	-48.1	19.3	0.00e+00	0	41	0	723517440	64	4353
2026-01-22 07:25:20.75	21.73	32.10	-46.9	-48.6	18.8	0.00e+00	0	41	0	731906048	64	4621
2026-01-22 07:25:24.79	20.28	31.95	-46.7	-48.4	18.9	0.00e+00	0	41	0	739246080	64	4537
2026-01-22 07:25:28.82	18.85	31.79	-46.6	-48.3	19.0	0.00e+00	0	40	0	746586112	64	4464
2026-01-22 07:25:32.86	17.43	31.61	-46.6	-48.3	18.9	0.00e+00	0	41	0	753926144	64	4483
2026-01-22 07:25:36.89	16.03	31.41	-46.3	-47.9	19.4	0.00e+00	0	40	0	761266176	64	4251
2026-01-22 07:25:40.93	14.65	31.19	-45.7	-47.1	20.0	0.00e+00	0	41	0	768606208	63	4118
2026-01-22 07:25:44.96	13.29	30.96	-46.4	-47.9	19.5	0.00e+00	0	41	0	776994816	63	4535
2026-01-22 07:25:48.99	11.95	30.71	-47.0	-48.7	18.6	0.00e+00	0	41	0	784334848	64	4704
2026-01-22 07:25:53.02	10.63	30.44	-47.4	-49.3	18.0	0.00e+00	0	40	0	791674880	65	4746
2026-01-22 07:25:57.06	9.33	30.16	-47.9	-49.9	17.6	0.00e+00	0	40	0	799014912	66	4789
2026-01-22 07:26:01.08	8.06	29.87	-46.9	-48.6	18.8	0.00e+00	0	41	0	807403520	65	4355
2026-01-22 07:26:05.12	6.81	29.56	-46.8	-48.4	18.9	0.00e+00	0	41	0	814743552	65	4263
2026-01-22 07:26:09.15	5.58	29.24	-45.3	-46.5	20.6	0.00e+00	0	41	0	822083584	62	4098
2026-01-22 07:26:13.18	4.38	28.92	-45.2	-46.4	20.7	0.00e+00	0	40	0	829423616	60	4536
2026-01-22 07:26:17.22	3.20	28.58	-46.9	-48.7	18.6	0.00e+00	0	41	0	836763648	64	4677
2026-01-22 07:26:21.25	2.05	28.23	-44.9	-46.1	20.9	0.00e+00	0	41	0	845152256	61	4131
2026-01-22 07:26:25.28	0.93	27.88	-47.8	-49.9	17.5	0.00e+00	0	41	0	852492288	66	4798
2026-01-22 07:26:29.31	359.83	27.51	-46.8	-48.4	18.9	0.00e+00	0	41	0	859832320	65	4268
2026-01-22 07:26:33.34	358.75	27.14	-46.0	-47.4	19.9	0.00e+00	0	41	0	867172352	63	4289
2026-01-22 07:26:37.37	357.70	26.77	-45.4	-46.7	20.5	0.00e+00	0	41	0	874512384	62	4188
2026-01-22 07:26:41.41	356.67	26.39	-45.1	-46.4	20.8	0.00e+00	0	40	0	882900992	62	4020
2026-01-22 07:26:45.44	355.67	26.00	-45.4	-46.7	20.5	0.00e+00	0	41	0	890241024	62	4184
2026-01-22 07:26:49.48	354.69	25.62	-45.7	-47.1	20.1	0.00e+00	0	41	0	897581056	62	4386
2026-01-22 07:26:53.50	353.74	25.22	-45.7	-47.1	20.2	0.00e+00	0	41	0	904921088	62	4361
2026-01-22 07:26:57.54	352.81	24.83	-45.4	-46.8	20.4	0.00e+00	0	41	0	912261120	62	4229
2026-01-22 07:27:01.56	351.91	24.43	-44.2	-45.3	21.7	0.00e+00	0	40	0	920649728	60	3985
2026-01-22 07:27:05.60	351.03	24.03	-44.5	-45.7	21.7	0.00e+00	0	41	0	927989760	59	4404
2026-01-22 07:27:09.63	350.17	23.64	-44.9	-46.2	21.0	0.00e+00	0	41	0	935329792	60	4418
2026-01-22 07:27:13.66	349.33	23.24	-44.3	-45.4	21.6	0.00e+00	0	41	0	942669824	60	4038
2026-01-22 07:27:17.69	348.51	22.84	-44.7	-45.9	21.2	0.00e+00	0	41	0	951058432	60	4252
2026-01-22 07:27:21.73	347.72	22.43	-45.0	-46.3	20.9	0.00e+00	0	40	0	958398464	60	4445
2026-01-22 07:27:25.76	346.94	22.04	-44.3	-45.4	21.6	0.00e+00	0	41	0	965738496	60	4028
2026-01-22 07:27:29.79	346.19	21.64	-44.7	-45.9	21.2	0.00e+00	0	40	0	973078528	60	4262
2026-01-22 07:27:33.83	345.45	21.24	-45.0	-46.2	20.9	0.00e+00	0	40	0	980418560	60	4439
2026-01-22 07:27:37.86	344.73	20.84	-44.8	-46.0	21.1	0.00e+00	0	41	0	988807168	60	4321
2026-01-22 07:27:41.90	344.03	20.45	-44.7	-45.9	21.1	0.00e+00	0	41	0	996147200	60	4266
2026-01-22 07:27:45.93	343.36	20.05	-45.6	-46.9	20.3	0.00e+00	0	41	0	1003487232	61	4524
2026-01-22 07:27:49.96	342.69	19.66	-45.9	-47.4	19.8	0.00e+00	0	41	0	1010827264	63	4269
2026-01-22 07:27:53.99	342.05	19.27	-44.7	-45.9	21.1	0.00e+00	0	41	0	1018167296	61	4045
2026-01-22 07:27:58.02	341.42	18.89	-45.2	-46.5	20.6	0.00e+00	0	41	0	1026555904	61	4318
2026-01-22 07:28:02.06	340.81	18.50	-45.5	-46.8	20.3	0.00e+00	0	41	0	1033895936	61	4466
2026-01-22 07:28:06.09	340.21	18.12	-44.7	-45.9	21.1	0.00e+00	0	41	0	1041235968	61	4042
2026-01-22 07:28:10.13	339.62	17.74	-44.5	-45.7	21.3	0.00e+00	0	41	0	1048576000	60	4156
2026-01-22 07:28:14.16	339.06	17.36	-45.2	-46.4	20.7	0.00e+00	0	40	0	1056964608	60	4522
2026-01-22 07:28:18.19	338.50	16.99	-45.3	-46.6	20.3	0.00e+00	0	40	0	1064304640	61	4388
2026-01-22 07:28:22.22	337.97	16.62	-45.0	-46.3	20.7	0.00e+00	0	41	0	1071644672	61	4203
2026-01-22 07:28:26.26	337.44	16.25	-45.9	-47.4	19.7	0.00e+00	0	41	0	1078984704	62	4515
2026-01-22 07:28:30.29	336.93	15.89	-47.5	-49.5	17.7	0.00e+00	0	40	0	1086324736	65	4817
2026-01-22 07:28:34.32	336.43	15.52	-46.0	-47.5	19.5	0.00e+00	0	41	0	1094713344	64	4080
2026-01-22 07:28:38.35	335.94	15.17	-44.6	-45.8	21.1	0.00e+00	0	40	0	1102053376	61	3990
2026-01-22 07:28:42.38	335.46	14.81	-45.1	-46.4	20.5	0.00e+00	0	40	0	1109393408	61	4262
2026-01-22 07:28:46.42	335.00	14.46	-46.3	-47.9	19.2	0.00e+00	0	40	0	1116733440	63	4515
2026-01-22 07:28:50.45	334.54	14.11	-46.4	-48.0	19.0	0.00e+00	0	40	0	1124073472	63	4590
2026-01-22 07:28:54.48	334.10	13.76	-46.3	-47.9	19.1	0.00e+00	0	40	0	1132462080	63	4524
2026-01-22 07:28:58.52	333.67	13.42	-46.5	-48.1	19.0	0.00e+00	0	40	0	1139802112	63	4616
2026-01-22 07:29:02.55	333.25	13.08	-46.6	-48.2	18.8	0.00e+00	0	41	0	1147142144	63	4680
2026-01-22 07:29:06.58	332.83	12.75	-46.9	-48.6	18.3	0.00e+00	0	41	0	1154482176	64	4648
2026-01-22 07:29:10.62	332.43	12.41	-47.0	-48.8	18.1	0.00e+00	0	41	0	1161822208	64	4752
2026-01-22 07:29:14.65	332.04	12.08	-46.4	-48.1	18.8	0.00e+00	0	41	0	1170210816	64	4342
2026-01-22 07:29:18.69	331.65	11.75	-45.9	-47.4	19.5	0.00e+00	0	40	0	1177550848	63	4256
2026-01-22 07:29:22.72	331.28	11.43	-46.2	-47.8	19.1	0.00e+00	0	41	0	1184890880	63	4448
2026-01-22 07:29:26.75	330.91	11.11	-47.2	-49.1	17.8	0.00e+00	0	41	0	1192230912	64	4880
2026-01-22 07:29:30.79	330.55	10.79	-48.1	-50.3	16.6	0.00e+00	0	41	0	1200619520	66	5036
2026-01-22 07:29:34.82	330.20	10.48	-48.5	-51.0	15.9	0.00e+00	0	41	0	1207959552	67	5142
2026-01-22 07:29:38.85	329.86	10.16	-48.1	-50.5	16.4	0.00e+00	0	40	0	1215299584	67	4843
2026-01-22 07:29:42.88	329.52	9.86	-47.8	-50.0	16.8	0.00e+00	0	41	0	1222639616	67	4574
2026-01-22 07:29:46.91	329.19	9.55	-47.2	-49.2	17.5	0.00e+00	0	41	0	1229979648	66	4404
2026-01-22 07:29:50.94	328.87	9.25	-46.8	-48.6	18.0	0.00e+00	0	41	0	1237319680	65	4345
2026-01-22 07:29:54.98	328.56	8.95	-47.1	-49.0	17.7	0.00e+00	0	41	0	1245708288	64	4815
2026-01-22 07:29:59.01	328.25	8.65	-47.0	-48.9	17.7	0.00e+00	0	41	0	1253048320	64	4763
2026-01-22 07:30:03.05	327.95	8.35	-47.4	-49.5	17.1	0.00e+00	0	41	0	1260388352	65	4843
2026-01-22 07:30:07.08	327.65	8.06	-47.8	-50.0	16.5	0.00e+00	0	41	0	1267728384	66	4850
2026-01-22 07:30:11.12	327.36	7.77	-47.8	-50.1	16.5	0.00e+00	0	41	0	1276116992	66	4872
2026-01-22 07:30:15.15	327.08	7.48	-47.9	-50.3	16.3	0.00e+00	0	41	0	1283457024	66	4994
2026-01-22 07:30:19.18	326.80	7.20	-48.2	-50.7	15.8	0.00e+00	0	41	0	1290797056	67	4972
2026-01-22 07:30:23.21	326.53	6.91	-48.3	-50.9	15.6	0.00e+00	0	41	0	1298137088	67	5079
2026-01-22 07:30:27.24	326.27	6.63	-48.4	-51.0	15.4	0.00e+00	0	41	0	1305477120	67	5137
2026-01-22 07:30:31.28	326.01	6.36	-49.0	-52.0	14.5	0.00e+00	0	41	0	1313865728	68	5455
2026-01-22 07:30:35.31	325.75	6.08	-48.7	-51.6	14.8	0.00e+00	0	41	0	1321205760	68	5205
2026-01-22 07:30:39.34	325.50	5.81	-48.6	-51.5	15.0	0.00e+00	0	41	0	1328545792	68	5116
2026-01-22 07:30:43.37	325.26	5.54	-48.1	-50.6	15.7	0.00e+00	0	41	0	1335885824	67	4895
2026-01-22 07:30:47.40	325.02	5.27	-48.0	-50.4	15.8	0.00e+00	0	41	0	1344274432	67	4806
2026-01-22 07:30:51.44	324.78	5.00	-48.4	-51.2	15.2	0.00e+00	0	41	0	1351614464	67	5255
2026-01-22 07:30:55.47	324.55	4.74	-53.2	-68.2	3.8	1.49e+00	0	41	104	1351614464	76	22133
2026-01-22 07:30:59.50	324.32	4.48	-53.2	-68.2	3.8	1.49e+00	0	41	104	1351614464	77	20930
2026-01-22 07:31:03.53	324.10	4.22	-53.2	-68.2	3.8	1.49e+00	0	41	104	1351614464	77	20952
2026-01-22 07:31:07.57	323.88	3.96	-53.4	-68.4	3.8	1.49e+00	0	41	104	1351614464	77	21428
2026-01-22 07:31:11.60	323.66	3.70	-53.5	-68.5	3.8	1.49e+00	0	41	104	1351614464	77	21660
2026-01-22 07:31:15.64	323.45	3.45	-53.4	-68.5	3.8	1.49e+00	0	41	104	1351614464	77	21510
2026-01-22 07:31:19.67	323.25	3.20	-53.4	-68.4	3.8	1.49e+00	0	41	104	1351614464	77	21437
2026-01-22 07:31:23.71	323.04	2.95	-53.4	-68.4	3.8	1.49e+00	0	41	104	1351614464	77	21464
2026-01-22 07:31:27.74	322.85	2.70	-53.4	-68.4	3.8	1.49e+00	0	41	104	1351614464	77	21399
2026-01-22 07:31:31.77	322.65	2.45	-53.4	-68.4	3.8	1.49e+00	0	41	104	1351614464	77	21410
2026-01-22 07:31:35.81	322.46	2.21	-53.4	-68.4	3.8	1.49e+00	0	41	104	1351614464	77	21374
2026-01-22 07:31:39.84	322.27	1.97	-53.4	-68.4	3.8	1.49e+00	0	41	104	1351614464	77	21361

#Closed at: 2026-01-22 07:31:39
#Recorded file [1351 MB]: D:/lorett/data/31041_260122_101813.dat