passes_logs/2026/01/22/R3.2S_Murmansk/R3.2S_Murmansk__20260122_103756_SUOMI_NPP_rec.log

#Pass ID: 20260122_103756_SUOMI NPP
#Satellite: SUOMI NPP
#Configuration: NPP
#almurnet v.1.7.20251203
#Start time: 2026-01-22 10:37:57

#Version: 2.2.20231116
#Station: R3.2S_Murmansk
#Location: 33.079688 lon 68.888172 lat
#TLE: 1 37849U 11061A   26021.51818991  .00000201  00000+0  11636-3 0  9995
#TLE: 2 37849  98.7819 323.5108 0002300  52.3548 307.7836 14.19527793737637

#Time	Az	El	Level	Level2	SNR	BER	BlckErr	Temp	State	Recorded	gain1	gain2
2026-01-22 10:37:57.83	177.01	2.11	-52.5	-68.9	3.8	1.49e+00	0	39	0	0	76	24119
2026-01-22 10:38:01.70	177.13	2.36	-51.9	-68.9	3.9	1.49e+00	0	39	104	0	75	25535
2026-01-22 10:38:05.59	177.26	2.60	-50.9	-68.7	3.9	1.50e+00	0	39	104	0	73	27807
2026-01-22 10:38:09.47	177.39	2.85	-51.4	-69.1	3.9	1.50e+00	0	39	104	0	74	27596
2026-01-22 10:38:13.35	177.52	3.10	-54.4	-69.4	3.8	1.49e+00	0	40	104	0	79	21496
2026-01-22 10:38:17.23	177.65	3.36	-54.3	-69.3	3.8	1.49e+00	0	40	104	0	79	21224
2026-01-22 10:38:21.13	177.79	3.61	-54.1	-69.2	3.8	1.49e+00	0	40	104	0	79	20832
2026-01-22 10:38:25.03	177.92	3.87	-53.8	-68.8	3.8	1.49e+00	0	40	104	0	79	19961
2026-01-22 10:38:28.92	178.06	4.13	-53.0	-67.9	3.8	1.49e+00	0	40	104	0	78	19013
2026-01-22 10:38:32.80	178.21	4.39	-49.8	-53.3	13.3	1.29e-04	0	40	0	5242880	71	5297
2026-01-22 10:38:36.70	178.35	4.66	-48.5	-50.9	15.7	0.00e+00	0	40	0	12582912	68	4806
2026-01-22 10:38:40.59	178.50	4.93	-48.3	-50.8	15.7	0.00e+00	0	40	0	19922944	67	5001
2026-01-22 10:38:44.47	178.65	5.20	-48.1	-50.4	16.4	0.00e+00	0	40	0	27262976	67	4793
2026-01-22 10:38:48.36	178.80	5.47	-47.7	-49.8	16.8	0.00e+00	0	40	0	34603008	67	4487
2026-01-22 10:38:52.24	178.95	5.75	-47.5	-49.5	17.1	0.00e+00	0	40	0	41943040	66	4581
2026-01-22 10:38:56.14	179.11	6.03	-47.3	-49.2	17.5	0.00e+00	0	40	0	49283072	66	4426
2026-01-22 10:39:00.02	179.27	6.31	-47.3	-49.2	17.5	0.00e+00	0	40	0	56623104	66	4422
2026-01-22 10:39:03.90	179.43	6.59	-47.2	-49.0	17.7	0.00e+00	0	40	0	63963136	66	4318
2026-01-22 10:39:07.79	179.60	6.88	-47.1	-49.0	17.8	0.00e+00	0	40	0	71303168	66	4296
2026-01-22 10:39:11.70	179.76	7.17	-47.1	-48.8	17.9	0.00e+00	0	41	0	78643200	66	4241
2026-01-22 10:39:15.62	179.94	7.47	-47.3	-49.1	17.7	0.00e+00	0	40	0	85983232	65	4649
2026-01-22 10:39:19.55	180.11	7.77	-47.2	-48.9	17.9	0.00e+00	0	40	0	93323264	65	4541
2026-01-22 10:39:23.46	180.29	8.07	-47.2	-49.1	17.8	0.00e+00	0	41	0	100663296	65	4604
2026-01-22 10:39:27.37	180.48	8.37	-47.2	-49.1	17.9	0.00e+00	0	41	0	108003328	65	4609
2026-01-22 10:39:31.29	180.66	8.68	-47.1	-48.8	18.1	0.00e+00	0	41	0	115343360	65	4493
2026-01-22 10:39:35.19	180.85	9.00	-47.2	-49.0	18.0	0.00e+00	0	40	0	122683392	65	4563
2026-01-22 10:39:39.08	181.04	9.31	-47.1	-48.9	18.1	0.00e+00	0	41	0	130023424	65	4527
2026-01-22 10:39:43.00	181.24	9.63	-46.9	-48.6	18.3	0.00e+00	0	41	0	137363456	65	4387
2026-01-22 10:39:46.91	181.44	9.96	-46.8	-48.5	18.5	0.00e+00	0	40	0	144703488	65	4311
2026-01-22 10:39:50.83	181.65	10.28	-46.4	-47.9	19.0	0.00e+00	0	41	0	152043520	64	4278
2026-01-22 10:39:54.74	181.86	10.62	-46.5	-48.1	18.9	0.00e+00	0	40	0	159383552	64	4352
2026-01-22 10:39:58.66	182.08	10.95	-46.4	-47.9	19.1	0.00e+00	0	41	0	166723584	64	4250
2026-01-22 10:40:02.59	182.30	11.30	-46.2	-47.6	19.4	0.00e+00	0	40	0	174063616	64	4135
2026-01-22 10:40:06.51	182.52	11.64	-45.9	-47.2	19.9	0.00e+00	0	41	0	181403648	63	4181
2026-01-22 10:40:10.42	182.75	11.99	-45.6	-46.9	20.1	0.00e+00	0	41	0	188743680	63	4038
2026-01-22 10:40:14.31	182.98	12.35	-45.7	-47.1	20.0	0.00e+00	0	41	0	196083712	62	4343
2026-01-22 10:40:18.23	183.23	12.71	-45.5	-46.8	20.2	0.00e+00	0	41	0	203423744	62	4240
2026-01-22 10:40:22.16	183.47	13.07	-45.4	-46.6	20.4	0.00e+00	0	41	0	210763776	62	4129
2026-01-22 10:40:26.09	183.72	13.44	-45.4	-46.7	20.4	0.00e+00	0	41	0	218103808	62	4160
2026-01-22 10:40:30.03	183.98	13.82	-45.5	-46.8	20.3	0.00e+00	0	41	0	225443840	62	4225
2026-01-22 10:40:33.96	184.25	14.20	-45.4	-46.6	20.5	0.00e+00	0	41	0	232783872	62	4133
2026-01-22 10:40:37.88	184.52	14.59	-45.5	-46.8	20.2	0.00e+00	0	41	0	240123904	62	4240
2026-01-22 10:40:41.78	184.80	14.98	-45.4	-46.7	20.4	0.00e+00	0	41	0	247463936	62	4190
2026-01-22 10:40:45.67	185.08	15.37	-45.6	-47.0	20.2	0.00e+00	0	40	0	254803968	62	4298
2026-01-22 10:40:49.55	185.37	15.77	-45.7	-47.1	20.1	0.00e+00	0	41	0	262144000	62	4351
2026-01-22 10:40:53.45	185.66	16.18	-45.4	-46.6	20.5	0.00e+00	0	41	0	269484032	62	4129
2026-01-22 10:40:57.35	185.97	16.60	-44.8	-46.0	21.1	0.00e+00	0	41	0	276824064	61	4075
2026-01-22 10:41:01.24	186.28	17.01	-44.6	-45.8	21.3	0.00e+00	0	41	0	284164096	61	3979
2026-01-22 10:41:05.15	186.61	17.44	-44.7	-45.9	21.2	0.00e+00	0	41	0	291504128	61	4037
2026-01-22 10:41:09.04	186.94	17.88	-44.9	-46.1	21.1	0.00e+00	0	41	0	298844160	61	4112
2026-01-22 10:41:12.95	187.28	18.32	-45.1	-46.3	20.9	0.00e+00	0	41	0	306184192	61	4235
2026-01-22 10:41:16.86	187.63	18.77	-44.7	-45.9	21.3	0.00e+00	0	41	0	313524224	61	4014
2026-01-22 10:41:20.76	187.99	19.22	-44.8	-46.0	21.2	0.00e+00	0	41	0	320864256	61	4056
2026-01-22 10:41:24.65	188.36	19.68	-44.3	-45.4	21.7	0.00e+00	0	41	0	328204288	60	4020
2026-01-22 10:41:28.54	188.74	20.15	-44.2	-45.2	21.8	0.00e+00	0	41	0	334495744	60	3947
2026-01-22 10:41:32.43	189.13	20.63	-44.5	-45.6	21.5	0.00e+00	0	41	0	341835776	60	4130
2026-01-22 10:41:36.34	189.54	21.11	-44.4	-45.6	21.6	0.00e+00	0	41	0	349175808	60	4105
2026-01-22 10:41:40.26	189.95	21.61	-44.3	-45.4	21.8	0.00e+00	0	41	0	356515840	60	4019
2026-01-22 10:41:44.17	190.39	22.11	-44.3	-45.4	22.0	0.00e+00	0	41	0	363855872	59	4261
2026-01-22 10:41:48.08	190.83	22.62	-44.2	-45.2	22.1	0.00e+00	0	41	0	371195904	59	4185
2026-01-22 10:41:52.00	191.29	23.15	-44.1	-45.2	22.2	0.00e+00	0	41	0	378535936	59	4156
2026-01-22 10:41:55.90	191.77	23.67	-43.9	-45.0	22.4	0.00e+00	0	41	0	385875968	59	4055
2026-01-22 10:41:59.79	192.25	24.21	-44.6	-45.7	21.7	0.00e+00	0	41	0	393216000	59	4428
2026-01-22 10:42:03.70	192.76	24.76	-44.8	-46.0	21.3	0.00e+00	0	41	0	400556032	60	4293
2026-01-22 10:42:07.62	193.29	25.31	-44.8	-45.9	21.3	0.00e+00	0	41	0	407896064	60	4267
2026-01-22 10:42:11.55	193.83	25.88	-45.1	-46.3	21.0	0.00e+00	0	41	0	415236096	61	4216
2026-01-22 10:42:15.49	194.40	26.46	-45.0	-46.2	21.1	0.00e+00	0	41	0	422576128	61	4153
2026-01-22 10:42:19.43	194.99	27.05	-45.1	-46.2	21.1	0.00e+00	0	41	0	429916160	61	4186
2026-01-22 10:42:23.37	195.59	27.65	-45.1	-46.3	21.0	0.00e+00	0	41	0	437256192	61	4224
2026-01-22 10:42:27.31	196.23	28.26	-45.8	-47.2	20.3	0.00e+00	0	41	0	444596224	62	4407
2026-01-22 10:42:31.22	196.88	28.87	-46.3	-47.7	19.7	0.00e+00	0	41	0	452984832	63	4420
2026-01-22 10:42:35.14	197.55	29.50	-46.9	-48.5	18.9	0.00e+00	0	41	0	460324864	64	4548
2026-01-22 10:42:39.06	198.25	30.13	-47.6	-49.4	18.2	0.00e+00	0	41	0	467664896	65	4760
2026-01-22 10:42:42.99	198.99	30.78	-47.7	-49.5	18.1	0.00e+00	0	41	0	475004928	66	4582
2026-01-22 10:42:46.92	199.75	31.44	-47.5	-49.1	18.4	0.00e+00	0	41	0	482344960	66	4388
2026-01-22 10:42:50.86	200.54	32.10	-47.4	-49.1	18.5	0.00e+00	0	41	0	489684992	66	4364
2026-01-22 10:42:54.78	201.37	32.78	-46.8	-48.3	19.2	0.00e+00	0	41	0	497025024	65	4218
2026-01-22 10:42:58.70	202.22	33.46	-46.5	-48.0	19.6	0.00e+00	0	41	0	504365056	64	4296
2026-01-22 10:43:02.63	203.12	34.15	-46.3	-47.7	19.8	0.00e+00	0	41	0	511705088	64	4175
2026-01-22 10:43:06.55	204.05	34.84	-46.3	-47.6	20.0	0.00e+00	0	41	0	519045120	63	4360
2026-01-22 10:43:10.45	205.02	35.54	-46.4	-47.7	19.9	0.00e+00	0	41	0	526385152	63	4420
2026-01-22 10:43:14.37	206.03	36.25	-45.8	-47.1	20.5	0.00e+00	0	41	0	533725184	63	4116
2026-01-22 10:43:18.27	207.08	36.96	-45.0	-46.2	21.3	0.00e+00	0	41	0	541065216	61	4161
2026-01-22 10:43:22.19	208.19	37.68	-45.1	-46.3	21.2	0.00e+00	0	41	0	548405248	61	4196
2026-01-22 10:43:26.12	209.34	38.41	-44.6	-45.7	21.7	0.00e+00	0	41	0	555745280	61	3935
2026-01-22 10:43:30.05	210.55	39.14	-45.2	-46.4	21.1	0.00e+00	0	41	0	563085312	61	4265
2026-01-22 10:43:33.98	211.81	39.86	-45.8	-47.0	20.6	0.00e+00	0	41	0	570425344	62	4324
2026-01-22 10:43:37.90	213.13	40.59	-45.4	-46.7	21.0	0.00e+00	0	41	0	577765376	62	4148
2026-01-22 10:43:41.80	214.50	41.31	-45.0	-46.2	21.2	0.00e+00	0	41	0	585105408	61	4156
2026-01-22 10:43:45.71	215.93	42.02	-45.9	-47.2	20.4	0.00e+00	0	41	0	592445440	62	4418
2026-01-22 10:43:49.63	217.43	42.74	-45.4	-46.6	21.0	0.00e+00	0	41	0	599785472	62	4103
2026-01-22 10:43:53.55	219.00	43.44	-44.9	-46.0	21.5	0.00e+00	0	41	0	607125504	61	4095
2026-01-22 10:43:57.50	220.64	44.14	-45.4	-46.6	20.9	0.00e+00	0	41	0	614465536	61	4390
2026-01-22 10:44:01.42	222.35	44.81	-46.3	-47.7	20.0	0.00e+00	0	41	0	621805568	63	4418
2026-01-22 10:44:05.36	224.14	45.47	-46.9	-48.4	19.3	0.00e+00	0	41	0	629145600	64	4544
2026-01-22 10:44:09.29	226.00	46.11	-45.6	-46.9	20.8	0.00e+00	0	41	0	636485632	63	4014
2026-01-22 10:44:13.22	227.93	46.73	-45.7	-47.0	20.8	0.00e+00	0	41	0	643825664	63	4062
2026-01-22 10:44:17.13	229.92	47.31	-45.2	-46.4	21.3	0.00e+00	0	41	0	651165696	62	4011
2026-01-22 10:44:21.01	231.98	47.87	-46.0	-47.3	20.4	0.00e+00	0	41	0	658505728	63	4214
2026-01-22 10:44:24.90	234.11	48.38	-45.7	-46.9	20.7	0.00e+00	0	41	0	665845760	63	4047
2026-01-22 10:44:28.79	236.31	48.86	-45.1	-46.2	21.4	0.00e+00	0	41	0	673185792	61	4178
2026-01-22 10:44:32.67	238.57	49.30	-45.5	-46.7	21.0	0.00e+00	0	41	0	680525824	61	4417
2026-01-22 10:44:36.56	240.89	49.70	-45.7	-47.0	20.8	0.00e+00	0	41	0	687865856	62	4309
2026-01-22 10:44:40.44	243.27	50.05	-44.3	-45.4	22.1	0.00e+00	0	41	0	695205888	60	4011
2026-01-22 10:44:44.33	245.71	50.34	-44.4	-45.5	22.0	0.00e+00	0	41	0	702545920	60	4072
2026-01-22 10:44:48.22	248.18	50.59	-44.4	-45.4	22.4	0.00e+00	0	41	0	708837376	59	4276
2026-01-22 10:44:52.09	250.68	50.78	-44.7	-45.8	21.8	0.00e+00	0	41	0	716177408	60	4216
2026-01-22 10:44:55.97	253.22	50.91	-44.7	-45.8	22.1	0.00e+00	0	41	0	723517440	59	4450
2026-01-22 10:44:59.86	255.77	50.98	-45.4	-46.7	21.0	0.00e+00	0	41	0	730857472	62	4151
2026-01-22 10:45:03.75	258.34	51.00	-44.6	-45.7	21.8	0.00e+00	0	41	0	738197504	60	4158
2026-01-22 10:45:07.63	260.89	50.96	-44.3	-45.4	22.1	0.00e+00	0	41	0	745537536	60	4018
2026-01-22 10:45:11.50	263.43	50.86	-43.4	-44.4	23.2	0.00e+00	0	41	0	752877568	58	4020
2026-01-22 10:45:15.39	265.96	50.70	-44.4	-45.5	22.1	0.00e+00	0	41	0	760217600	60	4054
2026-01-22 10:45:19.28	268.45	50.48	-45.2	-46.4	21.2	0.00e+00	0	41	0	767557632	61	4281
2026-01-22 10:45:23.16	270.90	50.21	-44.7	-45.8	21.8	0.00e+00	0	41	0	774897664	60	4223
2026-01-22 10:45:27.04	273.31	49.89	-45.6	-46.8	20.9	0.00e+00	0	41	0	782237696	61	4463
2026-01-22 10:45:30.93	275.66	49.52	-47.2	-48.7	19.1	0.00e+00	0	41	0	789577728	66	4188
2026-01-22 10:45:34.81	277.95	49.11	-48.3	-50.1	17.8	0.00e+00	0	41	0	796917760	67	4619
2026-01-22 10:45:38.70	280.19	48.65	-49.5	-51.7	16.3	0.00e+00	0	41	0	804257792	70	4698
2026-01-22 10:45:42.57	282.34	48.16	-49.3	-51.5	16.6	0.00e+00	0	41	0	811597824	69	4851
2026-01-22 10:45:46.46	284.43	47.62	-50.2	-53.0	14.9	7.00e-07	0	41	0	818937856	72	4842
2026-01-22 10:45:50.35	286.46	47.06	-49.1	-51.2	16.9	0.00e+00	0	41	0	826277888	69	4682
2026-01-22 10:45:54.24	288.41	46.47	-49.0	-51.1	17.3	0.00e+00	0	41	0	833617920	69	4606
2026-01-22 10:45:58.13	290.28	45.85	-48.7	-50.6	17.5	0.00e+00	0	41	0	840957952	69	4355
2026-01-22 10:46:02.00	292.08	45.21	-50.8	-54.0	14.1	0.00e+00	0	41	0	847249408	72	5457
2026-01-22 10:46:05.89	293.81	44.55	-47.3	-48.8	19.1	0.00e+00	0	41	0	854589440	66	4214
2026-01-22 10:46:09.77	295.46	43.88	-45.7	-46.9	20.9	0.00e+00	0	41	0	861929472	63	4027
2026-01-22 10:46:13.65	297.05	43.19	-44.8	-45.9	21.8	0.00e+00	0	41	0	869269504	61	4032
2026-01-22 10:46:17.54	298.58	42.49	-44.4	-45.4	22.2	0.00e+00	0	41	0	876609536	60	4048
2026-01-22 10:46:21.42	300.04	41.79	-44.2	-45.2	22.3	0.00e+00	0	41	0	883949568	60	3942
2026-01-22 10:46:25.30	301.43	41.08	-44.8	-45.9	21.7	0.00e+00	0	41	0	891289600	61	4029
2026-01-22 10:46:29.20	302.78	40.36	-45.2	-46.4	21.3	0.00e+00	0	41	0	898629632	60	4510
2026-01-22 10:46:33.08	304.06	39.65	-45.7	-47.0	20.8	0.00e+00	0	41	0	905969664	62	4295
2026-01-22 10:46:36.96	305.28	38.93	-48.3	-50.2	17.7	0.00e+00	0	41	0	913309696	67	4672
2026-01-22 10:46:40.85	306.46	38.22	-49.2	-51.5	16.6	0.00e+00	0	41	0	920649728	70	4557
2026-01-22 10:46:44.74	307.59	37.50	-47.7	-49.4	18.5	0.00e+00	0	41	0	927989760	66	4512
2026-01-22 10:46:48.62	308.66	36.80	-47.5	-49.0	18.8	0.00e+00	0	41	0	935329792	66	4340
2026-01-22 10:46:52.49	309.69	36.09	-49.3	-51.5	16.7	0.00e+00	0	41	0	942669824	69	4815
2026-01-22 10:46:56.38	310.68	35.39	-50.4	-53.3	14.5	3.80e-06	0	41	0	950009856	72	5035
2026-01-22 10:47:00.27	311.64	34.70	-46.8	-48.2	19.5	0.00e+00	0	41	0	957349888	65	4166
2026-01-22 10:47:04.15	312.55	34.02	-49.8	-52.3	15.7	0.00e+00	0	41	0	964689920	70	4990
2026-01-22 10:47:08.03	313.42	33.34	-47.6	-49.2	18.6	0.00e+00	0	41	0	972029952	66	4431
2026-01-22 10:47:11.92	314.26	32.67	-49.1	-51.2	16.7	0.00e+00	0	41	0	979369984	68	4964
2026-01-22 10:47:15.81	315.07	32.01	-47.4	-49.0	18.6	0.00e+00	0	41	0	985661440	66	4338
2026-01-22 10:47:19.69	315.84	31.36	-46.6	-48.0	19.6	0.00e+00	0	41	0	993001472	64	4317
2026-01-22 10:47:23.57	316.59	30.72	-48.0	-49.9	17.9	0.00e+00	0	41	0	1000341504	66	4763
2026-01-22 10:47:27.45	317.30	30.08	-46.7	-48.1	19.5	0.00e+00	0	41	0	1007681536	65	4139
2026-01-22 10:47:31.34	318.00	29.46	-46.7	-48.1	19.4	0.00e+00	0	41	0	1015021568	65	4139
2026-01-22 10:47:35.22	318.66	28.84	-46.6	-48.1	19.6	0.00e+00	0	41	0	1022361600	64	4351
2026-01-22 10:47:39.10	319.30	28.24	-46.7	-48.2	19.5	0.00e+00	0	41	0	1029701632	64	4393
2026-01-22 10:47:42.99	319.92	27.64	-46.0	-47.3	20.3	0.00e+00	0	41	0	1037041664	63	4211
2026-01-22 10:47:46.87	320.52	27.06	-44.5	-45.6	21.8	0.00e+00	0	41	0	1044381696	60	4110
2026-01-22 10:47:50.75	321.09	26.48	-45.1	-46.2	21.2	0.00e+00	0	41	0	1051721728	60	4415
2026-01-22 10:47:54.63	321.65	25.91	-46.4	-47.8	19.8	0.00e+00	0	41	0	1059061760	63	4483
2026-01-22 10:47:58.51	322.19	25.35	-46.1	-47.4	20.0	0.00e+00	0	41	0	1066401792	64	4039
2026-01-22 10:48:02.40	322.71	24.80	-45.5	-46.7	20.7	0.00e+00	0	41	0	1073741824	62	4173
2026-01-22 10:48:06.28	323.21	24.26	-45.9	-47.3	20.2	0.00e+00	0	41	0	1081081856	63	4204
2026-01-22 10:48:10.18	323.70	23.73	-45.8	-47.1	20.4	0.00e+00	0	41	0	1088421888	63	4106
2026-01-22 10:48:14.07	324.17	23.21	-45.6	-46.8	20.6	0.00e+00	0	41	0	1095761920	62	4228
2026-01-22 10:48:17.95	324.62	22.69	-46.0	-47.3	20.1	0.00e+00	0	41	0	1103101952	62	4476
2026-01-22 10:48:21.84	325.07	22.19	-45.5	-46.8	20.6	0.00e+00	0	41	0	1110441984	62	4201
2026-01-22 10:48:25.72	325.49	21.69	-45.9	-47.2	20.2	0.00e+00	0	41	0	1116733440	62	4424
2026-01-22 10:48:29.61	325.91	21.20	-45.6	-46.9	20.4	0.00e+00	0	41	0	1124073472	62	4277
2026-01-22 10:48:33.49	326.31	20.72	-46.2	-47.6	19.7	0.00e+00	0	41	0	1131413504	63	4390
2026-01-22 10:48:37.37	326.70	20.25	-46.4	-47.9	19.5	0.00e+00	0	41	0	1138753536	63	4515
2026-01-22 10:48:41.25	327.08	19.78	-47.4	-49.1	18.2	0.00e+00	0	41	0	1146093568	65	4646
2026-01-22 10:48:45.14	327.45	19.32	-47.3	-49.1	18.2	0.00e+00	0	41	0	1153433600	65	4607
2026-01-22 10:48:49.03	327.81	18.87	-46.3	-47.7	19.5	0.00e+00	0	41	0	1160773632	64	4177
2026-01-22 10:48:52.91	328.16	18.43	-45.7	-47.0	20.2	0.00e+00	0	41	0	1168113664	63	4071
2026-01-22 10:48:56.79	328.50	17.99	-45.5	-46.7	20.4	0.00e+00	0	41	0	1175453696	62	4193
2026-01-22 10:49:00.68	328.83	17.56	-45.2	-46.4	20.7	0.00e+00	0	41	0	1182793728	62	4039
2026-01-22 10:49:04.57	329.16	17.14	-45.3	-46.5	20.6	0.00e+00	0	41	0	1190133760	62	4088
2026-01-22 10:49:08.44	329.47	16.72	-45.7	-47.0	20.2	0.00e+00	0	41	0	1197473792	62	4294
2026-01-22 10:49:12.33	329.77	16.31	-46.2	-47.6	19.6	0.00e+00	0	41	0	1204813824	63	4381
2026-01-22 10:49:16.22	330.07	15.91	-46.6	-48.1	19.0	0.00e+00	0	41	0	1212153856	64	4372
2026-01-22 10:49:20.10	330.36	15.51	-46.6	-48.1	19.0	0.00e+00	0	41	0	1219493888	64	4387
2026-01-22 10:49:23.98	330.65	15.12	-46.1	-47.6	19.5	0.00e+00	0	41	0	1226833920	64	4100
2026-01-22 10:49:27.87	330.92	14.73	-45.8	-47.2	19.9	0.00e+00	0	41	0	1234173952	63	4168
2026-01-22 10:49:31.74	331.19	14.35	-45.6	-46.9	20.1	0.00e+00	0	41	0	1240465408	63	4016
2026-01-22 10:49:35.62	331.46	13.97	-45.4	-46.7	20.4	0.00e+00	0	41	0	1247805440	62	4155
2026-01-22 10:49:39.50	331.71	13.60	-45.9	-47.2	19.9	0.00e+00	0	41	0	1255145472	62	4432
2026-01-22 10:49:43.39	331.97	13.24	-46.3	-47.8	19.2	0.00e+00	0	41	0	1262485504	63	4475
2026-01-22 10:49:47.27	332.21	12.87	-47.0	-48.7	18.3	0.00e+00	0	41	0	1269825536	64	4698
2026-01-22 10:49:51.15	332.45	12.52	-47.5	-49.4	17.7	0.00e+00	0	41	0	1277165568	65	4768
2026-01-22 10:49:55.04	332.69	12.17	-47.6	-49.5	17.5	0.00e+00	0	41	0	1284505600	65	4847
2026-01-22 10:49:58.92	332.92	11.82	-47.6	-49.5	17.5	0.00e+00	0	41	0	1291845632	65	4840
2026-01-22 10:50:02.80	333.14	11.48	-47.2	-49.1	17.9	0.00e+00	0	41	0	1299185664	65	4609
2026-01-22 10:50:06.68	333.36	11.14	-46.9	-48.6	18.3	0.00e+00	0	41	0	1306525696	65	4363
2026-01-22 10:50:10.56	333.58	10.81	-46.3	-47.9	19.0	0.00e+00	0	41	0	1313865728	64	4249
2026-01-22 10:50:14.45	333.79	10.48	-46.0	-47.5	19.4	7.00e-07	0	41	0	1321205760	63	4324
2026-01-22 10:50:18.33	334.00	10.15	-45.8	-47.3	19.6	0.00e+00	0	41	0	1328545792	63	4203
2026-01-22 10:50:22.21	334.20	9.83	-45.7	-47.0	19.8	0.00e+00	0	41	0	1335885824	63	4096
2026-01-22 10:50:26.09	334.40	9.52	-45.7	-47.1	19.7	1.50e-06	0	41	0	1343225856	63	4128
2026-01-22 10:50:29.97	334.59	9.20	-45.7	-47.1	19.7	2.20e-06	0	41	0	1350565888	63	4119
2026-01-22 10:50:33.86	334.79	8.89	-45.8	-47.3	19.5	0.00e+00	0	41	0	1357905920	63	4211
2026-01-22 10:50:37.76	334.98	8.59	-46.1	-47.6	19.1	3.00e-06	0	41	0	1365245952	63	4373
2026-01-22 10:50:41.64	335.16	8.28	-46.4	-48.0	18.7	0.00e+00	0	41	0	1371537408	63	4597
2026-01-22 10:50:45.52	335.34	7.98	-46.7	-48.4	18.3	1.50e-06	0	41	0	1378877440	64	4502
2026-01-22 10:50:49.41	335.52	7.69	-47.1	-49.0	17.6	0.00e+00	0	41	0	1386217472	64	4862
2026-01-22 10:50:53.30	335.69	7.39	-47.2	-49.2	17.5	0.00e+00	0	41	0	1393557504	65	4658
2026-01-22 10:50:57.18	335.86	7.10	-47.3	-49.3	17.3	1.14e-05	0	41	0	1400897536	65	4729
2026-01-22 10:51:01.07	336.03	6.82	-47.6	-49.7	16.8	0.00e+00	0	41	0	1408237568	65	4976
2026-01-22 10:51:04.96	336.20	6.53	-47.8	-50.0	16.4	0.00e+00	0	41	0	1415577600	66	4860
2026-01-22 10:51:08.85	336.36	6.25	-48.0	-50.3	16.2	8.30e-06	0	41	0	1422917632	66	4992
2026-01-22 10:51:12.74	336.52	5.97	-48.1	-50.5	16.0	3.80e-06	0	41	0	1430257664	66	5130
2026-01-22 10:51:16.63	336.68	5.70	-47.9	-50.2	16.2	6.80e-06	0	41	0	1437597696	66	4946
2026-01-22 10:51:20.53	336.83	5.42	-48.0	-50.3	16.1	0.00e+00	0	41	0	1444937728	66	5000
2026-01-22 10:51:24.47	336.99	5.15	-48.0	-50.3	15.9	0.00e+00	0	41	0	1452277760	66	5029
2026-01-22 10:51:28.49	337.14	4.87	-53.2	-68.2	3.8	1.49e+00	0	41	104	1456472064	76	22099
2026-01-22 10:51:32.49	337.30	4.60	-53.6	-68.6	3.8	1.49e+00	0	41	104	1456472064	77	21831
2026-01-22 10:51:36.48	337.44	4.33	-53.6	-68.6	3.8	1.49e+00	0	41	104	1456472064	77	21831
2026-01-22 10:51:40.46	337.59	4.07	-53.4	-68.4	3.8	1.49e+00	0	41	104	1456472064	77	21328
2026-01-22 10:51:44.45	337.73	3.80	-53.5	-68.5	3.8	1.49e+00	0	41	104	1456472064	77	21692
2026-01-22 10:51:48.43	337.88	3.54	-53.6	-68.6	3.8	1.49e+00	0	41	104	1456472064	77	21874
2026-01-22 10:51:52.41	338.02	3.28	-53.5	-68.5	3.8	1.49e+00	0	41	104	1456472064	77	21728
2026-01-22 10:51:56.39	338.15	3.03	-53.5	-68.5	3.8	1.49e+00	0	41	104	1456472064	77	21659
2026-01-22 10:52:00.37	338.29	2.77	-53.5	-68.5	3.8	1.49e+00	0	41	104	1456472064	77	21588
2026-01-22 10:52:04.39	338.42	2.52	-53.5	-68.5	3.8	1.49e+00	0	41	104	1456472064	77	21617
2026-01-22 10:52:08.42	338.56	2.26	-53.5	-68.5	3.8	1.49e+00	0	41	104	1456472064	77	21564
2026-01-22 10:52:12.46	338.69	2.01	-53.5	-68.5	3.8	1.49e+00	0	41	104	1456472064	77	21518

#Closed at: 2026-01-22 10:52:15
#Recorded file [1456 MB]: D:/lorett/data/31041_260122_133757.dat