passes_logs/2026/01/04/R2.0S_Moscow/R2.0S_Moscow__20260104_040835_FENGYUN_3E_rec.log

#Pass ID: 20260104_040835_FENGYUN 3E
#Satellite: FENGYUN 3E
#Configuration: FENGYUN 3E
#almurnet v.1.7.20251203
#Start time: 2026-01-04 04:08:36

#Version: 2.2.20231116
#Station: R2.0S_Moscow
#Location: 37.707566 lon 55.798166 lat
#TLE: 1 49008U 21062A   26003.51942929 -.00000034  00000+0  45519-5 0  9990
#TLE: 2 49008  98.7472   8.7829 0001426 160.7926 199.3304 14.19883272233213

#Time	Az	El	Level	Level2	SNR	BER	BlckErr	Temp	State	Recorded	gain1	gain2
2026-01-04 04:08:36.46	15.29	2.07	-43.4	-54.6	3.8	8.46e-01	0	48	0	0	57	12989
2026-01-04 04:08:40.50	15.27	2.33	-43.4	-54.5	3.8	8.46e-01	0	48	104	0	57	12953
2026-01-04 04:08:44.54	15.25	2.59	-43.4	-54.5	3.8	8.46e-01	0	48	104	0	57	12940
2026-01-04 04:08:48.59	15.23	2.85	-43.4	-54.5	3.8	8.46e-01	0	49	104	0	57	12959
2026-01-04 04:08:52.63	15.21	3.12	-43.4	-54.5	3.8	8.46e-01	0	49	104	0	57	12942
2026-01-04 04:08:56.67	15.18	3.39	-43.5	-54.5	3.8	8.46e-01	0	49	104	0	57	12935
2026-01-04 04:09:00.72	15.16	3.66	-43.5	-54.6	3.8	8.45e-01	0	50	104	0	57	12981
2026-01-04 04:09:04.76	15.14	3.94	-43.5	-54.5	3.8	8.46e-01	0	50	104	0	57	12959
2026-01-04 04:09:08.80	15.11	4.21	-43.4	-54.5	3.8	8.46e-01	0	50	104	0	57	12936
2026-01-04 04:09:12.85	15.09	4.50	-43.4	-54.5	3.8	8.47e-01	0	50	104	0	57	12852
2026-01-04 04:09:16.89	15.06	4.78	-43.4	-54.6	3.8	8.45e-01	0	51	104	0	57	12985
2026-01-04 04:09:20.93	15.03	5.06	-43.4	-54.4	3.8	8.46e-01	0	51	104	0	57	12773
2026-01-04 04:09:24.98	15.01	5.35	-43.4	-54.2	3.8	8.47e-01	0	51	104	0	57	12500
2026-01-04 04:09:29.02	14.98	5.65	-43.4	-53.9	3.8	8.45e-01	0	51	104	0	57	11971
2026-01-04 04:09:33.06	14.95	5.94	-43.3	-53.4	3.8	8.47e-01	0	52	104	0	57	11408
2026-01-04 04:09:37.11	14.92	6.24	-43.3	-53.6	3.8	8.47e-01	0	52	104	0	57	11631
2026-01-04 04:09:41.15	14.88	6.55	-43.1	-51.5	4.1	8.44e-01	0	52	104	0	57	9131
2026-01-04 04:09:45.19	14.85	6.85	-42.2	-48.0	5.5	7.42e-01	0	52	0	0	55	6871
2026-01-04 04:09:49.24	14.82	7.16	-39.1	-41.6	11.7	1.15e-03	0	52	0	27262976	49	4628
2026-01-04 04:09:53.28	14.78	7.48	-36.9	-38.6	14.6	1.10e-06	0	52	0	56623104	44	4373
2026-01-04 04:09:57.32	14.75	7.79	-37.9	-39.9	13.3	2.28e-05	0	53	0	85983232	45	4786
2026-01-04 04:10:01.37	14.71	8.12	-39.4	-41.9	11.7	3.05e-04	0	53	0	115343360	48	5069
2026-01-04 04:10:05.41	14.67	8.44	-40.9	-45.1	7.7	5.68e-01	0	53	0	140509184	52	5833
2026-01-04 04:10:09.45	14.63	8.77	-37.4	-39.1	14.6	0.00e+00	0	53	0	169869312	45	4350
2026-01-04 04:10:13.49	14.59	9.11	-37.7	-39.5	14.3	1.10e-06	0	53	0	199229440	45	4553
2026-01-04 04:10:17.53	14.55	9.44	-37.1	-38.7	15.2	0.00e+00	0	53	0	228589568	45	4165
2026-01-04 04:10:21.58	14.50	9.79	-37.0	-38.5	15.4	0.00e+00	0	54	0	256901120	45	4097
2026-01-04 04:10:25.61	14.46	10.14	-37.1	-38.6	15.3	0.00e+00	0	54	0	286261248	44	4390
2026-01-04 04:10:29.66	14.41	10.49	-36.9	-38.4	15.6	0.00e+00	0	54	0	315621376	44	4290
2026-01-04 04:10:33.70	14.36	10.85	-36.9	-38.4	15.7	0.00e+00	0	54	0	344981504	44	4263
2026-01-04 04:10:37.74	14.31	11.21	-36.8	-38.3	15.8	0.00e+00	0	54	0	374341632	44	4227
2026-01-04 04:10:41.78	14.26	11.58	-36.7	-38.1	16.0	0.00e+00	0	54	0	403701760	44	4141
2026-01-04 04:10:45.82	14.21	11.96	-36.6	-38.0	16.1	0.00e+00	0	54	0	432013312	44	4098
2026-01-04 04:10:49.85	14.15	12.34	-36.2	-37.6	16.4	0.00e+00	0	54	0	461373440	43	4110
2026-01-04 04:10:53.89	14.10	12.72	-36.0	-37.4	16.7	0.00e+00	0	54	0	490733568	43	4010
2026-01-04 04:10:57.93	14.04	13.12	-36.1	-37.4	16.7	0.00e+00	0	54	0	520093696	42	4286
2026-01-04 04:11:01.98	13.98	13.52	-36.0	-37.3	16.9	0.00e+00	0	54	0	549453824	42	4228
2026-01-04 04:11:06.01	13.91	13.92	-35.8	-37.1	17.1	0.00e+00	0	55	0	577765376	42	4125
2026-01-04 04:11:10.05	13.85	14.33	-35.7	-36.9	17.3	0.00e+00	0	55	0	607125504	42	4037
2026-01-04 04:11:14.09	13.78	14.76	-35.6	-36.9	17.4	0.00e+00	0	55	0	636485632	42	4005
2026-01-04 04:11:18.13	13.71	15.18	-35.5	-36.8	17.5	0.00e+00	0	55	0	665845760	41	4205
2026-01-04 04:11:22.17	13.64	15.62	-35.4	-36.7	17.7	0.00e+00	0	55	0	695205888	41	4160
2026-01-04 04:11:26.21	13.56	16.06	-35.3	-36.5	17.9	0.00e+00	0	55	0	724566016	41	4073
2026-01-04 04:11:30.24	13.49	16.51	-35.2	-36.4	18.0	0.00e+00	0	55	0	752877568	41	4019
2026-01-04 04:11:34.28	13.40	16.97	-35.2	-36.3	18.1	0.00e+00	0	55	0	782237696	41	4003
2026-01-04 04:11:38.32	13.32	17.44	-34.9	-36.0	18.5	0.00e+00	0	55	0	811597824	40	4091
2026-01-04 04:11:42.37	13.23	17.92	-34.8	-35.9	18.6	0.00e+00	0	55	0	840957952	40	4038
2026-01-04 04:11:46.40	13.14	18.40	-34.7	-35.8	18.8	0.00e+00	0	55	0	869269504	40	3974
2026-01-04 04:11:50.44	13.05	18.90	-34.6	-35.7	18.9	0.00e+00	0	55	0	898629632	40	3942
2026-01-04 04:11:54.48	12.95	19.40	-34.6	-35.7	18.9	0.00e+00	0	55	0	927989760	40	3930
2026-01-04 04:11:58.53	12.85	19.92	-34.6	-35.7	18.9	0.00e+00	0	55	0	957349888	40	3930
2026-01-04 04:12:02.54	12.74	20.45	-34.6	-35.8	18.9	0.00e+00	0	56	0	985661440	39	4202
2026-01-04 04:12:06.58	12.63	20.99	-34.6	-35.8	18.9	0.00e+00	0	55	0	1015021568	39	4195
2026-01-04 04:12:10.62	12.52	21.54	-34.6	-35.7	19.0	0.00e+00	0	55	0	1044381696	39	4165
2026-01-04 04:12:14.65	12.40	22.10	-34.5	-35.6	19.1	0.00e+00	0	56	0	1073741824	39	4128
2026-01-04 04:12:18.69	12.28	22.67	-34.6	-35.7	19.0	0.00e+00	0	56	0	1103101952	39	4166
2026-01-04 04:12:22.74	12.15	23.26	-34.5	-35.6	19.2	0.00e+00	0	56	0	1131413504	39	4105
2026-01-04 04:12:26.78	12.01	23.87	-34.4	-35.5	19.3	0.00e+00	0	56	0	1160773632	39	4087
2026-01-04 04:12:30.81	11.87	24.48	-34.2	-35.3	19.5	0.00e+00	0	56	0	1190133760	39	3979
2026-01-04 04:12:34.85	11.72	25.11	-34.1	-35.1	19.6	0.00e+00	0	56	0	1219493888	39	3891
2026-01-04 04:12:38.89	11.57	25.76	-34.0	-35.0	19.7	0.00e+00	0	56	0	1248854016	38	4096
2026-01-04 04:12:42.93	11.41	26.42	-34.0	-35.1	19.7	0.00e+00	0	56	0	1278214144	38	4108
2026-01-04 04:12:46.97	11.24	27.10	-34.0	-35.1	19.7	0.00e+00	0	56	0	1306525696	38	4118
2026-01-04 04:12:51.01	11.06	27.80	-34.0	-35.0	19.8	0.00e+00	0	56	0	1335885824	38	4074
2026-01-04 04:12:55.05	10.88	28.51	-33.8	-34.8	20.0	0.00e+00	0	56	0	1365245952	38	3980
2026-01-04 04:12:59.09	10.68	29.24	-33.7	-34.7	20.1	0.00e+00	0	56	0	1394606080	38	3937
2026-01-04 04:13:03.13	10.48	29.99	-33.6	-34.6	20.2	0.00e+00	0	56	0	1423966208	38	3904
2026-01-04 04:13:07.17	10.26	30.76	-33.7	-34.8	20.1	0.00e+00	0	56	0	1453326336	38	3968
2026-01-04 04:13:11.21	10.03	31.56	-33.9	-34.9	20.0	0.00e+00	0	56	0	1481637888	38	4035
2026-01-04 04:13:15.25	9.80	32.37	-34.1	-35.2	19.7	0.00e+00	0	56	0	1510998016	38	4165
2026-01-04 04:13:19.29	9.54	33.20	-34.1	-35.1	19.8	0.00e+00	0	56	0	1540358144	38	4141
2026-01-04 04:13:23.33	9.28	34.06	-34.0	-35.0	19.9	0.00e+00	0	56	0	1569718272	38	4087
2026-01-04 04:13:27.36	8.99	34.94	-33.7	-34.7	20.2	0.00e+00	0	56	0	1599078400	38	3954
2026-01-04 04:13:31.41	8.69	35.85	-33.8	-34.8	20.1	0.00e+00	0	56	0	1627389952	38	3976
2026-01-04 04:13:35.45	8.38	36.78	-33.7	-34.7	20.2	0.00e+00	0	56	0	1656750080	38	3958
2026-01-04 04:13:39.48	8.04	37.74	-33.6	-34.6	20.2	0.00e+00	0	56	0	1686110208	38	3909
2026-01-04 04:13:43.52	7.68	38.73	-33.6	-34.6	20.3	0.00e+00	0	56	0	1715470336	37	4110
2026-01-04 04:13:47.57	7.30	39.74	-34.0	-35.1	19.8	0.00e+00	0	56	0	1744830464	37	4348
2026-01-04 04:13:51.60	6.89	40.78	-34.2	-35.3	19.7	0.00e+00	0	56	0	1773142016	38	4199
2026-01-04 04:13:55.64	6.46	41.85	-33.9	-35.0	19.9	0.00e+00	0	57	0	1802502144	38	4060
2026-01-04 04:13:59.68	5.99	42.95	-33.8	-34.8	20.1	0.00e+00	0	56	0	1831862272	38	3974
2026-01-04 04:14:03.71	5.49	44.08	-34.2	-35.3	19.7	0.00e+00	0	57	0	1861222400	38	4213
2026-01-04 04:14:07.76	4.95	45.25	-34.5	-35.6	19.4	0.00e+00	0	57	0	1890582528	38	4380
2026-01-04 04:14:11.79	4.36	46.44	-34.7	-35.7	19.2	0.00e+00	0	57	0	1918894080	38	4439
2026-01-04 04:14:15.83	3.73	47.67	-34.7	-35.8	19.2	0.00e+00	0	57	0	1948254208	39	4196
2026-01-04 04:14:19.87	3.04	48.93	-35.3	-36.5	18.4	0.00e+00	0	57	0	1977614336	40	4317
2026-01-04 04:14:23.92	2.30	50.23	-35.3	-36.5	18.4	0.00e+00	0	57	0	2006974464	40	4304
2026-01-04 04:14:27.96	1.48	51.55	-35.0	-36.2	18.7	0.00e+00	0	57	0	2036334592	40	4161
2026-01-04 04:14:32.00	0.59	52.91	-35.1	-36.2	18.7	0.00e+00	0	57	0	2064646144	40	4176
2026-01-04 04:14:36.04	359.60	54.29	-35.4	-36.5	18.4	0.00e+00	0	57	0	2094006272	40	4339
2026-01-04 04:14:40.08	358.52	55.70	-35.4	-36.6	18.2	0.00e+00	0	57	0	2123366400	40	4368
2026-01-04 04:14:44.12	357.31	57.14	-35.7	-36.9	18.1	0.00e+00	0	57	0	2152726528	40	4503
2026-01-04 04:14:48.16	355.97	58.61	-34.9	-36.1	18.9	0.00e+00	0	57	0	2182086656	40	4103
2026-01-04 04:14:52.20	354.48	60.09	-34.9	-36.0	18.9	2.20e-06	0	57	0	2210398208	40	4068
2026-01-04 04:14:56.24	352.79	61.59	-34.4	-35.4	19.5	6.18e-04	0	57	0	2239758336	39	4030
2026-01-04 04:15:00.28	350.89	63.10	-34.4	-35.4	19.5	4.50e-06	0	57	0	2269118464	39	4041
2026-01-04 04:15:04.31	348.73	64.60	-34.1	-35.1	19.8	0.00e+00	0	57	0	2298478592	38	4116
2026-01-04 04:15:08.35	346.25	66.11	-33.6	-34.6	20.2	0.00e+00	0	57	0	2327838720	37	4124
2026-01-04 04:15:12.39	343.41	67.59	-33.4	-34.4	20.3	3.40e-06	0	57	0	2356150272	37	4013
2026-01-04 04:15:16.43	340.13	69.04	-33.8	-34.8	20.0	0.00e+00	0	57	0	2385510400	37	4201
2026-01-04 04:15:20.47	336.32	70.44	-34.8	-35.9	18.9	5.95e-05	0	57	0	2414870528	39	4257
2026-01-04 04:15:24.51	331.91	71.76	-34.1	-35.2	19.6	0.00e+00	0	57	0	2444230656	38	4158
2026-01-04 04:15:28.56	326.77	72.99	-33.5	-34.6	20.1	2.20e-06	0	57	0	2473590784	38	3885
2026-01-04 04:15:32.59	320.88	74.06	-33.7	-34.8	20.0	0.00e+00	0	57	0	2501902336	38	3965
2026-01-04 04:15:36.63	314.15	74.97	-33.6	-34.6	20.1	0.00e+00	0	57	0	2531262464	38	3910
2026-01-04 04:15:40.68	306.62	75.65	-33.2	-34.2	20.5	0.00e+00	0	57	0	2560622592	37	3949
2026-01-04 04:15:44.72	298.49	76.07	-33.1	-34.1	20.6	0.00e+00	0	57	0	2589982720	36	4126
2026-01-04 04:15:48.76	290.01	76.21	-33.2	-34.2	20.5	0.00e+00	0	57	0	2619342848	36	4150
2026-01-04 04:15:52.80	281.54	76.05	-32.9	-33.9	20.8	0.00e+00	0	57	0	2648702976	36	4039
2026-01-04 04:15:56.84	273.43	75.61	-32.9	-33.9	20.8	0.00e+00	0	57	0	2677014528	36	4011
2026-01-04 04:16:00.88	265.97	74.91	-32.9	-33.9	20.8	0.00e+00	0	57	0	2706374656	36	4024
2026-01-04 04:16:04.92	259.29	74.00	-33.7	-34.7	20.0	0.00e+00	0	57	0	2735734784	37	4193
2026-01-04 04:16:08.96	253.43	72.91	-33.6	-34.6	20.0	0.00e+00	0	57	0	2765094912	37	4136
2026-01-04 04:16:13.00	248.35	71.68	-33.2	-34.2	20.4	0.00e+00	0	57	0	2794455040	37	3945
2026-01-04 04:16:17.04	243.97	70.35	-34.0	-35.0	19.7	0.00e+00	0	57	0	2822766592	37	4312
2026-01-04 04:16:21.08	240.20	68.94	-33.7	-34.7	20.1	0.00e+00	0	57	0	2852126720	37	4174
2026-01-04 04:16:25.13	236.94	67.48	-33.8	-34.8	20.0	0.00e+00	0	57	0	2881486848	38	3969
2026-01-04 04:16:29.17	234.12	65.99	-33.5	-34.5	20.3	0.00e+00	0	57	0	2910846976	37	4054
2026-01-04 04:16:33.21	231.66	64.48	-33.7	-34.7	20.0	0.00e+00	0	57	0	2940207104	37	4166
2026-01-04 04:16:37.26	229.51	62.96	-34.5	-35.6	19.1	0.00e+00	0	57	0	2969567232	38	4373
2026-01-04 04:16:41.30	227.62	61.45	-35.0	-36.2	18.7	0.00e+00	0	57	0	2997878784	39	4406
2026-01-04 04:16:45.34	225.95	59.95	-35.2	-36.4	18.4	0.00e+00	0	57	0	3027238912	40	4250
2026-01-04 04:16:49.38	224.46	58.46	-35.5	-36.7	18.1	0.00e+00	0	57	0	3056599040	40	4421
2026-01-04 04:16:53.42	223.13	56.99	-35.4	-36.5	18.2	0.00e+00	0	57	0	3085959168	40	4339
2026-01-04 04:16:57.46	221.93	55.55	-34.7	-35.8	19.0	0.00e+00	0	57	0	3115319296	40	3960
2026-01-04 04:17:01.49	220.86	54.14	-34.5	-35.6	19.3	0.00e+00	0	57	0	3143630848	39	4103
2026-01-04 04:17:05.53	219.88	52.75	-35.2	-36.3	18.5	0.00e+00	0	57	0	3172990976	39	4462
2026-01-04 04:17:09.57	218.99	51.39	-35.1	-36.3	18.6	0.00e+00	0	57	0	3202351104	40	4194
2026-01-04 04:17:13.60	218.18	50.07	-35.3	-36.5	18.3	0.00e+00	0	57	0	3231711232	40	4296
2026-01-04 04:17:17.64	217.43	48.77	-34.9	-36.0	18.8	0.00e+00	0	57	0	3261071360	40	4059
2026-01-04 04:17:21.68	216.75	47.51	-34.4	-35.4	19.4	0.00e+00	0	57	0	3290431488	39	4035
2026-01-04 04:17:25.72	216.12	46.28	-34.5	-35.6	19.2	0.00e+00	0	57	0	3318743040	39	4128
2026-01-04 04:17:29.76	215.54	45.08	-34.0	-35.0	19.8	0.00e+00	0	57	0	3348103168	39	3851
2026-01-04 04:17:33.80	215.00	43.92	-33.9	-34.9	20.0	0.00e+00	0	57	0	3377463296	38	4016
2026-01-04 04:17:37.85	214.49	42.78	-33.9	-34.9	19.6	0.00e+00	0	57	0	3406823424	38	4031
2026-01-04 04:17:41.89	214.03	41.67	-33.7	-34.7	20.1	0.00e+00	0	57	0	3436183552	38	3915
2026-01-04 04:17:45.93	213.59	40.60	-34.2	-35.2	19.6	0.00e+00	0	57	0	3464495104	38	4171
2026-01-04 04:17:49.98	213.18	39.55	-33.9	-35.0	19.8	0.00e+00	0	57	0	3493855232	38	4071
2026-01-04 04:17:54.02	212.80	38.54	-33.8	-34.8	20.0	0.00e+00	0	57	0	3523215360	38	3967
2026-01-04 04:17:58.05	212.44	37.55	-33.7	-34.8	19.9	0.00e+00	0	57	0	3552575488	38	3969
2026-01-04 04:18:02.09	212.11	36.59	-34.0	-35.1	19.7	0.00e+00	0	57	0	3581935616	38	4099
2026-01-04 04:18:06.14	211.79	35.66	-33.7	-34.7	20.1	0.00e+00	0	57	0	3611295744	38	3940
2026-01-04 04:18:10.18	211.49	34.75	-33.3	-34.2	20.5	0.00e+00	0	57	0	3639607296	37	3956
2026-01-04 04:18:14.21	211.21	33.87	-33.1	-34.1	20.7	0.00e+00	0	57	0	3668967424	37	3875
2026-01-04 04:18:18.25	210.94	33.01	-33.4	-34.4	20.4	0.00e+00	0	57	0	3698327552	37	4005
2026-01-04 04:18:22.29	210.69	32.17	-33.6	-34.6	20.2	0.00e+00	0	57	0	3727687680	37	4115
2026-01-04 04:18:26.34	210.44	31.36	-33.4	-34.4	20.3	0.00e+00	0	57	0	3757047808	37	4041
2026-01-04 04:18:30.38	210.22	30.56	-33.3	-34.3	20.4	0.00e+00	0	57	0	3785359360	37	3998
2026-01-04 04:18:34.42	210.00	29.79	-33.7	-34.7	20.0	0.00e+00	0	57	0	3814719488	37	4191
2026-01-04 04:18:38.46	209.79	29.04	-34.0	-35.0	19.7	0.00e+00	0	57	0	3844079616	37	4340
2026-01-04 04:18:42.50	209.60	28.30	-34.1	-35.1	19.7	0.00e+00	0	58	0	3873439744	38	4126
2026-01-04 04:18:46.54	209.41	27.59	-33.9	-34.9	19.8	0.00e+00	0	57	0	3902799872	38	4047
2026-01-04 04:18:50.58	209.23	26.89	-34.0	-35.0	19.7	0.00e+00	0	57	0	3932160000	38	4089
2026-01-04 04:18:54.61	209.06	26.21	-34.1	-35.1	19.6	0.00e+00	0	57	0	3960471552	38	4145
2026-01-04 04:18:58.66	208.90	25.55	-34.2	-35.3	19.5	0.00e+00	0	57	0	3989831680	38	4208
2026-01-04 04:19:02.70	208.74	24.90	-34.4	-35.5	19.3	0.00e+00	0	57	0	4019191808	38	4324
2026-01-04 04:19:06.74	208.59	24.27	-34.4	-35.5	19.3	0.00e+00	0	57	0	4048551936	38	4296
2026-01-04 04:19:10.78	208.45	23.65	-34.6	-35.6	19.1	0.00e+00	0	57	0	4077912064	38	4387
2026-01-04 04:19:14.82	208.31	23.05	-34.3	-35.4	19.3	0.00e+00	0	57	0	4106223616	38	4257
2026-01-04 04:19:18.86	208.18	22.46	-34.1	-35.1	19.6	0.00e+00	0	57	0	4135583744	38	4125
2026-01-04 04:19:22.90	208.05	21.88	-34.2	-35.3	19.3	0.00e+00	0	57	0	4164943872	38	4213
2026-01-04 04:19:26.94	207.93	21.32	-34.2	-35.2	19.5	0.00e+00	0	57	0	4194304000	38	4186
2026-01-04 04:19:30.98	207.81	20.77	-34.3	-35.4	19.3	0.00e+00	0	57	0	4223664128	38	4259
2026-01-04 04:19:35.02	207.70	20.23	-34.5	-35.6	19.1	0.00e+00	0	57	0	4253024256	38	4344
2026-01-04 04:19:39.06	207.59	19.70	-34.5	-35.6	19.0	0.00e+00	0	57	0	4281335808	38	4390
2026-01-04 04:19:43.10	207.49	19.18	-34.7	-35.8	18.9	0.00e+00	0	57	0	4310695936	38	4462
2026-01-04 04:19:47.14	207.39	18.68	-34.8	-35.9	18.7	0.00e+00	0	58	0	4340056064	39	4263
2026-01-04 04:19:51.19	207.29	18.18	-35.0	-36.1	18.5	0.00e+00	0	57	0	4369416192	39	4366
2026-01-04 04:19:55.22	207.20	17.69	-35.0	-36.2	18.5	0.00e+00	0	57	0	4398776320	39	4394
2026-01-04 04:19:59.26	207.11	17.21	-35.2	-36.4	18.1	0.00e+00	0	57	0	4427087872	40	4255
2026-01-04 04:20:03.30	207.02	16.74	-35.2	-36.4	18.1	0.00e+00	0	57	0	4456448000	40	4265
2026-01-04 04:20:07.34	206.94	16.28	-35.3	-36.5	18.0	0.00e+00	0	57	0	4485808128	40	4305
2026-01-04 04:20:11.38	206.86	15.83	-35.5	-36.7	17.7	0.00e+00	0	58	0	4515168256	40	4441
2026-01-04 04:20:15.42	206.78	15.39	-35.5	-36.7	17.7	0.00e+00	0	57	0	4544528384	40	4433
2026-01-04 04:20:19.46	206.70	14.95	-35.6	-36.8	17.6	0.00e+00	0	57	0	4573888512	40	4487
2026-01-04 04:20:23.50	206.63	14.53	-35.6	-36.8	17.5	0.00e+00	0	57	0	4602200064	40	4484
2026-01-04 04:20:27.53	206.56	14.11	-35.8	-37.0	17.3	0.00e+00	0	58	0	4631560192	41	4328
2026-01-04 04:20:31.57	206.49	13.69	-35.7	-36.9	17.4	0.00e+00	0	57	0	4660920320	41	4290
2026-01-04 04:20:35.62	206.42	13.29	-35.8	-37.0	17.2	0.00e+00	0	57	0	4690280448	41	4338
2026-01-04 04:20:39.65	206.36	12.89	-35.7	-37.0	17.3	0.00e+00	0	57	0	4718592000	41	4303
2026-01-04 04:20:43.69	206.30	12.49	-35.8	-37.2	17.1	0.00e+00	0	57	0	4747952128	41	4393
2026-01-04 04:20:47.73	206.24	12.11	-36.0	-37.4	16.8	0.00e+00	0	57	0	4777312256	41	4499
2026-01-04 04:20:51.77	206.18	11.73	-36.0	-37.3	16.9	0.00e+00	0	58	0	4806672384	42	4210
2026-01-04 04:20:55.81	206.12	11.35	-36.1	-37.5	16.7	0.00e+00	0	57	0	4836032512	42	4303
2026-01-04 04:20:59.85	206.07	10.98	-36.2	-37.5	16.6	0.00e+00	0	57	0	4864344064	42	4335
2026-01-04 04:21:03.88	206.01	10.62	-36.3	-37.6	16.5	0.00e+00	0	57	0	4893704192	42	4385
2026-01-04 04:21:07.92	205.96	10.26	-36.6	-38.0	16.0	0.00e+00	0	57	0	4923064320	42	4573
2026-01-04 04:21:11.97	205.91	9.90	-36.7	-38.2	15.9	0.00e+00	0	57	0	4952424448	42	4663
2026-01-04 04:21:16.00	205.86	9.56	-36.8	-38.3	15.7	0.00e+00	0	58	0	4980736000	43	4446
2026-01-04 04:21:20.04	205.81	9.21	-37.1	-38.6	15.3	0.00e+00	0	57	0	5010096128	43	4633
2026-01-04 04:21:24.09	205.77	8.87	-37.1	-38.7	15.1	0.00e+00	0	57	0	5039456256	43	4685
2026-01-04 04:21:28.13	205.72	8.54	-37.3	-39.0	15.0	0.00e+00	0	57	0	5068816384	44	4553
2026-01-04 04:21:32.17	205.68	8.21	-37.6	-39.3	14.5	1.10e-06	0	57	0	5098176512	44	4741
2026-01-04 04:21:36.21	205.63	7.88	-45.1	-55.9	3.8	8.47e-01	0	58	104	5116002304	59	13530
2026-01-04 04:21:40.26	205.59	7.56	-45.5	-56.6	3.8	8.46e-01	0	58	104	5116002304	60	13804
2026-01-04 04:21:44.30	205.55	7.24	-45.5	-56.6	3.8	8.46e-01	0	58	104	5116002304	60	13767
2026-01-04 04:21:48.34	205.51	6.93	-45.4	-56.5	3.8	8.47e-01	0	58	104	5116002304	60	13636
2026-01-04 04:21:52.39	205.47	6.61	-45.4	-56.5	3.8	8.46e-01	0	58	104	5116002304	60	13570
2026-01-04 04:21:56.43	205.44	6.31	-45.4	-56.4	3.8	8.46e-01	0	58	104	5116002304	60	13548
2026-01-04 04:22:00.47	205.40	6.00	-45.4	-56.5	3.8	8.46e-01	0	58	104	5116002304	60	13571
2026-01-04 04:22:04.51	205.37	5.71	-45.4	-56.4	3.8	8.46e-01	0	58	104	5116002304	60	13547
2026-01-04 04:22:08.56	205.33	5.41	-45.4	-56.4	3.8	8.46e-01	0	57	104	5116002304	60	13536
2026-01-04 04:22:12.60	205.30	5.12	-45.4	-56.4	3.8	8.46e-01	0	58	104	5116002304	60	13527
2026-01-04 04:22:16.65	205.27	4.83	-45.4	-56.4	3.8	8.47e-01	0	58	104	5116002304	60	13514
2026-01-04 04:22:20.69	205.23	4.54	-45.4	-56.4	3.8	8.47e-01	0	58	104	5116002304	60	13552
2026-01-04 04:22:24.74	205.20	4.25	-45.4	-56.4	3.8	8.47e-01	0	58	104	5116002304	60	13478
2026-01-04 04:22:28.78	205.17	3.97	-45.4	-56.4	3.8	8.47e-01	0	58	104	5116002304	60	13506
2026-01-04 04:22:32.82	205.14	3.70	-45.4	-56.4	3.8	8.46e-01	0	58	104	5116002304	60	13495
2026-01-04 04:22:36.87	205.11	3.42	-45.3	-56.4	3.8	8.46e-01	0	58	104	5116002304	60	13462
2026-01-04 04:22:40.91	205.09	3.15	-45.3	-56.4	3.8	8.47e-01	0	58	104	5116002304	60	13477
2026-01-04 04:22:44.96	205.06	2.88	-45.3	-56.4	3.8	8.47e-01	0	58	104	5116002304	60	13443
2026-01-04 04:22:49.00	205.03	2.61	-45.3	-56.4	3.8	8.46e-01	0	58	104	5116002304	60	13450
2026-01-04 04:22:53.04	205.01	2.35	-45.3	-56.4	3.8	8.46e-01	0	58	104	5116002304	60	13522
2026-01-04 04:22:57.09	204.98	2.09	-45.3	-56.4	3.8	8.46e-01	0	58	104	5116002304	60	13443

#Closed at: 2026-01-04 04:22:59
#Recorded file [5116 MB]: D:/lorett/data/31039_260104_070836.dat