passes_logs/2026/01/04/R2.0S_Moscow/R2.0S_Moscow__20260104_022142_FENGYUN_3D_rec.log

#Pass ID: 20260104_022142_FENGYUN 3D
#Satellite: FENGYUN 3D
#Configuration: FENGYUN 3D
#almurnet v.1.7.20251203
#Start time: 2026-01-04 02:21:42

#Version: 2.2.20231116
#Station: R2.0S_Moscow
#Location: 37.707566 lon 55.798166 lat
#TLE: 1 43010U 17072A   26003.51579816  .00000092  00000+0  65324-4 0  9992
#TLE: 2 43010  98.9912 335.1548 0001916 128.4619 231.6729 14.19692074421623

#Time	Az	El	Level	Level2	SNR	BER	BlckErr	Temp	State	Recorded	gain1	gain2
2026-01-04 02:21:42.49	14.05	2.00	-42.1	-53.7	3.8	8.47e-01	0	47	0	0	55	13924
2026-01-04 02:21:46.52	13.95	2.26	-42.2	-53.8	3.8	8.47e-01	0	48	104	0	56	13353
2026-01-04 02:21:50.57	13.86	2.52	-42.2	-53.8	3.8	8.46e-01	0	48	104	0	56	13367
2026-01-04 02:21:54.61	13.76	2.78	-42.2	-53.8	3.8	8.46e-01	0	49	104	0	56	13404
2026-01-04 02:21:58.65	13.66	3.04	-42.2	-53.8	3.8	8.46e-01	0	49	104	0	56	13382
2026-01-04 02:22:02.70	13.55	3.30	-42.2	-53.8	3.8	8.47e-01	0	49	104	0	56	13267
2026-01-04 02:22:06.74	13.45	3.57	-42.2	-53.5	3.8	8.47e-01	0	49	104	0	56	12881
2026-01-04 02:22:10.79	13.34	3.84	-42.2	-53.5	3.8	8.46e-01	0	50	104	0	56	12956
2026-01-04 02:22:14.83	13.23	4.11	-42.2	-53.4	3.8	8.46e-01	0	50	104	0	56	12799
2026-01-04 02:22:18.87	13.12	4.38	-42.2	-53.3	3.8	8.45e-01	0	50	104	0	56	12631
2026-01-04 02:22:22.92	13.00	4.66	-42.2	-53.1	3.8	8.46e-01	0	50	104	0	56	12337
2026-01-04 02:22:26.96	12.89	4.94	-42.1	-52.6	3.8	8.46e-01	0	50	104	0	56	11569
2026-01-04 02:22:31.01	12.77	5.23	-42.0	-52.0	3.8	8.45e-01	0	51	104	0	56	10823
2026-01-04 02:22:35.05	12.64	5.51	-41.8	-51.5	3.8	8.44e-01	0	51	104	0	55	10892
2026-01-04 02:22:39.09	12.52	5.80	-41.9	-51.9	3.8	8.45e-01	0	51	104	0	55	11364
2026-01-04 02:22:43.14	12.39	6.09	-42.0	-53.0	3.8	8.46e-01	0	52	104	0	55	12875
2026-01-04 02:22:47.19	12.26	6.39	-42.0	-53.2	3.8	8.46e-01	0	52	104	0	55	13231
2026-01-04 02:22:51.23	12.13	6.69	-41.2	-48.0	5.1	7.96e-01	0	52	0	0	54	7655
2026-01-04 02:22:55.27	11.99	6.99	-39.3	-42.8	9.6	2.30e-02	0	52	0	18874368	50	5326
2026-01-04 02:22:59.31	11.85	7.29	-37.6	-40.2	12.4	2.86e-04	0	52	0	40894464	47	4658
2026-01-04 02:23:03.36	11.70	7.60	-37.2	-39.6	13.0	6.06e-05	0	53	0	63963136	46	4610
2026-01-04 02:23:07.40	11.56	7.91	-38.1	-40.9	11.6	9.37e-04	0	52	0	87031808	46	5388
2026-01-04 02:23:11.44	11.41	8.23	-39.2	-42.4	10.4	8.20e-03	0	53	0	109051904	50	5080
2026-01-04 02:23:15.48	11.25	8.55	-39.5	-43.6	8.6	5.13e-02	0	53	0	123731968	51	5487
2026-01-04 02:23:19.52	11.09	8.87	-39.7	-44.1	7.8	7.99e-02	0	53	0	146800640	51	5812
2026-01-04 02:23:23.57	10.93	9.20	-39.9	-44.7	7.2	1.62e-01	0	53	0	169869312	51	6219
2026-01-04 02:23:27.61	10.76	9.53	-40.2	-45.9	6.1	3.26e-01	0	54	0	191889408	51	7167
2026-01-04 02:23:31.65	10.59	9.87	-40.6	-47.4	5.0	7.56e-01	0	54	0	204472320	51	8467
2026-01-04 02:23:35.69	10.42	10.21	-40.4	-47.2	5.0	7.77e-01	0	54	0	205520896	51	8338
2026-01-04 02:23:39.73	10.24	10.55	-40.2	-46.7	5.2	7.40e-01	0	53	0	209715200	51	7870
2026-01-04 02:23:43.77	10.05	10.90	-40.5	-48.2	4.5	8.21e-01	0	54	0	210763776	51	9302
2026-01-04 02:23:47.81	9.87	11.25	-39.8	-44.6	7.3	1.63e-01	0	54	0	219152384	51	6161
2026-01-04 02:23:51.85	9.67	11.61	-37.8	-40.2	12.8	1.53e-04	0	54	0	242221056	47	4700
2026-01-04 02:23:55.89	9.47	11.97	-36.4	-38.2	15.2	0.00e+00	0	54	0	265289728	44	4435
2026-01-04 02:23:59.93	9.27	12.34	-36.2	-37.9	15.6	0.00e+00	0	54	0	287309824	44	4289
2026-01-04 02:24:03.97	9.06	12.72	-36.5	-38.2	15.5	0.00e+00	0	54	0	310378496	44	4436
2026-01-04 02:24:08.01	8.84	13.10	-36.3	-38.0	15.9	0.00e+00	0	55	0	333447168	44	4297
2026-01-04 02:24:12.05	8.62	13.48	-36.3	-38.0	16.0	0.00e+00	0	55	0	355467264	44	4316
2026-01-04 02:24:16.09	8.39	13.87	-36.5	-38.2	15.9	0.00e+00	0	54	0	378535936	44	4404
2026-01-04 02:24:20.13	8.16	14.27	-36.2	-37.7	16.7	0.00e+00	0	55	0	401604608	44	4171
2026-01-04 02:24:24.16	7.91	14.67	-36.3	-37.8	16.7	0.00e+00	0	55	0	423624704	44	4211
2026-01-04 02:24:28.20	7.66	15.08	-36.2	-37.7	16.8	0.00e+00	0	55	0	446693376	44	4183
2026-01-04 02:24:32.23	7.41	15.49	-36.1	-37.6	17.1	0.00e+00	0	55	0	469762048	44	4101
2026-01-04 02:24:36.28	7.14	15.91	-35.7	-37.1	17.4	0.00e+00	0	55	0	491782144	43	4135
2026-01-04 02:24:40.32	6.87	16.34	-35.5	-36.9	17.7	0.00e+00	0	55	0	514850816	43	4010
2026-01-04 02:24:44.36	6.59	16.78	-35.2	-36.5	18.1	0.00e+00	0	55	0	537919488	42	4082
2026-01-04 02:24:48.40	6.30	17.22	-34.9	-36.2	18.4	0.00e+00	0	55	0	559939584	41	4166
2026-01-04 02:24:52.44	6.00	17.67	-34.9	-36.1	18.5	0.00e+00	0	55	0	583008256	41	4144
2026-01-04 02:24:56.48	5.70	18.13	-35.0	-36.3	18.4	0.00e+00	0	55	0	606076928	41	4211
2026-01-04 02:25:00.52	5.38	18.59	-35.0	-36.3	18.4	0.00e+00	0	55	0	628097024	41	4225
2026-01-04 02:25:04.56	5.05	19.07	-34.9	-36.2	18.6	0.00e+00	0	55	0	651165696	41	4151
2026-01-04 02:25:08.60	4.71	19.55	-35.1	-36.4	18.4	0.00e+00	0	55	0	674234368	41	4261
2026-01-04 02:25:12.64	4.36	20.04	-34.7	-35.9	18.8	0.00e+00	0	56	0	697303040	41	4038
2026-01-04 02:25:16.68	4.00	20.54	-34.7	-36.0	18.8	0.00e+00	0	55	0	719323136	41	4062
2026-01-04 02:25:20.72	3.62	21.04	-34.9	-36.2	18.6	0.00e+00	0	56	0	742391808	41	4159
2026-01-04 02:25:24.76	3.23	21.56	-34.3	-35.6	19.3	0.00e+00	0	56	0	764411904	40	4101
2026-01-04 02:25:28.80	2.83	22.08	-34.3	-35.5	19.3	0.00e+00	0	56	0	787480576	40	4091
2026-01-04 02:25:32.84	2.41	22.62	-34.1	-35.3	19.6	0.00e+00	0	56	0	810549248	40	3968
2026-01-04 02:25:36.87	1.98	23.16	-34.1	-35.2	19.6	0.00e+00	0	56	0	832569344	40	3949
2026-01-04 02:25:40.92	1.53	23.72	-34.0	-35.2	19.7	0.00e+00	0	56	0	855638016	39	4176
2026-01-04 02:25:44.96	1.07	24.28	-33.9	-35.1	19.9	0.00e+00	0	56	0	878706688	39	4104
2026-01-04 02:25:49.00	0.59	24.86	-33.9	-35.0	19.9	0.00e+00	0	56	0	901775360	39	4084
2026-01-04 02:25:53.03	0.09	25.44	-34.0	-35.1	19.9	0.00e+00	0	56	0	923795456	39	4131
2026-01-04 02:25:57.07	359.57	26.04	-33.8	-35.0	20.0	0.00e+00	0	56	0	946864128	39	4061
2026-01-04 02:26:01.11	359.03	26.64	-33.8	-34.9	20.1	0.00e+00	0	56	0	968884224	39	4042
2026-01-04 02:26:05.14	358.46	27.26	-33.8	-34.9	20.1	0.00e+00	0	56	0	991952896	39	4041
2026-01-04 02:26:09.19	357.88	27.89	-33.7	-34.8	20.2	0.00e+00	0	56	0	1015021568	39	3988
2026-01-04 02:26:13.23	357.27	28.53	-33.7	-34.9	20.1	0.00e+00	0	56	0	1037041664	39	4017
2026-01-04 02:26:17.27	356.63	29.18	-33.8	-34.9	20.1	0.00e+00	0	56	0	1060110336	39	4048
2026-01-04 02:26:21.31	355.97	29.84	-33.4	-34.5	20.5	0.00e+00	0	56	0	1083179008	38	4097
2026-01-04 02:26:25.35	355.28	30.51	-33.3	-34.4	20.7	0.00e+00	0	56	0	1106247680	38	4032
2026-01-04 02:26:29.38	354.56	31.19	-33.3	-34.4	20.7	0.00e+00	0	56	0	1128267776	38	4031
2026-01-04 02:26:33.42	353.80	31.89	-33.1	-34.2	20.9	0.00e+00	0	56	0	1151336448	38	3915
2026-01-04 02:26:37.46	353.02	32.59	-33.0	-34.1	21.0	0.00e+00	0	56	0	1173356544	37	4099
2026-01-04 02:26:41.50	352.19	33.31	-33.2	-34.3	20.7	0.00e+00	0	56	0	1196425216	37	4232
2026-01-04 02:26:45.54	351.33	34.04	-32.6	-33.6	21.4	0.00e+00	0	56	0	1219493888	37	3904
2026-01-04 02:26:49.58	350.43	34.77	-32.9	-34.0	21.1	0.00e+00	0	56	0	1241513984	37	4054
2026-01-04 02:26:53.62	349.49	35.51	-32.9	-33.9	21.2	0.00e+00	0	56	0	1264582656	37	4051
2026-01-04 02:26:57.65	348.50	36.27	-32.9	-34.0	21.1	0.00e+00	0	56	0	1287651328	37	4069
2026-01-04 02:27:01.69	347.46	37.03	-33.1	-34.1	21.0	0.00e+00	0	56	0	1310720000	37	4131
2026-01-04 02:27:05.73	346.38	37.79	-33.0	-34.1	21.1	0.00e+00	0	56	0	1332740096	37	4119
2026-01-04 02:27:09.77	345.24	38.56	-33.1	-34.2	21.0	0.00e+00	0	57	0	1355808768	37	4150
2026-01-04 02:27:13.81	344.04	39.34	-33.0	-34.0	21.1	0.00e+00	0	56	0	1377828864	37	4081
2026-01-04 02:27:17.85	342.79	40.12	-33.0	-34.0	21.1	0.00e+00	0	57	0	1400897536	37	4097
2026-01-04 02:27:21.89	341.47	40.90	-33.1	-34.2	21.0	0.00e+00	0	56	0	1423966208	37	4147
2026-01-04 02:27:25.93	340.09	41.68	-33.1	-34.1	21.1	0.00e+00	0	56	0	1445986304	37	4131
2026-01-04 02:27:29.97	338.63	42.45	-33.0	-34.1	21.1	0.00e+00	0	56	0	1469054976	37	4101
2026-01-04 02:27:34.01	337.11	43.22	-32.9	-33.9	21.2	0.00e+00	0	56	0	1492123648	37	4044
2026-01-04 02:27:38.05	335.51	43.98	-33.0	-34.0	21.2	0.00e+00	0	57	0	1515192320	37	4091
2026-01-04 02:27:42.09	333.83	44.73	-33.3	-34.4	20.8	0.00e+00	0	57	0	1537212416	37	4283
2026-01-04 02:27:46.13	332.07	45.46	-32.9	-33.9	21.2	0.00e+00	0	57	0	1560281088	37	4048
2026-01-04 02:27:50.17	330.23	46.18	-33.3	-34.4	20.8	0.00e+00	0	56	0	1582301184	37	4270
2026-01-04 02:27:54.22	328.30	46.87	-33.2	-34.3	20.9	0.00e+00	0	57	0	1605369856	37	4232
2026-01-04 02:27:58.26	326.29	47.54	-33.6	-34.7	20.5	0.00e+00	0	57	0	1628438528	37	4420
2026-01-04 02:28:02.30	324.19	48.18	-33.7	-34.8	20.4	0.00e+00	0	57	0	1651507200	38	4240
2026-01-04 02:28:06.34	322.00	48.78	-33.9	-35.0	20.3	0.00e+00	0	57	0	1673527296	38	4312
2026-01-04 02:28:10.38	319.73	49.34	-34.0	-35.2	20.1	0.00e+00	0	57	0	1696595968	38	4409
2026-01-04 02:28:14.42	317.37	49.87	-33.8	-34.9	20.3	0.00e+00	0	57	0	1719664640	38	4278
2026-01-04 02:28:18.45	314.95	50.34	-34.0	-35.1	20.2	0.00e+00	0	57	0	1741684736	38	4369
2026-01-04 02:28:22.49	312.44	50.76	-34.1	-35.3	20.0	0.00e+00	0	57	0	1764753408	39	4215
2026-01-04 02:28:26.53	309.87	51.12	-34.1	-35.3	20.0	0.00e+00	0	57	0	1786773504	39	4212
2026-01-04 02:28:30.58	307.23	51.43	-33.7	-34.8	20.4	0.00e+00	0	57	0	1809842176	39	3998
2026-01-04 02:28:34.62	304.55	51.67	-33.6	-34.7	20.6	0.00e+00	0	57	0	1832910848	38	4172
2026-01-04 02:28:38.65	301.84	51.84	-34.1	-35.2	20.1	0.00e+00	0	57	0	1855979520	38	4429
2026-01-04 02:28:42.70	299.08	51.95	-33.3	-34.4	20.8	0.00e+00	0	57	0	1877999616	38	4028
2026-01-04 02:28:46.74	296.32	51.99	-33.5	-34.6	20.6	0.00e+00	0	57	0	1901068288	38	4130
2026-01-04 02:28:50.77	293.57	51.96	-33.8	-34.9	20.3	0.00e+00	0	57	0	1924136960	38	4284
2026-01-04 02:28:54.81	290.82	51.86	-33.7	-34.9	20.4	0.00e+00	0	57	0	1946157056	38	4248
2026-01-04 02:28:58.85	288.09	51.70	-33.6	-34.8	20.5	0.00e+00	0	57	0	1969225728	38	4204
2026-01-04 02:29:02.89	285.40	51.47	-33.3	-34.4	20.8	0.00e+00	0	57	0	1992294400	38	4026
2026-01-04 02:29:06.93	282.76	51.17	-33.5	-34.6	20.7	0.00e+00	0	57	0	2014314496	38	4105
2026-01-04 02:29:10.97	280.18	50.81	-33.5	-34.7	20.6	0.00e+00	0	57	0	2037383168	38	4155
2026-01-04 02:29:15.01	277.66	50.40	-33.6	-34.7	20.5	0.00e+00	0	57	0	2060451840	38	4161
2026-01-04 02:29:19.05	275.21	49.93	-33.5	-34.6	20.7	0.00e+00	0	57	0	2082471936	38	4104
2026-01-04 02:29:23.09	272.84	49.42	-33.4	-34.5	20.7	0.00e+00	0	57	0	2105540608	38	4065
2026-01-04 02:29:27.13	270.55	48.86	-33.0	-34.1	21.1	0.00e+00	0	57	0	2128609280	38	3885
2026-01-04 02:29:31.18	268.34	48.26	-33.2	-34.3	20.9	0.00e+00	0	57	0	2150629376	38	3962
2026-01-04 02:29:35.21	266.23	47.63	-33.3	-34.4	20.8	0.00e+00	0	57	0	2173698048	38	4032
2026-01-04 02:29:39.25	264.20	46.96	-32.9	-34.0	21.2	0.00e+00	0	57	0	2196766720	37	4058
2026-01-04 02:29:43.29	262.25	46.27	-32.7	-33.8	21.4	0.00e+00	0	57	0	2218786816	37	3979
2026-01-04 02:29:47.33	260.39	45.55	-33.1	-34.2	21.0	0.00e+00	0	57	0	2241855488	37	4162
2026-01-04 02:29:51.37	258.62	44.82	-32.7	-33.7	21.4	0.00e+00	0	57	0	2264924160	37	3935
2026-01-04 02:29:55.42	256.92	44.07	-32.4	-33.4	21.6	0.00e+00	0	57	0	2286944256	36	4045
2026-01-04 02:29:59.45	255.31	43.31	-32.5	-33.5	21.6	0.00e+00	0	57	0	2310012928	36	4094
2026-01-04 02:30:03.49	253.77	42.54	-32.7	-33.8	21.3	0.00e+00	0	57	0	2333081600	36	4200
2026-01-04 02:30:07.53	252.30	41.76	-32.5	-33.5	21.6	0.00e+00	0	57	0	2355101696	36	4085
2026-01-04 02:30:11.58	250.90	40.98	-32.7	-33.8	21.3	0.00e+00	0	57	0	2378170368	36	4221
2026-01-04 02:30:15.62	249.57	40.19	-32.7	-33.8	21.3	0.00e+00	0	57	0	2401239040	36	4205
2026-01-04 02:30:19.65	248.31	39.41	-32.6	-33.6	21.5	0.00e+00	0	57	0	2423259136	36	4129
2026-01-04 02:30:23.70	247.09	38.63	-32.4	-33.4	21.7	0.00e+00	0	57	0	2446327808	36	4033
2026-01-04 02:30:27.74	245.94	37.86	-32.5	-33.6	21.5	0.00e+00	0	57	0	2469396480	36	4110
2026-01-04 02:30:31.77	244.85	37.09	-32.7	-33.8	21.3	0.00e+00	0	57	0	2491416576	36	4227
2026-01-04 02:30:35.81	243.80	36.32	-32.4	-33.4	21.7	0.00e+00	0	57	0	2514485248	36	4010
2026-01-04 02:30:39.86	242.80	35.56	-32.5	-33.5	21.5	0.00e+00	0	57	0	2537553920	36	4091
2026-01-04 02:30:43.90	241.85	34.82	-32.4	-33.5	21.6	0.00e+00	0	57	0	2560622592	36	4059
2026-01-04 02:30:47.94	240.93	34.08	-32.1	-33.2	21.9	0.00e+00	0	57	0	2582642688	36	3916
2026-01-04 02:30:51.98	240.06	33.34	-32.4	-33.5	21.5	0.00e+00	0	57	0	2605711360	36	4070
2026-01-04 02:30:56.02	239.23	32.62	-32.7	-33.7	21.3	0.00e+00	0	57	0	2627731456	36	4191
2026-01-04 02:31:00.05	238.44	31.92	-32.5	-33.6	21.5	0.00e+00	0	57	0	2650800128	36	4107
2026-01-04 02:31:04.09	237.68	31.22	-32.4	-33.4	21.6	0.00e+00	0	57	0	2673868800	36	4031
2026-01-04 02:31:08.13	236.95	30.53	-32.9	-33.9	21.1	0.00e+00	0	57	0	2695888896	36	4281
2026-01-04 02:31:12.18	236.25	29.85	-32.9	-34.0	21.1	0.00e+00	0	57	0	2718957568	36	4298
2026-01-04 02:31:16.21	235.58	29.19	-33.1	-34.2	20.9	0.00e+00	0	57	0	2742026240	36	4399
2026-01-04 02:31:20.25	234.94	28.53	-33.2	-34.3	20.7	0.00e+00	0	57	0	2765094912	37	4237
2026-01-04 02:31:24.29	234.32	27.89	-33.2	-34.3	20.7	0.00e+00	0	57	0	2787115008	37	4233
2026-01-04 02:31:28.33	233.73	27.25	-33.1	-34.2	20.8	0.00e+00	0	57	0	2810183680	37	4168
2026-01-04 02:31:32.37	233.16	26.63	-33.1	-34.2	20.8	0.00e+00	0	57	0	2832203776	37	4175
2026-01-04 02:31:36.41	232.61	26.02	-33.1	-34.2	20.8	0.00e+00	0	57	0	2855272448	37	4162
2026-01-04 02:31:40.44	232.09	25.42	-33.2	-34.3	20.7	0.00e+00	0	57	0	2878341120	37	4221
2026-01-04 02:31:44.48	231.58	24.83	-33.2	-34.3	20.7	0.00e+00	0	57	0	2900361216	37	4224
2026-01-04 02:31:48.53	231.09	24.26	-33.3	-34.4	20.6	0.00e+00	0	57	0	2923429888	37	4252
2026-01-04 02:31:52.57	230.62	23.69	-33.4	-34.5	20.5	0.00e+00	0	57	0	2946498560	37	4330
2026-01-04 02:31:56.61	230.17	23.13	-33.5	-34.7	20.3	0.00e+00	0	57	0	2969567232	37	4393
2026-01-04 02:32:00.66	229.73	22.58	-33.5	-34.6	20.4	0.00e+00	0	57	0	2991587328	37	4355
2026-01-04 02:32:04.70	229.31	22.04	-33.4	-34.5	20.5	0.00e+00	0	57	0	3014656000	37	4302
2026-01-04 02:32:08.74	228.90	21.51	-33.4	-34.5	20.5	0.00e+00	0	57	0	3037724672	37	4305
2026-01-04 02:32:12.78	228.51	20.99	-33.5	-34.6	20.3	0.00e+00	0	57	0	3059744768	37	4373
2026-01-04 02:32:16.81	228.13	20.48	-33.8	-34.9	20.1	0.00e+00	0	58	0	3082813440	38	4262
2026-01-04 02:32:20.85	227.76	19.98	-34.1	-35.3	19.7	0.00e+00	0	58	0	3105882112	38	4469
2026-01-04 02:32:24.89	227.40	19.49	-34.3	-35.6	19.4	0.00e+00	0	57	0	3127902208	39	4344
2026-01-04 02:32:28.93	227.06	19.01	-34.4	-35.6	19.4	0.00e+00	0	58	0	3150970880	39	4356
2026-01-04 02:32:32.97	226.73	18.53	-34.4	-35.6	19.3	0.00e+00	0	57	0	3174039552	39	4361
2026-01-04 02:32:37.01	226.40	18.06	-34.5	-35.7	19.2	0.00e+00	0	57	0	3196059648	39	4394
2026-01-04 02:32:41.04	226.09	17.60	-34.5	-35.7	19.2	0.00e+00	0	58	0	3219128320	39	4436
2026-01-04 02:32:45.09	225.79	17.15	-34.6	-35.9	19.0	0.00e+00	0	57	0	3241148416	39	4501
2026-01-04 02:32:49.12	225.50	16.71	-34.7	-35.9	19.0	0.00e+00	0	58	0	3264217088	39	4533
2026-01-04 02:32:53.17	225.21	16.27	-34.8	-36.0	18.8	0.00e+00	0	58	0	3287285760	40	4330
2026-01-04 02:32:57.21	224.93	15.84	-35.0	-36.3	18.4	0.00e+00	0	57	0	3310354432	40	4491
2026-01-04 02:33:01.24	224.67	15.41	-35.3	-36.7	18.1	0.00e+00	0	58	0	3332374528	41	4406
2026-01-04 02:33:05.28	224.40	15.00	-35.7	-37.1	17.7	0.00e+00	0	57	0	3355443200	42	4360
2026-01-04 02:33:09.32	224.15	14.59	-35.6	-37.0	17.8	0.00e+00	0	58	0	3378511872	42	4296
2026-01-04 02:33:13.36	223.90	14.18	-35.5	-36.9	17.8	0.00e+00	0	57	0	3400531968	42	4259
2026-01-04 02:33:17.40	223.66	13.78	-35.5	-36.9	17.8	0.00e+00	0	57	0	3423600640	42	4258
2026-01-04 02:33:21.44	223.43	13.39	-35.6	-37.0	17.6	0.00e+00	0	57	0	3446669312	42	4325
2026-01-04 02:33:25.48	223.20	13.00	-35.5	-36.9	17.8	0.00e+00	0	58	0	3468689408	42	4249
2026-01-04 02:33:29.53	222.98	12.62	-35.6	-37.0	17.6	0.00e+00	0	57	0	3491758080	42	4334
2026-01-04 02:33:33.57	222.77	12.25	-36.0	-37.4	17.2	0.00e+00	0	58	0	3514826752	42	4511
2026-01-04 02:33:37.61	222.56	11.88	-36.0	-37.5	17.1	0.00e+00	0	57	0	3536846848	42	4549
2026-01-04 02:33:41.65	222.36	11.51	-36.4	-38.0	16.5	0.00e+00	0	58	0	3559915520	43	4578
2026-01-04 02:33:45.70	222.16	11.15	-36.3	-37.9	16.7	0.00e+00	0	57	0	3582984192	43	4496
2026-01-04 02:33:49.74	221.96	10.79	-36.2	-37.7	16.8	0.00e+00	0	57	0	3606052864	43	4396
2026-01-04 02:33:53.78	221.78	10.44	-36.5	-38.0	16.4	0.00e+00	0	57	0	3628072960	43	4590
2026-01-04 02:33:57.82	221.59	10.10	-36.3	-37.8	16.6	0.00e+00	0	58	0	3651141632	43	4486
2026-01-04 02:34:01.87	221.41	9.76	-36.4	-38.0	16.4	0.00e+00	0	57	0	3673161728	43	4579
2026-01-04 02:34:05.91	221.24	9.42	-36.5	-38.1	16.3	0.00e+00	0	58	0	3696230400	43	4602
2026-01-04 02:34:09.94	221.07	9.09	-36.5	-38.1	16.2	0.00e+00	0	58	0	3719299072	43	4646
2026-01-04 02:34:13.98	220.90	8.76	-36.8	-38.5	16.0	0.00e+00	0	57	0	3741319168	44	4560
2026-01-04 02:34:18.02	220.74	8.43	-36.9	-38.6	15.8	0.00e+00	0	58	0	3764387840	44	4613
2026-01-04 02:34:22.06	220.58	8.11	-36.8	-38.5	15.8	0.00e+00	0	58	0	3787456512	44	4587
2026-01-04 02:34:26.10	220.42	7.80	-44.8	-56.6	3.8	8.47e-01	0	58	104	3795845120	60	14633
2026-01-04 02:34:30.14	220.27	7.48	-45.1	-57.0	3.8	8.47e-01	0	58	104	3795845120	60	15226
2026-01-04 02:34:34.18	220.12	7.17	-45.1	-56.9	3.8	8.46e-01	0	58	104	3795845120	60	15168
2026-01-04 02:34:38.23	219.98	6.87	-45.0	-56.9	3.8	8.46e-01	0	58	104	3795845120	60	15065
2026-01-04 02:34:42.27	219.83	6.56	-45.0	-56.8	3.8	8.46e-01	0	58	104	3795845120	60	15049
2026-01-04 02:34:46.31	219.69	6.26	-45.0	-56.9	3.8	8.47e-01	0	58	104	3795845120	60	15066
2026-01-04 02:34:50.35	219.56	5.97	-45.0	-56.8	3.8	8.45e-01	0	58	104	3795845120	60	15035
2026-01-04 02:34:54.40	219.42	5.68	-45.0	-56.8	3.8	8.45e-01	0	58	104	3795845120	60	15028
2026-01-04 02:34:58.44	219.29	5.39	-45.0	-56.8	3.8	8.46e-01	0	58	104	3795845120	60	15035
2026-01-04 02:35:02.48	219.17	5.10	-45.0	-56.8	3.8	8.45e-01	0	58	104	3795845120	60	15001
2026-01-04 02:35:06.53	219.04	4.81	-44.9	-56.8	3.8	8.46e-01	0	58	104	3795845120	60	15022
2026-01-04 02:35:10.57	218.92	4.53	-45.0	-56.8	3.8	8.47e-01	0	58	104	3795845120	60	15008
2026-01-04 02:35:14.62	218.80	4.25	-44.9	-56.8	3.8	8.46e-01	0	58	104	3795845120	60	14968
2026-01-04 02:35:18.66	218.68	3.98	-44.9	-56.8	3.8	8.47e-01	0	58	104	3795845120	60	14957
2026-01-04 02:35:22.70	218.57	3.71	-44.9	-56.8	3.8	8.46e-01	0	58	104	3795845120	60	15019
2026-01-04 02:35:26.75	218.45	3.44	-44.9	-56.8	3.8	8.45e-01	0	58	104	3795845120	60	14966
2026-01-04 02:35:30.79	218.34	3.17	-44.9	-56.8	3.8	8.46e-01	0	58	104	3795845120	60	14933
2026-01-04 02:35:34.84	218.24	2.90	-44.9	-56.8	3.8	8.46e-01	0	58	104	3795845120	60	14924
2026-01-04 02:35:38.88	218.13	2.64	-44.9	-56.8	3.8	8.46e-01	0	58	104	3795845120	60	14958
2026-01-04 02:35:42.93	218.03	2.38	-44.9	-56.8	3.8	8.45e-01	0	58	104	3795845120	60	14968
2026-01-04 02:35:46.97	217.92	2.12	-44.9	-56.8	3.8	8.47e-01	0	58	104	3795845120	60	14996

#Closed at: 2026-01-04 02:35:50
#Recorded file [3795 MB]: D:/lorett/data/31039_260104_052142.dat