passes_logs/2026/01/04/R2.0S_Moscow/R2.0S_Moscow__20260104_004127_FENGYUN_3D_rec.log

#Pass ID: 20260104_004127_FENGYUN 3D
#Satellite: FENGYUN 3D
#Configuration: FENGYUN 3D
#almurnet v.1.7.20251203
#Start time: 2026-01-04 00:41:29

#Version: 2.2.20231116
#Station: R2.0S_Moscow
#Location: 37.707566 lon 55.798166 lat
#TLE: 1 43010U 17072A   26003.51579816  .00000092  00000+0  65324-4 0  9992
#TLE: 2 43010  98.9912 335.1548 0001916 128.4619 231.6729 14.19692074421623

#Time	Az	El	Level	Level2	SNR	BER	BlckErr	Temp	State	Recorded	gain1	gain2
2026-01-04 00:41:29.82	22.32	2.14	-42.2	-54.5	3.8	8.45e-01	0	48	0	0	56	14404
2026-01-04 00:41:33.86	22.53	2.38	-42.1	-54.3	3.8	8.47e-01	0	48	104	0	54	15916
2026-01-04 00:41:37.90	22.74	2.62	-42.0	-54.3	3.8	8.47e-01	0	48	104	0	54	15903
2026-01-04 00:41:41.94	22.95	2.87	-42.0	-54.3	3.8	8.45e-01	0	48	104	0	54	15869
2026-01-04 00:41:45.99	23.17	3.11	-42.0	-54.3	3.8	8.47e-01	0	49	104	0	54	15835
2026-01-04 00:41:50.03	23.39	3.36	-42.0	-54.3	3.8	8.46e-01	0	49	104	0	54	15813
2026-01-04 00:41:54.07	23.62	3.61	-42.1	-54.3	3.8	8.45e-01	0	49	104	0	54	15857
2026-01-04 00:41:58.12	23.84	3.86	-42.0	-54.3	3.8	8.46e-01	0	50	104	0	54	15862
2026-01-04 00:42:02.16	24.08	4.12	-42.0	-54.3	3.8	8.45e-01	0	50	104	0	54	15854
2026-01-04 00:42:06.20	24.31	4.38	-42.0	-54.3	3.8	8.47e-01	0	50	104	0	54	15799
2026-01-04 00:42:10.25	24.55	4.64	-42.0	-54.3	3.8	8.46e-01	0	50	104	0	54	15907
2026-01-04 00:42:14.29	24.79	4.90	-42.1	-54.3	3.8	8.46e-01	0	50	104	0	54	15881
2026-01-04 00:42:18.34	25.04	5.16	-42.1	-54.3	3.8	8.47e-01	0	50	104	0	54	15912
2026-01-04 00:42:22.38	25.29	5.43	-42.1	-54.3	3.8	8.46e-01	0	51	104	0	54	15887
2026-01-04 00:42:26.43	25.54	5.69	-42.1	-54.3	3.8	8.47e-01	0	51	104	0	54	15907
2026-01-04 00:42:30.47	25.80	5.96	-42.1	-54.3	3.8	8.44e-01	0	52	104	0	54	15902
2026-01-04 00:42:34.51	26.07	6.24	-42.0	-54.3	3.8	8.46e-01	0	52	104	0	54	15805
2026-01-04 00:42:38.56	26.34	6.51	-42.0	-54.3	3.8	8.46e-01	0	52	104	0	54	15943
2026-01-04 00:42:42.60	26.61	6.79	-42.0	-54.1	3.8	8.47e-01	0	52	104	0	54	15429
2026-01-04 00:42:46.65	26.89	7.07	-41.6	-50.2	4.4	8.36e-01	0	52	0	0	54	9900
2026-01-04 00:42:50.69	27.17	7.35	-39.2	-42.7	10.5	9.61e-03	0	52	0	14680064	50	5253
2026-01-04 00:42:54.73	27.46	7.64	-37.5	-40.0	13.2	5.14e-05	0	52	0	37748736	47	4574
2026-01-04 00:42:58.77	27.75	7.92	-37.1	-39.5	13.7	1.14e-05	0	52	0	59768832	45	4833
2026-01-04 00:43:02.81	28.05	8.21	-37.6	-39.9	13.8	8.16e-02	0	53	0	80740352	46	4782
2026-01-04 00:43:06.85	28.36	8.51	-36.9	-38.9	14.7	0.00e+00	0	53	0	102760448	45	4516
2026-01-04 00:43:10.89	28.67	8.80	-36.7	-38.6	15.1	0.00e+00	0	53	0	125829120	45	4379
2026-01-04 00:43:14.93	28.99	9.10	-36.8	-38.7	15.2	0.00e+00	0	53	0	148897792	45	4397
2026-01-04 00:43:18.97	29.31	9.40	-36.8	-38.6	15.3	0.00e+00	0	53	0	171966464	45	4366
2026-01-04 00:43:23.02	29.64	9.71	-36.7	-38.5	15.5	0.00e+00	0	53	0	193986560	45	4297
2026-01-04 00:43:27.06	29.98	10.02	-36.5	-38.2	15.8	0.00e+00	0	54	0	217055232	44	4440
2026-01-04 00:43:31.10	30.32	10.33	-36.3	-37.9	16.2	0.00e+00	0	54	0	239075328	44	4267
2026-01-04 00:43:35.14	30.67	10.64	-36.2	-37.7	16.5	0.00e+00	0	54	0	262144000	44	4180
2026-01-04 00:43:39.18	31.03	10.96	-36.2	-37.8	16.5	0.00e+00	0	54	0	285212672	44	4209
2026-01-04 00:43:43.22	31.39	11.28	-36.2	-37.8	16.5	0.00e+00	0	54	0	308281344	44	4212
2026-01-04 00:43:47.26	31.76	11.60	-36.2	-37.7	16.6	0.00e+00	0	54	0	330301440	44	4178
2026-01-04 00:43:51.30	32.14	11.93	-36.1	-37.6	16.8	0.00e+00	0	54	0	353370112	44	4133
2026-01-04 00:43:55.35	32.53	12.26	-36.0	-37.5	16.9	0.00e+00	0	54	0	376438784	44	4092
2026-01-04 00:43:59.39	32.93	12.59	-36.0	-37.5	17.0	0.00e+00	0	54	0	398458880	44	4056
2026-01-04 00:44:03.42	33.33	12.93	-35.7	-37.2	17.1	0.00e+00	0	54	0	421527552	43	4169
2026-01-04 00:44:07.47	33.75	13.27	-35.6	-37.1	17.3	0.00e+00	0	54	0	443547648	43	4103
2026-01-04 00:44:11.51	34.17	13.61	-35.4	-36.8	17.6	0.00e+00	0	54	0	466616320	42	4230
2026-01-04 00:44:15.55	34.61	13.96	-35.5	-36.9	17.4	0.00e+00	0	54	0	489684992	42	4279
2026-01-04 00:44:19.59	35.05	14.31	-35.5	-36.9	17.5	0.00e+00	0	55	0	512753664	42	4284
2026-01-04 00:44:23.63	35.50	14.66	-35.3	-36.7	17.8	0.00e+00	0	55	0	534773760	42	4165
2026-01-04 00:44:27.67	35.97	15.02	-35.3	-36.6	17.9	0.00e+00	0	55	0	557842432	42	4139
2026-01-04 00:44:31.71	36.44	15.38	-35.1	-36.4	18.0	0.00e+00	0	55	0	580911104	42	4051
2026-01-04 00:44:35.75	36.93	15.75	-34.9	-36.3	18.2	0.00e+00	0	55	0	602931200	41	4195
2026-01-04 00:44:39.79	37.43	16.12	-34.8	-36.2	18.4	0.00e+00	0	55	0	625999872	41	4150
2026-01-04 00:44:43.83	37.94	16.49	-34.9	-36.2	18.3	0.00e+00	0	55	0	649068544	41	4177
2026-01-04 00:44:47.87	38.46	16.87	-34.9	-36.2	18.4	0.00e+00	0	55	0	671088640	41	4161
2026-01-04 00:44:51.92	39.00	17.25	-34.9	-36.3	18.4	0.00e+00	0	55	0	694157312	41	4198
2026-01-04 00:44:55.96	39.55	17.63	-34.8	-36.1	18.5	0.00e+00	0	55	0	717225984	41	4133
2026-01-04 00:45:00.00	40.11	18.02	-34.6	-35.9	18.8	0.00e+00	0	55	0	739246080	41	4024
2026-01-04 00:45:04.04	40.68	18.41	-34.3	-35.5	19.1	0.00e+00	0	55	0	762314752	40	4079
2026-01-04 00:45:08.08	41.27	18.80	-34.3	-35.6	19.1	0.00e+00	0	55	0	785383424	40	4108
2026-01-04 00:45:12.12	41.88	19.20	-34.4	-35.6	19.1	0.00e+00	0	55	0	807403520	40	4117
2026-01-04 00:45:16.16	42.50	19.60	-34.2	-35.4	19.3	0.00e+00	0	55	0	830472192	40	4031
2026-01-04 00:45:20.20	43.14	20.00	-34.3	-35.6	19.1	0.00e+00	0	55	0	853540864	40	4112
2026-01-04 00:45:24.24	43.79	20.41	-34.2	-35.4	19.3	0.00e+00	0	55	0	875560960	40	4043
2026-01-04 00:45:28.28	44.47	20.82	-34.2	-35.4	19.3	0.00e+00	0	56	0	898629632	40	4020
2026-01-04 00:45:32.32	45.16	21.23	-34.2	-35.4	19.4	0.00e+00	0	55	0	921698304	40	4011
2026-01-04 00:45:36.36	45.86	21.65	-34.0	-35.2	19.5	0.00e+00	0	56	0	943718400	40	3957
2026-01-04 00:45:40.41	46.59	22.06	-33.9	-35.1	19.8	0.00e+00	0	56	0	966787072	39	4107
2026-01-04 00:45:44.45	47.34	22.48	-33.7	-34.8	20.0	0.00e+00	0	56	0	989855744	39	3993
2026-01-04 00:45:48.49	48.10	22.91	-33.8	-34.9	19.9	0.00e+00	0	56	0	1012924416	39	4029
2026-01-04 00:45:52.53	48.89	23.33	-33.7	-34.9	19.9	0.00e+00	0	56	0	1034944512	39	4018
2026-01-04 00:45:56.58	49.70	23.76	-33.6	-34.8	20.1	0.00e+00	0	56	0	1058013184	39	3963
2026-01-04 00:46:00.62	50.53	24.18	-33.3	-34.4	20.4	0.00e+00	0	56	0	1080033280	38	4048
2026-01-04 00:46:04.66	51.38	24.61	-33.4	-34.5	20.3	0.00e+00	0	56	0	1103101952	38	4092
2026-01-04 00:46:08.70	52.25	25.04	-33.4	-34.5	20.3	0.00e+00	0	56	0	1126170624	38	4081
2026-01-04 00:46:12.74	53.15	25.47	-33.0	-34.3	20.0	0.00e+00	0	56	0	1149239296	38	3972
2026-01-04 00:46:16.79	54.08	25.89	-33.1	-34.3	20.0	0.00e+00	0	56	0	1171259392	38	3996
2026-01-04 00:46:20.83	55.02	26.32	-32.8	-34.1	20.3	0.00e+00	0	56	0	1194328064	37	4099
2026-01-04 00:46:24.87	56.00	26.74	-33.1	-34.4	20.0	0.00e+00	0	56	0	1217396736	37	4269
2026-01-04 00:46:28.92	57.00	27.17	-32.9	-34.1	20.2	0.00e+00	0	56	0	1239416832	37	4124
2026-01-04 00:46:32.95	58.02	27.58	-32.7	-33.9	20.5	0.00e+00	0	56	0	1262485504	37	4022
2026-01-04 00:46:36.99	59.07	28.00	-32.8	-34.0	20.4	0.00e+00	0	56	0	1285554176	37	4062
2026-01-04 00:46:41.03	60.15	28.41	-32.6	-33.8	20.5	0.00e+00	0	56	0	1307574272	37	3986
2026-01-04 00:46:45.07	61.26	28.82	-32.6	-33.8	20.5	0.00e+00	0	56	0	1330642944	37	3973
2026-01-04 00:46:49.11	62.39	29.22	-32.6	-33.8	20.5	0.00e+00	0	56	0	1353711616	36	4198
2026-01-04 00:46:53.15	63.55	29.61	-32.6	-33.8	20.5	0.00e+00	0	56	0	1375731712	36	4230
2026-01-04 00:46:57.20	64.74	30.00	-32.6	-33.8	20.6	0.00e+00	0	56	0	1398800384	36	4196
2026-01-04 00:47:01.24	65.96	30.38	-32.8	-34.0	20.3	0.00e+00	0	56	0	1421869056	36	4337
2026-01-04 00:47:05.28	67.21	30.75	-32.7	-33.9	20.4	0.00e+00	0	56	0	1444937728	36	4282
2026-01-04 00:47:09.32	68.48	31.11	-32.6	-33.8	20.5	0.00e+00	0	56	0	1466957824	36	4234
2026-01-04 00:47:13.36	69.78	31.46	-32.4	-33.6	20.7	0.00e+00	0	56	0	1490026496	36	4143
2026-01-04 00:47:17.39	71.11	31.79	-32.2	-33.4	20.9	0.00e+00	0	56	0	1512046592	36	4017
2026-01-04 00:47:21.43	72.47	32.11	-32.6	-33.8	20.5	0.00e+00	0	56	0	1535115264	36	4219
2026-01-04 00:47:25.47	73.85	32.42	-32.6	-33.9	20.5	0.00e+00	0	56	0	1558183936	36	4248
2026-01-04 00:47:29.51	75.26	32.71	-32.4	-33.6	20.8	0.00e+00	0	56	0	1580204032	36	4109
2026-01-04 00:47:33.55	76.69	32.99	-32.4	-33.6	20.8	0.00e+00	0	56	0	1603272704	36	4103
2026-01-04 00:47:37.59	78.15	33.25	-32.5	-33.8	20.5	0.00e+00	0	56	0	1626341376	36	4194
2026-01-04 00:47:41.64	79.63	33.49	-32.1	-33.3	21.0	0.00e+00	0	56	0	1648361472	36	3971
2026-01-04 00:47:45.67	81.13	33.71	-32.4	-33.6	20.7	0.00e+00	0	56	0	1671430144	36	4124
2026-01-04 00:47:49.72	82.65	33.91	-32.3	-33.5	20.9	0.00e+00	0	56	0	1694498816	36	4063
2026-01-04 00:47:53.76	84.19	34.09	-32.5	-33.7	20.7	0.00e+00	0	56	0	1716518912	36	4148
2026-01-04 00:47:57.80	85.74	34.24	-32.2	-33.4	21.0	0.00e+00	0	56	0	1739587584	36	4025
2026-01-04 00:48:01.84	87.31	34.38	-32.3	-33.4	20.9	0.00e+00	0	56	0	1762656256	36	4044
2026-01-04 00:48:05.88	88.89	34.49	-32.2	-33.3	21.0	0.00e+00	0	56	0	1785724928	36	3986
2026-01-04 00:48:09.92	90.48	34.58	-32.2	-33.3	21.0	0.00e+00	0	56	0	1807745024	36	4000
2026-01-04 00:48:13.96	92.07	34.64	-32.6	-33.8	20.6	0.00e+00	0	56	0	1830813696	36	4194
2026-01-04 00:48:18.01	93.68	34.68	-32.4	-33.6	20.8	0.00e+00	0	56	0	1852833792	36	4130
2026-01-04 00:48:22.04	95.28	34.69	-32.3	-33.5	20.9	0.00e+00	0	57	0	1875902464	36	4069
2026-01-04 00:48:26.09	96.89	34.68	-32.2	-33.3	21.0	0.00e+00	0	56	0	1898971136	36	3983
2026-01-04 00:48:30.13	98.49	34.65	-32.6	-33.8	20.6	0.00e+00	0	56	0	1922039808	36	4223
2026-01-04 00:48:34.17	100.09	34.59	-32.4	-33.6	20.8	0.00e+00	0	56	0	1944059904	36	4128
2026-01-04 00:48:38.21	101.68	34.51	-32.1	-33.3	21.1	0.00e+00	0	56	0	1967128576	36	3968
2026-01-04 00:48:42.25	103.26	34.40	-32.5	-33.7	20.7	0.00e+00	0	56	0	1990197248	36	4166
2026-01-04 00:48:46.28	104.83	34.27	-32.4	-33.6	20.7	0.00e+00	0	56	0	2012217344	36	4136
2026-01-04 00:48:50.32	106.39	34.12	-32.5	-33.6	20.7	0.00e+00	0	56	0	2035286016	36	4145
2026-01-04 00:48:54.36	107.93	33.94	-32.7	-33.9	20.4	0.00e+00	0	56	0	2057306112	36	4277
2026-01-04 00:48:58.40	109.46	33.74	-32.5	-33.7	20.7	0.00e+00	0	56	0	2080374784	36	4170
2026-01-04 00:49:02.44	110.97	33.53	-32.3	-33.5	20.9	0.00e+00	0	56	0	2103443456	36	4066
2026-01-04 00:49:06.48	112.45	33.29	-32.5	-33.7	20.6	0.00e+00	0	57	0	2126512128	36	4190
2026-01-04 00:49:10.52	113.92	33.03	-32.6	-33.8	20.5	0.00e+00	0	57	0	2148532224	36	4230
2026-01-04 00:49:14.56	115.36	32.76	-32.8	-34.1	20.3	0.00e+00	0	57	0	2171600896	36	4343
2026-01-04 00:49:18.60	116.78	32.47	-32.7	-33.9	20.3	0.00e+00	0	57	0	2194669568	36	4290
2026-01-04 00:49:22.63	118.16	32.17	-32.8	-34.0	20.3	0.00e+00	0	56	0	2216689664	36	4322
2026-01-04 00:49:26.68	119.53	31.84	-32.9	-34.2	20.2	0.00e+00	0	56	0	2239758336	36	4416
2026-01-04 00:49:30.72	120.87	31.51	-32.8	-34.1	20.3	0.00e+00	0	57	0	2261778432	36	4350
2026-01-04 00:49:34.76	122.18	31.16	-32.9	-34.2	20.1	0.00e+00	0	57	0	2284847104	36	4404
2026-01-04 00:49:38.80	123.47	30.80	-32.9	-34.1	20.3	0.00e+00	0	56	0	2307915776	36	4357
2026-01-04 00:49:42.84	124.72	30.43	-32.8	-34.0	20.4	0.00e+00	0	57	0	2330984448	36	4302
2026-01-04 00:49:46.88	125.95	30.05	-32.9	-34.1	20.2	0.00e+00	0	57	0	2353004544	36	4390
2026-01-04 00:49:50.92	127.15	29.67	-32.9	-34.1	20.3	0.00e+00	0	56	0	2376073216	36	4366
2026-01-04 00:49:54.96	128.32	29.27	-32.9	-34.2	20.2	0.00e+00	0	56	0	2399141888	36	4404
2026-01-04 00:49:59.01	129.47	28.87	-33.0	-34.2	20.1	0.00e+00	0	57	0	2421161984	36	4433
2026-01-04 00:50:03.05	130.58	28.46	-33.1	-34.3	20.0	0.00e+00	0	56	0	2444230656	36	4486
2026-01-04 00:50:07.08	131.67	28.05	-33.2	-34.5	19.9	0.00e+00	0	57	0	2467299328	37	4314
2026-01-04 00:50:11.12	132.73	27.63	-32.9	-34.1	20.3	0.00e+00	0	57	0	2489319424	37	4107
2026-01-04 00:50:15.17	133.76	27.21	-33.2	-34.4	20.0	0.00e+00	0	57	0	2512388096	37	4283
2026-01-04 00:50:19.21	134.77	26.78	-33.4	-34.7	19.7	0.00e+00	0	57	0	2535456768	37	4427
2026-01-04 00:50:23.25	135.75	26.35	-33.3	-34.6	19.9	0.00e+00	0	57	0	2557476864	37	4353
2026-01-04 00:50:27.29	136.71	25.92	-33.3	-34.6	19.8	0.00e+00	0	57	0	2580545536	37	4374
2026-01-04 00:50:31.34	137.64	25.49	-33.0	-34.3	20.2	0.00e+00	0	57	0	2603614208	37	4196
2026-01-04 00:50:35.37	138.54	25.06	-33.1	-34.4	20.0	0.00e+00	0	57	0	2626682880	37	4257
2026-01-04 00:50:39.41	139.42	24.63	-33.4	-34.7	19.8	0.00e+00	0	57	0	2648702976	37	4418
2026-01-04 00:50:43.45	140.28	24.20	-33.3	-34.6	19.9	0.00e+00	0	57	0	2671771648	37	4352
2026-01-04 00:50:47.49	141.12	23.77	-33.6	-34.9	19.6	0.00e+00	0	57	0	2693791744	37	4510
2026-01-04 00:50:51.53	141.93	23.34	-33.8	-35.2	19.3	0.00e+00	0	57	0	2716860416	38	4398
2026-01-04 00:50:55.57	142.73	22.92	-33.8	-35.2	19.4	0.00e+00	0	57	0	2739929088	38	4394
2026-01-04 00:50:59.61	143.50	22.49	-33.7	-35.0	19.5	0.00e+00	0	57	0	2761949184	38	4319
2026-01-04 00:51:03.65	144.25	22.07	-33.9	-35.2	19.2	0.00e+00	0	57	0	2785017856	38	4435
2026-01-04 00:51:07.69	144.98	21.65	-33.9	-35.3	19.2	0.00e+00	0	57	0	2808086528	38	4451
2026-01-04 00:51:11.73	145.69	21.23	-33.9	-35.2	19.3	0.00e+00	0	57	0	2831155200	38	4417
2026-01-04 00:51:15.77	146.39	20.81	-34.1	-35.4	19.0	0.00e+00	0	57	0	2853175296	38	4527
2026-01-04 00:51:19.81	147.06	20.40	-34.3	-35.6	18.8	0.00e+00	0	57	0	2876243968	39	4372
2026-01-04 00:51:23.85	147.72	19.98	-34.4	-35.8	18.7	0.00e+00	0	57	0	2898264064	39	4455
2026-01-04 00:51:27.89	148.36	19.58	-34.7	-36.1	18.4	0.00e+00	0	57	0	2921332736	39	4637
2026-01-04 00:51:31.93	148.99	19.17	-34.8	-36.2	18.2	0.00e+00	0	57	0	2944401408	40	4412
2026-01-04 00:51:35.97	149.60	18.77	-34.7	-36.1	18.3	0.00e+00	0	57	0	2967470080	40	4381
2026-01-04 00:51:40.02	150.19	18.37	-34.8	-36.3	18.1	0.00e+00	0	57	0	2989490176	40	4442
2026-01-04 00:51:44.05	150.77	17.98	-35.0	-36.5	17.9	0.00e+00	0	57	0	3012558848	40	4579
2026-01-04 00:51:48.10	151.34	17.59	-34.9	-36.4	18.0	0.00e+00	0	57	0	3035627520	40	4504
2026-01-04 00:51:52.14	151.89	17.20	-34.9	-36.3	18.1	0.00e+00	0	57	0	3057647616	40	4478
2026-01-04 00:51:56.18	152.43	16.82	-35.0	-36.5	17.9	0.00e+00	0	57	0	3080716288	40	4546
2026-01-04 00:52:00.22	152.95	16.44	-35.0	-36.5	17.9	0.00e+00	0	57	0	3102736384	40	4552
2026-01-04 00:52:04.26	153.46	16.06	-35.1	-36.6	17.8	0.00e+00	0	57	0	3125805056	40	4606
2026-01-04 00:52:08.30	153.96	15.69	-35.1	-36.6	17.8	0.00e+00	0	57	0	3148873728	40	4640
2026-01-04 00:52:12.34	154.45	15.32	-35.2	-36.7	17.7	0.00e+00	0	57	0	3171942400	41	4430
2026-01-04 00:52:16.38	154.93	14.96	-35.4	-36.9	17.5	0.00e+00	0	57	0	3193962496	41	4534
2026-01-04 00:52:20.43	155.39	14.59	-35.5	-37.0	17.4	0.00e+00	0	57	0	3217031168	41	4570
2026-01-04 00:52:24.47	155.85	14.24	-35.5	-37.1	17.3	0.00e+00	0	57	0	3240099840	41	4612
2026-01-04 00:52:28.51	156.29	13.88	-35.7	-37.2	17.1	0.00e+00	0	57	0	3262119936	41	4699
2026-01-04 00:52:32.55	156.73	13.53	-35.9	-37.5	16.8	0.00e+00	0	57	0	3285188608	42	4585
2026-01-04 00:52:36.59	157.15	13.18	-36.0	-37.7	16.6	0.00e+00	0	57	0	3308257280	42	4685
2026-01-04 00:52:40.63	157.56	12.84	-36.2	-37.8	16.5	0.00e+00	0	57	0	3330277376	42	4752
2026-01-04 00:52:44.67	157.97	12.50	-36.2	-37.9	16.5	0.00e+00	0	57	0	3353346048	42	4760
2026-01-04 00:52:48.71	158.37	12.17	-36.2	-37.8	16.5	0.00e+00	0	57	0	3376414720	43	4475
2026-01-04 00:52:52.75	158.76	11.83	-36.2	-37.9	16.4	0.00e+00	0	57	0	3398434816	43	4499
2026-01-04 00:52:56.79	159.13	11.50	-36.3	-38.0	16.2	0.00e+00	0	57	0	3421503488	43	4569
2026-01-04 00:53:00.83	159.51	11.18	-36.4	-38.1	16.1	0.00e+00	0	57	0	3444572160	43	4613
2026-01-04 00:53:04.87	159.87	10.85	-36.4	-38.1	16.1	0.00e+00	0	57	0	3467640832	43	4643
2026-01-04 00:53:08.92	160.23	10.53	-36.4	-38.2	15.9	0.00e+00	0	57	0	3489660928	43	4672
2026-01-04 00:53:12.96	160.58	10.22	-36.4	-38.1	16.0	0.00e+00	0	57	0	3512729600	43	4643
2026-01-04 00:53:17.00	160.92	9.90	-36.5	-38.3	15.8	0.00e+00	0	57	0	3534749696	43	4742
2026-01-04 00:53:21.04	161.25	9.59	-36.6	-38.4	15.7	0.00e+00	0	57	0	3557818368	43	4794
2026-01-04 00:53:25.08	161.58	9.28	-36.9	-38.8	15.5	0.00e+00	0	57	0	3580887040	44	4719
2026-01-04 00:53:29.12	161.90	8.98	-37.0	-38.8	15.3	0.00e+00	0	57	0	3602907136	44	4759
2026-01-04 00:53:33.16	162.22	8.68	-37.0	-38.8	15.3	0.00e+00	0	57	0	3625975808	44	4755
2026-01-04 00:53:37.20	162.53	8.38	-37.0	-38.9	15.2	0.00e+00	0	57	0	3649044480	44	4794
2026-01-04 00:53:41.24	162.83	8.09	-37.1	-39.0	15.1	0.00e+00	0	57	0	3672113152	44	4839
2026-01-04 00:53:45.28	163.13	7.79	-44.8	-56.6	3.8	8.46e-01	0	57	104	3679453184	60	14631
2026-01-04 00:53:49.32	163.42	7.50	-45.0	-56.9	3.8	8.46e-01	0	57	104	3679453184	60	15155
2026-01-04 00:53:53.37	163.71	7.21	-45.1	-57.0	3.8	8.46e-01	0	57	104	3679453184	60	15234
2026-01-04 00:53:57.41	163.99	6.93	-45.0	-56.9	3.8	8.45e-01	0	57	104	3679453184	60	15158
2026-01-04 00:54:01.45	164.26	6.65	-45.0	-56.9	3.8	8.47e-01	0	57	104	3679453184	60	15073
2026-01-04 00:54:05.49	164.53	6.37	-45.0	-56.9	3.8	8.47e-01	0	57	104	3679453184	60	15136
2026-01-04 00:54:09.53	164.80	6.09	-45.0	-56.9	3.8	8.46e-01	0	57	104	3679453184	60	15118
2026-01-04 00:54:13.58	165.06	5.81	-45.0	-56.8	3.8	8.46e-01	0	57	104	3679453184	60	15039
2026-01-04 00:54:17.62	165.32	5.54	-45.0	-56.8	3.8	8.47e-01	0	57	104	3679453184	60	15021
2026-01-04 00:54:21.66	165.57	5.27	-44.9	-56.9	3.8	8.46e-01	0	57	104	3679453184	60	15069
2026-01-04 00:54:25.71	165.82	5.00	-44.9	-56.8	3.8	8.45e-01	0	57	104	3679453184	60	15049
2026-01-04 00:54:29.75	166.06	4.74	-44.9	-56.8	3.8	8.46e-01	0	57	104	3679453184	60	14959
2026-01-04 00:54:33.80	166.30	4.48	-44.9	-56.8	3.8	8.46e-01	0	57	104	3679453184	60	15010
2026-01-04 00:54:37.84	166.53	4.21	-44.9	-56.8	3.8	8.46e-01	0	57	104	3679453184	60	15017
2026-01-04 00:54:41.88	166.77	3.96	-44.9	-56.8	3.8	8.47e-01	0	57	104	3679453184	60	14989
2026-01-04 00:54:45.93	166.99	3.70	-44.9	-56.8	3.8	8.47e-01	0	57	104	3679453184	60	14983
2026-01-04 00:54:49.97	167.22	3.44	-44.9	-56.8	3.8	8.46e-01	0	57	104	3679453184	60	14965
2026-01-04 00:54:54.02	167.44	3.19	-44.9	-56.8	3.8	8.46e-01	0	57	104	3679453184	60	14973
2026-01-04 00:54:58.06	167.65	2.94	-44.9	-56.8	3.8	8.47e-01	0	57	104	3679453184	60	15051
2026-01-04 00:55:02.10	167.87	2.69	-44.9	-56.8	3.8	8.46e-01	0	57	104	3679453184	60	14969
2026-01-04 00:55:06.15	168.08	2.44	-44.9	-56.8	3.8	8.47e-01	0	57	104	3679453184	60	14994
2026-01-04 00:55:10.19	168.28	2.20	-44.9	-56.8	3.8	8.47e-01	0	57	104	3679453184	60	14961

#Closed at: 2026-01-04 00:55:13
#Recorded file [3679 MB]: D:/lorett/data/31039_260104_034129.dat