passes_logs/2026/01/04/R2.0S_Moscow/R2.0S_Moscow__20260104_015430_AQUA_rec.log

#Pass ID: 20260104_015430_AQUA
#Satellite: AQUA
#Configuration: AQUA
#almurnet v.1.7.20251203
#Start time: 2026-01-04 01:54:31

#Version: 2.2.20231116
#Station: R2.0S_Moscow
#Location: 37.707566 lon 55.798166 lat
#TLE: 1 27424U 02022A   25365.92641127  .00002078  00000+0  42628-3 0  9999
#TLE: 2 27424  98.4058 327.1196 0001962  94.7781 340.6230 14.61783896258835

#Time	Az	El	Level	Level2	SNR	BER	BlckErr	Temp	State	Recorded	gain1	gain2
2026-01-04 01:54:31.57	12.16	2.10	-40.6	-59.8	3.8	7.45e-01	0	56	0	0	53	31459
2026-01-04 01:54:34.60	12.07	2.30	-40.6	-59.8	3.8	7.45e-01	0	55	104	0	52	33347
2026-01-04 01:54:37.63	11.99	2.50	-40.6	-59.8	3.8	7.46e-01	0	56	104	0	52	33333
2026-01-04 01:54:40.66	11.90	2.70	-40.6	-59.7	3.8	7.51e-01	0	56	104	0	52	33304
2026-01-04 01:54:43.70	11.82	2.91	-40.6	-59.8	3.8	7.46e-01	0	56	104	0	52	33335
2026-01-04 01:54:46.73	11.73	3.11	-40.6	-59.8	3.8	7.45e-01	0	56	104	0	52	33325
2026-01-04 01:54:49.76	11.64	3.32	-40.6	-59.7	3.8	7.43e-01	0	56	104	0	52	33295
2026-01-04 01:54:52.80	11.54	3.53	-40.6	-59.7	3.8	7.44e-01	0	56	104	0	52	33203
2026-01-04 01:54:55.83	11.45	3.74	-40.6	-59.7	3.8	7.46e-01	0	56	104	0	52	33098
2026-01-04 01:54:58.86	11.35	3.95	-40.6	-59.7	3.8	7.48e-01	0	56	104	0	52	33074
2026-01-04 01:55:01.90	11.26	4.16	-40.6	-59.7	3.8	7.46e-01	0	56	104	0	52	33129
2026-01-04 01:55:04.93	11.16	4.38	-40.6	-59.7	3.8	7.46e-01	0	56	104	0	52	33259
2026-01-04 01:55:07.96	11.06	4.59	-40.6	-59.7	3.8	7.48e-01	0	56	104	0	52	33195
2026-01-04 01:55:10.99	10.95	4.81	-40.6	-59.7	3.8	7.43e-01	0	56	104	0	52	33238
2026-01-04 01:55:14.03	10.85	5.03	-40.6	-59.7	3.8	7.43e-01	0	56	104	0	52	33283
2026-01-04 01:55:17.06	10.74	5.25	-40.6	-59.7	3.8	7.47e-01	0	56	104	0	52	33244
2026-01-04 01:55:20.09	10.63	5.48	-40.6	-59.7	3.8	7.49e-01	0	56	104	0	52	33256
2026-01-04 01:55:23.13	10.52	5.71	-40.6	-59.7	3.8	7.44e-01	0	56	104	0	52	33271
2026-01-04 01:55:26.16	10.41	5.94	-40.6	-59.7	3.8	7.44e-01	0	56	104	0	52	33268
2026-01-04 01:55:29.19	10.29	6.17	-40.6	-59.7	3.8	7.45e-01	0	56	104	0	52	33287
2026-01-04 01:55:32.22	10.18	6.40	-40.6	-59.7	3.8	7.48e-01	0	56	104	0	52	33288
2026-01-04 01:55:35.26	10.06	6.63	-40.6	-59.7	3.8	7.45e-01	0	56	104	0	52	33269
2026-01-04 01:55:38.29	9.94	6.87	-40.6	-59.7	3.8	7.45e-01	0	56	104	0	52	33255
2026-01-04 01:55:41.32	9.81	7.11	-40.6	-59.8	3.8	7.44e-01	0	56	104	0	52	33355
2026-01-04 01:55:44.35	9.68	7.35	-40.6	-59.7	3.8	7.47e-01	0	56	104	0	52	33281
2026-01-04 01:55:47.39	9.55	7.60	-40.6	-59.7	3.8	7.44e-01	0	56	104	0	52	33307
2026-01-04 01:55:50.42	9.42	7.85	-40.6	-59.7	3.8	7.49e-01	0	56	104	0	52	33309
2026-01-04 01:55:53.45	9.29	8.10	-40.7	-59.8	3.8	7.46e-01	0	56	104	0	52	33465
2026-01-04 01:55:56.48	9.15	8.35	-40.7	-59.8	3.8	7.45e-01	0	56	104	0	52	33453
2026-01-04 01:55:59.51	9.01	8.60	-40.8	-59.7	3.8	7.44e-01	0	56	104	0	52	33238
2026-01-04 01:56:02.54	8.87	8.86	-40.8	-59.8	3.8	7.45e-01	0	56	104	0	52	33331
2026-01-04 01:56:05.57	8.72	9.12	-40.8	-59.7	3.8	7.44e-01	0	56	104	0	52	33182
2026-01-04 01:56:08.60	8.57	9.39	-40.9	-59.7	3.8	7.42e-01	0	56	104	0	52	33143
2026-01-04 01:56:11.63	8.42	9.65	-40.9	-59.7	3.8	7.46e-01	0	56	104	0	52	33249
2026-01-04 01:56:14.66	8.26	9.92	-40.9	-59.7	3.8	7.44e-01	0	56	104	0	52	33250
2026-01-04 01:56:17.69	8.10	10.20	-40.9	-59.7	3.8	7.47e-01	0	56	104	0	52	33287
2026-01-04 01:56:20.72	7.94	10.47	-41.1	-59.9	3.8	7.45e-01	0	56	104	0	53	31813
2026-01-04 01:56:23.76	7.77	10.75	-40.9	-59.7	3.8	7.44e-01	0	56	104	0	53	31239
2026-01-04 01:56:26.79	7.60	11.03	-41.0	-59.3	3.8	7.47e-01	0	56	104	0	53	29860
2026-01-04 01:56:29.82	7.43	11.32	-41.8	-57.9	3.8	7.44e-01	0	56	104	0	54	23987
2026-01-04 01:56:32.85	7.25	11.61	-41.9	-57.3	3.8	7.43e-01	0	56	104	0	54	22403
2026-01-04 01:56:35.88	7.07	11.90	-40.1	-53.5	3.8	7.41e-01	0	57	104	0	52	16200
2026-01-04 01:56:38.91	6.88	12.20	-41.2	-54.6	3.8	7.44e-01	0	56	104	0	54	16325
2026-01-04 01:56:41.94	6.69	12.50	-40.7	-55.4	3.8	7.46e-01	0	57	104	0	51	21412
2026-01-04 01:56:44.98	6.50	12.80	-39.7	-52.2	3.8	7.43e-01	0	56	104	0	50	15653
2026-01-04 01:56:48.01	6.30	13.11	-41.2	-54.2	3.8	7.44e-01	0	56	104	0	52	17506
2026-01-04 01:56:51.04	6.09	13.42	-40.0	-52.2	3.8	7.44e-01	0	57	104	0	51	14809
2026-01-04 01:56:54.07	5.88	13.74	-40.1	-52.1	3.8	7.42e-01	0	57	104	0	51	14653
2026-01-04 01:56:57.10	5.67	14.06	-41.3	-53.9	3.8	7.45e-01	0	56	104	0	53	16092
2026-01-04 01:57:00.13	5.45	14.39	-39.7	-51.6	3.8	7.45e-01	0	57	104	0	51	13836
2026-01-04 01:57:03.16	5.22	14.71	-40.7	-53.1	3.8	7.47e-01	0	57	104	0	52	15510
2026-01-04 01:57:06.19	4.99	15.05	-42.3	-47.7	14.4	6.02e-01	0	56	0	524288	55	6982
2026-01-04 01:57:09.23	4.75	15.39	-39.3	-41.6	21.5	6.00e-01	0	56	0	6291456	50	4609
2026-01-04 01:57:12.26	4.51	15.73	-38.9	-41.0	22.1	5.99e-01	0	57	0	12058624	49	4592
2026-01-04 01:57:15.28	4.26	16.08	-38.9	-41.0	22.2	6.02e-01	0	56	0	17825792	49	4568
2026-01-04 01:57:18.31	4.01	16.43	-38.8	-40.9	22.4	6.02e-01	0	57	0	23592960	49	4504
2026-01-04 01:57:21.34	3.74	16.79	-38.9	-41.0	22.3	6.00e-01	0	57	0	29360128	49	4547
2026-01-04 01:57:24.37	3.47	17.15	-38.9	-41.0	22.3	6.00e-01	0	57	0	34603008	49	4557
2026-01-04 01:57:27.41	3.19	17.52	-38.9	-41.0	22.3	6.01e-01	0	57	0	40370176	49	4567
2026-01-04 01:57:30.43	2.91	17.90	-39.0	-41.1	22.3	6.02e-01	0	57	0	46137344	49	4618
2026-01-04 01:57:33.46	2.62	18.28	-39.0	-41.1	22.3	6.03e-01	0	57	0	51904512	49	4639
2026-01-04 01:57:36.49	2.32	18.66	-39.0	-41.1	22.3	6.01e-01	0	56	0	57671680	49	4620
2026-01-04 01:57:39.52	2.01	19.05	-39.0	-41.1	22.4	6.01e-01	0	56	0	63438848	49	4611
2026-01-04 01:57:42.55	1.69	19.45	-38.9	-41.0	22.5	6.01e-01	0	56	0	68681728	49	4571
2026-01-04 01:57:45.58	1.36	19.86	-38.8	-40.9	22.6	6.02e-01	0	56	0	74448896	49	4495
2026-01-04 01:57:48.61	1.02	20.27	-38.9	-41.0	22.5	6.02e-01	0	57	0	80216064	49	4555
2026-01-04 01:57:51.64	0.67	20.68	-39.1	-41.1	22.4	6.01e-01	0	56	0	85983232	49	4635
2026-01-04 01:57:54.67	0.32	21.11	-39.2	-41.3	22.2	6.02e-01	0	57	0	91750400	49	4708
2026-01-04 01:57:57.69	359.95	21.54	-39.1	-41.2	22.4	6.00e-01	0	57	0	97517568	49	4667
2026-01-04 01:58:00.72	359.57	21.97	-39.1	-41.2	22.4	6.00e-01	0	56	0	102760448	49	4659
2026-01-04 01:58:03.75	359.18	22.42	-39.1	-41.2	22.4	6.02e-01	0	57	0	108527616	49	4659
2026-01-04 01:58:06.78	358.77	22.87	-39.1	-41.2	22.4	6.01e-01	0	56	0	114294784	49	4660
2026-01-04 01:58:09.81	358.36	23.33	-39.3	-41.4	22.2	6.02e-01	0	56	0	120061952	49	4792
2026-01-04 01:58:12.84	357.93	23.79	-39.4	-41.6	22.1	6.03e-01	0	56	0	125829120	49	4871
2026-01-04 01:58:15.87	357.48	24.26	-39.4	-41.5	22.2	6.01e-01	0	56	0	131596288	49	4845
2026-01-04 01:58:18.90	357.02	24.74	-39.3	-41.4	22.2	6.02e-01	0	57	0	136839168	49	4770
2026-01-04 01:58:21.93	356.55	25.23	-39.2	-41.3	22.3	6.04e-01	0	57	0	142606336	49	4746
2026-01-04 01:58:24.95	356.06	25.73	-39.0	-41.0	22.7	6.02e-01	0	57	0	148373504	49	4548
2026-01-04 01:58:27.98	355.55	26.23	-38.9	-40.9	22.8	6.01e-01	0	56	0	154140672	49	4495
2026-01-04 01:58:31.01	355.03	26.74	-39.2	-41.2	22.4	6.01e-01	0	57	0	159907840	49	4703
2026-01-04 01:58:34.04	354.48	27.26	-39.0	-41.0	22.7	6.03e-01	0	56	0	165675008	49	4563
2026-01-04 01:58:37.07	353.92	27.79	-38.7	-40.7	23.1	6.03e-01	0	57	0	170917888	49	4402
2026-01-04 01:58:40.09	353.34	28.32	-38.9	-40.8	22.9	6.04e-01	0	57	0	176685056	49	4468
2026-01-04 01:58:43.12	352.74	28.87	-38.7	-40.6	23.2	6.03e-01	0	56	0	182452224	49	4371
2026-01-04 01:58:46.15	352.11	29.42	-38.7	-40.5	23.2	6.00e-01	0	57	0	188219392	49	4335
2026-01-04 01:58:49.18	351.46	29.98	-38.6	-40.5	23.2	6.01e-01	0	57	0	193986560	49	4331
2026-01-04 01:58:52.21	350.79	30.54	-38.5	-40.4	23.4	6.02e-01	0	57	0	199753728	49	4262
2026-01-04 01:58:55.24	350.09	31.12	-38.6	-40.4	23.3	6.02e-01	0	56	0	204996608	48	4544
2026-01-04 01:58:58.27	349.37	31.70	-38.6	-40.5	23.3	6.03e-01	0	57	0	210763776	48	4572
2026-01-04 01:59:01.30	348.62	32.29	-39.0	-40.9	22.9	6.01e-01	0	56	0	216530944	48	4799
2026-01-04 01:59:04.33	347.84	32.88	-38.7	-40.6	23.3	6.01e-01	0	57	0	222298112	48	4609
2026-01-04 01:59:07.36	347.02	33.49	-39.1	-41.0	22.8	6.03e-01	0	56	0	228065280	48	4861
2026-01-04 01:59:10.39	346.18	34.09	-39.2	-41.2	22.6	5.97e-01	0	56	0	233832448	49	4698
2026-01-04 01:59:13.41	345.31	34.71	-39.4	-41.4	22.5	5.99e-01	0	57	0	239075328	49	4812
2026-01-04 01:59:16.44	344.39	35.33	-39.7	-41.8	22.1	6.02e-01	0	57	0	244842496	49	5020
2026-01-04 01:59:19.47	343.44	35.95	-40.0	-42.2	21.7	6.02e-01	0	56	0	250609664	50	4965
2026-01-04 01:59:22.50	342.46	36.58	-40.0	-42.2	21.8	6.02e-01	0	56	0	256376832	50	4961
2026-01-04 01:59:25.53	341.43	37.21	-40.5	-42.9	21.1	5.99e-01	0	56	0	262144000	51	5060
2026-01-04 01:59:28.56	340.36	37.84	-40.2	-42.5	21.5	6.00e-01	0	56	0	267911168	52	4560
2026-01-04 01:59:31.59	339.25	38.47	-40.7	-43.2	20.7	6.00e-01	0	57	0	273154048	52	4978
2026-01-04 01:59:34.62	338.09	39.11	-40.5	-42.9	21.0	6.00e-01	0	56	0	278921216	52	4789
2026-01-04 01:59:37.65	336.88	39.74	-40.9	-43.4	20.6	6.01e-01	0	57	0	284688384	52	5057
2026-01-04 01:59:40.68	335.62	40.37	-40.7	-43.2	20.8	6.00e-01	0	56	0	290455552	52	4956
2026-01-04 01:59:43.71	334.32	40.99	-40.6	-43.0	21.0	5.99e-01	0	57	0	296222720	52	4835
2026-01-04 01:59:46.74	332.96	41.61	-40.1	-42.3	21.6	6.03e-01	0	57	0	301989888	52	4482
2026-01-04 01:59:49.77	331.55	42.22	-40.3	-42.6	21.3	6.03e-01	0	57	0	307232768	52	4641
2026-01-04 01:59:52.80	330.08	42.83	-40.1	-42.3	21.8	6.02e-01	0	57	0	312999936	51	4738
2026-01-04 01:59:55.83	328.55	43.42	-40.2	-42.5	21.6	5.99e-01	0	57	0	318767104	51	4833
2026-01-04 01:59:58.86	326.97	43.99	-40.0	-42.2	21.9	6.01e-01	0	57	0	324534272	51	4674
2026-01-04 02:00:01.88	325.33	44.55	-40.0	-42.2	21.8	6.02e-01	0	57	0	330301440	51	4693
2026-01-04 02:00:04.91	323.63	45.09	-40.1	-42.3	21.7	6.02e-01	0	57	0	336068608	51	4727
2026-01-04 02:00:07.94	321.87	45.61	-40.0	-42.1	21.9	6.01e-01	0	56	0	341311488	51	4627
2026-01-04 02:00:10.97	320.05	46.11	-40.6	-43.0	21.1	6.02e-01	0	57	0	347078656	51	5130
2026-01-04 02:00:14.00	318.17	46.58	-40.7	-43.1	20.9	6.01e-01	0	56	0	352845824	51	5200
2026-01-04 02:00:17.03	316.24	47.02	-40.1	-42.3	21.8	6.00e-01	0	57	0	358612992	51	4726
2026-01-04 02:00:20.06	314.25	47.42	-40.3	-42.6	21.4	5.99e-01	0	57	0	364380160	51	4912
2026-01-04 02:00:23.09	312.21	47.80	-40.1	-42.4	21.6	6.02e-01	0	57	0	370147328	51	4774
2026-01-04 02:00:26.12	310.12	48.14	-39.9	-42.0	22.0	5.99e-01	0	57	0	375390208	51	4591
2026-01-04 02:00:29.14	308.00	48.43	-40.3	-42.6	21.5	6.01e-01	0	57	0	381157376	51	4912
2026-01-04 02:00:32.17	305.83	48.69	-40.9	-43.6	20.6	6.02e-01	0	56	0	386924544	52	5164
2026-01-04 02:00:35.20	303.62	48.90	-40.9	-43.7	20.4	6.00e-01	0	57	0	392691712	52	5221
2026-01-04 02:00:38.23	301.39	49.07	-40.2	-42.5	21.5	5.98e-01	0	57	0	398458880	50	5110
2026-01-04 02:00:41.26	299.13	49.19	-39.1	-40.9	23.0	6.00e-01	0	57	0	404226048	50	4288
2026-01-04 02:00:44.29	296.86	49.27	-40.3	-42.6	20.9	5.99e-01	0	56	0	409468928	52	4616
2026-01-04 02:00:47.32	294.59	49.30	-40.4	-42.7	21.3	6.00e-01	0	56	0	415236096	51	4965
2026-01-04 02:00:50.35	292.31	49.28	-39.3	-41.2	22.6	5.99e-01	0	56	0	421003264	50	4422
2026-01-04 02:00:53.37	290.04	49.21	-40.4	-42.8	21.2	6.01e-01	0	56	0	426770432	51	5001
2026-01-04 02:00:56.40	287.78	49.09	-40.5	-43.0	20.9	6.01e-01	0	56	0	432537600	51	5115
2026-01-04 02:00:59.43	285.55	48.93	-40.0	-42.1	21.8	6.02e-01	0	56	0	438304768	51	4636
2026-01-04 02:01:02.46	283.34	48.72	-39.4	-41.4	22.6	6.02e-01	0	56	0	443547648	50	4514
2026-01-04 02:01:05.49	281.16	48.47	-39.5	-41.6	22.2	6.04e-01	0	57	0	449314816	50	4620
2026-01-04 02:01:08.52	279.02	48.18	-39.9	-42.2	21.8	6.02e-01	0	56	0	455081984	50	4927
2026-01-04 02:01:11.55	276.92	47.84	-39.9	-42.1	21.9	6.02e-01	0	57	0	460849152	50	4922
2026-01-04 02:01:14.58	274.87	47.47	-39.5	-41.5	22.5	6.01e-01	0	56	0	466616320	50	4583
2026-01-04 02:01:17.61	272.87	47.07	-39.6	-41.7	22.3	6.02e-01	0	56	0	472383488	50	4652
2026-01-04 02:01:20.64	270.93	46.63	-39.6	-41.7	22.3	6.02e-01	0	57	0	477626368	50	4680
2026-01-04 02:01:23.67	269.04	46.16	-39.7	-41.8	22.2	6.01e-01	0	56	0	483393536	50	4725
2026-01-04 02:01:26.70	267.21	45.67	-39.6	-41.7	22.4	5.99e-01	0	57	0	489160704	50	4661
2026-01-04 02:01:29.73	265.44	45.15	-39.3	-41.3	22.7	6.01e-01	0	56	0	494927872	50	4477
2026-01-04 02:01:32.76	263.73	44.61	-39.4	-41.4	22.6	6.01e-01	0	56	0	500695040	50	4518
2026-01-04 02:01:35.79	262.07	44.05	-39.3	-41.3	22.7	6.03e-01	0	57	0	506462208	50	4460
2026-01-04 02:01:38.82	260.48	43.47	-38.9	-40.8	23.1	6.01e-01	0	57	0	511705088	49	4472
2026-01-04 02:01:41.85	258.94	42.88	-39.5	-41.6	22.4	6.02e-01	0	56	0	517472256	49	4890
2026-01-04 02:01:44.88	257.46	42.28	-39.4	-41.4	22.5	5.99e-01	0	56	0	523239424	49	4808
2026-01-04 02:01:47.91	256.04	41.67	-39.8	-42.0	22.0	6.00e-01	0	56	0	529006592	50	4821
2026-01-04 02:01:50.94	254.67	41.05	-39.9	-42.0	22.0	6.03e-01	0	56	0	534773760	50	4860
2026-01-04 02:01:53.97	253.35	40.42	-40.0	-42.3	21.8	6.02e-01	0	56	0	540540928	50	4987
2026-01-04 02:01:57.00	252.08	39.79	-40.3	-42.6	21.4	6.02e-01	0	56	0	545783808	51	4909
2026-01-04 02:02:00.03	250.87	39.15	-40.2	-42.4	21.6	6.02e-01	0	57	0	551550976	51	4799
2026-01-04 02:02:03.05	249.70	38.52	-40.5	-42.9	21.0	6.03e-01	0	56	0	557318144	52	4805
2026-01-04 02:02:06.09	248.58	37.88	-40.5	-42.9	21.1	6.00e-01	0	57	0	563085312	52	4764
2026-01-04 02:02:09.11	247.50	37.25	-40.5	-42.9	21.0	5.99e-01	0	57	0	568852480	52	4805
2026-01-04 02:02:12.14	246.47	36.61	-40.4	-42.8	21.1	6.01e-01	0	56	0	574619648	52	4713
2026-01-04 02:02:15.17	245.47	35.98	-40.1	-42.3	21.5	6.00e-01	0	57	0	579862528	52	4490
2026-01-04 02:02:18.20	244.51	35.36	-39.9	-42.1	21.8	6.01e-01	0	57	0	585629696	51	4616
2026-01-04 02:02:21.23	243.59	34.73	-40.2	-42.5	21.5	6.01e-01	0	56	0	591396864	51	4857
2026-01-04 02:02:24.26	242.71	34.12	-40.0	-42.3	21.7	6.03e-01	0	57	0	597164032	51	4725
2026-01-04 02:02:27.28	241.86	33.51	-39.6	-41.7	22.2	6.02e-01	0	56	0	602931200	51	4421
2026-01-04 02:02:30.31	241.04	32.90	-39.3	-41.4	22.5	6.03e-01	0	57	0	608698368	50	4509
2026-01-04 02:02:33.34	240.25	32.30	-40.0	-42.2	21.7	6.01e-01	0	57	0	613941248	50	4971
2026-01-04 02:02:36.37	239.50	31.71	-39.4	-41.5	22.5	6.03e-01	0	56	0	619708416	50	4547
2026-01-04 02:02:39.40	238.76	31.12	-39.3	-41.4	22.5	6.01e-01	0	56	0	625475584	50	4500
2026-01-04 02:02:42.43	238.06	30.55	-39.6	-41.7	22.2	6.02e-01	0	56	0	631242752	50	4668
2026-01-04 02:02:45.46	237.38	29.98	-39.3	-41.3	22.6	6.02e-01	0	56	0	637009920	50	4461
2026-01-04 02:02:48.49	236.73	29.41	-39.6	-41.7	22.2	5.99e-01	0	57	0	642777088	50	4672
2026-01-04 02:02:51.51	236.10	28.86	-39.4	-41.4	22.4	5.99e-01	0	57	0	648019968	50	4531
2026-01-04 02:02:54.54	235.49	28.31	-39.4	-41.4	22.4	5.99e-01	0	57	0	653787136	50	4533
2026-01-04 02:02:57.57	234.90	27.78	-39.4	-41.4	22.4	6.01e-01	0	56	0	659554304	50	4544
2026-01-04 02:03:00.60	234.34	27.24	-39.3	-41.3	22.4	6.02e-01	0	57	0	665321472	50	4489
2026-01-04 02:03:03.63	233.79	26.72	-39.5	-41.7	22.2	5.99e-01	0	57	0	671088640	50	4665
2026-01-04 02:03:06.66	233.26	26.21	-39.5	-41.7	22.1	6.02e-01	0	56	0	676855808	50	4658
2026-01-04 02:03:09.69	232.75	25.70	-39.5	-41.5	22.3	6.03e-01	0	57	0	682098688	50	4588
2026-01-04 02:03:12.72	232.25	25.20	-39.9	-42.1	21.7	6.01e-01	0	57	0	687865856	50	4913
2026-01-04 02:03:15.75	231.78	24.71	-39.6	-41.7	22.1	6.01e-01	0	57	0	693633024	50	4664
2026-01-04 02:03:18.78	231.31	24.23	-39.9	-42.2	21.7	6.00e-01	0	57	0	699400192	50	4933
2026-01-04 02:03:21.81	230.86	23.75	-39.9	-42.1	21.7	6.02e-01	0	57	0	705167360	50	4924
2026-01-04 02:03:24.84	230.43	23.28	-39.7	-41.9	21.9	6.01e-01	0	57	0	710934528	50	4798
2026-01-04 02:03:27.87	230.01	22.82	-39.7	-41.9	21.9	5.98e-01	0	57	0	716177408	50	4794
2026-01-04 02:03:30.90	229.60	22.37	-39.9	-42.2	21.6	6.01e-01	0	57	0	721944576	50	4927
2026-01-04 02:03:33.93	229.20	21.92	-40.1	-42.4	21.3	6.00e-01	0	56	0	727711744	50	5090
2026-01-04 02:03:36.96	228.82	21.48	-40.1	-42.5	21.3	6.03e-01	0	57	0	733478912	50	5104
2026-01-04 02:03:39.98	228.45	21.05	-39.9	-42.2	21.5	5.99e-01	0	56	0	739246080	50	4955
2026-01-04 02:03:43.01	228.09	20.63	-39.8	-42.1	21.7	6.02e-01	0	57	0	745013248	50	4874
2026-01-04 02:03:46.04	227.74	20.21	-39.5	-41.7	22.1	6.01e-01	0	57	0	750256128	50	4665
2026-01-04 02:03:49.07	227.40	19.79	-39.6	-41.8	22.0	6.02e-01	0	57	0	756023296	50	4742
2026-01-04 02:03:52.10	227.06	19.39	-39.8	-42.0	21.8	6.00e-01	0	57	0	761790464	50	4829
2026-01-04 02:03:55.13	226.74	18.99	-39.8	-42.0	21.7	6.03e-01	0	57	0	767557632	50	4861
2026-01-04 02:03:58.16	226.43	18.59	-39.7	-41.9	21.8	5.99e-01	0	56	0	773324800	50	4776
2026-01-04 02:04:01.19	226.12	18.21	-39.8	-42.0	21.7	5.99e-01	0	56	0	779091968	50	4857
2026-01-04 02:04:04.22	225.83	17.82	-39.8	-42.0	21.7	6.01e-01	0	57	0	784334848	50	4852
2026-01-04 02:04:07.25	225.54	17.45	-39.7	-41.9	21.7	6.01e-01	0	56	0	790102016	50	4813
2026-01-04 02:04:10.27	225.26	17.08	-39.8	-42.1	21.6	6.00e-01	0	57	0	795869184	50	4909
2026-01-04 02:04:13.30	224.99	16.71	-39.8	-42.0	21.6	6.00e-01	0	57	0	801636352	50	4869
2026-01-04 02:04:16.33	224.72	16.35	-39.8	-42.1	21.6	6.01e-01	0	57	0	807403520	50	4878
2026-01-04 02:04:19.36	224.46	16.00	-39.7	-42.0	21.6	6.02e-01	0	56	0	812646400	50	4825
2026-01-04 02:04:22.39	224.21	15.65	-39.7	-41.9	21.7	6.00e-01	0	57	0	818413568	50	4813
2026-01-04 02:04:25.42	223.96	15.30	-39.8	-42.1	21.5	6.02e-01	0	57	0	824180736	50	4886
2026-01-04 02:04:28.44	223.72	14.96	-39.8	-42.0	21.5	6.03e-01	0	57	0	829947904	50	4859
2026-01-04 02:04:31.47	223.49	14.63	-39.8	-42.0	21.5	6.00e-01	0	57	0	835715072	50	4864
2026-01-04 02:04:34.50	223.26	14.30	-39.9	-42.2	21.4	6.01e-01	0	57	0	841482240	50	4946
2026-01-04 02:04:37.53	223.04	13.97	-39.8	-42.1	21.4	6.02e-01	0	57	0	847249408	50	4912
2026-01-04 02:04:40.56	222.82	13.65	-39.9	-42.3	21.2	6.01e-01	0	56	0	852492288	50	5002
2026-01-04 02:04:43.59	222.61	13.33	-39.9	-42.2	21.3	6.01e-01	0	57	0	858259456	50	4960
2026-01-04 02:04:46.62	222.40	13.02	-39.8	-42.2	21.3	5.98e-01	0	57	0	864026624	50	4952
2026-01-04 02:04:49.65	222.19	12.71	-40.2	-42.6	20.9	5.99e-01	0	57	0	869793792	50	5209
2026-01-04 02:04:52.68	222.00	12.40	-40.0	-42.5	21.0	6.01e-01	0	56	0	875560960	51	4823
2026-01-04 02:04:55.71	221.80	12.10	-39.9	-42.3	21.1	6.02e-01	0	56	0	880803840	51	4737
2026-01-04 02:04:58.74	221.61	11.80	-40.0	-42.5	20.9	6.02e-01	0	57	0	886571008	51	4816
2026-01-04 02:05:01.76	221.43	11.51	-40.1	-42.6	20.8	6.02e-01	0	57	0	892338176	51	4880
2026-01-04 02:05:04.79	221.25	11.22	-40.1	-42.6	20.8	6.02e-01	0	57	0	898105344	51	4872
2026-01-04 02:05:07.82	221.07	10.93	-40.1	-42.6	20.7	6.01e-01	0	57	0	903872512	51	4910
2026-01-04 02:05:10.85	220.90	10.65	-40.2	-42.7	20.6	6.00e-01	0	57	0	909639680	51	4957
2026-01-04 02:05:13.88	220.73	10.37	-40.1	-42.6	20.7	6.01e-01	0	57	0	915406848	51	4886
2026-01-04 02:05:16.91	220.56	10.09	-40.0	-42.5	20.8	6.01e-01	0	57	0	920649728	51	4850
2026-01-04 02:05:19.94	220.40	9.82	-40.0	-42.6	20.7	6.01e-01	0	56	0	926416896	51	4871
2026-01-04 02:05:22.97	220.24	9.55	-40.2	-42.7	20.5	6.00e-01	0	57	0	932184064	51	4970
2026-01-04 02:05:25.99	220.09	9.28	-40.3	-43.0	20.2	6.02e-01	0	57	0	937951232	51	5131
2026-01-04 02:05:29.02	219.93	9.01	-40.4	-43.2	20.0	6.02e-01	0	56	0	943718400	51	5227
2026-01-04 02:05:32.05	219.78	8.75	-40.5	-43.4	19.8	5.99e-01	0	57	0	948961280	51	5344
2026-01-04 02:05:35.08	219.64	8.49	-40.6	-43.4	19.8	6.02e-01	0	56	0	954728448	51	5345
2026-01-04 02:05:38.11	219.49	8.24	-40.6	-43.4	19.6	6.02e-01	0	57	0	960495616	51	5390
2026-01-04 02:05:41.14	219.35	7.98	-45.1	-63.1	3.7	7.47e-01	0	57	104	965214208	60	30874
2026-01-04 02:05:44.16	219.21	7.73	-45.9	-64.7	3.8	7.46e-01	0	57	104	965214208	62	33259
2026-01-04 02:05:47.20	219.08	7.48	-46.1	-64.9	3.8	7.46e-01	0	57	104	965214208	62	34007
2026-01-04 02:05:50.23	218.95	7.24	-46.1	-65.0	3.8	7.44e-01	0	57	104	965214208	62	34122
2026-01-04 02:05:53.26	218.82	7.00	-46.0	-64.9	3.8	7.47e-01	0	57	104	965214208	62	33870
2026-01-04 02:05:56.29	218.69	6.76	-46.0	-64.9	3.8	7.47e-01	0	57	104	965214208	62	33937
2026-01-04 02:05:59.32	218.56	6.52	-46.0	-64.9	3.8	7.45e-01	0	57	104	965214208	62	33739
2026-01-04 02:06:02.35	218.44	6.28	-46.0	-64.9	3.8	7.47e-01	0	57	104	965214208	62	33748
2026-01-04 02:06:05.39	218.32	6.05	-46.0	-64.9	3.8	7.45e-01	0	57	104	965214208	62	33702
2026-01-04 02:06:08.42	218.20	5.81	-46.0	-64.9	3.8	7.47e-01	0	57	104	965214208	62	33718
2026-01-04 02:06:11.45	218.08	5.58	-46.0	-64.8	3.8	7.45e-01	0	57	104	965214208	62	33689
2026-01-04 02:06:14.47	217.97	5.36	-45.9	-64.9	3.8	7.47e-01	0	57	104	965214208	62	33715
2026-01-04 02:06:17.51	217.86	5.13	-46.0	-64.8	3.8	7.47e-01	0	57	104	965214208	62	33670
2026-01-04 02:06:20.54	217.75	4.91	-46.0	-64.8	3.8	7.48e-01	0	57	104	965214208	62	33599
2026-01-04 02:06:23.57	217.64	4.69	-46.0	-64.8	3.8	7.46e-01	0	57	104	965214208	62	33609
2026-01-04 02:06:26.61	217.53	4.47	-45.9	-64.8	3.8	7.44e-01	0	57	104	965214208	62	33597
2026-01-04 02:06:29.64	217.43	4.25	-45.9	-64.8	3.8	7.45e-01	0	57	104	965214208	62	33544
2026-01-04 02:06:32.67	217.33	4.03	-45.9	-64.8	3.8	7.45e-01	0	57	104	965214208	62	33663
2026-01-04 02:06:35.71	217.22	3.82	-45.9	-64.8	3.8	7.45e-01	0	57	104	965214208	62	33547
2026-01-04 02:06:38.74	217.12	3.61	-45.9	-64.8	3.8	7.44e-01	0	57	104	965214208	62	33618
2026-01-04 02:06:41.77	217.03	3.40	-45.9	-64.8	3.8	7.43e-01	0	57	104	965214208	62	33592
2026-01-04 02:06:44.80	216.93	3.19	-45.9	-64.8	3.8	7.44e-01	0	57	104	965214208	62	33513
2026-01-04 02:06:47.84	216.84	2.98	-45.9	-64.8	3.8	7.45e-01	0	57	104	965214208	62	33505
2026-01-04 02:06:50.87	216.74	2.78	-45.9	-64.8	3.8	7.46e-01	0	57	104	965214208	62	33502
2026-01-04 02:06:53.91	216.65	2.57	-45.9	-64.8	3.8	7.43e-01	0	57	104	965214208	62	33541
2026-01-04 02:06:56.94	216.56	2.37	-45.9	-64.8	3.8	7.45e-01	0	57	104	965214208	62	33496
2026-01-04 02:06:59.97	216.47	2.17	-45.9	-64.8	3.8	7.46e-01	0	57	104	965214208	62	33506
2026-01-04 02:07:03.00	216.39	1.97	-45.9	-64.8	3.8	7.45e-01	0	57	104	965214208	62	33391

#Closed at: 2026-01-04 02:07:04
#Recorded file [965 MB]: D:/lorett/data/31039_260104_045431.dat