passes_logs/2026/01/04/R2.0S_Moscow/R2.0S_Moscow__20260104_025819_FENGYUN_3G_rec.log

#Pass ID: 20260104_025819_FENGYUN 3G
#Satellite: FENGYUN 3G
#Configuration: FENGYUN 3G
#almurnet v.1.7.20251203
#Start time: 2026-01-04 02:58:18

#Version: 2.2.20231116
#Station: R2.0S_Moscow
#Location: 37.707566 lon 55.798166 lat
#TLE: 1 56232U 23055A   26003.53327032  .00047684  00000+0  75687-3 0  9993
#TLE: 2 56232  49.9936 115.0642 0004181 334.2418  25.8340 15.52822756154418

#Time	Az	El	Level	Level2	SNR	BER	BlckErr	Temp	State	Recorded	gain1	gain2
2026-01-04 02:58:18.53	237.13	1.97	-44.1	-62.5	3.8	8.47e-01	0	47	0	0	59	30604
2026-01-04 02:58:21.57	236.91	2.17	-44.1	-62.4	3.8	8.45e-01	0	48	104	0	59	30097
2026-01-04 02:58:24.60	236.70	2.36	-44.1	-62.3	3.8	8.45e-01	0	48	104	0	59	29784
2026-01-04 02:58:27.63	236.48	2.56	-44.1	-62.2	3.8	8.46e-01	0	48	104	0	59	29589
2026-01-04 02:58:30.67	236.25	2.76	-44.1	-62.2	3.8	8.47e-01	0	48	104	0	59	29592
2026-01-04 02:58:33.70	236.03	2.97	-44.1	-62.4	3.8	8.46e-01	0	48	104	0	59	30102
2026-01-04 02:58:36.74	235.79	3.17	-44.1	-62.5	3.8	8.45e-01	0	49	104	0	59	30395
2026-01-04 02:58:39.77	235.55	3.38	-44.1	-62.4	3.8	8.47e-01	0	49	104	0	59	30333
2026-01-04 02:58:42.80	235.31	3.59	-44.1	-62.5	3.8	8.46e-01	0	49	104	0	59	30396
2026-01-04 02:58:45.83	235.06	3.80	-44.1	-62.5	3.8	8.47e-01	0	49	104	0	59	30408
2026-01-04 02:58:48.87	234.81	4.01	-44.1	-62.4	3.8	8.46e-01	0	49	104	0	59	30350
2026-01-04 02:58:51.90	234.55	4.23	-44.1	-62.5	3.8	8.47e-01	0	50	104	0	59	30439
2026-01-04 02:58:54.93	234.28	4.45	-44.1	-62.4	3.8	8.46e-01	0	50	104	0	59	30261
2026-01-04 02:58:57.97	234.01	4.67	-44.1	-62.4	3.8	8.46e-01	0	50	104	0	59	30183
2026-01-04 02:59:01.00	233.73	4.89	-44.1	-62.3	3.8	8.46e-01	0	50	104	0	59	29894
2026-01-04 02:59:04.03	233.45	5.11	-44.1	-62.1	3.8	8.46e-01	0	51	104	0	59	29335
2026-01-04 02:59:07.07	233.16	5.34	-44.0	-61.3	3.8	8.46e-01	0	51	104	0	59	26582
2026-01-04 02:59:10.10	232.87	5.57	-44.0	-61.0	3.8	8.46e-01	0	51	104	0	59	25609
2026-01-04 02:59:13.13	232.56	5.80	-44.0	-61.1	3.8	8.47e-01	0	51	104	0	59	25994
2026-01-04 02:59:16.17	232.25	6.04	-44.0	-60.5	3.8	8.46e-01	0	51	104	0	59	24399
2026-01-04 02:59:19.20	231.94	6.27	-44.0	-59.1	4.1	8.45e-01	0	51	0	0	59	20584
2026-01-04 02:59:22.23	231.61	6.51	-43.8	-56.6	5.2	8.25e-01	0	51	0	0	59	15515
2026-01-04 02:59:25.26	231.28	6.75	-43.8	-55.8	5.7	6.42e-01	0	51	0	1048576	59	14123
2026-01-04 02:59:28.29	230.94	7.00	-43.9	-58.4	4.4	5.93e-01	0	52	0	2621440	59	19140
2026-01-04 02:59:31.33	230.59	7.25	-43.9	-57.6	4.6	8.45e-01	0	52	0	2621440	59	17314
2026-01-04 02:59:34.36	230.24	7.50	-42.1	-47.4	14.0	1.39e-03	0	52	0	5242880	56	6373
2026-01-04 02:59:37.39	229.87	7.75	-39.9	-43.0	18.4	0.00e+00	0	52	0	8912896	51	5109
2026-01-04 02:59:40.42	229.50	8.01	-39.4	-42.2	19.2	0.00e+00	0	52	0	12058624	50	4976
2026-01-04 02:59:43.45	229.11	8.27	-38.9	-41.5	20.0	0.00e+00	0	52	0	15728640	49	4843
2026-01-04 02:59:46.48	228.72	8.53	-40.9	-44.7	16.2	0.00e+00	0	52	0	18874368	53	5592
2026-01-04 02:59:49.50	228.32	8.80	-38.8	-41.3	20.2	0.00e+00	0	52	0	22544384	49	4728
2026-01-04 02:59:52.53	227.91	9.06	-38.6	-41.1	20.4	0.00e+00	0	53	0	25690112	49	4632
2026-01-04 02:59:55.56	227.48	9.34	-38.2	-40.5	21.1	0.00e+00	0	53	0	29360128	48	4555
2026-01-04 02:59:58.59	227.05	9.61	-38.2	-40.4	21.2	0.00e+00	0	53	0	32505856	48	4533
2026-01-04 03:00:01.62	226.60	9.89	-38.4	-40.7	20.9	0.00e+00	0	53	0	36175872	48	4684
2026-01-04 03:00:04.65	226.15	10.17	-38.4	-40.8	20.9	0.00e+00	0	53	0	39321600	48	4706
2026-01-04 03:00:07.67	225.68	10.46	-37.7	-39.8	21.8	0.00e+00	0	53	0	42991616	47	4465
2026-01-04 03:00:10.70	225.19	10.75	-37.6	-39.7	21.9	0.00e+00	0	53	0	46137344	46	4693
2026-01-04 03:00:13.73	224.70	11.04	-37.8	-39.9	21.7	0.00e+00	0	53	0	49807360	46	4804
2026-01-04 03:00:16.76	224.19	11.34	-37.6	-39.7	22.0	0.00e+00	0	53	0	52953088	46	4668
2026-01-04 03:00:19.79	223.67	11.64	-37.4	-39.5	22.2	0.00e+00	0	53	0	56623104	46	4563
2026-01-04 03:00:22.82	223.13	11.94	-37.6	-39.7	22.0	0.00e+00	0	53	0	59768832	46	4667
2026-01-04 03:00:25.84	222.58	12.25	-37.8	-39.9	21.9	0.00e+00	0	53	0	63438848	46	4769
2026-01-04 03:00:28.87	222.01	12.56	-37.6	-39.6	22.1	0.00e+00	0	53	0	66584576	46	4648
2026-01-04 03:00:31.90	221.43	12.87	-37.2	-39.2	22.6	0.00e+00	0	54	0	70254592	46	4403
2026-01-04 03:00:34.93	220.83	13.19	-37.1	-39.0	22.8	0.00e+00	0	53	0	73400320	46	4320
2026-01-04 03:00:37.96	220.21	13.51	-37.1	-39.0	22.8	0.00e+00	0	54	0	77070336	46	4327
2026-01-04 03:00:40.99	219.58	13.84	-37.0	-39.0	22.8	0.00e+00	0	54	0	80216064	45	4548
2026-01-04 03:00:44.02	218.92	14.16	-37.4	-39.4	22.4	0.00e+00	0	54	0	83886080	45	4774
2026-01-04 03:00:47.05	218.25	14.50	-36.9	-38.8	22.9	0.00e+00	0	54	0	87031808	45	4490
2026-01-04 03:00:50.07	217.56	14.83	-36.7	-38.5	23.3	0.00e+00	0	54	0	90701824	45	4316
2026-01-04 03:00:53.10	216.85	15.17	-36.5	-38.3	23.5	0.00e+00	0	54	0	93847552	45	4223
2026-01-04 03:00:56.13	216.11	15.51	-35.5	-37.1	24.5	0.00e+00	0	54	0	97517568	42	4377
2026-01-04 03:00:59.16	215.36	15.85	-36.2	-38.0	23.6	0.00e+00	0	54	0	100663296	43	4577
2026-01-04 03:01:02.19	214.58	16.20	-35.9	-37.6	24.1	0.00e+00	0	54	0	104333312	43	4343
2026-01-04 03:01:05.22	213.78	16.55	-35.7	-37.4	24.3	0.00e+00	0	54	0	107479040	43	4262
2026-01-04 03:01:08.25	212.96	16.90	-35.7	-37.4	24.3	0.00e+00	0	54	0	111149056	43	4249
2026-01-04 03:01:11.28	212.11	17.26	-35.5	-37.2	24.5	0.00e+00	0	54	0	114294784	42	4412
2026-01-04 03:01:14.31	211.24	17.61	-35.2	-36.7	24.9	0.00e+00	0	54	0	117964800	42	4190
2026-01-04 03:01:17.33	210.34	17.97	-35.1	-36.7	25.0	0.00e+00	0	54	0	121110528	41	4404
2026-01-04 03:01:20.36	209.41	18.32	-35.4	-37.0	24.7	0.00e+00	0	54	0	124780544	41	4575
2026-01-04 03:01:23.39	208.46	18.68	-35.7	-37.3	24.4	0.00e+00	0	54	0	127926272	41	4739
2026-01-04 03:01:26.42	207.48	19.04	-35.5	-37.1	24.6	0.00e+00	0	54	0	131596288	41	4648
2026-01-04 03:01:29.45	206.47	19.40	-34.7	-36.3	25.4	0.00e+00	0	55	0	134742016	41	4206
2026-01-04 03:01:32.48	205.43	19.76	-35.2	-36.8	25.0	0.00e+00	0	55	0	138412032	41	4459
2026-01-04 03:01:35.51	204.36	20.11	-35.0	-36.5	25.2	0.00e+00	0	55	0	141557760	41	4318
2026-01-04 03:01:38.53	203.27	20.46	-34.6	-36.1	25.5	0.00e+00	0	55	0	145227776	41	4144
2026-01-04 03:01:41.57	202.14	20.82	-34.5	-36.0	25.7	0.00e+00	0	55	0	148373504	40	4312
2026-01-04 03:01:44.59	200.98	21.16	-34.8	-36.3	25.4	0.00e+00	0	55	0	152043520	40	4480
2026-01-04 03:01:47.62	199.79	21.50	-34.8	-36.3	25.4	0.00e+00	0	55	0	155189248	40	4478
2026-01-04 03:01:50.65	198.57	21.84	-34.6	-36.1	25.7	0.00e+00	0	55	0	158859264	40	4363
2026-01-04 03:01:53.68	197.32	22.17	-34.1	-35.6	26.1	0.00e+00	0	55	0	162004992	40	4124
2026-01-04 03:01:56.70	196.03	22.49	-34.1	-35.6	26.2	0.00e+00	0	55	0	165675008	39	4352
2026-01-04 03:01:59.73	194.72	22.81	-34.4	-35.9	25.7	0.00e+00	0	55	0	168820736	39	4542
2026-01-04 03:02:02.76	193.37	23.11	-34.4	-35.9	25.9	0.00e+00	0	55	0	172490752	39	4520
2026-01-04 03:02:05.79	191.99	23.41	-34.3	-35.8	26.0	0.00e+00	0	55	0	175636480	39	4460
2026-01-04 03:02:08.82	190.58	23.69	-33.9	-35.3	26.4	0.00e+00	0	55	0	179306496	39	4231
2026-01-04 03:02:11.85	189.15	23.96	-33.6	-35.1	26.6	0.00e+00	0	55	0	182452224	39	4102
2026-01-04 03:02:14.88	187.68	24.22	-33.9	-35.4	26.3	0.00e+00	0	55	0	186122240	38	4505
2026-01-04 03:02:17.91	186.19	24.46	-34.2	-35.7	26.0	0.00e+00	0	55	0	189267968	38	4670
2026-01-04 03:02:20.94	184.67	24.68	-33.9	-35.4	26.4	0.00e+00	0	55	0	192937984	38	4501
2026-01-04 03:02:23.96	183.13	24.89	-33.8	-35.2	26.4	0.00e+00	0	55	0	196083712	38	4432
2026-01-04 03:02:26.99	181.57	25.08	-33.4	-34.7	26.9	0.00e+00	0	55	0	199753728	38	4191
2026-01-04 03:02:30.02	179.98	25.25	-33.7	-35.2	26.6	0.00e+00	0	55	0	202899456	38	4392
2026-01-04 03:02:33.05	178.37	25.40	-33.3	-34.6	27.1	0.00e+00	0	55	0	206569472	38	4134
2026-01-04 03:02:36.07	176.76	25.53	-33.5	-34.9	26.9	0.00e+00	0	55	0	209715200	38	4247
2026-01-04 03:02:39.10	175.12	25.64	-33.5	-34.9	26.8	0.00e+00	0	55	0	213385216	38	4279
2026-01-04 03:02:42.14	173.47	25.73	-34.2	-35.7	26.2	0.00e+00	0	55	0	216530944	38	4659
2026-01-04 03:02:45.17	171.81	25.79	-34.0	-35.5	26.4	0.00e+00	0	55	0	220200960	39	4301
2026-01-04 03:02:48.19	170.16	25.83	-34.3	-35.8	26.2	0.00e+00	0	55	0	223346688	39	4449
2026-01-04 03:02:51.23	168.49	25.85	-34.1	-35.6	26.4	0.00e+00	0	55	0	227016704	39	4343
2026-01-04 03:02:54.25	166.83	25.84	-34.0	-35.5	26.5	0.00e+00	0	55	0	230162432	39	4298
2026-01-04 03:02:57.29	165.16	25.81	-34.1	-35.6	26.3	0.00e+00	0	55	0	233832448	39	4361
2026-01-04 03:03:00.32	163.50	25.76	-34.3	-35.8	26.1	0.00e+00	0	55	0	236978176	39	4461
2026-01-04 03:03:03.35	161.85	25.68	-34.4	-35.9	26.1	0.00e+00	0	55	0	240648192	39	4530
2026-01-04 03:03:06.37	160.21	25.59	-34.1	-35.5	26.4	0.00e+00	0	55	0	243793920	39	4333
2026-01-04 03:03:09.41	158.58	25.47	-33.9	-35.3	26.6	0.00e+00	0	55	0	247463936	39	4222
2026-01-04 03:03:12.43	156.97	25.32	-34.0	-35.4	26.4	0.00e+00	0	55	0	250609664	39	4279
2026-01-04 03:03:15.46	155.38	25.16	-34.3	-35.8	26.0	0.00e+00	0	55	0	254279680	39	4472
2026-01-04 03:03:18.49	153.81	24.98	-33.7	-35.1	26.7	0.00e+00	0	55	0	257425408	39	4115
2026-01-04 03:03:21.52	152.26	24.78	-33.7	-35.2	26.6	0.00e+00	0	56	0	261095424	39	4151
2026-01-04 03:03:24.55	150.73	24.56	-33.9	-35.4	26.4	0.00e+00	0	56	0	264241152	39	4255
2026-01-04 03:03:27.57	149.23	24.33	-34.2	-35.7	26.0	0.00e+00	0	55	0	267911168	39	4426
2026-01-04 03:03:30.60	147.75	24.08	-33.7	-35.1	26.6	0.00e+00	0	56	0	271056896	39	4133
2026-01-04 03:03:33.63	146.31	23.82	-33.6	-35.0	26.6	0.00e+00	0	56	0	274726912	39	4093
2026-01-04 03:03:36.66	144.89	23.54	-33.9	-35.4	26.3	0.00e+00	0	56	0	277872640	39	4268
2026-01-04 03:03:39.69	143.50	23.25	-34.0	-35.4	26.2	0.00e+00	0	56	0	281542656	39	4285
2026-01-04 03:03:42.72	142.14	22.95	-34.1	-35.6	26.1	0.00e+00	0	56	0	284688384	39	4344
2026-01-04 03:03:45.75	140.81	22.64	-34.3	-35.8	25.9	0.00e+00	0	56	0	288358400	39	4483
2026-01-04 03:03:48.78	139.52	22.33	-34.1	-35.6	26.0	0.00e+00	0	56	0	291504128	39	4367
2026-01-04 03:03:51.81	138.25	22.00	-34.5	-36.0	25.6	0.00e+00	0	56	0	295174144	39	4566
2026-01-04 03:03:54.84	137.02	21.67	-34.4	-35.9	25.7	0.00e+00	0	56	0	298319872	39	4521
2026-01-04 03:03:57.87	135.81	21.33	-34.7	-36.2	25.4	0.00e+00	0	56	0	301989888	39	4683
2026-01-04 03:04:00.90	134.64	20.99	-34.4	-35.9	25.7	0.00e+00	0	56	0	305135616	39	4523
2026-01-04 03:04:03.93	133.50	20.64	-34.8	-36.4	25.2	0.00e+00	0	56	0	308805632	40	4516
2026-01-04 03:04:06.95	132.40	20.29	-34.9	-36.5	25.0	0.00e+00	0	56	0	311951360	40	4587
2026-01-04 03:04:09.98	131.32	19.93	-35.3	-37.0	24.5	0.00e+00	0	56	0	315621376	41	4560
2026-01-04 03:04:13.01	130.27	19.58	-34.7	-36.2	25.3	0.00e+00	0	56	0	318767104	41	4179
2026-01-04 03:04:16.04	129.25	19.22	-35.0	-36.6	24.9	0.00e+00	0	56	0	322437120	41	4358
2026-01-04 03:04:19.06	128.26	18.87	-35.0	-36.6	24.9	0.00e+00	0	56	0	325582848	41	4354
2026-01-04 03:04:22.09	127.30	18.51	-35.4	-37.0	24.5	0.00e+00	0	56	0	329252864	41	4594
2026-01-04 03:04:25.12	126.37	18.15	-35.1	-36.7	24.7	0.00e+00	0	56	0	332398592	41	4439
2026-01-04 03:04:28.15	125.46	17.80	-35.8	-37.5	23.9	0.00e+00	0	56	0	336068608	42	4556
2026-01-04 03:04:31.18	124.58	17.44	-35.8	-37.5	23.9	0.00e+00	0	56	0	339214336	42	4565
2026-01-04 03:04:34.21	123.72	17.09	-35.4	-37.0	24.4	0.00e+00	0	56	0	342884352	42	4326
2026-01-04 03:04:37.23	122.89	16.74	-35.5	-37.2	24.2	0.00e+00	0	56	0	346030080	42	4416
2026-01-04 03:04:40.26	122.08	16.39	-35.8	-37.5	24.0	0.00e+00	0	56	0	349700096	42	4567
2026-01-04 03:04:43.29	121.29	16.04	-36.3	-38.2	23.3	0.00e+00	0	56	0	352845824	43	4656
2026-01-04 03:04:46.32	120.53	15.70	-36.3	-38.4	23.1	0.00e+00	0	56	0	356515840	43	4765
2026-01-04 03:04:49.35	119.79	15.36	-36.0	-37.8	23.5	0.00e+00	0	56	0	359661568	42	4753
2026-01-04 03:04:52.37	119.07	15.02	-36.0	-37.9	23.5	0.00e+00	0	56	0	363331584	42	4771
2026-01-04 03:04:55.40	118.37	14.68	-36.5	-38.4	23.0	0.00e+00	0	56	0	366477312	43	4780
2026-01-04 03:04:58.43	117.69	14.35	-36.5	-38.8	22.7	0.00e+00	0	56	0	370147328	44	4720
2026-01-04 03:05:01.46	117.03	14.02	-36.6	-38.6	22.7	0.00e+00	0	56	0	373293056	43	4889
2026-01-04 03:05:04.49	116.39	13.70	-35.3	-39.0	22.1	0.00e+00	0	56	0	376963072	43	5104
2026-01-04 03:05:07.51	115.77	13.38	-35.6	-39.6	21.8	0.00e+00	0	56	0	380108800	44	5195
2026-01-04 03:05:10.54	115.17	13.06	-36.7	-40.1	21.3	9.10e-06	0	56	0	383778816	45	5211
2026-01-04 03:05:13.57	114.58	12.74	-37.4	-39.8	21.6	1.10e-06	0	56	0	386924544	45	5025
2026-01-04 03:05:16.60	114.00	12.43	-37.4	-39.9	21.3	0.00e+00	0	56	0	390594560	45	5097
2026-01-04 03:05:19.63	113.44	12.12	-37.7	-40.1	21.2	0.00e+00	0	56	0	393740288	46	4894
2026-01-04 03:05:22.66	112.90	11.82	-38.0	-40.5	20.7	0.00e+00	0	56	0	397410304	46	5123
2026-01-04 03:05:25.69	112.37	11.52	-37.5	-40.0	21.1	0.00e+00	0	56	0	400556032	45	5144
2026-01-04 03:05:28.71	111.86	11.22	-36.9	-40.0	20.8	0.00e+00	0	56	0	404226048	45	5122
2026-01-04 03:05:31.74	111.36	10.93	-33.8	-39.8	19.5	1.10e-06	0	56	0	407371776	39	7057
2026-01-04 03:05:34.77	110.88	10.64	-38.2	-41.8	18.8	0.00e+00	0	56	0	411041792	47	5603
2026-01-04 03:05:37.80	110.40	10.35	-38.0	-41.8	18.9	4.50e-06	0	56	0	414187520	46	5950
2026-01-04 03:05:40.83	109.94	10.07	-37.8	-41.3	19.4	1.60e-05	0	56	0	417857536	46	5606
2026-01-04 03:05:43.86	109.49	9.79	-32.7	-40.6	14.7	6.80e-06	0	56	0	421003264	40	7328
2026-01-04 03:05:46.89	109.05	9.51	-37.3	-40.7	19.5	2.05e-05	0	56	0	424673280	45	5564
2026-01-04 03:05:49.92	108.62	9.24	-32.1	-40.5	18.8	1.94e-05	0	56	0	427819008	41	6840
2026-01-04 03:05:52.95	108.21	8.97	-36.0	-41.6	18.3	5.60e-05	0	57	0	431489024	44	6504
2026-01-04 03:05:55.97	107.80	8.71	-37.9	-42.2	17.2	1.80e-04	0	56	0	434634752	45	6635
2026-01-04 03:05:59.00	107.41	8.44	-38.0	-42.7	17.1	2.47e-04	0	56	0	438304768	46	6582
2026-01-04 03:06:02.03	107.02	8.18	-38.2	-42.5	16.6	5.73e-03	0	56	0	441450496	46	6490
2026-01-04 03:06:05.06	106.64	7.93	-42.2	-58.4	4.1	1.77e-04	0	56	104	444596224	54	25309
2026-01-04 03:06:08.09	106.28	7.67	-45.0	-63.2	3.8	8.46e-01	0	57	104	444596224	60	31396
2026-01-04 03:06:11.12	105.92	7.42	-45.4	-63.7	3.8	8.46e-01	0	56	104	444596224	61	31226
2026-01-04 03:06:14.15	105.57	7.17	-45.6	-63.8	3.8	8.47e-01	0	56	104	444596224	61	31788
2026-01-04 03:06:17.17	105.23	6.93	-45.3	-63.7	3.8	8.45e-01	0	56	104	444596224	61	31217
2026-01-04 03:06:20.21	104.89	6.68	-45.2	-63.6	3.8	8.46e-01	0	56	104	444596224	61	30964
2026-01-04 03:06:23.24	104.56	6.44	-45.1	-63.6	3.8	8.46e-01	0	56	104	444596224	61	30797
2026-01-04 03:06:26.27	104.25	6.21	-45.1	-63.5	3.8	8.45e-01	0	56	104	444596224	61	30624
2026-01-04 03:06:29.30	103.93	5.97	-45.1	-63.5	3.8	8.46e-01	0	56	104	444596224	61	30694
2026-01-04 03:06:32.34	103.63	5.74	-45.1	-63.5	3.8	8.46e-01	0	57	104	444596224	61	30584
2026-01-04 03:06:35.37	103.33	5.51	-45.1	-63.5	3.8	8.46e-01	0	56	104	444596224	61	30491
2026-01-04 03:06:38.40	103.04	5.28	-45.1	-63.5	3.8	8.47e-01	0	56	104	444596224	61	30559
2026-01-04 03:06:41.44	102.75	5.06	-45.1	-63.5	3.8	8.46e-01	0	57	104	444596224	61	30661
2026-01-04 03:06:44.47	102.48	4.83	-45.1	-63.5	3.8	8.47e-01	0	57	104	444596224	61	30559
2026-01-04 03:06:47.50	102.20	4.61	-45.1	-63.5	3.8	8.45e-01	0	57	104	444596224	61	30610
2026-01-04 03:06:50.54	101.94	4.39	-45.1	-63.5	3.8	8.45e-01	0	57	104	444596224	61	30553
2026-01-04 03:06:53.57	101.68	4.18	-45.1	-63.5	3.8	8.45e-01	0	57	104	444596224	61	30588
2026-01-04 03:06:56.60	101.42	3.97	-45.1	-63.5	3.8	8.46e-01	0	57	104	444596224	61	30544
2026-01-04 03:06:59.63	101.17	3.75	-45.1	-63.5	3.8	8.47e-01	0	57	104	444596224	61	30583
2026-01-04 03:07:02.67	100.93	3.54	-45.1	-63.5	3.8	8.47e-01	0	57	104	444596224	61	30592
2026-01-04 03:07:05.70	100.69	3.34	-45.1	-63.5	3.8	8.46e-01	0	57	104	444596224	61	30524
2026-01-04 03:07:08.73	100.45	3.13	-45.1	-63.5	3.8	8.46e-01	0	57	104	444596224	61	30503
2026-01-04 03:07:11.77	100.22	2.93	-45.1	-63.5	3.8	8.46e-01	0	56	104	444596224	61	30507
2026-01-04 03:07:14.80	99.99	2.72	-45.1	-63.5	3.8	8.46e-01	0	57	104	444596224	61	30573
2026-01-04 03:07:17.83	99.77	2.52	-45.1	-63.5	3.8	8.46e-01	0	57	104	444596224	61	30438
2026-01-04 03:07:20.87	99.56	2.33	-45.0	-63.5	3.8	8.45e-01	0	57	104	444596224	61	30492
2026-01-04 03:07:23.90	99.34	2.13	-45.0	-63.5	3.8	8.46e-01	0	57	104	444596224	61	30546

#Closed at: 2026-01-04 03:07:26
#Recorded file [444 MB]: D:/lorett/data/31039_260104_055818.dat