passes_logs/2026/01/04/R2.0S_Moscow/R2.0S_Moscow__20260104_000109_NOAA_20_JPSS-1_rec.log

#Pass ID: 20260104_000109_NOAA 20 (JPSS-1)
#Satellite: NOAA 20 (JPSS-1)
#Configuration: NOAA 20
#almurnet v.1.7.20251203
#Start time: 2026-01-04 00:01:11

#Version: 2.2.20231116
#Station: R2.0S_Moscow
#Location: 37.707566 lon 55.798166 lat
#TLE: 1 43013U 17073A   26003.41800368  .00000169  00000+0  10117-3 0  9998
#TLE: 2 43013  98.7624 304.4804 0001884  56.1176 304.0179 14.19532918421092

#Time	Az	El	Level	Level2	SNR	BER	BlckErr	Temp	State	Recorded	gain1	gain2
2026-01-04 00:01:11.07	14.67	2.10	-43.3	-57.9	3.8	1.49e+00	0	49	0	0	58	19008
2026-01-04 00:01:15.11	14.62	2.36	-43.3	-57.9	3.8	1.49e+00	0	49	104	0	58	19006
2026-01-04 00:01:19.16	14.57	2.62	-43.3	-57.9	3.8	1.49e+00	0	50	104	0	58	18994
2026-01-04 00:01:23.20	14.53	2.88	-43.3	-57.9	3.8	1.49e+00	0	50	104	0	58	18986
2026-01-04 00:01:27.25	14.47	3.15	-43.3	-57.9	3.8	1.49e+00	0	50	104	0	58	18980
2026-01-04 00:01:31.29	14.42	3.42	-43.3	-57.8	3.8	1.49e+00	0	50	104	0	58	18929
2026-01-04 00:01:35.34	14.37	3.69	-43.3	-57.8	3.8	1.49e+00	0	51	104	0	58	18847
2026-01-04 00:01:39.38	14.32	3.97	-43.2	-57.8	3.8	1.49e+00	0	51	104	0	58	18902
2026-01-04 00:01:43.42	14.26	4.24	-43.3	-57.8	3.8	1.49e+00	0	51	104	0	58	18788
2026-01-04 00:01:47.47	14.20	4.52	-43.2	-57.7	3.8	1.49e+00	0	51	104	0	58	18644
2026-01-04 00:01:51.51	14.14	4.81	-43.2	-57.4	3.8	1.49e+00	0	51	104	0	58	18076
2026-01-04 00:01:55.55	14.08	5.09	-43.2	-57.1	3.8	1.49e+00	0	52	104	0	58	17396
2026-01-04 00:01:59.60	14.02	5.38	-43.2	-56.6	3.8	1.49e+00	0	52	104	0	58	16498
2026-01-04 00:02:03.64	13.96	5.67	-43.2	-56.4	3.8	1.49e+00	0	52	104	0	58	16021
2026-01-04 00:02:07.68	13.89	5.97	-43.2	-57.1	3.8	1.49e+00	0	52	104	0	58	17321
2026-01-04 00:02:11.72	13.83	6.26	-43.2	-57.4	3.8	1.49e+00	0	52	104	0	58	17914
2026-01-04 00:02:15.76	13.76	6.57	-43.0	-54.7	4.1	1.47e+00	0	53	0	0	58	13153
2026-01-04 00:02:19.81	13.69	6.87	-42.4	-49.9	6.7	2.94e-01	0	53	0	6291456	56	8535
2026-01-04 00:02:23.85	13.62	7.18	-41.4	-46.6	9.8	1.30e-02	0	53	0	13631488	54	6505
2026-01-04 00:02:27.89	13.54	7.49	-40.7	-45.0	11.5	1.11e-03	0	53	0	20971520	53	5723
2026-01-04 00:02:31.93	13.47	7.81	-40.8	-45.1	11.3	1.03e-03	0	53	0	28311552	53	5816
2026-01-04 00:02:35.98	13.39	8.13	-41.3	-46.2	10.5	2.02e-03	0	53	0	36700160	53	6597
2026-01-04 00:02:40.02	13.31	8.45	-42.7	-55.3	3.8	4.13e-01	0	53	104	42991616	55	16831
2026-01-04 00:02:44.06	13.23	8.78	-40.6	-44.5	12.1	2.56e-04	0	53	0	49283072	53	5460
2026-01-04 00:02:48.10	13.14	9.11	-40.6	-44.5	12.2	1.87e-04	0	54	0	56623104	53	5407
2026-01-04 00:02:52.14	13.06	9.45	-40.5	-44.3	12.4	1.35e-04	0	54	0	63963136	53	5295
2026-01-04 00:02:56.18	12.97	9.79	-40.4	-44.1	12.6	1.07e-04	0	53	0	71303168	52	5517
2026-01-04 00:03:00.22	12.88	10.14	-40.3	-43.8	13.0	4.50e-05	0	54	0	79691776	52	5300
2026-01-04 00:03:04.25	12.78	10.49	-40.2	-43.7	13.1	3.43e-05	0	54	0	87031808	52	5246
2026-01-04 00:03:08.30	12.68	10.85	-40.3	-43.8	13.0	3.28e-05	0	54	0	94371840	52	5320
2026-01-04 00:03:12.33	12.59	11.21	-40.3	-43.7	13.2	2.59e-05	0	54	0	101711872	52	5270
2026-01-04 00:03:16.38	12.48	11.58	-40.2	-43.6	13.3	1.83e-05	0	54	0	110100480	52	5184
2026-01-04 00:03:20.41	12.38	11.95	-40.1	-43.3	13.6	1.22e-05	0	54	0	117440512	52	5029
2026-01-04 00:03:24.45	12.27	12.32	-40.0	-43.2	13.9	5.30e-06	0	55	0	124780544	52	4953
2026-01-04 00:03:28.49	12.16	12.71	-40.1	-43.1	14.2	2.20e-06	0	54	0	132120576	51	5200
2026-01-04 00:03:32.53	12.04	13.10	-40.0	-42.9	14.5	0.00e+00	0	54	0	139460608	51	5079
2026-01-04 00:03:36.57	11.92	13.49	-39.9	-42.8	14.7	7.00e-07	0	55	0	147849216	51	4986
2026-01-04 00:03:40.60	11.80	13.89	-39.7	-42.4	15.1	0.00e+00	0	55	0	155189248	51	4772
2026-01-04 00:03:44.64	11.67	14.30	-39.7	-42.3	15.2	0.00e+00	0	55	0	162529280	51	4747
2026-01-04 00:03:48.68	11.54	14.72	-39.6	-42.1	15.4	0.00e+00	0	55	0	169869312	51	4647
2026-01-04 00:03:52.72	11.41	15.14	-39.5	-42.0	15.6	0.00e+00	0	55	0	178257920	51	4579
2026-01-04 00:03:56.76	11.27	15.57	-39.5	-41.9	15.8	0.00e+00	0	55	0	185597952	50	4801
2026-01-04 00:04:00.80	11.12	16.01	-39.3	-41.7	16.1	0.00e+00	0	55	0	192937984	50	4674
2026-01-04 00:04:04.84	10.97	16.45	-39.3	-41.6	16.1	0.00e+00	0	55	0	200278016	50	4649
2026-01-04 00:04:08.88	10.82	16.91	-39.2	-41.5	16.3	0.00e+00	0	55	0	207618048	50	4571
2026-01-04 00:04:12.92	10.66	17.37	-39.2	-41.4	16.4	0.00e+00	0	55	0	216006656	50	4526
2026-01-04 00:04:16.96	10.50	17.84	-39.0	-41.2	16.7	0.00e+00	0	55	0	223346688	50	4419
2026-01-04 00:04:21.00	10.33	18.32	-39.0	-41.2	16.7	0.00e+00	0	55	0	230686720	50	4398
2026-01-04 00:04:25.04	10.15	18.81	-39.0	-41.1	16.8	0.00e+00	0	55	0	238026752	49	4644
2026-01-04 00:04:29.08	9.97	19.31	-38.9	-41.0	16.9	0.00e+00	0	55	0	246415360	49	4577
2026-01-04 00:04:33.11	9.78	19.81	-38.8	-40.9	17.0	0.00e+00	0	55	0	253755392	49	4545
2026-01-04 00:04:37.15	9.59	20.33	-38.7	-40.7	17.2	0.00e+00	0	56	0	261095424	49	4436
2026-01-04 00:04:41.19	9.38	20.86	-38.7	-40.7	17.3	0.00e+00	0	56	0	268435456	49	4400
2026-01-04 00:04:45.22	9.17	21.40	-38.6	-40.6	17.4	0.00e+00	0	56	0	275775488	49	4345
2026-01-04 00:04:49.26	8.95	21.95	-38.6	-40.5	17.5	0.00e+00	0	56	0	284164096	49	4335
2026-01-04 00:04:53.30	8.73	22.51	-38.6	-40.6	17.4	0.00e+00	0	56	0	291504128	49	4361
2026-01-04 00:04:57.33	8.49	23.08	-38.6	-40.5	17.5	0.00e+00	0	56	0	298844160	49	4336
2026-01-04 00:05:01.37	8.24	23.67	-38.7	-40.7	17.3	0.00e+00	0	56	0	306184192	49	4433
2026-01-04 00:05:05.41	7.99	24.27	-38.9	-41.0	17.1	0.00e+00	0	56	0	314572800	49	4553
2026-01-04 00:05:09.45	7.72	24.89	-39.1	-41.3	16.7	0.00e+00	0	56	0	321912832	49	4737
2026-01-04 00:05:13.49	7.44	25.51	-39.4	-41.7	16.4	0.00e+00	0	56	0	329252864	49	4938
2026-01-04 00:05:17.53	7.15	26.16	-39.6	-41.9	16.1	0.00e+00	0	56	0	336592896	49	5094
2026-01-04 00:05:21.57	6.85	26.81	-39.8	-42.2	15.8	0.00e+00	0	56	0	343932928	50	4972
2026-01-04 00:05:25.60	6.54	27.48	-40.1	-42.7	15.4	0.00e+00	0	56	0	352321536	50	5226
2026-01-04 00:05:29.64	6.21	28.17	-40.4	-43.2	14.9	0.00e+00	0	56	0	359661568	51	5249
2026-01-04 00:05:33.68	5.86	28.88	-40.8	-43.8	14.2	7.00e-07	0	56	0	367001600	52	5320
2026-01-04 00:05:37.72	5.50	29.60	-41.1	-44.4	13.6	7.60e-06	0	56	0	374341632	52	5666
2026-01-04 00:05:41.76	5.12	30.34	-41.3	-44.6	13.4	1.44e-05	0	56	0	382730240	53	5491
2026-01-04 00:05:45.80	4.72	31.09	-41.4	-44.9	13.1	1.83e-05	0	56	0	390070272	53	5660
2026-01-04 00:05:49.84	4.30	31.87	-41.9	-45.8	12.2	1.40e-04	0	56	0	397410304	54	5990
2026-01-04 00:05:53.87	3.86	32.66	-42.2	-46.4	11.6	6.55e-04	0	56	0	404750336	54	6409
2026-01-04 00:05:57.92	3.40	33.48	-42.2	-46.5	11.5	8.00e-04	0	56	0	412090368	55	6082
2026-01-04 00:06:01.95	2.91	34.31	-42.2	-46.4	11.6	7.29e-04	0	56	0	420478976	55	5998
2026-01-04 00:06:05.99	2.40	35.16	-42.0	-46.0	12.1	3.71e-04	0	56	0	427819008	55	5725
2026-01-04 00:06:10.02	1.85	36.04	-42.1	-46.1	12.0	2.94e-04	0	56	0	435159040	55	5808
2026-01-04 00:06:14.06	1.28	36.93	-42.3	-46.5	11.5	7.31e-04	0	56	0	442499072	55	6126
2026-01-04 00:06:18.09	0.67	37.85	-42.4	-46.9	11.1	1.92e-03	0	57	0	450887680	55	6401
2026-01-04 00:06:22.13	0.03	38.79	-42.4	-46.7	11.3	1.19e-03	0	57	0	458227712	55	6268
2026-01-04 00:06:26.17	359.35	39.75	-42.2	-46.3	11.7	6.42e-04	0	57	0	465567744	55	5945
2026-01-04 00:06:30.20	358.62	40.73	-41.9	-45.7	12.5	1.77e-04	0	56	0	472907776	55	5546
2026-01-04 00:06:34.24	357.85	41.74	-41.5	-45.0	13.1	3.43e-05	0	57	0	480247808	55	5124
2026-01-04 00:06:38.28	357.02	42.77	-41.3	-44.6	13.6	1.14e-05	0	57	0	488636416	54	5198
2026-01-04 00:06:42.32	356.14	43.81	-40.7	-43.5	14.7	7.00e-07	0	57	0	495976448	53	4823
2026-01-04 00:06:46.36	355.20	44.88	-40.5	-43.2	15.0	0.00e+00	0	57	0	503316480	52	4956
2026-01-04 00:06:50.39	354.19	45.97	-40.3	-42.9	15.3	0.00e+00	0	57	0	510656512	52	4800
2026-01-04 00:06:54.43	353.11	47.08	-40.2	-42.8	15.4	0.00e+00	0	57	0	519045120	52	4748
2026-01-04 00:06:58.47	351.94	48.21	-40.3	-42.9	15.4	0.00e+00	0	57	0	526385152	52	4761
2026-01-04 00:07:02.50	350.69	49.35	-40.3	-42.9	15.4	0.00e+00	0	57	0	533725184	52	4767
2026-01-04 00:07:06.54	349.34	50.51	-39.6	-41.9	16.4	0.00e+00	0	57	0	541065216	51	4506
2026-01-04 00:07:10.58	347.88	51.67	-39.5	-41.7	16.7	0.00e+00	0	57	0	548405248	50	4678
2026-01-04 00:07:14.62	346.29	52.85	-38.9	-40.9	17.5	0.00e+00	0	56	0	556793856	49	4524
2026-01-04 00:07:18.66	344.57	54.03	-39.5	-41.6	16.7	0.00e+00	0	56	0	564133888	49	4926
2026-01-04 00:07:22.70	342.71	55.20	-40.5	-43.2	15.1	0.00e+00	0	56	0	571473920	51	5241
2026-01-04 00:07:26.74	340.68	56.37	-41.7	-45.3	12.9	3.20e-05	0	57	0	578813952	53	5963
2026-01-04 00:07:30.78	338.47	57.53	-41.6	-45.1	13.1	3.96e-05	0	57	0	587202560	54	5473
2026-01-04 00:07:34.81	336.08	58.66	-41.0	-44.1	14.2	1.50e-06	0	57	0	594542592	54	4879
2026-01-04 00:07:38.85	333.46	59.77	-40.3	-42.8	15.4	0.00e+00	0	57	0	601882624	52	4755
2026-01-04 00:07:42.89	330.62	60.83	-39.0	-41.0	17.3	0.00e+00	0	57	0	609222656	50	4318
2026-01-04 00:07:46.93	327.52	61.85	-38.7	-40.7	17.6	0.00e+00	0	57	0	616562688	49	4414
2026-01-04 00:07:50.97	324.17	62.80	-38.4	-40.3	18.0	0.00e+00	0	57	0	624951296	48	4456
2026-01-04 00:07:55.01	320.56	63.67	-38.5	-40.4	17.9	0.00e+00	0	57	0	632291328	48	4538
2026-01-04 00:07:59.04	316.68	64.45	-38.8	-40.8	17.4	0.00e+00	0	57	0	639631360	48	4745
2026-01-04 00:08:03.08	312.54	65.13	-39.9	-42.3	16.0	0.00e+00	0	57	0	646971392	50	4998
2026-01-04 00:08:07.12	308.17	65.68	-40.5	-43.2	15.2	0.00e+00	0	57	0	655360000	51	5222
2026-01-04 00:08:11.16	303.59	66.11	-40.7	-43.7	14.5	0.00e+00	0	57	0	662700032	52	5221
2026-01-04 00:08:15.20	298.86	66.39	-40.3	-43.0	15.2	0.00e+00	0	57	0	670040064	52	4837
2026-01-04 00:08:19.24	294.04	66.53	-40.5	-43.2	15.0	0.00e+00	0	57	0	677380096	52	4970
2026-01-04 00:08:23.28	289.19	66.51	-40.2	-42.7	15.5	0.00e+00	0	57	0	684720128	51	4980
2026-01-04 00:08:27.32	284.38	66.33	-40.5	-43.3	15.0	0.00e+00	0	57	0	693108736	51	5309
2026-01-04 00:08:31.36	279.68	66.01	-40.2	-42.8	15.6	0.00e+00	0	57	0	700448768	51	5008
2026-01-04 00:08:35.40	275.15	65.55	-40.0	-42.5	15.8	0.00e+00	0	57	0	707788800	51	4829
2026-01-04 00:08:39.44	270.83	64.96	-39.3	-41.5	16.7	0.00e+00	0	57	0	715128832	50	4584
2026-01-04 00:08:43.48	266.75	64.26	-38.1	-39.9	18.3	0.00e+00	0	57	0	723517440	48	4244
2026-01-04 00:08:47.51	262.94	63.45	-38.0	-39.8	18.3	0.00e+00	0	57	0	730857472	47	4476
2026-01-04 00:08:51.55	259.38	62.55	-38.6	-40.5	17.6	0.00e+00	0	57	0	738197504	47	4863
2026-01-04 00:08:55.59	256.10	61.58	-39.5	-41.8	16.5	0.00e+00	0	57	0	745537536	49	4994
2026-01-04 00:08:59.62	253.07	60.56	-41.5	-45.0	13.0	3.20e-05	0	57	0	752877568	53	5770
2026-01-04 00:09:03.66	250.28	59.48	-41.6	-45.2	12.9	4.57e-05	0	57	0	761266176	53	5873
2026-01-04 00:09:07.70	247.72	58.36	-41.8	-45.5	12.6	1.75e-04	0	57	0	768606208	54	5733
2026-01-04 00:09:11.73	245.37	57.22	-41.7	-45.3	12.8	4.11e-05	0	57	0	775946240	54	5605
2026-01-04 00:09:15.78	243.20	56.05	-40.1	-42.7	15.5	0.00e+00	0	57	0	783286272	52	4665
2026-01-04 00:09:19.82	241.21	54.88	-39.8	-42.1	16.2	0.00e+00	0	57	0	791674880	50	4922
2026-01-04 00:09:23.85	239.39	53.70	-40.2	-42.8	15.5	0.00e+00	0	57	0	799014912	51	5019
2026-01-04 00:09:27.90	237.70	52.51	-40.5	-43.2	15.0	0.00e+00	0	57	0	806354944	51	5277
2026-01-04 00:09:31.94	236.15	51.34	-40.9	-43.9	14.2	1.50e-06	0	57	0	813694976	52	5399
2026-01-04 00:09:35.97	234.71	50.17	-40.6	-43.5	14.7	7.00e-07	0	57	0	821035008	52	5122
2026-01-04 00:09:40.01	233.38	49.01	-41.3	-44.5	13.6	6.10e-06	0	57	0	829423616	53	5453
2026-01-04 00:09:44.05	232.15	47.87	-40.6	-43.4	14.8	7.00e-07	0	57	0	836763648	53	4766
2026-01-04 00:09:48.09	231.00	46.74	-40.6	-43.4	14.8	0.00e+00	0	57	0	844103680	52	5046
2026-01-04 00:09:52.13	229.94	45.63	-40.8	-43.8	14.4	0.00e+00	0	57	0	851443712	52	5309
2026-01-04 00:09:56.17	228.94	44.55	-41.1	-44.2	13.9	7.00e-07	0	57	0	859832320	52	5589
2026-01-04 00:10:00.21	228.02	43.48	-41.5	-44.9	13.1	1.75e-05	0	57	0	867172352	53	5717
2026-01-04 00:10:04.25	227.15	42.43	-41.9	-45.8	12.3	1.41e-04	0	57	0	874512384	54	5973
2026-01-04 00:10:08.29	226.34	41.40	-42.3	-46.6	11.5	5.91e-04	0	57	0	881852416	55	6137
2026-01-04 00:10:12.32	225.57	40.40	-42.6	-47.3	10.6	1.76e-03	0	57	0	889192448	55	6697
2026-01-04 00:10:16.36	224.86	39.42	-42.7	-47.3	10.9	3.34e-03	0	57	0	897581056	56	6330
2026-01-04 00:10:20.40	224.18	38.46	-42.5	-46.9	11.3	1.27e-03	0	57	0	904921088	56	6015
2026-01-04 00:10:24.44	223.54	37.52	-42.2	-46.3	11.9	6.16e-04	0	57	0	912261120	56	5607
2026-01-04 00:10:28.48	222.94	36.61	-41.4	-44.7	13.3	4.04e-05	0	57	0	919601152	54	5268
2026-01-04 00:10:32.52	222.38	35.72	-40.9	-43.9	14.2	1.50e-06	0	57	0	927989760	53	5046
2026-01-04 00:10:36.55	221.84	34.85	-41.3	-44.7	13.4	1.52e-05	0	57	0	935329792	53	5546
2026-01-04 00:10:40.59	221.33	33.99	-41.1	-44.3	13.8	2.20e-06	0	57	0	942669824	53	5311
2026-01-04 00:10:44.63	220.85	33.16	-41.4	-44.9	13.2	1.52e-05	0	57	0	950009856	53	5699
2026-01-04 00:10:48.67	220.39	32.35	-42.0	-46.0	12.1	1.88e-04	0	57	0	957349888	54	6088
2026-01-04 00:10:52.71	219.95	31.56	-42.0	-46.1	11.9	3.49e-04	0	57	0	965738496	54	6153
2026-01-04 00:10:56.74	219.54	30.79	-42.1	-46.3	11.7	5.77e-04	0	57	0	973078528	54	6312
2026-01-04 00:11:00.78	219.14	30.03	-42.0	-45.9	12.2	2.32e-04	0	57	0	980418560	54	6021
2026-01-04 00:11:04.81	218.77	29.30	-42.0	-46.1	11.9	3.42e-04	0	57	0	987758592	54	6172
2026-01-04 00:11:08.85	218.41	28.58	-42.4	-46.8	11.1	1.15e-03	0	57	0	995098624	55	6308
2026-01-04 00:11:12.89	218.06	27.88	-41.9	-45.8	12.1	3.51e-04	0	57	0	1003487232	55	5645
2026-01-04 00:11:16.93	217.73	27.19	-41.4	-44.8	13.2	3.81e-05	0	57	0	1010827264	54	5332
2026-01-04 00:11:20.97	217.42	26.52	-41.1	-44.3	13.7	6.80e-06	0	57	0	1018167296	54	5019
2026-01-04 00:11:25.00	217.12	25.87	-41.5	-45.0	13.0	3.58e-05	0	57	0	1025507328	54	5459
2026-01-04 00:11:29.04	216.83	25.23	-41.5	-45.1	12.9	4.57e-05	0	57	0	1033895936	54	5478
2026-01-04 00:11:33.08	216.55	24.60	-41.4	-44.8	13.2	3.50e-05	0	57	0	1041235968	54	5283
2026-01-04 00:11:37.12	216.28	23.99	-40.9	-44.0	14.0	4.50e-06	0	57	0	1048576000	53	5118
2026-01-04 00:11:41.16	216.03	23.39	-40.5	-43.3	14.7	2.20e-06	0	57	0	1055916032	52	4990
2026-01-04 00:11:45.20	215.78	22.80	-40.4	-43.3	14.7	0.00e+00	0	57	0	1063256064	52	4984
2026-01-04 00:11:49.23	215.55	22.23	-40.4	-43.2	14.7	0.00e+00	0	57	0	1071644672	52	4977
2026-01-04 00:11:53.27	215.32	21.67	-40.2	-42.9	15.1	0.00e+00	0	57	0	1078984704	52	4787
2026-01-04 00:11:57.31	215.10	21.12	-40.0	-42.5	15.4	0.00e+00	0	57	0	1086324736	52	4597
2026-01-04 00:12:01.33	214.89	20.59	-40.1	-42.7	15.2	0.00e+00	0	57	0	1093664768	52	4690
2026-01-04 00:12:05.37	214.68	20.06	-40.3	-43.1	14.9	0.00e+00	0	57	0	1102053376	52	4881
2026-01-04 00:12:09.40	214.49	19.54	-40.5	-43.3	14.6	0.00e+00	0	57	0	1109393408	52	5031
2026-01-04 00:12:13.44	214.30	19.04	-40.6	-43.6	14.3	0.00e+00	0	57	0	1116733440	52	5187
2026-01-04 00:12:17.48	214.11	18.54	-40.6	-43.6	14.3	7.00e-07	0	57	0	1124073472	52	5172
2026-01-04 00:12:21.52	213.94	18.05	-40.5	-43.4	14.5	7.00e-07	0	57	0	1131413504	52	5047
2026-01-04 00:12:25.56	213.76	17.57	-40.3	-43.1	14.8	7.00e-07	0	57	0	1139802112	52	4905
2026-01-04 00:12:29.59	213.60	17.10	-40.3	-43.1	14.7	0.00e+00	0	57	0	1147142144	52	4901
2026-01-04 00:12:33.63	213.44	16.64	-40.4	-43.2	14.6	7.00e-07	0	57	0	1154482176	52	4956
2026-01-04 00:12:37.67	213.28	16.19	-40.5	-43.5	14.3	7.00e-07	0	57	0	1161822208	52	5133
2026-01-04 00:12:41.71	213.13	15.75	-40.7	-43.7	14.0	1.50e-06	0	57	0	1170210816	52	5276
2026-01-04 00:12:45.75	212.99	15.31	-40.7	-43.8	13.9	3.80e-06	0	57	0	1177550848	52	5333
2026-01-04 00:12:49.79	212.85	14.88	-40.8	-44.0	13.8	6.10e-06	0	57	0	1184890880	52	5411
2026-01-04 00:12:53.82	212.71	14.46	-40.7	-43.9	13.9	3.00e-06	0	57	0	1192230912	52	5354
2026-01-04 00:12:57.86	212.58	14.05	-40.7	-44.0	13.7	5.30e-06	0	57	0	1199570944	52	5413
2026-01-04 00:13:01.90	212.45	13.64	-40.8	-44.0	13.7	6.80e-06	0	57	0	1207959552	52	5438
2026-01-04 00:13:05.93	212.32	13.24	-40.8	-44.1	13.6	3.00e-06	0	57	0	1215299584	52	5484
2026-01-04 00:13:09.97	212.20	12.84	-40.9	-44.3	13.3	1.90e-05	0	57	0	1222639616	52	5620
2026-01-04 00:13:14.01	212.08	12.45	-41.0	-44.5	13.1	3.20e-05	0	57	0	1229979648	52	5729
2026-01-04 00:13:18.05	211.97	12.07	-41.1	-44.6	13.0	4.42e-05	0	57	0	1237319680	52	5820
2026-01-04 00:13:22.09	211.85	11.69	-41.1	-44.8	12.6	8.23e-05	0	57	0	1245708288	52	5970
2026-01-04 00:13:26.13	211.75	11.32	-41.1	-44.8	12.7	7.24e-05	0	57	0	1253048320	52	5927
2026-01-04 00:13:30.17	211.64	10.96	-41.3	-45.1	12.3	1.33e-04	0	57	0	1260388352	53	5834
2026-01-04 00:13:34.21	211.54	10.60	-41.3	-45.3	12.1	2.37e-04	0	57	0	1267728384	53	5946
2026-01-04 00:13:38.24	211.44	10.24	-41.3	-45.3	12.0	3.14e-04	0	57	0	1276116992	53	5965
2026-01-04 00:13:42.28	211.34	9.89	-41.3	-45.2	12.1	2.75e-04	0	57	0	1283457024	53	5913
2026-01-04 00:13:46.32	211.24	9.54	-41.3	-45.4	11.9	3.96e-04	0	57	0	1290797056	53	6013
2026-01-04 00:13:50.36	211.15	9.20	-41.3	-45.4	11.8	3.77e-04	0	57	0	1298137088	53	6009
2026-01-04 00:13:54.40	211.06	8.87	-41.3	-45.6	11.6	5.84e-04	0	57	0	1305477120	53	6139
2026-01-04 00:13:58.44	210.97	8.53	-41.2	-45.3	11.8	4.94e-04	0	57	0	1313865728	53	5992
2026-01-04 00:14:02.48	210.89	8.21	-41.2	-45.3	11.8	4.41e-04	0	57	0	1321205760	53	5945
2026-01-04 00:14:06.52	210.80	7.88	-44.4	-58.9	3.8	1.49e+00	0	57	104	1327497216	59	20185
2026-01-04 00:14:10.57	210.72	7.56	-44.9	-59.7	3.8	1.49e+00	0	57	104	1327497216	60	20789
2026-01-04 00:14:14.61	210.64	7.25	-44.9	-59.7	3.8	1.49e+00	0	57	104	1327497216	60	20975
2026-01-04 00:14:18.65	210.57	6.93	-44.8	-59.6	3.8	1.49e+00	0	57	104	1327497216	60	20748
2026-01-04 00:14:22.69	210.49	6.63	-44.8	-59.6	3.8	1.49e+00	0	57	104	1327497216	60	20739
2026-01-04 00:14:26.74	210.42	6.32	-44.8	-59.6	3.8	1.49e+00	0	57	104	1327497216	60	20713
2026-01-04 00:14:30.78	210.34	6.02	-44.8	-59.6	3.8	1.49e+00	0	57	104	1327497216	60	20772
2026-01-04 00:14:34.82	210.27	5.72	-44.8	-59.6	3.8	1.49e+00	0	57	104	1327497216	60	20719
2026-01-04 00:14:38.87	210.20	5.43	-44.8	-59.6	3.8	1.49e+00	0	57	104	1327497216	60	20725
2026-01-04 00:14:42.91	210.14	5.13	-44.8	-59.6	3.8	1.49e+00	0	57	104	1327497216	60	20600
2026-01-04 00:14:46.96	210.07	4.85	-44.8	-59.6	3.8	1.49e+00	0	57	104	1327497216	60	20688
2026-01-04 00:14:51.00	210.00	4.56	-44.8	-59.6	3.8	1.49e+00	0	57	104	1327497216	60	20687
2026-01-04 00:14:55.05	209.94	4.28	-44.8	-59.6	3.8	1.49e+00	0	57	104	1327497216	60	20657
2026-01-04 00:14:59.09	209.88	4.00	-44.8	-59.6	3.8	1.49e+00	0	57	104	1327497216	60	20544
2026-01-04 00:15:03.13	209.82	3.72	-44.8	-59.6	3.8	1.49e+00	0	57	104	1327497216	60	20588
2026-01-04 00:15:07.18	209.76	3.45	-44.8	-59.6	3.8	1.49e+00	0	57	104	1327497216	60	20626
2026-01-04 00:15:11.22	209.70	3.18	-44.7	-59.6	3.8	1.49e+00	0	57	104	1327497216	60	20554
2026-01-04 00:15:15.26	209.65	2.91	-44.7	-59.6	3.8	1.49e+00	0	57	104	1327497216	60	20601
2026-01-04 00:15:19.31	209.59	2.64	-44.8	-59.6	3.8	1.49e+00	0	57	104	1327497216	60	20567
2026-01-04 00:15:23.36	209.54	2.38	-44.7	-59.5	3.8	1.49e+00	0	57	104	1327497216	60	20517
2026-01-04 00:15:27.40	209.48	2.12	-44.7	-59.5	3.8	1.49e+00	0	57	104	1327497216	60	20526
2026-01-04 00:15:31.45	209.43	1.86	-44.7	-59.5	3.8	1.49e+00	0	57	104	1327497216	60	20503

#Closed at: 2026-01-04 00:15:31
#Recorded file [1327 MB]: D:/lorett/data/31039_260104_030110.dat