passes_logs/2026/01/04/R2.0S_Moscow/R2.0S_Moscow__20260104_093105_SUOMI_NPP_rec.log

#Pass ID: 20260104_093105_SUOMI NPP
#Satellite: SUOMI NPP
#Configuration: NPP
#almurnet v.1.7.20251203
#Start time: 2026-01-04 09:31:07

#Version: 2.2.20231116
#Station: R2.0S_Moscow
#Location: 37.707566 lon 55.798166 lat
#TLE: 1 37849U 11061A   26001.07732418  .00000182  00000+0  10735-3 0  9990
#TLE: 2 37849  98.7795 303.2470 0002580  87.2016 272.9455 14.19520779734739

#Time	Az	El	Level	Level2	SNR	BER	BlckErr	Temp	State	Recorded	gain1	gain2
2026-01-04 09:31:07.12	146.84	2.09	-43.7	-58.1	3.8	1.49e+00	0	47	0	0	57	20727
2026-01-04 09:31:11.15	146.76	2.35	-43.7	-58.2	3.8	1.49e+00	0	47	104	0	57	20797
2026-01-04 09:31:15.19	146.68	2.61	-43.7	-58.1	3.8	1.49e+00	0	48	104	0	57	20735
2026-01-04 09:31:19.24	146.60	2.88	-43.7	-58.1	3.8	1.49e+00	0	48	104	0	57	20751
2026-01-04 09:31:23.28	146.52	3.14	-43.7	-58.1	3.8	1.49e+00	0	48	104	0	57	20754
2026-01-04 09:31:27.33	146.44	3.41	-43.6	-58.1	3.8	1.49e+00	0	49	104	0	57	20703
2026-01-04 09:31:31.37	146.36	3.69	-43.7	-58.1	3.8	1.49e+00	0	49	104	0	57	20727
2026-01-04 09:31:35.41	146.27	3.96	-43.6	-58.1	3.8	1.49e+00	0	49	104	0	57	20653
2026-01-04 09:31:39.46	146.19	4.24	-43.7	-58.1	3.8	1.49e+00	0	49	104	0	57	20675
2026-01-04 09:31:43.50	146.10	4.52	-43.6	-58.1	3.8	1.49e+00	0	50	104	0	57	20649
2026-01-04 09:31:47.54	146.01	4.80	-43.7	-58.0	3.8	1.49e+00	0	50	104	0	57	20467
2026-01-04 09:31:51.59	145.91	5.09	-43.7	-57.9	3.8	1.49e+00	0	50	104	0	57	20254
2026-01-04 09:31:55.63	145.82	5.38	-43.6	-57.7	3.8	1.49e+00	0	50	104	0	57	19736
2026-01-04 09:31:59.67	145.72	5.67	-43.7	-57.5	3.8	1.49e+00	0	51	104	0	57	19170
2026-01-04 09:32:03.72	145.62	5.97	-43.7	-57.5	3.8	1.49e+00	0	50	104	0	57	19186
2026-01-04 09:32:07.76	145.52	6.27	-43.6	-57.5	3.8	1.49e+00	0	51	104	0	57	19197
2026-01-04 09:32:11.80	145.42	6.57	-43.6	-57.7	3.8	1.49e+00	0	51	104	0	57	19637
2026-01-04 09:32:15.85	145.31	6.88	-43.5	-56.4	3.8	1.49e+00	0	51	104	0	57	17008
2026-01-04 09:32:19.89	145.20	7.18	-43.2	-52.5	5.0	7.13e-01	0	52	0	2097152	57	10786
2026-01-04 09:32:23.93	145.09	7.50	-42.4	-48.6	8.2	7.28e-02	0	52	0	10485760	56	7314
2026-01-04 09:32:27.98	144.98	7.82	-41.0	-45.3	11.4	1.89e-03	0	52	0	17825792	53	5958
2026-01-04 09:32:32.01	144.86	8.14	-44.0	-58.2	3.8	3.72e-02	0	52	104	24117248	58	19819
2026-01-04 09:32:36.05	144.74	8.46	-42.2	-48.3	8.4	2.84e-03	0	52	0	29360128	54	7917
2026-01-04 09:32:40.09	144.62	8.79	-39.9	-42.8	14.1	0.00e+00	0	52	0	36700160	51	5033
2026-01-04 09:32:44.13	144.49	9.12	-39.8	-42.8	14.1	6.10e-06	0	52	0	44040192	50	5312
2026-01-04 09:32:48.17	144.36	9.46	-40.2	-43.4	13.7	1.44e-05	0	52	0	51380224	51	5371
2026-01-04 09:32:52.21	144.23	9.80	-40.4	-43.7	13.5	4.80e-05	0	53	0	59768832	51	5542
2026-01-04 09:32:56.25	144.10	10.15	-40.2	-43.3	13.9	6.80e-06	0	53	0	67108864	51	5312
2026-01-04 09:33:00.29	143.96	10.50	-39.7	-42.4	14.9	0.00e+00	0	53	0	74448896	51	4781
2026-01-04 09:33:04.33	143.82	10.86	-39.5	-42.1	15.3	0.00e+00	0	53	0	81788928	50	4872
2026-01-04 09:33:08.36	143.67	11.22	-40.0	-42.8	14.6	0.00e+00	0	53	0	90177536	50	5303
2026-01-04 09:33:12.40	143.52	11.58	-40.4	-43.6	13.8	2.20e-06	0	53	0	97517568	51	5519
2026-01-04 09:33:16.44	143.37	11.96	-39.8	-42.5	14.9	7.00e-07	0	53	0	104857600	51	4859
2026-01-04 09:33:20.48	143.21	12.33	-39.2	-41.5	16.0	0.00e+00	0	53	0	112197632	50	4567
2026-01-04 09:33:24.52	143.04	12.72	-39.6	-42.1	15.4	0.00e+00	0	53	0	119537664	50	4923
2026-01-04 09:33:28.55	142.88	13.10	-40.3	-43.3	14.3	7.00e-07	0	53	0	127926272	51	5288
2026-01-04 09:33:32.59	142.71	13.50	-39.7	-42.3	15.3	0.00e+00	0	54	0	135266304	51	4730
2026-01-04 09:33:36.63	142.53	13.90	-39.1	-41.3	16.3	0.00e+00	0	54	0	142606336	50	4490
2026-01-04 09:33:40.67	142.35	14.31	-39.3	-41.7	15.9	0.00e+00	0	54	0	149946368	49	4965
2026-01-04 09:33:44.71	142.16	14.72	-40.2	-43.0	14.8	0.00e+00	0	54	0	158334976	50	5420
2026-01-04 09:33:48.75	141.96	15.14	-39.3	-41.7	16.1	0.00e+00	0	54	0	165675008	50	4655
2026-01-04 09:33:52.79	141.77	15.57	-39.0	-41.1	16.6	0.00e+00	0	54	0	173015040	50	4379
2026-01-04 09:33:56.83	141.56	16.01	-39.5	-41.9	15.9	0.00e+00	0	54	0	180355072	49	5087
2026-01-04 09:34:00.87	141.35	16.45	-39.7	-42.2	15.6	0.00e+00	0	54	0	187695104	50	4934
2026-01-04 09:34:04.91	141.13	16.90	-39.1	-41.3	16.5	0.00e+00	0	54	0	196083712	49	4719
2026-01-04 09:34:08.95	140.90	17.36	-39.5	-41.9	15.9	0.00e+00	0	54	0	203423744	49	5085
2026-01-04 09:34:12.99	140.67	17.83	-40.0	-42.7	15.2	0.00e+00	0	54	0	210763776	51	4932
2026-01-04 09:34:17.03	140.43	18.31	-39.4	-41.7	16.2	0.00e+00	0	55	0	218103808	50	4674
2026-01-04 09:34:21.07	140.18	18.79	-39.6	-41.9	16.0	0.00e+00	0	54	0	226492416	50	4801
2026-01-04 09:34:25.11	139.93	19.28	-39.9	-42.4	15.6	0.00e+00	0	55	0	233832448	50	5057
2026-01-04 09:34:29.15	139.66	19.79	-38.8	-40.8	17.1	0.00e+00	0	54	0	241172480	49	4452
2026-01-04 09:34:33.19	139.38	20.30	-39.4	-41.7	16.3	0.00e+00	0	55	0	248512512	49	4927
2026-01-04 09:34:37.23	139.10	20.82	-39.5	-41.8	16.2	0.00e+00	0	55	0	255852544	50	4745
2026-01-04 09:34:41.27	138.80	21.36	-39.6	-41.8	16.2	0.00e+00	0	55	0	264241152	50	4751
2026-01-04 09:34:45.31	138.50	21.90	-39.8	-42.1	16.0	0.00e+00	0	55	0	271581184	50	4908
2026-01-04 09:34:49.35	138.18	22.45	-39.9	-42.2	15.8	0.00e+00	0	55	0	278921216	50	4980
2026-01-04 09:34:53.38	137.85	23.02	-39.9	-42.3	15.8	0.00e+00	0	55	0	286261248	50	5027
2026-01-04 09:34:57.43	137.51	23.60	-40.2	-42.8	15.3	0.00e+00	0	55	0	294649856	51	4989
2026-01-04 09:35:01.47	137.15	24.19	-40.2	-42.7	15.5	0.00e+00	0	55	0	301989888	51	4961
2026-01-04 09:35:05.50	136.79	24.79	-40.7	-43.5	14.7	0.00e+00	0	55	0	309329920	51	5405
2026-01-04 09:35:09.54	136.40	25.40	-40.5	-43.2	14.8	0.00e+00	0	55	0	316669952	52	4976
2026-01-04 09:35:13.58	136.00	26.03	-40.6	-43.5	14.5	0.00e+00	0	55	0	324009984	52	5129
2026-01-04 09:35:17.61	135.59	26.67	-40.5	-43.3	14.7	0.00e+00	0	55	0	332398592	52	4999
2026-01-04 09:35:21.65	135.15	27.32	-40.8	-43.8	14.2	7.00e-07	0	55	0	339738624	52	5324
2026-01-04 09:35:25.69	134.70	27.99	-40.8	-43.8	14.3	7.00e-07	0	55	0	347078656	52	5282
2026-01-04 09:35:29.73	134.22	28.68	-40.9	-43.9	14.2	2.20e-06	0	55	0	354418688	52	5390
2026-01-04 09:35:33.77	133.73	29.37	-41.4	-44.7	13.3	9.90e-06	0	55	0	362807296	53	5592
2026-01-04 09:35:37.80	133.21	30.08	-41.1	-44.1	13.9	0.00e+00	0	55	0	370147328	53	5199
2026-01-04 09:35:41.85	132.67	30.81	-40.8	-43.7	14.4	1.50e-06	0	55	0	377487360	53	4956
2026-01-04 09:35:45.88	132.11	31.56	-40.9	-43.9	14.2	0.00e+00	0	55	0	384827392	52	5372
2026-01-04 09:35:49.93	131.51	32.32	-40.9	-43.8	14.3	0.00e+00	0	55	0	392167424	52	5318
2026-01-04 09:35:53.97	130.89	33.09	-41.8	-45.4	12.8	4.65e-05	0	55	0	400556032	54	5660
2026-01-04 09:35:58.01	130.23	33.88	-41.4	-44.6	13.5	2.05e-05	0	55	0	407896064	54	5218
2026-01-04 09:36:02.04	129.55	34.69	-41.6	-45.0	13.2	1.14e-05	0	55	0	415236096	54	5415
2026-01-04 09:36:06.08	128.82	35.51	-41.8	-45.4	12.8	4.88e-05	0	56	0	422576128	54	5664
2026-01-04 09:36:10.12	128.06	36.35	-42.5	-47.0	11.2	5.37e-04	0	55	0	430964736	55	6445
2026-01-04 09:36:14.16	127.26	37.21	-42.9	-47.7	10.6	4.84e-03	0	55	0	438304768	57	6240
2026-01-04 09:36:18.19	126.41	38.08	-41.8	-45.4	12.8	3.66e-05	0	56	0	445644800	55	5392
2026-01-04 09:36:22.22	125.52	38.96	-41.8	-45.4	12.8	4.19e-05	0	56	0	452984832	55	5367
2026-01-04 09:36:26.27	124.57	39.87	-42.3	-46.3	12.0	3.41e-04	0	55	0	460324864	55	5941
2026-01-04 09:36:30.31	123.57	40.78	-43.0	-47.8	10.6	2.17e-03	0	56	0	468713472	56	6687
2026-01-04 09:36:34.35	122.51	41.71	-43.1	-47.9	10.3	6.52e-03	0	56	0	476053504	57	6412
2026-01-04 09:36:38.39	121.39	42.65	-42.8	-47.3	11.0	1.63e-03	0	56	0	483393536	57	5962
2026-01-04 09:36:42.43	120.20	43.61	-42.3	-46.2	12.2	2.39e-04	0	56	0	490733568	56	5569
2026-01-04 09:36:46.47	118.93	44.57	-41.4	-44.6	13.6	4.50e-06	0	56	0	499122176	54	5212
2026-01-04 09:36:50.51	117.58	45.53	-41.2	-44.2	14.1	7.00e-07	0	56	0	506462208	54	4981
2026-01-04 09:36:54.55	116.15	46.51	-41.3	-44.4	13.9	3.00e-06	0	56	0	513802240	53	5373
2026-01-04 09:36:58.59	114.63	47.48	-40.4	-43.0	15.3	0.00e+00	0	56	0	521142272	52	4855
2026-01-04 09:37:02.62	113.01	48.45	-41.5	-44.8	13.5	6.80e-06	0	56	0	528482304	54	5280
2026-01-04 09:37:06.66	111.28	49.42	-41.1	-44.1	14.2	3.80e-06	0	56	0	536870912	54	4874
2026-01-04 09:37:10.70	109.44	50.37	-40.4	-43.5	14.6	1.50e-06	0	56	0	544210944	52	5130
2026-01-04 09:37:14.74	107.48	51.32	-40.0	-42.7	15.4	0.00e+00	0	56	0	551550976	51	4976
2026-01-04 09:37:18.78	105.39	52.24	-39.7	-42.5	15.6	0.00e+00	0	56	0	558891008	50	5101
2026-01-04 09:37:22.82	103.17	53.14	-39.7	-42.3	15.9	0.00e+00	0	56	0	567279616	50	4985
2026-01-04 09:37:26.86	100.81	54.01	-40.9	-44.2	13.9	1.50e-06	0	56	0	574619648	52	5537
2026-01-04 09:37:30.90	98.31	54.84	-40.6	-43.8	14.2	8.30e-06	0	56	0	581959680	52	5316
2026-01-04 09:37:34.94	95.66	55.63	-39.8	-42.5	15.7	0.00e+00	0	56	0	589299712	50	5132
2026-01-04 09:37:38.97	92.87	56.36	-40.0	-42.7	15.5	0.00e+00	0	56	0	596639744	50	5266
2026-01-04 09:37:43.02	89.92	57.03	-41.0	-44.8	13.2	3.35e-05	0	56	0	605028352	53	5608
2026-01-04 09:37:47.05	86.85	57.63	-39.9	-42.8	15.3	0.00e+00	0	56	0	612368384	51	4990
2026-01-04 09:37:51.10	83.62	58.15	-38.9	-41.2	16.8	0.00e+00	0	56	0	619708416	49	4660
2026-01-04 09:37:55.14	80.29	58.59	-39.6	-42.4	15.7	0.00e+00	0	56	0	627048448	49	5356
2026-01-04 09:37:59.18	76.86	58.94	-39.7	-42.4	15.8	0.00e+00	0	56	0	635437056	51	4760
2026-01-04 09:38:03.22	73.35	59.20	-39.8	-42.5	15.8	0.00e+00	0	56	0	642777088	50	5145
2026-01-04 09:38:07.26	69.78	59.35	-38.4	-40.4	17.7	0.00e+00	0	56	0	650117120	48	4542
2026-01-04 09:38:11.30	66.19	59.41	-38.4	-40.5	17.6	0.00e+00	0	56	0	657457152	47	4852
2026-01-04 09:38:15.34	62.59	59.36	-37.8	-39.8	18.2	0.00e+00	0	56	0	664797184	47	4453
2026-01-04 09:38:19.38	59.02	59.20	-38.5	-40.8	17.3	0.00e+00	0	56	0	673185792	47	4994
2026-01-04 09:38:23.42	55.51	58.95	-37.4	-39.2	18.7	0.00e+00	0	56	0	680525824	46	4441
2026-01-04 09:38:27.46	52.08	58.60	-40.0	-42.8	15.5	0.00e+00	0	56	0	687865856	50	5333
2026-01-04 09:38:31.49	48.76	58.16	-40.5	-43.7	14.5	7.00e-07	0	56	0	695205888	52	5233
2026-01-04 09:38:35.53	45.55	57.64	-39.9	-42.4	15.9	0.00e+00	0	56	0	703594496	51	4795
2026-01-04 09:38:39.57	42.47	57.04	-39.9	-42.5	15.7	0.00e+00	0	56	0	710934528	50	5154
2026-01-04 09:38:43.61	39.53	56.37	-38.5	-40.5	17.7	0.00e+00	0	56	0	718274560	48	4585
2026-01-04 09:38:47.65	36.73	55.64	-38.6	-40.7	17.5	0.00e+00	0	56	0	725614592	48	4683
2026-01-04 09:38:51.68	34.09	54.86	-40.1	-42.9	15.5	0.00e+00	0	56	0	732954624	50	5361
2026-01-04 09:38:55.72	31.59	54.04	-40.2	-42.9	15.3	0.00e+00	0	56	0	741343232	51	5091
2026-01-04 09:38:59.76	29.23	53.17	-40.8	-44.1	14.1	1.50e-06	0	56	0	748683264	52	5506
2026-01-04 09:39:03.80	27.01	52.28	-39.7	-42.2	16.0	0.00e+00	0	56	0	756023296	50	4959
2026-01-04 09:39:07.84	24.93	51.35	-39.8	-42.5	15.7	0.00e+00	0	56	0	763363328	51	4822
2026-01-04 09:39:11.88	22.97	50.41	-40.8	-44.0	14.1	1.50e-06	0	56	0	771751936	52	5431
2026-01-04 09:39:15.92	21.13	49.46	-40.7	-44.0	14.4	0.00e+00	0	56	0	779091968	52	5415
2026-01-04 09:39:19.95	19.41	48.50	-42.9	-48.6	9.7	1.44e-03	0	56	0	786432000	56	7358
2026-01-04 09:39:23.99	17.79	47.53	-41.4	-45.1	13.1	1.52e-05	0	56	0	793772032	54	5467
2026-01-04 09:39:28.03	16.26	46.56	-41.8	-45.8	12.3	4.71e-04	0	56	0	801112064	54	5989
2026-01-04 09:39:32.07	14.83	45.59	-40.3	-43.4	14.7	2.46e-04	0	56	0	809500672	52	5048
2026-01-04 09:39:36.11	13.49	44.63	-41.8	-46.1	11.8	5.53e-03	0	56	0	816840704	54	6198
2026-01-04 09:39:40.15	12.23	43.67	-41.1	-44.7	13.3	3.55e-03	0	57	0	824180736	53	5566
2026-01-04 09:39:44.19	11.04	42.72	-40.4	-43.3	14.9	7.00e-07	0	56	0	831520768	52	5012
2026-01-04 09:39:48.22	9.92	41.79	-40.6	-43.6	14.6	0.00e+00	0	56	0	839909376	52	5179
2026-01-04 09:39:52.26	8.86	40.86	-42.3	-46.6	11.5	4.14e-04	0	56	0	847249408	55	6198
2026-01-04 09:39:56.30	7.86	39.95	-42.2	-46.4	11.7	4.56e-04	0	56	0	854589440	55	6048
2026-01-04 09:40:00.34	6.91	39.05	-43.0	-48.3	9.9	9.30e-03	0	57	0	861929472	56	7121
2026-01-04 09:40:04.38	6.02	38.17	-41.8	-45.6	12.6	2.63e-04	0	56	0	869269504	55	5466
2026-01-04 09:40:08.42	5.18	37.30	-42.4	-47.1	11.0	3.38e-03	0	56	0	877658112	55	6532
2026-01-04 09:40:12.45	4.38	36.45	-42.6	-47.4	10.8	2.62e-03	0	57	0	884998144	56	6401
2026-01-04 09:40:16.49	3.62	35.61	-42.6	-47.7	10.4	1.39e-02	0	56	0	892338176	56	6593
2026-01-04 09:40:20.54	2.89	34.79	-42.8	-48.1	10.0	5.44e-03	0	56	0	899678208	56	6915
2026-01-04 09:40:24.58	2.21	33.98	-42.4	-47.2	10.9	1.68e-03	0	56	0	908066816	56	6274
2026-01-04 09:40:28.61	1.56	33.20	-42.0	-46.5	11.6	2.28e-03	0	56	0	915406848	56	5724
2026-01-04 09:40:32.66	0.93	32.42	-41.5	-45.4	12.6	3.50e-05	0	56	0	922746880	53	6024
2026-01-04 09:40:36.70	0.34	31.66	-41.3	-45.0	13.0	2.74e-05	0	56	0	930086912	54	5420
2026-01-04 09:40:40.74	359.78	30.92	-42.2	-47.0	11.0	1.40e-03	0	56	0	937426944	55	6437
2026-01-04 09:40:44.78	359.24	30.20	-40.6	-43.7	14.4	2.20e-06	0	56	0	945815552	53	4929
2026-01-04 09:40:48.82	358.72	29.49	-40.6	-43.7	14.3	2.20e-06	0	57	0	953155584	52	5247
2026-01-04 09:40:52.86	358.23	28.79	-41.0	-44.4	13.8	2.20e-06	0	56	0	960495616	52	5666
2026-01-04 09:40:56.89	357.76	28.11	-42.0	-46.4	11.5	4.29e-04	0	56	0	967835648	54	6394
2026-01-04 09:41:00.94	357.31	27.44	-42.4	-47.2	10.7	5.40e-03	0	57	0	976224256	55	6587
2026-01-04 09:41:04.97	356.88	26.79	-41.4	-45.1	12.9	5.03e-05	0	57	0	983564288	54	5471
2026-01-04 09:41:09.01	356.46	26.15	-40.8	-44.0	13.9	3.00e-06	0	56	0	990904320	53	5150
2026-01-04 09:41:13.06	356.06	25.53	-40.4	-43.4	14.6	0.00e+00	0	57	0	998244352	52	5046
2026-01-04 09:41:17.10	355.68	24.91	-41.0	-44.4	13.5	4.50e-06	0	56	0	1005584384	52	5701
2026-01-04 09:41:21.14	355.31	24.31	-41.0	-44.5	13.2	2.13e-05	0	56	0	1013972992	53	5463
2026-01-04 09:41:25.18	354.96	23.73	-40.8	-44.2	13.5	9.10e-06	0	56	0	1021313024	53	5279
2026-01-04 09:41:29.21	354.62	23.15	-41.8	-46.3	11.2	1.21e-03	0	57	0	1028653056	54	6304
2026-01-04 09:41:33.25	354.29	22.59	-41.8	-47.0	10.2	4.99e-03	0	57	0	1035993088	54	6833
2026-01-04 09:41:37.29	353.98	22.04	-40.5	-44.2	12.7	1.02e-04	0	56	0	1044381696	53	5262
2026-01-04 09:41:41.33	353.68	21.49	-40.0	-43.7	12.7	4.65e-05	0	56	0	1051721728	51	5571
2026-01-04 09:41:45.37	353.38	20.96	-40.7	-46.9	8.3	2.81e-02	0	56	0	1059061760	51	8075
2026-01-04 09:41:49.41	353.10	20.44	-40.8	-52.0	4.2	1.14e+00	0	56	0	1066401792	52	13694
2026-01-04 09:41:53.45	352.83	19.93	-40.6	-54.8	3.8	1.49e+00	0	57	104	1066401792	52	18742
2026-01-04 09:41:57.49	352.57	19.43	-40.5	-55.0	3.8	1.49e+00	0	57	104	1066401792	52	19254
2026-01-04 09:42:01.53	352.31	18.93	-40.5	-55.0	3.8	1.49e+00	0	57	104	1066401792	52	19218
2026-01-04 09:42:05.57	352.07	18.45	-40.5	-55.0	3.8	1.49e+00	0	57	104	1066401792	52	19306
2026-01-04 09:42:09.61	351.83	17.98	-40.7	-55.2	3.8	1.49e+00	0	57	104	1066401792	52	19741
2026-01-04 09:42:13.66	351.60	17.51	-40.6	-55.2	3.8	1.49e+00	0	57	104	1066401792	51	20852
2026-01-04 09:42:17.70	351.38	17.05	-40.2	-55.1	3.8	1.49e+00	0	57	104	1066401792	52	19425
2026-01-04 09:42:21.74	351.16	16.60	-40.2	-55.2	3.8	1.49e+00	0	57	104	1066401792	51	20909
2026-01-04 09:42:25.78	350.95	16.16	-40.4	-55.1	3.8	1.49e+00	0	56	104	1066401792	51	20751
2026-01-04 09:42:29.82	350.75	15.72	-40.0	-55.2	3.8	1.49e+00	0	57	104	1066401792	51	20927
2026-01-04 09:42:33.86	350.55	15.30	-40.5	-55.1	3.8	1.49e+00	0	57	104	1066401792	52	19583
2026-01-04 09:42:37.90	350.36	14.88	-40.6	-55.3	3.8	1.49e+00	0	57	104	1066401792	52	20020
2026-01-04 09:42:41.94	350.18	14.46	-40.7	-55.2	3.8	1.49e+00	0	57	104	1066401792	52	19714
2026-01-04 09:42:45.98	350.00	14.06	-40.4	-55.3	3.8	1.49e+00	0	57	104	1066401792	52	19878
2026-01-04 09:42:50.02	349.83	13.66	-40.7	-55.2	3.8	1.49e+00	0	57	104	1066401792	52	19755
2026-01-04 09:42:54.06	349.66	13.26	-40.5	-55.2	3.8	1.49e+00	0	57	104	1066401792	52	19628
2026-01-04 09:42:58.11	349.49	12.87	-40.4	-55.0	3.8	1.49e+00	0	57	104	1066401792	52	19251
2026-01-04 09:43:02.15	349.34	12.49	-40.3	-54.9	3.8	1.49e+00	0	57	104	1066401792	52	19148
2026-01-04 09:43:06.19	349.18	12.11	-40.4	-55.1	3.8	1.49e+00	0	56	104	1066401792	52	19484
2026-01-04 09:43:10.23	349.03	11.74	-40.7	-55.2	3.8	1.49e+00	0	57	104	1066401792	52	19728
2026-01-04 09:43:14.27	348.88	11.38	-40.5	-55.0	3.8	1.49e+00	0	57	104	1066401792	52	19343
2026-01-04 09:43:18.32	348.74	11.01	-40.5	-55.0	3.8	1.49e+00	0	57	104	1066401792	52	19263
2026-01-04 09:43:22.36	348.60	10.66	-40.6	-55.1	3.8	1.49e+00	0	57	104	1066401792	52	19605
2026-01-04 09:43:26.40	348.47	10.31	-40.8	-55.3	3.8	1.49e+00	0	57	104	1066401792	52	19943
2026-01-04 09:43:30.43	348.34	9.96	-40.9	-55.5	3.8	1.49e+00	0	57	104	1066401792	52	20313
2026-01-04 09:43:34.48	348.21	9.62	-41.0	-55.6	3.8	1.49e+00	0	57	104	1066401792	52	20752
2026-01-04 09:43:38.52	348.08	9.28	-41.0	-55.6	3.8	1.49e+00	0	57	104	1066401792	52	20701
2026-01-04 09:43:42.56	347.96	8.95	-41.0	-55.6	3.8	1.49e+00	0	57	104	1066401792	52	20650
2026-01-04 09:43:46.59	347.84	8.62	-40.9	-55.4	3.8	1.49e+00	0	57	104	1066401792	52	20293
2026-01-04 09:43:50.63	347.73	8.30	-40.9	-55.4	3.8	1.49e+00	0	57	104	1066401792	52	20262
2026-01-04 09:43:54.67	347.62	7.98	-40.9	-55.5	3.8	1.49e+00	0	57	104	1066401792	52	20444
2026-01-04 09:43:58.71	347.51	7.66	-44.8	-59.6	3.8	1.49e+00	0	57	104	1066401792	60	20606
2026-01-04 09:44:02.76	347.40	7.35	-45.1	-59.8	3.8	1.49e+00	0	57	104	1066401792	60	21130
2026-01-04 09:44:06.80	347.30	7.04	-45.0	-59.8	3.8	1.49e+00	0	57	104	1066401792	60	21140
2026-01-04 09:44:10.85	347.19	6.74	-44.9	-59.8	3.8	1.49e+00	0	57	104	1066401792	60	21022
2026-01-04 09:44:14.89	347.10	6.43	-44.9	-59.7	3.8	1.49e+00	0	57	104	1066401792	60	20937
2026-01-04 09:44:18.94	347.00	6.14	-44.9	-59.7	3.8	1.49e+00	0	57	104	1066401792	60	20971
2026-01-04 09:44:22.98	346.90	5.84	-44.9	-59.7	3.8	1.49e+00	0	57	104	1066401792	60	20974
2026-01-04 09:44:27.02	346.81	5.55	-44.9	-59.7	3.8	1.49e+00	0	57	104	1066401792	60	20949
2026-01-04 09:44:31.07	346.72	5.26	-44.9	-59.7	3.8	1.49e+00	0	57	104	1066401792	60	20923
2026-01-04 09:44:35.11	346.63	4.97	-44.9	-59.7	3.8	1.49e+00	0	57	104	1066401792	60	20934
2026-01-04 09:44:39.16	346.55	4.69	-44.9	-59.7	3.8	1.49e+00	0	57	104	1066401792	60	20988
2026-01-04 09:44:43.20	346.46	4.41	-44.9	-59.7	3.8	1.49e+00	0	57	104	1066401792	60	20895
2026-01-04 09:44:47.24	346.38	4.13	-44.9	-59.7	3.8	1.49e+00	0	57	104	1066401792	60	20878
2026-01-04 09:44:51.29	346.30	3.86	-44.9	-59.7	3.8	1.49e+00	0	57	104	1066401792	60	20920
2026-01-04 09:44:55.33	346.22	3.59	-44.9	-59.7	3.8	1.49e+00	0	57	104	1066401792	60	20865
2026-01-04 09:44:59.37	346.14	3.32	-44.9	-59.7	3.8	1.49e+00	0	57	104	1066401792	60	20893
2026-01-04 09:45:03.42	346.07	3.05	-44.8	-59.7	3.8	1.49e+00	0	57	104	1066401792	60	20902
2026-01-04 09:45:07.46	345.99	2.79	-44.9	-59.7	3.8	1.49e+00	0	57	104	1066401792	60	20894
2026-01-04 09:45:11.51	345.92	2.53	-44.8	-59.7	3.8	1.49e+00	0	57	104	1066401792	60	20883
2026-01-04 09:45:15.55	345.85	2.27	-44.9	-59.7	3.8	1.49e+00	0	57	104	1066401792	60	20883
2026-01-04 09:45:19.60	345.78	2.01	-44.8	-59.7	3.8	1.49e+00	0	57	104	1066401792	60	20801

#Closed at: 2026-01-04 09:45:21
#Recorded file [1066 MB]: D:/lorett/data/31039_260104_123106.dat