passes_logs/2026/01/04/R2.0S_Moscow/R2.0S_Moscow__20260104_081306_NOAA_20_JPSS-1_rec.log

#Pass ID: 20260104_081306_NOAA 20 (JPSS-1)
#Satellite: NOAA 20 (JPSS-1)
#Configuration: NOAA 20
#almurnet v.1.7.20251203
#Start time: 2026-01-04 08:13:06

#Version: 2.2.20231116
#Station: R2.0S_Moscow
#Location: 37.707566 lon 55.798166 lat
#TLE: 1 43013U 17073A   26003.41800368  .00000169  00000+0  10117-3 0  9998
#TLE: 2 43013  98.7624 304.4804 0001884  56.1176 304.0179 14.19532918421092

#Time	Az	El	Level	Level2	SNR	BER	BlckErr	Temp	State	Recorded	gain1	gain2
2026-01-04 08:13:06.15	110.69	1.98	-27.0	-45.0	3.8	1.50e+00	0	47	0	0	31	20523
2026-01-04 08:13:09.18	110.48	2.15	-35.8	-49.8	4.2	1.50e+00	0	48	104	0	37	25081
2026-01-04 08:13:12.22	110.27	2.32	-30.2	-43.8	3.7	1.50e+00	0	48	0	0	34	14954
2026-01-04 08:13:15.25	110.06	2.50	-36.8	-51.4	4.1	1.50e+00	0	48	104	0	44	20173
2026-01-04 08:13:18.28	109.84	2.67	-26.5	-43.2	3.9	1.50e+00	0	48	104	0	24	24899
2026-01-04 08:13:21.31	109.62	2.84	-37.2	-52.0	4.1	1.50e+00	0	48	104	0	43	23021
2026-01-04 08:13:24.35	109.40	3.01	-34.0	-49.8	4.1	1.50e+00	0	49	104	0	38	23663
2026-01-04 08:13:27.38	109.18	3.19	-34.1	-44.9	3.4	1.50e+00	0	49	0	0	32	19076
2026-01-04 08:13:30.41	108.96	3.36	-38.3	-52.6	4.2	1.50e+00	0	49	104	0	44	23084
2026-01-04 08:13:33.45	108.73	3.54	-36.6	-50.0	4.1	1.50e+00	0	49	104	0	33	32331
2026-01-04 08:13:36.48	108.50	3.71	-32.3	-48.1	4.1	1.50e+00	0	49	104	0	33	26114
2026-01-04 08:13:39.51	108.26	3.89	-31.7	-50.1	4.1	1.50e+00	0	50	104	0	33	32609
2026-01-04 08:13:42.55	108.03	4.07	-28.2	-45.0	3.8	1.51e+00	0	50	104	0	28	24340
2026-01-04 08:13:45.58	107.79	4.24	-31.8	-47.5	4.1	1.50e+00	0	50	104	0	37	19234
2026-01-04 08:13:48.61	107.54	4.42	-32.2	-48.1	3.8	1.50e+00	0	50	104	0	39	18369
2026-01-04 08:13:51.64	107.30	4.60	-33.4	-49.1	4.0	1.50e+00	0	50	104	0	42	17339
2026-01-04 08:13:54.68	107.05	4.78	-33.2	-48.4	4.2	1.50e+00	0	50	104	0	40	17939
2026-01-04 08:13:57.71	106.80	4.96	-30.1	-45.2	3.5	1.50e+00	0	51	104	0	34	17589
2026-01-04 08:14:00.74	106.54	5.14	-28.4	-46.6	4.2	1.50e+00	0	51	104	0	39	15441
2026-01-04 08:14:03.77	106.28	5.33	-36.5	-51.6	4.1	1.50e+00	0	51	104	0	43	21784
2026-01-04 08:14:06.80	106.02	5.51	-28.1	-44.3	3.8	1.50e+00	0	51	104	0	30	20020
2026-01-04 08:14:09.83	105.75	5.69	-35.0	-50.7	4.1	1.50e+00	0	51	104	0	41	22160
2026-01-04 08:14:12.87	105.48	5.88	-29.7	-42.8	4.2	1.50e+00	0	51	104	0	36	11902
2026-01-04 08:14:15.90	105.21	6.06	-36.5	-51.8	4.1	1.50e+00	0	51	104	0	43	22508
2026-01-04 08:14:18.94	104.94	6.25	-32.6	-50.5	4.2	1.50e+00	0	52	104	0	40	23031
2026-01-04 08:14:21.97	104.66	6.43	-29.4	-43.7	3.8	1.50e+00	0	52	104	0	27	22027
2026-01-04 08:14:25.00	104.37	6.62	-35.6	-52.0	4.2	1.50e+00	0	52	104	0	43	22912
2026-01-04 08:14:28.04	104.09	6.81	-26.7	-42.8	3.8	1.50e+00	0	52	104	0	28	18842
2026-01-04 08:14:31.07	103.79	7.00	-35.6	-50.5	4.2	1.50e+00	0	52	104	0	43	19350
2026-01-04 08:14:34.10	103.50	7.19	-35.1	-53.0	3.9	1.50e+00	0	52	104	0	38	34099
2026-01-04 08:14:37.14	103.20	7.38	-36.0	-52.0	4.1	1.50e+00	0	52	104	0	41	25853
2026-01-04 08:14:40.17	102.90	7.57	-35.5	-50.3	3.9	1.50e+00	0	52	104	0	41	21055
2026-01-04 08:14:43.20	102.59	7.76	-27.0	-41.7	4.1	1.42e+00	0	53	104	0	26	18604
2026-01-04 08:14:46.24	102.28	7.95	-30.7	-45.0	6.0	6.48e-01	46	53	0	2097152	37	14464
2026-01-04 08:14:49.27	101.96	8.14	-35.7	-48.6	4.0	1.50e+00	0	53	104	2097152	40	18307
2026-01-04 08:14:52.30	101.64	8.34	-36.5	-45.7	4.1	1.48e+00	0	53	104	2097152	27	27946
2026-01-04 08:14:55.33	101.32	8.53	-36.2	-50.2	4.0	1.50e+00	0	53	104	2097152	39	23545
2026-01-04 08:14:58.36	100.99	8.72	-33.7	-48.3	4.3	1.50e+00	0	53	104	2097152	40	17877
2026-01-04 08:15:01.38	100.66	8.92	-32.6	-50.0	4.2	1.50e+00	0	53	104	2097152	39	22911
2026-01-04 08:15:04.41	100.32	9.11	-27.0	-47.0	4.2	1.50e+00	0	53	104	2097152	38	17236
2026-01-04 08:15:07.44	99.98	9.31	-25.4	-40.4	3.6	1.50e+00	0	53	0	2097152	23	18963
2026-01-04 08:15:10.47	99.64	9.51	-28.9	-48.2	3.8	1.50e+00	0	53	104	2097152	29	33265
2026-01-04 08:15:13.50	99.28	9.70	-29.7	-47.8	4.1	1.50e+00	0	53	104	2097152	30	29954
2026-01-04 08:15:16.54	98.93	9.90	-27.1	-41.3	4.2	1.49e+00	0	53	104	2097152	25	18859
2026-01-04 08:15:19.57	98.57	10.10	-31.9	-47.6	4.0	1.50e+00	0	54	104	2097152	38	18347
2026-01-04 08:15:22.60	98.20	10.30	-29.4	-43.9	3.4	1.50e+00	0	54	104	2097152	27	22571
2026-01-04 08:15:25.63	97.83	10.50	-30.8	-48.2	4.2	1.48e+00	0	54	104	2097152	37	20907
2026-01-04 08:15:28.66	97.45	10.70	-35.7	-49.9	4.2	1.50e+00	0	54	104	2097152	39	22597
2026-01-04 08:15:31.69	97.07	10.90	-35.4	-51.0	4.0	1.48e+00	0	54	104	2097152	50	13571
2026-01-04 08:15:34.72	96.68	11.10	-41.1	-52.8	4.1	1.47e+00	0	54	104	2097152	52	14928
2026-01-04 08:15:37.74	96.29	11.30	-34.7	-51.2	4.0	1.49e+00	0	54	104	2097152	53	11732
2026-01-04 08:15:40.77	95.89	11.50	-35.5	-51.4	3.9	1.48e+00	0	54	104	2097152	41	23915
2026-01-04 08:15:43.80	95.49	11.70	-43.0	-53.3	4.6	1.08e+00	12	54	0	3145728	57	11841
2026-01-04 08:15:46.84	95.08	11.90	-42.1	-48.9	7.5	1.40e-01	0	54	0	8388608	55	8003
2026-01-04 08:15:49.87	94.67	12.10	-41.6	-46.9	9.6	2.48e-02	0	54	0	14680064	53	7133
2026-01-04 08:15:52.90	94.25	12.30	-41.2	-45.8	10.7	3.58e-03	0	54	0	19922944	53	6328
2026-01-04 08:15:55.93	93.82	12.51	-40.9	-45.3	11.2	1.40e-03	0	54	0	26214400	53	5979
2026-01-04 08:15:58.96	93.39	12.71	-40.9	-45.1	11.4	1.01e-03	0	54	0	31457280	53	5852
2026-01-04 08:16:01.99	92.95	12.91	-41.0	-45.4	11.1	1.48e-03	0	55	0	36700160	53	6056
2026-01-04 08:16:05.01	92.50	13.11	-40.7	-44.9	11.5	7.12e-04	0	54	0	42991616	53	5660
2026-01-04 08:16:08.04	92.05	13.31	-40.7	-45.1	11.2	1.10e-03	0	55	0	48234496	53	5802
2026-01-04 08:16:11.07	91.60	13.52	-40.7	-45.1	11.1	1.13e-03	0	55	0	54525952	53	5845
2026-01-04 08:16:14.10	91.13	13.72	-40.6	-45.0	11.1	2.86e-03	0	55	0	59768832	53	5767
2026-01-04 08:16:17.13	90.66	13.92	-40.4	-44.8	11.2	1.10e-03	0	55	0	65011712	52	5954
2026-01-04 08:16:20.15	90.19	14.12	-40.4	-44.8	11.3	1.24e-03	0	55	0	71303168	52	5924
2026-01-04 08:16:23.18	89.71	14.32	-40.3	-44.6	11.5	6.73e-04	0	55	0	76546048	52	5789
2026-01-04 08:16:26.21	89.22	14.52	-40.7	-45.6	10.4	3.10e-03	0	55	0	82837504	52	6499
2026-01-04 08:16:29.24	88.72	14.72	-40.9	-46.1	9.8	1.19e-02	0	55	0	88080384	52	6912
2026-01-04 08:16:32.27	88.22	14.92	-40.8	-46.2	9.5	1.35e-02	0	55	0	94371840	52	6964
2026-01-04 08:16:35.30	87.71	15.12	-40.7	-46.4	8.9	2.27e-02	0	55	0	99614720	52	7186
2026-01-04 08:16:38.33	87.19	15.32	-40.6	-46.7	8.3	4.71e-02	0	55	0	104857600	52	7452
2026-01-04 08:16:41.36	86.67	15.51	-40.5	-46.9	7.9	6.84e-02	0	55	0	111149056	52	7599
2026-01-04 08:16:44.39	86.14	15.71	-40.4	-47.1	7.6	9.75e-02	0	55	0	116391936	52	7754
2026-01-04 08:16:47.42	85.60	15.91	-40.4	-46.9	7.7	9.07e-02	0	55	0	122683392	52	7622
2026-01-04 08:16:50.45	85.05	16.10	-40.4	-46.6	8.1	6.37e-02	0	55	0	127926272	52	7364
2026-01-04 08:16:53.48	84.50	16.30	-40.4	-46.3	8.8	3.83e-02	0	55	0	133169152	52	7045
2026-01-04 08:16:56.51	83.94	16.49	-40.3	-45.5	9.7	1.44e-02	0	55	0	139460608	52	6456
2026-01-04 08:16:59.54	83.37	16.68	-40.3	-45.1	10.5	5.79e-03	0	55	0	144703488	52	6132
2026-01-04 08:17:02.57	82.80	16.87	-40.0	-44.2	11.6	1.02e-03	0	55	0	150994944	52	5557
2026-01-04 08:17:05.60	82.22	17.06	-39.9	-43.8	12.2	2.33e-04	0	56	0	156237824	51	5603
2026-01-04 08:17:08.63	81.63	17.24	-39.9	-43.9	12.0	3.11e-04	0	55	0	162529280	51	5707
2026-01-04 08:17:11.66	81.04	17.43	-39.8	-44.0	11.6	7.37e-04	0	55	0	167772160	51	5727
2026-01-04 08:17:14.69	80.43	17.61	-39.7	-44.2	11.0	1.45e-03	0	55	0	173015040	51	5882
2026-01-04 08:17:17.72	79.82	17.79	-39.7	-44.5	10.4	3.80e-03	0	55	0	179306496	51	6119
2026-01-04 08:17:20.75	79.20	17.97	-39.8	-44.8	10.0	8.22e-03	0	55	0	184549376	51	6319
2026-01-04 08:17:23.78	78.58	18.15	-39.9	-44.8	10.1	6.95e-03	0	56	0	190840832	51	6337
2026-01-04 08:17:26.81	77.95	18.32	-40.0	-44.9	10.2	6.81e-03	0	56	0	196083712	51	6376
2026-01-04 08:17:29.84	77.31	18.49	-39.9	-44.7	10.5	4.55e-03	0	55	0	201326592	51	6234
2026-01-04 08:17:32.87	76.66	18.66	-39.9	-44.7	10.5	4.06e-03	0	56	0	207618048	51	6209
2026-01-04 08:17:35.89	76.01	18.83	-39.9	-44.7	10.4	4.16e-03	0	56	0	212860928	51	6227
2026-01-04 08:17:38.92	75.35	18.99	-39.9	-44.7	10.4	4.71e-03	0	56	0	219152384	51	6241
2026-01-04 08:17:41.95	74.68	19.15	-39.8	-44.1	11.1	1.94e-03	0	56	0	224395264	51	5854
2026-01-04 08:17:44.98	74.00	19.31	-39.8	-44.1	11.4	1.00e-03	0	56	0	230686720	51	5800
2026-01-04 08:17:48.01	73.32	19.47	-39.8	-43.8	11.8	5.61e-04	0	56	0	235929600	51	5637
2026-01-04 08:17:51.04	72.63	19.62	-39.6	-43.3	12.5	1.66e-04	0	56	0	241172480	51	5310
2026-01-04 08:17:54.07	71.93	19.76	-39.6	-43.2	12.8	6.71e-05	0	56	0	247463936	51	5231
2026-01-04 08:17:57.10	71.23	19.91	-39.6	-43.0	13.3	2.44e-05	0	56	0	252706816	51	5137
2026-01-04 08:18:00.13	70.52	20.05	-39.5	-42.5	14.1	3.00e-06	0	56	0	258998272	51	4858
2026-01-04 08:18:03.15	69.81	20.19	-39.3	-42.0	15.1	0.00e+00	0	56	0	264241152	50	4832
2026-01-04 08:18:06.18	69.09	20.32	-39.2	-41.7	15.6	0.00e+00	0	56	0	269484032	50	4704
2026-01-04 08:18:09.21	68.36	20.45	-39.2	-41.7	15.8	0.00e+00	0	56	0	275775488	50	4654
2026-01-04 08:18:12.24	67.62	20.57	-39.3	-41.7	15.8	0.00e+00	0	56	0	281018368	50	4689
2026-01-04 08:18:15.27	66.88	20.69	-39.3	-41.7	16.0	0.00e+00	0	56	0	287309824	50	4660
2026-01-04 08:18:18.30	66.14	20.81	-39.4	-41.7	16.0	0.00e+00	0	56	0	292552704	50	4698
2026-01-04 08:18:21.33	65.39	20.92	-39.4	-41.7	16.1	0.00e+00	0	56	0	298844160	50	4675
2026-01-04 08:18:24.35	64.63	21.02	-39.7	-42.1	15.6	0.00e+00	0	56	0	304087040	50	4913
2026-01-04 08:18:27.38	63.87	21.12	-39.9	-42.5	15.3	0.00e+00	0	56	0	309329920	50	5105
2026-01-04 08:18:30.41	63.10	21.22	-40.0	-42.6	15.2	0.00e+00	0	56	0	315621376	50	5182
2026-01-04 08:18:33.43	62.34	21.31	-40.2	-43.0	14.8	0.00e+00	0	56	0	320864256	51	5123
2026-01-04 08:18:36.46	61.56	21.39	-40.1	-42.9	14.9	7.00e-07	0	56	0	327155712	51	5043
2026-01-04 08:18:39.49	60.78	21.47	-40.3	-43.1	14.7	0.00e+00	0	56	0	332398592	51	5188
2026-01-04 08:18:42.52	60.00	21.55	-40.5	-43.5	14.3	7.00e-07	0	56	0	337641472	51	5428
2026-01-04 08:18:45.55	59.21	21.62	-40.5	-43.3	14.4	0.00e+00	0	56	0	343932928	51	5338
2026-01-04 08:18:48.58	58.42	21.68	-40.4	-43.3	14.5	7.00e-07	0	56	0	349175808	51	5309
2026-01-04 08:18:51.61	57.63	21.74	-40.4	-43.2	14.7	0.00e+00	0	56	0	355467264	51	5222
2026-01-04 08:18:54.64	56.83	21.79	-40.3	-43.1	14.8	7.00e-07	0	56	0	360710144	51	5175
2026-01-04 08:18:57.67	56.03	21.84	-40.5	-43.5	14.3	7.00e-07	0	56	0	367001600	51	5427
2026-01-04 08:19:00.69	55.23	21.88	-40.6	-43.5	14.4	7.00e-07	0	56	0	372244480	51	5420
2026-01-04 08:19:03.72	54.43	21.91	-40.5	-43.4	14.4	0.00e+00	0	56	0	377487360	51	5392
2026-01-04 08:19:06.75	53.62	21.94	-40.4	-43.3	14.6	0.00e+00	0	56	0	383778816	51	5312
2026-01-04 08:19:09.78	52.82	21.97	-40.5	-43.4	14.4	0.00e+00	0	56	0	389021696	51	5374
2026-01-04 08:19:12.81	52.01	21.98	-40.3	-43.0	14.8	0.00e+00	0	56	0	395313152	51	5149
2026-01-04 08:19:15.83	51.21	21.99	-40.1	-42.8	15.1	0.00e+00	0	56	0	400556032	51	5000
2026-01-04 08:19:18.86	50.40	22.00	-40.0	-42.6	15.3	0.00e+00	0	56	0	405798912	51	4875
2026-01-04 08:19:21.89	49.59	22.00	-39.9	-42.4	15.5	0.00e+00	0	56	0	412090368	51	4775
2026-01-04 08:19:24.92	48.78	21.99	-39.6	-42.0	15.9	0.00e+00	0	56	0	417333248	51	4587
2026-01-04 08:19:27.95	47.98	21.98	-39.6	-41.9	16.0	0.00e+00	0	56	0	423624704	51	4522
2026-01-04 08:19:30.97	47.17	21.96	-39.4	-41.7	16.2	0.00e+00	0	56	0	428867584	50	4684
2026-01-04 08:19:34.01	46.36	21.93	-39.1	-41.3	16.6	0.00e+00	0	56	0	435159040	50	4460
2026-01-04 08:19:37.04	45.56	21.90	-39.1	-41.3	16.6	0.00e+00	0	56	0	440401920	50	4455
2026-01-04 08:19:40.07	44.76	21.86	-38.6	-40.6	17.3	0.00e+00	0	56	0	445644800	49	4376
2026-01-04 08:19:43.09	43.96	21.82	-38.9	-41.0	16.9	0.00e+00	0	56	0	451936256	49	4546
2026-01-04 08:19:46.12	43.17	21.77	-38.7	-40.8	17.1	0.00e+00	0	56	0	457179136	49	4470
2026-01-04 08:19:49.15	42.37	21.71	-38.6	-40.6	17.3	0.00e+00	0	56	0	463470592	49	4378
2026-01-04 08:19:52.18	41.58	21.65	-38.8	-40.9	17.0	0.00e+00	0	56	0	468713472	49	4495
2026-01-04 08:19:55.21	40.79	21.59	-38.8	-40.9	17.0	0.00e+00	0	56	0	473956352	49	4531
2026-01-04 08:19:58.24	40.01	21.52	-38.8	-40.9	17.0	0.00e+00	0	56	0	480247808	49	4504
2026-01-04 08:20:01.27	39.23	21.44	-39.0	-41.2	16.7	0.00e+00	0	56	0	485490688	49	4665
2026-01-04 08:20:04.30	38.45	21.36	-39.2	-41.5	16.4	0.00e+00	0	56	0	491782144	49	4824
2026-01-04 08:20:07.32	37.68	21.27	-39.6	-42.0	15.9	0.00e+00	0	56	0	497025024	49	5124
2026-01-04 08:20:10.35	36.91	21.18	-39.7	-42.2	15.7	0.00e+00	0	56	0	503316480	50	4956
2026-01-04 08:20:13.38	36.15	21.08	-39.8	-42.3	15.6	0.00e+00	0	56	0	508559360	50	4993
2026-01-04 08:20:16.41	35.39	20.97	-39.9	-42.5	15.5	0.00e+00	0	56	0	513802240	50	5108
2026-01-04 08:20:19.44	34.64	20.87	-40.2	-42.8	15.1	0.00e+00	0	56	0	520093696	50	5328
2026-01-04 08:20:22.47	33.89	20.75	-40.1	-42.7	15.2	0.00e+00	0	56	0	525336576	50	5277
2026-01-04 08:20:25.49	33.16	20.64	-40.2	-42.8	15.1	0.00e+00	0	56	0	531628032	50	5316
2026-01-04 08:20:28.53	32.42	20.52	-40.3	-43.1	14.8	0.00e+00	0	56	0	536870912	51	5199
2026-01-04 08:20:31.55	31.69	20.39	-40.4	-43.2	14.6	0.00e+00	0	56	0	542113792	51	5264
2026-01-04 08:20:34.58	30.97	20.26	-40.4	-43.2	14.7	0.00e+00	0	56	0	548405248	51	5242
2026-01-04 08:20:37.61	30.25	20.13	-40.4	-43.3	14.6	7.00e-07	0	56	0	553648128	51	5302
2026-01-04 08:20:40.64	29.54	19.99	-40.2	-42.9	15.0	0.00e+00	0	56	0	559939584	51	5076
2026-01-04 08:20:43.67	28.84	19.85	-40.5	-43.4	14.5	0.00e+00	0	57	0	565182464	51	5362
2026-01-04 08:20:46.70	28.14	19.70	-40.3	-43.1	14.8	0.00e+00	0	56	0	571473920	51	5164
2026-01-04 08:20:49.73	27.45	19.55	-40.2	-42.9	15.0	0.00e+00	0	56	0	576716800	51	5069
2026-01-04 08:20:52.76	26.77	19.40	-40.1	-43.1	14.8	7.00e-07	0	56	0	581959680	51	5165
2026-01-04 08:20:55.79	26.09	19.24	-40.2	-43.3	14.5	0.00e+00	0	56	0	588251136	51	5309
2026-01-04 08:20:58.82	25.42	19.09	-39.4	-43.0	14.8	7.00e-07	0	56	0	593494016	50	5427
2026-01-04 08:21:01.85	24.76	18.92	-39.0	-43.1	14.5	7.00e-07	0	56	0	599785472	49	5841
2026-01-04 08:21:04.88	24.10	18.76	-40.1	-42.9	14.9	7.00e-07	0	56	0	605028352	50	5372
2026-01-04 08:21:07.91	23.45	18.59	-40.2	-43.0	14.8	0.00e+00	0	57	0	610271232	50	5458
2026-01-04 08:21:10.94	22.81	18.42	-40.2	-43.0	14.8	0.00e+00	0	56	0	616562688	51	5142
2026-01-04 08:21:13.97	22.18	18.25	-40.1	-42.8	15.0	0.00e+00	0	56	0	621805568	51	5002
2026-01-04 08:21:17.00	21.55	18.07	-40.1	-42.8	14.9	0.00e+00	0	56	0	628097024	51	5036
2026-01-04 08:21:20.03	20.93	17.90	-40.1	-42.7	15.0	0.00e+00	0	57	0	633339904	51	4972
2026-01-04 08:21:23.06	20.32	17.72	-40.3	-43.2	14.6	1.50e-06	0	56	0	639631360	51	5235
2026-01-04 08:21:26.09	19.72	17.54	-40.4	-43.4	14.3	7.00e-07	0	57	0	644874240	51	5355
2026-01-04 08:21:29.12	19.12	17.35	-40.6	-43.7	14.1	7.00e-07	0	56	0	650117120	51	5534
2026-01-04 08:21:32.15	18.53	17.17	-40.4	-43.3	14.4	7.00e-07	0	56	0	656408576	51	5317
2026-01-04 08:21:35.18	17.95	16.98	-40.4	-43.3	14.4	7.00e-07	0	56	0	661651456	51	5316
2026-01-04 08:21:38.21	17.38	16.79	-40.6	-43.7	14.0	2.20e-06	0	57	0	667942912	51	5536
2026-01-04 08:21:41.24	16.81	16.61	-40.7	-43.9	13.7	6.10e-06	0	56	0	673185792	52	5401
2026-01-04 08:21:44.27	16.25	16.41	-40.4	-43.4	14.2	2.20e-06	0	56	0	678428672	52	5065
2026-01-04 08:21:47.29	15.70	16.22	-40.3	-43.3	14.3	7.00e-07	0	57	0	684720128	52	4991
2026-01-04 08:21:50.32	15.15	16.03	-40.0	-42.8	14.7	0.00e+00	0	56	0	689963008	52	4751
2026-01-04 08:21:53.35	14.61	15.84	-40.0	-42.8	14.8	0.00e+00	0	56	0	696254464	51	5018
2026-01-04 08:21:56.38	14.08	15.64	-39.9	-42.6	15.0	0.00e+00	0	56	0	701497344	51	4878
2026-01-04 08:21:59.41	13.56	15.44	-39.8	-42.5	15.1	0.00e+00	0	57	0	707788800	51	4845
2026-01-04 08:22:02.44	13.04	15.25	-39.8	-42.5	15.0	0.00e+00	0	57	0	713031680	51	4838
2026-01-04 08:22:05.46	12.53	15.05	-39.6	-42.2	15.4	0.00e+00	0	56	0	718274560	51	4663
2026-01-04 08:22:08.49	12.03	14.85	-39.4	-41.9	15.6	0.00e+00	0	56	0	724566016	50	4785
2026-01-04 08:22:11.52	11.53	14.65	-39.4	-41.9	15.5	0.00e+00	0	56	0	729808896	50	4813
2026-01-04 08:22:14.54	11.04	14.45	-39.3	-41.9	15.6	0.00e+00	0	56	0	736100352	50	4762
2026-01-04 08:22:17.57	10.56	14.25	-39.4	-41.9	15.4	0.00e+00	0	57	0	741343232	50	4799
2026-01-04 08:22:20.60	10.08	14.05	-39.2	-41.7	15.5	0.00e+00	0	56	0	746586112	50	4704
2026-01-04 08:22:23.63	9.61	13.85	-39.1	-41.7	15.4	0.00e+00	0	57	0	752877568	50	4702
2026-01-04 08:22:26.66	9.15	13.65	-39.2	-41.9	15.0	0.00e+00	0	57	0	758120448	50	4805
2026-01-04 08:22:29.69	8.69	13.45	-39.3	-42.1	14.6	0.00e+00	0	57	0	764411904	50	4905
2026-01-04 08:22:32.72	8.24	13.25	-39.1	-41.9	14.6	7.00e-07	0	56	0	769654784	50	4813
2026-01-04 08:22:35.75	7.79	13.05	-39.4	-42.5	13.9	3.00e-06	0	57	0	775946240	50	5144
2026-01-04 08:22:38.77	7.36	12.85	-39.5	-42.7	13.6	6.10e-06	0	57	0	781189120	50	5255
2026-01-04 08:22:41.80	6.92	12.65	-39.2	-42.4	13.8	1.06e-05	0	56	0	786432000	50	5074
2026-01-04 08:22:44.83	6.50	12.45	-39.0	-42.2	13.7	9.90e-06	0	56	0	792723456	50	4968
2026-01-04 08:22:47.86	6.08	12.24	-39.3	-43.2	12.3	1.40e-04	0	57	0	797966336	50	5561
2026-01-04 08:22:50.89	5.66	12.04	-40.0	-45.4	9.5	1.07e-02	0	57	0	804257792	50	7165
2026-01-04 08:22:53.92	5.25	11.84	-40.3	-47.7	6.7	1.28e-01	0	57	0	809500672	51	8792
2026-01-04 08:22:56.95	4.85	11.64	-40.4	-51.3	4.3	8.97e-01	16	57	0	814743552	51	13289
2026-01-04 08:22:59.98	4.45	11.44	-40.3	-54.2	3.8	1.49e+00	0	57	104	814743552	51	18644
2026-01-04 08:23:03.01	4.06	11.24	-40.2	-54.6	3.8	1.49e+00	0	57	104	814743552	51	19569
2026-01-04 08:23:06.04	3.67	11.04	-40.1	-54.7	3.8	1.49e+00	0	56	104	814743552	51	19639
2026-01-04 08:23:09.07	3.29	10.84	-39.9	-54.4	3.8	1.49e+00	0	56	104	814743552	51	19054
2026-01-04 08:23:12.10	2.91	10.64	-39.9	-54.4	3.8	1.49e+00	0	57	104	814743552	51	19132
2026-01-04 08:23:15.13	2.54	10.45	-39.6	-54.1	3.8	1.49e+00	0	57	104	814743552	51	18464
2026-01-04 08:23:18.16	2.18	10.25	-39.5	-54.1	3.8	1.49e+00	0	57	104	814743552	51	18442
2026-01-04 08:23:21.19	1.82	10.05	-39.7	-54.2	3.8	1.49e+00	0	57	104	814743552	51	18552
2026-01-04 08:23:24.23	1.46	9.85	-39.5	-54.1	3.8	1.49e+00	0	57	104	814743552	50	19513
2026-01-04 08:23:27.25	1.11	9.66	-39.6	-54.1	3.8	1.49e+00	0	57	104	814743552	50	19559
2026-01-04 08:23:30.29	0.76	9.46	-39.6	-54.2	3.8	1.49e+00	0	57	104	814743552	50	19628
2026-01-04 08:23:33.32	0.42	9.26	-39.4	-54.1	3.8	1.49e+00	0	57	104	814743552	50	19492
2026-01-04 08:23:36.35	0.09	9.07	-39.3	-54.1	3.8	1.49e+00	0	57	104	814743552	50	19536
2026-01-04 08:23:39.38	359.75	8.87	-39.2	-54.1	3.8	1.49e+00	0	57	104	814743552	50	19570
2026-01-04 08:23:42.41	359.43	8.68	-39.2	-54.1	3.8	1.49e+00	0	57	104	814743552	50	19453
2026-01-04 08:23:45.44	359.10	8.49	-39.2	-54.1	3.8	1.49e+00	0	57	104	814743552	50	19537
2026-01-04 08:23:48.47	358.79	8.29	-38.8	-54.0	3.8	1.49e+00	0	57	104	814743552	48	21606
2026-01-04 08:23:51.51	358.47	8.10	-39.0	-54.0	3.8	1.49e+00	0	57	104	814743552	48	21717
2026-01-04 08:23:54.54	358.16	7.91	-39.8	-54.4	3.8	1.49e+00	0	57	104	814743552	50	20123
2026-01-04 08:23:57.57	357.85	7.72	-44.7	-59.2	3.8	1.49e+00	0	56	104	814743552	59	20902
2026-01-04 08:24:00.60	357.55	7.53	-44.8	-59.6	3.8	1.49e+00	0	57	104	814743552	60	20607
2026-01-04 08:24:03.64	357.25	7.34	-44.8	-59.6	3.8	1.49e+00	0	57	104	814743552	60	20647
2026-01-04 08:24:06.67	356.96	7.15	-44.6	-59.6	3.8	1.49e+00	0	57	104	814743552	60	20557
2026-01-04 08:24:09.70	356.67	6.96	-44.6	-59.5	3.8	1.49e+00	0	57	104	814743552	60	20341
2026-01-04 08:24:12.74	356.38	6.78	-44.7	-59.4	3.8	1.49e+00	0	57	104	814743552	59	21277
2026-01-04 08:24:15.77	356.10	6.59	-44.7	-59.3	3.8	1.49e+00	0	57	104	814743552	59	21224
2026-01-04 08:24:18.80	355.82	6.40	-44.7	-59.3	3.8	1.49e+00	0	57	104	814743552	59	21170
2026-01-04 08:24:21.84	355.55	6.22	-44.7	-59.3	3.8	1.49e+00	0	57	104	814743552	59	21173
2026-01-04 08:24:24.87	355.28	6.03	-44.7	-59.3	3.8	1.49e+00	0	57	104	814743552	59	21211
2026-01-04 08:24:27.90	355.01	5.85	-44.7	-59.3	3.8	1.49e+00	0	57	104	814743552	59	21156
2026-01-04 08:24:30.94	354.75	5.66	-44.7	-59.3	3.8	1.49e+00	0	57	104	814743552	59	21161
2026-01-04 08:24:33.97	354.49	5.48	-44.7	-59.3	3.8	1.49e+00	0	57	104	814743552	59	21186
2026-01-04 08:24:37.00	354.23	5.30	-44.7	-59.3	3.8	1.49e+00	0	57	104	814743552	59	21148
2026-01-04 08:24:40.04	353.97	5.12	-44.7	-59.3	3.8	1.49e+00	0	57	104	814743552	59	21169
2026-01-04 08:24:43.07	353.72	4.94	-44.7	-59.3	3.8	1.49e+00	0	57	104	814743552	59	21157
2026-01-04 08:24:46.10	353.48	4.76	-44.6	-59.3	3.8	1.49e+00	0	57	104	814743552	59	21132
2026-01-04 08:24:49.14	353.23	4.58	-44.6	-59.3	3.8	1.49e+00	0	57	104	814743552	59	21102
2026-01-04 08:24:52.17	352.99	4.40	-44.6	-59.3	3.8	1.49e+00	0	57	104	814743552	59	21192
2026-01-04 08:24:55.20	352.75	4.22	-44.7	-59.3	3.8	1.49e+00	0	57	104	814743552	59	21124
2026-01-04 08:24:58.24	352.52	4.04	-44.7	-59.3	3.8	1.49e+00	0	57	104	814743552	59	21147
2026-01-04 08:25:01.27	352.29	3.87	-44.7	-59.3	3.8	1.49e+00	0	57	104	814743552	59	21169
2026-01-04 08:25:04.30	352.06	3.69	-44.7	-59.3	3.8	1.49e+00	0	57	104	814743552	59	21148
2026-01-04 08:25:07.34	351.83	3.52	-44.6	-59.3	3.8	1.49e+00	0	57	104	814743552	59	21191
2026-01-04 08:25:10.37	351.61	3.34	-44.7	-59.3	3.8	1.49e+00	0	57	104	814743552	59	21118
2026-01-04 08:25:13.40	351.39	3.17	-44.7	-59.3	3.8	1.49e+00	0	57	104	814743552	59	21176
2026-01-04 08:25:16.43	351.17	3.00	-44.7	-59.3	3.8	1.49e+00	0	57	104	814743552	59	21104
2026-01-04 08:25:19.47	350.95	2.82	-44.7	-59.3	3.8	1.49e+00	0	57	104	814743552	59	21119
2026-01-04 08:25:22.50	350.74	2.65	-44.6	-59.3	3.8	1.49e+00	0	57	104	814743552	59	21118
2026-01-04 08:25:25.53	350.53	2.48	-44.7	-59.3	3.8	1.49e+00	0	57	104	814743552	59	21069
2026-01-04 08:25:28.57	350.32	2.31	-44.6	-59.3	3.8	1.49e+00	0	57	104	814743552	59	21107
2026-01-04 08:25:31.60	350.12	2.14	-44.6	-59.3	3.8	1.49e+00	0	57	104	814743552	59	21126
2026-01-04 08:25:34.63	349.91	1.97	-44.6	-59.3	3.8	1.49e+00	0	57	104	814743552	59	21103

#Closed at: 2026-01-04 08:25:35
#Recorded file [814 MB]: D:/lorett/data/31039_260104_111305.dat