passes_logs/2026/01/04/R2.0S_Moscow/R2.0S_Moscow__20260104_014147_NOAA_20_JPSS-1_rec.log

#Pass ID: 20260104_014147_NOAA 20 (JPSS-1)
#Satellite: NOAA 20 (JPSS-1)
#Configuration: NOAA 20
#almurnet v.1.7.20251203
#Start time: 2026-01-04 01:41:46

#Version: 2.2.20231116
#Station: R2.0S_Moscow
#Location: 37.707566 lon 55.798166 lat
#TLE: 1 43013U 17073A   26003.41800368  .00000169  00000+0  10117-3 0  9998
#TLE: 2 43013  98.7624 304.4804 0001884  56.1176 304.0179 14.19532918421092

#Time	Az	El	Level	Level2	SNR	BER	BlckErr	Temp	State	Recorded	gain1	gain2
2026-01-04 01:41:46.69	9.30	1.98	-39.2	-54.2	3.8	1.49e+00	0	47	0	0	50	19715
2026-01-04 01:41:49.72	9.07	2.14	-39.2	-54.2	3.8	1.49e+00	0	48	104	0	48	22082
2026-01-04 01:41:52.74	8.83	2.30	-39.1	-54.2	3.8	1.49e+00	0	48	104	0	48	22049
2026-01-04 01:41:55.78	8.59	2.46	-39.2	-54.2	3.8	1.49e+00	0	48	104	0	48	22097
2026-01-04 01:41:58.81	8.35	2.62	-39.2	-54.2	3.8	1.49e+00	0	48	104	0	48	22107
2026-01-04 01:42:01.84	8.11	2.78	-39.2	-54.2	3.8	1.49e+00	0	49	104	0	48	22013
2026-01-04 01:42:04.88	7.86	2.94	-39.2	-54.2	3.8	1.49e+00	0	49	104	0	48	22097
2026-01-04 01:42:07.91	7.61	3.11	-39.2	-54.2	3.8	1.49e+00	0	49	104	0	48	22036
2026-01-04 01:42:10.94	7.36	3.27	-39.2	-54.2	3.8	1.49e+00	0	49	104	0	48	22077
2026-01-04 01:42:13.98	7.10	3.43	-39.2	-54.2	3.8	1.49e+00	0	49	104	0	48	22040
2026-01-04 01:42:17.01	6.84	3.60	-39.2	-54.2	3.8	1.49e+00	0	49	104	0	48	22055
2026-01-04 01:42:20.04	6.58	3.76	-39.2	-54.2	3.8	1.49e+00	0	50	104	0	48	22120
2026-01-04 01:42:23.07	6.32	3.93	-39.2	-54.2	3.8	1.49e+00	0	50	104	0	48	22048
2026-01-04 01:42:26.11	6.05	4.09	-39.2	-54.2	3.8	1.49e+00	0	50	104	0	48	22057
2026-01-04 01:42:29.14	5.78	4.26	-39.1	-54.2	3.8	1.49e+00	0	50	104	0	48	22026
2026-01-04 01:42:32.17	5.50	4.42	-39.2	-54.2	3.8	1.49e+00	0	50	104	0	48	22125
2026-01-04 01:42:35.21	5.22	4.59	-39.1	-54.2	3.8	1.49e+00	0	50	104	0	48	22012
2026-01-04 01:42:38.24	4.94	4.76	-39.1	-54.2	3.8	1.49e+00	0	51	104	0	48	22071
2026-01-04 01:42:41.27	4.66	4.92	-39.2	-54.2	3.8	1.49e+00	0	51	104	0	48	22035
2026-01-04 01:42:44.31	4.37	5.09	-39.2	-54.1	3.8	1.49e+00	0	51	104	0	48	21997
2026-01-04 01:42:47.34	4.08	5.26	-39.2	-54.2	3.8	1.49e+00	0	51	104	0	48	22012
2026-01-04 01:42:50.37	3.79	5.43	-39.1	-54.2	3.8	1.49e+00	0	51	104	0	48	22066
2026-01-04 01:42:53.41	3.49	5.60	-39.2	-54.2	3.8	1.49e+00	0	51	104	0	48	22047
2026-01-04 01:42:56.44	3.18	5.77	-39.2	-54.2	3.8	1.49e+00	0	51	104	0	48	22062
2026-01-04 01:42:59.47	2.88	5.94	-39.1	-54.2	3.8	1.49e+00	0	52	104	0	48	22016
2026-01-04 01:43:02.50	2.57	6.11	-39.1	-54.1	3.8	1.49e+00	0	52	104	0	48	22002
2026-01-04 01:43:05.54	2.26	6.28	-39.2	-54.1	3.8	1.49e+00	0	52	104	0	48	21972
2026-01-04 01:43:08.57	1.94	6.45	-39.2	-54.2	3.8	1.49e+00	0	52	104	0	48	22021
2026-01-04 01:43:11.60	1.62	6.62	-39.1	-54.1	3.8	1.49e+00	0	52	104	0	48	22002
2026-01-04 01:43:14.64	1.29	6.79	-39.1	-54.1	3.8	1.49e+00	0	52	104	0	48	21932
2026-01-04 01:43:17.67	0.97	6.96	-39.1	-54.1	3.8	1.49e+00	0	52	104	0	48	21976
2026-01-04 01:43:20.70	0.63	7.13	-39.1	-54.1	3.8	1.49e+00	0	53	104	0	48	21970
2026-01-04 01:43:23.74	0.30	7.30	-39.1	-54.1	3.8	1.49e+00	0	53	104	0	48	21991
2026-01-04 01:43:26.77	359.96	7.47	-39.1	-54.1	3.8	1.49e+00	0	53	104	0	48	21918
2026-01-04 01:43:29.80	359.61	7.65	-39.1	-54.1	3.8	1.49e+00	0	53	104	0	48	21988
2026-01-04 01:43:32.83	359.26	7.82	-39.1	-54.1	3.8	1.49e+00	0	53	104	0	48	21980
2026-01-04 01:43:35.87	358.91	7.99	-39.1	-54.1	3.8	1.49e+00	0	53	104	0	48	21941
2026-01-04 01:43:38.90	358.55	8.16	-39.4	-54.2	3.8	1.49e+00	0	53	104	0	49	20955
2026-01-04 01:43:41.93	358.19	8.34	-39.2	-54.2	3.8	1.49e+00	0	53	104	0	48	22049
2026-01-04 01:43:44.96	357.82	8.51	-39.1	-54.2	3.8	1.49e+00	0	53	104	0	49	20952
2026-01-04 01:43:47.99	357.45	8.68	-38.7	-54.0	3.8	1.49e+00	0	53	104	0	48	21700
2026-01-04 01:43:51.02	357.08	8.85	-39.4	-54.2	3.8	1.49e+00	0	53	104	0	49	20808
2026-01-04 01:43:54.05	356.70	9.03	-39.4	-54.1	3.8	1.49e+00	0	53	104	0	49	20631
2026-01-04 01:43:57.08	356.31	9.20	-39.4	-54.2	3.8	1.49e+00	0	54	104	0	49	20899
2026-01-04 01:44:00.11	355.92	9.37	-39.4	-54.1	3.8	1.49e+00	0	54	104	0	49	20669
2026-01-04 01:44:03.14	355.53	9.54	-39.4	-54.2	3.8	1.49e+00	0	54	104	0	49	20898
2026-01-04 01:44:06.18	355.13	9.72	-39.3	-54.2	3.8	1.49e+00	0	54	104	0	50	19770
2026-01-04 01:44:09.20	354.73	9.89	-39.7	-54.3	3.8	1.49e+00	0	54	104	0	50	19963
2026-01-04 01:44:12.23	354.32	10.06	-39.7	-54.3	3.8	1.49e+00	0	54	104	0	50	19996
2026-01-04 01:44:15.26	353.90	10.23	-39.8	-54.4	3.8	1.49e+00	0	54	104	0	50	20227
2026-01-04 01:44:18.29	353.48	10.40	-39.9	-54.5	3.8	1.49e+00	0	54	104	0	50	20354
2026-01-04 01:44:21.31	353.06	10.57	-40.1	-54.7	3.8	1.49e+00	0	54	104	0	50	20863
2026-01-04 01:44:24.35	352.63	10.74	-39.8	-54.5	3.8	1.49e+00	0	54	104	0	51	19170
2026-01-04 01:44:27.38	352.20	10.91	-40.3	-54.9	3.8	1.49e+00	0	54	104	0	51	20271
2026-01-04 01:44:30.41	351.76	11.08	-40.2	-54.7	3.8	1.49e+00	0	54	104	0	51	19841
2026-01-04 01:44:33.43	351.32	11.25	-40.4	-54.9	3.8	1.49e+00	0	55	104	0	51	20239
2026-01-04 01:44:36.46	350.87	11.42	-40.3	-54.9	3.8	1.49e+00	0	54	104	0	51	20168
2026-01-04 01:44:39.49	350.41	11.59	-40.5	-55.1	3.8	1.49e+00	0	55	104	0	51	20746
2026-01-04 01:44:42.53	349.95	11.76	-40.5	-55.0	3.8	1.49e+00	0	55	104	0	51	20494
2026-01-04 01:44:45.55	349.49	11.92	-40.5	-55.0	3.8	1.49e+00	0	55	104	0	51	20415
2026-01-04 01:44:48.58	349.02	12.09	-40.3	-55.0	3.8	1.49e+00	0	55	104	0	51	20445
2026-01-04 01:44:51.61	348.54	12.25	-40.6	-55.3	3.8	1.49e+00	0	55	104	0	52	19936
2026-01-04 01:44:54.64	348.06	12.42	-40.8	-55.4	3.8	1.49e+00	0	55	104	0	52	20221
2026-01-04 01:44:57.67	347.57	12.58	-40.7	-55.3	3.8	1.49e+00	0	55	104	0	52	20032
2026-01-04 01:45:00.70	347.08	12.74	-40.7	-55.4	3.8	1.49e+00	0	55	104	0	52	20274
2026-01-04 01:45:03.73	346.58	12.90	-40.9	-55.5	3.8	1.49e+00	0	55	104	0	52	20458
2026-01-04 01:45:06.76	346.07	13.06	-40.8	-55.5	3.8	1.49e+00	0	55	104	0	52	20370
2026-01-04 01:45:09.80	345.56	13.22	-40.6	-55.4	3.8	1.49e+00	0	55	104	0	52	20151
2026-01-04 01:45:12.83	345.05	13.38	-40.4	-55.0	3.8	1.49e+00	0	55	104	0	52	19187
2026-01-04 01:45:15.86	344.53	13.54	-40.5	-55.0	3.8	1.49e+00	0	55	104	0	52	19384
2026-01-04 01:45:18.89	344.00	13.69	-40.3	-55.1	3.8	1.49e+00	0	55	104	0	52	19402
2026-01-04 01:45:21.92	343.47	13.85	-40.4	-55.0	3.8	1.49e+00	0	55	104	0	52	19197
2026-01-04 01:45:24.95	342.93	14.00	-40.4	-55.0	3.8	1.49e+00	0	55	104	0	52	19385
2026-01-04 01:45:27.99	342.39	14.15	-40.3	-55.0	3.8	1.49e+00	0	55	104	0	52	19350
2026-01-04 01:45:31.02	341.84	14.30	-40.4	-54.9	3.8	1.49e+00	0	55	104	0	52	19113
2026-01-04 01:45:34.04	341.28	14.45	-40.5	-55.0	3.8	1.49e+00	0	55	104	0	51	20526
2026-01-04 01:45:37.07	340.72	14.59	-40.3	-54.8	3.8	1.49e+00	0	55	104	0	51	20044
2026-01-04 01:45:40.10	340.16	14.74	-40.7	-55.0	3.8	1.49e+00	0	55	104	0	51	20406
2026-01-04 01:45:43.13	339.59	14.88	-40.7	-50.0	5.1	1.43e+00	0	55	0	0	52	10779
2026-01-04 01:45:46.16	339.01	15.02	-39.9	-44.7	10.7	1.11e-02	0	55	0	5242880	51	6233
2026-01-04 01:45:49.18	338.43	15.15	-38.8	-42.0	14.2	1.50e-06	0	55	0	11534336	49	5117
2026-01-04 01:45:52.21	337.84	15.29	-39.6	-43.0	13.6	3.80e-06	0	55	0	16777216	49	5760
2026-01-04 01:45:55.24	337.25	15.42	-39.7	-42.8	14.0	1.50e-06	0	55	0	23068672	50	5328
2026-01-04 01:45:58.27	336.65	15.55	-40.0	-43.1	14.2	4.50e-06	0	55	0	28311552	50	5479
2026-01-04 01:46:01.30	336.05	15.68	-40.0	-42.8	14.6	0.00e+00	0	55	0	33554432	51	5033
2026-01-04 01:46:04.33	335.44	15.80	-39.8	-42.5	15.1	0.00e+00	0	55	0	39845888	51	4833
2026-01-04 01:46:07.36	334.82	15.93	-39.9	-42.6	15.0	0.00e+00	0	56	0	45088768	51	4920
2026-01-04 01:46:10.39	334.20	16.04	-39.9	-42.6	15.1	0.00e+00	0	55	0	51380224	51	4924
2026-01-04 01:46:13.42	333.58	16.16	-39.7	-42.2	15.5	0.00e+00	0	56	0	56623104	51	4700
2026-01-04 01:46:16.45	332.95	16.28	-39.6	-42.1	15.6	0.00e+00	0	56	0	62914560	51	4633
2026-01-04 01:46:19.48	332.32	16.39	-39.6	-42.0	15.8	0.00e+00	0	55	0	68157440	51	4577
2026-01-04 01:46:22.50	331.68	16.49	-39.5	-41.9	16.0	0.00e+00	0	55	0	73400320	50	4776
2026-01-04 01:46:25.53	331.04	16.60	-39.4	-41.8	16.1	0.00e+00	0	55	0	79691776	50	4727
2026-01-04 01:46:28.56	330.39	16.70	-39.4	-41.7	16.2	0.00e+00	0	56	0	84934656	50	4698
2026-01-04 01:46:31.59	329.74	16.80	-39.4	-41.8	16.2	0.00e+00	0	56	0	91226112	50	4709
2026-01-04 01:46:34.62	329.08	16.89	-39.4	-41.7	16.2	0.00e+00	0	56	0	96468992	50	4698
2026-01-04 01:46:37.65	328.42	16.98	-39.4	-41.8	16.1	0.00e+00	0	56	0	101711872	50	4731
2026-01-04 01:46:40.68	327.76	17.07	-39.6	-42.0	15.9	0.00e+00	0	55	0	108003328	50	4863
2026-01-04 01:46:43.71	327.09	17.15	-39.7	-42.2	15.8	0.00e+00	0	56	0	113246208	50	4951
2026-01-04 01:46:46.73	326.42	17.23	-39.6	-42.0	16.0	0.00e+00	0	56	0	119537664	50	4836
2026-01-04 01:46:49.76	325.74	17.31	-39.6	-42.0	16.0	0.00e+00	0	56	0	124780544	50	4851
2026-01-04 01:46:52.79	325.06	17.38	-39.7	-42.1	15.8	0.00e+00	0	56	0	130023424	50	4914
2026-01-04 01:46:55.82	324.38	17.45	-39.7	-42.2	15.8	0.00e+00	0	56	0	136314880	50	4934
2026-01-04 01:46:58.84	323.70	17.52	-39.9	-42.4	15.6	0.00e+00	0	56	0	141557760	50	5050
2026-01-04 01:47:01.87	323.01	17.58	-40.2	-42.9	15.1	0.00e+00	0	56	0	147849216	50	5369
2026-01-04 01:47:04.90	322.32	17.63	-40.2	-42.9	15.1	0.00e+00	0	56	0	153092096	51	5058
2026-01-04 01:47:07.93	321.63	17.68	-40.2	-42.9	15.1	7.00e-07	0	56	0	159383552	51	5046
2026-01-04 01:47:10.96	320.93	17.73	-40.1	-42.8	15.2	0.00e+00	0	56	0	164626432	51	5010
2026-01-04 01:47:13.99	320.23	17.78	-40.2	-42.9	15.1	0.00e+00	0	56	0	169869312	51	5048
2026-01-04 01:47:17.01	319.54	17.82	-40.4	-43.2	14.8	0.00e+00	0	56	0	176160768	51	5264
2026-01-04 01:47:20.04	318.83	17.85	-40.6	-43.5	14.5	0.00e+00	0	56	0	181403648	51	5404
2026-01-04 01:47:23.07	318.13	17.88	-40.6	-43.5	14.5	7.00e-07	0	56	0	187695104	51	5419
2026-01-04 01:47:26.10	317.43	17.91	-40.6	-43.4	14.6	0.00e+00	0	56	0	192937984	51	5393
2026-01-04 01:47:29.13	316.72	17.93	-40.5	-43.4	14.7	7.00e-07	0	56	0	198180864	51	5355
2026-01-04 01:47:32.16	316.01	17.95	-40.4	-43.1	14.9	0.00e+00	0	56	0	204472320	51	5210
2026-01-04 01:47:35.19	315.31	17.96	-40.4	-43.2	14.8	0.00e+00	0	56	0	209715200	51	5272
2026-01-04 01:47:38.22	314.60	17.97	-40.5	-43.3	14.8	0.00e+00	0	56	0	216006656	51	5297
2026-01-04 01:47:41.25	313.89	17.97	-40.5	-43.3	14.8	1.50e-06	0	56	0	221249536	51	5300
2026-01-04 01:47:44.28	313.18	17.97	-40.5	-43.4	14.6	0.00e+00	0	56	0	227540992	51	5365
2026-01-04 01:47:47.30	312.48	17.96	-40.6	-43.4	14.5	0.00e+00	0	56	0	232783872	51	5398
2026-01-04 01:47:50.33	311.77	17.96	-40.6	-43.5	14.4	0.00e+00	0	56	0	238026752	52	5137
2026-01-04 01:47:53.36	311.06	17.94	-40.4	-43.2	14.8	1.50e-06	0	56	0	244318208	52	4936
2026-01-04 01:47:56.39	310.35	17.92	-40.3	-43.0	14.9	0.00e+00	0	56	0	249561088	52	4869
2026-01-04 01:47:59.42	309.65	17.90	-40.1	-42.8	15.2	0.00e+00	0	56	0	255852544	52	4707
2026-01-04 01:48:02.45	308.94	17.87	-40.2	-42.9	15.1	0.00e+00	0	56	0	261095424	52	4778
2026-01-04 01:48:05.48	308.24	17.84	-40.2	-42.8	15.1	0.00e+00	0	56	0	266338304	52	4756
2026-01-04 01:48:08.51	307.54	17.80	-40.1	-42.8	15.2	0.00e+00	0	56	0	272629760	52	4726
2026-01-04 01:48:11.54	306.84	17.76	-40.0	-42.6	15.5	0.00e+00	0	56	0	277872640	51	4879
2026-01-04 01:48:14.57	306.14	17.72	-39.8	-42.3	15.7	0.00e+00	0	56	0	284164096	51	4741
2026-01-04 01:48:17.60	305.45	17.67	-39.7	-42.2	15.8	0.00e+00	0	56	0	289406976	51	4676
2026-01-04 01:48:20.63	304.75	17.61	-39.7	-42.1	15.9	0.00e+00	0	56	0	295698432	51	4624
2026-01-04 01:48:23.66	304.06	17.56	-39.7	-42.1	15.9	0.00e+00	0	56	0	300941312	51	4624
2026-01-04 01:48:26.68	303.38	17.50	-39.6	-42.0	16.0	0.00e+00	0	56	0	306184192	51	4579
2026-01-04 01:48:29.71	302.69	17.43	-39.5	-41.8	16.2	0.00e+00	0	56	0	312475648	50	4755
2026-01-04 01:48:32.74	302.01	17.36	-39.5	-41.9	16.1	0.00e+00	0	56	0	317718528	50	4765
2026-01-04 01:48:35.77	301.33	17.29	-39.7	-42.1	15.9	0.00e+00	0	56	0	324009984	50	4900
2026-01-04 01:48:38.80	300.65	17.21	-39.7	-42.1	15.9	0.00e+00	0	56	0	329252864	50	4915
2026-01-04 01:48:41.82	299.98	17.13	-39.8	-42.3	15.7	0.00e+00	0	56	0	334495744	50	5020
2026-01-04 01:48:44.85	299.31	17.04	-40.0	-42.5	15.4	0.00e+00	0	56	0	340787200	50	5157
2026-01-04 01:48:47.88	298.65	16.95	-39.9	-42.5	15.5	0.00e+00	0	56	0	346030080	50	5101
2026-01-04 01:48:50.91	297.99	16.86	-39.9	-42.4	15.6	0.00e+00	0	56	0	352321536	50	5064
2026-01-04 01:48:53.94	297.33	16.77	-40.0	-42.7	15.2	0.00e+00	0	56	0	357564416	50	5234
2026-01-04 01:48:56.97	296.68	16.67	-40.2	-42.9	15.0	0.00e+00	0	56	0	363855872	50	5386
2026-01-04 01:48:59.99	296.04	16.56	-40.3	-43.1	14.9	0.00e+00	0	56	0	369098752	51	5162
2026-01-04 01:49:03.02	295.39	16.46	-40.3	-43.1	14.8	0.00e+00	0	56	0	374341632	51	5171
2026-01-04 01:49:06.05	294.75	16.35	-40.2	-42.9	14.9	0.00e+00	0	56	0	380633088	51	5084
2026-01-04 01:49:09.08	294.12	16.24	-40.0	-42.6	15.3	0.00e+00	0	56	0	385875968	51	4892
2026-01-04 01:49:12.11	293.49	16.12	-39.9	-42.5	15.3	0.00e+00	0	56	0	392167424	51	4870
2026-01-04 01:49:15.14	292.87	16.00	-40.0	-42.7	15.1	0.00e+00	0	56	0	397410304	51	4977
2026-01-04 01:49:18.17	292.25	15.88	-40.1	-42.9	14.9	7.00e-07	0	56	0	402653184	51	5060
2026-01-04 01:49:21.20	291.63	15.76	-40.0	-42.7	15.2	0.00e+00	0	56	0	408944640	51	4934
2026-01-04 01:49:24.22	291.02	15.63	-39.9	-42.6	15.2	0.00e+00	0	56	0	414187520	51	4894
2026-01-04 01:49:27.25	290.42	15.51	-40.1	-42.9	14.9	0.00e+00	0	56	0	420478976	51	5057
2026-01-04 01:49:30.28	289.82	15.37	-40.1	-42.9	14.9	0.00e+00	0	56	0	425721856	51	5046
2026-01-04 01:49:33.31	289.23	15.24	-40.1	-42.9	14.8	0.00e+00	0	56	0	432013312	51	5092
2026-01-04 01:49:36.34	288.64	15.10	-40.1	-42.8	14.9	0.00e+00	0	56	0	437256192	51	5028
2026-01-04 01:49:39.36	288.06	14.97	-40.2	-43.1	14.6	0.00e+00	0	56	0	442499072	51	5203
2026-01-04 01:49:42.39	287.48	14.83	-40.4	-43.4	14.2	0.00e+00	0	56	0	448790528	51	5370
2026-01-04 01:49:45.42	286.91	14.68	-40.3	-43.3	14.3	1.50e-06	0	56	0	454033408	51	5297
2026-01-04 01:49:48.45	286.34	14.54	-40.3	-43.3	14.3	0.00e+00	0	56	0	460324864	51	5331
2026-01-04 01:49:51.48	285.78	14.39	-40.3	-43.3	14.3	0.00e+00	0	56	0	465567744	51	5339
2026-01-04 01:49:54.51	285.23	14.25	-40.5	-43.6	14.0	7.00e-07	0	56	0	470810624	51	5469
2026-01-04 01:49:57.54	284.68	14.10	-40.6	-43.9	13.7	5.30e-06	0	56	0	477102080	51	5677
2026-01-04 01:50:00.57	284.14	13.94	-40.7	-43.9	13.7	8.30e-06	0	56	0	482344960	51	5713
2026-01-04 01:50:03.59	283.60	13.79	-40.7	-44.0	13.6	7.60e-06	0	56	0	488636416	51	5724
2026-01-04 01:50:06.63	283.06	13.64	-40.7	-44.1	13.4	1.90e-05	0	57	0	493879296	52	5506
2026-01-04 01:50:09.65	282.54	13.48	-41.0	-44.7	12.8	6.56e-05	0	56	0	500170752	52	5874
2026-01-04 01:50:12.68	282.02	13.32	-41.1	-44.7	12.8	7.17e-05	0	56	0	505413632	52	5898
2026-01-04 01:50:15.71	281.50	13.17	-40.8	-44.1	13.4	1.98e-05	0	56	0	510656512	52	5505
2026-01-04 01:50:18.74	280.99	13.01	-40.9	-44.3	13.2	2.36e-05	0	56	0	516947968	52	5647
2026-01-04 01:50:21.76	280.49	12.85	-41.2	-45.1	12.3	1.46e-04	0	56	0	522190848	53	5822
2026-01-04 01:50:24.79	279.99	12.68	-41.4	-45.4	12.0	3.06e-04	0	56	0	528482304	53	6002
2026-01-04 01:50:27.82	279.49	12.52	-41.3	-45.2	12.1	2.56e-04	0	56	0	533725184	53	5909
2026-01-04 01:50:30.85	279.01	12.36	-41.2	-45.2	12.1	2.81e-04	0	56	0	538968064	53	5868
2026-01-04 01:50:33.87	278.53	12.19	-41.2	-45.1	12.1	2.62e-04	0	56	0	545259520	53	5846
2026-01-04 01:50:36.91	278.05	12.02	-41.2	-45.3	11.9	3.59e-04	0	56	0	550502400	53	5985
2026-01-04 01:50:39.94	277.57	11.86	-41.2	-45.2	11.9	3.77e-04	0	56	0	556793856	53	5907
2026-01-04 01:50:42.96	277.11	11.69	-40.9	-44.6	12.5	1.51e-04	0	56	0	562036736	53	5526
2026-01-04 01:50:45.99	276.65	11.52	-40.9	-44.8	12.3	1.36e-04	0	56	0	567279616	53	5616
2026-01-04 01:50:49.02	276.19	11.35	-40.9	-44.8	12.2	2.36e-04	0	56	0	573571072	53	5652
2026-01-04 01:50:52.04	275.74	11.19	-40.8	-44.6	12.3	2.17e-04	0	56	0	578813952	53	5519
2026-01-04 01:50:55.07	275.30	11.02	-40.8	-44.7	12.2	1.80e-04	0	56	0	585105408	53	5573
2026-01-04 01:50:58.10	274.86	10.85	-40.7	-44.6	12.2	2.32e-04	0	56	0	590348288	53	5508
2026-01-04 01:51:01.13	274.42	10.67	-40.7	-44.8	11.8	4.33e-04	0	56	0	596639744	53	5627
2026-01-04 01:51:04.16	273.99	10.50	-40.8	-45.4	11.0	1.54e-03	0	56	0	601882624	53	6007
2026-01-04 01:51:07.19	273.57	10.33	-40.9	-46.0	10.1	5.27e-03	0	56	0	607125504	53	6426
2026-01-04 01:51:10.21	273.15	10.16	-40.9	-46.1	9.8	1.02e-02	0	56	0	613416960	53	6562
2026-01-04 01:51:13.25	272.73	9.99	-40.9	-46.5	9.2	1.74e-02	0	56	0	618659840	53	6819
2026-01-04 01:51:16.27	272.33	9.82	-40.9	-46.7	8.9	3.06e-02	0	56	0	624951296	53	7013
2026-01-04 01:51:19.30	271.92	9.64	-41.0	-46.9	8.7	3.26e-02	0	56	0	630194176	53	7164
2026-01-04 01:51:22.33	271.52	9.47	-40.9	-46.8	8.8	2.91e-02	0	57	0	635437056	53	7045
2026-01-04 01:51:25.36	271.13	9.30	-40.8	-46.5	8.9	2.64e-02	0	56	0	641728512	53	6854
2026-01-04 01:51:28.39	270.74	9.13	-40.7	-46.6	8.8	3.33e-02	0	56	0	646971392	53	6893
2026-01-04 01:51:31.42	270.35	8.95	-40.7	-46.8	8.5	3.77e-02	0	56	0	653262848	53	7057
2026-01-04 01:51:34.45	269.97	8.78	-40.8	-47.6	7.5	8.74e-02	0	56	0	658505728	53	7778
2026-01-04 01:51:37.48	269.59	8.61	-40.8	-48.6	6.4	2.21e-01	0	56	0	664797184	53	8723
2026-01-04 01:51:40.52	269.22	8.43	-40.8	-49.6	5.4	4.62e-01	0	57	0	670040064	53	9732
2026-01-04 01:51:43.55	268.85	8.26	-40.7	-50.7	4.7	8.37e-01	0	57	0	675282944	53	11060
2026-01-04 01:51:46.57	268.49	8.09	-40.6	-51.7	4.3	1.34e+00	0	57	0	679477248	53	12380
2026-01-04 01:51:49.60	268.13	7.92	-44.5	-59.1	3.8	1.49e+00	0	56	104	680525824	59	20587
2026-01-04 01:51:52.64	267.77	7.74	-44.9	-59.6	3.8	1.49e+00	0	57	104	680525824	60	20759
2026-01-04 01:51:55.67	267.42	7.57	-45.1	-59.8	3.8	1.49e+00	0	57	104	680525824	60	21157
2026-01-04 01:51:58.70	267.08	7.40	-45.0	-59.8	3.8	1.49e+00	0	57	104	680525824	60	21225
2026-01-04 01:52:01.73	266.73	7.23	-45.0	-59.8	3.8	1.49e+00	0	56	104	680525824	60	21157
2026-01-04 01:52:04.76	266.40	7.05	-45.0	-59.9	3.8	1.49e+00	0	57	104	680525824	60	21279
2026-01-04 01:52:07.80	266.06	6.88	-45.0	-59.8	3.8	1.49e+00	0	57	104	680525824	60	21073
2026-01-04 01:52:10.83	265.73	6.71	-45.0	-59.8	3.8	1.49e+00	0	57	104	680525824	60	21146
2026-01-04 01:52:13.86	265.40	6.54	-45.0	-59.8	3.8	1.49e+00	0	57	104	680525824	60	21111
2026-01-04 01:52:16.90	265.08	6.37	-44.9	-59.8	3.8	1.49e+00	0	57	104	680525824	60	21082
2026-01-04 01:52:19.93	264.76	6.20	-44.9	-59.8	3.8	1.49e+00	0	57	104	680525824	60	21078
2026-01-04 01:52:22.96	264.45	6.03	-44.9	-59.8	3.8	1.49e+00	0	57	104	680525824	60	21077
2026-01-04 01:52:26.00	264.14	5.86	-44.9	-59.8	3.8	1.49e+00	0	57	104	680525824	60	21076
2026-01-04 01:52:29.03	263.83	5.69	-44.9	-59.8	3.8	1.49e+00	0	57	104	680525824	60	21094
2026-01-04 01:52:32.06	263.53	5.52	-44.9	-59.8	3.8	1.49e+00	0	57	104	680525824	60	21051
2026-01-04 01:52:35.10	263.23	5.35	-44.9	-59.8	3.8	1.49e+00	0	57	104	680525824	60	21066
2026-01-04 01:52:38.13	262.93	5.18	-44.9	-59.8	3.8	1.49e+00	0	57	104	680525824	60	21026
2026-01-04 01:52:41.16	262.64	5.01	-44.9	-59.8	3.8	1.49e+00	0	57	104	680525824	60	21100
2026-01-04 01:52:44.20	262.35	4.84	-44.9	-59.8	3.8	1.49e+00	0	57	104	680525824	60	21061
2026-01-04 01:52:47.23	262.06	4.68	-44.9	-59.8	3.8	1.49e+00	0	57	104	680525824	60	21033
2026-01-04 01:52:50.26	261.78	4.51	-44.9	-59.8	3.8	1.49e+00	0	57	104	680525824	60	21043
2026-01-04 01:52:53.29	261.50	4.34	-44.9	-59.8	3.8	1.49e+00	0	57	104	680525824	60	21046
2026-01-04 01:52:56.33	261.22	4.18	-44.9	-59.8	3.8	1.49e+00	0	57	104	680525824	60	21032
2026-01-04 01:52:59.36	260.95	4.01	-44.9	-59.8	3.8	1.49e+00	0	57	104	680525824	60	21061
2026-01-04 01:53:02.39	260.68	3.85	-44.9	-59.8	3.8	1.49e+00	0	57	104	680525824	60	21046
2026-01-04 01:53:05.43	260.41	3.68	-44.9	-59.7	3.8	1.49e+00	0	57	104	680525824	60	20991
2026-01-04 01:53:08.46	260.15	3.52	-44.9	-59.7	3.8	1.49e+00	0	57	104	680525824	60	20989
2026-01-04 01:53:11.49	259.88	3.35	-44.9	-59.7	3.8	1.49e+00	0	57	104	680525824	60	20973
2026-01-04 01:53:14.53	259.63	3.19	-44.9	-59.8	3.8	1.49e+00	0	57	104	680525824	60	21026
2026-01-04 01:53:17.56	259.37	3.02	-44.9	-59.8	3.8	1.49e+00	0	57	104	680525824	60	21039
2026-01-04 01:53:20.59	259.12	2.86	-44.9	-59.7	3.8	1.49e+00	0	57	104	680525824	60	20977
2026-01-04 01:53:23.62	258.87	2.70	-44.9	-59.7	3.8	1.49e+00	0	57	104	680525824	60	20997
2026-01-04 01:53:26.66	258.62	2.54	-44.9	-59.8	3.8	1.49e+00	0	57	104	680525824	60	21031
2026-01-04 01:53:29.69	258.38	2.37	-44.9	-59.7	3.8	1.49e+00	0	57	104	680525824	60	20973
2026-01-04 01:53:32.72	258.14	2.21	-44.9	-59.7	3.8	1.49e+00	0	57	104	680525824	60	20962
2026-01-04 01:53:35.76	257.90	2.05	-44.9	-59.7	3.8	1.49e+00	0	57	104	680525824	60	20898
2026-01-04 01:53:38.79	257.66	1.89	-44.9	-59.7	3.8	1.49e+00	0	57	104	680525824	60	20964

#Closed at: 2026-01-04 01:53:39
#Recorded file [680 MB]: D:/lorett/data/31039_260104_044146.dat