passes_logs/2026/01/04/R2.0S_Moscow/R2.0S_Moscow__20260104_001704_AQUA_rec.log

#Pass ID: 20260104_001704_AQUA
#Satellite: AQUA
#Configuration: AQUA
#almurnet v.1.7.20251203
#Start time: 2026-01-04 00:17:05

#Version: 2.2.20231116
#Station: R2.0S_Moscow
#Location: 37.707566 lon 55.798166 lat
#TLE: 1 27424U 02022A   25365.92641127  .00002078  00000+0  42628-3 0  9999
#TLE: 2 27424  98.4058 327.1196 0001962  94.7781 340.6230 14.61783896258835

#Time	Az	El	Level	Level2	SNR	BER	BlckErr	Temp	State	Recorded	gain1	gain2
2026-01-04 00:17:05.93	23.41	2.06	-43.0	-63.0	3.8	7.44e-01	0	53	0	0	57	36166
2026-01-04 00:17:08.96	23.60	2.25	-42.9	-63.0	3.8	7.46e-01	0	54	104	0	56	38324
2026-01-04 00:17:11.99	23.78	2.43	-43.0	-63.0	3.8	7.45e-01	0	54	104	0	56	38290
2026-01-04 00:17:15.02	23.97	2.62	-43.0	-62.9	3.8	7.46e-01	0	54	104	0	56	38227
2026-01-04 00:17:18.05	24.17	2.81	-43.0	-63.0	3.8	7.45e-01	0	54	104	0	56	38406
2026-01-04 00:17:21.09	24.36	3.00	-43.0	-63.0	3.8	7.45e-01	0	54	104	0	56	38320
2026-01-04 00:17:24.12	24.56	3.19	-43.0	-63.0	3.8	7.43e-01	0	54	104	0	56	38327
2026-01-04 00:17:27.15	24.76	3.38	-43.0	-63.0	3.8	7.46e-01	0	54	104	0	56	38270
2026-01-04 00:17:30.19	24.97	3.57	-43.0	-63.0	3.8	7.46e-01	0	54	104	0	56	38324
2026-01-04 00:17:33.22	25.17	3.76	-43.0	-63.0	3.8	7.47e-01	0	54	104	0	56	38255
2026-01-04 00:17:36.25	25.38	3.96	-42.9	-63.0	3.8	7.45e-01	0	54	104	0	56	38266
2026-01-04 00:17:39.29	25.59	4.16	-43.0	-62.9	3.8	7.48e-01	0	54	104	0	56	38186
2026-01-04 00:17:42.32	25.81	4.36	-42.9	-62.9	3.8	7.49e-01	0	54	104	0	56	38191
2026-01-04 00:17:45.35	26.03	4.55	-43.0	-63.0	3.8	7.42e-01	0	54	104	0	56	38308
2026-01-04 00:17:48.38	26.25	4.76	-43.0	-62.9	3.8	7.41e-01	0	55	104	0	56	38185
2026-01-04 00:17:51.42	26.47	4.96	-43.0	-62.9	3.8	7.47e-01	0	54	104	0	56	38167
2026-01-04 00:17:54.45	26.70	5.16	-43.0	-62.9	3.8	7.45e-01	0	55	104	0	56	38068
2026-01-04 00:17:57.48	26.93	5.37	-43.0	-62.9	3.8	7.45e-01	0	55	104	0	56	38168
2026-01-04 00:18:00.52	27.16	5.57	-43.0	-62.9	3.8	7.41e-01	0	55	104	0	56	38175
2026-01-04 00:18:03.55	27.40	5.78	-43.0	-62.9	3.8	7.44e-01	0	55	104	0	56	37870
2026-01-04 00:18:06.58	27.64	5.99	-42.9	-62.9	3.8	7.45e-01	0	55	104	0	56	37852
2026-01-04 00:18:09.61	27.89	6.20	-42.9	-62.7	3.8	7.43e-01	0	55	104	0	56	37352
2026-01-04 00:18:12.65	28.14	6.41	-43.0	-61.3	3.8	7.42e-01	0	55	104	0	56	31740
2026-01-04 00:18:15.68	28.39	6.63	-42.9	-60.3	4.0	7.35e-01	0	55	104	0	56	28121
2026-01-04 00:18:18.72	28.64	6.84	-42.9	-60.4	3.8	7.42e-01	0	55	104	0	56	28366
2026-01-04 00:18:21.75	28.90	7.06	-42.9	-59.3	4.2	7.31e-01	0	55	104	0	56	25108
2026-01-04 00:18:24.78	29.17	7.28	-42.7	-54.6	6.9	6.62e-01	91	55	0	524288	56	14705
2026-01-04 00:18:27.82	29.44	7.50	-41.0	-46.5	15.3	6.01e-01	0	55	0	6291456	54	6433
2026-01-04 00:18:30.85	29.71	7.72	-40.0	-44.1	17.7	6.01e-01	0	55	0	12058624	52	5519
2026-01-04 00:18:33.88	29.98	7.95	-40.0	-43.9	18.0	6.03e-01	0	55	0	17825792	51	5694
2026-01-04 00:18:36.91	30.27	8.17	-41.3	-53.8	7.7	6.63e-01	91	56	0	23592960	53	15866
2026-01-04 00:18:39.94	30.55	8.40	-41.5	-47.1	15.2	6.03e-01	0	55	0	28835840	53	7306
2026-01-04 00:18:42.97	30.84	8.63	-39.9	-43.5	18.8	6.01e-01	0	55	0	34603008	51	5419
2026-01-04 00:18:46.00	31.14	8.86	-39.9	-43.4	18.9	6.03e-01	0	55	0	40370176	51	5358
2026-01-04 00:18:49.03	31.44	9.09	-39.9	-43.3	19.2	5.99e-01	0	56	0	45613056	51	5292
2026-01-04 00:18:52.06	31.74	9.33	-39.8	-42.9	19.7	6.00e-01	0	56	0	51380224	51	5050
2026-01-04 00:18:55.09	32.05	9.56	-40.0	-43.0	19.7	6.00e-01	0	56	0	57147392	51	5115
2026-01-04 00:18:58.12	32.37	9.80	-39.8	-42.8	19.9	6.03e-01	0	56	0	62914560	51	5025
2026-01-04 00:19:01.15	32.69	10.04	-39.7	-42.6	20.1	6.00e-01	0	56	0	68681728	51	4902
2026-01-04 00:19:04.18	33.01	10.28	-39.7	-42.5	20.3	6.02e-01	0	56	0	74448896	51	4847
2026-01-04 00:19:07.21	33.34	10.53	-39.8	-42.5	20.4	6.01e-01	0	56	0	79691776	51	4831
2026-01-04 00:19:10.23	33.68	10.77	-39.8	-42.4	20.5	6.00e-01	0	56	0	85458944	51	4773
2026-01-04 00:19:13.27	34.02	11.02	-39.7	-42.3	20.6	6.01e-01	0	56	0	91226112	51	4739
2026-01-04 00:19:16.29	34.37	11.27	-39.7	-42.2	20.8	6.02e-01	0	56	0	96993280	51	4674
2026-01-04 00:19:19.33	34.73	11.52	-39.7	-42.3	20.7	6.03e-01	0	56	0	102760448	51	4713
2026-01-04 00:19:22.36	35.09	11.77	-39.6	-42.1	20.9	5.99e-01	0	56	0	108527616	51	4638
2026-01-04 00:19:25.38	35.46	12.03	-39.6	-42.0	21.0	6.01e-01	0	56	0	114294784	51	4585
2026-01-04 00:19:28.41	35.83	12.28	-39.6	-42.0	21.0	6.01e-01	0	56	0	119537664	51	4596
2026-01-04 00:19:31.44	36.22	12.54	-39.6	-42.0	21.1	6.01e-01	0	56	0	125304832	51	4597
2026-01-04 00:19:34.47	36.61	12.81	-39.6	-42.1	21.0	6.02e-01	0	56	0	131072000	51	4602
2026-01-04 00:19:37.50	37.00	13.07	-39.6	-42.0	21.2	6.00e-01	0	56	0	136839168	51	4553
2026-01-04 00:19:40.53	37.41	13.33	-39.6	-42.0	21.2	6.01e-01	0	56	0	142606336	51	4570
2026-01-04 00:19:43.56	37.82	13.60	-39.5	-41.9	21.3	6.02e-01	0	56	0	147849216	51	4496
2026-01-04 00:19:46.60	38.24	13.87	-39.6	-41.9	21.3	6.02e-01	0	56	0	153616384	51	4527
2026-01-04 00:19:49.62	38.67	14.14	-39.5	-41.9	21.3	5.99e-01	0	56	0	159383552	51	4496
2026-01-04 00:19:52.65	39.10	14.42	-39.4	-41.7	21.5	6.03e-01	0	56	0	165150720	50	4693
2026-01-04 00:19:55.68	39.55	14.69	-39.4	-41.7	21.5	6.01e-01	0	56	0	170917888	50	4703
2026-01-04 00:19:58.71	40.00	14.97	-39.5	-41.8	21.5	6.02e-01	0	56	0	176685056	50	4737
2026-01-04 00:20:01.74	40.46	15.25	-39.3	-41.6	21.7	6.01e-01	0	56	0	182452224	50	4617
2026-01-04 00:20:04.76	40.93	15.53	-39.3	-41.6	21.7	6.01e-01	0	56	0	187695104	50	4625
2026-01-04 00:20:07.79	41.41	15.81	-39.3	-41.5	21.8	6.02e-01	0	56	0	193462272	50	4570
2026-01-04 00:20:10.82	41.90	16.10	-39.3	-41.6	21.8	6.00e-01	0	56	0	199229440	50	4611
2026-01-04 00:20:13.85	42.40	16.38	-39.3	-41.5	21.8	6.01e-01	0	56	0	204996608	50	4565
2026-01-04 00:20:16.87	42.91	16.67	-39.2	-41.4	22.0	6.01e-01	0	56	0	210763776	50	4497
2026-01-04 00:20:19.90	43.43	16.96	-39.1	-41.3	22.1	6.02e-01	0	56	0	216006656	50	4453
2026-01-04 00:20:22.93	43.96	17.25	-39.2	-41.3	22.1	6.02e-01	0	56	0	221773824	50	4480
2026-01-04 00:20:25.96	44.50	17.55	-39.3	-41.5	21.9	5.99e-01	0	56	0	227540992	50	4551
2026-01-04 00:20:28.99	45.05	17.84	-39.2	-41.4	22.0	6.01e-01	0	56	0	233308160	50	4516
2026-01-04 00:20:32.01	45.61	18.14	-39.2	-41.3	22.0	5.99e-01	0	56	0	239075328	50	4491
2026-01-04 00:20:35.05	46.19	18.44	-39.2	-41.3	22.2	6.03e-01	0	56	0	244842496	50	4464
2026-01-04 00:20:38.08	46.77	18.74	-39.3	-41.5	22.0	6.07e-01	0	56	0	250085376	50	4582
2026-01-04 00:20:41.10	47.37	19.04	-39.4	-41.5	22.0	6.00e-01	0	56	0	255852544	50	4589
2026-01-04 00:20:44.13	47.98	19.34	-39.2	-41.4	22.1	6.02e-01	0	56	0	261619712	50	4499
2026-01-04 00:20:47.16	48.60	19.64	-39.4	-41.5	21.9	6.02e-01	0	56	0	267386880	50	4590
2026-01-04 00:20:50.18	49.24	19.94	-39.3	-41.5	22.0	6.00e-01	0	56	0	273154048	50	4584
2026-01-04 00:20:53.21	49.89	20.25	-39.2	-41.3	22.1	6.01e-01	0	56	0	278921216	50	4490
2026-01-04 00:20:56.24	50.55	20.55	-39.3	-41.5	22.1	6.03e-01	0	56	0	284164096	50	4552
2026-01-04 00:20:59.27	51.23	20.86	-39.4	-41.6	21.9	6.02e-01	0	56	0	289931264	50	4616
2026-01-04 00:21:02.30	51.92	21.16	-39.3	-41.5	22.0	6.02e-01	0	56	0	295698432	50	4558
2026-01-04 00:21:05.33	52.62	21.47	-39.3	-41.5	22.0	6.03e-01	0	56	0	301465600	50	4561
2026-01-04 00:21:08.35	53.34	21.77	-39.4	-41.6	21.9	6.02e-01	0	56	0	307232768	50	4632
2026-01-04 00:21:11.38	54.08	22.08	-39.4	-41.7	21.9	6.03e-01	0	56	0	312475648	50	4652
2026-01-04 00:21:14.41	54.83	22.38	-39.4	-41.5	22.0	6.01e-01	0	56	0	318242816	50	4592
2026-01-04 00:21:17.44	55.59	22.68	-39.4	-41.6	21.9	6.01e-01	0	56	0	324009984	50	4632
2026-01-04 00:21:20.47	56.37	22.98	-39.5	-41.7	21.9	6.00e-01	0	56	0	329777152	50	4681
2026-01-04 00:21:23.49	57.16	23.28	-39.5	-41.7	21.9	6.00e-01	0	57	0	335544320	50	4671
2026-01-04 00:21:26.53	57.98	23.58	-39.6	-41.8	21.8	6.00e-01	0	56	0	341311488	50	4743
2026-01-04 00:21:29.56	58.80	23.88	-39.6	-41.9	21.7	6.01e-01	0	56	0	347078656	50	4781
2026-01-04 00:21:32.58	59.65	24.17	-39.6	-41.9	21.7	6.02e-01	0	56	0	352321536	50	4772
2026-01-04 00:21:35.61	60.51	24.46	-39.7	-41.9	21.7	6.01e-01	0	56	0	358088704	50	4781
2026-01-04 00:21:38.65	61.39	24.75	-39.6	-41.8	21.8	6.00e-01	0	56	0	363855872	50	4712
2026-01-04 00:21:41.67	62.28	25.04	-39.7	-42.0	21.6	6.01e-01	0	56	0	369623040	50	4816
2026-01-04 00:21:44.70	63.19	25.32	-39.6	-41.9	21.7	6.01e-01	0	56	0	375390208	50	4761
2026-01-04 00:21:47.73	64.11	25.59	-39.6	-41.8	21.8	6.01e-01	0	56	0	380633088	50	4745
2026-01-04 00:21:50.76	65.06	25.87	-39.5	-41.6	22.0	6.00e-01	0	56	0	386400256	50	4641
2026-01-04 00:21:53.79	66.02	26.13	-39.7	-41.9	21.7	6.02e-01	0	56	0	392167424	50	4770
2026-01-04 00:21:56.82	66.99	26.40	-39.7	-41.9	21.7	6.03e-01	0	56	0	397934592	50	4812
2026-01-04 00:21:59.84	67.98	26.65	-39.7	-42.0	21.7	6.02e-01	0	57	0	403701760	50	4816
2026-01-04 00:22:02.87	68.99	26.90	-39.7	-41.9	21.8	6.02e-01	0	56	0	409468928	50	4770
2026-01-04 00:22:05.90	70.02	27.14	-39.5	-41.7	22.0	6.02e-01	0	56	0	415236096	50	4672
2026-01-04 00:22:08.93	71.06	27.38	-39.5	-41.7	21.9	6.03e-01	0	56	0	420478976	50	4691
2026-01-04 00:22:11.96	72.11	27.61	-39.6	-41.7	21.9	6.02e-01	0	57	0	426246144	50	4690
2026-01-04 00:22:14.99	73.19	27.83	-39.6	-41.7	21.9	6.02e-01	0	56	0	432013312	50	4693
2026-01-04 00:22:18.01	74.27	28.04	-39.4	-41.6	22.0	6.02e-01	0	56	0	437780480	50	4616
2026-01-04 00:22:21.04	75.37	28.24	-39.5	-41.6	22.0	6.04e-01	0	57	0	443547648	50	4626
2026-01-04 00:22:24.07	76.49	28.43	-39.6	-41.8	21.9	6.03e-01	0	56	0	448790528	50	4706
2026-01-04 00:22:27.10	77.62	28.61	-39.4	-41.5	22.2	6.02e-01	0	57	0	454557696	50	4574
2026-01-04 00:22:30.13	78.76	28.78	-39.4	-41.6	22.1	5.99e-01	0	56	0	460324864	50	4610
2026-01-04 00:22:33.16	79.92	28.94	-39.3	-41.4	22.3	5.99e-01	0	57	0	466092032	50	4499
2026-01-04 00:22:36.19	81.08	29.09	-39.3	-41.4	22.3	6.04e-01	0	57	0	471859200	50	4525
2026-01-04 00:22:39.22	82.26	29.23	-39.2	-41.2	22.5	6.01e-01	0	56	0	477626368	50	4407
2026-01-04 00:22:42.25	83.45	29.36	-39.3	-41.4	22.4	6.03e-01	0	56	0	483393536	50	4497
2026-01-04 00:22:45.28	84.64	29.47	-39.2	-41.2	22.4	6.03e-01	0	57	0	488636416	50	4437
2026-01-04 00:22:48.31	85.85	29.57	-39.2	-41.3	22.5	6.02e-01	0	57	0	494403584	50	4443
2026-01-04 00:22:51.34	87.06	29.66	-39.1	-41.1	22.6	6.01e-01	0	57	0	500170752	50	4381
2026-01-04 00:22:54.37	88.27	29.73	-39.2	-41.2	22.6	5.99e-01	0	57	0	505937920	50	4403
2026-01-04 00:22:57.39	89.49	29.79	-39.0	-41.0	22.8	6.01e-01	0	57	0	511705088	50	4296
2026-01-04 00:23:00.42	90.72	29.84	-39.0	-41.0	22.8	6.03e-01	0	57	0	516947968	49	4551
2026-01-04 00:23:03.45	91.95	29.87	-39.0	-41.0	22.8	6.04e-01	0	56	0	522715136	49	4560
2026-01-04 00:23:06.48	93.19	29.89	-39.0	-41.0	22.7	6.02e-01	0	56	0	528482304	49	4566
2026-01-04 00:23:09.51	94.42	29.90	-39.0	-40.9	22.8	6.04e-01	0	57	0	534249472	49	4531
2026-01-04 00:23:12.54	95.65	29.89	-39.1	-41.0	22.7	6.03e-01	0	57	0	540016640	49	4598
2026-01-04 00:23:15.57	96.89	29.87	-39.0	-40.9	22.8	6.01e-01	0	57	0	545783808	49	4538
2026-01-04 00:23:18.60	98.12	29.83	-39.0	-40.9	22.8	6.01e-01	0	56	0	551550976	49	4538
2026-01-04 00:23:21.62	99.34	29.78	-38.9	-40.9	22.9	6.03e-01	0	56	0	556793856	49	4502
2026-01-04 00:23:24.65	100.56	29.72	-38.8	-40.8	23.0	6.02e-01	0	56	0	562561024	49	4448
2026-01-04 00:23:27.68	101.78	29.64	-39.0	-40.9	22.8	6.00e-01	0	57	0	568328192	49	4533
2026-01-04 00:23:30.71	102.99	29.55	-38.9	-40.8	22.9	6.01e-01	0	57	0	574095360	49	4481
2026-01-04 00:23:33.74	104.20	29.44	-39.0	-40.9	22.8	6.02e-01	0	56	0	579862528	49	4530
2026-01-04 00:23:36.77	105.39	29.33	-38.9	-40.9	22.9	6.02e-01	0	57	0	585105408	49	4520
2026-01-04 00:23:39.80	106.58	29.20	-38.8	-40.8	23.0	6.01e-01	0	57	0	590872576	49	4447
2026-01-04 00:23:42.83	107.76	29.06	-38.9	-40.8	22.9	6.01e-01	0	57	0	596639744	49	4485
2026-01-04 00:23:45.86	108.92	28.91	-39.1	-41.1	22.6	6.00e-01	0	57	0	602406912	49	4620
2026-01-04 00:23:48.88	110.07	28.74	-39.0	-40.9	22.7	6.00e-01	0	57	0	608174080	49	4545
2026-01-04 00:23:51.91	111.22	28.57	-39.1	-41.1	22.6	5.99e-01	0	57	0	613941248	49	4636
2026-01-04 00:23:54.94	112.35	28.38	-38.9	-40.9	22.9	6.00e-01	0	57	0	619708416	49	4503
2026-01-04 00:23:57.97	113.46	28.19	-39.0	-40.9	22.8	6.03e-01	0	57	0	624951296	49	4536
2026-01-04 00:24:01.00	114.56	27.98	-39.0	-41.0	22.7	6.01e-01	0	56	0	630718464	49	4577
2026-01-04 00:24:04.03	115.65	27.77	-39.1	-41.1	22.6	6.00e-01	0	57	0	636485632	49	4633
2026-01-04 00:24:07.06	116.72	27.55	-39.1	-41.1	22.6	6.02e-01	0	57	0	642252800	49	4601
2026-01-04 00:24:10.08	117.78	27.32	-39.2	-41.2	22.5	6.01e-01	0	57	0	648019968	49	4683
2026-01-04 00:24:13.11	118.82	27.08	-39.3	-41.3	22.4	6.03e-01	0	57	0	653262848	49	4738
2026-01-04 00:24:16.14	119.85	26.83	-39.4	-41.5	22.3	6.00e-01	0	56	0	659030016	49	4851
2026-01-04 00:24:19.17	120.85	26.58	-39.4	-41.5	22.3	6.03e-01	0	57	0	664797184	49	4819
2026-01-04 00:24:22.20	121.85	26.32	-39.3	-41.3	22.5	5.99e-01	0	57	0	670564352	49	4720
2026-01-04 00:24:25.23	122.82	26.06	-39.4	-41.5	22.3	6.01e-01	0	57	0	676331520	49	4848
2026-01-04 00:24:28.26	123.78	25.79	-39.5	-41.5	22.3	6.00e-01	0	57	0	682098688	49	4864
2026-01-04 00:24:31.28	124.72	25.51	-39.3	-41.4	22.4	6.02e-01	0	57	0	687865856	49	4779
2026-01-04 00:24:34.31	125.65	25.23	-39.5	-41.7	22.2	6.03e-01	0	57	0	693108736	49	4927
2026-01-04 00:24:37.34	126.56	24.95	-39.5	-41.6	22.2	6.03e-01	0	57	0	698875904	49	4876
2026-01-04 00:24:40.37	127.45	24.66	-39.6	-41.7	22.1	6.01e-01	0	56	0	704643072	49	4949
2026-01-04 00:24:43.40	128.33	24.37	-39.4	-41.5	22.3	6.02e-01	0	57	0	710410240	49	4823
2026-01-04 00:24:46.43	129.19	24.08	-39.6	-41.8	22.1	5.98e-01	0	57	0	716177408	49	4987
2026-01-04 00:24:49.46	130.03	23.78	-39.5	-41.6	22.2	6.01e-01	0	57	0	721420288	49	4880
2026-01-04 00:24:52.48	130.86	23.48	-39.6	-41.8	22.0	6.02e-01	0	57	0	727187456	49	5001
2026-01-04 00:24:55.51	131.67	23.18	-39.5	-41.6	22.2	6.01e-01	0	57	0	732954624	49	4897
2026-01-04 00:24:58.55	132.46	22.88	-39.6	-41.7	22.0	6.01e-01	0	57	0	738721792	49	4961
2026-01-04 00:25:01.58	133.24	22.57	-39.4	-41.5	22.2	6.02e-01	0	57	0	744488960	49	4818
2026-01-04 00:25:04.60	134.01	22.27	-39.6	-41.7	21.9	6.00e-01	0	57	0	750256128	49	4963
2026-01-04 00:25:07.63	134.75	21.96	-39.6	-41.7	21.9	6.00e-01	0	57	0	756023296	49	4968
2026-01-04 00:25:10.66	135.49	21.65	-39.4	-41.5	21.7	5.99e-01	0	57	0	761266176	49	4837
2026-01-04 00:25:13.69	136.21	21.35	-39.5	-41.6	22.1	6.01e-01	0	57	0	767033344	49	4909
2026-01-04 00:25:16.72	136.91	21.04	-39.5	-41.6	22.1	6.02e-01	0	56	0	772800512	49	4884
2026-01-04 00:25:19.75	137.60	20.73	-39.3	-41.4	22.3	6.01e-01	0	57	0	778567680	49	4789
2026-01-04 00:25:22.78	138.28	20.42	-39.4	-41.5	22.2	6.00e-01	0	56	0	784334848	49	4844
2026-01-04 00:25:25.81	138.94	20.12	-39.4	-41.5	22.2	6.00e-01	0	57	0	789577728	49	4824
2026-01-04 00:25:28.84	139.59	19.81	-39.3	-41.4	22.3	6.02e-01	0	57	0	795344896	49	4770
2026-01-04 00:25:31.87	140.22	19.50	-39.3	-41.4	22.3	5.99e-01	0	57	0	801112064	49	4775
2026-01-04 00:25:34.90	140.85	19.20	-39.4	-41.5	22.2	6.04e-01	0	57	0	806879232	49	4838
2026-01-04 00:25:37.93	141.46	18.90	-39.3	-41.4	22.2	6.01e-01	0	57	0	812646400	49	4783
2026-01-04 00:25:40.95	142.05	18.59	-39.2	-41.4	22.2	6.01e-01	0	57	0	818413568	49	4763
2026-01-04 00:25:43.99	142.64	18.29	-39.3	-41.4	22.2	6.00e-01	0	56	0	823656448	49	4775
2026-01-04 00:25:47.01	143.21	17.99	-39.2	-41.3	22.2	6.03e-01	0	57	0	829423616	49	4744
2026-01-04 00:25:50.04	143.77	17.69	-39.1	-41.2	22.3	6.02e-01	0	56	0	835190784	49	4704
2026-01-04 00:25:53.07	144.32	17.40	-39.2	-41.2	22.3	5.99e-01	0	57	0	840957952	49	4692
2026-01-04 00:25:56.10	144.86	17.10	-39.2	-41.3	22.3	5.99e-01	0	57	0	846725120	49	4707
2026-01-04 00:25:59.13	145.39	16.81	-39.1	-41.3	22.1	6.00e-01	0	56	0	852492288	49	4735
2026-01-04 00:26:02.16	145.91	16.51	-39.3	-41.4	22.1	6.01e-01	0	57	0	857735168	49	4786
2026-01-04 00:26:05.19	146.42	16.22	-39.2	-41.3	22.2	6.01e-01	0	56	0	863502336	49	4759
2026-01-04 00:26:08.22	146.92	15.93	-38.9	-41.3	22.2	6.02e-01	0	57	0	869269504	49	4710
2026-01-04 00:26:11.25	147.40	15.65	-39.2	-41.2	22.2	6.00e-01	0	56	0	875036672	49	4705
2026-01-04 00:26:14.28	147.88	15.36	-39.3	-41.4	22.0	6.01e-01	0	57	0	880803840	49	4785
2026-01-04 00:26:17.31	148.35	15.08	-39.3	-41.5	21.9	5.99e-01	0	56	0	886571008	49	4816
2026-01-04 00:26:20.34	148.81	14.80	-39.3	-41.4	21.9	6.02e-01	0	57	0	892338176	49	4811
2026-01-04 00:26:23.37	149.26	14.52	-39.3	-41.4	21.9	6.01e-01	0	57	0	897581056	49	4792
2026-01-04 00:26:26.40	149.71	14.24	-39.3	-41.5	21.8	6.01e-01	0	56	0	903348224	49	4859
2026-01-04 00:26:29.43	150.14	13.97	-39.4	-41.6	21.8	6.01e-01	0	57	0	909115392	49	4879
2026-01-04 00:26:32.46	150.56	13.69	-39.4	-41.6	21.7	6.01e-01	0	57	0	914882560	49	4920
2026-01-04 00:26:35.48	150.98	13.42	-39.4	-41.6	21.6	6.00e-01	0	57	0	920649728	49	4923
2026-01-04 00:26:38.51	151.39	13.15	-39.5	-41.7	21.6	6.00e-01	0	57	0	925892608	49	4963
2026-01-04 00:26:41.54	151.79	12.89	-39.4	-41.6	21.6	6.02e-01	0	57	0	931659776	49	4922
2026-01-04 00:26:44.57	152.19	12.62	-39.4	-41.7	21.5	6.02e-01	0	56	0	937426944	49	4951
2026-01-04 00:26:47.60	152.58	12.36	-39.4	-41.6	21.6	6.01e-01	0	56	0	943194112	49	4916
2026-01-04 00:26:50.63	152.96	12.10	-39.4	-41.7	21.5	6.02e-01	0	57	0	948961280	49	4932
2026-01-04 00:26:53.65	153.33	11.84	-39.4	-41.7	21.5	6.00e-01	0	57	0	954728448	49	4937
2026-01-04 00:26:56.68	153.69	11.58	-39.4	-41.7	21.4	6.04e-01	0	57	0	959971328	49	4981
2026-01-04 00:26:59.71	154.05	11.33	-39.6	-42.0	21.2	6.01e-01	0	57	0	965738496	49	5107
2026-01-04 00:27:02.74	154.41	11.08	-39.7	-42.1	21.0	6.00e-01	0	57	0	971505664	49	5203
2026-01-04 00:27:05.77	154.76	10.83	-39.8	-42.3	20.8	6.02e-01	0	57	0	977272832	50	4999
2026-01-04 00:27:08.80	155.10	10.58	-39.8	-42.3	20.7	6.03e-01	0	57	0	983040000	50	5034
2026-01-04 00:27:11.83	155.43	10.33	-39.8	-42.3	20.7	6.01e-01	0	57	0	988282880	50	5024
2026-01-04 00:27:14.86	155.76	10.08	-39.8	-42.3	20.7	6.01e-01	0	57	0	994050048	50	4992
2026-01-04 00:27:17.89	156.08	9.84	-39.9	-42.4	20.5	6.03e-01	0	57	0	999817216	50	5061
2026-01-04 00:27:20.92	156.40	9.60	-39.8	-42.3	20.5	6.02e-01	0	57	0	1005584384	50	5038
2026-01-04 00:27:23.95	156.72	9.36	-39.9	-42.5	20.3	6.01e-01	0	57	0	1011351552	50	5150
2026-01-04 00:27:26.98	157.02	9.12	-39.9	-42.5	20.3	6.02e-01	0	57	0	1017118720	50	5141
2026-01-04 00:27:30.01	157.32	8.89	-40.1	-42.8	19.9	6.00e-01	0	57	0	1022885888	50	5323
2026-01-04 00:27:33.04	157.62	8.65	-40.1	-42.8	19.9	5.99e-01	0	56	0	1028128768	50	5312
2026-01-04 00:27:36.07	157.91	8.42	-40.1	-42.9	19.9	6.02e-01	0	57	0	1033895936	50	5355
2026-01-04 00:27:39.10	158.20	8.19	-40.3	-43.2	19.4	6.00e-01	0	57	0	1039663104	51	5277
2026-01-04 00:27:42.13	158.48	7.96	-45.0	-62.7	3.8	7.45e-01	0	56	104	1044905984	60	29534
2026-01-04 00:27:45.17	158.76	7.74	-45.9	-64.6	3.8	7.46e-01	0	56	104	1044905984	62	32901
2026-01-04 00:27:48.20	159.04	7.51	-46.1	-64.9	3.8	7.45e-01	0	57	104	1044905984	62	33924
2026-01-04 00:27:51.23	159.31	7.29	-46.1	-64.8	3.8	7.43e-01	0	57	104	1044905984	62	33690
2026-01-04 00:27:54.26	159.57	7.07	-46.0	-64.8	3.8	7.43e-01	0	57	104	1044905984	62	33643
2026-01-04 00:27:57.29	159.83	6.85	-46.0	-64.8	3.8	7.44e-01	0	57	104	1044905984	62	33686
2026-01-04 00:28:00.32	160.09	6.63	-46.0	-64.8	3.8	7.48e-01	0	57	104	1044905984	62	33555
2026-01-04 00:28:03.35	160.34	6.41	-46.0	-64.8	3.8	7.44e-01	0	57	104	1044905984	62	33523
2026-01-04 00:28:06.39	160.59	6.20	-45.9	-64.8	3.8	7.44e-01	0	57	104	1044905984	62	33602
2026-01-04 00:28:09.42	160.84	5.98	-45.9	-64.8	3.8	7.50e-01	0	57	104	1044905984	62	33498
2026-01-04 00:28:12.45	161.08	5.77	-45.9	-64.8	3.8	7.44e-01	0	57	104	1044905984	62	33462
2026-01-04 00:28:15.49	161.32	5.56	-45.9	-64.8	3.8	7.44e-01	0	57	104	1044905984	62	33509
2026-01-04 00:28:18.52	161.55	5.35	-45.9	-64.8	3.8	7.47e-01	0	57	104	1044905984	62	33354
2026-01-04 00:28:21.55	161.78	5.14	-45.9	-64.8	3.8	7.44e-01	0	57	104	1044905984	62	33376
2026-01-04 00:28:24.58	162.01	4.94	-45.9	-64.8	3.8	7.44e-01	0	57	104	1044905984	62	33410
2026-01-04 00:28:27.62	162.23	4.73	-45.9	-64.7	3.8	7.44e-01	0	57	104	1044905984	62	33268
2026-01-04 00:28:30.65	162.46	4.53	-45.9	-64.8	3.8	7.43e-01	0	57	104	1044905984	62	33323
2026-01-04 00:28:33.68	162.67	4.33	-45.9	-64.8	3.8	7.45e-01	0	57	104	1044905984	62	33317
2026-01-04 00:28:36.72	162.89	4.13	-45.9	-64.8	3.8	7.44e-01	0	57	104	1044905984	62	33339
2026-01-04 00:28:39.75	163.10	3.93	-45.9	-64.8	3.8	7.45e-01	0	57	104	1044905984	62	33340
2026-01-04 00:28:42.78	163.31	3.73	-45.9	-64.7	3.8	7.47e-01	0	57	104	1044905984	62	33232
2026-01-04 00:28:45.82	163.51	3.53	-45.9	-64.8	3.8	7.43e-01	0	57	104	1044905984	62	33316
2026-01-04 00:28:48.85	163.72	3.34	-45.9	-64.7	3.8	7.46e-01	0	57	104	1044905984	62	33240
2026-01-04 00:28:51.88	163.92	3.14	-45.9	-64.7	3.8	7.43e-01	0	57	104	1044905984	62	33299
2026-01-04 00:28:54.92	164.11	2.95	-45.9	-64.7	3.8	7.48e-01	0	57	104	1044905984	62	33250
2026-01-04 00:28:57.95	164.31	2.76	-45.9	-64.7	3.8	7.44e-01	0	57	104	1044905984	62	33202
2026-01-04 00:29:00.98	164.50	2.57	-45.9	-64.7	3.8	7.46e-01	0	57	104	1044905984	62	33192
2026-01-04 00:29:04.02	164.69	2.38	-45.9	-64.7	3.8	7.44e-01	0	57	104	1044905984	62	33186
2026-01-04 00:29:07.05	164.88	2.19	-45.9	-64.7	3.8	7.44e-01	0	57	104	1044905984	62	33169
2026-01-04 00:29:10.08	165.06	2.01	-45.9	-64.7	3.8	7.47e-01	0	57	104	1044905984	62	33209

#Closed at: 2026-01-04 00:29:10
#Recorded file [1044 MB]: D:/lorett/data/31039_260104_031705.dat