passes_logs/2026/01/04/R2.0S_Moscow/R2.0S_Moscow__20260104_090152_NOAA_21_JPSS-2_rec.log

#Pass ID: 20260104_090152_NOAA 21 (JPSS-2)
#Satellite: NOAA 21 (JPSS-2)
#Configuration: NOAA-21
#almurnet v.1.7.20251203
#Start time: 2026-01-04 09:01:53

#Version: 2.2.20231116
#Station: R2.0S_Moscow
#Location: 37.707566 lon 55.798166 lat
#TLE: 1 54234U 22150A   26003.45311712  .00000198  00000+0  11468-3 0  9993
#TLE: 2 54234  98.7487 304.4932 0001159 347.5017  12.6130 14.19531745163172

#Time	Az	El	Level	Level2	SNR	BER	BlckErr	Temp	State	Recorded	gain1	gain2
2026-01-04 09:01:53.25	134.77	2.05	-15.8	-27.7	3.7	1.51e+00	0	47	0	0	2	14740
2026-01-04 09:01:57.29	134.62	2.30	-22.0	-35.2	3.7	1.51e+00	0	47	104	0	15	16549
2026-01-04 09:02:01.34	134.47	2.55	-23.4	-37.1	3.6	1.51e+00	0	48	104	0	17	18336
2026-01-04 09:02:05.38	134.32	2.81	-18.6	-29.6	3.9	1.52e+00	0	48	104	0	12	10329
2026-01-04 09:02:09.42	134.16	3.07	-22.9	-35.0	3.6	1.51e+00	0	48	104	0	15	16210
2026-01-04 09:02:13.47	134.00	3.33	-22.2	-34.7	3.5	1.50e+00	0	49	104	0	14	16544
2026-01-04 09:02:17.51	133.84	3.59	-23.0	-35.8	3.6	1.51e+00	0	49	104	0	13	19895
2026-01-04 09:02:21.56	133.67	3.86	-22.2	-33.3	3.5	1.51e+00	0	49	104	0	14	14129
2026-01-04 09:02:25.60	133.51	4.13	-23.1	-36.7	3.5	1.51e+00	0	49	104	0	14	20901
2026-01-04 09:02:29.65	133.33	4.40	-24.6	-35.9	3.6	1.51e+00	0	49	104	0	10	23976
2026-01-04 09:02:33.69	133.16	4.67	-19.4	-31.5	3.8	1.51e+00	0	50	104	0	10	14513
2026-01-04 09:02:37.74	132.98	4.95	-18.2	-28.6	4.0	1.52e+00	0	50	104	0	8	11657
2026-01-04 09:02:41.78	132.80	5.23	-18.1	-29.8	3.9	1.51e+00	0	50	104	0	14	9421
2026-01-04 09:02:45.82	132.61	5.51	-21.5	-33.4	3.7	1.52e+00	0	50	104	0	13	15142
2026-01-04 09:02:49.87	132.42	5.79	-20.5	-33.3	3.8	1.51e+00	0	51	104	0	13	15000
2026-01-04 09:02:53.91	132.23	6.08	-17.6	-29.5	3.8	1.52e+00	0	51	104	0	7	13590
2026-01-04 09:02:57.96	132.03	6.37	-21.5	-33.9	3.8	1.52e+00	0	51	104	0	11	17946
2026-01-04 09:03:02.00	131.83	6.66	-23.0	-35.1	3.6	1.51e+00	0	51	104	0	12	19598
2026-01-04 09:03:06.04	131.62	6.95	-15.3	-27.9	3.5	1.51e+00	0	51	104	0	6	12055
2026-01-04 09:03:10.09	131.41	7.25	-15.8	-28.7	3.6	1.52e+00	0	51	104	0	6	13258
2026-01-04 09:03:14.13	131.20	7.55	-22.9	-34.9	3.6	1.51e+00	0	51	104	0	13	18042
2026-01-04 09:03:18.18	130.98	7.86	-15.4	-26.8	3.9	1.51e+00	0	52	104	0	5	11248
2026-01-04 09:03:22.22	130.75	8.17	-21.7	-36.0	3.6	1.52e+00	0	52	104	0	15	18242
2026-01-04 09:03:26.26	130.52	8.48	-16.9	-30.1	3.8	1.51e+00	0	52	104	0	7	14548
2026-01-04 09:03:30.29	130.29	8.79	-21.1	-33.2	3.8	1.51e+00	0	52	104	0	13	14825
2026-01-04 09:03:34.33	130.05	9.11	-18.9	-29.8	3.8	1.52e+00	0	52	104	0	8	13330
2026-01-04 09:03:38.37	129.80	9.43	-21.6	-32.3	3.5	1.52e+00	0	52	104	0	11	14986
2026-01-04 09:03:42.41	129.55	9.76	-16.1	-27.2	3.6	1.52e+00	0	53	104	0	2	14046
2026-01-04 09:03:46.45	129.30	10.08	-22.7	-35.3	3.7	1.51e+00	0	53	104	0	12	20002
2026-01-04 09:03:50.49	129.03	10.42	-19.9	-30.1	3.9	1.51e+00	0	53	104	0	9	13079
2026-01-04 09:03:54.54	128.76	10.75	-23.2	-37.1	4.0	1.51e+00	0	53	104	0	20	15486
2026-01-04 09:03:58.58	128.49	11.10	-22.6	-34.9	4.2	1.50e+00	0	53	104	0	12	19161
2026-01-04 09:04:02.62	128.20	11.44	-22.3	-35.4	4.4	1.47e+00	0	53	104	0	17	15091
2026-01-04 09:04:06.66	127.91	11.79	-21.5	-36.5	3.8	1.50e+00	0	53	104	0	19	15323
2026-01-04 09:04:10.70	127.62	12.14	-26.7	-37.8	5.0	1.47e+00	0	54	104	0	24	13371
2026-01-04 09:04:14.74	127.31	12.50	-25.1	-38.5	4.6	1.46e+00	0	53	104	0	23	15264
2026-01-04 09:04:18.79	127.00	12.86	-29.3	-40.2	6.4	8.78e-01	0	54	0	0	29	13113
2026-01-04 09:04:22.83	126.68	13.23	-34.4	-41.1	8.7	7.66e-01	11	54	0	1048576	35	10337
2026-01-04 09:04:26.86	126.35	13.60	-33.3	-41.0	9.7	4.41e-01	5	54	0	3145728	42	6836
2026-01-04 09:04:30.91	126.01	13.98	-37.6	-42.7	5.0	1.38e+00	0	54	104	11534336	45	6993
2026-01-04 09:04:34.95	125.67	14.36	-37.5	-40.2	11.7	5.11e-02	0	54	0	22020096	42	6211
2026-01-04 09:04:38.99	125.31	14.75	-38.5	-40.2	14.5	2.06e-02	0	54	0	34603008	41	6576
2026-01-04 09:04:43.02	124.95	15.14	-37.7	-39.7	15.3	3.45e-04	0	54	0	47185920	46	4675
2026-01-04 09:04:47.06	124.57	15.53	-37.9	-40.0	15.1	2.31e-04	0	54	0	59768832	46	4815
2026-01-04 09:04:51.10	124.19	15.93	-34.8	-39.3	10.3	6.18e-02	0	54	0	72351744	40	6276
2026-01-04 09:04:55.14	123.79	16.34	-37.8	-39.6	15.7	2.16e-03	0	54	0	84934656	46	4608
2026-01-04 09:04:59.18	123.38	16.75	-37.4	-39.6	14.7	3.52e-03	0	54	0	97517568	45	4906
2026-01-04 09:05:03.22	122.97	17.17	-37.8	-39.6	15.8	6.56e-05	0	54	0	110100480	46	4608
2026-01-04 09:05:07.25	122.54	17.59	-37.6	-39.6	15.2	2.43e-03	0	54	0	123731968	45	4875
2026-01-04 09:05:11.29	122.09	18.02	-37.4	-39.7	14.8	4.58e-04	0	54	0	135266304	45	4928
2026-01-04 09:05:15.33	121.63	18.46	-37.9	-39.7	15.7	1.68e-04	0	55	0	148897792	46	4697
2026-01-04 09:05:19.37	121.16	18.90	-38.0	-39.8	15.6	1.75e-05	0	55	0	161480704	46	4748
2026-01-04 09:05:23.41	120.68	19.34	-37.2	-38.9	16.6	0.00e+00	0	54	0	174063616	45	4525
2026-01-04 09:05:27.45	120.18	19.80	-37.4	-39.0	16.5	0.00e+00	0	55	0	186646528	45	4559
2026-01-04 09:05:31.49	119.67	20.26	-37.3	-39.0	16.5	0.00e+00	0	55	0	199229440	45	4559
2026-01-04 09:05:35.53	119.14	20.72	-37.3	-38.9	16.6	0.00e+00	0	55	0	211812352	45	4515
2026-01-04 09:05:39.57	118.59	21.19	-37.3	-38.9	16.7	0.00e+00	0	55	0	224395264	45	4498
2026-01-04 09:05:43.62	118.02	21.67	-37.0	-38.6	16.9	0.00e+00	0	55	0	236978176	45	4341
2026-01-04 09:05:47.66	117.44	22.15	-36.7	-38.2	17.3	0.00e+00	0	55	0	249561088	45	4188
2026-01-04 09:05:51.70	116.84	22.64	-36.6	-38.0	17.5	0.00e+00	0	55	0	262144000	45	4087
2026-01-04 09:05:55.74	116.22	23.13	-36.5	-37.9	17.6	0.00e+00	0	55	0	274726912	44	4283
2026-01-04 09:05:59.78	115.58	23.63	-36.6	-38.0	17.6	0.00e+00	0	55	0	287309824	44	4329
2026-01-04 09:06:03.83	114.91	24.14	-36.7	-38.1	17.5	0.00e+00	0	55	0	299892736	44	4370
2026-01-04 09:06:07.87	114.23	24.65	-36.9	-38.4	17.2	0.00e+00	0	55	0	312475648	44	4525
2026-01-04 09:06:11.91	113.52	25.16	-36.9	-38.4	17.2	0.00e+00	0	55	0	325058560	44	4538
2026-01-04 09:06:15.94	112.79	25.68	-37.4	-38.9	16.7	0.00e+00	0	55	0	337641472	45	4541
2026-01-04 09:06:19.98	112.04	26.21	-38.0	-39.7	16.0	0.00e+00	0	55	0	350224384	46	4694
2026-01-04 09:06:24.02	111.26	26.74	-37.7	-39.3	16.4	0.00e+00	0	55	0	362807296	46	4463
2026-01-04 09:06:28.06	110.45	27.28	-37.5	-39.1	16.6	0.00e+00	0	55	0	375390208	46	4356
2026-01-04 09:06:32.10	109.61	27.82	-37.6	-39.2	16.5	0.00e+00	0	55	0	387973120	46	4426
2026-01-04 09:06:36.15	108.75	28.36	-37.4	-39.0	16.7	0.00e+00	0	55	0	400556032	46	4313
2026-01-04 09:06:40.19	107.85	28.91	-37.5	-39.1	16.6	0.00e+00	0	56	0	414187520	46	4376
2026-01-04 09:06:44.23	106.92	29.46	-37.8	-39.5	16.2	0.00e+00	0	55	0	425721856	46	4564
2026-01-04 09:06:48.27	105.97	30.01	-37.3	-38.8	16.9	0.00e+00	0	56	0	439353344	46	4240
2026-01-04 09:06:52.30	104.98	30.56	-37.3	-38.8	16.9	0.00e+00	0	56	0	451936256	46	4236
2026-01-04 09:06:56.35	103.95	31.11	-37.6	-39.3	16.5	0.00e+00	0	56	0	464519168	46	4453
2026-01-04 09:07:00.39	102.88	31.66	-37.6	-39.3	16.5	0.00e+00	0	56	0	477102080	46	4450
2026-01-04 09:07:04.43	101.78	32.21	-37.9	-39.5	16.3	0.00e+00	0	56	0	489684992	46	4593
2026-01-04 09:07:08.47	100.65	32.76	-38.1	-39.8	16.0	0.00e+00	0	56	0	502267904	46	4728
2026-01-04 09:07:12.51	99.47	33.31	-38.4	-40.2	15.5	0.00e+00	0	56	0	514850816	47	4699
2026-01-04 09:07:16.55	98.25	33.85	-38.4	-40.2	15.6	0.00e+00	0	56	0	527433728	47	4676
2026-01-04 09:07:20.59	96.99	34.38	-38.4	-40.2	15.6	0.00e+00	0	56	0	540016640	47	4664
2026-01-04 09:07:24.63	95.69	34.91	-38.8	-40.6	15.3	0.00e+00	0	56	0	552599552	48	4638
2026-01-04 09:07:28.67	94.35	35.43	-39.1	-41.0	14.9	0.00e+00	0	56	0	565182464	48	4863
2026-01-04 09:07:32.71	92.97	35.94	-38.7	-40.6	15.3	0.00e+00	0	56	0	577765376	48	4605
2026-01-04 09:07:36.75	91.54	36.43	-38.8	-40.6	15.3	0.00e+00	0	56	0	590348288	48	4650
2026-01-04 09:07:40.79	90.06	36.92	-38.4	-40.2	15.7	0.00e+00	0	56	0	602931200	48	4402
2026-01-04 09:07:44.83	88.55	37.39	-38.7	-40.5	15.5	0.00e+00	0	56	0	615514112	48	4561
2026-01-04 09:07:48.86	86.99	37.83	-38.9	-40.9	15.1	0.00e+00	0	56	0	628097024	48	4761
2026-01-04 09:07:52.90	85.39	38.27	-39.1	-41.0	15.0	0.00e+00	0	56	0	640679936	49	4566
2026-01-04 09:07:56.95	83.74	38.68	-39.1	-41.0	14.9	0.00e+00	0	56	0	653262848	49	4567
2026-01-04 09:08:00.99	82.06	39.06	-38.9	-40.8	15.1	0.00e+00	0	56	0	665845760	49	4465
2026-01-04 09:08:05.03	80.33	39.43	-39.0	-40.9	15.0	0.00e+00	0	56	0	678428672	49	4530
2026-01-04 09:08:09.07	78.57	39.76	-39.4	-41.5	14.5	0.00e+00	0	56	0	691011584	49	4829
2026-01-04 09:08:13.11	76.77	40.07	-38.9	-40.8	15.2	0.00e+00	0	56	0	703594496	49	4455
2026-01-04 09:08:17.15	74.94	40.35	-39.1	-41.0	15.1	0.00e+00	0	56	0	716177408	49	4569
2026-01-04 09:08:21.19	73.08	40.59	-39.2	-41.1	14.9	0.00e+00	0	56	0	729808896	49	4650
2026-01-04 09:08:25.23	71.20	40.80	-39.3	-41.3	14.7	0.00e+00	0	56	0	741343232	49	4715
2026-01-04 09:08:29.27	69.29	40.98	-39.9	-42.1	14.0	1.50e-06	0	56	0	754974720	50	4876
2026-01-04 09:08:33.32	67.36	41.12	-39.9	-42.1	14.0	2.20e-06	0	56	0	767557632	50	4902
2026-01-04 09:08:37.36	65.41	41.23	-40.0	-42.2	13.8	7.60e-06	0	56	0	780140544	50	4976
2026-01-04 09:08:41.40	63.46	41.30	-40.0	-42.2	13.9	3.80e-06	0	56	0	792723456	50	4961
2026-01-04 09:08:45.44	61.50	41.33	-39.6	-41.6	14.4	1.50e-06	0	56	0	805306368	50	4647
2026-01-04 09:08:49.48	59.54	41.32	-39.6	-41.7	14.4	2.20e-06	0	56	0	817889280	50	4676
2026-01-04 09:08:53.53	57.58	41.27	-39.6	-41.8	14.3	0.00e+00	0	56	0	830472192	50	4707
2026-01-04 09:08:57.57	55.64	41.19	-39.6	-41.7	14.3	2.20e-06	0	56	0	843055104	50	4694
2026-01-04 09:09:01.61	53.70	41.07	-39.5	-41.5	14.6	7.00e-07	0	56	0	855638016	50	4564
2026-01-04 09:09:05.65	51.78	40.91	-40.0	-42.2	13.9	4.50e-06	0	56	0	868220928	50	4963
2026-01-04 09:09:09.69	49.89	40.72	-39.7	-41.8	14.3	2.20e-06	0	56	0	880803840	51	4452
2026-01-04 09:09:13.73	48.01	40.50	-39.5	-41.5	14.6	0.00e+00	0	56	0	893386752	50	4589
2026-01-04 09:09:17.77	46.17	40.24	-39.9	-42.2	13.9	7.00e-07	0	56	0	905969664	50	4938
2026-01-04 09:09:21.81	44.35	39.95	-39.5	-41.6	14.5	0.00e+00	0	56	0	918552576	50	4620
2026-01-04 09:09:25.85	42.57	39.63	-39.7	-41.8	14.4	7.00e-07	0	56	0	931135488	50	4709
2026-01-04 09:09:29.89	40.83	39.29	-40.3	-42.6	13.4	1.98e-05	0	56	0	943718400	51	4904
2026-01-04 09:09:33.93	39.13	38.92	-39.1	-41.0	15.0	0.00e+00	0	56	0	956301312	50	4339
2026-01-04 09:09:37.97	37.46	38.52	-39.7	-41.8	14.3	3.00e-06	0	56	0	968884224	50	4724
2026-01-04 09:09:42.02	35.83	38.10	-39.1	-41.0	15.0	0.00e+00	0	56	0	981467136	49	4575
2026-01-04 09:09:46.06	34.25	37.66	-39.2	-41.1	14.9	7.00e-07	0	56	0	994050048	50	4387
2026-01-04 09:09:50.10	32.71	37.21	-39.6	-41.7	14.3	0.00e+00	0	56	0	1006632960	49	4981
2026-01-04 09:09:54.14	31.22	36.74	-39.3	-41.3	14.7	0.00e+00	0	56	0	1020264448	50	4455
2026-01-04 09:09:58.18	29.77	36.25	-39.0	-40.9	15.2	0.00e+00	0	56	0	1031798784	49	4511
2026-01-04 09:10:02.22	28.36	35.75	-39.1	-41.1	15.0	0.00e+00	0	56	0	1045430272	49	4604
2026-01-04 09:10:06.26	27.00	35.24	-39.5	-41.6	14.5	7.00e-07	0	56	0	1058013184	49	4906
2026-01-04 09:10:10.30	25.68	34.72	-39.3	-41.4	14.7	7.00e-07	0	56	0	1070596096	50	4532
2026-01-04 09:10:14.34	24.40	34.19	-38.9	-40.8	15.2	0.00e+00	0	56	0	1083179008	49	4475
2026-01-04 09:10:18.38	23.17	33.66	-38.5	-40.3	15.8	0.00e+00	0	56	0	1095761920	49	4200
2026-01-04 09:10:22.42	21.97	33.12	-37.8	-39.5	16.5	0.00e+00	0	56	0	1108344832	47	4304
2026-01-04 09:10:26.46	20.81	32.57	-38.7	-40.6	15.4	0.00e+00	0	56	0	1120927744	47	4878
2026-01-04 09:10:30.50	19.69	32.03	-37.9	-39.5	16.5	0.00e+00	0	56	0	1133510656	47	4316
2026-01-04 09:10:34.54	18.61	31.48	-38.4	-40.2	15.7	0.00e+00	0	56	0	1146093568	47	4694
2026-01-04 09:10:38.58	17.57	30.93	-38.1	-39.8	16.1	0.00e+00	0	57	0	1158676480	47	4465
2026-01-04 09:10:42.62	16.56	30.38	-38.1	-39.8	16.1	0.00e+00	0	56	0	1171259392	47	4469
2026-01-04 09:10:46.66	15.59	29.83	-37.6	-39.1	16.7	0.00e+00	0	56	0	1183842304	47	4143
2026-01-04 09:10:50.71	14.64	29.28	-36.6	-38.0	17.9	0.00e+00	0	56	0	1196425216	45	4055
2026-01-04 09:10:54.75	13.73	28.74	-37.7	-39.3	16.6	0.00e+00	0	56	0	1209008128	45	4733
2026-01-04 09:10:58.79	12.86	28.19	-37.6	-39.2	16.6	0.00e+00	0	56	0	1221591040	46	4435
2026-01-04 09:11:02.83	12.01	27.66	-37.5	-39.1	16.7	0.00e+00	0	56	0	1234173952	46	4382
2026-01-04 09:11:06.87	11.19	27.12	-37.7	-39.4	16.5	0.00e+00	0	56	0	1246756864	46	4510
2026-01-04 09:11:10.90	10.40	26.59	-37.5	-39.1	16.7	0.00e+00	0	56	0	1259339776	46	4369
2026-01-04 09:11:14.94	9.63	26.06	-36.8	-38.3	17.5	0.00e+00	0	56	0	1271922688	45	4214
2026-01-04 09:11:18.98	8.89	25.54	-36.7	-38.2	17.6	0.00e+00	0	56	0	1284505600	45	4147
2026-01-04 09:11:23.03	8.17	25.02	-36.9	-38.5	17.2	0.00e+00	0	56	0	1297088512	45	4322
2026-01-04 09:11:27.06	7.48	24.51	-37.1	-38.7	17.0	0.00e+00	0	56	0	1309671424	45	4441
2026-01-04 09:11:31.10	6.81	24.01	-37.6	-39.2	16.5	0.00e+00	0	56	0	1322254336	45	4701
2026-01-04 09:11:35.15	6.15	23.51	-37.7	-39.4	16.3	0.00e+00	0	56	0	1335885824	45	4803
2026-01-04 09:11:39.19	5.53	23.01	-37.4	-39.0	16.6	0.00e+00	0	56	0	1347420160	45	4594
2026-01-04 09:11:43.23	4.92	22.52	-37.2	-38.9	16.7	0.00e+00	0	56	0	1361051648	45	4494
2026-01-04 09:11:47.27	4.33	22.04	-37.5	-39.2	16.4	0.00e+00	0	56	0	1373634560	45	4661
2026-01-04 09:11:51.31	3.76	21.56	-37.1	-38.6	16.8	0.00e+00	0	56	0	1386217472	45	4373
2026-01-04 09:11:55.35	3.20	21.09	-37.1	-38.6	16.9	0.00e+00	0	56	0	1398800384	45	4390
2026-01-04 09:11:59.39	2.67	20.62	-37.4	-39.0	16.5	0.00e+00	0	56	0	1411383296	45	4570
2026-01-04 09:12:03.41	2.15	20.17	-37.0	-38.6	16.9	0.00e+00	0	57	0	1423966208	45	4359
2026-01-04 09:12:07.45	1.64	19.71	-37.4	-39.0	16.4	0.00e+00	0	56	0	1436549120	45	4585
2026-01-04 09:12:11.49	1.15	19.26	-37.1	-38.7	16.7	0.00e+00	0	57	0	1449132032	45	4423
2026-01-04 09:12:15.53	0.68	18.82	-36.8	-38.3	17.0	0.00e+00	0	56	0	1461714944	45	4220
2026-01-04 09:12:19.57	0.22	18.39	-36.8	-38.3	17.0	0.00e+00	0	56	0	1474297856	45	4210
2026-01-04 09:12:23.61	359.77	17.96	-37.0	-38.6	16.7	0.00e+00	0	56	0	1486880768	45	4342
2026-01-04 09:12:27.65	359.33	17.53	-37.5	-39.2	16.0	0.00e+00	0	56	0	1499463680	45	4703
2026-01-04 09:12:31.69	358.91	17.11	-37.6	-39.4	15.8	0.00e+00	0	56	0	1512046592	46	4514
2026-01-04 09:12:35.74	358.50	16.70	-37.5	-39.3	15.6	0.00e+00	0	56	0	1524629504	46	4488
2026-01-04 09:12:39.77	358.10	16.29	-37.3	-39.1	15.7	0.00e+00	0	56	0	1537212416	46	4385
2026-01-04 09:12:43.82	357.71	15.88	-37.5	-39.4	15.2	7.00e-07	0	56	0	1549795328	46	4517
2026-01-04 09:12:47.86	357.34	15.49	-37.6	-39.6	14.9	0.00e+00	0	56	0	1562378240	46	4609
2026-01-04 09:12:51.89	356.97	15.09	-37.4	-39.5	14.8	0.00e+00	0	56	0	1574961152	46	4565
2026-01-04 09:12:55.94	356.61	14.71	-37.8	-40.1	13.8	3.00e-06	0	56	0	1587544064	46	4925
2026-01-04 09:12:59.98	356.26	14.32	-39.0	-42.3	11.0	1.51e-03	0	56	0	1600126976	48	5605
2026-01-04 09:13:04.01	355.92	13.95	-40.1	-45.6	6.9	1.29e-01	0	57	0	1612709888	50	7348
2026-01-04 09:13:08.05	355.59	13.57	-40.4	-49.4	4.0	1.20e+00	2	57	104	1622147072	51	10671
2026-01-04 09:13:12.09	355.27	13.21	-41.1	-51.0	3.9	1.47e+00	0	57	104	1622147072	52	12112
2026-01-04 09:13:16.13	354.96	12.84	-40.1	-51.6	3.8	1.49e+00	0	57	104	1622147072	52	12965
2026-01-04 09:13:20.17	354.65	12.48	-40.2	-52.4	3.8	1.49e+00	0	57	104	1622147072	52	14256
2026-01-04 09:13:24.21	354.36	12.13	-40.1	-52.4	3.8	1.49e+00	0	57	104	1622147072	51	15194
2026-01-04 09:13:28.25	354.07	11.78	-39.7	-52.2	3.8	1.49e+00	0	57	104	1622147072	51	14861
2026-01-04 09:13:32.29	353.78	11.43	-39.9	-52.5	3.8	1.49e+00	0	57	104	1622147072	51	15278
2026-01-04 09:13:36.33	353.51	11.09	-39.9	-52.2	3.8	1.49e+00	0	57	104	1622147072	51	14817
2026-01-04 09:13:40.37	353.24	10.75	-39.9	-52.4	3.8	1.49e+00	0	57	104	1622147072	51	15144
2026-01-04 09:13:44.41	352.98	10.42	-39.9	-52.2	3.8	1.49e+00	0	57	104	1622147072	51	14774
2026-01-04 09:13:48.46	352.72	10.09	-40.2	-52.5	3.8	1.49e+00	0	57	104	1622147072	51	15239
2026-01-04 09:13:52.49	352.47	9.76	-40.3	-52.6	3.8	1.49e+00	0	57	104	1622147072	51	15501
2026-01-04 09:13:56.54	352.22	9.44	-40.3	-52.7	3.8	1.49e+00	0	57	104	1622147072	51	15588
2026-01-04 09:14:00.56	351.98	9.12	-40.3	-52.6	3.8	1.49e+00	0	57	104	1622147072	51	15563
2026-01-04 09:14:04.61	351.75	8.80	-40.3	-52.6	3.8	1.49e+00	0	57	104	1622147072	51	15504
2026-01-04 09:14:08.65	351.52	8.49	-40.3	-52.6	3.8	1.49e+00	0	57	104	1622147072	51	15492
2026-01-04 09:14:12.69	351.30	8.18	-40.3	-52.6	3.8	1.49e+00	0	57	104	1622147072	51	15562
2026-01-04 09:14:16.73	351.08	7.88	-40.5	-52.8	3.8	1.49e+00	0	57	104	1622147072	51	15906
2026-01-04 09:14:20.78	350.87	7.57	-44.8	-57.4	3.8	1.49e+00	0	57	104	1622147072	60	15970
2026-01-04 09:14:24.82	350.66	7.27	-45.0	-57.5	3.8	1.49e+00	0	57	104	1622147072	60	16259
2026-01-04 09:14:28.87	350.45	6.98	-44.8	-57.5	3.8	1.49e+00	0	57	104	1622147072	60	16171
2026-01-04 09:14:32.91	350.25	6.69	-44.8	-57.4	3.8	1.49e+00	0	57	104	1622147072	60	16120
2026-01-04 09:14:36.95	350.06	6.40	-44.8	-57.4	3.8	1.49e+00	0	57	104	1622147072	60	16081
2026-01-04 09:14:41.00	349.87	6.11	-44.8	-57.4	3.8	1.49e+00	0	57	104	1622147072	60	16063
2026-01-04 09:14:45.04	349.68	5.82	-44.8	-57.4	3.8	1.49e+00	0	57	104	1622147072	60	16071
2026-01-04 09:14:49.09	349.50	5.54	-44.8	-57.4	3.8	1.49e+00	0	57	104	1622147072	60	16060
2026-01-04 09:14:53.13	349.32	5.26	-44.6	-57.4	3.8	1.49e+00	0	57	104	1622147072	60	16012
2026-01-04 09:14:57.17	349.14	4.99	-44.8	-57.4	3.8	1.49e+00	0	57	104	1622147072	60	16094
2026-01-04 09:15:01.21	348.97	4.71	-44.8	-57.4	3.8	1.49e+00	0	57	104	1622147072	60	16042
2026-01-04 09:15:05.26	348.80	4.44	-44.8	-57.4	3.8	1.49e+00	0	57	104	1622147072	60	16061
2026-01-04 09:15:09.30	348.63	4.17	-44.8	-57.4	3.8	1.49e+00	0	57	104	1622147072	60	16058
2026-01-04 09:15:13.35	348.47	3.90	-44.8	-57.4	3.8	1.49e+00	0	57	104	1622147072	60	16005
2026-01-04 09:15:17.39	348.31	3.64	-44.8	-57.4	3.8	1.49e+00	0	57	104	1622147072	60	16041
2026-01-04 09:15:21.43	348.16	3.38	-44.8	-57.4	3.8	1.49e+00	0	57	104	1622147072	60	16042
2026-01-04 09:15:25.48	348.00	3.12	-44.8	-57.4	3.8	1.49e+00	0	57	104	1622147072	60	15991
2026-01-04 09:15:29.52	347.85	2.86	-44.8	-57.4	3.8	1.49e+00	0	57	104	1622147072	60	15993
2026-01-04 09:15:33.57	347.71	2.61	-44.8	-57.4	3.8	1.49e+00	0	57	104	1622147072	60	15951
2026-01-04 09:15:37.61	347.56	2.35	-44.8	-57.4	3.8	1.49e+00	0	57	104	1622147072	60	16028
2026-01-04 09:15:41.66	347.42	2.10	-44.8	-57.4	3.8	1.49e+00	0	57	104	1622147072	60	15972

#Closed at: 2026-01-04 09:15:44
#Recorded file [1622 MB]: D:/lorett/data/31039_260104_120153.dat