passes_logs/2026/01/04/R2.0S_Moscow/R2.0S_Moscow__20260104_005115_NOAA_21_JPSS-2_rec.log

#Pass ID: 20260104_005115_NOAA 21 (JPSS-2)
#Satellite: NOAA 21 (JPSS-2)
#Configuration: NOAA-21
#almurnet v.1.7.20251203
#Start time: 2026-01-04 00:55:20

#Version: 2.2.20231116
#Station: R2.0S_Moscow
#Location: 37.707566 lon 55.798166 lat
#TLE: 1 54234U 22150A   26003.45311712  .00000198  00000+0  11468-3 0  9993
#TLE: 2 54234  98.7487 304.4932 0001159 347.5017  12.6130 14.19531745163172

#Time	Az	El	Level	Level2	SNR	BER	BlckErr	Temp	State	Recorded	gain1	gain2
2026-01-04 00:55:20.63	348.84	21.26	-44.9	-56.8	3.8	8.47e-01	0	57	0	0	60	14971
2026-01-04 00:55:23.65	348.30	21.56	-45.2	-57.8	3.8	1.49e+00	0	57	104	0	62	14894
2026-01-04 00:55:26.68	347.74	21.86	-45.1	-57.6	3.8	1.49e+00	0	57	104	0	62	14626
2026-01-04 00:55:29.72	347.17	22.17	-44.8	-57.4	3.8	1.49e+00	0	57	104	0	61	15080
2026-01-04 00:55:32.75	346.59	22.47	-44.8	-57.2	3.8	1.49e+00	0	57	104	0	61	14841
2026-01-04 00:55:35.78	346.00	22.78	-44.8	-57.2	3.8	1.49e+00	0	57	104	0	61	14841
2026-01-04 00:55:38.82	345.40	23.08	-44.8	-57.3	3.8	1.49e+00	0	57	104	0	61	14933
2026-01-04 00:55:41.85	344.79	23.39	-44.8	-57.1	3.8	1.49e+00	0	57	104	0	61	14567
2026-01-04 00:55:44.88	344.16	23.69	-44.8	-57.3	3.8	1.49e+00	0	57	104	0	61	15008
2026-01-04 00:55:47.92	343.52	24.00	-44.8	-57.3	3.8	1.49e+00	0	57	104	0	61	14947
2026-01-04 00:55:50.95	342.86	24.30	-44.8	-57.3	3.8	1.49e+00	0	57	104	0	61	15016
2026-01-04 00:55:53.98	342.20	24.60	-44.8	-57.0	3.8	1.49e+00	0	57	104	0	61	14375
2026-01-04 00:55:57.02	341.52	24.91	-44.7	-55.8	3.8	1.49e+00	0	57	104	0	61	12661
2026-01-04 00:56:00.05	340.83	25.21	-44.6	-55.6	3.8	1.49e+00	0	57	104	0	61	12357
2026-01-04 00:56:03.08	340.12	25.51	-44.1	-51.8	5.0	8.18e-01	0	57	0	0	60	8422
2026-01-04 00:56:06.11	339.40	25.81	-43.9	-50.2	5.9	3.22e-01	0	57	0	9437184	59	7446
2026-01-04 00:56:09.15	338.67	26.11	-44.1	-51.5	5.1	1.26e+00	0	57	0	12582912	59	8627
2026-01-04 00:56:12.18	337.92	26.40	-39.0	-40.9	15.1	0.00e+00	0	57	0	22020096	50	4289
2026-01-04 00:56:15.21	337.16	26.69	-37.6	-39.2	16.7	0.00e+00	0	57	0	31457280	46	4421
2026-01-04 00:56:18.24	336.39	26.99	-42.3	-46.1	9.8	2.17e-02	0	57	0	40894464	56	5518
2026-01-04 00:56:21.26	335.60	27.27	-38.1	-39.7	16.3	0.00e+00	0	57	0	50331648	48	4178
2026-01-04 00:56:24.29	334.80	27.56	-37.4	-39.0	16.9	0.00e+00	0	57	0	59768832	46	4319
2026-01-04 00:56:27.32	333.98	27.84	-37.0	-38.4	17.4	0.00e+00	0	57	0	69206016	45	4285
2026-01-04 00:56:30.36	333.14	28.12	-37.2	-38.7	17.3	0.00e+00	0	57	0	78643200	45	4414
2026-01-04 00:56:33.39	332.30	28.39	-37.4	-39.0	17.0	0.00e+00	0	57	0	88080384	45	4549
2026-01-04 00:56:36.42	331.44	28.66	-37.4	-39.0	17.0	0.00e+00	0	57	0	97517568	45	4564
2026-01-04 00:56:39.45	330.56	28.92	-37.2	-38.7	17.3	0.00e+00	0	57	0	106954752	45	4397
2026-01-04 00:56:42.48	329.67	29.18	-37.3	-38.8	17.2	0.00e+00	0	57	0	116391936	45	4464
2026-01-04 00:56:45.51	328.76	29.43	-37.1	-38.6	17.4	0.00e+00	0	57	0	125829120	45	4342
2026-01-04 00:56:48.53	327.85	29.68	-37.1	-38.6	17.4	0.00e+00	0	57	0	135266304	45	4383
2026-01-04 00:56:51.56	326.91	29.92	-37.2	-38.7	17.3	0.00e+00	0	57	0	144703488	45	4409
2026-01-04 00:56:54.59	325.96	30.15	-37.5	-39.1	16.9	0.00e+00	0	57	0	154140672	45	4627
2026-01-04 00:56:57.62	325.00	30.38	-37.4	-38.9	17.1	0.00e+00	0	57	0	163577856	45	4536
2026-01-04 00:57:00.66	324.02	30.60	-37.8	-39.4	16.6	0.00e+00	0	57	0	173015040	46	4543
2026-01-04 00:57:03.69	323.04	30.81	-37.5	-39.1	17.0	0.00e+00	0	57	0	182452224	46	4355
2026-01-04 00:57:06.72	322.03	31.01	-37.7	-39.3	16.8	0.00e+00	0	57	0	191889408	46	4449
2026-01-04 00:57:09.75	321.02	31.21	-37.9	-39.5	16.5	0.00e+00	0	57	0	201326592	46	4591
2026-01-04 00:57:12.78	319.99	31.40	-37.9	-39.6	16.5	0.00e+00	0	57	0	210763776	46	4615
2026-01-04 00:57:15.81	318.96	31.57	-38.3	-40.1	16.0	0.00e+00	0	57	0	220200960	47	4620
2026-01-04 00:57:18.84	317.91	31.74	-38.3	-40.0	16.0	0.00e+00	0	57	0	229638144	47	4595
2026-01-04 00:57:21.87	316.85	31.89	-38.5	-40.4	15.7	0.00e+00	0	57	0	239075328	47	4768
2026-01-04 00:57:24.90	315.78	32.04	-38.7	-40.5	15.7	0.00e+00	0	57	0	249561088	48	4553
2026-01-04 00:57:27.93	314.70	32.18	-38.4	-40.1	16.1	0.00e+00	0	57	0	257949696	48	4381
2026-01-04 00:57:30.96	313.61	32.30	-38.6	-40.4	15.8	0.00e+00	0	57	0	268435456	48	4506
2026-01-04 00:57:33.99	312.51	32.41	-38.6	-40.4	15.8	0.00e+00	0	57	0	277872640	48	4513
2026-01-04 00:57:37.02	311.41	32.52	-38.1	-39.8	16.4	0.00e+00	0	57	0	287309824	48	4200
2026-01-04 00:57:40.05	310.30	32.61	-37.9	-39.6	16.5	0.00e+00	0	57	0	296747008	47	4362
2026-01-04 00:57:43.08	309.19	32.68	-37.8	-39.4	16.6	0.00e+00	0	57	0	306184192	47	4277
2026-01-04 00:57:46.11	308.06	32.75	-38.1	-39.8	16.3	0.00e+00	0	57	0	315621376	47	4443
2026-01-04 00:57:49.14	306.94	32.80	-38.2	-40.0	16.1	0.00e+00	0	57	0	325058560	47	4559
2026-01-04 00:57:52.17	305.81	32.84	-38.6	-40.4	15.7	0.00e+00	0	57	0	334495744	47	4793
2026-01-04 00:57:55.20	304.68	32.87	-38.3	-40.1	15.9	0.00e+00	0	57	0	343932928	47	4626
2026-01-04 00:57:58.23	303.55	32.89	-38.1	-39.8	16.3	0.00e+00	0	57	0	353370112	47	4467
2026-01-04 00:58:01.26	302.41	32.89	-38.3	-40.0	16.0	0.00e+00	0	57	0	362807296	47	4590
2026-01-04 00:58:04.29	301.28	32.88	-38.5	-40.4	15.7	0.00e+00	0	57	0	372244480	47	4769
2026-01-04 00:58:07.32	300.15	32.86	-38.5	-40.4	15.7	0.00e+00	0	57	0	381681664	47	4768
2026-01-04 00:58:10.35	299.02	32.82	-38.3	-40.1	16.1	0.00e+00	0	57	0	391118848	47	4599
2026-01-04 00:58:13.38	297.89	32.77	-37.9	-39.6	16.5	0.00e+00	0	57	0	400556032	47	4354
2026-01-04 00:58:16.41	296.77	32.71	-38.0	-39.6	16.4	0.00e+00	0	57	0	409993216	47	4382
2026-01-04 00:58:19.43	295.65	32.64	-38.5	-40.3	15.8	0.00e+00	0	57	0	419430400	47	4721
2026-01-04 00:58:22.46	294.54	32.56	-38.5	-40.3	15.8	0.00e+00	0	57	0	428867584	47	4749
2026-01-04 00:58:25.49	293.43	32.46	-38.3	-40.0	16.0	0.00e+00	0	57	0	438304768	47	4583
2026-01-04 00:58:28.52	292.33	32.35	-38.0	-39.6	16.4	0.00e+00	0	57	0	447741952	47	4377
2026-01-04 00:58:31.55	291.24	32.23	-37.9	-39.5	16.5	0.00e+00	0	57	0	457179136	47	4327
2026-01-04 00:58:34.58	290.15	32.10	-38.0	-39.7	16.3	0.00e+00	0	57	0	466616320	47	4417
2026-01-04 00:58:37.61	289.07	31.96	-38.1	-39.8	16.3	0.00e+00	0	57	0	476053504	47	4469
2026-01-04 00:58:40.64	288.01	31.81	-37.9	-39.5	16.5	0.00e+00	0	57	0	485490688	47	4327
2026-01-04 00:58:43.68	286.95	31.65	-38.2	-40.0	16.0	0.00e+00	0	57	0	494927872	47	4556
2026-01-04 00:58:46.71	285.90	31.47	-38.1	-39.8	16.2	0.00e+00	0	57	0	504365056	47	4483
2026-01-04 00:58:49.73	284.87	31.29	-37.9	-39.6	16.4	0.00e+00	0	57	0	513802240	47	4347
2026-01-04 00:58:52.77	283.85	31.10	-38.2	-40.0	16.0	0.00e+00	0	57	0	523239424	47	4574
2026-01-04 00:58:55.79	282.84	30.90	-38.4	-40.2	15.9	0.00e+00	0	57	0	532676608	47	4660
2026-01-04 00:58:58.82	281.85	30.69	-37.6	-39.2	16.8	0.00e+00	0	57	0	542113792	47	4165
2026-01-04 00:59:01.85	280.86	30.48	-38.0	-39.7	16.3	0.00e+00	0	57	0	551550976	46	4680
2026-01-04 00:59:04.88	279.89	30.25	-38.4	-40.3	15.7	0.00e+00	0	56	0	562036736	47	4721
2026-01-04 00:59:07.91	278.93	30.02	-37.8	-39.5	16.5	0.00e+00	0	57	0	570425344	47	4303
2026-01-04 00:59:10.94	277.99	29.78	-37.7	-39.3	16.7	0.00e+00	0	57	0	580911104	46	4485
2026-01-04 00:59:13.98	277.06	29.53	-37.8	-39.5	16.5	0.00e+00	0	57	0	590348288	46	4573
2026-01-04 00:59:17.01	276.15	29.28	-37.3	-38.8	17.1	0.00e+00	0	57	0	599785472	46	4231
2026-01-04 00:59:20.04	275.24	29.03	-37.5	-39.0	16.9	0.00e+00	0	57	0	609222656	46	4338
2026-01-04 00:59:23.06	274.36	28.77	-37.5	-39.1	16.8	0.00e+00	0	57	0	618659840	46	4346
2026-01-04 00:59:26.09	273.49	28.50	-37.0	-38.4	17.3	0.00e+00	0	57	0	628097024	46	4049
2026-01-04 00:59:29.12	272.63	28.23	-37.9	-39.5	16.5	0.00e+00	0	57	0	637534208	46	4581
2026-01-04 00:59:32.16	271.79	27.95	-38.6	-40.6	15.4	0.00e+00	0	57	0	646971392	47	4871
2026-01-04 00:59:35.19	270.96	27.67	-38.3	-40.1	15.8	0.00e+00	0	57	0	656408576	47	4643
2026-01-04 00:59:38.21	270.15	27.39	-38.0	-39.7	16.3	0.00e+00	0	57	0	665845760	47	4420
2026-01-04 00:59:41.24	269.35	27.10	-37.5	-39.1	16.8	0.00e+00	0	57	0	675282944	47	4121
2026-01-04 00:59:44.27	268.57	26.81	-37.1	-38.6	17.4	0.00e+00	0	56	0	684720128	46	4109
2026-01-04 00:59:47.30	267.80	26.51	-36.8	-38.2	17.7	0.00e+00	0	57	0	694157312	45	4163
2026-01-04 00:59:50.33	267.04	26.22	-37.3	-38.9	17.0	0.00e+00	0	57	0	703594496	45	4508
2026-01-04 00:59:53.36	266.30	25.92	-37.5	-39.0	16.8	0.00e+00	0	57	0	713031680	45	4594
2026-01-04 00:59:56.40	265.57	25.62	-37.2	-38.7	17.3	0.00e+00	0	57	0	722468864	45	4400
2026-01-04 00:59:59.43	264.86	25.32	-36.7	-38.1	17.7	0.00e+00	0	57	0	731906048	45	4121
2026-01-04 01:00:02.46	264.15	25.02	-37.4	-38.9	16.9	0.00e+00	0	57	0	741343232	45	4545
2026-01-04 01:00:05.49	263.47	24.71	-37.4	-39.0	16.9	0.00e+00	0	57	0	750780416	45	4563
2026-01-04 01:00:08.52	262.79	24.41	-37.4	-38.9	17.0	0.00e+00	0	57	0	760217600	45	4523
2026-01-04 01:00:11.55	262.13	24.11	-37.1	-38.6	17.2	0.00e+00	0	57	0	769654784	45	4362
2026-01-04 01:00:14.59	261.48	23.80	-37.8	-39.5	16.4	0.00e+00	0	57	0	779091968	46	4555
2026-01-04 01:00:17.62	260.85	23.49	-37.4	-39.0	16.8	0.00e+00	0	57	0	788529152	46	4301
2026-01-04 01:00:20.65	260.22	23.19	-37.3	-38.9	17.0	0.00e+00	0	57	0	797966336	46	4266
2026-01-04 01:00:23.68	259.61	22.88	-38.1	-39.9	16.1	0.00e+00	0	56	0	807403520	46	4766
2026-01-04 01:00:26.70	259.02	22.58	-37.4	-39.0	16.8	0.00e+00	0	57	0	816840704	46	4322
2026-01-04 01:00:29.73	258.43	22.27	-36.7	-38.1	17.7	0.00e+00	0	57	0	826277888	45	4135
2026-01-04 01:00:32.77	257.85	21.96	-37.5	-39.1	16.7	0.00e+00	0	57	0	835715072	45	4644
2026-01-04 01:00:35.79	257.29	21.66	-37.0	-38.5	17.2	0.00e+00	0	57	0	845152256	45	4335
2026-01-04 01:00:38.82	256.74	21.36	-36.7	-38.2	17.6	0.00e+00	0	57	0	854589440	45	4171
2026-01-04 01:00:41.85	256.19	21.05	-37.2	-38.8	17.0	0.00e+00	0	57	0	864026624	45	4457
2026-01-04 01:00:44.88	255.66	20.75	-37.0	-38.5	17.2	0.00e+00	0	57	0	874512384	45	4317
2026-01-04 01:00:47.91	255.14	20.45	-36.4	-37.8	17.9	0.00e+00	0	57	0	883949568	44	4234
2026-01-04 01:00:50.94	254.63	20.15	-36.7	-38.2	17.6	0.00e+00	0	57	0	893386752	44	4397
2026-01-04 01:00:53.97	254.13	19.85	-37.3	-38.8	16.9	0.00e+00	0	57	0	902823936	45	4486
2026-01-04 01:00:57.00	253.63	19.56	-37.4	-39.1	16.7	0.00e+00	0	57	0	912261120	45	4603
2026-01-04 01:01:00.04	253.15	19.26	-37.1	-38.6	17.1	0.00e+00	0	57	0	921698304	45	4380
2026-01-04 01:01:03.06	252.68	18.97	-37.1	-38.7	17.1	0.00e+00	0	57	0	931135488	45	4399
2026-01-04 01:01:06.09	252.22	18.67	-37.7	-39.4	16.4	0.00e+00	0	57	0	940572672	45	4761
2026-01-04 01:01:09.12	251.76	18.38	-38.1	-39.9	15.8	0.00e+00	0	57	0	950009856	46	4801
2026-01-04 01:01:12.16	251.31	18.09	-37.7	-39.4	16.4	0.00e+00	0	57	0	959447040	46	4498
2026-01-04 01:01:15.19	250.88	17.80	-37.4	-39.0	16.7	0.00e+00	0	57	0	968884224	46	4332
2026-01-04 01:01:18.22	250.45	17.52	-37.3	-38.8	16.9	0.00e+00	0	57	0	978321408	46	4224
2026-01-04 01:01:21.25	250.03	17.23	-37.6	-39.3	16.5	0.00e+00	0	57	0	987758592	46	4448
2026-01-04 01:01:24.28	249.61	16.95	-38.0	-39.7	16.0	0.00e+00	0	57	0	997195776	46	4694
2026-01-04 01:01:27.31	249.21	16.67	-37.9	-39.7	16.1	0.00e+00	0	57	0	1006632960	46	4661
2026-01-04 01:01:30.34	248.81	16.39	-37.4	-39.0	16.7	0.00e+00	0	57	0	1016070144	46	4314
2026-01-04 01:01:33.37	248.42	16.11	-37.3	-38.9	16.8	0.00e+00	0	57	0	1025507328	46	4253
2026-01-04 01:01:36.41	248.04	15.83	-37.4	-39.1	16.6	0.00e+00	0	57	0	1034944512	46	4352
2026-01-04 01:01:39.43	247.66	15.56	-37.9	-39.7	16.0	0.00e+00	0	57	0	1044381696	46	4656
2026-01-04 01:01:42.47	247.29	15.29	-38.2	-40.0	15.7	0.00e+00	0	57	0	1053818880	46	4827
2026-01-04 01:01:45.50	246.93	15.01	-38.0	-39.8	15.9	0.00e+00	0	57	0	1063256064	47	4447
2026-01-04 01:01:48.53	246.57	14.75	-37.7	-39.4	16.2	0.00e+00	0	57	0	1072693248	47	4263
2026-01-04 01:01:51.56	246.22	14.48	-37.5	-39.2	16.5	0.00e+00	0	57	0	1082130432	47	4149
2026-01-04 01:01:54.58	245.88	14.21	-37.8	-39.5	16.2	0.00e+00	0	57	0	1091567616	47	4305
2026-01-04 01:01:57.62	245.54	13.95	-38.0	-39.7	15.9	0.00e+00	0	57	0	1101004800	47	4433
2026-01-04 01:02:00.65	245.21	13.69	-38.0	-39.8	15.8	0.00e+00	0	57	0	1110441984	47	4475
2026-01-04 01:02:03.68	244.89	13.43	-38.1	-40.0	15.7	0.00e+00	0	57	0	1119879168	47	4554
2026-01-04 01:02:06.70	244.57	13.17	-38.3	-40.2	15.4	0.00e+00	0	57	0	1129316352	47	4665
2026-01-04 01:02:09.73	244.26	12.92	-38.3	-40.2	15.4	0.00e+00	0	56	0	1138753536	47	4659
2026-01-04 01:02:12.76	243.95	12.66	-38.0	-39.8	15.7	0.00e+00	0	57	0	1148190720	47	4486
2026-01-04 01:02:15.79	243.65	12.41	-38.1	-39.9	15.7	0.00e+00	0	57	0	1157627904	47	4527
2026-01-04 01:02:18.82	243.35	12.16	-38.2	-40.0	15.5	0.00e+00	0	57	0	1167065088	47	4582
2026-01-04 01:02:21.85	243.06	11.91	-38.4	-40.3	15.3	0.00e+00	0	57	0	1176502272	47	4723
2026-01-04 01:02:24.88	242.77	11.67	-38.7	-40.8	14.8	0.00e+00	0	57	0	1185939456	47	4984
2026-01-04 01:02:27.91	242.49	11.42	-39.0	-41.1	14.5	0.00e+00	0	57	0	1196425216	48	4925
2026-01-04 01:02:30.94	242.21	11.18	-38.9	-41.0	14.6	3.00e-06	0	57	0	1205862400	48	4849
2026-01-04 01:02:33.97	241.93	10.94	-39.0	-41.1	14.4	7.00e-07	0	57	0	1215299584	48	4923
2026-01-04 01:02:37.00	241.67	10.70	-38.9	-41.0	14.6	0.00e+00	0	57	0	1224736768	48	4838
2026-01-04 01:02:40.03	241.40	10.46	-38.7	-40.7	14.9	0.00e+00	0	57	0	1234173952	48	4658
2026-01-04 01:02:43.06	241.14	10.22	-38.6	-40.5	15.0	0.00e+00	0	57	0	1243611136	48	4591
2026-01-04 01:02:46.09	240.89	9.99	-38.6	-40.6	14.9	0.00e+00	0	57	0	1253048320	48	4629
2026-01-04 01:02:49.11	240.64	9.75	-38.7	-40.8	14.7	0.00e+00	0	57	0	1262485504	48	4712
2026-01-04 01:02:52.14	240.39	9.52	-39.0	-41.1	14.4	7.00e-07	0	57	0	1271922688	48	4919
2026-01-04 01:02:55.17	240.15	9.29	-39.2	-41.4	14.0	2.20e-06	0	57	0	1281359872	48	5084
2026-01-04 01:02:58.20	239.91	9.06	-39.3	-41.6	13.8	5.30e-06	0	57	0	1290797056	49	4908
2026-01-04 01:03:01.23	239.67	8.84	-39.3	-41.7	13.8	3.00e-06	0	57	0	1300234240	49	4931
2026-01-04 01:03:04.26	239.44	8.61	-39.3	-41.5	13.8	4.50e-06	0	57	0	1309671424	49	4858
2026-01-04 01:03:07.29	239.21	8.39	-39.1	-41.3	14.0	4.50e-06	0	56	0	1319108608	49	4729
2026-01-04 01:03:10.32	238.99	8.17	-39.0	-41.2	14.1	0.00e+00	0	57	0	1328545792	49	4676
2026-01-04 01:03:13.36	238.76	7.95	-44.6	-56.8	3.8	1.49e+00	0	57	104	1335885824	59	15858
2026-01-04 01:03:16.39	238.55	7.73	-45.0	-57.5	3.8	1.49e+00	0	57	104	1335885824	60	16214
2026-01-04 01:03:19.42	238.33	7.51	-45.2	-57.7	3.8	1.49e+00	0	57	104	1335885824	60	16573
2026-01-04 01:03:22.45	238.12	7.29	-45.1	-57.7	3.8	1.49e+00	0	57	104	1335885824	60	16640
2026-01-04 01:03:25.48	237.91	7.08	-45.1	-57.7	3.8	1.49e+00	0	57	104	1335885824	60	16544
2026-01-04 01:03:28.51	237.71	6.87	-45.1	-57.7	3.8	1.49e+00	0	57	104	1335885824	60	16568
2026-01-04 01:03:31.54	237.51	6.66	-45.1	-57.6	3.8	1.49e+00	0	57	104	1335885824	60	16487
2026-01-04 01:03:34.58	237.31	6.44	-45.1	-57.7	3.8	1.49e+00	0	57	104	1335885824	60	16504
2026-01-04 01:03:37.61	237.11	6.24	-45.0	-57.6	3.8	1.49e+00	0	57	104	1335885824	60	16469
2026-01-04 01:03:40.65	236.92	6.03	-45.0	-57.6	3.8	1.49e+00	0	57	104	1335885824	60	16457
2026-01-04 01:03:43.68	236.73	5.82	-45.0	-57.6	3.8	1.49e+00	0	57	104	1335885824	60	16461
2026-01-04 01:03:46.71	236.54	5.62	-45.0	-57.6	3.8	1.49e+00	0	57	104	1335885824	60	16453
2026-01-04 01:03:49.74	236.36	5.41	-45.0	-57.6	3.8	1.49e+00	0	57	104	1335885824	60	16442
2026-01-04 01:03:52.78	236.17	5.21	-45.0	-57.6	3.8	1.49e+00	0	57	104	1335885824	60	16425
2026-01-04 01:03:55.81	235.99	5.01	-45.0	-57.6	3.8	1.49e+00	0	57	104	1335885824	60	16438
2026-01-04 01:03:58.84	235.82	4.81	-45.0	-57.6	3.8	1.49e+00	0	57	104	1335885824	60	16409
2026-01-04 01:04:01.88	235.64	4.61	-45.0	-57.6	3.8	1.49e+00	0	57	104	1335885824	60	16403
2026-01-04 01:04:04.91	235.47	4.41	-45.0	-57.6	3.8	1.49e+00	0	57	104	1335885824	60	16372
2026-01-04 01:04:07.94	235.30	4.22	-45.0	-57.6	3.8	1.49e+00	0	57	104	1335885824	60	16396
2026-01-04 01:04:10.98	235.13	4.02	-45.0	-57.6	3.8	1.49e+00	0	57	104	1335885824	60	16414
2026-01-04 01:04:14.01	234.97	3.83	-45.0	-57.6	3.8	1.49e+00	0	57	104	1335885824	60	16374
2026-01-04 01:04:17.04	234.80	3.63	-45.0	-57.6	3.8	1.49e+00	0	57	104	1335885824	60	16325
2026-01-04 01:04:20.08	234.64	3.44	-45.0	-57.6	3.8	1.49e+00	0	57	104	1335885824	60	16321
2026-01-04 01:04:23.11	234.49	3.25	-45.0	-57.6	3.8	1.49e+00	0	57	104	1335885824	60	16334
2026-01-04 01:04:26.14	234.33	3.06	-45.0	-57.6	3.8	1.49e+00	0	57	104	1335885824	60	16337
2026-01-04 01:04:29.18	234.17	2.87	-45.0	-57.5	3.8	1.49e+00	0	57	104	1335885824	60	16284
2026-01-04 01:04:32.21	234.02	2.69	-45.0	-57.6	3.8	1.49e+00	0	57	104	1335885824	60	16341
2026-01-04 01:04:35.24	233.87	2.50	-44.9	-57.6	3.8	1.49e+00	0	57	104	1335885824	60	16320
2026-01-04 01:04:38.27	233.72	2.32	-45.0	-57.5	3.8	1.49e+00	0	57	104	1335885824	60	16291
2026-01-04 01:04:41.31	233.58	2.13	-44.9	-57.5	3.8	1.49e+00	0	57	104	1335885824	60	16307
2026-01-04 01:04:44.34	233.43	1.95	-44.9	-57.5	3.8	1.49e+00	0	57	104	1335885824	60	16296

#Closed at: 2026-01-04 01:04:46
#Recorded file [1335 MB]: D:/lorett/data/31039_260104_035520.dat