passes_logs/2026/01/04/R2.0S_Moscow/R2.0S_Moscow__20260104_075310_SUOMI_NPP_rec.log

#Pass ID: 20260104_075310_SUOMI NPP
#Satellite: SUOMI NPP
#Configuration: NPP
#almurnet v.1.7.20251203
#Start time: 2026-01-04 07:53:11

#Version: 2.2.20231116
#Station: R2.0S_Moscow
#Location: 37.707566 lon 55.798166 lat
#TLE: 1 37849U 11061A   26001.07732418  .00000182  00000+0  10735-3 0  9990
#TLE: 2 37849  98.7795 303.2470 0002580  87.2016 272.9455 14.19520779734739

#Time	Az	El	Level	Level2	SNR	BER	BlckErr	Temp	State	Recorded	gain1	gain2
2026-01-04 07:53:11.75	98.30	2.06	-39.9	-54.6	3.8	1.49e+00	0	47	0	0	51	19447
2026-01-04 07:53:14.77	98.05	2.22	-39.9	-54.6	3.8	1.49e+00	0	47	104	0	51	19487
2026-01-04 07:53:17.81	97.79	2.38	-39.9	-54.6	3.8	1.49e+00	0	47	104	0	51	19486
2026-01-04 07:53:20.84	97.54	2.53	-39.9	-54.6	3.8	1.49e+00	0	48	104	0	51	19481
2026-01-04 07:53:23.87	97.28	2.69	-39.9	-54.6	3.8	1.49e+00	0	48	104	0	51	19411
2026-01-04 07:53:26.91	97.01	2.85	-40.0	-54.6	3.8	1.49e+00	0	48	104	0	51	19499
2026-01-04 07:53:29.94	96.75	3.01	-39.9	-54.6	3.8	1.49e+00	0	48	104	0	51	19478
2026-01-04 07:53:32.97	96.48	3.16	-40.0	-54.6	3.8	1.49e+00	0	48	104	0	51	19429
2026-01-04 07:53:36.00	96.21	3.32	-39.9	-54.6	3.8	1.49e+00	0	48	104	0	51	19467
2026-01-04 07:53:39.03	95.93	3.48	-40.0	-54.6	3.8	1.49e+00	0	49	104	0	51	19449
2026-01-04 07:53:42.07	95.66	3.64	-39.9	-54.6	3.8	1.49e+00	0	49	104	0	51	19457
2026-01-04 07:53:45.10	95.37	3.80	-40.0	-54.6	3.8	1.49e+00	0	49	104	0	51	19431
2026-01-04 07:53:48.14	95.09	3.96	-40.0	-54.6	3.8	1.49e+00	0	50	104	0	51	19488
2026-01-04 07:53:51.17	94.80	4.12	-40.0	-54.6	3.8	1.49e+00	0	50	104	0	51	19444
2026-01-04 07:53:54.20	94.51	4.28	-39.9	-54.6	3.8	1.49e+00	0	50	104	0	51	19425
2026-01-04 07:53:57.23	94.22	4.44	-40.0	-54.6	3.8	1.49e+00	0	50	104	0	51	19500
2026-01-04 07:54:00.27	93.92	4.60	-40.0	-54.6	3.8	1.49e+00	0	50	104	0	51	19466
2026-01-04 07:54:03.30	93.62	4.77	-40.0	-54.6	3.8	1.49e+00	0	50	104	0	51	19505
2026-01-04 07:54:06.33	93.32	4.93	-39.8	-54.6	3.8	1.49e+00	0	50	104	0	51	19406
2026-01-04 07:54:09.37	93.01	5.09	-40.0	-54.6	3.8	1.49e+00	0	50	104	0	51	19446
2026-01-04 07:54:12.40	92.70	5.25	-40.0	-54.6	3.8	1.49e+00	0	50	104	0	51	19430
2026-01-04 07:54:15.43	92.39	5.41	-40.0	-54.6	3.8	1.49e+00	0	51	104	0	51	19501
2026-01-04 07:54:18.47	92.07	5.58	-40.0	-54.6	3.8	1.49e+00	0	51	104	0	51	19550
2026-01-04 07:54:21.50	91.75	5.74	-40.0	-54.6	3.8	1.49e+00	0	51	104	0	51	19552
2026-01-04 07:54:24.53	91.42	5.90	-40.0	-54.6	3.8	1.49e+00	0	51	104	0	51	19469
2026-01-04 07:54:27.57	91.09	6.06	-40.0	-54.6	3.8	1.49e+00	0	51	104	0	51	19542
2026-01-04 07:54:30.60	90.76	6.23	-40.1	-54.6	3.8	1.49e+00	0	51	104	0	51	19564
2026-01-04 07:54:33.63	90.42	6.39	-40.0	-54.6	3.8	1.49e+00	0	51	104	0	51	19527
2026-01-04 07:54:36.67	90.08	6.55	-40.0	-54.6	3.8	1.49e+00	0	52	104	0	51	19588
2026-01-04 07:54:39.70	89.74	6.72	-40.0	-54.6	3.8	1.49e+00	0	52	104	0	51	19519
2026-01-04 07:54:42.73	89.39	6.88	-40.0	-54.6	3.8	1.49e+00	0	52	104	0	51	19577
2026-01-04 07:54:45.76	89.04	7.04	-40.0	-54.6	3.8	1.49e+00	0	52	104	0	51	19544
2026-01-04 07:54:48.79	88.68	7.21	-40.1	-54.6	3.8	1.49e+00	0	52	104	0	51	19602
2026-01-04 07:54:51.83	88.32	7.37	-40.0	-54.6	3.8	1.49e+00	0	52	104	0	51	19600
2026-01-04 07:54:54.86	87.96	7.54	-40.0	-54.6	3.8	1.49e+00	0	52	104	0	51	19591
2026-01-04 07:54:57.90	87.59	7.70	-40.0	-54.6	3.8	1.49e+00	0	52	104	0	51	19611
2026-01-04 07:55:00.93	87.21	7.86	-40.0	-54.7	3.8	1.49e+00	0	52	104	0	51	19656
2026-01-04 07:55:03.96	86.84	8.03	-40.0	-54.7	3.8	1.49e+00	0	53	104	0	51	19638
2026-01-04 07:55:06.99	86.45	8.19	-39.9	-54.6	3.8	1.49e+00	0	52	104	0	51	19466
2026-01-04 07:55:10.02	86.07	8.35	-40.0	-54.8	3.8	1.49e+00	0	53	104	0	51	19855
2026-01-04 07:55:13.05	85.68	8.51	-40.0	-54.6	3.8	1.49e+00	0	53	104	0	51	19474
2026-01-04 07:55:16.07	85.29	8.68	-40.0	-54.6	3.8	1.49e+00	0	53	104	0	51	19569
2026-01-04 07:55:19.11	84.89	8.84	-40.0	-54.7	3.8	1.49e+00	0	53	104	0	51	19830
2026-01-04 07:55:22.14	84.48	9.00	-40.1	-54.7	3.8	1.49e+00	0	53	104	0	51	19675
2026-01-04 07:55:25.17	84.07	9.16	-40.0	-54.6	3.8	1.49e+00	0	53	104	0	51	19563
2026-01-04 07:55:28.20	83.66	9.32	-40.1	-54.6	3.8	1.49e+00	0	53	104	0	51	19523
2026-01-04 07:55:31.23	83.24	9.48	-40.0	-54.4	3.8	1.49e+00	0	53	104	0	51	19151
2026-01-04 07:55:34.25	82.82	9.64	-40.0	-54.5	3.8	1.49e+00	0	53	104	0	51	19283
2026-01-04 07:55:37.28	82.40	9.80	-39.9	-54.5	3.8	1.49e+00	0	53	104	0	51	19197
2026-01-04 07:55:40.31	81.97	9.96	-40.1	-54.5	3.8	1.49e+00	0	53	104	0	51	19387
2026-01-04 07:55:43.34	81.53	10.12	-40.0	-54.5	3.8	1.49e+00	0	54	104	0	51	19264
2026-01-04 07:55:46.38	81.09	10.28	-40.1	-54.6	3.8	1.49e+00	0	54	104	0	51	19539
2026-01-04 07:55:49.41	80.64	10.44	-40.1	-54.6	3.8	1.49e+00	0	54	104	0	51	19452
2026-01-04 07:55:52.44	80.19	10.59	-40.2	-54.7	3.8	1.49e+00	0	54	104	0	51	19744
2026-01-04 07:55:55.46	79.74	10.75	-40.3	-54.7	3.8	1.49e+00	0	54	104	0	51	19817
2026-01-04 07:55:58.50	79.27	10.91	-40.3	-54.8	3.8	1.49e+00	0	54	104	0	51	19961
2026-01-04 07:56:01.53	78.81	11.06	-40.4	-54.9	3.8	1.49e+00	0	54	104	0	51	20130
2026-01-04 07:56:04.56	78.34	11.21	-40.5	-55.0	3.8	1.49e+00	0	54	104	0	51	20422
2026-01-04 07:56:07.59	77.86	11.37	-40.5	-55.0	3.8	1.49e+00	0	54	104	0	51	20531
2026-01-04 07:56:10.62	77.38	11.52	-40.7	-55.2	3.8	1.49e+00	0	54	104	0	51	20877
2026-01-04 07:56:13.65	76.90	11.67	-40.7	-55.2	3.8	1.49e+00	0	54	104	0	52	19802
2026-01-04 07:56:16.68	76.40	11.82	-40.8	-55.4	3.8	1.49e+00	0	54	104	0	52	20109
2026-01-04 07:56:19.71	75.91	11.97	-41.0	-55.5	3.8	1.49e+00	0	54	104	0	52	20384
2026-01-04 07:56:22.74	75.41	12.11	-40.9	-55.4	3.8	1.49e+00	0	54	104	0	52	20215
2026-01-04 07:56:25.77	74.90	12.26	-40.9	-55.4	3.8	1.49e+00	0	54	104	0	52	20158
2026-01-04 07:56:28.80	74.39	12.41	-40.9	-55.4	3.8	1.49e+00	0	54	104	0	52	20241
2026-01-04 07:56:31.83	73.88	12.55	-40.8	-55.3	3.8	1.49e+00	0	54	104	0	52	19945
2026-01-04 07:56:34.85	73.36	12.69	-40.6	-55.1	3.8	1.49e+00	0	55	104	0	52	19554
2026-01-04 07:56:37.88	72.83	12.83	-40.6	-55.1	3.8	1.49e+00	0	55	104	0	52	19446
2026-01-04 07:56:40.92	72.30	12.97	-40.7	-55.2	3.8	1.49e+00	0	55	104	0	52	19708
2026-01-04 07:56:43.95	71.76	13.11	-40.8	-55.3	3.8	1.49e+00	0	55	104	0	52	20000
2026-01-04 07:56:46.98	71.22	13.24	-40.6	-55.1	3.8	1.49e+00	0	55	104	0	52	19453
2026-01-04 07:56:50.00	70.68	13.37	-41.0	-55.5	3.8	1.49e+00	0	55	104	0	52	20415
2026-01-04 07:56:53.03	70.12	13.51	-40.8	-55.2	3.8	1.49e+00	0	55	104	0	52	19765
2026-01-04 07:56:56.06	69.57	13.64	-41.4	-54.8	3.8	1.49e+00	0	55	104	0	53	17829
2026-01-04 07:56:59.09	69.01	13.76	-41.1	-53.2	4.0	1.49e+00	0	55	104	0	53	14715
2026-01-04 07:57:02.12	68.44	13.89	-41.0	-51.1	4.6	1.24e+00	0	55	0	1048576	53	11640
2026-01-04 07:57:05.15	67.87	14.01	-40.8	-48.4	6.5	3.24e-01	0	55	0	7340032	53	8512
2026-01-04 07:57:08.18	67.30	14.13	-40.6	-47.0	8.1	8.21e-02	0	55	0	12582912	53	7238
2026-01-04 07:57:11.21	66.72	14.25	-40.2	-45.5	9.8	1.08e-02	0	55	0	17825792	52	6463
2026-01-04 07:57:14.24	66.13	14.37	-39.5	-43.4	12.5	3.24e-04	0	55	0	24117248	50	5662
2026-01-04 07:57:17.26	65.54	14.48	-39.1	-42.5	13.7	3.00e-06	0	55	0	29360128	49	5413
2026-01-04 07:57:20.29	64.95	14.59	-39.9	-43.5	13.1	2.67e-05	0	55	0	35651584	50	5755
2026-01-04 07:57:23.32	64.35	14.70	-39.8	-43.0	13.9	4.50e-06	0	55	0	40894464	50	5446
2026-01-04 07:57:26.35	63.75	14.81	-39.7	-42.7	14.4	2.20e-06	0	55	0	46137344	50	5268
2026-01-04 07:57:29.38	63.14	14.91	-39.2	-41.8	15.3	0.00e+00	0	55	0	52428800	50	4742
2026-01-04 07:57:32.41	62.53	15.01	-39.3	-41.9	15.4	0.00e+00	0	55	0	57671680	50	4805
2026-01-04 07:57:35.44	61.92	15.11	-39.6	-42.4	15.0	0.00e+00	0	55	0	63963136	50	5053
2026-01-04 07:57:38.47	61.30	15.21	-39.6	-42.3	15.1	0.00e+00	0	55	0	69206016	50	5002
2026-01-04 07:57:41.49	60.68	15.30	-39.6	-42.2	15.2	0.00e+00	0	55	0	74448896	50	4975
2026-01-04 07:57:44.52	60.05	15.39	-40.0	-43.0	14.5	1.50e-06	0	55	0	80740352	50	5419
2026-01-04 07:57:47.55	59.42	15.47	-40.3	-43.4	14.1	2.20e-06	0	55	0	85983232	51	5375
2026-01-04 07:57:50.58	58.79	15.55	-40.1	-43.2	14.3	7.00e-07	0	55	0	92274688	51	5241
2026-01-04 07:57:53.61	58.15	15.63	-40.3	-43.4	14.1	3.00e-06	0	55	0	97517568	51	5371
2026-01-04 07:57:56.64	57.51	15.71	-40.0	-42.9	14.6	0.00e+00	0	55	0	103809024	51	5066
2026-01-04 07:57:59.66	56.87	15.78	-39.8	-42.6	15.0	0.00e+00	0	56	0	109051904	51	4873
2026-01-04 07:58:02.69	56.22	15.85	-39.7	-42.4	15.1	0.00e+00	0	55	0	114294784	51	4808
2026-01-04 07:58:05.72	55.57	15.91	-39.5	-42.1	15.4	0.00e+00	0	55	0	120586240	51	4646
2026-01-04 07:58:08.75	54.92	15.98	-39.6	-42.3	15.2	0.00e+00	0	56	0	125829120	50	5029
2026-01-04 07:58:11.78	54.26	16.03	-39.7	-42.5	15.0	0.00e+00	0	56	0	132120576	50	5115
2026-01-04 07:58:14.81	53.60	16.09	-39.9	-42.8	14.7	0.00e+00	0	56	0	137363456	50	5324
2026-01-04 07:58:17.84	52.94	16.14	-40.1	-43.1	14.4	0.00e+00	0	55	0	142606336	50	5523
2026-01-04 07:58:20.87	52.28	16.19	-40.3	-43.6	13.8	3.00e-06	0	56	0	148897792	51	5513
2026-01-04 07:58:23.90	51.62	16.23	-40.3	-43.6	14.0	6.10e-06	0	56	0	154140672	51	5492
2026-01-04 07:58:26.93	50.95	16.27	-40.2	-43.3	14.2	3.00e-06	0	55	0	160432128	51	5334
2026-01-04 07:58:29.96	50.28	16.31	-40.0	-43.1	14.4	0.00e+00	0	56	0	165675008	51	5185
2026-01-04 07:58:32.98	49.62	16.34	-40.1	-43.1	14.4	1.50e-06	0	56	0	171966464	51	5214
2026-01-04 07:58:36.01	48.95	16.36	-40.0	-43.0	14.6	0.00e+00	0	56	0	177209344	51	5107
2026-01-04 07:58:39.04	48.28	16.39	-39.9	-42.8	14.8	0.00e+00	0	56	0	182452224	51	5007
2026-01-04 07:58:42.07	47.60	16.41	-40.1	-43.2	14.4	7.00e-07	0	56	0	188743680	51	5235
2026-01-04 07:58:45.10	46.93	16.42	-40.3	-43.4	14.2	0.00e+00	0	56	0	193986560	51	5360
2026-01-04 07:58:48.12	46.26	16.44	-40.2	-43.4	14.2	7.00e-07	0	56	0	200278016	51	5342
2026-01-04 07:58:51.15	45.58	16.44	-39.8	-42.6	15.0	0.00e+00	0	56	0	205520896	51	4888
2026-01-04 07:58:54.18	44.91	16.45	-39.8	-42.6	15.0	0.00e+00	0	56	0	210763776	51	4905
2026-01-04 07:58:57.21	44.24	16.45	-40.0	-43.0	14.5	0.00e+00	0	56	0	217055232	51	5147
2026-01-04 07:59:00.24	43.56	16.44	-40.4	-43.6	14.0	1.50e-06	0	56	0	222298112	51	5515
2026-01-04 07:59:03.27	42.89	16.43	-40.7	-44.2	13.3	1.83e-05	0	56	0	228589568	52	5562
2026-01-04 07:59:06.30	42.21	16.42	-40.5	-44.0	13.5	9.90e-06	0	56	0	233832448	52	5425
2026-01-04 07:59:09.33	41.54	16.41	-40.2	-43.4	14.1	3.00e-06	0	56	0	240123904	52	5093
2026-01-04 07:59:12.36	40.87	16.39	-40.2	-43.4	14.1	7.00e-07	0	56	0	245366784	52	5061
2026-01-04 07:59:15.38	40.20	16.36	-39.9	-42.8	14.8	7.00e-07	0	56	0	250609664	51	5013
2026-01-04 07:59:18.41	39.53	16.33	-40.1	-43.1	14.6	0.00e+00	0	56	0	256901120	51	5185
2026-01-04 07:59:21.44	38.86	16.30	-40.0	-42.9	14.7	0.00e+00	0	56	0	262144000	51	5096
2026-01-04 07:59:24.46	38.20	16.26	-39.3	-41.9	15.8	0.00e+00	0	56	0	268435456	50	4762
2026-01-04 07:59:27.49	37.53	16.23	-39.4	-42.0	15.7	0.00e+00	0	56	0	273678336	50	4825
2026-01-04 07:59:30.52	36.87	16.18	-39.7	-42.3	15.3	0.00e+00	0	56	0	278921216	50	5039
2026-01-04 07:59:33.55	36.21	16.13	-39.6	-42.3	15.4	0.00e+00	0	56	0	285212672	50	4991
2026-01-04 07:59:36.58	35.55	16.08	-39.8	-42.5	15.2	0.00e+00	0	56	0	290455552	50	5107
2026-01-04 07:59:39.60	34.90	16.03	-40.0	-42.9	14.8	0.00e+00	0	56	0	296747008	50	5354
2026-01-04 07:59:42.63	34.24	15.97	-40.2	-43.1	14.5	0.00e+00	0	56	0	301989888	50	5524
2026-01-04 07:59:45.66	33.59	15.91	-39.8	-42.6	15.0	0.00e+00	0	56	0	308281344	50	5193
2026-01-04 07:59:48.69	32.94	15.84	-39.8	-42.4	15.2	0.00e+00	0	56	0	313524224	50	5096
2026-01-04 07:59:51.72	32.30	15.77	-39.7	-42.4	15.3	0.00e+00	0	56	0	318767104	50	5068
2026-01-04 07:59:54.75	31.66	15.70	-39.5	-42.0	15.6	0.00e+00	0	56	0	325058560	50	4867
2026-01-04 07:59:57.78	31.02	15.62	-39.9	-42.8	14.8	0.00e+00	0	56	0	330301440	50	5305
2026-01-04 08:00:00.81	30.38	15.54	-40.0	-42.9	14.6	7.00e-07	0	56	0	336592896	50	5400
2026-01-04 08:00:03.84	29.75	15.46	-40.1	-43.1	14.5	0.00e+00	0	56	0	341835776	50	5506
2026-01-04 08:00:06.87	29.12	15.38	-40.4	-43.7	13.9	2.20e-06	0	56	0	347078656	51	5538
2026-01-04 08:00:09.90	28.50	15.29	-40.6	-43.9	13.7	9.10e-06	0	56	0	353370112	51	5693
2026-01-04 08:00:12.92	27.88	15.19	-40.3	-43.4	14.1	2.20e-06	0	56	0	358612992	51	5387
2026-01-04 08:00:15.95	27.26	15.10	-40.2	-43.3	14.3	1.50e-06	0	56	0	364904448	51	5290
2026-01-04 08:00:18.98	26.65	15.00	-40.1	-43.2	14.4	0.00e+00	0	56	0	370147328	51	5228
2026-01-04 08:00:22.01	26.04	14.90	-40.0	-43.0	14.5	7.00e-07	0	56	0	376438784	51	5133
2026-01-04 08:00:25.03	25.44	14.80	-39.5	-42.1	15.4	0.00e+00	0	56	0	381681664	51	4626
2026-01-04 08:00:28.06	24.84	14.69	-39.5	-42.1	15.4	0.00e+00	0	56	0	386924544	50	4903
2026-01-04 08:00:31.09	24.24	14.58	-39.7	-42.5	15.0	0.00e+00	0	56	0	393216000	50	5128
2026-01-04 08:00:34.12	23.65	14.47	-39.9	-42.9	14.6	7.00e-07	0	56	0	398458880	50	5343
2026-01-04 08:00:37.15	23.06	14.36	-40.4	-43.8	13.7	6.80e-06	0	56	0	404750336	51	5608
2026-01-04 08:00:40.18	22.48	14.24	-40.6	-44.2	13.3	1.14e-05	0	56	0	409993216	51	5875
2026-01-04 08:00:43.21	21.90	14.12	-40.5	-43.9	13.6	6.80e-06	0	56	0	415236096	51	5657
2026-01-04 08:00:46.24	21.33	14.00	-40.5	-44.0	13.5	6.10e-06	0	56	0	421527552	51	5744
2026-01-04 08:00:49.27	20.76	13.88	-40.5	-44.0	13.3	1.06e-05	0	56	0	426770432	52	5442
2026-01-04 08:00:52.30	20.20	13.75	-40.4	-43.9	13.5	1.29e-05	0	56	0	433061888	52	5351
2026-01-04 08:00:55.33	19.64	13.62	-40.2	-43.5	13.8	7.00e-07	0	56	0	438304768	52	5152
2026-01-04 08:00:58.36	19.09	13.49	-40.2	-43.6	13.6	6.80e-06	0	56	0	444596224	52	5193
2026-01-04 08:01:01.39	18.54	13.36	-40.1	-43.2	14.1	3.00e-06	0	56	0	449839104	51	5278
2026-01-04 08:01:04.42	18.00	13.23	-39.9	-42.9	14.4	0.00e+00	0	56	0	455081984	51	5069
2026-01-04 08:01:07.44	17.46	13.10	-40.3	-43.6	13.7	3.00e-06	0	56	0	461373440	51	5502
2026-01-04 08:01:10.47	16.93	12.96	-40.4	-43.9	13.4	1.98e-05	0	56	0	466616320	51	5675
2026-01-04 08:01:13.50	16.40	12.82	-40.3	-43.6	13.7	1.14e-05	0	56	0	472907776	51	5522
2026-01-04 08:01:16.53	15.88	12.68	-40.0	-43.2	14.1	1.50e-06	0	56	0	478150656	51	5257
2026-01-04 08:01:19.56	15.36	12.54	-40.6	-44.3	12.8	3.12e-05	0	56	0	483393536	52	5656
2026-01-04 08:01:22.59	14.85	12.40	-41.4	-46.1	11.0	1.74e-03	0	56	0	489684992	53	6549
2026-01-04 08:01:25.62	14.34	12.25	-41.7	-47.0	10.0	7.65e-03	0	56	0	494927872	54	6804
2026-01-04 08:01:28.65	13.84	12.11	-41.4	-46.1	10.8	2.94e-03	0	56	0	501219328	54	6190
2026-01-04 08:01:31.68	13.34	11.96	-41.2	-45.8	11.1	1.55e-03	0	56	0	506462208	54	5934
2026-01-04 08:01:34.71	12.84	11.81	-41.0	-45.4	11.4	1.52e-03	0	56	0	512753664	54	5695
2026-01-04 08:01:37.74	12.36	11.66	-40.5	-44.6	12.0	3.42e-04	0	56	0	517996544	53	5500
2026-01-04 08:01:40.77	11.87	11.51	-40.4	-44.4	12.0	2.87e-04	0	56	0	523239424	52	5706
2026-01-04 08:01:43.80	11.40	11.36	-40.3	-44.6	11.6	4.03e-04	0	56	0	529530880	52	5805
2026-01-04 08:01:46.82	10.93	11.21	-40.6	-45.8	9.9	5.64e-03	0	56	0	534773760	52	6697
2026-01-04 08:01:49.85	10.46	11.05	-40.7	-47.8	7.1	9.26e-02	0	56	0	541065216	52	8425
2026-01-04 08:01:52.88	10.00	10.90	-40.7	-50.6	4.7	7.20e-01	0	56	0	546308096	52	11668
2026-01-04 08:01:55.91	9.54	10.74	-40.5	-53.5	3.8	1.49e+00	0	57	104	547356672	52	16167
2026-01-04 08:01:58.94	9.09	10.59	-40.3	-53.5	3.8	1.49e+00	0	56	104	547356672	52	16167
2026-01-04 08:02:01.97	8.64	10.43	-40.2	-54.2	3.8	1.49e+00	0	56	104	547356672	52	17496
2026-01-04 08:02:04.99	8.20	10.28	-40.2	-54.3	3.8	1.49e+00	0	56	104	547356672	52	17757
2026-01-04 08:02:08.02	7.76	10.12	-39.9	-54.3	3.8	1.49e+00	0	56	104	547356672	51	18927
2026-01-04 08:02:11.05	7.33	9.96	-39.9	-54.4	3.8	1.49e+00	0	57	104	547356672	51	19043
2026-01-04 08:02:14.08	6.90	9.80	-39.8	-54.3	3.8	1.49e+00	0	57	104	547356672	51	18771
2026-01-04 08:02:17.11	6.48	9.64	-39.8	-54.3	3.8	1.49e+00	0	56	104	547356672	51	18763
2026-01-04 08:02:20.14	6.06	9.48	-39.9	-54.3	3.8	1.49e+00	0	56	104	547356672	51	18905
2026-01-04 08:02:23.17	5.64	9.32	-39.9	-54.5	3.8	1.49e+00	0	56	104	547356672	51	19221
2026-01-04 08:02:26.20	5.23	9.16	-39.7	-54.2	3.8	1.49e+00	0	57	104	547356672	51	18691
2026-01-04 08:02:29.23	4.83	9.00	-39.8	-54.3	3.8	1.49e+00	0	56	104	547356672	51	18882
2026-01-04 08:02:32.25	4.43	8.84	-39.7	-54.2	3.8	1.49e+00	0	56	104	547356672	51	18700
2026-01-04 08:02:35.28	4.03	8.68	-39.7	-54.2	3.8	1.49e+00	0	56	104	547356672	51	18625
2026-01-04 08:02:38.31	3.64	8.51	-39.7	-54.2	3.8	1.49e+00	0	56	104	547356672	51	18688
2026-01-04 08:02:41.34	3.26	8.35	-39.6	-54.2	3.8	1.49e+00	0	56	104	547356672	51	18575
2026-01-04 08:02:44.37	2.87	8.19	-39.7	-54.2	3.8	1.49e+00	0	56	104	547356672	51	18579
2026-01-04 08:02:47.40	2.50	8.03	-39.7	-54.3	3.8	1.49e+00	0	57	104	547356672	51	18751
2026-01-04 08:02:50.43	2.12	7.86	-44.7	-59.4	3.8	1.49e+00	0	56	104	547356672	60	20282
2026-01-04 08:02:53.46	1.75	7.70	-45.0	-59.7	3.8	1.49e+00	0	56	104	547356672	60	20844
2026-01-04 08:02:56.50	1.39	7.54	-45.0	-59.8	3.8	1.49e+00	0	57	104	547356672	60	21019
2026-01-04 08:02:59.53	1.03	7.38	-44.9	-59.7	3.8	1.49e+00	0	56	104	547356672	60	20837
2026-01-04 08:03:02.56	0.67	7.21	-44.8	-59.6	3.8	1.49e+00	0	57	104	547356672	60	20712
2026-01-04 08:03:05.59	0.32	7.05	-44.8	-59.6	3.8	1.49e+00	0	56	104	547356672	60	20669
2026-01-04 08:03:08.62	359.97	6.89	-44.8	-59.6	3.8	1.49e+00	0	57	104	547356672	60	20702
2026-01-04 08:03:11.66	359.62	6.72	-44.7	-59.6	3.8	1.49e+00	0	57	104	547356672	60	20603
2026-01-04 08:03:14.69	359.28	6.56	-44.7	-59.6	3.8	1.49e+00	0	57	104	547356672	60	20626
2026-01-04 08:03:17.72	358.94	6.40	-44.7	-59.6	3.8	1.49e+00	0	57	104	547356672	60	20585
2026-01-04 08:03:20.76	358.61	6.23	-44.7	-59.6	3.8	1.49e+00	0	56	104	547356672	60	20611
2026-01-04 08:03:23.79	358.28	6.07	-44.8	-59.6	3.8	1.49e+00	0	57	104	547356672	60	20615
2026-01-04 08:03:26.83	357.96	5.91	-44.7	-59.6	3.8	1.49e+00	0	57	104	547356672	60	20576
2026-01-04 08:03:29.86	357.63	5.75	-44.7	-59.6	3.8	1.49e+00	0	57	104	547356672	60	20575
2026-01-04 08:03:32.89	357.32	5.58	-44.7	-59.6	3.8	1.49e+00	0	57	104	547356672	60	20633
2026-01-04 08:03:35.93	357.00	5.42	-44.7	-59.6	3.8	1.49e+00	0	57	104	547356672	60	20575
2026-01-04 08:03:38.96	356.69	5.26	-44.7	-59.6	3.8	1.49e+00	0	57	104	547356672	60	20575
2026-01-04 08:03:41.99	356.38	5.10	-44.7	-59.6	3.8	1.49e+00	0	57	104	547356672	60	20544
2026-01-04 08:03:45.03	356.08	4.94	-44.7	-59.6	3.8	1.49e+00	0	57	104	547356672	60	20559
2026-01-04 08:03:48.06	355.78	4.78	-44.7	-59.5	3.8	1.49e+00	0	57	104	547356672	60	20501
2026-01-04 08:03:51.10	355.48	4.61	-44.7	-59.5	3.8	1.49e+00	0	57	104	547356672	60	20474
2026-01-04 08:03:54.13	355.19	4.45	-44.7	-59.6	3.8	1.49e+00	0	56	104	547356672	60	20558
2026-01-04 08:03:57.16	354.90	4.29	-44.7	-59.6	3.8	1.49e+00	0	56	104	547356672	60	20581
2026-01-04 08:04:00.20	354.61	4.13	-44.7	-59.5	3.8	1.49e+00	0	57	104	547356672	60	20533
2026-01-04 08:04:03.23	354.33	3.97	-44.7	-59.6	3.8	1.49e+00	0	57	104	547356672	60	20573
2026-01-04 08:04:06.26	354.05	3.81	-44.7	-59.6	3.8	1.49e+00	0	56	104	547356672	60	20552
2026-01-04 08:04:09.29	353.77	3.65	-44.7	-59.5	3.8	1.49e+00	0	57	104	547356672	60	20498
2026-01-04 08:04:12.33	353.49	3.49	-44.7	-59.5	3.8	1.49e+00	0	57	104	547356672	60	20502
2026-01-04 08:04:15.36	353.22	3.34	-44.7	-59.6	3.8	1.49e+00	0	57	104	547356672	60	20577
2026-01-04 08:04:18.39	352.96	3.18	-44.7	-59.5	3.8	1.49e+00	0	57	104	547356672	60	20524
2026-01-04 08:04:21.43	352.69	3.02	-44.7	-59.5	3.8	1.49e+00	0	57	104	547356672	60	20535
2026-01-04 08:04:24.46	352.43	2.86	-44.7	-59.6	3.8	1.49e+00	0	56	104	547356672	60	20555
2026-01-04 08:04:27.49	352.17	2.70	-44.7	-59.5	3.8	1.49e+00	0	56	104	547356672	60	20525
2026-01-04 08:04:30.53	351.91	2.55	-44.7	-59.6	3.8	1.49e+00	0	57	104	547356672	60	20544
2026-01-04 08:04:33.56	351.66	2.39	-44.7	-59.5	3.8	1.49e+00	0	57	104	547356672	60	20537
2026-01-04 08:04:36.59	351.41	2.23	-44.7	-59.6	3.8	1.49e+00	0	57	104	547356672	60	20543
2026-01-04 08:04:39.63	351.16	2.08	-44.7	-59.6	3.8	1.49e+00	0	57	104	547356672	60	20567
2026-01-04 08:04:42.66	350.91	1.92	-44.7	-59.6	3.9	1.49e+00	0	57	104	547356672	60	20549

#Closed at: 2026-01-04 08:04:43
#Recorded file [547 MB]: D:/lorett/data/31039_260104_105311.dat