passes_logs/2026/01/04/R2.0S_Moscow/R2.0S_Moscow__20260104_095143_NOAA_20_JPSS-1_rec.log

#Pass ID: 20260104_095143_NOAA 20 (JPSS-1)
#Satellite: NOAA 20 (JPSS-1)
#Configuration: NOAA 20
#almurnet v.1.7.20251203
#Start time: 2026-01-04 09:51:43

#Version: 2.2.20231116
#Station: R2.0S_Moscow
#Location: 37.707566 lon 55.798166 lat
#TLE: 1 43013U 17073A   26003.41800368  .00000169  00000+0  10117-3 0  9998
#TLE: 2 43013  98.7624 304.4804 0001884  56.1176 304.0179 14.19532918421092

#Time	Az	El	Level	Level2	SNR	BER	BlckErr	Temp	State	Recorded	gain1	gain2
2026-01-04 09:51:43.88	158.95	2.04	-43.9	-58.4	3.8	1.49e+00	0	48	0	0	59	18992
2026-01-04 09:51:47.92	158.94	2.30	-43.9	-58.4	3.8	1.49e+00	0	48	104	0	59	19002
2026-01-04 09:51:51.96	158.94	2.57	-43.9	-58.3	3.8	1.49e+00	0	49	104	0	59	18895
2026-01-04 09:51:56.01	158.94	2.84	-43.9	-58.4	3.8	1.49e+00	0	49	104	0	59	18955
2026-01-04 09:52:00.05	158.94	3.11	-43.9	-58.3	3.8	1.49e+00	0	49	104	0	59	18920
2026-01-04 09:52:04.10	158.94	3.38	-43.9	-58.3	3.8	1.49e+00	0	49	104	0	59	18940
2026-01-04 09:52:08.14	158.94	3.65	-43.9	-58.3	3.8	1.49e+00	0	50	104	0	59	18920
2026-01-04 09:52:12.19	158.94	3.93	-43.9	-58.3	3.8	1.49e+00	0	50	104	0	59	18903
2026-01-04 09:52:16.23	158.94	4.21	-43.9	-58.3	3.8	1.49e+00	0	50	104	0	59	18893
2026-01-04 09:52:20.27	158.93	4.49	-43.9	-58.3	3.8	1.49e+00	0	50	104	0	59	18865
2026-01-04 09:52:24.32	158.93	4.78	-43.9	-58.3	3.8	1.49e+00	0	51	104	0	59	18881
2026-01-04 09:52:28.36	158.93	5.07	-43.9	-58.3	3.8	1.49e+00	0	51	104	0	59	18816
2026-01-04 09:52:32.40	158.92	5.36	-43.9	-58.2	3.8	1.49e+00	0	51	104	0	59	18557
2026-01-04 09:52:36.45	158.92	5.66	-43.9	-58.2	3.8	1.49e+00	0	51	104	0	59	18534
2026-01-04 09:52:40.49	158.92	5.96	-43.9	-58.1	3.8	1.49e+00	0	51	104	0	59	18490
2026-01-04 09:52:44.54	158.91	6.26	-43.9	-58.2	3.8	1.49e+00	0	51	104	0	59	18568
2026-01-04 09:52:48.58	158.91	6.57	-43.8	-58.1	3.8	1.49e+00	0	52	104	0	59	18436
2026-01-04 09:52:52.63	158.91	6.88	-43.8	-56.7	3.8	1.49e+00	0	52	104	0	59	15708
2026-01-04 09:52:56.67	158.90	7.19	-43.5	-53.3	4.7	9.30e-01	0	52	0	2097152	59	10552
2026-01-04 09:53:00.71	158.90	7.51	-42.8	-49.7	7.3	1.61e-01	0	52	0	9437184	57	7885
2026-01-04 09:53:04.75	158.89	7.83	-42.2	-47.5	9.6	1.91e-02	0	52	0	16777216	56	6441
2026-01-04 09:53:08.79	158.88	8.16	-43.3	-51.5	5.9	7.73e-01	0	53	0	22020096	58	9087
2026-01-04 09:53:12.83	158.88	8.49	-41.7	-46.4	10.4	4.54e-02	0	53	0	29360128	55	6060
2026-01-04 09:53:16.87	158.87	8.82	-41.7	-46.2	10.7	2.65e-03	0	53	0	36700160	55	5916
2026-01-04 09:53:20.91	158.86	9.16	-41.4	-45.6	11.5	1.03e-03	0	53	0	44040192	54	5818
2026-01-04 09:53:24.95	158.86	9.51	-41.4	-45.4	11.8	5.06e-04	0	53	0	52428800	54	5685
2026-01-04 09:53:28.98	158.85	9.86	-41.3	-45.2	12.1	2.97e-04	0	53	0	59768832	54	5535
2026-01-04 09:53:33.02	158.84	10.21	-41.3	-45.2	12.2	2.12e-04	0	53	0	67108864	54	5529
2026-01-04 09:53:37.06	158.83	10.57	-41.3	-45.1	12.3	1.53e-04	0	53	0	74448896	54	5467
2026-01-04 09:53:41.09	158.82	10.93	-41.2	-44.9	12.6	1.12e-04	0	53	0	81788928	54	5350
2026-01-04 09:53:45.13	158.81	11.30	-41.3	-44.9	12.6	7.17e-05	0	54	0	90177536	54	5366
2026-01-04 09:53:49.17	158.80	11.68	-41.2	-44.7	12.8	5.49e-05	0	53	0	97517568	54	5251
2026-01-04 09:53:53.21	158.79	12.06	-41.2	-44.8	12.8	5.87e-05	0	54	0	104857600	54	5283
2026-01-04 09:53:57.26	158.78	12.45	-41.2	-44.6	13.0	4.73e-05	0	54	0	112197632	54	5217
2026-01-04 09:54:01.29	158.77	12.84	-41.1	-44.5	13.1	3.50e-05	0	54	0	120586240	54	5154
2026-01-04 09:54:05.33	158.76	13.24	-41.0	-44.4	13.4	9.10e-06	0	54	0	127926272	54	5046
2026-01-04 09:54:09.37	158.74	13.65	-41.0	-44.3	13.5	1.06e-05	0	54	0	135266304	54	4986
2026-01-04 09:54:13.41	158.73	14.06	-40.9	-44.1	13.7	9.90e-06	0	54	0	142606336	53	5191
2026-01-04 09:54:17.45	158.72	14.48	-41.0	-44.2	13.6	6.10e-06	0	54	0	149946368	53	5231
2026-01-04 09:54:21.49	158.70	14.91	-40.8	-43.9	13.9	3.00e-06	0	54	0	158334976	53	5086
2026-01-04 09:54:25.53	158.68	15.34	-40.8	-43.8	14.0	3.00e-06	0	54	0	165675008	53	5004
2026-01-04 09:54:29.57	158.67	15.79	-40.6	-43.5	14.3	3.00e-06	0	54	0	173015040	53	4863
2026-01-04 09:54:33.61	158.65	16.24	-40.6	-43.5	14.4	7.00e-07	0	54	0	180355072	53	4866
2026-01-04 09:54:37.64	158.63	16.70	-40.6	-43.4	14.5	0.00e+00	0	54	0	188743680	53	4810
2026-01-04 09:54:41.68	158.61	17.17	-40.5	-43.3	14.7	0.00e+00	0	55	0	196083712	52	5001
2026-01-04 09:54:45.72	158.59	17.65	-40.4	-43.1	14.9	0.00e+00	0	55	0	203423744	52	4902
2026-01-04 09:54:49.76	158.57	18.14	-40.3	-43.0	15.0	0.00e+00	0	55	0	210763776	52	4848
2026-01-04 09:54:53.79	158.55	18.63	-40.3	-43.0	15.0	0.00e+00	0	55	0	218103808	52	4824
2026-01-04 09:54:57.83	158.52	19.14	-40.3	-42.9	15.1	0.00e+00	0	55	0	226492416	52	4797
2026-01-04 09:55:01.87	158.50	19.66	-40.3	-43.0	15.0	0.00e+00	0	55	0	233832448	52	4840
2026-01-04 09:55:05.91	158.47	20.19	-40.2	-42.8	15.2	0.00e+00	0	55	0	241172480	52	4739
2026-01-04 09:55:09.95	158.44	20.74	-40.2	-42.8	15.3	0.00e+00	0	55	0	248512512	52	4734
2026-01-04 09:55:13.99	158.41	21.29	-40.1	-42.7	15.4	0.00e+00	0	55	0	256901120	52	4667
2026-01-04 09:55:18.03	158.38	21.86	-40.2	-42.8	15.3	0.00e+00	0	55	0	264241152	52	4740
2026-01-04 09:55:22.06	158.35	22.43	-40.1	-42.6	15.5	0.00e+00	0	55	0	271581184	52	4626
2026-01-04 09:55:26.10	158.32	23.03	-40.1	-42.7	15.5	0.00e+00	0	55	0	278921216	52	4663
2026-01-04 09:55:30.14	158.28	23.63	-40.1	-42.6	15.6	0.00e+00	0	55	0	286261248	51	4892
2026-01-04 09:55:34.18	158.24	24.25	-40.4	-43.0	15.2	0.00e+00	0	55	0	294649856	51	5120
2026-01-04 09:55:38.22	158.20	24.89	-40.3	-42.9	15.3	0.00e+00	0	55	0	301989888	51	5100
2026-01-04 09:55:42.26	158.16	25.54	-40.4	-43.0	15.2	0.00e+00	0	55	0	309329920	51	5131
2026-01-04 09:55:46.29	158.12	26.21	-40.4	-43.1	15.2	0.00e+00	0	55	0	316669952	51	5178
2026-01-04 09:55:50.33	158.07	26.89	-40.4	-43.0	15.2	0.00e+00	0	55	0	324009984	51	5149
2026-01-04 09:55:54.37	158.02	27.60	-40.6	-43.3	15.0	0.00e+00	0	55	0	332398592	51	5298
2026-01-04 09:55:58.41	157.97	28.32	-40.7	-43.6	14.6	0.00e+00	0	55	0	339738624	52	5196
2026-01-04 09:56:02.45	157.92	29.06	-41.2	-44.3	13.9	2.20e-06	0	55	0	347078656	52	5604
2026-01-04 09:56:06.49	157.86	29.82	-41.5	-44.8	13.4	4.50e-06	0	55	0	354418688	53	5655
2026-01-04 09:56:10.53	157.80	30.60	-41.9	-45.6	12.6	7.09e-05	0	55	0	362807296	54	5846
2026-01-04 09:56:14.57	157.73	31.40	-42.0	-45.7	12.5	9.53e-05	0	55	0	370147328	54	5887
2026-01-04 09:56:18.61	157.66	32.23	-42.0	-45.8	12.4	1.72e-04	0	56	0	377487360	54	5965
2026-01-04 09:56:22.65	157.59	33.08	-42.1	-45.9	12.3	2.23e-04	0	56	0	384827392	54	6010
2026-01-04 09:56:26.68	157.51	33.95	-41.7	-45.2	13.0	6.25e-05	0	56	0	392167424	54	5587
2026-01-04 09:56:30.72	157.43	34.85	-41.2	-44.4	13.9	3.00e-06	0	56	0	400556032	54	5043
2026-01-04 09:56:34.76	157.34	35.77	-40.5	-43.1	15.2	0.00e+00	0	56	0	407896064	53	4641
2026-01-04 09:56:38.81	157.25	36.73	-40.1	-42.5	16.0	0.00e+00	0	56	0	415236096	51	4824
2026-01-04 09:56:42.85	157.14	37.71	-39.9	-42.2	16.3	0.00e+00	0	56	0	422576128	51	4688
2026-01-04 09:56:46.89	157.04	38.72	-40.0	-42.3	16.2	0.00e+00	0	56	0	430964736	51	4733
2026-01-04 09:56:50.93	156.92	39.76	-40.1	-42.5	16.0	0.00e+00	0	56	0	438304768	51	4822
2026-01-04 09:56:54.97	156.80	40.83	-40.4	-42.9	15.5	0.00e+00	0	56	0	445644800	51	5088
2026-01-04 09:56:59.01	156.66	41.94	-40.6	-43.2	15.2	0.00e+00	0	56	0	452984832	51	5267
2026-01-04 09:57:03.05	156.52	43.08	-40.5	-43.2	15.2	0.00e+00	0	56	0	461373440	52	4927
2026-01-04 09:57:07.08	156.36	44.25	-40.8	-43.6	14.9	0.00e+00	0	56	0	468713472	52	5160
2026-01-04 09:57:11.12	156.19	45.46	-41.5	-44.7	13.6	1.50e-06	0	56	0	476053504	53	5557
2026-01-04 09:57:15.16	156.01	46.71	-42.3	-46.3	12.0	1.32e-04	0	56	0	483393536	55	5939
2026-01-04 09:57:19.20	155.81	47.99	-42.4	-46.4	11.9	4.77e-04	0	56	0	490733568	55	6039
2026-01-04 09:57:23.24	155.59	49.32	-41.5	-44.8	13.5	1.90e-05	0	56	0	499122176	55	5018
2026-01-04 09:57:27.28	155.35	50.68	-40.6	-43.3	15.0	0.00e+00	0	56	0	506462208	53	4753
2026-01-04 09:57:31.32	155.08	52.09	-39.3	-41.4	17.1	0.00e+00	0	56	0	513802240	50	4501
2026-01-04 09:57:35.36	154.79	53.53	-39.4	-41.6	16.9	0.00e+00	0	56	0	521142272	50	4617
2026-01-04 09:57:39.39	154.46	55.02	-39.7	-41.9	16.7	0.00e+00	0	56	0	529530880	50	4773
2026-01-04 09:57:43.43	154.10	56.55	-41.0	-43.9	14.6	0.00e+00	0	56	0	536870912	52	5358
2026-01-04 09:57:47.47	153.69	58.12	-42.4	-46.6	11.8	3.80e-04	0	56	0	544210944	55	6162
2026-01-04 09:57:51.50	153.23	59.73	-42.1	-46.0	12.4	1.77e-04	0	56	0	551550976	55	5750
2026-01-04 09:57:55.54	152.71	61.38	-40.5	-43.2	15.2	7.00e-07	0	56	0	558891008	53	4688
2026-01-04 09:57:59.59	152.11	63.08	-39.7	-42.0	16.5	0.00e+00	0	56	0	567279616	51	4549
2026-01-04 09:58:03.63	151.41	64.81	-39.9	-42.2	16.3	0.00e+00	0	56	0	574619648	51	4700
2026-01-04 09:58:07.67	150.59	66.57	-40.8	-43.6	14.8	0.00e+00	0	56	0	581959680	52	5212
2026-01-04 09:58:11.71	149.62	68.37	-41.1	-44.2	14.2	3.00e-06	0	56	0	589299712	53	5233
2026-01-04 09:58:15.74	148.46	70.20	-41.0	-44.0	14.3	7.00e-07	0	56	0	597688320	53	5135
2026-01-04 09:58:19.78	147.04	72.06	-41.1	-44.2	14.2	1.50e-06	0	56	0	605028352	53	5225
2026-01-04 09:58:23.82	145.26	73.93	-41.5	-44.9	13.4	1.22e-05	0	56	0	612368384	53	5715
2026-01-04 09:58:27.86	142.99	75.81	-40.7	-43.5	14.9	0.00e+00	0	56	0	619708416	53	4817
2026-01-04 09:58:31.90	139.98	77.69	-41.5	-44.8	13.4	3.00e-06	0	56	0	627048448	53	5649
2026-01-04 09:58:35.94	135.87	79.55	-40.5	-43.3	15.0	0.00e+00	0	56	0	635437056	53	4727
2026-01-04 09:58:39.98	129.97	81.35	-41.6	-45.0	13.3	6.80e-06	0	56	0	642777088	53	5768
2026-01-04 09:58:44.01	121.08	83.02	-40.0	-42.5	15.8	0.00e+00	0	56	0	650117120	52	4559
2026-01-04 09:58:48.05	107.11	84.43	-38.9	-40.9	17.5	0.00e+00	0	56	0	657457152	49	4524
2026-01-04 09:58:52.09	85.90	85.33	-40.1	-42.6	15.9	0.00e+00	0	56	0	665845760	50	5167
2026-01-04 09:58:56.13	59.98	85.39	-40.8	-43.7	14.6	7.00e-07	0	56	0	673185792	52	5278
2026-01-04 09:59:00.17	37.87	84.58	-40.0	-42.4	16.0	0.00e+00	0	56	0	680525824	52	4517
2026-01-04 09:59:04.21	23.08	83.21	-41.1	-44.1	14.3	0.00e+00	0	56	0	687865856	52	5496
2026-01-04 09:59:08.25	13.68	81.57	-41.2	-44.4	14.1	7.00e-07	0	56	0	695205888	53	5353
2026-01-04 09:59:12.29	7.49	79.78	-40.0	-42.4	16.1	0.00e+00	0	56	0	703594496	51	4778
2026-01-04 09:59:16.32	3.21	77.94	-40.2	-42.6	15.9	0.00e+00	0	56	0	710934528	51	4926
2026-01-04 09:59:20.36	0.09	76.06	-41.3	-44.5	13.9	3.00e-06	0	56	0	718274560	53	5445
2026-01-04 09:59:24.40	357.74	74.18	-42.3	-46.5	11.8	4.58e-04	0	56	0	725614592	55	6084
2026-01-04 09:59:28.44	355.91	72.31	-40.9	-43.8	14.6	0.00e+00	0	56	0	734003200	53	5004
2026-01-04 09:59:32.47	354.45	70.46	-41.3	-44.5	14.0	2.20e-06	0	56	0	741343232	53	5459
2026-01-04 09:59:36.51	353.26	68.63	-41.8	-45.3	13.1	1.22e-05	0	56	0	748683264	54	5649
2026-01-04 09:59:40.55	352.27	66.83	-42.2	-46.1	12.3	4.61e-04	0	56	0	756023296	55	5817
2026-01-04 09:59:44.59	351.44	65.06	-40.6	-43.3	15.2	9.53e-05	0	57	0	763363328	52	4989
2026-01-04 09:59:48.63	350.73	63.33	-39.4	-41.5	17.0	0.00e+00	0	56	0	771751936	50	4581
2026-01-04 09:59:52.66	350.12	61.64	-38.7	-40.6	18.0	0.00e+00	0	56	0	779091968	49	4364
2026-01-04 09:59:56.70	349.59	59.99	-41.3	-44.4	14.1	7.60e-06	0	56	0	786432000	53	5348
2026-01-04 10:00:00.75	349.12	58.37	-41.6	-44.9	13.6	6.80e-06	0	56	0	793772032	53	5682
2026-01-04 10:00:04.79	348.70	56.80	-41.4	-44.6	13.9	1.44e-05	0	57	0	801112064	54	5166
2026-01-04 10:00:08.83	348.34	55.27	-40.1	-42.5	15.9	0.00e+00	0	56	0	809500672	52	4597
2026-01-04 10:00:12.86	348.01	53.79	-39.5	-41.7	16.9	0.00e+00	0	57	0	816840704	51	4407
2026-01-04 10:00:16.90	347.71	52.34	-40.3	-42.8	15.8	0.00e+00	0	56	0	824180736	51	5002
2026-01-04 10:00:20.94	347.44	50.93	-41.1	-44.0	14.4	0.00e+00	0	57	0	831520768	53	5154
2026-01-04 10:00:24.98	347.20	49.57	-41.7	-45.2	13.3	9.10e-06	0	56	0	839909376	54	5571
2026-01-04 10:00:29.02	346.98	48.24	-43.3	-48.5	9.9	1.55e-02	0	56	0	847249408	57	6830
2026-01-04 10:00:33.06	346.78	46.96	-40.6	-43.2	15.2	0.00e+00	0	57	0	854589440	53	4694
2026-01-04 10:00:37.10	346.60	45.71	-42.2	-46.1	12.3	1.18e-04	0	56	0	861929472	54	6144
2026-01-04 10:00:41.13	346.43	44.50	-41.3	-44.4	14.1	3.00e-06	0	56	0	869269504	54	5055
2026-01-04 10:00:45.17	346.27	43.33	-40.4	-42.9	15.5	0.00e+00	0	56	0	877658112	52	4799
2026-01-04 10:00:49.21	346.12	42.19	-42.4	-46.5	11.8	8.92e-05	0	56	0	884998144	55	6067
2026-01-04 10:00:53.25	345.99	41.08	-42.4	-46.3	12.2	3.05e-04	0	56	0	892338176	56	5619
2026-01-04 10:00:57.28	345.87	40.01	-41.0	-43.9	14.5	2.20e-06	0	57	0	899678208	54	4813
2026-01-04 10:01:01.32	345.75	38.97	-42.4	-46.5	11.9	2.09e-04	0	56	0	908066816	55	6107
2026-01-04 10:01:05.36	345.64	37.96	-43.3	-48.6	9.8	1.19e-02	0	56	0	915406848	57	6885
2026-01-04 10:01:09.40	345.54	36.98	-42.6	-46.8	11.5	7.54e-04	0	56	0	922746880	57	5655
2026-01-04 10:01:13.44	345.45	36.02	-42.3	-46.1	12.3	2.39e-04	0	56	0	930086912	56	5516
2026-01-04 10:01:17.48	345.36	35.10	-42.6	-46.9	11.5	6.13e-04	0	57	0	937426944	56	6033
2026-01-04 10:01:21.52	345.28	34.20	-43.4	-49.1	9.2	1.71e-02	0	56	0	945815552	57	7313
2026-01-04 10:01:25.56	345.20	33.33	-43.5	-49.3	8.8	3.04e-02	0	57	0	953155584	57	7462
2026-01-04 10:01:29.60	345.13	32.48	-42.7	-47.1	11.2	1.88e-03	0	56	0	960495616	57	5825
2026-01-04 10:01:33.64	345.06	31.65	-42.1	-45.8	12.6	1.11e-04	0	57	0	967835648	56	5302
2026-01-04 10:01:37.68	345.00	30.85	-42.1	-46.1	12.1	2.48e-04	0	57	0	976224256	55	5819
2026-01-04 10:01:41.71	344.94	30.07	-42.5	-47.0	11.1	1.98e-03	0	57	0	983564288	55	6452
2026-01-04 10:01:45.75	344.89	29.31	-42.3	-46.6	11.5	1.03e-03	0	57	0	990904320	55	6148
2026-01-04 10:01:49.79	344.83	28.57	-41.7	-45.5	12.6	1.17e-04	0	56	0	998244352	55	5405
2026-01-04 10:01:53.83	344.78	27.85	-41.0	-44.0	14.1	7.60e-06	0	56	0	1005584384	54	4850
2026-01-04 10:01:57.87	344.74	27.14	-40.4	-43.1	15.0	0.00e+00	0	56	0	1013972992	52	4921
2026-01-04 10:02:01.91	344.69	26.46	-40.3	-43.1	15.0	0.00e+00	0	56	0	1021313024	52	4881
2026-01-04 10:02:05.95	344.65	25.79	-40.3	-43.0	15.1	0.00e+00	0	57	0	1028653056	52	4816
2026-01-04 10:02:09.99	344.61	25.14	-40.2	-42.8	15.1	0.00e+00	0	57	0	1035993088	52	4759
2026-01-04 10:02:14.03	344.57	24.50	-40.1	-42.8	15.1	0.00e+00	0	57	0	1044381696	52	4754
2026-01-04 10:02:18.07	344.54	23.88	-39.9	-42.4	15.5	0.00e+00	0	57	0	1051721728	51	4800
2026-01-04 10:02:22.11	344.50	23.27	-39.5	-42.0	15.7	0.00e+00	0	57	0	1059061760	51	4554
2026-01-04 10:02:26.15	344.47	22.68	-39.4	-42.1	15.2	0.00e+00	0	57	0	1066401792	50	4907
2026-01-04 10:02:30.18	344.44	22.10	-38.9	-41.5	15.5	0.00e+00	0	56	0	1073741824	49	4838
2026-01-04 10:02:34.22	344.41	21.54	-39.4	-42.6	13.9	0.00e+00	0	56	0	1082130432	49	5499
2026-01-04 10:02:38.26	344.39	20.98	-40.7	-47.2	7.9	3.77e-02	0	56	0	1089470464	52	7855
2026-01-04 10:02:42.30	344.36	20.44	-40.7	-52.5	4.1	1.38e+00	0	57	0	1095761920	52	14427
2026-01-04 10:02:46.34	344.34	19.91	-40.4	-54.6	3.8	1.49e+00	0	56	104	1095761920	52	18471
2026-01-04 10:02:50.38	344.32	19.39	-40.5	-55.0	3.8	1.49e+00	0	56	104	1095761920	52	19327
2026-01-04 10:02:54.42	344.29	18.88	-40.4	-55.0	3.8	1.49e+00	0	57	104	1095761920	52	19275
2026-01-04 10:02:58.46	344.27	18.38	-40.7	-55.3	3.8	1.49e+00	0	57	104	1095761920	52	20056
2026-01-04 10:03:02.51	344.26	17.90	-40.4	-55.1	3.8	1.49e+00	0	57	104	1095761920	52	19407
2026-01-04 10:03:06.55	344.24	17.42	-40.8	-55.4	3.8	1.49e+00	0	57	104	1095761920	52	20183
2026-01-04 10:03:10.59	344.22	16.95	-40.3	-55.3	3.8	1.49e+00	0	57	104	1095761920	52	19886
2026-01-04 10:03:14.63	344.21	16.49	-40.8	-55.4	3.8	1.49e+00	0	57	104	1095761920	52	20198
2026-01-04 10:03:18.67	344.19	16.03	-40.5	-55.2	3.8	1.49e+00	0	57	104	1095761920	52	19645
2026-01-04 10:03:22.71	344.18	15.59	-40.6	-55.4	3.8	1.49e+00	0	57	104	1095761920	52	20089
2026-01-04 10:03:26.75	344.17	15.15	-40.6	-55.2	3.8	1.49e+00	0	57	104	1095761920	52	19700
2026-01-04 10:03:30.78	344.15	14.73	-40.7	-55.3	3.8	1.49e+00	0	57	104	1095761920	52	20041
2026-01-04 10:03:34.82	344.14	14.31	-40.3	-55.1	3.8	1.49e+00	0	57	104	1095761920	52	19559
2026-01-04 10:03:38.86	344.13	13.89	-40.7	-55.2	3.8	1.49e+00	0	57	104	1095761920	52	19737
2026-01-04 10:03:42.91	344.12	13.49	-40.5	-55.2	3.8	1.49e+00	0	57	104	1095761920	52	19702
2026-01-04 10:03:46.95	344.11	13.09	-40.6	-55.2	3.8	1.49e+00	0	57	104	1095761920	52	19619
2026-01-04 10:03:50.99	344.10	12.69	-40.4	-55.0	3.8	1.49e+00	0	57	104	1095761920	52	19307
2026-01-04 10:03:55.03	344.10	12.30	-40.7	-55.2	3.8	1.49e+00	0	57	104	1095761920	52	19711
2026-01-04 10:03:59.07	344.09	11.92	-40.4	-55.1	3.8	1.49e+00	0	57	104	1095761920	52	19425
2026-01-04 10:04:03.11	344.08	11.55	-40.3	-54.9	3.8	1.49e+00	0	57	104	1095761920	52	18986
2026-01-04 10:04:07.15	344.08	11.18	-40.3	-55.0	3.8	1.49e+00	0	57	104	1095761920	52	19202
2026-01-04 10:04:11.19	344.07	10.81	-40.4	-54.9	3.8	1.49e+00	0	57	104	1095761920	52	19135
2026-01-04 10:04:15.23	344.07	10.46	-40.2	-54.7	3.8	1.49e+00	0	57	104	1095761920	52	18679
2026-01-04 10:04:19.27	344.06	10.10	-40.5	-55.1	3.8	1.49e+00	0	57	104	1095761920	52	19520
2026-01-04 10:04:23.31	344.06	9.75	-40.3	-54.8	3.8	1.49e+00	0	57	104	1095761920	52	18924
2026-01-04 10:04:27.34	344.06	9.41	-40.4	-55.0	3.8	1.49e+00	0	57	104	1095761920	52	19248
2026-01-04 10:04:31.38	344.05	9.07	-40.4	-54.9	3.8	1.49e+00	0	57	104	1095761920	52	19151
2026-01-04 10:04:35.42	344.05	8.74	-40.4	-55.0	3.8	1.49e+00	0	57	104	1095761920	52	19249
2026-01-04 10:04:39.46	344.05	8.41	-40.4	-54.9	3.8	1.49e+00	0	57	104	1095761920	52	19145
2026-01-04 10:04:43.50	344.05	8.08	-40.5	-55.1	3.8	1.49e+00	0	57	104	1095761920	52	19390
2026-01-04 10:04:47.55	344.05	7.76	-44.7	-59.3	3.8	1.49e+00	0	57	104	1095761920	59	21081
2026-01-04 10:04:51.59	344.05	7.44	-45.1	-59.9	3.8	1.49e+00	0	57	104	1095761920	60	21282
2026-01-04 10:04:55.64	344.05	7.13	-45.1	-59.9	3.8	1.49e+00	0	57	104	1095761920	60	21315
2026-01-04 10:04:59.68	344.05	6.82	-45.0	-59.8	3.8	1.49e+00	0	57	104	1095761920	60	21066
2026-01-04 10:05:03.72	344.05	6.51	-44.9	-59.7	3.8	1.49e+00	0	57	104	1095761920	60	20982
2026-01-04 10:05:07.77	344.05	6.21	-44.9	-59.8	3.8	1.49e+00	0	57	104	1095761920	60	21038
2026-01-04 10:05:11.81	344.05	5.91	-44.9	-59.7	3.8	1.49e+00	0	57	104	1095761920	60	21017
2026-01-04 10:05:15.85	344.05	5.61	-44.9	-59.7	3.8	1.49e+00	0	57	104	1095761920	60	21010
2026-01-04 10:05:19.90	344.05	5.32	-44.9	-59.8	3.8	1.49e+00	0	57	104	1095761920	60	21028
2026-01-04 10:05:23.94	344.05	5.03	-44.9	-59.7	3.8	1.49e+00	0	57	104	1095761920	60	20974
2026-01-04 10:05:27.99	344.06	4.74	-44.9	-59.7	3.8	1.49e+00	0	57	104	1095761920	60	20941
2026-01-04 10:05:32.03	344.06	4.46	-44.9	-59.7	3.8	1.49e+00	0	57	104	1095761920	60	20941
2026-01-04 10:05:36.08	344.06	4.18	-44.9	-59.7	3.8	1.49e+00	0	57	104	1095761920	60	20917
2026-01-04 10:05:40.12	344.07	3.90	-44.7	-59.7	3.8	1.49e+00	0	57	104	1095761920	60	20943
2026-01-04 10:05:44.16	344.07	3.63	-44.9	-59.7	3.8	1.49e+00	0	57	104	1095761920	60	20920
2026-01-04 10:05:48.21	344.07	3.36	-44.9	-59.7	3.8	1.49e+00	0	57	104	1095761920	60	20936
2026-01-04 10:05:52.25	344.08	3.09	-44.9	-59.7	3.8	1.49e+00	0	57	104	1095761920	60	20918
2026-01-04 10:05:56.29	344.08	2.82	-44.9	-59.7	3.8	1.49e+00	0	57	104	1095761920	60	20976
2026-01-04 10:06:00.34	344.09	2.56	-44.9	-59.7	3.8	1.49e+00	0	57	104	1095761920	60	20863
2026-01-04 10:06:04.38	344.09	2.30	-44.9	-59.7	3.8	1.49e+00	0	57	104	1095761920	60	20912
2026-01-04 10:06:08.43	344.10	2.04	-44.9	-59.7	3.8	1.49e+00	0	57	104	1095761920	60	20941

#Closed at: 2026-01-04 10:06:11
#Recorded file [1095 MB]: D:/lorett/data/31039_260104_125143.dat