passes_logs/2026/01/04/R2.0S_Moscow/R2.0S_Moscow__20260104_054910_FENGYUN_3E_rec.log

#Pass ID: 20260104_054910_FENGYUN 3E
#Satellite: FENGYUN 3E
#Configuration: FENGYUN 3E
#almurnet v.1.7.20251203
#Start time: 2026-01-04 05:49:11

#Version: 2.2.20231116
#Station: R2.0S_Moscow
#Location: 37.707566 lon 55.798166 lat
#TLE: 1 49008U 21062A   26003.51942929 -.00000034  00000+0  45519-5 0  9990
#TLE: 2 49008  98.7472   8.7829 0001426 160.7926 199.3304 14.19883272233213

#Time	Az	El	Level	Level2	SNR	BER	BlckErr	Temp	State	Recorded	gain1	gain2
2026-01-04 05:49:11.56	9.54	2.07	-39.9	-51.2	3.8	8.47e-01	0	47	0	0	50	13195
2026-01-04 05:49:14.60	9.32	2.24	-39.9	-51.2	3.8	8.46e-01	0	47	104	0	50	13200
2026-01-04 05:49:17.64	9.10	2.40	-39.9	-51.2	3.8	8.46e-01	0	48	104	0	50	13176
2026-01-04 05:49:20.67	8.87	2.57	-39.9	-51.2	3.8	8.46e-01	0	48	104	0	50	13185
2026-01-04 05:49:23.70	8.65	2.74	-39.9	-51.2	3.8	8.45e-01	0	48	104	0	50	13196
2026-01-04 05:49:26.74	8.42	2.90	-39.9	-51.2	3.8	8.46e-01	0	48	104	0	50	13215
2026-01-04 05:49:29.77	8.18	3.07	-39.9	-51.2	3.8	8.46e-01	0	49	104	0	50	13221
2026-01-04 05:49:32.80	7.95	3.24	-39.9	-51.2	3.8	8.47e-01	0	49	104	0	50	13163
2026-01-04 05:49:35.84	7.71	3.41	-39.9	-51.2	3.8	8.46e-01	0	49	104	0	50	13187
2026-01-04 05:49:38.87	7.47	3.58	-39.9	-51.2	3.8	8.45e-01	0	49	104	0	50	13156
2026-01-04 05:49:41.90	7.23	3.75	-39.9	-51.2	3.8	8.45e-01	0	49	104	0	50	13173
2026-01-04 05:49:44.93	6.98	3.92	-39.9	-51.2	3.8	8.46e-01	0	49	104	0	50	13166
2026-01-04 05:49:47.97	6.73	4.09	-39.9	-51.2	3.8	8.45e-01	0	50	104	0	50	13136
2026-01-04 05:49:51.00	6.48	4.26	-39.9	-51.2	3.8	8.47e-01	0	50	104	0	50	13175
2026-01-04 05:49:54.03	6.22	4.44	-39.9	-51.2	3.8	8.47e-01	0	50	104	0	50	13174
2026-01-04 05:49:57.07	5.96	4.61	-39.9	-51.2	3.8	8.46e-01	0	50	104	0	50	13137
2026-01-04 05:50:00.10	5.70	4.78	-39.9	-51.2	3.8	8.46e-01	0	50	104	0	50	13174
2026-01-04 05:50:03.13	5.43	4.96	-39.9	-51.2	3.8	8.46e-01	0	51	104	0	50	13153
2026-01-04 05:50:06.17	5.16	5.13	-39.9	-51.2	3.8	8.47e-01	0	51	104	0	50	13142
2026-01-04 05:50:09.20	4.89	5.31	-39.9	-51.2	3.8	8.45e-01	0	51	104	0	50	13145
2026-01-04 05:50:12.23	4.62	5.48	-39.9	-51.2	3.8	8.47e-01	0	51	104	0	50	13165
2026-01-04 05:50:15.26	4.34	5.66	-39.9	-51.2	3.8	8.47e-01	0	51	104	0	50	13131
2026-01-04 05:50:18.30	4.05	5.84	-39.9	-51.2	3.8	8.45e-01	0	51	104	0	50	13169
2026-01-04 05:50:21.33	3.77	6.01	-39.9	-51.2	3.8	8.46e-01	0	52	104	0	50	13149
2026-01-04 05:50:24.36	3.48	6.19	-39.9	-51.2	3.8	8.45e-01	0	52	104	0	50	13122
2026-01-04 05:50:27.40	3.18	6.37	-39.9	-51.2	3.8	8.46e-01	0	52	104	0	50	13164
2026-01-04 05:50:30.43	2.89	6.55	-39.9	-51.2	3.8	8.46e-01	0	52	104	0	50	13191
2026-01-04 05:50:33.46	2.58	6.73	-39.9	-51.2	3.8	8.46e-01	0	52	104	0	50	13125
2026-01-04 05:50:36.49	2.28	6.91	-39.9	-51.2	3.8	8.46e-01	0	52	104	0	50	13149
2026-01-04 05:50:39.53	1.97	7.09	-39.9	-51.1	3.8	8.46e-01	0	52	104	0	50	13099
2026-01-04 05:50:42.56	1.66	7.27	-39.9	-51.2	3.8	8.46e-01	0	52	104	0	50	13114
2026-01-04 05:50:45.60	1.34	7.45	-39.9	-51.2	3.8	8.45e-01	0	53	104	0	50	13144
2026-01-04 05:50:48.63	1.02	7.63	-39.9	-51.2	3.8	8.46e-01	0	53	104	0	50	13135
2026-01-04 05:50:51.66	0.69	7.82	-39.9	-51.2	3.8	8.46e-01	0	53	104	0	50	13136
2026-01-04 05:50:54.70	0.36	8.00	-39.9	-51.2	3.8	8.46e-01	0	53	104	0	50	13118
2026-01-04 05:50:57.73	0.03	8.18	-39.9	-51.3	3.8	8.46e-01	0	53	104	0	50	13316
2026-01-04 05:51:00.76	359.69	8.37	-39.9	-51.3	3.8	8.47e-01	0	53	104	0	50	13387
2026-01-04 05:51:03.79	359.35	8.55	-39.8	-51.3	3.8	8.46e-01	0	53	104	0	50	13326
2026-01-04 05:51:06.81	359.00	8.73	-39.6	-51.2	3.8	8.45e-01	0	53	104	0	50	13246
2026-01-04 05:51:09.84	358.65	8.92	-39.8	-51.3	3.8	8.46e-01	0	53	104	0	49	14073
2026-01-04 05:51:12.87	358.29	9.10	-39.9	-51.2	3.8	8.47e-01	0	54	104	0	49	14037
2026-01-04 05:51:15.90	357.93	9.29	-39.6	-51.2	3.8	8.46e-01	0	54	104	0	48	14778
2026-01-04 05:51:18.93	357.56	9.47	-39.9	-51.3	3.8	8.46e-01	0	54	104	0	49	14185
2026-01-04 05:51:21.96	357.19	9.66	-39.6	-51.1	3.8	8.45e-01	0	54	104	0	49	13845
2026-01-04 05:51:24.99	356.82	9.84	-39.4	-51.2	3.8	8.46e-01	0	54	104	0	49	13991
2026-01-04 05:51:28.02	356.44	10.03	-39.8	-51.2	3.8	8.45e-01	0	54	104	0	49	13900
2026-01-04 05:51:31.05	356.05	10.21	-40.2	-51.3	3.8	8.47e-01	0	54	104	0	49	14148
2026-01-04 05:51:34.08	355.66	10.40	-39.3	-51.2	3.8	8.45e-01	0	54	104	0	49	13949
2026-01-04 05:51:37.11	355.26	10.59	-40.3	-51.5	3.8	8.46e-01	0	54	104	0	50	13626
2026-01-04 05:51:40.14	354.86	10.77	-40.1	-51.3	3.8	8.46e-01	0	54	104	0	50	13341
2026-01-04 05:51:43.17	354.46	10.96	-40.5	-51.6	3.8	8.46e-01	0	54	104	0	50	13777
2026-01-04 05:51:46.20	354.05	11.15	-40.2	-51.3	3.8	8.47e-01	0	54	104	0	50	13384
2026-01-04 05:51:49.23	353.63	11.33	-40.1	-51.8	3.8	8.46e-01	0	54	104	0	50	14072
2026-01-04 05:51:52.26	353.21	11.52	-40.3	-51.5	3.8	8.46e-01	0	54	104	0	50	13653
2026-01-04 05:51:55.29	352.78	11.70	-40.7	-52.0	3.8	8.47e-01	0	54	104	0	51	13695
2026-01-04 05:51:58.32	352.34	11.89	-40.2	-51.8	3.8	8.46e-01	0	54	104	0	51	13314
2026-01-04 05:52:01.35	351.90	12.07	-40.8	-51.9	3.8	8.47e-01	0	55	104	0	51	13513
2026-01-04 05:52:04.38	351.46	12.26	-40.9	-51.9	3.8	8.46e-01	0	55	104	0	51	13519
2026-01-04 05:52:07.41	351.01	12.44	-40.9	-51.9	3.8	8.45e-01	0	55	104	0	51	13549
2026-01-04 05:52:10.43	350.55	12.63	-40.9	-52.0	3.8	8.47e-01	0	55	104	0	51	13724
2026-01-04 05:52:13.46	350.09	12.81	-40.8	-52.0	3.8	8.47e-01	0	55	104	0	51	13693
2026-01-04 05:52:16.49	349.62	13.00	-40.8	-52.0	3.8	8.46e-01	0	55	104	0	51	13625
2026-01-04 05:52:19.53	349.15	13.18	-40.9	-52.1	3.8	8.46e-01	0	55	104	0	52	13097
2026-01-04 05:52:22.56	348.67	13.36	-41.0	-52.1	3.8	8.47e-01	0	55	104	0	52	13074
2026-01-04 05:52:25.59	348.18	13.54	-41.5	-52.4	3.8	8.47e-01	0	55	104	0	52	13553
2026-01-04 05:52:28.61	347.69	13.72	-41.5	-52.5	3.8	8.46e-01	0	55	104	0	52	13675
2026-01-04 05:52:31.64	347.19	13.91	-41.5	-52.5	3.8	8.46e-01	0	55	104	0	52	13650
2026-01-04 05:52:34.67	346.69	14.08	-41.4	-52.3	3.8	8.47e-01	0	55	104	0	53	12646
2026-01-04 05:52:37.70	346.17	14.26	-41.6	-52.5	3.8	8.46e-01	0	55	104	0	53	12958
2026-01-04 05:52:40.73	345.66	14.44	-41.4	-52.3	3.8	8.45e-01	0	55	104	0	53	12645
2026-01-04 05:52:43.76	345.13	14.62	-41.1	-52.2	3.8	8.46e-01	0	55	104	0	52	13126
2026-01-04 05:52:46.79	344.60	14.79	-41.1	-52.3	3.8	8.45e-01	0	55	104	0	52	13366
2026-01-04 05:52:49.82	344.07	14.97	-40.9	-52.1	3.8	8.46e-01	0	55	104	0	52	12988
2026-01-04 05:52:52.85	343.52	15.14	-41.0	-52.1	3.8	8.46e-01	0	56	104	0	52	13069
2026-01-04 05:52:55.88	342.97	15.31	-40.9	-52.0	3.8	8.46e-01	0	55	104	0	52	12959
2026-01-04 05:52:58.92	342.42	15.48	-40.9	-51.9	3.8	8.46e-01	0	56	104	0	52	12746
2026-01-04 05:53:01.94	341.85	15.65	-41.1	-52.1	3.8	8.45e-01	0	56	104	0	52	13056
2026-01-04 05:53:04.98	341.28	15.81	-40.5	-51.8	3.8	8.46e-01	0	55	104	0	52	12659
2026-01-04 05:53:08.01	340.71	15.98	-40.8	-51.9	3.8	8.46e-01	0	56	104	0	52	12703
2026-01-04 05:53:11.04	340.13	16.14	-41.4	-52.0	3.8	8.46e-01	0	56	104	0	52	12820
2026-01-04 05:53:14.07	339.54	16.30	-40.8	-45.4	7.1	1.91e-01	0	56	0	6291456	52	6003
2026-01-04 05:53:17.10	338.94	16.46	-39.6	-42.4	10.8	4.97e-03	0	56	0	28311552	50	4766
2026-01-04 05:53:20.14	338.34	16.62	-37.6	-39.5	13.8	4.50e-06	0	56	0	50331648	46	4330
2026-01-04 05:53:23.17	337.73	16.77	-36.6	-38.1	15.4	0.00e+00	0	56	0	72351744	44	4143
2026-01-04 05:53:26.20	337.12	16.93	-36.6	-38.1	15.7	0.00e+00	0	56	0	94371840	44	4104
2026-01-04 05:53:29.23	336.50	17.08	-35.6	-36.9	17.0	0.00e+00	0	56	0	116391936	42	4008
2026-01-04 05:53:32.26	335.87	17.22	-35.5	-36.8	17.2	0.00e+00	0	56	0	137363456	41	4200
2026-01-04 05:53:35.29	335.24	17.37	-35.4	-36.6	17.5	0.00e+00	0	56	0	159383552	41	4124
2026-01-04 05:53:38.32	334.60	17.51	-35.3	-36.5	17.7	0.00e+00	0	56	0	181403648	41	4076
2026-01-04 05:53:41.35	333.96	17.65	-35.2	-36.4	17.8	0.00e+00	0	56	0	203423744	41	4045
2026-01-04 05:53:44.39	333.31	17.78	-35.2	-36.5	17.8	0.00e+00	0	56	0	225443840	41	4054
2026-01-04 05:53:47.42	332.65	17.92	-35.4	-36.6	17.7	0.00e+00	0	56	0	247463936	41	4126
2026-01-04 05:53:50.45	331.99	18.05	-35.3	-36.5	17.8	0.00e+00	0	56	0	269484032	41	4079
2026-01-04 05:53:53.48	331.32	18.17	-35.0	-36.2	18.1	0.00e+00	0	56	0	290455552	41	3932
2026-01-04 05:53:56.51	330.64	18.29	-35.0	-36.1	18.2	0.00e+00	0	56	0	312475648	40	4144
2026-01-04 05:53:59.54	329.97	18.41	-35.0	-36.2	18.2	0.00e+00	0	56	0	334495744	40	4146
2026-01-04 05:54:02.57	329.28	18.53	-34.9	-36.0	18.3	0.00e+00	0	56	0	356515840	40	4092
2026-01-04 05:54:05.60	328.59	18.64	-34.9	-36.0	18.3	0.00e+00	0	56	0	378535936	40	4083
2026-01-04 05:54:08.63	327.90	18.75	-34.8	-35.9	18.4	0.00e+00	0	56	0	400556032	40	4045
2026-01-04 05:54:11.66	327.20	18.85	-34.7	-35.8	18.5	0.00e+00	0	56	0	421527552	40	3996
2026-01-04 05:54:14.69	326.49	18.95	-34.6	-35.7	18.7	0.00e+00	0	56	0	443547648	40	3934
2026-01-04 05:54:17.72	325.78	19.05	-34.6	-35.7	18.7	0.00e+00	0	56	0	465567744	40	3934
2026-01-04 05:54:20.75	325.07	19.14	-34.7	-35.9	18.5	0.00e+00	0	56	0	487587840	40	4014
2026-01-04 05:54:23.78	324.35	19.23	-34.9	-36.1	18.3	0.00e+00	0	56	0	509607936	40	4103
2026-01-04 05:54:26.81	323.63	19.31	-34.8	-36.0	18.4	0.00e+00	0	56	0	531628032	40	4067
2026-01-04 05:54:29.84	322.90	19.39	-34.8	-35.9	18.4	0.00e+00	0	56	0	553648128	40	4050
2026-01-04 05:54:32.87	322.17	19.46	-34.7	-35.9	18.5	0.00e+00	0	56	0	575668224	40	4019
2026-01-04 05:54:35.90	321.44	19.53	-34.6	-35.7	18.6	0.00e+00	0	56	0	596639744	40	3954
2026-01-04 05:54:38.93	320.70	19.59	-34.5	-35.6	18.8	0.00e+00	0	56	0	618659840	40	3894
2026-01-04 05:54:41.96	319.96	19.65	-34.7	-35.8	18.6	0.00e+00	0	56	0	640679936	40	3980
2026-01-04 05:54:44.99	319.22	19.71	-34.7	-35.8	18.6	0.00e+00	0	56	0	662700032	40	4002
2026-01-04 05:54:48.02	318.48	19.76	-34.5	-35.6	18.8	0.00e+00	0	56	0	684720128	40	3911
2026-01-04 05:54:51.05	317.73	19.80	-34.6	-35.7	18.7	0.00e+00	0	56	0	706740224	40	3953
2026-01-04 05:54:54.08	316.98	19.84	-34.5	-35.7	18.7	0.00e+00	0	57	0	728760320	40	3922
2026-01-04 05:54:57.11	316.23	19.88	-34.6	-35.8	18.6	0.00e+00	0	56	0	749731840	40	3966
2026-01-04 05:55:00.14	315.48	19.91	-34.7	-35.8	18.6	0.00e+00	0	56	0	771751936	40	3974
2026-01-04 05:55:03.17	314.72	19.93	-34.5	-35.6	18.8	0.00e+00	0	57	0	793772032	40	3898
2026-01-04 05:55:06.20	313.97	19.95	-34.6	-35.7	18.7	0.00e+00	0	56	0	815792128	39	4190
2026-01-04 05:55:09.23	313.21	19.96	-34.5	-35.6	18.9	0.00e+00	0	57	0	837812224	39	4132
2026-01-04 05:55:12.26	312.45	19.97	-34.5	-35.6	18.9	0.00e+00	0	56	0	859832320	39	4121
2026-01-04 05:55:15.30	311.69	19.97	-34.5	-35.6	18.8	0.00e+00	0	56	0	881852416	39	4143
2026-01-04 05:55:18.33	310.94	19.97	-34.5	-35.6	18.9	0.00e+00	0	57	0	903872512	39	4129
2026-01-04 05:55:21.36	310.18	19.97	-34.5	-35.7	18.8	0.00e+00	0	56	0	924844032	39	4150
2026-01-04 05:55:24.39	309.42	19.95	-34.6	-35.7	18.8	0.00e+00	0	56	0	946864128	39	4156
2026-01-04 05:55:27.41	308.67	19.94	-34.5	-35.6	18.9	0.00e+00	0	56	0	968884224	39	4116
2026-01-04 05:55:30.45	307.91	19.91	-34.6	-35.7	18.8	0.00e+00	0	57	0	990904320	39	4187
2026-01-04 05:55:33.47	307.16	19.89	-34.6	-35.7	18.8	0.00e+00	0	57	0	1012924416	39	4166
2026-01-04 05:55:36.50	306.41	19.85	-34.4	-35.5	19.0	0.00e+00	0	56	0	1034944512	39	4055
2026-01-04 05:55:39.53	305.66	19.81	-34.5	-35.7	18.8	0.00e+00	0	56	0	1056964608	39	4148
2026-01-04 05:55:42.56	304.91	19.77	-34.6	-35.8	18.7	0.00e+00	0	56	0	1077936128	39	4199
2026-01-04 05:55:45.59	304.16	19.72	-34.5	-35.6	18.8	0.00e+00	0	57	0	1099956224	39	4141
2026-01-04 05:55:48.62	303.42	19.67	-34.3	-35.4	19.0	0.00e+00	0	57	0	1121976320	39	4046
2026-01-04 05:55:51.65	302.68	19.61	-34.5	-35.6	18.8	0.00e+00	0	57	0	1143996416	39	4128
2026-01-04 05:55:54.68	301.94	19.55	-34.7	-35.9	18.6	0.00e+00	0	57	0	1166016512	39	4249
2026-01-04 05:55:57.71	301.20	19.48	-34.5	-35.6	18.9	0.00e+00	0	57	0	1188036608	39	4113
2026-01-04 05:56:00.74	300.47	19.41	-34.5	-35.6	18.9	0.00e+00	0	57	0	1210056704	39	4115
2026-01-04 05:56:03.77	299.74	19.33	-34.6	-35.7	18.7	0.00e+00	0	56	0	1231028224	39	4193
2026-01-04 05:56:06.79	299.02	19.25	-34.7	-35.8	18.6	0.00e+00	0	57	0	1253048320	39	4211
2026-01-04 05:56:09.82	298.30	19.16	-34.5	-35.6	18.8	0.00e+00	0	57	0	1275068416	39	4126
2026-01-04 05:56:12.85	297.58	19.07	-34.5	-35.6	18.8	0.00e+00	0	57	0	1297088512	39	4108
2026-01-04 05:56:15.88	296.87	18.98	-34.6	-35.7	18.7	0.00e+00	0	57	0	1319108608	39	4159
2026-01-04 05:56:18.91	296.16	18.88	-34.6	-35.7	18.7	0.00e+00	0	57	0	1340080128	39	4184
2026-01-04 05:56:21.94	295.46	18.78	-34.5	-35.6	18.8	0.00e+00	0	57	0	1362100224	39	4139
2026-01-04 05:56:24.97	294.76	18.67	-34.9	-36.1	18.3	0.00e+00	0	57	0	1384120320	39	4351
2026-01-04 05:56:27.99	294.07	18.56	-35.0	-36.2	18.1	0.00e+00	0	57	0	1406140416	40	4168
2026-01-04 05:56:31.02	293.38	18.44	-35.1	-36.3	18.1	0.00e+00	0	57	0	1428160512	40	4202
2026-01-04 05:56:34.05	292.70	18.33	-34.9	-36.0	18.3	0.00e+00	0	57	0	1450180608	40	4097
2026-01-04 05:56:37.08	292.02	18.20	-34.8	-36.0	18.3	0.00e+00	0	57	0	1472200704	40	4082
2026-01-04 05:56:40.10	291.35	18.08	-35.0	-36.2	18.1	0.00e+00	0	57	0	1493172224	40	4176
2026-01-04 05:56:43.14	290.68	17.95	-35.0	-36.2	18.1	0.00e+00	0	57	0	1515192320	40	4162
2026-01-04 05:56:46.17	290.02	17.82	-35.0	-36.2	18.1	0.00e+00	0	57	0	1537212416	40	4172
2026-01-04 05:56:49.20	289.37	17.68	-35.0	-36.2	18.1	0.00e+00	0	57	0	1559232512	40	4164
2026-01-04 05:56:52.22	288.72	17.55	-35.0	-36.2	18.1	0.00e+00	0	57	0	1581252608	40	4170
2026-01-04 05:56:55.25	288.08	17.40	-35.0	-36.2	18.0	0.00e+00	0	57	0	1603272704	40	4174
2026-01-04 05:56:58.28	287.44	17.26	-35.2	-36.5	17.8	0.00e+00	0	57	0	1625292800	40	4305
2026-01-04 05:57:01.31	286.81	17.11	-35.1	-36.3	17.9	0.00e+00	0	57	0	1646264320	40	4219
2026-01-04 05:57:04.34	286.18	16.96	-35.0	-36.1	18.1	0.00e+00	0	56	0	1668284416	40	4135
2026-01-04 05:57:07.37	285.57	16.81	-35.1	-36.3	17.9	0.00e+00	0	57	0	1690304512	40	4210
2026-01-04 05:57:10.40	284.95	16.66	-35.2	-36.4	17.8	0.00e+00	0	57	0	1712324608	40	4275
2026-01-04 05:57:13.43	284.35	16.50	-35.1	-36.3	17.9	0.00e+00	0	57	0	1734344704	40	4194
2026-01-04 05:57:16.46	283.75	16.34	-35.2	-36.4	17.8	0.00e+00	0	57	0	1756364800	40	4250
2026-01-04 05:57:19.48	283.16	16.18	-35.1	-36.3	17.9	0.00e+00	0	57	0	1778384896	40	4233
2026-01-04 05:57:22.51	282.57	16.02	-35.4	-36.7	17.5	0.00e+00	0	57	0	1799356416	40	4406
2026-01-04 05:57:25.54	281.99	15.85	-35.7	-36.9	17.2	0.00e+00	0	57	0	1821376512	40	4533
2026-01-04 05:57:28.57	281.42	15.69	-35.7	-37.0	17.1	0.00e+00	0	57	0	1843396608	41	4314
2026-01-04 05:57:31.60	280.85	15.52	-35.7	-36.9	17.2	0.00e+00	0	57	0	1865416704	41	4286
2026-01-04 05:57:34.62	280.29	15.35	-35.4	-36.6	17.4	0.00e+00	0	57	0	1887436800	41	4145
2026-01-04 05:57:37.65	279.74	15.18	-35.6	-36.9	17.2	0.00e+00	0	57	0	1909456896	41	4268
2026-01-04 05:57:40.69	279.19	15.01	-35.9	-37.2	16.9	0.00e+00	0	57	0	1931476992	41	4433
2026-01-04 05:57:43.72	278.64	14.83	-35.9	-37.2	16.9	0.00e+00	0	57	0	1953497088	41	4409
2026-01-04 05:57:46.75	278.11	14.66	-35.9	-37.2	16.9	0.00e+00	0	57	0	1974468608	41	4412
2026-01-04 05:57:49.78	277.58	14.48	-35.7	-37.0	17.0	0.00e+00	0	57	0	1996488704	41	4329
2026-01-04 05:57:52.80	277.06	14.30	-35.8	-37.1	17.0	0.00e+00	0	57	0	2018508800	41	4358
2026-01-04 05:57:55.83	276.54	14.12	-35.8	-37.1	17.0	0.00e+00	0	57	0	2040528896	41	4363
2026-01-04 05:57:58.85	276.03	13.94	-35.8	-37.1	16.9	0.00e+00	0	57	0	2062548992	41	4367
2026-01-04 05:58:01.88	275.53	13.76	-35.9	-37.2	16.8	0.00e+00	0	57	0	2084569088	41	4415
2026-01-04 05:58:04.91	275.03	13.58	-35.9	-37.2	16.8	0.00e+00	0	57	0	2105540608	41	4407
2026-01-04 05:58:07.94	274.54	13.40	-35.9	-37.2	16.8	0.00e+00	0	57	0	2127560704	41	4425
2026-01-04 05:58:10.97	274.06	13.22	-36.0	-37.3	16.7	0.00e+00	0	57	0	2149580800	41	4477
2026-01-04 05:58:14.00	273.58	13.03	-36.0	-37.4	16.6	0.00e+00	0	57	0	2171600896	41	4497
2026-01-04 05:58:17.04	273.10	12.85	-36.2	-37.6	16.3	0.00e+00	0	57	0	2193620992	42	4386
2026-01-04 05:58:20.06	272.64	12.66	-36.3	-37.7	16.3	0.00e+00	0	57	0	2214592512	42	4393
2026-01-04 05:58:23.10	272.17	12.48	-36.5	-38.0	16.0	0.00e+00	0	57	0	2236612608	42	4560
2026-01-04 05:58:26.12	271.72	12.29	-36.5	-37.9	16.0	0.00e+00	0	57	0	2258632704	42	4519
2026-01-04 05:58:29.15	271.27	12.11	-36.1	-37.5	16.4	0.00e+00	0	57	0	2280652800	42	4312
2026-01-04 05:58:32.18	270.82	11.92	-36.0	-37.4	16.5	0.00e+00	0	57	0	2302672896	42	4246
2026-01-04 05:58:35.21	270.39	11.73	-36.2	-37.6	16.2	0.00e+00	0	57	0	2324692992	42	4363
2026-01-04 05:58:38.24	269.95	11.55	-36.5	-37.9	15.8	0.00e+00	0	57	0	2346713088	42	4539
2026-01-04 05:58:41.27	269.53	11.36	-36.6	-38.1	15.7	0.00e+00	0	57	0	2368733184	42	4623
2026-01-04 05:58:44.30	269.10	11.17	-36.4	-37.9	15.8	0.00e+00	0	57	0	2389704704	42	4527
2026-01-04 05:58:47.33	268.69	10.99	-36.4	-37.9	15.8	0.00e+00	0	57	0	2411724800	42	4518
2026-01-04 05:58:50.36	268.28	10.80	-36.6	-38.2	15.6	0.00e+00	0	57	0	2433744896	42	4661
2026-01-04 05:58:53.39	267.87	10.61	-36.6	-38.1	15.6	0.00e+00	0	57	0	2455764992	42	4617
2026-01-04 05:58:56.41	267.47	10.43	-36.2	-37.7	15.9	0.00e+00	0	57	0	2477785088	42	4414
2026-01-04 05:58:59.44	267.08	10.24	-36.2	-37.6	15.9	0.00e+00	0	57	0	2499805184	42	4380
2026-01-04 05:59:02.47	266.68	10.05	-36.2	-37.7	15.8	0.00e+00	0	57	0	2521825280	42	4410
2026-01-04 05:59:05.51	266.30	9.87	-36.5	-38.0	15.4	0.00e+00	0	57	0	2542796800	42	4594
2026-01-04 05:59:08.54	265.92	9.68	-36.4	-38.0	15.4	0.00e+00	0	57	0	2564816896	42	4566
2026-01-04 05:59:11.57	265.54	9.49	-36.6	-38.3	15.1	0.00e+00	0	57	0	2586836992	42	4707
2026-01-04 05:59:14.60	265.17	9.31	-36.7	-38.4	14.9	0.00e+00	0	57	0	2608857088	43	4508
2026-01-04 05:59:17.63	264.81	9.12	-37.0	-38.7	14.6	0.00e+00	0	57	0	2630877184	43	4678
2026-01-04 05:59:20.65	264.45	8.94	-37.2	-39.0	14.3	0.00e+00	0	57	0	2652897280	43	4817
2026-01-04 05:59:23.69	264.09	8.75	-37.6	-39.4	14.0	4.50e-06	0	57	0	2674917376	44	4800
2026-01-04 05:59:26.71	263.74	8.57	-37.5	-39.3	14.2	1.10e-06	0	57	0	2695888896	44	4707
2026-01-04 05:59:29.74	263.39	8.38	-37.3	-39.0	14.4	0.00e+00	0	57	0	2717908992	44	4583
2026-01-04 05:59:32.77	263.05	8.20	-37.1	-38.8	14.6	1.10e-06	0	57	0	2739929088	44	4463
2026-01-04 05:59:35.81	262.71	8.01	-37.1	-38.8	14.7	0.00e+00	0	57	0	2761949184	44	4454
2026-01-04 05:59:38.84	262.37	7.83	-45.2	-55.9	3.8	8.46e-01	0	57	104	2768240640	59	13516
2026-01-04 05:59:41.87	262.04	7.65	-45.4	-56.4	3.8	8.47e-01	0	57	104	2768240640	60	13547
2026-01-04 05:59:44.90	261.72	7.47	-45.4	-56.5	3.8	8.46e-01	0	57	104	2768240640	60	13612
2026-01-04 05:59:47.93	261.40	7.28	-45.4	-56.5	3.8	8.45e-01	0	57	104	2768240640	60	13606
2026-01-04 05:59:50.97	261.08	7.10	-45.4	-56.5	3.8	8.46e-01	0	57	104	2768240640	60	13579
2026-01-04 05:59:54.00	260.76	6.92	-45.4	-56.5	3.8	8.46e-01	0	57	104	2768240640	60	13625
2026-01-04 05:59:57.03	260.45	6.74	-45.4	-56.4	3.8	8.45e-01	0	57	104	2768240640	60	13526
2026-01-04 06:00:00.06	260.15	6.56	-45.4	-56.4	3.8	8.47e-01	0	58	104	2768240640	60	13508
2026-01-04 06:00:03.09	259.85	6.38	-45.3	-56.4	3.8	8.46e-01	0	57	104	2768240640	60	13483
2026-01-04 06:00:06.12	259.55	6.20	-45.3	-56.4	3.8	8.46e-01	0	57	104	2768240640	60	13459
2026-01-04 06:00:09.16	259.25	6.02	-45.3	-56.4	3.8	8.48e-01	0	57	104	2768240640	60	13472
2026-01-04 06:00:12.19	258.96	5.84	-45.3	-56.4	3.8	8.46e-01	0	57	104	2768240640	60	13446
2026-01-04 06:00:15.22	258.67	5.67	-45.3	-56.4	3.8	8.45e-01	0	57	104	2768240640	60	13431
2026-01-04 06:00:18.25	258.39	5.49	-45.3	-56.4	3.8	8.45e-01	0	57	104	2768240640	60	13434
2026-01-04 06:00:21.29	258.11	5.31	-45.3	-56.4	3.8	8.47e-01	0	57	104	2768240640	60	13455
2026-01-04 06:00:24.32	257.83	5.14	-45.3	-56.4	3.8	8.47e-01	0	57	104	2768240640	60	13429
2026-01-04 06:00:27.36	257.56	4.96	-45.3	-56.3	3.8	8.46e-01	0	57	104	2768240640	60	13401
2026-01-04 06:00:30.39	257.29	4.78	-45.3	-56.4	3.8	8.46e-01	0	57	104	2768240640	60	13418
2026-01-04 06:00:33.42	257.02	4.61	-45.3	-56.4	3.8	8.46e-01	0	57	104	2768240640	60	13427
2026-01-04 06:00:36.46	256.76	4.44	-45.3	-56.3	3.8	8.45e-01	0	57	104	2768240640	60	13389
2026-01-04 06:00:39.49	256.50	4.26	-45.3	-56.3	3.8	8.44e-01	0	57	104	2768240640	60	13405
2026-01-04 06:00:42.52	256.24	4.09	-45.3	-56.4	3.8	8.47e-01	0	58	104	2768240640	60	13438
2026-01-04 06:00:45.55	255.99	3.92	-45.3	-56.3	3.8	8.46e-01	0	57	104	2768240640	60	13305
2026-01-04 06:00:48.58	255.74	3.75	-45.3	-56.3	3.8	8.45e-01	0	57	104	2768240640	60	13402
2026-01-04 06:00:51.62	255.49	3.58	-45.3	-56.3	3.8	8.46e-01	0	57	104	2768240640	60	13403
2026-01-04 06:00:54.65	255.24	3.41	-45.3	-56.3	3.8	8.47e-01	0	58	104	2768240640	60	13397
2026-01-04 06:00:57.68	255.00	3.24	-45.3	-56.3	3.8	8.47e-01	0	57	104	2768240640	60	13398
2026-01-04 06:01:00.72	254.76	3.07	-45.2	-56.3	3.8	8.46e-01	0	57	104	2768240640	60	13409
2026-01-04 06:01:03.75	254.52	2.90	-45.3	-56.3	3.8	8.45e-01	0	57	104	2768240640	60	13369
2026-01-04 06:01:06.78	254.29	2.73	-45.3	-56.3	3.8	8.46e-01	0	58	104	2768240640	60	13374
2026-01-04 06:01:09.82	254.06	2.56	-45.3	-56.3	3.8	8.47e-01	0	57	104	2768240640	60	13339
2026-01-04 06:01:12.85	253.83	2.40	-45.3	-56.3	3.8	8.45e-01	0	57	104	2768240640	60	13336
2026-01-04 06:01:15.88	253.61	2.23	-45.3	-56.3	3.8	8.46e-01	0	58	104	2768240640	60	13337
2026-01-04 06:01:18.92	253.38	2.06	-45.3	-56.3	3.8	8.47e-01	0	57	104	2768240640	60	13364
2026-01-04 06:01:21.95	253.16	1.90	-45.3	-56.3	3.8	8.47e-01	0	57	104	2768240640	60	13324

#Closed at: 2026-01-04 06:01:22
#Recorded file [2768 MB]: D:/lorett/data/31039_260104_084911.dat