passes_logs/2026/01/04/R2.0S_Moscow/R2.0S_Moscow__20260104_103302_FENGYUN_3D_rec.log

#Pass ID: 20260104_103302_FENGYUN 3D
#Satellite: FENGYUN 3D
#Configuration: FENGYUN 3D
#almurnet v.1.7.20251203
#Start time: 2026-01-04 10:33:03

#Version: 2.2.20231116
#Station: R2.0S_Moscow
#Location: 37.707566 lon 55.798166 lat
#TLE: 1 43010U 17072A   26003.51579816  .00000092  00000+0  65324-4 0  9992
#TLE: 2 43010  98.9912 335.1548 0001916 128.4619 231.6729 14.19692074421623

#Time	Az	El	Level	Level2	SNR	BER	BlckErr	Temp	State	Recorded	gain1	gain2
2026-01-04 10:33:03.94	119.68	2.11	-24.1	-39.4	3.8	7.96e-01	0	47	0	0	17	23954
2026-01-04 10:33:07.97	119.45	2.35	-22.1	-39.3	4.1	7.92e-01	0	47	104	0	17	23714
2026-01-04 10:33:12.02	119.22	2.59	-24.0	-38.6	3.7	7.80e-01	0	48	104	0	17	21999
2026-01-04 10:33:16.06	118.98	2.83	-21.5	-34.4	3.5	7.90e-01	0	48	104	0	2	31932
2026-01-04 10:33:20.11	118.74	3.08	-23.0	-37.7	4.0	7.79e-01	0	49	104	0	17	19667
2026-01-04 10:33:24.15	118.49	3.32	-23.8	-38.6	3.7	8.12e-01	0	49	104	0	17	21910
2026-01-04 10:33:28.20	118.24	3.57	-24.1	-41.7	4.6	7.98e-01	0	49	104	0	15	35125
2026-01-04 10:33:32.24	117.99	3.82	-24.7	-41.6	4.0	7.81e-01	0	49	104	0	18	29328
2026-01-04 10:33:36.28	117.73	4.07	-19.2	-35.5	3.6	8.15e-01	0	49	104	0	14	18267
2026-01-04 10:33:40.33	117.46	4.32	-23.2	-36.9	3.8	7.98e-01	0	50	104	0	16	19152
2026-01-04 10:33:44.37	117.19	4.58	-25.2	-39.4	3.7	7.96e-01	0	50	104	0	16	25383
2026-01-04 10:33:48.42	116.92	4.83	-24.3	-39.0	4.0	8.18e-01	0	50	104	0	18	21533
2026-01-04 10:33:52.46	116.64	5.09	-23.1	-36.9	3.6	7.89e-01	0	50	104	0	17	18049
2026-01-04 10:33:56.50	116.36	5.35	-25.0	-39.7	4.3	7.77e-01	0	51	104	0	19	22030
2026-01-04 10:34:00.55	116.07	5.61	-24.6	-40.5	3.7	7.90e-01	0	51	104	0	18	25709
2026-01-04 10:34:04.59	115.78	5.88	-22.3	-37.5	3.6	7.93e-01	0	51	0	0	16	20379
2026-01-04 10:34:08.64	115.47	6.14	-24.8	-41.4	4.2	8.01e-01	0	51	104	0	16	31969
2026-01-04 10:34:12.68	115.17	6.41	-24.6	-40.7	3.2	7.94e-01	0	51	104	0	18	26284
2026-01-04 10:34:16.72	114.86	6.68	-24.4	-40.0	3.7	7.84e-01	0	52	104	0	18	24247
2026-01-04 10:34:20.77	114.54	6.95	-24.2	-39.3	5.2	7.89e-01	0	52	104	0	18	22405
2026-01-04 10:34:24.81	114.22	7.23	-22.9	-36.9	4.1	8.06e-01	0	52	104	0	15	20300
2026-01-04 10:34:28.86	113.89	7.50	-23.8	-39.4	4.5	8.14e-01	0	52	104	0	17	24104
2026-01-04 10:34:32.90	113.55	7.78	-22.4	-33.4	3.7	8.33e-01	0	52	104	0	5	24104
2026-01-04 10:34:36.94	113.21	8.06	-23.5	-35.9	4.9	8.14e-01	0	52	104	0	16	16975
2026-01-04 10:34:40.98	112.86	8.34	-29.4	-39.4	4.7	8.25e-01	0	53	104	0	25	15145
2026-01-04 10:34:45.02	112.50	8.63	-23.0	-36.3	4.4	8.22e-01	0	52	104	0	15	18856
2026-01-04 10:34:49.06	112.14	8.91	-27.1	-39.5	5.4	8.19e-01	0	53	104	0	20	20507
2026-01-04 10:34:53.11	111.76	9.20	-29.9	-39.3	4.9	8.17e-01	0	53	104	0	30	11280
2026-01-04 10:34:57.14	111.39	9.49	-34.6	-41.4	7.2	4.62e-01	0	53	0	1048576	37	9534
2026-01-04 10:35:01.18	111.00	9.79	-37.2	-41.7	9.7	2.29e-01	0	53	0	16777216	45	6250
2026-01-04 10:35:05.23	110.60	10.08	-35.2	-41.5	10.3	9.73e-02	0	53	0	37748736	46	5738
2026-01-04 10:35:09.27	110.20	10.38	-37.6	-41.1	12.1	3.12e-02	0	53	0	58720256	46	5476
2026-01-04 10:35:13.31	109.79	10.68	-36.2	-38.7	14.5	8.13e-03	0	54	0	81788928	43	4945
2026-01-04 10:35:17.35	109.37	10.98	-36.2	-39.0	14.2	4.40e-03	0	54	0	104857600	43	5106
2026-01-04 10:35:21.39	108.94	11.28	-36.8	-39.1	14.6	2.33e-03	0	53	0	126877696	44	4908
2026-01-04 10:35:25.44	108.50	11.59	-36.9	-38.9	15.1	2.49e-03	0	54	0	149946368	44	4796
2026-01-04 10:35:29.48	108.05	11.90	-36.5	-38.5	15.0	3.95e-03	0	54	0	173015040	43	4816
2026-01-04 10:35:33.52	107.59	12.21	-34.3	-38.1	14.0	6.61e-03	0	54	0	195035136	41	5177
2026-01-04 10:35:37.56	107.12	12.52	-36.2	-38.2	15.8	1.23e-04	0	54	0	218103808	43	4654
2026-01-04 10:35:41.60	106.65	12.84	-35.7	-37.8	15.0	6.85e-03	0	54	0	241172480	42	4709
2026-01-04 10:35:45.64	106.16	13.15	-36.1	-37.8	16.3	1.80e-04	0	54	0	264241152	42	4719
2026-01-04 10:35:49.68	105.66	13.47	-35.2	-37.4	16.2	1.92e-04	0	54	0	286261248	42	4543
2026-01-04 10:35:53.73	105.15	13.79	-35.8	-37.5	16.5	8.32e-04	0	54	0	309329920	42	4566
2026-01-04 10:35:57.76	104.63	14.11	-35.8	-37.4	16.5	1.02e-05	0	54	0	331350016	42	4538
2026-01-04 10:36:01.81	104.09	14.44	-35.5	-37.1	16.9	3.89e-04	0	55	0	354418688	41	4644
2026-01-04 10:36:05.85	103.55	14.77	-35.5	-37.1	17.0	0.00e+00	0	54	0	377487360	41	4609
2026-01-04 10:36:09.89	102.99	15.09	-35.4	-36.9	17.1	0.00e+00	0	55	0	399507456	41	4530
2026-01-04 10:36:13.93	102.42	15.42	-35.6	-37.1	17.0	4.50e-06	0	55	0	422576128	41	4649
2026-01-04 10:36:17.97	101.83	15.75	-35.4	-37.0	17.2	0.00e+00	0	55	0	445644800	41	4567
2026-01-04 10:36:22.00	101.24	16.09	-35.2	-36.8	17.4	8.00e-06	0	55	0	468713472	41	4450
2026-01-04 10:36:26.04	100.63	16.42	-34.9	-36.4	17.7	0.00e+00	0	55	0	490733568	41	4275
2026-01-04 10:36:30.08	100.00	16.75	-34.9	-36.4	17.8	1.10e-06	0	55	0	513802240	41	4263
2026-01-04 10:36:34.13	99.36	17.09	-35.0	-36.5	17.8	0.00e+00	0	55	0	535822336	41	4295
2026-01-04 10:36:38.16	98.71	17.43	-34.8	-36.3	18.0	0.00e+00	0	55	0	558891008	41	4223
2026-01-04 10:36:42.21	98.04	17.77	-34.7	-36.2	18.1	0.00e+00	0	55	0	581959680	41	4152
2026-01-04 10:36:46.24	97.36	18.10	-34.9	-36.4	17.9	0.00e+00	0	55	0	605028352	41	4274
2026-01-04 10:36:50.28	96.66	18.44	-34.9	-36.3	17.9	0.00e+00	0	55	0	627048448	41	4238
2026-01-04 10:36:54.32	95.95	18.78	-34.7	-36.2	18.1	0.00e+00	0	55	0	650117120	41	4161
2026-01-04 10:36:58.36	95.22	19.12	-34.6	-36.1	18.2	0.00e+00	0	55	0	673185792	41	4101
2026-01-04 10:37:02.41	94.47	19.46	-34.4	-35.8	18.5	0.00e+00	0	55	0	695205888	40	4195
2026-01-04 10:37:06.45	93.71	19.80	-34.6	-36.0	18.2	0.00e+00	0	55	0	718274560	40	4311
2026-01-04 10:37:10.49	92.92	20.13	-34.4	-35.8	18.2	0.00e+00	0	55	0	741343232	40	4239
2026-01-04 10:37:14.53	92.13	20.47	-34.5	-35.9	18.1	0.00e+00	0	55	0	763363328	40	4262
2026-01-04 10:37:18.57	91.31	20.80	-34.3	-35.7	18.2	0.00e+00	0	55	0	786432000	40	4153
2026-01-04 10:37:22.61	90.47	21.13	-34.4	-35.9	17.9	0.00e+00	0	55	0	809500672	40	4272
2026-01-04 10:37:26.65	89.62	21.46	-34.5	-36.0	17.7	0.00e+00	0	56	0	831520768	40	4306
2026-01-04 10:37:30.69	88.75	21.79	-34.4	-35.9	17.7	0.00e+00	0	55	0	854589440	40	4280
2026-01-04 10:37:34.73	87.86	22.12	-34.6	-36.1	17.5	0.00e+00	0	55	0	877658112	40	4348
2026-01-04 10:37:38.76	86.96	22.44	-34.5	-36.0	17.7	0.00e+00	0	56	0	899678208	40	4322
2026-01-04 10:37:42.80	86.03	22.75	-34.3	-35.7	18.1	0.00e+00	0	56	0	922746880	40	4192
2026-01-04 10:37:46.85	85.08	23.07	-34.2	-35.6	18.4	0.00e+00	0	56	0	945815552	40	4136
2026-01-04 10:37:50.89	84.11	23.37	-34.1	-35.5	18.5	0.00e+00	0	56	0	967835648	40	4095
2026-01-04 10:37:54.93	83.13	23.68	-33.9	-35.3	18.9	0.00e+00	0	56	0	990904320	39	4201
2026-01-04 10:37:58.97	82.13	23.97	-34.0	-35.4	18.8	0.00e+00	0	55	0	1013972992	39	4270
2026-01-04 10:38:03.01	81.10	24.26	-33.8	-35.1	19.1	0.00e+00	0	56	0	1035993088	39	4144
2026-01-04 10:38:07.05	80.06	24.54	-33.6	-34.9	19.3	0.00e+00	0	56	0	1059061760	39	4029
2026-01-04 10:38:11.09	79.00	24.82	-33.5	-34.8	19.4	0.00e+00	0	56	0	1082130432	38	4238
2026-01-04 10:38:15.13	77.92	25.09	-33.5	-34.8	19.5	0.00e+00	0	56	0	1105199104	38	4225
2026-01-04 10:38:19.17	76.83	25.35	-33.7	-35.0	19.2	0.00e+00	0	56	0	1127219200	38	4325
2026-01-04 10:38:23.21	75.71	25.60	-33.5	-34.8	19.5	0.00e+00	0	56	0	1150287872	38	4240
2026-01-04 10:38:27.25	74.58	25.84	-33.2	-34.5	19.8	0.00e+00	0	56	0	1172307968	38	4069
2026-01-04 10:38:31.29	73.43	26.06	-33.5	-34.8	19.5	0.00e+00	0	56	0	1195376640	38	4222
2026-01-04 10:38:35.33	72.27	26.28	-33.3	-34.6	19.7	0.00e+00	0	56	0	1218445312	38	4120
2026-01-04 10:38:39.37	71.08	26.49	-33.5	-34.8	19.5	0.00e+00	0	56	0	1240465408	38	4231
2026-01-04 10:38:43.41	69.89	26.68	-33.3	-34.6	19.8	0.00e+00	0	56	0	1263534080	38	4108
2026-01-04 10:38:47.45	68.68	26.87	-33.2	-34.4	20.0	0.00e+00	0	56	0	1286602752	38	4035
2026-01-04 10:38:51.49	67.45	27.04	-33.3	-34.6	19.9	0.00e+00	0	56	0	1309671424	38	4102
2026-01-04 10:38:55.53	66.22	27.19	-33.2	-34.5	20.0	0.00e+00	0	56	0	1331691520	38	4058
2026-01-04 10:38:59.57	64.97	27.33	-33.2	-34.5	19.9	0.00e+00	0	56	0	1354760192	38	4065
2026-01-04 10:39:03.61	63.71	27.46	-33.4	-34.6	19.8	0.00e+00	0	56	0	1376780288	38	4137
2026-01-04 10:39:07.65	62.44	27.57	-33.0	-34.3	20.2	0.00e+00	0	56	0	1399848960	38	3970
2026-01-04 10:39:11.69	61.17	27.67	-32.8	-34.0	20.4	0.00e+00	0	56	0	1422917632	37	4074
2026-01-04 10:39:15.73	59.89	27.75	-33.0	-34.3	20.1	0.00e+00	0	56	0	1444937728	37	4204
2026-01-04 10:39:19.77	58.60	27.81	-32.8	-34.0	20.4	0.00e+00	0	56	0	1468006400	37	4094
2026-01-04 10:39:23.81	57.30	27.86	-33.1	-34.3	20.2	0.00e+00	0	56	0	1491075072	37	4220
2026-01-04 10:39:27.85	56.01	27.90	-33.2	-34.5	20.0	0.00e+00	0	56	0	1514143744	37	4292
2026-01-04 10:39:31.89	54.71	27.91	-33.0	-34.2	20.2	0.00e+00	0	56	0	1536163840	37	4168
2026-01-04 10:39:35.93	53.41	27.91	-32.9	-34.1	20.4	0.00e+00	0	56	0	1559232512	37	4116
2026-01-04 10:39:39.96	52.11	27.90	-33.0	-34.2	20.3	0.00e+00	0	56	0	1581252608	37	4151
2026-01-04 10:39:44.00	50.82	27.87	-33.0	-34.3	20.3	0.00e+00	0	56	0	1604321280	37	4199
2026-01-04 10:39:48.04	49.53	27.82	-33.1	-34.3	20.2	0.00e+00	0	56	0	1627389952	37	4232
2026-01-04 10:39:52.08	48.24	27.76	-33.1	-34.4	20.1	0.00e+00	0	56	0	1650458624	37	4246
2026-01-04 10:39:56.12	46.96	27.68	-33.2	-34.3	20.7	0.00e+00	0	56	0	1672478720	37	4234
2026-01-04 10:40:00.16	45.68	27.58	-33.2	-34.3	20.8	0.00e+00	0	56	0	1695547392	37	4199
2026-01-04 10:40:04.19	44.42	27.47	-33.3	-34.4	20.7	0.00e+00	0	56	0	1718616064	37	4251
2026-01-04 10:40:08.23	43.16	27.34	-33.1	-34.2	20.9	0.00e+00	0	56	0	1740636160	37	4160
2026-01-04 10:40:12.28	41.91	27.20	-32.9	-33.9	21.1	0.00e+00	0	56	0	1763704832	37	4050
2026-01-04 10:40:16.32	40.67	27.05	-33.0	-34.1	21.0	0.00e+00	0	56	0	1785724928	37	4111
2026-01-04 10:40:20.35	39.45	26.88	-33.3	-34.4	20.7	0.00e+00	0	56	0	1808793600	37	4265
2026-01-04 10:40:24.39	38.25	26.70	-33.5	-34.6	20.6	0.00e+00	0	56	0	1831862272	37	4343
2026-01-04 10:40:28.43	37.05	26.51	-33.3	-34.4	20.7	0.00e+00	0	56	0	1854930944	37	4288
2026-01-04 10:40:32.47	35.87	26.30	-33.2	-34.3	20.8	0.00e+00	0	56	0	1876951040	37	4221
2026-01-04 10:40:36.51	34.71	26.09	-33.4	-34.5	20.6	0.00e+00	0	56	0	1900019712	37	4307
2026-01-04 10:40:40.55	33.56	25.86	-33.2	-34.3	20.8	0.00e+00	0	56	0	1923088384	37	4227
2026-01-04 10:40:44.59	32.43	25.62	-33.4	-34.5	20.5	0.00e+00	0	57	0	1945108480	37	4334
2026-01-04 10:40:48.63	31.32	25.37	-33.7	-34.9	20.3	0.00e+00	0	56	0	1968177152	38	4249
2026-01-04 10:40:52.67	30.22	25.11	-33.7	-34.8	20.3	0.00e+00	0	57	0	1990197248	38	4209
2026-01-04 10:40:56.71	29.14	24.85	-33.7	-34.8	20.3	0.00e+00	0	56	0	2013265920	38	4222
2026-01-04 10:41:00.76	28.08	24.57	-33.8	-34.9	20.2	0.00e+00	0	56	0	2036334592	38	4261
2026-01-04 10:41:04.80	27.04	24.29	-33.6	-34.8	20.4	0.00e+00	0	57	0	2059403264	38	4194
2026-01-04 10:41:08.84	26.02	24.00	-33.4	-34.5	20.6	0.00e+00	0	56	0	2081423360	38	4086
2026-01-04 10:41:12.88	25.02	23.71	-33.8	-35.0	20.1	0.00e+00	0	57	0	2104492032	38	4298
2026-01-04 10:41:16.92	24.04	23.41	-33.7	-34.8	20.3	0.00e+00	0	56	0	2127560704	38	4202
2026-01-04 10:41:20.96	23.08	23.10	-33.8	-34.9	20.1	0.00e+00	0	57	0	2149580800	38	4284
2026-01-04 10:41:25.00	22.13	22.79	-33.9	-35.1	20.0	0.00e+00	0	57	0	2172649472	38	4352
2026-01-04 10:41:29.04	21.21	22.48	-34.0	-35.1	19.9	0.00e+00	0	57	0	2195718144	38	4375
2026-01-04 10:41:33.08	20.30	22.16	-34.2	-35.4	19.7	0.00e+00	0	56	0	2217738240	39	4257
2026-01-04 10:41:37.12	19.41	21.83	-34.3	-35.5	19.6	0.00e+00	0	56	0	2240806912	39	4318
2026-01-04 10:41:41.17	18.54	21.51	-34.4	-35.6	19.5	0.00e+00	0	57	0	2263875584	39	4345
2026-01-04 10:41:45.20	17.69	21.18	-34.3	-35.5	19.5	0.00e+00	0	56	0	2285895680	39	4298
2026-01-04 10:41:49.24	16.86	20.85	-34.4	-35.6	19.4	0.00e+00	0	56	0	2308964352	39	4348
2026-01-04 10:41:53.28	16.05	20.52	-34.5	-35.7	19.4	0.00e+00	0	57	0	2332033024	39	4401
2026-01-04 10:41:57.32	15.25	20.18	-34.4	-35.6	19.4	0.00e+00	0	57	0	2354053120	39	4365
2026-01-04 10:42:01.36	14.47	19.85	-34.2	-35.3	19.7	0.00e+00	0	57	0	2377121792	39	4226
2026-01-04 10:42:05.39	13.71	19.51	-34.4	-35.6	19.3	0.00e+00	0	57	0	2400190464	39	4384
2026-01-04 10:42:09.43	12.97	19.17	-34.6	-35.8	19.2	0.00e+00	0	57	0	2422210560	39	4485
2026-01-04 10:42:13.47	12.24	18.84	-34.7	-35.9	19.1	0.00e+00	0	57	0	2445279232	39	4525
2026-01-04 10:42:17.51	11.53	18.50	-34.8	-36.1	18.8	0.00e+00	0	56	0	2468347904	40	4363
2026-01-04 10:42:21.55	10.83	18.16	-34.8	-36.1	18.8	0.00e+00	0	57	0	2490368000	40	4349
2026-01-04 10:42:25.59	10.15	17.83	-34.7	-36.0	18.8	0.00e+00	0	57	0	2513436672	40	4298
2026-01-04 10:42:29.63	9.49	17.49	-35.0	-36.3	18.4	0.00e+00	0	57	0	2536505344	40	4488
2026-01-04 10:42:33.67	8.84	17.15	-35.2	-36.5	18.2	0.00e+00	0	57	0	2558525440	40	4592
2026-01-04 10:42:37.71	8.20	16.82	-35.2	-36.5	18.1	0.00e+00	0	57	0	2581594112	40	4573
2026-01-04 10:42:41.76	7.58	16.48	-35.2	-36.5	18.1	0.00e+00	0	57	0	2604662784	41	4333
2026-01-04 10:42:45.80	6.97	16.15	-35.3	-36.6	17.9	0.00e+00	0	57	0	2626682880	41	4391
2026-01-04 10:42:49.84	6.38	15.82	-35.4	-36.8	17.7	0.00e+00	0	57	0	2649751552	41	4480
2026-01-04 10:42:53.88	5.80	15.49	-35.4	-36.8	17.5	0.00e+00	0	57	0	2672820224	41	4493
2026-01-04 10:42:57.92	5.23	15.16	-35.3	-36.7	17.6	0.00e+00	0	57	0	2694840320	41	4418
2026-01-04 10:43:01.97	4.67	14.83	-35.6	-37.2	16.9	0.00e+00	0	57	0	2717908992	41	4653
2026-01-04 10:43:06.01	4.13	14.51	-35.2	-36.7	17.1	0.00e+00	0	57	0	2740977664	41	4427
2026-01-04 10:43:10.05	3.60	14.18	-35.7	-37.3	16.3	0.00e+00	0	57	0	2762997760	42	4485
2026-01-04 10:43:14.10	3.08	13.86	-35.1	-36.6	16.8	0.00e+00	0	57	0	2786066432	42	4127
2026-01-04 10:43:18.14	2.57	13.54	-35.7	-37.4	15.4	0.00e+00	0	57	0	2809135104	42	4533
2026-01-04 10:43:22.18	2.08	13.22	-38.6	-41.9	10.2	3.90e-03	0	56	0	2831155200	47	5715
2026-01-04 10:43:26.21	1.59	12.91	-40.2	-46.5	5.5	5.40e-01	0	57	0	2854223872	50	8093
2026-01-04 10:43:30.25	1.12	12.60	-40.5	-50.3	3.8	8.45e-01	0	57	104	2855272448	51	11847
2026-01-04 10:43:34.29	0.65	12.28	-40.3	-50.8	3.8	8.46e-01	0	57	104	2855272448	51	12610
2026-01-04 10:43:38.33	0.20	11.98	-40.1	-51.5	3.8	8.46e-01	0	57	104	2855272448	51	13677
2026-01-04 10:43:42.37	359.75	11.67	-39.8	-51.6	3.8	8.46e-01	0	57	104	2855272448	51	13756
2026-01-04 10:43:46.41	359.32	11.36	-39.9	-51.7	3.8	8.46e-01	0	57	104	2855272448	51	13915
2026-01-04 10:43:50.45	358.89	11.06	-39.6	-51.4	3.8	8.47e-01	0	57	104	2855272448	51	13512
2026-01-04 10:43:54.48	358.47	10.76	-39.7	-51.6	3.8	8.46e-01	0	57	104	2855272448	51	13761
2026-01-04 10:43:58.52	358.07	10.46	-39.2	-51.4	3.8	8.45e-01	0	57	104	2855272448	50	14285
2026-01-04 10:44:02.56	357.67	10.16	-39.8	-51.5	3.8	8.45e-01	0	57	104	2855272448	50	14468
2026-01-04 10:44:06.60	357.27	9.87	-39.2	-51.4	3.8	8.46e-01	0	57	104	2855272448	49	15071
2026-01-04 10:44:10.64	356.89	9.58	-39.1	-51.4	3.8	8.46e-01	0	57	104	2855272448	49	15089
2026-01-04 10:44:14.68	356.51	9.29	-39.7	-51.4	3.8	8.45e-01	0	57	104	2855272448	49	15066
2026-01-04 10:44:18.72	356.15	9.00	-39.2	-51.3	3.8	8.46e-01	0	57	104	2855272448	49	15006
2026-01-04 10:44:22.76	355.79	8.71	-39.8	-51.5	3.8	8.44e-01	0	57	104	2855272448	50	14510
2026-01-04 10:44:26.80	355.43	8.43	-39.7	-51.4	3.8	8.47e-01	0	57	104	2855272448	50	14373
2026-01-04 10:44:30.84	355.09	8.15	-39.9	-51.5	3.8	8.46e-01	0	57	104	2855272448	50	14475
2026-01-04 10:44:34.88	354.75	7.87	-42.7	-54.4	3.8	8.46e-01	0	57	104	2855272448	55	15164
2026-01-04 10:44:38.92	354.41	7.59	-45.0	-56.8	3.8	8.46e-01	0	57	104	2855272448	60	14968
2026-01-04 10:44:42.97	354.09	7.32	-45.1	-57.0	3.8	8.47e-01	0	57	104	2855272448	60	15241
2026-01-04 10:44:47.01	353.77	7.04	-45.0	-56.9	3.8	8.47e-01	0	57	104	2855272448	60	15062
2026-01-04 10:44:51.06	353.45	6.77	-44.9	-56.8	3.8	8.46e-01	0	57	104	2855272448	60	14927
2026-01-04 10:44:55.10	353.15	6.50	-44.9	-56.8	3.8	8.46e-01	0	57	104	2855272448	60	14975
2026-01-04 10:44:59.15	352.84	6.24	-44.9	-56.8	3.8	8.46e-01	0	57	104	2855272448	60	14987
2026-01-04 10:45:03.19	352.55	5.97	-44.9	-56.8	3.8	8.47e-01	0	57	104	2855272448	60	14960
2026-01-04 10:45:07.23	352.26	5.71	-44.9	-56.8	3.8	8.46e-01	0	57	104	2855272448	60	14894
2026-01-04 10:45:11.28	351.97	5.45	-44.9	-56.8	3.8	8.46e-01	0	57	104	2855272448	60	14920
2026-01-04 10:45:15.32	351.69	5.19	-44.9	-56.8	3.8	8.46e-01	0	57	104	2855272448	60	14933
2026-01-04 10:45:19.37	351.42	4.93	-44.9	-56.8	3.8	8.47e-01	0	57	104	2855272448	60	14904
2026-01-04 10:45:23.41	351.15	4.67	-44.9	-56.8	3.8	8.47e-01	0	57	104	2855272448	60	14895
2026-01-04 10:45:27.45	350.88	4.42	-44.9	-56.8	3.8	8.47e-01	0	57	104	2855272448	60	14916
2026-01-04 10:45:31.50	350.62	4.17	-44.9	-56.8	3.8	8.46e-01	0	57	104	2855272448	60	14883
2026-01-04 10:45:35.54	350.37	3.92	-44.9	-56.7	3.8	8.47e-01	0	57	104	2855272448	60	14874
2026-01-04 10:45:39.58	350.12	3.67	-44.9	-56.8	3.8	8.46e-01	0	57	104	2855272448	60	14910
2026-01-04 10:45:43.63	349.87	3.42	-44.9	-56.8	3.8	8.46e-01	0	57	104	2855272448	60	14904
2026-01-04 10:45:47.67	349.63	3.18	-44.9	-56.7	3.8	8.47e-01	0	57	104	2855272448	60	14856
2026-01-04 10:45:51.72	349.39	2.93	-44.9	-56.8	3.8	8.46e-01	0	57	104	2855272448	60	14888
2026-01-04 10:45:55.76	349.16	2.69	-44.8	-56.7	3.8	8.45e-01	0	57	104	2855272448	60	14814
2026-01-04 10:45:59.80	348.93	2.45	-44.8	-56.7	3.8	8.46e-01	0	57	104	2855272448	60	14875
2026-01-04 10:46:03.85	348.70	2.21	-44.9	-56.8	3.8	8.46e-01	0	57	104	2855272448	60	14894
2026-01-04 10:46:07.89	348.48	1.97	-44.8	-56.7	3.8	8.45e-01	0	57	104	2855272448	60	14824

#Closed at: 2026-01-04 10:46:09
#Recorded file [2855 MB]: D:/lorett/data/31039_260104_133303.dat