passes_logs/2026/01/04/R2.0S_Moscow/R2.0S_Moscow__20260104_012054_SUOMI_NPP_rec.log

#Pass ID: 20260104_012054_SUOMI NPP
#Satellite: SUOMI NPP
#Configuration: NPP
#almurnet v.1.7.20251203
#Start time: 2026-01-04 01:20:54

#Version: 2.2.20231116
#Station: R2.0S_Moscow
#Location: 37.707566 lon 55.798166 lat
#TLE: 1 37849U 11061A   26001.07732418  .00000182  00000+0  10735-3 0  9990
#TLE: 2 37849  98.7795 303.2470 0002580  87.2016 272.9455 14.19520779734739

#Time	Az	El	Level	Level2	SNR	BER	BlckErr	Temp	State	Recorded	gain1	gain2
2026-01-04 01:20:54.97	10.40	2.05	-39.8	-54.3	3.8	1.49e+00	0	47	0	0	51	18875
2026-01-04 01:20:57.99	10.21	2.22	-39.8	-54.3	3.8	1.49e+00	0	47	104	0	51	18886
2026-01-04 01:21:01.02	10.02	2.39	-39.8	-54.3	3.8	1.49e+00	0	48	104	0	51	18891
2026-01-04 01:21:04.05	9.83	2.57	-39.8	-54.3	3.8	1.49e+00	0	48	104	0	51	18852
2026-01-04 01:21:07.09	9.63	2.74	-39.8	-54.3	3.8	1.49e+00	0	48	104	0	51	18887
2026-01-04 01:21:10.12	9.43	2.92	-39.8	-54.3	3.8	1.49e+00	0	48	104	0	51	18875
2026-01-04 01:21:13.15	9.23	3.10	-39.8	-54.3	3.8	1.49e+00	0	48	104	0	51	18927
2026-01-04 01:21:16.19	9.02	3.27	-39.8	-54.3	3.8	1.49e+00	0	49	104	0	51	18827
2026-01-04 01:21:19.22	8.82	3.45	-39.8	-54.3	3.8	1.49e+00	0	49	104	0	51	18876
2026-01-04 01:21:22.25	8.61	3.63	-39.8	-54.3	3.8	1.49e+00	0	49	104	0	51	18829
2026-01-04 01:21:25.29	8.40	3.81	-39.8	-54.3	3.8	1.49e+00	0	49	104	0	51	18886
2026-01-04 01:21:28.32	8.18	3.99	-39.8	-54.3	3.8	1.49e+00	0	49	104	0	51	18801
2026-01-04 01:21:31.35	7.96	4.17	-39.8	-54.3	3.8	1.49e+00	0	50	104	0	51	18810
2026-01-04 01:21:34.39	7.74	4.36	-39.8	-54.3	3.8	1.49e+00	0	50	104	0	51	18777
2026-01-04 01:21:37.42	7.52	4.54	-39.8	-54.3	3.8	1.49e+00	0	50	104	0	51	18862
2026-01-04 01:21:40.45	7.29	4.72	-39.8	-54.3	3.8	1.49e+00	0	50	104	0	51	18810
2026-01-04 01:21:43.49	7.06	4.91	-39.8	-54.3	3.8	1.49e+00	0	50	104	0	51	18804
2026-01-04 01:21:46.52	6.83	5.10	-39.8	-54.3	3.8	1.49e+00	0	50	104	0	51	18789
2026-01-04 01:21:49.55	6.59	5.28	-39.8	-54.3	3.8	1.49e+00	0	51	104	0	51	18811
2026-01-04 01:21:52.59	6.35	5.47	-39.8	-54.3	3.8	1.49e+00	0	51	104	0	51	18795
2026-01-04 01:21:55.62	6.11	5.66	-39.8	-54.3	3.8	1.49e+00	0	51	104	0	51	18864
2026-01-04 01:21:58.65	5.87	5.85	-39.8	-54.3	3.8	1.49e+00	0	51	104	0	51	18812
2026-01-04 01:22:01.68	5.62	6.04	-39.8	-54.3	3.8	1.49e+00	0	51	104	0	51	18816
2026-01-04 01:22:04.71	5.36	6.23	-39.8	-54.3	3.8	1.49e+00	0	51	104	0	51	18819
2026-01-04 01:22:07.75	5.11	6.42	-39.8	-54.3	3.8	1.49e+00	0	52	104	0	51	18826
2026-01-04 01:22:10.78	4.85	6.61	-39.8	-54.3	3.8	1.49e+00	0	51	104	0	51	18809
2026-01-04 01:22:13.81	4.59	6.81	-39.8	-54.3	3.8	1.49e+00	0	52	104	0	51	18818
2026-01-04 01:22:16.85	4.32	7.00	-39.8	-54.3	3.8	1.49e+00	0	52	104	0	51	18761
2026-01-04 01:22:19.88	4.05	7.20	-39.8	-54.3	3.8	1.49e+00	0	52	104	0	51	18736
2026-01-04 01:22:22.91	3.77	7.39	-39.8	-54.3	3.8	1.49e+00	0	52	104	0	51	18807
2026-01-04 01:22:25.95	3.49	7.59	-39.8	-54.3	3.8	1.49e+00	0	52	104	0	51	18744
2026-01-04 01:22:28.98	3.21	7.79	-39.8	-54.3	3.8	1.49e+00	0	52	104	0	51	18844
2026-01-04 01:22:32.01	2.93	7.98	-39.8	-54.3	3.8	1.49e+00	0	52	104	0	51	18766
2026-01-04 01:22:35.04	2.64	8.18	-39.8	-54.3	3.8	1.49e+00	0	52	104	0	51	18906
2026-01-04 01:22:38.07	2.34	8.38	-39.8	-54.3	3.8	1.49e+00	0	53	104	0	51	18857
2026-01-04 01:22:41.10	2.04	8.59	-39.9	-54.4	3.8	1.49e+00	0	53	104	0	51	19064
2026-01-04 01:22:44.13	1.74	8.79	-39.6	-54.3	3.8	1.49e+00	0	53	104	0	51	18932
2026-01-04 01:22:47.17	1.43	8.99	-39.6	-54.4	3.8	1.49e+00	0	53	104	0	51	18954
2026-01-04 01:22:50.20	1.12	9.19	-39.4	-54.3	3.8	1.49e+00	0	53	104	0	50	19858
2026-01-04 01:22:53.22	0.81	9.40	-39.7	-54.4	3.8	1.49e+00	0	53	104	0	50	20140
2026-01-04 01:22:56.25	0.49	9.60	-39.6	-54.3	3.8	1.49e+00	0	53	104	0	50	19967
2026-01-04 01:22:59.28	0.16	9.81	-39.8	-54.4	3.8	1.49e+00	0	53	104	0	50	20211
2026-01-04 01:23:02.31	359.83	10.02	-39.7	-54.4	3.8	1.49e+00	0	53	104	0	50	20087
2026-01-04 01:23:05.34	359.49	10.22	-39.6	-54.4	3.8	1.49e+00	0	53	104	0	50	20209
2026-01-04 01:23:08.37	359.15	10.43	-39.4	-54.3	3.8	1.49e+00	0	53	104	0	50	19854
2026-01-04 01:23:11.40	358.81	10.64	-39.7	-54.4	3.8	1.49e+00	0	53	104	0	50	20206
2026-01-04 01:23:14.43	358.46	10.85	-39.6	-54.4	3.8	1.49e+00	0	54	104	0	50	20092
2026-01-04 01:23:17.45	358.10	11.06	-39.8	-54.5	3.8	1.49e+00	0	54	104	0	50	20355
2026-01-04 01:23:20.48	357.74	11.27	-39.8	-54.5	3.8	1.49e+00	0	54	104	0	50	20349
2026-01-04 01:23:23.51	357.38	11.49	-39.9	-54.4	3.8	1.49e+00	0	54	104	0	50	20081
2026-01-04 01:23:26.54	357.00	11.70	-39.9	-53.9	3.8	1.49e+00	0	54	104	0	50	19067
2026-01-04 01:23:29.57	356.63	11.91	-39.9	-52.7	3.8	1.43e+00	0	54	104	0	51	15646
2026-01-04 01:23:32.60	356.24	12.13	-40.3	-51.1	4.5	9.83e-01	0	54	0	3145728	51	13065
2026-01-04 01:23:35.63	355.86	12.34	-40.6	-52.4	4.1	1.42e+00	0	54	0	4194304	51	15107
2026-01-04 01:23:38.66	355.46	12.56	-40.4	-53.0	3.9	1.48e+00	0	54	104	4194304	51	16225
2026-01-04 01:23:41.69	355.06	12.77	-40.3	-54.0	3.8	1.49e+00	0	54	104	4194304	51	18249
2026-01-04 01:23:44.72	354.65	12.99	-40.3	-54.8	3.8	1.49e+00	0	54	104	4194304	51	19859
2026-01-04 01:23:47.74	354.24	13.20	-40.3	-54.8	3.8	1.49e+00	0	54	104	4194304	51	19921
2026-01-04 01:23:50.78	353.82	13.42	-40.2	-54.7	3.8	1.49e+00	0	54	104	4194304	51	19810
2026-01-04 01:23:53.81	353.40	13.64	-40.3	-54.9	3.8	1.49e+00	0	55	104	4194304	51	20195
2026-01-04 01:23:56.83	352.96	13.86	-40.3	-54.9	3.8	1.49e+00	0	54	104	4194304	51	20165
2026-01-04 01:23:59.86	352.53	14.07	-40.5	-55.1	3.8	1.49e+00	0	55	104	4194304	51	20574
2026-01-04 01:24:02.89	352.08	14.29	-40.6	-55.1	3.8	1.49e+00	0	55	104	4194304	51	20570
2026-01-04 01:24:05.92	351.63	14.51	-40.7	-55.2	3.8	1.49e+00	0	55	104	4194304	51	20964
2026-01-04 01:24:08.95	351.17	14.73	-40.6	-55.5	3.8	1.49e+00	0	55	104	4194304	52	20526
2026-01-04 01:24:11.98	350.70	14.95	-40.3	-55.3	3.8	1.49e+00	0	55	104	4194304	52	19960
2026-01-04 01:24:15.00	350.23	15.17	-40.6	-55.2	3.8	1.49e+00	0	55	104	4194304	52	19623
2026-01-04 01:24:18.03	349.75	15.38	-40.6	-55.1	3.8	1.49e+00	0	55	104	4194304	52	19521
2026-01-04 01:24:21.06	349.27	15.60	-40.3	-55.3	3.8	1.49e+00	0	55	104	4194304	52	19944
2026-01-04 01:24:24.09	348.77	15.82	-40.8	-55.3	3.8	1.49e+00	0	55	104	4194304	52	19914
2026-01-04 01:24:27.12	348.27	16.04	-41.1	-55.7	3.8	1.49e+00	0	55	104	4194304	52	20996
2026-01-04 01:24:30.15	347.76	16.26	-41.2	-55.8	3.8	1.49e+00	0	55	104	4194304	53	20021
2026-01-04 01:24:33.18	347.24	16.48	-41.4	-56.1	3.8	1.49e+00	0	55	104	4194304	54	19548
2026-01-04 01:24:36.21	346.72	16.69	-41.1	-55.8	3.8	1.49e+00	0	55	104	4194304	54	18915
2026-01-04 01:24:39.24	346.19	16.91	-41.4	-56.2	3.8	1.49e+00	0	55	104	4194304	54	19789
2026-01-04 01:24:42.27	345.65	17.12	-40.9	-55.5	3.8	1.49e+00	0	55	104	4194304	52	20394
2026-01-04 01:24:45.30	345.10	17.34	-40.7	-55.4	3.8	1.49e+00	0	55	104	4194304	52	20186
2026-01-04 01:24:48.34	344.54	17.55	-40.7	-55.4	3.8	1.49e+00	0	55	104	4194304	52	20111
2026-01-04 01:24:51.36	343.98	17.77	-40.8	-55.5	3.8	1.49e+00	0	55	104	4194304	52	20402
2026-01-04 01:24:54.39	343.40	17.98	-40.2	-55.0	3.8	1.49e+00	0	55	104	4194304	52	19315
2026-01-04 01:24:57.42	342.82	18.19	-40.2	-55.2	3.8	1.49e+00	0	55	104	4194304	51	20887
2026-01-04 01:25:00.45	342.24	18.40	-40.4	-55.1	3.8	1.49e+00	0	55	104	4194304	51	20604
2026-01-04 01:25:03.48	341.64	18.61	-40.4	-55.1	3.8	1.49e+00	0	55	104	4194304	51	20681
2026-01-04 01:25:06.51	341.03	18.81	-40.5	-55.0	3.8	1.49e+00	0	55	104	4194304	52	19302
2026-01-04 01:25:09.54	340.42	19.02	-40.6	-54.6	3.8	1.49e+00	0	56	104	4194304	52	18464
2026-01-04 01:25:12.57	339.80	19.22	-40.8	-53.7	3.8	1.15e+00	0	55	104	4194304	53	15613
2026-01-04 01:25:15.60	339.17	19.42	-41.2	-47.1	9.0	4.79e-02	0	56	0	6291456	53	7320
2026-01-04 01:25:18.62	338.53	19.62	-39.8	-43.3	13.3	1.98e-05	0	55	0	12582912	51	5333
2026-01-04 01:25:21.65	337.88	19.82	-39.6	-42.7	14.4	0.00e+00	0	55	0	17825792	51	4941
2026-01-04 01:25:24.68	337.23	20.01	-39.2	-41.9	15.3	0.00e+00	0	56	0	24117248	50	4800
2026-01-04 01:25:27.71	336.56	20.21	-39.3	-42.0	15.5	0.00e+00	0	56	0	29360128	50	4865
2026-01-04 01:25:30.73	335.89	20.39	-39.7	-42.5	15.2	0.00e+00	0	55	0	35651584	50	5150
2026-01-04 01:25:33.76	335.21	20.58	-39.6	-42.3	15.5	0.00e+00	0	56	0	40894464	50	4992
2026-01-04 01:25:36.79	334.52	20.77	-39.4	-42.0	15.8	0.00e+00	0	56	0	46137344	50	4848
2026-01-04 01:25:39.81	333.82	20.95	-39.5	-42.1	15.8	0.00e+00	0	56	0	52428800	50	4888
2026-01-04 01:25:42.84	333.12	21.12	-39.3	-41.9	16.1	0.00e+00	0	56	0	57671680	50	4760
2026-01-04 01:25:45.87	332.40	21.30	-38.8	-41.1	16.9	0.00e+00	0	56	0	63963136	49	4603
2026-01-04 01:25:48.90	331.68	21.47	-39.0	-41.3	16.7	0.00e+00	0	56	0	69206016	49	4731
2026-01-04 01:25:51.93	330.95	21.63	-39.0	-41.3	16.6	0.00e+00	0	56	0	74448896	49	4745
2026-01-04 01:25:54.96	330.21	21.80	-38.9	-41.1	16.9	0.00e+00	0	56	0	80740352	49	4629
2026-01-04 01:25:57.99	329.46	21.95	-39.0	-41.2	16.8	0.00e+00	0	56	0	85983232	49	4679
2026-01-04 01:26:01.02	328.71	22.11	-39.1	-41.4	16.6	0.00e+00	0	56	0	92274688	49	4806
2026-01-04 01:26:04.05	327.95	22.26	-38.7	-40.8	17.1	0.00e+00	0	56	0	97517568	49	4491
2026-01-04 01:26:07.08	327.18	22.40	-38.9	-41.1	16.9	0.00e+00	0	56	0	103809024	49	4618
2026-01-04 01:26:10.11	326.40	22.54	-39.3	-41.7	16.3	0.00e+00	0	56	0	109051904	49	4949
2026-01-04 01:26:13.14	325.62	22.68	-39.2	-41.5	16.5	0.00e+00	0	56	0	114294784	49	4835
2026-01-04 01:26:16.17	324.83	22.81	-38.9	-41.2	16.9	0.00e+00	0	56	0	120586240	49	4659
2026-01-04 01:26:19.20	324.03	22.93	-39.2	-41.5	16.5	0.00e+00	0	56	0	125829120	49	4833
2026-01-04 01:26:22.23	323.23	23.05	-38.9	-41.2	16.9	0.00e+00	0	56	0	132120576	49	4656
2026-01-04 01:26:25.26	322.42	23.17	-38.5	-40.5	17.6	0.00e+00	0	56	0	137363456	48	4550
2026-01-04 01:26:28.28	321.61	23.28	-38.4	-40.4	17.6	0.00e+00	0	56	0	142606336	48	4541
2026-01-04 01:26:31.31	320.79	23.38	-39.3	-41.6	16.5	0.00e+00	0	56	0	148897792	49	4905
2026-01-04 01:26:34.34	319.96	23.48	-39.3	-41.6	16.4	0.00e+00	0	56	0	154140672	49	4926
2026-01-04 01:26:37.37	319.13	23.57	-40.4	-43.3	14.8	0.00e+00	0	56	0	160432128	51	5311
2026-01-04 01:26:40.40	318.30	23.65	-40.6	-43.7	14.3	2.20e-06	0	56	0	165675008	52	5258
2026-01-04 01:26:43.43	317.46	23.73	-40.1	-42.9	15.1	0.00e+00	0	56	0	171966464	52	4790
2026-01-04 01:26:46.45	316.61	23.80	-39.8	-42.3	15.7	0.00e+00	0	56	0	177209344	51	4749
2026-01-04 01:26:49.48	315.77	23.86	-39.8	-42.5	15.6	0.00e+00	0	56	0	182452224	51	4836
2026-01-04 01:26:52.52	314.91	23.92	-39.9	-42.6	15.4	0.00e+00	0	56	0	188743680	51	4897
2026-01-04 01:26:55.54	314.06	23.97	-40.1	-43.0	15.0	0.00e+00	0	56	0	193986560	51	5124
2026-01-04 01:26:58.58	313.20	24.02	-40.1	-43.0	15.1	0.00e+00	0	56	0	200278016	51	5103
2026-01-04 01:27:01.60	312.34	24.06	-40.8	-44.3	13.6	3.80e-06	0	56	0	205520896	52	5612
2026-01-04 01:27:04.63	311.48	24.09	-40.7	-43.9	14.0	4.50e-06	0	56	0	210763776	52	5388
2026-01-04 01:27:07.66	310.62	24.11	-40.3	-43.3	14.7	0.00e+00	0	56	0	217055232	52	5029
2026-01-04 01:27:10.69	309.76	24.13	-40.8	-44.3	13.7	4.50e-06	0	56	0	222298112	52	5597
2026-01-04 01:27:13.72	308.89	24.14	-40.8	-44.2	13.8	5.30e-06	0	56	0	228589568	52	5537
2026-01-04 01:27:16.74	308.03	24.14	-40.5	-43.7	14.2	1.50e-06	0	56	0	233832448	52	5254
2026-01-04 01:27:19.77	307.16	24.14	-39.6	-42.2	15.8	0.00e+00	0	56	0	240123904	51	4659
2026-01-04 01:27:22.80	306.30	24.12	-39.9	-42.7	15.4	0.00e+00	0	56	0	245366784	51	4927
2026-01-04 01:27:25.83	305.43	24.11	-40.2	-43.3	14.7	7.00e-07	0	56	0	250609664	51	5294
2026-01-04 01:27:28.86	304.57	24.08	-40.5	-43.7	14.3	3.00e-06	0	56	0	256901120	51	5559
2026-01-04 01:27:31.89	303.71	24.05	-40.3	-43.3	14.6	0.00e+00	0	56	0	262144000	51	5332
2026-01-04 01:27:34.92	302.85	24.01	-39.7	-42.3	15.7	0.00e+00	0	56	0	268435456	51	4735
2026-01-04 01:27:37.95	301.99	23.96	-39.5	-42.0	16.0	0.00e+00	0	56	0	273678336	51	4594
2026-01-04 01:27:40.98	301.14	23.91	-39.5	-42.0	16.0	0.00e+00	0	56	0	278921216	50	4868
2026-01-04 01:27:44.01	300.29	23.85	-40.0	-42.7	15.3	0.00e+00	0	56	0	285212672	50	5252
2026-01-04 01:27:47.04	299.44	23.78	-39.8	-42.2	16.0	0.00e+00	0	56	0	290455552	50	4937
2026-01-04 01:27:50.07	298.59	23.71	-39.2	-41.3	16.8	0.00e+00	0	56	0	296747008	50	4484
2026-01-04 01:27:53.10	297.75	23.63	-38.3	-40.1	17.9	0.00e+00	0	56	0	301989888	48	4385
2026-01-04 01:27:56.13	296.92	23.54	-38.3	-40.2	17.9	0.00e+00	0	56	0	308281344	48	4418
2026-01-04 01:27:59.16	296.09	23.45	-38.6	-40.5	17.6	0.00e+00	0	56	0	313524224	48	4574
2026-01-04 01:28:02.19	295.26	23.35	-38.9	-40.9	17.2	0.00e+00	0	56	0	318767104	48	4770
2026-01-04 01:28:05.22	294.44	23.25	-39.2	-41.3	16.8	0.00e+00	0	56	0	325058560	49	4734
2026-01-04 01:28:08.24	293.63	23.14	-39.0	-41.1	17.0	0.00e+00	0	56	0	330301440	49	4626
2026-01-04 01:28:11.27	292.82	23.02	-39.7	-42.0	16.1	0.00e+00	0	56	0	336592896	49	5135
2026-01-04 01:28:14.30	292.02	22.90	-39.6	-41.9	16.3	0.00e+00	0	56	0	341835776	50	4762
2026-01-04 01:28:17.33	291.22	22.78	-39.6	-41.9	16.3	0.00e+00	0	56	0	347078656	50	4777
2026-01-04 01:28:20.36	290.43	22.64	-39.8	-42.2	15.9	0.00e+00	0	56	0	353370112	50	4960
2026-01-04 01:28:23.39	289.65	22.51	-40.3	-42.9	15.2	0.00e+00	0	56	0	358612992	51	5098
2026-01-04 01:28:26.41	288.87	22.37	-40.6	-43.3	14.8	0.00e+00	0	56	0	364904448	51	5338
2026-01-04 01:28:29.44	288.10	22.22	-40.7	-43.7	14.4	7.00e-07	0	56	0	370147328	52	5219
2026-01-04 01:28:32.47	287.34	22.07	-40.5	-43.2	14.8	7.00e-07	0	56	0	376438784	52	4982
2026-01-04 01:28:35.50	286.59	21.91	-40.3	-43.0	15.1	0.00e+00	0	56	0	381681664	52	4821
2026-01-04 01:28:38.53	285.84	21.75	-40.8	-43.9	14.2	0.00e+00	0	56	0	386924544	52	5363
2026-01-04 01:28:41.56	285.10	21.59	-40.4	-43.2	14.8	7.00e-07	0	56	0	393216000	52	4950
2026-01-04 01:28:44.59	284.37	21.42	-40.4	-43.1	14.9	0.00e+00	0	56	0	398458880	52	4926
2026-01-04 01:28:47.62	283.65	21.25	-40.2	-42.9	15.1	0.00e+00	0	56	0	404750336	52	4795
2026-01-04 01:28:50.65	282.93	21.07	-40.5	-43.3	14.7	7.00e-07	0	56	0	409993216	52	5022
2026-01-04 01:28:53.68	282.22	20.89	-41.0	-44.1	13.9	3.80e-06	0	56	0	415236096	52	5476
2026-01-04 01:28:56.71	281.53	20.71	-40.6	-43.6	14.4	2.20e-06	0	56	0	421527552	52	5173
2026-01-04 01:28:59.74	280.84	20.53	-40.6	-43.6	14.4	7.00e-07	0	56	0	426770432	52	5182
2026-01-04 01:29:02.77	280.15	20.34	-41.5	-45.1	12.9	5.03e-05	0	56	0	433061888	53	5796
2026-01-04 01:29:05.80	279.48	20.15	-41.4	-44.9	13.0	6.02e-05	0	56	0	438304768	53	5690
2026-01-04 01:29:08.83	278.82	19.95	-40.4	-43.2	14.7	0.00e+00	0	56	0	444596224	52	4960
2026-01-04 01:29:11.86	278.16	19.76	-40.1	-42.6	15.4	0.00e+00	0	56	0	449839104	51	4923
2026-01-04 01:29:14.88	277.51	19.56	-39.8	-42.2	15.7	0.00e+00	0	56	0	455081984	51	4702
2026-01-04 01:29:17.92	276.87	19.36	-39.6	-41.9	16.0	0.00e+00	0	56	0	461373440	51	4529
2026-01-04 01:29:20.95	276.24	19.16	-39.4	-41.7	16.3	0.00e+00	0	57	0	466616320	50	4685
2026-01-04 01:29:23.98	275.62	18.95	-38.9	-41.0	17.0	0.00e+00	0	56	0	472907776	49	4553
2026-01-04 01:29:27.00	275.01	18.75	-39.5	-41.8	16.2	0.00e+00	0	56	0	478150656	49	5011
2026-01-04 01:29:30.03	274.40	18.54	-40.4	-43.2	14.8	0.00e+00	0	56	0	483393536	51	5260
2026-01-04 01:29:33.06	273.80	18.33	-40.7	-43.7	14.2	0.00e+00	0	56	0	489684992	52	5219
2026-01-04 01:29:36.09	273.21	18.12	-40.5	-43.4	14.5	2.20e-06	0	56	0	494927872	52	5051
2026-01-04 01:29:39.12	272.63	17.91	-40.1	-42.7	15.1	0.00e+00	0	57	0	501219328	52	4698
2026-01-04 01:29:42.15	272.06	17.70	-39.7	-42.1	15.9	0.00e+00	0	57	0	506462208	51	4600
2026-01-04 01:29:45.18	271.49	17.48	-39.6	-41.9	16.0	0.00e+00	0	57	0	512753664	50	4814
2026-01-04 01:29:48.20	270.94	17.27	-40.2	-42.9	15.0	0.00e+00	0	56	0	517996544	51	5096
2026-01-04 01:29:51.23	270.39	17.05	-40.4	-43.2	14.7	0.00e+00	0	56	0	523239424	51	5274
2026-01-04 01:29:54.26	269.85	16.83	-40.1	-42.7	15.2	0.00e+00	0	56	0	529530880	51	4965
2026-01-04 01:29:57.29	269.31	16.62	-40.5	-43.4	14.6	7.00e-07	0	56	0	534773760	51	5348
2026-01-04 01:30:00.32	268.79	16.40	-40.4	-43.2	14.7	7.00e-07	0	57	0	541065216	51	5252
2026-01-04 01:30:03.34	268.27	16.18	-40.0	-42.6	15.3	0.00e+00	0	56	0	546308096	51	4892
2026-01-04 01:30:06.37	267.76	15.96	-39.7	-42.1	15.8	0.00e+00	0	57	0	551550976	51	4610
2026-01-04 01:30:09.41	267.26	15.74	-39.4	-41.7	16.2	0.00e+00	0	56	0	557842432	50	4668
2026-01-04 01:30:12.43	266.76	15.52	-39.6	-42.1	15.8	0.00e+00	0	57	0	563085312	50	4877
2026-01-04 01:30:15.46	266.27	15.30	-39.4	-41.7	16.1	0.00e+00	0	56	0	569376768	50	4691
2026-01-04 01:30:18.49	265.79	15.08	-38.9	-41.0	16.8	0.00e+00	0	56	0	574619648	49	4581
2026-01-04 01:30:21.52	265.32	14.87	-38.9	-41.1	16.7	0.00e+00	0	56	0	580911104	49	4605
2026-01-04 01:30:24.55	264.85	14.65	-39.3	-41.6	16.2	0.00e+00	0	57	0	586153984	49	4919
2026-01-04 01:30:27.58	264.39	14.43	-39.6	-42.1	15.8	0.00e+00	0	57	0	591396864	49	5163
2026-01-04 01:30:30.61	263.94	14.21	-39.7	-42.2	15.7	0.00e+00	0	56	0	597688320	50	4946
2026-01-04 01:30:33.64	263.49	13.99	-39.4	-41.7	16.1	0.00e+00	0	57	0	602931200	50	4687
2026-01-04 01:30:36.67	263.05	13.77	-39.3	-41.6	16.2	0.00e+00	0	56	0	609222656	50	4614
2026-01-04 01:30:39.70	262.62	13.55	-39.6	-42.1	15.7	0.00e+00	0	57	0	614465536	50	4891
2026-01-04 01:30:42.73	262.19	13.33	-40.1	-42.8	15.0	0.00e+00	0	56	0	619708416	50	5303
2026-01-04 01:30:45.76	261.77	13.11	-40.2	-42.9	14.8	0.00e+00	0	57	0	625999872	50	5385
2026-01-04 01:30:48.79	261.36	12.90	-40.0	-42.7	15.0	0.00e+00	0	57	0	631242752	51	4932
2026-01-04 01:30:51.82	260.95	12.68	-39.9	-42.5	15.3	7.00e-07	0	57	0	637534208	51	4837
2026-01-04 01:30:54.84	260.55	12.47	-39.5	-41.9	15.8	0.00e+00	0	56	0	642777088	51	4518
2026-01-04 01:30:57.87	260.15	12.25	-39.5	-41.9	15.9	0.00e+00	0	56	0	649068544	50	4761
2026-01-04 01:31:00.90	259.76	12.03	-40.0	-42.6	15.1	0.00e+00	0	57	0	654311424	50	5202
2026-01-04 01:31:03.93	259.38	11.82	-40.6	-43.7	14.0	7.00e-07	0	57	0	659554304	51	5564
2026-01-04 01:31:06.96	259.00	11.61	-40.5	-43.6	13.9	6.10e-06	0	57	0	665845760	52	5214
2026-01-04 01:31:09.99	258.63	11.39	-40.0	-42.7	14.9	0.00e+00	0	57	0	671088640	51	4982
2026-01-04 01:31:13.01	258.26	11.18	-40.1	-42.8	14.8	0.00e+00	0	57	0	677380096	51	5034
2026-01-04 01:31:16.05	257.90	10.97	-40.2	-43.1	14.6	7.00e-07	0	57	0	682622976	51	5180
2026-01-04 01:31:19.08	257.54	10.76	-40.2	-43.0	14.7	0.00e+00	0	57	0	687865856	51	5120
2026-01-04 01:31:22.10	257.19	10.55	-40.2	-43.1	14.6	7.00e-07	0	57	0	694157312	51	5166
2026-01-04 01:31:25.13	256.84	10.34	-40.3	-43.3	14.3	7.00e-07	0	56	0	699400192	51	5300
2026-01-04 01:31:28.16	256.50	10.13	-40.6	-43.8	13.8	4.50e-06	0	56	0	705691648	51	5597
2026-01-04 01:31:31.19	256.16	9.92	-40.6	-43.9	13.7	7.00e-07	0	57	0	710934528	52	5350
2026-01-04 01:31:34.22	255.83	9.71	-40.5	-43.7	13.7	6.10e-06	0	57	0	716177408	52	5271
2026-01-04 01:31:37.24	255.50	9.51	-40.6	-43.9	13.6	7.60e-06	0	57	0	722468864	52	5349
2026-01-04 01:31:40.27	255.18	9.30	-41.1	-44.9	12.6	5.49e-05	0	56	0	727711744	52	6013
2026-01-04 01:31:43.30	254.86	9.10	-41.4	-45.4	12.0	3.00e-04	0	57	0	734003200	53	6011
2026-01-04 01:31:46.33	254.55	8.89	-41.4	-45.4	11.9	2.29e-04	0	56	0	739246080	53	6041
2026-01-04 01:31:49.36	254.24	8.69	-41.0	-44.6	12.8	1.27e-04	0	57	0	745537536	53	5469
2026-01-04 01:31:52.39	253.93	8.49	-40.6	-43.9	13.5	5.30e-06	0	57	0	750780416	53	5066
2026-01-04 01:31:55.42	253.63	8.29	-40.5	-43.8	13.5	6.10e-06	0	56	0	756023296	52	5314
2026-01-04 01:31:58.45	253.34	8.08	-40.6	-43.9	13.5	1.52e-05	0	56	0	762314752	52	5351
2026-01-04 01:32:01.48	253.05	7.89	-44.6	-59.4	3.8	1.49e+00	0	57	104	764411904	60	20147
2026-01-04 01:32:04.51	252.76	7.69	-45.0	-59.7	3.8	1.49e+00	0	57	104	764411904	60	20952
2026-01-04 01:32:07.54	252.47	7.49	-45.1	-59.9	3.8	1.49e+00	0	57	104	764411904	60	21300
2026-01-04 01:32:10.57	252.19	7.29	-45.0	-59.8	3.8	1.49e+00	0	57	104	764411904	60	21220
2026-01-04 01:32:13.60	251.92	7.10	-45.0	-59.8	3.8	1.49e+00	0	57	104	764411904	60	21114
2026-01-04 01:32:16.64	251.64	6.90	-45.0	-59.8	3.8	1.49e+00	0	57	104	764411904	60	21091
2026-01-04 01:32:19.67	251.37	6.70	-45.0	-59.8	3.8	1.49e+00	0	56	104	764411904	60	21101
2026-01-04 01:32:22.70	251.11	6.51	-45.0	-59.7	3.8	1.49e+00	0	57	104	764411904	60	20999
2026-01-04 01:32:25.73	250.85	6.32	-44.9	-59.8	3.8	1.49e+00	0	57	104	764411904	60	21062
2026-01-04 01:32:28.77	250.59	6.13	-44.9	-59.7	3.8	1.49e+00	0	57	104	764411904	60	21016
2026-01-04 01:32:31.80	250.33	5.93	-44.9	-59.8	3.8	1.49e+00	0	57	104	764411904	60	21037
2026-01-04 01:32:34.83	250.08	5.74	-44.9	-59.8	3.8	1.49e+00	0	57	104	764411904	60	21052
2026-01-04 01:32:37.87	249.83	5.55	-44.9	-59.7	3.8	1.49e+00	0	57	104	764411904	60	21011
2026-01-04 01:32:40.90	249.59	5.37	-44.9	-59.7	3.8	1.49e+00	0	57	104	764411904	60	20960
2026-01-04 01:32:43.93	249.35	5.18	-44.9	-59.8	3.8	1.49e+00	0	57	104	764411904	60	21020
2026-01-04 01:32:46.97	249.11	4.99	-44.9	-59.7	3.8	1.49e+00	0	57	104	764411904	60	20969
2026-01-04 01:32:50.00	248.87	4.81	-44.9	-59.7	3.8	1.49e+00	0	57	104	764411904	60	21009
2026-01-04 01:32:53.03	248.64	4.62	-44.9	-59.7	3.8	1.49e+00	0	57	104	764411904	60	20975
2026-01-04 01:32:56.06	248.41	4.44	-44.9	-59.7	3.8	1.49e+00	0	57	104	764411904	60	20996
2026-01-04 01:32:59.10	248.19	4.25	-44.9	-59.7	3.8	1.49e+00	0	57	104	764411904	60	20981
2026-01-04 01:33:02.13	247.96	4.07	-44.9	-59.7	3.8	1.49e+00	0	57	104	764411904	60	20981
2026-01-04 01:33:05.17	247.74	3.89	-44.9	-59.7	3.8	1.49e+00	0	57	104	764411904	60	20963
2026-01-04 01:33:08.20	247.53	3.71	-44.9	-59.7	3.8	1.49e+00	0	57	104	764411904	60	20979
2026-01-04 01:33:11.23	247.31	3.53	-44.9	-59.8	3.8	1.49e+00	0	57	104	764411904	60	21025
2026-01-04 01:33:14.26	247.10	3.35	-44.9	-59.8	3.8	1.49e+00	0	57	104	764411904	60	21027
2026-01-04 01:33:17.30	246.89	3.17	-44.9	-59.7	3.8	1.49e+00	0	57	104	764411904	60	20986
2026-01-04 01:33:20.33	246.68	2.99	-44.9	-59.7	3.8	1.49e+00	0	57	104	764411904	60	20930
2026-01-04 01:33:23.36	246.48	2.81	-44.9	-59.7	3.8	1.49e+00	0	57	104	764411904	60	20949
2026-01-04 01:33:26.40	246.27	2.64	-44.9	-59.7	3.8	1.49e+00	0	57	104	764411904	60	20990
2026-01-04 01:33:29.43	246.08	2.46	-44.9	-59.7	3.8	1.49e+00	0	57	104	764411904	60	20962
2026-01-04 01:33:32.46	245.88	2.29	-44.9	-59.7	3.8	1.49e+00	0	57	104	764411904	60	20930
2026-01-04 01:33:35.50	245.68	2.11	-44.9	-59.7	3.8	1.49e+00	0	57	104	764411904	60	20895
2026-01-04 01:33:38.53	245.49	1.94	-44.9	-59.7	3.8	1.49e+00	0	57	104	764411904	60	20962

#Closed at: 2026-01-04 01:33:39
#Recorded file [764 MB]: D:/lorett/data/31039_260104_042054.dat