passes_logs/2026/01/04/R2.0S_Moscow/R2.0S_Moscow__20260104_022831_FENGYUN_3E_rec.log

#Pass ID: 20260104_022831_FENGYUN 3E
#Satellite: FENGYUN 3E
#Configuration: FENGYUN 3E
#almurnet v.1.7.20251203
#Start time: 2026-01-04 02:35:57

#Version: 2.2.20231116
#Station: R2.0S_Moscow
#Location: 37.707566 lon 55.798166 lat
#TLE: 1 49008U 21062A   26003.51942929 -.00000034  00000+0  45519-5 0  9990
#TLE: 2 49008  98.7472   8.7829 0001426 160.7926 199.3304 14.19883272233213

#Time	Az	El	Level	Level2	SNR	BER	BlckErr	Temp	State	Recorded	gain1	gain2
2026-01-04 02:35:57.40	104.85	22.28	-44.9	-56.8	3.8	8.46e-01	0	57	0	0	60	14963
2026-01-04 02:35:59.41	105.37	22.20	-45.7	-56.8	3.8	8.47e-01	0	58	104	0	62	12660
2026-01-04 02:36:01.43	105.90	22.13	-45.6	-56.8	3.8	8.46e-01	0	58	104	0	62	12592
2026-01-04 02:36:03.45	106.42	22.05	-45.5	-56.8	3.8	8.45e-01	0	58	104	0	62	12520
2026-01-04 02:36:05.48	106.94	21.97	-45.3	-56.5	3.8	8.45e-01	0	58	104	0	61	12899
2026-01-04 02:36:07.49	107.46	21.88	-45.1	-56.1	3.8	8.46e-01	0	58	104	0	60	13108
2026-01-04 02:36:09.52	107.97	21.80	-45.2	-56.1	3.8	8.45e-01	0	58	104	0	59	13828
2026-01-04 02:36:11.54	108.49	21.71	-45.1	-56.3	3.8	8.46e-01	0	58	104	0	60	13400
2026-01-04 02:36:13.56	108.99	21.62	-45.1	-56.2	3.8	8.46e-01	0	58	104	0	60	13237
2026-01-04 02:36:15.57	109.50	21.53	-45.1	-56.3	3.8	8.47e-01	0	58	104	0	60	13302
2026-01-04 02:36:17.59	110.00	21.44	-45.1	-56.2	3.8	8.46e-01	0	58	104	0	60	13167
2026-01-04 02:36:19.62	110.50	21.35	-45.1	-56.1	3.8	8.46e-01	0	58	104	0	60	12999
2026-01-04 02:36:21.64	111.00	21.25	-45.1	-56.0	3.8	8.46e-01	0	58	104	0	60	12906
2026-01-04 02:36:23.66	111.49	21.15	-45.0	-55.7	3.8	8.46e-01	0	58	104	0	60	12437
2026-01-04 02:36:25.68	111.98	21.05	-45.0	-55.7	3.8	8.46e-01	0	58	104	0	60	12385
2026-01-04 02:36:27.70	112.47	20.95	-45.1	-56.2	3.8	8.46e-01	0	58	104	0	60	13126
2026-01-04 02:36:29.73	112.96	20.85	-44.9	-55.1	3.8	8.47e-01	0	58	104	0	60	11615
2026-01-04 02:36:31.75	113.44	20.74	-44.8	-54.0	3.8	8.42e-01	0	58	104	0	60	10192
2026-01-04 02:36:33.77	113.92	20.63	-44.9	-55.2	3.8	8.46e-01	0	58	104	0	60	11805
2026-01-04 02:36:35.79	114.39	20.53	-45.1	-56.1	3.8	8.47e-01	0	58	104	0	60	13090
2026-01-04 02:36:37.81	114.87	20.42	-44.6	-52.8	4.1	8.41e-01	0	58	0	0	59	9463
2026-01-04 02:36:39.84	115.34	20.31	-43.4	-48.7	6.2	4.16e-01	0	58	0	3145728	57	6642
2026-01-04 02:36:41.86	115.80	20.19	-42.9	-47.6	7.3	1.21e-01	0	58	0	17825792	56	6160
2026-01-04 02:36:43.88	116.26	20.08	-44.4	-52.0	4.4	7.99e-01	0	58	0	27262976	58	9080
2026-01-04 02:36:45.90	116.72	19.97	-42.0	-45.9	8.6	1.25e-01	0	58	0	32505856	55	5396
2026-01-04 02:36:47.92	117.18	19.85	-37.4	-39.5	15.0	4.50e-06	0	58	0	46137344	45	4584
2026-01-04 02:36:49.94	117.63	19.73	-35.1	-37.0	17.2	1.10e-06	0	58	0	61865984	41	4304
2026-01-04 02:36:51.96	118.08	19.61	-41.5	-45.1	9.6	6.45e-04	0	58	0	75497472	52	5845
2026-01-04 02:36:53.98	118.52	19.49	-38.2	-40.5	14.1	0.00e+00	0	58	0	90177536	45	5140
2026-01-04 02:36:56.00	118.96	19.37	-44.5	-51.9	4.5	1.56e-01	0	58	0	104857600	58	9003
2026-01-04 02:36:58.02	119.40	19.25	-34.7	-36.5	17.6	5.37e-05	0	58	0	117440512	40	4317
2026-01-04 02:37:00.04	119.84	19.13	-34.7	-36.5	17.6	1.10e-06	0	58	0	132120576	39	4583
2026-01-04 02:37:02.05	120.27	19.00	-34.5	-36.3	17.8	6.06e-05	0	58	0	146800640	39	4452
2026-01-04 02:37:04.07	120.69	18.88	-34.4	-36.3	17.8	0.00e+00	0	58	0	161480704	39	4450
2026-01-04 02:37:06.09	121.12	18.75	-34.6	-36.4	17.7	0.00e+00	0	58	0	176160768	39	4518
2026-01-04 02:37:08.11	121.54	18.63	-34.9	-36.8	17.3	1.06e-04	0	58	0	189792256	39	4726
2026-01-04 02:37:10.13	121.96	18.50	-35.0	-36.9	17.2	0.00e+00	0	58	0	204472320	39	4806
2026-01-04 02:37:12.15	122.37	18.37	-34.9	-36.9	17.2	2.20e-06	0	58	0	219152384	39	4784
2026-01-04 02:37:14.17	122.78	18.24	-34.9	-36.8	17.4	0.00e+00	0	58	0	233832448	39	4728
2026-01-04 02:37:16.19	123.19	18.11	-34.9	-36.8	17.4	2.20e-06	0	58	0	248512512	39	4719
2026-01-04 02:37:18.21	123.59	17.98	-34.9	-36.8	17.3	1.14e-05	0	58	0	263192576	39	4756
2026-01-04 02:37:20.23	124.00	17.85	-35.0	-37.0	17.2	0.00e+00	0	58	0	277872640	39	4819
2026-01-04 02:37:22.25	124.39	17.72	-34.9	-36.7	17.3	0.00e+00	0	58	0	292552704	39	4703
2026-01-04 02:37:24.27	124.79	17.59	-34.8	-36.6	17.4	0.00e+00	0	58	0	307232768	39	4644
2026-01-04 02:37:26.29	125.18	17.46	-34.7	-36.6	17.5	0.00e+00	0	58	0	321912832	39	4616
2026-01-04 02:37:28.31	125.56	17.32	-34.9	-36.8	17.3	0.00e+00	0	58	0	335544320	39	4708
2026-01-04 02:37:30.33	125.95	17.19	-35.0	-36.9	17.1	0.00e+00	0	58	0	350224384	39	4814
2026-01-04 02:37:32.35	126.33	17.05	-35.2	-37.2	16.8	0.00e+00	0	58	0	364904448	40	4660
2026-01-04 02:37:34.37	126.71	16.92	-35.3	-37.4	16.7	0.00e+00	0	58	0	379584512	40	4761
2026-01-04 02:37:36.39	127.08	16.78	-35.3	-37.3	16.7	0.00e+00	0	58	0	394264576	40	4751
2026-01-04 02:37:38.41	127.45	16.65	-34.9	-36.8	17.2	0.00e+00	0	58	0	408944640	40	4464
2026-01-04 02:37:40.43	127.82	16.51	-34.9	-36.7	17.3	0.00e+00	0	58	0	423624704	40	4434
2026-01-04 02:37:42.45	128.18	16.38	-34.9	-36.8	17.3	0.00e+00	0	58	0	438304768	40	4442
2026-01-04 02:37:44.47	128.55	16.24	-35.0	-36.9	17.2	0.00e+00	0	58	0	452984832	40	4505
2026-01-04 02:37:46.49	128.90	16.10	-34.9	-36.8	17.2	0.00e+00	0	58	0	467664896	40	4462
2026-01-04 02:37:48.51	129.26	15.96	-35.0	-36.9	17.0	1.10e-06	0	58	0	482344960	40	4542
2026-01-04 02:37:50.54	129.61	15.83	-35.3	-37.3	16.6	5.03e-05	0	58	0	495976448	40	4737
2026-01-04 02:37:52.56	129.96	15.69	-35.6	-37.7	16.2	4.18e-04	0	58	0	510656512	40	4941
2026-01-04 02:37:54.58	130.31	15.55	-35.7	-37.8	15.9	2.22e-04	0	58	0	525336576	41	4746
2026-01-04 02:37:56.60	130.65	15.41	-35.8	-37.9	15.7	2.03e-03	0	58	0	540016640	41	4771
2026-01-04 02:37:58.62	130.99	15.27	-35.6	-37.8	15.8	6.88e-04	0	58	0	554696704	41	4709
2026-01-04 02:38:00.64	131.32	15.13	-35.2	-37.4	15.7	4.12e-03	0	58	0	569376768	40	4765
2026-01-04 02:38:02.66	131.66	15.00	-35.1	-37.1	16.2	3.01e-03	0	58	0	584056832	39	4875
2026-01-04 02:38:04.68	131.99	14.86	-35.1	-37.1	15.7	7.54e-03	0	58	0	598736896	39	4917
2026-01-04 02:38:06.70	132.32	14.72	-34.8	-36.9	15.7	5.27e-03	0	58	0	613416960	39	4777
2026-01-04 02:38:08.72	132.64	14.58	-35.0	-36.9	15.1	5.85e-03	0	58	0	627048448	39	4805
2026-01-04 02:38:10.74	132.96	14.44	-35.0	-37.2	15.6	7.10e-03	0	58	0	642777088	40	4669
2026-01-04 02:38:12.76	133.28	14.30	-35.4	-37.6	14.9	1.17e-02	0	58	0	656408576	40	4878
2026-01-04 02:38:14.78	133.60	14.16	-35.5	-37.7	14.9	1.51e-02	0	58	0	671088640	40	4982
2026-01-04 02:38:16.80	133.91	14.02	-35.7	-38.0	13.5	3.32e-02	0	58	0	685768704	41	4855
2026-01-04 02:38:18.81	134.22	13.89	-35.8	-38.1	14.6	2.50e-02	0	58	0	699400192	41	4898
2026-01-04 02:38:20.84	134.52	13.75	-35.8	-38.0	14.2	1.12e-02	0	58	0	714080256	41	4829
2026-01-04 02:38:22.86	134.83	13.61	-35.6	-37.7	14.5	1.14e-02	0	58	0	728760320	40	4969
2026-01-04 02:38:24.88	135.13	13.47	-35.4	-37.5	15.3	8.61e-03	0	58	0	743440384	40	4842
2026-01-04 02:38:26.90	135.43	13.33	-35.3	-37.3	15.5	8.23e-03	0	58	0	758120448	40	4718
2026-01-04 02:38:28.92	135.73	13.19	-35.3	-37.2	14.0	5.49e-03	0	58	0	772800512	40	4666
2026-01-04 02:38:30.95	136.02	13.05	-35.0	-37.2	15.7	4.40e-03	0	58	0	787480576	40	4685
2026-01-04 02:38:32.97	136.31	12.91	-35.3	-37.4	14.5	4.14e-03	0	58	0	802160640	40	4804
2026-01-04 02:38:34.99	136.60	12.78	-35.5	-37.6	15.2	3.20e-03	0	58	0	816840704	40	4894
2026-01-04 02:38:37.01	136.89	12.64	-35.7	-37.8	15.3	2.29e-03	0	58	0	831520768	41	4740
2026-01-04 02:38:39.03	137.17	12.50	-35.8	-38.1	15.1	1.28e-03	0	58	0	845152256	41	4884
2026-01-04 02:38:41.05	137.45	12.36	-35.9	-38.0	15.3	1.04e-03	0	58	0	859832320	41	4867
2026-01-04 02:38:43.07	137.73	12.22	-36.0	-38.1	15.2	5.64e-04	0	58	0	874512384	41	4901
2026-01-04 02:38:45.09	138.00	12.09	-36.1	-38.3	15.2	4.75e-04	0	58	0	889192448	41	4995
2026-01-04 02:38:47.11	138.28	11.95	-35.8	-38.1	15.3	2.07e-04	0	58	0	903872512	41	4899
2026-01-04 02:38:49.13	138.55	11.81	-35.8	-38.0	15.5	8.23e-05	0	58	0	918552576	41	4818
2026-01-04 02:38:51.15	138.81	11.68	-35.8	-37.9	15.6	4.80e-05	0	58	0	933232640	41	4793
2026-01-04 02:38:53.17	139.08	11.54	-36.0	-38.1	15.5	2.20e-06	0	58	0	947912704	41	4887
2026-01-04 02:38:55.19	139.34	11.40	-35.9	-38.0	15.5	1.10e-06	0	58	0	962592768	41	4832
2026-01-04 02:38:57.21	139.60	11.27	-36.1	-38.2	15.4	0.00e+00	0	58	0	977272832	41	4929
2026-01-04 02:38:59.23	139.86	11.13	-36.1	-38.1	15.4	0.00e+00	0	58	0	990904320	41	4911
2026-01-04 02:39:01.25	140.12	10.99	-36.1	-38.1	15.4	0.00e+00	0	58	0	1006632960	41	4922
2026-01-04 02:39:03.27	140.37	10.86	-36.2	-38.3	15.2	0.00e+00	0	58	0	1020264448	41	5016
2026-01-04 02:39:05.29	140.62	10.72	-36.3	-38.4	15.2	0.00e+00	0	58	0	1034944512	42	4766
2026-01-04 02:39:07.31	140.87	10.59	-36.4	-38.6	15.1	0.00e+00	0	58	0	1049624576	42	4873
2026-01-04 02:39:09.33	141.12	10.45	-36.3	-38.4	15.2	0.00e+00	0	58	0	1064304640	42	4771
2026-01-04 02:39:11.35	141.37	10.32	-36.2	-38.3	15.2	0.00e+00	0	58	0	1078984704	42	4749
2026-01-04 02:39:13.37	141.61	10.19	-36.3	-38.5	15.1	0.00e+00	0	58	0	1093664768	42	4832
2026-01-04 02:39:15.40	141.85	10.05	-36.5	-38.6	15.0	0.00e+00	0	58	0	1108344832	42	4925
2026-01-04 02:39:17.41	142.09	9.92	-36.5	-38.7	15.0	0.00e+00	0	58	0	1123024896	42	4935
2026-01-04 02:39:19.44	142.33	9.78	-36.6	-38.8	14.8	0.00e+00	0	58	0	1136656384	42	5021
2026-01-04 02:39:21.46	142.56	9.65	-36.6	-38.8	14.8	0.00e+00	0	58	0	1152385024	42	5014
2026-01-04 02:39:23.48	142.79	9.52	-36.7	-38.9	14.6	0.00e+00	0	58	0	1166016512	43	4782
2026-01-04 02:39:25.49	143.02	9.39	-36.7	-38.9	14.6	0.00e+00	0	58	0	1180696576	43	4810
2026-01-04 02:39:27.51	143.25	9.25	-36.8	-39.0	14.5	0.00e+00	0	58	0	1195376640	43	4869
2026-01-04 02:39:29.53	143.48	9.12	-36.7	-39.0	14.6	0.00e+00	0	58	0	1210056704	43	4815
2026-01-04 02:39:31.55	143.70	8.99	-36.8	-39.1	14.4	0.00e+00	0	58	0	1224736768	43	4921
2026-01-04 02:39:33.57	143.92	8.86	-36.9	-39.2	14.3	0.00e+00	0	58	0	1239416832	43	4938
2026-01-04 02:39:35.59	144.14	8.73	-36.8	-39.2	14.3	1.10e-06	0	58	0	1254096896	43	4929
2026-01-04 02:39:37.61	144.36	8.60	-36.6	-38.9	14.6	1.10e-06	0	58	0	1268776960	43	4799
2026-01-04 02:39:39.63	144.58	8.47	-36.7	-38.9	14.5	0.00e+00	0	58	0	1283457024	43	4804
2026-01-04 02:39:41.65	144.79	8.34	-36.8	-39.1	14.3	1.10e-06	0	58	0	1298137088	43	4908
2026-01-04 02:39:43.67	145.01	8.21	-36.9	-39.2	14.2	0.00e+00	0	58	0	1311768576	43	4948
2026-01-04 02:39:45.69	145.22	8.08	-37.0	-39.3	14.1	2.20e-06	0	58	0	1326448640	43	5019
2026-01-04 02:39:47.71	145.43	7.95	-44.8	-55.3	3.8	8.46e-01	0	58	104	1333788672	59	12640
2026-01-04 02:39:49.73	145.64	7.82	-45.4	-56.6	3.8	8.46e-01	0	58	104	1333788672	60	13817
2026-01-04 02:39:51.75	145.84	7.69	-45.7	-56.9	3.8	8.45e-01	0	59	104	1333788672	60	14288
2026-01-04 02:39:53.78	146.05	7.57	-45.8	-57.0	3.8	8.45e-01	0	58	104	1333788672	61	13619
2026-01-04 02:39:55.80	146.25	7.44	-45.8	-57.0	3.8	8.45e-01	0	58	104	1333788672	61	13678
2026-01-04 02:39:57.82	146.45	7.31	-45.6	-56.9	3.8	8.46e-01	0	58	104	1333788672	61	13425
2026-01-04 02:39:59.84	146.65	7.18	-45.6	-56.7	3.8	8.46e-01	0	58	104	1333788672	61	13163
2026-01-04 02:40:01.86	146.85	7.06	-45.5	-56.6	3.8	8.45e-01	0	58	104	1333788672	61	13012
2026-01-04 02:40:03.88	147.04	6.93	-45.5	-56.6	3.8	8.45e-01	0	58	104	1333788672	61	13031
2026-01-04 02:40:05.90	147.24	6.81	-45.5	-56.6	3.8	8.46e-01	0	58	104	1333788672	61	12985
2026-01-04 02:40:07.92	147.43	6.68	-45.5	-56.6	3.8	8.47e-01	0	58	104	1333788672	61	12985
2026-01-04 02:40:09.94	147.62	6.56	-45.5	-56.6	3.8	8.47e-01	0	58	104	1333788672	61	12968
2026-01-04 02:40:11.96	147.81	6.43	-45.5	-56.5	3.8	8.46e-01	0	58	104	1333788672	61	12948
2026-01-04 02:40:13.99	148.00	6.31	-45.5	-56.6	3.8	8.46e-01	0	58	104	1333788672	61	12967
2026-01-04 02:40:16.01	148.18	6.18	-45.5	-56.6	3.8	8.46e-01	0	58	104	1333788672	61	12973
2026-01-04 02:40:18.03	148.37	6.06	-45.5	-56.5	3.8	8.47e-01	0	58	104	1333788672	60	13684
2026-01-04 02:40:20.05	148.55	5.93	-45.5	-56.6	3.8	8.45e-01	0	58	104	1333788672	60	13727
2026-01-04 02:40:22.08	148.74	5.81	-45.5	-56.5	3.8	8.46e-01	0	58	104	1333788672	60	13692
2026-01-04 02:40:24.10	148.92	5.69	-45.5	-56.5	3.8	8.46e-01	0	58	104	1333788672	60	13643
2026-01-04 02:40:26.12	149.09	5.57	-45.5	-56.5	3.8	8.47e-01	0	58	104	1333788672	60	13660
2026-01-04 02:40:28.14	149.27	5.44	-45.5	-56.5	3.8	8.46e-01	0	58	104	1333788672	60	13657
2026-01-04 02:40:30.17	149.45	5.32	-45.5	-56.5	3.8	8.47e-01	0	58	104	1333788672	60	13668
2026-01-04 02:40:32.19	149.62	5.20	-45.5	-56.5	3.8	8.45e-01	0	58	104	1333788672	60	13670
2026-01-04 02:40:34.21	149.80	5.08	-45.4	-56.5	3.8	8.46e-01	0	58	104	1333788672	60	13640
2026-01-04 02:40:36.23	149.97	4.96	-45.5	-56.5	3.8	8.46e-01	0	58	104	1333788672	60	13633
2026-01-04 02:40:38.25	150.14	4.84	-45.4	-56.5	3.8	8.47e-01	0	58	104	1333788672	60	13620
2026-01-04 02:40:40.27	150.31	4.72	-45.4	-56.5	3.8	8.46e-01	0	58	104	1333788672	60	13629
2026-01-04 02:40:42.30	150.48	4.60	-45.4	-56.5	3.8	8.46e-01	0	58	104	1333788672	60	13667
2026-01-04 02:40:44.32	150.64	4.48	-45.4	-56.5	3.8	8.46e-01	0	58	104	1333788672	60	13662
2026-01-04 02:40:46.34	150.81	4.36	-45.4	-56.5	3.8	8.46e-01	0	58	104	1333788672	60	13647
2026-01-04 02:40:48.36	150.97	4.24	-45.4	-56.5	3.8	8.46e-01	0	58	104	1333788672	60	13673
2026-01-04 02:40:50.38	151.14	4.12	-45.4	-56.5	3.8	8.46e-01	0	58	104	1333788672	60	13598
2026-01-04 02:40:52.41	151.30	4.01	-45.4	-56.5	3.8	8.46e-01	0	58	104	1333788672	60	13632
2026-01-04 02:40:54.43	151.46	3.89	-45.4	-56.5	3.8	8.46e-01	0	58	104	1333788672	60	13624
2026-01-04 02:40:56.45	151.62	3.77	-45.4	-56.5	3.8	8.46e-01	0	58	104	1333788672	60	13597
2026-01-04 02:40:58.47	151.77	3.65	-45.4	-56.5	3.8	8.46e-01	0	58	104	1333788672	60	13591
2026-01-04 02:41:00.49	151.93	3.54	-45.4	-56.5	3.8	8.46e-01	0	58	104	1333788672	60	13599
2026-01-04 02:41:02.52	152.09	3.42	-45.4	-56.5	3.8	8.47e-01	0	59	104	1333788672	60	13583
2026-01-04 02:41:04.54	152.24	3.30	-45.4	-56.5	3.8	8.47e-01	0	58	104	1333788672	60	13572
2026-01-04 02:41:06.56	152.39	3.19	-45.4	-56.5	3.8	8.47e-01	0	58	104	1333788672	60	13612
2026-01-04 02:41:08.58	152.55	3.07	-45.4	-56.4	3.8	8.46e-01	0	58	104	1333788672	60	13552
2026-01-04 02:41:10.60	152.70	2.96	-45.4	-56.5	3.8	8.46e-01	0	58	104	1333788672	60	13582
2026-01-04 02:41:12.63	152.85	2.84	-45.4	-56.5	3.8	8.46e-01	0	58	104	1333788672	60	13591
2026-01-04 02:41:14.65	153.00	2.73	-45.4	-56.4	3.8	8.46e-01	0	58	104	1333788672	60	13559
2026-01-04 02:41:16.67	153.14	2.61	-45.4	-56.4	3.8	8.46e-01	0	58	104	1333788672	60	13554
2026-01-04 02:41:18.69	153.29	2.50	-45.4	-56.5	3.8	8.46e-01	0	58	104	1333788672	60	13573
2026-01-04 02:41:20.71	153.43	2.39	-45.4	-56.5	3.8	8.47e-01	0	58	104	1333788672	60	13620
2026-01-04 02:41:22.74	153.58	2.27	-45.4	-56.4	3.8	8.45e-01	0	58	104	1333788672	60	13554
2026-01-04 02:41:24.76	153.72	2.16	-45.4	-56.4	3.8	8.47e-01	0	58	104	1333788672	60	13540
2026-01-04 02:41:26.78	153.86	2.05	-45.4	-56.4	3.8	8.46e-01	0	59	104	1333788672	60	13536

#Closed at: 2026-01-04 02:41:28
#Recorded file [1333 MB]: D:/lorett/data/31039_260104_053557.dat