passes_logs/2026/01/04/R2.0S_Moscow/R2.0S_Moscow__20260104_043426_FENGYUN_3G_rec.log

#Pass ID: 20260104_043426_FENGYUN 3G
#Satellite: FENGYUN 3G
#Configuration: FENGYUN 3G
#almurnet v.1.7.20251203
#Start time: 2026-01-04 04:34:28

#Version: 2.2.20231116
#Station: R2.0S_Moscow
#Location: 37.707566 lon 55.798166 lat
#TLE: 1 56232U 23055A   26003.53327032  .00047684  00000+0  75687-3 0  9993
#TLE: 2 56232  49.9936 115.0642 0004181 334.2418  25.8340 15.52822756154418

#Time	Az	El	Level	Level2	SNR	BER	BlckErr	Temp	State	Recorded	gain1	gain2
2026-01-04 04:34:28.37	258.07	2.11	-44.0	-62.3	3.8	8.46e-01	0	47	0	0	60	28326
2026-01-04 04:34:31.40	257.87	2.31	-44.0	-62.2	3.8	8.46e-01	0	48	104	0	60	28018
2026-01-04 04:34:34.44	257.67	2.51	-44.0	-62.2	3.8	8.47e-01	0	48	104	0	60	27984
2026-01-04 04:34:37.47	257.47	2.71	-44.0	-62.4	3.8	8.44e-01	0	48	104	0	60	28513
2026-01-04 04:34:40.50	257.26	2.92	-44.0	-62.4	3.8	8.46e-01	0	48	104	0	60	28371
2026-01-04 04:34:43.54	257.05	3.12	-44.0	-62.4	3.8	8.46e-01	0	48	104	0	60	28465
2026-01-04 04:34:46.57	256.83	3.33	-44.0	-62.4	3.8	8.45e-01	0	49	104	0	60	28479
2026-01-04 04:34:49.60	256.61	3.54	-44.0	-62.4	3.8	8.46e-01	0	49	104	0	60	28570
2026-01-04 04:34:52.63	256.38	3.76	-44.0	-62.4	3.8	8.46e-01	0	49	104	0	60	28474
2026-01-04 04:34:55.67	256.15	3.97	-44.0	-62.4	3.8	8.47e-01	0	49	104	0	60	28465
2026-01-04 04:34:58.70	255.91	4.19	-44.0	-62.4	3.8	8.46e-01	0	49	104	0	60	28519
2026-01-04 04:35:01.73	255.67	4.41	-44.0	-62.3	3.8	8.46e-01	0	50	104	0	60	28291
2026-01-04 04:35:04.76	255.42	4.63	-44.0	-62.3	3.8	8.46e-01	0	50	104	0	60	28337
2026-01-04 04:35:07.80	255.17	4.85	-44.0	-62.3	3.8	8.46e-01	0	50	104	0	60	28213
2026-01-04 04:35:10.83	254.91	5.08	-44.0	-61.7	3.8	8.46e-01	0	50	104	0	60	26334
2026-01-04 04:35:13.86	254.65	5.31	-44.0	-61.0	3.8	8.46e-01	0	50	104	0	60	24208
2026-01-04 04:35:16.90	254.37	5.54	-44.0	-60.6	3.8	8.45e-01	0	50	104	0	60	23154
2026-01-04 04:35:19.93	254.10	5.78	-44.0	-60.7	3.8	8.45e-01	0	51	104	0	60	23483
2026-01-04 04:35:22.96	253.82	6.01	-44.0	-59.9	3.8	8.46e-01	0	51	104	0	59	22648
2026-01-04 04:35:26.00	253.52	6.25	-44.0	-58.0	4.5	8.38e-01	0	51	0	0	59	18237
2026-01-04 04:35:29.03	253.23	6.50	-43.9	-56.1	5.5	7.87e-01	0	51	0	0	59	14643
2026-01-04 04:35:32.06	252.92	6.74	-43.8	-55.4	6.0	4.38e-01	0	51	0	2621440	59	13497
2026-01-04 04:35:35.09	252.61	6.99	-44.0	-59.0	4.1	5.58e-01	0	51	0	4194304	59	20493
2026-01-04 04:35:38.12	252.29	7.24	-43.8	-54.9	6.2	8.45e-01	0	51	0	4194304	59	12673
2026-01-04 04:35:41.16	251.97	7.50	-41.6	-46.3	14.9	3.85e-02	0	51	0	7340032	55	5972
2026-01-04 04:35:44.19	251.63	7.76	-40.0	-43.2	18.0	0.00e+00	0	52	0	11010048	52	4977
2026-01-04 04:35:47.22	251.29	8.02	-39.6	-42.5	18.9	0.00e+00	0	52	0	14155776	50	5144
2026-01-04 04:35:50.25	250.94	8.28	-40.0	-43.0	17.6	4.89e-01	0	52	0	16252928	51	5145
2026-01-04 04:35:53.28	250.57	8.55	-42.9	-49.8	10.4	5.14e-05	0	52	0	19922944	57	7903
2026-01-04 04:35:56.31	250.20	8.82	-39.3	-42.0	19.4	0.00e+00	0	52	0	23068672	49	5147
2026-01-04 04:35:59.34	249.82	9.10	-39.1	-41.7	19.8	0.00e+00	0	52	0	26738688	49	4983
2026-01-04 04:36:02.37	249.43	9.37	-38.5	-40.8	20.7	0.00e+00	0	52	0	29884416	48	4755
2026-01-04 04:36:05.39	249.03	9.66	-38.1	-40.3	21.2	0.00e+00	0	52	0	33554432	48	4463
2026-01-04 04:36:08.42	248.62	9.94	-38.0	-40.2	21.3	0.00e+00	0	52	0	36700160	48	4437
2026-01-04 04:36:11.45	248.20	10.23	-38.0	-40.2	21.3	0.00e+00	0	52	0	40370176	48	4428
2026-01-04 04:36:14.47	247.77	10.52	-37.9	-40.1	21.5	0.00e+00	0	53	0	43515904	47	4620
2026-01-04 04:36:17.50	247.32	10.82	-37.9	-40.1	21.5	0.00e+00	0	53	0	47185920	47	4634
2026-01-04 04:36:20.53	246.86	11.12	-37.9	-40.1	21.6	0.00e+00	0	52	0	50331648	47	4600
2026-01-04 04:36:23.56	246.39	11.43	-37.3	-39.3	22.3	0.00e+00	0	53	0	54001664	46	4470
2026-01-04 04:36:26.58	245.91	11.74	-37.1	-39.1	22.5	0.00e+00	0	53	0	57147392	46	4353
2026-01-04 04:36:29.61	245.41	12.05	-37.5	-39.5	22.1	0.00e+00	0	53	0	60817408	46	4587
2026-01-04 04:36:32.64	244.90	12.37	-37.5	-39.6	22.1	0.00e+00	0	53	0	63963136	46	4600
2026-01-04 04:36:35.67	244.37	12.69	-37.0	-39.0	22.7	0.00e+00	0	53	0	67633152	46	4303
2026-01-04 04:36:38.70	243.82	13.02	-37.0	-38.9	22.7	0.00e+00	0	53	0	70778880	45	4523
2026-01-04 04:36:41.74	243.26	13.35	-37.1	-39.1	22.6	0.00e+00	0	53	0	74448896	45	4604
2026-01-04 04:36:44.77	242.69	13.69	-37.1	-39.1	22.7	0.00e+00	0	53	0	77594624	45	4604
2026-01-04 04:36:47.80	242.09	14.03	-37.0	-38.9	22.8	0.00e+00	0	53	0	81264640	45	4509
2026-01-04 04:36:50.83	241.48	14.38	-37.3	-39.3	22.5	0.00e+00	0	54	0	84410368	45	4723
2026-01-04 04:36:53.86	240.85	14.73	-37.3	-39.3	22.5	0.00e+00	0	53	0	88080384	45	4726
2026-01-04 04:36:56.88	240.20	15.08	-37.3	-39.2	22.6	0.00e+00	0	54	0	91226112	45	4698
2026-01-04 04:36:59.91	239.53	15.44	-36.7	-38.5	23.3	0.00e+00	0	54	0	94896128	45	4320
2026-01-04 04:37:02.94	238.84	15.80	-36.4	-38.2	23.6	0.00e+00	0	54	0	98041856	44	4396
2026-01-04 04:37:05.98	238.13	16.17	-36.1	-37.8	24.0	0.00e+00	0	54	0	101711872	44	4208
2026-01-04 04:37:09.01	237.39	16.54	-36.5	-38.3	23.5	0.00e+00	0	54	0	104857600	44	4467
2026-01-04 04:37:12.03	236.64	16.91	-36.3	-38.1	23.7	0.00e+00	0	54	0	108527616	44	4348
2026-01-04 04:37:15.06	235.85	17.29	-35.6	-37.3	24.3	0.00e+00	0	54	0	111673344	43	4211
2026-01-04 04:37:18.10	235.04	17.67	-35.4	-37.0	24.6	0.00e+00	0	54	0	115343360	42	4338
2026-01-04 04:37:21.12	234.21	18.06	-35.3	-37.0	24.7	0.00e+00	0	54	0	118489088	42	4293
2026-01-04 04:37:24.16	233.35	18.45	-35.5	-37.1	24.5	0.00e+00	0	54	0	122159104	42	4378
2026-01-04 04:37:27.19	232.46	18.84	-35.5	-37.1	24.6	0.00e+00	0	54	0	125304832	42	4364
2026-01-04 04:37:30.22	231.55	19.23	-35.0	-36.6	25.1	0.00e+00	0	54	0	128974848	42	4100
2026-01-04 04:37:33.24	230.61	19.63	-35.0	-36.5	25.1	0.00e+00	0	54	0	132120576	41	4328
2026-01-04 04:37:36.27	229.63	20.02	-35.0	-36.6	25.1	0.00e+00	0	54	0	135790592	41	4348
2026-01-04 04:37:39.30	228.63	20.42	-35.2	-36.8	24.9	0.00e+00	0	54	0	138936320	41	4483
2026-01-04 04:37:42.33	227.59	20.82	-34.8	-36.3	25.3	0.00e+00	0	54	0	142606336	41	4209
2026-01-04 04:37:45.36	226.52	21.22	-34.9	-36.5	25.2	0.00e+00	0	54	0	145752064	41	4325
2026-01-04 04:37:48.39	225.41	21.62	-34.8	-36.3	25.4	0.00e+00	0	54	0	149422080	41	4227
2026-01-04 04:37:51.42	224.27	22.01	-34.9	-36.5	25.2	0.00e+00	0	54	0	152567808	41	4312
2026-01-04 04:37:54.45	223.10	22.41	-34.4	-35.9	25.8	0.00e+00	0	54	0	156237824	40	4245
2026-01-04 04:37:57.48	221.89	22.80	-34.4	-35.8	25.8	0.00e+00	0	54	0	159383552	40	4239
2026-01-04 04:38:00.51	220.65	23.18	-34.3	-35.8	26.0	0.00e+00	0	55	0	163053568	40	4215
2026-01-04 04:38:03.54	219.37	23.57	-34.2	-35.6	26.1	0.00e+00	0	54	0	166199296	40	4135
2026-01-04 04:38:06.57	218.05	23.94	-34.5	-36.0	25.8	0.00e+00	0	54	0	169869312	40	4297
2026-01-04 04:38:09.60	216.69	24.31	-34.7	-36.2	25.5	0.00e+00	0	54	0	173015040	40	4426
2026-01-04 04:38:12.63	215.30	24.66	-34.3	-35.8	25.9	0.00e+00	0	54	0	176685056	40	4229
2026-01-04 04:38:15.66	213.87	25.01	-33.8	-35.2	26.6	0.00e+00	0	55	0	179830784	39	4157
2026-01-04 04:38:18.69	212.41	25.34	-33.5	-34.9	26.9	0.00e+00	0	54	0	183500800	39	4020
2026-01-04 04:38:21.72	210.91	25.67	-33.8	-35.2	26.6	0.00e+00	0	54	0	186646528	39	4175
2026-01-04 04:38:24.75	209.38	25.97	-34.2	-35.6	26.1	0.00e+00	0	55	0	190316544	39	4388
2026-01-04 04:38:27.77	207.81	26.26	-33.4	-34.8	26.8	0.00e+00	0	55	0	193462272	38	4214
2026-01-04 04:38:30.80	206.21	26.54	-34.0	-35.4	26.4	0.00e+00	0	55	0	197132288	38	4514
2026-01-04 04:38:33.83	204.58	26.79	-33.7	-35.1	26.7	0.00e+00	0	55	0	200278016	38	4383
2026-01-04 04:38:36.86	202.92	27.03	-33.6	-35.0	26.7	0.00e+00	0	55	0	203948032	38	4333
2026-01-04 04:38:39.89	201.24	27.24	-33.7	-35.1	26.6	0.00e+00	0	55	0	207093760	38	4371
2026-01-04 04:38:42.92	199.52	27.43	-34.1	-35.5	26.3	0.00e+00	0	55	0	210763776	38	4570
2026-01-04 04:38:45.95	197.79	27.60	-33.9	-35.3	26.4	0.00e+00	0	55	0	213909504	38	4477
2026-01-04 04:38:48.98	196.04	27.74	-33.8	-35.2	26.5	0.00e+00	0	55	0	217579520	38	4429
2026-01-04 04:38:52.01	194.27	27.85	-34.0	-35.4	26.3	0.00e+00	0	55	0	220725248	39	4282
2026-01-04 04:38:55.04	192.49	27.94	-33.8	-35.3	26.5	0.00e+00	0	55	0	224395264	39	4198
2026-01-04 04:38:58.08	190.70	28.00	-33.4	-34.8	26.9	0.00e+00	0	55	0	227540992	38	4212
2026-01-04 04:39:01.11	188.90	28.04	-33.5	-34.9	26.8	0.00e+00	0	55	0	231211008	38	4243
2026-01-04 04:39:04.14	187.10	28.04	-33.2	-34.5	27.1	0.00e+00	0	55	0	234356736	38	4087
2026-01-04 04:39:07.16	185.31	28.02	-33.4	-34.8	26.9	0.00e+00	0	55	0	238026752	38	4232
2026-01-04 04:39:10.19	183.52	27.97	-33.4	-34.8	26.9	0.00e+00	0	55	0	241172480	38	4223
2026-01-04 04:39:13.22	181.73	27.89	-33.5	-34.9	26.7	0.00e+00	0	55	0	244842496	38	4285
2026-01-04 04:39:16.25	179.96	27.78	-33.3	-34.6	27.1	0.00e+00	0	55	0	247988224	38	4142
2026-01-04 04:39:19.28	178.20	27.65	-33.6	-35.0	26.8	0.00e+00	0	55	0	251658240	38	4294
2026-01-04 04:39:22.31	176.46	27.50	-34.0	-35.5	26.2	0.00e+00	0	55	0	254803968	38	4561
2026-01-04 04:39:25.34	174.75	27.32	-33.7	-35.2	26.6	0.00e+00	0	55	0	258473984	38	4402
2026-01-04 04:39:28.37	173.05	27.11	-33.4	-34.8	27.0	0.00e+00	0	55	0	261619712	38	4199
2026-01-04 04:39:31.40	171.38	26.88	-34.0	-35.5	26.3	0.00e+00	0	55	0	265289728	38	4574
2026-01-04 04:39:34.43	169.74	26.64	-33.7	-35.2	26.6	0.00e+00	0	55	0	268435456	38	4397
2026-01-04 04:39:37.46	168.13	26.37	-33.7	-35.2	26.7	0.00e+00	0	55	0	272105472	38	4399
2026-01-04 04:39:40.49	166.55	26.08	-34.1	-35.6	26.3	0.00e+00	0	55	0	275251200	38	4608
2026-01-04 04:39:43.52	165.00	25.78	-34.5	-36.0	25.8	0.00e+00	0	55	0	278921216	39	4593
2026-01-04 04:39:46.55	163.49	25.47	-33.8	-35.2	26.6	0.00e+00	0	55	0	282066944	39	4192
2026-01-04 04:39:49.58	162.01	25.14	-33.9	-35.4	26.5	0.00e+00	0	55	0	285736960	39	4253
2026-01-04 04:39:52.61	160.57	24.79	-33.9	-35.3	26.5	0.00e+00	0	55	0	288882688	39	4230
2026-01-04 04:39:55.64	159.17	24.44	-34.1	-35.6	26.2	0.00e+00	0	55	0	292552704	39	4369
2026-01-04 04:39:58.67	157.80	24.08	-34.0	-35.4	26.3	0.00e+00	0	55	0	295698432	39	4284
2026-01-04 04:40:01.70	156.47	23.71	-34.1	-35.6	26.2	0.00e+00	0	55	0	299368448	39	4380
2026-01-04 04:40:04.73	155.17	23.33	-34.1	-35.6	26.1	0.00e+00	0	55	0	302514176	39	4364
2026-01-04 04:40:07.76	153.91	22.95	-33.9	-35.4	26.3	0.00e+00	0	55	0	306184192	39	4245
2026-01-04 04:40:10.79	152.69	22.56	-34.6	-36.1	25.7	0.00e+00	0	55	0	309329920	39	4629
2026-01-04 04:40:13.82	151.51	22.16	-34.4	-35.9	25.8	0.00e+00	0	55	0	312999936	40	4246
2026-01-04 04:40:16.85	150.35	21.77	-34.4	-35.9	25.6	0.00e+00	0	55	0	316145664	40	4281
2026-01-04 04:40:19.87	149.24	21.37	-35.0	-36.6	25.0	0.00e+00	0	55	0	319815680	40	4617
2026-01-04 04:40:22.90	148.16	20.97	-34.5	-36.0	25.6	0.00e+00	0	56	0	322961408	40	4308
2026-01-04 04:40:25.93	147.11	20.58	-35.1	-36.7	24.9	0.00e+00	0	55	0	326631424	40	4681
2026-01-04 04:40:28.96	146.09	20.18	-34.9	-36.5	25.0	0.00e+00	0	55	0	329777152	40	4587
2026-01-04 04:40:31.99	145.10	19.78	-35.1	-36.7	24.9	0.00e+00	0	55	0	333447168	40	4666
2026-01-04 04:40:35.02	144.15	19.38	-35.2	-36.9	24.7	0.00e+00	0	56	0	336592896	41	4504
2026-01-04 04:40:38.04	143.23	18.99	-35.4	-37.1	24.4	0.00e+00	0	55	0	340262912	41	4623
2026-01-04 04:40:41.07	142.33	18.60	-35.0	-36.6	24.9	0.00e+00	0	56	0	343408640	41	4382
2026-01-04 04:40:44.10	141.46	18.21	-35.4	-37.0	24.5	0.00e+00	0	56	0	347078656	41	4576
2026-01-04 04:40:47.13	140.62	17.82	-35.4	-37.0	24.5	0.00e+00	0	56	0	350224384	41	4581
2026-01-04 04:40:50.17	139.80	17.44	-35.8	-37.5	24.0	0.00e+00	0	56	0	353894400	42	4562
2026-01-04 04:40:53.19	139.01	17.06	-35.7	-37.4	24.1	0.00e+00	0	56	0	357040128	42	4508
2026-01-04 04:40:56.22	138.24	16.68	-35.8	-37.5	24.0	0.00e+00	0	56	0	360710144	42	4560
2026-01-04 04:40:59.25	137.50	16.31	-35.8	-37.5	23.9	0.00e+00	0	56	0	363855872	42	4567
2026-01-04 04:41:02.28	136.78	15.94	-35.6	-37.3	24.1	0.00e+00	0	56	0	367525888	42	4467
2026-01-04 04:41:05.31	136.08	15.58	-36.4	-38.2	23.1	0.00e+00	0	56	0	370671616	43	4696
2026-01-04 04:41:08.34	135.40	15.22	-36.8	-38.7	22.6	5.70e-06	0	56	0	374341632	44	4674
2026-01-04 04:41:11.37	134.74	14.87	-36.4	-38.4	22.4	5.60e-05	0	56	0	377487360	43	4772
2026-01-04 04:41:14.40	134.11	14.51	-36.1	-38.1	22.2	1.22e-04	0	55	0	381157376	42	4919
2026-01-04 04:41:17.42	133.49	14.17	-36.0	-39.0	20.7	5.00e-04	0	56	0	384303104	43	5101
2026-01-04 04:41:20.46	132.89	13.83	-36.5	-39.4	19.7	1.76e-03	0	56	0	387973120	43	5341
2026-01-04 04:41:23.49	132.30	13.49	-35.1	-39.2	16.8	1.13e-02	0	56	0	391118848	40	6208
2026-01-04 04:41:26.52	131.74	13.15	-33.2	-38.8	15.7	2.08e-02	0	56	0	394788864	39	6300
2026-01-04 04:41:29.55	131.19	12.83	-31.7	-39.5	13.4	6.34e-02	0	56	0	397934592	36	8159
2026-01-04 04:41:32.58	130.65	12.50	-26.3	-38.8	11.5	1.23e-01	0	56	0	401604608	28	11821
2026-01-04 04:41:35.60	130.14	12.18	-31.3	-38.8	11.5	9.00e-02	0	56	0	404750336	33	8908
2026-01-04 04:41:38.63	129.63	11.87	-29.5	-39.4	11.3	1.42e-01	0	56	0	408420352	33	9529
2026-01-04 04:41:41.66	129.14	11.56	-29.7	-39.9	10.5	1.81e-01	0	56	0	411566080	32	10714
2026-01-04 04:41:44.68	128.67	11.25	-27.9	-38.9	9.6	2.60e-01	0	56	0	414711808	28	12047
2026-01-04 04:41:47.71	128.20	10.95	-28.0	-39.8	8.6	3.17e-01	0	56	0	417333248	27	14122
2026-01-04 04:41:50.74	127.75	10.65	-26.6	-38.9	8.5	2.44e-01	0	56	0	420478976	23	16008
2026-01-04 04:41:53.77	127.31	10.35	-27.6	-38.4	10.1	2.04e-01	0	56	0	423624704	30	10110
2026-01-04 04:41:56.80	126.89	10.06	-29.6	-39.4	10.9	1.48e-01	0	56	0	426770432	33	9532
2026-01-04 04:41:59.83	126.47	9.77	-30.3	-39.7	10.5	1.42e-01	0	56	0	429916160	33	9898
2026-01-04 04:42:02.86	126.07	9.49	-31.6	-40.7	11.9	2.33e-01	0	56	0	433061888	34	10513
2026-01-04 04:42:05.88	125.67	9.21	-31.7	-40.6	9.5	1.24e-01	0	56	0	436207616	25	17391
2026-01-04 04:42:08.91	125.29	8.93	-33.3	-41.9	13.4	6.47e-02	0	56	0	439877632	39	8980
2026-01-04 04:42:11.95	124.91	8.66	-35.0	-40.5	15.9	2.00e-02	0	56	0	443023360	42	6480
2026-01-04 04:42:14.97	124.55	8.39	-35.5	-40.0	16.2	3.45e-03	0	56	0	446693376	43	5781
2026-01-04 04:42:18.00	124.20	8.13	-37.2	-40.9	17.2	1.21e-03	0	56	0	449839104	45	5710
2026-01-04 04:42:21.03	123.85	7.87	-44.5	-62.9	3.8	3.73e-01	0	56	104	451936256	59	31977
2026-01-04 04:42:24.06	123.51	7.61	-45.2	-63.5	3.9	8.46e-01	0	56	104	451936256	61	30577
2026-01-04 04:42:27.09	123.18	7.35	-45.5	-63.7	3.8	8.46e-01	0	56	104	451936256	61	31440
2026-01-04 04:42:30.12	122.86	7.10	-45.4	-63.8	3.8	8.46e-01	0	56	104	451936256	61	31479
2026-01-04 04:42:33.16	122.54	6.85	-45.2	-63.6	3.8	8.45e-01	0	56	104	451936256	61	31008
2026-01-04 04:42:36.19	122.24	6.60	-45.1	-63.6	3.8	8.47e-01	0	56	104	451936256	61	30785
2026-01-04 04:42:39.22	121.94	6.36	-45.1	-63.5	3.8	8.46e-01	0	56	104	451936256	61	30686
2026-01-04 04:42:42.26	121.64	6.12	-45.1	-63.5	3.8	8.46e-01	0	56	104	451936256	61	30679
2026-01-04 04:42:45.29	121.36	5.88	-45.0	-63.6	3.8	8.48e-01	0	56	104	451936256	60	32576
2026-01-04 04:42:48.32	121.08	5.64	-44.9	-63.5	3.8	8.46e-01	0	56	104	451936256	60	32497
2026-01-04 04:42:51.35	120.81	5.41	-45.1	-63.5	3.8	8.46e-01	0	56	104	451936256	60	32450
2026-01-04 04:42:54.39	120.54	5.18	-45.1	-63.5	3.8	8.46e-01	0	56	104	451936256	60	32394
2026-01-04 04:42:57.42	120.28	4.95	-45.1	-63.5	3.8	8.45e-01	0	56	104	451936256	60	32438
2026-01-04 04:43:00.45	120.02	4.73	-45.1	-63.5	3.8	8.47e-01	0	56	104	451936256	60	32438
2026-01-04 04:43:03.49	119.77	4.50	-45.1	-63.5	3.8	8.46e-01	0	56	104	451936256	60	32308
2026-01-04 04:43:06.52	119.53	4.28	-44.4	-63.5	3.8	8.46e-01	0	56	104	451936256	60	32402
2026-01-04 04:43:09.55	119.29	4.07	-45.1	-63.5	3.8	8.46e-01	0	56	104	451936256	60	32321
2026-01-04 04:43:12.58	119.06	3.85	-45.1	-63.5	3.8	8.46e-01	0	56	104	451936256	60	32364
2026-01-04 04:43:15.62	118.83	3.64	-45.1	-63.5	3.8	8.45e-01	0	56	104	451936256	60	32380
2026-01-04 04:43:18.65	118.60	3.42	-45.1	-63.5	3.8	8.47e-01	0	56	104	451936256	60	32400
2026-01-04 04:43:21.68	118.38	3.22	-45.1	-63.5	3.8	8.46e-01	0	56	104	451936256	60	32301
2026-01-04 04:43:24.72	118.17	3.01	-45.1	-63.5	3.8	8.46e-01	0	56	104	451936256	60	32341
2026-01-04 04:43:27.75	117.96	2.80	-44.6	-63.5	3.8	8.46e-01	0	56	104	451936256	60	32262
2026-01-04 04:43:30.78	117.75	2.60	-45.0	-63.5	3.8	8.46e-01	0	56	104	451936256	60	32291
2026-01-04 04:43:33.82	117.55	2.40	-45.0	-63.5	3.8	8.46e-01	0	56	104	451936256	60	32351
2026-01-04 04:43:36.85	117.35	2.20	-45.0	-63.5	3.8	8.45e-01	0	56	104	451936256	60	32409
2026-01-04 04:43:39.88	117.16	2.00	-45.0	-63.5	3.8	8.45e-01	0	56	104	451936256	60	32344

#Closed at: 2026-01-04 04:43:41
#Recorded file [451 MB]: D:/lorett/data/31039_260104_073428.dat