passes_logs/2026/01/17/PlanumMoscow/PlanumMoscow__20260117_154750_METOP-C_rec.log

#Pass ID: 20260117_154750_METOP-C
#Satellite: METOP-C
#Configuration: METOP-C
#Start time: 2026-01-17 15:47:55.947506

#LorettStation: 1.0.0 05.05.2024
#Station: PlanumMoscow
#Location: 37.6253844 lon 55.6713361 lat
#TLE: 1 43689U 18087A   25293.88981035  .00000265  00000+0  14109-3 0  9997
#TLE: 2 43689  98.7006 352.4487 0002041 122.1097 238.0279 14.21482740360838

#Time	Az	El	Level	SNR
2026-01-17 15:51:34.435018	53.7	14.1	-64.8	0.0
2026-01-17 15:51:35.557272	53.5	14.1	-64.4	0.0
2026-01-17 15:51:36.679030	53.3	14.1	-65.5	0.0
2026-01-17 15:51:37.801283	53.1	14.1	-65.5	0.0
2026-01-17 15:51:38.923536	52.8	14.2	-65.6	0.0
2026-01-17 15:51:40.045790	52.6	14.2	-64.4	0.0
2026-01-17 15:51:41.168043	52.4	14.2	-65.4	0.0
2026-01-17 15:51:42.290296	52.1	14.2	-65.4	0.0
2026-01-17 15:51:43.412550	51.9	14.2	-65.3	0.0
2026-01-17 15:51:44.534307	51.7	14.2	-65.6	0.0
2026-01-17 15:51:45.657561	51.5	14.3	-64.8	0.0
2026-01-17 15:51:46.779814	51.2	14.3	-64.8	0.0
2026-01-17 15:51:47.902068	51.0	14.3	-64.1	0.0
2026-01-17 15:51:49.023826	50.8	14.3	-65.0	0.0
2026-01-17 15:51:50.145583	50.5	14.3	-65.7	0.0
2026-01-17 15:51:51.267837	50.3	14.3	-65.3	0.0
2026-01-17 15:51:52.389594	50.1	14.4	-65.2	0.0
2026-01-17 15:51:53.514848	49.8	14.4	-65.5	0.0
2026-01-17 15:51:54.637102	49.6	14.4	-65.4	0.0
2026-01-17 15:51:55.759355	49.4	14.4	-64.5	0.0
2026-01-17 15:51:56.881609	49.1	14.4	-64.5	0.0
2026-01-17 15:51:58.003862	48.9	14.4	-64.7	0.0
2026-01-17 15:51:59.126116	48.7	14.4	-64.9	0.0
2026-01-17 15:52:00.248369	48.4	14.5	-64.4	0.0
2026-01-17 15:52:01.369631	48.2	14.5	-64.6	0.0
2026-01-17 15:52:02.492884	48.0	14.5	-64.4	0.0
2026-01-17 15:52:03.615138	47.7	14.5	-64.9	0.0
2026-01-17 15:52:04.737391	47.5	14.5	-64.9	0.0
2026-01-17 15:52:05.859645	47.3	14.5	-63.9	0.0
2026-01-17 15:52:06.981898	47.0	14.5	-64.3	0.0
2026-01-17 15:52:08.104151	46.8	14.5	-64.4	0.0
2026-01-17 15:52:09.225909	46.6	14.5	-65.0	0.0
2026-01-17 15:52:10.347667	46.3	14.5	-64.4	0.0
2026-01-17 15:52:11.469920	46.1	14.5	-66.0	0.8
2026-01-17 15:52:12.592174	45.9	14.5	-65.3	0.7
2026-01-17 15:52:13.714427	45.6	14.6	-64.7	0.0
2026-01-17 15:52:14.836681	45.4	14.6	-65.3	0.0
2026-01-17 15:52:15.958934	45.1	14.6	-66.0	0.0
2026-01-17 15:52:17.081187	44.9	14.6	-65.3	1.1
2026-01-17 15:52:18.203441	44.7	14.6	-65.0	0.0
2026-01-17 15:52:19.327200	44.4	14.6	-63.9	0.0
2026-01-17 15:52:20.449452	44.2	14.6	-66.1	1.3
2026-01-17 15:52:21.571217	44.0	14.6	-63.1	0.0
2026-01-17 15:52:22.692511	43.7	14.6	-65.2	0.0
2026-01-17 15:52:23.814764	43.5	14.6	-63.3	0.0
2026-01-17 15:52:24.937026	43.3	14.6	-64.3	0.0
2026-01-17 15:52:26.060311	43.0	14.6	-64.4	0.0
2026-01-17 15:52:27.182070	42.8	14.6	-64.8	0.0
2026-01-17 15:52:28.304323	42.6	14.6	-66.5	0.0
2026-01-17 15:52:29.426585	42.3	14.6	-66.0	0.0
2026-01-17 15:52:30.548838	42.1	14.6	-66.3	0.0
2026-01-17 15:52:31.670131	41.9	14.6	-66.6	0.4
2026-01-17 15:52:32.792385	41.6	14.6	-66.2	0.5
2026-01-17 15:52:33.914638	41.4	14.6	-66.3	0.0
2026-01-17 15:52:35.036900	41.1	14.6	-65.9	0.0
2026-01-17 15:52:36.160163	40.9	14.6	-64.8	0.0
2026-01-17 15:52:37.280959	40.7	14.6	-65.6	0.0
2026-01-17 15:52:38.403213	40.4	14.6	-66.3	0.0
2026-01-17 15:52:39.524970	40.2	14.6	-67.0	0.4
2026-01-17 15:52:40.647232	40.0	14.6	-66.0	0.0
2026-01-17 15:52:41.769485	39.7	14.5	-65.5	0.0
2026-01-17 15:52:42.891739	39.5	14.5	-66.3	0.8
2026-01-17 15:52:44.013535	39.3	14.5	-66.7	2.0
2026-01-17 15:52:45.136789	39.0	14.5	-66.8	1.0
2026-01-17 15:52:46.259042	38.8	14.5	-65.8	0.5
2026-01-17 15:52:47.381296	38.6	14.5	-66.2	0.0
2026-01-17 15:52:48.505558	38.3	14.5	-66.0	0.0
2026-01-17 15:52:49.627362	38.1	14.5	-66.2	1.0
2026-01-17 15:52:50.749120	37.9	14.5	-66.2	0.8
2026-01-17 15:52:51.871373	37.6	14.5	-66.4	0.0
2026-01-17 15:52:52.993132	37.4	14.5	-65.6	0.0
2026-01-17 15:52:54.115392	37.2	14.4	-66.2	0.1
2026-01-17 15:52:55.262196	36.9	14.4	-65.8	0.0
2026-01-17 15:52:56.385450	36.7	14.4	-65.6	2.5
2026-01-17 15:52:57.507208	36.5	14.4	-66.7	1.1
2026-01-17 15:52:58.629461	36.2	14.4	-66.1	1.8
2026-01-17 15:52:59.751714	36.0	14.4	-66.3	0.9
2026-01-17 15:53:00.872977	35.8	14.4	-66.0	0.0
2026-01-17 15:53:01.995230	35.5	14.4	-66.7	0.3
2026-01-17 15:53:03.116004	35.3	14.3	-66.8	2.6
2026-01-17 15:53:04.237762	35.1	14.3	-66.4	3.5
2026-01-17 15:53:05.359557	34.8	14.3	-66.6	2.1
2026-01-17 15:53:06.481811	34.6	14.3	-66.5	2.5
2026-01-17 15:53:07.604064	34.4	14.3	-66.5	2.8
2026-01-17 15:53:08.725326	34.1	14.3	-66.0	3.7
2026-01-17 15:53:09.848083	33.9	14.2	-66.9	3.5
2026-01-17 15:53:10.969383	33.7	14.2	-66.7	3.8
2026-01-17 15:53:12.093637	33.5	14.2	-65.7	2.8
2026-01-17 15:53:13.214899	33.2	14.2	-67.0	3.7
2026-01-17 15:53:14.336687	33.0	14.2	-67.2	4.3
2026-01-17 15:53:15.457949	32.8	14.1	-66.7	3.8
2026-01-17 15:53:16.579706	32.5	14.1	-66.5	3.5
2026-01-17 15:53:17.701960	32.3	14.1	-66.9	3.0
2026-01-17 15:53:18.823233	32.1	14.1	-67.0	4.1
2026-01-17 15:53:19.947991	31.9	14.1	-67.0	3.9
2026-01-17 15:53:21.070283	31.6	14.0	-67.0	4.7
2026-01-17 15:53:22.192537	31.4	14.0	-67.0	3.5
2026-01-17 15:53:23.315295	31.2	14.0	-66.9	3.4
2026-01-17 15:53:24.437053	30.9	14.0	-66.4	1.6
2026-01-17 15:53:25.559315	30.7	13.9	-66.2	0.0
2026-01-17 15:53:26.680607	30.5	13.9	-65.3	1.2
2026-01-17 15:53:27.802887	30.3	13.9	-67.0	4.6
2026-01-17 15:53:28.924654	30.0	13.9	-66.7	4.0
2026-01-17 15:53:30.046412	29.8	13.8	-67.0	4.7
2026-01-17 15:53:31.168665	29.6	13.8	-67.1	3.8
2026-01-17 15:53:32.288982	29.4	13.8	-67.1	3.0
2026-01-17 15:53:33.410243	29.2	13.8	-66.8	3.8
2026-01-17 15:53:34.532009	28.9	13.7	-66.5	2.2
2026-01-17 15:53:35.653271	28.7	13.7	-66.6	3.5
2026-01-17 15:53:36.774581	28.5	13.7	-66.0	3.0
2026-01-17 15:53:37.896339	28.3	13.7	-66.9	3.6
2026-01-17 15:53:39.018106	28.1	13.6	-67.0	4.1
2026-01-17 15:53:40.139902	27.8	13.6	-66.7	3.9
2026-01-17 15:53:41.261660	27.6	13.6	-66.6	4.4
2026-01-17 15:53:42.382922	27.4	13.5	-66.9	3.7
2026-01-17 15:53:43.504687	27.2	13.5	-66.7	4.1
2026-01-17 15:53:44.625949	27.0	13.5	-66.5	4.8
2026-01-17 15:53:45.747707	26.7	13.5	-66.6	4.8
2026-01-17 15:53:46.869960	26.5	13.4	-66.6	3.1
2026-01-17 15:53:47.992214	26.3	13.4	-66.6	3.9
2026-01-17 15:53:49.113971	26.1	13.4	-67.0	3.7
2026-01-17 15:53:50.236224	25.9	13.3	-66.6	2.6
2026-01-17 15:53:51.357982	25.7	13.3	-66.5	3.8
2026-01-17 15:53:52.479244	25.4	13.3	-66.8	3.2
2026-01-17 15:53:53.601498	25.2	13.2	-66.8	3.8
2026-01-17 15:53:54.723255	25.0	13.2	-66.9	4.0
2026-01-17 15:53:55.844517	24.8	13.2	-67.0	4.1
2026-01-17 15:53:56.965780	24.6	13.1	-66.9	4.2
2026-01-17 15:53:58.088033	24.4	13.1	-67.1	4.5
2026-01-17 15:53:59.210287	24.2	13.1	-66.9	3.5
2026-01-17 15:54:00.332044	23.9	13.0	-67.2	3.9
2026-01-17 15:54:01.453802	23.7	13.0	-67.1	4.0
2026-01-17 15:54:02.575064	23.5	12.9	-66.6	3.9
2026-01-17 15:54:03.697318	23.3	12.9	-66.8	3.9
2026-01-17 15:54:04.818083	23.1	12.9	-66.5	3.7
2026-01-17 15:54:05.939841	22.9	12.8	-66.8	4.2
2026-01-17 15:54:07.062094	22.7	12.8	-66.4	3.1
2026-01-17 15:54:08.184347	22.5	12.8	-66.3	3.5
2026-01-17 15:54:09.306105	22.3	12.7	-67.2	3.9
2026-01-17 15:54:10.426872	22.1	12.7	-67.1	3.1
2026-01-17 15:54:11.548133	21.9	12.6	-66.8	4.3
2026-01-17 15:54:12.669395	21.7	12.6	-66.8	4.1
2026-01-17 15:54:13.790162	21.5	12.6	-66.6	3.7
2026-01-17 15:54:14.910926	21.2	12.5	-67.0	3.8
2026-01-17 15:54:16.032693	21.0	12.5	-66.9	4.3
2026-01-17 15:54:17.156469	20.8	12.5	-66.5	2.3
2026-01-17 15:54:18.278722	20.6	12.4	-66.8	3.2
2026-01-17 15:54:19.400480	20.4	12.4	-66.9	3.2
2026-01-17 15:54:20.522238	20.2	12.3	-66.4	4.2
2026-01-17 15:54:21.644492	20.0	12.3	-66.1	3.9
2026-01-17 15:54:22.766745	19.8	12.2	-65.0	3.7
2026-01-17 15:54:23.889503	19.6	12.2	-66.8	4.1
2026-01-17 15:54:25.010270	19.4	12.2	-65.4	3.0
2026-01-17 15:54:26.132028	19.2	12.1	-66.6	2.6
2026-01-17 15:54:27.253290	19.0	12.1	-66.7	3.4
2026-01-17 15:54:28.375048	18.8	12.0	-66.7	2.7
2026-01-17 15:54:29.497302	18.6	12.0	-66.4	2.5
2026-01-17 15:54:30.618564	18.4	11.9	-66.1	3.2
2026-01-17 15:54:31.740817	18.3	11.9	-66.2	3.4
2026-01-17 15:54:32.863071	18.1	11.9	-66.1	2.1
2026-01-17 15:54:33.983340	17.9	11.8	-66.1	2.5
2026-01-17 15:54:35.105602	17.7	11.8	-65.8	3.0
2026-01-17 15:54:36.226370	17.5	11.7	-66.1	3.0
2026-01-17 15:54:37.349634	17.3	11.7	-66.6	2.2
2026-01-17 15:54:38.470896	17.1	11.6	-65.8	1.7
2026-01-17 15:54:39.593149	16.9	11.6	-66.6	3.2
2026-01-17 15:54:40.714906	16.7	11.5	-66.6	3.5
2026-01-17 15:54:41.836664	16.5	11.5	-65.9	2.9
2026-01-17 15:54:42.960422	16.3	11.5	-65.6	3.5
2026-01-17 15:54:44.082676	16.1	11.4	-66.2	3.6
2026-01-17 15:54:45.204938	15.9	11.4	-65.6	3.9
2026-01-17 15:54:46.326696	15.8	11.3	-65.9	0.0
2026-01-17 15:54:47.448454	15.6	11.3	-66.1	0.8
2026-01-17 15:54:48.569717	15.4	11.2	-66.2	1.9
2026-01-17 15:54:49.690980	15.2	11.2	-65.9	3.4
2026-01-17 15:54:50.815747	15.0	11.1	-66.0	4.3
2026-01-17 15:54:51.938001	14.8	11.1	-65.5	3.4
2026-01-17 15:54:53.059759	14.6	11.0	-65.6	3.8
2026-01-17 15:54:54.181517	14.5	11.0	-65.3	4.0
2026-01-17 15:54:55.303274	14.3	10.9	-64.9	4.5
2026-01-17 15:54:56.430032	14.1	10.9	-65.0	3.1
2026-01-17 15:54:57.550798	13.9	10.8	-65.3	2.5
2026-01-17 15:54:58.673052	13.7	10.8	-64.7	1.0
2026-01-17 15:54:59.794315	13.6	10.7	-65.3	0.0
2026-01-17 15:55:00.915576	13.4	10.7	-63.4	0.0
2026-01-17 15:55:02.037334	13.2	10.6	-65.3	0.9
2026-01-17 15:55:03.158587	13.0	10.6	-65.4	1.7
2026-01-17 15:55:04.279345	12.8	10.5	-63.9	2.5
2026-01-17 15:55:05.399606	12.7	10.5	-64.3	1.7
2026-01-17 15:55:06.521868	12.5	10.4	-63.5	0.7
2026-01-17 15:55:07.642626	12.3	10.4	-64.0	1.7
2026-01-17 15:55:08.765879	12.1	10.3	-63.4	2.1
2026-01-17 15:55:09.887133	12.0	10.3	-63.1	0.7
2026-01-17 15:55:11.009386	11.8	10.2	-63.4	0.9
2026-01-17 15:55:12.131648	11.6	10.2	-64.1	0.9
2026-01-17 15:55:13.253405	11.4	10.1	-64.1	0.8
2026-01-17 15:55:14.374667	11.3	10.1	-63.5	0.0
2026-01-17 15:55:15.495929	11.1	10.0	-64.1	0.0
2026-01-17 15:55:16.617687	10.9	10.0	-64.7	0.0
2026-01-17 15:55:17.737453	10.7	9.9	-65.2	0.0
2026-01-17 15:55:18.856218	10.6	9.9	-63.3	0.0
2026-01-17 15:55:19.978471	10.4	9.8	-64.0	0.0
2026-01-17 15:55:21.100725	10.2	9.8	-63.2	0.0
2026-01-17 15:55:22.222979	10.1	9.7	-64.0	0.0
2026-01-17 15:55:23.345240	9.9	9.7	-64.5	3.3
2026-01-17 15:55:24.466998	9.7	9.6	-62.9	0.3
2026-01-17 15:55:25.588756	9.6	9.6	-61.6	4.2
2026-01-17 15:55:26.711009	9.4	9.5	-61.8	1.4
2026-01-17 15:55:27.831766	9.2	9.5	-63.3	4.8
2026-01-17 15:55:28.951523	9.1	9.4	-62.3	4.7
2026-01-17 15:55:30.072280	8.9	9.4	-62.4	4.5
2026-01-17 15:55:31.192542	8.7	9.3	-62.9	4.1
2026-01-17 15:55:32.310794	8.6	9.3	-62.5	3.1
2026-01-17 15:55:33.428047	8.4	9.2	-62.1	2.5
2026-01-17 15:55:34.547317	8.3	9.2	-61.0	1.4
2026-01-17 15:55:35.666570	8.1	9.1	-61.7	1.0
2026-01-17 15:55:36.785832	7.9	9.0	-61.8	2.7
2026-01-17 15:55:37.906085	7.8	9.0	-61.3	0.4
2026-01-17 15:55:39.024337	7.6	8.9	-63.1	2.9
2026-01-17 15:55:40.142590	7.5	8.9	-63.2	0.0
2026-01-17 15:55:41.260355	7.3	8.8	-62.9	0.5
2026-01-17 15:55:42.379112	7.2	8.8	-64.0	0.0
2026-01-17 15:55:43.497365	7.0	8.7	-64.1	0.0
2026-01-17 15:55:44.617618	6.8	8.7	-63.2	0.0
2026-01-17 15:55:45.735374	6.7	8.6	-62.7	0.0
2026-01-17 15:55:46.852139	6.5	8.6	-62.2	0.0
2026-01-17 15:55:47.968904	6.4	8.5	-62.6	0.0
2026-01-17 15:55:49.087661	6.2	8.5	-62.7	0.0
2026-01-17 15:55:50.203919	6.1	8.4	-64.0	0.0
2026-01-17 15:55:51.320165	5.9	8.3	-63.0	0.0
2026-01-17 15:55:52.438426	5.8	8.3	-64.2	0.0
2026-01-17 15:55:53.554686	5.6	8.2	-64.0	0.0
2026-01-17 15:55:54.670444	5.5	8.2	-62.5	0.0
2026-01-17 15:55:55.786200	5.3	8.1	-63.7	0.0
2026-01-17 15:55:56.901957	5.2	8.1	-61.8	0.0
2026-01-17 15:55:58.019209	5.0	8.0	-63.6	0.0
2026-01-17 15:55:59.141967	4.9	8.0	-62.6	0.0
2026-01-17 15:56:00.259227	4.7	7.9	-62.4	0.0
2026-01-17 15:56:01.373983	4.6	7.9	-62.6	0.0
2026-01-17 15:56:02.491244	4.4	7.8	-62.1	0.0
2026-01-17 15:56:03.608496	4.3	7.7	-63.4	0.0
2026-01-17 15:56:04.724758	4.1	7.7	-63.6	0.0
2026-01-17 15:56:05.841010	4.0	7.6	-63.9	0.0
2026-01-17 15:56:06.957262	3.9	7.6	-61.0	0.0
2026-01-17 15:56:08.074514	3.7	7.5	-62.5	0.0
2026-01-17 15:56:09.189766	3.6	7.5	-63.8	0.0
2026-01-17 15:56:10.305018	3.4	7.4	-62.3	0.0
2026-01-17 15:56:11.420278	3.3	7.4	-63.2	0.0
2026-01-17 15:56:12.537035	3.1	7.3	-62.4	0.0
2026-01-17 15:56:13.652287	3.0	7.3	-63.5	0.0
2026-01-17 15:56:14.767539	2.9	7.2	-63.9	0.0
2026-01-17 15:56:15.882791	2.7	7.1	-63.8	0.0
2026-01-17 15:56:17.000547	2.6	7.1	-62.5	0.0
2026-01-17 15:56:18.117799	2.4	7.0	-63.5	0.0
2026-01-17 15:56:19.233564	2.3	7.0	-64.6	0.0
2026-01-17 15:56:20.352330	2.2	6.9	-62.7	0.0
2026-01-17 15:56:21.467086	2.0	6.9	-63.0	0.0
2026-01-17 15:56:22.586338	1.9	6.8	-62.0	0.0
2026-01-17 15:56:23.702095	1.8	6.8	-63.9	0.0
2026-01-17 15:56:24.821347	1.6	6.7	-63.3	0.0
2026-01-17 15:56:25.938104	1.5	6.6	-63.8	0.0
2026-01-17 15:56:27.057365	1.4	6.6	-62.7	0.0
2026-01-17 15:56:28.175618	1.2	6.5	-62.8	0.0
2026-01-17 15:56:29.293374	1.1	6.5	-63.1	0.0
2026-01-17 15:56:30.411627	1.0	6.4	-60.7	0.0
2026-01-17 15:56:31.531880	0.8	6.4	-63.8	1.3
2026-01-17 15:56:32.651637	0.7	6.3	-61.1	0.0
2026-01-17 15:56:33.773395	0.6	6.2	-62.3	1.5
2026-01-17 15:56:34.895648	0.4	6.2	-62.6	0.0
2026-01-17 15:56:36.017405	0.3	6.1	-63.1	3.0
2026-01-17 15:56:37.139659	0.2	6.1	-62.0	0.6
2026-01-17 15:56:38.260930	0.0	6.0	-64.1	0.0
2026-01-17 15:56:39.386193	359.9	6.0	-67.2	0.0
2026-01-17 15:56:40.508446	359.8	5.9	-68.0	0.0
2026-01-17 15:56:41.630699	359.7	5.9	-68.9	0.0
2026-01-17 15:56:42.751961	359.5	5.8	-69.2	0.0
2026-01-17 15:56:43.874718	359.4	5.7	-69.8	0.0
2026-01-17 15:56:44.996972	359.3	5.7	-70.4	0.0
2026-01-17 15:56:46.117225	359.1	5.6	-67.8	0.0
2026-01-17 15:56:47.239983	359.0	5.6	-70.2	0.0
2026-01-17 15:56:48.361741	358.9	5.5	-69.3	0.0
2026-01-17 15:56:49.483003	358.8	5.5	-70.7	0.0
2026-01-17 15:56:50.604760	358.6	5.4	-70.9	0.0
2026-01-17 15:56:51.727013	358.5	5.3	-71.1	0.0
2026-01-17 15:56:52.847779	358.4	5.3	-70.1	0.0
2026-01-17 15:56:53.968546	358.3	5.2	-70.8	0.0
2026-01-17 15:56:55.090316	358.2	5.2	-71.2	0.0
2026-01-17 15:56:56.211579	358.0	5.1	-71.3	0.0
2026-01-17 15:56:57.333832	357.9	5.1	-69.6	0.0
2026-01-17 15:56:58.455589	357.8	5.0	-70.0	0.0
#Closed at: 2026-01-17 15:47:50.948480