passes_logs/2026/01/17/PlanumMoscow/PlanumMoscow__20260117_080108_METEOR-M2_3_rec.log

#Pass ID: 20260117_080108_METEOR-M2 3
#Satellite: METEOR-M2 3
#Configuration: METEOR-M2 3
#Start time: 2026-01-17 08:01:13.236878

#LorettStation: 1.0.0 05.05.2024
#Station: PlanumMoscow
#Location: 37.6253844 lon 55.6713361 lat
#TLE: 1 57166U 23091A   25293.99389264  .00000062  00000+0  46113-4 0  9997
#TLE: 2 57166  98.6457 348.4330 0004759 135.3141 224.8422 14.24016546120475

#Time	Az	El	Level	SNR
2026-01-17 08:04:51.684515	359.5	28.1	-61.5	8.6
2026-01-17 08:04:53.932565	359.2	28.4	-61.9	9.1
2026-01-17 08:04:56.176080	358.9	28.8	-62.7	7.6
2026-01-17 08:04:58.420625	358.6	29.2	-62.5	7.9
2026-01-17 08:05:00.664645	358.2	29.6	-63.1	9.7
2026-01-17 08:05:02.908686	357.9	29.9	-60.8	6.4
2026-01-17 08:05:05.153706	357.6	30.3	-61.7	8.6
2026-01-17 08:05:07.397718	357.2	30.7	-62.0	7.5
2026-01-17 08:05:09.643263	356.9	31.1	-63.6	12.2
2026-01-17 08:05:11.887283	356.5	31.5	-61.1	8.4
2026-01-17 08:05:14.131829	356.1	31.9	-62.4	11.3
2026-01-17 08:05:16.376344	355.7	32.4	-63.6	11.4
2026-01-17 08:05:18.625407	355.3	32.8	-62.7	9.0
2026-01-17 08:05:20.869922	354.9	33.2	-62.8	10.6
2026-01-17 08:05:23.114469	354.5	33.6	-63.2	11.1
2026-01-17 08:05:25.360984	354.1	34.0	-63.9	11.2
2026-01-17 08:05:27.605491	353.6	34.5	-63.9	12.0
2026-01-17 08:05:29.849543	353.2	34.9	-63.3	11.0
2026-01-17 08:05:32.093585	352.7	35.4	-64.2	11.1
2026-01-17 08:05:34.337596	352.2	35.8	-63.4	9.5
2026-01-17 08:05:36.582111	351.7	36.3	-64.2	10.2
2026-01-17 08:05:38.826657	351.2	36.7	-63.6	11.0
2026-01-17 08:05:41.070211	350.7	37.2	-64.4	11.9
2026-01-17 08:05:43.313231	350.2	37.6	-64.3	11.1
2026-01-17 08:05:45.557746	349.6	38.1	-64.9	11.7
2026-01-17 08:05:47.802253	349.0	38.6	-64.7	10.0
2026-01-17 08:05:50.046304	348.5	39.0	-64.8	9.7
2026-01-17 08:05:52.294324	347.9	39.5	-65.2	10.0
2026-01-17 08:05:54.540864	347.2	40.0	-65.0	10.2
2026-01-17 08:05:56.785883	346.6	40.5	-65.7	11.7
2026-01-17 08:05:59.033430	345.9	40.9	-64.7	12.0
2026-01-17 08:06:01.277945	345.2	41.4	-64.9	11.5
2026-01-17 08:06:03.521490	344.5	41.9	-65.4	13.1
2026-01-17 08:06:05.765996	343.8	42.4	-65.7	12.5
2026-01-17 08:06:08.010016	343.1	42.9	-65.3	12.6
2026-01-17 08:06:10.254562	342.3	43.4	-65.5	13.3
2026-01-17 08:06:12.500581	341.5	43.9	-65.5	13.7
2026-01-17 08:06:14.753625	340.7	44.4	-64.9	12.3
2026-01-17 08:06:17.007134	339.8	44.8	-65.8	14.4
2026-01-17 08:06:19.251197	339.0	45.3	-65.8	13.3
2026-01-17 08:06:21.495218	338.1	45.8	-66.1	14.0
2026-01-17 08:06:23.739230	337.1	46.3	-66.0	13.3
2026-01-17 08:06:25.983775	336.2	46.8	-66.6	14.2
2026-01-17 08:06:28.228282	335.2	47.3	-66.4	13.3
2026-01-17 08:06:30.472341	334.2	47.7	-66.3	13.9
2026-01-17 08:06:32.716856	333.1	48.2	-66.3	13.3
2026-01-17 08:06:34.960905	332.1	48.7	-66.8	14.0
2026-01-17 08:06:37.204948	330.9	49.1	-66.5	13.4
2026-01-17 08:06:39.448502	329.8	49.6	-66.5	13.7
2026-01-17 08:06:41.693017	328.6	50.0	-66.1	12.8
2026-01-17 08:06:43.937028	327.4	50.4	-66.5	12.2
2026-01-17 08:06:46.181574	326.1	50.9	-66.6	12.7
2026-01-17 08:06:48.429089	324.9	51.3	-66.5	12.7
2026-01-17 08:06:50.673644	323.5	51.7	-66.7	12.3
2026-01-17 08:06:52.918173	322.2	52.0	-66.8	12.7
2026-01-17 08:06:55.162688	320.8	52.4	-67.3	12.8
2026-01-17 08:06:57.407236	319.4	52.8	-66.6	12.3
2026-01-17 08:06:59.651279	317.9	53.1	-67.1	13.2
2026-01-17 08:07:01.895833	316.4	53.4	-66.7	12.5
2026-01-17 08:07:04.140373	314.9	53.7	-66.9	12.6
2026-01-17 08:07:06.384880	313.3	54.0	-66.5	11.8
2026-01-17 08:07:08.629425	311.7	54.3	-66.2	12.1
2026-01-17 08:07:10.873940	310.1	54.5	-66.2	12.2
2026-01-17 08:07:13.117488	308.5	54.7	-66.3	11.6
2026-01-17 08:07:15.362003	306.8	54.9	-66.3	11.3
2026-01-17 08:07:17.606062	305.1	55.1	-66.5	12.2
2026-01-17 08:07:19.849120	303.4	55.3	-66.8	12.1
2026-01-17 08:07:22.095627	301.7	55.4	-67.0	12.7
2026-01-17 08:07:24.339647	299.9	55.5	-65.9	11.6
2026-01-17 08:07:26.584162	298.2	55.5	-66.8	11.5
2026-01-17 08:07:28.828212	296.4	55.6	-66.7	10.7
2026-01-17 08:07:31.074727	294.6	55.6	-66.2	10.5
2026-01-17 08:07:33.319274	292.9	55.6	-66.5	10.0
2026-01-17 08:07:35.563285	291.1	55.6	-66.5	9.9
2026-01-17 08:07:37.811297	289.4	55.5	-66.9	11.1
2026-01-17 08:07:40.056339	287.6	55.4	-66.7	10.7
2026-01-17 08:07:42.301381	285.9	55.3	-67.1	11.9
2026-01-17 08:07:44.545392	284.2	55.2	-66.7	11.4
2026-01-17 08:07:46.789412	282.5	55.0	-66.5	12.4
2026-01-17 08:07:49.032949	280.8	54.8	-66.3	11.0
2026-01-17 08:07:51.277456	279.1	54.6	-66.6	10.1
2026-01-17 08:07:53.521476	277.5	54.4	-66.6	10.1
2026-01-17 08:07:55.766528	275.9	54.1	-66.9	10.0
2026-01-17 08:07:58.017549	274.3	53.8	-66.7	9.9
2026-01-17 08:08:00.260600	272.8	53.5	-65.5	8.4
2026-01-17 08:08:02.510115	271.3	53.2	-65.5	9.2
2026-01-17 08:08:04.754149	269.8	52.9	-65.4	9.2
2026-01-17 08:08:06.999655	268.3	52.5	-64.8	8.5
2026-01-17 08:08:09.244203	266.9	52.2	-65.2	8.5
2026-01-17 08:08:11.492761	265.6	51.8	-65.0	9.1
2026-01-17 08:08:13.736780	264.2	51.4	-65.0	9.5
2026-01-17 08:08:15.981287	262.9	51.0	-65.8	9.2
2026-01-17 08:08:18.224842	261.7	50.6	-65.1	7.8
2026-01-17 08:08:20.469357	260.4	50.1	-64.9	7.5
2026-01-17 08:08:22.713903	259.2	49.7	-64.9	8.7
2026-01-17 08:08:24.958418	258.1	49.2	-64.6	8.3
2026-01-17 08:08:27.203925	257.0	48.8	-63.7	7.7
2026-01-17 08:08:29.448471	255.9	48.3	-64.7	8.9
2026-01-17 08:08:31.692978	254.8	47.8	-63.8	8.2
2026-01-17 08:08:33.936534	253.8	47.4	-63.4	8.5
2026-01-17 08:08:36.184555	252.8	46.9	-63.8	8.8
2026-01-17 08:08:38.429062	251.8	46.4	-62.9	6.6
2026-01-17 08:08:40.673104	250.9	45.9	-63.9	9.0
2026-01-17 08:08:42.917629	249.9	45.4	-62.9	7.2
2026-01-17 08:08:45.161174	249.1	45.0	-63.3	8.3
2026-01-17 08:08:47.405689	248.2	44.5	-63.5	7.8
2026-01-17 08:08:49.650196	247.4	44.0	-62.9	7.4
2026-01-17 08:08:51.894246	246.6	43.5	-64.2	10.0
2026-01-17 08:08:54.139800	245.8	43.0	-63.2	6.4
2026-01-17 08:08:56.401311	245.0	42.5	-62.3	6.6
2026-01-17 08:08:58.645360	244.3	42.0	-62.7	6.5
2026-01-17 08:09:00.889379	243.6	41.5	-62.9	7.0
2026-01-17 08:09:03.133421	242.9	41.0	-62.7	7.6
2026-01-17 08:09:05.375992	242.2	40.5	-62.9	7.2
2026-01-17 08:09:07.623061	241.6	40.1	-62.9	7.4
2026-01-17 08:09:09.867129	241.0	39.6	-62.9	6.6
2026-01-17 08:09:12.109685	240.3	39.1	-63.1	8.5
2026-01-17 08:09:14.353209	239.7	38.6	-61.8	6.3
2026-01-17 08:09:16.597249	239.2	38.2	-62.9	6.7
2026-01-17 08:09:18.840794	238.6	37.7	-63.5	7.1
2026-01-17 08:09:21.084845	238.1	37.2	-63.3	7.0
2026-01-17 08:09:23.327939	237.5	36.8	-61.9	6.6
2026-01-17 08:09:25.571454	237.0	36.3	-61.8	6.2
2026-01-17 08:09:27.815526	236.5	35.9	-61.5	5.7
2026-01-17 08:09:30.059050	236.0	35.4	-62.2	6.0
2026-01-17 08:09:32.302069	235.6	35.0	-62.0	7.7
2026-01-17 08:09:34.545616	235.1	34.5	-61.4	6.2
2026-01-17 08:09:36.789147	234.7	34.1	-61.3	4.3
2026-01-17 08:09:39.032704	234.2	33.7	-61.9	6.2
2026-01-17 08:09:41.275235	233.8	33.2	-60.6	6.1
2026-01-17 08:09:43.518781	233.4	32.8	-60.7	7.1
2026-01-17 08:09:45.761304	233.0	32.4	-62.1	7.4
2026-01-17 08:09:48.005323	232.6	32.0	-62.0	6.8
2026-01-17 08:09:50.253397	232.2	31.6	-62.1	6.7
2026-01-17 08:09:52.497407	231.8	31.1	-61.7	5.1
2026-01-17 08:09:54.741923	231.5	30.7	-60.7	5.7
2026-01-17 08:09:56.985439	231.1	30.3	-59.9	4.3
2026-01-17 08:09:59.228955	230.8	30.0	-60.7	5.3
2026-01-17 08:10:01.470966	230.4	29.6	-62.3	6.6
2026-01-17 08:10:03.720988	230.1	29.2	-61.3	5.7
2026-01-17 08:10:05.963999	229.8	28.8	-61.0	5.9
2026-01-17 08:10:08.205018	229.5	28.4	-61.3	5.8
2026-01-17 08:10:10.445532	229.2	28.0	-61.9	7.6
2026-01-17 08:10:12.688048	228.9	27.7	-62.3	5.6
2026-01-17 08:10:14.930572	228.6	27.3	-62.0	7.1
2026-01-17 08:10:17.169100	228.3	26.9	-59.6	5.8
2026-01-17 08:10:19.412121	228.0	26.6	-60.7	6.7
2026-01-17 08:10:21.656636	227.7	26.2	-61.3	7.0
2026-01-17 08:10:23.900152	227.5	25.9	-61.2	6.6
2026-01-17 08:10:26.151184	227.2	25.5	-61.4	5.9
2026-01-17 08:10:28.412199	227.0	25.2	-61.1	6.9
2026-01-17 08:10:30.665226	226.7	24.9	-61.2	7.0
2026-01-17 08:10:32.909750	226.5	24.5	-61.5	6.6
2026-01-17 08:10:35.168774	226.2	24.2	-61.6	6.4
2026-01-17 08:10:37.415798	226.0	23.9	-61.1	6.4
2026-01-17 08:10:39.672324	225.8	23.5	-60.8	5.6
2026-01-17 08:10:41.913838	225.5	23.2	-60.7	5.9
2026-01-17 08:10:44.155848	225.3	22.9	-59.5	5.3
2026-01-17 08:10:46.394371	225.1	22.6	-62.5	7.3
2026-01-17 08:10:48.634381	224.9	22.3	-62.3	7.5
2026-01-17 08:10:50.875904	224.7	22.0	-62.5	8.0
2026-01-17 08:10:53.114926	224.5	21.7	-61.5	6.3
2026-01-17 08:10:55.357462	224.3	21.4	-62.6	7.5
2026-01-17 08:10:57.597977	224.1	21.1	-61.4	6.8
2026-01-17 08:10:59.837483	223.9	20.8	-62.5	8.8
2026-01-17 08:11:02.080990	223.7	20.5	-61.2	5.7
2026-01-17 08:11:04.327507	223.5	20.2	-61.6	6.5
2026-01-17 08:11:06.577042	223.4	19.9	-61.3	6.4
2026-01-17 08:11:08.820558	223.2	19.6	-61.7	7.0
2026-01-17 08:11:11.066065	223.0	19.4	-62.7	7.3
2026-01-17 08:11:13.310581	222.8	19.1	-63.5	8.3
2026-01-17 08:11:15.556097	222.7	18.8	-63.5	8.6
2026-01-17 08:11:17.801109	222.5	18.5	-63.9	8.8
2026-01-17 08:11:20.046626	222.3	18.3	-63.4	8.4
2026-01-17 08:11:22.292133	222.2	18.0	-63.6	9.4
2026-01-17 08:11:24.534659	222.0	17.8	-63.0	7.4
2026-01-17 08:11:26.777183	221.9	17.5	-63.3	9.2
2026-01-17 08:11:29.022203	221.7	17.2	-62.8	6.7
2026-01-17 08:11:31.266222	221.6	17.0	-62.1	7.8
2026-01-17 08:11:33.509242	221.4	16.7	-63.7	9.7
2026-01-17 08:11:35.754254	221.3	16.5	-63.2	8.5
2026-01-17 08:11:37.996300	221.2	16.2	-63.7	8.8
2026-01-17 08:11:40.240312	221.0	16.0	-64.1	9.2
2026-01-17 08:11:42.484323	220.9	15.7	-64.6	8.5
2026-01-17 08:11:44.727838	220.8	15.5	-65.0	7.1
2026-01-17 08:11:46.969372	220.6	15.3	-64.9	8.4
2026-01-17 08:11:49.211401	220.5	15.0	-65.1	9.2
2026-01-17 08:11:51.453924	220.4	14.8	-65.2	6.1
2026-01-17 08:11:53.696935	220.3	14.6	-65.8	10.8
2026-01-17 08:11:55.940946	220.1	14.3	-64.1	8.2
2026-01-17 08:11:58.184957	220.0	14.1	-65.3	9.9
2026-01-17 08:12:00.428969	219.9	13.9	-65.5	10.0
2026-01-17 08:12:02.669998	219.8	13.7	-66.2	10.4
2026-01-17 08:12:04.909520	219.7	13.4	-66.4	10.9
2026-01-17 08:12:07.153541	219.6	13.2	-65.8	10.1
2026-01-17 08:12:09.399058	219.4	13.0	-66.7	10.7
2026-01-17 08:12:11.643575	219.3	12.8	-66.4	11.2
2026-01-17 08:12:13.888082	219.2	12.6	-66.4	10.1
2026-01-17 08:12:16.129093	219.1	12.4	-66.6	9.7
2026-01-17 08:12:18.371104	219.0	12.1	-65.6	8.8
2026-01-17 08:12:20.610610	218.9	11.9	-66.4	10.0
2026-01-17 08:12:22.850621	218.8	11.7	-66.5	10.3
2026-01-17 08:12:25.087631	218.7	11.5	-65.8	9.9
2026-01-17 08:12:27.323640	218.6	11.3	-66.3	10.3
2026-01-17 08:12:29.563659	218.5	11.1	-65.9	9.4
2026-01-17 08:12:31.801677	218.4	10.9	-65.7	10.1
2026-01-17 08:12:34.042687	218.3	10.7	-65.9	10.3
2026-01-17 08:12:36.282209	218.2	10.5	-66.0	9.1
2026-01-17 08:12:38.521725	218.1	10.3	-66.0	8.1
2026-01-17 08:12:40.765240	218.1	10.1	-65.4	8.8
2026-01-17 08:12:43.008260	218.0	9.9	-65.2	8.8
2026-01-17 08:12:45.251776	217.9	9.8	-65.9	6.8
2026-01-17 08:12:47.494291	217.8	9.6	-66.2	9.1
2026-01-17 08:12:49.733797	217.7	9.4	-66.9	8.7
2026-01-17 08:12:51.974313	217.6	9.2	-66.5	9.2
2026-01-17 08:12:54.211818	217.5	9.0	-66.6	10.0
2026-01-17 08:12:56.449846	217.5	8.8	-66.8	10.0
2026-01-17 08:12:58.687368	217.4	8.6	-65.9	8.5
2026-01-17 08:13:00.927883	217.3	8.5	-66.7	9.3
2026-01-17 08:13:03.164892	217.2	8.3	-66.1	9.5
2026-01-17 08:13:05.402406	217.1	8.1	-66.8	9.2
2026-01-17 08:13:07.639415	217.1	7.9	-66.5	10.1
2026-01-17 08:13:09.879931	217.0	7.7	-66.7	9.5
2026-01-17 08:13:12.113947	216.9	7.6	-67.4	9.6
2026-01-17 08:13:14.355472	216.8	7.4	-67.5	9.6
2026-01-17 08:13:16.595491	216.8	7.2	-67.1	10.8
2026-01-17 08:13:18.833013	216.7	7.0	-67.3	9.8
2026-01-17 08:13:21.070537	216.6	6.9	-67.3	8.6
2026-01-17 08:13:23.313052	216.6	6.7	-67.2	9.1
2026-01-17 08:13:25.554110	216.5	6.5	-67.3	8.8
2026-01-17 08:13:27.794670	216.4	6.4	-67.2	9.3
2026-01-17 08:13:30.039187	216.4	6.2	-66.6	8.7
2026-01-17 08:13:32.282215	216.3	6.0	-67.0	9.3
2026-01-17 08:13:34.523281	216.2	5.9	-66.8	0.0
2026-01-17 08:13:36.767302	216.2	5.7	-67.3	0.0
2026-01-17 08:13:39.011809	216.1	5.5	-66.6	0.0
2026-01-17 08:13:41.255820	216.0	5.4	-68.7	0.0
2026-01-17 08:13:43.499831	216.0	5.2	-70.9	0.0
2026-01-17 08:13:45.740850	215.9	5.1	-71.2	0.0
#Closed at: 2026-01-17 08:01:08.238756