passes_logs/2026/01/17/PlanumMoscow/PlanumMoscow__20260117_005317_METEOR-M2_4_rec.log

#Pass ID: 20260117_005317_METEOR-M2 4
#Satellite: METEOR-M2 4
#Configuration: METEOR-M2 4
#Start time: 2026-01-17 00:53:22.396845

#LorettStation: 1.0.0 05.05.2024
#Station: PlanumMoscow
#Location: 37.6253844 lon 55.6713361 lat
#TLE: 1 59051U 24039A   25293.94737965  .00000087  00000+0  58459-4 0  9998
#TLE: 2 59051  98.6671 251.7071 0007726 135.4772 224.7028 14.22388966 85257

#Time	Az	El	Level	SNR
2026-01-17 00:57:00.902314	21.6	29.2	-62.5	8.5
2026-01-17 00:57:03.147861	21.7	29.6	-63.1	9.2
2026-01-17 00:57:05.395378	21.8	30.0	-62.0	7.8
2026-01-17 00:57:07.636388	21.9	30.5	-62.5	8.9
2026-01-17 00:57:09.877894	22.0	30.9	-61.4	6.7
2026-01-17 00:57:12.117905	22.1	31.3	-61.9	6.6
2026-01-17 00:57:14.357411	22.2	31.8	-60.6	7.0
2026-01-17 00:57:16.596916	22.3	32.2	-62.5	9.1
2026-01-17 00:57:18.839423	22.4	32.7	-62.1	9.3
2026-01-17 00:57:21.081433	22.6	33.2	-62.5	8.6
2026-01-17 00:57:23.319443	22.7	33.6	-62.3	8.8
2026-01-17 00:57:25.559948	22.8	34.1	-61.7	8.3
2026-01-17 00:57:27.795453	22.9	34.6	-61.7	8.4
2026-01-17 00:57:30.033463	23.0	35.1	-61.6	7.8
2026-01-17 00:57:32.264471	23.2	35.6	-60.0	6.1
2026-01-17 00:57:34.500976	23.3	36.1	-61.5	7.3
2026-01-17 00:57:36.736985	23.5	36.7	-61.7	7.0
2026-01-17 00:57:38.974491	23.6	37.2	-60.5	7.8
2026-01-17 00:57:41.210996	23.7	37.7	-60.0	4.7
2026-01-17 00:57:43.450502	23.9	38.3	-58.1	3.7
2026-01-17 00:57:45.691512	24.1	38.8	-58.5	4.3
2026-01-17 00:57:47.932018	24.2	39.4	-58.4	4.9
2026-01-17 00:57:50.172028	24.4	40.0	-59.1	5.0
2026-01-17 00:57:52.411533	24.6	40.6	-61.2	7.3
2026-01-17 00:57:54.654544	24.7	41.2	-62.3	6.7
2026-01-17 00:57:56.896050	24.9	41.8	-59.5	5.0
2026-01-17 00:57:59.141061	25.1	42.4	-58.6	2.9
2026-01-17 00:58:01.381071	25.3	43.0	-60.8	6.2
2026-01-17 00:58:03.620577	25.5	43.7	-60.8	5.8
2026-01-17 00:58:05.860082	25.7	44.3	-60.4	5.2
2026-01-17 00:58:08.099101	26.0	45.0	-59.8	4.0
2026-01-17 00:58:10.340120	26.2	45.6	-60.4	2.0
2026-01-17 00:58:12.580130	26.5	46.3	-60.3	3.3
2026-01-17 00:58:14.821636	26.7	47.0	-61.2	4.5
2026-01-17 00:58:17.056151	27.0	47.7	-59.5	3.2
2026-01-17 00:58:19.288159	27.3	48.4	-58.5	0.0
2026-01-17 00:58:21.522176	27.5	49.1	-58.5	0.5
2026-01-17 00:58:23.756690	27.9	49.9	-59.4	2.8
2026-01-17 00:58:25.993710	28.2	50.6	-58.3	0.0
2026-01-17 00:58:28.226720	28.5	51.4	-58.2	0.0
2026-01-17 00:58:30.461225	28.9	52.1	-59.9	0.0
2026-01-17 00:58:32.695233	29.2	52.9	-58.9	0.0
2026-01-17 00:58:34.936252	29.6	53.7	-58.0	1.9
2026-01-17 00:58:37.176271	30.0	54.5	-59.6	0.0
2026-01-17 00:58:39.415786	30.5	55.3	-62.1	4.1
2026-01-17 00:58:41.658300	30.9	56.1	-61.2	0.8
2026-01-17 00:58:43.897318	31.4	57.0	-60.3	0.0
2026-01-17 00:58:46.137832	31.9	57.8	-61.4	0.0
2026-01-17 00:58:48.375345	32.5	58.7	-61.6	0.0
2026-01-17 00:58:50.612851	33.1	59.5	-61.8	0.0
2026-01-17 00:58:52.853374	33.7	60.4	-62.2	0.0
2026-01-17 00:58:55.095906	34.4	61.3	-62.9	4.5
2026-01-17 00:58:57.332916	35.1	62.2	-63.7	4.7
2026-01-17 00:58:59.572926	35.9	63.1	-63.2	1.7
2026-01-17 00:59:01.814937	36.8	64.0	-62.8	3.5
2026-01-17 00:59:04.053946	37.7	64.9	-63.2	3.0
2026-01-17 00:59:06.288955	38.6	65.8	-63.9	6.8
2026-01-17 00:59:08.522964	39.7	66.7	-64.7	7.7
2026-01-17 00:59:10.759469	40.9	67.7	-64.9	8.0
2026-01-17 00:59:13.000995	42.2	68.6	-64.6	7.9
2026-01-17 00:59:15.240501	43.6	69.5	-64.8	9.1
2026-01-17 00:59:17.477510	45.1	70.4	-64.9	8.3
2026-01-17 00:59:19.715033	46.8	71.4	-65.4	7.5
2026-01-17 00:59:21.950555	48.7	72.3	-63.8	5.9
2026-01-17 00:59:24.185565	50.8	73.2	-65.2	7.3
2026-01-17 00:59:26.418582	53.2	74.0	-65.2	8.2
2026-01-17 00:59:28.653591	55.8	74.9	-65.3	7.5
2026-01-17 00:59:30.890601	58.7	75.7	-65.9	8.6
2026-01-17 00:59:33.123609	62.0	76.5	-65.7	8.9
2026-01-17 00:59:35.355618	65.7	77.2	-65.8	9.6
2026-01-17 00:59:37.591131	69.9	77.9	-66.0	9.5
2026-01-17 00:59:39.827157	74.6	78.5	-65.8	9.8
2026-01-17 00:59:42.068177	79.8	79.1	-66.0	10.6
2026-01-17 00:59:44.301193	85.4	79.5	-65.9	10.9
2026-01-17 00:59:46.531697	91.5	79.9	-66.4	11.1
2026-01-17 00:59:48.763713	98.0	80.1	-66.3	10.4
2026-01-17 00:59:50.993721	104.7	80.2	-66.8	12.6
2026-01-17 00:59:53.229739	111.4	80.1	-66.9	12.8
2026-01-17 00:59:55.465260	118.0	80.0	-67.1	13.2
2026-01-17 00:59:57.699277	124.2	79.7	-67.0	13.5
2026-01-17 00:59:59.934790	130.1	79.3	-66.6	13.3
2026-01-17 01:00:02.170800	135.4	78.7	-67.2	13.5
2026-01-17 01:00:04.415324	140.3	78.1	-67.1	13.2
2026-01-17 01:00:06.658847	144.6	77.5	-67.3	13.7
2026-01-17 01:00:08.901400	148.5	76.7	-67.2	13.6
2026-01-17 01:00:11.148926	152.0	76.0	-67.4	13.4
2026-01-17 01:00:13.392473	155.1	75.2	-67.6	14.3
2026-01-17 01:00:15.635997	157.8	74.3	-67.6	14.1
2026-01-17 01:00:17.880544	160.3	73.4	-67.9	13.4
2026-01-17 01:00:20.123572	162.5	72.5	-68.2	13.1
2026-01-17 01:00:22.367088	164.4	71.6	-68.2	13.4
2026-01-17 01:00:24.609643	166.2	70.7	-68.3	12.4
2026-01-17 01:00:26.852663	167.8	69.8	-68.4	11.9
2026-01-17 01:00:29.096228	169.2	68.9	-68.6	13.0
2026-01-17 01:00:31.340247	170.6	67.9	-68.8	12.6
2026-01-17 01:00:33.584793	171.8	67.0	-68.6	13.0
2026-01-17 01:00:35.828326	172.9	66.1	-68.4	12.3
2026-01-17 01:00:38.072833	173.9	65.2	-68.8	12.4
2026-01-17 01:00:40.317377	174.8	64.2	-68.8	11.5
2026-01-17 01:00:42.560939	175.7	63.3	-69.1	11.2
2026-01-17 01:00:44.804454	176.5	62.4	-68.8	11.2
2026-01-17 01:00:47.048011	177.2	61.5	-68.7	11.5
2026-01-17 01:00:49.290534	177.9	60.6	-68.5	10.2
2026-01-17 01:00:51.537563	178.6	59.7	-68.4	11.3
2026-01-17 01:00:53.781117	179.2	58.9	-68.5	11.0
2026-01-17 01:00:56.026137	179.7	58.0	-68.4	11.3
2026-01-17 01:00:58.270643	180.3	57.1	-68.2	11.5
2026-01-17 01:01:00.514190	180.8	56.3	-68.2	11.1
2026-01-17 01:01:02.757714	181.2	55.5	-68.5	10.3
2026-01-17 01:01:05.001259	181.7	54.6	-68.5	11.2
2026-01-17 01:01:07.249280	182.1	53.8	-68.3	11.2
2026-01-17 01:01:09.493328	182.5	53.0	-68.2	10.8
2026-01-17 01:01:11.737347	182.9	52.2	-68.3	12.4
2026-01-17 01:01:13.981405	183.2	51.5	-68.0	11.3
2026-01-17 01:01:16.227941	183.6	50.7	-67.8	11.4
2026-01-17 01:01:18.470961	183.9	49.9	-68.1	12.3
2026-01-17 01:01:20.715024	184.2	49.2	-68.1	12.4
2026-01-17 01:01:22.958051	184.5	48.5	-68.1	11.7
2026-01-17 01:01:25.202100	184.8	47.8	-68.0	12.2
2026-01-17 01:01:27.446615	185.1	47.0	-67.9	11.6
2026-01-17 01:01:29.691666	185.3	46.4	-68.1	12.4
2026-01-17 01:01:31.935189	185.6	45.7	-67.7	12.3
2026-01-17 01:01:34.180209	185.8	45.0	-67.5	12.2
2026-01-17 01:01:36.423763	186.0	44.3	-67.8	12.3
2026-01-17 01:01:38.668277	186.3	43.7	-66.8	11.2
2026-01-17 01:01:40.911353	186.5	43.0	-66.9	11.2
2026-01-17 01:01:43.155372	186.7	42.4	-67.8	12.4
2026-01-17 01:01:45.399413	186.9	41.8	-67.5	13.3
2026-01-17 01:01:47.642440	187.0	41.2	-66.8	12.0
2026-01-17 01:01:49.885980	187.2	40.6	-67.2	13.8
2026-01-17 01:01:52.130517	187.4	40.0	-67.0	12.9
2026-01-17 01:01:54.374034	187.6	39.4	-66.6	13.2
2026-01-17 01:01:56.616565	187.7	38.8	-66.6	13.3
2026-01-17 01:01:58.860104	187.9	38.2	-66.9	12.9
2026-01-17 01:02:01.103652	188.0	37.7	-66.7	13.3
2026-01-17 01:02:03.346680	188.2	37.1	-67.0	13.6
2026-01-17 01:02:05.590722	188.3	36.6	-66.7	13.7
2026-01-17 01:02:07.834264	188.5	36.1	-66.7	14.1
2026-01-17 01:02:10.078771	188.6	35.5	-66.8	14.1
2026-01-17 01:02:12.322325	188.7	35.0	-66.8	13.7
2026-01-17 01:02:14.566367	188.9	34.5	-66.5	13.5
2026-01-17 01:02:16.809883	189.0	34.0	-66.2	12.7
2026-01-17 01:02:19.053398	189.1	33.5	-66.4	11.1
2026-01-17 01:02:21.299944	189.2	33.1	-67.1	13.8
2026-01-17 01:02:23.542973	189.3	32.6	-66.6	13.6
2026-01-17 01:02:25.785545	189.5	32.1	-66.7	13.3
2026-01-17 01:02:28.031085	189.6	31.7	-66.8	14.2
2026-01-17 01:02:30.277115	189.7	31.2	-66.6	14.3
2026-01-17 01:02:32.520167	189.8	30.8	-66.8	13.2
2026-01-17 01:02:34.764178	189.9	30.3	-66.8	14.1
2026-01-17 01:02:37.013231	190.0	29.9	-66.6	14.2
2026-01-17 01:02:39.257250	190.1	29.5	-66.8	14.0
2026-01-17 01:02:41.500811	190.2	29.0	-66.8	14.2
2026-01-17 01:02:43.745831	190.3	28.6	-66.5	13.8
2026-01-17 01:02:45.989346	190.3	28.2	-66.7	15.2
2026-01-17 01:02:48.232892	190.4	27.8	-66.4	13.3
2026-01-17 01:02:50.476416	190.5	27.4	-65.8	12.6
2026-01-17 01:02:52.719961	190.6	27.0	-66.3	14.5
2026-01-17 01:02:54.963494	190.7	26.6	-65.9	14.0
2026-01-17 01:02:57.206545	190.8	26.3	-66.0	13.9
2026-01-17 01:02:59.449574	190.8	25.9	-66.1	13.6
2026-01-17 01:03:01.693110	190.9	25.5	-66.0	14.0
2026-01-17 01:03:03.936673	191.0	25.2	-65.7	12.6
2026-01-17 01:03:06.179740	191.1	24.8	-65.8	12.5
2026-01-17 01:03:08.422310	191.1	24.4	-65.7	11.9
2026-01-17 01:03:10.667834	191.2	24.1	-65.7	12.8
2026-01-17 01:03:12.912397	191.3	23.8	-65.7	13.3
2026-01-17 01:03:15.156913	191.3	23.4	-64.1	12.2
2026-01-17 01:03:17.400429	191.4	23.1	-65.2	11.8
2026-01-17 01:03:19.643480	191.5	22.7	-65.5	13.4
2026-01-17 01:03:21.886997	191.5	22.4	-65.6	12.7
2026-01-17 01:03:24.130512	191.6	22.1	-65.2	12.6
2026-01-17 01:03:26.373036	191.6	21.8	-65.9	13.0
2026-01-17 01:03:28.616087	191.7	21.5	-64.9	11.7
2026-01-17 01:03:30.859618	191.8	21.1	-65.4	8.2
2026-01-17 01:03:33.106135	191.8	20.8	-64.7	12.2
2026-01-17 01:03:35.348695	191.9	20.5	-65.1	9.4
2026-01-17 01:03:37.592218	191.9	20.2	-65.4	12.2
2026-01-17 01:03:39.836259	192.0	19.9	-65.4	11.7
2026-01-17 01:03:42.081813	192.0	19.6	-65.5	10.5
2026-01-17 01:03:44.325872	192.1	19.4	-66.2	12.4
2026-01-17 01:03:46.569387	192.1	19.1	-65.9	12.5
2026-01-17 01:03:48.813406	192.2	18.8	-65.8	11.9
2026-01-17 01:03:51.059457	192.3	18.5	-65.4	10.7
2026-01-17 01:03:53.303018	192.3	18.2	-65.5	11.7
2026-01-17 01:03:55.549029	192.3	17.9	-65.1	11.8
2026-01-17 01:03:57.792554	192.4	17.7	-65.3	12.0
2026-01-17 01:04:00.035133	192.4	17.4	-65.5	11.9
2026-01-17 01:04:02.278160	192.5	17.1	-65.5	11.3
2026-01-17 01:04:04.519717	192.5	16.9	-65.6	11.2
2026-01-17 01:04:06.763745	192.6	16.6	-64.9	11.1
2026-01-17 01:04:09.006765	192.6	16.4	-65.3	11.6
2026-01-17 01:04:11.250327	192.7	16.1	-64.8	11.6
2026-01-17 01:04:13.492859	192.7	15.9	-65.7	11.9
2026-01-17 01:04:15.734918	192.8	15.6	-65.6	11.3
2026-01-17 01:04:17.978441	192.8	15.4	-65.7	10.8
2026-01-17 01:04:20.222487	192.8	15.1	-64.4	11.9
2026-01-17 01:04:22.465511	192.9	14.9	-65.6	11.8
2026-01-17 01:04:24.710568	192.9	14.6	-66.0	11.0
2026-01-17 01:04:26.954580	193.0	14.4	-65.7	10.3
2026-01-17 01:04:29.198134	193.0	14.2	-65.6	11.2
2026-01-17 01:04:31.441649	193.0	13.9	-65.8	10.8
2026-01-17 01:04:33.684678	193.1	13.7	-66.2	10.9
2026-01-17 01:04:35.928224	193.1	13.5	-65.0	8.9
2026-01-17 01:04:38.171757	193.2	13.3	-65.2	9.9
2026-01-17 01:04:40.414321	193.2	13.0	-64.7	8.2
2026-01-17 01:04:42.657352	193.2	12.8	-65.0	8.6
2026-01-17 01:04:44.901402	193.3	12.6	-64.3	7.3
2026-01-17 01:04:47.145918	193.3	12.4	-63.9	6.9
2026-01-17 01:04:49.389945	193.3	12.2	-63.6	4.6
2026-01-17 01:04:51.633505	193.4	11.9	-63.9	5.9
2026-01-17 01:04:53.876533	193.4	11.7	-64.6	8.9
2026-01-17 01:04:56.120079	193.4	11.5	-64.6	8.8
2026-01-17 01:04:58.365108	193.5	11.3	-65.3	8.8
2026-01-17 01:05:00.608654	193.5	11.1	-65.0	9.2
2026-01-17 01:05:02.850682	193.5	10.9	-65.5	8.2
2026-01-17 01:05:05.093239	193.6	10.7	-65.3	8.9
2026-01-17 01:05:07.337268	193.6	10.5	-65.4	10.1
2026-01-17 01:05:09.581320	193.6	10.3	-64.7	8.0
2026-01-17 01:05:11.825827	193.7	10.1	-64.0	8.5
2026-01-17 01:05:14.069351	193.7	9.9	-63.8	6.4
2026-01-17 01:05:16.314907	193.7	9.7	-65.0	8.2
2026-01-17 01:05:18.558423	193.8	9.5	-64.9	8.3
2026-01-17 01:05:20.801978	193.8	9.3	-63.8	8.3
2026-01-17 01:05:23.047989	193.8	9.1	-60.2	0.9
2026-01-17 01:05:25.291514	193.8	8.9	-65.6	7.4
2026-01-17 01:05:27.534564	193.9	8.8	-64.6	3.9
2026-01-17 01:05:29.778582	193.9	8.6	-65.1	7.1
2026-01-17 01:05:32.020634	193.9	8.4	-65.2	7.4
2026-01-17 01:05:34.264158	194.0	8.2	-65.1	7.8
2026-01-17 01:05:36.507673	194.0	8.0	-65.0	6.9
2026-01-17 01:05:38.751219	194.0	7.8	-65.7	7.1
2026-01-17 01:05:40.994742	194.0	7.7	-63.8	3.9
2026-01-17 01:05:43.238289	194.1	7.5	-65.1	6.8
2026-01-17 01:05:45.481324	194.1	7.3	-64.4	6.3
2026-01-17 01:05:47.723874	194.1	7.1	-65.0	6.3
2026-01-17 01:05:49.966406	194.2	6.9	-65.1	6.1
2026-01-17 01:05:52.207962	194.2	6.8	-64.6	4.6
2026-01-17 01:05:54.452487	194.2	6.6	-63.7	2.5
2026-01-17 01:05:56.697017	194.2	6.4	-65.4	5.8
2026-01-17 01:05:58.939571	194.3	6.3	-65.6	5.5
2026-01-17 01:06:01.183096	194.3	6.1	-64.6	7.4
2026-01-17 01:06:03.426153	194.3	5.9	-65.4	5.4
2026-01-17 01:06:05.670660	194.3	5.8	-69.4	0.0
2026-01-17 01:06:07.913224	194.4	5.6	-70.7	0.0
2026-01-17 01:06:10.154267	194.4	5.4	-71.0	0.0
2026-01-17 01:06:12.398287	194.4	5.3	-70.4	0.0
2026-01-17 01:06:14.641833	194.4	5.1	-70.0	0.0
#Closed at: 2026-01-17 00:53:17.398452