passes_logs/2026/01/17/PlanumMoscow/PlanumMoscow__20260117_065740_METOP-B_rec.log

#Pass ID: 20260117_065740_METOP-B
#Satellite: METOP-B
#Configuration: METOP-B
#Start time: 2026-01-17 06:57:45.620932

#LorettStation: 1.0.0 05.05.2024
#Station: PlanumMoscow
#Location: 37.6253844 lon 55.6713361 lat
#TLE: 1 38771U 12049A   25293.92766658  .00000266  00000+0  14193-3 0  9996
#TLE: 2 38771  98.6882 344.7603 0001609 341.5209  18.5909 14.21379342679275

#Time	Az	El	Level	SNR
2026-01-17 07:01:24.054527	26.3	28.9	-61.4	4.4
2026-01-17 07:01:26.299044	26.5	29.3	-62.7	5.9
2026-01-17 07:01:28.541566	26.7	29.7	-62.6	2.4
2026-01-17 07:01:30.785099	26.8	30.1	-63.4	4.8
2026-01-17 07:01:33.029111	27.0	30.5	-62.6	1.5
2026-01-17 07:01:35.273122	27.2	31.0	-62.8	5.5
2026-01-17 07:01:37.516634	27.4	31.4	-63.3	5.2
2026-01-17 07:01:39.760654	27.6	31.8	-62.0	3.5
2026-01-17 07:01:42.005161	27.8	32.3	-62.8	6.0
2026-01-17 07:01:44.250172	28.1	32.7	-62.5	3.9
2026-01-17 07:01:46.493193	28.3	33.2	-62.1	3.9
2026-01-17 07:01:48.739216	28.5	33.7	-61.2	1.0
2026-01-17 07:01:50.984731	28.7	34.1	-62.9	4.3
2026-01-17 07:01:53.228742	29.0	34.6	-61.5	1.0
2026-01-17 07:01:55.473250	29.2	35.1	-62.6	4.0
2026-01-17 07:01:57.716269	29.5	35.6	-62.9	5.8
2026-01-17 07:01:59.960280	29.8	36.1	-61.0	5.8
2026-01-17 07:02:02.204291	30.0	36.6	-61.3	6.3
2026-01-17 07:02:04.449310	30.3	37.1	-61.5	2.5
2026-01-17 07:02:06.699828	30.6	37.6	-61.9	5.5
2026-01-17 07:02:08.943848	30.9	38.2	-61.4	1.3
2026-01-17 07:02:11.188354	31.2	38.7	-59.7	2.9
2026-01-17 07:02:13.431373	31.5	39.3	-60.2	2.2
2026-01-17 07:02:15.674402	31.8	39.8	-61.0	2.6
2026-01-17 07:02:17.918422	32.2	40.4	-59.1	0.0
2026-01-17 07:02:20.162936	32.5	40.9	-61.2	0.0
2026-01-17 07:02:22.409956	32.9	41.5	-62.1	3.2
2026-01-17 07:02:24.653966	33.3	42.1	-57.1	0.0
2026-01-17 07:02:26.897481	33.7	42.7	-58.2	0.0
2026-01-17 07:02:29.140996	34.1	43.3	-59.8	0.0
2026-01-17 07:02:31.385511	34.5	43.9	-59.6	0.0
2026-01-17 07:02:33.628034	34.9	44.5	-60.2	0.5
2026-01-17 07:02:35.871053	35.4	45.2	-59.0	0.0
2026-01-17 07:02:38.116568	35.8	45.8	-58.9	0.0
2026-01-17 07:02:40.360580	36.3	46.4	-56.6	0.0
2026-01-17 07:02:42.604095	36.8	47.1	-58.3	0.0
2026-01-17 07:02:44.847116	37.4	47.7	-57.8	0.0
2026-01-17 07:02:47.091636	37.9	48.4	-57.5	0.0
2026-01-17 07:02:49.335647	38.5	49.1	-58.5	0.0
2026-01-17 07:02:51.579163	39.1	49.8	-58.6	0.0
2026-01-17 07:02:53.823192	39.7	50.5	-59.8	0.8
2026-01-17 07:02:56.067203	40.4	51.2	-60.7	0.0
2026-01-17 07:02:58.312215	41.1	51.9	-59.8	1.0
2026-01-17 07:03:00.555731	41.8	52.6	-61.4	2.7
2026-01-17 07:03:02.799246	42.6	53.3	-61.2	4.1
2026-01-17 07:03:05.044257	43.4	54.0	-61.3	0.0
2026-01-17 07:03:07.288269	44.2	54.7	-61.0	2.2
2026-01-17 07:03:09.531297	45.1	55.4	-61.6	4.4
2026-01-17 07:03:11.774327	46.0	56.2	-61.7	4.9
2026-01-17 07:03:14.016356	47.0	56.9	-62.3	3.3
2026-01-17 07:03:16.260384	48.0	57.6	-62.3	4.1
2026-01-17 07:03:18.504907	49.1	58.4	-62.3	3.5
2026-01-17 07:03:20.748424	50.3	59.1	-62.0	1.8
2026-01-17 07:03:22.992436	51.5	59.8	-62.1	1.5
2026-01-17 07:03:25.236448	52.8	60.6	-63.0	2.7
2026-01-17 07:03:27.478971	54.1	61.3	-63.7	4.1
2026-01-17 07:03:29.722505	55.6	62.0	-63.3	1.4
2026-01-17 07:03:31.965028	57.1	62.7	-64.3	6.3
2026-01-17 07:03:34.212545	58.7	63.4	-64.3	4.1
2026-01-17 07:03:36.456071	60.4	64.1	-64.4	3.0
2026-01-17 07:03:38.700578	62.3	64.8	-63.7	2.2
2026-01-17 07:03:40.944092	64.2	65.4	-63.8	1.3
2026-01-17 07:03:43.188103	66.2	66.0	-64.9	4.2
2026-01-17 07:03:45.431620	68.4	66.6	-64.3	5.5
2026-01-17 07:03:47.675135	70.7	67.2	-63.0	3.7
2026-01-17 07:03:49.919155	73.1	67.8	-64.6	7.6
2026-01-17 07:03:52.162175	75.6	68.3	-64.4	7.2
2026-01-17 07:03:54.406682	78.3	68.7	-64.9	5.0
2026-01-17 07:03:56.650198	81.0	69.2	-64.6	3.9
2026-01-17 07:03:58.893714	84.0	69.6	-65.3	6.9
2026-01-17 07:04:01.137726	87.0	69.9	-64.9	5.2
2026-01-17 07:04:03.381240	90.1	70.2	-64.3	1.4
2026-01-17 07:04:05.625251	93.3	70.4	-65.8	6.1
2026-01-17 07:04:07.867777	96.6	70.6	-66.2	7.1
2026-01-17 07:04:10.109804	99.9	70.7	-66.9	5.6
2026-01-17 07:04:12.354311	103.3	70.7	-66.9	6.7
2026-01-17 07:04:14.597837	106.6	70.7	-67.3	2.9
2026-01-17 07:04:16.844857	110.0	70.6	-65.9	4.4
2026-01-17 07:04:19.088373	113.3	70.5	-67.2	4.8
2026-01-17 07:04:21.331395	116.5	70.3	-67.0	5.9
2026-01-17 07:04:23.575901	119.7	70.1	-67.6	5.4
2026-01-17 07:04:25.824914	122.8	69.8	-66.9	4.6
2026-01-17 07:04:28.067438	125.8	69.4	-66.8	4.3
2026-01-17 07:04:30.311450	128.6	69.0	-66.4	4.7
2026-01-17 07:04:32.553480	131.4	68.5	-66.6	3.3
2026-01-17 07:04:34.799005	134.0	68.1	-66.7	5.2
2026-01-17 07:04:37.042528	136.5	67.5	-66.8	4.7
2026-01-17 07:04:39.286056	138.8	67.0	-67.3	7.1
2026-01-17 07:04:41.532580	141.1	66.4	-67.8	6.6
2026-01-17 07:04:43.776590	143.2	65.8	-66.8	6.0
2026-01-17 07:04:46.020104	145.2	65.1	-66.5	6.3
2026-01-17 07:04:48.263620	147.0	64.5	-66.9	6.5
2026-01-17 07:04:50.511135	148.8	63.8	-67.0	6.3
2026-01-17 07:04:52.754650	150.5	63.1	-66.3	5.6
2026-01-17 07:04:54.997182	152.1	62.4	-66.8	6.9
2026-01-17 07:04:57.239708	153.6	61.7	-67.2	7.8
2026-01-17 07:04:59.483224	155.0	61.0	-67.2	8.5
2026-01-17 07:05:01.726739	156.3	60.2	-66.6	9.0
2026-01-17 07:05:03.970255	157.6	59.5	-66.8	9.3
2026-01-17 07:05:06.216276	158.7	58.8	-66.7	8.6
2026-01-17 07:05:08.460287	159.9	58.0	-66.7	9.3
2026-01-17 07:05:10.703801	160.9	57.3	-66.4	9.6
2026-01-17 07:05:12.945846	161.9	56.6	-66.7	8.2
2026-01-17 07:05:15.189361	162.9	55.8	-66.5	8.9
2026-01-17 07:05:17.432381	163.8	55.1	-66.3	9.7
2026-01-17 07:05:19.676392	164.7	54.4	-65.9	9.4
2026-01-17 07:05:21.918422	165.5	53.6	-66.2	9.6
2026-01-17 07:05:24.162442	166.3	52.9	-66.2	10.0
2026-01-17 07:05:26.404469	167.0	52.2	-66.3	10.3
2026-01-17 07:05:28.647489	167.7	51.5	-66.2	9.8
2026-01-17 07:05:30.894510	168.4	50.8	-65.9	9.2
2026-01-17 07:05:33.136540	169.1	50.1	-66.1	9.5
2026-01-17 07:05:35.380551	169.7	49.4	-65.9	9.3
2026-01-17 07:05:37.625562	170.3	48.7	-65.8	9.0
2026-01-17 07:05:39.873077	170.8	48.1	-66.1	10.0
2026-01-17 07:05:42.116593	171.4	47.4	-65.4	9.5
2026-01-17 07:05:44.360108	171.9	46.7	-65.4	10.5
2026-01-17 07:05:46.607625	172.4	46.1	-65.2	10.3
2026-01-17 07:05:48.850654	172.9	45.4	-65.2	9.8
2026-01-17 07:05:51.092188	173.3	44.8	-65.2	9.9
2026-01-17 07:05:53.336199	173.8	44.2	-65.1	10.2
2026-01-17 07:05:55.582726	174.2	43.6	-65.4	10.4
2026-01-17 07:05:57.826253	174.6	43.0	-65.4	10.7
2026-01-17 07:06:00.068282	175.0	42.4	-65.0	9.5
2026-01-17 07:06:02.314808	175.4	41.8	-65.4	10.2
2026-01-17 07:06:04.558826	175.8	41.2	-65.2	8.3
2026-01-17 07:06:06.801349	176.1	40.6	-65.4	9.6
2026-01-17 07:06:09.045855	176.5	40.0	-65.3	9.3
2026-01-17 07:06:11.290379	176.8	39.5	-64.7	9.2
2026-01-17 07:06:13.534886	177.1	38.9	-64.5	9.5
2026-01-17 07:06:15.778897	177.5	38.4	-64.5	11.0
2026-01-17 07:06:18.022413	177.8	37.8	-64.5	10.0
2026-01-17 07:06:20.269434	178.0	37.3	-63.7	9.0
2026-01-17 07:06:22.512950	178.3	36.8	-64.1	9.2
2026-01-17 07:06:24.755474	178.6	36.3	-64.3	10.2
2026-01-17 07:06:26.997997	178.9	35.8	-64.2	10.4
2026-01-17 07:06:29.242008	179.1	35.3	-64.2	9.7
2026-01-17 07:06:31.486019	179.4	34.8	-64.7	9.7
2026-01-17 07:06:33.729536	179.6	34.3	-64.9	10.0
2026-01-17 07:06:35.973554	179.9	33.8	-64.8	10.6
2026-01-17 07:06:38.217069	180.1	33.3	-64.2	9.2
2026-01-17 07:06:40.460090	180.3	32.9	-64.7	9.7
2026-01-17 07:06:42.704101	180.5	32.4	-64.7	10.1
2026-01-17 07:06:44.947119	180.7	32.0	-64.5	9.6
2026-01-17 07:06:47.191131	181.0	31.5	-64.8	9.4
2026-01-17 07:06:49.434646	181.2	31.1	-64.9	10.2
2026-01-17 07:06:51.681170	181.4	30.6	-64.2	9.3
2026-01-17 07:06:53.925685	181.5	30.2	-64.1	9.2
2026-01-17 07:06:56.168705	181.7	29.8	-64.6	10.2
2026-01-17 07:06:58.413716	181.9	29.4	-63.9	7.4
2026-01-17 07:07:00.661729	182.1	29.0	-64.7	10.4
2026-01-17 07:07:02.905740	182.3	28.6	-64.1	8.7
2026-01-17 07:07:05.149752	182.4	28.2	-64.6	8.4
2026-01-17 07:07:07.393266	182.6	27.8	-64.7	9.3
2026-01-17 07:07:09.636783	182.8	27.4	-64.1	9.5
2026-01-17 07:07:11.880795	182.9	27.0	-64.5	9.1
2026-01-17 07:07:14.125302	183.1	26.6	-64.9	9.1
2026-01-17 07:07:16.368322	183.2	26.2	-64.3	8.7
2026-01-17 07:07:18.612334	183.4	25.9	-64.2	6.7
2026-01-17 07:07:20.858355	183.5	25.5	-64.8	9.4
2026-01-17 07:07:23.100878	183.7	25.2	-64.4	4.6
2026-01-17 07:07:25.343403	183.8	24.8	-63.7	6.3
2026-01-17 07:07:27.586918	183.9	24.5	-64.3	6.8
2026-01-17 07:07:29.830929	184.1	24.1	-65.1	7.8
2026-01-17 07:07:32.073454	184.2	23.8	-64.5	7.2
2026-01-17 07:07:34.317970	184.3	23.4	-64.7	7.1
2026-01-17 07:07:36.561980	184.4	23.1	-65.1	7.8
2026-01-17 07:07:38.804998	184.6	22.8	-65.2	8.8
2026-01-17 07:07:41.051515	184.7	22.5	-64.8	7.5
2026-01-17 07:07:43.295527	184.8	22.1	-64.8	7.8
2026-01-17 07:07:45.540034	184.9	21.8	-65.0	8.6
2026-01-17 07:07:47.784044	185.0	21.5	-65.2	8.6
2026-01-17 07:07:50.028065	185.1	21.2	-64.5	8.4
2026-01-17 07:07:52.272078	185.3	20.9	-64.6	6.8
2026-01-17 07:07:54.516584	185.4	20.6	-64.2	6.8
2026-01-17 07:07:56.760100	185.5	20.3	-64.8	7.0
2026-01-17 07:07:59.008626	185.6	20.0	-65.1	7.0
2026-01-17 07:08:01.252142	185.7	19.7	-64.4	7.2
2026-01-17 07:08:03.494664	185.8	19.4	-64.8	6.3
2026-01-17 07:08:05.738685	185.9	19.1	-64.8	7.8
2026-01-17 07:08:07.981703	186.0	18.9	-64.9	6.5
2026-01-17 07:08:10.226714	186.1	18.6	-65.3	7.9
2026-01-17 07:08:12.471221	186.1	18.3	-65.2	7.9
2026-01-17 07:08:14.713766	186.2	18.0	-64.9	6.5
2026-01-17 07:08:16.958282	186.3	17.8	-64.4	5.8
2026-01-17 07:08:19.202293	186.4	17.5	-64.7	7.1
2026-01-17 07:08:21.444816	186.5	17.2	-64.8	5.2
2026-01-17 07:08:23.687357	186.6	17.0	-65.0	7.3
2026-01-17 07:08:25.931368	186.7	16.7	-64.8	6.4
2026-01-17 07:08:28.175388	186.8	16.5	-65.2	7.3
2026-01-17 07:08:30.418408	186.8	16.2	-65.3	6.8
2026-01-17 07:08:32.662924	186.9	16.0	-65.3	7.3
2026-01-17 07:08:34.906440	187.0	15.7	-65.3	6.2
2026-01-17 07:08:37.148963	187.1	15.5	-64.8	6.6
2026-01-17 07:08:39.396480	187.2	15.2	-65.1	5.9
2026-01-17 07:08:41.639996	187.2	15.0	-64.7	7.5
2026-01-17 07:08:43.883512	187.3	14.8	-64.8	3.5
2026-01-17 07:08:46.127028	187.4	14.5	-64.3	3.8
2026-01-17 07:08:48.371040	187.5	14.3	-65.0	4.2
2026-01-17 07:08:50.615563	187.5	14.1	-65.2	6.3
2026-01-17 07:08:52.858583	187.6	13.8	-64.9	1.6
2026-01-17 07:08:55.101602	187.7	13.6	-65.3	5.8
2026-01-17 07:08:57.345613	187.7	13.4	-65.2	3.6
2026-01-17 07:08:59.589624	187.8	13.2	-65.4	3.5
2026-01-17 07:09:01.833139	187.9	12.9	-64.4	3.4
2026-01-17 07:09:04.076663	187.9	12.7	-63.9	1.6
2026-01-17 07:09:06.320673	188.0	12.5	-64.3	3.4
2026-01-17 07:09:08.563196	188.1	12.3	-65.4	2.3
2026-01-17 07:09:10.808218	188.1	12.1	-65.2	4.9
2026-01-17 07:09:13.050742	188.2	11.9	-64.9	3.9
2026-01-17 07:09:15.293763	188.3	11.7	-64.6	4.4
2026-01-17 07:09:17.538792	188.3	11.4	-64.5	4.0
2026-01-17 07:09:19.784813	188.4	11.2	-64.5	4.7
2026-01-17 07:09:22.029320	188.4	11.0	-64.8	4.2
2026-01-17 07:09:24.274339	188.5	10.8	-64.1	0.0
2026-01-17 07:09:26.517359	188.6	10.6	-64.3	2.5
2026-01-17 07:09:28.761370	188.6	10.4	-64.1	4.1
2026-01-17 07:09:31.005876	188.7	10.2	-64.3	0.4
2026-01-17 07:09:33.250391	188.7	10.0	-64.9	2.1
2026-01-17 07:09:35.493411	188.8	9.8	-64.7	2.8
2026-01-17 07:09:37.736431	188.8	9.6	-63.9	1.2
2026-01-17 07:09:39.980442	188.9	9.5	-63.8	0.9
2026-01-17 07:09:42.224454	188.9	9.3	-63.9	3.1
2026-01-17 07:09:44.470482	189.0	9.1	-64.2	3.6
2026-01-17 07:09:46.713998	189.0	8.9	-63.8	2.0
2026-01-17 07:09:48.958009	189.1	8.7	-64.2	2.9
2026-01-17 07:09:51.200534	189.1	8.5	-64.1	1.0
2026-01-17 07:09:53.445041	189.2	8.3	-62.5	0.0
2026-01-17 07:09:55.688556	189.2	8.2	-63.6	0.0
2026-01-17 07:09:57.932567	189.3	8.0	-64.4	0.0
2026-01-17 07:10:00.176083	189.3	7.8	-64.2	2.9
2026-01-17 07:10:02.418607	189.4	7.6	-63.3	1.4
2026-01-17 07:10:04.661626	189.4	7.4	-63.5	1.3
2026-01-17 07:10:06.905638	189.5	7.3	-64.4	1.7
2026-01-17 07:10:09.147648	189.5	7.1	-64.0	1.4
2026-01-17 07:10:11.389677	189.6	6.9	-63.2	0.0
2026-01-17 07:10:13.631696	189.6	6.7	-63.7	0.9
2026-01-17 07:10:15.872707	189.7	6.6	-64.1	0.0
2026-01-17 07:10:18.114735	189.7	6.4	-63.1	0.0
2026-01-17 07:10:20.354248	189.8	6.2	-61.4	0.0
2026-01-17 07:10:22.595755	189.8	6.1	-64.8	0.5
2026-01-17 07:10:24.838270	189.9	5.9	-69.3	0.0
2026-01-17 07:10:27.077784	189.9	5.7	-71.3	0.0
2026-01-17 07:10:29.315298	189.9	5.6	-72.6	0.0
2026-01-17 07:10:31.555308	190.0	5.4	-69.9	0.0
2026-01-17 07:10:33.793317	190.0	5.3	-71.0	0.0
2026-01-17 07:10:36.032823	190.1	5.1	-70.7	0.0
#Closed at: 2026-01-17 06:57:40.621991