passes_logs/2026/01/17/PlanumMoscow/PlanumMoscow__20260117_073510_METOP-C_rec.log

#Pass ID: 20260117_073510_METOP-C
#Satellite: METOP-C
#Configuration: METOP-C
#Start time: 2026-01-17 07:35:15.444039

#LorettStation: 1.0.0 05.05.2024
#Station: PlanumMoscow
#Location: 37.6253844 lon 55.6713361 lat
#TLE: 1 43689U 18087A   25293.88981035  .00000265  00000+0  14109-3 0  9997
#TLE: 2 43689  98.7006 352.4487 0002041 122.1097 238.0279 14.21482740360838

#Time	Az	El	Level	SNR
2026-01-17 07:38:53.901471	23.0	29.1	-63.0	0.0
2026-01-17 07:38:56.145984	23.1	29.5	-65.2	0.0
2026-01-17 07:38:58.427532	23.2	30.0	-63.4	0.0
2026-01-17 07:39:00.671574	23.4	30.4	-63.0	0.0
2026-01-17 07:39:02.916081	23.5	30.8	-63.5	0.0
2026-01-17 07:39:05.158636	23.6	31.3	-63.5	0.0
2026-01-17 07:39:07.402182	23.7	31.7	-62.9	0.0
2026-01-17 07:39:09.645752	23.9	32.2	-62.9	0.0
2026-01-17 07:39:11.889274	24.0	32.6	-62.4	0.0
2026-01-17 07:39:14.131302	24.2	33.1	-62.4	0.0
2026-01-17 07:39:16.374817	24.3	33.6	-62.4	0.0
2026-01-17 07:39:18.618331	24.5	34.0	-61.8	0.0
2026-01-17 07:39:20.861351	24.6	34.5	-63.1	0.0
2026-01-17 07:39:23.104392	24.8	35.0	-64.0	0.0
2026-01-17 07:39:25.347907	24.9	35.5	-61.8	0.0
2026-01-17 07:39:27.591431	25.1	36.1	-61.8	0.0
2026-01-17 07:39:29.836483	25.3	36.6	-65.1	0.0
2026-01-17 07:39:32.080999	25.5	37.1	-62.5	0.0
2026-01-17 07:39:34.324514	25.7	37.6	-62.8	0.0
2026-01-17 07:39:36.567587	25.8	38.2	-62.8	0.0
2026-01-17 07:39:38.810613	26.0	38.7	-61.9	0.0
2026-01-17 07:39:41.052674	26.2	39.3	-62.7	0.0
2026-01-17 07:39:43.295196	26.5	39.9	-60.0	0.0
2026-01-17 07:39:45.539751	26.7	40.5	-61.8	0.0
2026-01-17 07:39:47.783272	26.9	41.0	-63.1	0.0
2026-01-17 07:39:50.027835	27.1	41.6	-60.9	0.0
2026-01-17 07:39:52.271847	27.4	42.2	-63.2	0.0
2026-01-17 07:39:54.515858	27.6	42.9	-62.0	0.0
2026-01-17 07:39:56.758876	27.9	43.5	-58.4	0.0
2026-01-17 07:39:59.001399	28.2	44.1	-61.0	0.0
2026-01-17 07:40:01.246419	28.5	44.8	-60.3	0.0
2026-01-17 07:40:03.486925	28.8	45.4	-61.1	0.0
2026-01-17 07:40:05.728439	29.1	46.1	-60.5	0.0
2026-01-17 07:40:07.970460	29.4	46.8	-63.5	0.0
2026-01-17 07:40:10.209478	29.7	47.5	-63.1	0.0
2026-01-17 07:40:12.450984	30.1	48.2	-62.6	0.0
2026-01-17 07:40:14.691002	30.4	48.9	-61.4	0.0
2026-01-17 07:40:16.933526	30.8	49.6	-64.2	0.0
2026-01-17 07:40:19.173048	31.2	50.3	-61.8	0.0
2026-01-17 07:40:21.412058	31.6	51.1	-62.1	0.0
2026-01-17 07:40:23.654564	32.1	51.8	-62.3	0.0
2026-01-17 07:40:25.903072	32.6	52.6	-62.0	0.0
2026-01-17 07:40:28.146587	33.0	53.4	-62.8	0.0
2026-01-17 07:40:30.388617	33.6	54.1	-62.3	0.0
2026-01-17 07:40:32.632132	34.1	54.9	-60.7	0.0
2026-01-17 07:40:34.872662	34.7	55.7	-63.9	0.0
2026-01-17 07:40:37.111691	35.3	56.5	-64.2	0.0
2026-01-17 07:40:39.352206	35.9	57.4	-62.9	0.0
2026-01-17 07:40:41.593223	36.6	58.2	-63.8	0.0
2026-01-17 07:40:43.835729	37.3	59.0	-63.9	0.0
2026-01-17 07:40:46.077235	38.1	59.9	-64.5	0.0
2026-01-17 07:40:48.316741	38.9	60.7	-65.4	0.0
2026-01-17 07:40:50.556758	39.8	61.6	-65.6	0.0
2026-01-17 07:40:52.798769	40.8	62.4	-66.4	0.0
2026-01-17 07:40:55.037299	41.8	63.3	-66.8	0.0
2026-01-17 07:40:57.279310	42.9	64.1	-66.5	0.0
2026-01-17 07:40:59.518816	44.1	65.0	-66.3	0.0
2026-01-17 07:41:01.760826	45.3	65.9	-67.2	0.0
2026-01-17 07:41:04.003349	46.7	66.7	-66.5	0.0
2026-01-17 07:41:06.245865	48.2	67.6	-65.8	0.0
2026-01-17 07:41:08.486886	49.8	68.5	-65.6	0.0
2026-01-17 07:41:10.728896	51.6	69.3	-68.7	0.0
2026-01-17 07:41:12.971907	53.5	70.1	-67.6	0.0
2026-01-17 07:41:15.211925	55.6	71.0	-66.8	0.0
2026-01-17 07:41:17.450431	57.9	71.8	-66.9	0.0
2026-01-17 07:41:19.691441	60.4	72.5	-67.9	0.0
2026-01-17 07:41:21.931955	63.2	73.3	-68.3	0.0
2026-01-17 07:41:24.174470	66.2	74.0	-68.5	0.0
2026-01-17 07:41:26.414480	69.5	74.6	-68.4	0.0
2026-01-17 07:41:28.656491	73.1	75.3	-67.6	0.0
2026-01-17 07:41:30.897006	77.0	75.8	-68.1	0.0
2026-01-17 07:41:33.133015	81.3	76.3	-68.0	0.0
2026-01-17 07:41:35.373025	85.8	76.7	-69.0	0.0
2026-01-17 07:41:37.612531	90.6	77.1	-68.3	0.0
2026-01-17 07:41:39.854559	95.6	77.3	-68.8	0.0
2026-01-17 07:41:42.092074	100.8	77.4	-68.5	0.0
2026-01-17 07:41:44.331101	106.0	77.5	-68.7	0.0
2026-01-17 07:41:46.572608	111.3	77.4	-68.9	0.0
2026-01-17 07:41:48.814628	116.4	77.3	-68.8	0.0
2026-01-17 07:41:51.055638	121.4	77.0	-69.5	0.0
2026-01-17 07:41:53.297154	126.1	76.6	-70.7	0.0
2026-01-17 07:41:55.535677	130.6	76.2	-70.0	0.0
2026-01-17 07:41:57.774687	134.8	75.7	-70.3	0.0
2026-01-17 07:42:00.012696	138.6	75.1	-70.1	0.0
2026-01-17 07:42:02.251201	142.2	74.5	-70.0	0.0
2026-01-17 07:42:04.489212	145.4	73.8	-70.3	0.0
2026-01-17 07:42:06.727717	148.4	73.1	-70.6	0.0
2026-01-17 07:42:08.967248	151.1	72.4	-70.6	0.0
2026-01-17 07:42:11.203762	153.6	71.6	-70.8	0.0
2026-01-17 07:42:13.444286	155.8	70.8	-70.6	0.0
2026-01-17 07:42:15.684800	157.9	70.0	-70.8	0.0
2026-01-17 07:42:17.923305	159.8	69.1	-70.5	0.0
2026-01-17 07:42:20.159323	161.5	68.3	-70.8	0.0
2026-01-17 07:42:22.396838	163.1	67.4	-70.3	0.0
2026-01-17 07:42:24.634353	164.6	66.6	-70.9	0.0
2026-01-17 07:42:26.876860	165.9	65.7	-70.5	0.0
2026-01-17 07:42:29.115373	167.2	64.8	-70.8	0.0
2026-01-17 07:42:31.355382	168.3	64.0	-71.4	0.0
2026-01-17 07:42:33.598394	169.4	63.1	-71.3	0.0
2026-01-17 07:42:35.837404	170.4	62.2	-71.3	0.0
2026-01-17 07:42:38.076919	171.3	61.4	-71.4	0.0
2026-01-17 07:42:40.314928	172.2	60.5	-71.4	0.0
2026-01-17 07:42:42.553442	173.0	59.7	-71.3	0.0
2026-01-17 07:42:44.793948	173.8	58.8	-71.0	0.0
2026-01-17 07:42:47.032470	174.5	58.0	-71.2	0.0
2026-01-17 07:42:49.273986	175.2	57.2	-70.9	0.0
2026-01-17 07:42:51.515513	175.8	56.3	-71.4	0.0
2026-01-17 07:42:53.755531	176.4	55.5	-70.4	0.0
2026-01-17 07:42:55.996037	177.0	54.7	-71.0	0.0
2026-01-17 07:42:58.234561	177.5	53.9	-70.3	0.0
2026-01-17 07:43:00.474083	178.1	53.1	-70.9	0.0
2026-01-17 07:43:02.713597	178.5	52.4	-69.6	0.0
2026-01-17 07:43:04.952129	179.0	51.6	-70.2	0.0
2026-01-17 07:43:07.191634	179.4	50.9	-70.2	0.0
2026-01-17 07:43:09.434141	179.9	50.1	-70.1	0.0
2026-01-17 07:43:11.670159	180.2	49.4	-68.9	0.0
2026-01-17 07:43:13.911673	180.6	48.7	-69.7	0.0
2026-01-17 07:43:16.153196	181.0	48.0	-69.2	0.0
2026-01-17 07:43:18.392701	181.3	47.3	-68.9	0.0
2026-01-17 07:43:20.631711	181.7	46.6	-69.7	0.0
2026-01-17 07:43:22.873227	182.0	45.9	-70.4	0.0
2026-01-17 07:43:25.115742	182.3	45.2	-69.9	0.0
2026-01-17 07:43:27.355257	182.6	44.6	-69.7	0.0
2026-01-17 07:43:29.596772	182.9	43.9	-68.5	0.0
2026-01-17 07:43:31.840294	183.1	43.3	-70.0	0.0
2026-01-17 07:43:34.079304	183.4	42.6	-69.6	0.0
2026-01-17 07:43:36.317817	183.7	42.0	-69.6	0.0
2026-01-17 07:43:38.558827	183.9	41.4	-69.1	0.0
2026-01-17 07:43:40.797341	184.1	40.8	-69.5	0.0
2026-01-17 07:43:43.035856	184.4	40.2	-68.8	0.0
2026-01-17 07:43:45.274361	184.6	39.7	-69.2	0.0
2026-01-17 07:43:47.511370	184.8	39.1	-69.0	0.0
2026-01-17 07:43:49.751389	185.0	38.5	-68.9	0.0
2026-01-17 07:43:51.988904	185.2	38.0	-68.1	0.0
2026-01-17 07:43:54.225419	185.4	37.4	-68.5	0.0
2026-01-17 07:43:56.466933	185.6	36.9	-69.2	0.0
2026-01-17 07:43:58.707952	185.7	36.4	-69.1	0.0
2026-01-17 07:44:00.946962	185.9	35.8	-69.2	0.0
2026-01-17 07:44:03.186972	186.1	35.3	-68.9	0.0
2026-01-17 07:44:05.427500	186.2	34.8	-68.7	0.0
2026-01-17 07:44:07.664517	186.4	34.3	-68.7	0.0
2026-01-17 07:44:09.905023	186.5	33.8	-68.9	0.0
2026-01-17 07:44:12.145546	186.7	33.3	-67.5	0.0
2026-01-17 07:44:14.386556	186.8	32.9	-68.1	0.0
2026-01-17 07:44:16.624081	187.0	32.4	-67.1	0.0
2026-01-17 07:44:18.863595	187.1	31.9	-68.1	0.0
2026-01-17 07:44:21.102117	187.3	31.5	-69.1	0.0
2026-01-17 07:44:23.343135	187.4	31.0	-68.7	0.0
2026-01-17 07:44:25.580649	187.5	30.6	-67.9	0.0
2026-01-17 07:44:27.817659	187.6	30.2	-68.8	0.0
2026-01-17 07:44:30.057680	187.8	29.7	-68.4	0.0
2026-01-17 07:44:32.297706	187.9	29.3	-69.1	0.0
2026-01-17 07:44:34.535740	188.0	28.9	-69.0	0.0
2026-01-17 07:44:36.777261	188.1	28.5	-68.6	0.0
2026-01-17 07:44:39.016801	188.2	28.1	-69.4	0.0
2026-01-17 07:44:41.257316	188.3	27.7	-68.9	0.0
2026-01-17 07:44:43.499327	188.4	27.3	-68.6	0.0
2026-01-17 07:44:45.720766	188.5	26.9	-67.7	0.0
2026-01-17 07:44:47.957279	188.6	26.5	-67.5	0.0
2026-01-17 07:44:50.197289	188.7	26.2	-66.6	0.0
2026-01-17 07:44:52.436299	188.8	25.8	-67.6	0.0
2026-01-17 07:44:54.676805	188.9	25.4	-66.5	0.0
2026-01-17 07:44:56.914319	189.0	25.1	-66.6	0.0
2026-01-17 07:44:59.153337	189.1	24.7	-67.8	0.0
2026-01-17 07:45:01.392355	189.2	24.4	-66.9	0.0
2026-01-17 07:45:03.633368	189.3	24.0	-67.0	0.0
2026-01-17 07:45:05.877379	189.4	23.7	-66.4	0.0
2026-01-17 07:45:08.121400	189.4	23.3	-67.4	0.0
2026-01-17 07:45:10.367464	189.5	23.0	-67.3	0.0
2026-01-17 07:45:12.611475	189.6	22.7	-66.9	1.0
2026-01-17 07:45:14.855518	189.7	22.4	-66.3	0.0
2026-01-17 07:45:17.098084	189.8	22.0	-67.1	0.0
2026-01-17 07:45:19.341606	189.8	21.7	-66.3	0.0
2026-01-17 07:45:21.584158	189.9	21.4	-66.8	0.9
2026-01-17 07:45:23.826697	190.0	21.1	-66.7	0.9
2026-01-17 07:45:26.067763	190.1	20.8	-66.9	2.4
2026-01-17 07:45:28.314286	190.1	20.5	-65.8	0.0
2026-01-17 07:45:30.557350	190.2	20.2	-66.5	3.2
2026-01-17 07:45:32.801378	190.3	19.9	-66.8	0.0
2026-01-17 07:45:35.043900	190.3	19.6	-66.3	2.2
2026-01-17 07:45:37.287445	190.4	19.3	-66.4	3.5
2026-01-17 07:45:39.529481	190.5	19.0	-66.3	4.4
2026-01-17 07:45:41.772536	190.5	18.7	-65.8	3.9
2026-01-17 07:45:44.018564	190.6	18.5	-66.1	5.1
2026-01-17 07:45:46.260640	190.7	18.2	-66.1	3.8
2026-01-17 07:45:48.503164	190.7	17.9	-65.9	5.4
2026-01-17 07:45:50.748193	190.8	17.6	-65.7	3.3
2026-01-17 07:45:52.992239	190.8	17.4	-66.1	3.7
2026-01-17 07:45:55.236258	190.9	17.1	-65.9	3.8
2026-01-17 07:45:57.479809	190.9	16.9	-65.9	5.4
2026-01-17 07:45:59.726844	191.0	16.6	-65.3	3.5
2026-01-17 07:46:01.971407	191.1	16.3	-65.9	5.0
2026-01-17 07:46:04.214928	191.1	16.1	-65.6	2.7
2026-01-17 07:46:06.457948	191.2	15.8	-65.6	2.0
2026-01-17 07:46:08.703510	191.2	15.6	-65.4	3.9
2026-01-17 07:46:10.947521	191.3	15.3	-65.3	4.0
2026-01-17 07:46:13.191036	191.3	15.1	-65.1	2.9
2026-01-17 07:46:15.436559	191.4	14.9	-65.1	4.0
2026-01-17 07:46:17.680074	191.4	14.6	-65.1	4.3
2026-01-17 07:46:19.923094	191.5	14.4	-65.3	5.3
2026-01-17 07:46:22.165615	191.5	14.2	-65.4	5.0
2026-01-17 07:46:24.410130	191.6	13.9	-65.0	4.9
2026-01-17 07:46:26.653151	191.6	13.7	-64.5	5.4
2026-01-17 07:46:28.897162	191.7	13.5	-64.7	4.0
2026-01-17 07:46:31.141210	191.7	13.2	-64.7	3.6
2026-01-17 07:46:33.385755	191.8	13.0	-64.7	4.7
2026-01-17 07:46:35.629774	191.8	12.8	-64.2	4.8
2026-01-17 07:46:37.873328	191.8	12.6	-63.0	3.2
2026-01-17 07:46:40.117346	191.9	12.4	-64.5	3.7
2026-01-17 07:46:42.360883	191.9	12.1	-64.4	5.9
2026-01-17 07:46:44.605397	192.0	11.9	-64.4	2.0
2026-01-17 07:46:46.849920	192.0	11.7	-64.5	4.1
2026-01-17 07:46:49.093472	192.1	11.5	-64.5	2.1
2026-01-17 07:46:51.337518	192.1	11.3	-64.3	2.9
2026-01-17 07:46:53.581089	192.1	11.1	-64.4	0.0
2026-01-17 07:46:55.823612	192.2	10.9	-64.7	2.3
2026-01-17 07:46:58.065647	192.2	10.7	-64.7	2.0
2026-01-17 07:47:00.307217	192.3	10.5	-65.1	2.3
2026-01-17 07:47:02.549749	192.3	10.3	-62.7	0.0
2026-01-17 07:47:04.795304	192.3	10.1	-63.6	0.4
2026-01-17 07:47:07.038825	192.4	9.9	-64.0	0.9
2026-01-17 07:47:09.282377	192.4	9.7	-63.8	2.0
2026-01-17 07:47:11.524917	192.4	9.5	-63.4	0.0
2026-01-17 07:47:13.766991	192.5	9.3	-64.3	0.0
2026-01-17 07:47:16.010017	192.5	9.1	-64.2	2.7
2026-01-17 07:47:18.253065	192.6	8.9	-64.2	0.2
2026-01-17 07:47:20.497580	192.6	8.8	-64.6	1.4
2026-01-17 07:47:22.740110	192.6	8.6	-65.0	2.2
2026-01-17 07:47:24.983175	192.7	8.4	-64.3	1.4
2026-01-17 07:47:27.227211	192.7	8.2	-64.8	0.1
2026-01-17 07:47:29.472258	192.7	8.0	-63.6	1.7
2026-01-17 07:47:31.715285	192.8	7.8	-63.2	0.8
2026-01-17 07:47:33.958845	192.8	7.7	-63.2	0.0
2026-01-17 07:47:36.205369	192.8	7.5	-63.0	0.0
2026-01-17 07:47:38.449380	192.9	7.3	-64.0	0.8
2026-01-17 07:47:40.692936	192.9	7.1	-63.1	0.0
2026-01-17 07:47:42.937458	192.9	7.0	-61.2	0.0
2026-01-17 07:47:45.183011	193.0	6.8	-63.5	0.0
2026-01-17 07:47:47.427527	193.0	6.6	-63.9	1.9
2026-01-17 07:47:49.670577	193.0	6.4	-63.8	0.0
2026-01-17 07:47:51.914596	193.0	6.3	-63.9	0.0
2026-01-17 07:47:54.159656	193.1	6.1	-64.5	0.2
2026-01-17 07:47:56.406677	193.1	5.9	-64.9	4.3
2026-01-17 07:47:58.650192	193.1	5.8	-69.0	0.0
2026-01-17 07:48:00.894744	193.2	5.6	-70.9	0.0
2026-01-17 07:48:03.138267	193.2	5.4	-71.4	0.0
2026-01-17 07:48:05.382812	193.2	5.3	-70.6	0.0
2026-01-17 07:48:07.626335	193.3	5.1	-70.8	0.0
#Closed at: 2026-01-17 07:35:10.444889