passes_logs/2026/01/17/PlanumMoscow/PlanumMoscow__20260117_190539_METOP-C_rec.log

#Pass ID: 20260117_190539_METOP-C
#Satellite: METOP-C
#Configuration: METOP-C
#Start time: 2026-01-17 19:05:44.910495

#LorettStation: 1.0.0 05.05.2024
#Station: PlanumMoscow
#Location: 37.6253844 lon 55.6713361 lat
#TLE: 1 43689U 18087A   25293.88981035  .00000265  00000+0  14109-3 0  9997
#TLE: 2 43689  98.7006 352.4487 0002041 122.1097 238.0279 14.21482740360838

#Time	Az	El	Level	SNR
2026-01-17 19:09:23.352314	219.8	23.8	-63.3	0.0
2026-01-17 19:09:25.597326	220.3	24.0	-63.8	0.0
2026-01-17 19:09:27.840842	220.8	24.2	-59.4	0.0
2026-01-17 19:09:30.083863	221.3	24.5	-62.5	0.0
2026-01-17 19:09:32.328378	221.7	24.7	-61.0	0.0
2026-01-17 19:09:34.571893	222.2	24.9	-61.3	0.0
2026-01-17 19:09:36.814927	222.7	25.2	-61.3	0.0
2026-01-17 19:09:39.058443	223.2	25.4	-61.0	0.0
2026-01-17 19:09:41.302958	223.8	25.7	-62.9	0.0
2026-01-17 19:09:43.545977	224.3	25.9	-60.4	0.0
2026-01-17 19:09:45.787509	224.8	26.1	-63.4	0.0
2026-01-17 19:09:48.030032	225.4	26.4	-63.1	0.0
2026-01-17 19:09:50.276043	225.9	26.6	-62.1	0.0
2026-01-17 19:09:52.519558	226.5	26.8	-61.2	0.0
2026-01-17 19:09:54.763570	227.0	27.1	-62.6	0.0
2026-01-17 19:09:57.008084	227.6	27.3	-62.7	0.0
2026-01-17 19:09:59.251600	228.2	27.5	-63.0	0.0
2026-01-17 19:10:01.493610	228.8	27.8	-62.9	0.0
2026-01-17 19:10:03.736629	229.4	28.0	-63.6	0.0
2026-01-17 19:10:05.980639	230.0	28.2	-63.1	0.0
2026-01-17 19:10:08.223650	230.6	28.5	-62.4	0.0
2026-01-17 19:10:10.463660	231.2	28.7	-61.9	0.0
2026-01-17 19:10:12.700174	231.8	28.9	-62.1	0.0
2026-01-17 19:10:14.941184	232.5	29.1	-62.8	0.0
2026-01-17 19:10:17.178696	233.1	29.3	-63.2	0.0
2026-01-17 19:10:19.416705	233.8	29.6	-64.2	0.0
2026-01-17 19:10:21.655715	234.4	29.8	-63.8	0.0
2026-01-17 19:10:23.893748	235.1	30.0	-63.0	0.0
2026-01-17 19:10:26.133261	235.8	30.2	-62.6	0.0
2026-01-17 19:10:28.373279	236.5	30.4	-60.4	0.0
2026-01-17 19:10:30.610792	237.2	30.6	-61.8	0.0
2026-01-17 19:10:32.850305	237.9	30.8	-62.4	0.0
2026-01-17 19:10:35.091322	238.6	31.0	-60.0	0.0
2026-01-17 19:10:37.332829	239.3	31.2	-62.2	0.0
2026-01-17 19:10:39.573334	240.1	31.4	-60.8	0.0
2026-01-17 19:10:41.816354	240.8	31.5	-61.7	0.0
2026-01-17 19:10:44.059383	241.5	31.7	-60.4	0.0
2026-01-17 19:10:46.302890	242.3	31.9	-58.9	0.0
2026-01-17 19:10:48.544907	243.1	32.1	-58.3	0.0
2026-01-17 19:10:50.784429	243.8	32.2	-60.0	0.0
2026-01-17 19:10:53.022943	244.6	32.4	-57.7	0.0
2026-01-17 19:10:55.262962	245.4	32.6	-60.8	0.0
2026-01-17 19:10:57.502476	246.2	32.7	-59.3	0.0
2026-01-17 19:10:59.744486	247.0	32.9	-60.0	0.0
2026-01-17 19:11:01.985007	247.8	33.0	-58.7	0.0
2026-01-17 19:11:04.223024	248.6	33.1	-59.9	0.0
2026-01-17 19:11:06.465539	249.5	33.3	-61.2	0.0
2026-01-17 19:11:08.709054	250.3	33.4	-59.2	0.0
2026-01-17 19:11:10.957586	251.1	33.5	-61.5	0.0
2026-01-17 19:11:13.201597	252.0	33.6	-61.8	0.0
2026-01-17 19:11:15.445111	252.8	33.7	-63.1	0.0
2026-01-17 19:11:17.689634	253.7	33.8	-63.5	0.0
2026-01-17 19:11:19.934149	254.5	33.9	-63.0	0.0
2026-01-17 19:11:22.173159	255.4	34.0	-63.8	0.0
2026-01-17 19:11:24.415189	256.3	34.1	-59.2	0.0
2026-01-17 19:11:26.659201	257.1	34.1	-61.0	0.0
2026-01-17 19:11:28.901210	258.0	34.2	-62.6	0.0
2026-01-17 19:11:31.145733	258.9	34.3	-63.0	0.0
2026-01-17 19:11:33.390249	259.8	34.3	-62.8	0.0
2026-01-17 19:11:35.634763	260.6	34.4	-61.6	0.0
2026-01-17 19:11:37.878774	261.5	34.4	-64.1	0.0
2026-01-17 19:11:40.122289	262.4	34.4	-62.9	0.0
2026-01-17 19:11:42.362298	263.3	34.4	-63.0	0.0
2026-01-17 19:11:44.599315	264.2	34.4	-64.3	0.0
2026-01-17 19:11:46.839324	265.1	34.4	-63.1	0.0
2026-01-17 19:11:49.080343	265.9	34.4	-63.9	0.0
2026-01-17 19:11:51.318849	266.8	34.4	-65.6	0.0
2026-01-17 19:11:53.559355	267.7	34.4	-65.6	0.0
2026-01-17 19:11:55.800365	268.6	34.4	-65.0	0.0
2026-01-17 19:11:58.042384	269.5	34.4	-61.4	0.0
2026-01-17 19:12:00.286394	270.4	34.3	-63.3	0.0
2026-01-17 19:12:02.522908	271.2	34.3	-64.6	0.0
2026-01-17 19:12:04.767919	272.1	34.2	-62.4	0.0
2026-01-17 19:12:07.009931	273.0	34.2	-63.6	0.0
2026-01-17 19:12:09.249941	273.9	34.1	-61.6	0.0
2026-01-17 19:12:11.489951	274.7	34.0	-65.1	0.0
2026-01-17 19:12:13.730457	275.6	33.9	-64.7	0.0
2026-01-17 19:12:15.972972	276.4	33.8	-64.5	0.0
2026-01-17 19:12:18.213478	277.3	33.7	-65.2	0.0
2026-01-17 19:12:20.455496	278.1	33.6	-65.3	0.0
2026-01-17 19:12:22.694010	279.0	33.5	-66.3	0.0
2026-01-17 19:12:24.932029	279.8	33.4	-66.2	0.0
2026-01-17 19:12:27.173544	280.6	33.3	-66.1	0.0
2026-01-17 19:12:29.415554	281.5	33.2	-64.3	0.0
2026-01-17 19:12:31.653067	282.3	33.0	-66.4	0.0
2026-01-17 19:12:33.895581	283.1	32.9	-66.5	0.0
2026-01-17 19:12:36.134591	283.9	32.7	-64.9	0.0
2026-01-17 19:12:38.377617	284.7	32.6	-65.4	0.0
2026-01-17 19:12:40.618628	285.5	32.4	-64.9	0.0
2026-01-17 19:12:42.863150	286.3	32.3	-67.0	0.0
2026-01-17 19:12:45.106664	287.0	32.1	-64.0	0.0
2026-01-17 19:12:47.350180	287.8	31.9	-65.6	0.0
2026-01-17 19:12:49.594191	288.5	31.8	-64.9	0.0
2026-01-17 19:12:51.838202	289.3	31.6	-66.8	0.0
2026-01-17 19:12:54.077758	290.0	31.4	-66.6	0.0
2026-01-17 19:12:56.319779	290.8	31.2	-66.3	0.0
2026-01-17 19:12:58.564286	291.5	31.0	-66.0	0.0
2026-01-17 19:13:00.806811	292.2	30.8	-67.2	0.0
2026-01-17 19:13:03.050822	292.9	30.6	-66.0	0.0
2026-01-17 19:13:05.294832	293.6	30.4	-65.7	0.0
2026-01-17 19:13:07.538348	294.3	30.2	-66.6	0.0
2026-01-17 19:13:09.782358	295.0	30.0	-66.2	0.0
2026-01-17 19:13:12.021368	295.7	29.8	-66.2	0.0
2026-01-17 19:13:14.259883	296.3	29.6	-67.6	0.0
2026-01-17 19:13:16.499893	297.0	29.4	-66.6	0.0
2026-01-17 19:13:18.736902	297.6	29.2	-67.2	0.0
2026-01-17 19:13:20.976417	298.3	28.9	-67.2	0.0
2026-01-17 19:13:23.213442	298.9	28.7	-66.6	0.0
2026-01-17 19:13:25.454956	299.5	28.5	-68.3	0.0
2026-01-17 19:13:27.695966	300.1	28.3	-68.3	0.0
2026-01-17 19:13:29.936984	300.7	28.1	-67.4	0.0
2026-01-17 19:13:32.177490	301.3	27.8	-67.6	0.0
2026-01-17 19:13:34.414507	301.9	27.6	-67.4	0.0
2026-01-17 19:13:36.655022	302.5	27.4	-68.1	0.0
2026-01-17 19:13:38.896528	303.0	27.1	-68.1	0.0
2026-01-17 19:13:41.136043	303.6	26.9	-68.3	0.0
2026-01-17 19:13:43.373555	304.2	26.7	-67.9	0.0
2026-01-17 19:13:45.608067	304.7	26.4	-69.3	0.0
2026-01-17 19:13:47.845077	305.2	26.2	-68.1	0.0
2026-01-17 19:13:50.082095	305.8	26.0	-68.8	0.0
2026-01-17 19:13:52.322115	306.3	25.7	-68.9	0.0
2026-01-17 19:13:54.559125	306.8	25.5	-68.5	0.0
2026-01-17 19:13:56.794638	307.3	25.3	-68.9	0.0
2026-01-17 19:13:59.028150	307.8	25.0	-68.2	0.0
2026-01-17 19:14:01.264167	308.3	24.8	-68.7	0.0
2026-01-17 19:14:03.499689	308.8	24.6	-68.5	0.0
2026-01-17 19:14:05.737194	309.3	24.3	-68.5	0.0
2026-01-17 19:14:07.975700	309.7	24.1	-68.3	0.0
2026-01-17 19:14:10.215206	310.2	23.9	-68.4	0.0
2026-01-17 19:14:12.451719	310.7	23.6	-68.7	0.0
2026-01-17 19:14:14.694244	311.1	23.4	-68.5	0.0
2026-01-17 19:14:16.935261	311.6	23.2	-68.5	0.0
2026-01-17 19:14:19.178280	312.0	22.9	-69.0	0.0
2026-01-17 19:14:21.421299	312.4	22.7	-68.8	0.0
2026-01-17 19:14:23.663327	312.9	22.5	-68.7	0.0
2026-01-17 19:14:25.904857	313.3	22.2	-68.6	0.0
2026-01-17 19:14:28.147883	313.7	22.0	-68.7	0.0
2026-01-17 19:14:30.393397	314.1	21.8	-68.2	0.0
2026-01-17 19:14:32.634929	314.5	21.5	-68.5	0.0
2026-01-17 19:14:34.878444	314.9	21.3	-68.1	0.0
2026-01-17 19:14:37.123456	315.3	21.1	-67.8	0.0
2026-01-17 19:14:39.367466	315.7	20.8	-68.2	0.0
2026-01-17 19:14:41.604987	316.1	20.6	-68.3	0.0
2026-01-17 19:14:43.843006	316.4	20.4	-68.4	0.0
2026-01-17 19:14:46.078519	316.8	20.2	-68.7	0.0
2026-01-17 19:14:48.316024	317.2	19.9	-68.2	0.0
2026-01-17 19:14:50.553034	317.5	19.7	-68.4	0.0
2026-01-17 19:14:52.788050	317.9	19.5	-68.8	0.0
2026-01-17 19:14:55.023059	318.2	19.3	-68.8	0.0
2026-01-17 19:14:57.258564	318.6	19.1	-69.1	0.0
2026-01-17 19:14:59.494077	318.9	18.8	-69.0	0.0
2026-01-17 19:15:01.713015	319.2	18.6	-69.1	0.0
2026-01-17 19:15:03.957026	319.6	18.4	-68.9	0.0
2026-01-17 19:15:06.201036	319.9	18.2	-68.9	0.0
2026-01-17 19:15:08.444560	320.2	18.0	-68.7	0.0
2026-01-17 19:15:10.687619	320.5	17.8	-68.4	0.0
2026-01-17 19:15:12.931637	320.8	17.5	-68.1	0.0
2026-01-17 19:15:15.176201	321.1	17.3	-67.7	0.0
2026-01-17 19:15:17.420716	321.4	17.1	-68.9	0.0
2026-01-17 19:15:19.663736	321.7	16.9	-69.0	0.0
2026-01-17 19:15:21.907279	322.0	16.7	-68.8	0.0
2026-01-17 19:15:24.151793	322.3	16.5	-68.9	0.0
2026-01-17 19:15:26.394854	322.6	16.3	-68.6	0.0
2026-01-17 19:15:28.638380	322.9	16.1	-68.7	0.0
2026-01-17 19:15:30.882933	323.2	15.9	-69.0	0.0
2026-01-17 19:15:33.126953	323.5	15.7	-68.7	0.0
2026-01-17 19:15:35.368532	323.7	15.5	-68.3	0.0
2026-01-17 19:15:37.611073	324.0	15.3	-69.1	0.0
2026-01-17 19:15:39.853605	324.3	15.1	-68.7	0.0
2026-01-17 19:15:42.097153	324.5	14.9	-68.8	0.0
2026-01-17 19:15:44.340708	324.8	14.7	-68.9	0.0
2026-01-17 19:15:46.584223	325.0	14.5	-68.9	0.0
2026-01-17 19:15:48.827739	325.3	14.3	-68.4	0.0
2026-01-17 19:15:51.071255	325.5	14.1	-68.3	0.0
2026-01-17 19:15:53.313786	325.8	13.9	-68.9	0.0
2026-01-17 19:15:55.558834	326.0	13.7	-68.9	0.0
2026-01-17 19:15:57.802851	326.3	13.5	-68.3	0.0
2026-01-17 19:16:00.049375	326.5	13.3	-68.4	0.0
2026-01-17 19:16:02.292928	326.7	13.1	-68.3	0.0
2026-01-17 19:16:04.536976	327.0	12.9	-68.2	0.0
2026-01-17 19:16:06.780499	327.2	12.7	-68.5	0.0
2026-01-17 19:16:09.024570	327.4	12.6	-68.4	0.0
2026-01-17 19:16:11.269582	327.6	12.4	-68.4	0.0
2026-01-17 19:16:13.514096	327.9	12.2	-68.0	0.0
2026-01-17 19:16:15.757145	328.1	12.0	-68.1	0.0
2026-01-17 19:16:17.999173	328.3	11.8	-67.9	0.0
2026-01-17 19:16:20.243680	328.5	11.6	-67.8	0.0
2026-01-17 19:16:22.487226	328.7	11.5	-67.9	0.0
2026-01-17 19:16:24.730760	328.9	11.3	-67.5	0.0
2026-01-17 19:16:26.973339	329.1	11.1	-67.8	0.0
2026-01-17 19:16:29.215374	329.3	10.9	-67.9	0.0
2026-01-17 19:16:31.460424	329.5	10.8	-67.5	0.0
2026-01-17 19:16:33.704435	329.7	10.6	-67.1	0.0
2026-01-17 19:16:35.948455	329.9	10.4	-67.3	0.0
2026-01-17 19:16:38.191503	330.1	10.2	-67.1	0.0
2026-01-17 19:16:40.436025	330.3	10.1	-66.8	0.0
2026-01-17 19:16:42.677093	330.5	9.9	-67.4	0.0
2026-01-17 19:16:44.920139	330.7	9.7	-67.3	0.0
2026-01-17 19:16:47.162197	330.9	9.5	-67.0	0.0
2026-01-17 19:16:49.404726	331.1	9.4	-67.1	0.0
2026-01-17 19:16:51.647775	331.3	9.2	-67.1	0.0
2026-01-17 19:16:53.890794	331.4	9.0	-67.4	0.0
2026-01-17 19:16:56.136813	331.6	8.9	-66.2	0.0
2026-01-17 19:16:58.380860	331.8	8.7	-67.1	0.0
2026-01-17 19:17:00.624383	332.0	8.5	-66.7	0.0
2026-01-17 19:17:02.868423	332.1	8.4	-66.6	0.0
2026-01-17 19:17:05.113451	332.3	8.2	-66.9	0.0
2026-01-17 19:17:07.357492	332.5	8.1	-66.6	0.0
2026-01-17 19:17:09.600023	332.6	7.9	-66.8	0.0
2026-01-17 19:17:11.841586	332.8	7.7	-67.0	0.0
2026-01-17 19:17:14.084632	333.0	7.6	-66.2	0.0
2026-01-17 19:17:16.329667	333.1	7.4	-66.4	0.0
2026-01-17 19:17:18.572237	333.3	7.3	-66.2	0.0
2026-01-17 19:17:20.813282	333.4	7.1	-66.5	0.0
2026-01-17 19:17:23.057821	333.6	7.0	-66.6	0.0
2026-01-17 19:17:25.301839	333.8	6.8	-66.4	0.0
2026-01-17 19:17:27.544393	333.9	6.6	-65.8	0.0
2026-01-17 19:17:29.789414	334.1	6.5	-65.4	0.0
2026-01-17 19:17:32.036922	334.2	6.3	-66.2	0.0
2026-01-17 19:17:34.281475	334.4	6.2	-65.7	0.0
2026-01-17 19:17:36.525021	334.5	6.0	-65.5	0.0
2026-01-17 19:17:38.767544	334.7	5.9	-67.4	0.0
2026-01-17 19:17:41.012059	334.8	5.7	-68.3	0.0
2026-01-17 19:17:43.256108	334.9	5.6	-69.6	0.0
2026-01-17 19:17:45.500136	335.1	5.4	-69.8	0.0
2026-01-17 19:17:47.743681	335.2	5.3	-69.1	0.0
2026-01-17 19:17:49.987692	335.4	5.1	-70.1	0.0
2026-01-17 19:17:52.231711	335.5	5.0	-69.0	0.0
#Closed at: 2026-01-17 19:05:39.911768