passes_logs/2026/01/17/PlanumMoscow/PlanumMoscow__20260117_122322_METEOR-M2_4_rec.log

#Pass ID: 20260117_122322_METEOR-M2 4
#Satellite: METEOR-M2 4
#Configuration: METEOR-M2 4
#Start time: 2026-01-17 12:23:27.787855

#LorettStation: 1.0.0 05.05.2024
#Station: PlanumMoscow
#Location: 37.6253844 lon 55.6713361 lat
#TLE: 1 59051U 24039A   25293.94737965  .00000087  00000+0  58459-4 0  9998
#TLE: 2 59051  98.6671 251.7071 0007726 135.4772 224.7028 14.22388966 85257

#Time	Az	El	Level	SNR
2026-01-17 12:27:06.209283	221.1	23.5	-60.8	0.0
2026-01-17 12:27:08.453839	221.6	23.7	-60.3	0.2
2026-01-17 12:27:10.696346	222.1	24.0	-61.9	5.0
2026-01-17 12:27:12.939852	222.5	24.2	-58.6	4.7
2026-01-17 12:27:15.182359	223.0	24.4	-62.8	6.3
2026-01-17 12:27:17.421865	223.5	24.7	-60.0	5.4
2026-01-17 12:27:19.664876	224.0	24.9	-58.4	0.0
2026-01-17 12:27:21.907391	224.5	25.1	-62.1	5.1
2026-01-17 12:27:24.152898	225.1	25.4	-62.6	6.0
2026-01-17 12:27:26.394908	225.6	25.6	-62.0	5.5
2026-01-17 12:27:28.638415	226.1	25.8	-62.9	4.8
2026-01-17 12:27:30.882427	226.7	26.0	-61.6	5.6
2026-01-17 12:27:33.126933	227.2	26.3	-62.2	4.7
2026-01-17 12:27:35.371440	227.8	26.5	-60.1	0.0
2026-01-17 12:27:37.615451	228.3	26.7	-61.9	5.6
2026-01-17 12:27:39.861968	228.9	26.9	-61.4	2.9
2026-01-17 12:27:42.111477	229.5	27.2	-62.1	3.1
2026-01-17 12:27:44.358984	230.1	27.4	-59.5	0.0
2026-01-17 12:27:46.603995	230.7	27.6	-61.0	5.0
2026-01-17 12:27:48.848502	231.3	27.8	-61.5	5.3
2026-01-17 12:27:51.093009	231.9	28.0	-61.3	4.0
2026-01-17 12:27:53.337516	232.5	28.3	-59.5	3.6
2026-01-17 12:27:55.581538	233.1	28.5	-59.9	2.3
2026-01-17 12:27:57.825549	233.8	28.7	-61.7	4.6
2026-01-17 12:28:00.070056	234.4	28.9	-61.4	1.4
2026-01-17 12:28:02.313067	235.1	29.1	-60.2	1.0
2026-01-17 12:28:04.557574	235.7	29.3	-60.5	2.4
2026-01-17 12:28:06.801081	236.4	29.5	-59.6	0.0
2026-01-17 12:28:09.045588	237.1	29.7	-60.9	1.1
2026-01-17 12:28:11.288104	237.8	29.9	-57.8	0.0
2026-01-17 12:28:13.532115	238.4	30.1	-59.1	0.0
2026-01-17 12:28:15.775631	239.2	30.3	-59.8	3.5
2026-01-17 12:28:18.018660	239.9	30.5	-59.2	1.8
2026-01-17 12:28:20.261681	240.6	30.7	-58.3	0.0
2026-01-17 12:28:22.503718	241.3	30.8	-58.4	0.0
2026-01-17 12:28:24.747234	242.0	31.0	-58.7	0.0
2026-01-17 12:28:26.989749	242.8	31.2	-60.5	1.6
2026-01-17 12:28:29.234274	243.5	31.3	-57.6	0.0
2026-01-17 12:28:31.477790	244.3	31.5	-58.3	0.0
2026-01-17 12:28:33.725802	245.0	31.7	-58.4	0.0
2026-01-17 12:28:35.967821	245.8	31.8	-58.8	0.0
2026-01-17 12:28:38.212328	246.6	32.0	-58.8	1.6
2026-01-17 12:28:40.454339	247.4	32.1	-59.5	1.5
2026-01-17 12:28:42.696855	248.2	32.2	-59.2	0.0
2026-01-17 12:28:44.937370	249.0	32.4	-59.1	0.0
2026-01-17 12:28:47.181877	249.8	32.5	-57.7	0.0
2026-01-17 12:28:49.422402	250.6	32.6	-59.0	0.0
2026-01-17 12:28:51.660438	251.4	32.7	-59.7	0.0
2026-01-17 12:28:53.901944	252.2	32.8	-61.7	3.9
2026-01-17 12:28:56.144476	253.0	32.9	-59.6	2.2
2026-01-17 12:28:58.388507	253.9	33.0	-60.9	2.5
2026-01-17 12:29:00.633023	254.7	33.1	-62.5	4.0
2026-01-17 12:29:02.877530	255.5	33.2	-63.4	4.4
2026-01-17 12:29:05.122046	256.4	33.3	-62.1	4.6
2026-01-17 12:29:07.365067	257.2	33.4	-62.3	1.8
2026-01-17 12:29:09.609079	258.1	33.4	-62.4	3.9
2026-01-17 12:29:11.852100	258.9	33.5	-62.0	3.5
2026-01-17 12:29:14.096606	259.8	33.5	-62.2	4.3
2026-01-17 12:29:16.347124	260.7	33.6	-62.4	4.7
2026-01-17 12:29:18.590135	261.5	33.6	-61.6	3.0
2026-01-17 12:29:20.835147	262.4	33.6	-62.9	6.5
2026-01-17 12:29:23.078158	263.3	33.7	-63.4	6.7
2026-01-17 12:29:25.320187	264.1	33.7	-64.4	7.9
2026-01-17 12:29:27.567220	265.0	33.7	-63.3	6.2
2026-01-17 12:29:29.814238	265.9	33.7	-62.6	3.9
2026-01-17 12:29:32.057250	266.7	33.7	-64.2	5.7
2026-01-17 12:29:34.298774	267.6	33.7	-63.4	5.7
2026-01-17 12:29:36.541307	268.4	33.7	-64.2	6.3
2026-01-17 12:29:38.784326	269.3	33.6	-63.0	4.5
2026-01-17 12:29:41.027833	270.2	33.6	-64.8	6.5
2026-01-17 12:29:43.273349	271.0	33.5	-62.9	7.1
2026-01-17 12:29:45.516369	271.9	33.5	-63.6	6.8
2026-01-17 12:29:47.759380	272.7	33.4	-62.4	5.1
2026-01-17 12:29:50.000399	273.6	33.4	-63.7	6.5
2026-01-17 12:29:52.241410	274.4	33.3	-64.1	6.0
2026-01-17 12:29:54.482933	275.3	33.2	-63.6	6.7
2026-01-17 12:29:56.720943	276.1	33.2	-63.4	5.2
2026-01-17 12:29:58.962458	277.0	33.1	-65.7	7.3
2026-01-17 12:30:01.203468	277.8	33.0	-65.0	6.0
2026-01-17 12:30:03.441982	278.6	32.9	-65.1	7.2
2026-01-17 12:30:05.685993	279.4	32.8	-64.9	5.5
2026-01-17 12:30:07.928066	280.2	32.6	-63.9	5.5
2026-01-17 12:30:10.173590	281.0	32.5	-65.6	8.1
2026-01-17 12:30:12.417150	281.9	32.4	-62.8	3.5
2026-01-17 12:30:14.660665	282.6	32.3	-64.5	8.2
2026-01-17 12:30:16.906684	283.4	32.1	-64.6	7.8
2026-01-17 12:30:19.150734	284.2	32.0	-65.1	8.8
2026-01-17 12:30:21.394261	285.0	31.8	-64.6	6.7
2026-01-17 12:30:23.637282	285.8	31.7	-64.8	6.2
2026-01-17 12:30:25.880325	286.5	31.5	-64.7	7.1
2026-01-17 12:30:28.127841	287.3	31.4	-65.2	7.4
2026-01-17 12:30:30.371408	288.0	31.2	-63.1	3.6
2026-01-17 12:30:32.614970	288.8	31.0	-65.8	7.4
2026-01-17 12:30:34.858047	289.5	30.9	-66.1	8.6
2026-01-17 12:30:37.102075	290.2	30.7	-66.4	9.1
2026-01-17 12:30:39.345628	290.9	30.5	-65.9	8.5
2026-01-17 12:30:41.589657	291.7	30.3	-65.8	8.7
2026-01-17 12:30:43.833172	292.4	30.1	-64.9	7.9
2026-01-17 12:30:46.077230	293.0	30.0	-65.7	9.0
2026-01-17 12:30:48.320747	293.7	29.8	-66.1	10.7
2026-01-17 12:30:50.566272	294.4	29.6	-65.5	9.0
2026-01-17 12:30:52.810291	295.1	29.4	-66.0	9.8
2026-01-17 12:30:55.053837	295.7	29.2	-66.3	10.2
2026-01-17 12:30:57.296866	296.4	29.0	-65.6	8.3
2026-01-17 12:30:59.541391	297.0	28.7	-66.7	9.7
2026-01-17 12:31:01.784449	297.7	28.5	-67.0	11.2
2026-01-17 12:31:04.028461	298.3	28.3	-66.0	9.7
2026-01-17 12:31:06.276979	298.9	28.1	-66.6	11.3
2026-01-17 12:31:08.521543	299.5	27.9	-66.7	11.4
2026-01-17 12:31:10.765098	300.1	27.7	-65.6	10.0
2026-01-17 12:31:13.009118	300.7	27.5	-65.3	8.4
2026-01-17 12:31:15.253684	301.3	27.2	-65.9	10.2
2026-01-17 12:31:17.497694	301.9	27.0	-66.2	10.6
2026-01-17 12:31:19.741713	302.5	26.8	-65.7	7.9
2026-01-17 12:31:21.988294	303.0	26.6	-67.0	10.9
2026-01-17 12:31:24.232331	303.6	26.3	-67.4	11.2
2026-01-17 12:31:26.474883	304.1	26.1	-66.2	8.9
2026-01-17 12:31:28.718407	304.7	25.9	-66.4	10.3
2026-01-17 12:31:30.964973	305.2	25.7	-66.8	10.2
2026-01-17 12:31:33.208488	305.7	25.4	-66.8	10.4
2026-01-17 12:31:35.452042	306.2	25.2	-67.1	11.1
2026-01-17 12:31:37.694589	306.8	25.0	-66.6	10.0
2026-01-17 12:31:39.940123	307.3	24.8	-66.5	9.2
2026-01-17 12:31:42.181684	307.7	24.5	-66.9	11.4
2026-01-17 12:31:44.425199	308.2	24.3	-66.9	10.9
2026-01-17 12:31:46.673221	308.7	24.1	-67.1	11.3
2026-01-17 12:31:48.916289	309.2	23.8	-67.0	11.4
2026-01-17 12:31:51.160300	309.7	23.6	-66.7	10.5
2026-01-17 12:31:53.404345	310.1	23.4	-66.9	11.1
2026-01-17 12:31:55.648374	310.6	23.2	-67.6	11.4
2026-01-17 12:31:57.891902	311.0	22.9	-67.4	11.6
2026-01-17 12:32:00.135467	311.5	22.7	-67.4	11.2
2026-01-17 12:32:02.380991	311.9	22.5	-66.7	10.6
2026-01-17 12:32:04.622043	312.3	22.2	-66.4	10.8
2026-01-17 12:32:06.863617	312.8	22.0	-67.1	10.9
2026-01-17 12:32:09.108141	313.2	21.8	-67.1	12.6
2026-01-17 12:32:11.354696	313.6	21.6	-67.2	10.7
2026-01-17 12:32:13.597220	314.0	21.3	-66.3	11.7
2026-01-17 12:32:15.841263	314.4	21.1	-67.1	11.7
2026-01-17 12:32:18.085283	314.8	20.9	-66.8	11.2
2026-01-17 12:32:20.328806	315.2	20.7	-67.5	11.0
2026-01-17 12:32:22.571857	315.6	20.4	-66.9	11.1
2026-01-17 12:32:24.815868	315.9	20.2	-67.2	9.6
2026-01-17 12:32:27.058430	316.3	20.0	-67.0	11.8
2026-01-17 12:32:29.306946	316.7	19.8	-66.5	10.7
2026-01-17 12:32:31.551453	317.0	19.6	-66.9	9.9
2026-01-17 12:32:33.795496	317.4	19.3	-66.9	10.7
2026-01-17 12:32:36.041524	317.8	19.1	-67.1	10.1
2026-01-17 12:32:38.285082	318.1	18.9	-67.1	11.0
2026-01-17 12:32:40.529102	318.4	18.7	-66.6	10.7
2026-01-17 12:32:42.774649	318.8	18.5	-66.8	10.5
2026-01-17 12:32:45.018189	319.1	18.3	-66.9	10.3
2026-01-17 12:32:47.262209	319.4	18.1	-66.8	10.2
2026-01-17 12:32:49.506260	319.8	17.8	-67.0	10.7
2026-01-17 12:32:51.749291	320.1	17.6	-66.7	11.5
2026-01-17 12:32:53.991837	320.4	17.4	-67.5	11.3
2026-01-17 12:32:56.233409	320.7	17.2	-67.1	10.9
2026-01-17 12:32:58.476934	321.0	17.0	-67.1	11.2
2026-01-17 12:33:00.719954	321.3	16.8	-66.1	6.9
2026-01-17 12:33:02.963529	321.6	16.6	-67.0	10.0
2026-01-17 12:33:05.210036	321.9	16.4	-67.3	9.8
2026-01-17 12:33:07.454056	322.2	16.2	-67.3	9.7
2026-01-17 12:33:09.697114	322.5	16.0	-67.2	9.3
2026-01-17 12:33:11.939678	322.8	15.8	-67.1	9.6
2026-01-17 12:33:14.184185	323.1	15.6	-67.0	9.0
2026-01-17 12:33:16.428214	323.3	15.4	-67.0	10.0
2026-01-17 12:33:18.671770	323.6	15.2	-66.5	8.7
2026-01-17 12:33:20.915782	323.9	15.0	-66.9	8.9
2026-01-17 12:33:23.159802	324.2	14.8	-67.0	8.4
2026-01-17 12:33:25.402888	324.4	14.6	-67.3	8.8
2026-01-17 12:33:27.646908	324.7	14.4	-67.1	8.8
2026-01-17 12:33:29.892489	324.9	14.2	-67.4	8.9
2026-01-17 12:33:32.137529	325.2	14.0	-67.3	8.9
2026-01-17 12:33:34.380595	325.4	13.8	-66.9	8.2
2026-01-17 12:33:36.623622	325.7	13.6	-66.9	9.4
2026-01-17 12:33:38.866146	325.9	13.4	-67.0	9.4
2026-01-17 12:33:41.108206	326.2	13.2	-66.3	8.1
2026-01-17 12:33:43.356276	326.4	13.1	-66.4	8.0
2026-01-17 12:33:45.601793	326.6	12.9	-66.5	9.1
2026-01-17 12:33:47.845325	326.9	12.7	-66.9	8.9
2026-01-17 12:33:50.088376	327.1	12.5	-66.6	7.4
2026-01-17 12:33:52.331900	327.3	12.3	-66.6	7.2
2026-01-17 12:33:54.575910	327.6	12.1	-67.0	8.2
2026-01-17 12:33:56.820456	327.8	12.0	-66.9	9.1
2026-01-17 12:33:59.065989	328.0	11.8	-66.4	8.2
2026-01-17 12:34:01.310046	328.2	11.6	-66.4	7.5
2026-01-17 12:34:03.556066	328.4	11.4	-66.6	8.1
2026-01-17 12:34:05.799606	328.6	11.2	-66.5	9.0
2026-01-17 12:34:08.045634	328.8	11.1	-66.7	9.4
2026-01-17 12:34:10.288692	329.1	10.9	-66.4	8.2
2026-01-17 12:34:12.532216	329.3	10.7	-66.4	7.7
2026-01-17 12:34:14.776731	329.5	10.5	-65.9	7.1
2026-01-17 12:34:17.018313	329.7	10.4	-66.4	8.2
2026-01-17 12:34:19.261340	329.9	10.2	-67.0	7.6
2026-01-17 12:34:21.504904	330.1	10.0	-67.2	8.3
2026-01-17 12:34:23.750428	330.2	9.9	-67.4	7.9
2026-01-17 12:34:25.994478	330.4	9.7	-66.5	7.9
2026-01-17 12:34:28.238004	330.6	9.5	-66.7	8.2
2026-01-17 12:34:30.481559	330.8	9.3	-65.7	5.6
2026-01-17 12:34:32.727581	331.0	9.2	-66.9	5.7
2026-01-17 12:34:34.971602	331.2	9.0	-67.0	7.1
2026-01-17 12:34:37.215650	331.4	8.9	-66.9	7.0
2026-01-17 12:34:39.461670	331.5	8.7	-66.5	7.4
2026-01-17 12:34:41.704742	331.7	8.5	-67.1	5.8
2026-01-17 12:34:43.948265	331.9	8.4	-67.1	5.3
2026-01-17 12:34:46.191814	332.1	8.2	-66.3	5.1
2026-01-17 12:34:48.435329	332.2	8.0	-66.5	6.5
2026-01-17 12:34:50.678852	332.4	7.9	-66.7	3.7
2026-01-17 12:34:52.922415	332.6	7.7	-65.8	0.6
2026-01-17 12:34:55.166444	332.7	7.6	-66.0	6.0
2026-01-17 12:34:57.410493	332.9	7.4	-65.8	6.5
2026-01-17 12:34:59.655008	333.1	7.3	-66.1	4.1
2026-01-17 12:35:01.900058	333.2	7.1	-65.7	3.6
2026-01-17 12:35:04.143087	333.4	6.9	-66.1	5.3
2026-01-17 12:35:06.388602	333.6	6.8	-65.4	6.0
2026-01-17 12:35:08.632141	333.7	6.6	-65.6	1.1
2026-01-17 12:35:10.875697	333.9	6.5	-65.9	3.1
2026-01-17 12:35:13.119766	334.0	6.3	-66.5	5.1
2026-01-17 12:35:15.363300	334.2	6.2	-66.1	0.7
2026-01-17 12:35:17.606867	334.3	6.0	-66.3	4.4
2026-01-17 12:35:19.849400	334.5	5.9	-68.5	0.0
2026-01-17 12:35:22.093411	334.6	5.7	-67.9	0.0
2026-01-17 12:35:24.335977	334.8	5.6	-69.9	0.0
2026-01-17 12:35:26.579044	334.9	5.4	-68.1	0.0
2026-01-17 12:35:28.828056	335.1	5.3	-70.4	0.0
2026-01-17 12:35:31.071086	335.2	5.1	-69.1	0.0
2026-01-17 12:35:33.317128	335.3	5.0	-69.6	0.0
#Closed at: 2026-01-17 12:23:22.789849