passes_logs/2026/01/17/PlanumMoscow/PlanumMoscow__20260117_182805_METOP-B_rec.log

#Pass ID: 20260117_182805_METOP-B
#Satellite: METOP-B
#Configuration: METOP-B
#Start time: 2026-01-17 18:28:10.930694

#LorettStation: 1.0.0 05.05.2024
#Station: PlanumMoscow
#Location: 37.6253844 lon 55.6713361 lat
#TLE: 1 38771U 12049A   25293.92766658  .00000266  00000+0  14193-3 0  9996
#TLE: 2 38771  98.6882 344.7603 0001609 341.5209  18.5909 14.21379342679275

#Time	Az	El	Level	SNR
2026-01-17 18:31:49.383940	214.7	24.7	-62.4	4.7
2026-01-17 18:31:51.627521	215.2	25.0	-60.6	0.0
2026-01-17 18:31:53.871583	215.6	25.3	-62.0	0.0
2026-01-17 18:31:56.115602	216.1	25.5	-62.0	4.4
2026-01-17 18:31:58.359118	216.6	25.8	-60.8	1.5
2026-01-17 18:32:00.601673	217.1	26.1	-62.2	2.5
2026-01-17 18:32:02.844701	217.6	26.3	-62.4	1.2
2026-01-17 18:32:05.087763	218.0	26.6	-60.3	0.0
2026-01-17 18:32:07.330782	218.6	26.9	-58.7	0.0
2026-01-17 18:32:09.573875	219.1	27.1	-60.1	0.0
2026-01-17 18:32:11.816910	219.6	27.4	-58.4	0.0
2026-01-17 18:32:14.059969	220.1	27.7	-60.0	0.0
2026-01-17 18:32:16.301998	220.7	27.9	-60.3	0.0
2026-01-17 18:32:18.544531	221.2	28.2	-60.0	0.0
2026-01-17 18:32:20.787581	221.8	28.5	-60.5	0.0
2026-01-17 18:32:23.031115	222.3	28.8	-60.3	0.0
2026-01-17 18:32:25.276670	222.9	29.0	-61.4	0.0
2026-01-17 18:32:27.520194	223.5	29.3	-60.1	0.0
2026-01-17 18:32:29.762759	224.1	29.6	-61.4	0.0
2026-01-17 18:32:32.006779	224.7	29.8	-60.3	0.0
2026-01-17 18:32:34.251297	225.3	30.1	-60.4	0.0
2026-01-17 18:32:36.494845	225.9	30.4	-60.2	0.0
2026-01-17 18:32:38.739360	226.6	30.6	-58.2	0.0
2026-01-17 18:32:40.982420	227.2	30.9	-60.8	0.0
2026-01-17 18:32:43.226936	227.9	31.1	-62.0	0.0
2026-01-17 18:32:45.470475	228.5	31.4	-61.1	0.0
2026-01-17 18:32:47.714000	229.2	31.6	-62.4	0.0
2026-01-17 18:32:49.958011	229.9	31.9	-60.9	0.0
2026-01-17 18:32:52.200071	230.6	32.2	-62.0	0.0
2026-01-17 18:32:54.444627	231.3	32.4	-61.7	0.0
2026-01-17 18:32:56.688647	232.0	32.6	-61.9	0.0
2026-01-17 18:32:58.931217	232.7	32.9	-60.5	0.0
2026-01-17 18:33:01.174732	233.5	33.1	-61.3	0.0
2026-01-17 18:33:03.417759	234.2	33.4	-60.9	0.0
2026-01-17 18:33:05.661811	235.0	33.6	-61.3	0.0
2026-01-17 18:33:07.904838	235.8	33.8	-61.0	0.0
2026-01-17 18:33:10.148386	236.6	34.0	-61.8	0.0
2026-01-17 18:33:12.391940	237.3	34.3	-59.8	0.0
2026-01-17 18:33:14.639465	238.2	34.5	-60.8	0.0
2026-01-17 18:33:16.883012	239.0	34.7	-58.3	0.0
2026-01-17 18:33:19.127031	239.8	34.9	-60.9	0.0
2026-01-17 18:33:21.370075	240.6	35.1	-59.4	0.0
2026-01-17 18:33:23.614095	241.5	35.3	-59.4	0.0
2026-01-17 18:33:25.858138	242.3	35.5	-58.4	0.0
2026-01-17 18:33:28.102158	243.2	35.7	-57.6	0.0
2026-01-17 18:33:30.345177	244.1	35.8	-60.1	0.0
2026-01-17 18:33:32.588725	244.9	36.0	-59.5	0.0
2026-01-17 18:33:34.833248	245.8	36.2	-59.6	0.0
2026-01-17 18:33:37.075300	246.7	36.3	-60.1	0.0
2026-01-17 18:33:39.319330	247.6	36.5	-60.1	0.0
2026-01-17 18:33:41.563372	248.6	36.6	-58.8	0.0
2026-01-17 18:33:43.806888	249.5	36.8	-59.6	0.0
2026-01-17 18:33:46.053463	250.4	36.9	-60.6	0.0
2026-01-17 18:33:48.296988	251.4	37.0	-60.2	0.0
2026-01-17 18:33:50.540502	252.3	37.1	-61.0	0.0
2026-01-17 18:33:52.784553	253.3	37.2	-61.1	0.0
2026-01-17 18:33:55.028076	254.2	37.3	-63.0	0.0
2026-01-17 18:33:57.272137	255.2	37.4	-61.6	0.0
2026-01-17 18:33:59.515172	256.1	37.5	-60.7	0.0
2026-01-17 18:34:01.760225	257.1	37.5	-61.5	0.0
2026-01-17 18:34:04.002302	258.1	37.6	-60.3	0.0
2026-01-17 18:34:06.246340	259.1	37.7	-62.0	0.0
2026-01-17 18:34:08.489383	260.0	37.7	-61.3	0.0
2026-01-17 18:34:10.737909	261.0	37.7	-60.6	0.0
2026-01-17 18:34:12.982457	262.0	37.8	-62.1	0.0
2026-01-17 18:34:15.225973	263.0	37.8	-62.1	0.0
2026-01-17 18:34:17.474574	264.0	37.8	-63.3	0.0
2026-01-17 18:34:19.718106	265.0	37.8	-63.3	0.0
2026-01-17 18:34:21.962613	266.0	37.8	-63.3	0.0
2026-01-17 18:34:24.206671	266.9	37.7	-63.7	0.0
2026-01-17 18:34:26.450722	267.9	37.7	-64.6	0.0
2026-01-17 18:34:28.694238	268.9	37.6	-62.6	0.0
2026-01-17 18:34:30.937762	269.9	37.6	-64.7	0.6
2026-01-17 18:34:33.180834	270.8	37.5	-64.1	0.0
2026-01-17 18:34:35.423879	271.8	37.5	-63.9	0.0
2026-01-17 18:34:37.665946	272.8	37.4	-64.3	0.0
2026-01-17 18:34:39.908486	273.7	37.3	-62.9	0.0
2026-01-17 18:34:42.152002	274.7	37.2	-64.3	0.0
2026-01-17 18:34:44.395556	275.6	37.1	-63.8	0.0
2026-01-17 18:34:46.640071	276.6	37.0	-64.1	0.0
2026-01-17 18:34:48.883627	277.5	36.9	-63.7	0.0
2026-01-17 18:34:51.127646	278.4	36.7	-64.8	1.5
2026-01-17 18:34:53.371201	279.4	36.6	-62.2	0.0
2026-01-17 18:34:55.614716	280.3	36.5	-64.0	0.0
2026-01-17 18:34:57.858271	281.2	36.3	-64.4	0.0
2026-01-17 18:35:00.101291	282.1	36.2	-64.3	0.0
2026-01-17 18:35:02.346808	283.0	36.0	-63.5	0.0
2026-01-17 18:35:04.589876	283.8	35.8	-64.0	0.0
2026-01-17 18:35:06.833895	284.7	35.6	-64.8	2.9
2026-01-17 18:35:09.075955	285.6	35.5	-64.5	1.4
2026-01-17 18:35:11.320471	286.4	35.3	-64.5	1.9
2026-01-17 18:35:13.562539	287.3	35.1	-63.8	0.0
2026-01-17 18:35:15.808063	288.1	34.9	-63.7	2.2
2026-01-17 18:35:18.052570	288.9	34.7	-65.7	4.2
2026-01-17 18:35:20.295631	289.7	34.5	-65.3	2.9
2026-01-17 18:35:22.538172	290.5	34.2	-64.9	4.0
2026-01-17 18:35:24.782728	291.3	34.0	-64.6	4.0
2026-01-17 18:35:27.024764	292.1	33.8	-64.9	3.5
2026-01-17 18:35:29.267334	292.9	33.6	-65.1	4.3
2026-01-17 18:35:31.510902	293.6	33.3	-64.2	3.1
2026-01-17 18:35:33.754466	294.4	33.1	-65.2	5.2
2026-01-17 18:35:35.998486	295.1	32.9	-65.3	4.3
2026-01-17 18:35:38.243002	295.8	32.6	-65.2	4.6
2026-01-17 18:35:40.487565	296.5	32.4	-65.0	3.3
2026-01-17 18:35:42.731090	297.2	32.1	-65.8	4.6
2026-01-17 18:35:44.974653	297.9	31.9	-66.2	4.2
2026-01-17 18:35:47.217196	298.6	31.6	-65.6	3.7
2026-01-17 18:35:49.461240	299.3	31.4	-66.2	3.5
2026-01-17 18:35:51.704763	300.0	31.1	-66.3	3.8
2026-01-17 18:35:53.948774	300.6	30.9	-66.3	4.5
2026-01-17 18:35:56.192809	301.2	30.6	-66.6	4.3
2026-01-17 18:35:58.434846	301.9	30.3	-65.4	2.8
2026-01-17 18:36:00.678410	302.5	30.1	-65.9	4.0
2026-01-17 18:36:02.921935	303.1	29.8	-65.9	4.4
2026-01-17 18:36:05.166474	303.7	29.5	-65.2	2.7
2026-01-17 18:36:07.410997	304.3	29.3	-65.9	4.6
2026-01-17 18:36:09.654553	304.9	29.0	-66.1	4.6
2026-01-17 18:36:11.897583	305.5	28.7	-65.9	3.5
2026-01-17 18:36:14.141137	306.0	28.5	-66.3	5.5
2026-01-17 18:36:16.384717	306.6	28.2	-65.6	4.1
2026-01-17 18:36:18.629266	307.1	27.9	-66.2	4.6
2026-01-17 18:36:20.873772	307.7	27.7	-65.6	5.4
2026-01-17 18:36:23.118296	308.2	27.4	-65.7	5.5
2026-01-17 18:36:25.360375	308.7	27.1	-65.6	5.9
2026-01-17 18:36:27.602545	309.2	26.9	-65.6	6.5
2026-01-17 18:36:29.845596	309.7	26.6	-65.3	6.0
2026-01-17 18:36:32.088120	310.2	26.3	-65.5	6.1
2026-01-17 18:36:34.332645	310.7	26.1	-65.4	5.4
2026-01-17 18:36:36.576209	311.2	25.8	-65.5	5.9
2026-01-17 18:36:38.820230	311.6	25.6	-65.6	6.3
2026-01-17 18:36:41.063272	312.1	25.3	-65.8	6.3
2026-01-17 18:36:43.307797	312.6	25.0	-65.5	6.0
2026-01-17 18:36:45.551312	313.0	24.8	-65.8	5.7
2026-01-17 18:36:47.794827	313.4	24.5	-65.4	4.1
2026-01-17 18:36:50.037352	313.9	24.2	-65.6	5.6
2026-01-17 18:36:52.282859	314.3	24.0	-65.8	5.6
2026-01-17 18:36:54.525879	314.7	23.7	-65.9	6.1
2026-01-17 18:36:56.769395	315.1	23.5	-65.5	6.1
2026-01-17 18:36:59.015415	315.5	23.2	-65.9	5.8
2026-01-17 18:37:01.259922	315.9	23.0	-65.7	5.8
2026-01-17 18:37:03.503992	316.3	22.7	-65.7	5.7
2026-01-17 18:37:05.747012	316.7	22.4	-66.1	4.3
2026-01-17 18:37:07.989544	317.1	22.2	-65.9	2.7
2026-01-17 18:37:10.231100	317.5	21.9	-66.6	5.2
2026-01-17 18:37:12.473641	317.8	21.7	-66.0	4.1
2026-01-17 18:37:14.717165	318.2	21.5	-66.3	4.1
2026-01-17 18:37:16.961216	318.6	21.2	-65.8	3.9
2026-01-17 18:37:19.205236	318.9	21.0	-66.4	3.5
2026-01-17 18:37:21.449781	319.3	20.7	-66.1	4.3
2026-01-17 18:37:23.693315	319.6	20.5	-65.7	4.8
2026-01-17 18:37:25.936853	319.9	20.2	-66.1	4.2
2026-01-17 18:37:28.181369	320.3	20.0	-65.5	4.0
2026-01-17 18:37:30.422417	320.6	19.8	-66.3	4.8
2026-01-17 18:37:32.665478	320.9	19.5	-66.2	5.3
2026-01-17 18:37:34.909001	321.2	19.3	-65.9	4.9
2026-01-17 18:37:37.152540	321.6	19.1	-65.6	3.6
2026-01-17 18:37:39.401064	321.9	18.8	-65.7	5.3
2026-01-17 18:37:41.645075	322.2	18.6	-65.7	5.4
2026-01-17 18:37:43.889129	322.5	18.4	-65.6	3.1
2026-01-17 18:37:46.132659	322.8	18.1	-65.3	4.8
2026-01-17 18:37:48.376206	323.0	17.9	-65.4	3.3
2026-01-17 18:37:50.618242	323.3	17.7	-65.3	3.3
2026-01-17 18:37:52.862302	323.6	17.5	-65.5	4.9
2026-01-17 18:37:55.105826	323.9	17.2	-65.6	3.7
2026-01-17 18:37:57.349341	324.2	17.0	-65.4	4.8
2026-01-17 18:37:59.592897	324.4	16.8	-65.4	4.3
2026-01-17 18:38:01.835925	324.7	16.6	-65.0	4.2
2026-01-17 18:38:04.080470	325.0	16.4	-65.2	4.4
2026-01-17 18:38:06.323986	325.2	16.1	-65.7	5.8
2026-01-17 18:38:08.567511	325.5	15.9	-65.9	4.5
2026-01-17 18:38:10.819020	325.7	15.7	-66.0	4.3
2026-01-17 18:38:13.063561	326.0	15.5	-66.1	5.3
2026-01-17 18:38:15.307572	326.2	15.3	-66.2	4.6
2026-01-17 18:38:17.551105	326.5	15.1	-66.2	4.6
2026-01-17 18:38:19.794652	326.7	14.9	-66.5	4.3
2026-01-17 18:38:22.036690	326.9	14.7	-66.0	4.2
2026-01-17 18:38:24.279711	327.2	14.5	-66.0	3.2
2026-01-17 18:38:26.520798	327.4	14.3	-66.3	4.4
2026-01-17 18:38:28.764328	327.6	14.1	-66.3	3.8
2026-01-17 18:38:31.007876	327.9	13.9	-66.3	3.2
2026-01-17 18:38:33.251404	328.1	13.7	-66.5	3.2
2026-01-17 18:38:35.495448	328.3	13.5	-66.4	3.3
2026-01-17 18:38:37.739964	328.5	13.3	-66.1	1.5
2026-01-17 18:38:39.983983	328.7	13.1	-66.3	2.3
2026-01-17 18:38:42.226538	328.9	12.9	-66.3	3.3
2026-01-17 18:38:44.471063	329.1	12.7	-66.0	2.6
2026-01-17 18:38:46.712630	329.3	12.5	-66.3	3.3
2026-01-17 18:38:48.955660	329.5	12.3	-66.2	2.8
2026-01-17 18:38:51.197205	329.7	12.1	-65.9	2.8
2026-01-17 18:38:53.441768	329.9	11.9	-66.0	3.5
2026-01-17 18:38:55.685291	330.1	11.7	-65.5	1.6
2026-01-17 18:38:57.928342	330.3	11.6	-66.0	3.2
2026-01-17 18:39:00.172354	330.5	11.4	-66.1	2.4
2026-01-17 18:39:02.416909	330.7	11.2	-66.2	2.6
2026-01-17 18:39:04.660929	330.9	11.0	-65.6	2.1
2026-01-17 18:39:06.903484	331.1	10.8	-65.9	3.9
2026-01-17 18:39:09.147503	331.3	10.6	-65.8	2.2
2026-01-17 18:39:11.389562	331.4	10.5	-65.4	0.6
2026-01-17 18:39:13.634068	331.6	10.3	-65.9	0.9
2026-01-17 18:39:15.877583	331.8	10.1	-65.5	0.4
2026-01-17 18:39:18.121595	332.0	9.9	-65.8	1.3
2026-01-17 18:39:20.364119	332.1	9.8	-65.7	2.6
2026-01-17 18:39:22.607634	332.3	9.6	-65.9	2.9
2026-01-17 18:39:24.850663	332.5	9.4	-65.5	2.1
2026-01-17 18:39:27.094682	332.6	9.2	-65.7	1.6
2026-01-17 18:39:29.337702	332.8	9.1	-65.7	3.0
2026-01-17 18:39:31.582209	333.0	8.9	-65.4	2.1
2026-01-17 18:39:33.826229	333.1	8.7	-65.7	2.8
2026-01-17 18:39:36.070249	333.3	8.6	-65.8	2.5
2026-01-17 18:39:38.314756	333.4	8.4	-66.0	0.3
2026-01-17 18:39:40.556297	333.6	8.2	-65.3	0.0
2026-01-17 18:39:42.800803	333.7	8.1	-65.5	0.0
2026-01-17 18:39:45.044319	333.9	7.9	-65.4	0.0
2026-01-17 18:39:47.287339	334.0	7.7	-65.3	0.4
2026-01-17 18:39:49.530369	334.2	7.6	-64.5	1.0
2026-01-17 18:39:51.772894	334.3	7.4	-64.6	0.0
2026-01-17 18:39:54.023915	334.5	7.2	-64.9	0.0
2026-01-17 18:39:56.266936	334.6	7.1	-64.7	1.0
2026-01-17 18:39:58.511948	334.8	6.9	-65.0	0.0
2026-01-17 18:40:00.752454	334.9	6.8	-65.5	0.0
2026-01-17 18:40:02.996465	335.1	6.6	-65.7	0.0
2026-01-17 18:40:05.240505	335.2	6.5	-64.2	0.0
2026-01-17 18:40:07.484516	335.3	6.3	-65.1	0.0
2026-01-17 18:40:09.727537	335.5	6.1	-65.4	0.0
2026-01-17 18:40:11.968060	335.6	6.0	-67.5	0.0
2026-01-17 18:40:14.203582	335.7	5.8	-68.2	0.0
2026-01-17 18:40:16.437591	335.9	5.7	-68.1	0.0
2026-01-17 18:40:18.671600	336.0	5.5	-69.1	0.0
2026-01-17 18:40:20.901617	336.1	5.4	-68.4	0.0
2026-01-17 18:40:23.134130	336.2	5.2	-68.0	0.0
2026-01-17 18:40:25.362651	336.4	5.1	-68.4	0.0
#Closed at: 2026-01-17 18:28:05.932179