passes_logs/2026/01/17/PlanumMoscow/PlanumMoscow__20260117_172507_METOP-C_rec.log

#Pass ID: 20260117_172507_METOP-C
#Satellite: METOP-C
#Configuration: METOP-C
#Start time: 2026-01-17 17:25:12.353134

#LorettStation: 1.0.0 05.05.2024
#Station: PlanumMoscow
#Location: 37.6253844 lon 55.6713361 lat
#TLE: 1 43689U 18087A   25293.88981035  .00000265  00000+0  14109-3 0  9997
#TLE: 2 43689  98.7006 352.4487 0002041 122.1097 238.0279 14.21482740360838

#Time	Az	El	Level	SNR
2026-01-17 17:28:50.801525	126.1	27.7	-64.3	0.0
2026-01-17 17:28:53.043032	125.8	28.1	-66.5	0.9
2026-01-17 17:28:55.277536	125.4	28.4	-67.2	1.2
2026-01-17 17:28:57.513041	125.1	28.8	-65.4	0.4
2026-01-17 17:28:59.748050	124.7	29.2	-66.0	1.9
2026-01-17 17:29:01.983555	124.4	29.5	-66.1	3.7
2026-01-17 17:29:04.220060	124.0	29.9	-66.1	0.0
2026-01-17 17:29:06.453564	123.6	30.3	-66.0	0.0
2026-01-17 17:29:08.687573	123.2	30.6	-66.6	1.4
2026-01-17 17:29:10.926078	122.8	31.0	-66.4	0.0
2026-01-17 17:29:13.159583	122.4	31.4	-66.8	0.0
2026-01-17 17:29:15.391591	121.9	31.8	-65.9	0.0
2026-01-17 17:29:17.625096	121.5	32.2	-67.0	0.0
2026-01-17 17:29:19.861601	121.0	32.6	-65.4	0.0
2026-01-17 17:29:22.094609	120.6	33.0	-64.2	0.0
2026-01-17 17:29:24.328114	120.1	33.4	-64.3	0.0
2026-01-17 17:29:26.564619	119.6	33.8	-65.1	0.0
2026-01-17 17:29:28.797627	119.1	34.2	-66.4	0.0
2026-01-17 17:29:31.032131	118.6	34.6	-66.8	0.0
2026-01-17 17:29:33.267637	118.1	35.0	-67.0	0.0
2026-01-17 17:29:35.498645	117.6	35.4	-66.7	0.0
2026-01-17 17:29:37.742151	117.0	35.8	-66.1	0.0
2026-01-17 17:29:39.984667	116.5	36.3	-65.7	0.0
2026-01-17 17:29:42.226173	115.9	36.7	-66.6	0.0
2026-01-17 17:29:44.463183	115.3	37.1	-64.6	0.0
2026-01-17 17:29:46.699688	114.7	37.5	-67.4	0.0
2026-01-17 17:29:48.937193	114.0	38.0	-66.4	0.0
2026-01-17 17:29:51.171201	113.4	38.4	-67.6	0.0
2026-01-17 17:29:53.405706	112.7	38.8	-66.9	0.0
2026-01-17 17:29:55.641211	112.1	39.2	-67.4	0.0
2026-01-17 17:29:57.875715	111.4	39.7	-67.0	0.0
2026-01-17 17:30:00.109220	110.7	40.1	-66.9	0.0
2026-01-17 17:30:02.345229	109.9	40.5	-66.1	0.0
2026-01-17 17:30:04.589735	109.2	41.0	-66.9	0.0
2026-01-17 17:30:06.833784	108.4	41.4	-65.9	0.0
2026-01-17 17:30:09.081805	107.6	41.8	-67.6	0.0
2026-01-17 17:30:11.325838	106.8	42.3	-66.7	0.0
2026-01-17 17:30:13.570345	105.9	42.7	-64.7	0.0
2026-01-17 17:30:15.814860	105.1	43.1	-67.4	0.0
2026-01-17 17:30:18.060407	104.2	43.5	-65.6	0.0
2026-01-17 17:30:20.303929	103.3	43.9	-65.5	0.0
2026-01-17 17:30:22.549475	102.3	44.4	-66.4	0.0
2026-01-17 17:30:24.798494	101.4	44.8	-68.1	0.0
2026-01-17 17:30:27.043536	100.4	45.2	-67.5	0.0
2026-01-17 17:30:29.288052	99.4	45.6	-66.5	0.0
2026-01-17 17:30:31.533063	98.3	46.0	-67.5	0.0
2026-01-17 17:30:33.778617	97.3	46.4	-66.8	0.0
2026-01-17 17:30:36.023133	96.2	46.7	-66.8	0.0
2026-01-17 17:30:38.267173	95.0	47.1	-67.8	0.0
2026-01-17 17:30:40.511192	93.9	47.5	-66.3	0.0
2026-01-17 17:30:42.756736	92.7	47.8	-67.4	0.0
2026-01-17 17:30:45.000758	91.5	48.2	-65.8	0.0
2026-01-17 17:30:47.244800	90.3	48.5	-66.2	0.0
2026-01-17 17:30:49.492315	89.1	48.8	-65.3	0.0
2026-01-17 17:30:51.736830	87.8	49.1	-65.7	0.0
2026-01-17 17:30:53.980887	86.5	49.4	-65.7	0.0
2026-01-17 17:30:56.225402	85.2	49.7	-65.1	0.0
2026-01-17 17:30:58.468452	83.8	49.9	-65.7	0.0
2026-01-17 17:31:00.712959	82.5	50.2	-65.7	0.0
2026-01-17 17:31:02.957008	81.1	50.4	-66.1	0.0
2026-01-17 17:31:05.200523	79.7	50.6	-66.2	0.0
2026-01-17 17:31:07.445037	78.2	50.8	-65.6	0.0
2026-01-17 17:31:09.689585	76.8	51.0	-64.3	0.0
2026-01-17 17:31:11.934100	75.3	51.2	-63.5	0.0
2026-01-17 17:31:14.178648	73.8	51.3	-65.4	0.0
2026-01-17 17:31:16.423162	72.3	51.4	-63.8	0.0
2026-01-17 17:31:18.667677	70.8	51.5	-64.4	0.0
2026-01-17 17:31:20.912710	69.3	51.6	-64.4	0.0
2026-01-17 17:31:23.156235	67.8	51.6	-64.5	0.0
2026-01-17 17:31:25.400780	66.3	51.7	-63.5	0.0
2026-01-17 17:31:27.645296	64.8	51.7	-63.6	0.0
2026-01-17 17:31:29.889346	63.2	51.7	-63.3	0.0
2026-01-17 17:31:32.133890	61.7	51.7	-63.5	0.0
2026-01-17 17:31:34.376452	60.2	51.6	-63.8	0.0
2026-01-17 17:31:36.620967	58.7	51.5	-63.7	0.0
2026-01-17 17:31:38.865491	57.2	51.5	-63.5	0.0
2026-01-17 17:31:41.109540	55.7	51.3	-62.8	0.0
2026-01-17 17:31:43.354056	54.2	51.2	-62.4	0.0
2026-01-17 17:31:45.597104	52.7	51.1	-64.9	0.0
2026-01-17 17:31:47.842123	51.3	50.9	-62.6	0.0
2026-01-17 17:31:50.085173	49.8	50.7	-62.0	0.0
2026-01-17 17:31:52.329680	48.4	50.5	-62.4	0.0
2026-01-17 17:31:54.574196	47.0	50.3	-61.4	0.0
2026-01-17 17:31:56.818215	45.6	50.0	-61.9	0.0
2026-01-17 17:31:59.062226	44.3	49.8	-63.2	0.0
2026-01-17 17:32:01.306769	43.0	49.5	-59.6	0.0
2026-01-17 17:32:03.550788	41.7	49.2	-60.3	0.0
2026-01-17 17:32:05.795333	40.4	48.9	-62.0	0.0
2026-01-17 17:32:08.039847	39.1	48.6	-60.9	0.0
2026-01-17 17:32:10.283394	37.9	48.3	-60.7	0.0
2026-01-17 17:32:12.528908	36.7	48.0	-60.5	0.0
2026-01-17 17:32:14.772951	35.5	47.6	-60.4	0.0
2026-01-17 17:32:17.017457	34.4	47.3	-61.4	0.0
2026-01-17 17:32:19.263476	33.2	46.9	-60.9	0.0
2026-01-17 17:32:21.507516	32.1	46.5	-62.2	0.0
2026-01-17 17:32:23.752031	31.1	46.1	-61.6	0.0
2026-01-17 17:32:25.995072	30.0	45.7	-61.8	0.0
2026-01-17 17:32:28.238092	29.0	45.4	-63.8	0.0
2026-01-17 17:32:30.482132	28.0	44.9	-61.8	0.0
2026-01-17 17:32:32.726639	27.0	44.5	-60.2	0.0
2026-01-17 17:32:34.970153	26.1	44.1	-61.6	0.0
2026-01-17 17:32:37.214700	25.2	43.7	-61.4	0.0
2026-01-17 17:32:39.458720	24.3	43.3	-61.0	0.0
2026-01-17 17:32:41.702767	23.4	42.9	-62.1	0.0
2026-01-17 17:32:43.946786	22.6	42.5	-62.8	0.0
2026-01-17 17:32:46.191329	21.7	42.0	-61.3	0.0
2026-01-17 17:32:48.435341	20.9	41.6	-60.4	0.0
2026-01-17 17:32:50.678893	20.1	41.2	-62.9	0.0
2026-01-17 17:32:52.926427	19.4	40.7	-62.5	0.0
2026-01-17 17:32:55.170934	18.6	40.3	-60.7	0.0
2026-01-17 17:32:57.414992	17.9	39.9	-60.7	0.0
2026-01-17 17:32:59.659048	17.2	39.4	-61.4	0.0
2026-01-17 17:33:01.904556	16.5	39.0	-62.4	0.0
2026-01-17 17:33:04.148575	15.9	38.6	-62.8	0.0
2026-01-17 17:33:06.392616	15.2	38.2	-61.9	0.0
2026-01-17 17:33:08.638636	14.6	37.7	-61.4	0.0
2026-01-17 17:33:10.882207	14.0	37.3	-63.0	0.0
2026-01-17 17:33:13.126722	13.4	36.9	-62.9	0.0
2026-01-17 17:33:15.371229	12.8	36.5	-62.3	0.0
2026-01-17 17:33:17.617783	12.2	36.0	-63.3	0.0
2026-01-17 17:33:19.861307	11.7	35.6	-62.9	0.0
2026-01-17 17:33:22.105341	11.1	35.2	-64.3	0.0
2026-01-17 17:33:24.349856	10.6	34.8	-61.0	0.0
2026-01-17 17:33:26.594402	10.1	34.4	-61.9	0.0
2026-01-17 17:33:28.838916	9.6	34.0	-62.7	0.0
2026-01-17 17:33:31.083423	9.1	33.6	-62.6	0.0
2026-01-17 17:33:33.326978	8.6	33.2	-61.0	0.0
2026-01-17 17:33:35.571494	8.1	32.8	-63.5	0.0
2026-01-17 17:33:37.814047	7.7	32.4	-61.7	0.0
2026-01-17 17:33:40.058064	7.2	32.0	-63.7	0.0
2026-01-17 17:33:42.301616	6.8	31.6	-61.8	0.0
2026-01-17 17:33:44.546131	6.4	31.2	-61.4	0.0
2026-01-17 17:33:46.789676	6.0	30.8	-63.0	0.0
2026-01-17 17:33:49.034191	5.6	30.5	-64.3	0.0
2026-01-17 17:33:51.282203	5.2	30.1	-61.6	0.0
2026-01-17 17:33:53.526253	4.8	29.7	-63.0	0.0
2026-01-17 17:33:55.770767	4.4	29.4	-62.5	0.0
2026-01-17 17:33:58.014818	4.1	29.0	-61.1	0.0
2026-01-17 17:34:00.259332	3.7	28.6	-62.2	0.0
2026-01-17 17:34:02.503877	3.4	28.3	-63.5	0.0
2026-01-17 17:34:04.748384	3.0	27.9	-61.6	0.0
2026-01-17 17:34:06.992433	2.7	27.6	-62.6	0.0
2026-01-17 17:34:09.237452	2.4	27.2	-63.6	0.0
2026-01-17 17:34:11.481967	2.0	26.9	-63.8	0.0
2026-01-17 17:34:13.726520	1.7	26.5	-62.4	0.0
2026-01-17 17:34:15.971035	1.4	26.2	-63.8	0.0
2026-01-17 17:34:18.215580	1.1	25.9	-63.4	0.0
2026-01-17 17:34:20.460095	0.8	25.5	-62.4	0.0
2026-01-17 17:34:22.704144	0.5	25.2	-63.9	0.0
2026-01-17 17:34:24.948651	0.3	24.9	-63.4	0.0
2026-01-17 17:34:27.192190	360.0	24.6	-62.6	0.0
2026-01-17 17:34:29.435704	359.7	24.2	-61.4	0.0
2026-01-17 17:34:31.680218	359.5	23.9	-63.0	0.0
2026-01-17 17:34:33.924762	359.2	23.6	-64.9	0.0
2026-01-17 17:34:36.168782	359.0	23.3	-63.3	0.0
2026-01-17 17:34:38.412341	358.7	23.0	-64.3	0.0
2026-01-17 17:34:40.656857	358.5	22.7	-63.4	0.0
2026-01-17 17:34:42.900903	358.2	22.4	-65.4	0.0
2026-01-17 17:34:45.145417	358.0	22.1	-63.8	0.0
2026-01-17 17:34:47.390934	357.8	21.8	-63.8	0.0
2026-01-17 17:34:49.634988	357.5	21.5	-63.6	0.0
2026-01-17 17:34:51.879502	357.3	21.2	-62.9	0.0
2026-01-17 17:34:54.122553	357.1	20.9	-62.8	0.5
2026-01-17 17:34:56.367059	356.9	20.7	-63.3	0.5
2026-01-17 17:34:58.611566	356.7	20.4	-63.0	0.3
2026-01-17 17:35:00.855610	356.5	20.1	-63.0	0.0
2026-01-17 17:35:03.103631	356.3	19.8	-61.5	0.0
2026-01-17 17:35:05.348146	356.1	19.6	-62.4	0.6
2026-01-17 17:35:07.592157	355.9	19.3	-63.5	0.0
2026-01-17 17:35:09.836705	355.7	19.0	-64.0	0.0
2026-01-17 17:35:12.082220	355.5	18.8	-62.2	0.5
2026-01-17 17:35:14.326262	355.3	18.5	-63.7	4.6
2026-01-17 17:35:16.570281	355.2	18.2	-63.6	0.5
2026-01-17 17:35:18.815328	355.0	18.0	-63.5	0.1
2026-01-17 17:35:21.059842	354.8	17.7	-63.2	0.0
2026-01-17 17:35:23.304349	354.6	17.5	-62.9	0.0
2026-01-17 17:35:25.549419	354.5	17.2	-63.6	3.8
2026-01-17 17:35:27.793934	354.3	17.0	-62.0	0.0
2026-01-17 17:35:30.037975	354.1	16.7	-62.7	1.2
2026-01-17 17:35:32.281523	354.0	16.5	-62.9	2.5
2026-01-17 17:35:34.529078	353.8	16.3	-63.2	0.1
2026-01-17 17:35:36.773594	353.7	16.0	-63.0	0.0
2026-01-17 17:35:39.018101	353.5	15.8	-62.9	0.0
2026-01-17 17:35:41.262141	353.4	15.5	-63.5	0.0
2026-01-17 17:35:43.507666	353.2	15.3	-63.6	2.5
2026-01-17 17:35:45.752211	353.1	15.1	-63.7	3.6
2026-01-17 17:35:47.996726	352.9	14.9	-63.3	2.3
2026-01-17 17:35:50.240767	352.8	14.6	-63.9	4.0
2026-01-17 17:35:52.484787	352.7	14.4	-62.8	0.0
2026-01-17 17:35:54.728823	352.5	14.2	-63.7	1.2
2026-01-17 17:35:56.973339	352.4	14.0	-62.9	0.6
2026-01-17 17:35:59.217350	352.3	13.7	-63.5	4.6
2026-01-17 17:36:01.460896	352.1	13.5	-63.2	2.9
2026-01-17 17:36:03.704915	352.0	13.3	-61.5	1.0
2026-01-17 17:36:05.948956	351.9	13.1	-61.9	0.6
2026-01-17 17:36:08.198472	351.8	12.9	-63.6	2.8
2026-01-17 17:36:10.442513	351.7	12.7	-61.7	0.0
2026-01-17 17:36:12.687029	351.5	12.5	-62.3	0.0
2026-01-17 17:36:14.931069	351.4	12.3	-62.2	0.0
2026-01-17 17:36:17.177089	351.3	12.1	-62.6	0.0
2026-01-17 17:36:19.423597	351.2	11.9	-63.8	2.9
2026-01-17 17:36:21.667143	351.1	11.7	-62.4	0.2
2026-01-17 17:36:23.915163	351.0	11.5	-63.3	4.5
2026-01-17 17:36:26.159207	350.9	11.3	-63.3	3.1
2026-01-17 17:36:28.403721	350.7	11.1	-62.6	1.8
2026-01-17 17:36:30.647279	350.6	10.9	-63.4	3.4
2026-01-17 17:36:32.891298	350.5	10.7	-63.2	3.5
2026-01-17 17:36:35.135806	350.4	10.5	-62.1	0.0
2026-01-17 17:36:37.379846	350.3	10.3	-62.2	0.0
2026-01-17 17:36:39.624361	350.2	10.1	-63.4	3.6
2026-01-17 17:36:41.870411	350.1	9.9	-63.7	2.8
2026-01-17 17:36:44.114926	350.0	9.7	-63.6	2.9
2026-01-17 17:36:46.359433	349.9	9.5	-63.3	1.4
2026-01-17 17:36:48.602981	349.9	9.3	-62.8	0.5
2026-01-17 17:36:50.851496	349.8	9.2	-63.2	0.0
2026-01-17 17:36:53.095538	349.7	9.0	-63.3	2.1
2026-01-17 17:36:55.339573	349.6	8.8	-62.6	0.0
2026-01-17 17:36:57.587090	349.5	8.6	-63.5	0.2
2026-01-17 17:36:59.831131	349.4	8.4	-63.0	0.0
2026-01-17 17:37:02.075645	349.3	8.3	-62.8	0.0
2026-01-17 17:37:04.320199	349.2	8.1	-62.9	0.0
2026-01-17 17:37:06.566219	349.1	7.9	-63.6	1.0
2026-01-17 17:37:08.812726	349.1	7.7	-63.3	0.6
2026-01-17 17:37:11.056767	349.0	7.6	-64.0	0.0
2026-01-17 17:37:13.300787	348.9	7.4	-62.4	0.9
2026-01-17 17:37:15.544821	348.8	7.2	-63.7	3.6
2026-01-17 17:37:17.789831	348.7	7.1	-63.2	2.6
2026-01-17 17:37:20.034347	348.7	6.9	-62.8	2.6
2026-01-17 17:37:22.277397	348.6	6.7	-62.8	1.9
2026-01-17 17:37:24.521440	348.5	6.6	-63.1	4.1
2026-01-17 17:37:26.765947	348.4	6.4	-63.2	2.6
2026-01-17 17:37:29.010463	348.4	6.2	-63.5	2.1
2026-01-17 17:37:31.255018	348.3	6.1	-63.7	2.4
2026-01-17 17:37:33.498533	348.2	5.9	-67.1	3.9
2026-01-17 17:37:35.743063	348.1	5.7	-68.3	0.0
2026-01-17 17:37:37.986577	348.1	5.6	-69.1	0.0
2026-01-17 17:37:40.285096	348.0	5.4	-68.5	0.0
2026-01-17 17:37:42.528166	347.9	5.3	-69.3	0.0
2026-01-17 17:37:44.772673	347.9	5.1	-70.5	0.0
#Closed at: 2026-01-17 17:25:07.354607