passes_logs/2026/01/28/XPeterburg/XPeterburg__20260128_144906_FENGYUN_3E_rec.log

#Pass ID: 20260128_144906_FENGYUN 3E
#Satellite: FENGYUN 3E
#Configuration: FENGYUN 3E
#Start time: 2026-01-28 14:49:01

#Version: 1.5.20200625
#Station: XPeterburg
#Location: 30.318091 lon 59.932769 lat
#TLE: 1 49008U 21062A   26027.83084825  .00000170  00000+0  10081-3 0  9997
#TLE: 2 49008  98.7501  32.8098 0002509 114.2687 245.8752 14.19888158236667

#Time	Az	El	Level	Level2	SNR	BER	Gain	Gain2
2026-01-28 14:49:01.03	187.72	67.93	-37.2	-39.0	3.3	8380210	92	6089
2026-01-28 14:49:01.43	187.95	68.10	-36.6	-39.3	3.5	8441768	90	6720
2026-01-28 14:49:01.83	188.18	68.26	-36.5	-38.2	3.4	8407985	90	5950
2026-01-28 14:49:02.23	188.41	68.43	-36.5	-39.2	3.7	8434753	90	6743
2026-01-28 14:49:02.64	188.65	68.60	-36.3	-37.5	3.5	8409736	90	5666
2026-01-28 14:49:03.04	188.89	68.76	-36.0	-38.0	3.7	8386436	90	6181
2026-01-28 14:49:03.44	189.13	68.92	-35.6	-35.9	4.0	8351955	89	5092
2026-01-28 14:49:03.84	189.38	69.09	-35.1	-35.1	4.4	8065898	88	4933
2026-01-28 14:49:04.25	189.63	69.26	-33.5	-32.9	5.9	6793521	85	4564
2026-01-28 14:49:04.65	189.89	69.42	-33.0	-32.3	6.5	4415153	84	4563
2026-01-28 14:49:05.05	190.15	69.59	-32.3	-31.4	7.4	1745452	83	4455
2026-01-28 14:49:05.45	190.41	69.75	-31.5	-30.9	8.4	684127	81	4557
2026-01-28 14:49:05.85	190.68	69.91	-31.0	-30.3	9.2	256004	80	4538
2026-01-28 14:49:06.26	190.96	70.08	-30.1	-29.5	10.1	153018	78	4601
2026-01-28 14:49:06.66	191.24	70.25	-29.5	-28.7	10.8	48946	77	4503
2026-01-28 14:49:07.06	191.53	70.41	-29.0	-28.2	11.5	13561	76	4484
2026-01-28 14:49:07.46	191.81	70.57	-28.4	-27.4	12.0	5573	75	4410
2026-01-28 14:49:07.86	192.11	70.74	-28.4	-27.4	12.1	4920	75	4397
2026-01-28 14:49:08.27	192.42	70.90	-28.2	-27.1	12.1	5859	75	4330
2026-01-28 14:49:08.67	192.72	71.07	-28.3	-27.8	12.1	3456	74	4643
2026-01-28 14:49:09.07	193.03	71.23	-28.4	-28.0	12.1	3993	74	4709
2026-01-28 14:49:09.47	193.35	71.39	-28.2	-27.5	12.3	3559	74	4565
2026-01-28 14:49:09.87	193.67	71.55	-28.5	-28.1	11.9	5390	74	4698
2026-01-28 14:49:10.28	194.01	71.72	-28.4	-28.0	12.0	6340	74	4697
2026-01-28 14:49:10.68	194.34	71.88	-28.4	-27.3	12.0	8090	75	4377
2026-01-28 14:49:11.08	194.68	72.04	-28.5	-27.7	11.8	6752	75	4467
2026-01-28 14:49:11.48	195.03	72.20	-28.5	-27.6	11.9	5069	75	4454
2026-01-28 14:49:11.88	195.38	72.36	-28.6	-27.9	11.9	5310	75	4535
2026-01-28 14:49:12.29	195.75	72.53	-28.6	-27.9	11.9	4737	75	4542
2026-01-28 14:49:12.69	196.12	72.68	-28.6	-27.9	11.9	5195	75	4518
2026-01-28 14:49:13.09	196.49	72.84	-28.7	-28.2	11.8	5710	75	4610
2026-01-28 14:49:13.49	196.88	73.00	-28.7	-28.1	11.9	6912	75	4580
2026-01-28 14:49:13.89	197.27	73.16	-29.0	-28.6	11.6	7038	75	4729
2026-01-28 14:49:14.30	197.67	73.32	-28.8	-28.3	11.8	6557	75	4623
2026-01-28 14:49:14.70	198.08	73.48	-28.9	-28.3	11.7	6877	75	4630
2026-01-28 14:49:15.10	198.49	73.63	-28.8	-28.2	11.9	4875	75	4613
2026-01-28 14:49:15.50	198.91	73.79	-28.9	-28.4	11.9	4577	75	4661
2026-01-28 14:49:15.91	199.36	73.95	-28.9	-28.4	11.9	4451	75	4661
2026-01-28 14:49:16.31	199.79	74.10	-29.0	-28.7	11.7	5195	75	4737
2026-01-28 14:49:16.71	200.24	74.26	-29.2	-29.2	11.5	5882	75	4892
2026-01-28 14:49:17.11	200.70	74.41	-29.1	-28.9	11.5	8296	75	4813
2026-01-28 14:49:17.51	201.17	74.56	-29.6	-29.5	11.2	13607	76	4834
2026-01-28 14:49:17.92	201.66	74.72	-29.6	-29.4	11.1	14488	76	4806
2026-01-28 14:49:18.32	202.14	74.87	-29.6	-29.5	11.1	15472	76	4821
2026-01-28 14:49:18.72	202.64	75.02	-29.6	-29.3	11.2	14671	76	4781
2026-01-28 14:49:19.12	203.15	75.16	-29.4	-29.0	11.3	13629	76	4696
2026-01-28 14:49:19.53	203.68	75.32	-29.3	-28.6	11.5	10299	76	4564
2026-01-28 14:49:19.93	204.20	75.46	-29.0	-28.1	11.8	7015	76	4427
2026-01-28 14:49:20.33	204.74	75.61	-28.9	-27.9	11.9	5355	76	4394
2026-01-28 14:49:20.73	205.29	75.75	-28.6	-27.8	12.0	4199	75	4501
2026-01-28 14:49:21.14	205.87	75.90	-28.5	-28.2	12.1	2780	74	4743
2026-01-28 14:49:21.54	206.45	76.04	-28.6	-28.3	12.2	2735	74	4745
2026-01-28 14:49:21.94	207.03	76.18	-28.7	-28.4	12.1	2700	74	4782
2026-01-28 14:49:22.34	207.63	76.32	-29.0	-29.2	11.9	3662	74	5011
2026-01-28 14:49:22.74	208.24	76.46	-28.9	-28.5	11.9	3513	75	4684
2026-01-28 14:49:23.14	208.87	76.59	-28.9	-28.4	11.9	3787	75	4666
2026-01-28 14:49:23.55	209.52	76.73	-29.1	-28.8	11.8	4360	75	4732
2026-01-28 14:49:23.95	210.17	76.87	-29.3	-29.3	11.5	5813	75	4922
2026-01-28 14:49:24.35	210.84	77.00	-29.1	-28.8	11.7	7301	75	4775
2026-01-28 14:49:24.75	211.52	77.13	-29.4	-29.4	11.5	9956	75	4941
2026-01-28 14:49:25.16	212.23	77.26	-29.2	-29.1	11.6	7381	75	4840
2026-01-28 14:49:25.56	212.94	77.39	-29.6	-29.3	11.4	12531	76	4778
2026-01-28 14:49:25.96	213.66	77.51	-29.7	-29.5	11.2	12966	76	4822
2026-01-28 14:49:26.36	214.40	77.64	-29.8	-29.6	11.1	18299	76	4842
2026-01-28 14:49:26.77	215.17	77.76	-29.6	-29.0	11.2	21194	77	4564
2026-01-28 14:49:27.17	215.94	77.88	-29.9	-29.5	11.0	18939	77	4674
2026-01-28 14:49:27.57	216.72	78.00	-30.0	-29.6	10.8	22659	77	4728
2026-01-28 14:49:27.97	217.52	78.11	-29.8	-29.2	11.1	20599	77	4610
2026-01-28 14:49:28.37	218.34	78.23	-29.9	-29.4	11.1	18207	77	4653
2026-01-28 14:49:28.78	219.19	78.34	-30.0	-29.7	10.9	18962	77	4731
2026-01-28 14:49:29.18	220.04	78.45	-30.1	-29.9	10.9	21205	77	4796
2026-01-28 14:49:29.58	220.90	78.55	-30.2	-30.1	10.8	24765	77	4882
2026-01-28 14:49:29.98	221.78	78.66	-29.9	-29.6	11.1	20553	77	4732
2026-01-28 14:49:30.38	222.68	78.76	-29.8	-29.4	11.3	15380	77	4679
2026-01-28 14:49:30.78	223.59	78.86	-29.7	-29.1	11.4	13584	77	4597
2026-01-28 14:49:31.19	224.55	78.95	-29.7	-29.0	11.5	9384	77	4553
2026-01-28 14:49:31.59	225.49	79.05	-29.6	-29.0	11.6	7976	77	4595
2026-01-28 14:49:31.99	226.45	79.14	-29.8	-29.3	11.5	8857	77	4632
2026-01-28 14:49:32.39	227.43	79.22	-29.8	-29.4	11.4	11157	77	4685
2026-01-28 14:49:32.79	228.43	79.31	-30.0	-29.8	11.2	12657	77	4774
2026-01-28 14:49:33.20	229.46	79.39	-30.0	-29.7	11.1	14854	77	4768
2026-01-28 14:49:33.60	230.49	79.46	-30.0	-29.8	11.2	14156	77	4778
2026-01-28 14:49:34.00	231.53	79.54	-30.0	-29.8	11.2	15838	77	4788
2026-01-28 14:49:34.40	232.58	79.61	-30.0	-29.7	11.3	14522	77	4732
2026-01-28 14:49:34.80	233.65	79.67	-30.1	-29.8	11.2	15357	77	4787
2026-01-28 14:49:35.21	234.76	79.74	-30.3	-30.3	10.9	15953	77	4940
2026-01-28 14:49:35.61	235.86	79.80	-30.2	-30.2	11.1	18848	77	4886
2026-01-28 14:49:36.01	236.96	79.85	-30.5	-30.2	10.9	23780	78	4756
2026-01-28 14:49:36.41	238.08	79.91	-30.5	-30.1	10.8	26378	78	4725
2026-01-28 14:49:36.81	239.22	79.95	-30.4	-30.0	10.9	24799	78	4691
2026-01-28 14:49:37.22	240.39	80.00	-30.5	-30.3	10.7	26229	78	4777
2026-01-28 14:49:37.62	241.54	80.04	-30.3	-29.8	11.0	24936	78	4638
2026-01-28 14:49:38.02	242.70	80.08	-30.4	-30.0	10.9	21835	78	4699
2026-01-28 14:49:38.42	243.87	80.11	-30.5	-30.1	10.8	25463	78	4743
2026-01-28 14:49:38.83	245.08	80.14	-30.5	-30.2	10.7	27992	78	4764
2026-01-28 14:49:39.23	246.26	80.16	-30.9	-31.1	10.2	43144	78	5015
2026-01-28 14:49:39.63	247.45	80.18	-30.8	-30.3	10.2	48442	79	4632
2026-01-28 14:49:40.03	248.65	80.20	-31.1	-30.9	9.9	74260	79	4833
2026-01-28 14:49:40.44	249.87	80.21	-31.3	-31.3	9.6	111236	79	4939
2026-01-28 14:49:40.84	251.07	80.22	-31.2	-31.2	9.7	94619	79	4911
2026-01-28 14:49:41.24	252.27	80.22	-31.0	-30.7	10.0	93910	79	4766
2026-01-28 14:49:41.64	253.47	80.22	-31.2	-31.1	9.8	91220	79	4866
2026-01-28 14:49:42.04	254.67	80.21	-31.0	-30.8	10.0	77281	79	4794
2026-01-28 14:49:42.45	255.90	80.20	-30.8	-30.4	10.1	85315	79	4668
2026-01-28 14:49:42.85	257.10	80.19	-30.9	-30.6	10.0	88920	79	4744
2026-01-28 14:49:43.25	258.29	80.17	-30.9	-30.4	10.1	91644	79	4683
2026-01-28 14:49:43.65	259.47	80.15	-31.0	-30.7	9.8	72166	79	4752
2026-01-28 14:49:44.05	260.65	80.12	-30.7	-30.0	10.2	91289	79	4562
2026-01-28 14:49:44.46	261.85	80.09	-31.1	-31.0	9.7	68756	79	4836
2026-01-28 14:49:44.86	263.02	80.06	-30.5	-29.7	10.4	77510	79	4488
2026-01-28 14:49:45.26	264.18	80.02	-30.9	-30.5	10.0	87203	79	4690
2026-01-28 14:49:45.66	265.32	79.97	-30.7	-30.1	10.2	58284	79	4581
2026-01-28 14:49:46.06	266.46	79.93	-30.5	-29.8	10.4	57632	79	4499
2026-01-28 14:49:46.47	267.61	79.88	-30.4	-29.6	10.6	59337	79	4452
2026-01-28 14:49:46.87	268.73	79.82	-30.5	-29.7	10.5	46108	79	4481
2026-01-28 14:49:47.27	269.83	79.76	-30.7	-30.1	10.2	45181	79	4577
2026-01-28 14:49:47.67	270.92	79.70	-30.2	-29.6	10.9	35522	78	4570
2026-01-28 14:49:48.07	271.99	79.64	-30.4	-30.0	10.7	27740	78	4688
2026-01-28 14:49:48.48	273.08	79.57	-30.0	-29.2	11.0	23414	78	4478
2026-01-28 14:49:48.88	274.12	79.49	-29.8	-29.1	11.3	13252	77	4575
2026-01-28 14:49:49.28	275.15	79.42	-29.6	-28.8	11.5	10654	77	4482
2026-01-28 14:49:49.68	276.17	79.34	-29.6	-29.0	11.4	11627	77	4556
2026-01-28 14:49:50.08	277.17	79.26	-29.5	-28.5	11.6	9567	77	4409
2026-01-28 14:49:50.49	278.18	79.17	-29.6	-28.8	11.5	7621	77	4493
2026-01-28 14:49:50.89	279.15	79.08	-29.7	-29.0	11.2	12279	77	4530
2026-01-28 14:49:51.29	280.10	78.99	-29.6	-28.8	11.3	14522	77	4494
2026-01-28 14:49:51.69	281.04	78.90	-29.8	-29.3	11.1	15266	77	4626
2026-01-28 14:49:52.10	281.98	78.80	-29.7	-29.0	11.2	16273	77	4555
2026-01-28 14:49:52.50	282.88	78.70	-29.6	-28.8	11.4	13801	77	4484
2026-01-28 14:49:52.90	283.77	78.60	-29.7	-29.1	11.1	13526	77	4576
2026-01-28 14:49:53.30	284.64	78.49	-29.4	-28.4	11.6	10894	77	4381
2026-01-28 14:49:53.70	285.49	78.39	-29.3	-28.4	11.6	8010	77	4414
2026-01-28 14:49:54.11	286.35	78.27	-29.4	-29.0	11.6	6843	76	4687
2026-01-28 14:49:54.51	287.17	78.16	-29.0	-28.2	12.1	4886	76	4486
2026-01-28 14:49:54.91	287.98	78.05	-29.2	-28.6	11.8	3879	76	4596
2026-01-28 14:49:55.31	288.77	77.93	-29.2	-28.6	11.8	4520	76	4579
2026-01-28 14:49:55.72	289.56	77.81	-29.0	-28.1	12.1	5195	76	4446
2026-01-28 14:49:56.12	290.32	77.69	-29.3	-28.7	11.8	4383	76	4583
2026-01-28 14:49:56.52	291.07	77.57	-29.2	-28.6	11.8	5161	76	4587
2026-01-28 14:49:56.92	291.79	77.44	-28.5	-27.6	12.4	4199	75	4463
2026-01-28 14:49:57.33	292.53	77.31	-28.6	-27.9	12.2	2735	75	4531
2026-01-28 14:49:57.73	293.22	77.19	-28.8	-28.3	12.0	2826	75	4628
2026-01-28 14:49:58.13	293.91	77.06	-28.6	-27.9	12.2	2632	75	4525
2026-01-28 14:49:58.53	294.58	76.92	-28.8	-28.2	12.1	2986	75	4627
2026-01-28 14:49:58.93	295.24	76.79	-28.7	-28.2	12.1	3353	75	4606
2026-01-28 14:49:59.34	295.90	76.65	-28.4	-27.5	12.4	2735	75	4388
2026-01-28 14:49:59.74	296.53	76.52	-28.5	-27.7	12.3	2231	75	4455
2026-01-28 14:50:00.14	297.14	76.38	-28.6	-27.9	12.2	2082	75	4503
2026-01-28 14:50:00.54	297.75	76.24	-28.3	-27.8	12.5	1407	74	4611
2026-01-28 14:50:00.95	298.35	76.10	-28.5	-28.1	12.4	1579	74	4721
2026-01-28 14:50:01.35	298.93	75.96	-28.7	-28.7	12.1	2540	74	4884
2026-01-28 14:50:01.75	299.50	75.81	-28.7	-28.5	12.3	2803	74	4825
2026-01-28 14:50:02.15	300.05	75.67	-29.0	-28.7	11.9	3444	75	4755
2026-01-28 14:50:02.56	300.61	75.52	-29.2	-29.1	11.6	4577	75	4836
2026-01-28 14:50:02.96	301.14	75.38	-28.9	-28.5	12.0	5367	75	4715
2026-01-28 14:50:03.36	301.67	75.23	-28.9	-28.6	11.9	5493	75	4720
2026-01-28 14:50:03.76	302.18	75.08	-29.1	-28.8	11.7	5950	75	4796
2026-01-28 14:50:04.17	302.69	74.93	-28.8	-28.3	12.0	6225	75	4643
2026-01-28 14:50:04.57	303.18	74.78	-29.0	-28.8	11.8	4394	75	4779
2026-01-28 14:50:04.97	303.66	74.63	-29.3	-29.3	11.5	6191	75	4921
2026-01-28 14:50:05.37	304.13	74.48	-29.3	-29.3	11.5	8583	75	4948
2026-01-28 14:50:05.77	304.59	74.33	-29.7	-29.7	11.1	9738	76	4897
2026-01-28 14:50:06.17	305.04	74.17	-29.9	-30.0	10.9	13217	76	4999
2026-01-28 14:50:06.58	305.50	74.01	-29.6	-29.3	11.1	19477	76	4774
2026-01-28 14:50:06.98	305.93	73.86	-29.6	-29.3	11.1	14465	76	4770
2026-01-28 14:50:07.38	306.36	73.71	-29.4	-29.0	11.3	18173	76	4700
2026-01-28 14:50:07.78	306.77	73.55	-29.4	-28.8	11.3	15804	76	4630
2026-01-28 14:50:08.18	307.18	73.39	-29.5	-29.1	11.2	14019	76	4710
2026-01-28 14:50:08.59	307.59	73.23	-29.7	-29.6	11.0	19638	76	4880
2026-01-28 14:50:08.99	307.98	73.08	-29.8	-29.7	10.9	23437	76	4905
2026-01-28 14:50:09.39	308.37	72.92	-30.0	-29.8	10.6	37090	77	4799
2026-01-28 14:50:09.79	308.75	72.76	-30.2	-30.1	10.4	50903	77	4860
2026-01-28 14:50:10.19	309.12	72.60	-30.5	-30.6	10.0	58776	77	5025
2026-01-28 14:50:10.59	309.48	72.44	-30.6	-30.5	9.9	104473	78	4861
2026-01-28 14:50:11.00	309.85	72.28	-30.6	-30.1	9.8	118778	79	4617
2026-01-28 14:50:11.40	310.20	72.12	-30.8	-30.4	9.6	140705	79	4678
2026-01-28 14:50:11.80	310.54	71.96	-31.0	-30.7	9.5	195327	79	4795
2026-01-28 14:50:12.20	310.88	71.80	-31.1	-31.0	9.4	185531	79	4858
2026-01-28 14:50:12.61	311.21	71.63	-31.3	-31.5	9.0	220825	79	5000
2026-01-28 14:50:13.01	311.54	71.47	-31.1	-31.0	9.2	211818	79	4842
2026-01-28 14:50:13.41	311.86	71.31	-31.5	-31.7	8.7	218696	79	5069
2026-01-28 14:50:13.81	312.17	71.14	-31.7	-31.7	8.5	260787	80	4905
2026-01-28 14:50:14.21	312.48	70.98	-32.0	-31.7	8.1	363155	81	4782
2026-01-28 14:50:14.62	312.79	70.82	-32.1	-31.9	7.9	599796	81	4837
2026-01-28 14:50:15.02	313.08	70.65	-31.7	-31.0	8.4	758651	81	4563
2026-01-28 14:50:15.42	313.37	70.49	-32.1	-32.0	8.0	260238	81	4899

#Closed at: 2026-01-28 14:50:15