passes_logs/2025/01/01/Planum_Noyabrsk/Planum_Noyabrsk__20250101_072500_NOAA_18_rec.log

#Pass ID: 20250101_072500_NOAA 18
#Satellite: NOAA 18
#Configuration: NOAA 18
#Start time: 2025-01-01 07:25:05.116617

#LorettStation: 1.0.0 05.05.2024
#Station: Planum_Noyabrsk
#Location: 75.446886 lon 63.207202 lat
#TLE: 1 28654U 05018A   24366.50989023  .00000688  00000+0  38901-3 0  9991
#TLE: 2 28654  98.8589  81.7065 0013682 220.6012 139.4141 14.13470945 11052

#Time	Az	El	Level	SNR
2025-01-01 07:25:11.320909	8.5	31.1	-62.1	5.3
2025-01-01 07:25:12.463908	8.3	31.3	-60.0	4.7
2025-01-01 07:25:13.605429	8.2	31.5	-57.5	1.8
2025-01-01 07:25:14.747433	8.1	31.7	-59.0	3.5
2025-01-01 07:25:15.888437	7.9	31.9	-59.9	3.1
2025-01-01 07:25:17.033941	7.8	32.2	-60.9	2.4
2025-01-01 07:25:18.178935	7.6	32.4	-62.4	5.2
2025-01-01 07:25:19.320938	7.5	32.6	-61.0	3.7
2025-01-01 07:25:20.463454	7.4	32.8	-61.7	4.9
2025-01-01 07:25:21.605456	7.2	33.0	-61.5	4.7
2025-01-01 07:25:22.748456	7.1	33.3	-60.6	2.4
2025-01-01 07:25:23.889971	6.9	33.5	-60.2	3.8
2025-01-01 07:25:25.035961	6.8	33.7	-61.2	5.1
2025-01-01 07:25:26.177963	6.6	33.9	-61.1	4.0
2025-01-01 07:25:27.318482	6.4	34.1	-61.9	8.7
2025-01-01 07:25:28.461482	6.3	34.4	-62.3	6.8
2025-01-01 07:25:29.607474	6.1	34.6	-61.8	3.9
2025-01-01 07:25:30.747988	6.0	34.8	-62.1	6.9
2025-01-01 07:25:31.889992	5.8	35.1	-61.7	1.7
2025-01-01 07:25:33.033989	5.6	35.3	-63.4	6.6
2025-01-01 07:25:34.180997	5.4	35.5	-63.9	8.6
2025-01-01 07:25:35.323997	5.3	35.8	-62.6	5.8
2025-01-01 07:25:36.466996	5.1	36.0	-61.7	4.6
2025-01-01 07:25:37.608002	4.9	36.2	-62.7	5.4
2025-01-01 07:25:38.751002	4.7	36.5	-63.9	6.6
2025-01-01 07:25:39.895997	4.5	36.7	-62.6	5.4
2025-01-01 07:25:41.037002	4.4	37.0	-63.4	6.3
2025-01-01 07:25:42.181000	4.2	37.2	-62.3	7.6
2025-01-01 07:25:43.324003	4.0	37.5	-61.5	6.5
2025-01-01 07:25:44.467000	3.8	37.7	-62.1	4.8
2025-01-01 07:25:45.609516	3.6	37.9	-62.2	6.1
2025-01-01 07:25:46.751518	3.4	38.2	-61.1	4.2
2025-01-01 07:25:47.892523	3.2	38.5	-61.5	6.7
2025-01-01 07:25:49.036032	3.0	38.7	-62.0	6.7
2025-01-01 07:25:50.184020	2.7	39.0	-61.8	5.4
2025-01-01 07:25:51.327019	2.5	39.2	-62.0	5.8
2025-01-01 07:25:52.469535	2.3	39.5	-62.2	5.1
2025-01-01 07:25:53.612535	2.1	39.7	-63.2	6.2
2025-01-01 07:25:54.754538	1.9	40.0	-63.0	5.9
2025-01-01 07:25:55.898536	1.6	40.3	-63.3	7.1
2025-01-01 07:25:57.039540	1.4	40.5	-63.0	7.0
2025-01-01 07:25:58.181543	1.2	40.8	-62.7	7.8
2025-01-01 07:25:59.322548	0.9	41.0	-62.3	6.4
2025-01-01 07:26:00.465060	0.7	41.3	-63.3	7.9
2025-01-01 07:26:01.608061	0.4	41.6	-63.1	7.3
2025-01-01 07:26:02.750569	0.2	41.8	-62.4	5.4
2025-01-01 07:26:03.893569	359.9	42.1	-63.3	8.3
2025-01-01 07:26:05.035572	359.6	42.4	-63.4	8.6
2025-01-01 07:26:06.180079	359.4	42.7	-62.4	7.5
2025-01-01 07:26:07.324073	359.1	42.9	-63.1	8.1
2025-01-01 07:26:08.466076	358.8	43.2	-64.9	11.0
2025-01-01 07:26:09.607081	358.5	43.5	-64.5	9.3
2025-01-01 07:26:10.750081	358.2	43.8	-63.8	8.2
2025-01-01 07:26:11.895076	358.0	44.0	-64.0	8.8
2025-01-01 07:26:13.040071	357.7	44.3	-63.5	10.3
2025-01-01 07:26:14.188564	357.4	44.6	-63.8	10.4
2025-01-01 07:26:15.331565	357.0	44.9	-64.4	12.0
2025-01-01 07:26:16.475565	356.7	45.2	-64.1	11.1
2025-01-01 07:26:17.623549	356.4	45.5	-63.2	9.6
2025-01-01 07:26:18.765551	356.1	45.7	-65.5	13.6
2025-01-01 07:26:19.908592	355.7	46.0	-64.9	11.9
2025-01-01 07:26:21.049596	355.4	46.3	-64.7	8.8
2025-01-01 07:26:22.193595	355.1	46.6	-65.3	13.7
2025-01-01 07:26:23.336595	354.7	46.9	-64.5	10.3
2025-01-01 07:26:24.478107	354.4	47.2	-64.2	9.6
2025-01-01 07:26:25.620110	354.0	47.5	-64.5	10.2
2025-01-01 07:26:26.762112	353.6	47.8	-64.7	9.4
2025-01-01 07:26:27.902632	353.2	48.1	-64.7	8.9
2025-01-01 07:26:29.048624	352.9	48.4	-65.8	9.6
2025-01-01 07:26:30.193620	352.5	48.6	-65.0	8.7
2025-01-01 07:26:31.339632	352.1	48.9	-64.4	7.5
2025-01-01 07:26:32.485623	351.6	49.2	-65.2	8.7
2025-01-01 07:26:33.627126	351.2	49.5	-63.7	6.5
2025-01-01 07:26:34.770114	350.8	49.8	-66.0	7.6
2025-01-01 07:26:35.911106	350.4	50.1	-64.2	5.6
2025-01-01 07:26:37.056089	349.9	50.4	-64.6	7.7
2025-01-01 07:26:38.198079	349.5	50.7	-63.6	6.6
2025-01-01 07:26:39.342064	349.0	51.0	-63.7	6.0
2025-01-01 07:26:40.485559	348.6	51.3	-63.8	6.8
2025-01-01 07:26:41.627548	348.1	51.6	-62.3	4.9
2025-01-01 07:26:42.770537	347.6	51.9	-63.4	6.3
2025-01-01 07:26:43.915519	347.1	52.2	-63.3	6.4
2025-01-01 07:26:45.059015	346.6	52.5	-63.1	6.2
2025-01-01 07:26:46.201006	346.1	52.8	-62.3	3.1
2025-01-01 07:26:47.345988	345.5	53.1	-62.8	3.8
2025-01-01 07:26:48.486981	345.0	53.4	-62.9	1.5
2025-01-01 07:26:49.629968	344.4	53.6	-63.7	2.6
2025-01-01 07:26:50.772956	343.9	53.9	-64.8	4.8
2025-01-01 07:26:51.917455	343.3	54.2	-61.9	0.2
2025-01-01 07:26:53.062947	342.7	54.5	-61.9	1.1
2025-01-01 07:26:54.204937	342.1	54.8	-62.3	0.8
2025-01-01 07:26:55.346927	341.5	55.1	-62.0	1.1
2025-01-01 07:26:56.492907	340.9	55.4	-62.4	2.0
2025-01-01 07:26:57.636893	340.3	55.6	-63.8	6.9
2025-01-01 07:26:58.781875	339.6	55.9	-61.5	0.0
2025-01-01 07:26:59.922868	338.9	56.2	-61.4	0.0
2025-01-01 07:27:01.066854	338.3	56.5	-61.1	1.9
2025-01-01 07:27:02.209352	337.6	56.7	-60.5	0.6
2025-01-01 07:27:03.353336	336.9	57.0	-61.9	4.0
2025-01-01 07:27:04.495327	336.2	57.3	-60.9	3.4
2025-01-01 07:27:05.637317	335.4	57.5	-61.2	2.5
2025-01-01 07:27:06.778310	334.7	57.8	-61.5	3.2
2025-01-01 07:27:07.925287	334.0	58.0	-61.1	3.5
2025-01-01 07:27:09.070271	333.2	58.3	-62.0	4.3
2025-01-01 07:27:10.211263	332.4	58.5	-61.4	3.2
2025-01-01 07:27:11.354251	331.6	58.8	-60.4	2.3
2025-01-01 07:27:12.496241	330.8	59.0	-61.7	5.4
2025-01-01 07:27:13.638231	330.0	59.2	-61.7	5.8
2025-01-01 07:27:14.781219	329.1	59.5	-62.0	5.9
2025-01-01 07:27:15.926202	328.2	59.7	-60.8	2.9
2025-01-01 07:27:17.071184	327.4	59.9	-61.9	5.1
2025-01-01 07:27:18.214172	326.5	60.1	-62.6	6.1
2025-01-01 07:27:19.354676	325.6	60.3	-60.4	1.6
2025-01-01 07:27:20.498661	324.7	60.5	-61.1	2.6
2025-01-01 07:27:21.640651	323.7	60.7	-60.9	1.5
2025-01-01 07:27:22.784637	322.8	60.9	-59.6	3.4
2025-01-01 07:27:23.927624	321.8	61.1	-60.8	3.2
2025-01-01 07:27:25.069614	320.8	61.3	-61.0	4.3
2025-01-01 07:27:26.211606	319.9	61.5	-60.8	2.3
2025-01-01 07:27:27.357585	318.8	61.6	-61.1	4.4
2025-01-01 07:27:28.499577	317.8	61.8	-61.2	1.7
2025-01-01 07:27:29.641567	316.8	61.9	-59.9	1.2
2025-01-01 07:27:30.785551	315.8	62.1	-60.2	1.9
2025-01-01 07:27:31.927541	314.7	62.2	-62.7	6.3
2025-01-01 07:27:33.069532	313.6	62.3	-63.7	7.4
2025-01-01 07:27:34.211032	312.6	62.4	-62.9	8.1
2025-01-01 07:27:35.354020	311.5	62.5	-62.6	6.7
2025-01-01 07:27:36.499001	310.4	62.6	-63.4	7.6
2025-01-01 07:27:37.641504	309.3	62.7	-62.4	5.9
2025-01-01 07:27:38.783492	308.2	62.8	-63.5	6.8
2025-01-01 07:27:39.925483	307.1	62.9	-65.0	10.1
2025-01-01 07:27:41.069468	305.9	62.9	-64.0	6.2
2025-01-01 07:27:42.211459	304.8	63.0	-64.0	7.9
2025-01-01 07:27:43.354446	303.7	63.0	-62.4	6.0
2025-01-01 07:27:44.498939	302.5	63.1	-63.3	6.1
2025-01-01 07:27:45.640933	301.4	63.1	-64.1	7.0
2025-01-01 07:27:46.782431	300.3	63.1	-62.3	4.2
2025-01-01 07:27:47.924421	299.1	63.1	-63.6	8.1
2025-01-01 07:27:49.069913	298.0	63.1	-63.0	7.5
2025-01-01 07:27:50.211412	296.8	63.1	-63.3	8.8
2025-01-01 07:27:51.354400	295.7	63.1	-61.3	6.6
2025-01-01 07:27:52.496411	294.6	63.1	-63.5	9.0
2025-01-01 07:27:53.639398	293.4	63.0	-64.0	10.2
2025-01-01 07:27:54.783383	292.3	63.0	-63.7	11.1
2025-01-01 07:27:55.929873	291.2	62.9	-64.3	9.7
2025-01-01 07:27:57.071863	290.0	62.8	-63.7	5.8
2025-01-01 07:27:58.214851	288.9	62.8	-64.0	10.4
2025-01-01 07:27:59.356352	287.8	62.7	-64.7	13.1
2025-01-01 07:28:00.501335	286.7	62.6	-64.7	12.1
2025-01-01 07:28:01.643325	285.6	62.5	-64.1	10.7
2025-01-01 07:28:02.787820	284.6	62.3	-64.6	12.4
2025-01-01 07:28:03.931803	283.5	62.2	-64.3	10.4
2025-01-01 07:28:05.075789	282.4	62.1	-64.8	12.5
2025-01-01 07:28:06.218289	281.4	62.0	-64.5	11.1
2025-01-01 07:28:07.361276	280.3	61.8	-63.9	9.9
2025-01-01 07:28:08.506259	279.3	61.7	-65.3	12.6
2025-01-01 07:28:09.648249	278.3	61.5	-66.0	11.9
2025-01-01 07:28:10.792239	277.3	61.3	-65.7	10.1
2025-01-01 07:28:11.937217	276.3	61.2	-66.1	10.9
2025-01-01 07:28:13.079714	275.4	61.0	-66.0	11.4
2025-01-01 07:28:14.221704	274.4	60.8	-66.1	13.2
2025-01-01 07:28:15.364709	273.5	60.6	-65.3	10.5
2025-01-01 07:28:16.506683	272.6	60.4	-65.9	11.6
2025-01-01 07:28:17.650668	271.6	60.2	-66.1	9.7
2025-01-01 07:28:18.792657	270.7	60.0	-66.0	10.0
2025-01-01 07:28:19.939146	269.9	59.8	-66.3	12.2
2025-01-01 07:28:21.079648	269.0	59.5	-65.8	11.9
2025-01-01 07:28:22.222153	268.1	59.3	-65.9	9.0
2025-01-01 07:28:23.363146	267.3	59.1	-66.5	10.8
2025-01-01 07:28:24.505136	266.5	58.8	-66.6	10.8
2025-01-01 07:28:25.646129	265.7	58.6	-66.5	8.6
2025-01-01 07:28:26.790115	264.9	58.3	-65.3	9.4
2025-01-01 07:28:27.933103	264.1	58.1	-65.8	10.0
2025-01-01 07:28:29.081077	263.4	57.8	-65.5	10.6
2025-01-01 07:28:30.224066	262.6	57.6	-65.4	9.0
2025-01-01 07:28:31.366054	261.9	57.3	-65.7	9.2
2025-01-01 07:28:32.511037	261.2	57.1	-66.0	11.1
2025-01-01 07:28:33.652536	260.5	56.8	-65.6	10.9
2025-01-01 07:28:34.803506	259.8	56.5	-65.4	10.6
2025-01-01 07:28:35.946491	259.1	56.2	-65.8	11.4
2025-01-01 07:28:37.092471	258.4	56.0	-65.6	10.6
2025-01-01 07:28:38.234461	257.8	55.7	-65.5	10.6
2025-01-01 07:28:39.376451	257.1	55.4	-65.6	11.5
2025-01-01 07:28:40.518442	256.5	55.1	-65.7	11.3
2025-01-01 07:28:41.662431	255.9	54.8	-65.4	11.6
2025-01-01 07:28:42.804417	255.3	54.6	-65.6	11.0
2025-01-01 07:28:43.948403	254.7	54.3	-65.5	11.5
2025-01-01 07:28:45.091390	254.1	54.0	-66.1	12.1
2025-01-01 07:28:46.235375	253.5	53.7	-66.2	12.7
2025-01-01 07:28:47.377365	253.0	53.4	-66.0	11.9
2025-01-01 07:28:48.518865	252.4	53.1	-66.4	11.6
2025-01-01 07:28:49.660855	251.9	52.8	-65.0	8.8
2025-01-01 07:28:50.802848	251.4	52.5	-66.2	13.4
2025-01-01 07:28:51.943839	250.9	52.2	-66.4	13.0
2025-01-01 07:28:53.088822	250.4	51.9	-66.8	14.3
2025-01-01 07:28:54.230811	249.9	51.6	-65.8	11.8
2025-01-01 07:28:55.373314	249.4	51.3	-65.6	12.3
2025-01-01 07:28:56.514307	248.9	51.0	-65.9	13.3
2025-01-01 07:28:57.656297	248.5	50.7	-66.0	14.6
2025-01-01 07:28:58.796802	248.0	50.4	-65.0	12.3
2025-01-01 07:28:59.939790	247.6	50.1	-65.5	13.2
2025-01-01 07:29:01.085770	247.1	49.8	-66.2	13.8
2025-01-01 07:29:02.227284	246.7	49.6	-66.4	12.8
2025-01-01 07:29:03.368276	246.3	49.3	-66.6	14.1
2025-01-01 07:29:04.511265	245.9	49.0	-66.7	14.9
2025-01-01 07:29:05.653255	245.5	48.7	-66.7	14.7
2025-01-01 07:29:06.802226	245.1	48.4	-66.3	14.2
2025-01-01 07:29:07.946212	244.7	48.1	-67.0	15.2
2025-01-01 07:29:09.088202	244.3	47.8	-67.5	13.5
2025-01-01 07:29:10.231190	243.9	47.5	-67.4	15.4
2025-01-01 07:29:11.378167	243.5	47.2	-67.4	13.2
2025-01-01 07:29:12.523149	243.2	46.9	-67.3	14.1
2025-01-01 07:29:13.665139	242.8	46.6	-67.4	14.8
2025-01-01 07:29:14.807130	242.5	46.3	-67.2	13.6
2025-01-01 07:29:15.952112	242.1	46.0	-67.2	14.0
2025-01-01 07:29:17.093105	241.8	45.7	-67.4	14.4
2025-01-01 07:29:18.235095	241.5	45.5	-66.8	12.7
2025-01-01 07:29:19.381584	241.2	45.2	-66.7	13.3
2025-01-01 07:29:20.523575	240.8	44.9	-67.4	15.0
2025-01-01 07:29:21.666563	240.5	44.6	-67.4	15.1
2025-01-01 07:29:22.809552	240.2	44.3	-66.6	14.5
2025-01-01 07:29:23.954042	239.9	44.0	-67.1	14.8
2025-01-01 07:29:25.095035	239.6	43.7	-67.4	15.6
2025-01-01 07:29:26.238023	239.3	43.5	-66.5	13.7
2025-01-01 07:29:27.381519	239.0	43.2	-66.9	14.1
2025-01-01 07:29:28.524506	238.8	42.9	-66.5	13.8
2025-01-01 07:29:29.668494	238.5	42.6	-66.4	12.7
2025-01-01 07:29:30.811509	238.2	42.4	-66.2	13.5
2025-01-01 07:29:31.954496	238.0	42.1	-65.9	13.4
2025-01-01 07:29:33.096487	237.7	41.8	-67.1	15.1
2025-01-01 07:29:34.238478	237.4	41.5	-66.8	13.2
2025-01-01 07:29:35.381466	237.2	41.3	-66.4	12.8
2025-01-01 07:29:36.525449	236.9	41.0	-66.3	12.4
2025-01-01 07:29:37.673424	236.7	40.7	-66.2	12.2
2025-01-01 07:29:38.815414	236.5	40.5	-66.4	12.4
2025-01-01 07:29:39.959399	236.2	40.2	-67.0	13.6
2025-01-01 07:29:41.101898	236.0	39.9	-66.4	12.0
2025-01-01 07:29:42.243887	235.8	39.7	-65.9	11.7
2025-01-01 07:29:43.388870	235.5	39.4	-66.1	12.4
2025-01-01 07:29:44.534851	235.3	39.2	-65.8	11.4
2025-01-01 07:29:45.675843	235.1	38.9	-66.2	12.3
2025-01-01 07:29:46.819828	234.9	38.6	-66.4	12.3
2025-01-01 07:29:47.961819	234.7	38.4	-66.3	11.6
2025-01-01 07:29:49.102811	234.5	38.1	-66.2	13.1
2025-01-01 07:29:50.245799	234.3	37.9	-66.2	12.0
2025-01-01 07:29:51.388787	234.0	37.6	-66.4	12.4
2025-01-01 07:29:52.535763	233.9	37.4	-66.8	13.1
2025-01-01 07:29:53.678751	233.7	37.1	-65.8	11.9
2025-01-01 07:29:54.820254	233.5	36.9	-66.7	11.9
2025-01-01 07:29:55.963242	233.3	36.6	-64.6	8.5
2025-01-01 07:29:57.107227	233.1	36.4	-65.4	9.7
2025-01-01 07:29:58.250214	232.9	36.2	-65.6	10.5
2025-01-01 07:29:59.396194	232.7	35.9	-64.9	10.5
2025-01-01 07:30:00.539182	232.5	35.7	-65.1	9.9
2025-01-01 07:30:01.684165	232.4	35.4	-64.5	9.2
2025-01-01 07:30:02.825663	232.2	35.2	-66.6	10.6
2025-01-01 07:30:03.969158	232.0	35.0	-65.6	10.6
2025-01-01 07:30:05.111150	231.9	34.7	-64.5	7.8
2025-01-01 07:30:06.253648	231.7	34.5	-63.2	6.6
2025-01-01 07:30:07.398630	231.5	34.3	-64.8	7.6
2025-01-01 07:30:08.541618	231.4	34.0	-63.8	7.8
2025-01-01 07:30:09.683608	231.2	33.8	-64.8	11.7
2025-01-01 07:30:10.829588	231.0	33.6	-64.1	6.7
2025-01-01 07:30:11.973574	230.9	33.4	-64.2	7.0
2025-01-01 07:30:13.119555	230.7	33.1	-64.4	8.5
2025-01-01 07:30:14.261543	230.6	32.9	-63.2	5.1
2025-01-01 07:30:15.405528	230.4	32.7	-65.4	8.3
2025-01-01 07:30:16.547523	230.3	32.5	-64.1	5.7
2025-01-01 07:30:17.689509	230.2	32.3	-64.1	6.3
2025-01-01 07:30:18.834001	230.0	32.0	-63.6	5.5
2025-01-01 07:30:19.980003	229.9	31.8	-64.3	6.8
2025-01-01 07:30:21.122990	229.7	31.6	-63.2	3.0
2025-01-01 07:30:22.267972	229.6	31.4	-63.6	5.7
2025-01-01 07:30:23.410473	229.5	31.2	-63.5	5.6
2025-01-01 07:30:24.552464	229.3	31.0	-63.7	4.7
2025-01-01 07:30:25.698443	229.2	30.8	-62.4	2.9
2025-01-01 07:30:26.844445	229.1	30.6	-63.4	4.3
2025-01-01 07:30:27.992929	228.9	30.4	-63.3	4.3
2025-01-01 07:30:29.136425	228.8	30.1	-65.2	5.5
#Closed at: 2025-01-01 07:25:00.120802