passes_logs/2025/01/01/Planum_Noyabrsk/Planum_Noyabrsk__20250101_151255_NOAA_19_rec.log

#Pass ID: 20250101_151255_NOAA 19
#Satellite: NOAA 19
#Configuration: NOAA 19
#Start time: 2025-01-01 15:13:00.696426

#LorettStation: 1.0.0 05.05.2024
#Station: Planum_Noyabrsk
#Location: 75.446886 lon 63.207202 lat
#TLE: 1 33591U 09005A   24366.56133148  .00000594  00000+0  34105-3 0  9990
#TLE: 2 33591  99.0220  64.2107 0014694  95.9153 264.3694 14.13245775819248

#Time	Az	El	Level	SNR
2025-01-01 15:13:06.909410	153.7	31.2	-65.0	11.2
2025-01-01 15:13:08.052367	153.6	31.4	-65.7	11.2
2025-01-01 15:13:09.195323	153.6	31.7	-65.5	10.0
2025-01-01 15:13:10.340805	153.6	31.9	-65.5	9.9
2025-01-01 15:13:11.481767	153.6	32.1	-65.4	9.9
2025-01-01 15:13:12.627716	153.6	32.3	-65.4	11.3
2025-01-01 15:13:13.771186	153.6	32.6	-65.1	11.3
2025-01-01 15:13:14.915139	153.5	32.8	-65.8	10.6
2025-01-01 15:13:16.057099	153.5	33.1	-66.5	11.7
2025-01-01 15:13:17.199567	153.5	33.3	-65.7	11.6
2025-01-01 15:13:18.342523	153.5	33.5	-65.1	10.6
2025-01-01 15:13:19.484482	153.5	33.8	-63.1	6.0
2025-01-01 15:13:20.626442	153.4	34.0	-64.0	9.3
2025-01-01 15:13:21.772390	153.4	34.3	-64.2	8.6
2025-01-01 15:13:22.915347	153.4	34.5	-64.0	8.1
2025-01-01 15:13:24.057307	153.4	34.8	-64.8	7.8
2025-01-01 15:13:25.202764	153.4	35.0	-64.9	8.9
2025-01-01 15:13:26.344723	153.3	35.3	-64.8	11.2
2025-01-01 15:13:27.485686	153.3	35.6	-66.0	12.3
2025-01-01 15:13:28.626647	153.3	35.8	-66.2	10.5
2025-01-01 15:13:29.772596	153.3	36.1	-66.2	13.0
2025-01-01 15:13:30.914556	153.3	36.3	-65.1	10.6
2025-01-01 15:13:32.056514	153.2	36.6	-66.2	11.9
2025-01-01 15:13:33.197477	153.2	36.9	-66.3	13.2
2025-01-01 15:13:34.341431	153.2	37.1	-66.5	13.2
2025-01-01 15:13:35.484389	153.2	37.4	-64.2	8.9
2025-01-01 15:13:36.626346	153.1	37.7	-66.0	13.1
2025-01-01 15:13:37.770301	153.1	38.0	-65.4	11.1
2025-01-01 15:13:38.909776	153.1	38.3	-65.2	11.2
2025-01-01 15:13:40.051735	153.1	38.5	-65.6	11.6
2025-01-01 15:13:41.193206	153.0	38.8	-65.6	10.6
2025-01-01 15:13:42.334185	153.0	39.1	-64.7	9.5
2025-01-01 15:13:43.480134	153.0	39.4	-65.1	8.9
2025-01-01 15:13:44.623091	152.9	39.7	-64.3	10.4
2025-01-01 15:13:45.764564	152.9	40.0	-65.4	10.7
2025-01-01 15:13:46.905526	152.9	40.3	-65.1	11.2
2025-01-01 15:13:48.049481	152.9	40.6	-65.8	12.8
2025-01-01 15:13:49.192950	152.8	40.9	-63.7	4.6
2025-01-01 15:13:50.338899	152.8	41.2	-65.2	13.2
2025-01-01 15:13:51.480857	152.8	41.5	-65.7	13.0
2025-01-01 15:13:52.623325	152.7	41.8	-65.7	12.9
2025-01-01 15:13:53.764287	152.7	42.1	-65.4	12.8
2025-01-01 15:13:54.907243	152.7	42.4	-63.9	12.4
2025-01-01 15:13:56.049203	152.6	42.7	-64.4	13.2
2025-01-01 15:13:57.199162	152.6	43.1	-64.2	12.4
2025-01-01 15:13:58.340630	152.6	43.4	-64.2	12.3
2025-01-01 15:13:59.482589	152.5	43.7	-63.7	9.5
2025-01-01 15:14:00.626543	152.5	44.0	-64.3	12.9
2025-01-01 15:14:01.769500	152.4	44.4	-64.6	11.7
2025-01-01 15:14:02.910463	152.4	44.7	-64.2	10.9
2025-01-01 15:14:04.053418	152.4	45.1	-64.2	11.9
2025-01-01 15:14:05.196375	152.3	45.4	-64.2	12.1
2025-01-01 15:14:06.341326	152.3	45.7	-63.6	10.1
2025-01-01 15:14:07.482800	152.2	46.1	-64.2	10.9
2025-01-01 15:14:08.626267	152.2	46.4	-63.8	10.5
2025-01-01 15:14:09.769225	152.1	46.8	-64.0	11.0
2025-01-01 15:14:10.912181	152.1	47.1	-62.8	10.6
2025-01-01 15:14:12.054140	152.0	47.5	-63.2	9.9
2025-01-01 15:14:13.195102	152.0	47.9	-63.5	10.2
2025-01-01 15:14:14.340053	151.9	48.2	-63.1	10.3
2025-01-01 15:14:15.484007	151.9	48.6	-63.3	10.9
2025-01-01 15:14:16.625967	151.8	49.0	-63.5	11.1
2025-01-01 15:14:17.766441	151.8	49.3	-63.4	11.3
2025-01-01 15:14:18.911393	151.7	49.7	-63.5	10.6
2025-01-01 15:14:20.053861	151.6	50.1	-63.2	10.0
2025-01-01 15:14:21.196328	151.6	50.5	-63.4	10.3
2025-01-01 15:14:22.340281	151.5	50.8	-63.6	10.8
2025-01-01 15:14:23.486229	151.5	51.2	-63.0	10.2
2025-01-01 15:14:24.627701	151.4	51.6	-63.2	9.5
2025-01-01 15:14:25.772653	151.3	52.0	-62.7	10.3
2025-01-01 15:14:26.913614	151.3	52.4	-62.0	8.9
2025-01-01 15:14:28.056083	151.2	52.8	-61.9	8.9
2025-01-01 15:14:29.196047	151.1	53.2	-61.8	8.9
2025-01-01 15:14:30.339004	151.0	53.6	-61.6	9.5
2025-01-01 15:14:31.478969	151.0	54.0	-61.9	8.2
2025-01-01 15:14:32.626912	150.9	54.5	-61.6	7.8
2025-01-01 15:14:33.769869	150.8	54.9	-61.5	8.7
2025-01-01 15:14:34.911828	150.7	55.3	-61.4	7.7
2025-01-01 15:14:36.052789	150.6	55.7	-61.3	8.4
2025-01-01 15:14:37.197741	150.5	56.1	-60.6	8.1
2025-01-01 15:14:38.338703	150.4	56.6	-61.2	8.2
2025-01-01 15:14:39.482167	150.3	57.0	-60.8	7.6
2025-01-01 15:14:40.624127	150.2	57.4	-60.9	8.6
2025-01-01 15:14:41.765087	150.1	57.9	-61.2	7.9
2025-01-01 15:14:42.907559	150.0	58.3	-61.0	7.9
2025-01-01 15:14:44.050515	149.9	58.8	-60.9	7.2
2025-01-01 15:14:45.194470	149.8	59.2	-60.8	7.4
2025-01-01 15:14:46.333944	149.7	59.7	-60.7	6.8
2025-01-01 15:14:47.476901	149.6	60.1	-61.0	6.1
2025-01-01 15:14:48.617863	149.4	60.6	-60.9	5.7
2025-01-01 15:14:49.758850	149.3	61.0	-61.2	5.2
2025-01-01 15:14:50.914774	149.2	61.5	-60.8	5.1
2025-01-01 15:14:52.057729	149.0	62.0	-58.6	1.1
2025-01-01 15:14:53.199689	148.9	62.4	-60.7	5.2
2025-01-01 15:14:54.340650	148.7	62.9	-59.7	3.6
2025-01-01 15:14:55.483120	148.6	63.4	-59.4	3.5
2025-01-01 15:14:56.632062	148.4	63.9	-59.2	2.3
2025-01-01 15:14:57.776015	148.2	64.4	-59.5	0.0
2025-01-01 15:14:58.919969	148.0	64.9	-60.4	3.2
2025-01-01 15:15:00.074404	147.8	65.3	-60.0	1.9
2025-01-01 15:15:01.223344	147.6	65.8	-62.1	3.8
2025-01-01 15:15:02.365304	147.4	66.3	-60.4	1.2
2025-01-01 15:15:03.511252	147.2	66.8	-62.9	5.6
2025-01-01 15:15:04.652721	147.0	67.3	-62.8	4.3
2025-01-01 15:15:05.793682	146.7	67.8	-62.7	4.4
2025-01-01 15:15:06.935152	146.5	68.3	-62.0	2.9
2025-01-01 15:15:08.078126	146.2	68.8	-61.1	2.8
2025-01-01 15:15:09.222081	145.9	69.4	-61.0	2.6
2025-01-01 15:15:10.366034	145.6	69.9	-62.4	5.7
2025-01-01 15:15:11.510986	145.3	70.4	-63.1	5.9
2025-01-01 15:15:12.652945	145.0	70.9	-62.1	3.9
2025-01-01 15:15:13.795412	144.6	71.4	-62.9	6.2
2025-01-01 15:15:14.937370	144.2	71.9	-62.8	5.5
2025-01-01 15:15:16.079330	143.8	72.5	-62.5	6.6
2025-01-01 15:15:17.223283	143.4	73.0	-62.4	4.3
2025-01-01 15:15:18.366240	142.9	73.5	-62.8	5.0
2025-01-01 15:15:19.509197	142.5	74.0	-62.7	3.8
2025-01-01 15:15:20.653151	141.9	74.6	-63.3	3.6
2025-01-01 15:15:21.795620	141.4	75.1	-62.0	1.9
2025-01-01 15:15:22.937579	140.8	75.6	-63.0	0.0
2025-01-01 15:15:24.079538	140.1	76.1	-62.0	0.0
2025-01-01 15:15:25.222006	139.4	76.7	-63.8	0.2
2025-01-01 15:15:26.365960	138.6	77.2	-63.3	0.0
2025-01-01 15:15:27.508916	137.8	77.7	-63.2	0.0
2025-01-01 15:15:28.653868	136.9	78.3	-63.3	0.0
2025-01-01 15:15:29.794829	135.9	78.8	-64.2	1.5
2025-01-01 15:15:30.938784	134.8	79.3	-63.2	1.2
2025-01-01 15:15:32.080275	133.6	79.8	-62.2	1.6
2025-01-01 15:15:33.221236	132.2	80.3	-62.7	2.7
2025-01-01 15:15:34.362199	130.7	80.9	-62.2	0.0
2025-01-01 15:15:35.506152	129.0	81.4	-62.9	4.6
2025-01-01 15:15:36.649109	127.1	81.9	-63.0	3.9
2025-01-01 15:15:37.791068	125.0	82.4	-62.7	3.6
2025-01-01 15:15:38.934025	122.5	82.8	-61.6	0.0
2025-01-01 15:15:40.079973	119.7	83.3	-62.8	3.5
2025-01-01 15:15:41.220936	116.5	83.7	-61.8	4.7
2025-01-01 15:15:42.363893	112.8	84.2	-61.1	2.2
2025-01-01 15:15:43.508843	108.5	84.6	-61.8	4.3
2025-01-01 15:15:44.650321	103.6	84.9	-61.9	2.8
2025-01-01 15:15:45.793278	98.0	85.3	-62.5	4.0
2025-01-01 15:15:46.934747	91.7	85.5	-60.1	1.1
2025-01-01 15:15:48.079698	84.6	85.7	-61.1	2.2
2025-01-01 15:15:49.221657	76.9	85.9	-60.6	2.7
2025-01-01 15:15:50.363127	68.9	85.9	-60.8	4.4
2025-01-01 15:15:51.505087	60.7	85.9	-61.4	3.7
2025-01-01 15:15:52.647047	52.9	85.8	-60.5	0.0
2025-01-01 15:15:53.788024	45.5	85.6	-63.2	3.3
2025-01-01 15:15:54.934479	38.8	85.4	-63.4	4.2
2025-01-01 15:15:56.075442	32.9	85.1	-63.9	8.2
2025-01-01 15:15:57.217401	27.6	84.7	-61.9	3.9
2025-01-01 15:15:58.358364	23.1	84.4	-62.2	4.6
2025-01-01 15:15:59.500322	19.2	83.9	-63.1	5.3
2025-01-01 15:16:00.647268	15.7	83.5	-64.9	6.4
2025-01-01 15:16:01.790251	12.8	83.0	-61.1	2.5
2025-01-01 15:16:02.934203	10.2	82.6	-61.4	4.6
2025-01-01 15:16:04.076164	7.9	82.1	-62.9	8.6
2025-01-01 15:16:05.217146	5.9	81.6	-61.3	4.7
2025-01-01 15:16:06.360102	4.1	81.1	-63.7	7.0
2025-01-01 15:16:07.502062	2.5	80.6	-61.9	4.7
2025-01-01 15:16:08.643041	1.1	80.1	-62.7	5.3
2025-01-01 15:16:09.785000	359.8	79.6	-61.6	4.5
2025-01-01 15:16:10.929952	358.7	79.0	-62.2	3.8
2025-01-01 15:16:12.076898	357.6	78.5	-63.0	5.6
2025-01-01 15:16:13.220363	356.7	78.0	-62.8	3.4
2025-01-01 15:16:14.365315	355.8	77.4	-62.7	3.0
2025-01-01 15:16:15.506789	355.0	76.9	-63.7	3.8
2025-01-01 15:16:16.653734	354.3	76.4	-63.3	4.9
2025-01-01 15:16:17.795694	353.6	75.9	-64.1	3.1
2025-01-01 15:16:18.937164	353.0	75.3	-63.4	3.1
2025-01-01 15:16:20.082116	352.4	74.8	-63.3	4.2
2025-01-01 15:16:21.225071	351.8	74.3	-63.3	3.2
2025-01-01 15:16:22.366542	351.3	73.8	-63.9	3.4
2025-01-01 15:16:23.507504	350.9	73.2	-63.3	6.0
2025-01-01 15:16:24.648972	350.4	72.7	-63.6	5.3
2025-01-01 15:16:25.791439	350.0	72.2	-62.5	3.5
2025-01-01 15:16:26.932910	349.6	71.7	-61.0	4.7
2025-01-01 15:16:28.079857	349.3	71.1	-60.5	2.3
2025-01-01 15:16:29.221839	348.9	70.6	-61.3	5.4
2025-01-01 15:16:30.364798	348.6	70.1	-61.3	4.2
2025-01-01 15:16:31.507752	348.3	69.6	-63.1	7.7
2025-01-01 15:16:32.649711	348.0	69.1	-63.1	7.4
2025-01-01 15:16:33.790673	347.7	68.6	-63.8	6.5
2025-01-01 15:16:34.933630	347.5	68.1	-62.8	6.5
2025-01-01 15:16:36.075591	347.2	67.6	-62.3	6.9
2025-01-01 15:16:37.220540	347.0	67.1	-63.1	7.7
2025-01-01 15:16:38.363497	346.7	66.6	-63.2	7.9
2025-01-01 15:16:39.504459	346.5	66.1	-62.1	6.5
2025-01-01 15:16:40.650408	346.3	65.6	-61.3	4.0
2025-01-01 15:16:41.792367	346.1	65.1	-64.5	10.3
2025-01-01 15:16:42.937319	345.9	64.6	-64.4	10.3
2025-01-01 15:16:44.080790	345.8	64.1	-63.8	8.5
2025-01-01 15:16:45.221752	345.6	63.6	-61.9	6.0
2025-01-01 15:16:46.364709	345.4	63.2	-61.9	6.1
2025-01-01 15:16:47.506180	345.3	62.7	-61.9	7.0
2025-01-01 15:16:48.650135	345.1	62.2	-61.2	5.0
2025-01-01 15:16:49.792602	345.0	61.7	-60.8	5.3
2025-01-01 15:16:50.939061	344.8	61.3	-62.1	7.2
2025-01-01 15:16:52.082017	344.7	60.8	-61.6	6.8
2025-01-01 15:16:53.226969	344.6	60.4	-61.3	6.5
2025-01-01 15:16:54.370923	344.4	59.9	-62.5	6.8
2025-01-01 15:16:55.514876	344.3	59.4	-62.0	7.5
2025-01-01 15:16:56.657833	344.2	59.0	-60.2	4.3
2025-01-01 15:16:57.798794	344.1	58.6	-60.8	7.2
2025-01-01 15:16:58.940754	344.0	58.1	-61.0	5.3
2025-01-01 15:17:00.083221	343.9	57.7	-62.3	8.1
2025-01-01 15:17:01.234174	343.8	57.2	-61.7	6.9
2025-01-01 15:17:02.376134	343.7	56.8	-59.5	1.1
2025-01-01 15:17:03.518093	343.6	56.4	-60.9	4.2
2025-01-01 15:17:04.669028	343.5	55.9	-59.3	0.0
2025-01-01 15:17:05.811985	343.4	55.5	-59.4	0.0
2025-01-01 15:17:06.954452	343.3	55.1	-58.9	0.0
2025-01-01 15:17:08.098426	343.2	54.7	-59.6	1.4
2025-01-01 15:17:09.240385	343.1	54.3	-59.9	3.6
2025-01-01 15:17:10.382346	343.1	53.8	-59.7	2.0
2025-01-01 15:17:11.525301	343.0	53.4	-60.5	2.2
2025-01-01 15:17:12.677234	342.9	53.0	-61.1	5.1
2025-01-01 15:17:13.822186	342.8	52.6	-58.6	0.0
2025-01-01 15:17:14.965651	342.8	52.2	-58.2	0.0
2025-01-01 15:17:16.110601	342.7	51.8	-58.3	1.8
2025-01-01 15:17:17.254556	342.6	51.4	-57.5	0.9
2025-01-01 15:17:18.396515	342.6	51.1	-58.5	0.6
2025-01-01 15:17:19.539475	342.5	50.7	-59.4	0.0
2025-01-01 15:17:20.683425	342.5	50.3	-59.2	1.8
2025-01-01 15:17:21.826383	342.4	49.9	-58.7	0.0
2025-01-01 15:17:22.969338	342.3	49.5	-59.5	0.0
2025-01-01 15:17:24.111297	342.3	49.2	-58.3	0.0
2025-01-01 15:17:25.254254	342.2	48.8	-56.7	0.0
2025-01-01 15:17:26.396214	342.2	48.4	-58.8	0.0
2025-01-01 15:17:27.538682	342.1	48.1	-58.8	0.0
2025-01-01 15:17:28.683146	342.1	47.7	-58.8	0.0
2025-01-01 15:17:29.824107	342.0	47.3	-63.0	0.8
2025-01-01 15:17:30.966068	342.0	47.0	-58.3	0.0
2025-01-01 15:17:32.108027	341.9	46.6	-56.3	0.0
2025-01-01 15:17:33.252978	341.9	46.3	-57.4	0.0
2025-01-01 15:17:34.395935	341.8	45.9	-59.9	0.0
2025-01-01 15:17:35.537408	341.8	45.6	-57.2	0.0
2025-01-01 15:17:36.679367	341.7	45.2	-60.5	0.0
2025-01-01 15:17:37.820329	341.7	44.9	-57.5	0.0
2025-01-01 15:17:38.961291	341.7	44.6	-56.5	0.0
2025-01-01 15:17:40.103757	341.6	44.2	-57.7	0.0
2025-01-01 15:17:41.248708	341.6	43.9	-56.9	0.0
2025-01-01 15:17:42.391664	341.5	43.6	-56.7	0.0
2025-01-01 15:17:43.539609	341.5	43.3	-55.5	0.0
2025-01-01 15:17:44.682565	341.5	42.9	-57.3	0.0
2025-01-01 15:17:45.826518	341.4	42.6	-59.0	0.0
2025-01-01 15:17:46.969476	341.4	42.3	-56.0	0.0
2025-01-01 15:17:48.115425	341.4	42.0	-55.2	0.0
2025-01-01 15:17:49.257385	341.3	41.7	-53.5	0.0
2025-01-01 15:17:50.400340	341.3	41.4	-56.3	0.0
2025-01-01 15:17:51.544293	341.3	41.1	-57.3	0.0
2025-01-01 15:17:52.687250	341.2	40.8	-60.2	0.2
2025-01-01 15:17:53.828719	341.2	40.5	-58.6	0.0
2025-01-01 15:17:54.971676	341.2	40.2	-58.8	0.0
2025-01-01 15:17:56.115647	341.1	39.9	-58.4	0.0
2025-01-01 15:17:57.261113	341.1	39.6	-56.3	0.0
2025-01-01 15:17:58.403073	341.1	39.3	-57.3	0.0
2025-01-01 15:17:59.545032	341.1	39.0	-59.6	0.0
2025-01-01 15:18:00.687499	341.0	38.7	-56.0	0.0
2025-01-01 15:18:01.830972	341.0	38.4	-57.4	0.0
2025-01-01 15:18:02.978914	341.0	38.2	-54.8	0.0
2025-01-01 15:18:04.120873	341.0	37.9	-58.5	0.0
2025-01-01 15:18:05.263830	340.9	37.6	-58.4	0.0
2025-01-01 15:18:06.408781	340.9	37.3	-59.4	0.0
2025-01-01 15:18:07.552249	340.9	37.0	-53.6	0.0
2025-01-01 15:18:08.693211	340.9	36.8	-55.1	0.0
2025-01-01 15:18:09.839159	340.8	36.5	-61.2	0.0
2025-01-01 15:18:10.981625	340.8	36.2	-58.0	0.0
2025-01-01 15:18:12.123600	340.8	36.0	-60.2	0.0
2025-01-01 15:18:13.265544	340.8	35.7	-57.2	0.0
2025-01-01 15:18:14.409010	340.8	35.5	-55.0	0.0
2025-01-01 15:18:15.552964	340.7	35.2	-51.7	0.0
2025-01-01 15:18:16.701904	340.7	35.0	-59.6	0.0
2025-01-01 15:18:17.844373	340.7	34.7	-57.9	0.0
2025-01-01 15:18:18.987329	340.7	34.4	-56.3	0.0
2025-01-01 15:18:20.132790	340.7	34.2	-55.7	0.0
2025-01-01 15:18:21.276254	340.6	34.0	-54.7	0.0
2025-01-01 15:18:22.418219	340.6	33.7	-54.0	0.0
2025-01-01 15:18:23.560173	340.6	33.5	-56.0	0.0
2025-01-01 15:18:24.704638	340.6	33.2	-56.9	0.0
2025-01-01 15:18:25.846598	340.6	33.0	-55.1	0.0
2025-01-01 15:18:26.989554	340.5	32.7	-54.6	0.0
2025-01-01 15:18:28.133022	340.5	32.5	-53.7	0.0
2025-01-01 15:18:29.276975	340.5	32.3	-57.2	0.0
2025-01-01 15:18:30.418934	340.5	32.0	-54.9	0.0
2025-01-01 15:18:31.562397	340.5	31.8	-58.0	0.0
2025-01-01 15:18:32.706350	340.5	31.6	-54.6	0.0
2025-01-01 15:18:33.849307	340.4	31.4	-55.7	0.0
2025-01-01 15:18:34.992774	340.4	31.1	-57.8	0.0
2025-01-01 15:18:36.139720	340.4	30.9	-55.3	0.0
2025-01-01 15:18:37.281679	340.4	30.7	-57.4	0.0
2025-01-01 15:18:38.425145	340.4	30.5	-56.6	0.0
2025-01-01 15:18:39.567104	340.4	30.3	-56.1	0.0
2025-01-01 15:18:40.711058	340.4	30.0	-58.6	0.0
#Closed at: 2025-01-01 15:12:55.699268