passes_logs/2025/01/01/Planum_Noyabrsk/Planum_Noyabrsk__20250101_092310_METEOR-M2_4_rec.log

#Pass ID: 20250101_092310_METEOR-M2 4
#Satellite: METEOR-M2 4
#Configuration: METEOR-M2 4
#Start time: 2025-01-01 09:23:15.957466

#LorettStation: 1.0.0 05.05.2024
#Station: Planum_Noyabrsk
#Location: 75.446886 lon 63.207202 lat
#TLE: 1 59051U 24039A   24366.53638875  .00000209  00000+0  11354-3 0  9991
#TLE: 2 59051  98.6272 323.8553 0005976 274.1680  85.8815 14.22319791 43540

#Time	Az	El	Level	SNR
2025-01-01 09:23:22.174143	197.2	31.1	-64.0	10.5
2025-01-01 09:23:23.317661	197.4	31.3	-64.4	10.8
2025-01-01 09:23:24.460598	197.6	31.5	-64.0	10.1
2025-01-01 09:23:25.603559	197.9	31.7	-64.2	10.7
2025-01-01 09:23:26.750509	198.1	31.9	-63.7	10.7
2025-01-01 09:23:27.892473	198.3	32.1	-64.1	10.6
2025-01-01 09:23:29.034437	198.5	32.3	-64.1	11.0
2025-01-01 09:23:30.178902	198.7	32.5	-64.4	11.1
2025-01-01 09:23:31.320866	198.9	32.7	-64.2	11.0
2025-01-01 09:23:32.461832	199.2	32.9	-64.6	11.7
2025-01-01 09:23:33.603306	199.4	33.1	-63.8	11.0
2025-01-01 09:23:34.746267	199.6	33.3	-63.8	10.7
2025-01-01 09:23:35.892219	199.9	33.5	-64.2	12.0
2025-01-01 09:23:37.033186	200.1	33.7	-63.7	11.0
2025-01-01 09:23:38.176146	200.3	33.9	-63.6	11.3
2025-01-01 09:23:39.317113	200.6	34.1	-63.4	10.4
2025-01-01 09:23:40.459076	200.8	34.3	-63.4	10.2
2025-01-01 09:23:41.605028	201.1	34.6	-63.9	10.7
2025-01-01 09:23:42.746992	201.3	34.8	-63.7	10.2
2025-01-01 09:23:43.890460	201.6	35.0	-64.4	11.1
2025-01-01 09:23:45.033421	201.9	35.2	-63.7	10.5
2025-01-01 09:23:46.176382	202.1	35.4	-64.3	10.0
2025-01-01 09:23:47.317348	202.4	35.6	-64.1	10.0
2025-01-01 09:23:48.462811	202.7	35.9	-64.1	10.5
2025-01-01 09:23:49.604773	202.9	36.1	-64.7	10.3
2025-01-01 09:23:50.747736	203.2	36.3	-64.0	10.1
2025-01-01 09:23:51.891693	203.5	36.5	-63.8	10.2
2025-01-01 09:23:53.034653	203.8	36.7	-64.5	11.0
2025-01-01 09:23:54.177620	204.1	37.0	-64.6	11.4
2025-01-01 09:23:55.323567	204.4	37.2	-64.3	10.7
2025-01-01 09:23:56.466528	204.7	37.4	-64.2	11.3
2025-01-01 09:23:57.608492	205.0	37.6	-63.8	11.2
2025-01-01 09:23:58.752476	205.3	37.8	-64.3	11.1
2025-01-01 09:23:59.893441	205.6	38.1	-64.7	11.4
2025-01-01 09:24:01.037400	205.9	38.3	-64.6	11.2
2025-01-01 09:24:02.177877	206.2	38.5	-64.6	11.5
2025-01-01 09:24:03.318843	206.5	38.8	-64.5	10.5
2025-01-01 09:24:04.460806	206.9	39.0	-64.7	11.4
2025-01-01 09:24:05.605765	207.2	39.2	-64.8	11.5
2025-01-01 09:24:06.748235	207.5	39.4	-64.9	11.4
2025-01-01 09:24:07.889201	207.9	39.7	-65.3	12.1
2025-01-01 09:24:09.031187	208.2	39.9	-65.8	12.3
2025-01-01 09:24:10.172153	208.6	40.1	-65.6	11.9
2025-01-01 09:24:11.314117	208.9	40.3	-65.2	12.1
2025-01-01 09:24:12.457589	209.3	40.6	-65.5	12.5
2025-01-01 09:24:13.600547	209.6	40.8	-65.7	12.8
2025-01-01 09:24:14.743508	210.0	41.0	-65.6	11.6
2025-01-01 09:24:15.884474	210.4	41.3	-65.7	12.1
2025-01-01 09:24:17.027434	210.8	41.5	-65.7	11.9
2025-01-01 09:24:18.172390	211.2	41.7	-65.5	12.6
2025-01-01 09:24:19.313863	211.5	42.0	-65.9	12.7
2025-01-01 09:24:20.455827	211.9	42.2	-65.5	11.7
2025-01-01 09:24:21.596793	212.3	42.4	-65.7	12.1
2025-01-01 09:24:22.738756	212.8	42.6	-65.9	12.2
2025-01-01 09:24:23.882225	213.2	42.9	-66.3	12.8
2025-01-01 09:24:25.025185	213.6	43.1	-66.8	13.0
2025-01-01 09:24:26.167150	214.0	43.3	-66.3	12.1
2025-01-01 09:24:27.311110	214.4	43.6	-66.2	11.8
2025-01-01 09:24:28.450078	214.9	43.8	-66.5	12.5
2025-01-01 09:24:29.591552	215.3	44.0	-66.3	11.5
2025-01-01 09:24:30.739013	215.8	44.3	-66.7	12.2
2025-01-01 09:24:31.880977	216.2	44.5	-66.5	11.8
2025-01-01 09:24:33.021942	216.7	44.7	-66.9	12.3
2025-01-01 09:24:34.164417	217.2	44.9	-67.2	13.3
2025-01-01 09:24:35.305383	217.6	45.2	-67.2	12.2
2025-01-01 09:24:36.447346	218.1	45.4	-66.2	12.0
2025-01-01 09:24:37.595294	218.6	45.6	-66.7	12.2
2025-01-01 09:24:38.735262	219.1	45.8	-66.9	12.1
2025-01-01 09:24:39.877226	219.6	46.0	-67.7	13.4
2025-01-01 09:24:41.022181	220.1	46.3	-67.4	13.0
2025-01-01 09:24:42.164665	220.6	46.5	-67.1	12.4
2025-01-01 09:24:43.306628	221.2	46.7	-67.3	11.7
2025-01-01 09:24:44.446106	221.7	46.9	-67.3	12.1
2025-01-01 09:24:45.588070	222.2	47.1	-67.4	12.1
2025-01-01 09:24:46.729036	222.8	47.3	-67.2	11.6
2025-01-01 09:24:47.871997	223.3	47.5	-67.4	11.5
2025-01-01 09:24:49.012963	223.9	47.8	-67.8	12.3
2025-01-01 09:24:50.155435	224.5	48.0	-67.6	11.8
2025-01-01 09:24:51.295912	225.0	48.2	-67.8	11.4
2025-01-01 09:24:52.436389	225.6	48.4	-68.3	12.5
2025-01-01 09:24:53.577353	226.2	48.6	-68.0	10.7
2025-01-01 09:24:54.720314	226.8	48.8	-68.2	12.6
2025-01-01 09:24:55.861786	227.4	49.0	-68.0	11.0
2025-01-01 09:24:57.003750	228.0	49.1	-68.0	10.1
2025-01-01 09:24:58.151698	228.7	49.3	-67.6	10.7
2025-01-01 09:24:59.293173	229.3	49.5	-67.6	10.7
2025-01-01 09:25:00.436133	229.9	49.7	-67.9	10.3
2025-01-01 09:25:01.579094	230.6	49.9	-68.1	11.8
2025-01-01 09:25:02.724049	231.2	50.1	-67.3	10.2
2025-01-01 09:25:03.866013	231.9	50.2	-67.6	10.8
2025-01-01 09:25:05.008973	232.6	50.4	-67.9	10.6
2025-01-01 09:25:06.151450	233.2	50.6	-67.5	10.2
2025-01-01 09:25:07.292415	233.9	50.7	-68.6	10.1
2025-01-01 09:25:08.438367	234.6	50.9	-67.8	10.0
2025-01-01 09:25:09.579847	235.3	51.1	-68.3	11.2
2025-01-01 09:25:10.722808	236.0	51.2	-68.3	10.2
2025-01-01 09:25:11.867276	236.7	51.4	-68.1	10.8
2025-01-01 09:25:13.011742	237.4	51.5	-67.6	9.5
2025-01-01 09:25:14.153705	238.2	51.6	-67.9	10.9
2025-01-01 09:25:15.295669	238.9	51.8	-67.4	9.8
2025-01-01 09:25:16.439136	239.6	51.9	-67.3	9.8
2025-01-01 09:25:17.582096	240.4	52.0	-67.4	9.5
2025-01-01 09:25:18.723063	241.1	52.2	-67.1	9.3
2025-01-01 09:25:19.867021	241.9	52.3	-67.0	7.9
2025-01-01 09:25:21.011486	242.6	52.4	-66.7	8.5
2025-01-01 09:25:22.154447	243.4	52.5	-67.5	8.1
2025-01-01 09:25:23.297407	244.2	52.6	-67.3	7.5
2025-01-01 09:25:24.441366	245.0	52.7	-67.4	8.8
2025-01-01 09:25:25.582332	245.7	52.8	-67.9	9.1
2025-01-01 09:25:26.726290	246.5	52.9	-66.6	7.9
2025-01-01 09:25:27.869250	247.3	53.0	-67.8	9.5
2025-01-01 09:25:29.012211	248.1	53.0	-66.7	7.1
2025-01-01 09:25:30.154174	248.9	53.1	-67.2	8.4
2025-01-01 09:25:31.296645	249.7	53.2	-67.0	7.6
2025-01-01 09:25:32.440603	250.5	53.2	-66.8	7.5
2025-01-01 09:25:33.583564	251.4	53.3	-66.2	6.1
2025-01-01 09:25:34.724530	252.2	53.3	-67.2	7.7
2025-01-01 09:25:35.870484	253.0	53.4	-66.7	8.7
2025-01-01 09:25:37.019427	253.8	53.4	-66.0	4.5
2025-01-01 09:25:38.159903	254.6	53.5	-65.9	5.8
2025-01-01 09:25:39.300869	255.5	53.5	-65.9	6.3
2025-01-01 09:25:40.442832	256.3	53.5	-66.0	6.6
2025-01-01 09:25:41.585793	257.1	53.5	-65.6	5.2
2025-01-01 09:25:42.729751	257.9	53.5	-65.9	5.8
2025-01-01 09:25:43.872712	258.8	53.5	-65.4	5.1
2025-01-01 09:25:45.014676	259.6	53.5	-66.3	5.6
2025-01-01 09:25:46.156638	260.4	53.5	-65.6	4.9
2025-01-01 09:25:47.298115	261.2	53.5	-65.8	4.9
2025-01-01 09:25:48.440078	262.0	53.5	-66.0	5.7
2025-01-01 09:25:49.586540	262.9	53.4	-66.0	6.5
2025-01-01 09:25:50.731495	263.7	53.4	-66.0	7.6
2025-01-01 09:25:51.874456	264.5	53.4	-66.1	7.4
2025-01-01 09:25:53.017923	265.3	53.3	-65.9	7.6
2025-01-01 09:25:54.160884	266.1	53.3	-65.5	7.5
2025-01-01 09:25:55.303845	266.9	53.2	-65.6	7.2
2025-01-01 09:25:56.448311	267.8	53.2	-65.9	8.0
2025-01-01 09:25:57.591272	268.6	53.1	-66.0	8.4
2025-01-01 09:25:58.733743	269.4	53.0	-66.0	7.8
2025-01-01 09:25:59.874709	270.2	52.9	-66.3	7.9
2025-01-01 09:26:01.020661	270.9	52.8	-67.5	9.5
2025-01-01 09:26:02.161626	271.7	52.8	-67.0	9.0
2025-01-01 09:26:03.304586	272.5	52.7	-65.9	7.2
2025-01-01 09:26:04.449540	273.3	52.6	-67.1	8.9
2025-01-01 09:26:05.591502	274.1	52.5	-67.3	10.0
2025-01-01 09:26:06.733971	274.8	52.3	-67.9	9.7
2025-01-01 09:26:07.876443	275.6	52.2	-67.1	8.5
2025-01-01 09:26:09.021397	276.3	52.1	-67.9	9.7
2025-01-01 09:26:10.162362	277.1	52.0	-67.6	9.5
2025-01-01 09:26:11.305322	277.8	51.9	-67.2	8.1
2025-01-01 09:26:12.450276	278.6	51.7	-67.3	9.1
2025-01-01 09:26:13.592746	279.3	51.6	-67.0	8.7
2025-01-01 09:26:14.738699	280.0	51.4	-66.0	7.9
2025-01-01 09:26:15.881657	280.7	51.3	-66.2	8.7
2025-01-01 09:26:17.027124	281.4	51.1	-68.3	11.5
2025-01-01 09:26:18.172079	282.1	51.0	-66.9	9.8
2025-01-01 09:26:19.316035	282.8	50.8	-65.7	7.8
2025-01-01 09:26:20.459503	283.5	50.7	-65.3	7.6
2025-01-01 09:26:21.603459	284.2	50.5	-65.2	8.2
2025-01-01 09:26:22.745421	284.9	50.3	-64.6	6.2
2025-01-01 09:26:23.887383	285.5	50.2	-64.8	7.7
2025-01-01 09:26:25.030343	286.2	50.0	-64.8	7.2
2025-01-01 09:26:26.171308	286.8	49.8	-66.6	11.7
2025-01-01 09:26:27.316262	287.5	49.6	-65.0	10.2
2025-01-01 09:26:28.463212	288.1	49.4	-66.6	9.4
2025-01-01 09:26:29.605173	288.7	49.3	-66.3	9.3
2025-01-01 09:26:30.747155	289.3	49.1	-64.4	5.9
2025-01-01 09:26:31.889116	289.9	48.9	-65.1	5.5
2025-01-01 09:26:33.032076	290.5	48.7	-64.4	6.4
2025-01-01 09:26:34.174547	291.1	48.5	-64.6	6.4
2025-01-01 09:26:35.318504	291.7	48.3	-64.0	6.5
2025-01-01 09:26:36.462461	292.3	48.1	-64.5	6.8
2025-01-01 09:26:37.605442	292.9	47.9	-64.3	5.7
2025-01-01 09:26:38.748402	293.4	47.7	-64.0	4.9
2025-01-01 09:26:39.889367	294.0	47.5	-66.2	9.1
2025-01-01 09:26:41.030839	294.5	47.3	-65.3	5.9
2025-01-01 09:26:42.174796	295.1	47.0	-66.2	9.5
2025-01-01 09:26:43.318752	295.6	46.8	-64.0	6.0
2025-01-01 09:26:44.461225	296.2	46.6	-65.0	7.9
2025-01-01 09:26:45.603187	296.7	46.4	-64.5	6.4
2025-01-01 09:26:46.745150	297.2	46.2	-64.9	7.3
2025-01-01 09:26:47.890612	297.7	46.0	-66.0	8.3
2025-01-01 09:26:49.037561	298.2	45.7	-64.5	5.7
2025-01-01 09:26:50.178526	298.7	45.5	-67.2	11.1
2025-01-01 09:26:51.323479	299.2	45.3	-66.0	6.2
2025-01-01 09:26:52.469431	299.7	45.1	-65.6	9.2
2025-01-01 09:26:53.613388	300.1	44.9	-67.2	8.0
2025-01-01 09:26:54.756347	300.6	44.6	-67.1	10.2
2025-01-01 09:26:55.901302	301.1	44.4	-65.8	10.2
2025-01-01 09:26:57.044261	301.5	44.2	-66.4	10.6
2025-01-01 09:26:58.186223	302.0	44.0	-66.3	9.5
2025-01-01 09:26:59.330687	302.4	43.7	-66.1	8.9
2025-01-01 09:27:00.472649	302.8	43.5	-66.6	11.7
2025-01-01 09:27:01.615609	303.3	43.3	-66.7	11.2
2025-01-01 09:27:02.757080	303.7	43.0	-65.5	7.9
2025-01-01 09:27:03.902034	304.1	42.8	-67.2	11.0
2025-01-01 09:27:05.047986	304.5	42.6	-66.8	12.0
2025-01-01 09:27:06.191454	304.9	42.4	-65.3	9.1
2025-01-01 09:27:07.334414	305.3	42.1	-66.1	11.7
2025-01-01 09:27:08.478371	305.7	41.9	-65.4	11.0
2025-01-01 09:27:09.621860	306.1	41.7	-65.2	9.0
2025-01-01 09:27:10.765817	306.5	41.4	-65.2	8.8
2025-01-01 09:27:11.908777	306.9	41.2	-65.6	10.2
2025-01-01 09:27:13.050739	307.2	41.0	-66.7	12.9
2025-01-01 09:27:14.192701	307.6	40.7	-65.5	9.3
2025-01-01 09:27:15.338164	308.0	40.5	-64.9	9.7
2025-01-01 09:27:16.482634	308.3	40.3	-66.7	12.9
2025-01-01 09:27:17.624100	308.7	40.1	-66.2	10.4
2025-01-01 09:27:18.768057	309.0	39.8	-65.2	9.8
2025-01-01 09:27:19.909022	309.4	39.6	-66.4	10.8
2025-01-01 09:27:21.054973	309.7	39.4	-65.2	9.8
2025-01-01 09:27:22.197933	310.0	39.2	-64.7	10.6
2025-01-01 09:27:23.338408	310.4	38.9	-65.4	12.2
2025-01-01 09:27:24.482365	310.7	38.7	-65.1	10.2
2025-01-01 09:27:25.626321	311.0	38.5	-65.4	9.9
2025-01-01 09:27:26.768283	311.3	38.3	-64.4	8.5
2025-01-01 09:27:27.911243	311.6	38.0	-64.6	9.0
2025-01-01 09:27:29.053209	311.9	37.8	-63.5	8.1
2025-01-01 09:27:30.206139	312.2	37.6	-64.1	8.4
2025-01-01 09:27:31.351092	312.5	37.4	-64.2	9.2
2025-01-01 09:27:32.493056	312.8	37.1	-64.3	9.3
2025-01-01 09:27:33.635016	313.1	36.9	-63.2	9.3
2025-01-01 09:27:34.779971	313.4	36.7	-64.4	8.7
2025-01-01 09:27:35.921933	313.7	36.5	-63.8	8.9
2025-01-01 09:27:37.067885	314.0	36.3	-65.1	8.4
2025-01-01 09:27:38.212838	314.2	36.0	-65.5	10.7
2025-01-01 09:27:39.357793	314.5	35.8	-64.1	8.6
2025-01-01 09:27:40.500264	314.8	35.6	-64.4	9.2
2025-01-01 09:27:41.643731	315.1	35.4	-63.5	7.3
2025-01-01 09:27:42.786690	315.3	35.2	-63.8	8.9
2025-01-01 09:27:43.929162	315.6	35.0	-64.3	8.4
2025-01-01 09:27:45.070634	315.8	34.8	-63.5	7.2
2025-01-01 09:27:46.213595	316.1	34.5	-63.9	8.2
2025-01-01 09:27:47.358549	316.3	34.3	-64.2	9.7
2025-01-01 09:27:48.500510	316.6	34.1	-63.3	7.9
2025-01-01 09:27:49.642472	316.8	33.9	-64.9	10.8
2025-01-01 09:27:50.785943	317.1	33.7	-63.9	9.6
2025-01-01 09:27:51.928903	317.3	33.5	-64.2	10.2
2025-01-01 09:27:53.072859	317.5	33.3	-64.4	10.3
2025-01-01 09:27:54.217832	317.8	33.1	-64.0	8.6
2025-01-01 09:27:55.360303	318.0	32.9	-64.1	8.6
2025-01-01 09:27:56.503263	318.2	32.7	-63.7	7.6
2025-01-01 09:27:57.645224	318.4	32.5	-64.9	11.3
2025-01-01 09:27:58.787187	318.7	32.3	-63.7	9.7
2025-01-01 09:27:59.929149	318.9	32.1	-64.8	11.4
2025-01-01 09:28:01.076098	319.1	31.9	-64.7	10.5
2025-01-01 09:28:02.224044	319.3	31.7	-63.2	7.9
2025-01-01 09:28:03.368001	319.5	31.5	-60.9	4.4
2025-01-01 09:28:04.511478	319.7	31.3	-64.7	11.9
2025-01-01 09:28:05.652443	319.9	31.1	-64.2	11.4
2025-01-01 09:28:06.794405	320.1	30.9	-63.1	6.7
2025-01-01 09:28:07.935877	320.3	30.7	-63.4	8.5
2025-01-01 09:28:09.081828	320.5	30.5	-62.9	7.4
2025-01-01 09:28:10.224787	320.7	30.3	-63.5	8.9
2025-01-01 09:28:11.365753	320.9	30.1	-63.4	2.2
2025-01-01 09:28:12.508712	321.1	29.9	-64.6	0.0
#Closed at: 2025-01-01 09:23:10.961438