passes_logs/2025/01/01/Planum_Noyabrsk/Planum_Noyabrsk__20250101_172226_NOAA_18_rec.log

#Pass ID: 20250101_172226_NOAA 18
#Satellite: NOAA 18
#Configuration: NOAA 18
#Start time: 2025-01-01 17:22:31.311954

#LorettStation: 1.0.0 05.05.2024
#Station: Planum_Noyabrsk
#Location: 75.446886 lon 63.207202 lat
#TLE: 1 28654U 05018A   24366.50989023  .00000688  00000+0  38901-3 0  9991
#TLE: 2 28654  98.8589  81.7065 0013682 220.6012 139.4141 14.13470945 11052

#Time	Az	El	Level	SNR
2025-01-01 17:22:39.523537	205.2	31.3	-63.3	6.5
2025-01-01 17:22:40.669502	205.4	31.4	-64.3	8.8
2025-01-01 17:22:41.810480	205.6	31.6	-63.5	8.9
2025-01-01 17:22:42.953452	205.9	31.8	-63.4	8.9
2025-01-01 17:22:44.095428	206.1	32.0	-63.4	7.9
2025-01-01 17:22:45.236406	206.4	32.2	-62.9	6.8
2025-01-01 17:22:46.377384	206.6	32.4	-63.0	8.1
2025-01-01 17:22:47.519359	206.9	32.5	-63.4	8.2
2025-01-01 17:22:48.664836	207.1	32.7	-63.6	9.1
2025-01-01 17:22:49.806811	207.4	32.9	-63.7	8.5
2025-01-01 17:22:50.952776	207.6	33.1	-62.8	8.1
2025-01-01 17:22:52.094751	207.9	33.3	-63.4	8.4
2025-01-01 17:22:53.235730	208.2	33.5	-63.8	9.9
2025-01-01 17:22:54.378701	208.4	33.6	-63.3	8.2
2025-01-01 17:22:55.521692	208.7	33.8	-63.4	7.9
2025-01-01 17:22:56.665661	209.0	34.0	-63.5	7.8
2025-01-01 17:22:57.807654	209.2	34.2	-64.0	9.9
2025-01-01 17:22:58.952117	209.5	34.4	-63.0	8.8
2025-01-01 17:23:00.098078	209.8	34.6	-63.5	9.0
2025-01-01 17:23:01.242048	210.1	34.8	-63.5	8.9
2025-01-01 17:23:02.384023	210.4	34.9	-63.5	7.9
2025-01-01 17:23:03.526997	210.7	35.1	-65.7	11.2
2025-01-01 17:23:04.667974	211.0	35.3	-64.6	10.7
2025-01-01 17:23:05.811458	211.3	35.5	-63.6	8.2
2025-01-01 17:23:06.954429	211.6	35.7	-63.8	7.1
2025-01-01 17:23:08.096404	211.9	35.9	-63.6	8.7
2025-01-01 17:23:09.237383	212.2	36.1	-64.1	9.2
2025-01-01 17:23:10.379358	212.5	36.3	-63.5	8.1
2025-01-01 17:23:11.520336	212.8	36.4	-63.6	8.6
2025-01-01 17:23:12.661822	213.2	36.6	-64.3	10.0
2025-01-01 17:23:13.804795	213.5	36.8	-63.8	8.9
2025-01-01 17:23:14.946770	213.8	37.0	-63.9	9.2
2025-01-01 17:23:16.087768	214.1	37.2	-64.0	9.6
2025-01-01 17:23:17.231737	214.5	37.4	-64.8	9.9
2025-01-01 17:23:18.374709	214.8	37.6	-64.6	9.3
2025-01-01 17:23:19.521672	215.2	37.8	-64.9	10.2
2025-01-01 17:23:20.668634	215.5	38.0	-65.9	11.5
2025-01-01 17:23:21.810610	215.9	38.2	-66.6	11.2
2025-01-01 17:23:22.955090	216.2	38.3	-65.5	9.0
2025-01-01 17:23:24.098063	216.6	38.5	-65.0	10.3
2025-01-01 17:23:25.242033	216.9	38.7	-65.1	10.9
2025-01-01 17:23:26.384008	217.3	38.9	-64.9	9.1
2025-01-01 17:23:27.527978	217.7	39.1	-65.1	9.4
2025-01-01 17:23:28.668956	218.1	39.3	-65.0	9.4
2025-01-01 17:23:29.813435	218.4	39.5	-65.1	8.5
2025-01-01 17:23:30.957403	218.8	39.7	-65.1	9.0
2025-01-01 17:23:32.098382	219.2	39.8	-65.7	9.0
2025-01-01 17:23:33.243349	219.6	40.0	-65.6	8.1
2025-01-01 17:23:34.386828	220.0	40.2	-64.8	9.4
2025-01-01 17:23:35.529801	220.4	40.4	-65.2	8.8
2025-01-01 17:23:36.670802	220.8	40.6	-66.1	10.9
2025-01-01 17:23:37.817765	221.2	40.8	-66.7	11.5
2025-01-01 17:23:38.959740	221.6	41.0	-65.1	8.6
2025-01-01 17:23:40.103220	222.1	41.1	-66.2	12.2
2025-01-01 17:23:41.246192	222.5	41.3	-65.6	10.6
2025-01-01 17:23:42.388167	222.9	41.5	-65.3	10.1
2025-01-01 17:23:43.529657	223.4	41.7	-65.6	10.8
2025-01-01 17:23:44.671633	223.8	41.9	-66.2	11.3
2025-01-01 17:23:45.815605	224.2	42.0	-65.9	11.4
2025-01-01 17:23:46.958088	224.7	42.2	-64.9	10.6
2025-01-01 17:23:48.100063	225.1	42.4	-66.2	14.1
2025-01-01 17:23:49.243035	225.6	42.6	-66.1	11.7
2025-01-01 17:23:50.385011	226.1	42.7	-65.8	11.1
2025-01-01 17:23:51.530976	226.5	42.9	-66.3	13.9
2025-01-01 17:23:52.675943	227.0	43.1	-66.2	13.0
2025-01-01 17:23:53.818914	227.5	43.2	-66.0	11.9
2025-01-01 17:23:54.959888	228.0	43.4	-65.4	12.2
2025-01-01 17:23:56.104851	228.5	43.6	-65.3	12.0
2025-01-01 17:23:57.248816	229.0	43.7	-65.5	10.3
2025-01-01 17:23:58.389790	229.5	43.9	-65.7	11.8
2025-01-01 17:23:59.531761	230.0	44.1	-65.9	11.4
2025-01-01 17:24:00.674729	230.5	44.2	-65.8	12.0
2025-01-01 17:24:01.815213	231.0	44.4	-65.5	12.5
2025-01-01 17:24:02.957184	231.5	44.5	-65.5	12.2
2025-01-01 17:24:04.102147	232.0	44.7	-65.7	12.1
2025-01-01 17:24:05.245115	232.6	44.8	-66.0	12.0
2025-01-01 17:24:06.391076	233.1	45.0	-65.8	11.3
2025-01-01 17:24:07.532556	233.6	45.1	-66.2	13.5
2025-01-01 17:24:08.674035	234.2	45.3	-66.9	14.4
2025-01-01 17:24:09.818002	234.7	45.4	-66.8	14.1
2025-01-01 17:24:10.960968	235.3	45.6	-66.2	12.4
2025-01-01 17:24:12.103450	235.8	45.7	-65.9	11.4
2025-01-01 17:24:13.244423	236.4	45.8	-66.2	13.1
2025-01-01 17:24:14.386394	237.0	46.0	-65.9	12.0
2025-01-01 17:24:15.527874	237.5	46.1	-66.2	13.2
2025-01-01 17:24:16.670843	238.1	46.2	-66.0	11.9
2025-01-01 17:24:17.813810	238.7	46.3	-66.4	12.2
2025-01-01 17:24:18.958284	239.3	46.5	-65.8	12.8
2025-01-01 17:24:20.099768	239.9	46.6	-65.2	12.0
2025-01-01 17:24:21.243243	240.5	46.7	-65.6	13.1
2025-01-01 17:24:22.392702	241.1	46.8	-64.9	10.6
2025-01-01 17:24:23.535670	241.7	46.9	-64.8	11.3
2025-01-01 17:24:24.677641	242.3	47.0	-64.5	11.1
2025-01-01 17:24:25.822604	242.9	47.1	-64.8	10.3
2025-01-01 17:24:26.968564	243.5	47.2	-64.6	11.6
2025-01-01 17:24:28.111042	244.1	47.3	-64.5	10.8
2025-01-01 17:24:29.253013	244.8	47.4	-64.4	10.2
2025-01-01 17:24:30.395982	245.4	47.5	-64.2	9.5
2025-01-01 17:24:31.540944	246.0	47.6	-65.1	11.3
2025-01-01 17:24:32.685418	246.6	47.7	-64.5	10.4
2025-01-01 17:24:33.828386	247.3	47.8	-65.1	11.1
2025-01-01 17:24:34.970357	247.9	47.8	-64.7	10.3
2025-01-01 17:24:36.113325	248.6	47.9	-64.8	10.4
2025-01-01 17:24:37.255296	249.2	48.0	-65.3	12.6
2025-01-01 17:24:38.399261	249.9	48.0	-64.4	11.1
2025-01-01 17:24:39.541741	250.5	48.1	-64.2	9.1
2025-01-01 17:24:40.683712	251.2	48.2	-63.4	8.6
2025-01-01 17:24:41.825682	251.8	48.2	-63.4	8.0
2025-01-01 17:24:42.970646	252.5	48.3	-62.9	9.0
2025-01-01 17:24:44.112616	253.1	48.3	-63.5	9.8
2025-01-01 17:24:45.255586	253.8	48.3	-63.9	9.7
2025-01-01 17:24:46.397083	254.5	48.4	-64.0	9.8
2025-01-01 17:24:47.542046	255.1	48.4	-63.7	10.0
2025-01-01 17:24:48.685014	255.8	48.4	-65.2	12.2
2025-01-01 17:24:49.828981	256.5	48.5	-64.6	11.2
2025-01-01 17:24:50.970951	257.1	48.5	-63.6	10.0
2025-01-01 17:24:52.112922	257.8	48.5	-64.8	12.2
2025-01-01 17:24:53.255401	258.5	48.5	-65.2	9.9
2025-01-01 17:24:54.402359	259.1	48.5	-64.7	11.5
2025-01-01 17:24:55.545327	259.8	48.5	-64.8	11.5
2025-01-01 17:24:56.687805	260.5	48.5	-65.5	12.7
2025-01-01 17:24:57.831771	261.1	48.5	-64.9	10.8
2025-01-01 17:24:58.974248	261.8	48.5	-65.1	12.0
2025-01-01 17:25:00.116219	262.5	48.5	-65.4	12.2
2025-01-01 17:25:01.260692	263.2	48.5	-65.3	11.5
2025-01-01 17:25:02.402663	263.8	48.5	-65.3	11.5
2025-01-01 17:25:03.545630	264.5	48.4	-65.4	11.7
2025-01-01 17:25:04.689595	265.2	48.4	-65.5	12.1
2025-01-01 17:25:05.832563	265.8	48.4	-65.4	11.6
2025-01-01 17:25:06.974534	266.5	48.3	-65.4	10.9
2025-01-01 17:25:08.116017	267.1	48.3	-65.7	10.5
2025-01-01 17:25:09.256990	267.8	48.3	-65.8	10.0
2025-01-01 17:25:10.400955	268.5	48.2	-65.6	10.3
2025-01-01 17:25:11.543941	269.1	48.2	-65.4	10.8
2025-01-01 17:25:12.685911	269.8	48.1	-65.0	9.1
2025-01-01 17:25:13.828880	270.4	48.0	-65.2	10.8
2025-01-01 17:25:14.971848	271.1	48.0	-65.0	8.8
2025-01-01 17:25:16.113819	271.7	47.9	-65.3	9.6
2025-01-01 17:25:17.258782	272.4	47.8	-65.5	8.9
2025-01-01 17:25:18.401750	273.0	47.8	-64.3	6.3
2025-01-01 17:25:19.544718	273.6	47.7	-64.2	7.2
2025-01-01 17:25:20.687686	274.3	47.6	-64.4	9.3
2025-01-01 17:25:21.830655	274.9	47.5	-64.7	8.4
2025-01-01 17:25:22.973622	275.5	47.4	-65.2	11.0
2025-01-01 17:25:24.118585	276.1	47.3	-64.2	7.8
2025-01-01 17:25:25.262552	276.8	47.2	-63.4	5.7
2025-01-01 17:25:26.408022	277.4	47.1	-64.5	9.3
2025-01-01 17:25:27.552985	278.0	47.0	-64.0	8.4
2025-01-01 17:25:28.694475	278.6	46.9	-65.3	11.1
2025-01-01 17:25:29.840436	279.2	46.8	-64.4	9.7
2025-01-01 17:25:30.982406	279.8	46.7	-62.3	6.9
2025-01-01 17:25:32.123893	280.4	46.6	-62.7	6.9
2025-01-01 17:25:33.265864	281.0	46.5	-63.0	7.8
2025-01-01 17:25:34.407347	281.6	46.3	-63.5	8.7
2025-01-01 17:25:35.551822	282.1	46.2	-63.1	7.3
2025-01-01 17:25:36.694790	282.7	46.1	-63.0	8.4
2025-01-01 17:25:37.836760	283.3	46.0	-63.0	10.1
2025-01-01 17:25:38.983718	283.9	45.8	-63.4	8.1
2025-01-01 17:25:40.125689	284.4	45.7	-64.8	9.9
2025-01-01 17:25:41.269654	285.0	45.6	-63.6	6.5
2025-01-01 17:25:42.413137	285.5	45.4	-62.6	7.1
2025-01-01 17:25:43.556106	286.1	45.3	-63.0	6.4
2025-01-01 17:25:44.697079	286.6	45.1	-63.2	5.6
2025-01-01 17:25:45.839051	287.2	45.0	-62.3	6.3
2025-01-01 17:25:46.986008	287.7	44.8	-61.5	4.2
2025-01-01 17:25:48.130508	288.2	44.7	-62.4	6.0
2025-01-01 17:25:49.273476	288.7	44.5	-63.5	8.2
2025-01-01 17:25:50.416444	289.3	44.4	-63.3	5.3
2025-01-01 17:25:51.559412	289.8	44.2	-63.9	8.2
2025-01-01 17:25:52.701891	290.3	44.1	-64.6	8.0
2025-01-01 17:25:53.842864	290.8	43.9	-64.2	6.1
2025-01-01 17:25:54.988825	291.3	43.7	-64.0	4.9
2025-01-01 17:25:56.134785	291.8	43.6	-64.2	5.9
2025-01-01 17:25:57.278751	292.3	43.4	-64.7	5.8
2025-01-01 17:25:58.420235	292.7	43.2	-63.8	2.6
2025-01-01 17:25:59.562226	293.2	43.1	-65.7	8.2
2025-01-01 17:26:00.704197	293.7	42.9	-65.1	2.6
2025-01-01 17:26:01.846167	294.2	42.7	-64.5	2.6
2025-01-01 17:26:02.991637	294.6	42.6	-65.1	4.5
2025-01-01 17:26:04.133609	295.1	42.4	-63.9	1.7
2025-01-01 17:26:05.276578	295.5	42.2	-64.4	2.8
2025-01-01 17:26:06.420565	296.0	42.0	-65.0	3.2
2025-01-01 17:26:07.563533	296.4	41.8	-63.8	3.2
2025-01-01 17:26:08.704506	296.9	41.7	-65.7	6.3
2025-01-01 17:26:09.849978	297.3	41.5	-65.6	6.5
2025-01-01 17:26:10.991949	297.7	41.3	-65.0	5.9
2025-01-01 17:26:12.133919	298.2	41.1	-64.7	5.3
2025-01-01 17:26:13.286861	298.6	40.9	-64.5	2.1
2025-01-01 17:26:14.430827	299.0	40.8	-65.3	3.8
2025-01-01 17:26:15.573795	299.4	40.6	-65.4	6.1
2025-01-01 17:26:16.715279	299.8	40.4	-63.8	1.9
2025-01-01 17:26:17.859245	300.2	40.2	-63.3	1.4
2025-01-01 17:26:19.002213	300.6	40.0	-64.6	4.2
2025-01-01 17:26:20.144201	301.0	39.8	-66.0	7.8
2025-01-01 17:26:21.287169	301.4	39.7	-65.1	3.7
2025-01-01 17:26:22.427146	301.8	39.5	-64.4	3.2
2025-01-01 17:26:23.570622	302.2	39.3	-64.1	5.1
2025-01-01 17:26:24.713590	302.5	39.1	-64.6	0.3
2025-01-01 17:26:25.857555	302.9	38.9	-64.6	4.9
2025-01-01 17:26:26.999037	303.3	38.7	-64.4	2.7
2025-01-01 17:26:28.142006	303.6	38.5	-66.4	5.6
2025-01-01 17:26:29.284973	304.0	38.3	-66.7	7.6
2025-01-01 17:26:30.427965	304.4	38.2	-63.3	1.0
2025-01-01 17:26:31.569935	304.7	38.0	-63.2	2.9
2025-01-01 17:26:32.712903	305.1	37.8	-62.7	2.5
2025-01-01 17:26:33.856871	305.4	37.6	-63.2	0.4
2025-01-01 17:26:34.998840	305.7	37.4	-63.3	3.2
2025-01-01 17:26:36.141810	306.1	37.2	-63.5	2.8
2025-01-01 17:26:37.283290	306.4	37.0	-63.4	0.6
2025-01-01 17:26:38.425769	306.7	36.8	-61.9	0.0
2025-01-01 17:26:39.571729	307.1	36.6	-63.0	0.6
2025-01-01 17:26:40.713702	307.4	36.5	-62.2	0.0
2025-01-01 17:26:41.854674	307.7	36.3	-62.5	0.8
2025-01-01 17:26:42.997642	308.0	36.1	-62.9	1.6
2025-01-01 17:26:44.141609	308.3	35.9	-62.6	0.0
2025-01-01 17:26:45.283602	308.6	35.7	-62.9	0.5
2025-01-01 17:26:46.424576	308.9	35.5	-63.3	0.5
2025-01-01 17:26:47.567544	309.2	35.3	-61.4	0.0
2025-01-01 17:26:48.709026	309.5	35.1	-61.1	0.0
2025-01-01 17:26:49.853987	309.8	35.0	-63.0	6.3
2025-01-01 17:26:50.996955	310.1	34.8	-62.0	1.5
2025-01-01 17:26:52.140432	310.4	34.6	-63.9	0.9
2025-01-01 17:26:53.284397	310.7	34.4	-64.2	5.6
2025-01-01 17:26:54.426368	310.9	34.2	-61.5	0.0
2025-01-01 17:26:55.568846	311.2	34.0	-62.0	0.4
2025-01-01 17:26:56.713809	311.5	33.8	-61.4	0.0
2025-01-01 17:26:57.856777	311.8	33.7	-61.8	0.7
2025-01-01 17:26:58.997265	312.0	33.5	-61.2	1.7
2025-01-01 17:27:00.141231	312.3	33.3	-62.0	0.8
2025-01-01 17:27:01.285195	312.6	33.1	-61.5	0.0
2025-01-01 17:27:02.427185	312.8	32.9	-62.2	3.7
2025-01-01 17:27:03.573145	313.1	32.7	-61.2	0.0
2025-01-01 17:27:04.717110	313.3	32.6	-61.9	0.0
2025-01-01 17:27:05.858591	313.6	32.4	-62.5	2.5
2025-01-01 17:27:07.005549	313.8	32.2	-60.8	1.4
2025-01-01 17:27:08.148517	314.1	32.0	-63.2	4.2
2025-01-01 17:27:09.295475	314.3	31.8	-63.9	4.4
2025-01-01 17:27:10.438443	314.6	31.7	-60.9	0.0
2025-01-01 17:27:11.581411	314.8	31.5	-61.9	0.0
2025-01-01 17:27:12.725376	315.0	31.3	-62.2	0.0
2025-01-01 17:27:13.868345	315.3	31.1	-59.4	0.0
2025-01-01 17:27:15.009318	315.5	30.9	-59.8	0.0
2025-01-01 17:27:16.158291	315.7	30.8	-62.2	0.0
2025-01-01 17:27:17.300262	316.0	30.6	-64.5	3.1
2025-01-01 17:27:18.444227	316.2	30.4	-61.1	0.0
2025-01-01 17:27:19.586709	316.4	30.2	-61.1	0.0
2025-01-01 17:27:20.728679	316.6	30.1	-64.9	0.0
#Closed at: 2025-01-01 17:22:26.315020