passes_logs/2025/01/01/Planum_Noyabrsk/Planum_Noyabrsk__20250101_153247_METOP-C_rec.log

#Pass ID: 20250101_153247_METOP-C
#Satellite: METOP-C
#Configuration: METOP-C
#Start time: 2025-01-01 15:32:52.975433

#LorettStation: 1.0.0 05.05.2024
#Station: Planum_Noyabrsk
#Location: 75.446886 lon 63.207202 lat
#TLE: 1 43689U 18087A   24366.58146303  .00000531  00000+0  26275-3 0  9998
#TLE: 2 43689  98.6989  63.2860 0000717 189.2196 170.8968 14.21508272319168

#Time	Az	El	Level	SNR
2025-01-01 15:32:59.854053	172.3	31.3	-63.2	10.3
2025-01-01 15:33:00.997131	172.4	31.6	-63.3	11.1
2025-01-01 15:33:02.142203	172.5	31.8	-62.2	6.0
2025-01-01 15:33:03.283286	172.6	32.0	-62.0	7.9
2025-01-01 15:33:04.433345	172.7	32.3	-62.6	3.7
2025-01-01 15:33:05.575425	172.8	32.5	-61.7	7.0
2025-01-01 15:33:06.718502	172.8	32.7	-61.9	4.5
2025-01-01 15:33:07.862578	172.9	33.0	-60.6	4.9
2025-01-01 15:33:09.005654	173.0	33.2	-61.4	5.7
2025-01-01 15:33:10.152722	173.1	33.4	-62.3	7.5
2025-01-01 15:33:11.294312	173.2	33.7	-61.4	7.2
2025-01-01 15:33:12.439384	173.3	33.9	-61.4	6.6
2025-01-01 15:33:13.583458	173.4	34.2	-60.9	3.6
2025-01-01 15:33:14.728530	173.5	34.4	-61.4	10.5
2025-01-01 15:33:15.871608	173.6	34.7	-61.1	5.9
2025-01-01 15:33:17.014684	173.7	34.9	-61.1	6.8
2025-01-01 15:33:18.160265	173.8	35.2	-60.2	6.1
2025-01-01 15:33:19.305337	173.9	35.4	-60.9	6.6
2025-01-01 15:33:20.448415	174.0	35.7	-61.1	9.5
2025-01-01 15:33:21.595990	174.1	36.0	-60.8	7.4
2025-01-01 15:33:22.740063	174.2	36.2	-61.0	5.2
2025-01-01 15:33:23.883140	174.3	36.5	-61.4	6.3
2025-01-01 15:33:25.028213	174.4	36.8	-61.0	5.8
2025-01-01 15:33:26.171290	174.5	37.0	-61.8	3.2
2025-01-01 15:33:27.315365	174.6	37.3	-61.5	2.3
2025-01-01 15:33:28.459439	174.7	37.6	-61.0	5.1
2025-01-01 15:33:29.605509	174.9	37.8	-60.5	5.7
2025-01-01 15:33:30.747589	175.0	38.1	-61.1	7.7
2025-01-01 15:33:31.892171	175.1	38.4	-61.2	6.6
2025-01-01 15:33:33.035249	175.2	38.7	-61.5	5.7
2025-01-01 15:33:34.178325	175.3	39.0	-61.6	6.9
2025-01-01 15:33:35.320912	175.5	39.3	-61.5	6.7
2025-01-01 15:33:36.464986	175.6	39.5	-61.4	7.1
2025-01-01 15:33:37.607579	175.7	39.8	-61.3	6.8
2025-01-01 15:33:38.752175	175.9	40.1	-61.3	4.4
2025-01-01 15:33:39.895253	176.0	40.4	-61.2	6.0
2025-01-01 15:33:41.040326	176.1	40.7	-60.8	6.9
2025-01-01 15:33:42.184400	176.3	41.0	-61.4	7.1
2025-01-01 15:33:43.328983	176.4	41.3	-61.5	8.3
2025-01-01 15:33:44.475558	176.6	41.6	-61.0	6.9
2025-01-01 15:33:45.617638	176.7	41.9	-61.3	8.0
2025-01-01 15:33:46.760716	176.9	42.2	-61.2	8.5
2025-01-01 15:33:47.901798	177.0	42.6	-61.4	8.5
2025-01-01 15:33:49.049885	177.2	42.9	-61.6	7.6
2025-01-01 15:33:50.194957	177.3	43.2	-61.9	7.6
2025-01-01 15:33:51.337037	177.5	43.5	-61.6	7.6
2025-01-01 15:33:52.481112	177.7	43.8	-61.6	8.0
2025-01-01 15:33:53.624191	177.8	44.2	-61.5	7.6
2025-01-01 15:33:54.769261	178.0	44.5	-61.6	5.8
2025-01-01 15:33:55.914333	178.2	44.8	-61.8	6.4
2025-01-01 15:33:57.058408	178.4	45.1	-62.3	6.7
2025-01-01 15:33:58.202484	178.6	45.5	-61.9	0.0
2025-01-01 15:33:59.350549	178.7	45.8	-62.1	6.9
2025-01-01 15:34:00.493134	178.9	46.2	-62.9	6.3
2025-01-01 15:34:01.636718	179.1	46.5	-63.5	9.3
2025-01-01 15:34:02.780793	179.3	46.8	-62.5	4.5
2025-01-01 15:34:03.929366	179.5	47.2	-63.4	10.6
2025-01-01 15:34:05.073441	179.7	47.5	-63.4	11.1
2025-01-01 15:34:06.217515	180.0	47.9	-63.6	10.4
2025-01-01 15:34:07.363584	180.2	48.2	-62.9	11.5
2025-01-01 15:34:08.508166	180.4	48.6	-63.1	11.7
2025-01-01 15:34:09.651243	180.6	49.0	-63.8	13.0
2025-01-01 15:34:10.794321	180.9	49.3	-63.5	11.3
2025-01-01 15:34:11.935909	181.1	49.7	-63.5	12.1
2025-01-01 15:34:13.078988	181.3	50.0	-62.9	10.9
2025-01-01 15:34:14.222064	181.6	50.4	-63.1	11.0
2025-01-01 15:34:15.365652	181.9	50.8	-63.2	11.7
2025-01-01 15:34:16.509728	182.1	51.2	-62.9	11.3
2025-01-01 15:34:17.653802	182.4	51.5	-63.0	10.9
2025-01-01 15:34:18.801379	182.7	51.9	-63.6	12.0
2025-01-01 15:34:19.945453	182.9	52.3	-62.4	7.3
2025-01-01 15:34:21.089528	183.2	52.7	-62.6	8.5
2025-01-01 15:34:22.235598	183.5	53.1	-62.8	8.0
2025-01-01 15:34:23.377677	183.8	53.4	-63.1	8.9
2025-01-01 15:34:24.520755	184.2	53.8	-63.5	11.9
2025-01-01 15:34:25.662344	184.5	54.2	-63.2	10.9
2025-01-01 15:34:26.808413	184.8	54.6	-62.5	7.2
2025-01-01 15:34:27.952489	185.2	55.0	-61.9	8.3
2025-01-01 15:34:29.100062	185.5	55.4	-61.8	7.9
2025-01-01 15:34:30.243139	185.9	55.8	-62.0	7.8
2025-01-01 15:34:31.386216	186.2	56.2	-63.0	9.2
2025-01-01 15:34:32.528804	186.6	56.6	-61.3	8.2
2025-01-01 15:34:33.671881	187.0	57.0	-62.4	8.4
2025-01-01 15:34:34.814959	187.4	57.4	-62.6	4.5
2025-01-01 15:34:35.961537	187.8	57.8	-62.7	7.1
2025-01-01 15:34:37.102619	188.3	58.2	-62.0	5.9
2025-01-01 15:34:38.245697	188.7	58.6	-62.9	9.5
2025-01-01 15:34:39.386797	189.2	59.1	-63.3	9.5
2025-01-01 15:34:40.532376	189.6	59.5	-62.8	7.6
2025-01-01 15:34:41.675454	190.1	59.9	-63.5	8.8
2025-01-01 15:34:42.821524	190.6	60.3	-63.4	8.4
2025-01-01 15:34:43.965598	191.1	60.7	-63.1	8.3
2025-01-01 15:34:45.109673	191.7	61.1	-63.0	7.0
2025-01-01 15:34:46.253767	192.2	61.5	-63.5	7.4
2025-01-01 15:34:47.401832	192.8	62.0	-63.4	10.5
2025-01-01 15:34:48.544909	193.4	62.4	-63.4	10.3
2025-01-01 15:34:49.687497	194.0	62.8	-62.2	10.1
2025-01-01 15:34:50.830573	194.6	63.2	-62.3	7.9
2025-01-01 15:34:51.975154	195.3	63.6	-62.0	7.4
2025-01-01 15:34:53.118231	196.0	64.0	-62.0	8.8
2025-01-01 15:34:54.262306	196.7	64.5	-62.2	8.7
2025-01-01 15:34:55.404386	197.4	64.9	-63.4	7.0
2025-01-01 15:34:56.547994	198.1	65.3	-63.5	9.4
2025-01-01 15:34:57.692070	198.9	65.7	-62.7	8.9
2025-01-01 15:34:58.837142	199.7	66.1	-64.0	7.5
2025-01-01 15:34:59.983718	200.6	66.5	-63.9	11.4
2025-01-01 15:35:01.125310	201.5	66.9	-63.5	10.9
2025-01-01 15:35:02.270382	202.4	67.3	-63.2	8.0
2025-01-01 15:35:03.411971	203.3	67.7	-63.3	7.1
2025-01-01 15:35:04.555049	204.3	68.1	-62.7	8.5
2025-01-01 15:35:05.699124	205.3	68.5	-63.1	6.9
2025-01-01 15:35:06.842202	206.4	68.9	-63.8	9.0
2025-01-01 15:35:07.985278	207.5	69.2	-63.4	9.0
2025-01-01 15:35:09.128358	208.6	69.6	-62.9	5.6
2025-01-01 15:35:10.276421	209.8	70.0	-63.1	8.3
2025-01-01 15:35:11.417502	211.0	70.3	-63.3	7.7
2025-01-01 15:35:12.562574	212.3	70.7	-62.5	6.4
2025-01-01 15:35:13.704656	213.6	71.0	-63.0	7.0
2025-01-01 15:35:14.848729	215.0	71.3	-63.2	7.8
2025-01-01 15:35:15.991807	216.5	71.7	-63.8	7.4
2025-01-01 15:35:17.133887	218.0	72.0	-63.2	6.8
2025-01-01 15:35:18.279957	219.5	72.3	-63.6	6.0
2025-01-01 15:35:19.423034	221.1	72.6	-64.5	5.3
2025-01-01 15:35:20.574091	222.8	72.9	-63.7	3.6
2025-01-01 15:35:21.716170	224.5	73.1	-64.7	6.7
2025-01-01 15:35:22.861243	226.3	73.4	-64.2	2.3
2025-01-01 15:35:24.004320	228.1	73.6	-64.5	6.5
2025-01-01 15:35:25.146401	229.9	73.8	-64.0	6.3
2025-01-01 15:35:26.299959	231.9	74.0	-62.7	5.4
2025-01-01 15:35:27.452017	233.9	74.2	-63.0	4.7
2025-01-01 15:35:28.603072	235.9	74.4	-62.6	4.4
2025-01-01 15:35:29.746147	238.0	74.5	-63.7	4.8
2025-01-01 15:35:30.892216	240.1	74.7	-63.1	1.6
2025-01-01 15:35:32.035296	242.2	74.8	-62.6	4.0
2025-01-01 15:35:33.179369	244.4	74.9	-62.4	5.0
2025-01-01 15:35:34.321449	246.6	74.9	-63.4	5.1
2025-01-01 15:35:35.463529	248.8	75.0	-62.7	5.4
2025-01-01 15:35:36.609598	251.0	75.0	-63.2	6.8
2025-01-01 15:35:37.752694	253.2	75.0	-62.4	4.2
2025-01-01 15:35:38.901756	255.5	75.0	-62.1	4.2
2025-01-01 15:35:40.044833	257.7	74.9	-63.2	6.2
2025-01-01 15:35:41.192899	259.9	74.9	-62.1	2.9
2025-01-01 15:35:42.335976	262.1	74.8	-62.4	5.7
2025-01-01 15:35:43.480050	264.2	74.7	-64.2	8.3
2025-01-01 15:35:44.627118	266.3	74.6	-61.6	5.8
2025-01-01 15:35:45.771193	268.4	74.4	-62.3	6.0
2025-01-01 15:35:46.913273	270.4	74.3	-62.0	4.1
2025-01-01 15:35:48.057347	272.4	74.1	-61.7	3.4
2025-01-01 15:35:49.206409	274.4	73.9	-62.1	5.7
2025-01-01 15:35:50.353476	276.3	73.7	-63.1	6.6
2025-01-01 15:35:51.496553	278.1	73.4	-63.0	9.7
2025-01-01 15:35:52.639649	279.9	73.2	-62.7	6.5
2025-01-01 15:35:53.780731	281.6	72.9	-62.5	4.8
2025-01-01 15:35:54.924806	283.3	72.7	-62.6	6.4
2025-01-01 15:35:56.066886	284.9	72.4	-62.0	5.0
2025-01-01 15:35:57.210982	286.4	72.1	-61.1	3.5
2025-01-01 15:35:58.355057	287.9	71.8	-60.8	3.4
2025-01-01 15:35:59.499132	289.4	71.4	-61.7	6.1
2025-01-01 15:36:00.644225	290.8	71.1	-61.4	6.5
2025-01-01 15:36:01.789298	292.1	70.8	-61.5	4.7
2025-01-01 15:36:02.931377	293.4	70.4	-61.4	6.0
2025-01-01 15:36:04.074456	294.7	70.1	-61.6	6.1
2025-01-01 15:36:05.218529	295.9	69.7	-61.7	5.3
2025-01-01 15:36:06.360609	297.0	69.3	-61.0	3.9
2025-01-01 15:36:07.502689	298.1	69.0	-61.2	5.7
2025-01-01 15:36:08.646764	299.2	68.6	-60.6	4.9
2025-01-01 15:36:09.789841	300.2	68.2	-61.4	9.1
2025-01-01 15:36:10.937905	301.2	67.8	-59.8	6.1
2025-01-01 15:36:12.079986	302.2	67.4	-60.4	5.0
2025-01-01 15:36:13.223063	303.1	67.0	-61.1	6.1
2025-01-01 15:36:14.367646	304.0	66.6	-60.5	5.0
2025-01-01 15:36:15.510723	304.8	66.2	-60.6	7.0
2025-01-01 15:36:16.665290	305.7	65.8	-62.1	9.4
2025-01-01 15:36:17.809365	306.5	65.4	-61.3	6.6
2025-01-01 15:36:18.955435	307.2	65.0	-61.0	6.7
2025-01-01 15:36:20.099510	308.0	64.6	-61.0	6.5
2025-01-01 15:36:21.243585	308.7	64.2	-61.5	6.3
2025-01-01 15:36:22.387660	309.3	63.7	-60.1	4.7
2025-01-01 15:36:23.530740	310.0	63.3	-59.6	5.2
2025-01-01 15:36:24.673325	310.6	62.9	-60.6	4.4
2025-01-01 15:36:25.816402	311.3	62.5	-60.4	4.5
2025-01-01 15:36:26.958483	311.8	62.1	-59.1	2.6
2025-01-01 15:36:28.105060	312.4	61.7	-61.6	7.1
2025-01-01 15:36:29.251130	313.0	61.3	-59.5	4.5
2025-01-01 15:36:30.393210	313.5	60.8	-59.4	3.8
2025-01-01 15:36:31.537795	314.0	60.4	-58.3	2.1
2025-01-01 15:36:32.682865	314.5	60.0	-57.2	0.0
2025-01-01 15:36:33.825942	315.0	59.6	-57.3	0.0
2025-01-01 15:36:34.974517	315.5	59.2	-57.5	2.3
2025-01-01 15:36:36.116110	316.0	58.8	-57.8	0.7
2025-01-01 15:36:37.257706	316.4	58.4	-58.7	2.8
2025-01-01 15:36:38.401780	316.8	58.0	-57.9	2.7
2025-01-01 15:36:39.546853	317.3	57.6	-58.5	0.0
2025-01-01 15:36:40.688936	317.7	57.2	-58.2	0.4
2025-01-01 15:36:41.832010	318.1	56.8	-59.0	2.2
2025-01-01 15:36:42.977082	318.4	56.3	-59.0	1.7
2025-01-01 15:36:44.119162	318.8	56.0	-59.9	2.7
2025-01-01 15:36:45.261242	319.2	55.6	-59.3	3.0
2025-01-01 15:36:46.404322	319.5	55.2	-60.2	6.3
2025-01-01 15:36:47.547397	319.9	54.8	-58.2	0.5
2025-01-01 15:36:48.694464	320.2	54.4	-59.1	0.0
2025-01-01 15:36:49.837541	320.5	54.0	-58.8	1.2
2025-01-01 15:36:50.981617	320.9	53.6	-59.1	2.5
2025-01-01 15:36:52.123696	321.2	53.2	-58.9	3.8
2025-01-01 15:36:53.266773	321.5	52.8	-59.2	3.4
2025-01-01 15:36:54.410848	321.8	52.4	-59.4	4.8
2025-01-01 15:36:55.557915	322.0	52.1	-58.7	0.0
2025-01-01 15:36:56.702497	322.3	51.7	-58.3	0.0
2025-01-01 15:36:57.845087	322.6	51.3	-58.5	1.4
2025-01-01 15:36:58.987673	322.9	50.9	-58.3	0.0
2025-01-01 15:37:00.130750	323.1	50.6	-60.7	3.9
2025-01-01 15:37:01.274825	323.4	50.2	-60.9	4.8
2025-01-01 15:37:02.418901	323.6	49.8	-57.8	0.6
2025-01-01 15:37:03.562975	323.9	49.5	-60.2	3.0
2025-01-01 15:37:04.709551	324.1	49.1	-61.3	2.3
2025-01-01 15:37:05.852629	324.3	48.7	-60.6	2.9
2025-01-01 15:37:06.997701	324.5	48.4	-58.2	0.0
2025-01-01 15:37:08.141776	324.8	48.0	-59.9	1.7
2025-01-01 15:37:09.284853	325.0	47.7	-57.6	0.0
2025-01-01 15:37:10.427931	325.2	47.3	-58.9	0.4
2025-01-01 15:37:11.571008	325.4	47.0	-58.4	0.0
2025-01-01 15:37:12.713087	325.6	46.7	-60.2	0.0
2025-01-01 15:37:13.856165	325.8	46.3	-61.1	3.6
2025-01-01 15:37:14.998755	326.0	46.0	-58.4	1.6
2025-01-01 15:37:16.147815	326.2	45.6	-60.6	2.2
2025-01-01 15:37:17.290892	326.4	45.3	-59.6	0.4
2025-01-01 15:37:18.439954	326.5	45.0	-60.8	2.4
2025-01-01 15:37:19.584029	326.7	44.6	-57.9	0.0
2025-01-01 15:37:20.728105	326.9	44.3	-57.7	0.0
2025-01-01 15:37:21.871205	327.1	44.0	-57.7	0.0
2025-01-01 15:37:23.014288	327.2	43.7	-56.9	0.6
2025-01-01 15:37:24.158357	327.4	43.4	-60.2	1.5
2025-01-01 15:37:25.300945	327.6	43.0	-58.0	1.5
2025-01-01 15:37:26.453000	327.7	42.7	-57.5	0.0
2025-01-01 15:37:27.596076	327.9	42.4	-56.7	0.0
2025-01-01 15:37:28.741148	328.0	42.1	-57.7	0.6
2025-01-01 15:37:29.886221	328.2	41.8	-57.4	0.0
2025-01-01 15:37:31.030295	328.3	41.5	-57.1	0.2
2025-01-01 15:37:32.172377	328.5	41.2	-57.2	0.0
2025-01-01 15:37:33.316450	328.6	40.9	-57.5	0.0
2025-01-01 15:37:34.459528	328.7	40.6	-56.9	0.7
2025-01-01 15:37:35.606595	328.9	40.3	-57.6	0.0
2025-01-01 15:37:36.749672	329.0	40.0	-58.4	0.7
2025-01-01 15:37:37.895741	329.1	39.7	-57.1	0.0
2025-01-01 15:37:39.047797	329.3	39.4	-56.6	0.0
2025-01-01 15:37:40.190873	329.4	39.1	-58.7	5.2
2025-01-01 15:37:41.332954	329.5	38.9	-59.0	0.0
2025-01-01 15:37:42.479531	329.7	38.6	-57.1	0.0
2025-01-01 15:37:43.623607	329.8	38.3	-58.5	0.0
2025-01-01 15:37:44.766683	329.9	38.0	-56.8	0.0
2025-01-01 15:37:45.911267	330.0	37.7	-58.2	0.0
2025-01-01 15:37:47.054344	330.1	37.5	-56.3	0.0
2025-01-01 15:37:48.197929	330.2	37.2	-56.8	0.0
2025-01-01 15:37:49.343999	330.4	36.9	-56.3	0.0
2025-01-01 15:37:50.488075	330.5	36.7	-55.7	0.0
2025-01-01 15:37:51.631659	330.6	36.4	-55.9	0.0
2025-01-01 15:37:52.776732	330.7	36.1	-55.2	0.0
2025-01-01 15:37:53.921822	330.8	35.9	-55.3	0.0
2025-01-01 15:37:55.063901	330.9	35.6	-56.3	0.0
2025-01-01 15:37:56.205982	331.0	35.4	-56.5	0.0
2025-01-01 15:37:57.348061	331.1	35.1	-55.9	0.0
2025-01-01 15:37:58.493133	331.2	34.9	-59.8	0.0
2025-01-01 15:37:59.640200	331.3	34.6	-59.8	3.2
2025-01-01 15:38:00.783279	331.4	34.4	-60.1	0.6
2025-01-01 15:38:01.932363	331.5	34.1	-58.0	0.0
2025-01-01 15:38:03.079431	331.6	33.9	-57.1	0.0
2025-01-01 15:38:04.223505	331.7	33.6	-60.0	0.0
2025-01-01 15:38:05.366583	331.8	33.4	-57.3	0.0
2025-01-01 15:38:06.510658	331.8	33.1	-58.0	1.3
2025-01-01 15:38:07.652738	331.9	32.9	-58.1	0.0
2025-01-01 15:38:08.795325	332.0	32.7	-57.9	0.0
2025-01-01 15:38:09.940398	332.1	32.4	-58.6	0.0
2025-01-01 15:38:11.082478	332.2	32.2	-59.9	0.0
2025-01-01 15:38:12.226062	332.3	32.0	-60.3	1.7
2025-01-01 15:38:13.370138	332.4	31.7	-58.4	0.0
2025-01-01 15:38:14.512217	332.4	31.5	-59.1	1.9
2025-01-01 15:38:15.654806	332.5	31.3	-58.6	0.0
2025-01-01 15:38:16.796886	332.6	31.1	-57.7	0.0
2025-01-01 15:38:17.941957	332.7	30.8	-57.0	0.0
2025-01-01 15:38:19.093015	332.8	30.6	-57.3	0.0
2025-01-01 15:38:20.237091	332.8	30.4	-57.2	0.0
2025-01-01 15:38:21.379169	332.9	30.2	-57.8	0.0
2025-01-01 15:38:22.521267	333.0	30.0	-60.2	0.0
#Closed at: 2025-01-01 15:32:47.980908