passes_logs/2025/01/01/Planum_Noyabrsk/Planum_Noyabrsk__20250101_154131_NOAA_18_rec.log

#Pass ID: 20250101_154131_NOAA 18
#Satellite: NOAA 18
#Configuration: NOAA 18
#Start time: 2025-01-01 15:41:36.577703

#LorettStation: 1.0.0 05.05.2024
#Station: Planum_Noyabrsk
#Location: 75.446886 lon 63.207202 lat
#TLE: 1 28654U 05018A   24366.50989023  .00000688  00000+0  38901-3 0  9991
#TLE: 2 28654  98.8589  81.7065 0013682 220.6012 139.4141 14.13470945 11052

#Time	Az	El	Level	SNR
2025-01-01 15:41:48.829742	117.3	32.1	-52.3	0.0
2025-01-01 15:41:49.971787	117.1	32.3	-50.1	0.0
2025-01-01 15:41:51.115338	116.9	32.5	-53.5	0.0
2025-01-01 15:41:52.259379	116.7	32.7	-50.2	0.0
2025-01-01 15:41:53.400426	116.5	32.9	-50.9	0.0
2025-01-01 15:41:54.545466	116.3	33.1	-46.9	0.0
2025-01-01 15:41:55.688507	116.1	33.3	-53.6	0.0
2025-01-01 15:41:56.829555	115.8	33.5	-49.3	0.0
2025-01-01 15:41:57.972598	115.6	33.7	-48.7	0.0
2025-01-01 15:41:59.114644	115.4	33.9	-50.6	0.0
2025-01-01 15:42:00.259682	115.2	34.1	-47.8	0.0
2025-01-01 15:42:01.406224	114.9	34.3	-49.5	0.0
2025-01-01 15:42:02.549268	114.7	34.5	-48.1	0.0
2025-01-01 15:42:03.692309	114.5	34.7	-46.3	0.0
2025-01-01 15:42:04.834864	114.2	34.9	-48.3	0.0
2025-01-01 15:42:05.981896	114.0	35.1	-48.4	0.0
2025-01-01 15:42:07.125935	113.8	35.3	-47.4	0.0
2025-01-01 15:42:08.266984	113.5	35.6	-51.3	0.0
2025-01-01 15:42:09.410027	113.3	35.8	-47.8	0.0
2025-01-01 15:42:10.553072	113.0	36.0	-46.6	0.0
2025-01-01 15:42:11.695115	112.7	36.2	-53.3	0.0
2025-01-01 15:42:12.838158	112.5	36.4	-51.9	0.0
2025-01-01 15:42:13.980204	112.2	36.6	-50.2	0.0
2025-01-01 15:42:15.121759	112.0	36.8	-48.0	0.0
2025-01-01 15:42:16.265800	111.7	37.1	-48.9	0.0
2025-01-01 15:42:17.407845	111.4	37.3	-47.5	0.0
2025-01-01 15:42:18.553390	111.1	37.5	-52.1	0.0
2025-01-01 15:42:19.696434	110.8	37.7	-50.8	0.0
2025-01-01 15:42:20.841471	110.6	37.9	-49.0	0.0
2025-01-01 15:42:21.983516	110.3	38.2	-51.6	0.0
2025-01-01 15:42:23.128554	110.0	38.4	-49.2	0.0
2025-01-01 15:42:24.274590	109.7	38.6	-51.9	0.0
2025-01-01 15:42:25.418140	109.4	38.8	-49.8	0.0
2025-01-01 15:42:26.560185	109.1	39.0	-48.4	0.0
2025-01-01 15:42:27.702231	108.8	39.3	-49.3	0.0
2025-01-01 15:42:28.849263	108.4	39.5	-52.7	0.0
2025-01-01 15:42:29.991308	108.1	39.7	-51.4	0.0
2025-01-01 15:42:31.135350	107.8	39.9	-51.3	0.0
2025-01-01 15:42:32.276912	107.5	40.2	-48.7	0.0
2025-01-01 15:42:33.419954	107.1	40.4	-48.4	0.0
2025-01-01 15:42:34.560514	106.8	40.6	-48.0	0.0
2025-01-01 15:42:35.706550	106.5	40.8	-48.9	0.0
2025-01-01 15:42:36.847597	106.1	41.1	-49.0	0.0
2025-01-01 15:42:37.991638	105.8	41.3	-49.4	0.0
2025-01-01 15:42:39.136185	105.4	41.5	-48.1	0.0
2025-01-01 15:42:40.279227	105.0	41.7	-51.0	0.0
2025-01-01 15:42:41.422271	104.7	42.0	-48.4	0.0
2025-01-01 15:42:42.567309	104.3	42.2	-48.2	0.0
2025-01-01 15:42:43.709354	103.9	42.4	-49.0	0.0
2025-01-01 15:42:44.850402	103.5	42.6	-49.7	0.0
2025-01-01 15:42:45.992962	103.1	42.9	-49.0	0.0
2025-01-01 15:42:47.138023	102.8	43.1	-50.0	0.0
2025-01-01 15:42:48.284059	102.4	43.3	-50.6	0.0
2025-01-01 15:42:49.426613	101.9	43.5	-48.4	0.0
2025-01-01 15:42:50.569656	101.5	43.8	-50.9	0.0
2025-01-01 15:42:51.711701	101.1	44.0	-50.4	0.0
2025-01-01 15:42:52.856253	100.7	44.2	-49.3	0.0
2025-01-01 15:42:54.000293	100.3	44.4	-49.5	0.0
2025-01-01 15:42:55.143338	99.8	44.6	-49.2	0.0
2025-01-01 15:42:56.285401	99.4	44.9	-52.4	0.0
2025-01-01 15:42:57.427446	98.9	45.1	-50.6	0.0
2025-01-01 15:42:58.571489	98.5	45.3	-52.2	0.0
2025-01-01 15:42:59.715527	98.0	45.5	-52.2	0.0
2025-01-01 15:43:00.865554	97.6	45.8	-52.4	0.0
2025-01-01 15:43:02.006108	97.1	46.0	-52.4	0.0
2025-01-01 15:43:03.148154	96.6	46.2	-52.9	0.0
2025-01-01 15:43:04.289202	96.1	46.4	-52.1	0.0
2025-01-01 15:43:05.431248	95.6	46.6	-50.8	0.0
2025-01-01 15:43:06.575288	95.1	46.8	-56.1	0.0
2025-01-01 15:43:07.722830	94.6	47.0	-53.7	0.0
2025-01-01 15:43:08.864875	94.1	47.2	-53.0	0.0
2025-01-01 15:43:10.005923	93.6	47.5	-51.2	0.0
2025-01-01 15:43:11.148475	93.1	47.7	-52.4	0.0
2025-01-01 15:43:12.289524	92.5	47.9	-55.2	0.0
2025-01-01 15:43:13.433565	92.0	48.1	-52.7	0.0
2025-01-01 15:43:14.577604	91.5	48.3	-52.5	0.0
2025-01-01 15:43:15.720648	90.9	48.5	-51.8	0.0
2025-01-01 15:43:16.863691	90.3	48.7	-50.6	0.0
2025-01-01 15:43:18.006733	89.8	48.9	-52.3	0.0
2025-01-01 15:43:19.148779	89.2	49.1	-51.9	0.0
2025-01-01 15:43:20.294814	88.6	49.2	-51.5	0.0
2025-01-01 15:43:21.439362	88.0	49.4	-48.7	0.0
2025-01-01 15:43:22.581407	87.4	49.6	-50.0	0.0
2025-01-01 15:43:23.727442	86.8	49.8	-50.6	0.0
2025-01-01 15:43:24.870485	86.2	50.0	-54.7	0.0
2025-01-01 15:43:26.014035	85.6	50.2	-50.5	0.0
2025-01-01 15:43:27.156080	84.9	50.3	-52.8	0.0
2025-01-01 15:43:28.299123	84.3	50.5	-50.7	0.0
2025-01-01 15:43:29.443166	83.7	50.7	-56.4	0.0
2025-01-01 15:43:30.587204	83.0	50.8	-51.9	0.0
2025-01-01 15:43:31.729282	82.4	51.0	-55.6	0.0
2025-01-01 15:43:32.871327	81.7	51.2	-51.5	0.0
2025-01-01 15:43:34.015367	81.0	51.3	-51.9	0.0
2025-01-01 15:43:35.156923	80.4	51.5	-52.8	0.0
2025-01-01 15:43:36.300964	79.7	51.6	-55.5	0.0
2025-01-01 15:43:37.444007	79.0	51.8	-54.9	0.0
2025-01-01 15:43:38.586558	78.3	51.9	-52.5	0.0
2025-01-01 15:43:39.730598	77.6	52.0	-52.2	0.0
2025-01-01 15:43:40.872644	76.9	52.2	-54.5	0.0
2025-01-01 15:43:42.016684	76.2	52.3	-55.0	0.0
2025-01-01 15:43:43.161722	75.4	52.4	-53.2	0.0
2025-01-01 15:43:44.305762	74.7	52.5	-53.9	0.0
2025-01-01 15:43:45.451798	74.0	52.6	-54.5	0.0
2025-01-01 15:43:46.594840	73.2	52.7	-54.8	0.0
2025-01-01 15:43:47.735889	72.5	52.8	-50.3	0.0
2025-01-01 15:43:48.881924	71.7	52.9	-51.8	0.0
2025-01-01 15:43:50.027473	71.0	53.0	-54.4	0.0
2025-01-01 15:43:51.170516	70.2	53.1	-55.7	0.0
2025-01-01 15:43:52.312561	69.5	53.2	-54.3	0.0
2025-01-01 15:43:53.454606	68.7	53.3	-55.2	0.0
2025-01-01 15:43:54.597650	67.9	53.4	-55.5	0.0
2025-01-01 15:43:55.741690	67.1	53.4	-59.9	0.0
2025-01-01 15:43:56.884733	66.4	53.5	-56.5	0.0
2025-01-01 15:43:58.026778	65.6	53.6	-55.8	0.0
2025-01-01 15:43:59.168333	64.8	53.6	-59.0	0.0
2025-01-01 15:44:00.309890	64.0	53.7	-57.9	0.0
2025-01-01 15:44:01.451935	63.2	53.7	-56.5	0.0
2025-01-01 15:44:02.593980	62.4	53.7	-57.1	0.0
2025-01-01 15:44:03.738021	61.6	53.8	-56.9	0.7
2025-01-01 15:44:04.880066	60.8	53.8	-56.2	0.0
2025-01-01 15:44:06.022111	60.0	53.8	-56.6	0.0
2025-01-01 15:44:07.167659	59.2	53.8	-57.5	0.7
2025-01-01 15:44:08.310212	58.4	53.8	-59.1	2.0
2025-01-01 15:44:09.453255	57.6	53.8	-61.0	4.1
2025-01-01 15:44:10.596298	56.8	53.8	-59.9	2.4
2025-01-01 15:44:11.739341	56.0	53.8	-61.9	5.3
2025-01-01 15:44:12.885888	55.2	53.8	-61.4	3.8
2025-01-01 15:44:14.028931	54.4	53.8	-62.5	5.1
2025-01-01 15:44:15.170976	53.6	53.7	-62.6	8.3
2025-01-01 15:44:16.313023	52.9	53.7	-62.7	5.7
2025-01-01 15:44:17.457063	52.1	53.7	-64.2	9.0
2025-01-01 15:44:18.600105	51.3	53.6	-62.7	6.7
2025-01-01 15:44:19.741153	50.5	53.6	-62.9	6.9
2025-01-01 15:44:20.884196	49.7	53.5	-62.8	6.1
2025-01-01 15:44:22.028238	48.9	53.5	-62.2	3.2
2025-01-01 15:44:23.170283	48.1	53.4	-62.6	6.7
2025-01-01 15:44:24.312837	47.4	53.3	-61.4	3.8
2025-01-01 15:44:25.453885	46.6	53.3	-63.5	5.9
2025-01-01 15:44:26.596439	45.8	53.2	-62.4	4.9
2025-01-01 15:44:27.742475	45.1	53.1	-61.3	2.7
2025-01-01 15:44:28.885518	44.3	53.0	-61.1	0.4
2025-01-01 15:44:30.027073	43.6	52.9	-63.2	2.3
2025-01-01 15:44:31.175104	42.8	52.8	-63.8	6.0
2025-01-01 15:44:32.319143	42.1	52.7	-64.0	4.7
2025-01-01 15:44:33.463183	41.3	52.6	-61.7	3.4
2025-01-01 15:44:34.607224	40.6	52.5	-63.3	3.9
2025-01-01 15:44:35.749269	39.9	52.4	-62.8	7.1
2025-01-01 15:44:36.892312	39.1	52.2	-62.7	1.0
2025-01-01 15:44:38.036352	38.4	52.1	-62.2	3.2
2025-01-01 15:44:39.179396	37.7	52.0	-63.5	5.6
2025-01-01 15:44:40.320444	37.0	51.8	-63.5	5.6
2025-01-01 15:44:41.467985	36.3	51.7	-63.3	5.9
2025-01-01 15:44:42.611029	35.6	51.6	-64.3	7.3
2025-01-01 15:44:43.753584	35.0	51.4	-63.4	3.9
2025-01-01 15:44:44.896626	34.3	51.3	-64.6	11.0
2025-01-01 15:44:46.039670	33.6	51.1	-63.5	8.1
2025-01-01 15:44:47.181715	33.0	50.9	-63.1	5.1
2025-01-01 15:44:48.326752	32.3	50.8	-64.7	3.3
2025-01-01 15:44:49.469796	31.7	50.6	-64.6	7.3
2025-01-01 15:44:50.610353	31.0	50.4	-64.9	6.0
2025-01-01 15:44:51.751910	30.4	50.3	-64.2	7.3
2025-01-01 15:44:52.893956	29.8	50.1	-65.0	9.3
2025-01-01 15:44:54.037997	29.2	49.9	-65.7	11.0
2025-01-01 15:44:55.180044	28.5	49.7	-65.8	11.3
2025-01-01 15:44:56.324081	27.9	49.6	-65.0	9.9
2025-01-01 15:44:57.466127	27.3	49.4	-63.6	7.5
2025-01-01 15:44:58.610188	26.8	49.2	-63.7	8.6
2025-01-01 15:44:59.753230	26.2	49.0	-64.6	9.0
2025-01-01 15:45:00.899266	25.6	48.8	-65.6	11.7
2025-01-01 15:45:02.042331	25.0	48.6	-64.4	8.8
2025-01-01 15:45:03.183379	24.5	48.4	-64.7	8.4
2025-01-01 15:45:04.326422	23.9	48.2	-64.6	9.0
2025-01-01 15:45:05.465987	23.4	48.0	-64.7	6.8
2025-01-01 15:45:06.609029	22.8	47.8	-64.3	5.6
2025-01-01 15:45:07.755067	22.3	47.6	-65.6	10.7
2025-01-01 15:45:08.897110	21.8	47.4	-65.7	10.2
2025-01-01 15:45:10.041150	21.3	47.2	-64.5	9.5
2025-01-01 15:45:11.186188	20.8	47.0	-64.1	8.4
2025-01-01 15:45:12.331227	20.3	46.8	-63.5	7.4
2025-01-01 15:45:13.472274	19.8	46.5	-64.1	7.4
2025-01-01 15:45:14.615318	19.3	46.3	-63.3	6.8
2025-01-01 15:45:15.755875	18.8	46.1	-63.4	6.9
2025-01-01 15:45:16.898918	18.3	45.9	-62.4	5.1
2025-01-01 15:45:18.042960	17.8	45.7	-63.0	6.4
2025-01-01 15:45:19.186025	17.4	45.5	-62.9	6.6
2025-01-01 15:45:20.328069	16.9	45.2	-63.4	5.0
2025-01-01 15:45:21.469117	16.5	45.0	-63.4	7.1
2025-01-01 15:45:22.611672	16.0	44.8	-63.4	5.6
2025-01-01 15:45:23.753718	15.6	44.6	-63.7	7.5
2025-01-01 15:45:24.895763	15.2	44.4	-62.7	4.9
2025-01-01 15:45:26.039317	14.7	44.1	-63.0	3.8
2025-01-01 15:45:27.182360	14.3	43.9	-62.6	5.4
2025-01-01 15:45:28.325404	13.9	43.7	-62.7	7.2
2025-01-01 15:45:29.470951	13.5	43.5	-63.2	5.8
2025-01-01 15:45:30.612998	13.1	43.2	-63.4	5.6
2025-01-01 15:45:31.758034	12.7	43.0	-63.3	6.4
2025-01-01 15:45:32.902074	12.3	42.8	-62.4	5.9
2025-01-01 15:45:34.048110	11.9	42.6	-62.8	4.4
2025-01-01 15:45:35.189665	11.5	42.3	-62.6	3.9
2025-01-01 15:45:36.332708	11.2	42.1	-62.9	7.1
2025-01-01 15:45:37.473265	10.8	41.9	-62.2	2.2
2025-01-01 15:45:38.621295	10.4	41.7	-63.0	5.2
2025-01-01 15:45:39.765843	10.1	41.4	-63.9	8.0
2025-01-01 15:45:40.907403	9.7	41.2	-65.5	7.2
2025-01-01 15:45:42.049449	9.4	41.0	-62.7	6.2
2025-01-01 15:45:43.192004	9.0	40.8	-63.2	7.4
2025-01-01 15:45:44.334049	8.7	40.5	-63.2	6.6
2025-01-01 15:45:45.475097	8.3	40.3	-63.5	7.1
2025-01-01 15:45:46.616654	8.0	40.1	-62.8	5.6
2025-01-01 15:45:47.758210	7.7	39.9	-62.6	5.9
2025-01-01 15:45:48.899258	7.4	39.7	-62.1	4.1
2025-01-01 15:45:50.041305	7.0	39.4	-62.5	4.6
2025-01-01 15:45:51.185344	6.7	39.2	-62.1	4.3
2025-01-01 15:45:52.330382	6.4	39.0	-62.1	4.9
2025-01-01 15:45:53.474424	6.1	38.8	-61.5	3.1
2025-01-01 15:45:54.616976	5.8	38.5	-63.2	6.8
2025-01-01 15:45:55.758024	5.5	38.3	-62.4	4.7
2025-01-01 15:45:56.902064	5.2	38.1	-61.6	4.7
2025-01-01 15:45:58.053597	4.9	37.9	-60.6	3.8
2025-01-01 15:45:59.194645	4.6	37.7	-61.6	4.3
2025-01-01 15:46:00.341678	4.4	37.4	-61.5	4.2
2025-01-01 15:46:01.483724	4.1	37.2	-60.9	3.5
2025-01-01 15:46:02.627764	3.8	37.0	-61.3	2.9
2025-01-01 15:46:03.770807	3.5	36.8	-60.9	4.3
2025-01-01 15:46:04.911855	3.3	36.6	-62.2	5.3
2025-01-01 15:46:06.053900	3.0	36.4	-62.1	4.6
2025-01-01 15:46:07.194948	2.8	36.2	-61.5	3.2
2025-01-01 15:46:08.341981	2.5	35.9	-62.2	4.0
2025-01-01 15:46:09.484026	2.3	35.7	-61.9	3.4
2025-01-01 15:46:10.626072	2.0	35.5	-60.6	2.5
2025-01-01 15:46:11.767120	1.8	35.3	-60.7	0.0
2025-01-01 15:46:12.912159	1.5	35.1	-61.5	2.9
2025-01-01 15:46:14.054204	1.3	34.9	-63.1	7.0
2025-01-01 15:46:15.201746	1.0	34.7	-62.0	4.8
2025-01-01 15:46:16.344789	0.8	34.5	-61.9	3.0
2025-01-01 15:46:17.489827	0.6	34.3	-62.0	3.1
2025-01-01 15:46:18.632870	0.3	34.1	-61.5	4.4
2025-01-01 15:46:19.773917	0.1	33.8	-62.5	5.9
2025-01-01 15:46:20.915963	359.9	33.6	-60.6	0.0
2025-01-01 15:46:22.062001	359.7	33.4	-61.5	3.7
2025-01-01 15:46:23.205041	359.5	33.2	-60.9	2.8
2025-01-01 15:46:24.348086	359.3	33.0	-62.8	6.1
2025-01-01 15:46:25.491151	359.0	32.8	-62.0	3.9
2025-01-01 15:46:26.641177	358.8	32.6	-62.7	5.9
2025-01-01 15:46:27.785217	358.6	32.4	-60.2	0.0
2025-01-01 15:46:28.928259	358.4	32.2	-61.0	1.2
2025-01-01 15:46:30.073297	358.2	32.0	-59.2	0.0
2025-01-01 15:46:31.215342	358.0	31.8	-59.2	0.3
2025-01-01 15:46:32.362882	357.8	31.6	-60.9	1.9
2025-01-01 15:46:33.505925	357.6	31.4	-60.6	1.8
2025-01-01 15:46:34.647971	357.4	31.3	-60.9	0.0
2025-01-01 15:46:35.791522	357.3	31.1	-59.2	0.0
2025-01-01 15:46:36.934565	357.1	30.9	-58.9	0.0
2025-01-01 15:46:38.080600	356.9	30.7	-59.1	0.0
2025-01-01 15:46:39.227143	356.7	30.5	-58.4	0.0
2025-01-01 15:46:40.371184	356.5	30.3	-57.9	0.0
2025-01-01 15:46:41.515225	356.3	30.1	-61.1	0.0
#Closed at: 2025-01-01 15:41:31.581364