passes_logs/2025/01/01/Planum_Noyabrsk/Planum_Noyabrsk__20250101_074317_METEOR-M2_4_rec.log

#Pass ID: 20250101_074317_METEOR-M2 4
#Satellite: METEOR-M2 4
#Configuration: METEOR-M2 4
#Start time: 2025-01-01 07:43:22.453585

#LorettStation: 1.0.0 05.05.2024
#Station: Planum_Noyabrsk
#Location: 75.446886 lon 63.207202 lat
#TLE: 1 59051U 24039A   24366.53638875  .00000209  00000+0  11354-3 0  9991
#TLE: 2 59051  98.6272 323.8553 0005976 274.1680  85.8815 14.22319791 43540

#Time	Az	El	Level	SNR
2025-01-01 07:43:29.277074	109.5	31.1	-57.0	0.0
2025-01-01 07:43:30.419065	109.3	31.3	-57.3	0.0
2025-01-01 07:43:31.563556	109.0	31.5	-55.3	0.0
2025-01-01 07:43:32.706545	108.8	31.6	-56.7	0.0
2025-01-01 07:43:33.850529	108.5	31.8	-51.8	0.0
2025-01-01 07:43:34.993517	108.3	32.0	-57.4	0.0
2025-01-01 07:43:36.139009	108.0	32.2	-56.9	0.0
2025-01-01 07:43:37.283984	107.8	32.4	-58.2	0.0
2025-01-01 07:43:38.425967	107.5	32.6	-55.5	0.0
2025-01-01 07:43:39.568946	107.2	32.8	-55.2	0.0
2025-01-01 07:43:40.711924	107.0	33.0	-54.8	0.0
2025-01-01 07:43:41.854903	106.7	33.1	-56.9	0.0
2025-01-01 07:43:43.000873	106.4	33.3	-57.7	0.0
2025-01-01 07:43:44.143852	106.1	33.5	-57.5	0.0
2025-01-01 07:43:45.288826	105.9	33.7	-57.2	0.0
2025-01-01 07:43:46.431316	105.6	33.9	-55.6	0.0
2025-01-01 07:43:47.575292	105.3	34.1	-54.7	0.0
2025-01-01 07:43:48.718270	105.0	34.3	-55.0	0.0
2025-01-01 07:43:49.860252	104.7	34.5	-50.7	0.0
2025-01-01 07:43:51.002233	104.4	34.7	-52.5	0.0
2025-01-01 07:43:52.146209	104.1	34.9	-52.2	0.0
2025-01-01 07:43:53.290206	103.8	35.1	-49.8	0.0
2025-01-01 07:43:54.432187	103.5	35.3	-53.7	0.0
2025-01-01 07:43:55.573171	103.2	35.5	-53.3	0.0
2025-01-01 07:43:56.715661	102.8	35.6	-51.5	0.0
2025-01-01 07:43:57.856645	102.5	35.8	-52.3	0.0
2025-01-01 07:43:58.999625	102.2	36.0	-52.4	0.0
2025-01-01 07:44:00.145108	101.9	36.2	-51.9	0.0
2025-01-01 07:44:01.287090	101.5	36.4	-51.9	0.0
2025-01-01 07:44:02.430069	101.2	36.6	-54.3	0.0
2025-01-01 07:44:03.575043	100.9	36.8	-53.6	0.0
2025-01-01 07:44:04.716535	100.5	37.0	-53.0	0.0
2025-01-01 07:44:05.862505	100.2	37.2	-54.3	0.0
2025-01-01 07:44:07.005484	99.8	37.4	-54.3	0.0
2025-01-01 07:44:08.146978	99.4	37.6	-54.5	0.0
2025-01-01 07:44:09.288959	99.1	37.8	-52.1	0.0
2025-01-01 07:44:10.431941	98.7	38.0	-56.1	0.0
2025-01-01 07:44:11.577419	98.3	38.2	-55.8	0.0
2025-01-01 07:44:12.721394	98.0	38.4	-56.1	0.0
2025-01-01 07:44:13.864373	97.6	38.6	-54.9	0.0
2025-01-01 07:44:15.006355	97.2	38.7	-57.2	0.0
2025-01-01 07:44:16.150332	96.8	38.9	-54.7	0.0
2025-01-01 07:44:17.293310	96.4	39.1	-52.8	0.0
2025-01-01 07:44:18.435292	96.0	39.3	-51.7	0.0
2025-01-01 07:44:19.576275	95.6	39.5	-51.6	0.0
2025-01-01 07:44:20.720760	95.2	39.7	-52.1	0.0
2025-01-01 07:44:21.863254	94.8	39.9	-52.2	0.0
2025-01-01 07:44:23.006232	94.4	40.1	-50.4	0.0
2025-01-01 07:44:24.147216	94.0	40.3	-51.4	0.0
2025-01-01 07:44:25.290195	93.5	40.5	-51.5	0.0
2025-01-01 07:44:26.434172	93.1	40.6	-53.5	0.0
2025-01-01 07:44:27.578148	92.7	40.8	-57.2	0.0
2025-01-01 07:44:28.721127	92.2	41.0	-55.9	0.0
2025-01-01 07:44:29.865102	91.8	41.2	-59.3	0.0
2025-01-01 07:44:31.006086	91.3	41.4	-53.1	0.0
2025-01-01 07:44:32.149065	90.9	41.6	-53.0	0.0
2025-01-01 07:44:33.290049	90.4	41.7	-55.1	0.0
2025-01-01 07:44:34.432031	89.9	41.9	-56.1	0.0
2025-01-01 07:44:35.578002	89.5	42.1	-57.5	0.0
2025-01-01 07:44:36.720981	89.0	42.3	-57.6	0.0
2025-01-01 07:44:37.864957	88.5	42.4	-50.0	0.0
2025-01-01 07:44:39.007451	88.0	42.6	-57.6	0.0
2025-01-01 07:44:40.150942	87.5	42.8	-56.6	0.0
2025-01-01 07:44:41.292923	87.0	43.0	-53.9	0.0
2025-01-01 07:44:42.435903	86.5	43.1	-56.5	0.0
2025-01-01 07:44:43.578393	86.0	43.3	-55.9	0.0
2025-01-01 07:44:44.722369	85.5	43.4	-56.3	0.0
2025-01-01 07:44:45.870336	84.9	43.6	-55.3	0.0
2025-01-01 07:44:47.013314	84.4	43.8	-56.1	0.0
2025-01-01 07:44:48.155295	83.9	43.9	-57.5	0.0
2025-01-01 07:44:49.297786	83.4	44.1	-56.8	0.0
2025-01-01 07:44:50.440765	82.8	44.2	-58.1	0.0
2025-01-01 07:44:51.584741	82.3	44.4	-58.9	0.0
2025-01-01 07:44:52.727720	81.7	44.5	-51.2	0.0
2025-01-01 07:44:53.873691	81.2	44.7	-56.3	0.0
2025-01-01 07:44:55.015672	80.6	44.8	-59.3	0.0
2025-01-01 07:44:56.163150	80.0	45.0	-60.2	0.0
2025-01-01 07:44:57.304643	79.4	45.1	-61.7	0.0
2025-01-01 07:44:58.446136	78.9	45.2	-60.0	0.0
2025-01-01 07:44:59.590622	78.3	45.4	-58.4	0.0
2025-01-01 07:45:00.734598	77.7	45.5	-59.8	0.0
2025-01-01 07:45:01.878577	77.1	45.6	-57.9	0.0
2025-01-01 07:45:03.020555	76.5	45.8	-57.7	0.0
2025-01-01 07:45:04.163535	75.9	45.9	-55.6	0.0
2025-01-01 07:45:05.305515	75.3	46.0	-56.5	0.0
2025-01-01 07:45:06.451487	74.7	46.1	-58.3	0.0
2025-01-01 07:45:07.596460	74.1	46.2	-48.0	0.0
2025-01-01 07:45:08.740436	73.5	46.3	-51.7	0.0
2025-01-01 07:45:09.883415	72.8	46.4	-56.8	0.0
2025-01-01 07:45:11.026902	72.2	46.5	-60.7	0.0
2025-01-01 07:45:12.169879	71.6	46.6	-54.8	0.0
2025-01-01 07:45:13.311861	70.9	46.7	-56.0	0.0
2025-01-01 07:45:14.461334	70.3	46.8	-52.9	0.0
2025-01-01 07:45:15.609298	69.6	46.9	-52.9	0.0
2025-01-01 07:45:16.752277	69.0	47.0	-52.4	0.0
2025-01-01 07:45:17.897250	68.3	47.1	-53.0	0.0
2025-01-01 07:45:19.040736	67.7	47.1	-50.9	0.0
2025-01-01 07:45:20.187215	67.0	47.2	-54.0	0.0
2025-01-01 07:45:21.329198	66.4	47.3	-54.3	0.0
2025-01-01 07:45:22.471177	65.7	47.3	-51.9	0.0
2025-01-01 07:45:23.615154	65.1	47.4	-55.2	0.0
2025-01-01 07:45:24.757135	64.4	47.5	-54.6	0.0
2025-01-01 07:45:25.900114	63.7	47.5	-55.4	0.0
2025-01-01 07:45:27.044091	63.0	47.5	-56.9	0.0
2025-01-01 07:45:28.188084	62.4	47.6	-56.3	0.0
2025-01-01 07:45:29.331063	61.7	47.6	-57.2	0.0
2025-01-01 07:45:30.472047	61.0	47.7	-55.4	0.0
2025-01-01 07:45:31.618018	60.3	47.7	-57.7	0.0
2025-01-01 07:45:32.760000	59.7	47.7	-60.4	0.1
2025-01-01 07:45:33.904972	59.0	47.7	-61.4	2.7
2025-01-01 07:45:35.046955	58.3	47.7	-58.9	0.0
2025-01-01 07:45:36.193922	57.6	47.8	-61.9	0.0
2025-01-01 07:45:37.336901	56.9	47.8	-51.6	0.0
2025-01-01 07:45:38.477396	56.3	47.8	-53.1	0.0
2025-01-01 07:45:39.620376	55.6	47.8	-53.0	0.0
2025-01-01 07:45:40.762357	54.9	47.8	-63.8	0.0
2025-01-01 07:45:41.906334	54.2	47.7	-64.2	0.0
2025-01-01 07:45:43.048314	53.5	47.7	-64.4	0.0
2025-01-01 07:45:44.191293	52.9	47.7	-64.0	0.0
2025-01-01 07:45:45.332294	52.2	47.7	-63.5	1.3
2025-01-01 07:45:46.474786	51.5	47.7	-63.5	0.0
2025-01-01 07:45:47.626253	50.8	47.6	-64.2	0.0
2025-01-01 07:45:48.769231	50.1	47.6	-56.9	0.0
2025-01-01 07:45:49.912210	49.5	47.5	-62.6	0.0
2025-01-01 07:45:51.055188	48.8	47.5	-55.6	0.0
2025-01-01 07:45:52.197170	48.1	47.5	-62.9	0.1
2025-01-01 07:45:53.342143	47.5	47.4	-63.2	0.8
2025-01-01 07:45:54.485122	46.8	47.3	-62.1	1.7
2025-01-01 07:45:55.626614	46.1	47.3	-61.7	0.0
2025-01-01 07:45:56.767599	45.5	47.2	-62.7	6.9
2025-01-01 07:45:57.911575	44.8	47.1	-60.5	0.0
2025-01-01 07:45:59.055060	44.2	47.1	-63.6	5.6
2025-01-01 07:46:00.202029	43.5	47.0	-61.7	1.4
2025-01-01 07:46:01.345007	42.9	46.9	-63.3	3.5
2025-01-01 07:46:02.486989	42.2	46.8	-62.5	1.9
2025-01-01 07:46:03.629968	41.6	46.7	-63.5	2.0
2025-01-01 07:46:04.774941	41.0	46.6	-63.7	3.9
2025-01-01 07:46:05.920429	40.3	46.5	-63.4	6.4
2025-01-01 07:46:07.061412	39.7	46.4	-63.1	4.5
2025-01-01 07:46:08.205389	39.1	46.3	-64.0	4.7
2025-01-01 07:46:09.348369	38.5	46.2	-63.3	3.7
2025-01-01 07:46:10.492370	37.9	46.1	-62.6	1.8
2025-01-01 07:46:11.634352	37.2	46.0	-63.2	2.2
2025-01-01 07:46:12.776334	36.6	45.9	-63.4	3.4
2025-01-01 07:46:13.918822	36.0	45.8	-62.1	2.4
2025-01-01 07:46:15.062798	35.4	45.6	-63.7	6.8
2025-01-01 07:46:16.211761	34.8	45.5	-63.0	5.5
2025-01-01 07:46:17.354251	34.3	45.4	-63.2	6.0
2025-01-01 07:46:18.499731	33.7	45.2	-63.7	8.0
2025-01-01 07:46:19.641713	33.1	45.1	-62.8	4.2
2025-01-01 07:46:20.785688	32.5	45.0	-62.7	6.6
2025-01-01 07:46:21.929666	32.0	44.8	-63.2	6.9
2025-01-01 07:46:23.073640	31.4	44.7	-63.5	6.9
2025-01-01 07:46:24.215622	30.8	44.5	-63.5	8.7
2025-01-01 07:46:25.357604	30.3	44.4	-62.6	5.5
2025-01-01 07:46:26.500582	29.7	44.2	-62.9	6.1
2025-01-01 07:46:27.646063	29.2	44.1	-62.7	6.2
2025-01-01 07:46:28.787047	28.7	43.9	-62.7	6.0
2025-01-01 07:46:29.930025	28.1	43.8	-62.8	5.8
2025-01-01 07:46:31.070519	27.6	43.6	-62.4	3.7
2025-01-01 07:46:32.212500	27.1	43.5	-62.0	7.3
2025-01-01 07:46:33.355480	26.6	43.3	-61.6	3.3
2025-01-01 07:46:34.498967	26.1	43.1	-61.2	2.9
2025-01-01 07:46:35.641946	25.6	43.0	-63.3	3.9
2025-01-01 07:46:36.783929	25.1	42.8	-61.1	4.4
2025-01-01 07:46:37.925909	24.6	42.6	-63.5	5.9
2025-01-01 07:46:39.066406	24.1	42.5	-62.8	6.3
2025-01-01 07:46:40.210383	23.6	42.3	-61.9	4.1
2025-01-01 07:46:41.352365	23.1	42.1	-61.8	3.6
2025-01-01 07:46:42.495342	22.7	41.9	-63.9	4.8
2025-01-01 07:46:43.637324	22.2	41.8	-61.9	3.6
2025-01-01 07:46:44.779306	21.7	41.6	-63.8	6.0
2025-01-01 07:46:45.924791	21.3	41.4	-61.1	5.1
2025-01-01 07:46:47.069767	20.8	41.2	-63.2	2.3
2025-01-01 07:46:48.214739	20.4	41.0	-60.6	0.0
2025-01-01 07:46:49.357230	19.9	40.8	-60.7	2.4
2025-01-01 07:46:50.501205	19.5	40.7	-60.0	0.0
2025-01-01 07:46:51.644183	19.1	40.5	-60.6	1.0
2025-01-01 07:46:52.786673	18.6	40.3	-60.2	0.8
2025-01-01 07:46:53.929652	18.2	40.1	-61.6	6.0
2025-01-01 07:46:55.073628	17.8	39.9	-59.4	0.0
2025-01-01 07:46:56.223589	17.4	39.7	-61.0	5.1
2025-01-01 07:46:57.367565	17.0	39.5	-61.1	0.0
2025-01-01 07:46:58.509547	16.6	39.3	-59.4	0.0
2025-01-01 07:46:59.650531	16.2	39.2	-61.1	3.3
2025-01-01 07:47:00.798496	15.8	39.0	-59.8	0.7
2025-01-01 07:47:01.943469	15.4	38.8	-60.4	2.6
2025-01-01 07:47:03.085451	15.0	38.6	-60.7	1.1
2025-01-01 07:47:04.226436	14.6	38.4	-60.3	1.8
2025-01-01 07:47:05.369414	14.3	38.2	-60.7	1.2
2025-01-01 07:47:06.513390	13.9	38.0	-62.0	6.1
2025-01-01 07:47:07.657366	13.5	37.8	-61.9	3.5
2025-01-01 07:47:08.798858	13.2	37.6	-60.9	0.7
2025-01-01 07:47:09.939352	12.8	37.4	-61.1	0.0
2025-01-01 07:47:11.081334	12.4	37.2	-62.1	6.0
2025-01-01 07:47:12.223314	12.1	37.0	-61.9	6.0
2025-01-01 07:47:13.367802	11.8	36.8	-60.6	2.3
2025-01-01 07:47:14.509783	11.4	36.7	-60.4	2.0
2025-01-01 07:47:15.652762	11.1	36.5	-61.1	0.0
2025-01-01 07:47:16.794761	10.7	36.3	-59.0	0.0
2025-01-01 07:47:17.938737	10.4	36.1	-60.9	0.4
2025-01-01 07:47:19.083712	10.1	35.9	-60.4	1.4
2025-01-01 07:47:20.226707	9.8	35.7	-61.4	0.0
2025-01-01 07:47:21.374672	9.5	35.5	-60.2	0.0
2025-01-01 07:47:22.516654	9.1	35.3	-61.0	0.0
2025-01-01 07:47:23.659633	8.8	35.1	-62.4	0.0
2025-01-01 07:47:24.802614	8.5	34.9	-62.0	4.4
2025-01-01 07:47:25.945590	8.2	34.7	-61.5	0.0
2025-01-01 07:47:27.089076	7.9	34.5	-59.5	0.0
2025-01-01 07:47:28.235047	7.6	34.3	-60.3	0.7
2025-01-01 07:47:29.378026	7.3	34.2	-61.5	0.0
2025-01-01 07:47:30.521005	7.1	34.0	-64.5	5.7
2025-01-01 07:47:31.665978	6.8	33.8	-60.6	0.0
2025-01-01 07:47:32.810952	6.5	33.6	-61.1	1.0
2025-01-01 07:47:33.955438	6.2	33.4	-63.6	6.8
2025-01-01 07:47:35.099414	5.9	33.2	-63.2	6.2
2025-01-01 07:47:36.241395	5.7	33.0	-63.3	6.0
2025-01-01 07:47:37.384374	5.4	32.8	-60.7	0.9
2025-01-01 07:47:38.526355	5.1	32.6	-63.3	6.5
2025-01-01 07:47:39.671329	4.9	32.4	-63.2	6.5
2025-01-01 07:47:40.813820	4.6	32.3	-62.6	3.6
2025-01-01 07:47:41.958793	4.4	32.1	-62.9	6.9
2025-01-01 07:47:43.100774	4.1	31.9	-62.5	4.5
2025-01-01 07:47:44.247256	3.8	31.7	-62.6	4.8
2025-01-01 07:47:45.389237	3.6	31.5	-60.5	2.1
2025-01-01 07:47:46.531218	3.4	31.3	-61.0	2.1
2025-01-01 07:47:47.672712	3.1	31.2	-61.9	4.9
2025-01-01 07:47:48.813695	2.9	31.0	-61.6	4.1
2025-01-01 07:47:49.960664	2.6	30.8	-61.5	5.0
2025-01-01 07:47:51.104643	2.4	30.6	-60.8	4.0
2025-01-01 07:47:52.249613	2.2	30.4	-60.3	4.1
2025-01-01 07:47:53.393589	1.9	30.2	-61.1	3.7
2025-01-01 07:47:54.537565	1.7	30.1	-62.2	1.5
#Closed at: 2025-01-01 07:43:17.457225