passes_logs/2025/01/27/X_MFTI_02/X_MFTI_02__20250127_235038_NOAA_20_rec.log

#Pass ID: 20250127_235038_NOAA 20
#Satellite: NOAA 20
#Configuration: NOAA 20
#Start time: 2025-01-27 23:50:34

#Version: 1.5.20200625
#Station: X_MFTI_02
#Location: 37.5186 lon 55.9291 lat
#TLE: 1 43013U 17073A   23362.44808611  .00000160  00000+0  96626-4 0  9996
#TLE: 2 43013  98.7331 297.9536 0000783  57.5916 302.5335 14.19555620316533

#Time	Az	El	Level	Level2	SNR	BER	Gain	Gain2
2025-01-27 23:50:36.67	8.15	69.34	
2025-01-27 23:50:36.87	8.11	69.44	
2025-01-27 23:50:37.08	8.06	69.53	
2025-01-27 23:50:37.29	8.00	69.63	
2025-01-27 23:50:37.50	7.95	69.72	
2025-01-27 23:50:37.71	7.90	69.82	
2025-01-27 23:50:37.92	7.84	69.91	
2025-01-27 23:50:38.12	7.79	70.01	
2025-01-27 23:50:38.32	7.74	70.10	
2025-01-27 23:50:38.53	7.69	70.19	
2025-01-27 23:50:38.74	7.63	70.29	
2025-01-27 23:50:38.94	7.58	70.38	
2025-01-27 23:50:39.15	7.52	70.48	
2025-01-27 23:50:39.35	7.46	70.57	
2025-01-27 23:50:39.55	7.41	70.66	
2025-01-27 23:50:39.75	7.35	70.75	
2025-01-27 23:50:39.96	7.29	70.85	
2025-01-27 23:50:40.17	7.23	70.95	
2025-01-27 23:50:40.37	7.18	71.04	
2025-01-27 23:50:40.57	7.12	71.13	
2025-01-27 23:50:40.78	7.06	71.23	
2025-01-27 23:50:40.98	7.00	71.32	
2025-01-27 23:50:41.18	6.94	71.41	
2025-01-27 23:50:41.39	6.87	71.51	
2025-01-27 23:50:41.59	6.81	71.60	
2025-01-27 23:50:41.79	6.75	71.70	
2025-01-27 23:50:42.00	6.68	71.79	
2025-01-27 23:50:42.21	6.62	71.89	
2025-01-27 23:50:42.41	6.55	71.98	
2025-01-27 23:50:42.62	6.48	72.08	
2025-01-27 23:50:42.83	6.41	72.18	
2025-01-27 23:50:43.03	6.35	72.27	
2025-01-27 23:50:43.24	6.28	72.37	
2025-01-27 23:50:43.45	6.21	72.47	
2025-01-27 23:50:43.66	6.13	72.56	
2025-01-27 23:50:43.87	6.06	72.66	
2025-01-27 23:50:44.08	5.99	72.76	
2025-01-27 23:50:44.30	5.91	72.86	
2025-01-27 23:50:44.50	5.83	72.96	
2025-01-27 23:50:44.72	5.75	73.06	
2025-01-27 23:50:44.93	5.68	73.16	
2025-01-27 23:50:45.14	5.60	73.26	
2025-01-27 23:50:45.35	5.52	73.35	
2025-01-27 23:50:45.55	5.44	73.45	
2025-01-27 23:50:45.75	5.36	73.54	
2025-01-27 23:50:45.96	5.28	73.64	
2025-01-27 23:50:46.16	5.20	73.73	
2025-01-27 23:50:46.37	5.11	73.83	
2025-01-27 23:50:46.57	5.03	73.93	
2025-01-27 23:50:46.78	4.95	74.02	
2025-01-27 23:50:46.99	4.86	74.12	
2025-01-27 23:50:47.19	4.77	74.22	
2025-01-27 23:50:47.41	4.68	74.32	
2025-01-27 23:50:47.61	4.59	74.41	
2025-01-27 23:50:47.82	4.50	74.51	
2025-01-27 23:50:48.02	4.41	74.61	
2025-01-27 23:50:48.23	4.31	74.71	
2025-01-27 23:50:48.44	4.21	74.81	
2025-01-27 23:50:48.64	4.12	74.90	
2025-01-27 23:50:48.85	4.02	75.00	
2025-01-27 23:50:49.05	3.93	75.09	
2025-01-27 23:50:49.25	3.83	75.19	
2025-01-27 23:50:49.46	3.73	75.29	
2025-01-27 23:50:49.67	3.62	75.39	
2025-01-27 23:50:49.87	3.52	75.48	
2025-01-27 23:50:50.08	3.41	75.58	
2025-01-27 23:50:50.28	3.31	75.67	
2025-01-27 23:50:50.49	3.20	75.77	
2025-01-27 23:50:50.69	3.09	75.87	
2025-01-27 23:50:50.90	2.97	75.97	
2025-01-27 23:50:51.10	2.86	76.06	
2025-01-27 23:50:51.32	2.74	76.17	
2025-01-27 23:50:51.52	2.63	76.26	
2025-01-27 23:50:51.72	2.51	76.35	
2025-01-27 23:50:51.93	2.39	76.45	
2025-01-27 23:50:52.13	2.27	76.55	
2025-01-27 23:50:52.34	2.14	76.65	
2025-01-27 23:50:52.55	2.02	76.75	
2025-01-27 23:50:52.75	1.89	76.84	
2025-01-27 23:50:52.96	1.76	76.94	
2025-01-27 23:50:53.16	1.63	77.04	
2025-01-27 23:50:53.37	1.49	77.13	
2025-01-27 23:50:53.58	1.36	77.23	
2025-01-27 23:50:53.79	1.21	77.33	
2025-01-27 23:50:54.00	1.07	77.43	
2025-01-27 23:50:54.21	0.93	77.53	
2025-01-27 23:50:54.42	0.78	77.63	
2025-01-27 23:50:54.63	0.63	77.73	
2025-01-27 23:50:54.84	0.47	77.83	
2025-01-27 23:50:55.05	0.32	77.93	
2025-01-27 23:50:55.26	0.16	78.03	
2025-01-27 23:50:55.47	360.00	78.13	
2025-01-27 23:50:55.67	359.84	78.22	
2025-01-27 23:50:55.87	359.68	78.32	
2025-01-27 23:50:56.08	359.51	78.41	
2025-01-27 23:50:56.29	359.34	78.51	
2025-01-27 23:50:56.51	359.16	78.62	
2025-01-27 23:50:56.71	358.99	78.71	
2025-01-27 23:50:56.91	358.81	78.81	
2025-01-27 23:50:57.12	358.63	78.90	
2025-01-27 23:50:57.32	358.45	79.00	
2025-01-27 23:50:57.53	358.26	79.10	
2025-01-27 23:50:57.74	358.06	79.20	
2025-01-27 23:50:57.95	357.86	79.29	
2025-01-27 23:50:58.15	357.67	79.39	
2025-01-27 23:50:58.36	357.46	79.49	
2025-01-27 23:50:58.57	357.25	79.58	
2025-01-27 23:50:58.77	357.05	79.68	
2025-01-27 23:50:58.97	356.84	79.77	
2025-01-27 23:50:59.18	356.62	79.87	
2025-01-27 23:50:59.39	356.39	79.97	
2025-01-27 23:50:59.60	356.16	80.07	
2025-01-27 23:50:59.81	355.92	80.16	
2025-01-27 23:51:00.01	355.69	80.26	
2025-01-27 23:51:00.22	355.45	80.35	
2025-01-27 23:51:00.42	355.21	80.45	
2025-01-27 23:51:00.63	354.95	80.54	
2025-01-27 23:51:00.84	354.69	80.64	
2025-01-27 23:51:01.05	354.42	80.74	
2025-01-27 23:51:01.26	354.15	80.83	
2025-01-27 23:51:01.46	353.88	80.93	
2025-01-27 23:51:01.67	353.60	81.02	
2025-01-27 23:51:01.87	353.32	81.11	
2025-01-27 23:51:02.08	353.02	81.21	
2025-01-27 23:51:02.28	352.73	81.30	
2025-01-27 23:51:02.49	352.42	81.40	
2025-01-27 23:51:02.69	352.12	81.49	
2025-01-27 23:51:02.89	351.81	81.58	
2025-01-27 23:51:03.09	351.50	81.67	
2025-01-27 23:51:03.30	351.16	81.76	
2025-01-27 23:51:03.50	350.83	81.85	
2025-01-27 23:51:03.70	350.49	81.94	
2025-01-27 23:51:03.91	350.13	82.04	
2025-01-27 23:51:04.12	349.76	82.13	
2025-01-27 23:51:04.32	349.39	82.22	
2025-01-27 23:51:04.53	349.00	82.31	
2025-01-27 23:51:04.74	348.61	82.41	
2025-01-27 23:51:04.94	348.22	82.49	
2025-01-27 23:51:05.15	347.80	82.59	
2025-01-27 23:51:05.35	347.39	82.67	
2025-01-27 23:51:05.56	346.95	82.76	
2025-01-27 23:51:05.76	346.52	82.85	
2025-01-27 23:51:05.97	346.06	82.94	
2025-01-27 23:51:06.17	345.60	83.03	
2025-01-27 23:51:06.37	345.14	83.11	
2025-01-27 23:51:06.58	344.64	83.20	
2025-01-27 23:51:06.80	344.11	83.29	
2025-01-27 23:51:07.00	343.60	83.38	
2025-01-27 23:51:07.20	343.09	83.46	
2025-01-27 23:51:07.41	342.54	83.55	
2025-01-27 23:51:07.62	341.97	83.64	
2025-01-27 23:51:07.83	341.38	83.72	
2025-01-27 23:51:08.04	340.78	83.81	
2025-01-27 23:51:08.25	340.16	83.89	
2025-01-27 23:51:08.45	339.56	83.97	
2025-01-27 23:51:08.66	338.90	84.05	
2025-01-27 23:51:08.86	338.26	84.13	
2025-01-27 23:51:09.07	337.57	84.21	
2025-01-27 23:51:09.28	336.86	84.29	
2025-01-27 23:51:09.48	336.17	84.37	
2025-01-27 23:51:09.69	335.42	84.45	
2025-01-27 23:51:09.89	334.68	84.52	
2025-01-27 23:51:10.10	333.89	84.60	
2025-01-27 23:51:10.31	333.07	84.68	
2025-01-27 23:51:10.51	332.28	84.75	
2025-01-27 23:51:10.71	331.45	84.82	
2025-01-27 23:51:10.92	330.57	84.89	
2025-01-27 23:51:11.12	329.70	84.96	
2025-01-27 23:51:11.32	328.81	85.03	
2025-01-27 23:51:11.53	327.85	85.10	
2025-01-27 23:51:11.73	326.90	85.16	
2025-01-27 23:51:11.93	325.94	85.22	
2025-01-27 23:51:12.14	324.89	85.29	
2025-01-27 23:51:12.34	323.87	85.35	
2025-01-27 23:51:12.55	322.77	85.41	
2025-01-27 23:51:12.76	321.64	85.47	
2025-01-27 23:51:12.96	320.54	85.53	
2025-01-27 23:51:13.17	319.35	85.58	
2025-01-27 23:51:13.38	318.13	85.64	
2025-01-27 23:51:13.58	316.94	85.69	
2025-01-27 23:51:13.80	315.61	85.74	
2025-01-27 23:51:14.00	314.36	85.78	
2025-01-27 23:51:14.21	313.02	85.83	
2025-01-27 23:51:14.41	311.72	85.87	
2025-01-27 23:51:14.62	310.33	85.91	
2025-01-27 23:51:14.83	308.91	85.95	
2025-01-27 23:51:15.03	307.53	85.99	
2025-01-27 23:51:15.24	306.06	86.02	
2025-01-27 23:51:15.45	304.56	86.05	
2025-01-27 23:51:15.66	303.04	86.08	
2025-01-27 23:51:15.87	301.50	86.11	
2025-01-27 23:51:16.07	300.02	86.13	
2025-01-27 23:51:16.27	298.51	86.15	
2025-01-27 23:51:16.48	296.92	86.16	
2025-01-27 23:51:16.68	295.39	86.18	
2025-01-27 23:51:16.88	293.86	86.19	
2025-01-27 23:51:17.08	292.31	86.20	
2025-01-27 23:51:17.29	290.68	86.20	
2025-01-27 23:51:17.49	289.13	86.21	
2025-01-27 23:51:17.70	287.49	86.20	
2025-01-27 23:51:17.90	285.94	86.20	
2025-01-27 23:51:18.11	284.31	86.20	
2025-01-27 23:51:18.31	282.77	86.19	
2025-01-27 23:51:18.52	281.16	86.17	
2025-01-27 23:51:18.72	279.63	86.16	
2025-01-27 23:51:18.93	278.04	86.14	
2025-01-27 23:51:19.14	276.47	86.12	
2025-01-27 23:51:19.35	274.92	86.10	
2025-01-27 23:51:19.56	273.39	86.07	
2025-01-27 23:51:19.77	271.88	86.04	
2025-01-27 23:51:19.97	270.46	86.01	
2025-01-27 23:51:20.18	268.99	85.97	
2025-01-27 23:51:20.38	267.62	85.94	
2025-01-27 23:51:20.59	266.21	85.90	
2025-01-27 23:51:20.79	264.89	85.86	
2025-01-27 23:51:21.00	263.54	85.82	
2025-01-27 23:51:21.20	262.27	85.77	
2025-01-27 23:51:21.41	260.97	85.72	
2025-01-27 23:51:21.61	259.76	85.67	
2025-01-27 23:51:21.82	258.52	85.62	
2025-01-27 23:51:22.02	257.37	85.57	
2025-01-27 23:51:22.22	256.24	85.51	
2025-01-27 23:51:22.43	255.09	85.46	
2025-01-27 23:51:22.63	254.02	85.40	
2025-01-27 23:51:22.84	252.93	85.34	
2025-01-27 23:51:23.06	251.81	85.27	
2025-01-27 23:51:23.26	250.82	85.21	
2025-01-27 23:51:23.47	249.81	85.14	
2025-01-27 23:51:23.68	248.83	85.07	
2025-01-27 23:51:23.88	247.92	85.01	
2025-01-27 23:51:24.08	247.04	84.94	
2025-01-27 23:51:24.29	246.14	84.87	
2025-01-27 23:51:24.49	245.30	84.80	
2025-01-27 23:51:24.70	244.44	84.72	
2025-01-27 23:51:24.90	243.65	84.65	
2025-01-27 23:51:25.10	242.88	84.58	
2025-01-27 23:51:25.32	242.06	84.50	
2025-01-27 23:51:25.52	241.33	84.42	
2025-01-27 23:51:25.73	240.59	84.34	
2025-01-27 23:51:25.94	239.86	84.26	
2025-01-27 23:51:26.14	239.19	84.19	
2025-01-27 23:51:26.35	238.51	84.10	
2025-01-27 23:51:26.55	237.88	84.03	
2025-01-27 23:51:26.75	237.26	83.95	
2025-01-27 23:51:26.96	236.63	83.86	
2025-01-27 23:51:27.17	236.02	83.78	
2025-01-27 23:51:27.37	235.45	83.70	
2025-01-27 23:51:27.58	234.87	83.61	
2025-01-27 23:51:27.78	234.33	83.53	
2025-01-27 23:51:27.98	233.80	83.44	
2025-01-27 23:51:28.19	233.27	83.36	
2025-01-27 23:51:28.39	232.77	83.27	
2025-01-27 23:51:28.60	232.26	83.18	
2025-01-27 23:51:28.81	231.76	83.09	
2025-01-27 23:51:29.02	231.28	83.00	
2025-01-27 23:51:29.23	230.81	82.91	
2025-01-27 23:51:29.43	230.37	82.83	
2025-01-27 23:51:29.63	229.94	82.74	
2025-01-27 23:51:29.84	229.50	82.65	
2025-01-27 23:51:30.05	229.08	82.56	
2025-01-27 23:51:30.25	228.68	82.47	
2025-01-27 23:51:30.45	228.29	82.38	
2025-01-27 23:51:30.66	227.90	82.29	
2025-01-27 23:51:30.87	227.51	82.20	
2025-01-27 23:51:31.08	227.13	82.10	
2025-01-27 23:51:31.29	226.76	82.01	
2025-01-27 23:51:31.50	226.40	81.91	
2025-01-27 23:51:31.70	226.07	81.82	
2025-01-27 23:51:31.91	225.72	81.73	
2025-01-27 23:51:32.11	225.40	81.64	
2025-01-27 23:51:32.31	225.09	81.55	
2025-01-27 23:51:32.53	224.75	81.45	
2025-01-27 23:51:32.73	224.45	81.36	
2025-01-27 23:51:32.93	224.16	81.27	
2025-01-27 23:51:33.15	223.84	81.17	
2025-01-27 23:51:33.35	223.56	81.07	
2025-01-27 23:51:33.55	223.29	80.98	
2025-01-27 23:51:33.76	223.01	80.89	
2025-01-27 23:51:33.97	222.73	80.79	
2025-01-27 23:51:34.18	222.46	80.69	
2025-01-27 23:51:34.39	222.19	80.60	
2025-01-27 23:51:34.59	221.95	80.50	
2025-01-27 23:51:34.79	221.70	80.41	
2025-01-27 23:51:34.99	221.47	80.32	
2025-01-27 23:51:35.20	221.22	80.22	
2025-01-27 23:51:35.40	220.99	80.13	
2025-01-27 23:51:35.61	220.76	80.03	
2025-01-27 23:51:35.81	220.54	79.94	
2025-01-27 23:51:36.02	220.31	79.84	
2025-01-27 23:51:36.23	220.09	79.74	
2025-01-27 23:51:36.43	219.88	79.65	
2025-01-27 23:51:36.64	219.67	79.55	
2025-01-27 23:51:36.84	219.47	79.45	
2025-01-27 23:51:37.04	219.28	79.36	
2025-01-27 23:51:37.25	219.07	79.26	
2025-01-27 23:51:37.46	218.88	79.16	
2025-01-27 23:51:37.67	218.68	79.06	
2025-01-27 23:51:37.87	218.50	78.97	
2025-01-27 23:51:38.08	218.31	78.87	
2025-01-27 23:51:38.28	218.14	78.78	
2025-01-27 23:51:38.49	217.95	78.68	
2025-01-27 23:51:38.69	217.79	78.58	
2025-01-27 23:51:38.90	217.61	78.48	
2025-01-27 23:51:39.10	217.45	78.39	
2025-01-27 23:51:39.31	217.28	78.29	
2025-01-27 23:51:39.51	217.12	78.20	
2025-01-27 23:51:39.71	216.96	78.10	
2025-01-27 23:51:39.92	216.80	78.00	
2025-01-27 23:51:40.13	216.65	77.90	
2025-01-27 23:51:40.33	216.50	77.81	
2025-01-27 23:51:40.53	216.35	77.71	
2025-01-27 23:51:40.74	216.20	77.61	
2025-01-27 23:51:40.94	216.06	77.52	
2025-01-27 23:51:41.14	215.92	77.43	
2025-01-27 23:51:41.34	215.79	77.33	
2025-01-27 23:51:41.55	215.64	77.23	
2025-01-27 23:51:41.75	215.51	77.14	
2025-01-27 23:51:41.96	215.37	77.04	
2025-01-27 23:51:42.17	215.24	76.94	
2025-01-27 23:51:42.37	215.11	76.84	
2025-01-27 23:51:42.58	214.98	76.74	
2025-01-27 23:51:42.78	214.86	76.65	
2025-01-27 23:51:42.99	214.73	76.55	
2025-01-27 23:51:43.19	214.61	76.45	
2025-01-27 23:51:43.40	214.49	76.35	
2025-01-27 23:51:43.60	214.38	76.26	
2025-01-27 23:51:43.80	214.26	76.17	
2025-01-27 23:51:44.01	214.14	76.07	
2025-01-27 23:51:44.21	214.03	75.97	
2025-01-27 23:51:44.41	213.92	75.88	
2025-01-27 23:51:44.62	213.81	75.78	
2025-01-27 23:51:44.82	213.71	75.68	
2025-01-27 23:51:45.03	213.60	75.58	
2025-01-27 23:51:45.23	213.49	75.49	
2025-01-27 23:51:45.45	213.38	75.38	
2025-01-27 23:51:45.66	213.28	75.29	
2025-01-27 23:51:45.86	213.18	75.19	
2025-01-27 23:51:46.07	213.08	75.09	
2025-01-27 23:51:46.27	212.98	75.00	
2025-01-27 23:51:46.47	212.88	74.90	
2025-01-27 23:51:46.68	212.79	74.80	
2025-01-27 23:51:46.88	212.69	74.71	
2025-01-27 23:51:47.08	212.60	74.61	
2025-01-27 23:51:47.29	212.51	74.52	
2025-01-27 23:51:47.50	212.41	74.42	
2025-01-27 23:51:47.70	212.33	74.32	
2025-01-27 23:51:47.92	212.23	74.22	
2025-01-27 23:51:48.12	212.15	74.12	
2025-01-27 23:51:48.32	212.06	74.03	
2025-01-27 23:51:48.53	211.98	73.93	
2025-01-27 23:51:48.73	211.89	73.84	
2025-01-27 23:51:48.93	211.81	73.74	
2025-01-27 23:51:49.14	211.73	73.64	
2025-01-27 23:51:49.34	211.65	73.55	
2025-01-27 23:51:49.55	211.57	73.45	
2025-01-27 23:51:49.75	211.49	73.36	
2025-01-27 23:51:49.95	211.41	73.26	
2025-01-27 23:51:50.15	211.34	73.17	
2025-01-27 23:51:50.36	211.26	73.07	
2025-01-27 23:51:50.56	211.19	72.98	
2025-01-27 23:51:50.76	211.11	72.89	
2025-01-27 23:51:50.97	211.04	72.79	
2025-01-27 23:51:51.17	210.97	72.69	
2025-01-27 23:51:51.38	210.89	72.60	
2025-01-27 23:51:51.58	210.82	72.50	
2025-01-27 23:51:51.80	210.75	72.40	
2025-01-27 23:51:52.01	210.68	72.30	
2025-01-27 23:51:52.22	210.61	72.20	
2025-01-27 23:51:52.42	210.54	72.11	
2025-01-27 23:51:52.63	210.47	72.01	
2025-01-27 23:51:52.83	210.41	71.92	
2025-01-27 23:51:53.03	210.34	71.83	
2025-01-27 23:51:53.24	210.28	71.73	
2025-01-27 23:51:53.44	210.21	71.64	
2025-01-27 23:51:53.65	210.15	71.54	
2025-01-27 23:51:53.85	210.09	71.45	
2025-01-27 23:51:54.06	210.02	71.35	
2025-01-27 23:51:54.26	209.96	71.26	
2025-01-27 23:51:54.46	209.90	71.16	
2025-01-27 23:51:54.66	209.85	71.07	
2025-01-27 23:51:54.87	209.78	70.97	
2025-01-27 23:51:55.07	209.73	70.88	
2025-01-27 23:51:55.28	209.67	70.78	
2025-01-27 23:51:55.48	209.61	70.69	
2025-01-27 23:51:55.69	209.55	70.60	
2025-01-27 23:51:55.89	209.50	70.50	
2025-01-27 23:51:56.10	209.44	70.41	

#Closed at: 2025-01-27 23:51:56