passes_logs/2025/01/27/X_MFTI_02/X_MFTI_02__20250127_100007_NOAA_20_rec.log

#Pass ID: 20250127_100007_NOAA 20
#Satellite: NOAA 20
#Configuration: NOAA 20
#Start time: 2025-01-27 10:00:04

#Version: 1.5.20200625
#Station: X_MFTI_02
#Location: 37.5186 lon 55.9291 lat
#TLE: 1 43013U 17073A   23362.44808611  .00000160  00000+0  96626-4 0  9996
#TLE: 2 43013  98.7331 297.9536 0000783  57.5916 302.5335 14.19555620316533

#Time	Az	El	Level	Level2	SNR	BER	Gain	Gain2
2025-01-27 10:00:06.36	152.63	69.57	
2025-01-27 10:00:06.57	152.59	69.67	
2025-01-27 10:00:06.77	152.54	69.76	
2025-01-27 10:00:06.97	152.50	69.86	
2025-01-27 10:00:07.17	152.46	69.95	
2025-01-27 10:00:07.38	152.41	70.04	
2025-01-27 10:00:07.58	152.37	70.14	
2025-01-27 10:00:07.80	152.32	70.24	
2025-01-27 10:00:08.00	152.27	70.33	
2025-01-27 10:00:08.21	152.22	70.43	
2025-01-27 10:00:08.41	152.17	70.52	
2025-01-27 10:00:08.61	152.13	70.61	
2025-01-27 10:00:08.82	152.08	70.71	
2025-01-27 10:00:09.02	152.03	70.80	
2025-01-27 10:00:09.22	151.98	70.90	
2025-01-27 10:00:09.43	151.93	70.99	
2025-01-27 10:00:09.63	151.88	71.09	
2025-01-27 10:00:09.83	151.83	71.18	
2025-01-27 10:00:10.03	151.78	71.27	
2025-01-27 10:00:10.24	151.72	71.37	
2025-01-27 10:00:10.44	151.67	71.46	
2025-01-27 10:00:10.65	151.62	71.56	
2025-01-27 10:00:10.85	151.56	71.65	
2025-01-27 10:00:11.05	151.51	71.75	
2025-01-27 10:00:11.26	151.45	71.85	
2025-01-27 10:00:11.46	151.40	71.94	
2025-01-27 10:00:11.66	151.34	72.03	
2025-01-27 10:00:11.87	151.28	72.13	
2025-01-27 10:00:12.08	151.23	72.23	
2025-01-27 10:00:12.28	151.17	72.32	
2025-01-27 10:00:12.49	151.11	72.42	
2025-01-27 10:00:12.69	151.05	72.52	
2025-01-27 10:00:12.90	150.99	72.62	
2025-01-27 10:00:13.10	150.93	72.71	
2025-01-27 10:00:13.31	150.86	72.81	
2025-01-27 10:00:13.51	150.80	72.90	
2025-01-27 10:00:13.71	150.74	73.00	
2025-01-27 10:00:13.92	150.67	73.10	
2025-01-27 10:00:14.12	150.61	73.19	
2025-01-27 10:00:14.32	150.54	73.29	
2025-01-27 10:00:14.53	150.47	73.39	
2025-01-27 10:00:14.73	150.41	73.48	
2025-01-27 10:00:14.94	150.34	73.58	
2025-01-27 10:00:15.14	150.27	73.67	
2025-01-27 10:00:15.35	150.20	73.77	
2025-01-27 10:00:15.55	150.13	73.87	
2025-01-27 10:00:15.75	150.06	73.96	
2025-01-27 10:00:15.96	149.98	74.06	
2025-01-27 10:00:16.17	149.91	74.16	
2025-01-27 10:00:16.37	149.83	74.26	
2025-01-27 10:00:16.58	149.75	74.36	
2025-01-27 10:00:16.79	149.68	74.46	
2025-01-27 10:00:17.00	149.59	74.56	
2025-01-27 10:00:17.21	149.51	74.66	
2025-01-27 10:00:17.41	149.44	74.75	
2025-01-27 10:00:17.62	149.35	74.85	
2025-01-27 10:00:17.82	149.27	74.95	
2025-01-27 10:00:18.03	149.19	75.05	
2025-01-27 10:00:18.23	149.10	75.14	
2025-01-27 10:00:18.44	149.01	75.24	
2025-01-27 10:00:18.65	148.93	75.34	
2025-01-27 10:00:18.87	148.83	75.45	
2025-01-27 10:00:19.07	148.74	75.54	
2025-01-27 10:00:19.28	148.65	75.64	
2025-01-27 10:00:19.48	148.56	75.74	
2025-01-27 10:00:19.68	148.47	75.84	
2025-01-27 10:00:19.88	148.37	75.93	
2025-01-27 10:00:20.09	148.28	76.03	
2025-01-27 10:00:20.29	148.18	76.13	
2025-01-27 10:00:20.51	148.07	76.23	
2025-01-27 10:00:20.71	147.98	76.33	
2025-01-27 10:00:20.92	147.87	76.43	
2025-01-27 10:00:21.12	147.77	76.53	
2025-01-27 10:00:21.33	147.66	76.63	
2025-01-27 10:00:21.54	147.55	76.73	
2025-01-27 10:00:21.75	147.44	76.83	
2025-01-27 10:00:21.97	147.32	76.93	
2025-01-27 10:00:22.17	147.21	77.03	
2025-01-27 10:00:22.38	147.09	77.13	
2025-01-27 10:00:22.59	146.98	77.23	
2025-01-27 10:00:22.79	146.86	77.33	
2025-01-27 10:00:23.00	146.74	77.43	
2025-01-27 10:00:23.21	146.61	77.53	
2025-01-27 10:00:23.41	146.49	77.62	
2025-01-27 10:00:23.61	146.37	77.72	
2025-01-27 10:00:23.82	146.24	77.82	
2025-01-27 10:00:24.03	146.10	77.92	
2025-01-27 10:00:24.23	145.98	78.02	
2025-01-27 10:00:24.43	145.84	78.11	
2025-01-27 10:00:24.64	145.70	78.21	
2025-01-27 10:00:24.85	145.56	78.32	
2025-01-27 10:00:25.06	145.42	78.42	
2025-01-27 10:00:25.27	145.27	78.52	
2025-01-27 10:00:25.47	145.13	78.61	
2025-01-27 10:00:25.67	144.98	78.71	
2025-01-27 10:00:25.89	144.82	78.81	
2025-01-27 10:00:26.10	144.66	78.91	
2025-01-27 10:00:26.31	144.50	79.02	
2025-01-27 10:00:26.52	144.33	79.12	
2025-01-27 10:00:26.72	144.17	79.21	
2025-01-27 10:00:26.93	144.00	79.31	
2025-01-27 10:00:27.13	143.83	79.41	
2025-01-27 10:00:27.34	143.66	79.51	
2025-01-27 10:00:27.54	143.48	79.60	
2025-01-27 10:00:27.75	143.30	79.70	
2025-01-27 10:00:27.95	143.12	79.80	
2025-01-27 10:00:28.15	142.94	79.90	
2025-01-27 10:00:28.36	142.74	80.00	
2025-01-27 10:00:28.56	142.55	80.09	
2025-01-27 10:00:28.77	142.35	80.19	
2025-01-27 10:00:28.98	142.14	80.29	
2025-01-27 10:00:29.19	141.93	80.39	
2025-01-27 10:00:29.39	141.72	80.49	
2025-01-27 10:00:29.60	141.50	80.59	
2025-01-27 10:00:29.80	141.28	80.68	
2025-01-27 10:00:30.02	141.04	80.78	
2025-01-27 10:00:30.22	140.81	80.88	
2025-01-27 10:00:30.42	140.58	80.97	
2025-01-27 10:00:30.63	140.34	81.07	
2025-01-27 10:00:30.83	140.10	81.17	
2025-01-27 10:00:31.04	139.84	81.27	
2025-01-27 10:00:31.24	139.59	81.36	
2025-01-27 10:00:31.44	139.33	81.45	
2025-01-27 10:00:31.66	139.04	81.56	
2025-01-27 10:00:31.86	138.77	81.65	
2025-01-27 10:00:32.06	138.50	81.75	
2025-01-27 10:00:32.27	138.20	81.84	
2025-01-27 10:00:32.48	137.90	81.94	
2025-01-27 10:00:32.69	137.59	82.04	
2025-01-27 10:00:32.89	137.28	82.13	
2025-01-27 10:00:33.09	136.97	82.22	
2025-01-27 10:00:33.30	136.64	82.32	
2025-01-27 10:00:33.51	136.30	82.42	
2025-01-27 10:00:33.71	135.96	82.51	
2025-01-27 10:00:33.92	135.60	82.61	
2025-01-27 10:00:34.13	135.23	82.70	
2025-01-27 10:00:34.34	134.85	82.80	
2025-01-27 10:00:34.54	134.48	82.89	
2025-01-27 10:00:34.74	134.10	82.98	
2025-01-27 10:00:34.96	133.67	83.08	
2025-01-27 10:00:35.16	133.26	83.17	
2025-01-27 10:00:35.37	132.83	83.26	
2025-01-27 10:00:35.57	132.40	83.35	
2025-01-27 10:00:35.77	131.96	83.44	
2025-01-27 10:00:35.98	131.49	83.53	
2025-01-27 10:00:36.19	131.01	83.63	
2025-01-27 10:00:36.40	130.50	83.72	
2025-01-27 10:00:36.61	129.99	83.81	
2025-01-27 10:00:36.82	129.46	83.90	
2025-01-27 10:00:37.04	128.88	84.00	
2025-01-27 10:00:37.24	128.34	84.08	
2025-01-27 10:00:37.45	127.76	84.17	
2025-01-27 10:00:37.65	127.19	84.26	
2025-01-27 10:00:37.85	126.60	84.34	
2025-01-27 10:00:38.06	125.97	84.43	
2025-01-27 10:00:38.26	125.34	84.51	
2025-01-27 10:00:38.47	124.66	84.60	
2025-01-27 10:00:38.67	124.00	84.68	
2025-01-27 10:00:38.88	123.27	84.77	
2025-01-27 10:00:39.09	122.53	84.85	
2025-01-27 10:00:39.29	121.80	84.93	
2025-01-27 10:00:39.50	121.00	85.01	
2025-01-27 10:00:39.70	120.22	85.09	
2025-01-27 10:00:39.90	119.41	85.17	
2025-01-27 10:00:40.11	118.54	85.25	
2025-01-27 10:00:40.32	117.63	85.32	
2025-01-27 10:00:40.53	116.70	85.40	
2025-01-27 10:00:40.73	115.78	85.47	
2025-01-27 10:00:40.94	114.78	85.55	
2025-01-27 10:00:41.14	113.80	85.62	
2025-01-27 10:00:41.35	112.73	85.69	
2025-01-27 10:00:41.56	111.63	85.76	
2025-01-27 10:00:41.76	110.55	85.83	
2025-01-27 10:00:41.97	109.37	85.89	
2025-01-27 10:00:42.17	108.22	85.95	
2025-01-27 10:00:42.39	106.91	86.02	
2025-01-27 10:00:42.59	105.68	86.08	
2025-01-27 10:00:42.79	104.41	86.14	
2025-01-27 10:00:43.00	103.04	86.19	
2025-01-27 10:00:43.21	101.63	86.25	
2025-01-27 10:00:43.42	100.18	86.30	
2025-01-27 10:00:43.62	98.76	86.35	
2025-01-27 10:00:43.83	97.23	86.40	
2025-01-27 10:00:44.03	95.73	86.44	
2025-01-27 10:00:44.23	94.19	86.48	
2025-01-27 10:00:44.44	92.55	86.52	
2025-01-27 10:00:44.65	90.86	86.56	
2025-01-27 10:00:44.85	89.23	86.59	
2025-01-27 10:00:45.05	87.56	86.62	
2025-01-27 10:00:45.26	85.78	86.65	
2025-01-27 10:00:45.46	84.05	86.67	
2025-01-27 10:00:45.66	82.31	86.69	
2025-01-27 10:00:45.87	80.45	86.71	
2025-01-27 10:00:46.07	78.67	86.73	
2025-01-27 10:00:46.28	76.78	86.74	
2025-01-27 10:00:46.48	74.97	86.75	
2025-01-27 10:00:46.69	73.06	86.75	
2025-01-27 10:00:46.89	71.24	86.75	
2025-01-27 10:00:47.10	69.33	86.75	
2025-01-27 10:00:47.30	67.52	86.74	
2025-01-27 10:00:47.50	65.71	86.74	
2025-01-27 10:00:47.71	63.83	86.72	
2025-01-27 10:00:47.91	62.05	86.71	
2025-01-27 10:00:48.11	60.29	86.69	
2025-01-27 10:00:48.33	58.38	86.66	
2025-01-27 10:00:48.54	56.58	86.64	
2025-01-27 10:00:48.74	54.90	86.61	
2025-01-27 10:00:48.94	53.25	86.58	
2025-01-27 10:00:49.15	51.54	86.54	
2025-01-27 10:00:49.35	49.95	86.51	
2025-01-27 10:00:49.56	48.32	86.46	
2025-01-27 10:00:49.76	46.80	86.42	
2025-01-27 10:00:49.96	45.32	86.38	
2025-01-27 10:00:50.16	43.88	86.33	
2025-01-27 10:00:50.37	42.40	86.28	
2025-01-27 10:00:50.57	41.04	86.23	
2025-01-27 10:00:50.78	39.64	86.17	
2025-01-27 10:00:50.98	38.35	86.12	
2025-01-27 10:00:51.18	37.10	86.06	
2025-01-27 10:00:51.38	35.88	86.00	
2025-01-27 10:00:51.59	34.64	85.94	
2025-01-27 10:00:51.79	33.50	85.87	
2025-01-27 10:00:52.00	32.33	85.81	
2025-01-27 10:00:52.20	31.26	85.74	
2025-01-27 10:00:52.41	30.17	85.67	
2025-01-27 10:00:52.61	29.16	85.60	
2025-01-27 10:00:52.82	28.14	85.53	
2025-01-27 10:00:53.02	27.20	85.46	
2025-01-27 10:00:53.23	26.24	85.38	
2025-01-27 10:00:53.43	25.36	85.31	
2025-01-27 10:00:53.63	24.50	85.23	
2025-01-27 10:00:53.84	23.63	85.15	
2025-01-27 10:00:54.05	22.79	85.07	
2025-01-27 10:00:54.25	22.01	84.99	
2025-01-27 10:00:54.45	21.26	84.92	
2025-01-27 10:00:54.66	20.50	84.83	
2025-01-27 10:00:54.86	19.79	84.75	
2025-01-27 10:00:55.06	19.11	84.67	
2025-01-27 10:00:55.27	18.41	84.59	
2025-01-27 10:00:55.47	17.77	84.50	
2025-01-27 10:00:55.68	17.12	84.42	
2025-01-27 10:00:55.88	16.51	84.33	
2025-01-27 10:00:56.09	15.90	84.24	
2025-01-27 10:00:56.30	15.30	84.15	
2025-01-27 10:00:56.50	14.75	84.07	
2025-01-27 10:00:56.70	14.22	83.98	
2025-01-27 10:00:56.90	13.70	83.90	
2025-01-27 10:00:57.11	13.17	83.81	
2025-01-27 10:00:57.31	12.68	83.72	
2025-01-27 10:00:57.52	12.18	83.63	
2025-01-27 10:00:57.74	11.67	83.53	
2025-01-27 10:00:57.95	11.20	83.44	
2025-01-27 10:00:58.15	10.76	83.35	
2025-01-27 10:00:58.36	10.32	83.25	
2025-01-27 10:00:58.56	9.90	83.16	
2025-01-27 10:00:58.77	9.48	83.07	
2025-01-27 10:00:58.97	9.09	82.98	
2025-01-27 10:00:59.18	8.69	82.88	
2025-01-27 10:00:59.38	8.32	82.79	
2025-01-27 10:00:59.58	7.96	82.70	
2025-01-27 10:00:59.79	7.59	82.61	
2025-01-27 10:01:00.00	7.23	82.51	
2025-01-27 10:01:00.20	6.89	82.42	
2025-01-27 10:01:00.40	6.57	82.32	
2025-01-27 10:01:00.61	6.23	82.23	
2025-01-27 10:01:00.81	5.92	82.14	
2025-01-27 10:01:01.02	5.60	82.04	
2025-01-27 10:01:01.22	5.31	81.95	
2025-01-27 10:01:01.43	5.00	81.85	
2025-01-27 10:01:01.63	4.72	81.75	
2025-01-27 10:01:01.84	4.43	81.66	
2025-01-27 10:01:02.05	4.15	81.56	
2025-01-27 10:01:02.25	3.89	81.46	
2025-01-27 10:01:02.47	3.60	81.36	
2025-01-27 10:01:02.67	3.35	81.27	
2025-01-27 10:01:02.88	3.10	81.17	
2025-01-27 10:01:03.09	2.84	81.07	
2025-01-27 10:01:03.30	2.60	80.97	
2025-01-27 10:01:03.50	2.37	80.88	
2025-01-27 10:01:03.70	2.14	80.78	
2025-01-27 10:01:03.92	1.90	80.68	
2025-01-27 10:01:04.13	1.68	80.58	
2025-01-27 10:01:04.35	1.44	80.47	
2025-01-27 10:01:04.55	1.24	80.38	
2025-01-27 10:01:04.75	1.04	80.28	
2025-01-27 10:01:04.95	0.84	80.19	
2025-01-27 10:01:05.16	0.64	80.09	
2025-01-27 10:01:05.36	0.45	79.99	
2025-01-27 10:01:05.57	0.25	79.89	
2025-01-27 10:01:05.77	0.07	79.80	
2025-01-27 10:01:05.98	359.88	79.70	
2025-01-27 10:01:06.18	359.70	79.60	
2025-01-27 10:01:06.40	359.52	79.50	
2025-01-27 10:01:06.60	359.35	79.40	
2025-01-27 10:01:06.80	359.18	79.31	
2025-01-27 10:01:07.01	359.01	79.20	
2025-01-27 10:01:07.21	358.85	79.11	
2025-01-27 10:01:07.42	358.69	79.01	
2025-01-27 10:01:07.62	358.53	78.91	
2025-01-27 10:01:07.82	358.38	78.82	
2025-01-27 10:01:08.03	358.22	78.72	
2025-01-27 10:01:08.23	358.08	78.62	
2025-01-27 10:01:08.43	357.94	78.53	
2025-01-27 10:01:08.64	357.79	78.42	
2025-01-27 10:01:08.85	357.64	78.32	
2025-01-27 10:01:09.05	357.51	78.23	
2025-01-27 10:01:09.25	357.37	78.13	
2025-01-27 10:01:09.46	357.24	78.03	
2025-01-27 10:01:09.67	357.10	77.93	
2025-01-27 10:01:09.87	356.97	77.84	
2025-01-27 10:01:10.08	356.84	77.73	
2025-01-27 10:01:10.28	356.72	77.64	
2025-01-27 10:01:10.49	356.59	77.54	
2025-01-27 10:01:10.69	356.47	77.44	
2025-01-27 10:01:10.89	356.36	77.35	
2025-01-27 10:01:11.10	356.23	77.25	
2025-01-27 10:01:11.30	356.12	77.15	
2025-01-27 10:01:11.51	356.00	77.05	
2025-01-27 10:01:11.72	355.89	76.95	
2025-01-27 10:01:11.93	355.78	76.85	
2025-01-27 10:01:12.13	355.67	76.75	
2025-01-27 10:01:12.33	355.56	76.66	
2025-01-27 10:01:12.53	355.46	76.56	
2025-01-27 10:01:12.73	355.36	76.47	
2025-01-27 10:01:12.93	355.26	76.37	
2025-01-27 10:01:13.13	355.16	76.27	
2025-01-27 10:01:13.35	355.05	76.17	
2025-01-27 10:01:13.55	354.96	76.07	
2025-01-27 10:01:13.75	354.86	75.98	
2025-01-27 10:01:13.96	354.76	75.88	
2025-01-27 10:01:14.16	354.67	75.78	
2025-01-27 10:01:14.37	354.58	75.68	
2025-01-27 10:01:14.57	354.49	75.59	
2025-01-27 10:01:14.77	354.40	75.49	
2025-01-27 10:01:14.98	354.31	75.39	
2025-01-27 10:01:15.18	354.22	75.29	
2025-01-27 10:01:15.39	354.14	75.19	
2025-01-27 10:01:15.59	354.05	75.10	
2025-01-27 10:01:15.80	353.97	75.00	
2025-01-27 10:01:16.01	353.88	74.90	
2025-01-27 10:01:16.21	353.80	74.80	
2025-01-27 10:01:16.41	353.72	74.71	
2025-01-27 10:01:16.62	353.64	74.61	
2025-01-27 10:01:16.82	353.56	74.51	
2025-01-27 10:01:17.02	353.49	74.42	
2025-01-27 10:01:17.23	353.41	74.32	
2025-01-27 10:01:17.44	353.33	74.22	
2025-01-27 10:01:17.65	353.26	74.12	
2025-01-27 10:01:17.85	353.18	74.03	
2025-01-27 10:01:18.06	353.11	73.93	
2025-01-27 10:01:18.26	353.04	73.83	
2025-01-27 10:01:18.46	352.97	73.74	
2025-01-27 10:01:18.67	352.90	73.64	
2025-01-27 10:01:18.88	352.83	73.54	
2025-01-27 10:01:19.08	352.76	73.44	
2025-01-27 10:01:19.29	352.69	73.35	
2025-01-27 10:01:19.49	352.63	73.25	
2025-01-27 10:01:19.70	352.56	73.15	
2025-01-27 10:01:19.90	352.50	73.06	
2025-01-27 10:01:20.11	352.43	72.96	
2025-01-27 10:01:20.31	352.37	72.86	
2025-01-27 10:01:20.52	352.30	72.77	
2025-01-27 10:01:20.72	352.24	72.67	
2025-01-27 10:01:20.93	352.18	72.57	
2025-01-27 10:01:21.13	352.12	72.48	
2025-01-27 10:01:21.33	352.06	72.39	
2025-01-27 10:01:21.54	352.00	72.29	
2025-01-27 10:01:21.74	351.95	72.19	
2025-01-27 10:01:21.95	351.89	72.10	
2025-01-27 10:01:22.15	351.83	72.00	
2025-01-27 10:01:22.35	351.78	71.91	
2025-01-27 10:01:22.56	351.72	71.81	
2025-01-27 10:01:22.76	351.66	71.72	
2025-01-27 10:01:22.97	351.61	71.62	
2025-01-27 10:01:23.17	351.56	71.53	
2025-01-27 10:01:23.38	351.50	71.43	
2025-01-27 10:01:23.59	351.45	71.33	
2025-01-27 10:01:23.80	351.39	71.23	
2025-01-27 10:01:24.00	351.34	71.14	
2025-01-27 10:01:24.21	351.29	71.04	
2025-01-27 10:01:24.41	351.24	70.95	
2025-01-27 10:01:24.62	351.19	70.85	
2025-01-27 10:01:24.83	351.14	70.76	
2025-01-27 10:01:25.03	351.09	70.66	
2025-01-27 10:01:25.24	351.04	70.57	
2025-01-27 10:01:25.45	350.99	70.47	
2025-01-27 10:01:25.65	350.95	70.38	

#Closed at: 2025-01-27 10:01:25