passes_logs/2025/01/04/PPK-1/PPK-1__20250104_010327_AQUA_rec.log

#Pass ID: 20250104_010327_AQUA
#Satellite: AQUA
#Configuration: AQUA
#almurnet v.1.7.20230919.trace
#Start time: 2025-01-04 01:03:27

#Version: 2.2.20231116
#Station: PPK-1
#Location: 158.6 lon 53.06666 lat
#TLE: 1 27424U 02022A   25003.15423677  .00003847  00000+0  80040-3 0  9996
#TLE: 2 27424  98.3579 319.7126 0001226 121.2786 295.6453 14.60625680205895

#Time	Az	El	Level	Level2	SNR	BER	BlckErr	Temp	State
2025-01-04 01:03:27.48	79.35	7.98	-62.4	-82.2	3.8	7.46e-01	0	44	0
2025-01-04 01:03:29.37	79.04	8.06	-62.5	-82.3	3.8	7.46e-01	0	44	104
2025-01-04 01:03:31.27	78.72	8.14	-62.4	-82.1	3.8	7.43e-01	0	44	104
2025-01-04 01:03:33.17	78.41	8.22	-62.6	-82.4	3.8	7.44e-01	0	45	104
2025-01-04 01:03:35.07	78.09	8.31	-62.6	-82.4	3.8	7.48e-01	0	45	104
2025-01-04 01:03:36.97	77.77	8.39	-62.6	-82.4	3.8	7.42e-01	0	45	104
2025-01-04 01:03:38.87	77.45	8.47	-62.6	-82.4	3.8	7.48e-01	0	45	104
2025-01-04 01:03:40.77	77.12	8.55	-62.6	-82.4	3.8	7.46e-01	0	45	104
2025-01-04 01:03:42.67	76.80	8.62	-62.6	-82.4	3.8	7.45e-01	0	45	104
2025-01-04 01:03:44.57	76.47	8.70	-62.6	-82.4	3.8	7.45e-01	0	46	104
2025-01-04 01:03:46.46	76.14	8.78	-62.5	-82.3	3.8	7.46e-01	0	46	104
2025-01-04 01:03:48.36	75.81	8.86	-62.2	-82.0	3.8	7.47e-01	0	46	104
2025-01-04 01:03:50.26	75.48	8.93	-62.6	-82.3	3.8	7.44e-01	0	46	104
2025-01-04 01:03:52.16	75.14	9.01	-62.6	-82.4	3.8	7.46e-01	0	46	104
2025-01-04 01:03:54.06	74.81	9.08	-62.6	-82.4	3.8	7.44e-01	0	46	104
2025-01-04 01:03:55.96	74.47	9.16	-62.4	-82.2	3.8	7.48e-01	0	46	104
2025-01-04 01:03:57.85	74.13	9.23	-62.6	-82.4	3.8	7.46e-01	0	46	104
2025-01-04 01:03:59.75	73.78	9.31	-62.6	-82.3	3.8	7.45e-01	0	47	104
2025-01-04 01:04:01.65	73.44	9.38	-62.5	-82.3	3.8	7.46e-01	0	47	104
2025-01-04 01:04:03.55	73.09	9.45	-62.6	-82.4	3.8	7.45e-01	0	47	104
2025-01-04 01:04:05.45	72.74	9.52	-62.6	-82.4	3.8	7.45e-01	0	47	104
2025-01-04 01:04:07.35	72.39	9.59	-62.5	-82.3	3.8	7.50e-01	0	47	104
2025-01-04 01:04:09.24	72.04	9.66	-62.7	-82.4	3.8	7.46e-01	0	47	104
2025-01-04 01:04:11.14	71.69	9.73	-62.5	-82.3	3.8	7.45e-01	0	47	104
2025-01-04 01:04:13.04	71.33	9.80	-62.4	-82.2	3.8	7.45e-01	0	48	104
2025-01-04 01:04:14.93	70.98	9.87	-62.5	-82.3	3.8	7.45e-01	0	48	104
2025-01-04 01:04:16.83	70.62	9.93	-62.6	-82.4	3.8	7.46e-01	0	48	104
2025-01-04 01:04:18.73	70.26	10.00	-62.4	-82.2	3.8	7.45e-01	0	48	104
2025-01-04 01:04:20.63	69.90	10.06	-62.5	-82.3	3.8	7.45e-01	0	48	104
2025-01-04 01:04:22.53	69.53	10.13	-62.5	-82.3	3.8	7.45e-01	0	48	104
2025-01-04 01:04:24.43	69.17	10.19	-62.6	-82.4	3.8	7.46e-01	0	48	104
2025-01-04 01:04:26.33	68.80	10.25	-62.7	-82.5	3.8	7.47e-01	0	48	104
2025-01-04 01:04:28.23	68.43	10.31	-62.7	-82.5	3.8	7.46e-01	0	49	104
2025-01-04 01:04:30.13	68.06	10.37	-62.6	-82.4	3.8	7.45e-01	0	49	104
2025-01-04 01:04:32.03	67.68	10.43	-62.5	-82.3	3.8	7.43e-01	0	49	104
2025-01-04 01:04:33.92	67.31	10.49	-62.5	-82.3	3.8	7.48e-01	0	49	104
2025-01-04 01:04:35.82	66.93	10.55	-62.5	-82.3	3.8	7.47e-01	0	49	104
2025-01-04 01:04:37.72	66.56	10.61	-62.6	-82.3	3.8	7.46e-01	0	49	104
2025-01-04 01:04:39.62	66.18	10.66	-62.6	-82.4	3.8	7.46e-01	0	49	104
2025-01-04 01:04:41.52	65.80	10.72	-62.6	-82.4	3.8	7.43e-01	0	50	104
2025-01-04 01:04:43.42	65.41	10.77	-62.7	-82.5	3.8	7.50e-01	0	49	104
2025-01-04 01:04:45.32	65.03	10.82	-62.5	-82.3	3.8	7.43e-01	0	49	104
2025-01-04 01:04:47.22	64.64	10.88	-62.5	-82.3	3.8	7.45e-01	0	50	104
2025-01-04 01:04:49.12	64.26	10.93	-62.5	-82.2	3.8	7.46e-01	0	50	104
2025-01-04 01:04:51.02	63.87	10.98	-62.6	-82.4	3.8	7.44e-01	0	50	104
2025-01-04 01:04:52.92	63.48	11.02	-62.6	-82.4	3.8	7.49e-01	0	50	104
2025-01-04 01:04:54.81	63.09	11.07	-62.6	-82.4	3.8	7.45e-01	0	50	104
2025-01-04 01:04:56.71	62.70	11.12	-62.7	-82.4	3.8	7.44e-01	0	50	104
2025-01-04 01:04:58.61	62.30	11.16	-62.7	-82.5	3.8	7.47e-01	0	50	104
2025-01-04 01:05:00.51	61.91	11.21	-62.5	-82.3	3.8	7.47e-01	0	50	104
2025-01-04 01:05:02.41	61.51	11.25	-62.7	-82.5	3.8	7.48e-01	0	50	104
2025-01-04 01:05:04.31	61.12	11.29	-62.6	-82.5	3.8	7.43e-01	0	51	104
2025-01-04 01:05:06.21	60.72	11.33	-62.7	-82.5	3.8	7.45e-01	0	51	104
2025-01-04 01:05:08.11	60.32	11.37	-62.6	-82.4	3.8	7.47e-01	0	51	104
2025-01-04 01:05:10.01	59.92	11.41	-62.8	-82.1	3.8	7.45e-01	0	51	104
2025-01-04 01:05:11.91	59.51	11.44	-62.6	-82.0	3.8	7.43e-01	0	51	104
2025-01-04 01:05:13.81	59.11	11.48	-62.7	-82.1	3.8	7.48e-01	0	51	104
2025-01-04 01:05:15.70	58.71	11.51	-62.8	-82.2	3.8	7.48e-01	0	51	104
2025-01-04 01:05:17.60	58.30	11.55	-62.8	-82.1	3.8	7.41e-01	0	51	104
2025-01-04 01:05:19.50	57.90	11.58	-62.7	-82.0	3.8	7.44e-01	0	51	104
2025-01-04 01:05:21.40	57.49	11.61	-62.8	-82.1	3.8	7.47e-01	0	52	104
2025-01-04 01:05:23.30	57.08	11.64	-62.8	-82.2	3.8	7.45e-01	0	51	104
2025-01-04 01:05:25.19	56.68	11.67	-62.7	-82.0	3.8	7.46e-01	0	52	104
2025-01-04 01:05:27.09	56.27	11.69	-62.7	-82.0	3.8	7.47e-01	0	51	104
2025-01-04 01:05:28.99	55.86	11.72	-62.8	-82.2	3.8	7.46e-01	0	52	104
2025-01-04 01:05:30.89	55.45	11.74	-62.7	-82.0	3.8	7.46e-01	0	52	104
2025-01-04 01:05:32.79	55.03	11.76	-62.7	-82.0	3.8	7.45e-01	0	52	104
2025-01-04 01:05:34.69	54.62	11.79	-62.5	-81.8	3.8	7.43e-01	0	52	104
2025-01-04 01:05:36.59	54.21	11.81	-62.8	-82.2	3.8	7.44e-01	0	52	104
2025-01-04 01:05:38.48	53.80	11.82	-62.8	-82.1	3.8	7.47e-01	0	52	104
2025-01-04 01:05:40.38	53.38	11.84	-62.6	-82.0	3.8	7.43e-01	0	52	104
2025-01-04 01:05:42.27	52.97	11.86	-62.4	-81.7	3.8	7.42e-01	0	52	104
2025-01-04 01:05:44.17	52.56	11.87	-62.7	-82.0	3.8	7.48e-01	0	52	104
2025-01-04 01:05:46.07	52.14	11.89	-62.7	-82.1	3.8	7.46e-01	0	52	104
2025-01-04 01:05:47.97	51.72	11.90	-62.7	-82.0	3.8	7.46e-01	0	52	104
2025-01-04 01:05:49.87	51.31	11.91	-62.6	-81.9	3.8	7.46e-01	0	52	104
2025-01-04 01:05:51.77	50.89	11.92	-62.7	-82.1	3.8	7.44e-01	0	52	104
2025-01-04 01:05:53.67	50.48	11.92	-62.7	-82.1	3.8	7.44e-01	0	53	104
2025-01-04 01:05:55.57	50.06	11.93	-62.8	-82.1	3.8	7.44e-01	0	53	104
2025-01-04 01:05:57.47	49.64	11.93	-62.5	-81.8	3.8	7.43e-01	0	53	104
2025-01-04 01:05:59.37	49.22	11.94	-62.5	-81.8	3.8	7.46e-01	0	53	104
2025-01-04 01:06:01.27	48.81	11.94	-62.5	-81.8	3.8	7.46e-01	0	53	104
2025-01-04 01:06:03.16	48.39	11.94	-62.8	-82.1	3.8	7.44e-01	0	53	104
2025-01-04 01:06:05.06	47.98	11.94	-62.8	-82.2	3.8	7.44e-01	0	53	104
2025-01-04 01:06:06.96	47.56	11.94	-62.8	-82.2	3.8	7.45e-01	0	53	104
2025-01-04 01:06:08.86	47.14	11.93	-62.7	-82.0	3.8	7.43e-01	0	53	104
2025-01-04 01:06:10.76	46.72	11.93	-62.7	-82.0	3.8	7.46e-01	0	53	104
2025-01-04 01:06:12.66	46.31	11.92	-62.8	-82.1	3.8	7.45e-01	0	53	104
2025-01-04 01:06:14.56	45.89	11.92	-62.7	-82.1	3.8	7.46e-01	0	53	104
2025-01-04 01:06:16.46	45.48	11.91	-62.6	-81.9	3.8	7.44e-01	0	53	104
2025-01-04 01:06:18.36	45.06	11.90	-62.8	-82.2	3.8	7.49e-01	0	53	104
2025-01-04 01:06:20.26	44.64	11.88	-62.8	-82.1	3.8	7.45e-01	0	53	104
2025-01-04 01:06:22.16	44.23	11.87	-62.7	-82.1	3.8	7.45e-01	0	54	104
2025-01-04 01:06:24.05	43.82	11.86	-62.7	-82.0	3.8	7.43e-01	0	53	104
2025-01-04 01:06:25.95	43.40	11.84	-62.7	-82.1	3.8	7.44e-01	0	53	104
2025-01-04 01:06:27.85	42.99	11.82	-62.6	-82.0	3.8	7.47e-01	0	53	104
2025-01-04 01:06:29.75	42.58	11.80	-62.7	-82.0	3.8	7.49e-01	0	54	104
2025-01-04 01:06:31.65	42.16	11.78	-62.6	-82.0	3.8	7.50e-01	0	54	104
2025-01-04 01:06:33.55	41.75	11.76	-62.6	-81.9	3.8	7.42e-01	0	54	104
2025-01-04 01:06:35.44	41.34	11.74	-62.6	-82.0	3.8	7.45e-01	0	54	104
2025-01-04 01:06:37.34	40.93	11.72	-62.6	-81.9	3.8	7.43e-01	0	54	104
2025-01-04 01:06:39.24	40.52	11.69	-62.7	-82.0	3.8	7.45e-01	0	54	104
2025-01-04 01:06:41.14	40.11	11.66	-62.4	-81.7	3.8	7.46e-01	0	54	104
2025-01-04 01:06:43.04	39.71	11.64	-62.8	-82.1	3.8	7.46e-01	0	54	104
2025-01-04 01:06:44.94	39.30	11.61	-62.7	-82.0	3.8	7.47e-01	0	54	104
2025-01-04 01:06:46.83	38.89	11.58	-62.8	-82.2	3.8	7.47e-01	0	54	104
2025-01-04 01:06:48.73	38.49	11.55	-62.8	-82.1	3.8	7.48e-01	0	54	104
2025-01-04 01:06:50.63	38.08	11.51	-62.7	-82.1	3.8	7.48e-01	0	54	104
2025-01-04 01:06:52.52	37.68	11.48	-62.8	-82.1	3.8	7.47e-01	0	54	104
2025-01-04 01:06:54.42	37.28	11.44	-62.8	-82.1	3.8	7.44e-01	0	54	104
2025-01-04 01:06:56.32	36.88	11.41	-62.7	-82.1	3.8	7.46e-01	0	54	104
2025-01-04 01:06:58.22	36.48	11.37	-62.7	-82.1	3.8	7.45e-01	0	55	104
2025-01-04 01:07:00.12	36.08	11.33	-62.6	-81.9	3.8	7.46e-01	0	54	104
2025-01-04 01:07:02.02	35.68	11.29	-62.7	-82.0	3.8	7.47e-01	0	54	104
2025-01-04 01:07:03.92	35.29	11.25	-62.7	-82.0	3.8	7.42e-01	0	54	104
2025-01-04 01:07:05.82	34.89	11.20	-62.7	-82.1	3.8	7.48e-01	0	55	104
2025-01-04 01:07:07.72	34.50	11.16	-62.7	-82.0	3.8	7.45e-01	0	55	104
2025-01-04 01:07:09.61	34.11	11.12	-62.6	-82.0	3.8	7.46e-01	0	55	104
2025-01-04 01:07:11.51	33.72	11.07	-62.7	-82.0	3.8	7.45e-01	0	55	104
2025-01-04 01:07:13.40	33.33	11.02	-62.6	-81.9	3.8	7.44e-01	0	55	104
2025-01-04 01:07:15.30	32.94	10.97	-62.6	-82.0	3.8	7.47e-01	0	55	104
2025-01-04 01:07:17.20	32.55	10.93	-62.8	-82.1	3.8	7.46e-01	0	55	104
2025-01-04 01:07:19.10	32.17	10.87	-62.8	-82.1	3.8	7.48e-01	0	55	104
2025-01-04 01:07:21.00	31.78	10.82	-62.6	-82.0	3.8	7.46e-01	0	55	104
2025-01-04 01:07:22.90	31.40	10.77	-62.7	-82.0	3.8	7.48e-01	0	55	104
2025-01-04 01:07:24.80	31.02	10.72	-62.7	-82.1	3.8	7.47e-01	0	55	104
2025-01-04 01:07:26.70	30.64	10.66	-62.7	-82.1	3.8	7.46e-01	0	55	104
2025-01-04 01:07:28.60	30.26	10.61	-62.7	-82.1	3.8	7.44e-01	0	55	104
2025-01-04 01:07:30.50	29.89	10.55	-62.9	-82.2	3.8	7.41e-01	0	55	104
2025-01-04 01:07:32.40	29.51	10.49	-62.6	-81.9	3.8	7.42e-01	0	55	104
2025-01-04 01:07:34.29	29.14	10.43	-62.7	-82.1	3.8	7.48e-01	0	55	104
2025-01-04 01:07:36.19	28.77	10.37	-62.7	-82.1	3.8	7.45e-01	0	55	104
2025-01-04 01:07:38.09	28.40	10.31	-62.8	-82.2	3.8	7.44e-01	0	55	104
2025-01-04 01:07:39.99	28.03	10.25	-62.8	-82.1	3.8	7.43e-01	0	55	104
2025-01-04 01:07:41.89	27.66	10.19	-62.9	-82.2	3.8	7.49e-01	0	55	104
2025-01-04 01:07:43.79	27.30	10.13	-62.9	-82.3	3.8	7.42e-01	0	55	104
2025-01-04 01:07:45.69	26.94	10.06	-62.9	-82.2	3.8	7.45e-01	0	55	104
2025-01-04 01:07:47.59	26.57	10.00	-62.8	-82.2	3.8	7.45e-01	0	55	104
2025-01-04 01:07:49.49	26.22	9.93	-62.8	-82.1	3.8	7.44e-01	0	55	104
2025-01-04 01:07:51.39	25.86	9.87	-62.8	-82.2	3.8	7.44e-01	0	55	104
2025-01-04 01:07:53.29	25.50	9.80	-62.8	-82.1	3.8	7.47e-01	0	55	104
2025-01-04 01:07:55.18	25.15	9.73	-62.8	-82.2	3.8	7.45e-01	0	55	104
2025-01-04 01:07:57.08	24.80	9.66	-62.6	-82.0	3.8	7.47e-01	0	55	104
2025-01-04 01:07:58.98	24.45	9.59	-62.6	-82.0	3.8	7.42e-01	0	55	104
2025-01-04 01:08:00.88	24.10	9.52	-62.7	-82.1	3.8	7.41e-01	0	55	104
2025-01-04 01:08:02.77	23.75	9.45	-62.7	-82.0	3.8	7.48e-01	0	55	104
2025-01-04 01:08:04.67	23.41	9.38	-62.7	-82.1	3.8	7.46e-01	0	56	104
2025-01-04 01:08:06.57	23.07	9.31	-62.9	-82.2	3.8	7.44e-01	0	56	104
2025-01-04 01:08:08.47	22.72	9.23	-62.8	-82.2	3.8	7.46e-01	0	56	104
2025-01-04 01:08:10.37	22.39	9.16	-62.8	-82.2	3.8	7.46e-01	0	56	104
2025-01-04 01:08:12.27	22.05	9.09	-62.7	-82.1	3.8	7.44e-01	0	56	104
2025-01-04 01:08:14.17	21.71	9.01	-62.7	-82.0	3.8	7.43e-01	0	56	104
2025-01-04 01:08:16.07	21.38	8.94	-62.7	-82.1	3.8	7.46e-01	0	56	104
2025-01-04 01:08:17.96	21.05	8.86	-62.6	-82.0	3.8	7.43e-01	0	56	104
2025-01-04 01:08:19.86	20.72	8.78	-62.7	-82.1	3.8	7.46e-01	0	56	104
2025-01-04 01:08:21.75	20.39	8.71	-62.8	-82.1	3.8	7.42e-01	0	56	104
2025-01-04 01:08:23.65	20.07	8.63	-62.6	-81.9	3.8	7.44e-01	0	56	104
2025-01-04 01:08:25.55	19.74	8.55	-62.7	-82.1	3.8	7.47e-01	0	56	104
2025-01-04 01:08:27.45	19.42	8.47	-62.7	-82.0	3.8	7.44e-01	0	56	104
2025-01-04 01:08:29.35	19.10	8.39	-62.8	-82.2	3.8	7.44e-01	0	56	104
2025-01-04 01:08:31.25	18.78	8.31	-62.7	-82.0	3.8	7.46e-01	0	56	104
2025-01-04 01:08:33.15	18.47	8.23	-62.7	-82.1	3.8	7.43e-01	0	56	104
2025-01-04 01:08:35.05	18.15	8.15	-62.8	-82.1	3.8	7.47e-01	0	56	104
2025-01-04 01:08:36.95	17.84	8.07	-62.7	-82.0	3.8	7.45e-01	0	56	104
2025-01-04 01:08:38.85	17.53	7.98	-62.7	-82.0	3.8	7.45e-01	0	56	104

#Closed at: 2025-01-04 01:08:40
#Recorded file [0 MB]: D:/data/31015_250104_130327.dat