passes_logs/2025/01/04/PPK-1/PPK-1__20250104_105152_TY-39_rec.log

#Pass ID: 20250104_105152_TY-39
#Satellite: TY-39
#Configuration: TY-39
#almurnet v.1.7.20230919.trace
#Start time: 2025-01-04 10:51:52

#Version: 2.2.20231116
#Station: PPK-1
#Location: 158.6 lon 53.06666 lat
#TLE: 1 51832U 22019J   25003.85209178  .00005047  00000+0  25955-3 0  9997
#TLE: 2 51832  97.4110  74.3059 0007622 279.2184  80.8188 15.16870569157454

#Time	Az	El	Level	Level2	SNR	BER	BlckErr	Temp	State
2025-01-04 10:51:52.31	170.20	7.98	-67.4	-73.3	3.6	0.00e+00	0	46	0
2025-01-04 10:51:54.20	170.23	8.16	-67.5	-73.4	3.6	0.00e+00	0	46	104
2025-01-04 10:51:56.10	170.27	8.34	-67.3	-73.2	3.6	0.00e+00	0	46	104
2025-01-04 10:51:58.00	170.31	8.52	-67.4	-73.3	3.7	0.00e+00	0	47	104
2025-01-04 10:51:59.89	170.35	8.71	-67.5	-73.4	3.7	0.00e+00	0	47	104
2025-01-04 10:52:01.79	170.39	8.89	-67.4	-73.4	3.7	0.00e+00	0	47	104
2025-01-04 10:52:03.69	170.43	9.08	-67.2	-73.2	3.6	0.00e+00	0	48	104
2025-01-04 10:52:05.59	170.47	9.27	-67.1	-73.2	3.6	0.00e+00	0	48	104
2025-01-04 10:52:07.49	170.52	9.46	-67.2	-73.2	3.6	0.00e+00	0	48	104
2025-01-04 10:52:09.39	170.56	9.66	-67.2	-73.3	3.7	0.00e+00	0	49	104
2025-01-04 10:52:11.28	170.60	9.85	-67.1	-73.1	3.7	0.00e+00	0	49	104
2025-01-04 10:52:13.18	170.64	10.05	-67.3	-73.4	3.7	0.00e+00	0	49	104
2025-01-04 10:52:15.08	170.69	10.25	-67.3	-73.4	3.6	0.00e+00	0	49	104
2025-01-04 10:52:16.97	170.73	10.45	-67.4	-73.4	3.6	0.00e+00	0	50	104
2025-01-04 10:52:18.87	170.78	10.65	-67.3	-73.3	3.6	0.00e+00	0	50	104
2025-01-04 10:52:20.77	170.82	10.86	-67.4	-73.3	3.7	0.00e+00	0	51	104
2025-01-04 10:52:22.67	170.87	11.07	-67.5	-73.3	3.7	0.00e+00	0	51	104
2025-01-04 10:52:24.57	170.92	11.28	-67.5	-73.4	3.7	0.00e+00	0	51	104
2025-01-04 10:52:26.47	170.97	11.49	-67.7	-73.7	3.6	0.00e+00	0	51	104
2025-01-04 10:52:28.37	171.02	11.70	-67.7	-73.9	3.6	0.00e+00	0	51	104
2025-01-04 10:52:30.27	171.07	11.92	-67.7	-73.9	3.6	0.00e+00	0	52	104
2025-01-04 10:52:32.17	171.12	12.14	-67.5	-73.7	3.7	0.00e+00	0	52	104
2025-01-04 10:52:34.07	171.17	12.37	-67.5	-73.6	3.7	0.00e+00	0	52	104
2025-01-04 10:52:35.96	171.22	12.59	-67.5	-73.6	3.7	0.00e+00	0	52	104
2025-01-04 10:52:37.86	171.27	12.82	-67.7	-73.7	3.6	0.00e+00	0	53	104
2025-01-04 10:52:39.76	171.33	13.05	-67.8	-73.3	3.6	0.00e+00	0	53	104
2025-01-04 10:52:41.66	171.38	13.28	-67.8	-73.4	3.6	0.00e+00	0	53	104
2025-01-04 10:52:43.56	171.44	13.52	-53.2	-55.6	5.8	0.00e+00	2479	54	104
2025-01-04 10:52:45.46	171.50	13.76	-52.6	-55.0	13.7	0.00e+00	0	54	0
2025-01-04 10:52:47.36	171.55	14.00	-54.1	-57.4	12.9	1.38e-05	0	54	0
2025-01-04 10:52:49.25	171.61	14.25	-52.5	-55.2	14.0	0.00e+00	0	55	0
2025-01-04 10:52:51.14	171.67	14.50	-52.7	-55.7	13.9	6.90e-06	0	55	0
2025-01-04 10:52:53.04	171.73	14.75	-52.3	-54.8	14.1	0.00e+00	0	55	0
2025-01-04 10:52:54.93	171.80	15.01	-52.1	-54.5	14.2	0.00e+00	0	55	0
2025-01-04 10:52:56.83	171.86	15.26	-52.2	-54.5	14.2	0.00e+00	0	56	0
2025-01-04 10:52:58.72	171.92	15.53	-52.0	-54.7	14.2	0.00e+00	0	56	0
2025-01-04 10:53:00.61	171.99	15.79	-51.9	-54.6	14.2	6.90e-06	0	56	0
2025-01-04 10:53:02.51	172.06	16.06	-51.8	-54.4	14.1	0.00e+00	0	56	0
2025-01-04 10:53:04.41	172.12	16.34	-51.8	-54.3	14.1	6.90e-06	0	56	0
2025-01-04 10:53:06.30	172.19	16.61	-51.6	-54.0	14.2	0.00e+00	0	56	0
2025-01-04 10:53:08.19	172.26	16.89	-51.5	-54.3	14.4	0.00e+00	0	57	0
2025-01-04 10:53:10.08	172.34	17.18	-51.5	-54.2	14.5	0.00e+00	0	57	0
2025-01-04 10:53:11.98	172.41	17.47	-51.4	-54.0	14.4	0.00e+00	0	57	0
2025-01-04 10:53:13.88	172.49	17.76	-51.3	-53.8	14.4	0.00e+00	0	58	0
2025-01-04 10:53:15.77	172.56	18.06	-51.3	-53.8	14.3	0.00e+00	0	58	0
2025-01-04 10:53:17.66	172.64	18.36	-51.1	-53.5	14.5	0.00e+00	0	58	0
2025-01-04 10:53:19.55	172.72	18.67	-51.2	-54.0	14.4	0.00e+00	0	58	0
2025-01-04 10:53:21.45	172.80	18.99	-51.1	-53.8	14.4	0.00e+00	0	58	0
2025-01-04 10:53:23.34	172.89	19.30	-51.0	-53.7	14.5	0.00e+00	0	59	0
2025-01-04 10:53:25.23	172.97	19.62	-51.0	-53.7	14.6	0.00e+00	0	59	0
2025-01-04 10:53:27.13	173.06	19.95	-50.9	-53.5	14.4	0.00e+00	0	59	0
2025-01-04 10:53:29.02	173.15	20.29	-50.7	-53.2	14.3	0.00e+00	0	59	0
2025-01-04 10:53:30.92	173.24	20.63	-50.6	-52.9	14.1	0.00e+00	0	59	0
2025-01-04 10:53:32.82	173.34	20.97	-50.5	-53.3	14.4	0.00e+00	0	60	0
2025-01-04 10:53:34.71	173.43	21.32	-50.4	-53.1	14.4	0.00e+00	0	60	0
2025-01-04 10:53:36.60	173.53	21.68	-50.4	-52.9	14.6	0.00e+00	0	60	0
2025-01-04 10:53:38.50	173.63	22.04	-50.3	-52.7	14.7	0.00e+00	0	60	0
2025-01-04 10:53:40.40	173.73	22.41	-50.2	-52.6	15.1	0.00e+00	0	60	0
2025-01-04 10:53:42.29	173.84	22.78	-50.2	-53.0	15.2	0.00e+00	0	61	0
2025-01-04 10:53:44.18	173.95	23.17	-49.9	-52.6	15.0	0.00e+00	0	61	0
2025-01-04 10:53:46.07	174.06	23.55	-49.9	-52.5	15.0	0.00e+00	0	61	0
2025-01-04 10:53:47.96	174.17	23.95	-49.7	-52.2	15.2	0.00e+00	0	61	0
2025-01-04 10:53:49.86	174.29	24.35	-49.7	-52.1	15.4	0.00e+00	0	61	0
2025-01-04 10:53:51.76	174.41	24.77	-49.7	-52.1	15.2	0.00e+00	0	61	0
2025-01-04 10:53:53.65	174.54	25.18	-49.5	-52.3	15.2	0.00e+00	0	61	0
2025-01-04 10:53:55.55	174.67	25.61	-49.4	-51.9	15.2	0.00e+00	0	62	0
2025-01-04 10:53:57.45	174.80	26.05	-49.3	-51.8	15.2	0.00e+00	0	62	0
2025-01-04 10:53:59.34	174.93	26.49	-49.2	-51.5	15.5	0.00e+00	0	62	0
2025-01-04 10:54:01.24	175.07	26.95	-49.1	-51.4	15.4	0.00e+00	0	62	0
2025-01-04 10:54:03.14	175.22	27.41	-47.9	-50.6	15.4	0.00e+00	0	62	0
2025-01-04 10:54:05.04	175.37	27.88	-47.8	-50.2	15.5	0.00e+00	0	62	0
2025-01-04 10:54:06.94	175.52	28.36	-47.7	-50.0	15.5	0.00e+00	0	62	0
2025-01-04 10:54:08.84	175.68	28.85	-47.5	-50.3	15.3	0.00e+00	0	62	0
2025-01-04 10:54:10.74	175.84	29.36	-47.5	-50.2	15.3	0.00e+00	0	62	0
2025-01-04 10:54:12.64	176.01	29.87	-47.4	-49.9	15.5	0.00e+00	0	63	0
2025-01-04 10:54:14.54	176.18	30.39	-47.2	-49.7	15.6	0.00e+00	0	63	0
2025-01-04 10:54:16.44	176.37	30.92	-47.2	-49.5	15.6	0.00e+00	0	63	0
2025-01-04 10:54:18.34	176.55	31.47	-47.0	-49.7	15.6	0.00e+00	0	63	0
2025-01-04 10:54:20.24	176.75	32.03	-46.9	-49.5	15.6	0.00e+00	0	63	0
2025-01-04 10:54:22.13	176.95	32.59	-46.8	-49.4	15.7	0.00e+00	0	63	0
2025-01-04 10:54:24.03	177.15	33.17	-46.7	-49.1	15.8	0.00e+00	0	63	0
2025-01-04 10:54:25.93	177.37	33.77	-46.6	-48.9	15.8	0.00e+00	0	64	0
2025-01-04 10:54:27.83	177.59	34.38	-46.5	-49.2	15.9	0.00e+00	0	64	0
2025-01-04 10:54:29.73	177.83	35.00	-46.4	-49.1	15.9	0.00e+00	0	64	0
2025-01-04 10:54:31.63	178.07	35.63	-46.3	-48.7	15.8	0.00e+00	0	64	0
2025-01-04 10:54:33.53	178.32	36.28	-46.2	-48.5	15.9	0.00e+00	0	64	0
2025-01-04 10:54:35.43	178.59	36.94	-46.1	-48.3	15.9	0.00e+00	0	64	0
2025-01-04 10:54:37.32	178.86	37.62	-46.0	-48.7	16.0	0.00e+00	0	64	0
2025-01-04 10:54:39.22	179.15	38.31	-45.9	-48.5	15.9	0.00e+00	0	64	0
2025-01-04 10:54:41.12	179.45	39.02	-45.8	-48.3	15.9	0.00e+00	0	64	0
2025-01-04 10:54:43.02	179.76	39.75	-45.6	-48.0	16.0	0.00e+00	0	65	0
2025-01-04 10:54:44.91	180.08	40.49	-45.6	-48.3	16.0	0.00e+00	0	65	0
2025-01-04 10:54:46.81	180.43	41.24	-45.4	-48.0	16.0	0.00e+00	0	65	0
2025-01-04 10:54:48.71	180.79	42.02	-45.3	-47.8	16.0	0.00e+00	0	65	0
2025-01-04 10:54:50.61	181.17	42.81	-45.3	-47.7	16.1	0.00e+00	0	65	0
2025-01-04 10:54:52.51	181.57	43.62	-45.4	-47.9	15.9	0.00e+00	0	65	0
2025-01-04 10:54:54.40	181.99	44.45	-45.3	-47.8	16.1	0.00e+00	0	65	0
2025-01-04 10:54:56.30	182.43	45.29	-45.6	-48.3	16.1	0.00e+00	0	65	0
2025-01-04 10:54:58.20	182.90	46.16	-45.3	-47.8	16.0	0.00e+00	0	65	0
2025-01-04 10:55:00.10	183.39	47.04	-45.3	-48.3	16.1	0.00e+00	0	65	0
2025-01-04 10:55:02.00	183.92	47.94	-45.4	-48.5	16.2	0.00e+00	0	65	0
2025-01-04 10:55:03.90	184.48	48.87	-45.0	-47.6	16.2	0.00e+00	0	65	0
2025-01-04 10:55:05.80	185.07	49.80	-45.1	-47.8	16.2	0.00e+00	0	65	0
2025-01-04 10:55:07.69	185.70	50.76	-44.9	-47.4	16.2	0.00e+00	0	66	0
2025-01-04 10:55:09.59	186.37	51.73	-44.7	-47.1	16.3	0.00e+00	0	66	0
2025-01-04 10:55:11.49	187.09	52.73	-44.7	-47.1	16.3	0.00e+00	0	66	0
2025-01-04 10:55:13.39	187.86	53.74	-44.4	-46.9	16.3	0.00e+00	0	66	0
2025-01-04 10:55:15.29	188.69	54.77	-44.4	-47.0	16.3	0.00e+00	0	66	0
2025-01-04 10:55:17.19	189.58	55.81	-44.1	-46.8	16.4	0.00e+00	0	66	0
2025-01-04 10:55:19.09	190.54	56.87	-44.3	-47.2	16.3	0.00e+00	0	66	0
2025-01-04 10:55:20.99	191.58	57.94	-43.9	-46.4	16.4	0.00e+00	0	66	0
2025-01-04 10:55:22.89	192.71	59.03	-44.0	-46.6	16.5	0.00e+00	0	66	0
2025-01-04 10:55:24.79	193.93	60.12	-43.7	-46.1	16.4	0.00e+00	0	66	0
2025-01-04 10:55:26.69	195.27	61.23	-43.7	-46.1	16.5	0.00e+00	0	67	0
2025-01-04 10:55:28.59	196.73	62.34	-43.5	-46.1	16.4	0.00e+00	0	67	0
2025-01-04 10:55:30.48	198.32	63.44	-43.6	-46.3	16.3	0.00e+00	0	67	0
2025-01-04 10:55:32.38	200.08	64.55	-43.3	-45.9	16.4	0.00e+00	0	67	0
2025-01-04 10:55:34.28	202.02	65.66	-43.4	-46.0	16.5	0.00e+00	0	67	0
2025-01-04 10:55:36.18	204.16	66.75	-43.2	-45.5	16.7	0.00e+00	0	67	0
2025-01-04 10:55:38.08	206.54	67.83	-43.2	-45.5	16.6	0.00e+00	0	67	0
2025-01-04 10:55:39.98	209.17	68.88	-43.1	-45.4	16.6	0.00e+00	0	67	0
2025-01-04 10:55:41.88	212.10	69.90	-43.0	-45.6	16.6	0.00e+00	0	68	0
2025-01-04 10:55:43.78	215.36	70.87	-43.1	-45.8	16.6	0.00e+00	0	68	0
2025-01-04 10:55:45.68	218.99	71.79	-42.9	-45.5	16.6	0.00e+00	0	68	0
2025-01-04 10:55:47.58	223.00	72.64	-43.0	-45.6	16.6	0.00e+00	0	67	0
2025-01-04 10:55:49.48	227.44	73.41	-42.9	-45.4	16.6	0.00e+00	0	68	0
2025-01-04 10:55:51.37	232.27	74.08	-42.9	-45.4	16.7	0.00e+00	0	68	0
2025-01-04 10:55:53.27	237.53	74.64	-42.9	-45.5	16.6	0.00e+00	0	68	0
2025-01-04 10:55:55.17	243.15	75.06	-42.7	-45.2	16.7	0.00e+00	0	68	0
2025-01-04 10:55:57.07	249.05	75.34	-42.8	-45.3	16.6	0.00e+00	0	68	0
2025-01-04 10:55:58.97	255.13	75.47	-42.7	-45.1	16.7	0.00e+00	0	68	0
2025-01-04 10:56:00.87	261.25	75.44	-42.7	-45.0	16.6	0.00e+00	0	68	0
2025-01-04 10:56:02.77	267.27	75.25	-42.8	-45.2	16.6	0.00e+00	0	68	0
2025-01-04 10:56:04.66	273.04	74.91	-42.8	-45.3	16.6	0.00e+00	0	68	0
2025-01-04 10:56:06.56	278.53	74.44	-42.9	-45.5	16.6	0.00e+00	0	68	0
2025-01-04 10:56:08.46	283.63	73.84	-43.0	-45.7	16.7	0.00e+00	0	68	0
2025-01-04 10:56:10.36	288.31	73.12	-43.1	-45.9	16.6	0.00e+00	0	68	0
2025-01-04 10:56:12.26	292.58	72.32	-43.3	-46.3	16.6	0.00e+00	0	69	0
2025-01-04 10:56:14.15	296.41	71.45	-43.2	-46.2	16.6	0.00e+00	0	69	0
2025-01-04 10:56:16.05	299.89	70.51	-43.5	-46.6	16.5	0.00e+00	0	69	0
2025-01-04 10:56:17.95	303.01	69.52	-43.4	-46.4	16.6	0.00e+00	0	69	0
2025-01-04 10:56:19.85	305.82	68.49	-43.5	-46.6	16.6	0.00e+00	0	69	0
2025-01-04 10:56:21.74	308.34	67.44	-43.5	-46.7	16.6	0.00e+00	0	69	0
2025-01-04 10:56:23.64	310.62	66.36	-43.7	-47.0	16.5	0.00e+00	0	69	0
2025-01-04 10:56:25.54	312.67	65.26	-43.9	-47.0	16.6	0.00e+00	0	69	0
2025-01-04 10:56:27.44	314.54	64.16	-43.9	-47.0	16.5	0.00e+00	0	69	0
2025-01-04 10:56:29.34	316.23	63.05	-44.3	-47.7	16.5	0.00e+00	0	69	0
2025-01-04 10:56:31.24	317.77	61.94	-44.1	-47.4	16.5	0.00e+00	0	69	0
2025-01-04 10:56:33.14	319.18	60.84	-44.6	-47.9	16.4	0.00e+00	0	69	0
2025-01-04 10:56:35.04	320.47	59.75	-44.5	-47.7	16.4	0.00e+00	0	69	0
2025-01-04 10:56:36.93	321.65	58.67	-45.0	-48.1	16.4	0.00e+00	0	69	0
2025-01-04 10:56:38.83	322.74	57.59	-44.8	-47.8	16.4	0.00e+00	0	69	0
2025-01-04 10:56:40.73	323.75	56.53	-45.2	-48.6	16.2	0.00e+00	0	69	0
2025-01-04 10:56:42.63	324.68	55.48	-45.0	-48.3	16.3	0.00e+00	0	70	0
2025-01-04 10:56:44.53	325.55	54.45	-45.5	-48.6	16.1	0.00e+00	0	70	0
2025-01-04 10:56:46.43	326.35	53.43	-45.4	-48.6	16.1	0.00e+00	0	70	0
2025-01-04 10:56:48.33	327.11	52.43	-45.7	-48.6	16.0	0.00e+00	0	69	0
2025-01-04 10:56:50.23	327.81	51.45	-45.9	-49.0	16.0	0.00e+00	0	69	0
2025-01-04 10:56:52.13	328.46	50.48	-45.8	-48.9	16.0	0.00e+00	0	70	0
2025-01-04 10:56:54.03	329.08	49.54	-46.2	-49.6	15.9	0.00e+00	0	70	0
2025-01-04 10:56:55.93	329.66	48.61	-46.0	-49.2	16.0	0.00e+00	0	70	0
2025-01-04 10:56:57.83	330.20	47.70	-46.4	-49.5	15.8	0.00e+00	0	70	0
2025-01-04 10:56:59.72	330.71	46.81	-46.6	-49.9	15.7	0.00e+00	0	70	0
2025-01-04 10:57:01.62	331.20	45.94	-46.9	-50.0	15.6	0.00e+00	0	70	0
2025-01-04 10:57:03.52	331.66	45.09	-47.0	-50.2	15.6	0.00e+00	0	70	0
2025-01-04 10:57:05.42	332.09	44.25	-47.1	-50.3	15.6	0.00e+00	0	70	0
2025-01-04 10:57:07.32	332.50	43.44	-47.3	-50.3	15.6	0.00e+00	0	70	0
2025-01-04 10:57:09.22	332.90	42.64	-47.7	-51.2	15.5	0.00e+00	0	70	0
2025-01-04 10:57:11.12	333.27	41.86	-47.6	-50.4	15.5	0.00e+00	0	70	0
2025-01-04 10:57:13.02	333.62	41.09	-47.9	-50.9	15.4	0.00e+00	0	70	0
2025-01-04 10:57:14.92	333.96	40.34	-48.3	-51.7	15.4	0.00e+00	0	70	0
2025-01-04 10:57:16.82	334.28	39.61	-48.1	-50.8	15.5	0.00e+00	0	70	0
2025-01-04 10:57:18.72	334.59	38.90	-48.3	-51.3	15.3	0.00e+00	0	71	0
2025-01-04 10:57:20.61	334.88	38.20	-48.8	-52.2	15.1	0.00e+00	0	70	0
2025-01-04 10:57:22.51	335.17	37.52	-48.8	-51.8	15.2	0.00e+00	0	70	0
2025-01-04 10:57:24.41	335.44	36.85	-48.6	-51.4	15.2	0.00e+00	0	70	0
2025-01-04 10:57:26.31	335.70	36.19	-49.0	-52.2	15.1	0.00e+00	0	71	0
2025-01-04 10:57:28.21	335.95	35.55	-49.5	-52.6	14.8	0.00e+00	0	71	0
2025-01-04 10:57:30.11	336.19	34.93	-49.3	-52.2	14.9	0.00e+00	0	71	0
2025-01-04 10:57:32.00	336.41	34.32	-49.2	-52.2	14.8	0.00e+00	0	71	0
2025-01-04 10:57:33.90	336.64	33.72	-49.8	-53.3	14.7	0.00e+00	0	71	0
2025-01-04 10:57:35.80	336.85	33.13	-51.1	-54.4	14.8	0.00e+00	0	71	0
2025-01-04 10:57:37.70	337.06	32.56	-51.0	-54.1	14.7	0.00e+00	0	71	0
2025-01-04 10:57:39.60	337.25	32.00	-50.8	-53.8	14.5	0.00e+00	0	71	0
2025-01-04 10:57:41.50	337.45	31.45	-51.5	-54.6	14.4	0.00e+00	0	71	0
2025-01-04 10:57:43.39	337.63	30.91	-51.8	-54.7	14.2	0.00e+00	0	71	0
2025-01-04 10:57:45.29	337.81	30.38	-51.8	-54.8	14.1	0.00e+00	0	71	0
2025-01-04 10:57:47.19	337.98	29.87	-51.5	-54.1	13.9	0.00e+00	0	71	0
2025-01-04 10:57:49.08	338.15	29.36	-51.9	-55.1	13.4	2.08e-05	0	71	0
2025-01-04 10:57:50.98	338.31	28.87	-52.5	-55.7	13.1	6.90e-06	0	71	0
2025-01-04 10:57:52.88	338.47	28.38	-52.6	-55.9	13.2	4.85e-05	0	71	0
2025-01-04 10:57:54.78	338.62	27.91	-52.3	-55.3	13.7	6.90e-06	0	71	0
2025-01-04 10:57:56.68	338.77	27.44	-52.4	-55.4	13.9	0.00e+00	0	71	0
2025-01-04 10:57:58.58	338.91	26.98	-52.6	-56.0	13.8	0.00e+00	0	71	0
2025-01-04 10:58:00.48	339.05	26.54	-53.0	-56.2	13.7	0.00e+00	0	71	0
2025-01-04 10:58:02.38	339.18	26.10	-53.2	-56.6	13.5	1.38e-05	0	71	0
2025-01-04 10:58:04.28	339.32	25.66	-53.3	-56.4	13.5	0.00e+00	0	72	0
2025-01-04 10:58:06.18	339.44	25.24	-53.2	-56.0	13.7	0.00e+00	0	71	0
2025-01-04 10:58:08.07	339.57	24.83	-53.3	-56.3	13.6	0.00e+00	0	71	0
2025-01-04 10:58:09.97	339.69	24.42	-53.7	-57.1	13.4	2.08e-05	0	71	0
2025-01-04 10:58:11.87	339.81	24.02	-53.8	-56.9	13.3	1.38e-05	0	71	0
2025-01-04 10:58:13.77	339.92	23.63	-54.0	-57.3	13.3	0.00e+00	0	71	0
2025-01-04 10:58:15.67	340.03	23.24	-54.0	-57.3	13.2	0.00e+00	0	72	0
2025-01-04 10:58:17.57	340.14	22.86	-54.0	-57.2	13.1	2.77e-05	0	71	0
2025-01-04 10:58:19.47	340.25	22.49	-53.7	-56.7	13.1	0.00e+00	0	72	0
2025-01-04 10:58:21.37	340.35	22.12	-53.9	-57.1	13.0	4.16e-05	0	72	0
2025-01-04 10:58:23.27	340.45	21.76	-54.2	-57.6	13.0	3.46e-05	0	72	0
2025-01-04 10:58:25.17	340.55	21.41	-54.3	-57.4	13.0	1.38e-05	0	72	0
2025-01-04 10:58:27.07	340.65	21.06	-54.6	-58.0	12.8	6.93e-05	0	72	0
2025-01-04 10:58:28.96	340.74	20.72	-54.0	-56.8	13.2	1.38e-05	0	72	0
2025-01-04 10:58:30.86	340.83	20.39	-54.0	-56.7	13.2	2.77e-05	0	72	0
2025-01-04 10:58:32.76	340.92	20.06	-54.3	-57.4	13.0	1.38e-05	0	72	0
2025-01-04 10:58:34.66	341.01	19.73	-55.0	-58.3	12.6	2.77e-05	0	72	0
2025-01-04 10:58:36.56	341.10	19.41	-54.8	-57.9	12.7	2.77e-05	0	72	0
2025-01-04 10:58:38.46	341.18	19.09	-55.2	-58.7	12.5	3.46e-05	0	72	0
2025-01-04 10:58:40.36	341.26	18.78	-55.0	-58.2	12.6	6.24e-05	0	72	0
2025-01-04 10:58:42.26	341.34	18.48	-55.1	-58.5	12.5	5.54e-05	0	72	0
2025-01-04 10:58:44.16	341.42	18.18	-55.2	-58.8	12.4	5.54e-05	0	72	0
2025-01-04 10:58:46.06	341.50	17.88	-54.9	-58.1	12.6	5.54e-05	0	72	0
2025-01-04 10:58:47.96	341.58	17.59	-54.7	-57.7	12.6	7.62e-05	0	72	0
2025-01-04 10:58:49.85	341.65	17.30	-55.0	-58.3	12.4	1.11e-04	0	72	0
2025-01-04 10:58:51.75	341.72	17.02	-55.2	-58.7	12.2	2.50e-04	0	72	0
2025-01-04 10:58:53.65	341.80	16.74	-56.2	-59.2	11.7	5.13e-04	0	72	0
2025-01-04 10:58:55.55	341.87	16.47	-56.3	-59.3	11.7	4.99e-04	0	72	0
2025-01-04 10:58:57.45	341.93	16.19	-56.2	-59.3	11.7	3.47e-04	0	72	0
2025-01-04 10:58:59.34	342.00	15.93	-56.1	-59.0	11.9	2.64e-04	0	72	0
2025-01-04 10:59:01.24	342.07	15.66	-55.8	-58.5	11.9	2.77e-04	0	72	0
2025-01-04 10:59:03.14	342.13	15.40	-55.6	-58.0	11.9	5.62e-04	0	72	0
2025-01-04 10:59:05.04	342.20	15.15	-55.7	-58.7	11.7	4.16e-04	0	72	0
2025-01-04 10:59:06.94	342.26	14.89	-56.0	-59.4	11.5	6.87e-04	0	72	0
2025-01-04 10:59:08.84	342.32	14.64	-56.5	-59.8	11.3	1.30e-03	0	72	0
2025-01-04 10:59:10.74	342.38	14.39	-56.6	-60.1	11.2	1.71e-03	0	72	0
2025-01-04 10:59:12.64	342.44	14.15	-56.6	-59.5	11.3	1.49e-03	0	72	0
2025-01-04 10:59:14.53	342.50	13.91	-56.7	-59.8	11.2	1.10e-03	0	73	0
2025-01-04 10:59:16.43	342.56	13.67	-56.2	-58.7	11.6	6.59e-04	0	73	0
2025-01-04 10:59:18.32	342.62	13.44	-56.5	-59.3	11.4	5.76e-04	0	72	0
2025-01-04 10:59:20.22	342.67	13.21	-56.8	-59.9	11.1	1.98e-03	0	73	0
2025-01-04 10:59:22.12	342.73	12.98	-56.6	-59.6	11.3	1.19e-03	0	73	0
2025-01-04 10:59:24.02	342.78	12.75	-56.7	-59.6	11.4	9.15e-04	0	72	0
2025-01-04 10:59:25.92	342.83	12.53	-67.7	-73.2	3.6	9.15e-04	0	72	104
2025-01-04 10:59:27.82	342.89	12.31	-67.7	-73.3	3.7	9.15e-04	0	72	104
2025-01-04 10:59:29.72	342.94	12.09	-67.7	-73.3	3.7	9.15e-04	0	72	104
2025-01-04 10:59:31.62	342.99	11.87	-67.7	-73.3	3.7	9.15e-04	0	72	104
2025-01-04 10:59:33.52	343.04	11.66	-67.6	-73.2	3.6	9.15e-04	0	72	104
2025-01-04 10:59:35.42	343.09	11.45	-67.6	-73.2	3.6	9.15e-04	0	72	104
2025-01-04 10:59:37.32	343.14	11.24	-67.7	-73.3	3.6	9.15e-04	0	72	104
2025-01-04 10:59:39.21	343.19	11.03	-67.7	-73.3	3.7	9.15e-04	0	72	104
2025-01-04 10:59:41.11	343.23	10.83	-67.6	-73.2	3.7	9.15e-04	0	72	104
2025-01-04 10:59:43.01	343.28	10.63	-67.6	-73.2	3.6	9.15e-04	0	72	104
2025-01-04 10:59:44.91	343.33	10.43	-67.6	-73.1	3.6	9.15e-04	0	72	104
2025-01-04 10:59:46.81	343.37	10.23	-67.6	-73.0	3.6	9.15e-04	0	72	104
2025-01-04 10:59:48.71	343.42	10.03	-67.6	-73.1	3.6	9.15e-04	0	72	104
2025-01-04 10:59:50.61	343.46	9.84	-67.6	-73.1	3.6	9.15e-04	0	72	104
2025-01-04 10:59:52.51	343.50	9.65	-67.7	-73.2	3.7	9.15e-04	0	72	104
2025-01-04 10:59:54.41	343.55	9.46	-67.7	-73.2	3.7	9.15e-04	0	72	104
2025-01-04 10:59:56.31	343.59	9.27	-67.7	-73.2	3.7	9.15e-04	0	72	104
2025-01-04 10:59:58.21	343.63	9.08	-67.6	-73.1	3.6	9.15e-04	0	72	104
2025-01-04 11:00:00.10	343.67	8.90	-67.5	-73.0	3.6	9.15e-04	0	72	104
2025-01-04 11:00:02.00	343.71	8.71	-67.5	-72.9	3.6	9.15e-04	0	72	104
2025-01-04 11:00:03.90	343.76	8.53	-67.4	-72.9	3.7	9.15e-04	0	72	104
2025-01-04 11:00:05.80	343.80	8.35	-67.4	-72.8	3.7	9.15e-04	0	72	104
2025-01-04 11:00:07.70	343.83	8.18	-67.5	-73.0	3.6	9.15e-04	0	72	104
2025-01-04 11:00:09.59	343.87	8.00	-67.7	-73.3	3.6	9.15e-04	0	72	104

#Closed at: 2025-01-04 11:00:10
#Recorded file [30006 MB]: D:/data/31015_250104_225924.dat