passes_logs/2025/01/04/PPK-1/PPK-1__20250104_023738_AQUA_rec.log

#Pass ID: 20250104_023738_AQUA
#Satellite: AQUA
#Configuration: AQUA
#almurnet v.1.7.20230919.trace
#Start time: 2025-01-04 02:37:39

#Version: 2.2.20231116
#Station: PPK-1
#Location: 158.6 lon 53.06666 lat
#TLE: 1 27424U 02022A   25003.15423677  .00003847  00000+0  80040-3 0  9996
#TLE: 2 27424  98.3579 319.7126 0001226 121.2786 295.6453 14.60625680205895

#Time	Az	El	Level	Level2	SNR	BER	BlckErr	Temp	State
2025-01-04 02:37:39.48	147.14	8.09	-67.3	-86.8	3.8	7.45e-01	0	44	0
2025-01-04 02:37:41.37	147.07	8.25	-67.3	-86.8	3.8	7.45e-01	0	44	104
2025-01-04 02:37:43.27	147.00	8.41	-67.5	-87.0	3.8	7.46e-01	0	45	104
2025-01-04 02:37:45.17	146.93	8.58	-67.6	-87.1	3.8	7.48e-01	0	45	104
2025-01-04 02:37:47.07	146.86	8.74	-67.1	-87.0	3.8	7.46e-01	0	45	104
2025-01-04 02:37:48.97	146.79	8.91	-67.3	-87.3	3.8	7.43e-01	0	45	104
2025-01-04 02:37:50.87	146.72	9.07	-67.4	-87.0	3.8	7.47e-01	0	45	104
2025-01-04 02:37:52.77	146.65	9.24	-67.4	-86.9	3.8	7.43e-01	0	45	104
2025-01-04 02:37:54.66	146.58	9.41	-67.4	-86.9	3.8	7.46e-01	0	46	104
2025-01-04 02:37:56.56	146.50	9.58	-67.0	-87.0	3.8	7.43e-01	0	46	104
2025-01-04 02:37:58.45	146.43	9.75	-66.6	-86.6	3.8	7.46e-01	0	46	104
2025-01-04 02:38:00.35	146.35	9.92	-66.8	-86.8	3.8	7.46e-01	0	46	104
2025-01-04 02:38:02.25	146.28	10.10	-67.1	-86.7	3.8	7.48e-01	0	46	104
2025-01-04 02:38:04.15	146.20	10.27	-67.4	-87.0	3.8	7.44e-01	0	46	104
2025-01-04 02:38:06.05	146.12	10.45	-67.4	-86.9	3.8	7.49e-01	0	46	104
2025-01-04 02:38:07.95	146.04	10.63	-67.5	-87.1	3.8	7.45e-01	0	47	104
2025-01-04 02:38:09.85	145.96	10.81	-67.6	-87.2	3.8	7.41e-01	0	47	104
2025-01-04 02:38:11.75	145.87	10.99	-67.3	-86.8	3.8	7.45e-01	0	47	104
2025-01-04 02:38:13.65	145.79	11.17	-66.6	-87.0	3.8	7.49e-01	0	47	104
2025-01-04 02:38:15.55	145.71	11.36	-66.3	-86.4	3.8	7.44e-01	0	47	104
2025-01-04 02:38:17.45	145.62	11.54	-66.2	-86.1	3.8	7.47e-01	0	47	104
2025-01-04 02:38:19.34	145.53	11.73	-65.6	-85.9	3.8	7.45e-01	0	47	104
2025-01-04 02:38:21.24	145.44	11.92	-65.7	-86.7	3.8	7.50e-01	0	47	104
2025-01-04 02:38:23.14	145.35	12.11	-67.0	-86.9	3.8	7.47e-01	0	47	104
2025-01-04 02:38:25.04	145.26	12.30	-67.2	-87.2	3.8	7.45e-01	0	48	104
2025-01-04 02:38:26.94	145.17	12.49	-66.9	-86.4	3.8	7.44e-01	0	48	104
2025-01-04 02:38:28.84	145.07	12.69	-66.0	-86.3	3.8	7.49e-01	0	48	104
2025-01-04 02:38:30.74	144.98	12.89	-65.4	-86.7	3.8	7.49e-01	0	48	104
2025-01-04 02:38:32.64	144.88	13.08	-65.9	-87.1	4.0	7.45e-01	0	48	104
2025-01-04 02:38:34.54	144.78	13.29	-64.6	-68.6	15.8	6.07e-01	0	49	104
2025-01-04 02:38:36.44	144.68	13.49	-60.6	-62.5	23.3	6.08e-01	0	48	0
2025-01-04 02:38:38.34	144.58	13.69	-60.8	-62.8	23.1	6.06e-01	0	49	0
2025-01-04 02:38:40.23	144.48	13.90	-61.3	-63.6	22.4	6.06e-01	0	49	0
2025-01-04 02:38:42.13	144.37	14.10	-61.8	-64.6	22.1	6.05e-01	0	49	0
2025-01-04 02:38:44.03	144.27	14.31	-62.0	-64.1	21.2	6.07e-01	0	49	0
2025-01-04 02:38:45.93	144.16	14.52	-59.7	-60.9	24.2	6.06e-01	0	49	0
2025-01-04 02:38:47.82	144.05	14.74	-60.8	-63.2	23.4	6.06e-01	0	49	0
2025-01-04 02:38:49.72	143.94	14.95	-59.8	-61.0	24.5	6.06e-01	0	49	0
2025-01-04 02:38:51.62	143.83	15.17	-60.1	-62.2	24.2	6.06e-01	0	49	0
2025-01-04 02:38:53.52	143.71	15.39	-60.1	-62.0	24.3	6.06e-01	0	49	0
2025-01-04 02:38:55.42	143.59	15.61	-59.5	-60.7	25.0	6.05e-01	0	49	0
2025-01-04 02:38:57.32	143.48	15.83	-59.9	-61.7	24.5	6.04e-01	0	50	0
2025-01-04 02:38:59.22	143.35	16.06	-59.6	-61.0	24.8	6.06e-01	0	50	0
2025-01-04 02:39:01.12	143.23	16.28	-59.6	-60.8	24.9	6.07e-01	0	50	0
2025-01-04 02:39:03.01	143.11	16.51	-59.8	-61.3	24.7	6.05e-01	0	50	0
2025-01-04 02:39:04.91	142.98	16.75	-59.5	-60.8	25.0	6.09e-01	0	50	0
2025-01-04 02:39:06.80	142.85	16.98	-59.6	-61.1	24.8	6.05e-01	0	50	0
2025-01-04 02:39:08.70	142.72	17.22	-59.7	-61.0	24.8	6.09e-01	0	50	0
2025-01-04 02:39:10.60	142.59	17.46	-59.7	-61.2	24.4	6.05e-01	0	50	0
2025-01-04 02:39:12.50	142.45	17.70	-59.8	-61.4	24.4	6.06e-01	0	50	0
2025-01-04 02:39:14.40	142.31	17.94	-59.8	-61.6	24.0	6.06e-01	0	50	0
2025-01-04 02:39:16.30	142.17	18.19	-59.8	-61.5	24.4	6.06e-01	0	51	0
2025-01-04 02:39:18.20	142.03	18.44	-59.8	-61.5	24.4	6.06e-01	0	51	0
2025-01-04 02:39:20.10	141.88	18.69	-59.8	-61.5	24.5	6.07e-01	0	51	0
2025-01-04 02:39:22.00	141.73	18.94	-59.9	-61.7	24.5	6.08e-01	0	51	0
2025-01-04 02:39:23.90	141.58	19.20	-60.0	-61.8	24.5	6.04e-01	0	51	0
2025-01-04 02:39:25.80	141.42	19.46	-59.8	-61.3	24.7	6.06e-01	0	51	0
2025-01-04 02:39:27.69	141.27	19.72	-59.8	-61.4	24.7	6.06e-01	0	51	0
2025-01-04 02:39:29.59	141.11	19.99	-59.9	-61.6	24.5	6.06e-01	0	51	0
2025-01-04 02:39:31.49	140.94	20.26	-59.7	-61.1	24.9	6.05e-01	0	51	0
2025-01-04 02:39:33.39	140.78	20.53	-60.1	-62.1	24.3	6.08e-01	0	52	0
2025-01-04 02:39:35.29	140.61	20.80	-59.8	-61.4	24.7	6.07e-01	0	52	0
2025-01-04 02:39:37.19	140.43	21.08	-59.9	-61.6	24.6	6.05e-01	0	52	0
2025-01-04 02:39:39.09	140.26	21.36	-60.2	-62.2	24.3	6.07e-01	0	52	0
2025-01-04 02:39:40.99	140.08	21.64	-59.7	-61.4	24.7	6.07e-01	0	52	0
2025-01-04 02:39:42.89	139.89	21.93	-59.8	-61.6	24.5	6.05e-01	0	52	0
2025-01-04 02:39:44.79	139.71	22.22	-59.8	-61.6	24.5	6.06e-01	0	52	0
2025-01-04 02:39:46.69	139.52	22.51	-59.7	-61.3	24.7	6.08e-01	0	52	0
2025-01-04 02:39:48.58	139.32	22.81	-60.0	-62.0	24.3	6.07e-01	0	52	0
2025-01-04 02:39:50.48	139.12	23.11	-59.9	-61.9	24.3	6.05e-01	0	52	0
2025-01-04 02:39:52.38	138.92	23.41	-60.0	-62.1	24.3	6.05e-01	0	52	0
2025-01-04 02:39:54.28	138.71	23.72	-60.1	-62.2	24.2	6.07e-01	0	52	0
2025-01-04 02:39:56.18	138.50	24.03	-60.0	-62.0	24.3	6.06e-01	0	52	0
2025-01-04 02:39:58.08	138.29	24.34	-59.8	-61.5	24.6	6.06e-01	0	52	0
2025-01-04 02:39:59.98	138.06	24.66	-59.9	-61.7	24.6	6.06e-01	0	52	0
2025-01-04 02:40:01.88	137.84	24.98	-59.9	-61.7	24.6	6.07e-01	0	53	0
2025-01-04 02:40:03.78	137.61	25.31	-59.9	-61.5	24.6	6.04e-01	0	53	0
2025-01-04 02:40:05.68	137.37	25.64	-60.2	-62.4	24.2	6.07e-01	0	52	0
2025-01-04 02:40:07.58	137.13	25.97	-59.6	-61.1	24.8	6.07e-01	0	53	0
2025-01-04 02:40:09.47	136.89	26.31	-59.2	-60.5	25.0	6.04e-01	0	53	0
2025-01-04 02:40:11.37	136.63	26.65	-59.2	-61.2	24.8	6.08e-01	0	53	0
2025-01-04 02:40:13.27	136.38	26.99	-59.2	-60.9	25.0	6.07e-01	0	53	0
2025-01-04 02:40:15.16	136.11	27.34	-59.4	-61.4	24.8	6.05e-01	0	53	0
2025-01-04 02:40:17.06	135.84	27.69	-59.3	-61.2	24.9	6.07e-01	0	53	0
2025-01-04 02:40:18.96	135.57	28.05	-59.1	-60.5	25.3	6.04e-01	0	53	0
2025-01-04 02:40:20.86	135.28	28.41	-59.2	-60.8	25.2	6.04e-01	0	53	0
2025-01-04 02:40:22.76	134.99	28.78	-59.4	-61.1	25.1	6.06e-01	0	53	0
2025-01-04 02:40:24.66	134.70	29.15	-59.1	-60.5	25.3	6.06e-01	0	53	0
2025-01-04 02:40:26.56	134.39	29.52	-59.2	-60.7	25.3	6.06e-01	0	53	0
2025-01-04 02:40:28.46	134.08	29.90	-59.2	-60.8	25.2	6.07e-01	0	53	0
2025-01-04 02:40:30.36	133.76	30.29	-59.4	-60.9	25.2	6.04e-01	0	53	0
2025-01-04 02:40:32.25	133.44	30.67	-59.4	-60.9	25.3	6.05e-01	0	53	0
2025-01-04 02:40:34.15	133.10	31.07	-59.3	-60.9	25.3	6.06e-01	0	53	0
2025-01-04 02:40:36.04	132.76	31.46	-59.3	-60.7	25.4	6.06e-01	0	54	0
2025-01-04 02:40:37.94	132.40	31.86	-59.2	-60.6	25.4	6.06e-01	0	54	0
2025-01-04 02:40:39.84	132.04	32.27	-59.6	-61.5	25.0	6.06e-01	0	53	0
2025-01-04 02:40:41.74	131.67	32.68	-59.7	-61.7	24.9	6.06e-01	0	53	0
2025-01-04 02:40:43.64	131.29	33.10	-59.7	-61.5	25.0	6.05e-01	0	54	0
2025-01-04 02:40:45.54	130.89	33.52	-60.2	-62.3	24.4	6.07e-01	0	54	0
2025-01-04 02:40:47.44	130.49	33.94	-60.0	-61.7	24.7	6.05e-01	0	54	0
2025-01-04 02:40:49.34	130.08	34.37	-60.1	-61.9	24.5	6.05e-01	0	54	0
2025-01-04 02:40:51.24	129.65	34.81	-60.6	-62.7	24.0	6.05e-01	0	54	0
2025-01-04 02:40:53.14	129.21	35.25	-60.8	-63.1	23.7	6.07e-01	0	54	0
2025-01-04 02:40:55.04	128.76	35.69	-60.7	-62.9	23.8	6.07e-01	0	54	0
2025-01-04 02:40:56.93	128.30	36.14	-60.7	-62.9	23.9	6.06e-01	0	54	0
2025-01-04 02:40:58.83	127.82	36.59	-61.2	-63.5	23.2	6.05e-01	0	54	0
2025-01-04 02:41:00.73	127.33	37.05	-61.2	-63.4	23.3	6.08e-01	0	54	0
2025-01-04 02:41:02.63	126.83	37.51	-61.3	-63.3	23.1	6.06e-01	0	54	0
2025-01-04 02:41:04.53	126.31	37.98	-61.8	-63.9	22.2	6.05e-01	0	54	0
2025-01-04 02:41:06.43	125.77	38.45	-61.5	-63.6	23.0	6.06e-01	0	54	0
2025-01-04 02:41:08.33	125.22	38.92	-61.5	-63.2	22.6	6.07e-01	0	55	0
2025-01-04 02:41:10.23	124.65	39.40	-61.2	-62.4	23.0	6.06e-01	0	54	0
2025-01-04 02:41:12.13	124.07	39.88	-61.6	-63.4	22.4	6.06e-01	0	54	0
2025-01-04 02:41:14.03	123.46	40.37	-61.3	-63.4	23.0	6.06e-01	0	54	0
2025-01-04 02:41:15.93	122.84	40.85	-61.5	-63.5	23.0	6.05e-01	0	55	0
2025-01-04 02:41:17.82	122.20	41.34	-61.4	-63.4	23.0	6.06e-01	0	54	0
2025-01-04 02:41:19.72	121.54	41.84	-61.6	-63.9	22.8	6.08e-01	0	54	0
2025-01-04 02:41:21.62	120.85	42.33	-61.1	-62.6	23.5	6.07e-01	0	55	0
2025-01-04 02:41:23.52	120.15	42.83	-61.4	-63.3	23.1	6.07e-01	0	55	0
2025-01-04 02:41:25.42	119.42	43.34	-61.3	-63.2	23.2	6.07e-01	0	55	0
2025-01-04 02:41:27.32	118.67	43.84	-61.1	-62.6	23.6	6.06e-01	0	55	0
2025-01-04 02:41:29.22	117.89	44.34	-61.2	-62.8	23.4	6.06e-01	0	54	0
2025-01-04 02:41:31.12	117.09	44.85	-60.9	-62.4	23.6	6.06e-01	0	55	0
2025-01-04 02:41:33.02	116.26	45.35	-61.5	-63.6	23.0	6.06e-01	0	55	0
2025-01-04 02:41:34.92	115.40	45.86	-60.9	-62.3	23.6	6.06e-01	0	55	0
2025-01-04 02:41:36.82	114.52	46.36	-61.3	-63.3	23.1	6.06e-01	0	55	0
2025-01-04 02:41:38.71	113.61	46.86	-60.9	-62.2	23.8	6.06e-01	0	55	0
2025-01-04 02:41:40.61	112.67	47.36	-61.7	-64.0	22.8	6.06e-01	0	55	0
2025-01-04 02:41:42.50	111.70	47.86	-61.2	-62.8	23.5	6.04e-01	0	55	0
2025-01-04 02:41:44.40	110.69	48.35	-61.6	-63.9	22.8	6.07e-01	0	55	0
2025-01-04 02:41:46.30	109.65	48.85	-61.1	-62.5	23.6	6.06e-01	0	55	0
2025-01-04 02:41:48.20	108.57	49.33	-61.5	-63.6	23.0	6.07e-01	0	55	0
2025-01-04 02:41:50.10	107.47	49.81	-61.0	-62.4	23.7	6.06e-01	0	55	0
2025-01-04 02:41:52.00	106.32	50.29	-61.0	-62.3	23.7	6.07e-01	0	55	0
2025-01-04 02:41:53.90	105.14	50.75	-60.9	-62.2	23.8	6.07e-01	0	55	0
2025-01-04 02:41:55.80	103.92	51.21	-60.6	-61.9	24.2	6.07e-01	0	55	0
2025-01-04 02:41:57.70	102.66	51.66	-60.6	-62.2	24.0	6.05e-01	0	55	0
2025-01-04 02:41:59.59	101.38	52.10	-60.5	-61.9	24.2	6.07e-01	0	55	0
2025-01-04 02:42:01.49	100.04	52.53	-61.0	-62.8	23.8	6.06e-01	0	55	0
2025-01-04 02:42:03.39	98.67	52.94	-60.6	-61.9	24.2	6.06e-01	0	55	0
2025-01-04 02:42:05.28	97.26	53.34	-60.7	-62.2	24.0	6.06e-01	0	55	0
2025-01-04 02:42:07.18	95.81	53.73	-60.4	-61.7	24.3	6.05e-01	0	55	0
2025-01-04 02:42:09.08	94.32	54.10	-60.6	-62.0	24.1	6.07e-01	0	55	0
2025-01-04 02:42:10.98	92.80	54.45	-60.2	-61.5	24.2	6.05e-01	0	56	0
2025-01-04 02:42:12.88	91.23	54.78	-60.1	-62.1	24.1	6.08e-01	0	55	0
2025-01-04 02:42:14.78	89.63	55.10	-60.4	-62.7	23.8	6.06e-01	0	56	0
2025-01-04 02:42:16.68	87.99	55.39	-60.6	-63.1	23.6	6.07e-01	0	56	0
2025-01-04 02:42:18.58	86.32	55.66	-60.7	-62.4	23.8	6.06e-01	0	56	0
2025-01-04 02:42:20.48	84.62	55.91	-61.1	-63.3	23.4	6.07e-01	0	56	0
2025-01-04 02:42:22.38	82.89	56.14	-61.1	-63.2	23.5	6.05e-01	0	56	0
2025-01-04 02:42:24.28	81.13	56.34	-61.3	-63.2	23.2	6.08e-01	0	56	0
2025-01-04 02:42:26.17	79.36	56.51	-61.2	-63.0	23.4	6.06e-01	0	56	0
2025-01-04 02:42:28.07	77.56	56.66	-61.5	-63.5	23.1	6.05e-01	0	56	0
2025-01-04 02:42:29.97	75.74	56.78	-60.8	-62.2	23.6	6.07e-01	0	56	0
2025-01-04 02:42:31.87	73.90	56.87	-61.8	-64.3	22.6	6.06e-01	0	56	0
2025-01-04 02:42:33.77	72.06	56.94	-61.0	-62.3	23.7	6.07e-01	0	56	0
2025-01-04 02:42:35.67	70.21	56.97	-61.7	-63.6	22.3	6.07e-01	0	56	0
2025-01-04 02:42:37.57	68.35	56.98	-61.3	-63.1	23.3	6.08e-01	0	56	0
2025-01-04 02:42:39.47	66.50	56.96	-61.3	-63.1	23.2	6.06e-01	0	56	0
2025-01-04 02:42:41.37	64.65	56.91	-61.4	-63.3	23.2	6.07e-01	0	56	0
2025-01-04 02:42:43.27	62.81	56.84	-61.5	-63.6	23.0	6.06e-01	0	56	0
2025-01-04 02:42:45.17	60.98	56.73	-61.3	-63.1	23.4	6.05e-01	0	56	0
2025-01-04 02:42:47.06	59.18	56.60	-61.4	-63.4	23.0	6.07e-01	0	56	0
2025-01-04 02:42:48.96	57.39	56.44	-61.3	-63.2	23.2	6.07e-01	0	56	0
2025-01-04 02:42:50.86	55.62	56.25	-61.0	-62.4	23.6	6.05e-01	0	56	0
2025-01-04 02:42:52.76	53.87	56.04	-61.2	-63.1	23.2	6.07e-01	0	56	0
2025-01-04 02:42:54.66	52.16	55.81	-60.7	-62.5	23.8	6.07e-01	0	56	0
2025-01-04 02:42:56.56	50.47	55.55	-60.8	-62.7	23.7	6.06e-01	0	56	0
2025-01-04 02:42:58.46	48.82	55.27	-60.9	-62.8	23.7	6.08e-01	0	56	0
2025-01-04 02:43:00.36	47.20	54.96	-60.6	-62.1	24.0	6.07e-01	0	56	0
2025-01-04 02:43:02.26	45.61	54.64	-60.8	-62.6	23.7	6.05e-01	0	56	0
2025-01-04 02:43:04.16	44.07	54.30	-60.8	-62.8	23.6	6.07e-01	0	56	0
2025-01-04 02:43:06.06	42.56	53.94	-60.6	-62.1	24.1	6.10e-01	0	56	0
2025-01-04 02:43:07.95	41.10	53.57	-60.7	-62.0	23.9	6.06e-01	0	56	0
2025-01-04 02:43:09.85	39.66	53.18	-60.9	-63.0	23.6	6.07e-01	0	56	0
2025-01-04 02:43:11.74	38.28	52.77	-60.3	-61.4	24.4	6.06e-01	0	56	0
2025-01-04 02:43:13.64	36.93	52.35	-61.1	-63.4	23.4	6.06e-01	0	56	0
2025-01-04 02:43:15.54	35.61	51.92	-60.8	-62.1	23.8	6.04e-01	0	56	0
2025-01-04 02:43:17.44	34.34	51.48	-60.8	-62.7	23.7	6.04e-01	0	56	0
2025-01-04 02:43:19.34	33.10	51.03	-61.4	-63.3	23.2	6.05e-01	0	56	0
2025-01-04 02:43:21.24	31.90	50.57	-60.7	-62.1	24.0	6.07e-01	0	56	0
2025-01-04 02:43:23.14	30.74	50.10	-61.6	-63.5	22.3	6.06e-01	0	56	0
2025-01-04 02:43:25.04	29.61	49.62	-60.3	-61.4	24.5	6.07e-01	0	57	0
2025-01-04 02:43:26.93	28.52	49.14	-61.8	-64.2	22.7	6.07e-01	0	56	0
2025-01-04 02:43:28.83	27.47	48.66	-60.8	-61.9	23.9	6.07e-01	0	56	0
2025-01-04 02:43:30.73	26.44	48.16	-61.0	-62.4	23.6	6.04e-01	0	56	0
2025-01-04 02:43:32.63	25.45	47.67	-60.4	-61.7	24.2	6.08e-01	0	57	0
2025-01-04 02:43:34.52	24.50	47.17	-61.2	-63.3	23.4	6.07e-01	0	57	0
2025-01-04 02:43:36.42	23.57	46.67	-59.9	-60.9	24.9	6.07e-01	0	57	0
2025-01-04 02:43:38.32	22.67	46.17	-60.9	-63.2	23.8	6.06e-01	0	57	0
2025-01-04 02:43:40.22	21.80	45.67	-60.0	-61.2	24.7	6.06e-01	0	57	0
2025-01-04 02:43:42.12	20.96	45.17	-60.6	-62.5	24.1	6.06e-01	0	57	0
2025-01-04 02:43:44.02	20.14	44.66	-60.1	-61.5	24.6	6.06e-01	0	57	0
2025-01-04 02:43:45.92	19.35	44.16	-60.2	-61.6	24.5	6.06e-01	0	57	0
2025-01-04 02:43:47.82	18.59	43.66	-60.0	-61.2	24.7	6.07e-01	0	57	0
2025-01-04 02:43:49.72	17.85	43.16	-60.8	-63.1	23.8	6.07e-01	0	57	0
2025-01-04 02:43:51.62	17.13	42.66	-60.2	-61.2	24.5	6.05e-01	0	57	0
2025-01-04 02:43:53.52	16.44	42.16	-60.8	-62.6	23.8	6.07e-01	0	57	0
2025-01-04 02:43:55.41	15.77	41.67	-60.6	-62.0	24.2	6.07e-01	0	57	0
2025-01-04 02:43:57.31	15.12	41.18	-61.2	-63.4	23.4	6.06e-01	0	57	0
2025-01-04 02:43:59.21	14.49	40.69	-60.7	-62.1	24.1	6.07e-01	0	57	0
2025-01-04 02:44:01.11	13.87	40.21	-61.5	-63.6	23.0	6.06e-01	0	57	0
2025-01-04 02:44:03.01	13.28	39.73	-61.1	-62.7	23.5	6.07e-01	0	57	0
2025-01-04 02:44:04.91	12.70	39.25	-61.7	-64.1	22.7	6.07e-01	0	57	0
2025-01-04 02:44:06.81	12.14	38.78	-61.8	-64.3	22.6	6.08e-01	0	57	0
2025-01-04 02:44:08.71	11.60	38.31	-61.1	-62.7	23.5	6.06e-01	0	57	0
2025-01-04 02:44:10.61	11.07	37.84	-61.5	-63.6	23.0	6.07e-01	0	57	0
2025-01-04 02:44:12.51	10.56	37.38	-61.5	-63.1	22.5	6.08e-01	0	57	0
2025-01-04 02:44:14.41	10.06	36.92	-60.7	-61.8	24.0	6.07e-01	0	57	0
2025-01-04 02:44:16.30	9.58	36.47	-61.7	-64.0	22.6	6.04e-01	0	57	0
2025-01-04 02:44:18.20	9.11	36.02	-61.2	-62.8	23.4	6.09e-01	0	57	0
2025-01-04 02:44:20.09	8.66	35.58	-60.6	-61.9	24.1	6.08e-01	0	57	0
2025-01-04 02:44:21.99	8.22	35.14	-61.0	-62.9	23.6	6.07e-01	0	57	0
2025-01-04 02:44:23.89	7.78	34.70	-60.4	-61.6	24.3	6.06e-01	0	57	0
2025-01-04 02:44:25.79	7.36	34.27	-60.1	-61.5	24.6	6.06e-01	0	57	0
2025-01-04 02:44:27.69	6.96	33.84	-60.2	-61.7	24.5	6.06e-01	0	57	0
2025-01-04 02:44:29.59	6.56	33.42	-59.7	-60.5	25.1	6.07e-01	0	57	0
2025-01-04 02:44:31.49	6.17	33.01	-59.8	-60.7	25.0	6.06e-01	0	57	0
2025-01-04 02:44:33.39	5.80	32.59	-59.6	-60.9	25.1	6.05e-01	0	57	0
2025-01-04 02:44:35.29	5.43	32.19	-59.6	-60.8	25.2	6.05e-01	0	57	0
2025-01-04 02:44:37.18	5.07	31.78	-59.5	-60.6	25.3	6.03e-01	0	57	0
2025-01-04 02:44:39.08	4.72	31.39	-59.6	-60.8	25.2	6.03e-01	0	57	0
2025-01-04 02:44:40.98	4.39	30.99	-59.7	-61.0	25.0	6.07e-01	0	57	0
2025-01-04 02:44:42.87	4.06	30.60	-59.4	-60.5	25.3	6.07e-01	0	57	0
2025-01-04 02:44:44.77	3.73	30.22	-59.6	-60.8	25.2	6.06e-01	0	57	0
2025-01-04 02:44:46.67	3.42	29.84	-59.3	-60.2	25.5	6.07e-01	0	57	0
2025-01-04 02:44:48.57	3.11	29.46	-59.7	-61.1	25.0	6.06e-01	0	57	0
2025-01-04 02:44:50.47	2.81	29.09	-59.4	-60.5	25.3	6.08e-01	0	57	0
2025-01-04 02:44:52.37	2.52	28.72	-59.9	-61.5	24.8	6.06e-01	0	57	0
2025-01-04 02:44:54.26	2.23	28.36	-59.3	-60.3	25.4	6.05e-01	0	57	0
2025-01-04 02:44:56.16	1.96	28.01	-59.7	-61.1	25.0	6.04e-01	0	57	0
2025-01-04 02:44:58.06	1.68	27.65	-59.7	-61.2	24.9	6.05e-01	0	57	0
2025-01-04 02:44:59.96	1.42	27.30	-60.0	-61.9	24.5	6.04e-01	0	57	0
2025-01-04 02:45:01.86	1.16	26.95	-59.7	-61.3	24.8	6.05e-01	0	57	0
2025-01-04 02:45:03.76	0.90	26.61	-60.4	-62.2	24.1	6.07e-01	0	57	0
2025-01-04 02:45:05.65	0.66	26.28	-59.7	-61.1	25.0	6.06e-01	0	57	0
2025-01-04 02:45:07.55	0.41	25.94	-60.0	-61.7	24.6	6.06e-01	0	57	0
2025-01-04 02:45:09.45	0.18	25.61	-60.0	-61.8	24.6	6.05e-01	0	57	0
2025-01-04 02:45:11.35	359.94	25.29	-60.0	-61.7	24.7	6.07e-01	0	57	0
2025-01-04 02:45:13.25	359.72	24.96	-60.1	-61.8	24.6	6.06e-01	0	57	0
2025-01-04 02:45:15.15	359.49	24.64	-60.3	-62.3	24.3	6.06e-01	0	57	0
2025-01-04 02:45:17.05	359.28	24.33	-60.3	-61.9	24.3	6.07e-01	0	57	0
2025-01-04 02:45:18.95	359.06	24.02	-60.4	-62.3	23.9	6.05e-01	0	57	0
2025-01-04 02:45:20.85	358.86	23.71	-60.1	-61.5	24.4	6.05e-01	0	58	0
2025-01-04 02:45:22.75	358.65	23.41	-60.2	-61.8	24.3	6.05e-01	0	57	0
2025-01-04 02:45:24.65	358.45	23.10	-60.2	-61.7	24.4	6.05e-01	0	57	0
2025-01-04 02:45:26.54	358.26	22.81	-60.3	-62.0	24.1	6.04e-01	0	57	0
2025-01-04 02:45:28.44	358.06	22.51	-60.2	-61.8	24.3	6.06e-01	0	57	0
2025-01-04 02:45:30.34	357.88	22.22	-60.4	-62.2	24.0	6.07e-01	0	57	0
2025-01-04 02:45:32.24	357.69	21.94	-60.4	-62.0	24.2	6.06e-01	0	57	0
2025-01-04 02:45:34.14	357.51	21.65	-60.1	-61.4	24.5	6.06e-01	0	58	0
2025-01-04 02:45:36.04	357.33	21.37	-60.5	-62.4	24.0	6.09e-01	0	57	0
2025-01-04 02:45:37.94	357.16	21.09	-60.3	-61.9	24.3	6.07e-01	0	57	0
2025-01-04 02:45:39.84	356.99	20.82	-60.2	-61.7	24.4	6.05e-01	0	57	0
2025-01-04 02:45:41.74	356.82	20.55	-60.5	-62.2	24.0	6.06e-01	0	57	0
2025-01-04 02:45:43.64	356.66	20.28	-60.2	-61.6	24.4	6.07e-01	0	57	0
2025-01-04 02:45:45.54	356.50	20.01	-60.5	-62.3	24.1	6.07e-01	0	57	0
2025-01-04 02:45:47.43	356.34	19.75	-60.3	-61.9	24.2	6.04e-01	0	57	0
2025-01-04 02:45:49.33	356.19	19.49	-60.2	-61.8	24.3	6.06e-01	0	58	0
2025-01-04 02:45:51.22	356.04	19.23	-60.4	-62.0	24.2	6.07e-01	0	57	0
2025-01-04 02:45:53.12	355.89	18.98	-60.1	-61.5	24.5	6.06e-01	0	57	0
2025-01-04 02:45:55.02	355.74	18.72	-60.4	-62.1	24.2	6.05e-01	0	57	0
2025-01-04 02:45:56.92	355.60	18.47	-60.1	-61.3	24.6	6.08e-01	0	57	0
2025-01-04 02:45:58.82	355.46	18.23	-60.1	-61.4	24.5	6.06e-01	0	57	0
2025-01-04 02:46:00.72	355.32	17.98	-60.3	-61.9	24.2	6.06e-01	0	57	0
2025-01-04 02:46:02.62	355.18	17.74	-59.9	-61.0	24.7	6.06e-01	0	58	0
2025-01-04 02:46:04.51	355.05	17.50	-59.9	-61.1	24.6	6.06e-01	0	58	0
2025-01-04 02:46:06.41	354.92	17.26	-59.9	-61.0	24.6	6.05e-01	0	57	0
2025-01-04 02:46:08.31	354.79	17.03	-60.1	-61.5	24.4	6.05e-01	0	58	0
2025-01-04 02:46:10.21	354.66	16.79	-60.0	-61.3	24.5	6.06e-01	0	58	0
2025-01-04 02:46:12.11	354.54	16.56	-60.2	-61.6	24.3	6.06e-01	0	58	0
2025-01-04 02:46:14.00	354.41	16.34	-60.0	-61.4	24.4	6.07e-01	0	57	0
2025-01-04 02:46:15.90	354.29	16.11	-60.1	-61.5	24.3	6.03e-01	0	58	0
2025-01-04 02:46:17.80	354.17	15.89	-60.2	-61.7	24.2	6.06e-01	0	58	0
2025-01-04 02:46:19.70	354.06	15.66	-59.9	-61.0	24.6	6.03e-01	0	58	0
2025-01-04 02:46:21.60	353.94	15.44	-60.5	-62.3	24.0	6.03e-01	0	58	0
2025-01-04 02:46:23.50	353.83	15.23	-60.1	-61.4	24.4	6.05e-01	0	58	0
2025-01-04 02:46:25.40	353.72	15.01	-60.4	-62.1	24.1	6.04e-01	0	57	0
2025-01-04 02:46:27.30	353.61	14.80	-60.4	-62.2	24.0	6.04e-01	0	58	0
2025-01-04 02:46:29.20	353.50	14.59	-60.3	-62.0	24.1	6.02e-01	0	57	0
2025-01-04 02:46:31.10	353.40	14.38	-60.3	-61.9	24.2	6.06e-01	0	58	0
2025-01-04 02:46:33.00	353.29	14.17	-60.0	-61.3	24.4	6.02e-01	0	58	0
2025-01-04 02:46:34.89	353.19	13.96	-60.2	-61.9	24.1	6.03e-01	0	57	0
2025-01-04 02:46:36.79	353.09	13.76	-62.3	-65.2	21.9	6.01e-01	0	58	0
2025-01-04 02:46:38.69	352.99	13.56	-67.3	-86.7	3.8	7.46e-01	0	58	104
2025-01-04 02:46:40.59	352.89	13.36	-66.7	-86.2	3.7	7.44e-01	0	58	104
2025-01-04 02:46:42.49	352.80	13.16	-57.2	-82.4	3.5	7.53e-01	0	58	104
2025-01-04 02:46:44.39	352.70	12.96	-60.6	-82.8	3.8	7.47e-01	0	58	104
2025-01-04 02:46:46.29	352.61	12.76	-58.2	-81.9	3.6	7.51e-01	0	58	104
2025-01-04 02:46:48.19	352.52	12.57	-59.8	-83.4	3.8	7.45e-01	0	58	104
2025-01-04 02:46:50.09	352.43	12.38	-55.4	-80.6	3.8	7.60e-01	0	58	104
2025-01-04 02:46:51.99	352.34	12.19	-60.6	-83.3	3.8	7.47e-01	0	58	104
2025-01-04 02:46:53.89	352.25	12.00	-61.5	-83.2	3.8	7.42e-01	0	58	104
2025-01-04 02:46:55.79	352.16	11.81	-61.2	-82.8	3.8	7.46e-01	0	58	104
2025-01-04 02:46:57.68	352.08	11.62	-61.3	-83.0	3.8	7.47e-01	0	58	104
2025-01-04 02:46:59.58	351.99	11.44	-61.4	-81.7	3.8	7.48e-01	0	58	104
2025-01-04 02:47:01.48	351.91	11.26	-54.1	-79.3	1.5	7.82e-01	0	58	104
2025-01-04 02:47:03.38	351.83	11.08	-62.7	-82.2	3.8	7.45e-01	0	58	104
2025-01-04 02:47:05.28	351.75	10.90	-62.8	-82.3	3.8	7.41e-01	0	58	104
2025-01-04 02:47:07.18	351.67	10.72	-62.8	-82.3	3.8	7.46e-01	0	58	104
2025-01-04 02:47:09.08	351.59	10.54	-62.8	-82.3	3.8	7.44e-01	0	58	104
2025-01-04 02:47:10.98	351.52	10.36	-62.8	-82.3	3.8	7.42e-01	0	58	104
2025-01-04 02:47:12.88	351.44	10.19	-62.8	-82.4	3.8	7.46e-01	0	58	104
2025-01-04 02:47:14.77	351.37	10.02	-62.8	-82.3	3.8	7.43e-01	0	58	104
2025-01-04 02:47:16.67	351.29	9.84	-62.8	-82.4	3.8	7.46e-01	0	58	104
2025-01-04 02:47:18.57	351.22	9.67	-62.8	-82.4	3.8	7.43e-01	0	58	104
2025-01-04 02:47:20.46	351.15	9.50	-62.8	-82.4	3.8	7.43e-01	0	58	104
2025-01-04 02:47:22.36	351.08	9.34	-62.8	-82.4	3.8	7.46e-01	0	58	104
2025-01-04 02:47:24.26	351.01	9.17	-62.8	-82.4	3.8	7.45e-01	0	58	104
2025-01-04 02:47:26.16	350.94	9.00	-62.8	-82.3	3.8	7.46e-01	0	58	104
2025-01-04 02:47:28.06	350.87	8.84	-62.8	-82.3	3.8	7.47e-01	0	58	104
2025-01-04 02:47:29.96	350.80	8.67	-62.7	-82.3	3.8	7.43e-01	0	58	104
2025-01-04 02:47:31.85	350.74	8.51	-62.8	-82.3	3.8	7.46e-01	0	58	104
2025-01-04 02:47:33.75	350.67	8.35	-62.8	-82.3	3.8	7.46e-01	0	58	104
2025-01-04 02:47:35.65	350.61	8.19	-62.8	-82.3	3.8	7.46e-01	0	58	104
2025-01-04 02:47:37.55	350.54	8.03	-62.8	-82.3	3.8	7.43e-01	0	58	104
2025-01-04 02:47:39.45	350.48	7.87	-62.8	-82.3	3.8	7.49e-01	0	58	104

#Closed at: 2025-01-04 02:47:39
#Recorded file [904 MB]: D:/data/31015_250104_144637.dat