passes_logs/2025/01/04/PPK-1/PPK-1__20250104_032516_SUOMI_NPP_rec.log

#Pass ID: 20250104_032516_SUOMI NPP
#Satellite: SUOMI NPP
#Configuration: NPP
#almurnet v.1.7.20230919.trace
#Start time: 2025-01-04 03:25:17

#Version: 2.2.20231116
#Station: PPK-1
#Location: 158.6 lon 53.06666 lat
#TLE: 1 37849U 11061A   25003.14883434  .00000404  00000+0  21263-3 0  9999
#TLE: 2 37849  98.7434 304.2886 0002054  59.1153 301.0225 14.19531112683237

#Time	Az	El	Level	Level2	SNR	BER	BlckErr	Temp	State
2025-01-04 03:25:17.63	216.29	8.10	-63.8	-78.9	3.8	1.49e+00	0	44	0
2025-01-04 03:25:19.52	216.49	8.21	-63.8	-79.0	3.9	1.49e+00	0	44	104
2025-01-04 03:25:21.42	216.70	8.33	-66.0	-81.3	3.8	1.49e+00	0	45	104
2025-01-04 03:25:23.32	216.91	8.45	-67.8	-83.2	3.8	1.49e+00	0	45	104
2025-01-04 03:25:25.22	217.12	8.57	-68.3	-83.5	3.8	1.49e+00	0	45	104
2025-01-04 03:25:27.12	217.33	8.69	-68.2	-83.0	3.8	1.49e+00	0	45	104
2025-01-04 03:25:29.02	217.55	8.81	-67.8	-82.5	3.8	1.49e+00	0	45	104
2025-01-04 03:25:30.91	217.76	8.93	-67.8	-83.1	3.8	1.49e+00	0	45	104
2025-01-04 03:25:32.81	217.98	9.05	-68.3	-83.0	3.8	1.49e+00	0	45	104
2025-01-04 03:25:34.71	218.20	9.17	-68.3	-83.0	3.8	1.49e+00	0	46	104
2025-01-04 03:25:36.61	218.42	9.29	-68.3	-83.0	3.8	1.49e+00	0	46	104
2025-01-04 03:25:38.51	218.64	9.41	-68.3	-83.0	3.8	1.49e+00	0	46	104
2025-01-04 03:25:40.41	218.87	9.53	-68.3	-83.0	3.8	1.49e+00	0	46	104
2025-01-04 03:25:42.31	219.09	9.65	-68.3	-83.0	3.8	1.49e+00	0	46	104
2025-01-04 03:25:44.21	219.32	9.78	-68.3	-82.9	3.8	1.49e+00	0	46	104
2025-01-04 03:25:46.11	219.55	9.90	-68.3	-83.0	3.8	1.49e+00	0	47	104
2025-01-04 03:25:48.01	219.79	10.02	-68.3	-83.0	3.8	1.49e+00	0	47	104
2025-01-04 03:25:49.91	220.02	10.14	-68.3	-83.0	3.8	1.49e+00	0	47	104
2025-01-04 03:25:51.80	220.25	10.26	-68.3	-83.0	3.8	1.49e+00	0	47	104
2025-01-04 03:25:53.70	220.49	10.39	-68.3	-83.0	3.8	1.49e+00	0	47	104
2025-01-04 03:25:55.60	220.73	10.51	-68.3	-83.0	3.8	1.49e+00	0	47	104
2025-01-04 03:25:57.50	220.97	10.63	-68.3	-83.0	3.8	1.49e+00	0	47	104
2025-01-04 03:25:59.40	221.22	10.76	-68.3	-83.0	3.8	1.49e+00	0	47	104
2025-01-04 03:26:01.30	221.46	10.88	-68.3	-83.0	3.8	1.49e+00	0	48	104
2025-01-04 03:26:03.20	221.71	11.00	-68.2	-83.0	3.8	1.49e+00	0	48	104
2025-01-04 03:26:05.09	221.96	11.13	-68.3	-83.0	3.8	1.49e+00	0	48	104
2025-01-04 03:26:06.99	222.21	11.25	-68.3	-82.9	3.8	1.49e+00	0	48	104
2025-01-04 03:26:08.89	222.47	11.37	-68.3	-82.9	3.8	1.49e+00	0	48	104
2025-01-04 03:26:10.79	222.72	11.50	-68.2	-83.0	3.8	1.49e+00	0	48	104
2025-01-04 03:26:12.69	222.98	11.62	-68.2	-82.9	3.8	1.49e+00	0	48	104
2025-01-04 03:26:14.58	223.24	11.74	-68.2	-82.9	3.8	1.49e+00	0	49	104
2025-01-04 03:26:16.48	223.50	11.87	-68.2	-82.9	3.8	1.49e+00	0	49	104
2025-01-04 03:26:18.38	223.77	11.99	-68.2	-82.9	3.8	1.49e+00	0	49	104
2025-01-04 03:26:20.28	224.03	12.12	-68.3	-83.0	3.8	1.49e+00	0	49	104
2025-01-04 03:26:22.17	224.30	12.24	-68.2	-82.9	3.8	1.49e+00	0	49	104
2025-01-04 03:26:24.07	224.57	12.37	-68.3	-82.9	3.8	1.49e+00	0	49	104
2025-01-04 03:26:25.97	224.85	12.49	-68.2	-82.6	3.8	1.49e+00	0	49	104
2025-01-04 03:26:27.87	225.12	12.61	-68.2	-82.4	3.8	1.49e+00	0	49	104
2025-01-04 03:26:29.77	225.40	12.74	-68.3	-82.6	3.8	1.49e+00	0	49	104
2025-01-04 03:26:31.67	225.68	12.86	-68.3	-82.8	3.8	1.49e+00	0	49	104
2025-01-04 03:26:33.57	225.96	12.99	-68.3	-82.9	3.8	1.49e+00	0	50	104
2025-01-04 03:26:35.47	226.25	13.11	-68.2	-82.2	3.8	1.49e+00	0	50	104
2025-01-04 03:26:37.36	226.53	13.24	-67.9	-77.6	4.7	1.16e+00	0	50	0
2025-01-04 03:26:39.26	226.82	13.36	-66.6	-71.0	10.0	3.85e-02	0	50	0
2025-01-04 03:26:41.16	227.12	13.49	-64.3	-66.7	14.6	1.44e-05	0	50	0
2025-01-04 03:26:43.06	227.41	13.61	-63.0	-64.8	16.7	0.00e+00	0	50	0
2025-01-04 03:26:44.96	227.71	13.74	-62.9	-64.6	16.8	0.00e+00	0	50	0
2025-01-04 03:26:46.86	228.01	13.86	-64.3	-67.0	14.7	0.00e+00	0	50	0
2025-01-04 03:26:48.76	228.31	13.98	-63.1	-65.2	16.5	0.00e+00	0	51	0
2025-01-04 03:26:50.66	228.61	14.11	-64.2	-67.6	14.6	0.00e+00	0	51	0
2025-01-04 03:26:52.56	228.92	14.23	-63.1	-65.2	16.4	0.00e+00	0	51	0
2025-01-04 03:26:54.46	229.23	14.36	-63.1	-65.2	16.4	0.00e+00	0	51	0
2025-01-04 03:26:56.36	229.54	14.48	-63.1	-65.5	16.1	0.00e+00	0	51	0
2025-01-04 03:26:58.25	229.85	14.60	-62.7	-64.9	16.8	0.00e+00	0	51	0
2025-01-04 03:27:00.15	230.17	14.73	-62.3	-64.0	17.3	0.00e+00	0	51	0
2025-01-04 03:27:02.05	230.49	14.85	-62.2	-64.2	17.5	0.00e+00	0	51	0
2025-01-04 03:27:03.94	230.81	14.97	-62.4	-64.6	17.3	0.00e+00	0	51	0
2025-01-04 03:27:05.84	231.13	15.10	-62.1	-64.0	17.6	0.00e+00	0	51	0
2025-01-04 03:27:07.74	231.46	15.22	-62.1	-63.8	17.7	0.00e+00	0	51	0
2025-01-04 03:27:09.64	231.79	15.34	-62.2	-64.1	17.6	0.00e+00	0	51	0
2025-01-04 03:27:11.54	232.12	15.46	-62.0	-63.6	17.9	0.00e+00	0	52	0
2025-01-04 03:27:13.44	232.46	15.59	-62.4	-64.6	17.4	0.00e+00	0	52	0
2025-01-04 03:27:15.34	232.80	15.71	-62.1	-63.7	17.9	0.00e+00	0	52	0
2025-01-04 03:27:17.24	233.14	15.83	-62.3	-64.3	17.6	0.00e+00	0	51	0
2025-01-04 03:27:19.14	233.48	15.95	-62.0	-63.6	17.9	0.00e+00	0	52	0
2025-01-04 03:27:21.04	233.82	16.07	-62.2	-64.1	17.7	0.00e+00	0	52	0
2025-01-04 03:27:22.94	234.17	16.19	-62.3	-64.6	17.4	0.00e+00	0	52	0
2025-01-04 03:27:24.83	234.52	16.31	-62.3	-64.4	17.5	0.00e+00	0	52	0
2025-01-04 03:27:26.73	234.88	16.43	-62.2	-64.3	17.5	0.00e+00	0	52	0
2025-01-04 03:27:28.63	235.23	16.55	-62.2	-64.1	17.7	0.00e+00	0	52	0
2025-01-04 03:27:30.53	235.59	16.66	-62.3	-64.3	17.7	0.00e+00	0	52	0
2025-01-04 03:27:32.42	235.95	16.78	-62.4	-64.4	17.6	0.00e+00	0	52	0
2025-01-04 03:27:34.32	236.32	16.90	-62.6	-64.8	17.4	0.00e+00	0	52	0
2025-01-04 03:27:36.22	236.68	17.02	-62.4	-64.0	17.6	0.00e+00	0	52	0
2025-01-04 03:27:38.12	237.06	17.13	-62.5	-64.1	17.5	0.00e+00	0	53	0
2025-01-04 03:27:40.02	237.43	17.25	-62.4	-63.9	17.6	0.00e+00	0	52	0
2025-01-04 03:27:41.92	237.80	17.36	-62.4	-63.8	17.7	0.00e+00	0	53	0
2025-01-04 03:27:43.82	238.18	17.48	-62.2	-63.4	18.0	0.00e+00	0	53	0
2025-01-04 03:27:45.72	238.56	17.59	-62.5	-63.9	17.7	0.00e+00	0	53	0
2025-01-04 03:27:47.61	238.95	17.70	-62.3	-63.5	18.0	0.00e+00	0	53	0
2025-01-04 03:27:49.51	239.33	17.81	-62.5	-64.1	17.6	0.00e+00	0	53	0
2025-01-04 03:27:51.40	239.72	17.92	-62.4	-63.8	17.7	0.00e+00	0	53	0
2025-01-04 03:27:53.30	240.11	18.03	-62.8	-64.8	17.2	0.00e+00	0	53	0
2025-01-04 03:27:55.20	240.51	18.14	-62.5	-63.9	17.8	0.00e+00	0	53	0
2025-01-04 03:27:57.10	240.91	18.25	-62.3	-63.5	18.0	0.00e+00	0	53	0
2025-01-04 03:27:59.00	241.31	18.36	-62.5	-64.1	17.7	0.00e+00	0	53	0
2025-01-04 03:28:00.90	241.71	18.47	-62.6	-64.1	17.7	0.00e+00	0	53	0
2025-01-04 03:28:02.80	242.12	18.57	-63.1	-65.4	16.9	0.00e+00	0	54	0
2025-01-04 03:28:04.70	242.53	18.68	-62.7	-64.4	17.5	0.00e+00	0	53	0
2025-01-04 03:28:06.60	242.94	18.78	-62.7	-64.4	17.5	0.00e+00	0	54	0
2025-01-04 03:28:08.50	243.36	18.89	-63.1	-65.5	16.9	0.00e+00	0	53	0
2025-01-04 03:28:10.40	243.77	18.99	-63.3	-65.6	16.5	0.00e+00	0	54	0
2025-01-04 03:28:12.29	244.19	19.09	-63.3	-65.4	16.6	0.00e+00	0	54	0
2025-01-04 03:28:14.19	244.61	19.19	-63.1	-65.0	16.8	0.00e+00	0	54	0
2025-01-04 03:28:16.09	245.04	19.29	-63.3	-65.3	16.6	0.00e+00	0	54	0
2025-01-04 03:28:17.99	245.47	19.39	-63.6	-66.1	16.3	0.00e+00	0	54	0
2025-01-04 03:28:19.89	245.90	19.48	-63.9	-66.3	15.7	0.00e+00	0	54	0
2025-01-04 03:28:21.79	246.33	19.58	-63.8	-66.0	15.9	0.00e+00	0	54	0
2025-01-04 03:28:23.69	246.77	19.67	-64.1	-66.9	15.4	0.00e+00	0	54	0
2025-01-04 03:28:25.59	247.21	19.76	-64.0	-66.7	15.5	0.00e+00	0	54	0
2025-01-04 03:28:27.49	247.65	19.85	-64.2	-67.1	15.2	0.00e+00	0	54	0
2025-01-04 03:28:29.39	248.09	19.94	-63.9	-66.3	15.7	0.00e+00	0	54	0
2025-01-04 03:28:31.29	248.54	20.03	-63.5	-65.3	16.3	0.00e+00	0	54	0
2025-01-04 03:28:33.18	248.99	20.12	-63.6	-65.7	16.0	0.00e+00	0	54	0
2025-01-04 03:28:35.08	249.44	20.21	-63.3	-65.0	16.4	0.00e+00	0	54	0
2025-01-04 03:28:36.98	249.89	20.29	-63.4	-65.3	16.2	0.00e+00	0	54	0
2025-01-04 03:28:38.88	250.35	20.37	-63.4	-65.2	16.3	0.00e+00	0	54	0
2025-01-04 03:28:40.78	250.81	20.45	-63.7	-66.0	15.8	0.00e+00	0	54	0
2025-01-04 03:28:42.68	251.27	20.53	-63.3	-64.8	16.6	0.00e+00	0	55	0
2025-01-04 03:28:44.58	251.73	20.61	-62.8	-64.3	17.1	0.00e+00	0	54	0
2025-01-04 03:28:46.48	252.20	20.69	-63.1	-64.9	16.8	0.00e+00	0	55	0
2025-01-04 03:28:48.38	252.66	20.76	-63.0	-65.0	16.7	0.00e+00	0	55	0
2025-01-04 03:28:50.28	253.13	20.83	-62.9	-64.8	16.8	0.00e+00	0	55	0
2025-01-04 03:28:52.18	253.61	20.91	-62.5	-64.3	17.3	0.00e+00	0	55	0
2025-01-04 03:28:54.07	254.08	20.97	-63.0	-65.5	16.6	0.00e+00	0	54	0
2025-01-04 03:28:55.97	254.55	21.04	-63.5	-65.9	16.2	0.00e+00	0	55	0
2025-01-04 03:28:57.87	255.03	21.11	-63.1	-64.9	16.8	0.00e+00	0	55	0
2025-01-04 03:28:59.76	255.51	21.17	-62.3	-63.5	17.8	0.00e+00	0	55	0
2025-01-04 03:29:01.66	255.99	21.23	-62.4	-63.8	17.7	0.00e+00	0	55	0
2025-01-04 03:29:03.56	256.47	21.29	-62.6	-64.4	17.3	0.00e+00	0	55	0
2025-01-04 03:29:05.46	256.96	21.35	-62.8	-64.7	17.1	0.00e+00	0	55	0
2025-01-04 03:29:07.36	257.45	21.41	-62.7	-64.6	17.1	0.00e+00	0	55	0
2025-01-04 03:29:09.26	257.94	21.46	-63.2	-65.6	16.7	0.00e+00	0	55	0
2025-01-04 03:29:11.16	258.43	21.52	-62.7	-64.5	17.3	0.00e+00	0	55	0
2025-01-04 03:29:13.06	258.92	21.57	-62.6	-64.3	17.4	0.00e+00	0	55	0
2025-01-04 03:29:14.96	259.41	21.61	-62.2	-63.6	17.8	0.00e+00	0	55	0
2025-01-04 03:29:16.85	259.91	21.66	-62.2	-63.6	17.7	0.00e+00	0	55	0
2025-01-04 03:29:18.75	260.40	21.70	-62.2	-63.8	17.5	0.00e+00	0	55	0
2025-01-04 03:29:20.64	260.90	21.75	-62.3	-64.4	17.4	0.00e+00	0	55	0
2025-01-04 03:29:22.54	261.40	21.79	-62.8	-65.0	16.9	0.00e+00	0	55	0
2025-01-04 03:29:24.44	261.90	21.82	-62.8	-64.8	17.1	0.00e+00	0	55	0
2025-01-04 03:29:26.34	262.40	21.86	-62.6	-64.5	17.2	0.00e+00	0	55	0
2025-01-04 03:29:28.24	262.90	21.89	-62.7	-64.7	17.1	0.00e+00	0	55	0
2025-01-04 03:29:30.14	263.41	21.93	-63.2	-65.8	16.5	0.00e+00	0	55	0
2025-01-04 03:29:32.04	263.91	21.95	-62.7	-64.7	17.1	0.00e+00	0	55	0
2025-01-04 03:29:33.94	264.42	21.98	-62.2	-63.6	17.8	0.00e+00	0	56	0
2025-01-04 03:29:35.84	264.92	22.01	-62.7	-64.6	17.3	0.00e+00	0	56	0
2025-01-04 03:29:37.74	265.43	22.03	-63.5	-65.9	16.3	0.00e+00	0	56	0
2025-01-04 03:29:39.64	265.94	22.05	-62.8	-64.4	17.1	0.00e+00	0	56	0
2025-01-04 03:29:41.53	266.44	22.07	-62.7	-64.6	17.3	0.00e+00	0	56	0
2025-01-04 03:29:43.43	266.95	22.08	-62.8	-64.7	17.3	0.00e+00	0	56	0
2025-01-04 03:29:45.33	267.46	22.10	-63.2	-65.6	16.8	0.00e+00	0	56	0
2025-01-04 03:29:47.23	267.97	22.11	-62.7	-64.6	17.4	0.00e+00	0	56	0
2025-01-04 03:29:49.13	268.48	22.12	-62.6	-64.4	17.5	0.00e+00	0	56	0
2025-01-04 03:29:51.03	268.99	22.12	-62.9	-65.1	17.1	0.00e+00	0	56	0
2025-01-04 03:29:52.93	269.50	22.13	-62.8	-64.9	17.1	0.00e+00	0	56	0
2025-01-04 03:29:54.83	270.01	22.13	-62.8	-64.7	17.3	0.00e+00	0	56	0
2025-01-04 03:29:56.73	270.52	22.13	-62.9	-65.1	17.1	0.00e+00	0	56	0
2025-01-04 03:29:58.63	271.03	22.13	-63.5	-65.9	16.3	0.00e+00	0	56	0
2025-01-04 03:30:00.53	271.54	22.12	-63.5	-65.9	16.4	0.00e+00	0	56	0
2025-01-04 03:30:02.42	272.05	22.11	-63.6	-66.0	16.3	0.00e+00	0	56	0
2025-01-04 03:30:04.32	272.56	22.10	-63.2	-65.2	16.7	0.00e+00	0	56	0
2025-01-04 03:30:06.22	273.07	22.09	-62.9	-64.5	17.1	0.00e+00	0	56	0
2025-01-04 03:30:08.12	273.58	22.08	-62.8	-64.2	17.4	0.00e+00	0	56	0
2025-01-04 03:30:10.01	274.08	22.06	-63.5	-65.8	16.4	0.00e+00	0	56	0
2025-01-04 03:30:11.91	274.59	22.04	-63.1	-64.9	16.9	0.00e+00	0	56	0
2025-01-04 03:30:13.81	275.10	22.02	-63.2	-65.1	16.8	0.00e+00	0	56	0
2025-01-04 03:30:15.71	275.60	22.00	-62.7	-63.9	17.5	0.00e+00	0	56	0
2025-01-04 03:30:17.61	276.11	21.97	-62.6	-64.3	17.5	0.00e+00	0	56	0
2025-01-04 03:30:19.51	276.61	21.95	-62.1	-63.3	18.0	0.00e+00	0	56	0
2025-01-04 03:30:21.41	277.12	21.92	-62.2	-64.0	17.9	0.00e+00	0	56	0
2025-01-04 03:30:23.31	277.62	21.89	-62.1	-63.8	18.0	0.00e+00	0	56	0
2025-01-04 03:30:25.20	278.12	21.85	-62.2	-64.0	17.9	0.00e+00	0	56	0
2025-01-04 03:30:27.10	278.62	21.82	-62.6	-64.7	17.6	0.00e+00	0	56	0
2025-01-04 03:30:28.99	279.12	21.78	-62.5	-64.6	17.7	0.00e+00	0	56	0
2025-01-04 03:30:30.89	279.62	21.74	-62.3	-64.2	17.9	0.00e+00	0	56	0
2025-01-04 03:30:32.79	280.11	21.69	-62.6	-64.6	17.6	0.00e+00	0	56	0
2025-01-04 03:30:34.69	280.61	21.65	-62.7	-64.9	17.5	0.00e+00	0	56	0
2025-01-04 03:30:36.59	281.10	21.60	-62.6	-64.4	17.6	0.00e+00	0	56	0
2025-01-04 03:30:38.49	281.59	21.55	-62.5	-64.0	17.7	0.00e+00	0	56	0
2025-01-04 03:30:40.39	282.08	21.50	-62.7	-64.5	17.4	0.00e+00	0	56	0
2025-01-04 03:30:42.29	282.57	21.45	-62.8	-64.7	17.3	0.00e+00	0	56	0
2025-01-04 03:30:44.18	283.06	21.40	-62.7	-64.6	17.4	0.00e+00	0	56	0
2025-01-04 03:30:46.08	283.54	21.34	-62.7	-64.4	17.5	0.00e+00	0	56	0
2025-01-04 03:30:47.98	284.03	21.28	-62.5	-64.1	17.8	0.00e+00	0	57	0
2025-01-04 03:30:49.88	284.51	21.22	-62.9	-64.8	17.4	0.00e+00	0	57	0
2025-01-04 03:30:51.77	284.99	21.16	-62.5	-63.9	17.8	0.00e+00	0	57	0
2025-01-04 03:30:53.67	285.47	21.10	-62.7	-64.5	17.5	0.00e+00	0	57	0
2025-01-04 03:30:55.57	285.94	21.03	-61.9	-63.1	18.5	0.00e+00	0	57	0
2025-01-04 03:30:57.47	286.42	20.96	-62.1	-63.7	18.1	0.00e+00	0	57	0
2025-01-04 03:30:59.37	286.89	20.89	-62.2	-63.8	18.0	0.00e+00	0	57	0
2025-01-04 03:31:01.27	287.36	20.82	-62.7	-65.0	17.4	0.00e+00	0	57	0
2025-01-04 03:31:03.17	287.83	20.75	-62.2	-63.8	18.1	0.00e+00	0	57	0
2025-01-04 03:31:05.07	288.29	20.67	-62.5	-64.4	17.8	0.00e+00	0	57	0
2025-01-04 03:31:06.97	288.76	20.60	-62.3	-64.0	18.0	0.00e+00	0	57	0
2025-01-04 03:31:08.87	289.22	20.52	-62.7	-64.9	17.5	0.00e+00	0	57	0
2025-01-04 03:31:10.77	289.68	20.44	-62.6	-64.2	17.6	0.00e+00	0	57	0
2025-01-04 03:31:12.66	290.13	20.36	-62.4	-63.9	17.7	0.00e+00	0	57	0
2025-01-04 03:31:14.56	290.58	20.28	-61.9	-63.2	18.4	0.00e+00	0	57	0
2025-01-04 03:31:16.46	291.03	20.19	-61.9	-63.3	18.3	0.00e+00	0	57	0
2025-01-04 03:31:18.36	291.48	20.11	-61.9	-63.3	18.4	0.00e+00	0	57	0
2025-01-04 03:31:20.26	291.93	20.02	-61.9	-63.1	18.5	0.00e+00	0	57	0
2025-01-04 03:31:22.16	292.37	19.93	-62.2	-63.8	18.1	0.00e+00	0	57	0
2025-01-04 03:31:24.06	292.82	19.84	-61.9	-63.2	18.4	0.00e+00	0	57	0
2025-01-04 03:31:25.96	293.26	19.75	-61.8	-63.0	18.5	0.00e+00	0	57	0
2025-01-04 03:31:27.86	293.69	19.66	-62.0	-63.5	18.2	0.00e+00	0	57	0
2025-01-04 03:31:29.76	294.13	19.57	-62.0	-63.5	18.2	0.00e+00	0	57	0
2025-01-04 03:31:31.66	294.56	19.47	-62.8	-64.9	17.2	0.00e+00	0	57	0
2025-01-04 03:31:33.55	294.98	19.38	-62.5	-64.2	17.6	0.00e+00	0	57	0
2025-01-04 03:31:35.45	295.41	19.28	-62.7	-64.7	17.3	0.00e+00	0	57	0
2025-01-04 03:31:37.34	295.83	19.18	-62.3	-63.7	17.8	0.00e+00	0	57	0
2025-01-04 03:31:39.24	296.25	19.08	-62.2	-64.0	17.9	0.00e+00	0	57	0
2025-01-04 03:31:41.14	296.67	18.98	-62.4	-64.3	17.8	0.00e+00	0	57	0
2025-01-04 03:31:43.04	297.08	18.88	-62.7	-64.9	17.4	0.00e+00	0	57	0
2025-01-04 03:31:44.94	297.50	18.78	-63.0	-65.2	16.9	0.00e+00	0	57	0
2025-01-04 03:31:46.84	297.91	18.67	-63.3	-65.8	16.7	0.00e+00	0	57	0
2025-01-04 03:31:48.74	298.31	18.57	-63.7	-66.5	15.9	0.00e+00	0	57	0
2025-01-04 03:31:50.64	298.72	18.46	-63.6	-65.6	16.0	0.00e+00	0	57	0
2025-01-04 03:31:52.54	299.12	18.36	-63.3	-65.2	16.2	0.00e+00	0	57	0
2025-01-04 03:31:54.43	299.51	18.25	-63.3	-65.2	16.3	0.00e+00	0	57	0
2025-01-04 03:31:56.33	299.91	18.14	-63.3	-65.9	16.1	0.00e+00	0	57	0
2025-01-04 03:31:58.23	300.30	18.03	-63.2	-65.7	16.1	0.00e+00	0	57	0
2025-01-04 03:32:00.12	300.69	17.92	-63.1	-65.3	16.4	0.00e+00	0	57	0
2025-01-04 03:32:02.02	301.08	17.81	-62.9	-64.9	16.6	0.00e+00	0	57	0
2025-01-04 03:32:03.92	301.46	17.70	-63.0	-65.0	16.6	0.00e+00	0	57	0
2025-01-04 03:32:05.82	301.85	17.59	-63.0	-65.0	16.6	0.00e+00	0	57	0
2025-01-04 03:32:07.72	302.22	17.48	-63.5	-66.2	16.0	0.00e+00	0	57	0
2025-01-04 03:32:09.62	302.60	17.37	-63.8	-66.8	15.8	0.00e+00	0	57	0
2025-01-04 03:32:11.52	302.98	17.25	-64.1	-67.1	15.2	0.00e+00	0	57	0
2025-01-04 03:32:13.42	303.35	17.14	-63.7	-66.0	15.8	0.00e+00	0	57	0
2025-01-04 03:32:15.32	303.71	17.02	-64.4	-67.1	14.8	7.00e-07	0	57	0
2025-01-04 03:32:17.22	304.08	16.91	-64.0	-66.2	15.4	7.00e-07	0	57	0
2025-01-04 03:32:19.12	304.44	16.79	-64.3	-66.9	14.9	7.00e-07	0	57	0
2025-01-04 03:32:21.01	304.80	16.67	-63.7	-65.4	15.8	0.00e+00	0	57	0
2025-01-04 03:32:22.91	305.16	16.56	-63.9	-66.0	15.5	0.00e+00	0	57	0
2025-01-04 03:32:24.81	305.51	16.44	-63.6	-65.2	15.9	0.00e+00	0	57	0
2025-01-04 03:32:26.71	305.86	16.32	-63.8	-65.8	15.6	0.00e+00	0	57	0
2025-01-04 03:32:28.61	306.21	16.20	-63.3	-65.0	16.3	0.00e+00	0	57	0
2025-01-04 03:32:30.51	306.56	16.08	-63.4	-65.3	16.1	0.00e+00	0	57	0
2025-01-04 03:32:32.41	306.90	15.96	-63.0	-64.8	16.8	0.00e+00	0	57	0
2025-01-04 03:32:34.31	307.24	15.84	-63.2	-65.3	16.5	0.00e+00	0	57	0
2025-01-04 03:32:36.21	307.58	15.72	-63.5	-65.8	16.3	0.00e+00	0	57	0
2025-01-04 03:32:38.11	307.92	15.60	-63.7	-65.9	15.8	0.00e+00	0	57	0
2025-01-04 03:32:40.01	308.25	15.48	-63.3	-65.1	16.3	0.00e+00	0	57	0
2025-01-04 03:32:41.90	308.58	15.36	-63.9	-66.4	15.5	7.00e-07	0	57	0
2025-01-04 03:32:43.80	308.91	15.24	-63.7	-66.0	15.8	0.00e+00	0	57	0
2025-01-04 03:32:45.70	309.23	15.12	-64.0	-66.9	15.2	0.00e+00	0	58	0
2025-01-04 03:32:47.60	309.56	15.00	-63.5	-65.4	16.0	0.00e+00	0	57	0
2025-01-04 03:32:49.50	309.88	14.88	-63.3	-65.0	16.2	0.00e+00	0	57	0
2025-01-04 03:32:51.40	310.19	14.75	-63.4	-65.7	16.3	0.00e+00	0	58	0
2025-01-04 03:32:53.30	310.51	14.63	-63.4	-65.8	16.2	0.00e+00	0	57	0
2025-01-04 03:32:55.20	310.82	14.51	-63.8	-66.1	15.6	0.00e+00	0	58	0
2025-01-04 03:32:57.10	311.13	14.39	-63.6	-65.6	15.9	0.00e+00	0	58	0
2025-01-04 03:32:59.00	311.44	14.26	-63.5	-65.5	16.0	0.00e+00	0	58	0
2025-01-04 03:33:00.90	311.74	14.14	-63.1	-65.0	16.6	0.00e+00	0	58	0
2025-01-04 03:33:02.79	312.04	14.02	-62.8	-64.4	16.9	0.00e+00	0	58	0
2025-01-04 03:33:04.69	312.34	13.90	-62.9	-64.8	16.7	0.00e+00	0	58	0
2025-01-04 03:33:06.58	312.64	13.77	-64.2	-67.4	15.0	0.00e+00	0	58	0
2025-01-04 03:33:08.48	312.94	13.65	-68.1	-83.0	3.8	1.49e+00	0	58	104
2025-01-04 03:33:10.38	313.23	13.53	-67.0	-82.5	3.8	1.49e+00	0	58	104
2025-01-04 03:33:12.28	313.52	13.40	-62.8	-78.7	3.8	1.49e+00	0	58	104
2025-01-04 03:33:14.18	313.81	13.28	-61.7	-78.6	3.8	1.49e+00	0	58	104
2025-01-04 03:33:16.08	314.09	13.16	-63.2	-79.1	3.8	1.49e+00	0	58	104
2025-01-04 03:33:17.98	314.38	13.03	-39.5	-64.7	1.8	1.50e+00	0	58	104
2025-01-04 03:33:19.88	314.66	12.91	-63.6	-79.4	3.8	1.49e+00	0	58	104
2025-01-04 03:33:21.77	314.94	12.79	-63.7	-79.6	3.8	1.49e+00	0	58	104
2025-01-04 03:33:23.67	315.21	12.66	-63.7	-79.6	3.8	1.49e+00	0	58	104
2025-01-04 03:33:25.57	315.49	12.54	-63.6	-79.4	3.8	1.49e+00	0	57	104
2025-01-04 03:33:27.47	315.76	12.42	-63.6	-79.5	3.8	1.49e+00	0	58	104
2025-01-04 03:33:29.36	316.03	12.29	-63.6	-79.5	3.8	1.49e+00	0	58	104
2025-01-04 03:33:31.26	316.30	12.17	-63.6	-79.4	3.8	1.49e+00	0	58	104
2025-01-04 03:33:33.16	316.56	12.05	-63.7	-79.5	3.8	1.49e+00	0	58	104
2025-01-04 03:33:35.06	316.83	11.93	-63.6	-79.5	3.8	1.49e+00	0	58	104
2025-01-04 03:33:36.96	317.09	11.80	-63.7	-79.5	3.8	1.49e+00	0	58	104
2025-01-04 03:33:38.86	317.35	11.68	-63.6	-79.5	3.8	1.49e+00	0	58	104
2025-01-04 03:33:40.76	317.60	11.56	-63.6	-79.4	3.8	1.49e+00	0	58	104
2025-01-04 03:33:42.66	317.86	11.43	-63.5	-79.4	3.8	1.49e+00	0	58	104
2025-01-04 03:33:44.56	318.11	11.31	-63.6	-79.4	3.8	1.49e+00	0	58	104
2025-01-04 03:33:46.46	318.36	11.19	-63.5	-79.4	3.8	1.49e+00	0	58	104
2025-01-04 03:33:48.36	318.61	11.07	-63.7	-79.5	3.8	1.49e+00	0	58	104
2025-01-04 03:33:50.25	318.86	10.95	-63.5	-79.3	3.8	1.49e+00	0	58	104
2025-01-04 03:33:52.15	319.10	10.82	-63.6	-79.5	3.8	1.49e+00	0	58	104
2025-01-04 03:33:54.05	319.35	10.70	-63.7	-79.5	3.8	1.49e+00	0	58	104
2025-01-04 03:33:55.95	319.59	10.58	-63.5	-79.4	3.8	1.49e+00	0	58	104
2025-01-04 03:33:57.85	319.83	10.46	-63.7	-79.5	3.8	1.49e+00	0	58	104
2025-01-04 03:33:59.75	320.06	10.34	-63.6	-79.5	3.8	1.49e+00	0	58	104
2025-01-04 03:34:01.65	320.30	10.22	-63.6	-79.5	3.8	1.49e+00	0	58	104
2025-01-04 03:34:03.55	320.53	10.10	-63.6	-79.5	3.8	1.49e+00	0	58	104
2025-01-04 03:34:05.45	320.77	9.98	-63.6	-79.5	3.8	1.49e+00	0	58	104
2025-01-04 03:34:07.35	321.00	9.86	-63.7	-79.5	3.8	1.49e+00	0	58	104
2025-01-04 03:34:09.25	321.22	9.74	-63.6	-79.5	3.8	1.49e+00	0	58	104
2025-01-04 03:34:11.14	321.45	9.62	-63.6	-79.5	3.8	1.49e+00	0	58	104
2025-01-04 03:34:13.04	321.67	9.50	-63.3	-79.1	3.8	1.49e+00	0	58	104
2025-01-04 03:34:14.94	321.90	9.38	-63.6	-79.5	3.8	1.49e+00	0	58	104
2025-01-04 03:34:16.84	322.12	9.26	-63.5	-79.3	3.8	1.49e+00	0	58	104
2025-01-04 03:34:18.74	322.34	9.14	-63.6	-79.4	3.8	1.49e+00	0	58	104
2025-01-04 03:34:20.64	322.55	9.02	-63.5	-79.4	3.8	1.49e+00	0	58	104
2025-01-04 03:34:22.54	322.77	8.90	-63.6	-79.4	3.8	1.49e+00	0	58	104
2025-01-04 03:34:24.44	322.98	8.78	-63.4	-79.3	3.8	1.49e+00	0	58	104
2025-01-04 03:34:26.34	323.20	8.66	-63.5	-79.4	3.8	1.49e+00	0	58	104
2025-01-04 03:34:28.24	323.41	8.54	-63.6	-79.4	3.8	1.49e+00	0	58	104
2025-01-04 03:34:30.14	323.62	8.43	-63.5	-79.4	3.8	1.49e+00	0	58	104
2025-01-04 03:34:32.03	323.82	8.31	-63.6	-79.4	3.8	1.49e+00	0	58	104
2025-01-04 03:34:33.93	324.03	8.19	-63.6	-79.4	3.8	1.49e+00	0	58	104
2025-01-04 03:34:35.82	324.23	8.08	-63.6	-79.4	3.8	1.49e+00	0	58	104
2025-01-04 03:34:37.72	324.44	7.96	-63.6	-79.5	3.8	1.49e+00	0	58	104

#Closed at: 2025-01-04 03:34:39
#Recorded file [730 MB]: D:/data/31015_250104_153306.dat