passes_logs/2025/01/04/PPK-1/PPK-1__20250104_000608_TY-39_rec.log

#Pass ID: 20250104_000608_TY-39
#Satellite: TY-39
#Configuration: TY-39
#almurnet v.1.7.20230919.trace
#Start time: 2025-01-04 00:06:09

#Version: 2.2.20231116
#Station: PPK-1
#Location: 158.6 lon 53.06666 lat
#TLE: 1 51832U 22019J   25002.92854874  .00006852  00000+0  35122-3 0  9995
#TLE: 2 51832  97.4112  73.4032 0007661 282.9824  77.0554 15.16860506157312

#Time	Az	El	Level	Level2	SNR	BER	BlckErr	Temp	State
2025-01-04 00:06:09.37	12.81	8.05	-63.2	-69.3	3.6	0.00e+00	0	46	0
2025-01-04 00:06:11.26	12.81	8.22	-63.3	-69.0	3.6	0.00e+00	0	47	104
2025-01-04 00:06:13.16	12.80	8.40	-63.2	-68.9	3.6	0.00e+00	0	47	104
2025-01-04 00:06:15.05	12.80	8.58	-63.3	-69.0	3.7	0.00e+00	0	47	104
2025-01-04 00:06:16.95	12.79	8.76	-63.3	-69.0	3.7	0.00e+00	0	48	104
2025-01-04 00:06:18.85	12.79	8.95	-63.3	-69.0	3.7	0.00e+00	0	48	104
2025-01-04 00:06:20.75	12.78	9.13	-63.3	-69.0	3.6	0.00e+00	0	48	104
2025-01-04 00:06:22.65	12.78	9.32	-63.3	-69.0	3.6	0.00e+00	0	49	104
2025-01-04 00:06:24.55	12.77	9.51	-63.2	-68.9	3.6	0.00e+00	0	49	104
2025-01-04 00:06:26.45	12.77	9.70	-63.3	-69.0	3.7	0.00e+00	0	49	104
2025-01-04 00:06:28.34	12.76	9.90	-63.2	-69.0	3.7	0.00e+00	0	50	104
2025-01-04 00:06:30.24	12.76	10.09	-63.3	-69.0	3.7	0.00e+00	0	50	104
2025-01-04 00:06:32.14	12.75	10.29	-63.3	-69.0	3.6	0.00e+00	0	50	104
2025-01-04 00:06:34.04	12.74	10.49	-63.3	-68.9	3.6	0.00e+00	0	51	104
2025-01-04 00:06:35.94	12.74	10.69	-63.3	-69.0	3.6	0.00e+00	0	51	104
2025-01-04 00:06:37.83	12.73	10.89	-63.3	-68.9	3.7	0.00e+00	0	51	104
2025-01-04 00:06:39.73	12.72	11.10	-63.3	-69.0	3.7	0.00e+00	0	51	104
2025-01-04 00:06:41.63	12.71	11.31	-63.1	-68.8	3.7	0.00e+00	0	52	104
2025-01-04 00:06:43.53	12.71	11.52	-63.2	-68.9	3.6	0.00e+00	0	52	104
2025-01-04 00:06:45.42	12.70	11.73	-63.2	-68.9	3.6	0.00e+00	0	52	104
2025-01-04 00:06:47.32	12.69	11.94	-63.2	-68.9	3.6	0.00e+00	0	52	104
2025-01-04 00:06:49.22	12.68	12.16	-63.2	-68.9	3.7	0.00e+00	0	53	104
2025-01-04 00:06:51.12	12.67	12.38	-63.3	-69.0	3.7	0.00e+00	0	53	104
2025-01-04 00:06:53.02	12.66	12.61	-63.3	-69.0	3.7	0.00e+00	0	53	104
2025-01-04 00:06:54.92	12.66	12.83	-63.2	-68.9	3.6	0.00e+00	0	53	104
2025-01-04 00:06:56.82	12.65	13.06	-63.3	-69.0	3.6	0.00e+00	0	54	104
2025-01-04 00:06:58.72	12.64	13.29	-63.3	-69.0	3.6	0.00e+00	0	54	104
2025-01-04 00:07:00.61	12.63	13.53	-63.3	-69.0	3.7	0.00e+00	0	54	104
2025-01-04 00:07:02.51	12.61	13.76	-63.3	-69.0	3.7	0.00e+00	0	54	104
2025-01-04 00:07:04.41	12.60	14.00	-63.3	-69.0	3.7	0.00e+00	0	55	104
2025-01-04 00:07:06.31	12.59	14.25	-63.1	-68.9	3.6	0.00e+00	0	55	104
2025-01-04 00:07:08.21	12.58	14.49	-63.3	-69.0	3.6	0.00e+00	0	55	104
2025-01-04 00:07:10.11	12.57	14.74	-63.2	-68.9	3.6	0.00e+00	0	55	104
2025-01-04 00:07:12.01	12.56	14.99	-63.3	-68.9	3.7	0.00e+00	0	56	104
2025-01-04 00:07:13.91	12.54	15.25	-63.2	-68.9	3.7	0.00e+00	0	56	104
2025-01-04 00:07:15.81	12.53	15.51	-63.1	-68.8	3.7	0.00e+00	0	56	104
2025-01-04 00:07:17.71	12.52	15.77	-63.3	-69.1	3.6	0.00e+00	0	56	104
2025-01-04 00:07:19.61	12.50	16.04	-63.3	-69.0	3.6	0.00e+00	0	56	104
2025-01-04 00:07:21.51	12.49	16.31	-63.3	-69.0	3.6	0.00e+00	0	57	104
2025-01-04 00:07:23.40	12.47	16.59	-63.2	-68.9	3.7	0.00e+00	0	57	104
2025-01-04 00:07:25.30	12.46	16.86	-63.3	-69.0	3.7	0.00e+00	0	57	104
2025-01-04 00:07:27.20	12.44	17.15	-63.3	-69.0	3.7	0.00e+00	0	57	104
2025-01-04 00:07:29.10	12.42	17.43	-63.2	-68.9	3.6	0.00e+00	0	58	104
2025-01-04 00:07:31.00	12.41	17.73	-63.2	-68.9	3.6	0.00e+00	0	58	104
2025-01-04 00:07:32.90	12.39	18.02	-63.3	-68.9	3.6	0.00e+00	0	58	104
2025-01-04 00:07:34.80	12.37	18.32	-63.2	-69.0	3.7	0.00e+00	0	58	104
2025-01-04 00:07:36.70	12.35	18.63	-63.3	-68.9	3.7	0.00e+00	0	58	104
2025-01-04 00:07:38.59	12.33	18.94	-63.3	-69.0	3.7	0.00e+00	0	58	104
2025-01-04 00:07:40.49	12.31	19.25	-63.2	-68.9	3.6	0.00e+00	0	58	104
2025-01-04 00:07:42.39	12.29	19.57	-63.3	-69.0	3.6	0.00e+00	0	59	104
2025-01-04 00:07:44.29	12.27	19.90	-63.2	-69.0	3.6	0.00e+00	0	59	104
2025-01-04 00:07:46.18	12.25	20.22	-63.3	-69.0	3.7	0.00e+00	0	59	104
2025-01-04 00:07:48.08	12.23	20.56	-63.3	-69.0	3.7	0.00e+00	0	59	104
2025-01-04 00:07:49.98	12.20	20.90	-63.3	-68.9	3.7	0.00e+00	0	59	104
2025-01-04 00:07:51.88	12.18	21.25	-63.3	-68.9	3.6	0.00e+00	0	59	104
2025-01-04 00:07:53.78	12.15	21.60	-63.3	-69.0	3.6	0.00e+00	0	60	104
2025-01-04 00:07:55.67	12.13	21.96	-63.3	-69.0	3.6	0.00e+00	0	60	104
2025-01-04 00:07:57.57	12.10	22.33	-63.3	-69.0	3.7	0.00e+00	0	60	104
2025-01-04 00:07:59.47	12.07	22.70	-63.2	-68.9	3.7	0.00e+00	0	60	104
2025-01-04 00:08:01.37	12.04	23.08	-63.3	-69.0	3.7	0.00e+00	0	60	104
2025-01-04 00:08:03.27	12.01	23.46	-63.2	-68.8	3.6	0.00e+00	0	61	104
2025-01-04 00:08:05.17	11.98	23.86	-63.3	-68.9	3.6	0.00e+00	0	61	104
2025-01-04 00:08:07.07	11.95	24.26	-63.3	-69.0	3.6	0.00e+00	0	61	104
2025-01-04 00:08:08.96	11.92	24.66	-63.2	-68.9	3.6	0.00e+00	0	61	104
2025-01-04 00:08:10.86	11.88	25.08	-63.3	-69.0	3.7	0.00e+00	0	61	104
2025-01-04 00:08:12.76	11.85	25.50	-63.2	-68.9	3.7	0.00e+00	0	61	104
2025-01-04 00:08:14.66	11.81	25.94	-63.2	-68.9	3.6	0.00e+00	0	61	104
2025-01-04 00:08:16.56	11.78	26.38	-63.3	-68.9	3.6	0.00e+00	0	61	104
2025-01-04 00:08:18.46	11.74	26.83	-63.3	-69.0	3.6	0.00e+00	0	62	104
2025-01-04 00:08:20.36	11.70	27.29	-63.2	-68.9	3.6	0.00e+00	0	61	104
2025-01-04 00:08:22.26	11.65	27.75	-63.2	-68.9	3.7	0.00e+00	0	62	104
2025-01-04 00:08:24.16	11.61	28.23	-63.2	-68.9	3.7	0.00e+00	0	62	104
2025-01-04 00:08:26.06	11.56	28.72	-63.3	-69.0	3.7	0.00e+00	0	62	104
2025-01-04 00:08:27.96	11.52	29.22	-63.3	-69.0	3.6	0.00e+00	0	62	104
2025-01-04 00:08:29.86	11.47	29.73	-63.3	-69.1	3.6	0.00e+00	0	62	104
2025-01-04 00:08:31.75	11.42	30.24	-63.3	-69.0	3.6	0.00e+00	0	62	104
2025-01-04 00:08:33.65	11.36	30.78	-63.2	-69.0	3.7	0.00e+00	0	62	104
2025-01-04 00:08:35.55	11.31	31.32	-63.2	-68.8	3.7	0.00e+00	0	62	104
2025-01-04 00:08:37.45	11.25	31.87	-63.2	-68.8	3.7	0.00e+00	0	62	104
2025-01-04 00:08:39.35	11.19	32.44	-63.2	-68.9	3.6	0.00e+00	0	62	104
2025-01-04 00:08:41.25	11.13	33.02	-63.2	-69.0	3.6	0.00e+00	0	62	104
2025-01-04 00:08:43.15	11.06	33.61	-63.3	-69.1	3.6	0.00e+00	0	62	104
2025-01-04 00:08:45.05	10.99	34.22	-63.3	-69.0	3.7	0.00e+00	0	62	104
2025-01-04 00:08:46.95	10.92	34.84	-63.3	-69.0	3.7	0.00e+00	0	63	104
2025-01-04 00:08:48.85	10.85	35.48	-63.3	-69.0	3.7	0.00e+00	0	63	104
2025-01-04 00:08:50.75	10.77	36.13	-63.3	-69.0	3.6	0.00e+00	0	63	104
2025-01-04 00:08:52.64	10.69	36.79	-63.2	-69.0	3.6	0.00e+00	0	63	104
2025-01-04 00:08:54.54	10.60	37.47	-63.2	-69.0	3.6	0.00e+00	0	63	104
2025-01-04 00:08:56.44	10.51	38.17	-63.2	-68.9	3.7	0.00e+00	0	63	104
2025-01-04 00:08:58.34	10.42	38.88	-63.2	-68.9	3.7	0.00e+00	0	63	104
2025-01-04 00:09:00.24	10.32	39.61	-63.2	-68.9	3.7	0.00e+00	0	63	104
2025-01-04 00:09:02.14	10.21	40.36	-63.2	-69.0	3.6	0.00e+00	0	64	104
2025-01-04 00:09:04.04	10.10	41.13	-63.2	-68.9	3.6	0.00e+00	0	63	104
2025-01-04 00:09:05.93	9.99	41.91	-63.3	-69.0	3.6	0.00e+00	0	64	104
2025-01-04 00:09:07.83	9.86	42.71	-63.3	-69.0	3.7	0.00e+00	0	64	104
2025-01-04 00:09:09.73	9.73	43.54	-63.3	-69.0	3.7	0.00e+00	0	64	104
2025-01-04 00:09:11.63	9.60	44.38	-63.3	-69.0	3.6	0.00e+00	0	64	104
2025-01-04 00:09:13.53	9.45	45.25	-63.3	-68.9	3.6	0.00e+00	0	64	104
2025-01-04 00:09:15.42	9.30	46.13	-63.2	-68.9	3.6	0.00e+00	0	64	104
2025-01-04 00:09:17.32	9.13	47.04	-63.3	-69.0	3.6	0.00e+00	0	64	104
2025-01-04 00:09:19.22	8.96	47.97	-63.3	-69.0	3.7	0.00e+00	0	64	104
2025-01-04 00:09:21.12	8.77	48.92	-63.3	-69.0	3.7	0.00e+00	0	64	104
2025-01-04 00:09:23.01	8.58	49.90	-63.3	-68.9	3.6	0.00e+00	0	64	104
2025-01-04 00:09:24.91	8.36	50.89	-63.2	-68.9	3.6	0.00e+00	0	64	104
2025-01-04 00:09:26.81	8.13	51.92	-63.2	-68.9	3.6	0.00e+00	0	64	104
2025-01-04 00:09:28.71	7.89	52.97	-63.3	-68.9	3.6	0.00e+00	0	64	104
2025-01-04 00:09:30.61	7.62	54.04	-63.3	-69.0	3.7	0.00e+00	0	65	104
2025-01-04 00:09:32.51	7.33	55.13	-63.3	-69.0	3.7	0.00e+00	0	65	104
2025-01-04 00:09:34.41	7.02	56.25	-63.3	-69.0	3.6	0.00e+00	0	65	104
2025-01-04 00:09:36.31	6.68	57.40	-63.2	-68.9	3.6	0.00e+00	0	65	104
2025-01-04 00:09:38.20	6.32	58.56	-63.3	-69.0	3.6	0.00e+00	0	65	104
2025-01-04 00:09:40.10	5.91	59.76	-63.3	-68.9	3.6	0.00e+00	0	65	104
2025-01-04 00:09:42.00	5.46	60.97	-63.2	-68.9	3.7	0.00e+00	0	65	104
2025-01-04 00:09:43.90	4.97	62.21	-63.3	-68.9	3.7	0.00e+00	0	65	104
2025-01-04 00:09:45.80	4.42	63.48	-63.2	-68.9	3.7	0.00e+00	0	65	104
2025-01-04 00:09:47.70	3.81	64.76	-63.3	-69.1	3.6	0.00e+00	0	65	104
2025-01-04 00:09:49.60	3.12	66.07	-63.3	-69.0	3.6	0.00e+00	0	65	104
2025-01-04 00:09:51.50	2.34	67.40	-63.2	-69.0	3.6	0.00e+00	0	65	104
2025-01-04 00:09:53.40	1.45	68.75	-63.2	-69.0	3.7	0.00e+00	0	66	104
2025-01-04 00:09:55.30	0.43	70.11	-63.2	-68.9	3.7	0.00e+00	0	66	104
2025-01-04 00:09:57.20	359.24	71.48	-63.2	-68.9	3.7	0.00e+00	0	66	104
2025-01-04 00:09:59.10	357.84	72.87	-63.2	-69.0	3.6	0.00e+00	0	66	104
2025-01-04 00:10:00.99	356.20	74.26	-63.2	-68.9	3.6	0.00e+00	0	66	104
2025-01-04 00:10:02.89	354.21	75.65	-63.3	-69.0	3.6	0.00e+00	0	66	104
2025-01-04 00:10:04.79	351.76	77.05	-63.3	-69.0	3.7	0.00e+00	0	66	104
2025-01-04 00:10:06.69	348.72	78.42	-63.3	-69.0	3.7	0.00e+00	0	66	104
2025-01-04 00:10:08.59	344.83	79.77	-63.3	-69.0	3.6	0.00e+00	0	66	104
2025-01-04 00:10:10.49	339.77	81.06	-63.3	-69.0	3.6	0.00e+00	0	66	104
2025-01-04 00:10:12.39	333.02	82.28	-63.4	-69.1	3.6	0.00e+00	0	66	104
2025-01-04 00:10:14.29	323.91	83.35	-63.3	-69.0	3.6	0.00e+00	0	66	104
2025-01-04 00:10:16.19	311.71	84.20	-63.3	-69.0	3.7	0.00e+00	0	66	104
2025-01-04 00:10:18.09	296.26	84.71	-63.3	-69.0	3.7	0.00e+00	0	66	104
2025-01-04 00:10:19.99	279.03	84.78	-63.3	-68.9	3.7	0.00e+00	0	66	104
2025-01-04 00:10:21.88	262.89	84.40	-63.3	-69.0	3.6	0.00e+00	0	66	104
2025-01-04 00:10:23.78	249.66	83.64	-63.3	-69.0	3.6	0.00e+00	0	66	104
2025-01-04 00:10:25.68	239.67	82.62	-63.3	-69.1	3.6	0.00e+00	0	67	104
2025-01-04 00:10:27.58	232.28	81.44	-63.3	-69.0	3.7	0.00e+00	0	67	104
2025-01-04 00:10:29.48	226.76	80.16	-63.3	-69.0	3.7	0.00e+00	0	67	104
2025-01-04 00:10:31.38	222.56	78.83	-63.3	-69.0	3.7	0.00e+00	0	67	104
2025-01-04 00:10:33.27	219.30	77.46	-63.3	-68.9	3.6	0.00e+00	0	67	104
2025-01-04 00:10:35.17	216.69	76.07	-63.2	-68.9	3.6	0.00e+00	0	67	104
2025-01-04 00:10:37.07	214.57	74.68	-63.3	-68.9	3.6	0.00e+00	0	67	104
2025-01-04 00:10:38.97	212.82	73.28	-63.2	-68.9	3.7	0.00e+00	0	67	104
2025-01-04 00:10:40.87	211.36	71.88	-63.2	-68.9	3.7	0.00e+00	0	67	104
2025-01-04 00:10:42.77	210.11	70.50	-63.3	-69.0	3.7	0.00e+00	0	67	104
2025-01-04 00:10:44.66	209.05	69.14	-63.3	-69.0	3.7	0.00e+00	0	67	104
2025-01-04 00:10:46.56	208.12	67.78	-63.2	-68.9	3.6	0.00e+00	0	67	104
2025-01-04 00:10:48.46	207.31	66.44	-63.2	-68.9	3.6	0.00e+00	0	67	104
2025-01-04 00:10:50.35	206.60	65.13	-63.3	-69.1	3.6	0.00e+00	0	67	104
2025-01-04 00:10:52.25	205.96	63.84	-63.3	-69.0	3.7	0.00e+00	0	67	104
2025-01-04 00:10:54.15	205.39	62.56	-63.3	-69.0	3.7	0.00e+00	0	67	104
2025-01-04 00:10:56.05	204.88	61.31	-63.2	-69.0	3.7	0.00e+00	0	67	104
2025-01-04 00:10:57.95	204.42	60.08	-63.2	-68.9	3.6	0.00e+00	0	67	104
2025-01-04 00:10:59.85	204.00	58.87	-63.2	-69.0	3.6	0.00e+00	0	67	104
2025-01-04 00:11:01.75	203.62	57.69	-63.3	-69.0	3.6	0.00e+00	0	67	104
2025-01-04 00:11:03.65	203.27	56.53	-63.3	-69.0	3.7	0.00e+00	0	67	104
2025-01-04 00:11:05.55	202.95	55.40	-63.3	-69.0	3.7	0.00e+00	0	67	104
2025-01-04 00:11:07.45	202.65	54.29	-63.3	-68.9	3.7	0.00e+00	0	67	104
2025-01-04 00:11:09.34	202.38	53.21	-63.3	-69.1	3.6	0.00e+00	0	67	104
2025-01-04 00:11:11.24	202.13	52.15	-63.3	-69.0	3.6	0.00e+00	0	68	104
2025-01-04 00:11:13.14	201.90	51.12	-63.3	-69.0	3.6	0.00e+00	0	68	104
2025-01-04 00:11:15.04	201.68	50.11	-63.3	-69.0	3.7	0.00e+00	0	67	104
2025-01-04 00:11:16.94	201.47	49.12	-63.1	-68.8	3.7	0.00e+00	0	67	104
2025-01-04 00:11:18.84	201.28	48.15	-63.4	-69.2	3.6	0.00e+00	0	67	104
2025-01-04 00:11:20.74	201.11	47.21	-63.3	-69.0	3.6	0.00e+00	0	68	104
2025-01-04 00:11:22.64	200.94	46.29	-63.2	-69.0	3.6	0.00e+00	0	68	104
2025-01-04 00:11:24.54	200.78	45.40	-63.3	-69.1	3.6	0.00e+00	0	68	104
2025-01-04 00:11:26.44	200.63	44.52	-63.2	-69.0	3.7	0.00e+00	0	68	104
2025-01-04 00:11:28.34	200.49	43.66	-63.3	-69.1	3.7	0.00e+00	0	68	104
2025-01-04 00:11:30.23	200.36	42.83	-63.3	-69.0	3.7	0.00e+00	0	68	104
2025-01-04 00:11:32.13	200.24	42.02	-63.3	-69.1	3.6	0.00e+00	0	68	104
2025-01-04 00:11:34.03	200.12	41.22	-63.2	-69.0	3.6	0.00e+00	0	68	104
2025-01-04 00:11:35.93	200.00	40.45	-63.1	-68.9	3.6	0.00e+00	0	68	104
2025-01-04 00:11:37.83	199.90	39.69	-63.2	-69.0	3.7	0.00e+00	0	68	104
2025-01-04 00:11:39.73	199.80	38.95	-63.2	-68.9	3.7	0.00e+00	0	68	104
2025-01-04 00:11:41.63	199.70	38.23	-63.2	-69.0	3.6	0.00e+00	0	68	104
2025-01-04 00:11:43.53	199.61	37.52	-63.3	-69.1	3.6	0.00e+00	0	68	104
2025-01-04 00:11:45.43	199.52	36.83	-63.3	-69.1	3.6	0.00e+00	0	68	104
2025-01-04 00:11:47.33	199.44	36.16	-63.4	-69.1	3.6	0.00e+00	0	68	104
2025-01-04 00:11:49.23	199.36	35.50	-63.3	-69.1	3.7	0.00e+00	0	68	104
2025-01-04 00:11:51.12	199.28	34.86	-63.2	-68.9	3.7	0.00e+00	0	68	104
2025-01-04 00:11:53.02	199.21	34.24	-63.3	-69.0	3.7	0.00e+00	0	68	104
2025-01-04 00:11:54.92	199.14	33.62	-63.3	-69.1	3.6	0.00e+00	0	68	104
2025-01-04 00:11:56.82	199.07	33.02	-63.2	-69.0	3.6	0.00e+00	0	68	104
2025-01-04 00:11:58.72	199.01	32.44	-63.2	-68.9	3.6	0.00e+00	0	68	104
2025-01-04 00:12:00.61	198.95	31.87	-63.1	-68.8	3.7	0.00e+00	0	68	104
2025-01-04 00:12:02.51	198.89	31.31	-63.1	-68.9	3.7	0.00e+00	0	68	104
2025-01-04 00:12:04.41	198.83	30.76	-63.2	-68.9	3.6	0.00e+00	0	68	104
2025-01-04 00:12:06.31	198.77	30.22	-63.2	-68.9	3.7	0.00e+00	0	68	104
2025-01-04 00:12:08.21	198.72	29.70	-63.2	-69.0	3.6	0.00e+00	0	68	104
2025-01-04 00:12:10.11	198.67	29.18	-63.2	-69.0	3.6	0.00e+00	0	68	104
2025-01-04 00:12:12.01	198.62	28.68	-63.4	-69.1	3.7	0.00e+00	0	68	104
2025-01-04 00:12:13.90	198.58	28.19	-63.3	-69.1	3.6	0.00e+00	0	68	104
2025-01-04 00:12:15.80	198.53	27.71	-63.3	-69.0	3.7	0.00e+00	0	68	104
2025-01-04 00:12:17.69	198.49	27.24	-63.3	-68.9	3.6	0.00e+00	0	68	104
2025-01-04 00:12:19.59	198.45	26.77	-63.4	-69.1	3.6	0.00e+00	0	69	104
2025-01-04 00:12:21.49	198.40	26.32	-63.4	-69.1	3.6	0.00e+00	0	69	104
2025-01-04 00:12:23.39	198.37	25.87	-63.2	-68.9	3.7	0.00e+00	0	68	104
2025-01-04 00:12:25.29	198.33	25.44	-63.3	-69.1	3.7	0.00e+00	0	68	104
2025-01-04 00:12:27.19	198.29	25.01	-63.3	-69.0	3.7	0.00e+00	0	69	104
2025-01-04 00:12:29.09	198.26	24.59	-63.3	-69.0	3.6	0.00e+00	0	69	104
2025-01-04 00:12:30.99	198.22	24.17	-63.3	-69.0	3.6	0.00e+00	0	69	104
2025-01-04 00:12:32.89	198.19	23.77	-63.3	-69.0	3.6	0.00e+00	0	69	104
2025-01-04 00:12:34.79	198.16	23.37	-63.3	-69.0	3.7	0.00e+00	0	69	104
2025-01-04 00:12:36.69	198.13	22.98	-63.4	-69.1	3.7	0.00e+00	0	68	104
2025-01-04 00:12:38.58	198.10	22.60	-63.3	-69.0	3.7	0.00e+00	0	69	104
2025-01-04 00:12:40.48	198.07	22.23	-63.2	-68.9	3.6	0.00e+00	0	69	104
2025-01-04 00:12:42.38	198.04	21.86	-63.3	-69.0	3.6	0.00e+00	0	68	104
2025-01-04 00:12:44.28	198.01	21.50	-63.3	-69.0	3.6	0.00e+00	0	69	104
2025-01-04 00:12:46.18	197.99	21.14	-63.3	-69.1	3.7	0.00e+00	0	69	104
2025-01-04 00:12:48.08	197.96	20.79	-63.3	-69.1	3.7	0.00e+00	0	69	104
2025-01-04 00:12:49.98	197.93	20.44	-63.3	-68.9	3.6	0.00e+00	0	69	104
2025-01-04 00:12:51.88	197.91	20.11	-63.3	-69.1	3.6	0.00e+00	0	69	104
2025-01-04 00:12:53.78	197.89	19.77	-63.3	-69.1	3.6	0.00e+00	0	69	104
2025-01-04 00:12:55.68	197.86	19.44	-63.3	-69.0	3.6	0.00e+00	0	69	104
2025-01-04 00:12:57.58	197.84	19.12	-63.2	-69.0	3.7	0.00e+00	0	69	104
2025-01-04 00:12:59.48	197.82	18.80	-63.3	-69.0	3.7	0.00e+00	0	69	104
2025-01-04 00:13:01.37	197.80	18.49	-63.3	-69.0	3.7	0.00e+00	0	69	104
2025-01-04 00:13:03.27	197.78	18.19	-63.3	-69.0	3.6	0.00e+00	0	69	104
2025-01-04 00:13:05.17	197.76	17.88	-63.3	-69.0	3.6	0.00e+00	0	69	104
2025-01-04 00:13:07.07	197.74	17.59	-63.3	-69.0	3.6	0.00e+00	0	69	104
2025-01-04 00:13:08.97	197.72	17.29	-63.3	-69.0	3.7	0.00e+00	0	69	104
2025-01-04 00:13:10.86	197.71	17.00	-63.3	-68.9	3.7	0.00e+00	0	69	104
2025-01-04 00:13:12.76	197.69	16.72	-63.3	-69.0	3.7	0.00e+00	0	69	104
2025-01-04 00:13:14.66	197.67	16.44	-63.4	-69.1	3.6	0.00e+00	0	69	104
2025-01-04 00:13:16.56	197.66	16.16	-63.4	-69.0	3.6	0.00e+00	0	69	104
2025-01-04 00:13:18.46	197.64	15.89	-63.3	-69.0	3.6	0.00e+00	0	69	104
2025-01-04 00:13:20.36	197.62	15.62	-63.3	-69.1	3.6	0.00e+00	0	69	104
2025-01-04 00:13:22.26	197.61	15.35	-63.3	-69.0	3.7	0.00e+00	0	69	104
2025-01-04 00:13:24.15	197.59	15.09	-63.3	-69.0	3.7	0.00e+00	0	69	104
2025-01-04 00:13:26.05	197.58	14.84	-63.3	-69.0	3.7	0.00e+00	0	69	104
2025-01-04 00:13:27.94	197.57	14.58	-63.3	-69.1	3.6	0.00e+00	0	69	104
2025-01-04 00:13:29.84	197.55	14.33	-63.3	-69.1	3.6	0.00e+00	0	69	104
2025-01-04 00:13:31.74	197.54	14.08	-63.3	-69.1	3.6	0.00e+00	0	69	104
2025-01-04 00:13:33.64	197.53	13.84	-63.3	-69.1	3.7	0.00e+00	0	69	104
2025-01-04 00:13:35.54	197.51	13.60	-63.3	-69.0	3.7	0.00e+00	0	69	104
2025-01-04 00:13:37.44	197.50	13.36	-63.3	-69.0	3.7	0.00e+00	0	69	104
2025-01-04 00:13:39.34	197.49	13.12	-63.3	-69.1	3.6	0.00e+00	0	69	104
2025-01-04 00:13:41.24	197.48	12.89	-63.3	-69.1	3.6	0.00e+00	0	69	104
2025-01-04 00:13:43.14	197.47	12.66	-63.3	-69.1	3.6	0.00e+00	0	69	104
2025-01-04 00:13:45.03	197.46	12.43	-63.3	-69.0	3.7	0.00e+00	0	69	104
2025-01-04 00:13:46.93	197.45	12.21	-63.3	-68.9	3.7	0.00e+00	0	69	104
2025-01-04 00:13:48.83	197.44	11.99	-63.3	-69.1	3.7	0.00e+00	0	69	104
2025-01-04 00:13:50.72	197.43	11.77	-63.4	-69.2	3.6	0.00e+00	0	69	104
2025-01-04 00:13:52.62	197.42	11.55	-63.3	-68.9	3.6	0.00e+00	0	70	104
2025-01-04 00:13:54.52	197.41	11.34	-63.3	-69.0	3.6	0.00e+00	0	70	104
2025-01-04 00:13:56.42	197.40	11.13	-63.2	-68.9	3.6	0.00e+00	0	69	104
2025-01-04 00:13:58.32	197.39	10.92	-63.3	-69.0	3.7	0.00e+00	0	69	104
2025-01-04 00:14:00.22	197.38	10.71	-63.3	-69.0	3.6	0.00e+00	0	69	104
2025-01-04 00:14:02.12	197.37	10.50	-63.4	-69.1	3.6	0.00e+00	0	69	104
2025-01-04 00:14:04.02	197.36	10.30	-63.4	-69.1	3.6	0.00e+00	0	70	104
2025-01-04 00:14:05.92	197.35	10.10	-63.3	-69.0	3.6	0.00e+00	0	69	104
2025-01-04 00:14:07.82	197.35	9.90	-63.3	-69.0	3.7	0.00e+00	0	69	104
2025-01-04 00:14:09.72	197.34	9.71	-63.3	-69.0	3.7	0.00e+00	0	70	104
2025-01-04 00:14:11.61	197.33	9.51	-63.3	-69.0	3.7	0.00e+00	0	70	104
2025-01-04 00:14:13.51	197.32	9.32	-63.4	-69.1	3.6	0.00e+00	0	70	104
2025-01-04 00:14:15.41	197.32	9.13	-63.3	-69.0	3.6	0.00e+00	0	70	104
2025-01-04 00:14:17.31	197.31	8.94	-63.2	-68.9	3.6	0.00e+00	0	70	104
2025-01-04 00:14:19.21	197.30	8.75	-63.4	-69.1	3.7	0.00e+00	0	70	104
2025-01-04 00:14:21.11	197.30	8.57	-63.3	-69.0	3.7	0.00e+00	0	70	104
2025-01-04 00:14:23.01	197.29	8.39	-63.3	-69.0	3.7	0.00e+00	0	70	104
2025-01-04 00:14:24.91	197.28	8.20	-63.3	-69.0	3.6	0.00e+00	0	70	104
2025-01-04 00:14:26.81	197.28	8.02	-63.3	-69.1	3.6	0.00e+00	0	70	104

#Closed at: 2025-01-04 00:14:27
#Recorded file [0 MB]: D:/data/31015_250104_120609.dat