passes_logs/2025/01/29/LEX_Murmansk/LEX_Murmansk__20250129_131044_NOAA_18_rec.log

#Pass ID: 20250129_131044_NOAA 18
#Satellite: NOAA 18
#Configuration: NOAA 18
#Start time: 2025-01-29 13:10:39.428568

#LorettStation: 1.0.0 05.05.2024
#Station: LEX_Murmansk
#Location: 33.156738 lon 68.926811 lat
#TLE: 1 28654U 05018A   25028.04589186  .00000422  00000+0  24750-3 0  9995
#TLE: 2 28654  98.8546 108.9697 0014880 143.3316 216.8878 14.13499339 15023

#Time	Az	El	Level	SNR
2025-01-29 13:10:51.576423	27.0	16.0	-91.1	6.0
2025-01-29 13:10:52.722091	26.8	16.1	-91.3	8.2
2025-01-29 13:10:53.867807	26.7	16.1	-91.2	5.3
2025-01-29 13:10:55.007554	26.5	16.2	-91.3	5.7
2025-01-29 13:10:56.156868	26.3	16.3	-91.3	6.8
2025-01-29 13:10:57.308839	26.1	16.4	-91.0	7.5
2025-01-29 13:10:58.456467	26.0	16.5	-91.5	4.3
2025-01-29 13:10:59.606139	25.8	16.6	-91.6	4.9
2025-01-29 13:11:00.748233	25.6	16.7	-91.3	4.7
2025-01-29 13:11:01.894961	25.4	16.8	-91.2	4.1
2025-01-29 13:11:03.025106	25.3	16.9	-91.2	5.4
2025-01-29 13:11:04.146024	25.1	17.0	-91.1	4.0
2025-01-29 13:11:05.267077	24.9	17.1	-90.9	2.8
2025-01-29 13:11:06.388245	24.7	17.2	-91.3	4.9
2025-01-29 13:11:07.509317	24.6	17.2	-91.2	5.4
2025-01-29 13:11:08.631318	24.4	17.3	-91.1	4.6
2025-01-29 13:11:09.752052	24.2	17.4	-91.4	10.2
2025-01-29 13:11:10.872293	24.0	17.5	-91.2	7.7
2025-01-29 13:11:11.995410	23.8	17.6	-91.6	10.8
2025-01-29 13:11:13.115585	23.6	17.7	-91.0	11.7
2025-01-29 13:11:14.263982	23.5	17.8	-91.3	9.5
2025-01-29 13:11:15.402705	23.3	17.9	-91.6	11.5
2025-01-29 13:11:16.549136	23.1	18.0	-91.4	9.7
2025-01-29 13:11:17.686023	22.9	18.1	-91.5	11.6
2025-01-29 13:11:18.841073	22.7	18.2	-90.3	10.4
2025-01-29 13:11:19.986425	22.5	18.2	-90.3	7.7
2025-01-29 13:11:21.130016	22.3	18.3	-90.0	10.3
2025-01-29 13:11:22.279346	22.1	18.4	-90.1	9.9
2025-01-29 13:11:23.422846	21.9	18.5	-90.3	8.0
2025-01-29 13:11:24.569129	21.7	18.6	-90.3	6.3
2025-01-29 13:11:25.714910	21.5	18.7	-90.1	8.8
2025-01-29 13:11:26.859504	21.3	18.8	-91.7	9.3
2025-01-29 13:11:28.004944	21.1	18.9	-91.7	5.7
2025-01-29 13:11:29.151866	20.9	19.0	-91.3	11.8
2025-01-29 13:11:30.302162	20.7	19.1	-91.3	11.6
2025-01-29 13:11:31.451484	20.5	19.2	-91.8	5.8
2025-01-29 13:11:32.601720	20.2	19.3	-91.7	10.5
2025-01-29 13:11:33.746958	20.0	19.4	-91.6	13.0
2025-01-29 13:11:34.891715	19.8	19.5	-91.8	12.0
2025-01-29 13:11:36.035869	19.6	19.5	-91.8	12.4
2025-01-29 13:11:37.179502	19.4	19.6	-91.1	14.6
2025-01-29 13:11:38.326919	19.2	19.7	-91.3	10.7
2025-01-29 13:11:39.475584	19.0	19.8	-91.8	6.5
2025-01-29 13:11:40.620316	18.7	19.9	-91.4	11.9
2025-01-29 13:11:41.767633	18.5	20.0	-91.7	13.0
2025-01-29 13:11:42.915554	18.3	20.1	-91.8	12.1
2025-01-29 13:11:44.061804	18.1	20.2	-91.3	10.9
2025-01-29 13:11:45.206753	17.9	20.3	-91.3	11.9
2025-01-29 13:11:46.355773	17.6	20.4	-91.6	10.2
2025-01-29 13:11:47.505011	17.4	20.5	-91.2	9.4
2025-01-29 13:11:48.652178	17.2	20.5	-91.6	10.1
2025-01-29 13:11:49.803525	16.9	20.6	-91.7	11.1
2025-01-29 13:11:50.956238	16.7	20.7	-91.9	5.0
2025-01-29 13:11:52.102680	16.5	20.8	-91.3	7.3
2025-01-29 13:11:53.252954	16.2	20.9	-91.5	10.7
2025-01-29 13:11:54.403350	16.0	21.0	-91.7	7.6
2025-01-29 13:11:55.556980	15.8	21.1	-91.9	9.9
2025-01-29 13:11:56.713852	15.5	21.2	-92.1	9.6
2025-01-29 13:11:57.857181	15.3	21.3	-91.6	10.6
2025-01-29 13:11:59.001862	15.0	21.4	-91.8	11.1
2025-01-29 13:12:00.150612	14.8	21.4	-91.5	10.3
2025-01-29 13:12:01.293276	14.6	21.5	-91.5	11.9
2025-01-29 13:12:02.440359	14.3	21.6	-91.8	9.0
2025-01-29 13:12:03.588211	14.1	21.7	-91.5	8.4
2025-01-29 13:12:04.742133	13.8	21.8	-90.1	11.7
2025-01-29 13:12:05.881286	13.6	21.9	-90.7	9.6
2025-01-29 13:12:07.030653	13.3	22.0	-90.8	10.3
2025-01-29 13:12:08.181825	13.1	22.1	-90.4	11.5
2025-01-29 13:12:09.329973	12.8	22.1	-90.2	9.8
2025-01-29 13:12:10.473176	12.6	22.2	-90.8	11.1
2025-01-29 13:12:11.626406	12.3	22.3	-91.9	12.2
2025-01-29 13:12:12.783904	12.0	22.4	-92.0	14.6
2025-01-29 13:12:13.929908	11.8	22.5	-91.8	7.8
2025-01-29 13:12:15.076798	11.5	22.6	-91.7	8.0
2025-01-29 13:12:16.224614	11.3	22.7	-91.6	13.4
2025-01-29 13:12:17.374053	11.0	22.7	-91.4	8.6
2025-01-29 13:12:18.528645	10.7	22.8	-91.6	8.9
2025-01-29 13:12:19.681182	10.5	22.9	-91.7	13.7
2025-01-29 13:12:20.832090	10.2	23.0	-92.1	16.4
2025-01-29 13:12:21.977457	9.9	23.1	-91.9	18.1
2025-01-29 13:12:23.126680	9.6	23.2	-91.5	16.6
2025-01-29 13:12:24.278026	9.4	23.2	-91.7	15.6
2025-01-29 13:12:25.424439	9.1	23.3	-91.9	16.5
2025-01-29 13:12:26.587857	8.8	23.4	-92.1	14.6
2025-01-29 13:12:27.735897	8.5	23.5	-90.7	15.9
2025-01-29 13:12:28.887111	8.3	23.6	-90.2	10.5
2025-01-29 13:12:30.037947	8.0	23.6	-90.4	12.3
2025-01-29 13:12:31.186789	7.7	23.7	-90.4	15.4
2025-01-29 13:12:32.335692	7.4	23.8	-90.3	15.3
2025-01-29 13:12:33.482506	7.1	23.9	-90.4	14.9
2025-01-29 13:12:34.635911	6.8	24.0	-90.4	15.5
2025-01-29 13:12:35.784175	6.6	24.0	-91.7	17.4
2025-01-29 13:12:36.930684	6.3	24.1	-92.2	15.4
2025-01-29 13:12:38.079025	6.0	24.2	-91.5	13.4
2025-01-29 13:12:39.226094	5.7	24.3	-91.6	12.3
2025-01-29 13:12:40.378978	5.4	24.3	-92.0	11.4
2025-01-29 13:12:41.529915	5.1	24.4	-91.8	8.5
2025-01-29 13:12:42.680231	4.8	24.5	-91.8	15.3
2025-01-29 13:12:43.830359	4.5	24.5	-92.0	15.0
2025-01-29 13:12:44.979036	4.2	24.6	-91.9	7.3
2025-01-29 13:12:46.121799	3.9	24.7	-91.4	12.3
2025-01-29 13:12:47.267821	3.6	24.8	-91.6	15.0
2025-01-29 13:12:48.425647	3.3	24.8	-90.0	9.5
2025-01-29 13:12:49.577837	3.0	24.9	-90.1	9.3
2025-01-29 13:12:50.726732	2.7	25.0	-90.8	13.6
2025-01-29 13:12:51.880314	2.4	25.0	-90.2	10.8
2025-01-29 13:12:53.031592	2.1	25.1	-90.5	11.7
2025-01-29 13:12:54.178166	1.8	25.2	-90.1	13.2
2025-01-29 13:12:55.324669	1.5	25.2	-89.7	13.8
2025-01-29 13:12:56.472741	1.1	25.3	-90.1	11.4
2025-01-29 13:12:57.625245	0.8	25.4	-90.3	14.4
2025-01-29 13:12:58.780529	0.5	25.4	-90.3	15.4
2025-01-29 13:12:59.935066	0.2	25.5	-91.7	11.3
2025-01-29 13:13:01.068400	359.9	25.5	-91.1	9.9
2025-01-29 13:13:02.216059	359.6	25.6	-91.6	15.9
2025-01-29 13:13:03.356741	359.3	25.7	-90.0	11.6
2025-01-29 13:13:04.505235	358.9	25.7	-90.3	10.6
2025-01-29 13:13:05.650539	358.6	25.8	-90.3	12.6
2025-01-29 13:13:06.796379	358.3	25.8	-90.7	14.6
2025-01-29 13:13:07.944996	358.0	25.9	-91.0	13.6
2025-01-29 13:13:09.093345	357.6	25.9	-90.3	12.1
2025-01-29 13:13:10.247099	357.3	26.0	-91.6	15.1
2025-01-29 13:13:11.384911	357.0	26.1	-91.4	13.4
2025-01-29 13:13:12.540549	356.7	26.1	-92.0	11.8
2025-01-29 13:13:13.687003	356.3	26.2	-92.1	14.5
2025-01-29 13:13:14.831726	356.0	26.2	-91.4	11.2
2025-01-29 13:13:15.977625	355.7	26.3	-91.6	8.1
2025-01-29 13:13:17.125093	355.3	26.3	-91.8	9.5
2025-01-29 13:13:18.277675	355.0	26.4	-90.3	11.0
2025-01-29 13:13:19.425715	354.7	26.4	-90.6	8.5
2025-01-29 13:13:20.574640	354.3	26.4	-90.7	8.1
2025-01-29 13:13:21.724107	354.0	26.5	-90.6	12.1
2025-01-29 13:13:22.866047	353.7	26.5	-90.2	9.3
2025-01-29 13:13:24.013207	353.3	26.6	-89.8	10.1
2025-01-29 13:13:25.158851	353.0	26.6	-91.7	14.6
2025-01-29 13:13:26.304346	352.6	26.7	-91.4	11.7
2025-01-29 13:13:27.454330	352.3	26.7	-91.8	11.2
2025-01-29 13:13:28.599284	352.0	26.7	-91.8	13.5
2025-01-29 13:13:29.753264	351.6	26.8	-92.0	13.0
2025-01-29 13:13:30.896325	351.3	26.8	-91.6	12.4
2025-01-29 13:13:32.048194	350.9	26.8	-91.3	12.4
2025-01-29 13:13:33.193777	350.6	26.9	-91.6	14.5
2025-01-29 13:13:34.345478	350.2	26.9	-91.4	12.9
2025-01-29 13:13:35.497152	349.9	26.9	-91.6	10.2
2025-01-29 13:13:36.641900	349.5	27.0	-92.1	14.6
2025-01-29 13:13:37.791366	349.2	27.0	-91.9	13.4
2025-01-29 13:13:38.935679	348.8	27.0	-91.9	8.4
2025-01-29 13:13:40.087201	348.5	27.1	-91.5	8.6
2025-01-29 13:13:41.235090	348.1	27.1	-91.8	11.9
2025-01-29 13:13:42.389329	347.8	27.1	-92.0	9.0
2025-01-29 13:13:43.541515	347.4	27.1	-91.7	6.0
2025-01-29 13:13:44.691425	347.1	27.2	-91.8	10.4
2025-01-29 13:13:45.839797	346.7	27.2	-92.1	10.1
2025-01-29 13:13:46.983780	346.4	27.2	-92.0	8.9
2025-01-29 13:13:48.137092	346.0	27.2	-91.2	10.5
2025-01-29 13:13:49.281251	345.7	27.2	-91.6	13.4
2025-01-29 13:13:50.431539	345.3	27.3	-92.1	12.5
2025-01-29 13:13:51.587180	345.0	27.3	-91.6	15.0
2025-01-29 13:13:52.731199	344.6	27.3	-91.9	14.7
2025-01-29 13:13:53.875418	344.3	27.3	-92.0	13.9
2025-01-29 13:13:55.019274	343.9	27.3	-91.6	12.4
2025-01-29 13:13:56.167461	343.6	27.3	-91.5	11.6
2025-01-29 13:13:57.318102	343.2	27.3	-91.8	12.7
2025-01-29 13:13:58.471307	342.8	27.3	-91.8	11.6
2025-01-29 13:13:59.624260	342.5	27.3	-91.9	11.7
2025-01-29 13:14:00.762057	342.1	27.3	-91.8	9.9
2025-01-29 13:14:01.912607	341.8	27.3	-91.8	7.8
2025-01-29 13:14:03.057662	341.4	27.4	-91.9	5.9
2025-01-29 13:14:04.213185	341.1	27.4	-91.3	7.8
2025-01-29 13:14:05.368527	340.7	27.4	-91.5	7.0
2025-01-29 13:14:06.518421	340.3	27.4	-92.0	4.5
2025-01-29 13:14:07.667899	340.0	27.4	-92.0	10.2
2025-01-29 13:14:08.813641	339.6	27.3	-91.7	9.2
2025-01-29 13:14:09.965975	339.3	27.3	-92.0	5.0
2025-01-29 13:14:11.114492	338.9	27.3	-91.7	8.2
2025-01-29 13:14:12.276024	338.6	27.3	-91.8	7.8
2025-01-29 13:14:13.417663	338.2	27.3	-91.9	5.0
2025-01-29 13:14:14.567721	337.8	27.3	-92.0	5.7
2025-01-29 13:14:15.712816	337.5	27.3	-92.1	8.6
2025-01-29 13:14:16.864600	337.1	27.3	-92.1	6.0
2025-01-29 13:14:18.019646	336.8	27.3	-92.2	8.1
2025-01-29 13:14:19.165086	336.4	27.3	-91.1	10.0
2025-01-29 13:14:20.313376	336.1	27.2	-91.6	10.9
2025-01-29 13:14:21.466159	335.7	27.2	-92.0	8.3
2025-01-29 13:14:22.622961	335.4	27.2	-92.0	10.9
2025-01-29 13:14:23.775364	335.0	27.2	-91.7	11.1
2025-01-29 13:14:24.928854	334.7	27.2	-90.9	7.9
2025-01-29 13:14:26.075076	334.3	27.2	-90.0	8.0
2025-01-29 13:14:27.218085	333.9	27.1	-90.0	12.1
2025-01-29 13:14:28.373755	333.6	27.1	-89.9	9.8
2025-01-29 13:14:29.518087	333.2	27.1	-91.7	11.0
2025-01-29 13:14:30.665504	332.9	27.1	-91.9	11.8
2025-01-29 13:14:31.813088	332.5	27.0	-91.9	10.6
2025-01-29 13:14:32.968717	332.2	27.0	-91.5	7.5
2025-01-29 13:14:34.114378	331.8	27.0	-91.5	8.3
2025-01-29 13:14:35.259652	331.5	26.9	-91.8	10.2
2025-01-29 13:14:36.413847	331.2	26.9	-91.8	10.5
2025-01-29 13:14:37.561167	330.8	26.9	-91.6	12.7
2025-01-29 13:14:38.709329	330.5	26.8	-91.9	12.5
2025-01-29 13:14:39.855255	330.1	26.8	-92.0	13.2
2025-01-29 13:14:41.005529	329.8	26.8	-92.0	10.3
2025-01-29 13:14:42.151467	329.4	26.7	-91.4	9.2
2025-01-29 13:14:43.296066	329.1	26.7	-91.6	13.5
2025-01-29 13:14:44.443475	328.7	26.7	-92.1	11.2
2025-01-29 13:14:45.595327	328.4	26.6	-92.0	12.3
2025-01-29 13:14:46.739710	328.1	26.6	-92.1	12.8
2025-01-29 13:14:47.881017	327.7	26.5	-91.7	13.0
2025-01-29 13:14:49.038266	327.4	26.5	-91.7	15.0
2025-01-29 13:14:50.194728	327.0	26.4	-91.6	15.8
2025-01-29 13:14:51.354605	326.7	26.4	-91.7	13.4
2025-01-29 13:14:52.498605	326.4	26.3	-91.9	15.2
2025-01-29 13:14:53.643453	326.0	26.3	-91.8	15.2
2025-01-29 13:14:54.789257	325.7	26.3	-91.8	14.8
2025-01-29 13:14:55.931804	325.4	26.2	-92.1	14.3
2025-01-29 13:14:57.075179	325.0	26.2	-91.8	12.1
2025-01-29 13:14:58.229628	324.7	26.1	-91.7	12.3
2025-01-29 13:14:59.374519	324.4	26.0	-92.1	10.6
2025-01-29 13:15:00.512744	324.1	26.0	-91.9	13.0
2025-01-29 13:15:01.658644	323.7	25.9	-92.0	14.7
2025-01-29 13:15:02.806561	323.4	25.9	-92.0	14.7
2025-01-29 13:15:03.956658	323.1	25.8	-92.0	15.6
2025-01-29 13:15:05.101937	322.8	25.8	-91.7	13.9
2025-01-29 13:15:06.255013	322.4	25.7	-91.8	12.1
2025-01-29 13:15:07.398303	322.1	25.7	-92.3	12.8
2025-01-29 13:15:08.556259	321.8	25.6	-91.7	11.5
2025-01-29 13:15:09.712830	321.5	25.5	-91.6	11.4
2025-01-29 13:15:10.863145	321.2	25.5	-92.0	12.4
2025-01-29 13:15:12.015716	320.8	25.4	-92.1	13.2
2025-01-29 13:15:13.171860	320.5	25.3	-91.7	14.4
2025-01-29 13:15:14.313959	320.2	25.3	-91.5	15.9
2025-01-29 13:15:15.463104	319.9	25.2	-91.8	16.3
2025-01-29 13:15:16.607524	319.6	25.1	-92.0	14.8
2025-01-29 13:15:17.757057	319.3	25.1	-91.8	14.5
2025-01-29 13:15:18.905013	319.0	25.0	-92.1	13.5
2025-01-29 13:15:20.054959	318.7	24.9	-91.7	13.1
2025-01-29 13:15:21.211712	318.4	24.9	-91.5	12.6
2025-01-29 13:15:22.362467	318.1	24.8	-91.6	13.7
2025-01-29 13:15:23.514548	317.7	24.7	-91.6	11.9
2025-01-29 13:15:24.661029	317.4	24.7	-91.6	16.4
2025-01-29 13:15:25.809999	317.1	24.6	-91.9	13.8
2025-01-29 13:15:26.964956	316.8	24.5	-92.0	14.2
2025-01-29 13:15:28.116142	316.5	24.5	-88.9	11.1
2025-01-29 13:15:29.258003	316.3	24.4	-90.4	10.9
2025-01-29 13:15:30.406930	316.0	24.3	-90.8	10.0
2025-01-29 13:15:31.559177	315.7	24.2	-90.7	10.0
2025-01-29 13:15:32.702941	315.4	24.2	-90.1	12.3
2025-01-29 13:15:33.855016	315.1	24.1	-90.7	11.9
2025-01-29 13:15:35.017068	314.8	24.0	-91.4	9.1
2025-01-29 13:15:36.165427	314.5	23.9	-91.6	10.7
2025-01-29 13:15:37.314275	314.2	23.8	-91.5	13.1
2025-01-29 13:15:38.456062	313.9	23.8	-91.6	9.7
2025-01-29 13:15:39.603713	313.6	23.7	-91.9	13.5
2025-01-29 13:15:40.760363	313.4	23.6	-92.0	14.6
2025-01-29 13:15:41.915373	313.1	23.5	-91.6	4.8
2025-01-29 13:15:43.066815	312.8	23.5	-91.6	9.2
2025-01-29 13:15:44.219107	312.5	23.4	-91.3	11.1
2025-01-29 13:15:45.376271	312.2	23.3	-91.4	5.9
2025-01-29 13:15:46.529506	312.0	23.2	-91.3	7.3
2025-01-29 13:15:47.681192	311.7	23.1	-91.8	11.9
2025-01-29 13:15:48.829885	311.4	23.0	-91.5	10.2
2025-01-29 13:15:49.987394	311.1	23.0	-91.8	8.0
2025-01-29 13:15:51.136805	310.9	22.9	-91.1	12.3
2025-01-29 13:15:52.285315	310.6	22.8	-91.4	12.8
2025-01-29 13:15:53.436399	310.3	22.7	-91.7	6.6
2025-01-29 13:15:54.573431	310.1	22.6	-91.3	5.9
2025-01-29 13:15:55.714616	309.8	22.5	-91.5	10.5
2025-01-29 13:15:56.865389	309.6	22.5	-91.8	5.4
2025-01-29 13:15:58.013864	309.3	22.4	-91.7	7.5
2025-01-29 13:15:59.165854	309.0	22.3	-91.4	8.9
2025-01-29 13:16:00.309243	308.8	22.2	-91.3	11.4
2025-01-29 13:16:01.461079	308.5	22.1	-91.7	7.6
2025-01-29 13:16:02.608402	308.3	22.0	-91.8	11.9
2025-01-29 13:16:03.758946	308.0	21.9	-91.8	12.5
2025-01-29 13:16:04.906946	307.8	21.8	-92.1	14.4
2025-01-29 13:16:06.057483	307.5	21.8	-91.4	10.4
2025-01-29 13:16:07.206370	307.3	21.7	-91.1	10.3
2025-01-29 13:16:08.360808	307.0	21.6	-91.7	10.8
2025-01-29 13:16:09.521114	306.8	21.5	-91.9	11.1
2025-01-29 13:16:10.672594	306.5	21.4	-91.9	9.3
2025-01-29 13:16:11.829475	306.3	21.3	-92.0	8.7
2025-01-29 13:16:12.979588	306.0	21.2	-91.8	7.1
2025-01-29 13:16:14.127735	305.8	21.1	-91.5	9.2
2025-01-29 13:16:15.277567	305.6	21.0	-91.3	7.5
2025-01-29 13:16:16.426783	305.3	21.0	-91.6	5.5
2025-01-29 13:16:17.581908	305.1	20.9	-92.0	8.2
2025-01-29 13:16:18.730871	304.8	20.8	-90.9	9.6
2025-01-29 13:16:19.876940	304.6	20.7	-90.5	7.1
2025-01-29 13:16:21.024594	304.4	20.6	-91.0	6.0
2025-01-29 13:16:22.175078	304.1	20.5	-90.7	8.9
2025-01-29 13:16:23.322234	303.9	20.4	-90.8	6.9
2025-01-29 13:16:24.470590	303.7	20.3	-91.0	6.0
2025-01-29 13:16:25.624025	303.5	20.2	-92.1	8.5
2025-01-29 13:16:26.763894	303.2	20.1	-92.0	9.7
2025-01-29 13:16:27.907534	303.0	20.0	-92.3	6.1
2025-01-29 13:16:29.054155	302.8	20.0	-91.6	6.4
2025-01-29 13:16:30.214309	302.6	19.9	-91.8	9.5
2025-01-29 13:16:31.362121	302.3	19.8	-91.7	7.9
2025-01-29 13:16:32.507147	302.1	19.7	-92.0	8.6
2025-01-29 13:16:33.656923	301.9	19.6	-92.1	10.8
2025-01-29 13:16:34.805139	301.7	19.5	-91.9	10.8
2025-01-29 13:16:35.951807	301.5	19.4	-91.9	9.8
2025-01-29 13:16:37.095988	301.3	19.3	-91.8	12.0
2025-01-29 13:16:38.245182	301.1	19.2	-91.6	11.9
2025-01-29 13:16:39.401734	300.8	19.1	-91.6	12.2
2025-01-29 13:16:40.557981	300.6	19.0	-91.8	10.8
2025-01-29 13:16:41.706791	300.4	18.9	-91.7	9.8
2025-01-29 13:16:42.856481	300.2	18.8	-92.1	8.8
2025-01-29 13:16:44.003723	300.0	18.7	-92.2	9.5
2025-01-29 13:16:45.149574	299.8	18.7	-91.5	6.9
2025-01-29 13:16:46.295749	299.6	18.6	-91.5	8.3
2025-01-29 13:16:47.437584	299.4	18.5	-92.2	6.7
2025-01-29 13:16:48.578586	299.2	18.4	-92.0	7.4
2025-01-29 13:16:49.932583	299.0	18.3	-92.3	4.3
2025-01-29 13:16:51.070186	298.8	18.2	-91.6	5.9
2025-01-29 13:16:52.220830	298.6	18.1	-91.8	9.8
2025-01-29 13:16:53.369839	298.4	18.0	-91.7	5.5
2025-01-29 13:16:54.514232	298.2	17.9	-89.4	4.7
2025-01-29 13:16:55.961411	297.9	17.8	-92.1	8.7
2025-01-29 13:16:57.132528	297.7	17.7	-91.6	6.7
2025-01-29 13:16:58.290659	297.6	17.6	-91.4	9.4
2025-01-29 13:16:59.438407	297.4	17.5	-92.0	6.8
2025-01-29 13:17:00.587517	297.2	17.4	-92.2	6.2
2025-01-29 13:17:01.743704	297.0	17.3	-90.7	8.6
2025-01-29 13:17:02.886503	296.8	17.2	-91.1	7.5
2025-01-29 13:17:04.039958	296.6	17.1	-90.5	6.7
2025-01-29 13:17:05.188216	296.4	17.0	-90.7	7.4
2025-01-29 13:17:06.339406	296.2	16.9	-89.7	5.6
2025-01-29 13:17:07.483169	296.1	16.8	-90.7	4.8
2025-01-29 13:17:08.634065	295.9	16.7	-90.5	7.9
2025-01-29 13:17:09.786666	295.7	16.7	-90.5	6.8
2025-01-29 13:17:10.936614	295.5	16.6	-90.9	6.1
2025-01-29 13:17:12.079068	295.4	16.5	-90.3	6.7
2025-01-29 13:17:13.221774	295.2	16.4	-90.2	7.0
2025-01-29 13:17:14.368698	295.0	16.3	-90.2	7.3
2025-01-29 13:17:15.517974	294.8	16.2	-90.7	8.0
2025-01-29 13:17:16.659984	294.7	16.1	-92.2	8.7
2025-01-29 13:17:17.811051	294.5	16.0	-91.7	9.8
2025-01-29 13:17:18.957945	294.3	15.9	-92.0	6.2
2025-01-29 13:17:20.099141	294.1	15.8	-91.9	7.1
2025-01-29 13:17:21.239013	294.0	15.7	-91.6	9.3
2025-01-29 13:17:22.393101	293.8	15.6	-92.0	6.6
2025-01-29 13:17:23.543333	293.6	15.6	-92.0	10.0
2025-01-29 13:17:24.696375	293.5	15.5	-92.1	10.3
2025-01-29 13:17:25.844860	293.3	15.4	-91.6	9.6
2025-01-29 13:17:26.995109	293.2	15.3	-91.8	9.4
2025-01-29 13:17:28.138134	293.0	15.2	-91.5	8.5
2025-01-29 13:17:29.284887	292.8	15.1	-91.2	8.3
2025-01-29 13:17:30.429012	292.7	15.0	-91.8	5.3
2025-01-29 13:17:31.577412	292.5	14.9	-91.6	7.0
2025-01-29 13:17:32.725258	292.4	14.8	-91.7	7.7
2025-01-29 13:17:33.878694	292.2	14.7	-91.6	4.9
2025-01-29 13:17:35.025202	292.0	14.6	-91.9	5.5
2025-01-29 13:17:36.195114	291.9	14.5	-91.8	5.5
#Closed at: 2025-01-29 13:10:44.378419