passes_logs/2025/01/29/LEX_Murmansk/LEX_Murmansk__20250129_094917_NOAA_18_rec.log

#Pass ID: 20250129_094917_NOAA 18
#Satellite: NOAA 18
#Configuration: NOAA 18
#Start time: 2025-01-29 09:49:12.525228

#LorettStation: 1.0.0 05.05.2024
#Station: LEX_Murmansk
#Location: 33.156738 lon 68.926811 lat
#TLE: 1 28654U 05018A   25028.04589186  .00000422  00000+0  24750-3 0  9995
#TLE: 2 28654  98.8546 108.9697 0014880 143.3316 216.8878 14.13499339 15023

#Time	Az	El	Level	SNR
2025-01-29 09:49:28.692185	26.4	16.8	-91.7	9.0
2025-01-29 09:49:31.025045	26.4	17.0	-91.9	5.9
2025-01-29 09:49:33.359215	26.5	17.3	-91.2	6.8
2025-01-29 09:49:35.688842	26.5	17.6	-91.6	6.9
2025-01-29 09:49:38.022378	26.6	17.8	-92.0	9.3
2025-01-29 09:49:40.356797	26.6	18.1	-91.5	8.5
2025-01-29 09:49:42.685163	26.7	18.4	-92.3	11.8
2025-01-29 09:49:45.007696	26.8	18.7	-92.0	8.5
2025-01-29 09:49:47.337007	26.8	18.9	-91.6	7.0
2025-01-29 09:49:49.670974	26.9	19.2	-91.9	6.2
2025-01-29 09:49:52.005553	26.9	19.5	-91.9	6.9
2025-01-29 09:49:54.332101	27.0	19.8	-91.3	10.2
2025-01-29 09:49:56.658311	27.0	20.1	-91.7	12.9
2025-01-29 09:49:58.980935	27.1	20.4	-91.0	10.5
2025-01-29 09:50:01.295699	27.1	20.7	-90.1	11.2
2025-01-29 09:50:03.624478	27.2	21.0	-90.5	8.3
2025-01-29 09:50:05.948452	27.3	21.3	-90.0	9.1
2025-01-29 09:50:08.278295	27.3	21.7	-89.6	9.3
2025-01-29 09:50:10.604924	27.4	22.0	-91.7	11.4
2025-01-29 09:50:12.932324	27.5	22.3	-92.0	9.2
2025-01-29 09:50:15.250596	27.5	22.6	-91.8	11.3
2025-01-29 09:50:17.585834	27.6	23.0	-92.0	6.3
2025-01-29 09:50:19.913674	27.7	23.3	-91.8	6.3
2025-01-29 09:50:22.247342	27.7	23.7	-91.8	10.8
2025-01-29 09:50:24.579295	27.8	24.0	-92.1	14.5
2025-01-29 09:50:26.906828	27.9	24.3	-91.8	12.8
2025-01-29 09:50:29.240185	27.9	24.7	-91.4	12.3
2025-01-29 09:50:31.564473	28.0	25.1	-91.9	13.4
2025-01-29 09:50:33.897314	28.1	25.4	-92.1	8.2
2025-01-29 09:50:36.226540	28.2	25.8	-91.8	10.0
2025-01-29 09:50:38.552856	28.3	26.2	-91.8	10.5
2025-01-29 09:50:40.882265	28.3	26.6	-92.1	11.9
2025-01-29 09:50:43.207113	28.4	26.9	-91.4	9.8
2025-01-29 09:50:45.537322	28.5	27.3	-91.9	11.1
2025-01-29 09:50:47.876376	28.6	27.7	-92.2	14.1
2025-01-29 09:50:50.205353	28.7	28.1	-91.8	9.2
2025-01-29 09:50:52.532116	28.8	28.6	-92.1	4.2
2025-01-29 09:50:54.861499	28.9	29.0	-91.8	5.5
2025-01-29 09:50:57.194178	29.0	29.4	-91.5	6.9
2025-01-29 09:50:59.517755	29.1	29.8	-92.3	8.4
2025-01-29 09:51:01.858582	29.2	30.3	-92.1	7.0
2025-01-29 09:51:04.182934	29.3	30.7	-91.7	10.9
2025-01-29 09:51:06.518245	29.4	31.1	-92.2	8.7
2025-01-29 09:51:08.846504	29.5	31.6	-90.8	10.0
2025-01-29 09:51:11.179375	29.6	32.1	-90.9	10.7
2025-01-29 09:51:13.504007	29.7	32.5	-92.0	13.3
2025-01-29 09:51:15.831887	29.8	33.0	-92.0	15.1
2025-01-29 09:51:18.161219	29.9	33.5	-91.7	15.2
2025-01-29 09:51:20.481840	30.0	34.0	-91.8	12.9
2025-01-29 09:51:22.815347	30.2	34.5	-91.0	13.5
2025-01-29 09:51:25.136093	30.3	35.0	-90.9	12.8
2025-01-29 09:51:27.470943	30.4	35.5	-91.0	6.4
2025-01-29 09:51:29.799342	30.6	36.0	-91.9	14.2
2025-01-29 09:51:32.134928	30.7	36.6	-92.0	16.8
2025-01-29 09:51:34.459525	30.9	37.1	-92.0	12.9
2025-01-29 09:51:36.789348	31.0	37.6	-91.8	18.4
2025-01-29 09:51:39.116616	31.2	38.2	-91.7	15.9
2025-01-29 09:51:41.450760	31.3	38.8	-92.0	12.1
2025-01-29 09:51:43.782855	31.5	39.3	-91.7	16.4
2025-01-29 09:51:46.108621	31.7	39.9	-91.8	13.7
2025-01-29 09:51:48.437016	31.8	40.5	-91.7	16.0
2025-01-29 09:51:50.768664	32.0	41.1	-91.9	17.5
2025-01-29 09:51:53.097207	32.2	41.8	-91.7	12.9
2025-01-29 09:51:55.414591	32.4	42.4	-91.6	13.6
2025-01-29 09:51:57.743200	32.6	43.0	-92.2	16.2
2025-01-29 09:52:00.077840	32.8	43.7	-91.5	16.2
2025-01-29 09:52:02.400310	33.0	44.3	-91.7	9.1
2025-01-29 09:52:04.724287	33.3	45.0	-92.0	14.9
2025-01-29 09:52:07.047642	33.5	45.7	-91.8	14.0
2025-01-29 09:52:09.371777	33.8	46.4	-91.4	18.1
2025-01-29 09:52:11.703430	34.0	47.1	-92.2	14.6
2025-01-29 09:52:14.033289	34.3	47.8	-92.2	9.0
2025-01-29 09:52:16.359527	34.6	48.5	-91.7	12.2
2025-01-29 09:52:18.695656	34.9	49.2	-92.2	15.0
2025-01-29 09:52:21.024340	35.2	50.0	-92.3	8.4
2025-01-29 09:52:23.356492	35.5	50.7	-91.6	6.9
2025-01-29 09:52:25.682041	35.9	51.5	-91.7	12.9
2025-01-29 09:52:28.009412	36.2	52.3	-92.2	9.6
2025-01-29 09:52:30.342499	36.6	53.1	-91.0	13.5
2025-01-29 09:52:32.674679	37.0	53.9	-91.6	13.5
2025-01-29 09:52:34.999682	37.4	54.7	-92.3	9.6
2025-01-29 09:52:37.332912	37.9	55.5	-91.7	13.7
2025-01-29 09:52:39.671638	38.4	56.4	-92.1	13.8
2025-01-29 09:52:41.996460	38.9	57.2	-91.5	13.8
2025-01-29 09:52:44.327773	39.4	58.1	-91.5	5.3
2025-01-29 09:52:46.656481	40.0	59.0	-91.7	9.7
2025-01-29 09:52:48.987268	40.6	59.8	-92.2	6.1
2025-01-29 09:52:51.317249	41.3	60.7	-90.5	15.3
2025-01-29 09:52:53.655546	42.0	61.6	-90.6	16.3
2025-01-29 09:52:55.981828	42.7	62.6	-92.0	15.6
2025-01-29 09:52:58.312958	43.5	63.5	-91.5	16.8
2025-01-29 09:53:00.651474	44.4	64.4	-90.8	13.2
2025-01-29 09:53:02.985766	45.4	65.3	-91.1	9.5
2025-01-29 09:53:05.311228	46.4	66.3	-90.3	17.7
2025-01-29 09:53:07.640798	47.5	67.2	-91.9	19.6
2025-01-29 09:53:09.971780	48.8	68.1	-91.7	20.4
2025-01-29 09:53:12.296147	50.1	69.1	-91.5	15.0
2025-01-29 09:53:14.618153	51.6	70.0	-91.8	7.6
2025-01-29 09:53:16.943683	53.3	70.9	-91.6	4.8
2025-01-29 09:53:19.263880	55.1	71.9	-90.9	10.5
2025-01-29 09:53:21.596677	57.1	72.8	-92.5	10.1
2025-01-29 09:53:23.929469	59.4	73.7	-92.0	15.1
2025-01-29 09:53:26.254509	61.9	74.5	-91.2	19.0
2025-01-29 09:53:28.579180	64.8	75.4	-91.6	18.8
2025-01-29 09:53:30.908582	68.0	76.2	-91.8	18.2
2025-01-29 09:53:33.239676	71.6	77.0	-92.0	17.9
2025-01-29 09:53:35.570650	75.7	77.7	-92.0	18.0
2025-01-29 09:53:37.903368	80.3	78.4	-92.0	13.7
2025-01-29 09:53:40.231906	85.4	78.9	-91.5	24.1
2025-01-29 09:53:42.561719	91.0	79.4	-91.8	12.8
2025-01-29 09:53:44.891455	97.1	79.8	-91.9	15.7
2025-01-29 09:53:47.223295	103.6	80.1	-91.5	20.2
2025-01-29 09:53:49.558066	110.4	80.2	-91.8	19.5
2025-01-29 09:53:51.891819	117.2	80.2	-92.0	22.6
2025-01-29 09:53:54.218972	124.0	80.0	-92.0	24.1
2025-01-29 09:53:56.544274	130.4	79.8	-92.2	20.9
2025-01-29 09:53:58.880488	136.5	79.4	-92.1	26.9
2025-01-29 09:54:01.195796	142.0	78.9	-91.1	22.9
2025-01-29 09:54:03.527586	147.0	78.3	-92.1	21.2
2025-01-29 09:54:05.851682	151.5	77.6	-92.0	21.8
2025-01-29 09:54:08.184773	155.5	76.9	-89.7	19.3
2025-01-29 09:54:10.507524	159.1	76.1	-90.8	17.2
2025-01-29 09:54:12.834266	162.2	75.3	-91.9	20.6
2025-01-29 09:54:15.160681	165.0	74.4	-91.8	21.4
2025-01-29 09:54:17.507938	167.5	73.5	-91.6	16.7
2025-01-29 09:54:19.830855	169.8	72.6	-91.8	21.4
2025-01-29 09:54:22.157981	171.8	71.7	-92.1	19.2
2025-01-29 09:54:24.487812	173.6	70.8	-92.2	17.5
2025-01-29 09:54:26.810318	175.2	69.9	-91.7	18.4
2025-01-29 09:54:29.143122	176.7	68.9	-91.7	19.4
2025-01-29 09:54:31.476640	178.0	68.0	-92.0	16.8
2025-01-29 09:54:33.806904	179.2	67.0	-91.9	16.7
2025-01-29 09:54:36.132122	180.3	66.1	-91.7	16.8
2025-01-29 09:54:38.461195	181.4	65.1	-92.1	18.4
2025-01-29 09:54:40.799593	182.3	64.2	-92.3	11.2
2025-01-29 09:54:43.130719	183.2	63.3	-91.7	19.7
2025-01-29 09:54:45.462085	184.0	62.4	-92.3	20.6
2025-01-29 09:54:47.796467	184.7	61.5	-91.1	18.7
2025-01-29 09:54:50.119160	185.4	60.6	-91.9	19.3
2025-01-29 09:54:52.446894	186.1	59.7	-92.2	15.6
2025-01-29 09:54:54.776749	186.7	58.8	-92.0	17.5
2025-01-29 09:54:57.111706	187.3	57.9	-92.1	11.3
2025-01-29 09:54:59.439955	187.8	57.0	-92.4	8.8
2025-01-29 09:55:01.768635	188.3	56.2	-92.3	16.1
2025-01-29 09:55:04.114355	188.8	55.3	-92.0	15.4
2025-01-29 09:55:06.442166	189.2	54.5	-92.1	7.1
2025-01-29 09:55:08.775898	189.6	53.7	-91.9	13.4
2025-01-29 09:55:11.100296	190.0	52.9	-91.5	12.5
2025-01-29 09:55:13.432943	190.4	52.1	-91.0	12.3
2025-01-29 09:55:15.759191	190.8	51.3	-90.5	15.8
2025-01-29 09:55:18.079348	191.1	50.5	-92.2	15.1
2025-01-29 09:55:20.410748	191.4	49.8	-91.8	14.8
2025-01-29 09:55:22.741729	191.7	49.0	-92.1	15.9
2025-01-29 09:55:25.054619	192.0	48.3	-92.0	13.5
2025-01-29 09:55:27.378481	192.3	47.6	-92.0	12.0
2025-01-29 09:55:29.709781	192.6	46.9	-92.0	18.8
2025-01-29 09:55:32.036289	192.9	46.2	-92.1	15.2
2025-01-29 09:55:34.364896	193.1	45.5	-91.5	18.0
2025-01-29 09:55:36.694934	193.3	44.8	-92.2	17.8
2025-01-29 09:55:39.024545	193.6	44.1	-92.3	18.9
2025-01-29 09:55:41.353703	193.8	43.4	-91.9	17.6
2025-01-29 09:55:43.685138	194.0	42.8	-92.3	20.9
2025-01-29 09:55:45.999399	194.2	42.2	-92.3	11.4
2025-01-29 09:55:48.336614	194.4	41.5	-91.9	11.5
2025-01-29 09:55:50.665728	194.6	40.9	-92.0	13.5
2025-01-29 09:55:52.983616	194.8	40.3	-91.9	7.8
2025-01-29 09:55:55.314030	194.9	39.7	-91.9	15.6
2025-01-29 09:55:57.642500	195.1	39.1	-92.2	14.9
2025-01-29 09:55:59.975775	195.3	38.6	-92.1	15.2
2025-01-29 09:56:02.301049	195.4	38.0	-92.2	14.7
2025-01-29 09:56:04.631849	195.6	37.4	-92.2	14.7
2025-01-29 09:56:06.953289	195.7	36.9	-91.4	9.7
2025-01-29 09:56:09.276452	195.9	36.3	-91.1	12.4
2025-01-29 09:56:11.599299	196.0	35.8	-91.0	11.1
2025-01-29 09:56:13.938622	196.2	35.3	-92.4	11.7
2025-01-29 09:56:16.264443	196.3	34.8	-92.2	14.8
2025-01-29 09:56:18.595577	196.4	34.3	-92.2	9.7
2025-01-29 09:56:20.936007	196.5	33.7	-92.3	6.2
2025-01-29 09:56:23.264361	196.7	33.3	-92.0	8.0
2025-01-29 09:56:25.584981	196.8	32.8	-92.1	8.1
2025-01-29 09:56:27.921369	196.9	32.3	-92.1	8.7
2025-01-29 09:56:30.265609	197.0	31.8	-92.0	8.9
2025-01-29 09:56:32.592081	197.1	31.4	-92.3	5.2
2025-01-29 09:56:34.917916	197.2	30.9	-91.5	5.1
2025-01-29 09:56:37.241378	197.3	30.5	-92.3	7.1
2025-01-29 09:56:39.563935	197.4	30.0	-92.1	6.2
2025-01-29 09:56:41.883765	197.5	29.6	-92.5	6.4
2025-01-29 09:56:44.213008	197.6	29.2	-91.9	8.2
2025-01-29 09:56:46.539226	197.7	28.7	-91.8	9.7
2025-01-29 09:56:48.863813	197.8	28.3	-92.4	7.6
2025-01-29 09:56:51.192196	197.9	27.9	-91.5	6.1
2025-01-29 09:56:53.514324	198.0	27.5	-92.4	7.3
2025-01-29 09:56:55.846444	198.1	27.1	-92.1	7.0
2025-01-29 09:56:58.171951	198.1	26.7	-91.9	8.9
2025-01-29 09:57:00.492943	198.2	26.3	-92.0	8.4
2025-01-29 09:57:02.807388	198.3	25.9	-92.2	10.7
2025-01-29 09:57:05.133916	198.4	25.6	-91.9	9.4
2025-01-29 09:57:07.455940	198.5	25.2	-92.1	9.8
2025-01-29 09:57:09.787615	198.5	24.8	-91.7	11.1
2025-01-29 09:57:12.110441	198.6	24.5	-90.6	11.9
2025-01-29 09:57:14.436763	198.7	24.1	-90.0	10.9
2025-01-29 09:57:16.756284	198.8	23.8	-91.9	12.8
2025-01-29 09:57:19.085305	198.8	23.4	-92.1	12.7
2025-01-29 09:57:21.416547	198.9	23.1	-92.1	7.0
2025-01-29 09:57:23.749562	199.0	22.7	-92.0	10.7
2025-01-29 09:57:26.069751	199.0	22.4	-91.7	8.4
2025-01-29 09:57:28.397949	199.1	22.1	-91.6	10.8
2025-01-29 09:57:30.730470	199.2	21.7	-92.1	12.3
2025-01-29 09:57:33.056543	199.2	21.4	-91.8	10.3
2025-01-29 09:57:35.387374	199.3	21.1	-91.7	8.2
2025-01-29 09:57:37.718450	199.3	20.8	-92.5	9.4
2025-01-29 09:57:40.052943	199.4	20.5	-91.7	8.6
2025-01-29 09:57:42.376205	199.5	20.2	-91.4	10.1
2025-01-29 09:57:44.704138	199.5	19.9	-92.1	6.7
2025-01-29 09:57:47.027064	199.6	19.6	-91.7	5.2
2025-01-29 09:57:49.352217	199.6	19.3	-91.7	4.9
2025-01-29 09:57:51.679332	199.7	19.0	-91.9	7.2
2025-01-29 09:57:54.012508	199.7	18.7	-91.9	5.1
2025-01-29 09:57:56.334329	199.8	18.4	-91.4	8.1
2025-01-29 09:57:58.664351	199.8	18.1	-92.0	9.2
2025-01-29 09:58:00.989892	199.9	17.9	-91.8	5.6
2025-01-29 09:58:03.325687	199.9	17.6	-91.3	5.8
2025-01-29 09:58:05.658777	200.0	17.3	-92.1	6.6
2025-01-29 09:58:07.987936	200.0	17.0	-91.8	6.1
2025-01-29 09:58:10.313407	200.1	16.8	-91.7	4.2
2025-01-29 09:58:12.638839	200.1	16.5	-92.2	5.0
2025-01-29 09:58:14.965048	200.2	16.2	-92.4	4.9
2025-01-29 09:58:17.285555	200.2	16.0	-90.7	5.0
2025-01-29 09:58:19.616984	200.3	15.7	-91.0	6.5
2025-01-29 09:58:21.945625	200.3	15.5	-92.1	5.1
2025-01-29 09:58:24.272208	200.4	15.2	-91.6	5.5
2025-01-29 09:58:26.589742	200.4	15.0	-92.0	7.5
2025-01-29 09:58:28.916516	200.4	14.7	-92.4	6.1
2025-01-29 09:58:31.253292	200.5	14.5	-91.9	5.3
#Closed at: 2025-01-29 09:49:17.472754