passes_logs/2025/01/29/LEX_Murmansk/LEX_Murmansk__20250129_074633_NOAA_19_rec.log

#Pass ID: 20250129_074633_NOAA 19
#Satellite: NOAA 19
#Configuration: NOAA 19
#Start time: 2025-01-29 07:46:28.164103

#LorettStation: 1.0.0 05.05.2024
#Station: LEX_Murmansk
#Location: 33.156738 lon 68.926811 lat
#TLE: 1 33591U 09005A   25027.88922411  .00000392  00000+0  23338-3 0  9991
#TLE: 2 33591  99.0173  91.7499 0013972  22.5257 337.6525 14.13270697823101

#Time	Az	El	Level	SNR
2025-01-29 07:46:40.348242	31.5	16.2	-90.3	3.5
2025-01-29 07:46:41.510880	31.6	16.3	-90.7	2.1
2025-01-29 07:46:42.675520	31.7	16.4	-91.2	1.9
2025-01-29 07:46:43.829147	31.8	16.6	-91.4	3.5
2025-01-29 07:46:44.989855	31.9	16.7	-91.2	4.1
2025-01-29 07:46:46.153315	32.0	16.8	-90.9	2.9
2025-01-29 07:46:47.320159	32.1	16.9	-90.9	2.8
2025-01-29 07:46:48.484642	32.2	17.0	-91.2	3.2
2025-01-29 07:46:49.650190	32.3	17.2	-91.1	3.0
2025-01-29 07:46:50.808521	32.4	17.3	-91.1	1.8
2025-01-29 07:46:51.974347	32.5	17.4	-91.2	3.6
2025-01-29 07:46:53.131295	32.6	17.5	-91.2	4.9
2025-01-29 07:46:54.307212	32.8	17.7	-91.3	4.6
2025-01-29 07:46:55.488026	32.9	17.8	-91.4	2.1
2025-01-29 07:46:56.649552	33.0	17.9	-91.4	2.7
2025-01-29 07:46:57.804178	33.1	18.0	-91.4	2.8
2025-01-29 07:46:58.960132	33.2	18.2	-91.3	8.4
2025-01-29 07:47:00.124003	33.3	18.3	-91.3	7.1
2025-01-29 07:47:01.273443	33.4	18.4	-91.0	7.2
2025-01-29 07:47:02.436080	33.5	18.5	-91.4	4.2
2025-01-29 07:47:03.703314	33.7	18.7	-91.5	1.1
2025-01-29 07:47:04.865605	33.8	18.8	-91.4	4.6
2025-01-29 07:47:06.024595	33.9	18.9	-91.1	3.2
2025-01-29 07:47:07.185296	34.0	19.1	-91.0	1.7
2025-01-29 07:47:08.342783	34.1	19.2	-91.1	3.7
2025-01-29 07:47:09.500576	34.3	19.3	-91.2	6.5
2025-01-29 07:47:10.662113	34.4	19.5	-91.0	6.6
2025-01-29 07:47:11.833133	34.5	19.6	-91.4	4.7
2025-01-29 07:47:12.993046	34.6	19.7	-91.4	3.0
2025-01-29 07:47:14.149628	34.8	19.9	-91.1	3.9
2025-01-29 07:47:15.310502	34.9	20.0	-90.9	4.1
2025-01-29 07:47:16.472863	35.0	20.1	-91.3	6.1
2025-01-29 07:47:17.642245	35.1	20.3	-90.8	6.9
2025-01-29 07:47:18.808618	35.3	20.4	-90.6	6.7
2025-01-29 07:47:19.973432	35.4	20.5	-90.5	4.6
2025-01-29 07:47:21.140984	35.5	20.7	-90.5	1.4
2025-01-29 07:47:22.303903	35.7	20.8	-90.2	2.7
2025-01-29 07:47:23.460879	35.8	20.9	-90.5	2.9
2025-01-29 07:47:24.620213	35.9	21.1	-90.6	5.4
2025-01-29 07:47:25.779859	36.1	21.2	-90.6	4.7
2025-01-29 07:47:26.935450	36.2	21.3	-90.6	5.9
2025-01-29 07:47:28.109280	36.3	21.5	-90.6	8.9
2025-01-29 07:47:29.269155	36.5	21.6	-90.6	3.1
2025-01-29 07:47:30.427484	36.6	21.8	-90.7	5.2
2025-01-29 07:47:31.592119	36.8	21.9	-90.9	2.8
2025-01-29 07:47:32.756293	36.9	22.1	-90.5	5.2
2025-01-29 07:47:33.915310	37.1	22.2	-90.7	7.4
2025-01-29 07:47:35.079757	37.2	22.3	-91.2	9.0
2025-01-29 07:47:36.241595	37.3	22.5	-91.2	5.5
2025-01-29 07:47:37.397189	37.5	22.6	-91.7	4.7
2025-01-29 07:47:38.561523	37.6	22.8	-90.5	1.1
2025-01-29 07:47:39.719004	37.8	22.9	-90.7	1.2
2025-01-29 07:47:40.881892	37.9	23.1	-90.7	4.0
2025-01-29 07:47:42.043984	38.1	23.2	-90.7	3.8
2025-01-29 07:47:43.202989	38.3	23.4	-90.5	5.9
2025-01-29 07:47:44.359938	38.4	23.5	-90.5	8.5
2025-01-29 07:47:45.526850	38.6	23.7	-90.9	10.6
2025-01-29 07:47:46.682139	38.7	23.8	-91.4	7.4
2025-01-29 07:47:47.850525	38.9	24.0	-91.6	5.2
2025-01-29 07:47:49.010916	39.1	24.1	-91.4	6.1
2025-01-29 07:47:50.171546	39.2	24.3	-91.5	7.3
2025-01-29 07:47:51.337568	39.4	24.4	-90.8	7.2
2025-01-29 07:47:52.496267	39.6	24.6	-90.8	10.8
2025-01-29 07:47:53.662340	39.7	24.7	-90.9	10.4
2025-01-29 07:47:54.826413	39.9	24.9	-90.4	6.6
2025-01-29 07:47:55.985040	40.1	25.0	-90.9	4.5
2025-01-29 07:47:57.141142	40.2	25.2	-90.6	2.3
2025-01-29 07:47:58.297396	40.4	25.3	-90.6	2.4
2025-01-29 07:47:59.450162	40.6	25.5	-91.2	4.2
2025-01-29 07:48:00.607617	40.8	25.7	-91.1	3.3
2025-01-29 07:48:01.763624	40.9	25.8	-91.9	5.9
2025-01-29 07:48:02.923579	41.1	26.0	-91.5	7.9
2025-01-29 07:48:04.087160	41.3	26.1	-91.5	5.7
2025-01-29 07:48:05.246463	41.5	26.3	-91.7	6.7
2025-01-29 07:48:06.404039	41.7	26.4	-91.6	5.5
2025-01-29 07:48:07.576967	41.9	26.6	-91.6	5.2
2025-01-29 07:48:08.738095	42.1	26.8	-91.5	4.6
2025-01-29 07:48:09.902409	42.3	26.9	-91.4	8.1
2025-01-29 07:48:11.063880	42.4	27.1	-91.2	9.8
2025-01-29 07:48:12.226719	42.6	27.3	-91.2	9.2
2025-01-29 07:48:13.391322	42.8	27.4	-91.0	8.8
2025-01-29 07:48:14.542198	43.0	27.6	-91.4	5.7
2025-01-29 07:48:15.706684	43.2	27.8	-91.7	4.3
2025-01-29 07:48:16.868135	43.5	27.9	-91.8	3.2
2025-01-29 07:48:18.031875	43.7	28.1	-91.6	4.2
2025-01-29 07:48:19.191216	43.9	28.3	-90.9	4.0
2025-01-29 07:48:20.356009	44.1	28.4	-91.1	5.2
2025-01-29 07:48:21.519870	44.3	28.6	-91.5	9.4
2025-01-29 07:48:22.680958	44.5	28.8	-92.0	8.9
2025-01-29 07:48:23.846421	44.7	28.9	-91.6	8.6
2025-01-29 07:48:25.007212	44.9	29.1	-91.6	7.2
2025-01-29 07:48:26.168852	45.2	29.3	-91.5	3.4
2025-01-29 07:48:27.327866	45.4	29.4	-91.4	3.9
2025-01-29 07:48:28.496508	45.6	29.6	-91.4	5.7
2025-01-29 07:48:29.660835	45.8	29.8	-91.6	5.5
2025-01-29 07:48:30.823760	46.1	30.0	-91.3	8.5
2025-01-29 07:48:31.988851	46.3	30.1	-91.6	9.0
2025-01-29 07:48:33.145632	46.5	30.3	-91.5	6.9
2025-01-29 07:48:34.304872	46.8	30.5	-91.4	3.5
2025-01-29 07:48:35.467263	47.0	30.7	-91.7	4.2
2025-01-29 07:48:36.628042	47.3	30.8	-91.4	3.0
2025-01-29 07:48:37.785724	47.5	31.0	-91.5	1.2
2025-01-29 07:48:38.949451	47.8	31.2	-91.7	4.8
2025-01-29 07:48:40.113177	48.0	31.4	-91.2	8.6
2025-01-29 07:48:41.273728	48.3	31.5	-91.1	8.9
2025-01-29 07:48:42.434199	48.5	31.7	-91.2	12.6
2025-01-29 07:48:43.593445	48.8	31.9	-91.4	14.2
2025-01-29 07:48:44.757056	49.1	32.1	-91.5	12.8
2025-01-29 07:48:45.924785	49.3	32.3	-91.3	11.7
2025-01-29 07:48:47.089264	49.6	32.4	-91.4	7.7
2025-01-29 07:48:48.254878	49.9	32.6	-91.1	5.7
2025-01-29 07:48:49.420596	50.1	32.8	-91.4	9.5
2025-01-29 07:48:50.591610	50.4	33.0	-91.0	13.1
2025-01-29 07:48:51.756118	50.7	33.2	-91.3	14.6
2025-01-29 07:48:52.915369	51.0	33.4	-91.4	16.7
2025-01-29 07:48:54.092079	51.3	33.5	-91.0	13.9
2025-01-29 07:48:55.217122	51.6	33.7	-91.4	9.1
2025-01-29 07:48:56.350204	51.8	33.9	-91.2	5.8
2025-01-29 07:48:57.506658	52.1	34.1	-91.1	4.6
2025-01-29 07:48:58.661653	52.4	34.3	-91.6	3.7
2025-01-29 07:48:59.821066	52.7	34.4	-91.4	4.9
2025-01-29 07:49:00.976141	53.0	34.6	-91.6	9.1
2025-01-29 07:49:02.137512	53.3	34.8	-91.0	11.4
2025-01-29 07:49:03.304169	53.7	35.0	-91.1	13.1
2025-01-29 07:49:04.462125	54.0	35.2	-91.8	17.4
2025-01-29 07:49:05.636352	54.3	35.4	-91.3	15.0
2025-01-29 07:49:06.798397	54.6	35.5	-91.7	13.5
2025-01-29 07:49:07.966515	54.9	35.7	-91.4	11.3
2025-01-29 07:49:09.125854	55.3	35.9	-91.8	12.4
2025-01-29 07:49:10.301467	55.6	36.1	-91.1	7.8
2025-01-29 07:49:11.462154	56.0	36.3	-91.4	12.9
2025-01-29 07:49:12.625655	56.3	36.5	-91.6	16.4
2025-01-29 07:49:13.779728	56.6	36.7	-91.4	15.8
2025-01-29 07:49:14.938290	57.0	36.8	-91.4	16.0
2025-01-29 07:49:16.099049	57.3	37.0	-91.1	14.2
2025-01-29 07:49:17.263580	57.7	37.2	-91.0	11.9
2025-01-29 07:49:18.428171	58.1	37.4	-90.9	10.9
2025-01-29 07:49:19.589379	58.4	37.6	-91.1	6.5
2025-01-29 07:49:20.750282	58.8	37.8	-91.3	1.6
2025-01-29 07:49:21.922586	59.2	37.9	-91.3	6.8
2025-01-29 07:49:23.077048	59.5	38.1	-91.3	5.1
2025-01-29 07:49:24.239904	59.9	38.3	-91.1	6.2
2025-01-29 07:49:25.399712	60.3	38.5	-91.5	10.3
2025-01-29 07:49:26.557084	60.7	38.7	-91.5	13.0
2025-01-29 07:49:27.715005	61.1	38.8	-91.5	15.6
2025-01-29 07:49:28.875353	61.5	39.0	-91.2	15.9
2025-01-29 07:49:30.034298	61.9	39.2	-91.2	17.7
2025-01-29 07:49:31.199331	62.3	39.4	-91.0	14.7
2025-01-29 07:49:32.359349	62.7	39.6	-90.9	9.7
2025-01-29 07:49:33.519068	63.1	39.7	-91.0	12.5
2025-01-29 07:49:34.681969	63.5	39.9	-91.1	8.8
2025-01-29 07:49:35.837694	64.0	40.1	-91.2	8.9
2025-01-29 07:49:36.999259	64.4	40.3	-91.1	11.5
2025-01-29 07:49:38.169743	64.8	40.4	-91.0	14.7
2025-01-29 07:49:39.339843	65.3	40.6	-90.5	14.8
2025-01-29 07:49:40.500306	65.7	40.8	-90.8	16.3
2025-01-29 07:49:41.662071	66.2	40.9	-90.7	15.1
2025-01-29 07:49:42.822805	66.6	41.1	-90.5	12.0
2025-01-29 07:49:43.973501	67.1	41.3	-90.7	10.2
2025-01-29 07:49:45.136066	67.5	41.5	-90.4	10.5
2025-01-29 07:49:46.302145	68.0	41.6	-91.2	4.8
2025-01-29 07:49:47.463506	68.5	41.8	-91.5	5.7
2025-01-29 07:49:48.631537	69.0	41.9	-91.5	6.6
2025-01-29 07:49:49.794826	69.4	42.1	-91.5	2.0
2025-01-29 07:49:50.957909	69.9	42.3	-91.3	4.4
2025-01-29 07:49:52.121751	70.4	42.4	-90.7	8.0
2025-01-29 07:49:53.281946	70.9	42.6	-90.9	6.0
2025-01-29 07:49:54.445808	71.4	42.7	-90.6	9.1
2025-01-29 07:49:55.603678	71.9	42.9	-90.7	12.6
2025-01-29 07:49:56.765596	72.4	43.0	-90.5	12.8
2025-01-29 07:49:57.921728	72.9	43.2	-90.3	14.0
2025-01-29 07:49:59.081389	73.4	43.3	-89.0	10.4
2025-01-29 07:50:00.231151	74.0	43.5	-90.3	9.4
2025-01-29 07:50:01.387582	74.5	43.6	-91.0	10.5
2025-01-29 07:50:02.543999	75.0	43.8	-91.6	8.7
2025-01-29 07:50:03.705533	75.6	43.9	-91.5	6.5
2025-01-29 07:50:04.867905	76.1	44.0	-91.2	9.0
2025-01-29 07:50:06.031795	76.6	44.2	-90.6	6.4
2025-01-29 07:50:07.192556	77.2	44.3	-90.5	4.9
2025-01-29 07:50:08.357943	77.8	44.4	-90.8	4.5
2025-01-29 07:50:09.520971	78.3	44.6	-90.9	8.6
2025-01-29 07:50:10.687574	78.9	44.7	-90.5	6.1
2025-01-29 07:50:11.848381	79.4	44.8	-90.8	5.8
2025-01-29 07:50:13.023747	80.0	44.9	-91.2	10.9
2025-01-29 07:50:14.179606	80.6	45.0	-91.2	8.3
2025-01-29 07:50:15.342369	81.2	45.2	-91.4	7.5
2025-01-29 07:50:16.504318	81.8	45.3	-91.5	6.7
2025-01-29 07:50:17.669461	82.4	45.4	-91.7	8.1
2025-01-29 07:50:18.836239	83.0	45.5	-91.8	8.5
2025-01-29 07:50:20.000368	83.6	45.6	-91.6	4.5
2025-01-29 07:50:21.165354	84.2	45.7	-91.2	7.4
2025-01-29 07:50:22.322226	84.8	45.8	-91.1	7.6
2025-01-29 07:50:23.485702	85.4	45.9	-91.5	3.2
2025-01-29 07:50:24.638994	86.0	46.0	-91.6	5.6
2025-01-29 07:50:25.795326	86.6	46.0	-91.7	6.1
2025-01-29 07:50:26.954758	87.2	46.1	-91.7	6.4
2025-01-29 07:50:28.117855	87.8	46.2	-90.6	4.7
2025-01-29 07:50:29.270564	88.4	46.3	-90.4	9.1
2025-01-29 07:50:30.426716	89.1	46.3	-90.6	4.6
2025-01-29 07:50:31.588252	89.7	46.4	-91.0	7.5
2025-01-29 07:50:32.746449	90.3	46.5	-90.5	11.2
2025-01-29 07:50:33.906051	91.0	46.5	-90.8	11.2
2025-01-29 07:50:35.062237	91.6	46.6	-90.7	13.6
2025-01-29 07:50:36.222835	92.2	46.7	-90.6	12.6
2025-01-29 07:50:37.380450	92.9	46.7	-90.5	8.9
2025-01-29 07:50:38.542898	93.5	46.7	-90.9	13.1
2025-01-29 07:50:39.704116	94.2	46.8	-90.7	10.2
2025-01-29 07:50:40.863111	94.8	46.8	-90.8	7.2
2025-01-29 07:50:42.023481	95.4	46.9	-91.7	11.4
2025-01-29 07:50:43.193069	96.1	46.9	-91.3	10.1
2025-01-29 07:50:44.346989	96.7	46.9	-91.3	12.3
2025-01-29 07:50:45.505666	97.4	46.9	-91.5	7.1
2025-01-29 07:50:46.666749	98.0	47.0	-91.6	11.4
2025-01-29 07:50:47.827494	98.7	47.0	-91.6	12.3
2025-01-29 07:50:48.990448	99.4	47.0	-91.2	6.9
2025-01-29 07:50:50.158095	100.0	47.0	-91.3	7.2
2025-01-29 07:50:51.315771	100.7	47.0	-90.0	8.2
2025-01-29 07:50:52.480743	101.3	47.0	-90.5	4.7
2025-01-29 07:50:53.639093	102.0	47.0	-90.9	8.2
2025-01-29 07:50:54.794687	102.6	47.0	-90.9	9.5
2025-01-29 07:50:55.958380	103.3	47.0	-90.8	8.7
2025-01-29 07:50:57.123893	103.9	46.9	-90.5	7.9
2025-01-29 07:50:58.291716	104.6	46.9	-91.5	12.1
2025-01-29 07:50:59.454171	105.2	46.9	-91.5	8.7
2025-01-29 07:51:00.602773	105.9	46.9	-91.7	7.6
2025-01-29 07:51:01.768232	106.5	46.8	-91.5	15.1
2025-01-29 07:51:02.931913	107.2	46.8	-91.6	8.7
2025-01-29 07:51:04.089476	107.8	46.8	-91.4	9.0
2025-01-29 07:51:05.246039	108.5	46.7	-91.3	14.7
2025-01-29 07:51:06.416907	109.1	46.7	-91.2	12.2
2025-01-29 07:51:07.574986	109.7	46.6	-91.2	10.2
2025-01-29 07:51:08.747557	110.4	46.6	-91.2	14.4
2025-01-29 07:51:09.903715	111.0	46.5	-91.5	14.4
2025-01-29 07:51:11.066851	111.7	46.4	-91.4	12.4
2025-01-29 07:51:12.231738	112.3	46.4	-91.6	17.4
2025-01-29 07:51:13.390285	112.9	46.3	-90.6	13.5
2025-01-29 07:51:14.544171	113.5	46.2	-90.6	11.0
2025-01-29 07:51:15.708748	114.2	46.1	-90.8	14.6
2025-01-29 07:51:16.874650	114.8	46.1	-90.8	12.4
2025-01-29 07:51:18.031735	115.4	46.0	-90.8	10.8
2025-01-29 07:51:19.194610	116.0	45.9	-90.5	10.6
2025-01-29 07:51:20.357670	116.6	45.8	-90.7	13.2
2025-01-29 07:51:21.520782	117.2	45.7	-90.5	11.8
2025-01-29 07:51:22.677920	117.8	45.6	-90.8	10.8
2025-01-29 07:51:23.846927	118.4	45.5	-90.6	7.6
2025-01-29 07:51:25.000563	119.0	45.4	-90.7	6.1
2025-01-29 07:51:26.174008	119.6	45.3	-90.7	4.2
2025-01-29 07:51:27.337464	120.2	45.2	-91.4	9.7
2025-01-29 07:51:28.498825	120.8	45.1	-91.5	13.6
2025-01-29 07:51:29.657246	121.3	45.0	-91.1	13.6
2025-01-29 07:51:30.816677	121.9	44.8	-91.3	11.3
2025-01-29 07:51:31.983031	122.5	44.7	-91.6	9.8
2025-01-29 07:51:33.146536	123.1	44.6	-91.3	10.2
2025-01-29 07:51:34.312894	123.6	44.5	-91.0	12.2
2025-01-29 07:51:35.470669	124.2	44.3	-91.2	12.5
2025-01-29 07:51:36.631399	124.7	44.2	-91.2	14.7
2025-01-29 07:51:37.800595	125.3	44.1	-91.4	17.0
2025-01-29 07:51:38.956352	125.8	43.9	-91.2	14.3
2025-01-29 07:51:40.120630	126.4	43.8	-90.8	8.7
2025-01-29 07:51:41.284482	126.9	43.7	-91.0	10.5
2025-01-29 07:51:42.450475	127.4	43.5	-91.2	12.9
2025-01-29 07:51:43.608018	127.9	43.4	-91.7	11.2
2025-01-29 07:51:44.759005	128.5	43.2	-91.3	11.8
2025-01-29 07:51:45.925670	129.0	43.1	-91.3	11.1
2025-01-29 07:51:47.089012	129.5	42.9	-91.7	11.8
2025-01-29 07:51:48.251059	130.0	42.8	-91.6	12.4
2025-01-29 07:51:49.411658	130.5	42.6	-91.4	10.1
2025-01-29 07:51:50.580737	131.0	42.5	-91.7	11.0
2025-01-29 07:51:51.739113	131.5	42.3	-91.6	15.6
2025-01-29 07:51:52.899471	132.0	42.1	-91.6	12.0
2025-01-29 07:51:54.062044	132.4	42.0	-91.1	10.4
2025-01-29 07:51:55.223367	132.9	41.8	-91.3	16.3
2025-01-29 07:51:56.379062	133.4	41.6	-91.2	13.2
2025-01-29 07:51:57.544086	133.9	41.5	-91.5	10.3
2025-01-29 07:51:58.701680	134.3	41.3	-91.0	14.3
2025-01-29 07:51:59.867571	134.8	41.1	-91.4	12.8
2025-01-29 07:52:01.019149	135.2	41.0	-91.1	8.6
2025-01-29 07:52:02.192641	135.7	40.8	-91.3	16.2
2025-01-29 07:52:03.345727	136.1	40.6	-91.3	13.8
2025-01-29 07:52:04.496652	136.6	40.5	-91.4	8.3
2025-01-29 07:52:05.616597	137.0	40.3	-91.4	9.6
2025-01-29 07:52:06.738224	137.4	40.1	-91.4	14.3
2025-01-29 07:52:07.859355	137.8	40.0	-91.4	12.5
2025-01-29 07:52:08.979668	138.2	39.8	-91.5	9.2
2025-01-29 07:52:10.102465	138.6	39.6	-91.2	8.4
2025-01-29 07:52:11.222532	139.0	39.5	-91.5	13.3
2025-01-29 07:52:12.343271	139.4	39.3	-91.2	10.5
2025-01-29 07:52:13.463340	139.8	39.1	-91.4	8.4
2025-01-29 07:52:14.587544	140.2	38.9	-91.5	8.3
2025-01-29 07:52:15.716977	140.6	38.8	-91.7	13.8
2025-01-29 07:52:16.882699	141.0	38.6	-91.8	10.1
2025-01-29 07:52:18.038024	141.3	38.4	-91.4	8.4
2025-01-29 07:52:19.197949	141.7	38.2	-91.5	11.4
2025-01-29 07:52:20.352908	142.1	38.0	-91.7	10.9
2025-01-29 07:52:21.509611	142.5	37.9	-91.6	9.2
2025-01-29 07:52:22.672146	142.9	37.7	-91.5	13.6
2025-01-29 07:52:23.828242	143.2	37.5	-91.5	14.7
2025-01-29 07:52:24.983041	143.6	37.3	-91.4	14.1
2025-01-29 07:52:26.139965	143.9	37.1	-91.1	15.2
2025-01-29 07:52:27.307851	144.3	36.9	-90.4	14.4
2025-01-29 07:52:28.469896	144.6	36.8	-90.5	13.8
2025-01-29 07:52:29.632351	145.0	36.6	-90.8	13.8
2025-01-29 07:52:30.794580	145.3	36.4	-90.9	14.6
2025-01-29 07:52:31.949353	145.7	36.2	-91.5	10.9
2025-01-29 07:52:33.109916	146.0	36.0	-91.5	9.2
2025-01-29 07:52:34.271868	146.3	35.8	-91.4	13.6
2025-01-29 07:52:35.427260	146.7	35.7	-91.8	8.2
2025-01-29 07:52:36.598421	147.0	35.5	-91.5	7.7
2025-01-29 07:52:37.759766	147.3	35.3	-91.7	12.7
2025-01-29 07:52:38.923694	147.6	35.1	-91.6	5.8
2025-01-29 07:52:40.083914	148.0	34.9	-91.5	5.7
2025-01-29 07:52:41.242802	148.3	34.7	-91.4	9.5
2025-01-29 07:52:42.403995	148.6	34.5	-91.5	5.7
2025-01-29 07:52:43.563287	148.9	34.4	-91.7	6.1
2025-01-29 07:52:44.721125	149.2	34.2	-91.6	10.0
2025-01-29 07:52:45.881145	149.5	34.0	-91.5	6.6
2025-01-29 07:52:47.039024	149.8	33.8	-91.7	5.7
2025-01-29 07:52:48.195780	150.1	33.6	-91.3	5.7
2025-01-29 07:52:49.369095	150.3	33.4	-91.5	4.7
2025-01-29 07:52:50.532249	150.6	33.3	-91.7	6.5
2025-01-29 07:52:51.696208	150.9	33.1	-91.8	8.4
2025-01-29 07:52:52.858673	151.2	32.9	-91.8	11.2
2025-01-29 07:52:54.027791	151.5	32.7	-91.6	10.2
2025-01-29 07:52:55.186178	151.7	32.5	-91.4	7.0
2025-01-29 07:52:56.344226	152.0	32.4	-91.7	6.0
2025-01-29 07:52:57.506339	152.3	32.2	-91.9	4.5
2025-01-29 07:52:58.665783	152.5	32.0	-91.6	5.3
2025-01-29 07:52:59.825626	152.8	31.8	-91.3	3.7
2025-01-29 07:53:00.980418	153.1	31.6	-91.5	5.5
2025-01-29 07:53:02.147183	153.3	31.5	-91.2	7.1
2025-01-29 07:53:03.312471	153.6	31.3	-91.4	5.2
2025-01-29 07:53:04.471908	153.8	31.1	-91.7	5.4
2025-01-29 07:53:05.634955	154.1	30.9	-91.5	4.2
2025-01-29 07:53:06.794450	154.3	30.8	-90.6	5.2
2025-01-29 07:53:07.951585	154.6	30.6	-90.8	3.3
2025-01-29 07:53:09.126149	154.8	30.4	-90.5	4.0
2025-01-29 07:53:10.291411	155.0	30.2	-90.4	5.7
2025-01-29 07:53:11.454806	155.3	30.1	-90.2	6.9
2025-01-29 07:53:12.616260	155.5	29.9	-90.8	9.3
2025-01-29 07:53:13.772917	155.7	29.7	-90.6	9.8
2025-01-29 07:53:14.932768	156.0	29.5	-91.1	10.3
2025-01-29 07:53:16.092074	156.2	29.4	-91.0	9.0
2025-01-29 07:53:17.253660	156.4	29.2	-90.3	8.2
2025-01-29 07:53:18.420672	156.6	29.0	-90.1	5.2
2025-01-29 07:53:19.580634	156.8	28.9	-90.5	7.5
2025-01-29 07:53:20.744626	157.1	28.7	-90.7	9.9
2025-01-29 07:53:21.907500	157.3	28.5	-90.9	5.4
2025-01-29 07:53:23.072930	157.5	28.3	-90.6	6.1
2025-01-29 07:53:24.224827	157.7	28.2	-90.3	8.6
2025-01-29 07:53:25.381240	157.9	28.0	-90.7	6.1
2025-01-29 07:53:26.539988	158.1	27.8	-90.4	3.9
2025-01-29 07:53:27.708524	158.3	27.7	-90.3	7.2
2025-01-29 07:53:28.869397	158.5	27.5	-90.4	6.2
2025-01-29 07:53:30.029482	158.7	27.4	-90.5	4.8
2025-01-29 07:53:31.193292	158.9	27.2	-90.2	2.9
2025-01-29 07:53:32.349224	159.1	27.0	-90.8	5.1
2025-01-29 07:53:33.513703	159.3	26.9	-90.7	4.2
2025-01-29 07:53:34.674497	159.5	26.7	-90.8	4.6
2025-01-29 07:53:35.834246	159.7	26.5	-90.8	7.6
2025-01-29 07:53:37.002870	159.9	26.4	-90.5	6.0
2025-01-29 07:53:38.165161	160.1	26.2	-89.9	7.8
2025-01-29 07:53:39.327066	160.2	26.1	-89.5	7.4
2025-01-29 07:53:40.484648	160.4	25.9	-90.4	6.6
2025-01-29 07:53:41.648860	160.6	25.7	-90.7	6.6
2025-01-29 07:53:42.815029	160.8	25.6	-90.7	7.8
2025-01-29 07:53:43.979107	161.0	25.4	-90.6	3.8
2025-01-29 07:53:45.138750	161.1	25.3	-90.6	4.4
2025-01-29 07:53:46.300603	161.3	25.1	-90.6	5.4
2025-01-29 07:53:47.459432	161.5	25.0	-90.9	3.6
2025-01-29 07:53:48.629936	161.7	24.8	-90.8	5.0
2025-01-29 07:53:49.789092	161.8	24.6	-91.7	7.9
2025-01-29 07:53:50.956945	162.0	24.5	-91.3	6.6
2025-01-29 07:53:52.121089	162.2	24.3	-91.4	7.8
2025-01-29 07:53:53.282958	162.3	24.2	-91.4	9.9
2025-01-29 07:53:54.440472	162.5	24.0	-91.3	8.3
2025-01-29 07:53:55.593374	162.6	23.9	-90.6	8.3
2025-01-29 07:53:56.754884	162.8	23.7	-91.2	7.5
2025-01-29 07:53:57.919299	163.0	23.6	-91.5	5.7
2025-01-29 07:53:59.080452	163.1	23.4	-91.3	5.5
2025-01-29 07:54:00.237711	163.3	23.3	-90.8	4.9
2025-01-29 07:54:01.390827	163.4	23.1	-91.5	6.9
2025-01-29 07:54:02.553214	163.6	23.0	-91.5	4.1
2025-01-29 07:54:03.723274	163.7	22.8	-92.0	8.1
2025-01-29 07:54:04.878930	163.9	22.7	-91.4	4.9
2025-01-29 07:54:06.037405	164.0	22.6	-91.7	3.4
2025-01-29 07:54:07.196594	164.2	22.4	-91.3	5.2
2025-01-29 07:54:08.358630	164.3	22.3	-91.5	4.3
2025-01-29 07:54:09.519574	164.5	22.1	-91.6	5.4
2025-01-29 07:54:10.675364	164.6	22.0	-91.2	2.7
2025-01-29 07:54:11.832499	164.7	21.8	-91.8	3.5
2025-01-29 07:54:12.999868	164.9	21.7	-91.7	3.2
2025-01-29 07:54:14.158335	165.0	21.6	-91.5	3.8
2025-01-29 07:54:15.319016	165.2	21.4	-91.4	3.1
2025-01-29 07:54:16.479672	165.3	21.3	-91.8	2.4
2025-01-29 07:54:17.642902	165.4	21.1	-92.0	3.8
2025-01-29 07:54:18.810983	165.6	21.0	-91.6	2.8
2025-01-29 07:54:19.972594	165.7	20.9	-91.5	2.0
2025-01-29 07:54:21.248293	165.9	20.7	-91.7	1.4
2025-01-29 07:54:22.411848	166.0	20.6	-91.7	3.6
2025-01-29 07:54:23.578259	166.1	20.4	-92.1	1.0
2025-01-29 07:54:24.740006	166.2	20.3	-91.9	3.3
2025-01-29 07:54:25.898835	166.4	20.2	-91.4	4.4
2025-01-29 07:54:27.064952	166.5	20.0	-91.3	4.4
2025-01-29 07:54:28.219726	166.6	19.9	-91.5	4.1
2025-01-29 07:54:29.378371	166.8	19.8	-91.5	5.3
2025-01-29 07:54:30.546039	166.9	19.6	-91.7	5.7
2025-01-29 07:54:31.702509	167.0	19.5	-91.6	5.0
2025-01-29 07:54:32.869622	167.1	19.4	-91.7	5.6
2025-01-29 07:54:34.042801	167.2	19.2	-91.6	4.4
2025-01-29 07:54:35.197887	167.4	19.1	-91.2	5.7
2025-01-29 07:54:36.371640	167.5	19.0	-91.2	3.5
2025-01-29 07:54:37.532480	167.6	18.9	-91.6	4.7
2025-01-29 07:54:38.695557	167.7	18.7	-91.3	5.5
2025-01-29 07:54:39.850883	167.8	18.6	-91.7	3.7
2025-01-29 07:54:41.009802	168.0	18.5	-91.6	3.1
2025-01-29 07:54:42.174466	168.1	18.3	-91.1	2.6
2025-01-29 07:54:43.338956	168.2	18.2	-91.0	1.6
2025-01-29 07:54:44.502862	168.3	18.1	-91.2	1.8
2025-01-29 07:54:45.664433	168.4	18.0	-91.3	3.1
2025-01-29 07:54:46.823135	168.5	17.8	-91.4	2.4
2025-01-29 07:54:47.984806	168.6	17.7	-91.5	1.3
2025-01-29 07:54:49.145965	168.7	17.6	-91.1	2.8
2025-01-29 07:54:50.307387	168.8	17.5	-91.2	3.6
2025-01-29 07:54:51.467826	169.0	17.3	-91.2	0.9
2025-01-29 07:54:52.634892	169.1	17.2	-91.4	3.2
2025-01-29 07:54:53.796871	169.2	17.1	-91.6	2.7
2025-01-29 07:54:54.952752	169.3	17.0	-91.5	3.2
2025-01-29 07:54:56.106814	169.4	16.9	-91.4	1.7
2025-01-29 07:54:57.267015	169.5	16.7	-91.0	3.0
2025-01-29 07:54:58.426965	169.6	16.6	-91.1	5.1
2025-01-29 07:54:59.589460	169.7	16.5	-91.7	2.3
2025-01-29 07:55:00.744901	169.8	16.4	-91.4	4.6
2025-01-29 07:55:01.899194	169.9	16.3	-91.5	3.0
2025-01-29 07:55:03.060833	170.0	16.1	-88.9	1.8
2025-01-29 07:55:04.228838	170.1	16.0	-88.1	3.2
2025-01-29 07:55:05.384501	170.2	15.9	-91.3	5.3
2025-01-29 07:55:06.555878	170.3	15.8	-91.6	4.1
2025-01-29 07:55:07.713337	170.4	15.7	-91.4	3.3
2025-01-29 07:55:08.878480	170.5	15.6	-91.7	2.9
2025-01-29 07:55:10.040323	170.6	15.5	-91.5	2.8
2025-01-29 07:55:11.206086	170.7	15.3	-91.4	2.3
2025-01-29 07:55:12.370514	170.8	15.2	-91.0	2.5
2025-01-29 07:55:13.526160	170.8	15.1	-91.6	1.8
2025-01-29 07:55:14.684278	170.9	15.0	-91.5	2.5
2025-01-29 07:55:15.840437	171.0	14.9	-91.7	4.4
2025-01-29 07:55:17.002042	171.1	14.8	-91.6	1.7
2025-01-29 07:55:18.160652	171.2	14.7	-91.3	0.8
2025-01-29 07:55:19.314400	171.3	14.5	-91.5	2.9
#Closed at: 2025-01-29 07:46:33.125140