passes_logs/2025/01/29/LEX_Murmansk/LEX_Murmansk__20250129_145028_NOAA_18_rec.log

#Pass ID: 20250129_145028_NOAA 18
#Satellite: NOAA 18
#Configuration: NOAA 18
#Start time: 2025-01-29 14:50:22.982952

#LorettStation: 1.0.0 05.05.2024
#Station: LEX_Murmansk
#Location: 33.156738 lon 68.926811 lat
#TLE: 1 28654U 05018A   25029.10768076  .00000445  00000+0  25948-3 0  9995
#TLE: 2 28654  98.8544 110.0207 0014928 140.4380 219.7885 14.13500636 15173

#Time	Az	El	Level	SNR
2025-01-29 14:50:35.199547	45.8	15.9	-91.7	5.0
2025-01-29 14:50:36.320352	45.6	16.0	-91.8	6.1
2025-01-29 14:50:37.442602	45.5	16.0	-92.2	4.3
2025-01-29 14:50:38.564221	45.3	16.1	-92.2	5.0
2025-01-29 14:50:39.686934	45.1	16.2	-92.5	4.4
2025-01-29 14:50:40.810370	44.9	16.3	-92.4	5.3
2025-01-29 14:50:41.932305	44.7	16.4	-92.7	4.5
2025-01-29 14:50:43.053139	44.5	16.4	-92.3	2.3
2025-01-29 14:50:44.173382	44.3	16.5	-92.4	3.3
2025-01-29 14:50:45.295035	44.1	16.6	-92.0	7.8
2025-01-29 14:50:46.416659	44.0	16.7	-92.8	5.1
2025-01-29 14:50:47.538344	43.8	16.8	-92.8	6.1
2025-01-29 14:50:48.659760	43.6	16.8	-92.5	4.4
2025-01-29 14:50:49.781503	43.4	16.9	-92.5	5.4
2025-01-29 14:50:50.903946	43.2	17.0	-92.8	4.5
2025-01-29 14:50:52.026051	43.0	17.1	-92.7	5.2
2025-01-29 14:50:53.147446	42.8	17.2	-92.6	4.7
2025-01-29 14:50:54.269546	42.6	17.2	-92.4	1.4
2025-01-29 14:50:55.390624	42.4	17.3	-92.6	3.1
2025-01-29 14:50:56.511999	42.2	17.4	-92.8	3.2
2025-01-29 14:50:57.632977	42.0	17.5	-92.8	3.5
2025-01-29 14:50:58.754050	41.8	17.6	-92.3	5.7
2025-01-29 14:50:59.874777	41.6	17.6	-92.5	4.5
2025-01-29 14:51:00.997142	41.4	17.7	-92.5	3.0
2025-01-29 14:51:02.118262	41.2	17.8	-92.0	4.5
2025-01-29 14:51:03.239491	41.0	17.9	-92.5	4.6
2025-01-29 14:51:04.361154	40.8	17.9	-92.3	7.2
2025-01-29 14:51:05.483036	40.6	18.0	-92.5	5.9
2025-01-29 14:51:06.607516	40.3	18.1	-92.5	5.3
2025-01-29 14:51:07.728591	40.1	18.2	-92.2	9.8
2025-01-29 14:51:08.851258	39.9	18.3	-92.6	9.2
2025-01-29 14:51:09.971911	39.7	18.3	-92.6	9.0
2025-01-29 14:51:11.093722	39.5	18.4	-92.3	11.6
2025-01-29 14:51:12.213461	39.3	18.5	-92.0	7.9
2025-01-29 14:51:13.335634	39.1	18.6	-91.9	8.0
2025-01-29 14:51:14.456538	38.8	18.6	-90.6	6.6
2025-01-29 14:51:15.578144	38.6	18.7	-90.9	6.8
2025-01-29 14:51:16.699270	38.4	18.8	-90.4	9.6
2025-01-29 14:51:17.819975	38.2	18.9	-91.1	8.7
2025-01-29 14:51:18.942322	38.0	18.9	-90.9	6.4
2025-01-29 14:51:20.063383	37.7	19.0	-92.5	6.4
2025-01-29 14:51:21.184238	37.5	19.1	-92.1	10.3
2025-01-29 14:51:22.306176	37.3	19.2	-92.3	11.6
2025-01-29 14:51:23.427696	37.1	19.2	-92.6	12.3
2025-01-29 14:51:24.548692	36.8	19.3	-92.3	11.0
2025-01-29 14:51:25.670013	36.6	19.4	-92.5	11.5
2025-01-29 14:51:26.791616	36.4	19.5	-92.5	12.2
2025-01-29 14:51:27.912034	36.1	19.5	-92.1	8.4
2025-01-29 14:51:29.033831	35.9	19.6	-92.8	6.1
2025-01-29 14:51:30.155264	35.7	19.7	-92.2	7.2
2025-01-29 14:51:31.276977	35.4	19.8	-92.7	10.1
2025-01-29 14:51:32.399929	35.2	19.8	-92.1	7.2
2025-01-29 14:51:33.521508	35.0	19.9	-92.9	5.1
2025-01-29 14:51:34.642138	34.7	20.0	-92.4	9.7
2025-01-29 14:51:35.762353	34.5	20.1	-92.1	7.6
2025-01-29 14:51:36.883635	34.3	20.1	-91.8	11.2
2025-01-29 14:51:38.007210	34.0	20.2	-92.7	8.8
2025-01-29 14:51:39.130032	33.8	20.3	-92.5	10.5
2025-01-29 14:51:40.251658	33.5	20.3	-92.3	10.3
2025-01-29 14:51:41.371763	33.3	20.4	-92.4	8.1
2025-01-29 14:51:42.493517	33.0	20.5	-92.4	7.4
2025-01-29 14:51:43.613810	32.8	20.5	-92.6	10.9
2025-01-29 14:51:44.732547	32.5	20.6	-92.7	12.0
2025-01-29 14:51:45.852400	32.3	20.7	-92.6	9.7
2025-01-29 14:51:46.972383	32.0	20.7	-92.5	8.0
2025-01-29 14:51:48.091541	31.8	20.8	-92.5	8.6
2025-01-29 14:51:49.211977	31.5	20.9	-92.3	12.6
2025-01-29 14:51:50.332140	31.3	21.0	-92.3	13.8
2025-01-29 14:51:51.451364	31.0	21.0	-92.7	15.8
2025-01-29 14:51:52.573286	30.8	21.1	-92.5	15.6
2025-01-29 14:51:53.694435	30.5	21.1	-92.5	12.3
2025-01-29 14:51:54.815576	30.3	21.2	-92.3	16.0
2025-01-29 14:51:55.937855	30.0	21.3	-92.6	10.4
2025-01-29 14:51:57.058407	29.7	21.3	-92.7	12.4
2025-01-29 14:51:58.180181	29.5	21.4	-92.6	16.1
2025-01-29 14:51:59.300230	29.2	21.5	-92.9	16.7
2025-01-29 14:52:00.422887	29.0	21.5	-92.8	8.6
2025-01-29 14:52:01.543957	28.7	21.6	-93.1	12.2
2025-01-29 14:52:02.664730	28.4	21.7	-92.7	12.8
2025-01-29 14:52:03.786511	28.2	21.7	-92.8	13.6
2025-01-29 14:52:04.908075	27.9	21.8	-93.1	14.3
2025-01-29 14:52:06.029802	27.6	21.8	-92.9	13.1
2025-01-29 14:52:07.151587	27.4	21.9	-92.8	13.2
2025-01-29 14:52:08.273436	27.1	22.0	-92.3	12.1
2025-01-29 14:52:09.394114	26.8	22.0	-92.4	8.6
2025-01-29 14:52:10.515716	26.5	22.1	-92.8	7.4
2025-01-29 14:52:11.637177	26.3	22.1	-92.7	13.3
2025-01-29 14:52:12.758178	26.0	22.2	-92.4	13.2
2025-01-29 14:52:13.881374	25.7	22.2	-92.4	5.4
2025-01-29 14:52:15.002171	25.4	22.3	-92.3	6.7
2025-01-29 14:52:16.123500	25.2	22.4	-92.5	12.5
2025-01-29 14:52:17.245234	24.9	22.4	-92.4	12.4
2025-01-29 14:52:18.366933	24.6	22.5	-92.5	10.8
2025-01-29 14:52:19.489233	24.3	22.5	-92.3	12.5
2025-01-29 14:52:20.611880	24.0	22.6	-91.4	15.2
2025-01-29 14:52:21.732636	23.8	22.6	-91.6	18.3
2025-01-29 14:52:22.854503	23.5	22.7	-91.1	16.1
2025-01-29 14:52:23.975192	23.2	22.7	-91.5	13.9
2025-01-29 14:52:25.096776	22.9	22.8	-92.7	15.0
2025-01-29 14:52:26.218364	22.6	22.8	-92.3	13.8
2025-01-29 14:52:27.339371	22.3	22.9	-92.7	9.8
2025-01-29 14:52:28.460509	22.0	22.9	-92.4	8.6
2025-01-29 14:52:29.581015	21.8	23.0	-92.5	10.9
2025-01-29 14:52:30.702371	21.5	23.0	-92.9	18.0
2025-01-29 14:52:31.822329	21.2	23.1	-92.6	14.3
2025-01-29 14:52:32.944611	20.9	23.1	-93.0	10.1
2025-01-29 14:52:34.065879	20.6	23.1	-92.5	14.8
2025-01-29 14:52:35.186961	20.3	23.2	-92.8	16.9
2025-01-29 14:52:36.308611	20.0	23.2	-92.2	13.8
2025-01-29 14:52:37.429090	19.7	23.3	-92.2	15.6
2025-01-29 14:52:38.550863	19.4	23.3	-92.7	17.3
2025-01-29 14:52:39.672059	19.1	23.4	-92.4	11.6
2025-01-29 14:52:40.793699	18.8	23.4	-92.8	13.0
2025-01-29 14:52:41.914729	18.5	23.4	-92.8	13.6
2025-01-29 14:52:43.035839	18.2	23.5	-92.8	12.3
2025-01-29 14:52:44.157418	17.9	23.5	-92.8	12.5
2025-01-29 14:52:45.278712	17.6	23.5	-92.1	11.7
2025-01-29 14:52:46.402908	17.3	23.6	-92.9	9.1
2025-01-29 14:52:47.523703	17.0	23.6	-92.5	5.8
2025-01-29 14:52:48.644354	16.7	23.7	-92.5	10.9
2025-01-29 14:52:49.765477	16.4	23.7	-92.6	12.8
2025-01-29 14:52:50.887130	16.1	23.7	-92.8	6.5
2025-01-29 14:52:52.009259	15.8	23.8	-93.1	7.1
2025-01-29 14:52:53.131234	15.5	23.8	-92.9	12.5
2025-01-29 14:52:54.251484	15.2	23.8	-92.6	13.4
2025-01-29 14:52:55.372864	14.9	23.8	-91.2	4.8
2025-01-29 14:52:56.494414	14.6	23.9	-91.2	7.9
2025-01-29 14:52:57.625257	14.3	23.9	-91.3	10.2
2025-01-29 14:52:58.746839	14.0	23.9	-90.7	10.3
2025-01-29 14:52:59.867960	13.6	24.0	-91.0	9.7
2025-01-29 14:53:00.988365	13.3	24.0	-91.2	12.9
2025-01-29 14:53:02.110078	13.0	24.0	-92.4	13.3
2025-01-29 14:53:03.231497	12.7	24.0	-92.3	13.8
2025-01-29 14:53:04.352199	12.4	24.0	-92.4	12.4
2025-01-29 14:53:05.474558	12.1	24.1	-92.6	12.4
2025-01-29 14:53:06.596253	11.8	24.1	-92.8	13.1
2025-01-29 14:53:07.717463	11.5	24.1	-92.7	11.1
2025-01-29 14:53:08.838729	11.2	24.1	-92.8	6.7
2025-01-29 14:53:09.959862	10.9	24.1	-92.8	4.9
2025-01-29 14:53:11.080310	10.5	24.2	-92.6	4.9
2025-01-29 14:53:12.202965	10.2	24.2	-92.3	9.2
2025-01-29 14:53:13.324840	9.9	24.2	-92.0	5.5
2025-01-29 14:53:14.447557	9.6	24.2	-92.7	8.2
2025-01-29 14:53:15.567872	9.3	24.2	-92.5	9.0
2025-01-29 14:53:16.688413	9.0	24.2	-93.2	13.3
2025-01-29 14:53:17.810552	8.7	24.2	-93.1	13.3
2025-01-29 14:53:18.931806	8.3	24.2	-92.2	9.0
2025-01-29 14:53:20.053459	8.0	24.3	-92.5	10.9
2025-01-29 14:53:21.175241	7.7	24.3	-92.5	14.1
2025-01-29 14:53:22.297084	7.4	24.3	-92.8	16.8
2025-01-29 14:53:23.418412	7.1	24.3	-92.7	11.9
2025-01-29 14:53:24.539819	6.8	24.3	-93.1	12.2
2025-01-29 14:53:25.660300	6.5	24.3	-93.0	14.0
2025-01-29 14:53:26.781746	6.1	24.3	-92.8	13.9
2025-01-29 14:53:27.902961	5.8	24.3	-92.7	12.6
2025-01-29 14:53:29.025877	5.5	24.3	-92.5	14.3
2025-01-29 14:53:30.147130	5.2	24.3	-92.6	12.5
2025-01-29 14:53:31.270047	4.9	24.3	-92.6	14.8
2025-01-29 14:53:32.390074	4.6	24.3	-92.6	14.4
2025-01-29 14:53:33.511219	4.2	24.3	-92.6	12.9
2025-01-29 14:53:34.633117	3.9	24.3	-92.4	15.0
2025-01-29 14:53:35.753869	3.6	24.3	-92.6	15.3
2025-01-29 14:53:36.874763	3.3	24.3	-92.4	12.5
2025-01-29 14:53:37.996949	3.0	24.3	-92.6	15.0
2025-01-29 14:53:39.117507	2.7	24.3	-92.3	16.2
2025-01-29 14:53:40.238812	2.3	24.3	-92.0	11.5
2025-01-29 14:53:41.358763	2.0	24.3	-92.1	11.1
2025-01-29 14:53:42.480099	1.7	24.2	-91.9	9.4
2025-01-29 14:53:43.600926	1.4	24.2	-92.8	12.6
2025-01-29 14:53:44.721565	1.1	24.2	-92.7	13.6
2025-01-29 14:53:45.844024	0.8	24.2	-92.7	9.2
2025-01-29 14:53:46.964826	0.5	24.2	-92.7	7.7
2025-01-29 14:53:48.085596	0.1	24.2	-92.4	7.9
2025-01-29 14:53:49.206710	359.8	24.2	-92.6	12.4
2025-01-29 14:53:50.328841	359.5	24.1	-92.2	11.5
2025-01-29 14:53:51.449434	359.2	24.1	-92.7	9.8
2025-01-29 14:53:52.571349	358.9	24.1	-92.6	10.4
2025-01-29 14:53:53.694023	358.6	24.1	-92.8	15.8
2025-01-29 14:53:54.815459	358.3	24.1	-92.6	13.3
2025-01-29 14:53:55.936918	358.0	24.1	-92.8	8.8
2025-01-29 14:53:57.057974	357.7	24.0	-92.6	8.8
2025-01-29 14:53:58.179481	357.3	24.0	-92.1	12.4
2025-01-29 14:53:59.302124	357.0	24.0	-92.1	13.4
2025-01-29 14:54:00.424594	356.7	24.0	-92.4	9.1
2025-01-29 14:54:01.546558	356.4	23.9	-92.3	6.2
2025-01-29 14:54:02.668220	356.1	23.9	-91.2	11.9
2025-01-29 14:54:03.789800	355.8	23.9	-90.9	9.3
2025-01-29 14:54:04.911390	355.5	23.9	-91.6	5.8
2025-01-29 14:54:06.032639	355.2	23.8	-91.5	5.7
2025-01-29 14:54:07.154415	354.9	23.8	-92.7	12.1
2025-01-29 14:54:08.275181	354.6	23.8	-92.6	14.1
2025-01-29 14:54:09.396031	354.3	23.7	-92.8	8.3
2025-01-29 14:54:10.519546	354.0	23.7	-92.8	12.5
2025-01-29 14:54:11.641697	353.7	23.7	-92.7	17.1
2025-01-29 14:54:12.764360	353.4	23.6	-92.9	14.8
2025-01-29 14:54:13.886159	353.1	23.6	-92.9	10.9
2025-01-29 14:54:15.006789	352.7	23.6	-92.8	10.8
2025-01-29 14:54:16.127578	352.4	23.5	-93.0	15.4
2025-01-29 14:54:17.249389	352.1	23.5	-92.8	15.9
2025-01-29 14:54:18.371968	351.8	23.5	-92.8	10.8
2025-01-29 14:54:19.495385	351.5	23.4	-92.9	9.1
2025-01-29 14:54:20.616075	351.3	23.4	-92.9	13.0
2025-01-29 14:54:21.737885	351.0	23.3	-92.9	10.1
2025-01-29 14:54:22.859265	350.7	23.3	-92.7	7.4
2025-01-29 14:54:23.979821	350.4	23.3	-92.8	10.1
2025-01-29 14:54:25.101174	350.1	23.2	-92.5	11.2
2025-01-29 14:54:26.222676	349.8	23.2	-92.4	12.8
2025-01-29 14:54:27.343896	349.5	23.1	-92.7	9.3
2025-01-29 14:54:28.465038	349.2	23.1	-92.9	10.1
2025-01-29 14:54:29.586166	348.9	23.0	-92.6	10.6
2025-01-29 14:54:30.707741	348.6	23.0	-92.7	12.3
2025-01-29 14:54:31.831680	348.3	22.9	-92.7	10.1
2025-01-29 14:54:32.953368	348.0	22.9	-92.7	8.0
2025-01-29 14:54:34.074505	347.7	22.8	-92.3	8.8
2025-01-29 14:54:35.194815	347.4	22.8	-92.6	13.3
2025-01-29 14:54:36.315745	347.2	22.7	-92.5	7.4
2025-01-29 14:54:37.436949	346.9	22.7	-92.8	4.7
2025-01-29 14:54:38.558780	346.6	22.6	-92.8	2.0
2025-01-29 14:54:39.680300	346.3	22.6	-92.7	9.3
2025-01-29 14:54:40.801079	346.0	22.5	-92.8	7.9
2025-01-29 14:54:41.921809	345.7	22.5	-92.6	6.8
2025-01-29 14:54:43.042463	345.5	22.4	-92.5	9.0
2025-01-29 14:54:44.163642	345.2	22.4	-92.9	10.1
2025-01-29 14:54:45.285851	344.9	22.3	-92.7	8.1
2025-01-29 14:54:46.407174	344.6	22.3	-93.0	6.7
2025-01-29 14:54:47.527705	344.3	22.2	-92.6	4.3
2025-01-29 14:54:48.649332	344.1	22.2	-92.5	8.7
2025-01-29 14:54:49.771116	343.8	22.1	-92.6	11.7
2025-01-29 14:54:50.891870	343.5	22.0	-91.8	8.2
2025-01-29 14:54:52.015797	343.2	22.0	-91.1	8.6
2025-01-29 14:54:53.137157	343.0	21.9	-91.4	10.7
2025-01-29 14:54:54.258792	342.7	21.9	-91.9	13.6
2025-01-29 14:54:55.380035	342.4	21.8	-91.6	9.0
2025-01-29 14:54:56.501366	342.2	21.7	-91.7	9.1
2025-01-29 14:54:57.621683	341.9	21.7	-91.2	11.6
2025-01-29 14:54:58.742746	341.6	21.6	-91.3	12.9
2025-01-29 14:54:59.865324	341.4	21.6	-92.0	7.7
2025-01-29 14:55:00.986013	341.1	21.5	-92.6	8.0
2025-01-29 14:55:02.108622	340.8	21.4	-92.5	11.4
2025-01-29 14:55:03.229682	340.6	21.4	-92.5	13.8
2025-01-29 14:55:04.350407	340.3	21.3	-92.4	6.6
2025-01-29 14:55:05.471905	340.1	21.2	-93.0	8.0
2025-01-29 14:55:06.593116	339.8	21.2	-92.4	9.6
2025-01-29 14:55:07.713499	339.5	21.1	-92.9	13.3
2025-01-29 14:55:08.834762	339.3	21.0	-92.8	12.6
2025-01-29 14:55:09.955346	339.0	21.0	-92.8	9.2
2025-01-29 14:55:11.077055	338.8	20.9	-92.8	8.1
2025-01-29 14:55:12.198269	338.5	20.8	-92.8	12.8
2025-01-29 14:55:13.318858	338.3	20.8	-92.8	10.0
2025-01-29 14:55:14.440503	338.0	20.7	-92.8	10.0
2025-01-29 14:55:15.562236	337.8	20.6	-92.7	5.8
2025-01-29 14:55:16.682783	337.5	20.6	-93.1	11.5
2025-01-29 14:55:17.804775	337.3	20.5	-93.0	9.1
2025-01-29 14:55:18.925537	337.0	20.4	-93.0	7.7
2025-01-29 14:55:20.049462	336.8	20.4	-92.7	7.5
2025-01-29 14:55:21.183866	336.5	20.3	-92.6	7.7
2025-01-29 14:55:22.303784	336.3	20.2	-92.9	5.5
2025-01-29 14:55:23.427112	336.0	20.1	-92.3	6.1
2025-01-29 14:55:24.549349	335.8	20.1	-92.4	4.3
2025-01-29 14:55:25.670757	335.6	20.0	-92.7	5.4
2025-01-29 14:55:26.792308	335.3	19.9	-92.9	6.2
2025-01-29 14:55:27.913492	335.1	19.9	-93.0	4.3
2025-01-29 14:55:29.034920	334.8	19.8	-92.8	6.6
2025-01-29 14:55:30.156409	334.6	19.7	-92.9	7.1
2025-01-29 14:55:31.277436	334.4	19.6	-92.5	6.1
2025-01-29 14:55:32.399175	334.1	19.6	-92.6	6.9
2025-01-29 14:55:33.520612	333.9	19.5	-92.8	8.2
2025-01-29 14:55:34.640830	333.7	19.4	-92.6	7.7
2025-01-29 14:55:35.761964	333.5	19.3	-93.1	9.6
2025-01-29 14:55:36.882222	333.2	19.3	-92.7	5.2
2025-01-29 14:55:38.006474	333.0	19.2	-93.0	7.2
2025-01-29 14:55:39.128611	332.8	19.1	-92.6	10.5
2025-01-29 14:55:40.248782	332.5	19.0	-92.7	9.3
2025-01-29 14:55:41.368849	332.3	19.0	-92.9	5.1
2025-01-29 14:55:42.489884	332.1	18.9	-92.5	3.7
2025-01-29 14:55:43.619419	331.9	18.8	-93.1	9.1
2025-01-29 14:55:44.740895	331.7	18.7	-92.9	5.6
2025-01-29 14:55:45.862945	331.4	18.7	-93.1	7.3
2025-01-29 14:55:46.983269	331.2	18.6	-92.8	6.0
2025-01-29 14:55:48.102853	331.0	18.5	-93.0	5.5
2025-01-29 14:55:49.223621	330.8	18.4	-93.1	6.3
2025-01-29 14:55:50.343550	330.6	18.3	-92.8	6.0
2025-01-29 14:55:51.463806	330.4	18.3	-92.9	6.3
2025-01-29 14:55:52.585577	330.1	18.2	-92.8	6.3
2025-01-29 14:55:53.705341	329.9	18.1	-92.8	12.5
2025-01-29 14:55:54.826088	329.7	18.0	-93.1	8.3
2025-01-29 14:55:55.945370	329.5	18.0	-91.6	6.0
2025-01-29 14:55:57.066035	329.3	17.9	-91.8	5.0
2025-01-29 14:55:58.186884	329.1	17.8	-91.8	5.6
2025-01-29 14:55:59.308556	328.9	17.7	-91.2	5.8
2025-01-29 14:56:00.428866	328.7	17.6	-91.8	6.6
2025-01-29 14:56:01.549792	328.5	17.6	-91.7	5.9
2025-01-29 14:56:02.671039	328.3	17.5	-91.6	4.2
2025-01-29 14:56:03.790907	328.1	17.4	-91.7	4.5
2025-01-29 14:56:04.913586	327.9	17.3	-91.0	4.0
2025-01-29 14:56:06.036676	327.7	17.2	-91.8	6.1
2025-01-29 14:56:07.157904	327.5	17.2	-91.7	5.6
2025-01-29 14:56:08.279085	327.3	17.1	-91.6	3.9
2025-01-29 14:56:09.400720	327.1	17.0	-91.5	5.7
2025-01-29 14:56:10.521759	326.9	16.9	-91.7	7.1
2025-01-29 14:56:11.643836	326.7	16.8	-92.5	6.7
2025-01-29 14:56:12.766899	326.5	16.8	-92.5	5.1
2025-01-29 14:56:13.888096	326.3	16.7	-92.4	5.0
2025-01-29 14:56:15.009172	326.1	16.6	-92.9	3.4
2025-01-29 14:56:16.130579	325.9	16.5	-92.4	3.2
2025-01-29 14:56:17.251549	325.7	16.4	-92.6	4.8
2025-01-29 14:56:18.374944	325.5	16.4	-92.5	2.7
2025-01-29 14:56:19.496385	325.3	16.3	-92.9	4.0
2025-01-29 14:56:20.616571	325.2	16.2	-92.8	5.9
2025-01-29 14:56:21.738151	325.0	16.1	-92.7	6.8
2025-01-29 14:56:22.859642	324.8	16.0	-92.8	8.3
2025-01-29 14:56:23.980594	324.6	16.0	-92.5	10.0
2025-01-29 14:56:25.101438	324.4	15.9	-92.7	6.4
2025-01-29 14:56:26.223165	324.2	15.8	-92.9	15.0
2025-01-29 14:56:27.344695	324.1	15.7	-92.4	14.6
2025-01-29 14:56:28.481885	323.9	15.6	-92.9	5.7
2025-01-29 14:56:29.605064	323.7	15.6	-93.2	9.7
2025-01-29 14:56:30.758932	323.5	15.5	-93.0	6.1
2025-01-29 14:56:31.925068	323.3	15.4	-93.2	5.0
2025-01-29 14:56:33.085723	323.2	15.3	-92.9	8.0
2025-01-29 14:56:34.250882	323.0	15.2	-92.5	3.1
2025-01-29 14:56:35.406656	322.8	15.1	-92.9	5.6
2025-01-29 14:56:36.571084	322.6	15.1	-93.1	5.8
2025-01-29 14:56:37.734133	322.4	15.0	-93.0	10.1
2025-01-29 14:56:38.900576	322.3	14.9	-91.5	8.3
2025-01-29 14:56:40.061561	322.1	14.8	-91.2	5.8
2025-01-29 14:56:41.229573	321.9	14.7	-91.3	6.7
2025-01-29 14:56:42.382390	321.7	14.6	-91.5	9.2
#Closed at: 2025-01-29 14:50:28.040154