passes_logs/2025/01/29/LEX_Murmansk/LEX_Murmansk__20250129_162919_NOAA_18_rec.log

#Pass ID: 20250129_162919_NOAA 18
#Satellite: NOAA 18
#Configuration: NOAA 18
#Start time: 2025-01-29 16:29:14.183863

#LorettStation: 1.0.0 05.05.2024
#Station: LEX_Murmansk
#Location: 33.156738 lon 68.926811 lat
#TLE: 1 28654U 05018A   25029.10768076  .00000445  00000+0  25948-3 0  9995
#TLE: 2 28654  98.8544 110.0207 0014928 140.4380 219.7885 14.13500636 15173

#Time	Az	El	Level	SNR
2025-01-29 16:29:26.390111	82.7	16.1	-91.7	3.4
2025-01-29 16:29:27.542211	82.6	16.2	-92.0	9.6
2025-01-29 16:29:28.691986	82.4	16.3	-91.8	7.7
2025-01-29 16:29:29.839246	82.3	16.4	-92.2	10.0
2025-01-29 16:29:30.986636	82.1	16.5	-91.0	13.9
2025-01-29 16:29:32.137351	82.0	16.6	-90.7	8.9
2025-01-29 16:29:33.283489	81.8	16.7	-91.0	6.3
2025-01-29 16:29:34.431159	81.7	16.8	-91.2	5.4
2025-01-29 16:29:35.579850	81.5	16.9	-90.9	4.6
2025-01-29 16:29:36.732596	81.4	17.0	-90.4	12.4
2025-01-29 16:29:37.877709	81.2	17.1	-91.3	9.9
2025-01-29 16:29:39.026184	81.1	17.2	-92.0	10.6
2025-01-29 16:29:40.172434	80.9	17.3	-91.6	9.9
2025-01-29 16:29:41.324711	80.8	17.4	-91.9	7.8
2025-01-29 16:29:42.474906	80.6	17.5	-92.2	11.1
2025-01-29 16:29:43.621628	80.4	17.6	-92.0	14.2
2025-01-29 16:29:44.769840	80.3	17.7	-91.9	14.4
2025-01-29 16:29:45.917126	80.1	17.8	-92.3	6.5
2025-01-29 16:29:47.066506	79.9	18.0	-92.2	9.7
2025-01-29 16:29:48.214913	79.8	18.1	-92.0	15.9
2025-01-29 16:29:49.369176	79.6	18.2	-91.7	12.9
2025-01-29 16:29:50.518074	79.4	18.3	-92.2	9.8
2025-01-29 16:29:51.672313	79.3	18.4	-92.7	10.2
2025-01-29 16:29:52.819399	79.1	18.5	-92.1	12.3
2025-01-29 16:29:53.969432	78.9	18.6	-92.1	3.2
2025-01-29 16:29:55.117458	78.8	18.7	-91.7	6.9
2025-01-29 16:29:56.268050	78.6	18.8	-92.2	9.1
2025-01-29 16:29:57.422974	78.4	18.9	-92.0	7.7
2025-01-29 16:29:58.568721	78.2	19.0	-92.0	6.8
2025-01-29 16:29:59.716827	78.1	19.1	-92.5	9.9
2025-01-29 16:30:00.861650	77.9	19.2	-92.3	15.1
2025-01-29 16:30:02.006894	77.7	19.4	-92.1	8.3
2025-01-29 16:30:03.155034	77.5	19.5	-92.0	8.8
2025-01-29 16:30:04.305524	77.3	19.6	-92.0	12.9
2025-01-29 16:30:05.455042	77.1	19.7	-92.4	12.2
2025-01-29 16:30:06.604095	77.0	19.8	-92.0	15.7
2025-01-29 16:30:07.752879	76.8	19.9	-92.3	13.9
2025-01-29 16:30:08.899900	76.6	20.0	-92.1	17.8
2025-01-29 16:30:10.049458	76.4	20.1	-91.6	11.8
2025-01-29 16:30:11.196250	76.2	20.2	-92.3	10.0
2025-01-29 16:30:12.347336	76.0	20.3	-92.2	7.3
2025-01-29 16:30:13.494019	75.8	20.4	-92.2	6.0
2025-01-29 16:30:14.646735	75.6	20.6	-92.4	6.1
2025-01-29 16:30:15.795743	75.4	20.7	-92.3	15.9
2025-01-29 16:30:16.950125	75.2	20.8	-92.4	5.2
2025-01-29 16:30:18.099466	75.0	20.9	-92.3	10.1
2025-01-29 16:30:19.248218	74.8	21.0	-91.9	17.9
2025-01-29 16:30:20.398847	74.6	21.1	-92.1	17.9
2025-01-29 16:30:21.551685	74.4	21.2	-92.4	6.3
2025-01-29 16:30:22.698081	74.2	21.3	-92.5	16.6
2025-01-29 16:30:23.836844	74.0	21.4	-92.0	9.4
2025-01-29 16:30:24.988556	73.8	21.6	-92.3	8.4
2025-01-29 16:30:26.114239	73.6	21.7	-91.9	6.7
2025-01-29 16:30:27.235055	73.4	21.8	-92.3	9.3
2025-01-29 16:30:28.355110	73.2	21.9	-92.1	9.3
2025-01-29 16:30:29.475472	73.0	22.0	-92.5	12.2
2025-01-29 16:30:30.595519	72.8	22.1	-92.7	13.6
2025-01-29 16:30:31.716033	72.5	22.2	-92.3	9.4
2025-01-29 16:30:32.837603	72.3	22.3	-92.5	11.4
2025-01-29 16:30:33.957205	72.1	22.4	-92.6	7.1
2025-01-29 16:30:35.081200	71.9	22.5	-92.0	6.9
2025-01-29 16:30:36.202047	71.7	22.6	-92.2	10.2
2025-01-29 16:30:37.347619	71.5	22.8	-92.6	11.4
2025-01-29 16:30:38.496235	71.2	22.9	-91.1	9.5
2025-01-29 16:30:39.640410	71.0	23.0	-90.8	10.2
2025-01-29 16:30:40.791716	70.8	23.1	-91.1	11.9
2025-01-29 16:30:41.932893	70.5	23.2	-91.4	12.0
2025-01-29 16:30:43.084403	70.3	23.3	-92.1	10.3
2025-01-29 16:30:44.224821	70.1	23.4	-92.5	12.9
2025-01-29 16:30:45.371833	69.8	23.5	-92.1	12.2
2025-01-29 16:30:46.515186	69.6	23.6	-92.3	8.1
2025-01-29 16:30:47.667412	69.3	23.8	-92.4	8.6
2025-01-29 16:30:48.816091	69.1	23.9	-92.4	10.8
2025-01-29 16:30:49.971104	68.9	24.0	-92.6	10.4
2025-01-29 16:30:51.125039	68.6	24.1	-92.1	11.8
2025-01-29 16:30:52.278807	68.4	24.2	-92.2	10.9
2025-01-29 16:30:53.424615	68.1	24.3	-92.5	9.1
2025-01-29 16:30:54.554424	67.9	24.4	-92.3	6.9
2025-01-29 16:30:55.678026	67.6	24.5	-92.4	7.3
2025-01-29 16:30:56.811183	67.4	24.6	-92.6	7.2
2025-01-29 16:30:57.950823	67.1	24.7	-92.0	4.4
2025-01-29 16:30:59.093714	66.9	24.9	-92.1	6.9
2025-01-29 16:31:00.236507	66.6	25.0	-92.0	9.6
2025-01-29 16:31:01.379739	66.3	25.1	-92.5	9.7
2025-01-29 16:31:02.535145	66.1	25.2	-92.6	6.6
2025-01-29 16:31:03.681806	65.8	25.3	-92.3	11.0
2025-01-29 16:31:04.830065	65.5	25.4	-92.2	8.7
2025-01-29 16:31:05.980974	65.3	25.5	-92.5	10.3
2025-01-29 16:31:07.133209	65.0	25.6	-92.4	13.0
2025-01-29 16:31:08.274499	64.7	25.7	-92.2	7.0
2025-01-29 16:31:09.424886	64.5	25.8	-92.2	5.2
2025-01-29 16:31:10.570376	64.2	25.9	-92.6	8.9
2025-01-29 16:31:11.718694	63.9	26.0	-92.2	7.9
2025-01-29 16:31:12.872195	63.6	26.2	-91.7	4.3
2025-01-29 16:31:14.015150	63.3	26.3	-91.7	2.9
2025-01-29 16:31:15.168912	63.0	26.4	-91.2	4.3
2025-01-29 16:31:16.314762	62.8	26.5	-91.0	4.5
2025-01-29 16:31:17.464183	62.5	26.6	-91.2	4.2
2025-01-29 16:31:18.613564	62.2	26.7	-91.3	5.4
2025-01-29 16:31:19.760909	61.9	26.8	-91.1	4.9
2025-01-29 16:31:20.914083	61.6	26.9	-92.1	3.5
2025-01-29 16:31:22.062304	61.3	27.0	-92.7	5.4
2025-01-29 16:31:23.218333	61.0	27.1	-92.2	6.6
2025-01-29 16:31:24.367213	60.7	27.2	-92.5	5.5
2025-01-29 16:31:25.518815	60.4	27.3	-92.1	4.9
2025-01-29 16:31:26.668814	60.1	27.4	-92.3	6.0
2025-01-29 16:31:27.819961	59.8	27.5	-92.5	7.1
2025-01-29 16:31:28.965041	59.5	27.6	-92.7	5.8
2025-01-29 16:31:30.110188	59.2	27.7	-92.1	4.0
2025-01-29 16:31:31.260029	58.9	27.8	-91.9	7.3
2025-01-29 16:31:32.406051	58.5	27.9	-92.3	7.4
2025-01-29 16:31:33.556059	58.2	28.0	-92.5	8.2
2025-01-29 16:31:34.707156	57.9	28.1	-92.2	10.8
2025-01-29 16:31:35.856994	57.6	28.2	-92.3	6.5
2025-01-29 16:31:37.009730	57.3	28.3	-92.4	5.9
2025-01-29 16:31:38.155624	56.9	28.4	-92.1	6.2
2025-01-29 16:31:39.300291	56.6	28.5	-92.2	10.1
2025-01-29 16:31:40.452291	56.3	28.6	-92.3	8.4
2025-01-29 16:31:41.602211	56.0	28.7	-92.7	10.2
2025-01-29 16:31:42.748249	55.6	28.8	-92.4	6.2
2025-01-29 16:31:43.894216	55.3	28.9	-92.4	6.0
2025-01-29 16:31:45.042131	55.0	28.9	-92.5	6.7
2025-01-29 16:31:46.188175	54.6	29.0	-91.8	9.5
2025-01-29 16:31:47.346240	54.3	29.1	-92.1	8.7
2025-01-29 16:31:48.496010	53.9	29.2	-92.2	5.3
2025-01-29 16:31:49.643742	53.6	29.3	-92.6	7.3
2025-01-29 16:31:50.796583	53.3	29.4	-92.8	7.9
2025-01-29 16:31:51.947524	52.9	29.5	-92.6	4.9
2025-01-29 16:31:53.102645	52.6	29.6	-92.3	11.8
2025-01-29 16:31:54.251026	52.2	29.6	-92.4	7.6
2025-01-29 16:31:55.400547	51.9	29.7	-92.6	8.9
2025-01-29 16:31:56.555774	51.5	29.8	-92.6	11.8
2025-01-29 16:31:57.709526	51.1	29.9	-92.5	8.7
2025-01-29 16:31:58.857692	50.8	30.0	-92.1	9.8
2025-01-29 16:32:00.002030	50.4	30.0	-92.2	9.1
2025-01-29 16:32:01.160116	50.1	30.1	-92.3	9.1
2025-01-29 16:32:02.309770	49.7	30.2	-91.1	13.0
2025-01-29 16:32:03.463327	49.3	30.3	-90.9	9.3
2025-01-29 16:32:04.611532	49.0	30.4	-91.1	12.5
2025-01-29 16:32:05.759914	48.6	30.4	-91.3	15.2
2025-01-29 16:32:06.909549	48.2	30.5	-91.1	8.8
2025-01-29 16:32:08.064172	47.9	30.6	-92.0	6.9
2025-01-29 16:32:09.213224	47.5	30.6	-91.0	13.9
2025-01-29 16:32:10.360749	47.1	30.7	-91.2	10.2
2025-01-29 16:32:11.504398	46.7	30.8	-91.4	11.7
2025-01-29 16:32:12.650476	46.4	30.8	-91.3	10.1
2025-01-29 16:32:13.801763	46.0	30.9	-91.0	10.2
2025-01-29 16:32:14.955295	45.6	31.0	-91.1	13.5
2025-01-29 16:32:16.102208	45.2	31.0	-91.4	14.1
2025-01-29 16:32:17.259696	44.8	31.1	-91.1	14.8
2025-01-29 16:32:18.405969	44.5	31.2	-90.8	10.7
2025-01-29 16:32:19.557089	44.1	31.2	-91.5	9.3
2025-01-29 16:32:20.708123	43.7	31.3	-91.5	12.6
2025-01-29 16:32:21.861921	43.3	31.3	-91.0	10.6
2025-01-29 16:32:23.006754	42.9	31.4	-90.9	9.5
2025-01-29 16:32:24.158106	42.5	31.4	-91.2	13.2
2025-01-29 16:32:25.309393	42.1	31.5	-91.0	12.6
2025-01-29 16:32:26.463735	41.7	31.5	-91.4	8.7
2025-01-29 16:32:27.621946	41.3	31.6	-90.9	15.1
2025-01-29 16:32:28.768352	40.9	31.6	-90.9	16.2
2025-01-29 16:32:29.916321	40.5	31.7	-91.2	10.6
2025-01-29 16:32:31.069476	40.1	31.7	-91.3	11.4
2025-01-29 16:32:32.229231	39.7	31.8	-92.1	13.4
2025-01-29 16:32:33.374757	39.3	31.8	-91.9	9.6
2025-01-29 16:32:34.522273	38.9	31.8	-92.5	12.1
2025-01-29 16:32:35.670047	38.5	31.9	-92.5	13.6
2025-01-29 16:32:36.822144	38.1	31.9	-92.6	18.8
2025-01-29 16:32:37.973270	37.7	31.9	-92.5	19.8
2025-01-29 16:32:39.115368	37.3	32.0	-92.2	17.6
2025-01-29 16:32:40.262201	36.9	32.0	-92.2	17.8
2025-01-29 16:32:41.406442	36.5	32.0	-91.6	16.5
2025-01-29 16:32:42.555436	36.1	32.1	-92.5	11.4
2025-01-29 16:32:43.698921	35.7	32.1	-92.3	16.6
2025-01-29 16:32:44.853249	35.3	32.1	-92.0	8.2
2025-01-29 16:32:46.001436	34.9	32.1	-92.1	7.9
2025-01-29 16:32:47.153197	34.4	32.2	-92.1	14.2
2025-01-29 16:32:48.309211	34.0	32.2	-92.3	14.7
2025-01-29 16:32:49.456137	33.6	32.2	-92.5	8.3
2025-01-29 16:32:50.608364	33.2	32.2	-92.5	15.0
2025-01-29 16:32:51.757622	32.8	32.2	-92.6	13.7
2025-01-29 16:32:52.902797	32.4	32.3	-92.4	10.8
2025-01-29 16:32:54.050642	32.0	32.3	-92.5	12.2
2025-01-29 16:32:55.194237	31.6	32.3	-92.0	16.1
2025-01-29 16:32:56.341355	31.2	32.3	-92.1	13.9
2025-01-29 16:32:57.492598	30.7	32.3	-92.8	10.0
2025-01-29 16:32:58.639038	30.3	32.3	-92.3	14.6
2025-01-29 16:32:59.790086	29.9	32.3	-92.4	18.1
2025-01-29 16:33:00.942399	29.5	32.3	-92.7	13.2
2025-01-29 16:33:02.092753	29.1	32.3	-92.1	16.2
2025-01-29 16:33:03.240708	28.7	32.3	-92.4	13.6
2025-01-29 16:33:04.394530	28.3	32.3	-92.7	11.1
2025-01-29 16:33:05.544685	27.8	32.3	-92.7	12.9
2025-01-29 16:33:06.691915	27.4	32.3	-92.8	14.6
2025-01-29 16:33:07.844303	27.0	32.3	-92.9	18.0
2025-01-29 16:33:08.991125	26.6	32.3	-92.4	15.7
2025-01-29 16:33:10.141605	26.2	32.2	-92.4	12.1
2025-01-29 16:33:11.293002	25.8	32.2	-92.4	13.4
2025-01-29 16:33:12.442965	25.4	32.2	-92.3	9.7
2025-01-29 16:33:13.595585	24.9	32.2	-92.6	10.0
2025-01-29 16:33:14.744288	24.5	32.2	-92.3	11.3
2025-01-29 16:33:15.897696	24.1	32.2	-92.4	9.1
2025-01-29 16:33:17.045627	23.7	32.1	-92.4	9.8
2025-01-29 16:33:18.200388	23.3	32.1	-92.5	9.1
2025-01-29 16:33:19.345330	22.9	32.1	-91.9	10.3
2025-01-29 16:33:20.489433	22.5	32.1	-92.5	5.1
2025-01-29 16:33:21.639388	22.1	32.0	-92.6	10.2
2025-01-29 16:33:22.790411	21.7	32.0	-92.1	10.5
2025-01-29 16:33:23.943010	21.3	32.0	-90.9	7.6
2025-01-29 16:33:25.091342	20.9	31.9	-91.4	7.5
2025-01-29 16:33:26.238408	20.5	31.9	-90.8	11.2
2025-01-29 16:33:27.388115	20.0	31.9	-91.0	8.0
2025-01-29 16:33:28.538981	19.6	31.8	-91.0	9.2
2025-01-29 16:33:29.691691	19.2	31.8	-90.6	11.4
2025-01-29 16:33:30.844670	18.8	31.7	-91.0	13.7
2025-01-29 16:33:31.997743	18.4	31.7	-91.4	9.1
2025-01-29 16:33:33.144954	18.0	31.7	-90.4	9.1
2025-01-29 16:33:34.294683	17.6	31.6	-91.0	12.7
2025-01-29 16:33:35.442457	17.2	31.6	-91.4	7.7
2025-01-29 16:33:36.589545	16.9	31.5	-91.1	8.5
2025-01-29 16:33:37.741241	16.5	31.5	-91.4	13.7
2025-01-29 16:33:38.888202	16.1	31.4	-92.3	7.7
2025-01-29 16:33:40.038235	15.7	31.4	-92.5	9.9
2025-01-29 16:33:41.189451	15.3	31.3	-92.2	13.3
2025-01-29 16:33:42.341126	14.9	31.2	-92.0	10.6
2025-01-29 16:33:43.493238	14.5	31.2	-92.2	8.2
2025-01-29 16:33:44.640895	14.1	31.1	-92.5	14.8
2025-01-29 16:33:45.793757	13.7	31.1	-92.7	14.5
2025-01-29 16:33:46.945374	13.3	31.0	-92.2	6.2
2025-01-29 16:33:48.096822	13.0	30.9	-91.9	9.3
2025-01-29 16:33:49.246261	12.6	30.9	-91.8	9.5
2025-01-29 16:33:50.392832	12.2	30.8	-92.5	7.0
2025-01-29 16:33:51.546000	11.8	30.7	-92.4	8.4
2025-01-29 16:33:52.695282	11.5	30.7	-92.1	11.6
2025-01-29 16:33:53.849505	11.1	30.6	-92.2	12.0
2025-01-29 16:33:54.997155	10.7	30.5	-92.0	7.5
2025-01-29 16:33:56.148522	10.3	30.5	-92.0	9.7
2025-01-29 16:33:57.299334	10.0	30.4	-92.0	12.7
2025-01-29 16:33:58.451264	9.6	30.3	-92.5	8.3
2025-01-29 16:33:59.602164	9.2	30.2	-92.3	13.5
2025-01-29 16:34:00.751417	8.9	30.2	-92.7	13.7
2025-01-29 16:34:01.899311	8.5	30.1	-92.3	7.2
2025-01-29 16:34:03.048600	8.1	30.0	-92.5	5.0
2025-01-29 16:34:04.197440	7.8	29.9	-92.4	11.8
2025-01-29 16:34:05.350353	7.4	29.9	-92.4	8.2
2025-01-29 16:34:06.503461	7.1	29.8	-92.3	5.7
2025-01-29 16:34:07.647495	6.7	29.7	-92.4	9.4
2025-01-29 16:34:08.796710	6.4	29.6	-92.6	9.5
2025-01-29 16:34:09.944620	6.0	29.5	-92.7	7.1
2025-01-29 16:34:11.096249	5.7	29.4	-92.1	7.3
2025-01-29 16:34:12.245570	5.3	29.4	-92.5	9.3
2025-01-29 16:34:13.390177	5.0	29.3	-92.5	4.4
2025-01-29 16:34:14.538853	4.6	29.2	-92.5	5.7
2025-01-29 16:34:15.692340	4.3	29.1	-92.4	7.5
2025-01-29 16:34:16.841111	4.0	29.0	-92.5	6.7
2025-01-29 16:34:17.998020	3.6	28.9	-92.9	6.2
2025-01-29 16:34:19.148517	3.3	28.8	-92.4	9.7
2025-01-29 16:34:20.292082	3.0	28.7	-92.6	13.0
2025-01-29 16:34:21.439778	2.6	28.6	-92.6	9.7
2025-01-29 16:34:22.592066	2.3	28.5	-92.7	12.7
2025-01-29 16:34:23.740049	2.0	28.4	-93.0	13.0
2025-01-29 16:34:24.887801	1.6	28.3	-92.6	11.7
2025-01-29 16:34:26.035115	1.3	28.3	-92.7	10.6
2025-01-29 16:34:27.184653	1.0	28.2	-92.9	14.5
2025-01-29 16:34:28.335376	0.7	28.1	-92.2	15.1
2025-01-29 16:34:29.485193	0.4	28.0	-92.5	12.6
2025-01-29 16:34:30.635309	0.0	27.9	-92.6	15.1
2025-01-29 16:34:31.780362	359.7	27.8	-92.8	17.0
2025-01-29 16:34:32.930895	359.4	27.7	-92.5	15.0
2025-01-29 16:34:34.083196	359.1	27.6	-92.4	14.1
2025-01-29 16:34:35.239328	358.8	27.5	-92.3	11.6
2025-01-29 16:34:36.387825	358.5	27.4	-92.5	13.6
2025-01-29 16:34:37.541783	358.2	27.3	-92.3	13.0
2025-01-29 16:34:38.688616	357.9	27.2	-92.2	10.8
2025-01-29 16:34:39.832141	357.6	27.1	-90.9	12.7
2025-01-29 16:34:40.983043	357.3	26.9	-91.0	11.2
2025-01-29 16:34:42.136428	357.0	26.8	-91.0	10.3
2025-01-29 16:34:43.281588	356.7	26.7	-92.2	12.3
2025-01-29 16:34:44.427483	356.4	26.6	-92.3	9.3
2025-01-29 16:34:45.577564	356.1	26.5	-92.6	10.4
2025-01-29 16:34:46.724854	355.8	26.4	-92.5	13.6
2025-01-29 16:34:47.877516	355.5	26.3	-92.1	7.5
2025-01-29 16:34:49.027654	355.3	26.2	-92.5	8.6
2025-01-29 16:34:50.181703	355.0	26.1	-92.3	12.1
2025-01-29 16:34:51.334478	354.7	26.0	-92.4	12.6
2025-01-29 16:34:52.483403	354.4	25.9	-92.5	8.5
2025-01-29 16:34:53.630311	354.1	25.8	-92.6	12.0
2025-01-29 16:34:54.779468	353.9	25.7	-92.7	17.3
2025-01-29 16:34:55.922928	353.6	25.6	-92.1	7.7
2025-01-29 16:34:57.071553	353.3	25.5	-92.5	8.3
2025-01-29 16:34:58.222993	353.1	25.3	-92.1	14.3
2025-01-29 16:34:59.373051	352.8	25.2	-92.4	10.2
2025-01-29 16:35:00.521345	352.5	25.1	-92.6	10.7
2025-01-29 16:35:01.671859	352.3	25.0	-92.5	16.1
2025-01-29 16:35:02.819070	352.0	24.9	-92.6	16.5
2025-01-29 16:35:03.973412	351.7	24.8	-92.4	13.7
2025-01-29 16:35:05.121653	351.5	24.7	-92.3	14.7
2025-01-29 16:35:06.271206	351.2	24.6	-92.1	16.3
2025-01-29 16:35:07.418495	351.0	24.5	-92.7	16.2
2025-01-29 16:35:08.560468	350.7	24.4	-92.8	15.4
2025-01-29 16:35:09.713735	350.5	24.2	-92.4	14.7
2025-01-29 16:35:10.860098	350.2	24.1	-92.5	14.5
2025-01-29 16:35:12.010442	350.0	24.0	-92.7	13.2
2025-01-29 16:35:13.159132	349.7	23.9	-91.8	11.2
2025-01-29 16:35:14.305219	349.5	23.8	-92.3	14.3
2025-01-29 16:35:15.454376	349.2	23.7	-92.9	14.5
2025-01-29 16:35:16.607348	349.0	23.6	-92.7	15.4
2025-01-29 16:35:17.755682	348.8	23.5	-91.5	14.9
2025-01-29 16:35:18.900277	348.5	23.4	-91.2	9.9
2025-01-29 16:35:20.066504	348.3	23.2	-91.0	9.1
2025-01-29 16:35:21.216837	348.0	23.1	-91.2	12.3
2025-01-29 16:35:22.365832	347.8	23.0	-91.4	9.6
2025-01-29 16:35:23.516071	347.6	22.9	-91.0	7.9
2025-01-29 16:35:24.663807	347.4	22.8	-91.1	10.1
2025-01-29 16:35:25.813111	347.1	22.7	-92.5	11.6
2025-01-29 16:35:26.966244	346.9	22.6	-92.6	7.7
2025-01-29 16:35:28.115330	346.7	22.5	-92.3	10.1
2025-01-29 16:35:29.262788	346.5	22.3	-91.9	12.2
2025-01-29 16:35:30.414334	346.2	22.2	-91.4	9.4
2025-01-29 16:35:31.559848	346.0	22.1	-93.1	11.9
2025-01-29 16:35:32.709987	345.8	22.0	-92.9	12.4
2025-01-29 16:35:33.857127	345.6	21.9	-92.5	14.1
2025-01-29 16:35:35.004258	345.4	21.8	-92.6	13.9
2025-01-29 16:35:36.155303	345.2	21.7	-90.5	12.3
2025-01-29 16:35:37.302882	345.0	21.6	-90.3	11.6
2025-01-29 16:35:38.449205	344.7	21.5	-91.1	10.0
2025-01-29 16:35:39.596676	344.5	21.3	-91.4	11.5
2025-01-29 16:35:40.745354	344.3	21.2	-91.0	11.4
2025-01-29 16:35:41.895781	344.1	21.1	-91.0	6.3
2025-01-29 16:35:43.042107	343.9	21.0	-92.6	5.7
2025-01-29 16:35:44.197369	343.7	20.9	-92.2	11.4
2025-01-29 16:35:45.348557	343.5	20.8	-92.3	10.3
2025-01-29 16:35:46.496928	343.3	20.7	-92.3	4.4
2025-01-29 16:35:47.648208	343.1	20.6	-92.6	8.5
2025-01-29 16:35:48.801102	342.9	20.5	-92.5	9.5
2025-01-29 16:35:49.955306	342.7	20.3	-92.7	6.0
2025-01-29 16:35:51.103440	342.5	20.2	-92.2	5.6
2025-01-29 16:35:52.255530	342.3	20.1	-92.4	6.1
2025-01-29 16:35:53.403853	342.2	20.0	-92.5	5.2
2025-01-29 16:35:54.559944	342.0	19.9	-92.7	6.8
2025-01-29 16:35:55.707264	341.8	19.8	-92.7	5.8
2025-01-29 16:35:56.854665	341.6	19.7	-92.5	8.1
2025-01-29 16:35:58.011336	341.4	19.6	-92.4	6.6
2025-01-29 16:35:59.162897	341.2	19.5	-92.3	9.8
2025-01-29 16:36:00.313829	341.0	19.4	-92.6	7.5
2025-01-29 16:36:01.469596	340.9	19.2	-92.6	6.7
2025-01-29 16:36:02.620308	340.7	19.1	-92.3	7.7
2025-01-29 16:36:03.768491	340.5	19.0	-92.5	4.9
2025-01-29 16:36:04.912897	340.3	18.9	-92.8	3.8
2025-01-29 16:36:06.066727	340.1	18.8	-92.4	5.1
2025-01-29 16:36:07.215420	340.0	18.7	-92.4	6.2
2025-01-29 16:36:08.361744	339.8	18.6	-92.6	5.3
2025-01-29 16:36:09.520485	339.6	18.5	-92.6	4.2
2025-01-29 16:36:10.668145	339.4	18.4	-92.8	7.7
2025-01-29 16:36:11.816481	339.3	18.3	-92.3	7.0
2025-01-29 16:36:12.967579	339.1	18.2	-92.4	7.9
2025-01-29 16:36:14.116516	338.9	18.1	-92.3	6.3
2025-01-29 16:36:15.265581	338.8	17.9	-92.5	6.2
2025-01-29 16:36:16.414602	338.6	17.8	-92.5	7.4
2025-01-29 16:36:17.564494	338.4	17.7	-92.6	5.9
2025-01-29 16:36:18.718826	338.3	17.6	-92.3	6.4
2025-01-29 16:36:19.867048	338.1	17.5	-92.3	4.6
2025-01-29 16:36:21.016874	338.0	17.4	-92.6	5.2
2025-01-29 16:36:22.166292	337.8	17.3	-91.8	4.4
2025-01-29 16:36:23.311079	337.6	17.2	-91.9	5.3
2025-01-29 16:36:24.460503	337.5	17.1	-91.4	5.2
2025-01-29 16:36:25.609742	337.3	17.0	-90.8	5.7
2025-01-29 16:36:26.761419	337.2	16.9	-91.2	6.0
2025-01-29 16:36:27.907035	337.0	16.8	-90.8	4.2
2025-01-29 16:36:29.060800	336.9	16.7	-90.6	2.9
2025-01-29 16:36:30.204950	336.7	16.6	-90.8	5.7
2025-01-29 16:36:31.358602	336.6	16.5	-92.0	4.3
2025-01-29 16:36:32.505972	336.4	16.4	-92.3	7.9
2025-01-29 16:36:33.659922	336.3	16.3	-92.3	4.9
2025-01-29 16:36:34.811263	336.1	16.2	-92.4	3.9
2025-01-29 16:36:35.964459	336.0	16.1	-90.9	6.4
2025-01-29 16:36:37.111667	335.8	16.0	-91.1	9.2
2025-01-29 16:36:38.256825	335.7	15.9	-91.1	8.3
2025-01-29 16:36:39.404163	335.5	15.8	-90.7	7.9
2025-01-29 16:36:40.553318	335.4	15.7	-91.1	6.7
2025-01-29 16:36:41.703028	335.3	15.6	-91.2	9.5
2025-01-29 16:36:42.852197	335.1	15.5	-92.5	5.6
2025-01-29 16:36:43.999036	335.0	15.3	-92.0	5.1
2025-01-29 16:36:45.150284	334.8	15.2	-91.9	7.2
2025-01-29 16:36:46.295561	334.7	15.1	-92.1	7.0
2025-01-29 16:36:47.435293	334.6	15.0	-92.4	6.5
2025-01-29 16:36:48.555515	334.4	15.0	-92.1	7.4
2025-01-29 16:36:49.675986	334.3	14.9	-92.2	7.8
2025-01-29 16:36:50.798325	334.2	14.8	-92.2	8.6
2025-01-29 16:36:51.919826	334.0	14.7	-92.2	10.1
2025-01-29 16:36:53.102548	333.9	14.6	-91.9	7.6
#Closed at: 2025-01-29 16:29:19.192081