passes_logs/2025/01/29/LEX_Murmansk/LEX_Murmansk__20250129_124823_NOAA_19_rec.log

#Pass ID: 20250129_124823_NOAA 19
#Satellite: NOAA 19
#Configuration: NOAA 19
#Start time: 2025-01-29 12:48:18.221335

#LorettStation: 1.0.0 05.05.2024
#Station: LEX_Murmansk
#Location: 33.156738 lon 68.926811 lat
#TLE: 1 33591U 09005A   25027.88922411  .00000392  00000+0  23338-3 0  9991
#TLE: 2 33591  99.0173  91.7499 0013972  22.5257 337.6525 14.13270697823101

#Time	Az	El	Level	SNR
2025-01-29 12:48:30.324791	34.2	15.9	-90.9	3.2
2025-01-29 12:48:31.484107	34.0	16.0	-91.3	3.8
2025-01-29 12:48:32.642962	33.8	16.1	-91.5	3.0
2025-01-29 12:48:33.792091	33.7	16.2	-91.3	2.3
2025-01-29 12:48:34.951855	33.5	16.2	-91.7	1.9
2025-01-29 12:48:36.105162	33.3	16.3	-91.4	2.2
2025-01-29 12:48:37.242801	33.1	16.4	-91.2	3.1
2025-01-29 12:48:38.386571	32.9	16.5	-91.6	3.1
2025-01-29 12:48:39.529890	32.7	16.6	-91.1	4.2
2025-01-29 12:48:40.689656	32.5	16.7	-91.6	3.4
2025-01-29 12:48:41.845532	32.3	16.8	-91.5	2.3
2025-01-29 12:48:42.996540	32.1	16.8	-90.6	1.1
2025-01-29 12:48:44.146799	32.0	16.9	-90.4	4.1
2025-01-29 12:48:45.296622	31.8	17.0	-90.8	2.0
2025-01-29 12:48:46.453256	31.6	17.1	-90.9	3.1
2025-01-29 12:48:47.613261	31.4	17.2	-90.8	1.8
2025-01-29 12:48:48.769378	31.2	17.3	-91.1	4.4
2025-01-29 12:48:49.919164	31.0	17.4	-91.0	4.4
2025-01-29 12:48:51.075480	30.8	17.4	-91.0	3.5
2025-01-29 12:48:52.228633	30.6	17.5	-90.6	5.4
2025-01-29 12:48:53.381316	30.4	17.6	-90.7	5.0
2025-01-29 12:48:54.534187	30.2	17.7	-90.7	3.3
2025-01-29 12:48:55.697855	30.0	17.8	-91.4	0.9
2025-01-29 12:48:56.844039	29.7	17.9	-91.6	0.5
2025-01-29 12:48:57.989172	29.5	18.0	-91.7	3.4
2025-01-29 12:48:59.149663	29.3	18.0	-91.3	3.1
2025-01-29 12:49:00.294074	29.1	18.1	-91.3	1.8
2025-01-29 12:49:01.448400	28.9	18.2	-91.3	5.0
2025-01-29 12:49:02.599386	28.7	18.3	-91.2	4.4
2025-01-29 12:49:03.751294	28.5	18.4	-91.6	9.3
2025-01-29 12:49:04.901397	28.3	18.5	-91.6	8.3
2025-01-29 12:49:06.064427	28.1	18.5	-91.5	6.6
2025-01-29 12:49:07.223909	27.8	18.6	-91.3	4.6
2025-01-29 12:49:08.375133	27.6	18.7	-91.1	5.7
2025-01-29 12:49:09.531625	27.4	18.8	-91.6	3.5
2025-01-29 12:49:10.685242	27.2	18.9	-91.3	3.0
2025-01-29 12:49:11.835864	27.0	19.0	-91.6	4.7
2025-01-29 12:49:12.983281	26.7	19.0	-91.5	5.8
2025-01-29 12:49:14.138201	26.5	19.1	-91.5	6.4
2025-01-29 12:49:15.297627	26.3	19.2	-91.3	9.2
2025-01-29 12:49:16.453305	26.1	19.3	-91.6	5.3
2025-01-29 12:49:17.610718	25.8	19.4	-91.6	7.3
2025-01-29 12:49:18.760171	25.6	19.5	-91.4	3.0
2025-01-29 12:49:19.918933	25.4	19.5	-91.4	4.4
2025-01-29 12:49:21.068390	25.1	19.6	-91.2	3.5
2025-01-29 12:49:22.239873	24.9	19.7	-91.3	2.9
2025-01-29 12:49:23.390244	24.7	19.8	-90.8	2.8
2025-01-29 12:49:24.548135	24.4	19.9	-91.4	3.7
2025-01-29 12:49:25.701066	24.2	19.9	-91.1	4.9
2025-01-29 12:49:26.856953	24.0	20.0	-91.6	4.4
2025-01-29 12:49:28.007822	23.7	20.1	-91.5	7.0
2025-01-29 12:49:29.160090	23.5	20.2	-91.5	7.8
2025-01-29 12:49:30.317691	23.2	20.3	-91.0	8.1
2025-01-29 12:49:31.468578	23.0	20.3	-91.5	7.8
2025-01-29 12:49:32.620010	22.8	20.4	-91.6	5.2
2025-01-29 12:49:33.775214	22.5	20.5	-91.5	4.3
2025-01-29 12:49:34.932592	22.3	20.6	-91.4	6.9
2025-01-29 12:49:36.082541	22.0	20.6	-91.3	8.3
2025-01-29 12:49:37.236594	21.8	20.7	-91.3	9.7
2025-01-29 12:49:38.386718	21.5	20.8	-90.9	8.8
2025-01-29 12:49:39.558413	21.3	20.9	-91.3	8.7
2025-01-29 12:49:40.703644	21.0	21.0	-91.5	9.4
2025-01-29 12:49:41.860558	20.8	21.0	-91.6	5.8
2025-01-29 12:49:43.016369	20.5	21.1	-91.7	4.0
2025-01-29 12:49:44.164594	20.2	21.2	-91.5	3.5
2025-01-29 12:49:45.311772	20.0	21.3	-91.5	1.2
2025-01-29 12:49:46.468283	19.7	21.3	-91.4	3.1
2025-01-29 12:49:47.617573	19.5	21.4	-91.4	3.0
2025-01-29 12:49:48.770373	19.2	21.5	-91.4	2.6
2025-01-29 12:49:49.922164	18.9	21.6	-91.7	2.6
2025-01-29 12:49:51.070971	18.7	21.6	-91.2	4.1
2025-01-29 12:49:52.226379	18.4	21.7	-91.3	5.3
2025-01-29 12:49:53.354185	18.2	21.8	-91.7	10.0
2025-01-29 12:49:54.476424	17.9	21.8	-91.8	10.9
2025-01-29 12:49:55.596918	17.6	21.9	-90.7	7.6
2025-01-29 12:49:56.717285	17.4	22.0	-91.1	7.6
2025-01-29 12:49:57.838042	17.1	22.0	-90.2	8.2
2025-01-29 12:49:58.959071	16.8	22.1	-91.2	4.4
2025-01-29 12:50:00.080058	16.6	22.2	-91.4	6.9
2025-01-29 12:50:01.201465	16.3	22.2	-91.3	4.5
2025-01-29 12:50:02.324375	16.0	22.3	-91.5	5.3
2025-01-29 12:50:03.444348	15.8	22.4	-91.8	4.3
2025-01-29 12:50:04.591320	15.5	22.4	-91.3	7.9
2025-01-29 12:50:05.737562	15.2	22.5	-91.6	5.6
2025-01-29 12:50:06.883053	14.9	22.6	-91.7	9.7
2025-01-29 12:50:08.026494	14.7	22.6	-91.2	8.7
2025-01-29 12:50:09.184794	14.4	22.7	-91.2	10.2
2025-01-29 12:50:10.333872	14.1	22.8	-91.3	8.0
2025-01-29 12:50:11.486742	13.8	22.8	-91.5	6.1
2025-01-29 12:50:12.636719	13.5	22.9	-91.3	5.5
2025-01-29 12:50:13.786906	13.2	23.0	-91.8	4.6
2025-01-29 12:50:14.939926	13.0	23.0	-91.5	4.2
2025-01-29 12:50:16.090506	12.7	23.1	-91.6	4.1
2025-01-29 12:50:17.245684	12.4	23.1	-90.8	4.2
2025-01-29 12:50:18.401760	12.1	23.2	-90.8	3.6
2025-01-29 12:50:19.556766	11.8	23.3	-91.2	5.9
2025-01-29 12:50:20.707514	11.5	23.3	-91.3	4.9
2025-01-29 12:50:21.863146	11.2	23.4	-91.2	7.3
2025-01-29 12:50:23.018308	10.9	23.4	-91.4	11.2
2025-01-29 12:50:24.173343	10.6	23.5	-91.2	8.5
2025-01-29 12:50:25.331357	10.3	23.5	-91.2	9.9
2025-01-29 12:50:26.487759	10.0	23.6	-91.5	11.3
2025-01-29 12:50:27.634500	9.7	23.6	-91.4	13.4
2025-01-29 12:50:28.793501	9.4	23.7	-91.4	8.7
2025-01-29 12:50:29.948348	9.1	23.7	-91.5	8.2
2025-01-29 12:50:31.103452	8.8	23.8	-91.0	7.8
2025-01-29 12:50:32.262735	8.5	23.9	-91.0	5.3
2025-01-29 12:50:33.418444	8.2	23.9	-91.6	7.2
2025-01-29 12:50:34.572416	7.9	23.9	-91.2	6.8
2025-01-29 12:50:35.730225	7.6	24.0	-90.9	4.4
2025-01-29 12:50:36.883713	7.3	24.0	-91.3	7.6
2025-01-29 12:50:38.036668	6.9	24.1	-91.1	7.4
2025-01-29 12:50:39.186942	6.6	24.1	-91.3	7.9
2025-01-29 12:50:40.333592	6.3	24.2	-91.1	8.0
2025-01-29 12:50:41.488849	6.0	24.2	-91.2	10.0
2025-01-29 12:50:42.642310	5.7	24.3	-91.3	9.5
2025-01-29 12:50:43.801931	5.4	24.3	-91.1	9.8
2025-01-29 12:50:44.953183	5.1	24.4	-91.4	8.2
2025-01-29 12:50:46.103854	4.8	24.4	-91.3	8.7
2025-01-29 12:50:47.257292	4.4	24.4	-90.9	6.7
2025-01-29 12:50:48.409256	4.1	24.5	-91.2	6.6
2025-01-29 12:50:49.564128	3.8	24.5	-91.3	6.9
2025-01-29 12:50:50.716102	3.5	24.5	-91.3	5.4
2025-01-29 12:50:51.864517	3.2	24.6	-91.5	2.6
2025-01-29 12:50:53.020955	2.9	24.6	-91.7	6.0
2025-01-29 12:50:54.177476	2.5	24.7	-91.4	3.0
2025-01-29 12:50:55.326441	2.2	24.7	-91.2	2.7
2025-01-29 12:50:56.478783	1.9	24.7	-91.2	3.6
2025-01-29 12:50:57.625594	1.6	24.7	-91.4	5.0
2025-01-29 12:50:58.801704	1.2	24.8	-90.1	3.1
2025-01-29 12:50:59.954082	0.9	24.8	-90.2	5.5
2025-01-29 12:51:01.106056	0.6	24.8	-90.5	8.8
2025-01-29 12:51:02.255742	0.3	24.9	-90.4	8.1
2025-01-29 12:51:03.410966	359.9	24.9	-91.1	9.9
2025-01-29 12:51:04.569674	359.6	24.9	-91.3	12.2
2025-01-29 12:51:05.723117	359.3	24.9	-91.0	13.0
2025-01-29 12:51:06.871662	359.0	25.0	-90.8	12.6
2025-01-29 12:51:08.027859	358.6	25.0	-91.1	13.2
2025-01-29 12:51:09.185433	358.3	25.0	-90.8	10.0
2025-01-29 12:51:10.337616	358.0	25.0	-91.1	8.7
2025-01-29 12:51:11.495374	357.6	25.0	-91.4	9.9
2025-01-29 12:51:12.651535	357.3	25.1	-91.0	10.9
2025-01-29 12:51:13.815179	357.0	25.1	-91.2	6.2
2025-01-29 12:51:14.965172	356.7	25.1	-90.9	8.0
2025-01-29 12:51:16.122665	356.3	25.1	-90.6	9.0
2025-01-29 12:51:17.285205	356.0	25.1	-90.6	6.3
2025-01-29 12:51:18.435410	355.7	25.1	-90.6	9.0
2025-01-29 12:51:19.586722	355.3	25.2	-90.6	7.9
2025-01-29 12:51:20.739107	355.0	25.2	-90.8	3.8
2025-01-29 12:51:21.901603	354.7	25.2	-91.6	5.5
2025-01-29 12:51:23.057002	354.3	25.2	-91.3	8.0
2025-01-29 12:51:24.209679	354.0	25.2	-91.3	5.5
2025-01-29 12:51:25.367067	353.7	25.2	-91.8	5.9
2025-01-29 12:51:26.517614	353.3	25.2	-91.5	8.7
2025-01-29 12:51:27.674524	353.0	25.2	-91.5	6.8
2025-01-29 12:51:28.819046	352.7	25.2	-91.4	7.2
2025-01-29 12:51:29.970492	352.3	25.2	-91.7	11.3
2025-01-29 12:51:31.133395	352.0	25.2	-91.7	10.1
2025-01-29 12:51:32.289801	351.7	25.2	-90.6	11.5
2025-01-29 12:51:33.447427	351.3	25.2	-90.7	11.6
2025-01-29 12:51:34.596817	351.0	25.2	-91.0	11.4
2025-01-29 12:51:35.755029	350.7	25.2	-90.8	11.8
2025-01-29 12:51:36.903438	350.3	25.2	-90.5	11.9
2025-01-29 12:51:38.058468	350.0	25.2	-90.6	13.8
2025-01-29 12:51:39.207996	349.7	25.2	-91.6	12.4
2025-01-29 12:51:40.359463	349.3	25.2	-91.7	14.4
2025-01-29 12:51:41.512175	349.0	25.2	-91.9	9.9
2025-01-29 12:51:42.673876	348.7	25.2	-91.4	11.2
2025-01-29 12:51:43.825641	348.4	25.2	-91.1	8.6
2025-01-29 12:51:44.972848	348.0	25.2	-90.6	6.9
2025-01-29 12:51:46.128009	347.7	25.1	-90.5	7.4
2025-01-29 12:51:47.278703	347.4	25.1	-90.9	4.8
2025-01-29 12:51:48.436377	347.0	25.1	-90.9	5.4
2025-01-29 12:51:49.580657	346.7	25.1	-90.9	7.0
2025-01-29 12:51:50.739717	346.4	25.1	-91.2	4.5
2025-01-29 12:51:51.893899	346.0	25.1	-91.7	6.7
2025-01-29 12:51:53.064730	345.7	25.0	-91.7	8.0
2025-01-29 12:51:54.222515	345.4	25.0	-91.8	4.7
2025-01-29 12:51:55.441968	345.0	25.0	-91.6	4.1
2025-01-29 12:51:56.589335	344.7	25.0	-91.9	5.9
2025-01-29 12:51:57.743763	344.4	25.0	-91.6	3.7
2025-01-29 12:51:58.891891	344.1	24.9	-91.6	3.3
2025-01-29 12:52:00.040946	343.7	24.9	-91.6	5.5
2025-01-29 12:52:01.187539	343.4	24.9	-91.7	2.3
2025-01-29 12:52:02.339589	343.1	24.9	-91.7	3.6
2025-01-29 12:52:03.487263	342.8	24.8	-91.4	4.3
2025-01-29 12:52:04.640270	342.4	24.8	-91.4	6.5
2025-01-29 12:52:05.798084	342.1	24.8	-91.5	3.8
2025-01-29 12:52:06.948644	341.8	24.7	-91.8	5.5
2025-01-29 12:52:08.102086	341.5	24.7	-91.5	4.4
2025-01-29 12:52:09.252087	341.1	24.7	-91.5	1.9
2025-01-29 12:52:10.404113	340.8	24.6	-91.6	3.5
2025-01-29 12:52:11.555140	340.5	24.6	-91.7	4.2
2025-01-29 12:52:12.704968	340.2	24.6	-91.5	1.6
2025-01-29 12:52:13.868859	339.9	24.5	-91.7	3.1
2025-01-29 12:52:15.023267	339.5	24.5	-91.9	5.3
2025-01-29 12:52:16.179693	339.2	24.5	-91.6	5.0
2025-01-29 12:52:17.338713	338.9	24.4	-91.6	1.7
2025-01-29 12:52:18.497736	338.6	24.4	-92.0	3.0
2025-01-29 12:52:19.649163	338.3	24.3	-91.9	3.3
2025-01-29 12:52:20.807341	338.0	24.3	-91.4	2.5
2025-01-29 12:52:21.959399	337.7	24.3	-91.7	5.0
2025-01-29 12:52:23.110994	337.3	24.2	-91.2	4.6
2025-01-29 12:52:24.251403	337.0	24.2	-91.6	3.6
2025-01-29 12:52:25.405333	336.7	24.1	-91.9	4.5
2025-01-29 12:52:26.558735	336.4	24.1	-91.7	4.9
2025-01-29 12:52:27.707004	336.1	24.0	-92.1	2.7
2025-01-29 12:52:28.860275	335.8	24.0	-92.0	2.5
2025-01-29 12:52:30.014857	335.5	23.9	-92.0	6.2
2025-01-29 12:52:31.145856	335.2	23.9	-91.5	4.1
2025-01-29 12:52:32.297835	334.9	23.8	-91.7	1.8
2025-01-29 12:52:33.453308	334.6	23.8	-92.1	5.5
2025-01-29 12:52:34.612939	334.3	23.7	-92.0	4.2
2025-01-29 12:52:35.767974	334.0	23.7	-91.9	3.5
2025-01-29 12:52:36.923247	333.7	23.6	-91.7	3.4
2025-01-29 12:52:38.076849	333.4	23.6	-91.3	4.9
2025-01-29 12:52:39.234282	333.1	23.5	-91.4	2.9
2025-01-29 12:52:40.388375	332.8	23.5	-91.8	4.6
2025-01-29 12:52:41.537996	332.5	23.4	-91.9	6.2
2025-01-29 12:52:42.691797	332.2	23.4	-91.8	5.0
2025-01-29 12:52:43.840403	331.9	23.3	-91.8	3.6
2025-01-29 12:52:44.992896	331.6	23.2	-91.8	6.1
2025-01-29 12:52:46.141227	331.3	23.2	-91.6	7.3
2025-01-29 12:52:47.295766	331.0	23.1	-91.5	2.3
2025-01-29 12:52:48.452917	330.7	23.1	-91.8	4.1
2025-01-29 12:52:49.610679	330.4	23.0	-92.0	6.6
2025-01-29 12:52:50.759419	330.1	22.9	-91.0	3.2
2025-01-29 12:52:51.916575	329.9	22.9	-91.3	3.9
2025-01-29 12:52:53.073079	329.6	22.8	-90.6	4.2
2025-01-29 12:52:54.234521	329.3	22.8	-90.1	3.1
2025-01-29 12:52:55.389047	329.0	22.7	-91.7	5.3
2025-01-29 12:52:56.541142	328.7	22.6	-91.8	6.4
2025-01-29 12:52:57.693981	328.4	22.6	-91.5	3.9
2025-01-29 12:52:58.854158	328.2	22.5	-91.7	4.1
2025-01-29 12:53:00.009016	327.9	22.4	-91.8	5.4
2025-01-29 12:53:01.153701	327.6	22.4	-91.8	5.0
2025-01-29 12:53:02.310736	327.3	22.3	-91.4	2.4
2025-01-29 12:53:03.461699	327.1	22.2	-91.8	4.8
2025-01-29 12:53:04.613238	326.8	22.2	-91.8	7.0
2025-01-29 12:53:05.764832	326.5	22.1	-91.8	7.9
2025-01-29 12:53:06.919171	326.2	22.0	-92.0	8.2
2025-01-29 12:53:08.070273	326.0	22.0	-91.9	8.5
2025-01-29 12:53:09.220568	325.7	21.9	-91.2	9.9
2025-01-29 12:53:10.379855	325.4	21.8	-91.3	11.2
2025-01-29 12:53:11.530876	325.2	21.7	-91.4	11.5
2025-01-29 12:53:12.690031	324.9	21.7	-91.0	8.5
2025-01-29 12:53:13.846331	324.6	21.6	-92.0	4.6
2025-01-29 12:53:14.998096	324.4	21.5	-91.6	7.5
2025-01-29 12:53:16.133632	324.1	21.5	-90.7	6.7
2025-01-29 12:53:17.295235	323.9	21.4	-90.2	3.3
2025-01-29 12:53:18.442802	323.6	21.3	-91.2	6.6
2025-01-29 12:53:19.589806	323.3	21.2	-92.0	9.7
2025-01-29 12:53:20.750216	323.1	21.2	-91.8	6.0
2025-01-29 12:53:21.897200	322.8	21.1	-91.7	11.4
2025-01-29 12:53:23.050347	322.6	21.0	-91.7	7.8
2025-01-29 12:53:24.205879	322.3	20.9	-91.2	6.0
2025-01-29 12:53:25.353244	322.1	20.9	-91.7	5.1
2025-01-29 12:53:26.509857	321.8	20.8	-92.0	6.7
2025-01-29 12:53:27.658639	321.6	20.7	-91.7	8.2
2025-01-29 12:53:28.814137	321.3	20.6	-91.4	4.7
2025-01-29 12:53:29.968037	321.1	20.5	-91.5	5.4
2025-01-29 12:53:31.118627	320.8	20.5	-91.3	7.8
2025-01-29 12:53:32.273916	320.6	20.4	-91.7	3.8
2025-01-29 12:53:33.428637	320.3	20.3	-92.0	1.7
2025-01-29 12:53:34.585974	320.1	20.2	-92.1	3.4
2025-01-29 12:53:35.732633	319.9	20.2	-91.6	2.3
2025-01-29 12:53:36.895554	319.6	20.1	-92.0	2.4
2025-01-29 12:53:38.043446	319.4	20.0	-91.8	2.9
2025-01-29 12:53:39.201789	319.2	19.9	-91.5	2.9
2025-01-29 12:53:40.355002	318.9	19.8	-91.6	0.6
2025-01-29 12:53:41.517376	318.7	19.8	-91.8	4.5
2025-01-29 12:53:42.671489	318.4	19.7	-91.8	3.7
2025-01-29 12:53:43.828902	318.2	19.6	-92.0	3.8
2025-01-29 12:53:44.985033	318.0	19.5	-91.9	5.1
2025-01-29 12:53:46.146652	317.8	19.4	-91.7	3.4
2025-01-29 12:53:47.301965	317.5	19.3	-91.9	6.4
2025-01-29 12:53:48.463865	317.3	19.3	-92.1	4.3
2025-01-29 12:53:49.618890	317.1	19.2	-92.1	5.4
2025-01-29 12:53:50.772325	316.9	19.1	-92.0	2.8
2025-01-29 12:53:51.923923	316.6	19.0	-91.6	5.0
2025-01-29 12:53:53.078305	316.4	18.9	-91.6	5.8
2025-01-29 12:53:54.226534	316.2	18.9	-91.3	6.0
2025-01-29 12:53:55.383369	316.0	18.8	-91.0	7.4
2025-01-29 12:53:56.536500	315.7	18.7	-91.1	5.6
2025-01-29 12:53:57.683429	315.5	18.6	-91.0	8.9
2025-01-29 12:53:58.834818	315.3	18.5	-90.9	5.1
2025-01-29 12:53:59.987436	315.1	18.4	-91.5	6.8
2025-01-29 12:54:01.133605	314.9	18.4	-91.7	5.6
2025-01-29 12:54:02.286685	314.7	18.3	-91.7	3.9
2025-01-29 12:54:03.440369	314.5	18.2	-91.6	3.5
2025-01-29 12:54:04.589256	314.3	18.1	-91.8	5.4
2025-01-29 12:54:05.743505	314.1	18.0	-91.7	1.6
2025-01-29 12:54:06.899730	313.8	17.9	-91.6	3.8
2025-01-29 12:54:08.059578	313.6	17.8	-91.3	3.4
2025-01-29 12:54:09.213772	313.4	17.8	-91.1	3.4
2025-01-29 12:54:10.372885	313.2	17.7	-91.6	4.3
2025-01-29 12:54:11.529432	313.0	17.6	-91.9	4.8
2025-01-29 12:54:12.687533	312.8	17.5	-91.8	2.6
2025-01-29 12:54:13.842307	312.6	17.4	-91.6	2.9
2025-01-29 12:54:15.003930	312.4	17.3	-91.7	3.4
2025-01-29 12:54:16.148905	312.2	17.3	-91.3	4.6
2025-01-29 12:54:17.301662	312.0	17.2	-91.3	5.6
2025-01-29 12:54:18.454860	311.8	17.1	-90.2	4.4
2025-01-29 12:54:19.604535	311.6	17.0	-90.5	5.6
2025-01-29 12:54:20.763432	311.4	16.9	-91.0	8.7
2025-01-29 12:54:21.914320	311.3	16.8	-91.1	6.2
2025-01-29 12:54:23.074686	311.1	16.7	-91.3	8.4
2025-01-29 12:54:24.228201	310.9	16.7	-90.8	3.7
2025-01-29 12:54:25.389378	310.7	16.6	-90.9	5.7
2025-01-29 12:54:26.544072	310.5	16.5	-91.1	4.2
2025-01-29 12:54:27.697594	310.3	16.4	-90.8	5.6
2025-01-29 12:54:28.852441	310.1	16.3	-91.7	4.1
2025-01-29 12:54:30.003575	309.9	16.2	-91.8	4.0
2025-01-29 12:54:31.161766	309.7	16.1	-92.0	2.6
2025-01-29 12:54:32.319095	309.6	16.1	-91.0	1.1
2025-01-29 12:54:33.475967	309.4	16.0	-91.0	2.7
2025-01-29 12:54:34.632619	309.2	15.9	-91.3	3.1
2025-01-29 12:54:35.787752	309.0	15.8	-91.4	2.5
2025-01-29 12:54:36.938928	308.8	15.7	-90.7	2.8
2025-01-29 12:54:38.097405	308.7	15.6	-90.2	2.2
2025-01-29 12:54:39.247394	308.5	15.5	-91.5	3.6
2025-01-29 12:54:40.400402	308.3	15.5	-91.9	1.8
2025-01-29 12:54:41.547754	308.1	15.4	-91.7	2.6
2025-01-29 12:54:42.707907	308.0	15.3	-91.9	3.1
2025-01-29 12:54:43.856091	307.8	15.2	-91.2	4.7
2025-01-29 12:54:45.012469	307.6	15.1	-91.0	3.8
2025-01-29 12:54:46.162808	307.4	15.0	-90.5	2.8
2025-01-29 12:54:47.327396	307.3	14.9	-90.5	5.4
2025-01-29 12:54:48.480594	307.1	14.9	-90.6	3.8
2025-01-29 12:54:49.631147	306.9	14.8	-91.0	3.9
2025-01-29 12:54:50.784988	306.8	14.7	-91.4	3.8
2025-01-29 12:54:51.962881	306.6	14.6	-91.6	3.1
#Closed at: 2025-01-29 12:48:23.147577