passes_logs/2025/01/29/LEX_Murmansk/LEX_Murmansk__20250129_192830_NOAA_19_rec.log

#Pass ID: 20250129_192830_NOAA 19
#Satellite: NOAA 19
#Configuration: NOAA 19
#Start time: 2025-01-29 19:28:25.504226

#LorettStation: 1.0.0 05.05.2024
#Station: LEX_Murmansk
#Location: 33.156738 lon 68.926811 lat
#TLE: 1 33591U 09005A   25029.16356990  .00000402  00000+0  23831-3 0  9997
#TLE: 2 33591  99.0170  93.0339 0013919  18.9524 341.2163 14.13271889823544

#Time	Az	El	Level	SNR
2025-01-29 19:28:37.732862	210.1	16.1	-91.8	1.1
2025-01-29 19:28:38.877804	210.2	16.2	-91.7	2.0
2025-01-29 19:28:40.026639	210.4	16.3	-91.9	4.3
2025-01-29 19:28:41.169435	210.5	16.4	-91.6	4.2
2025-01-29 19:28:42.309903	210.7	16.5	-90.9	3.9
2025-01-29 19:28:43.455362	210.8	16.6	-91.1	4.0
2025-01-29 19:28:44.607615	211.0	16.7	-91.0	4.7
2025-01-29 19:28:45.762906	211.1	16.8	-91.0	0.2
2025-01-29 19:28:46.909907	211.3	16.9	-92.1	2.6
2025-01-29 19:28:48.064129	211.5	17.0	-91.8	4.4
2025-01-29 19:28:49.221470	211.6	17.1	-92.0	4.1
2025-01-29 19:28:50.368243	211.8	17.2	-92.1	7.2
2025-01-29 19:28:51.515249	211.9	17.4	-92.2	7.0
2025-01-29 19:28:52.661037	212.1	17.5	-91.7	2.5
2025-01-29 19:28:53.818029	212.2	17.6	-92.2	2.6
2025-01-29 19:28:54.963238	212.4	17.7	-91.9	2.8
2025-01-29 19:28:56.116184	212.6	17.8	-91.9	2.7
2025-01-29 19:28:57.268140	212.7	17.9	-91.9	1.5
2025-01-29 19:28:58.417357	212.9	18.0	-92.2	2.4
2025-01-29 19:28:59.561892	213.1	18.1	-92.3	5.0
2025-01-29 19:29:00.704940	213.2	18.2	-92.4	7.7
2025-01-29 19:29:01.854480	213.4	18.3	-91.9	7.5
2025-01-29 19:29:03.004561	213.6	18.4	-92.1	9.1
2025-01-29 19:29:04.153108	213.7	18.5	-91.7	4.5
2025-01-29 19:29:05.301930	213.9	18.7	-92.1	4.1
2025-01-29 19:29:06.444743	214.1	18.8	-92.3	4.9
2025-01-29 19:29:07.597135	214.3	18.9	-92.2	6.1
2025-01-29 19:29:08.745647	214.4	19.0	-92.2	7.4
2025-01-29 19:29:09.899266	214.6	19.1	-92.2	6.3
2025-01-29 19:29:11.046055	214.8	19.2	-92.0	6.2
2025-01-29 19:29:12.187617	215.0	19.3	-91.9	3.7
2025-01-29 19:29:13.333305	215.1	19.4	-92.2	3.1
2025-01-29 19:29:14.484218	215.3	19.5	-92.1	2.3
2025-01-29 19:29:15.632038	215.5	19.6	-92.1	3.1
2025-01-29 19:29:16.778532	215.7	19.8	-91.8	2.3
2025-01-29 19:29:17.929231	215.9	19.9	-91.9	5.0
2025-01-29 19:29:19.080744	216.1	20.0	-91.5	8.0
2025-01-29 19:29:20.224946	216.2	20.1	-91.9	8.7
2025-01-29 19:29:21.374877	216.4	20.2	-92.3	9.7
2025-01-29 19:29:22.520145	216.6	20.3	-92.0	10.1
2025-01-29 19:29:23.665811	216.8	20.4	-91.8	7.0
2025-01-29 19:29:24.810722	217.0	20.5	-91.9	5.4
2025-01-29 19:29:25.957377	217.2	20.7	-92.4	7.7
2025-01-29 19:29:27.110510	217.4	20.8	-91.8	9.0
2025-01-29 19:29:28.257428	217.6	20.9	-92.1	10.8
2025-01-29 19:29:29.404836	217.8	21.0	-92.1	11.5
2025-01-29 19:29:30.561564	218.0	21.1	-92.3	8.9
2025-01-29 19:29:31.700239	218.2	21.2	-92.4	5.7
2025-01-29 19:29:32.835845	218.4	21.3	-92.3	2.8
2025-01-29 19:29:33.976062	218.6	21.5	-92.5	3.0
2025-01-29 19:29:35.118738	218.8	21.6	-91.8	3.6
2025-01-29 19:29:36.271185	219.0	21.7	-91.6	2.4
2025-01-29 19:29:37.414046	219.2	21.8	-92.4	5.9
2025-01-29 19:29:38.563139	219.4	21.9	-92.0	7.5
2025-01-29 19:29:39.707266	219.6	22.0	-92.2	11.2
2025-01-29 19:29:40.855561	219.8	22.1	-92.0	10.4
2025-01-29 19:29:42.007997	220.1	22.3	-92.3	11.3
2025-01-29 19:29:43.154820	220.3	22.4	-91.8	9.1
2025-01-29 19:29:44.301657	220.5	22.5	-92.1	5.9
2025-01-29 19:29:45.448054	220.7	22.6	-92.4	7.1
2025-01-29 19:29:46.598735	220.9	22.7	-91.2	9.2
2025-01-29 19:29:47.749010	221.2	22.8	-91.7	8.5
2025-01-29 19:29:48.899661	221.4	23.0	-91.5	9.6
2025-01-29 19:29:50.052107	221.6	23.1	-91.7	11.0
2025-01-29 19:29:51.201639	221.8	23.2	-92.2	10.1
2025-01-29 19:29:52.351474	222.1	23.3	-92.2	5.9
2025-01-29 19:29:53.499544	222.3	23.4	-92.6	5.5
2025-01-29 19:29:54.650252	222.5	23.5	-92.6	3.0
2025-01-29 19:29:55.801896	222.8	23.7	-92.1	2.1
2025-01-29 19:29:56.948733	223.0	23.8	-92.3	4.4
2025-01-29 19:29:58.092928	223.2	23.9	-92.4	5.2
2025-01-29 19:29:59.237692	223.5	24.0	-92.5	8.0
2025-01-29 19:30:00.383384	223.7	24.1	-92.1	10.3
2025-01-29 19:30:01.531034	224.0	24.2	-92.4	12.0
2025-01-29 19:30:02.680648	224.2	24.4	-92.5	11.2
2025-01-29 19:30:03.835439	224.4	24.5	-92.2	7.8
2025-01-29 19:30:04.981139	224.7	24.6	-92.3	7.9
2025-01-29 19:30:06.131770	224.9	24.7	-92.6	7.8
2025-01-29 19:30:07.279956	225.2	24.8	-92.4	4.9
2025-01-29 19:30:08.426292	225.5	24.9	-92.5	6.5
2025-01-29 19:30:09.578201	225.7	25.1	-92.3	7.2
2025-01-29 19:30:10.725189	226.0	25.2	-92.3	6.4
2025-01-29 19:30:11.870872	226.2	25.3	-92.6	6.6
2025-01-29 19:30:13.027979	226.5	25.4	-92.4	4.6
2025-01-29 19:30:14.173449	226.7	25.5	-92.6	1.8
2025-01-29 19:30:15.324656	227.0	25.6	-92.5	2.9
2025-01-29 19:30:16.471219	227.3	25.7	-92.9	2.9
2025-01-29 19:30:17.618307	227.5	25.9	-92.1	1.8
2025-01-29 19:30:18.766991	227.8	26.0	-92.6	1.7
2025-01-29 19:30:19.915603	228.1	26.1	-92.6	3.5
2025-01-29 19:30:21.066518	228.4	26.2	-92.0	1.5
2025-01-29 19:30:22.217657	228.6	26.3	-92.2	3.4
2025-01-29 19:30:23.363491	228.9	26.4	-92.7	6.2
2025-01-29 19:30:24.509481	229.2	26.6	-92.3	5.0
2025-01-29 19:30:25.664010	229.5	26.7	-92.5	6.3
2025-01-29 19:30:26.816831	229.8	26.8	-92.5	4.1
2025-01-29 19:30:27.969547	230.0	26.9	-92.8	4.5
2025-01-29 19:30:29.121000	230.3	27.0	-92.6	3.6
2025-01-29 19:30:30.269459	230.6	27.1	-92.5	5.3
2025-01-29 19:30:31.420273	230.9	27.2	-92.4	3.5
2025-01-29 19:30:32.566343	231.2	27.3	-92.7	6.8
2025-01-29 19:30:33.715634	231.5	27.5	-92.7	6.7
2025-01-29 19:30:34.863583	231.8	27.6	-92.5	7.2
2025-01-29 19:30:36.012972	232.1	27.7	-92.6	7.8
2025-01-29 19:30:37.160518	232.4	27.8	-92.5	7.5
2025-01-29 19:30:38.304240	232.7	27.9	-92.0	7.7
2025-01-29 19:30:39.453596	233.0	28.0	-92.4	5.6
2025-01-29 19:30:40.604647	233.3	28.1	-92.4	5.7
2025-01-29 19:30:41.760890	233.6	28.2	-92.7	1.5
2025-01-29 19:30:42.907666	233.9	28.3	-92.5	3.8
2025-01-29 19:30:44.054144	234.3	28.4	-92.5	3.3
2025-01-29 19:30:45.206890	234.6	28.6	-92.2	3.9
2025-01-29 19:30:46.354417	234.9	28.7	-92.2	5.4
2025-01-29 19:30:47.504290	235.2	28.8	-92.4	7.7
2025-01-29 19:30:48.651417	235.5	28.9	-92.2	5.5
2025-01-29 19:30:49.799903	235.9	29.0	-92.6	5.3
2025-01-29 19:30:50.947827	236.2	29.1	-92.3	8.8
2025-01-29 19:30:52.095757	236.5	29.2	-91.3	7.0
2025-01-29 19:30:53.234984	236.8	29.3	-91.4	6.4
2025-01-29 19:30:54.361146	237.2	29.4	-91.6	5.2
2025-01-29 19:30:55.481812	237.5	29.5	-92.4	6.9
2025-01-29 19:30:56.602564	237.8	29.6	-92.6	7.2
2025-01-29 19:30:57.724289	238.1	29.7	-92.7	3.0
2025-01-29 19:30:58.845312	238.5	29.8	-92.5	5.6
2025-01-29 19:30:59.965269	238.8	29.9	-92.3	8.4
2025-01-29 19:31:01.086284	239.1	30.0	-92.3	9.6
2025-01-29 19:31:02.207049	239.5	30.1	-92.4	10.4
2025-01-29 19:31:03.328049	239.8	30.2	-92.5	11.0
2025-01-29 19:31:04.461905	240.2	30.3	-92.7	10.7
2025-01-29 19:31:05.604779	240.5	30.4	-92.9	11.6
2025-01-29 19:31:06.743761	240.9	30.5	-92.6	10.5
2025-01-29 19:31:07.888130	241.2	30.5	-92.6	5.7
2025-01-29 19:31:09.035036	241.6	30.6	-92.6	7.8
2025-01-29 19:31:10.178286	241.9	30.7	-92.5	5.5
2025-01-29 19:31:11.330433	242.3	30.8	-92.6	3.1
2025-01-29 19:31:12.484309	242.7	30.9	-92.8	6.2
2025-01-29 19:31:13.634932	243.0	31.0	-92.6	8.7
2025-01-29 19:31:14.784754	243.4	31.1	-92.8	5.8
2025-01-29 19:31:15.944452	243.8	31.2	-92.4	10.7
2025-01-29 19:31:17.101784	244.2	31.3	-92.0	14.6
2025-01-29 19:31:18.255867	244.5	31.4	-92.1	16.8
2025-01-29 19:31:19.402784	244.9	31.4	-92.4	20.0
2025-01-29 19:31:20.554985	245.3	31.5	-92.5	18.9
2025-01-29 19:31:21.702255	245.7	31.6	-92.3	20.3
2025-01-29 19:31:22.850926	246.0	31.7	-92.2	19.4
2025-01-29 19:31:24.005706	246.4	31.8	-92.4	18.1
2025-01-29 19:31:25.151908	246.8	31.8	-92.1	14.1
2025-01-29 19:31:26.301632	247.2	31.9	-92.2	12.0
2025-01-29 19:31:27.451168	247.6	32.0	-92.1	11.0
2025-01-29 19:31:28.597983	248.0	32.1	-92.1	12.9
2025-01-29 19:31:29.739908	248.4	32.1	-92.4	8.1
2025-01-29 19:31:30.887172	248.8	32.2	-92.8	10.1
2025-01-29 19:31:32.040046	249.2	32.3	-92.8	16.5
2025-01-29 19:31:33.189603	249.6	32.3	-92.7	12.7
2025-01-29 19:31:34.334284	250.0	32.4	-92.2	14.7
2025-01-29 19:31:35.478853	250.4	32.5	-92.6	15.3
2025-01-29 19:31:36.628074	250.8	32.5	-92.4	15.9
2025-01-29 19:31:37.774607	251.2	32.6	-92.6	16.8
2025-01-29 19:31:38.922818	251.6	32.7	-92.2	17.7
2025-01-29 19:31:40.075599	252.0	32.7	-92.4	13.7
2025-01-29 19:31:41.218884	252.4	32.8	-92.2	13.6
2025-01-29 19:31:42.363333	252.8	32.9	-92.2	9.1
2025-01-29 19:31:43.512956	253.2	32.9	-92.6	11.4
2025-01-29 19:31:44.655083	253.6	33.0	-92.7	10.6
2025-01-29 19:31:45.805012	254.0	33.0	-92.2	7.4
2025-01-29 19:31:46.950449	254.4	33.1	-92.6	8.0
2025-01-29 19:31:48.098923	254.8	33.1	-92.7	2.3
2025-01-29 19:31:49.254915	255.3	33.2	-92.1	4.7
2025-01-29 19:31:50.402066	255.7	33.2	-92.2	8.3
2025-01-29 19:31:51.556247	256.1	33.3	-92.3	9.7
2025-01-29 19:31:52.704539	256.5	33.3	-92.4	5.2
2025-01-29 19:31:53.851755	257.0	33.3	-92.1	6.2
2025-01-29 19:31:54.987322	257.4	33.4	-91.5	6.8
2025-01-29 19:31:56.130012	257.8	33.4	-91.4	7.4
2025-01-29 19:31:57.286116	258.2	33.5	-91.5	14.4
2025-01-29 19:31:58.433918	258.6	33.5	-91.5	9.7
2025-01-29 19:31:59.582719	259.1	33.5	-92.5	18.3
2025-01-29 19:32:00.723305	259.5	33.6	-92.4	18.0
2025-01-29 19:32:01.875770	259.9	33.6	-92.0	15.8
2025-01-29 19:32:03.025491	260.4	33.6	-92.5	6.8
2025-01-29 19:32:04.167330	260.8	33.6	-92.5	20.1
2025-01-29 19:32:05.313294	261.2	33.7	-92.2	16.4
2025-01-29 19:32:06.457488	261.6	33.7	-92.6	15.1
2025-01-29 19:32:07.605327	262.1	33.7	-92.4	15.5
2025-01-29 19:32:08.751481	262.5	33.7	-92.4	8.5
2025-01-29 19:32:09.897204	262.9	33.8	-92.3	12.7
2025-01-29 19:32:11.048855	263.4	33.8	-92.6	8.9
2025-01-29 19:32:12.194853	263.8	33.8	-92.0	11.8
2025-01-29 19:32:13.340249	264.2	33.8	-92.3	3.7
2025-01-29 19:32:14.481527	264.7	33.8	-92.2	6.5
2025-01-29 19:32:15.628718	265.1	33.8	-92.5	6.2
2025-01-29 19:32:16.783075	265.5	33.8	-92.5	2.4
2025-01-29 19:32:17.930084	266.0	33.8	-92.2	10.6
2025-01-29 19:32:19.077060	266.4	33.8	-92.1	7.1
2025-01-29 19:32:20.231250	266.8	33.8	-92.2	5.1
2025-01-29 19:32:21.377021	267.3	33.8	-92.6	8.4
2025-01-29 19:32:22.524204	267.7	33.8	-92.3	7.1
2025-01-29 19:32:23.667949	268.1	33.8	-92.1	10.7
2025-01-29 19:32:24.812869	268.6	33.8	-92.4	7.6
2025-01-29 19:32:25.955108	269.0	33.8	-92.6	9.2
2025-01-29 19:32:27.106606	269.4	33.8	-92.3	11.7
2025-01-29 19:32:28.256150	269.9	33.8	-92.4	7.9
2025-01-29 19:32:29.403092	270.3	33.8	-92.5	12.6
2025-01-29 19:32:30.549646	270.7	33.8	-92.7	8.7
2025-01-29 19:32:31.694392	271.2	33.8	-92.6	16.1
2025-01-29 19:32:32.846988	271.6	33.7	-92.7	10.2
2025-01-29 19:32:34.003776	272.0	33.7	-92.8	14.5
2025-01-29 19:32:35.152653	272.5	33.7	-92.0	7.7
2025-01-29 19:32:36.293626	272.9	33.7	-92.3	6.6
2025-01-29 19:32:37.442251	273.3	33.7	-92.7	7.4
2025-01-29 19:32:38.588406	273.8	33.6	-92.2	7.3
2025-01-29 19:32:39.733830	274.2	33.6	-92.5	13.1
2025-01-29 19:32:40.888615	274.6	33.6	-92.8	5.5
2025-01-29 19:32:42.040733	275.0	33.5	-92.4	9.5
2025-01-29 19:32:43.189123	275.5	33.5	-92.4	3.9
2025-01-29 19:32:44.334990	275.9	33.5	-92.4	2.9
2025-01-29 19:32:45.484381	276.3	33.4	-92.4	12.5
2025-01-29 19:32:46.632175	276.7	33.4	-92.6	7.4
2025-01-29 19:32:47.781482	277.2	33.4	-92.4	4.3
2025-01-29 19:32:48.931728	277.6	33.3	-92.6	7.0
2025-01-29 19:32:50.081131	278.0	33.3	-92.4	10.6
2025-01-29 19:32:51.230269	278.4	33.2	-92.1	9.5
2025-01-29 19:32:52.380170	278.8	33.2	-92.4	11.7
2025-01-29 19:32:53.524778	279.3	33.1	-92.6	5.7
2025-01-29 19:32:54.670083	279.7	33.1	-92.2	5.7
2025-01-29 19:32:55.817053	280.1	33.0	-92.6	0.8
2025-01-29 19:32:56.972770	280.5	33.0	-92.6	0.1
2025-01-29 19:32:58.120634	280.9	32.9	-92.4	5.1
2025-01-29 19:32:59.266940	281.3	32.9	-91.5	7.7
2025-01-29 19:33:00.431287	281.7	32.8	-91.8	7.4
2025-01-29 19:33:01.577335	282.1	32.8	-91.5	5.1
2025-01-29 19:33:02.734997	282.6	32.7	-91.5	5.5
2025-01-29 19:33:03.886113	283.0	32.6	-92.4	3.6
2025-01-29 19:33:05.036051	283.4	32.6	-92.5	5.0
2025-01-29 19:33:06.184642	283.8	32.5	-92.0	2.4
2025-01-29 19:33:07.329348	284.2	32.4	-92.1	6.2
2025-01-29 19:33:08.475064	284.6	32.4	-92.7	8.2
2025-01-29 19:33:09.626633	285.0	32.3	-92.5	6.7
2025-01-29 19:33:10.779265	285.3	32.2	-92.4	4.3
2025-01-29 19:33:11.934549	285.7	32.2	-92.4	5.5
2025-01-29 19:33:13.082441	286.1	32.1	-92.0	7.8
2025-01-29 19:33:14.231490	286.5	32.0	-92.3	2.2
2025-01-29 19:33:15.380035	286.9	31.9	-92.2	2.8
2025-01-29 19:33:16.527073	287.3	31.9	-92.3	9.9
2025-01-29 19:33:17.673953	287.7	31.8	-92.4	7.2
2025-01-29 19:33:18.817851	288.1	31.7	-92.1	3.9
2025-01-29 19:33:19.960711	288.4	31.6	-92.4	10.3
2025-01-29 19:33:21.104435	288.8	31.6	-92.5	7.9
2025-01-29 19:33:22.255560	289.2	31.5	-91.9	6.2
2025-01-29 19:33:23.399966	289.6	31.4	-92.5	6.0
2025-01-29 19:33:24.545352	289.9	31.3	-92.6	6.0
2025-01-29 19:33:25.695336	290.3	31.2	-92.4	4.1
2025-01-29 19:33:26.843977	290.7	31.1	-92.1	10.7
2025-01-29 19:33:27.993674	291.0	31.0	-92.7	10.4
2025-01-29 19:33:29.140160	291.4	31.0	-92.0	12.7
2025-01-29 19:33:30.289041	291.8	30.9	-92.2	12.8
2025-01-29 19:33:31.439780	292.1	30.8	-92.7	11.0
2025-01-29 19:33:32.587015	292.5	30.7	-92.2	10.8
2025-01-29 19:33:33.733600	292.9	30.6	-92.5	11.9
2025-01-29 19:33:34.885405	293.2	30.5	-92.2	12.8
2025-01-29 19:33:36.036476	293.6	30.4	-92.5	14.3
2025-01-29 19:33:37.179196	293.9	30.3	-92.7	6.1
2025-01-29 19:33:38.323342	294.3	30.2	-92.3	16.2
2025-01-29 19:33:39.474311	294.6	30.1	-92.7	7.8
2025-01-29 19:33:40.619796	295.0	30.0	-92.8	12.4
2025-01-29 19:33:41.765139	295.3	29.9	-92.3	7.9
2025-01-29 19:33:42.919405	295.6	29.8	-92.3	4.5
2025-01-29 19:33:44.066188	296.0	29.7	-92.5	4.8
2025-01-29 19:33:45.216138	296.3	29.6	-92.1	11.4
2025-01-29 19:33:46.364174	296.7	29.5	-92.3	3.1
2025-01-29 19:33:47.509885	297.0	29.4	-92.6	12.5
2025-01-29 19:33:48.654630	297.3	29.3	-92.2	4.6
2025-01-29 19:33:49.801892	297.6	29.2	-92.4	7.1
2025-01-29 19:33:50.952171	298.0	29.1	-92.4	10.4
2025-01-29 19:33:52.095971	298.3	29.0	-92.3	5.6
2025-01-29 19:33:53.243826	298.6	28.9	-92.5	3.0
2025-01-29 19:33:54.390290	298.9	28.8	-92.6	8.5
2025-01-29 19:33:55.535380	299.3	28.7	-92.6	6.6
2025-01-29 19:33:56.684771	299.6	28.6	-92.3	4.4
2025-01-29 19:33:57.833438	299.9	28.5	-92.6	4.5
2025-01-29 19:33:58.979746	300.2	28.4	-92.6	6.4
2025-01-29 19:34:00.132720	300.5	28.3	-92.6	8.0
2025-01-29 19:34:01.275269	300.8	28.2	-92.2	4.8
2025-01-29 19:34:02.421948	301.1	28.1	-92.5	5.3
2025-01-29 19:34:03.569239	301.4	28.0	-91.5	6.9
2025-01-29 19:34:04.721010	301.7	27.8	-91.5	4.2
2025-01-29 19:34:05.866246	302.0	27.7	-91.7	3.7
2025-01-29 19:34:07.016559	302.3	27.6	-92.0	5.6
2025-01-29 19:34:08.165327	302.6	27.5	-92.4	7.7
2025-01-29 19:34:09.309561	302.9	27.4	-92.7	5.4
2025-01-29 19:34:10.458989	303.2	27.3	-92.7	7.1
2025-01-29 19:34:11.607174	303.5	27.2	-92.2	6.1
2025-01-29 19:34:12.756263	303.8	27.1	-92.2	9.2
2025-01-29 19:34:13.899979	304.1	27.0	-92.5	10.4
2025-01-29 19:34:15.040501	304.3	26.8	-92.4	4.6
2025-01-29 19:34:16.191782	304.6	26.7	-92.3	9.4
2025-01-29 19:34:17.345847	304.9	26.6	-92.3	9.3
2025-01-29 19:34:18.495185	305.2	26.5	-92.5	11.3
2025-01-29 19:34:19.646196	305.5	26.4	-92.4	9.6
2025-01-29 19:34:20.797256	305.7	26.3	-92.2	9.5
2025-01-29 19:34:21.942369	306.0	26.2	-92.1	11.5
2025-01-29 19:34:23.093155	306.3	26.1	-92.2	13.0
2025-01-29 19:34:24.260518	306.6	25.9	-92.3	10.6
2025-01-29 19:34:25.403456	306.8	25.8	-91.3	11.0
2025-01-29 19:34:26.553084	307.1	25.7	-91.3	8.3
2025-01-29 19:34:27.699410	307.4	25.6	-91.9	5.1
2025-01-29 19:34:28.848048	307.6	25.5	-91.8	6.3
2025-01-29 19:34:29.997633	307.9	25.4	-91.6	9.1
2025-01-29 19:34:31.141238	308.1	25.2	-91.5	4.9
2025-01-29 19:34:32.290168	308.4	25.1	-91.6	5.0
2025-01-29 19:34:33.434305	308.6	25.0	-91.7	3.8
2025-01-29 19:34:34.580061	308.9	24.9	-92.5	8.4
2025-01-29 19:34:35.730370	309.1	24.8	-92.6	4.7
2025-01-29 19:34:36.873341	309.4	24.7	-92.6	3.0
2025-01-29 19:34:38.027565	309.6	24.6	-92.4	4.3
2025-01-29 19:34:39.173688	309.9	24.4	-92.7	4.8
2025-01-29 19:34:40.324070	310.1	24.3	-92.6	6.1
2025-01-29 19:34:41.472095	310.4	24.2	-92.2	6.1
2025-01-29 19:34:42.627893	310.6	24.1	-92.5	9.7
2025-01-29 19:34:43.779231	310.8	24.0	-92.5	7.3
2025-01-29 19:34:44.925243	311.1	23.9	-92.5	8.8
2025-01-29 19:34:46.072558	311.3	23.8	-92.6	8.0
2025-01-29 19:34:47.224104	311.6	23.6	-92.0	10.3
2025-01-29 19:34:48.373631	311.8	23.5	-92.4	5.9
2025-01-29 19:34:49.522928	312.0	23.4	-92.7	6.6
2025-01-29 19:34:50.672686	312.2	23.3	-92.4	5.3
2025-01-29 19:34:51.825101	312.5	23.2	-92.4	5.7
2025-01-29 19:34:52.975776	312.7	23.1	-92.7	4.8
2025-01-29 19:34:54.126836	312.9	22.9	-92.5	4.2
2025-01-29 19:34:55.269835	313.1	22.8	-92.1	4.3
2025-01-29 19:34:56.419843	313.4	22.7	-92.3	3.9
2025-01-29 19:34:57.567909	313.6	22.6	-92.5	3.0
2025-01-29 19:34:58.714130	313.8	22.5	-92.3	3.0
2025-01-29 19:34:59.864652	314.0	22.4	-92.5	2.9
2025-01-29 19:35:01.008142	314.2	22.3	-92.7	3.3
2025-01-29 19:35:02.164705	314.4	22.1	-92.5	6.9
2025-01-29 19:35:03.311588	314.6	22.0	-92.5	4.1
2025-01-29 19:35:04.459733	314.9	21.9	-92.4	4.6
2025-01-29 19:35:05.612733	315.1	21.8	-92.7	4.9
2025-01-29 19:35:06.758513	315.3	21.7	-92.7	5.8
2025-01-29 19:35:07.905040	315.5	21.6	-92.5	2.4
2025-01-29 19:35:09.052689	315.7	21.5	-92.4	11.1
2025-01-29 19:35:10.207988	315.9	21.3	-92.3	10.0
2025-01-29 19:35:11.360201	316.1	21.2	-92.5	6.9
2025-01-29 19:35:12.511304	316.3	21.1	-92.6	9.3
2025-01-29 19:35:13.663664	316.5	21.0	-92.7	8.0
2025-01-29 19:35:14.816149	316.7	20.9	-92.5	4.0
2025-01-29 19:35:15.970085	316.9	20.8	-92.7	4.4
2025-01-29 19:35:17.126508	317.1	20.7	-92.5	1.5
2025-01-29 19:35:18.277899	317.3	20.6	-92.5	0.3
2025-01-29 19:35:19.422317	317.4	20.4	-92.2	3.1
2025-01-29 19:35:20.573478	317.6	20.3	-92.4	2.2
2025-01-29 19:35:21.723197	317.8	20.2	-92.6	0.1
2025-01-29 19:35:22.874059	318.0	20.1	-92.7	2.9
2025-01-29 19:35:24.024800	318.2	20.0	-92.6	4.3
2025-01-29 19:35:25.174700	318.4	19.9	-92.6	2.7
2025-01-29 19:35:26.317549	318.6	19.8	-92.8	3.4
2025-01-29 19:35:27.464104	318.7	19.7	-92.9	5.2
2025-01-29 19:35:28.609260	318.9	19.6	-92.7	4.4
2025-01-29 19:35:29.755760	319.1	19.4	-92.8	7.4
2025-01-29 19:35:30.908819	319.3	19.3	-92.7	3.9
2025-01-29 19:35:32.056400	319.5	19.2	-92.2	2.6
2025-01-29 19:35:33.206217	319.6	19.1	-92.5	4.3
2025-01-29 19:35:34.350859	319.8	19.0	-91.9	5.1
2025-01-29 19:35:35.516723	320.0	18.9	-91.9	1.9
2025-01-29 19:35:36.660902	320.2	18.8	-91.3	0.3
2025-01-29 19:35:37.811132	320.3	18.7	-92.2	2.5
2025-01-29 19:35:38.958581	320.5	18.6	-92.9	0.9
2025-01-29 19:35:40.112205	320.7	18.5	-92.7	1.9
2025-01-29 19:35:41.260094	320.8	18.4	-92.5	0.2
2025-01-29 19:35:42.407814	321.0	18.2	-92.2	1.6
2025-01-29 19:35:43.557417	321.2	18.1	-92.7	4.2
2025-01-29 19:35:44.704178	321.3	18.0	-92.5	2.1
2025-01-29 19:35:45.854845	321.5	17.9	-92.3	0.7
2025-01-29 19:35:47.001694	321.7	17.8	-92.5	2.1
2025-01-29 19:35:48.147947	321.8	17.7	-92.8	1.9
2025-01-29 19:35:49.294250	322.0	17.6	-92.4	2.6
2025-01-29 19:35:50.442034	322.1	17.5	-92.2	4.2
2025-01-29 19:35:51.587737	322.3	17.4	-92.5	0.8
2025-01-29 19:35:52.738172	322.4	17.3	-92.4	2.1
2025-01-29 19:35:53.884763	322.6	17.2	-92.5	2.6
2025-01-29 19:35:55.034319	322.8	17.1	-92.4	2.0
2025-01-29 19:35:56.185883	322.9	17.0	-92.5	2.2
2025-01-29 19:35:57.330554	323.1	16.9	-92.7	1.7
2025-01-29 19:35:58.473679	323.2	16.8	-92.5	3.9
2025-01-29 19:35:59.633566	323.4	16.7	-92.7	0.7
2025-01-29 19:36:00.782811	323.5	16.6	-92.7	2.0
2025-01-29 19:36:01.928285	323.7	16.5	-92.5	3.6
2025-01-29 19:36:03.074181	323.8	16.4	-92.4	5.9
2025-01-29 19:36:04.224402	324.0	16.2	-92.7	3.1
2025-01-29 19:36:05.370254	324.1	16.1	-92.3	3.1
2025-01-29 19:36:06.516500	324.2	16.0	-92.9	3.9
2025-01-29 19:36:07.661350	324.4	15.9	-92.8	3.4
2025-01-29 19:36:08.815708	324.5	15.8	-92.6	1.8
2025-01-29 19:36:09.969975	324.7	15.7	-92.4	3.7
2025-01-29 19:36:11.116666	324.8	15.6	-92.0	2.2
2025-01-29 19:36:12.265316	325.0	15.5	-92.6	2.3
2025-01-29 19:36:13.419069	325.1	15.4	-92.6	3.7
2025-01-29 19:36:14.563665	325.2	15.3	-92.8	3.8
2025-01-29 19:36:15.712428	325.4	15.2	-92.3	3.0
2025-01-29 19:36:16.865494	325.5	15.1	-92.8	1.7
2025-01-29 19:36:18.015670	325.6	15.0	-92.9	2.0
2025-01-29 19:36:19.156902	325.8	14.9	-92.5	3.6
2025-01-29 19:36:20.300014	325.9	14.8	-92.8	3.0
2025-01-29 19:36:21.452682	326.0	14.7	-93.0	4.8
2025-01-29 19:36:22.598176	326.2	14.6	-92.7	3.7
#Closed at: 2025-01-29 19:28:30.572901