passes_logs/2025/01/29/LEX_Murmansk/LEX_Murmansk__20250129_080846_NOAA_18_rec.log

#Pass ID: 20250129_080846_NOAA 18
#Satellite: NOAA 18
#Configuration: NOAA 18
#Start time: 2025-01-29 08:08:41.587899

#LorettStation: 1.0.0 05.05.2024
#Station: LEX_Murmansk
#Location: 33.156738 lon 68.926811 lat
#TLE: 1 28654U 05018A   25028.04589186  .00000422  00000+0  24750-3 0  9995
#TLE: 2 28654  98.8546 108.9697 0014880 143.3316 216.8878 14.13499339 15023

#Time	Az	El	Level	SNR
2025-01-29 08:08:53.825885	37.4	16.0	-91.1	5.1
2025-01-29 08:08:54.988068	37.6	16.1	-91.2	5.1
2025-01-29 08:08:56.146541	37.7	16.2	-91.1	2.5
2025-01-29 08:08:57.303868	37.9	16.3	-91.1	4.8
2025-01-29 08:08:58.475224	38.0	16.4	-91.3	4.2
2025-01-29 08:08:59.629954	38.2	16.5	-91.3	4.1
2025-01-29 08:09:00.791573	38.4	16.6	-91.7	5.4
2025-01-29 08:09:01.952019	38.6	16.7	-91.6	2.6
2025-01-29 08:09:03.117126	38.7	16.8	-90.9	2.9
2025-01-29 08:09:04.276523	38.9	16.9	-90.8	4.0
2025-01-29 08:09:05.445408	39.1	17.0	-91.4	1.5
2025-01-29 08:09:06.607857	39.2	17.1	-91.7	5.9
2025-01-29 08:09:07.770730	39.4	17.2	-89.5	5.7
2025-01-29 08:09:08.930335	39.6	17.3	-90.1	5.2
2025-01-29 08:09:10.091188	39.8	17.4	-90.1	6.2
2025-01-29 08:09:11.250499	39.9	17.5	-90.6	5.5
2025-01-29 08:09:12.408861	40.1	17.6	-90.3	4.2
2025-01-29 08:09:13.577467	40.3	17.7	-90.1	7.2
2025-01-29 08:09:14.734172	40.5	17.8	-91.3	5.2
2025-01-29 08:09:15.893616	40.7	17.9	-91.4	5.9
2025-01-29 08:09:17.056307	40.8	18.0	-91.4	7.7
2025-01-29 08:09:18.222432	41.0	18.1	-90.8	8.3
2025-01-29 08:09:19.376486	41.2	18.2	-91.3	7.4
2025-01-29 08:09:20.542093	41.4	18.3	-90.6	7.8
2025-01-29 08:09:21.703589	41.6	18.4	-91.2	7.5
2025-01-29 08:09:22.870011	41.8	18.5	-91.4	6.5
2025-01-29 08:09:24.030506	42.0	18.6	-91.2	6.7
2025-01-29 08:09:25.192628	42.2	18.7	-91.1	8.9
2025-01-29 08:09:26.356791	42.4	18.8	-91.3	4.6
2025-01-29 08:09:27.507869	42.6	18.9	-91.2	5.6
2025-01-29 08:09:28.661759	42.7	19.0	-91.2	8.1
2025-01-29 08:09:29.827809	42.9	19.1	-90.9	7.4
2025-01-29 08:09:30.994970	43.1	19.2	-91.2	5.2
2025-01-29 08:09:32.156278	43.3	19.3	-91.4	8.4
2025-01-29 08:09:33.316861	43.5	19.4	-91.0	10.1
2025-01-29 08:09:34.478182	43.7	19.5	-91.5	8.3
2025-01-29 08:09:35.639831	44.0	19.6	-91.5	13.7
2025-01-29 08:09:36.801415	44.2	19.7	-91.5	9.6
2025-01-29 08:09:37.966641	44.4	19.8	-91.6	7.0
2025-01-29 08:09:39.118840	44.6	19.9	-91.2	8.7
2025-01-29 08:09:40.286136	44.8	20.0	-91.2	8.4
2025-01-29 08:09:41.451120	45.0	20.1	-91.4	10.9
2025-01-29 08:09:42.613681	45.2	20.2	-91.5	9.5
2025-01-29 08:09:43.780723	45.4	20.3	-91.4	11.8
2025-01-29 08:09:44.934318	45.6	20.4	-91.4	4.8
2025-01-29 08:09:46.098865	45.8	20.5	-91.2	6.7
2025-01-29 08:09:47.257935	46.1	20.6	-91.1	9.8
2025-01-29 08:09:48.422372	46.3	20.7	-90.0	7.4
2025-01-29 08:09:49.576868	46.5	20.8	-91.4	7.6
2025-01-29 08:09:50.737373	46.7	20.9	-91.0	9.2
2025-01-29 08:09:51.897471	46.9	21.0	-91.5	9.0
2025-01-29 08:09:53.062755	47.2	21.1	-91.3	10.3
2025-01-29 08:09:54.224166	47.4	21.2	-91.3	12.2
2025-01-29 08:09:55.387592	47.6	21.3	-91.8	11.4
2025-01-29 08:09:56.548164	47.8	21.4	-91.7	10.8
2025-01-29 08:09:57.706886	48.1	21.5	-91.4	13.4
2025-01-29 08:09:58.863900	48.3	21.6	-91.2	10.7
2025-01-29 08:10:00.015273	48.5	21.7	-90.9	9.5
2025-01-29 08:10:01.159243	48.8	21.8	-91.1	14.0
2025-01-29 08:10:02.312010	49.0	21.9	-91.4	12.9
2025-01-29 08:10:03.474264	49.2	22.0	-91.0	13.2
2025-01-29 08:10:04.631245	49.5	22.1	-91.1	14.0
2025-01-29 08:10:05.793998	49.7	22.2	-91.3	13.2
2025-01-29 08:10:06.955424	50.0	22.4	-91.2	7.8
2025-01-29 08:10:08.112049	50.2	22.5	-90.9	13.6
2025-01-29 08:10:09.269192	50.4	22.6	-91.3	15.3
2025-01-29 08:10:10.435833	50.7	22.7	-91.4	6.4
2025-01-29 08:10:11.598912	50.9	22.8	-91.1	11.5
2025-01-29 08:10:12.755374	51.2	22.9	-90.9	12.4
2025-01-29 08:10:13.921994	51.4	23.0	-91.0	11.2
2025-01-29 08:10:15.082282	51.7	23.1	-90.1	11.1
2025-01-29 08:10:16.244145	52.0	23.2	-90.1	13.3
2025-01-29 08:10:17.409533	52.2	23.3	-89.8	9.8
2025-01-29 08:10:18.576826	52.5	23.4	-91.0	9.8
2025-01-29 08:10:19.737361	52.7	23.5	-91.2	16.4
2025-01-29 08:10:20.885414	53.0	23.6	-91.1	9.5
2025-01-29 08:10:22.040545	53.2	23.7	-91.1	10.3
2025-01-29 08:10:23.199982	53.5	23.8	-90.6	14.9
2025-01-29 08:10:24.361963	53.8	23.9	-91.1	15.5
2025-01-29 08:10:25.524170	54.0	23.9	-91.3	14.1
2025-01-29 08:10:26.683519	54.3	24.0	-91.4	15.5
2025-01-29 08:10:27.842604	54.6	24.1	-91.2	14.3
2025-01-29 08:10:29.006239	54.9	24.2	-91.8	7.9
2025-01-29 08:10:30.160915	55.1	24.3	-91.4	9.0
2025-01-29 08:10:31.320856	55.4	24.4	-91.5	10.4
2025-01-29 08:10:32.469853	55.7	24.5	-91.1	4.5
2025-01-29 08:10:33.597742	55.9	24.6	-91.1	9.6
2025-01-29 08:10:34.719701	56.2	24.7	-91.3	11.1
2025-01-29 08:10:35.844664	56.5	24.8	-91.6	9.6
2025-01-29 08:10:36.966349	56.8	24.9	-91.3	10.4
2025-01-29 08:10:38.086546	57.0	25.0	-91.2	12.6
2025-01-29 08:10:39.207013	57.3	25.1	-89.8	13.8
2025-01-29 08:10:40.327819	57.6	25.2	-89.5	13.5
2025-01-29 08:10:41.448554	57.9	25.3	-90.0	15.4
2025-01-29 08:10:42.573083	58.2	25.4	-90.1	11.2
2025-01-29 08:10:43.694464	58.4	25.4	-90.0	13.6
2025-01-29 08:10:44.850817	58.7	25.5	-90.7	7.4
2025-01-29 08:10:45.997916	59.0	25.6	-91.3	8.7
2025-01-29 08:10:47.163003	59.3	25.7	-91.5	12.7
2025-01-29 08:10:48.310306	59.6	25.8	-91.0	7.8
2025-01-29 08:10:49.469750	59.9	25.9	-91.4	4.2
2025-01-29 08:10:50.631366	60.2	26.0	-91.3	6.1
2025-01-29 08:10:51.792673	60.5	26.1	-91.9	4.8
2025-01-29 08:10:52.953270	60.8	26.2	-91.0	5.8
2025-01-29 08:10:54.109634	61.1	26.3	-90.9	6.0
2025-01-29 08:10:55.266266	61.5	26.3	-91.1	8.2
2025-01-29 08:10:56.426993	61.8	26.4	-91.3	5.7
2025-01-29 08:10:57.594598	62.1	26.5	-91.7	6.0
2025-01-29 08:10:58.752359	62.4	26.6	-91.4	8.4
2025-01-29 08:10:59.911027	62.7	26.7	-91.1	4.3
2025-01-29 08:11:01.061895	63.0	26.8	-91.2	3.6
2025-01-29 08:11:02.226985	63.4	26.9	-90.6	4.1
2025-01-29 08:11:03.388324	63.7	26.9	-91.0	4.1
2025-01-29 08:11:04.547973	64.0	27.0	-90.6	3.6
2025-01-29 08:11:05.715570	64.3	27.1	-91.2	5.2
2025-01-29 08:11:06.875293	64.7	27.2	-91.6	6.4
2025-01-29 08:11:08.040630	65.0	27.3	-91.5	8.8
2025-01-29 08:11:09.199691	65.3	27.3	-91.3	7.3
2025-01-29 08:11:10.355227	65.6	27.4	-91.4	9.0
2025-01-29 08:11:11.516385	66.0	27.5	-91.6	10.4
2025-01-29 08:11:12.676208	66.3	27.6	-91.5	7.3
2025-01-29 08:11:13.837324	66.6	27.7	-91.9	5.2
2025-01-29 08:11:15.000964	67.0	27.7	-91.6	6.4
2025-01-29 08:11:16.161183	67.3	27.8	-90.9	7.3
2025-01-29 08:11:17.324846	67.7	27.9	-90.8	3.0
2025-01-29 08:11:18.482290	68.0	28.0	-91.4	5.6
2025-01-29 08:11:19.639781	68.3	28.0	-91.5	6.9
2025-01-29 08:11:20.804172	68.7	28.1	-91.3	12.9
2025-01-29 08:11:21.969887	69.0	28.2	-91.3	12.9
2025-01-29 08:11:23.128483	69.4	28.2	-90.8	8.7
2025-01-29 08:11:24.288369	69.7	28.3	-91.2	8.5
2025-01-29 08:11:25.452609	70.1	28.4	-91.8	7.0
2025-01-29 08:11:26.614888	70.4	28.4	-91.5	9.7
2025-01-29 08:11:27.777749	70.8	28.5	-91.6	9.0
2025-01-29 08:11:28.939740	71.2	28.6	-91.6	6.5
2025-01-29 08:11:30.100606	71.5	28.6	-90.8	8.1
2025-01-29 08:11:31.255150	71.9	28.7	-89.8	6.5
2025-01-29 08:11:32.418971	72.2	28.8	-90.0	5.0
2025-01-29 08:11:33.579073	72.6	28.8	-89.7	7.4
2025-01-29 08:11:34.733203	73.0	28.9	-89.8	11.1
2025-01-29 08:11:35.887744	73.3	28.9	-89.6	6.4
2025-01-29 08:11:37.055364	73.7	29.0	-89.8	5.7
2025-01-29 08:11:38.214027	74.1	29.0	-89.1	9.5
2025-01-29 08:11:39.370852	74.4	29.1	-89.8	7.3
2025-01-29 08:11:40.525121	74.8	29.1	-90.0	10.8
2025-01-29 08:11:41.687685	75.2	29.2	-90.0	14.0
2025-01-29 08:11:42.850578	75.5	29.3	-90.1	11.9
2025-01-29 08:11:44.011535	75.9	29.3	-90.3	12.5
2025-01-29 08:11:45.174743	76.3	29.4	-90.7	12.9
2025-01-29 08:11:46.333058	76.7	29.4	-90.9	16.3
2025-01-29 08:11:47.500788	77.0	29.4	-90.9	15.8
2025-01-29 08:11:48.665225	77.4	29.5	-91.1	14.4
2025-01-29 08:11:49.824376	77.8	29.5	-90.9	13.2
2025-01-29 08:11:50.984709	78.2	29.6	-90.9	10.7
2025-01-29 08:11:52.151247	78.5	29.6	-90.4	16.1
2025-01-29 08:11:53.312222	78.9	29.7	-90.2	12.4
2025-01-29 08:11:54.472008	79.3	29.7	-90.8	8.6
2025-01-29 08:11:55.643286	79.7	29.7	-90.8	16.0
2025-01-29 08:11:56.800569	80.1	29.8	-91.1	17.7
2025-01-29 08:11:57.962021	80.5	29.8	-90.0	11.0
2025-01-29 08:11:59.122538	80.8	29.8	-90.7	13.8
2025-01-29 08:12:00.275220	81.2	29.9	-90.5	15.5
2025-01-29 08:12:01.435322	81.6	29.9	-91.2	13.4
2025-01-29 08:12:02.594975	82.0	29.9	-91.4	16.5
2025-01-29 08:12:03.753071	82.4	30.0	-90.8	18.8
2025-01-29 08:12:04.918276	82.8	30.0	-91.4	16.2
2025-01-29 08:12:06.081880	83.2	30.0	-90.9	16.5
2025-01-29 08:12:07.246944	83.6	30.0	-90.7	17.5
2025-01-29 08:12:08.408440	84.0	30.1	-90.3	17.2
2025-01-29 08:12:09.565335	84.3	30.1	-91.1	16.6
2025-01-29 08:12:10.727370	84.7	30.1	-91.1	17.3
2025-01-29 08:12:11.890642	85.1	30.1	-91.0	14.0
2025-01-29 08:12:13.056093	85.5	30.1	-90.6	13.3
2025-01-29 08:12:14.212784	85.9	30.1	-90.4	16.1
2025-01-29 08:12:15.372299	86.3	30.2	-91.2	13.3
2025-01-29 08:12:16.529014	86.7	30.2	-91.1	12.6
2025-01-29 08:12:17.693560	87.1	30.2	-90.7	15.9
2025-01-29 08:12:18.849582	87.5	30.2	-90.9	11.6
2025-01-29 08:12:20.011774	87.9	30.2	-90.7	8.9
2025-01-29 08:12:21.175410	88.3	30.2	-91.1	17.8
2025-01-29 08:12:22.338241	88.7	30.2	-90.5	11.1
2025-01-29 08:12:23.496648	89.1	30.2	-91.5	9.2
2025-01-29 08:12:24.653678	89.5	30.2	-90.7	15.1
2025-01-29 08:12:25.813186	89.9	30.2	-91.0	14.0
2025-01-29 08:12:26.976328	90.3	30.2	-90.9	9.1
2025-01-29 08:12:28.136681	90.6	30.2	-90.7	16.5
2025-01-29 08:12:29.294319	91.0	30.2	-90.6	16.7
2025-01-29 08:12:30.451989	91.4	30.2	-91.1	12.3
2025-01-29 08:12:31.614905	91.8	30.2	-91.3	16.4
2025-01-29 08:12:32.776704	92.2	30.2	-91.4	17.7
2025-01-29 08:12:33.940051	92.6	30.2	-91.1	15.5
2025-01-29 08:12:35.098988	93.0	30.2	-90.9	15.9
2025-01-29 08:12:36.257311	93.4	30.1	-90.8	15.6
2025-01-29 08:12:37.419927	93.8	30.1	-91.4	13.8
2025-01-29 08:12:38.578422	94.2	30.1	-91.0	18.2
2025-01-29 08:12:39.733739	94.6	30.1	-91.0	18.3
2025-01-29 08:12:40.897489	95.0	30.1	-91.0	16.8
2025-01-29 08:12:42.058687	95.4	30.1	-90.9	18.2
2025-01-29 08:12:43.218861	95.8	30.0	-91.2	17.3
2025-01-29 08:12:44.383518	96.1	30.0	-91.2	13.7
2025-01-29 08:12:45.542926	96.5	30.0	-90.0	15.1
2025-01-29 08:12:46.703134	96.9	30.0	-90.3	15.8
2025-01-29 08:12:47.867996	97.3	29.9	-90.0	17.8
2025-01-29 08:12:49.031915	97.7	29.9	-90.0	15.8
2025-01-29 08:12:50.192885	98.1	29.9	-90.1	16.2
2025-01-29 08:12:51.358731	98.5	29.8	-90.4	18.4
2025-01-29 08:12:52.523586	98.9	29.8	-90.8	17.1
2025-01-29 08:12:53.687910	99.3	29.8	-90.5	9.7
2025-01-29 08:12:54.852546	99.6	29.7	-90.4	12.0
2025-01-29 08:12:56.014451	100.0	29.7	-90.4	9.7
2025-01-29 08:12:57.185550	100.4	29.7	-91.2	16.2
2025-01-29 08:12:58.345903	100.8	29.6	-91.5	15.2
2025-01-29 08:12:59.505519	101.2	29.6	-91.0	13.2
2025-01-29 08:13:00.654414	101.6	29.6	-90.5	14.0
2025-01-29 08:13:01.815972	101.9	29.5	-91.0	12.9
2025-01-29 08:13:02.980519	102.3	29.5	-90.8	11.8
2025-01-29 08:13:04.135315	102.7	29.4	-90.8	13.3
2025-01-29 08:13:05.304364	103.1	29.4	-90.7	13.9
2025-01-29 08:13:06.468098	103.4	29.3	-91.1	13.3
2025-01-29 08:13:07.633745	103.8	29.3	-91.4	13.5
2025-01-29 08:13:08.796959	104.2	29.2	-90.9	13.5
2025-01-29 08:13:09.954067	104.6	29.2	-91.2	13.3
2025-01-29 08:13:11.113279	104.9	29.1	-91.1	15.8
2025-01-29 08:13:12.272738	105.3	29.1	-91.3	16.2
2025-01-29 08:13:13.430103	105.7	29.0	-91.6	13.5
2025-01-29 08:13:14.591645	106.0	29.0	-91.3	11.9
2025-01-29 08:13:15.749747	106.4	28.9	-91.1	11.4
2025-01-29 08:13:16.912592	106.8	28.8	-90.8	12.3
2025-01-29 08:13:18.063917	107.1	28.8	-91.3	12.2
2025-01-29 08:13:19.229985	107.5	28.7	-91.0	15.7
2025-01-29 08:13:20.392068	107.9	28.7	-90.2	13.0
2025-01-29 08:13:21.552144	108.2	28.6	-90.7	12.3
2025-01-29 08:13:22.714147	108.6	28.5	-90.3	15.7
2025-01-29 08:13:23.870824	108.9	28.5	-90.3	12.7
2025-01-29 08:13:25.028143	109.3	28.4	-90.5	12.1
2025-01-29 08:13:26.185099	109.6	28.3	-90.1	13.8
2025-01-29 08:13:27.349178	110.0	28.3	-89.1	10.8
2025-01-29 08:13:28.502297	110.3	28.2	-90.0	11.2
2025-01-29 08:13:29.658738	110.7	28.1	-89.4	11.0
2025-01-29 08:13:30.817861	111.0	28.0	-90.4	12.1
2025-01-29 08:13:31.986869	111.4	28.0	-89.7	9.9
2025-01-29 08:13:33.143336	111.7	27.9	-89.3	9.0
2025-01-29 08:13:34.303472	112.1	27.8	-89.3	9.4
2025-01-29 08:13:35.461817	112.4	27.8	-90.6	7.8
2025-01-29 08:13:36.627277	112.7	27.7	-90.5	4.9
2025-01-29 08:13:37.789703	113.1	27.6	-88.9	4.7
2025-01-29 08:13:38.955312	113.4	27.5	-89.7	4.4
2025-01-29 08:13:40.109952	113.8	27.4	-88.8	4.3
2025-01-29 08:13:41.268790	114.1	27.4	-89.0	3.9
2025-01-29 08:13:42.434608	114.4	27.3	-89.7	4.4
2025-01-29 08:13:43.596237	114.8	27.2	-89.1	5.2
2025-01-29 08:13:44.759101	115.1	27.1	-88.1	6.1
2025-01-29 08:13:45.918576	115.4	27.0	-90.0	5.7
2025-01-29 08:13:47.065125	115.7	27.0	-89.4	3.1
2025-01-29 08:13:48.219856	116.1	26.9	-89.3	4.4
2025-01-29 08:13:49.380371	116.4	26.8	-89.7	3.9
2025-01-29 08:13:50.539679	116.7	26.7	-90.1	4.9
2025-01-29 08:13:51.706822	117.0	26.6	-89.9	7.4
2025-01-29 08:13:52.866013	117.3	26.5	-89.6	4.7
2025-01-29 08:13:54.029348	117.6	26.5	-89.7	4.3
2025-01-29 08:13:55.183664	118.0	26.4	-89.6	5.9
2025-01-29 08:13:56.337470	118.3	26.3	-88.8	6.9
2025-01-29 08:13:57.496659	118.6	26.2	-89.1	7.9
2025-01-29 08:13:58.663171	118.9	26.1	-90.1	10.3
2025-01-29 08:13:59.823908	119.2	26.0	-89.7	10.9
2025-01-29 08:14:00.982413	119.5	25.9	-89.6	10.6
2025-01-29 08:14:02.138823	119.8	25.8	-89.1	8.9
2025-01-29 08:14:03.295629	120.1	25.7	-89.6	7.8
2025-01-29 08:14:04.457140	120.4	25.6	-89.4	5.4
2025-01-29 08:14:05.626875	120.7	25.6	-89.8	8.3
2025-01-29 08:14:06.791444	121.0	25.5	-90.1	10.7
2025-01-29 08:14:07.948059	121.3	25.4	-90.0	7.7
2025-01-29 08:14:09.098921	121.6	25.3	-89.9	10.1
2025-01-29 08:14:10.258946	121.9	25.2	-90.1	12.1
2025-01-29 08:14:11.421727	122.2	25.1	-90.4	9.9
2025-01-29 08:14:12.580414	122.5	25.0	-90.6	9.5
2025-01-29 08:14:13.738556	122.7	24.9	-90.8	12.8
2025-01-29 08:14:14.893541	123.0	24.8	-91.0	8.8
2025-01-29 08:14:16.055345	123.3	24.7	-91.4	9.2
2025-01-29 08:14:17.214800	123.6	24.6	-90.8	12.8
2025-01-29 08:14:18.371250	123.9	24.5	-91.0	10.2
2025-01-29 08:14:19.532380	124.2	24.4	-90.8	7.7
2025-01-29 08:14:20.695641	124.4	24.3	-91.4	11.4
2025-01-29 08:14:21.859283	124.7	24.2	-91.2	8.2
2025-01-29 08:14:23.023391	125.0	24.1	-91.1	9.4
2025-01-29 08:14:24.186709	125.3	24.0	-90.9	13.0
2025-01-29 08:14:25.337631	125.5	23.9	-91.0	11.8
2025-01-29 08:14:26.499542	125.8	23.8	-91.1	12.8
2025-01-29 08:14:27.663213	126.1	23.7	-91.1	14.9
2025-01-29 08:14:28.832505	126.3	23.6	-91.2	14.7
2025-01-29 08:14:29.995120	126.6	23.5	-91.0	14.1
2025-01-29 08:14:31.152577	126.9	23.4	-91.1	14.9
2025-01-29 08:14:32.309918	127.1	23.3	-90.8	15.2
2025-01-29 08:14:33.465094	127.4	23.2	-91.2	15.0
2025-01-29 08:14:34.623049	127.6	23.1	-91.2	14.9
2025-01-29 08:14:35.782256	127.9	23.0	-91.5	16.1
2025-01-29 08:14:36.937621	128.1	22.9	-91.1	15.2
2025-01-29 08:14:38.093913	128.4	22.8	-91.1	14.2
2025-01-29 08:14:39.252997	128.6	22.7	-91.0	16.4
2025-01-29 08:14:40.408311	128.9	22.6	-91.1	11.8
2025-01-29 08:14:41.567767	129.1	22.5	-91.1	12.7
2025-01-29 08:14:42.735691	129.4	22.4	-91.4	15.7
2025-01-29 08:14:43.897474	129.6	22.3	-91.1	9.1
2025-01-29 08:14:45.056512	129.9	22.2	-90.9	9.8
2025-01-29 08:14:46.220322	130.1	22.1	-90.6	14.1
2025-01-29 08:14:47.381274	130.3	22.0	-90.7	12.0
2025-01-29 08:14:48.537513	130.6	21.9	-90.9	8.5
2025-01-29 08:14:49.696070	130.8	21.8	-90.9	14.2
2025-01-29 08:14:50.853064	131.1	21.7	-91.3	11.4
2025-01-29 08:14:52.008707	131.3	21.6	-91.0	9.6
2025-01-29 08:14:53.174193	131.5	21.5	-90.6	15.7
2025-01-29 08:14:54.332562	131.8	21.4	-90.2	13.9
2025-01-29 08:14:55.492120	132.0	21.3	-90.4	13.5
2025-01-29 08:14:56.657613	132.2	21.2	-90.8	16.5
2025-01-29 08:14:57.826443	132.4	21.1	-90.9	17.5
2025-01-29 08:14:58.986738	132.7	21.0	-91.1	17.8
2025-01-29 08:15:00.143348	132.9	20.9	-90.3	16.1
2025-01-29 08:15:01.297915	133.1	20.8	-90.4	14.8
2025-01-29 08:15:02.460393	133.3	20.7	-90.6	17.1
2025-01-29 08:15:03.619577	133.5	20.6	-90.4	17.5
2025-01-29 08:15:04.782556	133.8	20.5	-91.0	15.1
2025-01-29 08:15:05.935887	134.0	20.4	-90.8	14.7
2025-01-29 08:15:07.102069	134.2	20.3	-90.6	13.7
2025-01-29 08:15:08.259247	134.4	20.2	-90.8	13.4
2025-01-29 08:15:09.417722	134.6	20.0	-90.8	10.9
2025-01-29 08:15:10.577284	134.8	19.9	-91.0	10.0
2025-01-29 08:15:11.735073	135.0	19.8	-89.5	11.2
2025-01-29 08:15:12.894611	135.2	19.7	-89.9	8.8
2025-01-29 08:15:14.062404	135.5	19.6	-89.7	8.2
2025-01-29 08:15:15.219294	135.7	19.5	-89.4	9.6
2025-01-29 08:15:16.387071	135.9	19.4	-90.7	6.7
2025-01-29 08:15:17.549618	136.1	19.3	-91.0	7.3
2025-01-29 08:15:18.707147	136.3	19.2	-91.0	10.9
2025-01-29 08:15:19.877208	136.5	19.1	-90.8	8.5
2025-01-29 08:15:21.034194	136.7	19.0	-91.1	9.2
2025-01-29 08:15:22.199009	136.9	18.9	-90.6	7.4
2025-01-29 08:15:23.360512	137.1	18.8	-90.5	10.0
2025-01-29 08:15:24.520796	137.3	18.7	-90.7	10.6
2025-01-29 08:15:25.677763	137.5	18.6	-90.7	9.4
2025-01-29 08:15:26.830795	137.6	18.5	-90.8	8.7
2025-01-29 08:15:27.990657	137.8	18.4	-90.7	9.2
2025-01-29 08:15:29.153847	138.0	18.3	-90.4	8.4
2025-01-29 08:15:30.317355	138.2	18.2	-90.3	9.1
2025-01-29 08:15:31.479305	138.4	18.1	-90.8	7.7
2025-01-29 08:15:32.637983	138.6	18.0	-90.5	8.8
2025-01-29 08:15:33.798663	138.8	17.9	-90.8	8.9
2025-01-29 08:15:34.960233	139.0	17.8	-90.7	6.4
2025-01-29 08:15:36.122249	139.1	17.7	-90.3	7.3
2025-01-29 08:15:37.281404	139.3	17.6	-90.4	7.3
2025-01-29 08:15:38.452666	139.5	17.5	-90.5	5.8
2025-01-29 08:15:39.616962	139.7	17.4	-90.6	4.0
2025-01-29 08:15:40.775217	139.9	17.3	-90.7	5.3
2025-01-29 08:15:41.925658	140.0	17.2	-91.0	5.2
2025-01-29 08:15:43.077518	140.2	17.1	-90.9	5.9
2025-01-29 08:15:44.235817	140.4	17.0	-90.8	7.4
2025-01-29 08:15:45.395786	140.6	16.9	-90.7	7.9
2025-01-29 08:15:46.557763	140.7	16.8	-90.6	6.2
2025-01-29 08:15:47.714693	140.9	16.7	-90.9	4.0
2025-01-29 08:15:48.873781	141.1	16.6	-90.6	5.8
2025-01-29 08:15:50.029063	141.2	16.5	-91.0	3.5
2025-01-29 08:15:51.191299	141.4	16.4	-90.6	5.2
2025-01-29 08:15:52.341831	141.6	16.3	-89.4	4.6
2025-01-29 08:15:53.507732	141.8	16.2	-91.0	3.8
2025-01-29 08:15:54.668916	141.9	16.1	-90.8	4.5
2025-01-29 08:15:55.831305	142.1	16.0	-91.1	6.1
2025-01-29 08:15:56.995364	142.2	15.9	-91.4	7.3
2025-01-29 08:15:58.167004	142.4	15.8	-91.1	7.9
2025-01-29 08:15:59.324193	142.6	15.7	-89.4	5.6
2025-01-29 08:16:00.481873	142.7	15.6	-89.7	5.5
2025-01-29 08:16:01.636448	142.9	15.5	-89.4	5.6
2025-01-29 08:16:02.795867	143.0	15.4	-90.1	3.7
2025-01-29 08:16:03.953192	143.2	15.3	-89.8	5.2
2025-01-29 08:16:05.115806	143.4	15.2	-89.4	7.8
2025-01-29 08:16:06.276478	143.5	15.1	-89.2	7.2
2025-01-29 08:16:07.441701	143.7	15.0	-89.5	4.7
2025-01-29 08:16:08.597550	143.8	14.9	-89.8	6.0
2025-01-29 08:16:09.761135	144.0	14.8	-89.8	4.1
2025-01-29 08:16:10.915170	144.1	14.8	-90.4	4.2
2025-01-29 08:16:12.071319	144.3	14.7	-90.4	6.6
2025-01-29 08:16:13.228963	144.4	14.6	-90.0	6.5
#Closed at: 2025-01-29 08:08:46.602598