passes_logs/2025/01/29/LEX_Murmansk/LEX_Murmansk__20250129_180836_NOAA_18_rec.log

#Pass ID: 20250129_180836_NOAA 18
#Satellite: NOAA 18
#Configuration: NOAA 18
#Start time: 2025-01-29 18:08:31.328729

#LorettStation: 1.0.0 05.05.2024
#Station: LEX_Murmansk
#Location: 33.156738 lon 68.926811 lat
#TLE: 1 28654U 05018A   25029.10768076  .00000445  00000+0  25948-3 0  9995
#TLE: 2 28654  98.8544 110.0207 0014928 140.4380 219.7885 14.13500636 15173

#Time	Az	El	Level	SNR
2025-01-29 18:08:43.462305	129.6	16.3	-92.2	11.4
2025-01-29 18:08:45.773794	129.5	16.5	-92.2	11.9
2025-01-29 18:08:48.080706	129.4	16.8	-92.1	9.3
2025-01-29 18:08:50.393729	129.3	17.1	-91.6	6.6
2025-01-29 18:08:52.708866	129.2	17.3	-92.2	12.1
2025-01-29 18:08:55.022593	129.1	17.6	-92.0	14.2
2025-01-29 18:08:57.333061	128.9	17.8	-92.0	13.5
2025-01-29 18:08:59.644574	128.8	18.1	-92.2	15.7
2025-01-29 18:09:01.974165	128.7	18.4	-91.8	16.9
2025-01-29 18:09:04.282872	128.6	18.7	-91.9	14.4
2025-01-29 18:09:06.600915	128.5	18.9	-92.2	9.8
2025-01-29 18:09:08.909383	128.3	19.2	-92.4	10.7
2025-01-29 18:09:11.216875	128.2	19.5	-92.1	16.1
2025-01-29 18:09:13.522965	128.1	19.8	-92.2	14.1
2025-01-29 18:09:15.846348	127.9	20.1	-92.2	11.3
2025-01-29 18:09:18.158244	127.8	20.4	-92.0	13.4
2025-01-29 18:09:20.458042	127.7	20.7	-92.0	8.3
2025-01-29 18:09:22.766219	127.5	21.0	-92.1	12.5
2025-01-29 18:09:25.066396	127.4	21.3	-92.3	9.2
2025-01-29 18:09:27.390679	127.2	21.6	-92.4	11.6
2025-01-29 18:09:29.685978	127.1	21.9	-91.3	10.4
2025-01-29 18:09:31.998192	126.9	22.2	-91.4	9.2
2025-01-29 18:09:34.307340	126.8	22.5	-92.0	12.4
2025-01-29 18:09:36.608140	126.6	22.8	-92.3	11.2
2025-01-29 18:09:38.928083	126.4	23.1	-92.2	6.7
2025-01-29 18:09:41.241877	126.3	23.5	-92.2	13.1
2025-01-29 18:09:43.544287	126.1	23.8	-92.3	13.7
2025-01-29 18:09:45.856580	125.9	24.1	-92.4	11.6
2025-01-29 18:09:48.171217	125.8	24.5	-92.1	12.3
2025-01-29 18:09:50.487764	125.6	24.8	-92.5	14.7
2025-01-29 18:09:52.792616	125.4	25.2	-92.2	9.0
2025-01-29 18:09:55.105161	125.2	25.5	-91.9	5.4
2025-01-29 18:09:57.417231	125.0	25.9	-92.2	3.5
2025-01-29 18:09:59.714915	124.8	26.2	-92.3	5.4
2025-01-29 18:10:01.996010	124.6	26.6	-92.0	3.8
2025-01-29 18:10:04.307171	124.4	27.0	-91.8	5.2
2025-01-29 18:10:06.621153	124.2	27.3	-92.1	6.5
2025-01-29 18:10:08.939139	123.9	27.7	-92.4	3.1
2025-01-29 18:10:11.241831	123.7	28.1	-92.3	3.8
2025-01-29 18:10:13.547716	123.5	28.5	-92.3	4.4
2025-01-29 18:10:15.855654	123.2	28.9	-92.4	8.3
2025-01-29 18:10:18.355867	123.0	29.3	-90.6	12.6
2025-01-29 18:10:20.663026	122.7	29.7	-91.5	11.3
2025-01-29 18:10:22.973086	122.5	30.1	-91.2	7.2
2025-01-29 18:10:25.277408	122.2	30.5	-92.2	9.1
2025-01-29 18:10:27.589525	121.9	30.9	-92.4	7.5
2025-01-29 18:10:29.906676	121.7	31.4	-92.7	4.9
2025-01-29 18:10:32.214518	121.4	31.8	-92.4	11.4
2025-01-29 18:10:34.519291	121.1	32.2	-92.6	13.6
2025-01-29 18:10:36.833362	120.8	32.7	-92.5	12.9
2025-01-29 18:10:39.139849	120.5	33.1	-92.4	16.7
2025-01-29 18:10:41.464286	120.1	33.6	-92.8	10.8
2025-01-29 18:10:43.788726	119.8	34.0	-92.5	11.3
2025-01-29 18:10:46.102531	119.5	34.5	-92.1	11.0
2025-01-29 18:10:48.398592	119.1	34.9	-92.3	5.9
2025-01-29 18:10:50.713584	118.8	35.4	-92.4	15.2
2025-01-29 18:10:53.030852	118.4	35.9	-92.2	12.1
2025-01-29 18:10:55.320429	118.0	36.4	-91.9	15.5
2025-01-29 18:10:57.633178	117.6	36.9	-92.3	13.0
2025-01-29 18:10:59.937956	117.2	37.4	-92.5	7.1
2025-01-29 18:11:02.240781	116.8	37.9	-91.9	14.5
2025-01-29 18:11:04.550226	116.4	38.4	-92.3	12.5
2025-01-29 18:11:06.854191	115.9	38.9	-92.5	11.4
2025-01-29 18:11:09.162098	115.5	39.4	-92.2	18.1
2025-01-29 18:11:11.479932	115.0	39.9	-92.4	10.3
2025-01-29 18:11:13.790636	114.5	40.4	-92.2	17.7
2025-01-29 18:11:16.101426	114.0	41.0	-92.1	10.9
2025-01-29 18:11:18.421411	113.5	41.5	-91.8	11.1
2025-01-29 18:11:20.736675	112.9	42.1	-92.2	16.5
2025-01-29 18:11:23.055671	112.4	42.6	-91.9	14.6
2025-01-29 18:11:25.367316	111.8	43.2	-91.2	13.2
2025-01-29 18:11:27.668412	111.2	43.7	-90.6	13.1
2025-01-29 18:11:29.980417	110.6	44.3	-92.1	8.0
2025-01-29 18:11:32.294037	109.9	44.9	-91.8	14.9
2025-01-29 18:11:34.603438	109.2	45.4	-92.6	21.1
2025-01-29 18:11:36.905998	108.5	46.0	-92.6	13.2
2025-01-29 18:11:39.221741	107.8	46.6	-91.9	10.6
2025-01-29 18:11:41.527562	107.1	47.2	-92.3	6.9
2025-01-29 18:11:43.841436	106.3	47.8	-92.3	9.6
2025-01-29 18:11:46.148208	105.5	48.3	-92.2	14.1
2025-01-29 18:11:48.455378	104.7	48.9	-92.0	5.1
2025-01-29 18:11:50.771837	103.8	49.5	-92.6	8.0
2025-01-29 18:11:53.080299	102.9	50.1	-92.3	6.6
2025-01-29 18:11:55.380621	101.9	50.7	-92.3	2.4
2025-01-29 18:11:57.696159	100.9	51.3	-92.4	9.1
2025-01-29 18:12:00.007336	99.9	51.9	-92.3	17.6
2025-01-29 18:12:02.315536	98.9	52.5	-92.1	14.4
2025-01-29 18:12:04.621375	97.8	53.0	-92.2	12.1
2025-01-29 18:12:06.933471	96.6	53.6	-92.3	12.4
2025-01-29 18:12:09.245046	95.4	54.2	-92.0	13.6
2025-01-29 18:12:11.552359	94.2	54.7	-92.0	20.4
2025-01-29 18:12:13.864151	92.9	55.3	-92.3	14.5
2025-01-29 18:12:16.171936	91.5	55.8	-92.4	14.6
2025-01-29 18:12:18.480705	90.1	56.4	-92.4	12.6
2025-01-29 18:12:20.798793	88.7	56.9	-92.3	17.4
2025-01-29 18:12:23.124119	87.2	57.4	-92.4	11.3
2025-01-29 18:12:25.434851	85.6	57.9	-92.4	8.5
2025-01-29 18:12:27.746376	84.0	58.4	-92.4	19.5
2025-01-29 18:12:30.053148	82.3	58.8	-91.0	15.5
2025-01-29 18:12:32.366844	80.6	59.2	-91.5	17.6
2025-01-29 18:12:34.681384	78.8	59.7	-92.7	20.6
2025-01-29 18:12:37.006038	76.9	60.1	-91.5	11.0
2025-01-29 18:12:39.323025	75.0	60.4	-91.4	16.9
2025-01-29 18:12:41.639973	73.0	60.8	-91.6	17.9
2025-01-29 18:12:43.949709	71.0	61.1	-92.6	12.9
2025-01-29 18:12:46.251692	69.0	61.3	-92.3	21.6
2025-01-29 18:12:48.553869	66.9	61.6	-92.8	20.1
2025-01-29 18:12:50.872872	64.7	61.8	-92.9	18.5
2025-01-29 18:12:53.181548	62.5	62.0	-92.6	18.5
2025-01-29 18:12:55.488902	60.3	62.1	-92.2	18.9
2025-01-29 18:12:57.802023	58.1	62.2	-92.3	19.4
2025-01-29 18:13:00.115442	55.9	62.3	-92.2	18.0
2025-01-29 18:13:02.420082	53.6	62.3	-92.0	9.8
2025-01-29 18:13:04.734493	51.4	62.3	-92.7	19.3
2025-01-29 18:13:07.050163	49.1	62.2	-91.8	10.9
2025-01-29 18:13:09.372241	46.9	62.2	-92.3	10.4
2025-01-29 18:13:11.646861	44.7	62.0	-92.5	16.5
2025-01-29 18:13:13.946269	42.5	61.9	-92.4	12.6
2025-01-29 18:13:16.270655	40.3	61.7	-92.0	18.4
2025-01-29 18:13:18.581853	38.2	61.5	-92.2	14.2
2025-01-29 18:13:20.882115	36.1	61.2	-92.0	12.3
2025-01-29 18:13:23.195067	34.1	60.9	-91.7	16.3
2025-01-29 18:13:25.510729	32.1	60.6	-92.1	12.1
2025-01-29 18:13:27.812122	30.2	60.3	-92.3	17.2
2025-01-29 18:13:30.120100	28.3	59.9	-92.1	14.1
2025-01-29 18:13:32.426078	26.5	59.5	-92.4	6.0
2025-01-29 18:13:34.738126	24.7	59.1	-92.4	11.1
2025-01-29 18:13:37.045652	23.0	58.6	-92.3	8.6
2025-01-29 18:13:39.346571	21.3	58.2	-92.4	9.1
2025-01-29 18:13:41.654962	19.7	57.7	-92.6	14.7
2025-01-29 18:13:43.966591	18.2	57.2	-91.3	13.7
2025-01-29 18:13:46.271193	16.7	56.7	-91.2	13.1
2025-01-29 18:13:48.584641	15.3	56.1	-92.7	13.9
2025-01-29 18:13:50.895915	13.9	55.6	-92.4	9.8
2025-01-29 18:13:53.198252	12.6	55.1	-91.8	10.4
2025-01-29 18:13:55.511749	11.3	54.5	-92.3	9.3
2025-01-29 18:13:57.830293	10.1	53.9	-92.2	9.4
2025-01-29 18:14:00.143866	8.9	53.4	-92.3	9.2
2025-01-29 18:14:02.452275	7.8	52.8	-92.9	10.0
2025-01-29 18:14:04.767357	6.7	52.2	-92.7	17.6
2025-01-29 18:14:07.079780	5.7	51.6	-91.9	14.8
2025-01-29 18:14:09.396408	4.6	51.0	-92.4	11.3
2025-01-29 18:14:11.712770	3.7	50.4	-92.4	17.8
2025-01-29 18:14:14.015061	2.8	49.9	-92.4	15.3
2025-01-29 18:14:16.323417	1.9	49.3	-92.2	13.6
2025-01-29 18:14:18.637055	1.0	48.7	-92.6	21.2
2025-01-29 18:14:20.948432	0.2	48.1	-92.3	17.5
2025-01-29 18:14:23.253898	359.4	47.5	-92.4	18.1
2025-01-29 18:14:25.570569	358.6	46.9	-92.7	15.3
2025-01-29 18:14:27.875132	357.9	46.3	-92.6	18.1
2025-01-29 18:14:30.185145	357.2	45.8	-92.3	17.8
2025-01-29 18:14:32.494591	356.5	45.2	-92.5	16.5
2025-01-29 18:14:34.797200	355.8	44.6	-92.4	22.8
2025-01-29 18:14:37.113577	355.2	44.0	-92.3	18.8
2025-01-29 18:14:39.378592	354.6	43.5	-92.2	10.4
2025-01-29 18:14:41.619740	354.0	43.0	-92.3	18.9
2025-01-29 18:14:43.864506	353.5	42.4	-92.3	16.7
2025-01-29 18:14:46.107111	352.9	41.9	-91.9	19.8
2025-01-29 18:14:48.349221	352.4	41.4	-90.7	19.0
2025-01-29 18:14:50.627648	351.9	40.8	-90.5	16.3
2025-01-29 18:14:52.932579	351.4	40.3	-92.5	18.1
2025-01-29 18:14:55.226789	350.9	39.8	-92.3	18.7
2025-01-29 18:14:57.537161	350.4	39.2	-92.3	12.8
2025-01-29 18:14:59.844656	350.0	38.7	-92.5	13.7
2025-01-29 18:15:02.158675	349.5	38.2	-92.2	21.7
2025-01-29 18:15:04.461322	349.1	37.7	-91.9	10.8
2025-01-29 18:15:06.778383	348.7	37.2	-92.3	16.3
2025-01-29 18:15:09.082206	348.3	36.7	-92.3	16.3
2025-01-29 18:15:11.394825	347.9	36.2	-92.4	11.0
2025-01-29 18:15:13.711277	347.5	35.7	-92.2	12.7
2025-01-29 18:15:16.022339	347.2	35.3	-92.4	10.0
2025-01-29 18:15:18.331924	346.8	34.8	-91.7	7.8
2025-01-29 18:15:20.644084	346.5	34.3	-92.6	10.9
2025-01-29 18:15:22.970950	346.1	33.9	-92.3	8.5
2025-01-29 18:15:25.276143	345.8	33.4	-92.0	11.9
2025-01-29 18:15:27.588002	345.5	33.0	-92.5	16.3
2025-01-29 18:15:29.904189	345.2	32.5	-92.7	17.6
2025-01-29 18:15:32.229992	344.9	32.1	-92.5	16.9
2025-01-29 18:15:34.533042	344.6	31.6	-92.7	14.2
2025-01-29 18:15:36.836914	344.3	31.2	-91.0	10.3
2025-01-29 18:15:39.160845	344.0	30.8	-90.7	11.5
2025-01-29 18:15:41.475959	343.8	30.4	-90.9	9.4
2025-01-29 18:15:43.777265	343.5	30.0	-92.3	15.7
2025-01-29 18:15:46.090323	343.2	29.6	-92.4	17.3
2025-01-29 18:15:48.393743	343.0	29.2	-92.1	11.7
2025-01-29 18:15:50.691773	342.7	28.8	-92.6	11.7
2025-01-29 18:15:53.005297	342.5	28.4	-92.5	5.1
2025-01-29 18:15:55.311687	342.3	28.0	-92.3	7.5
2025-01-29 18:15:57.616929	342.1	27.6	-92.7	12.1
2025-01-29 18:15:59.932345	341.8	27.2	-92.6	10.0
2025-01-29 18:16:02.235316	341.6	26.9	-92.5	11.9
2025-01-29 18:16:04.549761	341.4	26.5	-92.6	8.4
2025-01-29 18:16:06.862918	341.2	26.1	-92.8	7.7
2025-01-29 18:16:09.181137	341.0	25.8	-92.1	16.1
2025-01-29 18:16:11.486553	340.8	25.4	-92.6	7.8
2025-01-29 18:16:13.802775	340.6	25.1	-92.6	12.6
2025-01-29 18:16:16.101537	340.4	24.7	-91.9	14.2
2025-01-29 18:16:18.417432	340.3	24.4	-92.2	9.4
2025-01-29 18:16:20.724793	340.1	24.0	-92.7	9.5
2025-01-29 18:16:23.040360	339.9	23.7	-92.2	7.5
2025-01-29 18:16:25.342896	339.7	23.4	-92.6	5.2
2025-01-29 18:16:27.653389	339.6	23.0	-92.2	14.4
2025-01-29 18:16:29.971616	339.4	22.7	-92.5	11.4
2025-01-29 18:16:32.282088	339.2	22.4	-92.2	15.3
2025-01-29 18:16:34.585848	339.1	22.1	-92.4	13.9
2025-01-29 18:16:36.889617	338.9	21.8	-92.3	13.5
2025-01-29 18:16:39.198841	338.8	21.5	-92.1	13.2
2025-01-29 18:16:41.522667	338.6	21.2	-92.1	9.1
2025-01-29 18:16:43.836884	338.5	20.9	-91.1	10.8
2025-01-29 18:16:46.146687	338.4	20.6	-91.1	14.4
2025-01-29 18:16:48.458465	338.2	20.3	-92.8	6.1
2025-01-29 18:16:50.773735	338.1	20.0	-92.5	7.8
2025-01-29 18:16:53.079215	337.9	19.7	-92.4	5.8
2025-01-29 18:16:55.385681	337.8	19.4	-92.6	5.4
2025-01-29 18:16:57.702159	337.7	19.1	-93.1	7.9
2025-01-29 18:17:00.018314	337.6	18.8	-92.6	9.5
2025-01-29 18:17:02.322279	337.4	18.6	-92.1	9.1
2025-01-29 18:17:04.607936	337.3	18.3	-92.6	7.7
2025-01-29 18:17:06.850923	337.2	18.0	-92.6	7.1
2025-01-29 18:17:09.091812	337.1	17.8	-92.1	5.6
2025-01-29 18:17:11.332511	337.0	17.5	-92.5	3.9
2025-01-29 18:17:13.573377	336.9	17.3	-92.6	5.3
2025-01-29 18:17:15.830459	336.8	17.0	-92.6	5.4
2025-01-29 18:17:18.136802	336.7	16.7	-92.5	9.1
2025-01-29 18:17:20.438574	336.6	16.5	-91.3	5.7
2025-01-29 18:17:22.740125	336.5	16.2	-91.5	7.3
2025-01-29 18:17:25.057883	336.4	16.0	-90.8	4.7
2025-01-29 18:17:27.358614	336.3	15.7	-91.4	8.2
2025-01-29 18:17:29.669367	336.2	15.5	-92.2	9.0
2025-01-29 18:17:31.978136	336.1	15.3	-92.5	6.0
2025-01-29 18:17:34.294863	336.0	15.0	-92.2	7.7
2025-01-29 18:17:36.598015	335.9	14.8	-92.2	6.2
2025-01-29 18:17:38.909783	335.8	14.5	-92.7	8.2
#Closed at: 2025-01-29 18:08:36.282700