passes_logs/2025/01/29/LEX_Murmansk/LEX_Murmansk__20250129_194929_NOAA_18_rec.log

#Pass ID: 20250129_194929_NOAA 18
#Satellite: NOAA 18
#Configuration: NOAA 18
#Start time: 2025-01-29 19:49:24.432872

#LorettStation: 1.0.0 05.05.2024
#Station: LEX_Murmansk
#Location: 33.156738 lon 68.926811 lat
#TLE: 1 28654U 05018A   25029.10768076  .00000445  00000+0  25948-3 0  9995
#TLE: 2 28654  98.8544 110.0207 0014928 140.4380 219.7885 14.13500636 15173

#Time	Az	El	Level	SNR
2025-01-29 19:49:36.566731	182.2	16.2	-92.2	5.9
2025-01-29 19:49:38.885013	182.4	16.5	-92.2	5.4
2025-01-29 19:49:41.214639	182.6	16.7	-91.9	4.1
2025-01-29 19:49:43.537521	182.7	17.0	-92.1	5.3
2025-01-29 19:49:45.862278	182.9	17.2	-92.4	5.1
2025-01-29 19:49:48.193934	183.1	17.5	-92.0	6.2
2025-01-29 19:49:50.517735	183.2	17.8	-92.5	8.8
2025-01-29 19:49:52.849209	183.4	18.0	-92.0	9.3
2025-01-29 19:49:55.174996	183.6	18.3	-92.2	10.1
2025-01-29 19:49:57.502284	183.8	18.5	-92.7	4.7
2025-01-29 19:49:59.820297	184.0	18.8	-92.3	6.6
2025-01-29 19:50:02.144120	184.2	19.1	-92.2	11.1
2025-01-29 19:50:04.471784	184.4	19.4	-92.6	9.2
2025-01-29 19:50:06.797220	184.6	19.6	-92.4	7.9
2025-01-29 19:50:09.116300	184.8	19.9	-91.9	8.9
2025-01-29 19:50:11.413788	185.0	20.2	-92.4	7.8
2025-01-29 19:50:13.657399	185.2	20.5	-92.3	8.8
2025-01-29 19:50:15.899438	185.4	20.7	-92.5	6.6
2025-01-29 19:50:18.141366	185.6	21.0	-92.4	7.1
2025-01-29 19:50:20.383074	185.8	21.3	-92.7	9.2
2025-01-29 19:50:22.640631	186.0	21.6	-92.4	9.0
2025-01-29 19:50:24.945068	186.2	21.9	-92.3	9.5
2025-01-29 19:50:27.261775	186.4	22.2	-92.6	9.4
2025-01-29 19:50:29.584489	186.7	22.5	-92.7	10.4
2025-01-29 19:50:31.913673	186.9	22.8	-92.3	5.1
2025-01-29 19:50:34.244292	187.1	23.1	-90.8	8.8
2025-01-29 19:50:36.584710	187.4	23.4	-90.9	10.9
2025-01-29 19:50:38.904712	187.6	23.7	-92.5	8.1
2025-01-29 19:50:41.232122	187.9	24.1	-92.1	12.1
2025-01-29 19:50:43.554508	188.2	24.4	-92.5	10.6
2025-01-29 19:50:45.877766	188.4	24.7	-92.3	7.8
2025-01-29 19:50:48.201490	188.7	25.0	-92.3	9.6
2025-01-29 19:50:50.525628	189.0	25.4	-92.4	7.8
2025-01-29 19:50:52.850125	189.3	25.7	-92.6	9.1
2025-01-29 19:50:55.179363	189.6	26.1	-91.8	9.2
2025-01-29 19:50:57.494069	189.8	26.4	-92.5	10.0
2025-01-29 19:50:59.819249	190.1	26.7	-92.2	13.1
2025-01-29 19:51:02.143853	190.5	27.1	-92.0	11.5
2025-01-29 19:51:04.465052	190.8	27.5	-92.5	6.7
2025-01-29 19:51:06.786795	191.1	27.8	-92.4	4.5
2025-01-29 19:51:09.109267	191.4	28.2	-92.5	7.6
2025-01-29 19:51:11.437114	191.8	28.5	-92.4	9.2
2025-01-29 19:51:13.756604	192.1	28.9	-92.3	6.8
2025-01-29 19:51:16.086941	192.5	29.3	-92.1	10.7
2025-01-29 19:51:18.411548	192.8	29.7	-91.9	13.0
2025-01-29 19:51:20.745684	193.2	30.1	-92.5	10.8
2025-01-29 19:51:23.072846	193.6	30.4	-92.3	7.4
2025-01-29 19:51:25.406203	193.9	30.8	-92.4	4.2
2025-01-29 19:51:27.729699	194.3	31.2	-92.5	4.2
2025-01-29 19:51:30.056621	194.7	31.6	-92.2	4.6
2025-01-29 19:51:32.387687	195.2	32.0	-92.4	5.3
2025-01-29 19:51:34.717393	195.6	32.4	-92.5	13.8
2025-01-29 19:51:37.047279	196.0	32.8	-92.2	14.3
2025-01-29 19:51:39.376849	196.5	33.3	-90.8	11.7
2025-01-29 19:51:41.718574	196.9	33.7	-90.9	10.0
2025-01-29 19:51:44.043952	197.4	34.1	-92.4	9.3
2025-01-29 19:51:46.381771	197.9	34.5	-92.0	7.5
2025-01-29 19:51:48.709060	198.4	35.0	-92.3	14.2
2025-01-29 19:51:51.033818	198.9	35.4	-92.5	12.5
2025-01-29 19:51:53.305726	199.4	35.8	-92.0	7.3
2025-01-29 19:51:55.634820	199.9	36.3	-92.5	10.7
2025-01-29 19:51:57.961619	200.5	36.7	-92.5	15.5
2025-01-29 19:52:00.274864	201.0	37.1	-92.4	11.0
2025-01-29 19:52:02.603329	201.6	37.6	-92.5	12.0
2025-01-29 19:52:04.927376	202.2	38.0	-92.6	5.8
2025-01-29 19:52:07.248785	202.8	38.5	-92.1	11.7
2025-01-29 19:52:09.578709	203.4	38.9	-92.7	16.1
2025-01-29 19:52:11.922768	204.1	39.4	-92.2	14.5
2025-01-29 19:52:14.252342	204.7	39.9	-92.0	13.5
2025-01-29 19:52:16.587162	205.4	40.3	-92.5	18.0
2025-01-29 19:52:18.916257	206.1	40.8	-92.7	17.5
2025-01-29 19:52:21.246137	206.8	41.3	-92.2	16.0
2025-01-29 19:52:23.574493	207.6	41.7	-92.3	17.2
2025-01-29 19:52:25.893128	208.3	42.2	-92.5	7.2
2025-01-29 19:52:28.205234	209.1	42.7	-92.3	19.7
2025-01-29 19:52:30.526426	209.9	43.1	-92.1	16.9
2025-01-29 19:52:32.833240	210.7	43.6	-92.4	16.5
2025-01-29 19:52:35.077023	211.6	44.0	-92.1	16.8
2025-01-29 19:52:37.319090	212.4	44.5	-92.2	11.6
2025-01-29 19:52:39.561137	213.3	44.9	-92.7	15.6
2025-01-29 19:52:41.804556	214.2	45.4	-92.7	11.4
2025-01-29 19:52:44.050151	215.1	45.8	-91.3	15.5
2025-01-29 19:52:46.374485	216.1	46.2	-91.5	10.5
2025-01-29 19:52:48.687810	217.1	46.7	-92.8	15.3
2025-01-29 19:52:51.016585	218.1	47.1	-92.2	11.7
2025-01-29 19:52:53.334422	219.2	47.6	-92.7	9.4
2025-01-29 19:52:55.668781	220.3	48.0	-92.4	15.2
2025-01-29 19:52:57.999959	221.4	48.4	-92.5	13.1
2025-01-29 19:53:00.323044	222.5	48.8	-92.5	20.0
2025-01-29 19:53:02.648062	223.7	49.2	-92.5	20.6
2025-01-29 19:53:04.974772	224.9	49.6	-92.4	17.3
2025-01-29 19:53:07.305102	226.2	50.0	-92.2	13.1
2025-01-29 19:53:09.601358	227.5	50.4	-92.5	16.1
2025-01-29 19:53:11.900839	228.7	50.8	-92.7	14.2
2025-01-29 19:53:14.212373	230.1	51.1	-92.3	17.3
2025-01-29 19:53:16.513252	231.4	51.4	-92.9	19.9
2025-01-29 19:53:18.802373	232.8	51.7	-92.6	17.8
2025-01-29 19:53:21.136956	234.2	52.1	-92.0	18.2
2025-01-29 19:53:23.471798	235.7	52.3	-92.5	5.8
2025-01-29 19:53:25.800965	237.2	52.6	-92.4	11.4
2025-01-29 19:53:28.124572	238.7	52.9	-92.3	14.6
2025-01-29 19:53:30.446377	240.2	53.1	-92.5	11.9
2025-01-29 19:53:32.769430	241.8	53.3	-92.2	15.6
2025-01-29 19:53:35.098835	243.4	53.5	-92.4	13.5
2025-01-29 19:53:37.419383	245.0	53.7	-92.6	17.0
2025-01-29 19:53:39.735383	246.6	53.8	-92.6	10.7
2025-01-29 19:53:42.058562	248.2	54.0	-92.3	11.0
2025-01-29 19:53:44.400315	249.9	54.1	-92.0	10.5
2025-01-29 19:53:46.718186	251.6	54.1	-91.4	12.4
2025-01-29 19:53:49.032544	253.2	54.2	-90.8	4.0
2025-01-29 19:53:51.360542	254.9	54.2	-92.2	11.0
2025-01-29 19:53:53.677322	256.6	54.2	-92.4	18.2
2025-01-29 19:53:56.004093	258.2	54.2	-92.4	13.7
2025-01-29 19:53:58.324999	259.9	54.2	-92.5	14.5
2025-01-29 19:54:00.647366	261.6	54.1	-92.8	20.4
2025-01-29 19:54:02.963559	263.2	54.0	-92.9	13.1
2025-01-29 19:54:05.288614	264.8	53.9	-92.2	19.1
2025-01-29 19:54:07.610960	266.5	53.8	-92.3	24.3
2025-01-29 19:54:09.940545	268.1	53.6	-92.3	22.1
2025-01-29 19:54:12.276602	269.7	53.4	-92.2	20.5
2025-01-29 19:54:14.603921	271.3	53.2	-92.4	23.8
2025-01-29 19:54:16.927581	272.8	53.0	-92.6	22.3
2025-01-29 19:54:19.251027	274.4	52.8	-92.3	20.9
2025-01-29 19:54:21.571482	275.9	52.5	-92.6	22.5
2025-01-29 19:54:23.895258	277.3	52.3	-92.8	20.4
2025-01-29 19:54:26.221645	278.8	52.0	-92.8	21.8
2025-01-29 19:54:28.553150	280.2	51.6	-92.9	15.4
2025-01-29 19:54:30.872328	281.6	51.3	-92.7	12.6
2025-01-29 19:54:33.198994	283.0	51.0	-92.3	13.8
2025-01-29 19:54:35.531333	284.3	50.6	-92.9	13.6
2025-01-29 19:54:37.869728	285.6	50.3	-92.5	17.1
2025-01-29 19:54:40.199680	286.9	49.9	-92.5	13.2
2025-01-29 19:54:42.532628	288.1	49.5	-92.5	21.4
2025-01-29 19:54:44.857723	289.3	49.1	-92.4	16.5
2025-01-29 19:54:47.186659	290.5	48.7	-92.2	18.5
2025-01-29 19:54:49.504319	291.6	48.3	-92.6	7.2
2025-01-29 19:54:51.826788	292.7	47.8	-91.5	4.9
2025-01-29 19:54:54.152432	293.8	47.4	-90.9	11.4
2025-01-29 19:54:56.474803	294.9	47.0	-92.6	12.7
2025-01-29 19:54:58.799796	295.9	46.5	-93.0	9.2
2025-01-29 19:55:01.120705	296.9	46.1	-92.9	13.8
2025-01-29 19:55:03.442443	297.8	45.6	-92.8	6.4
2025-01-29 19:55:05.778998	298.8	45.2	-92.5	12.7
2025-01-29 19:55:08.107650	299.7	44.7	-92.7	4.3
2025-01-29 19:55:10.428096	300.6	44.2	-92.9	6.9
2025-01-29 19:55:12.743814	301.4	43.8	-93.0	14.5
2025-01-29 19:55:15.007278	302.3	43.3	-92.6	13.9
2025-01-29 19:55:17.246625	303.1	42.9	-92.3	15.3
2025-01-29 19:55:19.487126	303.8	42.4	-92.6	18.3
2025-01-29 19:55:21.731775	304.6	42.0	-92.4	15.3
2025-01-29 19:55:23.976641	305.3	41.5	-92.2	20.8
2025-01-29 19:55:26.276489	306.0	41.1	-92.7	18.0
2025-01-29 19:55:28.596676	306.7	40.6	-92.9	11.4
2025-01-29 19:55:30.906888	307.4	40.2	-92.8	13.5
2025-01-29 19:55:33.232662	308.1	39.7	-92.5	17.6
2025-01-29 19:55:35.553963	308.7	39.2	-92.8	13.2
2025-01-29 19:55:37.876898	309.4	38.8	-92.8	13.8
2025-01-29 19:55:40.200757	310.0	38.3	-92.2	13.7
2025-01-29 19:55:42.523865	310.6	37.9	-92.3	11.9
2025-01-29 19:55:44.851176	311.2	37.4	-92.8	10.8
2025-01-29 19:55:47.175272	311.8	37.0	-92.8	14.5
2025-01-29 19:55:49.497983	312.3	36.5	-92.9	14.8
2025-01-29 19:55:51.824735	312.9	36.1	-93.0	14.1
2025-01-29 19:55:54.145821	313.4	35.7	-92.4	13.5
2025-01-29 19:55:56.470246	313.9	35.2	-91.5	10.8
2025-01-29 19:55:58.793206	314.4	34.8	-90.8	9.7
2025-01-29 19:56:01.123789	314.9	34.4	-92.8	14.1
2025-01-29 19:56:03.459915	315.4	33.9	-93.0	11.9
2025-01-29 19:56:05.790673	315.8	33.5	-92.8	11.4
2025-01-29 19:56:08.119390	316.3	33.1	-92.8	16.9
2025-01-29 19:56:10.440219	316.7	32.7	-92.9	14.5
2025-01-29 19:56:12.772296	317.2	32.3	-92.5	17.7
2025-01-29 19:56:15.099266	317.6	31.9	-91.8	18.0
2025-01-29 19:56:17.411440	318.0	31.5	-92.7	12.7
2025-01-29 19:56:19.720028	318.4	31.1	-93.0	16.6
2025-01-29 19:56:22.044730	318.8	30.7	-92.1	10.9
2025-01-29 19:56:24.363863	319.2	30.3	-92.5	10.1
2025-01-29 19:56:26.688199	319.5	29.9	-92.6	13.3
2025-01-29 19:56:29.016378	319.9	29.5	-92.2	17.8
2025-01-29 19:56:31.337281	320.3	29.2	-92.4	15.5
2025-01-29 19:56:33.664285	320.6	28.8	-92.5	14.7
2025-01-29 19:56:35.989761	320.9	28.4	-92.4	9.6
2025-01-29 19:56:38.307003	321.3	28.1	-92.9	7.8
2025-01-29 19:56:40.636771	321.6	27.7	-92.7	14.4
2025-01-29 19:56:42.956211	321.9	27.3	-92.8	8.2
2025-01-29 19:56:45.280283	322.2	27.0	-92.2	11.1
2025-01-29 19:56:47.603115	322.5	26.6	-92.6	13.7
2025-01-29 19:56:49.930878	322.8	26.3	-92.8	10.7
2025-01-29 19:56:52.259710	323.1	25.9	-92.5	11.0
2025-01-29 19:56:54.586502	323.4	25.6	-92.4	14.8
2025-01-29 19:56:56.899844	323.7	25.3	-92.9	7.2
2025-01-29 19:56:59.226882	324.0	24.9	-92.3	15.6
2025-01-29 19:57:01.540211	324.3	24.6	-91.9	14.1
2025-01-29 19:57:03.867842	324.5	24.3	-92.6	13.4
2025-01-29 19:57:06.198316	324.8	24.0	-92.5	9.7
2025-01-29 19:57:08.520294	325.0	23.6	-92.6	8.7
2025-01-29 19:57:10.834563	325.3	23.3	-92.6	5.6
2025-01-29 19:57:13.158446	325.5	23.0	-92.3	7.9
2025-01-29 19:57:15.482921	325.8	22.7	-92.8	6.2
2025-01-29 19:57:17.808173	326.0	22.4	-92.9	9.1
2025-01-29 19:57:20.126685	326.2	22.1	-92.3	10.1
2025-01-29 19:57:22.463974	326.5	21.8	-92.9	7.4
2025-01-29 19:57:24.783276	326.7	21.5	-92.7	9.4
2025-01-29 19:57:27.106910	326.9	21.2	-92.6	5.4
2025-01-29 19:57:29.437233	327.1	20.9	-92.8	9.1
2025-01-29 19:57:31.765186	327.3	20.6	-92.8	5.5
2025-01-29 19:57:34.096405	327.6	20.3	-92.5	5.9
2025-01-29 19:57:36.414469	327.8	20.0	-93.0	2.3
2025-01-29 19:57:38.738207	328.0	19.8	-92.8	6.4
2025-01-29 19:57:41.062668	328.2	19.5	-92.6	3.7
2025-01-29 19:57:43.393031	328.4	19.2	-92.7	4.3
2025-01-29 19:57:45.725057	328.5	18.9	-92.7	6.3
2025-01-29 19:57:48.058121	328.7	18.7	-92.5	6.1
2025-01-29 19:57:50.385506	328.9	18.4	-92.5	5.8
2025-01-29 19:57:52.716597	329.1	18.1	-92.8	4.3
2025-01-29 19:57:55.042281	329.3	17.9	-92.4	3.9
2025-01-29 19:57:57.364150	329.5	17.6	-92.6	2.9
2025-01-29 19:57:59.689688	329.6	17.4	-92.8	5.1
2025-01-29 19:58:02.004662	329.8	17.1	-92.7	3.7
2025-01-29 19:58:04.329978	330.0	16.9	-91.1	7.7
2025-01-29 19:58:06.657529	330.1	16.6	-90.9	4.2
2025-01-29 19:58:08.986221	330.3	16.4	-92.1	3.1
2025-01-29 19:58:11.307685	330.5	16.1	-92.6	5.3
2025-01-29 19:58:13.642309	330.6	15.9	-92.4	4.4
2025-01-29 19:58:15.972469	330.8	15.6	-92.3	3.2
2025-01-29 19:58:18.298125	330.9	15.4	-92.2	3.9
2025-01-29 19:58:20.617744	331.1	15.2	-92.5	4.6
2025-01-29 19:58:22.950256	331.2	14.9	-92.5	4.9
2025-01-29 19:58:25.280897	331.4	14.7	-92.1	3.3
#Closed at: 2025-01-29 19:49:29.338125