passes_logs/2025/01/29/LEX_Murmansk/LEX_Murmansk__20250129_110805_NOAA_19_rec.log

#Pass ID: 20250129_110805_NOAA 19
#Satellite: NOAA 19
#Configuration: NOAA 19
#Start time: 2025-01-29 11:08:01.019000

#LorettStation: 1.0.0 05.05.2024
#Station: LEX_Murmansk
#Location: 33.156738 lon 68.926811 lat
#TLE: 1 33591U 09005A   25027.88922411  .00000392  00000+0  23338-3 0  9991
#TLE: 2 33591  99.0173  91.7499 0013972  22.5257 337.6525 14.13270697823101

#Time	Az	El	Level	SNR
2025-01-29 11:08:15.194663	24.1	16.3	-90.6	0.9
2025-01-29 11:08:16.355948	23.9	16.4	-91.1	2.9
2025-01-29 11:08:17.515786	23.8	16.5	-90.9	2.1
2025-01-29 11:08:18.679252	23.7	16.6	-91.0	2.9
2025-01-29 11:08:19.832904	23.5	16.7	-91.2	5.5
2025-01-29 11:08:20.988927	23.4	16.8	-91.2	2.7
2025-01-29 11:08:22.151454	23.2	17.0	-90.8	6.1
2025-01-29 11:08:23.311314	23.1	17.1	-90.6	3.3
2025-01-29 11:08:24.470089	23.0	17.2	-90.9	7.4
2025-01-29 11:08:25.621117	22.8	17.3	-91.2	2.4
2025-01-29 11:08:26.774975	22.7	17.4	-91.2	3.4
2025-01-29 11:08:27.920318	22.5	17.5	-91.1	4.5
2025-01-29 11:08:29.057684	22.4	17.6	-91.0	6.8
2025-01-29 11:08:30.210563	22.2	17.7	-91.0	5.9
2025-01-29 11:08:31.366846	22.1	17.8	-90.9	3.2
2025-01-29 11:08:32.528071	21.9	18.0	-91.0	3.1
2025-01-29 11:08:33.678877	21.8	18.1	-91.2	1.7
2025-01-29 11:08:34.842067	21.6	18.2	-91.3	2.5
2025-01-29 11:08:35.997793	21.5	18.3	-90.9	0.9
2025-01-29 11:08:37.154227	21.3	18.4	-91.2	3.5
2025-01-29 11:08:38.314684	21.2	18.5	-91.3	6.9
2025-01-29 11:08:39.467668	21.0	18.6	-91.2	1.7
2025-01-29 11:08:40.633356	20.8	18.8	-91.1	4.6
2025-01-29 11:08:41.789777	20.7	18.9	-91.6	2.6
2025-01-29 11:08:42.950853	20.5	19.0	-91.5	4.0
2025-01-29 11:08:44.106552	20.4	19.1	-91.1	5.6
2025-01-29 11:08:45.275535	20.2	19.2	-91.3	7.7
2025-01-29 11:08:46.441056	20.0	19.3	-91.2	6.5
2025-01-29 11:08:47.608923	19.9	19.5	-91.3	10.4
2025-01-29 11:08:48.771155	19.7	19.6	-91.2	4.6
2025-01-29 11:08:49.931842	19.5	19.7	-91.3	1.7
2025-01-29 11:08:51.090130	19.3	19.8	-91.0	3.5
2025-01-29 11:08:52.250453	19.2	19.9	-91.5	2.0
2025-01-29 11:08:53.422893	19.0	20.0	-91.5	1.8
2025-01-29 11:08:54.576354	18.8	20.2	-91.5	4.1
2025-01-29 11:08:55.741148	18.6	20.3	-91.8	7.6
2025-01-29 11:08:56.897928	18.5	20.4	-91.5	7.6
2025-01-29 11:08:58.061904	18.3	20.5	-91.6	7.8
2025-01-29 11:08:59.222179	18.1	20.6	-91.4	4.3
2025-01-29 11:09:00.375519	17.9	20.8	-91.1	5.2
2025-01-29 11:09:01.535747	17.7	20.9	-91.4	5.6
2025-01-29 11:09:02.700004	17.6	21.0	-91.8	5.9
2025-01-29 11:09:03.855717	17.4	21.1	-91.7	5.2
2025-01-29 11:09:05.024396	17.2	21.2	-90.7	7.7
2025-01-29 11:09:06.190177	17.0	21.4	-91.4	7.7
2025-01-29 11:09:07.352903	16.8	21.5	-91.1	4.8
2025-01-29 11:09:08.522018	16.6	21.6	-91.0	4.5
2025-01-29 11:09:09.684112	16.4	21.7	-90.9	3.1
2025-01-29 11:09:10.841990	16.2	21.8	-90.5	1.7
2025-01-29 11:09:12.004320	16.0	22.0	-90.7	3.2
2025-01-29 11:09:13.170859	15.8	22.1	-91.5	5.8
2025-01-29 11:09:14.334394	15.6	22.2	-91.3	4.1
2025-01-29 11:09:15.495821	15.4	22.3	-91.0	7.5
2025-01-29 11:09:16.657878	15.2	22.5	-91.1	5.6
2025-01-29 11:09:17.827022	15.0	22.6	-90.6	4.8
2025-01-29 11:09:18.984898	14.8	22.7	-89.6	5.5
2025-01-29 11:09:20.149373	14.6	22.8	-90.3	8.0
2025-01-29 11:09:21.308580	14.4	23.0	-91.0	2.5
2025-01-29 11:09:22.477436	14.2	23.1	-91.4	7.3
2025-01-29 11:09:23.640547	14.0	23.2	-91.1	8.3
2025-01-29 11:09:24.803927	13.7	23.3	-91.5	6.2
2025-01-29 11:09:25.966771	13.5	23.4	-91.6	15.0
2025-01-29 11:09:27.136228	13.3	23.6	-91.4	7.8
2025-01-29 11:09:28.297516	13.1	23.7	-91.0	4.4
2025-01-29 11:09:29.455295	12.9	23.8	-91.4	3.9
2025-01-29 11:09:30.618110	12.6	23.9	-91.3	2.6
2025-01-29 11:09:31.776221	12.4	24.1	-91.4	4.1
2025-01-29 11:09:32.946418	12.2	24.2	-91.4	3.5
2025-01-29 11:09:34.105108	12.0	24.3	-91.2	6.1
2025-01-29 11:09:35.268331	11.7	24.4	-91.4	5.1
2025-01-29 11:09:36.431360	11.5	24.6	-91.7	7.9
2025-01-29 11:09:37.591688	11.3	24.7	-91.5	5.7
2025-01-29 11:09:38.761668	11.0	24.8	-91.5	5.6
2025-01-29 11:09:39.926719	10.8	24.9	-91.7	4.6
2025-01-29 11:09:41.091481	10.5	25.1	-91.1	6.9
2025-01-29 11:09:42.253126	10.3	25.2	-91.2	3.9
2025-01-29 11:09:43.410999	10.0	25.3	-91.1	3.4
2025-01-29 11:09:44.571478	9.8	25.4	-91.4	6.5
2025-01-29 11:09:45.742119	9.5	25.6	-91.5	5.5
2025-01-29 11:09:46.909031	9.3	25.7	-91.6	8.2
2025-01-29 11:09:48.080280	9.0	25.8	-91.1	6.7
2025-01-29 11:09:49.254523	8.8	26.0	-91.7	6.0
2025-01-29 11:09:50.419080	8.5	26.1	-91.3	3.6
2025-01-29 11:09:51.583892	8.3	26.2	-91.8	4.7
2025-01-29 11:09:52.738020	8.0	26.3	-91.5	0.9
2025-01-29 11:09:53.905858	7.7	26.5	-91.6	3.6
2025-01-29 11:09:55.068126	7.5	26.6	-91.3	3.1
2025-01-29 11:09:56.231453	7.2	26.7	-91.1	3.5
2025-01-29 11:09:57.393697	6.9	26.8	-91.0	5.0
2025-01-29 11:09:58.557433	6.7	27.0	-91.8	7.4
2025-01-29 11:09:59.711422	6.4	27.1	-91.6	6.6
2025-01-29 11:10:00.858900	6.1	27.2	-91.7	8.3
2025-01-29 11:10:02.016780	5.8	27.3	-91.5	8.3
2025-01-29 11:10:03.180277	5.6	27.4	-91.4	6.5
2025-01-29 11:10:04.328587	5.3	27.6	-91.5	3.5
2025-01-29 11:10:05.491390	5.0	27.7	-91.7	6.4
2025-01-29 11:10:06.650041	4.7	27.8	-91.4	6.0
2025-01-29 11:10:07.806690	4.4	27.9	-91.8	4.9
2025-01-29 11:10:08.936311	4.1	28.1	-91.7	8.9
2025-01-29 11:10:10.064015	3.9	28.2	-91.3	8.7
2025-01-29 11:10:11.188979	3.6	28.3	-90.8	7.2
2025-01-29 11:10:12.320736	3.3	28.4	-89.0	6.3
2025-01-29 11:10:13.465521	3.0	28.5	-89.5	4.0
2025-01-29 11:10:14.606462	2.7	28.6	-90.8	5.5
2025-01-29 11:10:15.734653	2.4	28.8	-90.8	1.2
2025-01-29 11:10:16.863971	2.1	28.9	-91.1	1.0
2025-01-29 11:10:18.006949	1.8	29.0	-90.8	3.7
2025-01-29 11:10:19.146321	1.5	29.1	-91.0	5.6
2025-01-29 11:10:20.283371	1.2	29.2	-90.9	3.8
2025-01-29 11:10:21.423625	0.9	29.3	-90.6	5.6
2025-01-29 11:10:22.563517	0.6	29.5	-91.3	7.8
2025-01-29 11:10:23.719045	0.2	29.6	-90.9	9.0
2025-01-29 11:10:24.872010	359.9	29.7	-91.3	7.2
2025-01-29 11:10:26.032479	359.6	29.8	-91.3	7.3
2025-01-29 11:10:27.192937	359.3	29.9	-90.9	5.0
2025-01-29 11:10:28.348456	358.9	30.0	-90.9	3.2
2025-01-29 11:10:29.506419	358.6	30.1	-91.4	4.6
2025-01-29 11:10:30.667895	358.3	30.3	-91.1	4.5
2025-01-29 11:10:31.837119	357.9	30.4	-91.5	3.3
2025-01-29 11:10:33.003804	357.6	30.5	-91.5	6.7
2025-01-29 11:10:34.167154	357.3	30.6	-91.2	5.2
2025-01-29 11:10:35.331480	356.9	30.7	-90.9	5.8
2025-01-29 11:10:36.493908	356.6	30.8	-91.3	7.3
2025-01-29 11:10:37.651476	356.2	30.9	-91.0	7.0
2025-01-29 11:10:38.813627	355.9	31.0	-91.2	7.1
2025-01-29 11:10:39.976052	355.5	31.1	-91.1	4.8
2025-01-29 11:10:41.131928	355.2	31.2	-91.4	4.7
2025-01-29 11:10:42.284352	354.8	31.4	-91.2	3.1
2025-01-29 11:10:43.452541	354.4	31.5	-91.2	3.3
2025-01-29 11:10:44.617522	354.1	31.6	-91.0	1.2
2025-01-29 11:10:45.783024	353.7	31.7	-91.2	2.2
2025-01-29 11:10:46.944580	353.3	31.8	-91.3	1.4
2025-01-29 11:10:48.104143	353.0	31.9	-91.1	3.5
2025-01-29 11:10:49.270610	352.6	32.0	-91.4	2.9
2025-01-29 11:10:50.429171	352.2	32.1	-91.3	3.8
2025-01-29 11:10:51.589115	351.9	32.2	-91.1	6.2
2025-01-29 11:10:52.751700	351.5	32.3	-91.4	6.5
2025-01-29 11:10:53.919512	351.1	32.4	-91.5	4.4
2025-01-29 11:10:55.072506	350.7	32.5	-91.4	6.0
2025-01-29 11:10:56.229826	350.3	32.5	-91.3	3.1
2025-01-29 11:10:57.398519	349.9	32.6	-91.4	3.6
2025-01-29 11:10:58.552205	349.6	32.7	-91.6	6.0
2025-01-29 11:10:59.713113	349.2	32.8	-91.6	4.7
2025-01-29 11:11:00.867418	348.8	32.9	-91.6	3.2
2025-01-29 11:11:02.026713	348.4	33.0	-91.9	5.0
2025-01-29 11:11:03.185120	348.0	33.1	-91.5	2.7
2025-01-29 11:11:04.338924	347.6	33.2	-91.4	5.3
2025-01-29 11:11:05.489190	347.2	33.2	-91.7	6.8
2025-01-29 11:11:06.641981	346.8	33.3	-91.5	12.1
2025-01-29 11:11:07.797162	346.4	33.4	-91.7	9.6
2025-01-29 11:11:08.957046	346.0	33.5	-91.7	10.0
2025-01-29 11:11:10.119984	345.6	33.6	-91.4	10.8
2025-01-29 11:11:11.275520	345.1	33.6	-91.3	10.3
2025-01-29 11:11:12.436256	344.7	33.7	-91.5	8.4
2025-01-29 11:11:13.599487	344.3	33.8	-91.3	8.0
2025-01-29 11:11:14.759138	343.9	33.9	-91.6	5.8
2025-01-29 11:11:15.923272	343.5	33.9	-91.9	2.4
2025-01-29 11:11:17.083566	343.1	34.0	-90.8	3.7
2025-01-29 11:11:18.244212	342.6	34.1	-90.3	1.3
2025-01-29 11:11:19.404963	342.2	34.1	-90.8	3.1
2025-01-29 11:11:20.570678	341.8	34.2	-91.2	4.3
2025-01-29 11:11:21.730838	341.4	34.2	-91.8	4.0
2025-01-29 11:11:22.898640	340.9	34.3	-91.3	5.5
2025-01-29 11:11:24.052911	340.5	34.4	-91.5	7.2
2025-01-29 11:11:25.209915	340.1	34.4	-91.1	8.6
2025-01-29 11:11:26.369762	339.6	34.5	-91.4	9.9
2025-01-29 11:11:27.530907	339.2	34.5	-91.7	10.0
2025-01-29 11:11:28.697246	338.8	34.6	-91.5	9.4
2025-01-29 11:11:29.856598	338.3	34.6	-91.7	8.7
2025-01-29 11:11:31.017907	337.9	34.7	-91.7	11.2
2025-01-29 11:11:32.198313	337.4	34.7	-91.3	14.8
2025-01-29 11:11:33.364234	337.0	34.8	-91.6	15.8
2025-01-29 11:11:34.514414	336.6	34.8	-91.7	13.5
2025-01-29 11:11:35.676925	336.1	34.8	-91.7	11.7
2025-01-29 11:11:36.840543	335.7	34.9	-91.7	8.1
2025-01-29 11:11:38.007934	335.2	34.9	-91.5	11.7
2025-01-29 11:11:39.165126	334.8	34.9	-91.5	8.9
2025-01-29 11:11:40.337124	334.3	35.0	-91.3	7.9
2025-01-29 11:11:41.500606	333.9	35.0	-91.5	8.5
2025-01-29 11:11:42.658598	333.4	35.0	-91.6	7.6
2025-01-29 11:11:43.821003	333.0	35.1	-91.7	6.5
2025-01-29 11:11:44.973020	332.5	35.1	-91.5	7.7
2025-01-29 11:11:46.132297	332.1	35.1	-91.4	10.0
2025-01-29 11:11:47.297265	331.6	35.1	-91.6	6.9
2025-01-29 11:11:48.451735	331.2	35.1	-91.5	9.4
2025-01-29 11:11:49.600758	330.7	35.2	-91.5	7.7
2025-01-29 11:11:50.721629	330.3	35.2	-91.3	9.8
2025-01-29 11:11:51.841537	329.8	35.2	-91.5	8.5
2025-01-29 11:11:52.962100	329.4	35.2	-91.3	9.3
2025-01-29 11:11:54.084245	329.0	35.2	-91.4	13.0
2025-01-29 11:11:55.204365	328.5	35.2	-91.4	12.2
2025-01-29 11:11:56.325534	328.1	35.2	-91.3	11.4
2025-01-29 11:11:57.445816	327.7	35.2	-91.6	15.6
2025-01-29 11:11:58.566071	327.2	35.2	-91.5	15.9
2025-01-29 11:11:59.691631	326.8	35.2	-91.8	11.2
2025-01-29 11:12:00.815277	326.3	35.2	-91.5	12.0
2025-01-29 11:12:01.949147	325.9	35.2	-92.0	12.6
2025-01-29 11:12:03.104234	325.4	35.2	-91.5	10.8
2025-01-29 11:12:04.259982	325.0	35.2	-91.0	11.2
2025-01-29 11:12:05.408220	324.5	35.2	-91.5	7.9
2025-01-29 11:12:06.562690	324.1	35.1	-91.5	5.5
2025-01-29 11:12:07.727205	323.6	35.1	-91.4	6.8
2025-01-29 11:12:08.889372	323.2	35.1	-91.3	9.7
2025-01-29 11:12:10.048263	322.7	35.1	-91.6	7.9
2025-01-29 11:12:11.205990	322.3	35.1	-91.1	5.5
2025-01-29 11:12:12.364102	321.8	35.0	-91.2	4.0
2025-01-29 11:12:13.536264	321.4	35.0	-91.3	4.4
2025-01-29 11:12:14.689581	320.9	35.0	-91.7	4.7
2025-01-29 11:12:15.846815	320.5	35.0	-91.5	3.0
2025-01-29 11:12:17.011859	320.0	34.9	-91.7	3.4
2025-01-29 11:12:18.172040	319.6	34.9	-91.2	4.3
2025-01-29 11:12:19.334069	319.1	34.8	-91.5	3.6
2025-01-29 11:12:20.492857	318.7	34.8	-91.7	7.8
2025-01-29 11:12:21.652620	318.3	34.8	-91.1	3.6
2025-01-29 11:12:22.817897	317.8	34.7	-91.0	3.5
2025-01-29 11:12:23.982886	317.4	34.7	-91.0	3.6
2025-01-29 11:12:25.140115	316.9	34.6	-90.8	9.7
2025-01-29 11:12:26.305095	316.5	34.6	-91.3	3.0
2025-01-29 11:12:27.467846	316.1	34.5	-91.7	6.5
2025-01-29 11:12:28.623105	315.6	34.5	-91.6	6.3
2025-01-29 11:12:29.778082	315.2	34.4	-91.5	4.0
2025-01-29 11:12:30.938282	314.8	34.4	-91.8	4.9
2025-01-29 11:12:32.102644	314.3	34.3	-91.4	5.2
2025-01-29 11:12:33.267223	313.9	34.3	-91.6	3.0
2025-01-29 11:12:34.433458	313.5	34.2	-91.4	1.6
2025-01-29 11:12:35.591269	313.0	34.1	-91.7	8.8
2025-01-29 11:12:36.748629	312.6	34.1	-91.1	3.4
2025-01-29 11:12:37.910686	312.2	34.0	-91.4	4.4
2025-01-29 11:12:39.071448	311.8	33.9	-90.9	6.7
2025-01-29 11:12:40.234955	311.4	33.9	-91.5	3.0
2025-01-29 11:12:41.393083	310.9	33.8	-91.3	6.5
2025-01-29 11:12:42.555465	310.5	33.7	-91.6	6.2
2025-01-29 11:12:43.722333	310.1	33.7	-92.0	3.3
2025-01-29 11:12:44.880566	309.7	33.6	-91.5	3.9
2025-01-29 11:12:46.038950	309.3	33.5	-91.6	6.7
2025-01-29 11:12:47.206395	308.9	33.4	-91.5	2.0
2025-01-29 11:12:48.365294	308.5	33.4	-91.5	3.1
2025-01-29 11:12:49.531757	308.1	33.3	-91.5	6.2
2025-01-29 11:12:50.692210	307.7	33.2	-91.7	5.1
2025-01-29 11:12:51.852557	307.3	33.1	-91.6	2.3
2025-01-29 11:12:53.015168	306.9	33.0	-91.5	5.8
2025-01-29 11:12:54.180319	306.5	32.9	-91.4	3.4
2025-01-29 11:12:55.342366	306.1	32.8	-91.4	1.8
2025-01-29 11:12:56.510992	305.7	32.8	-91.8	5.5
2025-01-29 11:12:57.677326	305.3	32.7	-91.9	4.6
2025-01-29 11:12:58.843344	304.9	32.6	-91.9	2.2
2025-01-29 11:13:00.008368	304.5	32.5	-91.4	8.6
2025-01-29 11:13:01.161720	304.1	32.4	-91.4	6.0
2025-01-29 11:13:02.337428	303.7	32.3	-91.7	4.0
2025-01-29 11:13:03.494127	303.4	32.2	-91.3	7.0
2025-01-29 11:13:04.662350	303.0	32.1	-91.8	5.2
2025-01-29 11:13:05.826234	302.6	32.0	-91.8	5.7
2025-01-29 11:13:06.981067	302.2	31.9	-91.9	5.6
2025-01-29 11:13:08.151476	301.9	31.8	-91.5	3.7
2025-01-29 11:13:09.311298	301.5	31.7	-91.7	1.5
2025-01-29 11:13:10.476696	301.1	31.6	-91.8	5.9
2025-01-29 11:13:11.611390	300.8	31.5	-91.7	9.9
2025-01-29 11:13:12.770730	300.4	31.4	-92.0	4.3
2025-01-29 11:13:13.927988	300.1	31.3	-91.7	8.9
2025-01-29 11:13:15.084049	299.7	31.2	-91.3	10.4
2025-01-29 11:13:16.240166	299.4	31.1	-91.5	7.3
2025-01-29 11:13:17.389222	299.0	31.0	-90.9	9.1
2025-01-29 11:13:18.523434	298.7	30.9	-91.6	7.2
2025-01-29 11:13:19.676716	298.3	30.8	-91.6	6.6
2025-01-29 11:13:20.816021	298.0	30.6	-91.9	10.6
2025-01-29 11:13:21.964836	297.7	30.5	-91.5	10.8
2025-01-29 11:13:23.116832	297.3	30.4	-91.4	9.5
2025-01-29 11:13:24.254668	297.0	30.3	-91.9	9.1
2025-01-29 11:13:25.381745	296.7	30.2	-90.8	7.0
2025-01-29 11:13:26.540314	296.3	30.1	-90.5	8.1
2025-01-29 11:13:27.701691	296.0	30.0	-90.9	9.3
2025-01-29 11:13:28.832915	295.7	29.9	-90.8	8.1
2025-01-29 11:13:29.978004	295.4	29.8	-91.5	7.3
2025-01-29 11:13:31.137365	295.0	29.6	-91.5	10.5
2025-01-29 11:13:32.293739	294.7	29.5	-91.3	8.4
2025-01-29 11:13:33.454725	294.4	29.4	-91.7	9.9
2025-01-29 11:13:34.611758	294.1	29.3	-91.7	10.4
2025-01-29 11:13:35.774429	293.8	29.2	-91.8	8.6
2025-01-29 11:13:36.920377	293.5	29.1	-92.0	8.6
2025-01-29 11:13:38.079037	293.2	28.9	-91.7	5.6
2025-01-29 11:13:39.231067	292.9	28.8	-91.6	4.8
2025-01-29 11:13:40.377097	292.6	28.7	-91.5	5.3
2025-01-29 11:13:41.529260	292.3	28.6	-91.7	7.2
2025-01-29 11:13:42.678524	292.0	28.5	-91.5	2.7
2025-01-29 11:13:43.847387	291.7	28.3	-91.8	2.6
2025-01-29 11:13:45.012551	291.4	28.2	-91.6	4.4
2025-01-29 11:13:46.162513	291.1	28.1	-91.6	2.5
2025-01-29 11:13:47.322850	290.8	28.0	-91.8	2.6
2025-01-29 11:13:48.480757	290.5	27.9	-91.7	2.5
2025-01-29 11:13:49.642882	290.2	27.7	-92.1	4.6
2025-01-29 11:13:50.797135	289.9	27.6	-91.8	4.5
2025-01-29 11:13:51.955637	289.6	27.5	-91.6	5.1
2025-01-29 11:13:53.099550	289.4	27.4	-91.4	6.4
2025-01-29 11:13:54.246866	289.1	27.2	-91.7	3.7
2025-01-29 11:13:55.393649	288.8	27.1	-91.6	5.7
2025-01-29 11:13:56.542924	288.5	27.0	-91.6	6.3
2025-01-29 11:13:57.703630	288.3	26.9	-91.8	3.8
2025-01-29 11:13:58.868248	288.0	26.7	-91.6	5.3
2025-01-29 11:14:00.023569	287.7	26.6	-91.5	7.1
2025-01-29 11:14:01.167841	287.5	26.5	-91.3	7.2
2025-01-29 11:14:02.310187	287.2	26.4	-91.1	8.5
2025-01-29 11:14:03.460213	287.0	26.3	-91.2	3.9
2025-01-29 11:14:04.614151	286.7	26.1	-91.5	4.0
2025-01-29 11:14:05.766012	286.4	26.0	-91.3	6.5
2025-01-29 11:14:06.929872	286.2	25.9	-91.4	3.0
2025-01-29 11:14:08.097830	285.9	25.8	-91.2	6.4
2025-01-29 11:14:09.260573	285.7	25.6	-91.3	3.9
2025-01-29 11:14:10.420825	285.4	25.5	-91.2	2.8
2025-01-29 11:14:11.577462	285.2	25.4	-91.6	4.9
2025-01-29 11:14:12.742580	284.9	25.3	-91.2	5.0
2025-01-29 11:14:13.907154	284.7	25.1	-91.6	3.7
2025-01-29 11:14:15.073892	284.5	25.0	-91.8	3.4
2025-01-29 11:14:16.233827	284.2	24.9	-91.4	6.8
2025-01-29 11:14:17.396976	284.0	24.8	-91.6	2.9
2025-01-29 11:14:18.563465	283.7	24.6	-91.6	6.4
2025-01-29 11:14:19.726407	283.5	24.5	-91.6	9.5
2025-01-29 11:14:20.885797	283.3	24.4	-91.7	7.2
2025-01-29 11:14:22.050371	283.0	24.3	-92.0	1.9
2025-01-29 11:14:23.214453	282.8	24.1	-91.6	3.9
2025-01-29 11:14:24.375201	282.6	24.0	-91.5	2.7
2025-01-29 11:14:25.533990	282.4	23.9	-91.8	6.1
2025-01-29 11:14:26.696183	282.1	23.8	-91.9	7.8
2025-01-29 11:14:27.865199	281.9	23.6	-91.8	5.4
2025-01-29 11:14:29.026208	281.7	23.5	-91.5	8.6
2025-01-29 11:14:30.189631	281.5	23.4	-90.8	7.8
2025-01-29 11:14:31.351291	281.3	23.3	-90.9	5.3
2025-01-29 11:14:32.510463	281.1	23.1	-90.8	4.7
2025-01-29 11:14:33.678647	280.8	23.0	-90.9	5.6
2025-01-29 11:14:34.836994	280.6	22.9	-91.8	8.5
2025-01-29 11:14:35.994334	280.4	22.8	-92.0	5.1
2025-01-29 11:14:37.154107	280.2	22.6	-91.4	6.2
2025-01-29 11:14:38.319532	280.0	22.5	-91.4	9.0
2025-01-29 11:14:39.482015	279.8	22.4	-91.7	3.6
2025-01-29 11:14:40.649370	279.6	22.3	-91.6	9.9
2025-01-29 11:14:41.813939	279.4	22.2	-91.3	6.0
2025-01-29 11:14:42.978036	279.2	22.0	-91.5	6.1
2025-01-29 11:14:44.139162	279.0	21.9	-91.4	7.2
2025-01-29 11:14:45.309655	278.8	21.8	-91.2	8.8
2025-01-29 11:14:46.463260	278.6	21.7	-91.7	6.9
2025-01-29 11:14:47.612949	278.4	21.6	-91.5	9.1
2025-01-29 11:14:48.774164	278.2	21.4	-91.7	7.7
2025-01-29 11:14:49.937723	278.0	21.3	-91.5	5.8
2025-01-29 11:14:51.099716	277.8	21.2	-91.5	6.9
2025-01-29 11:14:52.254451	277.7	21.1	-91.5	5.7
2025-01-29 11:14:53.416546	277.5	21.0	-91.3	6.7
2025-01-29 11:14:54.586680	277.3	20.8	-91.4	4.3
2025-01-29 11:14:55.757996	277.1	20.7	-91.6	8.4
2025-01-29 11:14:56.894921	276.9	20.6	-91.7	5.9
2025-01-29 11:14:58.047303	276.7	20.5	-91.5	7.2
2025-01-29 11:14:59.208331	276.6	20.4	-91.5	6.1
2025-01-29 11:15:00.363145	276.4	20.2	-91.4	3.8
2025-01-29 11:15:01.525526	276.2	20.1	-91.5	4.9
2025-01-29 11:15:02.694470	276.0	20.0	-91.3	6.8
2025-01-29 11:15:03.856141	275.9	19.9	-91.3	7.2
2025-01-29 11:15:05.016809	275.7	19.8	-91.7	4.8
2025-01-29 11:15:06.171417	275.5	19.6	-91.7	9.6
2025-01-29 11:15:07.332684	275.4	19.5	-91.3	7.7
2025-01-29 11:15:08.491033	275.2	19.4	-91.4	9.1
2025-01-29 11:15:09.655387	275.0	19.3	-91.5	9.4
2025-01-29 11:15:10.814052	274.9	19.2	-91.5	5.6
2025-01-29 11:15:11.974342	274.7	19.1	-92.0	3.3
2025-01-29 11:15:13.134754	274.5	19.0	-91.4	3.4
2025-01-29 11:15:14.300549	274.4	18.8	-91.7	5.3
2025-01-29 11:15:15.458397	274.2	18.7	-91.7	2.7
2025-01-29 11:15:16.628947	274.1	18.6	-91.5	5.6
2025-01-29 11:15:17.785332	273.9	18.5	-92.0	3.7
2025-01-29 11:15:18.949732	273.7	18.4	-91.6	6.7
2025-01-29 11:15:20.115202	273.6	18.3	-91.0	3.4
2025-01-29 11:15:21.274885	273.4	18.2	-91.5	4.6
2025-01-29 11:15:22.442295	273.3	18.0	-91.7	7.5
2025-01-29 11:15:23.603110	273.1	17.9	-91.6	10.7
2025-01-29 11:15:24.764823	273.0	17.8	-91.5	7.5
2025-01-29 11:15:25.920510	272.8	17.7	-91.6	8.1
2025-01-29 11:15:27.077798	272.7	17.6	-91.5	10.8
2025-01-29 11:15:28.242797	272.5	17.5	-91.6	8.1
2025-01-29 11:15:29.399831	272.4	17.4	-91.3	7.6
2025-01-29 11:15:30.557686	272.2	17.3	-91.6	6.8
2025-01-29 11:15:31.723428	272.1	17.1	-91.8	9.2
2025-01-29 11:15:32.896740	271.9	17.0	-91.6	6.0
2025-01-29 11:15:34.056968	271.8	16.9	-91.2	6.4
2025-01-29 11:15:35.227937	271.7	16.8	-91.1	5.8
2025-01-29 11:15:36.386961	271.5	16.7	-90.6	5.4
2025-01-29 11:15:37.546817	271.4	16.6	-90.9	7.0
2025-01-29 11:15:38.710403	271.2	16.5	-91.8	8.0
2025-01-29 11:15:39.874047	271.1	16.4	-92.0	7.3
2025-01-29 11:15:41.036527	271.0	16.3	-91.3	11.0
2025-01-29 11:15:42.200388	270.8	16.2	-91.6	3.4
2025-01-29 11:15:43.364965	270.7	16.1	-91.6	8.9
2025-01-29 11:15:44.520964	270.6	15.9	-91.9	8.5
2025-01-29 11:15:45.675033	270.4	15.8	-92.1	6.4
2025-01-29 11:15:46.838904	270.3	15.7	-91.7	6.3
2025-01-29 11:15:47.992523	270.2	15.6	-91.8	5.8
2025-01-29 11:15:49.135469	270.1	15.5	-91.6	4.3
2025-01-29 11:15:50.295883	269.9	15.4	-91.3	3.8
2025-01-29 11:15:51.456390	269.8	15.3	-91.6	4.2
2025-01-29 11:15:52.618991	269.7	15.2	-91.7	6.1
2025-01-29 11:15:53.776338	269.5	15.1	-91.3	8.2
2025-01-29 11:15:54.939941	269.4	15.0	-91.2	7.0
2025-01-29 11:15:56.094384	269.3	14.9	-91.6	8.1
2025-01-29 11:15:57.264357	269.2	14.8	-91.6	10.4
2025-01-29 11:15:58.430328	269.1	14.7	-91.9	7.4
2025-01-29 11:15:59.590021	268.9	14.6	-92.0	7.7
#Closed at: 2025-01-29 11:08:05.982902