passes_logs/2025/01/29/LEX_Murmansk/LEX_Murmansk__20250129_160634_NOAA_19_rec.log

#Pass ID: 20250129_160634_NOAA 19
#Satellite: NOAA 19
#Configuration: NOAA 19
#Start time: 2025-01-29 16:06:29.225446

#LorettStation: 1.0.0 05.05.2024
#Station: LEX_Murmansk
#Location: 33.156738 lon 68.926811 lat
#TLE: 1 33591U 09005A   25029.16356990  .00000402  00000+0  23831-3 0  9997
#TLE: 2 33591  99.0170  93.0339 0013919  18.9524 341.2163 14.13271889823544

#Time	Az	El	Level	SNR
2025-01-29 16:06:41.480179	103.9	16.2	-91.7	9.9
2025-01-29 16:06:42.643241	103.8	16.3	-92.1	7.8
2025-01-29 16:06:43.812678	103.7	16.4	-92.1	6.6
2025-01-29 16:06:44.967052	103.6	16.6	-91.6	5.7
2025-01-29 16:06:46.129647	103.5	16.7	-91.5	7.1
2025-01-29 16:06:47.292943	103.4	16.8	-91.7	6.5
2025-01-29 16:06:48.447391	103.3	16.9	-91.9	5.6
2025-01-29 16:06:49.617227	103.1	17.0	-91.6	6.8
2025-01-29 16:06:50.786734	103.0	17.2	-91.3	3.4
2025-01-29 16:06:51.952786	102.9	17.3	-91.4	0.9
2025-01-29 16:06:53.110777	102.8	17.4	-91.6	1.8
2025-01-29 16:06:54.279927	102.7	17.5	-91.8	1.2
2025-01-29 16:06:55.439266	102.6	17.7	-91.9	2.6
2025-01-29 16:06:56.595747	102.4	17.8	-91.4	2.5
2025-01-29 16:06:57.755109	102.3	17.9	-91.7	3.5
2025-01-29 16:06:58.920234	102.2	18.0	-91.6	3.4
2025-01-29 16:07:00.079085	102.1	18.1	-91.4	2.8
2025-01-29 16:07:01.247074	101.9	18.3	-91.2	2.7
2025-01-29 16:07:02.408590	101.8	18.4	-91.4	1.1
2025-01-29 16:07:03.567461	101.7	18.5	-91.7	5.7
2025-01-29 16:07:04.732473	101.6	18.6	-91.8	7.5
2025-01-29 16:07:05.896894	101.4	18.8	-91.9	4.0
2025-01-29 16:07:07.065536	101.3	18.9	-91.6	6.2
2025-01-29 16:07:08.223309	101.2	19.0	-91.7	0.1
2025-01-29 16:07:09.385928	101.0	19.2	-91.7	2.2
2025-01-29 16:07:10.548840	100.9	19.3	-92.1	2.6
2025-01-29 16:07:11.709962	100.8	19.4	-92.1	2.3
2025-01-29 16:07:12.860662	100.6	19.5	-91.7	1.6
2025-01-29 16:07:14.027611	100.5	19.7	-91.6	5.0
2025-01-29 16:07:15.192199	100.4	19.8	-91.6	9.2
2025-01-29 16:07:16.355130	100.2	19.9	-91.5	5.8
2025-01-29 16:07:17.515753	100.1	20.1	-91.8	9.9
2025-01-29 16:07:18.677054	100.0	20.2	-91.4	5.5
2025-01-29 16:07:19.840542	99.8	20.3	-91.3	6.3
2025-01-29 16:07:20.999743	99.7	20.5	-91.1	3.2
2025-01-29 16:07:22.160049	99.5	20.6	-91.3	8.1
2025-01-29 16:07:23.325248	99.4	20.7	-91.3	11.7
2025-01-29 16:07:24.488498	99.2	20.9	-91.8	6.9
2025-01-29 16:07:25.640537	99.1	21.0	-91.7	13.4
2025-01-29 16:07:26.800636	98.9	21.1	-91.8	2.0
2025-01-29 16:07:27.957867	98.8	21.3	-91.8	1.7
2025-01-29 16:07:29.123341	98.6	21.4	-91.5	3.4
2025-01-29 16:07:30.288440	98.5	21.5	-91.7	1.9
2025-01-29 16:07:31.451928	98.3	21.7	-91.8	4.8
2025-01-29 16:07:32.617373	98.2	21.8	-91.9	6.8
2025-01-29 16:07:33.779609	98.0	22.0	-91.6	9.7
2025-01-29 16:07:34.939721	97.8	22.1	-91.2	10.1
2025-01-29 16:07:36.101803	97.7	22.2	-91.9	7.7
2025-01-29 16:07:37.269221	97.5	22.4	-92.1	2.6
2025-01-29 16:07:38.424584	97.4	22.5	-92.0	1.6
2025-01-29 16:07:39.588627	97.2	22.7	-91.9	6.9
2025-01-29 16:07:40.750049	97.0	22.8	-91.9	3.9
2025-01-29 16:07:41.909932	96.9	22.9	-92.0	1.7
2025-01-29 16:07:43.062321	96.7	23.1	-91.8	2.2
2025-01-29 16:07:44.228215	96.5	23.2	-91.9	0.9
2025-01-29 16:07:45.392166	96.3	23.4	-91.9	3.2
2025-01-29 16:07:46.558716	96.2	23.5	-92.0	0.6
2025-01-29 16:07:47.721640	96.0	23.7	-91.8	2.9
2025-01-29 16:07:48.890003	95.8	23.8	-92.0	3.2
2025-01-29 16:07:50.058440	95.6	24.0	-91.9	4.1
2025-01-29 16:07:51.211500	95.4	24.1	-91.7	5.2
2025-01-29 16:07:52.366003	95.3	24.3	-91.8	3.7
2025-01-29 16:07:53.495464	95.1	24.4	-91.7	4.5
2025-01-29 16:07:54.615393	94.9	24.5	-92.0	3.4
2025-01-29 16:07:55.736474	94.7	24.7	-91.4	2.9
2025-01-29 16:07:56.960668	94.5	24.8	-91.2	2.7
2025-01-29 16:07:58.081129	94.3	25.0	-91.5	1.9
2025-01-29 16:07:59.201350	94.2	25.1	-91.2	2.7
2025-01-29 16:08:00.323205	94.0	25.3	-91.2	4.7
2025-01-29 16:08:01.443905	93.8	25.4	-91.0	3.7
2025-01-29 16:08:02.566000	93.6	25.6	-92.2	3.7
2025-01-29 16:08:03.692504	93.4	25.7	-92.2	2.7
2025-01-29 16:08:04.844645	93.2	25.9	-91.6	1.6
2025-01-29 16:08:06.002851	93.0	26.0	-91.3	0.6
2025-01-29 16:08:07.163061	92.8	26.2	-91.2	5.0
2025-01-29 16:08:08.322191	92.6	26.3	-91.0	2.5
2025-01-29 16:08:09.474311	92.4	26.5	-90.9	2.9
2025-01-29 16:08:10.633137	92.1	26.6	-91.0	7.2
2025-01-29 16:08:11.801538	91.9	26.8	-92.0	7.0
2025-01-29 16:08:12.961635	91.7	26.9	-92.1	5.4
2025-01-29 16:08:14.119059	91.5	27.1	-92.3	6.0
2025-01-29 16:08:15.282434	91.3	27.2	-91.1	5.9
2025-01-29 16:08:16.447121	91.0	27.4	-91.2	7.8
2025-01-29 16:08:17.611893	90.8	27.6	-91.1	4.9
2025-01-29 16:08:18.772888	90.6	27.7	-91.3	5.2
2025-01-29 16:08:19.940443	90.4	27.9	-90.8	8.3
2025-01-29 16:08:21.106156	90.1	28.0	-91.1	5.7
2025-01-29 16:08:22.268784	89.9	28.2	-91.2	2.6
2025-01-29 16:08:23.423053	89.7	28.3	-91.3	4.2
2025-01-29 16:08:24.590997	89.4	28.5	-92.0	2.5
2025-01-29 16:08:25.759149	89.2	28.7	-92.0	1.1
2025-01-29 16:08:26.921721	88.9	28.8	-92.0	5.1
2025-01-29 16:08:28.085462	88.7	29.0	-91.6	9.3
2025-01-29 16:08:29.244097	88.4	29.1	-91.9	11.1
2025-01-29 16:08:30.409207	88.2	29.3	-91.7	9.8
2025-01-29 16:08:31.546003	87.9	29.5	-91.6	16.4
2025-01-29 16:08:32.705431	87.7	29.6	-90.8	10.6
2025-01-29 16:08:33.863552	87.4	29.8	-92.1	9.8
2025-01-29 16:08:35.025814	87.1	29.9	-91.9	11.7
2025-01-29 16:08:36.188103	86.9	30.1	-91.8	8.1
2025-01-29 16:08:37.356446	86.6	30.3	-91.6	9.1
2025-01-29 16:08:38.522237	86.3	30.4	-91.7	13.7
2025-01-29 16:08:39.676044	86.1	30.6	-91.9	13.2
2025-01-29 16:08:40.839057	85.8	30.8	-91.9	13.9
2025-01-29 16:08:42.001334	85.5	30.9	-91.8	14.1
2025-01-29 16:08:43.159257	85.2	31.1	-91.7	8.9
2025-01-29 16:08:44.324992	84.9	31.2	-91.6	3.9
2025-01-29 16:08:45.489624	84.7	31.4	-91.5	2.5
2025-01-29 16:08:46.648285	84.4	31.6	-91.0	4.6
2025-01-29 16:08:47.821239	84.1	31.7	-91.8	2.2
2025-01-29 16:08:48.980840	83.8	31.9	-91.9	6.9
2025-01-29 16:08:50.146338	83.5	32.1	-91.6	8.6
2025-01-29 16:08:51.307136	83.2	32.2	-91.5	13.6
2025-01-29 16:08:52.470986	82.9	32.4	-91.5	14.1
2025-01-29 16:08:53.633209	82.6	32.5	-91.5	18.5
2025-01-29 16:08:54.794427	82.2	32.7	-91.4	15.3
2025-01-29 16:08:55.960516	81.9	32.9	-91.1	9.6
2025-01-29 16:08:57.125041	81.6	33.0	-90.9	11.7
2025-01-29 16:08:58.289415	81.3	33.2	-90.8	5.5
2025-01-29 16:08:59.453628	81.0	33.4	-91.1	10.6
2025-01-29 16:09:00.615395	80.6	33.5	-91.8	15.1
2025-01-29 16:09:01.755817	80.3	33.7	-91.5	13.4
2025-01-29 16:09:02.909323	80.0	33.8	-90.8	15.2
2025-01-29 16:09:04.082681	79.6	34.0	-91.4	15.4
2025-01-29 16:09:05.247316	79.3	34.2	-90.8	11.3
2025-01-29 16:09:06.412120	79.0	34.3	-90.5	9.6
2025-01-29 16:09:07.576477	78.6	34.5	-90.6	6.9
2025-01-29 16:09:08.740165	78.3	34.6	-91.1	4.1
2025-01-29 16:09:09.900253	77.9	34.8	-91.0	5.1
2025-01-29 16:09:11.064103	77.5	35.0	-91.1	5.2
2025-01-29 16:09:12.224038	77.2	35.1	-91.6	4.2
2025-01-29 16:09:13.387270	76.8	35.3	-91.6	7.7
2025-01-29 16:09:14.549405	76.4	35.4	-91.9	12.6
2025-01-29 16:09:15.707745	76.1	35.6	-91.6	16.5
2025-01-29 16:09:16.842231	75.7	35.7	-91.7	17.5
2025-01-29 16:09:18.007774	75.3	35.9	-92.0	16.3
2025-01-29 16:09:19.166972	74.9	36.0	-91.7	15.2
2025-01-29 16:09:20.332198	74.6	36.2	-91.7	10.7
2025-01-29 16:09:21.478950	74.2	36.3	-91.9	11.0
2025-01-29 16:09:22.644741	73.8	36.5	-91.9	13.3
2025-01-29 16:09:23.796100	73.4	36.6	-92.1	9.0
2025-01-29 16:09:24.965456	73.0	36.8	-92.0	12.0
2025-01-29 16:09:26.132114	72.6	36.9	-91.5	14.5
2025-01-29 16:09:27.296727	72.2	37.1	-91.3	14.8
2025-01-29 16:09:28.462903	71.8	37.2	-91.5	14.7
2025-01-29 16:09:29.639929	71.3	37.4	-91.7	15.5
2025-01-29 16:09:30.798654	70.9	37.5	-91.5	12.5
2025-01-29 16:09:31.958101	70.5	37.7	-91.5	12.5
2025-01-29 16:09:33.123003	70.1	37.8	-91.4	11.3
2025-01-29 16:09:34.283523	69.6	38.0	-91.5	8.4
2025-01-29 16:09:35.451710	69.2	38.1	-91.5	6.9
2025-01-29 16:09:36.613119	68.8	38.2	-91.6	6.6
2025-01-29 16:09:37.774538	68.3	38.4	-92.0	3.0
2025-01-29 16:09:38.941825	67.9	38.5	-91.7	5.2
2025-01-29 16:09:40.103879	67.4	38.6	-91.6	8.6
2025-01-29 16:09:41.266818	67.0	38.8	-91.7	6.9
2025-01-29 16:09:42.429983	66.5	38.9	-91.5	11.7
2025-01-29 16:09:43.592578	66.1	39.0	-91.8	13.5
2025-01-29 16:09:44.756406	65.6	39.2	-91.0	15.4
2025-01-29 16:09:45.917499	65.1	39.3	-91.4	16.2
2025-01-29 16:09:47.078235	64.6	39.4	-91.3	19.3
2025-01-29 16:09:48.252465	64.2	39.5	-91.7	15.4
2025-01-29 16:09:49.417639	63.7	39.7	-91.8	15.9
2025-01-29 16:09:50.574674	63.2	39.8	-92.0	13.9
2025-01-29 16:09:51.738680	62.7	39.9	-91.6	9.1
2025-01-29 16:09:52.909123	62.2	40.0	-91.8	9.0
2025-01-29 16:09:54.066298	61.7	40.1	-91.1	9.9
2025-01-29 16:09:55.228743	61.2	40.2	-91.5	7.3
2025-01-29 16:09:56.393607	60.7	40.3	-91.7	8.6
2025-01-29 16:09:57.551271	60.2	40.4	-91.3	12.7
2025-01-29 16:09:58.714501	59.7	40.6	-91.6	13.6
2025-01-29 16:09:59.879670	59.2	40.7	-92.0	16.8
2025-01-29 16:10:01.027696	58.7	40.8	-91.6	16.7
2025-01-29 16:10:02.182426	58.2	40.8	-91.7	17.0
2025-01-29 16:10:03.342883	57.7	40.9	-91.3	17.7
2025-01-29 16:10:04.503432	57.2	41.0	-91.8	17.6
2025-01-29 16:10:05.679051	56.6	41.1	-92.0	16.8
2025-01-29 16:10:06.847170	56.1	41.2	-92.1	12.3
2025-01-29 16:10:08.010898	55.6	41.3	-92.1	10.3
2025-01-29 16:10:09.176871	55.0	41.4	-91.4	7.9
2025-01-29 16:10:10.340904	54.5	41.5	-91.7	5.1
2025-01-29 16:10:11.511169	54.0	41.5	-91.2	8.8
2025-01-29 16:10:12.676529	53.4	41.6	-91.2	6.9
2025-01-29 16:10:13.829255	52.9	41.7	-91.2	3.9
2025-01-29 16:10:14.994322	52.3	41.8	-91.5	8.5
2025-01-29 16:10:16.157085	51.8	41.8	-90.9	8.5
2025-01-29 16:10:17.319858	51.2	41.9	-91.3	5.8
2025-01-29 16:10:18.486890	50.7	41.9	-91.6	10.0
2025-01-29 16:10:19.654370	50.1	42.0	-91.8	13.4
2025-01-29 16:10:20.817462	49.6	42.1	-92.2	12.6
2025-01-29 16:10:21.979970	49.0	42.1	-92.0	15.9
2025-01-29 16:10:23.140563	48.5	42.1	-91.9	14.9
2025-01-29 16:10:24.301734	47.9	42.2	-91.7	17.1
2025-01-29 16:10:25.465803	47.3	42.2	-91.8	18.0
2025-01-29 16:10:26.627050	46.8	42.3	-92.2	17.7
2025-01-29 16:10:27.792371	46.2	42.3	-92.1	18.3
2025-01-29 16:10:28.952553	45.6	42.3	-92.2	16.2
2025-01-29 16:10:30.121984	45.1	42.4	-91.5	17.5
2025-01-29 16:10:31.282902	44.5	42.4	-91.8	15.5
2025-01-29 16:10:32.447699	43.9	42.4	-91.9	15.0
2025-01-29 16:10:33.608177	43.4	42.4	-92.1	14.5
2025-01-29 16:10:34.772289	42.8	42.5	-91.8	12.2
2025-01-29 16:10:35.929341	42.2	42.5	-91.7	13.1
2025-01-29 16:10:37.096229	41.7	42.5	-91.9	15.5
2025-01-29 16:10:38.257334	41.1	42.5	-91.9	8.3
2025-01-29 16:10:39.410684	40.5	42.5	-91.6	9.3
2025-01-29 16:10:40.575417	39.9	42.5	-92.0	12.4
2025-01-29 16:10:41.737813	39.4	42.5	-91.6	6.8
2025-01-29 16:10:42.901620	38.8	42.5	-91.8	8.4
2025-01-29 16:10:44.056836	38.2	42.5	-92.0	7.9
2025-01-29 16:10:45.178064	37.7	42.5	-91.6	6.9
2025-01-29 16:10:46.299183	37.1	42.4	-91.6	6.8
2025-01-29 16:10:47.459704	36.6	42.4	-91.8	8.9
2025-01-29 16:10:48.626598	36.0	42.4	-91.7	11.3
2025-01-29 16:10:49.792054	35.4	42.4	-91.6	8.9
2025-01-29 16:10:50.960696	34.9	42.4	-91.8	9.8
2025-01-29 16:10:52.121588	34.3	42.3	-91.4	13.3
2025-01-29 16:10:53.278462	33.7	42.3	-91.7	10.7
2025-01-29 16:10:54.439519	33.2	42.3	-92.1	11.9
2025-01-29 16:10:55.606657	32.6	42.2	-91.9	12.8
2025-01-29 16:10:56.775727	32.0	42.2	-92.0	11.9
2025-01-29 16:10:57.940730	31.5	42.1	-91.6	14.2
2025-01-29 16:10:59.106301	30.9	42.1	-91.5	14.7
2025-01-29 16:11:00.269559	30.4	42.0	-91.8	14.5
2025-01-29 16:11:01.427561	29.8	42.0	-91.8	15.0
2025-01-29 16:11:02.590681	29.3	41.9	-91.6	16.9
2025-01-29 16:11:03.755691	28.7	41.8	-91.9	15.1
2025-01-29 16:11:04.924990	28.2	41.8	-91.2	18.2
2025-01-29 16:11:06.090242	27.6	41.7	-91.1	16.8
2025-01-29 16:11:07.255582	27.1	41.6	-91.1	15.9
2025-01-29 16:11:08.418394	26.5	41.6	-91.2	16.5
2025-01-29 16:11:09.589613	26.0	41.5	-91.5	15.0
2025-01-29 16:11:10.749558	25.4	41.4	-91.0	17.2
2025-01-29 16:11:11.916477	24.9	41.3	-91.4	16.6
2025-01-29 16:11:13.079758	24.4	41.3	-91.1	16.5
2025-01-29 16:11:14.237035	23.9	41.2	-91.3	17.9
2025-01-29 16:11:15.402299	23.3	41.1	-91.3	18.6
2025-01-29 16:11:16.565454	22.8	41.0	-91.5	18.9
2025-01-29 16:11:17.731368	22.3	40.9	-91.7	18.9
2025-01-29 16:11:18.891969	21.8	40.8	-91.8	17.8
2025-01-29 16:11:20.060438	21.3	40.7	-92.1	16.8
2025-01-29 16:11:21.228667	20.8	40.6	-91.8	16.1
2025-01-29 16:11:22.392635	20.2	40.5	-91.8	15.8
2025-01-29 16:11:23.552923	19.7	40.4	-91.9	16.7
2025-01-29 16:11:24.711344	19.2	40.3	-92.2	16.2
2025-01-29 16:11:25.876420	18.7	40.2	-91.8	16.3
2025-01-29 16:11:27.037930	18.3	40.1	-92.0	17.7
2025-01-29 16:11:28.206588	17.8	39.9	-91.7	16.5
2025-01-29 16:11:29.361653	17.3	39.8	-91.9	17.0
2025-01-29 16:11:30.524424	16.8	39.7	-92.0	13.8
2025-01-29 16:11:31.689326	16.3	39.6	-91.9	12.7
2025-01-29 16:11:32.849281	15.8	39.5	-91.8	11.1
2025-01-29 16:11:34.010135	15.4	39.4	-92.2	12.0
2025-01-29 16:11:35.176260	14.9	39.2	-92.0	13.9
2025-01-29 16:11:36.340900	14.4	39.1	-91.9	11.0
2025-01-29 16:11:37.502328	14.0	39.0	-92.0	8.8
2025-01-29 16:11:38.665575	13.5	38.8	-92.2	11.2
2025-01-29 16:11:39.831633	13.1	38.7	-92.1	12.7
2025-01-29 16:11:40.996978	12.6	38.6	-92.1	11.9
2025-01-29 16:11:42.161268	12.2	38.4	-92.2	12.7
2025-01-29 16:11:43.323917	11.7	38.3	-92.0	9.3
2025-01-29 16:11:44.483281	11.3	38.2	-91.9	10.3
2025-01-29 16:11:45.644114	10.9	38.0	-92.3	11.6
2025-01-29 16:11:46.816079	10.4	37.9	-92.0	8.6
2025-01-29 16:11:47.968948	10.0	37.8	-92.3	10.0
2025-01-29 16:11:49.135341	9.6	37.6	-92.1	9.7
2025-01-29 16:11:50.298447	9.2	37.5	-92.1	6.8
2025-01-29 16:11:51.463591	8.7	37.3	-91.9	6.6
2025-01-29 16:11:52.627032	8.3	37.2	-91.9	8.3
2025-01-29 16:11:53.785092	7.9	37.0	-92.0	4.5
2025-01-29 16:11:54.946388	7.5	36.9	-91.8	5.1
2025-01-29 16:11:56.112922	7.1	36.7	-91.8	7.4
2025-01-29 16:11:57.274198	6.7	36.6	-92.0	2.6
2025-01-29 16:11:58.439903	6.3	36.4	-92.1	3.9
2025-01-29 16:11:59.602126	5.9	36.3	-92.1	7.6
2025-01-29 16:12:00.761472	5.5	36.1	-92.0	4.8
2025-01-29 16:12:01.930545	5.2	36.0	-92.1	6.1
2025-01-29 16:12:03.096649	4.8	35.8	-91.7	9.3
2025-01-29 16:12:04.260616	4.4	35.7	-91.4	2.5
2025-01-29 16:12:05.424962	4.0	35.5	-92.0	4.2
2025-01-29 16:12:06.590759	3.7	35.4	-92.2	9.2
2025-01-29 16:12:07.767553	3.3	35.2	-92.3	3.4
2025-01-29 16:12:08.928426	2.9	35.0	-92.1	8.2
2025-01-29 16:12:10.095903	2.6	34.9	-91.8	8.0
2025-01-29 16:12:11.257276	2.2	34.7	-91.8	8.7
2025-01-29 16:12:12.425847	1.9	34.6	-92.3	8.8
2025-01-29 16:12:13.589230	1.5	34.4	-92.2	8.5
2025-01-29 16:12:14.744075	1.2	34.3	-92.3	10.1
2025-01-29 16:12:15.899605	0.8	34.1	-92.3	10.0
2025-01-29 16:12:17.064201	0.5	33.9	-91.3	12.3
2025-01-29 16:12:18.227119	0.2	33.8	-91.2	11.5
2025-01-29 16:12:19.389333	359.8	33.6	-91.4	10.7
2025-01-29 16:12:20.553278	359.5	33.5	-91.3	11.2
2025-01-29 16:12:21.715973	359.2	33.3	-92.1	11.4
2025-01-29 16:12:22.872656	358.9	33.1	-92.5	11.2
2025-01-29 16:12:24.036863	358.5	33.0	-92.0	7.6
2025-01-29 16:12:25.193729	358.2	32.8	-92.0	6.6
2025-01-29 16:12:26.359100	357.9	32.6	-92.1	5.9
2025-01-29 16:12:27.527155	357.6	32.5	-91.8	4.1
2025-01-29 16:12:28.687476	357.3	32.3	-92.0	3.4
2025-01-29 16:12:29.852011	357.0	32.2	-92.5	1.3
2025-01-29 16:12:31.018105	356.7	32.0	-92.5	7.5
2025-01-29 16:12:32.167138	356.4	31.8	-92.2	4.1
2025-01-29 16:12:33.334935	356.1	31.7	-92.2	2.4
2025-01-29 16:12:34.490807	355.8	31.5	-92.6	4.7
2025-01-29 16:12:35.657321	355.5	31.4	-92.4	7.0
2025-01-29 16:12:36.820493	355.3	31.2	-92.4	3.6
2025-01-29 16:12:37.988900	355.0	31.0	-92.5	4.2
2025-01-29 16:12:39.148417	354.7	30.9	-92.4	6.5
2025-01-29 16:12:40.319769	354.4	30.7	-92.5	4.0
2025-01-29 16:12:41.487937	354.1	30.5	-92.6	11.1
2025-01-29 16:12:42.650170	353.9	30.4	-92.7	11.7
2025-01-29 16:12:43.808448	353.6	30.2	-92.4	10.9
2025-01-29 16:12:44.972285	353.3	30.1	-92.6	13.0
2025-01-29 16:12:46.141716	353.1	29.9	-92.2	14.2
2025-01-29 16:12:47.304178	352.8	29.7	-92.5	9.1
2025-01-29 16:12:48.476464	352.6	29.6	-92.7	8.5
2025-01-29 16:12:49.640315	352.3	29.4	-92.8	8.4
2025-01-29 16:12:50.803948	352.0	29.3	-92.7	6.1
2025-01-29 16:12:51.967192	351.8	29.1	-92.4	7.6
2025-01-29 16:12:53.124863	351.5	28.9	-92.2	7.0
2025-01-29 16:12:54.288987	351.3	28.8	-92.4	2.8
2025-01-29 16:12:55.457431	351.1	28.6	-92.4	5.1
2025-01-29 16:12:56.621297	350.8	28.5	-92.3	5.4
2025-01-29 16:12:57.782214	350.6	28.3	-92.6	2.0
2025-01-29 16:12:58.948717	350.3	28.2	-92.6	4.5
2025-01-29 16:13:00.117770	350.1	28.0	-92.5	4.4
2025-01-29 16:13:01.273288	349.9	27.8	-92.6	4.8
2025-01-29 16:13:02.438254	349.7	27.7	-92.6	5.4
2025-01-29 16:13:03.597796	349.4	27.5	-92.4	8.8
2025-01-29 16:13:04.757648	349.2	27.4	-92.4	8.3
2025-01-29 16:13:05.920713	349.0	27.2	-92.4	10.0
2025-01-29 16:13:07.078982	348.8	27.1	-92.3	12.5
2025-01-29 16:13:08.241658	348.5	26.9	-92.3	9.7
2025-01-29 16:13:09.402637	348.3	26.8	-92.6	13.3
2025-01-29 16:13:10.555015	348.1	26.6	-92.5	10.5
2025-01-29 16:13:11.705990	347.9	26.5	-90.7	8.7
2025-01-29 16:13:12.866654	347.7	26.3	-91.9	8.4
2025-01-29 16:13:14.029561	347.5	26.2	-91.7	7.8
2025-01-29 16:13:15.189250	347.3	26.0	-91.4	2.4
2025-01-29 16:13:16.346480	347.1	25.9	-91.2	2.0
2025-01-29 16:13:17.517543	346.9	25.7	-91.2	5.5
2025-01-29 16:13:18.677303	346.7	25.5	-91.5	2.8
2025-01-29 16:13:19.844422	346.5	25.4	-91.6	3.7
2025-01-29 16:13:21.008581	346.3	25.2	-91.8	5.7
2025-01-29 16:13:22.173648	346.1	25.1	-91.6	6.3
2025-01-29 16:13:23.331817	345.9	25.0	-92.6	7.3
2025-01-29 16:13:24.489577	345.7	24.8	-92.5	10.1
2025-01-29 16:13:25.653977	345.5	24.7	-92.6	10.4
2025-01-29 16:13:26.815393	345.3	24.5	-92.3	12.4
2025-01-29 16:13:27.979897	345.2	24.4	-92.4	10.6
2025-01-29 16:13:29.142674	345.0	24.2	-91.8	11.0
2025-01-29 16:13:30.305081	344.8	24.1	-92.2	4.2
2025-01-29 16:13:31.464768	344.6	23.9	-92.3	6.5
2025-01-29 16:13:32.628079	344.4	23.8	-91.9	6.0
2025-01-29 16:13:33.759081	344.3	23.6	-92.4	0.5
2025-01-29 16:13:34.879887	344.1	23.5	-92.4	4.0
2025-01-29 16:13:36.000476	343.9	23.4	-92.3	4.6
2025-01-29 16:13:37.120947	343.8	23.2	-92.2	3.3
2025-01-29 16:13:38.241505	343.6	23.1	-92.3	1.4
2025-01-29 16:13:39.370452	343.4	23.0	-91.9	1.2
2025-01-29 16:13:40.491036	343.3	22.8	-92.1	4.1
2025-01-29 16:13:41.612556	343.1	22.7	-92.0	4.4
2025-01-29 16:13:42.733088	343.0	22.5	-92.1	5.5
2025-01-29 16:13:43.865202	342.8	22.4	-92.2	5.9
2025-01-29 16:13:45.014619	342.7	22.3	-92.0	8.8
2025-01-29 16:13:46.178492	342.5	22.1	-91.9	9.7
2025-01-29 16:13:47.343012	342.3	22.0	-91.8	7.2
2025-01-29 16:13:48.504355	342.2	21.9	-91.8	10.8
2025-01-29 16:13:49.668475	342.0	21.7	-91.9	5.2
2025-01-29 16:13:50.835295	341.9	21.6	-92.4	3.8
2025-01-29 16:13:51.996904	341.7	21.4	-91.9	4.2
2025-01-29 16:13:53.165115	341.6	21.3	-92.0	3.6
2025-01-29 16:13:54.329601	341.4	21.2	-92.0	2.2
2025-01-29 16:13:55.488058	341.3	21.0	-91.6	3.3
2025-01-29 16:13:56.655316	341.1	20.9	-91.5	4.2
2025-01-29 16:13:57.817847	341.0	20.8	-91.6	2.7
2025-01-29 16:13:58.986011	340.8	20.6	-91.8	4.2
2025-01-29 16:14:00.146739	340.7	20.5	-91.7	5.1
2025-01-29 16:14:01.311954	340.5	20.4	-92.0	2.1
2025-01-29 16:14:02.468292	340.4	20.2	-91.9	1.6
2025-01-29 16:14:03.625367	340.3	20.1	-91.7	0.7
2025-01-29 16:14:04.784871	340.1	20.0	-91.9	2.3
2025-01-29 16:14:05.942258	340.0	19.9	-92.0	2.6
2025-01-29 16:14:07.105050	339.9	19.7	-92.0	3.2
2025-01-29 16:14:08.267777	339.7	19.6	-91.8	1.8
2025-01-29 16:14:09.433306	339.6	19.5	-92.6	0.9
2025-01-29 16:14:10.591641	339.5	19.3	-92.6	1.6
2025-01-29 16:14:11.754952	339.3	19.2	-92.6	2.0
2025-01-29 16:14:12.918752	339.2	19.1	-92.4	3.5
2025-01-29 16:14:14.083348	339.1	19.0	-92.1	1.0
2025-01-29 16:14:15.238950	338.9	18.8	-92.3	1.5
2025-01-29 16:14:16.402129	338.8	18.7	-92.5	4.1
2025-01-29 16:14:17.563877	338.7	18.6	-92.1	3.2
2025-01-29 16:14:18.727331	338.6	18.5	-92.5	1.4
2025-01-29 16:14:19.888044	338.4	18.3	-92.6	2.4
2025-01-29 16:14:21.054627	338.3	18.2	-92.6	2.2
2025-01-29 16:14:22.214294	338.2	18.1	-92.6	1.9
2025-01-29 16:14:23.376028	338.1	18.0	-92.6	4.9
2025-01-29 16:14:24.538900	338.0	17.8	-92.4	2.2
2025-01-29 16:14:25.694984	337.8	17.7	-92.8	1.8
2025-01-29 16:14:26.859232	337.7	17.6	-92.6	4.1
2025-01-29 16:14:28.023335	337.6	17.5	-92.6	2.1
2025-01-29 16:14:29.191806	337.5	17.4	-92.3	0.8
2025-01-29 16:14:30.355317	337.4	17.2	-92.1	1.8
2025-01-29 16:14:31.519517	337.3	17.1	-92.7	2.7
2025-01-29 16:14:32.680841	337.1	17.0	-92.7	0.9
2025-01-29 16:14:33.838930	337.0	16.9	-92.3	0.2
2025-01-29 16:14:34.998014	336.9	16.8	-92.4	2.4
2025-01-29 16:14:36.153635	336.8	16.6	-92.2	1.2
2025-01-29 16:14:37.322435	336.7	16.5	-92.7	0.8
2025-01-29 16:14:38.478989	336.6	16.4	-92.7	1.7
2025-01-29 16:14:39.641347	336.5	16.3	-92.4	1.2
2025-01-29 16:14:40.805483	336.4	16.2	-92.4	3.2
2025-01-29 16:14:41.973187	336.3	16.1	-92.5	2.0
2025-01-29 16:14:43.135880	336.2	15.9	-91.7	2.6
2025-01-29 16:14:44.302388	336.1	15.8	-92.0	2.5
2025-01-29 16:14:45.460601	336.0	15.7	-92.3	3.9
2025-01-29 16:14:46.602014	335.9	15.6	-92.7	3.3
2025-01-29 16:14:47.765559	335.8	15.5	-92.9	4.4
2025-01-29 16:14:48.926523	335.7	15.4	-92.7	4.4
2025-01-29 16:14:50.088616	335.6	15.3	-92.5	4.1
2025-01-29 16:14:51.246287	335.5	15.2	-92.4	1.3
2025-01-29 16:14:52.414920	335.4	15.0	-92.2	3.5
2025-01-29 16:14:53.574048	335.3	14.9	-92.2	4.1
2025-01-29 16:14:54.735019	335.2	14.8	-92.2	2.0
2025-01-29 16:14:55.882020	335.1	14.7	-92.5	4.0
2025-01-29 16:14:57.043947	335.0	14.6	-92.5	4.1
2025-01-29 16:14:58.266218	334.9	14.5	-92.7	3.0
#Closed at: 2025-01-29 16:06:34.253907