passes_logs/2025/01/29/LEX_Murmansk/LEX_Murmansk__20250129_142738_NOAA_19_rec.log

#Pass ID: 20250129_142738_NOAA 19
#Satellite: NOAA 19
#Configuration: NOAA 19
#Start time: 2025-01-29 14:27:33.708286

#LorettStation: 1.0.0 05.05.2024
#Station: LEX_Murmansk
#Location: 33.156738 lon 68.926811 lat
#TLE: 1 33591U 09005A   25029.16356990  .00000402  00000+0  23831-3 0  9997
#TLE: 2 33591  99.0170  93.0339 0013919  18.9524 341.2163 14.13271889823544

#Time	Az	El	Level	SNR
2025-01-29 14:27:50.298616	61.0	16.3	-91.4	9.3
2025-01-29 14:27:51.432082	60.8	16.4	-91.9	3.7
2025-01-29 14:27:52.552975	60.6	16.5	-92.0	4.6
2025-01-29 14:27:53.673360	60.4	16.6	-91.9	3.2
2025-01-29 14:27:54.793782	60.3	16.7	-92.0	1.0
2025-01-29 14:27:55.914252	60.1	16.8	-91.6	4.4
2025-01-29 14:27:57.036133	59.9	16.8	-92.1	14.3
2025-01-29 14:27:58.155708	59.7	16.9	-91.4	8.3
2025-01-29 14:27:59.275643	59.6	17.0	-91.9	8.8
2025-01-29 14:28:00.396260	59.4	17.1	-92.0	2.7
2025-01-29 14:28:01.516902	59.2	17.2	-91.9	3.5
2025-01-29 14:28:02.637912	59.0	17.3	-92.4	1.3
2025-01-29 14:28:03.758553	58.8	17.4	-92.1	4.2
2025-01-29 14:28:04.879815	58.6	17.5	-91.8	6.4
2025-01-29 14:28:06.000335	58.5	17.6	-92.0	5.1
2025-01-29 14:28:07.121155	58.3	17.6	-91.7	5.7
2025-01-29 14:28:08.242121	58.1	17.7	-92.2	7.1
2025-01-29 14:28:09.365868	57.9	17.8	-91.9	7.3
2025-01-29 14:28:10.487489	57.7	17.9	-92.1	11.1
2025-01-29 14:28:11.607707	57.5	18.0	-92.1	14.5
2025-01-29 14:28:12.729010	57.3	18.1	-92.4	3.6
2025-01-29 14:28:13.850259	57.1	18.2	-92.5	4.7
2025-01-29 14:28:14.970798	56.9	18.3	-92.1	5.9
2025-01-29 14:28:16.093183	56.7	18.4	-92.2	8.4
2025-01-29 14:28:17.214366	56.5	18.4	-92.0	4.0
2025-01-29 14:28:18.336132	56.3	18.5	-92.1	12.5
2025-01-29 14:28:19.455797	56.1	18.6	-92.7	9.4
2025-01-29 14:28:20.576314	55.9	18.7	-92.2	8.4
2025-01-29 14:28:21.697606	55.7	18.8	-92.5	4.8
2025-01-29 14:28:22.817786	55.5	18.9	-92.5	2.2
2025-01-29 14:28:23.940729	55.3	19.0	-92.3	5.2
2025-01-29 14:28:25.061535	55.1	19.1	-92.4	1.7
2025-01-29 14:28:26.181417	54.9	19.2	-92.2	1.4
2025-01-29 14:28:27.302705	54.7	19.2	-92.4	3.8
2025-01-29 14:28:28.423750	54.5	19.3	-92.1	3.3
2025-01-29 14:28:29.544846	54.3	19.4	-92.6	5.0
2025-01-29 14:28:30.666476	54.1	19.5	-92.3	6.1
2025-01-29 14:28:31.787487	53.8	19.6	-92.2	9.2
2025-01-29 14:28:32.907885	53.6	19.7	-92.0	13.5
2025-01-29 14:28:34.028509	53.4	19.8	-92.1	12.5
2025-01-29 14:28:35.148022	53.2	19.9	-92.6	4.6
2025-01-29 14:28:36.268755	53.0	19.9	-91.6	4.5
2025-01-29 14:28:37.389853	52.8	20.0	-91.5	3.6
2025-01-29 14:28:38.511028	52.5	20.1	-91.7	6.4
2025-01-29 14:28:39.632190	52.3	20.2	-91.4	9.3
2025-01-29 14:28:40.754404	52.1	20.3	-92.3	12.0
2025-01-29 14:28:41.876168	51.9	20.4	-92.4	4.9
2025-01-29 14:28:42.996854	51.6	20.5	-92.4	12.8
2025-01-29 14:28:44.119111	51.4	20.6	-92.1	9.6
2025-01-29 14:28:45.240212	51.2	20.6	-92.1	3.7
2025-01-29 14:28:46.361146	51.0	20.7	-92.4	3.1
2025-01-29 14:28:47.482516	50.7	20.8	-92.4	3.7
2025-01-29 14:28:48.603860	50.5	20.9	-92.5	3.4
2025-01-29 14:28:49.725066	50.3	21.0	-92.1	3.2
2025-01-29 14:28:50.846732	50.0	21.1	-92.5	1.7
2025-01-29 14:28:51.967902	49.8	21.2	-92.7	3.5
2025-01-29 14:28:53.089147	49.6	21.2	-92.6	5.2
2025-01-29 14:28:54.210719	49.3	21.3	-92.5	11.5
2025-01-29 14:28:55.331901	49.1	21.4	-92.0	7.0
2025-01-29 14:28:56.454474	48.8	21.5	-92.5	5.9
2025-01-29 14:28:57.576089	48.6	21.6	-92.2	6.7
2025-01-29 14:28:58.697039	48.3	21.7	-92.2	8.3
2025-01-29 14:28:59.819036	48.1	21.7	-92.2	5.7
2025-01-29 14:29:00.939991	47.9	21.8	-92.3	8.8
2025-01-29 14:29:02.060407	47.6	21.9	-92.0	9.0
2025-01-29 14:29:03.206320	47.4	22.0	-92.6	6.7
2025-01-29 14:29:04.327473	47.1	22.1	-92.4	7.2
2025-01-29 14:29:05.448631	46.8	22.2	-92.6	13.8
2025-01-29 14:29:06.569399	46.6	22.2	-92.3	14.4
2025-01-29 14:29:07.690021	46.3	22.3	-92.4	7.7
2025-01-29 14:29:08.811251	46.1	22.4	-92.5	7.2
2025-01-29 14:29:09.933986	45.8	22.5	-92.2	7.9
2025-01-29 14:29:11.055591	45.6	22.6	-92.0	6.3
2025-01-29 14:29:12.178034	45.3	22.6	-92.4	4.9
2025-01-29 14:29:13.300154	45.0	22.7	-92.3	2.4
2025-01-29 14:29:14.422020	44.8	22.8	-92.3	5.4
2025-01-29 14:29:15.542520	44.5	22.9	-92.6	6.7
2025-01-29 14:29:16.664192	44.3	22.9	-92.3	5.5
2025-01-29 14:29:17.786171	44.0	23.0	-92.1	5.6
2025-01-29 14:29:18.909180	43.7	23.1	-92.3	12.9
2025-01-29 14:29:20.030561	43.5	23.2	-92.6	9.2
2025-01-29 14:29:21.152241	43.2	23.3	-92.4	14.6
2025-01-29 14:29:22.272839	42.9	23.3	-92.3	9.8
2025-01-29 14:29:23.393762	42.6	23.4	-92.2	6.9
2025-01-29 14:29:24.515450	42.4	23.5	-91.9	6.8
2025-01-29 14:29:25.636654	42.1	23.5	-92.2	6.5
2025-01-29 14:29:26.759282	41.8	23.6	-92.2	4.7
2025-01-29 14:29:27.879289	41.5	23.7	-91.9	6.4
2025-01-29 14:29:29.000934	41.3	23.8	-92.0	6.4
2025-01-29 14:29:30.122401	41.0	23.8	-91.6	5.7
2025-01-29 14:29:31.244811	40.7	23.9	-92.1	8.8
2025-01-29 14:29:32.365318	40.4	24.0	-92.0	7.8
2025-01-29 14:29:33.486068	40.1	24.0	-92.5	6.6
2025-01-29 14:29:34.606943	39.8	24.1	-91.6	10.3
2025-01-29 14:29:35.728127	39.5	24.2	-91.2	7.0
2025-01-29 14:29:36.850050	39.3	24.3	-91.7	8.3
2025-01-29 14:29:37.971322	39.0	24.3	-91.0	6.2
2025-01-29 14:29:39.092997	38.7	24.4	-91.4	8.4
2025-01-29 14:29:40.214835	38.4	24.5	-91.4	6.5
2025-01-29 14:29:41.335415	38.1	24.5	-92.6	3.6
2025-01-29 14:29:42.457972	37.8	24.6	-92.6	4.8
2025-01-29 14:29:43.579811	37.5	24.6	-92.3	4.2
2025-01-29 14:29:44.701556	37.2	24.7	-92.4	1.2
2025-01-29 14:29:45.822948	36.9	24.8	-92.5	1.8
2025-01-29 14:29:46.944773	36.6	24.8	-92.4	5.2
2025-01-29 14:29:48.066618	36.3	24.9	-92.6	9.1
2025-01-29 14:29:49.186567	36.0	25.0	-92.2	4.3
2025-01-29 14:29:50.307186	35.7	25.0	-92.1	9.5
2025-01-29 14:29:51.427368	35.4	25.1	-92.0	11.3
2025-01-29 14:29:52.549658	35.1	25.1	-92.6	9.1
2025-01-29 14:29:53.671893	34.8	25.2	-92.3	8.5
2025-01-29 14:29:54.793249	34.5	25.3	-92.7	7.6
2025-01-29 14:29:55.914390	34.2	25.3	-92.2	8.5
2025-01-29 14:29:57.035621	33.9	25.4	-92.1	8.5
2025-01-29 14:29:58.159265	33.6	25.4	-92.0	6.8
2025-01-29 14:29:59.280071	33.2	25.5	-92.3	4.1
2025-01-29 14:30:00.400203	32.9	25.5	-92.5	5.0
2025-01-29 14:30:01.521296	32.6	25.6	-92.4	5.1
2025-01-29 14:30:02.643020	32.3	25.6	-92.4	5.1
2025-01-29 14:30:03.763462	32.0	25.7	-92.2	5.2
2025-01-29 14:30:04.884205	31.7	25.7	-92.0	6.9
2025-01-29 14:30:06.005460	31.4	25.8	-92.6	11.9
2025-01-29 14:30:07.126876	31.0	25.8	-92.1	10.5
2025-01-29 14:30:08.247914	30.7	25.9	-92.2	10.8
2025-01-29 14:30:09.369661	30.4	25.9	-92.2	11.5
2025-01-29 14:30:10.490427	30.1	26.0	-92.4	16.5
2025-01-29 14:30:11.611501	29.7	26.0	-92.4	12.6
2025-01-29 14:30:12.732730	29.4	26.0	-92.1	7.1
2025-01-29 14:30:13.853712	29.1	26.1	-92.3	4.4
2025-01-29 14:30:14.973978	28.8	26.1	-92.5	6.2
2025-01-29 14:30:16.095622	28.5	26.2	-92.6	7.5
2025-01-29 14:30:17.216390	28.1	26.2	-91.9	4.9
2025-01-29 14:30:18.337693	27.8	26.2	-91.8	4.4
2025-01-29 14:30:19.458817	27.5	26.3	-92.3	4.1
2025-01-29 14:30:20.579502	27.1	26.3	-92.0	5.8
2025-01-29 14:30:21.701767	26.8	26.4	-92.5	3.2
2025-01-29 14:30:22.825716	26.5	26.4	-92.2	3.3
2025-01-29 14:30:23.946534	26.2	26.4	-92.4	5.5
2025-01-29 14:30:25.069678	25.8	26.5	-92.3	4.0
2025-01-29 14:30:26.189989	25.5	26.5	-92.1	3.6
2025-01-29 14:30:27.311501	25.2	26.5	-92.5	6.2
2025-01-29 14:30:28.432991	24.8	26.5	-91.9	7.4
2025-01-29 14:30:29.555197	24.5	26.6	-92.6	10.2
2025-01-29 14:30:30.675848	24.2	26.6	-92.4	9.3
2025-01-29 14:30:31.797801	23.8	26.6	-92.5	8.6
2025-01-29 14:30:32.918998	23.5	26.6	-92.5	6.0
2025-01-29 14:30:34.039522	23.1	26.7	-92.3	10.0
2025-01-29 14:30:35.161282	22.8	26.7	-92.7	10.5
2025-01-29 14:30:36.283190	22.5	26.7	-92.3	8.3
2025-01-29 14:30:37.405078	22.1	26.7	-92.7	9.6
2025-01-29 14:30:38.525768	21.8	26.8	-92.4	9.7
2025-01-29 14:30:39.646613	21.5	26.8	-92.9	9.6
2025-01-29 14:30:40.768368	21.1	26.8	-92.9	8.1
2025-01-29 14:30:41.889153	20.8	26.8	-92.5	7.5
2025-01-29 14:30:43.010899	20.4	26.8	-92.9	5.4
2025-01-29 14:30:44.131244	20.1	26.8	-92.7	7.5
2025-01-29 14:30:45.252120	19.8	26.8	-92.8	3.0
2025-01-29 14:30:46.373053	19.4	26.9	-92.7	2.8
2025-01-29 14:30:47.494279	19.1	26.9	-91.5	6.5
2025-01-29 14:30:48.616396	18.7	26.9	-91.8	5.9
2025-01-29 14:30:49.737410	18.4	26.9	-91.4	3.9
2025-01-29 14:30:50.858485	18.1	26.9	-92.5	5.1
2025-01-29 14:30:51.983998	17.7	26.9	-92.6	5.8
2025-01-29 14:30:53.109092	17.4	26.9	-92.4	7.9
2025-01-29 14:30:54.229151	17.0	26.9	-92.2	5.6
2025-01-29 14:30:55.352097	16.7	26.9	-92.5	5.3
2025-01-29 14:30:56.472662	16.3	26.9	-92.4	7.4
2025-01-29 14:30:57.593693	16.0	26.9	-92.6	7.8
2025-01-29 14:30:58.713871	15.7	26.9	-92.4	9.8
2025-01-29 14:30:59.833711	15.3	26.9	-92.1	10.2
2025-01-29 14:31:00.954467	15.0	26.9	-92.4	11.8
2025-01-29 14:31:02.075411	14.6	26.9	-92.3	8.1
2025-01-29 14:31:03.195878	14.3	26.9	-92.2	9.3
2025-01-29 14:31:04.320185	14.0	26.9	-92.3	8.5
2025-01-29 14:31:05.439897	13.6	26.9	-92.2	6.2
2025-01-29 14:31:06.560211	13.3	26.9	-92.4	7.1
2025-01-29 14:31:07.680690	12.9	26.9	-92.3	5.9
2025-01-29 14:31:08.801779	12.6	26.9	-92.5	5.9
2025-01-29 14:31:09.922453	12.3	26.8	-91.9	1.2
2025-01-29 14:31:11.043267	11.9	26.8	-92.2	4.0
2025-01-29 14:31:12.163380	11.6	26.8	-92.0	5.4
2025-01-29 14:31:13.292508	11.2	26.8	-92.0	6.5
2025-01-29 14:31:14.414780	10.9	26.8	-92.4	5.6
2025-01-29 14:31:15.536949	10.6	26.8	-92.0	5.9
2025-01-29 14:31:16.656388	10.2	26.7	-92.0	10.3
2025-01-29 14:31:17.776981	9.9	26.7	-92.2	7.1
2025-01-29 14:31:19.035289	9.5	26.7	-92.6	7.9
2025-01-29 14:31:20.156112	9.2	26.7	-92.3	5.2
2025-01-29 14:31:21.279021	8.8	26.7	-92.4	6.1
2025-01-29 14:31:22.409760	8.5	26.6	-92.3	4.5
2025-01-29 14:31:23.543590	8.2	26.6	-92.9	5.8
2025-01-29 14:31:24.682930	7.8	26.6	-92.6	5.2
2025-01-29 14:31:25.808326	7.5	26.6	-92.5	5.3
2025-01-29 14:31:26.942052	7.1	26.5	-92.5	5.2
2025-01-29 14:31:28.065674	6.8	26.5	-92.9	4.6
2025-01-29 14:31:29.196041	6.5	26.5	-92.6	3.4
2025-01-29 14:31:30.320389	6.2	26.4	-92.4	4.0
2025-01-29 14:31:31.443608	5.8	26.4	-92.5	5.5
2025-01-29 14:31:32.564146	5.5	26.4	-92.6	7.3
2025-01-29 14:31:33.685886	5.2	26.3	-92.3	1.9
2025-01-29 14:31:34.808449	4.8	26.3	-92.4	3.9
2025-01-29 14:31:35.930226	4.5	26.3	-92.4	3.3
2025-01-29 14:31:37.050948	4.2	26.2	-92.3	5.7
2025-01-29 14:31:38.172292	3.9	26.2	-91.5	3.3
2025-01-29 14:31:39.293371	3.5	26.1	-92.1	2.5
2025-01-29 14:31:40.414951	3.2	26.1	-92.2	2.9
2025-01-29 14:31:41.543371	2.9	26.1	-92.0	5.3
2025-01-29 14:31:42.665168	2.6	26.0	-91.9	4.0
2025-01-29 14:31:43.785078	2.2	26.0	-92.0	4.1
2025-01-29 14:31:44.905910	1.9	25.9	-92.4	3.9
2025-01-29 14:31:46.027023	1.6	25.9	-92.4	3.6
2025-01-29 14:31:47.150720	1.3	25.8	-92.5	5.1
2025-01-29 14:31:48.272311	1.0	25.8	-92.3	3.8
2025-01-29 14:31:49.394126	0.6	25.7	-92.9	5.9
2025-01-29 14:31:50.516864	0.3	25.7	-92.4	7.7
2025-01-29 14:31:51.638009	0.0	25.6	-92.7	4.2
2025-01-29 14:31:52.759911	359.7	25.6	-92.6	3.2
2025-01-29 14:31:53.881209	359.4	25.5	-92.3	6.0
2025-01-29 14:31:55.004215	359.1	25.5	-92.7	6.6
2025-01-29 14:31:56.125726	358.8	25.4	-92.5	8.4
2025-01-29 14:31:57.247095	358.4	25.4	-92.6	4.4
2025-01-29 14:31:58.368509	358.1	25.3	-92.7	6.1
2025-01-29 14:31:59.490035	357.8	25.3	-92.7	7.3
2025-01-29 14:32:00.610724	357.5	25.2	-92.5	9.8
2025-01-29 14:32:01.731496	357.2	25.2	-92.3	4.0
2025-01-29 14:32:02.852283	356.9	25.1	-92.6	2.5
2025-01-29 14:32:03.973157	356.6	25.0	-92.9	7.1
2025-01-29 14:32:05.094839	356.3	25.0	-92.3	6.0
2025-01-29 14:32:06.216448	356.0	24.9	-92.4	5.7
2025-01-29 14:32:07.338127	355.7	24.9	-92.1	3.8
2025-01-29 14:32:08.458370	355.4	24.8	-92.5	8.9
2025-01-29 14:32:09.579160	355.1	24.7	-92.5	8.1
2025-01-29 14:32:10.700314	354.8	24.7	-92.6	6.2
2025-01-29 14:32:11.821166	354.5	24.6	-92.6	4.6
2025-01-29 14:32:12.942147	354.2	24.5	-92.7	7.5
2025-01-29 14:32:14.063001	353.9	24.5	-92.8	8.5
2025-01-29 14:32:15.185368	353.6	24.4	-92.4	7.7
2025-01-29 14:32:16.306363	353.3	24.4	-92.7	7.0
2025-01-29 14:32:17.426949	353.1	24.3	-92.4	10.4
2025-01-29 14:32:18.547819	352.8	24.2	-92.5	11.9
2025-01-29 14:32:19.672184	352.5	24.1	-92.1	8.2
2025-01-29 14:32:20.795916	352.2	24.1	-92.6	6.0
2025-01-29 14:32:21.918711	351.9	24.0	-92.1	8.4
2025-01-29 14:32:23.041534	351.6	23.9	-92.5	11.6
2025-01-29 14:32:24.162206	351.3	23.9	-92.3	11.7
2025-01-29 14:32:25.282963	351.1	23.8	-91.5	5.2
2025-01-29 14:32:26.404628	350.8	23.7	-92.2	10.7
2025-01-29 14:32:27.526865	350.5	23.7	-91.4	5.7
2025-01-29 14:32:28.647978	350.2	23.6	-91.7	5.4
2025-01-29 14:32:29.772977	350.0	23.5	-92.6	9.6
2025-01-29 14:32:30.905183	349.7	23.4	-92.8	10.9
2025-01-29 14:32:32.027701	349.4	23.4	-92.9	9.0
2025-01-29 14:32:33.148490	349.1	23.3	-92.6	9.9
2025-01-29 14:32:34.269217	348.9	23.2	-91.7	11.2
2025-01-29 14:32:35.390796	348.6	23.1	-91.9	7.6
2025-01-29 14:32:36.512013	348.3	23.1	-92.3	10.0
2025-01-29 14:32:37.632963	348.1	23.0	-91.9	7.5
2025-01-29 14:32:38.756183	347.8	22.9	-91.9	8.0
2025-01-29 14:32:39.876105	347.5	22.8	-91.7	7.7
2025-01-29 14:32:40.996809	347.3	22.8	-92.3	5.3
2025-01-29 14:32:42.118363	347.0	22.7	-92.5	8.0
2025-01-29 14:32:43.238956	346.8	22.6	-92.8	7.6
2025-01-29 14:32:44.360710	346.5	22.5	-93.0	5.8
2025-01-29 14:32:45.482191	346.2	22.4	-92.7	4.8
2025-01-29 14:32:46.601982	346.0	22.4	-92.7	6.4
2025-01-29 14:32:47.724357	345.7	22.3	-92.5	1.2
2025-01-29 14:32:48.846075	345.5	22.2	-92.7	3.1
2025-01-29 14:32:49.967946	345.2	22.1	-92.7	3.4
2025-01-29 14:32:51.089304	345.0	22.0	-92.7	6.0
2025-01-29 14:32:52.209805	344.7	22.0	-92.3	2.0
2025-01-29 14:32:53.331241	344.5	21.9	-92.2	3.9
2025-01-29 14:32:54.451253	344.2	21.8	-92.4	6.3
2025-01-29 14:32:55.571334	344.0	21.7	-92.2	6.3
2025-01-29 14:32:56.692547	343.8	21.6	-92.8	4.6
2025-01-29 14:32:57.814117	343.5	21.5	-91.8	2.3
2025-01-29 14:32:58.935250	343.3	21.5	-92.5	5.2
2025-01-29 14:33:00.056621	343.0	21.4	-92.7	4.6
2025-01-29 14:33:01.179213	342.8	21.3	-92.4	7.7
2025-01-29 14:33:02.300717	342.6	21.2	-92.7	5.8
2025-01-29 14:33:03.422789	342.3	21.1	-92.6	4.9
2025-01-29 14:33:04.544456	342.1	21.0	-92.6	4.6
2025-01-29 14:33:05.665887	341.9	21.0	-92.8	6.7
2025-01-29 14:33:06.786971	341.6	20.9	-92.5	4.1
2025-01-29 14:33:07.908737	341.4	20.8	-93.1	6.9
2025-01-29 14:33:09.029787	341.2	20.7	-92.4	4.6
2025-01-29 14:33:10.150566	340.9	20.6	-92.8	3.4
2025-01-29 14:33:11.272392	340.7	20.5	-92.7	3.0
2025-01-29 14:33:12.393375	340.5	20.4	-92.5	1.9
2025-01-29 14:33:13.515950	340.3	20.4	-92.9	6.3
2025-01-29 14:33:14.636312	340.0	20.3	-92.5	0.5
2025-01-29 14:33:15.757705	339.8	20.2	-92.8	4.2
2025-01-29 14:33:16.878544	339.6	20.1	-92.8	1.6
2025-01-29 14:33:17.998781	339.4	20.0	-92.7	4.6
2025-01-29 14:33:19.120276	339.2	19.9	-92.8	3.3
2025-01-29 14:33:20.242430	338.9	19.8	-92.7	3.4
2025-01-29 14:33:21.364475	338.7	19.7	-92.5	3.6
2025-01-29 14:33:22.485323	338.5	19.7	-92.7	2.5
2025-01-29 14:33:23.605748	338.3	19.6	-93.2	3.0
2025-01-29 14:33:24.726053	338.1	19.5	-92.8	3.1
2025-01-29 14:33:25.846924	337.9	19.4	-92.8	2.9
2025-01-29 14:33:26.968727	337.7	19.3	-92.5	2.7
2025-01-29 14:33:28.090673	337.5	19.2	-92.6	1.9
2025-01-29 14:33:29.212458	337.3	19.1	-92.3	2.5
2025-01-29 14:33:30.334195	337.0	19.0	-92.4	2.1
2025-01-29 14:33:31.456011	336.8	19.0	-92.3	2.9
2025-01-29 14:33:32.576634	336.6	18.9	-92.8	2.1
2025-01-29 14:33:33.698190	336.4	18.8	-92.3	2.3
2025-01-29 14:33:34.820272	336.2	18.7	-92.8	3.7
2025-01-29 14:33:35.941120	336.0	18.6	-92.3	3.8
2025-01-29 14:33:37.062518	335.8	18.5	-92.6	5.0
2025-01-29 14:33:38.183241	335.6	18.4	-92.2	3.8
2025-01-29 14:33:39.305110	335.4	18.3	-92.3	3.0
2025-01-29 14:33:40.427873	335.3	18.2	-91.9	5.1
2025-01-29 14:33:41.548709	335.1	18.2	-92.1	1.8
2025-01-29 14:33:42.670159	334.9	18.1	-91.7	2.2
2025-01-29 14:33:43.790353	334.7	18.0	-92.0	1.0
2025-01-29 14:33:44.912063	334.5	17.9	-91.8	0.9
2025-01-29 14:33:46.032675	334.3	17.8	-92.6	3.0
2025-01-29 14:33:47.154988	334.1	17.7	-92.5	0.4
2025-01-29 14:33:48.276105	333.9	17.6	-92.6	2.4
2025-01-29 14:33:49.398257	333.7	17.5	-92.3	3.6
2025-01-29 14:33:50.518839	333.5	17.5	-92.8	1.8
2025-01-29 14:33:51.639972	333.4	17.4	-92.4	1.4
2025-01-29 14:33:52.761240	333.2	17.3	-92.7	0.4
2025-01-29 14:33:53.882859	333.0	17.2	-92.2	3.0
2025-01-29 14:33:55.003570	332.8	17.1	-92.7	1.9
2025-01-29 14:33:56.125189	332.6	17.0	-92.1	2.0
2025-01-29 14:33:57.246577	332.5	16.9	-92.1	2.7
2025-01-29 14:33:58.367728	332.3	16.8	-92.3	2.0
2025-01-29 14:33:59.489376	332.1	16.7	-92.5	2.9
2025-01-29 14:34:00.611482	331.9	16.7	-92.2	2.0
2025-01-29 14:34:01.731583	331.8	16.6	-92.6	4.3
2025-01-29 14:34:02.852718	331.6	16.5	-92.5	3.7
2025-01-29 14:34:03.974076	331.4	16.4	-92.6	1.5
2025-01-29 14:34:05.094963	331.2	16.3	-91.8	3.8
2025-01-29 14:34:06.216447	331.1	16.2	-92.3	2.2
2025-01-29 14:34:07.337519	330.9	16.1	-92.2	2.0
2025-01-29 14:34:08.458381	330.7	16.0	-92.2	2.0
2025-01-29 14:34:09.579953	330.6	15.9	-92.8	3.2
2025-01-29 14:34:10.700398	330.4	15.9	-92.6	1.7
2025-01-29 14:34:11.821035	330.2	15.8	-92.5	0.8
2025-01-29 14:34:12.942741	330.1	15.7	-92.4	3.0
2025-01-29 14:34:14.064764	329.9	15.6	-92.6	2.5
2025-01-29 14:34:15.186302	329.8	15.5	-91.7	0.8
2025-01-29 14:34:16.306967	329.6	15.4	-91.2	2.3
2025-01-29 14:34:17.665245	329.4	15.3	-92.1	0.7
2025-01-29 14:34:18.786689	329.2	15.2	-91.6	2.6
2025-01-29 14:34:20.011470	329.1	15.1	-91.8	3.7
2025-01-29 14:34:21.133399	328.9	15.0	-91.5	2.7
2025-01-29 14:34:22.253641	328.8	15.0	-92.3	1.2
2025-01-29 14:34:23.374139	328.6	14.9	-92.3	3.9
2025-01-29 14:34:24.496491	328.4	14.8	-92.1	3.9
2025-01-29 14:34:25.619197	328.3	14.7	-92.8	3.0
2025-01-29 14:34:26.739849	328.1	14.6	-92.1	6.6
#Closed at: 2025-01-29 14:27:38.639466