passes_logs/2025/01/29/LEX_Murmansk/LEX_Murmansk__20250129_213311_NOAA_18_rec.log

#Pass ID: 20250129_213311_NOAA 18
#Satellite: NOAA 18
#Configuration: NOAA 18
#Start time: 2025-01-29 21:33:06.450016

#LorettStation: 1.0.0 05.05.2024
#Station: LEX_Murmansk
#Location: 33.156738 lon 68.926811 lat
#TLE: 1 28654U 05018A   25029.10768076  .00000445  00000+0  25948-3 0  9995
#TLE: 2 28654  98.8544 110.0207 0014928 140.4380 219.7885 14.13500636 15173

#Time	Az	El	Level	SNR
2025-01-29 21:33:18.575352	247.4	15.7	-92.1	16.1
2025-01-29 21:33:19.734756	247.6	15.7	-92.3	10.8
2025-01-29 21:33:20.887952	247.8	15.8	-92.2	14.1
2025-01-29 21:33:22.038555	248.1	15.9	-92.6	9.1
2025-01-29 21:33:23.200688	248.3	15.9	-91.9	11.7
2025-01-29 21:33:24.350320	248.5	16.0	-92.3	7.2
2025-01-29 21:33:25.504008	248.7	16.1	-92.2	6.7
2025-01-29 21:33:26.644657	248.9	16.1	-92.3	14.0
2025-01-29 21:33:27.800137	249.1	16.2	-92.4	12.5
2025-01-29 21:33:28.951351	249.4	16.2	-92.2	9.5
2025-01-29 21:33:30.107150	249.6	16.3	-92.1	8.9
2025-01-29 21:33:31.260987	249.8	16.4	-92.1	9.6
2025-01-29 21:33:32.415461	250.0	16.4	-91.8	9.9
2025-01-29 21:33:33.563165	250.2	16.5	-92.3	14.0
2025-01-29 21:33:34.716173	250.5	16.5	-92.4	12.2
2025-01-29 21:33:35.865988	250.7	16.6	-92.3	7.0
2025-01-29 21:33:37.022512	250.9	16.7	-92.4	8.2
2025-01-29 21:33:38.178261	251.1	16.7	-92.0	9.2
2025-01-29 21:33:39.325740	251.4	16.8	-91.9	10.4
2025-01-29 21:33:40.481787	251.6	16.8	-92.5	11.2
2025-01-29 21:33:41.640008	251.8	16.9	-92.4	12.2
2025-01-29 21:33:42.794247	252.0	17.0	-92.4	13.4
2025-01-29 21:33:43.953203	252.3	17.0	-92.4	12.5
2025-01-29 21:33:45.117376	252.5	17.1	-92.3	8.7
2025-01-29 21:33:46.270858	252.7	17.1	-91.8	9.6
2025-01-29 21:33:47.425934	253.0	17.2	-92.4	10.3
2025-01-29 21:33:48.587276	253.2	17.2	-92.5	9.5
2025-01-29 21:33:49.738879	253.4	17.3	-92.5	9.4
2025-01-29 21:33:50.893714	253.7	17.4	-92.9	4.8
2025-01-29 21:33:52.043572	253.9	17.4	-92.4	5.9
2025-01-29 21:33:53.191465	254.2	17.5	-92.1	8.3
2025-01-29 21:33:54.343848	254.4	17.5	-92.5	11.2
2025-01-29 21:33:55.490905	254.6	17.6	-92.4	7.7
2025-01-29 21:33:56.641023	254.9	17.6	-92.3	7.4
2025-01-29 21:33:57.786570	255.1	17.7	-92.6	9.8
2025-01-29 21:33:58.934975	255.3	17.7	-92.7	5.2
2025-01-29 21:34:00.092607	255.6	17.8	-91.8	12.0
2025-01-29 21:34:01.254478	255.8	17.8	-92.1	7.3
2025-01-29 21:34:02.420002	256.1	17.9	-92.4	10.8
2025-01-29 21:34:03.570774	256.3	18.0	-92.8	4.9
2025-01-29 21:34:04.724708	256.6	18.0	-92.2	9.0
2025-01-29 21:34:05.881848	256.8	18.1	-92.4	5.2
2025-01-29 21:34:07.036107	257.1	18.1	-92.5	5.5
2025-01-29 21:34:08.194286	257.3	18.2	-92.1	4.5
2025-01-29 21:34:09.343787	257.6	18.2	-91.9	8.7
2025-01-29 21:34:10.495039	257.8	18.3	-92.7	4.0
2025-01-29 21:34:11.648049	258.1	18.3	-92.7	2.7
2025-01-29 21:34:12.802184	258.3	18.4	-92.4	4.2
2025-01-29 21:34:13.954446	258.6	18.4	-92.6	5.9
2025-01-29 21:34:15.104213	258.8	18.4	-92.1	4.3
2025-01-29 21:34:16.260066	259.1	18.5	-92.0	3.6
2025-01-29 21:34:17.411367	259.3	18.5	-92.3	5.8
2025-01-29 21:34:18.564739	259.6	18.6	-92.6	6.0
2025-01-29 21:34:19.727643	259.8	18.6	-92.8	5.7
2025-01-29 21:34:20.879821	260.1	18.7	-92.3	5.9
2025-01-29 21:34:22.030204	260.4	18.7	-92.5	5.6
2025-01-29 21:34:23.185584	260.6	18.8	-92.1	3.4
2025-01-29 21:34:24.339425	260.9	18.8	-92.2	3.4
2025-01-29 21:34:25.488056	261.1	18.9	-92.9	3.5
2025-01-29 21:34:26.644227	261.4	18.9	-92.5	4.8
2025-01-29 21:34:27.800399	261.6	18.9	-92.6	5.3
2025-01-29 21:34:28.953906	261.9	19.0	-92.7	4.2
2025-01-29 21:34:30.106640	262.2	19.0	-92.3	3.0
2025-01-29 21:34:31.255975	262.4	19.1	-92.3	6.5
2025-01-29 21:34:32.405113	262.7	19.1	-92.6	6.6
2025-01-29 21:34:33.557821	263.0	19.1	-92.9	5.1
2025-01-29 21:34:34.711720	263.2	19.2	-92.3	3.6
2025-01-29 21:34:35.860720	263.5	19.2	-92.7	5.7
2025-01-29 21:34:37.019565	263.8	19.3	-92.6	5.0
2025-01-29 21:34:38.174723	264.0	19.3	-92.4	3.3
2025-01-29 21:34:39.328896	264.3	19.3	-92.6	4.3
2025-01-29 21:34:40.486214	264.6	19.4	-92.7	6.5
2025-01-29 21:34:41.645102	264.8	19.4	-92.9	5.4
2025-01-29 21:34:42.797596	265.1	19.4	-92.6	5.5
2025-01-29 21:34:43.951037	265.4	19.5	-92.9	5.0
2025-01-29 21:34:45.102367	265.6	19.5	-92.3	3.7
2025-01-29 21:34:46.251592	265.9	19.6	-92.2	5.9
2025-01-29 21:34:47.406920	266.2	19.6	-92.5	8.9
2025-01-29 21:34:48.560763	266.5	19.6	-92.8	5.9
2025-01-29 21:34:49.709270	266.7	19.6	-92.8	13.3
2025-01-29 21:34:50.858091	267.0	19.7	-92.5	5.2
2025-01-29 21:34:52.011856	267.3	19.7	-92.6	11.0
2025-01-29 21:34:53.166006	267.5	19.7	-92.2	6.4
2025-01-29 21:34:54.322260	267.8	19.8	-92.4	11.6
2025-01-29 21:34:55.478175	268.1	19.8	-92.8	6.6
2025-01-29 21:34:56.637180	268.4	19.8	-92.7	8.3
2025-01-29 21:34:57.791984	268.7	19.9	-92.7	9.9
2025-01-29 21:34:58.952616	268.9	19.9	-92.8	8.0
2025-01-29 21:35:00.101955	269.2	19.9	-92.3	11.7
2025-01-29 21:35:01.254758	269.5	19.9	-92.2	3.1
2025-01-29 21:35:02.407003	269.8	20.0	-92.2	3.3
2025-01-29 21:35:03.557474	270.0	20.0	-92.9	3.2
2025-01-29 21:35:04.701790	270.3	20.0	-93.0	3.4
2025-01-29 21:35:05.853074	270.6	20.0	-92.5	4.4
2025-01-29 21:35:07.008679	270.9	20.1	-92.9	4.3
2025-01-29 21:35:08.165526	271.2	20.1	-92.2	4.4
2025-01-29 21:35:09.321527	271.4	20.1	-91.9	6.5
2025-01-29 21:35:10.480832	271.7	20.1	-92.6	8.3
2025-01-29 21:35:11.639304	272.0	20.1	-92.8	4.9
2025-01-29 21:35:12.787541	272.3	20.2	-93.0	5.3
2025-01-29 21:35:13.940840	272.6	20.2	-92.6	7.2
2025-01-29 21:35:15.089484	272.8	20.2	-92.2	12.2
2025-01-29 21:35:16.240225	273.1	20.2	-92.0	8.7
2025-01-29 21:35:17.386023	273.4	20.2	-92.3	7.3
2025-01-29 21:35:18.535026	273.7	20.2	-92.7	4.1
2025-01-29 21:35:19.686321	274.0	20.3	-92.6	6.8
2025-01-29 21:35:20.838418	274.3	20.3	-92.7	4.2
2025-01-29 21:35:21.992835	274.5	20.3	-92.8	9.8
2025-01-29 21:35:23.147256	274.8	20.3	-92.3	2.9
2025-01-29 21:35:24.301004	275.1	20.3	-92.5	14.9
2025-01-29 21:35:25.452427	275.4	20.3	-92.7	5.5
2025-01-29 21:35:26.610161	275.7	20.3	-92.5	9.4
2025-01-29 21:35:27.772491	276.0	20.3	-92.8	4.6
2025-01-29 21:35:28.927422	276.3	20.4	-92.9	6.8
2025-01-29 21:35:30.079791	276.5	20.4	-92.5	6.1
2025-01-29 21:35:31.234242	276.8	20.4	-92.2	11.2
2025-01-29 21:35:32.388759	277.1	20.4	-92.3	7.0
2025-01-29 21:35:33.541555	277.4	20.4	-92.6	6.4
2025-01-29 21:35:34.689168	277.7	20.4	-92.6	8.0
2025-01-29 21:35:35.844495	278.0	20.4	-92.5	6.6
2025-01-29 21:35:37.004367	278.3	20.4	-92.5	5.2
2025-01-29 21:35:38.168105	278.6	20.4	-92.5	10.1
2025-01-29 21:35:39.329798	278.8	20.4	-92.7	15.0
2025-01-29 21:35:40.480777	279.1	20.4	-92.8	7.4
2025-01-29 21:35:41.639433	279.4	20.4	-92.6	8.6
2025-01-29 21:35:42.791873	279.7	20.4	-92.7	12.2
2025-01-29 21:35:43.945496	280.0	20.4	-92.8	11.4
2025-01-29 21:35:45.094332	280.3	20.4	-92.7	5.9
2025-01-29 21:35:46.251188	280.6	20.4	-92.3	14.3
2025-01-29 21:35:47.408874	280.8	20.4	-92.5	13.2
2025-01-29 21:35:48.566058	281.1	20.4	-92.9	9.7
2025-01-29 21:35:49.722032	281.4	20.4	-92.8	9.6
2025-01-29 21:35:50.872545	281.7	20.4	-92.9	9.4
2025-01-29 21:35:52.027890	282.0	20.4	-92.8	7.4
2025-01-29 21:35:53.187948	282.3	20.4	-92.4	9.0
2025-01-29 21:35:54.340382	282.6	20.4	-92.6	9.1
2025-01-29 21:35:55.496035	282.9	20.4	-92.6	9.5
2025-01-29 21:35:56.647680	283.1	20.4	-92.7	14.6
2025-01-29 21:35:57.803441	283.4	20.4	-92.7	12.2
2025-01-29 21:35:58.952341	283.7	20.4	-92.8	10.6
2025-01-29 21:36:00.108106	284.0	20.3	-92.3	15.5
2025-01-29 21:36:01.262193	284.3	20.3	-92.0	6.5
2025-01-29 21:36:02.419458	284.6	20.3	-92.7	8.0
2025-01-29 21:36:03.573113	284.9	20.3	-92.8	6.7
2025-01-29 21:36:04.727256	285.1	20.3	-92.7	9.2
2025-01-29 21:36:05.879295	285.4	20.3	-92.9	8.6
2025-01-29 21:36:07.027936	285.7	20.3	-92.8	7.7
2025-01-29 21:36:08.180170	286.0	20.3	-92.2	8.7
2025-01-29 21:36:09.329009	286.3	20.2	-92.4	13.9
2025-01-29 21:36:10.486578	286.6	20.2	-93.0	8.4
2025-01-29 21:36:11.640945	286.8	20.2	-93.2	8.6
2025-01-29 21:36:12.796629	287.1	20.2	-92.9	8.5
2025-01-29 21:36:13.955214	287.4	20.2	-92.9	6.7
2025-01-29 21:36:15.106846	287.7	20.2	-92.7	7.4
2025-01-29 21:36:16.253496	288.0	20.1	-92.0	7.8
2025-01-29 21:36:17.412109	288.3	20.1	-92.4	7.9
2025-01-29 21:36:18.584888	288.5	20.1	-92.5	6.5
2025-01-29 21:36:19.741457	288.8	20.1	-93.0	16.3
2025-01-29 21:36:20.898906	289.1	20.1	-92.8	12.0
2025-01-29 21:36:22.060423	289.4	20.0	-92.4	9.3
2025-01-29 21:36:23.216824	289.7	20.0	-90.4	11.7
2025-01-29 21:36:24.371995	289.9	20.0	-90.9	9.4
2025-01-29 21:36:25.531237	290.2	20.0	-91.0	6.3
2025-01-29 21:36:26.691352	290.5	19.9	-91.4	11.9
2025-01-29 21:36:27.844529	290.8	19.9	-92.8	12.8
2025-01-29 21:36:29.000229	291.1	19.9	-92.9	8.6
2025-01-29 21:36:30.158051	291.3	19.9	-92.4	9.0
2025-01-29 21:36:31.312157	291.6	19.8	-92.4	10.0
2025-01-29 21:36:32.465418	291.9	19.8	-93.0	9.9
2025-01-29 21:36:33.619560	292.2	19.8	-93.2	13.0
2025-01-29 21:36:34.766664	292.4	19.7	-92.5	8.8
2025-01-29 21:36:35.921728	292.7	19.7	-92.6	8.8
2025-01-29 21:36:37.073193	293.0	19.7	-92.2	9.4
2025-01-29 21:36:38.232823	293.3	19.7	-92.5	15.5
2025-01-29 21:36:39.382240	293.5	19.6	-92.8	10.9
2025-01-29 21:36:40.540304	293.8	19.6	-92.7	9.8
2025-01-29 21:36:41.694644	294.1	19.6	-92.8	10.3
2025-01-29 21:36:42.847761	294.4	19.5	-92.5	8.7
2025-01-29 21:36:43.997233	294.6	19.5	-92.5	8.0
2025-01-29 21:36:45.149063	294.9	19.5	-92.2	8.9
2025-01-29 21:36:46.301205	295.2	19.4	-92.3	10.6
2025-01-29 21:36:47.448214	295.4	19.4	-93.0	7.7
2025-01-29 21:36:48.602563	295.7	19.3	-92.5	6.2
2025-01-29 21:36:49.753286	296.0	19.3	-92.5	7.6
2025-01-29 21:36:50.901149	296.2	19.3	-92.8	7.4
2025-01-29 21:36:52.059112	296.5	19.2	-93.0	5.0
2025-01-29 21:36:53.211641	296.8	19.2	-92.5	6.9
2025-01-29 21:36:54.363898	297.0	19.2	-92.4	5.4
2025-01-29 21:36:55.514452	297.3	19.1	-92.8	7.1
2025-01-29 21:36:56.663549	297.6	19.1	-93.1	6.3
2025-01-29 21:36:57.820833	297.8	19.0	-93.0	7.5
2025-01-29 21:36:58.969897	298.1	19.0	-93.1	9.4
2025-01-29 21:37:00.118759	298.3	19.0	-92.4	8.3
2025-01-29 21:37:01.276618	298.6	18.9	-92.2	9.3
2025-01-29 21:37:02.421114	298.9	18.9	-92.4	6.6
2025-01-29 21:37:03.575124	299.1	18.8	-93.1	5.5
2025-01-29 21:37:04.745142	299.4	18.8	-92.6	10.7
2025-01-29 21:37:05.898556	299.6	18.7	-93.2	9.1
2025-01-29 21:37:07.045629	299.9	18.7	-93.5	9.2
2025-01-29 21:37:08.200372	300.2	18.6	-92.4	12.5
2025-01-29 21:37:09.359048	300.4	18.6	-92.4	7.7
2025-01-29 21:37:10.510455	300.7	18.6	-92.7	8.0
2025-01-29 21:37:11.667751	300.9	18.5	-92.7	7.7
2025-01-29 21:37:12.823817	301.2	18.5	-92.7	11.8
2025-01-29 21:37:13.980873	301.4	18.4	-93.0	5.5
2025-01-29 21:37:15.132399	301.7	18.4	-92.6	7.8
2025-01-29 21:37:16.291164	301.9	18.3	-92.6	7.8
2025-01-29 21:37:17.442404	302.2	18.3	-92.7	3.9
2025-01-29 21:37:18.594941	302.4	18.2	-93.1	7.2
2025-01-29 21:37:19.744076	302.7	18.2	-92.9	6.2
2025-01-29 21:37:20.903203	302.9	18.1	-93.0	9.0
2025-01-29 21:37:22.065717	303.2	18.1	-92.9	5.4
2025-01-29 21:37:23.221473	303.4	18.0	-92.4	13.4
2025-01-29 21:37:24.379420	303.7	18.0	-92.1	11.1
2025-01-29 21:37:25.534040	303.9	17.9	-92.7	6.5
2025-01-29 21:37:26.678919	304.2	17.9	-93.1	11.4
2025-01-29 21:37:27.833202	304.4	17.8	-91.5	9.6
2025-01-29 21:37:28.987420	304.6	17.8	-91.0	5.2
2025-01-29 21:37:30.139344	304.9	17.7	-91.2	6.9
2025-01-29 21:37:31.294635	305.1	17.6	-91.0	8.3
2025-01-29 21:37:32.441704	305.4	17.6	-92.8	6.8
2025-01-29 21:37:33.598183	305.6	17.5	-92.9	9.1
2025-01-29 21:37:34.749799	305.8	17.5	-93.1	8.0
2025-01-29 21:37:35.902092	306.1	17.4	-92.4	5.7
2025-01-29 21:37:37.056450	306.3	17.4	-92.4	5.2
2025-01-29 21:37:38.206361	306.6	17.3	-92.1	11.9
2025-01-29 21:37:39.365984	306.8	17.3	-92.1	7.9
2025-01-29 21:37:40.527986	307.0	17.2	-92.7	6.5
2025-01-29 21:37:41.681130	307.3	17.1	-92.8	9.2
2025-01-29 21:37:42.834533	307.5	17.1	-92.9	12.8
2025-01-29 21:37:43.992774	307.7	17.0	-93.0	10.9
2025-01-29 21:37:45.143562	308.0	17.0	-92.6	6.1
2025-01-29 21:37:46.298066	308.2	16.9	-92.8	13.2
2025-01-29 21:37:47.452306	308.4	16.9	-92.7	7.2
2025-01-29 21:37:48.613194	308.6	16.8	-92.4	9.1
2025-01-29 21:37:49.761518	308.9	16.7	-92.9	10.6
2025-01-29 21:37:50.915811	309.1	16.7	-92.8	7.7
2025-01-29 21:37:52.066334	309.3	16.6	-92.9	9.5
2025-01-29 21:37:53.230790	309.5	16.6	-92.6	13.4
2025-01-29 21:37:54.386779	309.8	16.5	-92.8	6.7
2025-01-29 21:37:55.532939	310.0	16.4	-92.7	10.3
2025-01-29 21:37:56.680156	310.2	16.4	-92.8	10.5
2025-01-29 21:37:57.832402	310.4	16.3	-92.7	9.1
2025-01-29 21:37:58.991530	310.7	16.3	-92.5	12.7
2025-01-29 21:38:00.141978	310.9	16.2	-92.5	15.3
2025-01-29 21:38:01.290862	311.1	16.1	-92.4	16.8
2025-01-29 21:38:02.447210	311.3	16.1	-92.3	9.6
2025-01-29 21:38:03.595570	311.5	16.0	-93.0	10.0
2025-01-29 21:38:04.750762	311.7	15.9	-93.2	15.2
2025-01-29 21:38:05.901956	312.0	15.9	-93.4	11.9
2025-01-29 21:38:07.058120	312.2	15.8	-93.0	7.7
2025-01-29 21:38:08.212106	312.4	15.8	-92.6	10.7
2025-01-29 21:38:09.360315	312.6	15.7	-92.6	7.1
2025-01-29 21:38:10.520232	312.8	15.6	-92.9	6.5
2025-01-29 21:38:11.671533	313.0	15.6	-93.3	11.2
2025-01-29 21:38:12.829550	313.2	15.5	-93.0	8.8
2025-01-29 21:38:13.982053	313.4	15.4	-93.1	5.4
2025-01-29 21:38:15.137218	313.6	15.4	-92.8	6.7
2025-01-29 21:38:16.289147	313.9	15.3	-92.4	9.9
2025-01-29 21:38:17.445340	314.1	15.2	-92.8	3.4
2025-01-29 21:38:18.596296	314.3	15.2	-92.7	6.3
2025-01-29 21:38:19.747205	314.5	15.1	-93.0	6.0
2025-01-29 21:38:20.908129	314.7	15.0	-92.6	5.6
2025-01-29 21:38:22.064935	314.9	15.0	-92.6	3.1
2025-01-29 21:38:23.217831	315.1	14.9	-92.7	5.6
2025-01-29 21:38:24.377709	315.3	14.9	-92.4	5.2
2025-01-29 21:38:25.530753	315.5	14.8	-93.0	5.1
2025-01-29 21:38:26.678148	315.7	14.7	-92.8	3.7
#Closed at: 2025-01-29 21:33:11.393075