passes_logs/2025/01/29/LEX_Murmansk/LEX_Murmansk__20250129_113008_NOAA_18_rec.log

#Pass ID: 20250129_113008_NOAA 18
#Satellite: NOAA 18
#Configuration: NOAA 18
#Start time: 2025-01-29 11:30:03.109692

#LorettStation: 1.0.0 05.05.2024
#Station: LEX_Murmansk
#Location: 33.156738 lon 68.926811 lat
#TLE: 1 28654U 05018A   25028.04589186  .00000422  00000+0  24750-3 0  9995
#TLE: 2 28654  98.8546 108.9697 0014880 143.3316 216.8878 14.13499339 15023

#Time	Az	El	Level	SNR
2025-01-29 11:30:15.355785	22.8	16.2	-91.3	5.0
2025-01-29 11:30:16.521033	22.7	16.3	-91.5	4.8
2025-01-29 11:30:17.679043	22.6	16.5	-91.9	5.3
2025-01-29 11:30:18.845710	22.5	16.6	-91.6	5.9
2025-01-29 11:30:20.001853	22.4	16.7	-90.4	4.4
2025-01-29 11:30:21.161964	22.3	16.8	-90.3	2.4
2025-01-29 11:30:22.321769	22.2	16.9	-89.9	5.1
2025-01-29 11:30:23.483844	22.1	17.1	-90.1	5.0
2025-01-29 11:30:24.648564	22.0	17.2	-90.1	4.3
2025-01-29 11:30:25.807726	21.9	17.3	-90.8	5.3
2025-01-29 11:30:26.971237	21.8	17.4	-90.6	6.8
2025-01-29 11:30:28.131643	21.7	17.6	-90.2	4.2
2025-01-29 11:30:29.295459	21.6	17.7	-90.0	4.0
2025-01-29 11:30:30.456541	21.5	17.8	-90.4	2.5
2025-01-29 11:30:31.614562	21.4	17.9	-90.4	5.3
2025-01-29 11:30:32.775599	21.3	18.1	-90.3	9.0
2025-01-29 11:30:33.935459	21.2	18.2	-90.3	8.1
2025-01-29 11:30:35.112950	21.0	18.3	-89.9	14.5
2025-01-29 11:30:36.274196	20.9	18.4	-89.7	12.2
2025-01-29 11:30:37.438884	20.8	18.6	-90.1	8.5
2025-01-29 11:30:38.599460	20.7	18.7	-90.4	10.0
2025-01-29 11:30:39.759718	20.6	18.8	-90.0	10.5
2025-01-29 11:30:40.920706	20.5	19.0	-90.3	6.2
2025-01-29 11:30:42.085262	20.4	19.1	-90.6	8.0
2025-01-29 11:30:43.247274	20.2	19.2	-90.4	8.2
2025-01-29 11:30:44.415585	20.1	19.3	-90.5	5.9
2025-01-29 11:30:45.578904	20.0	19.5	-90.3	5.8
2025-01-29 11:30:46.741038	19.9	19.6	-90.3	6.2
2025-01-29 11:30:47.905274	19.8	19.7	-89.7	5.7
2025-01-29 11:30:49.069881	19.6	19.9	-90.4	5.4
2025-01-29 11:30:50.231992	19.5	20.0	-90.0	8.6
2025-01-29 11:30:51.390175	19.4	20.1	-90.2	4.9
2025-01-29 11:30:52.556569	19.2	20.3	-91.6	11.8
2025-01-29 11:30:53.714833	19.1	20.4	-91.7	12.2
2025-01-29 11:30:54.877692	19.0	20.6	-91.5	7.3
2025-01-29 11:30:56.045036	18.9	20.7	-91.8	5.9
2025-01-29 11:30:57.203626	18.7	20.8	-91.3	8.6
2025-01-29 11:30:58.364783	18.6	21.0	-91.3	10.4
2025-01-29 11:30:59.525679	18.5	21.1	-91.6	9.2
2025-01-29 11:31:00.673991	18.3	21.2	-91.7	10.0
2025-01-29 11:31:01.842818	18.2	21.4	-91.6	6.7
2025-01-29 11:31:02.996953	18.0	21.5	-91.8	6.5
2025-01-29 11:31:04.161209	17.9	21.7	-91.3	9.7
2025-01-29 11:31:05.324089	17.8	21.8	-91.7	6.5
2025-01-29 11:31:06.485028	17.6	22.0	-91.6	6.9
2025-01-29 11:31:07.647298	17.5	22.1	-91.5	11.4
2025-01-29 11:31:08.808559	17.3	22.2	-91.7	11.8
2025-01-29 11:31:09.968795	17.2	22.4	-91.6	12.3
2025-01-29 11:31:11.121938	17.0	22.5	-91.8	11.3
2025-01-29 11:31:12.287654	16.9	22.7	-91.7	12.2
2025-01-29 11:31:13.437414	16.7	22.8	-91.5	8.9
2025-01-29 11:31:14.564076	16.6	23.0	-91.9	6.1
2025-01-29 11:31:15.713375	16.4	23.1	-92.0	9.5
2025-01-29 11:31:16.839663	16.3	23.2	-91.8	14.2
2025-01-29 11:31:17.984745	16.1	23.4	-91.8	9.2
2025-01-29 11:31:19.134227	16.0	23.5	-91.4	6.6
2025-01-29 11:31:20.276891	15.8	23.7	-91.4	10.1
2025-01-29 11:31:21.413974	15.7	23.8	-90.1	4.4
2025-01-29 11:31:22.553496	15.5	24.0	-90.2	7.2
2025-01-29 11:31:23.698334	15.3	24.1	-90.3	10.0
2025-01-29 11:31:24.851795	15.2	24.3	-90.1	9.0
2025-01-29 11:31:25.998686	15.0	24.4	-90.2	9.2
2025-01-29 11:31:27.146168	14.8	24.6	-90.6	11.8
2025-01-29 11:31:28.289297	14.7	24.7	-90.5	10.4
2025-01-29 11:31:29.425087	14.5	24.9	-90.3	9.9
2025-01-29 11:31:30.557038	14.3	25.0	-90.6	11.2
2025-01-29 11:31:31.680040	14.2	25.2	-90.7	9.4
2025-01-29 11:31:32.823263	14.0	25.3	-90.5	10.8
2025-01-29 11:31:33.966581	13.8	25.5	-90.7	13.2
2025-01-29 11:31:35.107875	13.6	25.6	-90.4	13.6
2025-01-29 11:31:36.242586	13.5	25.8	-90.4	12.4
2025-01-29 11:31:37.390520	13.3	26.0	-90.4	9.5
2025-01-29 11:31:38.553707	13.1	26.1	-90.7	7.1
2025-01-29 11:31:39.716241	12.9	26.3	-90.8	10.3
2025-01-29 11:31:40.864115	12.7	26.4	-90.3	5.1
2025-01-29 11:31:42.026517	12.5	26.6	-90.6	4.6
2025-01-29 11:31:43.182958	12.3	26.8	-90.3	8.1
2025-01-29 11:31:44.348376	12.1	26.9	-91.0	9.2
2025-01-29 11:31:45.510483	11.9	27.1	-90.5	10.9
2025-01-29 11:31:46.668058	11.7	27.2	-90.5	8.4
2025-01-29 11:31:47.826360	11.5	27.4	-90.6	8.4
2025-01-29 11:31:48.989103	11.3	27.6	-90.7	9.2
2025-01-29 11:31:50.144036	11.1	27.7	-90.4	8.3
2025-01-29 11:31:51.292101	10.9	27.9	-90.6	8.5
2025-01-29 11:31:52.442934	10.7	28.1	-90.5	8.0
2025-01-29 11:31:53.588543	10.5	28.2	-92.2	12.5
2025-01-29 11:31:54.745442	10.3	28.4	-91.6	8.0
2025-01-29 11:31:55.909951	10.1	28.6	-92.0	7.7
2025-01-29 11:31:57.063000	9.8	28.7	-91.9	4.3
2025-01-29 11:31:58.223696	9.6	28.9	-91.8	8.0
2025-01-29 11:31:59.382006	9.4	29.1	-91.6	4.0
2025-01-29 11:32:00.532662	9.2	29.2	-92.3	4.1
2025-01-29 11:32:01.689979	8.9	29.4	-91.7	6.3
2025-01-29 11:32:02.848821	8.7	29.6	-92.1	9.4
2025-01-29 11:32:03.991930	8.5	29.7	-92.0	11.5
2025-01-29 11:32:05.151926	8.2	29.9	-91.5	10.0
2025-01-29 11:32:06.298877	8.0	30.1	-91.8	11.2
2025-01-29 11:32:07.446188	7.8	30.3	-92.0	9.8
2025-01-29 11:32:08.609030	7.5	30.4	-92.0	11.0
2025-01-29 11:32:09.753321	7.3	30.6	-91.8	9.9
2025-01-29 11:32:10.887801	7.0	30.8	-92.1	9.3
2025-01-29 11:32:12.033188	6.8	30.9	-91.8	9.5
2025-01-29 11:32:13.170404	6.5	31.1	-91.6	9.9
2025-01-29 11:32:14.330721	6.3	31.3	-91.3	13.1
2025-01-29 11:32:15.493447	6.0	31.5	-91.7	10.8
2025-01-29 11:32:16.652332	5.7	31.6	-92.1	14.8
2025-01-29 11:32:17.819617	5.5	31.8	-92.1	11.2
2025-01-29 11:32:18.984253	5.2	32.0	-91.9	7.6
2025-01-29 11:32:20.142292	4.9	32.2	-91.4	10.3
2025-01-29 11:32:21.302522	4.6	32.3	-91.6	13.8
2025-01-29 11:32:22.467263	4.4	32.5	-91.7	8.5
2025-01-29 11:32:23.639247	4.1	32.7	-91.9	13.8
2025-01-29 11:32:24.797229	3.8	32.9	-91.8	15.0
2025-01-29 11:32:25.961066	3.5	33.1	-91.7	14.1
2025-01-29 11:32:27.126760	3.2	33.2	-91.5	14.4
2025-01-29 11:32:28.293696	2.9	33.4	-91.5	14.5
2025-01-29 11:32:29.466825	2.6	33.6	-91.7	10.3
2025-01-29 11:32:30.623223	2.3	33.8	-91.7	12.3
2025-01-29 11:32:31.806220	2.0	34.0	-91.7	12.4
2025-01-29 11:32:32.971475	1.7	34.1	-91.4	11.0
2025-01-29 11:32:34.137589	1.4	34.3	-91.2	13.1
2025-01-29 11:32:35.303120	1.1	34.5	-91.4	15.0
2025-01-29 11:32:36.466668	0.7	34.7	-91.8	15.1
2025-01-29 11:32:37.632119	0.4	34.8	-92.3	14.9
2025-01-29 11:32:38.811441	0.1	35.0	-91.9	16.4
2025-01-29 11:32:39.978107	359.8	35.2	-92.1	8.7
2025-01-29 11:32:41.142136	359.4	35.4	-91.8	14.1
2025-01-29 11:32:42.307445	359.1	35.6	-91.8	13.1
2025-01-29 11:32:43.454286	358.7	35.7	-91.9	8.8
2025-01-29 11:32:44.604518	358.4	35.9	-91.7	12.3
2025-01-29 11:32:45.765986	358.0	36.1	-91.5	15.2
2025-01-29 11:32:46.922426	357.7	36.3	-91.8	13.8
2025-01-29 11:32:48.099393	357.3	36.5	-91.2	14.9
2025-01-29 11:32:49.265028	357.0	36.6	-91.9	13.2
2025-01-29 11:32:50.433947	356.6	36.8	-91.4	12.7
2025-01-29 11:32:51.589566	356.2	37.0	-91.8	15.3
2025-01-29 11:32:52.752762	355.9	37.2	-91.4	15.7
2025-01-29 11:32:53.902759	355.5	37.3	-90.8	10.8
2025-01-29 11:32:55.066061	355.1	37.5	-90.4	11.1
2025-01-29 11:32:56.230587	354.7	37.7	-90.7	16.2
2025-01-29 11:32:57.394409	354.3	37.9	-91.6	14.2
2025-01-29 11:32:58.560479	353.9	38.0	-91.9	15.1
2025-01-29 11:32:59.723213	353.5	38.2	-91.9	19.0
2025-01-29 11:33:00.875197	353.1	38.4	-91.6	18.4
2025-01-29 11:33:02.032760	352.7	38.5	-91.7	15.5
2025-01-29 11:33:03.198313	352.3	38.7	-91.6	17.9
2025-01-29 11:33:04.360578	351.9	38.9	-91.7	13.8
2025-01-29 11:33:05.516011	351.5	39.1	-91.6	10.1
2025-01-29 11:33:06.663285	351.1	39.2	-92.0	18.9
2025-01-29 11:33:07.813057	350.6	39.4	-91.8	18.3
2025-01-29 11:33:08.987885	350.2	39.5	-91.7	9.9
2025-01-29 11:33:10.157102	349.8	39.7	-91.5	15.8
2025-01-29 11:33:11.308329	349.3	39.9	-91.5	18.9
2025-01-29 11:33:12.470710	348.9	40.0	-91.7	15.5
2025-01-29 11:33:13.629498	348.4	40.2	-91.8	18.4
2025-01-29 11:33:14.794548	348.0	40.4	-91.9	19.3
2025-01-29 11:33:15.960404	347.5	40.5	-92.0	19.3
2025-01-29 11:33:17.114194	347.1	40.7	-91.6	20.3
2025-01-29 11:33:18.270548	346.6	40.8	-91.8	21.2
2025-01-29 11:33:19.429704	346.1	41.0	-92.1	14.7
2025-01-29 11:33:20.586052	345.6	41.1	-91.4	18.5
2025-01-29 11:33:21.749831	345.2	41.3	-91.7	20.8
2025-01-29 11:33:22.911056	344.7	41.4	-92.0	13.4
2025-01-29 11:33:24.078472	344.2	41.6	-91.9	16.0
2025-01-29 11:33:25.241215	343.7	41.7	-91.9	22.0
2025-01-29 11:33:26.402618	343.2	41.9	-92.0	19.8
2025-01-29 11:33:27.567420	342.7	42.0	-92.0	21.0
2025-01-29 11:33:28.730940	342.2	42.1	-92.0	20.1
2025-01-29 11:33:29.894743	341.6	42.3	-91.9	20.8
2025-01-29 11:33:31.055115	341.1	42.4	-91.6	20.3
2025-01-29 11:33:32.217292	340.6	42.5	-91.7	20.7
2025-01-29 11:33:33.374644	340.1	42.7	-91.6	15.3
2025-01-29 11:33:34.545193	339.6	42.8	-92.0	11.7
2025-01-29 11:33:35.715152	339.0	42.9	-91.8	20.4
2025-01-29 11:33:36.875411	338.5	43.1	-92.1	11.9
2025-01-29 11:33:38.037276	337.9	43.2	-90.6	8.0
2025-01-29 11:33:39.208435	337.4	43.3	-90.5	14.8
2025-01-29 11:33:40.366760	336.8	43.4	-90.0	8.3
2025-01-29 11:33:41.523548	336.3	43.5	-90.3	9.3
2025-01-29 11:33:42.688043	335.7	43.6	-90.5	15.7
2025-01-29 11:33:43.846234	335.2	43.7	-90.3	15.2
2025-01-29 11:33:45.006676	334.6	43.8	-91.8	17.7
2025-01-29 11:33:46.170524	334.0	43.9	-91.7	20.0
2025-01-29 11:33:47.333894	333.4	44.0	-91.8	18.9
2025-01-29 11:33:48.494323	332.9	44.1	-91.9	20.3
2025-01-29 11:33:49.654434	332.3	44.2	-91.9	20.4
2025-01-29 11:33:50.814506	331.7	44.3	-92.1	21.2
2025-01-29 11:33:51.980427	331.1	44.4	-91.8	20.5
2025-01-29 11:33:53.147452	330.5	44.5	-91.4	20.8
2025-01-29 11:33:54.309228	329.9	44.6	-91.2	17.3
2025-01-29 11:33:55.464093	329.3	44.6	-91.9	13.9
2025-01-29 11:33:56.609971	328.7	44.7	-92.1	17.6
2025-01-29 11:33:57.729623	328.1	44.8	-91.9	14.7
2025-01-29 11:33:58.850052	327.6	44.8	-92.3	12.2
2025-01-29 11:33:59.971222	327.0	44.9	-92.1	13.1
2025-01-29 11:34:01.091476	326.4	45.0	-91.8	13.1
2025-01-29 11:34:02.212927	325.8	45.0	-91.8	16.1
2025-01-29 11:34:03.333287	325.2	45.1	-91.9	14.5
2025-01-29 11:34:04.454841	324.6	45.1	-92.0	15.4
2025-01-29 11:34:05.575474	324.0	45.2	-92.0	13.1
2025-01-29 11:34:06.700081	323.4	45.2	-91.8	17.9
2025-01-29 11:34:07.837278	322.8	45.2	-91.8	19.0
2025-01-29 11:34:08.999235	322.2	45.3	-91.8	19.4
2025-01-29 11:34:10.159027	321.6	45.3	-91.4	18.9
2025-01-29 11:34:11.319107	320.9	45.3	-91.8	19.0
2025-01-29 11:34:12.470029	320.3	45.4	-91.9	18.6
2025-01-29 11:34:13.628492	319.7	45.4	-91.7	19.6
2025-01-29 11:34:14.794813	319.1	45.4	-91.9	16.9
2025-01-29 11:34:15.956567	318.4	45.4	-92.1	16.4
2025-01-29 11:34:17.114083	317.8	45.4	-91.5	14.6
2025-01-29 11:34:18.273870	317.2	45.4	-91.7	13.8
2025-01-29 11:34:19.444927	316.5	45.4	-92.0	14.6
2025-01-29 11:34:20.606748	315.9	45.4	-91.7	15.1
2025-01-29 11:34:21.762905	315.3	45.4	-91.8	17.8
2025-01-29 11:34:22.927181	314.7	45.4	-92.0	13.1
2025-01-29 11:34:24.087398	314.0	45.4	-92.0	14.3
2025-01-29 11:34:25.248252	313.4	45.4	-91.6	18.3
2025-01-29 11:34:26.411131	312.8	45.3	-91.9	12.3
2025-01-29 11:34:27.572512	312.2	45.3	-91.8	13.0
2025-01-29 11:34:28.731917	311.5	45.3	-92.0	18.8
2025-01-29 11:34:29.895976	310.9	45.3	-91.8	10.1
2025-01-29 11:34:31.056995	310.3	45.2	-91.8	10.5
2025-01-29 11:34:32.211406	309.7	45.2	-91.8	16.4
2025-01-29 11:34:33.373641	309.0	45.1	-91.6	9.8
2025-01-29 11:34:34.533233	308.4	45.1	-92.0	9.9
2025-01-29 11:34:35.694999	307.8	45.0	-92.0	16.0
2025-01-29 11:34:36.854199	307.2	45.0	-91.9	10.2
2025-01-29 11:34:38.018912	306.6	44.9	-91.9	10.2
2025-01-29 11:34:39.179239	306.0	44.9	-91.6	14.9
2025-01-29 11:34:40.338959	305.4	44.8	-91.3	12.7
2025-01-29 11:34:41.501818	304.8	44.7	-91.7	11.2
2025-01-29 11:34:42.662911	304.2	44.6	-92.1	19.8
2025-01-29 11:34:43.821398	303.6	44.6	-91.7	18.3
2025-01-29 11:34:44.983278	303.0	44.5	-90.4	12.5
2025-01-29 11:34:46.145270	302.4	44.4	-90.2	17.7
2025-01-29 11:34:47.310855	301.8	44.3	-90.5	14.7
2025-01-29 11:34:48.474679	301.2	44.2	-90.6	9.2
2025-01-29 11:34:49.639253	300.6	44.1	-91.9	11.2
2025-01-29 11:34:50.799971	300.0	44.0	-91.8	14.8
2025-01-29 11:34:51.959477	299.5	43.9	-92.0	12.8
2025-01-29 11:34:53.124573	298.9	43.8	-91.7	16.5
2025-01-29 11:34:54.287470	298.3	43.7	-91.5	17.7
2025-01-29 11:34:55.449250	297.8	43.6	-91.7	13.1
2025-01-29 11:34:56.611752	297.2	43.5	-91.7	18.2
2025-01-29 11:34:57.777016	296.6	43.4	-91.7	17.5
2025-01-29 11:34:58.938252	296.1	43.3	-92.2	12.8
2025-01-29 11:35:00.102341	295.5	43.2	-92.0	15.4
2025-01-29 11:35:01.261157	295.0	43.0	-91.7	20.7
2025-01-29 11:35:02.414516	294.5	42.9	-91.7	13.2
2025-01-29 11:35:03.580467	293.9	42.8	-91.8	13.3
2025-01-29 11:35:04.756550	293.4	42.7	-91.7	18.2
2025-01-29 11:35:05.922776	292.9	42.5	-91.6	10.2
2025-01-29 11:35:07.086893	292.3	42.4	-91.1	11.9
2025-01-29 11:35:08.256566	291.8	42.3	-91.7	16.9
2025-01-29 11:35:09.419906	291.3	42.1	-91.7	11.3
2025-01-29 11:35:10.587278	290.8	42.0	-91.9	14.5
2025-01-29 11:35:11.748857	290.3	41.9	-91.7	20.0
2025-01-29 11:35:12.910715	289.8	41.7	-91.9	12.4
2025-01-29 11:35:14.073704	289.3	41.6	-91.3	15.0
2025-01-29 11:35:15.239067	288.8	41.4	-91.7	17.6
2025-01-29 11:35:16.401056	288.3	41.3	-92.0	11.9
2025-01-29 11:35:17.561656	287.8	41.1	-92.0	12.5
2025-01-29 11:35:18.726645	287.3	41.0	-91.9	19.7
2025-01-29 11:35:19.891570	286.9	40.8	-91.9	11.6
2025-01-29 11:35:21.050726	286.4	40.7	-91.6	12.4
2025-01-29 11:35:22.218178	285.9	40.5	-91.6	19.6
2025-01-29 11:35:23.382782	285.5	40.3	-91.5	12.4
2025-01-29 11:35:24.538469	285.0	40.2	-91.5	11.6
2025-01-29 11:35:25.701375	284.5	40.0	-91.7	20.5
2025-01-29 11:35:26.867349	284.1	39.9	-92.2	11.7
2025-01-29 11:35:28.028727	283.7	39.7	-92.0	13.4
2025-01-29 11:35:29.191111	283.2	39.5	-91.8	16.8
2025-01-29 11:35:30.353708	282.8	39.4	-91.8	14.0
2025-01-29 11:35:31.518350	282.3	39.2	-92.2	14.3
2025-01-29 11:35:32.679953	281.9	39.0	-92.0	19.1
2025-01-29 11:35:33.846288	281.5	38.9	-91.9	16.2
2025-01-29 11:35:35.011007	281.1	38.7	-91.7	17.5
2025-01-29 11:35:36.165567	280.7	38.5	-91.7	18.0
2025-01-29 11:35:37.328730	280.3	38.3	-91.6	18.4
2025-01-29 11:35:38.489995	279.9	38.2	-91.9	18.0
2025-01-29 11:35:39.658759	279.5	38.0	-91.8	19.5
2025-01-29 11:35:40.821863	279.1	37.8	-91.9	17.4
2025-01-29 11:35:41.985129	278.7	37.6	-91.9	15.9
2025-01-29 11:35:43.149814	278.3	37.5	-91.9	19.1
2025-01-29 11:35:44.312695	277.9	37.3	-92.0	18.2
2025-01-29 11:35:45.472731	277.5	37.1	-92.3	16.6
2025-01-29 11:35:46.633520	277.2	36.9	-91.7	19.4
2025-01-29 11:35:47.797630	276.8	36.8	-91.9	18.9
2025-01-29 11:35:48.959993	276.4	36.6	-91.8	16.8
2025-01-29 11:35:50.110174	276.1	36.4	-90.5	14.3
2025-01-29 11:35:51.244982	275.7	36.2	-90.7	15.0
2025-01-29 11:35:52.413292	275.3	36.1	-90.6	10.8
2025-01-29 11:35:53.574323	275.0	35.9	-92.2	13.3
2025-01-29 11:35:54.742470	274.7	35.7	-92.1	16.5
2025-01-29 11:35:55.901842	274.3	35.5	-92.2	9.8
2025-01-29 11:35:57.069094	274.0	35.3	-91.7	8.0
2025-01-29 11:35:58.232375	273.6	35.2	-91.6	12.8
2025-01-29 11:35:59.394249	273.3	35.0	-91.9	5.7
2025-01-29 11:36:00.551358	273.0	34.8	-92.0	6.5
2025-01-29 11:36:01.706882	272.7	34.6	-92.0	13.7
2025-01-29 11:36:02.880426	272.3	34.4	-91.9	8.3
2025-01-29 11:36:04.039707	272.0	34.3	-92.0	8.2
2025-01-29 11:36:05.198656	271.7	34.1	-91.7	11.9
2025-01-29 11:36:06.361893	271.4	33.9	-91.5	9.5
2025-01-29 11:36:07.523225	271.1	33.7	-92.0	11.7
2025-01-29 11:36:08.688327	270.8	33.5	-92.2	18.0
2025-01-29 11:36:09.845585	270.5	33.4	-91.9	15.9
2025-01-29 11:36:11.015289	270.2	33.2	-92.1	16.3
2025-01-29 11:36:12.176116	269.9	33.0	-91.5	19.1
2025-01-29 11:36:13.333920	269.6	32.8	-91.7	16.9
2025-01-29 11:36:14.495093	269.3	32.6	-91.8	16.6
2025-01-29 11:36:15.653845	269.0	32.5	-92.2	16.6
2025-01-29 11:36:16.817204	268.7	32.3	-92.2	17.6
2025-01-29 11:36:17.977586	268.5	32.1	-92.0	15.7
2025-01-29 11:36:19.137874	268.2	31.9	-91.9	16.0
2025-01-29 11:36:20.300251	267.9	31.8	-91.8	14.2
2025-01-29 11:36:21.456961	267.7	31.6	-92.0	11.0
2025-01-29 11:36:22.623472	267.4	31.4	-91.6	14.9
2025-01-29 11:36:23.774659	267.1	31.2	-92.0	14.0
2025-01-29 11:36:24.895738	266.9	31.1	-91.5	8.8
2025-01-29 11:36:26.016121	266.6	30.9	-91.9	6.9
2025-01-29 11:36:27.139136	266.4	30.7	-91.7	10.2
2025-01-29 11:36:28.260894	266.1	30.6	-91.2	9.7
2025-01-29 11:36:29.382055	265.9	30.4	-91.9	7.0
2025-01-29 11:36:30.501990	265.7	30.2	-91.8	9.2
2025-01-29 11:36:31.621803	265.4	30.1	-91.5	11.7
2025-01-29 11:36:32.742412	265.2	29.9	-91.8	7.6
2025-01-29 11:36:33.866419	265.0	29.7	-91.6	7.4
2025-01-29 11:36:35.004302	264.7	29.5	-91.8	9.8
2025-01-29 11:36:36.168130	264.5	29.4	-91.3	8.2
2025-01-29 11:36:37.331548	264.3	29.2	-92.0	10.4
2025-01-29 11:36:38.494041	264.0	29.0	-90.5	7.1
2025-01-29 11:36:39.646978	263.8	28.9	-90.8	7.0
2025-01-29 11:36:40.817037	263.6	28.7	-90.7	8.1
2025-01-29 11:36:41.973192	263.4	28.5	-91.0	5.4
2025-01-29 11:36:43.134041	263.1	28.4	-90.7	7.1
2025-01-29 11:36:44.298963	262.9	28.2	-89.6	8.4
2025-01-29 11:36:45.461234	262.7	28.0	-91.7	4.2
2025-01-29 11:36:46.613709	262.5	27.9	-91.6	7.3
2025-01-29 11:36:47.783332	262.3	27.7	-91.6	7.3
2025-01-29 11:36:48.943391	262.1	27.5	-91.8	7.3
2025-01-29 11:36:50.100770	261.9	27.4	-91.7	9.6
2025-01-29 11:36:51.260721	261.7	27.2	-92.1	9.8
2025-01-29 11:36:52.425476	261.5	27.0	-92.1	8.5
2025-01-29 11:36:53.584929	261.3	26.9	-91.6	10.5
2025-01-29 11:36:54.746361	261.1	26.7	-91.6	11.0
2025-01-29 11:36:55.909617	260.9	26.5	-92.0	11.2
2025-01-29 11:36:57.070270	260.7	26.4	-91.9	10.7
2025-01-29 11:36:58.227679	260.5	26.2	-91.8	8.9
2025-01-29 11:36:59.393315	260.3	26.1	-92.0	9.5
2025-01-29 11:37:00.547478	260.1	25.9	-92.2	8.8
2025-01-29 11:37:01.704949	259.9	25.7	-92.2	9.9
2025-01-29 11:37:02.873150	259.7	25.6	-92.0	5.5
2025-01-29 11:37:04.033782	259.6	25.4	-91.7	6.3
2025-01-29 11:37:05.196937	259.4	25.3	-91.5	6.4
2025-01-29 11:37:06.352869	259.2	25.1	-91.6	5.5
2025-01-29 11:37:07.515596	259.0	25.0	-91.7	4.1
2025-01-29 11:37:08.679160	258.8	24.8	-91.6	10.2
2025-01-29 11:37:09.837298	258.7	24.6	-91.9	10.5
2025-01-29 11:37:10.996422	258.5	24.5	-92.0	12.6
2025-01-29 11:37:12.158900	258.3	24.3	-91.4	11.5
2025-01-29 11:37:13.315398	258.2	24.2	-91.5	11.0
2025-01-29 11:37:14.477779	258.0	24.0	-91.9	10.0
2025-01-29 11:37:15.642931	257.8	23.9	-91.8	8.6
2025-01-29 11:37:16.798757	257.7	23.7	-92.0	7.0
2025-01-29 11:37:17.965534	257.5	23.6	-92.0	8.0
2025-01-29 11:37:19.112402	257.3	23.4	-91.8	8.3
2025-01-29 11:37:20.233257	257.2	23.3	-91.5	11.2
2025-01-29 11:37:21.353848	257.0	23.1	-91.7	8.0
2025-01-29 11:37:22.474359	256.9	23.0	-91.7	7.6
2025-01-29 11:37:23.594322	256.7	22.9	-91.9	9.6
2025-01-29 11:37:24.714684	256.6	22.7	-91.3	11.6
2025-01-29 11:37:25.836720	256.4	22.6	-91.5	7.6
2025-01-29 11:37:26.957594	256.3	22.4	-92.0	7.6
2025-01-29 11:37:28.078753	256.2	22.3	-91.7	9.7
2025-01-29 11:37:29.216370	256.0	22.1	-91.8	9.3
2025-01-29 11:37:30.385795	255.9	22.0	-91.5	10.6
2025-01-29 11:37:31.546410	255.7	21.9	-90.7	10.0
2025-01-29 11:37:32.717089	255.6	21.7	-90.6	10.6
2025-01-29 11:37:33.882999	255.4	21.6	-90.5	7.7
2025-01-29 11:37:35.045975	255.3	21.4	-90.0	9.5
2025-01-29 11:37:36.209402	255.2	21.3	-90.5	8.9
2025-01-29 11:37:37.367551	255.0	21.1	-90.3	5.8
2025-01-29 11:37:38.548611	254.9	21.0	-91.8	7.7
2025-01-29 11:37:39.708794	254.7	20.9	-91.3	12.2
2025-01-29 11:37:40.868268	254.6	20.7	-91.4	7.8
2025-01-29 11:37:42.025257	254.5	20.6	-91.9	8.7
2025-01-29 11:37:43.186183	254.3	20.5	-91.9	9.0
2025-01-29 11:37:44.352163	254.2	20.3	-91.8	10.0
2025-01-29 11:37:45.511967	254.1	20.2	-91.8	8.1
2025-01-29 11:37:46.677951	254.0	20.0	-91.6	8.0
2025-01-29 11:37:47.839770	253.8	19.9	-92.2	8.4
2025-01-29 11:37:48.996199	253.7	19.8	-91.8	6.8
2025-01-29 11:37:50.150076	253.6	19.6	-91.6	7.2
2025-01-29 11:37:51.307996	253.5	19.5	-91.8	6.7
2025-01-29 11:37:52.463140	253.3	19.4	-91.9	7.5
2025-01-29 11:37:53.624251	253.2	19.2	-91.2	8.9
2025-01-29 11:37:54.785591	253.1	19.1	-91.6	6.1
2025-01-29 11:37:55.952471	253.0	19.0	-92.0	6.1
2025-01-29 11:37:57.106698	252.9	18.8	-91.8	6.9
2025-01-29 11:37:58.267244	252.7	18.7	-91.9	5.9
2025-01-29 11:37:59.429617	252.6	18.6	-91.9	6.0
2025-01-29 11:38:00.582197	252.5	18.5	-92.0	9.6
2025-01-29 11:38:01.737583	252.4	18.3	-92.0	10.9
2025-01-29 11:38:02.905106	252.3	18.2	-91.8	13.5
2025-01-29 11:38:04.066111	252.2	18.1	-91.2	14.1
2025-01-29 11:38:05.230580	252.1	17.9	-91.1	13.2
2025-01-29 11:38:06.395730	251.9	17.8	-92.0	10.8
2025-01-29 11:38:07.555978	251.8	17.7	-92.1	9.5
2025-01-29 11:38:08.723300	251.7	17.6	-91.9	13.1
2025-01-29 11:38:09.879006	251.6	17.4	-92.0	9.9
2025-01-29 11:38:11.040350	251.5	17.3	-91.6	8.0
2025-01-29 11:38:12.194010	251.4	17.2	-92.1	8.6
2025-01-29 11:38:13.364830	251.3	17.1	-91.9	7.6
2025-01-29 11:38:14.525785	251.2	16.9	-91.7	9.1
2025-01-29 11:38:15.688440	251.1	16.8	-91.8	7.7
2025-01-29 11:38:16.848505	251.0	16.7	-92.0	4.9
2025-01-29 11:38:18.024649	250.9	16.6	-92.2	9.8
2025-01-29 11:38:19.182037	250.8	16.5	-91.7	10.0
2025-01-29 11:38:20.346422	250.7	16.3	-91.5	8.7
2025-01-29 11:38:21.508102	250.6	16.2	-91.9	7.8
2025-01-29 11:38:22.668325	250.5	16.1	-92.1	11.3
2025-01-29 11:38:23.835556	250.4	16.0	-92.0	10.3
2025-01-29 11:38:24.997324	250.3	15.9	-91.5	5.6
2025-01-29 11:38:26.158878	250.2	15.7	-91.2	9.3
2025-01-29 11:38:27.315841	250.1	15.6	-91.6	8.3
2025-01-29 11:38:28.476875	250.0	15.5	-91.9	6.7
2025-01-29 11:38:29.632443	249.9	15.4	-91.8	10.4
2025-01-29 11:38:30.793897	249.8	15.3	-91.8	12.0
2025-01-29 11:38:31.951142	249.7	15.2	-92.0	11.0
2025-01-29 11:38:33.126179	249.6	15.0	-91.9	12.7
2025-01-29 11:38:34.292585	249.5	14.9	-91.8	11.2
2025-01-29 11:38:35.457562	249.5	14.8	-92.0	7.5
2025-01-29 11:38:36.614232	249.4	14.7	-91.9	9.6
2025-01-29 11:38:37.778388	249.3	14.6	-91.8	11.8
2025-01-29 11:38:38.976167	249.2	14.5	-90.8	9.0
#Closed at: 2025-01-29 11:30:08.147373