passes_logs/2025/01/29/LEX_Murmansk/LEX_Murmansk__20250129_092718_NOAA_19_rec.log

#Pass ID: 20250129_092718_NOAA 19
#Satellite: NOAA 19
#Configuration: NOAA 19
#Start time: 2025-01-29 09:27:13.274384

#LorettStation: 1.0.0 05.05.2024
#Station: LEX_Murmansk
#Location: 33.156738 lon 68.926811 lat
#TLE: 1 33591U 09005A   25027.88922411  .00000392  00000+0  23338-3 0  9991
#TLE: 2 33591  99.0173  91.7499 0013972  22.5257 337.6525 14.13270697823101

#Time	Az	El	Level	SNR
2025-01-29 09:27:25.403203	24.6	16.3	-90.5	2.8
2025-01-29 09:27:27.707228	24.5	16.6	-90.7	1.9
2025-01-29 09:27:30.109191	24.5	16.8	-91.4	1.4
2025-01-29 09:27:32.415335	24.4	17.1	-91.6	2.5
2025-01-29 09:27:34.723097	24.3	17.3	-91.6	1.9
2025-01-29 09:27:37.018801	24.2	17.6	-91.7	2.6
2025-01-29 09:27:39.332839	24.2	17.9	-91.3	1.5
2025-01-29 09:27:41.653697	24.1	18.2	-91.7	2.9
2025-01-29 09:27:43.953930	24.0	18.4	-90.8	1.8
2025-01-29 09:27:46.254786	23.9	18.7	-91.1	4.8
2025-01-29 09:27:48.551575	23.9	19.0	-91.3	4.4
2025-01-29 09:27:50.857961	23.8	19.3	-91.5	4.4
2025-01-29 09:27:53.155461	23.7	19.6	-91.6	3.0
2025-01-29 09:27:55.463112	23.6	19.8	-91.6	6.6
2025-01-29 09:27:57.772373	23.5	20.1	-91.4	7.5
2025-01-29 09:28:00.067986	23.4	20.4	-91.5	5.1
2025-01-29 09:28:02.362232	23.3	20.7	-90.9	5.4
2025-01-29 09:28:04.662248	23.3	21.0	-91.4	7.7
2025-01-29 09:28:06.970734	23.2	21.3	-91.5	5.3
2025-01-29 09:28:09.260358	23.1	21.7	-91.6	2.1
2025-01-29 09:28:11.556302	23.0	22.0	-91.7	9.0
2025-01-29 09:28:13.858826	22.9	22.3	-91.4	7.6
2025-01-29 09:28:16.156314	22.8	22.6	-91.5	8.5
2025-01-29 09:28:18.453744	22.7	22.9	-90.4	8.4
2025-01-29 09:28:20.753661	22.6	23.3	-91.1	8.3
2025-01-29 09:28:23.052297	22.4	23.6	-90.9	2.0
2025-01-29 09:28:25.351401	22.3	23.9	-90.8	2.4
2025-01-29 09:28:27.644539	22.2	24.3	-91.5	7.8
2025-01-29 09:28:29.946957	22.1	24.6	-91.8	8.8
2025-01-29 09:28:32.247849	22.0	25.0	-90.5	4.3
2025-01-29 09:28:34.554476	21.9	25.3	-91.1	9.6
2025-01-29 09:28:36.856862	21.7	25.7	-90.9	10.4
2025-01-29 09:28:39.154129	21.6	26.0	-91.7	4.4
2025-01-29 09:28:41.450871	21.5	26.4	-90.7	3.0
2025-01-29 09:28:43.762631	21.3	26.8	-90.9	7.1
2025-01-29 09:28:46.060951	21.2	27.2	-91.7	13.8
2025-01-29 09:28:48.354660	21.0	27.5	-91.1	4.7
2025-01-29 09:28:50.654047	20.9	27.9	-91.7	8.3
2025-01-29 09:28:52.955160	20.7	28.3	-91.7	11.4
2025-01-29 09:28:55.254309	20.6	28.7	-91.7	5.0
2025-01-29 09:28:57.556559	20.4	29.1	-91.5	1.5
2025-01-29 09:28:59.859498	20.3	29.5	-91.8	3.5
2025-01-29 09:29:02.162191	20.1	30.0	-91.4	9.2
2025-01-29 09:29:04.461449	19.9	30.4	-91.7	7.8
2025-01-29 09:29:06.770390	19.8	30.8	-91.9	6.7
2025-01-29 09:29:09.072137	19.6	31.2	-91.7	13.2
2025-01-29 09:29:11.373019	19.4	31.7	-91.3	7.2
2025-01-29 09:29:13.678388	19.2	32.1	-91.4	5.7
2025-01-29 09:29:15.980081	19.0	32.6	-91.4	3.6
2025-01-29 09:29:18.284585	18.8	33.0	-90.6	6.3
2025-01-29 09:29:20.590152	18.6	33.5	-90.6	12.4
2025-01-29 09:29:22.887734	18.4	34.0	-90.9	6.8
2025-01-29 09:29:25.194665	18.1	34.5	-91.0	8.2
2025-01-29 09:29:27.501140	17.9	35.0	-91.5	13.6
2025-01-29 09:29:29.802145	17.7	35.4	-91.4	8.6
2025-01-29 09:29:32.108953	17.4	35.9	-91.2	3.0
2025-01-29 09:29:34.418911	17.2	36.5	-91.5	4.8
2025-01-29 09:29:36.715156	16.9	37.0	-91.3	10.5
2025-01-29 09:29:39.027074	16.6	37.5	-91.6	15.3
2025-01-29 09:29:41.323555	16.4	38.0	-91.5	8.1
2025-01-29 09:29:43.627080	16.1	38.6	-91.5	11.3
2025-01-29 09:29:45.934830	15.8	39.1	-91.7	12.3
2025-01-29 09:29:48.250179	15.5	39.7	-91.6	11.5
2025-01-29 09:29:50.549644	15.2	40.2	-91.8	6.6
2025-01-29 09:29:52.858166	14.8	40.8	-91.4	2.8
2025-01-29 09:29:55.152982	14.5	41.4	-91.5	11.1
2025-01-29 09:29:57.470494	14.1	42.0	-91.8	17.1
2025-01-29 09:29:59.772455	13.8	42.5	-91.3	11.6
2025-01-29 09:30:02.073561	13.4	43.1	-91.8	11.8
2025-01-29 09:30:04.375003	13.0	43.8	-91.6	15.6
2025-01-29 09:30:06.688894	12.6	44.4	-91.5	18.9
2025-01-29 09:30:08.989218	12.1	45.0	-91.6	11.2
2025-01-29 09:30:11.298437	11.7	45.6	-90.9	3.7
2025-01-29 09:30:14.113415	11.1	46.4	-91.0	6.9
2025-01-29 09:30:16.410937	10.6	47.1	-91.1	13.4
2025-01-29 09:30:18.707269	10.1	47.7	-91.2	14.0
2025-01-29 09:30:21.002499	9.6	48.4	-91.3	12.2
2025-01-29 09:30:23.305783	9.0	49.1	-91.2	10.0
2025-01-29 09:30:25.613938	8.4	49.7	-89.6	12.9
2025-01-29 09:30:27.914979	7.8	50.4	-90.3	10.3
2025-01-29 09:30:30.212310	7.2	51.1	-90.4	4.6
2025-01-29 09:30:32.535961	6.5	51.8	-91.3	5.9
2025-01-29 09:30:34.840389	5.8	52.5	-91.9	2.5
2025-01-29 09:30:37.147132	5.0	53.2	-90.6	6.4
2025-01-29 09:30:39.444681	4.2	53.9	-90.7	3.3
2025-01-29 09:30:41.753914	3.4	54.7	-90.6	5.1
2025-01-29 09:30:44.059515	2.6	55.4	-91.3	9.3
2025-01-29 09:30:46.366607	1.7	56.1	-91.1	11.0
2025-01-29 09:30:48.685452	0.7	56.8	-91.4	9.7
2025-01-29 09:30:50.993561	359.7	57.6	-91.6	12.2
2025-01-29 09:30:53.298848	358.6	58.3	-91.5	9.4
2025-01-29 09:30:55.608149	357.5	59.0	-91.4	12.2
2025-01-29 09:30:57.921735	356.3	59.8	-91.4	11.2
2025-01-29 09:31:00.230807	355.0	60.5	-91.2	4.0
2025-01-29 09:31:02.536310	353.7	61.2	-91.3	5.0
2025-01-29 09:31:04.843051	352.3	61.9	-91.3	5.9
2025-01-29 09:31:07.147157	350.8	62.6	-91.4	15.2
2025-01-29 09:31:09.435714	349.2	63.3	-91.0	20.5
2025-01-29 09:31:11.750925	347.5	64.0	-91.4	17.2
2025-01-29 09:31:14.057567	345.7	64.6	-91.5	12.9
2025-01-29 09:31:16.358657	343.9	65.3	-91.0	5.1
2025-01-29 09:31:18.658236	341.9	65.9	-90.4	11.7
2025-01-29 09:31:20.957129	339.8	66.5	-90.1	10.2
2025-01-29 09:31:23.256266	337.5	67.1	-90.5	11.4
2025-01-29 09:31:25.564364	335.2	67.6	-91.5	12.7
2025-01-29 09:31:27.860089	332.7	68.1	-91.9	4.7
2025-01-29 09:31:30.157201	330.1	68.6	-91.5	7.8
2025-01-29 09:31:32.459715	327.4	69.0	-91.9	3.5
2025-01-29 09:31:34.761483	324.5	69.4	-91.7	5.1
2025-01-29 09:31:37.061668	321.6	69.8	-91.5	6.5
2025-01-29 09:31:39.367826	318.5	70.1	-91.3	3.1
2025-01-29 09:31:41.679340	315.4	70.3	-91.4	3.4
2025-01-29 09:31:43.987730	312.2	70.5	-91.3	3.1
2025-01-29 09:31:46.302667	308.9	70.6	-91.3	9.5
2025-01-29 09:31:48.614245	305.6	70.6	-91.6	8.3
2025-01-29 09:31:50.917747	302.3	70.6	-91.2	11.5
2025-01-29 09:31:53.225325	299.0	70.6	-91.2	17.1
2025-01-29 09:31:55.526577	295.7	70.5	-91.5	14.6
2025-01-29 09:31:57.836610	292.5	70.3	-91.9	16.8
2025-01-29 09:32:00.128769	289.4	70.0	-91.3	20.0
2025-01-29 09:32:02.422723	286.3	69.8	-91.2	17.8
2025-01-29 09:32:04.728342	283.4	69.4	-91.7	17.9
2025-01-29 09:32:07.030294	280.6	69.0	-91.6	18.1
2025-01-29 09:32:09.335755	277.8	68.6	-91.3	21.0
2025-01-29 09:32:11.633870	275.2	68.1	-91.7	21.0
2025-01-29 09:32:13.943139	272.8	67.6	-91.2	23.7
2025-01-29 09:32:16.249187	270.4	67.1	-91.2	20.5
2025-01-29 09:32:18.554024	268.2	66.5	-91.7	20.8
2025-01-29 09:32:20.865178	266.1	65.9	-91.4	20.9
2025-01-29 09:32:23.172138	264.1	65.3	-91.2	20.1
2025-01-29 09:32:25.479111	262.2	64.6	-90.9	18.1
2025-01-29 09:32:27.771366	260.4	64.0	-90.5	16.5
2025-01-29 09:32:30.069890	258.7	63.3	-91.2	15.9
2025-01-29 09:32:32.371109	257.2	62.6	-91.1	16.7
2025-01-29 09:32:34.673446	255.7	61.9	-91.2	18.9
2025-01-29 09:32:36.981259	254.3	61.2	-90.9	18.6
2025-01-29 09:32:39.283152	252.9	60.5	-90.4	17.5
2025-01-29 09:32:41.585784	251.7	59.7	-91.1	16.3
2025-01-29 09:32:43.885863	250.5	59.0	-91.2	15.5
2025-01-29 09:32:46.188222	249.4	58.3	-91.3	10.2
2025-01-29 09:32:48.487362	248.3	57.6	-91.0	3.9
2025-01-29 09:32:50.783753	247.3	56.8	-91.5	9.6
2025-01-29 09:32:53.078100	246.3	56.1	-91.2	6.9
2025-01-29 09:32:55.374867	245.4	55.4	-91.2	11.2
2025-01-29 09:32:57.678407	244.6	54.7	-91.1	11.5
2025-01-29 09:33:00.013604	243.7	53.9	-91.7	6.7
2025-01-29 09:33:02.310829	243.0	53.2	-91.3	10.1
2025-01-29 09:33:04.616762	242.2	52.5	-91.6	5.2
2025-01-29 09:33:06.912354	241.5	51.8	-91.6	5.9
2025-01-29 09:33:09.218154	240.9	51.1	-91.6	2.5
2025-01-29 09:33:11.527640	240.2	50.4	-91.7	1.9
2025-01-29 09:33:13.831073	239.6	49.7	-91.5	4.6
2025-01-29 09:33:16.136313	239.0	49.1	-91.5	3.7
2025-01-29 09:33:18.446271	238.4	48.4	-91.5	8.3
2025-01-29 09:33:20.743358	237.9	47.7	-89.6	8.7
2025-01-29 09:33:23.048612	237.4	47.1	-91.8	7.6
2025-01-29 09:33:25.354194	236.9	46.4	-91.1	13.8
2025-01-29 09:33:27.657812	236.4	45.8	-91.6	10.5
2025-01-29 09:33:29.949537	236.0	45.1	-91.4	6.7
2025-01-29 09:33:32.255595	235.5	44.5	-91.2	11.9
2025-01-29 09:33:34.561456	235.1	43.9	-91.7	4.7
2025-01-29 09:33:36.862958	234.7	43.3	-90.6	7.1
2025-01-29 09:33:39.161383	234.3	42.7	-91.6	9.8
2025-01-29 09:33:41.457404	234.0	42.1	-91.4	12.9
2025-01-29 09:33:43.766328	233.6	41.5	-91.7	16.4
2025-01-29 09:33:46.068266	233.3	40.9	-89.1	6.6
2025-01-29 09:33:48.372235	232.9	40.4	-90.6	14.3
2025-01-29 09:33:50.675376	232.6	39.8	-91.0	14.7
2025-01-29 09:33:52.972481	232.3	39.2	-91.4	11.9
2025-01-29 09:33:55.281418	232.0	38.7	-91.6	17.0
2025-01-29 09:33:57.584184	231.7	38.2	-91.4	17.0
2025-01-29 09:33:59.883492	231.4	37.6	-91.8	17.5
2025-01-29 09:34:02.178672	231.1	37.1	-91.5	12.9
2025-01-29 09:34:04.485919	230.9	36.6	-91.1	11.8
2025-01-29 09:34:06.786440	230.6	36.1	-91.6	14.8
2025-01-29 09:34:09.083244	230.4	35.6	-91.5	6.5
2025-01-29 09:34:11.380150	230.1	35.1	-91.3	12.0
2025-01-29 09:34:13.681096	229.9	34.6	-91.5	14.1
2025-01-29 09:34:15.988141	229.7	34.1	-91.8	16.1
2025-01-29 09:34:18.282956	229.5	33.6	-91.2	16.7
2025-01-29 09:34:20.589579	229.2	33.2	-91.5	12.2
2025-01-29 09:34:22.894369	229.0	32.7	-91.3	12.5
2025-01-29 09:34:25.195999	228.8	32.3	-91.4	15.7
2025-01-29 09:34:27.498311	228.6	31.8	-91.5	11.1
2025-01-29 09:34:29.804627	228.5	31.4	-91.5	14.3
2025-01-29 09:34:32.100216	228.3	30.9	-91.5	14.5
2025-01-29 09:34:34.394546	228.1	30.5	-91.6	12.2
2025-01-29 09:34:36.695561	227.9	30.1	-91.9	11.1
2025-01-29 09:34:38.992725	227.8	29.7	-91.7	2.4
2025-01-29 09:34:41.293777	227.6	29.3	-91.8	5.5
2025-01-29 09:34:43.589626	227.4	28.9	-92.0	2.7
2025-01-29 09:34:45.907544	227.3	28.5	-91.7	6.4
2025-01-29 09:34:48.205834	227.1	28.1	-91.6	3.5
2025-01-29 09:34:50.501318	227.0	27.7	-92.0	1.8
2025-01-29 09:34:52.797825	226.8	27.3	-91.3	0.9
2025-01-29 09:34:55.092591	226.7	26.9	-90.9	1.1
2025-01-29 09:34:57.392627	226.5	26.5	-91.2	2.7
2025-01-29 09:34:59.694984	226.4	26.2	-91.8	3.5
2025-01-29 09:35:01.992028	226.3	25.8	-92.0	2.0
2025-01-29 09:35:04.292214	226.2	25.4	-91.5	4.4
2025-01-29 09:35:06.595017	226.0	25.1	-92.1	4.0
2025-01-29 09:35:08.886778	225.9	24.7	-91.9	6.7
2025-01-29 09:35:11.189514	225.8	24.4	-91.6	6.5
2025-01-29 09:35:13.503906	225.7	24.0	-91.9	5.8
2025-01-29 09:35:15.800876	225.6	23.7	-91.8	11.4
2025-01-29 09:35:18.100948	225.4	23.4	-91.7	9.7
2025-01-29 09:35:20.396933	225.3	23.0	-92.0	10.9
2025-01-29 09:35:22.699654	225.2	22.7	-92.0	9.6
2025-01-29 09:35:25.006089	225.1	22.4	-92.0	5.4
2025-01-29 09:35:27.307393	225.0	22.1	-92.1	10.8
2025-01-29 09:35:29.608803	224.9	21.8	-91.8	8.9
2025-01-29 09:35:31.914790	224.8	21.4	-92.1	12.0
2025-01-29 09:35:34.210306	224.7	21.1	-91.4	9.9
2025-01-29 09:35:36.510650	224.6	20.8	-91.5	6.7
2025-01-29 09:35:38.809288	224.6	20.5	-92.1	9.3
2025-01-29 09:35:41.123383	224.5	20.2	-91.8	5.1
2025-01-29 09:35:43.428311	224.4	19.9	-91.4	5.3
2025-01-29 09:35:45.716263	224.3	19.7	-91.9	9.9
2025-01-29 09:35:48.020732	224.2	19.4	-91.6	9.1
2025-01-29 09:35:50.324908	224.1	19.1	-91.5	9.4
2025-01-29 09:35:52.629409	224.0	18.8	-91.9	5.3
2025-01-29 09:35:54.934919	224.0	18.5	-91.7	6.2
2025-01-29 09:35:57.237512	223.9	18.2	-91.0	9.2
2025-01-29 09:35:59.532204	223.8	18.0	-91.3	7.7
2025-01-29 09:36:01.822495	223.7	17.7	-91.7	10.2
2025-01-29 09:36:04.121584	223.7	17.4	-91.5	4.8
2025-01-29 09:36:06.433328	223.6	17.2	-91.7	4.4
2025-01-29 09:36:08.735567	223.5	16.9	-91.7	5.7
2025-01-29 09:36:11.034659	223.4	16.7	-91.5	6.2
2025-01-29 09:36:13.344107	223.4	16.4	-91.7	5.5
2025-01-29 09:36:15.644763	223.3	16.2	-91.6	5.0
2025-01-29 09:36:17.942652	223.2	15.9	-92.1	3.7
2025-01-29 09:36:20.250196	223.2	15.7	-91.8	4.1
2025-01-29 09:36:22.553417	223.1	15.4	-91.4	3.5
2025-01-29 09:36:24.848752	223.1	15.2	-91.9	5.3
2025-01-29 09:36:27.152367	223.0	14.9	-92.0	5.1
2025-01-29 09:36:29.451518	222.9	14.7	-92.3	4.4
2025-01-29 09:36:31.749828	222.9	14.5	-92.3	2.7
#Closed at: 2025-01-29 09:27:18.189880