passes_logs/2026/01/16/PlanumMoscow/PlanumMoscow__20260116_075557_METOP-C_rec.log

#Pass ID: 20260116_075557_METOP-C
#Satellite: METOP-C
#Configuration: METOP-C
#Start time: 2026-01-16 07:56:02.428005

#LorettStation: 1.0.0 05.05.2024
#Station: PlanumMoscow
#Location: 37.6253844 lon 55.6713361 lat
#TLE: 1 43689U 18087A   25293.88981035  .00000265  00000+0  14109-3 0  9997
#TLE: 2 43689  98.7006 352.4487 0002041 122.1097 238.0279 14.21482740360838

#Time	Az	El	Level	SNR
2026-01-16 07:59:40.868784	11.5	29.3	-56.8	0.0
2026-01-16 07:59:43.113795	11.4	29.7	-60.2	0.0
2026-01-16 07:59:45.355822	11.3	30.1	-59.2	0.0
2026-01-16 07:59:47.593327	11.2	30.5	-60.1	0.0
2026-01-16 07:59:49.833841	11.1	31.0	-59.3	0.0
2026-01-16 07:59:52.076356	11.0	31.4	-60.0	0.0
2026-01-16 07:59:54.316870	10.9	31.9	-59.8	0.0
2026-01-16 07:59:56.557880	10.8	32.3	-60.2	0.0
2026-01-16 07:59:58.797898	10.7	32.8	-61.8	0.0
2026-01-16 08:00:01.039413	10.6	33.3	-61.3	0.0
2026-01-16 08:00:03.280919	10.4	33.7	-62.1	0.0
2026-01-16 08:00:05.524930	10.3	34.2	-60.9	0.0
2026-01-16 08:00:07.768941	10.2	34.7	-61.3	0.0
2026-01-16 08:00:10.015970	10.0	35.2	-59.4	0.0
2026-01-16 08:00:12.260477	9.9	35.7	-60.3	0.0
2026-01-16 08:00:14.504993	9.8	36.3	-61.6	0.0
2026-01-16 08:00:16.751012	9.6	36.8	-58.8	0.0
2026-01-16 08:00:18.994527	9.4	37.3	-59.1	0.0
2026-01-16 08:00:21.239034	9.3	37.9	-58.7	0.0
2026-01-16 08:00:23.482052	9.1	38.4	-62.2	0.0
2026-01-16 08:00:25.725072	8.9	39.0	-60.7	0.0
2026-01-16 08:00:27.969578	8.8	39.5	-58.6	0.0
2026-01-16 08:00:30.213589	8.6	40.1	-59.6	0.0
2026-01-16 08:00:32.457600	8.4	40.7	-60.0	0.0
2026-01-16 08:00:34.701611	8.2	41.3	-60.4	0.0
2026-01-16 08:00:36.945621	8.0	41.9	-61.7	0.0
2026-01-16 08:00:39.189633	7.8	42.5	-61.1	0.0
2026-01-16 08:00:41.432652	7.5	43.2	-62.4	0.0
2026-01-16 08:00:43.676168	7.3	43.8	-62.0	0.0
2026-01-16 08:00:45.920178	7.0	44.4	-61.9	0.0
2026-01-16 08:00:48.163197	6.8	45.1	-62.4	0.0
2026-01-16 08:00:50.407226	6.5	45.8	-61.9	0.0
2026-01-16 08:00:52.651244	6.2	46.4	-64.3	0.0
2026-01-16 08:00:54.894760	6.0	47.1	-63.1	0.0
2026-01-16 08:00:57.138771	5.6	47.8	-64.6	0.0
2026-01-16 08:00:59.386287	5.3	48.5	-64.3	0.0
2026-01-16 08:01:01.630297	5.0	49.3	-61.4	0.0
2026-01-16 08:01:03.873317	4.6	50.0	-63.1	0.0
2026-01-16 08:01:06.122338	4.3	50.7	-62.2	0.0
2026-01-16 08:01:08.365852	3.9	51.5	-63.4	0.0
2026-01-16 08:01:10.609863	3.5	52.3	-65.5	0.0
2026-01-16 08:01:12.853380	3.0	53.0	-63.6	0.0
2026-01-16 08:01:15.097391	2.6	53.8	-65.8	0.0
2026-01-16 08:01:17.341402	2.1	54.6	-63.7	0.0
2026-01-16 08:01:19.584424	1.6	55.4	-66.0	0.0
2026-01-16 08:01:21.828931	1.0	56.2	-64.7	0.0
2026-01-16 08:01:24.072952	0.4	57.1	-64.4	0.0
2026-01-16 08:01:26.317459	359.8	57.9	-65.4	0.0
2026-01-16 08:01:28.560976	359.2	58.7	-64.7	0.0
2026-01-16 08:01:30.804986	358.5	59.6	-64.1	0.0
2026-01-16 08:01:33.051494	357.7	60.4	-65.9	0.0
2026-01-16 08:01:35.294513	356.9	61.3	-66.2	0.0
2026-01-16 08:01:37.537533	356.1	62.2	-65.9	0.0
2026-01-16 08:01:39.785545	355.2	63.1	-64.7	0.0
2026-01-16 08:01:42.030061	354.2	63.9	-66.9	0.0
2026-01-16 08:01:44.273080	353.1	64.8	-67.0	0.0
2026-01-16 08:01:46.516101	351.9	65.7	-67.3	0.0
2026-01-16 08:01:48.761129	350.7	66.6	-67.3	0.0
2026-01-16 08:01:51.005636	349.3	67.5	-67.6	0.0
2026-01-16 08:01:53.249153	347.8	68.4	-67.3	0.0
2026-01-16 08:01:55.493165	346.2	69.2	-66.5	0.0
2026-01-16 08:01:57.737672	344.4	70.1	-67.6	0.0
2026-01-16 08:01:59.981683	342.4	71.0	-66.7	0.0
2026-01-16 08:02:02.225694	340.3	71.8	-67.6	0.0
2026-01-16 08:02:04.469211	337.9	72.6	-66.6	0.0
2026-01-16 08:02:06.713223	335.3	73.4	-66.8	0.0
2026-01-16 08:02:08.956737	332.4	74.2	-66.5	0.0
2026-01-16 08:02:11.200749	329.2	74.9	-66.3	0.0
2026-01-16 08:02:13.443769	325.7	75.6	-66.9	0.0
2026-01-16 08:02:15.687780	321.9	76.2	-66.2	0.0
2026-01-16 08:02:17.930306	317.7	76.7	-67.6	0.0
2026-01-16 08:02:20.174324	313.1	77.2	-68.1	0.0
2026-01-16 08:02:22.418831	308.2	77.6	-68.1	0.0
2026-01-16 08:02:24.663843	303.0	77.9	-67.5	0.0
2026-01-16 08:02:26.907853	297.6	78.1	-67.6	0.0
2026-01-16 08:02:29.150882	292.0	78.2	-67.3	0.0
2026-01-16 08:02:31.393901	286.4	78.2	-67.4	0.0
2026-01-16 08:02:33.638408	280.8	78.1	-67.6	0.0
2026-01-16 08:02:35.881924	275.4	77.9	-67.6	0.0
2026-01-16 08:02:38.125439	270.3	77.6	-67.9	0.0
2026-01-16 08:02:40.369449	265.5	77.1	-67.0	0.0
2026-01-16 08:02:42.613461	261.0	76.6	-67.3	0.0
2026-01-16 08:02:44.863473	256.8	76.1	-68.2	0.0
2026-01-16 08:02:47.107486	253.0	75.4	-68.0	0.0
2026-01-16 08:02:49.351496	249.6	74.7	-68.4	0.0
2026-01-16 08:02:51.595507	246.5	74.0	-67.7	0.0
2026-01-16 08:02:53.841519	243.6	73.2	-67.5	0.0
2026-01-16 08:02:56.086530	241.1	72.4	-67.8	0.0
2026-01-16 08:02:58.331044	238.7	71.6	-68.0	0.0
2026-01-16 08:03:00.577552	236.6	70.8	-67.7	0.0
2026-01-16 08:03:02.821563	234.7	69.9	-67.5	0.0
2026-01-16 08:03:05.065574	233.0	69.0	-67.7	0.0
2026-01-16 08:03:07.308594	231.4	68.2	-68.1	0.0
2026-01-16 08:03:09.551116	229.9	67.3	-67.9	0.0
2026-01-16 08:03:11.794632	228.5	66.4	-68.4	0.0
2026-01-16 08:03:14.037652	227.3	65.5	-68.1	0.0
2026-01-16 08:03:16.279679	226.2	64.6	-67.7	0.0
2026-01-16 08:03:18.523700	225.1	63.7	-66.6	0.0
2026-01-16 08:03:20.767222	224.1	62.8	-67.6	0.0
2026-01-16 08:03:23.011729	223.2	62.0	-67.2	0.0
2026-01-16 08:03:25.256739	222.4	61.1	-66.7	0.0
2026-01-16 08:03:27.500767	221.6	60.2	-67.1	0.0
2026-01-16 08:03:29.744283	220.9	59.4	-67.8	0.0
2026-01-16 08:03:31.988294	220.2	58.5	-67.5	0.0
2026-01-16 08:03:34.231313	219.5	57.7	-67.4	0.0
2026-01-16 08:03:36.476820	218.9	56.8	-66.5	0.0
2026-01-16 08:03:38.721840	218.3	56.0	-67.1	0.0
2026-01-16 08:03:40.965851	217.8	55.2	-66.1	0.0
2026-01-16 08:03:43.209871	217.3	54.4	-66.5	0.0
2026-01-16 08:03:45.453387	216.8	53.6	-65.6	0.0
2026-01-16 08:03:47.696902	216.4	52.8	-63.5	0.0
2026-01-16 08:03:49.940913	215.9	52.0	-65.4	0.0
2026-01-16 08:03:52.183932	215.5	51.3	-65.1	0.0
2026-01-16 08:03:54.428449	215.1	50.5	-64.1	0.0
2026-01-16 08:03:56.671964	214.8	49.8	-63.5	0.0
2026-01-16 08:03:58.914487	214.4	49.0	-64.5	0.0
2026-01-16 08:04:01.157507	214.1	48.3	-64.2	0.0
2026-01-16 08:04:03.401021	213.8	47.6	-64.9	0.0
2026-01-16 08:04:05.645527	213.5	46.9	-62.8	0.0
2026-01-16 08:04:07.889539	213.2	46.2	-65.1	0.0
2026-01-16 08:04:10.133550	212.9	45.5	-64.7	0.0
2026-01-16 08:04:12.377561	212.6	44.9	-66.0	0.0
2026-01-16 08:04:14.620581	212.4	44.2	-65.2	0.0
2026-01-16 08:04:16.867097	212.1	43.6	-61.8	0.0
2026-01-16 08:04:19.111108	211.9	42.9	-62.4	0.0
2026-01-16 08:04:21.355119	211.7	42.3	-65.5	0.0
2026-01-16 08:04:23.599138	211.4	41.7	-62.5	0.0
2026-01-16 08:04:25.842157	211.2	41.1	-62.7	0.0
2026-01-16 08:04:28.084679	211.0	40.5	-61.2	0.0
2026-01-16 08:04:30.326210	210.8	39.9	-60.8	0.0
2026-01-16 08:04:32.570733	210.7	39.3	-64.1	0.0
2026-01-16 08:04:34.814249	210.5	38.7	-63.3	0.0
2026-01-16 08:04:37.057765	210.3	38.2	-64.9	0.0
2026-01-16 08:04:39.301280	210.1	37.6	-65.5	0.0
2026-01-16 08:04:41.543306	210.0	37.1	-64.4	0.0
2026-01-16 08:04:43.787813	209.8	36.5	-63.7	0.0
2026-01-16 08:04:46.029841	209.7	36.0	-64.3	0.0
2026-01-16 08:04:48.273853	209.5	35.5	-64.7	0.0
2026-01-16 08:04:50.517368	209.4	35.0	-64.3	0.0
2026-01-16 08:04:52.761875	209.2	34.5	-62.4	0.0
2026-01-16 08:04:55.004903	209.1	34.0	-64.0	0.0
2026-01-16 08:04:57.250915	209.0	33.5	-61.5	0.0
2026-01-16 08:04:59.494926	208.9	33.0	-64.7	0.0
2026-01-16 08:05:01.737944	208.7	32.6	-63.5	0.0
2026-01-16 08:05:03.982461	208.6	32.1	-64.7	0.0
2026-01-16 08:05:06.226473	208.5	31.6	-63.7	0.0
2026-01-16 08:05:08.469491	208.4	31.2	-63.9	0.0
2026-01-16 08:05:10.713007	208.3	30.7	-63.8	0.0
2026-01-16 08:05:12.956027	208.2	30.3	-64.9	0.0
2026-01-16 08:05:15.198055	208.1	29.9	-63.6	0.0
2026-01-16 08:05:17.442065	208.0	29.4	-58.5	0.0
2026-01-16 08:05:19.686076	207.9	29.0	-63.8	0.0
2026-01-16 08:05:21.930097	207.8	28.6	-64.1	0.0
2026-01-16 08:05:24.173612	207.7	28.2	-61.2	0.0
2026-01-16 08:05:26.417623	207.6	27.8	-64.4	0.0
2026-01-16 08:05:28.661634	207.5	27.4	-62.7	0.0
2026-01-16 08:05:30.905654	207.5	27.0	-61.7	0.0
2026-01-16 08:05:33.153675	207.4	26.6	-64.1	0.0
2026-01-16 08:05:35.395207	207.3	26.3	-62.9	0.0
2026-01-16 08:05:37.639723	207.2	25.9	-61.9	0.0
2026-01-16 08:05:39.883743	207.1	25.5	-64.1	0.0
2026-01-16 08:05:42.127258	207.1	25.2	-63.2	0.0
2026-01-16 08:05:44.371765	207.0	24.8	-62.3	0.0
2026-01-16 08:05:46.615775	206.9	24.4	-62.2	0.0
2026-01-16 08:05:48.863291	206.9	24.1	-65.4	0.0
2026-01-16 08:05:51.107302	206.8	23.7	-62.8	0.0
2026-01-16 08:05:53.351313	206.7	23.4	-61.0	0.0
2026-01-16 08:05:55.594829	206.7	23.1	-61.1	0.0
2026-01-16 08:05:57.838345	206.6	22.7	-60.8	0.0
2026-01-16 08:06:00.081381	206.5	22.4	-62.1	0.0
2026-01-16 08:06:02.325394	206.5	22.1	-64.4	0.5
2026-01-16 08:06:04.568908	206.4	21.8	-63.8	0.0
2026-01-16 08:06:06.812430	206.4	21.5	-60.5	0.0
2026-01-16 08:06:09.056441	206.3	21.1	-62.3	0.0
2026-01-16 08:06:11.299956	206.3	20.8	-60.6	0.0
2026-01-16 08:06:13.542974	206.2	20.5	-59.2	0.0
2026-01-16 08:06:15.784505	206.2	20.2	-60.2	0.0
2026-01-16 08:06:18.030022	206.1	19.9	-59.9	0.0
2026-01-16 08:06:20.274032	206.0	19.6	-60.6	0.3
2026-01-16 08:06:22.522050	206.0	19.4	-59.8	0.0
2026-01-16 08:06:24.765079	206.0	19.1	-62.8	1.4
2026-01-16 08:06:27.008595	205.9	18.8	-61.4	0.0
2026-01-16 08:06:29.252613	205.9	18.5	-62.2	0.0
2026-01-16 08:06:31.497129	205.8	18.2	-63.2	3.1
2026-01-16 08:06:33.741645	205.8	18.0	-59.7	0.0
2026-01-16 08:06:35.986152	205.7	17.7	-59.4	0.0
2026-01-16 08:06:38.229666	205.7	17.4	-60.1	0.0
2026-01-16 08:06:40.473678	205.6	17.1	-62.0	0.0
2026-01-16 08:06:42.717689	205.6	16.9	-59.9	0.0
2026-01-16 08:06:44.961700	205.6	16.6	-59.3	0.0
2026-01-16 08:06:47.204719	205.5	16.4	-61.8	1.2
2026-01-16 08:06:49.449227	205.5	16.1	-58.8	0.0
2026-01-16 08:06:51.693733	205.5	15.9	-59.5	0.0
2026-01-16 08:06:53.939760	205.4	15.6	-61.4	0.0
2026-01-16 08:06:56.183771	205.4	15.4	-62.0	0.6
2026-01-16 08:06:58.428277	205.3	15.1	-62.3	1.2
2026-01-16 08:07:00.672289	205.3	14.9	-60.5	0.0
2026-01-16 08:07:02.919309	205.3	14.6	-59.4	0.0
2026-01-16 08:07:05.163320	205.2	14.4	-63.2	3.3
2026-01-16 08:07:07.407331	205.2	14.2	-63.2	4.1
2026-01-16 08:07:09.650352	205.2	13.9	-63.3	3.8
2026-01-16 08:07:11.893371	205.2	13.7	-61.7	0.0
2026-01-16 08:07:14.136392	205.1	13.5	-59.4	0.0
2026-01-16 08:07:16.377924	205.1	13.3	-58.8	0.0
2026-01-16 08:07:18.624936	205.1	13.0	-60.4	0.0
2026-01-16 08:07:20.868948	205.0	12.8	-58.8	0.0
2026-01-16 08:07:23.111469	205.0	12.6	-61.9	0.0
2026-01-16 08:07:25.355480	205.0	12.4	-61.0	1.1
2026-01-16 08:07:27.600492	204.9	12.2	-62.2	0.0
2026-01-16 08:07:29.842520	204.9	11.9	-62.8	3.9
2026-01-16 08:07:32.087027	204.9	11.7	-62.5	0.8
2026-01-16 08:07:34.331554	204.9	11.5	-59.5	0.0
2026-01-16 08:07:36.575565	204.8	11.3	-60.4	0.0
2026-01-16 08:07:38.817602	204.8	11.1	-61.8	0.4
2026-01-16 08:07:41.062109	204.8	10.9	-60.3	0.0
2026-01-16 08:07:43.306129	204.8	10.7	-62.1	2.0
2026-01-16 08:07:45.548653	204.7	10.5	-61.9	0.0
2026-01-16 08:07:47.792168	204.7	10.3	-58.9	0.0
2026-01-16 08:07:50.035683	204.7	10.1	-61.2	0.0
2026-01-16 08:07:52.279197	204.7	9.9	-61.7	0.1
2026-01-16 08:07:54.523208	204.7	9.7	-57.8	0.0
2026-01-16 08:07:56.766245	204.6	9.5	-61.3	2.6
2026-01-16 08:07:59.009263	204.6	9.3	-58.9	0.0
2026-01-16 08:08:01.255284	204.6	9.1	-59.5	0.0
2026-01-16 08:08:03.497808	204.6	8.9	-61.5	0.0
2026-01-16 08:08:05.741827	204.5	8.8	-60.0	0.0
2026-01-16 08:08:07.984352	204.5	8.6	-60.6	0.0
2026-01-16 08:08:10.227867	204.5	8.4	-58.7	0.0
2026-01-16 08:08:12.471877	204.5	8.2	-60.9	0.0
2026-01-16 08:08:14.715888	204.5	8.0	-59.1	0.0
2026-01-16 08:08:16.957923	204.4	7.8	-58.5	0.0
2026-01-16 08:08:19.201439	204.4	7.7	-57.2	0.0
2026-01-16 08:08:21.443467	204.4	7.5	-55.1	0.0
2026-01-16 08:08:23.686488	204.4	7.3	-57.6	0.0
2026-01-16 08:08:25.930003	204.4	7.1	-57.3	0.0
2026-01-16 08:08:28.173517	204.4	7.0	-57.2	0.0
2026-01-16 08:08:30.418024	204.3	6.8	-59.3	0.0
2026-01-16 08:08:32.662069	204.3	6.6	-61.3	0.0
2026-01-16 08:08:34.907082	204.3	6.4	-61.1	0.0
2026-01-16 08:08:37.151101	204.3	6.3	-59.2	0.0
2026-01-16 08:08:39.393127	204.3	6.1	-62.5	0.0
2026-01-16 08:08:41.636643	204.3	5.9	-63.3	0.0
2026-01-16 08:08:43.881150	204.2	5.8	-66.8	0.0
2026-01-16 08:08:46.124169	204.2	5.6	-65.8	0.0
2026-01-16 08:08:48.368675	204.2	5.4	-69.6	0.0
2026-01-16 08:08:50.612686	204.2	5.3	-71.0	0.0
2026-01-16 08:08:52.856697	204.2	5.1	-70.3	0.0
#Closed at: 2026-01-16 07:55:57.429103