passes_logs/2026/01/16/PlanumMoscow/PlanumMoscow__20260116_011456_METEOR-M2_4_rec.log

#Pass ID: 20260116_011456_METEOR-M2 4
#Satellite: METEOR-M2 4
#Configuration: METEOR-M2 4
#Start time: 2026-01-16 01:15:01.318337

#LorettStation: 1.0.0 05.05.2024
#Station: PlanumMoscow
#Location: 37.6253844 lon 55.6713361 lat
#TLE: 1 59051U 24039A   25293.94737965  .00000087  00000+0  58459-4 0  9998
#TLE: 2 59051  98.6671 251.7071 0007726 135.4772 224.7028 14.22388966 85257

#Time	Az	El	Level	SNR
2026-01-16 01:18:39.863418	9.7	29.2	-61.6	8.6
2026-01-16 01:18:42.108454	9.6	29.6	-62.3	8.8
2026-01-16 01:18:44.351969	9.5	30.0	-62.4	8.8
2026-01-16 01:18:46.595988	9.4	30.4	-61.9	9.7
2026-01-16 01:18:48.839534	9.2	30.8	-62.6	9.5
2026-01-16 01:18:51.084049	9.1	31.3	-63.3	9.7
2026-01-16 01:18:53.328089	8.9	31.7	-63.4	9.6
2026-01-16 01:18:55.572101	8.8	32.2	-63.7	10.1
2026-01-16 01:18:57.816129	8.6	32.6	-63.4	10.5
2026-01-16 01:19:00.060659	8.5	33.1	-63.2	9.4
2026-01-16 01:19:02.305173	8.3	33.6	-63.3	9.7
2026-01-16 01:19:04.548714	8.1	34.1	-62.9	10.1
2026-01-16 01:19:06.795228	8.0	34.5	-63.8	10.5
2026-01-16 01:19:09.039271	7.8	35.0	-63.8	11.0
2026-01-16 01:19:11.283785	7.6	35.5	-63.6	11.0
2026-01-16 01:19:13.527796	7.4	36.0	-63.4	11.0
2026-01-16 01:19:15.772343	7.2	36.6	-63.4	11.5
2026-01-16 01:19:18.015867	7.0	37.1	-62.8	9.8
2026-01-16 01:19:20.259414	6.8	37.6	-63.0	10.4
2026-01-16 01:19:22.502936	6.6	38.2	-63.7	10.4
2026-01-16 01:19:24.747018	6.3	38.7	-64.1	11.4
2026-01-16 01:19:26.991524	6.1	39.3	-63.8	11.8
2026-01-16 01:19:29.237536	5.9	39.8	-63.8	11.5
2026-01-16 01:19:31.481577	5.6	40.4	-63.8	12.0
2026-01-16 01:19:33.726092	5.4	41.0	-63.8	11.5
2026-01-16 01:19:35.968660	5.1	41.6	-63.7	11.9
2026-01-16 01:19:38.213175	4.8	42.2	-63.8	11.7
2026-01-16 01:19:40.457219	4.5	42.8	-63.9	12.0
2026-01-16 01:19:42.701726	4.2	43.4	-63.3	9.9
2026-01-16 01:19:44.946270	3.9	44.1	-64.0	11.4
2026-01-16 01:19:47.190311	3.6	44.7	-64.2	10.9
2026-01-16 01:19:49.434329	3.2	45.3	-64.3	11.6
2026-01-16 01:19:51.678379	2.8	46.0	-64.3	10.7
2026-01-16 01:19:53.927399	2.5	46.7	-64.5	10.7
2026-01-16 01:19:56.170945	2.1	47.4	-64.7	10.4
2026-01-16 01:19:58.414468	1.7	48.0	-64.4	10.3
2026-01-16 01:20:00.662517	1.2	48.7	-64.7	9.5
2026-01-16 01:20:02.906528	0.8	49.4	-64.3	10.1
2026-01-16 01:20:05.151035	0.3	50.2	-64.4	9.8
2026-01-16 01:20:07.395076	359.8	50.9	-64.5	9.6
2026-01-16 01:20:09.642630	359.3	51.6	-64.5	9.2
2026-01-16 01:20:11.887137	358.7	52.4	-64.6	9.0
2026-01-16 01:20:14.130204	358.2	53.1	-64.6	9.2
2026-01-16 01:20:16.374710	357.6	53.9	-64.5	8.0
2026-01-16 01:20:18.620234	356.9	54.6	-64.7	8.0
2026-01-16 01:20:20.864771	356.2	55.4	-64.8	8.0
2026-01-16 01:20:23.109295	355.5	56.2	-65.0	8.0
2026-01-16 01:20:25.352364	354.8	57.0	-65.3	7.8
2026-01-16 01:20:27.596879	354.0	57.8	-65.3	7.1
2026-01-16 01:20:29.841386	353.1	58.6	-65.1	7.0
2026-01-16 01:20:32.085421	352.2	59.4	-65.2	6.7
2026-01-16 01:20:34.329447	351.2	60.2	-65.0	7.2
2026-01-16 01:20:36.573993	350.2	61.0	-65.1	7.4
2026-01-16 01:20:38.818011	349.1	61.8	-65.2	7.5
2026-01-16 01:20:41.062060	347.9	62.6	-65.5	7.1
2026-01-16 01:20:43.305123	346.7	63.4	-65.2	7.9
2026-01-16 01:20:45.549631	345.3	64.3	-65.3	8.0
2026-01-16 01:20:47.794185	343.9	65.1	-65.3	8.0
2026-01-16 01:20:50.038203	342.3	65.9	-65.6	7.3
2026-01-16 01:20:52.281253	340.6	66.6	-66.0	7.4
2026-01-16 01:20:54.525760	338.8	67.4	-65.9	7.4
2026-01-16 01:20:56.770316	336.9	68.2	-65.9	7.3
2026-01-16 01:20:59.014327	334.8	68.9	-66.2	7.3
2026-01-16 01:21:01.263339	332.5	69.6	-66.0	7.6
2026-01-16 01:21:03.507381	330.1	70.3	-65.8	8.7
2026-01-16 01:21:05.751888	327.5	71.0	-65.9	8.8
2026-01-16 01:21:07.998451	324.7	71.6	-65.8	9.5
2026-01-16 01:21:10.242966	321.7	72.2	-65.7	10.4
2026-01-16 01:21:12.487473	318.4	72.7	-65.8	10.9
2026-01-16 01:21:14.732019	315.0	73.2	-65.9	9.7
2026-01-16 01:21:16.976533	311.4	73.6	-65.9	10.5
2026-01-16 01:21:19.221079	307.6	74.0	-65.9	11.3
2026-01-16 01:21:21.465091	303.6	74.3	-66.0	11.8
2026-01-16 01:21:23.709142	299.5	74.5	-66.0	11.8
2026-01-16 01:21:25.953657	295.3	74.6	-66.3	12.4
2026-01-16 01:21:28.197691	291.0	74.7	-66.3	12.6
2026-01-16 01:21:30.442710	286.7	74.7	-66.4	12.1
2026-01-16 01:21:32.686233	282.5	74.5	-66.6	12.3
2026-01-16 01:21:34.930779	278.3	74.4	-66.5	12.4
2026-01-16 01:21:37.175286	274.3	74.1	-67.1	11.8
2026-01-16 01:21:39.418838	270.4	73.8	-66.6	12.2
2026-01-16 01:21:41.662866	266.7	73.3	-66.6	12.6
2026-01-16 01:21:43.906381	263.3	72.9	-66.5	12.8
2026-01-16 01:21:46.150928	260.0	72.4	-66.4	13.1
2026-01-16 01:21:48.394948	256.9	71.8	-66.6	13.4
2026-01-16 01:21:50.639494	254.0	71.2	-67.2	12.1
2026-01-16 01:21:52.883513	251.3	70.5	-67.6	11.3
2026-01-16 01:21:55.128058	248.9	69.8	-67.5	10.3
2026-01-16 01:21:57.375079	246.5	69.1	-67.4	10.6
2026-01-16 01:21:59.618619	244.4	68.4	-67.2	11.0
2026-01-16 01:22:01.863125	242.4	67.6	-67.1	12.7
2026-01-16 01:22:04.107640	240.6	66.9	-66.6	12.7
2026-01-16 01:22:06.351688	238.9	66.1	-67.0	12.5
2026-01-16 01:22:08.595707	237.3	65.3	-67.4	12.2
2026-01-16 01:22:10.839254	235.8	64.5	-67.5	11.3
2026-01-16 01:22:13.083274	234.4	63.7	-68.1	11.1
2026-01-16 01:22:15.330286	233.1	62.8	-68.4	10.7
2026-01-16 01:22:17.574842	231.9	62.0	-67.8	10.8
2026-01-16 01:22:19.818876	230.8	61.2	-67.9	10.9
2026-01-16 01:22:22.062889	229.7	60.4	-67.8	11.3
2026-01-16 01:22:24.305946	228.8	59.6	-67.2	11.0
2026-01-16 01:22:26.550011	227.8	58.8	-67.7	12.7
2026-01-16 01:22:28.794022	227.0	58.0	-67.6	12.2
2026-01-16 01:22:31.041034	226.1	57.2	-67.6	11.8
2026-01-16 01:22:33.284595	225.4	56.4	-67.6	11.2
2026-01-16 01:22:35.529111	224.6	55.6	-66.7	10.0
2026-01-16 01:22:37.773153	223.9	54.8	-67.5	9.5
2026-01-16 01:22:40.020182	223.3	54.0	-67.1	10.6
2026-01-16 01:22:42.264720	222.7	53.3	-66.7	9.4
2026-01-16 01:22:44.507778	222.1	52.5	-67.3	10.7
2026-01-16 01:22:46.751797	221.5	51.8	-67.4	10.6
2026-01-16 01:22:48.994845	221.0	51.0	-67.5	11.3
2026-01-16 01:22:51.239352	220.5	50.3	-67.4	10.4
2026-01-16 01:22:53.483868	220.0	49.6	-66.8	9.7
2026-01-16 01:22:55.726919	219.6	48.9	-67.4	9.5
2026-01-16 01:22:57.971426	219.1	48.1	-67.1	10.2
2026-01-16 01:23:00.215933	218.7	47.5	-67.2	9.9
2026-01-16 01:23:02.459944	218.3	46.8	-67.1	10.0
2026-01-16 01:23:04.709003	217.9	46.1	-66.8	10.3
2026-01-16 01:23:06.953510	217.6	45.4	-66.8	11.0
2026-01-16 01:23:09.198025	217.2	44.8	-66.8	11.6
2026-01-16 01:23:11.442059	216.9	44.1	-66.4	11.0
2026-01-16 01:23:13.691079	216.5	43.5	-66.2	11.8
2026-01-16 01:23:15.934633	216.2	42.9	-66.1	11.0
2026-01-16 01:23:18.179140	215.9	42.2	-66.2	9.2
2026-01-16 01:23:20.423151	215.6	41.6	-66.2	11.5
2026-01-16 01:23:22.667208	215.4	41.0	-66.4	12.0
2026-01-16 01:23:24.911723	215.1	40.4	-65.9	11.2
2026-01-16 01:23:27.156230	214.8	39.9	-66.3	12.4
2026-01-16 01:23:29.407278	214.6	39.3	-66.0	11.9
2026-01-16 01:23:31.651785	214.4	38.7	-65.3	10.9
2026-01-16 01:23:33.895795	214.1	38.2	-65.8	11.7
2026-01-16 01:23:36.139807	213.9	37.6	-65.6	11.5
2026-01-16 01:23:38.383353	213.7	37.1	-65.5	12.5
2026-01-16 01:23:40.628380	213.5	36.6	-65.8	13.3
2026-01-16 01:23:42.871400	213.3	36.0	-65.7	12.9
2026-01-16 01:23:45.115956	213.1	35.5	-65.7	13.0
2026-01-16 01:23:47.359480	212.9	35.0	-65.8	13.0
2026-01-16 01:23:49.602529	212.7	34.5	-65.6	13.4
2026-01-16 01:23:51.845053	212.5	34.0	-65.7	12.9
2026-01-16 01:23:54.088608	212.4	33.5	-65.4	13.1
2026-01-16 01:23:56.333627	212.2	33.1	-65.2	12.2
2026-01-16 01:23:58.577639	212.0	32.6	-65.5	11.8
2026-01-16 01:24:00.821658	211.9	32.1	-65.5	12.8
2026-01-16 01:24:03.064678	211.7	31.7	-65.4	12.7
2026-01-16 01:24:05.306257	211.6	31.2	-65.3	12.7
2026-01-16 01:24:07.549286	211.4	30.8	-65.2	12.1
2026-01-16 01:24:09.791857	211.3	30.4	-65.3	12.6
2026-01-16 01:24:12.039373	211.2	29.9	-65.4	12.6
2026-01-16 01:24:14.282431	211.0	29.5	-65.2	12.6
2026-01-16 01:24:16.526954	210.9	29.1	-65.4	12.4
2026-01-16 01:24:18.770507	210.8	28.7	-65.8	13.1
2026-01-16 01:24:21.016528	210.7	28.3	-65.6	12.6
2026-01-16 01:24:23.259596	210.5	27.9	-65.5	13.5
2026-01-16 01:24:25.503112	210.4	27.5	-65.3	12.4
2026-01-16 01:24:27.750133	210.3	27.1	-65.3	12.8
2026-01-16 01:24:29.995144	210.2	26.7	-65.2	11.9
2026-01-16 01:24:32.239156	210.1	26.3	-65.4	12.2
2026-01-16 01:24:34.482174	210.0	25.9	-65.0	12.0
2026-01-16 01:24:36.727195	209.9	25.6	-65.3	12.2
2026-01-16 01:24:38.970710	209.8	25.2	-65.5	13.0
2026-01-16 01:24:41.214225	209.7	24.9	-65.6	12.9
2026-01-16 01:24:43.458245	209.6	24.5	-65.9	13.0
2026-01-16 01:24:45.705256	209.5	24.2	-65.8	13.0
2026-01-16 01:24:47.950268	209.4	23.8	-65.7	12.4
2026-01-16 01:24:50.194279	209.3	23.5	-66.1	13.3
2026-01-16 01:24:52.438290	209.2	23.1	-66.0	12.5
2026-01-16 01:24:54.684817	209.2	22.8	-65.5	12.4
2026-01-16 01:24:56.928332	209.1	22.5	-66.0	11.7
2026-01-16 01:24:59.172343	209.0	22.2	-65.8	12.3
2026-01-16 01:25:01.413858	208.9	21.8	-66.1	12.7
2026-01-16 01:25:03.653373	208.8	21.5	-66.1	12.2
2026-01-16 01:25:05.887381	208.8	21.2	-65.9	12.5
2026-01-16 01:25:08.121390	208.7	20.9	-65.9	12.7
2026-01-16 01:25:10.363401	208.6	20.6	-65.9	12.6
2026-01-16 01:25:12.606907	208.6	20.3	-66.1	12.2
2026-01-16 01:25:14.849918	208.5	20.0	-66.1	12.4
2026-01-16 01:25:17.092937	208.4	19.7	-66.2	11.9
2026-01-16 01:25:19.331955	208.3	19.4	-66.1	12.4
2026-01-16 01:25:21.574461	208.3	19.1	-66.4	12.3
2026-01-16 01:25:23.816472	208.2	18.8	-66.0	11.8
2026-01-16 01:25:26.058989	208.2	18.6	-65.9	12.3
2026-01-16 01:25:28.300511	208.1	18.3	-66.4	13.0
2026-01-16 01:25:30.540521	208.0	18.0	-66.5	13.0
2026-01-16 01:25:32.775035	208.0	17.7	-66.4	13.0
2026-01-16 01:25:35.021542	207.9	17.5	-66.5	13.3
2026-01-16 01:25:37.266068	207.9	17.2	-67.2	14.1
2026-01-16 01:25:39.509592	207.8	17.0	-67.2	13.9
2026-01-16 01:25:41.754099	207.8	16.7	-67.2	13.8
2026-01-16 01:25:43.997614	207.7	16.4	-67.2	13.2
2026-01-16 01:25:46.239624	207.6	16.2	-67.1	13.3
2026-01-16 01:25:48.481643	207.6	15.9	-67.4	12.9
2026-01-16 01:25:50.726150	207.5	15.7	-67.3	13.9
2026-01-16 01:25:52.967674	207.5	15.4	-67.4	13.3
2026-01-16 01:25:55.208189	207.4	15.2	-67.1	12.9
2026-01-16 01:25:57.451200	207.4	14.9	-67.5	13.4
2026-01-16 01:25:59.692209	207.4	14.7	-67.2	13.1
2026-01-16 01:26:01.935724	207.3	14.5	-67.2	13.4
2026-01-16 01:26:04.180240	207.3	14.2	-67.4	12.6
2026-01-16 01:26:06.424252	207.2	14.0	-67.4	12.5
2026-01-16 01:26:08.665783	207.2	13.8	-67.3	12.2
2026-01-16 01:26:10.899799	207.1	13.5	-67.0	12.1
2026-01-16 01:26:13.134311	207.1	13.3	-67.4	13.4
2026-01-16 01:26:15.366320	207.0	13.1	-67.1	12.3
2026-01-16 01:26:17.605826	207.0	12.9	-67.3	12.4
2026-01-16 01:26:19.841348	207.0	12.7	-66.9	12.0
2026-01-16 01:26:22.075861	206.9	12.4	-67.3	12.2
2026-01-16 01:26:24.312871	206.9	12.2	-66.9	11.9
2026-01-16 01:26:26.548880	206.9	12.0	-67.2	12.3
2026-01-16 01:26:28.783889	206.8	11.8	-67.5	12.1
2026-01-16 01:26:31.016898	206.8	11.6	-67.1	12.4
2026-01-16 01:26:33.250907	206.7	11.4	-67.4	12.3
2026-01-16 01:26:35.483924	206.7	11.2	-67.2	11.4
2026-01-16 01:26:37.716941	206.7	11.0	-66.8	10.9
2026-01-16 01:26:39.949445	206.6	10.8	-67.2	11.9
2026-01-16 01:26:42.186455	206.6	10.6	-67.5	11.2
2026-01-16 01:26:44.425473	206.6	10.4	-67.3	11.9
2026-01-16 01:26:46.667988	206.5	10.2	-67.4	11.2
2026-01-16 01:26:48.914008	206.5	10.0	-67.7	12.0
2026-01-16 01:26:51.157524	206.5	9.8	-67.7	11.4
2026-01-16 01:26:53.401535	206.4	9.6	-67.6	11.1
2026-01-16 01:26:55.644554	206.4	9.4	-67.5	12.1
2026-01-16 01:26:57.887086	206.4	9.2	-67.5	11.4
2026-01-16 01:27:00.128601	206.4	9.0	-67.5	10.0
2026-01-16 01:27:02.369619	206.3	8.8	-67.4	10.8
2026-01-16 01:27:04.611630	206.3	8.6	-67.1	9.7
2026-01-16 01:27:06.854151	206.3	8.5	-67.7	10.7
2026-01-16 01:27:09.096178	206.2	8.3	-67.4	10.4
2026-01-16 01:27:11.334709	206.2	8.1	-67.3	10.4
2026-01-16 01:27:13.576749	206.2	7.9	-67.3	10.2
2026-01-16 01:27:15.812262	206.2	7.7	-67.1	8.9
2026-01-16 01:27:18.047775	206.1	7.5	-67.2	9.5
2026-01-16 01:27:20.284801	206.1	7.4	-67.5	9.6
2026-01-16 01:27:22.517819	206.1	7.2	-67.3	9.6
2026-01-16 01:27:24.754342	206.1	7.0	-67.1	9.0
2026-01-16 01:27:26.987855	206.0	6.8	-67.0	9.2
2026-01-16 01:27:29.220863	206.0	6.7	-65.5	6.3
2026-01-16 01:27:31.453872	206.0	6.5	-64.6	6.3
2026-01-16 01:27:33.686376	206.0	6.3	-64.0	4.1
2026-01-16 01:27:35.920384	205.9	6.2	-63.6	3.8
2026-01-16 01:27:38.154897	205.9	6.0	-64.3	3.9
2026-01-16 01:27:40.386400	205.9	5.8	-69.3	0.0
2026-01-16 01:27:42.619905	205.9	5.7	-70.1	0.0
2026-01-16 01:27:44.851409	205.8	5.5	-71.0	0.0
2026-01-16 01:27:47.080930	205.8	5.3	-72.0	0.0
2026-01-16 01:27:49.310937	205.8	5.2	-71.4	0.0
2026-01-16 01:27:51.544441	205.8	5.0	-71.3	0.0
#Closed at: 2026-01-16 01:14:56.320412