passes_logs/2026/01/16/PlanumMoscow/PlanumMoscow__20260116_110416_METEOR-M2_4_rec.log

#Pass ID: 20260116_110416_METEOR-M2 4
#Satellite: METEOR-M2 4
#Configuration: METEOR-M2 4
#Start time: 2026-01-16 11:04:21.008441

#LorettStation: 1.0.0 05.05.2024
#Station: PlanumMoscow
#Location: 37.6253844 lon 55.6713361 lat
#TLE: 1 59051U 24039A   25293.94737965  .00000087  00000+0  58459-4 0  9998
#TLE: 2 59051  98.6671 251.7071 0007726 135.4772 224.7028 14.22388966 85257

#Time	Az	El	Level	SNR
2026-01-16 11:07:59.413390	147.5	29.5	-63.8	11.4
2026-01-16 11:08:01.656915	147.4	29.9	-63.9	12.3
2026-01-16 11:08:03.899935	147.2	30.3	-63.4	12.0
2026-01-16 11:08:06.142955	147.1	30.8	-63.9	11.9
2026-01-16 11:08:08.386977	146.9	31.2	-64.1	13.4
2026-01-16 11:08:10.631484	146.8	31.6	-64.1	12.0
2026-01-16 11:08:12.875495	146.6	32.1	-64.0	12.0
2026-01-16 11:08:15.118516	146.4	32.5	-64.3	12.9
2026-01-16 11:08:17.362535	146.2	33.0	-64.6	11.5
2026-01-16 11:08:19.606546	146.1	33.5	-64.8	12.9
2026-01-16 11:08:21.851053	145.9	34.0	-64.7	12.4
2026-01-16 11:08:24.095065	145.7	34.4	-63.8	10.3
2026-01-16 11:08:26.343581	145.5	34.9	-63.7	11.5
2026-01-16 11:08:28.588096	145.3	35.4	-64.0	10.9
2026-01-16 11:08:30.832603	145.0	35.9	-64.5	12.8
2026-01-16 11:08:33.075623	144.8	36.5	-64.8	13.4
2026-01-16 11:08:35.319138	144.6	37.0	-64.5	11.7
2026-01-16 11:08:37.562159	144.4	37.5	-64.8	12.2
2026-01-16 11:08:39.806170	144.1	38.1	-64.8	13.8
2026-01-16 11:08:42.050182	143.9	38.6	-64.2	10.5
2026-01-16 11:08:44.293706	143.6	39.2	-65.2	12.2
2026-01-16 11:08:46.538725	143.3	39.7	-65.1	13.2
2026-01-16 11:08:48.781746	143.0	40.3	-65.3	13.2
2026-01-16 11:08:51.024766	142.8	40.9	-64.9	13.3
2026-01-16 11:08:53.269273	142.4	41.5	-65.1	13.0
2026-01-16 11:08:55.512788	142.1	42.1	-64.8	12.6
2026-01-16 11:08:57.756304	141.8	42.7	-65.1	13.3
2026-01-16 11:08:59.999820	141.5	43.3	-64.2	11.6
2026-01-16 11:09:02.243335	141.1	43.9	-64.4	12.7
2026-01-16 11:09:04.485858	140.7	44.5	-65.0	12.9
2026-01-16 11:09:06.729373	140.4	45.2	-65.3	12.8
2026-01-16 11:09:08.972889	140.0	45.8	-65.0	11.8
2026-01-16 11:09:11.216899	139.6	46.5	-65.2	12.6
2026-01-16 11:09:13.461406	139.1	47.2	-65.2	11.8
2026-01-16 11:09:15.704435	138.7	47.8	-65.3	10.7
2026-01-16 11:09:17.948456	138.2	48.5	-65.6	10.7
2026-01-16 11:09:20.192467	137.7	49.2	-65.6	10.4
2026-01-16 11:09:22.434990	137.2	49.9	-65.2	8.8
2026-01-16 11:09:24.679011	136.6	50.6	-65.9	9.2
2026-01-16 11:09:26.923518	136.1	51.4	-66.3	9.6
2026-01-16 11:09:29.168532	135.5	52.1	-66.0	8.1
2026-01-16 11:09:31.412542	134.8	52.8	-66.5	8.3
2026-01-16 11:09:33.655563	134.2	53.6	-65.8	6.0
2026-01-16 11:09:35.899078	133.5	54.3	-65.8	7.7
2026-01-16 11:09:38.142593	132.7	55.1	-65.6	8.3
2026-01-16 11:09:40.386604	131.9	55.8	-66.2	8.6
2026-01-16 11:09:42.634121	131.1	56.6	-65.4	8.9
2026-01-16 11:09:44.877140	130.3	57.4	-65.7	9.1
2026-01-16 11:09:47.120160	129.3	58.2	-65.4	7.6
2026-01-16 11:09:49.363675	128.4	58.9	-65.4	7.8
2026-01-16 11:09:51.607687	127.3	59.7	-66.1	9.0
2026-01-16 11:09:53.851203	126.2	60.5	-65.9	7.9
2026-01-16 11:09:56.095222	125.0	61.3	-66.1	7.0
2026-01-16 11:09:58.339738	123.8	62.1	-66.0	6.9
2026-01-16 11:10:00.583254	122.5	62.8	-65.5	5.6
2026-01-16 11:10:02.821272	121.1	63.6	-65.9	5.9
2026-01-16 11:10:05.057785	119.5	64.4	-65.6	6.7
2026-01-16 11:10:07.296801	117.9	65.1	-65.6	5.7
2026-01-16 11:10:09.537818	116.2	65.8	-65.0	6.2
2026-01-16 11:10:11.778342	114.4	66.6	-65.7	9.1
2026-01-16 11:10:14.017847	112.4	67.3	-65.3	7.8
2026-01-16 11:10:16.255857	110.3	68.0	-65.6	8.4
2026-01-16 11:10:18.493371	108.0	68.6	-65.0	9.1
2026-01-16 11:10:20.732885	105.6	69.3	-64.7	7.2
2026-01-16 11:10:22.975400	103.0	69.9	-64.9	6.5
2026-01-16 11:10:25.212913	100.3	70.4	-66.1	8.0
2026-01-16 11:10:27.450437	97.4	70.9	-65.6	6.4
2026-01-16 11:10:29.691447	94.4	71.4	-66.0	10.0
2026-01-16 11:10:31.934962	91.1	71.8	-65.4	9.6
2026-01-16 11:10:34.173475	87.7	72.2	-64.8	9.4
2026-01-16 11:10:36.411485	84.2	72.5	-64.9	9.2
2026-01-16 11:10:38.654000	80.6	72.8	-64.9	8.9
2026-01-16 11:10:40.896010	76.9	72.9	-65.2	7.6
2026-01-16 11:10:43.137526	73.1	73.0	-65.4	9.3
2026-01-16 11:10:45.382537	69.2	73.1	-65.6	9.7
2026-01-16 11:10:47.624576	65.4	73.0	-65.6	7.9
2026-01-16 11:10:49.868093	61.6	72.9	-65.3	9.2
2026-01-16 11:10:52.111609	57.9	72.7	-65.2	9.8
2026-01-16 11:10:54.354629	54.2	72.5	-65.5	9.5
2026-01-16 11:10:56.597153	50.7	72.2	-64.7	8.9
2026-01-16 11:10:58.839163	47.3	71.8	-64.5	7.6
2026-01-16 11:11:01.082184	44.1	71.4	-65.0	9.4
2026-01-16 11:11:03.326195	41.1	70.9	-64.9	8.7
2026-01-16 11:11:05.570702	38.2	70.4	-65.1	7.2
2026-01-16 11:11:07.816732	35.4	69.8	-66.1	5.4
2026-01-16 11:11:10.060247	32.9	69.2	-66.0	6.0
2026-01-16 11:11:12.304269	30.5	68.6	-64.8	4.6
2026-01-16 11:11:14.546803	28.2	67.9	-65.2	6.4
2026-01-16 11:11:16.786822	26.1	67.2	-65.0	7.2
2026-01-16 11:11:19.024327	24.2	66.5	-65.1	8.1
2026-01-16 11:11:21.268338	22.3	65.8	-64.9	7.0
2026-01-16 11:11:23.513358	20.6	65.1	-65.1	5.6
2026-01-16 11:11:25.754384	19.0	64.3	-65.0	5.3
2026-01-16 11:11:27.996899	17.5	63.5	-65.1	4.6
2026-01-16 11:11:30.238414	16.1	62.8	-65.6	4.9
2026-01-16 11:11:32.476955	14.8	62.0	-64.7	3.7
2026-01-16 11:11:34.714487	13.6	61.2	-65.1	6.1
2026-01-16 11:11:36.956497	12.4	60.5	-65.2	5.7
2026-01-16 11:11:39.197508	11.3	59.7	-64.5	4.9
2026-01-16 11:11:41.437527	10.3	58.9	-64.4	7.3
2026-01-16 11:11:43.678537	9.3	58.1	-65.3	6.6
2026-01-16 11:11:45.917548	8.4	57.4	-65.6	5.7
2026-01-16 11:11:48.159566	7.5	56.6	-64.2	4.9
2026-01-16 11:11:50.400080	6.7	55.8	-64.2	4.4
2026-01-16 11:11:52.641596	5.9	55.1	-64.5	3.3
2026-01-16 11:11:54.882111	5.2	54.3	-63.5	4.5
2026-01-16 11:11:57.122617	4.5	53.6	-64.5	4.9
2026-01-16 11:11:59.362627	3.8	52.8	-64.1	3.6
2026-01-16 11:12:01.603638	3.2	52.1	-64.1	4.8
2026-01-16 11:12:03.844647	2.6	51.4	-63.9	4.2
2026-01-16 11:12:06.087658	2.1	50.7	-64.3	4.8
2026-01-16 11:12:08.328677	1.5	50.0	-64.4	3.7
2026-01-16 11:12:10.569688	1.0	49.3	-63.7	3.6
2026-01-16 11:12:12.811715	0.5	48.6	-63.8	4.4
2026-01-16 11:12:15.055727	0.0	47.9	-64.9	5.1
2026-01-16 11:12:17.299738	359.6	47.2	-64.7	3.8
2026-01-16 11:12:19.543252	359.1	46.5	-63.3	3.7
2026-01-16 11:12:21.786272	358.7	45.9	-63.5	3.7
2026-01-16 11:12:24.029788	358.3	45.2	-63.9	4.1
2026-01-16 11:12:26.273799	358.0	44.6	-63.0	4.4
2026-01-16 11:12:28.516818	357.6	44.0	-63.7	5.7
2026-01-16 11:12:30.760333	357.2	43.3	-63.3	4.1
2026-01-16 11:12:33.003847	356.9	42.7	-64.4	6.1
2026-01-16 11:12:35.245857	356.6	42.1	-64.1	6.4
2026-01-16 11:12:37.488877	356.3	41.5	-63.5	6.0
2026-01-16 11:12:39.731901	356.0	40.9	-64.8	7.0
2026-01-16 11:12:41.975912	355.7	40.4	-63.3	6.2
2026-01-16 11:12:44.219923	355.4	39.8	-64.1	7.7
2026-01-16 11:12:46.464430	355.1	39.2	-64.5	7.8
2026-01-16 11:12:48.707450	354.9	38.7	-64.0	6.9
2026-01-16 11:12:50.948974	354.6	38.1	-64.2	8.2
2026-01-16 11:12:53.190489	354.4	37.6	-64.3	9.2
2026-01-16 11:12:55.416830	354.1	37.1	-63.6	8.7
2026-01-16 11:12:57.660850	353.9	36.6	-64.2	7.2
2026-01-16 11:12:59.904860	353.7	36.0	-62.7	5.5
2026-01-16 11:13:02.148375	353.5	35.5	-63.8	9.2
2026-01-16 11:13:04.391387	353.3	35.0	-62.9	6.4
2026-01-16 11:13:06.634398	353.1	34.5	-63.2	8.4
2026-01-16 11:13:08.875409	352.9	34.1	-63.2	7.8
2026-01-16 11:13:11.117421	352.7	33.6	-63.5	7.1
2026-01-16 11:13:13.357944	352.5	33.1	-63.0	6.4
2026-01-16 11:13:15.597955	352.3	32.7	-62.7	6.0
2026-01-16 11:13:17.838477	352.1	32.2	-63.1	6.6
2026-01-16 11:13:20.081489	352.0	31.8	-64.1	8.6
2026-01-16 11:13:22.324996	351.8	31.3	-64.0	8.7
2026-01-16 11:13:24.568511	351.7	30.9	-62.7	6.7
2026-01-16 11:13:26.814522	351.5	30.4	-62.9	7.2
2026-01-16 11:13:29.058028	351.4	30.0	-62.7	7.2
2026-01-16 11:13:31.300543	351.2	29.6	-64.0	8.6
2026-01-16 11:13:33.538552	351.1	29.2	-64.5	8.3
2026-01-16 11:13:35.782076	350.9	28.8	-63.6	9.1
2026-01-16 11:13:38.021096	350.8	28.4	-64.1	7.6
2026-01-16 11:13:40.262602	350.7	28.0	-64.6	11.0
2026-01-16 11:13:42.504108	350.5	27.6	-63.9	8.1
2026-01-16 11:13:44.746126	350.4	27.2	-64.1	8.6
2026-01-16 11:13:46.985145	350.3	26.8	-64.8	9.5
2026-01-16 11:13:49.226660	350.2	26.5	-64.1	7.2
2026-01-16 11:13:51.464725	350.1	26.1	-63.5	6.6
2026-01-16 11:13:53.704735	350.0	25.7	-64.2	8.7
2026-01-16 11:13:55.947250	349.9	25.4	-63.4	7.2
2026-01-16 11:13:58.191299	349.7	25.0	-64.2	7.7
2026-01-16 11:14:00.435310	349.6	24.7	-64.4	8.2
2026-01-16 11:14:02.678329	349.5	24.3	-63.5	8.0
2026-01-16 11:14:04.922844	349.4	24.0	-64.4	8.3
2026-01-16 11:14:07.166855	349.3	23.6	-64.0	7.6
2026-01-16 11:14:09.415363	349.2	23.3	-64.9	9.6
2026-01-16 11:14:11.658879	349.2	23.0	-65.1	9.9
2026-01-16 11:14:13.902394	349.1	22.7	-65.1	9.2
2026-01-16 11:14:16.145414	349.0	22.3	-65.0	10.4
2026-01-16 11:14:18.388938	348.9	22.0	-63.9	6.9
2026-01-16 11:14:20.630949	348.8	21.7	-62.9	5.3
2026-01-16 11:14:22.873959	348.7	21.4	-64.1	7.9
2026-01-16 11:14:25.119476	348.6	21.1	-65.1	8.2
2026-01-16 11:14:27.362991	348.6	20.8	-65.2	9.0
2026-01-16 11:14:29.600524	348.5	20.5	-64.3	7.7
2026-01-16 11:14:31.844534	348.4	20.2	-64.1	7.2
2026-01-16 11:14:34.088060	348.3	19.9	-64.1	6.8
2026-01-16 11:14:36.332567	348.3	19.6	-64.6	8.0
2026-01-16 11:14:38.572090	348.2	19.3	-65.6	9.3
2026-01-16 11:14:40.814615	348.1	19.1	-64.5	7.1
2026-01-16 11:14:43.053642	348.1	18.8	-64.6	7.5
2026-01-16 11:14:45.291155	348.0	18.5	-64.7	8.3
2026-01-16 11:14:47.535166	347.9	18.2	-64.4	6.2
2026-01-16 11:14:49.780186	347.9	18.0	-65.1	8.6
2026-01-16 11:14:52.023206	347.8	17.7	-65.1	8.8
2026-01-16 11:14:54.262242	347.7	17.4	-63.6	6.2
2026-01-16 11:14:56.506262	347.7	17.2	-64.6	8.9
2026-01-16 11:14:58.747777	347.6	16.9	-63.8	7.8
2026-01-16 11:15:00.987787	347.6	16.7	-64.2	7.3
2026-01-16 11:15:03.227311	347.5	16.4	-63.4	6.0
2026-01-16 11:15:05.470826	347.4	16.2	-64.5	7.1
2026-01-16 11:15:07.714855	347.4	15.9	-64.6	6.9
2026-01-16 11:15:09.959362	347.3	15.7	-63.1	6.2
2026-01-16 11:15:12.201885	347.3	15.4	-63.3	3.7
2026-01-16 11:15:14.444904	347.2	15.2	-63.9	5.0
2026-01-16 11:15:16.690412	347.2	14.9	-65.1	6.7
2026-01-16 11:15:18.934431	347.1	14.7	-64.6	6.9
2026-01-16 11:15:21.179442	347.1	14.5	-64.5	5.4
2026-01-16 11:15:23.423453	347.0	14.2	-63.7	5.4
2026-01-16 11:15:25.666969	347.0	14.0	-64.0	5.4
2026-01-16 11:15:27.910494	346.9	13.8	-64.7	6.3
2026-01-16 11:15:30.155011	346.9	13.6	-63.2	4.7
2026-01-16 11:15:32.399526	346.9	13.3	-63.0	3.9
2026-01-16 11:15:34.643041	346.8	13.1	-63.9	4.6
2026-01-16 11:15:36.885564	346.8	12.9	-63.5	1.8
2026-01-16 11:15:39.132110	346.7	12.7	-63.3	3.9
2026-01-16 11:15:41.377130	346.7	12.5	-64.5	6.4
2026-01-16 11:15:43.620646	346.6	12.3	-62.5	4.4
2026-01-16 11:15:45.865161	346.6	12.0	-64.3	6.9
2026-01-16 11:15:48.109173	346.6	11.8	-63.4	4.6
2026-01-16 11:15:50.353680	346.5	11.6	-62.9	4.2
2026-01-16 11:15:52.597691	346.5	11.4	-64.0	4.6
2026-01-16 11:15:54.842197	346.4	11.2	-63.1	2.4
2026-01-16 11:15:57.086218	346.4	11.0	-63.4	3.9
2026-01-16 11:15:59.328742	346.4	10.8	-62.8	2.5
2026-01-16 11:16:01.570768	346.3	10.6	-63.4	2.3
2026-01-16 11:16:03.814284	346.3	10.4	-63.1	0.3
2026-01-16 11:16:06.061314	346.3	10.2	-63.9	3.5
2026-01-16 11:16:08.306821	346.2	10.0	-63.8	3.5
2026-01-16 11:16:10.550832	346.2	9.8	-63.3	2.9
2026-01-16 11:16:12.798348	346.2	9.6	-64.5	3.0
2026-01-16 11:16:15.042360	346.1	9.4	-62.8	2.1
2026-01-16 11:16:17.286867	346.1	9.3	-62.4	1.1
2026-01-16 11:16:19.529887	346.1	9.1	-64.0	3.8
2026-01-16 11:16:21.773403	346.0	8.9	-63.7	2.3
2026-01-16 11:16:24.017414	346.0	8.7	-64.4	4.5
2026-01-16 11:16:26.261426	346.0	8.5	-63.6	3.1
2026-01-16 11:16:28.504940	346.0	8.3	-65.2	3.6
2026-01-16 11:16:30.748961	345.9	8.2	-64.6	4.0
2026-01-16 11:16:32.992971	345.9	8.0	-64.4	1.2
2026-01-16 11:16:35.236982	345.9	7.8	-64.0	2.3
2026-01-16 11:16:37.486490	345.8	7.6	-64.5	3.1
2026-01-16 11:16:39.731500	345.8	7.4	-64.4	1.6
2026-01-16 11:16:41.975512	345.8	7.3	-64.1	0.0
2026-01-16 11:16:44.220019	345.8	7.1	-64.6	3.2
2026-01-16 11:16:46.465047	345.7	6.9	-64.2	2.6
2026-01-16 11:16:48.709554	345.7	6.8	-64.0	1.1
2026-01-16 11:16:50.951086	345.7	6.6	-64.1	0.2
2026-01-16 11:16:53.193115	345.7	6.4	-64.5	1.4
2026-01-16 11:16:55.434657	345.6	6.2	-64.2	0.0
2026-01-16 11:16:57.677181	345.6	6.1	-64.2	0.0
2026-01-16 11:16:59.921688	345.6	5.9	-67.4	2.6
2026-01-16 11:17:02.165203	345.6	5.7	-68.9	0.0
2026-01-16 11:17:04.411223	345.5	5.6	-68.7	0.0
2026-01-16 11:17:06.654738	345.5	5.4	-69.5	0.0
2026-01-16 11:17:08.898254	345.5	5.3	-69.2	0.0
2026-01-16 11:17:11.143274	345.5	5.1	-70.5	0.0
#Closed at: 2026-01-16 11:04:16.010392