passes_logs/2026/01/16/PlanumMoscow/PlanumMoscow__20260116_064421_METEOR-M2_3_rec.log

#Pass ID: 20260116_064421_METEOR-M2 3
#Satellite: METEOR-M2 3
#Configuration: METEOR-M2 3
#Start time: 2026-01-16 06:44:26.627283

#LorettStation: 1.0.0 05.05.2024
#Station: PlanumMoscow
#Location: 37.6253844 lon 55.6713361 lat
#TLE: 1 57166U 23091A   25293.99389264  .00000062  00000+0  46113-4 0  9997
#TLE: 2 57166  98.6457 348.4330 0004759 135.3141 224.8422 14.24016546120475

#Time	Az	El	Level	SNR
2026-01-16 06:48:05.042249	40.9	26.2	-61.5	8.3
2026-01-16 06:48:07.287756	41.3	26.5	-60.8	4.4
2026-01-16 06:48:09.532272	41.7	26.8	-61.3	5.8
2026-01-16 06:48:11.776283	42.1	27.2	-60.9	5.3
2026-01-16 06:48:14.020790	42.5	27.5	-60.8	5.1
2026-01-16 06:48:16.264802	42.9	27.8	-61.9	6.8
2026-01-16 06:48:18.508813	43.4	28.1	-61.2	6.7
2026-01-16 06:48:20.753320	43.8	28.4	-61.2	6.4
2026-01-16 06:48:22.997827	44.2	28.8	-61.4	7.1
2026-01-16 06:48:25.241343	44.7	29.1	-61.0	5.8
2026-01-16 06:48:27.485850	45.2	29.4	-61.6	6.4
2026-01-16 06:48:29.730357	45.6	29.8	-61.5	5.6
2026-01-16 06:48:31.973874	46.1	30.1	-60.8	4.6
2026-01-16 06:48:34.218381	46.6	30.4	-60.1	4.1
2026-01-16 06:48:36.462888	47.1	30.8	-61.4	5.6
2026-01-16 06:48:38.706899	47.7	31.1	-61.9	7.2
2026-01-16 06:48:40.956407	48.2	31.5	-61.4	3.3
2026-01-16 06:48:43.200418	48.7	31.8	-61.3	7.2
2026-01-16 06:48:45.444925	49.3	32.2	-61.3	7.2
2026-01-16 06:48:47.689432	49.8	32.5	-60.7	3.8
2026-01-16 06:48:49.932948	50.4	32.9	-61.2	6.4
2026-01-16 06:48:52.177455	51.0	33.2	-61.9	6.7
2026-01-16 06:48:54.421962	51.6	33.6	-61.2	5.5
2026-01-16 06:48:56.667469	52.2	33.9	-60.7	6.0
2026-01-16 06:48:58.912985	52.8	34.3	-61.0	5.5
2026-01-16 06:49:01.157492	53.5	34.6	-61.6	7.7
2026-01-16 06:49:03.401999	54.1	35.0	-60.3	5.6
2026-01-16 06:49:05.646011	54.8	35.3	-60.6	5.1
2026-01-16 06:49:07.894519	55.5	35.7	-59.9	6.6
2026-01-16 06:49:10.141026	56.2	36.0	-59.2	2.1
2026-01-16 06:49:12.385037	56.9	36.4	-59.2	4.1
2026-01-16 06:49:14.630544	57.6	36.7	-61.2	6.3
2026-01-16 06:49:16.875051	58.4	37.1	-60.1	5.3
2026-01-16 06:49:19.119558	59.1	37.4	-60.0	5.3
2026-01-16 06:49:21.364065	59.9	37.8	-59.1	3.8
2026-01-16 06:49:23.608077	60.7	38.1	-59.3	1.9
2026-01-16 06:49:25.852584	61.5	38.4	-58.3	1.0
2026-01-16 06:49:28.096594	62.3	38.8	-58.6	1.8
2026-01-16 06:49:30.343102	63.1	39.1	-59.5	2.1
2026-01-16 06:49:32.587609	64.0	39.4	-59.1	3.7
2026-01-16 06:49:34.832116	64.9	39.8	-59.8	3.1
2026-01-16 06:49:37.076127	65.8	40.1	-59.1	0.2
2026-01-16 06:49:39.322139	66.7	40.4	-60.0	4.2
2026-01-16 06:49:41.566646	67.6	40.7	-57.2	0.0
2026-01-16 06:49:43.811152	68.6	41.0	-57.6	0.0
2026-01-16 06:49:46.054174	69.5	41.3	-59.3	3.5
2026-01-16 06:49:48.298681	70.5	41.6	-60.4	2.1
2026-01-16 06:49:50.543187	71.5	41.9	-60.4	3.3
2026-01-16 06:49:52.787694	72.5	42.2	-61.0	5.3
2026-01-16 06:49:55.034210	73.5	42.4	-61.7	6.5
2026-01-16 06:49:57.278221	74.6	42.7	-60.9	0.6
2026-01-16 06:49:59.522728	75.7	42.9	-61.5	3.9
2026-01-16 06:50:01.766740	76.7	43.2	-62.2	5.8
2026-01-16 06:50:04.012751	77.8	43.4	-60.9	3.4
2026-01-16 06:50:06.257258	79.0	43.6	-61.7	3.8
2026-01-16 06:50:08.501765	80.1	43.9	-61.3	6.1
2026-01-16 06:50:10.747272	81.2	44.1	-61.3	3.0
2026-01-16 06:50:12.991779	82.4	44.2	-61.6	5.9
2026-01-16 06:50:15.236286	83.6	44.4	-62.4	8.4
2026-01-16 06:50:17.480296	84.7	44.6	-62.3	4.3
2026-01-16 06:50:19.726308	85.9	44.7	-62.9	4.5
2026-01-16 06:50:21.970815	87.2	44.9	-63.1	5.2
2026-01-16 06:50:24.215322	88.4	45.0	-63.1	5.4
2026-01-16 06:50:26.459829	89.6	45.1	-63.1	6.3
2026-01-16 06:50:28.707336	90.8	45.2	-63.4	7.4
2026-01-16 06:50:30.951347	92.1	45.3	-63.3	6.1
2026-01-16 06:50:33.195854	93.3	45.4	-63.7	5.7
2026-01-16 06:50:35.439370	94.6	45.4	-63.9	8.1
2026-01-16 06:50:37.683877	95.8	45.5	-63.8	5.9
2026-01-16 06:50:39.928384	97.1	45.5	-63.3	7.9
2026-01-16 06:50:42.172891	98.4	45.5	-64.1	8.1
2026-01-16 06:50:44.418904	99.6	45.5	-64.2	7.0
2026-01-16 06:50:46.663411	100.9	45.5	-63.1	6.9
2026-01-16 06:50:48.907918	102.1	45.4	-61.6	2.5
2026-01-16 06:50:51.151929	103.4	45.4	-63.4	6.0
2026-01-16 06:50:53.396436	104.6	45.3	-64.0	7.5
2026-01-16 06:50:55.640447	105.9	45.2	-63.7	6.1
2026-01-16 06:50:57.884954	107.1	45.1	-61.7	6.0
2026-01-16 06:51:00.130965	108.4	45.0	-61.4	5.4
2026-01-16 06:51:02.375472	109.6	44.9	-62.6	5.3
2026-01-16 06:51:04.619979	110.8	44.8	-62.4	5.0
2026-01-16 06:51:06.863991	112.0	44.6	-63.1	7.0
2026-01-16 06:51:09.110508	113.2	44.5	-62.8	3.3
2026-01-16 06:51:11.354558	114.4	44.3	-62.9	6.1
2026-01-16 06:51:13.599065	115.5	44.1	-62.3	5.5
2026-01-16 06:51:15.843076	116.7	43.9	-62.3	5.8
2026-01-16 06:51:18.087087	117.8	43.7	-62.8	6.3
2026-01-16 06:51:20.331594	118.9	43.5	-61.3	5.3
2026-01-16 06:51:22.575606	120.0	43.2	-60.8	4.8
2026-01-16 06:51:24.819618	121.1	43.0	-62.0	5.7
2026-01-16 06:51:27.064124	122.2	42.7	-62.7	7.5
2026-01-16 06:51:29.309631	123.3	42.5	-62.6	6.9
2026-01-16 06:51:31.554138	124.3	42.2	-62.0	6.5
2026-01-16 06:51:33.798149	125.3	41.9	-62.0	8.6
2026-01-16 06:51:36.042160	126.3	41.7	-62.7	8.7
2026-01-16 06:51:38.286172	127.3	41.4	-61.6	7.7
2026-01-16 06:51:40.530678	128.3	41.1	-62.5	8.0
2026-01-16 06:51:42.776185	129.2	40.8	-62.3	7.9
2026-01-16 06:51:45.020692	130.2	40.5	-63.8	9.0
2026-01-16 06:51:47.264703	131.1	40.1	-62.2	5.7
2026-01-16 06:51:49.508715	132.0	39.8	-64.3	8.3
2026-01-16 06:51:51.753221	132.9	39.5	-64.5	9.7
2026-01-16 06:51:53.997729	133.7	39.2	-65.0	9.5
2026-01-16 06:51:56.242236	134.6	38.8	-64.5	9.7
2026-01-16 06:51:58.489247	135.4	38.5	-64.1	10.3
2026-01-16 06:52:00.733754	136.2	38.1	-64.4	10.3
2026-01-16 06:52:02.978260	137.0	37.8	-65.2	11.6
2026-01-16 06:52:05.222767	137.8	37.5	-64.8	10.8
2026-01-16 06:52:07.467780	138.6	37.1	-64.7	10.6
2026-01-16 06:52:09.712286	139.3	36.8	-64.5	11.5
2026-01-16 06:52:11.956793	140.0	36.4	-65.1	12.3
2026-01-16 06:52:14.200309	140.8	36.1	-65.2	12.4
2026-01-16 06:52:16.447321	141.5	35.7	-64.9	10.9
2026-01-16 06:52:18.690837	142.2	35.4	-65.1	13.4
2026-01-16 06:52:20.935344	142.8	35.0	-65.4	13.0
2026-01-16 06:52:23.180356	143.5	34.6	-65.3	13.1
2026-01-16 06:52:25.424863	144.1	34.3	-65.9	13.7
2026-01-16 06:52:27.669370	144.8	33.9	-64.6	12.0
2026-01-16 06:52:29.913877	145.4	33.6	-65.0	13.4
2026-01-16 06:52:32.161394	146.0	33.2	-65.4	13.4
2026-01-16 06:52:34.405900	146.6	32.9	-65.0	14.5
2026-01-16 06:52:36.650407	147.2	32.5	-64.6	12.6
2026-01-16 06:52:38.898419	147.7	32.2	-65.0	12.4
2026-01-16 06:52:41.144431	148.3	31.8	-64.8	12.1
2026-01-16 06:52:43.388938	148.8	31.5	-64.6	12.3
2026-01-16 06:52:45.633444	149.4	31.1	-65.4	12.5
2026-01-16 06:52:47.879952	149.9	30.8	-65.4	13.7
2026-01-16 06:52:50.124964	150.4	30.4	-65.5	12.6
2026-01-16 06:52:52.369471	150.9	30.1	-65.4	12.6
2026-01-16 06:52:54.615483	151.4	29.8	-65.4	12.8
2026-01-16 06:52:56.860990	151.9	29.4	-65.2	13.4
2026-01-16 06:52:59.106497	152.3	29.1	-65.7	13.2
2026-01-16 06:53:01.350508	152.8	28.7	-65.7	13.7
2026-01-16 06:53:03.594519	153.2	28.4	-65.4	13.4
2026-01-16 06:53:05.838530	153.7	28.1	-65.5	12.3
2026-01-16 06:53:08.082541	154.1	27.8	-65.8	13.3
2026-01-16 06:53:10.327048	154.5	27.4	-65.6	12.4
2026-01-16 06:53:12.570563	155.0	27.1	-65.8	12.7
2026-01-16 06:53:14.815070	155.4	26.8	-66.4	14.6
2026-01-16 06:53:17.060577	155.8	26.5	-65.5	13.4
2026-01-16 06:53:19.304589	156.2	26.2	-65.5	12.6
2026-01-16 06:53:21.549095	156.5	25.8	-65.5	12.8
2026-01-16 06:53:23.793602	156.9	25.5	-65.9	13.9
2026-01-16 06:53:26.038109	157.3	25.2	-65.9	13.3
2026-01-16 06:53:28.283132	157.7	24.9	-65.6	13.3
2026-01-16 06:53:30.527143	158.0	24.6	-65.7	12.7
2026-01-16 06:53:32.771650	158.4	24.3	-65.2	13.1
2026-01-16 06:53:35.016156	158.7	24.0	-65.7	13.6
2026-01-16 06:53:37.264664	159.0	23.7	-65.6	13.5
2026-01-16 06:53:39.508675	159.4	23.4	-65.7	13.2
2026-01-16 06:53:41.753182	159.7	23.1	-65.7	13.0
2026-01-16 06:53:43.999699	160.0	22.8	-65.8	13.2
2026-01-16 06:53:46.244711	160.3	22.5	-66.0	13.0
2026-01-16 06:53:48.489218	160.6	22.3	-66.5	13.4
2026-01-16 06:53:50.733725	160.9	22.0	-66.2	12.6
2026-01-16 06:53:52.981737	161.2	21.7	-66.3	11.9
2026-01-16 06:53:55.226244	161.5	21.4	-66.3	11.7
2026-01-16 06:53:57.470750	161.8	21.1	-66.5	12.2
2026-01-16 06:53:59.714267	162.1	20.9	-66.6	12.7
2026-01-16 06:54:01.958774	162.4	20.6	-66.4	12.3
2026-01-16 06:54:04.203281	162.7	20.3	-66.6	13.1
2026-01-16 06:54:06.447787	162.9	20.1	-66.0	11.8
2026-01-16 06:54:08.693303	163.2	19.8	-65.9	11.5
2026-01-16 06:54:10.937810	163.4	19.5	-66.3	12.1
2026-01-16 06:54:13.182318	163.7	19.3	-66.4	12.0
2026-01-16 06:54:15.426824	163.9	19.0	-65.9	10.1
2026-01-16 06:54:17.670836	164.2	18.8	-66.5	12.6
2026-01-16 06:54:19.914847	164.4	18.5	-66.0	11.9
2026-01-16 06:54:22.159353	164.7	18.3	-66.1	12.3
2026-01-16 06:54:24.403860	164.9	18.0	-66.3	12.0
2026-01-16 06:54:26.648873	165.1	17.8	-66.0	11.6
2026-01-16 06:54:28.893379	165.4	17.5	-66.2	11.2
2026-01-16 06:54:31.137886	165.6	17.3	-65.6	11.1
2026-01-16 06:54:33.384404	165.8	17.0	-66.4	11.6
2026-01-16 06:54:35.627919	166.0	16.8	-66.5	12.0
2026-01-16 06:54:37.871931	166.2	16.6	-66.2	11.9
2026-01-16 06:54:40.116456	166.5	16.3	-66.0	10.9
2026-01-16 06:54:42.359972	166.7	16.1	-66.3	11.3
2026-01-16 06:54:44.603983	166.9	15.9	-66.3	11.7
2026-01-16 06:54:46.847994	167.1	15.6	-66.4	12.0
2026-01-16 06:54:49.092501	167.3	15.4	-66.1	11.5
2026-01-16 06:54:51.339008	167.5	15.2	-65.6	10.6
2026-01-16 06:54:53.583515	167.7	14.9	-65.6	10.7
2026-01-16 06:54:55.827526	167.8	14.7	-65.7	11.0
2026-01-16 06:54:58.071538	168.0	14.5	-66.1	10.4
2026-01-16 06:55:00.315549	168.2	14.3	-64.9	9.2
2026-01-16 06:55:02.560056	168.4	14.1	-64.3	7.1
2026-01-16 06:55:04.803563	168.6	13.9	-65.5	10.2
2026-01-16 06:55:07.051080	168.8	13.6	-65.2	10.3
2026-01-16 06:55:09.294595	168.9	13.4	-64.5	8.9
2026-01-16 06:55:11.539102	169.1	13.2	-65.8	9.8
2026-01-16 06:55:13.783608	169.3	13.0	-64.8	8.1
2026-01-16 06:55:16.027620	169.4	12.8	-65.0	8.9
2026-01-16 06:55:18.270126	169.6	12.6	-63.7	8.8
2026-01-16 06:55:20.512633	169.8	12.4	-64.7	6.6
2026-01-16 06:55:22.755653	169.9	12.2	-65.8	8.4
2026-01-16 06:55:24.999167	170.1	12.0	-65.1	9.1
2026-01-16 06:55:27.241178	170.3	11.8	-65.4	9.1
2026-01-16 06:55:29.483198	170.4	11.6	-65.7	10.1
2026-01-16 06:55:31.724704	170.6	11.4	-65.5	7.9
2026-01-16 06:55:33.968211	170.7	11.2	-66.1	9.2
2026-01-16 06:55:36.212241	170.9	11.0	-65.1	7.9
2026-01-16 06:55:38.455757	171.0	10.8	-65.4	9.2
2026-01-16 06:55:40.700264	171.2	10.6	-65.2	7.7
2026-01-16 06:55:42.944771	171.3	10.4	-65.2	6.7
2026-01-16 06:55:45.186781	171.4	10.2	-65.1	7.4
2026-01-16 06:55:47.428792	171.6	10.1	-65.5	8.6
2026-01-16 06:55:49.671298	171.7	9.9	-65.4	7.5
2026-01-16 06:55:51.914805	171.9	9.7	-65.2	7.2
2026-01-16 06:55:54.157321	172.0	9.5	-64.2	7.2
2026-01-16 06:55:56.399827	172.1	9.3	-65.1	7.5
2026-01-16 06:55:58.644334	172.3	9.1	-64.8	6.4
2026-01-16 06:56:00.888841	172.4	9.0	-64.9	7.2
2026-01-16 06:56:03.132348	172.5	8.8	-64.6	6.2
2026-01-16 06:56:05.376854	172.6	8.6	-65.5	6.4
2026-01-16 06:56:07.620361	172.8	8.4	-64.7	6.0
2026-01-16 06:56:09.865877	172.9	8.3	-64.6	6.2
2026-01-16 06:56:12.110384	173.0	8.1	-63.8	3.5
2026-01-16 06:56:14.354395	173.1	7.9	-64.0	5.6
2026-01-16 06:56:16.598902	173.3	7.7	-65.1	6.6
2026-01-16 06:56:18.845409	173.4	7.6	-64.7	7.1
2026-01-16 06:56:21.089916	173.5	7.4	-64.2	4.4
2026-01-16 06:56:23.333927	173.6	7.2	-64.9	5.9
2026-01-16 06:56:25.577938	173.7	7.1	-64.8	6.1
2026-01-16 06:56:27.822445	173.8	6.9	-63.0	2.1
2026-01-16 06:56:30.066952	174.0	6.7	-63.7	4.1
2026-01-16 06:56:32.314460	174.1	6.6	-63.2	3.8
2026-01-16 06:56:34.558471	174.2	6.4	-62.2	2.7
2026-01-16 06:56:36.802482	174.3	6.2	-63.3	2.6
2026-01-16 06:56:39.046989	174.4	6.1	-63.7	4.4
2026-01-16 06:56:41.296506	174.5	5.9	-67.8	0.0
2026-01-16 06:56:43.541012	174.6	5.8	-68.2	0.0
2026-01-16 06:56:45.784520	174.7	5.6	-67.5	0.0
2026-01-16 06:56:48.029036	174.8	5.4	-67.7	0.0
2026-01-16 06:56:50.274047	174.9	5.3	-70.1	0.0
2026-01-16 06:56:52.518554	175.0	5.1	-69.2	0.0
#Closed at: 2026-01-16 06:44:21.628047