passes_logs/2026/01/16/PlanumMoscow/PlanumMoscow__20260116_082427_METEOR-M2_3_rec.log

#Pass ID: 20260116_082427_METEOR-M2 3
#Satellite: METEOR-M2 3
#Configuration: METEOR-M2 3
#Start time: 2026-01-16 08:24:32.022039

#LorettStation: 1.0.0 05.05.2024
#Station: PlanumMoscow
#Location: 37.6253844 lon 55.6713361 lat
#TLE: 1 57166U 23091A   25293.99389264  .00000062  00000+0  46113-4 0  9997
#TLE: 2 57166  98.6457 348.4330 0004759 135.3141 224.8422 14.24016546120475

#Time	Az	El	Level	SNR
2026-01-16 08:28:10.498853	349.2	25.5	-62.3	8.8
2026-01-16 08:28:12.739368	348.8	25.7	-61.9	8.4
2026-01-16 08:28:14.978443	348.3	26.0	-62.9	9.8
2026-01-16 08:28:17.218462	347.9	26.3	-61.9	9.3
2026-01-16 08:28:19.460524	347.4	26.6	-63.3	10.0
2026-01-16 08:28:21.705535	346.9	26.9	-63.3	10.0
2026-01-16 08:28:23.949052	346.5	27.2	-63.5	10.1
2026-01-16 08:28:26.193064	346.0	27.5	-62.0	7.6
2026-01-16 08:28:28.437571	345.5	27.7	-63.1	10.6
2026-01-16 08:28:30.680087	345.0	28.0	-62.4	11.0
2026-01-16 08:28:32.916592	344.5	28.3	-62.7	11.2
2026-01-16 08:28:35.153612	344.0	28.6	-62.5	9.4
2026-01-16 08:28:37.396118	343.4	28.9	-63.6	11.4
2026-01-16 08:28:39.639634	342.9	29.2	-63.1	11.7
2026-01-16 08:28:41.884184	342.3	29.5	-63.5	12.9
2026-01-16 08:28:44.128196	341.8	29.8	-63.7	11.0
2026-01-16 08:28:46.372216	341.2	30.1	-63.7	12.3
2026-01-16 08:28:48.618741	340.6	30.4	-63.1	10.8
2026-01-16 08:28:50.861761	340.0	30.7	-63.7	12.2
2026-01-16 08:28:53.105276	339.4	31.0	-63.2	10.2
2026-01-16 08:28:55.348792	338.8	31.2	-64.1	12.0
2026-01-16 08:28:57.587809	338.2	31.5	-63.1	10.3
2026-01-16 08:28:59.830838	337.6	31.8	-63.2	10.9
2026-01-16 08:29:02.072361	336.9	32.1	-63.4	9.0
2026-01-16 08:29:04.315372	336.2	32.4	-62.9	8.9
2026-01-16 08:29:06.559383	335.6	32.7	-64.1	11.6
2026-01-16 08:29:08.801394	334.9	33.0	-63.3	10.0
2026-01-16 08:29:11.041917	334.2	33.2	-62.8	9.7
2026-01-16 08:29:13.284432	333.5	33.5	-63.1	10.0
2026-01-16 08:29:15.527443	332.8	33.8	-64.3	12.5
2026-01-16 08:29:17.770958	332.0	34.1	-64.0	11.8
2026-01-16 08:29:20.014465	331.3	34.3	-64.2	11.6
2026-01-16 08:29:22.255492	330.5	34.6	-64.3	11.7
2026-01-16 08:29:24.497513	329.8	34.9	-61.9	7.1
2026-01-16 08:29:26.741524	329.0	35.1	-64.3	12.0
2026-01-16 08:29:28.984039	328.2	35.4	-63.4	11.2
2026-01-16 08:29:31.226555	327.4	35.6	-63.5	11.7
2026-01-16 08:29:33.468582	326.6	35.9	-63.0	12.1
2026-01-16 08:29:35.711096	325.7	36.1	-63.6	13.3
2026-01-16 08:29:37.956108	324.9	36.4	-63.6	12.3
2026-01-16 08:29:40.197127	324.0	36.6	-64.0	13.8
2026-01-16 08:29:42.439643	323.1	36.8	-62.9	10.7
2026-01-16 08:29:44.685655	322.3	37.0	-63.0	10.2
2026-01-16 08:29:46.928169	321.4	37.2	-63.8	11.1
2026-01-16 08:29:49.167684	320.5	37.4	-63.5	12.5
2026-01-16 08:29:51.409208	319.5	37.6	-64.1	12.0
2026-01-16 08:29:53.653741	318.6	37.8	-63.0	10.8
2026-01-16 08:29:55.895761	317.7	38.0	-63.9	11.3
2026-01-16 08:29:58.138772	316.7	38.2	-64.3	11.0
2026-01-16 08:30:00.381287	315.8	38.4	-63.4	10.1
2026-01-16 08:30:02.621314	314.8	38.5	-64.0	11.2
2026-01-16 08:30:04.864846	313.8	38.7	-63.6	8.5
2026-01-16 08:30:07.109353	312.8	38.8	-63.6	10.1
2026-01-16 08:30:09.352869	311.8	38.9	-63.8	10.5
2026-01-16 08:30:11.597375	310.8	39.1	-64.1	10.3
2026-01-16 08:30:13.840892	309.8	39.2	-63.9	10.7
2026-01-16 08:30:16.084408	308.8	39.3	-63.7	8.4
2026-01-16 08:30:18.327936	307.8	39.4	-63.8	9.6
2026-01-16 08:30:20.571947	306.7	39.5	-63.6	10.7
2026-01-16 08:30:22.815472	305.7	39.5	-62.8	9.0
2026-01-16 08:30:25.058989	304.7	39.6	-63.7	10.7
2026-01-16 08:30:27.302020	303.6	39.6	-63.4	10.6
2026-01-16 08:30:29.546030	302.6	39.7	-63.1	9.0
2026-01-16 08:30:31.788059	301.5	39.7	-64.9	11.6
2026-01-16 08:30:34.031575	300.5	39.7	-64.4	11.1
2026-01-16 08:30:36.276594	299.4	39.7	-64.3	10.7
2026-01-16 08:30:38.520110	298.4	39.7	-64.1	11.0
2026-01-16 08:30:40.763626	297.3	39.7	-63.8	9.8
2026-01-16 08:30:43.007638	296.3	39.7	-63.9	10.1
2026-01-16 08:30:45.254660	295.2	39.7	-63.7	11.5
2026-01-16 08:30:47.498176	294.2	39.6	-63.9	11.2
2026-01-16 08:30:49.742193	293.1	39.6	-64.0	12.4
2026-01-16 08:30:51.985721	292.1	39.5	-63.3	11.5
2026-01-16 08:30:54.229236	291.0	39.4	-62.3	9.2
2026-01-16 08:30:56.473743	290.0	39.3	-62.1	9.1
2026-01-16 08:30:58.717754	289.0	39.2	-63.4	11.4
2026-01-16 08:31:00.961269	288.0	39.1	-63.4	11.3
2026-01-16 08:31:03.205785	287.0	39.0	-62.5	8.6
2026-01-16 08:31:05.449804	286.0	38.9	-63.2	9.2
2026-01-16 08:31:07.693320	285.0	38.7	-62.6	8.2
2026-01-16 08:31:09.937341	284.0	38.6	-63.1	7.5
2026-01-16 08:31:12.181848	283.0	38.4	-62.7	8.1
2026-01-16 08:31:14.424869	282.0	38.3	-61.9	8.2
2026-01-16 08:31:16.668880	281.1	38.1	-61.8	7.1
2026-01-16 08:31:18.911404	280.1	37.9	-61.4	7.6
2026-01-16 08:31:21.154919	279.2	37.7	-61.6	7.8
2026-01-16 08:31:23.399426	278.3	37.5	-61.3	9.8
2026-01-16 08:31:25.643437	277.4	37.3	-61.2	6.7
2026-01-16 08:31:27.886466	276.5	37.1	-62.4	9.5
2026-01-16 08:31:30.130477	275.6	36.9	-61.9	8.6
2026-01-16 08:31:32.373001	274.7	36.7	-61.6	7.7
2026-01-16 08:31:34.614534	273.8	36.4	-60.5	5.4
2026-01-16 08:31:36.858545	273.0	36.2	-60.7	6.5
2026-01-16 08:31:39.102566	272.1	36.0	-59.7	5.6
2026-01-16 08:31:41.346578	271.3	35.7	-61.1	5.9
2026-01-16 08:31:43.591102	270.5	35.5	-61.4	7.2
2026-01-16 08:31:45.835114	269.7	35.2	-61.5	7.1
2026-01-16 08:31:48.079126	268.9	34.9	-58.5	0.8
2026-01-16 08:31:50.322192	268.1	34.7	-60.8	3.6
2026-01-16 08:31:52.565708	267.4	34.4	-59.8	5.1
2026-01-16 08:31:54.809224	266.6	34.1	-60.8	5.7
2026-01-16 08:31:57.053235	265.9	33.9	-60.7	6.4
2026-01-16 08:31:59.296255	265.1	33.6	-58.2	2.3
2026-01-16 08:32:01.541762	264.4	33.3	-58.3	3.1
2026-01-16 08:32:03.784302	263.7	33.0	-58.1	3.7
2026-01-16 08:32:06.028313	263.0	32.8	-57.8	2.6
2026-01-16 08:32:08.272820	262.3	32.5	-60.6	5.1
2026-01-16 08:32:10.516841	261.7	32.2	-58.8	3.3
2026-01-16 08:32:12.760852	261.0	31.9	-59.7	4.9
2026-01-16 08:32:15.005359	260.4	31.6	-57.8	1.6
2026-01-16 08:32:17.248389	259.7	31.3	-58.3	3.5
2026-01-16 08:32:19.492896	259.1	31.0	-60.1	2.3
2026-01-16 08:32:21.736908	258.5	30.7	-59.7	4.5
2026-01-16 08:32:23.980422	257.9	30.4	-57.2	1.0
2026-01-16 08:32:26.225434	257.3	30.1	-59.2	4.4
2026-01-16 08:32:28.469444	256.7	29.8	-58.9	4.4
2026-01-16 08:32:30.712960	256.2	29.5	-59.8	6.3
2026-01-16 08:32:32.955980	255.6	29.3	-58.4	3.3
2026-01-16 08:32:35.199000	255.1	29.0	-58.3	3.3
2026-01-16 08:32:37.443507	254.5	28.7	-58.0	3.7
2026-01-16 08:32:39.687517	254.0	28.4	-57.4	1.5
2026-01-16 08:32:41.931529	253.5	28.1	-59.1	2.6
2026-01-16 08:32:44.174062	253.0	27.8	-58.6	1.9
2026-01-16 08:32:46.417577	252.5	27.5	-58.6	0.8
2026-01-16 08:32:48.662084	252.0	27.2	-57.4	0.8
2026-01-16 08:32:50.905599	251.5	26.9	-57.6	1.2
2026-01-16 08:32:53.149115	251.0	26.6	-60.2	5.1
2026-01-16 08:32:55.393622	250.6	26.3	-59.3	2.9
2026-01-16 08:32:57.636641	250.1	26.0	-56.3	0.0
2026-01-16 08:32:59.880157	249.7	25.8	-58.0	0.0
2026-01-16 08:33:02.126664	249.2	25.5	-59.1	3.8
2026-01-16 08:33:04.370179	248.8	25.2	-59.5	3.3
2026-01-16 08:33:06.614686	248.4	24.9	-57.4	0.1
2026-01-16 08:33:08.860715	248.0	24.6	-56.8	0.0
2026-01-16 08:33:11.104230	247.6	24.3	-59.4	3.9
2026-01-16 08:33:13.348746	247.2	24.1	-59.9	5.1
2026-01-16 08:33:15.592262	246.8	23.8	-58.1	1.6
2026-01-16 08:33:17.835778	246.4	23.5	-60.1	4.8
2026-01-16 08:33:20.080293	246.0	23.2	-59.8	4.1
2026-01-16 08:33:22.324305	245.6	23.0	-60.6	4.7
2026-01-16 08:33:24.567334	245.3	22.7	-58.7	0.6
2026-01-16 08:33:26.811346	244.9	22.4	-60.0	2.9
2026-01-16 08:33:29.055853	244.6	22.2	-60.3	3.8
2026-01-16 08:33:31.300864	244.2	21.9	-60.3	3.6
2026-01-16 08:33:33.547879	243.9	21.6	-59.3	1.1
2026-01-16 08:33:35.790896	243.5	21.4	-60.5	3.7
2026-01-16 08:33:38.033917	243.2	21.1	-58.3	0.0
2026-01-16 08:33:40.276936	242.9	20.9	-60.5	3.6
2026-01-16 08:33:42.519469	242.6	20.6	-59.7	1.2
2026-01-16 08:33:44.763480	242.2	20.3	-59.8	3.9
2026-01-16 08:33:47.007491	241.9	20.1	-59.2	2.0
2026-01-16 08:33:49.251502	241.6	19.8	-60.9	3.5
2026-01-16 08:33:51.494522	241.3	19.6	-59.8	0.8
2026-01-16 08:33:53.741029	241.0	19.3	-59.1	0.0
2026-01-16 08:33:55.984545	240.8	19.1	-58.5	0.0
2026-01-16 08:33:58.228060	240.5	18.8	-61.0	3.2
2026-01-16 08:34:00.471576	240.2	18.6	-58.6	0.8
2026-01-16 08:34:02.715091	239.9	18.4	-61.7	4.5
2026-01-16 08:34:04.957616	239.6	18.1	-58.4	0.0
2026-01-16 08:34:07.202123	239.4	17.9	-57.1	0.0
2026-01-16 08:34:09.446647	239.1	17.6	-58.8	0.0
2026-01-16 08:34:11.690163	238.9	17.4	-58.6	4.6
2026-01-16 08:34:13.932687	238.6	17.2	-57.7	0.0
2026-01-16 08:34:16.175210	238.4	16.9	-59.8	4.3
2026-01-16 08:34:18.420241	238.1	16.7	-60.1	3.7
2026-01-16 08:34:20.663260	237.9	16.5	-60.6	2.9
2026-01-16 08:34:22.907271	237.6	16.3	-58.9	0.7
2026-01-16 08:34:25.151291	237.4	16.0	-59.8	0.0
2026-01-16 08:34:27.394319	237.2	15.8	-60.3	2.2
2026-01-16 08:34:29.637834	236.9	15.6	-60.9	4.2
2026-01-16 08:34:31.881846	236.7	15.4	-60.5	0.0
2026-01-16 08:34:34.125362	236.5	15.1	-60.1	2.2
2026-01-16 08:34:36.369381	236.3	14.9	-60.8	2.8
2026-01-16 08:34:38.612897	236.1	14.7	-60.6	2.2
2026-01-16 08:34:40.856908	235.9	14.5	-60.4	0.9
2026-01-16 08:34:43.104920	235.7	14.3	-59.6	0.0
2026-01-16 08:34:45.348931	235.4	14.1	-61.6	2.6
2026-01-16 08:34:47.594943	235.2	13.9	-61.3	1.0
2026-01-16 08:34:49.838459	235.0	13.7	-61.4	1.3
2026-01-16 08:34:52.082965	234.8	13.4	-61.0	0.0
2026-01-16 08:34:54.326481	234.7	13.2	-62.2	2.0
2026-01-16 08:34:56.569501	234.5	13.0	-61.3	0.0
2026-01-16 08:34:58.813016	234.3	12.8	-62.3	3.3
2026-01-16 08:35:01.057531	234.1	12.6	-62.4	2.9
2026-01-16 08:35:03.302038	233.9	12.4	-62.4	1.5
2026-01-16 08:35:05.546050	233.7	12.2	-61.0	2.1
2026-01-16 08:35:07.789566	233.6	12.0	-61.1	0.0
2026-01-16 08:35:10.033577	233.4	11.8	-61.5	1.6
2026-01-16 08:35:12.281100	233.2	11.6	-60.5	0.0
2026-01-16 08:35:14.524649	233.0	11.5	-61.8	2.3
2026-01-16 08:35:16.771669	232.9	11.3	-61.4	0.5
2026-01-16 08:35:19.016177	232.7	11.1	-62.9	1.9
2026-01-16 08:35:21.260692	232.5	10.9	-61.2	0.0
2026-01-16 08:35:23.504704	232.4	10.7	-61.6	0.5
2026-01-16 08:35:25.748715	232.2	10.5	-61.0	0.0
2026-01-16 08:35:27.993726	232.1	10.3	-60.2	1.4
2026-01-16 08:35:30.237738	231.9	10.1	-60.2	0.0
2026-01-16 08:35:32.481255	231.7	10.0	-59.8	0.0
2026-01-16 08:35:34.725266	231.6	9.8	-58.8	0.0
2026-01-16 08:35:36.969277	231.4	9.6	-59.6	0.0
2026-01-16 08:35:39.212298	231.3	9.4	-61.8	1.2
2026-01-16 08:35:41.455317	231.2	9.2	-61.5	0.9
2026-01-16 08:35:43.698338	231.0	9.1	-61.2	0.0
2026-01-16 08:35:45.942853	230.9	8.9	-61.7	0.0
2026-01-16 08:35:48.185873	230.7	8.7	-60.8	0.0
2026-01-16 08:35:50.429399	230.6	8.5	-59.6	0.0
2026-01-16 08:35:52.674411	230.5	8.4	-59.9	0.0
2026-01-16 08:35:54.918926	230.3	8.2	-61.7	0.0
2026-01-16 08:35:57.162937	230.2	8.0	-61.7	1.4
2026-01-16 08:35:59.404967	230.1	7.8	-61.3	0.4
2026-01-16 08:36:01.647988	229.9	7.7	-60.7	0.0
2026-01-16 08:36:03.892504	229.8	7.5	-61.5	0.0
2026-01-16 08:36:06.135038	229.7	7.3	-60.9	0.0
2026-01-16 08:36:08.379048	229.5	7.2	-61.2	0.0
2026-01-16 08:36:10.621572	229.4	7.0	-60.0	0.0
2026-01-16 08:36:12.864592	229.3	6.8	-61.8	0.3
2026-01-16 08:36:15.108116	229.2	6.7	-58.1	0.0
2026-01-16 08:36:17.351633	229.1	6.5	-61.7	0.0
2026-01-16 08:36:19.595148	228.9	6.3	-61.2	0.0
2026-01-16 08:36:21.838663	228.8	6.2	-61.4	0.0
2026-01-16 08:36:24.082675	228.7	6.0	-61.1	0.0
2026-01-16 08:36:26.326199	228.6	5.9	-61.1	0.0
2026-01-16 08:36:28.570705	228.5	5.7	-61.6	0.0
2026-01-16 08:36:30.815717	228.4	5.6	-62.3	0.0
2026-01-16 08:36:33.059728	228.3	5.4	-65.1	0.0
2026-01-16 08:36:35.305235	228.2	5.2	-69.5	0.0
2026-01-16 08:36:37.550247	228.0	5.1	-69.8	0.0
#Closed at: 2026-01-16 08:24:27.024432