passes_logs/2025/01/20/planumMaritime01/planumMaritime01__20250120_162229_METOP-B_rec.log

#Pass ID: 20250120_162229_METOP-B
#Satellite: METOP-B
#Configuration: METOP-B
#Start time: 2025-01-20 16:22:34.113742

#LorettStation: 1.0.0 05.05.2024
#Station: planumMaritime01
#Location: 37.49445 lon 55.92918 lat
#TLE: 1 38771U 12049A   25020.18055289  .00000337  00000+0  17386-3 0  9999
#TLE: 2 38771  98.6003  78.2050 0001673  75.6158 284.5205 14.21413992640377

#Time	Az	El	Level	SNR
2025-01-20 16:22:36.274419	110.3	10.2	-72.4	0.0
2025-01-20 16:22:38.522663	110.0	10.3	-70.4	0.0
2025-01-20 16:22:40.765167	109.8	10.5	-70.8	0.0
2025-01-20 16:22:43.011993	109.6	10.7	-71.3	0.0
2025-01-20 16:22:45.258102	109.3	10.8	-72.7	0.0
2025-01-20 16:22:47.502737	109.1	11.0	-70.7	0.0
2025-01-20 16:22:49.749080	108.8	11.2	-72.2	0.0
2025-01-20 16:22:51.995377	108.6	11.3	-72.1	0.0
2025-01-20 16:22:54.242741	108.4	11.5	-72.9	0.0
2025-01-20 16:22:56.488332	108.1	11.7	-71.5	0.0
2025-01-20 16:22:58.733917	107.8	11.8	-74.3	0.0
2025-01-20 16:23:00.979780	107.6	12.0	-74.5	0.0
2025-01-20 16:23:03.229261	107.3	12.2	-71.8	0.0
2025-01-20 16:23:05.476098	107.1	12.3	-73.7	0.0
2025-01-20 16:23:07.721542	106.8	12.5	-74.3	0.0
2025-01-20 16:23:09.966452	106.5	12.7	-71.9	0.0
2025-01-20 16:23:12.212603	106.2	12.9	-74.6	0.0
2025-01-20 16:23:14.459528	106.0	13.0	-73.4	0.0
2025-01-20 16:23:16.706518	105.7	13.2	-72.7	0.0
2025-01-20 16:23:18.954281	105.4	13.4	-74.1	0.0
2025-01-20 16:23:21.201926	105.1	13.6	-74.7	0.0
2025-01-20 16:23:23.451987	104.8	13.7	-73.4	0.0
2025-01-20 16:23:25.699989	104.5	13.9	-72.2	0.0
2025-01-20 16:23:27.948728	104.2	14.1	-74.1	0.0
2025-01-20 16:23:30.193761	103.9	14.3	-73.3	0.0
2025-01-20 16:23:32.444137	103.6	14.5	-72.7	0.0
2025-01-20 16:23:34.690968	103.3	14.6	-71.7	0.0
2025-01-20 16:23:36.935824	103.0	14.8	-72.8	0.0
2025-01-20 16:23:39.181615	102.7	15.0	-70.6	0.0
2025-01-20 16:23:41.429381	102.4	15.2	-70.5	0.0
2025-01-20 16:23:43.676252	102.0	15.4	-70.6	0.0
2025-01-20 16:23:45.924159	101.7	15.5	-70.8	0.0
2025-01-20 16:23:48.168515	101.4	15.7	-68.2	0.0
2025-01-20 16:23:50.411482	101.0	15.9	-66.4	0.0
2025-01-20 16:23:52.657024	100.7	16.1	-63.6	0.0
2025-01-20 16:23:54.900656	100.3	16.3	-63.3	0.0
2025-01-20 16:23:57.150385	100.0	16.5	-71.7	0.0
2025-01-20 16:23:59.398698	99.6	16.6	-66.5	0.0
2025-01-20 16:24:01.642483	99.3	16.8	-66.8	0.0
2025-01-20 16:24:03.889029	98.9	17.0	-65.4	0.0
2025-01-20 16:24:06.132095	98.6	17.2	-72.0	0.0
2025-01-20 16:24:08.377624	98.2	17.4	-69.0	0.0
2025-01-20 16:24:10.622973	97.8	17.6	-70.3	0.0
2025-01-20 16:24:12.870198	97.4	17.7	-71.0	0.0
2025-01-20 16:24:15.118380	97.0	17.9	-70.7	0.0
2025-01-20 16:24:17.367083	96.6	18.1	-71.5	0.0
2025-01-20 16:24:19.613604	96.2	18.3	-70.8	0.0
2025-01-20 16:24:21.860628	95.8	18.5	-71.6	0.0
2025-01-20 16:24:24.108654	95.4	18.7	-70.5	0.0
2025-01-20 16:24:26.353768	95.0	18.9	-70.6	0.0
2025-01-20 16:24:28.599301	94.6	19.0	-67.3	0.0
2025-01-20 16:24:30.844848	94.2	19.2	-65.6	0.0
2025-01-20 16:24:33.091186	93.8	19.4	-73.3	0.0
2025-01-20 16:24:35.338219	93.3	19.6	-71.3	0.0
2025-01-20 16:24:37.586219	92.9	19.8	-70.8	0.0
2025-01-20 16:24:39.834516	92.4	20.0	-71.6	0.0
2025-01-20 16:24:42.081355	92.0	20.1	-69.2	0.0
2025-01-20 16:24:44.325698	91.5	20.3	-72.4	0.0
2025-01-20 16:24:46.570959	91.1	20.5	-71.4	0.0
2025-01-20 16:24:48.817798	90.6	20.7	-72.7	0.0
2025-01-20 16:24:51.064668	90.2	20.9	-70.3	0.0
2025-01-20 16:24:53.312993	89.7	21.1	-73.7	0.0
2025-01-20 16:24:55.556554	89.2	21.2	-73.1	0.0
2025-01-20 16:24:57.804769	88.7	21.4	-71.9	0.0
2025-01-20 16:25:00.053096	88.2	21.6	-73.9	0.0
2025-01-20 16:25:02.297526	87.7	21.8	-73.8	0.0
2025-01-20 16:25:04.544235	87.2	21.9	-74.2	0.0
2025-01-20 16:25:06.788968	86.7	22.1	-73.9	0.0
2025-01-20 16:25:09.038153	86.2	22.3	-72.4	0.0
2025-01-20 16:25:11.281418	85.7	22.4	-73.8	0.0
2025-01-20 16:25:13.528324	85.1	22.6	-74.3	0.0
2025-01-20 16:25:15.773990	84.6	22.8	-73.2	0.0
2025-01-20 16:25:18.021720	84.1	23.0	-70.8	0.0
2025-01-20 16:25:20.265789	83.5	23.1	-74.0	0.0
2025-01-20 16:25:22.515954	83.0	23.3	-67.5	0.0
2025-01-20 16:25:24.760546	82.4	23.4	-68.1	0.0
2025-01-20 16:25:27.007430	81.9	23.6	-72.0	0.0
2025-01-20 16:25:29.253045	81.3	23.8	-68.7	0.0
2025-01-20 16:25:31.498118	80.7	23.9	-69.2	0.0
2025-01-20 16:25:33.744103	80.1	24.1	-72.2	0.0
2025-01-20 16:25:35.990502	79.6	24.2	-71.1	0.0
2025-01-20 16:25:38.236411	79.0	24.4	-71.7	0.0
2025-01-20 16:25:40.486245	78.4	24.5	-72.2	0.0
2025-01-20 16:25:42.734178	77.8	24.6	-73.0	0.0
2025-01-20 16:25:44.977619	77.2	24.8	-71.2	0.0
2025-01-20 16:25:47.226117	76.6	24.9	-71.8	0.0
2025-01-20 16:25:49.471102	75.9	25.1	-71.7	0.0
2025-01-20 16:25:51.718706	75.3	25.2	-69.6	0.0
2025-01-20 16:25:53.963947	74.7	25.3	-70.8	0.0
2025-01-20 16:25:56.213532	74.1	25.4	-71.7	0.0
2025-01-20 16:25:58.458691	73.4	25.6	-71.7	0.0
2025-01-20 16:26:00.705017	72.8	25.7	-71.7	0.0
2025-01-20 16:26:02.951601	72.1	25.8	-71.6	0.0
2025-01-20 16:26:05.194170	71.5	25.9	-69.0	0.0
2025-01-20 16:26:07.441606	70.8	26.0	-67.2	0.0
2025-01-20 16:26:09.686668	70.2	26.1	-68.2	0.0
2025-01-20 16:26:11.931949	69.5	26.2	-68.0	0.0
2025-01-20 16:26:14.176182	68.8	26.3	-68.2	0.0
2025-01-20 16:26:16.421797	68.2	26.4	-68.3	0.0
2025-01-20 16:26:18.667565	67.5	26.5	-70.0	0.0
2025-01-20 16:26:20.914813	66.8	26.6	-68.8	0.0
2025-01-20 16:26:23.163117	66.1	26.7	-66.3	0.0
2025-01-20 16:26:25.411591	65.4	26.7	-68.6	0.0
2025-01-20 16:26:27.656721	64.7	26.8	-68.3	0.0
2025-01-20 16:26:29.902310	64.0	26.9	-69.1	0.0
2025-01-20 16:26:32.148978	63.4	26.9	-69.1	0.0
2025-01-20 16:26:34.393854	62.7	27.0	-69.3	0.0
2025-01-20 16:26:36.638710	62.0	27.1	-72.6	0.0
2025-01-20 16:26:38.883759	61.3	27.1	-72.5	0.0
2025-01-20 16:26:41.130344	60.5	27.1	-70.2	0.0
2025-01-20 16:26:43.375544	59.8	27.2	-71.2	0.0
2025-01-20 16:26:45.619772	59.1	27.2	-70.6	0.0
2025-01-20 16:26:47.865053	58.4	27.3	-70.0	0.0
2025-01-20 16:26:50.112615	57.7	27.3	-68.8	0.0
2025-01-20 16:26:52.360895	57.0	27.3	-70.1	0.0
2025-01-20 16:26:54.605935	56.3	27.3	-68.8	0.0
2025-01-20 16:26:56.851756	55.6	27.3	-70.0	0.0
2025-01-20 16:26:59.097778	54.9	27.3	-70.7	0.0
2025-01-20 16:27:01.350341	54.1	27.3	-69.1	0.0
2025-01-20 16:27:03.598460	53.4	27.3	-69.7	0.0
2025-01-20 16:27:05.844754	52.7	27.3	-67.4	0.0
2025-01-20 16:27:08.091593	52.0	27.3	-67.8	0.0
2025-01-20 16:27:10.337099	51.3	27.3	-66.9	0.0
2025-01-20 16:27:12.583343	50.6	27.3	-66.8	0.0
2025-01-20 16:27:14.827095	49.9	27.2	-67.3	0.0
2025-01-20 16:27:17.074430	49.2	27.2	-67.4	0.0
2025-01-20 16:27:19.321916	48.4	27.2	-67.2	0.0
2025-01-20 16:27:21.566093	47.7	27.1	-67.5	0.0
2025-01-20 16:27:23.811182	47.0	27.1	-67.1	0.0
2025-01-20 16:27:26.058117	46.3	27.0	-66.9	0.0
2025-01-20 16:27:28.306210	45.6	27.0	-66.1	0.0
2025-01-20 16:27:30.550990	44.9	26.9	-66.8	0.0
2025-01-20 16:27:32.797124	44.3	26.8	-67.8	0.0
2025-01-20 16:27:35.043695	43.6	26.8	-67.3	0.0
2025-01-20 16:27:37.291397	42.9	26.7	-68.4	0.0
2025-01-20 16:27:39.537592	42.2	26.6	-68.0	0.0
2025-01-20 16:27:41.782833	41.5	26.5	-67.8	0.0
2025-01-20 16:27:44.029064	40.8	26.4	-69.2	0.0
2025-01-20 16:27:46.276129	40.2	26.3	-69.2	0.0
2025-01-20 16:27:48.521075	39.5	26.2	-68.1	0.0
2025-01-20 16:27:50.772682	38.8	26.1	-64.6	0.0
2025-01-20 16:27:53.018551	38.2	26.0	-67.5	0.0
2025-01-20 16:27:55.268767	37.5	25.9	-63.6	0.0
2025-01-20 16:27:57.515055	36.9	25.8	-70.5	0.0
2025-01-20 16:27:59.765041	36.2	25.7	-67.2	0.0
2025-01-20 16:28:02.012776	35.6	25.6	-69.3	0.0
2025-01-20 16:28:04.257616	34.9	25.5	-68.9	0.0
2025-01-20 16:28:06.504943	34.3	25.3	-67.7	0.0
2025-01-20 16:28:08.750956	33.7	25.2	-67.6	0.0
2025-01-20 16:28:11.001111	33.1	25.1	-67.4	0.0
2025-01-20 16:28:13.247986	32.4	25.0	-68.9	0.0
2025-01-20 16:28:15.493053	31.8	24.8	-66.9	0.0
2025-01-20 16:28:17.740093	31.2	24.7	-66.7	0.0
2025-01-20 16:28:19.987734	30.6	24.5	-66.7	0.0
2025-01-20 16:28:22.235312	30.0	24.4	-64.9	0.0
2025-01-20 16:28:24.482245	29.4	24.2	-64.8	0.0
2025-01-20 16:28:26.728509	28.9	24.1	-65.7	0.0
2025-01-20 16:28:28.974996	28.3	23.9	-60.4	0.0
2025-01-20 16:28:31.220452	27.7	23.8	-63.4	0.0
2025-01-20 16:28:33.466037	27.1	23.6	-66.1	0.0
2025-01-20 16:28:35.714094	26.6	23.5	-63.8	0.0
2025-01-20 16:28:37.961159	26.0	23.3	-62.8	0.0
2025-01-20 16:28:40.207353	25.5	23.2	-67.6	0.0
2025-01-20 16:28:42.454970	24.9	23.0	-66.0	0.0
2025-01-20 16:28:44.701123	24.4	22.8	-66.3	0.0
2025-01-20 16:28:46.947989	23.9	22.7	-65.3	0.0
2025-01-20 16:28:49.194970	23.3	22.5	-66.8	0.0
2025-01-20 16:28:51.441108	22.8	22.3	-62.4	0.0
2025-01-20 16:28:53.687662	22.3	22.2	-66.6	0.0
2025-01-20 16:28:55.935233	21.8	22.0	-69.0	0.0
2025-01-20 16:28:58.178355	21.3	21.8	-68.6	0.0
2025-01-20 16:29:00.424158	20.8	21.6	-69.5	0.0
2025-01-20 16:29:02.670091	20.3	21.5	-68.1	0.0
2025-01-20 16:29:04.916068	19.8	21.3	-67.6	0.0
2025-01-20 16:29:07.163418	19.3	21.1	-65.0	0.0
2025-01-20 16:29:09.411638	18.9	20.9	-63.2	0.0
2025-01-20 16:29:11.657868	18.4	20.7	-62.0	0.0
2025-01-20 16:29:13.909265	17.9	20.6	-64.6	0.0
2025-01-20 16:29:16.153724	17.5	20.4	-64.8	0.0
2025-01-20 16:29:18.398260	17.0	20.2	-66.0	0.0
2025-01-20 16:29:20.645656	16.6	20.0	-65.0	0.0
2025-01-20 16:29:22.890920	16.1	19.8	-65.1	0.0
2025-01-20 16:29:25.133946	15.7	19.7	-64.3	0.0
2025-01-20 16:29:27.379886	15.3	19.5	-64.6	0.0
2025-01-20 16:29:29.627236	14.9	19.3	-64.6	0.0
2025-01-20 16:29:31.874380	14.4	19.1	-67.0	0.0
2025-01-20 16:29:34.121927	14.0	18.9	-66.3	0.0
2025-01-20 16:29:36.369057	13.6	18.7	-66.9	0.0
2025-01-20 16:29:38.616770	13.2	18.6	-66.0	0.0
2025-01-20 16:29:40.864927	12.8	18.4	-63.6	0.0
2025-01-20 16:29:43.113589	12.4	18.2	-64.6	0.0
2025-01-20 16:29:45.361277	12.0	18.0	-65.1	0.0
2025-01-20 16:29:47.609778	11.6	17.8	-66.1	0.0
2025-01-20 16:29:49.853049	11.2	17.6	-67.0	0.0
2025-01-20 16:29:52.099508	10.9	17.5	-69.0	0.0
2025-01-20 16:29:54.346833	10.5	17.3	-66.8	0.0
2025-01-20 16:29:56.593351	10.1	17.1	-68.3	0.0
2025-01-20 16:29:58.841928	9.8	16.9	-66.8	0.0
2025-01-20 16:30:01.086666	9.4	16.7	-64.4	0.0
2025-01-20 16:30:03.333754	9.1	16.5	-70.0	0.0
2025-01-20 16:30:05.578861	8.7	16.3	-68.5	0.0
2025-01-20 16:30:07.823679	8.4	16.2	-65.2	0.0
2025-01-20 16:30:10.069370	8.0	16.0	-66.1	0.0
2025-01-20 16:30:12.319149	7.7	15.8	-66.6	0.0
2025-01-20 16:30:14.566324	7.4	15.6	-64.7	0.0
2025-01-20 16:30:16.811674	7.0	15.4	-65.3	0.0
2025-01-20 16:30:19.057600	6.7	15.3	-65.5	0.0
2025-01-20 16:30:21.304931	6.4	15.1	-66.8	0.0
2025-01-20 16:30:23.551242	6.1	14.9	-65.8	0.0
2025-01-20 16:30:25.799449	5.8	14.7	-67.2	0.0
2025-01-20 16:30:28.044319	5.5	14.5	-67.7	0.0
2025-01-20 16:30:30.289796	5.1	14.4	-68.2	0.0
2025-01-20 16:30:32.536418	4.8	14.2	-66.9	0.0
2025-01-20 16:30:34.782345	4.6	14.0	-67.3	0.0
2025-01-20 16:30:37.028504	4.3	13.8	-67.1	0.0
2025-01-20 16:30:39.275306	4.0	13.7	-69.2	0.0
2025-01-20 16:30:41.520119	3.7	13.5	-66.8	0.0
2025-01-20 16:30:43.766080	3.4	13.3	-67.2	0.0
2025-01-20 16:30:46.010397	3.1	13.1	-68.6	0.0
2025-01-20 16:30:48.254279	2.8	13.0	-70.3	0.0
2025-01-20 16:30:50.502462	2.6	12.8	-67.5	0.0
2025-01-20 16:30:52.749333	2.3	12.6	-66.5	0.0
2025-01-20 16:30:54.994372	2.0	12.4	-68.3	0.0
2025-01-20 16:30:57.241150	1.8	12.3	-70.0	0.0
2025-01-20 16:30:59.485275	1.5	12.1	-69.2	0.0
2025-01-20 16:31:01.732590	1.3	11.9	-66.6	0.0
2025-01-20 16:31:03.978449	1.0	11.8	-67.3	0.0
2025-01-20 16:31:06.223037	0.8	11.6	-67.5	0.0
2025-01-20 16:31:08.470664	0.5	11.4	-67.0	0.0
2025-01-20 16:31:10.718901	0.3	11.2	-66.8	0.0
2025-01-20 16:31:12.967634	0.0	11.1	-69.5	0.0
2025-01-20 16:31:15.214473	359.8	10.9	-66.5	0.0
2025-01-20 16:31:17.461114	359.5	10.7	-69.2	0.0
2025-01-20 16:31:19.709206	359.3	10.6	-80.1	0.0
2025-01-20 16:31:21.961070	359.1	10.4	-80.7	0.0
2025-01-20 16:31:24.209950	358.9	10.3	-81.6	0.0
2025-01-20 16:31:26.455862	358.6	10.1	-81.7	0.0
#Closed at: 2025-01-20 16:22:29.115927