passes_logs/2025/01/20/planumMaritime01/planumMaritime01__20250120_054846_METOP-C_rec.log

#Pass ID: 20250120_054846_METOP-C
#Satellite: METOP-C
#Configuration: METOP-C
#Start time: 2025-01-20 05:48:51.446095

#LorettStation: 1.0.0 05.05.2024
#Station: planumMaritime01
#Location: 37.49445 lon 55.92918 lat
#TLE: 1 43689U 18087A   25019.16395634  .00000282  00000+0  14866-3 0  9997
#TLE: 2 43689  98.6958  81.5940 0001612 156.8186 203.3064 14.21483818321801

#Time	Az	El	Level	SNR
2025-01-20 05:48:53.608300	52.2	10.1	-94.7	0.0
2025-01-20 05:48:54.730806	52.4	10.1	-94.6	0.0
2025-01-20 05:48:55.854093	52.6	10.2	-94.4	0.0
2025-01-20 05:48:56.975422	52.8	10.2	-94.7	0.0
2025-01-20 05:48:58.098287	53.0	10.3	-94.8	0.0
2025-01-20 05:48:59.219517	53.1	10.3	-94.5	0.0
2025-01-20 05:49:00.341393	53.3	10.4	-94.8	0.0
2025-01-20 05:49:01.462207	53.5	10.4	-94.7	0.0
2025-01-20 05:49:02.583629	53.7	10.4	-94.7	0.0
2025-01-20 05:49:03.702995	53.9	10.5	-94.6	0.0
2025-01-20 05:49:04.824165	54.1	10.5	-94.5	0.0
2025-01-20 05:49:05.944221	54.2	10.6	-94.6	0.0
2025-01-20 05:49:07.065831	54.4	10.6	-94.5	0.0
2025-01-20 05:49:08.187486	54.6	10.7	-94.7	0.0
2025-01-20 05:49:09.306917	54.8	10.7	-94.4	0.0
2025-01-20 05:49:10.428659	55.0	10.8	-94.5	0.0
2025-01-20 05:49:11.547837	55.2	10.8	-94.7	0.0
2025-01-20 05:49:12.669010	55.4	10.8	-94.6	0.0
2025-01-20 05:49:13.790171	55.6	10.9	-94.5	0.0
2025-01-20 05:49:14.912339	55.7	10.9	-94.6	0.0
2025-01-20 05:49:16.033753	55.9	11.0	-94.4	0.0
2025-01-20 05:49:17.155428	56.1	11.0	-94.6	0.0
2025-01-20 05:49:18.275831	56.3	11.0	-94.7	0.0
2025-01-20 05:49:19.396529	56.5	11.1	-94.7	0.0
2025-01-20 05:49:20.517094	56.7	11.1	-94.5	0.0
2025-01-20 05:49:21.638175	56.9	11.2	-94.6	0.0
2025-01-20 05:49:22.758729	57.1	11.2	-94.7	0.0
2025-01-20 05:49:23.879614	57.3	11.3	-94.5	0.0
2025-01-20 05:49:25.000418	57.5	11.3	-94.7	0.0
2025-01-20 05:49:26.122724	57.7	11.3	-94.6	0.0
2025-01-20 05:49:27.241929	57.9	11.4	-94.6	0.0
2025-01-20 05:49:28.364631	58.1	11.4	-94.7	0.0
2025-01-20 05:49:29.485933	58.3	11.5	-94.7	0.0
2025-01-20 05:49:30.607854	58.5	11.5	-94.4	0.0
2025-01-20 05:49:31.728630	58.6	11.5	-94.5	0.0
2025-01-20 05:49:32.849606	58.8	11.6	-94.6	0.0
2025-01-20 05:49:33.970703	59.0	11.6	-94.7	0.0
2025-01-20 05:49:35.090347	59.2	11.6	-94.3	0.0
2025-01-20 05:49:36.212330	59.4	11.7	-94.6	0.0
2025-01-20 05:49:37.331694	59.6	11.7	-94.6	0.0
2025-01-20 05:49:38.454278	59.8	11.8	-94.7	0.0
2025-01-20 05:49:39.576374	60.0	11.8	-94.9	0.0
2025-01-20 05:49:40.697438	60.2	11.8	-94.6	0.0
2025-01-20 05:49:41.817496	60.4	11.9	-94.7	0.0
2025-01-20 05:49:42.938463	60.6	11.9	-94.6	0.0
2025-01-20 05:49:44.061235	60.8	11.9	-94.9	0.0
2025-01-20 05:49:45.184432	61.1	12.0	-94.8	0.0
2025-01-20 05:49:46.305936	61.3	12.0	-95.1	0.0
2025-01-20 05:49:47.425516	61.5	12.0	-94.7	0.0
2025-01-20 05:49:48.548602	61.7	12.1	-94.8	0.0
2025-01-20 05:49:49.669555	61.9	12.1	-94.8	0.0
2025-01-20 05:49:50.790124	62.1	12.2	-94.9	0.0
2025-01-20 05:49:51.910676	62.3	12.2	-94.9	0.0
2025-01-20 05:49:53.032190	62.5	12.2	-94.7	0.0
2025-01-20 05:49:54.152699	62.7	12.3	-94.6	0.0
2025-01-20 05:49:55.273407	62.9	12.3	-94.7	0.0
2025-01-20 05:49:56.395742	63.1	12.3	-94.5	0.0
2025-01-20 05:49:57.517617	63.3	12.4	-94.5	0.0
2025-01-20 05:49:58.638673	63.5	12.4	-94.4	0.0
2025-01-20 05:49:59.760140	63.7	12.4	-94.6	0.0
2025-01-20 05:50:00.881515	63.9	12.5	-94.5	0.0
2025-01-20 05:50:02.002631	64.2	12.5	-94.6	0.0
2025-01-20 05:50:03.125851	64.4	12.5	-94.1	0.0
2025-01-20 05:50:04.249934	64.6	12.5	-94.7	0.0
2025-01-20 05:50:05.371566	64.8	12.6	-94.4	0.0
2025-01-20 05:50:06.492523	65.0	12.6	-94.7	0.0
2025-01-20 05:50:07.615228	65.2	12.6	-94.9	0.0
2025-01-20 05:50:08.737158	65.4	12.7	-94.6	0.0
2025-01-20 05:50:09.859684	65.6	12.7	-94.9	0.0
2025-01-20 05:50:10.979145	65.9	12.7	-94.7	0.0
2025-01-20 05:50:12.100760	66.1	12.8	-94.6	0.0
2025-01-20 05:50:13.222588	66.3	12.8	-94.8	0.0
2025-01-20 05:50:14.342733	66.5	12.8	-94.6	0.0
2025-01-20 05:50:15.463992	66.7	12.8	-94.7	0.0
2025-01-20 05:50:16.585903	66.9	12.9	-94.8	0.0
2025-01-20 05:50:17.707342	67.1	12.9	-94.8	0.0
2025-01-20 05:50:18.828946	67.4	12.9	-94.8	0.0
2025-01-20 05:50:19.948628	67.6	12.9	-94.6	0.0
2025-01-20 05:50:21.069778	67.8	13.0	-94.7	0.0
2025-01-20 05:50:22.191383	68.0	13.0	-94.6	0.0
2025-01-20 05:50:23.314197	68.2	13.0	-94.6	0.0
2025-01-20 05:50:24.435230	68.4	13.0	-94.7	0.0
2025-01-20 05:50:25.555953	68.7	13.1	-94.8	0.0
2025-01-20 05:50:26.678309	68.9	13.1	-94.5	0.0
2025-01-20 05:50:27.800465	69.1	13.1	-94.9	0.0
2025-01-20 05:50:28.924310	69.3	13.1	-94.7	0.0
2025-01-20 05:50:30.046480	69.5	13.2	-95.0	0.0
2025-01-20 05:50:31.167522	69.8	13.2	-94.7	0.0
2025-01-20 05:50:32.287269	70.0	13.2	-94.7	0.0
2025-01-20 05:50:33.405774	70.2	13.2	-94.8	0.0
2025-01-20 05:50:34.527604	70.4	13.3	-94.6	0.0
2025-01-20 05:50:35.650722	70.6	13.3	-94.7	0.0
2025-01-20 05:50:36.773606	70.9	13.3	-94.6	0.0
2025-01-20 05:50:37.895234	71.1	13.3	-94.4	0.0
2025-01-20 05:50:39.016522	71.3	13.3	-94.7	0.0
2025-01-20 05:50:40.136993	71.5	13.4	-94.6	0.0
2025-01-20 05:50:41.258230	71.8	13.4	-94.7	0.0
2025-01-20 05:50:42.382628	72.0	13.4	-94.7	0.0
2025-01-20 05:50:43.503923	72.2	13.4	-94.6	0.0
2025-01-20 05:50:44.627475	72.4	13.4	-94.5	0.0
2025-01-20 05:50:45.747654	72.7	13.5	-94.5	0.0
2025-01-20 05:50:46.869098	72.9	13.5	-94.4	0.0
2025-01-20 05:50:47.991828	73.1	13.5	-94.5	0.0
2025-01-20 05:50:49.112993	73.3	13.5	-94.9	0.0
2025-01-20 05:50:50.235003	73.6	13.5	-94.9	0.0
2025-01-20 05:50:51.356321	73.8	13.5	-94.9	0.0
2025-01-20 05:50:52.479684	74.0	13.6	-94.8	0.0
2025-01-20 05:50:53.599695	74.2	13.6	-94.8	0.0
2025-01-20 05:50:54.720411	74.5	13.6	-94.9	0.0
2025-01-20 05:50:55.840804	74.7	13.6	-94.9	0.0
2025-01-20 05:50:56.960720	74.9	13.6	-95.0	0.0
2025-01-20 05:50:58.082854	75.1	13.6	-94.8	0.0
2025-01-20 05:50:59.204217	75.4	13.6	-94.9	0.0
2025-01-20 05:51:00.326512	75.6	13.7	-95.0	0.0
2025-01-20 05:51:01.449842	75.8	13.7	-95.0	0.0
2025-01-20 05:51:02.571177	76.1	13.7	-94.7	0.0
2025-01-20 05:51:03.694424	76.3	13.7	-94.5	0.0
2025-01-20 05:51:04.815672	76.5	13.7	-94.8	0.0
2025-01-20 05:51:05.936570	76.7	13.7	-94.7	0.0
2025-01-20 05:51:07.057774	77.0	13.7	-94.8	0.0
2025-01-20 05:51:08.179307	77.2	13.7	-94.9	0.0
2025-01-20 05:51:09.300181	77.4	13.7	-94.7	0.0
2025-01-20 05:51:10.421701	77.7	13.7	-94.4	0.0
2025-01-20 05:51:11.541747	77.9	13.8	-94.6	0.0
2025-01-20 05:51:12.661626	78.1	13.8	-94.9	0.0
2025-01-20 05:51:13.783234	78.3	13.8	-94.6	0.0
2025-01-20 05:51:14.905378	78.6	13.8	-94.5	0.0
2025-01-20 05:51:16.026564	78.8	13.8	-94.6	0.0
2025-01-20 05:51:17.148614	79.0	13.8	-94.8	0.0
2025-01-20 05:51:18.270562	79.3	13.8	-94.6	0.0
2025-01-20 05:51:19.393147	79.5	13.8	-94.6	0.0
2025-01-20 05:51:20.515057	79.7	13.8	-94.7	0.0
2025-01-20 05:51:21.635393	80.0	13.8	-94.8	0.0
2025-01-20 05:51:22.758633	80.2	13.8	-94.7	0.0
2025-01-20 05:51:23.878381	80.4	13.8	-94.6	0.0
2025-01-20 05:51:24.996585	80.6	13.8	-94.6	0.0
2025-01-20 05:51:26.119605	80.9	13.8	-94.7	0.0
2025-01-20 05:51:27.238556	81.1	13.8	-94.6	0.0
2025-01-20 05:51:28.360471	81.3	13.8	-94.6	0.0
2025-01-20 05:51:29.483050	81.6	13.8	-94.6	0.0
2025-01-20 05:51:30.602085	81.8	13.8	-94.6	0.0
2025-01-20 05:51:31.721960	82.0	13.8	-94.7	0.0
2025-01-20 05:51:32.842581	82.3	13.8	-94.9	0.0
2025-01-20 05:51:33.962243	82.5	13.8	-94.8	0.0
2025-01-20 05:51:35.082275	82.7	13.8	-94.7	0.0
2025-01-20 05:51:36.203764	82.9	13.8	-94.7	0.0
2025-01-20 05:51:37.325872	83.2	13.8	-94.8	0.0
2025-01-20 05:51:38.449650	83.4	13.8	-94.7	0.0
2025-01-20 05:51:39.571891	83.6	13.8	-94.8	0.0
2025-01-20 05:51:40.692682	83.9	13.8	-94.8	0.0
2025-01-20 05:51:41.811376	84.1	13.8	-94.7	0.0
2025-01-20 05:51:42.930860	84.3	13.8	-94.9	0.0
2025-01-20 05:51:44.051314	84.6	13.8	-94.9	0.0
2025-01-20 05:51:45.172631	84.8	13.8	-94.9	0.0
2025-01-20 05:51:46.294678	85.0	13.8	-94.8	0.0
2025-01-20 05:51:47.416876	85.3	13.8	-94.7	0.0
2025-01-20 05:51:48.537934	85.5	13.8	-94.8	0.0
2025-01-20 05:51:49.656628	85.7	13.8	-94.9	0.0
2025-01-20 05:51:50.776925	85.9	13.8	-94.9	0.0
2025-01-20 05:51:51.896673	86.2	13.8	-94.7	0.0
2025-01-20 05:51:53.017394	86.4	13.8	-95.0	0.0
2025-01-20 05:51:54.139335	86.6	13.8	-94.8	0.0
2025-01-20 05:51:55.259725	86.9	13.8	-94.7	0.0
2025-01-20 05:51:56.381130	87.1	13.8	-94.8	0.0
2025-01-20 05:51:57.502780	87.3	13.8	-94.8	0.0
2025-01-20 05:51:58.625611	87.5	13.7	-94.7	0.0
2025-01-20 05:51:59.747871	87.8	13.7	-94.6	0.0
2025-01-20 05:52:00.866817	88.0	13.7	-94.5	0.0
2025-01-20 05:52:01.987120	88.2	13.7	-94.9	0.0
2025-01-20 05:52:03.106969	88.5	13.7	-94.7	0.0
2025-01-20 05:52:04.228741	88.7	13.7	-94.8	0.0
2025-01-20 05:52:05.352029	88.9	13.7	-95.0	0.0
2025-01-20 05:52:06.472357	89.1	13.7	-95.0	0.0
2025-01-20 05:52:07.594282	89.4	13.7	-94.8	0.0
2025-01-20 05:52:08.714632	89.6	13.6	-94.7	0.0
2025-01-20 05:52:09.834389	89.8	13.6	-94.8	0.0
2025-01-20 05:52:10.954000	90.1	13.6	-94.7	0.0
2025-01-20 05:52:12.074689	90.3	13.6	-94.9	0.0
2025-01-20 05:52:13.197209	90.5	13.6	-94.8	0.0
2025-01-20 05:52:14.320058	90.7	13.6	-94.9	0.0
2025-01-20 05:52:15.440431	91.0	13.6	-94.8	0.0
2025-01-20 05:52:16.559889	91.2	13.5	-94.8	0.0
2025-01-20 05:52:17.679796	91.4	13.5	-94.7	0.0
2025-01-20 05:52:18.801043	91.6	13.5	-94.7	0.0
2025-01-20 05:52:19.922454	91.9	13.5	-94.8	0.0
2025-01-20 05:52:21.042610	92.1	13.5	-94.5	0.0
2025-01-20 05:52:22.162782	92.3	13.5	-94.8	0.0
2025-01-20 05:52:23.285648	92.5	13.4	-95.1	0.0
2025-01-20 05:52:24.404807	92.8	13.4	-94.7	0.0
2025-01-20 05:52:25.526990	93.0	13.4	-94.6	0.0
2025-01-20 05:52:26.648740	93.2	13.4	-94.7	0.0
2025-01-20 05:52:27.769741	93.4	13.4	-94.8	0.0
2025-01-20 05:52:28.891542	93.7	13.3	-94.8	0.0
2025-01-20 05:52:30.011478	93.9	13.3	-94.8	0.0
2025-01-20 05:52:31.133182	94.1	13.3	-94.7	0.0
2025-01-20 05:52:32.253741	94.3	13.3	-94.7	0.0
2025-01-20 05:52:33.374047	94.6	13.3	-94.9	0.0
2025-01-20 05:52:34.495400	94.8	13.2	-94.6	0.0
2025-01-20 05:52:35.615737	95.0	13.2	-94.8	0.0
2025-01-20 05:52:36.737549	95.2	13.2	-94.7	0.0
2025-01-20 05:52:37.858729	95.4	13.2	-94.8	0.0
2025-01-20 05:52:38.980400	95.7	13.1	-94.7	0.0
2025-01-20 05:52:40.101762	95.9	13.1	-94.7	0.0
2025-01-20 05:52:41.224071	96.1	13.1	-94.8	0.0
2025-01-20 05:52:42.345795	96.3	13.1	-94.9	0.0
2025-01-20 05:52:43.468022	96.5	13.1	-94.6	0.0
2025-01-20 05:52:44.588256	96.8	13.0	-94.9	0.0
2025-01-20 05:52:45.707748	97.0	13.0	-94.7	0.0
2025-01-20 05:52:46.827487	97.2	13.0	-94.8	0.0
2025-01-20 05:52:47.948747	97.4	13.0	-94.6	0.0
2025-01-20 05:52:49.069721	97.6	12.9	-95.0	0.0
2025-01-20 05:52:50.192800	97.9	12.9	-94.7	0.0
2025-01-20 05:52:51.313701	98.1	12.9	-94.6	0.0
2025-01-20 05:52:52.434397	98.3	12.8	-94.8	0.0
2025-01-20 05:52:53.557155	98.5	12.8	-94.7	0.0
2025-01-20 05:52:54.677735	98.7	12.8	-95.0	0.0
2025-01-20 05:52:55.797123	98.9	12.8	-94.8	0.0
2025-01-20 05:52:56.918253	99.2	12.7	-94.9	0.0
2025-01-20 05:52:58.039541	99.4	12.7	-95.0	0.0
2025-01-20 05:52:59.160762	99.6	12.7	-94.8	0.0
2025-01-20 05:53:00.280842	99.8	12.6	-95.1	0.0
2025-01-20 05:53:01.403624	100.0	12.6	-94.9	0.0
2025-01-20 05:53:02.523650	100.2	12.6	-94.7	0.0
2025-01-20 05:53:03.644779	100.4	12.5	-94.9	0.0
2025-01-20 05:53:04.766346	100.6	12.5	-94.8	0.0
2025-01-20 05:53:05.889632	100.9	12.5	-94.9	0.0
2025-01-20 05:53:07.011851	101.1	12.5	-94.8	0.0
2025-01-20 05:53:08.131750	101.3	12.4	-94.9	0.0
2025-01-20 05:53:09.250760	101.5	12.4	-94.8	0.0
2025-01-20 05:53:10.372190	101.7	12.4	-94.7	0.0
2025-01-20 05:53:11.493712	101.9	12.3	-94.9	0.0
2025-01-20 05:53:12.616239	102.1	12.3	-94.9	0.0
2025-01-20 05:53:13.737589	102.3	12.3	-95.0	0.0
2025-01-20 05:53:14.858700	102.5	12.2	-94.8	0.0
2025-01-20 05:53:15.980774	102.7	12.2	-94.7	0.0
2025-01-20 05:53:17.102475	102.9	12.2	-94.8	0.0
2025-01-20 05:53:18.223759	103.2	12.1	-94.8	0.0
2025-01-20 05:53:19.346863	103.4	12.1	-94.7	0.0
2025-01-20 05:53:20.465888	103.6	12.1	-94.7	0.0
2025-01-20 05:53:21.585375	103.8	12.0	-94.9	0.0
2025-01-20 05:53:22.705500	104.0	12.0	-94.8	0.0
2025-01-20 05:53:23.825985	104.2	11.9	-94.9	0.0
2025-01-20 05:53:24.948066	104.4	11.9	-94.7	0.0
2025-01-20 05:53:26.067702	104.6	11.9	-94.8	0.0
2025-01-20 05:53:27.189632	104.8	11.8	-94.7	0.0
2025-01-20 05:53:28.312583	105.0	11.8	-95.0	0.0
2025-01-20 05:53:29.433029	105.2	11.8	-94.7	0.0
2025-01-20 05:53:30.555491	105.4	11.7	-94.7	0.0
2025-01-20 05:53:31.675655	105.6	11.7	-94.7	0.0
2025-01-20 05:53:32.794821	105.8	11.6	-94.6	0.0
2025-01-20 05:53:33.916012	106.0	11.6	-95.0	0.0
2025-01-20 05:53:35.038638	106.2	11.6	-94.9	0.0
2025-01-20 05:53:36.160129	106.4	11.5	-94.8	0.0
2025-01-20 05:53:37.284622	106.6	11.5	-94.8	0.0
2025-01-20 05:53:38.405727	106.8	11.4	-94.9	0.0
2025-01-20 05:53:39.524886	107.0	11.4	-95.1	0.0
2025-01-20 05:53:40.645837	107.2	11.4	-95.1	0.0
2025-01-20 05:53:41.767601	107.4	11.3	-94.7	0.0
2025-01-20 05:53:42.890715	107.6	11.3	-94.7	0.0
2025-01-20 05:53:44.014425	107.8	11.2	-94.9	0.0
2025-01-20 05:53:45.135928	108.0	11.2	-94.8	0.0
2025-01-20 05:53:46.256264	108.2	11.2	-94.6	0.0
2025-01-20 05:53:47.376176	108.3	11.1	-94.5	0.0
2025-01-20 05:53:48.496261	108.5	11.1	-94.8	0.0
2025-01-20 05:53:49.618020	108.7	11.0	-94.7	0.0
2025-01-20 05:53:50.737699	108.9	11.0	-94.6	0.0
2025-01-20 05:53:51.858701	109.1	11.0	-94.7	0.0
2025-01-20 05:53:52.980874	109.3	10.9	-94.6	0.0
2025-01-20 05:53:54.101769	109.5	10.9	-94.3	0.0
2025-01-20 05:53:55.224017	109.7	10.8	-94.4	0.0
2025-01-20 05:53:56.345556	109.9	10.8	-94.6	0.0
2025-01-20 05:53:57.467643	110.1	10.7	-94.7	0.0
2025-01-20 05:53:58.588725	110.3	10.7	-94.5	0.0
2025-01-20 05:53:59.708523	110.4	10.7	-94.6	0.0
2025-01-20 05:54:00.829236	110.6	10.6	-94.4	0.0
2025-01-20 05:54:01.951945	110.8	10.6	-94.7	0.0
2025-01-20 05:54:03.074012	111.0	10.5	-94.9	0.0
2025-01-20 05:54:04.197677	111.2	10.5	-94.7	0.0
2025-01-20 05:54:05.318770	111.4	10.4	-94.8	0.0
2025-01-20 05:54:06.438780	111.6	10.4	-94.9	0.0
2025-01-20 05:54:07.560929	111.7	10.3	-94.7	0.0
2025-01-20 05:54:08.682928	111.9	10.3	-94.6	0.0
2025-01-20 05:54:09.804129	112.1	10.3	-94.8	0.0
2025-01-20 05:54:10.925510	112.3	10.2	-94.8	0.0
2025-01-20 05:54:12.048997	112.5	10.2	-94.6	0.0
2025-01-20 05:54:13.170423	112.6	10.1	-94.9	0.0
2025-01-20 05:54:14.293618	112.8	10.1	-94.8	0.0
2025-01-20 05:54:15.414600	113.0	10.0	-94.8	0.0
#Closed at: 2025-01-20 05:48:46.450002