passes_logs/2025/01/20/planumMaritime01/planumMaritime01__20250120_181856_NOAA_18_rec.log

#Pass ID: 20250120_181856_NOAA 18
#Satellite: NOAA 18
#Configuration: NOAA 18
#Start time: 2025-01-20 18:19:01.910942

#LorettStation: 1.0.0 05.05.2024
#Station: planumMaritime01
#Location: 37.49445 lon 55.92918 lat
#TLE: 1 28654U 05018A   25020.18862715  .00000449  00000+0  26167-3 0  9997
#TLE: 2 28654  98.8558 101.1913 0014575 164.8261 195.3351 14.13491567 13918

#Time	Az	El	Level	SNR
2025-01-20 18:19:04.071094	126.9	10.2	-74.0	0.0
2025-01-20 18:19:06.317092	126.7	10.4	-73.1	0.0
2025-01-20 18:19:08.563550	126.6	10.5	-73.8	0.0
2025-01-20 18:19:10.808809	126.4	10.7	-74.2	0.0
2025-01-20 18:19:13.054670	126.3	10.9	-74.8	0.0
2025-01-20 18:19:15.298790	126.1	11.1	-74.8	0.0
2025-01-20 18:19:17.546570	125.9	11.3	-74.5	0.0
2025-01-20 18:19:19.792557	125.8	11.5	-75.6	0.0
2025-01-20 18:19:22.040269	125.6	11.7	-74.5	0.0
2025-01-20 18:19:24.288563	125.4	11.8	-75.0	0.0
2025-01-20 18:19:26.536983	125.3	12.0	-75.7	0.0
2025-01-20 18:19:28.785656	125.1	12.2	-75.1	0.0
2025-01-20 18:19:31.030821	124.9	12.4	-76.4	0.0
2025-01-20 18:19:33.275529	124.7	12.6	-76.9	0.0
2025-01-20 18:19:35.518429	124.6	12.8	-76.4	0.0
2025-01-20 18:19:37.763593	124.4	13.0	-75.0	0.0
2025-01-20 18:19:40.011741	124.2	13.2	-77.1	0.0
2025-01-20 18:19:42.256478	124.0	13.4	-75.8	0.0
2025-01-20 18:19:44.502998	123.8	13.6	-76.0	0.0
2025-01-20 18:19:46.747764	123.6	13.8	-76.1	0.0
2025-01-20 18:19:48.997726	123.4	14.0	-73.7	0.0
2025-01-20 18:19:51.242697	123.2	14.2	-75.1	0.0
2025-01-20 18:19:53.491717	123.0	14.4	-74.0	0.0
2025-01-20 18:19:55.737714	122.8	14.6	-77.2	0.0
2025-01-20 18:19:57.985290	122.6	14.8	-75.9	0.0
2025-01-20 18:20:00.229589	122.4	15.1	-76.9	0.0
2025-01-20 18:20:02.477913	122.2	15.3	-75.6	0.0
2025-01-20 18:20:04.727834	122.0	15.5	-75.8	0.0
2025-01-20 18:20:06.972584	121.8	15.7	-74.8	0.0
2025-01-20 18:20:09.220528	121.6	15.9	-74.9	0.0
2025-01-20 18:20:11.468004	121.3	16.1	-73.9	0.0
2025-01-20 18:20:13.717635	121.1	16.4	-75.4	0.0
2025-01-20 18:20:15.966518	120.9	16.6	-73.0	0.0
2025-01-20 18:20:18.211573	120.6	16.8	-75.4	0.0
2025-01-20 18:20:20.458719	120.4	17.0	-75.2	0.0
2025-01-20 18:20:22.706997	120.2	17.2	-72.2	0.0
2025-01-20 18:20:24.954394	119.9	17.5	-70.9	0.0
2025-01-20 18:20:27.202037	119.7	17.7	-74.4	0.0
2025-01-20 18:20:29.446420	119.4	17.9	-75.9	0.0
2025-01-20 18:20:31.693837	119.2	18.2	-74.2	0.0
2025-01-20 18:20:33.940670	118.9	18.4	-74.5	0.0
2025-01-20 18:20:36.184736	118.6	18.6	-74.9	0.0
2025-01-20 18:20:38.433066	118.4	18.9	-74.8	0.0
2025-01-20 18:20:40.679748	118.1	19.1	-74.4	0.0
2025-01-20 18:20:42.922711	117.8	19.4	-76.5	0.0
2025-01-20 18:20:45.171028	117.5	19.6	-72.2	0.0
2025-01-20 18:20:47.416520	117.2	19.8	-70.7	0.0
2025-01-20 18:20:49.663111	116.9	20.1	-72.3	0.0
2025-01-20 18:20:51.912420	116.7	20.3	-76.9	0.0
2025-01-20 18:20:54.156423	116.4	20.6	-76.5	0.0
2025-01-20 18:20:56.399366	116.0	20.8	-75.7	0.0
2025-01-20 18:20:58.645581	115.7	21.1	-76.5	0.0
2025-01-20 18:21:00.890843	115.4	21.3	-76.4	0.0
2025-01-20 18:21:03.136919	115.1	21.6	-76.4	0.0
2025-01-20 18:21:05.382065	114.8	21.8	-76.7	0.0
2025-01-20 18:21:07.629295	114.4	22.1	-75.6	0.0
2025-01-20 18:21:09.874097	114.1	22.3	-76.8	0.0
2025-01-20 18:21:12.119815	113.8	22.6	-76.7	0.0
2025-01-20 18:21:14.366142	113.4	22.9	-76.6	0.0
2025-01-20 18:21:16.615257	113.1	23.1	-76.8	0.0
2025-01-20 18:21:18.860201	112.7	23.4	-77.0	0.0
2025-01-20 18:21:21.105867	112.3	23.7	-76.1	0.0
2025-01-20 18:21:23.350837	111.9	23.9	-76.5	0.0
2025-01-20 18:21:25.596714	111.6	24.2	-74.1	0.0
2025-01-20 18:21:27.839374	111.2	24.5	-75.7	0.0
2025-01-20 18:21:30.085918	110.8	24.7	-74.6	0.0
2025-01-20 18:21:32.333009	110.4	25.0	-72.9	0.0
2025-01-20 18:21:34.581034	110.0	25.3	-75.7	0.0
2025-01-20 18:21:36.825794	109.6	25.6	-72.8	0.0
2025-01-20 18:21:39.073234	109.1	25.8	-75.4	0.0
2025-01-20 18:21:41.317376	108.7	26.1	-75.5	0.0
2025-01-20 18:21:43.560700	108.3	26.4	-73.7	0.0
2025-01-20 18:21:45.808589	107.8	26.7	-74.8	0.0
2025-01-20 18:21:48.056882	107.4	26.9	-74.1	0.0
2025-01-20 18:21:50.305442	106.9	27.2	-75.1	0.0
2025-01-20 18:21:52.555630	106.4	27.5	-75.2	0.0
2025-01-20 18:21:54.800725	106.0	27.8	-75.3	0.0
2025-01-20 18:21:57.044758	105.5	28.1	-74.9	0.0
2025-01-20 18:21:59.286825	105.0	28.4	-72.4	0.0
2025-01-20 18:22:01.533917	104.5	28.6	-74.9	0.0
2025-01-20 18:22:03.780593	104.0	28.9	-75.0	0.0
2025-01-20 18:22:06.026620	103.4	29.2	-71.7	0.0
2025-01-20 18:22:08.277896	102.9	29.5	-74.3	0.0
2025-01-20 18:22:10.525968	102.4	29.8	-75.2	0.0
2025-01-20 18:22:12.769873	101.8	30.1	-75.1	0.0
2025-01-20 18:22:15.016475	101.3	30.3	-74.9	0.0
2025-01-20 18:22:17.260569	100.7	30.6	-75.7	0.0
2025-01-20 18:22:19.507119	100.1	30.9	-77.1	0.0
2025-01-20 18:22:21.754171	99.5	31.2	-76.5	0.0
2025-01-20 18:22:24.000767	98.9	31.5	-77.0	0.0
2025-01-20 18:22:26.245540	98.3	31.8	-75.5	0.0
2025-01-20 18:22:28.489734	97.7	32.0	-75.7	0.0
2025-01-20 18:22:30.735308	97.1	32.3	-75.5	0.0
2025-01-20 18:22:32.980667	96.4	32.6	-75.4	0.0
2025-01-20 18:22:35.227484	95.8	32.9	-76.0	0.0
2025-01-20 18:22:37.475353	95.1	33.1	-75.9	0.0
2025-01-20 18:22:39.719545	94.4	33.4	-75.6	0.0
2025-01-20 18:22:41.968190	93.7	33.7	-76.5	0.0
2025-01-20 18:22:44.213442	93.0	33.9	-75.6	0.0
2025-01-20 18:22:46.459144	92.3	34.2	-76.0	0.0
2025-01-20 18:22:48.707426	91.6	34.5	-77.0	0.0
2025-01-20 18:22:50.951891	90.8	34.7	-74.5	0.0
2025-01-20 18:22:53.198177	90.1	35.0	-77.2	0.0
2025-01-20 18:22:55.441401	89.3	35.2	-72.8	0.0
2025-01-20 18:22:57.689343	88.6	35.5	-76.5	0.0
2025-01-20 18:22:59.936082	87.8	35.7	-77.8	0.0
2025-01-20 18:23:02.186513	87.0	35.9	-77.6	0.0
2025-01-20 18:23:04.431953	86.2	36.2	-78.1	0.0
2025-01-20 18:23:06.678998	85.4	36.4	-77.8	0.0
2025-01-20 18:23:08.925236	84.6	36.6	-77.0	0.0
2025-01-20 18:23:11.175888	83.7	36.8	-76.5	0.0
2025-01-20 18:23:13.422155	82.9	37.1	-76.4	0.0
2025-01-20 18:23:15.667607	82.0	37.3	-76.5	0.0
2025-01-20 18:23:17.915096	81.1	37.5	-76.3	0.0
2025-01-20 18:23:20.162797	80.2	37.7	-75.7	0.0
2025-01-20 18:23:22.408635	79.4	37.8	-75.8	0.0
2025-01-20 18:23:24.658478	78.5	38.0	-75.9	0.0
2025-01-20 18:23:26.905585	77.5	38.2	-76.6	0.0
2025-01-20 18:23:29.157354	76.6	38.4	-76.5	0.0
2025-01-20 18:23:31.401034	75.7	38.5	-76.8	0.0
2025-01-20 18:23:33.642264	74.8	38.7	-76.7	0.0
2025-01-20 18:23:35.888592	73.8	38.8	-76.0	0.0
2025-01-20 18:23:38.133268	72.8	38.9	-76.5	0.0
2025-01-20 18:23:40.376504	71.9	39.1	-74.7	0.0
2025-01-20 18:23:42.621578	70.9	39.2	-74.6	0.0
2025-01-20 18:23:44.870066	69.9	39.3	-76.5	0.0
2025-01-20 18:23:47.119068	69.0	39.4	-76.0	0.0
2025-01-20 18:23:49.366507	68.0	39.5	-76.8	0.0
2025-01-20 18:23:51.612068	67.0	39.5	-76.2	0.0
2025-01-20 18:23:53.859534	66.0	39.6	-77.0	0.0
2025-01-20 18:23:56.102007	65.0	39.6	-76.5	0.0
2025-01-20 18:23:58.349154	64.0	39.7	-76.8	0.0
2025-01-20 18:24:00.592969	63.0	39.7	-76.5	0.0
2025-01-20 18:24:02.837013	62.0	39.8	-76.4	0.0
2025-01-20 18:24:05.083762	60.9	39.8	-76.3	0.0
2025-01-20 18:24:07.332696	59.9	39.8	-73.7	0.0
2025-01-20 18:24:09.578231	58.9	39.8	-71.1	0.0
2025-01-20 18:24:11.825693	57.9	39.8	-75.0	0.0
2025-01-20 18:24:14.074571	56.9	39.7	-75.6	0.0
2025-01-20 18:24:16.322565	55.9	39.7	-75.4	0.0
2025-01-20 18:24:18.569181	54.9	39.7	-75.7	0.0
2025-01-20 18:24:20.819117	53.9	39.6	-75.6	0.0
2025-01-20 18:24:23.065618	52.9	39.5	-72.9	0.0
2025-01-20 18:24:25.313387	51.9	39.5	-74.1	0.0
2025-01-20 18:24:27.559005	50.9	39.4	-73.0	0.0
2025-01-20 18:24:29.804581	49.9	39.3	-71.5	0.0
2025-01-20 18:24:32.050401	48.9	39.2	-73.1	0.0
2025-01-20 18:24:34.297304	48.0	39.1	-71.3	0.0
2025-01-20 18:24:36.545292	47.0	39.0	-69.7	0.0
2025-01-20 18:24:38.793032	46.0	38.8	-68.7	0.0
2025-01-20 18:24:41.037733	45.1	38.7	-71.0	0.0
2025-01-20 18:24:43.283973	44.2	38.6	-69.9	0.0
2025-01-20 18:24:45.533143	43.2	38.4	-71.4	0.0
2025-01-20 18:24:47.780694	42.3	38.2	-70.5	0.0
2025-01-20 18:24:50.026801	41.4	38.1	-70.0	0.0
2025-01-20 18:24:52.274049	40.5	37.9	-71.4	0.0
2025-01-20 18:24:54.518946	39.6	37.7	-70.3	0.0
2025-01-20 18:24:56.771456	38.7	37.5	-70.2	0.0
2025-01-20 18:24:59.017734	37.8	37.3	-68.8	0.0
2025-01-20 18:25:01.264781	37.0	37.1	-68.0	0.0
2025-01-20 18:25:03.509460	36.1	36.9	-71.9	0.0
2025-01-20 18:25:05.754629	35.3	36.7	-70.5	0.0
2025-01-20 18:25:08.002268	34.4	36.5	-70.3	0.0
2025-01-20 18:25:10.248014	33.6	36.2	-71.0	0.0
2025-01-20 18:25:12.493829	32.8	36.0	-70.8	0.0
2025-01-20 18:25:14.738637	32.0	35.8	-72.5	0.0
2025-01-20 18:25:16.987588	31.2	35.5	-71.1	0.0
2025-01-20 18:25:19.235118	30.5	35.3	-70.9	0.0
2025-01-20 18:25:21.482631	29.7	35.0	-71.0	0.0
2025-01-20 18:25:23.729271	28.9	34.8	-70.0	0.0
2025-01-20 18:25:25.973186	28.2	34.5	-65.0	0.0
2025-01-20 18:25:28.219805	27.5	34.3	-70.8	0.0
2025-01-20 18:25:30.467155	26.8	34.0	-71.0	0.0
2025-01-20 18:25:32.710963	26.1	33.7	-71.3	0.0
2025-01-20 18:25:34.957243	25.4	33.5	-69.3	0.0
2025-01-20 18:25:37.203742	24.7	33.2	-70.7	0.0
2025-01-20 18:25:39.449278	24.0	32.9	-71.8	0.0
2025-01-20 18:25:41.697058	23.4	32.7	-70.2	0.0
2025-01-20 18:25:43.945120	22.7	32.4	-70.7	0.0
2025-01-20 18:25:46.190089	22.1	32.1	-70.6	0.0
2025-01-20 18:25:48.438408	21.5	31.8	-70.4	0.0
2025-01-20 18:25:50.684403	20.8	31.6	-71.6	0.0
2025-01-20 18:25:52.927478	20.2	31.3	-69.7	0.0
2025-01-20 18:25:55.171127	19.7	31.0	-67.6	0.0
2025-01-20 18:25:57.417605	19.1	30.7	-70.6	0.0
2025-01-20 18:25:59.662975	18.5	30.4	-70.7	0.0
2025-01-20 18:26:01.909623	17.9	30.1	-69.5	0.0
2025-01-20 18:26:04.153601	17.4	29.9	-71.1	0.0
2025-01-20 18:26:06.399761	16.8	29.6	-69.1	0.0
2025-01-20 18:26:08.642828	16.3	29.3	-69.4	0.0
2025-01-20 18:26:10.891469	15.8	29.0	-70.0	0.0
2025-01-20 18:26:13.139126	15.3	28.7	-68.1	0.0
2025-01-20 18:26:15.386636	14.8	28.4	-69.4	0.0
2025-01-20 18:26:17.632829	14.3	28.2	-70.2	0.0
2025-01-20 18:26:19.883870	13.8	27.9	-70.9	0.0
2025-01-20 18:26:22.128047	13.3	27.6	-69.9	0.0
2025-01-20 18:26:24.371910	12.8	27.3	-67.7	0.0
2025-01-20 18:26:26.617096	12.4	27.0	-69.6	0.0
2025-01-20 18:26:28.865399	11.9	26.7	-69.5	0.0
2025-01-20 18:26:31.115652	11.5	26.5	-69.1	0.0
2025-01-20 18:26:33.362853	11.0	26.2	-68.5	0.0
2025-01-20 18:26:35.606773	10.6	25.9	-68.8	0.0
2025-01-20 18:26:37.853844	10.2	25.6	-70.3	0.0
2025-01-20 18:26:40.102665	9.8	25.4	-71.5	0.0
2025-01-20 18:26:42.347229	9.3	25.1	-69.4	0.0
2025-01-20 18:26:44.593979	8.9	24.8	-68.0	0.0
2025-01-20 18:26:46.840548	8.5	24.5	-70.7	0.0
2025-01-20 18:26:49.087844	8.2	24.3	-71.1	0.0
2025-01-20 18:26:51.336455	7.8	24.0	-68.9	0.0
2025-01-20 18:26:53.585634	7.4	23.7	-68.7	0.0
2025-01-20 18:26:55.830620	7.0	23.5	-69.1	0.0
2025-01-20 18:26:58.077631	6.7	23.2	-68.2	0.0
2025-01-20 18:27:00.321877	6.3	22.9	-68.7	0.0
2025-01-20 18:27:02.568756	6.0	22.7	-68.0	0.0
2025-01-20 18:27:04.813895	5.6	22.4	-68.6	0.0
2025-01-20 18:27:07.059327	5.3	22.2	-67.7	0.0
2025-01-20 18:27:09.304846	4.9	21.9	-69.5	0.0
2025-01-20 18:27:11.551832	4.6	21.6	-69.7	0.0
2025-01-20 18:27:13.798661	4.3	21.4	-71.4	0.0
2025-01-20 18:27:16.044091	4.0	21.1	-70.2	0.0
2025-01-20 18:27:18.290468	3.7	20.9	-68.8	0.0
2025-01-20 18:27:20.536554	3.4	20.6	-69.3	0.0
2025-01-20 18:27:22.781679	3.1	20.4	-69.2	0.0
2025-01-20 18:27:25.028070	2.8	20.1	-68.9	0.0
2025-01-20 18:27:27.275285	2.5	19.9	-72.2	0.0
2025-01-20 18:27:29.522193	2.2	19.7	-69.9	0.0
2025-01-20 18:27:31.768283	1.9	19.4	-70.3	0.0
2025-01-20 18:27:34.015710	1.6	19.2	-69.1	0.0
2025-01-20 18:27:36.260433	1.4	18.9	-70.8	0.0
2025-01-20 18:27:38.504479	1.1	18.7	-69.6	0.0
2025-01-20 18:27:40.746515	0.8	18.5	-68.7	0.0
2025-01-20 18:27:42.994992	0.6	18.2	-70.3	0.0
2025-01-20 18:27:45.239561	0.3	18.0	-69.7	0.0
2025-01-20 18:27:47.485625	0.1	17.8	-68.8	0.0
2025-01-20 18:27:49.728577	359.8	17.5	-69.9	0.0
2025-01-20 18:27:51.975759	359.6	17.3	-71.2	0.0
2025-01-20 18:27:54.225339	359.3	17.1	-71.9	0.0
2025-01-20 18:27:56.470053	359.1	16.9	-72.1	0.0
2025-01-20 18:27:58.716417	358.8	16.6	-71.7	0.0
2025-01-20 18:28:00.964267	358.6	16.4	-70.6	0.0
2025-01-20 18:28:03.212003	358.4	16.2	-71.0	0.0
2025-01-20 18:28:05.459546	358.2	16.0	-69.3	0.0
2025-01-20 18:28:07.706559	357.9	15.8	-69.7	0.0
2025-01-20 18:28:09.952641	357.7	15.5	-70.2	0.0
2025-01-20 18:28:12.199888	357.5	15.3	-68.3	0.0
2025-01-20 18:28:14.445398	357.3	15.1	-70.3	0.0
2025-01-20 18:28:16.689512	357.1	14.9	-71.5	0.0
2025-01-20 18:28:18.935908	356.9	14.7	-72.8	0.0
2025-01-20 18:28:21.183145	356.7	14.5	-70.0	0.0
2025-01-20 18:28:23.423203	356.5	14.3	-71.9	0.0
2025-01-20 18:28:25.670424	356.3	14.1	-69.6	0.0
2025-01-20 18:28:27.919500	356.1	13.9	-70.6	0.0
2025-01-20 18:28:30.164407	355.9	13.7	-71.1	0.0
2025-01-20 18:28:32.409402	355.7	13.5	-66.9	0.0
2025-01-20 18:28:34.655655	355.5	13.3	-70.6	0.0
2025-01-20 18:28:36.902510	355.3	13.1	-70.8	0.0
2025-01-20 18:28:39.149221	355.2	12.9	-67.2	0.0
2025-01-20 18:28:41.393481	355.0	12.7	-67.9	0.0
2025-01-20 18:28:43.638165	354.8	12.5	-69.0	0.0
2025-01-20 18:28:45.887115	354.6	12.3	-69.8	0.0
2025-01-20 18:28:48.130499	354.5	12.1	-68.0	0.0
2025-01-20 18:28:50.378721	354.3	11.9	-67.1	0.0
2025-01-20 18:28:52.624132	354.1	11.7	-68.0	0.0
2025-01-20 18:28:54.874774	354.0	11.5	-66.7	0.0
2025-01-20 18:28:57.121244	353.8	11.3	-66.5	0.0
2025-01-20 18:28:59.366549	353.7	11.1	-68.7	0.0
2025-01-20 18:29:01.611905	353.5	11.0	-70.7	0.0
2025-01-20 18:29:03.859557	353.3	10.8	-68.8	0.0
2025-01-20 18:29:06.106283	353.2	10.6	-78.2	0.0
2025-01-20 18:29:08.353673	353.0	10.4	-81.1	0.0
2025-01-20 18:29:10.600511	352.9	10.2	-82.2	0.0
2025-01-20 18:29:12.849662	352.7	10.0	-81.7	0.0
#Closed at: 2025-01-20 18:18:56.915729