passes_logs/2025/01/20/planumMaritime01/planumMaritime01__20250120_010148_METEOR-M2_4_rec.log

#Pass ID: 20250120_010148_METEOR-M2 4
#Satellite: METEOR-M2 4
#Configuration: METEOR-M2 4
#Start time: 2025-01-20 01:01:53.092385

#LorettStation: 1.0.0 05.05.2024
#Station: planumMaritime01
#Location: 37.49445 lon 55.92918 lat
#TLE: 1 59051U 24039A   25019.17843089  .00000110  00000+0  69087-4 0  9990
#TLE: 2 59051  98.6301 342.1007 0006367 211.2686 148.8114 14.22326347 46195

#Time	Az	El	Level	SNR
2025-01-20 01:01:55.254674	17.8	10.2	-94.4	0.0
2025-01-20 01:01:57.497651	17.9	10.4	-94.3	0.0
2025-01-20 01:01:59.741483	17.9	10.6	-94.8	0.0
2025-01-20 01:02:01.984195	17.9	10.8	-94.9	0.0
2025-01-20 01:02:04.227440	17.9	11.0	-94.4	0.0
2025-01-20 01:02:06.468444	18.0	11.2	-94.9	0.0
2025-01-20 01:02:08.712193	18.0	11.4	-94.7	0.0
2025-01-20 01:02:10.950956	18.0	11.6	-94.8	0.0
2025-01-20 01:02:13.194518	18.1	11.8	-94.7	0.0
2025-01-20 01:02:15.436370	18.1	12.0	-94.6	0.0
2025-01-20 01:02:17.681307	18.1	12.2	-94.5	0.0
2025-01-20 01:02:19.923490	18.2	12.4	-94.3	0.0
2025-01-20 01:02:22.164708	18.2	12.7	-94.6	0.0
2025-01-20 01:02:24.408404	18.2	12.9	-94.5	0.0
2025-01-20 01:02:26.652328	18.3	13.1	-94.7	0.0
2025-01-20 01:02:28.890438	18.3	13.3	-94.5	0.0
2025-01-20 01:02:31.130737	18.4	13.5	-94.4	0.0
2025-01-20 01:02:33.371545	18.4	13.8	-94.5	0.0
2025-01-20 01:02:35.614448	18.4	14.0	-94.3	0.0
2025-01-20 01:02:37.852663	18.5	14.2	-94.5	0.0
2025-01-20 01:02:40.093456	18.5	14.4	-94.5	0.0
2025-01-20 01:02:42.337046	18.5	14.7	-94.5	0.0
2025-01-20 01:02:44.577909	18.6	14.9	-94.6	0.0
2025-01-20 01:02:46.819994	18.6	15.2	-94.6	0.0
2025-01-20 01:02:49.063472	18.7	15.4	-94.7	0.0
2025-01-20 01:02:51.304399	18.7	15.6	-94.5	0.0
2025-01-20 01:02:53.546274	18.7	15.9	-94.6	0.0
2025-01-20 01:02:55.787416	18.8	16.1	-94.7	0.0
2025-01-20 01:02:58.032413	18.8	16.4	-94.9	0.0
2025-01-20 01:03:00.276283	18.9	16.6	-94.9	0.0
2025-01-20 01:03:02.517163	18.9	16.9	-94.8	0.0
2025-01-20 01:03:04.757545	18.9	17.2	-94.6	0.0
2025-01-20 01:03:06.998406	19.0	17.4	-94.9	0.0
2025-01-20 01:03:09.240809	19.0	17.7	-94.7	0.0
2025-01-20 01:03:11.482755	19.1	17.9	-94.6	0.0
2025-01-20 01:03:13.725047	19.1	18.2	-95.0	0.0
2025-01-20 01:03:15.966642	19.2	18.5	-94.8	0.0
2025-01-20 01:03:18.208568	19.2	18.8	-94.8	0.0
2025-01-20 01:03:20.449368	19.3	19.0	-94.6	0.0
2025-01-20 01:03:22.691228	19.3	19.3	-94.8	0.0
2025-01-20 01:03:24.931560	19.4	19.6	-94.7	0.0
2025-01-20 01:03:27.174355	19.4	19.9	-94.6	0.0
2025-01-20 01:03:29.413914	19.5	20.2	-94.9	0.0
2025-01-20 01:03:31.657266	19.5	20.5	-94.7	0.0
2025-01-20 01:03:33.898339	19.6	20.8	-94.6	0.0
2025-01-20 01:03:36.140127	19.6	21.1	-94.5	0.0
2025-01-20 01:03:38.384262	19.7	21.4	-94.7	0.0
2025-01-20 01:03:40.624871	19.7	21.7	-94.4	0.0
2025-01-20 01:03:42.863064	19.8	22.0	-94.4	0.0
2025-01-20 01:03:45.106251	19.8	22.4	-94.5	0.0
2025-01-20 01:03:47.350485	19.9	22.7	-94.5	0.0
2025-01-20 01:03:49.591744	20.0	23.0	-94.9	0.0
2025-01-20 01:03:51.833068	20.0	23.3	-94.6	0.0
2025-01-20 01:03:54.076366	20.1	23.7	-94.6	0.0
2025-01-20 01:03:56.321426	20.1	24.0	-94.9	0.0
2025-01-20 01:03:58.564395	20.2	24.4	-94.8	0.0
2025-01-20 01:04:00.805413	20.3	24.7	-95.0	0.0
2025-01-20 01:04:03.047751	20.3	25.1	-94.9	0.0
2025-01-20 01:04:05.288955	20.4	25.4	-94.9	0.0
2025-01-20 01:04:07.530827	20.5	25.8	-94.8	0.0
2025-01-20 01:04:09.773827	20.5	26.2	-95.1	0.0
2025-01-20 01:04:12.012945	20.6	26.5	-95.0	0.0
2025-01-20 01:04:14.254632	20.7	26.9	-94.9	0.0
2025-01-20 01:04:16.499483	20.8	27.3	-94.8	0.0
2025-01-20 01:04:18.739902	20.8	27.7	-94.8	0.0
2025-01-20 01:04:20.985401	20.9	28.1	-94.3	0.0
2025-01-20 01:04:23.226956	21.0	28.5	-94.6	0.0
2025-01-20 01:04:25.468131	21.1	28.9	-94.4	0.0
2025-01-20 01:04:27.710833	21.1	29.3	-94.2	0.0
2025-01-20 01:04:29.955378	21.2	29.7	-94.6	0.0
2025-01-20 01:04:32.200199	21.3	30.2	-94.6	0.0
2025-01-20 01:04:34.440250	21.4	30.6	-94.7	0.0
2025-01-20 01:04:36.682640	21.5	31.0	-94.6	0.0
2025-01-20 01:04:38.927297	21.6	31.5	-94.8	0.0
2025-01-20 01:04:41.167819	21.7	31.9	-94.5	0.0
2025-01-20 01:04:43.410335	21.8	32.4	-94.7	0.0
2025-01-20 01:04:45.654231	21.9	32.8	-94.7	0.0
2025-01-20 01:04:47.898975	22.0	33.3	-94.7	0.0
2025-01-20 01:04:50.140175	22.1	33.8	-94.7	0.0
2025-01-20 01:04:52.383313	22.2	34.3	-94.8	0.0
2025-01-20 01:04:54.621848	22.3	34.8	-94.8	0.0
2025-01-20 01:04:56.862122	22.4	35.3	-94.9	0.0
2025-01-20 01:04:59.103658	22.6	35.8	-94.7	0.0
2025-01-20 01:05:01.345288	22.7	36.3	-94.7	0.0
2025-01-20 01:05:03.588435	22.8	36.9	-94.9	0.0
2025-01-20 01:05:05.828033	22.9	37.4	-94.5	0.0
2025-01-20 01:05:08.072393	23.1	38.0	-94.9	0.0
2025-01-20 01:05:10.314082	23.2	38.5	-94.8	0.0
2025-01-20 01:05:12.555941	23.4	39.1	-94.6	0.0
2025-01-20 01:05:14.797050	23.5	39.6	-94.8	0.0
2025-01-20 01:05:17.037401	23.7	40.2	-94.7	0.0
2025-01-20 01:05:19.280793	23.8	40.8	-94.9	0.0
2025-01-20 01:05:21.525326	24.0	41.4	-94.4	0.0
2025-01-20 01:05:23.766858	24.1	42.0	-95.0	0.0
2025-01-20 01:05:26.011300	24.3	42.7	-94.6	0.0
2025-01-20 01:05:28.253021	24.5	43.3	-94.7	0.0
2025-01-20 01:05:30.496253	24.7	44.0	-94.8	0.0
2025-01-20 01:05:32.741229	24.9	44.6	-94.7	0.0
2025-01-20 01:05:34.984397	25.1	45.3	-94.7	0.0
2025-01-20 01:05:37.225644	25.3	46.0	-94.7	0.0
2025-01-20 01:05:39.467254	25.5	46.6	-94.7	0.0
2025-01-20 01:05:41.711647	25.8	47.3	-94.7	0.0
2025-01-20 01:05:43.954055	26.0	48.1	-94.6	0.0
2025-01-20 01:05:46.196070	26.3	48.8	-94.9	0.0
2025-01-20 01:05:48.440776	26.5	49.5	-94.5	0.0
2025-01-20 01:05:50.681782	26.8	50.3	-94.8	0.0
2025-01-20 01:05:52.924921	27.1	51.0	-95.0	0.0
2025-01-20 01:05:55.164144	27.4	51.8	-94.7	0.0
2025-01-20 01:05:57.408371	27.8	52.6	-95.1	0.0
2025-01-20 01:05:59.648104	28.1	53.4	-94.9	0.0
2025-01-20 01:06:01.890044	28.5	54.2	-95.1	0.0
2025-01-20 01:06:04.134956	28.8	55.0	-94.8	0.0
2025-01-20 01:06:06.377252	29.3	55.8	-94.9	0.0
2025-01-20 01:06:08.620466	29.7	56.7	-94.7	0.0
2025-01-20 01:06:10.863548	30.1	57.5	-94.8	0.0
2025-01-20 01:06:13.104939	30.6	58.4	-94.8	0.0
2025-01-20 01:06:15.348415	31.1	59.3	-94.6	0.0
2025-01-20 01:06:17.593039	31.7	60.1	-95.0	0.0
2025-01-20 01:06:19.834284	32.3	61.0	-94.9	0.0
2025-01-20 01:06:22.079772	32.9	61.9	-94.8	0.0
2025-01-20 01:06:24.327445	33.6	62.9	-94.8	0.0
2025-01-20 01:06:26.571802	34.4	63.8	-95.0	0.0
2025-01-20 01:06:28.815325	35.2	64.7	-94.8	0.0
2025-01-20 01:06:31.058409	36.0	65.7	-94.6	0.0
2025-01-20 01:06:33.302866	37.0	66.6	-95.0	0.0
2025-01-20 01:06:35.543953	38.0	67.5	-94.8	0.0
2025-01-20 01:06:37.785807	39.1	68.5	-94.9	0.0
2025-01-20 01:06:40.025427	40.4	69.5	-94.6	0.0
2025-01-20 01:06:42.268275	41.8	70.4	-94.7	0.0
2025-01-20 01:06:44.514232	43.3	71.4	-94.9	0.0
2025-01-20 01:06:46.757100	45.0	72.3	-94.7	0.0
2025-01-20 01:06:48.998211	46.9	73.2	-94.7	0.0
2025-01-20 01:06:51.242270	49.0	74.2	-94.4	0.0
2025-01-20 01:06:53.482339	51.4	75.1	-94.5	0.0
2025-01-20 01:06:55.722521	54.1	76.0	-94.7	0.0
2025-01-20 01:06:57.963664	57.2	76.8	-94.8	0.0
2025-01-20 01:07:00.206317	60.8	77.6	-94.6	0.0
2025-01-20 01:07:02.450732	64.8	78.4	-94.5	0.0
2025-01-20 01:07:04.692569	69.4	79.1	-94.8	0.0
2025-01-20 01:07:06.932367	74.6	79.8	-94.5	0.0
2025-01-20 01:07:09.172368	80.5	80.3	-94.7	0.0
2025-01-20 01:07:11.412036	87.0	80.7	-94.8	0.0
2025-01-20 01:07:13.652303	94.0	81.1	-94.7	0.0
2025-01-20 01:07:15.894335	101.5	81.2	-94.6	0.0
2025-01-20 01:07:18.134324	109.1	81.2	-94.9	0.0
2025-01-20 01:07:20.377219	116.6	81.1	-94.8	0.0
2025-01-20 01:07:22.615681	123.7	80.8	-94.9	0.0
2025-01-20 01:07:24.860658	130.4	80.4	-94.8	0.0
2025-01-20 01:07:27.102259	136.4	79.9	-94.6	0.0
2025-01-20 01:07:29.345555	141.7	79.3	-94.7	0.0
2025-01-20 01:07:31.588254	146.5	78.6	-95.0	0.0
2025-01-20 01:07:33.831231	150.6	77.8	-94.8	0.0
2025-01-20 01:07:36.075264	154.3	77.0	-95.0	0.0
2025-01-20 01:07:38.314568	157.5	76.1	-94.7	0.0
2025-01-20 01:07:40.557058	160.3	75.3	-95.0	0.0
2025-01-20 01:07:42.799571	162.7	74.4	-94.6	0.0
2025-01-20 01:07:45.045117	164.9	73.4	-95.1	0.0
2025-01-20 01:07:47.285318	166.9	72.5	-94.9	0.0
2025-01-20 01:07:49.526058	168.6	71.5	-94.8	0.0
2025-01-20 01:07:51.770314	170.2	70.6	-95.0	0.0
2025-01-20 01:07:54.012566	171.6	69.6	-94.8	0.0
2025-01-20 01:07:56.252909	172.8	68.7	-94.6	0.0
2025-01-20 01:07:58.494756	174.0	67.7	-95.0	0.0
2025-01-20 01:08:00.736164	175.0	66.8	-94.7	0.0
2025-01-20 01:08:02.979385	176.0	65.8	-95.1	0.0
2025-01-20 01:08:05.220270	176.9	64.9	-94.8	0.0
2025-01-20 01:08:07.460315	177.7	63.9	-94.9	0.0
2025-01-20 01:08:09.700703	178.5	63.0	-94.8	0.0
2025-01-20 01:08:11.946579	179.2	62.1	-94.9	0.0
2025-01-20 01:08:14.186497	179.8	61.2	-94.7	0.0
2025-01-20 01:08:16.430313	180.4	60.3	-94.9	0.0
2025-01-20 01:08:18.674398	181.0	59.4	-95.0	0.0
2025-01-20 01:08:20.916261	181.5	58.5	-94.9	0.0
2025-01-20 01:08:23.159018	182.0	57.6	-94.9	0.0
2025-01-20 01:08:25.398967	182.5	56.8	-94.8	0.0
2025-01-20 01:08:27.643463	182.9	55.9	-95.0	0.0
2025-01-20 01:08:29.885952	183.3	55.1	-94.9	0.0
2025-01-20 01:08:32.127364	183.7	54.3	-95.0	0.0
2025-01-20 01:08:34.371580	184.1	53.5	-94.9	0.0
2025-01-20 01:08:36.612785	184.4	52.7	-94.9	0.0
2025-01-20 01:08:38.853394	184.7	51.9	-94.9	0.0
2025-01-20 01:08:41.095936	185.0	51.1	-94.7	0.0
2025-01-20 01:08:43.340189	185.3	50.3	-94.7	0.0
2025-01-20 01:08:45.585938	185.6	49.6	-94.7	0.0
2025-01-20 01:08:47.825270	185.9	48.8	-94.6	0.0
2025-01-20 01:08:50.065787	186.1	48.1	-94.6	0.0
2025-01-20 01:08:52.309252	186.4	47.4	-94.6	0.0
2025-01-20 01:08:54.551838	186.6	46.7	-94.4	0.0
2025-01-20 01:08:56.798659	186.9	46.0	-94.9	0.0
2025-01-20 01:08:59.040574	187.1	45.3	-94.9	0.0
2025-01-20 01:09:01.285790	187.3	44.6	-94.8	0.0
2025-01-20 01:09:03.526431	187.5	44.0	-94.9	0.0
2025-01-20 01:09:05.768779	187.7	43.3	-94.8	0.0
2025-01-20 01:09:08.010637	187.9	42.7	-94.9	0.0
2025-01-20 01:09:10.253041	188.0	42.0	-94.7	0.0
2025-01-20 01:09:12.494422	188.2	41.4	-94.8	0.0
2025-01-20 01:09:14.736339	188.4	40.8	-95.0	0.0
2025-01-20 01:09:16.977400	188.5	40.2	-94.7	0.0
2025-01-20 01:09:19.217487	188.7	39.6	-95.1	0.0
2025-01-20 01:09:21.462054	188.8	39.0	-94.7	0.0
2025-01-20 01:09:23.704268	189.0	38.5	-94.7	0.0
2025-01-20 01:09:25.949890	189.1	37.9	-94.9	0.0
2025-01-20 01:09:28.191514	189.3	37.4	-95.0	0.0
2025-01-20 01:09:30.431047	189.4	36.8	-95.0	0.0
2025-01-20 01:09:32.670100	189.5	36.3	-94.6	0.0
2025-01-20 01:09:34.913527	189.6	35.7	-94.7	0.0
2025-01-20 01:09:37.156407	189.8	35.2	-94.6	0.0
2025-01-20 01:09:39.397819	189.9	34.7	-95.0	0.0
2025-01-20 01:09:41.639427	190.0	34.2	-94.7	0.0
2025-01-20 01:09:43.881769	190.1	33.7	-94.9	0.0
2025-01-20 01:09:46.124366	190.2	33.2	-94.9	0.0
2025-01-20 01:09:48.364595	190.3	32.8	-94.7	0.0
2025-01-20 01:09:50.609324	190.4	32.3	-94.7	0.0
2025-01-20 01:09:52.850537	190.5	31.8	-94.9	0.0
2025-01-20 01:09:55.094371	190.6	31.4	-95.0	0.0
2025-01-20 01:09:57.337962	190.7	30.9	-94.8	0.0
2025-01-20 01:09:59.579934	190.8	30.5	-95.2	0.0
2025-01-20 01:10:01.820640	190.9	30.0	-94.9	0.0
2025-01-20 01:10:04.064445	190.9	29.6	-94.9	0.0
2025-01-20 01:10:06.304913	191.0	29.2	-94.8	0.0
2025-01-20 01:10:08.545575	191.1	28.8	-94.9	0.0
2025-01-20 01:10:10.786639	191.2	28.4	-94.9	0.0
2025-01-20 01:10:13.028592	191.3	28.0	-95.0	0.0
2025-01-20 01:10:15.271001	191.4	27.6	-95.3	0.0
2025-01-20 01:10:17.514878	191.4	27.2	-94.7	0.0
2025-01-20 01:10:19.752846	191.5	26.8	-94.9	0.0
2025-01-20 01:10:21.991986	191.6	26.4	-94.9	0.0
2025-01-20 01:10:24.233077	191.6	26.0	-94.8	0.0
2025-01-20 01:10:26.477279	191.7	25.6	-94.8	0.0
2025-01-20 01:10:28.720262	191.8	25.3	-94.9	0.0
2025-01-20 01:10:30.962300	191.8	24.9	-94.7	0.0
2025-01-20 01:10:33.206365	191.9	24.6	-94.9	0.0
2025-01-20 01:10:35.446517	192.0	24.2	-94.9	0.0
2025-01-20 01:10:37.688399	192.0	23.9	-94.9	0.0
2025-01-20 01:10:39.930282	192.1	23.5	-94.9	0.0
2025-01-20 01:10:42.173279	192.2	23.2	-94.9	0.0
2025-01-20 01:10:44.416340	192.2	22.8	-94.8	0.0
2025-01-20 01:10:46.656955	192.3	22.5	-94.8	0.0
2025-01-20 01:10:48.899495	192.3	22.2	-94.9	0.0
2025-01-20 01:10:51.138250	192.4	21.9	-94.6	0.0
2025-01-20 01:10:53.383071	192.4	21.5	-94.9	0.0
2025-01-20 01:10:55.625494	192.5	21.2	-94.8	0.0
2025-01-20 01:10:57.865539	192.5	20.9	-94.9	0.0
2025-01-20 01:11:00.110629	192.6	20.6	-95.0	0.0
2025-01-20 01:11:02.354173	192.6	20.3	-94.9	0.0
2025-01-20 01:11:04.599055	192.7	20.0	-95.0	0.0
2025-01-20 01:11:06.840747	192.7	19.7	-94.9	0.0
2025-01-20 01:11:09.082265	192.8	19.4	-94.9	0.0
2025-01-20 01:11:11.324161	192.8	19.1	-95.0	0.0
2025-01-20 01:11:13.566421	192.9	18.9	-95.0	0.0
2025-01-20 01:11:15.806132	192.9	18.6	-94.8	0.0
2025-01-20 01:11:18.047012	193.0	18.3	-94.8	0.0
2025-01-20 01:11:20.290207	193.0	18.0	-94.9	0.0
2025-01-20 01:11:22.532757	193.1	17.7	-94.9	0.0
2025-01-20 01:11:24.775690	193.1	17.5	-94.9	0.0
2025-01-20 01:11:27.018858	193.2	17.2	-94.9	0.0
2025-01-20 01:11:29.261928	193.2	16.9	-94.8	0.0
2025-01-20 01:11:31.503132	193.2	16.7	-94.9	0.0
2025-01-20 01:11:33.747924	193.3	16.4	-94.8	0.0
2025-01-20 01:11:35.989229	193.3	16.2	-94.6	0.0
2025-01-20 01:11:38.232123	193.4	15.9	-94.5	0.0
2025-01-20 01:11:40.477132	193.4	15.7	-94.8	0.0
2025-01-20 01:11:42.718879	193.4	15.4	-94.6	0.0
2025-01-20 01:11:45.216013	193.5	15.2	-94.8	0.0
2025-01-20 01:11:47.458992	193.5	14.9	-94.8	0.0
2025-01-20 01:11:49.702989	193.5	14.7	-95.1	0.0
2025-01-20 01:11:51.945843	193.6	14.4	-94.9	0.0
2025-01-20 01:11:54.188247	193.6	14.2	-94.8	0.0
2025-01-20 01:11:56.431724	193.7	14.0	-94.5	0.0
2025-01-20 01:11:58.675383	193.7	13.7	-94.9	0.0
2025-01-20 01:12:00.916465	193.7	13.5	-94.7	0.0
2025-01-20 01:12:03.158176	193.8	13.3	-94.7	0.0
2025-01-20 01:12:05.400282	193.8	13.1	-94.8	0.0
2025-01-20 01:12:07.642386	193.8	12.8	-94.7	0.0
2025-01-20 01:12:09.883177	193.9	12.6	-94.8	0.0
2025-01-20 01:12:12.127749	193.9	12.4	-94.8	0.0
2025-01-20 01:12:14.373910	193.9	12.2	-94.8	0.0
2025-01-20 01:12:16.617121	194.0	12.0	-94.7	0.0
2025-01-20 01:12:18.861391	194.0	11.8	-94.8	0.0
2025-01-20 01:12:21.101394	194.0	11.5	-94.9	0.0
2025-01-20 01:12:23.344298	194.1	11.3	-94.8	0.0
2025-01-20 01:12:25.585064	194.1	11.1	-94.8	0.0
2025-01-20 01:12:27.826990	194.1	10.9	-94.7	0.0
2025-01-20 01:12:30.071294	194.1	10.7	-94.9	0.0
2025-01-20 01:12:32.311960	194.2	10.5	-94.8	0.0
2025-01-20 01:12:34.556077	194.2	10.3	-95.0	0.0
2025-01-20 01:12:36.795588	194.2	10.1	-94.8	0.0
#Closed at: 2025-01-20 01:01:48.095274