passes_logs/2025/01/20/planumMaritime01/planumMaritime01__20250120_174823_METEOR-M2_3_rec.log

#Pass ID: 20250120_174823_METEOR-M2 3
#Satellite: METEOR-M2 3
#Configuration: METEOR-M2 3
#Start time: 2025-01-20 17:48:28.536082

#LorettStation: 1.0.0 05.05.2024
#Station: planumMaritime01
#Location: 37.49445 lon 55.92918 lat
#TLE: 1 57166U 23091A   25020.10224522  .00000094  00000+0  60245-4 0  9990
#TLE: 2 57166  98.6841  78.5029 0003456 207.0821 153.0178 14.23970607 81498

#Time	Az	El	Level	SNR
2025-01-20 17:48:30.698831	161.6	10.2	-78.2	0.0
2025-01-20 17:48:32.946947	161.6	10.4	-78.3	0.0
2025-01-20 17:48:35.195224	161.6	10.6	-78.2	0.0
2025-01-20 17:48:37.441492	161.6	10.8	-78.5	0.0
2025-01-20 17:48:39.686602	161.6	11.0	-78.2	0.0
2025-01-20 17:48:41.934029	161.7	11.2	-78.5	0.0
2025-01-20 17:48:44.182925	161.7	11.4	-78.2	0.0
2025-01-20 17:48:46.426469	161.7	11.6	-78.4	0.0
2025-01-20 17:48:48.674527	161.7	11.8	-78.4	0.0
2025-01-20 17:48:50.918360	161.7	12.1	-78.1	0.0
2025-01-20 17:48:53.168957	161.7	12.3	-78.5	0.0
2025-01-20 17:48:55.415543	161.7	12.5	-78.2	0.0
2025-01-20 17:48:57.662303	161.7	12.7	-78.3	0.0
2025-01-20 17:48:59.909331	161.7	12.9	-78.2	0.0
2025-01-20 17:49:02.155351	161.7	13.2	-78.4	0.0
2025-01-20 17:49:04.400899	161.7	13.4	-78.3	0.0
2025-01-20 17:49:06.648588	161.8	13.6	-78.2	0.0
2025-01-20 17:49:08.894008	161.8	13.8	-78.5	0.0
2025-01-20 17:49:11.139996	161.8	14.1	-78.3	0.4
2025-01-20 17:49:13.386202	161.8	14.3	-78.6	0.0
2025-01-20 17:49:15.633153	161.8	14.5	-78.9	0.4
2025-01-20 17:49:17.881408	161.8	14.8	-78.6	2.2
2025-01-20 17:49:20.128339	161.8	15.0	-78.3	2.9
2025-01-20 17:49:22.374008	161.8	15.3	-78.8	0.3
2025-01-20 17:49:24.617384	161.8	15.5	-78.8	1.3
2025-01-20 17:49:26.864049	161.8	15.8	-77.8	0.0
2025-01-20 17:49:29.111149	161.8	16.0	-78.8	0.7
2025-01-20 17:49:31.356293	161.9	16.3	-78.8	1.5
2025-01-20 17:49:33.599125	161.9	16.5	-78.8	1.8
2025-01-20 17:49:35.843447	161.9	16.8	-78.9	1.4
2025-01-20 17:49:38.094274	161.9	17.0	-78.9	1.5
2025-01-20 17:49:40.338892	161.9	17.3	-79.0	2.6
2025-01-20 17:49:42.584004	161.9	17.6	-79.0	3.4
2025-01-20 17:49:44.827619	161.9	17.9	-79.2	2.8
2025-01-20 17:49:47.073213	161.9	18.1	-78.8	2.9
2025-01-20 17:49:49.322056	161.9	18.4	-79.3	1.8
2025-01-20 17:49:51.566480	161.9	18.7	-79.1	4.3
2025-01-20 17:49:53.813104	162.0	19.0	-79.0	4.6
2025-01-20 17:49:56.060014	162.0	19.3	-79.1	3.8
2025-01-20 17:49:58.308312	162.0	19.5	-79.1	3.8
2025-01-20 17:50:00.552384	162.0	19.8	-79.1	4.1
2025-01-20 17:50:02.800351	162.0	20.1	-79.2	4.1
2025-01-20 17:50:05.045599	162.0	20.4	-79.1	3.9
2025-01-20 17:50:07.290754	162.0	20.7	-78.9	3.8
2025-01-20 17:50:09.535230	162.0	21.1	-79.2	2.7
2025-01-20 17:50:11.780452	162.0	21.4	-79.3	4.2
2025-01-20 17:50:14.025335	162.1	21.7	-79.0	2.4
2025-01-20 17:50:16.271351	162.1	22.0	-78.9	3.7
2025-01-20 17:50:18.516231	162.1	22.3	-79.5	1.0
2025-01-20 17:50:20.760548	162.1	22.7	-79.1	2.2
2025-01-20 17:50:23.006724	162.1	23.0	-79.3	2.4
2025-01-20 17:50:25.250611	162.1	23.3	-79.2	4.5
2025-01-20 17:50:27.495231	162.1	23.7	-79.3	3.5
2025-01-20 17:50:29.741187	162.1	24.0	-78.6	1.8
2025-01-20 17:50:31.989331	162.1	24.4	-78.4	1.5
2025-01-20 17:50:34.233926	162.2	24.7	-78.1	2.9
2025-01-20 17:50:36.478946	162.2	25.1	-78.7	3.0
2025-01-20 17:50:38.727535	162.2	25.5	-77.8	0.0
2025-01-20 17:50:40.976085	162.2	25.8	-78.2	3.1
2025-01-20 17:50:43.222466	162.2	26.2	-77.5	0.2
2025-01-20 17:50:45.466284	162.2	26.6	-77.8	0.6
2025-01-20 17:50:47.711249	162.2	27.0	-77.8	0.0
2025-01-20 17:50:49.956333	162.2	27.4	-78.6	2.7
2025-01-20 17:50:52.202410	162.3	27.8	-77.0	0.0
2025-01-20 17:50:54.447585	162.3	28.2	-78.4	1.9
2025-01-20 17:50:56.695371	162.3	28.6	-78.9	2.7
2025-01-20 17:50:58.937315	162.3	29.0	-78.1	0.0
2025-01-20 17:51:01.181491	162.3	29.4	-77.5	0.0
2025-01-20 17:51:03.429400	162.3	29.9	-77.4	0.2
2025-01-20 17:51:05.676270	162.3	30.3	-78.3	0.0
2025-01-20 17:51:07.921456	162.3	30.7	-78.8	0.0
2025-01-20 17:51:10.165280	162.4	31.2	-79.3	0.0
2025-01-20 17:51:12.414083	162.4	31.7	-79.2	0.0
2025-01-20 17:51:14.661107	162.4	32.1	-79.0	0.7
2025-01-20 17:51:16.903408	162.4	32.6	-77.9	0.0
2025-01-20 17:51:19.150029	162.4	33.1	-77.6	0.0
2025-01-20 17:51:21.391650	162.4	33.6	-77.9	0.0
2025-01-20 17:51:23.636016	162.5	34.1	-77.9	0.0
2025-01-20 17:51:25.884693	162.5	34.6	-78.1	0.0
2025-01-20 17:51:28.130949	162.5	35.1	-79.3	0.0
2025-01-20 17:51:30.378063	162.5	35.6	-79.4	0.0
2025-01-20 17:51:32.623508	162.5	36.1	-78.8	0.0
2025-01-20 17:51:34.869023	162.5	36.7	-79.5	0.0
2025-01-20 17:51:37.115211	162.6	37.2	-78.8	0.0
2025-01-20 17:51:39.363350	162.6	37.8	-78.5	0.0
2025-01-20 17:51:41.612852	162.6	38.3	-78.9	0.0
2025-01-20 17:51:43.858707	162.6	38.9	-78.1	0.0
2025-01-20 17:51:46.106334	162.6	39.5	-77.4	0.0
2025-01-20 17:51:48.355948	162.6	40.1	-78.9	0.0
2025-01-20 17:51:50.600810	162.7	40.7	-77.5	0.0
2025-01-20 17:51:52.845958	162.7	41.3	-77.8	0.0
2025-01-20 17:51:55.092534	162.7	42.0	-77.4	0.0
2025-01-20 17:51:57.333944	162.7	42.6	-78.3	0.0
2025-01-20 17:51:59.580907	162.8	43.2	-78.8	0.0
2025-01-20 17:52:01.828513	162.8	43.9	-78.6	0.0
2025-01-20 17:52:04.078339	162.8	44.6	-78.9	0.0
2025-01-20 17:52:06.325973	162.8	45.3	-78.3	0.0
2025-01-20 17:52:08.571149	162.8	46.0	-78.6	0.0
2025-01-20 17:52:10.818139	162.9	46.7	-78.3	0.0
2025-01-20 17:52:13.062101	162.9	47.4	-78.6	0.0
2025-01-20 17:52:15.309356	162.9	48.1	-78.8	0.0
2025-01-20 17:52:17.552661	163.0	48.9	-78.1	0.0
2025-01-20 17:52:19.798233	163.0	49.6	-78.7	0.0
2025-01-20 17:52:22.045183	163.0	50.4	-78.9	0.0
2025-01-20 17:52:24.291006	163.0	51.2	-78.9	0.0
2025-01-20 17:52:26.538595	163.1	52.0	-78.0	0.0
2025-01-20 17:52:28.789910	163.1	52.8	-78.7	0.0
2025-01-20 17:52:31.033151	163.1	53.6	-78.4	0.0
2025-01-20 17:52:33.281369	163.2	54.5	-78.8	0.0
2025-01-20 17:52:35.525756	163.2	55.3	-78.4	0.0
2025-01-20 17:52:37.771316	163.3	56.2	-78.7	2.9
2025-01-20 17:52:40.017820	163.3	57.1	-78.9	3.4
2025-01-20 17:52:42.263303	163.4	58.0	-78.7	5.1
2025-01-20 17:52:44.509411	163.4	58.9	-78.9	6.1
2025-01-20 17:52:46.756584	163.5	59.8	-78.9	5.6
2025-01-20 17:52:49.003163	163.5	60.7	-79.0	6.0
2025-01-20 17:52:51.249503	163.6	61.7	-78.6	7.4
2025-01-20 17:52:53.494003	163.6	62.6	-78.9	8.1
2025-01-20 17:52:55.740357	163.7	63.6	-78.8	7.9
2025-01-20 17:52:57.984966	163.8	64.6	-78.9	8.6
2025-01-20 17:53:00.230655	163.9	65.6	-79.3	9.4
2025-01-20 17:53:02.481738	163.9	66.6	-79.0	9.9
2025-01-20 17:53:04.728385	164.0	67.7	-78.9	10.6
2025-01-20 17:53:06.974917	164.1	68.7	-78.5	11.0
2025-01-20 17:53:09.219644	164.3	69.7	-78.4	12.5
2025-01-20 17:53:11.468496	164.4	70.8	-78.2	12.8
2025-01-20 17:53:13.714420	164.5	71.9	-78.2	13.3
2025-01-20 17:53:15.964344	164.7	73.0	-78.3	13.2
2025-01-20 17:53:18.210528	164.9	74.1	-78.1	14.1
2025-01-20 17:53:20.457686	165.1	75.2	-78.4	13.8
2025-01-20 17:53:22.702883	165.3	76.3	-78.0	13.6
2025-01-20 17:53:24.947348	165.6	77.4	-77.8	14.2
2025-01-20 17:53:27.193117	166.0	78.6	-77.8	14.3
2025-01-20 17:53:29.438463	166.4	79.7	-77.2	14.3
2025-01-20 17:53:31.683665	166.9	80.8	-77.2	14.9
2025-01-20 17:53:33.932171	167.6	82.0	-77.3	15.7
2025-01-20 17:53:36.178398	168.5	83.2	-77.6	15.2
2025-01-20 17:53:38.424238	169.8	84.3	-78.0	14.8
2025-01-20 17:53:40.671686	171.7	85.5	-78.2	13.8
2025-01-20 17:53:42.917726	174.9	86.6	-78.1	13.8
2025-01-20 17:53:45.162985	181.5	87.8	-77.9	14.6
2025-01-20 17:53:47.409107	200.3	88.8	-77.4	15.4
2025-01-20 17:53:49.654263	270.1	89.2	-77.2	15.7
2025-01-20 17:53:51.897660	314.9	88.4	-77.4	15.9
2025-01-20 17:53:54.144775	326.6	87.3	-77.6	15.1
2025-01-20 17:53:56.391524	331.4	86.2	-77.3	13.5
2025-01-20 17:53:58.637490	334.0	85.0	-78.0	14.0
2025-01-20 17:54:00.884999	335.6	83.9	-78.5	13.2
2025-01-20 17:54:03.130208	336.7	82.7	-78.7	12.2
2025-01-20 17:54:05.380919	337.5	81.5	-78.5	11.6
2025-01-20 17:54:07.626714	338.1	80.4	-78.6	11.7
2025-01-20 17:54:09.875204	338.6	79.3	-78.6	11.8
2025-01-20 17:54:12.120103	339.0	78.1	-78.5	12.2
2025-01-20 17:54:14.366939	339.3	77.0	-78.4	11.8
2025-01-20 17:54:16.608973	339.6	75.9	-77.9	10.9
2025-01-20 17:54:18.854177	339.8	74.8	-78.5	9.9
2025-01-20 17:54:21.100544	340.0	73.7	-78.4	9.2
2025-01-20 17:54:23.345577	340.2	72.6	-78.6	7.6
2025-01-20 17:54:25.589438	340.3	71.5	-79.0	7.7
2025-01-20 17:54:27.835763	340.5	70.4	-79.3	6.6
2025-01-20 17:54:30.085264	340.6	69.4	-78.9	5.5
2025-01-20 17:54:32.333382	340.7	68.3	-78.9	4.3
2025-01-20 17:54:34.582303	340.8	67.3	-79.6	5.2
2025-01-20 17:54:36.827465	340.9	66.2	-79.3	4.0
2025-01-20 17:54:39.074883	341.0	65.2	-79.4	3.7
2025-01-20 17:54:41.321282	341.0	64.2	-80.0	2.8
2025-01-20 17:54:43.565520	341.1	63.3	-80.1	2.1
2025-01-20 17:54:45.812098	341.2	62.3	-80.0	0.0
2025-01-20 17:54:48.057189	341.2	61.3	-80.2	0.0
2025-01-20 17:54:50.303522	341.3	60.4	-80.4	0.0
2025-01-20 17:54:52.549833	341.3	59.5	-78.5	0.0
2025-01-20 17:54:54.796801	341.4	58.5	-78.4	0.0
2025-01-20 17:54:57.043202	341.4	57.6	-78.5	0.0
2025-01-20 17:54:59.290530	341.5	56.8	-77.4	0.0
2025-01-20 17:55:01.535429	341.5	55.9	-79.8	0.0
2025-01-20 17:55:03.780148	341.6	55.0	-79.1	0.0
2025-01-20 17:55:06.026429	341.6	54.2	-80.6	0.0
2025-01-20 17:55:08.272495	341.7	53.4	-80.3	0.0
2025-01-20 17:55:10.518910	341.7	52.5	-80.0	0.0
2025-01-20 17:55:12.767422	341.7	51.7	-80.1	0.0
2025-01-20 17:55:15.012221	341.8	50.9	-79.7	0.0
2025-01-20 17:55:17.258331	341.8	50.2	-80.2	0.0
2025-01-20 17:55:19.508255	341.8	49.4	-79.8	0.0
2025-01-20 17:55:21.755547	341.9	48.6	-79.6	0.0
2025-01-20 17:55:24.003488	341.9	47.9	-79.8	0.0
2025-01-20 17:55:26.250697	341.9	47.2	-80.7	0.0
2025-01-20 17:55:28.495481	341.9	46.5	-80.5	0.0
2025-01-20 17:55:30.740063	342.0	45.8	-79.7	0.0
2025-01-20 17:55:32.988320	342.0	45.1	-79.0	0.0
2025-01-20 17:55:35.234148	342.0	44.4	-79.6	0.0
2025-01-20 17:55:37.478193	342.0	43.7	-79.1	0.0
2025-01-20 17:55:39.723976	342.1	43.1	-77.8	0.0
2025-01-20 17:55:41.968041	342.1	42.4	-78.9	0.0
2025-01-20 17:55:44.215236	342.1	41.8	-79.3	0.0
2025-01-20 17:55:46.460967	342.1	41.2	-79.7	0.0
2025-01-20 17:55:48.704090	342.1	40.6	-78.4	0.0
2025-01-20 17:55:50.950254	342.2	40.0	-78.3	0.0
2025-01-20 17:55:53.198901	342.2	39.4	-78.9	0.0
2025-01-20 17:55:55.443203	342.2	38.8	-79.2	0.0
2025-01-20 17:55:57.688941	342.2	38.2	-78.8	0.0
2025-01-20 17:55:59.935623	342.2	37.7	-79.1	0.0
2025-01-20 17:56:02.183382	342.3	37.1	-78.2	0.0
2025-01-20 17:56:04.428399	342.3	36.6	-78.3	0.0
2025-01-20 17:56:06.672157	342.3	36.0	-77.2	0.0
2025-01-20 17:56:08.919387	342.3	35.5	-78.0	0.0
2025-01-20 17:56:11.164945	342.3	35.0	-77.9	0.0
2025-01-20 17:56:13.409611	342.4	34.5	-75.4	0.0
2025-01-20 17:56:15.656073	342.4	34.0	-77.0	0.0
2025-01-20 17:56:17.901877	342.4	33.5	-77.7	0.0
2025-01-20 17:56:20.146977	342.4	33.0	-78.0	0.0
2025-01-20 17:56:22.393844	342.4	32.5	-77.1	0.0
2025-01-20 17:56:24.639880	342.4	32.1	-77.1	0.0
2025-01-20 17:56:26.889428	342.5	31.6	-77.1	0.0
2025-01-20 17:56:29.135803	342.5	31.2	-77.9	0.0
2025-01-20 17:56:31.384725	342.5	30.7	-75.4	0.0
2025-01-20 17:56:33.626563	342.5	30.3	-75.9	0.0
2025-01-20 17:56:35.870045	342.5	29.8	-77.0	0.0
2025-01-20 17:56:38.117523	342.5	29.4	-75.2	0.0
2025-01-20 17:56:40.365154	342.5	29.0	-76.1	0.0
2025-01-20 17:56:42.609577	342.6	28.6	-77.2	0.0
2025-01-20 17:56:44.852555	342.6	28.2	-75.5	0.0
2025-01-20 17:56:47.095587	342.6	27.8	-75.1	0.0
2025-01-20 17:56:49.345214	342.6	27.4	-74.1	0.0
2025-01-20 17:56:51.592551	342.6	27.0	-75.1	0.0
2025-01-20 17:56:53.838816	342.6	26.6	-75.3	0.0
2025-01-20 17:56:56.084507	342.6	26.2	-75.3	0.0
2025-01-20 17:56:58.329382	342.7	25.8	-75.8	0.0
2025-01-20 17:57:00.575850	342.7	25.5	-76.5	0.0
2025-01-20 17:57:02.821758	342.7	25.1	-73.0	0.0
2025-01-20 17:57:05.069852	342.7	24.7	-74.9	0.0
2025-01-20 17:57:07.312236	342.7	24.4	-73.4	0.0
2025-01-20 17:57:09.562029	342.7	24.0	-74.7	0.0
2025-01-20 17:57:11.808175	342.7	23.7	-74.8	0.0
2025-01-20 17:57:14.051914	342.7	23.4	-75.6	0.0
2025-01-20 17:57:16.297624	342.8	23.0	-73.2	0.0
2025-01-20 17:57:18.544733	342.8	22.7	-74.8	0.0
2025-01-20 17:57:20.789463	342.8	22.4	-73.7	0.0
2025-01-20 17:57:23.033342	342.8	22.0	-73.9	0.0
2025-01-20 17:57:25.279458	342.8	21.7	-72.3	0.0
2025-01-20 17:57:27.523178	342.8	21.4	-74.5	0.0
2025-01-20 17:57:29.768996	342.8	21.1	-72.7	0.0
2025-01-20 17:57:32.015200	342.8	20.8	-73.2	0.0
2025-01-20 17:57:34.259082	342.9	20.5	-71.4	0.0
2025-01-20 17:57:36.507460	342.9	20.2	-72.5	0.0
2025-01-20 17:57:38.753261	342.9	19.9	-72.5	0.0
2025-01-20 17:57:40.999385	342.9	19.6	-70.4	0.0
2025-01-20 17:57:43.248080	342.9	19.3	-71.3	0.0
2025-01-20 17:57:45.496383	342.9	19.0	-71.1	0.0
2025-01-20 17:57:47.743063	342.9	18.7	-71.7	0.0
2025-01-20 17:57:49.989672	342.9	18.5	-69.2	0.0
2025-01-20 17:57:52.233377	343.0	18.2	-70.6	0.0
2025-01-20 17:57:54.476575	343.0	17.9	-70.0	0.0
2025-01-20 17:57:56.722217	343.0	17.6	-67.7	0.0
2025-01-20 17:57:58.969244	343.0	17.4	-73.6	0.0
2025-01-20 17:58:01.214155	343.0	17.1	-72.1	0.0
2025-01-20 17:58:03.459969	343.0	16.9	-71.1	0.0
2025-01-20 17:58:05.708012	343.0	16.6	-72.9	0.0
2025-01-20 17:58:07.956694	343.0	16.3	-71.8	0.0
2025-01-20 17:58:10.201319	343.0	16.1	-72.7	0.0
2025-01-20 17:58:12.447279	343.1	15.8	-72.4	0.0
2025-01-20 17:58:14.692456	343.1	15.6	-73.8	0.0
2025-01-20 17:58:16.938735	343.1	15.3	-73.6	0.0
2025-01-20 17:58:19.186176	343.1	15.1	-72.2	0.0
2025-01-20 17:58:21.430502	343.1	14.9	-70.8	0.0
2025-01-20 17:58:23.676382	343.1	14.6	-71.8	0.0
2025-01-20 17:58:25.919579	343.1	14.4	-72.7	0.0
2025-01-20 17:58:28.164069	343.1	14.2	-71.5	0.0
2025-01-20 17:58:30.408584	343.1	13.9	-73.2	0.0
2025-01-20 17:58:32.651256	343.2	13.7	-72.6	0.0
2025-01-20 17:58:34.897869	343.2	13.5	-72.6	0.0
2025-01-20 17:58:37.145263	343.2	13.2	-71.2	0.0
2025-01-20 17:58:39.390585	343.2	13.0	-72.6	0.0
2025-01-20 17:58:41.636443	343.2	12.8	-73.0	0.0
2025-01-20 17:58:43.884667	343.2	12.6	-72.8	0.0
2025-01-20 17:58:46.129352	343.2	12.4	-74.2	0.0
2025-01-20 17:58:48.378121	343.2	12.1	-72.9	0.0
2025-01-20 17:58:50.624885	343.2	11.9	-70.3	0.0
2025-01-20 17:58:52.871180	343.3	11.7	-71.6	0.0
2025-01-20 17:58:55.114566	343.3	11.5	-73.4	0.0
2025-01-20 17:58:57.360410	343.3	11.3	-71.7	0.0
2025-01-20 17:58:59.607555	343.3	11.1	-71.9	0.0
2025-01-20 17:59:01.854428	343.3	10.9	-74.8	0.0
2025-01-20 17:59:04.100222	343.3	10.7	-76.4	0.0
2025-01-20 17:59:06.349201	343.3	10.5	-80.9	0.0
2025-01-20 17:59:08.595466	343.3	10.3	-81.0	0.0
2025-01-20 17:59:10.840062	343.3	10.1	-82.0	0.0
#Closed at: 2025-01-20 17:48:23.542672