passes_logs/2025/01/20/planumMaritime01/planumMaritime01__20250120_193644_NOAA_19_rec.log

#Pass ID: 20250120_193644_NOAA 19
#Satellite: NOAA 19
#Configuration: NOAA 19
#Start time: 2025-01-20 19:36:49.090155

#LorettStation: 1.0.0 05.05.2024
#Station: planumMaritime01
#Location: 37.49445 lon 55.92918 lat
#TLE: 1 33591U 09005A   25020.17232911  .00000399  00000+0  23710-3 0  9996
#TLE: 2 33591  99.0187  83.9745 0014303  43.5990 316.6309 14.13263973822272

#Time	Az	El	Level	SNR
2025-01-20 19:36:51.247406	216.8	10.1	-78.0	0.0
2025-01-20 19:36:53.496679	217.1	10.3	-78.1	0.0
2025-01-20 19:36:55.745868	217.3	10.4	-77.9	0.0
2025-01-20 19:36:57.996440	217.6	10.6	-77.7	0.0
2025-01-20 19:37:00.247742	217.9	10.7	-78.4	0.0
2025-01-20 19:37:02.495955	218.2	10.9	-78.0	0.0
2025-01-20 19:37:04.744337	218.4	11.1	-77.8	0.0
2025-01-20 19:37:06.989379	218.7	11.2	-77.8	0.0
2025-01-20 19:37:09.236565	219.0	11.4	-78.3	0.0
2025-01-20 19:37:11.483691	219.3	11.5	-78.3	0.0
2025-01-20 19:37:13.730970	219.6	11.7	-78.3	0.0
2025-01-20 19:37:15.977279	219.8	11.8	-79.0	0.0
2025-01-20 19:37:18.222558	220.1	12.0	-79.0	0.0
2025-01-20 19:37:20.471058	220.4	12.1	-79.1	0.0
2025-01-20 19:37:22.716722	220.7	12.3	-79.0	0.0
2025-01-20 19:37:24.964173	221.0	12.4	-78.6	0.0
2025-01-20 19:37:27.209623	221.3	12.6	-79.3	0.0
2025-01-20 19:37:29.456123	221.6	12.7	-78.5	0.0
2025-01-20 19:37:31.701915	222.0	12.9	-77.4	0.0
2025-01-20 19:37:33.946011	222.3	13.1	-78.7	0.0
2025-01-20 19:37:36.191353	222.6	13.2	-79.0	0.0
2025-01-20 19:37:38.435915	222.9	13.4	-78.5	0.0
2025-01-20 19:37:40.679481	223.2	13.5	-79.1	0.0
2025-01-20 19:37:42.927724	223.6	13.7	-79.2	0.0
2025-01-20 19:37:45.173734	223.9	13.8	-79.0	0.0
2025-01-20 19:37:47.420697	224.2	14.0	-79.2	0.0
2025-01-20 19:37:49.667702	224.6	14.2	-78.2	0.0
2025-01-20 19:37:51.912905	224.9	14.3	-79.5	0.0
2025-01-20 19:37:54.161471	225.2	14.5	-79.5	0.0
2025-01-20 19:37:56.411419	225.6	14.6	-79.7	0.0
2025-01-20 19:37:58.659934	225.9	14.8	-79.3	0.0
2025-01-20 19:38:00.905745	226.3	14.9	-79.6	0.0
2025-01-20 19:38:03.150195	226.7	15.1	-79.8	0.0
2025-01-20 19:38:05.398279	227.0	15.3	-79.2	0.0
2025-01-20 19:38:07.644303	227.4	15.4	-79.9	0.0
2025-01-20 19:38:09.891070	227.8	15.6	-78.5	0.0
2025-01-20 19:38:12.134018	228.1	15.7	-79.6	0.0
2025-01-20 19:38:14.385136	228.5	15.9	-79.7	0.0
2025-01-20 19:38:16.632177	228.9	16.0	-78.3	0.0
2025-01-20 19:38:18.877947	229.3	16.2	-79.5	0.0
2025-01-20 19:38:21.124063	229.7	16.3	-80.1	0.0
2025-01-20 19:38:23.371584	230.1	16.5	-80.2	0.0
2025-01-20 19:38:25.619195	230.5	16.7	-80.4	0.0
2025-01-20 19:38:27.865900	230.9	16.8	-80.2	0.0
2025-01-20 19:38:30.112574	231.3	17.0	-79.9	0.0
2025-01-20 19:38:32.357319	231.7	17.1	-79.9	0.0
2025-01-20 19:38:34.604902	232.1	17.3	-80.3	0.0
2025-01-20 19:38:36.851835	232.5	17.4	-79.8	0.0
2025-01-20 19:38:39.101697	232.9	17.6	-79.8	0.0
2025-01-20 19:38:41.349918	233.3	17.7	-80.3	0.0
2025-01-20 19:38:43.594755	233.8	17.9	-80.3	0.0
2025-01-20 19:38:45.841988	234.2	18.0	-80.6	0.0
2025-01-20 19:38:48.088899	234.6	18.2	-80.7	0.0
2025-01-20 19:38:50.336538	235.1	18.3	-80.5	0.0
2025-01-20 19:38:52.582222	235.5	18.5	-80.4	0.0
2025-01-20 19:38:54.826900	236.0	18.6	-80.3	0.0
2025-01-20 19:38:57.074704	236.4	18.8	-80.4	0.0
2025-01-20 19:38:59.323809	236.9	18.9	-80.5	0.0
2025-01-20 19:39:01.572252	237.4	19.1	-80.8	0.0
2025-01-20 19:39:03.815998	237.8	19.2	-80.2	0.0
2025-01-20 19:39:06.062018	238.3	19.4	-80.1	0.0
2025-01-20 19:39:08.307316	238.8	19.5	-80.8	0.0
2025-01-20 19:39:10.556248	239.3	19.6	-80.8	0.0
2025-01-20 19:39:12.802117	239.7	19.8	-80.6	0.0
2025-01-20 19:39:15.047778	240.2	19.9	-80.5	0.0
2025-01-20 19:39:17.292717	240.7	20.1	-80.8	0.0
2025-01-20 19:39:19.540129	241.2	20.2	-79.7	0.0
2025-01-20 19:39:21.788754	241.7	20.3	-80.3	0.0
2025-01-20 19:39:24.032766	242.2	20.5	-79.8	0.0
2025-01-20 19:39:26.279176	242.7	20.6	-80.4	0.0
2025-01-20 19:39:28.526442	243.3	20.7	-80.4	0.0
2025-01-20 19:39:30.770954	243.8	20.8	-80.9	0.0
2025-01-20 19:39:33.013724	244.3	21.0	-80.6	0.0
2025-01-20 19:39:35.261440	244.8	21.1	-80.4	0.0
2025-01-20 19:39:37.509292	245.4	21.2	-80.6	0.0
2025-01-20 19:39:39.755700	245.9	21.3	-80.8	0.0
2025-01-20 19:39:41.998940	246.4	21.5	-81.0	0.0
2025-01-20 19:39:44.245692	247.0	21.6	-81.1	0.0
2025-01-20 19:39:46.494197	247.5	21.7	-81.2	0.0
2025-01-20 19:39:48.737902	248.1	21.8	-81.0	0.0
2025-01-20 19:39:50.985323	248.6	21.9	-81.1	0.0
2025-01-20 19:39:53.238479	249.2	22.0	-81.4	0.0
2025-01-20 19:39:55.485027	249.7	22.1	-81.4	0.0
2025-01-20 19:39:57.728133	250.3	22.2	-81.3	0.0
2025-01-20 19:39:59.974054	250.9	22.3	-81.5	0.0
2025-01-20 19:40:02.219945	251.4	22.4	-81.1	0.0
2025-01-20 19:40:04.467199	252.0	22.5	-81.2	0.0
2025-01-20 19:40:06.717415	252.6	22.6	-81.1	0.0
2025-01-20 19:40:08.964723	253.2	22.7	-81.3	0.0
2025-01-20 19:40:11.214083	253.8	22.8	-81.1	0.0
2025-01-20 19:40:13.460914	254.4	22.9	-81.0	0.0
2025-01-20 19:40:15.708761	255.0	23.0	-81.0	0.0
2025-01-20 19:40:17.955295	255.6	23.0	-80.8	0.0
2025-01-20 19:40:20.201988	256.1	23.1	-81.0	0.0
2025-01-20 19:40:22.447966	256.8	23.2	-81.2	0.0
2025-01-20 19:40:24.694498	257.4	23.3	-81.1	0.0
2025-01-20 19:40:26.941261	258.0	23.3	-81.1	0.0
2025-01-20 19:40:29.186864	258.6	23.4	-80.5	0.0
2025-01-20 19:40:31.429674	259.2	23.5	-80.7	0.0
2025-01-20 19:40:33.675258	259.8	23.5	-81.0	0.0
2025-01-20 19:40:35.922752	260.4	23.6	-80.5	0.0
2025-01-20 19:40:38.166538	261.0	23.6	-80.2	0.0
2025-01-20 19:40:40.410948	261.6	23.7	-80.9	0.0
2025-01-20 19:40:42.657835	262.3	23.7	-80.7	0.0
2025-01-20 19:40:44.906750	262.9	23.7	-80.7	0.0
2025-01-20 19:40:47.153245	263.5	23.8	-80.6	0.0
2025-01-20 19:40:49.401061	264.1	23.8	-81.2	0.0
2025-01-20 19:40:51.646547	264.8	23.8	-81.0	0.0
2025-01-20 19:40:53.893836	265.4	23.9	-81.1	0.0
2025-01-20 19:40:56.138872	266.0	23.9	-81.1	0.0
2025-01-20 19:40:58.384706	266.6	23.9	-81.0	0.0
2025-01-20 19:41:00.631050	267.3	23.9	-81.0	0.0
2025-01-20 19:41:02.878310	267.9	23.9	-80.7	0.0
2025-01-20 19:41:05.123074	268.5	24.0	-80.9	0.0
2025-01-20 19:41:07.369719	269.2	24.0	-80.5	0.0
2025-01-20 19:41:09.617838	269.8	24.0	-80.7	0.0
2025-01-20 19:41:11.864198	270.4	24.0	-81.0	0.0
2025-01-20 19:41:14.108977	271.1	24.0	-80.9	0.0
2025-01-20 19:41:16.353546	271.7	24.0	-80.9	0.0
2025-01-20 19:41:18.598576	272.3	23.9	-80.5	0.0
2025-01-20 19:41:20.844471	273.0	23.9	-80.6	0.0
2025-01-20 19:41:23.092985	273.6	23.9	-80.9	0.0
2025-01-20 19:41:25.341233	274.2	23.9	-80.7	0.0
2025-01-20 19:41:27.589802	274.8	23.9	-80.2	0.0
2025-01-20 19:41:29.835230	275.5	23.8	-80.3	0.0
2025-01-20 19:41:32.079867	276.1	23.8	-80.2	0.0
2025-01-20 19:41:34.325973	276.7	23.8	-80.3	0.0
2025-01-20 19:41:36.574948	277.3	23.7	-80.2	0.0
2025-01-20 19:41:38.823037	278.0	23.7	-80.2	0.0
2025-01-20 19:41:41.068199	278.6	23.6	-80.2	0.0
2025-01-20 19:41:43.317112	279.2	23.6	-80.5	0.0
2025-01-20 19:41:45.564802	279.8	23.5	-80.1	0.0
2025-01-20 19:41:47.813938	280.4	23.5	-80.3	0.0
2025-01-20 19:41:50.058315	281.0	23.4	-80.1	0.0
2025-01-20 19:41:52.303876	281.6	23.3	-80.2	0.0
2025-01-20 19:41:54.553847	282.2	23.3	-80.4	0.0
2025-01-20 19:41:56.798293	282.8	23.2	-80.5	0.0
2025-01-20 19:41:59.047068	283.4	23.1	-80.6	0.0
2025-01-20 19:42:01.291959	284.0	23.1	-80.6	0.0
2025-01-20 19:42:03.538668	284.6	23.0	-80.6	0.0
2025-01-20 19:42:05.784474	285.2	22.9	-79.8	0.0
2025-01-20 19:42:08.030137	285.8	22.8	-80.9	0.0
2025-01-20 19:42:10.278690	286.4	22.7	-79.6	0.0
2025-01-20 19:42:12.522243	287.0	22.6	-79.8	0.0
2025-01-20 19:42:14.768756	287.6	22.5	-79.3	0.0
2025-01-20 19:42:17.016034	288.1	22.5	-79.5	0.0
2025-01-20 19:42:19.264053	288.7	22.4	-79.6	0.0
2025-01-20 19:42:21.510460	289.3	22.3	-79.1	0.0
2025-01-20 19:42:23.754406	289.8	22.2	-78.1	0.0
2025-01-20 19:42:26.001936	290.4	22.0	-78.2	0.0
2025-01-20 19:42:28.249344	291.0	21.9	-79.5	0.0
2025-01-20 19:42:30.496049	291.5	21.8	-79.3	0.0
2025-01-20 19:42:32.739886	292.1	21.7	-80.0	0.0
2025-01-20 19:42:34.987459	292.6	21.6	-78.7	0.0
2025-01-20 19:42:37.233473	293.1	21.5	-78.4	0.0
2025-01-20 19:42:39.478481	293.7	21.4	-78.1	0.0
2025-01-20 19:42:41.725805	294.2	21.3	-79.7	0.0
2025-01-20 19:42:43.972358	294.7	21.1	-79.5	0.0
2025-01-20 19:42:46.219107	295.3	21.0	-78.9	0.0
2025-01-20 19:42:48.464411	295.8	20.9	-78.5	0.0
2025-01-20 19:42:50.710212	296.3	20.8	-78.4	0.0
2025-01-20 19:42:52.957395	296.8	20.6	-79.0	0.0
2025-01-20 19:42:55.209226	297.3	20.5	-77.6	0.0
2025-01-20 19:42:57.456229	297.8	20.4	-78.2	0.0
2025-01-20 19:42:59.701690	298.3	20.2	-77.1	0.0
2025-01-20 19:43:01.951041	298.8	20.1	-78.3	0.0
2025-01-20 19:43:04.197805	299.3	20.0	-77.2	0.0
2025-01-20 19:43:06.443410	299.8	19.8	-78.2	0.0
2025-01-20 19:43:08.693831	300.3	19.7	-77.3	0.0
2025-01-20 19:43:10.940326	300.8	19.6	-77.8	0.0
2025-01-20 19:43:13.184325	301.2	19.4	-76.6	0.0
2025-01-20 19:43:15.429910	301.7	19.3	-78.3	0.0
2025-01-20 19:43:17.681263	302.2	19.1	-77.4	0.0
2025-01-20 19:43:19.926243	302.6	19.0	-76.5	0.0
2025-01-20 19:43:22.173294	303.1	18.8	-77.9	0.0
2025-01-20 19:43:24.423564	303.5	18.7	-78.3	0.0
2025-01-20 19:43:26.669635	304.0	18.6	-77.9	0.0
2025-01-20 19:43:28.917214	304.4	18.4	-78.3	0.0
2025-01-20 19:43:31.165822	304.9	18.3	-78.7	0.0
2025-01-20 19:43:33.411800	305.3	18.1	-79.1	0.0
2025-01-20 19:43:35.652435	305.7	18.0	-79.3	0.0
2025-01-20 19:43:37.898272	306.2	17.8	-80.1	0.0
2025-01-20 19:43:40.145398	306.6	17.7	-79.2	0.0
2025-01-20 19:43:42.392921	307.0	17.5	-78.3	0.0
2025-01-20 19:43:44.640194	307.4	17.4	-79.1	0.0
2025-01-20 19:43:46.884899	307.8	17.2	-78.8	0.0
2025-01-20 19:43:49.135375	308.3	17.1	-78.6	0.0
2025-01-20 19:43:51.382639	308.7	16.9	-79.7	0.0
2025-01-20 19:43:53.626290	309.1	16.7	-77.6	0.0
2025-01-20 19:43:55.872124	309.5	16.6	-77.3	0.0
2025-01-20 19:43:58.117234	309.8	16.4	-77.3	0.0
2025-01-20 19:44:00.363534	310.2	16.3	-78.2	0.0
2025-01-20 19:44:02.609506	310.6	16.1	-77.6	0.0
2025-01-20 19:44:04.859857	311.0	16.0	-78.1	0.0
2025-01-20 19:44:07.104107	311.4	15.8	-77.1	0.0
2025-01-20 19:44:09.350193	311.7	15.7	-78.4	0.0
2025-01-20 19:44:11.595204	312.1	15.5	-77.6	0.0
2025-01-20 19:44:13.837379	312.5	15.4	-77.8	0.0
2025-01-20 19:44:16.083602	312.8	15.2	-76.8	0.0
2025-01-20 19:44:18.333417	313.2	15.0	-76.8	0.0
2025-01-20 19:44:20.579318	313.6	14.9	-76.1	0.0
2025-01-20 19:44:22.830490	313.9	14.7	-76.5	0.0
2025-01-20 19:44:25.073073	314.3	14.6	-76.4	0.0
2025-01-20 19:44:27.319163	314.6	14.4	-77.4	0.0
2025-01-20 19:44:29.563908	314.9	14.3	-76.7	0.0
2025-01-20 19:44:31.813441	315.3	14.1	-77.1	0.0
2025-01-20 19:44:34.059872	315.6	14.0	-76.3	0.0
2025-01-20 19:44:36.305442	315.9	13.8	-75.6	0.0
2025-01-20 19:44:38.553398	316.3	13.6	-77.6	0.0
2025-01-20 19:44:40.797951	316.6	13.5	-78.1	0.0
2025-01-20 19:44:43.040444	316.9	13.3	-77.1	0.0
2025-01-20 19:44:45.284856	317.2	13.2	-78.0	0.0
2025-01-20 19:44:47.530358	317.5	13.0	-77.6	0.0
2025-01-20 19:44:49.776431	317.8	12.9	-77.8	0.0
2025-01-20 19:44:52.024680	318.2	12.7	-75.5	0.0
2025-01-20 19:44:54.271002	318.5	12.6	-77.5	0.0
2025-01-20 19:44:56.518172	318.8	12.4	-77.8	0.0
2025-01-20 19:44:58.762112	319.1	12.3	-73.1	0.0
2025-01-20 19:45:01.009393	319.4	12.1	-77.9	0.0
2025-01-20 19:45:03.257918	319.6	12.0	-78.4	0.0
2025-01-20 19:45:05.501738	319.9	11.8	-79.0	0.0
2025-01-20 19:45:07.747226	320.2	11.7	-79.3	0.0
2025-01-20 19:45:09.993075	320.5	11.5	-78.8	0.0
2025-01-20 19:45:12.239403	320.8	11.4	-77.7	0.0
2025-01-20 19:45:14.488372	321.1	11.2	-78.3	0.0
2025-01-20 19:45:16.735338	321.3	11.1	-78.2	0.0
2025-01-20 19:45:18.981372	321.6	10.9	-79.2	0.0
2025-01-20 19:45:21.225402	321.9	10.8	-80.4	0.0
2025-01-20 19:45:23.469301	322.2	10.6	-81.6	0.0
2025-01-20 19:45:25.715784	322.4	10.5	-82.3	0.0
2025-01-20 19:45:27.962496	322.7	10.3	-82.5	0.0
2025-01-20 19:45:30.210267	322.9	10.2	-82.0	0.0
#Closed at: 2025-01-20 19:36:44.091764