passes_logs/2025/01/20/planumMaritime01/planumMaritime01__20250120_131954_METEOR-M2_2_rec.log

#Pass ID: 20250120_131954_METEOR-M2 2
#Satellite: METEOR-M2 2
#Configuration: METEOR-M2 2
#Start time: 2025-01-20 13:19:59.811051

#LorettStation: 1.0.0 05.05.2024
#Station: planumMaritime01
#Location: 37.49445 lon 55.92918 lat
#TLE: 1 44387U 19038A   25019.21327867  .00000321  00000+0  15932-3 0  9998
#TLE: 2 44387  98.8573 355.6430 0002257  72.4885 287.6540 14.24119873288138

#Time	Az	El	Level	SNR
2025-01-20 13:20:01.971850	198.6	10.2	-78.0	0.0
2025-01-20 13:20:04.218716	198.8	10.3	-78.7	0.0
2025-01-20 13:20:06.463368	199.0	10.5	-78.6	0.0
2025-01-20 13:20:08.709225	199.2	10.7	-78.7	0.0
2025-01-20 13:20:10.952734	199.4	10.9	-78.2	0.0
2025-01-20 13:20:13.198474	199.6	11.1	-79.1	0.0
2025-01-20 13:20:15.447336	199.8	11.3	-78.5	0.0
2025-01-20 13:20:17.695763	200.0	11.4	-78.1	0.0
2025-01-20 13:20:19.944745	200.2	11.6	-78.7	0.0
2025-01-20 13:20:22.193219	200.4	11.8	-78.5	0.0
2025-01-20 13:20:24.437895	200.6	12.0	-78.4	0.0
2025-01-20 13:20:26.682065	200.8	12.2	-78.8	0.0
2025-01-20 13:20:28.928495	201.0	12.4	-77.3	0.0
2025-01-20 13:20:31.176848	201.2	12.6	-78.7	0.0
2025-01-20 13:20:33.422939	201.5	12.8	-78.9	0.0
2025-01-20 13:20:35.666270	201.7	12.9	-78.9	0.0
2025-01-20 13:20:37.911921	201.9	13.1	-79.1	0.0
2025-01-20 13:20:40.159504	202.2	13.3	-78.9	0.0
2025-01-20 13:20:42.404743	202.4	13.5	-79.3	0.0
2025-01-20 13:20:44.652196	202.6	13.7	-79.0	0.0
2025-01-20 13:20:46.898323	202.9	13.9	-78.9	0.0
2025-01-20 13:20:49.141650	203.1	14.1	-79.3	0.0
2025-01-20 13:20:51.390211	203.4	14.3	-79.3	0.0
2025-01-20 13:20:53.637473	203.6	14.5	-79.5	0.0
2025-01-20 13:20:55.884597	203.9	14.7	-79.2	0.0
2025-01-20 13:20:58.129969	204.1	14.9	-79.4	0.0
2025-01-20 13:21:00.374535	204.4	15.1	-79.5	0.0
2025-01-20 13:21:02.622035	204.7	15.4	-79.0	0.0
2025-01-20 13:21:04.867100	204.9	15.6	-79.1	0.0
2025-01-20 13:21:07.113143	205.2	15.8	-79.4	0.0
2025-01-20 13:21:09.360433	205.5	16.0	-79.8	0.0
2025-01-20 13:21:11.605452	205.7	16.2	-79.5	0.0
2025-01-20 13:21:13.851941	206.0	16.4	-79.4	0.0
2025-01-20 13:21:16.098564	206.3	16.6	-79.4	0.0
2025-01-20 13:21:18.345082	206.6	16.8	-79.5	0.0
2025-01-20 13:21:20.592063	206.9	17.1	-79.3	0.0
2025-01-20 13:21:22.838406	207.2	17.3	-79.3	0.0
2025-01-20 13:21:25.083070	207.5	17.5	-79.8	0.0
2025-01-20 13:21:27.329963	207.8	17.7	-79.4	0.0
2025-01-20 13:21:29.575603	208.1	17.9	-78.6	0.0
2025-01-20 13:21:31.822877	208.5	18.2	-79.0	0.0
2025-01-20 13:21:34.065498	208.8	18.4	-79.3	0.0
2025-01-20 13:21:36.309304	209.1	18.6	-79.6	0.0
2025-01-20 13:21:38.552788	209.4	18.8	-79.4	0.0
2025-01-20 13:21:40.795991	209.8	19.1	-78.9	0.0
2025-01-20 13:21:43.041068	210.1	19.3	-78.7	0.0
2025-01-20 13:21:45.290076	210.5	19.5	-78.8	0.0
2025-01-20 13:21:47.534785	210.8	19.8	-78.9	0.0
2025-01-20 13:21:49.781992	211.2	20.0	-79.5	0.0
2025-01-20 13:21:52.028021	211.5	20.2	-79.3	0.0
2025-01-20 13:21:54.275750	211.9	20.5	-79.6	0.0
2025-01-20 13:21:56.520820	212.3	20.7	-79.8	0.0
2025-01-20 13:21:58.766216	212.6	20.9	-79.6	0.0
2025-01-20 13:22:01.010605	213.0	21.2	-79.9	0.0
2025-01-20 13:22:03.258100	213.4	21.4	-79.6	0.0
2025-01-20 13:22:05.503284	213.8	21.7	-79.4	0.0
2025-01-20 13:22:07.745209	214.2	21.9	-79.7	0.0
2025-01-20 13:22:09.990734	214.6	22.1	-79.3	0.0
2025-01-20 13:22:12.236169	215.0	22.4	-79.8	0.0
2025-01-20 13:22:14.482361	215.5	22.6	-79.3	0.0
2025-01-20 13:22:16.730441	215.9	22.9	-79.1	0.0
2025-01-20 13:22:18.976907	216.3	23.1	-79.6	0.0
2025-01-20 13:22:21.220522	216.8	23.4	-78.7	0.0
2025-01-20 13:22:23.468114	217.2	23.6	-79.3	0.0
2025-01-20 13:22:25.714842	217.7	23.9	-79.1	0.0
2025-01-20 13:22:27.959019	218.1	24.1	-79.8	0.0
2025-01-20 13:22:30.202608	218.6	24.3	-80.0	0.0
2025-01-20 13:22:32.451127	219.1	24.6	-79.2	0.0
2025-01-20 13:22:34.697497	219.6	24.8	-80.0	0.0
2025-01-20 13:22:36.946102	220.1	25.1	-80.0	0.0
2025-01-20 13:22:39.193836	220.6	25.3	-78.7	0.0
2025-01-20 13:22:41.440434	221.1	25.6	-80.0	0.0
2025-01-20 13:22:43.687161	221.6	25.8	-80.2	0.0
2025-01-20 13:22:45.930214	222.1	26.1	-79.5	0.0
2025-01-20 13:22:48.176269	222.6	26.3	-80.1	0.0
2025-01-20 13:22:50.420447	223.2	26.6	-79.9	0.0
2025-01-20 13:22:52.666812	223.7	26.8	-80.4	0.0
2025-01-20 13:22:54.913516	224.3	27.1	-80.0	0.0
2025-01-20 13:22:57.159098	224.9	27.3	-80.2	0.0
2025-01-20 13:22:59.402506	225.4	27.6	-80.5	0.0
2025-01-20 13:23:01.649578	226.0	27.8	-80.7	0.0
2025-01-20 13:23:03.893382	226.6	28.1	-81.0	0.0
2025-01-20 13:23:06.140204	227.2	28.3	-80.9	0.0
2025-01-20 13:23:08.386674	227.8	28.5	-81.1	0.0
2025-01-20 13:23:10.631171	228.4	28.8	-81.0	0.0
2025-01-20 13:23:12.880694	229.1	29.0	-81.3	0.0
2025-01-20 13:23:15.128187	229.7	29.3	-81.0	0.0
2025-01-20 13:23:17.375656	230.3	29.5	-81.1	0.0
2025-01-20 13:23:19.620342	231.0	29.7	-80.4	0.0
2025-01-20 13:23:21.866783	231.7	30.0	-81.1	0.0
2025-01-20 13:23:24.115926	232.3	30.2	-81.0	0.0
2025-01-20 13:23:26.363205	233.0	30.4	-81.4	0.0
2025-01-20 13:23:28.607127	233.7	30.6	-81.3	0.0
2025-01-20 13:23:30.857465	234.4	30.9	-81.3	0.0
2025-01-20 13:23:33.104244	235.1	31.1	-81.4	0.0
2025-01-20 13:23:35.347894	235.8	31.3	-81.1	0.0
2025-01-20 13:23:37.592739	236.6	31.5	-81.3	0.0
2025-01-20 13:23:39.836827	237.3	31.7	-81.3	0.0
2025-01-20 13:23:42.083010	238.1	31.9	-81.3	0.0
2025-01-20 13:23:44.331016	238.8	32.1	-81.5	0.0
2025-01-20 13:23:46.579144	239.6	32.3	-81.7	0.0
2025-01-20 13:23:48.822997	240.4	32.5	-81.6	0.0
2025-01-20 13:23:51.071598	241.2	32.7	-81.6	0.0
2025-01-20 13:23:53.321873	242.0	32.9	-81.7	0.0
2025-01-20 13:23:55.570115	242.8	33.0	-81.7	0.0
2025-01-20 13:23:57.818962	243.6	33.2	-81.7	0.0
2025-01-20 13:24:00.063295	244.4	33.4	-81.8	0.0
2025-01-20 13:24:02.310138	245.2	33.5	-82.0	0.0
2025-01-20 13:24:04.560769	246.1	33.7	-81.9	0.0
2025-01-20 13:24:06.805855	246.9	33.8	-82.0	0.0
2025-01-20 13:24:09.050132	247.7	34.0	-81.8	0.0
2025-01-20 13:24:11.294038	248.6	34.1	-81.7	0.0
2025-01-20 13:24:13.537099	249.5	34.3	-81.7	0.0
2025-01-20 13:24:15.787568	250.3	34.4	-81.9	0.0
2025-01-20 13:24:18.032567	251.2	34.5	-81.8	0.0
2025-01-20 13:24:20.281299	252.1	34.6	-81.4	0.0
2025-01-20 13:24:22.528991	253.0	34.7	-81.9	0.0
2025-01-20 13:24:24.775636	253.9	34.8	-79.9	0.0
2025-01-20 13:24:27.022852	254.8	34.9	-81.9	0.0
2025-01-20 13:24:29.267679	255.7	35.0	-81.7	0.0
2025-01-20 13:24:31.516810	256.6	35.0	-81.9	0.0
2025-01-20 13:24:33.763537	257.5	35.1	-81.5	0.0
2025-01-20 13:24:36.011633	258.4	35.2	-81.7	0.0
2025-01-20 13:24:38.261579	259.4	35.2	-81.8	0.0
2025-01-20 13:24:40.508022	260.3	35.3	-81.2	0.0
2025-01-20 13:24:42.755212	261.2	35.3	-81.5	0.0
2025-01-20 13:24:45.002333	262.1	35.3	-81.7	0.0
2025-01-20 13:24:47.250097	263.1	35.3	-81.7	0.0
2025-01-20 13:24:49.496015	264.0	35.3	-81.4	0.0
2025-01-20 13:24:51.740251	264.9	35.3	-81.5	0.0
2025-01-20 13:24:53.987028	265.8	35.3	-81.6	0.0
2025-01-20 13:24:56.231894	266.8	35.3	-81.7	0.0
2025-01-20 13:24:58.477196	267.7	35.3	-81.6	0.0
2025-01-20 13:25:00.725137	268.6	35.2	-81.5	0.0
2025-01-20 13:25:02.972389	269.5	35.2	-81.4	0.0
2025-01-20 13:25:05.219221	270.4	35.2	-81.5	0.0
2025-01-20 13:25:07.467308	271.4	35.1	-81.6	0.0
2025-01-20 13:25:09.713426	272.3	35.0	-81.4	0.0
2025-01-20 13:25:11.959948	273.2	35.0	-81.4	0.0
2025-01-20 13:25:14.207470	274.1	34.9	-81.3	0.0
2025-01-20 13:25:16.456419	275.0	34.8	-81.2	0.0
2025-01-20 13:25:18.703578	275.9	34.7	-81.1	0.0
2025-01-20 13:25:20.949243	276.8	34.6	-81.2	0.0
2025-01-20 13:25:23.192843	277.6	34.5	-81.3	0.0
2025-01-20 13:25:25.438146	278.5	34.4	-80.9	0.0
2025-01-20 13:25:27.684521	279.4	34.2	-81.5	0.0
2025-01-20 13:25:29.929228	280.2	34.1	-80.7	0.0
2025-01-20 13:25:32.174611	281.1	34.0	-81.1	0.0
2025-01-20 13:25:34.423394	282.0	33.8	-81.2	0.0
2025-01-20 13:25:36.667998	282.8	33.7	-81.2	0.0
2025-01-20 13:25:38.912640	283.6	33.5	-81.2	0.0
2025-01-20 13:25:41.159969	284.5	33.4	-80.9	0.0
2025-01-20 13:25:43.402584	285.3	33.2	-81.1	0.0
2025-01-20 13:25:45.646125	286.1	33.0	-81.2	0.0
2025-01-20 13:25:47.894441	286.9	32.9	-81.1	0.0
2025-01-20 13:25:50.138991	287.7	32.7	-81.3	0.0
2025-01-20 13:25:52.383526	288.4	32.5	-81.4	0.0
2025-01-20 13:25:54.629966	289.2	32.3	-81.2	0.0
2025-01-20 13:25:56.877939	290.0	32.1	-80.5	0.0
2025-01-20 13:25:59.125069	290.7	31.9	-80.3	0.0
2025-01-20 13:26:01.370261	291.5	31.7	-81.1	0.0
2025-01-20 13:26:03.615717	292.2	31.5	-80.8	0.0
2025-01-20 13:26:05.863426	293.0	31.3	-81.0	0.0
2025-01-20 13:26:08.111121	293.7	31.1	-81.0	0.0
2025-01-20 13:26:10.361030	294.4	30.9	-80.6	0.0
2025-01-20 13:26:12.606643	295.1	30.6	-80.2	0.0
2025-01-20 13:26:14.852902	295.8	30.4	-80.7	0.0
2025-01-20 13:26:17.097519	296.4	30.2	-80.2	0.0
2025-01-20 13:26:19.345160	297.1	30.0	-79.9	0.0
2025-01-20 13:26:21.589740	297.8	29.7	-80.0	0.0
2025-01-20 13:26:23.837026	298.4	29.5	-79.8	0.0
2025-01-20 13:26:26.084888	299.1	29.3	-79.9	0.0
2025-01-20 13:26:28.329036	299.7	29.0	-79.7	0.0
2025-01-20 13:26:30.574770	300.3	28.8	-79.2	0.0
2025-01-20 13:26:32.820720	301.0	28.6	-78.8	0.0
2025-01-20 13:26:35.069122	301.6	28.3	-79.9	0.0
2025-01-20 13:26:37.315801	302.2	28.1	-79.6	0.0
2025-01-20 13:26:39.558384	302.7	27.8	-79.3	0.0
2025-01-20 13:26:41.805011	303.3	27.6	-80.0	0.0
2025-01-20 13:26:44.047346	303.9	27.3	-79.7	0.0
2025-01-20 13:26:46.292394	304.5	27.1	-79.4	0.0
2025-01-20 13:26:48.537081	305.0	26.9	-80.0	0.0
2025-01-20 13:26:50.787811	305.6	26.6	-78.8	0.0
2025-01-20 13:26:53.034490	306.1	26.4	-80.3	0.0
2025-01-20 13:26:55.285037	306.6	26.1	-78.6	0.0
2025-01-20 13:26:57.531570	307.1	25.9	-79.8	0.0
2025-01-20 13:26:59.779256	307.7	25.6	-80.1	0.0
2025-01-20 13:27:02.024991	308.2	25.4	-80.2	0.0
2025-01-20 13:27:04.270856	308.7	25.1	-80.4	0.0
2025-01-20 13:27:06.515444	309.2	24.9	-79.9	0.0
2025-01-20 13:27:08.761927	309.6	24.6	-81.0	0.0
2025-01-20 13:27:11.008162	310.1	24.4	-79.6	0.0
2025-01-20 13:27:13.255248	310.6	24.1	-80.4	0.0
2025-01-20 13:27:15.500344	311.0	23.9	-79.7	0.0
2025-01-20 13:27:17.748111	311.5	23.7	-79.7	0.0
2025-01-20 13:27:19.993721	311.9	23.4	-76.3	0.0
2025-01-20 13:27:22.237813	312.4	23.2	-79.4	0.0
2025-01-20 13:27:24.482840	312.8	22.9	-80.0	0.0
2025-01-20 13:27:26.726628	313.2	22.7	-78.8	0.0
2025-01-20 13:27:28.971517	313.7	22.4	-79.2	0.0
2025-01-20 13:27:31.216424	314.1	22.2	-79.5	0.0
2025-01-20 13:27:33.463319	314.5	22.0	-78.1	0.0
2025-01-20 13:27:35.711950	314.9	21.7	-74.4	0.0
2025-01-20 13:27:37.956996	315.3	21.5	-78.9	0.0
2025-01-20 13:27:40.198646	315.7	21.2	-78.5	0.0
2025-01-20 13:27:42.446236	316.1	21.0	-77.9	0.0
2025-01-20 13:27:44.691193	316.4	20.8	-79.2	0.0
2025-01-20 13:27:46.936141	316.8	20.5	-78.7	0.0
2025-01-20 13:27:49.181910	317.2	20.3	-78.3	0.0
2025-01-20 13:27:51.430158	317.5	20.1	-78.3	0.0
2025-01-20 13:27:53.678411	317.9	19.8	-77.8	0.0
2025-01-20 13:27:55.926907	318.2	19.6	-77.4	0.0
2025-01-20 13:27:58.173069	318.6	19.4	-75.7	0.0
2025-01-20 13:28:00.420885	318.9	19.2	-72.8	0.0
2025-01-20 13:28:02.665047	319.3	18.9	-76.8	0.0
2025-01-20 13:28:04.909494	319.6	18.7	-71.0	0.0
2025-01-20 13:28:07.157279	319.9	18.5	-75.1	0.0
2025-01-20 13:28:09.405130	320.2	18.3	-77.5	0.0
2025-01-20 13:28:11.650699	320.6	18.0	-77.4	0.0
2025-01-20 13:28:13.897773	320.9	17.8	-77.1	0.0
2025-01-20 13:28:16.140573	321.2	17.6	-78.8	0.0
2025-01-20 13:28:18.385607	321.5	17.4	-77.5	0.0
2025-01-20 13:28:20.634390	321.8	17.2	-76.2	0.0
2025-01-20 13:28:22.881161	322.1	16.9	-78.1	0.0
2025-01-20 13:28:25.127975	322.4	16.7	-77.2	0.0
2025-01-20 13:28:27.374170	322.7	16.5	-77.6	0.0
2025-01-20 13:28:29.620963	322.9	16.3	-78.3	0.0
2025-01-20 13:28:31.868210	323.2	16.1	-78.3	0.0
2025-01-20 13:28:34.115038	323.5	15.9	-77.4	0.0
2025-01-20 13:28:36.364384	323.8	15.7	-78.1	0.0
2025-01-20 13:28:38.611582	324.0	15.5	-75.9	0.0
2025-01-20 13:28:40.861915	324.3	15.3	-77.4	0.0
2025-01-20 13:28:43.109794	324.6	15.1	-77.9	0.0
2025-01-20 13:28:45.356860	324.8	14.9	-70.6	0.0
2025-01-20 13:28:47.607278	325.1	14.7	-76.3	0.0
2025-01-20 13:28:49.855925	325.3	14.5	-78.9	0.0
2025-01-20 13:28:52.107348	325.6	14.3	-78.9	0.0
2025-01-20 13:28:54.357680	325.8	14.1	-77.5	0.0
2025-01-20 13:28:56.601062	326.1	13.9	-78.4	0.0
2025-01-20 13:28:58.844984	326.3	13.7	-77.4	0.0
2025-01-20 13:29:01.092779	326.5	13.5	-76.3	0.0
2025-01-20 13:29:03.339114	326.8	13.3	-75.5	0.0
2025-01-20 13:29:05.587793	327.0	13.1	-75.8	0.0
2025-01-20 13:29:07.833030	327.2	12.9	-77.3	0.0
2025-01-20 13:29:10.076708	327.5	12.7	-75.6	0.0
2025-01-20 13:29:12.324601	327.7	12.5	-75.8	0.0
2025-01-20 13:29:14.570592	327.9	12.3	-76.0	0.0
2025-01-20 13:29:16.815612	328.1	12.1	-75.7	0.0
2025-01-20 13:29:19.061209	328.3	11.9	-76.3	0.0
2025-01-20 13:29:21.305283	328.5	11.8	-74.5	0.0
2025-01-20 13:29:23.550722	328.7	11.6	-74.5	0.0
2025-01-20 13:29:25.796188	329.0	11.4	-72.4	0.0
2025-01-20 13:29:28.040378	329.2	11.2	-73.2	0.0
2025-01-20 13:29:30.287382	329.4	11.0	-75.2	0.0
2025-01-20 13:29:32.535122	329.6	10.9	-78.9	0.0
2025-01-20 13:29:34.781788	329.8	10.7	-80.7	0.0
2025-01-20 13:29:37.028013	329.9	10.5	-81.8	0.0
2025-01-20 13:29:39.272402	330.1	10.3	-82.6	0.0
2025-01-20 13:29:41.517777	330.3	10.1	-81.9	0.0
#Closed at: 2025-01-20 13:19:54.817330