passes_logs/2025/01/20/planumMaritime01/planumMaritime01__20250120_063125_METOP-B_rec.log

#Pass ID: 20250120_063125_METOP-B
#Satellite: METOP-B
#Configuration: METOP-B
#Start time: 2025-01-20 06:31:30.151957

#LorettStation: 1.0.0 05.05.2024
#Station: planumMaritime01
#Location: 37.49445 lon 55.92918 lat
#TLE: 1 38771U 12049A   25019.12466785  .00000265  00000+0  14071-3 0  9996
#TLE: 2 38771  98.6004  77.1764 0001699  76.9123 283.2244 14.21412936640222

#Time	Az	El	Level	SNR
2025-01-20 06:31:32.298871	28.6	10.2	-94.7	0.0
2025-01-20 06:31:34.542928	28.7	10.3	-94.9	0.0
2025-01-20 06:31:36.785498	28.9	10.5	-94.6	0.0
2025-01-20 06:31:39.029780	29.1	10.7	-94.6	0.0
2025-01-20 06:31:41.272449	29.3	10.9	-94.6	0.0
2025-01-20 06:31:43.516955	29.5	11.1	-94.6	0.0
2025-01-20 06:31:45.756535	29.7	11.2	-94.6	0.0
2025-01-20 06:31:48.000369	29.9	11.4	-94.4	0.0
2025-01-20 06:31:50.243976	30.1	11.6	-95.2	0.0
2025-01-20 06:31:52.488752	30.3	11.8	-95.1	0.0
2025-01-20 06:31:54.733107	30.5	12.0	-94.9	0.0
2025-01-20 06:31:56.974679	30.7	12.2	-94.9	0.0
2025-01-20 06:31:59.217426	30.9	12.4	-94.9	0.0
2025-01-20 06:32:01.459540	31.1	12.5	-94.6	0.0
2025-01-20 06:32:03.702062	31.3	12.7	-94.7	0.0
2025-01-20 06:32:05.945326	31.5	12.9	-94.6	0.0
2025-01-20 06:32:08.187955	31.7	13.1	-94.7	0.0
2025-01-20 06:32:10.428061	31.9	13.3	-94.4	0.0
2025-01-20 06:32:12.669849	32.2	13.5	-94.7	0.0
2025-01-20 06:32:14.911546	32.4	13.7	-94.5	0.0
2025-01-20 06:32:17.157352	32.6	13.9	-94.7	0.0
2025-01-20 06:32:19.400018	32.9	14.1	-94.7	0.0
2025-01-20 06:32:21.645065	33.1	14.3	-94.9	0.0
2025-01-20 06:32:23.886937	33.3	14.5	-94.7	0.0
2025-01-20 06:32:26.130820	33.6	14.7	-94.6	0.0
2025-01-20 06:32:28.373222	33.8	14.9	-94.8	0.0
2025-01-20 06:32:30.614795	34.1	15.1	-94.6	0.0
2025-01-20 06:32:32.860888	34.3	15.3	-94.6	0.0
2025-01-20 06:32:35.104127	34.6	15.5	-94.6	0.0
2025-01-20 06:32:37.344026	34.8	15.7	-94.6	0.0
2025-01-20 06:32:39.586103	35.1	15.9	-94.7	0.0
2025-01-20 06:32:41.827945	35.3	16.2	-94.8	0.0
2025-01-20 06:32:44.069869	35.6	16.4	-95.0	0.0
2025-01-20 06:32:46.314439	35.9	16.6	-94.8	0.0
2025-01-20 06:32:48.559385	36.1	16.8	-95.1	0.0
2025-01-20 06:32:50.800067	36.4	17.0	-95.0	0.0
2025-01-20 06:32:53.041164	36.7	17.2	-94.8	0.0
2025-01-20 06:32:55.285825	37.0	17.4	-95.1	0.0
2025-01-20 06:32:57.532073	37.3	17.7	-94.7	0.0
2025-01-20 06:32:59.771977	37.6	17.9	-94.8	0.0
2025-01-20 06:33:02.018018	37.9	18.1	-94.8	0.0
2025-01-20 06:33:04.257943	38.2	18.3	-94.5	0.0
2025-01-20 06:33:06.500650	38.5	18.6	-94.6	0.0
2025-01-20 06:33:08.741875	38.8	18.8	-94.5	0.0
2025-01-20 06:33:10.986192	39.1	19.0	-94.7	0.0
2025-01-20 06:33:13.228725	39.4	19.3	-94.9	0.0
2025-01-20 06:33:15.468915	39.8	19.5	-94.6	0.0
2025-01-20 06:33:17.712827	40.1	19.7	-94.6	0.0
2025-01-20 06:33:19.957315	40.4	19.9	-94.8	0.0
2025-01-20 06:33:22.200888	40.8	20.2	-95.0	0.0
2025-01-20 06:33:24.443042	41.1	20.4	-94.6	0.0
2025-01-20 06:33:26.683523	41.5	20.7	-94.9	0.0
2025-01-20 06:33:28.924664	41.8	20.9	-94.6	0.0
2025-01-20 06:33:31.166531	42.2	21.1	-94.8	0.0
2025-01-20 06:33:33.410160	42.6	21.4	-94.8	0.0
2025-01-20 06:33:35.651895	42.9	21.6	-94.8	0.0
2025-01-20 06:33:37.897418	43.3	21.9	-94.6	0.0
2025-01-20 06:33:40.139095	43.7	22.1	-94.9	0.0
2025-01-20 06:33:42.382981	44.1	22.4	-94.6	0.0
2025-01-20 06:33:44.624989	44.5	22.6	-94.5	0.0
2025-01-20 06:33:46.866554	44.9	22.8	-94.6	0.0
2025-01-20 06:33:49.110226	45.3	23.1	-94.8	0.0
2025-01-20 06:33:51.350914	45.7	23.3	-94.7	0.0
2025-01-20 06:33:53.594576	46.1	23.6	-94.7	0.0
2025-01-20 06:33:55.835245	46.6	23.8	-94.8	0.0
2025-01-20 06:33:58.080241	47.0	24.1	-94.9	0.0
2025-01-20 06:34:00.324103	47.4	24.3	-94.6	0.0
2025-01-20 06:34:02.570928	47.9	24.6	-94.8	0.0
2025-01-20 06:34:04.813628	48.3	24.9	-95.0	0.0
2025-01-20 06:34:07.054966	48.8	25.1	-94.9	0.0
2025-01-20 06:34:09.297349	49.3	25.4	-94.7	0.0
2025-01-20 06:34:11.537428	49.8	25.6	-94.8	0.0
2025-01-20 06:34:13.777812	50.2	25.9	-94.8	0.0
2025-01-20 06:34:16.021018	50.7	26.1	-94.9	0.0
2025-01-20 06:34:18.261860	51.2	26.4	-94.8	0.0
2025-01-20 06:34:20.501207	51.8	26.6	-94.7	0.0
2025-01-20 06:34:22.743738	52.3	26.9	-94.7	0.0
2025-01-20 06:34:24.986868	52.8	27.2	-94.6	0.0
2025-01-20 06:34:27.229983	53.3	27.4	-95.3	0.0
2025-01-20 06:34:29.473124	53.9	27.7	-94.8	0.0
2025-01-20 06:34:31.716410	54.4	27.9	-94.8	0.0
2025-01-20 06:34:33.957941	55.0	28.2	-95.2	0.0
2025-01-20 06:34:36.201149	55.6	28.4	-94.6	0.0
2025-01-20 06:34:38.440923	56.1	28.7	-94.7	0.0
2025-01-20 06:34:40.682133	56.7	28.9	-94.8	0.0
2025-01-20 06:34:42.923968	57.3	29.2	-95.1	0.0
2025-01-20 06:34:45.165052	57.9	29.5	-94.9	0.0
2025-01-20 06:34:47.408453	58.6	29.7	-95.1	0.0
2025-01-20 06:34:49.653730	59.2	30.0	-94.7	0.0
2025-01-20 06:34:51.896135	59.8	30.2	-94.5	0.0
2025-01-20 06:34:54.136581	60.5	30.4	-94.9	0.0
2025-01-20 06:34:56.378238	61.1	30.7	-94.5	0.0
2025-01-20 06:34:58.621169	61.8	30.9	-94.8	0.0
2025-01-20 06:35:00.867199	62.5	31.2	-94.9	0.0
2025-01-20 06:35:03.105850	63.1	31.4	-94.9	0.0
2025-01-20 06:35:05.348076	63.8	31.6	-95.1	0.0
2025-01-20 06:35:07.590536	64.5	31.9	-95.2	0.0
2025-01-20 06:35:09.832105	65.3	32.1	-95.1	0.0
2025-01-20 06:35:12.074459	66.0	32.3	-95.1	0.0
2025-01-20 06:35:14.320955	66.7	32.6	-95.0	0.0
2025-01-20 06:35:16.562991	67.5	32.8	-94.9	0.0
2025-01-20 06:35:18.805320	68.2	33.0	-94.8	0.0
2025-01-20 06:35:21.046951	69.0	33.2	-94.8	0.0
2025-01-20 06:35:23.286598	69.7	33.4	-95.0	0.0
2025-01-20 06:35:25.526205	70.5	33.6	-95.0	0.0
2025-01-20 06:35:27.765001	71.3	33.8	-94.7	0.0
2025-01-20 06:35:30.007720	72.1	34.0	-95.0	0.0
2025-01-20 06:35:32.249914	72.9	34.2	-94.7	0.0
2025-01-20 06:35:34.490398	73.8	34.4	-94.9	0.0
2025-01-20 06:35:36.734160	74.6	34.5	-94.8	0.0
2025-01-20 06:35:38.973329	75.4	34.7	-94.9	0.0
2025-01-20 06:35:41.216712	76.3	34.9	-94.7	0.0
2025-01-20 06:35:43.458347	77.1	35.0	-94.8	0.0
2025-01-20 06:35:45.697938	78.0	35.2	-94.7	0.0
2025-01-20 06:35:47.942238	78.9	35.3	-94.6	0.0
2025-01-20 06:35:50.185286	79.7	35.5	-95.0	0.0
2025-01-20 06:35:52.425896	80.6	35.6	-94.6	0.0
2025-01-20 06:35:54.668173	81.5	35.7	-94.6	0.0
2025-01-20 06:35:56.909565	82.4	35.9	-94.8	0.0
2025-01-20 06:35:59.151564	83.3	36.0	-94.6	0.0
2025-01-20 06:36:01.394562	84.3	36.1	-95.0	0.0
2025-01-20 06:36:03.638518	85.2	36.2	-94.9	0.0
2025-01-20 06:36:05.880556	86.1	36.3	-94.8	0.0
2025-01-20 06:36:08.124277	87.0	36.4	-95.0	0.0
2025-01-20 06:36:10.366119	88.0	36.4	-94.8	0.0
2025-01-20 06:36:12.609452	88.9	36.5	-94.8	0.0
2025-01-20 06:36:14.853865	89.8	36.5	-94.8	0.0
2025-01-20 06:36:17.095307	90.8	36.6	-94.9	0.0
2025-01-20 06:36:19.338134	91.7	36.6	-94.9	0.0
2025-01-20 06:36:21.583099	92.7	36.7	-94.7	0.0
2025-01-20 06:36:23.826059	93.6	36.7	-94.7	0.0
2025-01-20 06:36:26.068119	94.6	36.7	-94.7	0.0
2025-01-20 06:36:28.312761	95.5	36.7	-94.9	0.0
2025-01-20 06:36:30.558279	96.5	36.7	-94.6	0.0
2025-01-20 06:36:32.801874	97.4	36.7	-94.8	0.0
2025-01-20 06:36:35.046067	98.4	36.7	-94.7	0.0
2025-01-20 06:36:37.290740	99.4	36.6	-94.7	0.0
2025-01-20 06:36:39.532210	100.3	36.6	-94.8	0.0
2025-01-20 06:36:41.774724	101.2	36.5	-94.7	0.0
2025-01-20 06:36:44.018606	102.2	36.5	-95.1	0.0
2025-01-20 06:36:46.259196	103.1	36.4	-94.7	0.0
2025-01-20 06:36:48.502319	104.1	36.4	-94.7	0.0
2025-01-20 06:36:50.745527	105.0	36.3	-95.0	0.0
2025-01-20 06:36:52.985370	105.9	36.2	-95.0	0.0
2025-01-20 06:36:55.225348	106.8	36.1	-95.2	0.0
2025-01-20 06:36:57.468017	107.8	36.0	-95.1	0.0
2025-01-20 06:36:59.711693	108.7	35.9	-94.9	0.0
2025-01-20 06:37:01.956892	109.6	35.8	-94.3	0.0
2025-01-20 06:37:04.202870	110.5	35.6	-94.7	0.0
2025-01-20 06:37:06.442227	111.4	35.5	-94.7	0.0
2025-01-20 06:37:08.685444	112.2	35.3	-94.4	0.0
2025-01-20 06:37:10.926909	113.1	35.2	-94.7	0.0
2025-01-20 06:37:13.166703	114.0	35.0	-94.5	0.0
2025-01-20 06:37:15.412058	114.8	34.9	-94.8	0.0
2025-01-20 06:37:17.655927	115.7	34.7	-94.8	0.0
2025-01-20 06:37:19.896871	116.5	34.5	-94.8	0.0
2025-01-20 06:37:22.137989	117.4	34.4	-94.9	0.0
2025-01-20 06:37:24.380679	118.2	34.2	-95.0	0.0
2025-01-20 06:37:26.624040	119.0	34.0	-94.9	0.0
2025-01-20 06:37:28.865242	119.8	33.8	-95.0	0.0
2025-01-20 06:37:31.107220	120.6	33.6	-95.0	0.0
2025-01-20 06:37:33.349207	121.4	33.4	-94.9	0.0
2025-01-20 06:37:35.592871	122.2	33.2	-94.8	0.0
2025-01-20 06:37:37.833423	122.9	33.0	-94.9	0.0
2025-01-20 06:37:40.075977	123.7	32.8	-95.1	0.0
2025-01-20 06:37:42.321058	124.4	32.5	-94.7	0.0
2025-01-20 06:37:44.559891	125.2	32.3	-95.0	0.0
2025-01-20 06:37:46.804527	125.9	32.1	-94.8	0.0
2025-01-20 06:37:49.045060	126.6	31.9	-94.7	0.0
2025-01-20 06:37:51.288869	127.3	31.6	-94.9	0.0
2025-01-20 06:37:53.533151	128.0	31.4	-94.9	0.0
2025-01-20 06:37:55.777099	128.7	31.1	-95.0	0.0
2025-01-20 06:37:58.021340	129.4	30.9	-94.7	0.0
2025-01-20 06:38:00.265081	130.0	30.7	-95.1	0.0
2025-01-20 06:38:02.508252	130.7	30.4	-94.8	0.0
2025-01-20 06:38:04.751869	131.4	30.2	-94.9	0.0
2025-01-20 06:38:06.994041	132.0	29.9	-94.7	0.0
2025-01-20 06:38:09.236925	132.6	29.7	-95.1	0.0
2025-01-20 06:38:11.478851	133.2	29.4	-94.8	0.0
2025-01-20 06:38:13.721288	133.8	29.2	-95.0	0.0
2025-01-20 06:38:15.964525	134.4	28.9	-95.1	0.0
2025-01-20 06:38:18.208678	135.0	28.7	-95.3	0.0
2025-01-20 06:38:20.450616	135.6	28.4	-95.0	0.0
2025-01-20 06:38:22.696053	136.2	28.1	-95.0	0.0
2025-01-20 06:38:24.938999	136.8	27.9	-95.0	0.0
2025-01-20 06:38:27.179992	137.3	27.6	-95.0	0.0
2025-01-20 06:38:29.422905	137.9	27.4	-94.7	0.0
2025-01-20 06:38:31.665276	138.4	27.1	-94.7	0.0
2025-01-20 06:38:33.910549	138.9	26.9	-94.9	0.0
2025-01-20 06:38:36.150763	139.4	26.6	-94.7	0.0
2025-01-20 06:38:38.393010	139.9	26.3	-94.8	0.0
2025-01-20 06:38:40.636796	140.5	26.1	-94.9	0.0
2025-01-20 06:38:42.878213	140.9	25.8	-94.6	0.0
2025-01-20 06:38:45.122384	141.4	25.6	-95.1	0.0
2025-01-20 06:38:47.365041	141.9	25.3	-94.9	0.0
2025-01-20 06:38:49.608847	142.4	25.0	-94.9	0.0
2025-01-20 06:38:51.853791	142.9	24.8	-94.9	0.0
2025-01-20 06:38:54.092954	143.3	24.5	-95.1	0.0
2025-01-20 06:38:56.336023	143.8	24.3	-94.8	0.0
2025-01-20 06:38:58.573103	144.2	24.0	-94.8	0.0
2025-01-20 06:39:00.818791	144.6	23.8	-95.0	0.0
2025-01-20 06:39:03.061262	145.1	23.5	-95.0	0.0
2025-01-20 06:39:05.302535	145.5	23.3	-94.9	0.0
2025-01-20 06:39:07.546056	145.9	23.0	-94.8	0.0
2025-01-20 06:39:09.790222	146.3	22.8	-94.8	0.0
2025-01-20 06:39:12.031703	146.7	22.5	-95.1	0.0
2025-01-20 06:39:14.274100	147.1	22.3	-94.7	0.0
2025-01-20 06:39:16.516088	147.5	22.0	-95.0	0.0
2025-01-20 06:39:18.759831	147.9	21.8	-94.8	0.0
2025-01-20 06:39:21.003750	148.3	21.5	-95.1	0.0
2025-01-20 06:39:23.243772	148.7	21.3	-94.9	0.0
2025-01-20 06:39:25.485578	149.0	21.0	-94.8	0.0
2025-01-20 06:39:27.728403	149.4	20.8	-94.9	0.0
2025-01-20 06:39:29.968094	149.7	20.6	-94.9	0.0
2025-01-20 06:39:32.212942	150.1	20.3	-94.9	0.0
2025-01-20 06:39:34.455382	150.4	20.1	-95.0	0.0
2025-01-20 06:39:36.696552	150.8	19.8	-94.8	0.0
2025-01-20 06:39:38.942118	151.1	19.6	-94.6	0.0
2025-01-20 06:39:41.184306	151.4	19.4	-94.9	0.0
2025-01-20 06:39:43.427753	151.8	19.1	-95.1	0.0
2025-01-20 06:39:45.668652	152.1	18.9	-94.7	0.0
2025-01-20 06:39:47.911937	152.4	18.7	-95.0	0.0
2025-01-20 06:39:50.157976	152.7	18.5	-94.9	0.0
2025-01-20 06:39:52.400586	153.0	18.2	-95.0	0.0
2025-01-20 06:39:54.640802	153.3	18.0	-94.9	0.0
2025-01-20 06:39:56.884082	153.6	17.8	-95.2	0.0
2025-01-20 06:39:59.124596	153.9	17.6	-94.7	0.0
2025-01-20 06:40:01.364434	154.2	17.3	-95.3	0.0
2025-01-20 06:40:03.607079	154.5	17.1	-94.8	0.0
2025-01-20 06:40:05.848892	154.8	16.9	-95.1	0.0
2025-01-20 06:40:08.091309	155.1	16.7	-94.7	0.0
2025-01-20 06:40:10.335041	155.3	16.5	-95.0	0.0
2025-01-20 06:40:12.575118	155.6	16.2	-94.4	0.0
2025-01-20 06:40:14.817935	155.9	16.0	-94.9	0.0
2025-01-20 06:40:17.062456	156.1	15.8	-94.8	0.0
2025-01-20 06:40:19.305627	156.4	15.6	-94.8	0.0
2025-01-20 06:40:21.548001	156.7	15.4	-95.0	0.0
2025-01-20 06:40:23.788975	156.9	15.2	-94.7	0.0
2025-01-20 06:40:26.031030	157.2	15.0	-94.9	0.0
2025-01-20 06:40:28.271088	157.4	14.8	-94.8	0.0
2025-01-20 06:40:30.512770	157.6	14.6	-94.9	0.0
2025-01-20 06:40:32.754025	157.9	14.4	-94.9	0.0
2025-01-20 06:40:34.996578	158.1	14.2	-95.1	0.0
2025-01-20 06:40:37.243618	158.4	14.0	-95.0	0.0
2025-01-20 06:40:39.486922	158.6	13.8	-94.8	0.0
2025-01-20 06:40:41.729453	158.8	13.6	-94.9	0.0
2025-01-20 06:40:43.971125	159.0	13.4	-95.0	0.0
2025-01-20 06:40:46.213833	159.3	13.2	-94.8	0.0
2025-01-20 06:40:48.452756	159.5	13.0	-95.1	0.0
2025-01-20 06:40:50.693903	159.7	12.8	-95.1	0.0
2025-01-20 06:40:52.938397	159.9	12.6	-94.7	0.0
2025-01-20 06:40:55.180289	160.1	12.4	-94.8	0.0
2025-01-20 06:40:57.422284	160.3	12.2	-94.7	0.0
2025-01-20 06:40:59.666095	160.5	12.0	-94.7	0.0
2025-01-20 06:41:01.909559	160.7	11.8	-94.8	0.0
2025-01-20 06:41:04.153034	160.9	11.6	-95.0	0.0
2025-01-20 06:41:06.393059	161.1	11.4	-94.8	0.0
2025-01-20 06:41:08.632916	161.3	11.3	-94.8	0.0
2025-01-20 06:41:10.871040	161.5	11.1	-94.5	0.0
2025-01-20 06:41:13.112575	161.7	10.9	-94.7	0.0
2025-01-20 06:41:15.354558	161.9	10.7	-94.6	0.0
2025-01-20 06:41:17.594986	162.1	10.5	-94.7	0.0
2025-01-20 06:41:19.837118	162.3	10.4	-94.6	0.0
2025-01-20 06:41:22.077779	162.4	10.2	-94.4	0.0
#Closed at: 2025-01-20 06:31:25.154003