passes_logs/2025/01/20/planumMaritime01/planumMaritime01__20250120_082516_NOAA_18_rec.log

#Pass ID: 20250120_082516_NOAA 18
#Satellite: NOAA 18
#Configuration: NOAA 18
#Start time: 2025-01-20 08:25:21.017495

#LorettStation: 1.0.0 05.05.2024
#Station: planumMaritime01
#Location: 37.49445 lon 55.92918 lat
#TLE: 1 28654U 05018A   25019.12683114  .00000403  00000+0  23745-3 0  9992
#TLE: 2 28654  98.8559 100.1402 0014536 167.7337 192.4191 14.13490232 13765

#Time	Az	El	Level	SNR
2025-01-20 08:25:23.177065	24.0	10.2	-94.5	0.0
2025-01-20 08:25:25.420973	24.1	10.4	-94.6	0.0
2025-01-20 08:25:27.664143	24.2	10.6	-94.4	0.0
2025-01-20 08:25:29.910026	24.3	10.7	-94.5	0.0
2025-01-20 08:25:32.153159	24.4	10.9	-94.2	0.0
2025-01-20 08:25:34.398159	24.6	11.1	-94.4	0.0
2025-01-20 08:25:36.640114	24.7	11.3	-94.6	0.0
2025-01-20 08:25:38.882726	24.8	11.5	-94.9	0.0
2025-01-20 08:25:41.126571	24.9	11.7	-94.7	0.0
2025-01-20 08:25:43.367696	25.1	11.9	-94.9	0.0
2025-01-20 08:25:45.611036	25.2	12.1	-94.7	0.0
2025-01-20 08:25:47.855960	25.3	12.3	-94.7	0.0
2025-01-20 08:25:50.099973	25.5	12.5	-94.5	0.0
2025-01-20 08:25:52.342543	25.6	12.7	-94.7	0.0
2025-01-20 08:25:54.586322	25.7	12.9	-94.5	0.0
2025-01-20 08:25:56.830287	25.9	13.1	-94.7	0.0
2025-01-20 08:25:59.072428	26.0	13.3	-94.6	0.0
2025-01-20 08:26:01.314968	26.1	13.5	-94.6	0.0
2025-01-20 08:26:03.557940	26.3	13.7	-94.8	0.0
2025-01-20 08:26:05.799880	26.4	14.0	-94.8	0.0
2025-01-20 08:26:08.042756	26.6	14.2	-94.7	0.0
2025-01-20 08:26:10.286463	26.7	14.4	-94.5	0.0
2025-01-20 08:26:12.531624	26.9	14.6	-94.6	0.0
2025-01-20 08:26:14.774766	27.0	14.8	-94.3	0.0
2025-01-20 08:26:17.018760	27.2	15.0	-94.6	0.0
2025-01-20 08:26:19.259402	27.3	15.3	-94.3	0.0
2025-01-20 08:26:21.505087	27.5	15.5	-94.6	0.0
2025-01-20 08:26:23.751106	27.7	15.7	-94.9	0.0
2025-01-20 08:26:25.995092	27.8	16.0	-94.5	0.0
2025-01-20 08:26:28.240088	28.0	16.2	-94.6	0.0
2025-01-20 08:26:30.483325	28.2	16.4	-94.6	0.0
2025-01-20 08:26:32.726507	28.3	16.7	-94.3	0.0
2025-01-20 08:26:34.969923	28.5	16.9	-94.9	0.0
2025-01-20 08:26:37.214188	28.7	17.1	-94.7	0.0
2025-01-20 08:26:39.456169	28.9	17.4	-94.8	0.0
2025-01-20 08:26:41.698088	29.1	17.6	-94.5	0.0
2025-01-20 08:26:43.939639	29.2	17.9	-94.8	0.0
2025-01-20 08:26:46.183410	29.4	18.1	-94.8	0.0
2025-01-20 08:26:48.425893	29.6	18.4	-94.7	0.0
2025-01-20 08:26:50.671238	29.8	18.6	-94.6	0.0
2025-01-20 08:26:52.914110	30.0	18.9	-94.6	0.0
2025-01-20 08:26:55.155025	30.2	19.1	-94.8	0.0
2025-01-20 08:26:57.400867	30.4	19.4	-94.9	0.0
2025-01-20 08:26:59.640160	30.6	19.6	-94.8	0.0
2025-01-20 08:27:01.885598	30.8	19.9	-95.1	0.0
2025-01-20 08:27:04.124372	31.0	20.2	-94.7	0.0
2025-01-20 08:27:06.367161	31.3	20.4	-95.0	0.0
2025-01-20 08:27:08.609144	31.5	20.7	-95.0	0.0
2025-01-20 08:27:10.850287	31.7	21.0	-95.1	0.0
2025-01-20 08:27:13.094812	31.9	21.3	-95.0	0.0
2025-01-20 08:27:15.340783	32.2	21.5	-94.6	0.0
2025-01-20 08:27:17.585227	32.4	21.8	-94.7	0.0
2025-01-20 08:27:19.825405	32.7	22.1	-94.6	0.0
2025-01-20 08:27:22.070144	32.9	22.4	-94.8	0.0
2025-01-20 08:27:24.313573	33.1	22.7	-94.9	0.0
2025-01-20 08:27:26.556642	33.4	23.0	-94.7	0.0
2025-01-20 08:27:28.801474	33.7	23.3	-94.9	0.0
2025-01-20 08:27:31.045946	33.9	23.6	-94.8	0.0
2025-01-20 08:27:33.285718	34.2	23.9	-94.9	0.0
2025-01-20 08:27:35.525367	34.5	24.2	-94.8	0.0
2025-01-20 08:27:37.769998	34.7	24.5	-94.9	0.0
2025-01-20 08:27:40.012650	35.0	24.8	-94.7	0.0
2025-01-20 08:27:42.255598	35.3	25.1	-94.7	0.0
2025-01-20 08:27:44.495546	35.6	25.4	-95.0	0.0
2025-01-20 08:27:46.735596	35.9	25.8	-94.6	0.0
2025-01-20 08:27:48.980146	36.2	26.1	-94.8	0.0
2025-01-20 08:27:51.224587	36.5	26.4	-94.7	0.0
2025-01-20 08:27:53.466300	36.9	26.7	-94.7	0.0
2025-01-20 08:27:55.708164	37.2	27.1	-94.9	0.0
2025-01-20 08:27:57.950597	37.5	27.4	-94.8	0.0
2025-01-20 08:28:00.198606	37.9	27.7	-94.8	0.0
2025-01-20 08:28:02.442938	38.2	28.1	-94.7	0.0
2025-01-20 08:28:04.686128	38.6	28.4	-94.5	0.0
2025-01-20 08:28:06.929495	38.9	28.8	-94.4	0.0
2025-01-20 08:28:09.172002	39.3	29.1	-94.8	0.0
2025-01-20 08:28:11.418000	39.7	29.5	-95.0	0.0
2025-01-20 08:28:13.657237	40.0	29.8	-94.6	0.0
2025-01-20 08:28:15.900817	40.4	30.2	-94.9	0.0
2025-01-20 08:28:18.146112	40.8	30.5	-94.9	0.0
2025-01-20 08:28:20.388374	41.3	30.9	-94.8	0.0
2025-01-20 08:28:22.628046	41.7	31.3	-95.1	0.0
2025-01-20 08:28:24.872184	42.1	31.7	-94.7	0.0
2025-01-20 08:28:27.118469	42.5	32.0	-94.9	0.0
2025-01-20 08:28:29.364302	43.0	32.4	-94.4	0.0
2025-01-20 08:28:31.605913	43.5	32.8	-94.7	0.0
2025-01-20 08:28:33.849565	43.9	33.2	-94.5	0.0
2025-01-20 08:28:36.091387	44.4	33.6	-94.7	0.0
2025-01-20 08:28:38.335888	44.9	33.9	-94.7	0.0
2025-01-20 08:28:40.579162	45.4	34.3	-94.6	0.0
2025-01-20 08:28:42.820458	45.9	34.7	-94.7	0.0
2025-01-20 08:28:45.063896	46.5	35.1	-94.7	0.0
2025-01-20 08:28:47.306691	47.0	35.5	-94.7	0.0
2025-01-20 08:28:49.545323	47.6	35.9	-94.8	0.0
2025-01-20 08:28:51.785464	48.1	36.3	-94.8	0.0
2025-01-20 08:28:54.028333	48.7	36.7	-95.0	0.0
2025-01-20 08:28:56.271186	49.3	37.1	-94.6	0.0
2025-01-20 08:28:58.512059	49.9	37.6	-94.8	0.0
2025-01-20 08:29:00.754950	50.5	38.0	-94.7	0.0
2025-01-20 08:29:03.001592	51.2	38.4	-95.1	0.0
2025-01-20 08:29:05.242062	51.9	38.8	-94.5	0.0
2025-01-20 08:29:07.483860	52.5	39.2	-94.9	0.0
2025-01-20 08:29:09.727081	53.2	39.6	-94.8	0.0
2025-01-20 08:29:11.971279	53.9	40.0	-94.8	0.0
2025-01-20 08:29:14.211145	54.7	40.4	-95.1	0.0
2025-01-20 08:29:16.451764	55.4	40.8	-94.6	0.0
2025-01-20 08:29:18.690409	56.2	41.3	-94.6	0.0
2025-01-20 08:29:20.933393	57.0	41.7	-94.9	0.0
2025-01-20 08:29:23.176170	57.8	42.1	-94.6	0.0
2025-01-20 08:29:25.418605	58.6	42.5	-94.9	0.0
2025-01-20 08:29:27.660618	59.4	42.9	-94.7	0.0
2025-01-20 08:29:29.903457	60.3	43.3	-94.6	0.0
2025-01-20 08:29:32.146664	61.2	43.7	-94.8	0.0
2025-01-20 08:29:34.389645	62.1	44.1	-94.7	0.0
2025-01-20 08:29:36.635690	63.1	44.5	-94.6	0.0
2025-01-20 08:29:38.879995	64.0	44.9	-94.5	0.0
2025-01-20 08:29:41.122378	65.0	45.3	-94.8	0.0
2025-01-20 08:29:43.366570	66.0	45.6	-94.8	0.0
2025-01-20 08:29:45.611114	67.0	46.0	-94.9	0.0
2025-01-20 08:29:47.854512	68.1	46.4	-94.8	0.0
2025-01-20 08:29:50.097013	69.2	46.7	-94.8	0.0
2025-01-20 08:29:52.340484	70.3	47.1	-95.1	0.0
2025-01-20 08:29:54.584026	71.4	47.4	-94.6	0.0
2025-01-20 08:29:56.829661	72.6	47.7	-94.6	0.0
2025-01-20 08:29:59.069686	73.7	48.1	-94.8	0.0
2025-01-20 08:30:01.311973	74.9	48.4	-94.7	0.0
2025-01-20 08:30:03.551080	76.2	48.7	-94.6	0.0
2025-01-20 08:30:05.794706	77.4	48.9	-94.8	0.0
2025-01-20 08:30:08.039060	78.7	49.2	-94.9	0.0
2025-01-20 08:30:10.283091	80.0	49.5	-94.8	0.0
2025-01-20 08:30:12.526607	81.3	49.7	-94.8	0.0
2025-01-20 08:30:14.768100	82.6	50.0	-94.9	0.0
2025-01-20 08:30:17.008991	84.0	50.2	-94.7	0.0
2025-01-20 08:30:19.252996	85.4	50.4	-94.8	0.0
2025-01-20 08:30:21.494153	86.7	50.6	-94.8	0.0
2025-01-20 08:30:23.741808	88.2	50.7	-95.1	0.0
2025-01-20 08:30:25.983925	89.6	50.9	-94.8	0.0
2025-01-20 08:30:28.228096	91.0	51.0	-94.9	0.0
2025-01-20 08:30:30.473140	92.5	51.1	-95.0	0.0
2025-01-20 08:30:32.712973	93.9	51.2	-95.0	0.0
2025-01-20 08:30:34.955152	95.4	51.3	-95.2	0.0
2025-01-20 08:30:37.198662	96.8	51.3	-95.0	0.0
2025-01-20 08:30:39.441791	98.3	51.4	-95.0	0.0
2025-01-20 08:30:41.683201	99.8	51.4	-95.0	0.0
2025-01-20 08:30:43.926049	101.3	51.4	-94.5	0.0
2025-01-20 08:30:46.169685	102.8	51.4	-94.7	0.0
2025-01-20 08:30:48.412977	104.2	51.3	-94.7	0.0
2025-01-20 08:30:50.652523	105.7	51.2	-94.6	0.0
2025-01-20 08:30:52.891149	107.2	51.2	-94.7	0.0
2025-01-20 08:30:55.132450	108.6	51.1	-95.0	0.0
2025-01-20 08:30:57.375936	110.1	50.9	-94.7	0.0
2025-01-20 08:30:59.616727	111.5	50.8	-94.4	0.0
2025-01-20 08:31:01.856624	112.9	50.7	-94.7	0.0
2025-01-20 08:31:04.099680	114.3	50.5	-94.7	0.0
2025-01-20 08:31:06.344785	115.7	50.3	-94.6	0.0
2025-01-20 08:31:08.589207	117.1	50.1	-94.9	0.0
2025-01-20 08:31:10.831189	118.4	49.9	-94.9	0.0
2025-01-20 08:31:13.071997	119.7	49.6	-94.7	0.0
2025-01-20 08:31:15.315950	121.0	49.4	-95.1	0.0
2025-01-20 08:31:17.560245	122.3	49.1	-94.9	0.0
2025-01-20 08:31:19.803647	123.6	48.8	-94.9	0.0
2025-01-20 08:31:22.045384	124.8	48.5	-94.9	0.0
2025-01-20 08:31:24.286493	126.1	48.2	-94.9	0.0
2025-01-20 08:31:26.526889	127.3	47.9	-94.9	0.0
2025-01-20 08:31:28.767619	128.4	47.6	-94.9	0.0
2025-01-20 08:31:31.011322	129.6	47.3	-94.9	0.0
2025-01-20 08:31:33.255094	130.7	46.9	-94.6	0.0
2025-01-20 08:31:35.499009	131.8	46.6	-94.7	0.0
2025-01-20 08:31:37.738844	132.9	46.2	-94.8	0.0
2025-01-20 08:31:39.979974	133.9	45.8	-94.8	0.0
2025-01-20 08:31:42.225373	134.9	45.5	-94.7	0.0
2025-01-20 08:31:44.467949	135.9	45.1	-94.8	0.0
2025-01-20 08:31:46.709031	136.9	44.7	-82.2	0.0
2025-01-20 08:31:48.950758	137.9	44.3	-81.8	0.0
2025-01-20 08:31:51.194435	138.8	43.9	-81.8	0.0
2025-01-20 08:31:53.434460	139.7	43.5	-81.7	0.0
2025-01-20 08:31:55.676974	140.6	43.1	-82.1	0.0
2025-01-20 08:31:57.921574	141.5	42.7	-81.5	0.0
2025-01-20 08:32:00.161096	142.3	42.3	-81.8	0.0
2025-01-20 08:32:02.403376	143.1	41.9	-81.8	0.0
2025-01-20 08:32:04.645149	143.9	41.5	-82.2	0.0
2025-01-20 08:32:06.886401	144.7	41.0	-81.9	0.0
2025-01-20 08:32:09.127725	145.5	40.6	-82.2	0.0
2025-01-20 08:32:11.371215	146.2	40.2	-82.1	0.0
2025-01-20 08:32:13.610995	146.9	39.8	-82.4	0.0
2025-01-20 08:32:15.849856	147.7	39.4	-81.8	0.0
2025-01-20 08:32:18.092223	148.3	39.0	-82.0	0.0
2025-01-20 08:32:20.335196	149.0	38.6	-81.2	0.0
2025-01-20 08:32:22.575652	149.7	38.1	-82.0	0.0
2025-01-20 08:32:24.815529	150.3	37.7	-82.0	0.0
2025-01-20 08:32:27.054698	150.9	37.3	-82.0	0.0
2025-01-20 08:32:29.296362	151.5	36.9	-81.9	0.0
2025-01-20 08:32:31.539036	152.1	36.5	-81.8	0.0
2025-01-20 08:32:33.782734	152.7	36.1	-81.5	0.0
2025-01-20 08:32:36.021797	153.3	35.7	-82.0	0.0
2025-01-20 08:32:38.262957	153.8	35.3	-82.2	0.0
2025-01-20 08:32:40.506156	154.4	34.9	-82.2	0.0
2025-01-20 08:32:42.749659	154.9	34.5	-81.6	0.0
2025-01-20 08:32:44.994244	155.4	34.1	-81.6	0.0
2025-01-20 08:32:47.237134	155.9	33.7	-82.0	0.0
2025-01-20 08:32:49.479017	156.4	33.3	-81.9	0.0
2025-01-20 08:32:51.719339	156.9	32.9	-82.3	0.0
2025-01-20 08:32:53.963203	157.4	32.5	-81.7	0.0
2025-01-20 08:32:56.205805	157.8	32.1	-81.8	0.0
2025-01-20 08:32:58.445226	158.3	31.8	-81.5	0.0
2025-01-20 08:33:00.687185	158.7	31.4	-81.8	0.0
2025-01-20 08:33:02.929880	159.1	31.0	-81.7	0.0
2025-01-20 08:33:05.171899	159.5	30.6	-81.7	0.0
2025-01-20 08:33:07.418080	160.0	30.3	-81.4	0.0
2025-01-20 08:33:09.661090	160.3	29.9	-81.8	0.0
2025-01-20 08:33:11.904590	160.7	29.5	-82.0	0.0
2025-01-20 08:33:14.145484	161.1	29.2	-81.7	0.0
2025-01-20 08:33:16.387317	161.5	28.8	-81.5	0.0
2025-01-20 08:33:18.628103	161.9	28.5	-82.1	0.0
2025-01-20 08:33:20.871255	162.2	28.1	-82.2	0.0
2025-01-20 08:33:23.111821	162.6	27.8	-82.1	0.0
2025-01-20 08:33:25.351144	162.9	27.4	-82.2	0.0
2025-01-20 08:33:27.596602	163.3	27.1	-82.2	0.0
2025-01-20 08:33:29.838092	163.6	26.8	-82.1	0.0
2025-01-20 08:33:32.079927	163.9	26.4	-82.3	0.0
2025-01-20 08:33:34.320171	164.2	26.1	-82.0	0.0
2025-01-20 08:33:36.562711	164.5	25.8	-82.1	0.0
2025-01-20 08:33:38.804072	164.8	25.4	-82.4	0.0
2025-01-20 08:33:41.047075	165.1	25.1	-81.8	0.0
2025-01-20 08:33:43.287997	165.4	24.8	-82.1	0.0
2025-01-20 08:33:45.528457	165.7	24.5	-81.5	0.0
2025-01-20 08:33:47.770743	166.0	24.2	-82.3	0.0
2025-01-20 08:33:50.011975	166.3	23.9	-82.3	0.0
2025-01-20 08:33:52.253060	166.5	23.6	-81.8	0.0
2025-01-20 08:33:54.496570	166.8	23.3	-82.2	0.0
2025-01-20 08:33:56.737182	167.1	23.0	-82.2	0.0
2025-01-20 08:33:58.980099	167.3	22.7	-82.0	0.0
2025-01-20 08:34:01.221380	167.6	22.4	-81.8	0.0
2025-01-20 08:34:03.464104	167.8	22.1	-81.8	0.0
2025-01-20 08:34:05.703493	168.1	21.8	-82.3	0.0
2025-01-20 08:34:07.944547	168.3	21.5	-82.4	0.0
2025-01-20 08:34:10.185088	168.5	21.2	-82.1	0.0
2025-01-20 08:34:12.423741	168.8	20.9	-82.3	0.0
2025-01-20 08:34:14.662660	169.0	20.7	-82.3	0.0
2025-01-20 08:34:16.907860	169.2	20.4	-81.7	0.0
2025-01-20 08:34:19.153766	169.4	20.1	-80.7	0.0
2025-01-20 08:34:21.398262	169.7	19.8	-81.3	0.0
2025-01-20 08:34:23.641189	169.9	19.6	-81.6	0.0
2025-01-20 08:34:25.886140	170.1	19.3	-82.0	0.0
2025-01-20 08:34:28.125461	170.3	19.0	-81.5	0.0
2025-01-20 08:34:30.367157	170.5	18.8	-82.1	0.0
2025-01-20 08:34:32.609613	170.7	18.5	-81.5	0.0
2025-01-20 08:34:34.851303	170.9	18.3	-81.7	0.0
2025-01-20 08:34:37.092218	171.1	18.0	-82.3	0.0
2025-01-20 08:34:39.334722	171.3	17.8	-82.1	0.0
2025-01-20 08:34:41.575326	171.4	17.5	-82.0	0.0
2025-01-20 08:34:43.812647	171.6	17.3	-81.5	0.0
2025-01-20 08:34:46.055263	171.8	17.0	-81.6	0.0
2025-01-20 08:34:48.296223	172.0	16.8	-81.8	0.0
2025-01-20 08:34:50.540272	172.2	16.5	-82.1	0.0
2025-01-20 08:34:52.781835	172.3	16.3	-81.9	0.0
2025-01-20 08:34:55.024845	172.5	16.1	-81.9	0.0
2025-01-20 08:34:57.267946	172.7	15.8	-82.4	0.0
2025-01-20 08:34:59.508826	172.8	15.6	-81.7	0.0
2025-01-20 08:35:01.750322	173.0	15.4	-81.6	0.0
2025-01-20 08:35:03.992757	173.2	15.2	-82.4	0.0
2025-01-20 08:35:06.235129	173.3	14.9	-82.1	0.0
2025-01-20 08:35:08.478734	173.5	14.7	-81.7	0.0
2025-01-20 08:35:10.719671	173.6	14.5	-82.1	0.0
2025-01-20 08:35:12.960156	173.8	14.3	-82.2	0.0
2025-01-20 08:35:15.203299	173.9	14.0	-81.9	0.0
2025-01-20 08:35:17.445505	174.1	13.8	-82.5	0.0
2025-01-20 08:35:19.686511	174.2	13.6	-82.3	0.0
2025-01-20 08:35:21.930979	174.4	13.4	-82.2	0.0
2025-01-20 08:35:24.170213	174.5	13.2	-82.3	0.0
2025-01-20 08:35:26.410961	174.6	13.0	-82.2	0.0
2025-01-20 08:35:28.653852	174.8	12.8	-81.2	0.0
2025-01-20 08:35:30.894995	174.9	12.6	-81.7	0.0
2025-01-20 08:35:33.135990	175.0	12.3	-81.8	0.0
2025-01-20 08:35:35.376778	175.2	12.1	-81.4	0.0
2025-01-20 08:35:37.617567	175.3	11.9	-82.3	0.0
2025-01-20 08:35:39.858745	175.4	11.7	-82.0	0.0
2025-01-20 08:35:42.098596	175.6	11.5	-81.4	0.0
2025-01-20 08:35:44.340634	175.7	11.3	-82.2	0.0
2025-01-20 08:35:46.582115	175.8	11.1	-81.9	0.0
2025-01-20 08:35:48.825065	175.9	11.0	-82.0	0.0
2025-01-20 08:35:51.066154	176.1	10.8	-81.7	0.0
2025-01-20 08:35:53.305264	176.2	10.6	-82.2	0.0
2025-01-20 08:35:55.547550	176.3	10.4	-82.0	0.0
2025-01-20 08:35:57.788728	176.4	10.2	-82.3	0.0
2025-01-20 08:36:00.033116	176.5	10.0	-82.4	0.0
#Closed at: 2025-01-20 08:25:16.019941