passes_logs/2025/01/20/planumMaritime01/planumMaritime01__20250120_113933_METEOR-M2_2_rec.log

#Pass ID: 20250120_113933_METEOR-M2 2
#Satellite: METEOR-M2 2
#Configuration: METEOR-M2 2
#Start time: 2025-01-20 11:39:38.416212

#LorettStation: 1.0.0 05.05.2024
#Station: planumMaritime01
#Location: 37.49445 lon 55.92918 lat
#TLE: 1 44387U 19038A   25019.21327867  .00000321  00000+0  15932-3 0  9998
#TLE: 2 44387  98.8573 355.6430 0002257  72.4885 287.6540 14.24119873288138

#Time	Az	El	Level	SNR
2025-01-20 11:39:40.582016	137.4	10.2	-76.5	0.0
2025-01-20 11:39:42.825630	137.3	10.4	-74.5	0.0
2025-01-20 11:39:45.073702	137.2	10.6	-76.2	0.0
2025-01-20 11:39:47.321026	137.1	10.8	-75.8	0.0
2025-01-20 11:39:49.566714	137.0	11.0	-75.7	0.0
2025-01-20 11:39:51.812654	136.9	11.2	-75.9	0.0
2025-01-20 11:39:54.059094	136.8	11.4	-72.4	0.0
2025-01-20 11:39:56.305205	136.6	11.6	-76.0	0.0
2025-01-20 11:39:58.551049	136.5	11.8	-75.9	0.0
2025-01-20 11:40:00.795558	136.4	12.0	-75.8	0.0
2025-01-20 11:40:03.041285	136.3	12.2	-75.8	0.0
2025-01-20 11:40:05.288037	136.2	12.4	-75.2	0.0
2025-01-20 11:40:07.534830	136.0	12.6	-75.9	0.0
2025-01-20 11:40:09.780228	135.9	12.8	-75.7	0.0
2025-01-20 11:40:12.027217	135.8	13.0	-75.5	0.0
2025-01-20 11:40:14.274275	135.6	13.2	-76.7	0.0
2025-01-20 11:40:16.519111	135.5	13.5	-75.6	0.0
2025-01-20 11:40:18.761896	135.4	13.7	-76.8	0.0
2025-01-20 11:40:21.009838	135.2	13.9	-77.8	0.0
2025-01-20 11:40:23.258605	135.1	14.1	-77.8	0.0
2025-01-20 11:40:25.502370	134.9	14.3	-77.4	0.0
2025-01-20 11:40:27.748652	134.8	14.6	-77.6	0.0
2025-01-20 11:40:29.993292	134.6	14.8	-78.5	0.0
2025-01-20 11:40:32.240100	134.5	15.0	-77.5	0.0
2025-01-20 11:40:34.486952	134.3	15.3	-77.9	0.0
2025-01-20 11:40:36.732084	134.2	15.5	-75.8	0.0
2025-01-20 11:40:38.979038	134.0	15.7	-77.8	0.0
2025-01-20 11:40:41.224285	133.8	16.0	-77.1	0.0
2025-01-20 11:40:43.469863	133.7	16.2	-76.9	0.0
2025-01-20 11:40:45.715098	133.5	16.5	-76.6	0.0
2025-01-20 11:40:47.962816	133.3	16.7	-77.5	0.0
2025-01-20 11:40:50.206142	133.2	16.9	-78.2	0.0
2025-01-20 11:40:52.452002	133.0	17.2	-76.9	0.0
2025-01-20 11:40:54.700322	132.8	17.4	-77.7	0.0
2025-01-20 11:40:56.946325	132.6	17.7	-77.2	0.0
2025-01-20 11:40:59.193622	132.4	18.0	-77.1	0.0
2025-01-20 11:41:01.439029	132.2	18.2	-76.4	0.0
2025-01-20 11:41:03.684414	132.1	18.5	-77.1	0.0
2025-01-20 11:41:05.931085	131.9	18.7	-77.4	0.0
2025-01-20 11:41:08.183550	131.7	19.0	-75.8	0.0
2025-01-20 11:41:10.428970	131.5	19.3	-76.6	0.0
2025-01-20 11:41:12.678376	131.2	19.6	-76.7	0.0
2025-01-20 11:41:14.921292	131.0	19.8	-76.1	0.0
2025-01-20 11:41:17.165033	130.8	20.1	-76.7	0.0
2025-01-20 11:41:19.407836	130.6	20.4	-75.9	0.0
2025-01-20 11:41:21.652649	130.4	20.7	-76.7	0.0
2025-01-20 11:41:23.898734	130.2	20.9	-75.9	0.0
2025-01-20 11:41:26.146538	129.9	21.2	-75.7	0.0
2025-01-20 11:41:28.393694	129.7	21.5	-76.2	0.0
2025-01-20 11:41:30.638278	129.4	21.8	-76.0	0.0
2025-01-20 11:41:32.884969	129.2	22.1	-76.4	0.0
2025-01-20 11:41:35.130680	128.9	22.4	-75.0	0.0
2025-01-20 11:41:37.377874	128.7	22.7	-75.9	0.0
2025-01-20 11:41:39.621583	128.4	23.0	-77.6	0.0
2025-01-20 11:41:41.867429	128.2	23.3	-76.9	0.0
2025-01-20 11:41:44.114491	127.9	23.6	-75.7	0.0
2025-01-20 11:41:46.365842	127.6	24.0	-75.8	0.0
2025-01-20 11:41:48.611052	127.3	24.3	-77.3	0.0
2025-01-20 11:41:50.857022	127.0	24.6	-76.0	0.0
2025-01-20 11:41:53.106178	126.7	24.9	-75.9	0.0
2025-01-20 11:41:55.354545	126.4	25.2	-77.6	0.0
2025-01-20 11:41:57.599170	126.1	25.6	-75.6	0.0
2025-01-20 11:41:59.846503	125.8	25.9	-75.9	0.0
2025-01-20 11:42:02.093006	125.5	26.2	-76.5	0.0
2025-01-20 11:42:04.342186	125.2	26.6	-77.4	0.0
2025-01-20 11:42:06.589940	124.8	26.9	-76.0	0.0
2025-01-20 11:42:08.836829	124.5	27.3	-77.9	0.0
2025-01-20 11:42:11.082460	124.1	27.6	-76.8	0.0
2025-01-20 11:42:13.326139	123.8	28.0	-76.9	0.0
2025-01-20 11:42:15.574919	123.4	28.3	-75.3	0.0
2025-01-20 11:42:17.821480	123.0	28.7	-74.7	0.0
2025-01-20 11:42:20.066180	122.7	29.1	-74.3	0.0
2025-01-20 11:42:22.312362	122.3	29.4	-73.8	0.0
2025-01-20 11:42:24.559949	121.9	29.8	-75.0	0.0
2025-01-20 11:42:26.804361	121.4	30.2	-74.7	0.0
2025-01-20 11:42:29.046457	121.0	30.5	-74.1	0.0
2025-01-20 11:42:31.295543	120.6	30.9	-75.3	0.0
2025-01-20 11:42:33.541470	120.2	31.3	-75.5	0.0
2025-01-20 11:42:35.788536	119.7	31.7	-73.4	0.0
2025-01-20 11:42:38.037754	119.2	32.1	-75.3	0.0
2025-01-20 11:42:40.286392	118.8	32.5	-74.2	0.0
2025-01-20 11:42:42.536862	118.3	32.9	-73.3	0.0
2025-01-20 11:42:44.783482	117.8	33.3	-72.7	0.0
2025-01-20 11:42:47.030953	117.3	33.7	-74.6	0.0
2025-01-20 11:42:49.276167	116.7	34.1	-73.5	0.0
2025-01-20 11:42:51.523810	116.2	34.5	-72.0	0.0
2025-01-20 11:42:53.769273	115.6	34.9	-74.2	0.0
2025-01-20 11:42:56.014958	115.1	35.3	-72.4	0.0
2025-01-20 11:42:58.263292	114.5	35.7	-70.5	0.0
2025-01-20 11:43:00.511403	113.9	36.1	-71.9	0.0
2025-01-20 11:43:02.759760	113.3	36.5	-71.9	0.0
2025-01-20 11:43:05.005738	112.7	36.9	-70.1	0.0
2025-01-20 11:43:07.249126	112.0	37.4	-71.9	0.0
2025-01-20 11:43:09.494513	111.4	37.8	-70.6	0.0
2025-01-20 11:43:11.740237	110.7	38.2	-71.2	0.0
2025-01-20 11:43:13.988008	110.0	38.6	-71.3	0.0
2025-01-20 11:43:16.232570	109.3	39.0	-71.0	0.0
2025-01-20 11:43:18.481603	108.5	39.5	-71.1	0.0
2025-01-20 11:43:20.727778	107.8	39.9	-71.8	0.0
2025-01-20 11:43:22.975566	107.0	40.3	-71.3	0.0
2025-01-20 11:43:25.219125	106.2	40.7	-72.5	0.0
2025-01-20 11:43:27.463847	105.4	41.1	-71.1	0.0
2025-01-20 11:43:29.712489	104.6	41.6	-72.3	0.0
2025-01-20 11:43:31.961323	103.7	42.0	-73.1	0.0
2025-01-20 11:43:34.207042	102.8	42.4	-72.7	0.0
2025-01-20 11:43:36.452359	101.9	42.8	-74.7	0.0
2025-01-20 11:43:38.698226	101.0	43.2	-73.5	0.0
2025-01-20 11:43:40.944227	100.1	43.6	-75.0	0.0
2025-01-20 11:43:43.187366	99.1	44.0	-74.2	0.0
2025-01-20 11:43:45.435727	98.1	44.4	-75.6	0.0
2025-01-20 11:43:47.681675	97.1	44.8	-75.0	0.0
2025-01-20 11:43:49.926880	96.0	45.1	-74.7	0.0
2025-01-20 11:43:52.174911	95.0	45.5	-75.5	0.0
2025-01-20 11:43:54.419468	93.9	45.9	-77.7	0.0
2025-01-20 11:43:56.664791	92.7	46.2	-78.9	0.0
2025-01-20 11:43:58.911542	91.6	46.5	-77.5	0.0
2025-01-20 11:44:01.156164	90.4	46.9	-75.7	0.0
2025-01-20 11:44:03.398150	89.2	47.2	-76.7	0.0
2025-01-20 11:44:05.641089	88.0	47.5	-76.0	0.0
2025-01-20 11:44:07.889216	86.8	47.8	-76.2	0.0
2025-01-20 11:44:10.131997	85.5	48.1	-76.7	0.0
2025-01-20 11:44:12.380727	84.2	48.4	-74.2	0.0
2025-01-20 11:44:14.628861	82.9	48.6	-75.7	0.0
2025-01-20 11:44:16.878441	81.6	48.9	-76.5	0.0
2025-01-20 11:44:19.121999	80.2	49.1	-76.9	0.0
2025-01-20 11:44:21.367984	78.8	49.3	-75.8	0.0
2025-01-20 11:44:23.614106	77.5	49.5	-76.3	0.0
2025-01-20 11:44:25.859428	76.0	49.7	-75.1	0.0
2025-01-20 11:44:28.107432	74.6	49.8	-75.6	0.0
2025-01-20 11:44:30.350771	73.2	49.9	-75.8	0.0
2025-01-20 11:44:32.596609	71.7	50.1	-75.9	0.0
2025-01-20 11:44:34.842423	70.3	50.2	-75.6	0.0
2025-01-20 11:44:37.087445	68.8	50.2	-76.1	0.0
2025-01-20 11:44:39.330593	67.3	50.3	-76.5	0.0
2025-01-20 11:44:41.578633	65.9	50.3	-76.0	0.0
2025-01-20 11:44:43.824261	64.4	50.4	-76.6	0.0
2025-01-20 11:44:46.069773	62.9	50.4	-76.9	0.0
2025-01-20 11:44:48.316542	61.4	50.3	-76.8	0.0
2025-01-20 11:44:50.563208	59.9	50.3	-77.4	0.0
2025-01-20 11:44:52.808747	58.5	50.2	-77.2	0.0
2025-01-20 11:44:55.058543	57.0	50.2	-77.4	0.0
2025-01-20 11:44:57.303774	55.5	50.1	-78.2	0.0
2025-01-20 11:44:59.549169	54.1	49.9	-77.8	0.0
2025-01-20 11:45:01.799024	52.7	49.8	-78.7	0.0
2025-01-20 11:45:04.044302	51.2	49.6	-77.7	0.0
2025-01-20 11:45:06.289312	49.8	49.5	-78.6	0.0
2025-01-20 11:45:08.539606	48.5	49.3	-77.0	0.0
2025-01-20 11:45:10.784068	47.1	49.1	-77.9	0.0
2025-01-20 11:45:13.033472	45.7	48.8	-76.8	0.0
2025-01-20 11:45:15.280976	44.4	48.6	-78.7	0.0
2025-01-20 11:45:17.528608	43.1	48.3	-79.7	0.0
2025-01-20 11:45:19.776406	41.8	48.1	-78.7	0.0
2025-01-20 11:45:22.021366	40.6	47.8	-77.6	0.0
2025-01-20 11:45:24.268893	39.3	47.5	-72.1	0.0
2025-01-20 11:45:26.513030	38.1	47.2	-72.9	0.0
2025-01-20 11:45:28.761245	36.9	46.8	-72.9	0.0
2025-01-20 11:45:31.008863	35.7	46.5	-72.5	0.0
2025-01-20 11:45:33.255803	34.6	46.2	-76.7	0.0
2025-01-20 11:45:35.502551	33.5	45.8	-75.7	0.0
2025-01-20 11:45:37.744559	32.4	45.5	-74.1	0.0
2025-01-20 11:45:39.989459	31.3	45.1	-68.4	0.0
2025-01-20 11:45:42.235360	30.3	44.7	-72.4	0.0
2025-01-20 11:45:44.480230	29.3	44.3	-69.4	0.0
2025-01-20 11:45:46.727732	28.3	44.0	-73.9	0.0
2025-01-20 11:45:48.974313	27.3	43.6	-69.3	0.0
2025-01-20 11:45:51.221677	26.4	43.2	-70.9	0.0
2025-01-20 11:45:53.468412	25.5	42.8	-69.3	0.0
2025-01-20 11:45:55.711487	24.6	42.4	-66.7	0.0
2025-01-20 11:45:57.957798	23.7	41.9	-67.0	0.0
2025-01-20 11:46:00.202030	22.8	41.5	-68.9	0.0
2025-01-20 11:46:02.451256	22.0	41.1	-71.8	0.0
2025-01-20 11:46:04.696683	21.2	40.7	-70.0	0.0
2025-01-20 11:46:06.942460	20.4	40.3	-72.0	0.0
2025-01-20 11:46:09.190044	19.7	39.9	-66.8	0.0
2025-01-20 11:46:11.438893	18.9	39.5	-67.1	0.0
2025-01-20 11:46:13.685569	18.2	39.0	-67.9	0.0
2025-01-20 11:46:15.936261	17.5	38.6	-69.1	0.0
2025-01-20 11:46:18.184774	16.8	38.2	-71.9	0.0
2025-01-20 11:46:20.429333	16.1	37.8	-67.2	0.0
2025-01-20 11:46:22.675921	15.4	37.4	-67.6	0.0
2025-01-20 11:46:24.919120	14.8	36.9	-73.5	0.0
2025-01-20 11:46:27.168659	14.2	36.5	-67.0	0.0
2025-01-20 11:46:29.416296	13.6	36.1	-67.0	0.0
2025-01-20 11:46:31.659723	13.0	35.7	-73.4	0.0
2025-01-20 11:46:33.907191	12.4	35.3	-72.1	0.0
2025-01-20 11:46:36.152658	11.8	34.9	-65.1	0.0
2025-01-20 11:46:38.400555	11.3	34.5	-66.3	0.0
2025-01-20 11:46:40.644334	10.8	34.1	-64.1	0.0
2025-01-20 11:46:42.889083	10.2	33.7	-72.8	0.0
2025-01-20 11:46:45.136817	9.7	33.3	-71.8	0.0
2025-01-20 11:46:47.384241	9.2	32.9	-66.2	0.0
2025-01-20 11:46:49.631353	8.7	32.5	-72.3	0.0
2025-01-20 11:46:51.876017	8.3	32.1	-73.0	0.0
2025-01-20 11:46:54.122580	7.8	31.7	-70.1	0.0
2025-01-20 11:46:56.367933	7.4	31.3	-72.3	0.0
2025-01-20 11:46:58.615915	6.9	31.0	-71.7	0.0
2025-01-20 11:47:00.861398	6.5	30.6	-72.5	0.0
2025-01-20 11:47:03.107275	6.1	30.2	-68.4	0.0
2025-01-20 11:47:05.350673	5.7	29.8	-65.0	0.0
2025-01-20 11:47:07.595715	5.3	29.5	-70.5	0.0
2025-01-20 11:47:09.840436	4.9	29.1	-68.9	0.0
2025-01-20 11:47:12.086910	4.5	28.7	-71.4	0.0
2025-01-20 11:47:14.332325	4.1	28.4	-66.6	0.0
2025-01-20 11:47:16.577248	3.8	28.0	-66.1	0.0
2025-01-20 11:47:18.823886	3.4	27.7	-66.9	0.0
2025-01-20 11:47:21.072147	3.1	27.3	-65.8	0.0
2025-01-20 11:47:23.320246	2.7	27.0	-68.1	0.0
2025-01-20 11:47:25.568237	2.4	26.6	-71.3	0.0
2025-01-20 11:47:27.817146	2.1	26.3	-71.3	0.0
2025-01-20 11:47:30.065918	1.7	26.0	-71.1	0.0
2025-01-20 11:47:32.310571	1.4	25.6	-68.1	0.0
2025-01-20 11:47:34.556495	1.1	25.3	-67.5	0.0
2025-01-20 11:47:36.799006	0.8	25.0	-72.5	0.0
2025-01-20 11:47:39.043249	0.5	24.7	-73.2	0.0
2025-01-20 11:47:41.290754	0.2	24.3	-71.6	0.0
2025-01-20 11:47:43.535373	360.0	24.0	-67.1	0.0
2025-01-20 11:47:45.783284	359.7	23.7	-68.1	0.0
2025-01-20 11:47:48.030507	359.4	23.4	-71.6	0.0
2025-01-20 11:47:50.280051	359.1	23.1	-72.4	0.0
2025-01-20 11:47:52.524648	358.9	22.8	-65.6	0.0
2025-01-20 11:47:54.770611	358.6	22.5	-65.2	0.0
2025-01-20 11:47:57.017415	358.4	22.2	-71.6	0.0
2025-01-20 11:47:59.262997	358.1	21.9	-71.1	0.0
2025-01-20 11:48:01.508230	357.9	21.6	-68.7	0.0
2025-01-20 11:48:03.753565	357.7	21.3	-74.9	0.0
2025-01-20 11:48:05.999156	357.4	21.0	-73.8	0.0
2025-01-20 11:48:08.242455	357.2	20.7	-72.1	0.0
2025-01-20 11:48:10.487309	357.0	20.5	-74.5	0.0
2025-01-20 11:48:12.732525	356.8	20.2	-71.5	0.0
2025-01-20 11:48:14.977515	356.6	19.9	-73.0	0.0
2025-01-20 11:48:17.220566	356.4	19.6	-72.3	0.0
2025-01-20 11:48:19.464142	356.2	19.4	-70.5	0.0
2025-01-20 11:48:21.709687	355.9	19.1	-66.8	0.0
2025-01-20 11:48:23.955797	355.8	18.8	-64.5	0.0
2025-01-20 11:48:26.205339	355.6	18.6	-66.1	0.0
2025-01-20 11:48:28.450805	355.4	18.3	-71.8	0.0
2025-01-20 11:48:30.697019	355.2	18.1	-69.6	0.0
2025-01-20 11:48:32.940111	355.0	17.8	-72.0	0.0
2025-01-20 11:48:35.185967	354.8	17.5	-63.9	0.0
2025-01-20 11:48:37.431067	354.6	17.3	-73.1	0.0
2025-01-20 11:48:39.679426	354.5	17.0	-68.6	0.0
2025-01-20 11:48:41.925685	354.3	16.8	-67.4	0.0
2025-01-20 11:48:44.172754	354.1	16.6	-69.2	0.0
2025-01-20 11:48:46.421722	354.0	16.3	-68.8	0.0
2025-01-20 11:48:48.667673	353.8	16.1	-69.3	0.0
2025-01-20 11:48:50.914275	353.6	15.8	-68.5	0.0
2025-01-20 11:48:53.162008	353.5	15.6	-63.3	0.0
2025-01-20 11:48:55.409425	353.3	15.4	-68.4	0.0
2025-01-20 11:48:57.656440	353.2	15.1	-67.8	0.0
2025-01-20 11:48:59.902054	353.0	14.9	-67.8	0.0
2025-01-20 11:49:02.146460	352.9	14.7	-67.7	0.0
2025-01-20 11:49:04.392268	352.7	14.5	-63.7	0.0
2025-01-20 11:49:06.638666	352.6	14.2	-68.3	0.0
2025-01-20 11:49:08.886307	352.4	14.0	-66.3	0.0
2025-01-20 11:49:11.131427	352.3	13.8	-63.5	0.0
2025-01-20 11:49:13.378544	352.2	13.6	-69.3	0.0
2025-01-20 11:49:15.627750	352.0	13.4	-69.8	0.0
2025-01-20 11:49:17.874927	351.9	13.1	-67.1	0.0
2025-01-20 11:49:20.122302	351.8	12.9	-70.0	0.0
2025-01-20 11:49:22.372482	351.6	12.7	-68.6	0.0
2025-01-20 11:49:24.619820	351.5	12.5	-68.8	0.0
2025-01-20 11:49:26.868499	351.4	12.3	-67.4	0.0
2025-01-20 11:49:29.113244	351.3	12.1	-67.3	0.0
2025-01-20 11:49:31.357792	351.1	11.9	-73.1	0.0
2025-01-20 11:49:33.607497	351.0	11.7	-71.9	0.0
2025-01-20 11:49:35.854391	350.9	11.5	-71.7	0.0
2025-01-20 11:49:38.098212	350.8	11.3	-72.9	0.0
2025-01-20 11:49:40.345916	350.7	11.1	-71.1	0.0
2025-01-20 11:49:42.591459	350.6	10.9	-73.0	0.0
2025-01-20 11:49:44.835865	350.5	10.7	-78.4	0.0
2025-01-20 11:49:47.081199	350.4	10.5	-80.3	0.0
2025-01-20 11:49:49.328035	350.2	10.3	-80.9	0.0
2025-01-20 11:49:51.573660	350.1	10.1	-82.2	0.0
#Closed at: 2025-01-20 11:39:33.422292