passes_logs/2025/01/20/planumMaritime01/planumMaritime01__20250120_123213_METEOR-M2_4_rec.log

#Pass ID: 20250120_123213_METEOR-M2 4
#Satellite: METEOR-M2 4
#Configuration: METEOR-M2 4
#Start time: 2025-01-20 12:32:18.188231

#LorettStation: 1.0.0 05.05.2024
#Station: planumMaritime01
#Location: 37.49445 lon 55.92918 lat
#TLE: 1 59051U 24039A   25019.17843089  .00000110  00000+0  69087-4 0  9990
#TLE: 2 59051  98.6301 342.1007 0006367 211.2686 148.8114 14.22326347 46195

#Time	Az	El	Level	SNR
2025-01-20 12:32:20.352543	202.1	10.2	-76.8	0.0
2025-01-20 12:32:22.598536	202.3	10.3	-77.9	0.0
2025-01-20 12:32:24.843484	202.5	10.5	-78.2	0.0
2025-01-20 12:32:27.090972	202.7	10.7	-78.1	0.0
2025-01-20 12:32:29.335325	202.9	10.9	-78.3	0.0
2025-01-20 12:32:31.582787	203.2	11.0	-78.3	0.0
2025-01-20 12:32:33.828613	203.4	11.2	-78.3	0.0
2025-01-20 12:32:36.074301	203.6	11.4	-78.5	0.0
2025-01-20 12:32:38.316204	203.8	11.6	-77.8	0.0
2025-01-20 12:32:40.560846	204.0	11.8	-77.3	0.0
2025-01-20 12:32:42.808738	204.2	11.9	-77.4	0.0
2025-01-20 12:32:45.054621	204.5	12.1	-78.7	0.0
2025-01-20 12:32:47.301043	204.7	12.3	-78.1	0.0
2025-01-20 12:32:49.547608	204.9	12.5	-79.2	0.0
2025-01-20 12:32:51.790991	205.2	12.7	-78.3	0.0
2025-01-20 12:32:54.036988	205.4	12.9	-78.3	0.0
2025-01-20 12:32:56.283686	205.7	13.0	-79.0	0.0
2025-01-20 12:32:58.528363	205.9	13.2	-79.0	0.0
2025-01-20 12:33:00.772860	206.1	13.4	-77.9	0.0
2025-01-20 12:33:03.019669	206.4	13.6	-78.4	0.0
2025-01-20 12:33:05.268639	206.7	13.8	-78.3	0.0
2025-01-20 12:33:07.515063	206.9	14.0	-78.7	0.0
2025-01-20 12:33:09.759687	207.2	14.2	-79.1	0.0
2025-01-20 12:33:12.006056	207.4	14.4	-79.4	0.0
2025-01-20 12:33:14.248367	207.7	14.6	-79.1	0.0
2025-01-20 12:33:16.496453	208.0	14.8	-79.0	0.0
2025-01-20 12:33:18.737917	208.2	15.0	-78.4	0.0
2025-01-20 12:33:20.984099	208.5	15.2	-79.0	0.0
2025-01-20 12:33:23.228794	208.8	15.4	-79.2	0.0
2025-01-20 12:33:25.473968	209.1	15.6	-79.2	0.0
2025-01-20 12:33:27.719067	209.4	15.8	-79.1	0.0
2025-01-20 12:33:29.963581	209.7	16.0	-78.6	0.0
2025-01-20 12:33:32.212040	210.0	16.2	-79.8	0.0
2025-01-20 12:33:34.457030	210.3	16.4	-79.4	0.0
2025-01-20 12:33:36.703728	210.6	16.6	-79.7	0.0
2025-01-20 12:33:38.948486	210.9	16.8	-79.5	0.0
2025-01-20 12:33:41.193440	211.2	17.0	-79.2	0.0
2025-01-20 12:33:43.440198	211.5	17.2	-79.4	0.0
2025-01-20 12:33:45.689198	211.8	17.4	-79.3	0.0
2025-01-20 12:33:47.933036	212.1	17.6	-79.3	0.0
2025-01-20 12:33:50.181170	212.5	17.8	-79.3	0.0
2025-01-20 12:33:52.428296	212.8	18.0	-79.0	0.0
2025-01-20 12:33:54.675601	213.1	18.3	-79.0	0.0
2025-01-20 12:33:56.919134	213.5	18.5	-79.3	0.0
2025-01-20 12:33:59.162757	213.8	18.7	-79.2	0.0
2025-01-20 12:34:01.409583	214.2	18.9	-79.4	0.0
2025-01-20 12:34:03.655650	214.5	19.1	-79.2	0.0
2025-01-20 12:34:05.899019	214.9	19.3	-79.6	0.0
2025-01-20 12:34:08.147179	215.3	19.6	-79.9	0.0
2025-01-20 12:34:10.392995	215.7	19.8	-78.8	0.0
2025-01-20 12:34:12.637632	216.0	20.0	-78.0	0.0
2025-01-20 12:34:14.884284	216.4	20.2	-79.3	0.0
2025-01-20 12:34:17.132074	216.8	20.4	-79.3	0.0
2025-01-20 12:34:19.379760	217.2	20.7	-79.2	0.0
2025-01-20 12:34:21.627242	217.6	20.9	-77.0	0.0
2025-01-20 12:34:23.875151	218.0	21.1	-78.5	0.0
2025-01-20 12:34:26.120855	218.4	21.3	-78.4	0.0
2025-01-20 12:34:28.368742	218.8	21.5	-78.0	0.0
2025-01-20 12:34:30.614019	219.3	21.8	-76.6	0.0
2025-01-20 12:34:32.861925	219.7	22.0	-78.4	0.0
2025-01-20 12:34:35.107065	220.1	22.2	-79.2	0.0
2025-01-20 12:34:37.353477	220.6	22.4	-78.6	0.0
2025-01-20 12:34:39.597099	221.0	22.7	-78.7	0.0
2025-01-20 12:34:41.842532	221.5	22.9	-78.7	0.0
2025-01-20 12:34:44.087529	221.9	23.1	-78.6	0.0
2025-01-20 12:34:46.330352	222.4	23.3	-78.3	0.0
2025-01-20 12:34:48.578245	222.9	23.6	-79.6	0.0
2025-01-20 12:34:50.826923	223.3	23.8	-79.7	0.0
2025-01-20 12:34:53.070607	223.8	24.0	-79.0	0.0
2025-01-20 12:34:55.317922	224.3	24.2	-79.9	0.0
2025-01-20 12:34:57.562498	224.8	24.5	-79.8	0.0
2025-01-20 12:34:59.810318	225.3	24.7	-79.6	0.0
2025-01-20 12:35:02.055730	225.8	24.9	-80.1	0.0
2025-01-20 12:35:04.301085	226.4	25.1	-79.8	0.0
2025-01-20 12:35:06.544552	226.9	25.4	-79.8	0.0
2025-01-20 12:35:08.792999	227.4	25.6	-80.3	0.0
2025-01-20 12:35:11.040392	228.0	25.8	-80.2	0.0
2025-01-20 12:35:13.287215	228.5	26.0	-80.5	0.0
2025-01-20 12:35:15.531404	229.1	26.3	-80.3	0.0
2025-01-20 12:35:17.778402	229.7	26.5	-80.3	0.0
2025-01-20 12:35:20.022264	230.2	26.7	-80.3	0.0
2025-01-20 12:35:22.268186	230.8	26.9	-80.4	0.0
2025-01-20 12:35:24.516321	231.4	27.1	-80.4	0.0
2025-01-20 12:35:26.762516	232.0	27.3	-80.5	0.0
2025-01-20 12:35:29.012093	232.6	27.5	-80.5	0.0
2025-01-20 12:35:31.258266	233.2	27.8	-80.7	0.0
2025-01-20 12:35:33.506107	233.8	28.0	-80.2	0.0
2025-01-20 12:35:35.749035	234.5	28.2	-80.1	0.0
2025-01-20 12:35:37.992179	235.1	28.4	-80.4	0.0
2025-01-20 12:35:40.237930	235.8	28.6	-80.8	0.0
2025-01-20 12:35:42.483382	236.4	28.8	-80.6	0.0
2025-01-20 12:35:44.731922	237.1	29.0	-80.9	0.0
2025-01-20 12:35:46.978424	237.7	29.2	-81.1	0.0
2025-01-20 12:35:49.224131	238.4	29.3	-81.0	0.0
2025-01-20 12:35:51.471452	239.1	29.5	-81.1	0.0
2025-01-20 12:35:53.716911	239.8	29.7	-81.1	0.0
2025-01-20 12:35:55.960431	240.5	29.9	-81.2	0.0
2025-01-20 12:35:58.204499	241.2	30.1	-81.0	0.0
2025-01-20 12:36:00.448440	241.9	30.2	-81.3	0.0
2025-01-20 12:36:02.691928	242.6	30.4	-81.0	0.0
2025-01-20 12:36:04.939430	243.4	30.6	-81.4	0.0
2025-01-20 12:36:07.185581	244.1	30.7	-81.4	0.0
2025-01-20 12:36:09.429586	244.9	30.9	-81.4	0.0
2025-01-20 12:36:11.676807	245.6	31.1	-81.4	0.0
2025-01-20 12:36:13.923857	246.4	31.2	-81.2	0.0
2025-01-20 12:36:16.170337	247.1	31.3	-81.2	0.0
2025-01-20 12:36:18.419365	247.9	31.5	-81.5	0.0
2025-01-20 12:36:20.667476	248.7	31.6	-81.4	0.0
2025-01-20 12:36:22.914163	249.5	31.7	-81.4	0.0
2025-01-20 12:36:25.157542	250.3	31.9	-81.3	0.0
2025-01-20 12:36:27.401908	251.1	32.0	-81.1	0.0
2025-01-20 12:36:29.647588	251.9	32.1	-81.6	0.0
2025-01-20 12:36:31.894417	252.7	32.2	-81.4	0.0
2025-01-20 12:36:34.136107	253.5	32.3	-81.4	0.0
2025-01-20 12:36:36.381895	254.3	32.4	-81.4	0.0
2025-01-20 12:36:38.629236	255.1	32.5	-81.4	0.0
2025-01-20 12:36:40.878456	255.9	32.6	-81.5	0.0
2025-01-20 12:36:43.125309	256.8	32.6	-81.3	0.0
2025-01-20 12:36:45.373777	257.6	32.7	-81.4	0.0
2025-01-20 12:36:47.620944	258.4	32.8	-81.0	0.0
2025-01-20 12:36:49.865637	259.3	32.8	-81.4	0.0
2025-01-20 12:36:52.115296	260.1	32.9	-81.2	0.0
2025-01-20 12:36:54.360274	261.0	32.9	-81.2	0.0
2025-01-20 12:36:56.605462	261.8	33.0	-81.2	0.0
2025-01-20 12:36:58.851168	262.7	33.0	-81.1	0.0
2025-01-20 12:37:01.097903	263.5	33.0	-81.2	0.0
2025-01-20 12:37:03.342577	264.4	33.0	-81.4	0.0
2025-01-20 12:37:05.588022	265.2	33.0	-81.2	0.0
2025-01-20 12:37:07.834022	266.1	33.0	-81.5	0.0
2025-01-20 12:37:10.080458	266.9	33.0	-81.1	0.0
2025-01-20 12:37:12.324973	267.8	33.0	-81.1	0.0
2025-01-20 12:37:14.573480	268.6	33.0	-81.3	0.0
2025-01-20 12:37:16.818514	269.5	33.0	-80.4	0.0
2025-01-20 12:37:19.064124	270.3	32.9	-80.4	0.0
2025-01-20 12:37:21.312368	271.2	32.9	-79.9	0.0
2025-01-20 12:37:23.558265	272.0	32.8	-80.3	0.0
2025-01-20 12:37:25.805069	272.8	32.8	-80.9	0.0
2025-01-20 12:37:28.051687	273.7	32.7	-80.3	0.0
2025-01-20 12:37:30.296312	274.5	32.7	-80.8	0.0
2025-01-20 12:37:32.541036	275.3	32.6	-80.7	0.0
2025-01-20 12:37:34.786774	276.2	32.5	-80.9	0.0
2025-01-20 12:37:37.033562	277.0	32.4	-80.4	0.0
2025-01-20 12:37:39.280538	277.8	32.3	-80.7	0.0
2025-01-20 12:37:41.526344	278.6	32.2	-80.7	0.0
2025-01-20 12:37:43.774909	279.4	32.1	-80.9	0.0
2025-01-20 12:37:46.021059	280.2	32.0	-80.8	0.0
2025-01-20 12:37:48.265322	281.0	31.9	-80.6	0.0
2025-01-20 12:37:50.512558	281.8	31.8	-80.6	0.0
2025-01-20 12:37:52.758858	282.6	31.7	-80.3	0.0
2025-01-20 12:37:55.003596	283.4	31.5	-80.7	0.0
2025-01-20 12:37:57.247932	284.2	31.4	-80.8	0.0
2025-01-20 12:37:59.495818	284.9	31.3	-80.1	0.0
2025-01-20 12:38:01.744126	285.7	31.1	-80.9	0.0
2025-01-20 12:38:03.988321	286.4	31.0	-80.7	0.0
2025-01-20 12:38:06.235808	287.2	30.8	-80.8	0.0
2025-01-20 12:38:08.484303	287.9	30.7	-80.3	0.0
2025-01-20 12:38:10.731582	288.7	30.5	-80.4	0.0
2025-01-20 12:38:12.976783	289.4	30.3	-80.2	0.0
2025-01-20 12:38:15.222101	290.1	30.2	-79.7	0.0
2025-01-20 12:38:17.468349	290.8	30.0	-79.8	0.0
2025-01-20 12:38:19.711652	291.5	29.8	-80.2	0.0
2025-01-20 12:38:21.955329	292.2	29.6	-80.1	0.0
2025-01-20 12:38:24.202316	292.9	29.4	-80.0	0.0
2025-01-20 12:38:26.447044	293.6	29.3	-80.3	0.0
2025-01-20 12:38:28.690250	294.2	29.1	-80.4	0.0
2025-01-20 12:38:30.933617	294.9	28.9	-80.2	0.0
2025-01-20 12:38:33.179648	295.6	28.7	-80.2	0.0
2025-01-20 12:38:35.427791	296.2	28.5	-78.9	0.0
2025-01-20 12:38:37.676058	296.8	28.3	-79.5	0.0
2025-01-20 12:38:39.921488	297.5	28.1	-80.2	0.0
2025-01-20 12:38:42.168743	298.1	27.9	-80.1	0.0
2025-01-20 12:38:44.414230	298.7	27.7	-79.9	0.0
2025-01-20 12:38:46.658165	299.3	27.5	-80.1	0.0
2025-01-20 12:38:48.905435	299.9	27.2	-79.8	0.0
2025-01-20 12:38:51.154123	300.5	27.0	-79.7	0.0
2025-01-20 12:38:53.400448	301.1	26.8	-80.4	0.0
2025-01-20 12:38:55.648745	301.7	26.6	-80.0	0.0
2025-01-20 12:38:57.893948	302.2	26.4	-79.9	0.0
2025-01-20 12:39:00.142765	302.8	26.2	-79.6	0.0
2025-01-20 12:39:02.390593	303.4	25.9	-79.4	0.0
2025-01-20 12:39:04.635022	303.9	25.7	-78.5	0.0
2025-01-20 12:39:06.881823	304.4	25.5	-79.0	0.0
2025-01-20 12:39:09.124249	305.0	25.3	-79.1	0.0
2025-01-20 12:39:11.370042	305.5	25.1	-80.1	0.0
2025-01-20 12:39:13.614516	306.0	24.8	-79.7	0.0
2025-01-20 12:39:15.862197	306.5	24.6	-79.5	0.0
2025-01-20 12:39:18.109196	307.0	24.4	-79.6	0.0
2025-01-20 12:39:20.348435	307.5	24.2	-79.6	0.0
2025-01-20 12:39:22.592416	308.0	23.9	-79.3	0.0
2025-01-20 12:39:24.838402	308.5	23.7	-77.7	0.0
2025-01-20 12:39:27.082931	309.0	23.5	-79.9	0.0
2025-01-20 12:39:29.326359	309.4	23.3	-79.2	0.0
2025-01-20 12:39:31.570846	309.9	23.1	-79.4	0.0
2025-01-20 12:39:33.813041	310.4	22.8	-75.8	0.0
2025-01-20 12:39:36.060638	310.8	22.6	-79.6	0.0
2025-01-20 12:39:38.306756	311.2	22.4	-78.5	0.0
2025-01-20 12:39:40.551940	311.7	22.2	-79.1	0.0
2025-01-20 12:39:42.801945	312.1	21.9	-77.7	0.0
2025-01-20 12:39:45.050035	312.5	21.7	-79.0	0.0
2025-01-20 12:39:47.295843	313.0	21.5	-74.8	0.0
2025-01-20 12:39:49.541418	313.4	21.3	-76.9	0.0
2025-01-20 12:39:51.788366	313.8	21.0	-78.0	0.0
2025-01-20 12:39:54.033776	314.2	20.8	-78.2	0.0
2025-01-20 12:39:56.281232	314.6	20.6	-78.3	0.0
2025-01-20 12:39:58.526795	315.0	20.4	-78.2	0.0
2025-01-20 12:40:00.774452	315.4	20.2	-78.2	0.0
2025-01-20 12:40:03.021765	315.7	20.0	-77.9	0.0
2025-01-20 12:40:05.268122	316.1	19.7	-77.0	0.0
2025-01-20 12:40:07.512805	316.5	19.5	-76.5	0.0
2025-01-20 12:40:09.758447	316.8	19.3	-76.2	0.0
2025-01-20 12:40:12.001857	317.2	19.1	-75.3	0.0
2025-01-20 12:40:14.250990	317.6	18.9	-76.0	0.0
2025-01-20 12:40:16.494350	317.9	18.7	-75.8	0.0
2025-01-20 12:40:18.737280	318.2	18.4	-75.4	0.0
2025-01-20 12:40:20.985512	318.6	18.2	-74.9	0.0
2025-01-20 12:40:23.229792	318.9	18.0	-76.1	0.0
2025-01-20 12:40:25.477571	319.3	17.8	-77.0	0.0
2025-01-20 12:40:27.723026	319.6	17.6	-76.7	0.0
2025-01-20 12:40:29.969395	319.9	17.4	-76.1	0.0
2025-01-20 12:40:32.213791	320.2	17.2	-77.6	0.0
2025-01-20 12:40:34.458182	320.5	17.0	-77.0	0.0
2025-01-20 12:40:36.704164	320.9	16.8	-76.3	0.0
2025-01-20 12:40:38.952738	321.2	16.6	-76.2	0.0
2025-01-20 12:40:41.200303	321.5	16.4	-75.4	0.0
2025-01-20 12:40:43.444567	321.8	16.2	-76.9	0.0
2025-01-20 12:40:45.689699	322.1	16.0	-77.8	0.0
2025-01-20 12:40:47.934215	322.3	15.8	-74.1	0.0
2025-01-20 12:40:50.179075	322.6	15.6	-78.3	0.0
2025-01-20 12:40:52.425214	322.9	15.4	-76.5	0.0
2025-01-20 12:40:54.671782	323.2	15.2	-77.1	0.0
2025-01-20 12:40:56.918730	323.5	15.0	-76.7	0.0
2025-01-20 12:40:59.164683	323.7	14.8	-78.6	0.0
2025-01-20 12:41:01.412111	324.0	14.6	-78.4	0.0
2025-01-20 12:41:03.657361	324.3	14.4	-78.1	0.0
2025-01-20 12:41:05.901394	324.5	14.2	-75.6	0.0
2025-01-20 12:41:08.147253	324.8	14.0	-78.2	0.0
2025-01-20 12:41:10.393683	325.1	13.8	-78.2	0.0
2025-01-20 12:41:12.638504	325.3	13.6	-77.1	0.0
2025-01-20 12:41:14.880972	325.6	13.4	-77.2	0.0
2025-01-20 12:41:17.123784	325.8	13.3	-76.3	0.0
2025-01-20 12:41:19.367323	326.0	13.1	-75.8	0.0
2025-01-20 12:41:21.613528	326.3	12.9	-76.5	0.0
2025-01-20 12:41:23.861215	326.5	12.7	-77.0	0.0
2025-01-20 12:41:26.106699	326.8	12.5	-77.5	0.0
2025-01-20 12:41:28.348232	327.0	12.3	-76.8	0.0
2025-01-20 12:41:30.592102	327.2	12.2	-76.0	0.0
2025-01-20 12:41:32.839624	327.4	12.0	-76.9	0.0
2025-01-20 12:41:35.087669	327.7	11.8	-75.1	0.0
2025-01-20 12:41:37.334098	327.9	11.6	-72.8	0.0
2025-01-20 12:41:39.579691	328.1	11.4	-75.0	0.0
2025-01-20 12:41:41.823967	328.3	11.3	-74.9	0.0
2025-01-20 12:41:44.068438	328.5	11.1	-75.4	0.0
2025-01-20 12:41:46.319558	328.8	10.9	-76.9	0.0
2025-01-20 12:41:48.567492	329.0	10.7	-79.3	0.0
2025-01-20 12:41:50.813411	329.2	10.6	-80.7	0.0
2025-01-20 12:41:53.059726	329.4	10.4	-82.1	0.0
2025-01-20 12:41:55.307013	329.6	10.2	-82.1	0.0
#Closed at: 2025-01-20 12:32:13.192179