passes_logs/2025/01/20/planumMaritime01/planumMaritime01__20250120_164237_NOAA_18_rec.log

#Pass ID: 20250120_164237_NOAA 18
#Satellite: NOAA 18
#Configuration: NOAA 18
#Start time: 2025-01-20 16:42:42.114509

#LorettStation: 1.0.0 05.05.2024
#Station: planumMaritime01
#Location: 37.49445 lon 55.92918 lat
#TLE: 1 28654U 05018A   25020.18862715  .00000449  00000+0  26167-3 0  9997
#TLE: 2 28654  98.8558 101.1913 0014575 164.8261 195.3351 14.13491567 13918

#Time	Az	El	Level	SNR
2025-01-20 16:42:44.268041	60.1	10.1	-64.3	0.0
2025-01-20 16:42:45.392655	59.9	10.1	-64.7	0.0
2025-01-20 16:42:46.519743	59.7	10.1	-64.6	0.0
2025-01-20 16:42:47.643311	59.5	10.2	-63.9	0.0
2025-01-20 16:42:48.765549	59.3	10.2	-65.3	0.0
2025-01-20 16:42:49.889730	59.1	10.3	-64.5	0.0
2025-01-20 16:42:51.014777	58.9	10.3	-64.5	0.0
2025-01-20 16:42:52.140428	58.8	10.3	-62.5	0.0
2025-01-20 16:42:53.264219	58.6	10.4	-65.3	0.0
2025-01-20 16:42:54.387815	58.4	10.4	-65.5	0.0
2025-01-20 16:42:55.511987	58.2	10.4	-60.8	0.0
2025-01-20 16:42:56.636381	58.0	10.5	-65.9	0.0
2025-01-20 16:42:57.759348	57.8	10.5	-64.9	0.0
2025-01-20 16:42:58.883764	57.6	10.5	-65.6	0.0
2025-01-20 16:43:00.006637	57.4	10.6	-64.2	0.0
2025-01-20 16:43:01.130203	57.3	10.6	-65.2	0.0
2025-01-20 16:43:02.255409	57.1	10.6	-64.5	0.0
2025-01-20 16:43:03.379897	56.9	10.7	-63.0	0.0
2025-01-20 16:43:04.501637	56.7	10.7	-64.8	0.0
2025-01-20 16:43:05.625476	56.5	10.7	-64.0	0.0
2025-01-20 16:43:06.751588	56.3	10.8	-65.3	0.0
2025-01-20 16:43:07.877380	56.1	10.8	-64.0	0.0
2025-01-20 16:43:09.000241	55.9	10.8	-63.5	0.0
2025-01-20 16:43:10.124960	55.7	10.8	-63.3	0.0
2025-01-20 16:43:11.248548	55.5	10.9	-66.0	0.0
2025-01-20 16:43:12.370706	55.3	10.9	-64.3	0.0
2025-01-20 16:43:13.494816	55.1	10.9	-65.9	0.0
2025-01-20 16:43:14.618402	55.0	11.0	-66.5	0.0
2025-01-20 16:43:15.741701	54.8	11.0	-64.5	0.0
2025-01-20 16:43:16.865481	54.6	11.0	-65.8	0.0
2025-01-20 16:43:17.988385	54.4	11.1	-66.1	0.0
2025-01-20 16:43:19.113279	54.2	11.1	-65.7	0.0
2025-01-20 16:43:20.237147	54.0	11.1	-65.0	0.0
2025-01-20 16:43:21.360023	53.8	11.1	-66.5	0.0
2025-01-20 16:43:22.485317	53.6	11.2	-65.4	0.0
2025-01-20 16:43:23.609040	53.4	11.2	-67.2	0.0
2025-01-20 16:43:24.731931	53.2	11.2	-65.9	0.0
2025-01-20 16:43:25.854879	53.0	11.2	-64.4	0.0
2025-01-20 16:43:26.978011	52.8	11.3	-65.7	0.0
2025-01-20 16:43:28.102009	52.6	11.3	-66.8	0.0
2025-01-20 16:43:29.224603	52.4	11.3	-66.7	0.0
2025-01-20 16:43:30.345513	52.2	11.3	-65.4	0.0
2025-01-20 16:43:31.470889	52.0	11.4	-64.7	0.0
2025-01-20 16:43:32.595299	51.8	11.4	-63.2	0.0
2025-01-20 16:43:33.717667	51.6	11.4	-62.6	0.0
2025-01-20 16:43:34.838976	51.4	11.4	-61.0	0.0
2025-01-20 16:43:35.962477	51.2	11.5	-61.3	0.0
2025-01-20 16:43:37.087130	51.0	11.5	-62.5	0.0
2025-01-20 16:43:38.210387	50.8	11.5	-61.4	0.0
2025-01-20 16:43:39.332054	50.6	11.5	-61.0	0.0
2025-01-20 16:43:40.454106	50.4	11.6	-61.3	0.0
2025-01-20 16:43:41.575313	50.2	11.6	-60.4	0.0
2025-01-20 16:43:42.698568	50.0	11.6	-64.7	0.0
2025-01-20 16:43:43.822646	49.8	11.6	-64.5	0.0
2025-01-20 16:43:44.948401	49.6	11.7	-66.7	0.0
2025-01-20 16:43:46.072884	49.4	11.7	-64.7	0.0
2025-01-20 16:43:47.193638	49.2	11.7	-60.5	0.0
2025-01-20 16:43:48.317562	49.0	11.7	-61.0	0.0
2025-01-20 16:43:49.440930	48.7	11.7	-62.0	0.0
2025-01-20 16:43:50.564394	48.5	11.8	-61.7	0.0
2025-01-20 16:43:51.686339	48.3	11.8	-61.0	0.0
2025-01-20 16:43:52.807771	48.1	11.8	-62.4	0.0
2025-01-20 16:43:53.929332	47.9	11.8	-64.9	0.0
2025-01-20 16:43:55.053316	47.7	11.8	-64.0	0.0
2025-01-20 16:43:56.176497	47.5	11.8	-59.9	0.0
2025-01-20 16:43:57.301032	47.3	11.9	-60.8	0.0
2025-01-20 16:43:58.423915	47.1	11.9	-62.1	0.0
2025-01-20 16:43:59.548344	46.9	11.9	-63.2	0.0
2025-01-20 16:44:00.671741	46.7	11.9	-61.4	0.0
2025-01-20 16:44:01.795627	46.5	11.9	-61.3	0.0
2025-01-20 16:44:02.918706	46.3	11.9	-62.6	0.0
2025-01-20 16:44:04.042304	46.1	12.0	-63.3	0.0
2025-01-20 16:44:05.163655	45.8	12.0	-60.8	0.0
2025-01-20 16:44:06.286049	45.6	12.0	-62.0	0.0
2025-01-20 16:44:07.408558	45.4	12.0	-60.9	0.0
2025-01-20 16:44:08.530240	45.2	12.0	-62.2	0.0
2025-01-20 16:44:09.654677	45.0	12.0	-61.6	0.0
2025-01-20 16:44:10.778089	44.8	12.0	-59.5	0.0
2025-01-20 16:44:11.903691	44.6	12.1	-61.5	0.0
2025-01-20 16:44:13.026446	44.4	12.1	-63.7	0.0
2025-01-20 16:44:14.152016	44.2	12.1	-60.9	0.0
2025-01-20 16:44:15.275126	44.0	12.1	-64.5	0.0
2025-01-20 16:44:16.398603	43.8	12.1	-64.4	0.0
2025-01-20 16:44:17.522841	43.5	12.1	-64.4	0.0
2025-01-20 16:44:18.646880	43.3	12.1	-63.6	0.0
2025-01-20 16:44:19.770919	43.1	12.1	-61.7	0.0
2025-01-20 16:44:20.894744	42.9	12.1	-63.6	0.0
2025-01-20 16:44:22.020816	42.7	12.2	-59.8	0.0
2025-01-20 16:44:23.143989	42.5	12.2	-63.5	0.0
2025-01-20 16:44:24.266329	42.3	12.2	-63.6	0.0
2025-01-20 16:44:25.391052	42.1	12.2	-63.8	0.0
2025-01-20 16:44:26.514830	41.9	12.2	-63.6	0.0
2025-01-20 16:44:27.639039	41.6	12.2	-64.3	0.0
2025-01-20 16:44:28.762941	41.4	12.2	-63.7	0.0
2025-01-20 16:44:29.887319	41.2	12.2	-62.0	0.0
2025-01-20 16:44:31.009813	41.0	12.2	-63.0	0.0
2025-01-20 16:44:32.133125	40.8	12.2	-63.0	0.0
2025-01-20 16:44:33.256556	40.6	12.2	-64.8	0.0
2025-01-20 16:44:34.380865	40.4	12.2	-65.1	0.0
2025-01-20 16:44:35.502854	40.2	12.2	-64.7	0.0
2025-01-20 16:44:36.627029	39.9	12.2	-66.2	0.0
2025-01-20 16:44:37.751604	39.7	12.2	-66.4	0.0
2025-01-20 16:44:38.875395	39.5	12.2	-66.0	0.0
2025-01-20 16:44:39.997477	39.3	12.3	-64.7	0.0
2025-01-20 16:44:41.124396	39.1	12.3	-62.0	0.0
2025-01-20 16:44:42.247231	38.9	12.3	-65.5	0.0
2025-01-20 16:44:43.372546	38.7	12.3	-65.0	0.0
2025-01-20 16:44:44.495585	38.5	12.3	-65.4	0.0
2025-01-20 16:44:45.619579	38.2	12.3	-65.8	0.0
2025-01-20 16:44:46.742739	38.0	12.3	-64.3	0.0
2025-01-20 16:44:47.866165	37.8	12.3	-65.6	0.0
2025-01-20 16:44:48.990851	37.6	12.3	-60.9	0.0
2025-01-20 16:44:50.114948	37.4	12.3	-65.2	0.0
2025-01-20 16:44:51.239085	37.2	12.3	-62.4	0.0
2025-01-20 16:44:52.363221	37.0	12.3	-64.9	0.0
2025-01-20 16:44:53.486954	36.8	12.3	-65.4	0.0
2025-01-20 16:44:54.612685	36.5	12.3	-64.2	0.0
2025-01-20 16:44:55.733233	36.3	12.3	-64.8	0.0
2025-01-20 16:44:56.855060	36.1	12.3	-64.6	0.0
2025-01-20 16:44:57.977171	35.9	12.2	-61.3	0.0
2025-01-20 16:44:59.101665	35.7	12.2	-63.4	0.0
2025-01-20 16:45:00.224833	35.5	12.2	-64.9	0.0
2025-01-20 16:45:01.347738	35.3	12.2	-65.6	0.0
2025-01-20 16:45:02.472656	35.1	12.2	-67.3	0.0
2025-01-20 16:45:03.594678	34.8	12.2	-63.1	0.0
2025-01-20 16:45:04.718064	34.6	12.2	-66.6	0.0
2025-01-20 16:45:05.840280	34.4	12.2	-66.7	0.0
2025-01-20 16:45:06.963018	34.2	12.2	-67.3	0.0
2025-01-20 16:45:08.086197	34.0	12.2	-68.1	0.0
2025-01-20 16:45:09.209322	33.8	12.2	-67.3	0.0
2025-01-20 16:45:10.333168	33.6	12.2	-68.0	0.0
2025-01-20 16:45:11.455710	33.4	12.2	-65.8	0.0
2025-01-20 16:45:12.579304	33.1	12.2	-66.5	0.0
2025-01-20 16:45:13.703708	32.9	12.2	-68.9	0.0
2025-01-20 16:45:14.827614	32.7	12.2	-67.7	0.0
2025-01-20 16:45:15.951771	32.5	12.1	-68.0	0.0
2025-01-20 16:45:17.073259	32.3	12.1	-65.8	0.0
2025-01-20 16:45:18.195546	32.1	12.1	-69.0	0.0
2025-01-20 16:45:19.318114	31.9	12.1	-63.7	0.0
2025-01-20 16:45:20.442982	31.7	12.1	-62.5	0.0
2025-01-20 16:45:21.565098	31.5	12.1	-66.7	0.0
2025-01-20 16:45:22.690328	31.3	12.1	-67.6	0.0
2025-01-20 16:45:23.813714	31.0	12.1	-69.1	0.0
2025-01-20 16:45:24.935880	30.8	12.1	-67.9	0.0
2025-01-20 16:45:26.061479	30.6	12.0	-67.1	0.0
2025-01-20 16:45:27.184663	30.4	12.0	-69.0	0.0
2025-01-20 16:45:28.309583	30.2	12.0	-68.5	0.0
2025-01-20 16:45:29.436361	30.0	12.0	-68.7	0.0
2025-01-20 16:45:30.559304	29.8	12.0	-64.5	0.0
2025-01-20 16:45:31.681479	29.6	12.0	-67.7	0.0
2025-01-20 16:45:32.807231	29.4	12.0	-68.5	0.0
2025-01-20 16:45:33.930199	29.2	11.9	-66.0	0.0
2025-01-20 16:45:35.055402	28.9	11.9	-67.0	0.0
2025-01-20 16:45:36.179937	28.7	11.9	-69.1	0.0
2025-01-20 16:45:37.303705	28.5	11.9	-69.2	0.0
2025-01-20 16:45:38.425328	28.3	11.9	-68.4	0.0
2025-01-20 16:45:39.549197	28.1	11.9	-68.1	0.0
2025-01-20 16:45:40.674546	27.9	11.9	-67.0	0.0
2025-01-20 16:45:41.798020	27.7	11.8	-67.0	0.0
2025-01-20 16:45:42.922665	27.5	11.8	-68.5	0.0
2025-01-20 16:45:44.047512	27.3	11.8	-65.7	0.0
2025-01-20 16:45:45.170141	27.1	11.8	-68.4	0.0
2025-01-20 16:45:46.292701	26.9	11.8	-68.0	0.0
2025-01-20 16:45:47.416085	26.7	11.7	-68.4	0.0
2025-01-20 16:45:48.538098	26.5	11.7	-63.8	0.0
2025-01-20 16:45:49.660613	26.3	11.7	-64.4	0.0
2025-01-20 16:45:50.784481	26.1	11.7	-64.1	0.0
2025-01-20 16:45:51.907967	25.9	11.7	-65.0	0.0
2025-01-20 16:45:53.034126	25.7	11.6	-63.1	0.0
2025-01-20 16:45:54.157376	25.4	11.6	-68.6	0.0
2025-01-20 16:45:55.281502	25.2	11.6	-68.8	0.0
2025-01-20 16:45:56.404520	25.0	11.6	-63.7	0.0
2025-01-20 16:45:57.526403	24.8	11.6	-66.6	0.0
2025-01-20 16:45:58.650297	24.6	11.5	-67.7	0.0
2025-01-20 16:45:59.773101	24.4	11.5	-67.1	0.0
2025-01-20 16:46:00.895356	24.2	11.5	-67.1	0.0
2025-01-20 16:46:02.017719	24.0	11.5	-69.3	0.0
2025-01-20 16:46:03.140684	23.8	11.4	-67.8	0.0
2025-01-20 16:46:04.263232	23.6	11.4	-69.6	0.0
2025-01-20 16:46:05.384982	23.4	11.4	-70.5	0.0
2025-01-20 16:46:06.510004	23.2	11.4	-68.8	0.0
2025-01-20 16:46:07.635469	23.0	11.3	-68.9	0.0
2025-01-20 16:46:08.759749	22.8	11.3	-68.1	0.0
2025-01-20 16:46:09.885205	22.6	11.3	-68.6	0.0
2025-01-20 16:46:11.009736	22.4	11.3	-70.0	0.0
2025-01-20 16:46:12.131546	22.2	11.2	-63.3	0.0
2025-01-20 16:46:13.256089	22.0	11.2	-64.5	0.0
2025-01-20 16:46:14.378307	21.8	11.2	-66.1	0.0
2025-01-20 16:46:15.502744	21.6	11.1	-68.5	0.0
2025-01-20 16:46:16.624142	21.4	11.1	-63.1	0.0
2025-01-20 16:46:17.747666	21.2	11.1	-64.9	0.0
2025-01-20 16:46:18.872002	21.0	11.1	-69.0	0.0
2025-01-20 16:46:19.995549	20.9	11.0	-65.5	0.0
2025-01-20 16:46:21.119660	20.7	11.0	-65.9	0.0
2025-01-20 16:46:22.245753	20.5	11.0	-68.8	0.0
2025-01-20 16:46:23.368976	20.3	10.9	-61.5	0.0
2025-01-20 16:46:24.491884	20.1	10.9	-64.9	0.0
2025-01-20 16:46:25.613496	19.9	10.9	-70.7	0.0
2025-01-20 16:46:26.739911	19.7	10.9	-72.4	0.0
2025-01-20 16:46:27.862911	19.5	10.8	-78.1	0.0
2025-01-20 16:46:28.984564	19.3	10.8	-79.9	0.0
2025-01-20 16:46:30.106816	19.1	10.8	-80.9	0.0
2025-01-20 16:46:31.229799	18.9	10.7	-80.7	0.0
2025-01-20 16:46:32.354219	18.7	10.7	-80.9	0.0
2025-01-20 16:46:33.475477	18.5	10.7	-80.5	0.0
2025-01-20 16:46:34.596926	18.3	10.6	-81.7	0.0
2025-01-20 16:46:35.723600	18.2	10.6	-81.8	0.0
2025-01-20 16:46:36.846001	18.0	10.6	-81.3	0.0
2025-01-20 16:46:37.969387	17.8	10.5	-81.3	0.0
2025-01-20 16:46:39.092790	17.6	10.5	-81.2	0.0
2025-01-20 16:46:40.216822	17.4	10.5	-80.9	0.0
2025-01-20 16:46:41.340059	17.2	10.4	-81.4	0.0
2025-01-20 16:46:42.465341	17.0	10.4	-81.3	0.0
2025-01-20 16:46:43.587029	16.8	10.4	-80.0	0.0
2025-01-20 16:46:44.711136	16.6	10.3	-81.6	0.0
2025-01-20 16:46:45.834982	16.5	10.3	-80.5	0.0
2025-01-20 16:46:46.957056	16.3	10.3	-81.6	0.0
2025-01-20 16:46:48.082451	16.1	10.2	-81.5	0.0
2025-01-20 16:46:49.206060	15.9	10.2	-82.2	0.0
2025-01-20 16:46:50.330550	15.7	10.2	-81.5	0.0
2025-01-20 16:46:51.454534	15.5	10.1	-81.5	0.0
2025-01-20 16:46:52.576416	15.4	10.1	-81.3	0.0
2025-01-20 16:46:53.700338	15.2	10.0	-81.2	0.0
#Closed at: 2025-01-20 16:42:37.116640