passes_logs/2025/01/20/planumMaritime01/planumMaritime01__20250120_094229_NOAA_19_rec.log

#Pass ID: 20250120_094229_NOAA 19
#Satellite: NOAA 19
#Configuration: NOAA 19
#Start time: 2025-01-20 09:42:34.960268

#LorettStation: 1.0.0 05.05.2024
#Station: planumMaritime01
#Location: 37.49445 lon 55.92918 lat
#TLE: 1 33591U 09005A   25019.18116543  .00000338  00000+0  20449-3 0  9996
#TLE: 2 33591  99.0189  82.9757 0014332  46.3357 313.9000 14.13262914822133

#Time	Az	El	Level	SNR
2025-01-20 09:42:37.129366	359.1	10.1	-69.9	0.0
2025-01-20 09:42:38.259573	359.0	10.2	-70.9	0.0
2025-01-20 09:42:39.383626	358.8	10.3	-70.6	0.0
2025-01-20 09:42:40.506391	358.7	10.4	-71.9	0.0
2025-01-20 09:42:41.627950	358.6	10.4	-71.9	0.0
2025-01-20 09:42:42.751858	358.4	10.5	-70.9	0.0
2025-01-20 09:42:43.872491	358.3	10.6	-70.5	0.0
2025-01-20 09:42:44.998057	358.2	10.7	-69.8	0.0
2025-01-20 09:42:46.123153	358.0	10.7	-71.2	0.0
2025-01-20 09:42:47.246974	357.9	10.8	-70.3	0.0
2025-01-20 09:42:48.369779	357.7	10.9	-69.7	0.0
2025-01-20 09:42:49.492210	357.6	10.9	-70.1	0.0
2025-01-20 09:42:50.615592	357.5	11.0	-70.2	0.0
2025-01-20 09:42:51.739068	357.3	11.1	-69.6	0.0
2025-01-20 09:42:52.863284	357.2	11.2	-69.8	0.0
2025-01-20 09:42:53.987054	357.0	11.2	-69.6	0.0
2025-01-20 09:42:55.111151	356.9	11.3	-69.5	0.0
2025-01-20 09:42:56.234232	356.8	11.4	-69.7	0.0
2025-01-20 09:42:57.357645	356.6	11.5	-69.0	0.0
2025-01-20 09:42:58.480666	356.5	11.5	-69.2	0.0
2025-01-20 09:42:59.604201	356.3	11.6	-67.5	0.0
2025-01-20 09:43:00.728023	356.2	11.7	-68.9	0.0
2025-01-20 09:43:01.852169	356.0	11.8	-66.9	0.0
2025-01-20 09:43:02.973099	355.9	11.8	-69.4	0.0
2025-01-20 09:43:04.095792	355.7	11.9	-68.4	0.0
2025-01-20 09:43:05.218280	355.6	12.0	-68.3	0.0
2025-01-20 09:43:06.342396	355.4	12.1	-69.4	0.0
2025-01-20 09:43:07.466245	355.3	12.1	-69.0	0.0
2025-01-20 09:43:08.588137	355.1	12.2	-63.6	0.0
2025-01-20 09:43:09.712414	355.0	12.3	-69.1	0.0
2025-01-20 09:43:10.836795	354.8	12.4	-69.2	0.0
2025-01-20 09:43:11.959949	354.7	12.4	-69.4	0.0
2025-01-20 09:43:13.083287	354.5	12.5	-67.8	0.0
2025-01-20 09:43:14.202937	354.4	12.6	-69.3	0.0
2025-01-20 09:43:15.325228	354.2	12.6	-68.3	0.0
2025-01-20 09:43:16.447053	354.0	12.7	-69.8	0.0
2025-01-20 09:43:17.572257	353.9	12.8	-65.5	0.0
2025-01-20 09:43:18.696035	353.7	12.9	-65.8	0.0
2025-01-20 09:43:19.819210	353.6	12.9	-68.2	0.0
2025-01-20 09:43:20.945574	353.4	13.0	-69.7	0.0
2025-01-20 09:43:22.069035	353.2	13.1	-70.6	0.0
2025-01-20 09:43:23.192322	353.1	13.2	-71.2	0.0
2025-01-20 09:43:24.315594	352.9	13.2	-69.3	0.0
2025-01-20 09:43:25.439144	352.8	13.3	-69.9	0.0
2025-01-20 09:43:26.563208	352.6	13.4	-71.4	0.0
2025-01-20 09:43:27.687328	352.4	13.5	-68.4	0.0
2025-01-20 09:43:28.811599	352.3	13.5	-70.9	0.0
2025-01-20 09:43:29.935940	352.1	13.6	-66.1	0.0
2025-01-20 09:43:31.061524	351.9	13.7	-71.2	0.0
2025-01-20 09:43:32.184753	351.8	13.8	-70.6	0.0
2025-01-20 09:43:33.307416	351.6	13.8	-71.5	0.0
2025-01-20 09:43:34.432696	351.4	13.9	-71.2	0.0
2025-01-20 09:43:35.554927	351.2	14.0	-70.7	0.0
2025-01-20 09:43:36.678606	351.1	14.1	-69.1	0.0
2025-01-20 09:43:37.804476	350.9	14.1	-71.6	0.0
2025-01-20 09:43:38.926815	350.7	14.2	-69.1	0.0
2025-01-20 09:43:40.052683	350.6	14.3	-71.6	0.0
2025-01-20 09:43:41.180469	350.4	14.4	-66.2	0.0
2025-01-20 09:43:42.308060	350.2	14.4	-65.8	0.0
2025-01-20 09:43:43.434067	350.0	14.5	-67.9	0.0
2025-01-20 09:43:44.559077	349.8	14.6	-66.0	0.0
2025-01-20 09:43:45.684929	349.7	14.6	-69.5	0.0
2025-01-20 09:43:46.811476	349.5	14.7	-72.6	0.0
2025-01-20 09:43:47.938644	349.3	14.8	-68.9	0.0
2025-01-20 09:43:49.063852	349.1	14.9	-68.8	0.0
2025-01-20 09:43:50.189536	348.9	14.9	-67.1	0.0
2025-01-20 09:43:51.317914	348.7	15.0	-69.3	0.0
2025-01-20 09:43:52.443449	348.6	15.1	-68.4	0.0
2025-01-20 09:43:53.569862	348.4	15.2	-75.2	0.0
2025-01-20 09:43:54.696422	348.2	15.2	-77.9	0.0
2025-01-20 09:43:55.824374	348.0	15.3	-79.5	0.0
2025-01-20 09:43:56.951132	347.8	15.4	-79.5	0.0
2025-01-20 09:43:58.076503	347.6	15.5	-80.2	0.0
2025-01-20 09:43:59.203767	347.4	15.5	-79.6	0.0
2025-01-20 09:44:00.331184	347.2	15.6	-80.5	0.0
2025-01-20 09:44:01.455870	347.0	15.7	-80.6	0.0
2025-01-20 09:44:02.581856	346.9	15.7	-80.8	0.0
2025-01-20 09:44:03.707440	346.7	15.8	-80.8	0.0
2025-01-20 09:44:04.833858	346.5	15.9	-80.6	0.0
2025-01-20 09:44:05.960872	346.3	16.0	-80.5	0.0
2025-01-20 09:44:07.089599	346.1	16.0	-80.7	0.0
2025-01-20 09:44:08.215165	345.9	16.1	-80.7	0.0
2025-01-20 09:44:09.341314	345.7	16.2	-80.5	0.0
2025-01-20 09:44:10.467813	345.5	16.2	-80.5	0.0
2025-01-20 09:44:11.595196	345.3	16.3	-80.6	0.0
2025-01-20 09:44:12.721896	345.1	16.4	-80.7	0.0
2025-01-20 09:44:13.849684	344.9	16.5	-80.8	0.0
2025-01-20 09:44:14.975877	344.7	16.5	-80.4	0.0
2025-01-20 09:44:16.103058	344.5	16.6	-80.6	0.0
2025-01-20 09:44:17.227910	344.3	16.7	-81.0	0.0
2025-01-20 09:44:18.352873	344.0	16.7	-80.8	0.0
2025-01-20 09:44:19.476413	343.8	16.8	-80.4	0.0
2025-01-20 09:44:20.598661	343.6	16.9	-80.5	0.0
2025-01-20 09:44:21.723362	343.4	17.0	-81.1	0.0
2025-01-20 09:44:22.845900	343.2	17.0	-81.3	0.0
2025-01-20 09:44:23.969750	343.0	17.1	-81.2	0.0
2025-01-20 09:44:25.094833	342.8	17.2	-81.3	0.0
2025-01-20 09:44:26.217229	342.6	17.2	-81.2	0.0
2025-01-20 09:44:27.339107	342.4	17.3	-80.7	0.0
2025-01-20 09:44:28.461815	342.1	17.4	-81.0	0.0
2025-01-20 09:44:29.586074	341.9	17.4	-80.5	0.0
2025-01-20 09:44:30.707584	341.7	17.5	-80.6	0.0
2025-01-20 09:44:31.831997	341.5	17.6	-80.8	0.0
2025-01-20 09:44:32.956298	341.3	17.6	-81.1	0.0
2025-01-20 09:44:34.079722	341.1	17.7	-80.9	0.0
2025-01-20 09:44:35.205169	340.8	17.8	-81.0	0.0
2025-01-20 09:44:36.327316	340.6	17.8	-80.8	0.0
2025-01-20 09:44:37.451200	340.4	17.9	-80.7	0.0
2025-01-20 09:44:38.573469	340.2	18.0	-80.8	0.0
2025-01-20 09:44:39.697508	339.9	18.0	-80.9	0.0
2025-01-20 09:44:40.823219	339.7	18.1	-80.8	0.0
2025-01-20 09:44:41.943444	339.5	18.2	-80.8	0.0
2025-01-20 09:44:43.068797	339.3	18.2	-80.5	0.0
2025-01-20 09:44:44.192066	339.0	18.3	-80.7	0.0
2025-01-20 09:44:45.314294	338.8	18.4	-80.8	0.0
2025-01-20 09:44:46.437887	338.6	18.4	-80.8	0.0
2025-01-20 09:44:47.560712	338.3	18.5	-80.7	0.0
2025-01-20 09:44:48.684204	338.1	18.5	-78.3	0.0
2025-01-20 09:44:49.808014	337.9	18.6	-77.9	0.0
2025-01-20 09:44:50.931579	337.6	18.7	-76.2	0.0
2025-01-20 09:44:52.054232	337.4	18.7	-76.8	0.0
2025-01-20 09:44:53.175446	337.2	18.8	-72.8	0.0
2025-01-20 09:44:54.299162	336.9	18.9	-69.7	0.0
2025-01-20 09:44:55.422493	336.7	18.9	-74.0	0.0
2025-01-20 09:44:56.546403	336.4	19.0	-73.6	0.0
2025-01-20 09:44:57.669372	336.2	19.0	-71.6	0.0
2025-01-20 09:44:58.791699	336.0	19.1	-74.8	0.0
2025-01-20 09:44:59.916226	335.7	19.2	-74.3	0.0
2025-01-20 09:45:01.039208	335.5	19.2	-74.7	0.0
2025-01-20 09:45:02.164374	335.2	19.3	-74.9	0.0
2025-01-20 09:45:03.288937	335.0	19.3	-74.1	0.0
2025-01-20 09:45:04.411425	334.7	19.4	-74.1	0.0
2025-01-20 09:45:05.534039	334.5	19.4	-73.5	0.0
2025-01-20 09:45:06.658324	334.2	19.5	-74.8	0.0
2025-01-20 09:45:07.779989	334.0	19.6	-73.3	0.0
2025-01-20 09:45:08.903260	333.7	19.6	-73.8	0.0
2025-01-20 09:45:10.027409	333.5	19.7	-70.5	0.0
2025-01-20 09:45:11.150137	333.2	19.7	-73.1	0.0
2025-01-20 09:45:12.274011	333.0	19.8	-73.6	0.0
2025-01-20 09:45:13.397918	332.7	19.8	-75.0	0.0
2025-01-20 09:45:14.522567	332.5	19.9	-75.3	0.0
2025-01-20 09:45:15.649927	332.2	19.9	-74.8	0.0
2025-01-20 09:45:16.773889	332.0	20.0	-73.8	0.0
2025-01-20 09:45:17.896146	331.7	20.0	-74.2	0.0
2025-01-20 09:45:19.019304	331.5	20.1	-75.4	0.0
2025-01-20 09:45:20.142311	331.2	20.2	-75.1	0.0
2025-01-20 09:45:21.266906	330.9	20.2	-74.9	0.0
2025-01-20 09:45:22.392185	330.7	20.3	-76.2	0.0
2025-01-20 09:45:23.515895	330.4	20.3	-76.2	0.0
2025-01-20 09:45:24.637199	330.1	20.4	-75.4	0.0
2025-01-20 09:45:25.761947	329.9	20.4	-75.3	0.0
2025-01-20 09:45:26.885820	329.6	20.4	-74.7	0.0
2025-01-20 09:45:28.009635	329.4	20.5	-75.4	0.0
2025-01-20 09:45:29.133463	329.1	20.5	-75.2	0.0
2025-01-20 09:45:30.255903	328.8	20.6	-74.9	0.0
2025-01-20 09:45:31.377083	328.6	20.6	-75.7	0.0
2025-01-20 09:45:32.499611	328.3	20.7	-73.0	0.0
2025-01-20 09:45:33.624790	328.0	20.7	-73.1	0.0
2025-01-20 09:45:34.745475	327.8	20.8	-74.1	0.0
2025-01-20 09:45:35.868325	327.5	20.8	-75.0	0.0
2025-01-20 09:45:36.988387	327.2	20.9	-75.7	0.0
2025-01-20 09:45:38.108881	326.9	20.9	-74.8	0.0
2025-01-20 09:45:39.233446	326.7	20.9	-74.6	0.0
2025-01-20 09:45:40.355639	326.4	21.0	-75.7	0.0
2025-01-20 09:45:41.477504	326.1	21.0	-72.9	0.0
2025-01-20 09:45:42.602403	325.8	21.1	-73.0	0.0
2025-01-20 09:45:43.723976	325.6	21.1	-75.4	0.0
2025-01-20 09:45:44.848156	325.3	21.1	-75.1	0.0
2025-01-20 09:45:45.972301	325.0	21.2	-75.1	0.0
2025-01-20 09:45:47.096234	324.7	21.2	-74.2	0.0
2025-01-20 09:45:48.218083	324.5	21.2	-73.3	0.0
2025-01-20 09:45:49.342184	324.2	21.3	-71.6	0.0
2025-01-20 09:45:50.464857	323.9	21.3	-74.8	0.0
2025-01-20 09:45:51.589790	323.6	21.4	-73.9	0.0
2025-01-20 09:45:52.713257	323.3	21.4	-73.3	0.0
2025-01-20 09:45:53.836894	323.1	21.4	-72.7	0.0
2025-01-20 09:45:54.960627	322.8	21.5	-72.8	0.0
2025-01-20 09:45:56.083383	322.5	21.5	-73.6	0.0
2025-01-20 09:45:57.206901	322.2	21.5	-72.7	0.0
2025-01-20 09:45:58.329797	321.9	21.5	-74.4	0.0
2025-01-20 09:45:59.453703	321.6	21.6	-73.7	0.0
2025-01-20 09:46:00.576637	321.4	21.6	-74.0	0.0
2025-01-20 09:46:01.700406	321.1	21.6	-75.4	0.0
2025-01-20 09:46:02.823645	320.8	21.7	-73.5	0.0
2025-01-20 09:46:03.948891	320.5	21.7	-73.9	0.0
2025-01-20 09:46:05.071893	320.2	21.7	-73.5	0.0
2025-01-20 09:46:06.194258	319.9	21.7	-74.5	0.0
2025-01-20 09:46:07.319670	319.6	21.8	-74.7	0.0
2025-01-20 09:46:08.442280	319.4	21.8	-75.7	0.0
2025-01-20 09:46:09.567133	319.1	21.8	-76.0	0.0
2025-01-20 09:46:10.690645	318.8	21.8	-75.9	0.0
2025-01-20 09:46:11.813427	318.5	21.8	-76.4	0.0
2025-01-20 09:46:12.934731	318.2	21.9	-75.8	0.0
2025-01-20 09:46:14.061508	317.9	21.9	-76.1	0.0
2025-01-20 09:46:15.185124	317.6	21.9	-76.3	0.0
2025-01-20 09:46:16.308730	317.3	21.9	-75.1	0.0
2025-01-20 09:46:17.433189	317.0	21.9	-75.3	0.0
2025-01-20 09:46:18.556183	316.7	22.0	-75.7	0.0
2025-01-20 09:46:19.680214	316.4	22.0	-74.6	0.0
2025-01-20 09:46:20.805116	316.2	22.0	-76.0	0.0
2025-01-20 09:46:21.927362	315.9	22.0	-76.8	0.0
2025-01-20 09:46:23.051048	315.6	22.0	-76.5	0.0
2025-01-20 09:46:24.174891	315.3	22.0	-74.8	0.0
2025-01-20 09:46:25.298145	315.0	22.0	-75.3	0.0
2025-01-20 09:46:26.419610	314.7	22.1	-73.1	0.0
2025-01-20 09:46:27.542914	314.4	22.1	-75.5	0.0
2025-01-20 09:46:28.666728	314.1	22.1	-73.3	0.0
2025-01-20 09:46:29.787775	313.8	22.1	-72.4	0.0
2025-01-20 09:46:30.910363	313.5	22.1	-72.2	0.0
2025-01-20 09:46:32.032842	313.2	22.1	-72.9	0.0
2025-01-20 09:46:33.154551	312.9	22.1	-72.6	0.0
2025-01-20 09:46:34.278450	312.6	22.1	-74.7	0.0
2025-01-20 09:46:35.400866	312.3	22.1	-75.7	0.0
2025-01-20 09:46:36.525466	312.0	22.1	-75.6	0.0
2025-01-20 09:46:37.648120	311.8	22.1	-76.3	0.0
2025-01-20 09:46:38.772808	311.5	22.1	-76.6	0.0
2025-01-20 09:46:39.897289	311.2	22.1	-77.7	0.0
2025-01-20 09:46:41.019600	310.9	22.1	-76.7	0.0
2025-01-20 09:46:42.145106	310.6	22.1	-76.7	0.0
2025-01-20 09:46:43.266912	310.3	22.1	-77.0	0.0
2025-01-20 09:46:44.389053	310.0	22.1	-77.8	0.0
2025-01-20 09:46:45.511581	309.7	22.1	-77.6	0.0
2025-01-20 09:46:46.634361	309.4	22.1	-77.5	0.0
2025-01-20 09:46:47.758110	309.1	22.1	-78.0	0.0
2025-01-20 09:46:48.883073	308.8	22.1	-77.7	0.0
2025-01-20 09:46:50.005898	308.5	22.1	-78.1	0.0
2025-01-20 09:46:51.128926	308.2	22.1	-77.9	0.0
2025-01-20 09:46:52.251767	307.9	22.1	-78.1	0.0
2025-01-20 09:46:53.373439	307.6	22.1	-75.9	0.0
2025-01-20 09:46:54.496193	307.3	22.1	-74.9	0.0
2025-01-20 09:46:55.619339	307.0	22.1	-76.7	0.0
2025-01-20 09:46:56.742266	306.7	22.0	-78.3	0.0
2025-01-20 09:46:57.864435	306.5	22.0	-77.9	0.0
2025-01-20 09:46:58.988111	306.2	22.0	-77.0	0.0
2025-01-20 09:47:00.113297	305.9	22.0	-78.0	0.0
2025-01-20 09:47:01.239195	305.6	22.0	-76.2	0.0
2025-01-20 09:47:02.363883	305.3	22.0	-76.1	0.0
2025-01-20 09:47:03.487514	305.0	22.0	-78.1	0.0
2025-01-20 09:47:04.611449	304.7	22.0	-78.2	0.0
2025-01-20 09:47:05.735456	304.4	21.9	-77.1	0.0
2025-01-20 09:47:06.860164	304.1	21.9	-77.2	0.0
2025-01-20 09:47:07.983221	303.8	21.9	-77.8	0.0
2025-01-20 09:47:09.107320	303.5	21.9	-76.8	0.0
2025-01-20 09:47:10.230253	303.2	21.9	-77.7	0.0
2025-01-20 09:47:11.354830	303.0	21.8	-78.0	0.0
2025-01-20 09:47:12.477350	302.7	21.8	-77.6	0.0
2025-01-20 09:47:13.600337	302.4	21.8	-77.9	0.0
2025-01-20 09:47:14.723372	302.1	21.8	-78.0	0.0
2025-01-20 09:47:15.845015	301.8	21.7	-76.8	0.0
2025-01-20 09:47:16.970084	301.5	21.7	-78.0	0.0
2025-01-20 09:47:18.094014	301.2	21.7	-78.1	0.0
2025-01-20 09:47:19.218240	300.9	21.7	-77.2	0.0
2025-01-20 09:47:20.341004	300.7	21.6	-77.5	0.0
2025-01-20 09:47:21.465532	300.4	21.6	-76.6	0.0
2025-01-20 09:47:22.588422	300.1	21.6	-77.3	0.0
2025-01-20 09:47:23.708562	299.8	21.6	-77.5	0.0
2025-01-20 09:47:24.833158	299.5	21.5	-77.4	0.0
2025-01-20 09:47:25.956058	299.2	21.5	-77.6	0.0
2025-01-20 09:47:27.079920	299.0	21.5	-75.8	0.0
2025-01-20 09:47:28.202605	298.7	21.4	-77.0	0.0
2025-01-20 09:47:29.324796	298.4	21.4	-77.4	0.0
2025-01-20 09:47:30.449291	298.1	21.4	-76.9	0.0
2025-01-20 09:47:31.572419	297.8	21.3	-77.1	0.0
2025-01-20 09:47:32.695012	297.5	21.3	-77.3	0.0
2025-01-20 09:47:33.819113	297.3	21.3	-76.6	0.0
2025-01-20 09:47:34.941127	297.0	21.2	-76.9	0.0
2025-01-20 09:47:36.062871	296.7	21.2	-77.2	0.0
2025-01-20 09:47:37.186055	296.4	21.2	-77.6	0.0
2025-01-20 09:47:38.309321	296.2	21.1	-77.3	0.0
2025-01-20 09:47:39.431672	295.9	21.1	-77.0	0.0
2025-01-20 09:47:40.555743	295.6	21.0	-77.2	0.0
2025-01-20 09:47:41.678905	295.3	21.0	-77.3	0.0
2025-01-20 09:47:42.801804	295.1	21.0	-76.4	0.0
2025-01-20 09:47:43.924188	294.8	20.9	-77.0	0.0
2025-01-20 09:47:45.046695	294.5	20.9	-77.3	0.0
2025-01-20 09:47:46.170685	294.2	20.8	-76.6	0.0
2025-01-20 09:47:47.292475	294.0	20.8	-77.2	0.0
2025-01-20 09:47:48.416218	293.7	20.7	-76.8	0.0
2025-01-20 09:47:49.538865	293.4	20.7	-77.4	0.0
2025-01-20 09:47:50.662937	293.2	20.7	-77.7	0.0
2025-01-20 09:47:51.788029	292.9	20.6	-78.3	0.0
2025-01-20 09:47:52.913060	292.6	20.6	-77.7	0.0
2025-01-20 09:47:54.036720	292.4	20.5	-78.2	0.0
2025-01-20 09:47:55.158035	292.1	20.5	-78.1	0.0
2025-01-20 09:47:56.280413	291.8	20.4	-78.0	0.0
2025-01-20 09:47:57.403392	291.6	20.4	-78.1	0.0
2025-01-20 09:47:58.527473	291.3	20.3	-77.8	0.0
2025-01-20 09:47:59.652837	291.0	20.3	-77.9	0.0
2025-01-20 09:48:00.777280	290.8	20.2	-78.0	0.0
2025-01-20 09:48:01.901686	290.5	20.2	-78.4	0.0
2025-01-20 09:48:03.024988	290.3	20.1	-76.5	0.0
2025-01-20 09:48:04.148481	290.0	20.1	-78.3	0.0
2025-01-20 09:48:05.271293	289.7	20.0	-77.0	0.0
2025-01-20 09:48:06.392401	289.5	20.0	-77.2	0.0
2025-01-20 09:48:07.516426	289.2	19.9	-78.5	0.0
2025-01-20 09:48:08.639295	289.0	19.9	-78.4	0.0
2025-01-20 09:48:09.764276	288.7	19.8	-77.8	0.0
2025-01-20 09:48:10.889352	288.5	19.8	-78.0	0.0
2025-01-20 09:48:12.015412	288.2	19.7	-79.1	0.0
2025-01-20 09:48:13.140868	288.0	19.6	-78.8	0.0
2025-01-20 09:48:14.264225	287.7	19.6	-78.6	0.0
2025-01-20 09:48:15.385541	287.5	19.5	-79.1	0.0
2025-01-20 09:48:16.510580	287.2	19.5	-79.2	0.0
2025-01-20 09:48:17.632184	287.0	19.4	-79.1	0.0
2025-01-20 09:48:18.756982	286.7	19.4	-77.6	0.0
2025-01-20 09:48:19.877964	286.5	19.3	-78.3	0.0
2025-01-20 09:48:21.001866	286.2	19.2	-79.5	0.0
2025-01-20 09:48:22.127674	286.0	19.2	-79.2	0.0
2025-01-20 09:48:23.250889	285.7	19.1	-79.4	0.0
2025-01-20 09:48:24.372405	285.5	19.1	-79.5	0.0
2025-01-20 09:48:25.497450	285.3	19.0	-79.6	0.0
2025-01-20 09:48:26.620634	285.0	18.9	-79.3	0.0
2025-01-20 09:48:27.746763	284.8	18.9	-79.1	0.0
2025-01-20 09:48:28.872986	284.5	18.8	-79.2	0.0
2025-01-20 09:48:29.996601	284.3	18.8	-79.1	0.0
2025-01-20 09:48:31.119149	284.1	18.7	-78.8	0.0
2025-01-20 09:48:32.241869	283.8	18.6	-78.9	0.0
2025-01-20 09:48:33.366582	283.6	18.6	-78.9	0.0
2025-01-20 09:48:34.488143	283.4	18.5	-78.6	0.0
2025-01-20 09:48:35.611966	283.1	18.5	-79.1	0.0
2025-01-20 09:48:36.737037	282.9	18.4	-78.8	0.0
2025-01-20 09:48:37.861000	282.7	18.3	-78.8	0.0
2025-01-20 09:48:38.985517	282.4	18.3	-79.6	0.0
2025-01-20 09:48:40.107223	282.2	18.2	-79.6	0.0
2025-01-20 09:48:41.230732	282.0	18.1	-79.7	0.0
2025-01-20 09:48:42.354079	281.8	18.1	-79.1	0.0
2025-01-20 09:48:43.476368	281.5	18.0	-79.9	0.0
2025-01-20 09:48:44.599686	281.3	17.9	-79.6	0.0
2025-01-20 09:48:45.722312	281.1	17.9	-79.6	0.0
2025-01-20 09:48:46.846210	280.9	17.8	-79.4	0.0
2025-01-20 09:48:47.969000	280.6	17.7	-79.7	0.0
2025-01-20 09:48:49.093447	280.4	17.7	-79.5	0.0
2025-01-20 09:48:50.216983	280.2	17.6	-79.7	0.0
2025-01-20 09:48:51.340157	280.0	17.5	-78.7	0.0
2025-01-20 09:48:52.464692	279.8	17.5	-79.1	0.0
2025-01-20 09:48:53.587529	279.6	17.4	-79.8	0.0
2025-01-20 09:48:54.710605	279.3	17.3	-79.5	0.0
2025-01-20 09:48:55.833327	279.1	17.3	-79.2	0.0
2025-01-20 09:48:56.957963	278.9	17.2	-79.0	0.0
2025-01-20 09:48:58.081676	278.7	17.1	-79.6	0.0
2025-01-20 09:48:59.206863	278.5	17.1	-79.7	0.0
2025-01-20 09:49:00.329446	278.3	17.0	-79.4	0.0
2025-01-20 09:49:01.453066	278.1	16.9	-79.5	0.0
2025-01-20 09:49:02.577259	277.8	16.8	-79.4	0.0
2025-01-20 09:49:03.700953	277.6	16.8	-79.4	0.0
2025-01-20 09:49:04.825295	277.4	16.7	-79.3	0.0
2025-01-20 09:49:05.947286	277.2	16.6	-79.5	0.0
2025-01-20 09:49:07.070673	277.0	16.6	-79.4	0.0
2025-01-20 09:49:08.194171	276.8	16.5	-79.8	0.0
2025-01-20 09:49:09.317313	276.6	16.4	-79.4	0.0
2025-01-20 09:49:10.442157	276.4	16.4	-79.2	0.0
2025-01-20 09:49:11.564419	276.2	16.3	-79.4	0.0
2025-01-20 09:49:12.689122	276.0	16.2	-79.6	0.0
2025-01-20 09:49:13.811572	275.8	16.1	-79.0	0.0
2025-01-20 09:49:14.936441	275.6	16.1	-79.3	0.0
2025-01-20 09:49:16.058854	275.4	16.0	-79.7	0.0
2025-01-20 09:49:17.181903	275.2	15.9	-80.0	0.0
2025-01-20 09:49:18.304604	275.0	15.9	-79.6	0.0
2025-01-20 09:49:19.429831	274.8	15.8	-79.9	0.0
2025-01-20 09:49:20.553923	274.6	15.7	-80.0	0.0
2025-01-20 09:49:21.674618	274.4	15.6	-80.0	0.0
2025-01-20 09:49:22.799451	274.3	15.6	-80.0	0.0
2025-01-20 09:49:23.924050	274.1	15.5	-79.8	0.0
2025-01-20 09:49:25.047365	273.9	15.4	-79.9	0.0
2025-01-20 09:49:26.170870	273.7	15.4	-79.6	0.0
2025-01-20 09:49:27.295220	273.5	15.3	-79.9	0.0
2025-01-20 09:49:28.419753	273.3	15.2	-79.7	0.0
2025-01-20 09:49:29.543730	273.1	15.1	-80.1	0.0
2025-01-20 09:49:30.666875	272.9	15.1	-79.9	0.0
2025-01-20 09:49:31.789839	272.7	15.0	-79.8	0.0
2025-01-20 09:49:32.914287	272.6	14.9	-79.3	0.0
2025-01-20 09:49:34.036095	272.4	14.8	-79.8	0.0
2025-01-20 09:49:35.160296	272.2	14.8	-79.4	0.0
2025-01-20 09:49:36.281611	272.0	14.7	-79.9	0.0
2025-01-20 09:49:37.404213	271.8	14.6	-80.2	0.0
2025-01-20 09:49:38.529222	271.7	14.5	-80.0	0.0
2025-01-20 09:49:39.650723	271.5	14.5	-79.9	0.0
2025-01-20 09:49:40.772845	271.3	14.4	-79.7	0.0
2025-01-20 09:49:41.896384	271.1	14.3	-80.0	0.0
2025-01-20 09:49:43.018210	271.0	14.3	-79.8	0.0
2025-01-20 09:49:44.142285	270.8	14.2	-80.2	0.0
2025-01-20 09:49:45.265024	270.6	14.1	-80.3	0.0
2025-01-20 09:49:46.388751	270.4	14.0	-80.1	0.0
2025-01-20 09:49:47.513239	270.3	14.0	-79.9	0.0
2025-01-20 09:49:48.634782	270.1	13.9	-79.8	0.0
2025-01-20 09:49:49.758438	269.9	13.8	-80.0	0.0
2025-01-20 09:49:50.880875	269.7	13.7	-79.9	0.0
2025-01-20 09:49:52.003088	269.6	13.7	-79.8	0.0
2025-01-20 09:49:53.125663	269.4	13.6	-80.2	0.0
2025-01-20 09:49:54.250372	269.2	13.5	-79.7	0.0
2025-01-20 09:49:55.374258	269.1	13.4	-79.9	0.0
2025-01-20 09:49:56.499252	268.9	13.4	-79.3	0.0
2025-01-20 09:49:57.622768	268.7	13.3	-79.2	0.0
2025-01-20 09:49:58.747282	268.6	13.2	-79.7	0.0
2025-01-20 09:49:59.870126	268.4	13.1	-79.7	0.0
2025-01-20 09:50:00.993836	268.3	13.1	-79.1	0.0
2025-01-20 09:50:02.116989	268.1	13.0	-79.6	0.0
2025-01-20 09:50:03.238067	267.9	12.9	-79.4	0.0
2025-01-20 09:50:04.359969	267.8	12.8	-78.8	0.0
2025-01-20 09:50:05.483272	267.6	12.8	-77.8	0.0
2025-01-20 09:50:06.604510	267.5	12.7	-79.4	0.0
2025-01-20 09:50:07.727873	267.3	12.6	-79.3	0.0
2025-01-20 09:50:08.851318	267.1	12.6	-79.2	0.0
2025-01-20 09:50:09.973474	267.0	12.5	-79.5	0.0
2025-01-20 09:50:11.097822	266.8	12.4	-79.5	0.0
2025-01-20 09:50:12.219420	266.7	12.3	-78.6	0.0
2025-01-20 09:50:13.345825	266.5	12.3	-79.1	0.0
2025-01-20 09:50:14.469162	266.4	12.2	-79.6	0.0
2025-01-20 09:50:15.592160	266.2	12.1	-78.9	0.0
2025-01-20 09:50:16.715939	266.1	12.0	-78.9	0.0
2025-01-20 09:50:17.838667	265.9	12.0	-79.0	0.0
2025-01-20 09:50:18.965204	265.8	11.9	-79.1	0.0
2025-01-20 09:50:20.089215	265.6	11.8	-78.9	0.0
2025-01-20 09:50:21.210501	265.5	11.7	-78.7	0.0
2025-01-20 09:50:22.333003	265.3	11.7	-78.8	0.0
2025-01-20 09:50:23.455175	265.2	11.6	-78.8	0.0
2025-01-20 09:50:24.579267	265.0	11.5	-79.2	0.0
2025-01-20 09:50:25.703844	264.9	11.4	-78.4	0.0
2025-01-20 09:50:26.828653	264.8	11.4	-78.6	0.0
2025-01-20 09:50:27.952280	264.6	11.3	-78.1	0.0
2025-01-20 09:50:29.073863	264.5	11.2	-78.5	0.0
2025-01-20 09:50:30.197258	264.3	11.1	-77.9	0.0
2025-01-20 09:50:31.320798	264.2	11.1	-78.4	0.0
2025-01-20 09:50:32.442997	264.0	11.0	-79.7	0.0
2025-01-20 09:50:33.567263	263.9	10.9	-80.0	0.0
2025-01-20 09:50:34.691455	263.8	10.9	-79.5	0.0
2025-01-20 09:50:35.812472	263.6	10.8	-79.7	0.0
2025-01-20 09:50:36.933169	263.5	10.7	-79.8	0.0
2025-01-20 09:50:38.057754	263.3	10.6	-80.5	0.0
2025-01-20 09:50:39.179955	263.2	10.6	-81.0	0.0
2025-01-20 09:50:40.302121	263.1	10.5	-81.8	0.0
2025-01-20 09:50:41.423504	262.9	10.4	-82.2	0.0
2025-01-20 09:50:42.546525	262.8	10.3	-82.1	0.0
2025-01-20 09:50:43.671311	262.7	10.3	-82.1	0.0
2025-01-20 09:50:44.793167	262.5	10.2	-81.7	0.0
2025-01-20 09:50:45.917334	262.4	10.1	-81.5	0.0
2025-01-20 09:50:47.040406	262.3	10.1	-81.6	0.0
#Closed at: 2025-01-20 09:42:29.966364