passes_logs/2025/01/20/planumMaritime01/planumMaritime01__20250120_195917_NOAA_18_rec.log

#Pass ID: 20250120_195917_NOAA 18
#Satellite: NOAA 18
#Configuration: NOAA 18
#Start time: 2025-01-20 19:59:22.765345

#LorettStation: 1.0.0 05.05.2024
#Station: planumMaritime01
#Location: 37.49445 lon 55.92918 lat
#TLE: 1 28654U 05018A   25020.18862715  .00000449  00000+0  26167-3 0  9997
#TLE: 2 28654  98.8558 101.1913 0014575 164.8261 195.3351 14.13491567 13918

#Time	Az	El	Level	SNR
2025-01-20 19:59:24.928148	186.0	10.2	-77.8	0.0
2025-01-20 19:59:27.173653	186.2	10.4	-77.5	0.0
2025-01-20 19:59:29.420541	186.3	10.6	-77.9	0.0
2025-01-20 19:59:31.666173	186.4	10.7	-77.4	0.0
2025-01-20 19:59:33.913690	186.5	10.9	-77.4	0.0
2025-01-20 19:59:36.160809	186.7	11.1	-77.9	0.0
2025-01-20 19:59:38.406738	186.8	11.3	-77.8	0.0
2025-01-20 19:59:40.654102	186.9	11.5	-77.9	0.0
2025-01-20 19:59:42.900338	187.1	11.7	-77.9	0.0
2025-01-20 19:59:45.144705	187.2	11.9	-77.2	0.0
2025-01-20 19:59:47.394419	187.4	12.1	-77.7	0.0
2025-01-20 19:59:49.641286	187.5	12.3	-77.7	0.0
2025-01-20 19:59:51.890803	187.7	12.5	-77.6	0.0
2025-01-20 19:59:54.138528	187.8	12.7	-77.5	0.0
2025-01-20 19:59:56.381219	187.9	12.9	-77.2	0.0
2025-01-20 19:59:58.628255	188.1	13.1	-77.1	0.0
2025-01-20 20:00:00.869283	188.3	13.3	-77.1	0.0
2025-01-20 20:00:03.115455	188.4	13.5	-77.3	0.0
2025-01-20 20:00:05.361530	188.6	13.7	-77.2	0.0
2025-01-20 20:00:07.607012	188.7	13.9	-77.2	0.0
2025-01-20 20:00:09.855119	188.9	14.2	-76.8	0.0
2025-01-20 20:00:12.103421	189.0	14.4	-76.9	0.0
2025-01-20 20:00:14.350234	189.2	14.6	-76.9	0.0
2025-01-20 20:00:16.597637	189.4	14.8	-77.1	0.0
2025-01-20 20:00:18.842561	189.5	15.0	-76.9	0.0
2025-01-20 20:00:21.091031	189.7	15.2	-77.1	0.0
2025-01-20 20:00:23.339434	189.9	15.5	-76.9	0.0
2025-01-20 20:00:25.584403	190.1	15.7	-76.6	0.0
2025-01-20 20:00:27.831293	190.2	15.9	-77.0	0.0
2025-01-20 20:00:30.078863	190.4	16.1	-76.7	0.0
2025-01-20 20:00:32.326025	190.6	16.4	-77.0	0.0
2025-01-20 20:00:34.570105	190.8	16.6	-76.6	0.0
2025-01-20 20:00:36.816289	191.0	16.8	-76.6	0.0
2025-01-20 20:00:39.066613	191.2	17.1	-76.6	0.0
2025-01-20 20:00:41.310572	191.4	17.3	-76.3	0.0
2025-01-20 20:00:43.555110	191.6	17.6	-76.0	0.0
2025-01-20 20:00:45.800232	191.8	17.8	-76.3	0.0
2025-01-20 20:00:48.045747	192.0	18.0	-76.2	0.0
2025-01-20 20:00:50.289636	192.2	18.3	-76.6	0.0
2025-01-20 20:00:52.535236	192.4	18.5	-76.4	0.0
2025-01-20 20:00:54.782772	192.6	18.8	-76.3	0.0
2025-01-20 20:00:57.028914	192.8	19.0	-76.2	0.0
2025-01-20 20:00:59.273136	193.1	19.3	-75.6	0.0
2025-01-20 20:01:01.521470	193.3	19.6	-76.1	0.0
2025-01-20 20:01:03.769274	193.5	19.8	-76.5	0.0
2025-01-20 20:01:06.014960	193.7	20.1	-75.9	0.0
2025-01-20 20:01:08.262862	194.0	20.3	-76.2	0.0
2025-01-20 20:01:10.510334	194.2	20.6	-76.2	0.0
2025-01-20 20:01:12.753891	194.5	20.9	-76.0	0.0
2025-01-20 20:01:15.001533	194.7	21.1	-76.6	0.0
2025-01-20 20:01:17.246450	195.0	21.4	-75.7	0.0
2025-01-20 20:01:19.495535	195.2	21.7	-75.9	0.0
2025-01-20 20:01:21.742687	195.5	22.0	-76.0	0.0
2025-01-20 20:01:23.988020	195.8	22.3	-76.3	0.0
2025-01-20 20:01:26.233693	196.0	22.5	-76.0	0.0
2025-01-20 20:01:28.478401	196.3	22.8	-75.8	0.0
2025-01-20 20:01:30.726251	196.6	23.1	-76.1	0.0
2025-01-20 20:01:32.972994	196.9	23.4	-76.7	0.0
2025-01-20 20:01:35.221273	197.2	23.7	-75.6	0.0
2025-01-20 20:01:37.469846	197.5	24.0	-75.8	0.0
2025-01-20 20:01:39.714509	197.8	24.3	-76.0	0.0
2025-01-20 20:01:41.960512	198.1	24.6	-76.3	0.0
2025-01-20 20:01:44.207341	198.4	24.9	-76.0	0.0
2025-01-20 20:01:46.452008	198.7	25.2	-76.2	0.0
2025-01-20 20:01:48.698425	199.0	25.5	-76.3	0.0
2025-01-20 20:01:50.944703	199.4	25.8	-76.5	0.0
2025-01-20 20:01:53.189117	199.7	26.1	-76.6	0.0
2025-01-20 20:01:55.435665	200.0	26.4	-76.4	0.0
2025-01-20 20:01:57.682759	200.4	26.8	-76.4	0.0
2025-01-20 20:01:59.928623	200.7	27.1	-76.4	0.0
2025-01-20 20:02:02.173839	201.1	27.4	-77.0	0.0
2025-01-20 20:02:04.420187	201.5	27.7	-77.3	0.0
2025-01-20 20:02:06.668161	201.9	28.1	-77.1	0.0
2025-01-20 20:02:08.915857	202.2	28.4	-76.9	0.0
2025-01-20 20:02:11.162082	202.6	28.7	-77.3	0.0
2025-01-20 20:02:13.409246	203.0	29.1	-77.6	0.0
2025-01-20 20:02:15.657481	203.5	29.4	-78.2	0.0
2025-01-20 20:02:17.904357	203.9	29.7	-77.3	0.0
2025-01-20 20:02:20.151757	204.3	30.1	-77.5	0.0
2025-01-20 20:02:22.396291	204.7	30.4	-77.8	0.0
2025-01-20 20:02:24.643545	205.2	30.8	-77.5	0.0
2025-01-20 20:02:26.889848	205.7	31.1	-78.3	0.0
2025-01-20 20:02:29.135827	206.1	31.5	-78.1	0.0
2025-01-20 20:02:31.384556	206.6	31.8	-77.9	0.0
2025-01-20 20:02:33.632114	207.1	32.2	-78.6	0.0
2025-01-20 20:02:35.875029	207.6	32.6	-77.9	0.0
2025-01-20 20:02:38.120286	208.1	32.9	-78.6	0.0
2025-01-20 20:02:40.365519	208.6	33.3	-78.7	0.0
2025-01-20 20:02:42.611350	209.1	33.6	-78.8	0.0
2025-01-20 20:02:44.857837	209.7	34.0	-79.0	0.2
2025-01-20 20:02:47.105007	210.2	34.4	-79.3	0.0
2025-01-20 20:02:49.351168	210.8	34.8	-79.5	0.5
2025-01-20 20:02:51.598432	211.4	35.1	-79.2	0.5
2025-01-20 20:02:53.846268	212.0	35.5	-79.3	1.1
2025-01-20 20:02:56.095605	212.6	35.9	-79.5	2.6
2025-01-20 20:02:58.341818	213.2	36.2	-79.4	2.7
2025-01-20 20:03:00.583855	213.8	36.6	-79.7	2.5
2025-01-20 20:03:02.826216	214.5	37.0	-79.8	2.3
2025-01-20 20:03:05.071920	215.1	37.4	-79.9	3.3
2025-01-20 20:03:07.321550	215.8	37.7	-80.0	2.2
2025-01-20 20:03:09.566458	216.5	38.1	-79.8	2.8
2025-01-20 20:03:11.812651	217.2	38.5	-80.3	2.0
2025-01-20 20:03:14.057443	218.0	38.8	-80.6	2.1
2025-01-20 20:03:16.302900	218.7	39.2	-80.3	3.0
2025-01-20 20:03:18.547437	219.5	39.6	-80.4	3.5
2025-01-20 20:03:20.795119	220.2	40.0	-80.5	4.1
2025-01-20 20:03:23.040360	221.0	40.3	-80.2	4.2
2025-01-20 20:03:25.285143	221.8	40.7	-80.4	0.0
2025-01-20 20:03:27.532206	222.7	41.0	-80.7	4.0
2025-01-20 20:03:29.778251	223.5	41.4	-80.1	3.7
2025-01-20 20:03:32.024184	224.4	41.7	-80.2	5.0
2025-01-20 20:03:34.271047	225.3	42.1	-80.0	4.8
2025-01-20 20:03:36.520301	226.2	42.4	-79.7	6.5
2025-01-20 20:03:38.772273	227.1	42.8	-79.8	6.6
2025-01-20 20:03:41.019413	228.0	43.1	-79.7	6.1
2025-01-20 20:03:43.265317	229.0	43.4	-79.9	6.6
2025-01-20 20:03:45.513976	230.0	43.8	-79.8	6.1
2025-01-20 20:03:47.764915	231.0	44.1	-79.9	7.0
2025-01-20 20:03:50.013160	232.0	44.4	-80.1	6.8
2025-01-20 20:03:52.259541	233.0	44.7	-80.1	7.1
2025-01-20 20:03:54.505571	234.1	45.0	-80.0	6.2
2025-01-20 20:03:56.748337	235.2	45.3	-79.7	6.5
2025-01-20 20:03:58.990439	236.3	45.5	-80.0	6.6
2025-01-20 20:04:01.234561	237.4	45.8	-80.0	6.2
2025-01-20 20:04:03.481282	238.5	46.1	-80.0	6.8
2025-01-20 20:04:05.730946	239.7	46.3	-79.9	7.0
2025-01-20 20:04:07.977539	240.8	46.5	-80.0	8.1
2025-01-20 20:04:10.218647	242.0	46.8	-79.9	8.7
2025-01-20 20:04:12.462302	243.2	47.0	-79.2	8.6
2025-01-20 20:04:14.710131	244.4	47.2	-79.2	8.2
2025-01-20 20:04:16.956563	245.7	47.3	-79.8	8.4
2025-01-20 20:04:19.203437	246.9	47.5	-79.2	7.2
2025-01-20 20:04:21.451734	248.2	47.7	-79.6	8.1
2025-01-20 20:04:23.697748	249.4	47.8	-79.5	7.6
2025-01-20 20:04:25.944075	250.7	47.9	-77.9	0.0
2025-01-20 20:04:28.190299	252.0	48.0	-79.3	8.3
2025-01-20 20:04:30.438699	253.3	48.1	-79.4	7.8
2025-01-20 20:04:32.683293	254.6	48.2	-79.7	7.6
2025-01-20 20:04:34.928560	255.9	48.3	-79.2	6.7
2025-01-20 20:04:37.175502	257.3	48.3	-79.4	6.1
2025-01-20 20:04:39.420103	258.6	48.4	-79.8	7.4
2025-01-20 20:04:41.665978	259.9	48.4	-78.7	0.9
2025-01-20 20:04:43.912240	261.2	48.4	-79.9	7.0
2025-01-20 20:04:46.156259	262.5	48.4	-80.1	7.6
2025-01-20 20:04:48.400810	263.9	48.3	-79.8	6.3
2025-01-20 20:04:50.650061	265.2	48.3	-79.9	6.5
2025-01-20 20:04:52.899885	266.5	48.2	-80.2	5.5
2025-01-20 20:04:55.145098	267.8	48.1	-80.2	5.0
2025-01-20 20:04:57.389512	269.1	48.0	-79.9	0.0
2025-01-20 20:04:59.635807	270.4	47.9	-79.9	5.1
2025-01-20 20:05:01.881091	271.7	47.8	-80.0	4.7
2025-01-20 20:05:04.128665	272.9	47.7	-78.9	3.8
2025-01-20 20:05:06.373509	274.2	47.5	-79.2	3.4
2025-01-20 20:05:08.622142	275.4	47.3	-80.3	4.9
2025-01-20 20:05:10.867879	276.7	47.2	-79.7	4.6
2025-01-20 20:05:13.113393	277.9	47.0	-78.4	0.0
2025-01-20 20:05:15.358560	279.1	46.7	-79.8	4.8
2025-01-20 20:05:17.602631	280.3	46.5	-79.7	4.9
2025-01-20 20:05:19.847698	281.4	46.3	-79.6	3.7
2025-01-20 20:05:22.095446	282.6	46.1	-79.7	3.7
2025-01-20 20:05:24.346165	283.7	45.8	-79.6	2.4
2025-01-20 20:05:26.593001	284.8	45.5	-79.1	1.5
2025-01-20 20:05:28.839399	285.9	45.3	-79.6	2.4
2025-01-20 20:05:31.084170	287.0	45.0	-79.5	2.0
2025-01-20 20:05:33.327659	288.1	44.7	-79.6	0.6
2025-01-20 20:05:35.574154	289.1	44.4	-79.3	0.4
2025-01-20 20:05:37.819337	290.1	44.1	-80.0	0.0
2025-01-20 20:05:40.066503	291.1	43.8	-79.2	0.0
2025-01-20 20:05:42.310996	292.1	43.4	-80.0	0.0
2025-01-20 20:05:44.555980	293.1	43.1	-79.8	0.0
2025-01-20 20:05:46.801496	294.0	42.8	-80.0	0.0
2025-01-20 20:05:49.048962	294.9	42.4	-80.2	0.0
2025-01-20 20:05:51.291198	295.8	42.1	-79.8	0.0
2025-01-20 20:05:53.542039	296.7	41.7	-80.0	0.0
2025-01-20 20:05:55.786944	297.6	41.4	-80.3	0.0
2025-01-20 20:05:58.032316	298.4	41.0	-80.5	0.0
2025-01-20 20:06:00.281589	299.3	40.7	-79.5	0.0
2025-01-20 20:06:02.527676	300.1	40.3	-79.2	0.0
2025-01-20 20:06:04.774396	300.9	40.0	-78.8	0.0
2025-01-20 20:06:07.020476	301.6	39.6	-79.2	0.0
2025-01-20 20:06:09.263883	302.4	39.2	-79.7	0.0
2025-01-20 20:06:11.512245	303.1	38.8	-79.7	0.0
2025-01-20 20:06:13.758438	303.9	38.5	-78.9	0.0
2025-01-20 20:06:16.005976	304.6	38.1	-80.0	0.0
2025-01-20 20:06:18.253262	305.3	37.7	-79.9	0.0
2025-01-20 20:06:20.502193	305.9	37.4	-79.2	0.0
2025-01-20 20:06:22.746825	306.6	37.0	-80.2	0.0
2025-01-20 20:06:24.993178	307.2	36.6	-78.4	0.0
2025-01-20 20:06:27.239759	307.9	36.2	-79.7	0.0
2025-01-20 20:06:29.485012	308.5	35.9	-79.3	0.0
2025-01-20 20:06:31.731438	309.1	35.5	-77.7	0.0
2025-01-20 20:06:33.975219	309.7	35.1	-78.8	0.0
2025-01-20 20:06:36.226479	310.3	34.8	-79.4	0.0
2025-01-20 20:06:38.473432	310.8	34.4	-79.3	0.0
2025-01-20 20:06:40.717067	311.4	34.0	-79.1	0.0
2025-01-20 20:06:42.963511	311.9	33.7	-78.9	0.0
2025-01-20 20:06:45.212278	312.5	33.3	-79.7	0.0
2025-01-20 20:06:47.458125	313.0	32.9	-77.1	0.0
2025-01-20 20:06:49.699814	313.5	32.6	-79.0	0.0
2025-01-20 20:06:51.944399	314.0	32.2	-77.4	0.0
2025-01-20 20:06:54.190265	314.5	31.9	-75.1	0.0
2025-01-20 20:06:56.440634	315.0	31.5	-74.3	0.0
2025-01-20 20:06:58.688150	315.4	31.2	-76.4	0.0
2025-01-20 20:07:00.933614	315.9	30.8	-75.1	0.0
2025-01-20 20:07:03.179173	316.3	30.5	-76.3	0.0
2025-01-20 20:07:05.425264	316.8	30.1	-77.1	0.0
2025-01-20 20:07:07.673009	317.2	29.8	-77.2	0.0
2025-01-20 20:07:09.920585	317.6	29.4	-77.2	0.0
2025-01-20 20:07:12.165632	318.0	29.1	-77.1	0.0
2025-01-20 20:07:14.413522	318.4	28.8	-76.7	0.0
2025-01-20 20:07:16.661696	318.8	28.4	-76.9	0.0
2025-01-20 20:07:18.906797	319.2	28.1	-77.7	0.0
2025-01-20 20:07:21.154938	319.6	27.8	-75.3	0.0
2025-01-20 20:07:23.400377	320.0	27.4	-72.2	0.0
2025-01-20 20:07:25.645968	320.3	27.1	-73.0	0.0
2025-01-20 20:07:27.892881	320.7	26.8	-74.7	0.0
2025-01-20 20:07:30.136047	321.1	26.5	-77.0	0.0
2025-01-20 20:07:32.382242	321.4	26.2	-74.9	0.0
2025-01-20 20:07:34.629647	321.7	25.8	-76.9	0.0
2025-01-20 20:07:36.876319	322.1	25.5	-78.7	0.0
2025-01-20 20:07:39.123524	322.4	25.2	-78.3	0.0
2025-01-20 20:07:41.369920	322.7	24.9	-78.2	0.0
2025-01-20 20:07:43.616138	323.0	24.6	-79.0	0.0
2025-01-20 20:07:45.862352	323.3	24.3	-78.8	0.0
2025-01-20 20:07:48.107274	323.6	24.0	-78.3	0.0
2025-01-20 20:07:50.352483	323.9	23.7	-79.2	0.0
2025-01-20 20:07:52.600793	324.2	23.4	-77.4	0.0
2025-01-20 20:07:54.846195	324.5	23.1	-78.7	0.0
2025-01-20 20:07:57.095134	324.8	22.9	-78.2	0.0
2025-01-20 20:07:59.341436	325.1	22.6	-76.5	0.0
2025-01-20 20:08:01.588099	325.3	22.3	-77.0	0.0
2025-01-20 20:08:03.834148	325.6	22.0	-77.3	0.0
2025-01-20 20:08:06.078490	325.9	21.7	-77.1	0.0
2025-01-20 20:08:08.322623	326.1	21.5	-75.8	0.0
2025-01-20 20:08:10.569512	326.4	21.2	-75.2	0.0
2025-01-20 20:08:12.814423	326.6	20.9	-73.0	0.0
2025-01-20 20:08:15.061009	326.9	20.6	-76.8	0.0
2025-01-20 20:08:17.311121	327.1	20.4	-74.2	0.0
2025-01-20 20:08:19.558997	327.4	20.1	-76.9	0.0
2025-01-20 20:08:21.803875	327.6	19.9	-73.3	0.0
2025-01-20 20:08:24.049500	327.8	19.6	-75.0	0.0
2025-01-20 20:08:26.295032	328.1	19.3	-76.2	0.0
2025-01-20 20:08:28.539456	328.3	19.1	-74.4	0.0
2025-01-20 20:08:30.787216	328.5	18.8	-76.2	0.0
2025-01-20 20:08:33.033171	328.7	18.6	-75.6	0.0
2025-01-20 20:08:35.281433	328.9	18.3	-74.9	0.0
2025-01-20 20:08:37.528541	329.1	18.1	-73.4	0.0
2025-01-20 20:08:39.772352	329.3	17.8	-73.4	0.0
2025-01-20 20:08:42.018235	329.5	17.6	-73.6	0.0
2025-01-20 20:08:44.262061	329.7	17.4	-74.4	0.0
2025-01-20 20:08:46.507917	329.9	17.1	-73.4	0.0
2025-01-20 20:08:48.752313	330.1	16.9	-76.1	0.0
2025-01-20 20:08:50.997837	330.3	16.7	-75.2	0.0
2025-01-20 20:08:53.242984	330.5	16.4	-76.3	0.0
2025-01-20 20:08:55.488199	330.7	16.2	-68.9	0.0
2025-01-20 20:08:57.732782	330.9	16.0	-75.8	0.0
2025-01-20 20:08:59.979309	331.1	15.7	-73.0	0.0
2025-01-20 20:09:02.224230	331.3	15.5	-70.3	0.0
2025-01-20 20:09:04.469941	331.4	15.3	-75.1	0.0
2025-01-20 20:09:06.716112	331.6	15.1	-70.3	0.0
2025-01-20 20:09:08.960815	331.8	14.9	-75.6	0.0
2025-01-20 20:09:11.206328	331.9	14.6	-69.7	0.0
2025-01-20 20:09:13.450942	332.1	14.4	-69.2	0.0
2025-01-20 20:09:15.695460	332.3	14.2	-75.0	0.0
2025-01-20 20:09:17.937777	332.4	14.0	-75.8	0.0
2025-01-20 20:09:20.183239	332.6	13.8	-74.9	0.0
2025-01-20 20:09:22.432598	332.8	13.6	-72.1	0.0
2025-01-20 20:09:24.681234	332.9	13.4	-75.2	0.0
2025-01-20 20:09:26.923294	333.1	13.2	-74.1	0.0
2025-01-20 20:09:29.168916	333.2	13.0	-75.5	0.0
2025-01-20 20:09:31.413342	333.4	12.8	-74.3	0.0
2025-01-20 20:09:33.659131	333.5	12.6	-75.9	0.0
2025-01-20 20:09:35.901242	333.7	12.4	-76.2	0.0
2025-01-20 20:09:38.148721	333.8	12.2	-73.4	0.0
2025-01-20 20:09:40.396091	333.9	12.0	-74.3	0.0
2025-01-20 20:09:42.642276	334.1	11.8	-74.9	0.0
2025-01-20 20:09:44.888573	334.2	11.6	-70.1	0.0
2025-01-20 20:09:47.134738	334.4	11.4	-74.8	0.0
2025-01-20 20:09:49.381101	334.5	11.2	-72.3	0.0
2025-01-20 20:09:51.628381	334.6	11.0	-74.9	0.0
2025-01-20 20:09:53.876139	334.8	10.8	-76.3	0.0
2025-01-20 20:09:56.126112	334.9	10.6	-78.5	0.0
2025-01-20 20:09:58.369163	335.0	10.4	-80.6	0.0
2025-01-20 20:10:00.615733	335.2	10.2	-82.4	0.0
2025-01-20 20:10:02.861197	335.3	10.1	-81.7	0.0
#Closed at: 2025-01-20 19:59:17.769051