passes_logs/2025/01/20/planumMaritime01/planumMaritime01__20250120_171730_METOP-C_rec.log

#Pass ID: 20250120_171730_METOP-C
#Satellite: METOP-C
#Configuration: METOP-C
#Start time: 2025-01-20 17:17:35.960551

#LorettStation: 1.0.0 05.05.2024
#Station: planumMaritime01
#Location: 37.49445 lon 55.92918 lat
#TLE: 1 43689U 18087A   25020.14939866  .00000329  00000+0  17051-3 0  9999
#TLE: 2 43689  98.6957  82.5647 0001655 154.9564 205.1694 14.21484791321946

#Time	Az	El	Level	SNR
2025-01-20 17:17:38.125445	133.7	10.2	-74.1	0.0
2025-01-20 17:17:40.372534	133.6	10.4	-73.4	0.0
2025-01-20 17:17:42.621500	133.4	10.6	-73.6	0.0
2025-01-20 17:17:44.867282	133.3	10.8	-75.0	0.0
2025-01-20 17:17:47.111898	133.2	10.9	-74.4	0.0
2025-01-20 17:17:49.357426	133.1	11.1	-74.8	0.0
2025-01-20 17:17:51.603701	132.9	11.3	-73.3	0.0
2025-01-20 17:17:53.847025	132.8	11.5	-74.8	0.0
2025-01-20 17:17:56.094445	132.6	11.7	-76.5	0.0
2025-01-20 17:17:58.341940	132.5	11.9	-74.9	0.0
2025-01-20 17:18:00.587217	132.4	12.1	-75.6	0.0
2025-01-20 17:18:02.831939	132.2	12.3	-75.9	0.0
2025-01-20 17:18:05.079216	132.1	12.5	-76.5	0.0
2025-01-20 17:18:07.324470	131.9	12.7	-76.1	0.0
2025-01-20 17:18:09.570137	131.8	13.0	-75.8	0.0
2025-01-20 17:18:11.816082	131.6	13.2	-76.4	0.0
2025-01-20 17:18:14.062461	131.4	13.4	-75.6	0.0
2025-01-20 17:18:16.307284	131.3	13.6	-76.2	0.0
2025-01-20 17:18:18.551216	131.1	13.8	-75.5	0.0
2025-01-20 17:18:20.798452	131.0	14.0	-76.4	0.0
2025-01-20 17:18:23.042035	130.8	14.2	-74.0	0.0
2025-01-20 17:18:25.289563	130.6	14.5	-75.4	0.0
2025-01-20 17:18:27.532444	130.5	14.7	-76.4	0.0
2025-01-20 17:18:29.778986	130.3	14.9	-76.5	0.0
2025-01-20 17:18:32.024268	130.1	15.1	-76.3	0.0
2025-01-20 17:18:34.271312	129.9	15.4	-74.7	0.0
2025-01-20 17:18:36.518197	129.7	15.6	-76.3	0.0
2025-01-20 17:18:38.766558	129.6	15.8	-76.8	0.0
2025-01-20 17:18:41.014592	129.4	16.0	-76.1	0.0
2025-01-20 17:18:43.261110	129.2	16.3	-75.0	0.0
2025-01-20 17:18:45.508927	129.0	16.5	-75.9	0.0
2025-01-20 17:18:47.757242	128.8	16.8	-76.1	0.0
2025-01-20 17:18:50.004793	128.6	17.0	-75.4	0.0
2025-01-20 17:18:52.250325	128.4	17.2	-76.0	0.0
2025-01-20 17:18:54.498340	128.2	17.5	-75.6	0.0
2025-01-20 17:18:56.740868	128.0	17.7	-76.3	0.0
2025-01-20 17:18:58.987455	127.7	18.0	-75.3	0.0
2025-01-20 17:19:01.235200	127.5	18.2	-76.8	0.0
2025-01-20 17:19:03.485725	127.3	18.5	-75.3	0.0
2025-01-20 17:19:05.733406	127.1	18.7	-76.1	0.0
2025-01-20 17:19:07.984253	126.8	19.0	-75.8	0.0
2025-01-20 17:19:10.230908	126.6	19.2	-76.8	0.0
2025-01-20 17:19:12.477329	126.4	19.5	-75.8	0.0
2025-01-20 17:19:14.724290	126.1	19.8	-75.7	0.0
2025-01-20 17:19:16.971299	125.9	20.0	-76.7	0.0
2025-01-20 17:19:19.218322	125.6	20.3	-75.8	0.0
2025-01-20 17:19:21.463573	125.4	20.6	-76.0	0.0
2025-01-20 17:19:23.712609	125.1	20.9	-76.6	0.0
2025-01-20 17:19:25.957327	124.8	21.1	-77.3	0.0
2025-01-20 17:19:28.202517	124.6	21.4	-75.9	0.0
2025-01-20 17:19:30.448934	124.3	21.7	-75.9	0.0
2025-01-20 17:19:32.694106	124.0	22.0	-75.8	0.0
2025-01-20 17:19:34.940148	123.7	22.2	-75.7	0.0
2025-01-20 17:19:37.189005	123.4	22.5	-77.0	0.0
2025-01-20 17:19:39.436052	123.1	22.8	-74.9	0.0
2025-01-20 17:19:41.684971	122.8	23.1	-76.9	0.0
2025-01-20 17:19:43.932322	122.5	23.4	-74.2	0.0
2025-01-20 17:19:46.177199	122.2	23.7	-76.1	0.0
2025-01-20 17:19:48.423813	121.9	24.0	-76.3	0.0
2025-01-20 17:19:50.674146	121.6	24.3	-75.5	0.0
2025-01-20 17:19:52.923314	121.2	24.6	-76.1	0.0
2025-01-20 17:19:55.168418	120.9	24.9	-74.4	0.0
2025-01-20 17:19:57.411103	120.6	25.2	-76.6	0.0
2025-01-20 17:19:59.657361	120.2	25.5	-76.0	0.0
2025-01-20 17:20:01.903715	119.8	25.9	-77.1	0.0
2025-01-20 17:20:04.152560	119.5	26.2	-76.8	0.0
2025-01-20 17:20:06.398365	119.1	26.5	-74.2	0.0
2025-01-20 17:20:08.645284	118.7	26.8	-76.4	0.0
2025-01-20 17:20:10.890524	118.3	27.1	-76.7	0.0
2025-01-20 17:20:13.139245	117.9	27.5	-76.6	0.0
2025-01-20 17:20:15.385530	117.5	27.8	-77.3	0.0
2025-01-20 17:20:17.630165	117.1	28.1	-75.5	0.0
2025-01-20 17:20:19.876308	116.7	28.5	-75.4	0.0
2025-01-20 17:20:22.120744	116.2	28.8	-75.2	0.0
2025-01-20 17:20:24.363143	115.8	29.1	-73.7	0.0
2025-01-20 17:20:26.606739	115.3	29.5	-75.6	0.0
2025-01-20 17:20:28.855611	114.9	29.8	-73.6	0.0
2025-01-20 17:20:31.101241	114.4	30.2	-74.6	0.0
2025-01-20 17:20:33.347739	113.9	30.5	-74.0	0.0
2025-01-20 17:20:35.591088	113.4	30.8	-74.4	0.0
2025-01-20 17:20:37.837344	112.9	31.2	-74.4	0.0
2025-01-20 17:20:40.083060	112.4	31.5	-74.0	0.0
2025-01-20 17:20:42.330327	111.9	31.9	-71.8	0.0
2025-01-20 17:20:44.576477	111.3	32.3	-71.6	0.0
2025-01-20 17:20:46.822892	110.8	32.6	-73.0	0.0
2025-01-20 17:20:49.069105	110.2	33.0	-72.3	0.0
2025-01-20 17:20:51.317037	109.7	33.3	-72.6	0.0
2025-01-20 17:20:53.563195	109.1	33.7	-72.9	0.0
2025-01-20 17:20:55.810346	108.5	34.0	-70.8	0.0
2025-01-20 17:20:58.057347	107.8	34.4	-72.9	0.0
2025-01-20 17:21:00.300386	107.2	34.8	-73.3	0.0
2025-01-20 17:21:02.549446	106.6	35.1	-71.9	0.0
2025-01-20 17:21:04.797415	105.9	35.5	-73.4	0.0
2025-01-20 17:21:07.044949	105.2	35.8	-71.7	0.0
2025-01-20 17:21:09.293659	104.6	36.2	-72.7	0.0
2025-01-20 17:21:11.539020	103.9	36.5	-71.0	0.0
2025-01-20 17:21:13.784638	103.1	36.9	-72.5	0.0
2025-01-20 17:21:16.030949	102.4	37.3	-72.7	0.0
2025-01-20 17:21:18.278239	101.7	37.6	-72.3	0.0
2025-01-20 17:21:20.524427	100.9	38.0	-71.4	0.0
2025-01-20 17:21:22.771792	100.1	38.3	-72.8	0.0
2025-01-20 17:21:25.019420	99.3	38.7	-74.0	0.0
2025-01-20 17:21:27.266339	98.5	39.0	-73.3	0.0
2025-01-20 17:21:29.512443	97.7	39.3	-73.7	0.0
2025-01-20 17:21:31.756333	96.8	39.7	-74.4	0.0
2025-01-20 17:21:34.002431	95.9	40.0	-74.0	0.0
2025-01-20 17:21:36.245381	95.0	40.3	-74.6	0.0
2025-01-20 17:21:38.490438	94.1	40.7	-73.4	0.0
2025-01-20 17:21:40.737580	93.2	41.0	-74.0	0.0
2025-01-20 17:21:42.983917	92.3	41.3	-73.4	0.0
2025-01-20 17:21:45.229603	91.3	41.6	-73.6	0.0
2025-01-20 17:21:47.479031	90.3	41.9	-74.9	0.0
2025-01-20 17:21:49.724664	89.3	42.2	-74.8	0.0
2025-01-20 17:21:51.971658	88.3	42.5	-75.3	0.0
2025-01-20 17:21:54.221489	87.3	42.7	-75.0	0.0
2025-01-20 17:21:56.471848	86.2	43.0	-73.9	0.0
2025-01-20 17:21:58.715045	85.2	43.3	-75.5	0.0
2025-01-20 17:22:00.957703	84.1	43.5	-74.8	0.0
2025-01-20 17:22:03.204631	83.0	43.7	-74.4	0.0
2025-01-20 17:22:05.452529	81.9	44.0	-75.1	0.0
2025-01-20 17:22:07.702128	80.7	44.2	-74.7	0.0
2025-01-20 17:22:09.948150	79.6	44.4	-74.4	0.0
2025-01-20 17:22:12.194442	78.4	44.6	-74.7	0.0
2025-01-20 17:22:14.440544	77.2	44.7	-74.7	0.0
2025-01-20 17:22:16.686092	76.1	44.9	-73.9	0.0
2025-01-20 17:22:18.927885	74.9	45.1	-74.7	0.0
2025-01-20 17:22:21.174813	73.7	45.2	-74.5	0.0
2025-01-20 17:22:23.420429	72.4	45.3	-75.3	0.0
2025-01-20 17:22:25.666146	71.2	45.4	-75.2	0.0
2025-01-20 17:22:27.913942	70.0	45.5	-75.0	0.0
2025-01-20 17:22:30.159952	68.7	45.6	-75.6	0.0
2025-01-20 17:22:32.405073	67.5	45.7	-75.5	0.0
2025-01-20 17:22:34.650929	66.2	45.7	-75.1	0.0
2025-01-20 17:22:36.896916	65.0	45.8	-75.8	0.0
2025-01-20 17:22:39.143994	63.7	45.8	-76.8	0.0
2025-01-20 17:22:41.388787	62.4	45.8	-76.5	0.0
2025-01-20 17:22:43.637752	61.2	45.8	-76.3	0.0
2025-01-20 17:22:45.884760	59.9	45.8	-76.3	0.0
2025-01-20 17:22:48.128627	58.6	45.7	-76.5	0.0
2025-01-20 17:22:50.372756	57.4	45.7	-76.1	0.0
2025-01-20 17:22:52.619538	56.1	45.6	-74.1	0.0
2025-01-20 17:22:54.866422	54.9	45.5	-73.7	0.0
2025-01-20 17:22:57.114471	53.7	45.4	-72.2	0.0
2025-01-20 17:22:59.360606	52.4	45.3	-72.6	0.0
2025-01-20 17:23:01.606515	51.2	45.2	-75.8	0.0
2025-01-20 17:23:03.851982	50.0	45.0	-73.7	0.0
2025-01-20 17:23:06.099499	48.8	44.9	-74.2	0.0
2025-01-20 17:23:08.345937	47.6	44.7	-75.0	0.0
2025-01-20 17:23:10.592984	46.5	44.5	-75.8	0.0
2025-01-20 17:23:12.839781	45.3	44.3	-75.2	0.0
2025-01-20 17:23:15.083500	44.2	44.1	-73.2	0.0
2025-01-20 17:23:17.330206	43.0	43.9	-72.9	0.0
2025-01-20 17:23:19.576859	41.9	43.7	-72.4	0.0
2025-01-20 17:23:21.824323	40.8	43.5	-75.0	0.0
2025-01-20 17:23:24.071574	39.7	43.2	-73.0	0.0
2025-01-20 17:23:26.317843	38.7	42.9	-71.0	0.0
2025-01-20 17:23:28.563015	37.6	42.7	-72.8	0.0
2025-01-20 17:23:30.808670	36.6	42.4	-72.2	0.0
2025-01-20 17:23:33.051672	35.6	42.1	-74.2	0.0
2025-01-20 17:23:35.296181	34.6	41.8	-72.9	0.0
2025-01-20 17:23:37.543167	33.6	41.5	-73.6	0.0
2025-01-20 17:23:39.789713	32.7	41.2	-70.3	0.0
2025-01-20 17:23:42.034377	31.8	40.9	-72.8	0.0
2025-01-20 17:23:44.281742	30.8	40.6	-72.5	0.0
2025-01-20 17:23:46.526224	29.9	40.3	-71.6	0.0
2025-01-20 17:23:48.773239	29.1	40.0	-72.7	0.0
2025-01-20 17:23:51.021747	28.2	39.6	-71.4	0.0
2025-01-20 17:23:53.270622	27.3	39.3	-71.5	0.0
2025-01-20 17:23:55.519150	26.5	38.9	-69.9	0.0
2025-01-20 17:23:57.769005	25.7	38.6	-71.4	0.0
2025-01-20 17:24:00.012895	24.9	38.3	-71.4	0.0
2025-01-20 17:24:02.256097	24.1	37.9	-67.8	0.0
2025-01-20 17:24:04.503851	23.4	37.6	-69.8	0.0
2025-01-20 17:24:06.750419	22.6	37.2	-70.9	0.0
2025-01-20 17:24:09.001702	21.9	36.9	-68.1	0.0
2025-01-20 17:24:11.248808	21.2	36.5	-69.8	0.0
2025-01-20 17:24:13.494356	20.5	36.1	-69.4	0.0
2025-01-20 17:24:15.740910	19.8	35.8	-70.1	0.0
2025-01-20 17:24:17.987713	19.1	35.4	-70.2	0.0
2025-01-20 17:24:20.232935	18.5	35.1	-70.1	0.0
2025-01-20 17:24:22.479672	17.8	34.7	-68.9	0.0
2025-01-20 17:24:24.727462	17.2	34.4	-70.0	0.0
2025-01-20 17:24:26.972599	16.6	34.0	-64.7	0.0
2025-01-20 17:24:29.216939	16.0	33.6	-65.7	0.0
2025-01-20 17:24:31.464325	15.4	33.3	-70.3	0.0
2025-01-20 17:24:33.714945	14.9	32.9	-68.8	0.0
2025-01-20 17:24:35.960879	14.3	32.6	-68.6	0.0
2025-01-20 17:24:38.207769	13.8	32.2	-71.0	0.0
2025-01-20 17:24:40.455423	13.2	31.9	-71.0	0.0
2025-01-20 17:24:42.701054	12.7	31.5	-70.1	0.0
2025-01-20 17:24:44.948497	12.2	31.2	-70.6	0.0
2025-01-20 17:24:47.194713	11.7	30.8	-70.1	0.0
2025-01-20 17:24:49.438642	11.2	30.5	-65.5	0.0
2025-01-20 17:24:51.682651	10.7	30.1	-67.6	0.0
2025-01-20 17:24:53.927503	10.2	29.8	-71.8	0.0
2025-01-20 17:24:56.173623	9.8	29.5	-72.4	0.0
2025-01-20 17:24:58.421938	9.3	29.1	-72.0	0.0
2025-01-20 17:25:00.665729	8.9	28.8	-69.7	0.0
2025-01-20 17:25:02.910899	8.5	28.5	-69.3	0.0
2025-01-20 17:25:05.159254	8.0	28.1	-71.5	0.0
2025-01-20 17:25:07.408980	7.6	27.8	-69.0	0.0
2025-01-20 17:25:09.652436	7.2	27.5	-71.6	0.0
2025-01-20 17:25:11.896477	6.8	27.1	-69.6	0.0
2025-01-20 17:25:14.144517	6.4	26.8	-71.0	0.0
2025-01-20 17:25:16.391190	6.1	26.5	-69.3	0.0
2025-01-20 17:25:18.637488	5.7	26.2	-72.8	0.0
2025-01-20 17:25:20.882322	5.3	25.9	-71.7	0.0
2025-01-20 17:25:23.129328	5.0	25.6	-71.5	0.0
2025-01-20 17:25:25.377411	4.6	25.2	-72.3	0.0
2025-01-20 17:25:27.622228	4.3	24.9	-69.6	0.0
2025-01-20 17:25:29.867339	3.9	24.6	-72.3	0.0
2025-01-20 17:25:32.115018	3.6	24.3	-72.2	0.0
2025-01-20 17:25:34.362709	3.3	24.0	-72.3	0.0
2025-01-20 17:25:36.608666	3.0	23.7	-70.9	0.0
2025-01-20 17:25:38.856138	2.7	23.4	-71.6	0.0
2025-01-20 17:25:41.104386	2.4	23.1	-69.6	0.0
2025-01-20 17:25:43.352280	2.1	22.9	-70.4	0.0
2025-01-20 17:25:45.600718	1.8	22.6	-71.2	0.0
2025-01-20 17:25:47.847412	1.5	22.3	-70.4	0.0
2025-01-20 17:25:50.094503	1.2	22.0	-71.2	0.0
2025-01-20 17:25:52.340728	0.9	21.7	-69.2	0.0
2025-01-20 17:25:54.585360	0.6	21.4	-71.7	0.0
2025-01-20 17:25:56.830922	0.4	21.2	-67.7	0.0
2025-01-20 17:25:59.077482	0.1	20.9	-71.3	0.0
2025-01-20 17:26:01.325308	359.8	20.6	-72.3	0.0
2025-01-20 17:26:03.569858	359.6	20.3	-67.9	0.0
2025-01-20 17:26:05.813716	359.3	20.1	-71.4	0.0
2025-01-20 17:26:08.060975	359.1	19.8	-71.8	0.0
2025-01-20 17:26:10.307838	358.9	19.6	-72.4	0.0
2025-01-20 17:26:12.553162	358.6	19.3	-72.6	0.0
2025-01-20 17:26:14.799046	358.4	19.0	-72.0	0.0
2025-01-20 17:26:17.044421	358.2	18.8	-71.7	0.0
2025-01-20 17:26:19.291616	357.9	18.5	-73.3	0.0
2025-01-20 17:26:21.537033	357.7	18.3	-73.0	0.0
2025-01-20 17:26:23.784175	357.5	18.0	-66.2	0.0
2025-01-20 17:26:26.030569	357.3	17.8	-74.1	0.0
2025-01-20 17:26:28.279450	357.1	17.5	-74.0	0.0
2025-01-20 17:26:30.523575	356.9	17.3	-73.7	0.0
2025-01-20 17:26:32.767356	356.7	17.1	-74.3	0.0
2025-01-20 17:26:35.012097	356.5	16.8	-67.1	0.0
2025-01-20 17:26:37.259901	356.3	16.6	-69.7	0.0
2025-01-20 17:26:39.506267	356.1	16.3	-72.7	0.0
2025-01-20 17:26:41.751187	355.9	16.1	-70.4	0.0
2025-01-20 17:26:43.998758	355.7	15.9	-69.1	0.0
2025-01-20 17:26:46.246241	355.5	15.6	-71.8	0.0
2025-01-20 17:26:48.494632	355.4	15.4	-71.1	0.0
2025-01-20 17:26:50.737821	355.2	15.2	-72.1	0.0
2025-01-20 17:26:52.986428	355.0	15.0	-72.0	0.0
2025-01-20 17:26:55.233280	354.8	14.7	-70.1	0.0
2025-01-20 17:26:57.480722	354.7	14.5	-71.4	0.0
2025-01-20 17:26:59.726082	354.5	14.3	-70.5	0.0
2025-01-20 17:27:01.974001	354.3	14.1	-71.4	0.0
2025-01-20 17:27:04.219660	354.2	13.9	-69.4	0.0
2025-01-20 17:27:06.467196	354.0	13.7	-70.1	0.0
2025-01-20 17:27:08.715804	353.8	13.4	-68.7	0.0
2025-01-20 17:27:10.961618	353.7	13.2	-68.4	0.0
2025-01-20 17:27:13.207498	353.5	13.0	-66.3	0.0
2025-01-20 17:27:15.456644	353.4	12.8	-68.4	0.0
2025-01-20 17:27:17.700661	353.2	12.6	-68.8	0.0
2025-01-20 17:27:19.947441	353.1	12.4	-68.2	0.0
2025-01-20 17:27:22.198335	353.0	12.2	-69.6	0.0
2025-01-20 17:27:24.446150	352.8	12.0	-68.6	0.0
2025-01-20 17:27:26.693684	352.7	11.8	-69.4	0.0
2025-01-20 17:27:28.942115	352.5	11.6	-68.4	0.0
2025-01-20 17:27:31.184352	352.4	11.4	-69.8	0.0
2025-01-20 17:27:33.430222	352.3	11.2	-70.8	0.0
2025-01-20 17:27:35.675940	352.1	11.0	-69.6	0.0
2025-01-20 17:27:37.922252	352.0	10.8	-72.2	0.0
2025-01-20 17:27:40.167984	351.9	10.6	-77.0	0.0
2025-01-20 17:27:42.413490	351.8	10.5	-79.7	0.0
2025-01-20 17:27:44.659918	351.6	10.3	-80.3	0.0
2025-01-20 17:27:46.905413	351.5	10.1	-81.5	0.0
#Closed at: 2025-01-20 17:17:30.963131