passes_logs/2025/01/20/planumMaritime01/planumMaritime01__20250120_105130_METEOR-M2_4_rec.log

#Pass ID: 20250120_105130_METEOR-M2 4
#Satellite: METEOR-M2 4
#Configuration: METEOR-M2 4
#Start time: 2025-01-20 10:51:35.561940

#LorettStation: 1.0.0 05.05.2024
#Station: planumMaritime01
#Location: 37.49445 lon 55.92918 lat
#TLE: 1 59051U 24039A   25019.17843089  .00000110  00000+0  69087-4 0  9990
#TLE: 2 59051  98.6301 342.1007 0006367 211.2686 148.8114 14.22326347 46195

#Time	Az	El	Level	SNR
2025-01-20 10:51:41.762274	140.6	10.5	-74.4	0.0
2025-01-20 10:51:44.008411	140.5	10.7	-76.7	0.0
2025-01-20 10:51:46.255234	140.4	10.9	-75.5	0.0
2025-01-20 10:51:48.500096	140.3	11.1	-75.4	0.0
2025-01-20 10:51:50.744872	140.2	11.3	-74.3	0.0
2025-01-20 10:51:52.986079	140.1	11.5	-75.6	0.0
2025-01-20 10:51:55.232435	140.0	11.7	-75.4	0.0
2025-01-20 10:51:57.478312	139.9	11.9	-76.0	0.0
2025-01-20 10:51:59.723033	139.8	12.1	-76.7	0.0
2025-01-20 10:52:01.969032	139.7	12.4	-75.8	0.0
2025-01-20 10:52:04.216379	139.6	12.6	-75.6	0.0
2025-01-20 10:52:06.463890	139.5	12.8	-75.7	0.0
2025-01-20 10:52:08.709161	139.4	13.0	-76.3	0.0
2025-01-20 10:52:10.955717	139.3	13.2	-76.7	0.0
2025-01-20 10:52:13.201352	139.2	13.4	-76.8	0.0
2025-01-20 10:52:15.448429	139.0	13.6	-76.7	0.0
2025-01-20 10:52:17.695711	138.9	13.9	-77.4	0.0
2025-01-20 10:52:19.939661	138.8	14.1	-77.5	0.0
2025-01-20 10:52:22.185537	138.7	14.3	-76.9	0.0
2025-01-20 10:52:24.432305	138.5	14.5	-77.2	0.0
2025-01-20 10:52:26.676915	138.4	14.8	-78.3	0.0
2025-01-20 10:52:28.921933	138.3	15.0	-78.1	0.0
2025-01-20 10:52:31.166823	138.2	15.2	-78.2	0.0
2025-01-20 10:52:33.410474	138.0	15.5	-77.4	0.0
2025-01-20 10:52:35.655908	137.9	15.7	-77.8	0.0
2025-01-20 10:52:37.902103	137.7	15.9	-78.2	0.0
2025-01-20 10:52:40.148019	137.6	16.2	-77.9	0.0
2025-01-20 10:52:42.392276	137.5	16.4	-78.7	0.0
2025-01-20 10:52:44.638919	137.3	16.7	-78.1	0.0
2025-01-20 10:52:46.884744	137.2	16.9	-77.4	0.0
2025-01-20 10:52:49.129513	137.0	17.2	-76.7	0.0
2025-01-20 10:52:51.373473	136.9	17.4	-77.7	0.0
2025-01-20 10:52:53.619698	136.7	17.7	-77.4	0.0
2025-01-20 10:52:55.864953	136.5	17.9	-77.7	0.0
2025-01-20 10:52:58.110627	136.4	18.2	-78.1	0.0
2025-01-20 10:53:00.358214	136.2	18.5	-78.9	0.0
2025-01-20 10:53:02.604060	136.0	18.7	-78.3	0.0
2025-01-20 10:53:04.847512	135.9	19.0	-77.3	0.0
2025-01-20 10:53:07.092754	135.7	19.3	-76.8	0.0
2025-01-20 10:53:09.338861	135.5	19.6	-77.2	0.0
2025-01-20 10:53:11.581999	135.3	19.8	-77.9	0.0
2025-01-20 10:53:13.823875	135.2	20.1	-77.5	0.0
2025-01-20 10:53:16.072386	135.0	20.4	-77.2	0.0
2025-01-20 10:53:18.319277	134.8	20.7	-76.9	0.0
2025-01-20 10:53:20.563509	134.6	21.0	-76.9	0.0
2025-01-20 10:53:22.811404	134.4	21.3	-77.3	0.0
2025-01-20 10:53:25.055343	134.2	21.5	-77.6	0.0
2025-01-20 10:53:27.302937	134.0	21.8	-78.1	0.0
2025-01-20 10:53:29.549123	133.8	22.1	-76.3	0.0
2025-01-20 10:53:31.793813	133.5	22.5	-76.8	0.0
2025-01-20 10:53:34.039647	133.3	22.8	-77.4	0.0
2025-01-20 10:53:36.287452	133.1	23.1	-77.0	0.0
2025-01-20 10:53:38.531974	132.9	23.4	-78.3	0.0
2025-01-20 10:53:40.774897	132.6	23.7	-77.7	0.0
2025-01-20 10:53:43.020277	132.4	24.0	-77.5	0.0
2025-01-20 10:53:45.266284	132.2	24.3	-77.6	0.0
2025-01-20 10:53:47.510901	131.9	24.7	-77.7	0.0
2025-01-20 10:53:49.756245	131.6	25.0	-76.6	0.0
2025-01-20 10:53:52.000647	131.4	25.3	-77.9	0.0
2025-01-20 10:53:54.244289	131.1	25.7	-75.4	0.0
2025-01-20 10:53:56.488069	130.9	26.0	-76.1	0.0
2025-01-20 10:53:58.731269	130.6	26.4	-77.5	0.0
2025-01-20 10:54:00.975802	130.3	26.7	-76.4	0.0
2025-01-20 10:54:03.219276	130.0	27.1	-76.2	0.0
2025-01-20 10:54:05.466541	129.7	27.4	-76.9	0.0
2025-01-20 10:54:07.713919	129.4	27.8	-77.1	0.0
2025-01-20 10:54:09.959548	129.1	28.1	-76.4	0.0
2025-01-20 10:54:12.203854	128.8	28.5	-77.2	0.0
2025-01-20 10:54:14.449731	128.4	28.9	-77.2	0.0
2025-01-20 10:54:16.695215	128.1	29.2	-77.5	0.0
2025-01-20 10:54:18.940674	127.8	29.6	-76.8	0.0
2025-01-20 10:54:21.187563	127.4	30.0	-76.0	0.0
2025-01-20 10:54:23.431209	127.1	30.4	-77.1	0.0
2025-01-20 10:54:25.678098	126.7	30.8	-75.7	0.0
2025-01-20 10:54:27.928123	126.3	31.2	-75.0	0.0
2025-01-20 10:54:30.175252	125.9	31.6	-75.4	0.0
2025-01-20 10:54:32.420564	125.5	32.0	-74.1	0.0
2025-01-20 10:54:34.666041	125.1	32.4	-74.0	0.0
2025-01-20 10:54:36.913231	124.7	32.8	-74.3	0.0
2025-01-20 10:54:39.157247	124.3	33.2	-75.7	0.0
2025-01-20 10:54:41.404976	123.8	33.6	-76.7	0.0
2025-01-20 10:54:43.648987	123.4	34.1	-75.8	0.0
2025-01-20 10:54:45.893860	122.9	34.5	-75.4	0.0
2025-01-20 10:54:48.138372	122.5	34.9	-73.0	0.0
2025-01-20 10:54:50.383655	122.0	35.3	-71.9	0.0
2025-01-20 10:54:52.628525	121.5	35.8	-72.4	0.0
2025-01-20 10:54:54.871644	121.0	36.2	-73.8	0.0
2025-01-20 10:54:57.120485	120.4	36.7	-73.2	0.0
2025-01-20 10:54:59.366321	119.9	37.1	-69.7	0.0
2025-01-20 10:55:01.612024	119.3	37.6	-73.1	0.0
2025-01-20 10:55:03.857580	118.8	38.0	-70.2	0.0
2025-01-20 10:55:06.103516	118.2	38.5	-69.4	0.0
2025-01-20 10:55:08.345903	117.6	38.9	-73.1	0.0
2025-01-20 10:55:10.589194	116.9	39.4	-72.9	0.0
2025-01-20 10:55:12.834876	116.3	39.9	-71.9	0.0
2025-01-20 10:55:15.081408	115.6	40.3	-73.1	0.0
2025-01-20 10:55:17.327396	114.9	40.8	-74.5	0.0
2025-01-20 10:55:19.572254	114.2	41.2	-73.0	0.0
2025-01-20 10:55:21.816708	113.5	41.7	-73.3	0.0
2025-01-20 10:55:24.063636	112.8	42.2	-70.7	0.0
2025-01-20 10:55:26.308028	112.0	42.7	-72.7	0.0
2025-01-20 10:55:28.554066	111.2	43.1	-74.9	0.0
2025-01-20 10:55:30.799070	110.4	43.6	-74.0	0.0
2025-01-20 10:55:33.044629	109.6	44.1	-72.4	0.0
2025-01-20 10:55:35.287265	108.7	44.5	-71.7	0.0
2025-01-20 10:55:37.532984	107.8	45.0	-71.2	0.0
2025-01-20 10:55:39.776527	106.9	45.5	-72.1	0.0
2025-01-20 10:55:42.022163	106.0	45.9	-72.6	0.0
2025-01-20 10:55:44.268830	105.0	46.4	-74.0	0.0
2025-01-20 10:55:46.512374	104.0	46.8	-73.7	0.0
2025-01-20 10:55:48.757344	103.0	47.3	-73.8	0.0
2025-01-20 10:55:51.000911	101.9	47.7	-74.4	0.0
2025-01-20 10:55:53.250525	100.8	48.1	-75.2	0.0
2025-01-20 10:55:55.496271	99.7	48.6	-77.2	0.0
2025-01-20 10:55:57.744213	98.6	49.0	-76.5	0.0
2025-01-20 10:55:59.990423	97.4	49.4	-76.4	0.0
2025-01-20 10:56:02.239009	96.2	49.8	-77.3	0.0
2025-01-20 10:56:04.487559	94.9	50.2	-78.4	0.0
2025-01-20 10:56:06.729506	93.7	50.6	-79.0	0.0
2025-01-20 10:56:08.976512	92.4	50.9	-79.3	0.0
2025-01-20 10:56:11.221810	91.0	51.3	-79.2	0.0
2025-01-20 10:56:13.470155	89.7	51.6	-78.3	0.0
2025-01-20 10:56:15.719523	88.3	51.9	-78.3	0.0
2025-01-20 10:56:17.966247	86.8	52.2	-78.8	0.0
2025-01-20 10:56:20.210647	85.4	52.5	-76.0	0.0
2025-01-20 10:56:22.456359	83.9	52.8	-77.1	0.0
2025-01-20 10:56:24.701148	82.4	53.0	-78.6	0.0
2025-01-20 10:56:26.949695	80.8	53.3	-78.3	0.0
2025-01-20 10:56:29.195347	79.3	53.5	-78.5	0.0
2025-01-20 10:56:31.439198	77.7	53.7	-78.0	0.0
2025-01-20 10:56:33.683804	76.1	53.8	-76.8	0.0
2025-01-20 10:56:35.928875	74.5	54.0	-76.9	0.0
2025-01-20 10:56:38.177740	72.8	54.1	-76.3	0.0
2025-01-20 10:56:40.422589	71.2	54.2	-76.3	0.0
2025-01-20 10:56:42.668049	69.5	54.3	-77.2	0.0
2025-01-20 10:56:44.914703	67.8	54.3	-78.0	0.0
2025-01-20 10:56:47.159196	66.2	54.4	-78.7	0.0
2025-01-20 10:56:49.404657	64.5	54.4	-77.9	0.0
2025-01-20 10:56:51.652937	62.8	54.4	-77.9	0.0
2025-01-20 10:56:53.901520	61.2	54.3	-77.0	0.0
2025-01-20 10:56:56.144519	59.5	54.2	-78.1	0.0
2025-01-20 10:56:58.391790	57.8	54.1	-78.6	0.0
2025-01-20 10:57:00.636685	56.2	54.0	-78.3	0.0
2025-01-20 10:57:02.880831	54.6	53.9	-77.3	0.0
2025-01-20 10:57:05.126323	53.0	53.7	-77.9	0.0
2025-01-20 10:57:07.369700	51.4	53.5	-78.2	0.0
2025-01-20 10:57:09.612985	49.8	53.3	-79.0	0.0
2025-01-20 10:57:11.859267	48.3	53.1	-79.3	0.0
2025-01-20 10:57:14.104603	46.8	52.9	-78.2	0.0
2025-01-20 10:57:16.349136	45.3	52.6	-77.5	0.0
2025-01-20 10:57:18.593529	43.8	52.3	-78.0	0.0
2025-01-20 10:57:20.842330	42.4	52.0	-77.9	0.0
2025-01-20 10:57:23.089519	41.0	51.7	-77.4	0.0
2025-01-20 10:57:25.335314	39.6	51.3	-78.7	0.0
2025-01-20 10:57:27.581925	38.3	51.0	-77.8	0.0
2025-01-20 10:57:29.826685	36.9	50.6	-77.5	0.0
2025-01-20 10:57:32.074537	35.7	50.3	-78.2	0.0
2025-01-20 10:57:34.319475	34.4	49.9	-77.8	0.0
2025-01-20 10:57:36.567069	33.2	49.5	-77.2	0.0
2025-01-20 10:57:38.814922	32.0	49.1	-77.0	0.0
2025-01-20 10:57:41.063205	30.9	48.7	-77.5	0.0
2025-01-20 10:57:43.310406	29.7	48.2	-75.4	0.0
2025-01-20 10:57:45.553996	28.7	47.8	-75.3	0.0
2025-01-20 10:57:47.801422	27.6	47.4	-75.8	0.0
2025-01-20 10:57:50.046764	26.6	46.9	-77.0	0.0
2025-01-20 10:57:52.293709	25.6	46.5	-74.7	0.0
2025-01-20 10:57:54.540360	24.6	46.0	-75.0	0.0
2025-01-20 10:57:56.787340	23.6	45.6	-75.8	0.0
2025-01-20 10:57:59.036256	22.7	45.1	-73.6	0.0
2025-01-20 10:58:01.279171	21.8	44.6	-74.7	0.0
2025-01-20 10:58:03.525495	21.0	44.2	-75.5	0.0
2025-01-20 10:58:05.773353	20.1	43.7	-77.2	0.0
2025-01-20 10:58:08.015508	19.3	43.2	-74.9	0.0
2025-01-20 10:58:10.256138	18.5	42.8	-75.8	0.0
2025-01-20 10:58:12.501956	17.8	42.3	-74.9	0.0
2025-01-20 10:58:14.748322	17.0	41.8	-75.8	0.0
2025-01-20 10:58:16.995130	16.3	41.4	-76.0	0.0
2025-01-20 10:58:19.242376	15.6	40.9	-74.9	0.0
2025-01-20 10:58:21.488389	14.9	40.5	-76.6	0.0
2025-01-20 10:58:23.732200	14.2	40.0	-77.3	0.0
2025-01-20 10:58:25.978660	13.6	39.5	-75.4	0.0
2025-01-20 10:58:28.224722	13.0	39.1	-77.0	0.0
2025-01-20 10:58:30.467269	12.3	38.6	-67.8	0.0
2025-01-20 10:58:32.710388	11.8	38.2	-68.8	0.0
2025-01-20 10:58:34.955126	11.2	37.7	-69.8	0.0
2025-01-20 10:58:37.205799	10.6	37.3	-72.2	0.0
2025-01-20 10:58:39.448477	10.1	36.8	-75.2	0.0
2025-01-20 10:58:41.694268	9.5	36.4	-75.0	0.0
2025-01-20 10:58:43.941920	9.0	35.9	-72.9	0.0
2025-01-20 10:58:46.186856	8.5	35.5	-73.8	0.0
2025-01-20 10:58:48.435516	8.0	35.1	-68.8	0.0
2025-01-20 10:58:50.679332	7.6	34.6	-68.0	0.0
2025-01-20 10:58:52.927810	7.1	34.2	-69.3	0.0
2025-01-20 10:58:55.174478	6.6	33.8	-70.0	0.0
2025-01-20 10:58:57.420635	6.2	33.4	-73.3	0.0
2025-01-20 10:58:59.668506	5.8	33.0	-74.1	0.0
2025-01-20 10:59:01.915363	5.4	32.5	-70.4	0.0
2025-01-20 10:59:04.160553	5.0	32.1	-70.3	0.0
2025-01-20 10:59:06.406371	4.6	31.7	-67.0	0.0
2025-01-20 10:59:08.651815	4.2	31.3	-72.5	0.0
2025-01-20 10:59:10.898072	3.8	30.9	-67.7	0.0
2025-01-20 10:59:13.140795	3.4	30.5	-72.8	0.0
2025-01-20 10:59:15.385526	3.1	30.2	-68.8	0.0
2025-01-20 10:59:17.631208	2.7	29.8	-69.8	0.0
2025-01-20 10:59:19.878789	2.4	29.4	-66.7	0.0
2025-01-20 10:59:22.126906	2.0	29.0	-72.1	0.0
2025-01-20 10:59:24.376128	1.7	28.7	-73.5	0.0
2025-01-20 10:59:26.624794	1.4	28.3	-72.0	0.0
2025-01-20 10:59:28.870179	1.1	27.9	-72.5	0.0
2025-01-20 10:59:31.115202	0.8	27.6	-70.5	0.0
2025-01-20 10:59:33.362301	0.5	27.2	-67.9	0.0
2025-01-20 10:59:35.609699	0.2	26.9	-68.3	0.0
2025-01-20 10:59:37.852765	359.9	26.5	-73.9	0.0
2025-01-20 10:59:40.101206	359.6	26.2	-74.3	0.0
2025-01-20 10:59:42.345132	359.4	25.8	-68.5	0.0
2025-01-20 10:59:44.590412	359.1	25.5	-75.2	0.0
2025-01-20 10:59:46.835151	358.8	25.2	-75.7	0.0
2025-01-20 10:59:49.082634	358.6	24.8	-70.2	0.0
2025-01-20 10:59:51.326937	358.3	24.5	-76.0	0.0
2025-01-20 10:59:53.573466	358.1	24.2	-76.8	0.0
2025-01-20 10:59:55.820509	357.9	23.9	-75.9	0.0
2025-01-20 10:59:58.065520	357.6	23.5	-74.5	0.0
2025-01-20 11:00:00.309444	357.4	23.2	-74.9	0.0
2025-01-20 11:00:02.554500	357.2	22.9	-66.1	0.0
2025-01-20 11:00:04.801219	356.9	22.6	-73.5	0.0
2025-01-20 11:00:07.046901	356.7	22.3	-66.1	0.0
2025-01-20 11:00:09.292897	356.5	22.0	-71.4	0.0
2025-01-20 11:00:11.536463	356.3	21.7	-63.6	0.0
2025-01-20 11:00:13.783627	356.1	21.4	-67.2	0.0
2025-01-20 11:00:16.026895	355.9	21.1	-69.1	0.0
2025-01-20 11:00:18.271192	355.7	20.8	-70.7	0.0
2025-01-20 11:00:20.519579	355.5	20.5	-70.7	0.0
2025-01-20 11:00:22.763361	355.3	20.3	-72.9	0.0
2025-01-20 11:00:25.009436	355.2	20.0	-71.6	0.0
2025-01-20 11:00:27.252466	355.0	19.7	-71.3	0.0
2025-01-20 11:00:29.499158	354.8	19.4	-71.3	0.0
2025-01-20 11:00:31.748604	354.6	19.2	-65.4	0.0
2025-01-20 11:00:33.994595	354.5	18.9	-68.3	0.0
2025-01-20 11:00:36.240536	354.3	18.6	-69.8	0.0
2025-01-20 11:00:38.488141	354.1	18.4	-69.0	0.0
2025-01-20 11:00:40.732961	354.0	18.1	-69.8	0.0
2025-01-20 11:00:42.978746	353.8	17.8	-69.9	0.0
2025-01-20 11:00:45.227809	353.6	17.6	-67.1	0.0
2025-01-20 11:00:47.471902	353.5	17.3	-67.0	0.0
2025-01-20 11:00:49.719950	353.3	17.1	-71.0	0.0
2025-01-20 11:00:51.966754	353.2	16.8	-68.7	0.0
2025-01-20 11:00:54.210540	353.1	16.6	-69.9	0.0
2025-01-20 11:00:56.455973	352.9	16.3	-70.3	0.0
2025-01-20 11:00:58.701478	352.8	16.1	-69.9	0.0
2025-01-20 11:01:00.945308	352.6	15.9	-64.9	0.0
2025-01-20 11:01:03.191821	352.5	15.6	-66.0	0.0
2025-01-20 11:01:05.438270	352.4	15.4	-67.4	0.0
2025-01-20 11:01:07.685000	352.2	15.2	-68.9	0.0
2025-01-20 11:01:09.933299	352.1	14.9	-69.6	0.0
2025-01-20 11:01:12.182768	352.0	14.7	-69.9	0.0
2025-01-20 11:01:14.430480	351.8	14.5	-69.1	0.0
2025-01-20 11:01:16.675841	351.7	14.2	-70.1	0.0
2025-01-20 11:01:18.920181	351.6	14.0	-68.0	0.0
2025-01-20 11:01:21.164837	351.5	13.8	-75.7	0.0
2025-01-20 11:01:23.410497	351.4	13.6	-71.9	0.0
2025-01-20 11:01:25.651551	351.3	13.4	-71.2	0.0
2025-01-20 11:01:27.897072	351.1	13.2	-71.7	0.0
2025-01-20 11:01:30.138655	351.0	12.9	-72.7	0.0
2025-01-20 11:01:32.386133	350.9	12.7	-74.8	0.0
2025-01-20 11:01:34.632182	350.8	12.5	-75.0	0.0
2025-01-20 11:01:36.877788	350.7	12.3	-72.2	0.0
2025-01-20 11:01:39.126834	350.6	12.1	-67.9	0.0
2025-01-20 11:01:41.369576	350.5	11.9	-71.9	0.0
2025-01-20 11:01:43.613105	350.4	11.7	-74.2	0.0
2025-01-20 11:01:45.860094	350.3	11.5	-67.2	0.0
2025-01-20 11:01:48.109098	350.2	11.3	-74.1	0.0
2025-01-20 11:01:50.354105	350.1	11.1	-72.8	0.0
2025-01-20 11:01:52.599920	350.0	10.9	-75.7	0.0
2025-01-20 11:01:54.849243	349.9	10.7	-79.8	0.0
2025-01-20 11:01:57.093663	349.8	10.5	-81.1	0.0
2025-01-20 11:01:59.339471	349.7	10.3	-81.7	0.0
2025-01-20 11:02:01.587992	349.6	10.1	-82.3	0.0
#Closed at: 2025-01-20 10:51:30.563299