passes_logs/2025/01/20/planumMaritime01/planumMaritime01__20250120_185747_METOP-C_rec.log

#Pass ID: 20250120_185747_METOP-C
#Satellite: METOP-C
#Configuration: METOP-C
#Start time: 2025-01-20 18:57:52.507430

#LorettStation: 1.0.0 05.05.2024
#Station: planumMaritime01
#Location: 37.49445 lon 55.92918 lat
#TLE: 1 43689U 18087A   25020.14939866  .00000329  00000+0  17051-3 0  9999
#TLE: 2 43689  98.6957  82.5647 0001655 154.9564 205.1694 14.21484791321946

#Time	Az	El	Level	SNR
2025-01-20 18:57:54.669761	194.2	10.2	-77.7	0.0
2025-01-20 18:57:56.914812	194.4	10.4	-77.4	0.0
2025-01-20 18:57:59.163516	194.5	10.5	-78.1	0.0
2025-01-20 18:58:01.410831	194.7	10.7	-78.3	0.0
2025-01-20 18:58:03.656830	194.9	10.9	-78.1	0.0
2025-01-20 18:58:05.901832	195.0	11.1	-78.3	0.0
2025-01-20 18:58:08.150438	195.2	11.3	-78.7	0.0
2025-01-20 18:58:10.398970	195.4	11.5	-78.6	0.0
2025-01-20 18:58:12.644493	195.6	11.7	-78.8	0.0
2025-01-20 18:58:14.893253	195.8	11.9	-78.8	0.0
2025-01-20 18:58:17.143492	196.0	12.0	-78.0	0.0
2025-01-20 18:58:19.390193	196.1	12.2	-79.2	0.0
2025-01-20 18:58:21.636113	196.3	12.4	-79.0	0.0
2025-01-20 18:58:23.885838	196.5	12.6	-79.4	0.0
2025-01-20 18:58:26.136565	196.7	12.8	-77.4	0.0
2025-01-20 18:58:28.383466	196.9	13.0	-79.2	0.0
2025-01-20 18:58:30.630007	197.1	13.2	-79.5	0.0
2025-01-20 18:58:32.877895	197.3	13.4	-79.2	0.0
2025-01-20 18:58:35.126394	197.5	13.6	-79.4	0.0
2025-01-20 18:58:37.373616	197.8	13.8	-79.2	0.0
2025-01-20 18:58:39.619009	198.0	14.0	-79.3	0.0
2025-01-20 18:58:41.867444	198.2	14.3	-79.7	0.0
2025-01-20 18:58:44.115853	198.4	14.5	-79.5	0.0
2025-01-20 18:58:46.358920	198.6	14.7	-79.2	0.0
2025-01-20 18:58:48.607743	198.8	14.9	-79.3	0.0
2025-01-20 18:58:50.856478	199.1	15.1	-79.4	0.0
2025-01-20 18:58:53.103067	199.3	15.3	-78.8	0.0
2025-01-20 18:58:55.348417	199.5	15.5	-79.8	0.0
2025-01-20 18:58:57.595414	199.8	15.7	-79.2	0.0
2025-01-20 18:58:59.841892	200.0	16.0	-79.5	0.0
2025-01-20 18:59:02.090538	200.3	16.2	-79.4	0.0
2025-01-20 18:59:04.339312	200.5	16.4	-78.9	0.0
2025-01-20 18:59:06.584107	200.8	16.6	-79.2	0.0
2025-01-20 18:59:08.831779	201.0	16.9	-79.2	0.0
2025-01-20 18:59:11.078177	201.3	17.1	-79.2	0.0
2025-01-20 18:59:13.323918	201.5	17.3	-79.1	0.0
2025-01-20 18:59:15.570668	201.8	17.5	-78.9	0.0
2025-01-20 18:59:17.818796	202.1	17.8	-78.9	0.0
2025-01-20 18:59:20.063119	202.3	18.0	-79.3	0.0
2025-01-20 18:59:22.306630	202.6	18.2	-79.2	0.0
2025-01-20 18:59:24.551419	202.9	18.5	-79.3	0.0
2025-01-20 18:59:26.798792	203.2	18.7	-79.5	0.0
2025-01-20 18:59:29.043181	203.5	19.0	-78.8	0.0
2025-01-20 18:59:31.290933	203.8	19.2	-79.3	0.0
2025-01-20 18:59:33.538968	204.1	19.4	-79.4	0.0
2025-01-20 18:59:35.784591	204.4	19.7	-79.3	0.0
2025-01-20 18:59:38.033774	204.7	19.9	-79.0	0.0
2025-01-20 18:59:40.279511	205.0	20.2	-79.3	0.0
2025-01-20 18:59:42.523498	205.3	20.4	-79.4	0.0
2025-01-20 18:59:44.772566	205.7	20.7	-79.5	0.0
2025-01-20 18:59:47.017125	206.0	20.9	-79.5	0.0
2025-01-20 18:59:49.261222	206.3	21.2	-79.3	0.0
2025-01-20 18:59:51.508290	206.7	21.4	-79.4	0.0
2025-01-20 18:59:53.754352	207.0	21.7	-79.3	0.0
2025-01-20 18:59:56.002099	207.4	22.0	-79.3	0.0
2025-01-20 18:59:58.249324	207.7	22.2	-79.2	0.0
2025-01-20 19:00:00.497132	208.1	22.5	-79.5	0.0
2025-01-20 19:00:02.745039	208.5	22.7	-79.6	0.0
2025-01-20 19:00:04.991064	208.8	23.0	-79.7	0.0
2025-01-20 19:00:07.237142	209.2	23.3	-79.0	0.0
2025-01-20 19:00:09.485932	209.6	23.5	-79.3	0.0
2025-01-20 19:00:11.730925	210.0	23.8	-79.5	0.0
2025-01-20 19:00:13.976199	210.4	24.1	-79.5	0.0
2025-01-20 19:00:16.222843	210.8	24.4	-79.4	0.0
2025-01-20 19:00:18.472835	211.2	24.6	-79.4	0.0
2025-01-20 19:00:20.719836	211.7	24.9	-79.4	0.0
2025-01-20 19:00:22.968102	212.1	25.2	-79.2	0.0
2025-01-20 19:00:25.211971	212.5	25.5	-79.0	0.0
2025-01-20 19:00:27.462204	213.0	25.7	-79.7	0.0
2025-01-20 19:00:29.708721	213.4	26.0	-79.8	0.0
2025-01-20 19:00:31.954073	213.9	26.3	-79.8	0.0
2025-01-20 19:00:34.200801	214.4	26.6	-79.7	0.0
2025-01-20 19:00:36.448480	214.8	26.9	-80.0	0.0
2025-01-20 19:00:38.697213	215.3	27.2	-80.2	0.0
2025-01-20 19:00:40.943427	215.8	27.4	-80.3	0.0
2025-01-20 19:00:43.194993	216.3	27.7	-80.1	0.0
2025-01-20 19:00:45.440783	216.8	28.0	-80.2	0.0
2025-01-20 19:00:47.686633	217.4	28.3	-79.8	0.0
2025-01-20 19:00:49.934040	217.9	28.6	-80.0	0.0
2025-01-20 19:00:52.181051	218.4	28.9	-80.1	0.0
2025-01-20 19:00:54.431789	219.0	29.2	-79.9	0.0
2025-01-20 19:00:56.677467	219.5	29.4	-80.2	0.0
2025-01-20 19:00:58.923105	220.1	29.7	-80.5	0.0
2025-01-20 19:01:01.168854	220.7	30.0	-80.7	0.0
2025-01-20 19:01:03.414294	221.3	30.3	-80.6	0.0
2025-01-20 19:01:05.659815	221.9	30.6	-80.1	0.0
2025-01-20 19:01:07.907784	222.5	30.9	-80.7	0.0
2025-01-20 19:01:10.153955	223.1	31.2	-80.6	0.0
2025-01-20 19:01:12.401788	223.7	31.4	-80.5	0.0
2025-01-20 19:01:14.650403	224.4	31.7	-80.7	0.0
2025-01-20 19:01:16.897942	225.0	32.0	-81.0	0.0
2025-01-20 19:01:19.141687	225.7	32.3	-81.1	0.0
2025-01-20 19:01:21.388885	226.4	32.6	-80.8	0.0
2025-01-20 19:01:23.637206	227.1	32.8	-80.7	0.0
2025-01-20 19:01:25.885396	227.8	33.1	-80.3	0.0
2025-01-20 19:01:28.131916	228.5	33.4	-80.2	0.0
2025-01-20 19:01:30.379187	229.2	33.7	-80.3	0.0
2025-01-20 19:01:32.623741	229.9	33.9	-80.5	0.0
2025-01-20 19:01:34.870391	230.7	34.2	-80.7	0.0
2025-01-20 19:01:37.114953	231.4	34.5	-80.5	0.0
2025-01-20 19:01:39.363425	232.2	34.7	-80.9	0.0
2025-01-20 19:01:41.609481	233.0	35.0	-80.9	0.0
2025-01-20 19:01:43.853535	233.8	35.2	-81.0	0.0
2025-01-20 19:01:46.099270	234.6	35.5	-80.6	0.0
2025-01-20 19:01:48.347171	235.4	35.7	-80.9	0.0
2025-01-20 19:01:50.595146	236.2	35.9	-80.6	0.0
2025-01-20 19:01:52.841382	237.1	36.2	-80.9	0.0
2025-01-20 19:01:55.087774	237.9	36.4	-81.0	0.0
2025-01-20 19:01:57.332955	238.8	36.6	-80.3	0.0
2025-01-20 19:01:59.577190	239.7	36.8	-80.6	0.0
2025-01-20 19:02:01.822993	240.6	37.0	-80.5	0.0
2025-01-20 19:02:04.069856	241.5	37.2	-80.2	1.1
2025-01-20 19:02:06.317743	242.4	37.4	-80.5	0.0
2025-01-20 19:02:08.565071	243.3	37.6	-80.2	0.5
2025-01-20 19:02:10.810890	244.2	37.8	-80.2	0.0
2025-01-20 19:02:13.055867	245.2	38.0	-80.3	0.0
2025-01-20 19:02:15.303270	246.1	38.1	-80.6	0.0
2025-01-20 19:02:17.548919	247.1	38.3	-80.6	0.0
2025-01-20 19:02:19.794670	248.0	38.5	-80.1	0.0
2025-01-20 19:02:22.040310	249.0	38.6	-80.8	0.0
2025-01-20 19:02:24.286723	250.0	38.7	-80.7	0.0
2025-01-20 19:02:26.535468	251.0	38.9	-80.5	0.0
2025-01-20 19:02:28.782057	252.0	39.0	-80.8	0.0
2025-01-20 19:02:31.029950	253.0	39.1	-80.8	0.0
2025-01-20 19:02:33.276339	254.0	39.2	-81.2	0.0
2025-01-20 19:02:35.522648	255.0	39.3	-80.9	0.0
2025-01-20 19:02:37.770108	256.1	39.3	-81.0	0.0
2025-01-20 19:02:40.019487	257.1	39.4	-80.9	0.0
2025-01-20 19:02:42.264580	258.1	39.5	-80.7	0.0
2025-01-20 19:02:44.509085	259.2	39.5	-80.7	0.0
2025-01-20 19:02:46.757169	260.2	39.5	-80.8	0.0
2025-01-20 19:02:49.003894	261.2	39.6	-80.5	0.0
2025-01-20 19:02:51.250259	262.3	39.6	-80.6	0.0
2025-01-20 19:02:53.495769	263.3	39.6	-80.7	0.0
2025-01-20 19:02:55.739705	264.4	39.6	-80.5	0.0
2025-01-20 19:02:57.983280	265.4	39.6	-81.0	0.0
2025-01-20 19:03:00.229825	266.4	39.5	-80.8	0.0
2025-01-20 19:03:02.478623	267.5	39.5	-81.0	0.0
2025-01-20 19:03:04.721514	268.5	39.5	-80.8	0.0
2025-01-20 19:03:06.970353	269.5	39.4	-80.6	0.0
2025-01-20 19:03:09.216021	270.6	39.3	-80.8	0.0
2025-01-20 19:03:11.463705	271.6	39.3	-80.9	0.0
2025-01-20 19:03:13.712703	272.6	39.2	-80.7	0.0
2025-01-20 19:03:15.956864	273.6	39.1	-80.6	0.0
2025-01-20 19:03:18.206849	274.6	39.0	-80.2	0.0
2025-01-20 19:03:20.452604	275.6	38.8	-80.8	0.0
2025-01-20 19:03:22.698924	276.6	38.7	-80.0	0.0
2025-01-20 19:03:24.944057	277.6	38.6	-80.2	0.0
2025-01-20 19:03:27.191538	278.6	38.4	-80.0	0.0
2025-01-20 19:03:29.440424	279.5	38.3	-80.0	0.0
2025-01-20 19:03:31.687405	280.5	38.1	-79.7	0.0
2025-01-20 19:03:33.932993	281.5	38.0	-80.1	0.0
2025-01-20 19:03:36.180927	282.4	37.8	-79.6	0.0
2025-01-20 19:03:38.426554	283.3	37.6	-79.2	0.0
2025-01-20 19:03:40.670706	284.2	37.4	-79.2	0.0
2025-01-20 19:03:42.918038	285.1	37.2	-79.8	0.0
2025-01-20 19:03:45.161047	286.0	37.0	-77.4	0.0
2025-01-20 19:03:47.408058	286.9	36.8	-79.7	0.0
2025-01-20 19:03:49.654048	287.8	36.6	-79.7	0.0
2025-01-20 19:03:51.902614	288.7	36.4	-79.5	0.0
2025-01-20 19:03:54.148091	289.5	36.2	-79.6	0.0
2025-01-20 19:03:56.392729	290.3	35.9	-79.9	0.0
2025-01-20 19:03:58.636957	291.2	35.7	-79.8	0.0
2025-01-20 19:04:00.880941	292.0	35.4	-79.6	0.0
2025-01-20 19:04:03.125831	292.8	35.2	-79.8	0.0
2025-01-20 19:04:05.367833	293.6	35.0	-76.9	0.0
2025-01-20 19:04:07.611935	294.4	34.7	-80.5	0.0
2025-01-20 19:04:09.856130	295.1	34.4	-79.9	0.0
2025-01-20 19:04:12.101156	295.9	34.2	-80.2	0.0
2025-01-20 19:04:14.347441	296.6	33.9	-80.4	0.0
2025-01-20 19:04:16.594032	297.4	33.7	-80.6	0.0
2025-01-20 19:04:18.841213	298.1	33.4	-80.4	0.0
2025-01-20 19:04:21.087861	298.8	33.1	-77.4	0.0
2025-01-20 19:04:23.336621	299.5	32.8	-80.7	0.0
2025-01-20 19:04:25.581522	300.2	32.6	-80.5	0.0
2025-01-20 19:04:27.829003	300.8	32.3	-78.3	0.0
2025-01-20 19:04:30.074247	301.5	32.0	-80.7	0.0
2025-01-20 19:04:32.320547	302.1	31.7	-79.9	0.0
2025-01-20 19:04:34.565836	302.8	31.5	-79.1	0.0
2025-01-20 19:04:36.811776	303.4	31.2	-77.1	0.0
2025-01-20 19:04:39.059865	304.0	30.9	-79.5	0.0
2025-01-20 19:04:41.308983	304.6	30.6	-80.0	0.0
2025-01-20 19:04:43.554633	305.2	30.3	-79.4	0.0
2025-01-20 19:04:45.798485	305.8	30.0	-79.0	0.0
2025-01-20 19:04:48.044184	306.4	29.8	-80.0	0.0
2025-01-20 19:04:50.290873	307.0	29.5	-80.1	0.0
2025-01-20 19:04:52.533256	307.5	29.2	-79.7	0.0
2025-01-20 19:04:54.780422	308.1	28.9	-79.6	0.0
2025-01-20 19:04:57.027804	308.6	28.6	-77.7	0.0
2025-01-20 19:04:59.271297	309.1	28.3	-79.4	0.0
2025-01-20 19:05:01.520439	309.7	28.0	-78.2	0.0
2025-01-20 19:05:03.764868	310.2	27.8	-77.4	0.0
2025-01-20 19:05:06.008111	310.7	27.5	-77.8	0.0
2025-01-20 19:05:08.256133	311.2	27.2	-78.4	0.0
2025-01-20 19:05:10.501197	311.7	26.9	-77.6	0.0
2025-01-20 19:05:12.749884	312.1	26.6	-78.1	0.0
2025-01-20 19:05:14.997096	312.6	26.4	-78.4	0.0
2025-01-20 19:05:17.240498	313.1	26.1	-78.2	0.0
2025-01-20 19:05:19.487319	313.5	25.8	-76.8	0.0
2025-01-20 19:05:21.735711	314.0	25.5	-77.8	0.0
2025-01-20 19:05:23.981502	314.4	25.2	-75.9	0.0
2025-01-20 19:05:26.226101	314.8	25.0	-79.4	0.0
2025-01-20 19:05:28.470516	315.2	24.7	-78.6	0.0
2025-01-20 19:05:30.716904	315.7	24.4	-78.6	0.0
2025-01-20 19:05:32.961452	316.1	24.2	-80.1	0.0
2025-01-20 19:05:35.208721	316.5	23.9	-79.2	0.0
2025-01-20 19:05:37.453773	316.9	23.6	-79.2	0.0
2025-01-20 19:05:39.700673	317.3	23.3	-75.0	0.0
2025-01-20 19:05:41.947165	317.6	23.1	-75.9	0.0
2025-01-20 19:05:44.193115	318.0	22.8	-76.9	0.0
2025-01-20 19:05:46.441066	318.4	22.6	-79.3	0.0
2025-01-20 19:05:48.684218	318.7	22.3	-80.3	0.0
2025-01-20 19:05:50.932120	319.1	22.0	-78.3	0.0
2025-01-20 19:05:53.174553	319.5	21.8	-76.6	0.0
2025-01-20 19:05:55.420836	319.8	21.5	-78.9	0.0
2025-01-20 19:05:57.667108	320.1	21.3	-79.7	0.0
2025-01-20 19:05:59.912953	320.5	21.0	-79.2	0.0
2025-01-20 19:06:02.158857	320.8	20.8	-78.9	0.0
2025-01-20 19:06:04.404538	321.1	20.5	-78.1	0.0
2025-01-20 19:06:06.651799	321.4	20.3	-74.6	0.0
2025-01-20 19:06:08.898897	321.8	20.0	-74.4	0.0
2025-01-20 19:06:11.145401	322.1	19.8	-72.9	0.0
2025-01-20 19:06:13.394932	322.4	19.5	-73.7	0.0
2025-01-20 19:06:15.642179	322.7	19.3	-75.8	0.0
2025-01-20 19:06:17.888166	323.0	19.1	-77.6	0.0
2025-01-20 19:06:20.134677	323.3	18.8	-76.8	0.0
2025-01-20 19:06:22.380997	323.6	18.6	-78.1	0.0
2025-01-20 19:06:24.627331	323.8	18.3	-78.0	0.0
2025-01-20 19:06:26.874164	324.1	18.1	-76.4	0.0
2025-01-20 19:06:29.122993	324.4	17.9	-76.3	0.0
2025-01-20 19:06:31.370077	324.7	17.7	-75.8	0.0
2025-01-20 19:06:33.612949	324.9	17.4	-77.0	0.0
2025-01-20 19:06:35.859058	325.2	17.2	-75.7	0.0
2025-01-20 19:06:38.106449	325.5	17.0	-76.2	0.0
2025-01-20 19:06:40.350283	325.7	16.8	-76.6	0.0
2025-01-20 19:06:42.592716	326.0	16.5	-75.7	0.0
2025-01-20 19:06:44.840692	326.2	16.3	-77.5	0.0
2025-01-20 19:06:47.088287	326.5	16.1	-77.1	0.0
2025-01-20 19:06:49.333716	326.7	15.9	-77.0	0.0
2025-01-20 19:06:51.578033	326.9	15.7	-78.3	0.0
2025-01-20 19:06:53.824418	327.2	15.4	-77.6	0.0
2025-01-20 19:06:56.070980	327.4	15.2	-76.8	0.0
2025-01-20 19:06:58.320874	327.6	15.0	-76.5	0.0
2025-01-20 19:07:00.566920	327.9	14.8	-77.7	0.0
2025-01-20 19:07:02.810575	328.1	14.6	-76.7	0.0
2025-01-20 19:07:05.056879	328.3	14.4	-75.1	0.0
2025-01-20 19:07:07.301937	328.5	14.2	-76.2	0.0
2025-01-20 19:07:09.545791	328.7	14.0	-77.0	0.0
2025-01-20 19:07:11.796220	328.9	13.8	-77.8	0.0
2025-01-20 19:07:14.040396	329.1	13.6	-75.9	0.0
2025-01-20 19:07:16.288277	329.4	13.4	-77.0	0.0
2025-01-20 19:07:18.533510	329.6	13.2	-76.4	0.0
2025-01-20 19:07:20.782041	329.8	13.0	-72.1	0.0
2025-01-20 19:07:23.024933	330.0	12.8	-76.5	0.0
2025-01-20 19:07:25.270646	330.1	12.6	-77.6	0.0
2025-01-20 19:07:27.516869	330.3	12.4	-73.6	0.0
2025-01-20 19:07:29.763621	330.5	12.2	-74.0	0.0
2025-01-20 19:07:32.006406	330.7	12.0	-75.0	0.0
2025-01-20 19:07:34.251341	330.9	11.8	-76.5	0.0
2025-01-20 19:07:36.495557	331.1	11.6	-74.5	0.0
2025-01-20 19:07:38.743163	331.3	11.4	-72.2	0.0
2025-01-20 19:07:40.988222	331.4	11.3	-74.5	0.0
2025-01-20 19:07:43.232788	331.6	11.1	-75.6	0.0
2025-01-20 19:07:45.478700	331.8	10.9	-77.8	0.0
2025-01-20 19:07:47.724082	332.0	10.7	-80.5	0.0
2025-01-20 19:07:49.971796	332.1	10.5	-81.4	0.0
2025-01-20 19:07:52.219049	332.3	10.3	-82.9	0.0
2025-01-20 19:07:54.465173	332.5	10.2	-82.5	0.0
#Closed at: 2025-01-20 18:57:47.509350