passes_logs/2025/01/20/planumMaritime01/planumMaritime01__20250120_100609_NOAA_18_rec.log

#Pass ID: 20250120_100609_NOAA 18
#Satellite: NOAA 18
#Configuration: NOAA 18
#Start time: 2025-01-20 10:06:14.201917

#LorettStation: 1.0.0 05.05.2024
#Station: planumMaritime01
#Location: 37.49445 lon 55.92918 lat
#TLE: 1 28654U 05018A   25019.12683114  .00000403  00000+0  23745-3 0  9992
#TLE: 2 28654  98.8559 100.1402 0014536 167.7337 192.4191 14.13490232 13765

#Time	Az	El	Level	SNR
2025-01-20 10:06:16.357436	6.4	10.2	-67.9	0.0
2025-01-20 10:06:18.600647	6.2	10.3	-68.1	0.0
2025-01-20 10:06:20.847323	6.1	10.5	-68.4	0.0
2025-01-20 10:06:23.094157	5.9	10.7	-66.2	0.0
2025-01-20 10:06:25.338387	5.7	10.9	-62.1	0.0
2025-01-20 10:06:27.586315	5.5	11.1	-68.6	0.0
2025-01-20 10:06:29.833691	5.4	11.3	-69.2	0.0
2025-01-20 10:06:32.078433	5.2	11.4	-67.7	0.0
2025-01-20 10:06:34.328136	5.0	11.6	-67.3	0.0
2025-01-20 10:06:36.574253	4.8	11.8	-68.5	0.0
2025-01-20 10:06:38.819391	4.7	12.0	-67.8	0.0
2025-01-20 10:06:41.065347	4.5	12.2	-67.7	0.0
2025-01-20 10:06:43.310843	4.3	12.4	-70.4	0.0
2025-01-20 10:06:45.558702	4.1	12.6	-70.0	0.0
2025-01-20 10:06:47.808769	3.9	12.8	-69.5	0.0
2025-01-20 10:06:50.053603	3.7	13.0	-68.6	0.0
2025-01-20 10:06:52.298989	3.5	13.1	-67.4	0.0
2025-01-20 10:06:54.544528	3.3	13.3	-69.8	0.0
2025-01-20 10:06:56.792058	3.1	13.5	-66.5	0.0
2025-01-20 10:06:59.039636	2.9	13.7	-66.8	0.0
2025-01-20 10:07:01.285917	2.7	13.9	-66.1	0.0
2025-01-20 10:07:03.531709	2.5	14.1	-67.7	0.0
2025-01-20 10:07:05.775174	2.3	14.3	-65.3	0.0
2025-01-20 10:07:08.021221	2.1	14.5	-67.8	0.0
2025-01-20 10:07:10.265860	1.9	14.8	-67.3	0.0
2025-01-20 10:07:12.512242	1.6	15.0	-67.5	0.0
2025-01-20 10:07:14.762062	1.4	15.2	-71.1	0.0
2025-01-20 10:07:17.006326	1.2	15.4	-69.6	0.0
2025-01-20 10:07:19.253403	0.9	15.6	-72.8	0.0
2025-01-20 10:07:21.500340	0.7	15.8	-68.5	0.0
2025-01-20 10:07:23.746293	0.5	16.0	-69.5	0.0
2025-01-20 10:07:25.994313	0.2	16.2	-68.0	0.0
2025-01-20 10:07:28.240150	360.0	16.4	-68.9	0.0
2025-01-20 10:07:30.485601	359.7	16.7	-68.9	0.0
2025-01-20 10:07:32.733276	359.5	16.9	-68.1	0.0
2025-01-20 10:07:34.978993	359.2	17.1	-67.6	0.0
2025-01-20 10:07:37.227211	359.0	17.3	-68.1	0.0
2025-01-20 10:07:39.474431	358.7	17.5	-66.3	0.0
2025-01-20 10:07:41.723166	358.4	17.8	-67.4	0.0
2025-01-20 10:07:43.971814	358.1	18.0	-67.8	0.0
2025-01-20 10:07:46.221063	357.9	18.2	-67.6	0.0
2025-01-20 10:07:48.469867	357.6	18.4	-70.0	0.0
2025-01-20 10:07:50.715788	357.3	18.7	-69.3	0.0
2025-01-20 10:07:52.960937	357.0	18.9	-69.1	0.0
2025-01-20 10:07:55.205942	356.7	19.1	-70.2	0.0
2025-01-20 10:07:57.452733	356.4	19.4	-68.5	0.0
2025-01-20 10:07:59.698812	356.1	19.6	-70.0	0.0
2025-01-20 10:08:01.944408	355.8	19.8	-68.6	0.0
2025-01-20 10:08:04.192477	355.5	20.1	-69.8	0.0
2025-01-20 10:08:06.435769	355.2	20.3	-67.7	0.0
2025-01-20 10:08:08.683358	354.8	20.5	-69.5	0.0
2025-01-20 10:08:10.931474	354.5	20.8	-70.6	0.0
2025-01-20 10:08:13.176258	354.2	21.0	-67.4	0.0
2025-01-20 10:08:15.426014	353.8	21.3	-71.0	0.0
2025-01-20 10:08:17.672653	353.5	21.5	-71.7	0.0
2025-01-20 10:08:19.921020	353.1	21.8	-71.3	0.0
2025-01-20 10:08:22.166498	352.8	22.0	-71.8	0.0
2025-01-20 10:08:24.412162	352.4	22.3	-71.7	0.0
2025-01-20 10:08:26.657785	352.0	22.5	-72.3	0.0
2025-01-20 10:08:28.904561	351.7	22.8	-70.6	0.0
2025-01-20 10:08:31.148872	351.3	23.0	-71.6	0.0
2025-01-20 10:08:33.394082	350.9	23.3	-69.9	0.0
2025-01-20 10:08:35.641026	350.5	23.5	-72.0	0.0
2025-01-20 10:08:37.889436	350.1	23.8	-72.8	0.0
2025-01-20 10:08:40.139831	349.7	24.0	-74.1	0.0
2025-01-20 10:08:42.388639	349.3	24.3	-73.2	0.0
2025-01-20 10:08:44.636268	348.9	24.5	-73.8	0.0
2025-01-20 10:08:46.884791	348.4	24.8	-75.1	0.0
2025-01-20 10:08:49.131422	348.0	25.0	-73.9	0.0
2025-01-20 10:08:51.379659	347.5	25.3	-73.0	0.0
2025-01-20 10:08:53.625130	347.1	25.6	-73.4	0.0
2025-01-20 10:08:55.872368	346.6	25.8	-74.1	0.0
2025-01-20 10:08:58.117463	346.2	26.1	-74.4	0.0
2025-01-20 10:09:00.363330	345.7	26.3	-72.6	0.0
2025-01-20 10:09:02.610714	345.2	26.6	-73.0	0.0
2025-01-20 10:09:04.860382	344.7	26.9	-72.8	0.0
2025-01-20 10:09:07.106553	344.2	27.1	-74.7	0.0
2025-01-20 10:09:09.352905	343.7	27.4	-73.9	0.0
2025-01-20 10:09:11.600352	343.2	27.7	-73.6	0.0
2025-01-20 10:09:13.844926	342.7	27.9	-74.9	0.0
2025-01-20 10:09:16.095511	342.1	28.2	-74.1	0.0
2025-01-20 10:09:18.339729	341.6	28.4	-73.0	0.0
2025-01-20 10:09:20.587926	341.1	28.7	-71.1	0.0
2025-01-20 10:09:22.833214	340.5	29.0	-75.3	0.0
2025-01-20 10:09:25.078110	339.9	29.2	-74.7	0.0
2025-01-20 10:09:27.323544	339.4	29.5	-76.2	0.0
2025-01-20 10:09:29.570776	338.8	29.7	-77.3	0.0
2025-01-20 10:09:31.817991	338.2	30.0	-75.4	0.0
2025-01-20 10:09:34.064932	337.6	30.2	-76.1	0.0
2025-01-20 10:09:36.309654	336.9	30.5	-76.4	0.0
2025-01-20 10:09:38.558563	336.3	30.8	-77.2	0.0
2025-01-20 10:09:40.804583	335.7	31.0	-74.5	0.0
2025-01-20 10:09:43.049957	335.0	31.2	-77.3	0.0
2025-01-20 10:09:45.295522	334.4	31.5	-77.7	0.0
2025-01-20 10:09:47.544836	333.7	31.7	-77.8	0.0
2025-01-20 10:09:49.794230	333.0	32.0	-78.5	0.0
2025-01-20 10:09:52.039290	332.4	32.2	-76.9	0.0
2025-01-20 10:09:54.287297	331.7	32.5	-78.4	0.0
2025-01-20 10:09:56.536381	330.9	32.7	-77.7	0.0
2025-01-20 10:09:58.779504	330.2	32.9	-78.1	0.0
2025-01-20 10:10:01.026653	329.5	33.1	-77.2	0.0
2025-01-20 10:10:03.272403	328.8	33.4	-77.2	0.0
2025-01-20 10:10:05.514169	328.0	33.6	-77.4	0.0
2025-01-20 10:10:07.760409	327.3	33.8	-77.2	0.0
2025-01-20 10:10:10.004958	326.5	34.0	-77.3	0.0
2025-01-20 10:10:12.250384	325.7	34.2	-77.2	0.0
2025-01-20 10:10:14.494908	324.9	34.4	-77.2	0.0
2025-01-20 10:10:16.741860	324.1	34.6	-76.7	0.0
2025-01-20 10:10:18.989759	323.3	34.8	-77.9	0.0
2025-01-20 10:10:21.237151	322.5	35.0	-74.3	0.0
2025-01-20 10:10:23.486120	321.7	35.2	-77.0	0.0
2025-01-20 10:10:25.731242	320.8	35.3	-76.6	0.0
2025-01-20 10:10:27.976166	320.0	35.5	-77.2	0.0
2025-01-20 10:10:30.222171	319.2	35.7	-75.3	0.0
2025-01-20 10:10:32.469644	318.3	35.8	-77.3	0.0
2025-01-20 10:10:34.716190	317.4	36.0	-77.8	0.0
2025-01-20 10:10:36.958229	316.5	36.1	-77.3	0.0
2025-01-20 10:10:39.203843	315.7	36.2	-78.1	0.0
2025-01-20 10:10:41.448504	314.8	36.4	-77.7	0.0
2025-01-20 10:10:43.697806	313.9	36.5	-78.0	0.0
2025-01-20 10:10:45.944412	313.0	36.6	-78.3	0.0
2025-01-20 10:10:48.191372	312.1	36.7	-77.3	0.0
2025-01-20 10:10:50.432795	311.1	36.8	-78.3	0.0
2025-01-20 10:10:52.679270	310.2	36.9	-78.7	0.0
2025-01-20 10:10:54.928929	309.3	37.0	-78.7	0.0
2025-01-20 10:10:57.176438	308.4	37.0	-78.8	0.0
2025-01-20 10:10:59.422084	307.4	37.1	-78.8	0.0
2025-01-20 10:11:01.668457	306.5	37.2	-79.0	0.0
2025-01-20 10:11:03.916709	305.5	37.2	-78.3	0.0
2025-01-20 10:11:06.163725	304.6	37.2	-79.0	0.0
2025-01-20 10:11:08.410650	303.7	37.3	-78.6	0.0
2025-01-20 10:11:10.656507	302.7	37.3	-79.5	0.0
2025-01-20 10:11:12.902540	301.8	37.3	-78.6	0.0
2025-01-20 10:11:15.151915	300.8	37.3	-78.6	0.0
2025-01-20 10:11:17.398227	299.9	37.3	-78.0	0.0
2025-01-20 10:11:19.642728	298.9	37.3	-76.3	0.0
2025-01-20 10:11:21.890566	298.0	37.2	-79.0	0.0
2025-01-20 10:11:24.140069	297.0	37.2	-78.7	0.0
2025-01-20 10:11:26.389299	296.1	37.2	-78.9	0.0
2025-01-20 10:11:28.636315	295.1	37.1	-78.7	0.0
2025-01-20 10:11:30.886094	294.2	37.0	-78.6	0.0
2025-01-20 10:11:33.134314	293.3	37.0	-79.3	0.0
2025-01-20 10:11:35.378438	292.3	36.9	-79.2	0.0
2025-01-20 10:11:37.625805	291.4	36.8	-79.0	0.0
2025-01-20 10:11:39.875132	290.5	36.7	-79.2	0.0
2025-01-20 10:11:42.124048	289.6	36.6	-79.3	0.0
2025-01-20 10:11:44.379698	288.7	36.5	-78.9	0.0
2025-01-20 10:11:46.625988	287.8	36.4	-78.8	0.0
2025-01-20 10:11:48.873619	286.9	36.3	-79.0	0.0
2025-01-20 10:11:51.119728	286.0	36.1	-78.4	0.0
2025-01-20 10:11:53.364752	285.1	36.0	-78.3	0.0
2025-01-20 10:11:55.607172	284.2	35.8	-78.9	0.0
2025-01-20 10:11:57.852030	283.4	35.7	-78.3	0.0
2025-01-20 10:12:00.098400	282.5	35.5	-79.1	0.0
2025-01-20 10:12:02.342425	281.7	35.3	-79.2	0.0
2025-01-20 10:12:04.590326	280.8	35.2	-78.9	0.0
2025-01-20 10:12:06.836601	280.0	35.0	-78.7	0.0
2025-01-20 10:12:09.088855	279.2	34.8	-79.0	0.0
2025-01-20 10:12:11.335779	278.4	34.6	-79.0	0.0
2025-01-20 10:12:13.583373	277.6	34.4	-78.4	0.0
2025-01-20 10:12:15.828894	276.8	34.2	-78.5	0.0
2025-01-20 10:12:18.071849	276.0	34.0	-78.6	0.0
2025-01-20 10:12:20.316004	275.2	33.8	-78.5	0.0
2025-01-20 10:12:22.562880	274.5	33.6	-78.8	0.0
2025-01-20 10:12:24.808519	273.7	33.4	-79.3	0.0
2025-01-20 10:12:27.057027	273.0	33.1	-79.0	0.0
2025-01-20 10:12:29.304899	272.2	32.9	-79.0	0.0
2025-01-20 10:12:31.553201	271.5	32.7	-78.8	0.0
2025-01-20 10:12:33.801987	270.8	32.4	-79.3	0.0
2025-01-20 10:12:36.048924	270.1	32.2	-78.9	0.0
2025-01-20 10:12:38.297417	269.4	32.0	-78.7	0.0
2025-01-20 10:12:40.541511	268.7	31.7	-78.9	0.0
2025-01-20 10:12:42.784827	268.1	31.5	-78.8	0.0
2025-01-20 10:12:45.030590	267.4	31.2	-79.3	0.0
2025-01-20 10:12:47.277819	266.7	31.0	-78.9	0.0
2025-01-20 10:12:49.523591	266.1	30.7	-78.8	0.0
2025-01-20 10:12:51.773549	265.5	30.5	-79.0	0.0
2025-01-20 10:12:54.022088	264.9	30.2	-78.9	0.0
2025-01-20 10:12:56.269105	264.2	30.0	-78.7	0.0
2025-01-20 10:12:58.515393	263.6	29.7	-78.7	0.0
2025-01-20 10:13:00.760561	263.1	29.4	-78.7	0.0
2025-01-20 10:13:03.006729	262.5	29.2	-78.2	0.0
2025-01-20 10:13:05.252830	261.9	28.9	-78.4	0.0
2025-01-20 10:13:07.502858	261.3	28.7	-78.6	0.0
2025-01-20 10:13:09.746942	260.8	28.4	-78.5	0.0
2025-01-20 10:13:11.992703	260.2	28.1	-78.7	0.0
2025-01-20 10:13:14.236370	259.7	27.9	-78.7	0.0
2025-01-20 10:13:16.484946	259.2	27.6	-79.1	0.0
2025-01-20 10:13:18.734028	258.7	27.3	-79.1	0.0
2025-01-20 10:13:20.981210	258.1	27.1	-79.0	0.0
2025-01-20 10:13:23.226790	257.6	26.8	-79.3	0.0
2025-01-20 10:13:25.470169	257.1	26.6	-78.5	0.0
2025-01-20 10:13:27.711840	256.7	26.3	-79.5	0.0
2025-01-20 10:13:29.958685	256.2	26.0	-79.3	0.0
2025-01-20 10:13:32.208228	255.7	25.8	-79.2	0.0
2025-01-20 10:13:34.452939	255.3	25.5	-79.4	0.0
2025-01-20 10:13:36.702144	254.8	25.2	-79.2	0.0
2025-01-20 10:13:38.948812	254.4	25.0	-79.1	0.0
2025-01-20 10:13:41.193587	253.9	24.7	-78.7	0.0
2025-01-20 10:13:43.437083	253.5	24.5	-79.3	0.0
2025-01-20 10:13:45.683021	253.1	24.2	-78.9	0.0
2025-01-20 10:13:47.930001	252.6	23.9	-79.7	0.0
2025-01-20 10:13:50.174470	252.2	23.7	-78.8	0.0
2025-01-20 10:13:52.422245	251.8	23.4	-79.4	0.0
2025-01-20 10:13:54.667685	251.4	23.2	-79.6	0.0
2025-01-20 10:13:56.912016	251.0	22.9	-79.6	0.0
2025-01-20 10:13:59.160639	250.6	22.7	-79.6	0.0
2025-01-20 10:14:01.408461	250.3	22.4	-79.4	0.0
2025-01-20 10:14:03.655627	249.9	22.2	-79.9	0.0
2025-01-20 10:14:05.903784	249.5	21.9	-79.6	0.0
2025-01-20 10:14:08.148263	249.2	21.7	-79.4	0.0
2025-01-20 10:14:10.394137	248.8	21.4	-79.1	0.0
2025-01-20 10:14:12.641047	248.5	21.2	-79.4	0.0
2025-01-20 10:14:14.886062	248.1	20.9	-79.0	0.0
2025-01-20 10:14:17.133294	247.8	20.7	-79.2	0.0
2025-01-20 10:14:19.381766	247.4	20.4	-79.1	0.0
2025-01-20 10:14:21.623337	247.1	20.2	-79.0	0.0
2025-01-20 10:14:23.870112	246.8	20.0	-79.3	0.0
2025-01-20 10:14:26.115507	246.5	19.7	-79.3	0.0
2025-01-20 10:14:28.361395	246.2	19.5	-79.0	0.0
2025-01-20 10:14:30.609875	245.9	19.2	-78.9	0.0
2025-01-20 10:14:32.860552	245.5	19.0	-78.4	0.0
2025-01-20 10:14:35.105999	245.2	18.8	-78.8	0.0
2025-01-20 10:14:37.353380	245.0	18.5	-78.6	0.0
2025-01-20 10:14:39.602835	244.7	18.3	-79.1	0.0
2025-01-20 10:14:41.848338	244.4	18.1	-78.7	0.0
2025-01-20 10:14:44.097276	244.1	17.9	-78.5	0.0
2025-01-20 10:14:46.345413	243.8	17.6	-78.4	0.0
2025-01-20 10:14:48.593550	243.5	17.4	-78.1	0.0
2025-01-20 10:14:50.840115	243.3	17.2	-77.4	0.0
2025-01-20 10:14:53.086311	243.0	17.0	-77.6	0.0
2025-01-20 10:14:55.332886	242.8	16.7	-77.4	0.0
2025-01-20 10:14:57.579261	242.5	16.5	-77.0	0.0
2025-01-20 10:14:59.828454	242.2	16.3	-77.2	0.0
2025-01-20 10:15:02.072278	242.0	16.1	-77.1	0.0
2025-01-20 10:15:04.318884	241.7	15.9	-78.5	0.0
2025-01-20 10:15:06.564503	241.5	15.7	-77.9	0.0
2025-01-20 10:15:08.813068	241.3	15.4	-77.3	0.0
2025-01-20 10:15:11.061190	241.0	15.2	-77.0	0.0
2025-01-20 10:15:13.304485	240.8	15.0	-77.2	0.0
2025-01-20 10:15:15.550510	240.6	14.8	-76.2	0.0
2025-01-20 10:15:17.797333	240.3	14.6	-76.7	0.0
2025-01-20 10:15:20.044205	240.1	14.4	-77.1	0.0
2025-01-20 10:15:22.290078	239.9	14.2	-78.1	0.0
2025-01-20 10:15:24.536600	239.7	14.0	-77.0	0.0
2025-01-20 10:15:26.786823	239.5	13.8	-77.8	0.0
2025-01-20 10:15:29.034916	239.3	13.6	-77.5	0.0
2025-01-20 10:15:31.279996	239.1	13.4	-77.9	0.0
2025-01-20 10:15:33.523205	238.9	13.2	-78.0	0.0
2025-01-20 10:15:35.771883	238.7	13.0	-77.6	0.0
2025-01-20 10:15:38.017234	238.5	12.8	-77.8	0.0
2025-01-20 10:15:40.266402	238.3	12.6	-77.7	0.0
2025-01-20 10:15:42.514829	238.1	12.4	-77.9	0.0
2025-01-20 10:15:44.759658	237.9	12.2	-77.0	0.0
2025-01-20 10:15:47.007098	237.7	12.0	-77.2	0.0
2025-01-20 10:15:49.249977	237.5	11.8	-77.8	0.0
2025-01-20 10:15:51.493295	237.3	11.6	-77.4	0.0
2025-01-20 10:15:53.742301	237.1	11.5	-77.5	0.0
2025-01-20 10:15:55.991005	237.0	11.3	-77.3	0.0
2025-01-20 10:15:58.236031	236.8	11.1	-76.8	0.0
2025-01-20 10:16:00.479784	236.6	10.9	-79.4	0.0
2025-01-20 10:16:02.725421	236.4	10.7	-79.4	0.0
2025-01-20 10:16:04.972984	236.3	10.5	-80.4	0.0
2025-01-20 10:16:07.219000	236.1	10.4	-81.8	0.0
2025-01-20 10:16:09.466830	235.9	10.2	-81.9	0.0
#Closed at: 2025-01-20 10:06:09.204363