passes_logs/2025/01/20/planumMaritime01/planumMaritime01__20250120_061958_METEOR-M2_3_rec.log

#Pass ID: 20250120_061958_METEOR-M2 3
#Satellite: METEOR-M2 3
#Configuration: METEOR-M2 3
#Start time: 2025-01-20 06:20:03.486659

#LorettStation: 1.0.0 05.05.2024
#Station: planumMaritime01
#Location: 37.49445 lon 55.92918 lat
#TLE: 1 57166U 23091A   25019.11852169  .00000046  00000+0  39019-4 0  9995
#TLE: 2 57166  98.6842  77.5312 0003403 210.3992 149.6989 14.23970176 81358

#Time	Az	El	Level	SNR
2025-01-20 06:20:05.636427	32.5	10.2	-94.3	0.0
2025-01-20 06:20:07.879530	32.7	10.3	-94.5	0.0
2025-01-20 06:20:10.123685	32.9	10.5	-94.8	0.0
2025-01-20 06:20:12.363836	33.2	10.7	-94.4	0.0
2025-01-20 06:20:14.606706	33.4	10.8	-94.7	0.0
2025-01-20 06:20:16.849991	33.6	11.0	-94.6	0.0
2025-01-20 06:20:19.090876	33.9	11.2	-94.7	0.0
2025-01-20 06:20:21.334824	34.1	11.3	-94.8	0.0
2025-01-20 06:20:23.575741	34.4	11.5	-94.7	0.0
2025-01-20 06:20:25.816409	34.6	11.7	-94.8	0.0
2025-01-20 06:20:28.058288	34.8	11.8	-94.5	0.0
2025-01-20 06:20:30.298870	35.1	12.0	-94.6	0.0
2025-01-20 06:20:32.540881	35.3	12.2	-94.8	0.0
2025-01-20 06:20:34.782191	35.6	12.4	-94.7	0.0
2025-01-20 06:20:37.026502	35.9	12.5	-94.6	0.0
2025-01-20 06:20:39.265724	36.1	12.7	-94.7	0.0
2025-01-20 06:20:41.508918	36.4	12.9	-94.7	0.0
2025-01-20 06:20:43.751307	36.7	13.1	-94.5	0.0
2025-01-20 06:20:45.991900	36.9	13.2	-94.6	0.0
2025-01-20 06:20:48.232974	37.2	13.4	-94.4	0.0
2025-01-20 06:20:50.474297	37.5	13.6	-94.6	0.0
2025-01-20 06:20:52.715924	37.8	13.8	-94.4	0.0
2025-01-20 06:20:54.957956	38.0	14.0	-94.5	0.0
2025-01-20 06:20:57.201891	38.3	14.1	-94.4	0.0
2025-01-20 06:20:59.442962	38.6	14.3	-94.5	0.0
2025-01-20 06:21:01.685800	38.9	14.5	-94.3	0.0
2025-01-20 06:21:03.929722	39.2	14.7	-94.6	0.0
2025-01-20 06:21:06.170024	39.5	14.9	-94.2	0.0
2025-01-20 06:21:08.410871	39.8	15.1	-94.4	0.0
2025-01-20 06:21:10.651259	40.1	15.2	-94.3	0.0
2025-01-20 06:21:12.894978	40.4	15.4	-94.4	0.0
2025-01-20 06:21:15.135917	40.8	15.6	-94.8	0.0
2025-01-20 06:21:17.379039	41.1	15.8	-94.9	0.0
2025-01-20 06:21:19.620263	41.4	16.0	-94.7	0.0
2025-01-20 06:21:21.865038	41.7	16.2	-94.7	0.0
2025-01-20 06:21:24.106989	42.1	16.4	-94.6	0.0
2025-01-20 06:21:26.349050	42.4	16.6	-94.7	0.0
2025-01-20 06:21:28.593255	42.7	16.8	-94.8	0.0
2025-01-20 06:21:30.834784	43.1	16.9	-94.7	0.0
2025-01-20 06:21:33.076248	43.4	17.1	-94.7	0.0
2025-01-20 06:21:35.316592	43.8	17.3	-94.9	0.0
2025-01-20 06:21:37.557428	44.2	17.5	-94.8	0.0
2025-01-20 06:21:39.799731	44.5	17.7	-94.7	0.0
2025-01-20 06:21:42.040050	44.9	17.9	-94.7	0.0
2025-01-20 06:21:44.280877	45.3	18.1	-94.5	0.0
2025-01-20 06:21:46.518745	45.6	18.3	-94.8	0.0
2025-01-20 06:21:48.761639	46.0	18.5	-94.8	0.0
2025-01-20 06:21:51.004265	46.4	18.7	-94.8	0.0
2025-01-20 06:21:53.246921	46.8	18.9	-94.4	0.0
2025-01-20 06:21:55.489301	47.2	19.1	-94.6	0.0
2025-01-20 06:21:57.734038	47.6	19.3	-94.5	0.0
2025-01-20 06:21:59.977055	48.0	19.5	-94.6	0.0
2025-01-20 06:22:02.219233	48.4	19.7	-94.4	0.0
2025-01-20 06:22:04.462964	48.8	19.9	-94.6	0.0
2025-01-20 06:22:06.702672	49.2	20.1	-94.6	0.0
2025-01-20 06:22:08.944959	49.7	20.3	-94.3	0.0
2025-01-20 06:22:11.188315	50.1	20.5	-94.6	0.0
2025-01-20 06:22:13.432752	50.5	20.7	-94.5	0.0
2025-01-20 06:22:15.675870	51.0	20.9	-94.8	0.0
2025-01-20 06:22:17.918622	51.4	21.1	-94.9	0.0
2025-01-20 06:22:20.164416	51.9	21.3	-94.8	0.0
2025-01-20 06:22:22.407577	52.4	21.5	-94.9	0.0
2025-01-20 06:22:24.651042	52.8	21.6	-94.9	0.0
2025-01-20 06:22:26.891893	53.3	21.8	-94.6	0.0
2025-01-20 06:22:29.135039	53.8	22.0	-94.8	0.0
2025-01-20 06:22:31.375363	54.3	22.2	-94.5	0.0
2025-01-20 06:22:33.616861	54.8	22.4	-94.5	0.0
2025-01-20 06:22:35.855819	55.2	22.6	-94.6	0.0
2025-01-20 06:22:38.097015	55.8	22.8	-94.7	0.0
2025-01-20 06:22:40.337933	56.3	23.0	-94.6	0.0
2025-01-20 06:22:42.580147	56.8	23.2	-94.2	0.0
2025-01-20 06:22:44.824860	57.3	23.4	-94.6	0.0
2025-01-20 06:22:47.066637	57.8	23.6	-94.5	0.0
2025-01-20 06:22:49.310075	58.4	23.8	-94.8	0.0
2025-01-20 06:22:51.553032	58.9	24.0	-94.5	0.0
2025-01-20 06:22:53.795147	59.4	24.1	-94.5	0.0
2025-01-20 06:22:56.035574	60.0	24.3	-94.7	0.0
2025-01-20 06:22:58.279793	60.6	24.5	-94.5	0.0
2025-01-20 06:23:00.523574	61.1	24.7	-94.5	0.0
2025-01-20 06:23:02.764864	61.7	24.9	-94.7	0.0
2025-01-20 06:23:05.004643	62.3	25.0	-94.8	0.0
2025-01-20 06:23:07.247468	62.9	25.2	-94.6	0.0
2025-01-20 06:23:09.489052	63.5	25.4	-94.7	0.0
2025-01-20 06:23:11.730541	64.1	25.6	-94.8	0.0
2025-01-20 06:23:13.969404	64.7	25.7	-94.7	0.0
2025-01-20 06:23:16.213317	65.3	25.9	-94.7	0.0
2025-01-20 06:23:18.452283	65.9	26.1	-94.8	0.0
2025-01-20 06:23:20.693046	66.5	26.2	-94.5	0.0
2025-01-20 06:23:22.935272	67.1	26.4	-94.9	0.0
2025-01-20 06:23:25.175240	67.8	26.6	-94.8	0.0
2025-01-20 06:23:27.417310	68.4	26.7	-94.8	0.0
2025-01-20 06:23:29.662514	69.1	26.9	-94.9	0.0
2025-01-20 06:23:31.904237	69.7	27.0	-94.8	0.0
2025-01-20 06:23:34.149059	70.4	27.2	-94.8	0.0
2025-01-20 06:23:36.390453	71.1	27.3	-94.9	0.0
2025-01-20 06:23:38.635685	71.7	27.4	-94.9	0.0
2025-01-20 06:23:40.879183	72.4	27.6	-94.5	0.0
2025-01-20 06:23:43.120819	73.1	27.7	-94.8	0.0
2025-01-20 06:23:45.364139	73.8	27.8	-94.8	0.0
2025-01-20 06:23:47.605191	74.5	28.0	-94.5	0.0
2025-01-20 06:23:49.848233	75.2	28.1	-94.4	0.0
2025-01-20 06:23:52.088684	75.9	28.2	-94.6	0.0
2025-01-20 06:23:54.330914	76.6	28.3	-94.7	0.0
2025-01-20 06:23:56.575037	77.3	28.4	-94.5	0.0
2025-01-20 06:23:58.817892	78.0	28.5	-94.9	0.0
2025-01-20 06:24:01.062061	78.8	28.6	-95.0	0.0
2025-01-20 06:24:03.302797	79.5	28.7	-94.6	0.0
2025-01-20 06:24:05.542958	80.2	28.8	-94.9	0.0
2025-01-20 06:24:07.781296	81.0	28.9	-94.6	0.0
2025-01-20 06:24:10.021180	81.7	29.0	-94.6	0.0
2025-01-20 06:24:12.263112	82.5	29.0	-94.5	0.0
2025-01-20 06:24:14.502546	83.2	29.1	-94.8	0.0
2025-01-20 06:24:16.745015	84.0	29.2	-94.6	0.0
2025-01-20 06:24:18.984481	84.7	29.2	-94.9	0.0
2025-01-20 06:24:21.229041	85.5	29.3	-94.9	0.0
2025-01-20 06:24:23.468650	86.2	29.3	-94.7	0.0
2025-01-20 06:24:25.709610	87.0	29.4	-94.7	0.0
2025-01-20 06:24:27.952020	87.8	29.4	-94.9	0.0
2025-01-20 06:24:30.192063	88.5	29.5	-95.0	0.0
2025-01-20 06:24:32.435411	89.3	29.5	-94.9	0.0
2025-01-20 06:24:34.676902	90.1	29.5	-94.8	0.0
2025-01-20 06:24:36.920934	90.8	29.5	-94.9	0.0
2025-01-20 06:24:39.165059	91.6	29.5	-95.0	0.0
2025-01-20 06:24:41.404907	92.4	29.5	-94.9	0.0
2025-01-20 06:24:43.649196	93.1	29.5	-95.1	0.0
2025-01-20 06:24:45.889244	93.9	29.5	-94.9	0.0
2025-01-20 06:24:48.129630	94.7	29.5	-94.9	0.0
2025-01-20 06:24:50.374730	95.5	29.5	-95.0	0.0
2025-01-20 06:24:52.619218	96.2	29.5	-94.9	0.0
2025-01-20 06:24:54.861280	97.0	29.5	-94.6	0.0
2025-01-20 06:24:57.101403	97.8	29.4	-94.8	0.0
2025-01-20 06:24:59.343939	98.5	29.4	-94.8	0.0
2025-01-20 06:25:01.584643	99.3	29.3	-94.7	0.0
2025-01-20 06:25:03.825198	100.1	29.3	-94.7	0.0
2025-01-20 06:25:06.067321	100.8	29.2	-94.7	0.0
2025-01-20 06:25:08.311242	101.6	29.2	-94.8	0.0
2025-01-20 06:25:10.555519	102.3	29.1	-94.5	0.0
2025-01-20 06:25:12.797377	103.1	29.1	-94.7	0.0
2025-01-20 06:25:15.042244	103.8	29.0	-94.6	0.0
2025-01-20 06:25:17.283964	104.6	28.9	-95.0	0.0
2025-01-20 06:25:19.525075	105.3	28.8	-95.1	0.0
2025-01-20 06:25:21.765964	106.1	28.7	-94.7	0.0
2025-01-20 06:25:24.007831	106.8	28.6	-95.1	0.0
2025-01-20 06:25:26.251461	107.5	28.5	-94.9	0.0
2025-01-20 06:25:28.494545	108.2	28.4	-95.0	0.0
2025-01-20 06:25:30.734599	109.0	28.3	-94.8	0.0
2025-01-20 06:25:32.974870	109.7	28.2	-94.9	0.0
2025-01-20 06:25:35.216753	110.4	28.1	-94.7	0.0
2025-01-20 06:25:37.460606	111.1	28.0	-94.9	0.0
2025-01-20 06:25:39.703118	111.8	27.8	-94.7	0.0
2025-01-20 06:25:41.950437	112.5	27.7	-94.6	0.0
2025-01-20 06:25:44.194556	113.2	27.6	-94.5	0.0
2025-01-20 06:25:46.437066	113.9	27.4	-94.9	0.0
2025-01-20 06:25:48.678924	114.5	27.3	-94.7	0.0
2025-01-20 06:25:50.920909	115.2	27.2	-94.7	0.0
2025-01-20 06:25:53.164948	115.9	27.0	-95.0	0.0
2025-01-20 06:25:55.403800	116.5	26.9	-94.7	0.0
2025-01-20 06:25:57.646965	117.2	26.7	-94.9	0.0
2025-01-20 06:25:59.886991	117.8	26.6	-94.9	0.0
2025-01-20 06:26:02.127828	118.5	26.4	-94.9	0.0
2025-01-20 06:26:04.369364	119.1	26.2	-94.8	0.0
2025-01-20 06:26:06.612671	119.7	26.1	-94.8	0.0
2025-01-20 06:26:08.855354	120.4	25.9	-94.9	0.0
2025-01-20 06:26:11.096578	121.0	25.7	-94.8	0.0
2025-01-20 06:26:13.339738	121.6	25.6	-95.0	0.0
2025-01-20 06:26:15.582050	122.2	25.4	-94.7	0.0
2025-01-20 06:26:17.822612	122.8	25.2	-95.0	0.0
2025-01-20 06:26:20.063385	123.4	25.0	-94.7	0.0
2025-01-20 06:26:22.305614	123.9	24.9	-94.9	0.0
2025-01-20 06:26:24.547046	124.5	24.7	-94.9	0.0
2025-01-20 06:26:26.788226	125.1	24.5	-95.1	0.0
2025-01-20 06:26:29.031094	125.7	24.3	-95.0	0.0
2025-01-20 06:26:31.271897	126.2	24.1	-94.8	0.0
2025-01-20 06:26:33.516816	126.8	23.9	-94.6	0.0
2025-01-20 06:26:35.760003	127.3	23.8	-94.9	0.0
2025-01-20 06:26:38.003484	127.8	23.6	-94.7	0.0
2025-01-20 06:26:40.243145	128.4	23.4	-94.8	0.0
2025-01-20 06:26:42.487687	128.9	23.2	-94.8	0.0
2025-01-20 06:26:44.728572	129.4	23.0	-94.7	0.0
2025-01-20 06:26:46.969825	129.9	22.8	-94.8	0.0
2025-01-20 06:26:49.211934	130.4	22.6	-95.1	0.0
2025-01-20 06:26:51.453799	130.9	22.4	-94.8	0.0
2025-01-20 06:26:53.694900	131.4	22.2	-94.9	0.0
2025-01-20 06:26:55.941570	131.9	22.0	-95.0	0.0
2025-01-20 06:26:58.185178	132.4	21.8	-95.1	0.0
2025-01-20 06:27:00.426309	132.9	21.6	-94.6	0.0
2025-01-20 06:27:02.667667	133.4	21.4	-94.9	0.0
2025-01-20 06:27:04.910131	133.8	21.2	-94.7	0.0
2025-01-20 06:27:07.153745	134.3	21.0	-94.7	0.0
2025-01-20 06:27:09.397035	134.7	20.8	-94.8	0.0
2025-01-20 06:27:11.640025	135.2	20.6	-94.9	0.0
2025-01-20 06:27:13.878474	135.6	20.4	-94.7	0.0
2025-01-20 06:27:16.118858	136.1	20.2	-94.5	0.0
2025-01-20 06:27:18.363136	136.5	20.0	-94.6	0.0
2025-01-20 06:27:20.606888	136.9	19.8	-94.7	0.0
2025-01-20 06:27:22.849481	137.3	19.6	-94.9	0.0
2025-01-20 06:27:25.090067	137.7	19.4	-94.7	0.0
2025-01-20 06:27:27.329671	138.1	19.2	-94.8	0.0
2025-01-20 06:27:29.570620	138.6	19.0	-94.6	0.0
2025-01-20 06:27:31.814639	139.0	18.8	-94.6	0.0
2025-01-20 06:27:34.057232	139.3	18.6	-94.7	0.0
2025-01-20 06:27:36.302811	139.7	18.4	-94.7	0.0
2025-01-20 06:27:38.546995	140.1	18.2	-94.7	0.0
2025-01-20 06:27:40.789633	140.5	18.0	-94.5	0.0
2025-01-20 06:27:43.030436	140.9	17.9	-94.6	0.0
2025-01-20 06:27:45.273207	141.2	17.7	-94.6	0.0
2025-01-20 06:27:47.516573	141.6	17.5	-94.6	0.0
2025-01-20 06:27:49.757535	142.0	17.3	-94.8	0.0
2025-01-20 06:27:51.998667	142.3	17.1	-94.7	0.0
2025-01-20 06:27:54.239318	142.7	16.9	-94.8	0.0
2025-01-20 06:27:56.483694	143.0	16.7	-95.1	0.0
2025-01-20 06:27:58.725679	143.4	16.5	-94.8	0.0
2025-01-20 06:28:00.967088	143.7	16.3	-94.8	0.0
2025-01-20 06:28:03.207785	144.0	16.1	-95.0	0.0
2025-01-20 06:28:05.452095	144.4	15.9	-94.9	0.0
2025-01-20 06:28:07.692913	144.7	15.7	-95.2	0.0
2025-01-20 06:28:09.933196	145.0	15.5	-94.7	0.0
2025-01-20 06:28:12.173154	145.3	15.3	-94.7	0.0
2025-01-20 06:28:14.413272	145.6	15.2	-94.5	0.0
2025-01-20 06:28:16.660183	146.0	15.0	-94.8	0.0
2025-01-20 06:28:18.903148	146.3	14.8	-94.9	0.0
2025-01-20 06:28:21.146627	146.6	14.6	-94.9	0.0
2025-01-20 06:28:23.390883	146.9	14.4	-94.6	0.0
2025-01-20 06:28:25.632034	147.2	14.2	-94.7	0.0
2025-01-20 06:28:27.872961	147.4	14.0	-94.7	0.0
2025-01-20 06:28:30.113711	147.7	13.9	-94.8	0.0
2025-01-20 06:28:32.354398	148.0	13.7	-94.7	0.0
2025-01-20 06:28:34.597074	148.3	13.5	-94.8	0.0
2025-01-20 06:28:36.836774	148.6	13.3	-95.0	0.0
2025-01-20 06:28:39.078521	148.9	13.1	-94.9	0.0
2025-01-20 06:28:41.321421	149.1	12.9	-94.7	0.0
2025-01-20 06:28:43.562885	149.4	12.8	-94.6	0.0
2025-01-20 06:28:45.805448	149.7	12.6	-94.8	0.0
2025-01-20 06:28:48.049136	149.9	12.4	-94.9	0.0
2025-01-20 06:28:50.289914	150.2	12.2	-94.8	0.0
2025-01-20 06:28:52.531602	150.4	12.1	-94.7	0.0
2025-01-20 06:28:54.774423	150.7	11.9	-94.8	0.0
2025-01-20 06:28:57.016188	150.9	11.7	-95.0	0.0
2025-01-20 06:28:59.255952	151.2	11.5	-94.7	0.0
2025-01-20 06:29:01.499229	151.4	11.4	-95.0	0.0
2025-01-20 06:29:03.741626	151.7	11.2	-94.9	0.0
2025-01-20 06:29:05.982924	151.9	11.0	-94.8	0.0
2025-01-20 06:29:08.226086	152.1	10.9	-94.8	0.0
2025-01-20 06:29:10.468198	152.4	10.7	-95.1	0.0
2025-01-20 06:29:12.709115	152.6	10.5	-94.6	0.0
2025-01-20 06:29:14.951511	152.8	10.3	-95.1	0.0
2025-01-20 06:29:17.192400	153.1	10.2	-94.9	0.0
2025-01-20 06:29:19.431819	153.3	10.0	-94.8	0.0
#Closed at: 2025-01-20 06:19:58.489231