passes_logs/2026/01/11/R2.0S_Moscow/R2.0S_Moscow__20260111_004937_SUOMI_NPP_rec.log

#Pass ID: 20260111_004937_SUOMI NPP
#Satellite: SUOMI NPP
#Configuration: NPP
#almurnet v.1.7.20251203
#Start time: 2026-01-11 00:49:37

#Version: 2.2.20231116
#Station: R2.0S_Moscow
#Location: 37.707566 lon 55.798166 lat
#TLE: 1 37849U 11061A   26009.81756760  .00000113  00000+0  74747-4 0  9994
#TLE: 2 37849  98.7806 311.9110 0002525  72.5604 287.5848 14.19524046735974

#Time	Az	El	Level	Level2	SNR	BER	BlckErr	Temp	State	Recorded	gain1	gain2
2026-01-11 00:49:37.32	12.07	2.01	-39.8	-54.3	3.8	1.49e+00	0	46	0	0	51	18877
2026-01-11 00:49:41.36	11.90	2.26	-39.8	-54.3	3.8	1.49e+00	0	47	104	0	51	18822
2026-01-11 00:49:45.41	11.72	2.51	-39.8	-54.3	3.8	1.49e+00	0	47	104	0	51	18785
2026-01-11 00:49:49.45	11.54	2.76	-39.8	-54.3	3.8	1.49e+00	0	48	104	0	51	18788
2026-01-11 00:49:53.49	11.36	3.01	-39.8	-54.3	3.8	1.49e+00	0	48	104	0	51	18844
2026-01-11 00:49:57.54	11.18	3.26	-39.8	-54.3	3.8	1.49e+00	0	48	104	0	51	18780
2026-01-11 00:50:01.58	10.99	3.52	-39.8	-54.3	3.8	1.49e+00	0	48	104	0	51	18739
2026-01-11 00:50:05.62	10.80	3.78	-39.8	-54.3	3.8	1.49e+00	0	49	104	0	51	18753
2026-01-11 00:50:09.67	10.61	4.04	-39.8	-54.3	3.8	1.49e+00	0	49	104	0	51	18774
2026-01-11 00:50:13.71	10.41	4.30	-39.8	-54.3	3.8	1.49e+00	0	49	104	0	51	18745
2026-01-11 00:50:17.75	10.21	4.57	-39.8	-54.3	3.8	1.49e+00	0	49	104	0	51	18781
2026-01-11 00:50:21.80	10.00	4.84	-39.8	-54.3	3.8	1.49e+00	0	50	104	0	51	18768
2026-01-11 00:50:25.84	9.79	5.10	-39.8	-54.3	3.8	1.49e+00	0	50	104	0	51	18768
2026-01-11 00:50:29.89	9.58	5.38	-39.8	-54.2	3.8	1.49e+00	0	50	104	0	51	18713
2026-01-11 00:50:33.93	9.36	5.65	-39.8	-54.3	3.8	1.49e+00	0	50	104	0	51	18786
2026-01-11 00:50:37.97	9.13	5.93	-39.8	-54.3	3.8	1.49e+00	0	50	104	0	51	18790
2026-01-11 00:50:42.02	8.90	6.21	-39.8	-54.2	3.8	1.49e+00	0	50	104	0	51	18687
2026-01-11 00:50:46.06	8.67	6.49	-39.8	-54.3	3.8	1.49e+00	0	51	104	0	51	18813
2026-01-11 00:50:50.10	8.43	6.77	-39.8	-54.3	3.8	1.49e+00	0	51	104	0	51	18792
2026-01-11 00:50:54.15	8.19	7.06	-39.8	-54.3	3.8	1.49e+00	0	51	104	0	51	18765
2026-01-11 00:50:58.19	7.94	7.35	-39.8	-54.3	3.8	1.49e+00	0	51	104	0	51	18815
2026-01-11 00:51:02.24	7.69	7.64	-39.8	-54.2	3.8	1.49e+00	0	51	104	0	51	18707
2026-01-11 00:51:06.28	7.43	7.94	-39.8	-54.3	3.8	1.49e+00	0	52	104	0	51	18794
2026-01-11 00:51:10.32	7.17	8.24	-39.9	-54.3	3.8	1.49e+00	0	52	104	0	51	18869
2026-01-11 00:51:14.37	6.90	8.54	-39.9	-54.4	3.8	1.49e+00	0	52	104	0	51	18970
2026-01-11 00:51:18.40	6.62	8.84	-39.9	-54.3	3.8	1.49e+00	0	52	104	0	51	18939
2026-01-11 00:51:22.45	6.34	9.15	-39.9	-54.4	3.8	1.49e+00	0	52	104	0	51	18953
2026-01-11 00:51:26.49	6.05	9.46	-39.9	-54.4	3.8	1.49e+00	0	52	104	0	51	19069
2026-01-11 00:51:30.53	5.75	9.78	-39.9	-54.4	3.8	1.49e+00	0	52	104	0	51	19136
2026-01-11 00:51:34.57	5.45	10.09	-39.7	-54.3	3.8	1.49e+00	0	52	104	0	51	18774
2026-01-11 00:51:38.61	5.14	10.41	-40.1	-54.7	3.8	1.49e+00	0	52	104	0	51	19684
2026-01-11 00:51:42.64	4.83	10.74	-39.8	-54.4	3.8	1.49e+00	0	53	104	0	51	19028
2026-01-11 00:51:46.68	4.50	11.06	-40.5	-55.0	3.8	1.49e+00	0	53	104	0	51	20361
2026-01-11 00:51:50.72	4.17	11.39	-40.1	-54.6	3.8	1.49e+00	0	53	104	0	51	19500
2026-01-11 00:51:54.76	3.83	11.73	-41.1	-55.4	3.8	1.49e+00	0	53	104	0	52	20292
2026-01-11 00:51:58.80	3.49	12.06	-40.2	-54.7	3.8	1.49e+00	0	53	104	0	52	18626
2026-01-11 00:52:02.83	3.13	12.40	-40.6	-55.1	3.8	1.49e+00	0	53	104	0	52	19508
2026-01-11 00:52:06.87	2.77	12.75	-40.2	-54.7	3.8	1.49e+00	0	53	104	0	52	18594
2026-01-11 00:52:10.91	2.39	13.10	-42.4	-55.0	3.8	1.41e+00	0	53	104	0	55	16192
2026-01-11 00:52:14.95	2.01	13.45	-41.4	-47.4	8.5	5.26e-02	0	54	0	2097152	54	7195
2026-01-11 00:52:18.99	1.62	13.80	-40.2	-44.4	11.7	5.71e-04	0	53	0	9437184	52	5720
2026-01-11 00:52:23.02	1.22	14.16	-40.1	-44.0	12.4	1.38e-04	0	54	0	16777216	51	5759
2026-01-11 00:52:27.06	0.80	14.53	-40.5	-44.5	12.1	2.17e-04	0	54	0	25165824	51	6081
2026-01-11 00:52:31.09	0.38	14.89	-40.6	-44.3	12.7	6.48e-05	0	54	0	32505856	51	5939
2026-01-11 00:52:35.13	359.95	15.27	-40.9	-44.6	12.5	1.22e-04	0	54	0	39845888	52	5835
2026-01-11 00:52:39.17	359.50	15.64	-41.0	-44.8	12.4	1.16e-04	0	54	0	47185920	52	5970
2026-01-11 00:52:43.21	359.04	16.02	-41.1	-45.0	12.2	1.88e-04	0	54	0	55574528	52	6086
2026-01-11 00:52:47.25	358.57	16.40	-40.9	-44.7	12.3	1.57e-04	0	54	0	62914560	52	5887
2026-01-11 00:52:51.29	358.09	16.79	-40.5	-44.0	13.0	2.28e-05	0	54	0	70254592	52	5424
2026-01-11 00:52:55.33	357.60	17.18	-40.1	-43.4	13.3	2.74e-05	0	54	0	77594624	52	5090
2026-01-11 00:52:59.36	357.09	17.58	-39.7	-42.8	13.8	6.10e-06	0	54	0	84934656	51	5035
2026-01-11 00:53:03.40	356.57	17.98	-40.4	-44.7	11.2	4.83e-04	0	54	0	93323264	51	6270
2026-01-11 00:53:07.44	356.03	18.38	-41.0	-49.4	5.8	2.54e-01	0	54	0	100663296	52	10092
2026-01-11 00:53:11.48	355.48	18.79	-41.1	-54.1	3.8	1.48e+00	0	54	104	104857600	52	17351
2026-01-11 00:53:15.52	354.91	19.20	-41.0	-54.1	3.8	1.49e+00	0	55	104	104857600	52	17362
2026-01-11 00:53:19.56	354.33	19.62	-41.1	-54.9	3.8	1.49e+00	0	54	104	104857600	52	19080
2026-01-11 00:53:23.59	353.73	20.03	-41.1	-54.6	3.8	1.49e+00	0	54	104	104857600	52	18513
2026-01-11 00:53:27.63	353.11	20.46	-41.6	-52.6	4.3	1.20e+00	0	55	0	105906176	53	13806
2026-01-11 00:53:31.66	352.48	20.88	-41.8	-50.9	5.5	6.06e-01	0	55	0	113246208	54	10685
2026-01-11 00:53:35.70	351.82	21.31	-41.7	-48.4	7.8	6.64e-02	0	55	0	120586240	54	8081
2026-01-11 00:53:39.74	351.15	21.75	-40.9	-45.5	10.9	4.63e-03	0	55	0	127926272	53	6073
2026-01-11 00:53:43.78	350.46	22.18	-40.4	-44.2	12.4	1.22e-04	0	55	0	135266304	52	5564
2026-01-11 00:53:47.82	349.75	22.62	-40.3	-43.6	13.4	9.10e-06	0	55	0	143654912	52	5212
2026-01-11 00:53:51.85	349.02	23.06	-40.8	-44.3	13.0	3.05e-05	0	55	0	150994944	52	5597
2026-01-11 00:53:55.89	348.27	23.51	-40.8	-44.1	13.5	9.10e-06	0	55	0	158334976	52	5469
2026-01-11 00:53:59.93	347.49	23.95	-40.8	-43.9	13.7	1.06e-05	0	55	0	165675008	52	5401
2026-01-11 00:54:03.97	346.69	24.40	-41.4	-45.0	12.7	5.87e-05	0	55	0	174063616	53	5727
2026-01-11 00:54:08.01	345.87	24.85	-41.9	-46.1	11.6	5.26e-04	0	55	0	181403648	54	6155
2026-01-11 00:54:12.05	345.02	25.30	-42.1	-46.4	11.4	1.19e-03	0	55	0	188743680	54	6395
2026-01-11 00:54:16.10	344.15	25.75	-41.9	-45.9	11.9	4.24e-04	0	55	0	196083712	54	6049
2026-01-11 00:54:20.14	343.25	26.21	-41.9	-45.9	12.1	3.66e-04	0	55	0	203423744	54	6012
2026-01-11 00:54:24.18	342.33	26.66	-41.6	-45.2	12.8	5.72e-05	0	55	0	211812352	54	5544
2026-01-11 00:54:28.21	341.38	27.11	-41.5	-45.0	13.0	6.02e-05	0	55	0	219152384	54	5444
2026-01-11 00:54:32.25	340.41	27.55	-41.7	-45.4	12.6	3.96e-05	0	55	0	226492416	54	5676
2026-01-11 00:54:36.29	339.40	28.00	-41.7	-45.3	12.7	8.23e-05	0	55	0	233832448	54	5627
2026-01-11 00:54:40.33	338.37	28.44	-41.7	-45.4	12.7	6.40e-05	0	55	0	242221056	54	5684
2026-01-11 00:54:44.37	337.30	28.88	-41.8	-45.4	12.7	9.76e-05	0	55	0	249561088	54	5675
2026-01-11 00:54:48.40	336.21	29.32	-41.8	-45.6	12.5	2.84e-04	0	55	0	256901120	54	5805
2026-01-11 00:54:52.44	335.09	29.75	-41.5	-44.8	13.3	1.44e-05	0	55	0	264241152	54	5309
2026-01-11 00:54:56.48	333.94	30.17	-41.8	-45.4	12.8	7.78e-05	0	55	0	271581184	54	5693
2026-01-11 00:55:00.52	332.75	30.59	-42.6	-47.2	10.9	1.62e-03	0	56	0	279969792	55	6579
2026-01-11 00:55:04.56	331.54	30.99	-42.6	-46.8	11.4	2.78e-03	0	55	0	287309824	56	5988
2026-01-11 00:55:08.60	330.29	31.39	-42.5	-46.6	11.7	3.07e-04	0	55	0	294649856	56	5853
2026-01-11 00:55:12.63	329.02	31.78	-42.9	-47.6	10.6	4.25e-03	0	55	0	301989888	56	6558
2026-01-11 00:55:16.67	327.71	32.16	-43.4	-48.9	9.3	1.49e-02	0	56	0	310378496	57	7157
2026-01-11 00:55:20.71	326.37	32.52	-43.7	-50.0	8.2	4.21e-02	0	55	0	317718528	58	7656
2026-01-11 00:55:24.75	325.00	32.87	-43.2	-48.4	9.9	1.34e-02	0	55	0	325058560	58	6363
2026-01-11 00:55:28.79	323.60	33.21	-43.1	-48.0	10.3	4.64e-03	0	56	0	332398592	57	6431
2026-01-11 00:55:32.83	322.18	33.53	-42.8	-47.3	11.0	3.64e-03	0	56	0	339738624	57	5930
2026-01-11 00:55:36.86	320.73	33.83	-42.9	-47.6	10.7	1.89e-03	0	56	0	348127232	57	6197
2026-01-11 00:55:40.90	319.24	34.11	-42.9	-47.6	10.5	9.72e-03	0	56	0	355467264	57	6192
2026-01-11 00:55:44.94	317.74	34.37	-42.4	-46.4	11.9	4.98e-04	0	55	0	362807296	56	5669
2026-01-11 00:55:48.98	316.21	34.61	-41.7	-45.1	13.1	2.67e-05	0	56	0	370147328	54	5497
2026-01-11 00:55:53.01	314.66	34.83	-40.2	-42.7	15.6	0.00e+00	0	55	0	377487360	52	4656
2026-01-11 00:55:57.05	313.09	35.03	-40.5	-43.2	15.1	0.00e+00	0	56	0	385875968	52	4951
2026-01-11 00:56:01.09	311.49	35.21	-41.4	-44.7	13.5	1.37e-05	0	55	0	393216000	53	5572
2026-01-11 00:56:05.13	309.89	35.36	-41.1	-44.2	14.1	1.50e-06	0	56	0	400556032	53	5221
2026-01-11 00:56:09.16	308.27	35.48	-41.0	-44.0	14.2	7.00e-07	0	56	0	407896064	53	5144
2026-01-11 00:56:13.20	306.64	35.58	-40.7	-43.4	14.8	3.00e-06	0	55	0	416284672	53	4807
2026-01-11 00:56:17.24	305.00	35.65	-41.3	-44.5	13.7	2.20e-06	0	55	0	423624704	53	5451
2026-01-11 00:56:21.28	303.35	35.70	-41.9	-45.6	12.7	8.54e-05	0	56	0	430964736	54	5806
2026-01-11 00:56:25.32	301.70	35.71	-41.3	-44.5	13.8	5.30e-06	0	56	0	438304768	54	5115
2026-01-11 00:56:29.35	300.05	35.71	-41.5	-44.9	13.3	2.44e-05	0	56	0	445644800	54	5375
2026-01-11 00:56:33.39	298.40	35.67	-40.7	-43.5	14.7	7.00e-07	0	56	0	454033408	53	4846
2026-01-11 00:56:37.43	296.76	35.61	-41.3	-44.5	13.7	3.80e-06	0	56	0	461373440	53	5430
2026-01-11 00:56:41.47	295.12	35.52	-42.0	-45.9	12.2	2.33e-04	0	56	0	468713472	55	5677
2026-01-11 00:56:45.51	293.50	35.40	-41.7	-45.2	12.9	2.67e-05	0	56	0	476053504	54	5585
2026-01-11 00:56:49.55	291.88	35.26	-42.6	-46.8	11.5	1.43e-03	0	56	0	484442112	56	5947
2026-01-11 00:56:53.59	290.28	35.10	-41.6	-44.9	13.2	2.67e-05	0	56	0	491782144	54	5386
2026-01-11 00:56:57.63	288.70	34.91	-42.4	-46.6	11.6	4.05e-04	0	56	0	499122176	55	6166
2026-01-11 00:57:01.67	287.14	34.69	-41.9	-45.5	12.7	1.12e-04	0	56	0	506462208	55	5444
2026-01-11 00:57:05.71	285.60	34.46	-41.2	-44.2	14.0	2.20e-06	0	56	0	513802240	53	5258
2026-01-11 00:57:09.75	284.08	34.20	-41.6	-45.1	13.1	4.34e-05	0	56	0	522190848	54	5480
2026-01-11 00:57:13.79	282.59	33.92	-40.8	-43.5	14.6	0.00e+00	0	56	0	529530880	53	4858
2026-01-11 00:57:17.82	281.13	33.63	-42.4	-46.6	11.4	3.52e-04	0	56	0	536870912	55	6176
2026-01-11 00:57:21.86	279.69	33.31	-40.8	-43.6	14.6	7.00e-07	0	56	0	544210944	53	4888
2026-01-11 00:57:25.90	278.27	32.98	-42.1	-46.0	12.2	1.17e-04	0	56	0	552599552	54	6062
2026-01-11 00:57:29.94	276.89	32.64	-43.0	-48.0	10.2	4.87e-03	0	56	0	559939584	56	6829
2026-01-11 00:57:33.98	275.54	32.28	-42.6	-47.0	11.2	1.65e-03	0	56	0	567279616	56	6110
2026-01-11 00:57:38.01	274.22	31.90	-42.7	-47.1	11.1	1.98e-03	0	56	0	574619648	56	6194
2026-01-11 00:57:42.05	272.93	31.52	-41.3	-44.5	13.7	1.06e-05	0	56	0	581959680	54	5101
2026-01-11 00:57:46.09	271.67	31.12	-40.9	-43.8	14.3	7.00e-07	0	56	0	590348288	53	4994
2026-01-11 00:57:50.13	270.44	30.72	-42.9	-47.7	10.5	2.07e-03	0	56	0	597688320	56	6644
2026-01-11 00:57:54.16	269.24	30.30	-41.4	-44.7	13.2	5.03e-05	0	56	0	605028352	54	5277
2026-01-11 00:57:58.20	268.07	29.88	-43.2	-48.5	9.7	7.99e-03	0	56	0	612368384	56	7272
2026-01-11 00:58:02.24	266.94	29.45	-42.6	-47.0	10.8	1.95e-03	0	56	0	620756992	57	5755
2026-01-11 00:58:06.28	265.83	29.02	-42.5	-46.8	11.4	1.00e-03	0	56	0	628097024	56	5982
2026-01-11 00:58:10.32	264.75	28.58	-42.8	-47.6	10.6	4.64e-03	0	56	0	635437056	56	6550
2026-01-11 00:58:14.35	263.70	28.13	-41.6	-45.1	12.9	3.89e-05	0	56	0	642777088	55	5208
2026-01-11 00:58:18.40	262.68	27.69	-41.8	-45.4	12.5	1.15e-04	0	56	0	650117120	55	5368
2026-01-11 00:58:22.43	261.69	27.24	-41.4	-44.7	13.4	2.74e-05	0	56	0	658505728	54	5247
2026-01-11 00:58:26.47	260.73	26.79	-40.8	-43.7	14.3	7.00e-07	0	56	0	665845760	53	4953
2026-01-11 00:58:30.51	259.80	26.33	-40.7	-43.7	14.4	2.20e-06	0	56	0	673185792	53	4943
2026-01-11 00:58:34.55	258.89	25.88	-39.8	-42.2	15.8	0.00e+00	0	56	0	680525824	51	4688
2026-01-11 00:58:38.58	258.00	25.43	-40.1	-42.7	15.4	0.00e+00	0	56	0	688914432	51	4955
2026-01-11 00:58:42.62	257.15	24.97	-40.3	-43.0	15.0	1.50e-06	0	56	0	696254464	52	4851
2026-01-11 00:58:46.65	256.31	24.52	-40.0	-42.5	15.6	0.00e+00	0	56	0	703594496	51	4833
2026-01-11 00:58:50.70	255.50	24.07	-40.1	-42.6	15.5	0.00e+00	0	56	0	710934528	51	4871
2026-01-11 00:58:54.73	254.72	23.62	-40.0	-42.5	15.5	0.00e+00	0	56	0	718274560	51	4849
2026-01-11 00:58:58.77	253.95	23.18	-40.0	-42.4	15.6	0.00e+00	0	56	0	726663168	51	4807
2026-01-11 00:59:02.81	253.21	22.73	-40.1	-42.7	15.3	0.00e+00	0	56	0	734003200	51	4964
2026-01-11 00:59:06.85	252.48	22.29	-40.0	-42.5	15.6	0.00e+00	0	56	0	741343232	51	4818
2026-01-11 00:59:10.89	251.78	21.85	-40.6	-43.5	14.4	0.00e+00	0	56	0	748683264	52	5124
2026-01-11 00:59:14.93	251.10	21.42	-40.6	-43.6	14.4	1.50e-06	0	56	0	757071872	52	5167
2026-01-11 00:59:18.96	250.44	20.98	-40.9	-43.9	14.0	2.20e-06	0	56	0	764411904	52	5394
2026-01-11 00:59:23.00	249.79	20.55	-41.1	-44.4	13.5	1.06e-05	0	56	0	771751936	53	5356
2026-01-11 00:59:27.04	249.17	20.13	-40.4	-43.2	14.6	0.00e+00	0	56	0	779091968	52	4983
2026-01-11 00:59:31.08	248.56	19.71	-40.6	-43.5	14.3	7.00e-07	0	56	0	786432000	52	5133
2026-01-11 00:59:35.12	247.97	19.29	-40.5	-43.3	14.6	0.00e+00	0	56	0	794820608	52	5022
2026-01-11 00:59:39.16	247.39	18.87	-40.2	-42.9	15.0	7.00e-07	0	56	0	802160640	52	4779
2026-01-11 00:59:43.20	246.83	18.46	-40.2	-42.9	15.0	0.00e+00	0	56	0	809500672	52	4760
2026-01-11 00:59:47.24	246.28	18.06	-40.3	-43.0	14.8	0.00e+00	0	56	0	816840704	52	4840
2026-01-11 00:59:51.28	245.75	17.65	-40.2	-42.9	14.9	7.00e-07	0	56	0	825229312	52	4797
2026-01-11 00:59:55.32	245.23	17.26	-40.2	-42.8	15.0	0.00e+00	0	56	0	832569344	52	4746
2026-01-11 00:59:59.35	244.73	16.86	-40.7	-43.7	14.1	1.50e-06	0	56	0	839909376	52	5229
2026-01-11 01:00:03.39	244.24	16.47	-41.7	-45.4	12.3	1.10e-04	0	56	0	847249408	53	6048
2026-01-11 01:00:07.43	243.76	16.08	-41.0	-44.2	13.6	1.98e-05	0	56	0	854589440	54	4976
2026-01-11 01:00:11.47	243.30	15.70	-40.1	-42.8	15.0	0.00e+00	0	56	0	862978048	52	4709
2026-01-11 01:00:15.50	242.85	15.33	-40.6	-43.5	14.2	2.20e-06	0	56	0	870318080	51	5462
2026-01-11 01:00:19.54	242.40	14.95	-41.4	-45.0	12.7	5.87e-05	0	56	0	877658112	53	5763
2026-01-11 01:00:23.58	241.97	14.58	-41.3	-44.9	12.8	1.06e-04	0	56	0	884998144	53	5714
2026-01-11 01:00:27.61	241.55	14.22	-41.2	-44.6	13.1	1.98e-05	0	56	0	893386752	53	5502
2026-01-11 01:00:31.65	241.14	13.85	-41.3	-44.8	12.9	6.33e-05	0	56	0	900726784	53	5638
2026-01-11 01:00:35.69	240.74	13.49	-41.4	-45.1	12.5	7.70e-05	0	56	0	908066816	53	5841
2026-01-11 01:00:39.73	240.35	13.14	-41.5	-45.3	12.3	1.62e-04	0	56	0	915406848	53	5965
2026-01-11 01:00:43.77	239.97	12.79	-41.5	-45.3	12.3	1.76e-04	0	56	0	922746880	53	5926
2026-01-11 01:00:47.81	239.60	12.44	-41.2	-44.7	12.9	5.64e-05	0	56	0	931135488	53	5566
2026-01-11 01:00:51.85	239.24	12.10	-40.6	-43.7	13.7	9.10e-06	0	56	0	938475520	53	4971
2026-01-11 01:00:55.89	238.89	11.76	-40.7	-43.8	13.7	7.60e-06	0	56	0	945815552	53	5016
2026-01-11 01:00:59.92	238.54	11.42	-41.3	-45.0	12.4	1.03e-04	0	56	0	953155584	53	5783
2026-01-11 01:01:03.96	238.20	11.09	-41.9	-46.5	10.9	1.73e-03	0	56	0	961544192	54	6440
2026-01-11 01:01:08.00	237.87	10.76	-42.1	-47.0	10.4	3.56e-03	0	56	0	968884224	54	6844
2026-01-11 01:01:12.03	237.55	10.44	-41.9	-46.4	11.0	2.77e-03	0	56	0	976224256	54	6372
2026-01-11 01:01:16.07	237.23	10.12	-41.7	-46.0	11.3	1.13e-03	0	56	0	983564288	54	6130
2026-01-11 01:01:20.11	236.93	9.80	-41.6	-45.7	11.6	5.98e-04	0	56	0	990904320	54	5894
2026-01-11 01:01:24.15	236.62	9.48	-41.4	-45.5	11.8	5.19e-04	0	56	0	999292928	54	5736
2026-01-11 01:01:28.19	236.33	9.17	-41.3	-45.2	12.1	3.42e-04	0	56	0	1006632960	54	5532
2026-01-11 01:01:32.23	236.04	8.86	-41.2	-45.1	12.1	2.34e-04	0	56	0	1013972992	54	5520
2026-01-11 01:01:36.27	235.76	8.55	-41.4	-45.5	11.7	4.09e-04	0	56	0	1021313024	54	5725
2026-01-11 01:01:40.31	235.48	8.25	-41.5	-45.8	11.4	1.28e-03	0	56	0	1029701632	54	5955
2026-01-11 01:01:44.35	235.21	7.95	-44.5	-58.9	3.8	1.44e+00	0	56	104	1035993088	59	20278
2026-01-11 01:01:48.39	234.95	7.65	-45.0	-59.7	3.8	1.49e+00	0	56	104	1035993088	60	20871
2026-01-11 01:01:52.43	234.69	7.36	-45.1	-59.9	3.8	1.49e+00	0	56	104	1035993088	60	21264
2026-01-11 01:01:56.48	234.43	7.07	-45.0	-59.8	3.8	1.49e+00	0	56	104	1035993088	60	21052
2026-01-11 01:02:00.52	234.19	6.78	-45.0	-59.8	3.8	1.49e+00	0	56	104	1035993088	60	21074
2026-01-11 01:02:04.56	233.94	6.49	-45.0	-59.7	3.8	1.49e+00	0	56	104	1035993088	60	21007
2026-01-11 01:02:08.61	233.70	6.21	-45.0	-59.7	3.8	1.49e+00	0	56	104	1035993088	60	20941
2026-01-11 01:02:12.65	233.47	5.93	-44.9	-59.7	3.8	1.49e+00	0	56	104	1035993088	60	20942
2026-01-11 01:02:16.69	233.24	5.65	-45.0	-59.7	3.8	1.49e+00	0	56	104	1035993088	60	20926
2026-01-11 01:02:20.74	233.01	5.37	-44.9	-59.7	3.8	1.49e+00	0	56	104	1035993088	60	20920
2026-01-11 01:02:24.78	232.79	5.10	-44.9	-59.7	3.8	1.49e+00	0	56	104	1035993088	60	20925
2026-01-11 01:02:28.83	232.58	4.83	-44.9	-59.7	3.8	1.49e+00	0	56	104	1035993088	60	20918
2026-01-11 01:02:32.87	232.36	4.56	-44.9	-59.7	3.8	1.49e+00	0	56	104	1035993088	60	20879
2026-01-11 01:02:36.91	232.16	4.29	-44.9	-59.7	3.8	1.49e+00	0	56	104	1035993088	60	20921
2026-01-11 01:02:40.96	231.95	4.03	-44.9	-59.7	3.8	1.49e+00	0	56	104	1035993088	60	20910
2026-01-11 01:02:45.00	231.75	3.77	-44.9	-59.7	3.8	1.49e+00	0	56	104	1035993088	60	20872
2026-01-11 01:02:49.05	231.55	3.51	-44.9	-59.7	3.8	1.49e+00	0	56	104	1035993088	60	20868
2026-01-11 01:02:53.09	231.36	3.25	-44.9	-59.7	3.8	1.49e+00	0	56	104	1035993088	60	20885
2026-01-11 01:02:57.13	231.17	3.00	-44.9	-59.7	3.8	1.49e+00	0	56	104	1035993088	60	20915
2026-01-11 01:03:01.18	230.98	2.74	-44.9	-59.7	3.8	1.49e+00	0	56	104	1035993088	60	20883
2026-01-11 01:03:05.22	230.80	2.49	-44.9	-59.7	3.8	1.49e+00	0	56	104	1035993088	60	20884
2026-01-11 01:03:09.26	230.62	2.24	-44.9	-59.7	3.8	1.49e+00	0	56	104	1035993088	60	20810
2026-01-11 01:03:13.31	230.45	1.99	-44.9	-59.7	3.8	1.49e+00	0	56	104	1035993088	60	20929

#Closed at: 2026-01-11 01:03:16
#Recorded file [1035 MB]: D:/lorett/data/31039_260111_034937.dat