passes_logs/2026/01/11/R2.0S_Moscow/R2.0S_Moscow__20260111_074256_NOAA_20_JPSS-1_rec.log

#Pass ID: 20260111_074256_NOAA 20 (JPSS-1)
#Satellite: NOAA 20 (JPSS-1)
#Configuration: NOAA 20
#almurnet v.1.7.20251203
#Start time: 2026-01-11 07:42:56

#Version: 2.2.20231116
#Station: R2.0S_Moscow
#Location: 37.707566 lon 55.798166 lat
#TLE: 1 43013U 17073A   26009.69119415  .00000109  00000+0  72598-4 0  9996
#TLE: 2 43013  98.7631 310.6868 0001678  46.7442 313.3874 14.19534878421981

#Time	Az	El	Level	Level2	SNR	BER	BlckErr	Temp	State	Recorded	gain1	gain2
2026-01-11 07:42:56.55	95.30	2.00	-39.9	-54.5	3.8	1.49e+00	0	47	0	0	51	19372
2026-01-11 07:42:59.59	95.04	2.15	-39.9	-54.5	3.8	1.49e+00	0	47	104	0	51	19387
2026-01-11 07:43:02.62	94.78	2.31	-39.9	-54.5	3.8	1.49e+00	0	47	104	0	51	19351
2026-01-11 07:43:05.65	94.51	2.46	-39.9	-54.6	3.8	1.49e+00	0	48	104	0	51	19395
2026-01-11 07:43:08.68	94.25	2.61	-39.9	-54.5	3.8	1.49e+00	0	48	104	0	51	19357
2026-01-11 07:43:11.72	93.97	2.77	-39.9	-54.5	3.8	1.49e+00	0	48	104	0	51	19388
2026-01-11 07:43:14.75	93.70	2.92	-39.9	-54.5	3.8	1.49e+00	0	48	104	0	51	19339
2026-01-11 07:43:17.78	93.42	3.07	-39.9	-54.5	3.8	1.49e+00	0	48	104	0	51	19363
2026-01-11 07:43:20.82	93.14	3.23	-39.9	-54.5	3.8	1.49e+00	0	49	104	0	51	19324
2026-01-11 07:43:23.85	92.86	3.38	-39.8	-54.5	3.8	1.49e+00	0	49	104	0	50	20512
2026-01-11 07:43:26.88	92.57	3.54	-39.6	-54.5	3.8	1.49e+00	0	49	104	0	50	20405
2026-01-11 07:43:29.92	92.28	3.69	-39.9	-54.5	3.8	1.49e+00	0	49	104	0	50	20515
2026-01-11 07:43:32.95	91.99	3.85	-39.9	-54.5	3.8	1.49e+00	0	49	104	0	50	20510
2026-01-11 07:43:35.98	91.69	4.00	-39.9	-54.5	3.8	1.49e+00	0	50	104	0	50	20416
2026-01-11 07:43:39.01	91.39	4.16	-39.9	-54.5	3.8	1.49e+00	0	50	104	0	50	20492
2026-01-11 07:43:42.05	91.09	4.31	-39.9	-54.5	3.8	1.49e+00	0	50	104	0	50	20505
2026-01-11 07:43:45.08	90.78	4.47	-39.9	-54.6	3.8	1.49e+00	0	50	104	0	50	20541
2026-01-11 07:43:48.11	90.47	4.63	-39.9	-54.5	3.8	1.49e+00	0	50	104	0	50	20512
2026-01-11 07:43:51.15	90.16	4.78	-39.9	-54.5	3.8	1.49e+00	0	50	104	0	50	20462
2026-01-11 07:43:54.18	89.84	4.94	-39.9	-54.5	3.8	1.49e+00	0	51	104	0	50	20499
2026-01-11 07:43:57.21	89.52	5.09	-39.9	-54.5	3.8	1.49e+00	0	51	104	0	50	20472
2026-01-11 07:44:00.25	89.20	5.25	-39.9	-54.5	3.8	1.49e+00	0	51	104	0	50	20416
2026-01-11 07:44:03.28	88.87	5.41	-39.9	-54.5	3.8	1.49e+00	0	51	104	0	50	20496
2026-01-11 07:44:06.31	88.54	5.56	-39.8	-54.5	3.8	1.49e+00	0	51	104	0	50	20486
2026-01-11 07:44:09.34	88.21	5.72	-39.9	-54.5	3.8	1.49e+00	0	51	104	0	50	20475
2026-01-11 07:44:12.38	87.87	5.88	-39.8	-54.5	3.8	1.49e+00	0	51	104	0	50	20528
2026-01-11 07:44:15.41	87.53	6.03	-39.9	-54.5	3.8	1.49e+00	0	52	104	0	50	20425
2026-01-11 07:44:18.44	87.18	6.19	-39.9	-54.5	3.8	1.49e+00	0	52	104	0	50	20473
2026-01-11 07:44:21.47	86.84	6.35	-39.9	-54.5	3.8	1.49e+00	0	52	104	0	50	20466
2026-01-11 07:44:24.50	86.48	6.50	-39.9	-54.5	3.8	1.49e+00	0	52	104	0	50	20480
2026-01-11 07:44:27.53	86.13	6.66	-39.9	-54.5	3.8	1.49e+00	0	52	104	0	50	20504
2026-01-11 07:44:30.57	85.77	6.82	-39.9	-54.5	3.8	1.49e+00	0	52	104	0	50	20500
2026-01-11 07:44:33.60	85.40	6.97	-39.9	-54.5	3.8	1.49e+00	0	52	104	0	50	20477
2026-01-11 07:44:36.63	85.03	7.13	-39.7	-54.5	3.8	1.49e+00	0	52	104	0	50	20507
2026-01-11 07:44:39.66	84.66	7.28	-39.9	-54.5	3.8	1.49e+00	0	52	104	0	50	20491
2026-01-11 07:44:42.70	84.28	7.44	-39.9	-54.5	3.8	1.49e+00	0	53	104	0	50	20511
2026-01-11 07:44:45.73	83.90	7.60	-39.8	-54.5	3.8	1.49e+00	0	53	104	0	50	20462
2026-01-11 07:44:48.77	83.52	7.75	-39.7	-54.5	3.8	1.49e+00	0	53	104	0	50	20451
2026-01-11 07:44:51.80	83.13	7.91	-39.9	-54.5	3.8	1.49e+00	0	53	104	0	50	20485
2026-01-11 07:44:54.82	82.74	8.06	-40.0	-54.6	3.8	1.49e+00	0	53	104	0	50	20628
2026-01-11 07:44:57.85	82.34	8.21	-40.0	-54.5	3.8	1.49e+00	0	53	104	0	50	20485
2026-01-11 07:45:00.88	81.94	8.37	-39.8	-54.5	3.8	1.49e+00	0	53	104	0	50	20387
2026-01-11 07:45:03.91	81.53	8.52	-40.0	-54.6	3.8	1.49e+00	0	53	104	0	50	20570
2026-01-11 07:45:06.94	81.12	8.67	-39.9	-54.5	3.8	1.49e+00	0	53	104	0	50	20349
2026-01-11 07:45:09.97	80.71	8.83	-40.1	-54.6	3.8	1.49e+00	0	53	104	0	50	20603
2026-01-11 07:45:13.00	80.29	8.98	-40.1	-54.6	3.8	1.49e+00	0	54	104	0	50	20722
2026-01-11 07:45:16.03	79.86	9.13	-40.2	-54.8	3.8	1.49e+00	0	54	104	0	50	21075
2026-01-11 07:45:19.06	79.44	9.28	-40.2	-54.7	3.8	1.49e+00	0	53	104	0	50	20971
2026-01-11 07:45:22.08	79.00	9.43	-40.4	-55.0	3.8	1.49e+00	0	54	104	0	51	20434
2026-01-11 07:45:25.12	78.57	9.58	-40.1	-54.7	3.8	1.49e+00	0	54	104	0	51	19821
2026-01-11 07:45:28.15	78.12	9.73	-40.4	-54.9	3.8	1.49e+00	0	54	104	0	51	20298
2026-01-11 07:45:31.18	77.68	9.88	-40.4	-55.0	3.8	1.49e+00	0	54	104	0	51	20372
2026-01-11 07:45:34.21	77.23	10.03	-40.6	-55.1	3.8	1.49e+00	0	54	104	0	52	19502
2026-01-11 07:45:37.23	76.77	10.17	-40.8	-55.3	3.8	1.49e+00	0	54	104	0	52	19982
2026-01-11 07:45:40.26	76.31	10.32	-41.0	-55.5	3.8	1.49e+00	0	54	104	0	52	20482
2026-01-11 07:45:43.29	75.85	10.46	-40.9	-55.5	3.8	1.49e+00	0	54	104	0	52	20505
2026-01-11 07:45:46.32	75.38	10.60	-41.1	-55.6	3.8	1.49e+00	0	54	104	0	52	20723
2026-01-11 07:45:49.35	74.91	10.75	-41.1	-55.6	3.8	1.49e+00	0	54	104	0	52	20654
2026-01-11 07:45:52.38	74.43	10.89	-41.0	-55.5	3.8	1.49e+00	0	54	104	0	52	20528
2026-01-11 07:45:55.41	73.95	11.03	-41.0	-55.5	3.8	1.49e+00	0	54	104	0	52	20484
2026-01-11 07:45:58.44	73.46	11.17	-40.9	-55.4	3.8	1.49e+00	0	54	104	0	52	20182
2026-01-11 07:46:01.47	72.97	11.31	-40.6	-55.2	3.8	1.49e+00	0	54	104	0	52	19656
2026-01-11 07:46:04.50	72.47	11.44	-40.7	-55.2	3.8	1.49e+00	0	55	104	0	52	19761
2026-01-11 07:46:07.53	71.97	11.58	-40.8	-55.3	3.8	1.49e+00	0	55	104	0	52	20034
2026-01-11 07:46:10.56	71.46	11.71	-40.9	-55.5	3.8	1.49e+00	0	55	104	0	52	20371
2026-01-11 07:46:13.60	70.95	11.84	-40.9	-55.5	3.8	1.49e+00	0	54	104	0	52	20344
2026-01-11 07:46:16.62	70.43	11.97	-41.1	-55.6	3.8	1.49e+00	0	55	104	0	52	20596
2026-01-11 07:46:19.65	69.91	12.10	-40.9	-55.4	3.8	1.49e+00	0	55	104	0	52	20252
2026-01-11 07:46:22.68	69.39	12.23	-40.9	-55.5	3.8	1.49e+00	0	55	104	0	52	20378
2026-01-11 07:46:25.71	68.86	12.36	-41.1	-55.6	3.8	1.49e+00	0	55	104	0	52	20752
2026-01-11 07:46:28.74	68.32	12.48	-41.1	-55.5	3.8	1.49e+00	0	55	104	0	52	20534
2026-01-11 07:46:31.77	67.79	12.60	-41.2	-55.6	3.8	1.49e+00	0	55	104	0	53	19547
2026-01-11 07:46:34.79	67.24	12.72	-41.1	-55.6	3.8	1.49e+00	0	55	104	0	53	19453
2026-01-11 07:46:37.82	66.70	12.84	-41.3	-55.5	3.8	1.49e+00	0	55	104	0	53	19264
2026-01-11 07:46:40.85	66.14	12.96	-41.1	-55.6	3.8	1.49e+00	0	55	104	0	53	19552
2026-01-11 07:46:43.88	65.59	13.07	-41.4	-55.9	3.8	1.49e+00	0	55	104	0	53	20237
2026-01-11 07:46:46.92	65.03	13.18	-41.2	-55.7	3.8	1.49e+00	0	55	104	0	54	18643
2026-01-11 07:46:49.95	64.46	13.29	-42.4	-56.0	3.8	1.49e+00	0	55	104	0	55	18271
2026-01-11 07:46:52.98	63.89	13.40	-41.5	-56.0	3.8	1.45e+00	0	55	104	0	55	18113
2026-01-11 07:46:56.01	63.32	13.51	-41.9	-49.5	6.6	1.28e+00	0	55	0	0	55	8588
2026-01-11 07:46:59.03	62.74	13.61	-41.3	-45.7	11.1	4.49e-03	0	55	0	5242880	54	5874
2026-01-11 07:47:02.06	62.16	13.71	-40.7	-44.2	13.0	2.05e-05	0	55	0	11534336	52	5557
2026-01-11 07:47:05.09	61.58	13.81	-40.6	-44.0	13.3	1.83e-05	0	55	0	16777216	52	5429
2026-01-11 07:47:08.12	60.99	13.90	-40.6	-43.9	13.4	2.21e-05	0	55	0	23068672	52	5396
2026-01-11 07:47:11.14	60.40	13.99	-40.5	-43.7	13.7	1.29e-05	0	55	0	28311552	52	5263
2026-01-11 07:47:14.17	59.80	14.08	-40.4	-43.4	14.0	2.20e-06	0	55	0	33554432	52	5081
2026-01-11 07:47:17.20	59.20	14.17	-40.4	-43.5	13.9	3.00e-06	0	55	0	39845888	52	5132
2026-01-11 07:47:20.23	58.60	14.26	-40.6	-43.8	13.7	4.50e-06	0	56	0	45088768	52	5322
2026-01-11 07:47:23.25	57.99	14.34	-40.5	-43.6	13.9	3.80e-06	0	55	0	51380224	52	5200
2026-01-11 07:47:26.28	57.38	14.42	-40.6	-43.8	13.7	5.30e-06	0	55	0	56623104	52	5325
2026-01-11 07:47:29.31	56.77	14.49	-40.7	-44.0	13.5	8.30e-06	0	55	0	62914560	52	5431
2026-01-11 07:47:32.34	56.15	14.56	-40.8	-44.2	13.3	1.29e-05	0	55	0	68157440	52	5576
2026-01-11 07:47:35.37	55.54	14.63	-40.7	-44.0	13.6	1.44e-05	0	56	0	73400320	52	5410
2026-01-11 07:47:38.39	54.92	14.70	-40.8	-44.1	13.4	1.29e-05	0	56	0	79691776	52	5487
2026-01-11 07:47:41.42	54.29	14.76	-40.6	-43.7	13.8	7.60e-06	0	56	0	84934656	52	5261
2026-01-11 07:47:44.45	53.66	14.82	-40.5	-43.7	13.9	6.10e-06	0	55	0	91226112	52	5248
2026-01-11 07:47:47.48	53.03	14.88	-40.5	-43.6	14.0	3.00e-06	0	56	0	96468992	52	5192
2026-01-11 07:47:50.50	52.40	14.93	-40.5	-43.6	14.0	1.50e-06	0	55	0	101711872	52	5170
2026-01-11 07:47:53.53	51.77	14.98	-40.6	-43.8	13.8	5.30e-06	0	56	0	108003328	52	5295
2026-01-11 07:47:56.56	51.13	15.03	-40.7	-43.9	13.6	1.83e-05	0	55	0	113246208	52	5398
2026-01-11 07:47:59.59	50.50	15.07	-40.8	-44.1	13.5	1.06e-05	0	56	0	119537664	52	5472
2026-01-11 07:48:02.62	49.86	15.11	-40.8	-44.1	13.5	6.80e-06	0	56	0	124780544	52	5470
2026-01-11 07:48:05.65	49.21	15.14	-40.6	-43.8	13.8	2.20e-06	0	56	0	130023424	52	5317
2026-01-11 07:48:08.68	48.57	15.17	-40.7	-44.0	13.6	6.10e-06	0	56	0	136314880	52	5420
2026-01-11 07:48:11.70	47.93	15.20	-40.6	-43.7	13.9	3.80e-06	0	56	0	141557760	52	5259
2026-01-11 07:48:14.73	47.28	15.23	-40.7	-43.8	13.8	1.50e-06	0	56	0	147849216	52	5300
2026-01-11 07:48:17.76	46.64	15.25	-40.7	-43.8	13.9	5.30e-06	0	56	0	153092096	52	5307
2026-01-11 07:48:20.79	45.99	15.27	-40.7	-43.8	13.8	4.50e-06	0	56	0	159383552	52	5321
2026-01-11 07:48:23.82	45.34	15.28	-40.8	-44.1	13.5	6.80e-06	0	56	0	164626432	52	5482
2026-01-11 07:48:26.85	44.69	15.29	-40.7	-43.9	13.8	3.80e-06	0	56	0	169869312	52	5344
2026-01-11 07:48:29.88	44.05	15.30	-40.7	-43.9	13.8	6.10e-06	0	56	0	176160768	52	5354
2026-01-11 07:48:32.91	43.40	15.30	-40.6	-43.7	14.0	1.50e-06	0	56	0	181403648	52	5223
2026-01-11 07:48:35.93	42.75	15.30	-40.7	-43.8	13.9	6.10e-06	0	56	0	187695104	52	5316
2026-01-11 07:48:38.96	42.10	15.30	-40.8	-44.0	13.6	9.10e-06	0	56	0	192937984	52	5438
2026-01-11 07:48:41.99	41.45	15.29	-40.7	-43.9	13.7	5.30e-06	0	56	0	198180864	52	5362
2026-01-11 07:48:45.02	40.81	15.28	-40.9	-44.2	13.5	7.60e-06	0	56	0	204472320	52	5544
2026-01-11 07:48:48.05	40.16	15.26	-40.9	-44.2	13.4	1.29e-05	0	56	0	209715200	52	5574
2026-01-11 07:48:51.07	39.52	15.24	-40.8	-44.0	13.7	9.90e-06	0	56	0	216006656	52	5421
2026-01-11 07:48:54.11	38.87	15.22	-40.8	-44.1	13.5	1.44e-05	0	56	0	221249536	52	5484
2026-01-11 07:48:57.14	38.22	15.19	-40.9	-44.2	13.4	1.29e-05	0	56	0	227540992	52	5552
2026-01-11 07:49:00.16	37.58	15.16	-40.7	-43.9	13.7	7.60e-06	0	56	0	232783872	52	5366
2026-01-11 07:49:03.19	36.94	15.13	-40.6	-43.7	13.9	2.20e-06	0	56	0	238026752	52	5263
2026-01-11 07:49:06.22	36.30	15.09	-40.6	-43.6	14.0	3.00e-06	0	56	0	244318208	52	5211
2026-01-11 07:49:09.25	35.66	15.05	-40.5	-43.6	14.0	2.20e-06	0	56	0	249561088	52	5189
2026-01-11 07:49:12.27	35.03	15.01	-40.4	-43.4	14.2	7.00e-07	0	56	0	255852544	52	5066
2026-01-11 07:49:15.30	34.39	14.96	-40.5	-43.5	14.1	1.50e-06	0	56	0	261095424	52	5141
2026-01-11 07:49:18.33	33.76	14.91	-40.5	-43.6	14.0	1.50e-06	0	56	0	266338304	52	5162
2026-01-11 07:49:21.36	33.13	14.85	-40.6	-43.7	13.9	3.80e-06	0	56	0	272629760	52	5248
2026-01-11 07:49:24.39	32.50	14.80	-40.8	-44.0	13.5	1.06e-05	0	56	0	277872640	52	5448
2026-01-11 07:49:27.41	31.88	14.74	-40.6	-43.7	13.9	3.80e-06	0	56	0	284164096	52	5232
2026-01-11 07:49:30.45	31.26	14.67	-40.5	-43.6	14.0	2.20e-06	0	56	0	289406976	52	5181
2026-01-11 07:49:33.47	30.64	14.60	-40.6	-43.8	13.9	3.80e-06	0	56	0	295698432	52	5304
2026-01-11 07:49:36.50	30.02	14.53	-40.8	-44.0	13.6	5.30e-06	0	56	0	300941312	52	5434
2026-01-11 07:49:39.53	29.41	14.46	-40.8	-44.2	13.4	2.21e-05	0	56	0	306184192	52	5546
2026-01-11 07:49:42.56	28.80	14.38	-40.6	-43.8	13.8	1.06e-05	0	56	0	312475648	52	5307
2026-01-11 07:49:45.59	28.19	14.30	-40.6	-43.8	13.8	4.50e-06	0	56	0	317718528	52	5311
2026-01-11 07:49:48.62	27.59	14.22	-40.7	-43.9	13.6	9.90e-06	0	56	0	324009984	52	5393
2026-01-11 07:49:51.65	26.99	14.14	-40.6	-43.7	13.8	3.80e-06	0	56	0	329252864	52	5273
2026-01-11 07:49:54.68	26.39	14.05	-40.4	-43.5	14.1	4.50e-06	0	56	0	334495744	52	5121
2026-01-11 07:49:57.70	25.80	13.96	-40.4	-43.3	14.2	7.00e-07	0	56	0	340787200	52	5036
2026-01-11 07:50:00.73	25.21	13.86	-40.5	-43.7	13.8	3.00e-06	0	56	0	346030080	52	5252
2026-01-11 07:50:03.76	24.63	13.77	-40.5	-43.6	13.9	1.50e-06	0	56	0	352321536	52	5190
2026-01-11 07:50:06.79	24.04	13.67	-40.5	-43.7	13.8	3.00e-06	0	56	0	357564416	52	5246
2026-01-11 07:50:09.82	23.47	13.57	-40.6	-43.8	13.7	5.30e-06	0	56	0	363855872	52	5315
2026-01-11 07:50:12.85	22.89	13.46	-40.4	-43.5	14.0	1.50e-06	0	56	0	369098752	52	5149
2026-01-11 07:50:15.88	22.32	13.36	-40.5	-43.5	14.0	3.00e-06	0	56	0	374341632	52	5147
2026-01-11 07:50:18.91	21.76	13.25	-40.7	-43.9	13.6	5.30e-06	0	56	0	380633088	52	5385
2026-01-11 07:50:21.94	21.20	13.14	-40.7	-44.0	13.4	1.22e-05	0	57	0	385875968	52	5446
2026-01-11 07:50:24.97	20.64	13.03	-40.6	-43.7	13.7	2.20e-06	0	57	0	392167424	52	5273
2026-01-11 07:50:28.00	20.09	12.91	-40.6	-43.8	13.7	7.60e-06	0	57	0	397410304	52	5312
2026-01-11 07:50:31.03	19.54	12.79	-40.7	-44.1	13.3	1.52e-05	0	56	0	402653184	52	5477
2026-01-11 07:50:34.05	19.00	12.68	-40.9	-44.4	13.0	3.12e-05	0	56	0	408944640	52	5700
2026-01-11 07:50:37.08	18.46	12.56	-41.0	-44.7	12.7	5.72e-05	0	57	0	414187520	52	5862
2026-01-11 07:50:40.11	17.93	12.43	-41.1	-44.9	12.5	1.04e-04	0	56	0	420478976	52	6002
2026-01-11 07:50:43.14	17.40	12.31	-41.2	-45.0	12.3	1.88e-04	0	56	0	425721856	53	5784
2026-01-11 07:50:46.17	16.87	12.18	-41.3	-45.3	12.0	3.50e-04	0	56	0	432013312	53	5964
2026-01-11 07:50:49.20	16.35	12.05	-41.4	-45.6	11.7	5.00e-04	0	56	0	437256192	53	6136
2026-01-11 07:50:52.23	15.84	11.92	-41.5	-45.8	11.3	9.56e-04	0	56	0	442499072	53	6338
2026-01-11 07:50:55.26	15.32	11.79	-41.6	-46.0	11.2	1.32e-03	0	56	0	448790528	53	6469
2026-01-11 07:50:58.29	14.82	11.66	-41.6	-46.0	11.2	1.72e-03	0	56	0	454033408	54	6118
2026-01-11 07:51:01.32	14.32	11.53	-41.6	-46.0	11.2	1.55e-03	0	56	0	460324864	54	6062
2026-01-11 07:51:04.35	13.82	11.39	-41.8	-46.5	10.5	3.52e-03	0	56	0	465567744	54	6484
2026-01-11 07:51:07.38	13.33	11.26	-41.9	-46.8	10.2	6.14e-03	0	56	0	470810624	54	6699
2026-01-11 07:51:10.41	12.84	11.12	-41.8	-46.8	10.0	7.29e-03	0	56	0	477102080	54	6673
2026-01-11 07:51:13.44	12.35	10.98	-41.6	-47.0	9.5	1.89e-02	0	56	0	482344960	54	6817
2026-01-11 07:51:16.46	11.88	10.84	-41.3	-46.6	9.7	1.22e-02	0	56	0	488636416	54	6514
2026-01-11 07:51:19.49	11.40	10.70	-41.3	-47.2	8.7	2.40e-02	0	56	0	493879296	54	7013
2026-01-11 07:51:22.52	10.93	10.55	-41.5	-49.8	5.8	2.63e-01	0	56	0	500170752	54	9487
2026-01-11 07:51:25.55	10.47	10.41	-41.1	-52.6	4.1	1.36e+00	0	56	0	504365056	54	13087
2026-01-11 07:51:28.58	10.01	10.27	-40.7	-53.9	3.8	1.49e+00	0	56	104	504365056	53	16111
2026-01-11 07:51:31.61	9.56	10.12	-40.4	-54.5	3.8	1.49e+00	0	57	104	504365056	52	18189
2026-01-11 07:51:34.63	9.11	9.97	-40.5	-54.9	3.8	1.49e+00	0	57	104	504365056	52	19023
2026-01-11 07:51:37.66	8.66	9.83	-40.3	-54.8	3.8	1.49e+00	0	57	104	504365056	51	19842
2026-01-11 07:51:40.69	8.22	9.68	-40.4	-54.8	3.8	1.49e+00	0	56	104	504365056	51	19973
2026-01-11 07:51:43.72	7.78	9.53	-39.9	-54.4	3.8	1.49e+00	0	56	104	504365056	51	19060
2026-01-11 07:51:46.75	7.35	9.38	-39.9	-54.4	3.8	1.49e+00	0	57	104	504365056	51	18965
2026-01-11 07:51:49.78	6.92	9.23	-39.8	-54.3	3.8	1.49e+00	0	57	104	504365056	51	18863
2026-01-11 07:51:52.80	6.50	9.08	-39.8	-54.2	3.8	1.49e+00	0	57	104	504365056	51	18663
2026-01-11 07:51:55.83	6.08	8.93	-39.8	-54.3	3.8	1.49e+00	0	57	104	504365056	51	18798
2026-01-11 07:51:58.86	5.67	8.78	-39.9	-54.4	3.8	1.49e+00	0	57	104	504365056	51	19067
2026-01-11 07:52:01.89	5.26	8.63	-39.7	-54.2	3.8	1.49e+00	0	57	104	504365056	51	18626
2026-01-11 07:52:04.92	4.85	8.47	-39.8	-54.3	3.8	1.49e+00	0	57	104	504365056	51	18859
2026-01-11 07:52:07.96	4.45	8.32	-39.8	-54.2	3.8	1.49e+00	0	57	104	504365056	51	18623
2026-01-11 07:52:10.99	4.05	8.17	-39.8	-54.3	3.8	1.49e+00	0	57	104	504365056	51	18828
2026-01-11 07:52:14.01	3.66	8.01	-39.8	-54.3	3.8	1.49e+00	0	57	104	504365056	51	18795
2026-01-11 07:52:17.05	3.27	7.86	-44.7	-59.4	3.8	1.49e+00	0	57	104	504365056	60	20115
2026-01-11 07:52:20.08	2.89	7.70	-45.2	-59.9	3.8	1.49e+00	0	57	104	504365056	60	21312
2026-01-11 07:52:23.11	2.51	7.55	-45.3	-60.1	3.8	1.49e+00	0	57	104	504365056	61	20607
2026-01-11 07:52:26.15	2.13	7.39	-45.2	-60.0	3.8	1.49e+00	0	57	104	504365056	61	20342
2026-01-11 07:52:29.18	1.76	7.24	-45.1	-59.9	3.8	1.49e+00	0	57	104	504365056	61	20129
2026-01-11 07:52:32.21	1.39	7.08	-45.1	-59.9	3.8	1.49e+00	0	57	104	504365056	61	20152
2026-01-11 07:52:35.24	1.03	6.93	-45.1	-59.9	3.8	1.49e+00	0	57	104	504365056	61	20090
2026-01-11 07:52:38.27	0.67	6.77	-45.0	-59.8	3.8	1.49e+00	0	57	104	504365056	61	20045
2026-01-11 07:52:41.30	0.31	6.62	-45.0	-59.8	3.8	1.49e+00	0	57	104	504365056	61	20070
2026-01-11 07:52:44.34	359.96	6.46	-45.0	-59.8	3.8	1.49e+00	0	57	104	504365056	61	20045
2026-01-11 07:52:47.37	359.61	6.30	-45.0	-59.8	3.8	1.49e+00	0	57	104	504365056	61	19962
2026-01-11 07:52:50.41	359.27	6.15	-45.0	-59.8	3.8	1.49e+00	0	57	104	504365056	61	20025
2026-01-11 07:52:53.44	358.93	5.99	-45.0	-59.8	3.8	1.49e+00	0	57	104	504365056	61	19975
2026-01-11 07:52:56.47	358.59	5.84	-45.0	-59.8	3.8	1.49e+00	0	57	104	504365056	61	19971
2026-01-11 07:52:59.50	358.26	5.68	-45.0	-59.8	3.8	1.49e+00	0	57	104	504365056	61	20042
2026-01-11 07:53:02.54	357.93	5.52	-45.0	-59.8	3.8	1.49e+00	0	57	104	504365056	61	19949
2026-01-11 07:53:05.57	357.60	5.37	-45.0	-59.8	3.8	1.49e+00	0	57	104	504365056	61	19980
2026-01-11 07:53:08.60	357.28	5.21	-45.0	-59.8	3.8	1.49e+00	0	57	104	504365056	61	20007
2026-01-11 07:53:11.63	356.96	5.06	-45.0	-59.8	3.8	1.49e+00	0	57	104	504365056	61	20005
2026-01-11 07:53:14.67	356.64	4.90	-45.0	-59.8	3.8	1.49e+00	0	57	104	504365056	61	20012
2026-01-11 07:53:17.70	356.33	4.74	-45.0	-59.8	3.8	1.49e+00	0	57	104	504365056	61	19948
2026-01-11 07:53:20.73	356.02	4.59	-45.0	-59.8	3.8	1.49e+00	0	57	104	504365056	61	19952
2026-01-11 07:53:23.76	355.72	4.43	-44.7	-59.8	3.8	1.49e+00	0	57	104	504365056	60	21149
2026-01-11 07:53:26.80	355.42	4.28	-45.0	-59.8	3.8	1.49e+00	0	57	104	504365056	60	21121
2026-01-11 07:53:29.83	355.12	4.12	-45.0	-59.8	3.8	1.49e+00	0	57	104	504365056	60	21252
2026-01-11 07:53:32.86	354.82	3.97	-45.0	-59.8	3.8	1.49e+00	0	57	104	504365056	60	21228
2026-01-11 07:53:35.90	354.53	3.81	-45.0	-59.8	3.8	1.49e+00	0	57	104	504365056	60	21136
2026-01-11 07:53:38.93	354.24	3.66	-45.0	-59.8	3.8	1.49e+00	0	57	104	504365056	60	21194
2026-01-11 07:53:41.96	353.96	3.50	-45.0	-59.8	3.8	1.49e+00	0	57	104	504365056	60	21202
2026-01-11 07:53:44.99	353.68	3.35	-45.0	-59.8	3.8	1.49e+00	0	57	104	504365056	60	21139
2026-01-11 07:53:48.03	353.40	3.19	-45.0	-59.8	3.8	1.49e+00	0	57	104	504365056	60	21112
2026-01-11 07:53:51.06	353.12	3.04	-45.0	-59.8	3.8	1.49e+00	0	57	104	504365056	60	21178
2026-01-11 07:53:54.09	352.85	2.89	-45.0	-59.8	3.8	1.49e+00	0	57	104	504365056	60	21191
2026-01-11 07:53:57.13	352.58	2.73	-45.0	-59.8	3.8	1.49e+00	0	57	104	504365056	60	21111
2026-01-11 07:54:00.15	352.31	2.58	-44.9	-59.8	3.8	1.49e+00	0	57	104	504365056	60	21181
2026-01-11 07:54:03.19	352.05	2.43	-45.0	-59.8	3.8	1.49e+00	0	57	104	504365056	60	21157
2026-01-11 07:54:06.22	351.78	2.27	-45.0	-59.8	3.8	1.49e+00	0	57	104	504365056	60	21132
2026-01-11 07:54:09.25	351.53	2.12	-44.8	-59.8	3.8	1.49e+00	0	57	104	504365056	60	21100
2026-01-11 07:54:12.29	351.27	1.97	-45.0	-59.8	3.8	1.49e+00	0	57	104	504365056	60	21180

#Closed at: 2026-01-11 07:54:13
#Recorded file [504 MB]: D:/lorett/data/31039_260111_104256.dat