passes_logs/2026/01/11/R2.0S_Moscow/R2.0S_Moscow__20260111_033453_FENGYUN_3E_rec.log

#Pass ID: 20260111_033453_FENGYUN 3E
#Satellite: FENGYUN 3E
#Configuration: FENGYUN 3E
#almurnet v.1.7.20251203
#Start time: 2026-01-11 03:42:23

#Version: 2.2.20231116
#Station: R2.0S_Moscow
#Location: 37.707566 lon 55.798166 lat
#TLE: 1 49008U 21062A   26010.00248113 -.00000186  00000+0 -66867-4 0  9993
#TLE: 2 49008  98.7487  15.1892 0001787 147.8079 212.3207 14.19883469234134

#Time	Az	El	Level	Level2	SNR	BER	BlckErr	Temp	State	Recorded	gain1	gain2
2026-01-11 03:42:23.94	122.66	64.22	-44.8	-56.6	3.8	8.46e-01	0	56	0	0	60	14689
2026-01-11 03:42:25.96	124.71	63.92	-45.6	-56.5	3.8	8.45e-01	0	57	104	0	61	12883
2026-01-11 03:42:27.98	126.70	63.58	-45.6	-56.7	3.8	8.47e-01	0	57	104	0	61	13170
2026-01-11 03:42:30.00	128.63	63.23	-45.6	-56.7	3.8	8.46e-01	0	57	104	0	61	13142
2026-01-11 03:42:32.03	130.52	62.85	-45.6	-56.6	3.8	8.45e-01	0	57	104	0	61	13029
2026-01-11 03:42:34.05	132.33	62.44	-45.5	-56.6	3.8	8.45e-01	0	57	104	0	61	12986
2026-01-11 03:42:36.07	134.08	62.02	-45.5	-56.6	3.8	8.46e-01	0	57	104	0	61	12967
2026-01-11 03:42:38.09	135.78	61.58	-45.5	-56.5	3.8	8.44e-01	0	57	104	0	61	12929
2026-01-11 03:42:40.11	137.41	61.12	-45.5	-56.5	3.8	8.46e-01	0	57	104	0	61	12953
2026-01-11 03:42:42.13	138.99	60.64	-45.5	-56.5	3.8	8.45e-01	0	57	104	0	61	12823
2026-01-11 03:42:44.15	140.50	60.15	-45.5	-56.5	3.8	8.46e-01	0	57	104	0	61	12907
2026-01-11 03:42:46.17	141.96	59.64	-45.5	-56.5	3.8	8.46e-01	0	57	104	0	61	12910
2026-01-11 03:42:48.20	143.37	59.13	-45.4	-56.3	3.8	8.46e-01	0	57	104	0	61	12654
2026-01-11 03:42:50.22	144.71	58.60	-45.5	-56.4	3.8	8.47e-01	0	57	104	0	61	12720
2026-01-11 03:42:52.24	146.01	58.06	-45.5	-56.4	3.8	8.47e-01	0	57	104	0	61	12807
2026-01-11 03:42:54.26	147.25	57.52	-45.4	-56.2	3.8	8.46e-01	0	57	104	0	61	12495
2026-01-11 03:42:56.28	148.45	56.97	-45.4	-56.4	3.8	8.45e-01	0	57	104	0	61	12689
2026-01-11 03:42:58.30	149.60	56.41	-45.4	-56.5	3.8	8.45e-01	0	57	104	0	61	12811
2026-01-11 03:43:00.33	150.71	55.85	-45.4	-56.1	3.8	8.46e-01	0	57	104	0	61	12305
2026-01-11 03:43:02.35	151.77	55.28	-45.4	-56.3	3.8	8.46e-01	0	57	104	0	61	12537
2026-01-11 03:43:04.37	152.79	54.72	-45.4	-55.9	3.8	8.46e-01	0	57	104	0	61	12044
2026-01-11 03:43:06.39	153.77	54.14	-45.4	-56.0	3.8	8.46e-01	0	57	104	0	61	12113
2026-01-11 03:43:08.41	154.71	53.57	-45.4	-56.2	3.8	8.46e-01	0	57	104	0	61	12456
2026-01-11 03:43:10.43	155.61	53.00	-45.4	-56.0	3.8	8.47e-01	0	57	104	0	61	12134
2026-01-11 03:43:12.46	156.49	52.42	-43.6	-48.1	6.9	4.64e-01	0	57	0	2097152	58	5807
2026-01-11 03:43:14.48	157.32	51.85	-43.7	-48.2	6.9	7.26e-02	0	57	0	15728640	56	6628
2026-01-11 03:43:16.50	158.13	51.28	-41.3	-43.9	11.0	3.15e-02	0	57	0	23068672	53	4782
2026-01-11 03:43:18.52	158.91	50.70	-36.7	-38.0	17.0	0.00e+00	0	57	0	37748736	44	4094
2026-01-11 03:43:20.54	159.66	50.13	-37.6	-39.0	15.6	1.02e-01	0	57	104	46137344	46	4092
2026-01-11 03:43:22.55	160.37	49.57	-36.9	-38.3	16.7	4.50e-06	0	57	0	60817408	44	4216
2026-01-11 03:43:24.58	161.07	49.00	-36.9	-38.3	16.3	0.00e+00	0	57	0	74448896	44	4210
2026-01-11 03:43:26.60	161.74	48.44	-36.4	-37.7	17.2	0.00e+00	0	57	0	89128960	44	3941
2026-01-11 03:43:28.62	162.39	47.88	-36.0	-37.3	17.6	0.00e+00	0	57	0	103809024	42	4202
2026-01-11 03:43:30.64	163.01	47.33	-35.9	-37.1	17.7	0.00e+00	0	57	0	118489088	42	4124
2026-01-11 03:43:32.66	163.62	46.78	-35.6	-36.8	18.0	0.00e+00	0	57	0	133169152	42	3988
2026-01-11 03:43:34.68	164.20	46.23	-35.0	-36.1	18.3	0.00e+00	0	57	0	147849216	41	3906
2026-01-11 03:43:36.70	164.76	45.68	-34.9	-36.0	18.8	0.00e+00	0	57	0	162529280	40	4059
2026-01-11 03:43:38.72	165.30	45.15	-34.8	-35.8	18.9	0.00e+00	0	57	0	177209344	40	4003
2026-01-11 03:43:40.74	165.83	44.61	-34.7	-35.8	19.0	0.00e+00	0	57	0	191889408	40	3991
2026-01-11 03:43:42.76	166.34	44.08	-34.9	-36.0	18.8	0.00e+00	0	57	0	206569472	40	4061
2026-01-11 03:43:44.77	166.83	43.56	-35.0	-36.1	18.7	0.00e+00	0	57	0	220200960	40	4126
2026-01-11 03:43:46.79	167.31	43.04	-34.9	-36.1	18.7	0.00e+00	0	57	0	234881024	40	4103
2026-01-11 03:43:48.81	167.77	42.52	-34.7	-35.8	18.9	0.00e+00	0	57	0	249561088	40	3965
2026-01-11 03:43:50.84	168.22	42.01	-34.5	-35.6	19.0	0.00e+00	0	57	0	264241152	39	4100
2026-01-11 03:43:52.86	168.65	41.51	-34.6	-35.6	19.2	0.00e+00	0	57	0	278921216	39	4145
2026-01-11 03:43:54.88	169.08	41.01	-34.7	-35.8	19.1	0.00e+00	0	57	0	293601280	39	4212
2026-01-11 03:43:56.90	169.49	40.51	-34.7	-35.8	19.0	0.00e+00	0	57	0	308281344	39	4233
2026-01-11 03:43:58.92	169.88	40.02	-34.6	-35.7	19.1	0.00e+00	0	57	0	322961408	39	4177
2026-01-11 03:44:00.93	170.27	39.54	-34.5	-35.6	19.2	0.00e+00	0	57	0	337641472	39	4125
2026-01-11 03:44:02.95	170.64	39.06	-34.7	-35.8	19.0	0.00e+00	0	57	0	352321536	39	4214
2026-01-11 03:44:04.97	171.00	38.59	-34.8	-35.9	18.9	0.00e+00	0	57	0	365953024	39	4285
2026-01-11 03:44:07.00	171.36	38.12	-34.9	-36.0	18.6	0.00e+00	0	57	0	381681664	39	4331
2026-01-11 03:44:09.02	171.70	37.66	-34.9	-36.0	18.8	0.00e+00	0	57	0	395313152	39	4307
2026-01-11 03:44:11.04	172.04	37.20	-34.7	-35.8	19.0	0.00e+00	0	57	0	409993216	39	4219
2026-01-11 03:44:13.06	172.36	36.75	-34.4	-35.5	19.3	0.00e+00	0	57	0	424673280	39	4068
2026-01-11 03:44:15.08	172.68	36.30	-34.3	-35.3	19.4	0.00e+00	0	57	0	439353344	39	3999
2026-01-11 03:44:17.10	172.99	35.86	-34.2	-35.3	19.5	0.00e+00	0	57	0	454033408	39	3960
2026-01-11 03:44:19.12	173.29	35.42	-34.3	-35.4	19.3	0.00e+00	0	57	0	468713472	39	4025
2026-01-11 03:44:21.14	173.58	34.99	-34.5	-35.6	19.2	0.00e+00	0	57	0	483393536	39	4100
2026-01-11 03:44:23.16	173.87	34.56	-34.5	-35.6	19.2	0.00e+00	0	57	0	498073600	39	4106
2026-01-11 03:44:25.18	174.15	34.14	-34.5	-35.5	19.2	0.00e+00	0	57	0	512753664	39	4089
2026-01-11 03:44:27.20	174.42	33.73	-34.4	-35.5	19.2	0.00e+00	0	57	0	527433728	39	4060
2026-01-11 03:44:29.22	174.69	33.31	-34.4	-35.4	19.2	0.00e+00	0	57	0	541065216	39	4051
2026-01-11 03:44:31.24	174.94	32.91	-34.3	-35.4	19.3	0.00e+00	0	57	0	555745280	39	4007
2026-01-11 03:44:33.26	175.20	32.50	-34.3	-35.3	19.4	0.00e+00	0	57	0	570425344	39	4002
2026-01-11 03:44:35.28	175.44	32.11	-34.2	-35.3	19.4	0.00e+00	0	57	0	585105408	39	3966
2026-01-11 03:44:37.30	175.68	31.71	-34.2	-35.3	19.4	0.00e+00	0	58	0	599785472	39	3968
2026-01-11 03:44:39.32	175.92	31.33	-34.2	-35.3	19.4	0.00e+00	0	57	0	614465536	39	3977
2026-01-11 03:44:41.34	176.15	30.94	-34.3	-35.3	19.4	0.00e+00	0	57	0	629145600	39	3997
2026-01-11 03:44:43.36	176.37	30.57	-34.3	-35.4	19.3	0.00e+00	0	57	0	643825664	39	4019
2026-01-11 03:44:45.38	176.59	30.19	-34.3	-35.4	19.3	0.00e+00	0	57	0	658505728	39	4018
2026-01-11 03:44:47.40	176.81	29.82	-34.3	-35.4	19.1	0.00e+00	0	57	0	673185792	39	4034
2026-01-11 03:44:49.42	177.02	29.46	-34.4	-35.5	19.0	0.00e+00	0	57	0	686817280	39	4072
2026-01-11 03:44:51.44	177.22	29.09	-34.5	-35.6	19.1	0.00e+00	0	57	0	701497344	39	4116
2026-01-11 03:44:53.46	177.42	28.74	-34.6	-35.8	18.9	0.00e+00	0	57	0	716177408	39	4194
2026-01-11 03:44:55.47	177.62	28.39	-34.8	-36.0	18.7	0.00e+00	0	57	0	730857472	39	4295
2026-01-11 03:44:57.49	177.81	28.04	-35.0	-36.1	18.5	0.00e+00	0	57	0	745537536	39	4384
2026-01-11 03:44:59.51	178.00	27.69	-35.2	-36.3	18.4	0.00e+00	0	57	0	760217600	39	4482
2026-01-11 03:45:01.53	178.19	27.35	-35.2	-36.4	18.2	0.00e+00	0	57	0	774897664	40	4262
2026-01-11 03:45:03.55	178.37	27.01	-35.3	-36.4	18.2	0.00e+00	0	57	0	789577728	40	4281
2026-01-11 03:45:05.57	178.55	26.68	-35.3	-36.5	18.1	0.00e+00	0	57	0	804257792	40	4303
2026-01-11 03:45:07.59	178.72	26.35	-35.4	-36.5	18.0	0.00e+00	0	57	0	817889280	40	4338
2026-01-11 03:45:09.61	178.89	26.03	-35.2	-36.4	18.2	0.00e+00	0	57	0	833617920	40	4262
2026-01-11 03:45:11.63	179.06	25.70	-35.2	-36.4	18.1	0.00e+00	0	57	0	847249408	40	4267
2026-01-11 03:45:13.65	179.22	25.39	-35.0	-36.2	18.2	0.00e+00	0	57	0	861929472	40	4177
2026-01-11 03:45:15.67	179.39	25.07	-35.0	-36.2	18.4	0.00e+00	0	57	0	876609536	40	4164
2026-01-11 03:45:17.68	179.54	24.76	-34.9	-36.1	18.4	0.00e+00	0	58	0	891289600	40	4112
2026-01-11 03:45:19.71	179.70	24.45	-34.9	-36.0	18.5	0.00e+00	0	57	0	905969664	40	4077
2026-01-11 03:45:21.73	179.85	24.15	-34.8	-36.0	18.6	0.00e+00	0	58	0	920649728	40	4061
2026-01-11 03:45:23.75	180.00	23.85	-34.8	-36.0	18.6	0.00e+00	0	58	0	935329792	40	4062
2026-01-11 03:45:25.77	180.15	23.55	-35.0	-36.1	18.4	0.00e+00	0	57	0	950009856	40	4137
2026-01-11 03:45:27.79	180.29	23.25	-34.7	-35.9	18.6	0.00e+00	0	57	0	963641344	40	4012
2026-01-11 03:45:29.81	180.43	22.96	-34.8	-36.0	18.6	0.00e+00	0	58	0	979369984	40	4060
2026-01-11 03:45:31.83	180.57	22.67	-34.9	-36.0	18.4	0.00e+00	0	58	0	993001472	40	4097
2026-01-11 03:45:33.85	180.71	22.39	-35.0	-36.2	18.3	0.00e+00	0	57	0	1007681536	40	4165
2026-01-11 03:45:35.87	180.84	22.11	-35.3	-36.5	18.0	0.00e+00	0	58	0	1022361600	40	4295
2026-01-11 03:45:37.88	180.98	21.83	-35.4	-36.6	17.9	0.00e+00	0	57	0	1037041664	40	4352
2026-01-11 03:45:39.90	181.11	21.55	-35.5	-36.8	17.6	0.00e+00	0	57	0	1051721728	40	4460
2026-01-11 03:45:41.92	181.23	21.28	-35.5	-36.7	17.7	0.00e+00	0	57	0	1066401792	40	4415
2026-01-11 03:45:43.94	181.36	21.01	-35.5	-36.8	17.7	0.00e+00	0	57	0	1081081856	40	4444
2026-01-11 03:45:45.96	181.48	20.74	-35.5	-36.8	17.6	0.00e+00	0	57	0	1095761920	40	4458
2026-01-11 03:45:47.98	181.60	20.47	-35.5	-36.7	17.6	0.00e+00	0	58	0	1110441984	40	4426
2026-01-11 03:45:50.00	181.72	20.21	-35.3	-36.6	17.6	0.00e+00	0	58	0	1125122048	40	4356
2026-01-11 03:45:52.03	181.84	19.95	-35.3	-36.6	17.5	0.00e+00	0	58	0	1138753536	40	4348
2026-01-11 03:45:54.05	181.96	19.69	-35.3	-36.5	17.6	0.00e+00	0	57	0	1154482176	40	4338
2026-01-11 03:45:56.07	182.07	19.44	-35.3	-36.5	17.6	0.00e+00	0	58	0	1168113664	40	4325
2026-01-11 03:45:58.08	182.18	19.19	-35.3	-36.5	17.8	0.00e+00	0	57	0	1182793728	40	4305
2026-01-11 03:46:00.10	182.29	18.94	-35.4	-36.6	17.8	0.00e+00	0	58	0	1197473792	40	4374
2026-01-11 03:46:02.12	182.40	18.69	-35.5	-36.7	17.7	0.00e+00	0	57	0	1212153856	40	4411
2026-01-11 03:46:04.14	182.51	18.44	-35.5	-36.7	17.7	0.00e+00	0	58	0	1226833920	40	4416
2026-01-11 03:46:06.16	182.62	18.20	-35.7	-36.9	17.5	0.00e+00	0	58	0	1241513984	40	4530
2026-01-11 03:46:08.18	182.72	17.96	-35.7	-36.9	17.5	0.00e+00	0	57	0	1256194048	41	4283
2026-01-11 03:46:10.20	182.82	17.72	-35.7	-37.0	17.4	0.00e+00	0	58	0	1270874112	41	4304
2026-01-11 03:46:12.22	182.92	17.49	-35.9	-37.2	17.2	0.00e+00	0	57	0	1284505600	41	4400
2026-01-11 03:46:14.23	183.02	17.25	-36.0	-37.3	17.1	0.00e+00	0	58	0	1299185664	41	4482
2026-01-11 03:46:16.26	183.12	17.02	-36.3	-37.6	16.8	0.00e+00	0	58	0	1313865728	42	4374
2026-01-11 03:46:18.27	183.22	16.79	-36.3	-37.6	16.8	0.00e+00	0	57	0	1328545792	42	4379
2026-01-11 03:46:20.29	183.31	16.57	-36.1	-37.4	17.0	0.00e+00	0	58	0	1343225856	42	4284
2026-01-11 03:46:22.31	183.41	16.34	-36.1	-37.4	17.0	0.00e+00	0	58	0	1357905920	42	4285
2026-01-11 03:46:24.33	183.50	16.12	-36.3	-37.7	16.7	0.00e+00	0	58	0	1372585984	42	4399
2026-01-11 03:46:26.35	183.59	15.89	-36.3	-37.7	16.7	0.00e+00	0	58	0	1387266048	42	4402
2026-01-11 03:46:28.37	183.68	15.68	-36.5	-37.9	16.6	0.00e+00	0	58	0	1401946112	42	4502
2026-01-11 03:46:30.39	183.77	15.46	-36.3	-37.7	16.8	0.00e+00	0	58	0	1416626176	42	4392
2026-01-11 03:46:32.41	183.86	15.24	-36.3	-37.7	16.7	0.00e+00	0	58	0	1431306240	42	4406
2026-01-11 03:46:34.43	183.95	15.03	-36.4	-37.7	16.6	0.00e+00	0	58	0	1444937728	42	4434
2026-01-11 03:46:36.45	184.03	14.82	-36.5	-37.8	16.5	0.00e+00	0	58	0	1459617792	42	4490
2026-01-11 03:46:38.47	184.12	14.61	-36.6	-37.9	16.4	0.00e+00	0	58	0	1474297856	42	4540
2026-01-11 03:46:40.49	184.20	14.40	-36.5	-37.9	16.4	0.00e+00	0	58	0	1488977920	42	4540
2026-01-11 03:46:42.51	184.28	14.19	-36.5	-37.9	16.5	0.00e+00	0	58	0	1503657984	42	4494
2026-01-11 03:46:44.53	184.36	13.98	-36.5	-37.9	16.4	0.00e+00	0	58	0	1518338048	42	4530
2026-01-11 03:46:46.55	184.44	13.78	-36.6	-38.0	16.4	0.00e+00	0	58	0	1533018112	42	4564
2026-01-11 03:46:48.57	184.52	13.58	-36.7	-38.1	16.2	0.00e+00	0	58	0	1547698176	42	4606
2026-01-11 03:46:50.59	184.60	13.38	-36.9	-38.3	16.0	0.00e+00	0	58	0	1561329664	43	4485
2026-01-11 03:46:52.60	184.68	13.18	-37.0	-38.5	15.8	0.00e+00	0	58	0	1577058304	43	4586
2026-01-11 03:46:54.62	184.75	12.98	-37.1	-38.6	15.7	0.00e+00	0	58	0	1590689792	43	4631
2026-01-11 03:46:56.64	184.83	12.79	-37.4	-38.9	15.5	0.00e+00	0	58	0	1605369856	44	4528
2026-01-11 03:46:58.66	184.90	12.59	-37.3	-38.8	15.6	0.00e+00	0	58	0	1620049920	44	4466
2026-01-11 03:47:00.69	184.98	12.40	-37.1	-38.6	15.8	0.00e+00	0	58	0	1634729984	44	4377
2026-01-11 03:47:02.71	185.05	12.21	-37.1	-38.6	15.8	0.00e+00	0	58	0	1649410048	44	4372
2026-01-11 03:47:04.73	185.12	12.02	-37.2	-38.7	15.7	0.00e+00	0	58	0	1664090112	44	4399
2026-01-11 03:47:06.75	185.19	11.83	-37.3	-38.8	15.6	0.00e+00	0	58	0	1678770176	44	4470
2026-01-11 03:47:08.77	185.26	11.65	-37.4	-38.9	15.4	0.00e+00	0	58	0	1693450240	44	4525
2026-01-11 03:47:10.79	185.33	11.46	-37.6	-39.1	15.2	0.00e+00	0	58	0	1708130304	44	4639
2026-01-11 03:47:12.81	185.40	11.28	-37.6	-39.2	15.1	0.00e+00	0	58	0	1722810368	44	4661
2026-01-11 03:47:14.83	185.47	11.09	-37.8	-39.4	14.9	0.00e+00	0	58	0	1736441856	45	4519
2026-01-11 03:47:16.85	185.54	10.91	-37.9	-39.6	14.7	0.00e+00	0	58	0	1752170496	45	4606
2026-01-11 03:47:18.87	185.60	10.73	-37.9	-39.6	14.7	0.00e+00	0	58	0	1765801984	45	4610
2026-01-11 03:47:20.89	185.67	10.55	-37.9	-39.6	14.6	0.00e+00	0	58	0	1780482048	45	4632
2026-01-11 03:47:22.90	185.73	10.38	-37.8	-39.4	14.8	0.00e+00	0	58	0	1795162112	45	4539
2026-01-11 03:47:24.93	185.80	10.20	-37.8	-39.4	14.8	0.00e+00	0	58	0	1809842176	45	4533
2026-01-11 03:47:26.95	185.86	10.03	-37.7	-39.4	14.9	0.00e+00	0	58	0	1824522240	45	4510
2026-01-11 03:47:28.97	185.92	9.85	-37.8	-39.4	14.8	0.00e+00	0	58	0	1839202304	45	4522
2026-01-11 03:47:30.98	185.98	9.68	-37.7	-39.4	14.8	0.00e+00	0	58	0	1853882368	45	4510
2026-01-11 03:47:33.01	186.05	9.51	-37.7	-39.4	14.8	0.00e+00	0	58	0	1868562432	45	4504
2026-01-11 03:47:35.03	186.11	9.34	-37.9	-39.6	14.6	0.00e+00	0	58	0	1882193920	45	4599
2026-01-11 03:47:37.05	186.17	9.17	-37.9	-39.7	14.4	0.00e+00	0	58	0	1897922560	45	4658
2026-01-11 03:47:39.06	186.23	9.00	-37.9	-39.6	14.5	0.00e+00	0	58	0	1911554048	45	4623
2026-01-11 03:47:41.08	186.29	8.83	-37.8	-39.5	14.6	0.00e+00	0	58	0	1926234112	45	4583
2026-01-11 03:47:43.11	186.34	8.67	-37.8	-39.5	14.6	0.00e+00	0	58	0	1940914176	45	4547
2026-01-11 03:47:45.13	186.40	8.50	-37.9	-39.6	14.4	0.00e+00	0	58	0	1955594240	45	4644
2026-01-11 03:47:47.15	186.46	8.34	-37.9	-39.6	14.4	0.00e+00	0	58	0	1970274304	45	4649
2026-01-11 03:47:49.17	186.52	8.18	-37.9	-39.6	14.4	1.10e-06	0	58	0	1984954368	45	4645
2026-01-11 03:47:51.19	186.57	8.02	-38.0	-39.8	14.2	0.00e+00	0	58	0	1999634432	45	4714
2026-01-11 03:47:53.21	186.63	7.86	-45.1	-55.8	3.8	8.48e-01	0	58	104	2003828736	59	13371
2026-01-11 03:47:55.23	186.68	7.70	-45.3	-56.4	3.8	8.47e-01	0	58	104	2003828736	60	13448
2026-01-11 03:47:57.25	186.74	7.54	-45.4	-56.5	3.8	8.46e-01	0	58	104	2003828736	60	13674
2026-01-11 03:47:59.27	186.79	7.38	-45.5	-56.6	3.8	8.47e-01	0	58	104	2003828736	60	13734
2026-01-11 03:48:01.29	186.84	7.22	-45.5	-56.5	3.8	8.46e-01	0	58	104	2003828736	60	13698
2026-01-11 03:48:03.31	186.90	7.07	-45.4	-56.5	3.8	8.46e-01	0	58	104	2003828736	60	13644
2026-01-11 03:48:05.34	186.95	6.91	-45.4	-56.5	3.8	8.47e-01	0	58	104	2003828736	60	13613
2026-01-11 03:48:07.36	187.00	6.76	-45.4	-56.4	3.8	8.47e-01	0	58	104	2003828736	60	13512
2026-01-11 03:48:09.38	187.05	6.60	-45.4	-56.4	3.8	8.46e-01	0	58	104	2003828736	60	13492
2026-01-11 03:48:11.40	187.10	6.45	-45.4	-56.4	3.8	8.46e-01	0	58	104	2003828736	60	13490
2026-01-11 03:48:13.43	187.15	6.30	-45.4	-56.4	3.8	8.46e-01	0	58	104	2003828736	60	13435
2026-01-11 03:48:15.45	187.20	6.15	-45.3	-56.4	3.8	8.46e-01	0	58	104	2003828736	60	13457
2026-01-11 03:48:17.47	187.25	6.00	-45.3	-56.4	3.8	8.46e-01	0	58	104	2003828736	60	13428
2026-01-11 03:48:19.49	187.30	5.85	-45.3	-56.3	3.8	8.47e-01	0	58	104	2003828736	60	13397
2026-01-11 03:48:21.51	187.35	5.70	-45.3	-56.4	3.8	8.46e-01	0	58	104	2003828736	60	13416
2026-01-11 03:48:23.53	187.40	5.56	-45.3	-56.3	3.8	8.46e-01	0	58	104	2003828736	60	13358
2026-01-11 03:48:25.55	187.45	5.41	-45.3	-56.3	3.8	8.46e-01	0	58	104	2003828736	60	13309
2026-01-11 03:48:27.58	187.49	5.26	-45.3	-56.3	3.8	8.47e-01	0	58	104	2003828736	60	13370
2026-01-11 03:48:29.60	187.54	5.12	-45.3	-56.3	3.8	8.46e-01	0	58	104	2003828736	60	13355
2026-01-11 03:48:31.62	187.59	4.98	-45.3	-56.3	3.8	8.46e-01	0	58	104	2003828736	60	13385
2026-01-11 03:48:33.64	187.63	4.83	-45.3	-56.3	3.8	8.46e-01	0	58	104	2003828736	60	13347
2026-01-11 03:48:35.66	187.68	4.69	-45.3	-56.3	3.8	8.47e-01	0	58	104	2003828736	60	13304
2026-01-11 03:48:37.69	187.72	4.55	-45.3	-56.3	3.8	8.46e-01	0	58	104	2003828736	60	13317
2026-01-11 03:48:39.71	187.77	4.41	-45.3	-56.3	3.8	8.46e-01	0	58	104	2003828736	60	13330
2026-01-11 03:48:41.73	187.81	4.27	-45.3	-56.3	3.8	8.46e-01	0	58	104	2003828736	60	13346
2026-01-11 03:48:43.75	187.86	4.13	-45.3	-56.3	3.8	8.46e-01	0	58	104	2003828736	60	13355
2026-01-11 03:48:45.77	187.90	3.99	-45.3	-56.3	3.8	8.46e-01	0	58	104	2003828736	60	13289
2026-01-11 03:48:47.79	187.94	3.85	-45.3	-56.3	3.8	8.47e-01	0	58	104	2003828736	60	13279
2026-01-11 03:48:49.81	187.99	3.71	-45.3	-56.3	3.8	8.47e-01	0	58	104	2003828736	60	13353
2026-01-11 03:48:51.83	188.03	3.58	-45.3	-56.3	3.8	8.46e-01	0	58	104	2003828736	60	13286
2026-01-11 03:48:53.85	188.07	3.44	-45.3	-56.3	3.8	8.46e-01	0	58	104	2003828736	60	13325
2026-01-11 03:48:55.87	188.11	3.31	-45.3	-56.3	3.8	8.46e-01	0	58	104	2003828736	60	13311
2026-01-11 03:48:57.89	188.15	3.17	-45.3	-56.3	3.8	8.47e-01	0	58	104	2003828736	60	13307
2026-01-11 03:48:59.91	188.20	3.04	-45.3	-56.3	3.8	8.46e-01	0	58	104	2003828736	60	13321
2026-01-11 03:49:01.94	188.24	2.90	-45.2	-56.3	3.8	8.47e-01	0	58	104	2003828736	60	13282
2026-01-11 03:49:03.96	188.28	2.77	-45.0	-56.1	3.8	8.45e-01	0	58	104	2003828736	60	13046
2026-01-11 03:49:05.98	188.32	2.64	-45.3	-56.3	3.8	8.46e-01	0	58	104	2003828736	60	13282
2026-01-11 03:49:08.00	188.36	2.51	-45.3	-56.3	3.8	8.46e-01	0	58	104	2003828736	60	13347
2026-01-11 03:49:10.02	188.40	2.38	-45.3	-56.2	3.8	8.47e-01	0	58	104	2003828736	60	13254
2026-01-11 03:49:12.04	188.44	2.25	-45.3	-56.3	3.8	8.46e-01	0	58	104	2003828736	60	13292
2026-01-11 03:49:14.06	188.48	2.12	-45.3	-56.3	3.8	8.46e-01	0	58	104	2003828736	60	13309
2026-01-11 03:49:16.08	188.52	1.99	-45.3	-56.2	3.8	8.46e-01	0	58	104	2003828736	60	13234

#Closed at: 2026-01-11 03:49:16
#Recorded file [2003 MB]: D:/lorett/data/31039_260111_064223.dat