passes_logs/2026/01/11/R2.0S_Moscow/R2.0S_Moscow__20260111_092041_NOAA_20_JPSS-1_rec.log

#Pass ID: 20260111_092041_NOAA 20 (JPSS-1)
#Satellite: NOAA 20 (JPSS-1)
#Configuration: NOAA 20
#almurnet v.1.7.20251203
#Start time: 2026-01-11 09:20:42

#Version: 2.2.20231116
#Station: R2.0S_Moscow
#Location: 37.707566 lon 55.798166 lat
#TLE: 1 43013U 17073A   26009.69119415  .00000109  00000+0  72598-4 0  9996
#TLE: 2 43013  98.7631 310.6868 0001678  46.7442 313.3874 14.19534878421981

#Time	Az	El	Level	Level2	SNR	BER	BlckErr	Temp	State	Recorded	gain1	gain2
2026-01-11 09:20:42.11	143.85	2.03	-43.8	-58.2	3.8	1.49e+00	0	47	0	0	59	18606
2026-01-11 09:20:46.15	143.75	2.29	-43.8	-58.2	3.8	1.49e+00	0	48	104	0	59	18562
2026-01-11 09:20:50.19	143.66	2.55	-43.8	-58.2	3.8	1.49e+00	0	48	104	0	59	18563
2026-01-11 09:20:54.24	143.56	2.82	-43.8	-58.2	3.8	1.49e+00	0	48	104	0	59	18592
2026-01-11 09:20:58.28	143.46	3.08	-43.8	-58.2	3.8	1.49e+00	0	49	104	0	59	18600
2026-01-11 09:21:02.32	143.36	3.35	-43.8	-58.2	3.8	1.49e+00	0	49	104	0	59	18583
2026-01-11 09:21:06.37	143.26	3.62	-43.8	-58.2	3.8	1.49e+00	0	49	104	0	59	18572
2026-01-11 09:21:10.41	143.15	3.89	-43.8	-58.2	3.8	1.49e+00	0	50	104	0	59	18545
2026-01-11 09:21:14.45	143.04	4.17	-43.8	-58.2	3.8	1.49e+00	0	50	104	0	59	18591
2026-01-11 09:21:18.50	142.93	4.44	-43.8	-58.2	3.8	1.49e+00	0	50	104	0	59	18579
2026-01-11 09:21:22.54	142.82	4.73	-43.8	-58.2	3.8	1.49e+00	0	50	104	0	59	18558
2026-01-11 09:21:26.59	142.71	5.01	-43.8	-58.1	3.8	1.49e+00	0	51	104	0	59	18390
2026-01-11 09:21:30.63	142.59	5.30	-43.8	-57.8	3.8	1.49e+00	0	51	104	0	59	17745
2026-01-11 09:21:34.67	142.47	5.59	-43.7	-57.3	3.8	1.49e+00	0	51	104	0	59	16848
2026-01-11 09:21:38.72	142.35	5.88	-43.7	-56.9	3.8	1.49e+00	0	51	104	0	59	15991
2026-01-11 09:21:42.76	142.22	6.18	-43.7	-56.9	3.8	1.49e+00	0	51	104	0	59	16090
2026-01-11 09:21:46.81	142.09	6.48	-43.7	-57.3	3.8	1.49e+00	0	51	104	0	59	16838
2026-01-11 09:21:50.85	141.96	6.78	-43.8	-58.1	3.8	1.49e+00	0	51	104	0	59	18461
2026-01-11 09:21:54.89	141.83	7.08	-43.7	-56.8	3.8	1.49e+00	0	52	104	0	59	15891
2026-01-11 09:21:58.94	141.69	7.39	-43.1	-51.2	5.9	5.01e-01	0	52	0	3145728	58	8784
2026-01-11 09:22:02.98	141.56	7.71	-42.1	-47.4	9.5	1.93e-02	0	52	0	10485760	56	6386
2026-01-11 09:22:07.02	141.41	8.02	-41.1	-45.1	11.8	5.43e-04	0	52	0	17825792	54	5477
2026-01-11 09:22:11.06	141.27	8.34	-43.5	-52.8	5.0	1.71e-01	0	52	0	22020096	57	11166
2026-01-11 09:22:15.10	141.12	8.67	-40.4	-44.0	12.8	5.49e-05	0	53	0	29360128	52	5404
2026-01-11 09:22:19.14	140.96	9.00	-40.7	-44.4	12.5	4.50e-05	0	53	0	36700160	52	5665
2026-01-11 09:22:23.17	140.81	9.33	-40.5	-44.0	12.9	3.96e-05	0	53	0	44040192	52	5447
2026-01-11 09:22:27.21	140.65	9.67	-40.5	-44.0	12.9	3.20e-05	0	53	0	52428800	52	5441
2026-01-11 09:22:31.25	140.48	10.01	-40.4	-43.8	13.1	2.21e-05	0	53	0	59768832	52	5303
2026-01-11 09:22:35.29	140.31	10.36	-40.3	-43.6	13.4	1.44e-05	0	53	0	67108864	52	5176
2026-01-11 09:22:39.33	140.14	10.71	-40.3	-43.6	13.5	1.60e-05	0	53	0	74448896	51	5470
2026-01-11 09:22:43.36	139.96	11.06	-40.3	-43.4	13.8	3.00e-06	0	53	0	81788928	51	5363
2026-01-11 09:22:47.40	139.78	11.42	-40.5	-43.8	13.4	2.05e-05	0	54	0	90177536	51	5645
2026-01-11 09:22:51.44	139.59	11.79	-40.5	-43.7	13.6	6.10e-06	0	53	0	97517568	51	5553
2026-01-11 09:22:55.48	139.40	12.16	-40.3	-43.5	13.9	1.14e-05	0	53	0	104857600	51	5422
2026-01-11 09:22:59.52	139.20	12.53	-38.5	-43.2	14.1	1.63e-03	0	54	0	112197632	51	5243
2026-01-11 09:23:03.56	139.00	12.92	-37.0	-43.0	13.4	1.39e-02	0	54	0	120586240	49	5772
2026-01-11 09:23:07.59	138.79	13.30	-40.4	-43.6	14.0	1.19e-03	0	54	0	127926272	51	5466
2026-01-11 09:23:11.63	138.58	13.70	-40.7	-43.5	14.2	3.43e-05	0	54	0	135266304	51	5424
2026-01-11 09:23:15.67	138.36	14.10	-37.5	-43.0	14.3	3.27e-04	0	54	0	142606336	46	6818
2026-01-11 09:23:19.70	138.13	14.50	-40.2	-42.9	14.7	9.90e-03	0	54	0	149946368	50	5398
2026-01-11 09:23:23.74	137.90	14.91	-39.4	-42.8	14.9	4.39e-04	0	54	0	158334976	49	5619
2026-01-11 09:23:27.78	137.66	15.33	-40.0	-42.9	14.8	3.31e-04	0	54	0	165675008	50	5399
2026-01-11 09:23:31.82	137.41	15.76	-40.3	-43.1	14.7	2.28e-05	0	54	0	173015040	51	5203
2026-01-11 09:23:35.86	137.15	16.19	-40.0	-42.6	15.3	1.52e-05	0	54	0	180355072	50	5162
2026-01-11 09:23:39.89	136.89	16.63	-40.1	-42.8	15.1	9.91e-05	0	54	0	187695104	50	5284
2026-01-11 09:23:43.93	136.62	17.07	-40.2	-43.0	14.8	1.31e-04	0	54	0	196083712	51	5155
2026-01-11 09:23:47.97	136.34	17.53	-40.0	-42.5	15.5	4.50e-06	0	54	0	203423744	50	5104
2026-01-11 09:23:52.01	136.05	17.99	-40.0	-42.6	15.4	9.99e-05	0	55	0	210763776	50	5185
2026-01-11 09:23:56.05	135.76	18.46	-40.1	-42.6	15.3	1.52e-05	0	54	0	218103808	50	5217
2026-01-11 09:24:00.09	135.45	18.94	-40.1	-42.6	15.4	7.00e-07	0	55	0	226492416	50	5186
2026-01-11 09:24:04.12	135.13	19.43	-40.3	-42.9	15.2	0.00e+00	0	55	0	233832448	51	5054
2026-01-11 09:24:08.16	134.80	19.92	-40.2	-42.7	15.3	0.00e+00	0	55	0	241172480	51	4973
2026-01-11 09:24:12.20	134.47	20.43	-40.6	-43.3	14.8	0.00e+00	0	55	0	248512512	51	5327
2026-01-11 09:24:16.24	134.11	20.94	-40.5	-43.2	14.9	0.00e+00	0	55	0	255852544	51	5264
2026-01-11 09:24:20.27	133.75	21.47	-40.8	-43.7	14.4	7.00e-07	0	55	0	264241152	52	5237
2026-01-11 09:24:24.31	133.38	22.00	-40.7	-43.4	14.6	0.00e+00	0	55	0	271581184	52	5097
2026-01-11 09:24:28.35	132.99	22.54	-40.8	-43.7	14.4	1.50e-06	0	55	0	278921216	52	5233
2026-01-11 09:24:32.39	132.58	23.10	-40.8	-43.6	14.5	7.00e-07	0	55	0	286261248	52	5185
2026-01-11 09:24:36.42	132.16	23.66	-41.0	-44.0	14.1	7.00e-07	0	55	0	294649856	52	5419
2026-01-11 09:24:40.46	131.73	24.23	-41.1	-44.2	14.0	3.80e-06	0	55	0	301989888	52	5529
2026-01-11 09:24:44.50	131.28	24.82	-41.3	-44.5	13.6	1.14e-05	0	55	0	309329920	53	5453
2026-01-11 09:24:48.53	130.81	25.42	-41.3	-44.5	13.6	8.30e-06	0	55	0	316669952	53	5438
2026-01-11 09:24:52.57	130.32	26.02	-41.5	-44.8	13.4	8.30e-06	0	55	0	324009984	53	5596
2026-01-11 09:24:56.61	129.81	26.64	-41.8	-45.3	12.8	6.10e-05	0	55	0	332398592	54	5626
2026-01-11 09:25:00.65	129.28	27.28	-41.7	-45.0	13.1	3.05e-05	0	55	0	339738624	54	5462
2026-01-11 09:25:04.68	128.74	27.92	-41.6	-45.0	13.2	1.90e-05	0	55	0	347078656	54	5422
2026-01-11 09:25:08.72	128.16	28.58	-41.6	-44.9	13.3	1.67e-05	0	55	0	354418688	54	5374
2026-01-11 09:25:12.76	127.56	29.24	-41.5	-44.8	13.4	9.90e-06	0	55	0	362807296	54	5314
2026-01-11 09:25:16.80	126.94	29.92	-41.5	-44.7	13.5	1.22e-05	0	55	0	370147328	54	5226
2026-01-11 09:25:20.83	126.29	30.62	-41.7	-45.0	13.1	3.05e-05	0	55	0	377487360	54	5460
2026-01-11 09:25:24.87	125.61	31.32	-41.9	-45.4	12.8	4.04e-05	0	55	0	384827392	54	5691
2026-01-11 09:25:28.91	124.90	32.04	-42.0	-45.7	12.6	9.46e-05	0	55	0	392167424	54	5862
2026-01-11 09:25:32.95	124.15	32.77	-42.1	-45.9	12.3	1.91e-04	0	55	0	400556032	54	6024
2026-01-11 09:25:36.99	123.37	33.52	-42.1	-45.8	12.4	1.43e-04	0	55	0	407896064	54	5959
2026-01-11 09:25:41.03	122.56	34.27	-42.2	-46.1	12.1	3.07e-04	0	55	0	415236096	55	5821
2026-01-11 09:25:45.07	121.70	35.04	-42.2	-46.1	12.1	2.88e-04	0	56	0	422576128	55	5838
2026-01-11 09:25:49.11	120.80	35.81	-41.7	-45.0	13.2	2.36e-05	0	56	0	430964736	55	5136
2026-01-11 09:25:53.14	119.86	36.60	-41.6	-44.8	13.6	5.30e-06	0	56	0	438304768	55	4993
2026-01-11 09:25:57.19	118.87	37.40	-41.9	-45.4	12.9	3.58e-05	0	55	0	445644800	55	5384
2026-01-11 09:26:01.23	117.83	38.21	-41.8	-45.2	13.0	3.73e-05	0	56	0	452984832	55	5274
2026-01-11 09:26:05.27	116.74	39.02	-42.0	-45.5	12.8	7.09e-05	0	56	0	460324864	55	5415
2026-01-11 09:26:09.30	115.59	39.84	-42.1	-45.8	12.5	1.43e-04	0	56	0	468713472	55	5607
2026-01-11 09:26:13.34	114.38	40.67	-42.0	-45.5	12.8	4.27e-05	0	56	0	476053504	55	5456
2026-01-11 09:26:17.38	113.11	41.50	-41.8	-45.2	13.1	3.20e-05	0	55	0	483393536	55	5261
2026-01-11 09:26:21.42	111.76	42.34	-42.2	-45.9	12.4	1.01e-04	0	56	0	490733568	55	5664
2026-01-11 09:26:25.46	110.35	43.17	-42.5	-46.5	11.8	5.45e-04	0	56	0	499122176	55	6111
2026-01-11 09:26:29.49	108.86	44.00	-42.1	-45.7	12.7	1.35e-04	0	56	0	506462208	55	5552
2026-01-11 09:26:33.53	107.30	44.83	-42.3	-46.2	12.2	1.74e-04	0	56	0	513802240	55	5860
2026-01-11 09:26:37.57	105.64	45.64	-42.6	-46.8	11.5	8.73e-04	0	56	0	521142272	55	6303
2026-01-11 09:26:41.61	103.90	46.45	-42.4	-46.1	12.5	1.82e-04	0	56	0	528482304	56	5471
2026-01-11 09:26:45.64	102.08	47.24	-42.2	-45.8	12.8	5.87e-05	0	56	0	536870912	56	5289
2026-01-11 09:26:49.68	100.15	48.01	-42.0	-45.4	13.0	1.44e-05	0	56	0	544210944	55	5385
2026-01-11 09:26:53.72	98.13	48.76	-41.4	-44.4	14.1	3.00e-06	0	56	0	551550976	54	5051
2026-01-11 09:26:57.76	96.01	49.47	-41.3	-44.3	14.1	7.00e-07	0	56	0	558891008	54	5034
2026-01-11 09:27:01.80	93.79	50.16	-41.9	-45.2	13.2	2.51e-05	0	56	0	567279616	54	5590
2026-01-11 09:27:05.84	91.46	50.81	-41.9	-45.2	13.3	2.51e-05	0	56	0	574619648	54	5571
2026-01-11 09:27:09.87	89.05	51.41	-41.7	-44.9	13.6	1.22e-05	0	56	0	581959680	54	5396
2026-01-11 09:27:13.91	86.53	51.97	-41.4	-44.4	14.1	3.80e-06	0	56	0	589299712	54	5051
2026-01-11 09:27:17.95	83.93	52.47	-40.3	-42.7	15.8	7.00e-07	0	56	0	596639744	52	4681
2026-01-11 09:27:21.99	81.23	52.91	-40.3	-42.6	15.9	0.00e+00	0	56	0	605028352	52	4632
2026-01-11 09:27:26.03	78.47	53.29	-39.0	-40.9	17.8	0.00e+00	0	56	0	612368384	49	4494
2026-01-11 09:27:30.07	75.63	53.60	-38.2	-39.8	18.8	0.00e+00	0	56	0	619708416	48	4235
2026-01-11 09:27:34.10	72.75	53.84	-37.9	-39.6	18.9	0.00e+00	0	56	0	627048448	47	4342
2026-01-11 09:27:38.14	69.82	54.01	-38.2	-39.9	18.7	0.00e+00	0	56	0	635437056	47	4505
2026-01-11 09:27:42.18	66.86	54.10	-38.8	-40.7	17.9	0.00e+00	0	56	0	642777088	48	4673
2026-01-11 09:27:46.22	63.89	54.11	-38.9	-40.8	17.9	0.00e+00	0	56	0	650117120	48	4710
2026-01-11 09:27:50.26	60.93	54.05	-38.7	-40.4	18.2	0.00e+00	0	56	0	657457152	48	4530
2026-01-11 09:27:54.29	58.00	53.91	-38.2	-39.8	18.8	0.00e+00	0	56	0	664797184	48	4229
2026-01-11 09:27:58.33	55.10	53.69	-38.1	-39.8	18.9	0.00e+00	0	56	0	673185792	48	4225
2026-01-11 09:28:02.37	52.25	53.41	-38.0	-39.6	19.0	0.00e+00	0	56	0	680525824	48	4145
2026-01-11 09:28:06.41	49.46	53.05	-38.7	-40.5	18.2	0.00e+00	0	56	0	687865856	48	4554
2026-01-11 09:28:10.45	46.74	52.63	-39.3	-41.3	17.3	0.00e+00	0	56	0	695205888	49	4755
2026-01-11 09:28:14.48	44.11	52.15	-40.5	-42.9	15.8	0.00e+00	0	56	0	703594496	51	5078
2026-01-11 09:28:18.52	41.57	51.61	-40.6	-43.2	15.5	0.00e+00	0	56	0	710934528	51	5222
2026-01-11 09:28:22.56	39.12	51.03	-40.7	-43.3	15.3	0.00e+00	0	56	0	718274560	52	4994
2026-01-11 09:28:26.60	36.77	50.39	-40.8	-43.5	15.1	0.00e+00	0	56	0	725614592	52	5123
2026-01-11 09:28:30.64	34.52	49.72	-41.2	-44.1	14.5	7.00e-07	0	56	0	732954624	53	5182
2026-01-11 09:28:34.68	32.37	49.02	-41.8	-45.1	13.6	7.60e-06	0	56	0	741343232	54	5469
2026-01-11 09:28:38.72	30.32	48.28	-42.4	-46.3	12.1	2.73e-04	0	56	0	748683264	55	5953
2026-01-11 09:28:42.76	28.36	47.52	-43.5	-48.6	9.9	5.41e-03	0	56	0	756023296	57	6895
2026-01-11 09:28:46.80	26.50	46.74	-43.3	-48.2	10.4	4.36e-03	0	56	0	763363328	57	6643
2026-01-11 09:28:50.84	24.74	45.94	-42.9	-47.2	11.4	1.38e-03	0	56	0	771751936	57	5894
2026-01-11 09:28:54.88	23.06	45.13	-42.7	-46.8	11.8	5.84e-04	0	56	0	779091968	57	5637
2026-01-11 09:28:58.92	21.47	44.31	-42.4	-46.1	12.5	1.21e-04	0	56	0	786432000	56	5519
2026-01-11 09:29:02.95	19.96	43.49	-42.3	-46.0	12.7	1.39e-04	0	56	0	793772032	56	5412
2026-01-11 09:29:06.99	18.52	42.66	-42.5	-46.3	12.3	1.68e-04	0	56	0	801112064	56	5630
2026-01-11 09:29:11.02	17.17	41.83	-42.9	-47.3	11.3	1.24e-03	0	56	0	809500672	56	6292
2026-01-11 09:29:15.06	15.87	41.00	-42.8	-47.1	11.4	1.72e-03	0	56	0	816840704	56	6156
2026-01-11 09:29:19.10	14.64	40.17	-42.9	-47.1	11.4	1.19e-03	0	56	0	824180736	56	6199
2026-01-11 09:29:23.13	13.48	39.36	-42.8	-46.9	11.7	8.40e-04	0	56	0	831520768	56	6039
2026-01-11 09:29:27.17	12.37	38.54	-42.6	-46.6	11.9	3.58e-04	0	56	0	839909376	56	5855
2026-01-11 09:29:31.21	11.32	37.73	-42.7	-46.9	11.6	9.09e-04	0	56	0	847249408	56	6029
2026-01-11 09:29:35.25	10.31	36.94	-42.6	-46.6	12.0	5.86e-04	0	56	0	854589440	56	5796
2026-01-11 09:29:39.29	9.36	36.15	-42.5	-46.4	12.0	3.42e-04	0	56	0	861929472	56	5716
2026-01-11 09:29:43.32	8.45	35.37	-42.1	-45.7	12.9	4.27e-05	0	56	0	869269504	56	5241
2026-01-11 09:29:47.36	7.58	34.61	-42.5	-46.5	12.0	2.55e-04	0	56	0	877658112	56	5735
2026-01-11 09:29:51.40	6.76	33.85	-42.6	-46.6	11.8	5.23e-04	0	56	0	884998144	56	5827
2026-01-11 09:29:55.44	5.97	33.11	-42.6	-46.7	11.8	4.55e-04	0	56	0	892338176	56	5874
2026-01-11 09:29:59.48	5.22	32.37	-42.6	-46.6	11.8	4.18e-04	0	56	0	899678208	56	5846
2026-01-11 09:30:03.52	4.50	31.65	-42.7	-46.8	11.5	7.02e-04	0	56	0	908066816	56	5976
2026-01-11 09:30:07.56	3.81	30.95	-43.0	-47.8	10.6	3.43e-03	0	56	0	915406848	56	6648
2026-01-11 09:30:11.60	3.15	30.25	-42.4	-46.4	11.9	3.96e-04	0	56	0	922746880	56	5720
2026-01-11 09:30:15.64	2.52	29.57	-42.5	-46.5	11.8	4.56e-04	0	56	0	930086912	56	5760
2026-01-11 09:30:19.67	1.92	28.90	-42.1	-45.7	12.7	8.85e-05	0	56	0	937426944	56	5275
2026-01-11 09:30:23.71	1.34	28.24	-41.8	-45.3	12.9	4.42e-05	0	56	0	945815552	55	5291
2026-01-11 09:30:27.75	0.78	27.60	-41.8	-45.5	12.7	8.77e-05	0	56	0	953155584	55	5411
2026-01-11 09:30:31.79	0.25	26.97	-41.5	-44.8	13.4	1.52e-05	0	56	0	960495616	55	5006
2026-01-11 09:30:35.83	359.74	26.34	-41.2	-44.4	13.8	3.00e-06	0	56	0	967835648	54	5047
2026-01-11 09:30:39.87	359.25	25.73	-41.3	-44.5	13.6	1.06e-05	0	56	0	976224256	54	5154
2026-01-11 09:30:43.91	358.77	25.13	-41.1	-44.2	13.9	3.00e-06	0	56	0	983564288	54	4938
2026-01-11 09:30:47.95	358.32	24.55	-40.9	-43.8	14.2	1.50e-06	0	56	0	990904320	53	5038
2026-01-11 09:30:51.98	357.88	23.97	-41.1	-44.2	13.8	7.00e-07	0	56	0	998244352	53	5259
2026-01-11 09:30:56.02	357.46	23.41	-41.4	-44.9	13.1	2.51e-05	0	56	0	1005584384	53	5683
2026-01-11 09:31:00.05	357.06	22.85	-41.3	-44.7	13.1	3.20e-05	0	56	0	1013972992	53	5579
2026-01-11 09:31:04.09	356.66	22.31	-41.1	-44.5	13.2	2.82e-05	0	56	0	1021313024	53	5432
2026-01-11 09:31:08.13	356.29	21.77	-41.0	-44.6	12.8	6.10e-05	0	56	0	1028653056	53	5522
2026-01-11 09:31:12.17	355.92	21.25	-40.7	-44.2	12.8	4.50e-05	0	56	0	1035993088	53	5278
2026-01-11 09:31:16.21	355.57	20.73	-40.7	-44.6	12.1	1.85e-04	0	56	0	1044381696	53	5524
2026-01-11 09:31:20.24	355.23	20.23	-41.4	-48.0	7.7	6.46e-02	0	56	0	1051721728	53	8140
2026-01-11 09:31:24.28	354.90	19.73	-41.4	-52.4	4.2	1.30e+00	0	56	0	1058013184	53	13545
2026-01-11 09:31:28.32	354.58	19.24	-41.1	-54.7	3.8	1.49e+00	0	56	104	1058013184	53	17652
2026-01-11 09:31:32.36	354.28	18.76	-41.3	-55.1	3.8	1.49e+00	0	56	104	1058013184	53	18456
2026-01-11 09:31:36.40	353.98	18.29	-40.7	-55.2	3.8	1.49e+00	0	56	104	1058013184	53	18640
2026-01-11 09:31:40.44	353.69	17.83	-40.6	-55.2	3.8	1.49e+00	0	56	104	1058013184	52	19692
2026-01-11 09:31:44.47	353.41	17.37	-40.4	-55.1	3.8	1.49e+00	0	56	104	1058013184	52	19485
2026-01-11 09:31:48.52	353.14	16.92	-40.2	-55.1	3.8	1.49e+00	0	56	104	1058013184	52	19485
2026-01-11 09:31:52.56	352.88	16.48	-40.1	-55.3	3.8	1.49e+00	0	57	104	1058013184	51	21028
2026-01-11 09:31:56.60	352.62	16.05	-40.3	-55.4	3.8	1.49e+00	0	56	104	1058013184	51	21311
2026-01-11 09:32:00.63	352.38	15.62	-40.6	-55.3	3.8	1.49e+00	0	56	104	1058013184	51	21246
2026-01-11 09:32:04.67	352.14	15.20	-40.4	-55.2	3.8	1.49e+00	0	56	104	1058013184	52	19748
2026-01-11 09:32:08.71	351.91	14.79	-40.5	-55.1	3.8	1.49e+00	0	56	104	1058013184	52	19435
2026-01-11 09:32:12.75	351.68	14.38	-40.4	-55.2	3.8	1.49e+00	0	56	104	1058013184	52	19674
2026-01-11 09:32:16.79	351.46	13.98	-40.7	-55.3	3.8	1.49e+00	0	57	104	1058013184	52	19859
2026-01-11 09:32:20.83	351.25	13.59	-40.7	-55.3	3.8	1.49e+00	0	56	104	1058013184	52	20038
2026-01-11 09:32:24.87	351.04	13.20	-40.6	-55.1	3.8	1.49e+00	0	57	104	1058013184	52	19593
2026-01-11 09:32:28.91	350.84	12.82	-40.9	-55.4	3.8	1.49e+00	0	57	104	1058013184	52	20134
2026-01-11 09:32:32.96	350.65	12.44	-40.8	-55.3	3.8	1.49e+00	0	56	104	1058013184	52	19890
2026-01-11 09:32:37.00	350.46	12.07	-40.5	-55.1	3.8	1.49e+00	0	57	104	1058013184	52	19511
2026-01-11 09:32:41.03	350.27	11.70	-40.5	-55.0	3.8	1.49e+00	0	56	104	1058013184	52	19262
2026-01-11 09:32:45.07	350.09	11.34	-40.5	-55.2	3.8	1.49e+00	0	56	104	1058013184	52	19633
2026-01-11 09:32:49.11	349.92	10.99	-40.5	-54.9	3.8	1.49e+00	0	56	104	1058013184	52	19138
2026-01-11 09:32:53.16	349.74	10.63	-40.7	-55.2	3.8	1.49e+00	0	56	104	1058013184	52	19781
2026-01-11 09:32:57.20	349.58	10.29	-40.6	-55.2	3.8	1.49e+00	0	57	104	1058013184	52	19679
2026-01-11 09:33:01.24	349.42	9.94	-40.7	-55.3	3.8	1.49e+00	0	56	104	1058013184	52	19904
2026-01-11 09:33:05.27	349.26	9.61	-40.8	-55.3	3.8	1.49e+00	0	57	104	1058013184	52	20019
2026-01-11 09:33:09.31	349.10	9.27	-40.4	-54.9	3.8	1.49e+00	0	57	104	1058013184	52	19133
2026-01-11 09:33:13.35	348.95	8.94	-40.6	-55.1	3.8	1.49e+00	0	57	104	1058013184	52	19511
2026-01-11 09:33:17.40	348.81	8.62	-40.5	-55.0	3.8	1.49e+00	0	57	104	1058013184	52	19339
2026-01-11 09:33:21.43	348.66	8.30	-40.9	-55.4	3.8	1.49e+00	0	57	104	1058013184	52	20169
2026-01-11 09:33:25.47	348.52	7.98	-41.0	-55.6	3.8	1.49e+00	0	57	104	1058013184	52	20589
2026-01-11 09:33:29.51	348.39	7.67	-44.8	-59.5	3.8	1.49e+00	0	57	104	1058013184	60	20383
2026-01-11 09:33:33.55	348.25	7.36	-45.2	-59.9	3.8	1.49e+00	0	57	104	1058013184	60	21263
2026-01-11 09:33:37.60	348.12	7.05	-45.1	-59.9	3.8	1.49e+00	0	57	104	1058013184	60	21310
2026-01-11 09:33:41.64	348.00	6.75	-45.1	-59.9	3.8	1.49e+00	0	56	104	1058013184	60	21306
2026-01-11 09:33:45.69	347.87	6.45	-45.0	-59.9	3.8	1.49e+00	0	57	104	1058013184	60	21275
2026-01-11 09:33:49.73	347.75	6.15	-45.0	-59.8	3.8	1.49e+00	0	56	104	1058013184	60	21201
2026-01-11 09:33:53.77	347.63	5.86	-45.0	-59.8	3.8	1.49e+00	0	56	104	1058013184	60	21236
2026-01-11 09:33:57.81	347.52	5.57	-45.0	-59.8	3.8	1.49e+00	0	57	104	1058013184	60	21159
2026-01-11 09:34:01.86	347.40	5.28	-45.0	-59.8	3.8	1.49e+00	0	57	104	1058013184	60	21210
2026-01-11 09:34:05.90	347.29	5.00	-45.0	-59.8	3.8	1.49e+00	0	57	104	1058013184	60	21134
2026-01-11 09:34:09.95	347.19	4.71	-45.0	-59.8	3.8	1.49e+00	0	57	104	1058013184	60	21145
2026-01-11 09:34:13.99	347.08	4.44	-45.0	-59.8	3.8	1.49e+00	0	57	104	1058013184	60	21099
2026-01-11 09:34:18.04	346.98	4.16	-44.9	-59.8	3.8	1.49e+00	0	57	104	1058013184	60	21148
2026-01-11 09:34:22.08	346.88	3.89	-45.0	-59.8	3.8	1.49e+00	0	56	104	1058013184	60	21153
2026-01-11 09:34:26.13	346.78	3.62	-45.0	-59.8	3.8	1.49e+00	0	56	104	1058013184	60	21146
2026-01-11 09:34:30.17	346.68	3.35	-45.0	-59.8	3.8	1.49e+00	0	57	104	1058013184	60	21124
2026-01-11 09:34:34.21	346.58	3.08	-45.0	-59.8	3.8	1.49e+00	0	57	104	1058013184	60	21134
2026-01-11 09:34:38.26	346.49	2.82	-45.0	-59.8	3.8	1.49e+00	0	57	104	1058013184	60	21080
2026-01-11 09:34:42.30	346.40	2.56	-45.0	-59.8	3.8	1.49e+00	0	57	104	1058013184	60	21103
2026-01-11 09:34:46.35	346.31	2.30	-45.0	-59.8	3.8	1.49e+00	0	57	104	1058013184	60	21090
2026-01-11 09:34:50.39	346.22	2.04	-45.0	-59.8	3.8	1.49e+00	0	57	104	1058013184	60	21081

#Closed at: 2026-01-11 09:34:51
#Recorded file [1058 MB]: D:/lorett/data/31039_260111_122041.dat