passes_logs/2026/01/11/R2.0S_Moscow/R2.0S_Moscow__20260111_051521_FENGYUN_3E_rec.log

#Pass ID: 20260111_051521_FENGYUN 3E
#Satellite: FENGYUN 3E
#Configuration: FENGYUN 3E
#almurnet v.1.7.20251203
#Start time: 2026-01-11 05:15:21

#Version: 2.2.20231116
#Station: R2.0S_Moscow
#Location: 37.707566 lon 55.798166 lat
#TLE: 1 49008U 21062A   26010.00248113 -.00000186  00000+0 -66867-4 0  9993
#TLE: 2 49008  98.7487  15.1892 0001787 147.8079 212.3207 14.19883469234134

#Time	Az	El	Level	Level2	SNR	BER	BlckErr	Temp	State	Recorded	gain1	gain2
2026-01-11 05:15:21.70	11.26	2.02	-40.1	-51.1	3.8	8.46e-01	0	46	0	0	51	12298
2026-01-11 05:15:25.73	11.05	2.26	-40.1	-51.1	3.8	8.45e-01	0	47	104	0	51	12330
2026-01-11 05:15:29.77	10.84	2.50	-40.1	-51.1	3.8	8.45e-01	0	47	104	0	51	12338
2026-01-11 05:15:33.82	10.63	2.75	-40.1	-51.1	3.8	8.46e-01	0	47	104	0	51	12293
2026-01-11 05:15:37.86	10.41	2.99	-40.1	-51.1	3.8	8.46e-01	0	48	104	0	51	12309
2026-01-11 05:15:41.90	10.19	3.24	-40.1	-51.1	3.8	8.44e-01	0	48	104	0	51	12295
2026-01-11 05:15:45.95	9.96	3.49	-40.1	-51.1	3.8	8.46e-01	0	48	104	0	51	12294
2026-01-11 05:15:49.99	9.73	3.74	-40.1	-51.1	3.8	8.46e-01	0	49	104	0	51	12250
2026-01-11 05:15:54.04	9.50	3.99	-40.1	-51.1	3.8	8.45e-01	0	49	104	0	51	12318
2026-01-11 05:15:58.08	9.26	4.25	-40.1	-51.1	3.8	8.45e-01	0	49	104	0	51	12275
2026-01-11 05:16:02.12	9.01	4.50	-40.1	-51.1	3.8	8.46e-01	0	49	104	0	51	12254
2026-01-11 05:16:06.17	8.77	4.76	-40.1	-51.1	3.8	8.47e-01	0	50	104	0	51	12267
2026-01-11 05:16:10.21	8.51	5.02	-40.1	-51.1	3.8	8.46e-01	0	50	104	0	51	12273
2026-01-11 05:16:14.25	8.26	5.28	-40.1	-51.1	3.8	8.47e-01	0	50	104	0	51	12295
2026-01-11 05:16:18.30	7.99	5.55	-40.1	-51.1	3.8	8.45e-01	0	50	104	0	51	12304
2026-01-11 05:16:22.34	7.72	5.81	-40.1	-51.1	3.8	8.45e-01	0	50	104	0	51	12297
2026-01-11 05:16:26.39	7.45	6.08	-40.1	-51.1	3.8	8.45e-01	0	51	104	0	51	12300
2026-01-11 05:16:30.43	7.17	6.35	-40.1	-51.1	3.8	8.46e-01	0	51	104	0	51	12280
2026-01-11 05:16:34.48	6.89	6.63	-40.1	-51.1	3.8	8.46e-01	0	51	104	0	51	12310
2026-01-11 05:16:38.52	6.60	6.90	-40.1	-51.1	3.8	8.47e-01	0	51	104	0	51	12306
2026-01-11 05:16:42.56	6.30	7.18	-40.1	-51.1	3.8	8.44e-01	0	51	104	0	51	12271
2026-01-11 05:16:46.61	6.00	7.46	-40.1	-51.1	3.8	8.45e-01	0	52	104	0	51	12305
2026-01-11 05:16:50.65	5.69	7.74	-40.1	-51.1	3.8	8.45e-01	0	52	104	0	51	12289
2026-01-11 05:16:54.70	5.38	8.03	-40.1	-51.1	3.8	8.45e-01	0	52	104	0	51	12287
2026-01-11 05:16:58.74	5.06	8.31	-40.2	-51.2	3.8	8.46e-01	0	52	104	0	51	12425
2026-01-11 05:17:02.78	4.73	8.60	-40.1	-51.2	3.8	8.46e-01	0	52	104	0	51	12436
2026-01-11 05:17:06.82	4.40	8.89	-40.2	-51.3	3.8	8.46e-01	0	52	104	0	51	12547
2026-01-11 05:17:10.85	4.05	9.18	-40.3	-51.3	3.8	8.45e-01	0	52	104	0	51	12648
2026-01-11 05:17:14.89	3.71	9.48	-40.3	-51.4	3.8	8.45e-01	0	53	104	0	51	12734
2026-01-11 05:17:18.93	3.35	9.78	-40.3	-51.3	3.8	8.47e-01	0	53	104	0	51	12644
2026-01-11 05:17:22.98	2.99	10.08	-40.5	-51.5	3.8	8.46e-01	0	53	104	0	51	12906
2026-01-11 05:17:27.02	2.61	10.38	-40.3	-51.4	3.8	8.46e-01	0	53	104	0	51	12698
2026-01-11 05:17:31.06	2.23	10.69	-40.5	-51.7	3.8	8.46e-01	0	53	104	0	51	13191
2026-01-11 05:17:35.10	1.85	11.00	-40.4	-51.5	3.8	8.45e-01	0	53	104	0	51	12959
2026-01-11 05:17:39.14	1.45	11.31	-40.7	-51.9	3.8	8.47e-01	0	53	104	0	51	13435
2026-01-11 05:17:43.18	1.04	11.62	-40.1	-51.3	3.8	8.45e-01	0	53	104	0	51	12636
2026-01-11 05:17:47.22	0.63	11.94	-40.4	-51.6	3.8	8.47e-01	0	53	104	0	51	13013
2026-01-11 05:17:51.25	0.20	12.26	-40.4	-51.5	3.8	8.46e-01	0	54	104	0	51	12903
2026-01-11 05:17:55.30	359.77	12.58	-42.0	-50.8	3.9	8.45e-01	0	54	104	0	54	9967
2026-01-11 05:17:59.34	359.33	12.91	-41.1	-47.1	5.4	7.39e-01	0	54	0	0	52	7317
2026-01-11 05:18:03.38	358.87	13.23	-40.8	-44.9	7.7	9.38e-02	0	54	0	25165824	52	5671
2026-01-11 05:18:07.42	358.41	13.56	-38.5	-40.8	12.1	4.59e-04	0	54	0	54525952	48	4467
2026-01-11 05:18:11.46	357.93	13.89	-36.9	-38.7	14.1	1.10e-06	0	54	0	83886080	44	4423
2026-01-11 05:18:15.49	357.45	14.23	-36.7	-38.5	14.4	0.00e+00	0	54	0	113246208	44	4306
2026-01-11 05:18:19.54	356.95	14.57	-35.9	-37.5	15.2	0.00e+00	0	54	0	141557760	42	4298
2026-01-11 05:18:23.57	356.44	14.90	-37.5	-39.6	12.7	5.83e-05	0	54	0	170917888	44	4898
2026-01-11 05:18:27.62	355.91	15.25	-40.1	-44.7	6.9	1.49e-01	0	54	0	200278016	49	6593
2026-01-11 05:18:31.65	355.38	15.59	-40.9	-49.9	3.9	8.44e-01	0	54	104	209715200	51	10696
2026-01-11 05:18:35.69	354.83	15.94	-40.9	-51.7	3.8	8.46e-01	0	54	104	209715200	51	13188
2026-01-11 05:18:39.72	354.28	16.29	-40.9	-51.9	3.8	8.46e-01	0	55	104	209715200	51	13433
2026-01-11 05:18:43.76	353.70	16.64	-40.8	-51.9	3.8	8.46e-01	0	55	104	209715200	51	13512
2026-01-11 05:18:47.80	353.11	16.99	-40.3	-52.0	3.8	8.47e-01	0	55	104	209715200	51	13632
2026-01-11 05:18:51.84	352.51	17.34	-40.7	-52.0	3.8	8.47e-01	0	55	104	209715200	51	13671
2026-01-11 05:18:55.87	351.90	17.70	-40.8	-52.1	3.8	8.46e-01	0	55	104	209715200	51	13858
2026-01-11 05:18:59.91	351.26	18.06	-40.9	-52.1	3.8	8.46e-01	0	55	104	209715200	51	13776
2026-01-11 05:19:03.95	350.62	18.42	-41.0	-52.2	3.8	8.46e-01	0	55	104	209715200	51	14006
2026-01-11 05:19:07.99	349.95	18.78	-40.9	-52.0	3.8	8.45e-01	0	55	104	209715200	51	13598
2026-01-11 05:19:12.02	349.27	19.14	-41.0	-52.0	3.8	8.47e-01	0	55	104	209715200	51	13675
2026-01-11 05:19:16.06	348.58	19.50	-41.1	-52.0	3.8	8.46e-01	0	55	104	209715200	51	13610
2026-01-11 05:19:20.10	347.86	19.87	-40.9	-52.1	3.8	8.45e-01	0	55	104	209715200	52	12960
2026-01-11 05:19:24.13	347.13	20.23	-41.1	-51.1	3.8	8.46e-01	0	55	104	209715200	52	11583
2026-01-11 05:19:28.17	346.39	20.60	-41.2	-49.3	4.2	8.37e-01	0	55	0	209715200	52	9474
2026-01-11 05:19:32.21	345.62	20.96	-40.1	-44.3	7.6	1.34e-01	0	55	0	218103808	51	5618
2026-01-11 05:19:36.25	344.83	21.33	-37.8	-40.3	11.8	8.55e-04	0	55	0	247463936	46	4707
2026-01-11 05:19:40.29	344.03	21.69	-36.0	-37.6	14.9	1.10e-06	0	55	0	276824064	42	4378
2026-01-11 05:19:44.33	343.20	22.05	-36.1	-37.7	15.3	0.00e+00	0	55	0	306184192	42	4433
2026-01-11 05:19:48.37	342.36	22.42	-36.8	-38.5	14.7	1.10e-06	0	55	0	335544320	43	4597
2026-01-11 05:19:52.42	341.49	22.78	-35.5	-36.9	17.1	0.00e+00	0	55	0	363855872	42	4005
2026-01-11 05:19:56.45	340.61	23.13	-35.4	-36.7	17.5	0.00e+00	0	56	0	393216000	41	4174
2026-01-11 05:20:00.49	339.70	23.49	-35.5	-36.7	17.6	0.00e+00	0	55	0	422576128	41	4191
2026-01-11 05:20:04.53	338.78	23.84	-35.2	-36.4	18.0	0.00e+00	0	55	0	451936256	41	4037
2026-01-11 05:20:08.58	337.83	24.19	-35.0	-36.1	18.4	0.00e+00	0	56	0	481296384	40	4135
2026-01-11 05:20:12.62	336.86	24.53	-34.7	-35.8	18.7	0.00e+00	0	55	0	509607936	40	3978
2026-01-11 05:20:16.66	335.87	24.87	-34.8	-35.9	18.6	0.00e+00	0	56	0	538968064	40	4025
2026-01-11 05:20:20.70	334.85	25.21	-34.7	-35.9	18.6	0.00e+00	0	56	0	568328192	40	4015
2026-01-11 05:20:24.74	333.82	25.54	-34.8	-35.9	18.6	0.00e+00	0	56	0	597688320	40	4047
2026-01-11 05:20:28.77	332.76	25.86	-34.9	-36.0	18.5	0.00e+00	0	55	0	627048448	40	4082
2026-01-11 05:20:32.81	331.69	26.17	-34.9	-36.0	18.5	0.00e+00	0	56	0	656408576	40	4087
2026-01-11 05:20:36.86	330.58	26.48	-34.9	-36.1	18.5	0.00e+00	0	56	0	684720128	40	4112
2026-01-11 05:20:40.90	329.46	26.78	-35.1	-36.3	18.3	0.00e+00	0	56	0	714080256	40	4215
2026-01-11 05:20:44.94	328.32	27.07	-34.7	-35.9	18.7	0.00e+00	0	55	0	743440384	40	4006
2026-01-11 05:20:48.98	327.16	27.35	-34.7	-35.8	18.8	0.00e+00	0	56	0	772800512	40	3971
2026-01-11 05:20:53.02	325.97	27.62	-35.0	-36.2	18.4	0.00e+00	0	56	0	802160640	40	4165
2026-01-11 05:20:57.07	324.77	27.88	-35.2	-36.4	18.3	0.00e+00	0	56	0	830472192	40	4250
2026-01-11 05:21:01.11	323.54	28.13	-34.9	-36.1	18.5	0.00e+00	0	56	0	859832320	40	4119
2026-01-11 05:21:05.15	322.30	28.36	-34.5	-35.6	19.0	0.00e+00	0	56	0	889192448	40	3897
2026-01-11 05:21:09.19	321.04	28.58	-34.5	-35.6	19.1	0.00e+00	0	56	0	918552576	39	4113
2026-01-11 05:21:13.23	319.76	28.79	-34.5	-35.6	19.1	0.00e+00	0	56	0	947912704	39	4100
2026-01-11 05:21:17.27	318.47	28.98	-34.6	-35.7	19.0	0.00e+00	0	56	0	977272832	39	4151
2026-01-11 05:21:21.31	317.16	29.15	-34.3	-35.3	19.3	0.00e+00	0	56	0	1005584384	39	3998
2026-01-11 05:21:25.35	315.84	29.31	-34.2	-35.2	19.4	0.00e+00	0	56	0	1034944512	39	3955
2026-01-11 05:21:29.39	314.50	29.46	-34.3	-35.4	19.3	0.00e+00	0	56	0	1064304640	39	4007
2026-01-11 05:21:33.43	313.16	29.59	-34.2	-35.3	19.3	0.00e+00	0	56	0	1093664768	39	3978
2026-01-11 05:21:37.47	311.80	29.70	-34.3	-35.4	19.2	0.00e+00	0	56	0	1123024896	39	4028
2026-01-11 05:21:41.51	310.43	29.79	-34.4	-35.5	19.2	0.00e+00	0	56	0	1152385024	39	4061
2026-01-11 05:21:45.55	309.06	29.86	-34.4	-35.5	19.2	0.00e+00	0	56	0	1180696576	39	4052
2026-01-11 05:21:49.59	307.68	29.92	-34.1	-35.1	19.5	0.00e+00	0	56	0	1210056704	39	3910
2026-01-11 05:21:53.63	306.30	29.95	-34.4	-35.5	19.2	0.00e+00	0	56	0	1239416832	39	4066
2026-01-11 05:21:57.67	304.91	29.97	-34.4	-35.5	19.1	0.00e+00	0	56	0	1268776960	39	4088
2026-01-11 05:22:01.71	303.53	29.97	-34.2	-35.3	19.3	0.00e+00	0	56	0	1298137088	39	3987
2026-01-11 05:22:05.75	302.14	29.95	-34.3	-35.4	19.2	0.00e+00	0	56	0	1326448640	39	4044
2026-01-11 05:22:09.79	300.76	29.92	-34.4	-35.4	19.2	0.00e+00	0	56	0	1355808768	39	4047
2026-01-11 05:22:13.82	299.38	29.86	-34.3	-35.3	19.3	0.00e+00	0	56	0	1385168896	39	4001
2026-01-11 05:22:17.87	298.00	29.78	-34.2	-35.3	19.4	0.00e+00	0	56	0	1414529024	39	3969
2026-01-11 05:22:21.91	296.64	29.69	-34.3	-35.3	19.3	0.00e+00	0	56	0	1443889152	39	4003
2026-01-11 05:22:25.95	295.28	29.58	-34.2	-35.3	19.4	0.00e+00	0	56	0	1473249280	39	3972
2026-01-11 05:22:29.99	293.93	29.45	-34.3	-35.4	19.2	0.00e+00	0	56	0	1501560832	39	4034
2026-01-11 05:22:34.04	292.59	29.31	-34.3	-35.4	19.3	0.00e+00	0	56	0	1530920960	39	4017
2026-01-11 05:22:38.07	291.27	29.15	-34.2	-35.2	19.4	0.00e+00	0	56	0	1560281088	39	3946
2026-01-11 05:22:42.12	289.96	28.97	-34.4	-35.5	19.2	0.00e+00	0	56	0	1589641216	39	4066
2026-01-11 05:22:46.15	288.66	28.78	-34.2	-35.3	19.3	0.00e+00	0	56	0	1619001344	39	3980
2026-01-11 05:22:50.19	287.38	28.57	-34.4	-35.5	19.2	0.00e+00	0	56	0	1647312896	39	4055
2026-01-11 05:22:54.23	286.12	28.35	-34.4	-35.5	19.2	0.00e+00	0	56	0	1676673024	39	4066
2026-01-11 05:22:58.27	284.88	28.11	-34.2	-35.2	19.4	0.00e+00	0	56	0	1706033152	39	3957
2026-01-11 05:23:02.31	283.65	27.86	-34.2	-35.3	19.4	0.00e+00	0	56	0	1735393280	39	3962
2026-01-11 05:23:06.36	282.44	27.60	-34.4	-35.5	19.1	0.00e+00	0	56	0	1764753408	39	4091
2026-01-11 05:23:10.40	281.25	27.33	-34.4	-35.5	19.1	0.00e+00	0	56	0	1794113536	39	4070
2026-01-11 05:23:14.43	280.09	27.05	-34.3	-35.4	19.2	0.00e+00	0	56	0	1822425088	39	4016
2026-01-11 05:23:18.47	278.95	26.76	-34.5	-35.6	19.0	0.00e+00	0	56	0	1851785216	39	4145
2026-01-11 05:23:22.51	277.82	26.46	-34.5	-35.6	19.1	0.00e+00	0	56	0	1881145344	39	4100
2026-01-11 05:23:26.55	276.72	26.15	-34.3	-35.4	19.2	0.00e+00	0	56	0	1910505472	39	4019
2026-01-11 05:23:30.60	275.63	25.83	-34.7	-35.8	18.8	0.00e+00	0	56	0	1939865600	39	4202
2026-01-11 05:23:34.64	274.57	25.51	-34.6	-35.7	18.9	0.00e+00	0	56	0	1968177152	39	4168
2026-01-11 05:23:38.68	273.54	25.18	-34.7	-35.8	18.8	0.00e+00	0	56	0	1997537280	39	4200
2026-01-11 05:23:42.72	272.52	24.84	-34.7	-35.8	18.8	0.00e+00	0	56	0	2026897408	39	4209
2026-01-11 05:23:46.76	271.52	24.50	-34.6	-35.7	18.9	0.00e+00	0	56	0	2056257536	39	4177
2026-01-11 05:23:50.80	270.55	24.16	-34.8	-35.9	18.7	0.00e+00	0	56	0	2085617664	39	4252
2026-01-11 05:23:54.84	269.60	23.80	-34.7	-35.8	18.7	0.00e+00	0	56	0	2113929216	39	4236
2026-01-11 05:23:58.88	268.67	23.45	-34.8	-36.0	18.6	0.00e+00	0	56	0	2143289344	39	4303
2026-01-11 05:24:02.92	267.76	23.09	-34.8	-35.9	18.6	0.00e+00	0	56	0	2172649472	39	4280
2026-01-11 05:24:06.97	266.87	22.73	-34.9	-36.0	18.5	0.00e+00	0	56	0	2202009600	39	4333
2026-01-11 05:24:11.01	266.00	22.37	-34.7	-35.8	18.8	0.00e+00	0	56	0	2231369728	39	4209
2026-01-11 05:24:15.05	265.15	22.01	-34.8	-35.9	18.6	0.00e+00	0	56	0	2259681280	39	4273
2026-01-11 05:24:19.09	264.33	21.64	-35.1	-36.3	18.2	0.00e+00	0	56	0	2289041408	39	4477
2026-01-11 05:24:23.12	263.52	21.28	-35.1	-36.3	18.3	0.00e+00	0	56	0	2318401536	39	4444
2026-01-11 05:24:27.16	262.73	20.91	-35.2	-36.4	18.1	0.00e+00	0	56	0	2347761664	39	4500
2026-01-11 05:24:31.20	261.96	20.54	-34.9	-36.1	18.3	0.00e+00	0	56	0	2377121792	40	4131
2026-01-11 05:24:35.24	261.21	20.18	-34.9	-36.0	18.3	0.00e+00	0	56	0	2405433344	40	4098
2026-01-11 05:24:39.28	260.47	19.81	-35.1	-36.3	18.1	0.00e+00	0	57	0	2434793472	40	4221
2026-01-11 05:24:43.31	259.76	19.45	-35.2	-36.4	18.0	0.00e+00	0	56	0	2464153600	40	4272
2026-01-11 05:24:47.36	259.05	19.08	-35.6	-36.8	17.6	0.00e+00	0	56	0	2493513728	40	4470
2026-01-11 05:24:51.40	258.37	18.72	-35.8	-37.0	17.3	0.00e+00	0	57	0	2522873856	41	4333
2026-01-11 05:24:55.44	257.70	18.35	-35.8	-37.1	17.3	0.00e+00	0	57	0	2551185408	41	4362
2026-01-11 05:24:59.48	257.05	17.99	-35.8	-37.1	17.2	0.00e+00	0	56	0	2580545536	41	4379
2026-01-11 05:25:03.52	256.42	17.63	-35.7	-37.0	17.3	0.00e+00	0	56	0	2609905664	41	4315
2026-01-11 05:25:07.57	255.79	17.27	-35.7	-36.9	17.4	0.00e+00	0	56	0	2639265792	41	4277
2026-01-11 05:25:11.61	255.19	16.92	-36.0	-37.3	17.1	0.00e+00	0	57	0	2668625920	41	4445
2026-01-11 05:25:15.65	254.60	16.56	-36.2	-37.6	16.8	0.00e+00	0	57	0	2697986048	42	4341
2026-01-11 05:25:19.69	254.02	16.21	-36.1	-37.4	17.0	0.00e+00	0	57	0	2726297600	42	4244
2026-01-11 05:25:23.73	253.46	15.86	-36.2	-37.6	16.7	0.00e+00	0	56	0	2755657728	42	4352
2026-01-11 05:25:27.77	252.90	15.51	-36.5	-37.9	16.4	0.00e+00	0	57	0	2785017856	42	4516
2026-01-11 05:25:31.81	252.37	15.17	-36.6	-38.0	16.3	0.00e+00	0	57	0	2814377984	42	4549
2026-01-11 05:25:35.85	251.84	14.82	-36.4	-37.8	16.5	0.00e+00	0	57	0	2843738112	42	4465
2026-01-11 05:25:39.89	251.33	14.48	-36.8	-38.2	16.0	0.00e+00	0	57	0	2872049664	43	4424
2026-01-11 05:25:43.93	250.83	14.14	-36.8	-38.3	16.0	0.00e+00	0	57	0	2901409792	43	4445
2026-01-11 05:25:47.96	250.34	13.81	-36.8	-38.3	15.9	0.00e+00	0	56	0	2930769920	43	4466
2026-01-11 05:25:52.00	249.86	13.47	-36.9	-38.4	15.8	0.00e+00	0	57	0	2960130048	43	4510
2026-01-11 05:25:56.04	249.39	13.14	-36.8	-38.3	15.9	0.00e+00	0	57	0	2989490176	43	4449
2026-01-11 05:26:00.08	248.93	12.82	-36.8	-38.2	16.0	0.00e+00	0	57	0	3017801728	43	4416
2026-01-11 05:26:04.11	248.49	12.49	-36.8	-38.3	15.9	0.00e+00	0	57	0	3047161856	43	4457
2026-01-11 05:26:08.16	248.05	12.17	-36.9	-38.4	15.7	0.00e+00	0	57	0	3076521984	43	4522
2026-01-11 05:26:12.20	247.62	11.85	-37.1	-38.6	15.5	0.00e+00	0	57	0	3105882112	43	4615
2026-01-11 05:26:16.23	247.20	11.53	-37.0	-38.5	15.6	0.00e+00	0	57	0	3135242240	43	4565
2026-01-11 05:26:20.27	246.79	11.21	-37.6	-39.2	15.1	0.00e+00	0	57	0	3163553792	44	4667
2026-01-11 05:26:24.31	246.39	10.90	-37.9	-39.6	14.6	0.00e+00	0	57	0	3192913920	45	4607
2026-01-11 05:26:28.34	246.00	10.59	-38.1	-39.8	14.4	1.10e-06	0	57	0	3222274048	45	4752
2026-01-11 05:26:32.39	245.62	10.29	-37.9	-39.6	14.6	0.00e+00	0	57	0	3251634176	45	4638
2026-01-11 05:26:36.43	245.24	9.98	-37.7	-39.4	14.8	1.10e-06	0	57	0	3280994304	45	4498
2026-01-11 05:26:40.47	244.87	9.68	-37.8	-39.5	14.7	0.00e+00	0	57	0	3310354432	45	4553
2026-01-11 05:26:44.51	244.51	9.38	-38.0	-39.7	14.4	1.10e-06	0	57	0	3338665984	45	4677
2026-01-11 05:26:48.55	244.16	9.08	-38.0	-39.8	14.3	0.00e+00	0	57	0	3368026112	45	4723
2026-01-11 05:26:52.59	243.81	8.79	-38.2	-40.0	14.1	0.00e+00	0	57	0	3397386240	46	4551
2026-01-11 05:26:56.63	243.48	8.50	-38.3	-40.1	14.0	2.20e-06	0	57	0	3426746368	46	4635
2026-01-11 05:27:00.67	243.15	8.21	-38.1	-39.9	14.2	0.00e+00	0	57	0	3456106496	46	4502
2026-01-11 05:27:04.71	242.82	7.92	-45.0	-55.7	3.8	8.47e-01	0	57	104	3477078016	59	13193
2026-01-11 05:27:08.75	242.50	7.63	-45.4	-56.4	3.8	8.46e-01	0	57	104	3477078016	60	13506
2026-01-11 05:27:12.80	242.19	7.35	-45.5	-56.6	3.8	8.47e-01	0	57	104	3477078016	60	13745
2026-01-11 05:27:16.84	241.88	7.07	-45.4	-56.4	3.8	8.46e-01	0	57	104	3477078016	60	13507
2026-01-11 05:27:20.88	241.58	6.79	-45.4	-56.3	3.8	8.46e-01	0	57	104	3477078016	60	13391
2026-01-11 05:27:24.92	241.29	6.52	-45.3	-56.3	3.8	8.48e-01	0	57	104	3477078016	60	13401
2026-01-11 05:27:28.96	241.00	6.24	-45.3	-56.3	3.8	8.47e-01	0	57	104	3477078016	60	13366
2026-01-11 05:27:33.01	240.72	5.97	-45.3	-56.3	3.8	8.46e-01	0	57	104	3477078016	60	13403
2026-01-11 05:27:37.05	240.44	5.70	-45.3	-56.3	3.8	8.45e-01	0	57	104	3477078016	60	13361
2026-01-11 05:27:41.09	240.17	5.43	-45.3	-56.3	3.8	8.46e-01	0	57	104	3477078016	60	13369
2026-01-11 05:27:45.14	239.90	5.17	-45.3	-56.3	3.8	8.46e-01	0	57	104	3477078016	60	13363
2026-01-11 05:27:49.18	239.64	4.91	-45.3	-56.3	3.8	8.46e-01	0	57	104	3477078016	60	13353
2026-01-11 05:27:53.23	239.38	4.65	-45.3	-56.3	3.8	8.46e-01	0	57	104	3477078016	60	13354
2026-01-11 05:27:57.27	239.13	4.39	-45.3	-56.3	3.8	8.46e-01	0	57	104	3477078016	60	13311
2026-01-11 05:28:01.31	238.88	4.13	-45.3	-56.3	3.8	8.46e-01	0	57	104	3477078016	60	13325
2026-01-11 05:28:05.36	238.64	3.87	-45.3	-56.3	3.8	8.46e-01	0	57	104	3477078016	60	13370
2026-01-11 05:28:09.40	238.40	3.62	-45.3	-56.3	3.8	8.46e-01	0	57	104	3477078016	60	13358
2026-01-11 05:28:13.45	238.16	3.37	-45.3	-56.3	3.8	8.46e-01	0	57	104	3477078016	60	13311
2026-01-11 05:28:17.49	237.93	3.12	-45.3	-56.3	3.8	8.46e-01	0	57	104	3477078016	60	13331
2026-01-11 05:28:21.54	237.71	2.87	-45.3	-56.3	3.8	8.47e-01	0	57	104	3477078016	60	13317
2026-01-11 05:28:25.58	237.48	2.63	-45.3	-56.3	3.8	8.47e-01	0	57	104	3477078016	60	13308
2026-01-11 05:28:29.62	237.26	2.38	-45.3	-56.3	3.8	8.47e-01	0	57	104	3477078016	60	13321
2026-01-11 05:28:33.67	237.05	2.14	-45.3	-56.3	3.8	8.45e-01	0	57	104	3477078016	60	13300
2026-01-11 05:28:37.71	236.84	1.90	-45.3	-56.3	3.8	8.46e-01	0	57	104	3477078016	60	13365

#Closed at: 2026-01-11 05:28:38
#Recorded file [3477 MB]: D:/lorett/data/31039_260111_081521.dat