passes_logs/2026/01/11/R2.0S_Moscow/R2.0S_Moscow__20260111_113950_FENGYUN_3D_rec.log

#Pass ID: 20260111_113950_FENGYUN 3D
#Satellite: FENGYUN 3D
#Configuration: FENGYUN 3D
#almurnet v.1.7.20251203
#Start time: 2026-01-11 11:39:50

#Version: 2.2.20231116
#Station: R2.0S_Moscow
#Location: 37.707566 lon 55.798166 lat
#TLE: 1 43010U 17072A   26009.92921666 -.00000228  00000+0 -86059-4 0  9998
#TLE: 2 43010  98.9936 341.6668 0002176 116.7510 243.3888 14.19693142422537

#Time	Az	El	Level	Level2	SNR	BER	BlckErr	Temp	State	Recorded	gain1	gain2
2026-01-11 11:39:50.32	151.91	1.98	-43.9	-55.3	3.8	8.47e-01	0	47	0	0	59	13373
2026-01-11 11:39:54.35	151.86	2.24	-43.9	-55.3	3.8	8.46e-01	0	48	104	0	59	13387
2026-01-11 11:39:58.40	151.82	2.50	-43.9	-55.3	3.8	8.46e-01	0	48	104	0	59	13400
2026-01-11 11:40:02.44	151.78	2.76	-43.9	-55.3	3.8	8.46e-01	0	48	104	0	59	13354
2026-01-11 11:40:06.49	151.73	3.03	-43.9	-55.3	3.8	8.46e-01	0	48	104	0	59	13339
2026-01-11 11:40:10.53	151.69	3.30	-43.9	-55.3	3.8	8.46e-01	0	49	104	0	59	13319
2026-01-11 11:40:14.57	151.64	3.58	-43.9	-55.3	3.8	8.45e-01	0	49	104	0	59	13317
2026-01-11 11:40:18.62	151.59	3.85	-43.9	-55.3	3.8	8.46e-01	0	49	104	0	59	13346
2026-01-11 11:40:22.66	151.55	4.13	-43.9	-55.3	3.8	8.47e-01	0	50	104	0	59	13353
2026-01-11 11:40:26.71	151.50	4.41	-43.9	-55.3	3.8	8.47e-01	0	49	104	0	59	13343
2026-01-11 11:40:30.75	151.45	4.70	-43.9	-55.3	3.8	8.47e-01	0	50	104	0	59	13330
2026-01-11 11:40:34.79	151.39	4.98	-43.9	-55.3	3.8	8.46e-01	0	50	104	0	59	13300
2026-01-11 11:40:38.84	151.34	5.28	-43.9	-55.2	3.8	8.46e-01	0	50	104	0	59	13256
2026-01-11 11:40:42.88	151.29	5.57	-43.8	-54.7	3.8	8.47e-01	0	50	104	0	59	12492
2026-01-11 11:40:46.92	151.23	5.87	-43.7	-54.0	3.8	8.47e-01	0	51	104	0	59	11482
2026-01-11 11:40:50.97	151.17	6.17	-43.7	-53.8	3.8	8.46e-01	0	51	104	0	59	11169
2026-01-11 11:40:55.01	151.11	6.47	-43.7	-54.1	3.8	8.46e-01	0	51	104	0	59	11586
2026-01-11 11:40:59.05	151.05	6.78	-43.9	-55.2	3.8	8.48e-01	0	51	104	0	59	13131
2026-01-11 11:41:03.10	150.99	7.09	-43.5	-52.8	3.8	8.45e-01	0	52	104	0	59	10002
2026-01-11 11:41:07.14	150.93	7.41	-42.1	-46.9	7.1	2.22e-01	0	52	0	8388608	56	6057
2026-01-11 11:41:11.18	150.86	7.72	-39.8	-42.6	11.4	2.18e-03	0	52	0	31457280	51	4895
2026-01-11 11:41:15.23	150.80	8.05	-38.5	-40.8	13.2	3.31e-05	0	52	0	53477376	49	4489
2026-01-11 11:41:19.27	150.73	8.38	-41.4	-45.4	8.5	4.01e-01	0	52	0	75497472	54	5660
2026-01-11 11:41:23.31	150.66	8.71	-37.9	-40.0	14.0	6.80e-06	0	52	0	98566144	47	4550
2026-01-11 11:41:27.35	150.59	9.04	-37.6	-39.6	14.4	0.00e+00	0	53	0	121634816	47	4355
2026-01-11 11:41:31.38	150.51	9.38	-37.5	-39.4	14.7	0.00e+00	0	52	0	144703488	46	4535
2026-01-11 11:41:35.42	150.44	9.73	-37.3	-39.2	14.9	0.00e+00	0	53	0	166723584	46	4422
2026-01-11 11:41:39.46	150.36	10.08	-37.2	-39.1	15.1	0.00e+00	0	53	0	189792256	46	4347
2026-01-11 11:41:43.50	150.28	10.43	-37.1	-38.9	15.3	0.00e+00	0	53	0	211812352	46	4265
2026-01-11 11:41:47.53	150.20	10.79	-37.0	-38.7	15.5	0.00e+00	0	53	0	234881024	45	4439
2026-01-11 11:41:51.57	150.11	11.16	-37.0	-38.7	15.6	0.00e+00	0	53	0	257949696	45	4432
2026-01-11 11:41:55.61	150.03	11.53	-36.9	-38.6	15.7	0.00e+00	0	53	0	279969792	45	4384
2026-01-11 11:41:59.65	149.94	11.90	-36.8	-38.5	15.9	0.00e+00	0	53	0	303038464	45	4302
2026-01-11 11:42:03.69	149.84	12.28	-36.7	-38.4	16.1	0.00e+00	0	53	0	326107136	45	4265
2026-01-11 11:42:07.73	149.75	12.67	-36.7	-38.4	16.1	0.00e+00	0	54	0	349175808	45	4243
2026-01-11 11:42:11.77	149.65	13.07	-36.8	-38.5	16.0	0.00e+00	0	54	0	371195904	45	4311
2026-01-11 11:42:15.81	149.55	13.47	-36.7	-38.4	16.2	0.00e+00	0	54	0	394264576	45	4245
2026-01-11 11:42:19.85	149.45	13.87	-36.6	-38.3	16.3	0.00e+00	0	54	0	416284672	45	4215
2026-01-11 11:42:23.89	149.34	14.29	-36.5	-38.2	16.4	0.00e+00	0	54	0	439353344	45	4154
2026-01-11 11:42:27.92	149.23	14.71	-36.4	-38.0	16.7	0.00e+00	0	54	0	462422016	44	4307
2026-01-11 11:42:31.96	149.12	15.14	-36.2	-37.8	16.9	0.00e+00	0	54	0	484442112	44	4197
2026-01-11 11:42:36.00	149.00	15.57	-35.8	-37.3	17.2	0.00e+00	0	54	0	507510784	43	4231
2026-01-11 11:42:40.03	148.88	16.02	-35.7	-37.2	17.4	0.00e+00	0	54	0	530579456	43	4155
2026-01-11 11:42:44.07	148.75	16.47	-35.6	-37.1	17.5	0.00e+00	0	54	0	552599552	43	4119
2026-01-11 11:42:48.12	148.62	16.93	-35.5	-37.0	17.6	0.00e+00	0	54	0	575668224	43	4078
2026-01-11 11:42:52.16	148.49	17.40	-35.5	-37.0	17.6	0.00e+00	0	54	0	598736896	43	4053
2026-01-11 11:42:56.20	148.35	17.88	-35.3	-36.8	17.8	0.00e+00	0	55	0	620756992	42	4195
2026-01-11 11:43:00.24	148.21	18.36	-35.2	-36.6	18.0	0.00e+00	0	54	0	643825664	42	4135
2026-01-11 11:43:04.28	148.06	18.86	-35.1	-36.5	18.0	0.00e+00	0	55	0	666894336	42	4094
2026-01-11 11:43:08.32	147.91	19.37	-35.1	-36.5	18.1	0.00e+00	0	55	0	689963008	42	4063
2026-01-11 11:43:12.36	147.75	19.88	-34.9	-36.4	18.3	0.00e+00	0	55	0	711983104	41	4244
2026-01-11 11:43:16.41	147.58	20.41	-35.0	-36.4	18.3	0.00e+00	0	55	0	735051776	41	4258
2026-01-11 11:43:20.45	147.41	20.95	-34.9	-36.3	18.4	0.00e+00	0	55	0	758120448	41	4196
2026-01-11 11:43:24.49	147.23	21.50	-34.7	-36.1	18.5	0.00e+00	0	55	0	780140544	41	4122
2026-01-11 11:43:28.53	147.05	22.07	-34.6	-36.0	18.6	0.00e+00	0	55	0	803209216	41	4085
2026-01-11 11:43:32.58	146.86	22.64	-34.6	-36.0	18.7	0.00e+00	0	55	0	826277888	41	4054
2026-01-11 11:43:36.62	146.66	23.23	-34.4	-35.8	18.9	0.00e+00	0	55	0	848297984	40	4214
2026-01-11 11:43:40.65	146.45	23.83	-34.4	-35.7	18.9	0.00e+00	0	55	0	871366656	40	4189
2026-01-11 11:43:44.69	146.23	24.44	-34.4	-35.8	18.9	0.00e+00	0	55	0	894435328	40	4214
2026-01-11 11:43:48.74	146.01	25.08	-34.3	-35.6	19.1	0.00e+00	0	55	0	916455424	40	4121
2026-01-11 11:43:52.78	145.77	25.72	-34.2	-35.5	19.3	0.00e+00	0	55	0	939524096	40	4062
2026-01-11 11:43:56.81	145.53	26.38	-34.2	-35.5	19.2	0.00e+00	0	56	0	962592768	40	4058
2026-01-11 11:44:00.85	145.27	27.05	-34.4	-35.7	19.0	0.00e+00	0	55	0	984612864	40	4177
2026-01-11 11:44:04.89	145.00	27.74	-34.2	-35.5	19.2	0.00e+00	0	56	0	1007681536	40	4074
2026-01-11 11:44:08.93	144.72	28.45	-33.9	-35.2	19.6	0.00e+00	0	56	0	1030750208	39	4175
2026-01-11 11:44:12.97	144.43	29.18	-34.0	-35.3	19.6	0.00e+00	0	56	0	1052770304	39	4197
2026-01-11 11:44:17.01	144.12	29.92	-33.9	-35.2	19.6	0.00e+00	0	55	0	1075838976	39	4162
2026-01-11 11:44:21.04	143.80	30.68	-33.7	-35.0	19.8	0.00e+00	0	56	0	1098907648	39	4080
2026-01-11 11:44:25.08	143.46	31.47	-33.7	-35.0	19.8	0.00e+00	0	55	0	1120927744	39	4081
2026-01-11 11:44:29.12	143.10	32.27	-33.7	-34.9	19.8	0.00e+00	0	56	0	1143996416	39	4035
2026-01-11 11:44:33.16	142.72	33.09	-33.7	-35.0	19.8	0.00e+00	0	56	0	1167065088	39	4083
2026-01-11 11:44:37.19	142.33	33.94	-33.7	-35.0	19.8	0.00e+00	0	56	0	1189085184	39	4072
2026-01-11 11:44:41.23	141.91	34.80	-33.8	-35.0	19.8	0.00e+00	0	56	0	1212153856	39	4090
2026-01-11 11:44:45.28	141.46	35.69	-33.6	-34.8	20.1	0.00e+00	0	56	0	1235222528	39	3979
2026-01-11 11:44:49.32	141.00	36.61	-33.5	-34.8	20.1	0.00e+00	0	56	0	1257242624	39	3965
2026-01-11 11:44:53.36	140.50	37.54	-33.7	-35.0	19.9	0.00e+00	0	56	0	1280311296	39	4065
2026-01-11 11:44:57.40	139.97	38.51	-33.8	-35.1	19.8	0.00e+00	0	56	0	1303379968	39	4129
2026-01-11 11:45:01.43	139.41	39.49	-33.8	-35.1	19.8	0.00e+00	0	56	0	1325400064	39	4121
2026-01-11 11:45:05.47	138.82	40.50	-34.2	-35.5	19.5	0.00e+00	0	56	0	1348468736	39	4296
2026-01-11 11:45:09.51	138.18	41.54	-34.2	-35.5	19.5	0.00e+00	0	56	0	1371537408	39	4322
2026-01-11 11:45:13.56	137.50	42.60	-34.0	-35.3	19.7	0.00e+00	0	56	0	1393557504	39	4221
2026-01-11 11:45:17.59	136.78	43.69	-33.9	-35.1	19.9	0.00e+00	0	56	0	1416626176	39	4133
2026-01-11 11:45:21.63	136.00	44.80	-34.2	-35.5	19.5	0.00e+00	0	56	0	1439694848	39	4321
2026-01-11 11:45:25.66	135.16	45.94	-33.8	-35.0	20.0	0.00e+00	0	56	0	1461714944	39	4082
2026-01-11 11:45:29.71	134.26	47.11	-34.0	-35.2	19.9	0.00e+00	0	56	0	1484783616	39	4168
2026-01-11 11:45:33.75	133.29	48.30	-34.5	-35.7	19.3	0.00e+00	0	56	0	1507852288	39	4434
2026-01-11 11:45:37.79	132.24	49.51	-34.9	-36.2	18.8	0.00e+00	0	56	0	1529872384	40	4424
2026-01-11 11:45:41.82	131.10	50.74	-35.1	-36.5	18.6	0.00e+00	0	56	0	1552941056	40	4550
2026-01-11 11:45:45.86	129.86	52.00	-34.8	-36.1	19.0	0.00e+00	0	56	0	1576009728	41	4128
2026-01-11 11:45:49.90	128.51	53.27	-34.6	-35.9	19.2	0.00e+00	0	56	0	1598029824	40	4257
2026-01-11 11:45:53.94	127.03	54.56	-34.5	-35.8	19.2	0.00e+00	0	56	0	1621098496	40	4234
2026-01-11 11:45:57.98	125.42	55.86	-34.5	-35.7	19.3	0.00e+00	0	56	0	1644167168	40	4185
2026-01-11 11:46:02.02	123.64	57.16	-34.7	-36.0	19.0	0.00e+00	0	56	0	1666187264	40	4332
2026-01-11 11:46:06.06	121.69	58.46	-34.8	-36.1	19.0	0.00e+00	0	56	0	1689255936	40	4369
2026-01-11 11:46:10.10	119.53	59.76	-34.7	-36.1	18.9	0.00e+00	0	56	0	1712324608	40	4351
2026-01-11 11:46:14.15	117.14	61.05	-34.2	-35.4	19.6	0.00e+00	0	56	0	1734344704	40	4045
2026-01-11 11:46:18.19	114.50	62.31	-33.9	-35.1	19.9	0.00e+00	0	56	0	1757413376	39	4136
2026-01-11 11:46:22.22	111.58	63.54	-33.7	-35.0	20.0	0.00e+00	0	56	0	1780482048	39	4066
2026-01-11 11:46:26.26	108.34	64.71	-33.7	-34.9	20.1	0.00e+00	0	56	0	1802502144	38	4255
2026-01-11 11:46:30.30	104.75	65.83	-32.8	-33.9	21.0	0.00e+00	0	56	0	1825570816	37	4051
2026-01-11 11:46:34.34	100.79	66.86	-32.8	-34.0	20.8	0.00e+00	0	56	0	1848639488	37	4071
2026-01-11 11:46:38.38	96.45	67.79	-32.9	-34.0	20.9	0.00e+00	0	56	0	1870659584	37	4089
2026-01-11 11:46:42.42	91.71	68.61	-33.1	-34.3	20.6	0.00e+00	0	56	0	1893728256	37	4200
2026-01-11 11:46:46.45	86.62	69.28	-33.1	-34.2	20.6	0.00e+00	0	56	0	1916796928	37	4185
2026-01-11 11:46:50.49	81.20	69.79	-33.3	-34.5	20.4	0.00e+00	0	57	0	1938817024	37	4319
2026-01-11 11:46:54.53	75.52	70.13	-33.3	-34.5	20.3	0.00e+00	0	56	0	1961885696	37	4310
2026-01-11 11:46:58.57	69.70	70.28	-33.5	-34.7	20.3	0.00e+00	0	57	0	1984954368	37	4398
2026-01-11 11:47:02.61	63.84	70.23	-33.1	-34.3	20.5	0.00e+00	0	56	0	2006974464	37	4229
2026-01-11 11:47:06.65	58.07	69.99	-33.0	-34.2	20.7	0.00e+00	0	57	0	2030043136	37	4166
2026-01-11 11:47:10.69	52.50	69.57	-33.1	-34.3	20.6	0.00e+00	0	56	0	2053111808	37	4230
2026-01-11 11:47:14.73	47.22	68.99	-32.8	-33.9	21.0	0.00e+00	0	56	0	2075131904	37	4042
2026-01-11 11:47:18.77	42.29	68.25	-32.9	-34.1	20.8	0.00e+00	0	56	0	2098200576	37	4105
2026-01-11 11:47:22.81	37.74	67.38	-32.9	-34.0	20.9	0.00e+00	0	57	0	2121269248	37	4076
2026-01-11 11:47:26.85	33.58	66.40	-32.9	-34.0	21.0	0.00e+00	0	57	0	2143289344	37	4091
2026-01-11 11:47:30.89	29.80	65.33	-33.0	-34.1	20.8	0.00e+00	0	57	0	2166358016	37	4137
2026-01-11 11:47:34.93	26.38	64.18	-33.6	-34.8	20.3	0.00e+00	0	57	0	2189426688	37	4475
2026-01-11 11:47:38.97	23.29	62.98	-34.0	-35.2	19.9	0.00e+00	0	56	0	2211446784	38	4400
2026-01-11 11:47:43.01	20.50	61.74	-33.6	-34.8	20.2	0.00e+00	0	57	0	2234515456	38	4217
2026-01-11 11:47:47.05	17.99	60.47	-33.7	-34.9	20.2	0.00e+00	0	57	0	2257584128	38	4286
2026-01-11 11:47:51.09	15.72	59.19	-34.3	-35.5	19.7	0.00e+00	0	57	0	2279604224	39	4328
2026-01-11 11:47:55.13	13.66	57.89	-34.5	-35.8	19.4	0.00e+00	0	56	0	2302672896	39	4445
2026-01-11 11:47:59.17	11.79	56.59	-34.3	-35.5	19.6	0.00e+00	0	57	0	2325741568	39	4322
2026-01-11 11:48:03.21	10.09	55.29	-35.0	-36.4	18.7	0.00e+00	0	57	0	2347761664	40	4503
2026-01-11 11:48:07.24	8.55	54.00	-34.9	-36.2	18.9	0.00e+00	0	57	0	2370830336	40	4435
2026-01-11 11:48:11.28	7.14	52.72	-34.6	-35.9	19.3	0.00e+00	0	57	0	2393899008	40	4250
2026-01-11 11:48:15.33	5.84	51.46	-34.4	-35.7	19.4	0.00e+00	0	57	0	2416967680	40	4148
2026-01-11 11:48:19.37	4.65	50.22	-34.0	-35.2	19.9	0.00e+00	0	57	0	2438987776	39	4154
2026-01-11 11:48:23.40	3.55	49.00	-34.0	-35.2	20.2	0.00e+00	0	57	0	2462056448	39	4152
2026-01-11 11:48:27.44	2.54	47.80	-34.0	-35.1	20.2	0.00e+00	0	57	0	2484076544	39	4144
2026-01-11 11:48:31.48	1.60	46.63	-34.1	-35.2	20.1	0.00e+00	0	56	0	2507145216	39	4190
2026-01-11 11:48:35.53	0.73	45.48	-33.8	-34.9	20.4	0.00e+00	0	57	0	2530213888	39	4049
2026-01-11 11:48:39.56	359.93	44.35	-33.9	-35.0	20.4	0.00e+00	0	57	0	2552233984	39	4068
2026-01-11 11:48:43.60	359.18	43.25	-34.0	-35.2	20.2	0.00e+00	0	57	0	2575302656	39	4162
2026-01-11 11:48:47.64	358.47	42.18	-33.9	-35.0	20.3	0.00e+00	0	57	0	2598371328	39	4074
2026-01-11 11:48:51.68	357.82	41.13	-33.6	-34.6	20.6	0.00e+00	0	57	0	2621440000	39	3906
2026-01-11 11:48:55.72	357.20	40.11	-33.7	-34.8	20.5	0.00e+00	0	57	0	2643460096	39	4002
2026-01-11 11:48:59.77	356.62	39.11	-33.6	-34.7	20.6	0.00e+00	0	57	0	2666528768	39	3940
2026-01-11 11:49:03.81	356.08	38.14	-33.5	-34.6	20.7	0.00e+00	0	57	0	2688548864	39	3879
2026-01-11 11:49:07.84	355.57	37.20	-33.3	-34.4	20.8	0.00e+00	0	57	0	2711617536	38	4030
2026-01-11 11:49:11.88	355.09	36.28	-33.6	-34.7	20.5	0.00e+00	0	57	0	2734686208	38	4186
2026-01-11 11:49:15.93	354.64	35.37	-33.8	-34.9	20.4	0.00e+00	0	57	0	2757754880	38	4256
2026-01-11 11:49:19.97	354.21	34.50	-33.8	-34.9	20.4	0.00e+00	0	57	0	2779774976	38	4261
2026-01-11 11:49:24.01	353.80	33.64	-33.6	-34.7	20.5	0.00e+00	0	57	0	2802843648	38	4147
2026-01-11 11:49:28.06	353.42	32.81	-33.9	-35.0	20.2	0.00e+00	0	57	0	2825912320	38	4312
2026-01-11 11:49:32.09	353.05	32.00	-34.3	-35.5	19.7	0.00e+00	0	57	0	2847932416	39	4293
2026-01-11 11:49:36.13	352.70	31.21	-34.4	-35.5	19.7	0.00e+00	0	57	0	2871001088	39	4339
2026-01-11 11:49:40.17	352.37	30.44	-34.4	-35.5	19.6	0.00e+00	0	57	0	2893021184	39	4340
2026-01-11 11:49:44.21	352.06	29.69	-34.3	-35.5	19.7	0.00e+00	0	57	0	2916089856	39	4318
2026-01-11 11:49:48.24	351.76	28.96	-34.2	-35.4	19.7	0.00e+00	0	57	0	2939158528	39	4244
2026-01-11 11:49:52.28	351.48	28.24	-34.1	-35.2	19.8	0.00e+00	0	57	0	2962227200	39	4188
2026-01-11 11:49:56.32	351.20	27.54	-34.1	-35.2	19.8	0.00e+00	0	57	0	2984247296	39	4175
2026-01-11 11:50:00.36	350.94	26.86	-34.0	-35.2	19.8	0.00e+00	0	57	0	3007315968	39	4182
2026-01-11 11:50:04.40	350.69	26.19	-34.1	-35.2	19.7	0.00e+00	0	57	0	3030384640	39	4186
2026-01-11 11:50:08.44	350.45	25.54	-34.1	-35.3	19.6	0.00e+00	0	57	0	3052404736	39	4216
2026-01-11 11:50:12.49	350.23	24.91	-34.2	-35.3	19.5	0.00e+00	0	57	0	3075473408	39	4237
2026-01-11 11:50:16.52	350.01	24.29	-34.3	-35.5	19.3	0.00e+00	0	57	0	3098542080	39	4296
2026-01-11 11:50:20.57	349.80	23.68	-34.5	-35.7	18.9	0.00e+00	0	57	0	3120562176	39	4431
2026-01-11 11:50:24.61	349.60	23.09	-34.7	-36.0	18.1	0.00e+00	0	57	0	3143630848	40	4334
2026-01-11 11:50:28.64	349.40	22.51	-34.6	-36.1	17.7	0.00e+00	0	57	0	3166699520	40	4342
2026-01-11 11:50:32.68	349.22	21.94	-34.6	-36.1	17.4	0.00e+00	0	57	0	3188719616	40	4346
2026-01-11 11:50:36.72	349.04	21.39	-37.1	-39.2	13.8	5.70e-06	0	57	0	3211788288	44	4981
2026-01-11 11:50:40.77	348.87	20.84	-40.0	-45.2	6.8	1.25e-01	0	57	0	3234856960	50	7034
2026-01-11 11:50:44.80	348.70	20.31	-40.6	-50.7	3.8	8.43e-01	0	57	104	3240099840	51	12509
2026-01-11 11:50:48.84	348.54	19.79	-40.8	-52.4	3.8	8.46e-01	0	57	104	3240099840	52	14227
2026-01-11 11:50:52.88	348.39	19.28	-40.8	-52.5	3.8	8.46e-01	0	57	104	3240099840	52	14407
2026-01-11 11:50:56.92	348.24	18.78	-40.7	-52.6	3.8	8.46e-01	0	57	104	3240099840	52	14658
2026-01-11 11:51:00.96	348.10	18.28	-41.5	-53.2	3.8	8.46e-01	0	57	104	3240099840	53	14800
2026-01-11 11:51:05.00	347.96	17.80	-40.7	-52.4	3.8	8.45e-01	0	57	104	3240099840	53	13495
2026-01-11 11:51:09.03	347.83	17.33	-40.6	-52.4	3.8	8.46e-01	0	57	104	3240099840	53	13565
2026-01-11 11:51:13.07	347.70	16.87	-41.4	-53.0	3.8	8.46e-01	0	57	104	3240099840	53	14452
2026-01-11 11:51:17.12	347.57	16.41	-41.4	-53.1	3.8	8.47e-01	0	57	104	3240099840	53	14694
2026-01-11 11:51:21.16	347.45	15.96	-41.5	-53.2	3.8	8.46e-01	0	57	104	3240099840	53	14840
2026-01-11 11:51:25.19	347.34	15.53	-41.4	-53.1	3.8	8.47e-01	0	57	104	3240099840	53	14541
2026-01-11 11:51:29.23	347.23	15.09	-41.2	-53.1	3.8	8.47e-01	0	57	104	3240099840	53	14583
2026-01-11 11:51:33.27	347.12	14.67	-41.4	-53.1	3.8	8.45e-01	0	57	104	3240099840	53	14681
2026-01-11 11:51:37.31	347.01	14.25	-41.1	-52.9	3.8	8.46e-01	0	57	104	3240099840	53	14353
2026-01-11 11:51:41.35	346.91	13.84	-41.2	-52.9	3.8	8.46e-01	0	57	104	3240099840	53	14254
2026-01-11 11:51:45.39	346.81	13.44	-41.0	-52.9	3.8	8.45e-01	0	57	104	3240099840	53	14248
2026-01-11 11:51:49.43	346.72	13.04	-41.0	-52.8	3.8	8.45e-01	0	57	104	3240099840	53	14185
2026-01-11 11:51:53.47	346.62	12.65	-40.9	-52.6	3.8	8.46e-01	0	57	104	3240099840	53	13839
2026-01-11 11:51:57.52	346.53	12.27	-40.9	-52.6	3.8	8.45e-01	0	57	104	3240099840	53	13738
2026-01-11 11:52:01.56	346.45	11.89	-41.0	-52.6	3.8	8.45e-01	0	57	104	3240099840	53	13802
2026-01-11 11:52:05.59	346.36	11.52	-41.0	-52.6	3.8	8.45e-01	0	57	104	3240099840	53	13779
2026-01-11 11:52:09.63	346.28	11.15	-40.9	-52.6	3.8	8.46e-01	0	57	104	3240099840	53	13769
2026-01-11 11:52:13.67	346.20	10.79	-40.9	-52.5	3.8	8.46e-01	0	57	104	3240099840	53	13644
2026-01-11 11:52:17.71	346.12	10.43	-40.8	-52.4	3.8	8.46e-01	0	57	104	3240099840	53	13460
2026-01-11 11:52:21.75	346.05	10.08	-40.9	-52.6	3.8	8.45e-01	0	57	104	3240099840	52	14575
2026-01-11 11:52:25.79	345.97	9.73	-40.6	-52.2	3.8	8.46e-01	0	57	104	3240099840	52	13922
2026-01-11 11:52:29.82	345.90	9.39	-40.5	-52.2	3.8	8.46e-01	0	57	104	3240099840	52	13952
2026-01-11 11:52:33.86	345.83	9.05	-40.6	-52.4	3.8	8.46e-01	0	57	104	3240099840	52	14234
2026-01-11 11:52:37.90	345.77	8.72	-40.6	-52.3	3.8	8.45e-01	0	57	104	3240099840	52	14202
2026-01-11 11:52:41.93	345.70	8.39	-40.8	-52.5	3.8	8.47e-01	0	57	104	3240099840	52	14382
2026-01-11 11:52:45.97	345.64	8.07	-40.5	-52.2	3.8	8.45e-01	0	57	104	3240099840	52	13962
2026-01-11 11:52:50.02	345.58	7.75	-44.8	-56.5	3.8	8.47e-01	0	57	104	3240099840	60	14485
2026-01-11 11:52:54.06	345.52	7.43	-45.2	-56.9	3.8	8.47e-01	0	57	104	3240099840	60	15118
2026-01-11 11:52:58.11	345.46	7.12	-45.1	-57.0	3.8	8.46e-01	0	57	104	3240099840	60	15227
2026-01-11 11:53:02.15	345.40	6.81	-45.0	-56.9	3.8	8.47e-01	0	57	104	3240099840	60	15152
2026-01-11 11:53:06.20	345.35	6.50	-44.9	-56.9	3.8	8.47e-01	0	57	104	3240099840	60	15053
2026-01-11 11:53:10.24	345.30	6.20	-45.0	-56.8	3.8	8.45e-01	0	57	104	3240099840	60	14995
2026-01-11 11:53:14.28	345.24	5.90	-45.0	-56.8	3.8	8.47e-01	0	57	104	3240099840	60	15023
2026-01-11 11:53:18.33	345.19	5.61	-45.0	-56.8	3.8	8.47e-01	0	57	104	3240099840	60	14974
2026-01-11 11:53:22.37	345.14	5.32	-45.0	-56.8	3.8	8.46e-01	0	57	104	3240099840	60	14979
2026-01-11 11:53:26.41	345.10	5.03	-45.0	-56.8	3.8	8.46e-01	0	57	104	3240099840	60	14996
2026-01-11 11:53:30.46	345.05	4.74	-44.9	-56.8	3.8	8.46e-01	0	57	104	3240099840	60	14961
2026-01-11 11:53:34.50	345.00	4.46	-44.9	-56.8	3.8	8.46e-01	0	57	104	3240099840	60	14970
2026-01-11 11:53:38.54	344.96	4.18	-45.0	-56.8	3.8	8.46e-01	0	57	104	3240099840	60	14998
2026-01-11 11:53:42.58	344.92	3.90	-45.0	-56.8	3.8	8.47e-01	0	57	104	3240099840	60	14966
2026-01-11 11:53:46.63	344.87	3.63	-45.0	-56.8	3.8	8.46e-01	0	57	104	3240099840	60	14996
2026-01-11 11:53:50.67	344.83	3.36	-45.0	-56.8	3.8	8.45e-01	0	57	104	3240099840	60	14921
2026-01-11 11:53:54.72	344.79	3.09	-45.0	-56.8	3.8	8.46e-01	0	57	104	3240099840	60	14958
2026-01-11 11:53:58.76	344.76	2.82	-45.0	-56.8	3.8	8.47e-01	0	57	104	3240099840	60	14977
2026-01-11 11:54:02.80	344.72	2.56	-45.0	-56.8	3.8	8.47e-01	0	57	104	3240099840	60	14940
2026-01-11 11:54:06.85	344.68	2.30	-45.0	-56.8	3.8	8.46e-01	0	57	104	3240099840	60	14939
2026-01-11 11:54:10.89	344.65	2.04	-45.0	-56.8	3.8	8.46e-01	0	57	104	3240099840	60	14910

#Closed at: 2026-01-11 11:54:13
#Recorded file [3240 MB]: D:/lorett/data/31039_260111_143950.dat