passes_logs/2026/01/11/R2.0S_Moscow/R2.0S_Moscow__20260111_014744_FENGYUN_3G_rec.log

#Pass ID: 20260111_014744_FENGYUN 3G
#Satellite: FENGYUN 3G
#Configuration: FENGYUN 3G
#almurnet v.1.7.20251203
#Start time: 2026-01-11 01:47:47

#Version: 2.2.20231116
#Station: R2.0S_Moscow
#Location: 37.707566 lon 55.798166 lat
#TLE: 1 56232U 23055A   26009.90297110  .00027343  00000+0  43159-3 0  9992
#TLE: 2 56232  49.9936  82.2244 0004258   3.6110 356.4888 15.53248758155407

#Time	Az	El	Level	Level2	SNR	BER	BlckErr	Temp	State	Recorded	gain1	gain2
2026-01-11 01:47:47.04	258.29	2.15	-43.9	-62.2	3.8	8.45e-01	0	47	0	0	59	29525
2026-01-11 01:47:50.07	258.09	2.35	-43.9	-62.0	3.8	8.46e-01	0	47	104	0	59	28901
2026-01-11 01:47:53.11	257.89	2.55	-43.9	-61.9	3.8	8.44e-01	0	48	104	0	59	28619
2026-01-11 01:47:56.13	257.68	2.75	-43.9	-62.0	3.8	8.46e-01	0	48	104	0	59	28982
2026-01-11 01:47:59.17	257.47	2.96	-43.9	-62.2	3.8	8.46e-01	0	48	104	0	59	29498
2026-01-11 01:48:02.20	257.25	3.16	-43.9	-62.2	3.8	8.46e-01	0	48	104	0	59	29364
2026-01-11 01:48:05.23	257.03	3.37	-43.9	-62.2	3.8	8.46e-01	0	48	104	0	59	29666
2026-01-11 01:48:08.27	256.80	3.58	-43.9	-62.2	3.8	8.45e-01	0	49	104	0	59	29635
2026-01-11 01:48:11.30	256.57	3.80	-43.9	-62.2	3.8	8.46e-01	0	49	104	0	59	29616
2026-01-11 01:48:14.33	256.33	4.01	-43.9	-62.3	3.8	8.46e-01	0	49	104	0	59	29703
2026-01-11 01:48:17.36	256.09	4.23	-43.9	-62.2	3.8	8.46e-01	0	49	104	0	59	29505
2026-01-11 01:48:20.40	255.84	4.45	-43.9	-62.1	3.8	8.45e-01	0	49	104	0	59	29251
2026-01-11 01:48:23.43	255.59	4.67	-43.9	-62.2	3.8	8.47e-01	0	49	104	0	59	29358
2026-01-11 01:48:26.46	255.33	4.90	-43.9	-62.2	3.8	8.47e-01	0	50	104	0	59	29649
2026-01-11 01:48:29.50	255.07	5.12	-43.9	-61.7	3.8	8.47e-01	0	50	104	0	59	27754
2026-01-11 01:48:32.53	254.80	5.35	-43.9	-60.4	3.8	8.45e-01	0	50	104	0	59	23927
2026-01-11 01:48:35.56	254.52	5.59	-43.9	-59.6	3.9	8.44e-01	0	50	104	0	59	21762
2026-01-11 01:48:38.59	254.24	5.82	-43.9	-59.6	3.9	8.44e-01	0	50	104	0	59	21816
2026-01-11 01:48:41.63	253.95	6.06	-43.9	-59.1	4.1	8.42e-01	0	50	0	0	59	20656
2026-01-11 01:48:44.66	253.66	6.30	-43.9	-60.4	3.8	8.42e-01	0	50	104	0	59	24099
2026-01-11 01:48:47.69	253.35	6.54	-43.9	-60.4	3.8	8.46e-01	0	50	104	0	59	23978
2026-01-11 01:48:50.72	253.04	6.79	-43.5	-53.8	7.1	7.78e-01	0	51	0	524288	59	11271
2026-01-11 01:48:53.76	252.72	7.04	-42.9	-50.6	10.4	2.97e-02	0	51	0	4194304	57	8694
2026-01-11 01:48:56.79	252.40	7.29	-43.3	-52.3	8.7	4.99e-03	0	51	0	7340032	57	10631
2026-01-11 01:48:59.82	252.06	7.55	-43.7	-56.2	5.3	1.37e-01	0	51	0	9961472	57	16522
2026-01-11 01:49:02.85	251.72	7.80	-42.3	-48.1	12.9	4.81e-03	0	51	0	13107200	56	6950
2026-01-11 01:49:05.88	251.37	8.07	-40.2	-43.7	17.3	0.00e+00	0	51	0	16777216	52	5274
2026-01-11 01:49:08.91	251.01	8.33	-40.6	-44.4	17.1	1.63e-02	0	51	0	19922944	51	6024
2026-01-11 01:49:11.94	250.64	8.60	-39.2	-42.0	18.4	4.44e-01	0	51	0	22020096	50	4865
2026-01-11 01:49:14.97	250.26	8.87	-38.9	-41.5	19.7	0.00e+00	0	51	0	25165824	49	4869
2026-01-11 01:49:18.00	249.87	9.15	-38.8	-41.4	19.8	0.00e+00	0	51	0	28835840	49	4808
2026-01-11 01:49:21.02	249.48	9.42	-38.7	-41.2	20.2	0.00e+00	0	52	0	31981568	49	4655
2026-01-11 01:49:24.05	249.07	9.71	-38.5	-40.9	20.5	0.00e+00	0	52	0	35651584	48	4783
2026-01-11 01:49:27.08	248.65	9.99	-38.5	-40.9	20.5	0.00e+00	0	52	0	38797312	48	4777
2026-01-11 01:49:30.11	248.21	10.28	-38.6	-41.0	20.4	0.00e+00	0	52	0	42467328	48	4859
2026-01-11 01:49:33.14	247.77	10.58	-38.6	-41.1	20.3	0.00e+00	0	52	0	45613056	48	4874
2026-01-11 01:49:36.17	247.31	10.88	-38.4	-40.7	20.7	0.00e+00	0	52	0	49283072	48	4687
2026-01-11 01:49:39.19	246.84	11.18	-38.0	-40.2	21.1	0.00e+00	0	52	0	52428800	47	4688
2026-01-11 01:49:42.22	246.36	11.48	-38.1	-40.4	21.0	0.00e+00	0	52	0	56098816	47	4769
2026-01-11 01:49:45.25	245.87	11.79	-38.1	-40.4	21.0	0.00e+00	0	52	0	59244544	47	4811
2026-01-11 01:49:48.28	245.36	12.11	-38.0	-40.2	21.2	0.00e+00	0	52	0	62914560	47	4699
2026-01-11 01:49:51.31	244.83	12.43	-37.8	-40.0	21.5	0.00e+00	0	53	0	66060288	47	4547
2026-01-11 01:49:54.34	244.29	12.75	-37.8	-40.0	21.5	0.00e+00	0	52	0	69730304	47	4579
2026-01-11 01:49:57.37	243.73	13.08	-38.0	-40.3	21.3	0.00e+00	0	52	0	72876032	47	4713
2026-01-11 01:50:00.40	243.16	13.41	-37.6	-39.6	21.9	0.00e+00	0	53	0	76546048	47	4388
2026-01-11 01:50:03.43	242.57	13.75	-37.4	-39.4	22.1	0.00e+00	0	53	0	79691776	46	4530
2026-01-11 01:50:06.46	241.96	14.09	-37.2	-39.2	22.4	0.00e+00	0	53	0	83361792	46	4433
2026-01-11 01:50:09.49	241.34	14.43	-37.1	-39.0	22.6	0.00e+00	0	53	0	86507520	46	4339
2026-01-11 01:50:12.52	240.69	14.78	-37.3	-39.4	22.3	0.00e+00	0	53	0	90177536	46	4495
2026-01-11 01:50:15.55	240.03	15.13	-36.9	-38.8	22.8	0.00e+00	0	53	0	93323264	45	4476
2026-01-11 01:50:18.58	239.34	15.49	-36.8	-38.6	23.0	0.00e+00	0	53	0	96993280	45	4377
2026-01-11 01:50:21.61	238.63	15.85	-36.6	-38.5	23.2	0.00e+00	0	53	0	100139008	45	4309
2026-01-11 01:50:24.63	237.91	16.22	-36.7	-38.6	23.1	0.00e+00	0	53	0	103809024	45	4364
2026-01-11 01:50:27.66	237.15	16.59	-36.7	-38.5	23.2	0.00e+00	0	53	0	106954752	45	4316
2026-01-11 01:50:30.69	236.38	16.96	-36.4	-38.2	23.5	0.00e+00	0	53	0	110624768	44	4403
2026-01-11 01:50:33.72	235.58	17.34	-36.3	-38.1	23.6	0.00e+00	0	53	0	113770496	44	4359
2026-01-11 01:50:36.75	234.75	17.72	-36.4	-38.2	23.5	0.00e+00	0	53	0	117440512	44	4436
2026-01-11 01:50:39.77	233.90	18.10	-36.1	-37.8	23.9	0.00e+00	0	53	0	120586240	44	4225
2026-01-11 01:50:42.80	233.03	18.48	-35.7	-37.4	24.1	0.00e+00	0	53	0	124256256	43	4288
2026-01-11 01:50:45.83	232.12	18.87	-36.0	-37.8	23.8	0.00e+00	0	53	0	127401984	43	4451
2026-01-11 01:50:48.87	231.18	19.26	-36.1	-37.9	23.7	0.00e+00	0	53	0	131072000	43	4510
2026-01-11 01:50:51.89	230.22	19.66	-35.4	-37.1	24.4	0.00e+00	0	53	0	134217728	42	4362
2026-01-11 01:50:54.92	229.22	20.05	-35.4	-37.0	24.5	0.00e+00	0	53	0	137887744	42	4333
2026-01-11 01:50:57.95	228.19	20.44	-35.6	-37.3	24.3	0.00e+00	0	53	0	141033472	42	4466
2026-01-11 01:51:00.98	227.13	20.84	-35.8	-37.5	24.2	0.00e+00	0	53	0	144703488	42	4567
2026-01-11 01:51:04.01	226.04	21.23	-35.1	-36.7	24.9	0.00e+00	0	54	0	147849216	42	4174
2026-01-11 01:51:07.04	224.92	21.62	-35.1	-36.7	24.9	0.00e+00	0	53	0	151519232	41	4435
2026-01-11 01:51:10.06	223.76	22.01	-35.4	-37.0	24.6	0.00e+00	0	54	0	154664960	41	4576
2026-01-11 01:51:13.09	222.56	22.39	-35.1	-36.7	25.0	0.00e+00	0	54	0	158334976	41	4403
2026-01-11 01:51:16.12	221.33	22.78	-35.0	-36.6	25.1	0.00e+00	0	54	0	161480704	41	4357
2026-01-11 01:51:19.15	220.07	23.15	-35.0	-36.5	25.1	0.00e+00	0	53	0	165150720	41	4333
2026-01-11 01:51:22.18	218.76	23.52	-35.1	-36.7	25.0	0.00e+00	0	54	0	168296448	41	4416
2026-01-11 01:51:25.20	217.43	23.88	-35.1	-36.6	25.0	0.00e+00	0	54	0	171966464	41	4388
2026-01-11 01:51:28.23	216.05	24.24	-34.8	-36.4	25.3	0.00e+00	0	53	0	175112192	41	4244
2026-01-11 01:51:31.26	214.64	24.58	-34.7	-36.3	25.4	0.00e+00	0	54	0	178782208	41	4202
2026-01-11 01:51:34.29	213.19	24.92	-34.5	-36.0	25.6	0.00e+00	0	54	0	181927936	40	4317
2026-01-11 01:51:37.32	211.71	25.24	-34.6	-36.1	25.6	0.00e+00	0	54	0	185597952	40	4376
2026-01-11 01:51:40.34	210.20	25.54	-34.3	-35.8	25.9	0.00e+00	0	54	0	188743680	40	4209
2026-01-11 01:51:43.37	208.65	25.84	-34.3	-35.8	25.9	0.00e+00	0	54	0	192413696	40	4195
2026-01-11 01:51:46.40	207.07	26.11	-34.3	-35.8	25.9	0.00e+00	0	54	0	195559424	40	4204
2026-01-11 01:51:49.43	205.45	26.37	-34.0	-35.5	26.2	0.00e+00	0	54	0	199229440	40	4068
2026-01-11 01:51:52.46	203.81	26.60	-34.3	-35.8	25.8	0.00e+00	0	54	0	202375168	40	4220
2026-01-11 01:51:55.48	202.15	26.82	-33.9	-35.3	26.3	0.00e+00	0	54	0	206045184	39	4221
2026-01-11 01:51:58.51	200.46	27.01	-33.8	-35.3	26.5	0.00e+00	0	54	0	209190912	39	4195
2026-01-11 01:52:01.54	198.74	27.18	-33.8	-35.2	26.5	0.00e+00	0	54	0	212860928	39	4156
2026-01-11 01:52:04.57	197.01	27.33	-34.1	-35.5	26.2	0.00e+00	0	54	0	216006656	39	4323
2026-01-11 01:52:07.60	195.25	27.45	-34.0	-35.4	26.3	0.00e+00	0	54	0	219676672	39	4261
2026-01-11 01:52:10.63	193.49	27.55	-34.2	-35.6	26.1	0.00e+00	0	54	0	222822400	39	4379
2026-01-11 01:52:13.66	191.71	27.61	-34.1	-35.5	26.1	0.00e+00	0	54	0	226492416	39	4327
2026-01-11 01:52:16.69	189.93	27.66	-34.4	-35.9	25.7	0.00e+00	0	54	0	229638144	39	4522
2026-01-11 01:52:19.72	188.14	27.67	-34.7	-36.2	25.6	0.00e+00	0	54	0	233308160	39	4678
2026-01-11 01:52:22.75	186.36	27.66	-34.5	-36.1	25.6	0.00e+00	0	54	0	236453888	40	4352
2026-01-11 01:52:25.78	184.58	27.61	-34.4	-35.9	25.7	0.00e+00	0	54	0	240123904	40	4258
2026-01-11 01:52:28.81	182.80	27.55	-34.0	-35.5	26.2	0.00e+00	0	54	0	243269632	39	4315
2026-01-11 01:52:31.84	181.04	27.45	-34.2	-35.7	26.1	0.00e+00	0	54	0	246939648	39	4395
2026-01-11 01:52:34.86	179.29	27.33	-34.4	-35.9	25.8	0.00e+00	0	54	0	250085376	39	4540
2026-01-11 01:52:37.89	177.56	27.18	-33.4	-34.8	26.8	0.00e+00	0	54	0	253755392	38	4236
2026-01-11 01:52:40.92	175.84	27.01	-34.4	-36.0	25.8	0.00e+00	0	54	0	256901120	39	4557
2026-01-11 01:52:43.95	174.15	26.82	-33.8	-35.2	26.6	0.00e+00	0	54	0	260571136	38	4437
2026-01-11 01:52:46.98	172.48	26.60	-34.2	-35.7	26.1	0.00e+00	0	54	0	263716864	39	4429
2026-01-11 01:52:50.01	170.84	26.37	-34.3	-35.8	25.9	0.00e+00	0	54	0	267386880	39	4490
2026-01-11 01:52:53.04	169.22	26.11	-34.7	-36.3	25.5	0.00e+00	0	54	0	270532608	40	4462
2026-01-11 01:52:56.07	167.64	25.84	-34.5	-36.0	25.8	0.00e+00	0	54	0	274202624	40	4340
2026-01-11 01:52:59.10	166.09	25.55	-34.4	-35.9	25.9	0.00e+00	0	54	0	277348352	40	4282
2026-01-11 01:53:02.13	164.58	25.24	-35.3	-36.9	25.0	0.00e+00	0	54	0	281018368	41	4522
2026-01-11 01:53:05.16	163.10	24.92	-35.1	-36.6	25.2	0.00e+00	0	54	0	284164096	41	4389
2026-01-11 01:53:08.19	161.65	24.58	-35.1	-36.7	25.1	0.00e+00	0	54	0	287834112	41	4423
2026-01-11 01:53:11.22	160.24	24.24	-35.2	-36.8	25.0	0.00e+00	0	54	0	290979840	41	4458
2026-01-11 01:53:14.24	158.87	23.89	-34.8	-36.4	25.4	0.00e+00	0	54	0	294649856	41	4261
2026-01-11 01:53:17.27	157.53	23.52	-35.2	-36.8	25.0	0.00e+00	0	54	0	297795584	41	4453
2026-01-11 01:53:20.30	156.23	23.15	-35.3	-36.9	24.9	0.00e+00	0	55	0	301465600	41	4534
2026-01-11 01:53:23.33	154.96	22.78	-35.2	-36.8	24.9	0.00e+00	0	54	0	304611328	41	4479
2026-01-11 01:53:26.36	153.73	22.40	-34.7	-36.3	25.4	0.00e+00	0	54	0	308281344	41	4202
2026-01-11 01:53:29.39	152.54	22.01	-35.5	-37.2	24.6	0.00e+00	0	54	0	311427072	41	4653
2026-01-11 01:53:32.42	151.38	21.62	-35.3	-37.0	24.7	0.00e+00	0	54	0	315097088	41	4557
2026-01-11 01:53:35.45	150.25	21.23	-35.5	-37.2	24.5	0.00e+00	0	54	0	318242816	41	4675
2026-01-11 01:53:38.48	149.16	20.84	-35.6	-37.3	24.4	0.00e+00	0	54	0	321912832	41	4738
2026-01-11 01:53:41.51	148.10	20.44	-35.8	-37.5	24.2	0.00e+00	0	55	0	325058560	42	4575
2026-01-11 01:53:44.54	147.07	20.05	-35.7	-37.3	24.3	0.00e+00	0	54	0	328728576	42	4489
2026-01-11 01:53:47.57	146.08	19.66	-35.7	-37.4	24.3	0.00e+00	0	55	0	331874304	42	4495
2026-01-11 01:53:50.60	145.11	19.27	-36.0	-37.8	23.8	0.00e+00	0	54	0	335544320	43	4446
2026-01-11 01:53:53.63	144.18	18.88	-35.8	-37.5	24.1	0.00e+00	0	55	0	338690048	43	4298
2026-01-11 01:53:56.65	143.28	18.49	-35.9	-37.7	23.9	0.00e+00	0	55	0	342360064	43	4393
2026-01-11 01:53:59.68	142.40	18.10	-35.8	-37.4	24.1	0.00e+00	0	55	0	345505792	43	4289
2026-01-11 01:54:02.71	141.55	17.72	-36.3	-38.1	23.4	0.00e+00	0	54	0	349175808	43	4641
2026-01-11 01:54:05.74	140.72	17.34	-36.1	-37.9	23.6	0.00e+00	0	55	0	352321536	43	4494
2026-01-11 01:54:08.77	139.92	16.96	-36.3	-38.1	23.4	0.00e+00	0	55	0	355991552	43	4603
2026-01-11 01:54:11.80	139.15	16.59	-36.5	-38.3	23.2	0.00e+00	0	54	0	359137280	43	4734
2026-01-11 01:54:14.82	138.40	16.22	-37.0	-38.9	22.7	0.00e+00	0	55	0	362807296	44	4797
2026-01-11 01:54:17.85	137.67	15.86	-36.9	-38.9	22.7	0.00e+00	0	55	0	365953024	44	4771
2026-01-11 01:54:20.88	136.96	15.50	-36.6	-38.7	22.8	0.00e+00	0	55	0	369623040	44	4689
2026-01-11 01:54:23.90	136.28	15.14	-37.3	-39.3	22.2	0.00e+00	0	55	0	372768768	45	4737
2026-01-11 01:54:26.94	135.61	14.79	-37.3	-39.4	21.8	1.37e-05	0	55	0	376438784	45	4796
2026-01-11 01:54:29.97	134.97	14.44	-37.1	-39.2	21.8	1.09e-04	0	54	0	379584512	44	4961
2026-01-11 01:54:32.99	134.34	14.10	-36.1	-39.5	20.0	4.84e-04	0	55	0	383254528	45	4853
2026-01-11 01:54:36.02	133.73	13.75	-37.0	-39.9	20.4	6.67e-04	0	55	0	386400256	44	5389
2026-01-11 01:54:39.05	133.14	13.42	-37.3	-40.1	19.1	6.30e-03	0	55	0	390070272	45	5170
2026-01-11 01:54:42.08	132.57	13.09	-34.6	-39.7	16.3	4.72e-03	0	55	0	393216000	42	5920
2026-01-11 01:54:45.11	132.01	12.76	-33.8	-39.8	13.7	3.93e-02	0	55	0	396886016	37	7906
2026-01-11 01:54:48.13	131.48	12.44	-30.6	-40.4	12.2	7.47e-02	0	55	0	400031744	37	8517
2026-01-11 01:54:51.16	130.95	12.12	-25.0	-38.9	10.9	1.55e-01	0	54	0	403177472	31	10113
2026-01-11 01:54:54.19	130.44	11.81	-28.0	-38.9	9.5	2.33e-01	0	55	0	406323200	27	12741
2026-01-11 01:54:57.22	129.94	11.50	-28.6	-39.3	9.3	3.22e-01	0	55	0	408944640	29	11915
2026-01-11 01:55:00.25	129.46	11.19	-28.6	-39.3	8.7	4.18e-01	0	55	0	411566080	25	14949
2026-01-11 01:55:03.28	128.99	10.89	-26.9	-38.6	7.5	4.71e-01	0	55	0	413663232	23	15550
2026-01-11 01:55:06.31	128.54	10.59	-27.9	-41.0	6.8	4.81e-01	0	55	0	415236096	23	20464
2026-01-11 01:55:09.34	128.09	10.30	-25.0	-38.8	7.6	5.95e-01	0	55	0	416284672	22	16763
2026-01-11 01:55:12.37	127.66	10.01	-28.2	-40.3	7.2	5.26e-01	0	55	0	417333248	26	15776
2026-01-11 01:55:15.40	127.24	9.72	-24.2	-39.2	6.3	5.35e-01	0	55	0	418906112	20	19688
2026-01-11 01:55:18.43	126.83	9.44	-26.1	-40.4	7.8	5.14e-01	0	55	0	420478976	27	15094
2026-01-11 01:55:21.46	126.43	9.16	-30.9	-40.6	8.6	5.31e-01	0	55	0	422051840	28	14598
2026-01-11 01:55:24.49	126.04	8.88	-32.0	-40.9	9.3	3.94e-01	0	55	0	424148992	30	13451
2026-01-11 01:55:27.52	125.66	8.61	-32.8	-41.3	11.2	1.71e-01	0	55	0	426770432	35	10602
2026-01-11 01:55:30.55	125.29	8.34	-31.4	-41.6	12.3	1.61e-01	0	55	0	429916160	37	9802
2026-01-11 01:55:33.58	124.93	8.08	-26.9	-42.3	5.7	7.06e-02	0	55	0	433061888	22	25198
2026-01-11 01:55:36.61	124.58	7.82	-44.7	-62.8	3.8	8.10e-01	0	55	104	434110464	59	31557
2026-01-11 01:55:39.64	124.24	7.56	-42.5	-63.4	3.7	8.46e-01	0	55	104	434110464	56	40187
2026-01-11 01:55:42.67	123.91	7.30	-45.5	-63.7	3.8	8.47e-01	0	55	104	434110464	61	31287
2026-01-11 01:55:45.70	123.58	7.05	-45.3	-63.7	3.8	8.46e-01	0	55	104	434110464	61	31141
2026-01-11 01:55:48.74	123.26	6.80	-45.2	-63.6	3.8	8.47e-01	0	55	104	434110464	61	30920
2026-01-11 01:55:51.77	122.95	6.56	-45.1	-63.5	3.8	8.46e-01	0	55	104	434110464	61	30544
2026-01-11 01:55:54.80	122.65	6.31	-45.1	-63.5	3.8	8.46e-01	0	55	104	434110464	61	30443
2026-01-11 01:55:57.84	122.35	6.07	-45.1	-63.5	3.8	8.47e-01	0	55	104	434110464	61	30503
2026-01-11 01:56:00.87	122.06	5.84	-45.1	-63.5	3.8	8.45e-01	0	55	104	434110464	61	30520
2026-01-11 01:56:03.90	121.78	5.60	-45.1	-63.5	3.8	8.46e-01	0	55	104	434110464	61	30480
2026-01-11 01:56:06.93	121.50	5.37	-45.0	-63.5	3.8	8.46e-01	0	55	104	434110464	61	30488
2026-01-11 01:56:09.97	121.23	5.14	-45.0	-63.5	3.8	8.46e-01	0	55	104	434110464	61	30460
2026-01-11 01:56:13.00	120.97	4.91	-45.0	-63.5	3.8	8.46e-01	0	55	104	434110464	61	30491
2026-01-11 01:56:16.03	120.71	4.69	-45.0	-63.5	3.8	8.46e-01	0	55	104	434110464	61	30451
2026-01-11 01:56:19.07	120.46	4.46	-44.9	-63.4	3.8	8.47e-01	0	55	104	434110464	61	30261
2026-01-11 01:56:22.10	120.21	4.24	-45.0	-63.5	3.8	8.47e-01	0	55	104	434110464	61	30396
2026-01-11 01:56:25.14	119.97	4.03	-45.0	-63.4	3.8	8.46e-01	0	55	104	434110464	61	30357
2026-01-11 01:56:28.17	119.73	3.81	-44.8	-63.4	3.8	8.45e-01	0	55	104	434110464	61	30364
2026-01-11 01:56:31.20	119.50	3.60	-45.0	-63.4	3.8	8.47e-01	0	55	104	434110464	61	30326
2026-01-11 01:56:34.23	119.27	3.39	-44.9	-63.4	3.8	8.46e-01	0	55	104	434110464	61	30299
2026-01-11 01:56:37.27	119.05	3.18	-44.8	-63.4	3.8	8.45e-01	0	55	104	434110464	61	30240
2026-01-11 01:56:40.30	118.83	2.97	-45.0	-63.4	3.8	8.46e-01	0	55	104	434110464	61	30338
2026-01-11 01:56:43.33	118.62	2.77	-44.9	-63.4	3.8	8.46e-01	0	55	104	434110464	61	30303
2026-01-11 01:56:46.37	118.41	2.56	-44.9	-63.4	3.8	8.46e-01	0	55	104	434110464	61	30330
2026-01-11 01:56:49.40	118.21	2.36	-44.9	-63.4	3.8	8.46e-01	0	55	104	434110464	61	30281
2026-01-11 01:56:52.43	118.01	2.16	-44.9	-63.4	3.8	8.47e-01	0	55	104	434110464	61	30252
2026-01-11 01:56:55.46	117.81	1.97	-45.0	-63.4	3.8	8.46e-01	0	55	104	434110464	61	30360

#Closed at: 2026-01-11 01:56:57
#Recorded file [434 MB]: D:/lorett/data/31039_260111_044746.dat