passes_logs/2026/01/11/R2.0S_Moscow/R2.0S_Moscow__20260111_000917_FENGYUN_3D_rec.log

#Pass ID: 20260111_000917_FENGYUN 3D
#Satellite: FENGYUN 3D
#Configuration: FENGYUN 3D
#almurnet v.1.7.20251203
#Start time: 2026-01-11 00:09:18

#Version: 2.2.20231116
#Station: R2.0S_Moscow
#Location: 37.707566 lon 55.798166 lat
#TLE: 1 43010U 17072A   26009.92921666 -.00000228  00000+0 -86059-4 0  9998
#TLE: 2 43010  98.9936 341.6668 0002176 116.7510 243.3888 14.19693142422537

#Time	Az	El	Level	Level2	SNR	BER	BlckErr	Temp	State	Recorded	gain1	gain2
2026-01-11 00:09:18.41	26.54	2.05	-41.5	-53.5	3.8	8.47e-01	0	48	0	0	54	14379
2026-01-11 00:09:21.44	26.77	2.21	-41.4	-53.4	3.8	8.47e-01	0	48	104	0	53	15182
2026-01-11 00:09:24.47	27.00	2.38	-41.4	-53.4	3.8	8.46e-01	0	48	104	0	53	15224
2026-01-11 00:09:27.50	27.24	2.54	-41.4	-53.4	3.8	8.47e-01	0	49	104	0	53	15174
2026-01-11 00:09:30.54	27.47	2.70	-41.4	-53.4	3.8	8.46e-01	0	49	104	0	53	15202
2026-01-11 00:09:33.57	27.71	2.87	-41.4	-53.4	3.8	8.46e-01	0	49	104	0	53	15223
2026-01-11 00:09:36.60	27.95	3.03	-41.4	-53.4	3.8	8.46e-01	0	49	104	0	53	15130
2026-01-11 00:09:39.63	28.20	3.20	-41.4	-53.4	3.8	8.46e-01	0	49	104	0	53	15162
2026-01-11 00:09:42.67	28.45	3.36	-41.4	-53.4	3.8	8.46e-01	0	50	104	0	53	15167
2026-01-11 00:09:45.70	28.70	3.53	-41.4	-53.4	3.8	8.45e-01	0	50	104	0	53	15146
2026-01-11 00:09:48.73	28.95	3.70	-41.4	-53.4	3.8	8.46e-01	0	50	104	0	53	15131
2026-01-11 00:09:51.77	29.20	3.86	-41.4	-53.4	3.8	8.46e-01	0	50	104	0	53	15203
2026-01-11 00:09:54.80	29.46	4.03	-41.4	-53.4	3.8	8.46e-01	0	50	104	0	53	15131
2026-01-11 00:09:57.83	29.72	4.20	-41.4	-53.4	3.8	8.46e-01	0	50	104	0	53	15105
2026-01-11 00:10:00.87	29.99	4.37	-41.4	-53.4	3.8	8.46e-01	0	51	104	0	53	15119
2026-01-11 00:10:03.90	30.25	4.54	-41.4	-53.4	3.8	8.47e-01	0	51	104	0	53	15177
2026-01-11 00:10:06.93	30.52	4.71	-41.4	-53.4	3.8	8.46e-01	0	51	104	0	53	15161
2026-01-11 00:10:09.96	30.80	4.88	-41.4	-53.4	3.8	8.46e-01	0	51	104	0	53	15139
2026-01-11 00:10:13.00	31.07	5.05	-41.4	-53.4	3.8	8.45e-01	0	51	104	0	53	15144
2026-01-11 00:10:16.03	31.35	5.23	-41.4	-53.4	3.8	8.46e-01	0	51	104	0	53	15157
2026-01-11 00:10:19.06	31.63	5.40	-41.4	-53.4	3.8	8.46e-01	0	51	104	0	53	15121
2026-01-11 00:10:22.09	31.92	5.57	-41.4	-53.4	3.8	8.47e-01	0	52	104	0	53	15118
2026-01-11 00:10:25.12	32.21	5.75	-41.4	-53.4	3.8	8.47e-01	0	52	104	0	53	15114
2026-01-11 00:10:28.16	32.50	5.92	-41.4	-53.4	3.8	8.46e-01	0	52	104	0	53	15160
2026-01-11 00:10:31.19	32.79	6.10	-41.4	-53.4	3.8	8.45e-01	0	52	104	0	53	15133
2026-01-11 00:10:34.22	33.09	6.27	-41.4	-53.4	3.8	8.46e-01	0	52	104	0	53	15106
2026-01-11 00:10:37.26	33.39	6.45	-41.4	-53.4	3.8	8.46e-01	0	52	104	0	53	15096
2026-01-11 00:10:40.29	33.70	6.63	-41.4	-53.3	3.8	8.46e-01	0	53	104	0	53	15048
2026-01-11 00:10:43.32	34.01	6.81	-41.4	-53.3	3.8	8.46e-01	0	52	104	0	53	15011
2026-01-11 00:10:46.36	34.32	6.98	-41.4	-53.4	3.8	8.45e-01	0	53	104	0	53	15182
2026-01-11 00:10:49.39	34.64	7.16	-41.4	-52.7	3.8	8.46e-01	0	53	104	0	53	13937
2026-01-11 00:10:52.42	34.96	7.34	-41.4	-53.2	3.8	8.46e-01	0	53	104	0	53	14722
2026-01-11 00:10:55.46	35.28	7.52	-41.4	-53.1	3.8	8.46e-01	0	53	104	0	53	14559
2026-01-11 00:10:58.49	35.61	7.70	-41.3	-52.1	3.8	8.47e-01	0	53	104	0	53	13030
2026-01-11 00:11:01.52	35.94	7.88	-40.8	-48.7	4.5	8.32e-01	0	53	0	0	53	8848
2026-01-11 00:11:04.56	36.28	8.07	-40.2	-44.6	8.3	2.20e-01	0	53	0	2097152	52	5797
2026-01-11 00:11:07.59	36.62	8.25	-40.4	-48.8	4.5	1.41e-01	0	53	0	15728640	51	10052
2026-01-11 00:11:10.62	36.96	8.43	-37.4	-39.5	14.0	4.50e-06	0	53	0	26214400	46	4562
2026-01-11 00:11:13.65	37.31	8.61	-37.0	-38.9	14.6	2.20e-06	0	53	0	42991616	45	4525
2026-01-11 00:11:16.68	37.66	8.80	-37.2	-39.2	14.4	2.20e-06	0	54	0	59768832	45	4696
2026-01-11 00:11:19.71	38.01	8.98	-37.3	-39.4	14.4	1.10e-06	0	54	0	77594624	45	4765
2026-01-11 00:11:22.74	38.37	9.16	-37.3	-39.3	14.5	0.00e+00	0	54	0	94371840	45	4736
2026-01-11 00:11:25.77	38.74	9.35	-37.5	-39.5	14.4	1.10e-06	0	54	0	111149056	45	4830
2026-01-11 00:11:28.80	39.11	9.53	-37.6	-39.6	14.5	2.20e-06	0	54	0	128974848	46	4617
2026-01-11 00:11:31.83	39.48	9.72	-37.5	-39.4	14.8	0.00e+00	0	54	0	145752064	46	4506
2026-01-11 00:11:34.86	39.86	9.90	-37.5	-39.4	14.8	1.10e-06	0	54	0	162529280	46	4518
2026-01-11 00:11:37.89	40.24	10.09	-37.6	-39.4	14.8	1.10e-06	0	54	0	179306496	46	4541
2026-01-11 00:11:40.92	40.63	10.27	-37.3	-39.2	15.1	0.00e+00	0	54	0	196083712	46	4405
2026-01-11 00:11:43.96	41.03	10.46	-37.5	-39.3	14.9	0.00e+00	0	54	0	213909504	46	4483
2026-01-11 00:11:46.98	41.42	10.65	-37.3	-39.2	15.1	0.00e+00	0	54	0	230686720	46	4392
2026-01-11 00:11:50.01	41.82	10.83	-37.2	-38.9	15.4	0.00e+00	0	54	0	247463936	46	4282
2026-01-11 00:11:53.04	42.23	11.02	-37.0	-38.7	15.6	0.00e+00	0	54	0	264241152	45	4422
2026-01-11 00:11:56.06	42.64	11.21	-36.8	-38.5	15.8	0.00e+00	0	54	0	282066944	45	4313
2026-01-11 00:11:59.09	43.06	11.39	-36.8	-38.4	16.0	0.00e+00	0	54	0	298844160	45	4290
2026-01-11 00:12:02.12	43.48	11.58	-36.8	-38.4	16.0	0.00e+00	0	55	0	315621376	45	4269
2026-01-11 00:12:05.15	43.91	11.77	-36.9	-38.6	15.9	0.00e+00	0	54	0	333447168	45	4352
2026-01-11 00:12:08.18	44.34	11.96	-36.8	-38.4	16.0	0.00e+00	0	55	0	350224384	45	4286
2026-01-11 00:12:11.21	44.78	12.14	-36.8	-38.4	16.1	0.00e+00	0	54	0	367001600	45	4273
2026-01-11 00:12:14.23	45.23	12.33	-36.9	-38.5	16.0	0.00e+00	0	55	0	383778816	45	4338
2026-01-11 00:12:17.27	45.68	12.52	-36.9	-38.6	16.0	0.00e+00	0	55	0	400556032	45	4348
2026-01-11 00:12:20.30	46.13	12.71	-37.0	-38.7	15.9	0.00e+00	0	55	0	418381824	45	4424
2026-01-11 00:12:23.33	46.59	12.89	-36.9	-38.6	16.0	0.00e+00	0	55	0	435159040	45	4359
2026-01-11 00:12:26.36	47.06	13.08	-36.8	-38.5	16.1	0.00e+00	0	55	0	451936256	45	4295
2026-01-11 00:12:29.39	47.53	13.27	-36.6	-38.2	16.4	0.00e+00	0	55	0	468713472	45	4181
2026-01-11 00:12:32.42	48.01	13.45	-36.4	-38.0	16.7	0.00e+00	0	55	0	486539264	44	4301
2026-01-11 00:12:35.45	48.50	13.64	-36.5	-38.1	16.6	0.00e+00	0	55	0	503316480	44	4348
2026-01-11 00:12:38.49	48.99	13.82	-36.5	-38.0	16.7	0.00e+00	0	55	0	520093696	44	4303
2026-01-11 00:12:41.51	49.48	14.01	-36.4	-37.9	16.8	0.00e+00	0	55	0	537919488	44	4272
2026-01-11 00:12:44.55	49.99	14.19	-36.5	-38.1	16.7	0.00e+00	0	55	0	554696704	44	4346
2026-01-11 00:12:47.58	50.49	14.38	-36.3	-37.8	16.9	0.00e+00	0	55	0	571473920	44	4226
2026-01-11 00:12:50.61	51.01	14.56	-36.2	-37.7	17.0	0.00e+00	0	55	0	588251136	44	4153
2026-01-11 00:12:53.64	51.53	14.74	-36.2	-37.7	17.0	0.00e+00	0	55	0	605028352	44	4167
2026-01-11 00:12:56.67	52.06	14.92	-36.2	-37.6	17.1	0.00e+00	0	55	0	622854144	44	4136
2026-01-11 00:12:59.70	52.59	15.10	-36.2	-37.6	17.1	0.00e+00	0	55	0	639631360	44	4144
2026-01-11 00:13:02.71	53.13	15.28	-36.1	-37.6	17.2	0.00e+00	0	55	0	656408576	44	4114
2026-01-11 00:13:05.74	53.67	15.46	-36.1	-37.5	17.2	0.00e+00	0	55	0	673185792	44	4071
2026-01-11 00:13:08.77	54.22	15.64	-35.8	-37.2	17.4	0.00e+00	0	55	0	691011584	43	4164
2026-01-11 00:13:11.80	54.78	15.81	-35.8	-37.2	17.4	0.00e+00	0	55	0	707788800	43	4170
2026-01-11 00:13:14.83	55.35	15.99	-35.8	-37.3	17.3	0.00e+00	0	55	0	724566016	43	4194
2026-01-11 00:13:17.86	55.92	16.16	-36.0	-37.5	17.1	0.00e+00	0	55	0	742391808	43	4310
2026-01-11 00:13:20.89	56.50	16.33	-35.9	-37.4	17.2	0.00e+00	0	55	0	759169024	43	4254
2026-01-11 00:13:23.92	57.08	16.50	-35.9	-37.4	17.2	0.00e+00	0	55	0	775946240	43	4257
2026-01-11 00:13:26.95	57.67	16.67	-35.7	-37.1	17.4	0.00e+00	0	55	0	792723456	43	4128
2026-01-11 00:13:29.98	58.27	16.84	-35.8	-37.3	17.3	0.00e+00	0	55	0	809500672	43	4198
2026-01-11 00:13:33.01	58.87	17.00	-35.8	-37.2	17.4	0.00e+00	0	55	0	827326464	43	4165
2026-01-11 00:13:36.03	59.48	17.16	-35.5	-36.9	17.6	0.00e+00	0	55	0	844103680	43	4038
2026-01-11 00:13:39.07	60.10	17.33	-35.6	-37.0	17.6	0.00e+00	0	55	0	860880896	42	4299
2026-01-11 00:13:42.10	60.72	17.48	-35.6	-37.0	17.6	0.00e+00	0	56	0	877658112	42	4315
2026-01-11 00:13:45.13	61.35	17.64	-35.5	-36.9	17.7	0.00e+00	0	56	0	895483904	42	4246
2026-01-11 00:13:48.16	61.99	17.80	-35.4	-36.8	17.8	0.00e+00	0	56	0	912261120	42	4205
2026-01-11 00:13:51.19	62.63	17.95	-35.3	-36.6	18.0	0.00e+00	0	56	0	929038336	42	4131
2026-01-11 00:13:54.22	63.28	18.10	-35.5	-36.8	17.7	0.00e+00	0	56	0	946864128	42	4237
2026-01-11 00:13:57.25	63.94	18.24	-35.4	-36.9	17.4	0.00e+00	0	56	0	963641344	42	4278
2026-01-11 00:14:00.28	64.60	18.39	-35.1	-36.6	17.6	0.00e+00	0	55	0	980418560	42	4132
2026-01-11 00:14:03.31	65.27	18.53	-35.3	-36.9	17.4	0.00e+00	0	56	0	997195776	42	4255
2026-01-11 00:14:06.34	65.94	18.67	-35.1	-36.6	17.6	0.00e+00	0	56	0	1013972992	42	4128
2026-01-11 00:14:09.37	66.62	18.80	-35.0	-36.5	17.6	0.00e+00	0	56	0	1031798784	41	4292
2026-01-11 00:14:12.40	67.31	18.93	-35.0	-36.5	17.6	0.00e+00	0	56	0	1048576000	41	4308
2026-01-11 00:14:15.42	67.99	19.06	-35.1	-36.6	17.3	0.00e+00	0	56	0	1065353216	41	4374
2026-01-11 00:14:18.45	68.69	19.18	-35.1	-36.6	17.1	0.00e+00	0	56	0	1082130432	41	4385
2026-01-11 00:14:21.48	69.39	19.31	-35.3	-36.9	16.7	0.00e+00	0	56	0	1099956224	41	4522
2026-01-11 00:14:24.51	70.10	19.42	-35.4	-37.1	16.3	0.00e+00	0	56	0	1116733440	41	4631
2026-01-11 00:14:27.54	70.81	19.54	-35.6	-37.4	15.8	0.00e+00	0	56	0	1133510656	41	4768
2026-01-11 00:14:30.56	71.53	19.65	-35.6	-37.4	15.7	0.00e+00	0	56	0	1151336448	41	4794
2026-01-11 00:14:33.59	72.25	19.75	-35.8	-37.6	15.6	0.00e+00	0	56	0	1168113664	42	4617
2026-01-11 00:14:36.62	72.98	19.86	-35.9	-37.7	15.5	0.00e+00	0	56	0	1184890880	42	4686
2026-01-11 00:14:39.65	73.72	19.95	-35.8	-37.7	15.5	0.00e+00	0	56	0	1201668096	42	4654
2026-01-11 00:14:42.68	74.45	20.05	-35.7	-37.5	15.5	0.00e+00	0	56	0	1218445312	42	4579
2026-01-11 00:14:45.71	75.20	20.14	-35.7	-37.5	15.7	0.00e+00	0	56	0	1236271104	42	4551
2026-01-11 00:14:48.74	75.94	20.22	-35.5	-37.2	16.0	0.00e+00	0	56	0	1253048320	42	4441
2026-01-11 00:14:51.77	76.69	20.30	-35.5	-37.2	16.1	0.00e+00	0	56	0	1269825536	42	4402
2026-01-11 00:14:54.79	77.44	20.38	-35.4	-37.1	16.3	0.00e+00	0	56	0	1286602752	42	4342
2026-01-11 00:14:57.82	78.20	20.45	-35.6	-37.3	16.1	0.00e+00	0	56	0	1304428544	42	4466
2026-01-11 00:15:00.85	78.96	20.51	-35.4	-37.1	16.1	0.00e+00	0	56	0	1321205760	42	4386
2026-01-11 00:15:03.88	79.73	20.57	-35.3	-36.9	16.5	0.00e+00	0	56	0	1337982976	42	4273
2026-01-11 00:15:06.91	80.49	20.63	-34.9	-36.5	17.1	0.00e+00	0	56	0	1355808768	41	4310
2026-01-11 00:15:09.94	81.26	20.68	-34.8	-36.3	17.4	0.00e+00	0	56	0	1372585984	41	4204
2026-01-11 00:15:12.97	82.03	20.73	-34.7	-36.2	17.5	0.00e+00	0	56	0	1389363200	41	4176
2026-01-11 00:15:16.00	82.81	20.77	-34.8	-36.3	17.4	0.00e+00	0	56	0	1406140416	41	4221
2026-01-11 00:15:19.03	83.58	20.80	-35.0	-36.5	17.0	0.00e+00	0	56	0	1422917632	41	4329
2026-01-11 00:15:22.06	84.36	20.83	-35.0	-36.6	16.8	0.00e+00	0	56	0	1440743424	41	4385
2026-01-11 00:15:25.09	85.14	20.86	-35.2	-36.9	16.4	0.00e+00	0	56	0	1457520640	41	4523
2026-01-11 00:15:28.12	85.92	20.88	-35.3	-36.9	16.5	0.00e+00	0	56	0	1474297856	41	4521
2026-01-11 00:15:31.15	86.70	20.89	-35.3	-36.9	16.5	0.00e+00	0	56	0	1492123648	41	4531
2026-01-11 00:15:34.18	87.49	20.90	-35.2	-36.8	16.6	0.00e+00	0	56	0	1508900864	41	4483
2026-01-11 00:15:37.22	88.27	20.91	-35.2	-36.8	16.7	0.00e+00	0	56	0	1525678080	41	4464
2026-01-11 00:15:40.25	89.05	20.91	-34.9	-36.5	17.2	0.00e+00	0	56	0	1542455296	41	4310
2026-01-11 00:15:43.28	89.84	20.90	-35.0	-36.6	17.3	0.00e+00	0	56	0	1560281088	41	4347
2026-01-11 00:15:46.31	90.62	20.89	-34.7	-36.2	17.8	0.00e+00	0	56	0	1577058304	41	4174
2026-01-11 00:15:49.34	91.40	20.87	-34.4	-35.8	18.2	0.00e+00	0	56	0	1593835520	40	4218
2026-01-11 00:15:52.37	92.18	20.85	-34.4	-35.8	18.3	0.00e+00	0	56	0	1610612736	40	4231
2026-01-11 00:15:55.40	92.96	20.82	-34.7	-36.1	18.1	0.00e+00	0	56	0	1627389952	40	4374
2026-01-11 00:15:58.42	93.74	20.79	-34.7	-36.1	18.1	0.00e+00	0	56	0	1645215744	40	4370
2026-01-11 00:16:01.46	94.52	20.75	-34.8	-36.3	18.0	0.00e+00	0	56	0	1661992960	40	4464
2026-01-11 00:16:04.49	95.29	20.71	-34.8	-36.2	18.0	0.00e+00	0	56	0	1678770176	40	4438
2026-01-11 00:16:07.52	96.06	20.66	-34.7	-36.1	18.1	0.00e+00	0	56	0	1696595968	40	4382
2026-01-11 00:16:10.55	96.83	20.61	-34.8	-36.2	18.1	0.00e+00	0	56	0	1713373184	40	4414
2026-01-11 00:16:13.58	97.60	20.55	-34.9	-36.3	17.9	0.00e+00	0	56	0	1730150400	40	4484
2026-01-11 00:16:16.60	98.36	20.48	-34.8	-36.3	18.0	0.00e+00	0	56	0	1746927616	40	4453
2026-01-11 00:16:19.63	99.12	20.42	-34.7	-36.1	18.3	0.00e+00	0	56	0	1764753408	40	4348
2026-01-11 00:16:22.66	99.88	20.34	-34.6	-35.9	18.3	0.00e+00	0	56	0	1781530624	40	4286
2026-01-11 00:16:25.69	100.63	20.26	-34.7	-36.1	18.2	0.00e+00	0	56	0	1798307840	40	4369
2026-01-11 00:16:28.73	101.39	20.18	-34.5	-35.9	18.3	0.00e+00	0	56	0	1815085056	40	4283
2026-01-11 00:16:31.76	102.13	20.09	-34.7	-36.2	18.1	0.00e+00	0	56	0	1832910848	40	4396
2026-01-11 00:16:34.79	102.87	20.00	-34.7	-36.1	18.1	0.00e+00	0	56	0	1849688064	40	4391
2026-01-11 00:16:37.81	103.61	19.91	-34.9	-36.3	17.9	0.00e+00	0	56	0	1866465280	40	4482
2026-01-11 00:16:40.85	104.34	19.81	-35.1	-36.6	17.7	0.00e+00	0	56	0	1883242496	40	4617
2026-01-11 00:16:43.88	105.07	19.70	-35.1	-36.6	17.7	0.00e+00	0	56	0	1901068288	40	4620
2026-01-11 00:16:46.91	105.80	19.59	-35.1	-36.6	17.7	0.00e+00	0	56	0	1917845504	40	4622
2026-01-11 00:16:49.94	106.52	19.48	-35.1	-36.6	17.6	0.00e+00	0	56	0	1934622720	40	4639
2026-01-11 00:16:52.97	107.23	19.37	-35.2	-36.7	17.6	0.00e+00	0	56	0	1951399936	40	4666
2026-01-11 00:16:56.00	107.94	19.25	-35.2	-36.7	17.6	0.00e+00	0	56	0	1969225728	41	4410
2026-01-11 00:16:59.03	108.64	19.12	-35.2	-36.7	17.6	0.00e+00	0	56	0	1986002944	41	4402
2026-01-11 00:17:02.06	109.34	19.00	-35.2	-36.7	17.6	0.00e+00	0	56	0	2002780160	41	4392
2026-01-11 00:17:05.09	110.03	18.87	-35.2	-36.7	17.5	0.00e+00	0	56	0	2019557376	41	4426
2026-01-11 00:17:08.12	110.71	18.73	-35.3	-36.8	17.4	0.00e+00	0	56	0	2037383168	41	4472
2026-01-11 00:17:11.15	111.39	18.59	-35.3	-36.8	17.5	0.00e+00	0	56	0	2054160384	41	4450
2026-01-11 00:17:14.18	112.07	18.45	-35.3	-36.8	17.4	0.00e+00	0	56	0	2070937600	41	4460
2026-01-11 00:17:17.21	112.73	18.31	-35.3	-36.8	17.5	0.00e+00	0	56	0	2088763392	41	4448
2026-01-11 00:17:20.24	113.39	18.16	-35.1	-36.5	17.7	0.00e+00	0	56	0	2105540608	41	4336
2026-01-11 00:17:23.27	114.05	18.02	-35.4	-36.9	17.4	0.00e+00	0	56	0	2122317824	41	4501
2026-01-11 00:17:26.30	114.70	17.86	-35.6	-37.2	17.0	0.00e+00	0	56	0	2139095040	41	4703
2026-01-11 00:17:29.33	115.34	17.71	-35.6	-37.2	17.0	0.00e+00	0	56	0	2155872256	41	4667
2026-01-11 00:17:32.36	115.98	17.55	-35.5	-37.1	17.1	1.10e-06	0	56	0	2173698048	41	4607
2026-01-11 00:17:35.39	116.61	17.39	-35.5	-37.1	17.1	0.00e+00	0	56	0	2190475264	41	4622
2026-01-11 00:17:38.42	117.23	17.23	-35.2	-36.9	17.2	0.00e+00	0	56	0	2207252480	41	4514
2026-01-11 00:17:41.45	117.85	17.07	-35.2	-36.8	17.3	3.40e-06	0	56	0	2224029696	41	4472
2026-01-11 00:17:44.48	118.46	16.90	-35.6	-37.2	17.0	0.00e+00	0	56	0	2241855488	41	4669
2026-01-11 00:17:47.51	119.06	16.74	-35.7	-37.5	16.7	0.00e+00	0	56	0	2258632704	42	4558
2026-01-11 00:17:50.54	119.66	16.57	-35.9	-37.6	16.5	1.10e-06	0	56	0	2275409920	42	4632
2026-01-11 00:17:53.57	120.25	16.40	-36.0	-37.8	16.2	2.20e-06	0	56	0	2293235712	42	4756
2026-01-11 00:17:56.60	120.83	16.22	-35.7	-37.7	16.2	5.60e-05	0	56	0	2310012928	42	4701
2026-01-11 00:17:59.63	121.41	16.05	-34.0	-37.5	15.5	1.14e-04	0	56	0	2326790144	40	5119
2026-01-11 00:18:02.66	121.98	15.88	-34.7	-37.5	16.0	2.23e-04	0	56	0	2343567360	39	5430
2026-01-11 00:18:05.69	122.55	15.70	-35.2	-37.3	16.6	3.04e-04	0	56	0	2360344576	41	4713
2026-01-11 00:18:08.72	123.10	15.52	-35.4	-37.3	16.8	2.95e-04	0	56	0	2378170368	41	4729
2026-01-11 00:18:11.75	123.66	15.34	-35.7	-37.4	16.6	2.36e-03	0	56	0	2394947584	41	4794
2026-01-11 00:18:14.78	124.20	15.16	-35.9	-37.7	16.4	1.17e-04	0	56	0	2411724800	42	4655
2026-01-11 00:18:17.81	124.74	14.98	-36.1	-37.8	16.3	3.20e-05	0	56	0	2429550592	42	4733
2026-01-11 00:18:20.84	125.27	14.80	-36.0	-37.7	16.3	6.80e-06	0	56	0	2446327808	42	4702
2026-01-11 00:18:23.87	125.80	14.61	-36.1	-37.9	15.5	2.38e-04	0	56	0	2463105024	42	4785
2026-01-11 00:18:26.90	126.32	14.43	-36.5	-38.3	15.4	1.43e-03	0	56	0	2479882240	43	4729
2026-01-11 00:18:29.94	126.83	14.24	-36.3	-38.3	15.1	7.46e-03	0	56	0	2496659456	43	4742
2026-01-11 00:18:32.97	127.34	14.06	-35.7	-37.9	14.1	3.35e-02	0	56	0	2514485248	41	5093
2026-01-11 00:18:36.00	127.84	13.87	-35.3	-37.9	13.7	4.97e-02	0	56	0	2530213888	41	5080
2026-01-11 00:18:39.03	128.34	13.68	-34.9	-37.9	13.1	7.38e-02	0	56	0	2546991104	41	5054
2026-01-11 00:18:42.06	128.83	13.50	-34.2	-38.0	11.9	1.60e-01	0	56	0	2563768320	37	6457
2026-01-11 00:18:45.09	129.31	13.31	-32.2	-38.0	10.5	3.14e-01	0	56	0	2577399808	36	6875
2026-01-11 00:18:48.12	129.79	13.12	-32.8	-37.7	10.4	1.78e-01	0	56	0	2587885568	33	7870
2026-01-11 00:18:51.15	130.26	12.93	-31.2	-37.2	9.7	2.65e-01	0	56	0	2601517056	33	7373
2026-01-11 00:18:54.18	130.72	12.74	-31.6	-37.7	8.3	3.15e-01	0	57	0	2615148544	32	8305
2026-01-11 00:18:57.20	131.18	12.56	-29.8	-37.2	8.3	3.82e-01	0	56	0	2626682880	29	9311
2026-01-11 00:19:00.23	131.64	12.37	-30.4	-37.5	9.1	4.40e-01	0	56	0	2636120064	30	9153
2026-01-11 00:19:03.26	132.08	12.18	-29.7	-36.9	7.3	3.95e-01	0	56	0	2642411520	26	10771
2026-01-11 00:19:06.29	132.53	11.99	-24.4	-35.5	7.4	4.16e-01	0	56	0	2651848704	29	7689
2026-01-11 00:19:09.32	132.97	11.80	-31.8	-37.4	9.0	4.46e-01	0	56	0	2662334464	31	8471
2026-01-11 00:19:12.35	133.40	11.61	-30.9	-38.3	7.6	3.99e-01	0	56	0	2671771648	30	9979
2026-01-11 00:19:15.37	133.82	11.42	-32.3	-38.0	8.7	2.95e-01	0	56	0	2682257408	32	8661
2026-01-11 00:19:18.40	134.24	11.23	-32.2	-38.5	9.6	2.24e-01	0	56	0	2694840320	39	6123
2026-01-11 00:19:21.43	134.66	11.04	-36.1	-39.4	10.6	1.27e-01	0	56	0	2710568960	41	6017
2026-01-11 00:19:24.46	135.07	10.85	-33.4	-37.2	10.0	5.59e-02	0	56	0	2726297600	35	6614
2026-01-11 00:19:27.49	135.48	10.66	-35.0	-38.9	10.2	1.18e-01	0	56	0	2742026240	41	5700
2026-01-11 00:19:30.52	135.88	10.48	-36.6	-42.6	7.8	4.46e-02	0	56	0	2758803456	45	6906
2026-01-11 00:19:33.54	136.27	10.29	-35.8	-46.3	4.7	5.45e-01	0	56	0	2773483520	35	18830
2026-01-11 00:19:36.58	136.66	10.10	-28.8	-42.2	4.2	8.43e-01	0	56	104	2773483520	28	17668
2026-01-11 00:19:39.60	137.05	9.91	-40.2	-51.1	3.9	8.46e-01	0	56	104	2773483520	51	13010
2026-01-11 00:19:42.63	137.43	9.72	-39.8	-52.8	3.8	8.45e-01	0	57	104	2773483520	51	15939
2026-01-11 00:19:45.66	137.81	9.54	-41.9	-53.3	3.8	8.46e-01	0	57	104	2773483520	53	15030
2026-01-11 00:19:48.69	138.18	9.35	-39.0	-52.9	4.0	8.46e-01	0	56	104	2773483520	52	15097
2026-01-11 00:19:51.71	138.55	9.16	-39.9	-52.4	3.8	8.45e-01	0	57	104	2773483520	49	16945
2026-01-11 00:19:54.74	138.91	8.98	-42.3	-52.0	4.0	8.35e-01	0	56	0	2773483520	56	10800
2026-01-11 00:19:57.77	139.27	8.79	-41.3	-46.7	6.6	2.93e-01	0	57	0	2779774976	53	7003
2026-01-11 00:20:00.80	139.62	8.61	-40.1	-43.5	9.8	1.71e-02	0	57	0	2796552192	52	5138
2026-01-11 00:20:03.83	139.97	8.42	-40.0	-43.3	10.2	9.08e-03	0	56	0	2813329408	50	5612
2026-01-11 00:20:06.86	140.32	8.24	-38.9	-41.6	12.0	6.89e-04	0	56	0	2831155200	49	4894
2026-01-11 00:20:09.89	140.66	8.05	-39.0	-41.7	11.9	7.32e-04	0	56	0	2847932416	49	4976
2026-01-11 00:20:12.92	141.00	7.87	-44.7	-56.1	3.8	8.47e-01	0	57	104	2852126720	59	14606
2026-01-11 00:20:15.95	141.33	7.69	-45.1	-56.8	3.8	8.46e-01	0	57	104	2852126720	60	15023
2026-01-11 00:20:18.99	141.66	7.50	-45.3	-57.0	3.8	8.46e-01	0	56	104	2852126720	61	14459
2026-01-11 00:20:22.02	141.98	7.32	-45.1	-56.9	3.8	8.46e-01	0	56	104	2852126720	61	14306
2026-01-11 00:20:25.05	142.31	7.14	-45.1	-56.9	3.8	8.47e-01	0	57	104	2852126720	61	14294
2026-01-11 00:20:28.08	142.62	6.96	-45.0	-56.8	3.8	8.45e-01	0	57	104	2852126720	61	14138
2026-01-11 00:20:31.11	142.94	6.78	-45.0	-56.8	3.8	8.47e-01	0	57	104	2852126720	61	14116
2026-01-11 00:20:34.14	143.25	6.60	-45.0	-56.8	3.8	8.46e-01	0	57	104	2852126720	60	14949
2026-01-11 00:20:37.17	143.55	6.42	-45.0	-56.8	3.8	8.46e-01	0	57	104	2852126720	60	14973
2026-01-11 00:20:40.20	143.86	6.24	-45.0	-56.8	3.8	8.46e-01	0	57	104	2852126720	60	14924
2026-01-11 00:20:43.24	144.16	6.06	-45.0	-56.8	3.8	8.46e-01	0	57	104	2852126720	60	14947
2026-01-11 00:20:46.27	144.45	5.89	-45.0	-56.8	3.8	8.46e-01	0	56	104	2852126720	60	14943
2026-01-11 00:20:49.30	144.74	5.71	-45.0	-56.8	3.8	8.45e-01	0	56	104	2852126720	60	14961
2026-01-11 00:20:52.34	145.03	5.53	-44.9	-56.8	3.8	8.46e-01	0	57	104	2852126720	60	14939
2026-01-11 00:20:55.37	145.32	5.36	-44.9	-56.8	3.8	8.47e-01	0	56	104	2852126720	60	14911
2026-01-11 00:20:58.41	145.60	5.18	-44.9	-56.8	3.8	8.47e-01	0	57	104	2852126720	60	14955
2026-01-11 00:21:01.44	145.88	5.01	-44.9	-56.8	3.8	8.45e-01	0	57	104	2852126720	60	14936
2026-01-11 00:21:04.47	146.16	4.83	-44.9	-56.8	3.8	8.47e-01	0	57	104	2852126720	60	14897
2026-01-11 00:21:07.50	146.43	4.66	-44.9	-56.8	3.8	8.46e-01	0	57	104	2852126720	60	14885
2026-01-11 00:21:10.54	146.70	4.49	-44.9	-56.8	3.8	8.46e-01	0	57	104	2852126720	60	14913
2026-01-11 00:21:13.57	146.97	4.31	-44.9	-56.8	3.8	8.46e-01	0	57	104	2852126720	60	14880
2026-01-11 00:21:16.60	147.23	4.14	-44.9	-56.8	3.8	8.47e-01	0	57	104	2852126720	60	14894
2026-01-11 00:21:19.63	147.49	3.97	-44.9	-56.8	3.8	8.47e-01	0	57	104	2852126720	60	14896
2026-01-11 00:21:22.67	147.75	3.80	-44.9	-56.7	3.8	8.46e-01	0	57	104	2852126720	60	14871
2026-01-11 00:21:25.70	148.00	3.63	-44.9	-56.8	3.8	8.46e-01	0	57	104	2852126720	60	14892
2026-01-11 00:21:28.73	148.25	3.46	-44.9	-56.7	3.8	8.46e-01	0	57	104	2852126720	60	14835
2026-01-11 00:21:31.76	148.50	3.29	-44.9	-56.7	3.8	8.45e-01	0	57	104	2852126720	60	14827
2026-01-11 00:21:34.80	148.75	3.12	-44.9	-56.7	3.8	8.47e-01	0	57	104	2852126720	60	14853
2026-01-11 00:21:37.83	149.00	2.96	-44.9	-56.7	3.8	8.46e-01	0	57	104	2852126720	60	14872
2026-01-11 00:21:40.87	149.24	2.79	-44.9	-56.7	3.8	8.47e-01	0	57	104	2852126720	60	14869
2026-01-11 00:21:43.90	149.48	2.62	-44.9	-56.7	3.8	8.45e-01	0	57	104	2852126720	60	14827
2026-01-11 00:21:46.93	149.71	2.46	-44.9	-56.7	3.8	8.47e-01	0	57	104	2852126720	60	14817
2026-01-11 00:21:49.97	149.95	2.29	-44.9	-56.7	3.8	8.47e-01	0	57	104	2852126720	60	14830
2026-01-11 00:21:53.00	150.18	2.13	-44.9	-56.7	3.8	8.47e-01	0	56	104	2852126720	60	14815
2026-01-11 00:21:56.03	150.41	1.96	-44.9	-56.7	3.8	8.46e-01	0	57	104	2852126720	60	14801

#Closed at: 2026-01-11 00:21:56
#Recorded file [2852 MB]: D:/lorett/data/31039_260111_030918.dat