passes_logs/2026/01/11/R2.0S_Moscow/R2.0S_Moscow__20260111_104017_SUOMI_NPP_rec.log

#Pass ID: 20260111_104017_SUOMI NPP
#Satellite: SUOMI NPP
#Configuration: NPP
#almurnet v.1.7.20251203
#Start time: 2026-01-11 10:40:19

#Version: 2.2.20231116
#Station: R2.0S_Moscow
#Location: 37.707566 lon 55.798166 lat
#TLE: 1 37849U 11061A   26009.81756760  .00000113  00000+0  74747-4 0  9994
#TLE: 2 37849  98.7806 311.9110 0002525  72.5604 287.5848 14.19524046735974

#Time	Az	El	Level	Level2	SNR	BER	BlckErr	Temp	State	Recorded	gain1	gain2
2026-01-11 10:40:19.60	180.65	2.15	-44.0	-58.5	3.8	1.49e+00	0	47	0	0	59	19195
2026-01-11 10:40:23.63	180.79	2.40	-44.0	-58.5	3.8	1.49e+00	0	48	104	0	59	19222
2026-01-11 10:40:27.68	180.93	2.66	-44.0	-58.5	3.8	1.49e+00	0	48	104	0	59	19197
2026-01-11 10:40:31.72	181.07	2.92	-44.0	-58.5	3.8	1.49e+00	0	48	104	0	59	19254
2026-01-11 10:40:35.77	181.21	3.18	-44.0	-58.5	3.8	1.49e+00	0	48	104	0	59	19212
2026-01-11 10:40:39.81	181.36	3.44	-44.0	-58.5	3.8	1.49e+00	0	49	104	0	59	19172
2026-01-11 10:40:43.86	181.50	3.71	-44.0	-58.5	3.8	1.49e+00	0	49	104	0	59	19220
2026-01-11 10:40:47.90	181.65	3.98	-44.0	-58.4	3.8	1.49e+00	0	49	104	0	59	19154
2026-01-11 10:40:51.94	181.81	4.25	-44.0	-58.4	3.8	1.49e+00	0	49	104	0	59	18993
2026-01-11 10:40:55.99	181.96	4.53	-44.0	-57.6	3.8	1.49e+00	0	50	104	0	59	17458
2026-01-11 10:41:00.03	182.12	4.80	-44.0	-57.1	3.8	1.49e+00	0	50	104	0	59	16492
2026-01-11 10:41:04.08	182.28	5.08	-43.9	-57.1	3.8	1.49e+00	0	50	104	0	59	16335
2026-01-11 10:41:08.12	182.45	5.37	-43.9	-56.5	3.8	1.49e+00	0	50	104	0	59	15292
2026-01-11 10:41:12.16	182.61	5.65	-43.9	-56.0	4.0	1.48e+00	0	51	104	0	59	14502
2026-01-11 10:41:16.21	182.78	5.94	-43.9	-55.8	3.8	1.48e+00	0	51	104	0	59	14077
2026-01-11 10:41:20.25	182.96	6.23	-43.8	-55.5	3.9	1.44e+00	0	51	104	0	59	13690
2026-01-11 10:41:24.29	183.13	6.53	-43.8	-54.8	4.2	1.39e+00	0	51	0	0	59	12546
2026-01-11 10:41:28.34	183.31	6.82	-43.4	-52.1	5.5	5.85e-01	0	51	0	6291456	58	9757
2026-01-11 10:41:32.38	183.50	7.12	-42.8	-49.1	8.0	7.20e-02	0	52	0	13631488	57	7344
2026-01-11 10:41:36.42	183.68	7.43	-42.0	-46.8	10.4	6.29e-03	0	52	0	20971520	56	5968
2026-01-11 10:41:40.46	183.87	7.74	-41.5	-45.7	11.4	9.72e-04	0	52	0	29360128	54	5911
2026-01-11 10:41:44.50	184.07	8.05	-41.8	-46.2	11.3	8.12e-04	0	52	0	36700160	54	6251
2026-01-11 10:41:48.54	184.27	8.36	-41.4	-45.4	11.9	8.00e-03	0	52	0	44040192	54	5698
2026-01-11 10:41:52.58	184.47	8.68	-41.2	-45.1	12.1	4.73e-04	0	53	0	51380224	54	5481
2026-01-11 10:41:56.62	184.68	9.00	-41.3	-45.3	12.0	4.85e-04	0	53	0	58720256	54	5606
2026-01-11 10:42:00.66	184.89	9.33	-41.4	-45.4	11.8	3.45e-04	0	53	0	67108864	54	5696
2026-01-11 10:42:04.70	185.10	9.66	-41.2	-44.9	12.4	2.22e-04	0	53	0	74448896	54	5383
2026-01-11 10:42:08.73	185.32	9.99	-41.0	-44.5	12.8	6.86e-05	0	53	0	81788928	54	5121
2026-01-11 10:42:12.77	185.55	10.33	-40.9	-44.3	13.0	5.49e-05	0	53	0	89128960	53	5338
2026-01-11 10:42:16.81	185.78	10.68	-40.7	-44.0	13.3	2.28e-05	0	53	0	96468992	53	5156
2026-01-11 10:42:20.85	186.02	11.02	-40.6	-43.7	13.6	9.90e-06	0	53	0	104857600	53	4982
2026-01-11 10:42:24.89	186.26	11.37	-40.5	-43.6	13.7	4.50e-06	0	53	0	112197632	52	5206
2026-01-11 10:42:28.93	186.50	11.73	-40.5	-43.6	13.8	3.00e-06	0	54	0	119537664	52	5160
2026-01-11 10:42:32.97	186.76	12.09	-40.3	-43.2	14.2	0.00e+00	0	53	0	126877696	52	4947
2026-01-11 10:42:37.01	187.01	12.46	-40.1	-43.0	14.5	7.00e-07	0	54	0	135266304	52	4816
2026-01-11 10:42:41.04	187.28	12.83	-40.2	-43.0	14.6	3.00e-06	0	54	0	142606336	52	4845
2026-01-11 10:42:45.08	187.55	13.21	-40.2	-43.0	14.6	0.00e+00	0	54	0	149946368	52	4854
2026-01-11 10:42:49.12	187.83	13.59	-40.3	-43.1	14.6	7.00e-07	0	54	0	157286400	52	4888
2026-01-11 10:42:53.16	188.11	13.98	-40.2	-43.0	14.6	0.00e+00	0	54	0	164626432	52	4854
2026-01-11 10:42:57.20	188.40	14.37	-40.3	-43.2	14.5	0.00e+00	0	54	0	173015040	52	4959
2026-01-11 10:43:01.24	188.70	14.77	-40.4	-43.4	14.4	7.00e-07	0	54	0	180355072	52	5044
2026-01-11 10:43:05.28	189.01	15.17	-40.5	-43.4	14.3	7.00e-07	0	54	0	187695104	52	5093
2026-01-11 10:43:09.31	189.32	15.58	-40.3	-43.1	14.7	0.00e+00	0	54	0	195035136	52	4880
2026-01-11 10:43:13.35	189.65	16.00	-40.0	-42.6	15.2	0.00e+00	0	54	0	203423744	52	4599
2026-01-11 10:43:17.39	189.98	16.43	-39.8	-42.2	15.7	0.00e+00	0	54	0	210763776	51	4654
2026-01-11 10:43:21.43	190.32	16.86	-39.8	-42.3	15.6	0.00e+00	0	54	0	218103808	51	4714
2026-01-11 10:43:25.47	190.67	17.29	-40.0	-42.5	15.3	0.00e+00	0	55	0	225443840	51	4858
2026-01-11 10:43:29.51	191.03	17.74	-40.0	-42.5	15.4	0.00e+00	0	55	0	232783872	51	4841
2026-01-11 10:43:33.54	191.40	18.19	-39.6	-42.0	15.9	0.00e+00	0	55	0	241172480	51	4578
2026-01-11 10:43:37.58	191.79	18.65	-39.5	-41.8	16.1	0.00e+00	0	55	0	248512512	50	4752
2026-01-11 10:43:41.62	192.18	19.11	-39.5	-41.8	16.2	0.00e+00	0	55	0	255852544	50	4714
2026-01-11 10:43:45.66	192.59	19.59	-39.7	-42.0	15.9	0.00e+00	0	55	0	263192576	50	4861
2026-01-11 10:43:49.70	193.01	20.07	-39.7	-42.1	15.9	0.00e+00	0	55	0	270532608	50	4875
2026-01-11 10:43:53.74	193.44	20.56	-39.8	-42.2	15.9	0.00e+00	0	55	0	278921216	50	4929
2026-01-11 10:43:57.78	193.88	21.05	-39.6	-41.9	16.1	0.00e+00	0	55	0	286261248	50	4788
2026-01-11 10:44:01.82	194.34	21.56	-39.4	-41.6	16.4	0.00e+00	0	55	0	293601280	50	4635
2026-01-11 10:44:05.85	194.81	22.07	-39.4	-41.6	16.4	0.00e+00	0	55	0	300941312	50	4612
2026-01-11 10:44:09.89	195.30	22.59	-39.3	-41.4	16.6	0.00e+00	0	55	0	309329920	50	4538
2026-01-11 10:44:13.93	195.81	23.13	-39.4	-41.5	16.6	0.00e+00	0	55	0	316669952	50	4584
2026-01-11 10:44:17.97	196.33	23.67	-39.6	-41.8	16.2	0.00e+00	0	55	0	324009984	50	4754
2026-01-11 10:44:22.00	196.87	24.21	-40.0	-42.4	15.7	0.00e+00	0	55	0	331350016	50	5067
2026-01-11 10:44:26.04	197.43	24.77	-40.0	-42.4	15.7	0.00e+00	0	55	0	338690048	50	5066
2026-01-11 10:44:30.08	198.01	25.34	-40.0	-42.5	15.6	0.00e+00	0	55	0	347078656	51	4829
2026-01-11 10:44:34.12	198.61	25.92	-40.3	-42.9	15.2	0.00e+00	0	55	0	354418688	51	5082
2026-01-11 10:44:38.16	199.23	26.50	-40.5	-43.1	15.0	0.00e+00	0	55	0	361758720	51	5216
2026-01-11 10:44:42.20	199.87	27.10	-40.2	-42.7	15.4	0.00e+00	0	55	0	369098752	51	4974
2026-01-11 10:44:46.24	200.54	27.70	-40.5	-43.1	15.0	0.00e+00	0	55	0	377487360	51	5203
2026-01-11 10:44:50.28	201.24	28.32	-40.9	-43.8	14.3	7.00e-07	0	55	0	384827392	52	5298
2026-01-11 10:44:54.31	201.96	28.94	-41.1	-44.2	13.9	4.50e-06	0	56	0	392167424	53	5258
2026-01-11 10:44:58.35	202.70	29.57	-41.8	-45.4	12.6	9.99e-05	0	55	0	399507456	54	5716
2026-01-11 10:45:02.39	203.48	30.21	-41.8	-45.3	12.9	4.57e-05	0	55	0	406847488	54	5613
2026-01-11 10:45:06.42	204.29	30.86	-41.7	-45.1	13.1	3.73e-05	0	56	0	415236096	54	5493
2026-01-11 10:45:10.46	205.13	31.52	-41.5	-44.8	13.4	9.10e-06	0	55	0	422576128	54	5312
2026-01-11 10:45:14.50	206.01	32.18	-41.6	-44.9	13.3	1.37e-05	0	56	0	429916160	54	5381
2026-01-11 10:45:18.54	206.92	32.85	-40.9	-43.8	14.4	3.00e-06	0	56	0	437256192	53	4995
2026-01-11 10:45:22.58	207.87	33.54	-40.6	-43.2	15.0	0.00e+00	0	56	0	445644800	52	4961
2026-01-11 10:45:26.62	208.86	34.22	-41.1	-44.1	14.2	2.20e-06	0	56	0	452984832	53	5168
2026-01-11 10:45:30.65	209.89	34.91	-40.8	-43.6	14.6	7.00e-07	0	56	0	460324864	53	4918
2026-01-11 10:45:34.69	210.96	35.61	-40.8	-43.6	14.6	0.00e+00	0	56	0	467664896	52	5196
2026-01-11 10:45:38.73	212.09	36.31	-41.0	-43.9	14.3	2.20e-06	0	56	0	475004928	53	5048
2026-01-11 10:45:42.77	213.26	37.01	-40.6	-43.3	15.0	7.00e-07	0	56	0	483393536	52	5016
2026-01-11 10:45:46.81	214.48	37.72	-40.0	-42.4	15.9	0.00e+00	0	56	0	490733568	52	4501
2026-01-11 10:45:50.84	215.75	38.42	-39.9	-42.1	16.2	0.00e+00	0	56	0	498073600	51	4643
2026-01-11 10:45:54.88	217.08	39.13	-39.8	-42.0	16.3	0.00e+00	0	56	0	505413632	51	4562
2026-01-11 10:45:58.92	218.47	39.83	-40.1	-42.5	15.9	0.00e+00	0	56	0	513802240	51	4821
2026-01-11 10:46:02.96	219.91	40.52	-40.1	-42.5	15.8	0.00e+00	0	56	0	521142272	51	4830
2026-01-11 10:46:06.99	221.42	41.21	-40.8	-43.6	14.7	0.00e+00	0	56	0	528482304	52	5160
2026-01-11 10:46:11.03	222.99	41.88	-39.8	-42.0	16.3	0.00e+00	0	56	0	535822336	51	4584
2026-01-11 10:46:15.06	224.63	42.55	-40.0	-42.3	16.0	0.00e+00	0	56	0	543162368	51	4727
2026-01-11 10:46:19.10	226.34	43.20	-39.8	-42.1	16.3	0.00e+00	0	56	0	551550976	50	4880
2026-01-11 10:46:23.14	228.11	43.83	-40.7	-43.5	14.9	0.00e+00	0	56	0	558891008	52	5122
2026-01-11 10:46:27.18	229.96	44.44	-40.1	-42.5	15.8	0.00e+00	0	56	0	566231040	51	4858
2026-01-11 10:46:31.21	231.87	45.02	-40.4	-42.9	15.4	0.00e+00	0	56	0	573571072	51	5098
2026-01-11 10:46:35.25	233.85	45.58	-40.8	-43.6	14.7	0.00e+00	0	56	0	581959680	52	5203
2026-01-11 10:46:39.29	235.90	46.11	-40.6	-43.3	15.0	7.00e-07	0	56	0	589299712	53	4712
2026-01-11 10:46:43.33	238.02	46.60	-42.1	-45.9	12.3	1.31e-04	0	56	0	596639744	55	5688
2026-01-11 10:46:47.37	240.21	47.05	-41.8	-45.3	12.9	1.33e-04	0	56	0	603979776	55	5324
2026-01-11 10:46:51.40	242.45	47.47	-42.2	-46.0	12.3	2.44e-05	0	56	0	611319808	54	6062
2026-01-11 10:46:55.44	244.75	47.83	-42.9	-47.4	11.0	8.82e-04	0	56	0	619708416	56	6378
2026-01-11 10:46:59.48	247.10	48.16	-41.6	-44.8	13.4	4.04e-05	0	56	0	627048448	55	5015
2026-01-11 10:47:03.51	249.49	48.43	-41.9	-45.4	12.8	7.70e-05	0	56	0	634388480	55	5362
2026-01-11 10:47:07.56	251.93	48.65	-41.8	-45.3	13.0	3.81e-05	0	56	0	641728512	54	5641
2026-01-11 10:47:11.59	254.39	48.81	-41.3	-44.4	13.8	0.00e+00	0	56	0	650117120	53	5366
2026-01-11 10:47:15.63	256.87	48.92	-40.7	-43.5	14.9	0.00e+00	0	56	0	657457152	53	4837
2026-01-11 10:47:19.66	259.36	48.97	-40.2	-42.7	15.6	0.00e+00	0	56	0	664797184	52	4687
2026-01-11 10:47:23.70	261.86	48.97	-40.9	-43.8	14.6	0.00e+00	0	56	0	672137216	53	4995
2026-01-11 10:47:27.74	264.36	48.90	-40.0	-42.3	15.9	0.00e+00	0	56	0	679477248	52	4486
2026-01-11 10:47:31.78	266.84	48.78	-41.6	-44.9	13.5	2.20e-06	0	56	0	687865856	53	5677
2026-01-11 10:47:35.82	269.30	48.61	-42.4	-46.4	11.9	2.30e-04	0	56	0	695205888	55	6028
2026-01-11 10:47:39.86	271.72	48.38	-43.3	-48.5	9.8	1.20e-02	0	56	0	702545920	57	6831
2026-01-11 10:47:43.90	274.11	48.10	-41.4	-44.5	13.7	1.06e-05	0	56	0	709885952	54	5131
2026-01-11 10:47:47.94	276.45	47.77	-42.5	-46.8	11.4	1.26e-03	0	56	0	718274560	55	6283
2026-01-11 10:47:51.98	278.73	47.39	-41.5	-44.7	13.4	2.99e-04	0	57	0	725614592	55	4980
2026-01-11 10:47:56.02	280.96	46.97	-43.2	-48.3	9.9	2.65e-02	0	56	0	732954624	57	6683
2026-01-11 10:48:00.05	283.12	46.51	-42.4	-46.4	11.9	2.50e-03	0	57	0	740294656	56	5662
2026-01-11 10:48:04.09	285.22	46.01	-41.9	-45.6	12.6	3.42e-04	0	57	0	747634688	54	5817
2026-01-11 10:48:08.13	287.26	45.48	-40.5	-43.1	15.0	1.24e-04	0	56	0	756023296	52	4926
2026-01-11 10:48:12.17	289.23	44.92	-40.4	-43.1	15.2	1.44e-04	0	56	0	763363328	52	4878
2026-01-11 10:48:16.20	291.12	44.33	-40.7	-43.4	14.7	1.56e-04	0	56	0	770703360	52	5098
2026-01-11 10:48:20.25	292.95	43.72	-39.9	-42.2	16.1	0.00e+00	0	56	0	778043392	50	4976
2026-01-11 10:48:24.29	294.71	43.09	-39.0	-41.0	17.3	0.00e+00	0	56	0	786432000	48	4836
2026-01-11 10:48:28.33	296.40	42.44	-38.8	-40.8	17.5	0.00e+00	0	56	0	793772032	49	4458
2026-01-11 10:48:32.37	298.02	41.77	-39.7	-41.9	16.4	0.00e+00	0	56	0	801112064	49	5069
2026-01-11 10:48:36.41	299.58	41.10	-40.4	-42.9	15.4	0.00e+00	0	56	0	808452096	51	5060
2026-01-11 10:48:40.44	301.07	40.41	-39.8	-42.1	16.2	0.00e+00	0	56	0	815792128	51	4632
2026-01-11 10:48:44.48	302.50	39.72	-42.5	-46.5	11.8	8.01e-04	0	57	0	824180736	56	5782
2026-01-11 10:48:48.53	303.87	39.02	-42.2	-46.1	12.1	2.82e-05	0	56	0	831520768	54	6140
2026-01-11 10:48:52.57	305.19	38.32	-42.1	-45.6	12.7	4.29e-04	0	56	0	838860800	56	5205
2026-01-11 10:48:56.60	306.45	37.62	-44.0	-50.9	7.3	8.48e-02	0	56	0	846200832	58	8550
2026-01-11 10:49:00.64	307.66	36.92	-41.7	-45.2	13.1	3.66e-05	0	56	0	854589440	55	5230
2026-01-11 10:49:04.68	308.81	36.22	-43.6	-49.5	8.7	1.29e-02	0	57	0	861929472	57	7644
2026-01-11 10:49:08.71	309.92	35.53	-42.3	-46.2	12.1	7.22e-04	0	56	0	869269504	56	5573
2026-01-11 10:49:12.75	310.99	34.84	-42.6	-46.9	11.4	1.09e-03	0	57	0	876609536	56	6034
2026-01-11 10:49:16.79	312.01	34.15	-40.2	-42.7	15.5	0.00e+00	0	57	0	883949568	52	4671
2026-01-11 10:49:20.83	312.99	33.47	-41.4	-44.6	13.6	2.20e-06	0	57	0	892338176	53	5506
2026-01-11 10:49:24.86	313.93	32.80	-40.6	-43.4	14.8	0.00e+00	0	56	0	899678208	52	5048
2026-01-11 10:49:28.91	314.83	32.13	-41.2	-44.2	13.9	7.00e-07	0	57	0	907018240	53	5271
2026-01-11 10:49:32.95	315.70	31.47	-41.4	-44.8	13.4	1.60e-05	0	57	0	914358272	54	5284
2026-01-11 10:49:36.99	316.53	30.81	-41.3	-44.4	13.7	1.50e-06	0	57	0	922746880	53	5401
2026-01-11 10:49:41.03	317.34	30.17	-41.1	-44.1	14.0	3.00e-06	0	57	0	930086912	53	5196
2026-01-11 10:49:45.06	318.11	29.54	-40.2	-42.8	15.4	0.00e+00	0	57	0	937426944	52	4740
2026-01-11 10:49:49.10	318.85	28.91	-41.6	-45.1	13.1	2.67e-05	0	57	0	944766976	53	5812
2026-01-11 10:49:53.14	319.56	28.29	-41.8	-45.4	12.7	2.20e-04	0	57	0	952107008	54	5699
2026-01-11 10:49:57.18	320.25	27.68	-40.6	-43.4	14.8	0.00e+00	0	57	0	960495616	52	5052
2026-01-11 10:50:01.22	320.92	27.09	-41.0	-44.1	14.0	2.20e-06	0	57	0	967835648	52	5489
2026-01-11 10:50:05.25	321.55	26.50	-40.0	-42.4	15.7	0.00e+00	0	56	0	975175680	51	4799
2026-01-11 10:50:09.29	322.17	25.92	-40.2	-42.7	15.4	0.00e+00	0	56	0	982515712	51	4978
2026-01-11 10:50:13.33	322.77	25.34	-41.0	-44.1	14.0	7.00e-07	0	56	0	990904320	52	5496
2026-01-11 10:50:17.37	323.34	24.78	-41.6	-45.1	12.9	9.90e-06	0	56	0	998244352	53	5836
2026-01-11 10:50:21.40	323.90	24.23	-41.5	-45.0	13.0	3.66e-05	0	57	0	1005584384	53	5771
2026-01-11 10:50:25.44	324.44	23.69	-42.1	-46.3	11.7	5.00e-04	0	57	0	1012924416	54	6335
2026-01-11 10:50:29.48	324.96	23.15	-41.4	-44.8	13.2	4.57e-05	0	57	0	1020264448	54	5299
2026-01-11 10:50:33.52	325.46	22.62	-41.9	-45.7	12.3	1.59e-04	0	57	0	1028653056	54	5861
2026-01-11 10:50:37.56	325.95	22.11	-42.2	-46.4	11.5	1.26e-03	0	57	0	1035993088	55	6053
2026-01-11 10:50:41.59	326.42	21.60	-41.1	-44.2	13.7	1.29e-05	0	57	0	1043333120	54	4965
2026-01-11 10:50:45.63	326.88	21.10	-40.1	-42.5	15.5	0.00e+00	0	56	0	1050673152	51	4864
2026-01-11 10:50:49.66	327.32	20.61	-39.6	-41.9	16.1	0.00e+00	0	57	0	1059061760	50	4780
2026-01-11 10:50:53.70	327.75	20.12	-40.8	-43.8	14.1	1.50e-06	0	56	0	1066401792	52	5325
2026-01-11 10:50:57.74	328.17	19.64	-41.6	-45.3	12.7	6.40e-05	0	57	0	1073741824	53	5924
2026-01-11 10:51:01.78	328.57	19.17	-41.9	-45.8	12.1	2.75e-04	0	57	0	1081081856	54	5951
2026-01-11 10:51:05.81	328.97	18.71	-41.3	-44.8	13.1	4.04e-05	0	57	0	1088421888	54	5316
2026-01-11 10:51:09.85	329.35	18.26	-41.2	-44.5	13.3	7.60e-06	0	57	0	1096810496	53	5437
2026-01-11 10:51:13.89	329.72	17.81	-41.0	-44.2	13.6	1.06e-05	0	57	0	1104150528	53	5224
2026-01-11 10:51:17.93	330.08	17.37	-41.5	-45.2	12.6	8.08e-05	0	57	0	1111490560	53	5857
2026-01-11 10:51:21.97	330.43	16.94	-41.8	-45.7	12.0	3.05e-04	0	57	0	1118830592	54	5906
2026-01-11 10:51:26.00	330.78	16.51	-41.8	-45.8	11.9	4.05e-04	0	57	0	1127219200	54	5931
2026-01-11 10:51:30.04	331.11	16.09	-41.7	-45.6	12.0	3.32e-04	0	57	0	1134559232	54	5834
2026-01-11 10:51:34.08	331.43	15.68	-41.3	-44.8	12.8	7.47e-05	0	57	0	1141899264	54	5313
2026-01-11 10:51:38.12	331.75	15.27	-40.9	-44.1	13.5	1.90e-05	0	57	0	1149239296	53	5202
2026-01-11 10:51:42.15	332.06	14.87	-40.7	-43.9	13.7	4.50e-06	0	57	0	1156579328	53	5099
2026-01-11 10:51:46.19	332.36	14.47	-40.7	-43.9	13.6	7.60e-06	0	57	0	1164967936	53	5047
2026-01-11 10:51:50.23	332.65	14.08	-40.6	-44.2	13.3	1.90e-05	0	57	0	1172307968	53	5229
2026-01-11 10:51:54.27	332.94	13.70	-40.8	-44.3	13.1	2.28e-05	0	57	0	1179648000	52	5640
2026-01-11 10:51:58.31	333.22	13.32	-40.9	-44.4	13.1	2.89e-05	0	57	0	1186988032	52	5665
2026-01-11 10:52:02.34	333.49	12.94	-40.6	-44.2	13.2	2.36e-05	0	57	0	1194328064	52	5534
2026-01-11 10:52:06.38	333.76	12.58	-40.6	-43.9	13.4	2.05e-05	0	57	0	1202716672	52	5389
2026-01-11 10:52:10.42	334.02	12.21	-40.8	-44.2	13.2	2.51e-05	0	57	0	1210056704	52	5530
2026-01-11 10:52:14.47	334.27	11.85	-40.9	-44.5	12.8	4.95e-05	0	57	0	1217396736	52	5746
2026-01-11 10:52:18.50	334.52	11.50	-41.2	-45.0	12.2	2.34e-04	0	57	0	1224736768	53	5733
2026-01-11 10:52:22.54	334.76	11.15	-41.3	-45.4	11.7	5.46e-04	0	57	0	1233125376	53	6042
2026-01-11 10:52:26.58	335.00	10.80	-41.5	-45.8	11.2	1.68e-03	0	57	0	1240465408	53	6312
2026-01-11 10:52:30.62	335.23	10.46	-41.5	-46.0	11.1	1.68e-03	0	57	0	1247805440	53	6421
2026-01-11 10:52:34.65	335.46	10.13	-41.3	-45.7	11.3	1.33e-03	0	57	0	1255145472	53	6212
2026-01-11 10:52:38.69	335.68	9.80	-41.4	-45.7	11.2	1.39e-03	0	57	0	1262485504	53	6268
2026-01-11 10:52:42.73	335.90	9.47	-41.3	-45.5	11.4	9.97e-04	0	57	0	1270874112	53	6097
2026-01-11 10:52:46.77	336.12	9.14	-41.1	-45.2	11.6	9.11e-04	0	57	0	1278214144	53	5898
2026-01-11 10:52:50.80	336.33	8.83	-41.2	-45.5	11.3	8.55e-04	0	57	0	1285554176	53	6118
2026-01-11 10:52:54.84	336.53	8.51	-41.1	-45.3	11.4	1.14e-03	0	57	0	1292894208	53	5974
2026-01-11 10:52:58.88	336.73	8.20	-41.1	-45.3	11.3	1.08e-03	0	57	0	1301282816	53	5982
2026-01-11 10:53:02.92	336.93	7.89	-44.4	-58.9	3.8	1.49e+00	0	57	104	1305477120	59	20220
2026-01-11 10:53:06.96	337.13	7.58	-45.1	-59.7	3.8	1.49e+00	0	57	104	1305477120	60	20972
2026-01-11 10:53:11.00	337.32	7.28	-45.2	-59.9	3.8	1.49e+00	0	57	104	1305477120	60	21485
2026-01-11 10:53:15.04	337.50	6.98	-45.1	-59.9	3.8	1.49e+00	0	57	104	1305477120	60	21368
2026-01-11 10:53:19.08	337.69	6.68	-45.1	-59.8	3.8	1.49e+00	0	57	104	1305477120	60	21241
2026-01-11 10:53:23.13	337.87	6.39	-45.1	-59.8	3.8	1.49e+00	0	57	104	1305477120	60	21233
2026-01-11 10:53:27.17	338.05	6.10	-45.1	-59.8	3.8	1.49e+00	0	57	104	1305477120	60	21238
2026-01-11 10:53:31.21	338.22	5.82	-45.1	-59.8	3.8	1.49e+00	0	57	104	1305477120	60	21169
2026-01-11 10:53:35.26	338.39	5.53	-45.0	-59.8	3.8	1.49e+00	0	57	104	1305477120	60	21121
2026-01-11 10:53:39.30	338.56	5.25	-45.0	-59.8	3.8	1.49e+00	0	57	104	1305477120	60	21085
2026-01-11 10:53:43.35	338.73	4.97	-45.0	-59.8	3.8	1.49e+00	0	57	104	1305477120	60	21152
2026-01-11 10:53:47.39	338.89	4.70	-45.0	-59.8	3.8	1.49e+00	0	57	104	1305477120	60	21121
2026-01-11 10:53:51.43	339.05	4.43	-45.0	-59.8	3.8	1.49e+00	0	57	104	1305477120	60	21075
2026-01-11 10:53:55.48	339.21	4.15	-45.0	-59.8	3.8	1.49e+00	0	57	104	1305477120	60	21074
2026-01-11 10:53:59.52	339.36	3.89	-45.0	-59.8	3.8	1.49e+00	0	57	104	1305477120	60	21065
2026-01-11 10:54:03.56	339.51	3.62	-45.0	-59.8	3.8	1.49e+00	0	57	104	1305477120	60	21024
2026-01-11 10:54:07.60	339.66	3.36	-45.0	-59.8	3.8	1.49e+00	0	57	104	1305477120	60	21030
2026-01-11 10:54:11.65	339.81	3.10	-45.0	-59.8	3.8	1.49e+00	0	57	104	1305477120	60	21091
2026-01-11 10:54:15.69	339.96	2.84	-45.0	-59.8	3.8	1.49e+00	0	57	104	1305477120	60	21043
2026-01-11 10:54:19.74	340.10	2.59	-45.0	-59.8	3.8	1.49e+00	0	57	104	1305477120	60	21042
2026-01-11 10:54:23.78	340.24	2.33	-45.0	-59.8	3.8	1.49e+00	0	57	104	1305477120	60	21035
2026-01-11 10:54:27.83	340.38	2.08	-45.0	-59.8	3.8	1.49e+00	0	57	104	1305477120	60	21043

#Closed at: 2026-01-11 10:54:31
#Recorded file [1305 MB]: D:/lorett/data/31039_260111_134019.dat