passes_logs/2026/01/11/R2.0S_Moscow/R2.0S_Moscow__20260111_100138_FENGYUN_3D_rec.log

#Pass ID: 20260111_100138_FENGYUN 3D
#Satellite: FENGYUN 3D
#Configuration: FENGYUN 3D
#almurnet v.1.7.20251203
#Start time: 2026-01-11 10:01:39

#Version: 2.2.20231116
#Station: R2.0S_Moscow
#Location: 37.707566 lon 55.798166 lat
#TLE: 1 43010U 17072A   26009.92921666 -.00000228  00000+0 -86059-4 0  9998
#TLE: 2 43010  98.9936 341.6668 0002176 116.7510 243.3888 14.19693142422537

#Time	Az	El	Level	Level2	SNR	BER	BlckErr	Temp	State	Recorded	gain1	gain2
2026-01-11 10:01:39.32	103.64	2.05	-40.0	-51.6	3.8	8.46e-01	0	46	0	0	50	14621
2026-01-11 10:01:42.34	103.41	2.21	-39.9	-51.5	3.8	8.46e-01	0	47	104	0	51	13682
2026-01-11 10:01:45.37	103.18	2.37	-40.0	-51.6	3.8	8.46e-01	0	47	104	0	50	14562
2026-01-11 10:01:48.40	102.94	2.54	-40.0	-51.6	3.8	8.46e-01	0	47	104	0	50	14551
2026-01-11 10:01:51.44	102.70	2.70	-39.9	-51.6	3.8	8.46e-01	0	48	104	0	50	14548
2026-01-11 10:01:54.47	102.46	2.87	-40.0	-51.5	3.8	8.45e-01	0	48	104	0	50	14530
2026-01-11 10:01:57.50	102.22	3.03	-39.9	-51.6	3.8	8.46e-01	0	48	104	0	50	14546
2026-01-11 10:02:00.54	101.97	3.20	-39.9	-51.6	3.8	8.46e-01	0	48	104	0	50	14546
2026-01-11 10:02:03.57	101.72	3.36	-39.9	-51.6	3.8	8.46e-01	0	49	104	0	50	14582
2026-01-11 10:02:06.60	101.46	3.53	-39.9	-51.6	3.8	8.47e-01	0	48	104	0	50	14551
2026-01-11 10:02:09.63	101.21	3.70	-39.9	-51.5	3.8	8.46e-01	0	49	104	0	50	14539
2026-01-11 10:02:12.67	100.95	3.87	-39.9	-51.6	3.8	8.46e-01	0	49	104	0	50	14558
2026-01-11 10:02:15.70	100.68	4.04	-39.9	-51.6	3.8	8.45e-01	0	49	104	0	50	14551
2026-01-11 10:02:18.73	100.42	4.20	-39.9	-51.6	3.8	8.47e-01	0	49	104	0	50	14547
2026-01-11 10:02:21.77	100.15	4.37	-39.9	-51.6	3.8	8.46e-01	0	50	104	0	50	14551
2026-01-11 10:02:24.80	99.88	4.54	-39.9	-51.6	3.8	8.46e-01	0	50	104	0	50	14579
2026-01-11 10:02:27.83	99.60	4.71	-39.9	-51.6	3.8	8.46e-01	0	50	104	0	50	14563
2026-01-11 10:02:30.86	99.32	4.89	-39.9	-51.5	3.8	8.46e-01	0	50	104	0	50	14528
2026-01-11 10:02:33.89	99.04	5.06	-39.9	-51.6	3.8	8.47e-01	0	50	104	0	50	14607
2026-01-11 10:02:36.93	98.76	5.23	-39.9	-51.6	3.8	8.47e-01	0	50	104	0	50	14572
2026-01-11 10:02:39.96	98.47	5.40	-39.9	-51.5	3.8	8.47e-01	0	50	104	0	50	14532
2026-01-11 10:02:42.99	98.17	5.57	-39.9	-51.5	3.8	8.46e-01	0	51	104	0	50	14515
2026-01-11 10:02:46.03	97.88	5.75	-39.9	-51.5	3.8	8.46e-01	0	51	104	0	50	14524
2026-01-11 10:02:49.06	97.58	5.92	-39.9	-51.5	3.8	8.46e-01	0	51	104	0	50	14447
2026-01-11 10:02:52.10	97.27	6.10	-39.9	-51.5	3.8	8.46e-01	0	51	104	0	50	14533
2026-01-11 10:02:55.13	96.97	6.27	-39.9	-51.5	3.8	8.45e-01	0	51	104	0	50	14519
2026-01-11 10:02:58.16	96.66	6.44	-39.8	-51.5	3.8	8.47e-01	0	51	104	0	50	14502
2026-01-11 10:03:01.19	96.34	6.62	-39.9	-51.6	3.8	8.45e-01	0	51	104	0	50	14542
2026-01-11 10:03:04.22	96.02	6.79	-39.9	-51.6	3.8	8.46e-01	0	51	104	0	50	14564
2026-01-11 10:03:07.26	95.70	6.97	-39.9	-51.5	3.8	8.46e-01	0	52	104	0	50	14514
2026-01-11 10:03:10.29	95.37	7.15	-39.8	-51.5	3.8	8.46e-01	0	52	104	0	50	14512
2026-01-11 10:03:13.32	95.04	7.32	-39.9	-51.5	3.8	8.47e-01	0	52	104	0	50	14524
2026-01-11 10:03:16.36	94.71	7.50	-39.9	-51.5	3.8	8.46e-01	0	52	104	0	50	14513
2026-01-11 10:03:19.39	94.37	7.68	-39.9	-51.5	3.8	8.46e-01	0	52	104	0	50	14507
2026-01-11 10:03:22.42	94.02	7.86	-39.9	-51.6	3.8	8.45e-01	0	52	104	0	50	14548
2026-01-11 10:03:25.45	93.68	8.03	-40.6	-52.1	3.8	8.46e-01	0	52	104	0	51	14697
2026-01-11 10:03:28.48	93.33	8.21	-40.0	-51.6	3.8	8.46e-01	0	52	104	0	51	13831
2026-01-11 10:03:31.51	92.97	8.39	-40.1	-51.7	3.8	8.45e-01	0	52	104	0	51	13977
2026-01-11 10:03:34.55	92.61	8.57	-40.1	-51.6	3.8	8.46e-01	0	53	104	0	50	14696
2026-01-11 10:03:37.58	92.24	8.75	-40.0	-51.7	3.8	8.46e-01	0	53	104	0	51	13922
2026-01-11 10:03:40.61	91.87	8.93	-40.0	-51.6	3.8	8.47e-01	0	53	104	0	51	13759
2026-01-11 10:03:43.64	91.50	9.10	-40.0	-51.6	3.8	8.46e-01	0	53	104	0	51	13884
2026-01-11 10:03:46.67	91.12	9.28	-40.0	-50.7	3.8	8.46e-01	0	53	104	0	51	12465
2026-01-11 10:03:49.70	90.74	9.46	-39.6	-47.0	4.7	7.99e-01	0	53	0	0	50	8590
2026-01-11 10:03:52.73	90.35	9.64	-40.3	-51.3	3.8	8.45e-01	0	53	104	0	51	13335
2026-01-11 10:03:55.76	89.95	9.82	-40.0	-51.6	3.8	8.47e-01	0	53	104	0	51	13820
2026-01-11 10:03:58.79	89.56	10.00	-40.4	-52.1	3.8	8.46e-01	0	53	104	0	51	14563
2026-01-11 10:04:01.82	89.15	10.18	-40.5	-52.2	3.8	8.45e-01	0	53	104	0	51	14828
2026-01-11 10:04:04.85	88.74	10.36	-39.5	-52.4	3.8	8.46e-01	0	53	104	0	50	16048
2026-01-11 10:04:07.88	88.33	10.54	-39.3	-52.0	3.8	8.47e-01	0	54	104	0	50	15395
2026-01-11 10:04:10.91	87.91	10.71	-38.3	-51.8	3.8	8.46e-01	0	54	104	0	49	15912
2026-01-11 10:04:13.94	87.49	10.89	-40.3	-52.0	3.8	8.47e-01	0	53	104	0	51	14391
2026-01-11 10:04:16.97	87.06	11.07	-40.0	-52.0	3.8	8.47e-01	0	54	104	0	50	15360
2026-01-11 10:04:20.00	86.62	11.25	-40.6	-52.3	3.8	8.46e-01	0	54	104	0	51	14955
2026-01-11 10:04:23.03	86.18	11.43	-40.3	-51.9	3.8	8.47e-01	0	54	104	0	51	14369
2026-01-11 10:04:26.06	85.74	11.60	-40.5	-52.2	3.8	8.47e-01	0	54	104	0	51	14810
2026-01-11 10:04:29.08	85.29	11.78	-40.3	-51.8	3.8	8.47e-01	0	54	104	0	51	14171
2026-01-11 10:04:32.11	84.83	11.96	-40.4	-51.9	3.8	8.46e-01	0	54	104	0	51	14307
2026-01-11 10:04:35.15	84.37	12.13	-40.3	-51.8	3.8	8.47e-01	0	54	104	0	51	14147
2026-01-11 10:04:38.18	83.90	12.31	-40.4	-52.0	3.8	8.46e-01	0	54	104	0	51	14439
2026-01-11 10:04:41.21	83.43	12.48	-40.4	-51.9	3.8	8.46e-01	0	54	104	0	51	14351
2026-01-11 10:04:44.24	82.95	12.66	-40.6	-52.0	3.8	8.47e-01	0	54	104	0	52	13605
2026-01-11 10:04:47.27	82.47	12.83	-40.3	-51.9	3.8	8.45e-01	0	54	104	0	52	13464
2026-01-11 10:04:50.30	81.98	13.00	-40.7	-51.8	3.8	8.46e-01	0	54	104	0	52	13276
2026-01-11 10:04:53.33	81.48	13.17	-40.4	-51.9	3.8	8.46e-01	0	54	104	0	52	13455
2026-01-11 10:04:56.36	80.98	13.34	-40.5	-51.8	3.8	8.47e-01	0	54	104	0	52	13308
2026-01-11 10:04:59.39	80.47	13.51	-40.4	-51.8	3.8	8.46e-01	0	54	104	0	52	13313
2026-01-11 10:05:02.43	79.96	13.68	-40.2	-49.1	4.1	8.41e-01	0	55	0	0	52	9724
2026-01-11 10:05:05.46	79.44	13.85	-40.2	-48.1	4.5	8.29e-01	0	55	0	0	52	8754
2026-01-11 10:05:08.49	78.91	14.01	-39.7	-45.3	6.3	3.35e-01	0	55	0	5242880	51	6660
2026-01-11 10:05:11.52	78.38	14.18	-39.1	-43.7	7.7	1.28e-01	0	55	0	22020096	50	5878
2026-01-11 10:05:14.55	77.84	14.34	-38.6	-42.6	8.8	4.51e-02	0	55	0	39845888	49	5474
2026-01-11 10:05:17.58	77.30	14.50	-37.5	-40.5	11.1	2.58e-03	0	55	0	56623104	47	4839
2026-01-11 10:05:20.61	76.75	14.66	-37.5	-40.6	11.0	2.69e-03	0	55	0	73400320	46	5165
2026-01-11 10:05:23.64	76.20	14.82	-37.9	-41.2	10.4	4.94e-03	0	55	0	90177536	46	5536
2026-01-11 10:05:26.67	75.63	14.98	-38.3	-42.0	9.5	1.67e-02	0	55	0	108003328	47	5728
2026-01-11 10:05:29.70	75.07	15.13	-38.5	-42.5	8.9	3.93e-02	0	55	0	124780544	47	6093
2026-01-11 10:05:32.73	74.49	15.29	-38.4	-42.1	9.4	2.09e-02	0	55	0	141557760	47	5808
2026-01-11 10:05:35.76	73.91	15.44	-38.2	-41.8	9.9	1.12e-02	0	55	0	158334976	47	5597
2026-01-11 10:05:38.79	73.33	15.59	-38.0	-41.3	10.4	7.54e-03	0	55	0	176160768	47	5334
2026-01-11 10:05:41.82	72.74	15.74	-38.2	-41.6	10.0	9.70e-03	0	55	0	192937984	47	5509
2026-01-11 10:05:44.85	72.14	15.88	-38.1	-41.5	10.0	1.06e-02	0	55	0	209715200	47	5464
2026-01-11 10:05:47.88	71.54	16.02	-38.3	-41.8	9.9	1.25e-02	0	55	0	226492416	47	5595
2026-01-11 10:05:50.91	70.93	16.16	-38.4	-41.7	10.1	7.50e-03	0	55	0	244318208	47	5586
2026-01-11 10:05:53.95	70.32	16.30	-37.6	-40.3	11.9	7.45e-04	0	55	0	261095424	47	4752
2026-01-11 10:05:56.98	69.70	16.44	-37.1	-39.5	13.2	5.03e-05	0	55	0	277872640	46	4552
2026-01-11 10:06:00.00	69.07	16.57	-36.6	-38.6	14.2	4.50e-06	0	55	0	294649856	45	4386
2026-01-11 10:06:03.03	68.44	16.70	-36.5	-38.4	14.7	0.00e+00	0	55	0	312475648	45	4283
2026-01-11 10:06:06.06	67.81	16.82	-36.1	-38.0	15.5	0.00e+00	0	55	0	329252864	44	4300
2026-01-11 10:06:09.10	67.16	16.95	-35.5	-37.1	16.4	0.00e+00	0	55	0	346030080	43	4132
2026-01-11 10:06:12.13	66.52	17.07	-35.2	-36.8	16.9	0.00e+00	0	55	0	363855872	42	4211
2026-01-11 10:06:15.15	65.87	17.19	-35.3	-36.9	16.9	0.00e+00	0	55	0	380633088	42	4264
2026-01-11 10:06:18.18	65.21	17.30	-35.4	-37.0	16.9	0.00e+00	0	55	0	397410304	42	4308
2026-01-11 10:06:21.21	64.55	17.41	-35.3	-36.8	17.2	0.00e+00	0	55	0	414187520	42	4227
2026-01-11 10:06:24.25	63.88	17.52	-35.4	-36.9	17.1	0.00e+00	0	55	0	430964736	42	4291
2026-01-11 10:06:27.28	63.21	17.62	-35.3	-36.8	17.3	0.00e+00	0	55	0	448790528	42	4204
2026-01-11 10:06:30.31	62.53	17.72	-35.3	-36.8	17.3	0.00e+00	0	55	0	465567744	42	4219
2026-01-11 10:06:33.34	61.85	17.82	-35.5	-37.0	17.1	0.00e+00	0	55	0	482344960	42	4333
2026-01-11 10:06:36.37	61.17	17.91	-35.2	-36.7	17.5	0.00e+00	0	55	0	500170752	42	4167
2026-01-11 10:06:39.40	60.48	18.00	-35.3	-36.8	17.4	0.00e+00	0	55	0	516947968	42	4198
2026-01-11 10:06:42.44	59.79	18.09	-35.2	-36.6	17.6	0.00e+00	0	55	0	533725184	42	4140
2026-01-11 10:06:45.46	59.09	18.17	-35.1	-36.4	18.2	0.00e+00	0	55	0	550502400	42	4009
2026-01-11 10:06:48.49	58.39	18.24	-35.0	-36.3	18.2	0.00e+00	0	56	0	568328192	42	3999
2026-01-11 10:06:51.52	57.69	18.31	-35.2	-36.5	18.0	0.00e+00	0	55	0	585105408	42	4087
2026-01-11 10:06:54.56	56.98	18.38	-35.1	-36.4	18.2	0.00e+00	0	56	0	601882624	42	4032
2026-01-11 10:06:57.59	56.27	18.45	-35.0	-36.3	18.3	0.00e+00	0	56	0	618659840	41	4202
2026-01-11 10:07:00.62	55.56	18.51	-35.1	-36.4	18.2	0.00e+00	0	55	0	636485632	41	4252
2026-01-11 10:07:03.65	54.84	18.56	-35.0	-36.3	18.3	0.00e+00	0	56	0	653262848	41	4211
2026-01-11 10:07:06.67	54.13	18.61	-35.0	-36.3	18.3	0.00e+00	0	55	0	670040064	41	4218
2026-01-11 10:07:09.71	53.41	18.66	-35.1	-36.4	18.2	0.00e+00	0	56	0	686817280	41	4264
2026-01-11 10:07:12.73	52.69	18.70	-35.0	-36.3	18.3	0.00e+00	0	56	0	704643072	41	4238
2026-01-11 10:07:15.76	51.96	18.73	-34.9	-36.2	18.4	0.00e+00	0	56	0	721420288	41	4166
2026-01-11 10:07:18.80	51.24	18.77	-34.9	-36.2	18.5	0.00e+00	0	55	0	738197504	41	4147
2026-01-11 10:07:21.83	50.51	18.79	-34.9	-36.2	18.4	0.00e+00	0	56	0	754974720	41	4166
2026-01-11 10:07:24.86	49.78	18.82	-35.0	-36.3	18.4	0.00e+00	0	56	0	772800512	41	4209
2026-01-11 10:07:27.89	49.05	18.83	-34.9	-36.2	18.4	0.00e+00	0	56	0	789577728	41	4179
2026-01-11 10:07:30.92	48.32	18.85	-34.9	-36.2	18.4	0.00e+00	0	56	0	806354944	41	4170
2026-01-11 10:07:33.96	47.59	18.85	-35.1	-36.3	18.3	0.00e+00	0	55	0	823132160	41	4241
2026-01-11 10:07:36.98	46.86	18.86	-35.0	-36.3	18.3	0.00e+00	0	56	0	840957952	41	4223
2026-01-11 10:07:40.01	46.13	18.86	-35.0	-36.3	18.4	0.00e+00	0	56	0	857735168	41	4200
2026-01-11 10:07:43.04	45.40	18.85	-34.8	-36.0	18.7	0.00e+00	0	56	0	874512384	41	4081
2026-01-11 10:07:46.06	44.68	18.84	-34.9	-36.2	18.5	0.00e+00	0	56	0	892338176	41	4163
2026-01-11 10:07:49.09	43.95	18.82	-34.8	-36.0	18.6	0.00e+00	0	56	0	909115392	41	4093
2026-01-11 10:07:52.12	43.22	18.80	-34.8	-36.0	18.6	0.00e+00	0	56	0	925892608	41	4086
2026-01-11 10:07:55.15	42.49	18.77	-34.8	-36.1	18.6	0.00e+00	0	56	0	942669824	41	4111
2026-01-11 10:07:58.18	41.77	18.74	-35.0	-36.2	18.4	0.00e+00	0	55	0	959447040	41	4192
2026-01-11 10:08:01.21	41.04	18.71	-35.0	-36.3	18.3	0.00e+00	0	56	0	977272832	41	4234
2026-01-11 10:08:04.24	40.32	18.67	-35.0	-36.3	18.3	0.00e+00	0	56	0	994050048	41	4225
2026-01-11 10:08:07.27	39.60	18.63	-35.1	-36.4	18.3	0.00e+00	0	56	0	1010827264	41	4248
2026-01-11 10:08:10.30	38.88	18.58	-35.1	-36.4	18.3	0.00e+00	0	56	0	1027604480	41	4259
2026-01-11 10:08:13.33	38.17	18.52	-35.0	-36.3	18.3	0.00e+00	0	56	0	1045430272	41	4233
2026-01-11 10:08:16.36	37.46	18.46	-35.1	-36.4	18.2	0.00e+00	0	56	0	1062207488	41	4282
2026-01-11 10:08:19.39	36.75	18.40	-35.2	-36.5	18.2	0.00e+00	0	56	0	1078984704	41	4296
2026-01-11 10:08:22.42	36.04	18.34	-35.3	-36.7	18.0	0.00e+00	0	56	0	1096810496	41	4394
2026-01-11 10:08:25.45	35.34	18.26	-35.1	-36.4	18.2	0.00e+00	0	56	0	1113587712	41	4277
2026-01-11 10:08:28.48	34.64	18.19	-35.1	-36.4	18.3	0.00e+00	0	56	0	1130364928	41	4246
2026-01-11 10:08:31.52	33.94	18.11	-35.1	-36.4	18.3	0.00e+00	0	56	0	1147142144	41	4251
2026-01-11 10:08:34.54	33.25	18.03	-35.0	-36.2	18.4	0.00e+00	0	56	0	1163919360	41	4191
2026-01-11 10:08:37.57	32.56	17.94	-35.2	-36.6	18.1	0.00e+00	0	56	0	1181745152	41	4348
2026-01-11 10:08:40.60	31.88	17.85	-35.3	-36.6	18.0	0.00e+00	0	56	0	1198522368	41	4352
2026-01-11 10:08:43.63	31.20	17.75	-35.3	-36.6	18.0	0.00e+00	0	56	0	1215299584	41	4390
2026-01-11 10:08:46.66	30.52	17.65	-35.1	-36.4	18.2	0.00e+00	0	56	0	1233125376	41	4262
2026-01-11 10:08:49.69	29.85	17.55	-35.2	-36.5	18.1	0.00e+00	0	56	0	1249902592	41	4340
2026-01-11 10:08:52.72	29.18	17.44	-35.2	-36.6	18.0	0.00e+00	0	56	0	1266679808	41	4344
2026-01-11 10:08:55.75	28.52	17.33	-35.3	-36.6	18.0	0.00e+00	0	56	0	1283457024	41	4376
2026-01-11 10:08:58.77	27.87	17.22	-35.3	-36.6	18.0	0.00e+00	0	56	0	1301282816	41	4381
2026-01-11 10:09:01.80	27.22	17.11	-35.6	-37.0	17.6	0.00e+00	0	56	0	1318060032	41	4552
2026-01-11 10:09:04.83	26.57	16.99	-35.7	-37.1	17.5	0.00e+00	0	56	0	1334837248	41	4615
2026-01-11 10:09:07.86	25.93	16.86	-35.6	-37.0	17.6	0.00e+00	0	56	0	1351614464	41	4563
2026-01-11 10:09:10.89	25.30	16.74	-35.6	-37.0	17.6	0.00e+00	0	56	0	1368391680	41	4554
2026-01-11 10:09:13.92	24.66	16.61	-35.6	-37.0	17.6	0.00e+00	0	56	0	1386217472	41	4571
2026-01-11 10:09:16.95	24.04	16.48	-35.7	-37.0	17.5	0.00e+00	0	56	0	1402994688	41	4591
2026-01-11 10:09:19.98	23.42	16.34	-35.8	-37.3	17.3	0.00e+00	0	56	0	1419771904	42	4451
2026-01-11 10:09:23.01	22.81	16.21	-35.9	-37.4	17.2	0.00e+00	0	56	0	1437597696	42	4512
2026-01-11 10:09:26.03	22.20	16.07	-35.8	-37.2	17.4	0.00e+00	0	56	0	1454374912	42	4407
2026-01-11 10:09:29.07	21.60	15.93	-36.0	-37.5	17.1	0.00e+00	0	56	0	1471152128	42	4567
2026-01-11 10:09:32.09	21.00	15.78	-36.0	-37.4	17.1	0.00e+00	0	56	0	1487929344	42	4540
2026-01-11 10:09:35.13	20.41	15.64	-35.9	-37.3	17.2	0.00e+00	0	56	0	1505755136	42	4482
2026-01-11 10:09:38.16	19.83	15.49	-36.0	-37.5	17.0	0.00e+00	0	56	0	1522532352	42	4562
2026-01-11 10:09:41.19	19.25	15.34	-36.0	-37.5	17.1	0.00e+00	0	56	0	1539309568	42	4553
2026-01-11 10:09:44.22	18.68	15.19	-36.2	-37.7	16.8	0.00e+00	0	56	0	1556086784	42	4665
2026-01-11 10:09:47.25	18.11	15.03	-36.1	-37.6	16.9	0.00e+00	0	56	0	1572864000	42	4606
2026-01-11 10:09:50.28	17.55	14.88	-36.2	-37.7	16.8	0.00e+00	0	56	0	1590689792	42	4673
2026-01-11 10:09:53.32	16.99	14.72	-36.2	-37.7	16.7	0.00e+00	0	56	0	1607467008	43	4441
2026-01-11 10:09:56.35	16.44	14.56	-36.2	-37.7	16.8	0.00e+00	0	56	0	1624244224	43	4400
2026-01-11 10:09:59.37	15.90	14.40	-36.4	-38.0	16.4	0.00e+00	0	56	0	1642070016	43	4563
2026-01-11 10:10:02.40	15.37	14.24	-36.2	-37.7	16.7	0.00e+00	0	56	0	1658847232	43	4416
2026-01-11 10:10:05.43	14.84	14.07	-36.2	-37.8	16.6	0.00e+00	0	56	0	1675624448	43	4446
2026-01-11 10:10:08.46	14.31	13.91	-36.4	-38.0	16.4	0.00e+00	0	56	0	1692401664	43	4558
2026-01-11 10:10:11.49	13.79	13.74	-36.3	-37.8	16.5	0.00e+00	0	56	0	1710227456	43	4464
2026-01-11 10:10:14.52	13.28	13.57	-36.4	-38.0	16.3	0.00e+00	0	56	0	1727004672	43	4575
2026-01-11 10:10:17.55	12.77	13.40	-36.9	-38.5	15.9	0.00e+00	0	56	0	1743781888	44	4596
2026-01-11 10:10:20.59	12.27	13.23	-36.8	-38.4	15.9	0.00e+00	0	56	0	1760559104	44	4531
2026-01-11 10:10:23.62	11.78	13.06	-37.0	-38.7	15.6	0.00e+00	0	56	0	1778384896	44	4659
2026-01-11 10:10:26.65	11.29	12.89	-36.9	-38.6	15.6	0.00e+00	0	56	0	1795162112	44	4616
2026-01-11 10:10:29.68	10.80	12.72	-36.9	-38.7	15.2	0.00e+00	0	56	0	1811939328	44	4678
2026-01-11 10:10:32.71	10.32	12.55	-36.7	-38.4	15.3	0.00e+00	0	56	0	1829765120	44	4535
2026-01-11 10:10:35.74	9.85	12.37	-36.5	-38.3	15.2	0.00e+00	0	56	0	1846542336	44	4482
2026-01-11 10:10:38.77	9.39	12.20	-36.3	-38.2	15.1	0.00e+00	0	56	0	1863319552	44	4402
2026-01-11 10:10:41.81	8.92	12.02	-36.8	-38.8	14.2	0.00e+00	0	56	0	1880096768	44	4735
2026-01-11 10:10:44.84	8.47	11.85	-37.3	-39.7	13.0	4.11e-05	0	56	0	1896873984	45	4953
2026-01-11 10:10:47.87	8.02	11.67	-38.0	-40.9	11.4	1.19e-03	0	56	0	1914699776	46	5358
2026-01-11 10:10:50.90	7.57	11.50	-39.4	-43.8	8.0	5.82e-02	0	57	0	1931476992	49	6338
2026-01-11 10:10:53.93	7.14	11.32	-40.3	-47.6	4.7	7.69e-01	0	56	0	1943011328	51	8751
2026-01-11 10:10:56.96	6.70	11.14	-40.5	-50.1	3.8	8.44e-01	0	57	104	1943011328	51	11585
2026-01-11 10:10:59.99	6.28	10.96	-40.5	-51.4	3.8	8.46e-01	0	56	104	1943011328	51	13420
2026-01-11 10:11:03.02	5.85	10.79	-40.4	-51.9	3.8	8.46e-01	0	56	104	1943011328	51	14252
2026-01-11 10:11:06.05	5.43	10.61	-40.1	-51.7	3.8	8.47e-01	0	57	104	1943011328	51	13959
2026-01-11 10:11:09.08	5.02	10.43	-40.3	-52.0	3.8	8.46e-01	0	57	104	1943011328	51	14423
2026-01-11 10:11:12.11	4.62	10.25	-40.3	-51.9	3.8	8.46e-01	0	57	104	1943011328	51	14245
2026-01-11 10:11:15.14	4.21	10.07	-40.1	-51.7	3.8	8.45e-01	0	57	104	1943011328	51	13982
2026-01-11 10:11:18.17	3.82	9.89	-40.2	-51.8	3.8	8.46e-01	0	56	104	1943011328	51	14095
2026-01-11 10:11:21.20	3.42	9.72	-39.8	-51.4	3.8	8.46e-01	0	56	104	1943011328	51	13546
2026-01-11 10:11:24.23	3.04	9.54	-39.8	-51.4	3.8	8.45e-01	0	57	104	1943011328	51	13565
2026-01-11 10:11:27.25	2.66	9.36	-39.8	-51.4	3.8	8.46e-01	0	57	104	1943011328	51	13479
2026-01-11 10:11:30.29	2.28	9.18	-39.9	-51.5	3.8	8.47e-01	0	57	104	1943011328	51	13679
2026-01-11 10:11:33.32	1.90	9.00	-39.8	-51.4	3.8	8.47e-01	0	57	104	1943011328	51	13549
2026-01-11 10:11:36.35	1.54	8.82	-39.8	-51.5	3.8	8.45e-01	0	56	104	1943011328	51	13625
2026-01-11 10:11:39.38	1.17	8.65	-39.7	-51.4	3.8	8.45e-01	0	56	104	1943011328	50	14361
2026-01-11 10:11:42.41	0.81	8.47	-39.6	-51.5	3.8	8.46e-01	0	56	104	1943011328	50	14388
2026-01-11 10:11:45.44	0.46	8.29	-39.5	-51.4	3.8	8.46e-01	0	57	104	1943011328	50	14260
2026-01-11 10:11:48.46	0.11	8.11	-39.3	-51.4	3.8	8.47e-01	0	57	104	1943011328	50	14315
2026-01-11 10:11:51.50	359.76	7.94	-42.0	-53.7	3.9	8.45e-01	0	57	104	1943011328	54	14737
2026-01-11 10:11:54.53	359.42	7.76	-45.0	-56.8	3.8	8.46e-01	0	57	104	1943011328	60	14912
2026-01-11 10:11:57.56	359.08	7.58	-45.3	-57.0	3.8	8.46e-01	0	57	104	1943011328	61	14515
2026-01-11 10:12:00.60	358.75	7.40	-45.2	-57.0	3.8	8.46e-01	0	57	104	1943011328	61	14527
2026-01-11 10:12:03.63	358.42	7.23	-45.2	-57.0	3.8	8.46e-01	0	57	104	1943011328	60	15297
2026-01-11 10:12:06.66	358.10	7.05	-45.1	-56.9	3.8	8.46e-01	0	57	104	1943011328	60	15205
2026-01-11 10:12:09.70	357.77	6.88	-45.1	-56.9	3.8	8.47e-01	0	57	104	1943011328	60	15135
2026-01-11 10:12:12.73	357.46	6.70	-45.1	-56.9	3.8	8.46e-01	0	56	104	1943011328	60	15150
2026-01-11 10:12:15.76	357.15	6.53	-45.1	-56.9	3.8	8.47e-01	0	57	104	1943011328	60	15110
2026-01-11 10:12:18.79	356.84	6.35	-45.1	-56.9	3.8	8.46e-01	0	57	104	1943011328	60	15102
2026-01-11 10:12:21.82	356.53	6.18	-45.0	-56.9	3.8	8.46e-01	0	57	104	1943011328	60	15058
2026-01-11 10:12:24.86	356.23	6.00	-45.0	-56.9	3.8	8.45e-01	0	57	104	1943011328	60	15061
2026-01-11 10:12:27.89	355.93	5.83	-45.0	-56.9	3.8	8.46e-01	0	57	104	1943011328	60	15113
2026-01-11 10:12:30.92	355.64	5.66	-45.0	-56.9	3.8	8.46e-01	0	57	104	1943011328	60	15068
2026-01-11 10:12:33.96	355.35	5.48	-45.0	-56.9	3.8	8.45e-01	0	57	104	1943011328	60	15072
2026-01-11 10:12:36.99	355.06	5.31	-45.1	-56.9	3.8	8.47e-01	0	57	104	1943011328	60	15097
2026-01-11 10:12:40.02	354.78	5.14	-45.0	-56.8	3.8	8.47e-01	0	57	104	1943011328	60	15045
2026-01-11 10:12:43.06	354.49	4.97	-45.1	-56.9	3.8	8.46e-01	0	57	104	1943011328	60	15078
2026-01-11 10:12:46.09	354.22	4.80	-45.0	-56.8	3.8	8.46e-01	0	57	104	1943011328	60	15032
2026-01-11 10:12:49.12	353.94	4.63	-45.0	-56.8	3.8	8.46e-01	0	56	104	1943011328	60	15023
2026-01-11 10:12:52.16	353.67	4.46	-45.0	-56.9	3.8	8.46e-01	0	57	104	1943011328	60	15064
2026-01-11 10:12:55.19	353.41	4.29	-45.0	-56.8	3.8	8.45e-01	0	57	104	1943011328	60	15020
2026-01-11 10:12:58.22	353.14	4.12	-45.0	-56.8	3.8	8.47e-01	0	57	104	1943011328	60	15044
2026-01-11 10:13:01.26	352.88	3.95	-45.0	-56.8	3.8	8.46e-01	0	57	104	1943011328	60	15024
2026-01-11 10:13:04.29	352.63	3.78	-45.0	-56.9	3.8	8.46e-01	0	57	104	1943011328	60	15057
2026-01-11 10:13:07.32	352.37	3.62	-45.0	-56.8	3.8	8.47e-01	0	57	104	1943011328	60	14996
2026-01-11 10:13:10.35	352.12	3.45	-45.0	-56.8	3.8	8.45e-01	0	57	104	1943011328	60	14981
2026-01-11 10:13:13.39	351.87	3.28	-45.0	-56.8	3.8	8.46e-01	0	57	104	1943011328	60	15039
2026-01-11 10:13:16.42	351.63	3.12	-45.0	-56.8	3.8	8.46e-01	0	57	104	1943011328	60	15026
2026-01-11 10:13:19.45	351.38	2.95	-45.0	-56.8	3.8	8.47e-01	0	57	104	1943011328	60	15039
2026-01-11 10:13:22.49	351.14	2.79	-45.0	-56.8	3.8	8.46e-01	0	57	104	1943011328	60	15003
2026-01-11 10:13:25.52	350.91	2.62	-45.0	-56.8	3.8	8.46e-01	0	57	104	1943011328	60	14997
2026-01-11 10:13:28.55	350.67	2.46	-45.0	-56.8	3.8	8.46e-01	0	57	104	1943011328	60	15019
2026-01-11 10:13:31.59	350.44	2.30	-45.0	-56.8	3.8	8.47e-01	0	57	104	1943011328	60	15037
2026-01-11 10:13:34.62	350.21	2.13	-45.0	-56.8	3.8	8.46e-01	0	57	104	1943011328	60	14981
2026-01-11 10:13:37.65	349.99	1.97	-45.0	-56.8	3.8	8.47e-01	0	57	104	1943011328	60	15022

#Closed at: 2026-01-11 10:13:37
#Recorded file [1943 MB]: D:/lorett/data/31039_260111_130139.dat