passes_logs/2026/01/11/R2.0S_Moscow/R2.0S_Moscow__20260111_012831_AQUA_rec.log

#Pass ID: 20260111_012831_AQUA
#Satellite: AQUA
#Configuration: AQUA
#almurnet v.1.7.20251203
#Start time: 2026-01-11 01:28:31

#Version: 2.2.20231116
#Station: R2.0S_Moscow
#Location: 37.707566 lon 55.798166 lat
#TLE: 1 27424U 02022A   26009.89520876  .00001045  00000+0  21914-3 0  9996
#TLE: 2 27424  98.4076 336.2372 0002032  84.5955   1.0356 14.61811442260144

#Time	Az	El	Level	Level2	SNR	BER	BlckErr	Temp	State	Recorded	gain1	gain2
2026-01-11 01:28:31.09	14.81	1.97	-44.0	-63.2	3.8	7.44e-01	0	47	0	0	59	32947
2026-01-11 01:28:35.12	14.80	2.24	-44.0	-63.2	3.8	7.44e-01	0	48	104	0	58	34960
2026-01-11 01:28:39.16	14.78	2.51	-44.0	-63.1	3.8	7.47e-01	0	48	104	0	58	34864
2026-01-11 01:28:43.20	14.77	2.78	-44.0	-63.1	3.8	7.47e-01	0	48	104	0	58	34868
2026-01-11 01:28:47.25	14.75	3.06	-44.0	-63.1	3.8	7.45e-01	0	49	104	0	58	34820
2026-01-11 01:28:51.29	14.73	3.34	-44.0	-63.1	3.8	7.42e-01	0	49	104	0	58	34817
2026-01-11 01:28:55.34	14.72	3.62	-44.0	-63.1	3.8	7.44e-01	0	49	104	0	58	34646
2026-01-11 01:28:59.38	14.70	3.91	-44.0	-63.1	3.8	7.44e-01	0	49	104	0	58	34561
2026-01-11 01:29:03.42	14.68	4.20	-44.0	-63.1	3.8	7.46e-01	0	50	104	0	58	34819
2026-01-11 01:29:07.47	14.66	4.49	-44.0	-63.1	3.8	7.46e-01	0	50	104	0	58	34801
2026-01-11 01:29:11.51	14.64	4.79	-44.0	-63.0	3.8	7.42e-01	0	50	104	0	58	34173
2026-01-11 01:29:15.55	14.62	5.09	-44.0	-62.5	3.8	7.45e-01	0	50	104	0	58	32363
2026-01-11 01:29:19.60	14.59	5.40	-44.0	-61.9	3.8	7.45e-01	0	50	104	0	58	30062
2026-01-11 01:29:23.64	14.57	5.70	-44.0	-61.3	3.9	7.45e-01	0	51	104	0	58	28046
2026-01-11 01:29:27.68	14.54	6.02	-44.0	-61.6	3.8	7.46e-01	0	51	104	0	58	29324
2026-01-11 01:29:31.72	14.52	6.33	-44.0	-62.7	3.8	7.45e-01	0	51	104	0	58	33055
2026-01-11 01:29:35.77	14.49	6.65	-43.8	-57.7	4.9	7.10e-01	0	51	104	0	58	18525
2026-01-11 01:29:39.81	14.46	6.98	-43.0	-50.5	11.4	6.12e-01	0	51	0	6291456	58	8125
2026-01-11 01:29:43.86	14.44	7.31	-41.1	-45.4	16.7	6.04e-01	0	51	0	14155776	54	5661
2026-01-11 01:29:47.90	14.41	7.65	-41.5	-46.2	15.8	6.00e-01	0	51	0	21495808	54	6259
2026-01-11 01:29:51.94	14.38	7.99	-41.9	-47.3	14.7	6.04e-01	0	52	0	29360128	54	7053
2026-01-11 01:29:55.98	14.34	8.33	-42.9	-61.5	3.7	7.49e-01	0	52	104	36175872	57	30651
2026-01-11 01:30:00.02	14.31	8.68	-40.4	-43.7	18.7	6.05e-01	0	52	0	41943040	52	5226
2026-01-11 01:30:04.05	14.27	9.04	-40.4	-43.6	18.9	6.04e-01	0	52	0	49283072	52	5160
2026-01-11 01:30:08.09	14.24	9.40	-40.4	-43.5	19.0	6.03e-01	0	52	0	57147392	52	5144
2026-01-11 01:30:12.13	14.20	9.77	-40.4	-43.5	19.1	6.01e-01	0	53	0	64487424	52	5121
2026-01-11 01:30:16.17	14.16	10.14	-40.3	-43.2	19.4	6.02e-01	0	52	0	72351744	52	4951
2026-01-11 01:30:20.20	14.12	10.52	-40.3	-43.3	19.4	6.02e-01	0	53	0	79691776	52	5008
2026-01-11 01:30:24.24	14.08	10.90	-40.3	-43.2	19.6	6.04e-01	0	53	0	87556096	52	4934
2026-01-11 01:30:28.28	14.03	11.30	-40.4	-43.3	19.5	6.03e-01	0	53	0	94896128	52	5023
2026-01-11 01:30:32.31	13.99	11.70	-40.3	-43.2	19.7	6.05e-01	0	53	0	102236160	52	4964
2026-01-11 01:30:36.35	13.94	12.11	-40.2	-43.0	19.9	6.04e-01	0	53	0	110100480	52	4847
2026-01-11 01:30:40.39	13.89	12.52	-40.2	-43.0	20.0	6.04e-01	0	53	0	117440512	52	4834
2026-01-11 01:30:44.43	13.84	12.95	-40.1	-42.8	20.2	6.03e-01	0	53	0	125304832	52	4733
2026-01-11 01:30:48.47	13.78	13.38	-40.0	-42.6	20.5	6.01e-01	0	53	0	132644864	52	4643
2026-01-11 01:30:52.51	13.73	13.82	-40.0	-42.6	20.6	6.04e-01	0	53	0	140509184	52	4629
2026-01-11 01:30:56.55	13.67	14.27	-40.0	-42.6	20.7	6.03e-01	0	53	0	147849216	51	4872
2026-01-11 01:31:00.59	13.61	14.73	-39.9	-42.4	20.9	6.01e-01	0	54	0	155189248	51	4795
2026-01-11 01:31:04.62	13.54	15.20	-39.9	-42.4	20.9	6.05e-01	0	53	0	163053568	51	4798
2026-01-11 01:31:08.66	13.48	15.68	-39.9	-42.4	21.0	6.03e-01	0	53	0	170393600	51	4774
2026-01-11 01:31:12.70	13.41	16.17	-39.8	-42.1	21.3	6.05e-01	0	54	0	178257920	51	4631
2026-01-11 01:31:16.74	13.34	16.67	-39.7	-42.0	21.4	6.03e-01	0	53	0	185597952	51	4575
2026-01-11 01:31:20.78	13.26	17.18	-39.8	-42.1	21.4	6.04e-01	0	54	0	193462272	51	4629
2026-01-11 01:31:24.81	13.18	17.71	-39.9	-42.2	21.3	6.05e-01	0	54	0	200802304	51	4699
2026-01-11 01:31:28.85	13.10	18.24	-39.9	-42.3	21.3	6.05e-01	0	54	0	208666624	51	4728
2026-01-11 01:31:32.89	13.01	18.79	-40.0	-42.4	21.2	6.05e-01	0	54	0	216006656	51	4763
2026-01-11 01:31:36.93	12.92	19.36	-40.0	-42.4	21.2	6.01e-01	0	54	0	223346688	51	4790
2026-01-11 01:31:40.96	12.83	19.94	-40.0	-42.3	21.3	6.02e-01	0	54	0	231211008	51	4740
2026-01-11 01:31:45.00	12.73	20.53	-40.0	-42.3	21.3	6.03e-01	0	54	0	238551040	51	4741
2026-01-11 01:31:49.04	12.62	21.14	-40.1	-42.5	21.2	6.02e-01	0	54	0	246415360	51	4841
2026-01-11 01:31:53.08	12.52	21.77	-40.1	-42.5	21.2	6.03e-01	0	54	0	253755392	51	4852
2026-01-11 01:31:57.12	12.40	22.41	-40.1	-42.5	21.2	6.01e-01	0	54	0	261619712	51	4843
2026-01-11 01:32:01.16	12.28	23.07	-40.2	-42.5	21.2	6.03e-01	0	54	0	268959744	51	4863
2026-01-11 01:32:05.20	12.15	23.75	-40.1	-42.4	21.3	6.02e-01	0	54	0	276824064	51	4796
2026-01-11 01:32:09.23	12.02	24.45	-40.0	-42.3	21.5	6.05e-01	0	54	0	284164096	51	4715
2026-01-11 01:32:13.28	11.88	25.17	-40.0	-42.3	21.4	6.04e-01	0	54	0	291504128	51	4734
2026-01-11 01:32:17.32	11.73	25.91	-40.0	-42.3	21.5	6.02e-01	0	54	0	299368448	51	4733
2026-01-11 01:32:21.36	11.57	26.68	-39.8	-42.1	21.7	6.06e-01	0	54	0	306708480	51	4601
2026-01-11 01:32:25.40	11.41	27.47	-39.7	-41.8	22.0	6.02e-01	0	55	0	314572800	51	4486
2026-01-11 01:32:29.44	11.23	28.28	-39.8	-42.0	21.8	6.03e-01	0	54	0	321912832	51	4596
2026-01-11 01:32:33.47	11.05	29.12	-39.4	-41.5	22.4	6.04e-01	0	55	0	329777152	50	4556
2026-01-11 01:32:37.51	10.85	29.99	-39.4	-41.5	22.3	6.06e-01	0	55	0	337117184	50	4575
2026-01-11 01:32:41.55	10.64	30.89	-39.6	-41.7	22.2	6.04e-01	0	55	0	344981504	50	4689
2026-01-11 01:32:45.59	10.42	31.81	-39.4	-41.5	22.4	6.01e-01	0	55	0	352321536	50	4557
2026-01-11 01:32:49.63	10.18	32.77	-39.6	-41.7	22.2	6.01e-01	0	55	0	359661568	50	4675
2026-01-11 01:32:53.67	9.93	33.76	-39.9	-42.1	21.8	6.02e-01	0	55	0	367525888	50	4898
2026-01-11 01:32:57.71	9.66	34.79	-40.4	-42.8	21.2	6.03e-01	0	55	0	374865920	51	4987
2026-01-11 01:33:01.75	9.37	35.85	-40.8	-43.3	20.7	6.05e-01	0	55	0	382730240	52	5000
2026-01-11 01:33:05.79	9.05	36.96	-41.0	-43.6	20.4	6.02e-01	0	55	0	390070272	52	5182
2026-01-11 01:33:09.82	8.72	38.09	-41.4	-44.2	19.8	6.03e-01	0	55	0	397934592	53	5220
2026-01-11 01:33:13.87	8.36	39.28	-41.3	-44.1	19.8	6.03e-01	0	55	0	405274624	53	5199
2026-01-11 01:33:17.90	7.97	40.50	-41.3	-44.1	19.8	6.00e-01	0	55	0	413138944	53	5203
2026-01-11 01:33:21.94	7.54	41.77	-41.2	-43.9	20.0	6.03e-01	0	55	0	420478976	53	5093
2026-01-11 01:33:25.98	7.08	43.08	-40.6	-43.0	20.6	6.05e-01	0	55	0	427819008	53	4579
2026-01-11 01:33:30.02	6.57	44.45	-40.4	-42.7	21.2	6.04e-01	0	55	0	435683328	52	4704
2026-01-11 01:33:34.06	6.02	45.86	-40.2	-42.4	21.6	6.06e-01	0	55	0	443023360	52	4544
2026-01-11 01:33:38.10	5.41	47.32	-40.1	-42.3	21.7	6.06e-01	0	55	0	450887680	51	4750
2026-01-11 01:33:42.13	4.75	48.83	-40.2	-42.5	21.6	6.03e-01	0	55	0	458227712	51	4835
2026-01-11 01:33:46.17	4.00	50.39	-40.0	-42.2	21.8	6.03e-01	0	55	0	466092032	51	4684
2026-01-11 01:33:50.22	3.17	52.01	-39.5	-41.6	22.5	6.03e-01	0	55	0	473432064	51	4355
2026-01-11 01:33:54.26	2.25	53.68	-39.3	-41.3	22.7	6.01e-01	0	55	0	481296384	50	4477
2026-01-11 01:33:58.29	1.20	55.39	-39.3	-41.3	22.7	6.03e-01	0	55	0	488636416	50	4481
2026-01-11 01:34:02.33	0.02	57.16	-40.2	-42.5	21.5	6.04e-01	0	55	0	495976448	51	4839
2026-01-11 01:34:06.36	358.66	58.96	-40.7	-43.1	21.0	6.03e-01	0	55	0	503840768	51	5181
2026-01-11 01:34:10.40	357.10	60.81	-41.0	-43.6	20.5	6.02e-01	0	55	0	511180800	52	5183
2026-01-11 01:34:14.44	355.29	62.70	-40.9	-43.5	20.5	6.02e-01	0	55	0	519045120	53	4827
2026-01-11 01:34:18.48	353.16	64.61	-41.8	-44.8	19.3	6.04e-01	0	55	0	526385152	54	5325
2026-01-11 01:34:22.52	350.64	66.53	-43.1	-46.9	17.2	6.03e-01	0	55	0	534249472	56	6052
2026-01-11 01:34:26.56	347.61	68.45	-43.1	-47.0	17.1	6.04e-01	0	55	0	541589504	57	5778
2026-01-11 01:34:30.60	343.93	70.35	-42.6	-46.2	18.0	6.03e-01	0	55	0	549453824	57	5219
2026-01-11 01:34:34.63	339.43	72.18	-42.8	-46.5	17.7	6.04e-01	0	55	0	556793856	56	5750
2026-01-11 01:34:38.67	333.85	73.92	-42.9	-46.6	17.5	6.01e-01	0	55	0	564133888	56	5801
2026-01-11 01:34:42.71	326.91	75.50	-42.3	-45.6	18.3	6.05e-01	0	55	0	571998208	55	5516
2026-01-11 01:34:46.75	318.36	76.84	-42.3	-45.6	18.3	6.03e-01	0	55	0	579338240	55	5520
2026-01-11 01:34:50.79	308.07	77.85	-42.2	-45.6	18.4	6.02e-01	0	55	0	587202560	55	5497
2026-01-11 01:34:54.83	296.33	78.41	-41.3	-44.0	19.9	6.01e-01	0	55	0	594542592	54	4853
2026-01-11 01:34:58.87	283.93	78.46	-41.4	-44.3	19.7	6.03e-01	0	55	0	602406912	53	5301
2026-01-11 01:35:02.90	272.00	78.00	-41.1	-43.8	20.1	6.05e-01	0	55	0	609746944	54	4751
2026-01-11 01:35:06.94	261.37	77.08	-41.7	-44.7	19.4	6.02e-01	0	55	0	617611264	54	5230
2026-01-11 01:35:10.98	252.45	75.80	-42.0	-45.3	18.7	6.03e-01	0	55	0	624951296	54	5637
2026-01-11 01:35:15.02	245.20	74.26	-42.5	-46.1	17.9	6.04e-01	0	55	0	632291328	55	5831
2026-01-11 01:35:19.06	239.36	72.54	-42.5	-46.0	18.1	6.03e-01	0	55	0	640155648	56	5450
2026-01-11 01:35:23.09	234.66	70.72	-43.2	-47.3	16.9	6.04e-01	0	55	0	647495680	56	6277
2026-01-11 01:35:27.13	230.82	68.83	-43.8	-48.6	15.6	6.02e-01	0	55	0	655360000	58	6512
2026-01-11 01:35:31.17	227.67	66.91	-43.7	-48.3	15.7	6.05e-01	0	55	0	662700032	58	6323
2026-01-11 01:35:35.21	225.05	64.98	-42.7	-46.4	17.8	6.04e-01	0	55	0	670564352	57	5366
2026-01-11 01:35:39.25	222.84	63.06	-41.9	-45.0	19.0	6.03e-01	0	55	0	677904384	55	5114
2026-01-11 01:35:43.29	220.97	61.17	-41.5	-44.3	19.7	6.02e-01	0	55	0	685768704	54	5033
2026-01-11 01:35:47.33	219.36	59.30	-41.0	-43.7	20.4	6.03e-01	0	55	0	693108736	53	4941
2026-01-11 01:35:51.37	217.96	57.48	-40.4	-42.8	21.3	6.05e-01	0	56	0	700448768	52	4723
2026-01-11 01:35:55.40	216.75	55.70	-39.9	-42.1	22.0	6.06e-01	0	55	0	708313088	51	4601
2026-01-11 01:35:59.44	215.67	53.97	-39.2	-41.2	22.8	6.03e-01	0	55	0	715653120	49	4661
2026-01-11 01:36:03.48	214.72	52.29	-39.1	-41.0	23.1	6.03e-01	0	56	0	723517440	49	4558
2026-01-11 01:36:07.52	213.88	50.66	-40.2	-42.4	21.6	6.03e-01	0	55	0	730857472	50	5094
2026-01-11 01:36:11.55	213.12	49.08	-39.8	-41.9	22.2	6.03e-01	0	55	0	738721792	50	4774
2026-01-11 01:36:15.59	212.43	47.55	-40.3	-42.6	21.4	6.03e-01	0	55	0	746061824	51	4918
2026-01-11 01:36:19.63	211.81	46.07	-39.8	-42.0	22.0	6.03e-01	0	55	0	753401856	51	4550
2026-01-11 01:36:23.67	211.25	44.65	-40.3	-42.6	21.5	6.04e-01	0	55	0	761266176	51	4916
2026-01-11 01:36:27.71	210.73	43.27	-39.9	-42.1	21.9	6.02e-01	0	56	0	768606208	51	4618
2026-01-11 01:36:31.75	210.26	41.94	-40.4	-42.8	21.3	6.03e-01	0	55	0	776470528	51	5008
2026-01-11 01:36:35.79	209.83	40.66	-41.0	-43.7	20.3	6.01e-01	0	55	0	783810560	52	5258
2026-01-11 01:36:39.83	209.43	39.42	-40.9	-43.5	20.4	6.04e-01	0	55	0	791674880	53	4852
2026-01-11 01:36:43.87	209.06	38.23	-41.3	-44.2	19.8	6.02e-01	0	55	0	799014912	53	5230
2026-01-11 01:36:47.91	208.71	37.07	-41.0	-43.7	20.2	6.03e-01	0	55	0	806879232	53	4948
2026-01-11 01:36:51.95	208.40	35.96	-40.5	-43.0	20.9	6.03e-01	0	55	0	814219264	53	4569
2026-01-11 01:36:55.99	208.10	34.89	-40.1	-42.4	21.5	6.04e-01	0	55	0	821559296	52	4539
2026-01-11 01:37:00.02	207.82	33.85	-40.0	-42.3	21.7	6.04e-01	0	56	0	829423616	51	4707
2026-01-11 01:37:04.06	207.57	32.85	-39.6	-41.7	22.2	6.04e-01	0	56	0	836763648	51	4423
2026-01-11 01:37:08.10	207.32	31.88	-39.4	-41.5	22.4	6.03e-01	0	56	0	844627968	50	4555
2026-01-11 01:37:12.14	207.10	30.94	-39.4	-41.5	22.4	6.02e-01	0	55	0	851968000	50	4558
2026-01-11 01:37:16.18	206.88	30.04	-39.4	-41.5	22.4	6.02e-01	0	56	0	859832320	50	4575
2026-01-11 01:37:20.22	206.68	29.16	-39.3	-41.3	22.6	6.04e-01	0	55	0	867172352	50	4471
2026-01-11 01:37:24.26	206.49	28.31	-39.4	-41.5	22.3	6.04e-01	0	55	0	875036672	50	4559
2026-01-11 01:37:28.30	206.31	27.49	-39.5	-41.6	22.2	6.02e-01	0	55	0	882376704	50	4622
2026-01-11 01:37:32.34	206.14	26.69	-39.8	-42.0	21.8	6.04e-01	0	56	0	890241024	50	4832
2026-01-11 01:37:36.37	205.98	25.92	-40.0	-42.3	21.6	6.03e-01	0	55	0	897581056	50	5003
2026-01-11 01:37:40.40	205.83	25.18	-40.0	-42.3	21.5	6.02e-01	0	55	0	904921088	50	5037
2026-01-11 01:37:44.44	205.69	24.45	-40.2	-42.6	21.2	6.02e-01	0	55	0	912785408	50	5193
2026-01-11 01:37:48.48	205.55	23.74	-40.2	-42.6	21.2	6.03e-01	0	55	0	920125440	51	4880
2026-01-11 01:37:52.51	205.42	23.06	-40.2	-42.6	21.2	6.03e-01	0	56	0	927989760	51	4887
2026-01-11 01:37:56.55	205.29	22.39	-40.3	-42.7	21.1	6.03e-01	0	56	0	935329792	51	4930
2026-01-11 01:38:00.59	205.18	21.74	-40.3	-42.8	20.9	6.03e-01	0	56	0	943194112	51	5004
2026-01-11 01:38:04.63	205.06	21.11	-40.4	-42.9	20.8	6.04e-01	0	56	0	950534144	51	5055
2026-01-11 01:38:08.67	204.96	20.50	-40.3	-42.8	20.9	6.04e-01	0	55	0	957874176	51	4990
2026-01-11 01:38:12.71	204.85	19.90	-40.3	-42.7	21.0	6.04e-01	0	55	0	965738496	51	4954
2026-01-11 01:38:16.75	204.75	19.31	-40.3	-42.7	20.9	6.04e-01	0	55	0	973078528	51	4950
2026-01-11 01:38:20.79	204.66	18.75	-40.2	-42.6	21.1	6.04e-01	0	56	0	980942848	51	4873
2026-01-11 01:38:24.82	204.57	18.19	-40.1	-42.5	21.1	6.03e-01	0	56	0	988282880	51	4823
2026-01-11 01:38:28.86	204.49	17.65	-40.0	-42.4	21.2	6.02e-01	0	56	0	996147200	51	4791
2026-01-11 01:38:32.90	204.40	17.12	-40.1	-42.5	21.0	6.02e-01	0	56	0	1003487232	51	4843
2026-01-11 01:38:36.94	204.32	16.61	-40.1	-42.6	21.0	6.02e-01	0	56	0	1011351552	51	4872
2026-01-11 01:38:40.98	204.25	16.10	-40.2	-42.6	20.9	6.03e-01	0	56	0	1018691584	51	4899
2026-01-11 01:38:45.02	204.17	15.61	-40.2	-42.7	20.8	6.02e-01	0	56	0	1026031616	51	4927
2026-01-11 01:38:49.06	204.10	15.12	-40.2	-42.6	20.8	6.00e-01	0	56	0	1033895936	51	4926
2026-01-11 01:38:53.10	204.04	14.65	-40.3	-42.8	20.6	6.04e-01	0	56	0	1041235968	51	5026
2026-01-11 01:38:57.13	203.97	14.19	-40.4	-43.0	20.4	6.02e-01	0	56	0	1049100288	51	5111
2026-01-11 01:39:01.17	203.91	13.74	-40.3	-42.9	20.4	6.04e-01	0	55	0	1056440320	51	5092
2026-01-11 01:39:05.21	203.85	13.29	-40.4	-43.0	20.4	6.02e-01	0	56	0	1064304640	51	5109
2026-01-11 01:39:09.25	203.79	12.86	-40.3	-43.0	20.4	6.04e-01	0	56	0	1071644672	51	5109
2026-01-11 01:39:13.29	203.74	12.43	-40.3	-42.9	20.4	6.02e-01	0	56	0	1079508992	51	5088
2026-01-11 01:39:17.33	203.68	12.01	-40.3	-43.0	20.3	6.04e-01	0	55	0	1086849024	51	5110
2026-01-11 01:39:21.36	203.63	11.60	-40.4	-43.0	20.2	6.06e-01	0	56	0	1094189056	51	5147
2026-01-11 01:39:25.40	203.58	11.20	-40.4	-43.2	20.0	6.04e-01	0	56	0	1102053376	51	5242
2026-01-11 01:39:29.44	203.53	10.80	-40.6	-43.4	19.9	6.05e-01	0	56	0	1109393408	51	5345
2026-01-11 01:39:33.48	203.49	10.42	-40.7	-43.5	19.6	6.04e-01	0	55	0	1117257728	51	5453
2026-01-11 01:39:37.52	203.44	10.03	-40.6	-43.6	19.5	6.04e-01	0	55	0	1124597760	52	5168
2026-01-11 01:39:41.56	203.40	9.66	-40.8	-43.8	19.2	6.03e-01	0	55	0	1132462080	52	5318
2026-01-11 01:39:45.60	203.36	9.29	-40.7	-43.8	19.2	6.05e-01	0	56	0	1139802112	52	5312
2026-01-11 01:39:49.64	203.32	8.92	-40.7	-43.7	19.2	6.02e-01	0	56	0	1147666432	52	5273
2026-01-11 01:39:53.68	203.28	8.57	-40.7	-43.8	19.0	6.02e-01	0	56	0	1155006464	52	5332
2026-01-11 01:39:57.72	203.24	8.21	-40.7	-43.9	18.8	6.03e-01	0	56	0	1162346496	52	5363
2026-01-11 01:40:01.76	203.20	7.87	-45.3	-64.0	3.8	7.50e-01	0	56	104	1168637952	61	32541
2026-01-11 01:40:05.80	203.17	7.53	-45.9	-64.8	3.8	7.46e-01	0	56	104	1168637952	62	33633
2026-01-11 01:40:09.84	203.14	7.19	-46.0	-64.9	3.8	7.43e-01	0	56	104	1168637952	62	34001
2026-01-11 01:40:13.88	203.10	6.86	-45.9	-64.9	3.8	7.47e-01	0	56	104	1168637952	62	33781
2026-01-11 01:40:17.93	203.07	6.53	-45.9	-64.8	3.8	7.45e-01	0	56	104	1168637952	62	33649
2026-01-11 01:40:21.97	203.04	6.21	-45.9	-64.8	3.8	7.46e-01	0	56	104	1168637952	62	33627
2026-01-11 01:40:26.02	203.01	5.89	-45.9	-64.8	3.8	7.43e-01	0	56	104	1168637952	62	33580
2026-01-11 01:40:30.06	202.98	5.58	-45.9	-64.8	3.8	7.46e-01	0	56	104	1168637952	62	33573
2026-01-11 01:40:34.10	202.95	5.27	-45.9	-64.8	3.8	7.48e-01	0	56	104	1168637952	62	33528
2026-01-11 01:40:38.15	202.92	4.96	-45.9	-64.8	3.8	7.46e-01	0	56	104	1168637952	62	33574
2026-01-11 01:40:42.19	202.90	4.66	-45.9	-64.8	3.8	7.42e-01	0	56	104	1168637952	62	33507
2026-01-11 01:40:46.24	202.87	4.36	-45.9	-64.8	3.8	7.46e-01	0	56	104	1168637952	62	33516
2026-01-11 01:40:50.28	202.85	4.06	-45.9	-64.8	3.8	7.46e-01	0	56	104	1168637952	62	33466
2026-01-11 01:40:54.32	202.82	3.77	-45.8	-64.8	3.8	7.45e-01	0	56	104	1168637952	62	33436
2026-01-11 01:40:58.36	202.80	3.49	-45.9	-64.8	3.8	7.45e-01	0	56	104	1168637952	62	33453
2026-01-11 01:41:02.41	202.78	3.20	-45.8	-64.8	3.8	7.48e-01	0	56	104	1168637952	62	33375
2026-01-11 01:41:06.45	202.76	2.92	-45.8	-64.8	3.8	7.44e-01	0	56	104	1168637952	62	33440
2026-01-11 01:41:10.50	202.73	2.64	-45.8	-64.8	3.8	7.46e-01	0	56	104	1168637952	62	33503
2026-01-11 01:41:14.54	202.71	2.37	-45.9	-64.8	3.8	7.45e-01	0	56	104	1168637952	62	33398
2026-01-11 01:41:18.59	202.69	2.10	-45.9	-64.7	3.8	7.44e-01	0	56	104	1168637952	62	33298

#Closed at: 2026-01-11 01:41:21
#Recorded file [1168 MB]: D:/lorett/data/31039_260111_042830.dat