passes_logs/2026/01/11/R2.0S_Moscow/R2.0S_Moscow__20260111_115303_NOAA_21_JPSS-2_rec.log

#Pass ID: 20260111_115303_NOAA 21 (JPSS-2)
#Satellite: NOAA 21 (JPSS-2)
#Configuration: NOAA-21
#almurnet v.1.7.20251203
#Start time: 2026-01-11 11:54:20

#Version: 2.2.20231116
#Station: R2.0S_Moscow
#Location: 37.707566 lon 55.798166 lat
#TLE: 1 54234U 22150A   26009.79679979  .00000100  00000+0  68070-4 0  9993
#TLE: 2 54234  98.7494 310.7596 0000833 322.2782  37.8335 14.19533646164071

#Time	Az	El	Level	Level2	SNR	BER	BlckErr	Temp	State	Recorded	gain1	gain2
2026-01-11 11:54:20.62	229.55	5.83	-45.0	-56.8	3.8	8.46e-01	0	57	0	0	60	14898
2026-01-11 11:54:23.64	229.90	5.98	-45.2	-57.6	3.8	1.49e+00	0	57	104	0	62	14625
2026-01-11 11:54:26.67	230.25	6.13	-45.1	-57.6	3.8	1.49e+00	0	57	104	0	62	14551
2026-01-11 11:54:29.70	230.61	6.28	-44.8	-57.3	3.8	1.49e+00	0	57	104	0	61	14880
2026-01-11 11:54:32.73	230.97	6.44	-44.2	-56.6	3.8	1.49e+00	0	57	104	0	60	14545
2026-01-11 11:54:35.76	231.34	6.59	-44.2	-56.6	3.8	1.49e+00	0	57	104	0	60	14561
2026-01-11 11:54:38.79	231.70	6.74	-44.1	-56.6	3.8	1.49e+00	0	57	104	0	60	14606
2026-01-11 11:54:41.82	232.08	6.89	-44.1	-56.5	3.8	1.49e+00	0	57	104	0	60	14459
2026-01-11 11:54:44.86	232.45	7.04	-44.1	-56.2	3.8	1.49e+00	0	57	104	0	60	13911
2026-01-11 11:54:47.89	232.83	7.20	-44.0	-55.2	3.8	1.49e+00	0	57	104	0	60	12463
2026-01-11 11:54:50.92	233.22	7.35	-43.9	-54.0	3.9	1.47e+00	0	57	104	0	59	11446
2026-01-11 11:54:53.95	233.61	7.50	-43.8	-52.4	4.4	1.45e+00	0	57	104	0	59	9541
2026-01-11 11:54:56.98	234.00	7.65	-43.7	-51.9	4.5	1.16e+00	2	57	104	0	59	8990
2026-01-11 11:55:00.01	234.39	7.80	-43.7	-52.6	4.0	1.26e+00	0	57	104	0	59	9753
2026-01-11 11:55:03.05	234.79	7.95	-43.7	-51.8	4.6	1.23e+00	0	57	104	0	59	8904
2026-01-11 11:55:06.08	235.20	8.10	-43.1	-49.1	6.2	3.14e-01	0	57	0	4194304	58	6938
2026-01-11 11:55:09.11	235.60	8.25	-41.5	-45.3	9.7	1.48e-02	0	57	0	13631488	55	5307
2026-01-11 11:55:12.14	236.02	8.40	-40.1	-42.8	12.4	1.81e-04	0	57	0	23068672	52	4719
2026-01-11 11:55:15.17	236.43	8.55	-40.0	-42.6	12.7	9.46e-05	0	57	0	32505856	51	4884
2026-01-11 11:55:18.20	236.85	8.69	-41.2	-44.6	10.6	2.98e-03	0	57	0	34603008	53	5482
2026-01-11 11:55:21.23	237.27	8.84	-39.7	-42.2	13.1	4.57e-05	0	57	0	45088768	51	4678
2026-01-11 11:55:24.26	237.70	8.99	-39.6	-42.0	13.3	1.98e-05	0	57	0	53477376	51	4587
2026-01-11 11:55:27.29	238.13	9.14	-39.8	-42.2	13.1	2.51e-05	0	57	0	63963136	51	4689
2026-01-11 11:55:30.32	238.57	9.28	-39.6	-41.9	13.5	1.14e-05	0	57	0	73400320	51	4522
2026-01-11 11:55:33.35	239.01	9.43	-39.2	-41.3	14.0	3.80e-06	0	57	0	82837504	50	4488
2026-01-11 11:55:36.39	239.46	9.57	-39.0	-41.2	14.2	1.50e-06	0	57	0	92274688	50	4400
2026-01-11 11:55:39.41	239.90	9.72	-39.0	-41.1	14.2	2.20e-06	0	57	0	101711872	50	4386
2026-01-11 11:55:42.44	240.36	9.86	-38.9	-41.0	14.4	0.00e+00	0	57	0	111149056	49	4572
2026-01-11 11:55:45.47	240.82	10.00	-39.0	-41.2	14.2	0.00e+00	0	57	0	120586240	49	4664
2026-01-11 11:55:48.49	241.28	10.15	-38.9	-41.0	14.4	0.00e+00	0	57	0	130023424	49	4585
2026-01-11 11:55:51.52	241.74	10.29	-38.9	-41.0	14.4	0.00e+00	0	57	0	139460608	49	4588
2026-01-11 11:55:54.55	242.21	10.43	-38.9	-41.0	14.4	0.00e+00	0	57	0	148897792	49	4572
2026-01-11 11:55:57.58	242.69	10.57	-38.7	-40.7	14.7	0.00e+00	0	57	0	158334976	49	4418
2026-01-11 11:56:00.61	243.17	10.71	-38.7	-40.7	14.7	0.00e+00	0	57	0	167772160	49	4414
2026-01-11 11:56:03.64	243.65	10.84	-38.7	-40.7	14.8	0.00e+00	0	57	0	177209344	49	4400
2026-01-11 11:56:06.67	244.14	10.98	-38.7	-40.6	14.8	0.00e+00	0	57	0	186646528	49	4369
2026-01-11 11:56:09.70	244.63	11.11	-38.7	-40.7	14.8	7.00e-07	0	57	0	196083712	49	4393
2026-01-11 11:56:12.74	245.13	11.25	-38.7	-40.7	14.7	0.00e+00	0	57	0	205520896	49	4436
2026-01-11 11:56:15.76	245.63	11.38	-38.8	-40.8	14.7	0.00e+00	0	57	0	214958080	49	4446
2026-01-11 11:56:18.79	246.14	11.51	-38.7	-40.7	14.8	7.00e-07	0	57	0	224395264	49	4412
2026-01-11 11:56:21.82	246.65	11.64	-38.7	-40.7	14.8	0.00e+00	0	57	0	233832448	49	4405
2026-01-11 11:56:24.86	247.16	11.77	-38.9	-40.9	14.6	7.00e-07	0	57	0	243269632	49	4525
2026-01-11 11:56:27.89	247.68	11.90	-38.9	-41.0	14.5	0.00e+00	0	58	0	252706816	49	4570
2026-01-11 11:56:30.92	248.21	12.03	-39.0	-41.1	14.4	7.00e-07	0	57	0	262144000	49	4621
2026-01-11 11:56:33.95	248.73	12.15	-38.9	-41.0	14.5	0.00e+00	0	57	0	271581184	49	4560
2026-01-11 11:56:36.98	249.26	12.27	-38.8	-40.9	14.7	7.00e-07	0	57	0	281018368	49	4495
2026-01-11 11:56:40.01	249.80	12.39	-38.7	-40.7	14.8	0.00e+00	0	57	0	290455552	49	4405
2026-01-11 11:56:43.04	250.34	12.51	-38.7	-40.7	14.9	7.00e-07	0	57	0	299892736	49	4394
2026-01-11 11:56:46.07	250.89	12.63	-38.8	-40.8	14.8	0.00e+00	0	57	0	309329920	49	4445
2026-01-11 11:56:49.10	251.43	12.75	-38.8	-40.8	14.7	0.00e+00	0	57	0	318767104	49	4473
2026-01-11 11:56:52.13	251.99	12.86	-38.8	-40.8	14.7	7.00e-07	0	57	0	328204288	49	4461
2026-01-11 11:56:55.16	252.55	12.97	-38.8	-40.8	14.7	7.00e-07	0	57	0	337641472	49	4473
2026-01-11 11:56:58.19	253.11	13.08	-38.8	-40.8	14.7	0.00e+00	0	57	0	347078656	49	4470
2026-01-11 11:57:01.22	253.67	13.19	-38.8	-40.8	14.7	0.00e+00	0	57	0	356515840	49	4481
2026-01-11 11:57:04.25	254.24	13.30	-38.8	-40.7	14.8	0.00e+00	0	57	0	365953024	49	4436
2026-01-11 11:57:07.28	254.81	13.40	-38.6	-40.6	15.0	0.00e+00	0	57	0	376438784	49	4347
2026-01-11 11:57:10.31	255.39	13.50	-38.6	-40.5	15.0	0.00e+00	0	57	0	384827392	49	4326
2026-01-11 11:57:13.34	255.97	13.60	-38.6	-40.5	15.1	0.00e+00	0	57	0	395313152	49	4303
2026-01-11 11:57:16.37	256.56	13.70	-38.7	-40.6	15.0	0.00e+00	0	57	0	404750336	49	4373
2026-01-11 11:57:19.40	257.14	13.79	-38.6	-40.5	15.1	0.00e+00	0	57	0	414187520	49	4293
2026-01-11 11:57:22.43	257.74	13.89	-38.4	-40.3	15.3	0.00e+00	0	58	0	423624704	48	4445
2026-01-11 11:57:25.46	258.33	13.98	-38.6	-40.5	15.0	0.00e+00	0	57	0	433061888	48	4581
2026-01-11 11:57:28.49	258.93	14.06	-38.6	-40.6	15.0	0.00e+00	0	57	0	442499072	48	4608
2026-01-11 11:57:31.52	259.53	14.15	-38.5	-40.4	15.1	0.00e+00	0	58	0	451936256	48	4541
2026-01-11 11:57:34.55	260.14	14.23	-38.6	-40.5	15.1	0.00e+00	0	57	0	461373440	48	4550
2026-01-11 11:57:37.58	260.74	14.31	-38.4	-40.3	15.3	0.00e+00	0	57	0	470810624	48	4462
2026-01-11 11:57:40.61	261.36	14.39	-38.3	-40.1	15.5	0.00e+00	0	57	0	480247808	48	4350
2026-01-11 11:57:43.64	261.97	14.46	-38.3	-40.1	15.5	0.00e+00	0	57	0	489684992	48	4358
2026-01-11 11:57:46.67	262.59	14.53	-38.4	-40.2	15.4	0.00e+00	0	57	0	499122176	48	4413
2026-01-11 11:57:49.70	263.21	14.60	-38.6	-40.5	15.1	0.00e+00	0	58	0	508559360	48	4573
2026-01-11 11:57:52.73	263.83	14.66	-38.4	-40.2	15.3	0.00e+00	0	57	0	517996544	48	4432
2026-01-11 11:57:55.76	264.46	14.73	-38.2	-40.0	15.6	0.00e+00	0	57	0	527433728	48	4299
2026-01-11 11:57:58.79	265.08	14.78	-38.2	-40.0	15.5	0.00e+00	0	57	0	536870912	48	4325
2026-01-11 11:58:01.82	265.71	14.84	-38.2	-40.0	15.6	0.00e+00	0	57	0	546308096	48	4323
2026-01-11 11:58:04.85	266.35	14.89	-38.3	-40.1	15.5	0.00e+00	0	57	0	555745280	48	4361
2026-01-11 11:58:07.88	266.98	14.94	-38.4	-40.2	15.3	0.00e+00	0	57	0	565182464	48	4440
2026-01-11 11:58:10.91	267.62	14.99	-38.4	-40.3	15.3	0.00e+00	0	57	0	574619648	48	4444
2026-01-11 11:58:13.94	268.26	15.03	-38.2	-40.0	15.6	0.00e+00	0	57	0	584056832	48	4299
2026-01-11 11:58:16.97	268.90	15.07	-38.2	-40.0	15.6	0.00e+00	0	57	0	593494016	48	4328
2026-01-11 11:58:20.00	269.54	15.11	-38.2	-40.0	15.5	0.00e+00	0	57	0	602931200	48	4329
2026-01-11 11:58:23.03	270.18	15.14	-38.2	-40.0	15.5	7.00e-07	0	57	0	612368384	48	4338
2026-01-11 11:58:26.05	270.82	15.17	-38.3	-40.1	15.4	0.00e+00	0	57	0	621805568	48	4391
2026-01-11 11:58:29.08	271.47	15.20	-38.4	-40.2	15.3	0.00e+00	0	57	0	631242752	48	4434
2026-01-11 11:58:32.11	272.11	15.22	-38.4	-40.2	15.4	0.00e+00	0	57	0	640679936	48	4424
2026-01-11 11:58:35.14	272.76	15.24	-38.5	-40.4	15.1	0.00e+00	0	57	0	650117120	48	4507
2026-01-11 11:58:38.17	273.41	15.26	-38.6	-40.5	15.1	0.00e+00	0	57	0	659554304	48	4548
2026-01-11 11:58:41.20	274.06	15.27	-38.4	-40.3	15.2	0.00e+00	0	57	0	668991488	48	4459
2026-01-11 11:58:44.23	274.71	15.28	-38.3	-40.2	15.4	0.00e+00	0	57	0	678428672	48	4408
2026-01-11 11:58:47.26	275.35	15.29	-38.5	-40.4	15.2	0.00e+00	0	58	0	687865856	48	4523
2026-01-11 11:58:50.28	276.00	15.29	-38.6	-40.6	14.9	0.00e+00	0	57	0	698351616	48	4615
2026-01-11 11:58:53.31	276.65	15.29	-38.6	-40.5	15.0	0.00e+00	0	57	0	706740224	48	4564
2026-01-11 11:58:56.34	277.30	15.29	-38.5	-40.4	15.1	0.00e+00	0	58	0	717225984	48	4522
2026-01-11 11:58:59.37	277.95	15.28	-38.5	-40.4	15.1	0.00e+00	0	57	0	726663168	48	4515
2026-01-11 11:59:02.40	278.60	15.27	-38.5	-40.4	15.1	0.00e+00	0	57	0	736100352	48	4518
2026-01-11 11:59:05.43	279.24	15.25	-38.5	-40.4	15.1	0.00e+00	0	58	0	745537536	48	4513
2026-01-11 11:59:08.46	279.89	15.23	-38.4	-40.2	15.3	7.00e-07	0	57	0	754974720	48	4436
2026-01-11 11:59:11.49	280.54	15.21	-38.3	-40.1	15.4	0.00e+00	0	57	0	764411904	48	4349
2026-01-11 11:59:14.52	281.18	15.19	-38.2	-40.1	15.4	0.00e+00	0	58	0	773849088	48	4351
2026-01-11 11:59:17.55	281.83	15.16	-38.3	-40.1	15.3	0.00e+00	0	57	0	783286272	48	4386
2026-01-11 11:59:20.58	282.47	15.13	-38.4	-40.3	15.2	0.00e+00	0	58	0	792723456	48	4447
2026-01-11 11:59:23.61	283.11	15.09	-38.4	-40.2	15.2	0.00e+00	0	58	0	802160640	48	4440
2026-01-11 11:59:26.64	283.75	15.06	-38.5	-40.5	15.0	0.00e+00	0	58	0	811597824	48	4547
2026-01-11 11:59:29.67	284.39	15.01	-38.5	-40.4	15.1	0.00e+00	0	58	0	821035008	48	4499
2026-01-11 11:59:32.70	285.02	14.97	-38.4	-40.3	15.1	0.00e+00	0	57	0	830472192	48	4483
2026-01-11 11:59:35.72	285.66	14.92	-38.6	-40.5	14.9	1.50e-06	0	57	0	839909376	48	4592
2026-01-11 11:59:38.76	286.29	14.87	-38.7	-40.7	14.8	0.00e+00	0	58	0	849346560	48	4660
2026-01-11 11:59:41.79	286.92	14.82	-38.5	-40.4	15.0	0.00e+00	0	58	0	858783744	48	4525
2026-01-11 11:59:44.82	287.55	14.76	-38.5	-40.5	14.9	0.00e+00	0	57	0	868220928	48	4559
2026-01-11 11:59:47.84	288.17	14.70	-38.5	-40.5	14.9	0.00e+00	0	58	0	877658112	48	4564
2026-01-11 11:59:50.87	288.79	14.64	-38.6	-40.6	14.8	0.00e+00	0	58	0	887095296	48	4610
2026-01-11 11:59:53.90	289.41	14.57	-38.7	-40.7	14.7	0.00e+00	0	57	0	896532480	48	4697
2026-01-11 11:59:56.93	290.03	14.50	-38.8	-40.8	14.5	0.00e+00	0	58	0	905969664	48	4743
2026-01-11 11:59:59.97	290.65	14.43	-38.5	-40.4	14.9	0.00e+00	0	58	0	915406848	48	4530
2026-01-11 12:00:02.99	291.26	14.36	-38.3	-40.2	15.1	0.00e+00	0	58	0	924844032	48	4418
2026-01-11 12:00:06.02	291.86	14.28	-38.2	-40.2	15.1	0.00e+00	0	57	0	934281216	48	4397
2026-01-11 12:00:09.05	292.47	14.20	-38.3	-40.2	15.0	0.00e+00	0	57	0	943718400	48	4425
2026-01-11 12:00:12.08	293.07	14.12	-38.4	-40.3	14.9	7.00e-07	0	58	0	953155584	48	4478
2026-01-11 12:00:15.11	293.67	14.03	-38.3	-40.2	15.0	0.00e+00	0	58	0	962592768	48	4433
2026-01-11 12:00:18.14	294.26	13.94	-38.2	-40.1	15.0	0.00e+00	0	58	0	972029952	48	4384
2026-01-11 12:00:21.17	294.85	13.85	-38.2	-40.1	15.0	0.00e+00	0	58	0	981467136	48	4390
2026-01-11 12:00:24.20	295.44	13.76	-38.2	-40.2	15.0	0.00e+00	0	58	0	990904320	48	4403
2026-01-11 12:00:27.23	296.03	13.67	-38.4	-40.3	14.9	0.00e+00	0	58	0	1000341504	48	4475
2026-01-11 12:00:30.26	296.61	13.57	-38.4	-40.4	14.8	0.00e+00	0	58	0	1009778688	48	4526
2026-01-11 12:00:33.29	297.18	13.47	-38.5	-40.4	14.8	0.00e+00	0	58	0	1019215872	48	4535
2026-01-11 12:00:36.32	297.76	13.37	-38.5	-40.5	14.8	2.20e-06	0	57	0	1028653056	48	4592
2026-01-11 12:00:39.35	298.33	13.26	-38.5	-40.5	14.8	0.00e+00	0	58	0	1039138816	48	4566
2026-01-11 12:00:42.38	298.89	13.16	-38.5	-40.4	15.0	0.00e+00	0	58	0	1048576000	48	4523
2026-01-11 12:00:45.42	299.45	13.05	-38.5	-40.4	15.0	1.50e-06	0	58	0	1058013184	48	4539
2026-01-11 12:00:48.44	300.01	12.94	-38.6	-40.5	14.9	0.00e+00	0	58	0	1067450368	48	4576
2026-01-11 12:00:51.47	300.56	12.83	-38.6	-40.6	14.9	0.00e+00	0	58	0	1076887552	48	4603
2026-01-11 12:00:54.51	301.11	12.71	-38.5	-40.4	15.0	0.00e+00	0	58	0	1086324736	48	4517
2026-01-11 12:00:57.54	301.66	12.60	-38.5	-40.4	15.0	0.00e+00	0	58	0	1095761920	48	4513
2026-01-11 12:01:00.57	302.20	12.48	-38.3	-40.2	15.2	0.00e+00	0	58	0	1105199104	48	4400
2026-01-11 12:01:03.60	302.73	12.36	-38.4	-40.3	15.0	0.00e+00	0	58	0	1114636288	48	4492
2026-01-11 12:01:06.63	303.26	12.24	-38.6	-40.5	14.9	0.00e+00	0	58	0	1124073472	48	4573
2026-01-11 12:01:09.66	303.79	12.12	-38.6	-40.6	14.8	7.00e-07	0	58	0	1133510656	48	4621
2026-01-11 12:01:12.68	304.31	11.99	-38.7	-40.6	14.7	1.50e-06	0	58	0	1142947840	48	4647
2026-01-11 12:01:15.71	304.83	11.87	-38.6	-40.5	14.8	0.00e+00	0	58	0	1152385024	48	4598
2026-01-11 12:01:18.75	305.35	11.74	-38.6	-40.6	14.7	0.00e+00	0	58	0	1161822208	48	4636
2026-01-11 12:01:21.78	305.86	11.61	-38.7	-40.7	14.6	0.00e+00	0	58	0	1171259392	48	4690
2026-01-11 12:01:24.81	306.36	11.48	-38.9	-41.0	14.4	1.50e-06	0	58	0	1180696576	48	4831
2026-01-11 12:01:27.84	306.87	11.35	-38.9	-41.0	14.3	1.50e-06	0	58	0	1190133760	48	4847
2026-01-11 12:01:30.87	307.36	11.22	-38.9	-41.0	14.4	3.80e-06	0	58	0	1199570944	48	4816
2026-01-11 12:01:33.90	307.85	11.09	-38.9	-41.0	14.3	7.00e-07	0	58	0	1209008128	48	4847
2026-01-11 12:01:36.93	308.34	10.95	-38.8	-40.9	14.4	7.00e-07	0	58	0	1218445312	48	4802
2026-01-11 12:01:39.96	308.83	10.82	-39.0	-41.1	14.2	0.00e+00	0	58	0	1227882496	48	4925
2026-01-11 12:01:42.99	309.31	10.68	-39.2	-41.4	13.9	4.50e-06	0	58	0	1237319680	49	4809
2026-01-11 12:01:46.02	309.78	10.55	-39.3	-41.6	13.7	3.80e-06	0	58	0	1246756864	49	4916
2026-01-11 12:01:49.05	310.25	10.41	-39.3	-41.6	13.6	7.60e-06	0	58	0	1256194048	49	4920
2026-01-11 12:01:52.08	310.72	10.27	-39.2	-41.5	13.8	3.00e-06	0	58	0	1265631232	49	4815
2026-01-11 12:01:55.11	311.18	10.13	-39.2	-41.5	13.7	3.80e-06	0	58	0	1275068416	49	4845
2026-01-11 12:01:58.14	311.64	9.99	-39.3	-41.6	13.7	5.30e-06	0	58	0	1284505600	49	4886
2026-01-11 12:02:01.17	312.09	9.85	-39.4	-41.7	13.5	4.50e-06	0	58	0	1293942784	49	4956
2026-01-11 12:02:04.21	312.55	9.70	-39.3	-41.6	13.6	9.90e-06	0	58	0	1303379968	49	4871
2026-01-11 12:02:07.24	312.99	9.56	-39.3	-41.6	13.6	4.50e-06	0	58	0	1312817152	49	4887
2026-01-11 12:02:10.27	313.43	9.42	-39.4	-41.8	13.4	9.90e-06	0	58	0	1322254336	49	5004
2026-01-11 12:02:13.30	313.87	9.27	-39.5	-41.8	13.3	1.29e-05	0	57	0	1332740096	49	5034
2026-01-11 12:02:16.33	314.30	9.13	-39.4	-41.8	13.3	1.52e-05	0	58	0	1342177280	49	5016
2026-01-11 12:02:19.36	314.73	8.98	-39.4	-41.8	13.3	1.52e-05	0	58	0	1351614464	49	5009
2026-01-11 12:02:22.39	315.15	8.84	-39.5	-41.9	13.1	2.36e-05	0	58	0	1361051648	49	5098
2026-01-11 12:02:25.43	315.58	8.69	-39.7	-42.2	12.9	4.88e-05	0	58	0	1370488832	49	5237
2026-01-11 12:02:28.45	315.99	8.54	-39.8	-42.4	12.7	8.08e-05	0	58	0	1379926016	50	5060
2026-01-11 12:02:31.48	316.40	8.40	-40.0	-42.6	12.5	1.30e-04	0	58	0	1389363200	50	5195
2026-01-11 12:02:34.51	316.81	8.25	-39.7	-42.3	12.8	5.87e-05	0	58	0	1398800384	50	4993
2026-01-11 12:02:37.54	317.22	8.10	-39.6	-42.2	12.9	4.80e-05	0	58	0	1408237568	50	4938
2026-01-11 12:02:40.57	317.62	7.95	-44.5	-56.7	3.8	1.49e+00	0	58	104	1414529024	59	15623
2026-01-11 12:02:43.61	318.01	7.80	-45.0	-57.4	3.8	1.49e+00	0	58	104	1414529024	60	16125
2026-01-11 12:02:46.64	318.41	7.66	-45.2	-57.6	3.8	1.49e+00	0	58	104	1414529024	60	16447
2026-01-11 12:02:49.67	318.79	7.51	-45.2	-57.7	3.8	1.49e+00	0	58	104	1414529024	60	16526
2026-01-11 12:02:52.70	319.18	7.36	-45.1	-57.6	3.8	1.49e+00	0	58	104	1414529024	60	16486
2026-01-11 12:02:55.73	319.56	7.21	-45.1	-57.6	3.8	1.49e+00	0	58	104	1414529024	60	16440
2026-01-11 12:02:58.76	319.94	7.06	-45.1	-57.6	3.8	1.49e+00	0	58	104	1414529024	60	16427
2026-01-11 12:03:01.79	320.31	6.91	-45.1	-57.6	3.8	1.49e+00	0	58	104	1414529024	60	16412
2026-01-11 12:03:04.83	320.68	6.76	-45.1	-57.6	3.8	1.49e+00	0	58	104	1414529024	60	16379
2026-01-11 12:03:07.86	321.05	6.61	-45.1	-57.6	3.8	1.49e+00	0	58	104	1414529024	60	16368
2026-01-11 12:03:10.89	321.41	6.46	-45.1	-57.6	3.8	1.49e+00	0	58	104	1414529024	60	16357
2026-01-11 12:03:13.93	321.77	6.31	-45.1	-57.6	3.8	1.49e+00	0	58	104	1414529024	60	16379
2026-01-11 12:03:16.96	322.13	6.16	-45.1	-57.6	3.8	1.49e+00	0	58	104	1414529024	60	16333
2026-01-11 12:03:19.99	322.48	6.01	-45.1	-57.6	3.8	1.49e+00	0	58	104	1414529024	60	16337
2026-01-11 12:03:23.03	322.83	5.86	-45.1	-57.6	3.8	1.49e+00	0	58	104	1414529024	60	16409
2026-01-11 12:03:26.06	323.17	5.71	-45.1	-57.6	3.8	1.49e+00	0	58	104	1414529024	60	16351
2026-01-11 12:03:29.09	323.51	5.56	-45.0	-57.6	3.8	1.49e+00	0	58	104	1414529024	60	16323
2026-01-11 12:03:32.12	323.85	5.41	-45.0	-57.6	3.8	1.49e+00	0	58	104	1414529024	60	16363
2026-01-11 12:03:35.15	324.19	5.26	-45.0	-57.6	3.8	1.49e+00	0	58	104	1414529024	60	16328
2026-01-11 12:03:38.19	324.52	5.11	-43.7	-57.3	3.8	1.49e+00	0	58	104	1414529024	59	16773
2026-01-11 12:03:41.22	324.85	4.96	-45.0	-57.6	3.8	1.49e+00	0	58	104	1414529024	60	16318
2026-01-11 12:03:44.25	325.17	4.81	-45.0	-57.6	3.8	1.49e+00	0	58	104	1414529024	60	16329
2026-01-11 12:03:47.29	325.50	4.66	-45.0	-57.5	3.8	1.49e+00	0	58	104	1414529024	60	16310
2026-01-11 12:03:50.32	325.82	4.51	-45.0	-57.5	3.8	1.49e+00	0	58	104	1414529024	60	16298
2026-01-11 12:03:53.35	326.13	4.36	-45.0	-57.6	3.8	1.49e+00	0	58	104	1414529024	60	16349
2026-01-11 12:03:56.39	326.45	4.21	-45.0	-57.6	3.8	1.49e+00	0	58	104	1414529024	60	16332
2026-01-11 12:03:59.42	326.76	4.06	-45.0	-57.5	3.8	1.49e+00	0	58	104	1414529024	60	16266
2026-01-11 12:04:02.45	327.06	3.91	-44.6	-57.5	3.8	1.49e+00	0	58	104	1414529024	60	16295
2026-01-11 12:04:05.48	327.37	3.76	-45.0	-57.5	3.8	1.49e+00	0	58	104	1414529024	60	16265
2026-01-11 12:04:08.52	327.67	3.61	-45.0	-57.5	3.8	1.49e+00	0	58	104	1414529024	60	16278
2026-01-11 12:04:11.55	327.97	3.47	-44.7	-57.5	3.8	1.49e+00	0	58	104	1414529024	60	16252
2026-01-11 12:04:14.58	328.26	3.32	-45.0	-57.5	3.8	1.49e+00	0	58	104	1414529024	60	16282
2026-01-11 12:04:17.62	328.56	3.17	-45.0	-57.5	3.8	1.49e+00	0	58	104	1414529024	60	16247
2026-01-11 12:04:20.65	328.85	3.02	-45.0	-57.5	3.8	1.49e+00	0	58	104	1414529024	60	16268
2026-01-11 12:04:23.68	329.13	2.87	-45.0	-57.5	3.8	1.49e+00	0	58	104	1414529024	60	16282
2026-01-11 12:04:26.71	329.42	2.73	-45.0	-57.5	3.8	1.49e+00	0	58	104	1414529024	60	16285
2026-01-11 12:04:29.75	329.70	2.58	-45.0	-57.5	3.8	1.49e+00	0	58	104	1414529024	60	16276
2026-01-11 12:04:32.78	329.98	2.43	-45.0	-57.5	3.8	1.49e+00	0	58	104	1414529024	60	16275
2026-01-11 12:04:35.82	330.26	2.29	-45.0	-57.5	3.8	1.49e+00	0	58	104	1414529024	60	16277
2026-01-11 12:04:38.85	330.53	2.14	-45.0	-57.5	3.8	1.49e+00	0	58	104	1414529024	60	16232
2026-01-11 12:04:41.88	330.80	1.99	-45.0	-57.5	3.8	1.49e+00	0	58	104	1414529024	60	16285

#Closed at: 2026-01-11 12:04:44
#Recorded file [1414 MB]: D:/lorett/data/31039_260111_145420.dat