passes_logs/2026/01/11/R2.0S_Moscow/R2.0S_Moscow__20260111_124015_AQUA_rec.log

#Pass ID: 20260111_124015_AQUA
#Satellite: AQUA
#Configuration: AQUA
#almurnet v.1.7.20251203
#Start time: 2026-01-11 12:40:17

#Version: 2.2.20231116
#Station: R2.0S_Moscow
#Location: 37.707566 lon 55.798166 lat
#TLE: 1 27424U 02022A   26009.89520876  .00001045  00000+0  21914-3 0  9996
#TLE: 2 27424  98.4076 336.2372 0002032  84.5955   1.0356 14.61811442260144

#Time	Az	El	Level	Level2	SNR	BER	BlckErr	Temp	State	Recorded	gain1	gain2
2026-01-11 12:40:17.65	193.51	2.15	-44.7	-63.6	3.8	7.45e-01	0	46	0	0	61	30984
2026-01-11 12:40:20.67	193.68	2.33	-44.7	-63.6	3.8	7.46e-01	0	47	104	0	60	32882
2026-01-11 12:40:23.70	193.87	2.53	-44.6	-63.6	3.8	7.45e-01	0	47	104	0	60	32856
2026-01-11 12:40:26.73	194.05	2.72	-44.7	-63.6	3.8	7.47e-01	0	47	104	0	60	32781
2026-01-11 12:40:29.77	194.24	2.91	-44.7	-63.6	3.8	7.47e-01	0	48	104	0	60	32816
2026-01-11 12:40:32.80	194.42	3.10	-44.7	-63.6	3.8	7.42e-01	0	47	104	0	60	32754
2026-01-11 12:40:35.83	194.61	3.30	-44.7	-63.6	3.8	7.45e-01	0	48	104	0	60	32809
2026-01-11 12:40:38.87	194.81	3.50	-44.7	-63.6	3.8	7.44e-01	0	48	104	0	60	32727
2026-01-11 12:40:41.90	195.00	3.69	-44.7	-63.6	3.8	7.43e-01	0	48	104	0	60	32748
2026-01-11 12:40:44.93	195.20	3.89	-44.7	-63.6	3.8	7.45e-01	0	49	104	0	60	32810
2026-01-11 12:40:47.97	195.41	4.09	-44.7	-63.6	3.8	7.47e-01	0	49	104	0	60	32790
2026-01-11 12:40:51.00	195.61	4.30	-44.7	-63.6	3.8	7.44e-01	0	49	104	0	60	32770
2026-01-11 12:40:54.03	195.82	4.50	-44.7	-63.6	3.8	7.45e-01	0	49	104	0	60	32731
2026-01-11 12:40:57.06	196.03	4.70	-44.7	-63.6	3.8	7.46e-01	0	49	104	0	60	32666
2026-01-11 12:41:00.10	196.25	4.91	-44.7	-63.4	3.8	7.42e-01	0	49	104	0	60	31932
2026-01-11 12:41:03.13	196.46	5.12	-44.7	-62.9	3.8	7.45e-01	0	50	104	0	60	30118
2026-01-11 12:41:06.17	196.68	5.33	-44.7	-62.1	3.8	7.50e-01	0	50	104	0	60	27618
2026-01-11 12:41:09.20	196.91	5.54	-44.6	-60.5	4.1	7.43e-01	0	50	104	0	60	22803
2026-01-11 12:41:12.23	197.13	5.75	-44.6	-58.6	4.7	7.18e-01	0	50	104	0	60	18438
2026-01-11 12:41:15.27	197.37	5.97	-44.5	-57.6	5.3	7.02e-01	8	50	0	0	60	16364
2026-01-11 12:41:18.30	197.60	6.18	-44.4	-56.7	5.9	6.87e-01	47	50	0	2097152	60	14731
2026-01-11 12:41:21.33	197.84	6.40	-44.3	-55.3	7.0	6.64e-01	91	50	0	7864320	60	12586
2026-01-11 12:41:24.36	198.08	6.62	-44.3	-54.9	7.4	6.59e-01	90	50	0	13107200	60	12047
2026-01-11 12:41:27.40	198.33	6.84	-44.1	-53.8	8.5	6.40e-01	14	51	0	18874368	60	10545
2026-01-11 12:41:30.43	198.58	7.06	-44.1	-52.4	10.3	6.21e-01	0	51	0	24641536	59	9508
2026-01-11 12:41:33.46	198.83	7.29	-43.1	-48.6	14.3	6.09e-01	0	51	0	30408704	58	6507
2026-01-11 12:41:36.49	199.09	7.51	-42.0	-46.1	16.8	6.08e-01	0	51	0	36175872	56	5489
2026-01-11 12:41:39.52	199.35	7.74	-41.2	-44.6	18.3	6.05e-01	0	51	0	41943040	54	5163
2026-01-11 12:41:42.55	199.62	7.97	-41.2	-44.5	18.4	6.07e-01	0	51	0	47710208	54	5143
2026-01-11 12:41:45.58	199.89	8.20	-41.0	-44.1	18.0	6.05e-01	0	51	0	51904512	54	4909
2026-01-11 12:41:48.60	200.16	8.43	-41.6	-45.1	17.6	6.06e-01	0	52	0	57671680	55	5169
2026-01-11 12:41:51.63	200.44	8.67	-40.9	-44.0	19.1	6.06e-01	0	52	0	62914560	53	5110
2026-01-11 12:41:54.66	200.73	8.91	-40.9	-43.9	19.2	6.07e-01	0	52	0	68681728	53	5075
2026-01-11 12:41:57.69	201.02	9.15	-40.8	-43.7	19.4	6.09e-01	0	52	0	74448896	53	4983
2026-01-11 12:42:00.72	201.31	9.39	-40.6	-43.4	19.7	6.08e-01	0	52	0	80216064	53	4791
2026-01-11 12:42:03.75	201.61	9.63	-40.5	-43.2	20.0	6.04e-01	0	52	0	85983232	53	4684
2026-01-11 12:42:06.78	201.92	9.88	-40.5	-43.2	20.0	6.05e-01	0	52	0	91226112	52	4946
2026-01-11 12:42:09.80	202.23	10.12	-40.4	-43.1	20.1	6.05e-01	0	52	0	96993280	52	4915
2026-01-11 12:42:12.83	202.54	10.37	-40.4	-43.1	20.2	6.08e-01	0	52	0	102760448	52	4873
2026-01-11 12:42:15.86	202.86	10.62	-40.2	-42.8	20.5	6.06e-01	0	52	0	108527616	52	4745
2026-01-11 12:42:18.89	203.19	10.88	-40.4	-43.0	20.3	6.05e-01	0	52	0	114294784	52	4861
2026-01-11 12:42:21.92	203.53	11.13	-40.4	-43.1	20.3	6.06e-01	0	53	0	120061952	52	4889
2026-01-11 12:42:24.95	203.86	11.39	-40.3	-42.9	20.5	6.07e-01	0	52	0	125304832	52	4769
2026-01-11 12:42:27.98	204.21	11.65	-40.2	-42.7	20.7	6.05e-01	0	53	0	131072000	52	4670
2026-01-11 12:42:31.01	204.56	11.91	-40.1	-42.5	20.9	6.05e-01	0	53	0	136839168	52	4580
2026-01-11 12:42:34.04	204.92	12.18	-40.1	-42.5	20.9	6.09e-01	0	53	0	142606336	52	4578
2026-01-11 12:42:37.06	205.29	12.44	-40.1	-42.6	20.8	6.06e-01	0	53	0	148373504	52	4624
2026-01-11 12:42:40.09	205.66	12.71	-40.0	-42.5	20.9	6.08e-01	0	53	0	154140672	52	4566
2026-01-11 12:42:43.12	206.04	12.98	-40.1	-42.5	21.0	6.09e-01	0	53	0	159383552	51	4836
2026-01-11 12:42:46.16	206.43	13.26	-40.1	-42.5	21.1	6.06e-01	0	53	0	165150720	51	4826
2026-01-11 12:42:49.18	206.82	13.53	-40.1	-42.5	21.1	6.07e-01	0	53	0	170917888	51	4828
2026-01-11 12:42:52.22	207.23	13.81	-40.0	-42.3	21.3	6.06e-01	0	53	0	176685056	51	4738
2026-01-11 12:42:55.25	207.64	14.09	-40.1	-42.4	21.1	6.08e-01	0	53	0	182452224	51	4811
2026-01-11 12:42:58.28	208.06	14.37	-40.0	-42.3	21.3	6.07e-01	0	53	0	188219392	51	4751
2026-01-11 12:43:01.31	208.48	14.66	-40.0	-42.4	21.2	6.06e-01	0	53	0	193986560	51	4771
2026-01-11 12:43:04.34	208.92	14.95	-40.0	-42.4	21.2	6.06e-01	0	53	0	199229440	51	4789
2026-01-11 12:43:07.37	209.36	15.24	-39.9	-42.2	21.5	6.09e-01	0	53	0	204996608	51	4674
2026-01-11 12:43:10.40	209.82	15.53	-40.0	-42.3	21.4	6.06e-01	0	53	0	210763776	51	4711
2026-01-11 12:43:13.42	210.28	15.82	-39.9	-42.2	21.4	6.06e-01	0	53	0	216530944	51	4700
2026-01-11 12:43:16.45	210.75	16.12	-39.9	-42.2	21.5	6.08e-01	0	53	0	222298112	51	4683
2026-01-11 12:43:19.48	211.24	16.42	-39.9	-42.2	21.5	6.08e-01	0	53	0	227540992	51	4658
2026-01-11 12:43:22.51	211.73	16.72	-40.0	-42.3	21.4	6.07e-01	0	54	0	233308160	51	4730
2026-01-11 12:43:25.53	212.23	17.02	-39.9	-42.2	21.5	6.06e-01	0	54	0	239075328	51	4676
2026-01-11 12:43:28.56	212.74	17.32	-39.8	-42.1	21.7	6.06e-01	0	53	0	244842496	51	4608
2026-01-11 12:43:31.59	213.27	17.63	-39.8	-42.1	21.7	6.03e-01	0	54	0	250609664	51	4600
2026-01-11 12:43:34.62	213.80	17.94	-39.8	-42.0	21.7	6.06e-01	0	54	0	256376832	51	4598
2026-01-11 12:43:37.65	214.35	18.25	-39.8	-42.1	21.7	6.06e-01	0	54	0	261619712	51	4611
2026-01-11 12:43:40.68	214.91	18.56	-39.9	-42.1	21.7	6.06e-01	0	54	0	267386880	51	4624
2026-01-11 12:43:43.70	215.48	18.88	-39.9	-42.1	21.7	6.06e-01	0	54	0	273154048	51	4619
2026-01-11 12:43:46.73	216.06	19.19	-39.7	-41.9	21.9	6.08e-01	0	54	0	278921216	51	4529
2026-01-11 12:43:49.76	216.66	19.51	-39.7	-41.9	21.9	6.05e-01	0	54	0	284688384	51	4531
2026-01-11 12:43:52.79	217.26	19.83	-40.0	-42.2	21.6	6.07e-01	0	54	0	290455552	51	4698
2026-01-11 12:43:55.82	217.89	20.15	-39.8	-42.0	21.8	6.03e-01	0	54	0	295698432	51	4570
2026-01-11 12:43:58.85	218.52	20.48	-39.8	-42.0	21.8	6.06e-01	0	54	0	301465600	51	4576
2026-01-11 12:44:01.87	219.17	20.80	-39.9	-42.1	21.7	6.06e-01	0	54	0	307232768	51	4639
2026-01-11 12:44:04.90	219.83	21.12	-40.0	-42.2	21.6	6.07e-01	0	54	0	312999936	51	4704
2026-01-11 12:44:07.93	220.51	21.45	-39.8	-42.0	21.8	6.07e-01	0	54	0	318767104	51	4595
2026-01-11 12:44:10.96	221.20	21.77	-40.0	-42.3	21.6	6.07e-01	0	54	0	324534272	51	4736
2026-01-11 12:44:13.99	221.91	22.10	-40.1	-42.3	21.6	6.06e-01	0	54	0	329777152	51	4748
2026-01-11 12:44:17.02	222.63	22.43	-39.9	-42.1	21.8	6.04e-01	0	54	0	335544320	51	4648
2026-01-11 12:44:20.05	223.37	22.75	-40.1	-42.4	21.5	6.07e-01	0	54	0	341311488	51	4779
2026-01-11 12:44:23.07	224.13	23.08	-40.1	-42.3	21.6	6.06e-01	0	54	0	347078656	51	4751
2026-01-11 12:44:26.10	224.90	23.40	-39.9	-42.1	21.8	6.07e-01	0	54	0	352845824	51	4627
2026-01-11 12:44:29.13	225.69	23.73	-40.2	-42.4	21.5	6.07e-01	0	54	0	358612992	51	4812
2026-01-11 12:44:32.16	226.49	24.05	-40.2	-42.5	21.5	6.10e-01	0	54	0	363855872	51	4841
2026-01-11 12:44:35.19	227.31	24.37	-40.1	-42.3	21.6	6.06e-01	0	55	0	369623040	51	4744
2026-01-11 12:44:38.22	228.15	24.69	-40.0	-42.2	21.7	6.06e-01	0	54	0	375390208	51	4686
2026-01-11 12:44:41.24	229.01	25.01	-40.1	-42.4	21.6	6.07e-01	0	54	0	381157376	51	4792
2026-01-11 12:44:44.27	229.88	25.33	-40.1	-42.4	21.6	6.08e-01	0	54	0	386924544	51	4770
2026-01-11 12:44:47.30	230.77	25.64	-40.1	-42.4	21.5	6.06e-01	0	55	0	392167424	51	4787
2026-01-11 12:44:50.33	231.68	25.95	-40.1	-42.4	21.6	6.06e-01	0	55	0	397934592	51	4793
2026-01-11 12:44:53.36	232.61	26.26	-40.2	-42.5	21.4	6.07e-01	0	55	0	403701760	51	4862
2026-01-11 12:44:56.39	233.56	26.56	-40.2	-42.5	21.5	6.07e-01	0	55	0	409468928	51	4848
2026-01-11 12:44:59.41	234.52	26.86	-40.3	-42.6	21.4	6.08e-01	0	55	0	415236096	51	4923
2026-01-11 12:45:02.44	235.51	27.15	-40.3	-42.6	21.4	6.07e-01	0	55	0	421003264	51	4910
2026-01-11 12:45:05.47	236.51	27.44	-40.1	-42.4	21.6	6.07e-01	0	55	0	426770432	51	4771
2026-01-11 12:45:08.50	237.53	27.72	-40.1	-42.3	21.7	6.06e-01	0	55	0	432013312	51	4749
2026-01-11 12:45:11.53	238.57	27.99	-40.0	-42.2	21.8	6.07e-01	0	55	0	437780480	51	4686
2026-01-11 12:45:14.56	239.62	28.26	-40.1	-42.4	21.6	6.08e-01	0	55	0	443547648	51	4790
2026-01-11 12:45:17.58	240.70	28.52	-40.0	-42.2	21.8	6.06e-01	0	55	0	449314816	51	4689
2026-01-11 12:45:20.62	241.79	28.77	-40.1	-42.4	21.6	6.07e-01	0	55	0	455081984	51	4769
2026-01-11 12:45:23.64	242.90	29.01	-40.0	-42.2	21.8	6.07e-01	0	55	0	460324864	51	4678
2026-01-11 12:45:26.67	244.02	29.25	-40.1	-42.4	20.8	6.07e-01	0	55	0	466092032	51	4784
2026-01-11 12:45:29.70	245.17	29.47	-40.1	-42.3	21.7	6.07e-01	0	55	0	471859200	51	4751
2026-01-11 12:45:32.73	246.32	29.68	-39.9	-42.1	21.9	6.03e-01	0	55	0	477626368	51	4644
2026-01-11 12:45:35.76	247.50	29.89	-40.0	-42.2	21.8	6.06e-01	0	55	0	483393536	51	4660
2026-01-11 12:45:38.79	248.69	30.08	-40.0	-42.3	21.8	6.07e-01	0	55	0	489160704	51	4719
2026-01-11 12:45:41.81	249.88	30.26	-39.7	-41.9	22.1	6.07e-01	0	55	0	494927872	51	4504
2026-01-11 12:45:44.84	251.10	30.42	-39.9	-42.2	21.9	6.06e-01	0	55	0	500170752	51	4653
2026-01-11 12:45:47.87	252.33	30.58	-39.9	-42.1	21.9	6.05e-01	0	55	0	505937920	51	4619
2026-01-11 12:45:50.90	253.57	30.72	-39.7	-41.8	22.2	6.07e-01	0	55	0	511705088	51	4477
2026-01-11 12:45:53.92	254.81	30.85	-39.7	-41.8	22.2	6.05e-01	0	55	0	517472256	51	4461
2026-01-11 12:45:56.95	256.07	30.96	-39.6	-41.7	22.3	6.08e-01	0	55	0	523239424	51	4435
2026-01-11 12:45:59.98	257.34	31.06	-39.7	-41.8	22.2	6.07e-01	0	55	0	528482304	51	4446
2026-01-11 12:46:03.01	258.61	31.14	-39.6	-41.8	22.2	6.06e-01	0	55	0	534249472	51	4445
2026-01-11 12:46:06.04	259.89	31.21	-39.5	-41.6	22.4	6.09e-01	0	55	0	540016640	50	4634
2026-01-11 12:46:09.06	261.17	31.27	-39.6	-41.6	22.4	6.07e-01	0	55	0	545783808	50	4642
2026-01-11 12:46:12.09	262.46	31.31	-39.7	-41.8	22.2	6.08e-01	0	55	0	551550976	50	4712
2026-01-11 12:46:15.12	263.75	31.33	-39.4	-41.5	22.5	6.07e-01	0	55	0	557318144	50	4563
2026-01-11 12:46:18.15	265.05	31.34	-39.6	-41.6	22.3	6.06e-01	0	55	0	563085312	50	4648
2026-01-11 12:46:21.18	266.34	31.34	-39.4	-41.5	22.5	6.07e-01	0	55	0	568328192	50	4546
2026-01-11 12:46:24.21	267.63	31.31	-39.5	-41.6	22.5	6.07e-01	0	55	0	574095360	50	4601
2026-01-11 12:46:27.24	268.92	31.28	-39.5	-41.5	22.5	6.07e-01	0	55	0	579862528	50	4597
2026-01-11 12:46:30.26	270.20	31.22	-39.3	-41.3	22.7	6.06e-01	0	55	0	585629696	50	4470
2026-01-11 12:46:33.29	271.48	31.16	-39.4	-41.5	22.5	6.06e-01	0	55	0	591396864	50	4551
2026-01-11 12:46:36.32	272.75	31.07	-39.4	-41.4	22.6	6.05e-01	0	55	0	596639744	50	4525
2026-01-11 12:46:39.35	274.02	30.98	-39.5	-41.6	22.4	6.04e-01	0	55	0	602406912	50	4637
2026-01-11 12:46:42.38	275.28	30.86	-39.5	-41.6	22.4	6.06e-01	0	55	0	608174080	50	4632
2026-01-11 12:46:45.40	276.52	30.74	-39.4	-41.4	22.6	6.08e-01	0	55	0	613941248	50	4521
2026-01-11 12:46:48.43	277.76	30.60	-39.3	-41.3	22.7	6.06e-01	0	55	0	619708416	50	4472
2026-01-11 12:46:51.46	278.99	30.45	-39.3	-41.3	22.7	6.09e-01	0	55	0	625475584	50	4452
2026-01-11 12:46:54.49	280.20	30.28	-39.3	-41.3	22.7	6.07e-01	0	55	0	630718464	50	4469
2026-01-11 12:46:57.51	281.40	30.11	-39.4	-41.5	22.5	6.08e-01	0	55	0	636485632	50	4550
2026-01-11 12:47:00.54	282.59	29.92	-39.3	-41.3	22.6	6.07e-01	0	55	0	642252800	50	4473
2026-01-11 12:47:03.57	283.76	29.72	-39.5	-41.6	22.4	6.07e-01	0	55	0	648019968	50	4637
2026-01-11 12:47:06.60	284.92	29.51	-39.3	-41.3	22.6	6.06e-01	0	55	0	653787136	50	4483
2026-01-11 12:47:09.63	286.06	29.28	-39.5	-41.5	22.4	6.07e-01	0	55	0	659554304	50	4582
2026-01-11 12:47:12.65	287.18	29.05	-39.3	-41.3	22.7	6.08e-01	0	55	0	664797184	50	4452
2026-01-11 12:47:15.68	288.29	28.81	-39.4	-41.4	22.6	6.09e-01	0	55	0	670564352	50	4499
2026-01-11 12:47:18.71	289.38	28.57	-39.5	-41.5	22.5	6.04e-01	0	55	0	676331520	50	4578
2026-01-11 12:47:21.74	290.45	28.31	-39.5	-41.6	22.4	6.06e-01	0	55	0	682098688	50	4618
2026-01-11 12:47:24.77	291.51	28.04	-39.5	-41.6	22.4	6.07e-01	0	55	0	687865856	50	4610
2026-01-11 12:47:27.80	292.55	27.77	-39.5	-41.6	22.4	6.05e-01	0	55	0	693108736	50	4607
2026-01-11 12:47:30.83	293.57	27.49	-39.7	-41.8	22.1	6.05e-01	0	55	0	698875904	50	4730
2026-01-11 12:47:33.86	294.57	27.21	-39.6	-41.8	22.2	6.07e-01	0	55	0	704643072	50	4714
2026-01-11 12:47:36.88	295.55	26.92	-39.6	-41.6	22.3	6.05e-01	0	55	0	710410240	50	4647
2026-01-11 12:47:39.91	296.51	26.63	-39.7	-41.8	22.1	6.04e-01	0	55	0	716177408	50	4721
2026-01-11 12:47:42.94	297.46	26.33	-39.8	-42.0	21.9	6.08e-01	0	55	0	721944576	50	4861
2026-01-11 12:47:45.97	298.39	26.02	-39.7	-41.8	22.1	6.05e-01	0	55	0	727711744	50	4742
2026-01-11 12:47:49.00	299.29	25.72	-39.8	-42.0	21.9	6.07e-01	0	55	0	732954624	50	4854
2026-01-11 12:47:52.03	300.19	25.40	-39.9	-42.1	21.9	6.06e-01	0	55	0	738721792	50	4873
2026-01-11 12:47:55.05	301.06	25.09	-39.9	-42.1	21.7	6.07e-01	0	55	0	744488960	50	4908
2026-01-11 12:47:58.08	301.91	24.78	-39.8	-42.0	21.9	6.06e-01	0	55	0	750256128	50	4842
2026-01-11 12:48:01.11	302.75	24.46	-39.7	-41.8	22.1	6.06e-01	0	56	0	756023296	50	4734
2026-01-11 12:48:04.14	303.57	24.14	-39.9	-42.2	21.7	6.06e-01	0	55	0	761266176	50	4943
2026-01-11 12:48:07.17	304.38	23.82	-39.9	-42.2	21.7	6.06e-01	0	55	0	767033344	50	4941
2026-01-11 12:48:10.20	305.17	23.50	-39.7	-41.9	22.0	6.06e-01	0	56	0	772800512	50	4773
2026-01-11 12:48:13.22	305.93	23.17	-39.9	-42.1	21.8	6.07e-01	0	56	0	778567680	50	4895
2026-01-11 12:48:16.25	306.69	22.85	-39.9	-42.1	21.7	6.06e-01	0	55	0	784334848	50	4902
2026-01-11 12:48:19.28	307.43	22.53	-39.8	-42.0	21.8	6.05e-01	0	55	0	790102016	50	4819
2026-01-11 12:48:22.31	308.15	22.20	-39.7	-41.9	21.9	6.07e-01	0	56	0	795869184	50	4787
2026-01-11 12:48:25.33	308.86	21.88	-39.8	-42.1	21.7	6.07e-01	0	55	0	801112064	50	4879
2026-01-11 12:48:28.36	309.55	21.56	-39.8	-42.0	21.9	6.07e-01	0	55	0	806879232	50	4816
2026-01-11 12:48:31.38	310.22	21.24	-39.7	-41.9	21.9	6.07e-01	0	55	0	812646400	50	4775
2026-01-11 12:48:34.41	310.89	20.91	-39.7	-41.9	21.9	6.08e-01	0	55	0	818413568	50	4779
2026-01-11 12:48:37.44	311.54	20.59	-39.7	-41.9	21.9	6.07e-01	0	55	0	824180736	50	4782
2026-01-11 12:48:40.47	312.17	20.27	-39.6	-41.8	21.9	6.05e-01	0	55	0	829423616	50	4726
2026-01-11 12:48:43.50	312.79	19.95	-39.6	-41.8	22.0	6.06e-01	0	56	0	835190784	50	4713
2026-01-11 12:48:46.52	313.40	19.64	-39.6	-41.8	21.9	6.05e-01	0	55	0	840957952	50	4750
2026-01-11 12:48:49.55	314.00	19.32	-39.6	-41.8	21.9	6.04e-01	0	55	0	846725120	50	4726
2026-01-11 12:48:52.58	314.58	19.01	-39.6	-41.8	22.0	6.06e-01	0	55	0	852492288	50	4706
2026-01-11 12:48:55.61	315.15	18.69	-39.7	-41.9	21.8	6.08e-01	0	56	0	858259456	50	4769
2026-01-11 12:48:58.63	315.71	18.39	-39.6	-41.8	21.9	6.06e-01	0	56	0	863502336	50	4714
2026-01-11 12:49:01.66	316.26	18.08	-39.5	-41.7	21.9	6.08e-01	0	55	0	869269504	50	4682
2026-01-11 12:49:04.69	316.79	17.77	-39.6	-41.8	21.9	6.06e-01	0	55	0	875036672	50	4729
2026-01-11 12:49:07.72	317.32	17.46	-39.6	-41.8	21.8	6.05e-01	0	55	0	880803840	50	4730
2026-01-11 12:49:10.75	317.83	17.16	-39.5	-41.7	21.9	6.05e-01	0	55	0	886571008	50	4678
2026-01-11 12:49:13.78	318.34	16.86	-39.5	-41.6	22.0	6.06e-01	0	55	0	892338176	50	4623
2026-01-11 12:49:16.80	318.83	16.56	-39.5	-41.7	21.9	6.08e-01	0	55	0	897581056	50	4667
2026-01-11 12:49:19.83	319.31	16.27	-39.6	-41.8	21.8	6.06e-01	0	55	0	903348224	50	4742
2026-01-11 12:49:22.86	319.78	15.97	-39.6	-41.9	21.7	6.08e-01	0	56	0	909115392	50	4772
2026-01-11 12:49:25.89	320.25	15.68	-39.6	-41.8	21.8	6.06e-01	0	55	0	914882560	50	4733
2026-01-11 12:49:28.91	320.70	15.39	-39.6	-41.8	21.8	6.05e-01	0	55	0	920649728	50	4723
2026-01-11 12:49:31.94	321.15	15.10	-39.6	-41.8	21.7	6.04e-01	0	56	0	925892608	50	4741
2026-01-11 12:49:34.97	321.59	14.82	-39.6	-41.9	21.7	6.07e-01	0	56	0	931659776	50	4775
2026-01-11 12:49:38.00	322.01	14.53	-39.7	-42.0	21.5	6.06e-01	0	56	0	937426944	50	4847
2026-01-11 12:49:41.03	322.43	14.25	-39.8	-42.1	21.4	6.05e-01	0	55	0	943194112	50	4909
2026-01-11 12:49:44.06	322.85	13.97	-39.7	-42.0	21.4	6.06e-01	0	55	0	948961280	50	4869
2026-01-11 12:49:47.09	323.25	13.70	-39.6	-41.9	21.5	6.05e-01	0	56	0	954728448	50	4799
2026-01-11 12:49:50.12	323.65	13.42	-39.6	-41.9	21.5	6.06e-01	0	56	0	960495616	50	4787
2026-01-11 12:49:53.15	324.04	13.15	-39.7	-42.0	21.4	6.03e-01	0	56	0	965738496	50	4853
2026-01-11 12:49:56.18	324.42	12.88	-39.9	-42.3	21.1	6.03e-01	0	55	0	971505664	50	4997
2026-01-11 12:49:59.21	324.79	12.62	-40.0	-42.4	21.0	6.02e-01	0	56	0	977272832	50	5065
2026-01-11 12:50:02.24	325.16	12.35	-39.9	-42.3	21.1	6.02e-01	0	56	0	983040000	50	5013
2026-01-11 12:50:05.27	325.52	12.09	-39.9	-42.4	21.0	6.02e-01	0	55	0	988807168	50	5052
2026-01-11 12:50:08.29	325.87	11.83	-40.0	-42.4	20.9	6.03e-01	0	56	0	994050048	50	5099
2026-01-11 12:50:11.32	326.22	11.57	-39.9	-42.4	20.9	6.02e-01	0	56	0	999817216	50	5057
2026-01-11 12:50:14.35	326.56	11.31	-40.0	-42.4	20.8	5.98e-01	0	56	0	1005584384	50	5080
2026-01-11 12:50:17.38	326.90	11.06	-40.0	-42.5	20.7	6.02e-01	0	55	0	1011351552	50	5158
2026-01-11 12:50:20.41	327.23	10.81	-40.2	-42.7	20.5	6.03e-01	0	55	0	1017118720	50	5263
2026-01-11 12:50:23.43	327.55	10.56	-40.1	-42.7	20.4	6.01e-01	0	56	0	1022885888	51	4952
2026-01-11 12:50:26.46	327.87	10.31	-40.2	-42.8	20.4	6.00e-01	0	55	0	1028653056	51	5022
2026-01-11 12:50:29.49	328.18	10.06	-40.3	-42.9	20.2	6.05e-01	0	56	0	1033895936	51	5095
2026-01-11 12:50:32.52	328.49	9.82	-40.3	-43.0	20.1	6.03e-01	0	56	0	1039663104	51	5146
2026-01-11 12:50:35.55	328.79	9.58	-40.2	-42.9	20.2	6.02e-01	0	55	0	1045430272	51	5068
2026-01-11 12:50:38.58	329.09	9.34	-40.4	-43.1	19.9	6.03e-01	0	56	0	1051197440	51	5186
2026-01-11 12:50:41.60	329.38	9.10	-40.4	-43.1	19.9	6.03e-01	0	56	0	1056964608	51	5195
2026-01-11 12:50:44.63	329.67	8.87	-40.4	-43.2	19.8	6.01e-01	0	55	0	1062207488	51	5250
2026-01-11 12:50:47.66	329.95	8.63	-40.5	-43.3	19.6	6.00e-01	0	56	0	1067974656	51	5322
2026-01-11 12:50:50.69	330.23	8.40	-40.4	-43.3	19.7	6.04e-01	0	56	0	1073741824	51	5282
2026-01-11 12:50:53.72	330.50	8.17	-40.5	-43.4	19.5	6.03e-01	0	56	0	1079508992	51	5355
2026-01-11 12:50:56.75	330.77	7.94	-45.1	-63.6	3.8	7.45e-01	0	56	104	1083179008	61	30917
2026-01-11 12:50:59.78	331.03	7.72	-45.9	-64.7	3.8	7.45e-01	0	56	104	1083179008	62	32991
2026-01-11 12:51:02.81	331.29	7.49	-46.1	-65.0	3.8	7.41e-01	0	56	104	1083179008	62	34214
2026-01-11 12:51:05.85	331.55	7.27	-46.1	-65.0	3.8	7.47e-01	0	56	104	1083179008	62	34323
2026-01-11 12:51:08.88	331.80	7.05	-46.1	-65.0	3.8	7.40e-01	0	56	104	1083179008	62	34309
2026-01-11 12:51:11.91	332.05	6.83	-46.1	-65.0	3.8	7.45e-01	0	56	104	1083179008	62	34178
2026-01-11 12:51:14.94	332.30	6.61	-46.1	-65.0	3.8	7.46e-01	0	56	104	1083179008	62	34095
2026-01-11 12:51:17.98	332.54	6.39	-46.0	-65.0	3.8	7.46e-01	0	56	104	1083179008	62	34099
2026-01-11 12:51:21.01	332.77	6.18	-46.0	-64.9	3.8	7.46e-01	0	56	104	1083179008	62	34039
2026-01-11 12:51:24.04	333.01	5.97	-46.0	-64.9	3.8	7.46e-01	0	56	104	1083179008	62	34044
2026-01-11 12:51:27.08	333.24	5.75	-46.0	-64.9	3.8	7.46e-01	0	56	104	1083179008	62	33978
2026-01-11 12:51:30.11	333.47	5.54	-46.0	-64.9	3.8	7.43e-01	0	56	104	1083179008	62	34016
2026-01-11 12:51:33.14	333.69	5.34	-46.0	-64.9	3.8	7.47e-01	0	56	104	1083179008	62	33941
2026-01-11 12:51:36.17	333.91	5.13	-46.0	-64.9	3.8	7.45e-01	0	56	104	1083179008	62	33937
2026-01-11 12:51:39.21	334.13	4.92	-46.0	-64.9	3.8	7.44e-01	0	56	104	1083179008	62	33954
2026-01-11 12:51:42.24	334.34	4.72	-46.0	-64.9	3.8	7.43e-01	0	56	104	1083179008	62	33976
2026-01-11 12:51:45.27	334.55	4.52	-46.0	-64.9	3.8	7.46e-01	0	56	104	1083179008	62	33996
2026-01-11 12:51:48.31	334.76	4.31	-46.0	-64.9	3.8	7.46e-01	0	56	104	1083179008	62	33930
2026-01-11 12:51:51.34	334.97	4.12	-46.0	-64.9	3.8	7.49e-01	0	56	104	1083179008	62	33930
2026-01-11 12:51:54.37	335.17	3.92	-45.8	-65.0	3.8	7.44e-01	0	56	104	1083179008	62	34224
2026-01-11 12:51:57.40	335.37	3.72	-46.0	-64.9	3.8	7.46e-01	0	56	104	1083179008	62	33851
2026-01-11 12:52:00.44	335.57	3.52	-46.0	-64.9	3.8	7.46e-01	0	56	104	1083179008	62	33844
2026-01-11 12:52:03.47	335.76	3.33	-46.0	-64.9	3.8	7.46e-01	0	56	104	1083179008	62	33869
2026-01-11 12:52:06.50	335.95	3.14	-45.9	-64.9	3.8	7.46e-01	0	56	104	1083179008	62	33873
2026-01-11 12:52:09.54	336.14	2.94	-46.0	-64.9	3.8	7.44e-01	0	56	104	1083179008	62	33887
2026-01-11 12:52:12.57	336.33	2.75	-46.0	-64.9	3.8	7.46e-01	0	56	104	1083179008	62	33851
2026-01-11 12:52:15.60	336.51	2.57	-46.0	-64.9	3.8	7.43e-01	0	56	104	1083179008	62	33834
2026-01-11 12:52:18.64	336.69	2.38	-46.0	-64.9	3.8	7.45e-01	0	56	104	1083179008	62	33849
2026-01-11 12:52:21.67	336.87	2.19	-46.0	-64.9	3.8	7.46e-01	0	56	104	1083179008	62	33826
2026-01-11 12:52:24.70	337.05	2.00	-46.0	-64.9	3.8	7.44e-01	0	56	104	1083179008	62	33879

#Closed at: 2026-01-11 12:52:25
#Recorded file [1083 MB]: D:/lorett/data/31039_260111_154017.dat