passes_logs/2026/01/11/R2.0S_Moscow/R2.0S_Moscow__20260111_132542_FENGYUN_3E_rec.log

#Pass ID: 20260111_132542_FENGYUN 3E
#Satellite: FENGYUN 3E
#Configuration: FENGYUN 3E
#almurnet v.1.7.20251203
#Start time: 2026-01-11 13:34:26

#Version: 2.2.20231116
#Station: R2.0S_Moscow
#Location: 37.707566 lon 55.798166 lat
#TLE: 1 49008U 21062A   26010.98903141  .00000148  00000+0  90257-4 0  9995
#TLE: 2 49008  98.7490  16.1644 0001865 146.3673 213.7622 14.19884943234274

#Time	Az	El	Level	Level2	SNR	BER	BlckErr	Temp	State	Recorded	gain1	gain2
2026-01-11 13:34:26.02	16.86	33.92	-45.0	-56.7	3.8	8.47e-01	0	56	0	0	60	14837
2026-01-11 13:34:28.03	16.32	33.61	-45.8	-56.8	3.8	8.45e-01	0	56	104	0	62	12642
2026-01-11 13:34:30.05	15.80	33.29	-45.7	-56.7	3.8	8.46e-01	0	56	104	0	62	12378
2026-01-11 13:34:32.07	15.28	32.98	-44.6	-50.6	5.2	8.16e-01	0	56	104	0	59	7293
2026-01-11 13:34:34.09	14.77	32.66	-45.3	-55.7	3.8	8.47e-01	0	56	104	0	60	12440
2026-01-11 13:34:36.12	14.27	32.35	-45.3	-55.9	3.8	8.47e-01	0	57	104	0	60	12691
2026-01-11 13:34:38.14	13.79	32.03	-45.3	-55.6	3.8	8.47e-01	0	56	104	0	60	12308
2026-01-11 13:34:40.16	13.31	31.72	-45.3	-55.8	3.8	8.46e-01	0	56	104	0	60	12549
2026-01-11 13:34:42.18	12.84	31.41	-45.3	-55.9	3.8	8.47e-01	0	56	104	0	60	12687
2026-01-11 13:34:44.20	12.38	31.10	-45.3	-56.1	3.8	8.46e-01	0	56	104	0	60	12972
2026-01-11 13:34:46.22	11.93	30.79	-45.3	-56.2	3.8	8.46e-01	0	56	104	0	60	13174
2026-01-11 13:34:48.24	11.49	30.49	-45.3	-56.1	3.8	8.47e-01	0	57	104	0	60	13033
2026-01-11 13:34:50.26	11.06	30.18	-45.3	-56.2	3.8	8.46e-01	0	56	104	0	60	13124
2026-01-11 13:34:52.28	10.63	29.88	-45.3	-55.8	3.8	8.46e-01	0	57	104	0	60	12552
2026-01-11 13:34:54.30	10.22	29.57	-45.3	-55.9	3.8	8.46e-01	0	56	104	0	60	12745
2026-01-11 13:34:56.32	9.81	29.27	-45.3	-56.4	3.8	8.46e-01	0	56	104	0	60	13436
2026-01-11 13:34:58.34	9.40	28.97	-45.3	-56.3	3.8	8.46e-01	0	56	104	0	60	13276
2026-01-11 13:35:00.36	9.01	28.68	-45.3	-55.9	3.8	8.45e-01	0	57	104	0	60	12768
2026-01-11 13:35:02.39	8.62	28.38	-45.1	-54.8	3.8	8.47e-01	0	57	104	0	60	11172
2026-01-11 13:35:04.41	8.24	28.08	-44.5	-51.3	4.7	8.10e-01	0	57	0	0	60	7472
2026-01-11 13:35:06.43	7.87	27.79	-43.3	-47.5	7.4	1.29e-01	0	57	0	8388608	57	5732
2026-01-11 13:35:08.45	7.51	27.50	-42.5	-45.9	9.0	2.91e-02	0	57	0	23068672	56	5064
2026-01-11 13:35:10.47	7.15	27.21	-42.8	-46.4	8.5	3.66e-02	0	57	0	37748736	56	5373
2026-01-11 13:35:12.49	6.79	26.92	-43.6	-48.1	6.9	1.57e-01	0	57	0	52428800	56	6540
2026-01-11 13:35:14.51	6.45	26.64	-42.9	-46.7	8.2	8.76e-02	0	57	0	66060288	56	5570
2026-01-11 13:35:16.53	6.11	26.35	-39.7	-41.7	13.4	4.57e-05	0	57	0	81788928	50	4405
2026-01-11 13:35:18.55	5.78	26.07	-36.7	-38.0	17.0	0.00e+00	0	57	0	95420416	44	4070
2026-01-11 13:35:20.58	5.45	25.79	-35.2	-36.4	18.4	0.00e+00	0	57	0	110100480	41	4013
2026-01-11 13:35:22.60	5.12	25.51	-36.8	-37.8	17.3	0.00e+00	0	57	0	124780544	42	4475
2026-01-11 13:35:24.62	4.81	25.24	-35.1	-36.2	18.5	0.00e+00	0	57	0	139460608	41	3951
2026-01-11 13:35:26.63	4.50	24.96	-35.0	-36.1	18.6	0.00e+00	0	57	0	154140672	40	4141
2026-01-11 13:35:28.65	4.20	24.69	-34.8	-35.9	18.7	0.00e+00	0	57	0	168820736	40	4043
2026-01-11 13:35:30.67	3.90	24.42	-34.9	-36.0	18.7	0.00e+00	0	57	0	183500800	40	4074
2026-01-11 13:35:32.69	3.60	24.15	-34.9	-36.1	18.6	0.00e+00	0	57	0	198180864	40	4104
2026-01-11 13:35:34.71	3.31	23.88	-35.1	-36.3	18.4	0.00e+00	0	57	0	211812352	40	4194
2026-01-11 13:35:36.73	3.03	23.62	-35.1	-36.3	18.3	0.00e+00	0	57	0	227540992	40	4240
2026-01-11 13:35:38.75	2.75	23.36	-35.2	-36.4	18.2	0.00e+00	0	57	0	241172480	40	4276
2026-01-11 13:35:40.77	2.47	23.10	-35.3	-36.5	18.2	0.00e+00	0	57	0	255852544	40	4298
2026-01-11 13:35:42.78	2.20	22.84	-35.2	-36.4	18.2	0.00e+00	0	57	0	270532608	40	4243
2026-01-11 13:35:44.80	1.94	22.58	-35.1	-36.3	18.3	0.00e+00	0	57	0	285212672	40	4219
2026-01-11 13:35:46.82	1.68	22.33	-35.2	-36.3	18.2	0.00e+00	0	57	0	299892736	40	4238
2026-01-11 13:35:48.84	1.42	22.07	-35.3	-36.5	18.1	0.00e+00	0	57	0	314572800	40	4310
2026-01-11 13:35:50.86	1.17	21.82	-35.4	-36.6	17.9	0.00e+00	0	57	0	329252864	40	4349
2026-01-11 13:35:52.88	0.92	21.57	-35.4	-36.6	17.9	0.00e+00	0	57	0	343932928	40	4381
2026-01-11 13:35:54.90	0.68	21.32	-35.5	-36.7	17.8	0.00e+00	0	57	0	358612992	40	4416
2026-01-11 13:35:56.92	0.44	21.08	-35.5	-36.7	17.8	0.00e+00	0	57	0	373293056	40	4411
2026-01-11 13:35:58.94	0.20	20.84	-35.6	-36.8	17.6	0.00e+00	0	57	0	386924544	40	4476
2026-01-11 13:36:00.96	359.97	20.59	-35.7	-37.0	17.4	0.00e+00	0	57	0	401604608	41	4318
2026-01-11 13:36:02.98	359.74	20.35	-35.8	-37.1	17.3	0.00e+00	0	57	0	416284672	41	4379
2026-01-11 13:36:05.00	359.51	20.11	-36.0	-37.3	17.1	0.00e+00	0	57	0	430964736	41	4469
2026-01-11 13:36:07.02	359.29	19.88	-36.0	-37.4	17.0	0.00e+00	0	57	0	445644800	41	4503
2026-01-11 13:36:09.04	359.07	19.64	-36.0	-37.3	17.0	0.00e+00	0	57	0	460324864	41	4473
2026-01-11 13:36:11.06	358.86	19.41	-36.0	-37.3	16.8	0.00e+00	0	57	0	475004928	41	4493
2026-01-11 13:36:13.08	358.65	19.18	-35.9	-37.3	16.8	0.00e+00	0	57	0	489684992	41	4450
2026-01-11 13:36:15.10	358.44	18.95	-35.8	-37.2	16.7	0.00e+00	0	57	0	504365056	41	4419
2026-01-11 13:36:17.13	358.23	18.72	-35.7	-37.0	16.8	0.00e+00	0	57	0	519045120	41	4335
2026-01-11 13:36:19.14	358.03	18.50	-36.0	-37.4	16.4	0.00e+00	0	57	0	532676608	41	4499
2026-01-11 13:36:21.16	357.83	18.27	-36.1	-37.6	16.0	0.00e+00	0	57	0	547356672	41	4625
2026-01-11 13:36:23.18	357.64	18.05	-36.2	-37.7	15.8	0.00e+00	0	57	0	562036736	42	4409
2026-01-11 13:36:25.20	357.45	17.83	-36.2	-37.7	15.7	0.00e+00	0	57	0	576716800	42	4407
2026-01-11 13:36:27.22	357.26	17.61	-36.1	-37.6	15.7	0.00e+00	0	57	0	591396864	42	4358
2026-01-11 13:36:29.24	357.07	17.39	-35.8	-37.3	15.9	0.00e+00	0	57	0	606076928	42	4217
2026-01-11 13:36:31.26	356.88	17.17	-35.7	-37.2	15.9	0.00e+00	0	57	0	620756992	42	4163
2026-01-11 13:36:33.27	356.70	16.96	-36.0	-37.5	15.3	0.00e+00	0	57	0	635437056	42	4335
2026-01-11 13:36:35.29	356.52	16.75	-36.6	-38.3	14.3	3.40e-06	0	57	0	650117120	42	4757
2026-01-11 13:36:37.32	356.35	16.53	-37.5	-39.6	12.9	3.66e-05	0	57	0	663748608	44	4922
2026-01-11 13:36:39.34	356.17	16.32	-38.5	-41.3	10.8	1.84e-03	0	57	0	679477248	46	5283
2026-01-11 13:36:41.36	356.00	16.12	-39.5	-43.0	8.9	2.39e-02	0	57	0	693108736	48	5779
2026-01-11 13:36:43.37	355.83	15.91	-40.2	-45.0	6.7	1.70e-01	0	57	0	707788800	49	6861
2026-01-11 13:36:45.39	355.67	15.70	-40.7	-47.0	5.1	7.45e-01	0	57	0	718274560	50	8160
2026-01-11 13:36:47.41	355.50	15.50	-40.9	-48.6	4.3	8.26e-01	0	57	0	719323136	51	9260
2026-01-11 13:36:49.43	355.34	15.30	-41.0	-50.0	3.9	8.44e-01	0	57	104	719323136	51	10856
2026-01-11 13:36:51.45	355.18	15.10	-40.8	-50.9	3.8	8.43e-01	0	57	104	719323136	51	12056
2026-01-11 13:36:53.47	355.03	14.90	-40.7	-51.5	3.8	8.44e-01	0	57	104	719323136	51	12894
2026-01-11 13:36:55.49	354.87	14.70	-40.8	-51.8	3.8	8.46e-01	0	57	104	719323136	51	13330
2026-01-11 13:36:57.51	354.72	14.50	-41.1	-52.0	3.8	8.46e-01	0	57	104	719323136	51	13672
2026-01-11 13:36:59.53	354.57	14.31	-41.1	-52.0	3.8	8.48e-01	0	57	104	719323136	51	13653
2026-01-11 13:37:01.55	354.42	14.11	-41.0	-52.0	3.8	8.45e-01	0	57	104	719323136	51	13591
2026-01-11 13:37:03.57	354.27	13.92	-40.9	-52.0	3.8	8.47e-01	0	57	104	719323136	51	13626
2026-01-11 13:37:05.59	354.13	13.73	-40.7	-51.8	3.8	8.45e-01	0	57	104	719323136	51	13342
2026-01-11 13:37:07.61	353.99	13.54	-40.6	-51.7	3.8	8.44e-01	0	57	104	719323136	51	13195
2026-01-11 13:37:09.63	353.84	13.35	-40.6	-51.5	3.8	8.46e-01	0	57	104	719323136	51	12948
2026-01-11 13:37:11.65	353.71	13.16	-40.6	-51.5	3.8	8.41e-01	0	57	104	719323136	51	12833
2026-01-11 13:37:13.67	353.57	12.97	-40.2	-51.0	3.9	8.38e-01	0	57	104	719323136	51	12161
2026-01-11 13:37:15.69	353.43	12.79	-39.6	-50.9	4.0	8.36e-01	0	57	104	719323136	50	12757
2026-01-11 13:37:17.71	353.30	12.60	-40.0	-51.0	4.0	8.37e-01	0	57	104	719323136	50	12915
2026-01-11 13:37:19.73	353.17	12.42	-39.4	-50.7	4.1	8.35e-01	0	57	104	719323136	49	13205
2026-01-11 13:37:21.75	353.04	12.24	-38.3	-50.3	4.1	8.31e-01	0	57	104	719323136	47	14155
2026-01-11 13:37:23.78	352.91	12.06	-39.0	-50.3	4.1	8.31e-01	0	57	104	719323136	47	14066
2026-01-11 13:37:25.80	352.78	11.88	-40.7	-51.4	3.9	8.40e-01	0	57	104	719323136	51	12710
2026-01-11 13:37:27.82	352.66	11.70	-38.0	-50.1	4.2	8.37e-01	0	57	104	719323136	46	14612
2026-01-11 13:37:29.84	352.53	11.53	-40.3	-51.7	3.8	8.46e-01	0	57	104	719323136	50	13980
2026-01-11 13:37:31.85	352.41	11.35	-40.4	-51.7	3.8	8.45e-01	0	57	104	719323136	50	13967
2026-01-11 13:37:33.87	352.29	11.18	-40.6	-51.7	3.8	8.46e-01	0	57	104	719323136	51	13199
2026-01-11 13:37:35.89	352.17	11.00	-40.7	-51.7	3.8	8.46e-01	0	57	104	719323136	51	13250
2026-01-11 13:37:37.91	352.06	10.83	-40.7	-51.8	3.8	8.46e-01	0	57	104	719323136	51	13349
2026-01-11 13:37:39.93	351.94	10.66	-39.2	-51.2	4.0	8.37e-01	0	57	104	719323136	48	14790
2026-01-11 13:37:41.95	351.83	10.49	-38.7	-50.9	4.0	8.38e-01	0	57	104	719323136	48	14256
2026-01-11 13:37:43.97	351.71	10.32	-38.6	-50.8	4.1	8.37e-01	0	57	104	719323136	47	14895
2026-01-11 13:37:45.99	351.60	10.15	-39.5	-51.0	4.0	8.38e-01	0	57	104	719323136	48	14407
2026-01-11 13:37:48.01	351.49	9.99	-40.0	-51.1	4.0	8.39e-01	0	57	104	719323136	49	13867
2026-01-11 13:37:50.01	351.38	9.82	-39.3	-50.9	4.0	8.35e-01	0	57	104	719323136	48	14253
2026-01-11 13:37:52.03	351.28	9.66	-39.7	-51.1	4.0	8.36e-01	0	57	104	719323136	49	13754
2026-01-11 13:37:54.05	351.17	9.49	-40.1	-51.0	4.0	8.38e-01	0	57	104	719323136	49	13689
2026-01-11 13:37:56.07	351.06	9.33	-40.6	-51.7	3.8	8.47e-01	0	57	104	719323136	51	13225
2026-01-11 13:37:58.09	350.96	9.17	-40.7	-51.8	3.8	8.46e-01	0	57	104	719323136	51	13309
2026-01-11 13:38:00.11	350.86	9.01	-40.8	-51.7	3.8	8.46e-01	0	57	104	719323136	52	12454
2026-01-11 13:38:02.13	350.76	8.85	-40.8	-51.7	3.8	8.46e-01	0	57	104	719323136	52	12504
2026-01-11 13:38:04.14	350.66	8.69	-40.9	-52.0	3.8	8.47e-01	0	57	104	719323136	52	12813
2026-01-11 13:38:06.16	350.56	8.53	-41.0	-52.0	3.8	8.47e-01	0	57	104	719323136	52	12844
2026-01-11 13:38:08.19	350.46	8.37	-41.0	-51.9	3.8	8.46e-01	0	57	104	719323136	52	12784
2026-01-11 13:38:10.21	350.36	8.21	-41.1	-52.0	3.8	8.46e-01	0	57	104	719323136	52	12885
2026-01-11 13:38:12.22	350.27	8.06	-40.9	-51.9	3.8	8.47e-01	0	57	104	719323136	52	12778
2026-01-11 13:38:14.25	350.17	7.90	-41.2	-52.2	3.8	8.47e-01	0	57	104	719323136	52	13152
2026-01-11 13:38:16.27	350.08	7.75	-45.2	-56.2	3.8	8.46e-01	0	57	104	719323136	60	13191
2026-01-11 13:38:18.29	349.99	7.60	-45.4	-56.5	3.8	8.46e-01	0	57	104	719323136	60	13636
2026-01-11 13:38:20.31	349.90	7.44	-45.5	-56.6	3.8	8.46e-01	0	57	104	719323136	60	13779
2026-01-11 13:38:22.33	349.80	7.29	-45.6	-56.6	3.8	8.45e-01	0	58	104	719323136	60	13873
2026-01-11 13:38:24.35	349.72	7.14	-45.6	-56.6	3.8	8.46e-01	0	58	104	719323136	60	13806
2026-01-11 13:38:26.38	349.63	6.99	-45.5	-56.5	3.8	8.45e-01	0	57	104	719323136	60	13669
2026-01-11 13:38:28.40	349.54	6.84	-45.5	-56.5	3.8	8.46e-01	0	57	104	719323136	60	13652
2026-01-11 13:38:30.42	349.45	6.69	-45.5	-56.4	3.8	8.46e-01	0	57	104	719323136	60	13523
2026-01-11 13:38:32.44	349.37	6.55	-45.5	-56.5	3.8	8.45e-01	0	57	104	719323136	60	13570
2026-01-11 13:38:34.46	349.28	6.40	-45.4	-56.4	3.8	8.46e-01	0	57	104	719323136	60	13558
2026-01-11 13:38:36.48	349.20	6.25	-45.5	-56.4	3.8	8.45e-01	0	57	104	719323136	60	13539
2026-01-11 13:38:38.50	349.12	6.11	-45.5	-56.4	3.8	8.46e-01	0	57	104	719323136	60	13561
2026-01-11 13:38:40.53	349.04	5.96	-45.5	-56.4	3.8	8.46e-01	0	58	104	719323136	60	13497
2026-01-11 13:38:42.55	348.95	5.82	-45.5	-56.4	3.8	8.47e-01	0	57	104	719323136	60	13545
2026-01-11 13:38:44.57	348.87	5.68	-45.4	-56.4	3.8	8.47e-01	0	57	104	719323136	60	13551
2026-01-11 13:38:46.59	348.80	5.53	-45.4	-56.4	3.8	8.45e-01	0	57	104	719323136	60	13546
2026-01-11 13:38:48.61	348.72	5.39	-45.4	-56.4	3.8	8.46e-01	0	57	104	719323136	60	13472
2026-01-11 13:38:50.63	348.64	5.25	-45.4	-56.4	3.8	8.48e-01	0	58	104	719323136	60	13540
2026-01-11 13:38:52.65	348.56	5.11	-45.4	-56.4	3.8	8.47e-01	0	58	104	719323136	60	13513
2026-01-11 13:38:54.67	348.49	4.97	-45.4	-56.4	3.8	8.46e-01	0	57	104	719323136	60	13539
2026-01-11 13:38:56.69	348.41	4.83	-45.4	-56.4	3.8	8.47e-01	0	58	104	719323136	60	13491
2026-01-11 13:38:58.71	348.34	4.70	-45.4	-56.5	3.8	8.47e-01	0	58	104	719323136	60	13573
2026-01-11 13:39:00.73	348.27	4.56	-45.4	-56.4	3.8	8.46e-01	0	57	104	719323136	60	13476
2026-01-11 13:39:02.75	348.19	4.42	-45.4	-56.4	3.8	8.46e-01	0	58	104	719323136	60	13519
2026-01-11 13:39:04.78	348.12	4.28	-45.4	-56.4	3.8	8.46e-01	0	57	104	719323136	60	13475
2026-01-11 13:39:06.80	348.05	4.15	-45.4	-56.4	3.8	8.46e-01	0	57	104	719323136	60	13426
2026-01-11 13:39:08.82	347.98	4.01	-45.4	-56.4	3.8	8.46e-01	0	58	104	719323136	60	13490
2026-01-11 13:39:10.84	347.91	3.88	-45.4	-56.4	3.8	8.46e-01	0	58	104	719323136	60	13478
2026-01-11 13:39:12.86	347.84	3.75	-45.4	-56.4	3.8	8.46e-01	0	58	104	719323136	60	13445
2026-01-11 13:39:14.89	347.77	3.61	-45.4	-56.4	3.8	8.46e-01	0	57	104	719323136	60	13486
2026-01-11 13:39:16.91	347.70	3.48	-45.4	-56.4	3.8	8.45e-01	0	58	104	719323136	60	13490
2026-01-11 13:39:18.93	347.64	3.35	-45.4	-56.4	3.8	8.46e-01	0	58	104	719323136	60	13435
2026-01-11 13:39:20.95	347.57	3.22	-45.4	-56.4	3.8	8.46e-01	0	57	104	719323136	60	13467
2026-01-11 13:39:22.97	347.51	3.09	-45.4	-56.4	3.8	8.46e-01	0	57	104	719323136	60	13437
2026-01-11 13:39:24.99	347.44	2.96	-45.4	-56.4	3.8	8.46e-01	0	57	104	719323136	60	13490
2026-01-11 13:39:27.01	347.38	2.83	-45.4	-56.4	3.8	8.46e-01	0	57	104	719323136	60	13492
2026-01-11 13:39:29.04	347.31	2.70	-45.4	-56.4	3.8	8.46e-01	0	58	104	719323136	60	13454
2026-01-11 13:39:31.06	347.25	2.57	-45.4	-56.4	3.8	8.46e-01	0	58	104	719323136	60	13486
2026-01-11 13:39:33.08	347.19	2.44	-45.4	-56.4	3.8	8.46e-01	0	58	104	719323136	60	13493
2026-01-11 13:39:35.10	347.13	2.31	-45.4	-56.4	3.8	8.46e-01	0	57	104	719323136	60	13468
2026-01-11 13:39:37.12	347.06	2.19	-45.4	-56.4	3.8	8.46e-01	0	58	104	719323136	60	13496
2026-01-11 13:39:39.15	347.00	2.06	-45.4	-56.4	3.8	8.45e-01	0	57	104	719323136	60	13442
2026-01-11 13:39:41.17	346.94	1.93	-45.4	-56.4	3.8	8.47e-01	0	58	104	719323136	60	13476

#Closed at: 2026-01-11 13:39:41
#Recorded file [719 MB]: D:/lorett/data/31039_260111_163425.dat