passes_logs/2026/01/11/R2.0S_Moscow/R2.0S_Moscow__20260111_090022_SUOMI_NPP_rec.log

#Pass ID: 20260111_090022_SUOMI NPP
#Satellite: SUOMI NPP
#Configuration: NPP
#almurnet v.1.7.20251203
#Start time: 2026-01-11 09:00:23

#Version: 2.2.20231116
#Station: R2.0S_Moscow
#Location: 37.707566 lon 55.798166 lat
#TLE: 1 37849U 11061A   26009.81756760  .00000113  00000+0  74747-4 0  9994
#TLE: 2 37849  98.7806 311.9110 0002525  72.5604 287.5848 14.19524046735974

#Time	Az	El	Level	Level2	SNR	BER	BlckErr	Temp	State	Recorded	gain1	gain2
2026-01-11 09:00:23.08	131.82	2.04	-12.9	-34.6	3.6	1.50e+00	0	47	0	0	1	34613
2026-01-11 09:00:27.12	131.65	2.29	-18.1	-37.5	3.6	1.50e+00	0	47	104	0	15	21735
2026-01-11 09:00:31.16	131.48	2.55	-21.0	-36.6	3.6	1.50e+00	0	47	104	0	10	26142
2026-01-11 09:00:35.20	131.31	2.80	-19.0	-36.0	3.6	1.50e+00	0	47	104	0	12	21660
2026-01-11 09:00:39.25	131.14	3.06	-21.2	-40.6	3.7	1.50e+00	0	48	104	0	17	27424
2026-01-11 09:00:43.29	130.96	3.32	-20.6	-37.2	3.6	1.50e+00	0	48	0	0	13	23497
2026-01-11 09:00:47.34	130.78	3.58	-18.5	-36.2	3.6	1.50e+00	0	48	104	0	6	31377
2026-01-11 09:00:51.38	130.60	3.84	-21.3	-37.2	3.6	1.50e+00	0	48	104	0	2	44184
2026-01-11 09:00:55.42	130.41	4.10	-19.6	-38.1	3.3	1.51e+00	0	49	104	0	7	36573
2026-01-11 09:00:59.47	130.22	4.37	-21.7	-39.2	3.4	1.50e+00	0	49	104	0	12	31108
2026-01-11 09:01:03.51	130.03	4.64	-13.5	-32.6	3.6	1.51e+00	0	49	104	0	1	27665
2026-01-11 09:01:07.55	129.83	4.91	-16.4	-36.7	3.6	1.50e+00	0	49	104	0	10	26231
2026-01-11 09:01:11.60	129.63	5.19	-21.6	-37.1	3.5	1.50e+00	0	50	104	0	10	27531
2026-01-11 09:01:15.64	129.42	5.47	-14.1	-30.8	3.7	1.50e+00	0	50	104	0	0	23822
2026-01-11 09:01:19.68	129.21	5.74	-20.1	-36.2	3.9	1.50e+00	0	50	104	0	8	27917
2026-01-11 09:01:23.73	129.00	6.03	-24.6	-38.4	3.5	1.50e+00	0	50	104	0	7	37983
2026-01-11 09:01:27.77	128.78	6.31	-16.8	-34.4	3.5	1.50e+00	0	51	0	0	5	26812
2026-01-11 09:01:31.82	128.55	6.60	-20.1	-36.3	3.4	1.50e+00	0	51	104	0	6	31734
2026-01-11 09:01:35.86	128.32	6.89	-22.3	-40.6	3.6	1.50e+00	0	51	104	0	17	27553
2026-01-11 09:01:39.90	128.09	7.18	-15.5	-33.1	3.5	1.50e+00	0	51	104	0	1	29325
2026-01-11 09:01:43.95	127.85	7.48	-19.1	-38.1	3.6	1.50e+00	0	51	104	0	4	43879
2026-01-11 09:01:47.99	127.61	7.78	-16.9	-38.1	3.7	1.50e+00	0	51	104	0	11	29278
2026-01-11 09:01:52.04	127.36	8.08	-19.4	-37.9	3.7	1.50e+00	0	51	104	0	12	26853
2026-01-11 09:01:56.08	127.11	8.39	-21.7	-40.1	3.7	1.49e+00	0	52	104	0	12	34787
2026-01-11 09:02:00.13	126.85	8.70	-21.6	-38.4	4.0	1.50e+00	0	52	104	0	13	26820
2026-01-11 09:02:04.17	126.58	9.01	-25.5	-40.7	3.7	1.50e+00	0	52	0	0	17	27827
2026-01-11 09:02:08.21	126.31	9.33	-25.3	-45.9	4.4	1.48e+00	0	52	104	0	25	31953
2026-01-11 09:02:12.25	126.04	9.65	-20.1	-38.5	3.7	1.51e+00	0	52	0	0	14	25595
2026-01-11 09:02:16.28	125.75	9.97	-26.5	-45.9	4.5	1.47e+00	0	52	104	0	31	22548
2026-01-11 09:02:20.33	125.46	10.29	-27.6	-45.5	4.2	1.50e+00	0	52	104	0	23	34407
2026-01-11 09:02:24.37	125.16	10.62	-37.7	-50.2	5.7	7.40e-01	0	52	0	0	48	13936
2026-01-11 09:02:28.41	124.86	10.96	-25.0	-42.5	4.5	9.00e-01	0	53	104	1048576	30	16184
2026-01-11 09:02:32.45	124.55	11.29	-33.4	-44.3	7.2	3.90e-01	0	53	0	7340032	39	11856
2026-01-11 09:02:36.49	124.23	11.63	-30.0	-44.5	6.6	3.71e-01	0	53	0	12582912	29	21528
2026-01-11 09:02:40.53	123.90	11.98	-34.9	-44.7	8.7	1.23e-01	0	53	0	19922944	40	11746
2026-01-11 09:02:44.57	123.57	12.33	-38.6	-44.6	9.3	1.03e-01	0	53	0	27262976	42	10364
2026-01-11 09:02:48.60	123.23	12.68	-36.8	-45.2	10.9	3.00e-02	0	53	0	34603008	48	7860
2026-01-11 09:02:52.65	122.88	13.04	-37.8	-44.6	11.5	1.10e-02	0	53	0	42991616	48	7324
2026-01-11 09:02:56.68	122.52	13.40	-40.1	-45.2	11.7	6.61e-03	0	53	0	50331648	50	6962
2026-01-11 09:03:00.72	122.15	13.76	-33.5	-43.3	10.5	3.01e-02	0	53	0	57671680	40	10036
2026-01-11 09:03:04.76	121.77	14.13	-38.9	-44.9	12.3	4.79e-03	0	53	0	65011712	50	6749
2026-01-11 09:03:08.80	121.38	14.51	-39.2	-43.8	10.9	4.02e-03	0	53	0	72351744	44	8439
2026-01-11 09:03:12.84	120.98	14.88	-37.3	-44.3	12.0	1.15e-02	0	53	0	80740352	48	7084
2026-01-11 09:03:16.87	120.57	15.27	-38.8	-43.6	13.2	3.54e-03	0	53	0	88080384	48	6570
2026-01-11 09:03:20.91	120.15	15.65	-40.6	-44.5	13.3	1.37e-03	0	54	0	95420416	51	6115
2026-01-11 09:03:24.95	119.72	16.04	-39.5	-43.3	14.2	1.45e-03	0	54	0	102760448	50	5622
2026-01-11 09:03:28.99	119.28	16.44	-40.1	-43.2	14.3	3.70e-04	0	54	0	111149056	51	5236
2026-01-11 09:03:33.02	118.82	16.84	-40.6	-43.8	13.8	5.95e-05	0	54	0	118489088	51	5613
2026-01-11 09:03:37.06	118.36	17.25	-40.4	-43.3	14.4	1.78e-04	0	54	0	125829120	51	5319
2026-01-11 09:03:41.10	117.88	17.66	-41.1	-44.6	13.1	1.83e-05	0	54	0	133169152	52	5802
2026-01-11 09:03:45.14	117.38	18.07	-40.2	-43.0	14.7	0.00e+00	0	54	0	140509184	52	4817
2026-01-11 09:03:49.18	116.87	18.49	-40.8	-43.9	13.8	3.00e-06	0	54	0	148897792	52	5354
2026-01-11 09:03:53.22	116.35	18.92	-40.5	-43.4	14.4	0.00e+00	0	54	0	156237824	52	5083
2026-01-11 09:03:57.26	115.81	19.35	-41.2	-44.7	12.9	1.29e-05	0	54	0	163577856	53	5558
2026-01-11 09:04:01.30	115.26	19.79	-41.1	-44.4	13.4	1.29e-05	0	54	0	170917888	53	5386
2026-01-11 09:04:05.34	114.69	20.23	-41.0	-44.4	13.4	5.03e-05	0	54	0	179306496	52	5671
2026-01-11 09:04:09.38	114.10	20.67	-41.1	-44.3	13.5	1.37e-05	0	54	0	186646528	53	5338
2026-01-11 09:04:13.42	113.49	21.12	-41.1	-44.2	13.6	2.51e-05	0	54	0	193986560	53	5276
2026-01-11 09:04:17.46	112.87	21.57	-40.9	-43.9	14.0	1.50e-06	0	54	0	201326592	53	5048
2026-01-11 09:04:21.50	112.23	22.03	-40.8	-43.7	14.2	4.50e-06	0	54	0	208666624	52	5241
2026-01-11 09:04:25.54	111.57	22.49	-40.3	-42.9	15.1	7.00e-07	0	55	0	217055232	52	4760
2026-01-11 09:04:29.57	110.89	22.96	-29.0	-42.6	13.1	1.87e-02	0	55	0	224395264	30	16387
2026-01-11 09:04:33.61	110.18	23.43	-32.0	-42.4	13.2	3.53e-02	0	54	0	231735296	33	13491
2026-01-11 09:04:37.65	109.46	23.90	-40.0	-43.4	13.2	2.27e-02	0	55	0	239075328	32	16092
2026-01-11 09:04:41.69	108.71	24.38	-41.7	-45.4	12.6	9.23e-05	0	55	0	247463936	54	5687
2026-01-11 09:04:45.73	107.94	24.86	-41.8	-45.4	12.5	1.25e-04	0	55	0	254803968	54	5703
2026-01-11 09:04:49.77	107.15	25.35	-40.1	-45.5	12.1	1.32e-02	0	55	0	262144000	52	6452
2026-01-11 09:04:53.81	106.33	25.83	-39.8	-45.1	12.4	1.35e-02	0	55	0	269484032	51	6556
2026-01-11 09:04:57.85	105.48	26.32	-41.1	-45.2	12.5	1.32e-02	0	55	0	276824064	53	5864
2026-01-11 09:05:01.88	104.61	26.81	-38.5	-44.1	13.3	1.40e-02	0	55	0	285212672	49	6504
2026-01-11 09:05:05.92	103.71	27.31	-41.6	-45.0	13.0	2.97e-05	0	55	0	292552704	53	5769
2026-01-11 09:05:09.96	102.79	27.80	-41.6	-45.0	13.0	4.34e-05	0	55	0	299892736	54	5440
2026-01-11 09:05:14.00	101.83	28.29	-41.7	-45.2	12.9	3.89e-05	0	55	0	307232768	54	5576
2026-01-11 09:05:18.04	100.84	28.78	-41.5	-44.9	13.1	1.14e-04	0	55	0	315621376	54	5378
2026-01-11 09:05:22.08	99.82	29.28	-41.4	-44.9	12.9	1.95e-03	0	55	0	322961408	54	5355
2026-01-11 09:05:26.11	98.78	29.76	-41.7	-45.4	12.5	1.40e-03	0	55	0	330301440	54	5718
2026-01-11 09:05:30.15	97.69	30.25	-41.7	-45.3	12.7	2.05e-04	0	55	0	337641472	54	5634
2026-01-11 09:05:34.19	96.58	30.73	-42.2	-46.1	11.9	3.50e-04	0	55	0	344981504	55	5841
2026-01-11 09:05:38.23	95.43	31.21	-42.9	-47.5	10.5	2.75e-03	0	55	0	353370112	56	6491
2026-01-11 09:05:42.27	94.25	31.69	-43.0	-47.8	10.3	6.01e-03	0	55	0	360710144	57	6281
2026-01-11 09:05:46.30	93.03	32.15	-42.4	-46.2	11.9	6.77e-04	0	55	0	368050176	56	5574
2026-01-11 09:05:50.34	91.78	32.61	-43.4	-48.8	9.4	6.74e-03	0	55	0	375390208	57	7069
2026-01-11 09:05:54.38	90.49	33.06	-43.5	-49.2	8.9	1.41e-02	0	55	0	383778816	57	7448
2026-01-11 09:05:58.42	89.16	33.50	-42.5	-47.4	10.6	1.99e-03	0	55	0	391118848	56	6378
2026-01-11 09:06:02.46	87.80	33.92	-43.1	-49.2	8.8	4.13e-02	0	55	0	398458880	57	7433
2026-01-11 09:06:06.49	86.41	34.34	-42.6	-47.9	10.2	5.92e-03	0	55	0	405798912	57	6397
2026-01-11 09:06:10.53	84.98	34.74	-42.6	-47.7	10.4	2.85e-03	0	55	0	413138944	56	6592
2026-01-11 09:06:14.57	83.51	35.12	-41.8	-45.9	12.0	3.29e-04	0	55	0	421527552	55	5666
2026-01-11 09:06:18.61	82.01	35.48	-41.8	-46.3	11.6	6.35e-04	0	55	0	428867584	55	5949
2026-01-11 09:06:22.64	80.48	35.83	-41.4	-45.2	12.8	2.51e-05	0	55	0	436207616	54	5566
2026-01-11 09:06:26.68	78.91	36.16	-40.9	-44.2	13.8	4.50e-06	0	55	0	443547648	53	5271
2026-01-11 09:06:30.72	77.32	36.46	-40.1	-42.9	15.2	0.00e+00	0	55	0	450887680	51	5083
2026-01-11 09:06:34.76	75.69	36.74	-40.6	-43.7	14.4	7.00e-07	0	55	0	459276288	51	5579
2026-01-11 09:06:38.79	74.04	37.00	-39.9	-42.5	15.7	0.00e+00	0	55	0	466616320	51	4825
2026-01-11 09:06:42.83	72.36	37.23	-39.6	-42.0	16.1	0.00e+00	0	55	0	473956352	50	4868
2026-01-11 09:06:46.87	70.66	37.43	-40.3	-43.0	15.2	0.00e+00	0	55	0	481296384	51	5144
2026-01-11 09:06:50.91	68.94	37.61	-40.1	-42.7	15.5	0.00e+00	0	55	0	489684992	51	4983
2026-01-11 09:06:54.95	67.21	37.76	-39.3	-41.5	16.8	0.00e+00	0	56	0	497025024	50	4587
2026-01-11 09:06:58.99	65.46	37.88	-40.1	-42.6	15.7	0.00e+00	0	56	0	504365056	51	4879
2026-01-11 09:07:03.03	63.70	37.96	-40.5	-43.4	14.7	0.00e+00	0	56	0	511705088	52	5095
2026-01-11 09:07:07.07	61.93	38.02	-41.5	-45.2	12.9	7.01e-05	0	56	0	519045120	54	5551
2026-01-11 09:07:11.10	60.16	38.05	-41.4	-45.0	13.2	2.74e-05	0	55	0	527433728	54	5435
2026-01-11 09:07:15.14	58.38	38.04	-40.9	-43.9	14.1	3.00e-06	0	55	0	534773760	53	5095
2026-01-11 09:07:19.18	56.61	38.00	-40.9	-44.0	14.1	1.50e-06	0	55	0	542113792	53	5140
2026-01-11 09:07:23.21	54.85	37.94	-42.2	-46.9	11.1	2.02e-03	0	56	0	549453824	55	6370
2026-01-11 09:07:27.25	53.09	37.84	-41.9	-46.3	11.8	3.24e-04	0	56	0	557842432	55	5929
2026-01-11 09:07:31.29	51.35	37.71	-42.2	-46.9	11.1	2.22e-03	0	56	0	565182464	55	6398
2026-01-11 09:07:35.33	49.62	37.55	-41.8	-46.0	12.0	4.40e-04	0	56	0	572522496	55	5781
2026-01-11 09:07:39.37	47.91	37.36	-41.7	-46.2	11.9	4.08e-04	0	56	0	579862528	54	6215
2026-01-11 09:07:43.39	46.22	37.15	-43.0	-49.7	8.4	6.90e-02	0	56	0	587202560	56	8325
2026-01-11 09:07:47.43	44.56	36.91	-41.5	-45.4	12.6	2.30e-04	0	56	0	595591168	54	5691
2026-01-11 09:07:51.47	42.92	36.64	-41.9	-46.3	11.6	7.77e-04	0	56	0	602931200	54	6282
2026-01-11 09:07:55.50	41.31	36.36	-40.8	-43.7	14.5	7.00e-07	0	56	0	610271232	53	4981
2026-01-11 09:07:59.54	39.73	36.04	-40.8	-44.0	14.0	3.00e-06	0	56	0	617611264	53	5143
2026-01-11 09:08:03.58	38.18	35.71	-41.1	-44.4	13.7	1.44e-05	0	56	0	625999872	53	5401
2026-01-11 09:08:07.62	36.66	35.36	-41.9	-46.2	12.0	5.18e-05	0	56	0	633339904	54	6203
2026-01-11 09:08:11.65	35.18	34.99	-41.7	-45.8	12.4	9.46e-05	0	56	0	640679936	54	5930
2026-01-11 09:08:15.70	33.73	34.60	-41.0	-44.2	14.0	0.00e+00	0	56	0	648019968	52	5590
2026-01-11 09:08:19.74	32.31	34.20	-41.1	-44.3	13.9	7.00e-07	0	56	0	655360000	52	5654
2026-01-11 09:08:23.78	30.93	33.78	-40.6	-43.4	14.8	0.00e+00	0	56	0	663748608	52	5053
2026-01-11 09:08:27.82	29.59	33.35	-41.5	-45.0	13.1	2.82e-05	0	56	0	671088640	53	5732
2026-01-11 09:08:31.85	28.28	32.91	-40.9	-44.1	14.0	3.80e-06	0	56	0	678428672	53	5171
2026-01-11 09:08:35.89	27.01	32.46	-41.7	-45.5	12.7	5.87e-05	0	56	0	685768704	53	6109
2026-01-11 09:08:39.93	25.77	32.00	-42.8	-47.8	10.6	1.50e-03	0	56	0	694157312	56	6665
2026-01-11 09:08:43.97	24.57	31.53	-42.1	-46.3	11.8	3.19e-04	0	56	0	701497344	55	5935
2026-01-11 09:08:48.02	23.40	31.06	-41.8	-45.6	12.6	7.01e-05	0	56	0	708837376	55	5475
2026-01-11 09:08:52.06	22.27	30.58	-40.6	-43.4	14.8	0.00e+00	0	56	0	716177408	53	4806
2026-01-11 09:08:56.10	21.17	30.10	-40.8	-43.8	14.4	0.00e+00	0	56	0	723517440	52	5319
2026-01-11 09:09:00.13	20.11	29.61	-42.3	-46.6	11.5	5.38e-04	0	56	0	731906048	55	6189
2026-01-11 09:09:04.17	19.08	29.12	-41.8	-45.7	12.5	2.68e-04	0	56	0	739246080	55	5536
2026-01-11 09:09:08.21	18.07	28.63	-41.7	-45.3	12.8	5.49e-05	0	56	0	746586112	55	5332
2026-01-11 09:09:12.25	17.10	28.14	-40.9	-44.0	14.2	7.00e-07	0	56	0	753926144	53	5108
2026-01-11 09:09:16.29	16.16	27.65	-40.4	-43.1	15.1	0.00e+00	0	56	0	762314752	52	4886
2026-01-11 09:09:20.32	15.25	27.16	-41.2	-44.5	13.6	6.80e-06	0	56	0	769654784	53	5442
2026-01-11 09:09:24.36	14.36	26.67	-41.4	-44.9	13.3	1.29e-05	0	56	0	776994816	53	5675
2026-01-11 09:09:28.40	13.51	26.18	-40.8	-43.9	14.3	7.00e-07	0	56	0	784334848	53	5049
2026-01-11 09:09:32.44	12.68	25.70	-40.7	-43.6	14.5	7.00e-07	0	56	0	791674880	53	4873
2026-01-11 09:09:36.47	11.87	25.22	-40.9	-44.0	14.1	0.00e+00	0	56	0	800063488	53	5113
2026-01-11 09:09:40.51	11.09	24.74	-41.3	-44.7	13.4	5.30e-06	0	56	0	807403520	53	5572
2026-01-11 09:09:44.55	10.33	24.26	-41.8	-45.8	12.3	1.29e-04	0	56	0	814743552	54	5929
2026-01-11 09:09:48.59	9.60	23.78	-41.9	-45.9	12.1	2.85e-04	0	56	0	822083584	54	6011
2026-01-11 09:09:52.62	8.89	23.31	-41.3	-44.8	13.2	4.65e-05	0	56	0	830472192	54	5316
2026-01-11 09:09:56.66	8.20	22.85	-40.7	-43.7	14.3	3.00e-06	0	56	0	837812224	53	4971
2026-01-11 09:10:00.70	7.53	22.38	-41.1	-44.4	13.6	2.20e-06	0	56	0	845152256	53	5349
2026-01-11 09:10:04.74	6.88	21.92	-40.6	-43.6	14.4	2.20e-06	0	56	0	852492288	53	4894
2026-01-11 09:10:08.78	6.24	21.47	-40.7	-43.8	14.2	7.00e-07	0	56	0	859832320	52	5302
2026-01-11 09:10:12.82	5.63	21.02	-42.1	-46.5	11.5	4.96e-04	0	56	0	868220928	54	6471
2026-01-11 09:10:16.86	5.04	20.57	-42.0	-46.2	11.6	8.89e-04	0	56	0	875560960	55	5871
2026-01-11 09:10:20.90	4.46	20.13	-41.6	-45.5	12.6	8.92e-05	0	56	0	882900992	54	5727
2026-01-11 09:10:24.93	3.90	19.70	-41.2	-44.7	13.1	1.75e-05	0	56	0	890241024	54	5256
2026-01-11 09:10:28.97	3.36	19.27	-41.4	-45.1	12.7	1.24e-04	0	56	0	898629632	54	5470
2026-01-11 09:10:33.01	2.83	18.84	-40.7	-43.9	13.8	8.30e-06	0	56	0	905969664	53	5068
2026-01-11 09:10:37.05	2.31	18.42	-40.2	-43.1	14.6	7.00e-07	0	56	0	913309696	52	4874
2026-01-11 09:10:41.08	1.81	18.00	-40.9	-44.3	13.4	1.29e-05	0	56	0	920649728	52	5593
2026-01-11 09:10:45.12	1.33	17.59	-41.0	-44.6	12.9	7.17e-05	0	56	0	927989760	52	5847
2026-01-11 09:10:49.16	0.86	17.18	-40.8	-44.3	13.2	1.22e-05	0	56	0	936378368	53	5295
2026-01-11 09:10:53.20	0.40	16.78	-41.0	-44.6	12.8	5.03e-05	0	56	0	943718400	53	5502
2026-01-11 09:10:57.24	359.95	16.38	-41.2	-45.2	12.1	1.85e-04	0	56	0	951058432	53	5880
2026-01-11 09:11:01.27	359.52	15.99	-41.4	-45.7	11.6	5.39e-04	0	56	0	958398464	53	6205
2026-01-11 09:11:05.31	359.09	15.60	-41.6	-46.4	10.7	2.28e-03	0	56	0	965738496	53	6760
2026-01-11 09:11:09.35	358.68	15.22	-41.5	-46.3	10.7	2.73e-03	0	56	0	974127104	54	6296
2026-01-11 09:11:13.39	358.28	14.84	-40.4	-44.4	12.3	2.58e-04	0	56	0	981467136	52	5679
2026-01-11 09:11:17.43	357.89	14.46	-40.1	-44.0	12.3	1.85e-04	0	56	0	988807168	52	5452
2026-01-11 09:11:21.47	357.51	14.09	-40.0	-44.1	12.0	3.54e-04	0	56	0	996147200	51	5827
2026-01-11 09:11:25.51	357.13	13.72	-40.1	-44.6	11.3	8.01e-04	0	56	0	1004535808	51	6171
2026-01-11 09:11:29.54	356.77	13.36	-39.9	-44.2	11.5	7.75e-04	0	56	0	1011875840	51	5916
2026-01-11 09:11:33.58	356.42	13.00	-40.2	-46.0	9.2	1.82e-02	0	56	0	1019215872	51	7220
2026-01-11 09:11:37.62	356.08	12.65	-40.4	-49.2	5.7	2.77e-01	0	56	0	1026555904	51	10474
2026-01-11 09:11:41.66	355.74	12.30	-40.4	-54.1	3.8	1.49e+00	0	56	104	1030750208	51	18351
2026-01-11 09:11:45.69	355.41	11.96	-40.2	-55.0	3.8	1.49e+00	0	56	104	1030750208	51	20367
2026-01-11 09:11:49.73	355.09	11.61	-40.3	-54.9	3.8	1.49e+00	0	56	104	1030750208	51	20156
2026-01-11 09:11:53.77	354.78	11.28	-40.1	-54.7	3.8	1.49e+00	0	56	104	1030750208	51	19676
2026-01-11 09:11:57.81	354.48	10.94	-40.1	-54.6	3.8	1.49e+00	0	56	104	1030750208	51	19588
2026-01-11 09:12:01.85	354.18	10.61	-40.0	-54.8	3.8	1.49e+00	0	56	104	1030750208	51	19950
2026-01-11 09:12:05.89	353.89	10.28	-40.2	-54.7	3.8	1.49e+00	0	56	104	1030750208	51	19774
2026-01-11 09:12:09.93	353.61	9.96	-40.1	-54.8	3.8	1.49e+00	0	56	104	1030750208	51	19880
2026-01-11 09:12:13.97	353.33	9.64	-40.4	-54.9	3.8	1.49e+00	0	56	104	1030750208	51	20290
2026-01-11 09:12:18.01	353.06	9.32	-40.4	-55.0	3.8	1.49e+00	0	56	104	1030750208	51	20349
2026-01-11 09:12:22.05	352.79	9.01	-40.5	-55.0	3.8	1.49e+00	0	56	104	1030750208	51	20469
2026-01-11 09:12:26.09	352.53	8.70	-40.4	-55.0	3.8	1.49e+00	0	56	104	1030750208	51	20431
2026-01-11 09:12:30.13	352.28	8.39	-40.5	-55.0	3.8	1.49e+00	0	56	104	1030750208	51	20395
2026-01-11 09:12:34.16	352.03	8.09	-40.5	-55.0	3.8	1.49e+00	0	56	104	1030750208	51	20340
2026-01-11 09:12:38.21	351.79	7.79	-42.6	-57.2	3.9	1.49e+00	0	56	104	1030750208	55	20793
2026-01-11 09:12:42.25	351.55	7.49	-45.2	-59.9	3.8	1.49e+00	0	56	104	1030750208	60	21289
2026-01-11 09:12:46.29	351.32	7.20	-43.9	-60.0	3.8	1.49e+00	0	56	104	1030750208	61	20498
2026-01-11 09:12:50.34	351.10	6.91	-45.2	-60.0	3.8	1.49e+00	0	56	104	1030750208	61	20322
2026-01-11 09:12:54.38	350.87	6.62	-45.1	-59.9	3.8	1.49e+00	0	56	104	1030750208	61	20188
2026-01-11 09:12:58.42	350.66	6.33	-45.1	-59.9	3.8	1.49e+00	0	56	104	1030750208	61	20113
2026-01-11 09:13:02.47	350.44	6.05	-45.1	-59.8	3.8	1.49e+00	0	56	104	1030750208	61	20066
2026-01-11 09:13:06.51	350.23	5.77	-45.1	-59.9	3.8	1.49e+00	0	56	104	1030750208	61	20080
2026-01-11 09:13:10.56	350.03	5.49	-45.1	-59.8	3.8	1.49e+00	0	56	104	1030750208	61	20065
2026-01-11 09:13:14.60	349.83	5.21	-45.1	-59.9	3.8	1.49e+00	0	56	104	1030750208	61	20074
2026-01-11 09:13:18.64	349.63	4.94	-45.1	-59.9	3.8	1.49e+00	0	56	104	1030750208	61	20088
2026-01-11 09:13:22.69	349.44	4.67	-45.1	-59.8	3.8	1.49e+00	0	56	104	1030750208	60	21228
2026-01-11 09:13:26.73	349.25	4.40	-45.1	-59.8	3.8	1.49e+00	0	57	104	1030750208	60	21209
2026-01-11 09:13:30.78	349.07	4.13	-45.1	-59.8	3.8	1.49e+00	0	56	104	1030750208	60	21236
2026-01-11 09:13:34.82	348.89	3.87	-45.1	-59.9	3.8	1.49e+00	0	56	104	1030750208	60	21287
2026-01-11 09:13:38.87	348.71	3.61	-44.9	-59.8	3.8	1.49e+00	0	56	104	1030750208	60	21220
2026-01-11 09:13:42.91	348.54	3.35	-45.0	-59.8	3.8	1.49e+00	0	56	104	1030750208	60	21245
2026-01-11 09:13:46.95	348.37	3.09	-45.0	-59.8	3.8	1.49e+00	0	56	104	1030750208	60	21227
2026-01-11 09:13:51.00	348.20	2.84	-45.0	-59.8	3.8	1.49e+00	0	56	104	1030750208	60	21167
2026-01-11 09:13:55.04	348.03	2.58	-45.0	-59.8	3.8	1.49e+00	0	56	104	1030750208	60	21211
2026-01-11 09:13:59.08	347.87	2.33	-45.0	-59.8	3.8	1.49e+00	0	56	104	1030750208	60	21191
2026-01-11 09:14:03.11	347.71	2.09	-45.0	-59.8	3.8	1.49e+00	0	56	104	1030750208	60	21197
2026-01-11 09:14:07.15	347.56	1.84	-45.0	-59.8	3.8	1.49e+00	0	56	104	1030750208	60	21178

#Closed at: 2026-01-11 09:14:07
#Recorded file [1030 MB]: D:/lorett/data/31039_260111_120022.dat