passes_logs/2026/01/11/R2.0S_Moscow/R2.0S_Moscow__20260111_110125_NOAA_20_JPSS-1_rec.log

#Pass ID: 20260111_110125_NOAA 20 (JPSS-1)
#Satellite: NOAA 20 (JPSS-1)
#Configuration: NOAA 20
#almurnet v.1.7.20251203
#Start time: 2026-01-11 11:01:26

#Version: 2.2.20231116
#Station: R2.0S_Moscow
#Location: 37.707566 lon 55.798166 lat
#TLE: 1 43013U 17073A   26009.69119415  .00000109  00000+0  72598-4 0  9996
#TLE: 2 43013  98.7631 310.6868 0001678  46.7442 313.3874 14.19534878421981

#Time	Az	El	Level	Level2	SNR	BER	BlckErr	Temp	State	Recorded	gain1	gain2
2026-01-11 11:01:26.87	193.58	2.11	-43.1	-57.8	3.8	1.49e+00	0	48	0	0	56	21212
2026-01-11 11:01:30.91	193.80	2.36	-43.1	-57.8	3.8	1.49e+00	0	49	104	0	58	18942
2026-01-11 11:01:34.95	194.02	2.60	-43.1	-57.8	3.8	1.49e+00	0	49	104	0	58	18908
2026-01-11 11:01:38.99	194.24	2.85	-43.1	-57.8	3.8	1.49e+00	0	49	104	0	58	18888
2026-01-11 11:01:43.04	194.46	3.10	-43.1	-57.9	3.8	1.49e+00	0	50	104	0	58	18960
2026-01-11 11:01:47.08	194.69	3.35	-43.1	-57.8	3.8	1.49e+00	0	50	104	0	58	18922
2026-01-11 11:01:51.13	194.92	3.60	-43.1	-57.8	3.8	1.49e+00	0	50	104	0	58	18926
2026-01-11 11:01:55.17	195.16	3.85	-43.1	-57.8	3.8	1.49e+00	0	50	104	0	58	18946
2026-01-11 11:01:59.21	195.40	4.11	-43.1	-57.8	3.8	1.49e+00	0	51	104	0	58	18932
2026-01-11 11:02:03.25	195.64	4.37	-43.1	-57.8	3.8	1.49e+00	0	51	104	0	58	18932
2026-01-11 11:02:07.30	195.89	4.63	-43.1	-57.8	3.8	1.49e+00	0	51	104	0	58	18862
2026-01-11 11:02:11.34	196.14	4.89	-43.1	-57.7	3.8	1.49e+00	0	51	104	0	58	18726
2026-01-11 11:02:15.39	196.40	5.15	-43.1	-57.5	3.8	1.49e+00	0	52	104	0	58	18289
2026-01-11 11:02:19.43	196.66	5.42	-43.1	-57.2	3.8	1.49e+00	0	52	104	0	58	17664
2026-01-11 11:02:23.48	196.93	5.69	-43.1	-56.8	3.8	1.49e+00	0	52	104	0	58	16860
2026-01-11 11:02:27.52	197.20	5.96	-43.1	-56.6	3.8	1.49e+00	0	52	104	0	58	16372
2026-01-11 11:02:31.56	197.47	6.23	-43.1	-56.1	3.8	1.49e+00	0	52	104	0	58	15548
2026-01-11 11:02:35.61	197.75	6.51	-43.1	-55.8	3.8	1.49e+00	0	52	104	0	58	15027
2026-01-11 11:02:39.65	198.04	6.79	-43.0	-55.3	3.8	1.48e+00	0	53	104	0	58	14076
2026-01-11 11:02:43.70	198.33	7.07	-42.8	-52.7	4.8	9.62e-01	0	53	0	2097152	57	11149
2026-01-11 11:02:47.74	198.62	7.35	-42.2	-49.3	7.3	1.66e-01	0	53	0	9437184	56	7935
2026-01-11 11:02:51.78	198.93	7.64	-41.4	-46.9	9.6	1.40e-02	0	53	0	16777216	54	6739
2026-01-11 11:02:55.82	199.23	7.93	-41.3	-46.5	10.1	6.35e-03	0	53	0	24117248	54	6428
2026-01-11 11:02:59.86	199.55	8.22	-40.4	-47.2	7.9	3.76e-01	0	53	0	30408704	52	7849
2026-01-11 11:03:03.90	199.87	8.51	-40.1	-45.3	9.9	9.37e-03	0	53	0	37748736	52	6333
2026-01-11 11:03:07.93	200.19	8.80	-40.8	-45.2	11.3	1.34e-03	0	54	0	46137344	52	6224
2026-01-11 11:03:11.97	200.52	9.10	-40.4	-45.0	11.0	1.47e-03	0	54	0	53477376	52	6076
2026-01-11 11:03:16.01	200.86	9.41	-39.6	-44.8	9.8	8.85e-03	0	54	0	60817408	51	6332
2026-01-11 11:03:20.04	201.21	9.71	-39.6	-44.7	9.7	1.19e-02	0	54	0	68157440	51	6267
2026-01-11 11:03:24.08	201.56	10.02	-39.7	-44.5	10.1	8.84e-03	0	54	0	75497472	50	6494
2026-01-11 11:03:28.12	201.92	10.33	-40.1	-44.4	11.2	1.47e-03	0	54	0	83886080	50	6384
2026-01-11 11:03:32.16	202.28	10.64	-40.1	-44.6	11.0	1.68e-03	0	54	0	91226112	51	6164
2026-01-11 11:03:36.20	202.66	10.96	-39.9	-44.4	10.9	1.94e-03	0	54	0	98566144	51	6023
2026-01-11 11:03:40.24	203.04	11.28	-40.1	-44.3	11.3	1.32e-03	0	54	0	105906176	51	5931
2026-01-11 11:03:44.28	203.43	11.60	-40.3	-43.9	12.3	2.04e-04	0	54	0	114294784	51	5704
2026-01-11 11:03:48.32	203.83	11.92	-40.4	-43.6	13.5	1.06e-05	0	54	0	121634816	51	5507
2026-01-11 11:03:52.36	204.24	12.25	-40.5	-43.4	14.3	1.50e-06	0	54	0	128974848	51	5386
2026-01-11 11:03:56.39	204.65	12.58	-40.4	-43.2	14.6	0.00e+00	0	55	0	136314880	51	5276
2026-01-11 11:04:00.43	205.08	12.92	-40.6	-43.4	14.4	7.00e-07	0	54	0	143654912	51	5388
2026-01-11 11:04:04.47	205.51	13.26	-40.5	-43.3	14.6	0.00e+00	0	55	0	152043520	51	5337
2026-01-11 11:04:08.51	205.96	13.60	-40.5	-43.4	14.6	0.00e+00	0	55	0	159383552	51	5360
2026-01-11 11:04:12.55	206.42	13.94	-40.6	-43.5	14.4	0.00e+00	0	55	0	166723584	51	5455
2026-01-11 11:04:16.59	206.88	14.29	-40.6	-43.5	14.5	0.00e+00	0	55	0	174063616	51	5412
2026-01-11 11:04:20.63	207.36	14.64	-40.5	-43.3	14.7	7.00e-07	0	55	0	182452224	51	5305
2026-01-11 11:04:24.67	207.84	14.99	-40.4	-43.1	14.9	1.50e-06	0	55	0	189792256	51	5183
2026-01-11 11:04:28.71	208.34	15.35	-40.3	-43.0	15.1	0.00e+00	0	55	0	197132288	51	5122
2026-01-11 11:04:32.74	208.85	15.71	-40.5	-43.3	14.8	0.00e+00	0	55	0	204472320	51	5295
2026-01-11 11:04:36.78	209.37	16.08	-40.6	-43.5	14.5	7.00e-07	0	55	0	211812352	52	5135
2026-01-11 11:04:40.82	209.91	16.44	-40.8	-43.8	14.2	1.50e-06	0	55	0	220200960	52	5335
2026-01-11 11:04:44.86	210.46	16.81	-41.1	-44.3	13.7	3.80e-06	0	55	0	227540992	52	5607
2026-01-11 11:04:48.90	211.02	17.19	-41.2	-44.4	13.6	6.80e-06	0	55	0	234881024	53	5396
2026-01-11 11:04:52.93	211.59	17.56	-41.1	-44.3	13.8	6.10e-06	0	55	0	242221056	53	5290
2026-01-11 11:04:56.97	212.18	17.94	-41.1	-44.2	13.8	8.30e-06	0	55	0	250609664	53	5254
2026-01-11 11:05:01.01	212.78	18.33	-41.1	-44.3	13.8	2.20e-06	0	55	0	257949696	53	5284
2026-01-11 11:05:05.05	213.40	18.71	-41.2	-44.4	13.7	5.30e-06	0	56	0	265289728	53	5362
2026-01-11 11:05:09.08	214.04	19.10	-41.2	-44.4	13.7	7.60e-06	0	56	0	272629760	53	5365
2026-01-11 11:05:13.12	214.69	19.49	-41.1	-44.2	13.9	3.00e-06	0	56	0	279969792	53	5263
2026-01-11 11:05:17.16	215.35	19.89	-41.0	-43.9	14.1	7.00e-07	0	56	0	288358400	53	5095
2026-01-11 11:05:21.20	216.03	20.28	-40.9	-43.8	14.3	7.00e-07	0	55	0	295698432	53	4998
2026-01-11 11:05:25.24	216.74	20.68	-40.8	-43.8	14.3	0.00e+00	0	56	0	303038464	53	4994
2026-01-11 11:05:29.28	217.45	21.08	-40.6	-43.4	14.8	0.00e+00	0	56	0	310378496	53	4770
2026-01-11 11:05:33.32	218.19	21.48	-40.4	-43.1	15.1	0.00e+00	0	56	0	318767104	52	4898
2026-01-11 11:05:37.35	218.95	21.88	-40.2	-42.8	15.4	0.00e+00	0	56	0	326107136	52	4727
2026-01-11 11:05:41.39	219.72	22.29	-40.0	-42.4	15.7	0.00e+00	0	56	0	333447168	52	4540
2026-01-11 11:05:45.43	220.52	22.69	-40.0	-42.4	15.8	0.00e+00	0	56	0	340787200	52	4541
2026-01-11 11:05:49.46	221.33	23.10	-39.9	-42.2	16.1	0.00e+00	0	56	0	348127232	51	4661
2026-01-11 11:05:53.50	222.17	23.51	-39.7	-42.0	16.3	0.00e+00	0	56	0	356515840	51	4557
2026-01-11 11:05:57.54	223.03	23.91	-39.4	-41.5	16.7	0.00e+00	0	56	0	363855872	50	4590
2026-01-11 11:06:01.58	223.91	24.32	-39.3	-41.4	16.9	0.00e+00	0	56	0	371195904	50	4518
2026-01-11 11:06:05.61	224.81	24.73	-39.8	-42.1	16.3	0.00e+00	0	56	0	378535936	50	4873
2026-01-11 11:06:09.65	225.73	25.13	-39.6	-41.8	16.5	0.00e+00	0	56	0	385875968	50	4742
2026-01-11 11:06:13.69	226.68	25.53	-40.0	-42.4	16.0	0.00e+00	0	56	0	394264576	50	5047
2026-01-11 11:06:17.73	227.65	25.93	-40.2	-42.7	15.6	0.00e+00	0	56	0	401604608	51	4965
2026-01-11 11:06:21.77	228.65	26.33	-40.6	-43.2	15.1	0.00e+00	0	56	0	408944640	51	5279
2026-01-11 11:06:25.80	229.67	26.72	-40.8	-43.7	14.6	0.00e+00	0	56	0	416284672	52	5246
2026-01-11 11:06:29.84	230.72	27.11	-41.1	-44.1	14.2	7.00e-07	0	56	0	424673280	52	5466
2026-01-11 11:06:33.88	231.79	27.50	-41.5	-44.8	13.4	1.29e-05	0	56	0	432013312	53	5625
2026-01-11 11:06:37.92	232.89	27.88	-41.1	-44.1	14.1	2.20e-06	0	56	0	439353344	53	5214
2026-01-11 11:06:41.95	234.01	28.25	-41.5	-44.7	13.6	4.50e-06	0	56	0	446693376	53	5566
2026-01-11 11:06:46.00	235.16	28.62	-42.2	-46.2	12.0	2.41e-04	0	56	0	454033408	55	5857
2026-01-11 11:06:50.03	236.33	28.98	-42.4	-46.5	11.7	5.02e-04	0	56	0	462422016	55	6082
2026-01-11 11:06:54.07	237.53	29.33	-43.1	-47.8	10.4	3.19e-03	0	56	0	469762048	56	6705
2026-01-11 11:06:58.11	238.76	29.67	-43.2	-48.1	10.1	7.34e-03	0	56	0	477102080	57	6540
2026-01-11 11:07:02.15	240.01	30.00	-43.1	-47.9	10.4	3.98e-03	0	56	0	484442112	57	6413
2026-01-11 11:07:06.18	241.28	30.31	-43.2	-48.2	10.1	7.98e-03	0	56	0	492830720	57	6603
2026-01-11 11:07:10.22	242.58	30.62	-42.5	-46.6	11.8	6.13e-04	0	56	0	500170752	57	5512
2026-01-11 11:07:14.26	243.90	30.91	-42.2	-45.8	12.6	1.17e-04	0	56	0	507510784	56	5335
2026-01-11 11:07:18.30	245.25	31.19	-42.3	-46.1	12.3	1.36e-04	0	56	0	514850816	56	5490
2026-01-11 11:07:22.34	246.62	31.46	-42.0	-45.5	12.8	6.40e-05	0	56	0	522190848	56	5159
2026-01-11 11:07:26.37	248.00	31.71	-42.6	-47.0	11.2	7.44e-04	0	57	0	530579456	55	6435
2026-01-11 11:07:30.41	249.42	31.94	-42.1	-45.7	12.5	1.30e-04	0	57	0	537919488	55	5584
2026-01-11 11:07:34.45	250.85	32.15	-42.0	-45.7	12.5	1.11e-04	0	56	0	545259520	55	5573
2026-01-11 11:07:38.49	252.29	32.35	-42.1	-45.8	12.4	1.27e-04	0	57	0	552599552	55	5640
2026-01-11 11:07:42.53	253.76	32.53	-42.3	-46.3	12.0	3.51e-04	0	57	0	560988160	55	5927
2026-01-11 11:07:46.56	255.23	32.68	-42.3	-46.3	12.0	2.88e-04	0	57	0	568328192	55	5936
2026-01-11 11:07:50.59	256.72	32.82	-42.3	-46.3	11.9	4.42e-04	0	56	0	575668224	55	5959
2026-01-11 11:07:54.63	258.22	32.94	-41.9	-45.6	12.7	8.54e-05	0	57	0	583008256	55	5483
2026-01-11 11:07:58.67	259.74	33.03	-42.5	-46.7	11.5	6.78e-04	0	57	0	590348288	55	6223
2026-01-11 11:08:02.71	261.26	33.11	-42.2	-46.1	12.2	2.68e-04	0	57	0	598736896	55	5805
2026-01-11 11:08:06.75	262.78	33.16	-42.5	-46.7	11.5	7.52e-04	0	57	0	606076928	55	6238
2026-01-11 11:08:10.78	264.31	33.19	-42.0	-45.6	12.7	1.40e-04	0	56	0	613416960	55	5497
2026-01-11 11:08:14.82	265.84	33.19	-42.1	-45.8	12.5	1.13e-04	0	57	0	620756992	55	5624
2026-01-11 11:08:18.86	267.37	33.18	-42.0	-45.6	12.6	1.36e-04	0	57	0	629145600	55	5522
2026-01-11 11:08:22.90	268.90	33.14	-42.4	-46.4	11.9	2.52e-04	0	57	0	636485632	55	6059
2026-01-11 11:08:26.94	270.42	33.08	-42.2	-46.1	12.2	2.19e-04	0	57	0	643825664	55	5792
2026-01-11 11:08:30.97	271.93	33.00	-41.5	-44.7	13.6	8.30e-06	0	57	0	651165696	54	5245
2026-01-11 11:08:35.01	273.44	32.90	-42.3	-46.3	11.9	2.38e-04	0	57	0	658505728	55	5934
2026-01-11 11:08:39.05	274.94	32.78	-42.5	-46.6	11.6	4.74e-04	0	57	0	666894336	55	6177
2026-01-11 11:08:43.09	276.43	32.63	-42.6	-46.9	11.3	1.29e-03	0	57	0	674234368	55	6394
2026-01-11 11:08:47.13	277.90	32.47	-42.6	-46.9	11.3	1.28e-03	0	57	0	681574400	55	6385
2026-01-11 11:08:51.17	279.35	32.28	-43.0	-47.5	10.8	2.10e-03	0	57	0	688914432	56	6485
2026-01-11 11:08:55.21	280.79	32.08	-43.0	-47.7	10.6	3.30e-03	0	57	0	697303040	56	6630
2026-01-11 11:08:59.25	282.21	31.86	-42.9	-47.3	11.0	2.24e-03	0	57	0	704643072	56	6346
2026-01-11 11:09:03.28	283.61	31.63	-42.2	-45.9	12.5	1.13e-04	0	57	0	711983104	56	5348
2026-01-11 11:09:07.32	284.99	31.37	-42.4	-46.2	12.2	2.02e-04	0	57	0	719323136	56	5572
2026-01-11 11:09:11.36	286.34	31.11	-42.4	-46.4	12.0	3.40e-04	0	57	0	726663168	56	5686
2026-01-11 11:09:15.40	287.68	30.82	-42.3	-46.2	12.3	2.16e-04	0	57	0	735051776	56	5535
2026-01-11 11:09:19.44	288.99	30.53	-42.1	-45.7	12.7	9.68e-05	0	57	0	742391808	56	5274
2026-01-11 11:09:23.48	290.28	30.22	-42.7	-47.0	11.4	7.14e-04	0	57	0	749731840	56	6087
2026-01-11 11:09:27.52	291.54	29.90	-42.6	-46.9	11.5	9.05e-04	0	57	0	757071872	56	5995
2026-01-11 11:09:31.56	292.78	29.56	-42.2	-45.8	12.5	1.04e-04	0	57	0	765460480	56	5340
2026-01-11 11:09:35.59	293.99	29.22	-42.6	-46.8	11.5	6.72e-04	0	57	0	772800512	56	5958
2026-01-11 11:09:39.63	295.17	28.87	-42.7	-47.0	11.4	1.00e-03	0	57	0	780140544	56	6083
2026-01-11 11:09:43.67	296.34	28.51	-42.7	-46.9	11.4	1.44e-03	0	57	0	787480576	56	6052
2026-01-11 11:09:47.70	297.47	28.15	-42.3	-46.2	12.2	2.50e-04	0	57	0	794820608	56	5539
2026-01-11 11:09:51.74	298.58	27.78	-41.4	-44.6	13.6	1.37e-05	0	57	0	803209216	54	5165
2026-01-11 11:09:55.78	299.66	27.40	-41.4	-44.7	13.6	6.10e-06	0	57	0	810549248	54	5227
2026-01-11 11:09:59.82	300.72	27.01	-42.0	-45.7	12.4	1.05e-04	0	57	0	817889280	54	5902
2026-01-11 11:10:03.86	301.76	26.63	-41.8	-45.4	12.8	6.40e-05	0	57	0	825229312	54	5660
2026-01-11 11:10:07.89	302.76	26.23	-41.1	-44.2	14.0	1.50e-06	0	57	0	832569344	54	4942
2026-01-11 11:10:11.93	303.75	25.84	-41.1	-44.2	14.0	3.00e-06	0	57	0	840957952	54	4933
2026-01-11 11:10:15.97	304.71	25.44	-41.7	-45.2	13.0	1.06e-05	0	57	0	848297984	53	5857
2026-01-11 11:10:20.01	305.65	25.04	-41.8	-45.5	12.7	3.20e-04	0	57	0	855638016	55	5403
2026-01-11 11:10:24.05	306.56	24.64	-41.6	-44.9	13.2	1.22e-05	0	57	0	862978048	54	5401
2026-01-11 11:10:28.09	307.46	24.24	-41.5	-44.8	13.3	4.04e-05	0	57	0	871366656	54	5331
2026-01-11 11:10:32.13	308.33	23.83	-41.2	-44.3	13.8	0.00e+00	0	57	0	878706688	54	5004
2026-01-11 11:10:36.17	309.17	23.43	-41.5	-44.8	13.3	3.89e-05	0	57	0	886046720	54	5303
2026-01-11 11:10:40.20	310.00	23.03	-41.0	-44.0	14.1	3.00e-06	0	57	0	893386752	53	5110
2026-01-11 11:10:44.24	310.80	22.62	-41.4	-44.8	13.3	3.28e-05	0	57	0	900726784	53	5614
2026-01-11 11:10:48.28	311.59	22.22	-40.4	-43.0	15.1	0.00e+00	0	57	0	909115392	52	4840
2026-01-11 11:10:52.32	312.36	21.82	-40.6	-43.3	14.8	0.00e+00	0	57	0	916455424	52	5030
2026-01-11 11:10:56.36	313.11	21.42	-40.3	-42.8	15.3	0.00e+00	0	57	0	923795456	52	4749
2026-01-11 11:11:00.40	313.83	21.02	-40.6	-43.4	14.7	0.00e+00	0	57	0	931135488	52	5058
2026-01-11 11:11:04.43	314.54	20.63	-40.3	-42.9	15.2	7.00e-07	0	57	0	939524096	52	4798
2026-01-11 11:11:08.48	315.24	20.23	-40.0	-42.4	15.7	0.00e+00	0	57	0	946864128	51	4807
2026-01-11 11:11:12.51	315.91	19.84	-40.0	-42.5	15.6	0.00e+00	0	57	0	954204160	51	4854
2026-01-11 11:11:16.55	316.57	19.45	-39.7	-42.1	16.1	0.00e+00	0	57	0	961544192	51	4600
2026-01-11 11:11:20.58	317.21	19.07	-39.9	-42.3	15.8	0.00e+00	0	57	0	968884224	51	4720
2026-01-11 11:11:24.62	317.84	18.68	-40.2	-42.8	15.3	0.00e+00	0	57	0	977272832	51	5014
2026-01-11 11:11:28.66	318.45	18.30	-40.3	-42.9	15.2	0.00e+00	0	57	0	984612864	51	5057
2026-01-11 11:11:32.70	319.05	17.92	-40.1	-42.6	15.5	0.00e+00	0	57	0	991952896	51	4905
2026-01-11 11:11:36.74	319.64	17.55	-40.2	-42.8	15.3	0.00e+00	0	57	0	999292928	51	4989
2026-01-11 11:11:40.78	320.21	17.17	-40.5	-43.2	14.8	7.00e-07	0	57	0	1007681536	51	5272
2026-01-11 11:11:44.82	320.76	16.80	-40.5	-43.3	14.8	0.00e+00	0	57	0	1015021568	51	5286
2026-01-11 11:11:48.85	321.30	16.44	-40.6	-43.4	14.6	0.00e+00	0	57	0	1022361600	51	5344
2026-01-11 11:11:52.89	321.84	16.07	-40.8	-43.9	14.0	7.00e-07	0	57	0	1029701632	52	5375
2026-01-11 11:11:56.93	322.35	15.71	-40.8	-43.9	14.0	3.80e-06	0	57	0	1037041664	52	5369
2026-01-11 11:12:00.97	322.86	15.36	-40.9	-44.0	13.9	5.30e-06	0	57	0	1045430272	52	5417
2026-01-11 11:12:05.00	323.36	15.00	-41.1	-44.3	13.5	9.10e-06	0	57	0	1052770304	52	5649
2026-01-11 11:12:09.04	323.84	14.65	-41.4	-45.0	12.8	3.89e-05	0	57	0	1060110336	53	5743
2026-01-11 11:12:13.08	324.31	14.31	-41.4	-45.0	12.9	5.18e-05	0	57	0	1067450368	53	5744
2026-01-11 11:12:17.12	324.78	13.96	-41.4	-45.0	12.8	7.93e-05	0	57	0	1075838976	53	5748
2026-01-11 11:12:21.16	325.23	13.62	-40.9	-44.0	13.7	5.30e-06	0	57	0	1083179008	53	5154
2026-01-11 11:12:25.20	325.67	13.28	-41.0	-44.3	13.5	7.60e-06	0	57	0	1090519040	53	5281
2026-01-11 11:12:29.24	326.10	12.95	-41.2	-44.6	13.1	3.20e-05	0	57	0	1097859072	53	5517
2026-01-11 11:12:33.27	326.53	12.62	-41.3	-44.9	12.8	6.10e-05	0	57	0	1105199104	53	5699
2026-01-11 11:12:37.31	326.94	12.29	-41.0	-44.4	13.3	1.60e-05	0	57	0	1113587712	53	5358
2026-01-11 11:12:41.35	327.35	11.97	-40.8	-43.9	13.8	8.30e-06	0	57	0	1120927744	53	5077
2026-01-11 11:12:45.39	327.75	11.65	-40.8	-43.9	13.7	3.80e-06	0	57	0	1128267776	53	5089
2026-01-11 11:12:49.43	328.14	11.33	-41.0	-44.4	13.2	2.36e-05	0	57	0	1135607808	53	5351
2026-01-11 11:12:53.47	328.52	11.01	-41.1	-44.6	12.9	4.42e-05	0	57	0	1143996416	53	5522
2026-01-11 11:12:57.51	328.89	10.70	-41.1	-44.6	12.9	4.57e-05	0	57	0	1151336448	53	5499
2026-01-11 11:13:01.54	329.26	10.39	-40.9	-44.3	13.3	1.83e-05	0	57	0	1158676480	53	5296
2026-01-11 11:13:05.58	329.62	10.08	-40.9	-44.2	13.2	2.36e-05	0	57	0	1166016512	53	5266
2026-01-11 11:13:09.62	329.97	9.78	-41.0	-44.6	12.9	4.80e-05	0	57	0	1173356544	53	5466
2026-01-11 11:13:13.66	330.32	9.48	-41.1	-44.8	12.6	8.01e-05	0	57	0	1181745152	53	5609
2026-01-11 11:13:17.69	330.65	9.18	-41.0	-44.6	12.8	8.01e-05	0	57	0	1189085184	53	5479
2026-01-11 11:13:21.73	330.99	8.88	-41.1	-44.8	12.6	1.36e-04	0	57	0	1196425216	53	5593
2026-01-11 11:13:25.77	331.31	8.59	-40.9	-44.6	12.7	7.01e-05	0	57	0	1203765248	53	5468
2026-01-11 11:13:29.80	331.63	8.30	-40.9	-44.5	12.7	6.94e-05	0	57	0	1212153856	53	5462
2026-01-11 11:13:33.85	331.95	8.01	-41.0	-44.7	12.5	9.68e-05	0	57	0	1219493888	53	5544
2026-01-11 11:13:37.88	332.25	7.73	-44.9	-59.6	3.8	1.49e+00	0	57	104	1220542464	60	20686
2026-01-11 11:13:41.92	332.56	7.45	-45.3	-60.0	3.8	1.49e+00	0	57	104	1220542464	61	20331
2026-01-11 11:13:45.97	332.85	7.16	-45.2	-60.0	3.8	1.49e+00	0	57	104	1220542464	60	21566
2026-01-11 11:13:50.01	333.15	6.89	-45.1	-59.9	3.8	1.49e+00	0	57	104	1220542464	60	21454
2026-01-11 11:13:54.05	333.43	6.61	-45.2	-59.9	3.8	1.49e+00	0	57	104	1220542464	60	21408
2026-01-11 11:13:58.09	333.71	6.34	-45.1	-59.9	3.8	1.49e+00	0	57	104	1220542464	60	21361
2026-01-11 11:14:02.12	333.99	6.07	-45.1	-59.9	3.8	1.49e+00	0	57	104	1220542464	60	21367
2026-01-11 11:14:06.16	334.26	5.80	-45.1	-59.9	3.8	1.49e+00	0	57	104	1220542464	60	21360
2026-01-11 11:14:10.20	334.53	5.54	-45.1	-59.9	3.8	1.49e+00	0	57	104	1220542464	60	21302
2026-01-11 11:14:14.25	334.79	5.27	-45.1	-59.9	3.8	1.49e+00	0	57	104	1220542464	60	21295
2026-01-11 11:14:18.29	335.05	5.01	-45.1	-59.8	3.8	1.49e+00	0	57	104	1220542464	60	21248
2026-01-11 11:14:22.33	335.31	4.75	-45.1	-59.8	3.8	1.49e+00	0	57	104	1220542464	60	21245
2026-01-11 11:14:26.38	335.56	4.49	-45.1	-59.9	3.8	1.49e+00	0	57	104	1220542464	60	21300
2026-01-11 11:14:30.42	335.81	4.24	-45.1	-59.9	3.8	1.49e+00	0	57	104	1220542464	60	21270
2026-01-11 11:14:34.46	336.05	3.98	-45.1	-59.9	3.8	1.49e+00	0	57	104	1220542464	60	21280
2026-01-11 11:14:38.51	336.29	3.73	-45.1	-59.8	3.8	1.49e+00	0	57	104	1220542464	60	21238
2026-01-11 11:14:42.55	336.52	3.48	-45.1	-59.8	3.8	1.49e+00	0	57	104	1220542464	60	21226
2026-01-11 11:14:46.59	336.75	3.23	-45.1	-59.8	3.8	1.49e+00	0	57	104	1220542464	60	21181
2026-01-11 11:14:50.64	336.98	2.99	-45.1	-59.8	3.8	1.49e+00	0	57	104	1220542464	60	21230
2026-01-11 11:14:54.68	337.21	2.74	-45.1	-59.8	3.8	1.49e+00	0	57	104	1220542464	60	21222
2026-01-11 11:14:58.72	337.43	2.50	-45.1	-59.8	3.8	1.49e+00	0	57	104	1220542464	60	21217
2026-01-11 11:15:02.76	337.65	2.26	-45.1	-59.8	3.8	1.49e+00	0	57	104	1220542464	60	21228
2026-01-11 11:15:06.81	337.86	2.02	-45.1	-59.8	3.8	1.49e+00	0	57	104	1220542464	60	21185

#Closed at: 2026-01-11 11:15:08
#Recorded file [1220 MB]: D:/lorett/data/31039_260111_140126.dat