passes_logs/2026/01/11/R2.0S_Moscow/R2.0S_Moscow__20260111_011024_NOAA_20_JPSS-1_rec.log

#Pass ID: 20260111_011024_NOAA 20 (JPSS-1)
#Satellite: NOAA 20 (JPSS-1)
#Configuration: NOAA 20
#almurnet v.1.7.20251203
#Start time: 2026-01-11 01:10:26

#Version: 2.2.20231116
#Station: R2.0S_Moscow
#Location: 37.707566 lon 55.798166 lat
#TLE: 1 43013U 17073A   26009.69119415  .00000109  00000+0  72598-4 0  9996
#TLE: 2 43013  98.7631 310.6868 0001678  46.7442 313.3874 14.19534878421981

#Time	Az	El	Level	Level2	SNR	BER	BlckErr	Temp	State	Recorded	gain1	gain2
2026-01-11 01:10:26.67	10.63	2.10	-39.8	-54.3	3.8	1.49e+00	0	47	0	0	51	18863
2026-01-11 01:10:30.70	10.39	2.34	-39.8	-54.3	3.8	1.49e+00	0	47	104	0	51	18807
2026-01-11 01:10:34.74	10.15	2.57	-39.8	-54.3	3.8	1.49e+00	0	48	104	0	51	18797
2026-01-11 01:10:38.79	9.90	2.81	-39.8	-54.3	3.8	1.49e+00	0	48	104	0	51	18807
2026-01-11 01:10:42.83	9.65	3.05	-39.8	-54.3	3.8	1.49e+00	0	48	104	0	51	18804
2026-01-11 01:10:46.88	9.39	3.29	-39.8	-54.3	3.8	1.49e+00	0	49	104	0	51	18829
2026-01-11 01:10:50.92	9.14	3.53	-39.8	-54.3	3.8	1.49e+00	0	49	104	0	51	18811
2026-01-11 01:10:54.97	8.87	3.78	-39.8	-54.3	3.8	1.49e+00	0	49	104	0	51	18831
2026-01-11 01:10:59.01	8.60	4.02	-39.8	-54.3	3.8	1.49e+00	0	49	104	0	51	18771
2026-01-11 01:11:03.05	8.33	4.27	-39.8	-54.3	3.8	1.49e+00	0	50	104	0	51	18802
2026-01-11 01:11:07.10	8.05	4.52	-39.8	-54.3	3.8	1.49e+00	0	50	104	0	51	18795
2026-01-11 01:11:11.15	7.76	4.77	-39.8	-54.3	3.8	1.49e+00	0	50	104	0	51	18792
2026-01-11 01:11:15.19	7.48	5.02	-39.8	-54.3	3.8	1.49e+00	0	50	104	0	51	18858
2026-01-11 01:11:19.23	7.18	5.28	-39.8	-54.3	3.8	1.49e+00	0	50	104	0	51	18782
2026-01-11 01:11:23.28	6.88	5.53	-39.8	-54.3	3.8	1.49e+00	0	50	104	0	51	18818
2026-01-11 01:11:27.32	6.58	5.79	-39.8	-54.3	3.8	1.49e+00	0	51	104	0	51	18777
2026-01-11 01:11:31.37	6.26	6.05	-39.8	-54.3	3.8	1.49e+00	0	51	104	0	51	18814
2026-01-11 01:11:35.41	5.95	6.31	-39.8	-54.3	3.8	1.49e+00	0	51	104	0	51	18798
2026-01-11 01:11:39.45	5.63	6.57	-39.8	-54.3	3.8	1.49e+00	0	51	104	0	51	18802
2026-01-11 01:11:43.50	5.30	6.83	-39.8	-54.3	3.8	1.49e+00	0	51	104	0	51	18758
2026-01-11 01:11:47.54	4.96	7.10	-39.8	-54.3	3.8	1.49e+00	0	52	104	0	51	18794
2026-01-11 01:11:51.58	4.62	7.37	-39.8	-54.3	3.8	1.49e+00	0	52	104	0	51	18792
2026-01-11 01:11:55.63	4.27	7.64	-39.8	-54.3	3.8	1.49e+00	0	52	104	0	51	18762
2026-01-11 01:11:59.67	3.91	7.91	-39.8	-54.3	3.8	1.49e+00	0	52	104	0	51	18810
2026-01-11 01:12:03.72	3.55	8.18	-39.8	-54.3	3.8	1.49e+00	0	52	104	0	51	18872
2026-01-11 01:12:07.76	3.18	8.46	-39.9	-54.4	3.8	1.49e+00	0	52	104	0	51	19004
2026-01-11 01:12:11.80	2.81	8.73	-39.8	-54.4	3.8	1.49e+00	0	52	104	0	51	18950
2026-01-11 01:12:15.84	2.42	9.01	-39.8	-54.4	3.8	1.49e+00	0	53	104	0	51	19052
2026-01-11 01:12:19.87	2.03	9.29	-39.8	-54.4	3.8	1.49e+00	0	53	104	0	51	19018
2026-01-11 01:12:23.91	1.63	9.57	-39.8	-54.4	3.8	1.49e+00	0	53	104	0	51	19085
2026-01-11 01:12:27.96	1.22	9.86	-39.7	-54.4	3.8	1.49e+00	0	53	104	0	51	18970
2026-01-11 01:12:31.99	0.81	10.14	-39.9	-54.5	3.8	1.49e+00	0	53	104	0	51	19207
2026-01-11 01:12:36.03	0.38	10.43	-39.9	-54.5	3.8	1.49e+00	0	53	104	0	51	19289
2026-01-11 01:12:40.07	359.95	10.72	-40.1	-54.7	3.8	1.49e+00	0	53	104	0	51	19698
2026-01-11 01:12:44.11	359.51	11.01	-39.8	-54.6	3.8	1.49e+00	0	53	104	0	51	19486
2026-01-11 01:12:48.15	359.05	11.30	-40.2	-54.8	3.8	1.49e+00	0	53	104	0	51	19874
2026-01-11 01:12:52.19	358.59	11.60	-40.1	-54.8	3.8	1.49e+00	0	53	104	0	50	21089
2026-01-11 01:12:56.23	358.12	11.89	-39.5	-54.5	3.8	1.49e+00	0	54	104	0	51	19168
2026-01-11 01:13:00.25	357.64	12.19	-39.7	-54.2	3.8	1.49e+00	0	54	104	0	51	18588
2026-01-11 01:13:04.27	357.16	12.49	-40.6	-47.6	7.6	6.10e-01	0	54	0	0	52	8179
2026-01-11 01:13:08.31	356.65	12.79	-40.3	-46.1	9.2	1.60e-02	0	54	0	7340032	52	6907
2026-01-11 01:13:12.35	356.14	13.09	-40.9	-49.1	6.0	2.65e-01	0	54	0	14680064	52	9827
2026-01-11 01:13:16.39	355.62	13.39	-40.9	-53.1	3.8	1.46e+00	0	54	104	19922944	52	15495
2026-01-11 01:13:20.42	355.09	13.70	-40.5	-54.6	3.8	1.49e+00	0	54	104	19922944	52	18352
2026-01-11 01:13:24.46	354.54	14.01	-40.3	-54.9	3.8	1.49e+00	0	54	104	19922944	51	20092
2026-01-11 01:13:28.50	353.99	14.31	-40.4	-54.9	3.8	1.49e+00	0	54	104	19922944	52	19006
2026-01-11 01:13:32.54	353.42	14.62	-40.5	-55.0	3.8	1.49e+00	0	54	104	19922944	52	19235
2026-01-11 01:13:36.59	352.83	14.93	-40.3	-54.9	3.8	1.49e+00	0	54	104	19922944	52	19105
2026-01-11 01:13:40.63	352.24	15.24	-40.6	-55.3	3.8	1.49e+00	0	54	104	19922944	51	21035
2026-01-11 01:13:44.67	351.63	15.55	-40.3	-55.2	3.8	1.49e+00	0	55	104	19922944	51	20932
2026-01-11 01:13:48.71	351.01	15.87	-40.5	-55.3	3.8	1.49e+00	0	54	104	19922944	51	21225
2026-01-11 01:13:52.75	350.38	16.18	-40.1	-55.4	3.8	1.49e+00	0	55	104	19922944	51	21468
2026-01-11 01:13:56.80	349.73	16.49	-40.9	-55.6	3.8	1.49e+00	0	55	104	19922944	52	20618
2026-01-11 01:14:00.83	349.08	16.81	-40.7	-55.4	3.8	1.49e+00	0	55	104	19922944	53	18980
2026-01-11 01:14:04.87	348.40	17.12	-41.0	-55.6	3.8	1.49e+00	0	55	104	19922944	52	20544
2026-01-11 01:14:08.91	347.71	17.43	-40.7	-55.2	3.8	1.49e+00	0	55	104	19922944	53	18673
2026-01-11 01:14:12.95	347.01	17.74	-40.5	-55.2	3.8	1.49e+00	0	55	104	19922944	53	18594
2026-01-11 01:14:16.99	346.29	18.06	-40.6	-55.1	3.8	1.49e+00	0	55	104	19922944	52	19468
2026-01-11 01:14:21.03	345.56	18.37	-40.5	-55.0	3.8	1.49e+00	0	55	104	19922944	52	19363
2026-01-11 01:14:25.06	344.81	18.68	-40.5	-55.1	3.8	1.49e+00	0	55	104	19922944	52	19500
2026-01-11 01:14:29.10	344.04	18.99	-40.8	-55.2	3.8	1.49e+00	0	55	104	19922944	52	19840
2026-01-11 01:14:33.15	343.26	19.29	-40.8	-55.3	3.8	1.49e+00	0	55	104	19922944	52	19896
2026-01-11 01:14:37.18	342.47	19.60	-41.3	-55.2	3.8	1.49e+00	0	55	104	19922944	53	18715
2026-01-11 01:14:41.22	341.65	19.90	-40.8	-54.9	3.8	1.49e+00	0	55	104	19922944	52	19021
2026-01-11 01:14:45.26	340.82	20.20	-42.4	-52.1	4.8	1.10e+00	0	55	0	19922944	56	10939
2026-01-11 01:14:49.30	339.98	20.50	-41.3	-46.8	9.4	2.96e-02	0	55	0	27262976	54	6689
2026-01-11 01:14:53.34	339.11	20.79	-41.0	-44.9	12.3	2.10e-04	0	55	0	34603008	54	5355
2026-01-11 01:14:57.37	338.24	21.08	-40.4	-43.4	14.1	0.00e+00	0	55	0	42991616	52	5090
2026-01-11 01:15:01.40	337.34	21.37	-40.3	-43.1	14.8	0.00e+00	0	55	0	50331648	52	4876
2026-01-11 01:15:05.44	336.43	21.65	-40.1	-42.8	15.1	0.00e+00	0	55	0	57671680	52	4726
2026-01-11 01:15:09.47	335.50	21.93	-40.3	-43.0	15.0	0.00e+00	0	55	0	65011712	52	4844
2026-01-11 01:15:13.51	334.55	22.20	-40.2	-42.8	15.2	0.00e+00	0	55	0	72351744	52	4733
2026-01-11 01:15:17.55	333.59	22.47	-40.2	-42.8	15.3	0.00e+00	0	55	0	80740352	52	4737
2026-01-11 01:15:21.59	332.61	22.73	-40.1	-42.6	15.4	0.00e+00	0	55	0	88080384	52	4633
2026-01-11 01:15:25.63	331.61	22.98	-40.1	-42.6	15.6	0.00e+00	0	55	0	95420416	51	4890
2026-01-11 01:15:29.66	330.60	23.23	-40.4	-43.1	15.0	0.00e+00	0	55	0	102760448	51	5212
2026-01-11 01:15:33.70	329.57	23.47	-40.3	-42.9	15.3	0.00e+00	0	55	0	111149056	51	5081
2026-01-11 01:15:37.74	328.53	23.70	-40.3	-43.0	15.2	0.00e+00	0	55	0	118489088	51	5104
2026-01-11 01:15:41.78	327.47	23.92	-40.0	-42.5	15.6	0.00e+00	0	55	0	125829120	51	4862
2026-01-11 01:15:45.81	326.39	24.14	-40.0	-42.5	15.7	0.00e+00	0	55	0	133169152	51	4838
2026-01-11 01:15:49.85	325.30	24.34	-39.9	-42.4	15.9	0.00e+00	0	56	0	140509184	51	4763
2026-01-11 01:15:53.89	324.20	24.54	-39.6	-41.9	16.3	0.00e+00	0	55	0	148897792	51	4531
2026-01-11 01:15:57.93	323.08	24.72	-39.5	-41.8	16.3	0.00e+00	0	55	0	156237824	51	4474
2026-01-11 01:16:01.97	321.95	24.90	-39.8	-42.3	15.9	0.00e+00	0	56	0	163577856	51	4709
2026-01-11 01:16:06.01	320.80	25.06	-40.2	-42.7	15.5	7.00e-07	0	56	0	170917888	51	4974
2026-01-11 01:16:10.04	319.65	25.21	-40.2	-42.8	15.4	0.00e+00	0	56	0	179306496	51	5018
2026-01-11 01:16:14.08	318.48	25.35	-40.6	-43.4	14.8	0.00e+00	0	56	0	186646528	51	5361
2026-01-11 01:16:18.12	317.31	25.47	-40.7	-43.6	14.5	7.00e-07	0	55	0	193986560	52	5183
2026-01-11 01:16:22.16	316.12	25.59	-40.8	-43.8	14.3	7.00e-07	0	55	0	201326592	52	5318
2026-01-11 01:16:26.20	314.93	25.69	-41.1	-44.2	13.8	3.80e-06	0	56	0	208666624	52	5580
2026-01-11 01:16:30.24	313.73	25.77	-40.8	-43.8	14.3	2.20e-06	0	55	0	217055232	52	5328
2026-01-11 01:16:34.28	312.52	25.85	-40.9	-43.9	14.2	7.00e-07	0	55	0	224395264	52	5356
2026-01-11 01:16:38.31	311.31	25.91	-41.2	-44.5	13.6	9.90e-06	0	55	0	231735296	53	5441
2026-01-11 01:16:42.35	310.10	25.95	-41.4	-44.7	13.3	1.06e-05	0	55	0	239075328	53	5576
2026-01-11 01:16:46.39	308.88	25.99	-41.4	-44.7	13.3	1.98e-05	0	56	0	247463936	53	5588
2026-01-11 01:16:50.43	307.66	26.00	-41.3	-44.7	13.4	1.06e-05	0	56	0	254803968	53	5545
2026-01-11 01:16:54.47	306.44	26.01	-40.9	-43.9	14.2	7.00e-07	0	56	0	262144000	53	5075
2026-01-11 01:16:58.50	305.22	25.99	-40.8	-43.8	14.2	0.00e+00	0	56	0	269484032	53	5029
2026-01-11 01:17:02.54	304.00	25.97	-40.7	-43.5	14.5	7.00e-07	0	55	0	276824064	53	4866
2026-01-11 01:17:06.58	302.78	25.93	-40.4	-43.1	15.0	0.00e+00	0	56	0	285212672	52	4878
2026-01-11 01:17:10.62	301.56	25.88	-40.2	-42.8	15.3	0.00e+00	0	56	0	292552704	52	4747
2026-01-11 01:17:14.66	300.35	25.81	-40.1	-42.6	15.5	0.00e+00	0	56	0	299892736	52	4627
2026-01-11 01:17:18.69	299.15	25.73	-39.7	-42.0	16.1	0.00e+00	0	56	0	307232768	51	4585
2026-01-11 01:17:22.73	297.95	25.63	-39.7	-42.0	16.1	0.00e+00	0	56	0	315621376	51	4588
2026-01-11 01:17:26.77	296.76	25.52	-39.7	-42.0	16.2	0.00e+00	0	56	0	322961408	51	4588
2026-01-11 01:17:30.81	295.58	25.40	-39.7	-42.0	16.2	0.00e+00	0	56	0	330301440	51	4566
2026-01-11 01:17:34.84	294.41	25.27	-39.7	-42.0	16.2	0.00e+00	0	56	0	337641472	51	4579
2026-01-11 01:17:38.88	293.25	25.12	-39.9	-42.4	15.8	0.00e+00	0	56	0	344981504	51	4761
2026-01-11 01:17:42.92	292.10	24.97	-40.0	-42.4	15.7	0.00e+00	0	55	0	353370112	51	4802
2026-01-11 01:17:46.96	290.96	24.80	-40.0	-42.4	15.8	0.00e+00	0	56	0	360710144	51	4791
2026-01-11 01:17:51.00	289.83	24.62	-40.2	-42.8	15.3	0.00e+00	0	56	0	368050176	51	5021
2026-01-11 01:17:55.03	288.72	24.43	-40.4	-43.0	15.1	0.00e+00	0	56	0	375390208	51	5146
2026-01-11 01:17:59.07	287.62	24.23	-40.5	-43.3	14.9	0.00e+00	0	56	0	383778816	51	5284
2026-01-11 01:18:03.11	286.54	24.02	-40.6	-43.5	14.6	0.00e+00	0	56	0	391118848	52	5132
2026-01-11 01:18:07.15	285.47	23.80	-40.9	-44.0	14.1	0.00e+00	0	56	0	398458880	52	5421
2026-01-11 01:18:11.18	284.41	23.57	-41.1	-44.2	13.8	2.20e-06	0	56	0	405798912	52	5568
2026-01-11 01:18:15.22	283.37	23.33	-40.9	-44.0	14.0	3.80e-06	0	56	0	413138944	52	5438
2026-01-11 01:18:19.25	282.35	23.09	-41.0	-44.1	13.9	4.50e-06	0	56	0	421527552	52	5500
2026-01-11 01:18:23.29	281.34	22.84	-41.1	-44.3	13.6	6.80e-06	0	56	0	428867584	52	5654
2026-01-11 01:18:27.33	280.35	22.58	-41.0	-44.1	13.9	5.30e-06	0	56	0	436207616	52	5492
2026-01-11 01:18:31.37	279.38	22.31	-41.0	-44.2	13.8	6.80e-06	0	56	0	443547648	52	5538
2026-01-11 01:18:35.41	278.42	22.04	-40.9	-44.0	13.9	9.90e-06	0	56	0	451936256	52	5438
2026-01-11 01:18:39.44	277.48	21.77	-40.6	-43.6	14.4	0.00e+00	0	56	0	459276288	52	5175
2026-01-11 01:18:43.48	276.56	21.48	-40.6	-43.5	14.5	1.50e-06	0	56	0	466616320	52	5124
2026-01-11 01:18:47.52	275.65	21.20	-40.3	-42.9	15.0	0.00e+00	0	56	0	473956352	52	4805
2026-01-11 01:18:51.55	274.76	20.91	-40.3	-43.1	14.8	0.00e+00	0	56	0	481296384	52	4894
2026-01-11 01:18:55.59	273.89	20.62	-40.5	-43.3	14.6	7.00e-07	0	56	0	489684992	52	5036
2026-01-11 01:18:59.63	273.03	20.32	-40.3	-43.0	14.9	0.00e+00	0	56	0	497025024	52	4832
2026-01-11 01:19:03.67	272.19	20.02	-40.4	-43.2	14.7	0.00e+00	0	56	0	504365056	52	4961
2026-01-11 01:19:07.71	271.37	19.71	-40.4	-43.1	14.7	0.00e+00	0	56	0	511705088	52	4926
2026-01-11 01:19:11.74	270.56	19.41	-40.3	-43.0	14.9	0.00e+00	0	56	0	520093696	52	4846
2026-01-11 01:19:15.78	269.77	19.10	-40.3	-43.1	14.7	0.00e+00	0	55	0	527433728	52	4892
2026-01-11 01:19:19.82	268.99	18.79	-40.3	-43.0	14.9	0.00e+00	0	56	0	534773760	52	4833
2026-01-11 01:19:23.86	268.23	18.48	-40.3	-43.1	14.8	0.00e+00	0	56	0	542113792	52	4876
2026-01-11 01:19:27.90	267.49	18.17	-40.2	-42.8	15.0	0.00e+00	0	56	0	549453824	52	4757
2026-01-11 01:19:31.94	266.76	17.86	-39.7	-42.1	15.8	0.00e+00	0	56	0	557842432	51	4646
2026-01-11 01:19:35.97	266.05	17.54	-39.8	-42.3	15.6	0.00e+00	0	56	0	565182464	51	4711
2026-01-11 01:19:40.01	265.35	17.23	-39.8	-42.3	15.6	0.00e+00	0	56	0	572522496	51	4714
2026-01-11 01:19:44.05	264.66	16.92	-39.6	-42.0	15.9	0.00e+00	0	56	0	579862528	51	4572
2026-01-11 01:19:48.09	263.99	16.60	-39.7	-42.2	15.6	0.00e+00	0	56	0	588251136	51	4693
2026-01-11 01:19:52.12	263.34	16.29	-40.0	-42.6	15.3	0.00e+00	0	56	0	595591168	51	4885
2026-01-11 01:19:56.16	262.70	15.97	-39.8	-42.4	15.5	0.00e+00	0	56	0	602931200	51	4768
2026-01-11 01:20:00.20	262.07	15.66	-39.8	-42.4	15.5	0.00e+00	0	56	0	610271232	51	4775
2026-01-11 01:20:04.24	261.45	15.35	-40.1	-42.7	15.1	0.00e+00	0	56	0	617611264	51	4965
2026-01-11 01:20:08.27	260.85	15.04	-40.1	-42.9	14.9	0.00e+00	0	56	0	625999872	51	5057
2026-01-11 01:20:12.31	260.26	14.72	-40.3	-43.2	14.6	0.00e+00	0	56	0	633339904	51	5221
2026-01-11 01:20:16.35	259.68	14.41	-40.6	-43.7	14.1	1.50e-06	0	56	0	640679936	51	5543
2026-01-11 01:20:20.39	259.11	14.10	-40.6	-43.6	14.2	1.50e-06	0	56	0	648019968	51	5472
2026-01-11 01:20:24.42	258.56	13.80	-40.4	-43.3	14.4	0.00e+00	0	56	0	656408576	51	5324
2026-01-11 01:20:28.47	258.02	13.49	-40.6	-43.7	14.0	0.00e+00	0	56	0	663748608	51	5574
2026-01-11 01:20:32.51	257.49	13.18	-40.8	-44.1	13.5	6.10e-06	0	56	0	671088640	52	5469
2026-01-11 01:20:36.54	256.97	12.88	-40.7	-43.9	13.7	8.30e-06	0	56	0	678428672	52	5374
2026-01-11 01:20:40.58	256.46	12.58	-40.7	-43.9	13.6	5.30e-06	0	56	0	685768704	52	5376
2026-01-11 01:20:44.62	255.96	12.28	-40.9	-44.4	13.1	1.98e-05	0	56	0	694157312	52	5671
2026-01-11 01:20:48.65	255.47	11.98	-40.9	-44.3	13.2	3.05e-05	0	56	0	701497344	52	5625
2026-01-11 01:20:52.69	254.99	11.68	-40.9	-44.3	13.2	1.67e-05	0	56	0	708837376	52	5613
2026-01-11 01:20:56.73	254.52	11.38	-40.9	-44.3	13.2	3.50e-05	0	56	0	716177408	52	5614
2026-01-11 01:21:00.77	254.06	11.09	-41.0	-44.6	12.8	6.56e-05	0	56	0	724566016	52	5806
2026-01-11 01:21:04.81	253.61	10.80	-41.0	-44.6	12.8	8.08e-05	0	56	0	731906048	52	5811
2026-01-11 01:21:08.84	253.17	10.51	-40.9	-44.5	12.9	4.95e-05	0	56	0	739246080	52	5732
2026-01-11 01:21:12.88	252.74	10.22	-41.0	-44.6	12.7	7.93e-05	0	56	0	746586112	52	5850
2026-01-11 01:21:16.92	252.31	9.93	-41.2	-45.1	12.2	1.84e-04	0	56	0	753926144	53	5811
2026-01-11 01:21:20.96	251.90	9.64	-41.5	-45.7	11.5	6.83e-04	0	56	0	762314752	53	6245
2026-01-11 01:21:25.00	251.49	9.36	-41.4	-45.5	11.8	5.55e-04	0	56	0	769654784	53	6065
2026-01-11 01:21:29.04	251.09	9.08	-41.5	-45.6	11.6	6.02e-04	0	56	0	776994816	53	6198
2026-01-11 01:21:33.08	250.70	8.80	-41.7	-46.1	11.1	1.72e-03	0	56	0	784334848	53	6541
2026-01-11 01:21:37.12	250.32	8.52	-41.7	-46.2	10.9	1.79e-03	0	56	0	791674880	53	6614
2026-01-11 01:21:41.15	249.94	8.25	-41.6	-46.0	11.1	1.38e-03	0	56	0	800063488	53	6429
2026-01-11 01:21:45.19	249.57	7.97	-44.4	-58.6	3.8	1.06e+00	0	56	104	806354944	59	19497
2026-01-11 01:21:49.23	249.21	7.70	-44.9	-59.6	3.8	1.49e+00	0	56	104	806354944	60	20719
2026-01-11 01:21:53.27	248.85	7.43	-45.1	-59.8	3.8	1.49e+00	0	56	104	806354944	60	21201
2026-01-11 01:21:57.31	248.50	7.16	-45.0	-59.8	3.8	1.49e+00	0	56	104	806354944	60	21085
2026-01-11 01:22:01.36	248.16	6.89	-45.0	-59.8	3.8	1.49e+00	0	56	104	806354944	60	21049
2026-01-11 01:22:05.40	247.83	6.63	-45.0	-59.7	3.8	1.49e+00	0	56	104	806354944	60	20969
2026-01-11 01:22:09.45	247.49	6.36	-44.9	-59.7	3.8	1.49e+00	0	56	104	806354944	60	21007
2026-01-11 01:22:13.49	247.17	6.10	-44.9	-59.7	3.8	1.49e+00	0	56	104	806354944	60	20993
2026-01-11 01:22:17.54	246.85	5.84	-45.0	-59.7	3.8	1.49e+00	0	56	104	806354944	60	20942
2026-01-11 01:22:21.58	246.54	5.58	-44.9	-59.7	3.8	1.49e+00	0	56	104	806354944	60	20952
2026-01-11 01:22:25.63	246.23	5.32	-45.0	-59.7	3.8	1.49e+00	0	56	104	806354944	60	20960
2026-01-11 01:22:29.67	245.93	5.07	-44.9	-59.7	3.8	1.49e+00	0	56	104	806354944	60	20952
2026-01-11 01:22:33.71	245.64	4.82	-44.9	-59.7	3.8	1.49e+00	0	56	104	806354944	60	20863
2026-01-11 01:22:37.76	245.35	4.56	-44.9	-59.7	3.8	1.49e+00	0	56	104	806354944	60	20903
2026-01-11 01:22:41.80	245.06	4.31	-44.9	-59.7	3.8	1.49e+00	0	56	104	806354944	60	20927
2026-01-11 01:22:45.85	244.78	4.07	-44.9	-59.7	3.8	1.49e+00	0	56	104	806354944	60	20934
2026-01-11 01:22:49.89	244.50	3.82	-44.9	-59.7	3.8	1.49e+00	0	56	104	806354944	60	20855
2026-01-11 01:22:53.94	244.23	3.57	-44.9	-59.7	3.8	1.49e+00	0	56	104	806354944	60	20905
2026-01-11 01:22:57.98	243.97	3.33	-44.9	-59.7	3.8	1.49e+00	0	56	104	806354944	60	20862
2026-01-11 01:23:02.02	243.71	3.09	-44.9	-59.7	3.8	1.49e+00	0	56	104	806354944	60	20882
2026-01-11 01:23:06.07	243.45	2.85	-44.9	-59.7	3.8	1.49e+00	0	56	104	806354944	60	20921
2026-01-11 01:23:10.11	243.19	2.61	-44.9	-59.7	3.8	1.49e+00	0	56	104	806354944	60	20896
2026-01-11 01:23:14.15	242.95	2.37	-44.9	-59.7	3.8	1.49e+00	0	56	104	806354944	60	20852
2026-01-11 01:23:18.20	242.70	2.14	-44.9	-59.7	3.8	1.49e+00	0	56	104	806354944	60	20916
2026-01-11 01:23:22.24	242.46	1.90	-44.9	-59.7	3.8	1.49e+00	0	56	104	806354944	60	20859

#Closed at: 2026-01-11 01:23:23
#Recorded file [806 MB]: D:/lorett/data/31039_260111_041026.dat