passes_logs/2026/01/11/R2.0S_Moscow/R2.0S_Moscow__20260111_150600_FENGYUN_3E_rec.log

#Pass ID: 20260111_150600_FENGYUN 3E
#Satellite: FENGYUN 3E
#Configuration: FENGYUN 3E
#almurnet v.1.7.20251203
#Start time: 2026-01-11 15:06:01

#Version: 2.2.20231116
#Station: R2.0S_Moscow
#Location: 37.707566 lon 55.798166 lat
#TLE: 1 49008U 21062A   26010.98903141  .00000148  00000+0  90257-4 0  9995
#TLE: 2 49008  98.7490  16.1644 0001865 146.3673 213.7622 14.19884943234274

#Time	Az	El	Level	Level2	SNR	BER	BlckErr	Temp	State	Recorded	gain1	gain2
2026-01-11 15:06:01.19	187.27	2.05	-44.4	-55.1	3.8	8.46e-01	0	47	0	0	59	12374
2026-01-11 15:06:05.23	187.45	2.30	-44.4	-55.2	3.8	8.47e-01	0	48	104	0	59	12377
2026-01-11 15:06:09.27	187.63	2.55	-44.4	-55.2	3.8	8.46e-01	0	48	104	0	59	12406
2026-01-11 15:06:13.32	187.81	2.80	-44.4	-55.2	3.8	8.46e-01	0	49	104	0	59	12377
2026-01-11 15:06:17.36	187.99	3.05	-44.4	-55.1	3.8	8.46e-01	0	49	104	0	59	12366
2026-01-11 15:06:21.40	188.18	3.31	-44.4	-55.1	3.8	8.47e-01	0	49	104	0	59	12348
2026-01-11 15:06:25.45	188.37	3.57	-44.4	-55.1	3.8	8.46e-01	0	49	104	0	59	12341
2026-01-11 15:06:29.49	188.56	3.83	-44.4	-55.1	3.8	8.46e-01	0	50	104	0	59	12365
2026-01-11 15:06:33.53	188.76	4.10	-44.4	-55.1	3.8	8.47e-01	0	50	104	0	59	12312
2026-01-11 15:06:37.58	188.96	4.36	-44.4	-55.1	3.8	8.46e-01	0	50	104	0	59	12258
2026-01-11 15:06:41.62	189.17	4.63	-44.3	-54.7	3.8	8.46e-01	0	51	104	0	59	11697
2026-01-11 15:06:45.66	189.37	4.90	-44.3	-54.2	3.8	8.45e-01	0	51	104	0	59	11088
2026-01-11 15:06:49.71	189.58	5.17	-44.1	-53.2	3.8	8.46e-01	0	51	104	0	59	9941
2026-01-11 15:06:53.75	189.80	5.45	-44.0	-52.3	3.9	8.44e-01	0	51	104	0	58	9490
2026-01-11 15:06:57.80	190.02	5.73	-43.7	-51.2	4.3	8.36e-01	0	51	0	0	58	8280
2026-01-11 15:07:01.84	190.24	6.01	-43.5	-50.3	4.7	8.13e-01	0	51	0	0	58	7460
2026-01-11 15:07:05.88	190.47	6.29	-43.4	-50.0	4.8	7.90e-01	0	52	0	0	57	7651
2026-01-11 15:07:09.93	190.70	6.58	-43.5	-50.3	4.6	7.97e-01	0	52	0	0	57	7970
2026-01-11 15:07:13.97	190.93	6.87	-43.1	-49.0	5.3	7.46e-01	0	52	0	0	57	6841
2026-01-11 15:07:18.02	191.18	7.16	-41.2	-45.1	8.6	4.91e-02	0	52	0	25165824	53	5471
2026-01-11 15:07:22.06	191.42	7.46	-39.4	-42.2	11.6	9.18e-04	0	53	0	54525952	49	4968
2026-01-11 15:07:26.10	191.67	7.75	-38.0	-40.5	13.2	3.31e-05	0	53	0	83886080	46	4816
2026-01-11 15:07:30.14	191.92	8.06	-38.1	-40.7	12.9	3.43e-05	0	53	0	113246208	46	4964
2026-01-11 15:07:34.18	192.18	8.36	-39.5	-42.4	11.6	1.29e-03	0	53	0	136314880	49	5054
2026-01-11 15:07:38.23	192.45	8.67	-37.5	-39.9	13.8	3.40e-06	0	53	0	165675008	45	4807
2026-01-11 15:07:42.27	192.72	8.98	-37.4	-39.8	13.9	3.40e-06	0	54	0	195035136	45	4751
2026-01-11 15:07:46.31	192.99	9.29	-37.4	-39.8	14.0	0.00e+00	0	53	0	224395264	45	4743
2026-01-11 15:07:50.35	193.27	9.61	-37.3	-39.6	14.2	0.00e+00	0	54	0	253755392	45	4639
2026-01-11 15:07:54.39	193.56	9.93	-37.0	-39.4	14.5	0.00e+00	0	54	0	283115520	45	4516
2026-01-11 15:07:58.43	193.85	10.26	-37.0	-39.3	14.6	0.00e+00	0	54	0	311427072	44	4746
2026-01-11 15:08:02.47	194.15	10.59	-36.7	-39.0	15.0	0.00e+00	0	54	0	340787200	44	4562
2026-01-11 15:08:06.51	194.46	10.92	-36.8	-39.0	14.9	0.00e+00	0	54	0	370147328	44	4593
2026-01-11 15:08:10.55	194.77	11.25	-36.6	-38.8	15.2	0.00e+00	0	54	0	399507456	44	4462
2026-01-11 15:08:14.59	195.09	11.59	-36.4	-38.6	15.3	0.00e+00	0	54	0	428867584	43	4622
2026-01-11 15:08:18.64	195.42	11.94	-36.4	-38.6	15.3	0.00e+00	0	54	0	458227712	43	4636
2026-01-11 15:08:22.67	195.76	12.29	-36.2	-38.3	15.6	0.00e+00	0	55	0	486539264	43	4475
2026-01-11 15:08:26.71	196.10	12.64	-36.3	-38.5	15.5	0.00e+00	0	54	0	515899392	43	4548
2026-01-11 15:08:30.75	196.45	13.00	-36.2	-38.4	15.5	0.00e+00	0	55	0	545259520	42	4806
2026-01-11 15:08:34.79	196.81	13.36	-36.3	-38.6	15.4	0.00e+00	0	55	0	574619648	42	4872
2026-01-11 15:08:38.83	197.17	13.72	-36.3	-38.5	15.5	0.00e+00	0	55	0	603979776	42	4821
2026-01-11 15:08:42.87	197.55	14.09	-36.0	-38.1	15.9	0.00e+00	0	55	0	632291328	42	4647
2026-01-11 15:08:46.91	197.94	14.47	-35.8	-37.9	16.1	0.00e+00	0	55	0	661651456	42	4513
2026-01-11 15:08:50.95	198.33	14.85	-35.8	-37.8	16.1	0.00e+00	0	55	0	691011584	42	4490
2026-01-11 15:08:54.99	198.73	15.23	-35.7	-37.7	16.3	0.00e+00	0	55	0	720371712	42	4397
2026-01-11 15:08:59.03	199.15	15.62	-35.7	-37.6	16.4	0.00e+00	0	55	0	749731840	42	4373
2026-01-11 15:09:03.07	199.58	16.01	-35.6	-37.6	16.4	0.00e+00	0	55	0	778043392	41	4604
2026-01-11 15:09:07.11	200.01	16.41	-35.6	-37.6	16.4	0.00e+00	0	55	0	807403520	41	4607
2026-01-11 15:09:11.15	200.46	16.81	-35.5	-37.4	16.6	0.00e+00	0	55	0	836763648	41	4542
2026-01-11 15:09:15.19	200.92	17.22	-35.4	-37.3	16.8	0.00e+00	0	55	0	866123776	41	4449
2026-01-11 15:09:19.23	201.39	17.63	-35.1	-36.9	17.1	0.00e+00	0	55	0	895483904	41	4269
2026-01-11 15:09:23.26	201.87	18.05	-35.0	-36.8	17.2	0.00e+00	0	56	0	924844032	40	4471
2026-01-11 15:09:27.31	202.37	18.48	-34.9	-36.8	17.3	0.00e+00	0	56	0	953155584	40	4457
2026-01-11 15:09:31.35	202.88	18.91	-35.1	-36.9	17.1	0.00e+00	0	55	0	982515712	40	4545
2026-01-11 15:09:35.39	203.41	19.34	-35.0	-36.9	17.2	0.00e+00	0	56	0	1011875840	40	4537
2026-01-11 15:09:39.43	203.95	19.78	-34.8	-36.7	17.4	0.00e+00	0	56	0	1041235968	40	4418
2026-01-11 15:09:43.47	204.51	20.23	-34.6	-36.4	17.7	0.00e+00	0	56	0	1070596096	40	4270
2026-01-11 15:09:47.52	205.08	20.68	-34.5	-36.3	17.9	0.00e+00	0	56	0	1098907648	39	4470
2026-01-11 15:09:51.56	205.67	21.13	-34.5	-36.2	18.0	0.00e+00	0	56	0	1128267776	39	4427
2026-01-11 15:09:55.60	206.28	21.59	-34.5	-36.3	17.9	0.00e+00	0	56	0	1157627904	39	4467
2026-01-11 15:09:59.63	206.90	22.06	-34.4	-36.2	17.9	0.00e+00	0	56	0	1186988032	39	4438
2026-01-11 15:10:03.67	207.54	22.53	-34.4	-36.2	17.9	0.00e+00	0	56	0	1216348160	39	4427
2026-01-11 15:10:07.71	208.20	23.01	-34.3	-36.1	18.0	0.00e+00	0	56	0	1245708288	39	4379
2026-01-11 15:10:11.76	208.88	23.49	-34.1	-35.9	18.2	0.00e+00	0	56	0	1274019840	39	4261
2026-01-11 15:10:15.80	209.59	23.98	-34.2	-36.0	18.1	0.00e+00	0	56	0	1303379968	39	4333
2026-01-11 15:10:19.84	210.31	24.47	-34.2	-36.1	18.1	0.00e+00	0	56	0	1332740096	39	4359
2026-01-11 15:10:23.88	211.06	24.96	-34.1	-35.8	18.3	0.00e+00	0	56	0	1362100224	39	4236
2026-01-11 15:10:27.92	211.83	25.46	-34.1	-35.8	18.3	0.00e+00	0	56	0	1391460352	38	4488
2026-01-11 15:10:31.97	212.63	25.97	-34.0	-35.8	18.3	0.00e+00	0	56	0	1419771904	38	4465
2026-01-11 15:10:36.01	213.44	26.48	-34.0	-35.8	18.3	0.00e+00	0	56	0	1449132032	38	4468
2026-01-11 15:10:40.05	214.29	26.99	-34.0	-35.8	18.3	0.00e+00	0	56	0	1478492160	38	4462
2026-01-11 15:10:44.09	215.16	27.50	-33.9	-35.6	18.5	0.00e+00	0	56	0	1507852288	38	4372
2026-01-11 15:10:48.13	216.06	28.02	-33.8	-35.6	18.6	0.00e+00	0	56	0	1537212416	38	4347
2026-01-11 15:10:52.17	216.99	28.53	-33.8	-35.5	18.7	0.00e+00	0	56	0	1566572544	38	4330
2026-01-11 15:10:56.20	217.95	29.05	-33.8	-35.6	18.6	0.00e+00	0	56	0	1594884096	38	4389
2026-01-11 15:11:00.24	218.94	29.57	-33.8	-35.7	18.5	0.00e+00	0	57	0	1624244224	38	4412
2026-01-11 15:11:04.28	219.96	30.09	-33.8	-35.6	18.5	0.00e+00	0	56	0	1653604352	38	4388
2026-01-11 15:11:08.32	221.02	30.61	-33.7	-35.5	18.6	0.00e+00	0	57	0	1682964480	38	4319
2026-01-11 15:11:12.36	222.11	31.13	-33.9	-35.7	18.3	0.00e+00	0	56	0	1712324608	38	4437
2026-01-11 15:11:16.41	223.23	31.65	-33.8	-35.5	18.6	0.00e+00	0	56	0	1740636160	38	4313
2026-01-11 15:11:20.45	224.39	32.16	-33.8	-35.6	18.6	0.00e+00	0	56	0	1769996288	38	4351
2026-01-11 15:11:24.49	225.59	32.67	-33.8	-35.5	18.7	0.00e+00	0	57	0	1799356416	38	4338
2026-01-11 15:11:28.53	226.82	33.17	-33.9	-35.7	18.5	0.00e+00	0	57	0	1828716544	38	4437
2026-01-11 15:11:32.57	228.09	33.67	-33.9	-35.7	18.4	0.00e+00	0	57	0	1858076672	38	4431
2026-01-11 15:11:36.61	229.40	34.15	-33.7	-35.5	18.6	0.00e+00	0	56	0	1887436800	38	4321
2026-01-11 15:11:40.65	230.74	34.63	-33.6	-35.3	18.8	0.00e+00	0	57	0	1915748352	38	4201
2026-01-11 15:11:44.69	232.13	35.10	-33.7	-35.5	18.7	0.00e+00	0	56	0	1945108480	38	4297
2026-01-11 15:11:48.74	233.56	35.56	-33.7	-35.5	18.7	0.00e+00	0	57	0	1974468608	38	4305
2026-01-11 15:11:52.78	235.02	36.00	-33.7	-35.4	18.8	0.00e+00	0	57	0	2003828736	38	4289
2026-01-11 15:11:56.81	236.52	36.43	-33.7	-35.5	18.7	0.00e+00	0	57	0	2033188864	38	4299
2026-01-11 15:12:00.85	238.06	36.83	-33.9	-35.6	18.7	0.00e+00	0	57	0	2061500416	38	4352
2026-01-11 15:12:04.90	239.65	37.23	-33.7	-35.3	18.9	0.00e+00	0	57	0	2090860544	38	4232
2026-01-11 15:12:08.94	241.26	37.60	-33.7	-35.5	18.8	0.00e+00	0	57	0	2120220672	38	4299
2026-01-11 15:12:12.97	242.91	37.95	-33.8	-35.6	18.6	0.00e+00	0	57	0	2149580800	38	4377
2026-01-11 15:12:17.01	244.59	38.27	-33.9	-35.7	18.5	0.00e+00	0	57	0	2178940928	38	4419
2026-01-11 15:12:21.05	246.31	38.57	-34.0	-35.8	18.4	0.00e+00	0	57	0	2208301056	38	4466
2026-01-11 15:12:25.09	248.06	38.85	-33.6	-35.2	19.1	0.00e+00	0	57	0	2236612608	38	4161
2026-01-11 15:12:29.13	249.84	39.10	-33.9	-35.7	18.6	0.00e+00	0	57	0	2265972736	38	4399
2026-01-11 15:12:33.17	251.64	39.31	-34.5	-35.6	19.3	0.00e+00	0	57	0	2295332864	38	4366
2026-01-11 15:12:37.21	253.46	39.50	-34.5	-35.6	19.3	0.00e+00	0	57	0	2324692992	39	4124
2026-01-11 15:12:41.25	255.30	39.66	-34.0	-35.1	19.8	0.00e+00	0	57	0	2354053120	39	3882
2026-01-11 15:12:45.29	257.16	39.78	-34.3	-35.4	19.5	0.00e+00	0	57	0	2382364672	39	4029
2026-01-11 15:12:49.33	259.03	39.87	-34.5	-35.6	19.3	0.00e+00	0	57	0	2411724800	39	4129
2026-01-11 15:12:53.37	260.91	39.93	-34.8	-36.0	18.9	0.00e+00	0	57	0	2441084928	39	4314
2026-01-11 15:12:57.41	262.79	39.95	-34.7	-35.8	19.1	0.00e+00	0	57	0	2470445056	39	4205
2026-01-11 15:13:01.45	264.67	39.94	-34.5	-35.6	19.3	0.00e+00	0	57	0	2499805184	39	4121
2026-01-11 15:13:05.49	266.55	39.89	-34.6	-35.6	19.2	0.00e+00	0	57	0	2529165312	39	4145
2026-01-11 15:13:09.53	268.42	39.81	-34.3	-35.4	19.4	0.00e+00	0	57	0	2557476864	39	4032
2026-01-11 15:13:13.57	270.28	39.70	-34.7	-35.8	19.0	0.00e+00	0	57	0	2586836992	39	4236
2026-01-11 15:13:17.60	272.12	39.56	-34.6	-35.7	19.2	0.00e+00	0	57	0	2616197120	39	4168
2026-01-11 15:13:21.64	273.95	39.38	-34.7	-35.9	19.0	0.00e+00	0	57	0	2645557248	39	4252
2026-01-11 15:13:25.68	275.75	39.17	-34.5	-35.6	19.3	0.00e+00	0	57	0	2673868800	39	4100
2026-01-11 15:13:29.72	277.54	38.94	-34.5	-35.5	19.3	0.00e+00	0	57	0	2703228928	39	4095
2026-01-11 15:13:33.76	279.29	38.67	-34.1	-35.2	19.7	0.00e+00	0	57	0	2732589056	39	3921
2026-01-11 15:13:37.80	281.01	38.38	-34.6	-35.7	19.1	0.00e+00	0	57	0	2761949184	39	4182
2026-01-11 15:13:41.84	282.71	38.06	-34.2	-35.3	19.5	0.00e+00	0	57	0	2791309312	39	3980
2026-01-11 15:13:45.88	284.37	37.72	-34.1	-35.2	19.5	0.00e+00	0	57	0	2819620864	39	3930
2026-01-11 15:13:49.92	285.99	37.36	-34.5	-35.6	19.3	0.00e+00	0	57	0	2848980992	39	4104
2026-01-11 15:13:53.96	287.58	36.98	-34.7	-35.8	19.1	0.00e+00	0	57	0	2878341120	39	4211
2026-01-11 15:13:58.00	289.13	36.57	-34.5	-35.6	19.2	0.00e+00	0	57	0	2907701248	39	4138
2026-01-11 15:14:02.02	290.63	36.16	-34.2	-35.2	19.6	0.00e+00	0	57	0	2937061376	39	3958
2026-01-11 15:14:06.06	292.11	35.72	-34.5	-35.6	19.2	0.00e+00	0	57	0	2965372928	39	4110
2026-01-11 15:14:10.10	293.54	35.27	-34.4	-35.5	19.3	0.00e+00	0	57	0	2994733056	39	4089
2026-01-11 15:14:14.14	294.94	34.81	-34.5	-35.6	19.2	0.00e+00	0	57	0	3024093184	39	4118
2026-01-11 15:14:18.18	296.29	34.34	-34.3	-35.4	19.4	0.00e+00	0	57	0	3053453312	39	4016
2026-01-11 15:14:22.22	297.61	33.86	-34.4	-35.5	19.3	0.00e+00	0	57	0	3082813440	39	4054
2026-01-11 15:14:26.25	298.89	33.37	-34.7	-35.9	19.0	0.00e+00	0	57	0	3111124992	39	4246
2026-01-11 15:14:30.29	300.13	32.87	-34.6	-35.7	19.1	0.00e+00	0	57	0	3140485120	39	4184
2026-01-11 15:14:34.33	301.33	32.37	-34.4	-35.5	19.3	0.00e+00	0	57	0	3169845248	39	4094
2026-01-11 15:14:38.38	302.51	31.86	-34.5	-35.6	19.2	0.00e+00	0	57	0	3199205376	39	4101
2026-01-11 15:14:42.42	303.64	31.35	-34.8	-35.9	18.8	0.00e+00	0	57	0	3228565504	39	4285
2026-01-11 15:14:46.46	304.74	30.83	-34.8	-35.9	18.9	0.00e+00	0	57	0	3257925632	39	4270
2026-01-11 15:14:50.50	305.80	30.32	-34.5	-35.6	19.1	0.00e+00	0	57	0	3286237184	39	4126
2026-01-11 15:14:54.54	306.83	29.80	-34.8	-35.9	18.8	0.00e+00	0	57	0	3315597312	39	4271
2026-01-11 15:14:58.58	307.83	29.28	-34.8	-36.0	18.8	0.00e+00	0	57	0	3344957440	39	4294
2026-01-11 15:15:02.62	308.80	28.77	-34.7	-35.8	18.9	0.00e+00	0	58	0	3374317568	39	4218
2026-01-11 15:15:06.66	309.73	28.25	-34.6	-35.7	19.0	0.00e+00	0	57	0	3403677696	39	4160
2026-01-11 15:15:10.70	310.64	27.74	-34.8	-36.0	18.7	0.00e+00	0	57	0	3431989248	39	4298
2026-01-11 15:15:14.74	311.52	27.23	-34.8	-35.9	18.8	0.00e+00	0	57	0	3461349376	39	4281
2026-01-11 15:15:18.77	312.37	26.72	-34.7	-35.8	18.9	0.00e+00	0	57	0	3490709504	39	4211
2026-01-11 15:15:22.81	313.20	26.21	-34.7	-35.8	18.9	0.00e+00	0	57	0	3520069632	39	4223
2026-01-11 15:15:26.86	314.00	25.71	-34.9	-36.0	18.7	0.00e+00	0	57	0	3549429760	39	4311
2026-01-11 15:15:30.90	314.78	25.21	-34.9	-36.0	18.6	0.00e+00	0	57	0	3578789888	39	4322
2026-01-11 15:15:34.94	315.54	24.72	-34.9	-36.0	18.6	0.00e+00	0	57	0	3607101440	39	4333
2026-01-11 15:15:38.98	316.27	24.23	-35.0	-36.1	18.5	0.00e+00	0	57	0	3636461568	39	4384
2026-01-11 15:15:43.02	316.98	23.75	-35.2	-36.3	18.3	0.00e+00	0	57	0	3665821696	39	4491
2026-01-11 15:15:47.06	317.67	23.27	-35.0	-36.2	18.4	0.00e+00	0	57	0	3695181824	39	4417
2026-01-11 15:15:51.10	318.33	22.79	-34.8	-35.9	18.6	0.00e+00	0	57	0	3724541952	39	4285
2026-01-11 15:15:55.14	318.98	22.32	-35.0	-36.1	18.4	0.00e+00	0	58	0	3752853504	39	4376
2026-01-11 15:15:59.19	319.61	21.85	-35.2	-36.4	18.1	0.00e+00	0	57	0	3782213632	40	4252
2026-01-11 15:16:03.22	320.22	21.40	-35.4	-36.6	17.9	0.00e+00	0	57	0	3811573760	40	4372
2026-01-11 15:16:07.26	320.82	20.94	-35.3	-36.5	17.9	0.00e+00	0	57	0	3840933888	40	4320
2026-01-11 15:16:11.31	321.40	20.49	-35.3	-36.5	17.9	0.00e+00	0	57	0	3870294016	40	4333
2026-01-11 15:16:15.35	321.96	20.05	-35.6	-36.8	17.6	0.00e+00	0	57	0	3899654144	40	4473
2026-01-11 15:16:19.38	322.51	19.61	-35.7	-36.9	17.5	0.00e+00	0	57	0	3927965696	40	4541
2026-01-11 15:16:23.42	323.04	19.18	-35.7	-37.0	17.4	0.00e+00	0	57	0	3957325824	41	4300
2026-01-11 15:16:27.47	323.56	18.75	-35.7	-37.0	17.4	0.00e+00	0	57	0	3986685952	41	4314
2026-01-11 15:16:31.51	324.06	18.32	-35.7	-37.0	17.4	0.00e+00	0	57	0	4016046080	41	4293
2026-01-11 15:16:35.54	324.55	17.91	-35.7	-36.9	17.5	0.00e+00	0	57	0	4045406208	41	4276
2026-01-11 15:16:39.58	325.03	17.49	-35.9	-37.2	17.2	0.00e+00	0	57	0	4073717760	41	4397
2026-01-11 15:16:43.62	325.49	17.09	-36.2	-37.5	16.8	0.00e+00	0	58	0	4103077888	41	4577
2026-01-11 15:16:47.66	325.95	16.68	-36.3	-37.6	16.7	0.00e+00	0	57	0	4132438016	42	4374
2026-01-11 15:16:51.71	326.39	16.28	-36.3	-37.7	16.6	0.00e+00	0	57	0	4161798144	42	4427
2026-01-11 15:16:55.74	326.82	15.89	-36.4	-37.8	16.5	0.00e+00	0	57	0	4191158272	42	4461
2026-01-11 15:16:59.78	327.24	15.50	-36.4	-37.8	16.4	0.00e+00	0	57	0	4220518400	42	4485
2026-01-11 15:17:03.83	327.65	15.12	-36.4	-37.8	16.4	0.00e+00	0	57	0	4248829952	42	4469
2026-01-11 15:17:07.86	328.05	14.74	-36.4	-37.8	16.4	0.00e+00	0	57	0	4278190080	42	4480
2026-01-11 15:17:11.90	328.44	14.37	-36.7	-38.1	16.1	0.00e+00	0	57	0	4307550208	42	4622
2026-01-11 15:17:15.95	328.82	14.00	-36.8	-38.2	16.0	0.00e+00	0	57	0	4336910336	43	4425
2026-01-11 15:17:19.99	329.19	13.63	-37.0	-38.5	15.6	0.00e+00	0	57	0	4366270464	43	4569
2026-01-11 15:17:24.03	329.56	13.27	-37.1	-38.6	15.5	0.00e+00	0	57	0	4394582016	43	4651
2026-01-11 15:17:28.07	329.91	12.92	-37.3	-38.9	15.3	0.00e+00	0	57	0	4423942144	44	4521
2026-01-11 15:17:32.11	330.26	12.57	-37.5	-39.1	15.2	1.10e-06	0	57	0	4453302272	44	4600
2026-01-11 15:17:36.15	330.60	12.22	-37.4	-38.9	15.2	0.00e+00	0	57	0	4482662400	44	4533
2026-01-11 15:17:40.19	330.93	11.88	-37.4	-38.9	15.2	0.00e+00	0	57	0	4512022528	44	4541
2026-01-11 15:17:44.23	331.26	11.54	-37.6	-39.2	14.9	0.00e+00	0	57	0	4541382656	44	4689
2026-01-11 15:17:48.27	331.58	11.20	-37.6	-39.3	14.8	0.00e+00	0	57	0	4569694208	45	4443
2026-01-11 15:17:52.31	331.89	10.87	-37.8	-39.5	14.5	0.00e+00	0	58	0	4599054336	45	4553
2026-01-11 15:17:56.36	332.20	10.54	-38.0	-39.7	14.2	1.10e-06	0	58	0	4628414464	45	4694
2026-01-11 15:18:00.39	332.49	10.22	-37.9	-39.6	14.3	1.10e-06	0	58	0	4657774592	45	4639
2026-01-11 15:18:04.43	332.79	9.90	-37.7	-39.4	14.5	0.00e+00	0	58	0	4686086144	45	4521
2026-01-11 15:18:08.47	333.07	9.58	-37.8	-39.6	14.2	2.20e-06	0	58	0	4715446272	45	4630
2026-01-11 15:18:12.52	333.35	9.26	-37.7	-39.4	14.3	0.00e+00	0	58	0	4744806400	45	4536
2026-01-11 15:18:16.56	333.63	8.95	-37.8	-39.6	14.1	2.20e-06	0	57	0	4774166528	45	4620
2026-01-11 15:18:20.60	333.90	8.65	-37.8	-39.6	14.0	4.50e-06	0	58	0	4803526656	45	4639
2026-01-11 15:18:24.64	334.16	8.34	-38.0	-39.9	13.7	3.40e-06	0	57	0	4832886784	45	4762
2026-01-11 15:18:28.68	334.42	8.04	-38.0	-39.9	13.5	6.80e-06	0	57	0	4861198336	45	4773
2026-01-11 15:18:32.73	334.68	7.74	-45.2	-56.2	3.8	8.45e-01	0	57	104	4868538368	60	13238
2026-01-11 15:18:36.77	334.93	7.45	-45.6	-56.6	3.8	8.46e-01	0	58	104	4868538368	60	13806
2026-01-11 15:18:40.81	335.18	7.16	-45.5	-56.5	3.8	8.46e-01	0	57	104	4868538368	60	13698
2026-01-11 15:18:44.86	335.42	6.87	-45.5	-56.5	3.8	8.47e-01	0	58	104	4868538368	60	13615
2026-01-11 15:18:48.90	335.65	6.58	-45.5	-56.5	3.8	8.46e-01	0	58	104	4868538368	60	13581
2026-01-11 15:18:52.94	335.89	6.30	-45.4	-56.4	3.8	8.46e-01	0	58	104	4868538368	60	13545
2026-01-11 15:18:56.99	336.11	6.02	-45.4	-56.4	3.8	8.47e-01	0	57	104	4868538368	60	13548
2026-01-11 15:19:01.03	336.34	5.74	-45.4	-56.5	3.8	8.45e-01	0	57	104	4868538368	60	13585
2026-01-11 15:19:05.07	336.56	5.47	-45.4	-56.4	3.8	8.46e-01	0	58	104	4868538368	60	13554
2026-01-11 15:19:09.12	336.78	5.19	-45.4	-56.4	3.8	8.47e-01	0	58	104	4868538368	60	13519
2026-01-11 15:19:13.16	336.99	4.92	-45.4	-56.5	3.8	8.46e-01	0	58	104	4868538368	60	13589
2026-01-11 15:19:17.21	337.20	4.66	-45.4	-56.4	3.8	8.47e-01	0	58	104	4868538368	60	13556
2026-01-11 15:19:21.25	337.41	4.39	-45.4	-56.4	3.8	8.45e-01	0	58	104	4868538368	60	13511
2026-01-11 15:19:25.30	337.61	4.13	-45.4	-56.4	3.8	8.46e-01	0	58	104	4868538368	60	13517
2026-01-11 15:19:29.34	337.81	3.87	-45.4	-56.4	3.8	8.45e-01	0	58	104	4868538368	60	13469
2026-01-11 15:19:33.38	338.00	3.61	-45.4	-56.4	3.8	8.46e-01	0	58	104	4868538368	60	13448
2026-01-11 15:19:37.43	338.20	3.35	-45.4	-56.4	3.8	8.46e-01	0	58	104	4868538368	60	13514
2026-01-11 15:19:41.47	338.39	3.10	-45.4	-56.4	3.8	8.45e-01	0	58	104	4868538368	60	13454
2026-01-11 15:19:45.51	338.58	2.85	-45.4	-56.4	3.8	8.47e-01	0	58	104	4868538368	60	13447
2026-01-11 15:19:49.56	338.76	2.60	-45.4	-56.4	3.8	8.46e-01	0	58	104	4868538368	60	13439
2026-01-11 15:19:53.60	338.94	2.35	-45.4	-56.4	3.8	8.47e-01	0	58	104	4868538368	60	13450
2026-01-11 15:19:57.65	339.12	2.10	-45.4	-56.2	3.9	8.45e-01	0	58	104	4868538368	60	13190

#Closed at: 2026-01-11 15:20:00
#Recorded file [4868 MB]: D:/lorett/data/31039_260111_180601.dat