passes_logs/2026/01/11/R2.0S_Moscow/R2.0S_Moscow__20260111_222055_NOAA_21_JPSS-2_rec.log

#Pass ID: 20260111_222055_NOAA 21 (JPSS-2)
#Satellite: NOAA 21 (JPSS-2)
#Configuration: NOAA-21
#almurnet v.1.7.20251203
#Start time: 2026-01-11 22:20:56

#Version: 2.2.20231116
#Station: R2.0S_Moscow
#Location: 37.707566 lon 55.798166 lat
#TLE: 1 54234U 22150A   26011.27699114  .00000090  00000+0  63771-4 0  9993
#TLE: 2 54234  98.7494 312.2218 0000765 314.9553  45.1561 14.19534106164285

#Time	Az	El	Level	Level2	SNR	BER	BlckErr	Temp	State	Recorded	gain1	gain2
2026-01-11 22:20:56.48	23.77	2.03	-41.6	-54.8	3.9	1.49e+00	0	47	104	0	54	16790
2026-01-11 22:21:00.47	24.02	2.26	-41.6	-54.8	3.9	1.49e+00	0	47	104	0	54	16885
2026-01-11 22:21:04.51	24.28	2.49	-41.7	-54.8	3.8	1.49e+00	0	48	104	0	54	16863
2026-01-11 22:21:08.56	24.54	2.72	-41.9	-55.0	3.8	1.49e+00	0	48	104	0	54	17273
2026-01-11 22:21:12.60	24.81	2.96	-41.9	-55.0	3.8	1.49e+00	0	48	104	0	54	17256
2026-01-11 22:21:16.65	25.08	3.19	-41.9	-55.0	3.8	1.49e+00	0	49	104	0	54	17263
2026-01-11 22:21:20.69	25.36	3.43	-41.9	-55.0	3.8	1.49e+00	0	49	104	0	54	17251
2026-01-11 22:21:24.74	25.64	3.67	-41.9	-55.0	3.8	1.49e+00	0	49	104	0	54	17235
2026-01-11 22:21:28.78	25.92	3.91	-41.9	-55.0	3.8	1.49e+00	0	50	104	0	54	17228
2026-01-11 22:21:32.83	26.21	4.15	-41.9	-55.0	3.8	1.49e+00	0	49	104	0	54	17266
2026-01-11 22:21:36.87	26.51	4.39	-41.9	-55.0	3.8	1.49e+00	0	50	104	0	54	17228
2026-01-11 22:21:40.92	26.80	4.64	-41.9	-55.1	3.8	1.49e+00	0	50	104	0	54	17285
2026-01-11 22:21:44.96	27.11	4.88	-41.9	-55.0	3.8	1.49e+00	0	50	104	0	54	17235
2026-01-11 22:21:49.00	27.41	5.13	-41.9	-55.1	3.8	1.49e+00	0	51	104	0	54	17296
2026-01-11 22:21:53.05	27.73	5.38	-41.9	-55.0	3.8	1.49e+00	0	51	104	0	54	17253
2026-01-11 22:21:57.09	28.04	5.63	-41.9	-55.0	3.8	1.49e+00	0	51	104	0	54	17233
2026-01-11 22:22:01.14	28.37	5.89	-41.9	-55.0	3.8	1.49e+00	0	51	104	0	54	17260
2026-01-11 22:22:05.18	28.69	6.14	-41.9	-55.0	3.8	1.49e+00	0	51	104	0	54	17147
2026-01-11 22:22:09.23	29.03	6.40	-41.9	-54.9	3.8	1.49e+00	0	52	104	0	54	16906
2026-01-11 22:22:13.27	29.37	6.66	-41.9	-54.9	3.8	1.49e+00	0	52	104	0	54	16913
2026-01-11 22:22:17.32	29.71	6.92	-41.8	-54.5	3.8	1.49e+00	0	52	104	0	54	16233
2026-01-11 22:22:21.36	30.06	7.18	-41.8	-54.8	3.8	1.49e+00	0	52	104	0	54	16782
2026-01-11 22:22:25.40	30.42	7.44	-40.5	-46.1	7.5	1.64e-01	0	52	0	4194304	52	6934
2026-01-11 22:22:29.45	30.78	7.71	-39.5	-43.6	10.2	7.85e-03	0	52	0	16777216	51	5495
2026-01-11 22:22:33.49	31.15	7.98	-38.8	-42.3	11.6	5.03e-04	0	52	0	29360128	49	5294
2026-01-11 22:22:37.53	31.53	8.25	-40.4	-44.1	10.5	3.89e-03	0	53	0	37748736	51	5795
2026-01-11 22:22:41.56	31.91	8.52	-38.9	-41.6	13.0	3.20e-05	0	53	0	50331648	49	4881
2026-01-11 22:22:45.60	32.30	8.79	-39.2	-41.8	12.8	3.12e-05	0	53	0	62914560	49	5037
2026-01-11 22:22:49.64	32.69	9.07	-38.9	-41.5	13.2	2.82e-05	0	53	0	75497472	49	4832
2026-01-11 22:22:53.68	33.09	9.34	-38.8	-41.2	13.5	8.30e-06	0	53	0	88080384	49	4684
2026-01-11 22:22:57.72	33.51	9.62	-38.6	-40.8	14.0	7.00e-07	0	53	0	100663296	49	4493
2026-01-11 22:23:01.76	33.92	9.90	-38.6	-40.8	14.2	3.00e-06	0	53	0	113246208	49	4471
2026-01-11 22:23:05.79	34.35	10.18	-38.6	-40.7	14.4	7.00e-07	0	54	0	125829120	49	4410
2026-01-11 22:23:09.83	34.78	10.47	-38.5	-40.5	14.6	7.00e-07	0	54	0	138412032	48	4586
2026-01-11 22:23:13.87	35.22	10.76	-38.5	-40.6	14.6	0.00e+00	0	54	0	150994944	48	4606
2026-01-11 22:23:17.90	35.67	11.04	-38.5	-40.5	14.7	0.00e+00	0	54	0	163577856	48	4556
2026-01-11 22:23:21.94	36.13	11.33	-38.3	-40.3	15.0	0.00e+00	0	54	0	176160768	48	4465
2026-01-11 22:23:25.97	36.60	11.62	-38.3	-40.2	15.1	0.00e+00	0	54	0	188743680	48	4430
2026-01-11 22:23:30.01	37.08	11.92	-38.3	-40.3	15.1	0.00e+00	0	54	0	201326592	48	4443
2026-01-11 22:23:34.05	37.56	12.21	-38.2	-40.1	15.2	0.00e+00	0	54	0	213909504	48	4360
2026-01-11 22:23:38.09	38.06	12.51	-38.2	-40.0	15.4	0.00e+00	0	54	0	226492416	48	4309
2026-01-11 22:23:42.12	38.56	12.81	-38.2	-40.1	15.4	0.00e+00	0	54	0	239075328	48	4344
2026-01-11 22:23:46.16	39.08	13.11	-38.2	-40.0	15.4	0.00e+00	0	54	0	251658240	48	4336
2026-01-11 22:23:50.20	39.60	13.41	-38.1	-39.9	15.5	0.00e+00	0	54	0	265289728	48	4280
2026-01-11 22:23:54.24	40.14	13.72	-38.2	-40.0	15.5	0.00e+00	0	54	0	277872640	48	4316
2026-01-11 22:23:58.28	40.69	14.02	-38.3	-40.1	15.4	0.00e+00	0	54	0	290455552	48	4349
2026-01-11 22:24:02.31	41.24	14.33	-38.3	-40.2	15.3	0.00e+00	0	55	0	303038464	48	4405
2026-01-11 22:24:06.35	41.81	14.64	-38.3	-40.1	15.4	0.00e+00	0	54	0	315621376	48	4390
2026-01-11 22:24:10.39	42.39	14.95	-38.4	-40.2	15.3	7.00e-07	0	55	0	328204288	48	4433
2026-01-11 22:24:14.43	42.98	15.26	-38.5	-40.4	15.2	0.00e+00	0	55	0	340787200	48	4518
2026-01-11 22:24:18.46	43.59	15.57	-38.5	-40.3	15.3	0.00e+00	0	55	0	353370112	48	4477
2026-01-11 22:24:22.50	44.21	15.88	-38.4	-40.2	15.4	0.00e+00	0	55	0	365953024	48	4421
2026-01-11 22:24:26.54	44.84	16.20	-38.5	-40.3	15.3	0.00e+00	0	54	0	378535936	48	4475
2026-01-11 22:24:30.58	45.48	16.51	-38.6	-40.5	15.2	0.00e+00	0	55	0	391118848	48	4550
2026-01-11 22:24:34.62	46.13	16.83	-38.6	-40.4	15.2	0.00e+00	0	55	0	403701760	48	4543
2026-01-11 22:24:38.66	46.80	17.15	-38.6	-40.4	15.2	0.00e+00	0	55	0	416284672	48	4544
2026-01-11 22:24:42.70	47.49	17.46	-38.7	-40.6	15.1	0.00e+00	0	55	0	428867584	48	4645
2026-01-11 22:24:46.74	48.18	17.78	-38.6	-40.5	15.2	0.00e+00	0	55	0	441450496	48	4579
2026-01-11 22:24:50.78	48.90	18.10	-38.4	-40.2	15.5	0.00e+00	0	55	0	454033408	48	4429
2026-01-11 22:24:54.81	49.62	18.41	-38.4	-40.2	15.5	0.00e+00	0	55	0	466616320	48	4421
2026-01-11 22:24:58.85	50.36	18.73	-38.4	-40.2	15.6	0.00e+00	0	55	0	479199232	48	4393
2026-01-11 22:25:02.89	51.12	19.04	-38.3	-40.1	15.7	0.00e+00	0	55	0	491782144	48	4353
2026-01-11 22:25:06.93	51.89	19.36	-38.1	-39.8	15.9	0.00e+00	0	55	0	504365056	48	4228
2026-01-11 22:25:10.96	52.68	19.67	-37.8	-39.4	16.2	0.00e+00	0	56	0	516947968	47	4288
2026-01-11 22:25:15.00	53.48	19.98	-37.8	-39.5	16.2	0.00e+00	0	55	0	529530880	47	4302
2026-01-11 22:25:19.04	54.30	20.29	-37.8	-39.5	16.1	0.00e+00	0	55	0	542113792	47	4318
2026-01-11 22:25:23.08	55.14	20.60	-37.8	-39.5	16.1	0.00e+00	0	56	0	554696704	47	4319
2026-01-11 22:25:27.11	55.99	20.91	-37.9	-39.7	16.0	0.00e+00	0	55	0	567279616	47	4396
2026-01-11 22:25:31.15	56.86	21.21	-37.9	-39.6	16.1	0.00e+00	0	55	0	579862528	47	4355
2026-01-11 22:25:35.19	57.74	21.51	-37.6	-39.3	16.4	0.00e+00	0	55	0	592445440	47	4210
2026-01-11 22:25:39.23	58.65	21.81	-37.5	-39.2	16.5	0.00e+00	0	56	0	606076928	47	4151
2026-01-11 22:25:43.27	59.57	22.10	-37.6	-39.2	16.5	0.00e+00	0	56	0	617611264	46	4410
2026-01-11 22:25:47.30	60.50	22.39	-37.4	-39.0	16.6	0.00e+00	0	55	0	631242752	46	4337
2026-01-11 22:25:51.34	61.45	22.67	-37.3	-38.8	16.8	0.00e+00	0	56	0	643825664	46	4236
2026-01-11 22:25:55.38	62.43	22.95	-37.4	-39.0	16.7	0.00e+00	0	56	0	656408576	46	4292
2026-01-11 22:25:59.42	63.41	23.22	-37.5	-39.1	16.6	0.00e+00	0	56	0	668991488	46	4375
2026-01-11 22:26:03.45	64.42	23.49	-37.5	-39.2	16.5	0.00e+00	0	56	0	681574400	46	4395
2026-01-11 22:26:07.49	65.44	23.75	-37.8	-39.4	16.2	0.00e+00	0	56	0	694157312	46	4545
2026-01-11 22:26:11.54	66.48	24.01	-37.7	-39.4	16.3	0.00e+00	0	56	0	706740224	46	4512
2026-01-11 22:26:15.58	67.54	24.25	-37.9	-39.6	16.0	0.00e+00	0	56	0	719323136	46	4624
2026-01-11 22:26:19.61	68.61	24.49	-37.9	-39.6	16.1	0.00e+00	0	56	0	731906048	46	4602
2026-01-11 22:26:23.65	69.69	24.72	-37.9	-39.6	16.1	0.00e+00	0	56	0	744488960	46	4603
2026-01-11 22:26:27.69	70.80	24.94	-37.8	-39.4	16.2	0.00e+00	0	56	0	757071872	46	4533
2026-01-11 22:26:31.73	71.92	25.16	-37.8	-39.5	16.1	0.00e+00	0	56	0	769654784	46	4567
2026-01-11 22:26:35.76	73.05	25.36	-37.8	-39.4	16.2	0.00e+00	0	56	0	782237696	46	4528
2026-01-11 22:26:39.80	74.19	25.55	-37.4	-39.2	16.4	3.80e-06	0	56	0	794820608	46	4397
2026-01-11 22:26:43.84	75.35	25.73	-37.7	-39.4	16.3	0.00e+00	0	56	0	807403520	46	4498
2026-01-11 22:26:47.88	76.53	25.90	-37.6	-39.2	16.5	0.00e+00	0	56	0	819986432	46	4410
2026-01-11 22:26:51.92	77.71	26.06	-37.5	-39.1	16.6	0.00e+00	0	56	0	832569344	46	4369
2026-01-11 22:26:55.96	78.91	26.21	-37.6	-39.2	16.5	0.00e+00	0	56	0	845152256	46	4409
2026-01-11 22:27:00.00	80.12	26.35	-37.4	-39.0	16.7	0.00e+00	0	56	0	857735168	46	4299
2026-01-11 22:27:04.04	81.33	26.47	-37.4	-39.0	16.7	0.00e+00	0	56	0	870318080	46	4320
2026-01-11 22:27:08.08	82.56	26.58	-37.5	-39.1	16.6	0.00e+00	0	56	0	882900992	46	4367
2026-01-11 22:27:12.12	83.80	26.67	-37.4	-39.0	16.8	0.00e+00	0	56	0	895483904	46	4317
2026-01-11 22:27:16.15	85.03	26.75	-37.5	-39.1	16.6	0.00e+00	0	56	0	908066816	46	4384
2026-01-11 22:27:20.19	86.28	26.82	-37.6	-39.2	16.6	0.00e+00	0	56	0	920649728	46	4393
2026-01-11 22:27:24.23	87.53	26.87	-37.5	-39.1	16.7	0.00e+00	0	57	0	933232640	46	4348
2026-01-11 22:27:28.27	88.79	26.91	-37.4	-39.0	16.8	0.00e+00	0	56	0	945815552	46	4311
2026-01-11 22:27:32.31	90.05	26.93	-37.5	-39.1	16.7	0.00e+00	0	56	0	958398464	46	4355
2026-01-11 22:27:36.34	91.30	26.94	-37.3	-38.8	17.0	0.00e+00	0	56	0	972029952	46	4205
2026-01-11 22:27:40.38	92.56	26.94	-37.4	-39.0	16.8	0.00e+00	0	56	0	984612864	46	4293
2026-01-11 22:27:44.42	93.82	26.92	-37.2	-38.8	17.0	0.00e+00	0	56	0	996147200	46	4199
2026-01-11 22:27:48.45	95.07	26.89	-37.4	-38.9	16.8	0.00e+00	0	56	0	1009778688	46	4290
2026-01-11 22:27:52.49	96.33	26.84	-37.4	-39.0	16.8	0.00e+00	0	56	0	1022361600	46	4322
2026-01-11 22:27:56.53	97.58	26.77	-37.2	-38.8	17.0	0.00e+00	0	56	0	1034944512	46	4196
2026-01-11 22:28:00.57	98.82	26.70	-37.5	-39.1	16.7	0.00e+00	0	56	0	1047527424	46	4341
2026-01-11 22:28:04.61	100.06	26.61	-37.4	-38.9	16.9	0.00e+00	0	56	0	1060110336	46	4279
2026-01-11 22:28:08.64	101.29	26.50	-37.3	-38.8	17.0	0.00e+00	0	56	0	1072693248	46	4217
2026-01-11 22:28:12.68	102.51	26.39	-37.4	-38.9	16.9	0.00e+00	0	57	0	1085276160	46	4272
2026-01-11 22:28:16.72	103.72	26.26	-37.5	-39.1	16.7	0.00e+00	0	56	0	1097859072	46	4348
2026-01-11 22:28:20.76	104.93	26.11	-37.5	-39.1	16.7	0.00e+00	0	56	0	1110441984	46	4364
2026-01-11 22:28:24.80	106.12	25.96	-37.6	-39.2	16.6	0.00e+00	0	57	0	1123024896	46	4409
2026-01-11 22:28:28.84	107.30	25.79	-37.8	-39.5	16.4	0.00e+00	0	56	0	1135607808	46	4561
2026-01-11 22:28:32.88	108.47	25.61	-37.6	-39.2	16.6	0.00e+00	0	56	0	1148190720	46	4429
2026-01-11 22:28:36.92	109.62	25.42	-37.3	-38.9	16.9	0.00e+00	0	56	0	1160773632	46	4253
2026-01-11 22:28:40.96	110.77	25.22	-37.3	-38.9	17.0	0.00e+00	0	57	0	1173356544	46	4244
2026-01-11 22:28:44.99	111.89	25.01	-37.3	-38.9	16.9	0.00e+00	0	56	0	1185939456	46	4250
2026-01-11 22:28:49.03	113.00	24.79	-37.3	-38.8	17.0	0.00e+00	0	56	0	1198522368	46	4209
2026-01-11 22:28:53.07	114.10	24.56	-37.2	-38.7	17.1	0.00e+00	0	56	0	1211105280	46	4181
2026-01-11 22:28:57.11	115.18	24.32	-37.1	-38.6	17.2	0.00e+00	0	56	0	1223688192	46	4100
2026-01-11 22:29:01.14	116.24	24.08	-37.5	-39.1	16.7	0.00e+00	0	56	0	1236271104	46	4366
2026-01-11 22:29:05.18	117.29	23.82	-37.6	-39.2	16.6	0.00e+00	0	56	0	1248854016	46	4432
2026-01-11 22:29:09.22	118.32	23.56	-37.4	-39.0	16.8	0.00e+00	0	56	0	1261436928	46	4315
2026-01-11 22:29:13.26	119.34	23.29	-37.8	-39.4	16.4	0.00e+00	0	56	0	1274019840	46	4532
2026-01-11 22:29:17.29	120.33	23.02	-37.8	-39.4	16.4	0.00e+00	0	56	0	1286602752	46	4516
2026-01-11 22:29:21.33	121.31	22.74	-37.5	-39.0	16.7	0.00e+00	0	57	0	1299185664	46	4327
2026-01-11 22:29:25.37	122.28	22.46	-37.6	-39.2	16.5	0.00e+00	0	57	0	1311768576	46	4415
2026-01-11 22:29:29.41	123.22	22.17	-37.5	-39.1	16.6	0.00e+00	0	56	0	1324351488	46	4364
2026-01-11 22:29:33.45	124.15	21.87	-37.5	-39.1	16.7	0.00e+00	0	56	0	1336934400	46	4349
2026-01-11 22:29:37.50	125.07	21.58	-37.7	-39.3	16.5	0.00e+00	0	56	0	1350565888	46	4465
2026-01-11 22:29:41.53	125.96	21.27	-37.6	-39.2	16.5	0.00e+00	0	56	0	1363148800	46	4405
2026-01-11 22:29:45.57	126.84	20.97	-37.3	-38.8	16.9	0.00e+00	0	57	0	1375731712	45	4457
2026-01-11 22:29:49.61	127.70	20.66	-37.4	-38.9	16.7	0.00e+00	0	56	0	1388314624	45	4526
2026-01-11 22:29:53.64	128.54	20.35	-37.4	-38.9	16.7	0.00e+00	0	57	0	1400897536	45	4526
2026-01-11 22:29:57.68	129.37	20.04	-37.5	-39.1	16.6	0.00e+00	0	57	0	1413480448	45	4608
2026-01-11 22:30:01.73	130.18	19.73	-37.6	-39.2	16.4	0.00e+00	0	56	0	1426063360	45	4705
2026-01-11 22:30:05.77	130.98	19.41	-37.7	-39.4	16.2	0.00e+00	0	57	0	1438646272	46	4516
2026-01-11 22:30:09.81	131.76	19.09	-37.7	-39.4	16.1	1.37e-05	0	57	0	1451229184	46	4520
2026-01-11 22:30:13.85	132.52	18.77	-38.0	-39.7	15.9	5.34e-05	0	56	0	1463812096	46	4666
2026-01-11 22:30:17.89	133.27	18.46	-37.8	-39.6	16.0	6.10e-06	0	56	0	1476395008	46	4599
2026-01-11 22:30:21.92	134.01	18.14	-38.0	-39.8	15.8	4.95e-05	0	57	0	1488977920	46	4726
2026-01-11 22:30:25.96	134.72	17.82	-38.0	-39.7	15.9	1.14e-05	0	57	0	1501560832	46	4678
2026-01-11 22:30:30.00	135.43	17.50	-38.2	-40.0	15.2	6.86e-03	0	56	0	1514143744	46	4819
2026-01-11 22:30:34.04	136.12	17.18	-38.2	-40.0	15.6	4.50e-06	0	57	0	1526726656	46	4826
2026-01-11 22:30:38.08	136.79	16.86	-38.2	-40.1	15.5	7.00e-07	0	57	0	1539309568	47	4600
2026-01-11 22:30:42.11	137.46	16.54	-38.2	-40.0	15.4	9.90e-06	0	57	0	1551892480	47	4596
2026-01-11 22:30:46.15	138.10	16.22	-38.0	-39.8	15.8	0.00e+00	0	57	0	1564475392	46	4720
2026-01-11 22:30:50.19	138.74	15.90	-38.1	-39.8	15.6	0.00e+00	0	57	0	1577058304	46	4753
2026-01-11 22:30:54.24	139.36	15.59	-38.0	-39.7	15.8	0.00e+00	0	57	0	1589641216	46	4694
2026-01-11 22:30:58.27	139.97	15.27	-38.3	-40.1	15.3	0.00e+00	0	57	0	1602224128	47	4638
2026-01-11 22:31:02.31	140.57	14.96	-38.4	-40.2	15.2	0.00e+00	0	57	0	1614807040	47	4695
2026-01-11 22:31:06.35	141.16	14.64	-38.4	-40.3	15.2	0.00e+00	0	57	0	1627389952	47	4708
2026-01-11 22:31:10.39	141.73	14.33	-38.3	-40.2	15.2	0.00e+00	0	57	0	1639972864	47	4675
2026-01-11 22:31:14.42	142.29	14.02	-38.5	-40.4	15.0	0.00e+00	0	57	0	1652555776	47	4793
2026-01-11 22:31:18.46	142.84	13.71	-38.5	-40.4	14.9	0.00e+00	0	57	0	1665138688	47	4805
2026-01-11 22:31:22.50	143.38	13.41	-38.6	-40.5	14.9	0.00e+00	0	57	0	1677721600	47	4838
2026-01-11 22:31:26.54	143.91	13.10	-38.8	-40.8	14.6	1.50e-06	0	57	0	1691353088	48	4741
2026-01-11 22:31:30.57	144.43	12.80	-38.8	-40.8	14.7	0.00e+00	0	57	0	1703936000	48	4720
2026-01-11 22:31:34.61	144.94	12.49	-38.7	-40.7	14.7	0.00e+00	0	57	0	1716518912	48	4686
2026-01-11 22:31:38.65	145.43	12.19	-38.8	-40.8	14.5	7.00e-07	0	57	0	1729101824	48	4756
2026-01-11 22:31:42.69	145.92	11.89	-38.9	-41.0	14.3	0.00e+00	0	57	0	1741684736	48	4848
2026-01-11 22:31:46.73	146.40	11.60	-39.1	-41.2	14.1	7.00e-07	0	57	0	1754267648	48	4953
2026-01-11 22:31:50.76	146.87	11.30	-39.0	-41.2	14.1	0.00e+00	0	57	0	1766850560	48	4932
2026-01-11 22:31:54.80	147.33	11.01	-39.0	-41.1	14.1	1.50e-06	0	57	0	1779433472	48	4907
2026-01-11 22:31:58.83	147.78	10.72	-39.0	-41.2	14.0	1.50e-06	0	57	0	1792016384	48	4939
2026-01-11 22:32:02.87	148.23	10.43	-39.0	-41.1	14.1	3.00e-06	0	57	0	1804599296	48	4900
2026-01-11 22:32:06.91	148.66	10.14	-39.0	-41.1	14.0	3.00e-06	0	57	0	1817182208	48	4924
2026-01-11 22:32:10.95	149.09	9.86	-39.0	-41.1	13.9	4.50e-06	0	57	0	1829765120	48	4914
2026-01-11 22:32:14.98	149.51	9.57	-39.1	-41.3	13.7	6.80e-06	0	57	0	1842348032	48	5025
2026-01-11 22:32:19.02	149.92	9.29	-39.2	-41.5	13.5	1.44e-05	0	57	0	1854930944	49	4830
2026-01-11 22:32:23.06	150.32	9.01	-39.3	-41.7	13.1	3.35e-05	0	57	0	1867513856	49	4979
2026-01-11 22:32:27.10	150.72	8.73	-39.4	-41.9	13.0	3.89e-05	0	57	0	1880096768	49	5060
2026-01-11 22:32:31.14	151.11	8.46	-39.4	-41.9	12.9	4.42e-05	0	57	0	1892679680	49	5047
2026-01-11 22:32:35.17	151.49	8.18	-39.4	-42.0	12.7	8.62e-05	0	57	0	1905262592	49	5121
2026-01-11 22:32:39.21	151.87	7.91	-44.7	-56.7	3.8	1.49e+00	0	57	104	1913651200	59	15715
2026-01-11 22:32:43.25	152.24	7.64	-45.3	-57.6	3.8	1.49e+00	0	57	104	1913651200	61	15578
2026-01-11 22:32:47.29	152.60	7.37	-45.3	-57.8	3.8	1.49e+00	0	57	104	1913651200	61	15764
2026-01-11 22:32:51.33	152.95	7.10	-45.1	-57.6	3.8	1.49e+00	0	57	104	1913651200	61	15522
2026-01-11 22:32:55.37	153.30	6.84	-45.1	-57.6	3.8	1.49e+00	0	57	104	1913651200	61	15457
2026-01-11 22:32:59.41	153.65	6.58	-45.1	-57.6	3.8	1.49e+00	0	57	104	1913651200	61	15468
2026-01-11 22:33:03.46	153.99	6.31	-45.1	-57.5	3.8	1.49e+00	0	57	104	1913651200	61	15351
2026-01-11 22:33:07.50	154.32	6.05	-45.1	-57.6	3.8	1.49e+00	0	57	104	1913651200	61	15405
2026-01-11 22:33:11.55	154.65	5.80	-45.1	-57.5	3.8	1.49e+00	0	57	104	1913651200	61	15362
2026-01-11 22:33:15.59	154.97	5.54	-45.1	-57.5	3.8	1.49e+00	0	57	104	1913651200	61	15377
2026-01-11 22:33:19.63	155.28	5.29	-45.1	-57.5	3.8	1.49e+00	0	57	104	1913651200	61	15383
2026-01-11 22:33:23.68	155.60	5.03	-45.0	-57.5	3.8	1.49e+00	0	57	104	1913651200	61	15327
2026-01-11 22:33:27.72	155.90	4.78	-45.0	-57.5	3.8	1.49e+00	0	57	104	1913651200	61	15326
2026-01-11 22:33:31.76	156.20	4.53	-45.0	-57.5	3.8	1.49e+00	0	57	104	1913651200	61	15279
2026-01-11 22:33:35.81	156.50	4.29	-45.0	-57.5	3.8	1.49e+00	0	57	104	1913651200	60	16239
2026-01-11 22:33:39.85	156.79	4.04	-45.0	-57.5	3.8	1.49e+00	0	57	104	1913651200	60	16195
2026-01-11 22:33:43.90	157.08	3.80	-45.0	-57.5	3.8	1.49e+00	0	57	104	1913651200	60	16192
2026-01-11 22:33:47.94	157.36	3.55	-45.0	-57.5	3.8	1.49e+00	0	57	104	1913651200	60	16252
2026-01-11 22:33:51.99	157.64	3.31	-45.0	-57.5	3.8	1.49e+00	0	57	104	1913651200	60	16249
2026-01-11 22:33:56.03	157.91	3.07	-45.0	-57.5	3.8	1.49e+00	0	57	104	1913651200	60	16223
2026-01-11 22:34:00.08	158.18	2.83	-45.0	-57.5	3.8	1.49e+00	0	57	104	1913651200	60	16216
2026-01-11 22:34:04.12	158.44	2.60	-45.0	-57.5	3.8	1.49e+00	0	57	104	1913651200	60	16226
2026-01-11 22:34:08.16	158.70	2.36	-45.0	-57.5	3.8	1.49e+00	0	57	104	1913651200	60	16213
2026-01-11 22:34:12.21	158.96	2.13	-45.0	-57.5	3.8	1.49e+00	0	58	104	1913651200	60	16213
2026-01-11 22:34:16.25	159.22	1.90	-45.0	-57.5	3.8	1.49e+00	0	57	104	1913651200	60	16241

#Closed at: 2026-01-11 22:34:17
#Recorded file [1913 MB]: D:/lorett/data/31039_260112_012056.dat