passes_logs/2026/01/11/R2.0S_Moscow/R2.0S_Moscow__20260111_132108_FENGYUN_3D_rec.log

#Pass ID: 20260111_132108_FENGYUN 3D
#Satellite: FENGYUN 3D
#Configuration: FENGYUN 3D
#almurnet v.1.7.20251203
#Start time: 2026-01-11 13:21:07

#Version: 2.2.20231116
#Station: R2.0S_Moscow
#Location: 37.707566 lon 55.798166 lat
#TLE: 1 43010U 17072A   26010.98637270  .00000005  00000+0  24269-4 0  9997
#TLE: 2 43010  98.9936 342.7405 0002213 115.1030 245.0375 14.19693961422685

#Time	Az	El	Level	Level2	SNR	BER	BlckErr	Temp	State	Recorded	gain1	gain2
2026-01-11 13:21:07.66	202.43	1.99	-44.0	-55.5	3.8	8.46e-01	0	46	0	0	59	13573
2026-01-11 13:21:11.70	202.70	2.22	-44.0	-55.5	3.8	8.45e-01	0	47	104	0	59	13616
2026-01-11 13:21:15.75	202.97	2.45	-44.0	-55.5	3.8	8.47e-01	0	47	104	0	59	13585
2026-01-11 13:21:19.79	203.24	2.68	-44.0	-55.5	3.8	8.47e-01	0	47	104	0	59	13623
2026-01-11 13:21:23.83	203.52	2.91	-44.0	-55.5	3.8	8.47e-01	0	48	104	0	59	13615
2026-01-11 13:21:27.87	203.81	3.15	-44.0	-55.5	3.8	8.46e-01	0	48	104	0	59	13585
2026-01-11 13:21:31.92	204.09	3.38	-44.0	-55.4	3.8	8.47e-01	0	48	104	0	59	13555
2026-01-11 13:21:35.96	204.38	3.62	-44.0	-55.5	3.8	8.46e-01	0	48	104	0	59	13580
2026-01-11 13:21:40.00	204.68	3.86	-44.0	-55.5	3.8	8.46e-01	0	49	104	0	59	13573
2026-01-11 13:21:44.05	204.98	4.10	-44.0	-55.5	3.8	8.47e-01	0	49	104	0	59	13602
2026-01-11 13:21:48.09	205.29	4.35	-44.0	-55.5	3.8	8.47e-01	0	49	104	0	59	13592
2026-01-11 13:21:52.14	205.60	4.59	-44.0	-55.5	3.8	8.47e-01	0	50	104	0	59	13600
2026-01-11 13:21:56.18	205.91	4.84	-44.0	-55.4	3.8	8.46e-01	0	50	104	0	59	13516
2026-01-11 13:22:00.22	206.24	5.08	-44.0	-55.3	3.8	8.45e-01	0	50	104	0	59	13405
2026-01-11 13:22:04.27	206.56	5.33	-44.0	-55.4	3.8	8.46e-01	0	50	104	0	59	13451
2026-01-11 13:22:08.31	206.89	5.58	-43.9	-54.9	3.8	8.46e-01	0	50	104	0	59	12688
2026-01-11 13:22:12.36	207.23	5.84	-43.8	-53.7	3.8	8.45e-01	0	50	104	0	59	11030
2026-01-11 13:22:16.40	207.57	6.09	-43.5	-52.0	4.1	8.39e-01	0	51	0	0	59	9109
2026-01-11 13:22:20.44	207.92	6.35	-43.3	-50.6	4.7	8.13e-01	0	51	0	0	58	8220
2026-01-11 13:22:24.48	208.28	6.60	-43.1	-49.9	5.0	7.77e-01	0	51	0	0	58	7577
2026-01-11 13:22:28.53	208.64	6.86	-43.1	-49.8	5.0	7.74e-01	0	51	0	0	58	7518
2026-01-11 13:22:32.57	209.00	7.12	-42.8	-48.9	5.6	7.01e-01	0	51	0	0	57	7174
2026-01-11 13:22:36.61	209.38	7.38	-41.2	-45.0	9.0	4.19e-02	0	51	0	22020096	54	5433
2026-01-11 13:22:40.66	209.76	7.65	-39.3	-41.8	12.4	3.34e-04	0	52	0	44040192	50	4739
2026-01-11 13:22:44.70	210.14	7.91	-38.2	-40.3	13.9	8.00e-06	0	52	0	67108864	48	4456
2026-01-11 13:22:48.74	210.54	8.18	-39.2	-41.6	12.7	2.40e-05	0	52	0	90177536	48	5192
2026-01-11 13:22:52.78	210.94	8.45	-38.1	-40.2	14.2	1.37e-04	0	52	0	106954752	48	4403
2026-01-11 13:22:56.82	211.34	8.72	-37.5	-39.5	14.8	1.10e-06	0	52	0	130023424	47	4309
2026-01-11 13:23:00.85	211.76	8.99	-37.5	-39.4	14.9	0.00e+00	0	52	0	153092096	46	4525
2026-01-11 13:23:04.89	212.18	9.26	-37.3	-39.1	15.2	0.00e+00	0	53	0	175112192	46	4384
2026-01-11 13:23:08.94	212.61	9.54	-37.2	-39.0	15.4	0.00e+00	0	53	0	198180864	46	4293
2026-01-11 13:23:12.98	213.05	9.82	-37.0	-38.8	15.6	0.00e+00	0	53	0	221249536	46	4205
2026-01-11 13:23:17.02	213.50	10.10	-37.0	-38.8	15.6	0.00e+00	0	53	0	244318208	46	4194
2026-01-11 13:23:21.06	213.95	10.38	-37.0	-38.8	15.6	0.00e+00	0	53	0	266338304	45	4457
2026-01-11 13:23:25.11	214.41	10.66	-37.0	-38.8	15.6	0.00e+00	0	53	0	289406976	45	4458
2026-01-11 13:23:29.15	214.89	10.94	-37.1	-38.9	15.5	0.00e+00	0	53	0	311427072	45	4515
2026-01-11 13:23:33.18	215.36	11.23	-36.9	-38.6	15.8	0.00e+00	0	53	0	334495744	45	4386
2026-01-11 13:23:37.22	215.85	11.51	-36.9	-38.6	15.9	0.00e+00	0	53	0	357564416	45	4372
2026-01-11 13:23:41.26	216.35	11.80	-36.8	-38.6	15.9	0.00e+00	0	54	0	380633088	45	4354
2026-01-11 13:23:45.30	216.86	12.09	-36.8	-38.5	16.0	0.00e+00	0	53	0	402653184	45	4300
2026-01-11 13:23:49.34	217.38	12.38	-36.4	-38.1	16.5	0.00e+00	0	54	0	425721856	44	4346
2026-01-11 13:23:53.38	217.91	12.68	-36.6	-38.2	16.3	0.00e+00	0	54	0	448790528	44	4433
2026-01-11 13:23:57.42	218.45	12.97	-36.6	-38.3	16.3	0.00e+00	0	54	0	470810624	44	4444
2026-01-11 13:24:01.46	219.00	13.26	-36.5	-38.1	16.4	0.00e+00	0	54	0	493879296	44	4390
2026-01-11 13:24:05.50	219.56	13.56	-36.6	-38.3	16.3	0.00e+00	0	54	0	515899392	44	4451
2026-01-11 13:24:09.54	220.13	13.86	-36.3	-38.0	16.6	0.00e+00	0	54	0	538968064	44	4296
2026-01-11 13:24:13.58	220.71	14.16	-36.1	-37.7	16.9	0.00e+00	0	54	0	562036736	44	4175
2026-01-11 13:24:17.62	221.30	14.46	-36.1	-37.7	16.9	0.00e+00	0	54	0	585105408	44	4171
2026-01-11 13:24:21.65	221.91	14.75	-35.8	-37.3	17.1	0.00e+00	0	54	0	607125504	43	4241
2026-01-11 13:24:25.69	222.53	15.05	-35.8	-37.4	17.1	0.00e+00	0	54	0	630194176	43	4252
2026-01-11 13:24:29.73	223.15	15.36	-35.7	-37.3	17.2	0.00e+00	0	54	0	653262848	43	4204
2026-01-11 13:24:33.77	223.80	15.66	-35.6	-37.0	17.4	0.00e+00	0	54	0	675282944	43	4096
2026-01-11 13:24:37.81	224.45	15.96	-35.7	-37.2	17.3	0.00e+00	0	55	0	698351616	43	4188
2026-01-11 13:24:41.85	225.12	16.26	-35.7	-37.2	17.3	0.00e+00	0	54	0	720371712	43	4153
2026-01-11 13:24:45.88	225.80	16.56	-35.5	-37.0	17.5	0.00e+00	0	55	0	743440384	43	4086
2026-01-11 13:24:49.92	226.49	16.86	-35.5	-37.0	17.5	0.00e+00	0	55	0	766509056	43	4088
2026-01-11 13:24:53.96	227.20	17.17	-35.3	-36.8	17.8	0.00e+00	0	55	0	789577728	42	4206
2026-01-11 13:24:58.00	227.92	17.47	-35.3	-36.7	17.8	0.00e+00	0	55	0	811597824	42	4180
2026-01-11 13:25:02.03	228.66	17.77	-35.4	-36.8	17.7	0.00e+00	0	55	0	834666496	42	4232
2026-01-11 13:25:06.07	229.41	18.07	-35.2	-36.6	17.9	0.00e+00	0	55	0	857735168	42	4137
2026-01-11 13:25:10.12	230.17	18.37	-35.1	-36.6	18.0	0.00e+00	0	55	0	879755264	42	4102
2026-01-11 13:25:14.16	230.95	18.66	-35.1	-36.5	18.0	0.00e+00	0	55	0	902823936	42	4083
2026-01-11 13:25:18.20	231.75	18.96	-35.1	-36.5	18.0	0.00e+00	0	55	0	924844032	42	4097
2026-01-11 13:25:22.24	232.56	19.25	-34.9	-36.3	18.3	0.00e+00	0	54	0	947912704	41	4199
2026-01-11 13:25:26.27	233.38	19.54	-34.9	-36.3	18.3	0.00e+00	0	55	0	970981376	41	4201
2026-01-11 13:25:30.31	234.22	19.83	-34.9	-36.3	18.2	0.00e+00	0	55	0	994050048	41	4219
2026-01-11 13:25:34.35	235.08	20.11	-34.8	-36.1	18.4	0.00e+00	0	55	0	1016070144	41	4145
2026-01-11 13:25:38.39	235.95	20.40	-34.6	-36.0	18.5	0.00e+00	0	55	0	1039138816	40	4300
2026-01-11 13:25:42.43	236.84	20.67	-34.6	-36.0	18.5	0.00e+00	0	55	0	1062207488	40	4303
2026-01-11 13:25:46.47	237.74	20.95	-34.6	-36.0	18.5	0.00e+00	0	55	0	1084227584	40	4329
2026-01-11 13:25:50.51	238.66	21.22	-34.8	-36.2	18.3	0.00e+00	0	55	0	1107296256	40	4404
2026-01-11 13:25:54.55	239.59	21.48	-34.6	-35.8	19.1	0.00e+00	0	55	0	1129316352	40	4222
2026-01-11 13:25:58.59	240.54	21.75	-34.5	-35.8	19.1	0.00e+00	0	55	0	1152385024	40	4202
2026-01-11 13:26:02.63	241.50	22.00	-34.7	-35.9	19.0	0.00e+00	0	55	0	1175453696	40	4273
2026-01-11 13:26:06.67	242.49	22.25	-34.2	-35.3	19.5	0.00e+00	0	55	0	1198522368	40	4004
2026-01-11 13:26:10.71	243.48	22.49	-34.7	-35.9	19.0	0.00e+00	0	55	0	1220542464	40	4268
2026-01-11 13:26:14.74	244.49	22.73	-34.3	-35.5	19.4	0.00e+00	0	55	0	1243611136	40	4073
2026-01-11 13:26:18.79	245.52	22.96	-34.3	-35.5	19.4	0.00e+00	0	55	0	1266679808	40	4067
2026-01-11 13:26:22.82	246.56	23.18	-34.3	-35.5	19.4	0.00e+00	0	55	0	1288699904	40	4089
2026-01-11 13:26:26.87	247.61	23.40	-34.1	-35.2	19.7	0.00e+00	0	55	0	1311768576	40	3943
2026-01-11 13:26:30.91	248.68	23.60	-34.3	-35.5	19.4	0.00e+00	0	55	0	1333788672	40	4077
2026-01-11 13:26:34.95	249.76	23.80	-34.3	-35.5	19.4	0.00e+00	0	55	0	1356857344	40	4054
2026-01-11 13:26:38.99	250.86	23.99	-34.0	-35.1	19.7	0.00e+00	0	55	0	1379926016	40	3911
2026-01-11 13:26:43.03	251.97	24.16	-34.1	-35.3	19.6	0.00e+00	0	55	0	1402994688	40	3966
2026-01-11 13:26:47.06	253.08	24.33	-34.1	-35.2	19.8	0.00e+00	0	55	0	1425014784	39	4175
2026-01-11 13:26:51.10	254.21	24.49	-34.1	-35.2	19.7	0.00e+00	0	55	0	1448083456	39	4186
2026-01-11 13:26:55.14	255.35	24.64	-34.0	-35.1	19.9	0.00e+00	0	55	0	1471152128	39	4130
2026-01-11 13:26:59.19	256.51	24.77	-33.9	-35.0	19.9	0.00e+00	0	55	0	1493172224	39	4098
2026-01-11 13:27:03.22	257.67	24.90	-34.2	-35.3	19.7	0.00e+00	0	55	0	1516240896	39	4233
2026-01-11 13:27:07.26	258.84	25.01	-33.9	-35.1	19.9	0.00e+00	0	55	0	1538260992	39	4100
2026-01-11 13:27:11.29	260.01	25.11	-33.8	-35.0	20.0	0.00e+00	0	55	0	1561329664	39	4063
2026-01-11 13:27:15.33	261.19	25.20	-33.8	-35.0	20.0	0.00e+00	0	56	0	1584398336	39	4066
2026-01-11 13:27:19.37	262.38	25.27	-33.8	-35.0	20.0	0.00e+00	0	55	0	1607467008	39	4060
2026-01-11 13:27:23.41	263.58	25.34	-34.0	-35.2	19.8	0.00e+00	0	55	0	1629487104	39	4168
2026-01-11 13:27:27.45	264.78	25.39	-33.8	-34.9	20.0	0.00e+00	0	56	0	1652555776	39	4045
2026-01-11 13:27:31.49	265.98	25.43	-34.1	-35.3	19.7	0.00e+00	0	55	0	1675624448	39	4212
2026-01-11 13:27:35.52	267.18	25.45	-34.0	-35.2	19.8	0.00e+00	0	56	0	1697644544	39	4148
2026-01-11 13:27:39.57	268.39	25.46	-33.9	-35.0	19.9	0.00e+00	0	56	0	1720713216	39	4095
2026-01-11 13:27:43.60	269.59	25.46	-33.8	-35.0	20.0	0.00e+00	0	56	0	1742733312	39	4059
2026-01-11 13:27:47.64	270.80	25.44	-34.0	-35.1	19.9	0.00e+00	0	56	0	1765801984	39	4129
2026-01-11 13:27:51.68	272.00	25.41	-33.9	-35.1	19.9	0.00e+00	0	56	0	1788870656	39	4116
2026-01-11 13:27:55.72	273.20	25.37	-33.8	-35.0	20.0	0.00e+00	0	56	0	1811939328	39	4060
2026-01-11 13:27:59.76	274.40	25.32	-33.9	-35.0	19.9	0.00e+00	0	56	0	1833959424	39	4092
2026-01-11 13:28:03.80	275.59	25.25	-33.9	-35.1	19.9	0.00e+00	0	56	0	1857028096	39	4115
2026-01-11 13:28:07.84	276.77	25.17	-34.0	-35.1	19.9	0.00e+00	0	56	0	1880096768	39	4126
2026-01-11 13:28:11.87	277.95	25.08	-34.1	-35.2	19.7	0.00e+00	0	56	0	1902116864	39	4180
2026-01-11 13:28:15.92	279.13	24.98	-33.9	-35.1	19.9	0.00e+00	0	56	0	1925185536	39	4101
2026-01-11 13:28:19.96	280.29	24.86	-34.0	-35.2	19.8	0.00e+00	0	56	0	1948254208	39	4147
2026-01-11 13:28:24.00	281.45	24.73	-33.9	-35.1	19.9	0.00e+00	0	56	0	1970274304	39	4117
2026-01-11 13:28:28.03	282.59	24.59	-34.1	-35.2	19.7	0.00e+00	0	56	0	1993342976	39	4182
2026-01-11 13:28:32.07	283.72	24.44	-34.4	-35.6	19.3	0.00e+00	0	56	0	2016411648	39	4385
2026-01-11 13:28:36.11	284.85	24.28	-34.3	-35.5	19.5	0.00e+00	0	56	0	2038431744	39	4314
2026-01-11 13:28:40.15	285.96	24.11	-34.3	-35.4	19.5	0.00e+00	0	56	0	2061500416	39	4283
2026-01-11 13:28:44.18	287.06	23.93	-34.2	-35.4	19.6	0.00e+00	0	56	0	2083520512	39	4258
2026-01-11 13:28:48.22	288.15	23.74	-34.3	-35.5	19.4	0.00e+00	0	56	0	2106589184	39	4318
2026-01-11 13:28:52.26	289.22	23.54	-34.3	-35.5	19.4	0.00e+00	0	56	0	2129657856	39	4310
2026-01-11 13:28:56.31	290.28	23.33	-34.4	-35.6	19.3	0.00e+00	0	56	0	2151677952	39	4370
2026-01-11 13:29:00.35	291.33	23.12	-34.6	-35.8	19.2	0.00e+00	0	56	0	2174746624	39	4455
2026-01-11 13:29:04.39	292.36	22.90	-34.5	-35.7	19.2	0.00e+00	0	56	0	2197815296	39	4425
2026-01-11 13:29:08.43	293.38	22.67	-34.6	-35.9	19.1	0.00e+00	0	56	0	2220883968	39	4494
2026-01-11 13:29:12.46	294.38	22.43	-34.6	-35.9	19.1	0.00e+00	0	56	0	2242904064	39	4507
2026-01-11 13:29:16.50	295.37	22.19	-34.7	-35.9	18.9	0.00e+00	0	56	0	2265972736	40	4267
2026-01-11 13:29:20.55	296.34	21.93	-34.7	-35.9	18.9	0.00e+00	0	56	0	2287992832	40	4281
2026-01-11 13:29:24.59	297.30	21.68	-34.8	-36.1	18.7	0.00e+00	0	56	0	2311061504	40	4361
2026-01-11 13:29:28.62	298.24	21.42	-34.6	-35.8	19.0	0.00e+00	0	56	0	2334130176	40	4222
2026-01-11 13:29:32.66	299.16	21.15	-34.8	-36.0	18.8	0.00e+00	0	56	0	2357198848	40	4318
2026-01-11 13:29:36.70	300.07	20.88	-35.1	-36.4	18.4	0.00e+00	0	56	0	2379218944	40	4539
2026-01-11 13:29:40.74	300.97	20.61	-35.0	-36.3	18.5	0.00e+00	0	56	0	2402287616	40	4453
2026-01-11 13:29:44.79	301.85	20.33	-35.1	-36.3	18.4	0.00e+00	0	56	0	2425356288	40	4488
2026-01-11 13:29:48.82	302.71	20.05	-35.0	-36.2	18.6	0.00e+00	0	56	0	2447376384	40	4429
2026-01-11 13:29:52.86	303.56	19.77	-35.1	-36.4	18.4	0.00e+00	0	56	0	2470445056	40	4534
2026-01-11 13:29:56.90	304.39	19.48	-35.2	-36.5	18.3	0.00e+00	0	56	0	2492465152	40	4559
2026-01-11 13:30:00.94	305.21	19.19	-35.5	-36.9	17.9	0.00e+00	0	56	0	2515533824	41	4503
2026-01-11 13:30:04.97	306.01	18.90	-35.5	-36.9	17.9	0.00e+00	0	56	0	2538602496	41	4496
2026-01-11 13:30:09.01	306.79	18.61	-35.7	-37.0	17.7	0.00e+00	0	56	0	2560622592	41	4589
2026-01-11 13:30:13.05	307.57	18.31	-35.5	-36.9	17.9	0.00e+00	0	56	0	2583691264	41	4494
2026-01-11 13:30:17.09	308.32	18.02	-35.6	-37.0	17.8	0.00e+00	0	56	0	2606759936	41	4563
2026-01-11 13:30:21.13	309.07	17.72	-35.6	-37.0	17.7	0.00e+00	0	56	0	2629828608	41	4590
2026-01-11 13:30:25.17	309.80	17.42	-35.5	-36.8	17.9	0.00e+00	0	56	0	2651848704	41	4473
2026-01-11 13:30:29.20	310.51	17.13	-36.0	-37.5	17.2	0.00e+00	0	56	0	2674917376	42	4567
2026-01-11 13:30:33.24	311.21	16.83	-36.2	-37.6	17.1	0.00e+00	0	56	0	2696937472	43	4375
2026-01-11 13:30:37.28	311.90	16.53	-36.0	-37.4	17.3	0.00e+00	0	56	0	2720006144	43	4268
2026-01-11 13:30:41.32	312.58	16.23	-36.1	-37.6	17.1	0.00e+00	0	56	0	2743074816	43	4363
2026-01-11 13:30:45.36	313.24	15.93	-36.1	-37.5	17.2	0.00e+00	0	56	0	2765094912	43	4317
2026-01-11 13:30:49.40	313.89	15.63	-36.2	-37.7	17.0	0.00e+00	0	56	0	2788163584	43	4401
2026-01-11 13:30:53.44	314.52	15.33	-36.1	-37.5	17.1	0.00e+00	0	56	0	2811232256	43	4327
2026-01-11 13:30:57.47	315.15	15.03	-36.2	-37.7	16.9	0.00e+00	0	56	0	2834300928	43	4425
2026-01-11 13:31:01.51	315.76	14.74	-36.3	-37.8	16.8	0.00e+00	0	56	0	2856321024	43	4477
2026-01-11 13:31:05.55	316.36	14.44	-36.1	-37.6	17.0	0.00e+00	0	56	0	2879389696	43	4346
2026-01-11 13:31:09.59	316.95	14.14	-36.3	-37.8	16.8	0.00e+00	0	56	0	2901409792	43	4461
2026-01-11 13:31:13.62	317.53	13.85	-36.5	-38.1	16.5	0.00e+00	0	56	0	2924478464	43	4607
2026-01-11 13:31:17.66	318.09	13.55	-36.6	-38.1	16.4	0.00e+00	0	56	0	2947547136	43	4639
2026-01-11 13:31:21.70	318.65	13.26	-36.7	-38.3	16.3	0.00e+00	0	56	0	2969567232	43	4716
2026-01-11 13:31:25.73	319.19	12.97	-37.0	-38.6	16.1	0.00e+00	0	56	0	2992635904	44	4606
2026-01-11 13:31:29.77	319.73	12.68	-37.0	-38.6	16.1	0.00e+00	0	56	0	3015704576	44	4627
2026-01-11 13:31:33.81	320.25	12.39	-37.1	-38.7	16.0	0.00e+00	0	56	0	3038773248	44	4677
2026-01-11 13:31:37.85	320.77	12.10	-37.1	-38.7	15.9	0.00e+00	0	56	0	3060793344	44	4691
2026-01-11 13:31:41.89	321.28	11.81	-37.0	-38.6	16.0	0.00e+00	0	56	0	3083862016	44	4636
2026-01-11 13:31:45.93	321.77	11.53	-37.1	-38.7	15.9	0.00e+00	0	56	0	3105882112	44	4702
2026-01-11 13:31:49.98	322.26	11.25	-37.3	-39.0	15.6	0.00e+00	0	56	0	3128950784	45	4547
2026-01-11 13:31:54.02	322.74	10.96	-37.3	-39.0	15.5	0.00e+00	0	56	0	3152019456	45	4598
2026-01-11 13:31:58.06	323.21	10.68	-37.2	-38.9	15.7	0.00e+00	0	56	0	3174039552	45	4506
2026-01-11 13:32:02.10	323.67	10.40	-37.1	-38.8	15.7	0.00e+00	0	56	0	3197108224	45	4462
2026-01-11 13:32:06.13	324.12	10.13	-37.2	-38.9	15.6	0.00e+00	0	56	0	3220176896	45	4525
2026-01-11 13:32:10.17	324.57	9.85	-37.4	-39.1	15.3	0.00e+00	0	56	0	3243245568	45	4635
2026-01-11 13:32:14.21	325.00	9.58	-37.5	-39.3	15.1	0.00e+00	0	56	0	3265265664	45	4756
2026-01-11 13:32:18.25	325.43	9.30	-37.7	-39.5	14.9	0.00e+00	0	56	0	3288334336	45	4836
2026-01-11 13:32:22.29	325.85	9.03	-37.9	-39.8	14.6	1.10e-06	0	56	0	3310354432	46	4712
2026-01-11 13:32:26.33	326.27	8.76	-38.0	-40.0	14.4	1.10e-06	0	56	0	3333423104	46	4817
2026-01-11 13:32:30.37	326.67	8.50	-38.2	-40.2	14.1	5.70e-06	0	56	0	3356491776	46	4959
2026-01-11 13:32:34.40	327.07	8.23	-37.9	-39.9	14.4	2.20e-06	0	56	0	3378511872	46	4779
2026-01-11 13:32:38.44	327.46	7.97	-44.4	-55.5	3.8	8.47e-01	0	56	104	3397386240	59	13633
2026-01-11 13:32:42.48	327.85	7.71	-45.0	-56.7	3.8	8.47e-01	0	57	104	3397386240	60	14833
2026-01-11 13:32:46.52	328.23	7.44	-45.1	-56.9	3.8	8.47e-01	0	56	104	3397386240	60	15145
2026-01-11 13:32:50.57	328.60	7.18	-45.1	-56.9	3.8	8.46e-01	0	56	104	3397386240	60	15061
2026-01-11 13:32:54.61	328.97	6.93	-45.1	-56.8	3.8	8.46e-01	0	56	104	3397386240	60	15027
2026-01-11 13:32:58.65	329.33	6.67	-45.1	-56.8	3.8	8.46e-01	0	56	104	3397386240	60	14952
2026-01-11 13:33:02.69	329.69	6.42	-45.0	-56.8	3.8	8.46e-01	0	56	104	3397386240	60	14926
2026-01-11 13:33:06.74	330.04	6.16	-45.0	-56.8	3.8	8.47e-01	0	56	104	3397386240	60	14965
2026-01-11 13:33:10.78	330.38	5.91	-45.0	-56.8	3.8	8.46e-01	0	56	104	3397386240	60	14894
2026-01-11 13:33:14.82	330.72	5.66	-45.0	-56.8	3.8	8.47e-01	0	56	104	3397386240	60	14939
2026-01-11 13:33:18.87	331.05	5.41	-45.0	-56.8	3.8	8.46e-01	0	57	104	3397386240	60	14903
2026-01-11 13:33:22.91	331.38	5.17	-45.0	-56.8	3.8	8.47e-01	0	56	104	3397386240	60	14940
2026-01-11 13:33:26.96	331.70	4.92	-45.0	-56.8	3.8	8.46e-01	0	56	104	3397386240	60	14915
2026-01-11 13:33:31.00	332.02	4.68	-45.0	-56.7	3.8	8.46e-01	0	56	104	3397386240	60	14877
2026-01-11 13:33:35.04	332.33	4.44	-45.0	-56.8	3.8	8.46e-01	0	56	104	3397386240	60	14904
2026-01-11 13:33:39.09	332.64	4.20	-45.0	-56.8	3.8	8.47e-01	0	56	104	3397386240	60	14915
2026-01-11 13:33:43.13	332.94	3.96	-45.0	-56.7	3.8	8.46e-01	0	56	104	3397386240	60	14871
2026-01-11 13:33:47.18	333.24	3.72	-45.0	-56.7	3.8	8.48e-01	0	56	104	3397386240	60	14872
2026-01-11 13:33:51.22	333.53	3.49	-45.0	-56.8	3.8	8.47e-01	0	56	104	3397386240	60	14881
2026-01-11 13:33:55.27	333.82	3.25	-45.0	-56.8	3.8	8.47e-01	0	56	104	3397386240	60	14881
2026-01-11 13:33:59.31	334.11	3.02	-45.0	-56.8	3.8	8.48e-01	0	56	104	3397386240	60	14900
2026-01-11 13:34:03.35	334.39	2.79	-45.0	-56.7	3.8	8.45e-01	0	57	104	3397386240	60	14875
2026-01-11 13:34:07.40	334.67	2.56	-45.0	-56.7	3.8	8.45e-01	0	57	104	3397386240	60	14877
2026-01-11 13:34:11.44	334.94	2.33	-44.8	-56.7	3.8	8.46e-01	0	56	104	3397386240	60	14808
2026-01-11 13:34:15.48	335.21	2.10	-45.0	-56.7	3.8	8.46e-01	0	57	104	3397386240	60	14826

#Closed at: 2026-01-11 13:34:18
#Recorded file [3397 MB]: D:/lorett/data/31039_260111_162107.dat