passes_logs/2026/01/11/R2.0S_Moscow/R2.0S_Moscow__20260111_101027_NOAA_21_JPSS-2_rec.log

#Pass ID: 20260111_101027_NOAA 21 (JPSS-2)
#Satellite: NOAA 21 (JPSS-2)
#Configuration: NOAA-21
#almurnet v.1.7.20251203
#Start time: 2026-01-11 10:13:44

#Version: 2.2.20231116
#Station: R2.0S_Moscow
#Location: 37.707566 lon 55.798166 lat
#TLE: 1 54234U 22150A   26009.79679979  .00000100  00000+0  68070-4 0  9993
#TLE: 2 54234  98.7494 310.7596 0000833 322.2782  37.8335 14.19533646164071

#Time	Az	El	Level	Level2	SNR	BER	BlckErr	Temp	State	Recorded	gain1	gain2
2026-01-11 10:13:44.95	172.54	19.27	-45.0	-56.8	3.8	8.46e-01	0	56	0	0	60	15021
2026-01-11 10:13:47.99	172.65	19.66	-45.3	-57.7	3.8	1.49e+00	0	56	104	0	62	14836
2026-01-11 10:13:51.02	172.77	20.05	-45.2	-57.6	3.8	1.49e+00	0	57	104	0	62	14648
2026-01-11 10:13:54.05	172.90	20.45	-45.0	-57.4	3.8	1.49e+00	0	56	104	0	62	14230
2026-01-11 10:13:57.08	173.03	20.85	-44.9	-57.3	3.8	1.49e+00	0	57	104	0	61	14922
2026-01-11 10:14:00.10	173.15	21.26	-44.9	-57.1	3.8	1.49e+00	0	56	104	0	61	14647
2026-01-11 10:14:03.13	173.29	21.68	-44.9	-57.1	3.8	1.49e+00	0	56	104	0	61	14696
2026-01-11 10:14:06.16	173.42	22.10	-44.9	-57.3	3.8	1.49e+00	0	56	104	0	61	14981
2026-01-11 10:14:09.20	173.57	22.53	-44.9	-57.2	3.8	1.49e+00	0	56	104	0	61	14879
2026-01-11 10:14:12.22	173.71	22.97	-44.9	-56.9	3.8	1.49e+00	0	56	104	0	61	14345
2026-01-11 10:14:15.25	173.86	23.42	-44.8	-56.1	3.8	1.49e+00	0	57	104	0	61	13034
2026-01-11 10:14:18.29	174.01	23.87	-44.5	-53.4	4.3	1.45e+00	0	56	104	0	61	9504
2026-01-11 10:14:21.32	174.16	24.33	-44.0	-50.7	5.7	4.56e-01	0	57	0	5242880	60	7402
2026-01-11 10:14:24.35	174.32	24.80	-43.8	-49.8	6.2	2.69e-01	0	57	0	14680064	59	7117
2026-01-11 10:14:27.38	174.49	25.28	-44.2	-51.1	5.3	5.01e-01	0	56	0	24117248	59	8249
2026-01-11 10:14:30.41	174.66	25.76	-44.3	-51.9	4.9	9.04e-01	0	57	104	28311552	59	9061
2026-01-11 10:14:33.45	174.83	26.26	-42.9	-47.2	8.7	5.62e-02	0	57	0	36700160	57	5867
2026-01-11 10:14:36.48	175.01	26.76	-39.8	-42.0	14.0	3.00e-06	0	56	0	47185920	51	4589
2026-01-11 10:14:39.51	175.20	27.28	-43.4	-48.4	8.2	0.00e+00	0	57	0	56623104	57	6768
2026-01-11 10:14:42.54	175.39	27.80	-43.1	-47.8	8.2	1.32e-01	0	57	0	60817408	58	5935
2026-01-11 10:14:45.58	175.59	28.33	-38.7	-40.5	15.5	0.00e+00	0	57	0	67108864	49	4315
2026-01-11 10:14:48.60	175.79	28.87	-38.5	-40.3	15.7	0.00e+00	0	57	0	76546048	49	4209
2026-01-11 10:14:51.64	176.00	29.43	-38.2	-39.9	16.1	0.00e+00	0	57	0	85983232	48	4265
2026-01-11 10:14:54.66	176.22	29.99	-38.1	-39.8	16.3	0.00e+00	0	57	0	95420416	48	4196
2026-01-11 10:14:57.70	176.44	30.56	-37.8	-39.4	16.5	0.00e+00	0	56	0	104857600	47	4278
2026-01-11 10:15:00.73	176.68	31.15	-37.8	-39.4	16.5	0.00e+00	0	57	0	114294784	47	4265
2026-01-11 10:15:03.76	176.92	31.74	-37.8	-39.4	16.5	0.00e+00	0	57	0	124780544	47	4273
2026-01-11 10:15:06.80	177.17	32.36	-37.8	-39.4	16.5	0.00e+00	0	57	0	133169152	47	4287
2026-01-11 10:15:09.82	177.43	32.97	-37.9	-39.6	16.4	0.00e+00	0	56	0	143654912	47	4357
2026-01-11 10:15:12.85	177.69	33.61	-38.1	-39.8	16.2	0.00e+00	0	57	0	153092096	47	4442
2026-01-11 10:15:15.88	177.97	34.25	-38.6	-40.4	15.6	0.00e+00	0	57	0	162529280	47	4781
2026-01-11 10:15:18.91	178.26	34.91	-39.0	-40.9	15.1	0.00e+00	0	56	0	171966464	48	4806
2026-01-11 10:15:21.94	178.56	35.58	-39.4	-41.4	14.7	0.00e+00	0	57	0	181403648	49	4775
2026-01-11 10:15:24.97	178.88	36.26	-40.0	-42.3	13.8	3.00e-06	0	57	0	190840832	50	5005
2026-01-11 10:15:28.00	179.20	36.96	-40.5	-43.0	13.1	1.75e-05	0	57	0	200278016	51	5118
2026-01-11 10:15:31.03	179.55	37.68	-40.7	-43.3	12.7	8.92e-05	0	57	0	209715200	52	5015
2026-01-11 10:15:34.06	179.90	38.40	-40.4	-42.9	13.2	4.34e-05	0	57	0	219152384	52	4763
2026-01-11 10:15:37.09	180.27	39.15	-40.1	-42.5	13.5	3.80e-06	0	57	0	228589568	52	4565
2026-01-11 10:15:40.12	180.66	39.90	-40.2	-42.6	13.4	1.44e-05	0	56	0	238026752	52	4650
2026-01-11 10:15:43.15	181.07	40.67	-40.0	-42.3	13.8	1.50e-06	0	57	0	247463936	51	4713
2026-01-11 10:15:46.18	181.49	41.46	-40.0	-42.3	13.8	3.00e-06	0	57	0	256901120	51	4728
2026-01-11 10:15:49.20	181.94	42.26	-39.9	-42.0	14.1	7.00e-07	0	57	0	266338304	51	4568
2026-01-11 10:15:52.23	182.41	43.08	-39.7	-41.7	14.4	7.00e-07	0	57	0	275775488	51	4436
2026-01-11 10:15:55.27	182.90	43.92	-39.9	-42.1	14.1	7.00e-07	0	57	0	285212672	51	4599
2026-01-11 10:15:58.30	183.42	44.77	-39.8	-41.9	14.2	3.80e-06	0	57	0	294649856	51	4512
2026-01-11 10:16:01.33	183.97	45.63	-39.8	-41.9	14.2	3.00e-06	0	57	0	304087040	51	4504
2026-01-11 10:16:04.36	184.55	46.51	-39.5	-41.6	14.5	7.00e-07	0	57	0	313524224	51	4347
2026-01-11 10:16:07.39	185.16	47.41	-39.5	-41.5	14.6	0.00e+00	0	57	0	322961408	50	4571
2026-01-11 10:16:10.42	185.81	48.33	-39.8	-41.9	14.2	1.50e-06	0	57	0	332398592	50	4811
2026-01-11 10:16:13.45	186.49	49.26	-40.0	-42.3	13.8	4.50e-06	0	57	0	341835776	50	5003
2026-01-11 10:16:16.48	187.22	50.20	-40.3	-42.7	13.4	9.90e-06	0	57	0	351272960	51	4950
2026-01-11 10:16:19.51	188.00	51.16	-39.9	-42.0	14.1	3.80e-06	0	57	0	360710144	51	4589
2026-01-11 10:16:22.54	188.82	52.13	-39.4	-41.3	14.8	0.00e+00	0	57	0	370147328	50	4486
2026-01-11 10:16:25.57	189.71	53.12	-38.9	-40.7	15.5	0.00e+00	0	57	0	379584512	49	4398
2026-01-11 10:16:28.61	190.65	54.12	-37.7	-39.2	16.9	0.00e+00	0	57	0	389021696	47	4158
2026-01-11 10:16:31.64	191.66	55.13	-37.4	-39.0	17.0	0.00e+00	0	57	0	398458880	46	4298
2026-01-11 10:16:34.67	192.75	56.15	-37.2	-38.6	17.3	0.00e+00	0	57	0	407896064	46	4144
2026-01-11 10:16:37.70	193.91	57.18	-37.4	-39.0	17.1	0.00e+00	0	57	0	418381824	46	4295
2026-01-11 10:16:40.73	195.17	58.21	-37.1	-38.6	17.4	0.00e+00	0	57	0	426770432	46	4118
2026-01-11 10:16:43.76	196.53	59.25	-37.1	-38.5	17.5	0.00e+00	0	57	0	437256192	45	4340
2026-01-11 10:16:46.79	198.00	60.29	-37.0	-38.4	17.6	0.00e+00	0	57	0	445644800	45	4273
2026-01-11 10:16:49.82	199.59	61.34	-36.8	-38.2	17.9	0.00e+00	0	57	0	456130560	45	4179
2026-01-11 10:16:52.85	201.32	62.37	-36.6	-38.0	18.0	0.00e+00	0	57	0	465567744	45	4066
2026-01-11 10:16:55.88	203.20	63.40	-36.8	-38.2	17.9	0.00e+00	0	57	0	475004928	44	4399
2026-01-11 10:16:58.91	205.26	64.42	-36.6	-38.0	18.0	0.00e+00	0	57	0	484442112	44	4310
2026-01-11 10:17:01.94	207.49	65.41	-36.6	-37.9	18.0	0.00e+00	0	57	0	493879296	44	4281
2026-01-11 10:17:04.97	209.94	66.39	-36.5	-37.9	18.1	0.00e+00	0	57	0	503316480	44	4270
2026-01-11 10:17:07.99	212.61	67.33	-37.1	-38.6	17.3	0.00e+00	0	57	0	512753664	44	4639
2026-01-11 10:17:11.02	215.53	68.23	-36.4	-37.8	18.2	0.00e+00	0	57	0	522190848	44	4218
2026-01-11 10:17:14.05	218.71	69.08	-36.5	-37.9	18.1	0.00e+00	0	57	0	531628032	44	4264
2026-01-11 10:17:17.08	222.18	69.88	-36.6	-38.0	18.0	0.00e+00	0	57	0	541065216	44	4323
2026-01-11 10:17:20.11	225.94	70.61	-36.5	-37.9	18.0	0.00e+00	0	57	0	550502400	44	4276
2026-01-11 10:17:23.14	229.99	71.26	-36.6	-38.0	18.0	0.00e+00	0	57	0	559939584	44	4312
2026-01-11 10:17:26.17	234.33	71.82	-36.6	-37.9	17.9	0.00e+00	0	57	0	569376768	44	4290
2026-01-11 10:17:29.20	238.94	72.28	-36.9	-38.4	17.6	0.00e+00	0	57	0	578813952	44	4509
2026-01-11 10:17:32.22	243.75	72.62	-36.3	-37.6	18.4	0.00e+00	0	57	0	588251136	44	4111
2026-01-11 10:17:35.25	248.74	72.85	-35.7	-36.9	18.7	0.00e+00	0	57	0	597688320	43	4050
2026-01-11 10:17:38.28	253.84	72.95	-36.7	-38.1	17.7	0.00e+00	0	57	0	607125504	43	4623
2026-01-11 10:17:41.31	258.96	72.92	-36.3	-37.7	18.3	0.00e+00	0	57	0	616562688	44	4150
2026-01-11 10:17:44.34	264.02	72.76	-37.0	-38.5	17.5	0.00e+00	0	57	0	625999872	44	4569
2026-01-11 10:17:47.37	268.94	72.48	-36.3	-37.6	18.3	0.00e+00	0	57	0	635437056	44	4113
2026-01-11 10:17:50.40	273.67	72.08	-36.8	-38.2	17.9	0.00e+00	0	57	0	644874240	44	4402
2026-01-11 10:17:53.43	278.15	71.58	-36.3	-37.6	18.3	0.00e+00	0	57	0	654311424	44	4141
2026-01-11 10:17:56.46	282.36	70.98	-37.3	-38.9	17.1	4.03e-04	0	57	0	663748608	45	4520
2026-01-11 10:17:59.50	286.29	70.29	-36.2	-37.6	18.4	0.00e+00	0	57	0	673185792	44	4102
2026-01-11 10:18:02.52	289.90	69.53	-37.1	-38.6	17.4	0.00e+00	0	57	0	682622976	44	4611
2026-01-11 10:18:05.55	293.23	68.71	-35.8	-37.1	18.7	0.00e+00	0	57	0	692060160	43	4107
2026-01-11 10:18:08.59	296.30	67.83	-37.3	-38.8	17.2	7.00e-07	0	57	0	701497344	45	4482
2026-01-11 10:18:11.61	299.09	66.91	-36.4	-37.7	18.3	0.00e+00	0	57	0	710934528	44	4160
2026-01-11 10:18:14.64	301.65	65.96	-37.1	-38.6	17.4	0.00e+00	0	57	0	720371712	44	4641
2026-01-11 10:18:17.67	304.00	64.97	-37.1	-38.6	17.5	0.00e+00	0	57	0	729808896	46	4135
2026-01-11 10:18:20.71	306.16	63.97	-36.5	-37.8	17.9	0.00e+00	0	57	0	739246080	43	4488
2026-01-11 10:18:23.74	308.13	62.95	-38.8	-40.6	15.6	0.00e+00	0	57	0	748683264	48	4625
2026-01-11 10:18:26.76	309.93	61.92	-36.6	-38.0	18.1	0.00e+00	0	57	0	759169024	45	4054
2026-01-11 10:18:29.80	311.60	60.88	-38.4	-40.2	15.8	0.00e+00	0	57	0	767557632	47	4685
2026-01-11 10:18:32.82	313.13	59.85	-36.9	-38.2	17.8	0.00e+00	0	57	0	778043392	45	4193
2026-01-11 10:18:35.85	314.54	58.81	-37.5	-39.0	17.0	0.00e+00	0	57	0	787480576	45	4589
2026-01-11 10:18:38.88	315.85	57.78	-39.3	-41.3	14.8	0.00e+00	0	57	0	796917760	49	4759
2026-01-11 10:18:41.91	317.06	56.75	-37.3	-38.8	17.3	0.00e+00	0	57	0	806354944	46	4205
2026-01-11 10:18:44.94	318.19	55.73	-38.6	-40.4	15.6	0.00e+00	0	57	0	815792128	47	4769
2026-01-11 10:18:47.98	319.24	54.71	-39.9	-42.1	14.0	3.80e-06	0	57	0	825229312	51	4627
2026-01-11 10:18:51.00	320.22	53.71	-37.5	-39.1	17.1	0.00e+00	0	57	0	834666496	47	4107
2026-01-11 10:18:54.03	321.13	52.72	-38.7	-40.5	15.7	0.00e+00	0	57	0	844103680	47	4840
2026-01-11 10:18:57.06	321.99	51.75	-40.5	-43.0	13.3	1.52e-05	0	57	0	853540864	51	5102
2026-01-11 10:19:00.09	322.79	50.79	-40.1	-42.3	13.8	3.00e-06	0	57	0	862978048	51	4750
2026-01-11 10:19:03.12	323.54	49.84	-39.4	-41.3	14.9	0.00e+00	0	57	0	872415232	50	4489
2026-01-11 10:19:06.16	324.26	48.90	-40.1	-42.2	13.9	7.00e-07	0	57	0	881852416	50	4979
2026-01-11 10:19:09.19	324.92	47.98	-41.2	-44.0	12.1	1.98e-04	0	57	0	891289600	52	5430
2026-01-11 10:19:12.21	325.55	47.08	-40.1	-42.3	13.9	5.30e-06	0	57	0	900726784	52	4472
2026-01-11 10:19:15.24	326.15	46.20	-39.5	-41.4	14.9	0.00e+00	0	57	0	910163968	50	4545
2026-01-11 10:19:18.28	326.72	45.32	-40.4	-42.8	13.5	9.90e-06	0	57	0	919601152	51	4994
2026-01-11 10:19:21.31	327.25	44.47	-39.8	-41.8	14.4	3.80e-06	0	57	0	929038336	51	4478
2026-01-11 10:19:24.34	327.76	43.63	-40.6	-43.0	13.2	1.75e-05	0	57	0	938475520	51	5134
2026-01-11 10:19:27.37	328.24	42.81	-41.1	-44.0	12.2	3.91e-04	0	57	0	947912704	53	5115
2026-01-11 10:19:30.40	328.70	42.00	-40.0	-42.1	14.1	3.80e-06	0	57	0	957349888	51	4647
2026-01-11 10:19:33.43	329.14	41.21	-40.2	-42.5	13.7	6.80e-06	0	57	0	966787072	51	4870
2026-01-11 10:19:36.46	329.56	40.43	-40.4	-42.9	13.4	1.98e-05	0	57	0	976224256	51	5045
2026-01-11 10:19:39.49	329.96	39.67	-39.9	-42.0	14.2	7.00e-07	0	57	0	985661440	51	4596
2026-01-11 10:19:42.52	330.34	38.92	-39.9	-42.1	14.1	0.00e+00	0	57	0	995098624	51	4624
2026-01-11 10:19:45.55	330.70	38.19	-40.4	-42.9	13.3	1.22e-05	0	57	0	1004535808	51	5046
2026-01-11 10:19:48.58	331.05	37.47	-39.9	-42.1	14.2	7.00e-07	0	57	0	1013972992	51	4610
2026-01-11 10:19:51.61	331.39	36.77	-39.6	-41.7	14.5	1.50e-06	0	57	0	1023410176	51	4409
2026-01-11 10:19:54.64	331.71	36.08	-39.8	-41.9	14.2	1.50e-06	0	57	0	1032847360	51	4541
2026-01-11 10:19:57.67	332.02	35.40	-39.2	-41.1	15.2	7.00e-07	0	57	0	1042284544	50	4346
2026-01-11 10:20:00.70	332.31	34.74	-39.0	-40.9	15.3	0.00e+00	0	57	0	1052770304	50	4248
2026-01-11 10:20:03.73	332.60	34.09	-39.0	-40.9	15.2	0.00e+00	0	57	0	1061158912	49	4523
2026-01-11 10:20:06.76	332.88	33.46	-38.9	-40.7	15.4	0.00e+00	0	57	0	1071644672	49	4425
2026-01-11 10:20:09.79	333.14	32.83	-38.9	-40.8	15.3	0.00e+00	0	57	0	1080033280	49	4481
2026-01-11 10:20:12.82	333.40	32.22	-38.9	-40.8	15.3	0.00e+00	0	57	0	1090519040	49	4472
2026-01-11 10:20:15.85	333.64	31.62	-39.2	-41.1	15.0	7.00e-07	0	57	0	1099956224	49	4646
2026-01-11 10:20:18.88	333.88	31.03	-39.0	-40.9	15.2	0.00e+00	0	57	0	1109393408	49	4543
2026-01-11 10:20:21.91	334.11	30.45	-38.9	-40.8	15.3	0.00e+00	0	57	0	1118830592	49	4457
2026-01-11 10:20:24.95	334.33	29.88	-38.7	-40.5	15.6	0.00e+00	0	57	0	1128267776	49	4310
2026-01-11 10:20:27.98	334.55	29.33	-38.4	-40.2	15.9	0.00e+00	0	57	0	1137704960	48	4394
2026-01-11 10:20:31.00	334.76	28.78	-38.5	-40.2	15.8	0.00e+00	0	57	0	1147142144	48	4434
2026-01-11 10:20:34.03	334.96	28.25	-38.4	-40.1	16.0	0.00e+00	0	57	0	1156579328	48	4351
2026-01-11 10:20:37.06	335.16	27.72	-38.0	-39.6	16.4	0.00e+00	0	57	0	1166016512	48	4125
2026-01-11 10:20:40.10	335.35	27.21	-37.5	-39.1	16.8	0.00e+00	0	57	0	1175453696	47	4103
2026-01-11 10:20:43.13	335.53	26.70	-37.3	-38.8	17.1	0.00e+00	0	57	0	1184890880	46	4226
2026-01-11 10:20:46.15	335.71	26.20	-37.2	-38.7	17.2	0.00e+00	0	57	0	1194328064	46	4171
2026-01-11 10:20:49.18	335.88	25.72	-37.5	-39.0	16.8	0.00e+00	0	57	0	1203765248	46	4328
2026-01-11 10:20:52.21	336.05	25.24	-37.6	-39.2	16.6	0.00e+00	0	57	0	1213202432	46	4422
2026-01-11 10:20:55.24	336.22	24.76	-37.4	-39.0	16.8	0.00e+00	0	57	0	1222639616	46	4310
2026-01-11 10:20:58.28	336.38	24.30	-37.5	-39.1	16.7	0.00e+00	0	57	0	1232076800	46	4362
2026-01-11 10:21:01.31	336.53	23.84	-37.7	-39.4	16.4	0.00e+00	0	57	0	1241513984	46	4520
2026-01-11 10:21:04.34	336.69	23.40	-37.8	-39.5	16.3	0.00e+00	0	57	0	1250951168	46	4569
2026-01-11 10:21:07.37	336.83	22.95	-37.9	-39.7	16.1	0.00e+00	0	57	0	1260388352	46	4656
2026-01-11 10:21:10.39	336.98	22.52	-37.9	-39.7	16.0	0.00e+00	0	57	0	1269825536	46	4656
2026-01-11 10:21:13.42	337.12	22.10	-37.9	-39.6	16.0	0.00e+00	0	57	0	1279262720	46	4645
2026-01-11 10:21:16.45	337.26	21.68	-37.7	-39.4	16.1	0.00e+00	0	57	0	1288699904	46	4531
2026-01-11 10:21:19.49	337.39	21.26	-37.7	-39.4	16.1	0.00e+00	0	57	0	1298137088	46	4503
2026-01-11 10:21:22.52	337.52	20.86	-37.7	-39.5	15.9	0.00e+00	0	57	0	1307574272	46	4547
2026-01-11 10:21:25.55	337.65	20.46	-37.8	-39.7	15.5	0.00e+00	0	57	0	1317011456	46	4685
2026-01-11 10:21:28.58	337.77	20.07	-37.8	-39.6	15.4	0.00e+00	0	57	0	1326448640	46	4648
2026-01-11 10:21:31.60	337.89	19.68	-37.6	-39.5	15.5	0.00e+00	0	57	0	1335885824	46	4546
2026-01-11 10:21:34.64	338.01	19.30	-37.3	-39.1	15.8	0.00e+00	0	57	0	1345323008	46	4366
2026-01-11 10:21:37.67	338.13	18.92	-37.1	-38.9	15.9	0.00e+00	0	57	0	1354760192	46	4245
2026-01-11 10:21:40.70	338.24	18.55	-37.1	-38.9	15.8	0.00e+00	0	57	0	1365245952	46	4264
2026-01-11 10:21:43.73	338.36	18.19	-37.3	-39.2	15.4	0.00e+00	0	57	0	1373634560	46	4414
2026-01-11 10:21:46.76	338.46	17.83	-37.1	-39.0	15.4	0.00e+00	0	57	0	1384120320	46	4313
2026-01-11 10:21:49.79	338.57	17.47	-37.4	-39.5	14.8	0.00e+00	0	57	0	1392508928	46	4562
2026-01-11 10:21:52.82	338.68	17.12	-37.7	-40.0	14.0	5.30e-06	0	57	0	1402994688	46	4843
2026-01-11 10:21:55.85	338.78	16.78	-38.1	-40.7	13.0	2.89e-05	0	57	0	1412431872	46	5238
2026-01-11 10:21:58.88	338.88	16.44	-38.6	-41.5	11.9	2.66e-04	0	57	0	1421869056	47	5454
2026-01-11 10:22:01.91	338.98	16.10	-39.1	-42.5	10.8	2.22e-03	0	57	0	1431306240	48	5788
2026-01-11 10:22:04.94	339.08	15.77	-39.7	-43.7	9.5	1.32e-02	0	57	0	1440743424	49	6237
2026-01-11 10:22:07.97	339.17	15.45	-40.0	-44.7	8.3	5.02e-02	0	57	0	1450180608	50	6576
2026-01-11 10:22:11.00	339.26	15.12	-40.2	-45.7	7.0	1.45e-01	0	57	0	1459617792	50	7411
2026-01-11 10:22:14.03	339.36	14.81	-40.2	-46.1	6.6	2.06e-01	0	57	0	1469054976	51	7353
2026-01-11 10:22:17.06	339.45	14.49	-40.4	-47.1	5.7	4.11e-01	0	57	0	1478492160	51	8256
2026-01-11 10:22:20.09	339.53	14.18	-40.7	-47.6	5.5	4.66e-01	0	57	0	1487929344	51	8730
2026-01-11 10:22:23.12	339.62	13.88	-40.8	-48.7	4.8	1.43e+00	0	57	104	1496317952	52	9285
2026-01-11 10:22:26.15	339.71	13.57	-40.8	-49.6	4.3	1.43e+00	0	57	104	1496317952	52	10366
2026-01-11 10:22:29.18	339.79	13.28	-40.8	-52.7	3.8	1.49e+00	0	57	104	1496317952	53	14008
2026-01-11 10:22:32.21	339.87	12.98	-40.9	-50.4	4.1	1.46e+00	0	57	104	1496317952	53	10765
2026-01-11 10:22:35.24	339.95	12.69	-40.5	-52.4	3.8	1.49e+00	0	57	104	1496317952	53	13439
2026-01-11 10:22:38.27	340.03	12.40	-40.8	-52.9	3.8	1.49e+00	0	57	104	1496317952	52	15189
2026-01-11 10:22:41.30	340.11	12.12	-40.9	-51.8	3.8	1.49e+00	0	57	104	1496317952	53	12555
2026-01-11 10:22:44.32	340.19	11.84	-40.9	-52.2	3.8	1.49e+00	0	57	104	1496317952	53	13160
2026-01-11 10:22:47.35	340.26	11.56	-41.0	-52.9	3.8	1.49e+00	0	57	104	1496317952	52	15074
2026-01-11 10:22:50.38	340.34	11.28	-40.7	-52.7	3.8	1.49e+00	0	57	104	1496317952	52	14733
2026-01-11 10:22:53.41	340.41	11.01	-40.2	-52.6	3.8	1.49e+00	0	57	104	1496317952	52	14683
2026-01-11 10:22:56.44	340.48	10.74	-40.4	-52.6	3.8	1.49e+00	0	57	104	1496317952	52	14615
2026-01-11 10:22:59.48	340.56	10.47	-40.3	-52.6	3.8	1.49e+00	0	57	104	1496317952	52	14671
2026-01-11 10:23:02.51	340.63	10.21	-40.3	-52.6	3.8	1.49e+00	0	57	104	1496317952	52	14596
2026-01-11 10:23:05.54	340.70	9.95	-40.4	-52.6	3.8	1.49e+00	0	57	104	1496317952	52	14625
2026-01-11 10:23:08.57	340.76	9.69	-40.3	-52.6	3.8	1.49e+00	0	57	104	1496317952	52	14600
2026-01-11 10:23:11.60	340.83	9.44	-40.3	-52.6	3.8	1.49e+00	0	57	104	1496317952	52	14642
2026-01-11 10:23:14.63	340.90	9.18	-40.3	-52.6	3.8	1.49e+00	0	57	104	1496317952	52	14671
2026-01-11 10:23:17.66	340.96	8.93	-40.4	-52.7	3.8	1.49e+00	0	57	104	1496317952	52	14814
2026-01-11 10:23:20.69	341.03	8.69	-40.3	-52.6	3.8	1.49e+00	0	57	104	1496317952	52	14693
2026-01-11 10:23:23.72	341.09	8.44	-40.5	-52.9	3.8	1.49e+00	0	57	104	1496317952	52	15074
2026-01-11 10:23:26.75	341.16	8.20	-40.4	-52.7	3.8	1.49e+00	0	57	104	1496317952	52	14715
2026-01-11 10:23:29.78	341.22	7.96	-40.6	-52.9	3.8	1.49e+00	0	57	104	1496317952	52	15065
2026-01-11 10:23:32.82	341.28	7.72	-44.8	-57.3	3.8	1.49e+00	0	57	104	1496317952	60	15797
2026-01-11 10:23:35.85	341.34	7.48	-45.2	-57.7	3.8	1.49e+00	0	57	104	1496317952	60	16541
2026-01-11 10:23:38.88	341.40	7.25	-45.2	-57.8	3.8	1.49e+00	0	57	104	1496317952	61	15799
2026-01-11 10:23:41.92	341.46	7.01	-45.1	-57.7	3.8	1.49e+00	0	57	104	1496317952	60	16628
2026-01-11 10:23:44.95	341.52	6.79	-44.9	-57.7	3.8	1.49e+00	0	57	104	1496317952	60	16591
2026-01-11 10:23:47.98	341.58	6.56	-45.1	-57.7	3.8	1.49e+00	0	57	104	1496317952	60	16512
2026-01-11 10:23:51.02	341.63	6.33	-45.0	-57.6	3.8	1.49e+00	0	57	104	1496317952	60	16462
2026-01-11 10:23:54.05	341.69	6.11	-44.9	-57.6	3.8	1.49e+00	0	57	104	1496317952	60	16441
2026-01-11 10:23:57.08	341.74	5.88	-45.1	-57.6	3.8	1.49e+00	0	57	104	1496317952	60	16502
2026-01-11 10:24:00.11	341.80	5.66	-45.1	-57.7	3.8	1.49e+00	0	57	104	1496317952	60	16517
2026-01-11 10:24:03.15	341.85	5.45	-45.0	-57.6	3.8	1.49e+00	0	57	104	1496317952	60	16448
2026-01-11 10:24:06.18	341.91	5.23	-45.1	-57.6	3.8	1.49e+00	0	57	104	1496317952	60	16456
2026-01-11 10:24:09.21	341.96	5.01	-45.1	-57.6	3.8	1.49e+00	0	57	104	1496317952	60	16449
2026-01-11 10:24:12.24	342.01	4.80	-45.1	-57.6	3.8	1.49e+00	0	57	104	1496317952	60	16403
2026-01-11 10:24:15.28	342.07	4.59	-45.1	-57.6	3.8	1.49e+00	0	58	104	1496317952	60	16424
2026-01-11 10:24:18.31	342.12	4.38	-45.1	-57.6	3.8	1.49e+00	0	57	104	1496317952	60	16384
2026-01-11 10:24:21.34	342.17	4.17	-45.0	-57.6	3.8	1.49e+00	0	57	104	1496317952	60	16390
2026-01-11 10:24:24.38	342.22	3.96	-45.1	-57.6	3.8	1.49e+00	0	57	104	1496317952	60	16379
2026-01-11 10:24:27.41	342.27	3.76	-45.0	-57.6	3.8	1.49e+00	0	57	104	1496317952	60	16378
2026-01-11 10:24:30.44	342.32	3.56	-45.0	-57.6	3.8	1.49e+00	0	57	104	1496317952	60	16375
2026-01-11 10:24:33.48	342.37	3.35	-45.0	-57.6	3.8	1.49e+00	0	57	104	1496317952	60	16391
2026-01-11 10:24:36.51	342.42	3.15	-45.0	-57.6	3.8	1.49e+00	0	57	104	1496317952	60	16407
2026-01-11 10:24:39.54	342.46	2.95	-45.0	-57.6	3.8	1.49e+00	0	57	104	1496317952	60	16365
2026-01-11 10:24:42.58	342.51	2.75	-45.0	-57.6	3.8	1.49e+00	0	57	104	1496317952	60	16414
2026-01-11 10:24:45.61	342.56	2.56	-45.0	-57.6	3.8	1.49e+00	0	58	104	1496317952	60	16388
2026-01-11 10:24:48.64	342.61	2.36	-45.0	-57.6	3.8	1.49e+00	0	57	104	1496317952	60	16387
2026-01-11 10:24:51.67	342.65	2.17	-45.0	-57.6	3.8	1.49e+00	0	57	104	1496317952	60	16366
2026-01-11 10:24:54.71	342.70	1.98	-44.7	-57.6	3.8	1.49e+00	0	57	104	1496317952	60	16415

#Closed at: 2026-01-11 10:24:56
#Recorded file [1496 MB]: D:/lorett/data/31039_260111_131344.dat