passes_logs/2026/01/11/R2.0S_Moscow/R2.0S_Moscow__20260111_032948_FENGYUN_3D_rec.log

#Pass ID: 20260111_032948_FENGYUN 3D
#Satellite: FENGYUN 3D
#Configuration: FENGYUN 3D
#almurnet v.1.7.20251203
#Start time: 2026-01-11 03:29:48

#Version: 2.2.20231116
#Station: R2.0S_Moscow
#Location: 37.707566 lon 55.798166 lat
#TLE: 1 43010U 17072A   26009.92921666 -.00000228  00000+0 -86059-4 0  9998
#TLE: 2 43010  98.9936 341.6668 0002176 116.7510 243.3888 14.19693142422537

#Time	Az	El	Level	Level2	SNR	BER	BlckErr	Temp	State	Recorded	gain1	gain2
2026-01-11 03:29:48.12	10.57	1.97	-39.7	-51.3	3.8	8.44e-01	0	47	0	0	51	13395
2026-01-11 03:29:51.15	10.36	2.14	-39.7	-51.3	3.8	8.46e-01	0	47	104	0	51	13363
2026-01-11 03:29:54.18	10.16	2.31	-39.7	-51.3	3.8	8.46e-01	0	47	104	0	51	13363
2026-01-11 03:29:57.21	9.95	2.48	-39.7	-51.3	3.8	8.46e-01	0	48	104	0	51	13360
2026-01-11 03:30:00.24	9.74	2.65	-39.7	-51.3	3.8	8.46e-01	0	48	104	0	51	13384
2026-01-11 03:30:03.27	9.53	2.82	-39.7	-51.3	3.8	8.46e-01	0	48	104	0	51	13377
2026-01-11 03:30:06.31	9.31	2.99	-39.7	-51.3	3.8	8.46e-01	0	49	104	0	51	13371
2026-01-11 03:30:09.34	9.09	3.16	-39.7	-51.3	3.8	8.47e-01	0	48	104	0	51	13359
2026-01-11 03:30:12.37	8.87	3.34	-39.7	-51.3	3.8	8.46e-01	0	49	104	0	51	13367
2026-01-11 03:30:15.41	8.64	3.51	-39.7	-51.3	3.8	8.46e-01	0	49	104	0	51	13363
2026-01-11 03:30:18.44	8.42	3.69	-39.7	-51.3	3.8	8.45e-01	0	49	104	0	51	13340
2026-01-11 03:30:21.47	8.18	3.86	-39.7	-51.3	3.8	8.46e-01	0	49	104	0	51	13373
2026-01-11 03:30:24.51	7.95	4.04	-39.7	-51.3	3.8	8.47e-01	0	50	104	0	51	13339
2026-01-11 03:30:27.54	7.71	4.22	-39.7	-51.3	3.8	8.46e-01	0	50	104	0	51	13356
2026-01-11 03:30:30.57	7.48	4.39	-39.7	-51.3	3.8	8.47e-01	0	50	104	0	51	13368
2026-01-11 03:30:33.60	7.23	4.57	-39.7	-51.3	3.8	8.46e-01	0	50	104	0	51	13322
2026-01-11 03:30:36.63	6.99	4.75	-39.7	-51.3	3.8	8.46e-01	0	50	104	0	51	13363
2026-01-11 03:30:39.67	6.74	4.93	-39.7	-51.3	3.8	8.47e-01	0	50	104	0	51	13381
2026-01-11 03:30:42.70	6.49	5.11	-39.7	-51.3	3.8	8.46e-01	0	51	104	0	51	13356
2026-01-11 03:30:45.74	6.23	5.29	-39.7	-51.3	3.8	8.47e-01	0	51	104	0	51	13392
2026-01-11 03:30:48.77	5.97	5.47	-39.7	-51.3	3.8	8.47e-01	0	51	104	0	51	13327
2026-01-11 03:30:51.80	5.71	5.66	-39.7	-51.3	3.8	8.47e-01	0	51	104	0	51	13312
2026-01-11 03:30:54.84	5.45	5.84	-39.7	-51.3	3.8	8.47e-01	0	51	104	0	51	13347
2026-01-11 03:30:57.87	5.18	6.02	-39.7	-51.3	3.8	8.47e-01	0	51	104	0	51	13359
2026-01-11 03:31:00.90	4.90	6.21	-39.7	-51.3	3.8	8.46e-01	0	51	104	0	51	13339
2026-01-11 03:31:03.94	4.63	6.39	-39.7	-51.3	3.8	8.47e-01	0	52	104	0	51	13356
2026-01-11 03:31:06.97	4.35	6.58	-39.7	-51.3	3.8	8.45e-01	0	52	104	0	51	13354
2026-01-11 03:31:10.00	4.06	6.76	-39.7	-51.3	3.8	8.46e-01	0	52	104	0	51	13333
2026-01-11 03:31:13.03	3.78	6.95	-39.7	-51.3	3.8	8.46e-01	0	52	104	0	51	13316
2026-01-11 03:31:16.07	3.49	7.14	-39.7	-51.3	3.8	8.46e-01	0	52	104	0	51	13337
2026-01-11 03:31:19.10	3.19	7.33	-39.7	-51.3	3.8	8.46e-01	0	52	104	0	51	13346
2026-01-11 03:31:22.13	2.89	7.52	-39.7	-51.3	3.8	8.45e-01	0	53	104	0	51	13372
2026-01-11 03:31:25.16	2.59	7.71	-39.7	-51.3	3.8	8.46e-01	0	52	104	0	51	13315
2026-01-11 03:31:28.20	2.28	7.90	-39.7	-51.3	3.8	8.46e-01	0	52	104	0	51	13296
2026-01-11 03:31:31.23	1.97	8.09	-39.6	-51.4	3.8	8.46e-01	0	53	104	0	51	13458
2026-01-11 03:31:34.26	1.65	8.28	-39.8	-51.4	3.8	8.46e-01	0	53	104	0	51	13514
2026-01-11 03:31:37.29	1.33	8.47	-39.5	-51.3	3.8	8.47e-01	0	53	104	0	51	13372
2026-01-11 03:31:40.32	1.01	8.67	-39.6	-51.4	3.8	8.45e-01	0	53	104	0	51	13424
2026-01-11 03:31:43.35	0.68	8.86	-39.4	-51.3	3.8	8.46e-01	0	53	104	0	50	14131
2026-01-11 03:31:46.38	0.35	9.05	-39.6	-51.3	3.8	8.47e-01	0	53	104	0	50	14209
2026-01-11 03:31:49.40	0.01	9.25	-39.6	-51.3	3.8	8.45e-01	0	53	104	0	50	14197
2026-01-11 03:31:52.43	359.67	9.44	-39.5	-51.4	3.8	8.46e-01	0	53	104	0	50	14264
2026-01-11 03:31:55.46	359.32	9.64	-39.3	-51.4	3.8	8.47e-01	0	53	104	0	50	14223
2026-01-11 03:31:58.50	358.97	9.83	-39.2	-51.3	3.8	8.45e-01	0	54	104	0	50	14202
2026-01-11 03:32:01.53	358.61	10.03	-39.4	-51.3	3.8	8.47e-01	0	53	104	0	50	14175
2026-01-11 03:32:04.56	358.25	10.23	-39.3	-51.4	3.8	8.47e-01	0	54	104	0	50	14230
2026-01-11 03:32:07.59	357.88	10.43	-39.4	-51.4	3.8	8.46e-01	0	54	104	0	50	14312
2026-01-11 03:32:10.62	357.51	10.62	-39.5	-51.4	3.8	8.46e-01	0	54	104	0	50	14344
2026-01-11 03:32:13.65	357.13	10.82	-39.6	-51.6	3.8	8.47e-01	0	54	104	0	50	14662
2026-01-11 03:32:16.68	356.75	11.02	-39.5	-51.4	3.8	8.46e-01	0	54	104	0	50	14290
2026-01-11 03:32:19.71	356.36	11.22	-38.7	-51.3	3.8	8.46e-01	0	54	104	0	49	14927
2026-01-11 03:32:22.74	355.97	11.42	-39.7	-51.4	3.8	8.46e-01	0	54	104	0	49	15111
2026-01-11 03:32:25.77	355.57	11.62	-40.6	-52.5	3.8	8.46e-01	0	54	104	0	51	15262
2026-01-11 03:32:28.80	355.16	11.82	-39.7	-51.6	3.8	8.46e-01	0	54	104	0	51	13742
2026-01-11 03:32:31.83	354.75	12.02	-39.8	-51.6	3.8	8.46e-01	0	54	104	0	51	13802
2026-01-11 03:32:34.86	354.33	12.22	-40.1	-51.9	3.8	8.46e-01	0	54	104	0	51	14296
2026-01-11 03:32:37.89	353.91	12.42	-40.1	-51.9	3.8	8.47e-01	0	55	104	0	51	14234
2026-01-11 03:32:40.92	353.48	12.62	-39.8	-51.8	3.8	8.47e-01	0	54	104	0	51	14131
2026-01-11 03:32:43.95	353.05	12.82	-40.6	-52.3	3.8	8.46e-01	0	54	104	0	51	14943
2026-01-11 03:32:46.99	352.61	13.02	-40.1	-52.1	3.8	8.46e-01	0	55	104	0	51	14543
2026-01-11 03:32:50.02	352.16	13.22	-40.6	-52.2	3.8	8.47e-01	0	55	104	0	51	14773
2026-01-11 03:32:53.05	351.71	13.42	-40.6	-52.3	3.8	8.46e-01	0	55	104	0	51	14896
2026-01-11 03:32:56.08	351.25	13.62	-40.6	-52.2	3.8	8.46e-01	0	55	104	0	51	14722
2026-01-11 03:32:59.11	350.79	13.82	-40.6	-52.2	3.8	8.46e-01	0	55	104	0	51	14822
2026-01-11 03:33:02.14	350.31	14.02	-40.4	-52.5	3.8	8.47e-01	0	55	104	0	51	15316
2026-01-11 03:33:05.17	349.83	14.22	-40.5	-52.4	3.8	8.46e-01	0	55	104	0	51	15069
2026-01-11 03:33:08.20	349.35	14.42	-41.0	-52.8	3.8	8.47e-01	0	55	104	0	52	14891
2026-01-11 03:33:11.23	348.86	14.62	-40.4	-52.3	3.8	8.46e-01	0	55	104	0	52	14081
2026-01-11 03:33:14.26	348.36	14.81	-40.6	-52.5	3.8	8.47e-01	0	55	104	0	52	14420
2026-01-11 03:33:17.29	347.85	15.01	-41.1	-53.0	3.8	8.46e-01	0	55	104	0	53	14471
2026-01-11 03:33:20.33	347.34	15.21	-41.4	-53.1	3.8	8.46e-01	0	55	104	0	53	14571
2026-01-11 03:33:23.36	346.82	15.40	-41.3	-53.1	3.8	8.47e-01	0	55	104	0	53	14648
2026-01-11 03:33:26.38	346.30	15.60	-41.0	-52.6	3.8	8.46e-01	0	55	104	0	53	13754
2026-01-11 03:33:29.41	345.76	15.79	-40.4	-52.2	3.8	8.45e-01	0	55	104	0	52	14019
2026-01-11 03:33:32.45	345.22	15.99	-40.4	-52.3	3.8	8.46e-01	0	55	104	0	52	14062
2026-01-11 03:33:35.47	344.68	16.18	-40.5	-52.2	3.8	8.46e-01	0	55	104	0	52	13965
2026-01-11 03:33:38.50	344.12	16.37	-40.5	-52.3	3.8	8.46e-01	0	55	104	0	51	14979
2026-01-11 03:33:41.53	343.56	16.56	-40.6	-52.3	3.8	8.46e-01	0	55	104	0	52	14193
2026-01-11 03:33:44.56	342.99	16.75	-40.0	-52.3	3.8	8.45e-01	0	56	104	0	51	14898
2026-01-11 03:33:47.59	342.42	16.93	-40.4	-52.2	3.8	8.45e-01	0	55	104	0	51	14868
2026-01-11 03:33:50.62	341.83	17.12	-40.2	-52.0	3.8	8.46e-01	0	55	104	0	51	14524
2026-01-11 03:33:53.65	341.24	17.30	-40.5	-52.2	3.8	8.46e-01	0	56	104	0	51	14858
2026-01-11 03:33:56.68	340.65	17.48	-40.3	-52.1	3.8	8.46e-01	0	55	104	0	52	13864
2026-01-11 03:33:59.71	340.04	17.66	-40.6	-50.5	3.8	8.47e-01	0	55	104	0	52	11467
2026-01-11 03:34:02.74	339.43	17.84	-39.7	-44.0	8.2	1.64e-01	0	56	0	5242880	51	5772
2026-01-11 03:34:05.77	338.81	18.01	-36.1	-37.8	15.5	1.10e-06	0	55	0	23068672	44	4219
2026-01-11 03:34:08.80	338.18	18.19	-34.9	-36.4	17.4	0.00e+00	0	56	0	39845888	41	4248
2026-01-11 03:34:11.83	337.55	18.36	-35.8	-37.4	16.7	0.00e+00	0	56	0	56623104	42	4523
2026-01-11 03:34:14.86	336.90	18.53	-35.5	-37.0	17.5	0.00e+00	0	56	0	73400320	42	4295
2026-01-11 03:34:17.89	336.26	18.69	-35.6	-37.0	17.5	0.00e+00	0	56	0	91226112	42	4332
2026-01-11 03:34:20.92	335.60	18.86	-35.5	-36.8	17.8	0.00e+00	0	56	0	108003328	42	4241
2026-01-11 03:34:23.95	334.94	19.01	-35.1	-36.5	18.2	0.00e+00	0	56	0	124780544	42	4060
2026-01-11 03:34:26.98	334.27	19.17	-35.3	-36.6	18.1	0.00e+00	0	56	0	141557760	42	4120
2026-01-11 03:34:30.01	333.59	19.33	-35.1	-36.4	18.3	0.00e+00	0	56	0	159383552	42	4042
2026-01-11 03:34:33.04	332.90	19.48	-35.0	-36.3	18.5	0.00e+00	0	56	0	176160768	42	3974
2026-01-11 03:34:36.07	332.21	19.62	-34.9	-36.2	18.6	0.00e+00	0	56	0	192937984	41	4150
2026-01-11 03:34:39.10	331.52	19.77	-34.7	-35.9	18.8	0.00e+00	0	56	0	209715200	41	4034
2026-01-11 03:34:42.13	330.81	19.91	-34.7	-36.0	18.8	0.00e+00	0	56	0	227540992	41	4064
2026-01-11 03:34:45.16	330.10	20.04	-34.7	-35.9	18.9	0.00e+00	0	56	0	244318208	41	4039
2026-01-11 03:34:48.19	329.38	20.17	-34.8	-36.1	18.7	0.00e+00	0	56	0	261095424	41	4123
2026-01-11 03:34:51.22	328.66	20.30	-34.9	-36.2	18.6	0.00e+00	0	56	0	278921216	41	4149
2026-01-11 03:34:54.24	327.93	20.43	-34.7	-36.0	18.8	0.00e+00	0	56	0	295698432	41	4071
2026-01-11 03:34:57.28	327.20	20.55	-34.8	-36.1	18.7	0.00e+00	0	56	0	312475648	41	4126
2026-01-11 03:35:00.31	326.46	20.66	-34.8	-36.1	18.7	0.00e+00	0	56	0	329252864	41	4108
2026-01-11 03:35:03.34	325.71	20.77	-34.7	-36.0	18.8	0.00e+00	0	56	0	346030080	41	4066
2026-01-11 03:35:06.36	324.96	20.88	-34.5	-35.8	19.1	0.00e+00	0	56	0	363855872	41	3959
2026-01-11 03:35:09.40	324.20	20.98	-34.3	-35.5	19.3	0.00e+00	0	56	0	380633088	40	4092
2026-01-11 03:35:12.42	323.44	21.07	-34.4	-35.6	19.2	0.00e+00	0	56	0	397410304	40	4109
2026-01-11 03:35:15.46	322.67	21.16	-34.3	-35.6	19.2	0.00e+00	0	56	0	414187520	40	4102
2026-01-11 03:35:18.49	321.90	21.25	-34.3	-35.5	19.3	0.00e+00	0	56	0	432013312	40	4084
2026-01-11 03:35:21.52	321.13	21.33	-34.3	-35.5	19.3	0.00e+00	0	56	0	448790528	40	4097
2026-01-11 03:35:24.55	320.35	21.41	-34.5	-35.7	19.1	0.00e+00	0	56	0	465567744	40	4173
2026-01-11 03:35:27.58	319.56	21.48	-34.5	-35.8	19.0	0.00e+00	0	56	0	482344960	40	4197
2026-01-11 03:35:30.61	318.78	21.54	-34.6	-35.9	18.9	0.00e+00	0	56	0	500170752	40	4262
2026-01-11 03:35:33.64	317.99	21.60	-34.6	-35.9	18.9	0.00e+00	0	56	0	516947968	40	4268
2026-01-11 03:35:36.67	317.20	21.65	-34.2	-35.4	19.4	0.00e+00	0	56	0	533725184	40	4036
2026-01-11 03:35:39.69	316.40	21.70	-34.3	-35.5	19.3	0.00e+00	0	56	0	550502400	40	4072
2026-01-11 03:35:42.72	315.61	21.74	-34.4	-35.6	19.2	0.00e+00	0	56	0	568328192	40	4125
2026-01-11 03:35:45.76	314.80	21.77	-34.3	-35.5	19.3	0.00e+00	0	56	0	585105408	40	4087
2026-01-11 03:35:48.79	314.00	21.80	-34.2	-35.4	19.4	0.00e+00	0	56	0	601882624	40	4051
2026-01-11 03:35:51.82	313.20	21.83	-34.2	-35.4	19.4	0.00e+00	0	56	0	619708416	40	4020
2026-01-11 03:35:54.85	312.40	21.85	-34.4	-35.6	19.2	0.00e+00	0	56	0	636485632	40	4134
2026-01-11 03:35:57.88	311.59	21.86	-34.6	-35.8	19.0	0.00e+00	0	56	0	653262848	40	4230
2026-01-11 03:36:00.91	310.79	21.86	-34.4	-35.6	19.2	0.00e+00	0	56	0	670040064	40	4137
2026-01-11 03:36:03.95	309.98	21.86	-34.1	-35.3	19.5	0.00e+00	0	56	0	686817280	40	3972
2026-01-11 03:36:06.98	309.17	21.86	-34.2	-35.4	19.4	0.00e+00	0	56	0	704643072	40	4043
2026-01-11 03:36:10.00	308.37	21.84	-34.3	-35.5	19.4	0.00e+00	0	56	0	721420288	40	4058
2026-01-11 03:36:13.03	307.57	21.83	-34.4	-35.6	19.2	0.00e+00	0	56	0	738197504	40	4113
2026-01-11 03:36:16.06	306.76	21.80	-34.6	-35.8	19.0	0.00e+00	0	56	0	754974720	40	4211
2026-01-11 03:36:19.09	305.96	21.77	-34.5	-35.7	19.1	0.00e+00	0	56	0	772800512	40	4175
2026-01-11 03:36:22.12	305.16	21.73	-34.5	-35.8	19.0	0.00e+00	0	56	0	789577728	40	4206
2026-01-11 03:36:25.15	304.36	21.69	-34.3	-35.5	19.3	0.00e+00	0	56	0	806354944	40	4082
2026-01-11 03:36:28.18	303.57	21.64	-34.3	-35.5	19.3	0.00e+00	0	56	0	824180736	40	4076
2026-01-11 03:36:31.21	302.77	21.59	-34.1	-35.3	19.5	0.00e+00	0	56	0	840957952	40	3993
2026-01-11 03:36:34.24	301.98	21.53	-34.4	-35.6	19.2	0.00e+00	0	56	0	857735168	40	4134
2026-01-11 03:36:37.27	301.20	21.47	-34.3	-35.5	19.3	0.00e+00	0	56	0	874512384	40	4064
2026-01-11 03:36:40.30	300.41	21.40	-34.3	-35.5	19.3	0.00e+00	0	56	0	891289600	40	4073
2026-01-11 03:36:43.33	299.63	21.32	-34.2	-35.4	19.4	0.00e+00	0	56	0	909115392	40	4026
2026-01-11 03:36:46.36	298.86	21.24	-34.2	-35.4	19.4	0.00e+00	0	56	0	925892608	40	4036
2026-01-11 03:36:49.39	298.08	21.15	-34.3	-35.5	19.3	0.00e+00	0	56	0	942669824	40	4087
2026-01-11 03:36:52.41	297.32	21.06	-34.3	-35.5	19.3	0.00e+00	0	56	0	960495616	40	4052
2026-01-11 03:36:55.45	296.55	20.96	-34.4	-35.6	19.2	0.00e+00	0	56	0	977272832	40	4124
2026-01-11 03:36:58.48	295.80	20.86	-34.3	-35.5	19.3	0.00e+00	0	56	0	994050048	40	4059
2026-01-11 03:37:01.51	295.04	20.76	-34.1	-35.3	19.4	0.00e+00	0	56	0	1010827264	40	3989
2026-01-11 03:37:04.54	294.30	20.65	-34.4	-35.7	19.1	0.00e+00	0	57	0	1028653056	40	4151
2026-01-11 03:37:07.57	293.55	20.53	-34.3	-35.6	19.2	0.00e+00	0	56	0	1045430272	40	4109
2026-01-11 03:37:10.60	292.82	20.41	-34.7	-35.9	18.8	0.00e+00	0	57	0	1062207488	40	4281
2026-01-11 03:37:13.63	292.09	20.29	-34.7	-35.9	18.8	0.00e+00	0	56	0	1078984704	40	4287
2026-01-11 03:37:16.66	291.36	20.16	-34.5	-35.7	19.0	0.00e+00	0	56	0	1095761920	40	4187
2026-01-11 03:37:19.69	290.64	20.02	-34.4	-35.6	19.1	0.00e+00	0	56	0	1113587712	40	4144
2026-01-11 03:37:22.72	289.93	19.89	-34.5	-35.8	19.0	0.00e+00	0	56	0	1130364928	40	4198
2026-01-11 03:37:25.74	289.23	19.75	-34.6	-35.9	18.9	0.00e+00	0	56	0	1147142144	40	4247
2026-01-11 03:37:28.77	288.53	19.60	-34.7	-36.0	18.8	0.00e+00	0	56	0	1164967936	40	4311
2026-01-11 03:37:31.80	287.84	19.45	-34.8	-36.0	18.7	0.00e+00	0	56	0	1181745152	40	4328
2026-01-11 03:37:34.84	287.15	19.30	-34.9	-36.2	18.5	0.00e+00	0	56	0	1198522368	40	4415
2026-01-11 03:37:37.85	286.47	19.15	-34.7	-36.0	18.7	0.00e+00	0	57	0	1215299584	40	4300
2026-01-11 03:37:40.88	285.80	18.99	-34.8	-36.1	18.6	0.00e+00	0	56	0	1233125376	40	4362
2026-01-11 03:37:43.91	285.14	18.83	-34.9	-36.2	18.5	0.00e+00	0	56	0	1249902592	40	4410
2026-01-11 03:37:46.94	284.48	18.67	-35.1	-36.3	18.3	0.00e+00	0	56	0	1266679808	40	4493
2026-01-11 03:37:49.97	283.83	18.50	-35.1	-36.4	18.3	0.00e+00	0	56	0	1283457024	40	4507
2026-01-11 03:37:53.00	283.19	18.33	-35.2	-36.5	18.1	0.00e+00	0	56	0	1300234240	40	4590
2026-01-11 03:37:56.03	282.55	18.16	-35.3	-36.6	18.0	0.00e+00	0	56	0	1318060032	41	4363
2026-01-11 03:37:59.05	281.92	17.99	-35.2	-36.5	18.1	0.00e+00	0	56	0	1334837248	41	4331
2026-01-11 03:38:02.08	281.30	17.81	-35.5	-36.9	17.8	0.00e+00	0	56	0	1351614464	41	4506
2026-01-11 03:38:05.11	280.69	17.63	-35.2	-36.5	18.1	0.00e+00	0	56	0	1369440256	41	4335
2026-01-11 03:38:08.14	280.08	17.45	-35.2	-36.5	18.0	0.00e+00	0	56	0	1386217472	41	4335
2026-01-11 03:38:11.17	279.48	17.27	-35.3	-36.7	17.9	0.00e+00	0	56	0	1402994688	41	4393
2026-01-11 03:38:14.20	278.89	17.09	-35.3	-36.7	17.9	0.00e+00	0	56	0	1419771904	41	4394
2026-01-11 03:38:17.23	278.30	16.90	-35.4	-36.7	17.8	0.00e+00	0	56	0	1437597696	41	4431
2026-01-11 03:38:20.26	277.72	16.71	-35.5	-36.8	17.7	0.00e+00	0	56	0	1454374912	41	4489
2026-01-11 03:38:23.29	277.15	16.52	-35.7	-37.2	17.4	0.00e+00	0	56	0	1471152128	42	4392
2026-01-11 03:38:26.32	276.59	16.33	-35.4	-36.8	17.8	0.00e+00	0	56	0	1487929344	42	4205
2026-01-11 03:38:29.36	276.03	16.14	-35.7	-37.1	17.4	0.00e+00	0	56	0	1505755136	42	4366
2026-01-11 03:38:32.39	275.48	15.95	-35.7	-37.2	17.3	0.00e+00	0	56	0	1522532352	42	4401
2026-01-11 03:38:35.42	274.94	15.75	-35.8	-37.3	17.2	0.00e+00	0	56	0	1539309568	42	4461
2026-01-11 03:38:38.45	274.40	15.56	-36.0	-37.5	17.1	0.00e+00	0	56	0	1557135360	42	4547
2026-01-11 03:38:41.48	273.87	15.36	-35.6	-37.0	17.5	0.00e+00	0	56	0	1573912576	42	4311
2026-01-11 03:38:44.51	273.35	15.17	-35.5	-36.9	17.6	0.00e+00	0	57	0	1590689792	42	4286
2026-01-11 03:38:47.54	272.84	14.97	-35.8	-37.3	17.2	0.00e+00	0	56	0	1607467008	42	4464
2026-01-11 03:38:50.57	272.33	14.77	-35.8	-37.3	17.2	0.00e+00	0	57	0	1624244224	42	4445
2026-01-11 03:38:53.60	271.83	14.57	-36.0	-37.4	17.0	0.00e+00	0	57	0	1642070016	42	4533
2026-01-11 03:38:56.63	271.34	14.37	-36.0	-37.4	17.0	0.00e+00	0	57	0	1658847232	42	4544
2026-01-11 03:38:59.66	270.85	14.17	-35.9	-37.4	17.1	0.00e+00	0	57	0	1675624448	42	4504
2026-01-11 03:39:02.69	270.37	13.97	-36.0	-37.4	17.0	0.00e+00	0	56	0	1692401664	42	4529
2026-01-11 03:39:05.72	269.89	13.77	-36.1	-37.6	16.8	0.00e+00	0	57	0	1710227456	42	4615
2026-01-11 03:39:08.76	269.43	13.57	-36.1	-37.6	16.8	0.00e+00	0	57	0	1727004672	43	4359
2026-01-11 03:39:11.78	268.97	13.37	-36.2	-37.7	16.6	0.00e+00	0	56	0	1743781888	43	4438
2026-01-11 03:39:14.81	268.51	13.17	-36.4	-38.0	16.4	0.00e+00	0	57	0	1761607680	43	4560
2026-01-11 03:39:17.84	268.06	12.97	-36.3	-37.8	16.6	0.00e+00	0	56	0	1778384896	43	4467
2026-01-11 03:39:20.87	267.62	12.77	-36.5	-38.1	16.3	0.00e+00	0	56	0	1795162112	43	4606
2026-01-11 03:39:23.90	267.18	12.57	-36.3	-37.9	16.4	0.00e+00	0	56	0	1811939328	43	4517
2026-01-11 03:39:26.93	266.75	12.37	-36.5	-38.0	16.3	0.00e+00	0	56	0	1828716544	43	4585
2026-01-11 03:39:29.96	266.33	12.17	-36.4	-38.0	16.3	0.00e+00	0	57	0	1846542336	43	4562
2026-01-11 03:39:32.99	265.91	11.96	-36.6	-38.2	16.1	0.00e+00	0	56	0	1863319552	43	4681
2026-01-11 03:39:36.02	265.50	11.76	-36.5	-38.1	16.1	0.00e+00	0	57	0	1880096768	43	4638
2026-01-11 03:39:39.05	265.09	11.56	-36.5	-38.1	16.1	0.00e+00	0	57	0	1896873984	43	4637
2026-01-11 03:39:42.08	264.69	11.36	-36.6	-38.3	15.9	0.00e+00	0	56	0	1914699776	43	4722
2026-01-11 03:39:45.11	264.29	11.16	-36.9	-38.6	15.8	0.00e+00	0	56	0	1931476992	44	4622
2026-01-11 03:39:48.14	263.90	10.96	-36.9	-38.6	15.7	0.00e+00	0	57	0	1948254208	44	4626
2026-01-11 03:39:51.17	263.51	10.76	-37.0	-38.7	15.6	0.00e+00	0	56	0	1966080000	44	4693
2026-01-11 03:39:54.20	263.13	10.56	-36.9	-38.6	15.7	0.00e+00	0	56	0	1982857216	44	4641
2026-01-11 03:39:57.23	262.76	10.37	-37.2	-38.9	15.4	1.10e-06	0	57	0	1999634432	44	4782
2026-01-11 03:40:00.26	262.39	10.17	-37.2	-39.0	15.3	0.00e+00	0	57	0	2016411648	45	4552
2026-01-11 03:40:03.30	262.02	9.97	-37.2	-39.0	15.3	0.00e+00	0	57	0	2033188864	45	4563
2026-01-11 03:40:06.33	261.66	9.77	-37.3	-39.0	15.2	0.00e+00	0	57	0	2051014656	45	4593
2026-01-11 03:40:09.36	261.31	9.58	-37.3	-39.1	15.1	0.00e+00	0	57	0	2067791872	45	4622
2026-01-11 03:40:12.39	260.96	9.38	-37.5	-39.3	14.9	0.00e+00	0	57	0	2084569088	45	4742
2026-01-11 03:40:15.42	260.61	9.18	-37.8	-39.7	14.6	1.10e-06	0	57	0	2102394880	46	4672
2026-01-11 03:40:18.45	260.27	8.99	-37.5	-39.4	14.8	0.00e+00	0	57	0	2119172096	46	4505
2026-01-11 03:40:21.48	259.94	8.79	-37.8	-39.8	14.4	1.10e-06	0	57	0	2135949312	46	4706
2026-01-11 03:40:24.51	259.61	8.60	-37.8	-39.8	14.4	1.10e-06	0	56	0	2152726528	46	4713
2026-01-11 03:40:27.54	259.28	8.41	-37.7	-39.7	14.5	0.00e+00	0	57	0	2170552320	46	4652
2026-01-11 03:40:30.57	258.96	8.21	-37.7	-39.6	14.6	4.50e-06	0	57	0	2187329536	46	4616
2026-01-11 03:40:33.60	258.64	8.02	-41.5	-45.7	9.1	0.00e+00	0	57	0	2204106752	53	6254
2026-01-11 03:40:36.63	258.32	7.83	-44.8	-56.5	3.8	8.46e-01	0	57	104	2205155328	60	14413
2026-01-11 03:40:39.67	258.01	7.64	-45.0	-56.7	3.8	8.46e-01	0	57	104	2205155328	60	14839
2026-01-11 03:40:42.70	257.71	7.45	-45.1	-56.8	3.8	8.46e-01	0	57	104	2205155328	60	14923
2026-01-11 03:40:45.73	257.41	7.26	-44.9	-56.8	3.8	8.46e-01	0	57	104	2205155328	60	14884
2026-01-11 03:40:48.77	257.11	7.07	-44.9	-56.7	3.8	8.47e-01	0	57	104	2205155328	60	14843
2026-01-11 03:40:51.80	256.81	6.88	-44.9	-56.7	3.8	8.45e-01	0	57	104	2205155328	60	14819
2026-01-11 03:40:54.83	256.52	6.69	-44.9	-56.7	3.8	8.45e-01	0	57	104	2205155328	60	14800
2026-01-11 03:40:57.86	256.24	6.51	-44.9	-56.7	3.8	8.45e-01	0	57	104	2205155328	60	14728
2026-01-11 03:41:00.89	255.95	6.32	-44.9	-56.7	3.8	8.47e-01	0	57	104	2205155328	60	14778
2026-01-11 03:41:03.93	255.68	6.13	-44.9	-56.7	3.8	8.46e-01	0	57	104	2205155328	60	14794
2026-01-11 03:41:06.96	255.40	5.95	-44.9	-56.7	3.8	8.46e-01	0	57	104	2205155328	60	14713
2026-01-11 03:41:09.99	255.13	5.77	-44.8	-56.7	3.8	8.46e-01	0	57	104	2205155328	60	14734
2026-01-11 03:41:13.03	254.86	5.58	-44.8	-56.7	3.8	8.46e-01	0	57	104	2205155328	60	14725
2026-01-11 03:41:16.06	254.60	5.40	-44.8	-56.6	3.8	8.45e-01	0	57	104	2205155328	60	14700
2026-01-11 03:41:19.09	254.33	5.22	-44.8	-56.7	3.8	8.48e-01	0	57	104	2205155328	60	14738
2026-01-11 03:41:22.13	254.08	5.04	-44.8	-56.6	3.8	8.45e-01	0	57	104	2205155328	60	14695
2026-01-11 03:41:25.16	253.82	4.85	-44.8	-56.6	3.8	8.46e-01	0	57	104	2205155328	60	14696
2026-01-11 03:41:28.19	253.57	4.67	-44.8	-56.7	3.8	8.47e-01	0	57	104	2205155328	60	14745
2026-01-11 03:41:31.22	253.32	4.50	-44.8	-56.6	3.8	8.46e-01	0	57	104	2205155328	60	14679
2026-01-11 03:41:34.26	253.07	4.32	-44.8	-56.6	3.8	8.48e-01	0	57	104	2205155328	60	14703
2026-01-11 03:41:37.29	252.83	4.14	-44.8	-56.6	3.8	8.46e-01	0	57	104	2205155328	60	14680
2026-01-11 03:41:40.32	252.59	3.96	-44.8	-56.7	3.8	8.46e-01	0	57	104	2205155328	60	14726
2026-01-11 03:41:43.36	252.36	3.78	-44.8	-56.7	3.8	8.46e-01	0	57	104	2205155328	60	14709
2026-01-11 03:41:46.39	252.12	3.61	-44.8	-56.7	3.8	8.46e-01	0	57	104	2205155328	60	14726
2026-01-11 03:41:49.42	251.89	3.43	-44.7	-56.6	3.8	8.47e-01	0	57	104	2205155328	60	14664
2026-01-11 03:41:52.45	251.67	3.26	-44.8	-56.6	3.8	8.45e-01	0	57	104	2205155328	60	14643
2026-01-11 03:41:55.49	251.44	3.09	-44.8	-56.7	3.8	8.46e-01	0	57	104	2205155328	60	14710
2026-01-11 03:41:58.52	251.22	2.91	-44.8	-56.6	3.8	8.45e-01	0	57	104	2205155328	60	14668
2026-01-11 03:42:01.55	251.00	2.74	-44.8	-56.6	3.8	8.46e-01	0	57	104	2205155328	60	14684
2026-01-11 03:42:04.59	250.78	2.57	-44.8	-56.6	3.8	8.45e-01	0	57	104	2205155328	60	14679
2026-01-11 03:42:07.62	250.57	2.40	-44.8	-56.6	3.8	8.46e-01	0	57	104	2205155328	60	14653
2026-01-11 03:42:10.65	250.36	2.23	-44.8	-56.6	3.8	8.47e-01	0	57	104	2205155328	60	14702
2026-01-11 03:42:13.69	250.15	2.06	-44.8	-56.6	3.8	8.46e-01	0	57	104	2205155328	60	14675
2026-01-11 03:42:16.72	249.94	1.89	-44.8	-56.6	3.8	8.46e-01	0	57	104	2205155328	60	14654

#Closed at: 2026-01-11 03:42:16
#Recorded file [2205 MB]: D:/lorett/data/31039_260111_062947.dat