passes_logs/2026/01/11/R2.0S_Moscow/R2.0S_Moscow__20260111_231105_NOAA_20_JPSS-1_rec.log

#Pass ID: 20260111_231105_NOAA 20 (JPSS-1)
#Satellite: NOAA 20 (JPSS-1)
#Configuration: NOAA 20
#almurnet v.1.7.20251203
#Start time: 2026-01-11 23:11:05

#Version: 2.2.20231116
#Station: R2.0S_Moscow
#Location: 37.707566 lon 55.798166 lat
#TLE: 1 43013U 17073A   26011.31235446  .00000090  00000+0  63634-4 0  9991
#TLE: 2 43013  98.7632 312.2907 0001646  44.6084 315.5224 14.19535308422217

#Time	Az	El	Level	Level2	SNR	BER	BlckErr	Temp	State	Recorded	gain1	gain2
2026-01-11 23:11:05.62	18.52	2.01	-41.4	-56.4	3.8	1.49e+00	0	48	0	0	54	20111
2026-01-11 23:11:09.66	18.63	2.27	-41.3	-56.3	3.8	1.49e+00	0	48	104	0	53	21258
2026-01-11 23:11:13.70	18.73	2.52	-41.4	-56.3	3.8	1.49e+00	0	49	104	0	53	21249
2026-01-11 23:11:17.75	18.84	2.78	-41.4	-56.3	3.8	1.49e+00	0	49	104	0	53	21214
2026-01-11 23:11:21.79	18.95	3.04	-41.4	-56.4	3.8	1.49e+00	0	49	104	0	53	21266
2026-01-11 23:11:25.83	19.06	3.31	-41.3	-56.3	3.8	1.49e+00	0	49	104	0	53	21251
2026-01-11 23:11:29.87	19.17	3.57	-41.3	-56.3	3.8	1.49e+00	0	50	104	0	53	21200
2026-01-11 23:11:33.92	19.28	3.84	-41.3	-56.3	3.8	1.49e+00	0	50	104	0	53	21249
2026-01-11 23:11:37.96	19.40	4.11	-41.3	-56.3	3.8	1.49e+00	0	50	104	0	53	21253
2026-01-11 23:11:42.01	19.52	4.39	-41.4	-56.3	3.8	1.49e+00	0	50	104	0	53	21228
2026-01-11 23:11:46.05	19.63	4.66	-41.3	-56.3	3.8	1.49e+00	0	50	104	0	53	21242
2026-01-11 23:11:50.10	19.76	4.94	-41.3	-56.3	3.8	1.49e+00	0	51	104	0	53	21257
2026-01-11 23:11:54.14	19.88	5.23	-41.3	-56.3	3.8	1.49e+00	0	51	104	0	53	21181
2026-01-11 23:11:58.19	20.00	5.51	-41.3	-56.3	3.8	1.49e+00	0	51	104	0	53	21245
2026-01-11 23:12:02.23	20.13	5.80	-41.4	-56.4	3.8	1.49e+00	0	51	104	0	53	21265
2026-01-11 23:12:06.27	20.26	6.09	-41.3	-56.3	3.8	1.49e+00	0	52	104	0	53	21186
2026-01-11 23:12:10.32	20.39	6.39	-41.4	-56.4	3.8	1.49e+00	0	52	104	0	53	21261
2026-01-11 23:12:14.36	20.53	6.69	-41.4	-56.3	3.8	1.49e+00	0	52	104	0	53	21186
2026-01-11 23:12:18.41	20.66	6.99	-41.3	-56.2	3.8	1.49e+00	0	52	104	0	53	20970
2026-01-11 23:12:22.45	20.80	7.29	-41.2	-55.9	3.8	1.49e+00	0	52	104	0	53	20282
2026-01-11 23:12:26.50	20.94	7.60	-41.1	-53.3	4.1	1.48e+00	0	52	0	0	53	14928
2026-01-11 23:12:30.54	21.09	7.91	-40.4	-47.6	7.4	1.35e-01	0	53	0	6291456	52	8258
2026-01-11 23:12:34.58	21.23	8.23	-40.0	-45.5	10.0	9.62e-03	0	53	0	13631488	51	6869
2026-01-11 23:12:38.62	21.38	8.55	-40.9	-45.9	10.4	5.73e-03	0	53	0	18874368	53	6362
2026-01-11 23:12:42.67	21.54	8.87	-40.9	-45.4	11.1	1.12e-03	0	53	0	26214400	53	6002
2026-01-11 23:12:46.70	21.69	9.20	-40.7	-44.9	11.7	6.94e-04	0	53	0	34603008	53	5712
2026-01-11 23:12:50.74	21.85	9.53	-40.7	-44.9	11.8	5.00e-04	0	53	0	41943040	53	5672
2026-01-11 23:12:54.78	22.01	9.87	-40.8	-44.8	12.1	2.97e-04	0	53	0	49283072	53	5607
2026-01-11 23:12:58.82	22.18	10.21	-40.9	-44.7	12.3	1.94e-04	0	54	0	56623104	53	5577
2026-01-11 23:13:02.85	22.35	10.55	-40.8	-44.4	12.7	1.07e-04	0	54	0	65011712	53	5401
2026-01-11 23:13:06.89	22.52	10.90	-40.8	-44.4	12.8	3.81e-05	0	54	0	72351744	53	5378
2026-01-11 23:13:10.93	22.70	11.26	-40.8	-44.2	13.0	4.50e-05	0	54	0	79691776	53	5278
2026-01-11 23:13:14.97	22.88	11.62	-40.8	-44.1	13.3	1.37e-05	0	54	0	87031808	53	5190
2026-01-11 23:13:19.01	23.06	11.98	-40.8	-44.1	13.4	2.05e-05	0	54	0	94371840	53	5175
2026-01-11 23:13:23.04	23.25	12.35	-40.7	-43.9	13.6	9.90e-06	0	54	0	102760448	53	5070
2026-01-11 23:13:27.08	23.44	12.73	-40.6	-43.7	13.8	3.80e-06	0	54	0	110100480	53	4961
2026-01-11 23:13:31.12	23.64	13.11	-40.6	-43.7	13.8	5.30e-06	0	54	0	117440512	53	4983
2026-01-11 23:13:35.16	23.84	13.50	-40.5	-43.6	14.0	3.00e-06	0	54	0	124780544	53	4889
2026-01-11 23:13:39.20	24.05	13.89	-40.6	-43.6	14.1	3.00e-06	0	54	0	133169152	53	4883
2026-01-11 23:13:43.23	24.26	14.29	-40.4	-43.3	14.4	0.00e+00	0	54	0	140509184	52	5015
2026-01-11 23:13:47.27	24.48	14.70	-40.4	-43.2	14.5	1.50e-06	0	54	0	147849216	52	4972
2026-01-11 23:13:51.31	24.70	15.11	-40.3	-43.2	14.6	0.00e+00	0	55	0	155189248	52	4939
2026-01-11 23:13:55.35	24.93	15.53	-40.3	-43.1	14.7	0.00e+00	0	55	0	162529280	52	4879
2026-01-11 23:13:59.39	25.16	15.96	-40.3	-43.0	14.7	7.00e-07	0	55	0	170917888	52	4868
2026-01-11 23:14:03.42	25.40	16.39	-40.2	-42.9	15.0	0.00e+00	0	55	0	178257920	52	4776
2026-01-11 23:14:07.46	25.65	16.83	-40.2	-42.8	15.1	0.00e+00	0	55	0	185597952	52	4745
2026-01-11 23:14:11.48	25.91	17.28	-40.1	-42.7	15.2	0.00e+00	0	55	0	192937984	52	4700
2026-01-11 23:14:15.52	26.17	17.73	-40.1	-42.7	15.2	0.00e+00	0	55	0	200278016	52	4693
2026-01-11 23:14:19.56	26.44	18.20	-40.0	-42.5	15.4	7.00e-07	0	55	0	208666624	52	4596
2026-01-11 23:14:23.59	26.72	18.67	-40.0	-42.4	15.6	0.00e+00	0	55	0	216006656	51	4810
2026-01-11 23:14:27.63	27.00	19.15	-39.9	-42.3	15.7	0.00e+00	0	55	0	223346688	51	4737
2026-01-11 23:14:31.67	27.30	19.64	-39.8	-42.2	15.9	0.00e+00	0	55	0	230686720	51	4675
2026-01-11 23:14:35.71	27.60	20.14	-39.8	-42.2	15.9	0.00e+00	0	55	0	239075328	51	4672
2026-01-11 23:14:39.74	27.91	20.65	-39.7	-42.0	16.1	0.00e+00	0	55	0	246415360	51	4568
2026-01-11 23:14:43.78	28.23	21.17	-39.7	-41.9	16.2	0.00e+00	0	55	0	253755392	51	4534
2026-01-11 23:14:47.82	28.57	21.70	-39.6	-41.8	16.4	0.00e+00	0	55	0	261095424	51	4467
2026-01-11 23:14:51.85	28.91	22.23	-39.4	-41.6	16.6	0.00e+00	0	55	0	268435456	50	4632
2026-01-11 23:14:55.89	29.27	22.78	-39.4	-41.5	16.7	0.00e+00	0	56	0	276824064	50	4575
2026-01-11 23:14:59.93	29.64	23.35	-39.2	-41.3	16.9	0.00e+00	0	56	0	284164096	50	4461
2026-01-11 23:15:03.97	30.02	23.92	-39.3	-41.3	16.9	0.00e+00	0	55	0	291504128	50	4493
2026-01-11 23:15:08.01	30.42	24.50	-39.4	-41.5	16.8	0.00e+00	0	56	0	298844160	50	4575
2026-01-11 23:15:12.05	30.83	25.10	-39.6	-41.8	16.5	0.00e+00	0	56	0	307232768	50	4724
2026-01-11 23:15:16.09	31.25	25.71	-39.7	-41.9	16.4	0.00e+00	0	56	0	314572800	50	4794
2026-01-11 23:15:20.12	31.69	26.32	-39.9	-42.2	16.1	0.00e+00	0	56	0	321912832	50	4960
2026-01-11 23:15:24.16	32.15	26.96	-40.2	-42.6	15.7	0.00e+00	0	56	0	329252864	50	5217
2026-01-11 23:15:28.20	32.63	27.60	-40.7	-43.3	15.0	0.00e+00	0	56	0	336592896	51	5328
2026-01-11 23:15:32.24	33.12	28.26	-40.9	-43.7	14.5	0.00e+00	0	56	0	344981504	52	5271
2026-01-11 23:15:36.27	33.64	28.94	-41.2	-44.2	14.0	3.80e-06	0	56	0	352321536	53	5274
2026-01-11 23:15:40.31	34.18	29.63	-41.5	-44.7	13.5	7.60e-06	0	56	0	359661568	53	5552
2026-01-11 23:15:44.35	34.74	30.33	-41.7	-45.1	13.1	2.28e-05	0	56	0	367001600	53	5827
2026-01-11 23:15:48.39	35.32	31.05	-42.2	-46.0	12.2	1.40e-04	0	56	0	375390208	54	6118
2026-01-11 23:15:52.42	35.93	31.78	-42.2	-46.0	12.3	2.11e-04	0	56	0	382730240	55	5744
2026-01-11 23:15:56.46	36.57	32.52	-41.9	-45.4	12.9	4.57e-05	0	56	0	390070272	55	5349
2026-01-11 23:16:00.50	37.24	33.28	-41.8	-45.2	13.1	3.35e-05	0	56	0	397410304	55	5240
2026-01-11 23:16:04.54	37.94	34.06	-41.8	-45.2	13.2	2.97e-05	0	56	0	404750336	55	5219
2026-01-11 23:16:08.58	38.67	34.85	-41.6	-44.8	13.5	7.60e-06	0	56	0	413138944	54	5312
2026-01-11 23:16:12.62	39.44	35.66	-41.3	-44.3	14.1	3.00e-06	0	56	0	420478976	54	4992
2026-01-11 23:16:16.66	40.25	36.49	-41.0	-43.9	14.5	7.00e-07	0	56	0	427819008	54	4760
2026-01-11 23:16:20.69	41.10	37.32	-40.9	-43.7	14.7	0.00e+00	0	56	0	435159040	53	4936
2026-01-11 23:16:24.74	41.99	38.18	-40.8	-43.6	14.8	7.00e-07	0	56	0	443547648	53	4887
2026-01-11 23:16:28.78	42.94	39.04	-40.8	-43.4	15.0	0.00e+00	0	56	0	450887680	53	4814
2026-01-11 23:16:32.81	43.93	39.92	-40.8	-43.6	14.8	0.00e+00	0	56	0	458227712	53	4877
2026-01-11 23:16:36.85	44.97	40.81	-40.2	-42.7	15.7	0.00e+00	0	56	0	465567744	52	4660
2026-01-11 23:16:40.89	46.08	41.71	-40.6	-43.2	15.2	0.00e+00	0	56	0	472907776	52	4966
2026-01-11 23:16:44.93	47.25	42.63	-40.9	-43.7	14.8	0.00e+00	0	56	0	481296384	52	5225
2026-01-11 23:16:48.97	48.49	43.55	-41.2	-44.1	14.3	0.00e+00	0	56	0	488636416	53	5213
2026-01-11 23:16:53.01	49.80	44.48	-41.9	-45.4	13.0	3.12e-05	0	56	0	495976448	54	5679
2026-01-11 23:16:57.05	51.19	45.42	-41.5	-44.7	13.8	6.10e-06	0	56	0	503316480	54	5222
2026-01-11 23:17:01.08	52.65	46.35	-43.0	-47.4	11.1	1.41e-03	0	56	0	511705088	56	6366
2026-01-11 23:17:05.12	54.22	47.29	-42.9	-47.2	11.3	6.85e-04	0	56	0	519045120	56	6221
2026-01-11 23:17:09.16	55.87	48.23	-44.0	-50.0	8.4	4.19e-02	0	56	0	526385152	58	7668
2026-01-11 23:17:13.20	57.63	49.16	-43.0	-47.4	11.2	1.30e-03	0	56	0	533725184	58	5680
2026-01-11 23:17:17.23	59.50	50.07	-43.2	-47.8	10.7	3.63e-03	0	56	0	541065216	57	6306
2026-01-11 23:17:21.27	61.48	50.98	-41.6	-44.7	13.7	6.80e-06	0	56	0	549453824	55	4964
2026-01-11 23:17:25.31	63.58	51.86	-40.8	-43.5	15.0	0.00e+00	0	56	0	556793856	53	4844
2026-01-11 23:17:29.35	65.81	52.72	-40.5	-43.1	15.5	0.00e+00	0	56	0	564133888	52	4883
2026-01-11 23:17:33.39	68.17	53.54	-40.2	-42.5	16.1	0.00e+00	0	56	0	571473920	52	4572
2026-01-11 23:17:37.43	70.66	54.33	-40.8	-43.5	15.0	0.00e+00	0	57	0	579862528	52	5111
2026-01-11 23:17:41.47	73.29	55.07	-40.3	-42.6	15.9	0.00e+00	0	57	0	587202560	52	4644
2026-01-11 23:17:45.51	76.06	55.76	-40.5	-42.9	15.6	0.00e+00	0	56	0	594542592	52	4810
2026-01-11 23:17:49.55	78.95	56.39	-40.6	-43.2	15.4	0.00e+00	0	56	0	601882624	52	4936
2026-01-11 23:17:53.59	81.98	56.95	-40.9	-43.6	14.9	0.00e+00	0	57	0	609222656	52	5214
2026-01-11 23:17:57.63	85.12	57.44	-41.7	-44.9	13.7	7.00e-07	0	57	0	617611264	53	5658
2026-01-11 23:18:01.67	88.37	57.85	-42.5	-46.4	12.0	8.54e-05	0	56	0	624951296	55	6059
2026-01-11 23:18:05.71	91.71	58.18	-42.9	-47.2	11.4	8.53e-04	0	56	0	632291328	57	5872
2026-01-11 23:18:09.75	95.12	58.41	-43.0	-47.4	11.1	1.34e-03	0	57	0	639631360	57	6007
2026-01-11 23:18:13.78	98.57	58.55	-42.5	-46.3	12.3	4.02e-04	0	56	0	648019968	57	5323
2026-01-11 23:18:17.82	102.06	58.60	-41.3	-44.2	14.3	2.44e-05	0	56	0	655360000	54	4959
2026-01-11 23:18:21.86	105.54	58.55	-41.2	-44.2	14.4	1.50e-06	0	56	0	662700032	53	5258
2026-01-11 23:18:25.89	108.99	58.40	-43.0	-47.4	11.2	5.47e-04	0	57	0	670040064	56	6352
2026-01-11 23:18:29.93	112.39	58.16	-43.1	-47.5	11.0	9.47e-04	0	57	0	677380096	56	6479
2026-01-11 23:18:33.97	115.73	57.82	-43.1	-47.7	10.8	2.53e-03	0	57	0	685768704	57	6235
2026-01-11 23:18:38.01	118.97	57.40	-43.2	-47.8	10.7	4.65e-03	0	57	0	693108736	58	5951
2026-01-11 23:18:42.04	122.10	56.91	-42.1	-45.6	13.0	1.03e-04	0	57	0	700448768	56	5161
2026-01-11 23:18:46.08	125.12	56.34	-40.8	-43.4	15.0	7.00e-07	0	57	0	707788800	53	4796
2026-01-11 23:18:50.12	128.01	55.70	-39.3	-41.3	17.2	0.00e+00	0	56	0	715128832	50	4481
2026-01-11 23:18:54.16	130.77	55.00	-39.0	-40.9	17.6	0.00e+00	0	57	0	723517440	50	4281
2026-01-11 23:18:58.20	133.39	54.25	-39.5	-41.7	16.9	0.00e+00	0	57	0	730857472	49	4927
2026-01-11 23:19:02.24	135.88	53.46	-39.6	-41.8	16.8	0.00e+00	0	57	0	738197504	49	4991
2026-01-11 23:19:06.27	138.23	52.63	-39.3	-41.3	17.3	0.00e+00	0	57	0	745537536	50	4462
2026-01-11 23:19:10.31	140.45	51.77	-40.3	-42.7	15.9	0.00e+00	0	56	0	753926144	51	4945
2026-01-11 23:19:14.35	142.54	50.88	-41.3	-44.4	14.2	3.80e-06	0	56	0	761266176	53	5374
2026-01-11 23:19:18.39	144.52	49.98	-41.3	-44.4	14.1	1.50e-06	0	56	0	768606208	53	5347
2026-01-11 23:19:22.42	146.38	49.05	-42.4	-46.1	12.5	2.03e-04	0	56	0	775946240	56	5525
2026-01-11 23:19:26.46	148.13	48.12	-43.1	-47.7	10.9	1.22e-03	0	56	0	783286272	56	6576
2026-01-11 23:19:30.50	149.78	47.18	-42.7	-46.7	11.9	3.54e-04	0	56	0	791674880	56	5896
2026-01-11 23:19:34.54	151.34	46.24	-42.3	-46.0	12.5	5.14e-04	0	57	0	799014912	56	5451
2026-01-11 23:19:38.58	152.81	45.30	-42.5	-46.5	11.9	5.54e-04	0	56	0	806354944	55	6106
2026-01-11 23:19:42.62	154.19	44.36	-42.3	-46.2	12.2	3.35e-04	0	57	0	813694976	55	5893
2026-01-11 23:19:46.66	155.50	43.42	-42.2	-46.0	12.4	8.08e-05	0	57	0	822083584	55	5738
2026-01-11 23:19:50.70	156.73	42.50	-40.5	-43.1	15.4	0.00e+00	0	56	0	829423616	52	4872
2026-01-11 23:19:54.74	157.89	41.58	-41.0	-43.8	14.7	0.00e+00	0	57	0	836763648	53	4992
2026-01-11 23:19:58.78	159.00	40.67	-41.1	-44.0	14.4	5.30e-06	0	56	0	844103680	53	5129
2026-01-11 23:20:02.82	160.04	39.78	-41.1	-44.1	14.3	7.00e-07	0	57	0	851443712	52	5494
2026-01-11 23:20:06.86	161.03	38.89	-40.5	-43.1	15.3	0.00e+00	0	57	0	859832320	53	4638
2026-01-11 23:20:10.90	161.97	38.02	-40.5	-43.0	15.4	0.00e+00	0	57	0	867172352	51	5148
2026-01-11 23:20:14.94	162.86	37.17	-41.5	-44.8	13.5	1.98e-05	0	57	0	874512384	54	5309
2026-01-11 23:20:18.97	163.70	36.33	-40.1	-42.4	16.1	0.00e+00	0	57	0	881852416	51	4769
2026-01-11 23:20:23.01	164.51	35.50	-41.7	-45.1	13.2	2.05e-05	0	57	0	890241024	53	5838
2026-01-11 23:20:27.05	165.27	34.69	-40.7	-43.4	14.9	7.00e-07	0	57	0	897581056	53	4788
2026-01-11 23:20:31.09	166.00	33.90	-41.0	-43.9	14.4	0.00e+00	0	57	0	904921088	53	5055
2026-01-11 23:20:35.12	166.70	33.12	-41.5	-44.8	13.5	2.05e-05	0	57	0	912261120	53	5633
2026-01-11 23:20:39.16	167.36	32.36	-41.6	-45.0	13.3	1.14e-05	0	57	0	919601152	53	5736
2026-01-11 23:20:43.20	168.00	31.61	-41.8	-45.4	12.9	3.43e-05	0	57	0	927989760	54	5678
2026-01-11 23:20:47.23	168.60	30.88	-41.5	-44.7	13.6	1.29e-05	0	57	0	935329792	54	5253
2026-01-11 23:20:51.27	169.19	30.16	-41.6	-44.9	13.4	9.10e-06	0	57	0	942669824	54	5347
2026-01-11 23:20:55.31	169.74	29.45	-41.9	-45.6	12.6	8.85e-05	0	57	0	950009856	54	5836
2026-01-11 23:20:59.35	170.28	28.76	-41.6	-45.0	13.2	3.96e-05	0	57	0	958398464	54	5431
2026-01-11 23:21:03.39	170.79	28.08	-41.4	-44.6	13.6	8.30e-06	0	57	0	965738496	54	5186
2026-01-11 23:21:07.43	171.28	27.42	-41.2	-44.4	13.8	5.30e-06	0	57	0	973078528	54	5055
2026-01-11 23:21:11.47	171.76	26.77	-41.1	-44.2	14.0	5.30e-06	0	57	0	980418560	54	4927
2026-01-11 23:21:15.51	172.21	26.14	-40.9	-43.9	14.2	1.50e-06	0	57	0	987758592	53	5059
2026-01-11 23:21:19.55	172.65	25.52	-40.5	-43.3	14.8	0.00e+00	0	57	0	996147200	53	4720
2026-01-11 23:21:23.59	173.07	24.91	-40.4	-43.0	15.1	0.00e+00	0	57	0	1003487232	52	4865
2026-01-11 23:21:27.63	173.48	24.31	-40.7	-43.6	14.4	7.00e-07	0	57	0	1010827264	52	5198
2026-01-11 23:21:31.67	173.87	23.72	-41.0	-44.0	14.0	3.80e-06	0	57	0	1018167296	52	5439
2026-01-11 23:21:35.71	174.25	23.15	-40.5	-43.2	14.8	0.00e+00	0	57	0	1026555904	52	4962
2026-01-11 23:21:39.74	174.62	22.59	-40.0	-42.4	15.7	0.00e+00	0	57	0	1033895936	51	4801
2026-01-11 23:21:43.78	174.97	22.04	-39.7	-42.0	16.1	0.00e+00	0	57	0	1041235968	51	4588
2026-01-11 23:21:47.82	175.31	21.50	-39.9	-42.2	15.9	0.00e+00	0	57	0	1048576000	51	4691
2026-01-11 23:21:51.86	175.64	20.97	-40.1	-42.6	15.4	0.00e+00	0	57	0	1055916032	51	4918
2026-01-11 23:21:55.89	175.96	20.45	-40.2	-42.7	15.3	0.00e+00	0	57	0	1064304640	51	4974
2026-01-11 23:21:59.93	176.27	19.94	-40.2	-42.7	15.3	0.00e+00	0	57	0	1071644672	51	4964
2026-01-11 23:22:03.97	176.57	19.44	-39.9	-42.3	15.7	0.00e+00	0	57	0	1078984704	51	4716
2026-01-11 23:22:08.00	176.86	18.95	-39.7	-42.1	15.9	0.00e+00	0	57	0	1086324736	51	4608
2026-01-11 23:22:12.04	177.14	18.46	-39.7	-42.1	15.9	0.00e+00	0	57	0	1094713344	51	4630
2026-01-11 23:22:16.08	177.42	17.99	-39.9	-42.3	15.6	0.00e+00	0	57	0	1102053376	51	4752
2026-01-11 23:22:20.12	177.69	17.52	-40.1	-42.6	15.2	0.00e+00	0	57	0	1109393408	51	4925
2026-01-11 23:22:24.16	177.94	17.07	-40.2	-42.8	15.1	0.00e+00	0	57	0	1116733440	51	5029
2026-01-11 23:22:28.20	178.20	16.62	-40.2	-42.9	15.0	7.00e-07	0	57	0	1124073472	51	5049
2026-01-11 23:22:32.23	178.44	16.18	-40.3	-42.9	15.0	0.00e+00	0	57	0	1132462080	51	5075
2026-01-11 23:22:36.27	178.68	15.74	-40.3	-42.9	14.9	0.00e+00	0	57	0	1139802112	51	5098
2026-01-11 23:22:40.31	178.91	15.31	-40.4	-43.2	14.6	7.00e-07	0	57	0	1147142144	51	5234
2026-01-11 23:22:44.35	179.13	14.89	-40.5	-43.3	14.4	1.50e-06	0	57	0	1154482176	51	5332
2026-01-11 23:22:48.38	179.35	14.48	-40.7	-43.6	14.1	7.00e-07	0	57	0	1162870784	51	5511
2026-01-11 23:22:52.42	179.57	14.07	-40.7	-43.7	14.0	3.80e-06	0	57	0	1170210816	52	5258
2026-01-11 23:22:56.45	179.77	13.68	-40.8	-43.8	13.8	3.80e-06	0	57	0	1177550848	52	5325
2026-01-11 23:23:00.49	179.98	13.28	-40.8	-43.9	13.7	3.80e-06	0	57	0	1184890880	52	5396
2026-01-11 23:23:04.53	180.17	12.89	-40.9	-44.1	13.5	6.10e-06	0	57	0	1192230912	52	5493
2026-01-11 23:23:08.57	180.37	12.51	-40.9	-44.1	13.5	1.06e-05	0	57	0	1200619520	52	5498
2026-01-11 23:23:12.61	180.56	12.13	-40.9	-44.2	13.4	1.44e-05	0	57	0	1207959552	52	5565
2026-01-11 23:23:16.65	180.74	11.76	-40.9	-44.1	13.5	6.10e-06	0	57	0	1215299584	52	5492
2026-01-11 23:23:20.69	180.92	11.40	-40.9	-44.2	13.4	1.83e-05	0	57	0	1222639616	52	5534
2026-01-11 23:23:24.73	181.10	11.03	-40.9	-44.2	13.4	1.44e-05	0	57	0	1231028224	52	5535
2026-01-11 23:23:28.77	181.27	10.68	-40.8	-44.1	13.5	1.52e-05	0	57	0	1238368256	52	5466
2026-01-11 23:23:32.81	181.44	10.33	-40.7	-43.9	13.6	6.80e-06	0	57	0	1245708288	52	5373
2026-01-11 23:23:36.84	181.60	9.98	-40.8	-44.0	13.5	1.14e-05	0	57	0	1253048320	52	5405
2026-01-11 23:23:40.88	181.76	9.64	-40.7	-43.8	13.7	5.30e-06	0	57	0	1260388352	52	5315
2026-01-11 23:23:44.92	181.92	9.30	-40.6	-43.8	13.7	1.22e-05	0	57	0	1268776960	52	5287
2026-01-11 23:23:48.96	182.08	8.97	-40.6	-43.8	13.6	8.30e-06	0	57	0	1276116992	52	5309
2026-01-11 23:23:52.99	182.23	8.64	-40.7	-43.8	13.5	5.30e-06	0	57	0	1283457024	52	5340
2026-01-11 23:23:57.03	182.37	8.32	-40.7	-43.9	13.4	1.75e-05	0	57	0	1290797056	52	5376
2026-01-11 23:24:01.07	182.52	8.00	-40.7	-44.0	13.3	2.28e-05	0	57	0	1298137088	52	5452
2026-01-11 23:24:05.11	182.66	7.68	-45.0	-59.5	3.8	1.49e+00	0	57	104	1300234240	60	20467
2026-01-11 23:24:09.14	182.80	7.37	-45.2	-59.8	3.8	1.49e+00	0	57	104	1300234240	60	21126
2026-01-11 23:24:13.18	182.94	7.06	-45.2	-59.8	3.8	1.49e+00	0	57	104	1300234240	61	19933
2026-01-11 23:24:17.22	183.07	6.76	-45.1	-59.7	3.8	1.49e+00	0	57	104	1300234240	61	19831
2026-01-11 23:24:21.27	183.20	6.45	-45.1	-59.7	3.8	1.49e+00	0	57	104	1300234240	61	19780
2026-01-11 23:24:25.31	183.33	6.15	-45.1	-59.7	3.8	1.49e+00	0	57	104	1300234240	61	19749
2026-01-11 23:24:29.35	183.46	5.86	-45.1	-59.7	3.8	1.49e+00	0	57	104	1300234240	61	19764
2026-01-11 23:24:33.40	183.58	5.57	-45.1	-59.7	3.8	1.49e+00	0	57	104	1300234240	61	19748
2026-01-11 23:24:37.44	183.70	5.28	-45.1	-59.7	3.8	1.49e+00	0	57	104	1300234240	61	19764
2026-01-11 23:24:41.48	183.82	4.99	-45.1	-59.7	3.8	1.49e+00	0	57	104	1300234240	61	19712
2026-01-11 23:24:45.53	183.94	4.71	-45.1	-59.7	3.8	1.49e+00	0	57	104	1300234240	61	19679
2026-01-11 23:24:49.57	184.06	4.43	-45.1	-59.7	3.8	1.49e+00	0	57	104	1300234240	60	20888
2026-01-11 23:24:53.61	184.17	4.15	-45.1	-59.7	3.8	1.49e+00	0	57	104	1300234240	60	20882
2026-01-11 23:24:57.66	184.28	3.87	-45.1	-59.7	3.8	1.49e+00	0	57	104	1300234240	60	20896
2026-01-11 23:25:01.69	184.39	3.60	-45.0	-59.7	3.8	1.49e+00	0	57	104	1300234240	60	20858
2026-01-11 23:25:05.73	184.50	3.33	-45.0	-59.7	3.8	1.49e+00	0	57	104	1300234240	60	20878
2026-01-11 23:25:09.78	184.61	3.07	-45.0	-59.7	3.8	1.49e+00	0	57	104	1300234240	60	20846
2026-01-11 23:25:13.83	184.71	2.80	-45.0	-59.7	3.8	1.49e+00	0	57	104	1300234240	60	20799
2026-01-11 23:25:17.87	184.82	2.54	-45.0	-59.7	3.8	1.49e+00	0	57	104	1300234240	60	20852
2026-01-11 23:25:21.91	184.92	2.28	-45.0	-59.7	3.8	1.49e+00	0	57	104	1300234240	60	20821
2026-01-11 23:25:25.96	185.02	2.02	-45.0	-59.6	3.8	1.49e+00	0	57	104	1300234240	60	20755

#Closed at: 2026-01-11 23:25:26
#Recorded file [1300 MB]: D:/lorett/data/31039_260112_021105.dat