passes_logs/2026/01/11/R2.0S_Moscow/R2.0S_Moscow__20260111_014916_FENGYUN_3D_rec.log

#Pass ID: 20260111_014916_FENGYUN 3D
#Satellite: FENGYUN 3D
#Configuration: FENGYUN 3D
#almurnet v.1.7.20251203
#Start time: 2026-01-11 01:57:04

#Version: 2.2.20231116
#Station: R2.0S_Moscow
#Location: 37.707566 lon 55.798166 lat
#TLE: 1 43010U 17072A   26009.92921666 -.00000228  00000+0 -86059-4 0  9998
#TLE: 2 43010  98.9936 341.6668 0002176 116.7510 243.3888 14.19693142422537

#Time	Az	El	Level	Level2	SNR	BER	BlckErr	Temp	State	Recorded	gain1	gain2
2026-01-11 01:57:04.72	216.86	71.87	-45.0	-63.4	3.8	8.46e-01	0	55	0	0	61	30193
2026-01-11 01:57:06.73	215.95	70.96	-45.1	-56.8	3.8	8.47e-01	0	55	104	0	61	14109
2026-01-11 01:57:08.75	215.13	70.05	-45.0	-56.8	3.8	8.46e-01	0	55	104	0	61	14088
2026-01-11 01:57:10.77	214.39	69.14	-45.0	-56.7	3.8	8.47e-01	0	55	104	0	61	13988
2026-01-11 01:57:12.79	213.71	68.24	-45.0	-56.7	3.8	8.46e-01	0	55	104	0	61	13931
2026-01-11 01:57:14.80	213.09	67.35	-45.0	-56.7	3.8	8.45e-01	0	56	104	0	61	13933
2026-01-11 01:57:16.82	212.52	66.46	-45.0	-56.7	3.8	8.45e-01	0	55	104	0	61	14033
2026-01-11 01:57:18.84	212.00	65.58	-45.0	-56.7	3.8	8.46e-01	0	55	104	0	61	13932
2026-01-11 01:57:20.85	211.52	64.71	-45.0	-56.6	3.8	8.47e-01	0	55	104	0	61	13865
2026-01-11 01:57:22.87	211.07	63.85	-45.0	-56.6	3.8	8.45e-01	0	55	104	0	61	13750
2026-01-11 01:57:24.89	210.65	63.00	-45.0	-56.7	3.8	8.47e-01	0	55	104	0	61	13898
2026-01-11 01:57:26.90	210.27	62.15	-44.9	-56.4	3.8	8.47e-01	0	55	104	0	61	13471
2026-01-11 01:57:28.92	209.91	61.32	-45.0	-56.6	3.8	8.47e-01	0	56	104	0	61	13866
2026-01-11 01:57:30.95	209.57	60.49	-45.0	-56.6	3.8	8.46e-01	0	56	104	0	61	13874
2026-01-11 01:57:32.96	209.26	59.67	-44.9	-56.3	3.8	8.46e-01	0	56	104	0	61	13362
2026-01-11 01:57:34.99	208.96	58.86	-44.9	-56.5	3.8	8.48e-01	0	56	104	0	61	13593
2026-01-11 01:57:37.01	208.69	58.06	-44.9	-56.7	3.8	8.47e-01	0	56	104	0	61	13903
2026-01-11 01:57:39.03	208.42	57.28	-44.9	-56.5	3.8	8.46e-01	0	56	104	0	61	13600
2026-01-11 01:57:41.05	208.18	56.50	-44.8	-55.7	3.8	8.46e-01	0	56	104	0	61	12458
2026-01-11 01:57:43.07	207.95	55.73	-44.9	-56.4	3.8	8.46e-01	0	56	104	0	61	13520
2026-01-11 01:57:45.09	207.73	54.97	-44.9	-56.6	3.8	8.45e-01	0	56	104	0	61	13790
2026-01-11 01:57:47.12	207.52	54.22	-44.8	-55.7	3.8	8.45e-01	0	56	104	0	61	12485
2026-01-11 01:57:49.14	207.32	53.49	-44.8	-55.2	3.8	8.47e-01	0	56	104	0	61	11743
2026-01-11 01:57:51.16	207.13	52.76	-44.9	-56.3	3.8	8.47e-01	0	56	104	0	61	13294
2026-01-11 01:57:53.18	206.95	52.05	-42.7	-46.9	8.3	1.25e-01	0	56	0	3145728	57	5686
2026-01-11 01:57:55.20	206.78	51.34	-42.5	-46.6	8.4	3.06e-02	0	56	0	13631488	55	6194
2026-01-11 01:57:57.22	206.62	50.64	-40.7	-43.4	11.7	1.05e-02	0	56	0	20971520	53	4778
2026-01-11 01:57:59.25	206.47	49.96	-34.7	-36.0	18.8	0.00e+00	0	56	0	32505856	41	4096
2026-01-11 01:58:01.27	206.32	49.28	-43.0	-47.4	7.5	8.44e-01	0	56	104	39845888	58	5707
2026-01-11 01:58:03.29	206.18	48.61	-38.2	-40.0	15.1	6.23e-04	0	56	0	50331648	48	4315
2026-01-11 01:58:05.31	206.05	47.96	-34.0	-35.3	19.6	0.00e+00	0	56	0	60817408	39	4204
2026-01-11 01:58:07.33	205.92	47.31	-33.8	-35.0	19.8	0.00e+00	0	56	0	72351744	39	4074
2026-01-11 01:58:09.35	205.80	46.67	-33.3	-34.5	20.2	0.00e+00	0	56	0	83886080	38	4086
2026-01-11 01:58:11.37	205.68	46.05	-33.5	-34.7	20.1	0.00e+00	0	56	0	95420416	38	4149
2026-01-11 01:58:13.39	205.56	45.43	-33.8	-35.1	19.7	0.00e+00	0	56	0	106954752	38	4355
2026-01-11 01:58:15.41	205.46	44.82	-34.0	-35.3	19.5	0.00e+00	0	56	0	118489088	38	4450
2026-01-11 01:58:17.43	205.35	44.22	-33.9	-35.2	19.6	0.00e+00	0	56	0	130023424	38	4399
2026-01-11 01:58:19.45	205.25	43.63	-33.8	-35.1	19.6	0.00e+00	0	56	0	140509184	38	4374
2026-01-11 01:58:21.47	205.15	43.05	-33.9	-35.1	19.5	0.00e+00	0	56	0	152043520	38	4391
2026-01-11 01:58:23.49	205.06	42.47	-33.8	-35.0	19.6	0.00e+00	0	56	0	163577856	38	4334
2026-01-11 01:58:25.51	204.97	41.91	-33.8	-35.1	19.6	0.00e+00	0	56	0	175112192	38	4344
2026-01-11 01:58:27.53	204.89	41.35	-33.6	-34.8	19.8	0.00e+00	0	56	0	186646528	38	4235
2026-01-11 01:58:29.55	204.80	40.80	-33.6	-34.9	19.7	0.00e+00	0	56	0	197132288	38	4252
2026-01-11 01:58:31.57	204.72	40.26	-33.6	-34.8	19.8	0.00e+00	0	56	0	208666624	38	4234
2026-01-11 01:58:33.59	204.65	39.73	-33.2	-34.5	20.1	0.00e+00	0	56	0	220200960	38	4067
2026-01-11 01:58:35.61	204.57	39.21	-33.3	-34.5	20.1	0.00e+00	0	56	0	231735296	38	4074
2026-01-11 01:58:37.63	204.50	38.69	-33.2	-34.4	20.2	0.00e+00	0	56	0	243269632	38	4021
2026-01-11 01:58:39.65	204.43	38.18	-33.0	-34.2	20.3	0.00e+00	0	56	0	254803968	38	3957
2026-01-11 01:58:41.67	204.36	37.68	-32.9	-34.1	20.4	0.00e+00	0	56	0	265289728	37	4118
2026-01-11 01:58:43.69	204.30	37.19	-32.8	-34.0	20.5	0.00e+00	0	56	0	276824064	37	4069
2026-01-11 01:58:45.71	204.23	36.70	-32.8	-34.0	20.5	0.00e+00	0	56	0	288358400	37	4077
2026-01-11 01:58:47.74	204.17	36.22	-33.0	-34.2	20.3	0.00e+00	0	56	0	299892736	37	4156
2026-01-11 01:58:49.76	204.11	35.75	-33.3	-34.5	20.0	0.00e+00	0	56	0	311427072	37	4311
2026-01-11 01:58:51.78	204.06	35.28	-33.5	-34.8	19.7	0.00e+00	0	56	0	322961408	37	4475
2026-01-11 01:58:53.80	204.00	34.82	-33.8	-35.1	19.5	0.00e+00	0	56	0	334495744	38	4357
2026-01-11 01:58:55.82	203.95	34.37	-33.9	-35.2	19.3	0.00e+00	0	56	0	344981504	38	4440
2026-01-11 01:58:57.84	203.90	33.93	-33.8	-35.1	19.4	0.00e+00	0	56	0	356515840	38	4369
2026-01-11 01:58:59.86	203.85	33.49	-33.8	-35.1	19.4	0.00e+00	0	56	0	368050176	38	4365
2026-01-11 01:59:01.87	203.80	33.06	-33.6	-34.9	19.6	0.00e+00	0	56	0	379584512	38	4280
2026-01-11 01:59:03.90	203.75	32.63	-33.7	-34.9	19.6	0.00e+00	0	56	0	391118848	38	4285
2026-01-11 01:59:05.92	203.70	32.20	-33.5	-34.8	19.7	0.00e+00	0	56	0	401604608	38	4207
2026-01-11 01:59:07.94	203.66	31.79	-33.5	-34.8	19.8	0.00e+00	0	56	0	413138944	38	4195
2026-01-11 01:59:09.96	203.61	31.38	-33.5	-34.7	19.8	0.00e+00	0	56	0	424673280	38	4186
2026-01-11 01:59:11.98	203.57	30.98	-33.5	-34.8	19.7	0.00e+00	0	56	0	436207616	38	4219
2026-01-11 01:59:14.00	203.53	30.58	-33.5	-34.7	19.8	0.00e+00	0	56	0	447741952	38	4190
2026-01-11 01:59:16.02	203.49	30.18	-33.5	-34.8	19.7	0.00e+00	0	56	0	459276288	38	4209
2026-01-11 01:59:18.04	203.45	29.80	-33.6	-34.8	19.7	0.00e+00	0	56	0	470810624	38	4242
2026-01-11 01:59:20.06	203.41	29.41	-33.7	-34.9	19.6	0.00e+00	0	56	0	481296384	38	4279
2026-01-11 01:59:22.08	203.38	29.04	-33.9	-35.1	19.4	0.00e+00	0	56	0	492830720	38	4382
2026-01-11 01:59:24.10	203.34	28.66	-33.9	-35.2	19.4	0.00e+00	0	56	0	504365056	38	4403
2026-01-11 01:59:26.12	203.31	28.30	-34.0	-35.3	19.3	0.00e+00	0	56	0	515899392	38	4448
2026-01-11 01:59:28.14	203.27	27.93	-33.8	-35.1	19.4	0.00e+00	0	56	0	527433728	38	4386
2026-01-11 01:59:30.16	203.24	27.58	-33.8	-35.1	19.5	0.00e+00	0	56	0	538968064	38	4358
2026-01-11 01:59:32.18	203.21	27.22	-33.8	-35.1	19.5	0.00e+00	0	56	0	550502400	38	4344
2026-01-11 01:59:34.20	203.17	26.87	-33.7	-34.9	19.6	0.00e+00	0	56	0	560988160	38	4288
2026-01-11 01:59:36.22	203.14	26.53	-33.7	-35.0	19.6	0.00e+00	0	56	0	572522496	38	4305
2026-01-11 01:59:38.25	203.11	26.19	-33.8	-35.0	19.5	0.00e+00	0	56	0	584056832	38	4339
2026-01-11 01:59:40.27	203.08	25.85	-33.8	-35.0	19.5	0.00e+00	0	56	0	595591168	38	4340
2026-01-11 01:59:42.29	203.06	25.52	-33.8	-35.1	19.5	0.00e+00	0	56	0	607125504	38	4360
2026-01-11 01:59:44.31	203.03	25.19	-33.9	-35.2	19.4	0.00e+00	0	56	0	617611264	38	4396
2026-01-11 01:59:46.32	203.00	24.87	-33.9	-35.2	19.3	0.00e+00	0	56	0	629145600	38	4438
2026-01-11 01:59:48.34	202.98	24.55	-34.0	-35.4	19.1	0.00e+00	0	56	0	640679936	38	4501
2026-01-11 01:59:50.36	202.95	24.23	-34.1	-35.4	19.1	0.00e+00	0	56	0	652214272	38	4504
2026-01-11 01:59:52.38	202.92	23.92	-34.2	-35.5	19.0	0.00e+00	0	56	0	663748608	39	4338
2026-01-11 01:59:54.40	202.90	23.61	-34.2	-35.6	19.0	0.00e+00	0	56	0	675282944	39	4344
2026-01-11 01:59:56.42	202.88	23.31	-34.3	-35.7	18.9	0.00e+00	0	56	0	685768704	39	4406
2026-01-11 01:59:58.44	202.85	23.01	-34.3	-35.6	18.9	0.00e+00	0	56	0	697303040	39	4372
2026-01-11 02:00:00.46	202.83	22.71	-34.2	-35.5	19.0	0.00e+00	0	56	0	708837376	39	4314
2026-01-11 02:00:02.48	202.81	22.41	-34.2	-35.5	19.0	0.00e+00	0	56	0	720371712	39	4315
2026-01-11 02:00:04.50	202.79	22.12	-34.2	-35.5	19.0	0.00e+00	0	56	0	731906048	39	4336
2026-01-11 02:00:06.52	202.76	21.83	-34.3	-35.7	18.9	0.00e+00	0	56	0	743440384	39	4397
2026-01-11 02:00:08.54	202.74	21.55	-34.4	-35.7	18.8	0.00e+00	0	56	0	754974720	39	4439
2026-01-11 02:00:10.56	202.72	21.27	-34.4	-35.8	18.7	0.00e+00	0	56	0	765460480	39	4466
2026-01-11 02:00:12.58	202.70	20.99	-34.5	-35.9	18.7	0.00e+00	0	56	0	776994816	39	4500
2026-01-11 02:00:14.60	202.68	20.71	-34.6	-36.0	18.6	0.00e+00	0	56	0	788529152	39	4546
2026-01-11 02:00:16.63	202.67	20.44	-34.7	-36.1	18.4	0.00e+00	0	56	0	800063488	40	4354
2026-01-11 02:00:18.65	202.65	20.17	-34.9	-36.3	18.2	0.00e+00	0	56	0	811597824	40	4471
2026-01-11 02:00:20.67	202.63	19.91	-34.7	-36.1	18.4	0.00e+00	0	56	0	822083584	40	4374
2026-01-11 02:00:22.69	202.61	19.64	-34.7	-36.1	18.3	0.00e+00	0	56	0	833617920	40	4389
2026-01-11 02:00:24.71	202.59	19.38	-34.8	-36.3	18.2	0.00e+00	0	56	0	845152256	40	4447
2026-01-11 02:00:26.73	202.58	19.12	-34.9	-36.3	18.2	0.00e+00	0	56	0	856686592	40	4475
2026-01-11 02:00:28.75	202.56	18.87	-34.9	-36.3	18.1	0.00e+00	0	56	0	868220928	40	4490
2026-01-11 02:00:30.77	202.55	18.61	-35.1	-36.5	18.0	0.00e+00	0	56	0	879755264	40	4586
2026-01-11 02:00:32.79	202.53	18.36	-35.2	-36.6	17.8	0.00e+00	0	56	0	891289600	40	4646
2026-01-11 02:00:34.81	202.51	18.12	-35.4	-36.9	17.6	0.00e+00	0	56	0	901775360	41	4506
2026-01-11 02:00:36.83	202.50	17.87	-35.5	-37.0	17.5	0.00e+00	0	56	0	913309696	41	4556
2026-01-11 02:00:38.85	202.48	17.63	-35.5	-37.0	17.5	0.00e+00	0	56	0	924844032	41	4581
2026-01-11 02:00:40.86	202.47	17.39	-35.3	-36.7	17.7	0.00e+00	0	56	0	936378368	41	4432
2026-01-11 02:00:42.89	202.46	17.15	-35.4	-36.9	17.6	0.00e+00	0	56	0	947912704	41	4496
2026-01-11 02:00:44.91	202.44	16.91	-35.5	-36.9	17.5	0.00e+00	0	56	0	959447040	41	4540
2026-01-11 02:00:46.93	202.43	16.68	-35.4	-36.9	17.5	0.00e+00	0	56	0	970981376	41	4526
2026-01-11 02:00:48.95	202.42	16.45	-35.5	-37.0	17.4	0.00e+00	0	56	0	981467136	41	4561
2026-01-11 02:00:50.97	202.40	16.22	-35.6	-37.1	17.3	0.00e+00	0	56	0	993001472	41	4651
2026-01-11 02:00:52.98	202.39	15.99	-35.6	-37.1	17.3	0.00e+00	0	56	0	1004535808	41	4603
2026-01-11 02:00:55.00	202.38	15.77	-35.6	-37.1	17.3	0.00e+00	0	56	0	1016070144	41	4645
2026-01-11 02:00:57.02	202.37	15.55	-35.7	-37.2	17.2	0.00e+00	0	56	0	1027604480	41	4667
2026-01-11 02:00:59.05	202.35	15.32	-35.8	-37.4	17.1	0.00e+00	0	56	0	1038090240	42	4503
2026-01-11 02:01:01.07	202.34	15.10	-35.9	-37.4	17.0	0.00e+00	0	56	0	1049624576	42	4517
2026-01-11 02:01:03.09	202.33	14.89	-36.0	-37.6	16.8	0.00e+00	0	56	0	1061158912	42	4609
2026-01-11 02:01:05.11	202.32	14.67	-36.0	-37.6	16.8	0.00e+00	0	56	0	1072693248	42	4639
2026-01-11 02:01:07.13	202.31	14.46	-36.1	-37.7	16.7	0.00e+00	0	56	0	1084227584	42	4678
2026-01-11 02:01:09.15	202.30	14.25	-36.0	-37.6	16.7	0.00e+00	0	56	0	1095761920	42	4634
2026-01-11 02:01:11.17	202.29	14.04	-36.2	-37.8	16.6	0.00e+00	0	56	0	1106247680	42	4731
2026-01-11 02:01:13.19	202.28	13.83	-36.1	-37.7	16.6	0.00e+00	0	56	0	1117782016	43	4427
2026-01-11 02:01:15.21	202.27	13.63	-36.3	-37.9	16.4	0.00e+00	0	56	0	1129316352	43	4519
2026-01-11 02:01:17.23	202.26	13.42	-36.4	-38.1	16.3	0.00e+00	0	56	0	1140850688	43	4608
2026-01-11 02:01:19.25	202.25	13.22	-36.6	-38.3	16.1	0.00e+00	0	56	0	1152385024	43	4713
2026-01-11 02:01:21.27	202.24	13.02	-36.9	-38.6	15.9	0.00e+00	0	56	0	1163919360	44	4634
2026-01-11 02:01:23.29	202.23	12.82	-36.9	-38.7	15.8	0.00e+00	0	56	0	1175453696	44	4663
2026-01-11 02:01:25.31	202.22	12.62	-36.8	-38.6	15.9	0.00e+00	0	56	0	1185939456	44	4607
2026-01-11 02:01:27.33	202.21	12.43	-36.7	-38.4	16.1	0.00e+00	0	56	0	1197473792	44	4500
2026-01-11 02:01:29.35	202.20	12.23	-36.7	-38.4	16.0	0.00e+00	0	56	0	1209008128	44	4538
2026-01-11 02:01:31.37	202.20	12.04	-36.8	-38.5	15.9	0.00e+00	0	56	0	1220542464	44	4571
2026-01-11 02:01:33.39	202.19	11.85	-36.9	-38.6	15.8	0.00e+00	0	56	0	1232076800	44	4643
2026-01-11 02:01:35.41	202.18	11.66	-36.9	-38.6	15.8	0.00e+00	0	56	0	1242562560	44	4650
2026-01-11 02:01:37.43	202.17	11.47	-37.0	-38.7	15.7	0.00e+00	0	56	0	1254096896	44	4700
2026-01-11 02:01:39.45	202.16	11.28	-37.0	-38.8	15.6	0.00e+00	0	56	0	1265631232	44	4737
2026-01-11 02:01:41.47	202.16	11.10	-37.2	-39.1	15.3	0.00e+00	0	56	0	1277165568	45	4614
2026-01-11 02:01:43.49	202.15	10.91	-37.2	-39.1	15.3	0.00e+00	0	56	0	1288699904	45	4614
2026-01-11 02:01:45.51	202.14	10.73	-37.2	-39.1	15.3	0.00e+00	0	56	0	1300234240	45	4623
2026-01-11 02:01:47.53	202.14	10.55	-37.4	-39.2	15.1	0.00e+00	0	56	0	1311768576	45	4698
2026-01-11 02:01:49.55	202.13	10.37	-37.3	-39.2	15.2	0.00e+00	0	56	0	1322254336	45	4659
2026-01-11 02:01:51.57	202.12	10.19	-37.4	-39.3	15.0	0.00e+00	0	56	0	1333788672	45	4729
2026-01-11 02:01:53.59	202.12	10.01	-37.5	-39.5	14.8	0.00e+00	0	56	0	1345323008	45	4823
2026-01-11 02:01:55.61	202.11	9.84	-37.5	-39.4	14.8	0.00e+00	0	56	0	1356857344	45	4808
2026-01-11 02:01:57.63	202.10	9.66	-37.5	-39.4	14.8	0.00e+00	0	56	0	1368391680	45	4805
2026-01-11 02:01:59.65	202.10	9.49	-37.2	-39.1	15.1	0.00e+00	0	56	0	1379926016	45	4642
2026-01-11 02:02:01.67	202.09	9.31	-37.2	-39.0	15.2	0.00e+00	0	56	0	1390411776	45	4589
2026-01-11 02:02:03.69	202.08	9.14	-37.3	-39.3	14.9	0.00e+00	0	56	0	1401946112	45	4717
2026-01-11 02:02:05.71	202.08	8.97	-37.4	-39.3	14.8	1.10e-06	0	56	0	1413480448	45	4733
2026-01-11 02:02:07.74	202.07	8.80	-37.3	-39.3	14.8	0.00e+00	0	56	0	1425014784	45	4729
2026-01-11 02:02:09.76	202.07	8.64	-37.4	-39.4	14.6	0.00e+00	0	56	0	1436549120	45	4804
2026-01-11 02:02:11.78	202.06	8.47	-37.5	-39.5	14.5	0.00e+00	0	56	0	1448083456	45	4867
2026-01-11 02:02:13.80	202.06	8.30	-37.7	-39.7	14.3	0.00e+00	0	56	0	1458569216	45	4965
2026-01-11 02:02:15.82	202.05	8.14	-37.6	-39.7	14.3	0.00e+00	0	56	0	1470103552	46	4662
2026-01-11 02:02:17.84	202.05	7.98	-43.5	-51.1	4.5	4.87e-03	0	56	0	1480589312	57	9194
2026-01-11 02:02:19.86	202.04	7.81	-44.7	-56.5	3.8	8.47e-01	0	56	104	1480589312	60	14392
2026-01-11 02:02:21.88	202.04	7.65	-45.0	-56.7	3.8	8.46e-01	0	56	104	1480589312	60	14853
2026-01-11 02:02:23.91	202.03	7.49	-45.1	-56.9	3.8	8.46e-01	0	56	104	1480589312	60	15071
2026-01-11 02:02:25.93	202.03	7.33	-45.1	-56.9	3.8	8.46e-01	0	56	104	1480589312	60	15064
2026-01-11 02:02:27.95	202.02	7.17	-45.1	-56.8	3.8	8.46e-01	0	56	104	1480589312	60	14994
2026-01-11 02:02:29.97	202.02	7.02	-45.0	-56.8	3.8	8.47e-01	0	56	104	1480589312	60	14983
2026-01-11 02:02:31.99	202.01	6.86	-45.0	-56.8	3.8	8.46e-01	0	56	104	1480589312	60	14914
2026-01-11 02:02:34.01	202.01	6.70	-45.0	-56.7	3.8	8.45e-01	0	56	104	1480589312	60	14859
2026-01-11 02:02:36.03	202.01	6.55	-45.0	-56.7	3.8	8.46e-01	0	56	104	1480589312	60	14878
2026-01-11 02:02:38.05	202.00	6.40	-44.9	-56.7	3.8	8.47e-01	0	56	104	1480589312	60	14832
2026-01-11 02:02:40.07	202.00	6.24	-44.9	-56.7	3.8	8.47e-01	0	56	104	1480589312	60	14821
2026-01-11 02:02:42.09	201.99	6.09	-44.9	-56.7	3.8	8.46e-01	0	56	104	1480589312	60	14754
2026-01-11 02:02:44.11	201.99	5.94	-44.9	-56.7	3.8	8.46e-01	0	56	104	1480589312	60	14804
2026-01-11 02:02:46.14	201.99	5.79	-44.9	-56.7	3.8	8.46e-01	0	57	104	1480589312	60	14813
2026-01-11 02:02:48.16	201.98	5.64	-44.9	-56.7	3.8	8.46e-01	0	56	104	1480589312	60	14765
2026-01-11 02:02:50.18	201.98	5.49	-44.9	-56.7	3.8	8.46e-01	0	56	104	1480589312	60	14817
2026-01-11 02:02:52.20	201.98	5.34	-44.9	-56.7	3.8	8.47e-01	0	56	104	1480589312	60	14731
2026-01-11 02:02:54.22	201.97	5.20	-44.9	-56.7	3.8	8.46e-01	0	56	104	1480589312	60	14754
2026-01-11 02:02:56.24	201.97	5.05	-44.9	-56.7	3.8	8.46e-01	0	56	104	1480589312	60	14717
2026-01-11 02:02:58.27	201.97	4.91	-44.9	-56.7	3.8	8.46e-01	0	56	104	1480589312	60	14737
2026-01-11 02:03:00.29	201.96	4.76	-44.9	-56.7	3.8	8.46e-01	0	56	104	1480589312	60	14763
2026-01-11 02:03:02.31	201.96	4.62	-44.9	-56.7	3.8	8.47e-01	0	56	104	1480589312	60	14765
2026-01-11 02:03:04.33	201.96	4.48	-44.9	-56.6	3.8	8.46e-01	0	56	104	1480589312	60	14708
2026-01-11 02:03:06.36	201.96	4.33	-44.9	-56.7	3.8	8.46e-01	0	56	104	1480589312	60	14717
2026-01-11 02:03:08.38	201.95	4.19	-44.9	-56.6	3.8	8.47e-01	0	56	104	1480589312	60	14684
2026-01-11 02:03:10.40	201.95	4.05	-44.9	-56.6	3.8	8.46e-01	0	56	104	1480589312	60	14697
2026-01-11 02:03:12.42	201.95	3.91	-44.9	-56.7	3.8	8.45e-01	0	56	104	1480589312	60	14720
2026-01-11 02:03:14.45	201.95	3.77	-44.9	-56.7	3.8	8.45e-01	0	56	104	1480589312	60	14721
2026-01-11 02:03:16.47	201.94	3.63	-44.9	-56.7	3.8	8.47e-01	0	56	104	1480589312	60	14818
2026-01-11 02:03:18.49	201.94	3.50	-44.9	-56.6	3.8	8.46e-01	0	56	104	1480589312	60	14686
2026-01-11 02:03:20.51	201.94	3.36	-44.9	-56.7	3.8	8.46e-01	0	56	104	1480589312	60	14732
2026-01-11 02:03:22.53	201.94	3.22	-44.9	-56.6	3.8	8.46e-01	0	56	104	1480589312	60	14702
2026-01-11 02:03:24.56	201.93	3.09	-44.8	-56.7	3.8	8.45e-01	0	56	104	1480589312	60	14727
2026-01-11 02:03:26.58	201.93	2.95	-44.8	-56.6	3.8	8.46e-01	0	56	104	1480589312	60	14688
2026-01-11 02:03:28.60	201.93	2.82	-44.8	-56.6	3.8	8.45e-01	0	56	104	1480589312	60	14638
2026-01-11 02:03:30.62	201.93	2.68	-44.8	-56.6	3.8	8.46e-01	0	56	104	1480589312	60	14621
2026-01-11 02:03:32.64	201.93	2.55	-44.8	-56.6	3.8	8.45e-01	0	56	104	1480589312	60	14657
2026-01-11 02:03:34.67	201.92	2.42	-44.8	-56.6	3.8	8.47e-01	0	56	104	1480589312	60	14701
2026-01-11 02:03:36.69	201.92	2.29	-44.8	-56.6	3.8	8.47e-01	0	56	104	1480589312	60	14636
2026-01-11 02:03:38.71	201.92	2.16	-44.8	-56.6	3.8	8.46e-01	0	56	104	1480589312	60	14642
2026-01-11 02:03:40.73	201.92	2.03	-44.8	-56.6	3.8	8.46e-01	0	56	104	1480589312	60	14652

#Closed at: 2026-01-11 02:03:41
#Recorded file [1480 MB]: D:/lorett/data/31039_260111_045704.dat