passes_logs/2026/01/11/R2.0S_Moscow/R2.0S_Moscow__20260111_225026_SUOMI_NPP_rec.log

#Pass ID: 20260111_225026_SUOMI NPP
#Satellite: SUOMI NPP
#Configuration: NPP
#almurnet v.1.7.20251203
#Start time: 2026-01-11 22:50:28

#Version: 2.2.20231116
#Station: R2.0S_Moscow
#Location: 37.707566 lon 55.798166 lat
#TLE: 1 37849U 11061A   26011.29776829  .00000112  00000+0  74065-4 0  9999
#TLE: 2 37849  98.7807 313.3784 0002522  70.0451 290.0996 14.19524507736187

#Time	Az	El	Level	Level2	SNR	BER	BlckErr	Temp	State	Recorded	gain1	gain2
2026-01-11 22:50:28.14	21.03	2.09	-42.1	-56.9	3.8	1.49e+00	0	47	0	0	56	19142
2026-01-11 22:50:32.18	21.21	2.34	-41.9	-56.8	3.8	1.49e+00	0	48	104	0	55	19850
2026-01-11 22:50:36.22	21.40	2.58	-41.9	-56.8	3.8	1.49e+00	0	48	104	0	55	19875
2026-01-11 22:50:40.27	21.58	2.83	-41.9	-56.8	3.8	1.49e+00	0	49	104	0	55	19874
2026-01-11 22:50:44.31	21.78	3.08	-41.9	-56.8	3.8	1.49e+00	0	48	104	0	55	19889
2026-01-11 22:50:48.35	21.97	3.34	-41.9	-56.8	3.8	1.49e+00	0	49	104	0	55	19862
2026-01-11 22:50:52.40	22.17	3.59	-41.9	-56.8	3.8	1.49e+00	0	49	104	0	55	19843
2026-01-11 22:50:56.44	22.36	3.85	-41.9	-56.8	3.8	1.49e+00	0	49	104	0	55	19852
2026-01-11 22:51:00.49	22.57	4.11	-41.9	-56.7	3.8	1.49e+00	0	50	104	0	55	19801
2026-01-11 22:51:04.53	22.77	4.37	-41.9	-56.7	3.8	1.49e+00	0	50	104	0	55	19841
2026-01-11 22:51:08.57	22.98	4.64	-41.9	-56.8	3.8	1.49e+00	0	50	104	0	55	19848
2026-01-11 22:51:12.62	23.20	4.91	-41.9	-56.8	3.8	1.49e+00	0	50	104	0	55	19849
2026-01-11 22:51:16.66	23.41	5.17	-41.9	-56.7	3.8	1.49e+00	0	50	104	0	55	19794
2026-01-11 22:51:20.70	23.63	5.45	-41.9	-56.7	3.8	1.49e+00	0	51	104	0	55	19811
2026-01-11 22:51:24.74	23.86	5.72	-41.9	-56.8	3.8	1.49e+00	0	51	104	0	55	19865
2026-01-11 22:51:28.79	24.09	6.00	-41.9	-56.8	3.8	1.49e+00	0	51	104	0	55	19853
2026-01-11 22:51:32.83	24.32	6.28	-41.9	-56.8	3.8	1.49e+00	0	51	104	0	55	19851
2026-01-11 22:51:36.87	24.55	6.56	-41.9	-56.7	3.8	1.49e+00	0	52	104	0	55	19805
2026-01-11 22:51:40.92	24.80	6.84	-41.9	-56.6	3.8	1.49e+00	0	52	104	0	55	19549
2026-01-11 22:51:44.96	25.04	7.13	-41.9	-56.3	3.8	1.49e+00	0	52	104	0	55	18921
2026-01-11 22:51:49.01	25.29	7.42	-41.8	-53.7	4.0	1.47e+00	0	52	104	0	55	14039
2026-01-11 22:51:53.05	25.54	7.72	-41.2	-49.3	6.3	3.12e-01	0	52	0	4194304	54	8922
2026-01-11 22:51:57.09	25.80	8.01	-40.1	-45.3	10.1	7.21e-03	0	52	0	11534336	52	6328
2026-01-11 22:52:01.13	26.07	8.31	-41.5	-55.6	3.8	1.38e+00	0	52	104	18874368	53	19527
2026-01-11 22:52:05.17	26.34	8.61	-41.2	-45.8	10.7	3.03e-03	0	53	0	25165824	54	5963
2026-01-11 22:52:09.21	26.61	8.92	-41.0	-45.4	11.2	1.36e-03	0	53	0	32505856	54	5686
2026-01-11 22:52:13.24	26.89	9.23	-41.0	-45.3	11.5	1.16e-03	0	53	0	39845888	53	5927
2026-01-11 22:52:17.28	27.17	9.54	-41.2	-45.4	11.5	9.86e-04	0	53	0	47185920	53	6044
2026-01-11 22:52:21.32	27.46	9.85	-41.1	-45.1	11.9	4.49e-04	0	53	0	55574528	53	5825
2026-01-11 22:52:25.35	27.76	10.17	-41.1	-45.0	12.1	3.30e-04	0	53	0	62914560	53	5756
2026-01-11 22:52:29.39	28.06	10.50	-40.9	-44.5	12.6	1.07e-04	0	53	0	70254592	53	5444
2026-01-11 22:52:33.43	28.37	10.82	-40.8	-44.3	12.9	4.73e-05	0	54	0	77594624	53	5333
2026-01-11 22:52:37.47	28.69	11.15	-40.7	-44.1	13.2	1.52e-05	0	54	0	84934656	53	5187
2026-01-11 22:52:41.51	29.01	11.49	-40.6	-43.8	13.5	1.22e-05	0	54	0	93323264	53	5019
2026-01-11 22:52:45.54	29.34	11.82	-40.8	-44.1	13.3	1.90e-05	0	54	0	100663296	53	5210
2026-01-11 22:52:49.58	29.68	12.16	-40.8	-44.2	13.2	1.29e-05	0	54	0	108003328	53	5264
2026-01-11 22:52:53.62	30.02	12.51	-40.5	-43.6	13.9	5.30e-06	0	54	0	115343360	53	4892
2026-01-11 22:52:57.66	30.38	12.86	-40.6	-43.7	13.8	3.80e-06	0	54	0	123731968	53	4955
2026-01-11 22:53:01.70	30.74	13.21	-40.6	-43.6	13.9	5.30e-06	0	54	0	131072000	52	5215
2026-01-11 22:53:05.74	31.11	13.57	-40.7	-43.8	13.8	4.50e-06	0	54	0	138412032	52	5290
2026-01-11 22:53:09.78	31.48	13.93	-40.6	-43.7	13.9	4.50e-06	0	54	0	145752064	52	5241
2026-01-11 22:53:13.82	31.87	14.30	-40.4	-43.3	14.3	1.50e-06	0	54	0	153092096	52	5030
2026-01-11 22:53:17.86	32.27	14.67	-40.4	-43.3	14.4	0.00e+00	0	54	0	161480704	52	5021
2026-01-11 22:53:21.90	32.67	15.04	-40.5	-43.4	14.3	0.00e+00	0	54	0	168820736	52	5064
2026-01-11 22:53:25.94	33.09	15.42	-40.7	-43.7	14.0	3.00e-06	0	54	0	176160768	52	5259
2026-01-11 22:53:29.98	33.51	15.81	-40.7	-43.7	14.0	4.50e-06	0	55	0	183500800	52	5269
2026-01-11 22:53:34.02	33.95	16.20	-40.5	-43.4	14.3	0.00e+00	0	55	0	191889408	52	5085
2026-01-11 22:53:38.05	34.40	16.59	-40.5	-43.4	14.4	1.50e-06	0	55	0	199229440	52	5079
2026-01-11 22:53:42.09	34.86	16.99	-40.7	-43.6	14.2	0.00e+00	0	55	0	206569472	52	5190
2026-01-11 22:53:46.13	35.33	17.39	-40.8	-43.9	13.9	0.00e+00	0	55	0	213909504	52	5373
2026-01-11 22:53:50.17	35.81	17.80	-41.0	-44.2	13.7	6.10e-06	0	55	0	221249536	52	5557
2026-01-11 22:53:54.20	36.30	18.22	-41.4	-44.9	13.0	2.28e-05	0	55	0	229638144	53	5685
2026-01-11 22:53:58.24	36.81	18.63	-41.3	-44.6	13.3	2.44e-05	0	55	0	236978176	53	5491
2026-01-11 22:54:02.28	37.34	19.06	-40.9	-44.0	13.9	3.80e-06	0	55	0	244318208	53	5138
2026-01-11 22:54:06.32	37.87	19.49	-41.1	-44.4	13.5	5.30e-06	0	55	0	251658240	53	5342
2026-01-11 22:54:10.36	38.43	19.92	-41.1	-44.3	13.6	4.50e-06	0	55	0	260046848	53	5289
2026-01-11 22:54:14.40	38.99	20.36	-41.1	-44.3	13.7	6.10e-06	0	55	0	267386880	53	5282
2026-01-11 22:54:18.43	39.58	20.80	-41.3	-44.7	13.3	1.22e-05	0	55	0	274726912	53	5534
2026-01-11 22:54:22.47	40.18	21.25	-41.1	-44.2	13.8	3.80e-06	0	56	0	282066944	53	5254
2026-01-11 22:54:26.51	40.80	21.71	-40.8	-43.7	14.2	2.20e-06	0	55	0	289406976	53	4982
2026-01-11 22:54:30.55	41.43	22.17	-40.9	-43.8	14.2	3.00e-06	0	55	0	297795584	53	5028
2026-01-11 22:54:34.59	42.09	22.63	-40.9	-43.9	14.1	2.20e-06	0	55	0	305135616	53	5072
2026-01-11 22:54:38.63	42.76	23.10	-40.9	-43.8	14.2	7.00e-07	0	55	0	312475648	53	5036
2026-01-11 22:54:42.67	43.45	23.57	-40.4	-43.1	14.9	0.00e+00	0	56	0	319815680	52	4906
2026-01-11 22:54:46.71	44.17	24.05	-40.7	-43.6	14.4	7.00e-07	0	56	0	328204288	52	5180
2026-01-11 22:54:50.75	44.90	24.53	-41.3	-44.5	13.6	2.20e-06	0	56	0	335544320	53	5420
2026-01-11 22:54:54.79	45.66	25.01	-40.8	-43.7	14.4	1.50e-06	0	56	0	342884352	53	4936
2026-01-11 22:54:58.83	46.44	25.50	-40.5	-43.2	14.9	7.00e-07	0	56	0	350224384	52	4947
2026-01-11 22:55:02.86	47.25	26.00	-40.7	-43.6	14.5	7.00e-07	0	56	0	357564416	52	5173
2026-01-11 22:55:06.90	48.08	26.49	-40.7	-43.6	14.5	0.00e+00	0	56	0	365953024	52	5163
2026-01-11 22:55:10.94	48.94	26.99	-40.7	-43.5	14.6	0.00e+00	0	56	0	373293056	52	5137
2026-01-11 22:55:14.98	49.82	27.49	-40.7	-43.5	14.6	7.00e-07	0	56	0	380633088	52	5120
2026-01-11 22:55:19.02	50.73	28.00	-40.4	-43.0	15.1	0.00e+00	0	56	0	387973120	52	4849
2026-01-11 22:55:23.05	51.67	28.50	-40.6	-43.4	14.8	0.00e+00	0	56	0	396361728	52	5050
2026-01-11 22:55:27.09	52.64	29.00	-40.9	-43.9	14.3	2.20e-06	0	56	0	403701760	52	5354
2026-01-11 22:55:31.13	53.64	29.51	-41.5	-44.7	13.5	1.90e-05	0	56	0	411041792	53	5582
2026-01-11 22:55:35.17	54.67	30.02	-41.7	-45.1	13.0	2.28e-05	0	56	0	418381824	54	5523
2026-01-11 22:55:39.21	55.73	30.52	-42.0	-45.7	12.5	5.64e-05	0	56	0	425721856	54	5874
2026-01-11 22:55:43.24	56.83	31.02	-42.5	-46.7	11.5	6.34e-04	0	56	0	434110464	55	6229
2026-01-11 22:55:47.28	57.96	31.52	-43.1	-48.0	10.3	4.67e-03	0	56	0	441450496	56	6805
2026-01-11 22:55:51.32	59.12	32.01	-42.8	-47.1	11.1	1.97e-03	0	56	0	448790528	56	6192
2026-01-11 22:55:55.36	60.32	32.50	-43.3	-48.4	9.8	1.03e-02	0	56	0	456130560	57	6772
2026-01-11 22:55:59.40	61.56	32.99	-43.1	-47.9	10.3	4.05e-03	0	56	0	464519168	57	6405
2026-01-11 22:56:03.43	62.83	33.46	-43.6	-49.3	8.9	2.12e-02	0	56	0	471859200	57	7485
2026-01-11 22:56:07.47	64.14	33.93	-43.6	-49.2	8.9	3.68e-02	0	56	0	479199232	58	7014
2026-01-11 22:56:11.51	65.49	34.39	-43.3	-48.3	10.1	6.33e-03	0	56	0	486539264	58	6281
2026-01-11 22:56:15.55	66.87	34.84	-43.9	-50.1	8.3	3.51e-02	0	56	0	493879296	58	7725
2026-01-11 22:56:19.59	68.29	35.27	-42.7	-46.8	11.5	1.43e-03	0	56	0	502267904	57	5652
2026-01-11 22:56:23.63	69.75	35.69	-42.4	-46.5	11.7	8.29e-04	0	56	0	509607936	55	6071
2026-01-11 22:56:27.66	71.25	36.10	-41.8	-45.1	13.2	1.13e-04	0	56	0	516947968	55	5202
2026-01-11 22:56:31.70	72.78	36.49	-41.3	-44.3	13.9	5.30e-06	0	56	0	524288000	54	5035
2026-01-11 22:56:35.74	74.35	36.85	-41.2	-44.2	14.0	7.60e-06	0	56	0	531628032	54	4959
2026-01-11 22:56:39.78	75.96	37.20	-40.6	-43.2	15.1	0.00e+00	0	56	0	540016640	52	4975
2026-01-11 22:56:43.81	77.59	37.53	-41.7	-45.0	13.3	1.60e-05	0	56	0	547356672	54	5439
2026-01-11 22:56:47.85	79.26	37.84	-42.4	-46.4	11.8	3.55e-04	0	56	0	554696704	55	6008
2026-01-11 22:56:51.89	80.96	38.12	-40.9	-43.7	14.6	7.00e-07	0	56	0	562036736	53	4936
2026-01-11 22:56:55.93	82.68	38.37	-41.8	-45.3	13.0	3.43e-05	0	56	0	570425344	54	5619
2026-01-11 22:56:59.97	84.44	38.60	-42.1	-45.9	12.3	1.79e-04	0	56	0	577765376	54	6023
2026-01-11 22:57:04.01	86.21	38.79	-41.2	-44.2	14.1	1.50e-06	0	57	0	585105408	54	4965
2026-01-11 22:57:08.05	88.01	38.96	-41.6	-44.9	13.4	9.10e-06	0	56	0	592445440	54	5367
2026-01-11 22:57:12.09	89.82	39.10	-42.1	-45.8	12.5	9.84e-05	0	56	0	600834048	55	5616
2026-01-11 22:57:16.13	91.65	39.20	-41.5	-44.7	13.5	2.59e-05	0	57	0	608174080	55	4975
2026-01-11 22:57:20.18	93.49	39.28	-43.6	-49.1	9.1	8.10e-03	0	56	0	615514112	57	7339
2026-01-11 22:57:24.21	95.33	39.32	-41.6	-44.8	13.4	6.56e-05	0	56	0	622854144	55	5026
2026-01-11 22:57:28.25	97.18	39.33	-40.6	-43.2	15.0	7.00e-07	0	56	0	630194176	53	4695
2026-01-11 22:57:32.28	99.02	39.31	-40.6	-43.2	15.0	0.00e+00	0	57	0	638582784	53	4689
2026-01-11 22:57:36.32	100.86	39.25	-41.6	-44.9	13.4	2.28e-05	0	56	0	645922816	54	5401
2026-01-11 22:57:40.37	102.70	39.16	-41.2	-44.2	14.2	7.00e-07	0	57	0	653262848	54	4933
2026-01-11 22:57:44.40	104.51	39.04	-41.9	-45.4	13.0	1.01e-04	0	56	0	660602880	54	5661
2026-01-11 22:57:48.44	106.32	38.89	-40.7	-43.4	14.8	0.00e+00	0	56	0	668991488	53	4779
2026-01-11 22:57:52.48	108.11	38.70	-41.0	-43.9	14.3	0.00e+00	0	57	0	676331520	53	5095
2026-01-11 22:57:56.52	109.88	38.49	-40.4	-42.9	15.3	0.00e+00	0	57	0	683671552	52	4804
2026-01-11 22:58:00.56	111.62	38.25	-40.4	-42.9	15.4	0.00e+00	0	56	0	691011584	52	4777
2026-01-11 22:58:04.60	113.34	37.99	-40.7	-43.4	14.9	0.00e+00	0	57	0	698351616	52	5087
2026-01-11 22:58:08.63	115.03	37.70	-40.6	-43.3	14.9	7.00e-07	0	57	0	706740224	53	4727
2026-01-11 22:58:12.67	116.68	37.38	-39.5	-41.6	16.7	0.00e+00	0	57	0	714080256	51	4362
2026-01-11 22:58:16.70	118.31	37.04	-41.1	-44.1	14.1	4.50e-06	0	56	0	721420288	53	5209
2026-01-11 22:58:20.74	119.90	36.68	-39.9	-42.1	16.2	0.00e+00	0	57	0	728760320	51	4644
2026-01-11 22:58:24.78	121.46	36.30	-38.2	-39.9	18.3	0.00e+00	0	57	0	736100352	48	4265
2026-01-11 22:58:28.82	122.98	35.90	-40.1	-42.4	15.8	0.00e+00	0	57	0	744488960	51	4811
2026-01-11 22:58:32.86	124.46	35.49	-41.4	-44.5	13.7	3.80e-06	0	56	0	751828992	53	5428
2026-01-11 22:58:36.89	125.90	35.06	-40.0	-42.3	16.0	0.00e+00	0	57	0	759169024	51	4744
2026-01-11 22:58:40.93	127.31	34.62	-41.5	-44.7	13.6	2.13e-05	0	56	0	766509056	54	5225
2026-01-11 22:58:44.97	128.68	34.16	-43.2	-48.0	10.3	2.97e-03	0	57	0	774897664	57	6451
2026-01-11 22:58:49.01	130.02	33.70	-42.0	-45.4	13.0	5.95e-05	0	57	0	782237696	56	5042
2026-01-11 22:58:53.05	131.31	33.22	-42.8	-47.2	11.2	2.44e-03	0	57	0	789577728	56	6210
2026-01-11 22:58:57.09	132.57	32.74	-44.0	-50.6	7.7	5.15e-02	0	57	0	796917760	58	8245
2026-01-11 22:59:01.12	133.79	32.25	-42.6	-46.6	11.7	1.03e-03	0	57	0	804257792	57	5508
2026-01-11 22:59:05.17	134.98	31.75	-43.8	-49.9	8.4	7.02e-02	0	57	0	812646400	58	7584
2026-01-11 22:59:09.20	136.13	31.25	-43.0	-47.5	10.9	1.33e-03	0	57	0	819986432	57	6072
2026-01-11 22:59:13.24	137.25	30.75	-42.7	-46.9	11.4	4.22e-03	0	57	0	827326464	57	5673
2026-01-11 22:59:17.28	138.33	30.24	-42.5	-46.6	11.6	3.74e-04	0	57	0	834666496	55	6171
2026-01-11 22:59:21.31	139.38	29.74	-43.1	-47.6	10.6	8.94e-03	0	57	0	843055104	58	5843
2026-01-11 22:59:25.35	140.40	29.23	-43.0	-47.5	10.8	2.09e-03	0	57	0	850395136	56	6455
2026-01-11 22:59:29.39	141.39	28.72	-40.5	-43.1	15.1	0.00e+00	0	56	0	857735168	53	4619
2026-01-11 22:59:33.43	142.35	28.21	-40.7	-43.3	14.9	0.00e+00	0	57	0	865075200	52	5031
2026-01-11 22:59:37.47	143.28	27.70	-40.4	-42.9	15.3	1.50e-06	0	57	0	872415232	52	4812
2026-01-11 22:59:41.50	144.17	27.20	-39.5	-41.7	16.6	0.00e+00	0	57	0	880803840	50	4661
2026-01-11 22:59:45.54	145.05	26.70	-40.2	-42.7	15.4	0.00e+00	0	57	0	888143872	52	4676
2026-01-11 22:59:49.58	145.89	26.20	-39.0	-40.9	17.3	0.00e+00	0	57	0	895483904	49	4537
2026-01-11 22:59:53.62	146.71	25.70	-40.2	-42.7	15.6	0.00e+00	0	57	0	902823936	51	4949
2026-01-11 22:59:57.66	147.51	25.20	-39.0	-41.0	17.2	0.00e+00	0	57	0	911212544	49	4550
2026-01-11 23:00:01.70	148.28	24.71	-39.1	-41.1	17.1	0.00e+00	0	57	0	918552576	49	4631
2026-01-11 23:00:05.74	149.03	24.22	-39.3	-41.4	16.8	0.00e+00	0	57	0	925892608	49	4798
2026-01-11 23:00:09.78	149.76	23.74	-39.5	-41.7	16.5	0.00e+00	0	57	0	933232640	49	4942
2026-01-11 23:00:13.82	150.46	23.26	-40.0	-42.4	15.9	0.00e+00	0	57	0	940572672	50	5085
2026-01-11 23:00:17.85	151.15	22.79	-39.9	-42.2	16.0	0.00e+00	0	57	0	948961280	50	4946
2026-01-11 23:00:21.89	151.81	22.32	-39.7	-42.0	16.2	0.00e+00	0	57	0	956301312	50	4826
2026-01-11 23:00:25.93	152.46	21.86	-39.9	-42.2	16.1	0.00e+00	0	57	0	963641344	50	4939
2026-01-11 23:00:29.97	153.08	21.40	-40.2	-42.7	15.5	0.00e+00	0	57	0	970981376	51	4965
2026-01-11 23:00:34.01	153.69	20.94	-41.1	-44.1	14.0	1.50e-06	0	57	0	979369984	52	5520
2026-01-11 23:00:38.05	154.29	20.49	-40.7	-43.5	14.6	0.00e+00	0	57	0	986710016	52	5147
2026-01-11 23:00:42.08	154.86	20.05	-40.8	-43.7	14.5	1.50e-06	0	57	0	994050048	52	5239
2026-01-11 23:00:46.12	155.42	19.61	-41.1	-44.2	13.9	3.00e-06	0	57	0	1001390080	52	5540
2026-01-11 23:00:50.16	155.97	19.17	-40.9	-43.8	14.3	7.00e-07	0	57	0	1008730112	52	5311
2026-01-11 23:00:54.20	156.50	18.75	-40.4	-43.0	15.1	0.00e+00	0	57	0	1017118720	52	4860
2026-01-11 23:00:58.23	157.01	18.32	-40.6	-43.4	14.8	0.00e+00	0	57	0	1024458752	52	5047
2026-01-11 23:01:02.27	157.51	17.90	-41.0	-44.1	14.0	3.80e-06	0	57	0	1031798784	52	5490
2026-01-11 23:01:06.31	158.00	17.49	-40.9	-43.8	14.2	0.00e+00	0	57	0	1039138816	52	5327
2026-01-11 23:01:10.35	158.48	17.08	-40.3	-42.9	15.1	0.00e+00	0	57	0	1047527424	52	4796
2026-01-11 23:01:14.39	158.94	16.68	-40.8	-43.7	14.3	0.00e+00	0	57	0	1054867456	52	5252
2026-01-11 23:01:18.42	159.39	16.28	-41.2	-44.4	13.6	5.30e-06	0	57	0	1062207488	53	5352
2026-01-11 23:01:22.46	159.83	15.88	-41.5	-44.9	13.1	2.74e-05	0	57	0	1069547520	53	5679
2026-01-11 23:01:26.50	160.26	15.49	-41.3	-44.6	13.3	2.28e-05	0	57	0	1076887552	53	5509
2026-01-11 23:01:30.54	160.68	15.11	-41.7	-45.3	12.7	2.59e-05	0	57	0	1085276160	53	5940
2026-01-11 23:01:34.57	161.09	14.73	-41.7	-45.4	12.5	1.44e-04	0	57	0	1092616192	54	5712
2026-01-11 23:01:38.61	161.49	14.35	-41.8	-45.7	12.2	1.86e-04	0	57	0	1099956224	54	5888
2026-01-11 23:01:42.65	161.88	13.98	-41.2	-44.5	13.4	1.83e-05	0	57	0	1107296256	54	5104
2026-01-11 23:01:46.69	162.26	13.62	-41.0	-44.2	13.7	5.30e-06	0	57	0	1114636288	54	4948
2026-01-11 23:01:50.73	162.63	13.25	-40.4	-43.2	14.6	1.50e-06	0	57	0	1123024896	52	4939
2026-01-11 23:01:54.77	162.99	12.90	-40.4	-43.2	14.6	0.00e+00	0	57	0	1130364928	52	4964
2026-01-11 23:01:58.80	163.35	12.54	-40.4	-43.3	14.5	0.00e+00	0	57	0	1137704960	52	5010
2026-01-11 23:02:02.84	163.69	12.19	-41.0	-44.3	13.4	3.80e-06	0	57	0	1145044992	52	5608
2026-01-11 23:02:06.88	164.03	11.85	-41.3	-44.8	12.8	5.11e-05	0	57	0	1153433600	53	5653
2026-01-11 23:02:10.92	164.36	11.51	-41.8	-45.9	11.7	5.56e-04	0	57	0	1160773632	54	5999
2026-01-11 23:02:14.96	164.69	11.17	-42.0	-46.3	11.2	1.14e-03	0	57	0	1168113664	54	6329
2026-01-11 23:02:18.99	165.00	10.84	-42.0	-46.4	11.1	1.60e-03	0	57	0	1175453696	54	6365
2026-01-11 23:02:23.03	165.31	10.51	-42.1	-46.7	10.7	2.21e-03	0	57	0	1182793728	54	6639
2026-01-11 23:02:27.06	165.61	10.18	-41.9	-46.3	11.1	1.37e-03	0	57	0	1191182336	54	6289
2026-01-11 23:02:31.10	165.91	9.86	-41.7	-45.9	11.5	8.42e-04	0	57	0	1198522368	54	6026
2026-01-11 23:02:35.14	166.20	9.54	-41.7	-45.8	11.6	1.03e-03	0	57	0	1205862400	54	5978
2026-01-11 23:02:39.18	166.49	9.22	-41.5	-45.5	11.8	5.22e-04	0	57	0	1213202432	54	5762
2026-01-11 23:02:43.22	166.77	8.91	-41.6	-45.7	11.6	6.90e-04	0	57	0	1221591040	54	5882
2026-01-11 23:02:47.26	167.04	8.60	-41.6	-45.9	11.3	1.34e-03	0	57	0	1228931072	54	6035
2026-01-11 23:02:51.29	167.31	8.30	-41.5	-45.8	11.3	1.07e-03	0	57	0	1236271104	54	5972
2026-01-11 23:02:55.33	167.57	7.99	-41.5	-45.7	11.3	1.43e-03	0	57	0	1243611136	54	5904
2026-01-11 23:02:59.37	167.83	7.69	-45.0	-59.7	3.8	1.49e+00	0	57	104	1244659712	60	20793
2026-01-11 23:03:03.41	168.08	7.40	-45.2	-59.8	3.8	1.49e+00	0	57	104	1244659712	60	21230
2026-01-11 23:03:07.46	168.33	7.10	-45.1	-59.8	3.8	1.49e+00	0	57	104	1244659712	60	21121
2026-01-11 23:03:11.50	168.57	6.81	-45.1	-59.7	3.8	1.49e+00	0	57	104	1244659712	60	21014
2026-01-11 23:03:15.54	168.81	6.52	-45.1	-59.7	3.8	1.49e+00	0	57	104	1244659712	60	20969
2026-01-11 23:03:19.58	169.05	6.24	-45.0	-59.7	3.8	1.49e+00	0	57	104	1244659712	60	20943
2026-01-11 23:03:23.62	169.28	5.96	-45.0	-59.7	3.8	1.49e+00	0	57	104	1244659712	60	20942
2026-01-11 23:03:27.67	169.50	5.68	-45.0	-59.7	3.8	1.49e+00	0	57	104	1244659712	60	20939
2026-01-11 23:03:31.71	169.72	5.40	-45.0	-59.7	3.8	1.49e+00	0	57	104	1244659712	60	20946
2026-01-11 23:03:35.75	169.94	5.13	-45.0	-59.7	3.8	1.49e+00	0	57	104	1244659712	60	20960
2026-01-11 23:03:39.80	170.16	4.85	-45.0	-59.7	3.8	1.49e+00	0	57	104	1244659712	60	20863
2026-01-11 23:03:43.84	170.37	4.58	-45.0	-59.7	3.8	1.49e+00	0	57	104	1244659712	60	20931
2026-01-11 23:03:47.88	170.57	4.32	-45.0	-59.7	3.8	1.49e+00	0	57	104	1244659712	60	20871
2026-01-11 23:03:51.93	170.78	4.05	-45.0	-59.7	3.8	1.49e+00	0	57	104	1244659712	60	20874
2026-01-11 23:03:55.97	170.98	3.79	-45.0	-59.7	3.8	1.49e+00	0	57	104	1244659712	60	20819
2026-01-11 23:04:00.02	171.17	3.53	-45.0	-59.7	3.8	1.49e+00	0	57	104	1244659712	60	20908
2026-01-11 23:04:04.06	171.37	3.27	-45.0	-59.7	3.8	1.49e+00	0	57	104	1244659712	60	20853
2026-01-11 23:04:08.10	171.56	3.01	-45.0	-59.7	3.8	1.49e+00	0	57	104	1244659712	60	20875
2026-01-11 23:04:12.15	171.75	2.76	-45.0	-59.7	3.8	1.49e+00	0	57	104	1244659712	60	20785
2026-01-11 23:04:16.19	171.93	2.51	-45.0	-59.6	3.8	1.49e+00	0	57	104	1244659712	60	20745
2026-01-11 23:04:20.23	172.11	2.26	-45.0	-59.6	3.8	1.49e+00	0	57	104	1244659712	60	20757
2026-01-11 23:04:24.28	172.29	2.01	-45.0	-59.6	3.8	1.49e+00	0	57	104	1244659712	60	20767

#Closed at: 2026-01-11 23:04:25
#Recorded file [1244 MB]: D:/lorett/data/31039_260112_015027.dat