passes_logs/2026/01/11/R2.0S_Moscow/R2.0S_Moscow__20260111_235033_FENGYUN_3D_rec.log

#Pass ID: 20260111_235033_FENGYUN 3D
#Satellite: FENGYUN 3D
#Configuration: FENGYUN 3D
#almurnet v.1.7.20251203
#Start time: 2026-01-11 23:50:34

#Version: 2.2.20231116
#Station: R2.0S_Moscow
#Location: 37.707566 lon 55.798166 lat
#TLE: 1 43010U 17072A   26011.26828046  .00000354  00000+0  18908-3 0  9991
#TLE: 2 43010  98.9936 343.0270 0002205 114.1788 245.9618 14.19695184422722

#Time	Az	El	Level	Level2	SNR	BER	BlckErr	Temp	State	Recorded	gain1	gain2
2026-01-11 23:50:34.38	29.73	2.06	-42.7	-54.8	3.8	8.47e-01	0	47	0	0	57	14120
2026-01-11 23:50:37.40	30.00	2.21	-42.6	-54.6	3.8	8.46e-01	0	48	104	0	55	15526
2026-01-11 23:50:40.44	30.27	2.35	-42.5	-54.6	3.8	8.46e-01	0	48	104	0	55	15523
2026-01-11 23:50:43.47	30.55	2.50	-42.6	-54.6	3.8	8.47e-01	0	48	104	0	55	15514
2026-01-11 23:50:46.50	30.83	2.65	-42.6	-54.6	3.8	8.47e-01	0	49	104	0	55	15518
2026-01-11 23:50:49.53	31.11	2.80	-42.6	-54.6	3.8	8.46e-01	0	49	104	0	55	15529
2026-01-11 23:50:52.57	31.40	2.94	-42.5	-54.6	3.8	8.46e-01	0	49	104	0	55	15450
2026-01-11 23:50:55.60	31.68	3.09	-42.6	-54.6	3.8	8.45e-01	0	49	104	0	55	15461
2026-01-11 23:50:58.63	31.97	3.24	-42.6	-54.6	3.8	8.46e-01	0	49	104	0	55	15519
2026-01-11 23:51:01.66	32.27	3.39	-42.6	-54.6	3.8	8.46e-01	0	50	104	0	55	15476
2026-01-11 23:51:04.69	32.56	3.54	-42.6	-54.6	3.8	8.45e-01	0	50	104	0	55	15489
2026-01-11 23:51:07.73	32.86	3.69	-42.6	-54.6	3.8	8.47e-01	0	50	104	0	55	15477
2026-01-11 23:51:10.76	33.17	3.84	-42.6	-54.6	3.8	8.46e-01	0	50	104	0	55	15479
2026-01-11 23:51:13.79	33.47	3.99	-42.6	-54.6	3.8	8.46e-01	0	50	104	0	55	15477
2026-01-11 23:51:16.82	33.78	4.14	-42.6	-54.6	3.8	8.46e-01	0	51	104	0	55	15446
2026-01-11 23:51:19.85	34.09	4.29	-42.6	-54.6	3.8	8.47e-01	0	51	104	0	55	15471
2026-01-11 23:51:22.89	34.40	4.44	-42.6	-54.6	3.8	8.46e-01	0	51	104	0	55	15469
2026-01-11 23:51:25.92	34.72	4.59	-42.6	-54.6	3.8	8.45e-01	0	51	104	0	55	15499
2026-01-11 23:51:28.95	35.04	4.74	-42.6	-54.6	3.8	8.47e-01	0	51	104	0	55	15507
2026-01-11 23:51:31.99	35.37	4.89	-42.6	-54.6	3.8	8.45e-01	0	51	104	0	55	15499
2026-01-11 23:51:35.02	35.69	5.04	-42.6	-54.6	3.8	8.46e-01	0	51	104	0	55	15527
2026-01-11 23:51:38.05	36.02	5.19	-42.6	-54.6	3.8	8.47e-01	0	52	104	0	55	15494
2026-01-11 23:51:41.09	36.36	5.34	-42.6	-54.6	3.8	8.46e-01	0	52	104	0	55	15503
2026-01-11 23:51:44.12	36.69	5.49	-42.6	-54.6	3.8	8.47e-01	0	52	104	0	55	15484
2026-01-11 23:51:47.15	37.03	5.64	-42.6	-54.6	3.8	8.45e-01	0	52	104	0	55	15491
2026-01-11 23:51:50.19	37.38	5.79	-42.6	-54.6	3.8	8.46e-01	0	52	104	0	55	15472
2026-01-11 23:51:53.22	37.72	5.95	-42.6	-54.6	3.8	8.46e-01	0	52	104	0	55	15490
2026-01-11 23:51:56.25	38.07	6.10	-42.5	-54.6	3.8	8.46e-01	0	52	104	0	55	15494
2026-01-11 23:51:59.29	38.43	6.25	-42.6	-54.6	3.8	8.45e-01	0	52	104	0	55	15465
2026-01-11 23:52:02.32	38.78	6.40	-42.5	-54.5	3.8	8.46e-01	0	53	104	0	55	15374
2026-01-11 23:52:05.36	39.15	6.55	-42.5	-54.5	3.8	8.46e-01	0	53	104	0	55	15380
2026-01-11 23:52:08.39	39.51	6.70	-42.5	-54.1	3.8	8.46e-01	0	53	104	0	55	14648
2026-01-11 23:52:11.42	39.88	6.85	-42.5	-54.3	3.8	8.47e-01	0	53	104	0	55	14921
2026-01-11 23:52:14.46	40.25	7.00	-42.3	-52.4	3.9	8.46e-01	0	53	104	0	55	12015
2026-01-11 23:52:17.49	40.63	7.15	-41.9	-49.6	4.7	8.14e-01	0	53	0	0	55	8739
2026-01-11 23:52:20.52	41.01	7.30	-41.7	-48.8	5.1	7.51e-01	0	53	0	0	55	7966
2026-01-11 23:52:23.56	41.39	7.46	-42.2	-52.1	3.8	8.39e-01	0	53	104	0	55	11598
2026-01-11 23:52:26.59	41.78	7.61	-42.2	-51.4	4.1	8.44e-01	0	53	104	0	55	10705
2026-01-11 23:52:29.62	42.17	7.76	-40.0	-43.8	9.5	2.64e-02	0	54	0	11534336	52	5303
2026-01-11 23:52:32.65	42.56	7.91	-38.4	-41.0	12.5	2.63e-04	0	54	0	28311552	48	4869
2026-01-11 23:52:35.69	42.96	8.05	-38.2	-40.6	13.2	2.63e-05	0	54	0	45088768	48	4624
2026-01-11 23:52:38.71	43.36	8.20	-41.0	-48.0	5.6	3.20e-02	0	54	0	61865984	52	8596
2026-01-11 23:52:41.74	43.77	8.35	-37.7	-39.9	13.8	1.10e-06	0	54	0	73400320	47	4529
2026-01-11 23:52:44.77	44.18	8.50	-37.6	-39.7	14.1	4.50e-06	0	54	0	90177536	47	4430
2026-01-11 23:52:47.80	44.59	8.65	-37.7	-39.8	14.1	2.20e-06	0	54	0	106954752	47	4468
2026-01-11 23:52:50.83	45.01	8.80	-37.7	-39.8	14.1	0.00e+00	0	54	0	124780544	47	4486
2026-01-11 23:52:53.86	45.43	8.94	-37.6	-39.6	14.4	0.00e+00	0	54	0	141557760	47	4353
2026-01-11 23:52:56.89	45.86	9.09	-37.5	-39.5	14.6	0.00e+00	0	54	0	158334976	46	4557
2026-01-11 23:52:59.92	46.29	9.24	-37.3	-39.2	14.9	0.00e+00	0	54	0	175112192	46	4428
2026-01-11 23:53:02.95	46.73	9.38	-37.2	-39.1	15.1	0.00e+00	0	54	0	192937984	46	4344
2026-01-11 23:53:05.98	47.17	9.53	-37.1	-38.9	15.3	0.00e+00	0	54	0	209715200	46	4275
2026-01-11 23:53:09.01	47.61	9.67	-37.1	-38.9	15.3	0.00e+00	0	55	0	226492416	46	4283
2026-01-11 23:53:12.04	48.06	9.82	-37.2	-39.0	15.3	0.00e+00	0	54	0	244318208	46	4303
2026-01-11 23:53:15.07	48.51	9.96	-37.1	-38.9	15.3	0.00e+00	0	55	0	261095424	46	4268
2026-01-11 23:53:18.10	48.97	10.10	-37.1	-38.8	15.5	0.00e+00	0	55	0	277872640	46	4229
2026-01-11 23:53:21.13	49.43	10.24	-37.0	-38.8	15.6	0.00e+00	0	55	0	294649856	46	4200
2026-01-11 23:53:24.16	49.89	10.38	-37.0	-38.7	15.6	0.00e+00	0	55	0	311427072	45	4419
2026-01-11 23:53:27.19	50.36	10.52	-36.9	-38.6	15.7	0.00e+00	0	55	0	329252864	45	4361
2026-01-11 23:53:30.22	50.84	10.66	-37.0	-38.7	15.7	0.00e+00	0	55	0	346030080	45	4410
2026-01-11 23:53:33.25	51.32	10.80	-36.9	-38.6	15.8	0.00e+00	0	55	0	362807296	45	4353
2026-01-11 23:53:36.28	51.80	10.94	-36.9	-38.5	15.9	0.00e+00	0	55	0	380633088	45	4330
2026-01-11 23:53:39.31	52.29	11.08	-36.7	-38.5	15.8	0.00e+00	0	55	0	397410304	45	4299
2026-01-11 23:53:42.34	52.78	11.21	-36.6	-38.4	15.9	0.00e+00	0	55	0	414187520	45	4244
2026-01-11 23:53:45.37	53.27	11.34	-36.5	-38.2	16.0	0.00e+00	0	55	0	430964736	45	4169
2026-01-11 23:53:48.40	53.78	11.48	-36.5	-38.3	16.0	0.00e+00	0	55	0	448790528	45	4196
2026-01-11 23:53:51.43	54.28	11.61	-36.5	-38.1	16.1	0.00e+00	0	55	0	465567744	44	4386
2026-01-11 23:53:54.46	54.79	11.74	-36.6	-38.3	15.9	0.00e+00	0	55	0	482344960	44	4491
2026-01-11 23:53:57.48	55.30	11.87	-36.6	-38.4	15.9	0.00e+00	0	55	0	499122176	44	4517
2026-01-11 23:54:00.51	55.82	12.00	-36.6	-38.3	15.9	0.00e+00	0	55	0	515899392	44	4487
2026-01-11 23:54:03.54	56.34	12.12	-36.5	-38.3	16.0	0.00e+00	0	55	0	533725184	44	4451
2026-01-11 23:54:06.57	56.87	12.25	-36.4	-38.0	16.2	0.00e+00	0	55	0	550502400	44	4336
2026-01-11 23:54:09.60	57.40	12.37	-36.4	-38.1	16.1	0.00e+00	0	55	0	567279616	44	4377
2026-01-11 23:54:12.63	57.94	12.49	-36.6	-38.3	15.9	0.00e+00	0	56	0	585105408	44	4470
2026-01-11 23:54:15.65	58.47	12.61	-36.4	-38.1	16.1	0.00e+00	0	56	0	601882624	44	4391
2026-01-11 23:54:18.69	59.02	12.73	-36.2	-37.8	16.4	0.00e+00	0	56	0	618659840	44	4231
2026-01-11 23:54:21.72	59.57	12.84	-36.0	-37.6	16.6	0.00e+00	0	56	0	635437056	44	4117
2026-01-11 23:54:24.75	60.12	12.96	-36.3	-38.0	16.2	0.00e+00	0	56	0	653262848	44	4309
2026-01-11 23:54:27.78	60.68	13.07	-36.5	-38.2	15.9	0.00e+00	0	56	0	670040064	44	4420
2026-01-11 23:54:30.81	61.24	13.18	-36.2	-37.9	16.1	0.00e+00	0	56	0	686817280	44	4280
2026-01-11 23:54:33.83	61.80	13.29	-36.0	-37.7	16.3	0.00e+00	0	56	0	703594496	44	4146
2026-01-11 23:54:36.86	62.37	13.40	-35.3	-36.9	16.7	0.00e+00	0	56	0	720371712	42	4288
2026-01-11 23:54:39.90	62.95	13.50	-38.9	-41.6	12.0	6.06e-05	0	56	0	738197504	48	5162
2026-01-11 23:54:42.92	63.52	13.60	-40.6	-44.8	8.5	2.18e-02	0	56	0	754974720	51	6277
2026-01-11 23:54:45.96	64.11	13.70	-39.8	-43.7	9.2	1.37e-02	0	56	0	771751936	51	5531
2026-01-11 23:54:48.99	64.69	13.80	-40.7	-45.6	7.2	1.14e-01	0	56	0	789577728	52	6531
2026-01-11 23:54:52.02	65.28	13.90	-40.0	-44.1	8.8	2.14e-02	0	56	0	806354944	51	5791
2026-01-11 23:54:55.04	65.87	13.99	-39.2	-42.9	9.5	1.08e-02	0	56	0	823132160	50	5353
2026-01-11 23:54:58.07	66.47	14.08	-38.9	-42.2	10.4	3.09e-03	0	56	0	839909376	49	5226
2026-01-11 23:55:01.10	67.07	14.17	-37.9	-40.7	11.7	4.36e-04	0	56	0	857735168	47	4945
2026-01-11 23:55:04.13	67.67	14.25	-37.1	-39.6	12.7	4.46e-05	0	56	0	874512384	46	4612
2026-01-11 23:55:07.16	68.28	14.34	-37.2	-39.8	12.4	7.78e-05	0	56	0	891289600	46	4725
2026-01-11 23:55:10.20	68.89	14.42	-37.5	-40.3	11.9	3.17e-04	0	56	0	908066816	46	4993
2026-01-11 23:55:13.22	69.50	14.49	-37.4	-40.1	12.0	2.36e-04	0	56	0	924844032	46	4873
2026-01-11 23:55:16.25	70.11	14.57	-37.3	-40.0	12.0	1.69e-04	0	56	0	942669824	46	4859
2026-01-11 23:55:19.28	70.73	14.64	-39.0	-43.0	8.8	1.35e-02	0	56	0	959447040	48	6096
2026-01-11 23:55:22.31	71.35	14.71	-39.5	-44.3	7.2	1.42e-01	0	56	0	976224256	50	6330
2026-01-11 23:55:25.34	71.98	14.77	-38.4	-42.3	9.0	2.75e-02	0	56	0	994050048	48	5595
2026-01-11 23:55:28.37	72.61	14.84	-38.2	-41.8	9.6	1.11e-02	0	56	0	1010827264	48	5331
2026-01-11 23:55:31.40	73.24	14.90	-38.1	-41.4	10.2	4.99e-03	0	56	0	1027604480	48	5069
2026-01-11 23:55:34.43	73.87	14.95	-37.8	-41.1	10.5	2.32e-03	0	57	0	1044381696	47	5180
2026-01-11 23:55:37.45	74.50	15.00	-38.2	-41.8	9.7	8.90e-03	0	56	0	1062207488	47	5639
2026-01-11 23:55:40.48	75.14	15.06	-38.3	-42.1	9.3	1.34e-02	0	56	0	1078984704	47	5797
2026-01-11 23:55:43.51	75.78	15.10	-38.0	-41.6	9.9	8.29e-03	0	56	0	1095761920	47	5469
2026-01-11 23:55:46.54	76.42	15.15	-37.6	-40.7	10.9	1.84e-03	0	56	0	1112539136	47	4942
2026-01-11 23:55:49.57	77.06	15.19	-37.6	-40.7	11.0	1.67e-03	0	56	0	1129316352	47	4936
2026-01-11 23:55:52.60	77.70	15.22	-37.2	-39.9	12.0	2.51e-04	0	57	0	1147142144	46	4795
2026-01-11 23:55:55.63	78.35	15.26	-37.3	-39.9	12.2	1.82e-04	0	56	0	1163919360	46	4814
2026-01-11 23:55:58.66	79.00	15.29	-37.7	-40.5	11.7	4.03e-04	0	56	0	1180696576	46	5145
2026-01-11 23:56:01.68	79.64	15.31	-38.0	-41.0	11.2	1.17e-03	0	56	0	1194328064	48	4820
2026-01-11 23:56:04.71	80.29	15.34	-37.9	-41.0	10.9	1.83e-03	0	56	0	1211105280	47	5102
2026-01-11 23:56:07.75	80.95	15.36	-37.7	-40.7	11.2	1.01e-03	0	57	0	1227882496	47	4960
2026-01-11 23:56:10.78	81.60	15.38	-37.4	-40.1	12.1	2.08e-04	0	57	0	1245708288	46	4887
2026-01-11 23:56:13.81	82.25	15.39	-37.2	-39.7	12.6	5.37e-05	0	56	0	1262485504	46	4672
2026-01-11 23:56:16.84	82.90	15.40	-37.2	-39.8	12.5	7.66e-05	0	56	0	1279262720	46	4710
2026-01-11 23:56:19.87	83.56	15.40	-37.7	-40.5	11.7	3.23e-04	0	57	0	1296039936	46	5106
2026-01-11 23:56:22.90	84.21	15.41	-37.7	-40.5	11.5	5.89e-04	0	57	0	1312817152	46	5154
2026-01-11 23:56:25.93	84.86	15.41	-37.9	-41.0	11.0	1.34e-03	0	56	0	1330642944	46	5419
2026-01-11 23:56:28.96	85.52	15.40	-38.1	-41.3	10.6	2.75e-03	0	57	0	1347420160	46	5633
2026-01-11 23:56:31.99	86.17	15.40	-37.8	-40.7	11.5	8.16e-04	0	57	0	1364197376	46	5228
2026-01-11 23:56:35.02	86.82	15.38	-37.4	-39.9	12.6	5.83e-05	0	57	0	1380974592	46	4799
2026-01-11 23:56:38.05	87.48	15.37	-37.1	-39.5	13.2	1.83e-05	0	57	0	1398800384	46	4575
2026-01-11 23:56:41.07	88.13	15.35	-36.8	-39.0	13.9	3.40e-06	0	57	0	1415577600	45	4586
2026-01-11 23:56:44.11	88.78	15.33	-36.4	-38.4	14.8	0.00e+00	0	57	0	1432354816	44	4499
2026-01-11 23:56:47.14	89.43	15.31	-36.0	-37.8	15.5	0.00e+00	0	57	0	1450180608	44	4241
2026-01-11 23:56:50.17	90.08	15.28	-35.7	-37.5	15.8	0.00e+00	0	56	0	1466957824	43	4330
2026-01-11 23:56:53.20	90.72	15.25	-35.7	-37.4	16.1	0.00e+00	0	57	0	1483735040	43	4253
2026-01-11 23:56:56.22	91.37	15.21	-35.6	-37.3	16.3	0.00e+00	0	57	0	1500512256	43	4226
2026-01-11 23:56:59.26	92.02	15.17	-35.6	-37.2	16.5	0.00e+00	0	57	0	1517289472	43	4171
2026-01-11 23:57:02.29	92.66	15.13	-35.7	-37.3	16.5	0.00e+00	0	57	0	1535115264	43	4232
2026-01-11 23:57:05.32	93.30	15.08	-35.7	-37.4	16.5	0.00e+00	0	57	0	1551892480	43	4252
2026-01-11 23:57:08.35	93.94	15.04	-35.8	-37.4	16.5	0.00e+00	0	57	0	1568669696	43	4281
2026-01-11 23:57:11.38	94.58	14.98	-35.7	-37.3	16.6	0.00e+00	0	57	0	1586495488	43	4220
2026-01-11 23:57:14.41	95.21	14.93	-35.9	-37.6	16.4	0.00e+00	0	57	0	1603272704	43	4351
2026-01-11 23:57:17.44	95.85	14.87	-35.9	-37.6	16.4	0.00e+00	0	57	0	1620049920	43	4365
2026-01-11 23:57:20.47	96.48	14.81	-35.8	-37.5	16.5	0.00e+00	0	57	0	1636827136	43	4315
2026-01-11 23:57:23.50	97.10	14.75	-36.0	-37.7	16.3	0.00e+00	0	57	0	1654652928	43	4416
2026-01-11 23:57:26.53	97.73	14.68	-36.2	-37.9	16.1	0.00e+00	0	57	0	1671430144	43	4516
2026-01-11 23:57:29.56	98.35	14.61	-36.0	-37.8	16.2	0.00e+00	0	57	0	1688207360	43	4445
2026-01-11 23:57:32.59	98.97	14.54	-36.2	-38.0	16.0	0.00e+00	0	57	0	1704984576	43	4567
2026-01-11 23:57:35.62	99.59	14.46	-36.0	-37.7	16.3	2.20e-06	0	57	0	1721761792	43	4402
2026-01-11 23:57:38.65	100.20	14.38	-36.1	-37.9	16.0	5.70e-06	0	57	0	1739587584	43	4518
2026-01-11 23:57:41.68	100.81	14.30	-37.1	-39.3	14.8	9.01e-04	0	57	0	1756364800	44	5006
2026-01-11 23:57:44.71	101.42	14.22	-36.0	-37.8	16.0	2.30e-04	0	57	0	1773142016	42	4753
2026-01-11 23:57:47.74	102.02	14.13	-36.3	-38.1	16.1	3.89e-05	0	57	0	1790967808	44	4359
2026-01-11 23:57:50.77	102.62	14.04	-36.2	-38.0	16.0	9.84e-05	0	57	0	1807745024	43	4584
2026-01-11 23:57:53.80	103.22	13.95	-35.9	-37.6	16.3	2.17e-05	0	57	0	1824522240	42	4626
2026-01-11 23:57:56.83	103.81	13.85	-36.3	-38.0	16.0	1.25e-05	0	57	0	1841299456	43	4574
2026-01-11 23:57:59.86	104.40	13.76	-35.9	-37.9	15.8	7.32e-05	0	57	0	1859125248	42	4781
2026-01-11 23:58:02.89	104.99	13.66	-36.0	-37.8	15.8	1.71e-05	0	57	0	1875902464	42	4738
2026-01-11 23:58:05.92	105.57	13.56	-36.2	-38.0	16.0	3.77e-05	0	57	0	1892679680	43	4551
2026-01-11 23:58:08.95	106.15	13.45	-36.1	-38.0	16.1	1.12e-04	0	57	0	1909456896	42	4823
2026-01-11 23:58:11.98	106.72	13.35	-36.2	-38.0	16.0	5.83e-05	0	57	0	1927282688	43	4566
2026-01-11 23:58:15.01	107.29	13.24	-36.3	-38.0	16.0	6.80e-06	0	57	0	1944059904	43	4581
2026-01-11 23:58:18.04	107.86	13.13	-36.2	-37.8	16.2	2.20e-06	0	57	0	1960837120	43	4488
2026-01-11 23:58:21.07	108.42	13.02	-36.0	-37.8	16.3	3.40e-06	0	57	0	1977614336	42	4719
2026-01-11 23:58:24.10	108.98	12.90	-36.2	-38.0	16.1	1.36e-03	0	57	0	1995440128	43	4550
2026-01-11 23:58:27.13	109.53	12.79	-36.4	-38.2	15.9	7.55e-05	0	57	0	2012217344	43	4680
2026-01-11 23:58:30.16	110.08	12.67	-36.4	-38.1	15.9	5.08e-04	0	57	0	2028994560	43	4642
2026-01-11 23:58:33.19	110.63	12.55	-36.3	-38.1	16.0	1.36e-04	0	57	0	2045771776	43	4609
2026-01-11 23:58:36.22	111.17	12.43	-36.3	-38.1	15.9	1.23e-04	0	57	0	2063597568	43	4630
2026-01-11 23:58:39.24	111.70	12.30	-36.3	-38.2	15.8	1.82e-04	0	57	0	2080374784	43	4673
2026-01-11 23:58:42.28	112.24	12.18	-36.2	-38.3	15.6	2.77e-04	0	57	0	2097152000	43	4739
2026-01-11 23:58:45.31	112.76	12.05	-36.4	-38.4	15.0	7.24e-04	0	57	0	2113929216	43	4779
2026-01-11 23:58:48.34	113.29	11.93	-35.9	-38.3	14.7	4.45e-03	0	57	0	2131755008	42	5015
2026-01-11 23:58:51.36	113.81	11.80	-35.3	-38.4	12.9	1.12e-02	0	57	0	2148532224	42	5080
2026-01-11 23:58:54.39	114.32	11.67	-35.1	-38.4	11.4	5.45e-02	0	57	0	2165309440	40	5692
2026-01-11 23:58:57.42	114.83	11.53	-35.0	-38.4	12.4	6.26e-02	0	57	0	2182086656	41	5356
2026-01-11 23:59:00.45	115.34	11.40	-32.9	-38.2	10.2	1.11e-01	0	57	0	2195718144	39	5861
2026-01-11 23:59:03.47	115.83	11.27	-34.0	-38.5	10.2	1.50e-01	0	57	0	2209349632	39	6121
2026-01-11 23:59:06.51	116.33	11.13	-32.7	-37.9	8.1	3.36e-01	0	57	0	2221932544	34	7607
2026-01-11 23:59:09.54	116.83	10.99	-27.6	-36.5	6.9	5.62e-01	0	57	0	2230321152	27	9653
2026-01-11 23:59:12.57	117.31	10.85	-30.7	-37.1	6.8	5.21e-01	0	57	0	2238709760	26	10998
2026-01-11 23:59:15.59	117.80	10.72	-28.3	-37.5	4.7	5.67e-01	0	57	0	2238709760	24	12928
2026-01-11 23:59:18.62	118.27	10.58	-25.4	-35.1	4.4	5.78e-01	0	57	0	2238709760	18	13847
2026-01-11 23:59:21.65	118.75	10.44	-24.2	-36.2	7.2	5.77e-01	0	57	0	2238709760	26	9918
2026-01-11 23:59:24.68	119.22	10.29	-28.4	-37.2	8.0	5.52e-01	0	57	0	2238709760	22	14012
2026-01-11 23:59:27.71	119.68	10.15	-27.4	-38.9	8.0	5.16e-01	0	57	0	2238709760	22	16954
2026-01-11 23:59:30.74	120.15	10.01	-29.6	-43.8	4.1	8.16e-01	0	57	104	2238709760	26	23706
2026-01-11 23:59:33.77	120.60	9.86	-27.4	-42.0	3.8	8.09e-01	0	57	104	2238709760	30	15291
2026-01-11 23:59:36.80	121.05	9.72	-31.0	-39.8	6.4	3.42e-01	0	57	0	2238709760	30	11847
2026-01-11 23:59:39.83	121.50	9.57	-34.4	-39.4	11.5	2.41e-01	0	57	0	2243952640	39	6766
2026-01-11 23:59:42.86	121.95	9.43	-35.2	-39.0	13.0	6.30e-02	0	57	0	2259681280	43	5133
2026-01-11 23:59:45.89	122.39	9.28	-37.0	-39.5	13.1	6.19e-02	0	57	0	2276458496	44	5123
2026-01-11 23:59:48.91	122.82	9.13	-33.7	-39.1	8.7	2.05e-01	0	57	0	2292187136	39	6560
2026-01-11 23:59:51.94	123.25	8.98	-35.7	-39.5	13.2	2.56e-02	0	57	0	2308964352	44	5131
2026-01-11 23:59:54.97	123.68	8.83	-36.3	-39.4	11.6	5.05e-02	0	57	0	2324692992	42	5715
2026-01-11 23:59:58.00	124.10	8.69	-25.6	-36.3	5.3	1.87e-01	0	57	0	2338324480	27	9409
2026-01-12 00:00:01.03	124.52	8.54	-24.8	-35.1	4.8	5.73e-01	0	57	0	2350907392	20	12356
2026-01-12 00:00:04.06	124.93	8.39	-34.9	-38.5	9.9	1.95e-01	0	57	0	2363490304	37	6828
2026-01-12 00:00:07.10	125.35	8.23	-28.7	-38.8	4.8	7.37e-01	0	57	104	2373976064	27	12591
2026-01-12 00:00:10.13	125.75	8.08	-23.9	-39.2	5.0	8.12e-01	0	57	104	2376073216	27	13244
2026-01-12 00:00:13.16	126.15	7.93	-44.0	-55.9	3.9	8.45e-01	0	57	104	2376073216	59	14263
2026-01-12 00:00:16.19	126.55	7.78	-45.2	-56.9	3.8	8.47e-01	0	57	104	2376073216	60	15058
2026-01-12 00:00:19.22	126.95	7.63	-45.4	-57.1	3.8	8.47e-01	0	57	104	2376073216	61	14673
2026-01-12 00:00:22.25	127.34	7.48	-45.3	-57.0	3.8	8.48e-01	0	57	104	2376073216	61	14536
2026-01-12 00:00:25.28	127.72	7.33	-45.2	-56.9	3.8	8.47e-01	0	57	104	2376073216	61	14332
2026-01-12 00:00:28.31	128.10	7.17	-45.1	-56.8	3.8	8.46e-01	0	57	104	2376073216	61	14168
2026-01-12 00:00:31.34	128.48	7.02	-45.1	-56.8	3.8	8.45e-01	0	57	104	2376073216	61	14135
2026-01-12 00:00:34.38	128.86	6.87	-45.1	-56.8	3.8	8.46e-01	0	57	104	2376073216	61	14110
2026-01-12 00:00:37.41	129.23	6.72	-45.1	-56.8	3.8	8.46e-01	0	57	104	2376073216	61	14119
2026-01-12 00:00:40.44	129.60	6.56	-45.1	-56.8	3.8	8.46e-01	0	57	104	2376073216	61	14113
2026-01-12 00:00:43.47	129.96	6.41	-45.0	-56.8	3.8	8.47e-01	0	57	104	2376073216	61	14074
2026-01-12 00:00:46.51	130.32	6.26	-45.0	-56.8	3.8	8.47e-01	0	58	104	2376073216	61	14108
2026-01-12 00:00:49.54	130.68	6.10	-45.0	-56.8	3.8	8.47e-01	0	57	104	2376073216	61	14104
2026-01-12 00:00:52.57	131.03	5.95	-45.0	-56.7	3.8	8.46e-01	0	57	104	2376073216	61	14033
2026-01-12 00:00:55.60	131.38	5.80	-45.0	-56.8	3.8	8.47e-01	0	57	104	2376073216	60	14901
2026-01-12 00:00:58.64	131.73	5.65	-45.0	-56.7	3.8	8.47e-01	0	58	104	2376073216	60	14853
2026-01-12 00:01:01.67	132.07	5.49	-45.0	-56.7	3.8	8.46e-01	0	58	104	2376073216	60	14866
2026-01-12 00:01:04.70	132.41	5.34	-45.0	-56.7	3.8	8.46e-01	0	57	104	2376073216	60	14868
2026-01-12 00:01:07.73	132.74	5.19	-45.0	-56.7	3.8	8.46e-01	0	57	104	2376073216	60	14827
2026-01-12 00:01:10.77	133.07	5.03	-45.0	-56.7	3.8	8.46e-01	0	57	104	2376073216	60	14835
2026-01-12 00:01:13.80	133.40	4.88	-45.0	-56.7	3.8	8.46e-01	0	57	104	2376073216	60	14853
2026-01-12 00:01:16.83	133.73	4.73	-45.0	-56.7	3.8	8.46e-01	0	57	104	2376073216	60	14858
2026-01-12 00:01:19.87	134.05	4.58	-45.0	-56.7	3.8	8.45e-01	0	57	104	2376073216	60	14828
2026-01-12 00:01:22.90	134.37	4.42	-45.0	-56.7	3.8	8.47e-01	0	57	104	2376073216	60	14869
2026-01-12 00:01:25.94	134.69	4.27	-45.0	-56.7	3.8	8.46e-01	0	57	104	2376073216	60	14773
2026-01-12 00:01:28.97	135.00	4.12	-45.0	-56.7	3.8	8.47e-01	0	57	104	2376073216	60	14825
2026-01-12 00:01:32.00	135.31	3.97	-45.0	-56.7	3.8	8.45e-01	0	57	104	2376073216	60	14839
2026-01-12 00:01:35.03	135.61	3.82	-45.0	-56.7	3.8	8.46e-01	0	58	104	2376073216	60	14763
2026-01-12 00:01:38.06	135.92	3.67	-45.0	-56.7	3.8	8.45e-01	0	58	104	2376073216	60	14770
2026-01-12 00:01:41.10	136.22	3.51	-45.0	-56.7	3.8	8.46e-01	0	58	104	2376073216	60	14786
2026-01-12 00:01:44.13	136.52	3.36	-45.0	-56.7	3.8	8.46e-01	0	57	104	2376073216	60	14805
2026-01-12 00:01:47.16	136.81	3.21	-45.0	-56.7	3.8	8.45e-01	0	57	104	2376073216	60	14766
2026-01-12 00:01:50.20	137.10	3.06	-45.0	-56.7	3.8	8.46e-01	0	58	104	2376073216	60	14786
2026-01-12 00:01:53.23	137.39	2.91	-45.0	-56.7	3.8	8.47e-01	0	57	104	2376073216	60	14783
2026-01-12 00:01:56.26	137.68	2.76	-45.0	-56.7	3.8	8.46e-01	0	58	104	2376073216	60	14775
2026-01-12 00:01:59.30	137.96	2.61	-45.0	-56.7	3.8	8.45e-01	0	57	104	2376073216	60	14775
2026-01-12 00:02:02.33	138.24	2.46	-45.0	-56.7	3.8	8.46e-01	0	58	104	2376073216	60	14764
2026-01-12 00:02:05.37	138.52	2.31	-45.0	-56.7	3.8	8.46e-01	0	58	104	2376073216	60	14748
2026-01-12 00:02:08.40	138.79	2.16	-45.0	-56.7	3.8	8.46e-01	0	58	104	2376073216	60	14775
2026-01-12 00:02:11.43	139.07	2.01	-45.0	-56.7	3.8	8.47e-01	0	57	104	2376073216	60	14737

#Closed at: 2026-01-12 00:02:12
#Recorded file [2376 MB]: D:/lorett/data/31039_260112_025034.dat