passes_logs/2026/01/11/R2.0S_Moscow/R2.0S_Moscow__20260111_030623_AQUA_rec.log

#Pass ID: 20260111_030623_AQUA
#Satellite: AQUA
#Configuration: AQUA
#almurnet v.1.7.20251203
#Start time: 2026-01-11 03:06:23

#Version: 2.2.20231116
#Station: R2.0S_Moscow
#Location: 37.707566 lon 55.798166 lat
#TLE: 1 27424U 02022A   26009.89520876  .00001045  00000+0  21914-3 0  9996
#TLE: 2 27424  98.4076 336.2372 0002032  84.5955   1.0356 14.61811442260144

#Time	Az	El	Level	Level2	SNR	BER	BlckErr	Temp	State	Recorded	gain1	gain2
2026-01-11 03:06:23.42	5.88	2.01	-40.5	-59.7	3.8	7.45e-01	0	47	0	0	51	35138
2026-01-11 03:06:26.44	5.63	2.18	-40.5	-59.7	3.8	7.49e-01	0	47	104	0	51	35154
2026-01-11 03:06:29.48	5.37	2.34	-40.5	-59.7	3.8	7.46e-01	0	47	104	0	51	35084
2026-01-11 03:06:32.51	5.11	2.51	-40.5	-59.7	3.8	7.43e-01	0	47	104	0	51	35117
2026-01-11 03:06:35.54	4.84	2.68	-40.5	-59.7	3.8	7.47e-01	0	48	104	0	51	35088
2026-01-11 03:06:38.57	4.57	2.85	-40.5	-59.7	3.8	7.47e-01	0	48	104	0	51	35142
2026-01-11 03:06:41.61	4.30	3.02	-40.5	-59.7	3.8	7.46e-01	0	48	104	0	51	35162
2026-01-11 03:06:44.64	4.02	3.20	-40.5	-59.7	3.8	7.47e-01	0	48	104	0	51	35109
2026-01-11 03:06:47.67	3.74	3.37	-40.5	-59.7	3.8	7.44e-01	0	48	104	0	51	35077
2026-01-11 03:06:50.70	3.46	3.54	-40.5	-59.7	3.8	7.46e-01	0	49	104	0	51	35078
2026-01-11 03:06:53.74	3.17	3.71	-40.5	-59.7	3.8	7.43e-01	0	49	104	0	51	35070
2026-01-11 03:06:56.77	2.88	3.89	-40.5	-59.7	3.8	7.44e-01	0	49	104	0	51	35059
2026-01-11 03:06:59.80	2.59	4.06	-40.4	-59.7	3.8	7.46e-01	0	49	104	0	51	35070
2026-01-11 03:07:02.83	2.29	4.24	-40.4	-59.7	3.8	7.44e-01	0	50	104	0	51	35155
2026-01-11 03:07:05.87	1.98	4.41	-40.4	-59.7	3.8	7.43e-01	0	50	104	0	51	35065
2026-01-11 03:07:08.90	1.67	4.59	-40.5	-59.7	3.8	7.49e-01	0	50	104	0	51	35156
2026-01-11 03:07:11.93	1.36	4.76	-40.5	-59.7	3.8	7.43e-01	0	50	104	0	51	35034
2026-01-11 03:07:14.95	1.05	4.94	-40.5	-59.7	3.8	7.45e-01	0	50	104	0	51	35082
2026-01-11 03:07:17.98	0.73	5.12	-40.5	-59.7	3.8	7.45e-01	0	50	104	0	51	35098
2026-01-11 03:07:21.02	0.40	5.30	-40.5	-59.7	3.8	7.45e-01	0	50	104	0	51	35061
2026-01-11 03:07:24.05	0.07	5.48	-40.4	-59.7	3.8	7.48e-01	0	51	104	0	51	34968
2026-01-11 03:07:27.08	359.74	5.65	-40.5	-59.7	3.8	7.44e-01	0	51	104	0	51	34973
2026-01-11 03:07:30.12	359.40	5.83	-40.5	-59.7	3.8	7.46e-01	0	51	104	0	51	35007
2026-01-11 03:07:33.15	359.05	6.01	-40.5	-59.7	3.8	7.46e-01	0	51	104	0	51	34998
2026-01-11 03:07:36.18	358.71	6.20	-40.4	-59.7	3.8	7.44e-01	0	51	104	0	51	35023
2026-01-11 03:07:39.20	358.35	6.38	-40.4	-59.7	3.8	7.43e-01	0	51	104	0	51	35072
2026-01-11 03:07:42.24	357.99	6.56	-40.4	-59.7	3.8	7.45e-01	0	51	104	0	51	35014
2026-01-11 03:07:45.27	357.63	6.74	-40.4	-59.7	3.8	7.44e-01	0	52	104	0	51	35027
2026-01-11 03:07:48.30	357.26	6.92	-40.4	-59.7	3.8	7.44e-01	0	52	104	0	51	35037
2026-01-11 03:07:51.33	356.89	7.10	-40.4	-59.7	3.8	7.45e-01	0	52	104	0	51	35061
2026-01-11 03:07:54.37	356.51	7.29	-40.4	-59.7	3.8	7.46e-01	0	52	104	0	51	35057
2026-01-11 03:07:57.40	356.13	7.47	-40.4	-59.7	3.8	7.46e-01	0	52	104	0	51	35070
2026-01-11 03:08:00.43	355.74	7.65	-40.4	-59.7	3.8	7.49e-01	0	52	104	0	51	35076
2026-01-11 03:08:03.47	355.34	7.84	-40.4	-59.7	3.8	7.46e-01	0	52	104	0	51	35007
2026-01-11 03:08:06.50	354.94	8.02	-40.4	-59.7	3.8	7.42e-01	0	52	104	0	51	35063
2026-01-11 03:08:09.53	354.53	8.21	-40.7	-59.8	3.8	7.47e-01	0	52	104	0	51	35419
2026-01-11 03:08:12.56	354.12	8.39	-40.7	-59.8	3.8	7.45e-01	0	52	104	0	52	33449
2026-01-11 03:08:15.59	353.70	8.58	-40.7	-59.8	3.8	7.43e-01	0	53	104	0	52	33459
2026-01-11 03:08:18.62	353.28	8.76	-40.9	-60.0	3.8	7.46e-01	0	53	104	0	52	34317
2026-01-11 03:08:21.64	352.85	8.94	-40.8	-59.9	3.8	7.44e-01	0	53	104	0	52	34075
2026-01-11 03:08:24.67	352.41	9.13	-40.9	-60.1	3.8	7.47e-01	0	53	104	0	52	34683
2026-01-11 03:08:27.70	351.97	9.31	-41.1	-60.2	3.8	7.45e-01	0	53	104	0	52	35240
2026-01-11 03:08:30.73	351.52	9.50	-40.9	-60.0	3.8	7.42e-01	0	53	104	0	52	34471
2026-01-11 03:08:33.76	351.07	9.68	-40.9	-60.1	3.8	7.46e-01	0	53	104	0	53	32563
2026-01-11 03:08:36.79	350.61	9.87	-41.3	-60.4	3.8	7.44e-01	0	53	104	0	53	33810
2026-01-11 03:08:39.82	350.14	10.05	-41.1	-60.2	3.8	7.44e-01	0	53	104	0	53	33244
2026-01-11 03:08:42.85	349.66	10.24	-41.0	-60.5	3.8	7.45e-01	0	53	104	0	53	34093
2026-01-11 03:08:45.88	349.18	10.42	-41.4	-60.4	3.8	7.46e-01	0	53	104	0	53	33878
2026-01-11 03:08:48.91	348.69	10.60	-41.6	-60.6	3.8	7.48e-01	0	53	104	0	54	32859
2026-01-11 03:08:51.94	348.20	10.79	-41.8	-60.7	3.8	7.45e-01	0	53	104	0	54	33112
2026-01-11 03:08:54.97	347.70	10.97	-41.6	-60.7	3.8	7.46e-01	0	54	104	0	54	33007
2026-01-11 03:08:58.00	347.19	11.15	-41.5	-60.6	3.8	7.42e-01	0	54	104	0	54	32729
2026-01-11 03:09:01.03	346.68	11.33	-41.5	-60.8	3.8	7.45e-01	0	53	104	0	54	33353
2026-01-11 03:09:04.06	346.15	11.51	-41.6	-60.7	3.8	7.45e-01	0	54	104	0	54	33030
2026-01-11 03:09:07.10	345.62	11.70	-41.4	-60.5	3.8	7.47e-01	0	54	104	0	54	32469
2026-01-11 03:09:10.13	345.09	11.87	-41.5	-60.5	3.8	7.47e-01	0	54	104	0	54	32303
2026-01-11 03:09:13.16	344.54	12.05	-41.3	-60.2	3.8	7.45e-01	0	54	104	0	54	31445
2026-01-11 03:09:16.19	343.99	12.23	-41.3	-60.3	3.8	7.46e-01	0	54	104	0	54	31646
2026-01-11 03:09:19.21	343.43	12.41	-41.3	-60.4	3.8	7.47e-01	0	54	104	0	54	31828
2026-01-11 03:09:22.24	342.87	12.58	-41.3	-60.2	3.8	7.46e-01	0	54	104	0	54	31431
2026-01-11 03:09:25.27	342.29	12.75	-41.3	-60.4	3.8	7.43e-01	0	54	104	0	53	33823
2026-01-11 03:09:28.30	341.71	12.93	-40.8	-60.2	3.8	7.45e-01	0	54	104	0	52	35050
2026-01-11 03:09:31.33	341.13	13.10	-40.9	-60.2	3.8	7.44e-01	0	54	104	0	52	34904
2026-01-11 03:09:34.36	340.53	13.27	-41.5	-59.3	3.8	7.45e-01	0	54	104	0	53	29804
2026-01-11 03:09:37.40	339.93	13.44	-42.6	-55.1	5.8	6.89e-01	92	55	0	0	55	16409
2026-01-11 03:09:40.42	339.32	13.60	-43.0	-51.1	10.6	6.19e-01	0	54	0	5767168	56	9798
2026-01-11 03:09:43.45	338.70	13.77	-42.6	-48.7	13.5	6.06e-01	0	54	0	11534336	56	7457
2026-01-11 03:09:46.48	338.07	13.93	-41.0	-44.5	18.0	6.03e-01	0	54	0	16777216	54	5145
2026-01-11 03:09:49.51	337.44	14.09	-41.3	-44.8	18.2	6.05e-01	0	54	0	22544384	53	5600
2026-01-11 03:09:52.53	336.80	14.25	-40.5	-43.4	19.7	6.03e-01	0	54	0	28311552	53	4767
2026-01-11 03:09:55.56	336.16	14.40	-40.3	-43.1	20.1	6.03e-01	0	55	0	34078720	52	4874
2026-01-11 03:09:58.59	335.50	14.56	-40.1	-42.7	20.4	6.04e-01	0	55	0	39845888	52	4672
2026-01-11 03:10:01.62	334.84	14.71	-39.9	-42.4	20.8	6.04e-01	0	55	0	45613056	51	4793
2026-01-11 03:10:04.65	334.17	14.86	-40.0	-42.5	20.7	6.04e-01	0	55	0	50855936	51	4869
2026-01-11 03:10:07.68	333.49	15.00	-40.1	-42.6	20.7	6.02e-01	0	55	0	56623104	51	4873
2026-01-11 03:10:10.71	332.81	15.14	-40.0	-42.5	20.9	6.04e-01	0	55	0	62390272	51	4828
2026-01-11 03:10:13.74	332.12	15.28	-40.2	-42.7	20.7	6.03e-01	0	55	0	68157440	51	4964
2026-01-11 03:10:16.77	331.42	15.42	-40.0	-42.5	20.9	6.03e-01	0	55	0	73924608	51	4825
2026-01-11 03:10:19.80	330.71	15.55	-40.1	-42.5	20.9	6.05e-01	0	55	0	79691776	51	4863
2026-01-11 03:10:22.83	330.00	15.68	-40.1	-42.6	20.8	6.02e-01	0	55	0	84934656	51	4900
2026-01-11 03:10:25.86	329.28	15.81	-40.1	-42.5	20.9	6.04e-01	0	55	0	90701824	51	4861
2026-01-11 03:10:28.89	328.56	15.93	-40.1	-42.6	20.9	6.06e-01	0	55	0	96468992	51	4893
2026-01-11 03:10:31.92	327.83	16.05	-40.1	-42.5	21.0	6.05e-01	0	55	0	102236160	51	4849
2026-01-11 03:10:34.94	327.09	16.17	-40.2	-42.7	20.8	6.04e-01	0	55	0	108003328	51	4972
2026-01-11 03:10:37.97	326.35	16.28	-40.1	-42.6	20.9	6.03e-01	0	55	0	113770496	51	4890
2026-01-11 03:10:41.00	325.60	16.38	-40.2	-42.6	20.9	6.04e-01	0	55	0	119013376	51	4920
2026-01-11 03:10:44.03	324.85	16.49	-40.2	-42.7	20.8	6.03e-01	0	55	0	124780544	51	4948
2026-01-11 03:10:47.06	324.09	16.58	-40.3	-42.8	20.7	6.03e-01	0	55	0	130547712	51	5036
2026-01-11 03:10:50.08	323.32	16.68	-40.2	-42.6	20.9	6.03e-01	0	55	0	136314880	51	4917
2026-01-11 03:10:53.11	322.55	16.77	-40.2	-42.6	20.9	6.03e-01	0	55	0	142082048	51	4920
2026-01-11 03:10:56.14	321.78	16.85	-40.3	-42.9	20.7	6.04e-01	0	55	0	147849216	51	5047
2026-01-11 03:10:59.17	321.00	16.93	-40.3	-42.8	20.7	6.05e-01	0	55	0	153092096	51	5031
2026-01-11 03:11:02.20	320.21	17.01	-40.2	-42.7	20.9	6.04e-01	0	55	0	158859264	51	4938
2026-01-11 03:11:05.22	319.43	17.07	-40.4	-42.9	20.6	6.03e-01	0	55	0	164626432	51	5085
2026-01-11 03:11:08.25	318.63	17.14	-40.2	-42.7	20.9	6.03e-01	0	55	0	170393600	51	4941
2026-01-11 03:11:11.28	317.84	17.20	-40.5	-43.1	20.5	6.04e-01	0	55	0	176160768	51	5160
2026-01-11 03:11:14.31	317.04	17.25	-40.3	-42.8	20.7	6.02e-01	0	55	0	181927936	51	5029
2026-01-11 03:11:17.34	316.24	17.30	-40.3	-42.8	20.8	6.01e-01	0	55	0	187170816	51	5008
2026-01-11 03:11:20.37	315.43	17.34	-40.3	-42.8	20.7	6.04e-01	0	55	0	192937984	51	5006
2026-01-11 03:11:23.40	314.63	17.38	-40.4	-42.9	20.8	6.02e-01	0	55	0	198705152	51	5047
2026-01-11 03:11:26.42	313.82	17.41	-40.2	-42.6	21.0	6.05e-01	0	55	0	204472320	51	4878
2026-01-11 03:11:29.45	313.01	17.44	-40.5	-43.1	20.5	6.03e-01	0	55	0	210239488	51	5196
2026-01-11 03:11:32.48	312.20	17.46	-40.1	-42.5	21.1	6.02e-01	0	55	0	216006656	51	4848
2026-01-11 03:11:35.51	311.38	17.48	-40.7	-43.3	20.3	6.04e-01	0	55	0	221249536	51	5314
2026-01-11 03:11:38.54	310.57	17.49	-40.1	-42.5	21.0	6.04e-01	0	55	0	227016704	51	4863
2026-01-11 03:11:41.57	309.75	17.49	-40.6	-43.3	20.3	6.03e-01	0	55	0	232783872	51	5306
2026-01-11 03:11:44.60	308.94	17.49	-40.2	-42.7	21.0	6.05e-01	0	55	0	238551040	51	4931
2026-01-11 03:11:47.62	308.13	17.49	-40.4	-42.9	20.6	6.04e-01	0	55	0	244318208	51	5087
2026-01-11 03:11:50.65	307.31	17.47	-40.1	-42.5	21.1	6.02e-01	0	55	0	249561088	51	4849
2026-01-11 03:11:53.68	306.50	17.45	-40.6	-43.2	20.3	6.04e-01	0	55	0	255328256	51	5245
2026-01-11 03:11:56.71	305.69	17.43	-40.5	-43.1	20.4	6.05e-01	0	55	0	261095424	51	5202
2026-01-11 03:11:59.74	304.88	17.40	-40.3	-42.8	20.8	6.02e-01	0	55	0	266862592	51	5025
2026-01-11 03:12:02.77	304.07	17.37	-40.3	-42.8	20.7	6.03e-01	0	56	0	272629760	51	5018
2026-01-11 03:12:05.80	303.26	17.33	-40.7	-43.4	20.1	6.05e-01	0	55	0	278396928	52	5052
2026-01-11 03:12:08.82	302.46	17.28	-40.8	-43.5	19.9	6.01e-01	0	55	0	284164096	52	5159
2026-01-11 03:12:11.85	301.66	17.23	-40.1	-42.5	20.9	6.04e-01	0	56	0	289406976	52	4571
2026-01-11 03:12:14.88	300.86	17.17	-40.1	-42.5	20.9	6.04e-01	0	56	0	295174144	52	4590
2026-01-11 03:12:17.91	300.06	17.11	-40.3	-42.8	20.8	6.03e-01	0	55	0	300941312	51	4984
2026-01-11 03:12:20.93	299.27	17.05	-40.3	-42.9	20.6	6.02e-01	0	56	0	306708480	51	5048
2026-01-11 03:12:23.96	298.48	16.97	-40.8	-43.6	19.8	6.07e-01	0	56	0	312475648	52	5173
2026-01-11 03:12:26.99	297.70	16.90	-40.4	-42.9	20.6	6.02e-01	0	56	0	317718528	51	5098
2026-01-11 03:12:30.02	296.92	16.81	-40.8	-43.6	19.8	6.04e-01	0	56	0	323485696	52	5214
2026-01-11 03:12:33.05	296.14	16.73	-41.0	-44.1	19.2	6.02e-01	0	56	0	329252864	52	5485
2026-01-11 03:12:36.07	295.38	16.64	-40.4	-43.1	20.3	6.03e-01	0	56	0	335020032	52	4874
2026-01-11 03:12:39.10	294.61	16.54	-40.7	-43.5	20.0	6.05e-01	0	56	0	340787200	52	5101
2026-01-11 03:12:42.13	293.85	16.44	-40.6	-43.4	20.1	6.03e-01	0	56	0	346554368	51	5354
2026-01-11 03:12:45.16	293.10	16.34	-40.3	-42.8	20.6	6.03e-01	0	55	0	351797248	51	5007
2026-01-11 03:12:48.19	292.35	16.23	-40.0	-42.4	21.0	6.03e-01	0	56	0	357564416	51	4793
2026-01-11 03:12:51.22	291.61	16.12	-40.4	-43.0	20.4	6.04e-01	0	56	0	363331584	51	5136
2026-01-11 03:12:54.24	290.87	16.00	-40.3	-42.9	20.5	6.05e-01	0	56	0	369098752	52	4764
2026-01-11 03:12:57.27	290.14	15.88	-40.3	-43.0	20.3	6.03e-01	0	56	0	374865920	52	4835
2026-01-11 03:13:00.28	289.42	15.75	-40.3	-42.8	20.4	6.02e-01	0	56	0	380633088	52	4756
2026-01-11 03:13:03.30	288.71	15.63	-40.2	-42.8	20.4	6.02e-01	0	56	0	385875968	52	4756
2026-01-11 03:13:06.33	287.99	15.49	-40.3	-42.9	20.3	6.03e-01	0	56	0	391643136	52	4789
2026-01-11 03:13:09.36	287.29	15.36	-40.4	-43.2	19.9	6.03e-01	0	56	0	397410304	52	4956
2026-01-11 03:13:12.39	286.59	15.22	-40.6	-43.5	19.7	6.05e-01	0	56	0	403177472	52	5129
2026-01-11 03:13:15.41	285.90	15.08	-40.7	-43.6	19.6	6.03e-01	0	56	0	408944640	52	5216
2026-01-11 03:13:18.44	285.22	14.94	-40.1	-42.7	20.6	6.05e-01	0	56	0	414187520	51	4934
2026-01-11 03:13:21.47	284.54	14.79	-40.3	-42.9	20.4	6.03e-01	0	56	0	419954688	51	5049
2026-01-11 03:13:24.50	283.87	14.64	-40.7	-43.5	19.7	6.02e-01	0	56	0	425721856	52	5156
2026-01-11 03:13:27.53	283.21	14.49	-40.3	-42.9	20.3	6.04e-01	0	56	0	431489024	52	4791
2026-01-11 03:13:30.56	282.56	14.33	-40.2	-42.8	20.3	6.05e-01	0	56	0	437256192	52	4751
2026-01-11 03:13:33.58	281.91	14.17	-40.4	-43.1	20.1	6.03e-01	0	56	0	443023360	52	4885
2026-01-11 03:13:36.61	281.27	14.01	-40.2	-42.8	20.3	6.06e-01	0	56	0	448790528	52	4754
2026-01-11 03:13:39.64	280.64	13.85	-40.1	-42.7	20.5	6.03e-01	0	56	0	454033408	52	4681
2026-01-11 03:13:42.67	280.01	13.69	-40.3	-43.1	20.1	6.04e-01	0	56	0	459800576	52	4871
2026-01-11 03:13:45.70	279.40	13.52	-40.2	-42.9	20.2	6.06e-01	0	56	0	465567744	52	4778
2026-01-11 03:13:48.73	278.78	13.36	-40.1	-42.7	20.4	6.03e-01	0	56	0	471334912	52	4695
2026-01-11 03:13:51.76	278.18	13.19	-40.3	-42.9	20.2	6.06e-01	0	56	0	477102080	52	4810
2026-01-11 03:13:54.79	277.59	13.02	-40.2	-42.9	20.2	6.03e-01	0	56	0	482344960	52	4793
2026-01-11 03:13:57.81	277.00	12.84	-40.3	-43.1	19.9	6.05e-01	0	56	0	488112128	52	4873
2026-01-11 03:14:00.84	276.42	12.67	-40.3	-43.0	20.0	6.03e-01	0	56	0	493879296	52	4832
2026-01-11 03:14:03.87	275.85	12.49	-40.3	-43.1	19.9	6.05e-01	0	56	0	499646464	52	4885
2026-01-11 03:14:06.90	275.28	12.32	-40.1	-42.9	20.0	6.05e-01	0	56	0	505413632	52	4771
2026-01-11 03:14:09.93	274.72	12.14	-40.2	-43.0	19.9	6.06e-01	0	56	0	511180800	52	4837
2026-01-11 03:14:12.96	274.17	11.96	-40.2	-43.1	19.6	6.05e-01	0	56	0	516423680	52	4912
2026-01-11 03:14:15.98	273.63	11.78	-40.0	-42.8	19.9	6.01e-01	0	56	0	522190848	52	4735
2026-01-11 03:14:19.01	273.09	11.60	-40.2	-43.1	19.6	6.05e-01	0	56	0	527958016	52	4903
2026-01-11 03:14:22.04	272.56	11.42	-40.2	-43.2	19.4	6.03e-01	0	56	0	533725184	52	4940
2026-01-11 03:14:25.07	272.04	11.24	-40.2	-43.3	19.2	6.04e-01	0	56	0	539492352	52	5014
2026-01-11 03:14:28.10	271.52	11.06	-40.2	-43.3	19.1	6.04e-01	0	56	0	545259520	52	5020
2026-01-11 03:14:31.12	271.02	10.88	-40.2	-43.3	19.1	6.03e-01	0	56	0	550502400	52	5037
2026-01-11 03:14:34.15	270.51	10.69	-40.2	-43.3	19.0	6.04e-01	0	56	0	556269568	52	5000
2026-01-11 03:14:37.18	270.02	10.51	-40.2	-43.3	19.0	6.06e-01	0	56	0	562036736	52	5033
2026-01-11 03:14:40.21	269.53	10.32	-40.0	-43.0	19.4	6.05e-01	0	56	0	567803904	51	5108
2026-01-11 03:14:43.23	269.05	10.14	-40.2	-43.4	18.9	6.05e-01	0	56	0	573571072	51	5369
2026-01-11 03:14:46.27	268.58	9.95	-40.4	-43.7	18.6	6.05e-01	0	56	0	579338240	51	5548
2026-01-11 03:14:49.29	268.11	9.77	-40.6	-44.0	18.1	6.03e-01	0	56	0	584581120	51	5770
2026-01-11 03:14:52.32	267.65	9.58	-40.8	-44.7	17.3	6.03e-01	0	56	0	590348288	52	5878
2026-01-11 03:14:55.35	267.19	9.40	-40.8	-44.7	17.1	6.05e-01	0	56	0	596115456	52	5904
2026-01-11 03:14:58.38	266.74	9.21	-40.8	-44.8	16.9	6.05e-01	0	56	0	601882624	52	5967
2026-01-11 03:15:01.40	266.30	9.03	-40.9	-45.1	16.6	6.05e-01	0	56	0	607649792	52	6172
2026-01-11 03:15:04.43	265.86	8.84	-41.2	-45.7	16.0	6.05e-01	0	56	0	613416960	52	6619
2026-01-11 03:15:07.46	265.43	8.66	-41.4	-46.3	15.2	6.05e-01	0	56	0	618659840	53	6672
2026-01-11 03:15:10.49	265.01	8.47	-41.5	-46.7	14.8	6.04e-01	0	56	0	624427008	53	6965
2026-01-11 03:15:13.52	264.59	8.29	-41.6	-46.9	14.5	6.05e-01	0	56	0	630194176	53	7197
2026-01-11 03:15:16.55	264.17	8.10	-41.5	-46.9	14.4	6.04e-01	0	56	0	635961344	53	7188
2026-01-11 03:15:19.58	263.77	7.92	-45.2	-63.7	3.8	7.39e-01	0	56	104	640155648	61	31255
2026-01-11 03:15:22.61	263.37	7.73	-45.9	-64.7	3.8	7.50e-01	0	56	104	640155648	62	33282
2026-01-11 03:15:25.65	262.97	7.55	-46.0	-64.9	3.8	7.48e-01	0	56	104	640155648	62	33992
2026-01-11 03:15:28.68	262.58	7.36	-46.0	-64.9	3.8	7.46e-01	0	56	104	640155648	62	33927
2026-01-11 03:15:31.71	262.19	7.18	-46.0	-64.9	3.8	7.46e-01	0	56	104	640155648	62	33922
2026-01-11 03:15:34.74	261.81	7.00	-46.0	-65.0	3.8	7.42e-01	0	56	104	640155648	62	34108
2026-01-11 03:15:37.77	261.44	6.81	-45.9	-64.9	3.8	7.44e-01	0	56	104	640155648	62	33846
2026-01-11 03:15:40.80	261.07	6.63	-45.9	-64.9	3.8	7.44e-01	0	56	104	640155648	62	33817
2026-01-11 03:15:43.84	260.70	6.45	-45.9	-64.8	3.8	7.44e-01	0	56	104	640155648	62	33564
2026-01-11 03:15:46.87	260.34	6.27	-45.9	-64.8	3.8	7.47e-01	0	56	104	640155648	62	33474
2026-01-11 03:15:49.90	259.99	6.08	-45.9	-64.8	3.8	7.43e-01	0	56	104	640155648	62	33588
2026-01-11 03:15:52.94	259.64	5.90	-45.9	-64.8	3.8	7.44e-01	0	56	104	640155648	62	33483
2026-01-11 03:15:55.97	259.29	5.72	-45.9	-64.8	3.8	7.46e-01	0	56	104	640155648	62	33379
2026-01-11 03:15:59.00	258.95	5.54	-45.8	-64.8	3.8	7.48e-01	0	56	104	640155648	62	33395
2026-01-11 03:16:02.03	258.62	5.36	-45.9	-64.8	3.8	7.44e-01	0	56	104	640155648	62	33464
2026-01-11 03:16:05.07	258.28	5.18	-45.8	-64.8	3.8	7.46e-01	0	56	104	640155648	62	33418
2026-01-11 03:16:08.10	257.96	5.00	-45.8	-64.8	3.8	7.45e-01	0	56	104	640155648	62	33408
2026-01-11 03:16:11.13	257.64	4.83	-45.8	-64.8	3.8	7.46e-01	0	56	104	640155648	62	33397
2026-01-11 03:16:14.17	257.32	4.65	-45.8	-64.7	3.8	7.41e-01	0	56	104	640155648	62	33293
2026-01-11 03:16:17.20	257.00	4.47	-45.8	-64.8	3.8	7.44e-01	0	56	104	640155648	62	33333
2026-01-11 03:16:20.23	256.69	4.30	-45.8	-64.8	3.8	7.45e-01	0	57	104	640155648	62	33403
2026-01-11 03:16:23.26	256.39	4.12	-45.8	-64.8	3.8	7.44e-01	0	57	104	640155648	62	33313
2026-01-11 03:16:26.29	256.09	3.95	-45.8	-64.7	3.8	7.47e-01	0	57	104	640155648	62	33265
2026-01-11 03:16:29.33	255.79	3.77	-45.8	-64.7	3.8	7.43e-01	0	56	104	640155648	62	33250
2026-01-11 03:16:32.36	255.50	3.60	-45.8	-64.8	3.8	7.44e-01	0	56	104	640155648	62	33385
2026-01-11 03:16:35.39	255.21	3.42	-45.8	-64.8	3.8	7.45e-01	0	56	104	640155648	62	33380
2026-01-11 03:16:38.42	254.92	3.25	-45.8	-64.8	3.8	7.45e-01	0	57	104	640155648	62	33371
2026-01-11 03:16:41.45	254.64	3.08	-45.8	-64.8	3.8	7.45e-01	0	56	104	640155648	62	33363
2026-01-11 03:16:44.48	254.36	2.91	-45.8	-64.7	3.8	7.45e-01	0	57	104	640155648	62	33290
2026-01-11 03:16:47.52	254.09	2.74	-45.8	-64.8	3.8	7.43e-01	0	56	104	640155648	62	33353
2026-01-11 03:16:50.55	253.82	2.57	-45.8	-64.7	3.8	7.43e-01	0	57	104	640155648	62	33308
2026-01-11 03:16:53.58	253.55	2.40	-45.8	-64.7	3.8	7.47e-01	0	56	104	640155648	62	33293
2026-01-11 03:16:56.61	253.29	2.23	-45.8	-64.8	3.8	7.50e-01	0	57	104	640155648	62	33322
2026-01-11 03:16:59.65	253.02	2.06	-45.8	-64.7	3.8	7.44e-01	0	57	104	640155648	62	33307

#Closed at: 2026-01-11 03:17:01
#Recorded file [640 MB]: D:/lorett/data/31039_260111_060623.dat