passes_logs/2026/01/11/R2.0S_Moscow/R2.0S_Moscow__20260111_083118_NOAA_21_JPSS-2_rec.log

#Pass ID: 20260111_083118_NOAA 21 (JPSS-2)
#Satellite: NOAA 21 (JPSS-2)
#Configuration: NOAA-21
#almurnet v.1.7.20251203
#Start time: 2026-01-11 08:31:19

#Version: 2.2.20231116
#Station: R2.0S_Moscow
#Location: 37.707566 lon 55.798166 lat
#TLE: 1 54234U 22150A   26009.79679979  .00000100  00000+0  68070-4 0  9993
#TLE: 2 54234  98.7494 310.7596 0000833 322.2782  37.8335 14.19533646164071

#Time	Az	El	Level	Level2	SNR	BER	BlckErr	Temp	State	Recorded	gain1	gain2
2026-01-11 08:31:19.90	119.68	2.08	-22.1	-43.7	4.6	1.50e+00	0	46	0	0	18	36975
2026-01-11 08:31:23.94	119.45	2.32	-24.4	-41.2	3.9	1.50e+00	0	47	104	0	17	29686
2026-01-11 08:31:27.99	119.21	2.56	-24.3	-41.6	4.0	1.50e+00	0	47	104	0	18	29311
2026-01-11 08:31:32.03	118.97	2.80	-24.7	-41.1	3.5	1.50e+00	0	48	104	0	16	31036
2026-01-11 08:31:36.07	118.73	3.04	-23.1	-42.6	3.2	1.51e+00	0	48	104	0	9	55237
2026-01-11 08:31:40.12	118.48	3.29	-20.0	-39.7	3.7	1.50e+00	0	48	104	0	13	31356
2026-01-11 08:31:44.16	118.23	3.53	-19.2	-38.1	3.7	1.50e+00	0	49	104	0	15	23154
2026-01-11 08:31:48.20	117.97	3.78	-17.0	-34.4	-1.2	1.50e+00	0	49	104	0	14	15949
2026-01-11 08:31:52.24	117.71	4.03	-23.7	-42.6	3.6	1.50e+00	0	49	104	0	14	41419
2026-01-11 08:31:56.28	117.45	4.28	-23.8	-42.7	3.8	1.50e+00	0	49	104	0	17	35236
2026-01-11 08:32:00.33	117.17	4.54	-21.7	-39.7	4.0	1.50e+00	0	49	104	0	17	24709
2026-01-11 08:32:04.37	116.90	4.79	-14.1	-34.4	3.6	1.51e+00	0	50	104	0	0	35971
2026-01-11 08:32:08.41	116.62	5.05	-23.8	-40.7	4.2	1.50e+00	0	50	104	0	16	29548
2026-01-11 08:32:12.46	116.33	5.31	-19.4	-37.9	4.1	1.50e+00	0	50	104	0	18	19025
2026-01-11 08:32:16.50	116.04	5.57	-18.5	-36.2	3.6	1.50e+00	0	50	104	0	11	23512
2026-01-11 08:32:20.54	115.74	5.83	-22.8	-43.0	4.1	1.51e+00	0	50	104	0	14	42994
2026-01-11 08:32:24.59	115.44	6.09	-23.3	-43.6	4.1	1.50e+00	0	51	104	0	18	36609
2026-01-11 08:32:28.63	115.13	6.36	-23.7	-43.1	3.7	1.50e+00	0	51	104	0	16	38974
2026-01-11 08:32:32.68	114.82	6.63	-20.7	-40.7	3.7	1.50e+00	0	51	104	0	14	33078
2026-01-11 08:32:36.72	114.50	6.90	-14.2	-35.2	3.9	1.51e+00	0	51	104	0	3	32930
2026-01-11 08:32:40.77	114.17	7.17	-24.2	-43.3	3.9	1.50e+00	0	51	104	0	18	35309
2026-01-11 08:32:44.81	113.84	7.45	-23.3	-41.4	4.1	1.49e+00	0	52	104	0	17	30192
2026-01-11 08:32:48.86	113.50	7.72	-22.4	-35.4	4.6	1.50e+00	0	52	104	0	14	17963
2026-01-11 08:32:52.90	113.16	8.00	-22.3	-38.2	4.2	1.47e+00	0	52	104	0	15	23400
2026-01-11 08:32:56.95	112.80	8.28	-15.4	-34.9	3.8	1.51e+00	0	52	104	0	6	26952
2026-01-11 08:33:00.98	112.45	8.56	-17.8	-34.9	3.7	1.50e+00	0	52	104	0	11	20260
2026-01-11 08:33:05.02	112.08	8.85	-32.4	-44.2	6.6	1.44e+00	15	52	104	0	37	13185
2026-01-11 08:33:09.06	111.70	9.14	-34.4	-42.5	8.1	3.64e-01	5	52	0	2097152	40	9092
2026-01-11 08:33:13.10	111.32	9.42	-35.5	-42.0	10.3	3.95e-02	0	52	0	13631488	45	6483
2026-01-11 08:33:17.14	110.93	9.72	-36.4	-40.7	12.6	7.41e-03	0	53	0	26214400	44	5861
2026-01-11 08:33:21.18	110.54	10.01	-37.7	-40.7	13.5	2.00e-03	0	53	0	38797312	46	5252
2026-01-11 08:33:25.21	110.13	10.30	-38.2	-40.7	13.9	1.65e-03	0	53	0	51380224	47	4974
2026-01-11 08:33:29.25	109.72	10.60	-38.2	-40.9	13.9	4.52e-04	0	53	0	63963136	47	5047
2026-01-11 08:33:33.30	109.29	10.90	-38.3	-40.5	14.3	2.28e-05	0	53	0	76546048	47	4866
2026-01-11 08:33:37.34	108.86	11.20	-38.2	-40.2	14.7	4.50e-06	0	53	0	89128960	47	4689
2026-01-11 08:33:41.38	108.42	11.51	-38.2	-40.2	14.8	0.00e+00	0	53	0	101711872	47	4681
2026-01-11 08:33:45.42	107.97	11.81	-38.1	-40.1	14.9	7.00e-07	0	53	0	114294784	47	4635
2026-01-11 08:33:49.46	107.51	12.12	-38.1	-40.1	15.0	1.50e-06	0	53	0	126877696	47	4619
2026-01-11 08:33:53.50	107.04	12.43	-38.0	-40.1	14.9	2.28e-05	0	53	0	139460608	46	4900
2026-01-11 08:33:57.54	106.56	12.74	-38.0	-40.1	14.8	1.57e-03	0	54	0	152043520	46	4892
2026-01-11 08:34:01.58	106.07	13.05	-37.0	-40.4	14.4	9.61e-05	0	54	0	164626432	47	4769
2026-01-11 08:34:05.62	105.57	13.37	-34.0	-40.0	13.1	1.38e-04	0	54	0	177209344	42	6121
2026-01-11 08:34:09.66	105.06	13.69	-37.6	-40.1	14.7	3.05e-05	0	53	0	189792256	46	4902
2026-01-11 08:34:13.70	104.53	14.01	-36.9	-40.1	14.0	4.50e-06	0	54	0	202375168	44	5500
2026-01-11 08:34:17.74	104.00	14.33	-37.9	-40.4	14.3	2.63e-04	0	54	0	214958080	46	5064
2026-01-11 08:34:21.78	103.45	14.65	-38.1	-40.2	14.7	1.52e-04	0	54	0	227540992	47	4700
2026-01-11 08:34:25.82	102.89	14.97	-38.0	-40.1	15.0	3.00e-06	0	54	0	240123904	46	4892
2026-01-11 08:34:29.85	102.32	15.30	-38.2	-40.1	15.1	4.50e-06	0	54	0	252706816	46	4897
2026-01-11 08:34:33.89	101.74	15.63	-38.3	-40.2	15.0	0.00e+00	0	54	0	265289728	47	4690
2026-01-11 08:34:37.93	101.14	15.96	-38.3	-40.4	14.9	0.00e+00	0	54	0	277872640	47	4783
2026-01-11 08:34:41.97	100.53	16.29	-38.7	-40.8	14.5	0.00e+00	0	54	0	290455552	47	5004
2026-01-11 08:34:46.01	99.90	16.62	-38.7	-40.7	14.7	0.00e+00	0	54	0	304087040	48	4673
2026-01-11 08:34:50.04	99.27	16.95	-38.6	-40.6	14.8	0.00e+00	0	54	0	315621376	48	4608
2026-01-11 08:34:54.08	98.61	17.28	-38.7	-40.7	14.7	7.00e-07	0	54	0	329252864	47	4962
2026-01-11 08:34:58.12	97.95	17.61	-38.5	-40.4	15.0	7.00e-07	0	54	0	341835776	48	4514
2026-01-11 08:35:02.16	97.26	17.95	-38.4	-40.3	15.2	0.00e+00	0	54	0	354418688	48	4473
2026-01-11 08:35:06.20	96.57	18.28	-38.2	-40.1	15.4	0.00e+00	0	54	0	367001600	48	4368
2026-01-11 08:35:10.23	95.85	18.62	-38.1	-39.9	15.6	0.00e+00	0	54	0	379584512	48	4287
2026-01-11 08:35:14.28	95.12	18.95	-38.0	-39.8	15.7	0.00e+00	0	54	0	392167424	48	4207
2026-01-11 08:35:18.32	94.37	19.28	-37.8	-39.5	15.9	0.00e+00	0	55	0	404750336	47	4335
2026-01-11 08:35:22.36	93.61	19.62	-37.6	-39.3	16.1	0.00e+00	0	55	0	417333248	47	4209
2026-01-11 08:35:26.40	92.83	19.95	-37.8	-39.6	15.8	0.00e+00	0	55	0	429916160	47	4353
2026-01-11 08:35:30.43	92.04	20.28	-37.9	-39.7	15.6	0.00e+00	0	55	0	442499072	47	4417
2026-01-11 08:35:34.48	91.22	20.61	-37.8	-39.6	15.5	0.00e+00	0	55	0	455081984	47	4391
2026-01-11 08:35:38.52	90.39	20.93	-37.9	-39.8	15.4	0.00e+00	0	55	0	467664896	47	4444
2026-01-11 08:35:42.56	89.54	21.26	-37.6	-39.4	15.6	0.00e+00	0	55	0	480247808	47	4250
2026-01-11 08:35:46.60	88.67	21.58	-37.6	-39.4	15.5	0.00e+00	0	55	0	492830720	47	4269
2026-01-11 08:35:50.63	87.79	21.90	-37.8	-39.7	15.3	0.00e+00	0	55	0	505413632	47	4393
2026-01-11 08:35:54.68	86.88	22.21	-38.0	-39.9	15.0	0.00e+00	0	55	0	517996544	47	4516
2026-01-11 08:35:58.72	85.96	22.52	-37.9	-39.7	15.3	0.00e+00	0	55	0	530579456	47	4423
2026-01-11 08:36:02.76	85.02	22.83	-37.7	-39.5	15.7	0.00e+00	0	55	0	543162368	47	4311
2026-01-11 08:36:06.80	84.06	23.13	-37.8	-39.5	15.7	0.00e+00	0	55	0	555745280	47	4332
2026-01-11 08:36:10.84	83.08	23.43	-37.7	-39.5	15.9	0.00e+00	0	55	0	568328192	47	4294
2026-01-11 08:36:14.88	82.08	23.72	-37.8	-39.5	15.9	0.00e+00	0	55	0	580911104	47	4338
2026-01-11 08:36:18.93	81.06	24.00	-38.0	-39.8	15.7	0.00e+00	0	55	0	593494016	47	4461
2026-01-11 08:36:22.97	80.03	24.28	-37.9	-39.7	15.8	0.00e+00	0	55	0	606076928	47	4405
2026-01-11 08:36:27.01	78.98	24.55	-37.7	-39.4	16.0	0.00e+00	0	55	0	619708416	47	4281
2026-01-11 08:36:31.05	77.91	24.81	-37.7	-39.4	16.1	0.00e+00	0	55	0	632291328	47	4276
2026-01-11 08:36:35.08	76.82	25.06	-38.1	-39.9	15.6	0.00e+00	0	55	0	644874240	47	4529
2026-01-11 08:36:39.12	75.72	25.31	-37.9	-39.6	15.9	0.00e+00	0	55	0	657457152	47	4387
2026-01-11 08:36:43.16	74.60	25.54	-37.9	-39.6	15.9	0.00e+00	0	55	0	670040064	47	4377
2026-01-11 08:36:47.20	73.46	25.76	-37.6	-39.2	16.3	0.00e+00	0	55	0	682622976	47	4186
2026-01-11 08:36:51.24	72.30	25.98	-37.5	-39.1	16.5	0.00e+00	0	56	0	695205888	46	4357
2026-01-11 08:36:55.28	71.14	26.18	-37.6	-39.2	16.4	0.00e+00	0	55	0	707788800	46	4407
2026-01-11 08:36:59.32	69.95	26.37	-37.5	-39.1	16.5	0.00e+00	0	55	0	720371712	46	4378
2026-01-11 08:37:03.37	68.75	26.55	-37.4	-39.0	16.7	0.00e+00	0	56	0	732954624	46	4295
2026-01-11 08:37:07.40	67.54	26.71	-37.6	-39.2	16.5	0.00e+00	0	55	0	745537536	46	4409
2026-01-11 08:37:11.44	66.32	26.86	-37.7	-39.3	16.4	0.00e+00	0	55	0	758120448	46	4479
2026-01-11 08:37:15.48	65.09	27.00	-37.8	-39.4	16.3	0.00e+00	0	55	0	770703360	46	4522
2026-01-11 08:37:19.52	63.84	27.13	-37.8	-39.5	16.2	0.00e+00	0	56	0	783286272	46	4577
2026-01-11 08:37:23.56	62.59	27.23	-37.7	-39.3	16.5	0.00e+00	0	55	0	795869184	46	4472
2026-01-11 08:37:27.60	61.33	27.33	-38.1	-39.8	16.0	0.00e+00	0	56	0	808452096	46	4734
2026-01-11 08:37:31.64	60.06	27.41	-37.9	-39.6	16.1	0.00e+00	0	55	0	821035008	46	4639
2026-01-11 08:37:35.68	58.79	27.47	-37.8	-39.4	16.4	0.00e+00	0	56	0	833617920	46	4525
2026-01-11 08:37:39.70	57.52	27.52	-37.8	-39.4	16.4	0.00e+00	0	55	0	846200832	46	4520
2026-01-11 08:37:43.74	56.24	27.55	-37.7	-39.3	16.4	0.00e+00	0	55	0	858783744	46	4492
2026-01-11 08:37:47.78	54.96	27.57	-37.9	-39.6	16.2	0.00e+00	0	55	0	871366656	46	4603
2026-01-11 08:37:51.82	53.67	27.57	-37.6	-39.2	16.6	0.00e+00	0	56	0	883949568	46	4425
2026-01-11 08:37:55.87	52.39	27.55	-37.4	-39.0	16.8	0.00e+00	0	56	0	896532480	46	4318
2026-01-11 08:37:59.91	51.11	27.52	-37.8	-39.4	16.4	0.00e+00	0	56	0	909115392	46	4514
2026-01-11 08:38:03.95	49.83	27.48	-38.0	-39.7	16.2	0.00e+00	0	56	0	921698304	46	4669
2026-01-11 08:38:07.98	48.56	27.41	-38.0	-39.6	16.2	0.00e+00	0	56	0	935329792	46	4643
2026-01-11 08:38:12.02	47.30	27.34	-37.7	-39.3	16.5	0.00e+00	0	56	0	946864128	46	4486
2026-01-11 08:38:16.06	46.04	27.24	-37.7	-39.3	16.5	0.00e+00	0	56	0	960495616	46	4482
2026-01-11 08:38:20.10	44.79	27.14	-37.7	-39.3	16.5	0.00e+00	0	56	0	973078528	46	4479
2026-01-11 08:38:24.14	43.54	27.01	-37.8	-39.5	16.4	0.00e+00	0	56	0	985661440	46	4567
2026-01-11 08:38:28.18	42.31	26.88	-37.7	-39.3	16.6	0.00e+00	0	56	0	998244352	46	4451
2026-01-11 08:38:32.22	41.09	26.73	-38.1	-39.8	16.1	0.00e+00	0	56	0	1010827264	46	4717
2026-01-11 08:38:36.25	39.88	26.56	-38.1	-39.8	16.1	0.00e+00	0	56	0	1023410176	46	4711
2026-01-11 08:38:40.29	38.69	26.39	-38.1	-39.8	16.1	0.00e+00	0	56	0	1035993088	46	4727
2026-01-11 08:38:44.33	37.51	26.20	-38.1	-39.8	16.0	0.00e+00	0	56	0	1048576000	46	4739
2026-01-11 08:38:48.37	36.34	26.00	-38.3	-40.1	15.8	0.00e+00	0	56	0	1061158912	47	4600
2026-01-11 08:38:52.40	35.19	25.79	-37.8	-39.5	16.3	0.00e+00	0	56	0	1073741824	47	4305
2026-01-11 08:38:56.45	34.05	25.57	-38.0	-39.7	16.2	0.00e+00	0	56	0	1086324736	47	4400
2026-01-11 08:39:00.49	32.93	25.33	-37.6	-39.2	16.7	0.00e+00	0	56	0	1098907648	47	4148
2026-01-11 08:39:04.53	31.83	25.09	-38.0	-39.7	16.2	0.00e+00	0	56	0	1111490560	47	4407
2026-01-11 08:39:08.57	30.74	24.84	-37.7	-39.4	16.4	0.00e+00	0	56	0	1124073472	47	4246
2026-01-11 08:39:12.61	29.67	24.58	-37.5	-39.1	16.7	0.00e+00	0	56	0	1136656384	47	4116
2026-01-11 08:39:16.65	28.62	24.31	-37.7	-39.3	16.5	0.00e+00	0	56	0	1149239296	47	4202
2026-01-11 08:39:20.69	27.59	24.04	-37.7	-39.3	16.6	0.00e+00	0	56	0	1161822208	46	4458
2026-01-11 08:39:24.73	26.58	23.75	-38.2	-40.0	15.9	0.00e+00	0	56	0	1174405120	46	4817
2026-01-11 08:39:28.77	25.58	23.47	-37.6	-39.2	16.6	0.00e+00	0	56	0	1186988032	46	4431
2026-01-11 08:39:32.80	24.61	23.17	-37.9	-39.6	16.3	0.00e+00	0	56	0	1199570944	46	4615
2026-01-11 08:39:36.84	23.65	22.87	-38.1	-39.8	16.0	0.00e+00	0	56	0	1212153856	46	4713
2026-01-11 08:39:40.88	22.71	22.57	-37.9	-39.5	16.3	0.00e+00	0	56	0	1224736768	46	4596
2026-01-11 08:39:44.92	21.79	22.26	-38.2	-39.9	15.8	0.00e+00	0	56	0	1237319680	47	4543
2026-01-11 08:39:48.96	20.89	21.95	-37.8	-39.5	16.3	0.00e+00	0	56	0	1249902592	47	4317
2026-01-11 08:39:53.00	20.01	21.63	-37.8	-39.4	16.4	0.00e+00	0	56	0	1262485504	47	4283
2026-01-11 08:39:57.03	19.15	21.31	-37.8	-39.5	16.3	0.00e+00	0	56	0	1276116992	47	4323
2026-01-11 08:40:01.08	18.30	20.99	-37.8	-39.5	16.3	0.00e+00	0	56	0	1287651328	47	4304
2026-01-11 08:40:05.12	17.47	20.66	-38.2	-39.9	15.8	0.00e+00	0	56	0	1301282816	47	4524
2026-01-11 08:40:09.16	16.66	20.33	-38.2	-40.0	15.7	0.00e+00	0	56	0	1313865728	47	4577
2026-01-11 08:40:13.20	15.86	20.01	-38.1	-39.8	15.9	0.00e+00	0	56	0	1326448640	47	4472
2026-01-11 08:40:17.24	15.09	19.68	-38.0	-39.7	16.0	0.00e+00	0	56	0	1339031552	47	4420
2026-01-11 08:40:21.28	14.33	19.35	-37.9	-39.6	16.1	0.00e+00	0	56	0	1351614464	47	4341
2026-01-11 08:40:25.33	13.58	19.01	-37.8	-39.5	16.2	0.00e+00	0	56	0	1364197376	47	4294
2026-01-11 08:40:29.37	12.85	18.68	-37.8	-39.5	16.2	0.00e+00	0	56	0	1376780288	47	4301
2026-01-11 08:40:33.41	12.14	18.35	-38.1	-39.9	15.8	0.00e+00	0	56	0	1389363200	47	4499
2026-01-11 08:40:37.45	11.45	18.02	-38.4	-40.2	15.4	0.00e+00	0	56	0	1401946112	47	4681
2026-01-11 08:40:41.49	10.77	17.68	-38.1	-39.9	15.7	0.00e+00	0	56	0	1414529024	47	4514
2026-01-11 08:40:45.53	10.10	17.35	-38.3	-40.2	15.4	0.00e+00	0	56	0	1427111936	47	4671
2026-01-11 08:40:49.57	9.45	17.02	-38.8	-40.8	14.9	0.00e+00	0	56	0	1439694848	48	4729
2026-01-11 08:40:53.61	8.82	16.69	-38.4	-40.2	15.4	0.00e+00	0	56	0	1452277760	48	4434
2026-01-11 08:40:57.65	8.20	16.36	-38.1	-39.8	15.7	0.00e+00	0	56	0	1464860672	48	4232
2026-01-11 08:41:01.69	7.59	16.03	-38.7	-40.7	14.8	7.00e-07	0	56	0	1477443584	48	4683
2026-01-11 08:41:05.73	6.99	15.71	-38.9	-41.0	14.4	2.20e-06	0	56	0	1490026496	48	4847
2026-01-11 08:41:09.77	6.41	15.38	-38.5	-40.5	14.9	0.00e+00	0	56	0	1502609408	48	4563
2026-01-11 08:41:13.81	5.84	15.05	-38.4	-40.3	15.1	0.00e+00	0	56	0	1515192320	48	4478
2026-01-11 08:41:17.85	5.29	14.73	-38.7	-40.7	14.5	1.50e-06	0	56	0	1527775232	48	4691
2026-01-11 08:41:21.89	4.74	14.41	-38.5	-40.7	14.1	0.00e+00	0	56	0	1540358144	48	4672
2026-01-11 08:41:25.93	4.21	14.09	-38.0	-40.1	14.4	7.00e-07	0	56	0	1552941056	48	4391
2026-01-11 08:41:29.97	3.69	13.77	-37.2	-39.2	15.1	0.00e+00	0	56	0	1565523968	46	4395
2026-01-11 08:41:34.01	3.18	13.46	-38.3	-41.0	12.6	5.87e-05	0	56	0	1578106880	47	5149
2026-01-11 08:41:38.05	2.68	13.14	-40.3	-45.6	7.3	8.89e-02	0	56	0	1591738368	51	6929
2026-01-11 08:41:42.09	2.20	12.83	-40.8	-49.9	4.2	1.46e+00	0	56	104	1600126976	52	10740
2026-01-11 08:41:46.12	1.72	12.52	-40.2	-52.6	3.8	1.49e+00	0	56	104	1600126976	52	14557
2026-01-11 08:41:50.16	1.25	12.21	-40.6	-52.6	3.8	1.49e+00	0	56	104	1600126976	53	13815
2026-01-11 08:41:54.20	0.80	11.90	-40.5	-52.9	3.8	1.49e+00	0	56	104	1600126976	52	15055
2026-01-11 08:41:58.24	0.35	11.60	-39.9	-52.4	3.8	1.49e+00	0	56	104	1600126976	51	15071
2026-01-11 08:42:02.27	359.92	11.30	-40.2	-52.6	3.8	1.49e+00	0	56	104	1600126976	51	15520
2026-01-11 08:42:06.31	359.49	11.00	-39.8	-52.3	3.8	1.49e+00	0	56	104	1600126976	51	14903
2026-01-11 08:42:10.35	359.07	10.70	-40.0	-52.5	3.8	1.49e+00	0	56	104	1600126976	50	16174
2026-01-11 08:42:14.39	358.66	10.40	-39.5	-52.2	3.8	1.49e+00	0	56	104	1600126976	50	15597
2026-01-11 08:42:18.42	358.26	10.11	-39.6	-52.3	3.8	1.49e+00	0	57	104	1600126976	50	15850
2026-01-11 08:42:22.46	357.86	9.82	-39.0	-52.1	3.8	1.49e+00	0	56	104	1600126976	49	16437
2026-01-11 08:42:26.51	357.48	9.53	-39.4	-52.2	3.8	1.49e+00	0	56	104	1600126976	49	16650
2026-01-11 08:42:30.55	357.10	9.24	-39.5	-52.1	3.8	1.49e+00	0	56	104	1600126976	49	16332
2026-01-11 08:42:34.58	356.73	8.95	-38.5	-52.1	3.8	1.49e+00	0	56	104	1600126976	49	16412
2026-01-11 08:42:38.62	356.37	8.67	-39.6	-52.2	3.8	1.49e+00	0	56	104	1600126976	49	16511
2026-01-11 08:42:42.67	356.01	8.39	-39.4	-52.1	3.8	1.49e+00	0	56	104	1600126976	49	16484
2026-01-11 08:42:46.70	355.66	8.11	-39.7	-52.2	3.8	1.49e+00	0	56	104	1600126976	50	15704
2026-01-11 08:42:50.74	355.32	7.83	-44.7	-57.0	3.8	1.49e+00	0	56	104	1600126976	59	16137
2026-01-11 08:42:54.79	354.98	7.56	-45.3	-57.7	3.8	1.49e+00	0	56	104	1600126976	61	15750
2026-01-11 08:42:58.84	354.65	7.28	-45.3	-57.8	3.8	1.49e+00	0	56	104	1600126976	61	15784
2026-01-11 08:43:02.88	354.33	7.01	-45.2	-57.7	3.8	1.49e+00	0	56	104	1600126976	61	15668
2026-01-11 08:43:06.92	354.02	6.74	-45.1	-57.7	3.8	1.49e+00	0	57	104	1600126976	61	15583
2026-01-11 08:43:10.97	353.71	6.47	-45.1	-57.6	3.8	1.49e+00	0	56	104	1600126976	61	15570
2026-01-11 08:43:15.01	353.40	6.21	-45.1	-57.6	3.8	1.49e+00	0	56	104	1600126976	61	15539
2026-01-11 08:43:19.06	353.10	5.94	-45.1	-57.6	3.8	1.49e+00	0	57	104	1600126976	61	15511
2026-01-11 08:43:23.10	352.81	5.68	-45.0	-57.6	3.8	1.49e+00	0	56	104	1600126976	61	15550
2026-01-11 08:43:27.14	352.52	5.42	-45.0	-57.6	3.8	1.49e+00	0	57	104	1600126976	61	15566
2026-01-11 08:43:31.19	352.24	5.16	-45.0	-57.6	3.8	1.49e+00	0	57	104	1600126976	61	15492
2026-01-11 08:43:35.23	351.97	4.91	-45.0	-57.6	3.8	1.49e+00	0	56	104	1600126976	61	15512
2026-01-11 08:43:39.28	351.69	4.65	-45.0	-57.6	3.8	1.49e+00	0	56	104	1600126976	61	15498
2026-01-11 08:43:43.32	351.43	4.40	-45.0	-57.6	3.8	1.49e+00	0	56	104	1600126976	61	15484
2026-01-11 08:43:47.36	351.17	4.15	-45.0	-57.6	3.8	1.49e+00	0	57	104	1600126976	61	15472
2026-01-11 08:43:51.41	350.91	3.90	-45.0	-57.6	3.8	1.49e+00	0	57	104	1600126976	61	15493
2026-01-11 08:43:55.45	350.66	3.65	-45.0	-57.6	3.8	1.49e+00	0	56	104	1600126976	60	16459
2026-01-11 08:43:59.50	350.41	3.40	-45.0	-57.6	3.8	1.49e+00	0	56	104	1600126976	60	16402
2026-01-11 08:44:03.54	350.16	3.16	-45.0	-57.6	3.8	1.49e+00	0	57	104	1600126976	60	16394
2026-01-11 08:44:07.59	349.92	2.92	-45.0	-57.6	3.8	1.49e+00	0	57	104	1600126976	60	16345
2026-01-11 08:44:11.63	349.69	2.68	-45.0	-57.6	3.8	1.49e+00	0	57	104	1600126976	60	16384
2026-01-11 08:44:15.67	349.46	2.44	-45.0	-57.6	3.8	1.49e+00	0	57	104	1600126976	60	16408
2026-01-11 08:44:19.71	349.23	2.20	-45.0	-57.6	3.8	1.49e+00	0	57	104	1600126976	60	16385
2026-01-11 08:44:23.76	349.01	1.96	-45.0	-57.6	3.8	1.49e+00	0	56	104	1600126976	60	16408

#Closed at: 2026-01-11 08:44:26
#Recorded file [1600 MB]: D:/lorett/data/31039_260111_113119.dat