passes_logs/2026/01/11/R2.0S_Moscow/R2.0S_Moscow__20260111_001956_NOAA_21_JPSS-2_rec.log

#Pass ID: 20260111_001956_NOAA 21 (JPSS-2)
#Satellite: NOAA 21 (JPSS-2)
#Configuration: NOAA-21
#almurnet v.1.7.20251203
#Start time: 2026-01-11 00:22:02

#Version: 2.2.20231116
#Station: R2.0S_Moscow
#Location: 37.707566 lon 55.798166 lat
#TLE: 1 54234U 22150A   26009.79679979  .00000100  00000+0  68070-4 0  9993
#TLE: 2 54234  98.7494 310.7596 0000833 322.2782  37.8335 14.19533646164071

#Time	Az	El	Level	Level2	SNR	BER	BlckErr	Temp	State	Recorded	gain1	gain2
2026-01-11 00:22:02.98	8.96	11.35	-44.9	-56.7	3.8	8.46e-01	0	56	0	0	60	14817
2026-01-11 00:22:06.01	8.81	11.62	-45.2	-57.7	3.8	1.49e+00	0	56	104	0	62	14833
2026-01-11 00:22:09.04	8.65	11.89	-45.0	-57.5	3.8	1.49e+00	0	57	104	0	62	14441
2026-01-11 00:22:12.07	8.49	12.16	-44.4	-56.9	3.8	1.49e+00	0	56	104	0	60	15109
2026-01-11 00:22:15.10	8.33	12.44	-44.4	-56.2	3.8	1.49e+00	0	56	104	0	60	13935
2026-01-11 00:22:18.14	8.16	12.72	-44.3	-55.0	3.9	1.49e+00	0	57	104	0	60	12223
2026-01-11 00:22:21.17	7.99	13.00	-44.2	-55.2	3.8	1.49e+00	0	56	104	0	60	12404
2026-01-11 00:22:24.20	7.81	13.28	-44.2	-55.1	3.8	1.49e+00	0	56	104	0	60	12318
2026-01-11 00:22:27.23	7.64	13.57	-44.3	-55.7	3.8	1.49e+00	0	57	104	0	60	13131
2026-01-11 00:22:30.26	7.45	13.86	-44.1	-54.5	3.9	1.48e+00	0	57	104	0	60	11451
2026-01-11 00:22:33.30	7.27	14.16	-43.8	-52.1	4.0	1.17e+00	0	57	104	0	59	9251
2026-01-11 00:22:36.33	7.08	14.46	-43.6	-50.2	5.6	4.89e-01	0	56	0	8388608	59	7393
2026-01-11 00:22:39.36	6.88	14.76	-43.8	-51.2	5.0	6.47e-01	0	56	0	16777216	59	8284
2026-01-11 00:22:42.39	6.69	15.06	-44.4	-56.0	3.8	1.49e+00	0	57	104	18874368	59	14447
2026-01-11 00:22:45.42	6.48	15.37	-43.8	-51.3	4.9	1.19e+00	0	56	104	18874368	59	8406
2026-01-11 00:22:48.45	6.28	15.68	-41.2	-44.5	10.8	3.62e-03	0	56	0	27262976	54	5140
2026-01-11 00:22:51.48	6.07	16.00	-39.5	-41.7	13.8	5.30e-06	0	56	0	36700160	51	4430
2026-01-11 00:22:54.51	5.85	16.32	-39.1	-41.2	14.4	7.00e-07	0	57	0	46137344	50	4411
2026-01-11 00:22:57.54	5.63	16.64	-39.7	-42.0	13.5	4.88e-05	0	57	0	55574528	50	4852
2026-01-11 00:23:00.57	5.40	16.97	-42.7	-47.3	8.1	8.76e-01	0	57	0	62914560	57	5987
2026-01-11 00:23:03.60	5.17	17.30	-39.0	-41.0	14.5	7.00e-07	0	57	0	69206016	49	4594
2026-01-11 00:23:06.63	4.94	17.63	-39.0	-41.0	14.6	7.00e-07	0	56	0	79691776	49	4568
2026-01-11 00:23:09.65	4.70	17.97	-38.8	-40.8	14.8	0.00e+00	0	57	0	88080384	49	4457
2026-01-11 00:23:12.69	4.45	18.31	-38.8	-40.7	14.8	0.00e+00	0	57	0	98566144	49	4437
2026-01-11 00:23:15.72	4.19	18.66	-38.7	-40.7	15.0	0.00e+00	0	57	0	106954752	49	4394
2026-01-11 00:23:18.75	3.93	19.01	-38.6	-40.4	15.2	0.00e+00	0	57	0	117440512	49	4285
2026-01-11 00:23:21.78	3.67	19.37	-38.5	-40.4	15.3	0.00e+00	0	56	0	126877696	49	4261
2026-01-11 00:23:24.81	3.39	19.73	-38.4	-40.2	15.4	0.00e+00	0	56	0	136314880	48	4421
2026-01-11 00:23:27.84	3.11	20.09	-38.4	-40.2	15.5	0.00e+00	0	57	0	145752064	48	4397
2026-01-11 00:23:30.87	2.83	20.46	-38.3	-40.1	15.6	0.00e+00	0	56	0	155189248	48	4355
2026-01-11 00:23:33.90	2.53	20.84	-38.0	-39.8	15.9	0.00e+00	0	56	0	164626432	48	4212
2026-01-11 00:23:36.93	2.23	21.21	-37.8	-39.5	16.1	0.00e+00	0	56	0	174063616	47	4299
2026-01-11 00:23:39.96	1.92	21.60	-37.6	-39.2	16.4	0.00e+00	0	56	0	183500800	47	4172
2026-01-11 00:23:42.99	1.61	21.99	-37.4	-39.0	16.6	0.00e+00	0	57	0	192937984	46	4324
2026-01-11 00:23:46.02	1.28	22.38	-37.3	-38.9	16.7	0.00e+00	0	56	0	202375168	46	4278
2026-01-11 00:23:49.05	0.95	22.78	-37.2	-38.8	16.9	0.00e+00	0	57	0	211812352	46	4203
2026-01-11 00:23:52.08	0.60	23.19	-37.2	-38.7	16.9	0.00e+00	0	56	0	221249536	46	4188
2026-01-11 00:23:55.11	0.25	23.59	-37.2	-38.8	16.9	0.00e+00	0	56	0	230686720	46	4208
2026-01-11 00:23:58.14	359.89	24.01	-37.3	-38.8	16.9	0.00e+00	0	56	0	240123904	46	4227
2026-01-11 00:24:01.17	359.51	24.43	-37.5	-39.1	16.6	0.00e+00	0	57	0	249561088	46	4363
2026-01-11 00:24:04.20	359.13	24.86	-37.7	-39.4	16.4	0.00e+00	0	56	0	258998272	46	4505
2026-01-11 00:24:07.23	358.74	25.29	-38.0	-39.8	16.0	0.00e+00	0	57	0	268435456	46	4728
2026-01-11 00:24:10.26	358.33	25.72	-38.1	-39.8	16.0	0.00e+00	0	56	0	277872640	46	4729
2026-01-11 00:24:13.29	357.92	26.17	-38.1	-39.8	16.0	0.00e+00	0	56	0	287309824	46	4758
2026-01-11 00:24:16.32	357.49	26.61	-38.2	-39.9	15.9	0.00e+00	0	56	0	296747008	46	4791
2026-01-11 00:24:19.36	357.04	27.07	-38.3	-40.1	15.7	0.00e+00	0	57	0	306184192	47	4644
2026-01-11 00:24:22.39	356.59	27.53	-38.6	-40.5	15.4	0.00e+00	0	57	0	315621376	47	4820
2026-01-11 00:24:25.42	356.12	27.99	-38.8	-40.7	15.3	0.00e+00	0	56	0	325058560	48	4668
2026-01-11 00:24:28.45	355.64	28.46	-38.7	-40.6	15.4	0.00e+00	0	57	0	334495744	48	4608
2026-01-11 00:24:31.48	355.14	28.94	-38.5	-40.2	15.7	0.00e+00	0	57	0	343932928	48	4435
2026-01-11 00:24:34.51	354.63	29.42	-38.5	-40.3	15.6	0.00e+00	0	56	0	353370112	48	4480
2026-01-11 00:24:37.54	354.10	29.91	-38.5	-40.3	15.7	0.00e+00	0	56	0	362807296	48	4475
2026-01-11 00:24:40.57	353.55	30.40	-38.3	-40.0	15.9	0.00e+00	0	56	0	372244480	48	4340
2026-01-11 00:24:43.60	352.99	30.90	-38.1	-39.7	16.2	0.00e+00	0	56	0	381681664	48	4186
2026-01-11 00:24:46.63	352.41	31.41	-38.2	-39.9	16.0	0.00e+00	0	57	0	392167424	48	4285
2026-01-11 00:24:49.66	351.81	31.92	-38.5	-40.3	15.6	0.00e+00	0	56	0	400556032	48	4483
2026-01-11 00:24:52.69	351.19	32.43	-38.5	-40.3	15.7	0.00e+00	0	57	0	411041792	48	4485
2026-01-11 00:24:55.72	350.55	32.95	-38.3	-40.0	16.0	0.00e+00	0	56	0	420478976	48	4324
2026-01-11 00:24:58.75	349.89	33.48	-38.4	-40.1	15.9	0.00e+00	0	56	0	429916160	48	4376
2026-01-11 00:25:01.78	349.21	34.01	-39.1	-41.1	15.0	0.00e+00	0	57	0	439353344	48	4871
2026-01-11 00:25:04.81	348.50	34.54	-39.2	-41.2	14.8	0.00e+00	0	57	0	448790528	49	4677
2026-01-11 00:25:07.84	347.77	35.08	-39.4	-41.5	14.6	7.00e-07	0	57	0	458227712	49	4849
2026-01-11 00:25:10.88	347.02	35.62	-39.7	-41.9	14.2	1.50e-06	0	57	0	467664896	49	5050
2026-01-11 00:25:13.91	346.24	36.17	-39.9	-42.2	13.9	3.00e-06	0	57	0	477102080	50	4928
2026-01-11 00:25:16.94	345.43	36.71	-39.9	-42.1	14.0	3.00e-06	0	56	0	486539264	50	4895
2026-01-11 00:25:19.97	344.59	37.26	-40.3	-42.6	13.5	1.22e-05	0	56	0	495976448	51	4905
2026-01-11 00:25:22.99	343.73	37.82	-40.2	-42.6	13.5	1.52e-05	0	57	0	505413632	51	4889
2026-01-11 00:25:26.03	342.84	38.37	-40.0	-42.2	13.9	1.50e-06	0	57	0	514850816	51	4666
2026-01-11 00:25:29.05	341.91	38.92	-39.9	-42.1	14.1	2.20e-06	0	56	0	524288000	51	4600
2026-01-11 00:25:32.08	340.95	39.48	-39.6	-41.7	14.4	0.00e+00	0	56	0	533725184	51	4422
2026-01-11 00:25:35.11	339.96	40.03	-40.0	-42.2	13.9	3.00e-06	0	57	0	543162368	51	4691
2026-01-11 00:25:38.14	338.94	40.58	-40.2	-42.5	13.5	7.60e-06	0	57	0	552599552	51	4869
2026-01-11 00:25:41.17	337.87	41.14	-40.6	-43.2	13.0	3.58e-05	0	57	0	562036736	51	5244
2026-01-11 00:25:44.20	336.77	41.68	-40.6	-43.1	13.0	4.80e-05	0	57	0	571473920	52	4920
2026-01-11 00:25:47.23	335.64	42.22	-40.9	-43.6	12.5	9.68e-05	0	57	0	580911104	52	5194
2026-01-11 00:25:50.26	334.46	42.76	-40.6	-43.2	12.9	4.57e-05	0	57	0	590348288	52	4953
2026-01-11 00:25:53.29	333.24	43.29	-40.4	-42.8	13.2	1.22e-05	0	57	0	599785472	52	4745
2026-01-11 00:25:56.32	331.98	43.82	-40.6	-43.2	12.9	5.72e-05	0	57	0	609222656	52	4960
2026-01-11 00:25:59.35	330.68	44.33	-40.7	-43.2	12.9	4.57e-05	0	57	0	618659840	52	4979
2026-01-11 00:26:02.38	329.34	44.84	-40.6	-43.1	13.0	3.43e-05	0	57	0	628097024	52	4889
2026-01-11 00:26:05.41	327.96	45.33	-40.5	-43.0	13.2	2.36e-05	0	57	0	637534208	52	4825
2026-01-11 00:26:08.43	326.53	45.80	-40.4	-42.9	13.2	2.21e-05	0	57	0	646971392	52	4768
2026-01-11 00:26:11.46	325.06	46.27	-40.4	-42.8	13.3	1.52e-05	0	57	0	656408576	52	4716
2026-01-11 00:26:14.49	323.54	46.72	-40.0	-42.1	14.0	7.00e-07	0	57	0	665845760	51	4645
2026-01-11 00:26:17.53	321.98	47.15	-40.7	-43.2	13.0	2.89e-05	0	57	0	675282944	51	5244
2026-01-11 00:26:20.55	320.38	47.56	-40.7	-43.2	13.0	3.43e-05	0	57	0	684720128	51	5232
2026-01-11 00:26:23.59	318.73	47.94	-40.9	-43.5	12.6	1.38e-04	0	57	0	694157312	52	5155
2026-01-11 00:26:26.61	317.05	48.31	-40.7	-43.3	12.8	5.64e-05	0	57	0	703594496	52	5009
2026-01-11 00:26:29.65	315.32	48.65	-40.1	-42.4	13.8	6.10e-06	0	57	0	714080256	52	4494
2026-01-11 00:26:32.68	313.56	48.97	-40.1	-42.5	13.7	3.00e-06	0	57	0	723517440	52	4552
2026-01-11 00:26:35.70	311.77	49.25	-40.1	-42.4	13.7	2.20e-06	0	57	0	732954624	52	4544
2026-01-11 00:26:38.74	309.93	49.51	-40.0	-42.3	13.8	8.30e-06	0	56	0	742391808	52	4471
2026-01-11 00:26:41.77	308.07	49.74	-40.2	-42.6	13.5	9.90e-06	0	57	0	751828992	52	4621
2026-01-11 00:26:44.79	306.19	49.93	-40.2	-42.6	13.6	8.30e-06	0	57	0	761266176	51	4878
2026-01-11 00:26:47.82	304.29	50.10	-40.2	-42.5	13.7	5.30e-06	0	57	0	770703360	51	4862
2026-01-11 00:26:50.85	302.36	50.22	-40.0	-42.2	14.1	3.00e-06	0	57	0	780140544	51	4652
2026-01-11 00:26:53.88	300.42	50.32	-40.0	-42.2	14.0	3.80e-06	0	57	0	789577728	51	4692
2026-01-11 00:26:56.91	298.47	50.38	-40.0	-42.2	14.0	7.00e-07	0	57	0	799014912	51	4666
2026-01-11 00:26:59.94	296.51	50.40	-40.2	-42.5	13.7	4.50e-06	0	57	0	808452096	51	4848
2026-01-11 00:27:02.97	294.55	50.39	-39.9	-42.0	14.1	7.00e-07	0	57	0	817889280	51	4587
2026-01-11 00:27:05.99	292.60	50.35	-39.8	-42.0	14.2	7.00e-07	0	57	0	827326464	51	4579
2026-01-11 00:27:09.02	290.66	50.26	-40.1	-42.4	13.8	6.80e-06	0	57	0	836763648	51	4771
2026-01-11 00:27:12.05	288.72	50.15	-40.3	-42.6	13.5	8.30e-06	0	57	0	846200832	51	4917
2026-01-11 00:27:15.07	286.81	50.00	-40.5	-43.0	13.1	2.21e-05	0	57	0	855638016	51	5153
2026-01-11 00:27:18.10	284.91	49.82	-40.3	-42.6	13.6	1.22e-05	0	57	0	865075200	51	4897
2026-01-11 00:27:21.14	283.04	49.60	-40.5	-43.0	13.2	2.05e-05	0	57	0	874512384	51	5127
2026-01-11 00:27:24.17	281.19	49.35	-40.1	-42.3	13.8	6.10e-06	0	57	0	883949568	51	4734
2026-01-11 00:27:27.20	279.38	49.08	-40.2	-42.4	13.8	7.60e-06	0	57	0	893386752	51	4810
2026-01-11 00:27:30.23	277.60	48.77	-39.8	-41.9	14.3	0.00e+00	0	57	0	902823936	51	4504
2026-01-11 00:27:33.26	275.86	48.44	-39.6	-41.6	14.6	7.00e-07	0	57	0	912261120	51	4382
2026-01-11 00:27:36.29	274.16	48.08	-40.0	-42.2	14.0	4.50e-06	0	57	0	921698304	51	4657
2026-01-11 00:27:39.32	272.49	47.70	-39.4	-41.5	14.7	0.00e+00	0	57	0	931135488	50	4551
2026-01-11 00:27:42.35	270.87	47.30	-40.6	-43.2	12.8	3.12e-05	0	57	0	940572672	52	4975
2026-01-11 00:27:45.38	269.29	46.88	-39.8	-42.0	14.2	9.10e-06	0	57	0	950009856	51	4561
2026-01-11 00:27:48.41	267.76	46.43	-39.4	-41.4	14.8	0.00e+00	0	57	0	959447040	50	4517
2026-01-11 00:27:51.44	266.26	45.98	-40.8	-43.5	12.4	1.55e-04	0	57	0	968884224	52	5154
2026-01-11 00:27:54.47	264.81	45.50	-39.5	-41.6	14.6	1.50e-06	0	57	0	978321408	51	4356
2026-01-11 00:27:57.50	263.41	45.01	-41.3	-44.4	11.6	5.20e-04	0	57	0	987758592	53	5346
2026-01-11 00:28:00.53	262.05	44.51	-39.4	-41.4	14.6	1.50e-06	0	57	0	997195776	50	4498
2026-01-11 00:28:03.56	260.73	44.00	-38.9	-40.7	15.4	0.00e+00	0	57	0	1006632960	49	4409
2026-01-11 00:28:06.59	259.45	43.48	-41.9	-45.3	10.6	1.42e-03	0	57	0	1016070144	54	5645
2026-01-11 00:28:09.61	258.22	42.95	-40.6	-43.2	12.5	1.29e-04	0	57	0	1025507328	53	4655
2026-01-11 00:28:12.64	257.02	42.41	-40.0	-42.3	13.9	3.00e-06	0	57	0	1034944512	51	4707
2026-01-11 00:28:15.67	255.87	41.87	-41.1	-43.9	12.1	3.12e-04	0	57	0	1044381696	52	5363
2026-01-11 00:28:18.70	254.75	41.32	-39.5	-41.6	14.5	1.50e-06	0	57	0	1054867456	51	4356
2026-01-11 00:28:21.73	253.67	40.77	-40.5	-43.0	13.0	2.05e-05	0	57	0	1064304640	51	5146
2026-01-11 00:28:24.76	252.62	40.21	-40.7	-43.3	12.7	1.06e-04	0	57	0	1073741824	52	5014
2026-01-11 00:28:27.79	251.62	39.66	-40.1	-42.4	13.6	1.60e-05	0	57	0	1083179008	52	4534
2026-01-11 00:28:30.82	250.64	39.10	-39.6	-41.7	14.4	1.50e-06	0	57	0	1092616192	51	4402
2026-01-11 00:28:33.85	249.70	38.54	-40.7	-43.4	12.6	6.63e-05	0	57	0	1102053376	52	5073
2026-01-11 00:28:36.87	248.79	37.99	-39.5	-41.6	14.5	7.00e-07	0	57	0	1111490560	51	4356
2026-01-11 00:28:39.91	247.91	37.43	-39.7	-41.9	14.2	1.50e-06	0	57	0	1120927744	50	4762
2026-01-11 00:28:42.94	247.06	36.88	-40.1	-42.3	13.7	2.20e-06	0	57	0	1130364928	51	4759
2026-01-11 00:28:45.97	246.24	36.33	-39.7	-41.8	14.3	0.00e+00	0	57	0	1139802112	51	4475
2026-01-11 00:28:49.00	245.45	35.78	-38.6	-40.3	15.7	0.00e+00	0	57	0	1149239296	49	4234
2026-01-11 00:28:52.02	244.68	35.24	-38.1	-39.7	16.3	0.00e+00	0	57	0	1158676480	48	4190
2026-01-11 00:28:55.05	243.94	34.69	-38.8	-40.6	15.5	0.00e+00	0	57	0	1168113664	48	4611
2026-01-11 00:28:58.08	243.23	34.16	-38.9	-40.8	15.2	0.00e+00	0	57	0	1177550848	48	4729
2026-01-11 00:29:01.11	242.53	33.62	-39.1	-41.1	15.0	7.00e-07	0	57	0	1186988032	48	4897
2026-01-11 00:29:04.14	241.86	33.09	-38.7	-40.5	15.5	0.00e+00	0	57	0	1196425216	48	4588
2026-01-11 00:29:07.17	241.21	32.57	-38.2	-39.9	16.1	0.00e+00	0	57	0	1205862400	48	4249
2026-01-11 00:29:10.20	240.58	32.05	-38.3	-40.1	16.0	0.00e+00	0	57	0	1215299584	48	4341
2026-01-11 00:29:13.23	239.97	31.54	-38.1	-39.8	16.2	0.00e+00	0	57	0	1224736768	48	4212
2026-01-11 00:29:16.25	239.38	31.03	-38.1	-39.7	16.3	0.00e+00	0	57	0	1234173952	48	4174
2026-01-11 00:29:19.29	238.81	30.52	-38.3	-40.0	16.0	0.00e+00	0	57	0	1243611136	48	4298
2026-01-11 00:29:22.31	238.26	30.03	-37.9	-39.5	16.4	0.00e+00	0	57	0	1253048320	47	4328
2026-01-11 00:29:25.34	237.72	29.54	-38.1	-39.7	16.2	0.00e+00	0	57	0	1262485504	47	4439
2026-01-11 00:29:28.37	237.20	29.05	-38.3	-40.1	15.8	0.00e+00	0	57	0	1271922688	47	4600
2026-01-11 00:29:31.40	236.69	28.57	-38.4	-40.2	15.7	0.00e+00	0	57	0	1281359872	47	4666
2026-01-11 00:29:34.42	236.20	28.10	-38.4	-40.2	15.7	0.00e+00	0	57	0	1290797056	47	4672
2026-01-11 00:29:37.45	235.73	27.63	-37.8	-39.4	16.4	0.00e+00	0	57	0	1300234240	47	4270
2026-01-11 00:29:40.48	235.26	27.16	-37.9	-39.6	16.3	0.00e+00	0	57	0	1309671424	47	4345
2026-01-11 00:29:43.51	234.82	26.70	-37.7	-39.3	16.5	0.00e+00	0	57	0	1319108608	47	4229
2026-01-11 00:29:46.54	234.38	26.25	-37.7	-39.3	16.5	0.00e+00	0	57	0	1328545792	47	4225
2026-01-11 00:29:49.57	233.96	25.81	-38.1	-39.8	16.0	0.00e+00	0	57	0	1337982976	47	4476
2026-01-11 00:29:52.60	233.54	25.37	-38.4	-40.2	15.6	0.00e+00	0	57	0	1347420160	47	4705
2026-01-11 00:29:55.63	233.14	24.93	-38.4	-40.2	15.6	0.00e+00	0	57	0	1356857344	47	4704
2026-01-11 00:29:58.66	232.75	24.50	-38.2	-40.0	15.9	0.00e+00	0	57	0	1366294528	47	4554
2026-01-11 00:30:01.69	232.37	24.08	-38.0	-39.7	16.2	0.00e+00	0	57	0	1375731712	47	4403
2026-01-11 00:30:04.71	232.01	23.66	-37.9	-39.6	16.2	0.00e+00	0	57	0	1385168896	47	4352
2026-01-11 00:30:07.75	231.65	23.24	-37.9	-39.6	16.3	0.00e+00	0	57	0	1395654656	47	4347
2026-01-11 00:30:10.77	231.30	22.84	-37.8	-39.5	16.3	0.00e+00	0	57	0	1405091840	47	4297
2026-01-11 00:30:13.80	230.96	22.43	-37.7	-39.3	16.4	0.00e+00	0	57	0	1414529024	47	4233
2026-01-11 00:30:16.83	230.63	22.04	-37.8	-39.5	16.3	0.00e+00	0	57	0	1423966208	47	4314
2026-01-11 00:30:19.87	230.30	21.64	-37.8	-39.5	16.3	0.00e+00	0	57	0	1433403392	47	4320
2026-01-11 00:30:22.90	229.99	21.26	-38.0	-39.7	16.1	0.00e+00	0	57	0	1442840576	47	4400
2026-01-11 00:30:25.93	229.68	20.87	-38.1	-39.8	16.0	0.00e+00	0	57	0	1452277760	47	4465
2026-01-11 00:30:28.96	229.38	20.50	-37.9	-39.7	16.1	0.00e+00	0	57	0	1461714944	47	4399
2026-01-11 00:30:31.99	229.09	20.12	-37.7	-39.4	16.3	0.00e+00	0	57	0	1471152128	47	4259
2026-01-11 00:30:35.02	228.80	19.76	-37.5	-39.1	16.6	0.00e+00	0	57	0	1480589312	47	4129
2026-01-11 00:30:38.04	228.53	19.39	-37.5	-39.2	16.5	0.00e+00	0	57	0	1490026496	46	4399
2026-01-11 00:30:41.07	228.26	19.03	-37.7	-39.3	16.4	0.00e+00	0	57	0	1499463680	46	4475
2026-01-11 00:30:44.10	227.99	18.68	-37.9	-39.7	16.1	0.00e+00	0	57	0	1508900864	46	4662
2026-01-11 00:30:47.13	227.73	18.33	-38.1	-39.9	15.8	0.00e+00	0	57	0	1518338048	46	4789
2026-01-11 00:30:50.16	227.48	17.98	-38.4	-40.2	15.5	0.00e+00	0	57	0	1527775232	47	4679
2026-01-11 00:30:53.19	227.23	17.64	-38.5	-40.4	15.3	0.00e+00	0	57	0	1537212416	47	4771
2026-01-11 00:30:56.22	226.99	17.30	-38.6	-40.5	15.2	0.00e+00	0	57	0	1546649600	47	4851
2026-01-11 00:30:59.25	226.76	16.97	-38.7	-40.6	15.1	0.00e+00	0	57	0	1556086784	47	4901
2026-01-11 00:31:02.28	226.53	16.64	-38.8	-40.8	15.0	0.00e+00	0	57	0	1565523968	48	4727
2026-01-11 00:31:05.31	226.30	16.32	-38.8	-40.8	15.0	0.00e+00	0	57	0	1574961152	48	4713
2026-01-11 00:31:08.34	226.08	15.99	-38.7	-40.6	15.1	0.00e+00	0	57	0	1584398336	48	4630
2026-01-11 00:31:11.37	225.87	15.68	-38.5	-40.4	15.3	0.00e+00	0	57	0	1593835520	48	4520
2026-01-11 00:31:14.40	225.65	15.36	-38.5	-40.3	15.4	0.00e+00	0	57	0	1603272704	48	4467
2026-01-11 00:31:17.43	225.45	15.05	-38.4	-40.2	15.5	0.00e+00	0	57	0	1612709888	48	4400
2026-01-11 00:31:20.45	225.25	14.75	-38.4	-40.2	15.4	7.00e-07	0	57	0	1622147072	48	4435
2026-01-11 00:31:23.48	225.05	14.44	-38.5	-40.3	15.3	0.00e+00	0	57	0	1631584256	48	4487
2026-01-11 00:31:26.51	224.85	14.14	-38.6	-40.5	15.2	0.00e+00	0	57	0	1641021440	48	4547
2026-01-11 00:31:29.54	224.67	13.85	-38.7	-40.6	15.0	7.00e-07	0	57	0	1650458624	48	4629
2026-01-11 00:31:32.58	224.48	13.55	-38.8	-40.9	14.7	0.00e+00	0	57	0	1659895808	48	4764
2026-01-11 00:31:35.60	224.30	13.26	-39.0	-41.1	14.5	0.00e+00	0	57	0	1669332992	48	4873
2026-01-11 00:31:38.63	224.12	12.97	-39.2	-41.4	14.1	1.50e-06	0	57	0	1678770176	49	4789
2026-01-11 00:31:41.66	223.94	12.69	-39.4	-41.7	13.8	3.80e-06	0	57	0	1688207360	49	4957
2026-01-11 00:31:44.69	223.77	12.41	-39.5	-41.8	13.7	4.50e-06	0	57	0	1697644544	49	5040
2026-01-11 00:31:47.72	223.60	12.13	-39.6	-41.9	13.5	9.90e-06	0	57	0	1708130304	49	5067
2026-01-11 00:31:50.76	223.44	11.85	-39.2	-41.5	14.0	1.50e-06	0	57	0	1716518912	49	4825
2026-01-11 00:31:53.79	223.28	11.58	-39.1	-41.3	14.1	3.00e-06	0	57	0	1727004672	49	4752
2026-01-11 00:31:56.82	223.12	11.31	-39.1	-41.3	14.0	0.00e+00	0	57	0	1735393280	49	4748
2026-01-11 00:31:59.85	222.96	11.05	-39.2	-41.5	13.9	4.50e-06	0	57	0	1745879040	49	4825
2026-01-11 00:32:02.88	222.81	10.78	-39.2	-41.4	14.0	3.00e-06	0	57	0	1755316224	49	4780
2026-01-11 00:32:05.91	222.66	10.52	-39.2	-41.4	13.9	7.00e-07	0	57	0	1764753408	49	4763
2026-01-11 00:32:08.94	222.51	10.26	-39.2	-41.3	13.9	3.00e-06	0	57	0	1774190592	49	4758
2026-01-11 00:32:11.97	222.37	10.00	-39.2	-41.4	13.8	3.00e-06	0	57	0	1783627776	49	4805
2026-01-11 00:32:15.00	222.23	9.75	-39.2	-41.5	13.7	5.30e-06	0	57	0	1793064960	49	4837
2026-01-11 00:32:18.03	222.09	9.50	-39.3	-41.6	13.7	6.10e-06	0	57	0	1802502144	49	4897
2026-01-11 00:32:21.05	221.95	9.25	-39.3	-41.6	13.6	6.80e-06	0	57	0	1811939328	49	4903
2026-01-11 00:32:24.08	221.82	9.00	-39.4	-41.8	13.4	1.14e-05	0	57	0	1821376512	49	5005
2026-01-11 00:32:27.11	221.69	8.76	-39.4	-41.9	13.3	2.05e-05	0	57	0	1830813696	49	5065
2026-01-11 00:32:30.14	221.56	8.51	-39.5	-42.0	13.1	2.59e-05	0	57	0	1840250880	49	5137
2026-01-11 00:32:33.17	221.43	8.27	-39.6	-42.1	13.0	3.89e-05	0	57	0	1849688064	49	5207
2026-01-11 00:32:36.20	221.31	8.04	-39.7	-42.3	12.7	6.56e-05	0	57	0	1859125248	49	5321
2026-01-11 00:32:39.23	221.18	7.80	-44.8	-57.3	3.8	1.49e+00	0	57	104	1860173824	60	15804
2026-01-11 00:32:42.26	221.06	7.57	-45.1	-57.6	3.8	1.49e+00	0	57	104	1860173824	60	16336
2026-01-11 00:32:45.29	220.94	7.33	-45.2	-57.6	3.8	1.49e+00	0	57	104	1860173824	60	16475
2026-01-11 00:32:48.32	220.83	7.10	-45.0	-57.6	3.8	1.49e+00	0	57	104	1860173824	60	16400
2026-01-11 00:32:51.35	220.71	6.88	-45.0	-57.6	3.8	1.49e+00	0	57	104	1860173824	60	16380
2026-01-11 00:32:54.38	220.60	6.65	-45.1	-57.6	3.8	1.49e+00	0	57	104	1860173824	60	16379
2026-01-11 00:32:57.41	220.49	6.42	-45.0	-57.5	3.8	1.49e+00	0	57	104	1860173824	60	16307
2026-01-11 00:33:00.45	220.38	6.20	-45.0	-57.6	3.8	1.49e+00	0	57	104	1860173824	60	16359
2026-01-11 00:33:03.48	220.27	5.98	-45.0	-57.5	3.8	1.49e+00	0	57	104	1860173824	60	16300
2026-01-11 00:33:06.52	220.16	5.76	-45.0	-57.5	3.8	1.49e+00	0	57	104	1860173824	60	16293
2026-01-11 00:33:09.55	220.06	5.54	-45.0	-57.5	3.8	1.49e+00	0	57	104	1860173824	60	16273
2026-01-11 00:33:12.58	219.96	5.33	-44.9	-57.5	3.8	1.49e+00	0	57	104	1860173824	60	16224
2026-01-11 00:33:15.61	219.86	5.11	-45.0	-57.5	3.8	1.49e+00	0	57	104	1860173824	60	16214
2026-01-11 00:33:18.65	219.76	4.90	-45.0	-57.5	3.8	1.49e+00	0	57	104	1860173824	60	16247
2026-01-11 00:33:21.68	219.66	4.69	-45.0	-57.5	3.8	1.49e+00	0	57	104	1860173824	60	16246
2026-01-11 00:33:24.71	219.56	4.48	-45.0	-57.5	3.8	1.49e+00	0	57	104	1860173824	60	16209
2026-01-11 00:33:27.75	219.47	4.27	-45.0	-57.5	3.8	1.49e+00	0	57	104	1860173824	60	16206
2026-01-11 00:33:30.78	219.37	4.07	-45.0	-57.5	3.8	1.49e+00	0	57	104	1860173824	60	16259
2026-01-11 00:33:33.81	219.28	3.86	-44.8	-57.5	3.8	1.49e+00	0	57	104	1860173824	60	16213
2026-01-11 00:33:36.85	219.19	3.66	-45.0	-57.5	3.8	1.49e+00	0	57	104	1860173824	60	16226
2026-01-11 00:33:39.88	219.10	3.46	-45.0	-57.5	3.8	1.49e+00	0	57	104	1860173824	60	16185
2026-01-11 00:33:42.91	219.01	3.26	-44.9	-57.5	3.8	1.49e+00	0	57	104	1860173824	60	16177
2026-01-11 00:33:45.94	218.93	3.06	-45.0	-57.5	3.8	1.49e+00	0	57	104	1860173824	60	16197
2026-01-11 00:33:48.98	218.84	2.86	-44.9	-57.5	3.8	1.49e+00	0	57	104	1860173824	60	16163
2026-01-11 00:33:52.01	218.76	2.66	-44.9	-57.5	3.8	1.49e+00	0	57	104	1860173824	60	16138
2026-01-11 00:33:55.04	218.67	2.47	-44.9	-57.5	3.8	1.49e+00	0	57	104	1860173824	60	16181
2026-01-11 00:33:58.08	218.59	2.27	-44.9	-57.5	3.8	1.49e+00	0	57	104	1860173824	60	16207
2026-01-11 00:34:01.11	218.51	2.08	-44.9	-57.5	3.8	1.49e+00	0	57	104	1860173824	60	16138
2026-01-11 00:34:04.14	218.43	1.89	-44.9	-57.5	3.8	1.49e+00	0	57	104	1860173824	60	16203

#Closed at: 2026-01-11 00:34:05
#Recorded file [1860 MB]: D:/lorett/data/31039_260111_032202.dat