passes_logs/2025/01/17/SPB_Silybum_02/SPB_Silybum_02__20250117_091836_TERRA_rec.log

#Pass ID: 20250117_091836_TERRA
#Satellite: TERRA
#Configuration: TERRA
#Start time: 2025-01-17 09:18:35

#Version: 2.0.20230423
#Station: SPB_Silybum_02
#Location: 30.233357 lon 59.946436 lat
#TLE: 1 25994U 99068A   25016.77398677  .00000840  00000+0  18282-3 0  9994
#TLE: 2 25994  98.0212  79.7479 0003409  69.0484  40.6664 14.60398530334334

#Time	Az	El	Level	Level2	SNR	BER	Gain	Gain2
2025-01-17 09:18:37.73	12.37	4.10	
2025-01-17 09:18:38.95	12.32	4.18	
2025-01-17 09:18:40.16	12.26	4.27	
2025-01-17 09:18:41.38	12.20	4.35	
2025-01-17 09:18:42.60	12.15	4.44	
2025-01-17 09:18:43.82	12.09	4.52	
2025-01-17 09:18:45.04	12.03	4.61	
2025-01-17 09:18:46.25	11.97	4.69	
2025-01-17 09:18:47.47	11.91	4.78	
2025-01-17 09:18:48.69	11.85	4.87	
2025-01-17 09:18:49.91	11.79	4.95	
2025-01-17 09:18:51.13	11.73	5.04	
2025-01-17 09:18:52.34	11.67	5.13	
2025-01-17 09:18:53.56	11.61	5.21	
2025-01-17 09:18:54.78	11.55	5.30	
2025-01-17 09:18:56.00	11.49	5.39	
2025-01-17 09:18:57.21	11.43	5.48	
2025-01-17 09:18:58.43	11.37	5.57	
2025-01-17 09:18:59.65	11.30	5.66	
2025-01-17 09:19:00.87	11.24	5.74	
2025-01-17 09:19:02.09	11.17	5.83	
2025-01-17 09:19:03.30	11.11	5.92	
2025-01-17 09:19:04.52	11.05	6.01	
2025-01-17 09:19:05.74	10.98	6.10	
2025-01-17 09:19:06.96	10.91	6.19	
2025-01-17 09:19:08.17	10.85	6.29	
2025-01-17 09:19:09.39	10.78	6.38	
2025-01-17 09:19:10.61	10.71	6.47	
2025-01-17 09:19:11.83	10.65	6.56	
2025-01-17 09:19:13.05	10.58	6.65	
2025-01-17 09:19:14.26	10.51	6.75	
2025-01-17 09:19:15.48	10.44	6.84	
2025-01-17 09:19:16.70	10.37	6.93	
2025-01-17 09:19:17.92	10.30	7.03	
2025-01-17 09:19:19.14	10.23	7.12	
2025-01-17 09:19:20.35	10.16	7.21	
2025-01-17 09:19:21.57	10.09	7.31	
2025-01-17 09:19:22.79	10.01	7.40	
2025-01-17 09:19:24.01	9.94	7.50	
2025-01-17 09:19:25.22	9.87	7.59	
2025-01-17 09:19:26.44	9.79	7.69	
2025-01-17 09:19:27.66	9.72	7.79	
2025-01-17 09:19:28.88	9.64	7.88	
2025-01-17 09:19:30.10	9.57	7.98	
2025-01-17 09:19:31.31	9.49	8.08	
2025-01-17 09:19:32.53	9.41	8.18	
2025-01-17 09:19:33.75	9.34	8.27	
2025-01-17 09:19:34.97	9.26	8.37	
2025-01-17 09:19:36.19	9.18	8.47	
2025-01-17 09:19:37.40	9.10	8.57	
2025-01-17 09:19:38.62	9.02	8.67	
2025-01-17 09:19:39.84	8.94	8.77	
2025-01-17 09:19:41.06	8.86	8.87	
2025-01-17 09:19:42.27	8.78	8.97	
2025-01-17 09:19:43.49	8.69	9.07	
2025-01-17 09:19:44.71	8.61	9.18	
2025-01-17 09:19:45.93	8.52	9.28	
2025-01-17 09:19:47.15	8.44	9.38	
2025-01-17 09:19:48.36	8.36	9.48	
2025-01-17 09:19:49.58	8.27	9.59	
2025-01-17 09:19:50.80	8.18	9.69	
2025-01-17 09:19:52.02	8.09	9.79	
2025-01-17 09:19:53.23	8.01	9.90	
2025-01-17 09:19:54.45	7.92	10.00	
2025-01-17 09:19:55.67	7.83	10.11	
2025-01-17 09:19:56.89	7.74	10.22	
2025-01-17 09:19:58.11	7.65	10.32	
2025-01-17 09:19:59.32	7.56	10.43	
2025-01-17 09:20:00.54	7.46	10.54	
2025-01-17 09:20:01.76	7.37	10.64	
2025-01-17 09:20:02.98	7.27	10.75	
2025-01-17 09:20:04.20	7.18	10.86	
2025-01-17 09:20:05.41	7.08	10.97	
2025-01-17 09:20:06.63	6.99	11.08	
2025-01-17 09:20:07.85	6.89	11.19	
2025-01-17 09:20:09.07	6.79	11.30	
2025-01-17 09:20:10.28	6.69	11.41	
2025-01-17 09:20:11.50	6.59	11.52	
2025-01-17 09:20:12.72	6.49	11.63	
2025-01-17 09:20:13.94	6.39	11.75	
2025-01-17 09:20:15.16	6.29	11.86	
2025-01-17 09:20:16.37	6.19	11.97	
2025-01-17 09:20:17.59	6.08	12.09	
2025-01-17 09:20:18.81	5.98	12.20	
2025-01-17 09:20:20.03	5.87	12.32	
2025-01-17 09:20:21.24	5.76	12.43	
2025-01-17 09:20:22.46	5.66	12.55	
2025-01-17 09:20:23.68	5.55	12.66	
2025-01-17 09:20:24.90	5.44	12.78	
2025-01-17 09:20:26.12	5.32	12.90	
2025-01-17 09:20:27.33	5.21	13.01	
2025-01-17 09:20:28.55	5.10	13.13	
2025-01-17 09:20:29.77	4.99	13.25	
2025-01-17 09:20:30.99	4.87	13.37	
2025-01-17 09:20:32.21	4.76	13.49	
2025-01-17 09:20:33.42	4.64	13.61	
2025-01-17 09:20:34.64	4.52	13.73	
2025-01-17 09:20:35.86	4.40	13.86	
2025-01-17 09:20:37.08	4.28	13.98	
2025-01-17 09:20:38.29	4.16	14.10	
2025-01-17 09:20:39.51	4.04	14.22	
2025-01-17 09:20:40.73	3.91	14.35	
2025-01-17 09:20:41.95	3.79	14.47	
2025-01-17 09:20:43.17	3.66	14.60	
2025-01-17 09:20:44.38	3.54	14.72	
2025-01-17 09:20:45.60	3.41	14.85	
2025-01-17 09:20:46.82	3.28	14.98	
2025-01-17 09:20:48.04	3.15	15.10	
2025-01-17 09:20:49.26	3.02	15.23	
2025-01-17 09:20:50.47	2.88	15.36	
2025-01-17 09:20:51.69	2.75	15.49	
2025-01-17 09:20:52.91	2.61	15.62	
2025-01-17 09:20:54.13	2.48	15.75	
2025-01-17 09:20:55.34	2.34	15.88	
2025-01-17 09:20:56.56	2.20	16.01	
2025-01-17 09:20:57.78	2.06	16.14	
2025-01-17 09:20:59.00	1.91	16.28	
2025-01-17 09:21:00.22	1.77	16.41	
2025-01-17 09:21:01.43	1.63	16.54	
2025-01-17 09:21:02.65	1.48	16.68	
2025-01-17 09:21:03.87	1.33	16.81	
2025-01-17 09:21:05.09	1.18	16.95	
2025-01-17 09:21:06.30	1.03	17.09	
2025-01-17 09:21:07.52	0.88	17.22	
2025-01-17 09:21:08.74	0.72	17.36	
2025-01-17 09:21:09.96	0.57	17.50	
2025-01-17 09:21:11.18	0.41	17.64	
2025-01-17 09:21:12.39	0.25	17.78	
2025-01-17 09:21:13.61	0.09	17.92	
2025-01-17 09:21:14.83	359.93	18.06	
2025-01-17 09:21:16.05	359.77	18.20	
2025-01-17 09:21:17.27	359.60	18.35	
2025-01-17 09:21:18.48	359.43	18.49	
2025-01-17 09:21:19.70	359.27	18.63	
2025-01-17 09:21:20.92	359.09	18.78	
2025-01-17 09:21:22.14	358.92	18.92	
2025-01-17 09:21:23.35	358.75	19.07	
2025-01-17 09:21:24.57	358.57	19.22	
2025-01-17 09:21:25.79	358.40	19.36	
2025-01-17 09:21:27.01	358.22	19.51	
2025-01-17 09:21:28.23	358.03	19.66	
2025-01-17 09:21:29.44	357.85	19.81	
2025-01-17 09:21:30.66	357.67	19.96	
2025-01-17 09:21:31.88	357.48	20.11	
2025-01-17 09:21:33.10	357.29	20.26	
2025-01-17 09:21:34.31	357.10	20.41	
2025-01-17 09:21:35.53	356.91	20.56	
2025-01-17 09:21:36.75	356.71	20.72	
2025-01-17 09:21:37.97	356.51	20.87	
2025-01-17 09:21:39.19	356.31	21.03	
2025-01-17 09:21:40.40	356.11	21.18	
2025-01-17 09:21:41.62	355.91	21.34	
2025-01-17 09:21:42.84	355.70	21.50	
2025-01-17 09:21:44.06	355.49	21.65	
2025-01-17 09:21:45.28	355.28	21.81	
2025-01-17 09:21:46.49	355.07	21.97	
2025-01-17 09:21:47.71	354.85	22.13	
2025-01-17 09:21:48.93	354.64	22.29	
2025-01-17 09:21:50.15	354.41	22.45	
2025-01-17 09:21:51.36	354.19	22.61	
2025-01-17 09:21:52.58	353.97	22.77	
2025-01-17 09:21:53.80	353.74	22.94	
2025-01-17 09:21:55.02	353.51	23.10	
2025-01-17 09:21:56.24	353.28	23.26	
2025-01-17 09:21:57.45	353.04	23.43	
2025-01-17 09:21:58.67	352.80	23.59	
2025-01-17 09:21:59.89	352.56	23.76	
2025-01-17 09:22:01.11	352.32	23.93	
2025-01-17 09:22:02.33	352.07	24.09	
2025-01-17 09:22:03.54	351.83	24.26	
2025-01-17 09:22:04.76	351.57	24.43	
2025-01-17 09:22:05.98	351.32	24.60	
2025-01-17 09:22:07.20	351.06	24.77	
2025-01-17 09:22:08.41	350.80	24.94	
2025-01-17 09:22:09.63	350.54	25.11	
2025-01-17 09:22:10.85	350.27	25.28	
2025-01-17 09:22:12.07	350.00	25.45	
2025-01-17 09:22:13.29	349.73	25.62	
2025-01-17 09:22:14.50	349.45	25.79	
2025-01-17 09:22:15.72	349.17	25.97	
2025-01-17 09:22:16.94	348.89	26.14	
2025-01-17 09:22:18.16	348.61	26.32	
2025-01-17 09:22:19.37	348.32	26.49	
2025-01-17 09:22:20.59	348.03	26.66	
2025-01-17 09:22:21.81	347.73	26.84	
2025-01-17 09:22:23.03	347.43	27.02	
2025-01-17 09:22:24.25	347.13	27.19	
2025-01-17 09:22:25.46	346.82	27.37	
2025-01-17 09:22:26.68	346.51	27.54	
2025-01-17 09:22:27.90	346.20	27.72	
2025-01-17 09:22:29.12	345.88	27.90	
2025-01-17 09:22:30.34	345.56	28.08	
2025-01-17 09:22:31.55	345.24	28.25	
2025-01-17 09:22:32.77	344.91	28.43	
2025-01-17 09:22:33.99	344.58	28.61	
2025-01-17 09:22:35.21	344.24	28.79	
2025-01-17 09:22:36.42	343.90	28.97	
2025-01-17 09:22:37.64	343.56	29.15	
2025-01-17 09:22:38.86	343.21	29.33	
2025-01-17 09:22:40.08	342.86	29.51	
2025-01-17 09:22:41.30	342.50	29.68	
2025-01-17 09:22:42.51	342.14	29.86	
2025-01-17 09:22:43.73	341.78	30.04	
2025-01-17 09:22:44.95	341.41	30.22	
2025-01-17 09:22:46.17	341.04	30.40	
2025-01-17 09:22:47.38	340.66	30.58	
2025-01-17 09:22:48.60	340.28	30.76	
2025-01-17 09:22:49.82	339.89	30.93	
2025-01-17 09:22:51.04	339.50	31.11	
2025-01-17 09:22:52.26	339.10	31.29	
2025-01-17 09:22:53.47	338.71	31.47	
2025-01-17 09:22:54.69	338.30	31.64	
2025-01-17 09:22:55.91	337.89	31.82	
2025-01-17 09:22:57.13	337.48	31.99	
2025-01-17 09:22:58.35	337.06	32.17	
2025-01-17 09:22:59.56	336.64	32.34	
2025-01-17 09:23:00.78	336.21	32.52	
2025-01-17 09:23:02.00	335.78	32.69	
2025-01-17 09:23:03.22	335.34	32.86	
2025-01-17 09:23:04.43	334.90	33.03	
2025-01-17 09:23:05.65	334.46	33.20	
2025-01-17 09:23:06.87	334.01	33.37	
2025-01-17 09:23:08.09	333.55	33.54	
2025-01-17 09:23:09.31	333.09	33.71	
2025-01-17 09:23:10.52	332.62	33.88	
2025-01-17 09:23:11.74	332.15	34.04	
2025-01-17 09:23:12.96	331.67	34.21	
2025-01-17 09:23:14.18	331.19	34.37	
2025-01-17 09:23:15.40	330.71	34.53	
2025-01-17 09:23:16.61	330.22	34.69	
2025-01-17 09:23:17.83	329.72	34.85	
2025-01-17 09:23:19.05	329.22	35.01	
2025-01-17 09:23:20.27	328.71	35.16	
2025-01-17 09:23:21.48	328.21	35.31	
2025-01-17 09:23:22.70	327.69	35.47	
2025-01-17 09:23:23.92	327.17	35.62	
2025-01-17 09:23:25.14	326.64	35.76	
2025-01-17 09:23:26.36	326.11	35.91	
2025-01-17 09:23:27.57	325.58	36.05	
2025-01-17 09:23:28.79	325.04	36.19	
2025-01-17 09:23:30.01	324.49	36.33	
2025-01-17 09:23:31.23	323.94	36.47	
2025-01-17 09:23:32.44	323.39	36.61	
2025-01-17 09:23:33.66	322.83	36.74	
2025-01-17 09:23:34.88	322.26	36.87	
2025-01-17 09:23:36.10	321.69	37.00	
2025-01-17 09:23:37.32	321.12	37.12	
2025-01-17 09:23:38.53	320.55	37.24	
2025-01-17 09:23:39.75	319.96	37.36	
2025-01-17 09:23:40.97	319.38	37.48	
2025-01-17 09:23:42.19	318.78	37.59	
2025-01-17 09:23:43.41	318.19	37.70	
2025-01-17 09:23:44.62	317.59	37.81	
2025-01-17 09:23:45.84	316.99	37.91	
2025-01-17 09:23:47.06	316.38	38.01	
2025-01-17 09:23:48.28	315.77	38.11	
2025-01-17 09:23:49.49	315.16	38.20	
2025-01-17 09:23:50.71	314.54	38.29	
2025-01-17 09:23:51.93	313.92	38.38	
2025-01-17 09:23:53.15	313.29	38.46	
2025-01-17 09:23:54.37	312.66	38.54	
2025-01-17 09:23:55.59	312.03	38.62	
2025-01-17 09:23:56.80	311.40	38.69	
2025-01-17 09:23:58.02	310.76	38.76	
2025-01-17 09:23:59.24	310.12	38.83	
2025-01-17 09:24:00.46	309.48	38.89	
2025-01-17 09:24:01.67	308.84	38.94	
2025-01-17 09:24:02.89	308.19	39.00	
2025-01-17 09:24:04.11	307.54	39.05	
2025-01-17 09:24:05.33	306.89	39.09	
2025-01-17 09:24:06.55	306.23	39.13	
2025-01-17 09:24:07.76	305.58	39.17	
2025-01-17 09:24:08.98	304.93	39.20	
2025-01-17 09:24:10.20	304.27	39.23	
2025-01-17 09:24:11.42	303.61	39.25	
2025-01-17 09:24:12.64	302.95	39.27	
2025-01-17 09:24:13.85	302.29	39.29	
2025-01-17 09:24:15.07	301.63	39.30	
2025-01-17 09:24:16.29	300.97	39.31	
2025-01-17 09:24:17.51	300.31	39.31	
2025-01-17 09:24:18.72	299.65	39.31	
2025-01-17 09:24:19.94	298.99	39.30	
2025-01-17 09:24:21.16	298.33	39.29	
2025-01-17 09:24:22.38	297.66	39.28	
2025-01-17 09:24:23.60	297.00	39.26	
2025-01-17 09:24:24.81	296.35	39.24	
2025-01-17 09:24:26.03	295.69	39.21	
2025-01-17 09:24:27.25	295.03	39.18	
2025-01-17 09:24:28.47	294.38	39.15	
2025-01-17 09:24:29.68	293.73	39.11	
2025-01-17 09:24:30.90	293.07	39.06	
2025-01-17 09:24:32.12	292.42	39.02	
2025-01-17 09:24:33.34	291.77	38.97	
2025-01-17 09:24:34.56	291.13	38.91	
2025-01-17 09:24:35.77	290.49	38.85	
2025-01-17 09:24:36.99	289.84	38.79	
2025-01-17 09:24:38.21	289.20	38.72	
2025-01-17 09:24:39.43	288.57	38.65	
2025-01-17 09:24:40.65	287.93	38.57	
2025-01-17 09:24:41.86	287.31	38.50	
2025-01-17 09:24:43.08	286.68	38.41	
2025-01-17 09:24:44.30	286.05	38.33	
2025-01-17 09:24:45.52	285.43	38.24	
2025-01-17 09:24:46.73	284.82	38.15	
2025-01-17 09:24:47.95	284.21	38.05	
2025-01-17 09:24:49.17	283.60	37.95	
2025-01-17 09:24:50.39	282.99	37.85	
2025-01-17 09:24:51.61	282.39	37.74	
2025-01-17 09:24:52.82	281.79	37.63	
2025-01-17 09:24:54.04	281.20	37.52	
2025-01-17 09:24:55.26	280.61	37.40	
2025-01-17 09:24:56.48	280.02	37.29	
2025-01-17 09:24:57.69	279.45	37.17	
2025-01-17 09:24:58.91	278.87	37.04	
2025-01-17 09:25:00.13	278.30	36.92	
2025-01-17 09:25:01.35	277.73	36.79	
2025-01-17 09:25:02.57	277.17	36.65	
2025-01-17 09:25:03.78	276.61	36.52	
2025-01-17 09:25:05.00	276.06	36.38	
2025-01-17 09:25:06.22	275.51	36.25	
2025-01-17 09:25:07.44	274.96	36.10	
2025-01-17 09:25:08.66	274.42	35.96	
2025-01-17 09:25:09.87	273.89	35.82	
2025-01-17 09:25:11.09	273.36	35.67	
2025-01-17 09:25:12.31	272.84	35.52	
2025-01-17 09:25:13.53	272.32	35.37	
2025-01-17 09:25:14.74	271.81	35.21	
2025-01-17 09:25:15.96	271.30	35.06	
2025-01-17 09:25:17.18	270.79	34.90	
2025-01-17 09:25:18.40	270.29	34.74	
2025-01-17 09:25:19.62	269.80	34.58	
2025-01-17 09:25:20.83	269.31	34.42	
2025-01-17 09:25:22.05	268.83	34.26	
2025-01-17 09:25:23.27	268.35	34.10	
2025-01-17 09:25:24.49	267.87	33.93	
2025-01-17 09:25:25.71	267.40	33.76	
2025-01-17 09:25:26.92	266.94	33.60	
2025-01-17 09:25:28.14	266.48	33.43	
2025-01-17 09:25:29.36	266.03	33.26	
2025-01-17 09:25:30.58	265.58	33.09	
2025-01-17 09:25:31.79	265.13	32.91	
2025-01-17 09:25:33.01	264.69	32.74	
2025-01-17 09:25:34.23	264.26	32.57	
2025-01-17 09:25:35.45	263.83	32.39	
2025-01-17 09:25:36.67	263.40	32.22	
2025-01-17 09:25:37.88	262.98	32.04	
2025-01-17 09:25:39.10	262.56	31.87	
2025-01-17 09:25:40.32	262.15	31.69	
2025-01-17 09:25:41.54	261.74	31.51	
2025-01-17 09:25:42.75	261.34	31.34	
2025-01-17 09:25:43.97	260.95	31.16	
2025-01-17 09:25:45.19	260.55	30.98	
2025-01-17 09:25:46.41	260.16	30.80	
2025-01-17 09:25:47.63	259.78	30.62	
2025-01-17 09:25:48.84	259.40	30.45	
2025-01-17 09:25:50.06	259.02	30.27	
2025-01-17 09:25:51.28	258.65	30.09	
2025-01-17 09:25:52.50	258.28	29.91	
2025-01-17 09:25:53.72	257.92	29.73	
2025-01-17 09:25:54.93	257.56	29.55	
2025-01-17 09:25:56.15	257.21	29.37	
2025-01-17 09:25:57.37	256.86	29.19	
2025-01-17 09:25:58.59	256.51	29.01	
2025-01-17 09:25:59.80	256.17	28.83	
2025-01-17 09:26:01.02	255.83	28.65	
2025-01-17 09:26:02.24	255.49	28.47	
2025-01-17 09:26:03.46	255.16	28.29	
2025-01-17 09:26:04.68	254.84	28.11	
2025-01-17 09:26:05.89	254.51	27.94	
2025-01-17 09:26:07.11	254.19	27.76	
2025-01-17 09:26:08.33	253.88	27.58	
2025-01-17 09:26:09.55	253.56	27.40	
2025-01-17 09:26:10.76	253.26	27.22	
2025-01-17 09:26:11.98	252.95	27.05	
2025-01-17 09:26:13.20	252.65	26.87	
2025-01-17 09:26:14.42	252.35	26.69	
2025-01-17 09:26:15.64	252.06	26.52	
2025-01-17 09:26:16.85	251.77	26.34	
2025-01-17 09:26:18.07	251.48	26.17	
2025-01-17 09:26:19.29	251.19	25.99	
2025-01-17 09:26:20.51	250.91	25.82	
2025-01-17 09:26:21.73	250.63	25.65	
2025-01-17 09:26:22.94	250.36	25.47	
2025-01-17 09:26:24.16	250.09	25.30	
2025-01-17 09:26:25.38	249.82	25.13	
2025-01-17 09:26:26.60	249.55	24.96	
2025-01-17 09:26:27.81	249.29	24.79	
2025-01-17 09:26:29.03	249.03	24.62	
2025-01-17 09:26:30.25	248.77	24.45	
2025-01-17 09:26:31.47	248.52	24.28	
2025-01-17 09:26:32.69	248.27	24.11	
2025-01-17 09:26:33.90	248.02	23.94	
2025-01-17 09:26:35.12	247.78	23.77	
2025-01-17 09:26:36.34	247.53	23.61	
2025-01-17 09:26:37.56	247.29	23.44	
2025-01-17 09:26:38.78	247.05	23.27	
2025-01-17 09:26:39.99	246.82	23.11	
2025-01-17 09:26:41.21	246.59	22.95	
2025-01-17 09:26:42.43	246.36	22.78	
2025-01-17 09:26:43.65	246.13	22.62	
2025-01-17 09:26:44.86	245.91	22.46	
2025-01-17 09:26:46.08	245.69	22.30	
2025-01-17 09:26:47.30	245.47	22.13	
2025-01-17 09:26:48.52	245.25	21.97	
2025-01-17 09:26:49.74	245.03	21.81	
2025-01-17 09:26:50.95	244.82	21.66	
2025-01-17 09:26:52.17	244.61	21.50	
2025-01-17 09:26:53.39	244.40	21.34	
2025-01-17 09:26:54.61	244.20	21.18	
2025-01-17 09:26:55.82	243.99	21.03	
2025-01-17 09:26:57.04	243.79	20.87	
2025-01-17 09:26:58.26	243.59	20.72	
2025-01-17 09:26:59.48	243.40	20.56	
2025-01-17 09:27:00.70	243.20	20.41	
2025-01-17 09:27:01.91	243.01	20.26	
2025-01-17 09:27:03.13	242.82	20.10	
2025-01-17 09:27:04.35	242.63	19.95	
2025-01-17 09:27:05.57	242.44	19.80	
2025-01-17 09:27:06.79	242.26	19.65	
2025-01-17 09:27:08.00	242.07	19.50	
2025-01-17 09:27:09.22	241.89	19.35	
2025-01-17 09:27:10.44	241.71	19.21	
2025-01-17 09:27:11.66	241.53	19.06	
2025-01-17 09:27:12.87	241.36	18.91	
2025-01-17 09:27:14.09	241.19	18.77	
2025-01-17 09:27:15.31	241.01	18.62	
2025-01-17 09:27:16.53	240.84	18.48	
2025-01-17 09:27:17.75	240.67	18.33	
2025-01-17 09:27:18.96	240.51	18.19	
2025-01-17 09:27:20.18	240.34	18.05	
2025-01-17 09:27:21.40	240.18	17.90	
2025-01-17 09:27:22.62	240.02	17.76	
2025-01-17 09:27:23.83	239.86	17.62	
2025-01-17 09:27:25.05	239.70	17.48	
2025-01-17 09:27:26.27	239.54	17.34	
2025-01-17 09:27:27.49	239.39	17.20	
2025-01-17 09:27:28.71	239.23	17.07	
2025-01-17 09:27:29.92	239.08	16.93	
2025-01-17 09:27:31.14	238.93	16.79	
2025-01-17 09:27:32.36	238.78	16.66	
2025-01-17 09:27:33.58	238.63	16.52	
2025-01-17 09:27:34.80	238.48	16.38	
2025-01-17 09:27:36.01	238.34	16.25	
2025-01-17 09:27:37.23	238.19	16.12	
2025-01-17 09:27:38.45	238.05	15.98	
2025-01-17 09:27:39.67	237.91	15.85	
2025-01-17 09:27:40.88	237.77	15.72	
2025-01-17 09:27:42.10	237.63	15.59	
2025-01-17 09:27:43.32	237.50	15.46	
2025-01-17 09:27:44.54	237.36	15.33	
2025-01-17 09:27:45.76	237.22	15.20	
2025-01-17 09:27:46.97	237.09	15.07	
2025-01-17 09:27:48.19	236.96	14.94	
2025-01-17 09:27:49.41	236.83	14.82	
2025-01-17 09:27:50.63	236.70	14.69	
2025-01-17 09:27:51.84	236.57	14.56	
2025-01-17 09:27:53.06	236.44	14.44	
2025-01-17 09:27:54.28	236.32	14.31	
2025-01-17 09:27:55.50	236.19	14.19	
2025-01-17 09:27:56.72	236.07	14.06	
2025-01-17 09:27:57.93	235.95	13.94	
2025-01-17 09:27:59.15	235.82	13.82	
2025-01-17 09:28:00.37	235.70	13.69	
2025-01-17 09:28:01.59	235.58	13.57	
2025-01-17 09:28:02.81	235.47	13.45	
2025-01-17 09:28:04.02	235.35	13.33	
2025-01-17 09:28:05.24	235.23	13.21	
2025-01-17 09:28:06.46	235.12	13.09	
2025-01-17 09:28:07.68	235.00	12.97	
2025-01-17 09:28:08.89	234.89	12.85	
2025-01-17 09:28:10.11	234.78	12.74	
2025-01-17 09:28:11.33	234.67	12.62	
2025-01-17 09:28:12.55	234.56	12.50	
2025-01-17 09:28:13.77	234.45	12.39	
2025-01-17 09:28:14.98	234.34	12.27	
2025-01-17 09:28:16.20	234.23	12.15	
2025-01-17 09:28:17.42	234.12	12.04	
2025-01-17 09:28:18.64	234.02	11.92	
2025-01-17 09:28:19.86	233.91	11.81	
2025-01-17 09:28:21.07	233.81	11.70	
2025-01-17 09:28:22.29	233.71	11.59	
2025-01-17 09:28:23.51	233.61	11.47	
2025-01-17 09:28:24.73	233.50	11.36	
2025-01-17 09:28:25.94	233.40	11.25	
2025-01-17 09:28:27.16	233.31	11.14	
2025-01-17 09:28:28.38	233.21	11.03	
2025-01-17 09:28:29.60	233.11	10.92	
2025-01-17 09:28:30.82	233.01	10.81	
2025-01-17 09:28:32.03	232.92	10.70	
2025-01-17 09:28:33.25	232.82	10.59	
2025-01-17 09:28:34.47	232.73	10.48	
2025-01-17 09:28:35.69	232.63	10.37	
2025-01-17 09:28:36.90	232.54	10.27	
2025-01-17 09:28:38.12	232.45	10.16	
2025-01-17 09:28:39.34	232.35	10.05	
2025-01-17 09:28:40.56	232.26	9.95	
2025-01-17 09:28:41.78	232.17	9.84	
2025-01-17 09:28:42.99	232.08	9.74	
2025-01-17 09:28:44.21	232.00	9.63	
2025-01-17 09:28:45.43	231.91	9.53	
2025-01-17 09:28:46.65	231.82	9.43	
2025-01-17 09:28:47.87	231.73	9.32	
2025-01-17 09:28:49.08	231.65	9.22	
2025-01-17 09:28:50.30	231.56	9.12	
2025-01-17 09:28:51.52	231.48	9.01	
2025-01-17 09:28:52.74	231.39	8.91	
2025-01-17 09:28:53.95	231.31	8.81	
2025-01-17 09:28:55.17	231.23	8.71	
2025-01-17 09:28:56.39	231.15	8.61	
2025-01-17 09:28:57.61	231.06	8.51	
2025-01-17 09:28:58.83	230.98	8.41	
2025-01-17 09:29:00.04	230.90	8.31	
2025-01-17 09:29:01.26	230.82	8.21	
2025-01-17 09:29:02.48	230.75	8.11	
2025-01-17 09:29:03.70	230.67	8.01	
2025-01-17 09:29:04.91	230.59	7.92	
2025-01-17 09:29:06.13	230.51	7.82	
2025-01-17 09:29:07.35	230.44	7.72	
2025-01-17 09:29:08.57	230.36	7.63	
2025-01-17 09:29:09.79	230.28	7.53	
2025-01-17 09:29:11.00	230.21	7.43	
2025-01-17 09:29:12.22	230.14	7.34	
2025-01-17 09:29:13.44	230.06	7.24	
2025-01-17 09:29:14.66	229.99	7.15	
2025-01-17 09:29:15.88	229.92	7.05	
2025-01-17 09:29:17.09	229.84	6.96	
2025-01-17 09:29:18.31	229.77	6.86	
2025-01-17 09:29:19.53	229.70	6.77	
2025-01-17 09:29:20.75	229.63	6.68	
2025-01-17 09:29:21.96	229.56	6.58	
2025-01-17 09:29:23.18	229.49	6.49	
2025-01-17 09:29:24.40	229.42	6.40	
2025-01-17 09:29:25.62	229.35	6.31	
2025-01-17 09:29:26.84	229.28	6.22	
2025-01-17 09:29:28.05	229.22	6.13	
2025-01-17 09:29:29.27	229.15	6.03	
2025-01-17 09:29:30.49	229.08	5.94	
2025-01-17 09:29:31.71	229.02	5.85	
2025-01-17 09:29:32.93	228.95	5.76	
2025-01-17 09:29:34.14	228.89	5.67	
2025-01-17 09:29:35.36	228.82	5.58	
2025-01-17 09:29:36.58	228.76	5.49	
2025-01-17 09:29:37.80	228.69	5.41	
2025-01-17 09:29:39.01	228.63	5.32	
2025-01-17 09:29:40.23	228.57	5.23	
2025-01-17 09:29:41.45	228.50	5.14	
2025-01-17 09:29:42.67	228.44	5.05	
2025-01-17 09:29:43.89	228.38	4.97	
2025-01-17 09:29:45.10	228.32	4.88	
2025-01-17 09:29:46.32	228.26	4.79	
2025-01-17 09:29:47.54	228.20	4.71	
2025-01-17 09:29:48.76	228.14	4.62	
2025-01-17 09:29:49.97	228.08	4.53	
2025-01-17 09:29:51.19	228.02	4.45	
2025-01-17 09:29:52.41	227.96	4.36	
2025-01-17 09:29:53.63	227.90	4.28	
2025-01-17 09:29:54.85	227.84	4.19	
2025-01-17 09:29:56.06	227.79	4.11	
2025-01-17 09:29:57.28	227.73	4.02	

#Closed at: 2025-01-17 09:29:57