passes_logs/2025/01/17/SPB_Silybum_02/SPB_Silybum_02__20250117_025612_SUOMI_NPP_rec.log

#Pass ID: 20250117_025612_SUOMI NPP
#Satellite: SUOMI NPP
#Configuration: NPP
#Start time: 2025-01-17 02:56:13

#Version: 2.0.20230423
#Station: SPB_Silybum_02
#Location: 30.233357 lon 59.946436 lat
#TLE: 1 37849U 11061A   25016.11811449  .00000162  00000+0  97827-4 0  9998
#TLE: 2 37849  98.7448 317.0925 0001640  39.6134 320.5162 14.19538688685075

#Time	Az	El	Level	Level2	SNR	BER	Gain	Gain2
2025-01-17 02:56:15.74	13.91	4.16	
2025-01-17 02:56:16.75	13.81	4.22	
2025-01-17 02:56:17.77	13.71	4.27	
2025-01-17 02:56:18.78	13.62	4.32	
2025-01-17 02:56:19.80	13.52	4.38	
2025-01-17 02:56:20.81	13.42	4.43	
2025-01-17 02:56:21.83	13.32	4.48	
2025-01-17 02:56:22.84	13.22	4.54	
2025-01-17 02:56:23.86	13.12	4.59	
2025-01-17 02:56:24.87	13.02	4.64	
2025-01-17 02:56:25.89	12.92	4.70	
2025-01-17 02:56:26.90	12.82	4.75	
2025-01-17 02:56:27.91	12.72	4.80	
2025-01-17 02:56:28.93	12.62	4.86	
2025-01-17 02:56:29.94	12.52	4.91	
2025-01-17 02:56:30.96	12.42	4.97	
2025-01-17 02:56:31.97	12.32	5.02	
2025-01-17 02:56:32.99	12.21	5.07	
2025-01-17 02:56:34.00	12.11	5.13	
2025-01-17 02:56:35.02	12.01	5.18	
2025-01-17 02:56:36.03	11.90	5.23	
2025-01-17 02:56:37.05	11.80	5.29	
2025-01-17 02:56:38.06	11.69	5.34	
2025-01-17 02:56:39.08	11.59	5.39	
2025-01-17 02:56:40.09	11.48	5.45	
2025-01-17 02:56:41.11	11.38	5.50	
2025-01-17 02:56:42.12	11.27	5.56	
2025-01-17 02:56:43.14	11.16	5.61	
2025-01-17 02:56:44.15	11.06	5.66	
2025-01-17 02:56:45.17	10.95	5.72	
2025-01-17 02:56:46.18	10.84	5.77	
2025-01-17 02:56:47.20	10.73	5.83	
2025-01-17 02:56:48.21	10.62	5.88	
2025-01-17 02:56:49.23	10.51	5.93	
2025-01-17 02:56:50.24	10.40	5.99	
2025-01-17 02:56:51.26	10.29	6.04	
2025-01-17 02:56:52.27	10.18	6.09	
2025-01-17 02:56:53.29	10.07	6.15	
2025-01-17 02:56:54.30	9.96	6.20	
2025-01-17 02:56:55.32	9.85	6.26	
2025-01-17 02:56:56.33	9.74	6.31	
2025-01-17 02:56:57.34	9.62	6.36	
2025-01-17 02:56:58.36	9.51	6.42	
2025-01-17 02:56:59.37	9.40	6.47	
2025-01-17 02:57:00.39	9.28	6.53	
2025-01-17 02:57:01.40	9.17	6.58	
2025-01-17 02:57:02.42	9.05	6.63	
2025-01-17 02:57:03.43	8.94	6.69	
2025-01-17 02:57:04.45	8.82	6.74	
2025-01-17 02:57:05.46	8.71	6.80	
2025-01-17 02:57:06.48	8.59	6.85	
2025-01-17 02:57:07.49	8.47	6.90	
2025-01-17 02:57:08.51	8.36	6.96	
2025-01-17 02:57:09.52	8.24	7.01	
2025-01-17 02:57:10.54	8.12	7.07	
2025-01-17 02:57:11.55	8.00	7.12	
2025-01-17 02:57:12.57	7.88	7.17	
2025-01-17 02:57:13.58	7.76	7.23	
2025-01-17 02:57:14.60	7.64	7.28	
2025-01-17 02:57:15.61	7.52	7.34	
2025-01-17 02:57:16.63	7.40	7.39	
2025-01-17 02:57:17.64	7.28	7.44	
2025-01-17 02:57:18.66	7.16	7.50	
2025-01-17 02:57:19.67	7.03	7.55	
2025-01-17 02:57:20.69	6.91	7.61	
2025-01-17 02:57:21.70	6.79	7.66	
2025-01-17 02:57:22.72	6.66	7.71	
2025-01-17 02:57:23.73	6.54	7.77	
2025-01-17 02:57:24.75	6.41	7.82	
2025-01-17 02:57:25.76	6.29	7.87	
2025-01-17 02:57:26.78	6.16	7.93	
2025-01-17 02:57:27.79	6.04	7.98	
2025-01-17 02:57:28.80	5.91	8.04	
2025-01-17 02:57:29.82	5.78	8.09	
2025-01-17 02:57:30.83	5.66	8.14	
2025-01-17 02:57:31.85	5.53	8.20	
2025-01-17 02:57:32.86	5.40	8.25	
2025-01-17 02:57:33.88	5.27	8.30	
2025-01-17 02:57:34.89	5.14	8.36	
2025-01-17 02:57:35.91	5.01	8.41	
2025-01-17 02:57:36.92	4.88	8.47	
2025-01-17 02:57:37.94	4.75	8.52	
2025-01-17 02:57:38.95	4.62	8.57	
2025-01-17 02:57:39.97	4.48	8.63	
2025-01-17 02:57:40.98	4.35	8.68	
2025-01-17 02:57:42.00	4.22	8.73	
2025-01-17 02:57:43.01	4.08	8.79	
2025-01-17 02:57:44.03	3.95	8.84	
2025-01-17 02:57:45.04	3.81	8.89	
2025-01-17 02:57:46.06	3.68	8.95	
2025-01-17 02:57:47.07	3.54	9.00	
2025-01-17 02:57:48.09	3.41	9.05	
2025-01-17 02:57:49.10	3.27	9.11	
2025-01-17 02:57:50.12	3.13	9.16	
2025-01-17 02:57:51.13	3.00	9.21	
2025-01-17 02:57:52.15	2.86	9.27	
2025-01-17 02:57:53.16	2.72	9.32	
2025-01-17 02:57:54.18	2.58	9.37	
2025-01-17 02:57:55.19	2.44	9.42	
2025-01-17 02:57:56.21	2.30	9.48	
2025-01-17 02:57:57.22	2.16	9.53	
2025-01-17 02:57:58.23	2.02	9.58	
2025-01-17 02:57:59.25	1.88	9.63	
2025-01-17 02:58:00.26	1.73	9.69	
2025-01-17 02:58:01.28	1.59	9.74	
2025-01-17 02:58:02.29	1.45	9.79	
2025-01-17 02:58:03.31	1.30	9.84	
2025-01-17 02:58:04.32	1.16	9.90	
2025-01-17 02:58:05.34	1.01	9.95	
2025-01-17 02:58:06.35	0.87	10.00	
2025-01-17 02:58:07.37	0.72	10.05	
2025-01-17 02:58:08.38	0.57	10.11	
2025-01-17 02:58:09.40	0.43	10.16	
2025-01-17 02:58:10.41	0.28	10.21	
2025-01-17 02:58:11.43	0.13	10.26	
2025-01-17 02:58:12.44	359.98	10.31	
2025-01-17 02:58:13.46	359.83	10.37	
2025-01-17 02:58:14.47	359.68	10.42	
2025-01-17 02:58:15.49	359.53	10.47	
2025-01-17 02:58:16.50	359.38	10.52	
2025-01-17 02:58:17.52	359.23	10.57	
2025-01-17 02:58:18.53	359.08	10.62	
2025-01-17 02:58:19.55	358.93	10.67	
2025-01-17 02:58:20.56	358.77	10.72	
2025-01-17 02:58:21.58	358.62	10.78	
2025-01-17 02:58:22.59	358.46	10.83	
2025-01-17 02:58:23.61	358.31	10.88	
2025-01-17 02:58:24.62	358.15	10.93	
2025-01-17 02:58:25.64	358.00	10.98	
2025-01-17 02:58:26.65	357.84	11.03	
2025-01-17 02:58:27.67	357.68	11.08	
2025-01-17 02:58:28.68	357.53	11.13	
2025-01-17 02:58:29.69	357.37	11.18	
2025-01-17 02:58:30.71	357.21	11.23	
2025-01-17 02:58:31.72	357.05	11.28	
2025-01-17 02:58:32.74	356.89	11.33	
2025-01-17 02:58:33.75	356.73	11.38	
2025-01-17 02:58:34.77	356.57	11.43	
2025-01-17 02:58:35.78	356.41	11.48	
2025-01-17 02:58:36.80	356.25	11.53	
2025-01-17 02:58:37.81	356.09	11.58	
2025-01-17 02:58:38.83	355.92	11.63	
2025-01-17 02:58:39.84	355.76	11.67	
2025-01-17 02:58:40.86	355.59	11.72	
2025-01-17 02:58:41.87	355.43	11.77	
2025-01-17 02:58:42.89	355.26	11.82	
2025-01-17 02:58:43.90	355.10	11.87	
2025-01-17 02:58:44.92	354.93	11.92	
2025-01-17 02:58:45.93	354.77	11.96	
2025-01-17 02:58:46.95	354.60	12.01	
2025-01-17 02:58:47.96	354.43	12.06	
2025-01-17 02:58:48.98	354.26	12.11	
2025-01-17 02:58:49.99	354.09	12.16	
2025-01-17 02:58:51.01	353.92	12.20	
2025-01-17 02:58:52.02	353.75	12.25	
2025-01-17 02:58:53.04	353.58	12.30	
2025-01-17 02:58:54.05	353.41	12.34	
2025-01-17 02:58:55.07	353.24	12.39	
2025-01-17 02:58:56.08	353.07	12.44	
2025-01-17 02:58:57.10	352.89	12.48	
2025-01-17 02:58:58.11	352.72	12.53	
2025-01-17 02:58:59.13	352.54	12.58	
2025-01-17 02:59:00.14	352.37	12.62	
2025-01-17 02:59:01.15	352.19	12.67	
2025-01-17 02:59:02.17	352.02	12.71	
2025-01-17 02:59:03.18	351.84	12.76	
2025-01-17 02:59:04.20	351.66	12.80	
2025-01-17 02:59:05.21	351.49	12.85	
2025-01-17 02:59:06.23	351.31	12.89	
2025-01-17 02:59:07.24	351.13	12.94	
2025-01-17 02:59:08.26	350.95	12.98	
2025-01-17 02:59:09.27	350.77	13.03	
2025-01-17 02:59:10.29	350.59	13.07	
2025-01-17 02:59:11.30	350.41	13.11	
2025-01-17 02:59:12.32	350.23	13.16	
2025-01-17 02:59:13.33	350.05	13.20	
2025-01-17 02:59:14.35	349.86	13.24	
2025-01-17 02:59:15.36	349.68	13.29	
2025-01-17 02:59:16.38	349.50	13.33	
2025-01-17 02:59:17.39	349.32	13.37	
2025-01-17 02:59:18.41	349.13	13.42	
2025-01-17 02:59:19.42	348.95	13.46	
2025-01-17 02:59:20.44	348.76	13.50	
2025-01-17 02:59:21.45	348.57	13.54	
2025-01-17 02:59:22.47	348.39	13.58	
2025-01-17 02:59:23.48	348.20	13.62	
2025-01-17 02:59:24.50	348.01	13.66	
2025-01-17 02:59:25.51	347.82	13.70	
2025-01-17 02:59:26.53	347.63	13.75	
2025-01-17 02:59:27.54	347.44	13.79	
2025-01-17 02:59:28.56	347.25	13.83	
2025-01-17 02:59:29.57	347.06	13.86	
2025-01-17 02:59:30.58	346.87	13.90	
2025-01-17 02:59:31.60	346.68	13.94	
2025-01-17 02:59:32.61	346.49	13.98	
2025-01-17 02:59:33.63	346.30	14.02	
2025-01-17 02:59:34.64	346.11	14.06	
2025-01-17 02:59:35.66	345.91	14.10	
2025-01-17 02:59:36.67	345.72	14.14	
2025-01-17 02:59:37.69	345.52	14.17	
2025-01-17 02:59:38.70	345.33	14.21	
2025-01-17 02:59:39.72	345.13	14.25	
2025-01-17 02:59:40.73	344.94	14.28	
2025-01-17 02:59:41.75	344.74	14.32	
2025-01-17 02:59:42.76	344.54	14.36	
2025-01-17 02:59:43.78	344.35	14.39	
2025-01-17 02:59:44.79	344.15	14.43	
2025-01-17 02:59:45.81	343.95	14.46	
2025-01-17 02:59:46.82	343.75	14.50	
2025-01-17 02:59:47.84	343.55	14.53	
2025-01-17 02:59:48.85	343.35	14.57	
2025-01-17 02:59:49.87	343.15	14.60	
2025-01-17 02:59:50.88	342.95	14.64	
2025-01-17 02:59:51.90	342.75	14.67	
2025-01-17 02:59:52.91	342.55	14.70	
2025-01-17 02:59:53.93	342.34	14.74	
2025-01-17 02:59:54.94	342.14	14.77	
2025-01-17 02:59:55.96	341.94	14.80	
2025-01-17 02:59:56.97	341.74	14.83	
2025-01-17 02:59:57.99	341.53	14.86	
2025-01-17 02:59:59.00	341.33	14.90	
2025-01-17 03:00:00.01	341.12	14.93	
2025-01-17 03:00:01.03	340.92	14.96	
2025-01-17 03:00:02.04	340.71	14.99	
2025-01-17 03:00:03.06	340.51	15.02	
2025-01-17 03:00:04.07	340.30	15.05	
2025-01-17 03:00:05.09	340.09	15.08	
2025-01-17 03:00:06.10	339.89	15.11	
2025-01-17 03:00:07.12	339.68	15.13	
2025-01-17 03:00:08.13	339.47	15.16	
2025-01-17 03:00:09.15	339.26	15.19	
2025-01-17 03:00:10.16	339.05	15.22	
2025-01-17 03:00:11.18	338.84	15.25	
2025-01-17 03:00:12.19	338.63	15.27	
2025-01-17 03:00:13.21	338.42	15.30	
2025-01-17 03:00:14.22	338.21	15.32	
2025-01-17 03:00:15.24	338.00	15.35	
2025-01-17 03:00:16.25	337.79	15.38	
2025-01-17 03:00:17.27	337.58	15.40	
2025-01-17 03:00:18.28	337.37	15.43	
2025-01-17 03:00:19.30	337.15	15.45	
2025-01-17 03:00:20.31	336.94	15.47	
2025-01-17 03:00:21.33	336.73	15.50	
2025-01-17 03:00:22.34	336.51	15.52	
2025-01-17 03:00:23.36	336.30	15.54	
2025-01-17 03:00:24.37	336.09	15.57	
2025-01-17 03:00:25.39	335.87	15.59	
2025-01-17 03:00:26.40	335.66	15.61	
2025-01-17 03:00:27.42	335.44	15.63	
2025-01-17 03:00:28.43	335.23	15.65	
2025-01-17 03:00:29.45	335.01	15.67	
2025-01-17 03:00:30.46	334.80	15.69	
2025-01-17 03:00:31.47	334.58	15.71	
2025-01-17 03:00:32.49	334.36	15.73	
2025-01-17 03:00:33.50	334.15	15.75	
2025-01-17 03:00:34.52	333.93	15.77	
2025-01-17 03:00:35.53	333.71	15.79	
2025-01-17 03:00:36.55	333.49	15.80	
2025-01-17 03:00:37.56	333.28	15.82	
2025-01-17 03:00:38.58	333.06	15.84	
2025-01-17 03:00:39.59	332.84	15.86	
2025-01-17 03:00:40.61	332.62	15.87	
2025-01-17 03:00:41.62	332.40	15.89	
2025-01-17 03:00:42.64	332.18	15.90	
2025-01-17 03:00:43.65	331.97	15.92	
2025-01-17 03:00:44.67	331.74	15.93	
2025-01-17 03:00:45.68	331.53	15.95	
2025-01-17 03:00:46.70	331.30	15.96	
2025-01-17 03:00:47.71	331.09	15.97	
2025-01-17 03:00:48.73	330.86	15.98	
2025-01-17 03:00:49.74	330.64	16.00	
2025-01-17 03:00:50.76	330.42	16.01	
2025-01-17 03:00:51.77	330.20	16.02	
2025-01-17 03:00:52.79	329.98	16.03	
2025-01-17 03:00:53.80	329.76	16.04	
2025-01-17 03:00:54.82	329.54	16.05	
2025-01-17 03:00:55.83	329.32	16.06	
2025-01-17 03:00:56.85	329.10	16.07	
2025-01-17 03:00:57.86	328.87	16.08	
2025-01-17 03:00:58.88	328.65	16.09	
2025-01-17 03:00:59.89	328.43	16.10	
2025-01-17 03:01:00.91	328.21	16.10	
2025-01-17 03:01:01.92	327.99	16.11	
2025-01-17 03:01:02.93	327.76	16.12	
2025-01-17 03:01:03.95	327.54	16.12	
2025-01-17 03:01:04.96	327.32	16.13	
2025-01-17 03:01:05.98	327.10	16.14	
2025-01-17 03:01:06.99	326.87	16.14	
2025-01-17 03:01:08.01	326.65	16.15	
2025-01-17 03:01:09.02	326.43	16.15	
2025-01-17 03:01:10.04	326.20	16.15	
2025-01-17 03:01:11.05	325.98	16.16	
2025-01-17 03:01:12.07	325.76	16.16	
2025-01-17 03:01:13.08	325.54	16.16	
2025-01-17 03:01:14.11	325.31	16.16	
2025-01-17 03:01:15.12	325.09	16.16	
2025-01-17 03:01:16.14	324.86	16.17	
2025-01-17 03:01:17.15	324.64	16.17	
2025-01-17 03:01:18.17	324.42	16.17	
2025-01-17 03:01:19.18	324.19	16.17	
2025-01-17 03:01:20.20	323.97	16.17	
2025-01-17 03:01:21.21	323.75	16.16	
2025-01-17 03:01:22.23	323.52	16.16	
2025-01-17 03:01:23.24	323.30	16.16	
2025-01-17 03:01:24.26	323.08	16.16	
2025-01-17 03:01:25.27	322.86	16.15	
2025-01-17 03:01:26.29	322.63	16.15	
2025-01-17 03:01:27.30	322.41	16.15	
2025-01-17 03:01:28.32	322.19	16.14	
2025-01-17 03:01:29.33	321.96	16.14	
2025-01-17 03:01:30.35	321.74	16.13	
2025-01-17 03:01:31.36	321.52	16.13	
2025-01-17 03:01:32.38	321.29	16.12	
2025-01-17 03:01:33.39	321.07	16.12	
2025-01-17 03:01:34.41	320.85	16.11	
2025-01-17 03:01:35.42	320.63	16.10	
2025-01-17 03:01:36.44	320.41	16.09	
2025-01-17 03:01:37.45	320.18	16.09	
2025-01-17 03:01:38.47	319.96	16.08	
2025-01-17 03:01:39.48	319.74	16.07	
2025-01-17 03:01:40.49	319.52	16.06	
2025-01-17 03:01:41.51	319.30	16.05	
2025-01-17 03:01:42.52	319.08	16.04	
2025-01-17 03:01:43.54	318.85	16.03	
2025-01-17 03:01:44.55	318.63	16.02	
2025-01-17 03:01:45.57	318.41	16.00	
2025-01-17 03:01:46.58	318.19	15.99	
2025-01-17 03:01:47.60	317.97	15.98	
2025-01-17 03:01:48.61	317.75	15.97	
2025-01-17 03:01:49.63	317.53	15.95	
2025-01-17 03:01:50.64	317.31	15.94	
2025-01-17 03:01:51.66	317.09	15.93	
2025-01-17 03:01:52.67	316.87	15.91	
2025-01-17 03:01:53.69	316.65	15.90	
2025-01-17 03:01:54.70	316.43	15.88	
2025-01-17 03:01:55.72	316.21	15.86	
2025-01-17 03:01:56.73	316.00	15.85	
2025-01-17 03:01:57.75	315.78	15.83	
2025-01-17 03:01:58.76	315.56	15.81	
2025-01-17 03:01:59.78	315.34	15.80	
2025-01-17 03:02:00.79	315.12	15.78	
2025-01-17 03:02:01.81	314.90	15.76	
2025-01-17 03:02:02.82	314.69	15.74	
2025-01-17 03:02:03.84	314.47	15.72	
2025-01-17 03:02:04.85	314.26	15.70	
2025-01-17 03:02:05.87	314.04	15.68	
2025-01-17 03:02:06.88	313.82	15.66	
2025-01-17 03:02:07.90	313.61	15.64	
2025-01-17 03:02:08.91	313.39	15.62	
2025-01-17 03:02:09.93	313.18	15.60	
2025-01-17 03:02:10.94	312.96	15.58	
2025-01-17 03:02:11.95	312.75	15.56	
2025-01-17 03:02:12.97	312.53	15.53	
2025-01-17 03:02:13.98	312.32	15.51	
2025-01-17 03:02:15.00	312.11	15.49	
2025-01-17 03:02:16.01	311.89	15.46	
2025-01-17 03:02:17.03	311.68	15.44	
2025-01-17 03:02:18.04	311.47	15.41	
2025-01-17 03:02:19.06	311.25	15.39	
2025-01-17 03:02:20.07	311.04	15.36	
2025-01-17 03:02:21.09	310.83	15.34	
2025-01-17 03:02:22.10	310.62	15.31	
2025-01-17 03:02:23.12	310.41	15.29	
2025-01-17 03:02:24.13	310.20	15.26	
2025-01-17 03:02:25.15	309.99	15.23	
2025-01-17 03:02:26.16	309.78	15.21	
2025-01-17 03:02:27.18	309.57	15.18	
2025-01-17 03:02:28.19	309.36	15.15	
2025-01-17 03:02:29.21	309.15	15.12	
2025-01-17 03:02:30.22	308.95	15.09	
2025-01-17 03:02:31.24	308.74	15.06	
2025-01-17 03:02:32.25	308.53	15.03	
2025-01-17 03:02:33.27	308.32	15.00	
2025-01-17 03:02:34.28	308.12	14.97	
2025-01-17 03:02:35.30	307.91	14.94	
2025-01-17 03:02:36.31	307.71	14.91	
2025-01-17 03:02:37.33	307.50	14.88	
2025-01-17 03:02:38.34	307.30	14.85	
2025-01-17 03:02:39.36	307.09	14.82	
2025-01-17 03:02:40.37	306.89	14.79	
2025-01-17 03:02:41.38	306.69	14.75	
2025-01-17 03:02:42.40	306.48	14.72	
2025-01-17 03:02:43.41	306.28	14.69	
2025-01-17 03:02:44.43	306.08	14.65	
2025-01-17 03:02:45.44	305.88	14.62	
2025-01-17 03:02:46.46	305.68	14.59	
2025-01-17 03:02:47.47	305.48	14.55	
2025-01-17 03:02:48.49	305.28	14.52	
2025-01-17 03:02:49.50	305.08	14.48	
2025-01-17 03:02:50.52	304.88	14.45	
2025-01-17 03:02:51.53	304.68	14.41	
2025-01-17 03:02:52.55	304.48	14.38	
2025-01-17 03:02:53.56	304.28	14.34	
2025-01-17 03:02:54.58	304.09	14.30	
2025-01-17 03:02:55.59	303.89	14.27	
2025-01-17 03:02:56.61	303.69	14.23	
2025-01-17 03:02:57.62	303.50	14.19	
2025-01-17 03:02:58.64	303.30	14.15	
2025-01-17 03:02:59.65	303.11	14.12	
2025-01-17 03:03:00.67	302.91	14.08	
2025-01-17 03:03:01.68	302.72	14.04	
2025-01-17 03:03:02.70	302.53	14.00	
2025-01-17 03:03:03.71	302.33	13.96	
2025-01-17 03:03:04.73	302.14	13.92	
2025-01-17 03:03:05.74	301.95	13.88	
2025-01-17 03:03:06.76	301.76	13.85	
2025-01-17 03:03:07.77	301.57	13.81	
2025-01-17 03:03:08.79	301.38	13.77	
2025-01-17 03:03:09.80	301.19	13.72	
2025-01-17 03:03:10.82	301.00	13.68	
2025-01-17 03:03:11.83	300.81	13.64	
2025-01-17 03:03:12.84	300.62	13.60	
2025-01-17 03:03:13.86	300.43	13.56	
2025-01-17 03:03:14.87	300.25	13.52	
2025-01-17 03:03:15.89	300.06	13.48	
2025-01-17 03:03:16.90	299.88	13.44	
2025-01-17 03:03:17.92	299.69	13.39	
2025-01-17 03:03:18.93	299.51	13.35	
2025-01-17 03:03:19.95	299.32	13.31	
2025-01-17 03:03:20.96	299.14	13.27	
2025-01-17 03:03:21.98	298.95	13.22	
2025-01-17 03:03:22.99	298.77	13.18	
2025-01-17 03:03:24.01	298.59	13.14	
2025-01-17 03:03:25.02	298.41	13.09	
2025-01-17 03:03:26.04	298.23	13.05	
2025-01-17 03:03:27.05	298.05	13.00	
2025-01-17 03:03:28.07	297.87	12.96	
2025-01-17 03:03:29.08	297.69	12.92	
2025-01-17 03:03:30.10	297.51	12.87	
2025-01-17 03:03:31.11	297.33	12.83	
2025-01-17 03:03:32.13	297.15	12.78	
2025-01-17 03:03:33.14	296.97	12.73	
2025-01-17 03:03:34.16	296.80	12.69	
2025-01-17 03:03:35.17	296.62	12.64	
2025-01-17 03:03:36.19	296.44	12.60	
2025-01-17 03:03:37.20	296.27	12.55	
2025-01-17 03:03:38.22	296.10	12.51	
2025-01-17 03:03:39.23	295.92	12.46	
2025-01-17 03:03:40.25	295.75	12.41	
2025-01-17 03:03:41.26	295.58	12.37	
2025-01-17 03:03:42.28	295.40	12.32	
2025-01-17 03:03:43.29	295.23	12.27	
2025-01-17 03:03:44.30	295.06	12.23	
2025-01-17 03:03:45.32	294.89	12.18	
2025-01-17 03:03:46.33	294.72	12.13	
2025-01-17 03:03:47.35	294.55	12.08	
2025-01-17 03:03:48.36	294.38	12.03	
2025-01-17 03:03:49.38	294.21	11.99	
2025-01-17 03:03:50.39	294.05	11.94	
2025-01-17 03:03:51.41	293.88	11.89	
2025-01-17 03:03:52.42	293.71	11.84	
2025-01-17 03:03:53.44	293.54	11.79	
2025-01-17 03:03:54.45	293.38	11.74	
2025-01-17 03:03:55.47	293.21	11.70	
2025-01-17 03:03:56.48	293.05	11.65	
2025-01-17 03:03:57.50	292.89	11.60	
2025-01-17 03:03:58.51	292.72	11.55	
2025-01-17 03:03:59.53	292.56	11.50	
2025-01-17 03:04:00.54	292.40	11.45	
2025-01-17 03:04:01.56	292.23	11.40	
2025-01-17 03:04:02.57	292.07	11.35	
2025-01-17 03:04:03.59	291.91	11.30	
2025-01-17 03:04:04.60	291.75	11.25	
2025-01-17 03:04:05.62	291.59	11.20	
2025-01-17 03:04:06.63	291.44	11.15	
2025-01-17 03:04:07.65	291.28	11.10	
2025-01-17 03:04:08.66	291.12	11.05	
2025-01-17 03:04:09.68	290.96	11.00	
2025-01-17 03:04:10.69	290.80	10.95	
2025-01-17 03:04:11.71	290.65	10.90	
2025-01-17 03:04:12.72	290.49	10.85	
2025-01-17 03:04:13.73	290.34	10.80	
2025-01-17 03:04:14.75	290.18	10.75	
2025-01-17 03:04:15.76	290.03	10.69	
2025-01-17 03:04:16.78	289.88	10.64	
2025-01-17 03:04:17.79	289.72	10.59	
2025-01-17 03:04:18.81	289.57	10.54	
2025-01-17 03:04:19.82	289.42	10.49	
2025-01-17 03:04:20.84	289.27	10.44	
2025-01-17 03:04:21.85	289.12	10.39	
2025-01-17 03:04:22.87	288.97	10.33	
2025-01-17 03:04:23.88	288.82	10.28	
2025-01-17 03:04:24.90	288.67	10.23	
2025-01-17 03:04:25.91	288.52	10.18	
2025-01-17 03:04:26.93	288.37	10.13	
2025-01-17 03:04:27.94	288.22	10.07	
2025-01-17 03:04:28.96	288.08	10.02	
2025-01-17 03:04:29.97	287.93	9.97	
2025-01-17 03:04:30.99	287.78	9.92	
2025-01-17 03:04:32.00	287.64	9.87	
2025-01-17 03:04:33.02	287.49	9.81	
2025-01-17 03:04:34.03	287.35	9.76	
2025-01-17 03:04:35.05	287.20	9.71	
2025-01-17 03:04:36.06	287.06	9.65	
2025-01-17 03:04:37.08	286.92	9.60	
2025-01-17 03:04:38.09	286.78	9.55	
2025-01-17 03:04:39.11	286.63	9.50	
2025-01-17 03:04:40.12	286.49	9.44	
2025-01-17 03:04:41.14	286.35	9.39	
2025-01-17 03:04:42.15	286.21	9.34	
2025-01-17 03:04:43.17	286.07	9.28	
2025-01-17 03:04:44.18	285.93	9.23	
2025-01-17 03:04:45.19	285.79	9.18	
2025-01-17 03:04:46.21	285.66	9.13	
2025-01-17 03:04:47.22	285.52	9.07	
2025-01-17 03:04:48.24	285.38	9.02	
2025-01-17 03:04:49.25	285.25	8.97	
2025-01-17 03:04:50.27	285.11	8.91	
2025-01-17 03:04:51.28	284.97	8.86	
2025-01-17 03:04:52.30	284.84	8.81	
2025-01-17 03:04:53.31	284.70	8.75	
2025-01-17 03:04:54.33	284.57	8.70	
2025-01-17 03:04:55.34	284.44	8.64	
2025-01-17 03:04:56.36	284.30	8.59	
2025-01-17 03:04:57.37	284.17	8.54	
2025-01-17 03:04:58.39	284.04	8.48	
2025-01-17 03:04:59.40	283.91	8.43	
2025-01-17 03:05:00.42	283.77	8.38	
2025-01-17 03:05:01.43	283.64	8.32	
2025-01-17 03:05:02.45	283.51	8.27	
2025-01-17 03:05:03.46	283.38	8.22	
2025-01-17 03:05:04.48	283.25	8.16	
2025-01-17 03:05:05.49	283.13	8.11	
2025-01-17 03:05:06.51	283.00	8.05	
2025-01-17 03:05:07.52	282.87	8.00	
2025-01-17 03:05:08.54	282.74	7.95	
2025-01-17 03:05:09.55	282.62	7.89	
2025-01-17 03:05:10.57	282.49	7.84	
2025-01-17 03:05:11.58	282.36	7.78	
2025-01-17 03:05:12.60	282.24	7.73	
2025-01-17 03:05:13.61	282.11	7.68	
2025-01-17 03:05:14.62	281.99	7.62	
2025-01-17 03:05:15.64	281.87	7.57	
2025-01-17 03:05:16.65	281.74	7.51	
2025-01-17 03:05:17.67	281.62	7.46	
2025-01-17 03:05:18.68	281.50	7.41	
2025-01-17 03:05:19.70	281.37	7.35	
2025-01-17 03:05:20.71	281.25	7.30	
2025-01-17 03:05:21.73	281.13	7.24	
2025-01-17 03:05:22.74	281.01	7.19	
2025-01-17 03:05:23.76	280.89	7.14	
2025-01-17 03:05:24.77	280.77	7.08	
2025-01-17 03:05:25.79	280.65	7.03	
2025-01-17 03:05:26.80	280.53	6.97	
2025-01-17 03:05:27.82	280.41	6.92	
2025-01-17 03:05:28.83	280.30	6.87	
2025-01-17 03:05:29.85	280.18	6.81	
2025-01-17 03:05:30.86	280.06	6.76	
2025-01-17 03:05:31.88	279.95	6.70	
2025-01-17 03:05:32.89	279.83	6.65	
2025-01-17 03:05:33.91	279.71	6.59	
2025-01-17 03:05:34.92	279.60	6.54	
2025-01-17 03:05:35.94	279.48	6.49	
2025-01-17 03:05:36.95	279.37	6.43	
2025-01-17 03:05:37.97	279.25	6.38	
2025-01-17 03:05:38.98	279.14	6.32	
2025-01-17 03:05:40.00	279.03	6.27	
2025-01-17 03:05:41.01	278.92	6.22	
2025-01-17 03:05:42.03	278.80	6.16	
2025-01-17 03:05:43.04	278.69	6.11	
2025-01-17 03:05:44.06	278.58	6.05	
2025-01-17 03:05:45.07	278.47	6.00	
2025-01-17 03:05:46.08	278.36	5.95	
2025-01-17 03:05:47.10	278.25	5.89	
2025-01-17 03:05:48.11	278.14	5.84	
2025-01-17 03:05:49.13	278.03	5.78	
2025-01-17 03:05:50.14	277.92	5.73	
2025-01-17 03:05:51.16	277.81	5.68	
2025-01-17 03:05:52.17	277.70	5.62	
2025-01-17 03:05:53.19	277.60	5.57	
2025-01-17 03:05:54.20	277.49	5.52	
2025-01-17 03:05:55.22	277.38	5.46	
2025-01-17 03:05:56.23	277.27	5.41	
2025-01-17 03:05:57.25	277.17	5.35	
2025-01-17 03:05:58.26	277.06	5.30	
2025-01-17 03:05:59.28	276.96	5.25	
2025-01-17 03:06:00.29	276.85	5.19	
2025-01-17 03:06:01.31	276.75	5.14	
2025-01-17 03:06:02.32	276.64	5.08	
2025-01-17 03:06:03.34	276.54	5.03	
2025-01-17 03:06:04.35	276.44	4.98	
2025-01-17 03:06:05.37	276.33	4.92	
2025-01-17 03:06:06.38	276.23	4.87	
2025-01-17 03:06:07.40	276.13	4.82	
2025-01-17 03:06:08.41	276.03	4.76	
2025-01-17 03:06:09.43	275.93	4.71	
2025-01-17 03:06:10.44	275.82	4.66	
2025-01-17 03:06:11.46	275.72	4.60	
2025-01-17 03:06:12.47	275.62	4.55	
2025-01-17 03:06:13.49	275.52	4.50	
2025-01-17 03:06:14.50	275.42	4.44	
2025-01-17 03:06:15.52	275.32	4.39	
2025-01-17 03:06:16.53	275.23	4.34	
2025-01-17 03:06:17.54	275.13	4.28	
2025-01-17 03:06:18.56	275.03	4.23	
2025-01-17 03:06:19.57	274.93	4.18	
2025-01-17 03:06:20.59	274.83	4.12	
2025-01-17 03:06:21.60	274.74	4.07	
2025-01-17 03:06:22.62	274.64	4.02	

#Closed at: 2025-01-17 03:06:23