passes_logs/2025/01/17/SPB_Silybum_02/SPB_Silybum_02__20250117_093751_AQUA_rec.log

#Pass ID: 20250117_093751_AQUA
#Satellite: AQUA
#Configuration: AQUA
#Start time: 2025-01-17 09:41:34

#Version: 2.0.20230423
#Station: SPB_Silybum_02
#Location: 30.233357 lon 59.946436 lat
#TLE: 1 27424U 02022A   25016.84910416  .00001840  00000+0  38758-3 0  9998
#TLE: 2 27424  98.3592 333.5297 0001787 109.3464 277.9036 14.60690037207895

#Time	Az	El	Level	Level2	SNR	BER	Gain	Gain2
2025-01-17 09:41:36.08	70.57	19.10	
2025-01-17 09:41:36.89	70.36	19.15	
2025-01-17 09:41:37.71	70.14	19.19	
2025-01-17 09:41:38.52	69.93	19.23	
2025-01-17 09:41:39.33	69.72	19.28	
2025-01-17 09:41:40.14	69.50	19.32	
2025-01-17 09:41:40.95	69.29	19.36	
2025-01-17 09:41:41.76	69.07	19.40	
2025-01-17 09:41:42.58	68.85	19.45	
2025-01-17 09:41:43.39	68.63	19.49	
2025-01-17 09:41:44.20	68.42	19.53	
2025-01-17 09:41:45.01	68.20	19.57	
2025-01-17 09:41:45.82	67.98	19.61	
2025-01-17 09:41:46.64	67.76	19.65	
2025-01-17 09:41:47.45	67.54	19.69	
2025-01-17 09:41:48.26	67.32	19.73	
2025-01-17 09:41:49.07	67.10	19.77	
2025-01-17 09:41:49.88	66.87	19.80	
2025-01-17 09:41:50.70	66.65	19.84	
2025-01-17 09:41:51.51	66.43	19.88	
2025-01-17 09:41:52.32	66.20	19.92	
2025-01-17 09:41:53.13	65.98	19.95	
2025-01-17 09:41:53.94	65.75	19.99	
2025-01-17 09:41:54.75	65.53	20.03	
2025-01-17 09:41:55.57	65.30	20.06	
2025-01-17 09:41:56.38	65.07	20.10	
2025-01-17 09:41:57.19	64.85	20.13	
2025-01-17 09:41:58.00	64.62	20.17	
2025-01-17 09:41:58.81	64.39	20.20	
2025-01-17 09:41:59.63	64.16	20.24	
2025-01-17 09:42:00.44	63.93	20.27	
2025-01-17 09:42:01.25	63.70	20.30	
2025-01-17 09:42:02.06	63.47	20.33	
2025-01-17 09:42:02.87	63.24	20.37	
2025-01-17 09:42:03.69	63.01	20.40	
2025-01-17 09:42:04.50	62.77	20.43	
2025-01-17 09:42:05.31	62.54	20.46	
2025-01-17 09:42:06.12	62.31	20.49	
2025-01-17 09:42:06.93	62.08	20.52	
2025-01-17 09:42:07.74	61.84	20.55	
2025-01-17 09:42:08.56	61.61	20.58	
2025-01-17 09:42:09.37	61.37	20.61	
2025-01-17 09:42:10.18	61.14	20.63	
2025-01-17 09:42:10.99	60.90	20.66	
2025-01-17 09:42:11.80	60.66	20.69	
2025-01-17 09:42:12.62	60.43	20.72	
2025-01-17 09:42:13.43	60.19	20.74	
2025-01-17 09:42:14.24	59.95	20.77	
2025-01-17 09:42:15.05	59.71	20.79	
2025-01-17 09:42:15.86	59.48	20.82	
2025-01-17 09:42:16.68	59.24	20.84	
2025-01-17 09:42:17.49	59.00	20.87	
2025-01-17 09:42:18.30	58.76	20.89	
2025-01-17 09:42:19.11	58.52	20.91	
2025-01-17 09:42:19.92	58.28	20.93	
2025-01-17 09:42:20.74	58.03	20.96	
2025-01-17 09:42:21.55	57.79	20.98	
2025-01-17 09:42:22.36	57.55	21.00	
2025-01-17 09:42:23.17	57.31	21.02	
2025-01-17 09:42:23.98	57.07	21.04	
2025-01-17 09:42:24.79	56.83	21.06	
2025-01-17 09:42:25.61	56.58	21.08	
2025-01-17 09:42:26.42	56.34	21.10	
2025-01-17 09:42:27.23	56.10	21.11	
2025-01-17 09:42:28.04	55.86	21.13	
2025-01-17 09:42:28.85	55.61	21.15	
2025-01-17 09:42:29.67	55.37	21.17	
2025-01-17 09:42:30.48	55.12	21.18	
2025-01-17 09:42:31.29	54.88	21.20	
2025-01-17 09:42:32.10	54.63	21.21	
2025-01-17 09:42:32.91	54.39	21.23	
2025-01-17 09:42:33.73	54.14	21.24	
2025-01-17 09:42:34.54	53.90	21.25	
2025-01-17 09:42:35.35	53.65	21.26	
2025-01-17 09:42:36.16	53.40	21.28	
2025-01-17 09:42:36.97	53.16	21.29	
2025-01-17 09:42:37.78	52.91	21.30	
2025-01-17 09:42:38.60	52.66	21.31	
2025-01-17 09:42:39.41	52.42	21.32	
2025-01-17 09:42:40.22	52.17	21.33	
2025-01-17 09:42:41.03	51.92	21.34	
2025-01-17 09:42:41.84	51.68	21.35	
2025-01-17 09:42:42.66	51.43	21.36	
2025-01-17 09:42:43.47	51.18	21.36	
2025-01-17 09:42:44.28	50.93	21.37	
2025-01-17 09:42:45.09	50.69	21.38	
2025-01-17 09:42:45.90	50.44	21.38	
2025-01-17 09:42:46.72	50.19	21.39	
2025-01-17 09:42:47.53	49.94	21.39	
2025-01-17 09:42:48.34	49.69	21.39	
2025-01-17 09:42:49.15	49.45	21.40	
2025-01-17 09:42:49.96	49.20	21.40	
2025-01-17 09:42:50.78	48.95	21.40	
2025-01-17 09:42:51.59	48.70	21.41	
2025-01-17 09:42:52.40	48.45	21.41	
2025-01-17 09:42:53.21	48.21	21.41	
2025-01-17 09:42:54.02	47.96	21.41	
2025-01-17 09:42:54.83	47.71	21.41	
2025-01-17 09:42:55.65	47.46	21.41	
2025-01-17 09:42:56.46	47.21	21.41	
2025-01-17 09:42:57.27	46.96	21.40	
2025-01-17 09:42:58.08	46.72	21.40	
2025-01-17 09:42:58.89	46.47	21.40	
2025-01-17 09:42:59.71	46.22	21.39	
2025-01-17 09:43:00.52	45.97	21.39	
2025-01-17 09:43:01.33	45.72	21.39	
2025-01-17 09:43:02.14	45.48	21.38	
2025-01-17 09:43:02.95	45.23	21.37	
2025-01-17 09:43:03.77	44.98	21.37	
2025-01-17 09:43:04.58	44.73	21.36	
2025-01-17 09:43:05.39	44.48	21.35	
2025-01-17 09:43:06.20	44.24	21.35	
2025-01-17 09:43:07.01	43.99	21.34	
2025-01-17 09:43:07.82	43.75	21.33	
2025-01-17 09:43:08.64	43.50	21.32	
2025-01-17 09:43:09.45	43.25	21.31	
2025-01-17 09:43:10.26	43.00	21.30	
2025-01-17 09:43:11.07	42.76	21.29	
2025-01-17 09:43:11.88	42.51	21.28	
2025-01-17 09:43:12.70	42.26	21.26	
2025-01-17 09:43:13.51	42.02	21.25	
2025-01-17 09:43:14.32	41.77	21.24	
2025-01-17 09:43:15.13	41.53	21.22	
2025-01-17 09:43:15.94	41.29	21.21	
2025-01-17 09:43:16.76	41.04	21.19	
2025-01-17 09:43:17.57	40.79	21.18	
2025-01-17 09:43:18.38	40.55	21.16	
2025-01-17 09:43:19.19	40.31	21.15	
2025-01-17 09:43:20.00	40.06	21.13	
2025-01-17 09:43:20.81	39.82	21.11	
2025-01-17 09:43:21.63	39.58	21.09	
2025-01-17 09:43:22.44	39.33	21.08	
2025-01-17 09:43:23.25	39.09	21.06	
2025-01-17 09:43:24.06	38.85	21.04	
2025-01-17 09:43:24.87	38.61	21.02	
2025-01-17 09:43:25.69	38.37	21.00	
2025-01-17 09:43:26.50	38.13	20.98	
2025-01-17 09:43:27.31	37.89	20.95	
2025-01-17 09:43:28.12	37.65	20.93	
2025-01-17 09:43:28.93	37.41	20.91	
2025-01-17 09:43:29.75	37.16	20.89	
2025-01-17 09:43:30.56	36.93	20.86	
2025-01-17 09:43:31.37	36.69	20.84	
2025-01-17 09:43:32.18	36.45	20.81	
2025-01-17 09:43:32.99	36.21	20.79	
2025-01-17 09:43:33.81	35.97	20.76	
2025-01-17 09:43:34.62	35.74	20.74	
2025-01-17 09:43:35.43	35.50	20.71	
2025-01-17 09:43:36.24	35.26	20.69	
2025-01-17 09:43:37.05	35.03	20.66	
2025-01-17 09:43:37.86	34.79	20.63	
2025-01-17 09:43:38.68	34.56	20.60	
2025-01-17 09:43:39.49	34.32	20.57	
2025-01-17 09:43:40.30	34.09	20.54	
2025-01-17 09:43:41.11	33.86	20.52	
2025-01-17 09:43:41.92	33.62	20.49	
2025-01-17 09:43:42.74	33.39	20.46	
2025-01-17 09:43:43.55	33.16	20.42	
2025-01-17 09:43:44.36	32.93	20.39	
2025-01-17 09:43:45.17	32.69	20.36	
2025-01-17 09:43:45.98	32.46	20.33	
2025-01-17 09:43:46.80	32.23	20.30	
2025-01-17 09:43:47.61	32.00	20.26	
2025-01-17 09:43:48.42	31.77	20.23	
2025-01-17 09:43:49.23	31.55	20.20	
2025-01-17 09:43:50.04	31.32	20.16	
2025-01-17 09:43:50.85	31.09	20.13	
2025-01-17 09:43:51.67	30.86	20.09	
2025-01-17 09:43:52.48	30.64	20.06	
2025-01-17 09:43:53.29	30.41	20.02	
2025-01-17 09:43:54.10	30.19	19.99	
2025-01-17 09:43:54.91	29.96	19.95	
2025-01-17 09:43:55.73	29.74	19.91	
2025-01-17 09:43:56.54	29.51	19.88	
2025-01-17 09:43:57.35	29.29	19.84	
2025-01-17 09:43:58.16	29.07	19.80	
2025-01-17 09:43:58.97	28.85	19.76	
2025-01-17 09:43:59.79	28.63	19.72	
2025-01-17 09:44:00.60	28.41	19.68	
2025-01-17 09:44:01.41	28.19	19.64	
2025-01-17 09:44:02.22	27.97	19.60	
2025-01-17 09:44:03.03	27.75	19.56	
2025-01-17 09:44:03.84	27.53	19.52	
2025-01-17 09:44:04.66	27.31	19.48	
2025-01-17 09:44:05.47	27.10	19.44	
2025-01-17 09:44:06.28	26.88	19.40	
2025-01-17 09:44:07.09	26.67	19.36	
2025-01-17 09:44:07.90	26.45	19.32	
2025-01-17 09:44:08.72	26.23	19.27	
2025-01-17 09:44:09.53	26.02	19.23	
2025-01-17 09:44:10.34	25.81	19.19	
2025-01-17 09:44:11.15	25.60	19.14	
2025-01-17 09:44:11.96	25.39	19.10	
2025-01-17 09:44:12.78	25.17	19.06	
2025-01-17 09:44:13.59	24.96	19.01	
2025-01-17 09:44:14.40	24.75	18.97	
2025-01-17 09:44:15.21	24.54	18.92	
2025-01-17 09:44:16.02	24.34	18.88	
2025-01-17 09:44:16.84	24.13	18.83	
2025-01-17 09:44:17.65	23.92	18.79	
2025-01-17 09:44:18.46	23.71	18.74	
2025-01-17 09:44:19.27	23.51	18.69	
2025-01-17 09:44:20.08	23.30	18.65	
2025-01-17 09:44:20.89	23.10	18.60	
2025-01-17 09:44:21.71	22.89	18.55	
2025-01-17 09:44:22.52	22.69	18.51	
2025-01-17 09:44:23.33	22.49	18.46	
2025-01-17 09:44:24.14	22.29	18.41	
2025-01-17 09:44:24.95	22.09	18.36	
2025-01-17 09:44:25.77	21.89	18.31	
2025-01-17 09:44:26.58	21.69	18.26	
2025-01-17 09:44:27.39	21.49	18.22	
2025-01-17 09:44:28.20	21.29	18.17	
2025-01-17 09:44:29.01	21.09	18.12	
2025-01-17 09:44:29.83	20.89	18.07	
2025-01-17 09:44:30.64	20.70	18.02	
2025-01-17 09:44:31.45	20.50	17.97	
2025-01-17 09:44:32.26	20.31	17.92	
2025-01-17 09:44:33.07	20.12	17.87	
2025-01-17 09:44:33.88	19.92	17.82	
2025-01-17 09:44:34.70	19.73	17.77	
2025-01-17 09:44:35.51	19.54	17.71	
2025-01-17 09:44:36.32	19.35	17.66	
2025-01-17 09:44:37.13	19.16	17.61	
2025-01-17 09:44:37.94	18.97	17.56	
2025-01-17 09:44:38.76	18.77	17.51	
2025-01-17 09:44:39.57	18.59	17.46	
2025-01-17 09:44:40.38	18.40	17.40	
2025-01-17 09:44:41.19	18.21	17.35	
2025-01-17 09:44:42.00	18.03	17.30	
2025-01-17 09:44:42.82	17.84	17.25	
2025-01-17 09:44:43.63	17.65	17.19	
2025-01-17 09:44:44.44	17.47	17.14	
2025-01-17 09:44:45.25	17.29	17.09	
2025-01-17 09:44:46.06	17.10	17.03	
2025-01-17 09:44:46.88	16.92	16.98	
2025-01-17 09:44:47.69	16.74	16.93	
2025-01-17 09:44:48.50	16.56	16.87	
2025-01-17 09:44:49.31	16.38	16.82	
2025-01-17 09:44:50.12	16.20	16.77	
2025-01-17 09:44:50.93	16.02	16.71	
2025-01-17 09:44:51.75	15.84	16.66	
2025-01-17 09:44:52.56	15.66	16.60	
2025-01-17 09:44:53.37	15.49	16.55	
2025-01-17 09:44:54.18	15.31	16.49	
2025-01-17 09:44:54.99	15.14	16.44	
2025-01-17 09:44:55.81	14.96	16.38	
2025-01-17 09:44:56.62	14.79	16.33	
2025-01-17 09:44:57.43	14.61	16.27	
2025-01-17 09:44:58.24	14.44	16.22	
2025-01-17 09:44:59.05	14.27	16.16	
2025-01-17 09:44:59.87	14.10	16.10	
2025-01-17 09:45:00.68	13.93	16.05	
2025-01-17 09:45:01.49	13.76	15.99	
2025-01-17 09:45:02.30	13.59	15.94	
2025-01-17 09:45:03.11	13.42	15.88	
2025-01-17 09:45:03.92	13.25	15.83	
2025-01-17 09:45:04.74	13.09	15.77	
2025-01-17 09:45:05.55	12.92	15.71	
2025-01-17 09:45:06.36	12.75	15.66	
2025-01-17 09:45:07.17	12.59	15.60	
2025-01-17 09:45:07.98	12.43	15.54	
2025-01-17 09:45:08.80	12.26	15.49	
2025-01-17 09:45:09.61	12.10	15.43	
2025-01-17 09:45:10.42	11.94	15.37	
2025-01-17 09:45:11.23	11.77	15.32	
2025-01-17 09:45:12.04	11.61	15.26	
2025-01-17 09:45:12.86	11.45	15.20	
2025-01-17 09:45:13.67	11.29	15.14	
2025-01-17 09:45:14.48	11.13	15.09	
2025-01-17 09:45:15.29	10.97	15.03	
2025-01-17 09:45:16.10	10.82	14.97	
2025-01-17 09:45:16.91	10.66	14.92	
2025-01-17 09:45:17.73	10.50	14.86	
2025-01-17 09:45:18.54	10.35	14.80	
2025-01-17 09:45:19.35	10.19	14.74	
2025-01-17 09:45:20.16	10.04	14.69	
2025-01-17 09:45:20.97	9.88	14.63	
2025-01-17 09:45:21.79	9.73	14.57	
2025-01-17 09:45:22.60	9.58	14.51	
2025-01-17 09:45:23.41	9.43	14.46	
2025-01-17 09:45:24.22	9.28	14.40	
2025-01-17 09:45:25.03	9.13	14.34	
2025-01-17 09:45:25.85	8.97	14.28	
2025-01-17 09:45:26.66	8.82	14.22	
2025-01-17 09:45:27.47	8.68	14.17	
2025-01-17 09:45:28.28	8.53	14.11	
2025-01-17 09:45:29.09	8.38	14.05	
2025-01-17 09:45:29.91	8.23	13.99	
2025-01-17 09:45:30.72	8.09	13.93	
2025-01-17 09:45:31.53	7.94	13.88	
2025-01-17 09:45:32.34	7.80	13.82	
2025-01-17 09:45:33.15	7.65	13.76	
2025-01-17 09:45:33.96	7.51	13.70	
2025-01-17 09:45:34.78	7.37	13.64	
2025-01-17 09:45:35.59	7.22	13.59	
2025-01-17 09:45:36.40	7.08	13.53	
2025-01-17 09:45:37.21	6.94	13.47	
2025-01-17 09:45:38.02	6.80	13.41	
2025-01-17 09:45:38.84	6.66	13.35	
2025-01-17 09:45:39.65	6.52	13.29	
2025-01-17 09:45:40.46	6.38	13.24	
2025-01-17 09:45:41.27	6.24	13.18	
2025-01-17 09:45:42.08	6.11	13.12	
2025-01-17 09:45:42.90	5.97	13.06	
2025-01-17 09:45:43.71	5.83	13.00	
2025-01-17 09:45:44.52	5.70	12.95	
2025-01-17 09:45:45.33	5.56	12.89	
2025-01-17 09:45:46.14	5.43	12.83	
2025-01-17 09:45:46.95	5.29	12.77	
2025-01-17 09:45:47.77	5.16	12.71	
2025-01-17 09:45:48.58	5.02	12.65	
2025-01-17 09:45:49.39	4.89	12.60	
2025-01-17 09:45:50.20	4.76	12.54	
2025-01-17 09:45:51.01	4.63	12.48	
2025-01-17 09:45:51.83	4.50	12.42	
2025-01-17 09:45:52.64	4.37	12.36	
2025-01-17 09:45:53.45	4.24	12.31	
2025-01-17 09:45:54.26	4.11	12.25	
2025-01-17 09:45:55.07	3.98	12.19	
2025-01-17 09:45:55.89	3.85	12.13	
2025-01-17 09:45:56.70	3.72	12.07	
2025-01-17 09:45:57.51	3.60	12.02	
2025-01-17 09:45:58.32	3.47	11.96	
2025-01-17 09:45:59.13	3.35	11.90	
2025-01-17 09:45:59.94	3.22	11.84	
2025-01-17 09:46:00.76	3.10	11.78	
2025-01-17 09:46:01.57	2.97	11.73	
2025-01-17 09:46:02.38	2.85	11.67	
2025-01-17 09:46:03.19	2.73	11.61	
2025-01-17 09:46:04.00	2.60	11.55	
2025-01-17 09:46:04.82	2.48	11.49	
2025-01-17 09:46:05.63	2.36	11.44	
2025-01-17 09:46:06.44	2.24	11.38	
2025-01-17 09:46:07.25	2.12	11.32	
2025-01-17 09:46:08.06	2.00	11.26	
2025-01-17 09:46:08.88	1.88	11.21	
2025-01-17 09:46:09.69	1.76	11.15	
2025-01-17 09:46:10.50	1.64	11.09	
2025-01-17 09:46:11.33	1.52	11.03	
2025-01-17 09:46:12.14	1.40	10.97	
2025-01-17 09:46:12.95	1.29	10.92	
2025-01-17 09:46:13.76	1.17	10.86	
2025-01-17 09:46:14.57	1.06	10.80	
2025-01-17 09:46:15.39	0.94	10.74	
2025-01-17 09:46:16.20	0.82	10.69	
2025-01-17 09:46:17.01	0.71	10.63	
2025-01-17 09:46:17.82	0.60	10.57	
2025-01-17 09:46:18.63	0.48	10.52	
2025-01-17 09:46:19.45	0.37	10.46	
2025-01-17 09:46:20.26	0.26	10.40	
2025-01-17 09:46:21.07	0.15	10.34	
2025-01-17 09:46:21.88	0.03	10.29	
2025-01-17 09:46:22.69	359.92	10.23	
2025-01-17 09:46:23.51	359.81	10.17	
2025-01-17 09:46:24.32	359.70	10.12	
2025-01-17 09:46:25.13	359.59	10.06	
2025-01-17 09:46:25.94	359.48	10.00	
2025-01-17 09:46:26.75	359.38	9.95	
2025-01-17 09:46:27.56	359.27	9.89	
2025-01-17 09:46:28.38	359.16	9.83	
2025-01-17 09:46:29.19	359.05	9.78	
2025-01-17 09:46:30.00	358.95	9.72	
2025-01-17 09:46:30.81	358.84	9.66	
2025-01-17 09:46:31.62	358.73	9.61	
2025-01-17 09:46:32.44	358.63	9.55	
2025-01-17 09:46:33.25	358.52	9.50	
2025-01-17 09:46:34.06	358.42	9.44	
2025-01-17 09:46:34.87	358.32	9.38	
2025-01-17 09:46:35.68	358.21	9.33	
2025-01-17 09:46:36.50	358.11	9.27	
2025-01-17 09:46:37.31	358.01	9.21	
2025-01-17 09:46:38.12	357.90	9.16	
2025-01-17 09:46:38.93	357.80	9.10	
2025-01-17 09:46:39.74	357.70	9.05	
2025-01-17 09:46:40.55	357.60	8.99	
2025-01-17 09:46:41.37	357.50	8.94	
2025-01-17 09:46:42.18	357.40	8.88	
2025-01-17 09:46:42.99	357.30	8.82	
2025-01-17 09:46:43.80	357.20	8.77	
2025-01-17 09:46:44.61	357.10	8.71	
2025-01-17 09:46:45.43	357.00	8.66	
2025-01-17 09:46:46.24	356.90	8.60	
2025-01-17 09:46:47.05	356.81	8.55	
2025-01-17 09:46:47.86	356.71	8.49	
2025-01-17 09:46:48.67	356.61	8.44	
2025-01-17 09:46:49.49	356.52	8.38	
2025-01-17 09:46:50.30	356.42	8.33	
2025-01-17 09:46:51.11	356.32	8.27	
2025-01-17 09:46:51.92	356.23	8.22	
2025-01-17 09:46:52.73	356.14	8.16	
2025-01-17 09:46:53.55	356.04	8.11	
2025-01-17 09:46:54.36	355.95	8.05	
2025-01-17 09:46:55.17	355.85	8.00	
2025-01-17 09:46:55.98	355.76	7.94	
2025-01-17 09:46:56.79	355.67	7.89	
2025-01-17 09:46:57.60	355.57	7.83	
2025-01-17 09:46:58.42	355.48	7.78	
2025-01-17 09:46:59.23	355.39	7.72	
2025-01-17 09:47:00.04	355.30	7.67	
2025-01-17 09:47:00.85	355.21	7.62	
2025-01-17 09:47:01.66	355.12	7.56	
2025-01-17 09:47:02.48	355.03	7.51	
2025-01-17 09:47:03.29	354.94	7.45	
2025-01-17 09:47:04.10	354.85	7.40	
2025-01-17 09:47:04.91	354.76	7.35	
2025-01-17 09:47:05.72	354.67	7.29	
2025-01-17 09:47:06.54	354.58	7.24	
2025-01-17 09:47:07.35	354.49	7.18	
2025-01-17 09:47:08.16	354.41	7.13	
2025-01-17 09:47:08.97	354.32	7.08	
2025-01-17 09:47:09.78	354.23	7.02	
2025-01-17 09:47:10.59	354.15	6.97	
2025-01-17 09:47:11.41	354.06	6.92	
2025-01-17 09:47:12.22	353.97	6.86	
2025-01-17 09:47:13.03	353.89	6.81	
2025-01-17 09:47:13.84	353.80	6.76	
2025-01-17 09:47:14.65	353.72	6.70	
2025-01-17 09:47:15.47	353.64	6.65	
2025-01-17 09:47:16.28	353.55	6.60	
2025-01-17 09:47:17.09	353.47	6.54	
2025-01-17 09:47:17.90	353.38	6.49	
2025-01-17 09:47:18.71	353.30	6.44	
2025-01-17 09:47:19.53	353.22	6.39	
2025-01-17 09:47:20.34	353.14	6.33	
2025-01-17 09:47:21.15	353.05	6.28	
2025-01-17 09:47:21.96	352.97	6.23	
2025-01-17 09:47:22.77	352.89	6.18	
2025-01-17 09:47:23.59	352.81	6.12	
2025-01-17 09:47:24.40	352.73	6.07	
2025-01-17 09:47:25.21	352.65	6.02	
2025-01-17 09:47:26.02	352.57	5.97	
2025-01-17 09:47:26.83	352.49	5.91	
2025-01-17 09:47:27.64	352.41	5.86	
2025-01-17 09:47:28.46	352.33	5.81	
2025-01-17 09:47:29.27	352.25	5.76	
2025-01-17 09:47:30.08	352.17	5.71	
2025-01-17 09:47:30.89	352.10	5.65	
2025-01-17 09:47:31.70	352.02	5.60	
2025-01-17 09:47:32.52	351.94	5.55	
2025-01-17 09:47:33.33	351.86	5.50	
2025-01-17 09:47:34.14	351.79	5.45	
2025-01-17 09:47:34.95	351.71	5.40	
2025-01-17 09:47:35.76	351.63	5.34	
2025-01-17 09:47:36.58	351.56	5.29	
2025-01-17 09:47:37.39	351.48	5.24	
2025-01-17 09:47:38.20	351.41	5.19	
2025-01-17 09:47:39.01	351.33	5.14	
2025-01-17 09:47:39.82	351.26	5.09	
2025-01-17 09:47:40.63	351.18	5.04	
2025-01-17 09:47:41.45	351.11	4.99	
2025-01-17 09:47:42.26	351.04	4.93	
2025-01-17 09:47:43.07	350.96	4.88	
2025-01-17 09:47:43.88	350.89	4.83	
2025-01-17 09:47:44.69	350.82	4.78	
2025-01-17 09:47:45.51	350.74	4.73	
2025-01-17 09:47:46.32	350.67	4.68	
2025-01-17 09:47:47.13	350.60	4.63	
2025-01-17 09:47:47.94	350.53	4.58	
2025-01-17 09:47:48.75	350.46	4.53	
2025-01-17 09:47:49.57	350.38	4.48	
2025-01-17 09:47:50.38	350.31	4.43	
2025-01-17 09:47:51.19	350.24	4.38	
2025-01-17 09:47:52.00	350.17	4.33	
2025-01-17 09:47:52.81	350.10	4.28	
2025-01-17 09:47:53.62	350.03	4.23	
2025-01-17 09:47:54.44	349.96	4.18	
2025-01-17 09:47:55.25	349.89	4.13	
2025-01-17 09:47:56.06	349.82	4.08	
2025-01-17 09:47:56.87	349.75	4.03	

#Closed at: 2025-01-17 09:47:57