passes_logs/2025/01/17/SPB_Silybum_02/SPB_Silybum_02__20250117_060411_TERRA_rec.log

#Pass ID: 20250117_060411_TERRA
#Satellite: TERRA
#Configuration: TERRA
#Start time: 2025-01-17 06:04:09

#Version: 2.0.20230423
#Station: SPB_Silybum_02
#Location: 30.233357 lon 59.946436 lat
#TLE: 1 25994U 99068A   25016.77398677  .00000840  00000+0  18282-3 0  9994
#TLE: 2 25994  98.0212  79.7479 0003409  69.0484  40.6664 14.60398530334334

#Time	Az	El	Level	Level2	SNR	BER	Gain	Gain2
2025-01-17 06:04:11.88	37.49	4.02	
2025-01-17 06:04:12.69	37.60	4.06	
2025-01-17 06:04:13.51	37.71	4.09	
2025-01-17 06:04:14.32	37.81	4.12	
2025-01-17 06:04:15.13	37.92	4.16	
2025-01-17 06:04:15.94	38.03	4.19	
2025-01-17 06:04:16.75	38.14	4.23	
2025-01-17 06:04:17.57	38.25	4.26	
2025-01-17 06:04:18.38	38.36	4.29	
2025-01-17 06:04:19.19	38.47	4.33	
2025-01-17 06:04:20.00	38.58	4.36	
2025-01-17 06:04:20.82	38.69	4.40	
2025-01-17 06:04:21.63	38.80	4.43	
2025-01-17 06:04:22.44	38.91	4.46	
2025-01-17 06:04:23.25	39.02	4.50	
2025-01-17 06:04:24.07	39.13	4.53	
2025-01-17 06:04:24.88	39.24	4.57	
2025-01-17 06:04:25.69	39.35	4.60	
2025-01-17 06:04:26.50	39.47	4.63	
2025-01-17 06:04:27.31	39.58	4.67	
2025-01-17 06:04:28.13	39.69	4.70	
2025-01-17 06:04:28.94	39.80	4.73	
2025-01-17 06:04:29.75	39.92	4.77	
2025-01-17 06:04:30.56	40.03	4.80	
2025-01-17 06:04:31.38	40.14	4.83	
2025-01-17 06:04:32.19	40.26	4.87	
2025-01-17 06:04:33.00	40.37	4.90	
2025-01-17 06:04:33.81	40.49	4.93	
2025-01-17 06:04:34.62	40.60	4.97	
2025-01-17 06:04:35.44	40.72	5.00	
2025-01-17 06:04:36.25	40.83	5.03	
2025-01-17 06:04:37.06	40.95	5.07	
2025-01-17 06:04:37.87	41.06	5.10	
2025-01-17 06:04:38.69	41.18	5.13	
2025-01-17 06:04:39.50	41.29	5.17	
2025-01-17 06:04:40.31	41.41	5.20	
2025-01-17 06:04:41.12	41.53	5.23	
2025-01-17 06:04:41.94	41.65	5.27	
2025-01-17 06:04:42.75	41.76	5.30	
2025-01-17 06:04:43.56	41.88	5.33	
2025-01-17 06:04:44.37	42.00	5.36	
2025-01-17 06:04:45.18	42.12	5.40	
2025-01-17 06:04:46.00	42.24	5.43	
2025-01-17 06:04:46.81	42.35	5.46	
2025-01-17 06:04:47.62	42.47	5.49	
2025-01-17 06:04:48.43	42.59	5.53	
2025-01-17 06:04:49.25	42.71	5.56	
2025-01-17 06:04:50.06	42.83	5.59	
2025-01-17 06:04:50.87	42.95	5.62	
2025-01-17 06:04:51.68	43.07	5.66	
2025-01-17 06:04:52.50	43.20	5.69	
2025-01-17 06:04:53.31	43.32	5.72	
2025-01-17 06:04:54.12	43.44	5.75	
2025-01-17 06:04:54.93	43.56	5.78	
2025-01-17 06:04:55.74	43.68	5.82	
2025-01-17 06:04:56.56	43.80	5.85	
2025-01-17 06:04:57.37	43.93	5.88	
2025-01-17 06:04:58.18	44.05	5.91	
2025-01-17 06:04:58.99	44.17	5.94	
2025-01-17 06:04:59.81	44.30	5.98	
2025-01-17 06:05:00.62	44.42	6.01	
2025-01-17 06:05:01.43	44.54	6.04	
2025-01-17 06:05:02.24	44.67	6.07	
2025-01-17 06:05:03.06	44.79	6.10	
2025-01-17 06:05:03.87	44.92	6.13	
2025-01-17 06:05:04.68	45.04	6.16	
2025-01-17 06:05:05.49	45.17	6.20	
2025-01-17 06:05:06.30	45.29	6.23	
2025-01-17 06:05:07.12	45.42	6.26	
2025-01-17 06:05:07.93	45.54	6.29	
2025-01-17 06:05:08.74	45.67	6.32	
2025-01-17 06:05:09.55	45.80	6.35	
2025-01-17 06:05:10.37	45.93	6.38	
2025-01-17 06:05:11.18	46.05	6.41	
2025-01-17 06:05:11.99	46.18	6.44	
2025-01-17 06:05:12.80	46.31	6.47	
2025-01-17 06:05:13.62	46.44	6.50	
2025-01-17 06:05:14.43	46.56	6.53	
2025-01-17 06:05:15.24	46.69	6.57	
2025-01-17 06:05:16.05	46.82	6.60	
2025-01-17 06:05:16.86	46.95	6.63	
2025-01-17 06:05:17.68	47.08	6.66	
2025-01-17 06:05:18.49	47.21	6.69	
2025-01-17 06:05:19.30	47.34	6.72	
2025-01-17 06:05:20.11	47.47	6.75	
2025-01-17 06:05:20.93	47.60	6.78	
2025-01-17 06:05:21.74	47.73	6.81	
2025-01-17 06:05:22.55	47.86	6.84	
2025-01-17 06:05:23.36	48.00	6.86	
2025-01-17 06:05:24.17	48.13	6.89	
2025-01-17 06:05:24.99	48.26	6.92	
2025-01-17 06:05:25.80	48.39	6.95	
2025-01-17 06:05:26.61	48.53	6.98	
2025-01-17 06:05:27.42	48.66	7.01	
2025-01-17 06:05:28.24	48.79	7.04	
2025-01-17 06:05:29.05	48.93	7.07	
2025-01-17 06:05:29.86	49.06	7.10	
2025-01-17 06:05:30.67	49.19	7.13	
2025-01-17 06:05:31.49	49.33	7.16	
2025-01-17 06:05:32.30	49.46	7.19	
2025-01-17 06:05:33.11	49.60	7.21	
2025-01-17 06:05:33.92	49.73	7.24	
2025-01-17 06:05:34.73	49.87	7.27	
2025-01-17 06:05:35.55	50.00	7.30	
2025-01-17 06:05:36.36	50.14	7.33	
2025-01-17 06:05:37.17	50.28	7.36	
2025-01-17 06:05:37.98	50.41	7.38	
2025-01-17 06:05:38.80	50.55	7.41	
2025-01-17 06:05:39.61	50.69	7.44	
2025-01-17 06:05:40.42	50.83	7.47	
2025-01-17 06:05:41.23	50.96	7.49	
2025-01-17 06:05:42.05	51.10	7.52	
2025-01-17 06:05:42.86	51.24	7.55	
2025-01-17 06:05:43.67	51.38	7.58	
2025-01-17 06:05:44.48	51.52	7.60	
2025-01-17 06:05:45.29	51.66	7.63	
2025-01-17 06:05:46.11	51.80	7.66	
2025-01-17 06:05:46.92	51.94	7.69	
2025-01-17 06:05:47.73	52.07	7.71	
2025-01-17 06:05:48.54	52.21	7.74	
2025-01-17 06:05:49.36	52.36	7.77	
2025-01-17 06:05:50.17	52.50	7.79	
2025-01-17 06:05:50.98	52.64	7.82	
2025-01-17 06:05:51.79	52.78	7.84	
2025-01-17 06:05:52.61	52.92	7.87	
2025-01-17 06:05:53.42	53.06	7.90	
2025-01-17 06:05:54.23	53.20	7.92	
2025-01-17 06:05:55.04	53.35	7.95	
2025-01-17 06:05:55.85	53.49	7.97	
2025-01-17 06:05:56.67	53.63	8.00	
2025-01-17 06:05:57.48	53.78	8.03	
2025-01-17 06:05:58.29	53.92	8.05	
2025-01-17 06:05:59.10	54.06	8.08	
2025-01-17 06:05:59.92	54.21	8.10	
2025-01-17 06:06:00.73	54.35	8.13	
2025-01-17 06:06:01.54	54.50	8.15	
2025-01-17 06:06:02.35	54.64	8.18	
2025-01-17 06:06:03.17	54.79	8.20	
2025-01-17 06:06:03.98	54.93	8.22	
2025-01-17 06:06:04.79	55.08	8.25	
2025-01-17 06:06:05.60	55.22	8.27	
2025-01-17 06:06:06.41	55.37	8.30	
2025-01-17 06:06:07.23	55.52	8.32	
2025-01-17 06:06:08.04	55.66	8.35	
2025-01-17 06:06:08.85	55.81	8.37	
2025-01-17 06:06:09.66	55.95	8.39	
2025-01-17 06:06:10.48	56.10	8.42	
2025-01-17 06:06:11.29	56.25	8.44	
2025-01-17 06:06:12.10	56.40	8.46	
2025-01-17 06:06:12.91	56.55	8.49	
2025-01-17 06:06:13.72	56.69	8.51	
2025-01-17 06:06:14.54	56.84	8.53	
2025-01-17 06:06:15.35	56.99	8.55	
2025-01-17 06:06:16.16	57.14	8.58	
2025-01-17 06:06:16.97	57.29	8.60	
2025-01-17 06:06:17.79	57.44	8.62	
2025-01-17 06:06:18.60	57.59	8.64	
2025-01-17 06:06:19.41	57.74	8.67	
2025-01-17 06:06:20.22	57.89	8.69	
2025-01-17 06:06:21.04	58.04	8.71	
2025-01-17 06:06:21.85	58.19	8.73	
2025-01-17 06:06:22.66	58.34	8.75	
2025-01-17 06:06:23.47	58.49	8.77	
2025-01-17 06:06:24.28	58.64	8.80	
2025-01-17 06:06:25.10	58.80	8.82	
2025-01-17 06:06:25.91	58.95	8.84	
2025-01-17 06:06:26.72	59.10	8.86	
2025-01-17 06:06:27.53	59.25	8.88	
2025-01-17 06:06:28.35	59.41	8.90	
2025-01-17 06:06:29.16	59.56	8.92	
2025-01-17 06:06:29.97	59.71	8.94	
2025-01-17 06:06:30.78	59.87	8.96	
2025-01-17 06:06:31.60	60.02	8.98	
2025-01-17 06:06:32.41	60.17	9.00	
2025-01-17 06:06:33.22	60.33	9.02	
2025-01-17 06:06:34.03	60.48	9.04	
2025-01-17 06:06:34.84	60.63	9.06	
2025-01-17 06:06:35.66	60.79	9.08	
2025-01-17 06:06:36.47	60.95	9.10	
2025-01-17 06:06:37.28	61.10	9.11	
2025-01-17 06:06:38.09	61.25	9.13	
2025-01-17 06:06:38.91	61.41	9.15	
2025-01-17 06:06:39.72	61.57	9.17	
2025-01-17 06:06:40.53	61.72	9.19	
2025-01-17 06:06:41.34	61.88	9.21	
2025-01-17 06:06:42.16	62.04	9.22	
2025-01-17 06:06:42.97	62.19	9.24	
2025-01-17 06:06:43.78	62.35	9.26	
2025-01-17 06:06:44.59	62.50	9.28	
2025-01-17 06:06:45.40	62.66	9.29	
2025-01-17 06:06:46.22	62.82	9.31	
2025-01-17 06:06:47.03	62.98	9.33	
2025-01-17 06:06:47.84	63.13	9.34	
2025-01-17 06:06:48.65	63.29	9.36	
2025-01-17 06:06:49.47	63.45	9.38	
2025-01-17 06:06:50.28	63.61	9.39	
2025-01-17 06:06:51.09	63.77	9.41	
2025-01-17 06:06:51.90	63.93	9.42	
2025-01-17 06:06:52.71	64.08	9.44	
2025-01-17 06:06:53.53	64.24	9.46	
2025-01-17 06:06:54.34	64.40	9.47	
2025-01-17 06:06:55.15	64.56	9.49	
2025-01-17 06:06:55.96	64.72	9.50	
2025-01-17 06:06:56.78	64.88	9.52	
2025-01-17 06:06:57.59	65.04	9.53	
2025-01-17 06:06:58.40	65.20	9.55	
2025-01-17 06:06:59.21	65.36	9.56	
2025-01-17 06:07:00.03	65.52	9.57	
2025-01-17 06:07:00.84	65.68	9.59	
2025-01-17 06:07:01.65	65.84	9.60	
2025-01-17 06:07:02.46	66.00	9.61	
2025-01-17 06:07:03.27	66.16	9.63	
2025-01-17 06:07:04.09	66.33	9.64	
2025-01-17 06:07:04.90	66.49	9.65	
2025-01-17 06:07:05.71	66.65	9.67	
2025-01-17 06:07:06.52	66.81	9.68	
2025-01-17 06:07:07.34	66.97	9.69	
2025-01-17 06:07:08.15	67.14	9.70	
2025-01-17 06:07:08.96	67.30	9.72	
2025-01-17 06:07:09.77	67.46	9.73	
2025-01-17 06:07:10.59	67.62	9.74	
2025-01-17 06:07:11.40	67.78	9.75	
2025-01-17 06:07:12.21	67.95	9.76	
2025-01-17 06:07:13.02	68.11	9.77	
2025-01-17 06:07:13.83	68.27	9.79	
2025-01-17 06:07:14.65	68.44	9.80	
2025-01-17 06:07:15.46	68.60	9.81	
2025-01-17 06:07:16.27	68.76	9.82	
2025-01-17 06:07:17.08	68.92	9.83	
2025-01-17 06:07:17.90	69.09	9.84	
2025-01-17 06:07:18.71	69.25	9.85	
2025-01-17 06:07:19.52	69.42	9.86	
2025-01-17 06:07:20.33	69.58	9.87	
2025-01-17 06:07:21.15	69.74	9.88	
2025-01-17 06:07:21.96	69.91	9.88	
2025-01-17 06:07:22.77	70.07	9.89	
2025-01-17 06:07:23.58	70.24	9.90	
2025-01-17 06:07:24.39	70.40	9.91	
2025-01-17 06:07:25.21	70.57	9.92	
2025-01-17 06:07:26.02	70.73	9.93	
2025-01-17 06:07:26.83	70.89	9.94	
2025-01-17 06:07:27.64	71.06	9.94	
2025-01-17 06:07:28.46	71.23	9.95	
2025-01-17 06:07:29.27	71.39	9.96	
2025-01-17 06:07:30.08	71.55	9.97	
2025-01-17 06:07:30.89	71.72	9.97	
2025-01-17 06:07:31.71	71.89	9.98	
2025-01-17 06:07:32.52	72.05	9.99	
2025-01-17 06:07:33.33	72.22	9.99	
2025-01-17 06:07:34.14	72.38	10.00	
2025-01-17 06:07:34.95	72.55	10.00	
2025-01-17 06:07:35.77	72.71	10.01	
2025-01-17 06:07:36.58	72.88	10.02	
2025-01-17 06:07:37.39	73.04	10.02	
2025-01-17 06:07:38.20	73.21	10.03	
2025-01-17 06:07:39.02	73.38	10.03	
2025-01-17 06:07:39.83	73.54	10.04	
2025-01-17 06:07:40.64	73.71	10.04	
2025-01-17 06:07:41.45	73.87	10.04	
2025-01-17 06:07:42.26	74.04	10.05	
2025-01-17 06:07:43.08	74.21	10.05	
2025-01-17 06:07:43.89	74.37	10.06	
2025-01-17 06:07:44.70	74.54	10.06	
2025-01-17 06:07:45.51	74.71	10.06	
2025-01-17 06:07:46.33	74.87	10.07	
2025-01-17 06:07:47.14	75.04	10.07	
2025-01-17 06:07:47.95	75.20	10.07	
2025-01-17 06:07:48.76	75.37	10.08	
2025-01-17 06:07:49.58	75.54	10.08	
2025-01-17 06:07:50.39	75.71	10.08	
2025-01-17 06:07:51.20	75.87	10.08	
2025-01-17 06:07:52.01	76.04	10.08	
2025-01-17 06:07:52.82	76.20	10.08	
2025-01-17 06:07:53.64	76.37	10.09	
2025-01-17 06:07:54.45	76.54	10.09	
2025-01-17 06:07:55.26	76.70	10.09	
2025-01-17 06:07:56.07	76.87	10.09	
2025-01-17 06:07:56.89	77.04	10.09	
2025-01-17 06:07:57.70	77.21	10.09	
2025-01-17 06:07:58.51	77.37	10.09	
2025-01-17 06:07:59.32	77.54	10.09	
2025-01-17 06:08:00.14	77.71	10.09	
2025-01-17 06:08:00.95	77.87	10.09	
2025-01-17 06:08:01.76	78.04	10.09	
2025-01-17 06:08:02.57	78.20	10.09	
2025-01-17 06:08:03.38	78.37	10.09	
2025-01-17 06:08:04.20	78.54	10.09	
2025-01-17 06:08:05.01	78.71	10.08	
2025-01-17 06:08:05.82	78.87	10.08	
2025-01-17 06:08:06.63	79.04	10.08	
2025-01-17 06:08:07.45	79.21	10.08	
2025-01-17 06:08:08.26	79.37	10.08	
2025-01-17 06:08:09.07	79.54	10.07	
2025-01-17 06:08:09.88	79.70	10.07	
2025-01-17 06:08:10.70	79.87	10.07	
2025-01-17 06:08:11.51	80.04	10.06	
2025-01-17 06:08:12.32	80.20	10.06	
2025-01-17 06:08:13.13	80.37	10.06	
2025-01-17 06:08:13.94	80.54	10.05	
2025-01-17 06:08:14.76	80.70	10.05	
2025-01-17 06:08:15.57	80.87	10.05	
2025-01-17 06:08:16.38	81.04	10.04	
2025-01-17 06:08:17.19	81.20	10.04	
2025-01-17 06:08:18.01	81.37	10.03	
2025-01-17 06:08:18.82	81.54	10.03	
2025-01-17 06:08:19.63	81.70	10.02	
2025-01-17 06:08:20.44	81.87	10.02	
2025-01-17 06:08:21.25	82.03	10.01	
2025-01-17 06:08:22.07	82.20	10.01	
2025-01-17 06:08:22.88	82.36	10.00	
2025-01-17 06:08:23.69	82.53	9.99	
2025-01-17 06:08:24.50	82.70	9.99	
2025-01-17 06:08:25.32	82.86	9.98	
2025-01-17 06:08:26.13	83.03	9.97	
2025-01-17 06:08:26.94	83.19	9.97	
2025-01-17 06:08:27.75	83.36	9.96	
2025-01-17 06:08:28.57	83.52	9.95	
2025-01-17 06:08:29.38	83.69	9.95	
2025-01-17 06:08:30.19	83.85	9.94	
2025-01-17 06:08:31.00	84.02	9.93	
2025-01-17 06:08:31.81	84.18	9.92	
2025-01-17 06:08:32.63	84.35	9.91	
2025-01-17 06:08:33.44	84.51	9.91	
2025-01-17 06:08:34.25	84.68	9.90	
2025-01-17 06:08:35.06	84.84	9.89	
2025-01-17 06:08:35.88	85.01	9.88	
2025-01-17 06:08:36.69	85.17	9.87	
2025-01-17 06:08:37.50	85.33	9.86	
2025-01-17 06:08:38.31	85.50	9.85	
2025-01-17 06:08:39.13	85.66	9.84	
2025-01-17 06:08:39.94	85.83	9.83	
2025-01-17 06:08:40.75	85.99	9.82	
2025-01-17 06:08:41.56	86.15	9.81	
2025-01-17 06:08:42.37	86.32	9.80	
2025-01-17 06:08:43.19	86.48	9.79	
2025-01-17 06:08:44.00	86.64	9.78	
2025-01-17 06:08:44.81	86.81	9.77	
2025-01-17 06:08:45.62	86.97	9.76	
2025-01-17 06:08:46.44	87.13	9.74	
2025-01-17 06:08:47.25	87.30	9.73	
2025-01-17 06:08:48.06	87.46	9.72	
2025-01-17 06:08:48.87	87.62	9.71	
2025-01-17 06:08:49.69	87.78	9.70	
2025-01-17 06:08:50.50	87.95	9.68	
2025-01-17 06:08:51.31	88.11	9.67	
2025-01-17 06:08:52.12	88.27	9.66	
2025-01-17 06:08:52.93	88.43	9.64	
2025-01-17 06:08:53.75	88.59	9.63	
2025-01-17 06:08:54.56	88.75	9.62	
2025-01-17 06:08:55.37	88.92	9.60	
2025-01-17 06:08:56.18	89.08	9.59	
2025-01-17 06:08:57.00	89.24	9.58	
2025-01-17 06:08:57.81	89.40	9.56	
2025-01-17 06:08:58.62	89.56	9.55	
2025-01-17 06:08:59.43	89.72	9.53	
2025-01-17 06:09:00.25	89.88	9.52	
2025-01-17 06:09:01.06	90.04	9.50	
2025-01-17 06:09:01.87	90.20	9.49	
2025-01-17 06:09:02.68	90.36	9.47	
2025-01-17 06:09:03.49	90.52	9.46	
2025-01-17 06:09:04.31	90.68	9.44	
2025-01-17 06:09:05.12	90.84	9.43	
2025-01-17 06:09:05.93	91.00	9.41	
2025-01-17 06:09:06.74	91.16	9.40	
2025-01-17 06:09:07.56	91.32	9.38	
2025-01-17 06:09:08.37	91.47	9.36	
2025-01-17 06:09:09.18	91.63	9.35	
2025-01-17 06:09:09.99	91.79	9.33	
2025-01-17 06:09:10.80	91.95	9.31	
2025-01-17 06:09:11.62	92.11	9.30	
2025-01-17 06:09:12.43	92.26	9.28	
2025-01-17 06:09:13.24	92.42	9.26	
2025-01-17 06:09:14.05	92.58	9.24	
2025-01-17 06:09:14.87	92.74	9.23	
2025-01-17 06:09:15.68	92.89	9.21	
2025-01-17 06:09:16.49	93.05	9.19	
2025-01-17 06:09:17.30	93.20	9.17	
2025-01-17 06:09:18.12	93.36	9.15	
2025-01-17 06:09:18.93	93.52	9.14	
2025-01-17 06:09:19.74	93.67	9.12	
2025-01-17 06:09:20.55	93.83	9.10	
2025-01-17 06:09:21.36	93.98	9.08	
2025-01-17 06:09:22.18	94.14	9.06	
2025-01-17 06:09:22.99	94.29	9.04	
2025-01-17 06:09:23.80	94.45	9.02	
2025-01-17 06:09:24.61	94.60	9.00	
2025-01-17 06:09:25.43	94.76	8.98	
2025-01-17 06:09:26.24	94.91	8.96	
2025-01-17 06:09:27.05	95.07	8.94	
2025-01-17 06:09:27.86	95.22	8.92	
2025-01-17 06:09:28.68	95.37	8.90	
2025-01-17 06:09:29.49	95.53	8.88	
2025-01-17 06:09:30.30	95.68	8.86	
2025-01-17 06:09:31.11	95.83	8.84	
2025-01-17 06:09:31.92	95.98	8.82	
2025-01-17 06:09:32.74	96.14	8.80	
2025-01-17 06:09:33.55	96.29	8.78	
2025-01-17 06:09:34.36	96.44	8.75	
2025-01-17 06:09:35.17	96.59	8.73	
2025-01-17 06:09:35.99	96.75	8.71	
2025-01-17 06:09:36.80	96.90	8.69	
2025-01-17 06:09:37.61	97.05	8.67	
2025-01-17 06:09:38.42	97.20	8.65	
2025-01-17 06:09:39.24	97.35	8.62	
2025-01-17 06:09:40.05	97.50	8.60	
2025-01-17 06:09:40.86	97.65	8.58	
2025-01-17 06:09:41.67	97.80	8.56	
2025-01-17 06:09:42.48	97.95	8.53	
2025-01-17 06:09:43.30	98.10	8.51	
2025-01-17 06:09:44.11	98.25	8.49	
2025-01-17 06:09:44.92	98.39	8.46	
2025-01-17 06:09:45.73	98.54	8.44	
2025-01-17 06:09:46.55	98.69	8.42	
2025-01-17 06:09:47.36	98.84	8.39	
2025-01-17 06:09:48.17	98.99	8.37	
2025-01-17 06:09:48.98	99.13	8.35	
2025-01-17 06:09:49.79	99.28	8.32	
2025-01-17 06:09:50.61	99.43	8.30	
2025-01-17 06:09:51.42	99.58	8.27	
2025-01-17 06:09:52.23	99.72	8.25	
2025-01-17 06:09:53.04	99.87	8.22	
2025-01-17 06:09:53.86	100.01	8.20	
2025-01-17 06:09:54.67	100.16	8.17	
2025-01-17 06:09:55.48	100.30	8.15	
2025-01-17 06:09:56.29	100.45	8.12	
2025-01-17 06:09:57.11	100.60	8.10	
2025-01-17 06:09:57.92	100.74	8.07	
2025-01-17 06:09:58.73	100.88	8.05	
2025-01-17 06:09:59.54	101.03	8.02	
2025-01-17 06:10:00.35	101.17	8.00	
2025-01-17 06:10:01.17	101.32	7.97	
2025-01-17 06:10:01.98	101.46	7.95	
2025-01-17 06:10:02.79	101.60	7.92	
2025-01-17 06:10:03.60	101.74	7.89	
2025-01-17 06:10:04.42	101.89	7.87	
2025-01-17 06:10:05.23	102.03	7.84	
2025-01-17 06:10:06.04	102.17	7.82	
2025-01-17 06:10:06.85	102.31	7.79	
2025-01-17 06:10:07.67	102.46	7.76	
2025-01-17 06:10:08.48	102.60	7.74	
2025-01-17 06:10:09.29	102.74	7.71	
2025-01-17 06:10:10.10	102.88	7.68	
2025-01-17 06:10:10.91	103.02	7.65	
2025-01-17 06:10:11.73	103.16	7.63	
2025-01-17 06:10:12.54	103.30	7.60	
2025-01-17 06:10:13.35	103.44	7.57	
2025-01-17 06:10:14.16	103.58	7.54	
2025-01-17 06:10:14.98	103.72	7.52	
2025-01-17 06:10:15.79	103.85	7.49	
2025-01-17 06:10:16.60	103.99	7.46	
2025-01-17 06:10:17.41	104.13	7.43	
2025-01-17 06:10:18.23	104.27	7.41	
2025-01-17 06:10:19.04	104.41	7.38	
2025-01-17 06:10:19.85	104.54	7.35	
2025-01-17 06:10:20.66	104.68	7.32	
2025-01-17 06:10:21.47	104.82	7.29	
2025-01-17 06:10:22.29	104.95	7.26	
2025-01-17 06:10:23.10	105.09	7.24	
2025-01-17 06:10:23.91	105.23	7.21	
2025-01-17 06:10:24.72	105.36	7.18	
2025-01-17 06:10:25.54	105.50	7.15	
2025-01-17 06:10:26.35	105.63	7.12	
2025-01-17 06:10:27.16	105.77	7.09	
2025-01-17 06:10:27.97	105.90	7.06	
2025-01-17 06:10:28.79	106.04	7.03	
2025-01-17 06:10:29.60	106.17	7.00	
2025-01-17 06:10:30.41	106.30	6.97	
2025-01-17 06:10:31.22	106.44	6.94	
2025-01-17 06:10:32.03	106.57	6.91	
2025-01-17 06:10:32.85	106.70	6.88	
2025-01-17 06:10:33.66	106.84	6.86	
2025-01-17 06:10:34.47	106.97	6.83	
2025-01-17 06:10:35.28	107.10	6.80	
2025-01-17 06:10:36.10	107.23	6.77	
2025-01-17 06:10:36.91	107.36	6.74	
2025-01-17 06:10:37.72	107.49	6.71	
2025-01-17 06:10:38.53	107.62	6.67	
2025-01-17 06:10:39.34	107.75	6.64	
2025-01-17 06:10:40.16	107.89	6.61	
2025-01-17 06:10:40.97	108.02	6.58	
2025-01-17 06:10:41.78	108.14	6.55	
2025-01-17 06:10:42.59	108.27	6.52	
2025-01-17 06:10:43.41	108.40	6.49	
2025-01-17 06:10:44.22	108.53	6.46	
2025-01-17 06:10:45.03	108.66	6.43	
2025-01-17 06:10:45.84	108.79	6.40	
2025-01-17 06:10:46.66	108.92	6.37	
2025-01-17 06:10:47.47	109.05	6.34	
2025-01-17 06:10:48.28	109.17	6.31	
2025-01-17 06:10:49.09	109.30	6.27	
2025-01-17 06:10:49.90	109.43	6.24	
2025-01-17 06:10:50.72	109.55	6.21	
2025-01-17 06:10:51.53	109.68	6.18	
2025-01-17 06:10:52.34	109.80	6.15	
2025-01-17 06:10:53.15	109.93	6.12	
2025-01-17 06:10:53.97	110.06	6.09	
2025-01-17 06:10:54.78	110.18	6.05	
2025-01-17 06:10:55.59	110.31	6.02	
2025-01-17 06:10:56.40	110.43	5.99	
2025-01-17 06:10:57.22	110.56	5.96	
2025-01-17 06:10:58.03	110.68	5.93	
2025-01-17 06:10:58.84	110.80	5.89	
2025-01-17 06:10:59.65	110.93	5.86	
2025-01-17 06:11:00.46	111.05	5.83	
2025-01-17 06:11:01.28	111.17	5.80	
2025-01-17 06:11:02.09	111.29	5.77	
2025-01-17 06:11:02.90	111.42	5.73	
2025-01-17 06:11:03.71	111.54	5.70	
2025-01-17 06:11:04.53	111.66	5.67	
2025-01-17 06:11:05.34	111.78	5.64	
2025-01-17 06:11:06.17	111.91	5.60	
2025-01-17 06:11:06.98	112.03	5.57	
2025-01-17 06:11:07.79	112.15	5.54	
2025-01-17 06:11:08.60	112.27	5.50	
2025-01-17 06:11:09.42	112.39	5.47	
2025-01-17 06:11:10.23	112.51	5.44	
2025-01-17 06:11:11.04	112.63	5.41	
2025-01-17 06:11:11.85	112.74	5.37	
2025-01-17 06:11:12.66	112.86	5.34	
2025-01-17 06:11:13.48	112.98	5.31	
2025-01-17 06:11:14.29	113.10	5.27	
2025-01-17 06:11:15.10	113.22	5.24	
2025-01-17 06:11:15.91	113.34	5.21	
2025-01-17 06:11:16.73	113.45	5.17	
2025-01-17 06:11:17.54	113.57	5.14	
2025-01-17 06:11:18.35	113.69	5.11	
2025-01-17 06:11:19.16	113.80	5.07	
2025-01-17 06:11:19.98	113.92	5.04	
2025-01-17 06:11:20.79	114.04	5.01	
2025-01-17 06:11:21.60	114.15	4.97	
2025-01-17 06:11:22.41	114.27	4.94	
2025-01-17 06:11:23.22	114.38	4.91	
2025-01-17 06:11:24.04	114.50	4.87	
2025-01-17 06:11:24.85	114.61	4.84	
2025-01-17 06:11:25.66	114.73	4.81	
2025-01-17 06:11:26.47	114.84	4.77	
2025-01-17 06:11:27.29	114.96	4.74	
2025-01-17 06:11:28.10	115.07	4.70	
2025-01-17 06:11:28.91	115.18	4.67	
2025-01-17 06:11:29.72	115.29	4.64	
2025-01-17 06:11:30.53	115.41	4.60	
2025-01-17 06:11:31.35	115.52	4.57	
2025-01-17 06:11:32.16	115.63	4.53	
2025-01-17 06:11:32.97	115.74	4.50	
2025-01-17 06:11:33.78	115.85	4.47	
2025-01-17 06:11:34.60	115.97	4.43	
2025-01-17 06:11:35.41	116.08	4.40	
2025-01-17 06:11:36.22	116.19	4.36	
2025-01-17 06:11:37.03	116.30	4.33	
2025-01-17 06:11:37.85	116.41	4.29	
2025-01-17 06:11:38.66	116.52	4.26	
2025-01-17 06:11:39.47	116.63	4.23	
2025-01-17 06:11:40.28	116.74	4.19	
2025-01-17 06:11:41.09	116.85	4.16	
2025-01-17 06:11:41.91	116.96	4.12	
2025-01-17 06:11:42.72	117.07	4.09	
2025-01-17 06:11:43.53	117.17	4.05	
2025-01-17 06:11:44.34	117.28	4.02	

#Closed at: 2025-01-17 06:11:44