passes_logs/2025/01/17/SPB_Silybum_02/SPB_Silybum_02__20250117_013738_AQUA_rec.log

#Pass ID: 20250117_013738_AQUA
#Satellite: AQUA
#Configuration: AQUA
#Start time: 2025-01-17 01:37:37

#Version: 2.0.20230423
#Station: SPB_Silybum_02
#Location: 30.233357 lon 59.946436 lat
#TLE: 1 27424U 02022A   25016.17003800  .00001737  00000+0  36656-3 0  9994
#TLE: 2 27424  98.3591 332.8445 0001762 110.2278 308.2748 14.60686749207790

#Time	Az	El	Level	Level2	SNR	BER	Gain	Gain2
2025-01-17 01:37:40.02	15.84	4.14	
2025-01-17 01:37:41.24	15.83	4.22	
2025-01-17 01:37:42.45	15.81	4.31	
2025-01-17 01:37:43.67	15.80	4.40	
2025-01-17 01:37:44.89	15.78	4.49	
2025-01-17 01:37:46.11	15.77	4.58	
2025-01-17 01:37:47.33	15.75	4.66	
2025-01-17 01:37:48.54	15.73	4.75	
2025-01-17 01:37:49.76	15.72	4.84	
2025-01-17 01:37:50.98	15.70	4.93	
2025-01-17 01:37:52.20	15.69	5.02	
2025-01-17 01:37:53.42	15.67	5.11	
2025-01-17 01:37:54.63	15.65	5.21	
2025-01-17 01:37:55.85	15.64	5.30	
2025-01-17 01:37:57.07	15.62	5.39	
2025-01-17 01:37:58.29	15.60	5.48	
2025-01-17 01:37:59.50	15.59	5.57	
2025-01-17 01:38:00.72	15.57	5.67	
2025-01-17 01:38:01.94	15.55	5.76	
2025-01-17 01:38:03.16	15.53	5.85	
2025-01-17 01:38:04.38	15.52	5.95	
2025-01-17 01:38:05.59	15.50	6.04	
2025-01-17 01:38:06.81	15.48	6.13	
2025-01-17 01:38:08.03	15.46	6.23	
2025-01-17 01:38:09.25	15.44	6.33	
2025-01-17 01:38:10.46	15.42	6.42	
2025-01-17 01:38:11.68	15.41	6.52	
2025-01-17 01:38:12.90	15.39	6.61	
2025-01-17 01:38:14.12	15.37	6.71	
2025-01-17 01:38:15.34	15.35	6.81	
2025-01-17 01:38:16.55	15.33	6.91	
2025-01-17 01:38:17.77	15.31	7.00	
2025-01-17 01:38:18.99	15.29	7.10	
2025-01-17 01:38:20.21	15.27	7.20	
2025-01-17 01:38:21.42	15.25	7.30	
2025-01-17 01:38:22.64	15.23	7.40	
2025-01-17 01:38:23.86	15.21	7.50	
2025-01-17 01:38:25.08	15.19	7.60	
2025-01-17 01:38:26.30	15.17	7.70	
2025-01-17 01:38:27.51	15.14	7.80	
2025-01-17 01:38:28.73	15.12	7.91	
2025-01-17 01:38:29.95	15.10	8.01	
2025-01-17 01:38:31.17	15.08	8.11	
2025-01-17 01:38:32.38	15.06	8.22	
2025-01-17 01:38:33.60	15.04	8.32	
2025-01-17 01:38:34.82	15.01	8.42	
2025-01-17 01:38:36.04	14.99	8.53	
2025-01-17 01:38:37.26	14.97	8.63	
2025-01-17 01:38:38.47	14.94	8.74	
2025-01-17 01:38:39.69	14.92	8.85	
2025-01-17 01:38:40.91	14.90	8.95	
2025-01-17 01:38:42.13	14.87	9.06	
2025-01-17 01:38:43.35	14.85	9.17	
2025-01-17 01:38:44.56	14.83	9.28	
2025-01-17 01:38:45.78	14.80	9.39	
2025-01-17 01:38:47.00	14.78	9.50	
2025-01-17 01:38:48.22	14.75	9.61	
2025-01-17 01:38:49.43	14.73	9.72	
2025-01-17 01:38:50.65	14.70	9.83	
2025-01-17 01:38:51.87	14.68	9.94	
2025-01-17 01:38:53.09	14.65	10.05	
2025-01-17 01:38:54.31	14.62	10.16	
2025-01-17 01:38:55.52	14.60	10.28	
2025-01-17 01:38:56.74	14.57	10.39	
2025-01-17 01:38:57.96	14.54	10.50	
2025-01-17 01:38:59.18	14.52	10.62	
2025-01-17 01:39:00.39	14.49	10.73	
2025-01-17 01:39:01.61	14.46	10.85	
2025-01-17 01:39:02.83	14.43	10.97	
2025-01-17 01:39:04.05	14.40	11.09	
2025-01-17 01:39:05.27	14.38	11.20	
2025-01-17 01:39:06.48	14.35	11.32	
2025-01-17 01:39:07.70	14.32	11.44	
2025-01-17 01:39:08.92	14.29	11.56	
2025-01-17 01:39:10.14	14.26	11.68	
2025-01-17 01:39:11.35	14.23	11.80	
2025-01-17 01:39:12.57	14.20	11.92	
2025-01-17 01:39:13.79	14.17	12.05	
2025-01-17 01:39:15.01	14.14	12.17	
2025-01-17 01:39:16.23	14.10	12.30	
2025-01-17 01:39:17.44	14.07	12.42	
2025-01-17 01:39:18.66	14.04	12.54	
2025-01-17 01:39:19.88	14.01	12.67	
2025-01-17 01:39:21.10	13.98	12.80	
2025-01-17 01:39:22.31	13.94	12.92	
2025-01-17 01:39:23.53	13.91	13.05	
2025-01-17 01:39:24.75	13.88	13.18	
2025-01-17 01:39:25.97	13.84	13.31	
2025-01-17 01:39:27.19	13.81	13.44	
2025-01-17 01:39:28.40	13.77	13.57	
2025-01-17 01:39:29.62	13.74	13.71	
2025-01-17 01:39:30.84	13.70	13.84	
2025-01-17 01:39:32.06	13.66	13.97	
2025-01-17 01:39:33.27	13.63	14.11	
2025-01-17 01:39:34.49	13.59	14.24	
2025-01-17 01:39:35.71	13.55	14.38	
2025-01-17 01:39:36.93	13.52	14.51	
2025-01-17 01:39:38.15	13.48	14.65	
2025-01-17 01:39:39.36	13.44	14.79	
2025-01-17 01:39:40.58	13.40	14.93	
2025-01-17 01:39:41.80	13.36	15.07	
2025-01-17 01:39:43.02	13.32	15.21	
2025-01-17 01:39:44.24	13.28	15.35	
2025-01-17 01:39:45.45	13.24	15.50	
2025-01-17 01:39:46.67	13.20	15.64	
2025-01-17 01:39:47.89	13.16	15.79	
2025-01-17 01:39:49.11	13.11	15.93	
2025-01-17 01:39:50.32	13.07	16.08	
2025-01-17 01:39:51.54	13.03	16.22	
2025-01-17 01:39:52.76	12.98	16.37	
2025-01-17 01:39:53.98	12.94	16.52	
2025-01-17 01:39:55.20	12.90	16.67	
2025-01-17 01:39:56.41	12.85	16.83	
2025-01-17 01:39:57.63	12.80	16.98	
2025-01-17 01:39:58.85	12.76	17.13	
2025-01-17 01:40:00.07	12.71	17.29	
2025-01-17 01:40:01.28	12.66	17.44	
2025-01-17 01:40:02.50	12.62	17.60	
2025-01-17 01:40:03.72	12.57	17.76	
2025-01-17 01:40:04.94	12.52	17.92	
2025-01-17 01:40:06.16	12.47	18.08	
2025-01-17 01:40:07.37	12.42	18.24	
2025-01-17 01:40:08.59	12.37	18.40	
2025-01-17 01:40:09.81	12.31	18.56	
2025-01-17 01:40:11.03	12.26	18.73	
2025-01-17 01:40:12.24	12.21	18.89	
2025-01-17 01:40:13.46	12.16	19.06	
2025-01-17 01:40:14.68	12.10	19.23	
2025-01-17 01:40:15.90	12.05	19.40	
2025-01-17 01:40:17.12	11.99	19.57	
2025-01-17 01:40:18.33	11.93	19.74	
2025-01-17 01:40:19.55	11.88	19.92	
2025-01-17 01:40:20.77	11.82	20.09	
2025-01-17 01:40:21.99	11.76	20.27	
2025-01-17 01:40:23.20	11.70	20.44	
2025-01-17 01:40:24.42	11.64	20.62	
2025-01-17 01:40:25.64	11.58	20.80	
2025-01-17 01:40:26.86	11.52	20.99	
2025-01-17 01:40:28.08	11.45	21.17	
2025-01-17 01:40:29.29	11.39	21.35	
2025-01-17 01:40:30.51	11.33	21.54	
2025-01-17 01:40:31.73	11.26	21.73	
2025-01-17 01:40:32.95	11.19	21.91	
2025-01-17 01:40:34.16	11.13	22.10	
2025-01-17 01:40:35.38	11.06	22.30	
2025-01-17 01:40:36.60	10.99	22.49	
2025-01-17 01:40:37.82	10.92	22.68	
2025-01-17 01:40:39.04	10.85	22.88	
2025-01-17 01:40:40.25	10.78	23.08	
2025-01-17 01:40:41.47	10.70	23.28	
2025-01-17 01:40:42.69	10.63	23.48	
2025-01-17 01:40:43.91	10.55	23.68	
2025-01-17 01:40:45.13	10.48	23.89	
2025-01-17 01:40:46.34	10.40	24.09	
2025-01-17 01:40:47.56	10.32	24.30	
2025-01-17 01:40:48.78	10.24	24.51	
2025-01-17 01:40:50.00	10.16	24.72	
2025-01-17 01:40:51.21	10.08	24.93	
2025-01-17 01:40:52.43	10.00	25.15	
2025-01-17 01:40:53.65	9.91	25.37	
2025-01-17 01:40:54.87	9.83	25.59	
2025-01-17 01:40:56.09	9.74	25.81	
2025-01-17 01:40:57.30	9.65	26.03	
2025-01-17 01:40:58.52	9.56	26.25	
2025-01-17 01:40:59.74	9.47	26.48	
2025-01-17 01:41:00.96	9.38	26.71	
2025-01-17 01:41:02.17	9.28	26.94	
2025-01-17 01:41:03.39	9.19	27.17	
2025-01-17 01:41:04.61	9.09	27.41	
2025-01-17 01:41:05.83	8.99	27.64	
2025-01-17 01:41:07.05	8.89	27.88	
2025-01-17 01:41:08.26	8.79	28.12	
2025-01-17 01:41:09.48	8.68	28.37	
2025-01-17 01:41:10.70	8.58	28.61	
2025-01-17 01:41:11.92	8.47	28.86	
2025-01-17 01:41:13.13	8.36	29.11	
2025-01-17 01:41:14.35	8.25	29.36	
2025-01-17 01:41:15.57	8.14	29.62	
2025-01-17 01:41:16.79	8.02	29.87	
2025-01-17 01:41:18.01	7.91	30.13	
2025-01-17 01:41:19.22	7.79	30.39	
2025-01-17 01:41:20.44	7.67	30.66	
2025-01-17 01:41:21.66	7.55	30.93	
2025-01-17 01:41:22.88	7.42	31.19	
2025-01-17 01:41:24.09	7.29	31.46	
2025-01-17 01:41:25.31	7.16	31.74	
2025-01-17 01:41:26.53	7.03	32.02	
2025-01-17 01:41:27.75	6.90	32.30	
2025-01-17 01:41:28.97	6.76	32.58	
2025-01-17 01:41:30.18	6.62	32.86	
2025-01-17 01:41:31.40	6.48	33.15	
2025-01-17 01:41:32.62	6.33	33.44	
2025-01-17 01:41:33.84	6.19	33.73	
2025-01-17 01:41:35.05	6.04	34.03	
2025-01-17 01:41:36.27	5.88	34.32	
2025-01-17 01:41:37.49	5.73	34.63	
2025-01-17 01:41:38.71	5.57	34.93	
2025-01-17 01:41:39.93	5.40	35.24	
2025-01-17 01:41:41.14	5.24	35.55	
2025-01-17 01:41:42.36	5.07	35.86	
2025-01-17 01:41:43.58	4.90	36.18	
2025-01-17 01:41:44.80	4.72	36.49	
2025-01-17 01:41:46.02	4.54	36.82	
2025-01-17 01:41:47.23	4.36	37.14	
2025-01-17 01:41:48.45	4.17	37.47	
2025-01-17 01:41:49.67	3.98	37.80	
2025-01-17 01:41:50.89	3.78	38.13	
2025-01-17 01:41:52.10	3.58	38.47	
2025-01-17 01:41:53.32	3.38	38.81	
2025-01-17 01:41:54.54	3.17	39.15	
2025-01-17 01:41:55.76	2.95	39.50	
2025-01-17 01:41:56.98	2.74	39.85	
2025-01-17 01:41:58.19	2.51	40.20	
2025-01-17 01:41:59.41	2.28	40.56	
2025-01-17 01:42:00.63	2.05	40.92	
2025-01-17 01:42:01.85	1.81	41.29	
2025-01-17 01:42:03.06	1.57	41.65	
2025-01-17 01:42:04.28	1.32	42.02	
2025-01-17 01:42:05.50	1.06	42.39	
2025-01-17 01:42:06.72	0.80	42.77	
2025-01-17 01:42:07.94	0.53	43.15	
2025-01-17 01:42:09.15	0.25	43.53	
2025-01-17 01:42:10.37	359.97	43.92	
2025-01-17 01:42:11.59	359.68	44.31	
2025-01-17 01:42:12.81	359.38	44.70	
2025-01-17 01:42:14.02	359.07	45.10	
2025-01-17 01:42:15.24	358.76	45.50	
2025-01-17 01:42:16.46	358.44	45.90	
2025-01-17 01:42:17.68	358.11	46.30	
2025-01-17 01:42:18.90	357.77	46.71	
2025-01-17 01:42:20.11	357.42	47.12	
2025-01-17 01:42:21.33	357.06	47.54	
2025-01-17 01:42:22.55	356.69	47.96	
2025-01-17 01:42:23.77	356.32	48.38	
2025-01-17 01:42:24.98	355.93	48.80	
2025-01-17 01:42:26.20	355.53	49.23	
2025-01-17 01:42:27.42	355.12	49.66	
2025-01-17 01:42:28.64	354.69	50.09	
2025-01-17 01:42:29.86	354.25	50.53	
2025-01-17 01:42:31.07	353.81	50.96	
2025-01-17 01:42:32.29	353.34	51.40	
2025-01-17 01:42:33.51	352.87	51.84	
2025-01-17 01:42:34.73	352.37	52.29	
2025-01-17 01:42:35.95	351.86	52.74	
2025-01-17 01:42:37.16	351.34	53.18	
2025-01-17 01:42:38.38	350.80	53.63	
2025-01-17 01:42:39.60	350.25	54.08	
2025-01-17 01:42:40.82	349.67	54.54	
2025-01-17 01:42:42.03	349.08	54.99	
2025-01-17 01:42:43.25	348.47	55.44	
2025-01-17 01:42:44.47	347.83	55.90	
2025-01-17 01:42:45.69	347.17	56.35	
2025-01-17 01:42:46.91	346.50	56.81	
2025-01-17 01:42:48.12	345.80	57.26	
2025-01-17 01:42:49.34	345.07	57.72	
2025-01-17 01:42:50.56	344.32	58.17	
2025-01-17 01:42:51.78	343.55	58.63	
2025-01-17 01:42:52.99	342.75	59.08	
2025-01-17 01:42:54.21	341.91	59.53	
2025-01-17 01:42:55.43	341.05	59.97	
2025-01-17 01:42:56.65	340.16	60.42	
2025-01-17 01:42:57.87	339.23	60.86	
2025-01-17 01:42:59.08	338.28	61.30	
2025-01-17 01:43:00.30	337.29	61.73	
2025-01-17 01:43:01.52	336.26	62.16	
2025-01-17 01:43:02.74	335.20	62.59	
2025-01-17 01:43:03.95	334.10	63.00	
2025-01-17 01:43:05.17	332.96	63.41	
2025-01-17 01:43:06.39	331.77	63.82	
2025-01-17 01:43:07.61	330.55	64.21	
2025-01-17 01:43:08.83	329.28	64.60	
2025-01-17 01:43:10.04	327.98	64.98	
2025-01-17 01:43:11.26	326.62	65.34	
2025-01-17 01:43:12.48	325.22	65.70	
2025-01-17 01:43:13.70	323.78	66.04	
2025-01-17 01:43:14.91	322.30	66.37	
2025-01-17 01:43:16.13	320.76	66.69	
2025-01-17 01:43:17.35	319.17	67.00	
2025-01-17 01:43:18.57	317.54	67.28	
2025-01-17 01:43:19.79	315.87	67.56	
2025-01-17 01:43:21.00	314.16	67.81	
2025-01-17 01:43:22.22	312.40	68.04	
2025-01-17 01:43:23.44	310.60	68.26	
2025-01-17 01:43:24.66	308.76	68.46	
2025-01-17 01:43:25.87	306.90	68.64	
2025-01-17 01:43:27.09	305.00	68.79	
2025-01-17 01:43:28.31	303.06	68.93	
2025-01-17 01:43:29.53	301.10	69.04	
2025-01-17 01:43:30.75	299.13	69.13	
2025-01-17 01:43:31.96	297.15	69.19	
2025-01-17 01:43:33.18	295.14	69.24	
2025-01-17 01:43:34.40	293.13	69.26	
2025-01-17 01:43:35.62	291.11	69.25	
2025-01-17 01:43:36.84	289.10	69.22	
2025-01-17 01:43:38.05	287.11	69.17	
2025-01-17 01:43:39.27	285.12	69.09	
2025-01-17 01:43:40.49	283.15	68.99	
2025-01-17 01:43:41.71	281.20	68.87	
2025-01-17 01:43:42.92	279.29	68.73	
2025-01-17 01:43:44.14	277.40	68.56	
2025-01-17 01:43:45.36	275.54	68.38	
2025-01-17 01:43:46.58	273.71	68.17	
2025-01-17 01:43:47.80	271.93	67.94	
2025-01-17 01:43:49.01	270.20	67.70	
2025-01-17 01:43:50.23	268.50	67.44	
2025-01-17 01:43:51.45	266.84	67.16	
2025-01-17 01:43:52.67	265.23	66.86	
2025-01-17 01:43:53.88	263.67	66.56	
2025-01-17 01:43:55.10	262.15	66.23	
2025-01-17 01:43:56.32	260.68	65.89	
2025-01-17 01:43:57.54	259.25	65.54	
2025-01-17 01:43:58.76	257.87	65.18	
2025-01-17 01:43:59.97	256.54	64.81	
2025-01-17 01:44:01.19	255.25	64.43	
2025-01-17 01:44:02.41	254.00	64.03	
2025-01-17 01:44:03.63	252.79	63.63	
2025-01-17 01:44:04.84	251.63	63.23	
2025-01-17 01:44:06.06	250.50	62.81	
2025-01-17 01:44:07.28	249.41	62.39	
2025-01-17 01:44:08.50	248.36	61.96	
2025-01-17 01:44:09.72	247.35	61.53	
2025-01-17 01:44:10.93	246.38	61.10	
2025-01-17 01:44:12.15	245.43	60.66	
2025-01-17 01:44:13.37	244.52	60.21	
2025-01-17 01:44:14.59	243.64	59.76	
2025-01-17 01:44:15.80	242.79	59.32	
2025-01-17 01:44:17.02	241.97	58.86	
2025-01-17 01:44:18.24	241.18	58.41	
2025-01-17 01:44:19.46	240.41	57.95	
2025-01-17 01:44:20.68	239.67	57.50	
2025-01-17 01:44:21.89	238.96	57.04	
2025-01-17 01:44:23.11	238.27	56.58	
2025-01-17 01:44:24.33	237.60	56.13	
2025-01-17 01:44:25.55	236.95	55.67	
2025-01-17 01:44:26.76	236.33	55.22	
2025-01-17 01:44:27.98	235.72	54.76	
2025-01-17 01:44:29.20	235.13	54.30	
2025-01-17 01:44:30.42	234.57	53.85	
2025-01-17 01:44:31.64	234.01	53.40	
2025-01-17 01:44:32.85	233.48	52.95	
2025-01-17 01:44:34.07	232.97	52.50	
2025-01-17 01:44:35.29	232.46	52.05	
2025-01-17 01:44:36.51	231.98	51.61	
2025-01-17 01:44:37.73	231.51	51.16	
2025-01-17 01:44:38.94	231.05	50.73	
2025-01-17 01:44:40.16	230.61	50.29	
2025-01-17 01:44:41.38	230.17	49.85	
2025-01-17 01:44:42.60	229.75	49.42	
2025-01-17 01:44:43.81	229.35	48.99	
2025-01-17 01:44:45.03	228.95	48.57	
2025-01-17 01:44:46.25	228.57	48.14	
2025-01-17 01:44:47.47	228.19	47.72	
2025-01-17 01:44:48.69	227.83	47.30	
2025-01-17 01:44:49.90	227.47	46.89	
2025-01-17 01:44:51.12	227.13	46.47	
2025-01-17 01:44:52.34	226.79	46.06	
2025-01-17 01:44:53.56	226.46	45.66	
2025-01-17 01:44:54.77	226.15	45.26	
2025-01-17 01:44:55.99	225.84	44.86	
2025-01-17 01:44:57.21	225.53	44.46	
2025-01-17 01:44:58.43	225.24	44.07	
2025-01-17 01:44:59.65	224.95	43.68	
2025-01-17 01:45:00.86	224.67	43.29	
2025-01-17 01:45:02.08	224.40	42.91	
2025-01-17 01:45:03.30	224.13	42.53	
2025-01-17 01:45:04.52	223.87	42.15	
2025-01-17 01:45:05.73	223.61	41.78	
2025-01-17 01:45:06.95	223.37	41.41	
2025-01-17 01:45:08.17	223.12	41.05	
2025-01-17 01:45:09.39	222.88	40.68	
2025-01-17 01:45:10.61	222.65	40.32	
2025-01-17 01:45:11.82	222.43	39.97	
2025-01-17 01:45:13.04	222.20	39.61	
2025-01-17 01:45:14.26	221.99	39.26	
2025-01-17 01:45:15.48	221.77	38.92	
2025-01-17 01:45:16.69	221.57	38.57	
2025-01-17 01:45:17.91	221.37	38.23	
2025-01-17 01:45:19.13	221.17	37.90	
2025-01-17 01:45:20.35	220.97	37.56	
2025-01-17 01:45:21.57	220.78	37.23	
2025-01-17 01:45:22.78	220.60	36.90	
2025-01-17 01:45:24.00	220.41	36.58	
2025-01-17 01:45:25.22	220.23	36.26	
2025-01-17 01:45:26.44	220.06	35.94	
2025-01-17 01:45:27.65	219.89	35.62	
2025-01-17 01:45:28.87	219.72	35.31	
2025-01-17 01:45:30.09	219.55	35.00	
2025-01-17 01:45:31.31	219.39	34.69	
2025-01-17 01:45:32.53	219.23	34.39	
2025-01-17 01:45:33.74	219.08	34.09	
2025-01-17 01:45:34.96	218.93	33.79	
2025-01-17 01:45:36.18	218.78	33.50	
2025-01-17 01:45:37.40	218.63	33.20	
2025-01-17 01:45:38.62	218.48	32.91	
2025-01-17 01:45:39.83	218.34	32.63	
2025-01-17 01:45:41.05	218.20	32.34	
2025-01-17 01:45:42.27	218.07	32.06	
2025-01-17 01:45:43.49	217.93	31.78	
2025-01-17 01:45:44.70	217.80	31.51	
2025-01-17 01:45:45.92	217.67	31.23	
2025-01-17 01:45:47.14	217.55	30.96	
2025-01-17 01:45:48.36	217.42	30.69	
2025-01-17 01:45:49.58	217.30	30.42	
2025-01-17 01:45:50.79	217.18	30.16	
2025-01-17 01:45:52.01	217.06	29.90	
2025-01-17 01:45:53.23	216.94	29.64	
2025-01-17 01:45:54.45	216.83	29.38	
2025-01-17 01:45:55.66	216.72	29.13	
2025-01-17 01:45:56.88	216.61	28.88	
2025-01-17 01:45:58.10	216.50	28.63	
2025-01-17 01:45:59.32	216.39	28.38	
2025-01-17 01:46:00.54	216.29	28.14	
2025-01-17 01:46:01.75	216.18	27.89	
2025-01-17 01:46:02.97	216.08	27.65	
2025-01-17 01:46:04.19	215.98	27.41	
2025-01-17 01:46:05.41	215.88	27.18	
2025-01-17 01:46:06.62	215.78	26.94	
2025-01-17 01:46:07.84	215.69	26.71	
2025-01-17 01:46:09.06	215.59	26.48	
2025-01-17 01:46:10.28	215.50	26.25	
2025-01-17 01:46:11.51	215.41	26.02	
2025-01-17 01:46:12.73	215.32	25.80	
2025-01-17 01:46:13.95	215.23	25.57	
2025-01-17 01:46:15.16	215.14	25.36	
2025-01-17 01:46:16.38	215.06	25.14	
2025-01-17 01:46:17.60	214.97	24.92	
2025-01-17 01:46:18.82	214.89	24.70	
2025-01-17 01:46:20.04	214.81	24.49	
2025-01-17 01:46:21.25	214.73	24.28	
2025-01-17 01:46:22.47	214.65	24.07	
2025-01-17 01:46:23.69	214.57	23.86	
2025-01-17 01:46:24.91	214.49	23.66	
2025-01-17 01:46:26.13	214.42	23.45	
2025-01-17 01:46:27.34	214.34	23.25	
2025-01-17 01:46:28.56	214.27	23.05	
2025-01-17 01:46:29.78	214.19	22.85	
2025-01-17 01:46:31.00	214.12	22.65	
2025-01-17 01:46:32.21	214.05	22.45	
2025-01-17 01:46:33.43	213.98	22.26	
2025-01-17 01:46:34.65	213.91	22.07	
2025-01-17 01:46:35.87	213.84	21.87	
2025-01-17 01:46:37.09	213.77	21.68	
2025-01-17 01:46:38.30	213.71	21.50	
2025-01-17 01:46:39.52	213.64	21.31	
2025-01-17 01:46:40.74	213.58	21.12	
2025-01-17 01:46:41.96	213.51	20.94	
2025-01-17 01:46:43.17	213.45	20.76	
2025-01-17 01:46:44.39	213.39	20.58	
2025-01-17 01:46:45.61	213.33	20.40	
2025-01-17 01:46:46.83	213.27	20.22	
2025-01-17 01:46:48.05	213.21	20.04	
2025-01-17 01:46:49.26	213.15	19.86	
2025-01-17 01:46:50.48	213.09	19.69	
2025-01-17 01:46:51.70	213.03	19.52	
2025-01-17 01:46:52.92	212.97	19.34	
2025-01-17 01:46:54.13	212.92	19.17	
2025-01-17 01:46:55.35	212.86	19.00	
2025-01-17 01:46:56.57	212.81	18.83	
2025-01-17 01:46:57.79	212.75	18.67	
2025-01-17 01:46:59.01	212.70	18.50	
2025-01-17 01:47:00.22	212.65	18.34	
2025-01-17 01:47:01.44	212.59	18.17	
2025-01-17 01:47:02.66	212.54	18.01	
2025-01-17 01:47:03.88	212.49	17.85	
2025-01-17 01:47:05.09	212.44	17.69	
2025-01-17 01:47:06.31	212.39	17.53	
2025-01-17 01:47:07.53	212.34	17.37	
2025-01-17 01:47:08.75	212.29	17.22	
2025-01-17 01:47:09.97	212.25	17.06	
2025-01-17 01:47:11.18	212.20	16.91	
2025-01-17 01:47:12.40	212.15	16.75	
2025-01-17 01:47:13.62	212.11	16.60	
2025-01-17 01:47:14.84	212.06	16.45	
2025-01-17 01:47:16.05	212.01	16.30	
2025-01-17 01:47:17.27	211.97	16.15	
2025-01-17 01:47:18.49	211.93	16.00	
2025-01-17 01:47:19.71	211.88	15.85	
2025-01-17 01:47:20.93	211.84	15.70	
2025-01-17 01:47:22.14	211.80	15.56	
2025-01-17 01:47:23.36	211.75	15.41	
2025-01-17 01:47:24.58	211.71	15.27	
2025-01-17 01:47:25.80	211.67	15.13	
2025-01-17 01:47:27.01	211.63	14.99	
2025-01-17 01:47:28.23	211.59	14.85	
2025-01-17 01:47:29.45	211.55	14.70	
2025-01-17 01:47:30.67	211.51	14.57	
2025-01-17 01:47:31.89	211.47	14.43	
2025-01-17 01:47:33.10	211.43	14.29	
2025-01-17 01:47:34.32	211.39	14.15	
2025-01-17 01:47:35.54	211.35	14.02	
2025-01-17 01:47:36.76	211.32	13.88	
2025-01-17 01:47:37.98	211.28	13.75	
2025-01-17 01:47:39.19	211.24	13.61	
2025-01-17 01:47:40.41	211.21	13.48	
2025-01-17 01:47:41.63	211.17	13.35	
2025-01-17 01:47:42.85	211.14	13.22	
2025-01-17 01:47:44.06	211.10	13.09	
2025-01-17 01:47:45.28	211.07	12.96	
2025-01-17 01:47:46.50	211.03	12.83	
2025-01-17 01:47:47.72	211.00	12.70	
2025-01-17 01:47:48.94	210.96	12.57	
2025-01-17 01:47:50.15	210.93	12.45	
2025-01-17 01:47:51.37	210.90	12.32	
2025-01-17 01:47:52.59	210.86	12.20	
2025-01-17 01:47:53.81	210.83	12.07	
2025-01-17 01:47:55.02	210.80	11.95	
2025-01-17 01:47:56.24	210.77	11.82	
2025-01-17 01:47:57.46	210.74	11.70	
2025-01-17 01:47:58.68	210.70	11.58	
2025-01-17 01:47:59.90	210.67	11.46	
2025-01-17 01:48:01.11	210.64	11.34	
2025-01-17 01:48:02.33	210.61	11.22	
2025-01-17 01:48:03.55	210.58	11.10	
2025-01-17 01:48:04.77	210.55	10.98	
2025-01-17 01:48:05.98	210.52	10.86	
2025-01-17 01:48:07.20	210.49	10.74	
2025-01-17 01:48:08.42	210.46	10.63	
2025-01-17 01:48:09.64	210.44	10.51	
2025-01-17 01:48:10.86	210.41	10.40	
2025-01-17 01:48:12.07	210.38	10.28	
2025-01-17 01:48:13.29	210.35	10.17	
2025-01-17 01:48:14.51	210.32	10.05	
2025-01-17 01:48:15.73	210.30	9.94	
2025-01-17 01:48:16.94	210.27	9.83	
2025-01-17 01:48:18.16	210.24	9.71	
2025-01-17 01:48:19.38	210.22	9.60	
2025-01-17 01:48:20.60	210.19	9.49	
2025-01-17 01:48:21.82	210.16	9.38	
2025-01-17 01:48:23.03	210.14	9.27	
2025-01-17 01:48:24.25	210.11	9.16	
2025-01-17 01:48:25.47	210.09	9.05	
2025-01-17 01:48:26.69	210.06	8.94	
2025-01-17 01:48:27.90	210.04	8.84	
2025-01-17 01:48:29.12	210.01	8.73	
2025-01-17 01:48:30.34	209.99	8.62	
2025-01-17 01:48:31.56	209.96	8.52	
2025-01-17 01:48:32.78	209.94	8.41	
2025-01-17 01:48:33.99	209.92	8.31	
2025-01-17 01:48:35.21	209.89	8.20	
2025-01-17 01:48:36.43	209.87	8.10	
2025-01-17 01:48:37.65	209.85	7.99	
2025-01-17 01:48:38.87	209.82	7.89	
2025-01-17 01:48:40.08	209.80	7.79	
2025-01-17 01:48:41.30	209.78	7.68	
2025-01-17 01:48:42.52	209.76	7.58	
2025-01-17 01:48:43.74	209.73	7.48	
2025-01-17 01:48:44.95	209.71	7.38	
2025-01-17 01:48:46.17	209.69	7.28	
2025-01-17 01:48:47.39	209.67	7.18	
2025-01-17 01:48:48.61	209.65	7.08	
2025-01-17 01:48:49.83	209.63	6.98	
2025-01-17 01:48:51.04	209.61	6.88	
2025-01-17 01:48:52.26	209.58	6.78	
2025-01-17 01:48:53.48	209.56	6.68	
2025-01-17 01:48:54.70	209.54	6.58	
2025-01-17 01:48:55.91	209.52	6.49	
2025-01-17 01:48:57.13	209.50	6.39	
2025-01-17 01:48:58.35	209.48	6.29	
2025-01-17 01:48:59.57	209.46	6.20	
2025-01-17 01:49:00.79	209.44	6.10	
2025-01-17 01:49:02.00	209.42	6.01	
2025-01-17 01:49:03.22	209.41	5.91	
2025-01-17 01:49:04.44	209.39	5.82	
2025-01-17 01:49:05.66	209.37	5.72	
2025-01-17 01:49:06.87	209.35	5.63	
2025-01-17 01:49:08.09	209.33	5.54	
2025-01-17 01:49:09.31	209.31	5.44	
2025-01-17 01:49:10.53	209.29	5.35	
2025-01-17 01:49:11.75	209.27	5.26	
2025-01-17 01:49:12.96	209.26	5.17	
2025-01-17 01:49:14.18	209.24	5.07	
2025-01-17 01:49:15.40	209.22	4.98	
2025-01-17 01:49:16.62	209.20	4.89	
2025-01-17 01:49:17.84	209.19	4.80	
2025-01-17 01:49:19.05	209.17	4.71	
2025-01-17 01:49:20.27	209.15	4.62	
2025-01-17 01:49:21.49	209.13	4.53	
2025-01-17 01:49:22.71	209.12	4.44	
2025-01-17 01:49:23.92	209.10	4.35	
2025-01-17 01:49:25.14	209.08	4.26	
2025-01-17 01:49:26.36	209.07	4.18	
2025-01-17 01:49:27.58	209.05	4.09	

#Closed at: 2025-01-17 01:49:28