passes_logs/2025/01/17/SPB_Silybum_02/SPB_Silybum_02__20250117_000012_AQUA_rec.log

#Pass ID: 20250117_000012_AQUA
#Satellite: AQUA
#Configuration: AQUA
#Start time: 2025-01-17 00:00:10

#Version: 2.0.20230423
#Station: SPB_Silybum_02
#Location: 30.233357 lon 59.946436 lat
#TLE: 1 27424U 02022A   25016.17003800  .00001737  00000+0  36656-3 0  9994
#TLE: 2 27424  98.3591 332.8445 0001762 110.2278 308.2748 14.60686749207790

#Time	Az	El	Level	Level2	SNR	BER	Gain	Gain2
2025-01-17 00:00:13.02	25.90	4.03	
2025-01-17 00:00:14.24	25.99	4.10	
2025-01-17 00:00:15.45	26.09	4.18	
2025-01-17 00:00:16.67	26.19	4.26	
2025-01-17 00:00:17.89	26.28	4.33	
2025-01-17 00:00:19.11	26.38	4.41	
2025-01-17 00:00:20.33	26.48	4.49	
2025-01-17 00:00:21.54	26.58	4.57	
2025-01-17 00:00:22.76	26.68	4.64	
2025-01-17 00:00:23.98	26.78	4.72	
2025-01-17 00:00:25.20	26.88	4.80	
2025-01-17 00:00:26.41	26.98	4.88	
2025-01-17 00:00:27.63	27.08	4.96	
2025-01-17 00:00:28.85	27.18	5.04	
2025-01-17 00:00:30.07	27.29	5.12	
2025-01-17 00:00:31.29	27.39	5.19	
2025-01-17 00:00:32.50	27.49	5.27	
2025-01-17 00:00:33.72	27.60	5.35	
2025-01-17 00:00:34.94	27.70	5.43	
2025-01-17 00:00:36.16	27.81	5.51	
2025-01-17 00:00:37.37	27.91	5.59	
2025-01-17 00:00:38.59	28.02	5.67	
2025-01-17 00:00:39.81	28.13	5.75	
2025-01-17 00:00:41.03	28.24	5.83	
2025-01-17 00:00:42.25	28.35	5.92	
2025-01-17 00:00:43.46	28.45	6.00	
2025-01-17 00:00:44.68	28.56	6.08	
2025-01-17 00:00:45.90	28.68	6.16	
2025-01-17 00:00:47.12	28.79	6.24	
2025-01-17 00:00:48.34	28.90	6.32	
2025-01-17 00:00:49.55	29.01	6.41	
2025-01-17 00:00:50.77	29.12	6.49	
2025-01-17 00:00:51.99	29.24	6.57	
2025-01-17 00:00:53.21	29.35	6.65	
2025-01-17 00:00:54.42	29.47	6.74	
2025-01-17 00:00:55.64	29.58	6.82	
2025-01-17 00:00:56.86	29.70	6.90	
2025-01-17 00:00:58.08	29.82	6.99	
2025-01-17 00:00:59.30	29.94	7.07	
2025-01-17 00:01:00.51	30.05	7.15	
2025-01-17 00:01:01.73	30.17	7.24	
2025-01-17 00:01:02.95	30.29	7.32	
2025-01-17 00:01:04.17	30.41	7.41	
2025-01-17 00:01:05.38	30.53	7.49	
2025-01-17 00:01:06.60	30.66	7.58	
2025-01-17 00:01:07.82	30.78	7.66	
2025-01-17 00:01:09.04	30.90	7.75	
2025-01-17 00:01:10.26	31.03	7.84	
2025-01-17 00:01:11.47	31.15	7.92	
2025-01-17 00:01:12.69	31.28	8.01	
2025-01-17 00:01:13.91	31.41	8.09	
2025-01-17 00:01:15.13	31.53	8.18	
2025-01-17 00:01:16.34	31.66	8.27	
2025-01-17 00:01:17.56	31.79	8.35	
2025-01-17 00:01:18.78	31.92	8.44	
2025-01-17 00:01:20.00	32.05	8.53	
2025-01-17 00:01:21.22	32.18	8.62	
2025-01-17 00:01:22.43	32.32	8.70	
2025-01-17 00:01:23.65	32.45	8.79	
2025-01-17 00:01:24.87	32.58	8.88	
2025-01-17 00:01:26.09	32.72	8.97	
2025-01-17 00:01:27.30	32.85	9.06	
2025-01-17 00:01:28.52	32.99	9.15	
2025-01-17 00:01:29.74	33.13	9.24	
2025-01-17 00:01:30.96	33.27	9.33	
2025-01-17 00:01:32.18	33.41	9.42	
2025-01-17 00:01:33.39	33.55	9.51	
2025-01-17 00:01:34.61	33.69	9.60	
2025-01-17 00:01:35.83	33.83	9.69	
2025-01-17 00:01:37.05	33.97	9.78	
2025-01-17 00:01:38.27	34.12	9.87	
2025-01-17 00:01:39.48	34.26	9.96	
2025-01-17 00:01:40.70	34.41	10.05	
2025-01-17 00:01:41.92	34.55	10.14	
2025-01-17 00:01:43.14	34.70	10.24	
2025-01-17 00:01:44.35	34.85	10.33	
2025-01-17 00:01:45.57	35.00	10.42	
2025-01-17 00:01:46.79	35.15	10.51	
2025-01-17 00:01:48.01	35.30	10.61	
2025-01-17 00:01:49.23	35.45	10.70	
2025-01-17 00:01:50.44	35.61	10.79	
2025-01-17 00:01:51.66	35.76	10.89	
2025-01-17 00:01:52.88	35.92	10.98	
2025-01-17 00:01:54.10	36.07	11.07	
2025-01-17 00:01:55.31	36.23	11.17	
2025-01-17 00:01:56.53	36.39	11.26	
2025-01-17 00:01:57.75	36.55	11.36	
2025-01-17 00:01:58.97	36.71	11.45	
2025-01-17 00:02:00.19	36.87	11.55	
2025-01-17 00:02:01.40	37.04	11.64	
2025-01-17 00:02:02.62	37.20	11.74	
2025-01-17 00:02:03.84	37.37	11.83	
2025-01-17 00:02:05.06	37.53	11.93	
2025-01-17 00:02:06.27	37.70	12.02	
2025-01-17 00:02:07.49	37.87	12.12	
2025-01-17 00:02:08.71	38.04	12.22	
2025-01-17 00:02:09.93	38.21	12.31	
2025-01-17 00:02:11.15	38.38	12.41	
2025-01-17 00:02:12.36	38.55	12.51	
2025-01-17 00:02:13.58	38.73	12.60	
2025-01-17 00:02:14.80	38.90	12.70	
2025-01-17 00:02:16.02	39.08	12.80	
2025-01-17 00:02:17.23	39.26	12.90	
2025-01-17 00:02:18.45	39.44	13.00	
2025-01-17 00:02:19.67	39.62	13.09	
2025-01-17 00:02:20.89	39.80	13.19	
2025-01-17 00:02:22.11	39.98	13.29	
2025-01-17 00:02:23.32	40.17	13.39	
2025-01-17 00:02:24.54	40.35	13.49	
2025-01-17 00:02:25.76	40.54	13.59	
2025-01-17 00:02:26.98	40.73	13.69	
2025-01-17 00:02:28.19	40.92	13.79	
2025-01-17 00:02:29.41	41.11	13.89	
2025-01-17 00:02:30.63	41.30	13.99	
2025-01-17 00:02:31.85	41.50	14.09	
2025-01-17 00:02:33.07	41.69	14.19	
2025-01-17 00:02:34.28	41.89	14.29	
2025-01-17 00:02:35.50	42.08	14.39	
2025-01-17 00:02:36.72	42.28	14.49	
2025-01-17 00:02:37.94	42.48	14.59	
2025-01-17 00:02:39.16	42.69	14.69	
2025-01-17 00:02:40.37	42.89	14.80	
2025-01-17 00:02:41.59	43.09	14.90	
2025-01-17 00:02:42.81	43.30	15.00	
2025-01-17 00:02:44.03	43.51	15.10	
2025-01-17 00:02:45.24	43.72	15.20	
2025-01-17 00:02:46.46	43.93	15.30	
2025-01-17 00:02:47.68	44.14	15.41	
2025-01-17 00:02:48.90	44.36	15.51	
2025-01-17 00:02:50.12	44.57	15.61	
2025-01-17 00:02:51.33	44.79	15.71	
2025-01-17 00:02:52.55	45.01	15.82	
2025-01-17 00:02:53.77	45.23	15.92	
2025-01-17 00:02:54.99	45.45	16.02	
2025-01-17 00:02:56.20	45.67	16.13	
2025-01-17 00:02:57.42	45.89	16.23	
2025-01-17 00:02:58.64	46.12	16.33	
2025-01-17 00:02:59.86	46.35	16.44	
2025-01-17 00:03:01.08	46.58	16.54	
2025-01-17 00:03:02.29	46.81	16.64	
2025-01-17 00:03:03.51	47.04	16.75	
2025-01-17 00:03:04.73	47.28	16.85	
2025-01-17 00:03:05.95	47.51	16.95	
2025-01-17 00:03:07.16	47.75	17.06	
2025-01-17 00:03:08.38	47.99	17.16	
2025-01-17 00:03:09.60	48.23	17.26	
2025-01-17 00:03:10.82	48.48	17.37	
2025-01-17 00:03:12.04	48.72	17.47	
2025-01-17 00:03:13.25	48.97	17.58	
2025-01-17 00:03:14.47	49.21	17.68	
2025-01-17 00:03:15.69	49.47	17.78	
2025-01-17 00:03:16.91	49.72	17.89	
2025-01-17 00:03:18.12	49.97	17.99	
2025-01-17 00:03:19.34	50.23	18.09	
2025-01-17 00:03:20.56	50.48	18.20	
2025-01-17 00:03:21.78	50.74	18.30	
2025-01-17 00:03:23.00	51.00	18.40	
2025-01-17 00:03:24.21	51.27	18.51	
2025-01-17 00:03:25.43	51.53	18.61	
2025-01-17 00:03:26.65	51.80	18.71	
2025-01-17 00:03:27.87	52.07	18.82	
2025-01-17 00:03:29.08	52.33	18.92	
2025-01-17 00:03:30.30	52.61	19.02	
2025-01-17 00:03:31.52	52.88	19.13	
2025-01-17 00:03:32.74	53.16	19.23	
2025-01-17 00:03:33.96	53.44	19.33	
2025-01-17 00:03:35.17	53.71	19.43	
2025-01-17 00:03:36.39	54.00	19.54	
2025-01-17 00:03:37.61	54.28	19.64	
2025-01-17 00:03:38.83	54.57	19.74	
2025-01-17 00:03:40.04	54.85	19.84	
2025-01-17 00:03:41.26	55.14	19.94	
2025-01-17 00:03:42.48	55.44	20.04	
2025-01-17 00:03:43.70	55.73	20.14	
2025-01-17 00:03:44.92	56.03	20.24	
2025-01-17 00:03:46.13	56.32	20.34	
2025-01-17 00:03:47.35	56.62	20.44	
2025-01-17 00:03:48.57	56.92	20.54	
2025-01-17 00:03:49.79	57.23	20.64	
2025-01-17 00:03:51.01	57.53	20.74	
2025-01-17 00:03:52.22	57.84	20.84	
2025-01-17 00:03:53.44	58.15	20.94	
2025-01-17 00:03:54.66	58.46	21.04	
2025-01-17 00:03:55.88	58.78	21.13	
2025-01-17 00:03:57.09	59.09	21.23	
2025-01-17 00:03:58.31	59.41	21.33	
2025-01-17 00:03:59.53	59.73	21.42	
2025-01-17 00:04:00.75	60.05	21.52	
2025-01-17 00:04:01.97	60.38	21.61	
2025-01-17 00:04:03.18	60.70	21.71	
2025-01-17 00:04:04.40	61.03	21.80	
2025-01-17 00:04:05.62	61.36	21.90	
2025-01-17 00:04:06.84	61.69	21.99	
2025-01-17 00:04:08.05	62.03	22.08	
2025-01-17 00:04:09.27	62.36	22.17	
2025-01-17 00:04:10.49	62.70	22.26	
2025-01-17 00:04:11.71	63.04	22.35	
2025-01-17 00:04:12.93	63.39	22.44	
2025-01-17 00:04:14.14	63.73	22.53	
2025-01-17 00:04:15.36	64.08	22.62	
2025-01-17 00:04:16.58	64.43	22.71	
2025-01-17 00:04:17.80	64.78	22.80	
2025-01-17 00:04:19.01	65.13	22.88	
2025-01-17 00:04:20.23	65.48	22.97	
2025-01-17 00:04:21.45	65.84	23.05	
2025-01-17 00:04:22.67	66.20	23.14	
2025-01-17 00:04:23.89	66.56	23.22	
2025-01-17 00:04:25.10	66.92	23.30	
2025-01-17 00:04:26.32	67.29	23.38	
2025-01-17 00:04:27.54	67.66	23.47	
2025-01-17 00:04:28.76	68.02	23.55	
2025-01-17 00:04:29.97	68.39	23.62	
2025-01-17 00:04:31.19	68.77	23.70	
2025-01-17 00:04:32.41	69.14	23.78	
2025-01-17 00:04:33.63	69.52	23.85	
2025-01-17 00:04:34.85	69.90	23.93	
2025-01-17 00:04:36.06	70.27	24.00	
2025-01-17 00:04:37.28	70.66	24.08	
2025-01-17 00:04:38.50	71.04	24.15	
2025-01-17 00:04:39.72	71.43	24.22	
2025-01-17 00:04:40.94	71.82	24.29	
2025-01-17 00:04:42.15	72.20	24.36	
2025-01-17 00:04:43.37	72.59	24.43	
2025-01-17 00:04:44.59	72.99	24.49	
2025-01-17 00:04:45.81	73.38	24.56	
2025-01-17 00:04:47.02	73.78	24.62	
2025-01-17 00:04:48.24	74.17	24.68	
2025-01-17 00:04:49.46	74.57	24.75	
2025-01-17 00:04:50.68	74.98	24.81	
2025-01-17 00:04:51.90	75.38	24.86	
2025-01-17 00:04:53.11	75.78	24.92	
2025-01-17 00:04:54.33	76.19	24.98	
2025-01-17 00:04:55.55	76.59	25.03	
2025-01-17 00:04:56.77	77.00	25.09	
2025-01-17 00:04:57.98	77.41	25.14	
2025-01-17 00:04:59.20	77.82	25.19	
2025-01-17 00:05:00.42	78.24	25.24	
2025-01-17 00:05:01.64	78.65	25.29	
2025-01-17 00:05:02.86	79.07	25.34	
2025-01-17 00:05:04.07	79.48	25.38	
2025-01-17 00:05:05.29	79.90	25.42	
2025-01-17 00:05:06.51	80.32	25.47	
2025-01-17 00:05:07.73	80.74	25.51	
2025-01-17 00:05:08.94	81.16	25.55	
2025-01-17 00:05:10.16	81.58	25.59	
2025-01-17 00:05:11.38	82.00	25.62	
2025-01-17 00:05:12.60	82.43	25.66	
2025-01-17 00:05:13.82	82.85	25.69	
2025-01-17 00:05:15.03	83.28	25.72	
2025-01-17 00:05:16.25	83.71	25.75	
2025-01-17 00:05:17.47	84.13	25.78	
2025-01-17 00:05:18.69	84.56	25.81	
2025-01-17 00:05:19.90	84.99	25.83	
2025-01-17 00:05:21.12	85.42	25.86	
2025-01-17 00:05:22.34	85.85	25.88	
2025-01-17 00:05:23.56	86.28	25.90	
2025-01-17 00:05:24.78	86.72	25.92	
2025-01-17 00:05:25.99	87.15	25.94	
2025-01-17 00:05:27.21	87.58	25.95	
2025-01-17 00:05:28.43	88.01	25.97	
2025-01-17 00:05:29.65	88.45	25.98	
2025-01-17 00:05:30.87	88.88	25.99	
2025-01-17 00:05:32.08	89.32	26.00	
2025-01-17 00:05:33.30	89.75	26.01	
2025-01-17 00:05:34.52	90.19	26.01	
2025-01-17 00:05:35.74	90.62	26.02	
2025-01-17 00:05:36.95	91.05	26.02	
2025-01-17 00:05:38.17	91.49	26.02	
2025-01-17 00:05:39.39	91.93	26.02	
2025-01-17 00:05:40.61	92.36	26.02	
2025-01-17 00:05:41.83	92.80	26.01	
2025-01-17 00:05:43.04	93.23	26.00	
2025-01-17 00:05:44.26	93.67	26.00	
2025-01-17 00:05:45.48	94.10	25.99	
2025-01-17 00:05:46.70	94.54	25.98	
2025-01-17 00:05:47.91	94.97	25.96	
2025-01-17 00:05:49.13	95.40	25.95	
2025-01-17 00:05:50.35	95.83	25.93	
2025-01-17 00:05:51.57	96.27	25.92	
2025-01-17 00:05:52.79	96.70	25.90	
2025-01-17 00:05:54.00	97.13	25.87	
2025-01-17 00:05:55.22	97.56	25.85	
2025-01-17 00:05:56.44	97.99	25.83	
2025-01-17 00:05:57.66	98.42	25.80	
2025-01-17 00:05:58.87	98.85	25.77	
2025-01-17 00:06:00.09	99.28	25.75	
2025-01-17 00:06:01.31	99.71	25.71	
2025-01-17 00:06:02.53	100.13	25.68	
2025-01-17 00:06:03.75	100.56	25.65	
2025-01-17 00:06:04.96	100.98	25.61	
2025-01-17 00:06:06.18	101.41	25.58	
2025-01-17 00:06:07.40	101.83	25.54	
2025-01-17 00:06:08.62	102.25	25.50	
2025-01-17 00:06:09.83	102.67	25.46	
2025-01-17 00:06:11.05	103.09	25.41	
2025-01-17 00:06:12.27	103.51	25.37	
2025-01-17 00:06:13.49	103.93	25.32	
2025-01-17 00:06:14.71	104.34	25.28	
2025-01-17 00:06:15.92	104.76	25.23	
2025-01-17 00:06:17.14	105.17	25.18	
2025-01-17 00:06:18.36	105.58	25.13	
2025-01-17 00:06:19.58	105.99	25.07	
2025-01-17 00:06:20.79	106.40	25.02	
2025-01-17 00:06:22.01	106.81	24.96	
2025-01-17 00:06:23.23	107.22	24.91	
2025-01-17 00:06:24.45	107.62	24.85	
2025-01-17 00:06:25.67	108.02	24.79	
2025-01-17 00:06:26.88	108.42	24.73	
2025-01-17 00:06:28.10	108.82	24.66	
2025-01-17 00:06:29.32	109.22	24.60	
2025-01-17 00:06:30.54	109.62	24.54	
2025-01-17 00:06:31.76	110.02	24.47	
2025-01-17 00:06:32.97	110.41	24.40	
2025-01-17 00:06:34.19	110.80	24.34	
2025-01-17 00:06:35.41	111.19	24.27	
2025-01-17 00:06:36.63	111.58	24.20	
2025-01-17 00:06:37.84	111.96	24.12	
2025-01-17 00:06:39.06	112.35	24.05	
2025-01-17 00:06:40.28	112.73	23.98	
2025-01-17 00:06:41.50	113.11	23.90	
2025-01-17 00:06:42.72	113.49	23.83	
2025-01-17 00:06:43.93	113.87	23.75	
2025-01-17 00:06:45.15	114.24	23.67	
2025-01-17 00:06:46.37	114.62	23.60	
2025-01-17 00:06:47.59	114.99	23.52	
2025-01-17 00:06:48.80	115.36	23.44	
2025-01-17 00:06:50.02	115.73	23.35	
2025-01-17 00:06:51.24	116.09	23.27	
2025-01-17 00:06:52.46	116.46	23.19	
2025-01-17 00:06:53.68	116.82	23.10	
2025-01-17 00:06:54.89	117.18	23.02	
2025-01-17 00:06:56.11	117.53	22.93	
2025-01-17 00:06:57.33	117.89	22.85	
2025-01-17 00:06:58.55	118.24	22.76	
2025-01-17 00:06:59.76	118.59	22.67	
2025-01-17 00:07:00.98	118.94	22.58	
2025-01-17 00:07:02.20	119.29	22.49	
2025-01-17 00:07:03.42	119.64	22.40	
2025-01-17 00:07:04.64	119.98	22.31	
2025-01-17 00:07:05.85	120.32	22.22	
2025-01-17 00:07:07.07	120.66	22.13	
2025-01-17 00:07:08.29	121.00	22.04	
2025-01-17 00:07:09.51	121.34	21.94	
2025-01-17 00:07:10.72	121.67	21.85	
2025-01-17 00:07:11.94	122.00	21.76	
2025-01-17 00:07:13.16	122.33	21.66	
2025-01-17 00:07:14.38	122.66	21.57	
2025-01-17 00:07:15.60	122.98	21.47	
2025-01-17 00:07:16.81	123.30	21.37	
2025-01-17 00:07:18.03	123.62	21.28	
2025-01-17 00:07:19.25	123.94	21.18	
2025-01-17 00:07:20.47	124.26	21.08	
2025-01-17 00:07:21.68	124.57	20.99	
2025-01-17 00:07:22.90	124.89	20.89	
2025-01-17 00:07:24.12	125.20	20.79	
2025-01-17 00:07:25.34	125.51	20.69	
2025-01-17 00:07:26.56	125.81	20.59	
2025-01-17 00:07:27.77	126.12	20.49	
2025-01-17 00:07:28.99	126.42	20.39	
2025-01-17 00:07:30.21	126.72	20.29	
2025-01-17 00:07:31.43	127.02	20.19	
2025-01-17 00:07:32.65	127.32	20.08	
2025-01-17 00:07:33.86	127.61	19.98	
2025-01-17 00:07:35.08	127.90	19.88	
2025-01-17 00:07:36.30	128.19	19.78	
2025-01-17 00:07:37.52	128.48	19.68	
2025-01-17 00:07:38.73	128.76	19.57	
2025-01-17 00:07:39.95	129.05	19.47	
2025-01-17 00:07:41.17	129.33	19.37	
2025-01-17 00:07:42.39	129.61	19.27	
2025-01-17 00:07:43.61	129.89	19.16	
2025-01-17 00:07:44.82	130.17	19.06	
2025-01-17 00:07:46.04	130.44	18.96	
2025-01-17 00:07:47.26	130.72	18.85	
2025-01-17 00:07:48.48	130.99	18.75	
2025-01-17 00:07:49.69	131.26	18.64	
2025-01-17 00:07:50.91	131.52	18.54	
2025-01-17 00:07:52.13	131.79	18.44	
2025-01-17 00:07:53.35	132.05	18.33	
2025-01-17 00:07:54.57	132.31	18.23	
2025-01-17 00:07:55.78	132.57	18.12	
2025-01-17 00:07:57.00	132.83	18.02	
2025-01-17 00:07:58.22	133.09	17.91	
2025-01-17 00:07:59.44	133.34	17.81	
2025-01-17 00:08:00.65	133.59	17.70	
2025-01-17 00:08:01.87	133.84	17.60	
2025-01-17 00:08:03.09	134.09	17.49	
2025-01-17 00:08:04.31	134.34	17.39	
2025-01-17 00:08:05.53	134.59	17.29	
2025-01-17 00:08:06.74	134.83	17.18	
2025-01-17 00:08:07.96	135.07	17.08	
2025-01-17 00:08:09.18	135.31	16.97	
2025-01-17 00:08:10.40	135.55	16.87	
2025-01-17 00:08:11.61	135.78	16.76	
2025-01-17 00:08:12.83	136.02	16.66	
2025-01-17 00:08:14.05	136.25	16.55	
2025-01-17 00:08:15.27	136.49	16.45	
2025-01-17 00:08:16.49	136.72	16.34	
2025-01-17 00:08:17.70	136.94	16.24	
2025-01-17 00:08:18.92	137.17	16.14	
2025-01-17 00:08:20.14	137.40	16.03	
2025-01-17 00:08:21.36	137.62	15.93	
2025-01-17 00:08:22.57	137.84	15.83	
2025-01-17 00:08:23.79	138.06	15.72	
2025-01-17 00:08:25.01	138.28	15.62	
2025-01-17 00:08:26.23	138.50	15.51	
2025-01-17 00:08:27.45	138.71	15.41	
2025-01-17 00:08:28.66	138.93	15.31	
2025-01-17 00:08:29.88	139.14	15.20	
2025-01-17 00:08:31.10	139.35	15.10	
2025-01-17 00:08:32.32	139.56	15.00	
2025-01-17 00:08:33.54	139.77	14.90	
2025-01-17 00:08:34.75	139.97	14.79	
2025-01-17 00:08:35.97	140.18	14.69	
2025-01-17 00:08:37.19	140.38	14.59	
2025-01-17 00:08:38.41	140.59	14.49	
2025-01-17 00:08:39.62	140.78	14.39	
2025-01-17 00:08:40.84	140.98	14.28	
2025-01-17 00:08:42.06	141.18	14.18	
2025-01-17 00:08:43.28	141.38	14.08	
2025-01-17 00:08:44.50	141.57	13.98	
2025-01-17 00:08:45.71	141.77	13.88	
2025-01-17 00:08:46.93	141.96	13.78	
2025-01-17 00:08:48.15	142.15	13.68	
2025-01-17 00:08:49.37	142.34	13.58	
2025-01-17 00:08:50.58	142.53	13.48	
2025-01-17 00:08:51.80	142.72	13.38	
2025-01-17 00:08:53.02	142.90	13.28	
2025-01-17 00:08:54.24	143.09	13.18	
2025-01-17 00:08:55.46	143.27	13.08	
2025-01-17 00:08:56.67	143.45	12.98	
2025-01-17 00:08:57.89	143.63	12.88	
2025-01-17 00:08:59.11	143.81	12.78	
2025-01-17 00:09:00.33	143.99	12.68	
2025-01-17 00:09:01.54	144.17	12.58	
2025-01-17 00:09:02.76	144.34	12.48	
2025-01-17 00:09:03.98	144.52	12.38	
2025-01-17 00:09:05.20	144.69	12.29	
2025-01-17 00:09:06.42	144.86	12.19	
2025-01-17 00:09:07.63	145.03	12.09	
2025-01-17 00:09:08.85	145.20	11.99	
2025-01-17 00:09:10.07	145.37	11.90	
2025-01-17 00:09:11.29	145.54	11.80	
2025-01-17 00:09:12.50	145.70	11.70	
2025-01-17 00:09:13.72	145.87	11.61	
2025-01-17 00:09:14.94	146.03	11.51	
2025-01-17 00:09:16.16	146.20	11.42	
2025-01-17 00:09:17.38	146.36	11.32	
2025-01-17 00:09:18.59	146.52	11.22	
2025-01-17 00:09:19.81	146.68	11.13	
2025-01-17 00:09:21.03	146.84	11.03	
2025-01-17 00:09:22.25	146.99	10.94	
2025-01-17 00:09:23.47	147.15	10.84	
2025-01-17 00:09:24.68	147.31	10.75	
2025-01-17 00:09:25.90	147.46	10.66	
2025-01-17 00:09:27.12	147.61	10.56	
2025-01-17 00:09:28.34	147.77	10.47	
2025-01-17 00:09:29.55	147.92	10.37	
2025-01-17 00:09:30.77	148.07	10.28	
2025-01-17 00:09:31.99	148.22	10.19	
2025-01-17 00:09:33.21	148.37	10.10	
2025-01-17 00:09:34.43	148.51	10.00	
2025-01-17 00:09:35.64	148.66	9.91	
2025-01-17 00:09:36.86	148.80	9.82	
2025-01-17 00:09:38.08	148.95	9.73	
2025-01-17 00:09:39.30	149.09	9.63	
2025-01-17 00:09:40.51	149.23	9.54	
2025-01-17 00:09:41.73	149.38	9.45	
2025-01-17 00:09:42.95	149.52	9.36	
2025-01-17 00:09:44.17	149.66	9.27	
2025-01-17 00:09:45.39	149.80	9.18	
2025-01-17 00:09:46.60	149.93	9.09	
2025-01-17 00:09:47.82	150.07	9.00	
2025-01-17 00:09:49.04	150.21	8.91	
2025-01-17 00:09:50.26	150.34	8.82	
2025-01-17 00:09:51.47	150.48	8.73	
2025-01-17 00:09:52.69	150.61	8.64	
2025-01-17 00:09:53.91	150.74	8.55	
2025-01-17 00:09:55.13	150.88	8.46	
2025-01-17 00:09:56.35	151.01	8.38	
2025-01-17 00:09:57.56	151.14	8.29	
2025-01-17 00:09:58.78	151.27	8.20	
2025-01-17 00:10:00.00	151.39	8.11	
2025-01-17 00:10:01.22	151.52	8.02	
2025-01-17 00:10:02.43	151.65	7.94	
2025-01-17 00:10:03.65	151.78	7.85	
2025-01-17 00:10:04.87	151.90	7.76	
2025-01-17 00:10:06.09	152.03	7.68	
2025-01-17 00:10:07.31	152.15	7.59	
2025-01-17 00:10:08.52	152.27	7.50	
2025-01-17 00:10:09.74	152.40	7.42	
2025-01-17 00:10:10.96	152.52	7.33	
2025-01-17 00:10:12.18	152.64	7.25	
2025-01-17 00:10:13.39	152.76	7.16	
2025-01-17 00:10:14.61	152.88	7.08	
2025-01-17 00:10:15.83	153.00	6.99	
2025-01-17 00:10:17.05	153.11	6.91	
2025-01-17 00:10:18.27	153.23	6.82	
2025-01-17 00:10:19.48	153.35	6.74	
2025-01-17 00:10:20.70	153.46	6.65	
2025-01-17 00:10:21.92	153.58	6.57	
2025-01-17 00:10:23.14	153.69	6.49	
2025-01-17 00:10:24.36	153.81	6.40	
2025-01-17 00:10:25.57	153.92	6.32	
2025-01-17 00:10:26.79	154.03	6.24	
2025-01-17 00:10:28.01	154.15	6.15	
2025-01-17 00:10:29.23	154.26	6.07	
2025-01-17 00:10:30.44	154.37	5.99	
2025-01-17 00:10:31.66	154.48	5.91	
2025-01-17 00:10:32.88	154.59	5.83	
2025-01-17 00:10:34.10	154.69	5.74	
2025-01-17 00:10:35.32	154.80	5.66	
2025-01-17 00:10:36.53	154.91	5.58	
2025-01-17 00:10:37.75	155.02	5.50	
2025-01-17 00:10:38.97	155.12	5.42	
2025-01-17 00:10:40.19	155.23	5.34	
2025-01-17 00:10:41.40	155.33	5.26	
2025-01-17 00:10:42.62	155.44	5.18	
2025-01-17 00:10:43.84	155.54	5.10	
2025-01-17 00:10:45.06	155.64	5.02	
2025-01-17 00:10:46.28	155.75	4.94	
2025-01-17 00:10:47.49	155.85	4.86	
2025-01-17 00:10:48.71	155.95	4.78	
2025-01-17 00:10:49.93	156.05	4.70	
2025-01-17 00:10:51.15	156.15	4.62	
2025-01-17 00:10:52.37	156.25	4.54	
2025-01-17 00:10:53.59	156.35	4.46	
2025-01-17 00:10:54.80	156.45	4.38	
2025-01-17 00:10:56.02	156.55	4.31	
2025-01-17 00:10:57.24	156.64	4.23	
2025-01-17 00:10:58.46	156.74	4.15	
2025-01-17 00:10:59.68	156.84	4.07	
2025-01-17 00:11:00.89	156.93	4.00	

#Closed at: 2025-01-17 00:11:01