passes_logs/2025/01/17/SPB_Silybum_02/SPB_Silybum_02__20250117_171801_TERRA_rec.log

#Pass ID: 20250117_171801_TERRA
#Satellite: TERRA
#Configuration: TERRA
#Start time: 2025-01-17 17:18:02

#Version: 2.0.20230423
#Station: SPB_Silybum_02
#Location: 30.233357 lon 59.946436 lat
#TLE: 1 25994U 99068A   25016.77398677  .00000840  00000+0  18282-3 0  9994
#TLE: 2 25994  98.0212  79.7479 0003409  69.0484  40.6664 14.60398530334334

#Time	Az	El	Level	Level2	SNR	BER	Gain	Gain2
2025-01-17 17:18:04.18	123.62	4.20	
2025-01-17 17:18:05.40	123.55	4.29	
2025-01-17 17:18:06.62	123.47	4.37	
2025-01-17 17:18:07.84	123.39	4.45	
2025-01-17 17:18:09.06	123.32	4.53	
2025-01-17 17:18:10.28	123.24	4.62	
2025-01-17 17:18:11.50	123.16	4.70	
2025-01-17 17:18:12.71	123.08	4.78	
2025-01-17 17:18:13.93	123.01	4.87	
2025-01-17 17:18:15.15	122.93	4.95	
2025-01-17 17:18:16.37	122.85	5.04	
2025-01-17 17:18:17.59	122.76	5.12	
2025-01-17 17:18:18.81	122.68	5.21	
2025-01-17 17:18:20.02	122.60	5.29	
2025-01-17 17:18:21.24	122.52	5.38	
2025-01-17 17:18:22.46	122.44	5.46	
2025-01-17 17:18:23.68	122.35	5.55	
2025-01-17 17:18:24.90	122.27	5.64	
2025-01-17 17:18:26.12	122.19	5.72	
2025-01-17 17:18:27.33	122.10	5.81	
2025-01-17 17:18:28.55	122.02	5.90	
2025-01-17 17:18:29.77	121.93	5.98	
2025-01-17 17:18:30.99	121.84	6.07	
2025-01-17 17:18:32.21	121.76	6.16	
2025-01-17 17:18:33.43	121.67	6.25	
2025-01-17 17:18:34.65	121.58	6.34	
2025-01-17 17:18:35.86	121.49	6.42	
2025-01-17 17:18:37.08	121.40	6.51	
2025-01-17 17:18:38.30	121.31	6.60	
2025-01-17 17:18:39.52	121.22	6.69	
2025-01-17 17:18:40.74	121.13	6.78	
2025-01-17 17:18:41.96	121.04	6.87	
2025-01-17 17:18:43.17	120.94	6.96	
2025-01-17 17:18:44.39	120.85	7.05	
2025-01-17 17:18:45.61	120.76	7.14	
2025-01-17 17:18:46.83	120.66	7.23	
2025-01-17 17:18:48.05	120.57	7.33	
2025-01-17 17:18:49.27	120.47	7.42	
2025-01-17 17:18:50.49	120.37	7.51	
2025-01-17 17:18:51.70	120.28	7.60	
2025-01-17 17:18:52.92	120.18	7.70	
2025-01-17 17:18:54.14	120.08	7.79	
2025-01-17 17:18:55.36	119.98	7.88	
2025-01-17 17:18:56.58	119.88	7.98	
2025-01-17 17:18:57.80	119.78	8.07	
2025-01-17 17:18:59.01	119.68	8.16	
2025-01-17 17:19:00.23	119.57	8.26	
2025-01-17 17:19:01.45	119.47	8.35	
2025-01-17 17:19:02.67	119.37	8.45	
2025-01-17 17:19:03.89	119.26	8.54	
2025-01-17 17:19:05.11	119.16	8.64	
2025-01-17 17:19:06.33	119.05	8.74	
2025-01-17 17:19:07.54	118.94	8.83	
2025-01-17 17:19:08.76	118.84	8.93	
2025-01-17 17:19:09.98	118.73	9.03	
2025-01-17 17:19:11.20	118.62	9.12	
2025-01-17 17:19:12.42	118.51	9.22	
2025-01-17 17:19:13.64	118.40	9.32	
2025-01-17 17:19:14.85	118.28	9.42	
2025-01-17 17:19:16.07	118.17	9.52	
2025-01-17 17:19:17.29	118.06	9.62	
2025-01-17 17:19:18.51	117.94	9.71	
2025-01-17 17:19:19.73	117.83	9.81	
2025-01-17 17:19:20.95	117.71	9.91	
2025-01-17 17:19:22.17	117.59	10.02	
2025-01-17 17:19:23.38	117.48	10.12	
2025-01-17 17:19:24.60	117.36	10.22	
2025-01-17 17:19:25.82	117.24	10.32	
2025-01-17 17:19:27.04	117.12	10.42	
2025-01-17 17:19:28.26	116.99	10.52	
2025-01-17 17:19:29.48	116.87	10.63	
2025-01-17 17:19:30.69	116.75	10.73	
2025-01-17 17:19:31.91	116.62	10.83	
2025-01-17 17:19:33.13	116.50	10.93	
2025-01-17 17:19:34.35	116.37	11.04	
2025-01-17 17:19:35.57	116.24	11.14	
2025-01-17 17:19:36.79	116.12	11.25	
2025-01-17 17:19:38.00	115.99	11.35	
2025-01-17 17:19:39.22	115.86	11.46	
2025-01-17 17:19:40.44	115.72	11.56	
2025-01-17 17:19:41.66	115.59	11.67	
2025-01-17 17:19:42.88	115.46	11.78	
2025-01-17 17:19:44.10	115.32	11.88	
2025-01-17 17:19:45.32	115.19	11.99	
2025-01-17 17:19:46.53	115.05	12.10	
2025-01-17 17:19:47.75	114.91	12.21	
2025-01-17 17:19:48.97	114.77	12.31	
2025-01-17 17:19:50.19	114.63	12.42	
2025-01-17 17:19:51.41	114.49	12.53	
2025-01-17 17:19:52.63	114.35	12.64	
2025-01-17 17:19:53.84	114.21	12.75	
2025-01-17 17:19:55.06	114.06	12.86	
2025-01-17 17:19:56.28	113.92	12.97	
2025-01-17 17:19:57.50	113.77	13.08	
2025-01-17 17:19:58.72	113.62	13.19	
2025-01-17 17:19:59.94	113.47	13.31	
2025-01-17 17:20:01.16	113.32	13.42	
2025-01-17 17:20:02.37	113.17	13.53	
2025-01-17 17:20:03.59	113.01	13.64	
2025-01-17 17:20:04.81	112.86	13.76	
2025-01-17 17:20:06.03	112.70	13.87	
2025-01-17 17:20:07.25	112.54	13.98	
2025-01-17 17:20:08.47	112.39	14.10	
2025-01-17 17:20:09.68	112.23	14.21	
2025-01-17 17:20:10.90	112.07	14.33	
2025-01-17 17:20:12.12	111.90	14.44	
2025-01-17 17:20:13.34	111.74	14.56	
2025-01-17 17:20:14.56	111.57	14.68	
2025-01-17 17:20:15.78	111.40	14.79	
2025-01-17 17:20:17.00	111.24	14.91	
2025-01-17 17:20:18.21	111.07	15.03	
2025-01-17 17:20:19.43	110.90	15.15	
2025-01-17 17:20:20.65	110.72	15.26	
2025-01-17 17:20:21.87	110.55	15.38	
2025-01-17 17:20:23.09	110.37	15.50	
2025-01-17 17:20:24.31	110.20	15.62	
2025-01-17 17:20:25.52	110.02	15.74	
2025-01-17 17:20:26.74	109.84	15.86	
2025-01-17 17:20:27.96	109.66	15.98	
2025-01-17 17:20:29.18	109.47	16.10	
2025-01-17 17:20:30.40	109.29	16.22	
2025-01-17 17:20:31.62	109.10	16.35	
2025-01-17 17:20:32.83	108.91	16.47	
2025-01-17 17:20:34.05	108.72	16.59	
2025-01-17 17:20:35.27	108.53	16.71	
2025-01-17 17:20:36.49	108.34	16.84	
2025-01-17 17:20:37.71	108.14	16.96	
2025-01-17 17:20:38.93	107.94	17.08	
2025-01-17 17:20:40.15	107.75	17.21	
2025-01-17 17:20:41.36	107.55	17.33	
2025-01-17 17:20:42.58	107.34	17.46	
2025-01-17 17:20:43.80	107.14	17.58	
2025-01-17 17:20:45.02	106.93	17.71	
2025-01-17 17:20:46.24	106.73	17.83	
2025-01-17 17:20:47.46	106.52	17.96	
2025-01-17 17:20:48.67	106.31	18.09	
2025-01-17 17:20:49.89	106.09	18.21	
2025-01-17 17:20:51.11	105.88	18.34	
2025-01-17 17:20:52.33	105.66	18.47	
2025-01-17 17:20:53.55	105.44	18.60	
2025-01-17 17:20:54.77	105.22	18.72	
2025-01-17 17:20:55.99	105.00	18.85	
2025-01-17 17:20:57.20	104.77	18.98	
2025-01-17 17:20:58.42	104.55	19.11	
2025-01-17 17:20:59.64	104.32	19.24	
2025-01-17 17:21:00.86	104.09	19.37	
2025-01-17 17:21:02.08	103.85	19.50	
2025-01-17 17:21:03.30	103.62	19.63	
2025-01-17 17:21:04.51	103.38	19.76	
2025-01-17 17:21:05.73	103.14	19.89	
2025-01-17 17:21:06.95	102.90	20.02	
2025-01-17 17:21:08.17	102.65	20.15	
2025-01-17 17:21:09.39	102.41	20.28	
2025-01-17 17:21:10.61	102.16	20.42	
2025-01-17 17:21:11.83	101.91	20.55	
2025-01-17 17:21:13.04	101.66	20.68	
2025-01-17 17:21:14.26	101.40	20.81	
2025-01-17 17:21:15.48	101.14	20.94	
2025-01-17 17:21:16.70	100.88	21.08	
2025-01-17 17:21:17.92	100.62	21.21	
2025-01-17 17:21:19.14	100.35	21.34	
2025-01-17 17:21:20.35	100.09	21.47	
2025-01-17 17:21:21.57	99.82	21.61	
2025-01-17 17:21:22.79	99.55	21.74	
2025-01-17 17:21:24.01	99.27	21.87	
2025-01-17 17:21:25.23	98.99	22.01	
2025-01-17 17:21:26.45	98.71	22.14	
2025-01-17 17:21:27.67	98.43	22.27	
2025-01-17 17:21:28.88	98.15	22.41	
2025-01-17 17:21:30.10	97.86	22.54	
2025-01-17 17:21:31.32	97.57	22.67	
2025-01-17 17:21:32.54	97.28	22.81	
2025-01-17 17:21:33.76	96.98	22.94	
2025-01-17 17:21:34.98	96.68	23.07	
2025-01-17 17:21:36.19	96.39	23.21	
2025-01-17 17:21:37.41	96.08	23.34	
2025-01-17 17:21:38.63	95.78	23.47	
2025-01-17 17:21:39.85	95.47	23.60	
2025-01-17 17:21:41.07	95.16	23.74	
2025-01-17 17:21:42.29	94.84	23.87	
2025-01-17 17:21:43.51	94.52	24.00	
2025-01-17 17:21:44.72	94.21	24.13	
2025-01-17 17:21:45.94	93.88	24.27	
2025-01-17 17:21:47.16	93.56	24.40	
2025-01-17 17:21:48.38	93.23	24.53	
2025-01-17 17:21:49.60	92.90	24.66	
2025-01-17 17:21:50.82	92.56	24.79	
2025-01-17 17:21:52.03	92.23	24.92	
2025-01-17 17:21:53.25	91.89	25.05	
2025-01-17 17:21:54.47	91.54	25.18	
2025-01-17 17:21:55.69	91.20	25.31	
2025-01-17 17:21:56.91	90.85	25.44	
2025-01-17 17:21:58.13	90.49	25.57	
2025-01-17 17:21:59.34	90.14	25.70	
2025-01-17 17:22:00.56	89.78	25.82	
2025-01-17 17:22:01.78	89.42	25.95	
2025-01-17 17:22:03.00	89.06	26.08	
2025-01-17 17:22:04.22	88.69	26.20	
2025-01-17 17:22:05.44	88.32	26.33	
2025-01-17 17:22:06.66	87.95	26.45	
2025-01-17 17:22:07.87	87.57	26.58	
2025-01-17 17:22:09.09	87.19	26.70	
2025-01-17 17:22:10.31	86.81	26.82	
2025-01-17 17:22:11.53	86.43	26.94	
2025-01-17 17:22:12.75	86.04	27.06	
2025-01-17 17:22:13.97	85.65	27.18	
2025-01-17 17:22:15.18	85.25	27.30	
2025-01-17 17:22:16.40	84.86	27.42	
2025-01-17 17:22:17.62	84.46	27.54	
2025-01-17 17:22:18.84	84.05	27.65	
2025-01-17 17:22:20.06	83.64	27.77	
2025-01-17 17:22:21.28	83.23	27.88	
2025-01-17 17:22:22.50	82.82	28.00	
2025-01-17 17:22:23.71	82.41	28.11	
2025-01-17 17:22:24.93	81.99	28.22	
2025-01-17 17:22:26.15	81.57	28.33	
2025-01-17 17:22:27.37	81.14	28.44	
2025-01-17 17:22:28.59	80.71	28.54	
2025-01-17 17:22:29.81	80.28	28.65	
2025-01-17 17:22:31.02	79.85	28.75	
2025-01-17 17:22:32.24	79.42	28.86	
2025-01-17 17:22:33.46	78.98	28.96	
2025-01-17 17:22:34.68	78.53	29.06	
2025-01-17 17:22:35.90	78.09	29.16	
2025-01-17 17:22:37.12	77.64	29.25	
2025-01-17 17:22:38.34	77.19	29.35	
2025-01-17 17:22:39.55	76.74	29.44	
2025-01-17 17:22:40.77	76.28	29.53	
2025-01-17 17:22:41.99	75.82	29.63	
2025-01-17 17:22:43.21	75.36	29.71	
2025-01-17 17:22:44.43	74.90	29.80	
2025-01-17 17:22:45.65	74.43	29.89	
2025-01-17 17:22:46.86	73.96	29.97	
2025-01-17 17:22:48.08	73.49	30.05	
2025-01-17 17:22:49.30	73.02	30.13	
2025-01-17 17:22:50.52	72.54	30.21	
2025-01-17 17:22:51.74	72.06	30.29	
2025-01-17 17:22:52.96	71.58	30.36	
2025-01-17 17:22:54.18	71.10	30.43	
2025-01-17 17:22:55.39	70.61	30.50	
2025-01-17 17:22:56.61	70.13	30.57	
2025-01-17 17:22:57.83	69.64	30.63	
2025-01-17 17:22:59.05	69.14	30.70	
2025-01-17 17:23:00.27	68.65	30.76	
2025-01-17 17:23:01.49	68.15	30.82	
2025-01-17 17:23:02.70	67.66	30.87	
2025-01-17 17:23:03.92	67.16	30.93	
2025-01-17 17:23:05.14	66.66	30.98	
2025-01-17 17:23:06.36	66.16	31.03	
2025-01-17 17:23:07.58	65.65	31.08	
2025-01-17 17:23:08.80	65.15	31.12	
2025-01-17 17:23:10.01	64.64	31.17	
2025-01-17 17:23:11.23	64.13	31.21	
2025-01-17 17:23:12.45	63.62	31.25	
2025-01-17 17:23:13.67	63.11	31.28	
2025-01-17 17:23:14.89	62.60	31.32	
2025-01-17 17:23:16.11	62.09	31.35	
2025-01-17 17:23:17.33	61.57	31.37	
2025-01-17 17:23:18.54	61.06	31.40	
2025-01-17 17:23:19.76	60.55	31.42	
2025-01-17 17:23:20.98	60.03	31.44	
2025-01-17 17:23:22.20	59.51	31.46	
2025-01-17 17:23:23.42	58.99	31.48	
2025-01-17 17:23:24.64	58.48	31.49	
2025-01-17 17:23:25.85	57.96	31.50	
2025-01-17 17:23:27.07	57.44	31.51	
2025-01-17 17:23:28.29	56.92	31.51	
2025-01-17 17:23:29.51	56.41	31.52	
2025-01-17 17:23:30.73	55.89	31.52	
2025-01-17 17:23:31.95	55.37	31.51	
2025-01-17 17:23:33.17	54.85	31.51	
2025-01-17 17:23:34.38	54.33	31.50	
2025-01-17 17:23:35.60	53.82	31.49	
2025-01-17 17:23:36.82	53.30	31.48	
2025-01-17 17:23:38.04	52.78	31.46	
2025-01-17 17:23:39.26	52.26	31.45	
2025-01-17 17:23:40.48	51.75	31.43	
2025-01-17 17:23:41.69	51.23	31.40	
2025-01-17 17:23:42.91	50.72	31.38	
2025-01-17 17:23:44.13	50.21	31.35	
2025-01-17 17:23:45.35	49.69	31.32	
2025-01-17 17:23:46.57	49.18	31.29	
2025-01-17 17:23:47.79	48.67	31.25	
2025-01-17 17:23:49.01	48.16	31.21	
2025-01-17 17:23:50.22	47.66	31.17	
2025-01-17 17:23:51.44	47.15	31.13	
2025-01-17 17:23:52.66	46.64	31.08	
2025-01-17 17:23:53.88	46.14	31.04	
2025-01-17 17:23:55.10	45.64	30.99	
2025-01-17 17:23:56.32	45.14	30.94	
2025-01-17 17:23:57.53	44.64	30.88	
2025-01-17 17:23:58.75	44.15	30.82	
2025-01-17 17:23:59.97	43.65	30.77	
2025-01-17 17:24:01.19	43.16	30.71	
2025-01-17 17:24:02.41	42.67	30.64	
2025-01-17 17:24:03.63	42.18	30.58	
2025-01-17 17:24:04.85	41.69	30.51	
2025-01-17 17:24:06.06	41.21	30.44	
2025-01-17 17:24:07.28	40.72	30.37	
2025-01-17 17:24:08.50	40.24	30.29	
2025-01-17 17:24:09.72	39.77	30.22	
2025-01-17 17:24:10.94	39.29	30.14	
2025-01-17 17:24:12.16	38.82	30.06	
2025-01-17 17:24:13.37	38.35	29.98	
2025-01-17 17:24:14.59	37.88	29.90	
2025-01-17 17:24:15.81	37.41	29.81	
2025-01-17 17:24:17.03	36.95	29.73	
2025-01-17 17:24:18.25	36.49	29.64	
2025-01-17 17:24:19.47	36.03	29.55	
2025-01-17 17:24:20.68	35.58	29.46	
2025-01-17 17:24:21.90	35.13	29.36	
2025-01-17 17:24:23.12	34.68	29.27	
2025-01-17 17:24:24.34	34.23	29.17	
2025-01-17 17:24:25.56	33.78	29.07	
2025-01-17 17:24:26.78	33.34	28.97	
2025-01-17 17:24:28.00	32.90	28.87	
2025-01-17 17:24:29.21	32.47	28.77	
2025-01-17 17:24:30.43	32.04	28.67	
2025-01-17 17:24:31.65	31.61	28.56	
2025-01-17 17:24:32.87	31.18	28.46	
2025-01-17 17:24:34.09	30.76	28.35	
2025-01-17 17:24:35.31	30.34	28.24	
2025-01-17 17:24:36.52	29.92	28.13	
2025-01-17 17:24:37.74	29.51	28.02	
2025-01-17 17:24:38.96	29.09	27.91	
2025-01-17 17:24:40.18	28.69	27.79	
2025-01-17 17:24:41.40	28.28	27.68	
2025-01-17 17:24:42.62	27.88	27.56	
2025-01-17 17:24:43.84	27.48	27.44	
2025-01-17 17:24:45.05	27.08	27.33	
2025-01-17 17:24:46.27	26.69	27.21	
2025-01-17 17:24:47.49	26.30	27.09	
2025-01-17 17:24:48.71	25.91	26.97	
2025-01-17 17:24:49.93	25.53	26.85	
2025-01-17 17:24:51.15	25.14	26.73	
2025-01-17 17:24:52.36	24.77	26.61	
2025-01-17 17:24:53.58	24.39	26.48	
2025-01-17 17:24:54.80	24.02	26.36	
2025-01-17 17:24:56.02	23.65	26.23	
2025-01-17 17:24:57.24	23.29	26.11	
2025-01-17 17:24:58.46	22.92	25.98	
2025-01-17 17:24:59.68	22.56	25.86	
2025-01-17 17:25:00.89	22.21	25.73	
2025-01-17 17:25:02.11	21.85	25.60	
2025-01-17 17:25:03.33	21.50	25.47	
2025-01-17 17:25:04.55	21.15	25.35	
2025-01-17 17:25:05.77	20.81	25.22	
2025-01-17 17:25:06.99	20.47	25.09	
2025-01-17 17:25:08.20	20.13	24.96	
2025-01-17 17:25:09.42	19.79	24.83	
2025-01-17 17:25:10.64	19.46	24.70	
2025-01-17 17:25:11.86	19.13	24.57	
2025-01-17 17:25:13.08	18.80	24.44	
2025-01-17 17:25:14.30	18.48	24.31	
2025-01-17 17:25:15.52	18.16	24.17	
2025-01-17 17:25:16.73	17.84	24.04	
2025-01-17 17:25:17.95	17.52	23.91	
2025-01-17 17:25:19.17	17.21	23.78	
2025-01-17 17:25:20.39	16.90	23.65	
2025-01-17 17:25:21.61	16.59	23.51	
2025-01-17 17:25:22.83	16.29	23.38	
2025-01-17 17:25:24.04	15.99	23.25	
2025-01-17 17:25:25.26	15.69	23.12	
2025-01-17 17:25:26.48	15.39	22.98	
2025-01-17 17:25:27.70	15.09	22.85	
2025-01-17 17:25:28.92	14.80	22.72	
2025-01-17 17:25:30.14	14.51	22.59	
2025-01-17 17:25:31.35	14.23	22.45	
2025-01-17 17:25:32.57	13.94	22.32	
2025-01-17 17:25:33.79	13.66	22.19	
2025-01-17 17:25:35.01	13.38	22.06	
2025-01-17 17:25:36.23	13.11	21.92	
2025-01-17 17:25:37.45	12.83	21.79	
2025-01-17 17:25:38.67	12.56	21.66	
2025-01-17 17:25:39.88	12.30	21.53	
2025-01-17 17:25:41.10	12.03	21.39	
2025-01-17 17:25:42.32	11.77	21.26	
2025-01-17 17:25:43.54	11.50	21.13	
2025-01-17 17:25:44.76	11.24	21.00	
2025-01-17 17:25:45.98	10.99	20.87	
2025-01-17 17:25:47.19	10.73	20.74	
2025-01-17 17:25:48.41	10.48	20.60	
2025-01-17 17:25:49.63	10.23	20.47	
2025-01-17 17:25:50.85	9.98	20.34	
2025-01-17 17:25:52.07	9.74	20.21	
2025-01-17 17:25:53.29	9.50	20.08	
2025-01-17 17:25:54.51	9.25	19.95	
2025-01-17 17:25:55.72	9.02	19.82	
2025-01-17 17:25:56.94	8.78	19.69	
2025-01-17 17:25:58.16	8.55	19.56	
2025-01-17 17:25:59.38	8.31	19.43	
2025-01-17 17:26:00.60	8.08	19.30	
2025-01-17 17:26:01.82	7.86	19.17	
2025-01-17 17:26:03.03	7.63	19.05	
2025-01-17 17:26:04.25	7.41	18.92	
2025-01-17 17:26:05.47	7.18	18.79	
2025-01-17 17:26:06.69	6.96	18.66	
2025-01-17 17:26:07.91	6.75	18.53	
2025-01-17 17:26:09.13	6.53	18.41	
2025-01-17 17:26:10.35	6.32	18.28	
2025-01-17 17:26:11.56	6.11	18.16	
2025-01-17 17:26:12.78	5.89	18.03	
2025-01-17 17:26:14.00	5.69	17.90	
2025-01-17 17:26:15.22	5.48	17.78	
2025-01-17 17:26:16.44	5.27	17.65	
2025-01-17 17:26:17.66	5.07	17.53	
2025-01-17 17:26:18.87	4.87	17.40	
2025-01-17 17:26:20.09	4.67	17.28	
2025-01-17 17:26:21.31	4.47	17.16	
2025-01-17 17:26:22.53	4.28	17.03	
2025-01-17 17:26:23.75	4.08	16.91	
2025-01-17 17:26:24.97	3.89	16.79	
2025-01-17 17:26:26.19	3.70	16.66	
2025-01-17 17:26:27.40	3.51	16.54	
2025-01-17 17:26:28.62	3.32	16.42	
2025-01-17 17:26:29.84	3.14	16.30	
2025-01-17 17:26:31.06	2.95	16.18	
2025-01-17 17:26:32.28	2.77	16.06	
2025-01-17 17:26:33.50	2.59	15.94	
2025-01-17 17:26:34.71	2.41	15.82	
2025-01-17 17:26:35.93	2.23	15.70	
2025-01-17 17:26:37.15	2.06	15.58	
2025-01-17 17:26:38.37	1.88	15.46	
2025-01-17 17:26:39.59	1.71	15.34	
2025-01-17 17:26:40.81	1.54	15.23	
2025-01-17 17:26:42.02	1.37	15.11	
2025-01-17 17:26:43.24	1.20	14.99	
2025-01-17 17:26:44.46	1.03	14.88	
2025-01-17 17:26:45.68	0.87	14.76	
2025-01-17 17:26:46.90	0.70	14.64	
2025-01-17 17:26:48.12	0.54	14.53	
2025-01-17 17:26:49.34	0.38	14.41	
2025-01-17 17:26:50.55	0.22	14.30	
2025-01-17 17:26:51.77	0.06	14.18	
2025-01-17 17:26:52.99	359.90	14.07	
2025-01-17 17:26:54.21	359.74	13.96	
2025-01-17 17:26:55.43	359.59	13.84	
2025-01-17 17:26:56.65	359.43	13.73	
2025-01-17 17:26:57.86	359.28	13.62	
2025-01-17 17:26:59.08	359.13	13.51	
2025-01-17 17:27:00.30	358.98	13.39	
2025-01-17 17:27:01.52	358.83	13.28	
2025-01-17 17:27:02.74	358.68	13.17	
2025-01-17 17:27:03.96	358.54	13.06	
2025-01-17 17:27:05.18	358.39	12.95	
2025-01-17 17:27:06.39	358.25	12.84	
2025-01-17 17:27:07.61	358.11	12.73	
2025-01-17 17:27:08.83	357.97	12.62	
2025-01-17 17:27:10.05	357.82	12.51	
2025-01-17 17:27:11.27	357.69	12.41	
2025-01-17 17:27:12.49	357.55	12.30	
2025-01-17 17:27:13.70	357.41	12.19	
2025-01-17 17:27:14.92	357.27	12.08	
2025-01-17 17:27:16.14	357.14	11.98	
2025-01-17 17:27:17.36	357.01	11.87	
2025-01-17 17:27:18.58	356.87	11.76	
2025-01-17 17:27:19.80	356.74	11.66	
2025-01-17 17:27:21.02	356.61	11.55	
2025-01-17 17:27:22.23	356.48	11.45	
2025-01-17 17:27:23.45	356.35	11.34	
2025-01-17 17:27:24.67	356.23	11.24	
2025-01-17 17:27:25.89	356.10	11.14	
2025-01-17 17:27:27.11	355.97	11.03	
2025-01-17 17:27:28.33	355.85	10.93	
2025-01-17 17:27:29.54	355.73	10.83	
2025-01-17 17:27:30.76	355.60	10.72	
2025-01-17 17:27:31.98	355.48	10.62	
2025-01-17 17:27:33.20	355.36	10.52	
2025-01-17 17:27:34.42	355.24	10.42	
2025-01-17 17:27:35.64	355.12	10.32	
2025-01-17 17:27:36.86	355.00	10.22	
2025-01-17 17:27:38.07	354.89	10.12	
2025-01-17 17:27:39.29	354.77	10.02	
2025-01-17 17:27:40.51	354.66	9.92	
2025-01-17 17:27:41.73	354.54	9.82	
2025-01-17 17:27:42.95	354.43	9.72	
2025-01-17 17:27:44.17	354.31	9.62	
2025-01-17 17:27:45.38	354.20	9.52	
2025-01-17 17:27:46.60	354.09	9.42	
2025-01-17 17:27:47.82	353.98	9.32	
2025-01-17 17:27:49.04	353.87	9.23	
2025-01-17 17:27:50.26	353.76	9.13	
2025-01-17 17:27:51.48	353.66	9.03	
2025-01-17 17:27:52.69	353.55	8.94	
2025-01-17 17:27:53.91	353.44	8.84	
2025-01-17 17:27:55.13	353.34	8.74	
2025-01-17 17:27:56.35	353.23	8.65	
2025-01-17 17:27:57.57	353.13	8.55	
2025-01-17 17:27:58.79	353.03	8.46	
2025-01-17 17:28:00.01	352.93	8.36	
2025-01-17 17:28:01.22	352.82	8.27	
2025-01-17 17:28:02.44	352.72	8.18	
2025-01-17 17:28:03.66	352.62	8.08	
2025-01-17 17:28:04.88	352.52	7.99	
2025-01-17 17:28:06.10	352.43	7.90	
2025-01-17 17:28:07.32	352.33	7.80	
2025-01-17 17:28:08.53	352.23	7.71	
2025-01-17 17:28:09.75	352.13	7.62	
2025-01-17 17:28:10.97	352.04	7.53	
2025-01-17 17:28:12.19	351.94	7.44	
2025-01-17 17:28:13.41	351.85	7.34	
2025-01-17 17:28:14.63	351.76	7.25	
2025-01-17 17:28:15.85	351.66	7.16	
2025-01-17 17:28:17.06	351.57	7.07	
2025-01-17 17:28:18.28	351.48	6.98	
2025-01-17 17:28:19.50	351.39	6.89	
2025-01-17 17:28:20.72	351.30	6.80	
2025-01-17 17:28:21.94	351.21	6.71	
2025-01-17 17:28:23.16	351.12	6.62	
2025-01-17 17:28:24.37	351.03	6.54	
2025-01-17 17:28:25.59	350.94	6.45	
2025-01-17 17:28:26.81	350.85	6.36	
2025-01-17 17:28:28.03	350.77	6.27	
2025-01-17 17:28:29.25	350.68	6.18	
2025-01-17 17:28:30.47	350.60	6.10	
2025-01-17 17:28:31.69	350.51	6.01	
2025-01-17 17:28:32.90	350.43	5.92	
2025-01-17 17:28:34.12	350.34	5.84	
2025-01-17 17:28:35.34	350.26	5.75	
2025-01-17 17:28:36.56	350.18	5.66	
2025-01-17 17:28:37.78	350.09	5.58	
2025-01-17 17:28:39.00	350.01	5.49	
2025-01-17 17:28:40.21	349.93	5.41	
2025-01-17 17:28:41.43	349.85	5.32	
2025-01-17 17:28:42.65	349.77	5.24	
2025-01-17 17:28:43.87	349.69	5.15	
2025-01-17 17:28:45.09	349.61	5.07	
2025-01-17 17:28:46.31	349.53	4.98	
2025-01-17 17:28:47.53	349.46	4.90	
2025-01-17 17:28:48.74	349.38	4.82	
2025-01-17 17:28:49.96	349.30	4.73	
2025-01-17 17:28:51.18	349.23	4.65	
2025-01-17 17:28:52.40	349.15	4.57	
2025-01-17 17:28:53.62	349.08	4.48	
2025-01-17 17:28:54.84	349.00	4.40	
2025-01-17 17:28:56.05	348.93	4.32	
2025-01-17 17:28:57.27	348.85	4.24	
2025-01-17 17:28:58.49	348.78	4.16	
2025-01-17 17:28:59.71	348.71	4.08	

#Closed at: 2025-01-17 17:29:00