passes_logs/2025/01/17/SPB_Silybum_02/SPB_Silybum_02__20250117_154325_TERRA_rec.log

#Pass ID: 20250117_154325_TERRA
#Satellite: TERRA
#Configuration: TERRA
#Start time: 2025-01-17 15:43:25

#Version: 2.0.20230423
#Station: SPB_Silybum_02
#Location: 30.233357 lon 59.946436 lat
#TLE: 1 25994U 99068A   25016.77398677  .00000840  00000+0  18282-3 0  9994
#TLE: 2 25994  98.0212  79.7479 0003409  69.0484  40.6664 14.60398530334334

#Time	Az	El	Level	Level2	SNR	BER	Gain	Gain2
2025-01-17 15:43:28.01	73.39	4.12	
2025-01-17 15:43:28.83	73.29	4.16	
2025-01-17 15:43:29.64	73.18	4.19	
2025-01-17 15:43:30.45	73.08	4.23	
2025-01-17 15:43:31.26	72.97	4.27	
2025-01-17 15:43:32.07	72.87	4.30	
2025-01-17 15:43:32.89	72.76	4.34	
2025-01-17 15:43:33.70	72.66	4.38	
2025-01-17 15:43:34.51	72.55	4.42	
2025-01-17 15:43:35.32	72.44	4.45	
2025-01-17 15:43:36.14	72.34	4.49	
2025-01-17 15:43:36.95	72.23	4.53	
2025-01-17 15:43:37.76	72.12	4.56	
2025-01-17 15:43:38.57	72.01	4.60	
2025-01-17 15:43:39.39	71.91	4.64	
2025-01-17 15:43:40.20	71.80	4.67	
2025-01-17 15:43:41.01	71.69	4.71	
2025-01-17 15:43:41.82	71.58	4.75	
2025-01-17 15:43:42.64	71.47	4.78	
2025-01-17 15:43:43.45	71.36	4.82	
2025-01-17 15:43:44.26	71.25	4.85	
2025-01-17 15:43:45.07	71.14	4.89	
2025-01-17 15:43:45.88	71.03	4.93	
2025-01-17 15:43:46.70	70.92	4.96	
2025-01-17 15:43:47.51	70.81	5.00	
2025-01-17 15:43:48.32	70.70	5.04	
2025-01-17 15:43:49.13	70.59	5.07	
2025-01-17 15:43:49.95	70.48	5.11	
2025-01-17 15:43:50.76	70.36	5.15	
2025-01-17 15:43:51.57	70.25	5.18	
2025-01-17 15:43:52.38	70.14	5.22	
2025-01-17 15:43:53.20	70.03	5.25	
2025-01-17 15:43:54.01	69.91	5.29	
2025-01-17 15:43:54.82	69.80	5.33	
2025-01-17 15:43:55.63	69.69	5.36	
2025-01-17 15:43:56.45	69.57	5.40	
2025-01-17 15:43:57.26	69.46	5.43	
2025-01-17 15:43:58.07	69.34	5.47	
2025-01-17 15:43:58.88	69.23	5.50	
2025-01-17 15:43:59.69	69.11	5.54	
2025-01-17 15:44:00.51	68.99	5.58	
2025-01-17 15:44:01.32	68.88	5.61	
2025-01-17 15:44:02.13	68.76	5.65	
2025-01-17 15:44:02.94	68.65	5.68	
2025-01-17 15:44:03.76	68.53	5.72	
2025-01-17 15:44:04.57	68.41	5.75	
2025-01-17 15:44:05.38	68.29	5.79	
2025-01-17 15:44:06.19	68.18	5.82	
2025-01-17 15:44:07.01	68.06	5.86	
2025-01-17 15:44:07.82	67.94	5.89	
2025-01-17 15:44:08.63	67.82	5.93	
2025-01-17 15:44:09.44	67.70	5.96	
2025-01-17 15:44:10.25	67.58	6.00	
2025-01-17 15:44:11.07	67.46	6.03	
2025-01-17 15:44:11.88	67.34	6.07	
2025-01-17 15:44:12.69	67.22	6.10	
2025-01-17 15:44:13.50	67.10	6.14	
2025-01-17 15:44:14.32	66.98	6.17	
2025-01-17 15:44:15.13	66.85	6.21	
2025-01-17 15:44:15.94	66.73	6.24	
2025-01-17 15:44:16.75	66.61	6.28	
2025-01-17 15:44:17.57	66.49	6.31	
2025-01-17 15:44:18.38	66.37	6.35	
2025-01-17 15:44:19.19	66.24	6.38	
2025-01-17 15:44:20.00	66.12	6.41	
2025-01-17 15:44:20.82	65.99	6.45	
2025-01-17 15:44:21.63	65.87	6.48	
2025-01-17 15:44:22.44	65.75	6.52	
2025-01-17 15:44:23.25	65.62	6.55	
2025-01-17 15:44:24.06	65.50	6.58	
2025-01-17 15:44:24.88	65.37	6.62	
2025-01-17 15:44:25.69	65.25	6.65	
2025-01-17 15:44:26.50	65.12	6.69	
2025-01-17 15:44:27.31	64.99	6.72	
2025-01-17 15:44:28.13	64.87	6.75	
2025-01-17 15:44:28.94	64.74	6.79	
2025-01-17 15:44:29.75	64.61	6.82	
2025-01-17 15:44:30.56	64.49	6.85	
2025-01-17 15:44:31.38	64.36	6.89	
2025-01-17 15:44:32.19	64.23	6.92	
2025-01-17 15:44:33.00	64.10	6.95	
2025-01-17 15:44:33.81	63.97	6.99	
2025-01-17 15:44:34.62	63.84	7.02	
2025-01-17 15:44:35.44	63.71	7.05	
2025-01-17 15:44:36.25	63.58	7.08	
2025-01-17 15:44:37.06	63.45	7.12	
2025-01-17 15:44:37.87	63.32	7.15	
2025-01-17 15:44:38.69	63.19	7.18	
2025-01-17 15:44:39.50	63.06	7.21	
2025-01-17 15:44:40.31	62.93	7.25	
2025-01-17 15:44:41.12	62.80	7.28	
2025-01-17 15:44:41.94	62.66	7.31	
2025-01-17 15:44:42.75	62.53	7.34	
2025-01-17 15:44:43.56	62.40	7.37	
2025-01-17 15:44:44.37	62.27	7.41	
2025-01-17 15:44:45.19	62.13	7.44	
2025-01-17 15:44:46.00	62.00	7.47	
2025-01-17 15:44:46.81	61.87	7.50	
2025-01-17 15:44:47.62	61.73	7.53	
2025-01-17 15:44:48.43	61.60	7.56	
2025-01-17 15:44:49.25	61.46	7.60	
2025-01-17 15:44:50.06	61.33	7.63	
2025-01-17 15:44:50.87	61.19	7.66	
2025-01-17 15:44:51.68	61.05	7.69	
2025-01-17 15:44:52.50	60.92	7.72	
2025-01-17 15:44:53.31	60.78	7.75	
2025-01-17 15:44:54.12	60.64	7.78	
2025-01-17 15:44:54.93	60.51	7.81	
2025-01-17 15:44:55.75	60.37	7.84	
2025-01-17 15:44:56.56	60.23	7.87	
2025-01-17 15:44:57.37	60.09	7.90	
2025-01-17 15:44:58.18	59.96	7.93	
2025-01-17 15:44:58.99	59.82	7.96	
2025-01-17 15:44:59.81	59.68	7.99	
2025-01-17 15:45:00.62	59.54	8.02	
2025-01-17 15:45:01.43	59.40	8.05	
2025-01-17 15:45:02.24	59.26	8.08	
2025-01-17 15:45:03.06	59.12	8.11	
2025-01-17 15:45:03.87	58.98	8.14	
2025-01-17 15:45:04.68	58.84	8.17	
2025-01-17 15:45:05.49	58.70	8.20	
2025-01-17 15:45:06.31	58.55	8.23	
2025-01-17 15:45:07.12	58.41	8.26	
2025-01-17 15:45:07.93	58.27	8.29	
2025-01-17 15:45:08.74	58.13	8.32	
2025-01-17 15:45:09.56	57.98	8.34	
2025-01-17 15:45:10.37	57.84	8.37	
2025-01-17 15:45:11.18	57.70	8.40	
2025-01-17 15:45:11.99	57.55	8.43	
2025-01-17 15:45:12.80	57.41	8.46	
2025-01-17 15:45:13.62	57.26	8.49	
2025-01-17 15:45:14.43	57.12	8.51	
2025-01-17 15:45:15.24	56.98	8.54	
2025-01-17 15:45:16.05	56.83	8.57	
2025-01-17 15:45:16.87	56.68	8.60	
2025-01-17 15:45:17.68	56.54	8.62	
2025-01-17 15:45:18.49	56.39	8.65	
2025-01-17 15:45:19.30	56.25	8.68	
2025-01-17 15:45:20.12	56.10	8.70	
2025-01-17 15:45:20.93	55.95	8.73	
2025-01-17 15:45:21.74	55.81	8.76	
2025-01-17 15:45:22.55	55.66	8.78	
2025-01-17 15:45:23.36	55.51	8.81	
2025-01-17 15:45:24.18	55.36	8.84	
2025-01-17 15:45:24.99	55.21	8.86	
2025-01-17 15:45:25.80	55.06	8.89	
2025-01-17 15:45:26.61	54.92	8.91	
2025-01-17 15:45:27.43	54.77	8.94	
2025-01-17 15:45:28.24	54.62	8.97	
2025-01-17 15:45:29.05	54.47	8.99	
2025-01-17 15:45:29.86	54.32	9.02	
2025-01-17 15:45:30.68	54.17	9.04	
2025-01-17 15:45:31.49	54.01	9.07	
2025-01-17 15:45:32.30	53.86	9.09	
2025-01-17 15:45:33.11	53.71	9.12	
2025-01-17 15:45:33.93	53.56	9.14	
2025-01-17 15:45:34.74	53.41	9.16	
2025-01-17 15:45:35.55	53.26	9.19	
2025-01-17 15:45:36.36	53.11	9.21	
2025-01-17 15:45:37.17	52.95	9.24	
2025-01-17 15:45:37.99	52.80	9.26	
2025-01-17 15:45:38.80	52.65	9.28	
2025-01-17 15:45:39.61	52.49	9.31	
2025-01-17 15:45:40.42	52.34	9.33	
2025-01-17 15:45:41.24	52.18	9.35	
2025-01-17 15:45:42.05	52.03	9.38	
2025-01-17 15:45:42.86	51.88	9.40	
2025-01-17 15:45:43.67	51.72	9.42	
2025-01-17 15:45:44.49	51.57	9.44	
2025-01-17 15:45:45.30	51.41	9.47	
2025-01-17 15:45:46.11	51.25	9.49	
2025-01-17 15:45:46.92	51.10	9.51	
2025-01-17 15:45:47.73	50.94	9.53	
2025-01-17 15:45:48.55	50.79	9.55	
2025-01-17 15:45:49.36	50.63	9.57	
2025-01-17 15:45:50.17	50.47	9.59	
2025-01-17 15:45:50.98	50.32	9.62	
2025-01-17 15:45:51.80	50.16	9.64	
2025-01-17 15:45:52.61	50.00	9.66	
2025-01-17 15:45:53.42	49.84	9.68	
2025-01-17 15:45:54.23	49.69	9.70	
2025-01-17 15:45:55.05	49.53	9.72	
2025-01-17 15:45:55.86	49.37	9.74	
2025-01-17 15:45:56.67	49.21	9.76	
2025-01-17 15:45:57.48	49.05	9.78	
2025-01-17 15:45:58.30	48.89	9.80	
2025-01-17 15:45:59.11	48.73	9.82	
2025-01-17 15:45:59.92	48.57	9.84	
2025-01-17 15:46:00.73	48.41	9.85	
2025-01-17 15:46:01.54	48.25	9.87	
2025-01-17 15:46:02.36	48.09	9.89	
2025-01-17 15:46:03.17	47.93	9.91	
2025-01-17 15:46:03.98	47.77	9.93	
2025-01-17 15:46:04.79	47.61	9.95	
2025-01-17 15:46:05.61	47.45	9.96	
2025-01-17 15:46:06.42	47.29	9.98	
2025-01-17 15:46:07.23	47.13	10.00	
2025-01-17 15:46:08.04	46.96	10.02	
2025-01-17 15:46:08.86	46.80	10.03	
2025-01-17 15:46:09.67	46.64	10.05	
2025-01-17 15:46:10.48	46.48	10.07	
2025-01-17 15:46:11.29	46.32	10.08	
2025-01-17 15:46:12.11	46.15	10.10	
2025-01-17 15:46:12.92	45.99	10.11	
2025-01-17 15:46:13.73	45.83	10.13	
2025-01-17 15:46:14.54	45.66	10.15	
2025-01-17 15:46:15.35	45.50	10.16	
2025-01-17 15:46:16.17	45.33	10.18	
2025-01-17 15:46:16.98	45.17	10.19	
2025-01-17 15:46:17.79	45.01	10.21	
2025-01-17 15:46:18.60	44.84	10.22	
2025-01-17 15:46:19.42	44.68	10.23	
2025-01-17 15:46:20.23	44.51	10.25	
2025-01-17 15:46:21.04	44.35	10.26	
2025-01-17 15:46:21.85	44.18	10.28	
2025-01-17 15:46:22.67	44.02	10.29	
2025-01-17 15:46:23.48	43.85	10.30	
2025-01-17 15:46:24.29	43.69	10.32	
2025-01-17 15:46:25.10	43.52	10.33	
2025-01-17 15:46:25.91	43.36	10.34	
2025-01-17 15:46:26.73	43.19	10.35	
2025-01-17 15:46:27.54	43.02	10.37	
2025-01-17 15:46:28.35	42.86	10.38	
2025-01-17 15:46:29.16	42.69	10.39	
2025-01-17 15:46:29.98	42.52	10.40	
2025-01-17 15:46:30.79	42.36	10.41	
2025-01-17 15:46:31.60	42.19	10.42	
2025-01-17 15:46:32.41	42.02	10.44	
2025-01-17 15:46:33.23	41.86	10.45	
2025-01-17 15:46:34.04	41.69	10.46	
2025-01-17 15:46:34.85	41.52	10.47	
2025-01-17 15:46:35.66	41.36	10.48	
2025-01-17 15:46:36.48	41.19	10.49	
2025-01-17 15:46:37.29	41.02	10.50	
2025-01-17 15:46:38.10	40.85	10.51	
2025-01-17 15:46:38.91	40.68	10.52	
2025-01-17 15:46:39.72	40.52	10.52	
2025-01-17 15:46:40.54	40.35	10.53	
2025-01-17 15:46:41.35	40.18	10.54	
2025-01-17 15:46:42.16	40.01	10.55	
2025-01-17 15:46:42.97	39.84	10.56	
2025-01-17 15:46:43.79	39.67	10.57	
2025-01-17 15:46:44.60	39.50	10.57	
2025-01-17 15:46:45.41	39.34	10.58	
2025-01-17 15:46:46.22	39.17	10.59	
2025-01-17 15:46:47.04	39.00	10.60	
2025-01-17 15:46:47.85	38.83	10.60	
2025-01-17 15:46:48.66	38.66	10.61	
2025-01-17 15:46:49.47	38.49	10.62	
2025-01-17 15:46:50.28	38.32	10.62	
2025-01-17 15:46:51.10	38.15	10.63	
2025-01-17 15:46:51.91	37.98	10.63	
2025-01-17 15:46:52.72	37.81	10.64	
2025-01-17 15:46:53.53	37.65	10.64	
2025-01-17 15:46:54.35	37.47	10.65	
2025-01-17 15:46:55.16	37.30	10.65	
2025-01-17 15:46:55.97	37.14	10.66	
2025-01-17 15:46:56.78	36.97	10.66	
2025-01-17 15:46:57.60	36.79	10.67	
2025-01-17 15:46:58.41	36.63	10.67	
2025-01-17 15:46:59.22	36.46	10.67	
2025-01-17 15:47:00.03	36.29	10.68	
2025-01-17 15:47:00.85	36.11	10.68	
2025-01-17 15:47:01.66	35.95	10.68	
2025-01-17 15:47:02.47	35.78	10.69	
2025-01-17 15:47:03.28	35.61	10.69	
2025-01-17 15:47:04.09	35.44	10.69	
2025-01-17 15:47:04.92	35.26	10.69	
2025-01-17 15:47:05.73	35.09	10.70	
2025-01-17 15:47:06.55	34.92	10.70	
2025-01-17 15:47:07.36	34.75	10.70	
2025-01-17 15:47:08.17	34.58	10.70	
2025-01-17 15:47:08.98	34.41	10.70	
2025-01-17 15:47:09.80	34.24	10.70	
2025-01-17 15:47:10.61	34.07	10.70	
2025-01-17 15:47:11.42	33.90	10.70	
2025-01-17 15:47:12.23	33.73	10.70	
2025-01-17 15:47:13.05	33.56	10.70	
2025-01-17 15:47:13.86	33.39	10.70	
2025-01-17 15:47:14.67	33.22	10.70	
2025-01-17 15:47:15.48	33.05	10.70	
2025-01-17 15:47:16.30	32.88	10.70	
2025-01-17 15:47:17.11	32.71	10.70	
2025-01-17 15:47:17.92	32.54	10.69	
2025-01-17 15:47:18.73	32.37	10.69	
2025-01-17 15:47:19.54	32.20	10.69	
2025-01-17 15:47:20.36	32.03	10.69	
2025-01-17 15:47:21.17	31.86	10.69	
2025-01-17 15:47:21.98	31.69	10.68	
2025-01-17 15:47:22.79	31.52	10.68	
2025-01-17 15:47:23.61	31.35	10.68	
2025-01-17 15:47:24.42	31.18	10.67	
2025-01-17 15:47:25.23	31.01	10.67	
2025-01-17 15:47:26.04	30.84	10.67	
2025-01-17 15:47:26.86	30.67	10.66	
2025-01-17 15:47:27.67	30.50	10.66	
2025-01-17 15:47:28.48	30.33	10.65	
2025-01-17 15:47:29.29	30.16	10.65	
2025-01-17 15:47:30.10	29.99	10.64	
2025-01-17 15:47:30.92	29.82	10.64	
2025-01-17 15:47:31.73	29.65	10.63	
2025-01-17 15:47:32.54	29.48	10.63	
2025-01-17 15:47:33.35	29.31	10.62	
2025-01-17 15:47:34.17	29.14	10.61	
2025-01-17 15:47:34.98	28.97	10.61	
2025-01-17 15:47:35.79	28.81	10.60	
2025-01-17 15:47:36.60	28.64	10.59	
2025-01-17 15:47:37.42	28.47	10.59	
2025-01-17 15:47:38.23	28.30	10.58	
2025-01-17 15:47:39.04	28.13	10.57	
2025-01-17 15:47:39.85	27.96	10.56	
2025-01-17 15:47:40.67	27.79	10.56	
2025-01-17 15:47:41.48	27.63	10.55	
2025-01-17 15:47:42.29	27.46	10.54	
2025-01-17 15:47:43.10	27.29	10.53	
2025-01-17 15:47:43.91	27.12	10.52	
2025-01-17 15:47:44.73	26.95	10.51	
2025-01-17 15:47:45.54	26.79	10.50	
2025-01-17 15:47:46.35	26.62	10.49	
2025-01-17 15:47:47.16	26.45	10.48	
2025-01-17 15:47:47.98	26.28	10.47	
2025-01-17 15:47:48.79	26.12	10.46	
2025-01-17 15:47:49.60	25.95	10.45	
2025-01-17 15:47:50.41	25.78	10.44	
2025-01-17 15:47:51.23	25.61	10.43	
2025-01-17 15:47:52.04	25.45	10.42	
2025-01-17 15:47:52.85	25.28	10.41	
2025-01-17 15:47:53.66	25.12	10.40	
2025-01-17 15:47:54.47	24.95	10.39	
2025-01-17 15:47:55.29	24.78	10.37	
2025-01-17 15:47:56.10	24.62	10.36	
2025-01-17 15:47:56.91	24.45	10.35	
2025-01-17 15:47:57.72	24.29	10.34	
2025-01-17 15:47:58.54	24.12	10.33	
2025-01-17 15:47:59.35	23.95	10.31	
2025-01-17 15:48:00.16	23.79	10.30	
2025-01-17 15:48:00.97	23.63	10.29	
2025-01-17 15:48:01.79	23.46	10.27	
2025-01-17 15:48:02.60	23.29	10.26	
2025-01-17 15:48:03.41	23.13	10.24	
2025-01-17 15:48:04.22	22.97	10.23	
2025-01-17 15:48:05.04	22.80	10.22	
2025-01-17 15:48:05.85	22.64	10.20	
2025-01-17 15:48:06.66	22.47	10.19	
2025-01-17 15:48:07.47	22.31	10.17	
2025-01-17 15:48:08.28	22.15	10.16	
2025-01-17 15:48:09.10	21.98	10.14	
2025-01-17 15:48:09.91	21.82	10.13	
2025-01-17 15:48:10.72	21.66	10.11	
2025-01-17 15:48:11.53	21.50	10.09	
2025-01-17 15:48:12.35	21.33	10.08	
2025-01-17 15:48:13.16	21.17	10.06	
2025-01-17 15:48:13.97	21.01	10.04	
2025-01-17 15:48:14.78	20.85	10.03	
2025-01-17 15:48:15.60	20.68	10.01	
2025-01-17 15:48:16.41	20.52	9.99	
2025-01-17 15:48:17.22	20.36	9.98	
2025-01-17 15:48:18.03	20.20	9.96	
2025-01-17 15:48:18.84	20.04	9.94	
2025-01-17 15:48:19.66	19.88	9.92	
2025-01-17 15:48:20.47	19.72	9.90	
2025-01-17 15:48:21.28	19.56	9.89	
2025-01-17 15:48:22.09	19.40	9.87	
2025-01-17 15:48:22.91	19.24	9.85	
2025-01-17 15:48:23.72	19.08	9.83	
2025-01-17 15:48:24.53	18.92	9.81	
2025-01-17 15:48:25.34	18.76	9.79	
2025-01-17 15:48:26.16	18.60	9.77	
2025-01-17 15:48:26.97	18.44	9.75	
2025-01-17 15:48:27.78	18.29	9.73	
2025-01-17 15:48:28.59	18.13	9.71	
2025-01-17 15:48:29.41	17.97	9.69	
2025-01-17 15:48:30.22	17.81	9.67	
2025-01-17 15:48:31.03	17.66	9.65	
2025-01-17 15:48:31.84	17.50	9.63	
2025-01-17 15:48:32.65	17.34	9.61	
2025-01-17 15:48:33.47	17.18	9.59	
2025-01-17 15:48:34.28	17.03	9.57	
2025-01-17 15:48:35.09	16.87	9.55	
2025-01-17 15:48:35.90	16.72	9.53	
2025-01-17 15:48:36.72	16.56	9.50	
2025-01-17 15:48:37.53	16.41	9.48	
2025-01-17 15:48:38.34	16.25	9.46	
2025-01-17 15:48:39.15	16.10	9.44	
2025-01-17 15:48:39.97	15.94	9.42	
2025-01-17 15:48:40.78	15.79	9.39	
2025-01-17 15:48:41.59	15.63	9.37	
2025-01-17 15:48:42.40	15.48	9.35	
2025-01-17 15:48:43.22	15.32	9.32	
2025-01-17 15:48:44.03	15.17	9.30	
2025-01-17 15:48:44.84	15.02	9.28	
2025-01-17 15:48:45.65	14.87	9.25	
2025-01-17 15:48:46.46	14.71	9.23	
2025-01-17 15:48:47.28	14.56	9.21	
2025-01-17 15:48:48.09	14.41	9.18	
2025-01-17 15:48:48.90	14.26	9.16	
2025-01-17 15:48:49.71	14.11	9.13	
2025-01-17 15:48:50.53	13.96	9.11	
2025-01-17 15:48:51.34	13.80	9.09	
2025-01-17 15:48:52.15	13.65	9.06	
2025-01-17 15:48:52.96	13.51	9.04	
2025-01-17 15:48:53.78	13.35	9.01	
2025-01-17 15:48:54.59	13.20	8.99	
2025-01-17 15:48:55.40	13.06	8.96	
2025-01-17 15:48:56.21	12.91	8.93	
2025-01-17 15:48:57.02	12.76	8.91	
2025-01-17 15:48:57.84	12.61	8.88	
2025-01-17 15:48:58.65	12.46	8.86	
2025-01-17 15:48:59.46	12.31	8.83	
2025-01-17 15:49:00.27	12.17	8.81	
2025-01-17 15:49:01.09	12.02	8.78	
2025-01-17 15:49:01.90	11.87	8.75	
2025-01-17 15:49:02.71	11.72	8.73	
2025-01-17 15:49:03.52	11.58	8.70	
2025-01-17 15:49:04.34	11.43	8.67	
2025-01-17 15:49:05.15	11.29	8.64	
2025-01-17 15:49:05.96	11.14	8.62	
2025-01-17 15:49:06.77	11.00	8.59	
2025-01-17 15:49:07.59	10.85	8.56	
2025-01-17 15:49:08.40	10.71	8.54	
2025-01-17 15:49:09.21	10.56	8.51	
2025-01-17 15:49:10.02	10.42	8.48	
2025-01-17 15:49:10.83	10.27	8.45	
2025-01-17 15:49:11.65	10.13	8.42	
2025-01-17 15:49:12.46	9.99	8.40	
2025-01-17 15:49:13.27	9.84	8.37	
2025-01-17 15:49:14.08	9.70	8.34	
2025-01-17 15:49:14.90	9.56	8.31	
2025-01-17 15:49:15.71	9.42	8.28	
2025-01-17 15:49:16.52	9.28	8.25	
2025-01-17 15:49:17.33	9.14	8.22	
2025-01-17 15:49:18.15	8.99	8.20	
2025-01-17 15:49:18.96	8.85	8.17	
2025-01-17 15:49:19.77	8.71	8.14	
2025-01-17 15:49:20.58	8.57	8.11	
2025-01-17 15:49:21.39	8.43	8.08	
2025-01-17 15:49:22.21	8.29	8.05	
2025-01-17 15:49:23.02	8.15	8.02	
2025-01-17 15:49:23.83	8.02	7.99	
2025-01-17 15:49:24.64	7.88	7.96	
2025-01-17 15:49:25.46	7.74	7.93	
2025-01-17 15:49:26.27	7.60	7.90	
2025-01-17 15:49:27.08	7.46	7.87	
2025-01-17 15:49:27.89	7.33	7.84	
2025-01-17 15:49:28.71	7.19	7.81	
2025-01-17 15:49:29.52	7.05	7.78	
2025-01-17 15:49:30.33	6.92	7.75	
2025-01-17 15:49:31.14	6.78	7.72	
2025-01-17 15:49:31.96	6.64	7.68	
2025-01-17 15:49:32.77	6.51	7.65	
2025-01-17 15:49:33.58	6.37	7.62	
2025-01-17 15:49:34.39	6.24	7.59	
2025-01-17 15:49:35.20	6.11	7.56	
2025-01-17 15:49:36.02	5.97	7.53	
2025-01-17 15:49:36.83	5.84	7.50	
2025-01-17 15:49:37.64	5.70	7.47	
2025-01-17 15:49:38.45	5.57	7.43	
2025-01-17 15:49:39.27	5.44	7.40	
2025-01-17 15:49:40.08	5.31	7.37	
2025-01-17 15:49:40.89	5.17	7.34	
2025-01-17 15:49:41.70	5.04	7.31	
2025-01-17 15:49:42.52	4.91	7.27	
2025-01-17 15:49:43.33	4.78	7.24	
2025-01-17 15:49:44.14	4.65	7.21	
2025-01-17 15:49:44.95	4.52	7.18	
2025-01-17 15:49:45.76	4.39	7.15	
2025-01-17 15:49:46.58	4.26	7.11	
2025-01-17 15:49:47.39	4.13	7.08	
2025-01-17 15:49:48.20	4.00	7.05	
2025-01-17 15:49:49.01	3.87	7.02	
2025-01-17 15:49:49.83	3.74	6.98	
2025-01-17 15:49:50.64	3.61	6.95	
2025-01-17 15:49:51.45	3.49	6.92	
2025-01-17 15:49:52.26	3.36	6.88	
2025-01-17 15:49:53.08	3.23	6.85	
2025-01-17 15:49:53.89	3.10	6.82	
2025-01-17 15:49:54.70	2.98	6.78	
2025-01-17 15:49:55.51	2.85	6.75	
2025-01-17 15:49:56.33	2.72	6.72	
2025-01-17 15:49:57.14	2.60	6.68	
2025-01-17 15:49:57.95	2.47	6.65	
2025-01-17 15:49:58.76	2.35	6.62	
2025-01-17 15:49:59.57	2.23	6.58	
2025-01-17 15:50:00.39	2.10	6.55	
2025-01-17 15:50:01.21	1.97	6.51	
2025-01-17 15:50:02.03	1.85	6.48	
2025-01-17 15:50:02.84	1.73	6.45	
2025-01-17 15:50:03.65	1.60	6.41	
2025-01-17 15:50:04.46	1.48	6.38	
2025-01-17 15:50:05.28	1.36	6.34	
2025-01-17 15:50:06.09	1.24	6.31	
2025-01-17 15:50:06.90	1.12	6.27	
2025-01-17 15:50:07.71	0.99	6.24	
2025-01-17 15:50:08.53	0.87	6.20	
2025-01-17 15:50:09.34	0.75	6.17	
2025-01-17 15:50:10.15	0.63	6.14	
2025-01-17 15:50:10.96	0.51	6.10	
2025-01-17 15:50:11.78	0.39	6.07	
2025-01-17 15:50:12.59	0.27	6.03	
2025-01-17 15:50:13.40	0.15	6.00	
2025-01-17 15:50:14.21	0.03	5.96	
2025-01-17 15:50:15.02	359.92	5.93	
2025-01-17 15:50:15.84	359.80	5.89	
2025-01-17 15:50:16.65	359.68	5.86	
2025-01-17 15:50:17.46	359.56	5.82	
2025-01-17 15:50:18.27	359.44	5.79	
2025-01-17 15:50:19.09	359.33	5.75	
2025-01-17 15:50:19.90	359.21	5.72	
2025-01-17 15:50:20.71	359.09	5.68	
2025-01-17 15:50:21.52	358.98	5.65	
2025-01-17 15:50:22.34	358.86	5.61	
2025-01-17 15:50:23.15	358.75	5.57	
2025-01-17 15:50:23.96	358.63	5.54	
2025-01-17 15:50:24.77	358.52	5.50	
2025-01-17 15:50:25.58	358.40	5.47	
2025-01-17 15:50:26.40	358.29	5.43	
2025-01-17 15:50:27.21	358.17	5.40	
2025-01-17 15:50:28.02	358.06	5.36	
2025-01-17 15:50:28.83	357.95	5.32	
2025-01-17 15:50:29.65	357.83	5.29	
2025-01-17 15:50:30.46	357.72	5.25	
2025-01-17 15:50:31.27	357.61	5.22	
2025-01-17 15:50:32.08	357.50	5.18	
2025-01-17 15:50:32.90	357.38	5.14	
2025-01-17 15:50:33.71	357.27	5.11	
2025-01-17 15:50:34.52	357.16	5.07	
2025-01-17 15:50:35.33	357.05	5.04	
2025-01-17 15:50:36.15	356.94	5.00	
2025-01-17 15:50:36.96	356.83	4.96	
2025-01-17 15:50:37.77	356.72	4.93	
2025-01-17 15:50:38.58	356.61	4.89	
2025-01-17 15:50:39.39	356.50	4.86	
2025-01-17 15:50:40.21	356.39	4.82	
2025-01-17 15:50:41.02	356.28	4.78	
2025-01-17 15:50:41.83	356.18	4.75	
2025-01-17 15:50:42.64	356.07	4.71	
2025-01-17 15:50:43.46	355.96	4.67	
2025-01-17 15:50:44.27	355.85	4.64	
2025-01-17 15:50:45.08	355.75	4.60	
2025-01-17 15:50:45.89	355.64	4.56	
2025-01-17 15:50:46.71	355.53	4.53	
2025-01-17 15:50:47.52	355.43	4.49	
2025-01-17 15:50:48.33	355.32	4.45	
2025-01-17 15:50:49.14	355.21	4.42	
2025-01-17 15:50:49.95	355.11	4.38	
2025-01-17 15:50:50.77	355.00	4.34	
2025-01-17 15:50:51.58	354.90	4.31	
2025-01-17 15:50:52.39	354.79	4.27	
2025-01-17 15:50:53.20	354.69	4.23	
2025-01-17 15:50:54.02	354.59	4.20	
2025-01-17 15:50:54.83	354.48	4.16	
2025-01-17 15:50:55.64	354.38	4.12	
2025-01-17 15:50:56.45	354.28	4.08	
2025-01-17 15:50:57.27	354.17	4.05	
2025-01-17 15:50:58.08	354.07	4.01	

#Closed at: 2025-01-17 15:50:58