passes_logs/2025/01/17/SPB_Silybum_02/SPB_Silybum_02__20250117_075031_SUOMI_NPP_rec.log

#Pass ID: 20250117_075031_SUOMI NPP
#Satellite: SUOMI NPP
#Configuration: NPP
#Start time: 2025-01-17 07:52:42

#Version: 2.0.20230423
#Station: SPB_Silybum_02
#Location: 30.233357 lon 59.946436 lat
#TLE: 1 37849U 11061A   25016.82296503  .00000177  00000+0  10458-3 0  9994
#TLE: 2 37849  98.7449 317.7884 0001611  38.3630 321.7660 14.19539095685172

#Time	Az	El	Level	Level2	SNR	BER	Gain	Gain2
2025-01-17 07:52:44.13	73.53	11.35	
2025-01-17 07:52:44.94	73.41	11.39	
2025-01-17 07:52:45.76	73.29	11.43	
2025-01-17 07:52:46.57	73.16	11.48	
2025-01-17 07:52:47.38	73.04	11.52	
2025-01-17 07:52:48.19	72.91	11.56	
2025-01-17 07:52:49.01	72.79	11.61	
2025-01-17 07:52:49.82	72.66	11.65	
2025-01-17 07:52:50.63	72.53	11.69	
2025-01-17 07:52:51.44	72.41	11.74	
2025-01-17 07:52:52.26	72.28	11.78	
2025-01-17 07:52:53.07	72.15	11.82	
2025-01-17 07:52:53.88	72.02	11.87	
2025-01-17 07:52:54.69	71.90	11.91	
2025-01-17 07:52:55.51	71.77	11.95	
2025-01-17 07:52:56.32	71.64	12.00	
2025-01-17 07:52:57.13	71.51	12.04	
2025-01-17 07:52:57.94	71.38	12.08	
2025-01-17 07:52:58.76	71.25	12.13	
2025-01-17 07:52:59.57	71.12	12.17	
2025-01-17 07:53:00.38	70.99	12.21	
2025-01-17 07:53:01.19	70.86	12.25	
2025-01-17 07:53:02.01	70.72	12.30	
2025-01-17 07:53:02.82	70.59	12.34	
2025-01-17 07:53:03.63	70.46	12.38	
2025-01-17 07:53:04.44	70.33	12.42	
2025-01-17 07:53:05.26	70.19	12.46	
2025-01-17 07:53:06.07	70.06	12.51	
2025-01-17 07:53:06.88	69.93	12.55	
2025-01-17 07:53:07.69	69.79	12.59	
2025-01-17 07:53:08.51	69.66	12.63	
2025-01-17 07:53:09.32	69.52	12.67	
2025-01-17 07:53:10.13	69.39	12.72	
2025-01-17 07:53:10.94	69.25	12.76	
2025-01-17 07:53:11.76	69.11	12.80	
2025-01-17 07:53:12.57	68.98	12.84	
2025-01-17 07:53:13.38	68.84	12.88	
2025-01-17 07:53:14.19	68.70	12.92	
2025-01-17 07:53:15.01	68.56	12.96	
2025-01-17 07:53:15.82	68.42	13.00	
2025-01-17 07:53:16.63	68.29	13.05	
2025-01-17 07:53:17.44	68.15	13.09	
2025-01-17 07:53:18.26	68.01	13.13	
2025-01-17 07:53:19.07	67.87	13.17	
2025-01-17 07:53:19.88	67.73	13.21	
2025-01-17 07:53:20.69	67.59	13.25	
2025-01-17 07:53:21.50	67.45	13.29	
2025-01-17 07:53:22.32	67.30	13.33	
2025-01-17 07:53:23.13	67.16	13.37	
2025-01-17 07:53:23.94	67.02	13.41	
2025-01-17 07:53:24.75	66.88	13.45	
2025-01-17 07:53:25.57	66.73	13.49	
2025-01-17 07:53:26.38	66.59	13.53	
2025-01-17 07:53:27.19	66.45	13.57	
2025-01-17 07:53:28.00	66.30	13.61	
2025-01-17 07:53:28.82	66.16	13.65	
2025-01-17 07:53:29.63	66.01	13.69	
2025-01-17 07:53:30.44	65.87	13.72	
2025-01-17 07:53:31.25	65.72	13.76	
2025-01-17 07:53:32.07	65.58	13.80	
2025-01-17 07:53:32.88	65.43	13.84	
2025-01-17 07:53:33.69	65.28	13.88	
2025-01-17 07:53:34.50	65.14	13.92	
2025-01-17 07:53:35.32	64.99	13.96	
2025-01-17 07:53:36.13	64.84	13.99	
2025-01-17 07:53:36.94	64.69	14.03	
2025-01-17 07:53:37.75	64.55	14.07	
2025-01-17 07:53:38.57	64.39	14.11	
2025-01-17 07:53:39.38	64.25	14.15	
2025-01-17 07:53:40.19	64.10	14.18	
2025-01-17 07:53:41.00	63.95	14.22	
2025-01-17 07:53:41.82	63.79	14.26	
2025-01-17 07:53:42.63	63.64	14.29	
2025-01-17 07:53:43.44	63.49	14.33	
2025-01-17 07:53:44.25	63.34	14.37	
2025-01-17 07:53:45.07	63.19	14.41	
2025-01-17 07:53:45.88	63.04	14.44	
2025-01-17 07:53:46.69	62.88	14.48	
2025-01-17 07:53:47.50	62.73	14.51	
2025-01-17 07:53:48.32	62.58	14.55	
2025-01-17 07:53:49.13	62.42	14.59	
2025-01-17 07:53:49.94	62.27	14.62	
2025-01-17 07:53:50.75	62.11	14.66	
2025-01-17 07:53:51.57	61.96	14.69	
2025-01-17 07:53:52.38	61.80	14.73	
2025-01-17 07:53:53.19	61.65	14.76	
2025-01-17 07:53:54.00	61.49	14.80	
2025-01-17 07:53:54.82	61.33	14.83	
2025-01-17 07:53:55.63	61.18	14.87	
2025-01-17 07:53:56.44	61.02	14.90	
2025-01-17 07:53:57.25	60.86	14.94	
2025-01-17 07:53:58.07	60.70	14.97	
2025-01-17 07:53:58.88	60.54	15.00	
2025-01-17 07:53:59.69	60.39	15.04	
2025-01-17 07:54:00.50	60.23	15.07	
2025-01-17 07:54:01.31	60.07	15.10	
2025-01-17 07:54:02.13	59.91	15.14	
2025-01-17 07:54:02.94	59.75	15.17	
2025-01-17 07:54:03.75	59.59	15.20	
2025-01-17 07:54:04.56	59.43	15.24	
2025-01-17 07:54:05.38	59.26	15.27	
2025-01-17 07:54:06.19	59.10	15.30	
2025-01-17 07:54:07.00	58.94	15.33	
2025-01-17 07:54:07.81	58.78	15.37	
2025-01-17 07:54:08.63	58.61	15.40	
2025-01-17 07:54:09.44	58.45	15.43	
2025-01-17 07:54:10.25	58.29	15.46	
2025-01-17 07:54:11.06	58.13	15.49	
2025-01-17 07:54:11.88	57.96	15.52	
2025-01-17 07:54:12.69	57.80	15.55	
2025-01-17 07:54:13.50	57.63	15.58	
2025-01-17 07:54:14.31	57.47	15.61	
2025-01-17 07:54:15.13	57.30	15.64	
2025-01-17 07:54:15.94	57.13	15.67	
2025-01-17 07:54:16.75	56.97	15.70	
2025-01-17 07:54:17.56	56.80	15.73	
2025-01-17 07:54:18.38	56.63	15.76	
2025-01-17 07:54:19.19	56.47	15.79	
2025-01-17 07:54:20.00	56.30	15.82	
2025-01-17 07:54:20.81	56.13	15.85	
2025-01-17 07:54:21.63	55.96	15.88	
2025-01-17 07:54:22.44	55.80	15.91	
2025-01-17 07:54:23.25	55.63	15.93	
2025-01-17 07:54:24.06	55.46	15.96	
2025-01-17 07:54:24.88	55.29	15.99	
2025-01-17 07:54:25.69	55.12	16.02	
2025-01-17 07:54:26.50	54.95	16.04	
2025-01-17 07:54:27.31	54.78	16.07	
2025-01-17 07:54:28.13	54.61	16.10	
2025-01-17 07:54:28.94	54.44	16.12	
2025-01-17 07:54:29.75	54.27	16.15	
2025-01-17 07:54:30.56	54.09	16.18	
2025-01-17 07:54:31.38	53.92	16.20	
2025-01-17 07:54:32.19	53.75	16.23	
2025-01-17 07:54:33.00	53.58	16.25	
2025-01-17 07:54:33.81	53.41	16.28	
2025-01-17 07:54:34.63	53.23	16.30	
2025-01-17 07:54:35.44	53.06	16.33	
2025-01-17 07:54:36.25	52.89	16.35	
2025-01-17 07:54:37.06	52.71	16.38	
2025-01-17 07:54:37.88	52.54	16.40	
2025-01-17 07:54:38.69	52.36	16.42	
2025-01-17 07:54:39.50	52.19	16.45	
2025-01-17 07:54:40.31	52.01	16.47	
2025-01-17 07:54:41.12	51.84	16.49	
2025-01-17 07:54:41.94	51.66	16.52	
2025-01-17 07:54:42.75	51.49	16.54	
2025-01-17 07:54:43.56	51.31	16.56	
2025-01-17 07:54:44.37	51.14	16.58	
2025-01-17 07:54:45.19	50.96	16.60	
2025-01-17 07:54:46.00	50.78	16.63	
2025-01-17 07:54:46.81	50.60	16.65	
2025-01-17 07:54:47.62	50.43	16.67	
2025-01-17 07:54:48.44	50.25	16.69	
2025-01-17 07:54:49.25	50.07	16.71	
2025-01-17 07:54:50.06	49.89	16.73	
2025-01-17 07:54:50.87	49.72	16.75	
2025-01-17 07:54:51.69	49.54	16.77	
2025-01-17 07:54:52.50	49.36	16.79	
2025-01-17 07:54:53.31	49.18	16.81	
2025-01-17 07:54:54.12	49.00	16.82	
2025-01-17 07:54:54.94	48.82	16.84	
2025-01-17 07:54:55.75	48.64	16.86	
2025-01-17 07:54:56.56	48.46	16.88	
2025-01-17 07:54:57.37	48.28	16.90	
2025-01-17 07:54:58.19	48.10	16.91	
2025-01-17 07:54:59.00	47.92	16.93	
2025-01-17 07:54:59.81	47.74	16.95	
2025-01-17 07:55:00.62	47.56	16.96	
2025-01-17 07:55:01.44	47.38	16.98	
2025-01-17 07:55:02.25	47.20	17.00	
2025-01-17 07:55:03.06	47.02	17.01	
2025-01-17 07:55:03.87	46.83	17.03	
2025-01-17 07:55:04.69	46.65	17.04	
2025-01-17 07:55:05.50	46.47	17.06	
2025-01-17 07:55:06.31	46.29	17.07	
2025-01-17 07:55:07.12	46.11	17.09	
2025-01-17 07:55:07.94	45.92	17.10	
2025-01-17 07:55:08.75	45.74	17.11	
2025-01-17 07:55:09.56	45.56	17.13	
2025-01-17 07:55:10.37	45.38	17.14	
2025-01-17 07:55:11.19	45.19	17.15	
2025-01-17 07:55:12.00	45.01	17.16	
2025-01-17 07:55:12.81	44.83	17.18	
2025-01-17 07:55:13.62	44.64	17.19	
2025-01-17 07:55:14.44	44.46	17.20	
2025-01-17 07:55:15.25	44.27	17.21	
2025-01-17 07:55:16.06	44.09	17.22	
2025-01-17 07:55:16.87	43.91	17.23	
2025-01-17 07:55:17.69	43.72	17.24	
2025-01-17 07:55:18.50	43.54	17.25	
2025-01-17 07:55:19.31	43.35	17.26	
2025-01-17 07:55:20.12	43.17	17.27	
2025-01-17 07:55:20.93	42.99	17.28	
2025-01-17 07:55:21.75	42.80	17.29	
2025-01-17 07:55:22.56	42.61	17.30	
2025-01-17 07:55:23.37	42.43	17.31	
2025-01-17 07:55:24.18	42.25	17.32	
2025-01-17 07:55:25.00	42.06	17.32	
2025-01-17 07:55:25.81	41.87	17.33	
2025-01-17 07:55:26.62	41.69	17.34	
2025-01-17 07:55:27.43	41.50	17.34	
2025-01-17 07:55:28.25	41.32	17.35	
2025-01-17 07:55:29.06	41.13	17.36	
2025-01-17 07:55:29.87	40.95	17.36	
2025-01-17 07:55:30.68	40.76	17.37	
2025-01-17 07:55:31.50	40.57	17.37	
2025-01-17 07:55:32.31	40.39	17.38	
2025-01-17 07:55:33.12	40.20	17.38	
2025-01-17 07:55:33.93	40.02	17.39	
2025-01-17 07:55:34.75	39.83	17.39	
2025-01-17 07:55:35.56	39.64	17.39	
2025-01-17 07:55:36.37	39.46	17.40	
2025-01-17 07:55:37.18	39.27	17.40	
2025-01-17 07:55:38.00	39.09	17.40	
2025-01-17 07:55:38.81	38.90	17.41	
2025-01-17 07:55:39.62	38.71	17.41	
2025-01-17 07:55:40.43	38.53	17.41	
2025-01-17 07:55:41.25	38.34	17.41	
2025-01-17 07:55:42.06	38.15	17.41	
2025-01-17 07:55:42.87	37.97	17.41	
2025-01-17 07:55:43.68	37.78	17.41	
2025-01-17 07:55:44.50	37.59	17.41	
2025-01-17 07:55:45.31	37.41	17.41	
2025-01-17 07:55:46.12	37.22	17.41	
2025-01-17 07:55:46.93	37.04	17.41	
2025-01-17 07:55:47.75	36.85	17.41	
2025-01-17 07:55:48.56	36.66	17.41	
2025-01-17 07:55:49.37	36.48	17.41	
2025-01-17 07:55:50.18	36.29	17.41	
2025-01-17 07:55:51.00	36.10	17.41	
2025-01-17 07:55:51.81	35.92	17.40	
2025-01-17 07:55:52.62	35.73	17.40	
2025-01-17 07:55:53.43	35.55	17.40	
2025-01-17 07:55:54.25	35.36	17.39	
2025-01-17 07:55:55.06	35.17	17.39	
2025-01-17 07:55:55.87	34.99	17.39	
2025-01-17 07:55:56.68	34.80	17.38	
2025-01-17 07:55:57.50	34.62	17.38	
2025-01-17 07:55:58.31	34.43	17.37	
2025-01-17 07:55:59.12	34.25	17.37	
2025-01-17 07:55:59.93	34.06	17.36	
2025-01-17 07:56:00.75	33.87	17.35	
2025-01-17 07:56:01.56	33.69	17.35	
2025-01-17 07:56:02.37	33.50	17.34	
2025-01-17 07:56:03.18	33.32	17.33	
2025-01-17 07:56:03.99	33.13	17.33	
2025-01-17 07:56:04.81	32.95	17.32	
2025-01-17 07:56:05.62	32.76	17.31	
2025-01-17 07:56:06.43	32.58	17.30	
2025-01-17 07:56:07.24	32.39	17.30	
2025-01-17 07:56:08.06	32.21	17.29	
2025-01-17 07:56:08.87	32.02	17.28	
2025-01-17 07:56:09.68	31.84	17.27	
2025-01-17 07:56:10.49	31.66	17.26	
2025-01-17 07:56:11.31	31.47	17.25	
2025-01-17 07:56:12.12	31.29	17.24	
2025-01-17 07:56:12.93	31.10	17.23	
2025-01-17 07:56:13.74	30.92	17.22	
2025-01-17 07:56:14.56	30.73	17.21	
2025-01-17 07:56:15.37	30.55	17.20	
2025-01-17 07:56:16.18	30.37	17.18	
2025-01-17 07:56:16.99	30.19	17.17	
2025-01-17 07:56:17.81	30.00	17.16	
2025-01-17 07:56:18.62	29.82	17.15	
2025-01-17 07:56:19.43	29.64	17.13	
2025-01-17 07:56:20.24	29.45	17.12	
2025-01-17 07:56:21.06	29.27	17.11	
2025-01-17 07:56:21.87	29.09	17.09	
2025-01-17 07:56:22.68	28.91	17.08	
2025-01-17 07:56:23.49	28.72	17.07	
2025-01-17 07:56:24.31	28.54	17.05	
2025-01-17 07:56:25.12	28.36	17.04	
2025-01-17 07:56:25.93	28.18	17.02	
2025-01-17 07:56:26.74	28.00	17.01	
2025-01-17 07:56:27.56	27.82	16.99	
2025-01-17 07:56:28.37	27.64	16.97	
2025-01-17 07:56:29.18	27.45	16.96	
2025-01-17 07:56:29.99	27.28	16.94	
2025-01-17 07:56:30.81	27.09	16.92	
2025-01-17 07:56:31.62	26.91	16.91	
2025-01-17 07:56:32.43	26.73	16.89	
2025-01-17 07:56:33.24	26.56	16.87	
2025-01-17 07:56:34.06	26.37	16.85	
2025-01-17 07:56:34.87	26.20	16.84	
2025-01-17 07:56:35.68	26.02	16.82	
2025-01-17 07:56:36.49	25.84	16.80	
2025-01-17 07:56:37.31	25.66	16.78	
2025-01-17 07:56:38.12	25.48	16.76	
2025-01-17 07:56:38.93	25.30	16.74	
2025-01-17 07:56:39.74	25.13	16.72	
2025-01-17 07:56:40.56	24.95	16.70	
2025-01-17 07:56:41.37	24.77	16.68	
2025-01-17 07:56:42.18	24.59	16.66	
2025-01-17 07:56:42.99	24.42	16.64	
2025-01-17 07:56:43.80	24.24	16.62	
2025-01-17 07:56:44.62	24.06	16.60	
2025-01-17 07:56:45.43	23.89	16.57	
2025-01-17 07:56:46.24	23.71	16.55	
2025-01-17 07:56:47.05	23.54	16.53	
2025-01-17 07:56:47.87	23.36	16.51	
2025-01-17 07:56:48.68	23.19	16.49	
2025-01-17 07:56:49.49	23.01	16.46	
2025-01-17 07:56:50.30	22.84	16.44	
2025-01-17 07:56:51.12	22.66	16.42	
2025-01-17 07:56:51.93	22.49	16.39	
2025-01-17 07:56:52.74	22.32	16.37	
2025-01-17 07:56:53.55	22.14	16.34	
2025-01-17 07:56:54.37	21.97	16.32	
2025-01-17 07:56:55.18	21.80	16.30	
2025-01-17 07:56:55.99	21.62	16.27	
2025-01-17 07:56:56.80	21.45	16.25	
2025-01-17 07:56:57.62	21.28	16.22	
2025-01-17 07:56:58.43	21.11	16.19	
2025-01-17 07:56:59.24	20.94	16.17	
2025-01-17 07:57:00.05	20.77	16.14	
2025-01-17 07:57:00.87	20.59	16.12	
2025-01-17 07:57:01.68	20.42	16.09	
2025-01-17 07:57:02.49	20.25	16.06	
2025-01-17 07:57:03.30	20.08	16.04	
2025-01-17 07:57:04.12	19.91	16.01	
2025-01-17 07:57:04.93	19.74	15.98	
2025-01-17 07:57:05.74	19.58	15.95	
2025-01-17 07:57:06.55	19.41	15.93	
2025-01-17 07:57:07.37	19.24	15.90	
2025-01-17 07:57:08.18	19.07	15.87	
2025-01-17 07:57:08.99	18.90	15.84	
2025-01-17 07:57:09.80	18.74	15.81	
2025-01-17 07:57:10.62	18.57	15.78	
2025-01-17 07:57:11.43	18.40	15.75	
2025-01-17 07:57:12.24	18.24	15.73	
2025-01-17 07:57:13.05	18.07	15.70	
2025-01-17 07:57:13.87	17.90	15.67	
2025-01-17 07:57:14.68	17.74	15.64	
2025-01-17 07:57:15.49	17.58	15.61	
2025-01-17 07:57:16.30	17.41	15.58	
2025-01-17 07:57:17.12	17.25	15.54	
2025-01-17 07:57:17.93	17.08	15.51	
2025-01-17 07:57:18.74	16.92	15.48	
2025-01-17 07:57:19.55	16.76	15.45	
2025-01-17 07:57:20.37	16.59	15.42	
2025-01-17 07:57:21.18	16.43	15.39	
2025-01-17 07:57:21.99	16.27	15.36	
2025-01-17 07:57:22.80	16.11	15.33	
2025-01-17 07:57:23.61	15.95	15.29	
2025-01-17 07:57:24.43	15.78	15.26	
2025-01-17 07:57:25.24	15.62	15.23	
2025-01-17 07:57:26.05	15.46	15.20	
2025-01-17 07:57:26.86	15.30	15.16	
2025-01-17 07:57:27.68	15.14	15.13	
2025-01-17 07:57:28.49	14.98	15.10	
2025-01-17 07:57:29.30	14.83	15.06	
2025-01-17 07:57:30.11	14.67	15.03	
2025-01-17 07:57:30.93	14.51	15.00	
2025-01-17 07:57:31.74	14.35	14.96	
2025-01-17 07:57:32.55	14.19	14.93	
2025-01-17 07:57:33.36	14.04	14.89	
2025-01-17 07:57:34.18	13.88	14.86	
2025-01-17 07:57:34.99	13.72	14.82	
2025-01-17 07:57:35.80	13.57	14.79	
2025-01-17 07:57:36.61	13.41	14.76	
2025-01-17 07:57:37.43	13.26	14.72	
2025-01-17 07:57:38.24	13.10	14.68	
2025-01-17 07:57:39.05	12.95	14.65	
2025-01-17 07:57:39.86	12.79	14.61	
2025-01-17 07:57:40.68	12.64	14.58	
2025-01-17 07:57:41.49	12.49	14.54	
2025-01-17 07:57:42.30	12.33	14.51	
2025-01-17 07:57:43.11	12.18	14.47	
2025-01-17 07:57:43.93	12.03	14.43	
2025-01-17 07:57:44.74	11.88	14.40	
2025-01-17 07:57:45.55	11.72	14.36	
2025-01-17 07:57:46.36	11.57	14.32	
2025-01-17 07:57:47.18	11.42	14.29	
2025-01-17 07:57:47.99	11.27	14.25	
2025-01-17 07:57:48.80	11.12	14.21	
2025-01-17 07:57:49.61	10.97	14.18	
2025-01-17 07:57:50.43	10.82	14.14	
2025-01-17 07:57:51.24	10.67	14.10	
2025-01-17 07:57:52.05	10.53	14.06	
2025-01-17 07:57:52.86	10.38	14.02	
2025-01-17 07:57:53.68	10.23	13.99	
2025-01-17 07:57:54.49	10.08	13.95	
2025-01-17 07:57:55.30	9.94	13.91	
2025-01-17 07:57:56.11	9.79	13.87	
2025-01-17 07:57:56.93	9.64	13.83	
2025-01-17 07:57:57.74	9.50	13.79	
2025-01-17 07:57:58.55	9.35	13.76	
2025-01-17 07:57:59.36	9.21	13.72	
2025-01-17 07:58:00.18	9.06	13.68	
2025-01-17 07:58:00.99	8.92	13.64	
2025-01-17 07:58:01.80	8.78	13.60	
2025-01-17 07:58:02.61	8.63	13.56	
2025-01-17 07:58:03.42	8.49	13.52	
2025-01-17 07:58:04.24	8.35	13.48	
2025-01-17 07:58:05.05	8.20	13.44	
2025-01-17 07:58:05.86	8.06	13.40	
2025-01-17 07:58:06.67	7.92	13.36	
2025-01-17 07:58:07.49	7.78	13.32	
2025-01-17 07:58:08.30	7.64	13.28	
2025-01-17 07:58:09.11	7.50	13.24	
2025-01-17 07:58:09.92	7.36	13.20	
2025-01-17 07:58:10.74	7.22	13.16	
2025-01-17 07:58:11.55	7.08	13.12	
2025-01-17 07:58:12.36	6.94	13.08	
2025-01-17 07:58:13.17	6.80	13.04	
2025-01-17 07:58:13.99	6.66	13.00	
2025-01-17 07:58:14.80	6.53	12.96	
2025-01-17 07:58:15.61	6.39	12.92	
2025-01-17 07:58:16.42	6.25	12.88	
2025-01-17 07:58:17.24	6.12	12.83	
2025-01-17 07:58:18.05	5.98	12.79	
2025-01-17 07:58:18.86	5.85	12.75	
2025-01-17 07:58:19.67	5.71	12.71	
2025-01-17 07:58:20.49	5.58	12.67	
2025-01-17 07:58:21.30	5.44	12.63	
2025-01-17 07:58:22.11	5.31	12.59	
2025-01-17 07:58:22.92	5.17	12.54	
2025-01-17 07:58:23.74	5.04	12.50	
2025-01-17 07:58:24.55	4.91	12.46	
2025-01-17 07:58:25.36	4.77	12.42	
2025-01-17 07:58:26.17	4.64	12.38	
2025-01-17 07:58:26.99	4.51	12.33	
2025-01-17 07:58:27.80	4.38	12.29	
2025-01-17 07:58:28.61	4.25	12.25	
2025-01-17 07:58:29.42	4.12	12.21	
2025-01-17 07:58:30.24	3.99	12.16	
2025-01-17 07:58:31.05	3.86	12.12	
2025-01-17 07:58:31.86	3.73	12.08	
2025-01-17 07:58:32.67	3.60	12.04	
2025-01-17 07:58:33.49	3.47	11.99	
2025-01-17 07:58:34.30	3.34	11.95	
2025-01-17 07:58:35.11	3.21	11.91	
2025-01-17 07:58:35.92	3.09	11.86	
2025-01-17 07:58:36.74	2.96	11.82	
2025-01-17 07:58:37.55	2.83	11.78	
2025-01-17 07:58:38.36	2.71	11.73	
2025-01-17 07:58:39.17	2.58	11.69	
2025-01-17 07:58:39.99	2.45	11.65	
2025-01-17 07:58:40.80	2.33	11.61	
2025-01-17 07:58:41.61	2.21	11.56	
2025-01-17 07:58:42.42	2.08	11.52	
2025-01-17 07:58:43.23	1.96	11.48	
2025-01-17 07:58:44.05	1.83	11.43	
2025-01-17 07:58:44.86	1.71	11.39	
2025-01-17 07:58:45.67	1.59	11.34	
2025-01-17 07:58:46.48	1.46	11.30	
2025-01-17 07:58:47.30	1.34	11.26	
2025-01-17 07:58:48.11	1.22	11.21	
2025-01-17 07:58:48.92	1.10	11.17	
2025-01-17 07:58:49.73	0.98	11.13	
2025-01-17 07:58:50.55	0.86	11.08	
2025-01-17 07:58:51.36	0.74	11.04	
2025-01-17 07:58:52.17	0.62	10.99	
2025-01-17 07:58:52.98	0.50	10.95	
2025-01-17 07:58:53.80	0.38	10.90	
2025-01-17 07:58:54.61	0.26	10.86	
2025-01-17 07:58:55.42	0.14	10.82	
2025-01-17 07:58:56.23	0.02	10.77	
2025-01-17 07:58:57.05	359.90	10.73	
2025-01-17 07:58:57.86	359.79	10.68	
2025-01-17 07:58:58.67	359.67	10.64	
2025-01-17 07:58:59.48	359.55	10.59	
2025-01-17 07:59:00.30	359.44	10.55	
2025-01-17 07:59:01.11	359.32	10.51	
2025-01-17 07:59:01.92	359.20	10.46	
2025-01-17 07:59:02.73	359.09	10.42	
2025-01-17 07:59:03.55	358.97	10.37	
2025-01-17 07:59:04.36	358.86	10.33	
2025-01-17 07:59:05.17	358.75	10.28	
2025-01-17 07:59:05.98	358.63	10.24	
2025-01-17 07:59:06.80	358.52	10.19	
2025-01-17 07:59:07.61	358.40	10.15	
2025-01-17 07:59:08.42	358.29	10.10	
2025-01-17 07:59:09.23	358.18	10.06	
2025-01-17 07:59:10.05	358.07	10.01	
2025-01-17 07:59:10.86	357.96	9.97	
2025-01-17 07:59:11.67	357.84	9.92	
2025-01-17 07:59:12.48	357.73	9.88	
2025-01-17 07:59:13.30	357.62	9.83	
2025-01-17 07:59:14.11	357.51	9.79	
2025-01-17 07:59:14.92	357.40	9.75	
2025-01-17 07:59:15.73	357.29	9.70	
2025-01-17 07:59:16.55	357.18	9.66	
2025-01-17 07:59:17.36	357.07	9.61	
2025-01-17 07:59:18.17	356.97	9.57	
2025-01-17 07:59:18.98	356.86	9.52	
2025-01-17 07:59:19.80	356.75	9.48	
2025-01-17 07:59:20.61	356.64	9.43	
2025-01-17 07:59:21.42	356.53	9.39	
2025-01-17 07:59:22.23	356.43	9.34	
2025-01-17 07:59:23.04	356.32	9.30	
2025-01-17 07:59:23.86	356.21	9.25	
2025-01-17 07:59:24.67	356.11	9.20	
2025-01-17 07:59:25.48	356.00	9.16	
2025-01-17 07:59:26.29	355.90	9.11	
2025-01-17 07:59:27.11	355.79	9.07	
2025-01-17 07:59:27.92	355.69	9.02	
2025-01-17 07:59:28.73	355.59	8.98	
2025-01-17 07:59:29.54	355.48	8.93	
2025-01-17 07:59:30.36	355.38	8.89	
2025-01-17 07:59:31.17	355.27	8.84	
2025-01-17 07:59:31.98	355.17	8.80	
2025-01-17 07:59:32.79	355.07	8.75	
2025-01-17 07:59:33.61	354.97	8.71	
2025-01-17 07:59:34.42	354.86	8.66	
2025-01-17 07:59:35.23	354.76	8.62	
2025-01-17 07:59:36.04	354.66	8.57	
2025-01-17 07:59:36.86	354.56	8.53	
2025-01-17 07:59:37.67	354.46	8.48	
2025-01-17 07:59:38.48	354.36	8.44	
2025-01-17 07:59:39.29	354.26	8.39	
2025-01-17 07:59:40.11	354.16	8.35	
2025-01-17 07:59:40.92	354.06	8.30	
2025-01-17 07:59:41.73	353.96	8.25	
2025-01-17 07:59:42.54	353.86	8.21	
2025-01-17 07:59:43.36	353.76	8.16	
2025-01-17 07:59:44.17	353.67	8.12	
2025-01-17 07:59:44.98	353.57	8.07	
2025-01-17 07:59:45.79	353.47	8.03	
2025-01-17 07:59:46.61	353.37	7.98	
2025-01-17 07:59:47.42	353.28	7.94	
2025-01-17 07:59:48.23	353.18	7.89	
2025-01-17 07:59:49.04	353.09	7.85	
2025-01-17 07:59:49.86	352.99	7.80	
2025-01-17 07:59:50.67	352.89	7.76	
2025-01-17 07:59:51.48	352.80	7.71	
2025-01-17 07:59:52.29	352.70	7.67	
2025-01-17 07:59:53.11	352.61	7.62	
2025-01-17 07:59:53.92	352.51	7.58	
2025-01-17 07:59:54.73	352.42	7.53	
2025-01-17 07:59:55.54	352.33	7.49	
2025-01-17 07:59:56.36	352.23	7.44	
2025-01-17 07:59:57.17	352.14	7.39	
2025-01-17 07:59:57.98	352.05	7.35	
2025-01-17 07:59:58.80	351.95	7.30	
2025-01-17 07:59:59.62	351.86	7.26	
2025-01-17 08:00:00.43	351.77	7.21	
2025-01-17 08:00:01.24	351.68	7.17	
2025-01-17 08:00:02.05	351.59	7.12	
2025-01-17 08:00:02.87	351.49	7.08	
2025-01-17 08:00:03.68	351.40	7.03	
2025-01-17 08:00:04.49	351.31	6.99	
2025-01-17 08:00:05.30	351.22	6.94	
2025-01-17 08:00:06.12	351.13	6.90	
2025-01-17 08:00:06.93	351.04	6.85	
2025-01-17 08:00:07.74	350.95	6.81	
2025-01-17 08:00:08.55	350.87	6.76	
2025-01-17 08:00:09.37	350.78	6.72	
2025-01-17 08:00:10.18	350.69	6.67	
2025-01-17 08:00:10.99	350.60	6.63	
2025-01-17 08:00:11.80	350.51	6.58	
2025-01-17 08:00:12.62	350.42	6.54	
2025-01-17 08:00:13.43	350.34	6.49	
2025-01-17 08:00:14.24	350.25	6.45	
2025-01-17 08:00:15.05	350.16	6.40	
2025-01-17 08:00:15.87	350.08	6.36	
2025-01-17 08:00:16.68	349.99	6.31	
2025-01-17 08:00:17.49	349.90	6.27	
2025-01-17 08:00:18.30	349.82	6.22	
2025-01-17 08:00:19.12	349.73	6.18	
2025-01-17 08:00:19.93	349.65	6.13	
2025-01-17 08:00:20.74	349.56	6.09	
2025-01-17 08:00:21.55	349.48	6.04	
2025-01-17 08:00:22.37	349.39	6.00	
2025-01-17 08:00:23.18	349.31	5.95	
2025-01-17 08:00:23.99	349.23	5.91	
2025-01-17 08:00:24.80	349.14	5.86	
2025-01-17 08:00:25.62	349.06	5.82	
2025-01-17 08:00:26.43	348.97	5.77	
2025-01-17 08:00:27.24	348.89	5.73	
2025-01-17 08:00:28.05	348.81	5.69	
2025-01-17 08:00:28.86	348.73	5.64	
2025-01-17 08:00:29.68	348.65	5.60	
2025-01-17 08:00:30.49	348.56	5.55	
2025-01-17 08:00:31.30	348.48	5.51	
2025-01-17 08:00:32.11	348.40	5.46	
2025-01-17 08:00:32.93	348.32	5.42	
2025-01-17 08:00:33.74	348.24	5.37	
2025-01-17 08:00:34.55	348.16	5.33	
2025-01-17 08:00:35.36	348.08	5.28	
2025-01-17 08:00:36.18	348.00	5.24	
2025-01-17 08:00:36.99	347.92	5.20	
2025-01-17 08:00:37.80	347.84	5.15	
2025-01-17 08:00:38.61	347.76	5.11	
2025-01-17 08:00:39.43	347.68	5.06	
2025-01-17 08:00:40.24	347.60	5.02	
2025-01-17 08:00:41.05	347.52	4.97	
2025-01-17 08:00:41.86	347.45	4.93	
2025-01-17 08:00:42.68	347.37	4.88	
2025-01-17 08:00:43.49	347.29	4.84	
2025-01-17 08:00:44.30	347.21	4.80	
2025-01-17 08:00:45.11	347.14	4.75	
2025-01-17 08:00:45.93	347.06	4.71	
2025-01-17 08:00:46.74	346.98	4.66	
2025-01-17 08:00:47.55	346.91	4.62	
2025-01-17 08:00:48.36	346.83	4.58	
2025-01-17 08:00:49.18	346.75	4.53	
2025-01-17 08:00:49.99	346.68	4.49	
2025-01-17 08:00:50.80	346.60	4.44	
2025-01-17 08:00:51.61	346.53	4.40	
2025-01-17 08:00:52.43	346.45	4.35	
2025-01-17 08:00:53.24	346.38	4.31	
2025-01-17 08:00:54.05	346.30	4.27	
2025-01-17 08:00:54.86	346.23	4.22	
2025-01-17 08:00:55.68	346.15	4.18	
2025-01-17 08:00:56.49	346.08	4.14	
2025-01-17 08:00:57.30	346.01	4.09	
2025-01-17 08:00:58.11	345.93	4.05	
2025-01-17 08:00:58.93	345.86	4.00	

#Closed at: 2025-01-17 08:00:59