passes_logs/2025/01/17/SPB_Silybum_02/SPB_Silybum_02__20250117_231633_SUOMI_NPP_rec.log

#Pass ID: 20250117_231633_SUOMI NPP
#Satellite: SUOMI NPP
#Configuration: NPP
#Start time: 2025-01-17 23:16:31

#Version: 2.0.20230423
#Station: SPB_Silybum_02
#Location: 30.233357 lon 59.946436 lat
#TLE: 1 37849U 11061A   25017.17539025  .00000183  00000+0  10766-3 0  9991
#TLE: 2 37849  98.7449 318.1364 0001599  37.8052 322.3236 14.19539290685226

#Time	Az	El	Level	Level2	SNR	BER	Gain	Gain2
2025-01-17 23:16:33.97	22.19	4.01	
2025-01-17 23:16:35.39	22.27	4.10	
2025-01-17 23:16:36.81	22.34	4.19	
2025-01-17 23:16:38.23	22.41	4.29	
2025-01-17 23:16:39.66	22.49	4.38	
2025-01-17 23:16:41.08	22.56	4.47	
2025-01-17 23:16:42.50	22.64	4.56	
2025-01-17 23:16:43.92	22.71	4.66	
2025-01-17 23:16:45.34	22.79	4.75	
2025-01-17 23:16:46.76	22.87	4.84	
2025-01-17 23:16:48.18	22.94	4.94	
2025-01-17 23:16:49.60	23.02	5.03	
2025-01-17 23:16:51.02	23.10	5.13	
2025-01-17 23:16:52.44	23.18	5.22	
2025-01-17 23:16:53.86	23.26	5.32	
2025-01-17 23:16:55.28	23.34	5.41	
2025-01-17 23:16:56.71	23.42	5.51	
2025-01-17 23:16:58.13	23.50	5.60	
2025-01-17 23:16:59.55	23.58	5.70	
2025-01-17 23:17:00.97	23.66	5.79	
2025-01-17 23:17:02.39	23.74	5.89	
2025-01-17 23:17:03.81	23.82	5.99	
2025-01-17 23:17:05.23	23.90	6.09	
2025-01-17 23:17:06.65	23.99	6.18	
2025-01-17 23:17:08.07	24.07	6.28	
2025-01-17 23:17:09.49	24.16	6.38	
2025-01-17 23:17:10.91	24.24	6.48	
2025-01-17 23:17:12.33	24.33	6.58	
2025-01-17 23:17:13.76	24.41	6.68	
2025-01-17 23:17:15.18	24.50	6.78	
2025-01-17 23:17:16.60	24.59	6.88	
2025-01-17 23:17:18.02	24.67	6.98	
2025-01-17 23:17:19.44	24.76	7.08	
2025-01-17 23:17:20.86	24.85	7.18	
2025-01-17 23:17:22.28	24.94	7.28	
2025-01-17 23:17:23.70	25.03	7.38	
2025-01-17 23:17:25.12	25.12	7.49	
2025-01-17 23:17:26.54	25.21	7.59	
2025-01-17 23:17:27.96	25.30	7.69	
2025-01-17 23:17:29.39	25.40	7.80	
2025-01-17 23:17:30.81	25.49	7.90	
2025-01-17 23:17:32.23	25.58	8.00	
2025-01-17 23:17:33.65	25.68	8.11	
2025-01-17 23:17:35.07	25.77	8.21	
2025-01-17 23:17:36.49	25.87	8.32	
2025-01-17 23:17:37.91	25.96	8.42	
2025-01-17 23:17:39.33	26.06	8.53	
2025-01-17 23:17:40.75	26.16	8.63	
2025-01-17 23:17:42.17	26.25	8.74	
2025-01-17 23:17:43.59	26.35	8.85	
2025-01-17 23:17:45.01	26.45	8.96	
2025-01-17 23:17:46.44	26.55	9.06	
2025-01-17 23:17:47.86	26.65	9.17	
2025-01-17 23:17:49.28	26.75	9.28	
2025-01-17 23:17:50.70	26.86	9.39	
2025-01-17 23:17:52.12	26.96	9.50	
2025-01-17 23:17:53.55	27.06	9.61	
2025-01-17 23:17:54.97	27.17	9.72	
2025-01-17 23:17:56.39	27.27	9.83	
2025-01-17 23:17:57.81	27.38	9.94	
2025-01-17 23:17:59.23	27.48	10.05	
2025-01-17 23:18:00.65	27.59	10.16	
2025-01-17 23:18:02.07	27.70	10.28	
2025-01-17 23:18:03.49	27.81	10.39	
2025-01-17 23:18:04.91	27.92	10.50	
2025-01-17 23:18:06.33	28.03	10.62	
2025-01-17 23:18:07.75	28.14	10.73	
2025-01-17 23:18:09.18	28.25	10.85	
2025-01-17 23:18:10.60	28.36	10.96	
2025-01-17 23:18:12.02	28.48	11.08	
2025-01-17 23:18:13.44	28.59	11.19	
2025-01-17 23:18:14.86	28.71	11.31	
2025-01-17 23:18:16.28	28.82	11.43	
2025-01-17 23:18:17.70	28.94	11.54	
2025-01-17 23:18:19.12	29.06	11.66	
2025-01-17 23:18:20.54	29.18	11.78	
2025-01-17 23:18:21.96	29.30	11.90	
2025-01-17 23:18:23.38	29.42	12.02	
2025-01-17 23:18:24.80	29.54	12.14	
2025-01-17 23:18:26.23	29.66	12.26	
2025-01-17 23:18:27.65	29.79	12.38	
2025-01-17 23:18:29.07	29.91	12.50	
2025-01-17 23:18:30.49	30.04	12.62	
2025-01-17 23:18:31.91	30.16	12.74	
2025-01-17 23:18:33.33	30.29	12.86	
2025-01-17 23:18:34.75	30.42	12.99	
2025-01-17 23:18:36.17	30.55	13.11	
2025-01-17 23:18:37.59	30.68	13.23	
2025-01-17 23:18:39.01	30.81	13.36	
2025-01-17 23:18:40.43	30.94	13.48	
2025-01-17 23:18:41.86	31.08	13.61	
2025-01-17 23:18:43.28	31.21	13.74	
2025-01-17 23:18:44.70	31.35	13.86	
2025-01-17 23:18:46.12	31.49	13.99	
2025-01-17 23:18:47.54	31.63	14.12	
2025-01-17 23:18:48.96	31.76	14.25	
2025-01-17 23:18:50.38	31.90	14.37	
2025-01-17 23:18:51.80	32.05	14.50	
2025-01-17 23:18:53.22	32.19	14.63	
2025-01-17 23:18:54.64	32.33	14.76	
2025-01-17 23:18:56.06	32.48	14.90	
2025-01-17 23:18:57.48	32.62	15.03	
2025-01-17 23:18:58.91	32.77	15.16	
2025-01-17 23:19:00.33	32.92	15.29	
2025-01-17 23:19:01.75	33.07	15.42	
2025-01-17 23:19:03.17	33.22	15.56	
2025-01-17 23:19:04.59	33.38	15.69	
2025-01-17 23:19:06.01	33.53	15.83	
2025-01-17 23:19:07.43	33.69	15.96	
2025-01-17 23:19:08.85	33.84	16.10	
2025-01-17 23:19:10.27	34.00	16.23	
2025-01-17 23:19:11.69	34.16	16.37	
2025-01-17 23:19:13.11	34.32	16.51	
2025-01-17 23:19:14.53	34.48	16.65	
2025-01-17 23:19:15.96	34.65	16.79	
2025-01-17 23:19:17.38	34.81	16.93	
2025-01-17 23:19:18.80	34.98	17.07	
2025-01-17 23:19:20.22	35.15	17.21	
2025-01-17 23:19:21.64	35.32	17.35	
2025-01-17 23:19:23.06	35.49	17.49	
2025-01-17 23:19:24.48	35.66	17.63	
2025-01-17 23:19:25.90	35.84	17.77	
2025-01-17 23:19:27.32	36.01	17.92	
2025-01-17 23:19:28.74	36.19	18.06	
2025-01-17 23:19:30.16	36.37	18.21	
2025-01-17 23:19:31.59	36.55	18.35	
2025-01-17 23:19:33.01	36.74	18.50	
2025-01-17 23:19:34.43	36.92	18.64	
2025-01-17 23:19:35.85	37.11	18.79	
2025-01-17 23:19:37.27	37.29	18.94	
2025-01-17 23:19:38.69	37.48	19.09	
2025-01-17 23:19:40.11	37.68	19.24	
2025-01-17 23:19:41.53	37.87	19.38	
2025-01-17 23:19:42.95	38.06	19.53	
2025-01-17 23:19:44.37	38.26	19.68	
2025-01-17 23:19:45.79	38.46	19.84	
2025-01-17 23:19:47.21	38.66	19.99	
2025-01-17 23:19:48.64	38.86	20.14	
2025-01-17 23:19:50.06	39.07	20.29	
2025-01-17 23:19:51.48	39.28	20.45	
2025-01-17 23:19:52.90	39.48	20.60	
2025-01-17 23:19:54.32	39.69	20.76	
2025-01-17 23:19:55.74	39.91	20.91	
2025-01-17 23:19:57.16	40.12	21.07	
2025-01-17 23:19:58.58	40.34	21.22	
2025-01-17 23:20:00.00	40.56	21.38	
2025-01-17 23:20:01.42	40.78	21.54	
2025-01-17 23:20:02.84	41.00	21.70	
2025-01-17 23:20:04.26	41.23	21.85	
2025-01-17 23:20:05.69	41.46	22.01	
2025-01-17 23:20:07.11	41.69	22.17	
2025-01-17 23:20:08.53	41.92	22.33	
2025-01-17 23:20:09.95	42.15	22.49	
2025-01-17 23:20:11.37	42.39	22.66	
2025-01-17 23:20:12.79	42.63	22.82	
2025-01-17 23:20:14.21	42.87	22.98	
2025-01-17 23:20:15.63	43.12	23.14	
2025-01-17 23:20:17.05	43.37	23.31	
2025-01-17 23:20:18.47	43.61	23.47	
2025-01-17 23:20:19.89	43.87	23.63	
2025-01-17 23:20:21.32	44.12	23.80	
2025-01-17 23:20:22.74	44.38	23.97	
2025-01-17 23:20:24.16	44.64	24.13	
2025-01-17 23:20:25.58	44.90	24.30	
2025-01-17 23:20:27.00	45.17	24.46	
2025-01-17 23:20:28.42	45.44	24.63	
2025-01-17 23:20:29.84	45.71	24.80	
2025-01-17 23:20:31.26	45.98	24.97	
2025-01-17 23:20:32.68	46.26	25.14	
2025-01-17 23:20:34.10	46.54	25.30	
2025-01-17 23:20:35.52	46.82	25.47	
2025-01-17 23:20:36.94	47.11	25.64	
2025-01-17 23:20:38.37	47.40	25.81	
2025-01-17 23:20:39.79	47.69	25.99	
2025-01-17 23:20:41.21	47.98	26.16	
2025-01-17 23:20:42.63	48.28	26.33	
2025-01-17 23:20:44.05	48.58	26.50	
2025-01-17 23:20:45.47	48.89	26.67	
2025-01-17 23:20:46.89	49.19	26.84	
2025-01-17 23:20:48.31	49.50	27.01	
2025-01-17 23:20:49.73	49.82	27.18	
2025-01-17 23:20:51.15	50.14	27.36	
2025-01-17 23:20:52.57	50.46	27.53	
2025-01-17 23:20:54.00	50.78	27.70	
2025-01-17 23:20:55.42	51.11	27.88	
2025-01-17 23:20:56.84	51.44	28.05	
2025-01-17 23:20:58.26	51.78	28.22	
2025-01-17 23:20:59.68	52.11	28.39	
2025-01-17 23:21:01.10	52.46	28.57	
2025-01-17 23:21:02.52	52.80	28.74	
2025-01-17 23:21:03.94	53.15	28.91	
2025-01-17 23:21:05.36	53.50	29.09	
2025-01-17 23:21:06.78	53.86	29.26	
2025-01-17 23:21:08.20	54.22	29.43	
2025-01-17 23:21:09.62	54.58	29.60	
2025-01-17 23:21:11.05	54.95	29.78	
2025-01-17 23:21:12.47	55.33	29.95	
2025-01-17 23:21:13.89	55.70	30.12	
2025-01-17 23:21:15.31	56.08	30.29	
2025-01-17 23:21:16.73	56.46	30.46	
2025-01-17 23:21:18.15	56.85	30.63	
2025-01-17 23:21:19.57	57.24	30.80	
2025-01-17 23:21:20.99	57.64	30.97	
2025-01-17 23:21:22.41	58.04	31.14	
2025-01-17 23:21:23.83	58.44	31.31	
2025-01-17 23:21:25.25	58.85	31.48	
2025-01-17 23:21:26.67	59.26	31.65	
2025-01-17 23:21:28.10	59.68	31.82	
2025-01-17 23:21:29.52	60.11	31.98	
2025-01-17 23:21:30.94	60.53	32.15	
2025-01-17 23:21:32.36	60.96	32.31	
2025-01-17 23:21:33.78	61.39	32.48	
2025-01-17 23:21:35.20	61.83	32.64	
2025-01-17 23:21:36.62	62.27	32.80	
2025-01-17 23:21:38.04	62.72	32.96	
2025-01-17 23:21:39.46	63.17	33.12	
2025-01-17 23:21:40.88	63.63	33.28	
2025-01-17 23:21:42.30	64.09	33.44	
2025-01-17 23:21:43.73	64.56	33.60	
2025-01-17 23:21:45.15	65.02	33.75	
2025-01-17 23:21:46.57	65.50	33.91	
2025-01-17 23:21:47.99	65.98	34.06	
2025-01-17 23:21:49.41	66.46	34.21	
2025-01-17 23:21:50.83	66.94	34.36	
2025-01-17 23:21:52.25	67.43	34.51	
2025-01-17 23:21:53.67	67.93	34.66	
2025-01-17 23:21:55.09	68.43	34.80	
2025-01-17 23:21:56.51	68.93	34.94	
2025-01-17 23:21:57.93	69.44	35.09	
2025-01-17 23:21:59.35	69.96	35.22	
2025-01-17 23:22:00.78	70.48	35.36	
2025-01-17 23:22:02.20	71.00	35.50	
2025-01-17 23:22:03.62	71.52	35.63	
2025-01-17 23:22:05.04	72.05	35.76	
2025-01-17 23:22:06.46	72.59	35.89	
2025-01-17 23:22:07.88	73.13	36.02	
2025-01-17 23:22:09.30	73.67	36.14	
2025-01-17 23:22:10.72	74.22	36.27	
2025-01-17 23:22:12.14	74.77	36.39	
2025-01-17 23:22:13.56	75.32	36.50	
2025-01-17 23:22:14.98	75.88	36.62	
2025-01-17 23:22:16.40	76.44	36.73	
2025-01-17 23:22:17.83	77.01	36.84	
2025-01-17 23:22:19.25	77.58	36.95	
2025-01-17 23:22:20.67	78.16	37.05	
2025-01-17 23:22:22.09	78.73	37.15	
2025-01-17 23:22:23.51	79.31	37.25	
2025-01-17 23:22:24.93	79.90	37.35	
2025-01-17 23:22:26.35	80.49	37.44	
2025-01-17 23:22:27.77	81.08	37.53	
2025-01-17 23:22:29.19	81.67	37.61	
2025-01-17 23:22:30.61	82.27	37.70	
2025-01-17 23:22:32.03	82.87	37.77	
2025-01-17 23:22:33.46	83.47	37.85	
2025-01-17 23:22:34.88	84.08	37.92	
2025-01-17 23:22:36.30	84.69	37.99	
2025-01-17 23:22:37.72	85.30	38.06	
2025-01-17 23:22:39.14	85.91	38.12	
2025-01-17 23:22:40.56	86.53	38.18	
2025-01-17 23:22:41.98	87.15	38.24	
2025-01-17 23:22:43.40	87.77	38.29	
2025-01-17 23:22:44.82	88.39	38.34	
2025-01-17 23:22:46.24	89.01	38.38	
2025-01-17 23:22:47.66	89.64	38.42	
2025-01-17 23:22:49.08	90.26	38.46	
2025-01-17 23:22:50.51	90.89	38.49	
2025-01-17 23:22:51.93	91.52	38.52	
2025-01-17 23:22:53.35	92.15	38.55	
2025-01-17 23:22:54.77	92.79	38.57	
2025-01-17 23:22:56.19	93.42	38.59	
2025-01-17 23:22:57.61	94.05	38.60	
2025-01-17 23:22:59.03	94.68	38.61	
2025-01-17 23:23:00.45	95.32	38.62	
2025-01-17 23:23:01.87	95.95	38.62	
2025-01-17 23:23:03.29	96.58	38.62	
2025-01-17 23:23:04.71	97.22	38.62	
2025-01-17 23:23:06.13	97.85	38.61	
2025-01-17 23:23:07.56	98.49	38.60	
2025-01-17 23:23:08.98	99.12	38.58	
2025-01-17 23:23:10.40	99.75	38.56	
2025-01-17 23:23:11.82	100.38	38.54	
2025-01-17 23:23:13.24	101.01	38.51	
2025-01-17 23:23:14.66	101.64	38.48	
2025-01-17 23:23:16.08	102.27	38.44	
2025-01-17 23:23:17.50	102.90	38.40	
2025-01-17 23:23:18.92	103.52	38.36	
2025-01-17 23:23:20.34	104.14	38.31	
2025-01-17 23:23:21.76	104.77	38.26	
2025-01-17 23:23:23.19	105.39	38.21	
2025-01-17 23:23:24.61	106.01	38.15	
2025-01-17 23:23:26.03	106.62	38.09	
2025-01-17 23:23:27.45	107.23	38.02	
2025-01-17 23:23:28.87	107.84	37.96	
2025-01-17 23:23:30.29	108.45	37.88	
2025-01-17 23:23:31.71	109.06	37.81	
2025-01-17 23:23:33.13	109.66	37.73	
2025-01-17 23:23:34.55	110.26	37.65	
2025-01-17 23:23:35.97	110.86	37.57	
2025-01-17 23:23:37.39	111.45	37.48	
2025-01-17 23:23:38.81	112.04	37.39	
2025-01-17 23:23:40.24	112.63	37.29	
2025-01-17 23:23:41.66	113.21	37.19	
2025-01-17 23:23:43.08	113.79	37.09	
2025-01-17 23:23:44.50	114.37	36.99	
2025-01-17 23:23:45.92	114.94	36.89	
2025-01-17 23:23:47.34	115.51	36.78	
2025-01-17 23:23:48.76	116.08	36.67	
2025-01-17 23:23:50.18	116.64	36.55	
2025-01-17 23:23:51.60	117.20	36.44	
2025-01-17 23:23:53.02	117.75	36.32	
2025-01-17 23:23:54.44	118.30	36.19	
2025-01-17 23:23:55.86	118.85	36.07	
2025-01-17 23:23:57.29	119.39	35.94	
2025-01-17 23:23:58.71	119.93	35.81	
2025-01-17 23:24:00.13	120.46	35.68	
2025-01-17 23:24:01.55	120.99	35.55	
2025-01-17 23:24:02.97	121.52	35.42	
2025-01-17 23:24:04.39	122.04	35.28	
2025-01-17 23:24:05.81	122.55	35.14	
2025-01-17 23:24:07.23	123.06	35.00	
2025-01-17 23:24:08.65	123.57	34.86	
2025-01-17 23:24:10.07	124.07	34.71	
2025-01-17 23:24:11.49	124.57	34.56	
2025-01-17 23:24:12.92	125.07	34.41	
2025-01-17 23:24:14.34	125.56	34.27	
2025-01-17 23:24:15.76	126.05	34.11	
2025-01-17 23:24:17.18	126.53	33.96	
2025-01-17 23:24:18.60	127.00	33.81	
2025-01-17 23:24:20.02	127.48	33.65	
2025-01-17 23:24:21.44	127.94	33.49	
2025-01-17 23:24:22.86	128.41	33.34	
2025-01-17 23:24:24.28	128.87	33.18	
2025-01-17 23:24:25.70	129.32	33.02	
2025-01-17 23:24:27.12	129.77	32.86	
2025-01-17 23:24:28.54	130.22	32.69	
2025-01-17 23:24:29.97	130.66	32.53	
2025-01-17 23:24:31.39	131.10	32.36	
2025-01-17 23:24:32.81	131.53	32.20	
2025-01-17 23:24:34.23	131.96	32.03	
2025-01-17 23:24:35.65	132.38	31.87	
2025-01-17 23:24:37.07	132.80	31.70	
2025-01-17 23:24:38.49	133.22	31.53	
2025-01-17 23:24:39.91	133.63	31.36	
2025-01-17 23:24:41.33	134.04	31.19	
2025-01-17 23:24:42.75	134.44	31.02	
2025-01-17 23:24:44.17	134.84	30.85	
2025-01-17 23:24:45.59	135.23	30.68	
2025-01-17 23:24:47.02	135.63	30.51	
2025-01-17 23:24:48.44	136.01	30.33	
2025-01-17 23:24:49.86	136.39	30.16	
2025-01-17 23:24:51.28	136.77	29.99	
2025-01-17 23:24:52.70	137.15	29.82	
2025-01-17 23:24:54.12	137.52	29.64	
2025-01-17 23:24:55.54	137.88	29.47	
2025-01-17 23:24:56.96	138.25	29.30	
2025-01-17 23:24:58.38	138.61	29.12	
2025-01-17 23:24:59.80	138.96	28.95	
2025-01-17 23:25:01.22	139.31	28.77	
2025-01-17 23:25:02.65	139.66	28.60	
2025-01-17 23:25:04.07	140.01	28.42	
2025-01-17 23:25:05.49	140.35	28.25	
2025-01-17 23:25:06.91	140.69	28.08	
2025-01-17 23:25:08.33	141.02	27.90	
2025-01-17 23:25:09.75	141.35	27.73	
2025-01-17 23:25:11.17	141.67	27.56	
2025-01-17 23:25:12.59	142.00	27.38	
2025-01-17 23:25:14.01	142.32	27.21	
2025-01-17 23:25:15.43	142.63	27.03	
2025-01-17 23:25:16.85	142.95	26.86	
2025-01-17 23:25:18.27	143.26	26.69	
2025-01-17 23:25:19.70	143.56	26.52	
2025-01-17 23:25:21.12	143.87	26.34	
2025-01-17 23:25:22.54	144.17	26.17	
2025-01-17 23:25:23.96	144.46	26.00	
2025-01-17 23:25:25.38	144.76	25.83	
2025-01-17 23:25:26.80	145.05	25.66	
2025-01-17 23:25:28.22	145.33	25.49	
2025-01-17 23:25:29.64	145.62	25.31	
2025-01-17 23:25:31.06	145.90	25.14	
2025-01-17 23:25:32.48	146.18	24.98	
2025-01-17 23:25:33.90	146.45	24.81	
2025-01-17 23:25:35.33	146.73	24.64	
2025-01-17 23:25:36.75	147.00	24.47	
2025-01-17 23:25:38.17	147.27	24.30	
2025-01-17 23:25:39.59	147.53	24.13	
2025-01-17 23:25:41.01	147.79	23.96	
2025-01-17 23:25:42.43	148.05	23.80	
2025-01-17 23:25:43.85	148.31	23.63	
2025-01-17 23:25:45.27	148.56	23.47	
2025-01-17 23:25:46.69	148.81	23.30	
2025-01-17 23:25:48.11	149.06	23.14	
2025-01-17 23:25:49.53	149.31	22.97	
2025-01-17 23:25:50.95	149.55	22.81	
2025-01-17 23:25:52.38	149.79	22.64	
2025-01-17 23:25:53.80	150.03	22.48	
2025-01-17 23:25:55.22	150.27	22.32	
2025-01-17 23:25:56.64	150.50	22.16	
2025-01-17 23:25:58.06	150.73	22.00	
2025-01-17 23:25:59.48	150.96	21.84	
2025-01-17 23:26:00.90	151.19	21.68	
2025-01-17 23:26:02.32	151.41	21.52	
2025-01-17 23:26:03.74	151.63	21.36	
2025-01-17 23:26:05.16	151.85	21.20	
2025-01-17 23:26:06.58	152.07	21.04	
2025-01-17 23:26:08.00	152.29	20.89	
2025-01-17 23:26:09.43	152.50	20.73	
2025-01-17 23:26:10.85	152.71	20.57	
2025-01-17 23:26:12.27	152.92	20.42	
2025-01-17 23:26:13.69	153.13	20.26	
2025-01-17 23:26:15.11	153.34	20.11	
2025-01-17 23:26:16.53	153.54	19.96	
2025-01-17 23:26:17.95	153.74	19.80	
2025-01-17 23:26:19.37	153.94	19.65	
2025-01-17 23:26:20.79	154.14	19.50	
2025-01-17 23:26:22.21	154.33	19.35	
2025-01-17 23:26:23.63	154.53	19.20	
2025-01-17 23:26:25.06	154.72	19.05	
2025-01-17 23:26:26.48	154.91	18.90	
2025-01-17 23:26:27.90	155.10	18.75	
2025-01-17 23:26:29.32	155.29	18.60	
2025-01-17 23:26:30.74	155.47	18.45	
2025-01-17 23:26:32.16	155.66	18.31	
2025-01-17 23:26:33.58	155.84	18.16	
2025-01-17 23:26:35.00	156.02	18.01	
2025-01-17 23:26:36.42	156.19	17.87	
2025-01-17 23:26:37.84	156.37	17.72	
2025-01-17 23:26:39.26	156.55	17.58	
2025-01-17 23:26:40.68	156.72	17.44	
2025-01-17 23:26:42.11	156.89	17.29	
2025-01-17 23:26:43.53	157.06	17.15	
2025-01-17 23:26:44.95	157.23	17.01	
2025-01-17 23:26:46.37	157.40	16.87	
2025-01-17 23:26:47.79	157.56	16.73	
2025-01-17 23:26:49.21	157.73	16.59	
2025-01-17 23:26:50.63	157.89	16.45	
2025-01-17 23:26:52.05	158.05	16.31	
2025-01-17 23:26:53.47	158.21	16.17	
2025-01-17 23:26:54.89	158.37	16.03	
2025-01-17 23:26:56.31	158.53	15.90	
2025-01-17 23:26:57.73	158.68	15.76	
2025-01-17 23:26:59.16	158.84	15.62	
2025-01-17 23:27:00.58	158.99	15.49	
2025-01-17 23:27:02.00	159.14	15.35	
2025-01-17 23:27:03.42	159.29	15.22	
2025-01-17 23:27:04.84	159.44	15.09	
2025-01-17 23:27:06.26	159.59	14.95	
2025-01-17 23:27:07.68	159.74	14.82	
2025-01-17 23:27:09.10	159.88	14.69	
2025-01-17 23:27:10.52	160.02	14.56	
2025-01-17 23:27:11.94	160.17	14.43	
2025-01-17 23:27:13.36	160.31	14.30	
2025-01-17 23:27:14.79	160.45	14.17	
2025-01-17 23:27:16.21	160.59	14.04	
2025-01-17 23:27:17.63	160.73	13.91	
2025-01-17 23:27:19.05	160.86	13.78	
2025-01-17 23:27:20.47	161.00	13.65	
2025-01-17 23:27:21.89	161.13	13.53	
2025-01-17 23:27:23.31	161.27	13.40	
2025-01-17 23:27:24.73	161.40	13.27	
2025-01-17 23:27:26.15	161.53	13.15	
2025-01-17 23:27:27.57	161.66	13.02	
2025-01-17 23:27:28.99	161.79	12.90	
2025-01-17 23:27:30.41	161.92	12.78	
2025-01-17 23:27:31.84	162.05	12.65	
2025-01-17 23:27:33.26	162.17	12.53	
2025-01-17 23:27:34.68	162.30	12.41	
2025-01-17 23:27:36.10	162.42	12.28	
2025-01-17 23:27:37.52	162.55	12.16	
2025-01-17 23:27:38.94	162.67	12.04	
2025-01-17 23:27:40.36	162.79	11.92	
2025-01-17 23:27:41.78	162.91	11.80	
2025-01-17 23:27:43.20	163.03	11.68	
2025-01-17 23:27:44.62	163.15	11.56	
2025-01-17 23:27:46.04	163.27	11.44	
2025-01-17 23:27:47.46	163.38	11.33	
2025-01-17 23:27:48.89	163.50	11.21	
2025-01-17 23:27:50.31	163.61	11.09	
2025-01-17 23:27:51.73	163.73	10.97	
2025-01-17 23:27:53.15	163.84	10.86	
2025-01-17 23:27:54.57	163.95	10.74	
2025-01-17 23:27:55.99	164.07	10.63	
2025-01-17 23:27:57.41	164.18	10.51	
2025-01-17 23:27:58.83	164.29	10.40	
2025-01-17 23:28:00.25	164.39	10.28	
2025-01-17 23:28:01.67	164.50	10.17	
2025-01-17 23:28:03.09	164.61	10.06	
2025-01-17 23:28:04.52	164.72	9.94	
2025-01-17 23:28:05.94	164.82	9.83	
2025-01-17 23:28:07.36	164.93	9.72	
2025-01-17 23:28:08.78	165.03	9.61	
2025-01-17 23:28:10.20	165.14	9.50	
2025-01-17 23:28:11.62	165.24	9.38	
2025-01-17 23:28:13.04	165.34	9.27	
2025-01-17 23:28:14.46	165.44	9.16	
2025-01-17 23:28:15.88	165.54	9.06	
2025-01-17 23:28:17.30	165.64	8.95	
2025-01-17 23:28:18.72	165.74	8.84	
2025-01-17 23:28:20.14	165.84	8.73	
2025-01-17 23:28:21.57	165.94	8.62	
2025-01-17 23:28:22.99	166.04	8.51	
2025-01-17 23:28:24.41	166.13	8.41	
2025-01-17 23:28:25.83	166.23	8.30	
2025-01-17 23:28:27.25	166.32	8.19	
2025-01-17 23:28:28.67	166.42	8.09	
2025-01-17 23:28:30.09	166.51	7.98	
2025-01-17 23:28:31.51	166.61	7.88	
2025-01-17 23:28:32.93	166.70	7.77	
2025-01-17 23:28:34.35	166.79	7.67	
2025-01-17 23:28:35.77	166.88	7.56	
2025-01-17 23:28:37.20	166.97	7.46	
2025-01-17 23:28:38.62	167.06	7.36	
2025-01-17 23:28:40.04	167.15	7.25	
2025-01-17 23:28:41.46	167.24	7.15	
2025-01-17 23:28:42.88	167.33	7.05	
2025-01-17 23:28:44.30	167.42	6.95	
2025-01-17 23:28:45.72	167.50	6.85	
2025-01-17 23:28:47.14	167.59	6.75	
2025-01-17 23:28:48.56	167.68	6.64	
2025-01-17 23:28:49.98	167.76	6.54	
2025-01-17 23:28:51.40	167.85	6.44	
2025-01-17 23:28:52.82	167.93	6.34	
2025-01-17 23:28:54.25	168.02	6.24	
2025-01-17 23:28:55.67	168.10	6.15	
2025-01-17 23:28:57.09	168.18	6.05	
2025-01-17 23:28:58.51	168.26	5.95	
2025-01-17 23:28:59.93	168.34	5.85	
2025-01-17 23:29:01.35	168.43	5.75	
2025-01-17 23:29:02.77	168.51	5.65	
2025-01-17 23:29:04.19	168.59	5.56	
2025-01-17 23:29:05.61	168.67	5.46	
2025-01-17 23:29:07.03	168.75	5.36	
2025-01-17 23:29:08.45	168.82	5.27	
2025-01-17 23:29:09.87	168.90	5.17	
2025-01-17 23:29:11.30	168.98	5.08	
2025-01-17 23:29:12.72	169.06	4.98	
2025-01-17 23:29:14.14	169.13	4.89	
2025-01-17 23:29:15.56	169.21	4.79	
2025-01-17 23:29:16.98	169.29	4.70	
2025-01-17 23:29:18.40	169.36	4.60	
2025-01-17 23:29:19.82	169.44	4.51	
2025-01-17 23:29:21.24	169.51	4.42	
2025-01-17 23:29:22.66	169.59	4.32	
2025-01-17 23:29:24.08	169.66	4.23	
2025-01-17 23:29:25.50	169.73	4.14	
2025-01-17 23:29:26.93	169.81	4.04	

#Closed at: 2025-01-17 23:29:27