passes_logs/2025/01/17/SPB_Silybum_02/SPB_Silybum_02__20250117_110846_SUOMI_NPP_rec.log

#Pass ID: 20250117_110846_SUOMI NPP
#Satellite: SUOMI NPP
#Configuration: NPP
#Start time: 2025-01-17 11:08:45

#Version: 2.0.20230423
#Station: SPB_Silybum_02
#Location: 30.233357 lon 59.946436 lat
#TLE: 1 37849U 11061A   25016.82296503  .00000177  00000+0  10458-3 0  9994
#TLE: 2 37849  98.7449 317.7884 0001611  38.3630 321.7660 14.19539095685172

#Time	Az	El	Level	Level2	SNR	BER	Gain	Gain2
2025-01-17 11:08:47.75	185.05	4.10	
2025-01-17 11:08:49.17	185.11	4.20	
2025-01-17 11:08:50.59	185.17	4.29	
2025-01-17 11:08:52.01	185.23	4.39	
2025-01-17 11:08:53.43	185.30	4.48	
2025-01-17 11:08:54.85	185.36	4.58	
2025-01-17 11:08:56.27	185.42	4.67	
2025-01-17 11:08:57.69	185.49	4.77	
2025-01-17 11:08:59.11	185.55	4.87	
2025-01-17 11:09:00.53	185.62	4.96	
2025-01-17 11:09:01.95	185.68	5.06	
2025-01-17 11:09:03.37	185.75	5.16	
2025-01-17 11:09:04.80	185.82	5.26	
2025-01-17 11:09:06.22	185.88	5.36	
2025-01-17 11:09:07.64	185.95	5.45	
2025-01-17 11:09:09.06	186.02	5.55	
2025-01-17 11:09:10.48	186.09	5.65	
2025-01-17 11:09:11.90	186.15	5.75	
2025-01-17 11:09:13.32	186.22	5.85	
2025-01-17 11:09:14.74	186.29	5.95	
2025-01-17 11:09:16.16	186.36	6.05	
2025-01-17 11:09:17.58	186.43	6.15	
2025-01-17 11:09:19.00	186.50	6.26	
2025-01-17 11:09:20.42	186.57	6.36	
2025-01-17 11:09:21.85	186.64	6.46	
2025-01-17 11:09:23.27	186.72	6.56	
2025-01-17 11:09:24.69	186.79	6.67	
2025-01-17 11:09:26.11	186.86	6.77	
2025-01-17 11:09:27.53	186.94	6.87	
2025-01-17 11:09:28.95	187.01	6.98	
2025-01-17 11:09:30.37	187.08	7.08	
2025-01-17 11:09:31.79	187.16	7.19	
2025-01-17 11:09:33.21	187.23	7.29	
2025-01-17 11:09:34.63	187.31	7.40	
2025-01-17 11:09:36.05	187.39	7.50	
2025-01-17 11:09:37.47	187.46	7.61	
2025-01-17 11:09:38.90	187.54	7.72	
2025-01-17 11:09:40.32	187.62	7.82	
2025-01-17 11:09:41.74	187.70	7.93	
2025-01-17 11:09:43.16	187.78	8.04	
2025-01-17 11:09:44.58	187.86	8.15	
2025-01-17 11:09:46.00	187.94	8.26	
2025-01-17 11:09:47.42	188.02	8.37	
2025-01-17 11:09:48.84	188.10	8.48	
2025-01-17 11:09:50.26	188.18	8.59	
2025-01-17 11:09:51.68	188.26	8.70	
2025-01-17 11:09:53.10	188.35	8.81	
2025-01-17 11:09:54.52	188.43	8.92	
2025-01-17 11:09:55.94	188.51	9.03	
2025-01-17 11:09:57.37	188.60	9.15	
2025-01-17 11:09:58.79	188.69	9.26	
2025-01-17 11:10:00.21	188.77	9.37	
2025-01-17 11:10:01.63	188.86	9.49	
2025-01-17 11:10:03.05	188.95	9.60	
2025-01-17 11:10:04.47	189.03	9.71	
2025-01-17 11:10:05.89	189.12	9.83	
2025-01-17 11:10:07.31	189.21	9.95	
2025-01-17 11:10:08.73	189.30	10.06	
2025-01-17 11:10:10.15	189.39	10.18	
2025-01-17 11:10:11.57	189.48	10.30	
2025-01-17 11:10:12.99	189.58	10.41	
2025-01-17 11:10:14.42	189.67	10.53	
2025-01-17 11:10:15.84	189.76	10.65	
2025-01-17 11:10:17.26	189.86	10.77	
2025-01-17 11:10:18.68	189.95	10.89	
2025-01-17 11:10:20.10	190.05	11.01	
2025-01-17 11:10:21.52	190.15	11.13	
2025-01-17 11:10:22.94	190.24	11.25	
2025-01-17 11:10:24.36	190.34	11.37	
2025-01-17 11:10:25.78	190.44	11.50	
2025-01-17 11:10:27.20	190.54	11.62	
2025-01-17 11:10:28.62	190.64	11.74	
2025-01-17 11:10:30.04	190.74	11.87	
2025-01-17 11:10:31.46	190.84	11.99	
2025-01-17 11:10:32.89	190.95	12.12	
2025-01-17 11:10:34.31	191.05	12.24	
2025-01-17 11:10:35.73	191.16	12.37	
2025-01-17 11:10:37.15	191.26	12.50	
2025-01-17 11:10:38.57	191.37	12.62	
2025-01-17 11:10:39.99	191.47	12.75	
2025-01-17 11:10:41.41	191.58	12.88	
2025-01-17 11:10:42.83	191.69	13.01	
2025-01-17 11:10:44.25	191.80	13.14	
2025-01-17 11:10:45.67	191.91	13.27	
2025-01-17 11:10:47.09	192.02	13.40	
2025-01-17 11:10:48.51	192.14	13.53	
2025-01-17 11:10:49.94	192.25	13.67	
2025-01-17 11:10:51.36	192.37	13.80	
2025-01-17 11:10:52.78	192.48	13.93	
2025-01-17 11:10:54.20	192.60	14.07	
2025-01-17 11:10:55.62	192.72	14.20	
2025-01-17 11:10:57.04	192.84	14.34	
2025-01-17 11:10:58.46	192.96	14.47	
2025-01-17 11:10:59.88	193.08	14.61	
2025-01-17 11:11:01.30	193.20	14.75	
2025-01-17 11:11:02.72	193.32	14.89	
2025-01-17 11:11:04.14	193.44	15.02	
2025-01-17 11:11:05.56	193.57	15.16	
2025-01-17 11:11:06.98	193.70	15.30	
2025-01-17 11:11:08.41	193.82	15.45	
2025-01-17 11:11:09.83	193.95	15.59	
2025-01-17 11:11:11.25	194.08	15.73	
2025-01-17 11:11:12.67	194.21	15.87	
2025-01-17 11:11:14.09	194.35	16.02	
2025-01-17 11:11:15.51	194.48	16.16	
2025-01-17 11:11:16.93	194.61	16.30	
2025-01-17 11:11:18.35	194.75	16.45	
2025-01-17 11:11:19.77	194.89	16.60	
2025-01-17 11:11:21.19	195.03	16.74	
2025-01-17 11:11:22.61	195.17	16.89	
2025-01-17 11:11:24.03	195.31	17.04	
2025-01-17 11:11:25.46	195.45	17.19	
2025-01-17 11:11:26.88	195.59	17.34	
2025-01-17 11:11:28.30	195.74	17.49	
2025-01-17 11:11:29.72	195.89	17.64	
2025-01-17 11:11:31.14	196.03	17.80	
2025-01-17 11:11:32.56	196.18	17.95	
2025-01-17 11:11:33.98	196.33	18.10	
2025-01-17 11:11:35.40	196.49	18.26	
2025-01-17 11:11:36.82	196.64	18.41	
2025-01-17 11:11:38.24	196.80	18.57	
2025-01-17 11:11:39.66	196.95	18.73	
2025-01-17 11:11:41.08	197.11	18.89	
2025-01-17 11:11:42.51	197.27	19.05	
2025-01-17 11:11:43.93	197.44	19.20	
2025-01-17 11:11:45.35	197.60	19.37	
2025-01-17 11:11:46.77	197.76	19.53	
2025-01-17 11:11:48.19	197.93	19.69	
2025-01-17 11:11:49.61	198.10	19.85	
2025-01-17 11:11:51.03	198.27	20.01	
2025-01-17 11:11:52.45	198.44	20.18	
2025-01-17 11:11:53.87	198.62	20.34	
2025-01-17 11:11:55.29	198.79	20.51	
2025-01-17 11:11:56.71	198.97	20.68	
2025-01-17 11:11:58.13	199.15	20.85	
2025-01-17 11:11:59.55	199.33	21.01	
2025-01-17 11:12:00.98	199.51	21.19	
2025-01-17 11:12:02.40	199.70	21.36	
2025-01-17 11:12:03.82	199.89	21.53	
2025-01-17 11:12:05.24	200.08	21.70	
2025-01-17 11:12:06.66	200.27	21.87	
2025-01-17 11:12:08.08	200.46	22.05	
2025-01-17 11:12:09.50	200.66	22.22	
2025-01-17 11:12:10.92	200.85	22.40	
2025-01-17 11:12:12.34	201.05	22.57	
2025-01-17 11:12:13.76	201.26	22.75	
2025-01-17 11:12:15.18	201.46	22.93	
2025-01-17 11:12:16.60	201.67	23.11	
2025-01-17 11:12:18.03	201.88	23.29	
2025-01-17 11:12:19.45	202.09	23.47	
2025-01-17 11:12:20.87	202.30	23.65	
2025-01-17 11:12:22.29	202.52	23.83	
2025-01-17 11:12:23.71	202.74	24.02	
2025-01-17 11:12:25.13	202.96	24.20	
2025-01-17 11:12:26.55	203.18	24.39	
2025-01-17 11:12:27.97	203.41	24.57	
2025-01-17 11:12:29.39	203.64	24.76	
2025-01-17 11:12:30.81	203.87	24.95	
2025-01-17 11:12:32.23	204.10	25.14	
2025-01-17 11:12:33.65	204.34	25.33	
2025-01-17 11:12:35.07	204.58	25.52	
2025-01-17 11:12:36.50	204.82	25.71	
2025-01-17 11:12:37.92	205.07	25.90	
2025-01-17 11:12:39.34	205.32	26.09	
2025-01-17 11:12:40.76	205.57	26.29	
2025-01-17 11:12:42.18	205.82	26.48	
2025-01-17 11:12:43.60	206.08	26.68	
2025-01-17 11:12:45.02	206.34	26.87	
2025-01-17 11:12:46.44	206.60	27.07	
2025-01-17 11:12:47.86	206.87	27.27	
2025-01-17 11:12:49.28	207.14	27.47	
2025-01-17 11:12:50.70	207.41	27.67	
2025-01-17 11:12:52.12	207.69	27.87	
2025-01-17 11:12:53.55	207.97	28.07	
2025-01-17 11:12:54.97	208.25	28.27	
2025-01-17 11:12:56.39	208.54	28.47	
2025-01-17 11:12:57.81	208.83	28.68	
2025-01-17 11:12:59.23	209.13	28.88	
2025-01-17 11:13:00.65	209.42	29.08	
2025-01-17 11:13:02.07	209.73	29.29	
2025-01-17 11:13:03.49	210.03	29.50	
2025-01-17 11:13:04.91	210.34	29.70	
2025-01-17 11:13:06.33	210.65	29.91	
2025-01-17 11:13:07.75	210.97	30.12	
2025-01-17 11:13:09.17	211.29	30.32	
2025-01-17 11:13:10.59	211.62	30.53	
2025-01-17 11:13:12.02	211.95	30.74	
2025-01-17 11:13:13.44	212.28	30.95	
2025-01-17 11:13:14.86	212.62	31.16	
2025-01-17 11:13:16.28	212.96	31.37	
2025-01-17 11:13:17.70	213.31	31.58	
2025-01-17 11:13:19.12	213.66	31.80	
2025-01-17 11:13:20.54	214.02	32.01	
2025-01-17 11:13:21.96	214.38	32.22	
2025-01-17 11:13:23.38	214.74	32.43	
2025-01-17 11:13:24.80	215.11	32.64	
2025-01-17 11:13:26.22	215.49	32.86	
2025-01-17 11:13:27.64	215.86	33.07	
2025-01-17 11:13:29.07	216.25	33.28	
2025-01-17 11:13:30.49	216.64	33.50	
2025-01-17 11:13:31.91	217.03	33.71	
2025-01-17 11:13:33.33	217.43	33.92	
2025-01-17 11:13:34.75	217.84	34.14	
2025-01-17 11:13:36.17	218.25	34.35	
2025-01-17 11:13:37.59	218.66	34.56	
2025-01-17 11:13:39.01	219.08	34.77	
2025-01-17 11:13:40.43	219.51	34.99	
2025-01-17 11:13:41.85	219.94	35.20	
2025-01-17 11:13:43.27	220.37	35.41	
2025-01-17 11:13:44.69	220.82	35.62	
2025-01-17 11:13:46.12	221.27	35.83	
2025-01-17 11:13:47.54	221.72	36.04	
2025-01-17 11:13:48.96	222.18	36.25	
2025-01-17 11:13:50.38	222.64	36.46	
2025-01-17 11:13:51.80	223.12	36.67	
2025-01-17 11:13:53.22	223.59	36.87	
2025-01-17 11:13:54.64	224.08	37.08	
2025-01-17 11:13:56.06	224.56	37.28	
2025-01-17 11:13:57.48	225.06	37.49	
2025-01-17 11:13:58.90	225.56	37.69	
2025-01-17 11:14:00.32	226.07	37.89	
2025-01-17 11:14:01.74	226.58	38.09	
2025-01-17 11:14:03.16	227.10	38.29	
2025-01-17 11:14:04.59	227.63	38.49	
2025-01-17 11:14:06.01	228.16	38.69	
2025-01-17 11:14:07.43	228.70	38.88	
2025-01-17 11:14:08.85	229.25	39.07	
2025-01-17 11:14:10.27	229.80	39.27	
2025-01-17 11:14:11.69	230.35	39.45	
2025-01-17 11:14:13.11	230.92	39.64	
2025-01-17 11:14:14.53	231.49	39.83	
2025-01-17 11:14:15.95	232.06	40.01	
2025-01-17 11:14:17.37	232.65	40.19	
2025-01-17 11:14:18.79	233.24	40.37	
2025-01-17 11:14:20.21	233.83	40.54	
2025-01-17 11:14:21.64	234.44	40.72	
2025-01-17 11:14:23.06	235.05	40.89	
2025-01-17 11:14:24.48	235.66	41.05	
2025-01-17 11:14:25.90	236.28	41.22	
2025-01-17 11:14:27.32	236.91	41.38	
2025-01-17 11:14:28.74	237.54	41.54	
2025-01-17 11:14:30.16	238.18	41.69	
2025-01-17 11:14:31.58	238.83	41.84	
2025-01-17 11:14:33.00	239.48	41.99	
2025-01-17 11:14:34.42	240.14	42.14	
2025-01-17 11:14:35.84	240.80	42.28	
2025-01-17 11:14:37.26	241.47	42.42	
2025-01-17 11:14:42.59	244.03	42.90	
2025-01-17 11:14:44.01	244.72	43.02	
2025-01-17 11:14:45.44	245.43	43.13	
2025-01-17 11:14:46.86	246.13	43.24	
2025-01-17 11:14:48.28	246.84	43.35	
2025-01-17 11:14:49.70	247.55	43.45	
2025-01-17 11:14:51.12	248.27	43.54	
2025-01-17 11:14:52.54	248.99	43.63	
2025-01-17 11:14:53.96	249.72	43.72	
2025-01-17 11:14:55.38	250.45	43.80	
2025-01-17 11:14:56.80	251.18	43.88	
2025-01-17 11:14:58.22	251.92	43.95	
2025-01-17 11:14:59.64	252.65	44.02	
2025-01-17 11:15:01.06	253.40	44.08	
2025-01-17 11:15:02.49	254.15	44.14	
2025-01-17 11:15:03.91	254.90	44.19	
2025-01-17 11:15:05.33	255.64	44.23	
2025-01-17 11:15:06.75	256.40	44.28	
2025-01-17 11:15:08.17	257.15	44.31	
2025-01-17 11:15:09.59	257.91	44.34	
2025-01-17 11:15:11.01	258.66	44.37	
2025-01-17 11:15:12.43	259.42	44.39	
2025-01-17 11:15:13.85	260.18	44.40	
2025-01-17 11:15:15.27	260.94	44.41	
2025-01-17 11:15:16.69	261.69	44.41	
2025-01-17 11:15:18.11	262.45	44.41	
2025-01-17 11:15:19.54	263.22	44.40	
2025-01-17 11:15:20.96	263.97	44.39	
2025-01-17 11:15:22.38	264.73	44.37	
2025-01-17 11:15:23.80	265.49	44.34	
2025-01-17 11:15:25.22	266.24	44.31	
2025-01-17 11:15:26.64	267.00	44.28	
2025-01-17 11:15:28.06	267.75	44.24	
2025-01-17 11:15:29.48	268.50	44.19	
2025-01-17 11:15:30.90	269.24	44.14	
2025-01-17 11:15:32.32	269.99	44.09	
2025-01-17 11:15:33.74	270.73	44.02	
2025-01-17 11:15:35.16	271.47	43.96	
2025-01-17 11:15:36.58	272.20	43.89	
2025-01-17 11:15:38.01	272.94	43.81	
2025-01-17 11:15:39.43	273.67	43.73	
2025-01-17 11:15:40.85	274.40	43.64	
2025-01-17 11:15:42.27	275.12	43.55	
2025-01-17 11:15:43.69	275.83	43.46	
2025-01-17 11:15:45.11	276.55	43.36	
2025-01-17 11:15:46.53	277.25	43.25	
2025-01-17 11:15:47.95	277.96	43.14	
2025-01-17 11:15:49.37	278.65	43.03	
2025-01-17 11:15:50.79	279.35	42.91	
2025-01-17 11:15:52.21	280.04	42.79	
2025-01-17 11:15:53.63	280.72	42.66	
2025-01-17 11:15:55.06	281.40	42.53	
2025-01-17 11:15:56.48	282.07	42.40	
2025-01-17 11:15:57.90	282.74	42.26	
2025-01-17 11:15:59.32	283.40	42.12	
2025-01-17 11:16:00.74	284.06	41.97	
2025-01-17 11:16:02.16	284.70	41.83	
2025-01-17 11:16:03.58	285.35	41.67	
2025-01-17 11:16:05.00	285.98	41.52	
2025-01-17 11:16:06.42	286.62	41.36	
2025-01-17 11:16:07.84	287.24	41.20	
2025-01-17 11:16:09.26	287.86	41.04	
2025-01-17 11:16:10.68	288.47	40.87	
2025-01-17 11:16:12.11	289.08	40.70	
2025-01-17 11:16:13.53	289.68	40.53	
2025-01-17 11:16:14.95	290.27	40.35	
2025-01-17 11:16:16.37	290.86	40.17	
2025-01-17 11:16:17.79	291.44	39.99	
2025-01-17 11:16:19.21	292.02	39.81	
2025-01-17 11:16:20.63	292.58	39.63	
2025-01-17 11:16:22.05	293.14	39.44	
2025-01-17 11:16:23.47	293.70	39.25	
2025-01-17 11:16:24.89	294.25	39.06	
2025-01-17 11:16:26.32	294.79	38.87	
2025-01-17 11:16:27.74	295.33	38.68	
2025-01-17 11:16:29.16	295.86	38.48	
2025-01-17 11:16:30.58	296.38	38.28	
2025-01-17 11:16:32.00	296.90	38.09	
2025-01-17 11:16:33.42	297.41	37.89	
2025-01-17 11:16:34.84	297.92	37.69	
2025-01-17 11:16:36.26	298.42	37.48	
2025-01-17 11:16:37.68	298.91	37.28	
2025-01-17 11:16:39.11	299.40	37.08	
2025-01-17 11:16:40.53	299.88	36.87	
2025-01-17 11:16:41.95	300.35	36.66	
2025-01-17 11:16:43.37	300.82	36.46	
2025-01-17 11:16:44.79	301.28	36.25	
2025-01-17 11:16:46.21	301.74	36.04	
2025-01-17 11:16:47.63	302.19	35.83	
2025-01-17 11:16:49.05	302.64	35.62	
2025-01-17 11:16:50.47	303.08	35.41	
2025-01-17 11:16:51.89	303.51	35.20	
2025-01-17 11:16:53.31	303.94	34.99	
2025-01-17 11:16:54.73	304.36	34.78	
2025-01-17 11:16:56.15	304.78	34.57	
2025-01-17 11:16:57.58	305.20	34.36	
2025-01-17 11:16:59.00	305.61	34.15	
2025-01-17 11:17:00.42	306.01	33.94	
2025-01-17 11:17:01.84	306.41	33.72	
2025-01-17 11:17:03.26	306.80	33.51	
2025-01-17 11:17:04.68	307.18	33.30	
2025-01-17 11:17:06.10	307.57	33.09	
2025-01-17 11:17:07.52	307.94	32.88	
2025-01-17 11:17:08.94	308.32	32.67	
2025-01-17 11:17:10.36	308.69	32.46	
2025-01-17 11:17:11.78	309.05	32.25	
2025-01-17 11:17:13.20	309.41	32.03	
2025-01-17 11:17:14.63	309.76	31.82	
2025-01-17 11:17:16.05	310.11	31.61	
2025-01-17 11:17:17.47	310.46	31.40	
2025-01-17 11:17:18.89	310.80	31.19	
2025-01-17 11:17:20.31	311.14	30.99	
2025-01-17 11:17:21.73	311.47	30.78	
2025-01-17 11:17:23.15	311.80	30.57	
2025-01-17 11:17:24.57	312.12	30.36	
2025-01-17 11:17:25.99	312.44	30.16	
2025-01-17 11:17:27.41	312.76	29.95	
2025-01-17 11:17:28.83	313.07	29.75	
2025-01-17 11:17:30.25	313.38	29.54	
2025-01-17 11:17:31.68	313.68	29.33	
2025-01-17 11:17:33.10	313.98	29.13	
2025-01-17 11:17:34.52	314.28	28.93	
2025-01-17 11:17:35.94	314.57	28.73	
2025-01-17 11:17:37.36	314.86	28.52	
2025-01-17 11:17:38.78	315.15	28.32	
2025-01-17 11:17:40.20	315.43	28.12	
2025-01-17 11:17:41.62	315.71	27.92	
2025-01-17 11:17:43.04	315.99	27.72	
2025-01-17 11:17:44.46	316.26	27.53	
2025-01-17 11:17:45.88	316.53	27.33	
2025-01-17 11:17:47.30	316.79	27.13	
2025-01-17 11:17:48.72	317.06	26.94	
2025-01-17 11:17:50.15	317.32	26.74	
2025-01-17 11:17:51.57	317.57	26.55	
2025-01-17 11:17:52.99	317.83	26.35	
2025-01-17 11:17:54.41	318.08	26.16	
2025-01-17 11:17:55.83	318.33	25.97	
2025-01-17 11:17:57.25	318.57	25.78	
2025-01-17 11:17:58.67	318.81	25.59	
2025-01-17 11:18:00.09	319.05	25.40	
2025-01-17 11:18:01.51	319.29	25.21	
2025-01-17 11:18:02.93	319.52	25.02	
2025-01-17 11:18:04.35	319.75	24.84	
2025-01-17 11:18:05.77	319.98	24.65	
2025-01-17 11:18:07.20	320.21	24.47	
2025-01-17 11:18:08.62	320.43	24.28	
2025-01-17 11:18:10.04	320.65	24.10	
2025-01-17 11:18:11.46	320.87	23.92	
2025-01-17 11:18:12.88	321.09	23.74	
2025-01-17 11:18:14.30	321.30	23.56	
2025-01-17 11:18:15.72	321.51	23.38	
2025-01-17 11:18:17.14	321.72	23.20	
2025-01-17 11:18:18.56	321.93	23.02	
2025-01-17 11:18:19.98	322.13	22.84	
2025-01-17 11:18:21.40	322.33	22.67	
2025-01-17 11:18:22.82	322.53	22.49	
2025-01-17 11:18:24.24	322.73	22.32	
2025-01-17 11:18:25.67	322.92	22.14	
2025-01-17 11:18:27.09	323.12	21.97	
2025-01-17 11:18:28.51	323.31	21.80	
2025-01-17 11:18:29.93	323.50	21.63	
2025-01-17 11:18:31.35	323.69	21.46	
2025-01-17 11:18:32.77	323.87	21.29	
2025-01-17 11:18:34.19	324.05	21.12	
2025-01-17 11:18:35.61	324.24	20.95	
2025-01-17 11:18:37.03	324.41	20.78	
2025-01-17 11:18:38.45	324.59	20.62	
2025-01-17 11:18:39.87	324.77	20.45	
2025-01-17 11:18:41.29	324.94	20.29	
2025-01-17 11:18:42.72	325.11	20.13	
2025-01-17 11:18:44.14	325.29	19.96	
2025-01-17 11:18:45.56	325.45	19.80	
2025-01-17 11:18:46.98	325.62	19.64	
2025-01-17 11:18:48.40	325.79	19.48	
2025-01-17 11:18:49.82	325.95	19.32	
2025-01-17 11:18:51.24	326.11	19.16	
2025-01-17 11:18:52.66	326.27	19.00	
2025-01-17 11:18:54.08	326.43	18.85	
2025-01-17 11:18:55.50	326.59	18.69	
2025-01-17 11:18:56.92	326.74	18.54	
2025-01-17 11:18:58.34	326.90	18.38	
2025-01-17 11:18:59.76	327.05	18.23	
2025-01-17 11:19:01.19	327.20	18.07	
2025-01-17 11:19:02.61	327.35	17.92	
2025-01-17 11:19:04.03	327.50	17.77	
2025-01-17 11:19:05.45	327.65	17.62	
2025-01-17 11:19:06.87	327.79	17.47	
2025-01-17 11:19:08.29	327.94	17.32	
2025-01-17 11:19:09.71	328.08	17.17	
2025-01-17 11:19:11.13	328.22	17.02	
2025-01-17 11:19:12.55	328.36	16.88	
2025-01-17 11:19:13.97	328.50	16.73	
2025-01-17 11:19:15.39	328.64	16.59	
2025-01-17 11:19:16.81	328.78	16.44	
2025-01-17 11:19:18.24	328.91	16.30	
2025-01-17 11:19:19.66	329.05	16.15	
2025-01-17 11:19:21.08	329.18	16.01	
2025-01-17 11:19:22.50	329.31	15.87	
2025-01-17 11:19:23.92	329.44	15.73	
2025-01-17 11:19:25.34	329.57	15.59	
2025-01-17 11:19:26.76	329.70	15.45	
2025-01-17 11:19:28.18	329.82	15.31	
2025-01-17 11:19:29.60	329.95	15.17	
2025-01-17 11:19:31.02	330.07	15.03	
2025-01-17 11:19:32.44	330.20	14.89	
2025-01-17 11:19:33.86	330.32	14.76	
2025-01-17 11:19:35.29	330.44	14.62	
2025-01-17 11:19:36.71	330.56	14.48	
2025-01-17 11:19:38.13	330.68	14.35	
2025-01-17 11:19:39.55	330.80	14.22	
2025-01-17 11:19:40.97	330.92	14.08	
2025-01-17 11:19:42.39	331.03	13.95	
2025-01-17 11:19:43.81	331.15	13.82	
2025-01-17 11:19:45.23	331.26	13.69	
2025-01-17 11:19:46.65	331.38	13.56	
2025-01-17 11:19:48.07	331.49	13.43	
2025-01-17 11:19:49.49	331.60	13.30	
2025-01-17 11:19:50.91	331.71	13.17	
2025-01-17 11:19:52.33	331.82	13.04	
2025-01-17 11:19:53.76	331.93	12.91	
2025-01-17 11:19:55.18	332.04	12.78	
2025-01-17 11:19:56.60	332.15	12.66	
2025-01-17 11:19:58.02	332.25	12.53	
2025-01-17 11:19:59.44	332.36	12.40	
2025-01-17 11:20:00.86	332.46	12.28	
2025-01-17 11:20:02.28	332.57	12.15	
2025-01-17 11:20:03.70	332.67	12.03	
2025-01-17 11:20:05.12	332.77	11.91	
2025-01-17 11:20:06.54	332.87	11.79	
2025-01-17 11:20:07.96	332.97	11.66	
2025-01-17 11:20:09.38	333.07	11.54	
2025-01-17 11:20:10.81	333.17	11.42	
2025-01-17 11:20:12.23	333.27	11.30	
2025-01-17 11:20:13.65	333.37	11.18	
2025-01-17 11:20:15.07	333.46	11.06	
2025-01-17 11:20:16.49	333.56	10.94	
2025-01-17 11:20:17.91	333.66	10.82	
2025-01-17 11:20:19.33	333.75	10.70	
2025-01-17 11:20:20.75	333.84	10.59	
2025-01-17 11:20:22.17	333.94	10.47	
2025-01-17 11:20:23.59	334.03	10.35	
2025-01-17 11:20:25.01	334.12	10.24	
2025-01-17 11:20:26.43	334.21	10.12	
2025-01-17 11:20:27.85	334.30	10.01	
2025-01-17 11:20:29.28	334.39	9.89	
2025-01-17 11:20:30.70	334.48	9.78	
2025-01-17 11:20:32.12	334.57	9.66	
2025-01-17 11:20:33.54	334.66	9.55	
2025-01-17 11:20:34.96	334.75	9.44	
2025-01-17 11:20:36.38	334.83	9.32	
2025-01-17 11:20:37.80	334.92	9.21	
2025-01-17 11:20:39.22	335.00	9.10	
2025-01-17 11:20:40.64	335.09	8.99	
2025-01-17 11:20:42.06	335.17	8.88	
2025-01-17 11:20:43.48	335.26	8.77	
2025-01-17 11:20:44.90	335.34	8.66	
2025-01-17 11:20:46.33	335.42	8.55	
2025-01-17 11:20:47.75	335.51	8.44	
2025-01-17 11:20:49.17	335.59	8.33	
2025-01-17 11:20:50.59	335.67	8.23	
2025-01-17 11:20:52.01	335.75	8.12	
2025-01-17 11:20:53.43	335.83	8.01	
2025-01-17 11:20:54.85	335.91	7.90	
2025-01-17 11:20:56.27	335.98	7.80	
2025-01-17 11:20:57.69	336.06	7.69	
2025-01-17 11:20:59.11	336.14	7.59	
2025-01-17 11:21:00.53	336.22	7.48	
2025-01-17 11:21:01.95	336.29	7.38	
2025-01-17 11:21:03.37	336.37	7.27	
2025-01-17 11:21:04.80	336.45	7.17	
2025-01-17 11:21:06.22	336.52	7.06	
2025-01-17 11:21:07.64	336.60	6.96	
2025-01-17 11:21:09.06	336.67	6.86	
2025-01-17 11:21:10.48	336.74	6.76	
2025-01-17 11:21:11.90	336.82	6.65	
2025-01-17 11:21:13.32	336.89	6.55	
2025-01-17 11:21:14.74	336.96	6.45	
2025-01-17 11:21:16.16	337.03	6.35	
2025-01-17 11:21:17.58	337.11	6.25	
2025-01-17 11:21:19.00	337.18	6.15	
2025-01-17 11:21:20.42	337.25	6.05	
2025-01-17 11:21:21.85	337.32	5.95	
2025-01-17 11:21:23.27	337.39	5.85	
2025-01-17 11:21:24.69	337.46	5.75	
2025-01-17 11:21:26.11	337.52	5.65	
2025-01-17 11:21:27.53	337.59	5.56	
2025-01-17 11:21:28.95	337.66	5.46	
2025-01-17 11:21:30.37	337.73	5.36	
2025-01-17 11:21:31.79	337.80	5.26	
2025-01-17 11:21:33.21	337.86	5.17	
2025-01-17 11:21:34.63	337.93	5.07	
2025-01-17 11:21:36.05	337.99	4.97	
2025-01-17 11:21:37.47	338.06	4.88	
2025-01-17 11:21:38.90	338.13	4.78	
2025-01-17 11:21:40.32	338.19	4.69	
2025-01-17 11:21:41.74	338.26	4.59	
2025-01-17 11:21:43.16	338.32	4.50	
2025-01-17 11:21:44.58	338.38	4.40	
2025-01-17 11:21:46.00	338.45	4.31	
2025-01-17 11:21:47.42	338.51	4.22	
2025-01-17 11:21:48.84	338.57	4.12	
2025-01-17 11:21:50.26	338.63	4.03	

#Closed at: 2025-01-17 11:21:50