passes_logs/2025/01/17/SPB_Silybum_02/SPB_Silybum_02__20250117_125239_AQUA_rec.log

#Pass ID: 20250117_125239_AQUA
#Satellite: AQUA
#Configuration: AQUA
#Start time: 2025-01-17 12:52:37

#Version: 2.0.20230423
#Station: SPB_Silybum_02
#Location: 30.233357 lon 59.946436 lat
#TLE: 1 27424U 02022A   25016.84910416  .00001840  00000+0  38758-3 0  9998
#TLE: 2 27424  98.3592 333.5297 0001787 109.3464 277.9036 14.60690037207895

#Time	Az	El	Level	Level2	SNR	BER	Gain	Gain2
2025-01-17 12:52:39.62	208.47	4.03	
2025-01-17 12:52:40.84	208.58	4.10	
2025-01-17 12:52:42.05	208.68	4.18	
2025-01-17 12:52:43.27	208.79	4.25	
2025-01-17 12:52:44.49	208.90	4.33	
2025-01-17 12:52:45.71	209.01	4.41	
2025-01-17 12:52:46.93	209.12	4.48	
2025-01-17 12:52:48.14	209.23	4.56	
2025-01-17 12:52:49.36	209.34	4.63	
2025-01-17 12:52:50.58	209.45	4.71	
2025-01-17 12:52:51.80	209.56	4.78	
2025-01-17 12:52:53.02	209.68	4.86	
2025-01-17 12:52:54.23	209.79	4.94	
2025-01-17 12:52:55.45	209.90	5.01	
2025-01-17 12:52:56.67	210.02	5.09	
2025-01-17 12:52:57.89	210.13	5.17	
2025-01-17 12:52:59.10	210.25	5.24	
2025-01-17 12:53:00.32	210.36	5.32	
2025-01-17 12:53:01.54	210.48	5.40	
2025-01-17 12:53:02.76	210.60	5.48	
2025-01-17 12:53:03.98	210.72	5.56	
2025-01-17 12:53:05.19	210.83	5.63	
2025-01-17 12:53:06.41	210.95	5.71	
2025-01-17 12:53:07.63	211.07	5.79	
2025-01-17 12:53:08.85	211.19	5.87	
2025-01-17 12:53:10.06	211.31	5.95	
2025-01-17 12:53:11.28	211.44	6.03	
2025-01-17 12:53:12.50	211.56	6.10	
2025-01-17 12:53:13.72	211.68	6.18	
2025-01-17 12:53:14.94	211.81	6.26	
2025-01-17 12:53:16.15	211.93	6.34	
2025-01-17 12:53:17.37	212.06	6.42	
2025-01-17 12:53:18.59	212.19	6.50	
2025-01-17 12:53:19.81	212.31	6.58	
2025-01-17 12:53:21.03	212.44	6.66	
2025-01-17 12:53:22.24	212.57	6.74	
2025-01-17 12:53:23.46	212.70	6.82	
2025-01-17 12:53:24.68	212.83	6.90	
2025-01-17 12:53:25.90	212.96	6.98	
2025-01-17 12:53:27.11	213.09	7.06	
2025-01-17 12:53:28.33	213.22	7.15	
2025-01-17 12:53:29.55	213.36	7.23	
2025-01-17 12:53:30.77	213.49	7.31	
2025-01-17 12:53:31.99	213.63	7.39	
2025-01-17 12:53:33.20	213.76	7.47	
2025-01-17 12:53:34.42	213.90	7.55	
2025-01-17 12:53:35.64	214.03	7.64	
2025-01-17 12:53:36.86	214.17	7.72	
2025-01-17 12:53:38.08	214.31	7.80	
2025-01-17 12:53:39.29	214.45	7.88	
2025-01-17 12:53:40.51	214.59	7.97	
2025-01-17 12:53:41.73	214.73	8.05	
2025-01-17 12:53:42.95	214.87	8.13	
2025-01-17 12:53:44.16	215.02	8.21	
2025-01-17 12:53:45.38	215.16	8.30	
2025-01-17 12:53:46.60	215.31	8.38	
2025-01-17 12:53:47.82	215.45	8.47	
2025-01-17 12:53:49.04	215.60	8.55	
2025-01-17 12:53:50.25	215.74	8.63	
2025-01-17 12:53:51.47	215.89	8.72	
2025-01-17 12:53:52.69	216.04	8.80	
2025-01-17 12:53:53.91	216.19	8.89	
2025-01-17 12:53:55.12	216.34	8.97	
2025-01-17 12:53:56.34	216.49	9.06	
2025-01-17 12:53:57.56	216.65	9.14	
2025-01-17 12:53:58.78	216.80	9.23	
2025-01-17 12:54:00.00	216.96	9.31	
2025-01-17 12:54:01.21	217.11	9.40	
2025-01-17 12:54:02.43	217.27	9.48	
2025-01-17 12:54:03.65	217.43	9.57	
2025-01-17 12:54:04.87	217.58	9.65	
2025-01-17 12:54:06.09	217.74	9.74	
2025-01-17 12:54:07.30	217.90	9.83	
2025-01-17 12:54:08.52	218.06	9.91	
2025-01-17 12:54:09.74	218.23	10.00	
2025-01-17 12:54:10.96	218.39	10.09	
2025-01-17 12:54:12.17	218.55	10.17	
2025-01-17 12:54:13.39	218.72	10.26	
2025-01-17 12:54:14.61	218.89	10.35	
2025-01-17 12:54:15.83	219.05	10.43	
2025-01-17 12:54:17.05	219.22	10.52	
2025-01-17 12:54:18.26	219.39	10.61	
2025-01-17 12:54:19.48	219.56	10.70	
2025-01-17 12:54:20.70	219.74	10.78	
2025-01-17 12:54:21.92	219.91	10.87	
2025-01-17 12:54:23.13	220.08	10.96	
2025-01-17 12:54:24.35	220.26	11.05	
2025-01-17 12:54:25.57	220.43	11.14	
2025-01-17 12:54:26.79	220.61	11.23	
2025-01-17 12:54:28.01	220.79	11.31	
2025-01-17 12:54:29.22	220.97	11.40	
2025-01-17 12:54:30.44	221.15	11.49	
2025-01-17 12:54:31.66	221.33	11.58	
2025-01-17 12:54:32.88	221.51	11.67	
2025-01-17 12:54:34.10	221.70	11.76	
2025-01-17 12:54:35.31	221.88	11.85	
2025-01-17 12:54:36.53	222.07	11.94	
2025-01-17 12:54:37.75	222.26	12.03	
2025-01-17 12:54:38.97	222.45	12.12	
2025-01-17 12:54:40.18	222.63	12.20	
2025-01-17 12:54:41.40	222.83	12.29	
2025-01-17 12:54:42.62	223.02	12.38	
2025-01-17 12:54:43.84	223.21	12.47	
2025-01-17 12:54:45.06	223.41	12.56	
2025-01-17 12:54:46.27	223.60	12.65	
2025-01-17 12:54:47.49	223.80	12.74	
2025-01-17 12:54:48.71	224.00	12.83	
2025-01-17 12:54:49.93	224.20	12.92	
2025-01-17 12:54:51.14	224.40	13.01	
2025-01-17 12:54:52.36	224.60	13.11	
2025-01-17 12:54:53.58	224.81	13.20	
2025-01-17 12:54:54.80	225.01	13.29	
2025-01-17 12:54:56.02	225.22	13.38	
2025-01-17 12:54:57.23	225.42	13.47	
2025-01-17 12:54:58.45	225.63	13.56	
2025-01-17 12:54:59.67	225.84	13.65	
2025-01-17 12:55:00.89	226.06	13.74	
2025-01-17 12:55:02.11	226.27	13.83	
2025-01-17 12:55:03.32	226.48	13.92	
2025-01-17 12:55:04.54	226.70	14.01	
2025-01-17 12:55:05.76	226.92	14.10	
2025-01-17 12:55:06.98	227.13	14.19	
2025-01-17 12:55:08.19	227.35	14.28	
2025-01-17 12:55:09.41	227.57	14.38	
2025-01-17 12:55:10.63	227.80	14.47	
2025-01-17 12:55:11.85	228.02	14.56	
2025-01-17 12:55:13.07	228.25	14.65	
2025-01-17 12:55:14.28	228.47	14.74	
2025-01-17 12:55:15.50	228.70	14.83	
2025-01-17 12:55:16.72	228.93	14.92	
2025-01-17 12:55:17.94	229.16	15.01	
2025-01-17 12:55:19.16	229.40	15.10	
2025-01-17 12:55:20.37	229.63	15.19	
2025-01-17 12:55:21.59	229.87	15.28	
2025-01-17 12:55:22.81	230.10	15.37	
2025-01-17 12:55:24.03	230.34	15.46	
2025-01-17 12:55:25.24	230.58	15.55	
2025-01-17 12:55:26.46	230.82	15.64	
2025-01-17 12:55:27.68	231.07	15.73	
2025-01-17 12:55:28.90	231.31	15.82	
2025-01-17 12:55:30.12	231.56	15.91	
2025-01-17 12:55:31.33	231.81	16.00	
2025-01-17 12:55:32.55	232.06	16.09	
2025-01-17 12:55:33.77	232.31	16.18	
2025-01-17 12:55:34.99	232.56	16.27	
2025-01-17 12:55:36.20	232.81	16.36	
2025-01-17 12:55:37.42	233.07	16.45	
2025-01-17 12:55:38.64	233.33	16.54	
2025-01-17 12:55:39.86	233.58	16.63	
2025-01-17 12:55:41.08	233.84	16.72	
2025-01-17 12:55:42.29	234.10	16.81	
2025-01-17 12:55:43.51	234.37	16.89	
2025-01-17 12:55:44.73	234.63	16.98	
2025-01-17 12:55:45.95	234.90	17.07	
2025-01-17 12:55:47.17	235.17	17.16	
2025-01-17 12:55:48.38	235.44	17.24	
2025-01-17 12:55:49.60	235.71	17.33	
2025-01-17 12:55:50.82	235.98	17.42	
2025-01-17 12:55:52.04	236.26	17.51	
2025-01-17 12:55:53.25	236.53	17.59	
2025-01-17 12:55:54.47	236.81	17.68	
2025-01-17 12:55:55.69	237.09	17.76	
2025-01-17 12:55:56.91	237.37	17.85	
2025-01-17 12:55:58.13	237.66	17.93	
2025-01-17 12:55:59.34	237.94	18.02	
2025-01-17 12:56:00.56	238.23	18.10	
2025-01-17 12:56:01.78	238.51	18.19	
2025-01-17 12:56:03.00	238.80	18.27	
2025-01-17 12:56:04.22	239.10	18.35	
2025-01-17 12:56:05.43	239.39	18.44	
2025-01-17 12:56:06.65	239.68	18.52	
2025-01-17 12:56:07.87	239.98	18.60	
2025-01-17 12:56:09.09	240.28	18.68	
2025-01-17 12:56:10.30	240.57	18.76	
2025-01-17 12:56:11.52	240.88	18.85	
2025-01-17 12:56:12.74	241.18	18.93	
2025-01-17 12:56:13.96	241.48	19.01	
2025-01-17 12:56:15.18	241.79	19.09	
2025-01-17 12:56:16.39	242.10	19.16	
2025-01-17 12:56:17.61	242.40	19.24	
2025-01-17 12:56:18.83	242.72	19.32	
2025-01-17 12:56:20.05	243.03	19.40	
2025-01-17 12:56:21.26	243.34	19.47	
2025-01-17 12:56:22.48	243.66	19.55	
2025-01-17 12:56:23.70	243.98	19.63	
2025-01-17 12:56:24.92	244.29	19.70	
2025-01-17 12:56:26.14	244.62	19.78	
2025-01-17 12:56:27.35	244.94	19.85	
2025-01-17 12:56:28.57	245.26	19.92	
2025-01-17 12:56:29.79	245.59	20.00	
2025-01-17 12:56:31.01	245.91	20.07	
2025-01-17 12:56:32.23	246.24	20.14	
2025-01-17 12:56:33.44	246.57	20.21	
2025-01-17 12:56:34.66	246.90	20.28	
2025-01-17 12:56:35.88	247.24	20.35	
2025-01-17 12:56:37.10	247.57	20.42	
2025-01-17 12:56:38.31	247.90	20.48	
2025-01-17 12:56:39.53	248.24	20.55	
2025-01-17 12:56:40.75	248.58	20.62	
2025-01-17 12:56:41.97	248.92	20.68	
2025-01-17 12:56:43.19	249.27	20.75	
2025-01-17 12:56:44.40	249.61	20.81	
2025-01-17 12:56:45.62	249.95	20.87	
2025-01-17 12:56:46.84	250.30	20.94	
2025-01-17 12:56:48.06	250.65	21.00	
2025-01-17 12:56:49.27	251.00	21.06	
2025-01-17 12:56:50.49	251.35	21.12	
2025-01-17 12:56:51.71	251.70	21.18	
2025-01-17 12:56:52.93	252.05	21.23	
2025-01-17 12:56:54.15	252.41	21.29	
2025-01-17 12:56:55.36	252.76	21.35	
2025-01-17 12:56:56.58	253.12	21.40	
2025-01-17 12:56:57.80	253.48	21.46	
2025-01-17 12:56:59.02	253.84	21.51	
2025-01-17 12:57:00.24	254.20	21.56	
2025-01-17 12:57:01.45	254.56	21.61	
2025-01-17 12:57:02.67	254.93	21.66	
2025-01-17 12:57:03.89	255.29	21.71	
2025-01-17 12:57:05.11	255.66	21.76	
2025-01-17 12:57:06.32	256.02	21.80	
2025-01-17 12:57:07.54	256.39	21.85	
2025-01-17 12:57:08.76	256.76	21.90	
2025-01-17 12:57:09.98	257.13	21.94	
2025-01-17 12:57:11.20	257.50	21.98	
2025-01-17 12:57:12.41	257.87	22.02	
2025-01-17 12:57:13.63	258.25	22.06	
2025-01-17 12:57:14.85	258.62	22.10	
2025-01-17 12:57:16.07	259.00	22.14	
2025-01-17 12:57:17.28	259.37	22.18	
2025-01-17 12:57:18.50	259.75	22.21	
2025-01-17 12:57:19.72	260.13	22.25	
2025-01-17 12:57:20.94	260.51	22.28	
2025-01-17 12:57:22.16	260.89	22.31	
2025-01-17 12:57:23.37	261.27	22.35	
2025-01-17 12:57:24.59	261.65	22.38	
2025-01-17 12:57:25.81	262.03	22.40	
2025-01-17 12:57:27.03	262.42	22.43	
2025-01-17 12:57:28.25	262.80	22.46	
2025-01-17 12:57:29.46	263.18	22.48	
2025-01-17 12:57:30.68	263.57	22.51	
2025-01-17 12:57:31.90	263.95	22.53	
2025-01-17 12:57:33.12	264.34	22.55	
2025-01-17 12:57:34.33	264.72	22.57	
2025-01-17 12:57:35.55	265.11	22.59	
2025-01-17 12:57:36.77	265.50	22.61	
2025-01-17 12:57:37.99	265.89	22.62	
2025-01-17 12:57:39.21	266.27	22.64	
2025-01-17 12:57:40.42	266.66	22.65	
2025-01-17 12:57:41.64	267.05	22.66	
2025-01-17 12:57:42.86	267.44	22.68	
2025-01-17 12:57:44.08	267.83	22.69	
2025-01-17 12:57:45.30	268.22	22.69	
2025-01-17 12:57:46.51	268.61	22.70	
2025-01-17 12:57:47.73	269.00	22.71	
2025-01-17 12:57:48.95	269.39	22.71	
2025-01-17 12:57:50.17	269.78	22.71	
2025-01-17 12:57:51.38	270.16	22.72	
2025-01-17 12:57:52.60	270.56	22.72	
2025-01-17 12:57:53.82	270.95	22.72	
2025-01-17 12:57:55.04	271.34	22.71	
2025-01-17 12:57:56.26	271.73	22.71	
2025-01-17 12:57:57.47	272.11	22.71	
2025-01-17 12:57:58.69	272.50	22.70	
2025-01-17 12:57:59.91	272.89	22.69	
2025-01-17 12:58:01.13	273.28	22.69	
2025-01-17 12:58:02.34	273.67	22.68	
2025-01-17 12:58:03.56	274.06	22.66	
2025-01-17 12:58:04.78	274.45	22.65	
2025-01-17 12:58:06.00	274.84	22.64	
2025-01-17 12:58:07.22	275.23	22.62	
2025-01-17 12:58:08.43	275.61	22.61	
2025-01-17 12:58:09.65	276.00	22.59	
2025-01-17 12:58:10.87	276.39	22.57	
2025-01-17 12:58:12.09	276.77	22.55	
2025-01-17 12:58:13.31	277.16	22.53	
2025-01-17 12:58:14.52	277.54	22.51	
2025-01-17 12:58:15.74	277.93	22.48	
2025-01-17 12:58:16.96	278.31	22.46	
2025-01-17 12:58:18.18	278.69	22.43	
2025-01-17 12:58:19.39	279.07	22.41	
2025-01-17 12:58:20.61	279.45	22.38	
2025-01-17 12:58:21.83	279.84	22.35	
2025-01-17 12:58:23.05	280.22	22.32	
2025-01-17 12:58:24.27	280.60	22.28	
2025-01-17 12:58:25.48	280.97	22.25	
2025-01-17 12:58:26.70	281.35	22.22	
2025-01-17 12:58:27.92	281.73	22.18	
2025-01-17 12:58:29.14	282.10	22.14	
2025-01-17 12:58:30.35	282.47	22.11	
2025-01-17 12:58:31.57	282.85	22.07	
2025-01-17 12:58:32.79	283.22	22.03	
2025-01-17 12:58:34.01	283.59	21.98	
2025-01-17 12:58:35.23	283.97	21.94	
2025-01-17 12:58:36.44	284.33	21.90	
2025-01-17 12:58:37.66	284.70	21.85	
2025-01-17 12:58:38.88	285.07	21.81	
2025-01-17 12:58:40.10	285.44	21.76	
2025-01-17 12:58:41.32	285.80	21.71	
2025-01-17 12:58:42.53	286.16	21.67	
2025-01-17 12:58:43.75	286.53	21.62	
2025-01-17 12:58:44.97	286.89	21.56	
2025-01-17 12:58:46.19	287.25	21.51	
2025-01-17 12:58:47.40	287.61	21.46	
2025-01-17 12:58:48.62	287.96	21.41	
2025-01-17 12:58:49.84	288.32	21.35	
2025-01-17 12:58:51.06	288.68	21.30	
2025-01-17 12:58:52.28	289.03	21.24	
2025-01-17 12:58:53.49	289.38	21.18	
2025-01-17 12:58:54.71	289.73	21.12	
2025-01-17 12:58:55.93	290.08	21.06	
2025-01-17 12:58:57.15	290.43	21.00	
2025-01-17 12:58:58.37	290.78	20.94	
2025-01-17 12:58:59.58	291.12	20.88	
2025-01-17 12:59:00.80	291.47	20.82	
2025-01-17 12:59:02.02	291.81	20.76	
2025-01-17 12:59:03.24	292.15	20.69	
2025-01-17 12:59:04.45	292.49	20.63	
2025-01-17 12:59:05.67	292.83	20.56	
2025-01-17 12:59:06.89	293.16	20.49	
2025-01-17 12:59:08.11	293.50	20.43	
2025-01-17 12:59:09.33	293.83	20.36	
2025-01-17 12:59:10.54	294.16	20.29	
2025-01-17 12:59:11.76	294.49	20.22	
2025-01-17 12:59:12.98	294.82	20.15	
2025-01-17 12:59:14.20	295.15	20.08	
2025-01-17 12:59:15.41	295.47	20.01	
2025-01-17 12:59:16.63	295.80	19.94	
2025-01-17 12:59:17.85	296.12	19.86	
2025-01-17 12:59:19.07	296.44	19.79	
2025-01-17 12:59:20.29	296.76	19.72	
2025-01-17 12:59:21.50	297.08	19.64	
2025-01-17 12:59:22.72	297.40	19.57	
2025-01-17 12:59:23.94	297.71	19.49	
2025-01-17 12:59:25.16	298.02	19.41	
2025-01-17 12:59:26.38	298.34	19.34	
2025-01-17 12:59:27.59	298.64	19.26	
2025-01-17 12:59:28.81	298.95	19.18	
2025-01-17 12:59:30.03	299.26	19.10	
2025-01-17 12:59:31.25	299.56	19.03	
2025-01-17 12:59:32.46	299.86	18.95	
2025-01-17 12:59:33.68	300.17	18.87	
2025-01-17 12:59:34.90	300.47	18.79	
2025-01-17 12:59:36.12	300.77	18.71	
2025-01-17 12:59:37.34	301.06	18.62	
2025-01-17 12:59:38.55	301.36	18.54	
2025-01-17 12:59:39.77	301.65	18.46	
2025-01-17 12:59:40.99	301.94	18.38	
2025-01-17 12:59:42.21	302.23	18.30	
2025-01-17 12:59:43.42	302.52	18.21	
2025-01-17 12:59:44.64	302.80	18.13	
2025-01-17 12:59:45.86	303.09	18.05	
2025-01-17 12:59:47.08	303.37	17.96	
2025-01-17 12:59:48.30	303.66	17.88	
2025-01-17 12:59:49.51	303.93	17.79	
2025-01-17 12:59:50.73	304.21	17.71	
2025-01-17 12:59:51.95	304.49	17.62	
2025-01-17 12:59:53.17	304.77	17.54	
2025-01-17 12:59:54.39	305.04	17.45	
2025-01-17 12:59:55.60	305.31	17.37	
2025-01-17 12:59:56.82	305.58	17.28	
2025-01-17 12:59:58.04	305.85	17.19	
2025-01-17 12:59:59.26	306.12	17.11	
2025-01-17 13:00:00.47	306.38	17.02	
2025-01-17 13:00:01.71	306.65	16.93	
2025-01-17 13:00:02.96	306.92	16.84	
2025-01-17 13:00:04.19	307.18	16.75	
2025-01-17 13:00:05.41	307.44	16.66	
2025-01-17 13:00:06.63	307.70	16.57	
2025-01-17 13:00:07.84	307.96	16.49	
2025-01-17 13:00:09.06	308.21	16.40	
2025-01-17 13:00:10.28	308.46	16.31	
2025-01-17 13:00:11.50	308.72	16.22	
2025-01-17 13:00:12.71	308.96	16.13	
2025-01-17 13:00:13.93	309.21	16.04	
2025-01-17 13:00:15.15	309.46	15.95	
2025-01-17 13:00:16.37	309.71	15.87	
2025-01-17 13:00:17.59	309.95	15.78	
2025-01-17 13:00:18.80	310.19	15.69	
2025-01-17 13:00:20.02	310.43	15.60	
2025-01-17 13:00:21.24	310.67	15.51	
2025-01-17 13:00:22.46	310.91	15.42	
2025-01-17 13:00:23.68	311.15	15.33	
2025-01-17 13:00:24.89	311.38	15.24	
2025-01-17 13:00:26.11	311.61	15.15	
2025-01-17 13:00:27.33	311.84	15.06	
2025-01-17 13:00:28.55	312.08	14.97	
2025-01-17 13:00:29.76	312.30	14.88	
2025-01-17 13:00:30.98	312.53	14.79	
2025-01-17 13:00:32.20	312.76	14.70	
2025-01-17 13:00:33.42	312.98	14.61	
2025-01-17 13:00:34.64	313.21	14.52	
2025-01-17 13:00:35.85	313.43	14.43	
2025-01-17 13:00:37.07	313.65	14.34	
2025-01-17 13:00:38.29	313.87	14.25	
2025-01-17 13:00:39.51	314.08	14.16	
2025-01-17 13:00:40.73	314.30	14.07	
2025-01-17 13:00:41.94	314.52	13.98	
2025-01-17 13:00:43.16	314.73	13.89	
2025-01-17 13:00:44.38	314.94	13.80	
2025-01-17 13:00:45.60	315.15	13.71	
2025-01-17 13:00:46.81	315.36	13.62	
2025-01-17 13:00:48.03	315.57	13.53	
2025-01-17 13:00:49.25	315.78	13.44	
2025-01-17 13:00:50.47	315.98	13.35	
2025-01-17 13:00:51.69	316.19	13.26	
2025-01-17 13:00:52.90	316.39	13.17	
2025-01-17 13:00:54.12	316.59	13.08	
2025-01-17 13:00:55.34	316.79	12.99	
2025-01-17 13:00:56.56	316.99	12.90	
2025-01-17 13:00:57.77	317.19	12.81	
2025-01-17 13:00:58.99	317.39	12.72	
2025-01-17 13:01:00.21	317.58	12.63	
2025-01-17 13:01:01.43	317.78	12.54	
2025-01-17 13:01:02.65	317.97	12.45	
2025-01-17 13:01:03.86	318.16	12.37	
2025-01-17 13:01:05.08	318.35	12.28	
2025-01-17 13:01:06.30	318.54	12.19	
2025-01-17 13:01:07.52	318.73	12.10	
2025-01-17 13:01:08.74	318.92	12.01	
2025-01-17 13:01:09.95	319.10	11.92	
2025-01-17 13:01:11.17	319.29	11.83	
2025-01-17 13:01:12.39	319.47	11.75	
2025-01-17 13:01:13.61	319.65	11.66	
2025-01-17 13:01:14.82	319.83	11.57	
2025-01-17 13:01:16.04	320.01	11.48	
2025-01-17 13:01:17.26	320.19	11.39	
2025-01-17 13:01:18.48	320.37	11.31	
2025-01-17 13:01:19.70	320.55	11.22	
2025-01-17 13:01:20.91	320.72	11.13	
2025-01-17 13:01:22.13	320.90	11.04	
2025-01-17 13:01:23.35	321.07	10.96	
2025-01-17 13:01:24.57	321.25	10.87	
2025-01-17 13:01:25.79	321.42	10.78	
2025-01-17 13:01:27.01	321.59	10.69	
2025-01-17 13:01:28.22	321.76	10.61	
2025-01-17 13:01:29.44	321.92	10.52	
2025-01-17 13:01:30.66	322.09	10.44	
2025-01-17 13:01:31.88	322.26	10.35	
2025-01-17 13:01:33.09	322.42	10.26	
2025-01-17 13:01:34.31	322.59	10.18	
2025-01-17 13:01:35.53	322.75	10.09	
2025-01-17 13:01:36.75	322.91	10.00	
2025-01-17 13:01:37.97	323.08	9.92	
2025-01-17 13:01:39.18	323.23	9.83	
2025-01-17 13:01:40.40	323.39	9.75	
2025-01-17 13:01:41.62	323.55	9.66	
2025-01-17 13:01:42.84	323.71	9.58	
2025-01-17 13:01:44.05	323.87	9.49	
2025-01-17 13:01:45.27	324.02	9.41	
2025-01-17 13:01:46.49	324.18	9.32	
2025-01-17 13:01:47.71	324.33	9.24	
2025-01-17 13:01:48.93	324.48	9.16	
2025-01-17 13:01:50.14	324.63	9.07	
2025-01-17 13:01:51.36	324.78	8.99	
2025-01-17 13:01:52.58	324.94	8.90	
2025-01-17 13:01:53.80	325.08	8.82	
2025-01-17 13:01:55.02	325.23	8.74	
2025-01-17 13:01:56.23	325.38	8.65	
2025-01-17 13:01:57.45	325.53	8.57	
2025-01-17 13:01:58.67	325.67	8.49	
2025-01-17 13:01:59.89	325.82	8.40	
2025-01-17 13:02:01.10	325.96	8.32	
2025-01-17 13:02:02.32	326.10	8.24	
2025-01-17 13:02:03.54	326.25	8.16	
2025-01-17 13:02:04.76	326.39	8.07	
2025-01-17 13:02:05.98	326.53	7.99	
2025-01-17 13:02:07.19	326.67	7.91	
2025-01-17 13:02:08.41	326.81	7.83	
2025-01-17 13:02:09.63	326.94	7.75	
2025-01-17 13:02:10.85	327.08	7.67	
2025-01-17 13:02:12.07	327.22	7.58	
2025-01-17 13:02:13.28	327.35	7.50	
2025-01-17 13:02:14.50	327.49	7.42	
2025-01-17 13:02:15.72	327.62	7.34	
2025-01-17 13:02:16.94	327.76	7.26	
2025-01-17 13:02:18.15	327.89	7.18	
2025-01-17 13:02:19.37	328.02	7.10	
2025-01-17 13:02:20.59	328.15	7.02	
2025-01-17 13:02:21.81	328.28	6.94	
2025-01-17 13:02:23.03	328.41	6.86	
2025-01-17 13:02:24.24	328.54	6.78	
2025-01-17 13:02:25.46	328.67	6.70	
2025-01-17 13:02:26.68	328.80	6.62	
2025-01-17 13:02:27.90	328.92	6.54	
2025-01-17 13:02:29.11	329.05	6.47	
2025-01-17 13:02:30.33	329.17	6.39	
2025-01-17 13:02:31.55	329.30	6.31	
2025-01-17 13:02:32.77	329.42	6.23	
2025-01-17 13:02:33.99	329.55	6.15	
2025-01-17 13:02:35.20	329.67	6.07	
2025-01-17 13:02:36.42	329.79	5.99	
2025-01-17 13:02:37.64	329.91	5.92	
2025-01-17 13:02:38.86	330.03	5.84	
2025-01-17 13:02:40.08	330.15	5.76	
2025-01-17 13:02:41.29	330.27	5.68	
2025-01-17 13:02:42.51	330.39	5.61	
2025-01-17 13:02:43.73	330.51	5.53	
2025-01-17 13:02:44.95	330.62	5.45	
2025-01-17 13:02:46.16	330.74	5.38	
2025-01-17 13:02:47.38	330.86	5.30	
2025-01-17 13:02:48.60	330.97	5.22	
2025-01-17 13:02:49.82	331.09	5.15	
2025-01-17 13:02:51.04	331.20	5.07	
2025-01-17 13:02:52.25	331.31	5.00	
2025-01-17 13:02:53.47	331.43	4.92	
2025-01-17 13:02:54.69	331.54	4.84	
2025-01-17 13:02:55.91	331.65	4.77	
2025-01-17 13:02:57.12	331.76	4.69	
2025-01-17 13:02:58.34	331.87	4.62	
2025-01-17 13:02:59.56	331.98	4.54	
2025-01-17 13:03:00.78	332.09	4.47	
2025-01-17 13:03:02.00	332.20	4.39	
2025-01-17 13:03:03.21	332.31	4.32	
2025-01-17 13:03:04.43	332.42	4.25	
2025-01-17 13:03:05.65	332.52	4.17	
2025-01-17 13:03:06.87	332.63	4.10	
2025-01-17 13:03:08.09	332.74	4.02	

#Closed at: 2025-01-17 13:03:08