passes_logs/2025/01/17/SPB_Silybum_02/SPB_Silybum_02__20250117_043606_SUOMI_NPP_rec.log

#Pass ID: 20250117_043606_SUOMI NPP
#Satellite: SUOMI NPP
#Configuration: NPP
#Start time: 2025-01-17 04:36:06

#Version: 2.0.20230423
#Station: SPB_Silybum_02
#Location: 30.233357 lon 59.946436 lat
#TLE: 1 37849U 11061A   25016.11811449  .00000162  00000+0  97827-4 0  9998
#TLE: 2 37849  98.7448 317.0925 0001640  39.6134 320.5162 14.19538688685075

#Time	Az	El	Level	Level2	SNR	BER	Gain	Gain2
2025-01-17 04:36:08.63	19.61	4.07	
2025-01-17 04:36:09.45	19.51	4.10	
2025-01-17 04:36:10.26	19.41	4.13	
2025-01-17 04:36:11.07	19.31	4.16	
2025-01-17 04:36:11.88	19.20	4.18	
2025-01-17 04:36:12.70	19.10	4.21	
2025-01-17 04:36:13.51	19.00	4.24	
2025-01-17 04:36:14.32	18.89	4.27	
2025-01-17 04:36:15.13	18.79	4.30	
2025-01-17 04:36:15.95	18.68	4.32	
2025-01-17 04:36:16.76	18.58	4.35	
2025-01-17 04:36:17.57	18.48	4.38	
2025-01-17 04:36:18.38	18.37	4.41	
2025-01-17 04:36:19.20	18.27	4.44	
2025-01-17 04:36:20.01	18.16	4.46	
2025-01-17 04:36:20.82	18.06	4.49	
2025-01-17 04:36:21.63	17.95	4.52	
2025-01-17 04:36:22.44	17.85	4.54	
2025-01-17 04:36:23.26	17.74	4.57	
2025-01-17 04:36:24.07	17.63	4.60	
2025-01-17 04:36:24.88	17.53	4.63	
2025-01-17 04:36:25.69	17.42	4.65	
2025-01-17 04:36:26.51	17.31	4.68	
2025-01-17 04:36:27.32	17.21	4.71	
2025-01-17 04:36:28.13	17.10	4.73	
2025-01-17 04:36:28.94	16.99	4.76	
2025-01-17 04:36:29.76	16.88	4.79	
2025-01-17 04:36:30.57	16.78	4.82	
2025-01-17 04:36:31.38	16.67	4.84	
2025-01-17 04:36:32.19	16.56	4.87	
2025-01-17 04:36:33.00	16.45	4.89	
2025-01-17 04:36:33.82	16.34	4.92	
2025-01-17 04:36:34.63	16.24	4.95	
2025-01-17 04:36:35.44	16.13	4.97	
2025-01-17 04:36:36.25	16.02	5.00	
2025-01-17 04:36:37.07	15.91	5.03	
2025-01-17 04:36:37.88	15.80	5.05	
2025-01-17 04:36:38.69	15.69	5.08	
2025-01-17 04:36:39.50	15.58	5.10	
2025-01-17 04:36:40.32	15.47	5.13	
2025-01-17 04:36:41.13	15.36	5.16	
2025-01-17 04:36:41.94	15.25	5.18	
2025-01-17 04:36:42.75	15.14	5.21	
2025-01-17 04:36:43.57	15.03	5.23	
2025-01-17 04:36:44.38	14.92	5.26	
2025-01-17 04:36:45.19	14.81	5.28	
2025-01-17 04:36:46.00	14.69	5.31	
2025-01-17 04:36:46.81	14.58	5.33	
2025-01-17 04:36:47.63	14.47	5.36	
2025-01-17 04:36:48.44	14.36	5.39	
2025-01-17 04:36:49.25	14.25	5.41	
2025-01-17 04:36:50.06	14.13	5.44	
2025-01-17 04:36:50.88	14.02	5.46	
2025-01-17 04:36:51.69	13.91	5.49	
2025-01-17 04:36:52.50	13.80	5.51	
2025-01-17 04:36:53.31	13.68	5.53	
2025-01-17 04:36:54.13	13.57	5.56	
2025-01-17 04:36:54.94	13.45	5.58	
2025-01-17 04:36:55.75	13.34	5.61	
2025-01-17 04:36:56.56	13.23	5.63	
2025-01-17 04:36:57.37	13.11	5.66	
2025-01-17 04:36:58.19	13.00	5.68	
2025-01-17 04:36:59.00	12.88	5.70	
2025-01-17 04:36:59.81	12.77	5.73	
2025-01-17 04:37:00.62	12.66	5.75	
2025-01-17 04:37:01.44	12.54	5.78	
2025-01-17 04:37:02.25	12.42	5.80	
2025-01-17 04:37:03.06	12.31	5.82	
2025-01-17 04:37:03.87	12.19	5.85	
2025-01-17 04:37:04.69	12.08	5.87	
2025-01-17 04:37:05.50	11.96	5.89	
2025-01-17 04:37:06.31	11.84	5.92	
2025-01-17 04:37:07.12	11.73	5.94	
2025-01-17 04:37:07.94	11.61	5.96	
2025-01-17 04:37:08.75	11.49	5.99	
2025-01-17 04:37:09.56	11.38	6.01	
2025-01-17 04:37:10.37	11.26	6.03	
2025-01-17 04:37:11.18	11.14	6.06	
2025-01-17 04:37:12.00	11.02	6.08	
2025-01-17 04:37:12.81	10.91	6.10	
2025-01-17 04:37:13.62	10.79	6.12	
2025-01-17 04:37:14.43	10.67	6.15	
2025-01-17 04:37:15.25	10.55	6.17	
2025-01-17 04:37:16.06	10.43	6.19	
2025-01-17 04:37:16.87	10.32	6.21	
2025-01-17 04:37:17.68	10.20	6.23	
2025-01-17 04:37:18.50	10.08	6.26	
2025-01-17 04:37:19.31	9.96	6.28	
2025-01-17 04:37:20.12	9.84	6.30	
2025-01-17 04:37:20.93	9.72	6.32	
2025-01-17 04:37:21.74	9.60	6.34	
2025-01-17 04:37:22.56	9.48	6.36	
2025-01-17 04:37:23.37	9.36	6.39	
2025-01-17 04:37:24.18	9.24	6.41	
2025-01-17 04:37:24.99	9.12	6.43	
2025-01-17 04:37:25.81	9.00	6.45	
2025-01-17 04:37:26.62	8.88	6.47	
2025-01-17 04:37:27.43	8.76	6.49	
2025-01-17 04:37:28.24	8.63	6.51	
2025-01-17 04:37:29.06	8.51	6.53	
2025-01-17 04:37:29.87	8.39	6.55	
2025-01-17 04:37:30.68	8.27	6.57	
2025-01-17 04:37:31.49	8.15	6.59	
2025-01-17 04:37:32.31	8.02	6.61	
2025-01-17 04:37:33.12	7.90	6.63	
2025-01-17 04:37:33.93	7.78	6.65	
2025-01-17 04:37:34.74	7.66	6.67	
2025-01-17 04:37:35.55	7.54	6.69	
2025-01-17 04:37:36.37	7.41	6.71	
2025-01-17 04:37:37.18	7.29	6.73	
2025-01-17 04:37:37.99	7.17	6.75	
2025-01-17 04:37:38.80	7.04	6.77	
2025-01-17 04:37:39.62	6.92	6.79	
2025-01-17 04:37:40.43	6.79	6.81	
2025-01-17 04:37:41.24	6.67	6.83	
2025-01-17 04:37:42.05	6.55	6.85	
2025-01-17 04:37:42.87	6.42	6.87	
2025-01-17 04:37:43.68	6.30	6.88	
2025-01-17 04:37:44.49	6.17	6.90	
2025-01-17 04:37:45.30	6.05	6.92	
2025-01-17 04:37:46.12	5.92	6.94	
2025-01-17 04:37:46.93	5.80	6.96	
2025-01-17 04:37:47.74	5.67	6.98	
2025-01-17 04:37:48.55	5.55	6.99	
2025-01-17 04:37:49.36	5.42	7.01	
2025-01-17 04:37:50.18	5.30	7.03	
2025-01-17 04:37:50.99	5.17	7.05	
2025-01-17 04:37:51.80	5.05	7.06	
2025-01-17 04:37:52.61	4.92	7.08	
2025-01-17 04:37:53.43	4.79	7.10	
2025-01-17 04:37:54.24	4.67	7.12	
2025-01-17 04:37:55.05	4.54	7.13	
2025-01-17 04:37:55.86	4.41	7.15	
2025-01-17 04:37:56.68	4.28	7.17	
2025-01-17 04:37:57.49	4.16	7.18	
2025-01-17 04:37:58.30	4.03	7.20	
2025-01-17 04:37:59.11	3.90	7.22	
2025-01-17 04:37:59.92	3.78	7.23	
2025-01-17 04:38:00.74	3.65	7.25	
2025-01-17 04:38:01.55	3.52	7.27	
2025-01-17 04:38:02.36	3.39	7.28	
2025-01-17 04:38:03.17	3.27	7.30	
2025-01-17 04:38:03.99	3.14	7.31	
2025-01-17 04:38:04.80	3.01	7.33	
2025-01-17 04:38:05.61	2.88	7.34	
2025-01-17 04:38:06.42	2.75	7.36	
2025-01-17 04:38:07.24	2.62	7.37	
2025-01-17 04:38:08.05	2.49	7.39	
2025-01-17 04:38:08.86	2.36	7.40	
2025-01-17 04:38:09.67	2.23	7.42	
2025-01-17 04:38:10.49	2.10	7.43	
2025-01-17 04:38:11.30	1.98	7.45	
2025-01-17 04:38:12.11	1.85	7.46	
2025-01-17 04:38:12.92	1.72	7.48	
2025-01-17 04:38:13.73	1.59	7.49	
2025-01-17 04:38:14.55	1.46	7.50	
2025-01-17 04:38:15.36	1.33	7.52	
2025-01-17 04:38:16.17	1.20	7.53	
2025-01-17 04:38:16.98	1.07	7.55	
2025-01-17 04:38:17.80	0.93	7.56	
2025-01-17 04:38:18.61	0.80	7.57	
2025-01-17 04:38:19.42	0.67	7.59	
2025-01-17 04:38:20.23	0.54	7.60	
2025-01-17 04:38:21.05	0.41	7.61	
2025-01-17 04:38:21.86	0.28	7.62	
2025-01-17 04:38:22.67	0.15	7.64	
2025-01-17 04:38:23.48	0.02	7.65	
2025-01-17 04:38:24.29	359.89	7.66	
2025-01-17 04:38:25.11	359.75	7.67	
2025-01-17 04:38:25.92	359.62	7.69	
2025-01-17 04:38:26.73	359.49	7.70	
2025-01-17 04:38:27.54	359.36	7.71	
2025-01-17 04:38:28.36	359.23	7.72	
2025-01-17 04:38:29.17	359.10	7.73	
2025-01-17 04:38:29.98	358.96	7.75	
2025-01-17 04:38:30.79	358.83	7.76	
2025-01-17 04:38:31.61	358.70	7.77	
2025-01-17 04:38:32.42	358.57	7.78	
2025-01-17 04:38:33.23	358.43	7.79	
2025-01-17 04:38:34.04	358.30	7.80	
2025-01-17 04:38:34.86	358.17	7.81	
2025-01-17 04:38:35.67	358.03	7.82	
2025-01-17 04:38:36.48	357.90	7.83	
2025-01-17 04:38:37.29	357.77	7.84	
2025-01-17 04:38:38.10	357.64	7.85	
2025-01-17 04:38:38.92	357.50	7.86	
2025-01-17 04:38:39.73	357.37	7.87	
2025-01-17 04:38:40.54	357.24	7.88	
2025-01-17 04:38:41.35	357.10	7.89	
2025-01-17 04:38:42.18	356.97	7.90	
2025-01-17 04:38:42.99	356.83	7.91	
2025-01-17 04:38:43.81	356.70	7.92	
2025-01-17 04:38:44.62	356.56	7.93	
2025-01-17 04:38:45.43	356.43	7.94	
2025-01-17 04:38:46.24	356.30	7.94	
2025-01-17 04:38:47.05	356.16	7.95	
2025-01-17 04:38:47.87	356.03	7.96	
2025-01-17 04:38:48.68	355.89	7.97	
2025-01-17 04:38:49.49	355.76	7.98	
2025-01-17 04:38:50.30	355.63	7.98	
2025-01-17 04:38:51.12	355.49	7.99	
2025-01-17 04:38:51.93	355.36	8.00	
2025-01-17 04:38:52.74	355.22	8.01	
2025-01-17 04:38:53.55	355.09	8.01	
2025-01-17 04:38:54.37	354.95	8.02	
2025-01-17 04:38:55.18	354.82	8.03	
2025-01-17 04:38:55.99	354.68	8.04	
2025-01-17 04:38:56.80	354.55	8.04	
2025-01-17 04:38:57.62	354.41	8.05	
2025-01-17 04:38:58.43	354.28	8.06	
2025-01-17 04:38:59.24	354.14	8.06	
2025-01-17 04:39:00.05	354.01	8.07	
2025-01-17 04:39:00.86	353.87	8.07	
2025-01-17 04:39:01.68	353.73	8.08	
2025-01-17 04:39:02.49	353.60	8.09	
2025-01-17 04:39:03.30	353.46	8.09	
2025-01-17 04:39:04.11	353.33	8.10	
2025-01-17 04:39:04.93	353.19	8.10	
2025-01-17 04:39:05.74	353.06	8.11	
2025-01-17 04:39:06.55	352.92	8.11	
2025-01-17 04:39:07.36	352.79	8.12	
2025-01-17 04:39:08.18	352.65	8.12	
2025-01-17 04:39:08.99	352.51	8.12	
2025-01-17 04:39:09.80	352.38	8.13	
2025-01-17 04:39:10.61	352.24	8.13	
2025-01-17 04:39:11.43	352.11	8.14	
2025-01-17 04:39:12.24	351.97	8.14	
2025-01-17 04:39:13.05	351.83	8.14	
2025-01-17 04:39:13.86	351.70	8.15	
2025-01-17 04:39:14.67	351.56	8.15	
2025-01-17 04:39:15.49	351.43	8.15	
2025-01-17 04:39:16.30	351.29	8.16	
2025-01-17 04:39:17.11	351.15	8.16	
2025-01-17 04:39:17.92	351.02	8.16	
2025-01-17 04:39:18.74	350.88	8.17	
2025-01-17 04:39:19.55	350.74	8.17	
2025-01-17 04:39:20.36	350.61	8.17	
2025-01-17 04:39:21.17	350.47	8.17	
2025-01-17 04:39:21.99	350.34	8.18	
2025-01-17 04:39:22.80	350.20	8.18	
2025-01-17 04:39:23.61	350.06	8.18	
2025-01-17 04:39:24.42	349.93	8.18	
2025-01-17 04:39:25.23	349.79	8.18	
2025-01-17 04:39:26.05	349.65	8.18	
2025-01-17 04:39:26.86	349.52	8.18	
2025-01-17 04:39:27.67	349.38	8.18	
2025-01-17 04:39:28.48	349.25	8.19	
2025-01-17 04:39:29.30	349.11	8.19	
2025-01-17 04:39:30.11	348.97	8.19	
2025-01-17 04:39:30.92	348.84	8.19	
2025-01-17 04:39:31.73	348.70	8.19	
2025-01-17 04:39:32.55	348.56	8.19	
2025-01-17 04:39:33.36	348.43	8.19	
2025-01-17 04:39:34.17	348.29	8.19	
2025-01-17 04:39:34.98	348.15	8.19	
2025-01-17 04:39:35.80	348.02	8.19	
2025-01-17 04:39:36.61	347.88	8.18	
2025-01-17 04:39:37.42	347.74	8.18	
2025-01-17 04:39:38.23	347.61	8.18	
2025-01-17 04:39:39.04	347.47	8.18	
2025-01-17 04:39:39.86	347.33	8.18	
2025-01-17 04:39:40.67	347.20	8.18	
2025-01-17 04:39:41.48	347.06	8.18	
2025-01-17 04:39:42.29	346.93	8.18	
2025-01-17 04:39:43.11	346.79	8.17	
2025-01-17 04:39:43.92	346.65	8.17	
2025-01-17 04:39:44.73	346.52	8.17	
2025-01-17 04:39:45.54	346.38	8.17	
2025-01-17 04:39:46.36	346.24	8.16	
2025-01-17 04:39:47.17	346.11	8.16	
2025-01-17 04:39:47.98	345.97	8.16	
2025-01-17 04:39:48.79	345.84	8.16	
2025-01-17 04:39:49.60	345.70	8.15	
2025-01-17 04:39:50.42	345.56	8.15	
2025-01-17 04:39:51.23	345.43	8.14	
2025-01-17 04:39:52.04	345.29	8.14	
2025-01-17 04:39:52.85	345.16	8.14	
2025-01-17 04:39:53.67	345.02	8.13	
2025-01-17 04:39:54.48	344.88	8.13	
2025-01-17 04:39:55.29	344.75	8.13	
2025-01-17 04:39:56.10	344.61	8.12	
2025-01-17 04:39:56.92	344.48	8.12	
2025-01-17 04:39:57.73	344.34	8.11	
2025-01-17 04:39:58.54	344.21	8.11	
2025-01-17 04:39:59.35	344.07	8.10	
2025-01-17 04:40:00.17	343.93	8.10	
2025-01-17 04:40:00.98	343.80	8.09	
2025-01-17 04:40:01.79	343.66	8.09	
2025-01-17 04:40:02.60	343.53	8.08	
2025-01-17 04:40:03.41	343.39	8.07	
2025-01-17 04:40:04.23	343.26	8.07	
2025-01-17 04:40:05.04	343.12	8.06	
2025-01-17 04:40:05.85	342.99	8.06	
2025-01-17 04:40:06.66	342.85	8.05	
2025-01-17 04:40:07.48	342.72	8.04	
2025-01-17 04:40:08.29	342.58	8.04	
2025-01-17 04:40:09.10	342.45	8.03	
2025-01-17 04:40:09.91	342.31	8.02	
2025-01-17 04:40:10.73	342.18	8.02	
2025-01-17 04:40:11.54	342.04	8.01	
2025-01-17 04:40:12.35	341.91	8.00	
2025-01-17 04:40:13.16	341.77	7.99	
2025-01-17 04:40:13.97	341.64	7.99	
2025-01-17 04:40:14.79	341.50	7.98	
2025-01-17 04:40:15.60	341.37	7.97	
2025-01-17 04:40:16.41	341.23	7.96	
2025-01-17 04:40:17.22	341.10	7.95	
2025-01-17 04:40:18.04	340.97	7.94	
2025-01-17 04:40:18.85	340.83	7.94	
2025-01-17 04:40:19.66	340.70	7.93	
2025-01-17 04:40:20.47	340.56	7.92	
2025-01-17 04:40:21.29	340.43	7.91	
2025-01-17 04:40:22.10	340.30	7.90	
2025-01-17 04:40:22.91	340.16	7.89	
2025-01-17 04:40:23.72	340.03	7.88	
2025-01-17 04:40:24.54	339.89	7.87	
2025-01-17 04:40:25.35	339.76	7.86	
2025-01-17 04:40:26.16	339.63	7.85	
2025-01-17 04:40:26.97	339.50	7.84	
2025-01-17 04:40:27.78	339.36	7.83	
2025-01-17 04:40:28.60	339.23	7.82	
2025-01-17 04:40:29.41	339.10	7.81	
2025-01-17 04:40:30.22	338.96	7.80	
2025-01-17 04:40:31.03	338.83	7.79	
2025-01-17 04:40:31.85	338.70	7.78	
2025-01-17 04:40:32.66	338.56	7.77	
2025-01-17 04:40:33.47	338.43	7.76	
2025-01-17 04:40:34.28	338.30	7.75	
2025-01-17 04:40:35.10	338.17	7.73	
2025-01-17 04:40:35.91	338.04	7.72	
2025-01-17 04:40:36.72	337.90	7.71	
2025-01-17 04:40:37.53	337.77	7.70	
2025-01-17 04:40:38.35	337.64	7.69	
2025-01-17 04:40:39.16	337.51	7.68	
2025-01-17 04:40:39.97	337.38	7.66	
2025-01-17 04:40:40.78	337.25	7.65	
2025-01-17 04:40:41.59	337.11	7.64	
2025-01-17 04:40:42.41	336.98	7.63	
2025-01-17 04:40:43.22	336.85	7.61	
2025-01-17 04:40:44.03	336.72	7.60	
2025-01-17 04:40:44.84	336.59	7.59	
2025-01-17 04:40:45.66	336.46	7.57	
2025-01-17 04:40:46.47	336.33	7.56	
2025-01-17 04:40:47.28	336.20	7.55	
2025-01-17 04:40:48.09	336.07	7.53	
2025-01-17 04:40:48.91	335.94	7.52	
2025-01-17 04:40:49.72	335.81	7.51	
2025-01-17 04:40:50.53	335.68	7.49	
2025-01-17 04:40:51.34	335.55	7.48	
2025-01-17 04:40:52.15	335.42	7.46	
2025-01-17 04:40:52.97	335.29	7.45	
2025-01-17 04:40:53.78	335.16	7.43	
2025-01-17 04:40:54.59	335.03	7.42	
2025-01-17 04:40:55.40	334.90	7.40	
2025-01-17 04:40:56.22	334.77	7.39	
2025-01-17 04:40:57.03	334.64	7.37	
2025-01-17 04:40:57.84	334.51	7.36	
2025-01-17 04:40:58.65	334.38	7.34	
2025-01-17 04:40:59.47	334.25	7.33	
2025-01-17 04:41:00.28	334.13	7.31	
2025-01-17 04:41:01.09	334.00	7.30	
2025-01-17 04:41:01.90	333.87	7.28	
2025-01-17 04:41:02.72	333.74	7.27	
2025-01-17 04:41:03.53	333.61	7.25	
2025-01-17 04:41:04.34	333.49	7.23	
2025-01-17 04:41:05.15	333.36	7.22	
2025-01-17 04:41:05.96	333.23	7.20	
2025-01-17 04:41:06.78	333.10	7.18	
2025-01-17 04:41:07.59	332.98	7.17	
2025-01-17 04:41:08.40	332.85	7.15	
2025-01-17 04:41:09.21	332.72	7.13	
2025-01-17 04:41:10.03	332.59	7.12	
2025-01-17 04:41:10.84	332.47	7.10	
2025-01-17 04:41:11.65	332.34	7.08	
2025-01-17 04:41:12.46	332.22	7.07	
2025-01-17 04:41:13.28	332.09	7.05	
2025-01-17 04:41:14.09	331.96	7.03	
2025-01-17 04:41:14.90	331.84	7.01	
2025-01-17 04:41:15.71	331.71	6.99	
2025-01-17 04:41:16.52	331.59	6.98	
2025-01-17 04:41:17.34	331.46	6.96	
2025-01-17 04:41:18.15	331.34	6.94	
2025-01-17 04:41:18.96	331.21	6.92	
2025-01-17 04:41:19.77	331.09	6.90	
2025-01-17 04:41:20.59	330.96	6.89	
2025-01-17 04:41:21.40	330.84	6.87	
2025-01-17 04:41:22.21	330.71	6.85	
2025-01-17 04:41:23.02	330.59	6.83	
2025-01-17 04:41:23.84	330.46	6.81	
2025-01-17 04:41:24.65	330.34	6.79	
2025-01-17 04:41:25.46	330.22	6.77	
2025-01-17 04:41:26.27	330.09	6.75	
2025-01-17 04:41:27.09	329.97	6.73	
2025-01-17 04:41:27.90	329.85	6.71	
2025-01-17 04:41:28.71	329.72	6.69	
2025-01-17 04:41:29.52	329.60	6.67	
2025-01-17 04:41:30.33	329.48	6.65	
2025-01-17 04:41:31.15	329.36	6.63	
2025-01-17 04:41:31.96	329.23	6.61	
2025-01-17 04:41:32.77	329.11	6.59	
2025-01-17 04:41:33.58	328.99	6.57	
2025-01-17 04:41:34.40	328.87	6.55	
2025-01-17 04:41:35.21	328.75	6.53	
2025-01-17 04:41:36.02	328.62	6.51	
2025-01-17 04:41:36.83	328.50	6.49	
2025-01-17 04:41:37.65	328.38	6.47	
2025-01-17 04:41:38.46	328.26	6.45	
2025-01-17 04:41:39.27	328.14	6.43	
2025-01-17 04:41:40.08	328.02	6.41	
2025-01-17 04:41:40.89	327.90	6.39	
2025-01-17 04:41:41.71	327.78	6.37	
2025-01-17 04:41:42.52	327.66	6.34	
2025-01-17 04:41:43.33	327.54	6.32	
2025-01-17 04:41:44.14	327.42	6.30	
2025-01-17 04:41:44.96	327.30	6.28	
2025-01-17 04:41:45.77	327.18	6.26	
2025-01-17 04:41:46.58	327.06	6.24	
2025-01-17 04:41:47.39	326.94	6.21	
2025-01-17 04:41:48.21	326.82	6.19	
2025-01-17 04:41:49.02	326.70	6.17	
2025-01-17 04:41:49.83	326.59	6.15	
2025-01-17 04:41:50.64	326.47	6.12	
2025-01-17 04:41:51.46	326.35	6.10	
2025-01-17 04:41:52.27	326.23	6.08	
2025-01-17 04:41:53.08	326.11	6.06	
2025-01-17 04:41:53.89	326.00	6.03	
2025-01-17 04:41:54.70	325.88	6.01	
2025-01-17 04:41:55.52	325.76	5.99	
2025-01-17 04:41:56.33	325.64	5.97	
2025-01-17 04:41:57.14	325.53	5.94	
2025-01-17 04:41:57.95	325.41	5.92	
2025-01-17 04:41:58.77	325.29	5.90	
2025-01-17 04:41:59.58	325.18	5.87	
2025-01-17 04:42:00.39	325.06	5.85	
2025-01-17 04:42:01.20	324.95	5.83	
2025-01-17 04:42:02.02	324.83	5.80	
2025-01-17 04:42:02.83	324.72	5.78	
2025-01-17 04:42:03.64	324.60	5.75	
2025-01-17 04:42:04.45	324.49	5.73	
2025-01-17 04:42:05.26	324.37	5.71	
2025-01-17 04:42:06.08	324.26	5.68	
2025-01-17 04:42:06.89	324.14	5.66	
2025-01-17 04:42:07.70	324.03	5.63	
2025-01-17 04:42:08.51	323.91	5.61	
2025-01-17 04:42:09.33	323.80	5.58	
2025-01-17 04:42:10.14	323.69	5.56	
2025-01-17 04:42:10.95	323.57	5.54	
2025-01-17 04:42:11.76	323.46	5.51	
2025-01-17 04:42:12.58	323.34	5.49	
2025-01-17 04:42:13.39	323.23	5.46	
2025-01-17 04:42:14.20	323.12	5.44	
2025-01-17 04:42:15.01	323.01	5.41	
2025-01-17 04:42:15.83	322.89	5.39	
2025-01-17 04:42:16.64	322.78	5.36	
2025-01-17 04:42:17.45	322.67	5.34	
2025-01-17 04:42:18.26	322.56	5.31	
2025-01-17 04:42:19.07	322.45	5.29	
2025-01-17 04:42:19.89	322.34	5.26	
2025-01-17 04:42:20.70	322.22	5.23	
2025-01-17 04:42:21.51	322.11	5.21	
2025-01-17 04:42:22.32	322.00	5.18	
2025-01-17 04:42:23.14	321.89	5.16	
2025-01-17 04:42:23.95	321.78	5.13	
2025-01-17 04:42:24.76	321.67	5.11	
2025-01-17 04:42:25.57	321.56	5.08	
2025-01-17 04:42:26.39	321.45	5.05	
2025-01-17 04:42:27.20	321.34	5.03	
2025-01-17 04:42:28.01	321.23	5.00	
2025-01-17 04:42:28.82	321.12	4.98	
2025-01-17 04:42:29.63	321.02	4.95	
2025-01-17 04:42:30.45	320.91	4.92	
2025-01-17 04:42:31.26	320.80	4.90	
2025-01-17 04:42:32.07	320.69	4.87	
2025-01-17 04:42:32.88	320.58	4.84	
2025-01-17 04:42:33.70	320.47	4.82	
2025-01-17 04:42:34.51	320.37	4.79	
2025-01-17 04:42:35.32	320.26	4.76	
2025-01-17 04:42:36.13	320.15	4.74	
2025-01-17 04:42:36.95	320.04	4.71	
2025-01-17 04:42:37.76	319.94	4.68	
2025-01-17 04:42:38.57	319.83	4.66	
2025-01-17 04:42:39.38	319.72	4.63	
2025-01-17 04:42:40.20	319.62	4.60	
2025-01-17 04:42:41.01	319.51	4.57	
2025-01-17 04:42:41.82	319.41	4.55	
2025-01-17 04:42:42.63	319.30	4.52	
2025-01-17 04:42:43.44	319.19	4.49	
2025-01-17 04:42:44.26	319.09	4.46	
2025-01-17 04:42:45.07	318.98	4.44	
2025-01-17 04:42:45.88	318.88	4.41	
2025-01-17 04:42:46.69	318.77	4.38	
2025-01-17 04:42:47.51	318.67	4.35	
2025-01-17 04:42:48.32	318.56	4.33	
2025-01-17 04:42:49.13	318.46	4.30	
2025-01-17 04:42:49.94	318.36	4.27	
2025-01-17 04:42:50.76	318.25	4.24	
2025-01-17 04:42:51.57	318.15	4.21	
2025-01-17 04:42:52.38	318.05	4.19	
2025-01-17 04:42:53.19	317.94	4.16	
2025-01-17 04:42:54.01	317.84	4.13	
2025-01-17 04:42:54.82	317.74	4.10	
2025-01-17 04:42:55.63	317.63	4.07	
2025-01-17 04:42:56.44	317.53	4.04	
2025-01-17 04:42:57.25	317.43	4.02	

#Closed at: 2025-01-17 04:42:57