passes_logs/2025/01/17/SPB_Silybum_02/SPB_Silybum_02__20250117_074053_TERRA_rec.log

#Pass ID: 20250117_074053_TERRA
#Satellite: TERRA
#Configuration: TERRA
#Start time: 2025-01-17 07:40:54

#Version: 2.0.20230423
#Station: SPB_Silybum_02
#Location: 30.233357 lon 59.946436 lat
#TLE: 1 25994U 99068A   25016.77398677  .00000840  00000+0  18282-3 0  9994
#TLE: 2 25994  98.0212  79.7479 0003409  69.0484  40.6664 14.60398530334334

#Time	Az	El	Level	Level2	SNR	BER	Gain	Gain2
2025-01-17 07:40:56.32	20.63	4.21	
2025-01-17 07:40:57.53	20.69	4.29	
2025-01-17 07:40:58.75	20.74	4.37	
2025-01-17 07:40:59.97	20.79	4.46	
2025-01-17 07:41:01.19	20.85	4.55	
2025-01-17 07:41:02.41	20.90	4.63	
2025-01-17 07:41:03.63	20.96	4.72	
2025-01-17 07:41:04.85	21.01	4.81	
2025-01-17 07:41:06.07	21.06	4.89	
2025-01-17 07:41:07.28	21.12	4.98	
2025-01-17 07:41:08.50	21.18	5.07	
2025-01-17 07:41:09.72	21.23	5.15	
2025-01-17 07:41:10.94	21.29	5.24	
2025-01-17 07:41:12.16	21.34	5.33	
2025-01-17 07:41:13.38	21.40	5.42	
2025-01-17 07:41:14.60	21.46	5.51	
2025-01-17 07:41:15.81	21.52	5.60	
2025-01-17 07:41:17.03	21.57	5.69	
2025-01-17 07:41:18.25	21.63	5.78	
2025-01-17 07:41:19.47	21.69	5.87	
2025-01-17 07:41:20.69	21.75	5.96	
2025-01-17 07:41:21.91	21.81	6.05	
2025-01-17 07:41:23.13	21.87	6.14	
2025-01-17 07:41:24.35	21.93	6.23	
2025-01-17 07:41:25.56	21.99	6.32	
2025-01-17 07:41:26.78	22.05	6.42	
2025-01-17 07:41:28.00	22.11	6.51	
2025-01-17 07:41:29.22	22.17	6.60	
2025-01-17 07:41:30.44	22.24	6.70	
2025-01-17 07:41:31.66	22.30	6.79	
2025-01-17 07:41:32.88	22.36	6.88	
2025-01-17 07:41:34.10	22.42	6.98	
2025-01-17 07:41:35.31	22.49	7.07	
2025-01-17 07:41:36.53	22.55	7.17	
2025-01-17 07:41:37.75	22.62	7.26	
2025-01-17 07:41:38.97	22.68	7.36	
2025-01-17 07:41:40.19	22.75	7.46	
2025-01-17 07:41:41.41	22.81	7.55	
2025-01-17 07:41:42.63	22.88	7.65	
2025-01-17 07:41:43.84	22.95	7.75	
2025-01-17 07:41:45.06	23.01	7.84	
2025-01-17 07:41:46.28	23.08	7.94	
2025-01-17 07:41:47.50	23.15	8.04	
2025-01-17 07:41:48.72	23.22	8.14	
2025-01-17 07:41:49.94	23.29	8.24	
2025-01-17 07:41:51.16	23.36	8.34	
2025-01-17 07:41:52.38	23.43	8.44	
2025-01-17 07:41:53.59	23.50	8.54	
2025-01-17 07:41:54.81	23.57	8.64	
2025-01-17 07:41:56.03	23.64	8.74	
2025-01-17 07:41:57.25	23.71	8.84	
2025-01-17 07:41:58.47	23.78	8.95	
2025-01-17 07:41:59.69	23.85	9.05	
2025-01-17 07:42:00.91	23.93	9.15	
2025-01-17 07:42:02.12	24.00	9.26	
2025-01-17 07:42:03.34	24.08	9.36	
2025-01-17 07:42:04.56	24.15	9.47	
2025-01-17 07:42:05.78	24.23	9.57	
2025-01-17 07:42:07.00	24.30	9.68	
2025-01-17 07:42:08.22	24.38	9.78	
2025-01-17 07:42:09.44	24.46	9.89	
2025-01-17 07:42:10.66	24.53	10.00	
2025-01-17 07:42:11.87	24.61	10.10	
2025-01-17 07:42:13.09	24.69	10.21	
2025-01-17 07:42:14.31	24.77	10.32	
2025-01-17 07:42:15.53	24.85	10.43	
2025-01-17 07:42:16.75	24.93	10.54	
2025-01-17 07:42:17.97	25.01	10.65	
2025-01-17 07:42:19.19	25.09	10.76	
2025-01-17 07:42:20.40	25.18	10.87	
2025-01-17 07:42:21.62	25.26	10.98	
2025-01-17 07:42:22.84	25.34	11.09	
2025-01-17 07:42:24.06	25.43	11.20	
2025-01-17 07:42:25.28	25.51	11.32	
2025-01-17 07:42:26.50	25.60	11.43	
2025-01-17 07:42:27.72	25.69	11.54	
2025-01-17 07:42:28.94	25.77	11.66	
2025-01-17 07:42:30.15	25.86	11.77	
2025-01-17 07:42:31.37	25.95	11.89	
2025-01-17 07:42:32.59	26.04	12.00	
2025-01-17 07:42:33.81	26.13	12.12	
2025-01-17 07:42:35.03	26.22	12.24	
2025-01-17 07:42:36.25	26.31	12.36	
2025-01-17 07:42:37.47	26.40	12.48	
2025-01-17 07:42:38.68	26.49	12.59	
2025-01-17 07:42:39.90	26.59	12.71	
2025-01-17 07:42:41.12	26.68	12.83	
2025-01-17 07:42:42.34	26.78	12.95	
2025-01-17 07:42:43.56	26.87	13.08	
2025-01-17 07:42:44.78	26.97	13.20	
2025-01-17 07:42:46.00	27.07	13.32	
2025-01-17 07:42:47.22	27.17	13.44	
2025-01-17 07:42:48.43	27.27	13.57	
2025-01-17 07:42:49.65	27.37	13.69	
2025-01-17 07:42:50.87	27.47	13.82	
2025-01-17 07:42:52.09	27.57	13.94	
2025-01-17 07:42:53.31	27.67	14.07	
2025-01-17 07:42:54.53	27.78	14.20	
2025-01-17 07:42:55.75	27.88	14.32	
2025-01-17 07:42:56.96	27.98	14.45	
2025-01-17 07:42:58.18	28.09	14.58	
2025-01-17 07:42:59.40	28.20	14.71	
2025-01-17 07:43:00.62	28.31	14.84	
2025-01-17 07:43:01.84	28.42	14.97	
2025-01-17 07:43:03.06	28.53	15.10	
2025-01-17 07:43:04.28	28.64	15.24	
2025-01-17 07:43:05.50	28.75	15.37	
2025-01-17 07:43:06.71	28.86	15.50	
2025-01-17 07:43:07.93	28.98	15.64	
2025-01-17 07:43:09.15	29.09	15.77	
2025-01-17 07:43:10.37	29.21	15.91	
2025-01-17 07:43:11.59	29.33	16.05	
2025-01-17 07:43:12.81	29.44	16.19	
2025-01-17 07:43:14.03	29.56	16.32	
2025-01-17 07:43:15.25	29.68	16.46	
2025-01-17 07:43:16.46	29.81	16.60	
2025-01-17 07:43:17.68	29.93	16.74	
2025-01-17 07:43:18.90	30.05	16.88	
2025-01-17 07:43:20.12	30.18	17.03	
2025-01-17 07:43:21.34	30.31	17.17	
2025-01-17 07:43:22.56	30.43	17.31	
2025-01-17 07:43:23.78	30.56	17.46	
2025-01-17 07:43:24.99	30.69	17.60	
2025-01-17 07:43:26.21	30.82	17.75	
2025-01-17 07:43:27.43	30.96	17.90	
2025-01-17 07:43:28.65	31.09	18.05	
2025-01-17 07:43:29.87	31.23	18.19	
2025-01-17 07:43:31.09	31.36	18.34	
2025-01-17 07:43:32.31	31.50	18.50	
2025-01-17 07:43:33.53	31.64	18.65	
2025-01-17 07:43:34.74	31.78	18.80	
2025-01-17 07:43:35.96	31.93	18.95	
2025-01-17 07:43:37.18	32.07	19.11	
2025-01-17 07:43:38.40	32.22	19.26	
2025-01-17 07:43:39.62	32.36	19.42	
2025-01-17 07:43:40.84	32.51	19.57	
2025-01-17 07:43:42.06	32.66	19.73	
2025-01-17 07:43:43.27	32.81	19.89	
2025-01-17 07:43:44.49	32.97	20.05	
2025-01-17 07:43:45.71	33.12	20.21	
2025-01-17 07:43:46.93	33.28	20.37	
2025-01-17 07:43:48.15	33.44	20.53	
2025-01-17 07:43:49.37	33.60	20.70	
2025-01-17 07:43:50.59	33.76	20.86	
2025-01-17 07:43:51.81	33.92	21.03	
2025-01-17 07:43:53.02	34.09	21.19	
2025-01-17 07:43:54.24	34.25	21.36	
2025-01-17 07:43:55.46	34.42	21.53	
2025-01-17 07:43:56.68	34.59	21.70	
2025-01-17 07:43:57.90	34.77	21.87	
2025-01-17 07:43:59.12	34.94	22.04	
2025-01-17 07:44:00.34	35.12	22.21	
2025-01-17 07:44:01.55	35.30	22.38	
2025-01-17 07:44:02.77	35.48	22.56	
2025-01-17 07:44:03.99	35.66	22.73	
2025-01-17 07:44:05.21	35.85	22.91	
2025-01-17 07:44:06.43	36.03	23.09	
2025-01-17 07:44:07.65	36.22	23.26	
2025-01-17 07:44:08.87	36.41	23.44	
2025-01-17 07:44:10.09	36.61	23.62	
2025-01-17 07:44:11.30	36.80	23.80	
2025-01-17 07:44:12.52	37.00	23.99	
2025-01-17 07:44:13.74	37.20	24.17	
2025-01-17 07:44:14.96	37.40	24.36	
2025-01-17 07:44:16.18	37.61	24.54	
2025-01-17 07:44:17.40	37.82	24.73	
2025-01-17 07:44:18.62	38.03	24.92	
2025-01-17 07:44:19.83	38.24	25.10	
2025-01-17 07:44:21.05	38.46	25.29	
2025-01-17 07:44:22.27	38.68	25.49	
2025-01-17 07:44:23.49	38.90	25.68	
2025-01-17 07:44:24.71	39.12	25.87	
2025-01-17 07:44:25.93	39.35	26.07	
2025-01-17 07:44:27.15	39.58	26.26	
2025-01-17 07:44:28.37	39.81	26.46	
2025-01-17 07:44:29.58	40.04	26.65	
2025-01-17 07:44:30.80	40.28	26.85	
2025-01-17 07:44:32.02	40.52	27.05	
2025-01-17 07:44:33.24	40.77	27.25	
2025-01-17 07:44:34.46	41.02	27.46	
2025-01-17 07:44:35.68	41.27	27.66	
2025-01-17 07:44:36.90	41.52	27.86	
2025-01-17 07:44:38.11	41.78	28.07	
2025-01-17 07:44:39.33	42.04	28.27	
2025-01-17 07:44:40.55	42.30	28.48	
2025-01-17 07:44:41.77	42.57	28.69	
2025-01-17 07:44:42.99	42.84	28.90	
2025-01-17 07:44:44.21	43.12	29.11	
2025-01-17 07:44:45.43	43.40	29.32	
2025-01-17 07:44:46.65	43.68	29.53	
2025-01-17 07:44:47.86	43.96	29.74	
2025-01-17 07:44:49.08	44.25	29.96	
2025-01-17 07:44:50.30	44.55	30.17	
2025-01-17 07:44:51.52	44.84	30.39	
2025-01-17 07:44:52.74	45.15	30.61	
2025-01-17 07:44:53.96	45.45	30.83	
2025-01-17 07:44:55.18	45.76	31.05	
2025-01-17 07:44:56.40	46.08	31.27	
2025-01-17 07:44:57.61	46.40	31.48	
2025-01-17 07:44:58.83	46.72	31.71	
2025-01-17 07:45:00.05	47.05	31.93	
2025-01-17 07:45:01.27	47.38	32.15	
2025-01-17 07:45:02.49	47.72	32.38	
2025-01-17 07:45:03.71	48.06	32.60	
2025-01-17 07:45:04.93	48.41	32.83	
2025-01-17 07:45:06.14	48.76	33.05	
2025-01-17 07:45:07.36	49.11	33.28	
2025-01-17 07:45:08.58	49.48	33.50	
2025-01-17 07:45:09.80	49.84	33.73	
2025-01-17 07:45:11.02	50.21	33.96	
2025-01-17 07:45:12.24	50.59	34.19	
2025-01-17 07:45:13.46	50.98	34.42	
2025-01-17 07:45:14.68	51.36	34.65	
2025-01-17 07:45:15.89	51.76	34.88	
2025-01-17 07:45:17.11	52.16	35.11	
2025-01-17 07:45:18.33	52.56	35.34	
2025-01-17 07:45:19.55	52.97	35.57	
2025-01-17 07:45:20.77	53.39	35.80	
2025-01-17 07:45:21.99	53.81	36.03	
2025-01-17 07:45:23.21	54.24	36.26	
2025-01-17 07:45:24.42	54.67	36.49	
2025-01-17 07:45:25.64	55.12	36.73	
2025-01-17 07:45:26.86	55.57	36.96	
2025-01-17 07:45:28.08	56.02	37.19	
2025-01-17 07:45:29.30	56.48	37.42	
2025-01-17 07:45:30.52	56.95	37.65	
2025-01-17 07:45:31.74	57.42	37.88	
2025-01-17 07:45:32.96	57.91	38.11	
2025-01-17 07:45:34.17	58.39	38.34	
2025-01-17 07:45:35.39	58.89	38.56	
2025-01-17 07:45:36.61	59.39	38.79	
2025-01-17 07:45:37.83	59.90	39.02	
2025-01-17 07:45:39.05	60.42	39.24	
2025-01-17 07:45:40.27	60.94	39.47	
2025-01-17 07:45:41.49	61.47	39.69	
2025-01-17 07:45:42.70	62.01	39.91	
2025-01-17 07:45:43.92	62.55	40.14	
2025-01-17 07:45:45.14	63.11	40.36	
2025-01-17 07:45:46.36	63.67	40.57	
2025-01-17 07:45:47.58	64.24	40.79	
2025-01-17 07:45:48.80	64.81	41.01	
2025-01-17 07:45:50.02	65.40	41.22	
2025-01-17 07:45:51.24	65.99	41.43	
2025-01-17 07:45:52.45	66.59	41.64	
2025-01-17 07:45:53.67	67.19	41.85	
2025-01-17 07:45:54.89	67.81	42.05	
2025-01-17 07:45:56.11	68.43	42.25	
2025-01-17 07:45:57.33	69.07	42.45	
2025-01-17 07:45:58.55	69.71	42.65	
2025-01-17 07:45:59.77	70.35	42.84	
2025-01-17 07:46:00.98	71.00	43.03	
2025-01-17 07:46:02.20	71.67	43.22	
2025-01-17 07:46:03.42	72.34	43.41	
2025-01-17 07:46:04.64	73.02	43.59	
2025-01-17 07:46:05.86	73.70	43.77	
2025-01-17 07:46:07.08	74.40	43.94	
2025-01-17 07:46:08.30	75.10	44.11	
2025-01-17 07:46:09.52	75.81	44.28	
2025-01-17 07:46:10.73	76.52	44.44	
2025-01-17 07:46:11.95	77.25	44.60	
2025-01-17 07:46:13.17	77.98	44.75	
2025-01-17 07:46:14.39	78.72	44.90	
2025-01-17 07:46:15.61	79.46	45.05	
2025-01-17 07:46:16.83	80.21	45.19	
2025-01-17 07:46:18.05	80.97	45.32	
2025-01-17 07:46:19.26	81.73	45.45	
2025-01-17 07:46:20.48	82.50	45.58	
2025-01-17 07:46:21.70	83.28	45.70	
2025-01-17 07:46:22.92	84.07	45.81	
2025-01-17 07:46:24.14	84.86	45.92	
2025-01-17 07:46:25.36	85.65	46.03	
2025-01-17 07:46:26.58	86.45	46.13	
2025-01-17 07:46:27.80	87.26	46.22	
2025-01-17 07:46:29.01	88.06	46.31	
2025-01-17 07:46:30.23	88.87	46.39	
2025-01-17 07:46:31.45	89.69	46.46	
2025-01-17 07:46:32.67	90.51	46.53	
2025-01-17 07:46:33.89	91.34	46.59	
2025-01-17 07:46:35.11	92.17	46.65	
2025-01-17 07:46:36.33	93.00	46.70	
2025-01-17 07:46:37.54	93.83	46.74	
2025-01-17 07:46:38.76	94.66	46.78	
2025-01-17 07:46:39.98	95.50	46.81	
2025-01-17 07:46:41.20	96.34	46.84	
2025-01-17 07:46:42.42	97.18	46.85	
2025-01-17 07:46:43.64	98.02	46.86	
2025-01-17 07:46:44.86	98.86	46.87	
2025-01-17 07:46:46.08	99.71	46.87	
2025-01-17 07:46:47.29	100.54	46.86	
2025-01-17 07:46:48.51	101.38	46.84	
2025-01-17 07:46:49.73	102.22	46.82	
2025-01-17 07:46:50.95	103.06	46.80	
2025-01-17 07:46:52.17	103.90	46.76	
2025-01-17 07:46:53.39	104.73	46.72	
2025-01-17 07:46:54.61	105.57	46.67	
2025-01-17 07:46:55.83	106.40	46.62	
2025-01-17 07:46:57.04	107.22	46.56	
2025-01-17 07:46:58.26	108.04	46.49	
2025-01-17 07:46:59.48	108.86	46.42	
2025-01-17 07:47:00.70	109.68	46.34	
2025-01-17 07:47:01.92	110.49	46.26	
2025-01-17 07:47:03.14	111.30	46.17	
2025-01-17 07:47:04.36	112.10	46.07	
2025-01-17 07:47:05.57	112.90	45.97	
2025-01-17 07:47:06.79	113.69	45.86	
2025-01-17 07:47:08.01	114.48	45.75	
2025-01-17 07:47:09.23	115.26	45.63	
2025-01-17 07:47:10.45	116.03	45.51	
2025-01-17 07:47:11.67	116.80	45.38	
2025-01-17 07:47:12.89	117.57	45.25	
2025-01-17 07:47:14.11	118.32	45.11	
2025-01-17 07:47:15.32	119.07	44.96	
2025-01-17 07:47:16.54	119.81	44.82	
2025-01-17 07:47:17.76	120.54	44.66	
2025-01-17 07:47:18.98	121.27	44.51	
2025-01-17 07:47:20.20	122.00	44.35	
2025-01-17 07:47:21.42	122.71	44.18	
2025-01-17 07:47:22.64	123.42	44.01	
2025-01-17 07:47:23.85	124.11	43.84	
2025-01-17 07:47:25.07	124.80	43.66	
2025-01-17 07:47:26.29	125.49	43.48	
2025-01-17 07:47:27.51	126.16	43.30	
2025-01-17 07:47:28.73	126.83	43.11	
2025-01-17 07:47:29.95	127.49	42.92	
2025-01-17 07:47:31.17	128.14	42.73	
2025-01-17 07:47:32.39	128.79	42.53	
2025-01-17 07:47:33.60	129.42	42.33	
2025-01-17 07:47:34.82	130.05	42.13	
2025-01-17 07:47:36.04	130.67	41.93	
2025-01-17 07:47:37.26	131.28	41.72	
2025-01-17 07:47:38.48	131.89	41.51	
2025-01-17 07:47:39.70	132.48	41.30	
2025-01-17 07:47:40.92	133.07	41.09	
2025-01-17 07:47:42.13	133.65	40.87	
2025-01-17 07:47:43.35	134.22	40.65	
2025-01-17 07:47:44.57	134.79	40.44	
2025-01-17 07:47:45.79	135.35	40.22	
2025-01-17 07:47:47.01	135.90	39.99	
2025-01-17 07:47:48.23	136.44	39.77	
2025-01-17 07:47:49.45	136.98	39.55	
2025-01-17 07:47:50.67	137.51	39.32	
2025-01-17 07:47:51.88	138.03	39.10	
2025-01-17 07:47:53.10	138.54	38.87	
2025-01-17 07:47:54.32	139.05	38.64	
2025-01-17 07:47:55.54	139.55	38.41	
2025-01-17 07:47:56.76	140.04	38.18	
2025-01-17 07:47:57.98	140.53	37.95	
2025-01-17 07:47:59.20	141.00	37.72	
2025-01-17 07:48:00.41	141.47	37.49	
2025-01-17 07:48:01.63	141.94	37.26	
2025-01-17 07:48:02.85	142.40	37.03	
2025-01-17 07:48:04.07	142.85	36.79	
2025-01-17 07:48:05.29	143.29	36.56	
2025-01-17 07:48:06.51	143.73	36.33	
2025-01-17 07:48:07.73	144.17	36.10	
2025-01-17 07:48:08.95	144.59	35.86	
2025-01-17 07:48:10.16	145.01	35.63	
2025-01-17 07:48:11.38	145.43	35.40	
2025-01-17 07:48:12.60	145.84	35.17	
2025-01-17 07:48:13.82	146.24	34.94	
2025-01-17 07:48:15.04	146.64	34.71	
2025-01-17 07:48:16.26	147.03	34.47	
2025-01-17 07:48:17.48	147.42	34.24	
2025-01-17 07:48:18.70	147.80	34.01	
2025-01-17 07:48:19.91	148.17	33.79	
2025-01-17 07:48:21.13	148.54	33.56	
2025-01-17 07:48:22.35	148.90	33.33	
2025-01-17 07:48:23.57	149.26	33.10	
2025-01-17 07:48:24.79	149.62	32.87	
2025-01-17 07:48:26.01	149.97	32.64	
2025-01-17 07:48:27.23	150.31	32.42	
2025-01-17 07:48:28.44	150.65	32.19	
2025-01-17 07:48:29.66	150.99	31.97	
2025-01-17 07:48:30.88	151.32	31.75	
2025-01-17 07:48:32.10	151.64	31.52	
2025-01-17 07:48:33.32	151.96	31.30	
2025-01-17 07:48:34.54	152.28	31.08	
2025-01-17 07:48:35.76	152.59	30.86	
2025-01-17 07:48:36.98	152.90	30.64	
2025-01-17 07:48:38.19	153.21	30.42	
2025-01-17 07:48:39.41	153.51	30.20	
2025-01-17 07:48:40.63	153.80	29.99	
2025-01-17 07:48:41.85	154.09	29.77	
2025-01-17 07:48:43.07	154.38	29.56	
2025-01-17 07:48:44.29	154.67	29.34	
2025-01-17 07:48:45.51	154.95	29.13	
2025-01-17 07:48:46.72	155.22	28.92	
2025-01-17 07:48:47.94	155.50	28.71	
2025-01-17 07:48:49.16	155.77	28.50	
2025-01-17 07:48:50.38	156.03	28.29	
2025-01-17 07:48:51.60	156.29	28.08	
2025-01-17 07:48:52.82	156.55	27.87	
2025-01-17 07:48:54.04	156.81	27.67	
2025-01-17 07:48:55.26	157.06	27.46	
2025-01-17 07:48:56.47	157.31	27.26	
2025-01-17 07:48:57.69	157.56	27.06	
2025-01-17 07:48:58.91	157.80	26.86	
2025-01-17 07:49:00.13	158.04	26.66	
2025-01-17 07:49:01.35	158.28	26.46	
2025-01-17 07:49:02.57	158.51	26.26	
2025-01-17 07:49:03.79	158.74	26.06	
2025-01-17 07:49:05.00	158.97	25.87	
2025-01-17 07:49:06.22	159.19	25.67	
2025-01-17 07:49:07.44	159.42	25.48	
2025-01-17 07:49:08.66	159.64	25.29	
2025-01-17 07:49:09.88	159.85	25.10	
2025-01-17 07:49:11.10	160.07	24.91	
2025-01-17 07:49:12.32	160.28	24.72	
2025-01-17 07:49:13.54	160.49	24.53	
2025-01-17 07:49:14.75	160.69	24.34	
2025-01-17 07:49:15.97	160.90	24.16	
2025-01-17 07:49:17.19	161.10	23.97	
2025-01-17 07:49:18.41	161.30	23.79	
2025-01-17 07:49:19.63	161.50	23.60	
2025-01-17 07:49:20.85	161.69	23.42	
2025-01-17 07:49:22.07	161.88	23.24	
2025-01-17 07:49:23.28	162.07	23.06	
2025-01-17 07:49:24.50	162.26	22.88	
2025-01-17 07:49:25.72	162.45	22.71	
2025-01-17 07:49:26.94	162.63	22.53	
2025-01-17 07:49:28.16	162.81	22.35	
2025-01-17 07:49:29.38	162.99	22.18	
2025-01-17 07:49:30.60	163.17	22.01	
2025-01-17 07:49:31.82	163.34	21.83	
2025-01-17 07:49:33.03	163.52	21.66	
2025-01-17 07:49:34.25	163.69	21.49	
2025-01-17 07:49:35.47	163.86	21.32	
2025-01-17 07:49:36.69	164.03	21.15	
2025-01-17 07:49:37.91	164.19	20.99	
2025-01-17 07:49:39.13	164.36	20.82	
2025-01-17 07:49:40.35	164.52	20.65	
2025-01-17 07:49:41.56	164.68	20.49	
2025-01-17 07:49:42.78	164.84	20.33	
2025-01-17 07:49:44.00	164.99	20.16	
2025-01-17 07:49:45.22	165.15	20.00	
2025-01-17 07:49:46.44	165.30	19.84	
2025-01-17 07:49:47.66	165.46	19.68	
2025-01-17 07:49:48.88	165.61	19.52	
2025-01-17 07:49:50.10	165.76	19.37	
2025-01-17 07:49:51.31	165.90	19.21	
2025-01-17 07:49:52.53	166.05	19.05	
2025-01-17 07:49:53.75	166.19	18.90	
2025-01-17 07:49:54.97	166.34	18.74	
2025-01-17 07:49:56.19	166.48	18.59	
2025-01-17 07:49:57.41	166.62	18.44	
2025-01-17 07:49:58.63	166.76	18.29	
2025-01-17 07:49:59.84	166.89	18.14	
2025-01-17 07:50:01.06	167.03	17.99	
2025-01-17 07:50:02.28	167.16	17.84	
2025-01-17 07:50:03.50	167.30	17.69	
2025-01-17 07:50:04.72	167.43	17.54	
2025-01-17 07:50:05.94	167.56	17.39	
2025-01-17 07:50:07.16	167.69	17.25	
2025-01-17 07:50:08.38	167.82	17.10	
2025-01-17 07:50:09.59	167.94	16.96	
2025-01-17 07:50:10.81	168.07	16.82	
2025-01-17 07:50:12.03	168.19	16.67	
2025-01-17 07:50:13.25	168.31	16.53	
2025-01-17 07:50:14.47	168.44	16.39	
2025-01-17 07:50:15.69	168.56	16.25	
2025-01-17 07:50:16.91	168.68	16.11	
2025-01-17 07:50:18.13	168.80	15.97	
2025-01-17 07:50:19.34	168.91	15.84	
2025-01-17 07:50:20.56	169.03	15.70	
2025-01-17 07:50:21.78	169.14	15.56	
2025-01-17 07:50:23.00	169.26	15.43	
2025-01-17 07:50:24.22	169.37	15.29	
2025-01-17 07:50:25.44	169.48	15.16	
2025-01-17 07:50:26.66	169.59	15.02	
2025-01-17 07:50:27.87	169.70	14.89	
2025-01-17 07:50:29.09	169.81	14.76	
2025-01-17 07:50:30.31	169.92	14.63	
2025-01-17 07:50:31.53	170.03	14.50	
2025-01-17 07:50:32.75	170.13	14.37	
2025-01-17 07:50:33.97	170.24	14.24	
2025-01-17 07:50:35.19	170.34	14.11	
2025-01-17 07:50:36.41	170.45	13.98	
2025-01-17 07:50:37.62	170.55	13.86	
2025-01-17 07:50:38.84	170.65	13.73	
2025-01-17 07:50:40.06	170.75	13.60	
2025-01-17 07:50:41.28	170.85	13.48	
2025-01-17 07:50:42.50	170.95	13.35	
2025-01-17 07:50:43.72	171.05	13.23	
2025-01-17 07:50:44.94	171.15	13.10	
2025-01-17 07:50:46.15	171.24	12.98	
2025-01-17 07:50:47.37	171.34	12.86	
2025-01-17 07:50:48.59	171.43	12.74	
2025-01-17 07:50:49.81	171.53	12.62	
2025-01-17 07:50:51.03	171.62	12.50	
2025-01-17 07:50:52.25	171.71	12.38	
2025-01-17 07:50:53.47	171.80	12.26	
2025-01-17 07:50:54.69	171.89	12.14	
2025-01-17 07:50:55.90	171.98	12.02	
2025-01-17 07:50:57.12	172.07	11.90	
2025-01-17 07:50:58.34	172.16	11.79	
2025-01-17 07:50:59.56	172.25	11.67	
2025-01-17 07:51:00.78	172.34	11.56	
2025-01-17 07:51:02.00	172.42	11.44	
2025-01-17 07:51:03.22	172.51	11.33	
2025-01-17 07:51:04.44	172.60	11.21	
2025-01-17 07:51:05.65	172.68	11.10	
2025-01-17 07:51:06.87	172.76	10.99	
2025-01-17 07:51:08.09	172.85	10.87	
2025-01-17 07:51:09.31	172.93	10.76	
2025-01-17 07:51:10.53	173.01	10.65	
2025-01-17 07:51:11.75	173.09	10.54	
2025-01-17 07:51:12.97	173.17	10.43	
2025-01-17 07:51:14.18	173.25	10.32	
2025-01-17 07:51:15.40	173.33	10.21	
2025-01-17 07:51:16.62	173.41	10.10	
2025-01-17 07:51:17.84	173.49	9.99	
2025-01-17 07:51:19.06	173.57	9.88	
2025-01-17 07:51:20.28	173.65	9.78	
2025-01-17 07:51:21.50	173.72	9.67	
2025-01-17 07:51:22.72	173.80	9.56	
2025-01-17 07:51:23.93	173.87	9.46	
2025-01-17 07:51:25.15	173.95	9.35	
2025-01-17 07:51:26.37	174.02	9.25	
2025-01-17 07:51:27.59	174.10	9.14	
2025-01-17 07:51:28.81	174.17	9.04	
2025-01-17 07:51:30.03	174.24	8.93	
2025-01-17 07:51:31.25	174.31	8.83	
2025-01-17 07:51:32.46	174.39	8.73	
2025-01-17 07:51:33.68	174.46	8.62	
2025-01-17 07:51:34.90	174.53	8.52	
2025-01-17 07:51:36.12	174.60	8.42	
2025-01-17 07:51:37.34	174.67	8.32	
2025-01-17 07:51:38.56	174.74	8.22	
2025-01-17 07:51:39.78	174.80	8.12	
2025-01-17 07:51:41.00	174.87	8.02	
2025-01-17 07:51:42.21	174.94	7.92	
2025-01-17 07:51:43.43	175.01	7.82	
2025-01-17 07:51:44.65	175.07	7.72	
2025-01-17 07:51:45.87	175.14	7.62	
2025-01-17 07:51:47.09	175.21	7.52	
2025-01-17 07:51:48.31	175.27	7.43	
2025-01-17 07:51:49.53	175.34	7.33	
2025-01-17 07:51:50.74	175.40	7.23	
2025-01-17 07:51:51.96	175.47	7.14	
2025-01-17 07:51:53.18	175.53	7.04	
2025-01-17 07:51:54.40	175.59	6.94	
2025-01-17 07:51:55.62	175.66	6.85	
2025-01-17 07:51:56.84	175.72	6.75	
2025-01-17 07:51:58.06	175.78	6.66	
2025-01-17 07:51:59.28	175.84	6.57	
2025-01-17 07:52:00.49	175.90	6.47	
2025-01-17 07:52:01.71	175.96	6.38	
2025-01-17 07:52:02.93	176.02	6.29	
2025-01-17 07:52:04.15	176.08	6.19	
2025-01-17 07:52:05.37	176.14	6.10	
2025-01-17 07:52:06.59	176.20	6.01	
2025-01-17 07:52:07.81	176.26	5.92	
2025-01-17 07:52:09.02	176.32	5.82	
2025-01-17 07:52:10.24	176.38	5.73	
2025-01-17 07:52:11.46	176.44	5.64	
2025-01-17 07:52:12.68	176.49	5.55	
2025-01-17 07:52:13.90	176.55	5.46	
2025-01-17 07:52:15.12	176.61	5.37	
2025-01-17 07:52:16.34	176.66	5.28	
2025-01-17 07:52:17.56	176.72	5.19	
2025-01-17 07:52:18.77	176.77	5.11	
2025-01-17 07:52:19.99	176.83	5.02	
2025-01-17 07:52:21.21	176.88	4.93	
2025-01-17 07:52:22.43	176.94	4.84	
2025-01-17 07:52:23.65	176.99	4.75	
2025-01-17 07:52:24.87	177.05	4.67	
2025-01-17 07:52:26.09	177.10	4.58	
2025-01-17 07:52:27.31	177.15	4.49	
2025-01-17 07:52:28.52	177.21	4.41	
2025-01-17 07:52:29.74	177.26	4.32	
2025-01-17 07:52:30.96	177.31	4.23	
2025-01-17 07:52:32.18	177.36	4.15	
2025-01-17 07:52:33.40	177.42	4.06	

#Closed at: 2025-01-17 07:52:34