passes_logs/2025/01/17/SPB_Silybum_02/SPB_Silybum_02__20250117_230235_AQUA_rec.log

#Pass ID: 20250117_230235_AQUA
#Satellite: AQUA
#Configuration: AQUA
#Start time: 2025-01-17 23:02:34

#Version: 2.0.20230423
#Station: SPB_Silybum_02
#Location: 30.233357 lon 59.946436 lat
#TLE: 1 27424U 02022A   25017.13491740  .00001953  00000+0  41075-3 0  9996
#TLE: 2 27424  98.3596 333.8179 0001829 109.1235 340.1836 14.60691632207930

#Time	Az	El	Level	Level2	SNR	BER	Gain	Gain2
2025-01-17 23:02:36.48	37.94	4.03	
2025-01-17 23:02:37.29	38.05	4.06	
2025-01-17 23:02:38.10	38.15	4.10	
2025-01-17 23:02:38.91	38.26	4.13	
2025-01-17 23:02:39.73	38.37	4.17	
2025-01-17 23:02:40.54	38.48	4.20	
2025-01-17 23:02:41.35	38.58	4.24	
2025-01-17 23:02:42.16	38.69	4.27	
2025-01-17 23:02:42.97	38.80	4.30	
2025-01-17 23:02:43.79	38.91	4.34	
2025-01-17 23:02:44.60	39.02	4.37	
2025-01-17 23:02:45.41	39.13	4.41	
2025-01-17 23:02:46.22	39.24	4.44	
2025-01-17 23:02:47.03	39.35	4.48	
2025-01-17 23:02:47.84	39.46	4.51	
2025-01-17 23:02:48.66	39.57	4.54	
2025-01-17 23:02:49.47	39.68	4.58	
2025-01-17 23:02:50.28	39.79	4.61	
2025-01-17 23:02:51.09	39.90	4.65	
2025-01-17 23:02:51.90	40.01	4.68	
2025-01-17 23:02:52.72	40.13	4.72	
2025-01-17 23:02:53.53	40.24	4.75	
2025-01-17 23:02:54.34	40.35	4.78	
2025-01-17 23:02:55.15	40.46	4.82	
2025-01-17 23:02:55.96	40.58	4.85	
2025-01-17 23:02:56.78	40.69	4.88	
2025-01-17 23:02:57.59	40.80	4.92	
2025-01-17 23:02:58.40	40.92	4.95	
2025-01-17 23:02:59.21	41.03	4.99	
2025-01-17 23:03:00.02	41.14	5.02	
2025-01-17 23:03:00.84	41.26	5.05	
2025-01-17 23:03:01.65	41.37	5.09	
2025-01-17 23:03:02.46	41.49	5.12	
2025-01-17 23:03:03.27	41.61	5.15	
2025-01-17 23:03:04.08	41.72	5.19	
2025-01-17 23:03:04.90	41.84	5.22	
2025-01-17 23:03:05.71	41.95	5.25	
2025-01-17 23:03:06.52	42.07	5.29	
2025-01-17 23:03:07.33	42.19	5.32	
2025-01-17 23:03:08.14	42.30	5.35	
2025-01-17 23:03:08.95	42.42	5.39	
2025-01-17 23:03:09.77	42.54	5.42	
2025-01-17 23:03:10.58	42.66	5.45	
2025-01-17 23:03:11.39	42.78	5.49	
2025-01-17 23:03:12.20	42.89	5.52	
2025-01-17 23:03:13.01	43.01	5.55	
2025-01-17 23:03:13.83	43.13	5.59	
2025-01-17 23:03:14.64	43.25	5.62	
2025-01-17 23:03:15.45	43.37	5.65	
2025-01-17 23:03:16.26	43.49	5.68	
2025-01-17 23:03:17.07	43.61	5.72	
2025-01-17 23:03:17.89	43.73	5.75	
2025-01-17 23:03:18.70	43.85	5.78	
2025-01-17 23:03:19.51	43.98	5.81	
2025-01-17 23:03:20.32	44.10	5.85	
2025-01-17 23:03:21.13	44.22	5.88	
2025-01-17 23:03:21.95	44.34	5.91	
2025-01-17 23:03:22.76	44.46	5.94	
2025-01-17 23:03:23.57	44.59	5.98	
2025-01-17 23:03:24.38	44.71	6.01	
2025-01-17 23:03:25.19	44.83	6.04	
2025-01-17 23:03:26.01	44.96	6.07	
2025-01-17 23:03:26.82	45.08	6.11	
2025-01-17 23:03:27.63	45.20	6.14	
2025-01-17 23:03:28.44	45.33	6.17	
2025-01-17 23:03:29.25	45.45	6.20	
2025-01-17 23:03:30.06	45.58	6.23	
2025-01-17 23:03:30.88	45.70	6.26	
2025-01-17 23:03:31.69	45.83	6.30	
2025-01-17 23:03:32.50	45.95	6.33	
2025-01-17 23:03:33.31	46.08	6.36	
2025-01-17 23:03:34.12	46.21	6.39	
2025-01-17 23:03:34.94	46.33	6.42	
2025-01-17 23:03:35.75	46.46	6.45	
2025-01-17 23:03:36.56	46.59	6.48	
2025-01-17 23:03:37.37	46.71	6.52	
2025-01-17 23:03:38.18	46.84	6.55	
2025-01-17 23:03:39.00	46.97	6.58	
2025-01-17 23:03:39.81	47.10	6.61	
2025-01-17 23:03:40.62	47.23	6.64	
2025-01-17 23:03:41.43	47.36	6.67	
2025-01-17 23:03:42.24	47.48	6.70	
2025-01-17 23:03:43.06	47.62	6.73	
2025-01-17 23:03:43.87	47.75	6.76	
2025-01-17 23:03:44.68	47.87	6.79	
2025-01-17 23:03:45.49	48.00	6.82	
2025-01-17 23:03:46.30	48.14	6.85	
2025-01-17 23:03:47.12	48.27	6.88	
2025-01-17 23:03:47.93	48.40	6.91	
2025-01-17 23:03:48.74	48.53	6.94	
2025-01-17 23:03:49.55	48.66	6.97	
2025-01-17 23:03:50.36	48.79	7.00	
2025-01-17 23:03:51.17	48.93	7.03	
2025-01-17 23:03:51.99	49.06	7.06	
2025-01-17 23:03:52.80	49.19	7.09	
2025-01-17 23:03:53.61	49.33	7.12	
2025-01-17 23:03:54.42	49.46	7.15	
2025-01-17 23:03:55.23	49.59	7.18	
2025-01-17 23:03:56.05	49.73	7.21	
2025-01-17 23:03:56.86	49.86	7.24	
2025-01-17 23:03:57.67	50.00	7.27	
2025-01-17 23:03:58.48	50.13	7.30	
2025-01-17 23:03:59.29	50.27	7.33	
2025-01-17 23:04:00.11	50.40	7.36	
2025-01-17 23:04:00.92	50.54	7.39	
2025-01-17 23:04:01.73	50.67	7.42	
2025-01-17 23:04:02.54	50.81	7.44	
2025-01-17 23:04:03.35	50.95	7.47	
2025-01-17 23:04:04.17	51.08	7.50	
2025-01-17 23:04:04.98	51.22	7.53	
2025-01-17 23:04:05.79	51.36	7.56	
2025-01-17 23:04:06.60	51.50	7.59	
2025-01-17 23:04:07.41	51.63	7.61	
2025-01-17 23:04:08.22	51.77	7.64	
2025-01-17 23:04:09.04	51.91	7.67	
2025-01-17 23:04:09.85	52.05	7.70	
2025-01-17 23:04:10.66	52.19	7.72	
2025-01-17 23:04:11.47	52.33	7.75	
2025-01-17 23:04:12.28	52.47	7.78	
2025-01-17 23:04:13.10	52.61	7.81	
2025-01-17 23:04:13.91	52.75	7.83	
2025-01-17 23:04:14.72	52.89	7.86	
2025-01-17 23:04:15.53	53.03	7.89	
2025-01-17 23:04:16.34	53.17	7.92	
2025-01-17 23:04:17.16	53.31	7.94	
2025-01-17 23:04:17.97	53.46	7.97	
2025-01-17 23:04:18.78	53.60	8.00	
2025-01-17 23:04:19.59	53.74	8.02	
2025-01-17 23:04:20.40	53.88	8.05	
2025-01-17 23:04:21.22	54.03	8.08	
2025-01-17 23:04:22.03	54.17	8.10	
2025-01-17 23:04:22.84	54.31	8.13	
2025-01-17 23:04:23.65	54.46	8.15	
2025-01-17 23:04:24.46	54.60	8.18	
2025-01-17 23:04:25.28	54.74	8.20	
2025-01-17 23:04:26.09	54.89	8.23	
2025-01-17 23:04:26.90	55.03	8.26	
2025-01-17 23:04:27.71	55.18	8.28	
2025-01-17 23:04:28.52	55.32	8.31	
2025-01-17 23:04:29.33	55.47	8.33	
2025-01-17 23:04:30.15	55.62	8.36	
2025-01-17 23:04:30.96	55.76	8.38	
2025-01-17 23:04:31.77	55.91	8.41	
2025-01-17 23:04:32.58	56.05	8.43	
2025-01-17 23:04:33.39	56.20	8.45	
2025-01-17 23:04:34.21	56.35	8.48	
2025-01-17 23:04:35.02	56.50	8.50	
2025-01-17 23:04:35.83	56.64	8.53	
2025-01-17 23:04:36.64	56.79	8.55	
2025-01-17 23:04:37.45	56.94	8.57	
2025-01-17 23:04:38.27	57.09	8.60	
2025-01-17 23:04:39.08	57.24	8.62	
2025-01-17 23:04:39.89	57.39	8.65	
2025-01-17 23:04:40.70	57.53	8.67	
2025-01-17 23:04:41.51	57.68	8.69	
2025-01-17 23:04:42.33	57.83	8.72	
2025-01-17 23:04:43.14	57.98	8.74	
2025-01-17 23:04:43.95	58.13	8.76	
2025-01-17 23:04:44.76	58.28	8.78	
2025-01-17 23:04:45.57	58.43	8.81	
2025-01-17 23:04:46.38	58.58	8.83	
2025-01-17 23:04:47.20	58.74	8.85	
2025-01-17 23:04:48.01	58.89	8.87	
2025-01-17 23:04:48.82	59.04	8.89	
2025-01-17 23:04:49.63	59.19	8.92	
2025-01-17 23:04:50.44	59.34	8.94	
2025-01-17 23:04:51.26	59.50	8.96	
2025-01-17 23:04:52.07	59.65	8.98	
2025-01-17 23:04:52.88	59.80	9.00	
2025-01-17 23:04:53.69	59.95	9.02	
2025-01-17 23:04:54.50	60.11	9.04	
2025-01-17 23:04:55.32	60.26	9.06	
2025-01-17 23:04:56.13	60.42	9.08	
2025-01-17 23:04:56.94	60.57	9.11	
2025-01-17 23:04:57.75	60.72	9.13	
2025-01-17 23:04:58.56	60.88	9.15	
2025-01-17 23:04:59.38	61.03	9.17	
2025-01-17 23:05:00.19	61.19	9.19	
2025-01-17 23:05:01.00	61.34	9.20	
2025-01-17 23:05:01.81	61.50	9.22	
2025-01-17 23:05:02.62	61.65	9.24	
2025-01-17 23:05:03.44	61.81	9.26	
2025-01-17 23:05:04.25	61.97	9.28	
2025-01-17 23:05:05.06	62.12	9.30	
2025-01-17 23:05:05.87	62.28	9.32	
2025-01-17 23:05:06.68	62.44	9.34	
2025-01-17 23:05:07.50	62.59	9.36	
2025-01-17 23:05:08.31	62.75	9.37	
2025-01-17 23:05:09.12	62.91	9.39	
2025-01-17 23:05:09.93	63.06	9.41	
2025-01-17 23:05:10.74	63.22	9.43	
2025-01-17 23:05:11.55	63.38	9.45	
2025-01-17 23:05:12.37	63.54	9.46	
2025-01-17 23:05:13.18	63.70	9.48	
2025-01-17 23:05:13.99	63.86	9.50	
2025-01-17 23:05:14.80	64.01	9.51	
2025-01-17 23:05:15.61	64.17	9.53	
2025-01-17 23:05:16.43	64.33	9.55	
2025-01-17 23:05:17.24	64.49	9.56	
2025-01-17 23:05:18.05	64.65	9.58	
2025-01-17 23:05:18.86	64.81	9.60	
2025-01-17 23:05:19.67	64.97	9.61	
2025-01-17 23:05:20.49	65.13	9.63	
2025-01-17 23:05:21.30	65.29	9.64	
2025-01-17 23:05:22.11	65.45	9.66	
2025-01-17 23:05:22.92	65.61	9.67	
2025-01-17 23:05:23.73	65.77	9.69	
2025-01-17 23:05:24.55	65.93	9.70	
2025-01-17 23:05:25.36	66.09	9.72	
2025-01-17 23:05:26.17	66.26	9.73	
2025-01-17 23:05:26.98	66.42	9.75	
2025-01-17 23:05:27.79	66.58	9.76	
2025-01-17 23:05:28.60	66.74	9.78	
2025-01-17 23:05:29.42	66.90	9.79	
2025-01-17 23:05:30.23	67.06	9.80	
2025-01-17 23:05:31.04	67.23	9.82	
2025-01-17 23:05:31.85	67.39	9.83	
2025-01-17 23:05:32.66	67.55	9.84	
2025-01-17 23:05:33.48	67.72	9.85	
2025-01-17 23:05:34.29	67.88	9.87	
2025-01-17 23:05:35.10	68.04	9.88	
2025-01-17 23:05:35.91	68.20	9.89	
2025-01-17 23:05:36.72	68.37	9.90	
2025-01-17 23:05:37.54	68.53	9.92	
2025-01-17 23:05:38.35	68.69	9.93	
2025-01-17 23:05:39.16	68.86	9.94	
2025-01-17 23:05:39.97	69.02	9.95	
2025-01-17 23:05:40.78	69.19	9.96	
2025-01-17 23:05:41.60	69.35	9.97	
2025-01-17 23:05:42.41	69.52	9.98	
2025-01-17 23:05:43.22	69.68	9.99	
2025-01-17 23:05:44.03	69.84	10.00	
2025-01-17 23:05:44.84	70.01	10.01	
2025-01-17 23:05:45.66	70.17	10.02	
2025-01-17 23:05:46.47	70.34	10.03	
2025-01-17 23:05:47.28	70.50	10.04	
2025-01-17 23:05:48.09	70.67	10.05	
2025-01-17 23:05:48.90	70.83	10.06	
2025-01-17 23:05:49.71	71.00	10.07	
2025-01-17 23:05:50.53	71.17	10.08	
2025-01-17 23:05:51.34	71.33	10.09	
2025-01-17 23:05:52.15	71.50	10.10	
2025-01-17 23:05:52.96	71.66	10.11	
2025-01-17 23:05:53.77	71.83	10.11	
2025-01-17 23:05:54.59	71.99	10.12	
2025-01-17 23:05:55.40	72.16	10.13	
2025-01-17 23:05:56.21	72.33	10.14	
2025-01-17 23:05:57.02	72.49	10.14	
2025-01-17 23:05:57.83	72.66	10.15	
2025-01-17 23:05:58.65	72.83	10.16	
2025-01-17 23:05:59.46	72.99	10.16	
2025-01-17 23:06:00.27	73.16	10.17	
2025-01-17 23:06:01.08	73.32	10.18	
2025-01-17 23:06:01.89	73.49	10.18	
2025-01-17 23:06:02.71	73.66	10.19	
2025-01-17 23:06:03.52	73.83	10.19	
2025-01-17 23:06:04.33	73.99	10.20	
2025-01-17 23:06:05.14	74.16	10.20	
2025-01-17 23:06:05.95	74.33	10.21	
2025-01-17 23:06:06.77	74.50	10.21	
2025-01-17 23:06:07.58	74.66	10.22	
2025-01-17 23:06:08.39	74.83	10.22	
2025-01-17 23:06:09.20	75.00	10.23	
2025-01-17 23:06:10.01	75.16	10.23	
2025-01-17 23:06:10.82	75.33	10.24	
2025-01-17 23:06:11.64	75.50	10.24	
2025-01-17 23:06:12.45	75.67	10.24	
2025-01-17 23:06:13.26	75.83	10.25	
2025-01-17 23:06:14.07	76.00	10.25	
2025-01-17 23:06:14.88	76.17	10.25	
2025-01-17 23:06:15.70	76.34	10.25	
2025-01-17 23:06:16.51	76.51	10.26	
2025-01-17 23:06:17.32	76.67	10.26	
2025-01-17 23:06:18.13	76.84	10.26	
2025-01-17 23:06:18.94	77.01	10.26	
2025-01-17 23:06:19.76	77.18	10.26	
2025-01-17 23:06:20.57	77.34	10.27	
2025-01-17 23:06:21.38	77.51	10.27	
2025-01-17 23:06:22.19	77.68	10.27	
2025-01-17 23:06:23.00	77.85	10.27	
2025-01-17 23:06:23.82	78.02	10.27	
2025-01-17 23:06:24.63	78.18	10.27	
2025-01-17 23:06:25.44	78.35	10.27	
2025-01-17 23:06:26.25	78.52	10.27	
2025-01-17 23:06:27.06	78.69	10.27	
2025-01-17 23:06:27.88	78.86	10.27	
2025-01-17 23:06:28.69	79.02	10.27	
2025-01-17 23:06:29.50	79.19	10.27	
2025-01-17 23:06:30.31	79.36	10.27	
2025-01-17 23:06:31.12	79.53	10.26	
2025-01-17 23:06:31.93	79.69	10.26	
2025-01-17 23:06:32.75	79.86	10.26	
2025-01-17 23:06:33.56	80.03	10.26	
2025-01-17 23:06:34.37	80.20	10.26	
2025-01-17 23:06:35.18	80.37	10.25	
2025-01-17 23:06:35.99	80.53	10.25	
2025-01-17 23:06:36.81	80.70	10.25	
2025-01-17 23:06:37.62	80.87	10.25	
2025-01-17 23:06:38.43	81.04	10.24	
2025-01-17 23:06:39.24	81.21	10.24	
2025-01-17 23:06:40.05	81.37	10.24	
2025-01-17 23:06:40.87	81.54	10.23	
2025-01-17 23:06:41.68	81.71	10.23	
2025-01-17 23:06:42.49	81.88	10.22	
2025-01-17 23:06:43.30	82.04	10.22	
2025-01-17 23:06:44.11	82.21	10.21	
2025-01-17 23:06:44.93	82.38	10.21	
2025-01-17 23:06:45.74	82.55	10.20	
2025-01-17 23:06:46.55	82.71	10.20	
2025-01-17 23:06:47.36	82.88	10.19	
2025-01-17 23:06:48.17	83.05	10.19	
2025-01-17 23:06:48.98	83.21	10.18	
2025-01-17 23:06:49.80	83.38	10.18	
2025-01-17 23:06:50.61	83.55	10.17	
2025-01-17 23:06:51.42	83.71	10.16	
2025-01-17 23:06:52.23	83.88	10.16	
2025-01-17 23:06:53.04	84.05	10.15	
2025-01-17 23:06:53.86	84.22	10.14	
2025-01-17 23:06:54.67	84.38	10.14	
2025-01-17 23:06:55.48	84.55	10.13	
2025-01-17 23:06:56.29	84.71	10.12	
2025-01-17 23:06:57.10	84.88	10.11	
2025-01-17 23:06:57.92	85.05	10.10	
2025-01-17 23:06:58.73	85.21	10.10	
2025-01-17 23:06:59.54	85.38	10.09	
2025-01-17 23:07:00.35	85.54	10.08	
2025-01-17 23:07:01.16	85.71	10.07	
2025-01-17 23:07:01.98	85.88	10.06	
2025-01-17 23:07:02.79	86.04	10.05	
2025-01-17 23:07:03.60	86.21	10.04	
2025-01-17 23:07:04.41	86.37	10.03	
2025-01-17 23:07:05.22	86.54	10.02	
2025-01-17 23:07:06.04	86.70	10.01	
2025-01-17 23:07:06.85	86.87	10.00	
2025-01-17 23:07:07.66	87.03	9.99	
2025-01-17 23:07:08.47	87.20	9.98	
2025-01-17 23:07:09.28	87.36	9.97	
2025-01-17 23:07:10.09	87.53	9.96	
2025-01-17 23:07:10.91	87.69	9.95	
2025-01-17 23:07:11.72	87.86	9.94	
2025-01-17 23:07:12.53	88.02	9.93	
2025-01-17 23:07:13.34	88.18	9.91	
2025-01-17 23:07:14.15	88.35	9.90	
2025-01-17 23:07:14.97	88.51	9.89	
2025-01-17 23:07:15.78	88.68	9.88	
2025-01-17 23:07:16.59	88.84	9.86	
2025-01-17 23:07:17.40	89.00	9.85	
2025-01-17 23:07:18.21	89.16	9.84	
2025-01-17 23:07:19.03	89.33	9.83	
2025-01-17 23:07:19.84	89.49	9.81	
2025-01-17 23:07:20.65	89.65	9.80	
2025-01-17 23:07:21.46	89.82	9.79	
2025-01-17 23:07:22.27	89.98	9.77	
2025-01-17 23:07:23.09	90.14	9.76	
2025-01-17 23:07:23.90	90.30	9.74	
2025-01-17 23:07:24.71	90.46	9.73	
2025-01-17 23:07:25.52	90.63	9.71	
2025-01-17 23:07:26.33	90.79	9.70	
2025-01-17 23:07:27.15	90.95	9.68	
2025-01-17 23:07:27.96	91.11	9.67	
2025-01-17 23:07:28.77	91.27	9.65	
2025-01-17 23:07:29.58	91.43	9.64	
2025-01-17 23:07:30.39	91.59	9.62	
2025-01-17 23:07:31.20	91.75	9.61	
2025-01-17 23:07:32.02	91.91	9.59	
2025-01-17 23:07:32.83	92.07	9.58	
2025-01-17 23:07:33.64	92.23	9.56	
2025-01-17 23:07:34.45	92.39	9.54	
2025-01-17 23:07:35.26	92.55	9.53	
2025-01-17 23:07:36.08	92.71	9.51	
2025-01-17 23:07:36.89	92.87	9.49	
2025-01-17 23:07:37.70	93.03	9.48	
2025-01-17 23:07:38.51	93.19	9.46	
2025-01-17 23:07:39.32	93.35	9.44	
2025-01-17 23:07:40.14	93.51	9.42	
2025-01-17 23:07:40.95	93.67	9.40	
2025-01-17 23:07:41.76	93.82	9.39	
2025-01-17 23:07:42.57	93.98	9.37	
2025-01-17 23:07:43.38	94.14	9.35	
2025-01-17 23:07:44.20	94.30	9.33	
2025-01-17 23:07:45.01	94.45	9.31	
2025-01-17 23:07:45.82	94.61	9.29	
2025-01-17 23:07:46.63	94.77	9.28	
2025-01-17 23:07:47.44	94.92	9.26	
2025-01-17 23:07:48.26	95.08	9.24	
2025-01-17 23:07:49.07	95.24	9.22	
2025-01-17 23:07:49.88	95.39	9.20	
2025-01-17 23:07:50.69	95.55	9.18	
2025-01-17 23:07:51.50	95.70	9.16	
2025-01-17 23:07:52.31	95.86	9.14	
2025-01-17 23:07:53.13	96.01	9.12	
2025-01-17 23:07:53.94	96.17	9.10	
2025-01-17 23:07:54.75	96.32	9.08	
2025-01-17 23:07:55.56	96.48	9.06	
2025-01-17 23:07:56.37	96.63	9.03	
2025-01-17 23:07:57.19	96.79	9.01	
2025-01-17 23:07:58.00	96.94	8.99	
2025-01-17 23:07:58.81	97.09	8.97	
2025-01-17 23:07:59.62	97.25	8.95	
2025-01-17 23:08:00.43	97.40	8.93	
2025-01-17 23:08:01.25	97.55	8.91	
2025-01-17 23:08:02.06	97.70	8.88	
2025-01-17 23:08:02.87	97.86	8.86	
2025-01-17 23:08:03.68	98.01	8.84	
2025-01-17 23:08:04.49	98.16	8.82	
2025-01-17 23:08:05.31	98.31	8.79	
2025-01-17 23:08:06.12	98.46	8.77	
2025-01-17 23:08:06.93	98.61	8.75	
2025-01-17 23:08:07.74	98.76	8.73	
2025-01-17 23:08:08.55	98.91	8.70	
2025-01-17 23:08:09.36	99.06	8.68	
2025-01-17 23:08:10.18	99.22	8.66	
2025-01-17 23:08:10.99	99.37	8.63	
2025-01-17 23:08:11.80	99.51	8.61	
2025-01-17 23:08:12.61	99.66	8.59	
2025-01-17 23:08:13.42	99.81	8.56	
2025-01-17 23:08:14.24	99.96	8.54	
2025-01-17 23:08:15.05	100.11	8.51	
2025-01-17 23:08:15.86	100.26	8.49	
2025-01-17 23:08:16.67	100.41	8.47	
2025-01-17 23:08:17.48	100.55	8.44	
2025-01-17 23:08:18.30	100.70	8.42	
2025-01-17 23:08:19.11	100.85	8.39	
2025-01-17 23:08:19.92	101.00	8.37	
2025-01-17 23:08:20.73	101.14	8.34	
2025-01-17 23:08:21.54	101.29	8.32	
2025-01-17 23:08:22.36	101.44	8.29	
2025-01-17 23:08:23.17	101.58	8.27	
2025-01-17 23:08:23.98	101.73	8.24	
2025-01-17 23:08:24.79	101.87	8.21	
2025-01-17 23:08:25.60	102.02	8.19	
2025-01-17 23:08:26.42	102.16	8.16	
2025-01-17 23:08:27.23	102.31	8.14	
2025-01-17 23:08:28.04	102.45	8.11	
2025-01-17 23:08:28.85	102.60	8.08	
2025-01-17 23:08:29.66	102.74	8.06	
2025-01-17 23:08:30.47	102.88	8.03	
2025-01-17 23:08:31.29	103.03	8.00	
2025-01-17 23:08:32.10	103.17	7.98	
2025-01-17 23:08:32.91	103.31	7.95	
2025-01-17 23:08:33.72	103.45	7.92	
2025-01-17 23:08:34.53	103.60	7.90	
2025-01-17 23:08:35.35	103.74	7.87	
2025-01-17 23:08:36.16	103.88	7.84	
2025-01-17 23:08:36.97	104.02	7.82	
2025-01-17 23:08:37.78	104.16	7.79	
2025-01-17 23:08:38.59	104.30	7.76	
2025-01-17 23:08:39.41	104.44	7.73	
2025-01-17 23:08:40.22	104.58	7.70	
2025-01-17 23:08:41.03	104.72	7.68	
2025-01-17 23:08:41.84	104.86	7.65	
2025-01-17 23:08:42.65	105.00	7.62	
2025-01-17 23:08:43.47	105.14	7.59	
2025-01-17 23:08:44.28	105.28	7.56	
2025-01-17 23:08:45.09	105.42	7.54	
2025-01-17 23:08:45.90	105.56	7.51	
2025-01-17 23:08:46.71	105.69	7.48	
2025-01-17 23:08:47.53	105.83	7.45	
2025-01-17 23:08:48.34	105.97	7.42	
2025-01-17 23:08:49.15	106.11	7.39	
2025-01-17 23:08:49.96	106.24	7.36	
2025-01-17 23:08:50.77	106.38	7.33	
2025-01-17 23:08:51.58	106.51	7.30	
2025-01-17 23:08:52.40	106.65	7.28	
2025-01-17 23:08:53.21	106.79	7.25	
2025-01-17 23:08:54.02	106.92	7.22	
2025-01-17 23:08:54.83	107.06	7.19	
2025-01-17 23:08:55.64	107.19	7.16	
2025-01-17 23:08:56.46	107.33	7.13	
2025-01-17 23:08:57.27	107.46	7.10	
2025-01-17 23:08:58.08	107.59	7.07	
2025-01-17 23:08:58.89	107.73	7.04	
2025-01-17 23:08:59.70	107.86	7.01	
2025-01-17 23:09:00.52	108.00	6.98	
2025-01-17 23:09:01.33	108.13	6.95	
2025-01-17 23:09:02.14	108.26	6.92	
2025-01-17 23:09:02.95	108.39	6.89	
2025-01-17 23:09:03.76	108.52	6.86	
2025-01-17 23:09:04.58	108.66	6.82	
2025-01-17 23:09:05.39	108.79	6.79	
2025-01-17 23:09:06.20	108.92	6.76	
2025-01-17 23:09:07.01	109.05	6.73	
2025-01-17 23:09:07.82	109.18	6.70	
2025-01-17 23:09:08.63	109.31	6.67	
2025-01-17 23:09:09.45	109.44	6.64	
2025-01-17 23:09:10.26	109.57	6.61	
2025-01-17 23:09:11.07	109.70	6.58	
2025-01-17 23:09:11.88	109.83	6.55	
2025-01-17 23:09:12.69	109.95	6.51	
2025-01-17 23:09:13.51	110.08	6.48	
2025-01-17 23:09:14.32	110.21	6.45	
2025-01-17 23:09:15.13	110.34	6.42	
2025-01-17 23:09:15.94	110.47	6.39	
2025-01-17 23:09:16.75	110.59	6.36	
2025-01-17 23:09:17.57	110.72	6.32	
2025-01-17 23:09:18.38	110.85	6.29	
2025-01-17 23:09:19.19	110.97	6.26	
2025-01-17 23:09:20.00	111.10	6.23	
2025-01-17 23:09:20.81	111.23	6.20	
2025-01-17 23:09:21.63	111.35	6.16	
2025-01-17 23:09:22.44	111.48	6.13	
2025-01-17 23:09:23.25	111.60	6.10	
2025-01-17 23:09:24.06	111.73	6.07	
2025-01-17 23:09:24.87	111.85	6.04	
2025-01-17 23:09:25.69	111.98	6.00	
2025-01-17 23:09:26.50	112.10	5.97	
2025-01-17 23:09:27.31	112.22	5.94	
2025-01-17 23:09:28.12	112.35	5.91	
2025-01-17 23:09:28.93	112.47	5.87	
2025-01-17 23:09:29.74	112.59	5.84	
2025-01-17 23:09:30.56	112.71	5.81	
2025-01-17 23:09:31.37	112.84	5.77	
2025-01-17 23:09:32.18	112.96	5.74	
2025-01-17 23:09:32.99	113.08	5.71	
2025-01-17 23:09:33.80	113.20	5.68	
2025-01-17 23:09:34.62	113.32	5.64	
2025-01-17 23:09:35.43	113.44	5.61	
2025-01-17 23:09:36.24	113.56	5.58	
2025-01-17 23:09:37.05	113.68	5.54	
2025-01-17 23:09:37.86	113.80	5.51	
2025-01-17 23:09:38.68	113.92	5.48	
2025-01-17 23:09:39.49	114.04	5.44	
2025-01-17 23:09:40.30	114.16	5.41	
2025-01-17 23:09:41.11	114.28	5.38	
2025-01-17 23:09:41.92	114.39	5.34	
2025-01-17 23:09:42.74	114.51	5.31	
2025-01-17 23:09:43.55	114.63	5.28	
2025-01-17 23:09:44.36	114.75	5.24	
2025-01-17 23:09:45.17	114.87	5.21	
2025-01-17 23:09:45.98	114.98	5.17	
2025-01-17 23:09:46.80	115.10	5.14	
2025-01-17 23:09:47.61	115.22	5.11	
2025-01-17 23:09:48.42	115.33	5.07	
2025-01-17 23:09:49.23	115.45	5.04	
2025-01-17 23:09:50.04	115.56	5.00	
2025-01-17 23:09:50.85	115.68	4.97	
2025-01-17 23:09:51.67	115.79	4.94	
2025-01-17 23:09:52.48	115.91	4.90	
2025-01-17 23:09:53.29	116.02	4.87	
2025-01-17 23:09:54.10	116.13	4.83	
2025-01-17 23:09:54.91	116.25	4.80	
2025-01-17 23:09:55.73	116.36	4.77	
2025-01-17 23:09:56.54	116.48	4.73	
2025-01-17 23:09:57.35	116.59	4.70	
2025-01-17 23:09:58.16	116.70	4.66	
2025-01-17 23:09:58.97	116.81	4.63	
2025-01-17 23:09:59.79	116.93	4.59	
2025-01-17 23:10:00.60	117.04	4.56	
2025-01-17 23:10:01.41	117.15	4.52	
2025-01-17 23:10:02.22	117.26	4.49	
2025-01-17 23:10:03.03	117.37	4.46	
2025-01-17 23:10:03.85	117.48	4.42	
2025-01-17 23:10:04.66	117.59	4.39	
2025-01-17 23:10:05.47	117.70	4.35	
2025-01-17 23:10:06.28	117.81	4.32	
2025-01-17 23:10:07.09	117.92	4.28	
2025-01-17 23:10:07.91	118.03	4.25	
2025-01-17 23:10:08.72	118.14	4.21	
2025-01-17 23:10:09.53	118.25	4.18	
2025-01-17 23:10:10.34	118.36	4.14	
2025-01-17 23:10:11.15	118.47	4.11	
2025-01-17 23:10:11.96	118.57	4.07	
2025-01-17 23:10:12.78	118.68	4.04	
2025-01-17 23:10:13.59	118.79	4.00	

#Closed at: 2025-01-17 23:10:13