passes_logs/2025/01/17/SPB_Silybum_02/SPB_Silybum_02__20250117_185457_TERRA_rec.log

#Pass ID: 20250117_185457_TERRA
#Satellite: TERRA
#Configuration: TERRA
#Start time: 2025-01-17 18:54:55

#Version: 2.0.20230423
#Station: SPB_Silybum_02
#Location: 30.233357 lon 59.946436 lat
#TLE: 1 25994U 99068A   25016.77398677  .00000840  00000+0  18282-3 0  9994
#TLE: 2 25994  98.0212  79.7479 0003409  69.0484  40.6664 14.60398530334334

#Time	Az	El	Level	Level2	SNR	BER	Gain	Gain2
2025-01-17 18:54:57.53	173.67	4.03	
2025-01-17 18:54:58.75	173.70	4.12	
2025-01-17 18:54:59.97	173.73	4.21	
2025-01-17 18:55:01.19	173.76	4.29	
2025-01-17 18:55:02.41	173.80	4.38	
2025-01-17 18:55:03.62	173.83	4.47	
2025-01-17 18:55:04.84	173.86	4.56	
2025-01-17 18:55:06.06	173.90	4.65	
2025-01-17 18:55:07.28	173.93	4.74	
2025-01-17 18:55:08.50	173.96	4.83	
2025-01-17 18:55:09.72	174.00	4.92	
2025-01-17 18:55:10.93	174.03	5.01	
2025-01-17 18:55:12.15	174.07	5.10	
2025-01-17 18:55:13.37	174.10	5.19	
2025-01-17 18:55:14.59	174.13	5.28	
2025-01-17 18:55:15.81	174.17	5.37	
2025-01-17 18:55:17.03	174.20	5.46	
2025-01-17 18:55:18.24	174.24	5.56	
2025-01-17 18:55:19.46	174.28	5.65	
2025-01-17 18:55:20.68	174.31	5.74	
2025-01-17 18:55:21.90	174.35	5.84	
2025-01-17 18:55:23.12	174.38	5.93	
2025-01-17 18:55:24.34	174.42	6.02	
2025-01-17 18:55:25.56	174.46	6.12	
2025-01-17 18:55:26.77	174.49	6.21	
2025-01-17 18:55:27.99	174.53	6.31	
2025-01-17 18:55:29.21	174.57	6.40	
2025-01-17 18:55:30.43	174.61	6.50	
2025-01-17 18:55:31.65	174.64	6.60	
2025-01-17 18:55:32.87	174.68	6.69	
2025-01-17 18:55:34.08	174.72	6.79	
2025-01-17 18:55:35.30	174.76	6.89	
2025-01-17 18:55:36.52	174.80	6.99	
2025-01-17 18:55:37.74	174.84	7.08	
2025-01-17 18:55:38.96	174.88	7.18	
2025-01-17 18:55:40.18	174.92	7.28	
2025-01-17 18:55:41.40	174.96	7.38	
2025-01-17 18:55:42.61	175.00	7.48	
2025-01-17 18:55:43.83	175.04	7.58	
2025-01-17 18:55:45.05	175.08	7.68	
2025-01-17 18:55:46.27	175.12	7.79	
2025-01-17 18:55:47.49	175.16	7.89	
2025-01-17 18:55:48.71	175.20	7.99	
2025-01-17 18:55:49.92	175.25	8.09	
2025-01-17 18:55:51.14	175.29	8.19	
2025-01-17 18:55:52.36	175.33	8.30	
2025-01-17 18:55:53.58	175.37	8.40	
2025-01-17 18:55:54.80	175.42	8.51	
2025-01-17 18:55:56.02	175.46	8.61	
2025-01-17 18:55:57.24	175.50	8.72	
2025-01-17 18:55:58.45	175.55	8.82	
2025-01-17 18:55:59.67	175.59	8.93	
2025-01-17 18:56:00.89	175.64	9.04	
2025-01-17 18:56:02.11	175.68	9.15	
2025-01-17 18:56:03.33	175.73	9.25	
2025-01-17 18:56:04.55	175.77	9.36	
2025-01-17 18:56:05.76	175.82	9.47	
2025-01-17 18:56:06.98	175.87	9.58	
2025-01-17 18:56:08.20	175.91	9.69	
2025-01-17 18:56:09.42	175.96	9.80	
2025-01-17 18:56:10.64	176.01	9.91	
2025-01-17 18:56:11.86	176.06	10.03	
2025-01-17 18:56:13.08	176.10	10.14	
2025-01-17 18:56:14.29	176.15	10.25	
2025-01-17 18:56:15.51	176.20	10.36	
2025-01-17 18:56:16.73	176.25	10.48	
2025-01-17 18:56:17.95	176.30	10.59	
2025-01-17 18:56:19.17	176.35	10.71	
2025-01-17 18:56:20.39	176.40	10.82	
2025-01-17 18:56:21.60	176.45	10.94	
2025-01-17 18:56:22.82	176.50	11.06	
2025-01-17 18:56:24.04	176.55	11.17	
2025-01-17 18:56:25.26	176.61	11.29	
2025-01-17 18:56:26.48	176.66	11.41	
2025-01-17 18:56:27.70	176.71	11.53	
2025-01-17 18:56:28.91	176.77	11.65	
2025-01-17 18:56:30.13	176.82	11.77	
2025-01-17 18:56:31.35	176.87	11.89	
2025-01-17 18:56:32.57	176.93	12.01	
2025-01-17 18:56:33.79	176.98	12.14	
2025-01-17 18:56:35.01	177.04	12.26	
2025-01-17 18:56:36.23	177.10	12.38	
2025-01-17 18:56:37.44	177.15	12.51	
2025-01-17 18:56:38.66	177.21	12.63	
2025-01-17 18:56:39.88	177.27	12.76	
2025-01-17 18:56:41.10	177.32	12.89	
2025-01-17 18:56:42.32	177.38	13.01	
2025-01-17 18:56:43.54	177.44	13.14	
2025-01-17 18:56:44.75	177.50	13.27	
2025-01-17 18:56:45.97	177.56	13.40	
2025-01-17 18:56:47.19	177.62	13.53	
2025-01-17 18:56:48.41	177.68	13.66	
2025-01-17 18:56:49.63	177.75	13.79	
2025-01-17 18:56:50.85	177.81	13.93	
2025-01-17 18:56:52.07	177.87	14.06	
2025-01-17 18:56:53.28	177.93	14.19	
2025-01-17 18:56:54.50	178.00	14.33	
2025-01-17 18:56:55.72	178.06	14.46	
2025-01-17 18:56:56.94	178.13	14.60	
2025-01-17 18:56:58.16	178.19	14.74	
2025-01-17 18:56:59.38	178.26	14.88	
2025-01-17 18:57:00.59	178.33	15.02	
2025-01-17 18:57:01.81	178.39	15.16	
2025-01-17 18:57:03.03	178.46	15.30	
2025-01-17 18:57:04.25	178.53	15.44	
2025-01-17 18:57:05.47	178.60	15.58	
2025-01-17 18:57:06.69	178.67	15.73	
2025-01-17 18:57:07.91	178.74	15.87	
2025-01-17 18:57:09.12	178.81	16.01	
2025-01-17 18:57:10.34	178.89	16.16	
2025-01-17 18:57:11.56	178.96	16.31	
2025-01-17 18:57:12.78	179.03	16.46	
2025-01-17 18:57:14.00	179.11	16.61	
2025-01-17 18:57:15.22	179.18	16.76	
2025-01-17 18:57:16.43	179.26	16.91	
2025-01-17 18:57:17.65	179.33	17.06	
2025-01-17 18:57:18.87	179.41	17.21	
2025-01-17 18:57:20.09	179.49	17.37	
2025-01-17 18:57:21.31	179.57	17.52	
2025-01-17 18:57:22.53	179.65	17.68	
2025-01-17 18:57:23.75	179.73	17.83	
2025-01-17 18:57:24.96	179.81	17.99	
2025-01-17 18:57:26.18	179.89	18.15	
2025-01-17 18:57:27.40	179.98	18.31	
2025-01-17 18:57:28.62	180.06	18.47	
2025-01-17 18:57:29.84	180.15	18.64	
2025-01-17 18:57:31.06	180.23	18.80	
2025-01-17 18:57:32.27	180.32	18.96	
2025-01-17 18:57:33.49	180.41	19.13	
2025-01-17 18:57:34.71	180.50	19.30	
2025-01-17 18:57:35.93	180.59	19.47	
2025-01-17 18:57:37.15	180.68	19.64	
2025-01-17 18:57:38.37	180.77	19.81	
2025-01-17 18:57:39.58	180.86	19.98	
2025-01-17 18:57:40.80	180.95	20.15	
2025-01-17 18:57:42.02	181.05	20.33	
2025-01-17 18:57:43.24	181.15	20.50	
2025-01-17 18:57:44.46	181.24	20.68	
2025-01-17 18:57:45.68	181.34	20.86	
2025-01-17 18:57:46.90	181.44	21.04	
2025-01-17 18:57:48.11	181.54	21.22	
2025-01-17 18:57:49.33	181.64	21.40	
2025-01-17 18:57:50.55	181.75	21.58	
2025-01-17 18:57:51.77	181.85	21.77	
2025-01-17 18:57:52.99	181.96	21.95	
2025-01-17 18:57:54.21	182.06	22.14	
2025-01-17 18:57:55.42	182.17	22.33	
2025-01-17 18:57:56.64	182.28	22.52	
2025-01-17 18:57:57.86	182.39	22.71	
2025-01-17 18:57:59.08	182.50	22.91	
2025-01-17 18:58:00.30	182.62	23.10	
2025-01-17 18:58:01.52	182.73	23.30	
2025-01-17 18:58:02.74	182.85	23.50	
2025-01-17 18:58:03.95	182.97	23.70	
2025-01-17 18:58:05.17	183.09	23.90	
2025-01-17 18:58:06.39	183.21	24.10	
2025-01-17 18:58:07.61	183.33	24.31	
2025-01-17 18:58:08.83	183.46	24.51	
2025-01-17 18:58:10.05	183.58	24.72	
2025-01-17 18:58:11.26	183.71	24.93	
2025-01-17 18:58:12.48	183.84	25.14	
2025-01-17 18:58:13.70	183.97	25.35	
2025-01-17 18:58:14.92	184.10	25.57	
2025-01-17 18:58:16.14	184.24	25.78	
2025-01-17 18:58:17.36	184.37	26.00	
2025-01-17 18:58:18.58	184.51	26.22	
2025-01-17 18:58:19.79	184.65	26.44	
2025-01-17 18:58:21.01	184.79	26.66	
2025-01-17 18:58:22.23	184.94	26.89	
2025-01-17 18:58:23.45	185.09	27.12	
2025-01-17 18:58:24.67	185.23	27.35	
2025-01-17 18:58:25.89	185.39	27.58	
2025-01-17 18:58:27.10	185.54	27.81	
2025-01-17 18:58:28.32	185.69	28.04	
2025-01-17 18:58:29.54	185.85	28.28	
2025-01-17 18:58:30.76	186.01	28.52	
2025-01-17 18:58:31.98	186.17	28.76	
2025-01-17 18:58:33.20	186.34	29.00	
2025-01-17 18:58:34.42	186.51	29.24	
2025-01-17 18:58:35.63	186.67	29.49	
2025-01-17 18:58:36.85	186.85	29.74	
2025-01-17 18:58:38.07	187.02	29.99	
2025-01-17 18:58:39.29	187.20	30.24	
2025-01-17 18:58:40.51	187.38	30.50	
2025-01-17 18:58:41.73	187.57	30.75	
2025-01-17 18:58:42.94	187.75	31.01	
2025-01-17 18:58:44.16	187.94	31.27	
2025-01-17 18:58:45.38	188.13	31.54	
2025-01-17 18:58:46.60	188.33	31.80	
2025-01-17 18:58:47.82	188.53	32.07	
2025-01-17 18:58:49.04	188.73	32.34	
2025-01-17 18:58:50.25	188.94	32.61	
2025-01-17 18:58:51.47	189.15	32.88	
2025-01-17 18:58:52.69	189.36	33.16	
2025-01-17 18:58:53.91	189.58	33.44	
2025-01-17 18:58:55.13	189.80	33.72	
2025-01-17 18:58:56.35	190.02	34.00	
2025-01-17 18:58:57.57	190.25	34.29	
2025-01-17 18:58:58.78	190.48	34.58	
2025-01-17 18:59:00.00	190.72	34.87	
2025-01-17 18:59:01.22	190.96	35.16	
2025-01-17 18:59:02.44	191.21	35.46	
2025-01-17 18:59:03.66	191.46	35.75	
2025-01-17 18:59:04.88	191.71	36.05	
2025-01-17 18:59:06.09	191.97	36.35	
2025-01-17 18:59:07.31	192.23	36.66	
2025-01-17 18:59:08.53	192.50	36.97	
2025-01-17 18:59:09.75	192.78	37.28	
2025-01-17 18:59:10.97	193.05	37.59	
2025-01-17 18:59:12.19	193.34	37.90	
2025-01-17 18:59:13.41	193.63	38.22	
2025-01-17 18:59:14.62	193.92	38.54	
2025-01-17 18:59:15.84	194.23	38.86	
2025-01-17 18:59:17.06	194.54	39.18	
2025-01-17 18:59:18.28	194.85	39.51	
2025-01-17 18:59:19.50	195.17	39.83	
2025-01-17 18:59:20.72	195.50	40.17	
2025-01-17 18:59:21.93	195.83	40.50	
2025-01-17 18:59:23.15	196.17	40.83	
2025-01-17 18:59:24.37	196.52	41.17	
2025-01-17 18:59:25.59	196.88	41.51	
2025-01-17 18:59:26.81	197.24	41.85	
2025-01-17 18:59:28.03	197.61	42.19	
2025-01-17 18:59:29.25	197.99	42.54	
2025-01-17 18:59:30.46	198.37	42.88	
2025-01-17 18:59:31.68	198.77	43.23	
2025-01-17 18:59:32.90	199.17	43.58	
2025-01-17 18:59:34.12	199.59	43.94	
2025-01-17 18:59:35.34	200.01	44.29	
2025-01-17 18:59:36.56	200.44	44.65	
2025-01-17 18:59:37.77	200.88	45.00	
2025-01-17 18:59:38.99	201.34	45.36	
2025-01-17 18:59:40.21	201.80	45.72	
2025-01-17 18:59:41.43	202.27	46.09	
2025-01-17 18:59:42.65	202.76	46.45	
2025-01-17 18:59:43.87	203.25	46.82	
2025-01-17 18:59:45.09	203.76	47.18	
2025-01-17 18:59:46.30	204.28	47.54	
2025-01-17 18:59:47.52	204.81	47.91	
2025-01-17 18:59:48.74	205.35	48.28	
2025-01-17 18:59:49.96	205.91	48.65	
2025-01-17 18:59:51.18	206.48	49.02	
2025-01-17 18:59:52.40	207.07	49.39	
2025-01-17 18:59:53.61	207.66	49.75	
2025-01-17 18:59:54.83	208.28	50.12	
2025-01-17 18:59:56.05	208.91	50.49	
2025-01-17 18:59:57.27	209.55	50.86	
2025-01-17 18:59:58.49	210.21	51.23	
2025-01-17 18:59:59.71	210.89	51.59	
2025-01-17 19:00:00.92	211.58	51.95	
2025-01-17 19:00:02.14	212.29	52.32	
2025-01-17 19:00:03.36	213.02	52.68	
2025-01-17 19:00:04.58	213.77	53.04	
2025-01-17 19:00:05.80	214.53	53.40	
2025-01-17 19:00:07.02	215.32	53.75	
2025-01-17 19:00:08.24	216.12	54.10	
2025-01-17 19:00:09.45	216.94	54.45	
2025-01-17 19:00:10.67	217.78	54.79	
2025-01-17 19:00:11.89	218.65	55.14	
2025-01-17 19:00:13.11	219.53	55.47	
2025-01-17 19:00:14.33	220.44	55.80	
2025-01-17 19:00:15.55	221.37	56.13	
2025-01-17 19:00:16.76	222.31	56.45	
2025-01-17 19:00:17.98	223.28	56.77	
2025-01-17 19:00:19.20	224.28	57.08	
2025-01-17 19:00:20.42	225.29	57.38	
2025-01-17 19:00:21.64	226.33	57.68	
2025-01-17 19:00:22.86	227.39	57.97	
2025-01-17 19:00:24.08	228.48	58.25	
2025-01-17 19:00:25.29	229.58	58.52	
2025-01-17 19:00:26.51	230.71	58.78	
2025-01-17 19:00:27.73	231.86	59.04	
2025-01-17 19:00:28.95	233.04	59.28	
2025-01-17 19:00:30.17	234.23	59.52	
2025-01-17 19:00:31.39	235.45	59.75	
2025-01-17 19:00:32.60	236.68	59.96	
2025-01-17 19:00:33.82	237.94	60.16	
2025-01-17 19:00:35.04	239.22	60.35	
2025-01-17 19:00:36.26	240.52	60.53	
2025-01-17 19:00:37.48	241.83	60.70	
2025-01-17 19:00:38.70	243.16	60.85	
2025-01-17 19:00:39.92	244.51	60.99	
2025-01-17 19:00:41.13	245.86	61.12	
2025-01-17 19:00:42.35	247.24	61.23	
2025-01-17 19:00:43.57	248.62	61.33	
2025-01-17 19:00:44.79	250.02	61.41	
2025-01-17 19:00:46.01	251.42	61.48	
2025-01-17 19:00:47.23	252.83	61.54	
2025-01-17 19:00:48.44	254.24	61.58	
2025-01-17 19:00:49.66	255.66	61.60	
2025-01-17 19:00:50.88	257.08	61.61	
2025-01-17 19:00:52.10	258.51	61.61	
2025-01-17 19:00:53.32	259.93	61.59	
2025-01-17 19:00:54.54	261.35	61.55	
2025-01-17 19:00:55.76	262.76	61.50	
2025-01-17 19:00:56.97	264.16	61.44	
2025-01-17 19:00:58.19	265.55	61.36	
2025-01-17 19:00:59.41	266.94	61.27	
2025-01-17 19:01:00.63	268.32	61.16	
2025-01-17 19:01:01.85	269.69	61.04	
2025-01-17 19:01:03.07	271.04	60.90	
2025-01-17 19:01:04.28	272.36	60.75	
2025-01-17 19:01:05.50	273.68	60.59	
2025-01-17 19:01:06.72	274.99	60.42	
2025-01-17 19:01:07.94	276.27	60.23	
2025-01-17 19:01:09.16	277.53	60.03	
2025-01-17 19:01:10.38	278.78	59.82	
2025-01-17 19:01:11.59	279.99	59.61	
2025-01-17 19:01:12.81	281.20	59.37	
2025-01-17 19:01:14.03	282.38	59.13	
2025-01-17 19:01:15.25	283.54	58.88	
2025-01-17 19:01:16.47	284.67	58.62	
2025-01-17 19:01:17.69	285.79	58.35	
2025-01-17 19:01:18.91	286.88	58.07	
2025-01-17 19:01:20.12	287.94	57.79	
2025-01-17 19:01:21.34	288.99	57.50	
2025-01-17 19:01:22.56	290.01	57.20	
2025-01-17 19:01:23.78	291.01	56.89	
2025-01-17 19:01:25.00	291.99	56.58	
2025-01-17 19:01:26.22	292.95	56.26	
2025-01-17 19:01:27.43	293.87	55.94	
2025-01-17 19:01:28.65	294.79	55.61	
2025-01-17 19:01:29.87	295.68	55.27	
2025-01-17 19:01:31.09	296.55	54.93	
2025-01-17 19:01:32.31	297.40	54.59	
2025-01-17 19:01:33.53	298.23	54.24	
2025-01-17 19:01:34.75	299.04	53.89	
2025-01-17 19:01:35.96	299.82	53.54	
2025-01-17 19:01:37.18	300.59	53.19	
2025-01-17 19:01:38.40	301.35	52.83	
2025-01-17 19:01:39.62	302.08	52.47	
2025-01-17 19:01:40.84	302.80	52.11	
2025-01-17 19:01:42.06	303.50	51.75	
2025-01-17 19:01:43.27	304.17	51.39	
2025-01-17 19:01:44.49	304.84	51.02	
2025-01-17 19:01:45.71	305.49	50.66	
2025-01-17 19:01:46.93	306.12	50.29	
2025-01-17 19:01:48.15	306.74	49.92	
2025-01-17 19:01:49.37	307.35	49.55	
2025-01-17 19:01:50.59	307.93	49.19	
2025-01-17 19:01:51.80	308.51	48.82	
2025-01-17 19:01:53.02	309.07	48.45	
2025-01-17 19:01:54.24	309.62	48.09	
2025-01-17 19:01:55.46	310.15	47.72	
2025-01-17 19:01:56.68	310.68	47.36	
2025-01-17 19:01:57.90	311.19	46.99	
2025-01-17 19:01:59.11	311.68	46.63	
2025-01-17 19:02:00.33	312.17	46.27	
2025-01-17 19:02:01.55	312.65	45.91	
2025-01-17 19:02:02.77	313.11	45.55	
2025-01-17 19:02:03.99	313.57	45.19	
2025-01-17 19:02:05.21	314.02	44.83	
2025-01-17 19:02:06.43	314.45	44.47	
2025-01-17 19:02:07.64	314.87	44.12	
2025-01-17 19:02:08.86	315.29	43.77	
2025-01-17 19:02:10.08	315.70	43.42	
2025-01-17 19:02:11.30	316.10	43.07	
2025-01-17 19:02:12.52	316.49	42.73	
2025-01-17 19:02:13.74	316.87	42.38	
2025-01-17 19:02:14.95	317.24	42.04	
2025-01-17 19:02:16.17	317.60	41.70	
2025-01-17 19:02:17.39	317.96	41.36	
2025-01-17 19:02:18.61	318.31	41.03	
2025-01-17 19:02:19.83	318.66	40.69	
2025-01-17 19:02:21.05	318.99	40.36	
2025-01-17 19:02:22.26	319.32	40.03	
2025-01-17 19:02:23.48	319.64	39.70	
2025-01-17 19:02:24.70	319.96	39.38	
2025-01-17 19:02:25.92	320.27	39.06	
2025-01-17 19:02:27.14	320.58	38.73	
2025-01-17 19:02:28.36	320.87	38.42	
2025-01-17 19:02:29.58	321.17	38.10	
2025-01-17 19:02:30.79	321.45	37.79	
2025-01-17 19:02:32.01	321.73	37.48	
2025-01-17 19:02:33.23	322.01	37.17	
2025-01-17 19:02:34.45	322.28	36.86	
2025-01-17 19:02:35.67	322.55	36.56	
2025-01-17 19:02:36.89	322.81	36.26	
2025-01-17 19:02:38.10	323.06	35.96	
2025-01-17 19:02:39.32	323.31	35.66	
2025-01-17 19:02:40.54	323.56	35.37	
2025-01-17 19:02:41.76	323.80	35.07	
2025-01-17 19:02:42.98	324.04	34.78	
2025-01-17 19:02:44.20	324.28	34.50	
2025-01-17 19:02:45.42	324.51	34.21	
2025-01-17 19:02:46.63	324.73	33.93	
2025-01-17 19:02:47.85	324.95	33.65	
2025-01-17 19:02:49.07	325.17	33.37	
2025-01-17 19:02:50.29	325.39	33.09	
2025-01-17 19:02:51.51	325.60	32.82	
2025-01-17 19:02:52.73	325.80	32.55	
2025-01-17 19:02:53.94	326.01	32.28	
2025-01-17 19:02:55.16	326.21	32.01	
2025-01-17 19:02:56.38	326.41	31.75	
2025-01-17 19:02:57.60	326.60	31.48	
2025-01-17 19:02:58.82	326.79	31.22	
2025-01-17 19:03:00.04	326.98	30.96	
2025-01-17 19:03:01.26	327.16	30.71	
2025-01-17 19:03:02.47	327.35	30.45	
2025-01-17 19:03:03.69	327.52	30.20	
2025-01-17 19:03:04.91	327.70	29.95	
2025-01-17 19:03:06.13	327.88	29.70	
2025-01-17 19:03:07.35	328.05	29.46	
2025-01-17 19:03:08.57	328.22	29.21	
2025-01-17 19:03:09.78	328.38	28.97	
2025-01-17 19:03:11.00	328.54	28.73	
2025-01-17 19:03:12.22	328.71	28.49	
2025-01-17 19:03:13.44	328.86	28.26	
2025-01-17 19:03:14.66	329.02	28.02	
2025-01-17 19:03:15.88	329.18	27.79	
2025-01-17 19:03:17.10	329.33	27.56	
2025-01-17 19:03:18.31	329.48	27.33	
2025-01-17 19:03:19.53	329.62	27.11	
2025-01-17 19:03:20.75	329.77	26.88	
2025-01-17 19:03:21.97	329.91	26.66	
2025-01-17 19:03:23.19	330.05	26.44	
2025-01-17 19:03:24.41	330.19	26.22	
2025-01-17 19:03:25.62	330.33	26.00	
2025-01-17 19:03:26.84	330.47	25.78	
2025-01-17 19:03:28.06	330.60	25.57	
2025-01-17 19:03:29.28	330.73	25.36	
2025-01-17 19:03:30.50	330.86	25.15	
2025-01-17 19:03:31.72	330.99	24.94	
2025-01-17 19:03:32.93	331.12	24.73	
2025-01-17 19:03:34.15	331.24	24.53	
2025-01-17 19:03:35.37	331.37	24.32	
2025-01-17 19:03:36.59	331.49	24.12	
2025-01-17 19:03:37.81	331.61	23.92	
2025-01-17 19:03:39.03	331.73	23.72	
2025-01-17 19:03:40.25	331.85	23.52	
2025-01-17 19:03:41.46	331.96	23.32	
2025-01-17 19:03:42.68	332.08	23.13	
2025-01-17 19:03:43.90	332.19	22.94	
2025-01-17 19:03:45.12	332.30	22.74	
2025-01-17 19:03:46.34	332.41	22.55	
2025-01-17 19:03:47.56	332.52	22.36	
2025-01-17 19:03:48.77	332.63	22.18	
2025-01-17 19:03:49.99	332.74	21.99	
2025-01-17 19:03:51.21	332.84	21.81	
2025-01-17 19:03:52.43	332.95	21.62	
2025-01-17 19:03:53.65	333.05	21.44	
2025-01-17 19:03:54.87	333.15	21.26	
2025-01-17 19:03:56.09	333.25	21.08	
2025-01-17 19:03:57.30	333.35	20.90	
2025-01-17 19:03:58.52	333.45	20.73	
2025-01-17 19:03:59.74	333.55	20.55	
2025-01-17 19:04:00.96	333.64	20.37	
2025-01-17 19:04:02.18	333.74	20.20	
2025-01-17 19:04:03.40	333.83	20.03	
2025-01-17 19:04:04.61	333.92	19.86	
2025-01-17 19:04:05.83	334.02	19.69	
2025-01-17 19:04:07.05	334.11	19.52	
2025-01-17 19:04:08.27	334.20	19.36	
2025-01-17 19:04:09.49	334.29	19.19	
2025-01-17 19:04:10.71	334.37	19.02	
2025-01-17 19:04:11.93	334.46	18.86	
2025-01-17 19:04:13.14	334.55	18.70	
2025-01-17 19:04:14.36	334.63	18.54	
2025-01-17 19:04:15.58	334.72	18.38	
2025-01-17 19:04:16.80	334.80	18.22	
2025-01-17 19:04:18.02	334.88	18.06	
2025-01-17 19:04:19.24	334.96	17.90	
2025-01-17 19:04:20.45	335.04	17.75	
2025-01-17 19:04:21.67	335.12	17.59	
2025-01-17 19:04:22.89	335.20	17.44	
2025-01-17 19:04:24.11	335.28	17.29	
2025-01-17 19:04:25.33	335.36	17.13	
2025-01-17 19:04:26.55	335.44	16.98	
2025-01-17 19:04:27.76	335.51	16.83	
2025-01-17 19:04:28.98	335.59	16.68	
2025-01-17 19:04:30.20	335.66	16.54	
2025-01-17 19:04:31.42	335.74	16.39	
2025-01-17 19:04:32.64	335.81	16.24	
2025-01-17 19:04:33.86	335.88	16.10	
2025-01-17 19:04:35.08	335.96	15.95	
2025-01-17 19:04:36.29	336.03	15.81	
2025-01-17 19:04:37.51	336.10	15.67	
2025-01-17 19:04:38.73	336.17	15.53	
2025-01-17 19:04:39.95	336.24	15.39	
2025-01-17 19:04:41.17	336.30	15.25	
2025-01-17 19:04:42.39	336.37	15.11	
2025-01-17 19:04:43.60	336.44	14.97	
2025-01-17 19:04:44.82	336.51	14.83	
2025-01-17 19:04:46.04	336.57	14.69	
2025-01-17 19:04:47.26	336.64	14.56	
2025-01-17 19:04:48.48	336.70	14.42	
2025-01-17 19:04:49.70	336.77	14.29	
2025-01-17 19:04:50.92	336.83	14.16	
2025-01-17 19:04:52.13	336.89	14.02	
2025-01-17 19:04:53.35	336.96	13.89	
2025-01-17 19:04:54.57	337.02	13.76	
2025-01-17 19:04:55.79	337.08	13.63	
2025-01-17 19:04:57.01	337.14	13.50	
2025-01-17 19:04:58.23	337.20	13.37	
2025-01-17 19:04:59.44	337.26	13.25	
2025-01-17 19:05:00.66	337.32	13.12	
2025-01-17 19:05:01.88	337.38	12.99	
2025-01-17 19:05:03.10	337.44	12.87	
2025-01-17 19:05:04.32	337.50	12.74	
2025-01-17 19:05:05.54	337.56	12.62	
2025-01-17 19:05:06.76	337.61	12.49	
2025-01-17 19:05:07.97	337.67	12.37	
2025-01-17 19:05:09.19	337.73	12.25	
2025-01-17 19:05:10.41	337.78	12.12	
2025-01-17 19:05:11.63	337.84	12.00	
2025-01-17 19:05:12.85	337.89	11.88	
2025-01-17 19:05:14.07	337.95	11.76	
2025-01-17 19:05:15.28	338.00	11.64	
2025-01-17 19:05:16.50	338.05	11.52	
2025-01-17 19:05:17.72	338.11	11.41	
2025-01-17 19:05:18.94	338.16	11.29	
2025-01-17 19:05:20.16	338.21	11.17	
2025-01-17 19:05:21.38	338.26	11.06	
2025-01-17 19:05:22.60	338.32	10.94	
2025-01-17 19:05:23.81	338.37	10.83	
2025-01-17 19:05:25.03	338.42	10.71	
2025-01-17 19:05:26.25	338.47	10.60	
2025-01-17 19:05:27.47	338.52	10.48	
2025-01-17 19:05:28.69	338.57	10.37	
2025-01-17 19:05:29.91	338.62	10.26	
2025-01-17 19:05:31.12	338.67	10.15	
2025-01-17 19:05:32.34	338.71	10.04	
2025-01-17 19:05:33.56	338.76	9.93	
2025-01-17 19:05:34.78	338.81	9.82	
2025-01-17 19:05:36.00	338.86	9.71	
2025-01-17 19:05:37.22	338.91	9.60	
2025-01-17 19:05:38.44	338.95	9.49	
2025-01-17 19:05:39.65	339.00	9.38	
2025-01-17 19:05:40.87	339.05	9.27	
2025-01-17 19:05:42.09	339.09	9.17	
2025-01-17 19:05:43.31	339.14	9.06	
2025-01-17 19:05:44.53	339.18	8.95	
2025-01-17 19:05:45.75	339.23	8.85	
2025-01-17 19:05:46.96	339.27	8.74	
2025-01-17 19:05:48.18	339.32	8.64	
2025-01-17 19:05:49.40	339.36	8.54	
2025-01-17 19:05:50.62	339.40	8.43	
2025-01-17 19:05:51.84	339.45	8.33	
2025-01-17 19:05:53.06	339.49	8.23	
2025-01-17 19:05:54.27	339.53	8.12	
2025-01-17 19:05:55.49	339.58	8.02	
2025-01-17 19:05:56.71	339.62	7.92	
2025-01-17 19:05:57.93	339.66	7.82	
2025-01-17 19:05:59.15	339.70	7.72	
2025-01-17 19:06:00.37	339.74	7.62	
2025-01-17 19:06:01.59	339.78	7.52	
2025-01-17 19:06:02.80	339.83	7.42	
2025-01-17 19:06:04.02	339.87	7.32	
2025-01-17 19:06:05.24	339.91	7.22	
2025-01-17 19:06:06.46	339.95	7.13	
2025-01-17 19:06:07.68	339.99	7.03	
2025-01-17 19:06:08.90	340.03	6.93	
2025-01-17 19:06:10.11	340.07	6.84	
2025-01-17 19:06:11.33	340.10	6.74	
2025-01-17 19:06:12.55	340.14	6.64	
2025-01-17 19:06:13.77	340.18	6.55	
2025-01-17 19:06:14.99	340.22	6.45	
2025-01-17 19:06:16.21	340.26	6.36	
2025-01-17 19:06:17.43	340.30	6.26	
2025-01-17 19:06:18.64	340.33	6.17	
2025-01-17 19:06:19.86	340.37	6.08	
2025-01-17 19:06:21.08	340.41	5.98	
2025-01-17 19:06:22.30	340.45	5.89	
2025-01-17 19:06:23.52	340.48	5.80	
2025-01-17 19:06:24.74	340.52	5.70	
2025-01-17 19:06:25.95	340.56	5.61	
2025-01-17 19:06:27.17	340.59	5.52	
2025-01-17 19:06:28.39	340.63	5.43	
2025-01-17 19:06:29.61	340.67	5.34	
2025-01-17 19:06:30.83	340.70	5.25	
2025-01-17 19:06:32.05	340.74	5.16	
2025-01-17 19:06:33.27	340.77	5.07	
2025-01-17 19:06:34.48	340.81	4.98	
2025-01-17 19:06:35.70	340.84	4.89	
2025-01-17 19:06:36.92	340.88	4.80	
2025-01-17 19:06:38.14	340.91	4.71	
2025-01-17 19:06:39.36	340.94	4.62	
2025-01-17 19:06:40.58	340.98	4.54	
2025-01-17 19:06:41.79	341.01	4.45	
2025-01-17 19:06:43.01	341.05	4.36	
2025-01-17 19:06:44.23	341.08	4.28	
2025-01-17 19:06:45.45	341.11	4.19	
2025-01-17 19:06:46.67	341.15	4.10	
2025-01-17 19:06:47.89	341.18	4.02	

#Closed at: 2025-01-17 19:06:48