passes_logs/2025/01/17/SPB_Silybum_02/SPB_Silybum_02__20250117_092826_SUOMI_NPP_rec.log

#Pass ID: 20250117_092826_SUOMI NPP
#Satellite: SUOMI NPP
#Configuration: NPP
#Start time: 2025-01-17 09:30:04

#Version: 2.0.20230423
#Station: SPB_Silybum_02
#Location: 30.233357 lon 59.946436 lat
#TLE: 1 37849U 11061A   25016.82296503  .00000177  00000+0  10458-3 0  9994
#TLE: 2 37849  98.7449 317.7884 0001611  38.3630 321.7660 14.19539095685172

#Time	Az	El	Level	Level2	SNR	BER	Gain	Gain2
2025-01-17 09:30:06.23	132.00	11.75	
2025-01-17 09:30:07.45	131.93	11.86	
2025-01-17 09:30:08.66	131.86	11.97	
2025-01-17 09:30:09.88	131.79	12.08	
2025-01-17 09:30:11.10	131.72	12.19	
2025-01-17 09:30:12.32	131.65	12.31	
2025-01-17 09:30:13.54	131.58	12.42	
2025-01-17 09:30:14.75	131.51	12.53	
2025-01-17 09:30:15.97	131.44	12.64	
2025-01-17 09:30:17.19	131.37	12.76	
2025-01-17 09:30:18.41	131.29	12.87	
2025-01-17 09:30:19.62	131.22	12.98	
2025-01-17 09:30:20.84	131.14	13.10	
2025-01-17 09:30:22.06	131.07	13.21	
2025-01-17 09:30:23.28	130.99	13.33	
2025-01-17 09:30:24.50	130.92	13.45	
2025-01-17 09:30:25.71	130.84	13.56	
2025-01-17 09:30:26.93	130.76	13.68	
2025-01-17 09:30:28.15	130.68	13.80	
2025-01-17 09:30:29.37	130.61	13.92	
2025-01-17 09:30:30.58	130.53	14.03	
2025-01-17 09:30:31.80	130.45	14.15	
2025-01-17 09:30:33.02	130.36	14.27	
2025-01-17 09:30:34.24	130.28	14.39	
2025-01-17 09:30:35.46	130.20	14.51	
2025-01-17 09:30:36.67	130.12	14.63	
2025-01-17 09:30:37.89	130.03	14.76	
2025-01-17 09:30:39.11	129.95	14.88	
2025-01-17 09:30:40.33	129.86	15.00	
2025-01-17 09:30:41.55	129.78	15.13	
2025-01-17 09:30:42.76	129.69	15.25	
2025-01-17 09:30:43.98	129.61	15.37	
2025-01-17 09:30:45.20	129.52	15.50	
2025-01-17 09:30:46.42	129.43	15.63	
2025-01-17 09:30:47.63	129.34	15.75	
2025-01-17 09:30:48.85	129.25	15.88	
2025-01-17 09:30:50.07	129.16	16.01	
2025-01-17 09:30:51.29	129.06	16.13	
2025-01-17 09:30:52.51	128.97	16.26	
2025-01-17 09:30:53.72	128.88	16.39	
2025-01-17 09:30:54.94	128.78	16.52	
2025-01-17 09:30:56.16	128.69	16.65	
2025-01-17 09:30:57.38	128.59	16.79	
2025-01-17 09:30:58.59	128.50	16.92	
2025-01-17 09:30:59.81	128.40	17.05	
2025-01-17 09:31:01.03	128.30	17.18	
2025-01-17 09:31:02.25	128.20	17.32	
2025-01-17 09:31:03.47	128.10	17.45	
2025-01-17 09:31:04.68	128.00	17.58	
2025-01-17 09:31:05.90	127.89	17.72	
2025-01-17 09:31:07.12	127.79	17.86	
2025-01-17 09:31:08.34	127.68	17.99	
2025-01-17 09:31:09.56	127.58	18.13	
2025-01-17 09:31:10.77	127.47	18.27	
2025-01-17 09:31:11.99	127.37	18.41	
2025-01-17 09:31:13.21	127.26	18.55	
2025-01-17 09:31:14.43	127.15	18.69	
2025-01-17 09:31:15.64	127.04	18.83	
2025-01-17 09:31:16.86	126.93	18.97	
2025-01-17 09:31:18.08	126.81	19.11	
2025-01-17 09:31:19.30	126.70	19.26	
2025-01-17 09:31:20.52	126.58	19.40	
2025-01-17 09:31:21.73	126.47	19.55	
2025-01-17 09:31:22.95	126.35	19.69	
2025-01-17 09:31:24.17	126.23	19.84	
2025-01-17 09:31:25.39	126.11	19.98	
2025-01-17 09:31:26.60	125.99	20.13	
2025-01-17 09:31:27.82	125.87	20.28	
2025-01-17 09:31:29.04	125.75	20.43	
2025-01-17 09:31:30.26	125.62	20.58	
2025-01-17 09:31:31.48	125.50	20.73	
2025-01-17 09:31:32.69	125.37	20.88	
2025-01-17 09:31:33.91	125.24	21.03	
2025-01-17 09:31:35.13	125.11	21.18	
2025-01-17 09:31:36.35	124.98	21.34	
2025-01-17 09:31:37.57	124.85	21.49	
2025-01-17 09:31:38.78	124.72	21.65	
2025-01-17 09:31:40.00	124.58	21.80	
2025-01-17 09:31:41.22	124.45	21.96	
2025-01-17 09:31:42.44	124.31	22.12	
2025-01-17 09:31:43.65	124.17	22.27	
2025-01-17 09:31:44.87	124.03	22.43	
2025-01-17 09:31:46.09	123.89	22.59	
2025-01-17 09:31:47.31	123.74	22.75	
2025-01-17 09:31:48.53	123.60	22.92	
2025-01-17 09:31:49.74	123.45	23.08	
2025-01-17 09:31:50.96	123.30	23.24	
2025-01-17 09:31:52.18	123.15	23.40	
2025-01-17 09:31:53.40	123.00	23.57	
2025-01-17 09:31:54.62	122.85	23.74	
2025-01-17 09:31:55.83	122.70	23.90	
2025-01-17 09:31:57.05	122.54	24.07	
2025-01-17 09:31:58.27	122.38	24.24	
2025-01-17 09:31:59.49	122.22	24.41	
2025-01-17 09:32:00.70	122.06	24.57	
2025-01-17 09:32:01.92	121.90	24.74	
2025-01-17 09:32:03.14	121.73	24.92	
2025-01-17 09:32:04.36	121.56	25.09	
2025-01-17 09:32:05.58	121.40	25.26	
2025-01-17 09:32:06.79	121.23	25.44	
2025-01-17 09:32:08.01	121.05	25.61	
2025-01-17 09:32:09.23	120.88	25.79	
2025-01-17 09:32:10.45	120.70	25.96	
2025-01-17 09:32:11.66	120.52	26.14	
2025-01-17 09:32:12.88	120.34	26.32	
2025-01-17 09:32:14.10	120.16	26.50	
2025-01-17 09:32:15.32	119.98	26.68	
2025-01-17 09:32:16.54	119.79	26.86	
2025-01-17 09:32:17.75	119.60	27.04	
2025-01-17 09:32:18.97	119.41	27.22	
2025-01-17 09:32:20.19	119.22	27.41	
2025-01-17 09:32:21.41	119.02	27.59	
2025-01-17 09:32:22.63	118.82	27.78	
2025-01-17 09:32:23.84	118.62	27.96	
2025-01-17 09:32:25.06	118.42	28.15	
2025-01-17 09:32:26.28	118.21	28.34	
2025-01-17 09:32:27.50	118.01	28.52	
2025-01-17 09:32:28.71	117.80	28.71	
2025-01-17 09:32:29.93	117.58	28.90	
2025-01-17 09:32:31.15	117.37	29.09	
2025-01-17 09:32:32.37	117.15	29.29	
2025-01-17 09:32:33.59	116.93	29.48	
2025-01-17 09:32:34.80	116.71	29.67	
2025-01-17 09:32:36.02	116.48	29.87	
2025-01-17 09:32:37.24	116.25	30.06	
2025-01-17 09:32:38.46	116.02	30.26	
2025-01-17 09:32:39.67	115.79	30.45	
2025-01-17 09:32:40.89	115.55	30.65	
2025-01-17 09:32:42.11	115.31	30.85	
2025-01-17 09:32:43.33	115.06	31.05	
2025-01-17 09:32:44.55	114.82	31.25	
2025-01-17 09:32:45.76	114.57	31.45	
2025-01-17 09:32:46.98	114.32	31.65	
2025-01-17 09:32:48.20	114.06	31.86	
2025-01-17 09:32:49.42	113.80	32.06	
2025-01-17 09:32:50.64	113.54	32.26	
2025-01-17 09:32:51.85	113.28	32.47	
2025-01-17 09:32:53.07	113.01	32.67	
2025-01-17 09:32:54.29	112.73	32.88	
2025-01-17 09:32:55.51	112.46	33.08	
2025-01-17 09:32:56.72	112.18	33.29	
2025-01-17 09:32:57.94	111.90	33.50	
2025-01-17 09:32:59.16	111.61	33.71	
2025-01-17 09:33:00.38	111.32	33.92	
2025-01-17 09:33:01.60	111.02	34.12	
2025-01-17 09:33:02.81	110.73	34.33	
2025-01-17 09:33:04.03	110.42	34.54	
2025-01-17 09:33:05.25	110.12	34.76	
2025-01-17 09:33:06.47	109.81	34.97	
2025-01-17 09:33:07.69	109.49	35.18	
2025-01-17 09:33:08.90	109.18	35.39	
2025-01-17 09:33:10.12	108.85	35.60	
2025-01-17 09:33:11.34	108.52	35.82	
2025-01-17 09:33:12.56	108.19	36.03	
2025-01-17 09:33:13.77	107.86	36.24	
2025-01-17 09:33:14.99	107.52	36.46	
2025-01-17 09:33:16.21	107.17	36.67	
2025-01-17 09:33:17.43	106.82	36.89	
2025-01-17 09:33:18.65	106.47	37.10	
2025-01-17 09:33:19.86	106.11	37.31	
2025-01-17 09:33:21.08	105.75	37.53	
2025-01-17 09:33:22.30	105.38	37.74	
2025-01-17 09:33:23.52	105.01	37.96	
2025-01-17 09:33:24.73	104.63	38.17	
2025-01-17 09:33:25.95	104.25	38.39	
2025-01-17 09:33:27.17	103.86	38.60	
2025-01-17 09:33:28.39	103.47	38.82	
2025-01-17 09:33:29.61	103.07	39.03	
2025-01-17 09:33:30.82	102.67	39.24	
2025-01-17 09:33:32.04	102.26	39.46	
2025-01-17 09:33:33.26	101.84	39.67	
2025-01-17 09:33:34.48	101.42	39.88	
2025-01-17 09:33:35.70	100.99	40.10	
2025-01-17 09:33:36.91	100.57	40.31	
2025-01-17 09:33:38.13	100.13	40.52	
2025-01-17 09:33:39.35	99.69	40.73	
2025-01-17 09:33:40.57	99.24	40.94	
2025-01-17 09:33:41.78	98.79	41.15	
2025-01-17 09:33:43.00	98.32	41.35	
2025-01-17 09:33:44.22	97.86	41.56	
2025-01-17 09:33:45.44	97.38	41.77	
2025-01-17 09:33:46.66	96.91	41.97	
2025-01-17 09:33:47.87	96.42	42.18	
2025-01-17 09:33:49.09	95.93	42.38	
2025-01-17 09:33:50.31	95.44	42.58	
2025-01-17 09:33:51.53	94.93	42.78	
2025-01-17 09:33:52.74	94.43	42.98	
2025-01-17 09:33:53.96	93.91	43.17	
2025-01-17 09:33:55.18	93.39	43.37	
2025-01-17 09:33:56.40	92.86	43.56	
2025-01-17 09:33:57.62	92.32	43.75	
2025-01-17 09:33:58.83	91.78	43.94	
2025-01-17 09:34:00.05	91.24	44.13	
2025-01-17 09:34:01.27	90.68	44.32	
2025-01-17 09:34:02.49	90.12	44.50	
2025-01-17 09:34:03.71	89.55	44.68	
2025-01-17 09:34:04.92	88.98	44.86	
2025-01-17 09:34:06.14	88.40	45.04	
2025-01-17 09:34:07.36	87.81	45.21	
2025-01-17 09:34:08.58	87.22	45.38	
2025-01-17 09:34:09.79	86.62	45.55	
2025-01-17 09:34:11.01	86.02	45.72	
2025-01-17 09:34:12.23	85.40	45.88	
2025-01-17 09:34:13.45	84.78	46.04	
2025-01-17 09:34:14.67	84.16	46.19	
2025-01-17 09:34:15.88	83.53	46.35	
2025-01-17 09:34:17.10	82.89	46.50	
2025-01-17 09:34:18.32	82.25	46.64	
2025-01-17 09:34:19.54	81.60	46.79	
2025-01-17 09:34:20.76	80.95	46.93	
2025-01-17 09:34:21.97	80.29	47.06	
2025-01-17 09:34:23.19	79.62	47.19	
2025-01-17 09:34:24.41	78.95	47.32	
2025-01-17 09:34:25.63	78.27	47.45	
2025-01-17 09:34:26.84	77.59	47.57	
2025-01-17 09:34:28.06	76.90	47.68	
2025-01-17 09:34:29.28	76.21	47.79	
2025-01-17 09:34:30.50	75.51	47.90	
2025-01-17 09:34:31.72	74.81	48.01	
2025-01-17 09:34:32.93	74.10	48.10	
2025-01-17 09:34:34.15	73.39	48.20	
2025-01-17 09:34:35.37	72.68	48.29	
2025-01-17 09:34:36.59	71.95	48.37	
2025-01-17 09:34:37.80	71.24	48.45	
2025-01-17 09:34:39.02	70.51	48.53	
2025-01-17 09:34:40.24	69.78	48.60	
2025-01-17 09:34:41.46	69.04	48.66	
2025-01-17 09:34:42.68	68.30	48.72	
2025-01-17 09:34:43.89	67.57	48.78	
2025-01-17 09:34:45.11	66.82	48.83	
2025-01-17 09:34:46.33	66.08	48.87	
2025-01-17 09:34:47.55	65.33	48.91	
2025-01-17 09:34:48.77	64.58	48.95	
2025-01-17 09:34:49.98	63.84	48.98	
2025-01-17 09:34:51.20	63.09	49.00	
2025-01-17 09:34:52.42	62.33	49.02	
2025-01-17 09:34:53.64	61.58	49.03	
2025-01-17 09:34:54.85	60.83	49.04	
2025-01-17 09:34:56.07	60.07	49.04	
2025-01-17 09:34:57.29	59.32	49.04	
2025-01-17 09:34:58.51	58.57	49.03	
2025-01-17 09:34:59.73	57.81	49.02	
2025-01-17 09:35:00.94	57.07	49.00	
2025-01-17 09:35:02.16	56.31	48.98	
2025-01-17 09:35:03.38	55.56	48.95	
2025-01-17 09:35:04.60	54.81	48.91	
2025-01-17 09:35:05.81	54.07	48.87	
2025-01-17 09:35:07.03	53.33	48.83	
2025-01-17 09:35:08.25	52.58	48.78	
2025-01-17 09:35:09.47	51.84	48.72	
2025-01-17 09:35:10.69	51.11	48.66	
2025-01-17 09:35:11.90	50.38	48.60	
2025-01-17 09:35:13.12	49.65	48.53	
2025-01-17 09:35:14.34	48.92	48.45	
2025-01-17 09:35:15.56	48.20	48.37	
2025-01-17 09:35:16.78	47.47	48.29	
2025-01-17 09:35:17.99	46.76	48.20	
2025-01-17 09:35:19.21	46.05	48.11	
2025-01-17 09:35:20.43	45.35	48.01	
2025-01-17 09:35:21.65	44.64	47.91	
2025-01-17 09:35:22.86	43.95	47.80	
2025-01-17 09:35:24.08	43.26	47.69	
2025-01-17 09:35:25.30	42.57	47.57	
2025-01-17 09:35:26.52	41.89	47.45	
2025-01-17 09:35:27.74	41.21	47.33	
2025-01-17 09:35:28.95	40.54	47.20	
2025-01-17 09:35:30.17	39.88	47.07	
2025-01-17 09:35:31.39	39.22	46.93	
2025-01-17 09:35:32.61	38.56	46.79	
2025-01-17 09:35:33.82	37.92	46.65	
2025-01-17 09:35:35.04	37.27	46.50	
2025-01-17 09:35:36.26	36.64	46.35	
2025-01-17 09:35:37.48	36.01	46.20	
2025-01-17 09:35:38.70	35.38	46.05	
2025-01-17 09:35:39.91	34.77	45.89	
2025-01-17 09:35:41.13	34.16	45.72	
2025-01-17 09:35:42.35	33.55	45.56	
2025-01-17 09:35:43.57	32.95	45.39	
2025-01-17 09:35:44.79	32.36	45.22	
2025-01-17 09:35:46.00	31.78	45.05	
2025-01-17 09:35:47.22	31.20	44.87	
2025-01-17 09:35:48.44	30.63	44.69	
2025-01-17 09:35:49.66	30.06	44.51	
2025-01-17 09:35:50.87	29.50	44.33	
2025-01-17 09:35:52.09	28.95	44.15	
2025-01-17 09:35:53.31	28.40	43.96	
2025-01-17 09:35:54.53	27.86	43.77	
2025-01-17 09:35:55.75	27.33	43.58	
2025-01-17 09:35:56.96	26.80	43.39	
2025-01-17 09:35:58.18	26.28	43.19	
2025-01-17 09:35:59.40	25.77	43.00	
2025-01-17 09:36:00.62	25.26	42.80	
2025-01-17 09:36:01.84	24.76	42.60	
2025-01-17 09:36:03.05	24.26	42.40	
2025-01-17 09:36:04.27	23.77	42.20	
2025-01-17 09:36:05.49	23.29	41.99	
2025-01-17 09:36:06.71	22.81	41.79	
2025-01-17 09:36:07.92	22.34	41.59	
2025-01-17 09:36:09.14	21.88	41.38	
2025-01-17 09:36:10.36	21.42	41.17	
2025-01-17 09:36:11.58	20.96	40.96	
2025-01-17 09:36:12.80	20.52	40.76	
2025-01-17 09:36:14.01	20.08	40.55	
2025-01-17 09:36:15.23	19.64	40.34	
2025-01-17 09:36:16.45	19.21	40.13	
2025-01-17 09:36:17.67	18.79	39.91	
2025-01-17 09:36:18.88	18.37	39.70	
2025-01-17 09:36:20.10	17.96	39.49	
2025-01-17 09:36:21.32	17.55	39.28	
2025-01-17 09:36:22.54	17.14	39.07	
2025-01-17 09:36:23.76	16.75	38.85	
2025-01-17 09:36:24.97	16.36	38.64	
2025-01-17 09:36:26.19	15.97	38.43	
2025-01-17 09:36:27.41	15.59	38.21	
2025-01-17 09:36:28.63	15.21	38.00	
2025-01-17 09:36:29.85	14.84	37.78	
2025-01-17 09:36:31.06	14.47	37.57	
2025-01-17 09:36:32.28	14.11	37.36	
2025-01-17 09:36:33.50	13.75	37.14	
2025-01-17 09:36:34.72	13.40	36.93	
2025-01-17 09:36:35.93	13.05	36.72	
2025-01-17 09:36:37.15	12.71	36.50	
2025-01-17 09:36:38.37	12.37	36.29	
2025-01-17 09:36:39.59	12.03	36.08	
2025-01-17 09:36:40.81	11.70	35.86	
2025-01-17 09:36:42.02	11.38	35.65	
2025-01-17 09:36:43.24	11.06	35.44	
2025-01-17 09:36:44.46	10.74	35.23	
2025-01-17 09:36:45.68	10.43	35.02	
2025-01-17 09:36:46.89	10.12	34.81	
2025-01-17 09:36:48.11	9.81	34.60	
2025-01-17 09:36:49.33	9.51	34.39	
2025-01-17 09:36:50.55	9.21	34.18	
2025-01-17 09:36:51.77	8.92	33.97	
2025-01-17 09:36:52.98	8.63	33.76	
2025-01-17 09:36:54.20	8.35	33.56	
2025-01-17 09:36:55.42	8.06	33.35	
2025-01-17 09:36:56.64	7.78	33.14	
2025-01-17 09:36:57.86	7.51	32.94	
2025-01-17 09:36:59.07	7.24	32.73	
2025-01-17 09:37:00.29	6.97	32.53	
2025-01-17 09:37:01.51	6.71	32.33	
2025-01-17 09:37:02.73	6.44	32.12	
2025-01-17 09:37:03.94	6.19	31.92	
2025-01-17 09:37:05.16	5.93	31.72	
2025-01-17 09:37:06.38	5.68	31.52	
2025-01-17 09:37:07.60	5.43	31.32	
2025-01-17 09:37:08.82	5.19	31.12	
2025-01-17 09:37:10.03	4.94	30.92	
2025-01-17 09:37:11.25	4.70	30.72	
2025-01-17 09:37:12.47	4.47	30.53	
2025-01-17 09:37:13.69	4.23	30.33	
2025-01-17 09:37:14.91	4.00	30.14	
2025-01-17 09:37:16.12	3.78	29.94	
2025-01-17 09:37:17.34	3.55	29.75	
2025-01-17 09:37:18.56	3.33	29.55	
2025-01-17 09:37:19.78	3.11	29.36	
2025-01-17 09:37:20.99	2.89	29.17	
2025-01-17 09:37:22.21	2.68	28.98	
2025-01-17 09:37:23.43	2.47	28.79	
2025-01-17 09:37:24.65	2.26	28.60	
2025-01-17 09:37:25.87	2.05	28.42	
2025-01-17 09:37:27.08	1.85	28.23	
2025-01-17 09:37:28.30	1.64	28.04	
2025-01-17 09:37:29.52	1.44	27.86	
2025-01-17 09:37:30.74	1.25	27.67	
2025-01-17 09:37:31.95	1.05	27.49	
2025-01-17 09:37:33.17	0.86	27.31	
2025-01-17 09:37:34.39	0.67	27.13	
2025-01-17 09:37:35.61	0.48	26.94	
2025-01-17 09:37:36.83	0.29	26.76	
2025-01-17 09:37:38.04	0.11	26.59	
2025-01-17 09:37:39.26	359.93	26.41	
2025-01-17 09:37:40.48	359.75	26.23	
2025-01-17 09:37:41.70	359.57	26.05	
2025-01-17 09:37:42.92	359.40	25.88	
2025-01-17 09:37:44.13	359.22	25.70	
2025-01-17 09:37:45.35	359.05	25.53	
2025-01-17 09:37:46.57	358.88	25.35	
2025-01-17 09:37:47.79	358.71	25.18	
2025-01-17 09:37:49.00	358.55	25.01	
2025-01-17 09:37:50.22	358.38	24.84	
2025-01-17 09:37:51.44	358.22	24.67	
2025-01-17 09:37:52.66	358.06	24.50	
2025-01-17 09:37:53.88	357.90	24.33	
2025-01-17 09:37:55.09	357.74	24.17	
2025-01-17 09:37:56.31	357.59	24.00	
2025-01-17 09:37:57.53	357.43	23.83	
2025-01-17 09:37:58.75	357.28	23.67	
2025-01-17 09:37:59.96	357.13	23.51	
2025-01-17 09:38:01.18	356.98	23.34	
2025-01-17 09:38:02.40	356.84	23.18	
2025-01-17 09:38:03.62	356.69	23.02	
2025-01-17 09:38:04.84	356.55	22.86	
2025-01-17 09:38:06.05	356.40	22.70	
2025-01-17 09:38:07.27	356.26	22.54	
2025-01-17 09:38:08.49	356.12	22.38	
2025-01-17 09:38:09.71	355.98	22.22	
2025-01-17 09:38:10.93	355.85	22.06	
2025-01-17 09:38:12.14	355.71	21.91	
2025-01-17 09:38:13.36	355.58	21.75	
2025-01-17 09:38:14.58	355.45	21.60	
2025-01-17 09:38:15.80	355.31	21.45	
2025-01-17 09:38:17.01	355.19	21.29	
2025-01-17 09:38:18.23	355.06	21.14	
2025-01-17 09:38:19.45	354.93	20.99	
2025-01-17 09:38:20.67	354.80	20.84	
2025-01-17 09:38:21.89	354.68	20.69	
2025-01-17 09:38:23.10	354.56	20.54	
2025-01-17 09:38:24.32	354.43	20.39	
2025-01-17 09:38:25.54	354.31	20.24	
2025-01-17 09:38:26.76	354.19	20.10	
2025-01-17 09:38:27.97	354.07	19.95	
2025-01-17 09:38:29.19	353.96	19.81	
2025-01-17 09:38:30.41	353.84	19.66	
2025-01-17 09:38:31.63	353.72	19.52	
2025-01-17 09:38:32.85	353.61	19.37	
2025-01-17 09:38:34.06	353.50	19.23	
2025-01-17 09:38:35.28	353.39	19.09	
2025-01-17 09:38:36.50	353.27	18.95	
2025-01-17 09:38:37.72	353.16	18.81	
2025-01-17 09:38:38.94	353.06	18.67	
2025-01-17 09:38:40.15	352.95	18.53	
2025-01-17 09:38:41.37	352.84	18.39	
2025-01-17 09:38:42.59	352.74	18.25	
2025-01-17 09:38:43.81	352.63	18.11	
2025-01-17 09:38:45.02	352.53	17.98	
2025-01-17 09:38:46.24	352.43	17.84	
2025-01-17 09:38:47.46	352.32	17.71	
2025-01-17 09:38:48.68	352.22	17.57	
2025-01-17 09:38:49.90	352.12	17.44	
2025-01-17 09:38:51.11	352.02	17.31	
2025-01-17 09:38:52.33	351.93	17.17	
2025-01-17 09:38:53.55	351.83	17.04	
2025-01-17 09:38:54.77	351.73	16.91	
2025-01-17 09:38:55.99	351.64	16.78	
2025-01-17 09:38:57.20	351.54	16.65	
2025-01-17 09:38:58.42	351.45	16.52	
2025-01-17 09:38:59.64	351.36	16.39	
2025-01-17 09:39:00.86	351.26	16.26	
2025-01-17 09:39:02.07	351.17	16.13	
2025-01-17 09:39:03.29	351.08	16.01	
2025-01-17 09:39:04.53	350.99	15.88	
2025-01-17 09:39:05.74	350.90	15.75	
2025-01-17 09:39:06.96	350.82	15.63	
2025-01-17 09:39:08.18	350.73	15.50	
2025-01-17 09:39:09.40	350.64	15.38	
2025-01-17 09:39:10.61	350.56	15.25	
2025-01-17 09:39:11.83	350.47	15.13	
2025-01-17 09:39:13.05	350.39	15.01	
2025-01-17 09:39:14.27	350.30	14.89	
2025-01-17 09:39:15.49	350.22	14.76	
2025-01-17 09:39:16.70	350.14	14.64	
2025-01-17 09:39:17.92	350.06	14.52	
2025-01-17 09:39:19.14	349.98	14.40	
2025-01-17 09:39:20.36	349.90	14.28	
2025-01-17 09:39:21.58	349.82	14.16	
2025-01-17 09:39:22.79	349.74	14.05	
2025-01-17 09:39:24.01	349.66	13.93	
2025-01-17 09:39:25.23	349.58	13.81	
2025-01-17 09:39:26.45	349.51	13.69	
2025-01-17 09:39:27.66	349.43	13.58	
2025-01-17 09:39:28.88	349.36	13.46	
2025-01-17 09:39:30.10	349.28	13.35	
2025-01-17 09:39:31.32	349.21	13.23	
2025-01-17 09:39:32.54	349.13	13.12	
2025-01-17 09:39:33.75	349.06	13.00	
2025-01-17 09:39:34.97	348.99	12.89	
2025-01-17 09:39:36.19	348.92	12.78	
2025-01-17 09:39:37.41	348.84	12.67	
2025-01-17 09:39:38.62	348.77	12.55	
2025-01-17 09:39:39.84	348.70	12.44	
2025-01-17 09:39:41.06	348.63	12.33	
2025-01-17 09:39:42.28	348.56	12.22	
2025-01-17 09:39:43.50	348.50	12.11	
2025-01-17 09:39:44.71	348.43	12.00	
2025-01-17 09:39:45.93	348.36	11.89	
2025-01-17 09:39:47.15	348.29	11.78	
2025-01-17 09:39:48.37	348.23	11.68	
2025-01-17 09:39:49.59	348.16	11.57	
2025-01-17 09:39:50.80	348.10	11.46	
2025-01-17 09:39:52.02	348.03	11.35	
2025-01-17 09:39:53.24	347.97	11.25	
2025-01-17 09:39:54.46	347.90	11.14	
2025-01-17 09:39:55.67	347.84	11.04	
2025-01-17 09:39:56.89	347.78	10.93	
2025-01-17 09:39:58.11	347.72	10.82	
2025-01-17 09:39:59.33	347.66	10.72	
2025-01-17 09:40:00.55	347.59	10.62	
2025-01-17 09:40:01.76	347.53	10.51	
2025-01-17 09:40:02.98	347.47	10.41	
2025-01-17 09:40:04.20	347.41	10.31	
2025-01-17 09:40:05.42	347.35	10.20	
2025-01-17 09:40:06.63	347.29	10.10	
2025-01-17 09:40:07.85	347.24	10.00	
2025-01-17 09:40:09.07	347.18	9.90	
2025-01-17 09:40:10.29	347.12	9.80	
2025-01-17 09:40:11.51	347.06	9.70	
2025-01-17 09:40:12.72	347.01	9.60	
2025-01-17 09:40:13.94	346.95	9.50	
2025-01-17 09:40:15.16	346.89	9.40	
2025-01-17 09:40:16.38	346.84	9.30	
2025-01-17 09:40:17.60	346.78	9.20	
2025-01-17 09:40:18.81	346.73	9.10	
2025-01-17 09:40:20.03	346.67	9.00	
2025-01-17 09:40:21.25	346.62	8.91	
2025-01-17 09:40:22.47	346.57	8.81	
2025-01-17 09:40:23.68	346.51	8.71	
2025-01-17 09:40:24.90	346.46	8.62	
2025-01-17 09:40:26.12	346.41	8.52	
2025-01-17 09:40:27.34	346.36	8.42	
2025-01-17 09:40:28.56	346.30	8.33	
2025-01-17 09:40:29.77	346.25	8.23	
2025-01-17 09:40:30.99	346.20	8.14	
2025-01-17 09:40:32.21	346.15	8.04	
2025-01-17 09:40:33.43	346.10	7.95	
2025-01-17 09:40:34.65	346.05	7.85	
2025-01-17 09:40:35.86	346.00	7.76	
2025-01-17 09:40:37.08	345.95	7.67	
2025-01-17 09:40:38.30	345.90	7.58	
2025-01-17 09:40:39.52	345.86	7.48	
2025-01-17 09:40:40.73	345.81	7.39	
2025-01-17 09:40:41.95	345.76	7.30	
2025-01-17 09:40:43.17	345.71	7.21	
2025-01-17 09:40:44.39	345.66	7.12	
2025-01-17 09:40:45.61	345.62	7.02	
2025-01-17 09:40:46.82	345.57	6.93	
2025-01-17 09:40:48.04	345.53	6.84	
2025-01-17 09:40:49.26	345.48	6.75	
2025-01-17 09:40:50.48	345.43	6.66	
2025-01-17 09:40:51.69	345.39	6.57	
2025-01-17 09:40:52.91	345.34	6.48	
2025-01-17 09:40:54.13	345.30	6.40	
2025-01-17 09:40:55.35	345.25	6.31	
2025-01-17 09:40:56.57	345.21	6.22	
2025-01-17 09:40:57.78	345.17	6.13	
2025-01-17 09:40:59.00	345.12	6.04	
2025-01-17 09:41:00.23	345.08	5.95	
2025-01-17 09:41:01.45	345.04	5.87	
2025-01-17 09:41:02.67	344.99	5.78	
2025-01-17 09:41:03.89	344.95	5.69	
2025-01-17 09:41:05.10	344.91	5.61	
2025-01-17 09:41:06.32	344.87	5.52	
2025-01-17 09:41:07.54	344.83	5.43	
2025-01-17 09:41:08.76	344.79	5.35	
2025-01-17 09:41:09.98	344.75	5.26	
2025-01-17 09:41:11.19	344.70	5.18	
2025-01-17 09:41:12.41	344.66	5.09	
2025-01-17 09:41:13.63	344.62	5.01	
2025-01-17 09:41:14.85	344.58	4.92	
2025-01-17 09:41:16.07	344.54	4.84	
2025-01-17 09:41:17.28	344.51	4.76	
2025-01-17 09:41:18.50	344.47	4.67	
2025-01-17 09:41:19.72	344.43	4.59	
2025-01-17 09:41:20.94	344.39	4.51	
2025-01-17 09:41:22.15	344.35	4.42	
2025-01-17 09:41:23.37	344.31	4.34	
2025-01-17 09:41:24.59	344.27	4.26	
2025-01-17 09:41:25.81	344.24	4.18	
2025-01-17 09:41:27.03	344.20	4.09	
2025-01-17 09:41:28.24	344.16	4.01	

#Closed at: 2025-01-17 09:41:28