passes_logs/2025/01/17/SPB_Silybum_02/SPB_Silybum_02__20250117_213722_SUOMI_NPP_rec.log

#Pass ID: 20250117_213722_SUOMI NPP
#Satellite: SUOMI NPP
#Configuration: NPP
#Start time: 2025-01-17 21:37:23

#Version: 2.0.20230423
#Station: SPB_Silybum_02
#Location: 30.233357 lon 59.946436 lat
#TLE: 1 37849U 11061A   25017.17539025  .00000183  00000+0  10766-3 0  9991
#TLE: 2 37849  98.7449 318.1364 0001599  37.8052 322.3236 14.19539290685226

#Time	Az	El	Level	Level2	SNR	BER	Gain	Gain2
2025-01-17 21:37:25.58	38.64	4.11	
2025-01-17 21:37:26.39	38.74	4.14	
2025-01-17 21:37:27.20	38.84	4.16	
2025-01-17 21:37:28.01	38.94	4.19	
2025-01-17 21:37:28.82	39.05	4.22	
2025-01-17 21:37:29.64	39.15	4.25	
2025-01-17 21:37:30.45	39.25	4.28	
2025-01-17 21:37:31.26	39.36	4.31	
2025-01-17 21:37:32.07	39.46	4.33	
2025-01-17 21:37:32.88	39.56	4.36	
2025-01-17 21:37:33.70	39.67	4.39	
2025-01-17 21:37:34.51	39.77	4.42	
2025-01-17 21:37:35.32	39.87	4.45	
2025-01-17 21:37:36.13	39.98	4.47	
2025-01-17 21:37:36.94	40.08	4.50	
2025-01-17 21:37:37.75	40.19	4.53	
2025-01-17 21:37:38.57	40.29	4.56	
2025-01-17 21:37:39.38	40.40	4.59	
2025-01-17 21:37:40.19	40.50	4.61	
2025-01-17 21:37:41.00	40.61	4.64	
2025-01-17 21:37:41.81	40.71	4.67	
2025-01-17 21:37:42.63	40.82	4.70	
2025-01-17 21:37:43.44	40.93	4.73	
2025-01-17 21:37:44.25	41.03	4.75	
2025-01-17 21:37:45.06	41.14	4.78	
2025-01-17 21:37:45.87	41.24	4.81	
2025-01-17 21:37:46.69	41.35	4.84	
2025-01-17 21:37:47.50	41.46	4.86	
2025-01-17 21:37:48.31	41.57	4.89	
2025-01-17 21:37:49.12	41.67	4.92	
2025-01-17 21:37:49.93	41.78	4.94	
2025-01-17 21:37:50.75	41.89	4.97	
2025-01-17 21:37:51.56	42.00	5.00	
2025-01-17 21:37:52.37	42.11	5.03	
2025-01-17 21:37:53.18	42.21	5.05	
2025-01-17 21:37:53.99	42.32	5.08	
2025-01-17 21:37:54.81	42.43	5.11	
2025-01-17 21:37:55.62	42.54	5.13	
2025-01-17 21:37:56.43	42.65	5.16	
2025-01-17 21:37:57.24	42.76	5.19	
2025-01-17 21:37:58.05	42.87	5.21	
2025-01-17 21:37:58.86	42.98	5.24	
2025-01-17 21:37:59.68	43.09	5.27	
2025-01-17 21:38:00.49	43.20	5.29	
2025-01-17 21:38:01.30	43.31	5.32	
2025-01-17 21:38:02.11	43.42	5.35	
2025-01-17 21:38:02.92	43.53	5.37	
2025-01-17 21:38:03.74	43.64	5.40	
2025-01-17 21:38:04.55	43.75	5.42	
2025-01-17 21:38:05.36	43.86	5.45	
2025-01-17 21:38:06.17	43.97	5.48	
2025-01-17 21:38:06.98	44.08	5.50	
2025-01-17 21:38:07.80	44.20	5.53	
2025-01-17 21:38:08.61	44.31	5.55	
2025-01-17 21:38:09.42	44.42	5.58	
2025-01-17 21:38:10.23	44.53	5.61	
2025-01-17 21:38:11.04	44.65	5.63	
2025-01-17 21:38:11.86	44.76	5.66	
2025-01-17 21:38:12.67	44.87	5.68	
2025-01-17 21:38:13.48	44.98	5.71	
2025-01-17 21:38:14.29	45.10	5.73	
2025-01-17 21:38:15.10	45.21	5.76	
2025-01-17 21:38:15.91	45.32	5.78	
2025-01-17 21:38:16.73	45.44	5.81	
2025-01-17 21:38:17.54	45.55	5.83	
2025-01-17 21:38:18.35	45.67	5.86	
2025-01-17 21:38:19.16	45.78	5.88	
2025-01-17 21:38:19.97	45.90	5.91	
2025-01-17 21:38:20.79	46.01	5.93	
2025-01-17 21:38:21.60	46.13	5.96	
2025-01-17 21:38:22.41	46.24	5.98	
2025-01-17 21:38:23.22	46.36	6.01	
2025-01-17 21:38:24.03	46.47	6.03	
2025-01-17 21:38:24.85	46.59	6.06	
2025-01-17 21:38:25.66	46.71	6.08	
2025-01-17 21:38:26.47	46.82	6.11	
2025-01-17 21:38:27.28	46.94	6.13	
2025-01-17 21:38:28.09	47.05	6.15	
2025-01-17 21:38:28.91	47.17	6.18	
2025-01-17 21:38:29.72	47.29	6.20	
2025-01-17 21:38:30.53	47.41	6.23	
2025-01-17 21:38:31.34	47.52	6.25	
2025-01-17 21:38:32.15	47.64	6.27	
2025-01-17 21:38:32.97	47.76	6.30	
2025-01-17 21:38:33.78	47.88	6.32	
2025-01-17 21:38:34.59	47.99	6.34	
2025-01-17 21:38:35.40	48.11	6.37	
2025-01-17 21:38:36.21	48.23	6.39	
2025-01-17 21:38:37.03	48.35	6.41	
2025-01-17 21:38:37.84	48.47	6.44	
2025-01-17 21:38:38.65	48.59	6.46	
2025-01-17 21:38:39.46	48.71	6.48	
2025-01-17 21:38:40.27	48.82	6.51	
2025-01-17 21:38:41.08	48.94	6.53	
2025-01-17 21:38:41.90	49.06	6.55	
2025-01-17 21:38:42.71	49.18	6.58	
2025-01-17 21:38:43.52	49.30	6.60	
2025-01-17 21:38:44.33	49.42	6.62	
2025-01-17 21:38:45.14	49.54	6.64	
2025-01-17 21:38:45.96	49.67	6.67	
2025-01-17 21:38:46.77	49.79	6.69	
2025-01-17 21:38:47.58	49.91	6.71	
2025-01-17 21:38:48.39	50.03	6.73	
2025-01-17 21:38:49.20	50.15	6.75	
2025-01-17 21:38:50.02	50.27	6.78	
2025-01-17 21:38:50.83	50.39	6.80	
2025-01-17 21:38:51.64	50.51	6.82	
2025-01-17 21:38:52.45	50.64	6.84	
2025-01-17 21:38:53.26	50.76	6.86	
2025-01-17 21:38:54.08	50.88	6.88	
2025-01-17 21:38:54.89	51.00	6.91	
2025-01-17 21:38:55.70	51.13	6.93	
2025-01-17 21:38:56.51	51.25	6.95	
2025-01-17 21:38:57.32	51.37	6.97	
2025-01-17 21:38:58.13	51.50	6.99	
2025-01-17 21:38:58.95	51.62	7.01	
2025-01-17 21:38:59.76	51.74	7.03	
2025-01-17 21:39:00.57	51.87	7.05	
2025-01-17 21:39:01.38	51.99	7.07	
2025-01-17 21:39:02.19	52.11	7.09	
2025-01-17 21:39:03.01	52.24	7.12	
2025-01-17 21:39:03.82	52.36	7.14	
2025-01-17 21:39:04.63	52.49	7.16	
2025-01-17 21:39:05.44	52.61	7.18	
2025-01-17 21:39:06.25	52.74	7.20	
2025-01-17 21:39:07.07	52.86	7.22	
2025-01-17 21:39:07.88	52.99	7.24	
2025-01-17 21:39:08.69	53.11	7.26	
2025-01-17 21:39:09.50	53.24	7.28	
2025-01-17 21:39:10.31	53.37	7.29	
2025-01-17 21:39:11.13	53.49	7.31	
2025-01-17 21:39:11.94	53.62	7.33	
2025-01-17 21:39:12.75	53.74	7.35	
2025-01-17 21:39:13.56	53.87	7.37	
2025-01-17 21:39:14.37	54.00	7.39	
2025-01-17 21:39:15.19	54.12	7.41	
2025-01-17 21:39:16.00	54.25	7.43	
2025-01-17 21:39:16.81	54.38	7.45	
2025-01-17 21:39:17.62	54.50	7.47	
2025-01-17 21:39:18.43	54.63	7.48	
2025-01-17 21:39:19.24	54.76	7.50	
2025-01-17 21:39:20.06	54.89	7.52	
2025-01-17 21:39:20.87	55.02	7.54	
2025-01-17 21:39:21.68	55.14	7.56	
2025-01-17 21:39:22.49	55.27	7.58	
2025-01-17 21:39:23.30	55.40	7.59	
2025-01-17 21:39:24.12	55.53	7.61	
2025-01-17 21:39:24.93	55.66	7.63	
2025-01-17 21:39:25.74	55.79	7.65	
2025-01-17 21:39:26.55	55.91	7.66	
2025-01-17 21:39:27.36	56.04	7.68	
2025-01-17 21:39:28.18	56.17	7.70	
2025-01-17 21:39:28.99	56.30	7.72	
2025-01-17 21:39:29.80	56.43	7.73	
2025-01-17 21:39:30.61	56.56	7.75	
2025-01-17 21:39:31.42	56.69	7.77	
2025-01-17 21:39:32.24	56.82	7.78	
2025-01-17 21:39:33.05	56.95	7.80	
2025-01-17 21:39:33.86	57.08	7.82	
2025-01-17 21:39:34.67	57.21	7.83	
2025-01-17 21:39:35.48	57.34	7.85	
2025-01-17 21:39:36.30	57.48	7.86	
2025-01-17 21:39:37.11	57.61	7.88	
2025-01-17 21:39:37.92	57.74	7.90	
2025-01-17 21:39:38.73	57.87	7.91	
2025-01-17 21:39:39.54	58.00	7.93	
2025-01-17 21:39:40.35	58.13	7.94	
2025-01-17 21:39:41.17	58.26	7.96	
2025-01-17 21:39:41.98	58.39	7.97	
2025-01-17 21:39:42.79	58.53	7.99	
2025-01-17 21:39:43.60	58.66	8.00	
2025-01-17 21:39:44.41	58.79	8.02	
2025-01-17 21:39:45.23	58.92	8.03	
2025-01-17 21:39:46.04	59.05	8.05	
2025-01-17 21:39:46.85	59.19	8.06	
2025-01-17 21:39:47.66	59.32	8.08	
2025-01-17 21:39:48.47	59.45	8.09	
2025-01-17 21:39:49.29	59.59	8.11	
2025-01-17 21:39:50.10	59.72	8.12	
2025-01-17 21:39:50.91	59.85	8.13	
2025-01-17 21:39:51.72	59.98	8.15	
2025-01-17 21:39:52.53	60.12	8.16	
2025-01-17 21:39:53.35	60.25	8.18	
2025-01-17 21:39:54.16	60.38	8.19	
2025-01-17 21:39:54.97	60.52	8.20	
2025-01-17 21:39:55.78	60.65	8.21	
2025-01-17 21:39:56.59	60.79	8.23	
2025-01-17 21:39:57.41	60.92	8.24	
2025-01-17 21:39:58.22	61.05	8.25	
2025-01-17 21:39:59.03	61.19	8.27	
2025-01-17 21:39:59.84	61.32	8.28	
2025-01-17 21:40:00.65	61.46	8.29	
2025-01-17 21:40:01.46	61.59	8.30	
2025-01-17 21:40:02.28	61.73	8.32	
2025-01-17 21:40:03.09	61.86	8.33	
2025-01-17 21:40:03.90	62.00	8.34	
2025-01-17 21:40:04.71	62.13	8.35	
2025-01-17 21:40:05.52	62.27	8.36	
2025-01-17 21:40:06.34	62.40	8.37	
2025-01-17 21:40:07.15	62.54	8.39	
2025-01-17 21:40:07.96	62.67	8.40	
2025-01-17 21:40:08.77	62.81	8.41	
2025-01-17 21:40:09.58	62.94	8.42	
2025-01-17 21:40:10.40	63.08	8.43	
2025-01-17 21:40:11.21	63.22	8.44	
2025-01-17 21:40:12.02	63.35	8.45	
2025-01-17 21:40:12.83	63.49	8.46	
2025-01-17 21:40:13.64	63.62	8.47	
2025-01-17 21:40:14.46	63.76	8.48	
2025-01-17 21:40:15.27	63.90	8.49	
2025-01-17 21:40:16.08	64.03	8.50	
2025-01-17 21:40:16.89	64.17	8.51	
2025-01-17 21:40:17.70	64.31	8.52	
2025-01-17 21:40:18.51	64.44	8.53	
2025-01-17 21:40:19.33	64.58	8.54	
2025-01-17 21:40:20.14	64.72	8.55	
2025-01-17 21:40:20.95	64.85	8.56	
2025-01-17 21:40:21.76	64.99	8.57	
2025-01-17 21:40:22.57	65.13	8.58	
2025-01-17 21:40:23.39	65.27	8.58	
2025-01-17 21:40:24.20	65.40	8.59	
2025-01-17 21:40:25.01	65.54	8.60	
2025-01-17 21:40:25.82	65.68	8.61	
2025-01-17 21:40:26.63	65.82	8.62	
2025-01-17 21:40:27.45	65.95	8.63	
2025-01-17 21:40:28.26	66.09	8.63	
2025-01-17 21:40:29.07	66.23	8.64	
2025-01-17 21:40:29.88	66.37	8.65	
2025-01-17 21:40:30.69	66.50	8.66	
2025-01-17 21:40:31.51	66.64	8.66	
2025-01-17 21:40:32.32	66.78	8.67	
2025-01-17 21:40:33.13	66.92	8.68	
2025-01-17 21:40:33.94	67.06	8.68	
2025-01-17 21:40:34.75	67.20	8.69	
2025-01-17 21:40:35.57	67.33	8.70	
2025-01-17 21:40:36.38	67.47	8.70	
2025-01-17 21:40:37.19	67.61	8.71	
2025-01-17 21:40:38.00	67.75	8.72	
2025-01-17 21:40:38.81	67.89	8.72	
2025-01-17 21:40:39.62	68.03	8.73	
2025-01-17 21:40:40.44	68.17	8.73	
2025-01-17 21:40:41.25	68.30	8.74	
2025-01-17 21:40:42.06	68.44	8.75	
2025-01-17 21:40:42.87	68.58	8.75	
2025-01-17 21:40:43.68	68.72	8.76	
2025-01-17 21:40:44.50	68.86	8.76	
2025-01-17 21:40:45.31	69.00	8.77	
2025-01-17 21:40:46.12	69.14	8.77	
2025-01-17 21:40:46.93	69.28	8.77	
2025-01-17 21:40:47.74	69.41	8.78	
2025-01-17 21:40:48.56	69.56	8.78	
2025-01-17 21:40:49.37	69.69	8.79	
2025-01-17 21:40:50.18	69.83	8.79	
2025-01-17 21:40:50.99	69.97	8.80	
2025-01-17 21:40:51.80	70.11	8.80	
2025-01-17 21:40:52.62	70.25	8.80	
2025-01-17 21:40:53.43	70.39	8.81	
2025-01-17 21:40:54.24	70.53	8.81	
2025-01-17 21:40:55.05	70.67	8.81	
2025-01-17 21:40:55.86	70.81	8.81	
2025-01-17 21:40:56.68	70.95	8.82	
2025-01-17 21:40:57.49	71.09	8.82	
2025-01-17 21:40:58.30	71.23	8.82	
2025-01-17 21:40:59.11	71.37	8.83	
2025-01-17 21:40:59.92	71.51	8.83	
2025-01-17 21:41:00.73	71.65	8.83	
2025-01-17 21:41:01.55	71.79	8.83	
2025-01-17 21:41:02.36	71.93	8.83	
2025-01-17 21:41:03.17	72.07	8.83	
2025-01-17 21:41:03.98	72.20	8.84	
2025-01-17 21:41:04.79	72.34	8.84	
2025-01-17 21:41:05.61	72.49	8.84	
2025-01-17 21:41:06.42	72.62	8.84	
2025-01-17 21:41:07.23	72.76	8.84	
2025-01-17 21:41:08.04	72.90	8.84	
2025-01-17 21:41:08.85	73.04	8.84	
2025-01-17 21:41:09.67	73.18	8.84	
2025-01-17 21:41:10.48	73.32	8.84	
2025-01-17 21:41:11.29	73.46	8.84	
2025-01-17 21:41:12.10	73.60	8.84	
2025-01-17 21:41:12.91	73.74	8.84	
2025-01-17 21:41:13.73	73.88	8.84	
2025-01-17 21:41:14.54	74.02	8.84	
2025-01-17 21:41:15.35	74.16	8.84	
2025-01-17 21:41:16.16	74.30	8.84	
2025-01-17 21:41:16.97	74.44	8.84	
2025-01-17 21:41:17.79	74.58	8.84	
2025-01-17 21:41:18.60	74.72	8.84	
2025-01-17 21:41:19.41	74.86	8.84	
2025-01-17 21:41:20.22	75.00	8.83	
2025-01-17 21:41:21.03	75.14	8.83	
2025-01-17 21:41:21.84	75.28	8.83	
2025-01-17 21:41:22.66	75.42	8.83	
2025-01-17 21:41:23.47	75.56	8.83	
2025-01-17 21:41:24.28	75.70	8.83	
2025-01-17 21:41:25.09	75.84	8.82	
2025-01-17 21:41:25.90	75.98	8.82	
2025-01-17 21:41:26.72	76.12	8.82	
2025-01-17 21:41:27.53	76.26	8.82	
2025-01-17 21:41:28.34	76.40	8.81	
2025-01-17 21:41:29.15	76.54	8.81	
2025-01-17 21:41:29.96	76.68	8.81	
2025-01-17 21:41:30.78	76.82	8.80	
2025-01-17 21:41:31.59	76.96	8.80	
2025-01-17 21:41:32.40	77.09	8.80	
2025-01-17 21:41:33.21	77.23	8.79	
2025-01-17 21:41:34.02	77.37	8.79	
2025-01-17 21:41:34.84	77.51	8.78	
2025-01-17 21:41:35.65	77.65	8.78	
2025-01-17 21:41:36.46	77.79	8.77	
2025-01-17 21:41:37.27	77.93	8.77	
2025-01-17 21:41:38.08	78.07	8.77	
2025-01-17 21:41:38.89	78.21	8.76	
2025-01-17 21:41:39.71	78.35	8.76	
2025-01-17 21:41:40.52	78.49	8.75	
2025-01-17 21:41:41.33	78.63	8.75	
2025-01-17 21:41:42.14	78.76	8.74	
2025-01-17 21:41:42.95	78.90	8.73	
2025-01-17 21:41:43.77	79.04	8.73	
2025-01-17 21:41:44.58	79.18	8.72	
2025-01-17 21:41:45.39	79.32	8.72	
2025-01-17 21:41:46.20	79.46	8.71	
2025-01-17 21:41:47.01	79.60	8.70	
2025-01-17 21:41:47.83	79.74	8.70	
2025-01-17 21:41:48.64	79.88	8.69	
2025-01-17 21:41:49.45	80.01	8.68	
2025-01-17 21:41:50.26	80.15	8.68	
2025-01-17 21:41:51.07	80.29	8.67	
2025-01-17 21:41:51.89	80.43	8.66	
2025-01-17 21:41:52.70	80.57	8.66	
2025-01-17 21:41:53.51	80.70	8.65	
2025-01-17 21:41:54.32	80.84	8.64	
2025-01-17 21:41:55.13	80.98	8.63	
2025-01-17 21:41:55.95	81.12	8.63	
2025-01-17 21:41:56.76	81.26	8.62	
2025-01-17 21:41:57.57	81.39	8.61	
2025-01-17 21:41:58.38	81.53	8.60	
2025-01-17 21:41:59.19	81.67	8.59	
2025-01-17 21:42:00.00	81.81	8.58	
2025-01-17 21:42:00.82	81.95	8.58	
2025-01-17 21:42:01.63	82.08	8.57	
2025-01-17 21:42:02.44	82.22	8.56	
2025-01-17 21:42:03.25	82.36	8.55	
2025-01-17 21:42:04.06	82.49	8.54	
2025-01-17 21:42:04.88	82.63	8.53	
2025-01-17 21:42:05.69	82.77	8.52	
2025-01-17 21:42:06.50	82.90	8.51	
2025-01-17 21:42:07.31	83.04	8.50	
2025-01-17 21:42:08.12	83.18	8.49	
2025-01-17 21:42:08.94	83.32	8.48	
2025-01-17 21:42:09.75	83.45	8.47	
2025-01-17 21:42:10.56	83.59	8.46	
2025-01-17 21:42:11.37	83.72	8.45	
2025-01-17 21:42:12.18	83.86	8.44	
2025-01-17 21:42:13.00	84.00	8.43	
2025-01-17 21:42:13.81	84.13	8.42	
2025-01-17 21:42:14.62	84.27	8.41	
2025-01-17 21:42:15.43	84.41	8.40	
2025-01-17 21:42:16.24	84.54	8.39	
2025-01-17 21:42:17.06	84.68	8.37	
2025-01-17 21:42:17.87	84.81	8.36	
2025-01-17 21:42:18.68	84.95	8.35	
2025-01-17 21:42:19.49	85.08	8.34	
2025-01-17 21:42:20.30	85.22	8.33	
2025-01-17 21:42:21.11	85.35	8.32	
2025-01-17 21:42:21.93	85.49	8.30	
2025-01-17 21:42:22.74	85.62	8.29	
2025-01-17 21:42:23.55	85.76	8.28	
2025-01-17 21:42:24.38	85.90	8.27	
2025-01-17 21:42:25.19	86.03	8.25	
2025-01-17 21:42:26.00	86.17	8.24	
2025-01-17 21:42:26.81	86.30	8.23	
2025-01-17 21:42:27.63	86.43	8.21	
2025-01-17 21:42:28.44	86.57	8.20	
2025-01-17 21:42:29.25	86.70	8.19	
2025-01-17 21:42:30.06	86.84	8.17	
2025-01-17 21:42:30.87	86.97	8.16	
2025-01-17 21:42:31.69	87.10	8.15	
2025-01-17 21:42:32.50	87.24	8.13	
2025-01-17 21:42:33.31	87.37	8.12	
2025-01-17 21:42:34.12	87.50	8.10	
2025-01-17 21:42:34.93	87.64	8.09	
2025-01-17 21:42:35.74	87.77	8.08	
2025-01-17 21:42:36.56	87.90	8.06	
2025-01-17 21:42:37.37	88.04	8.05	
2025-01-17 21:42:38.18	88.17	8.03	
2025-01-17 21:42:38.99	88.30	8.02	
2025-01-17 21:42:39.80	88.43	8.00	
2025-01-17 21:42:40.62	88.57	7.99	
2025-01-17 21:42:41.43	88.70	7.97	
2025-01-17 21:42:42.24	88.83	7.96	
2025-01-17 21:42:43.05	88.96	7.94	
2025-01-17 21:42:43.86	89.09	7.93	
2025-01-17 21:42:44.68	89.23	7.91	
2025-01-17 21:42:45.49	89.36	7.89	
2025-01-17 21:42:46.30	89.49	7.88	
2025-01-17 21:42:47.11	89.62	7.86	
2025-01-17 21:42:47.92	89.75	7.85	
2025-01-17 21:42:48.74	89.88	7.83	
2025-01-17 21:42:49.55	90.01	7.81	
2025-01-17 21:42:50.36	90.14	7.80	
2025-01-17 21:42:51.17	90.27	7.78	
2025-01-17 21:42:51.98	90.40	7.76	
2025-01-17 21:42:52.80	90.54	7.75	
2025-01-17 21:42:53.61	90.67	7.73	
2025-01-17 21:42:54.42	90.80	7.71	
2025-01-17 21:42:55.23	90.93	7.69	
2025-01-17 21:42:56.04	91.05	7.68	
2025-01-17 21:42:56.85	91.18	7.66	
2025-01-17 21:42:57.67	91.31	7.64	
2025-01-17 21:42:58.48	91.44	7.62	
2025-01-17 21:42:59.29	91.57	7.61	
2025-01-17 21:43:00.10	91.70	7.59	
2025-01-17 21:43:00.91	91.83	7.57	
2025-01-17 21:43:01.73	91.96	7.55	
2025-01-17 21:43:02.54	92.09	7.53	
2025-01-17 21:43:03.35	92.22	7.52	
2025-01-17 21:43:04.16	92.34	7.50	
2025-01-17 21:43:04.97	92.47	7.48	
2025-01-17 21:43:05.79	92.60	7.46	
2025-01-17 21:43:06.60	92.73	7.44	
2025-01-17 21:43:07.41	92.85	7.42	
2025-01-17 21:43:08.22	92.98	7.40	
2025-01-17 21:43:09.03	93.11	7.39	
2025-01-17 21:43:09.85	93.24	7.37	
2025-01-17 21:43:10.66	93.36	7.35	
2025-01-17 21:43:11.47	93.49	7.33	
2025-01-17 21:43:12.28	93.62	7.31	
2025-01-17 21:43:13.09	93.74	7.29	
2025-01-17 21:43:13.91	93.87	7.27	
2025-01-17 21:43:14.72	94.00	7.25	
2025-01-17 21:43:15.53	94.12	7.23	
2025-01-17 21:43:16.34	94.25	7.21	
2025-01-17 21:43:17.15	94.37	7.19	
2025-01-17 21:43:17.96	94.50	7.17	
2025-01-17 21:43:18.78	94.62	7.15	
2025-01-17 21:43:19.59	94.75	7.13	
2025-01-17 21:43:20.40	94.87	7.11	
2025-01-17 21:43:21.21	95.00	7.09	
2025-01-17 21:43:22.02	95.12	7.07	
2025-01-17 21:43:22.84	95.25	7.04	
2025-01-17 21:43:23.65	95.37	7.02	
2025-01-17 21:43:24.46	95.50	7.00	
2025-01-17 21:43:25.27	95.62	6.98	
2025-01-17 21:43:26.08	95.74	6.96	
2025-01-17 21:43:26.90	95.87	6.94	
2025-01-17 21:43:27.71	95.99	6.92	
2025-01-17 21:43:28.52	96.11	6.90	
2025-01-17 21:43:29.33	96.24	6.87	
2025-01-17 21:43:30.14	96.36	6.85	
2025-01-17 21:43:30.96	96.48	6.83	
2025-01-17 21:43:31.77	96.60	6.81	
2025-01-17 21:43:32.58	96.73	6.79	
2025-01-17 21:43:33.39	96.85	6.77	
2025-01-17 21:43:34.20	96.97	6.74	
2025-01-17 21:43:35.02	97.09	6.72	
2025-01-17 21:43:35.83	97.21	6.70	
2025-01-17 21:43:36.64	97.34	6.68	
2025-01-17 21:43:37.45	97.46	6.65	
2025-01-17 21:43:38.26	97.58	6.63	
2025-01-17 21:43:39.07	97.70	6.61	
2025-01-17 21:43:39.89	97.82	6.59	
2025-01-17 21:43:40.70	97.94	6.56	
2025-01-17 21:43:41.51	98.06	6.54	
2025-01-17 21:43:42.32	98.18	6.52	
2025-01-17 21:43:43.13	98.30	6.49	
2025-01-17 21:43:43.95	98.42	6.47	
2025-01-17 21:43:44.76	98.54	6.45	
2025-01-17 21:43:45.57	98.66	6.42	
2025-01-17 21:43:46.38	98.78	6.40	
2025-01-17 21:43:47.19	98.90	6.38	
2025-01-17 21:43:48.01	99.02	6.35	
2025-01-17 21:43:48.82	99.14	6.33	
2025-01-17 21:43:49.63	99.25	6.31	
2025-01-17 21:43:50.44	99.37	6.28	
2025-01-17 21:43:51.25	99.49	6.26	
2025-01-17 21:43:52.07	99.61	6.23	
2025-01-17 21:43:52.88	99.73	6.21	
2025-01-17 21:43:53.69	99.84	6.19	
2025-01-17 21:43:54.50	99.96	6.16	
2025-01-17 21:43:55.31	100.08	6.14	
2025-01-17 21:43:56.12	100.19	6.11	
2025-01-17 21:43:56.94	100.31	6.09	
2025-01-17 21:43:57.75	100.43	6.06	
2025-01-17 21:43:58.56	100.55	6.04	
2025-01-17 21:43:59.37	100.66	6.02	
2025-01-17 21:44:00.18	100.78	5.99	
2025-01-17 21:44:01.00	100.89	5.97	
2025-01-17 21:44:01.81	101.01	5.94	
2025-01-17 21:44:02.62	101.12	5.92	
2025-01-17 21:44:03.43	101.24	5.89	
2025-01-17 21:44:04.24	101.35	5.87	
2025-01-17 21:44:05.06	101.47	5.84	
2025-01-17 21:44:05.87	101.59	5.81	
2025-01-17 21:44:06.68	101.70	5.79	
2025-01-17 21:44:07.49	101.81	5.76	
2025-01-17 21:44:08.30	101.93	5.74	
2025-01-17 21:44:09.12	102.04	5.71	
2025-01-17 21:44:09.93	102.16	5.69	
2025-01-17 21:44:10.74	102.27	5.66	
2025-01-17 21:44:11.55	102.38	5.64	
2025-01-17 21:44:12.36	102.50	5.61	
2025-01-17 21:44:13.18	102.61	5.58	
2025-01-17 21:44:13.99	102.72	5.56	
2025-01-17 21:44:14.80	102.83	5.53	
2025-01-17 21:44:15.61	102.95	5.51	
2025-01-17 21:44:16.42	103.06	5.48	
2025-01-17 21:44:17.23	103.17	5.45	
2025-01-17 21:44:18.05	103.28	5.43	
2025-01-17 21:44:18.86	103.39	5.40	
2025-01-17 21:44:19.67	103.51	5.37	
2025-01-17 21:44:20.48	103.62	5.35	
2025-01-17 21:44:21.29	103.73	5.32	
2025-01-17 21:44:22.11	103.84	5.30	
2025-01-17 21:44:22.92	103.95	5.27	
2025-01-17 21:44:23.73	104.06	5.24	
2025-01-17 21:44:24.54	104.17	5.22	
2025-01-17 21:44:25.35	104.28	5.19	
2025-01-17 21:44:26.17	104.39	5.16	
2025-01-17 21:44:26.98	104.50	5.13	
2025-01-17 21:44:27.79	104.61	5.11	
2025-01-17 21:44:28.60	104.72	5.08	
2025-01-17 21:44:29.41	104.83	5.05	
2025-01-17 21:44:30.23	104.94	5.03	
2025-01-17 21:44:31.04	105.05	5.00	
2025-01-17 21:44:31.85	105.15	4.97	
2025-01-17 21:44:32.66	105.26	4.94	
2025-01-17 21:44:33.47	105.37	4.92	
2025-01-17 21:44:34.29	105.48	4.89	
2025-01-17 21:44:35.10	105.59	4.86	
2025-01-17 21:44:35.91	105.69	4.83	
2025-01-17 21:44:36.72	105.80	4.81	
2025-01-17 21:44:37.53	105.91	4.78	
2025-01-17 21:44:38.34	106.02	4.75	
2025-01-17 21:44:39.16	106.12	4.72	
2025-01-17 21:44:39.97	106.23	4.69	
2025-01-17 21:44:40.78	106.34	4.67	
2025-01-17 21:44:41.59	106.44	4.64	
2025-01-17 21:44:42.40	106.55	4.61	
2025-01-17 21:44:43.22	106.65	4.58	
2025-01-17 21:44:44.03	106.76	4.55	
2025-01-17 21:44:44.84	106.87	4.53	
2025-01-17 21:44:45.65	106.97	4.50	
2025-01-17 21:44:46.46	107.08	4.47	
2025-01-17 21:44:47.28	107.18	4.44	
2025-01-17 21:44:48.09	107.29	4.41	
2025-01-17 21:44:48.90	107.39	4.38	
2025-01-17 21:44:49.71	107.49	4.36	
2025-01-17 21:44:50.52	107.60	4.33	
2025-01-17 21:44:51.34	107.70	4.30	
2025-01-17 21:44:52.15	107.81	4.27	
2025-01-17 21:44:52.96	107.91	4.24	
2025-01-17 21:44:53.77	108.01	4.21	
2025-01-17 21:44:54.58	108.11	4.18	
2025-01-17 21:44:55.39	108.22	4.16	
2025-01-17 21:44:56.21	108.32	4.13	
2025-01-17 21:44:57.02	108.42	4.10	
2025-01-17 21:44:57.83	108.53	4.07	
2025-01-17 21:44:58.64	108.63	4.04	
2025-01-17 21:44:59.45	108.73	4.01	

#Closed at: 2025-01-17 21:44:59