passes_logs/2025/01/17/SPB_Silybum_02/SPB_Silybum_02__20250117_105637_TERRA_rec.log

#Pass ID: 20250117_105637_TERRA
#Satellite: TERRA
#Configuration: TERRA
#Start time: 2025-01-17 10:56:37

#Version: 2.0.20230423
#Station: SPB_Silybum_02
#Location: 30.233357 lon 59.946436 lat
#TLE: 1 25994U 99068A   25016.77398677  .00000840  00000+0  18282-3 0  9994
#TLE: 2 25994  98.0212  79.7479 0003409  69.0484  40.6664 14.60398530334334

#Time	Az	El	Level	Level2	SNR	BER	Gain	Gain2
2025-01-17 10:56:39.15	6.57	4.11	
2025-01-17 10:56:40.16	6.45	4.16	
2025-01-17 10:56:41.18	6.33	4.21	
2025-01-17 10:56:42.19	6.21	4.26	
2025-01-17 10:56:43.21	6.09	4.31	
2025-01-17 10:56:44.22	5.97	4.36	
2025-01-17 10:56:45.24	5.84	4.41	
2025-01-17 10:56:46.25	5.72	4.46	
2025-01-17 10:56:47.27	5.60	4.52	
2025-01-17 10:56:48.28	5.48	4.57	
2025-01-17 10:56:49.30	5.35	4.62	
2025-01-17 10:56:50.31	5.23	4.67	
2025-01-17 10:56:51.33	5.10	4.72	
2025-01-17 10:56:52.34	4.98	4.77	
2025-01-17 10:56:53.36	4.85	4.82	
2025-01-17 10:56:54.37	4.73	4.87	
2025-01-17 10:56:55.39	4.60	4.92	
2025-01-17 10:56:56.40	4.47	4.97	
2025-01-17 10:56:57.42	4.35	5.02	
2025-01-17 10:56:58.43	4.22	5.07	
2025-01-17 10:56:59.44	4.09	5.12	
2025-01-17 10:57:00.46	3.96	5.18	
2025-01-17 10:57:01.47	3.83	5.23	
2025-01-17 10:57:02.49	3.70	5.28	
2025-01-17 10:57:03.50	3.57	5.33	
2025-01-17 10:57:04.52	3.44	5.38	
2025-01-17 10:57:05.53	3.31	5.43	
2025-01-17 10:57:06.55	3.18	5.48	
2025-01-17 10:57:07.56	3.04	5.53	
2025-01-17 10:57:08.58	2.91	5.58	
2025-01-17 10:57:09.59	2.78	5.63	
2025-01-17 10:57:10.61	2.64	5.68	
2025-01-17 10:57:11.62	2.51	5.73	
2025-01-17 10:57:12.64	2.37	5.78	
2025-01-17 10:57:13.65	2.24	5.83	
2025-01-17 10:57:14.67	2.10	5.88	
2025-01-17 10:57:15.68	1.97	5.93	
2025-01-17 10:57:16.70	1.83	5.98	
2025-01-17 10:57:17.71	1.69	6.03	
2025-01-17 10:57:18.73	1.55	6.08	
2025-01-17 10:57:19.74	1.41	6.13	
2025-01-17 10:57:20.76	1.27	6.18	
2025-01-17 10:57:21.77	1.13	6.23	
2025-01-17 10:57:22.79	0.99	6.28	
2025-01-17 10:57:23.80	0.85	6.33	
2025-01-17 10:57:24.82	0.71	6.38	
2025-01-17 10:57:25.83	0.57	6.43	
2025-01-17 10:57:26.85	0.43	6.48	
2025-01-17 10:57:27.86	0.28	6.53	
2025-01-17 10:57:28.88	0.14	6.58	
2025-01-17 10:57:29.89	360.00	6.63	
2025-01-17 10:57:30.91	359.85	6.68	
2025-01-17 10:57:31.92	359.71	6.73	
2025-01-17 10:57:32.94	359.56	6.78	
2025-01-17 10:57:33.95	359.41	6.83	
2025-01-17 10:57:34.96	359.27	6.88	
2025-01-17 10:57:35.98	359.12	6.93	
2025-01-17 10:57:36.99	358.97	6.98	
2025-01-17 10:57:38.01	358.82	7.03	
2025-01-17 10:57:39.02	358.67	7.08	
2025-01-17 10:57:40.04	358.52	7.13	
2025-01-17 10:57:41.05	358.37	7.18	
2025-01-17 10:57:42.07	358.22	7.22	
2025-01-17 10:57:43.08	358.07	7.27	
2025-01-17 10:57:44.10	357.92	7.32	
2025-01-17 10:57:45.11	357.77	7.37	
2025-01-17 10:57:46.13	357.61	7.42	
2025-01-17 10:57:47.14	357.46	7.47	
2025-01-17 10:57:48.16	357.30	7.52	
2025-01-17 10:57:49.17	357.15	7.56	
2025-01-17 10:57:50.19	356.99	7.61	
2025-01-17 10:57:51.20	356.84	7.66	
2025-01-17 10:57:52.22	356.68	7.71	
2025-01-17 10:57:53.23	356.52	7.76	
2025-01-17 10:57:54.25	356.37	7.81	
2025-01-17 10:57:55.26	356.21	7.85	
2025-01-17 10:57:56.28	356.05	7.90	
2025-01-17 10:57:57.29	355.89	7.95	
2025-01-17 10:57:58.31	355.73	8.00	
2025-01-17 10:57:59.32	355.57	8.04	
2025-01-17 10:58:00.34	355.41	8.09	
2025-01-17 10:58:01.35	355.25	8.14	
2025-01-17 10:58:02.37	355.08	8.19	
2025-01-17 10:58:03.38	354.92	8.23	
2025-01-17 10:58:04.40	354.76	8.28	
2025-01-17 10:58:05.41	354.59	8.33	
2025-01-17 10:58:06.43	354.43	8.37	
2025-01-17 10:58:07.44	354.26	8.42	
2025-01-17 10:58:08.46	354.10	8.47	
2025-01-17 10:58:09.47	353.93	8.51	
2025-01-17 10:58:10.49	353.76	8.56	
2025-01-17 10:58:11.50	353.60	8.60	
2025-01-17 10:58:12.51	353.43	8.65	
2025-01-17 10:58:13.53	353.26	8.70	
2025-01-17 10:58:14.54	353.09	8.74	
2025-01-17 10:58:15.56	352.92	8.79	
2025-01-17 10:58:16.57	352.75	8.83	
2025-01-17 10:58:17.59	352.58	8.88	
2025-01-17 10:58:18.60	352.41	8.92	
2025-01-17 10:58:19.62	352.24	8.97	
2025-01-17 10:58:20.63	352.06	9.01	
2025-01-17 10:58:21.65	351.89	9.06	
2025-01-17 10:58:22.66	351.72	9.10	
2025-01-17 10:58:23.68	351.54	9.15	
2025-01-17 10:58:24.69	351.37	9.19	
2025-01-17 10:58:25.71	351.19	9.23	
2025-01-17 10:58:26.72	351.01	9.28	
2025-01-17 10:58:27.74	350.84	9.32	
2025-01-17 10:58:28.75	350.66	9.37	
2025-01-17 10:58:29.77	350.48	9.41	
2025-01-17 10:58:30.78	350.30	9.45	
2025-01-17 10:58:31.80	350.12	9.50	
2025-01-17 10:58:32.81	349.94	9.54	
2025-01-17 10:58:33.83	349.76	9.58	
2025-01-17 10:58:34.84	349.58	9.62	
2025-01-17 10:58:35.86	349.40	9.67	
2025-01-17 10:58:36.87	349.22	9.71	
2025-01-17 10:58:37.89	349.03	9.75	
2025-01-17 10:58:38.90	348.85	9.79	
2025-01-17 10:58:39.92	348.67	9.83	
2025-01-17 10:58:40.93	348.48	9.88	
2025-01-17 10:58:41.95	348.30	9.92	
2025-01-17 10:58:42.96	348.11	9.96	
2025-01-17 10:58:43.98	347.93	10.00	
2025-01-17 10:58:44.99	347.74	10.04	
2025-01-17 10:58:46.01	347.55	10.08	
2025-01-17 10:58:47.02	347.36	10.12	
2025-01-17 10:58:48.03	347.18	10.16	
2025-01-17 10:58:49.05	346.99	10.20	
2025-01-17 10:58:50.07	346.80	10.24	
2025-01-17 10:58:51.09	346.60	10.28	
2025-01-17 10:58:52.10	346.41	10.32	
2025-01-17 10:58:53.12	346.22	10.36	
2025-01-17 10:58:54.13	346.03	10.40	
2025-01-17 10:58:55.15	345.84	10.44	
2025-01-17 10:58:56.16	345.65	10.47	
2025-01-17 10:58:57.19	345.45	10.51	
2025-01-17 10:58:58.21	345.25	10.55	
2025-01-17 10:58:59.22	345.06	10.59	
2025-01-17 10:59:00.24	344.86	10.62	
2025-01-17 10:59:01.25	344.67	10.66	
2025-01-17 10:59:02.27	344.47	10.70	
2025-01-17 10:59:03.28	344.28	10.74	
2025-01-17 10:59:04.30	344.08	10.77	
2025-01-17 10:59:05.31	343.88	10.81	
2025-01-17 10:59:06.33	343.68	10.84	
2025-01-17 10:59:07.34	343.48	10.88	
2025-01-17 10:59:08.35	343.29	10.91	
2025-01-17 10:59:09.37	343.08	10.95	
2025-01-17 10:59:10.38	342.88	10.98	
2025-01-17 10:59:11.40	342.68	11.02	
2025-01-17 10:59:12.41	342.48	11.05	
2025-01-17 10:59:13.43	342.28	11.09	
2025-01-17 10:59:14.44	342.08	11.12	
2025-01-17 10:59:15.46	341.87	11.15	
2025-01-17 10:59:16.47	341.67	11.19	
2025-01-17 10:59:17.49	341.47	11.22	
2025-01-17 10:59:18.50	341.26	11.25	
2025-01-17 10:59:19.52	341.06	11.29	
2025-01-17 10:59:20.53	340.85	11.32	
2025-01-17 10:59:21.55	340.64	11.35	
2025-01-17 10:59:22.56	340.44	11.38	
2025-01-17 10:59:23.58	340.23	11.41	
2025-01-17 10:59:24.59	340.02	11.44	
2025-01-17 10:59:25.61	339.81	11.47	
2025-01-17 10:59:26.62	339.61	11.50	
2025-01-17 10:59:27.64	339.40	11.53	
2025-01-17 10:59:28.65	339.19	11.56	
2025-01-17 10:59:29.67	338.98	11.59	
2025-01-17 10:59:30.68	338.77	11.62	
2025-01-17 10:59:31.70	338.56	11.65	
2025-01-17 10:59:32.71	338.35	11.68	
2025-01-17 10:59:33.73	338.13	11.71	
2025-01-17 10:59:34.74	337.92	11.73	
2025-01-17 10:59:35.76	337.71	11.76	
2025-01-17 10:59:36.77	337.50	11.79	
2025-01-17 10:59:37.79	337.28	11.82	
2025-01-17 10:59:38.80	337.07	11.84	
2025-01-17 10:59:39.82	336.85	11.87	
2025-01-17 10:59:40.83	336.64	11.89	
2025-01-17 10:59:41.85	336.42	11.92	
2025-01-17 10:59:42.86	336.21	11.94	
2025-01-17 10:59:43.87	335.99	11.97	
2025-01-17 10:59:44.89	335.78	11.99	
2025-01-17 10:59:45.90	335.56	12.02	
2025-01-17 10:59:46.92	335.34	12.04	
2025-01-17 10:59:47.93	335.13	12.06	
2025-01-17 10:59:48.95	334.91	12.09	
2025-01-17 10:59:49.96	334.69	12.11	
2025-01-17 10:59:50.98	334.47	12.13	
2025-01-17 10:59:51.99	334.25	12.15	
2025-01-17 10:59:53.01	334.03	12.17	
2025-01-17 10:59:54.02	333.81	12.20	
2025-01-17 10:59:55.04	333.59	12.22	
2025-01-17 10:59:56.05	333.37	12.24	
2025-01-17 10:59:57.07	333.15	12.26	
2025-01-17 10:59:58.08	332.93	12.28	
2025-01-17 10:59:59.10	332.71	12.30	
2025-01-17 11:00:00.11	332.49	12.31	
2025-01-17 11:00:01.13	332.27	12.33	
2025-01-17 11:00:02.14	332.05	12.35	
2025-01-17 11:00:03.16	331.82	12.37	
2025-01-17 11:00:04.17	331.60	12.39	
2025-01-17 11:00:05.19	331.38	12.40	
2025-01-17 11:00:06.20	331.15	12.42	
2025-01-17 11:00:07.22	330.93	12.44	
2025-01-17 11:00:08.23	330.71	12.45	
2025-01-17 11:00:09.25	330.48	12.47	
2025-01-17 11:00:10.26	330.26	12.48	
2025-01-17 11:00:11.28	330.03	12.50	
2025-01-17 11:00:12.29	329.81	12.51	
2025-01-17 11:00:13.31	329.58	12.52	
2025-01-17 11:00:14.32	329.36	12.54	
2025-01-17 11:00:15.34	329.13	12.55	
2025-01-17 11:00:16.35	328.91	12.56	
2025-01-17 11:00:17.37	328.68	12.58	
2025-01-17 11:00:18.38	328.45	12.59	
2025-01-17 11:00:19.40	328.23	12.60	
2025-01-17 11:00:20.41	328.00	12.61	
2025-01-17 11:00:21.42	327.78	12.62	
2025-01-17 11:00:22.44	327.55	12.63	
2025-01-17 11:00:23.45	327.32	12.64	
2025-01-17 11:00:24.47	327.09	12.65	
2025-01-17 11:00:25.48	326.87	12.66	
2025-01-17 11:00:26.50	326.64	12.67	
2025-01-17 11:00:27.51	326.41	12.67	
2025-01-17 11:00:28.53	326.18	12.68	
2025-01-17 11:00:29.54	325.96	12.69	
2025-01-17 11:00:30.56	325.73	12.70	
2025-01-17 11:00:31.57	325.50	12.70	
2025-01-17 11:00:32.59	325.27	12.71	
2025-01-17 11:00:33.60	325.04	12.71	
2025-01-17 11:00:34.62	324.81	12.72	
2025-01-17 11:00:35.63	324.59	12.72	
2025-01-17 11:00:36.65	324.36	12.73	
2025-01-17 11:00:37.66	324.13	12.73	
2025-01-17 11:00:38.68	323.90	12.73	
2025-01-17 11:00:39.69	323.67	12.74	
2025-01-17 11:00:40.71	323.44	12.74	
2025-01-17 11:00:41.72	323.21	12.74	
2025-01-17 11:00:42.74	322.98	12.74	
2025-01-17 11:00:43.75	322.75	12.74	
2025-01-17 11:00:44.77	322.52	12.75	
2025-01-17 11:00:45.78	322.30	12.75	
2025-01-17 11:00:46.80	322.07	12.75	
2025-01-17 11:00:47.81	321.84	12.75	
2025-01-17 11:00:48.83	321.61	12.74	
2025-01-17 11:00:49.84	321.38	12.74	
2025-01-17 11:00:50.86	321.15	12.74	
2025-01-17 11:00:51.87	320.92	12.74	
2025-01-17 11:00:52.89	320.69	12.74	
2025-01-17 11:00:53.90	320.46	12.73	
2025-01-17 11:00:54.92	320.23	12.73	
2025-01-17 11:00:55.93	320.01	12.73	
2025-01-17 11:00:56.94	319.78	12.72	
2025-01-17 11:00:57.96	319.55	12.72	
2025-01-17 11:00:58.97	319.32	12.71	
2025-01-17 11:00:59.99	319.09	12.71	
2025-01-17 11:01:01.00	318.87	12.70	
2025-01-17 11:01:02.02	318.64	12.69	
2025-01-17 11:01:03.03	318.41	12.69	
2025-01-17 11:01:04.05	318.18	12.68	
2025-01-17 11:01:05.06	317.95	12.67	
2025-01-17 11:01:06.08	317.72	12.66	
2025-01-17 11:01:07.09	317.50	12.66	
2025-01-17 11:01:08.11	317.27	12.65	
2025-01-17 11:01:09.12	317.04	12.64	
2025-01-17 11:01:10.14	316.81	12.63	
2025-01-17 11:01:11.15	316.59	12.62	
2025-01-17 11:01:12.17	316.36	12.61	
2025-01-17 11:01:13.18	316.13	12.60	
2025-01-17 11:01:14.20	315.91	12.59	
2025-01-17 11:01:15.21	315.68	12.57	
2025-01-17 11:01:16.23	315.45	12.56	
2025-01-17 11:01:17.24	315.23	12.55	
2025-01-17 11:01:18.26	315.00	12.54	
2025-01-17 11:01:19.27	314.78	12.52	
2025-01-17 11:01:20.29	314.55	12.51	
2025-01-17 11:01:21.30	314.33	12.49	
2025-01-17 11:01:22.32	314.10	12.48	
2025-01-17 11:01:23.33	313.88	12.46	
2025-01-17 11:01:24.35	313.65	12.45	
2025-01-17 11:01:25.36	313.43	12.43	
2025-01-17 11:01:26.38	313.20	12.42	
2025-01-17 11:01:27.39	312.98	12.40	
2025-01-17 11:01:28.41	312.76	12.38	
2025-01-17 11:01:29.42	312.54	12.37	
2025-01-17 11:01:30.43	312.31	12.35	
2025-01-17 11:01:31.45	312.09	12.33	
2025-01-17 11:01:32.46	311.87	12.31	
2025-01-17 11:01:33.48	311.65	12.29	
2025-01-17 11:01:34.49	311.43	12.27	
2025-01-17 11:01:35.51	311.20	12.25	
2025-01-17 11:01:36.52	310.98	12.23	
2025-01-17 11:01:37.54	310.76	12.21	
2025-01-17 11:01:38.55	310.54	12.19	
2025-01-17 11:01:39.57	310.32	12.17	
2025-01-17 11:01:40.58	310.10	12.15	
2025-01-17 11:01:41.60	309.88	12.13	
2025-01-17 11:01:42.61	309.67	12.11	
2025-01-17 11:01:43.63	309.45	12.08	
2025-01-17 11:01:44.64	309.23	12.06	
2025-01-17 11:01:45.66	309.01	12.04	
2025-01-17 11:01:46.67	308.79	12.01	
2025-01-17 11:01:47.69	308.58	11.99	
2025-01-17 11:01:48.70	308.36	11.97	
2025-01-17 11:01:49.72	308.14	11.94	
2025-01-17 11:01:50.73	307.93	11.92	
2025-01-17 11:01:51.75	307.71	11.89	
2025-01-17 11:01:52.76	307.50	11.86	
2025-01-17 11:01:53.78	307.28	11.84	
2025-01-17 11:01:54.79	307.07	11.81	
2025-01-17 11:01:55.81	306.85	11.78	
2025-01-17 11:01:56.82	306.64	11.76	
2025-01-17 11:01:57.84	306.43	11.73	
2025-01-17 11:01:58.85	306.22	11.70	
2025-01-17 11:01:59.87	306.00	11.67	
2025-01-17 11:02:00.88	305.79	11.65	
2025-01-17 11:02:01.90	305.58	11.62	
2025-01-17 11:02:02.91	305.37	11.59	
2025-01-17 11:02:03.93	305.16	11.56	
2025-01-17 11:02:04.94	304.95	11.53	
2025-01-17 11:02:05.96	304.74	11.50	
2025-01-17 11:02:06.97	304.53	11.47	
2025-01-17 11:02:07.98	304.32	11.44	
2025-01-17 11:02:09.00	304.12	11.41	
2025-01-17 11:02:10.01	303.91	11.38	
2025-01-17 11:02:11.03	303.70	11.34	
2025-01-17 11:02:12.04	303.50	11.31	
2025-01-17 11:02:13.06	303.29	11.28	
2025-01-17 11:02:14.07	303.08	11.25	
2025-01-17 11:02:15.09	302.88	11.21	
2025-01-17 11:02:16.10	302.67	11.18	
2025-01-17 11:02:17.12	302.47	11.15	
2025-01-17 11:02:18.13	302.27	11.12	
2025-01-17 11:02:19.15	302.06	11.08	
2025-01-17 11:02:20.16	301.86	11.05	
2025-01-17 11:02:21.18	301.66	11.01	
2025-01-17 11:02:22.19	301.46	10.98	
2025-01-17 11:02:23.21	301.26	10.94	
2025-01-17 11:02:24.22	301.06	10.91	
2025-01-17 11:02:25.24	300.86	10.87	
2025-01-17 11:02:26.25	300.66	10.84	
2025-01-17 11:02:27.27	300.46	10.80	
2025-01-17 11:02:28.28	300.26	10.76	
2025-01-17 11:02:29.30	300.06	10.73	
2025-01-17 11:02:30.31	299.86	10.69	
2025-01-17 11:02:31.33	299.67	10.65	
2025-01-17 11:02:32.34	299.47	10.62	
2025-01-17 11:02:33.36	299.27	10.58	
2025-01-17 11:02:34.37	299.08	10.54	
2025-01-17 11:02:35.39	298.88	10.50	
2025-01-17 11:02:36.40	298.69	10.47	
2025-01-17 11:02:37.42	298.50	10.43	
2025-01-17 11:02:38.43	298.31	10.39	
2025-01-17 11:02:39.45	298.11	10.35	
2025-01-17 11:02:40.46	297.92	10.31	
2025-01-17 11:02:41.48	297.73	10.27	
2025-01-17 11:02:42.49	297.54	10.23	
2025-01-17 11:02:43.50	297.35	10.19	
2025-01-17 11:02:44.52	297.16	10.15	
2025-01-17 11:02:45.53	296.97	10.11	
2025-01-17 11:02:46.55	296.78	10.07	
2025-01-17 11:02:47.56	296.59	10.03	
2025-01-17 11:02:48.58	296.41	9.99	
2025-01-17 11:02:49.59	296.22	9.95	
2025-01-17 11:02:50.61	296.03	9.91	
2025-01-17 11:02:51.62	295.85	9.87	
2025-01-17 11:02:52.64	295.66	9.83	
2025-01-17 11:02:53.65	295.48	9.78	
2025-01-17 11:02:54.67	295.29	9.74	
2025-01-17 11:02:55.68	295.11	9.70	
2025-01-17 11:02:56.70	294.93	9.66	
2025-01-17 11:02:57.71	294.75	9.61	
2025-01-17 11:02:58.73	294.56	9.57	
2025-01-17 11:02:59.74	294.38	9.53	
2025-01-17 11:03:00.76	294.20	9.49	
2025-01-17 11:03:01.77	294.02	9.44	
2025-01-17 11:03:02.79	293.84	9.40	
2025-01-17 11:03:03.80	293.67	9.36	
2025-01-17 11:03:04.82	293.49	9.31	
2025-01-17 11:03:05.83	293.31	9.27	
2025-01-17 11:03:06.85	293.13	9.22	
2025-01-17 11:03:07.86	292.96	9.18	
2025-01-17 11:03:08.88	292.78	9.14	
2025-01-17 11:03:09.89	292.61	9.09	
2025-01-17 11:03:10.91	292.43	9.05	
2025-01-17 11:03:11.92	292.26	9.00	
2025-01-17 11:03:12.94	292.08	8.96	
2025-01-17 11:03:13.95	291.91	8.91	
2025-01-17 11:03:14.97	291.74	8.87	
2025-01-17 11:03:15.98	291.57	8.82	
2025-01-17 11:03:17.00	291.40	8.78	
2025-01-17 11:03:18.01	291.23	8.73	
2025-01-17 11:03:19.03	291.05	8.68	
2025-01-17 11:03:20.04	290.89	8.64	
2025-01-17 11:03:21.05	290.72	8.59	
2025-01-17 11:03:22.07	290.55	8.55	
2025-01-17 11:03:23.08	290.38	8.50	
2025-01-17 11:03:24.10	290.21	8.45	
2025-01-17 11:03:25.11	290.05	8.41	
2025-01-17 11:03:26.13	289.88	8.36	
2025-01-17 11:03:27.14	289.72	8.31	
2025-01-17 11:03:28.16	289.55	8.27	
2025-01-17 11:03:29.17	289.39	8.22	
2025-01-17 11:03:30.19	289.22	8.17	
2025-01-17 11:03:31.20	289.06	8.13	
2025-01-17 11:03:32.22	288.90	8.08	
2025-01-17 11:03:33.23	288.74	8.03	
2025-01-17 11:03:34.25	288.58	7.98	
2025-01-17 11:03:35.26	288.42	7.94	
2025-01-17 11:03:36.28	288.26	7.89	
2025-01-17 11:03:37.29	288.10	7.84	
2025-01-17 11:03:38.31	287.94	7.79	
2025-01-17 11:03:39.32	287.78	7.74	
2025-01-17 11:03:40.34	287.62	7.70	
2025-01-17 11:03:41.35	287.46	7.65	
2025-01-17 11:03:42.37	287.31	7.60	
2025-01-17 11:03:43.38	287.15	7.55	
2025-01-17 11:03:44.40	287.00	7.50	
2025-01-17 11:03:45.41	286.84	7.45	
2025-01-17 11:03:46.43	286.69	7.41	
2025-01-17 11:03:47.44	286.53	7.36	
2025-01-17 11:03:48.46	286.38	7.31	
2025-01-17 11:03:49.47	286.23	7.26	
2025-01-17 11:03:50.49	286.07	7.21	
2025-01-17 11:03:51.50	285.92	7.16	
2025-01-17 11:03:52.52	285.77	7.11	
2025-01-17 11:03:53.53	285.62	7.06	
2025-01-17 11:03:54.55	285.47	7.01	
2025-01-17 11:03:55.56	285.32	6.96	
2025-01-17 11:03:56.57	285.18	6.91	
2025-01-17 11:03:57.59	285.03	6.87	
2025-01-17 11:03:58.60	284.88	6.82	
2025-01-17 11:03:59.62	284.73	6.77	
2025-01-17 11:04:00.63	284.59	6.72	
2025-01-17 11:04:01.65	284.44	6.67	
2025-01-17 11:04:02.66	284.29	6.62	
2025-01-17 11:04:03.68	284.15	6.57	
2025-01-17 11:04:04.69	284.01	6.52	
2025-01-17 11:04:05.71	283.86	6.47	
2025-01-17 11:04:06.72	283.72	6.42	
2025-01-17 11:04:07.74	283.58	6.37	
2025-01-17 11:04:08.75	283.43	6.32	
2025-01-17 11:04:09.77	283.29	6.27	
2025-01-17 11:04:10.78	283.15	6.22	
2025-01-17 11:04:11.80	283.01	6.17	
2025-01-17 11:04:12.81	282.87	6.12	
2025-01-17 11:04:13.83	282.73	6.07	
2025-01-17 11:04:14.84	282.59	6.02	
2025-01-17 11:04:15.86	282.45	5.97	
2025-01-17 11:04:16.87	282.32	5.92	
2025-01-17 11:04:17.89	282.18	5.87	
2025-01-17 11:04:18.90	282.04	5.82	
2025-01-17 11:04:19.92	281.90	5.76	
2025-01-17 11:04:20.93	281.77	5.71	
2025-01-17 11:04:21.95	281.63	5.66	
2025-01-17 11:04:22.96	281.50	5.61	
2025-01-17 11:04:23.98	281.36	5.56	
2025-01-17 11:04:24.99	281.23	5.51	
2025-01-17 11:04:26.01	281.10	5.46	
2025-01-17 11:04:27.02	280.97	5.41	
2025-01-17 11:04:28.04	280.83	5.36	
2025-01-17 11:04:29.05	280.70	5.31	
2025-01-17 11:04:30.07	280.57	5.26	
2025-01-17 11:04:31.08	280.44	5.21	
2025-01-17 11:04:32.10	280.31	5.16	
2025-01-17 11:04:33.11	280.18	5.11	
2025-01-17 11:04:34.12	280.05	5.06	
2025-01-17 11:04:35.14	279.92	5.00	
2025-01-17 11:04:36.15	279.79	4.95	
2025-01-17 11:04:37.17	279.67	4.90	
2025-01-17 11:04:38.18	279.54	4.85	
2025-01-17 11:04:39.20	279.41	4.80	
2025-01-17 11:04:40.21	279.29	4.75	
2025-01-17 11:04:41.23	279.16	4.70	
2025-01-17 11:04:42.24	279.04	4.65	
2025-01-17 11:04:43.26	278.91	4.60	
2025-01-17 11:04:44.27	278.79	4.55	
2025-01-17 11:04:45.29	278.66	4.49	
2025-01-17 11:04:46.30	278.54	4.44	
2025-01-17 11:04:47.32	278.42	4.39	
2025-01-17 11:04:48.33	278.29	4.34	
2025-01-17 11:04:49.35	278.17	4.29	
2025-01-17 11:04:50.36	278.05	4.24	
2025-01-17 11:04:51.38	277.93	4.19	
2025-01-17 11:04:52.39	277.81	4.14	
2025-01-17 11:04:53.41	277.69	4.09	
2025-01-17 11:04:54.42	277.57	4.04	

#Closed at: 2025-01-17 11:04:55