passes_logs/2025/01/17/SPB_Silybum_02/SPB_Silybum_02__20250117_031529_AQUA_rec.log

#Pass ID: 20250117_031529_AQUA
#Satellite: AQUA
#Configuration: AQUA
#Start time: 2025-01-17 03:15:30

#Version: 2.0.20230423
#Station: SPB_Silybum_02
#Location: 30.233357 lon 59.946436 lat
#TLE: 1 27424U 02022A   25016.17003800  .00001737  00000+0  36656-3 0  9994
#TLE: 2 27424  98.3591 332.8445 0001762 110.2278 308.2748 14.60686749207790

#Time	Az	El	Level	Level2	SNR	BER	Gain	Gain2
2025-01-17 03:15:32.56	9.54	4.18	
2025-01-17 03:15:33.58	9.44	4.24	
2025-01-17 03:15:34.59	9.35	4.30	
2025-01-17 03:15:35.61	9.25	4.36	
2025-01-17 03:15:36.62	9.16	4.42	
2025-01-17 03:15:37.64	9.06	4.48	
2025-01-17 03:15:38.65	8.97	4.54	
2025-01-17 03:15:39.67	8.87	4.60	
2025-01-17 03:15:40.68	8.77	4.66	
2025-01-17 03:15:41.70	8.67	4.73	
2025-01-17 03:15:42.71	8.58	4.79	
2025-01-17 03:15:43.73	8.48	4.85	
2025-01-17 03:15:44.76	8.38	4.91	
2025-01-17 03:15:45.77	8.28	4.97	
2025-01-17 03:15:46.79	8.18	5.03	
2025-01-17 03:15:47.80	8.08	5.10	
2025-01-17 03:15:48.82	7.98	5.16	
2025-01-17 03:15:49.83	7.88	5.22	
2025-01-17 03:15:50.85	7.78	5.28	
2025-01-17 03:15:51.87	7.67	5.34	
2025-01-17 03:15:52.89	7.57	5.41	
2025-01-17 03:15:53.91	7.47	5.47	
2025-01-17 03:15:54.92	7.36	5.53	
2025-01-17 03:15:55.94	7.26	5.59	
2025-01-17 03:15:56.95	7.15	5.66	
2025-01-17 03:15:57.97	7.05	5.72	
2025-01-17 03:15:58.98	6.94	5.78	
2025-01-17 03:16:00.00	6.84	5.84	
2025-01-17 03:16:01.01	6.73	5.91	
2025-01-17 03:16:02.03	6.62	5.97	
2025-01-17 03:16:03.04	6.52	6.03	
2025-01-17 03:16:04.06	6.41	6.09	
2025-01-17 03:16:05.07	6.30	6.16	
2025-01-17 03:16:06.09	6.19	6.22	
2025-01-17 03:16:07.11	6.08	6.28	
2025-01-17 03:16:08.13	5.97	6.35	
2025-01-17 03:16:09.15	5.86	6.41	
2025-01-17 03:16:10.16	5.75	6.47	
2025-01-17 03:16:11.18	5.63	6.54	
2025-01-17 03:16:12.19	5.52	6.60	
2025-01-17 03:16:13.21	5.41	6.67	
2025-01-17 03:16:14.22	5.29	6.73	
2025-01-17 03:16:15.24	5.18	6.79	
2025-01-17 03:16:16.25	5.07	6.86	
2025-01-17 03:16:17.27	4.95	6.92	
2025-01-17 03:16:18.28	4.83	6.99	
2025-01-17 03:16:19.30	4.72	7.05	
2025-01-17 03:16:20.32	4.60	7.11	
2025-01-17 03:16:21.33	4.48	7.18	
2025-01-17 03:16:22.35	4.36	7.24	
2025-01-17 03:16:23.36	4.24	7.31	
2025-01-17 03:16:24.38	4.12	7.37	
2025-01-17 03:16:25.39	4.01	7.44	
2025-01-17 03:16:26.41	3.88	7.50	
2025-01-17 03:16:27.42	3.76	7.56	
2025-01-17 03:16:28.44	3.64	7.63	
2025-01-17 03:16:29.45	3.52	7.69	
2025-01-17 03:16:30.47	3.40	7.76	
2025-01-17 03:16:31.49	3.27	7.82	
2025-01-17 03:16:32.50	3.15	7.89	
2025-01-17 03:16:33.52	3.02	7.95	
2025-01-17 03:16:34.53	2.90	8.02	
2025-01-17 03:16:35.55	2.77	8.09	
2025-01-17 03:16:36.56	2.64	8.15	
2025-01-17 03:16:37.58	2.52	8.22	
2025-01-17 03:16:38.59	2.39	8.28	
2025-01-17 03:16:39.61	2.26	8.35	
2025-01-17 03:16:40.62	2.13	8.41	
2025-01-17 03:16:41.64	2.00	8.48	
2025-01-17 03:16:42.65	1.87	8.54	
2025-01-17 03:16:43.67	1.74	8.61	
2025-01-17 03:16:44.69	1.61	8.67	
2025-01-17 03:16:45.70	1.47	8.74	
2025-01-17 03:16:46.72	1.34	8.81	
2025-01-17 03:16:47.73	1.21	8.87	
2025-01-17 03:16:48.75	1.07	8.94	
2025-01-17 03:16:49.76	0.94	9.00	
2025-01-17 03:16:50.78	0.80	9.07	
2025-01-17 03:16:51.79	0.66	9.14	
2025-01-17 03:16:52.81	0.53	9.20	
2025-01-17 03:16:53.82	0.39	9.27	
2025-01-17 03:16:54.84	0.25	9.33	
2025-01-17 03:16:55.86	0.11	9.40	
2025-01-17 03:16:56.87	359.97	9.47	
2025-01-17 03:16:57.89	359.83	9.53	
2025-01-17 03:16:58.90	359.69	9.60	
2025-01-17 03:16:59.92	359.54	9.67	
2025-01-17 03:17:00.93	359.40	9.73	
2025-01-17 03:17:01.95	359.26	9.80	
2025-01-17 03:17:02.96	359.11	9.87	
2025-01-17 03:17:03.98	358.97	9.93	
2025-01-17 03:17:04.99	358.82	10.00	
2025-01-17 03:17:06.01	358.68	10.07	
2025-01-17 03:17:07.02	358.53	10.13	
2025-01-17 03:17:08.04	358.38	10.20	
2025-01-17 03:17:09.06	358.23	10.27	
2025-01-17 03:17:10.07	358.08	10.33	
2025-01-17 03:17:11.09	357.93	10.40	
2025-01-17 03:17:12.10	357.78	10.46	
2025-01-17 03:17:13.12	357.63	10.53	
2025-01-17 03:17:14.13	357.48	10.60	
2025-01-17 03:17:15.15	357.32	10.67	
2025-01-17 03:17:16.16	357.17	10.73	
2025-01-17 03:17:17.18	357.01	10.80	
2025-01-17 03:17:18.19	356.86	10.87	
2025-01-17 03:17:19.21	356.70	10.93	
2025-01-17 03:17:20.23	356.54	11.00	
2025-01-17 03:17:21.24	356.38	11.07	
2025-01-17 03:17:22.26	356.22	11.13	
2025-01-17 03:17:23.27	356.07	11.20	
2025-01-17 03:17:24.29	355.90	11.27	
2025-01-17 03:17:25.30	355.74	11.33	
2025-01-17 03:17:26.32	355.58	11.40	
2025-01-17 03:17:27.33	355.42	11.47	
2025-01-17 03:17:28.35	355.25	11.53	
2025-01-17 03:17:29.36	355.09	11.60	
2025-01-17 03:17:30.38	354.92	11.67	
2025-01-17 03:17:31.39	354.76	11.73	
2025-01-17 03:17:32.41	354.59	11.80	
2025-01-17 03:17:33.43	354.42	11.87	
2025-01-17 03:17:34.44	354.25	11.93	
2025-01-17 03:17:35.46	354.08	12.00	
2025-01-17 03:17:36.47	353.91	12.07	
2025-01-17 03:17:37.49	353.74	12.13	
2025-01-17 03:17:38.50	353.57	12.20	
2025-01-17 03:17:39.52	353.40	12.27	
2025-01-17 03:17:40.53	353.22	12.33	
2025-01-17 03:17:41.55	353.05	12.40	
2025-01-17 03:17:42.56	352.87	12.46	
2025-01-17 03:17:43.58	352.70	12.53	
2025-01-17 03:17:44.60	352.52	12.60	
2025-01-17 03:17:45.61	352.34	12.66	
2025-01-17 03:17:46.63	352.16	12.73	
2025-01-17 03:17:47.64	351.98	12.80	
2025-01-17 03:17:48.66	351.80	12.86	
2025-01-17 03:17:49.67	351.62	12.93	
2025-01-17 03:17:50.69	351.44	12.99	
2025-01-17 03:17:51.70	351.25	13.06	
2025-01-17 03:17:52.72	351.07	13.12	
2025-01-17 03:17:53.73	350.88	13.19	
2025-01-17 03:17:54.75	350.70	13.25	
2025-01-17 03:17:55.76	350.51	13.32	
2025-01-17 03:17:56.78	350.32	13.39	
2025-01-17 03:17:57.80	350.13	13.45	
2025-01-17 03:17:58.81	349.94	13.52	
2025-01-17 03:17:59.83	349.75	13.58	
2025-01-17 03:18:00.84	349.56	13.65	
2025-01-17 03:18:01.86	349.37	13.71	
2025-01-17 03:18:02.87	349.18	13.77	
2025-01-17 03:18:03.89	348.98	13.84	
2025-01-17 03:18:04.90	348.79	13.90	
2025-01-17 03:18:05.92	348.59	13.97	
2025-01-17 03:18:06.93	348.39	14.03	
2025-01-17 03:18:07.95	348.19	14.10	
2025-01-17 03:18:08.97	347.99	14.16	
2025-01-17 03:18:09.98	347.80	14.22	
2025-01-17 03:18:11.00	347.59	14.29	
2025-01-17 03:18:12.01	347.39	14.35	
2025-01-17 03:18:13.03	347.19	14.41	
2025-01-17 03:18:14.04	346.99	14.48	
2025-01-17 03:18:15.06	346.78	14.54	
2025-01-17 03:18:16.07	346.58	14.60	
2025-01-17 03:18:17.09	346.37	14.66	
2025-01-17 03:18:18.10	346.16	14.73	
2025-01-17 03:18:19.12	345.95	14.79	
2025-01-17 03:18:20.13	345.75	14.85	
2025-01-17 03:18:21.15	345.53	14.91	
2025-01-17 03:18:22.17	345.32	14.97	
2025-01-17 03:18:23.18	345.11	15.04	
2025-01-17 03:18:24.20	344.90	15.10	
2025-01-17 03:18:25.21	344.68	15.16	
2025-01-17 03:18:26.23	344.47	15.22	
2025-01-17 03:18:27.24	344.25	15.28	
2025-01-17 03:18:28.26	344.03	15.34	
2025-01-17 03:18:29.27	343.82	15.40	
2025-01-17 03:18:30.29	343.60	15.46	
2025-01-17 03:18:31.30	343.38	15.52	
2025-01-17 03:18:32.32	343.16	15.58	
2025-01-17 03:18:33.34	342.94	15.64	
2025-01-17 03:18:34.35	342.71	15.70	
2025-01-17 03:18:35.37	342.49	15.75	
2025-01-17 03:18:36.38	342.27	15.81	
2025-01-17 03:18:37.40	342.04	15.87	
2025-01-17 03:18:38.41	341.81	15.93	
2025-01-17 03:18:39.43	341.59	15.99	
2025-01-17 03:18:40.44	341.36	16.04	
2025-01-17 03:18:41.46	341.13	16.10	
2025-01-17 03:18:42.47	340.90	16.16	
2025-01-17 03:18:43.49	340.67	16.21	
2025-01-17 03:18:44.50	340.44	16.27	
2025-01-17 03:18:45.52	340.20	16.32	
2025-01-17 03:18:46.54	339.97	16.38	
2025-01-17 03:18:47.55	339.73	16.43	
2025-01-17 03:18:48.57	339.50	16.49	
2025-01-17 03:18:49.58	339.26	16.54	
2025-01-17 03:18:50.60	339.02	16.60	
2025-01-17 03:18:51.61	338.79	16.65	
2025-01-17 03:18:52.63	338.55	16.70	
2025-01-17 03:18:53.64	338.31	16.76	
2025-01-17 03:18:54.66	338.07	16.81	
2025-01-17 03:18:55.67	337.82	16.86	
2025-01-17 03:18:56.69	337.58	16.91	
2025-01-17 03:18:57.71	337.34	16.97	
2025-01-17 03:18:58.72	337.09	17.02	
2025-01-17 03:18:59.74	336.84	17.07	
2025-01-17 03:19:00.75	336.60	17.12	
2025-01-17 03:19:01.77	336.35	17.17	
2025-01-17 03:19:02.78	336.10	17.22	
2025-01-17 03:19:03.80	335.85	17.27	
2025-01-17 03:19:04.81	335.60	17.31	
2025-01-17 03:19:05.83	335.35	17.36	
2025-01-17 03:19:06.84	335.10	17.41	
2025-01-17 03:19:07.86	334.85	17.46	
2025-01-17 03:19:08.87	334.60	17.50	
2025-01-17 03:19:09.89	334.34	17.55	
2025-01-17 03:19:10.91	334.08	17.60	
2025-01-17 03:19:11.92	333.83	17.64	
2025-01-17 03:19:12.94	333.57	17.69	
2025-01-17 03:19:13.95	333.32	17.73	
2025-01-17 03:19:14.97	333.06	17.77	
2025-01-17 03:19:15.98	332.80	17.82	
2025-01-17 03:19:17.00	332.54	17.86	
2025-01-17 03:19:18.01	332.28	17.90	
2025-01-17 03:19:19.03	332.01	17.95	
2025-01-17 03:19:20.04	331.75	17.99	
2025-01-17 03:19:21.06	331.49	18.03	
2025-01-17 03:19:22.08	331.22	18.07	
2025-01-17 03:19:23.09	330.96	18.11	
2025-01-17 03:19:24.11	330.69	18.15	
2025-01-17 03:19:25.12	330.43	18.19	
2025-01-17 03:19:26.14	330.16	18.23	
2025-01-17 03:19:27.15	329.89	18.26	
2025-01-17 03:19:28.17	329.63	18.30	
2025-01-17 03:19:29.18	329.36	18.34	
2025-01-17 03:19:30.20	329.09	18.37	
2025-01-17 03:19:31.21	328.82	18.41	
2025-01-17 03:19:32.23	328.55	18.44	
2025-01-17 03:19:33.25	328.27	18.48	
2025-01-17 03:19:34.26	328.00	18.51	
2025-01-17 03:19:35.28	327.73	18.54	
2025-01-17 03:19:36.29	327.45	18.58	
2025-01-17 03:19:37.31	327.18	18.61	
2025-01-17 03:19:38.32	326.91	18.64	
2025-01-17 03:19:39.34	326.63	18.67	
2025-01-17 03:19:40.35	326.35	18.70	
2025-01-17 03:19:41.37	326.08	18.73	
2025-01-17 03:19:42.38	325.80	18.76	
2025-01-17 03:19:43.40	325.52	18.79	
2025-01-17 03:19:44.41	325.24	18.81	
2025-01-17 03:19:45.43	324.96	18.84	
2025-01-17 03:19:46.45	324.68	18.87	
2025-01-17 03:19:47.46	324.40	18.89	
2025-01-17 03:19:48.48	324.12	18.92	
2025-01-17 03:19:49.49	323.84	18.94	
2025-01-17 03:19:50.51	323.56	18.97	
2025-01-17 03:19:51.52	323.28	18.99	
2025-01-17 03:19:52.54	323.00	19.01	
2025-01-17 03:19:53.55	322.72	19.03	
2025-01-17 03:19:54.57	322.43	19.05	
2025-01-17 03:19:55.58	322.15	19.08	
2025-01-17 03:19:56.60	321.86	19.09	
2025-01-17 03:19:57.62	321.58	19.11	
2025-01-17 03:19:58.63	321.29	19.13	
2025-01-17 03:19:59.65	321.01	19.15	
2025-01-17 03:20:00.66	320.72	19.17	
2025-01-17 03:20:01.68	320.44	19.18	
2025-01-17 03:20:02.69	320.15	19.20	
2025-01-17 03:20:03.71	319.86	19.21	
2025-01-17 03:20:04.72	319.58	19.23	
2025-01-17 03:20:05.74	319.29	19.24	
2025-01-17 03:20:06.75	319.01	19.25	
2025-01-17 03:20:07.77	318.72	19.27	
2025-01-17 03:20:08.78	318.43	19.28	
2025-01-17 03:20:09.80	318.14	19.29	
2025-01-17 03:20:10.82	317.85	19.30	
2025-01-17 03:20:11.83	317.56	19.31	
2025-01-17 03:20:12.85	317.27	19.31	
2025-01-17 03:20:13.86	316.99	19.32	
2025-01-17 03:20:14.88	316.70	19.33	
2025-01-17 03:20:15.89	316.41	19.33	
2025-01-17 03:20:16.91	316.12	19.34	
2025-01-17 03:20:17.92	315.83	19.34	
2025-01-17 03:20:18.94	315.54	19.35	
2025-01-17 03:20:19.95	315.25	19.35	
2025-01-17 03:20:20.97	314.96	19.35	
2025-01-17 03:20:21.99	314.67	19.36	
2025-01-17 03:20:23.00	314.38	19.36	
2025-01-17 03:20:24.02	314.09	19.36	
2025-01-17 03:20:25.03	313.80	19.36	
2025-01-17 03:20:26.05	313.51	19.36	
2025-01-17 03:20:27.06	313.22	19.35	
2025-01-17 03:20:28.08	312.93	19.35	
2025-01-17 03:20:29.09	312.65	19.35	
2025-01-17 03:20:30.11	312.35	19.34	
2025-01-17 03:20:31.12	312.07	19.34	
2025-01-17 03:20:32.14	311.78	19.33	
2025-01-17 03:20:33.15	311.49	19.33	
2025-01-17 03:20:34.17	311.20	19.32	
2025-01-17 03:20:35.19	310.91	19.31	
2025-01-17 03:20:36.20	310.62	19.31	
2025-01-17 03:20:37.22	310.33	19.30	
2025-01-17 03:20:38.23	310.04	19.29	
2025-01-17 03:20:39.25	309.75	19.28	
2025-01-17 03:20:40.26	309.47	19.26	
2025-01-17 03:20:41.28	309.18	19.25	
2025-01-17 03:20:42.29	308.89	19.24	
2025-01-17 03:20:43.31	308.60	19.23	
2025-01-17 03:20:44.32	308.32	19.21	
2025-01-17 03:20:45.34	308.03	19.20	
2025-01-17 03:20:46.36	307.74	19.18	
2025-01-17 03:20:47.37	307.46	19.17	
2025-01-17 03:20:48.39	307.17	19.15	
2025-01-17 03:20:49.40	306.89	19.13	
2025-01-17 03:20:50.42	306.60	19.11	
2025-01-17 03:20:51.43	306.32	19.09	
2025-01-17 03:20:52.45	306.03	19.07	
2025-01-17 03:20:53.46	305.75	19.05	
2025-01-17 03:20:54.48	305.46	19.03	
2025-01-17 03:20:55.49	305.18	19.01	
2025-01-17 03:20:56.51	304.90	18.99	
2025-01-17 03:20:57.52	304.62	18.97	
2025-01-17 03:20:58.54	304.33	18.94	
2025-01-17 03:20:59.56	304.05	18.92	
2025-01-17 03:21:00.57	303.77	18.89	
2025-01-17 03:21:01.59	303.49	18.87	
2025-01-17 03:21:02.60	303.21	18.84	
2025-01-17 03:21:03.62	302.93	18.81	
2025-01-17 03:21:04.63	302.65	18.79	
2025-01-17 03:21:05.65	302.38	18.76	
2025-01-17 03:21:06.66	302.10	18.73	
2025-01-17 03:21:07.68	301.82	18.70	
2025-01-17 03:21:08.69	301.55	18.67	
2025-01-17 03:21:09.71	301.27	18.64	
2025-01-17 03:21:10.73	300.99	18.61	
2025-01-17 03:21:11.74	300.72	18.57	
2025-01-17 03:21:12.76	300.44	18.54	
2025-01-17 03:21:13.77	300.17	18.51	
2025-01-17 03:21:14.79	299.90	18.47	
2025-01-17 03:21:15.80	299.62	18.44	
2025-01-17 03:21:16.82	299.35	18.41	
2025-01-17 03:21:17.83	299.08	18.37	
2025-01-17 03:21:18.85	298.81	18.33	
2025-01-17 03:21:19.86	298.54	18.30	
2025-01-17 03:21:20.88	298.27	18.26	
2025-01-17 03:21:21.89	298.01	18.22	
2025-01-17 03:21:22.91	297.74	18.18	
2025-01-17 03:21:23.93	297.47	18.14	
2025-01-17 03:21:24.94	297.20	18.11	
2025-01-17 03:21:25.96	296.94	18.07	
2025-01-17 03:21:26.97	296.67	18.02	
2025-01-17 03:21:27.99	296.41	17.98	
2025-01-17 03:21:29.00	296.15	17.94	
2025-01-17 03:21:30.02	295.88	17.90	
2025-01-17 03:21:31.03	295.62	17.86	
2025-01-17 03:21:32.05	295.36	17.81	
2025-01-17 03:21:33.06	295.10	17.77	
2025-01-17 03:21:34.08	294.84	17.73	
2025-01-17 03:21:35.10	294.58	17.68	
2025-01-17 03:21:36.11	294.33	17.64	
2025-01-17 03:21:37.13	294.07	17.59	
2025-01-17 03:21:38.14	293.81	17.55	
2025-01-17 03:21:39.16	293.56	17.50	
2025-01-17 03:21:40.17	293.31	17.45	
2025-01-17 03:21:41.19	293.05	17.40	
2025-01-17 03:21:42.20	292.80	17.36	
2025-01-17 03:21:43.22	292.55	17.31	
2025-01-17 03:21:44.23	292.30	17.26	
2025-01-17 03:21:45.25	292.05	17.21	
2025-01-17 03:21:46.26	291.80	17.16	
2025-01-17 03:21:47.28	291.55	17.11	
2025-01-17 03:21:48.30	291.30	17.06	
2025-01-17 03:21:49.31	291.06	17.01	
2025-01-17 03:21:50.33	290.81	16.96	
2025-01-17 03:21:51.34	290.56	16.91	
2025-01-17 03:21:52.36	290.32	16.85	
2025-01-17 03:21:53.37	290.08	16.80	
2025-01-17 03:21:54.39	289.84	16.75	
2025-01-17 03:21:55.40	289.60	16.70	
2025-01-17 03:21:56.42	289.35	16.64	
2025-01-17 03:21:57.43	289.12	16.59	
2025-01-17 03:21:58.45	288.88	16.54	
2025-01-17 03:21:59.47	288.64	16.48	
2025-01-17 03:22:00.48	288.40	16.43	
2025-01-17 03:22:01.50	288.17	16.37	
2025-01-17 03:22:02.51	287.93	16.32	
2025-01-17 03:22:03.53	287.70	16.26	
2025-01-17 03:22:04.54	287.47	16.20	
2025-01-17 03:22:05.56	287.23	16.15	
2025-01-17 03:22:06.57	287.00	16.09	
2025-01-17 03:22:07.59	286.77	16.03	
2025-01-17 03:22:08.60	286.54	15.98	
2025-01-17 03:22:09.62	286.31	15.92	
2025-01-17 03:22:10.64	286.09	15.86	
2025-01-17 03:22:11.65	285.86	15.80	
2025-01-17 03:22:12.67	285.63	15.74	
2025-01-17 03:22:13.68	285.41	15.68	
2025-01-17 03:22:14.70	285.19	15.63	
2025-01-17 03:22:15.71	284.97	15.57	
2025-01-17 03:22:16.73	284.74	15.51	
2025-01-17 03:22:17.74	284.52	15.45	
2025-01-17 03:22:18.76	284.30	15.39	
2025-01-17 03:22:19.77	284.09	15.33	
2025-01-17 03:22:20.79	283.87	15.27	
2025-01-17 03:22:21.80	283.65	15.21	
2025-01-17 03:22:22.82	283.43	15.14	
2025-01-17 03:22:23.84	283.22	15.08	
2025-01-17 03:22:24.85	283.00	15.02	
2025-01-17 03:22:25.87	282.79	14.96	
2025-01-17 03:22:26.88	282.58	14.90	
2025-01-17 03:22:27.90	282.37	14.84	
2025-01-17 03:22:28.91	282.16	14.77	
2025-01-17 03:22:29.93	281.95	14.71	
2025-01-17 03:22:30.94	281.74	14.65	
2025-01-17 03:22:31.96	281.53	14.59	
2025-01-17 03:22:32.97	281.33	14.52	
2025-01-17 03:22:33.99	281.12	14.46	
2025-01-17 03:22:35.01	280.92	14.40	
2025-01-17 03:22:36.02	280.71	14.33	
2025-01-17 03:22:37.04	280.51	14.27	
2025-01-17 03:22:38.05	280.31	14.21	
2025-01-17 03:22:39.07	280.11	14.14	
2025-01-17 03:22:40.08	279.91	14.08	
2025-01-17 03:22:41.10	279.71	14.01	
2025-01-17 03:22:42.11	279.51	13.95	
2025-01-17 03:22:43.13	279.31	13.88	
2025-01-17 03:22:44.14	279.12	13.82	
2025-01-17 03:22:45.16	278.92	13.76	
2025-01-17 03:22:46.17	278.73	13.69	
2025-01-17 03:22:47.19	278.53	13.63	
2025-01-17 03:22:48.21	278.34	13.56	
2025-01-17 03:22:49.22	278.15	13.50	
2025-01-17 03:22:50.24	277.96	13.43	
2025-01-17 03:22:51.25	277.77	13.36	
2025-01-17 03:22:52.27	277.58	13.30	
2025-01-17 03:22:53.28	277.39	13.23	
2025-01-17 03:22:54.30	277.20	13.17	
2025-01-17 03:22:55.31	277.02	13.10	
2025-01-17 03:22:56.33	276.83	13.04	
2025-01-17 03:22:57.34	276.65	12.97	
2025-01-17 03:22:58.36	276.46	12.90	
2025-01-17 03:22:59.38	276.28	12.84	
2025-01-17 03:23:00.39	276.10	12.77	
2025-01-17 03:23:01.41	275.92	12.71	
2025-01-17 03:23:02.42	275.74	12.64	
2025-01-17 03:23:03.44	275.56	12.57	
2025-01-17 03:23:04.45	275.38	12.51	
2025-01-17 03:23:05.47	275.20	12.44	
2025-01-17 03:23:06.48	275.03	12.37	
2025-01-17 03:23:07.50	274.85	12.31	
2025-01-17 03:23:08.51	274.68	12.24	
2025-01-17 03:23:09.53	274.50	12.17	
2025-01-17 03:23:10.54	274.33	12.11	
2025-01-17 03:23:11.56	274.16	12.04	
2025-01-17 03:23:12.58	273.98	11.97	
2025-01-17 03:23:13.59	273.82	11.91	
2025-01-17 03:23:14.61	273.64	11.84	
2025-01-17 03:23:15.62	273.48	11.77	
2025-01-17 03:23:16.64	273.31	11.71	
2025-01-17 03:23:17.65	273.14	11.64	
2025-01-17 03:23:18.67	272.97	11.57	
2025-01-17 03:23:19.68	272.81	11.51	
2025-01-17 03:23:20.70	272.64	11.44	
2025-01-17 03:23:21.71	272.48	11.37	
2025-01-17 03:23:22.73	272.32	11.30	
2025-01-17 03:23:23.75	272.15	11.24	
2025-01-17 03:23:24.76	271.99	11.17	
2025-01-17 03:23:25.78	271.83	11.10	
2025-01-17 03:23:26.79	271.67	11.04	
2025-01-17 03:23:27.81	271.51	10.97	
2025-01-17 03:23:28.82	271.36	10.90	
2025-01-17 03:23:29.84	271.20	10.83	
2025-01-17 03:23:30.85	271.04	10.77	
2025-01-17 03:23:31.87	270.88	10.70	
2025-01-17 03:23:32.88	270.73	10.63	
2025-01-17 03:23:33.90	270.57	10.57	
2025-01-17 03:23:34.91	270.42	10.50	
2025-01-17 03:23:35.93	270.27	10.43	
2025-01-17 03:23:36.95	270.12	10.37	
2025-01-17 03:23:37.96	269.96	10.30	
2025-01-17 03:23:38.98	269.81	10.23	
2025-01-17 03:23:39.99	269.66	10.16	
2025-01-17 03:23:41.01	269.51	10.10	
2025-01-17 03:23:42.02	269.37	10.03	
2025-01-17 03:23:43.04	269.22	9.96	
2025-01-17 03:23:44.05	269.07	9.90	
2025-01-17 03:23:45.07	268.93	9.83	
2025-01-17 03:23:46.08	268.78	9.76	
2025-01-17 03:23:47.10	268.64	9.70	
2025-01-17 03:23:48.12	268.49	9.63	
2025-01-17 03:23:49.13	268.35	9.56	
2025-01-17 03:23:50.15	268.21	9.50	
2025-01-17 03:23:51.16	268.06	9.43	
2025-01-17 03:23:52.18	267.92	9.36	
2025-01-17 03:23:53.19	267.78	9.30	
2025-01-17 03:23:54.21	267.64	9.23	
2025-01-17 03:23:55.22	267.50	9.16	
2025-01-17 03:23:56.24	267.36	9.10	
2025-01-17 03:23:57.25	267.23	9.03	
2025-01-17 03:23:58.27	267.09	8.97	
2025-01-17 03:23:59.28	266.95	8.90	
2025-01-17 03:24:00.30	266.82	8.83	
2025-01-17 03:24:01.32	266.68	8.77	
2025-01-17 03:24:02.33	266.55	8.70	
2025-01-17 03:24:03.35	266.42	8.63	
2025-01-17 03:24:04.36	266.28	8.57	
2025-01-17 03:24:05.38	266.15	8.50	
2025-01-17 03:24:06.39	266.02	8.44	
2025-01-17 03:24:07.41	265.89	8.37	
2025-01-17 03:24:08.42	265.76	8.31	
2025-01-17 03:24:09.44	265.63	8.24	
2025-01-17 03:24:10.45	265.50	8.17	
2025-01-17 03:24:11.47	265.37	8.11	
2025-01-17 03:24:12.49	265.24	8.04	
2025-01-17 03:24:13.50	265.12	7.98	
2025-01-17 03:24:14.52	264.99	7.91	
2025-01-17 03:24:15.53	264.86	7.85	
2025-01-17 03:24:16.55	264.74	7.78	
2025-01-17 03:24:17.56	264.61	7.72	
2025-01-17 03:24:18.58	264.49	7.65	
2025-01-17 03:24:19.59	264.37	7.59	
2025-01-17 03:24:20.61	264.24	7.52	
2025-01-17 03:24:21.62	264.12	7.46	
2025-01-17 03:24:22.64	264.00	7.39	
2025-01-17 03:24:23.65	263.88	7.33	
2025-01-17 03:24:24.67	263.76	7.26	
2025-01-17 03:24:25.69	263.64	7.20	
2025-01-17 03:24:26.70	263.52	7.13	
2025-01-17 03:24:27.72	263.40	7.07	
2025-01-17 03:24:28.73	263.28	7.00	
2025-01-17 03:24:29.75	263.16	6.94	
2025-01-17 03:24:30.76	263.05	6.88	
2025-01-17 03:24:31.78	262.93	6.81	
2025-01-17 03:24:32.79	262.82	6.75	
2025-01-17 03:24:33.81	262.70	6.68	
2025-01-17 03:24:34.82	262.59	6.62	
2025-01-17 03:24:35.84	262.47	6.56	
2025-01-17 03:24:36.86	262.36	6.49	
2025-01-17 03:24:37.87	262.24	6.43	
2025-01-17 03:24:38.89	262.13	6.36	
2025-01-17 03:24:39.90	262.02	6.30	
2025-01-17 03:24:40.92	261.91	6.24	
2025-01-17 03:24:41.93	261.80	6.17	
2025-01-17 03:24:42.95	261.69	6.11	
2025-01-17 03:24:43.96	261.58	6.05	
2025-01-17 03:24:44.98	261.47	5.98	
2025-01-17 03:24:45.99	261.36	5.92	
2025-01-17 03:24:47.01	261.25	5.86	
2025-01-17 03:24:48.03	261.14	5.79	
2025-01-17 03:24:49.04	261.04	5.73	
2025-01-17 03:24:50.06	260.93	5.67	
2025-01-17 03:24:51.07	260.82	5.61	
2025-01-17 03:24:52.09	260.72	5.54	
2025-01-17 03:24:53.10	260.61	5.48	
2025-01-17 03:24:54.12	260.51	5.42	
2025-01-17 03:24:55.13	260.40	5.36	
2025-01-17 03:24:56.15	260.30	5.29	
2025-01-17 03:24:57.16	260.20	5.23	
2025-01-17 03:24:58.18	260.10	5.17	
2025-01-17 03:24:59.19	259.99	5.11	
2025-01-17 03:25:00.23	259.89	5.04	
2025-01-17 03:25:01.24	259.79	4.98	
2025-01-17 03:25:02.26	259.69	4.92	
2025-01-17 03:25:03.27	259.59	4.86	
2025-01-17 03:25:04.29	259.49	4.80	
2025-01-17 03:25:05.30	259.39	4.73	
2025-01-17 03:25:06.32	259.29	4.67	
2025-01-17 03:25:07.33	259.19	4.61	
2025-01-17 03:25:08.35	259.09	4.55	
2025-01-17 03:25:09.36	259.00	4.49	
2025-01-17 03:25:10.38	258.90	4.43	
2025-01-17 03:25:11.40	258.80	4.37	
2025-01-17 03:25:12.41	258.71	4.31	
2025-01-17 03:25:13.43	258.61	4.24	
2025-01-17 03:25:14.44	258.52	4.18	
2025-01-17 03:25:15.46	258.42	4.12	
2025-01-17 03:25:16.47	258.33	4.06	
2025-01-17 03:25:17.49	258.23	4.00	

#Closed at: 2025-01-17 03:25:17