passes_logs/2025/01/17/SPB_Silybum_02/SPB_Silybum_02__20250117_061355_SUOMI_NPP_rec.log

#Pass ID: 20250117_061355_SUOMI NPP
#Satellite: SUOMI NPP
#Configuration: NPP
#Start time: 2025-01-17 06:13:55

#Version: 2.0.20230423
#Station: SPB_Silybum_02
#Location: 30.233357 lon 59.946436 lat
#TLE: 1 37849U 11061A   25016.82296503  .00000177  00000+0  10458-3 0  9994
#TLE: 2 37849  98.7449 317.7884 0001611  38.3630 321.7660 14.19539095685172

#Time	Az	El	Level	Level2	SNR	BER	Gain	Gain2
2025-01-17 06:13:57.92	45.49	4.10	
2025-01-17 06:13:58.73	45.39	4.13	
2025-01-17 06:13:59.54	45.29	4.16	
2025-01-17 06:14:00.36	45.19	4.19	
2025-01-17 06:14:01.17	45.09	4.22	
2025-01-17 06:14:01.98	44.98	4.24	
2025-01-17 06:14:02.79	44.88	4.27	
2025-01-17 06:14:03.61	44.78	4.30	
2025-01-17 06:14:04.42	44.67	4.33	
2025-01-17 06:14:05.23	44.57	4.36	
2025-01-17 06:14:06.04	44.47	4.39	
2025-01-17 06:14:06.85	44.37	4.42	
2025-01-17 06:14:07.67	44.26	4.45	
2025-01-17 06:14:08.48	44.16	4.47	
2025-01-17 06:14:09.29	44.05	4.50	
2025-01-17 06:14:10.10	43.95	4.53	
2025-01-17 06:14:10.92	43.84	4.56	
2025-01-17 06:14:11.73	43.74	4.59	
2025-01-17 06:14:12.54	43.63	4.62	
2025-01-17 06:14:13.35	43.53	4.64	
2025-01-17 06:14:14.17	43.42	4.67	
2025-01-17 06:14:14.98	43.32	4.70	
2025-01-17 06:14:15.79	43.21	4.73	
2025-01-17 06:14:16.60	43.10	4.76	
2025-01-17 06:14:17.41	43.00	4.78	
2025-01-17 06:14:18.23	42.89	4.81	
2025-01-17 06:14:19.04	42.78	4.84	
2025-01-17 06:14:19.85	42.68	4.87	
2025-01-17 06:14:20.66	42.57	4.89	
2025-01-17 06:14:21.48	42.46	4.92	
2025-01-17 06:14:22.29	42.36	4.95	
2025-01-17 06:14:23.10	42.25	4.98	
2025-01-17 06:14:23.91	42.14	5.00	
2025-01-17 06:14:24.73	42.03	5.03	
2025-01-17 06:14:25.54	41.92	5.06	
2025-01-17 06:14:26.35	41.81	5.09	
2025-01-17 06:14:27.16	41.71	5.11	
2025-01-17 06:14:27.97	41.60	5.14	
2025-01-17 06:14:28.79	41.49	5.17	
2025-01-17 06:14:29.60	41.38	5.19	
2025-01-17 06:14:30.41	41.27	5.22	
2025-01-17 06:14:31.22	41.16	5.25	
2025-01-17 06:14:32.04	41.05	5.28	
2025-01-17 06:14:32.85	40.94	5.30	
2025-01-17 06:14:33.66	40.83	5.33	
2025-01-17 06:14:34.47	40.72	5.35	
2025-01-17 06:14:35.28	40.61	5.38	
2025-01-17 06:14:36.10	40.49	5.41	
2025-01-17 06:14:36.91	40.38	5.43	
2025-01-17 06:14:37.72	40.27	5.46	
2025-01-17 06:14:38.53	40.16	5.49	
2025-01-17 06:14:39.35	40.05	5.51	
2025-01-17 06:14:40.16	39.94	5.54	
2025-01-17 06:14:40.97	39.82	5.56	
2025-01-17 06:14:41.78	39.71	5.59	
2025-01-17 06:14:42.60	39.60	5.62	
2025-01-17 06:14:43.41	39.48	5.64	
2025-01-17 06:14:44.22	39.37	5.67	
2025-01-17 06:14:45.03	39.26	5.69	
2025-01-17 06:14:45.84	39.15	5.72	
2025-01-17 06:14:46.66	39.03	5.74	
2025-01-17 06:14:47.47	38.92	5.77	
2025-01-17 06:14:48.29	38.80	5.79	
2025-01-17 06:14:49.10	38.69	5.82	
2025-01-17 06:14:49.91	38.57	5.84	
2025-01-17 06:14:50.73	38.46	5.87	
2025-01-17 06:14:51.54	38.34	5.89	
2025-01-17 06:14:52.35	38.23	5.92	
2025-01-17 06:14:53.16	38.11	5.94	
2025-01-17 06:14:53.97	38.00	5.97	
2025-01-17 06:14:54.79	37.88	5.99	
2025-01-17 06:14:55.60	37.77	6.02	
2025-01-17 06:14:56.41	37.65	6.04	
2025-01-17 06:14:57.22	37.53	6.06	
2025-01-17 06:14:58.04	37.42	6.09	
2025-01-17 06:14:58.85	37.30	6.11	
2025-01-17 06:14:59.66	37.18	6.14	
2025-01-17 06:15:00.47	37.07	6.16	
2025-01-17 06:15:01.29	36.95	6.18	
2025-01-17 06:15:02.10	36.83	6.21	
2025-01-17 06:15:02.91	36.71	6.23	
2025-01-17 06:15:03.72	36.60	6.26	
2025-01-17 06:15:04.53	36.48	6.28	
2025-01-17 06:15:05.35	36.36	6.30	
2025-01-17 06:15:06.16	36.24	6.33	
2025-01-17 06:15:06.97	36.12	6.35	
2025-01-17 06:15:07.78	36.00	6.37	
2025-01-17 06:15:08.60	35.88	6.39	
2025-01-17 06:15:09.41	35.76	6.42	
2025-01-17 06:15:10.22	35.65	6.44	
2025-01-17 06:15:11.03	35.53	6.46	
2025-01-17 06:15:11.85	35.41	6.49	
2025-01-17 06:15:12.66	35.29	6.51	
2025-01-17 06:15:13.47	35.17	6.53	
2025-01-17 06:15:14.28	35.05	6.55	
2025-01-17 06:15:15.09	34.93	6.57	
2025-01-17 06:15:15.91	34.80	6.60	
2025-01-17 06:15:16.72	34.68	6.62	
2025-01-17 06:15:17.53	34.56	6.64	
2025-01-17 06:15:18.34	34.44	6.66	
2025-01-17 06:15:19.16	34.32	6.68	
2025-01-17 06:15:19.97	34.20	6.71	
2025-01-17 06:15:20.78	34.08	6.73	
2025-01-17 06:15:21.59	33.95	6.75	
2025-01-17 06:15:22.41	33.83	6.77	
2025-01-17 06:15:23.22	33.71	6.79	
2025-01-17 06:15:24.03	33.59	6.81	
2025-01-17 06:15:24.84	33.46	6.83	
2025-01-17 06:15:25.65	33.34	6.85	
2025-01-17 06:15:26.47	33.22	6.87	
2025-01-17 06:15:27.28	33.09	6.90	
2025-01-17 06:15:28.09	32.97	6.92	
2025-01-17 06:15:28.90	32.85	6.94	
2025-01-17 06:15:29.72	32.72	6.96	
2025-01-17 06:15:30.53	32.60	6.98	
2025-01-17 06:15:31.34	32.48	7.00	
2025-01-17 06:15:32.15	32.35	7.02	
2025-01-17 06:15:32.96	32.23	7.04	
2025-01-17 06:15:33.78	32.10	7.06	
2025-01-17 06:15:34.59	31.98	7.08	
2025-01-17 06:15:35.40	31.85	7.10	
2025-01-17 06:15:36.21	31.73	7.11	
2025-01-17 06:15:37.03	31.60	7.13	
2025-01-17 06:15:37.84	31.48	7.15	
2025-01-17 06:15:38.65	31.35	7.17	
2025-01-17 06:15:39.46	31.23	7.19	
2025-01-17 06:15:40.28	31.10	7.21	
2025-01-17 06:15:41.09	30.97	7.23	
2025-01-17 06:15:41.90	30.85	7.25	
2025-01-17 06:15:42.71	30.72	7.27	
2025-01-17 06:15:43.52	30.59	7.28	
2025-01-17 06:15:44.34	30.47	7.30	
2025-01-17 06:15:45.15	30.34	7.32	
2025-01-17 06:15:45.96	30.21	7.34	
2025-01-17 06:15:46.77	30.08	7.36	
2025-01-17 06:15:47.59	29.96	7.37	
2025-01-17 06:15:48.40	29.83	7.39	
2025-01-17 06:15:49.21	29.70	7.41	
2025-01-17 06:15:50.02	29.57	7.43	
2025-01-17 06:15:50.84	29.44	7.44	
2025-01-17 06:15:51.65	29.32	7.46	
2025-01-17 06:15:52.46	29.19	7.48	
2025-01-17 06:15:53.27	29.06	7.50	
2025-01-17 06:15:54.08	28.93	7.51	
2025-01-17 06:15:54.90	28.80	7.53	
2025-01-17 06:15:55.71	28.67	7.55	
2025-01-17 06:15:56.52	28.54	7.56	
2025-01-17 06:15:57.33	28.42	7.58	
2025-01-17 06:15:58.15	28.29	7.59	
2025-01-17 06:15:58.96	28.16	7.61	
2025-01-17 06:15:59.77	28.03	7.63	
2025-01-17 06:16:00.58	27.90	7.64	
2025-01-17 06:16:01.40	27.77	7.66	
2025-01-17 06:16:02.21	27.64	7.67	
2025-01-17 06:16:03.02	27.51	7.69	
2025-01-17 06:16:03.83	27.38	7.70	
2025-01-17 06:16:04.64	27.25	7.72	
2025-01-17 06:16:05.46	27.11	7.73	
2025-01-17 06:16:06.27	26.98	7.75	
2025-01-17 06:16:07.08	26.85	7.76	
2025-01-17 06:16:07.89	26.72	7.78	
2025-01-17 06:16:08.71	26.59	7.79	
2025-01-17 06:16:09.52	26.46	7.81	
2025-01-17 06:16:10.33	26.33	7.82	
2025-01-17 06:16:11.15	26.19	7.84	
2025-01-17 06:16:11.96	26.06	7.85	
2025-01-17 06:16:12.78	25.93	7.86	
2025-01-17 06:16:13.59	25.80	7.88	
2025-01-17 06:16:14.40	25.67	7.89	
2025-01-17 06:16:15.21	25.53	7.90	
2025-01-17 06:16:16.03	25.40	7.92	
2025-01-17 06:16:16.84	25.27	7.93	
2025-01-17 06:16:17.65	25.14	7.94	
2025-01-17 06:16:18.46	25.00	7.96	
2025-01-17 06:16:19.27	24.87	7.97	
2025-01-17 06:16:20.09	24.74	7.98	
2025-01-17 06:16:20.90	24.60	7.99	
2025-01-17 06:16:21.71	24.47	8.01	
2025-01-17 06:16:22.52	24.34	8.02	
2025-01-17 06:16:23.34	24.20	8.03	
2025-01-17 06:16:24.15	24.07	8.04	
2025-01-17 06:16:24.96	23.94	8.05	
2025-01-17 06:16:25.77	23.80	8.06	
2025-01-17 06:16:26.59	23.67	8.08	
2025-01-17 06:16:27.40	23.54	8.09	
2025-01-17 06:16:28.21	23.40	8.10	
2025-01-17 06:16:29.02	23.27	8.11	
2025-01-17 06:16:29.83	23.13	8.12	
2025-01-17 06:16:30.65	23.00	8.13	
2025-01-17 06:16:31.46	22.86	8.14	
2025-01-17 06:16:32.27	22.73	8.15	
2025-01-17 06:16:33.08	22.60	8.16	
2025-01-17 06:16:33.90	22.46	8.17	
2025-01-17 06:16:34.71	22.32	8.18	
2025-01-17 06:16:35.52	22.19	8.19	
2025-01-17 06:16:36.33	22.06	8.20	
2025-01-17 06:16:37.15	21.92	8.21	
2025-01-17 06:16:37.96	21.78	8.22	
2025-01-17 06:16:38.77	21.65	8.23	
2025-01-17 06:16:39.58	21.51	8.24	
2025-01-17 06:16:40.39	21.38	8.25	
2025-01-17 06:16:41.21	21.24	8.26	
2025-01-17 06:16:42.02	21.11	8.27	
2025-01-17 06:16:42.83	20.97	8.27	
2025-01-17 06:16:43.64	20.84	8.28	
2025-01-17 06:16:44.46	20.70	8.29	
2025-01-17 06:16:45.27	20.56	8.30	
2025-01-17 06:16:46.08	20.43	8.31	
2025-01-17 06:16:46.89	20.29	8.31	
2025-01-17 06:16:47.71	20.15	8.32	
2025-01-17 06:16:48.52	20.02	8.33	
2025-01-17 06:16:49.33	19.88	8.34	
2025-01-17 06:16:50.14	19.75	8.34	
2025-01-17 06:16:50.95	19.61	8.35	
2025-01-17 06:16:51.77	19.47	8.36	
2025-01-17 06:16:52.58	19.34	8.36	
2025-01-17 06:16:53.39	19.20	8.37	
2025-01-17 06:16:54.20	19.06	8.38	
2025-01-17 06:16:55.02	18.93	8.38	
2025-01-17 06:16:55.83	18.79	8.39	
2025-01-17 06:16:56.64	18.65	8.40	
2025-01-17 06:16:57.45	18.52	8.40	
2025-01-17 06:16:58.26	18.38	8.41	
2025-01-17 06:16:59.08	18.24	8.41	
2025-01-17 06:16:59.89	18.10	8.42	
2025-01-17 06:17:00.70	17.97	8.42	
2025-01-17 06:17:01.51	17.83	8.43	
2025-01-17 06:17:02.33	17.69	8.43	
2025-01-17 06:17:03.14	17.56	8.44	
2025-01-17 06:17:03.95	17.42	8.44	
2025-01-17 06:17:04.76	17.28	8.45	
2025-01-17 06:17:05.58	17.14	8.45	
2025-01-17 06:17:06.39	17.01	8.46	
2025-01-17 06:17:07.20	16.87	8.46	
2025-01-17 06:17:08.01	16.73	8.46	
2025-01-17 06:17:08.82	16.59	8.47	
2025-01-17 06:17:09.64	16.46	8.47	
2025-01-17 06:17:10.45	16.32	8.47	
2025-01-17 06:17:11.26	16.18	8.48	
2025-01-17 06:17:12.07	16.04	8.48	
2025-01-17 06:17:12.89	15.90	8.48	
2025-01-17 06:17:13.70	15.77	8.48	
2025-01-17 06:17:14.51	15.63	8.49	
2025-01-17 06:17:15.32	15.49	8.49	
2025-01-17 06:17:16.14	15.35	8.49	
2025-01-17 06:17:16.95	15.22	8.49	
2025-01-17 06:17:17.76	15.08	8.50	
2025-01-17 06:17:18.57	14.94	8.50	
2025-01-17 06:17:19.38	14.80	8.50	
2025-01-17 06:17:20.20	14.66	8.50	
2025-01-17 06:17:21.01	14.53	8.50	
2025-01-17 06:17:21.82	14.39	8.50	
2025-01-17 06:17:22.63	14.25	8.50	
2025-01-17 06:17:23.45	14.11	8.50	
2025-01-17 06:17:24.26	13.98	8.51	
2025-01-17 06:17:25.07	13.84	8.51	
2025-01-17 06:17:25.88	13.70	8.51	
2025-01-17 06:17:26.70	13.56	8.51	
2025-01-17 06:17:27.51	13.42	8.51	
2025-01-17 06:17:28.32	13.29	8.51	
2025-01-17 06:17:29.13	13.15	8.51	
2025-01-17 06:17:29.94	13.01	8.51	
2025-01-17 06:17:30.76	12.87	8.50	
2025-01-17 06:17:31.57	12.73	8.50	
2025-01-17 06:17:32.38	12.60	8.50	
2025-01-17 06:17:33.19	12.46	8.50	
2025-01-17 06:17:34.01	12.32	8.50	
2025-01-17 06:17:34.82	12.18	8.50	
2025-01-17 06:17:35.63	12.04	8.50	
2025-01-17 06:17:36.44	11.91	8.50	
2025-01-17 06:17:37.26	11.77	8.49	
2025-01-17 06:17:38.07	11.63	8.49	
2025-01-17 06:17:38.88	11.49	8.49	
2025-01-17 06:17:39.69	11.36	8.49	
2025-01-17 06:17:40.50	11.22	8.48	
2025-01-17 06:17:41.32	11.08	8.48	
2025-01-17 06:17:42.13	10.94	8.48	
2025-01-17 06:17:42.94	10.80	8.48	
2025-01-17 06:17:43.76	10.67	8.47	
2025-01-17 06:17:44.57	10.53	8.47	
2025-01-17 06:17:45.38	10.39	8.47	
2025-01-17 06:17:46.19	10.25	8.46	
2025-01-17 06:17:47.00	10.12	8.46	
2025-01-17 06:17:47.82	9.98	8.46	
2025-01-17 06:17:48.63	9.84	8.45	
2025-01-17 06:17:49.44	9.70	8.45	
2025-01-17 06:17:50.25	9.57	8.44	
2025-01-17 06:17:51.07	9.43	8.44	
2025-01-17 06:17:51.88	9.29	8.43	
2025-01-17 06:17:52.69	9.15	8.43	
2025-01-17 06:17:53.50	9.02	8.42	
2025-01-17 06:17:54.32	8.88	8.42	
2025-01-17 06:17:55.13	8.74	8.41	
2025-01-17 06:17:55.94	8.61	8.41	
2025-01-17 06:17:56.75	8.47	8.40	
2025-01-17 06:17:57.56	8.33	8.40	
2025-01-17 06:17:58.38	8.20	8.39	
2025-01-17 06:17:59.19	8.06	8.38	
2025-01-17 06:18:00.00	7.92	8.38	
2025-01-17 06:18:00.81	7.79	8.37	
2025-01-17 06:18:01.63	7.65	8.36	
2025-01-17 06:18:02.44	7.51	8.36	
2025-01-17 06:18:03.25	7.38	8.35	
2025-01-17 06:18:04.06	7.24	8.34	
2025-01-17 06:18:04.88	7.10	8.34	
2025-01-17 06:18:05.69	6.97	8.33	
2025-01-17 06:18:06.50	6.83	8.32	
2025-01-17 06:18:07.31	6.69	8.32	
2025-01-17 06:18:08.12	6.56	8.31	
2025-01-17 06:18:08.94	6.42	8.30	
2025-01-17 06:18:09.75	6.29	8.29	
2025-01-17 06:18:10.56	6.15	8.28	
2025-01-17 06:18:11.37	6.02	8.27	
2025-01-17 06:18:12.19	5.88	8.27	
2025-01-17 06:18:13.00	5.74	8.26	
2025-01-17 06:18:13.81	5.61	8.25	
2025-01-17 06:18:14.62	5.47	8.24	
2025-01-17 06:18:15.44	5.34	8.23	
2025-01-17 06:18:16.25	5.20	8.22	
2025-01-17 06:18:17.06	5.07	8.21	
2025-01-17 06:18:17.87	4.93	8.20	
2025-01-17 06:18:18.68	4.80	8.19	
2025-01-17 06:18:19.50	4.66	8.18	
2025-01-17 06:18:20.31	4.53	8.17	
2025-01-17 06:18:21.12	4.39	8.16	
2025-01-17 06:18:21.93	4.26	8.15	
2025-01-17 06:18:22.75	4.12	8.14	
2025-01-17 06:18:23.56	3.99	8.13	
2025-01-17 06:18:24.37	3.86	8.12	
2025-01-17 06:18:25.18	3.72	8.11	
2025-01-17 06:18:26.00	3.59	8.10	
2025-01-17 06:18:26.81	3.45	8.09	
2025-01-17 06:18:27.62	3.32	8.08	
2025-01-17 06:18:28.43	3.19	8.07	
2025-01-17 06:18:29.24	3.05	8.05	
2025-01-17 06:18:30.06	2.92	8.04	
2025-01-17 06:18:30.87	2.78	8.03	
2025-01-17 06:18:31.68	2.65	8.02	
2025-01-17 06:18:32.49	2.52	8.01	
2025-01-17 06:18:33.31	2.38	7.99	
2025-01-17 06:18:34.12	2.25	7.98	
2025-01-17 06:18:34.93	2.12	7.97	
2025-01-17 06:18:35.74	1.99	7.96	
2025-01-17 06:18:36.55	1.85	7.94	
2025-01-17 06:18:37.37	1.72	7.93	
2025-01-17 06:18:38.18	1.59	7.92	
2025-01-17 06:18:38.99	1.46	7.90	
2025-01-17 06:18:39.80	1.32	7.89	
2025-01-17 06:18:40.62	1.19	7.88	
2025-01-17 06:18:41.43	1.06	7.86	
2025-01-17 06:18:42.24	0.93	7.85	
2025-01-17 06:18:43.05	0.80	7.84	
2025-01-17 06:18:43.87	0.66	7.82	
2025-01-17 06:18:44.68	0.53	7.81	
2025-01-17 06:18:45.49	0.40	7.79	
2025-01-17 06:18:46.30	0.27	7.78	
2025-01-17 06:18:47.11	0.14	7.76	
2025-01-17 06:18:47.93	0.01	7.75	
2025-01-17 06:18:48.74	359.88	7.73	
2025-01-17 06:18:49.55	359.75	7.72	
2025-01-17 06:18:50.36	359.62	7.70	
2025-01-17 06:18:51.18	359.49	7.69	
2025-01-17 06:18:51.99	359.36	7.67	
2025-01-17 06:18:52.80	359.23	7.66	
2025-01-17 06:18:53.61	359.10	7.64	
2025-01-17 06:18:54.43	358.97	7.63	
2025-01-17 06:18:55.24	358.84	7.61	
2025-01-17 06:18:56.05	358.71	7.60	
2025-01-17 06:18:56.86	358.58	7.58	
2025-01-17 06:18:57.67	358.45	7.56	
2025-01-17 06:18:58.49	358.32	7.55	
2025-01-17 06:18:59.30	358.19	7.53	
2025-01-17 06:19:00.11	358.06	7.51	
2025-01-17 06:19:00.92	357.94	7.50	
2025-01-17 06:19:01.74	357.81	7.48	
2025-01-17 06:19:02.55	357.68	7.46	
2025-01-17 06:19:03.36	357.55	7.45	
2025-01-17 06:19:04.17	357.42	7.43	
2025-01-17 06:19:04.99	357.29	7.41	
2025-01-17 06:19:05.80	357.17	7.39	
2025-01-17 06:19:06.61	357.04	7.38	
2025-01-17 06:19:07.42	356.91	7.36	
2025-01-17 06:19:08.23	356.79	7.34	
2025-01-17 06:19:09.05	356.66	7.32	
2025-01-17 06:19:09.86	356.53	7.30	
2025-01-17 06:19:10.67	356.40	7.29	
2025-01-17 06:19:11.48	356.28	7.27	
2025-01-17 06:19:12.30	356.15	7.25	
2025-01-17 06:19:13.11	356.02	7.23	
2025-01-17 06:19:13.92	355.90	7.21	
2025-01-17 06:19:14.73	355.77	7.19	
2025-01-17 06:19:15.55	355.65	7.17	
2025-01-17 06:19:16.36	355.52	7.15	
2025-01-17 06:19:17.17	355.40	7.14	
2025-01-17 06:19:17.98	355.27	7.12	
2025-01-17 06:19:18.79	355.15	7.10	
2025-01-17 06:19:19.61	355.02	7.08	
2025-01-17 06:19:20.42	354.90	7.06	
2025-01-17 06:19:21.23	354.77	7.04	
2025-01-17 06:19:22.04	354.65	7.02	
2025-01-17 06:19:22.86	354.52	7.00	
2025-01-17 06:19:23.67	354.40	6.98	
2025-01-17 06:19:24.48	354.28	6.96	
2025-01-17 06:19:25.29	354.15	6.94	
2025-01-17 06:19:26.10	354.03	6.92	
2025-01-17 06:19:26.92	353.90	6.90	
2025-01-17 06:19:27.73	353.78	6.88	
2025-01-17 06:19:28.54	353.66	6.86	
2025-01-17 06:19:29.35	353.54	6.84	
2025-01-17 06:19:30.17	353.41	6.81	
2025-01-17 06:19:30.98	353.29	6.79	
2025-01-17 06:19:31.79	353.17	6.77	
2025-01-17 06:19:32.60	353.05	6.75	
2025-01-17 06:19:33.42	352.92	6.73	
2025-01-17 06:19:34.23	352.80	6.71	
2025-01-17 06:19:35.04	352.68	6.69	
2025-01-17 06:19:35.85	352.56	6.66	
2025-01-17 06:19:36.66	352.44	6.64	
2025-01-17 06:19:37.48	352.32	6.62	
2025-01-17 06:19:38.29	352.20	6.60	
2025-01-17 06:19:39.10	352.08	6.58	
2025-01-17 06:19:39.91	351.96	6.55	
2025-01-17 06:19:40.73	351.84	6.53	
2025-01-17 06:19:41.54	351.72	6.51	
2025-01-17 06:19:42.35	351.60	6.49	
2025-01-17 06:19:43.16	351.48	6.47	
2025-01-17 06:19:43.98	351.36	6.44	
2025-01-17 06:19:44.79	351.24	6.42	
2025-01-17 06:19:45.60	351.12	6.40	
2025-01-17 06:19:46.41	351.00	6.37	
2025-01-17 06:19:47.22	350.88	6.35	
2025-01-17 06:19:48.04	350.76	6.33	
2025-01-17 06:19:48.85	350.65	6.30	
2025-01-17 06:19:49.66	350.53	6.28	
2025-01-17 06:19:50.47	350.41	6.26	
2025-01-17 06:19:51.29	350.29	6.23	
2025-01-17 06:19:52.10	350.17	6.21	
2025-01-17 06:19:52.91	350.06	6.19	
2025-01-17 06:19:53.72	349.94	6.16	
2025-01-17 06:19:54.54	349.82	6.14	
2025-01-17 06:19:55.35	349.71	6.12	
2025-01-17 06:19:56.16	349.59	6.09	
2025-01-17 06:19:56.97	349.47	6.07	
2025-01-17 06:19:57.78	349.36	6.04	
2025-01-17 06:19:58.60	349.24	6.02	
2025-01-17 06:19:59.41	349.13	5.99	
2025-01-17 06:20:00.22	349.01	5.97	
2025-01-17 06:20:01.03	348.90	5.95	
2025-01-17 06:20:01.85	348.78	5.92	
2025-01-17 06:20:02.66	348.66	5.90	
2025-01-17 06:20:03.47	348.55	5.87	
2025-01-17 06:20:04.28	348.44	5.85	
2025-01-17 06:20:05.09	348.32	5.82	
2025-01-17 06:20:05.91	348.21	5.80	
2025-01-17 06:20:06.72	348.09	5.77	
2025-01-17 06:20:07.53	347.98	5.75	
2025-01-17 06:20:08.34	347.87	5.72	
2025-01-17 06:20:09.16	347.75	5.70	
2025-01-17 06:20:09.97	347.64	5.67	
2025-01-17 06:20:10.78	347.53	5.64	
2025-01-17 06:20:11.59	347.41	5.62	
2025-01-17 06:20:12.41	347.30	5.59	
2025-01-17 06:20:13.22	347.19	5.57	
2025-01-17 06:20:14.03	347.08	5.54	
2025-01-17 06:20:14.84	346.97	5.52	
2025-01-17 06:20:15.65	346.85	5.49	
2025-01-17 06:20:16.47	346.74	5.46	
2025-01-17 06:20:17.28	346.63	5.44	
2025-01-17 06:20:18.09	346.52	5.41	
2025-01-17 06:20:18.90	346.41	5.38	
2025-01-17 06:20:19.72	346.30	5.36	
2025-01-17 06:20:20.53	346.19	5.33	
2025-01-17 06:20:21.34	346.08	5.31	
2025-01-17 06:20:22.15	345.97	5.28	
2025-01-17 06:20:22.97	345.86	5.25	
2025-01-17 06:20:23.78	345.75	5.23	
2025-01-17 06:20:24.59	345.64	5.20	
2025-01-17 06:20:25.40	345.53	5.17	
2025-01-17 06:20:26.21	345.42	5.14	
2025-01-17 06:20:27.03	345.31	5.12	
2025-01-17 06:20:27.84	345.20	5.09	
2025-01-17 06:20:28.65	345.09	5.06	
2025-01-17 06:20:29.46	344.99	5.04	
2025-01-17 06:20:30.28	344.88	5.01	
2025-01-17 06:20:31.09	344.77	4.98	
2025-01-17 06:20:31.90	344.66	4.95	
2025-01-17 06:20:32.71	344.55	4.93	
2025-01-17 06:20:33.53	344.45	4.90	
2025-01-17 06:20:34.34	344.34	4.87	
2025-01-17 06:20:35.15	344.23	4.84	
2025-01-17 06:20:35.96	344.13	4.82	
2025-01-17 06:20:36.77	344.02	4.79	
2025-01-17 06:20:37.59	343.91	4.76	
2025-01-17 06:20:38.40	343.81	4.73	
2025-01-17 06:20:39.21	343.70	4.70	
2025-01-17 06:20:40.02	343.60	4.68	
2025-01-17 06:20:40.84	343.49	4.65	
2025-01-17 06:20:41.65	343.39	4.62	
2025-01-17 06:20:42.46	343.28	4.59	
2025-01-17 06:20:43.27	343.18	4.56	
2025-01-17 06:20:44.09	343.07	4.54	
2025-01-17 06:20:44.90	342.97	4.51	
2025-01-17 06:20:45.71	342.86	4.48	
2025-01-17 06:20:46.52	342.76	4.45	
2025-01-17 06:20:47.33	342.66	4.42	
2025-01-17 06:20:48.15	342.55	4.39	
2025-01-17 06:20:48.96	342.45	4.36	
2025-01-17 06:20:49.77	342.35	4.34	
2025-01-17 06:20:50.58	342.24	4.31	
2025-01-17 06:20:51.40	342.14	4.28	
2025-01-17 06:20:52.21	342.04	4.25	
2025-01-17 06:20:53.02	341.94	4.22	
2025-01-17 06:20:53.83	341.84	4.19	
2025-01-17 06:20:54.64	341.73	4.16	
2025-01-17 06:20:55.46	341.63	4.13	
2025-01-17 06:20:56.27	341.53	4.10	
2025-01-17 06:20:57.08	341.43	4.07	
2025-01-17 06:20:57.89	341.33	4.05	
2025-01-17 06:20:58.71	341.23	4.02	

#Closed at: 2025-01-17 06:20:59