passes_logs/2025/01/17/SPB_Silybum_02/SPB_Silybum_02__20250117_203501_TERRA_rec.log

#Pass ID: 20250117_203501_TERRA
#Satellite: TERRA
#Configuration: TERRA
#Start time: 2025-01-17 20:35:01

#Version: 2.0.20230423
#Station: SPB_Silybum_02
#Location: 30.233357 lon 59.946436 lat
#TLE: 1 25994U 99068A   25016.77398677  .00000840  00000+0  18282-3 0  9994
#TLE: 2 25994  98.0212  79.7479 0003409  69.0484  40.6664 14.60398530334334

#Time	Az	El	Level	Level2	SNR	BER	Gain	Gain2
2025-01-17 20:35:03.29	230.83	4.11	
2025-01-17 20:35:04.30	230.95	4.16	
2025-01-17 20:35:05.32	231.07	4.21	
2025-01-17 20:35:06.34	231.19	4.26	
2025-01-17 20:35:07.35	231.32	4.31	
2025-01-17 20:35:08.37	231.44	4.37	
2025-01-17 20:35:09.38	231.56	4.42	
2025-01-17 20:35:10.40	231.69	4.47	
2025-01-17 20:35:11.41	231.81	4.52	
2025-01-17 20:35:12.43	231.94	4.57	
2025-01-17 20:35:13.44	232.06	4.62	
2025-01-17 20:35:14.46	232.19	4.67	
2025-01-17 20:35:15.48	232.31	4.72	
2025-01-17 20:35:16.49	232.44	4.78	
2025-01-17 20:35:17.51	232.57	4.83	
2025-01-17 20:35:18.52	232.69	4.88	
2025-01-17 20:35:19.54	232.82	4.93	
2025-01-17 20:35:20.55	232.95	4.98	
2025-01-17 20:35:21.57	233.08	5.03	
2025-01-17 20:35:22.58	233.21	5.08	
2025-01-17 20:35:23.60	233.34	5.13	
2025-01-17 20:35:24.62	233.47	5.18	
2025-01-17 20:35:25.63	233.60	5.24	
2025-01-17 20:35:26.65	233.73	5.29	
2025-01-17 20:35:27.66	233.86	5.34	
2025-01-17 20:35:28.68	234.00	5.39	
2025-01-17 20:35:29.69	234.13	5.44	
2025-01-17 20:35:30.71	234.26	5.49	
2025-01-17 20:35:31.72	234.40	5.54	
2025-01-17 20:35:32.74	234.53	5.59	
2025-01-17 20:35:33.76	234.67	5.64	
2025-01-17 20:35:34.77	234.80	5.70	
2025-01-17 20:35:35.79	234.94	5.75	
2025-01-17 20:35:36.80	235.07	5.80	
2025-01-17 20:35:37.82	235.21	5.85	
2025-01-17 20:35:38.83	235.35	5.90	
2025-01-17 20:35:39.85	235.49	5.95	
2025-01-17 20:35:40.86	235.62	6.00	
2025-01-17 20:35:41.88	235.76	6.05	
2025-01-17 20:35:42.90	235.90	6.10	
2025-01-17 20:35:43.91	236.04	6.15	
2025-01-17 20:35:44.93	236.18	6.21	
2025-01-17 20:35:45.94	236.32	6.26	
2025-01-17 20:35:46.96	236.46	6.31	
2025-01-17 20:35:47.97	236.61	6.36	
2025-01-17 20:35:48.99	236.75	6.41	
2025-01-17 20:35:50.00	236.89	6.46	
2025-01-17 20:35:51.02	237.04	6.51	
2025-01-17 20:35:52.04	237.18	6.56	
2025-01-17 20:35:53.05	237.32	6.61	
2025-01-17 20:35:54.07	237.47	6.66	
2025-01-17 20:35:55.08	237.61	6.71	
2025-01-17 20:35:56.10	237.76	6.76	
2025-01-17 20:35:57.11	237.91	6.81	
2025-01-17 20:35:58.13	238.06	6.86	
2025-01-17 20:35:59.14	238.20	6.91	
2025-01-17 20:36:00.16	238.35	6.96	
2025-01-17 20:36:01.18	238.50	7.01	
2025-01-17 20:36:02.19	238.65	7.06	
2025-01-17 20:36:03.21	238.80	7.12	
2025-01-17 20:36:04.22	238.95	7.16	
2025-01-17 20:36:05.24	239.10	7.22	
2025-01-17 20:36:06.25	239.25	7.27	
2025-01-17 20:36:07.27	239.40	7.32	
2025-01-17 20:36:08.28	239.56	7.36	
2025-01-17 20:36:09.30	239.71	7.42	
2025-01-17 20:36:10.32	239.86	7.47	
2025-01-17 20:36:11.33	240.02	7.51	
2025-01-17 20:36:12.35	240.17	7.56	
2025-01-17 20:36:13.36	240.33	7.61	
2025-01-17 20:36:14.38	240.48	7.66	
2025-01-17 20:36:15.39	240.64	7.71	
2025-01-17 20:36:16.41	240.80	7.76	
2025-01-17 20:36:17.42	240.96	7.81	
2025-01-17 20:36:18.44	241.11	7.86	
2025-01-17 20:36:19.46	241.27	7.91	
2025-01-17 20:36:20.47	241.43	7.96	
2025-01-17 20:36:21.49	241.59	8.01	
2025-01-17 20:36:22.50	241.75	8.06	
2025-01-17 20:36:23.52	241.91	8.11	
2025-01-17 20:36:24.53	242.07	8.16	
2025-01-17 20:36:25.55	242.24	8.20	
2025-01-17 20:36:26.56	242.40	8.25	
2025-01-17 20:36:27.58	242.56	8.30	
2025-01-17 20:36:28.60	242.73	8.35	
2025-01-17 20:36:29.61	242.89	8.40	
2025-01-17 20:36:30.63	243.06	8.45	
2025-01-17 20:36:31.64	243.22	8.50	
2025-01-17 20:36:32.66	243.39	8.54	
2025-01-17 20:36:33.67	243.55	8.59	
2025-01-17 20:36:34.69	243.72	8.64	
2025-01-17 20:36:35.70	243.89	8.69	
2025-01-17 20:36:36.72	244.06	8.74	
2025-01-17 20:36:37.74	244.23	8.78	
2025-01-17 20:36:38.75	244.40	8.83	
2025-01-17 20:36:39.77	244.57	8.88	
2025-01-17 20:36:40.78	244.74	8.93	
2025-01-17 20:36:41.80	244.91	8.97	
2025-01-17 20:36:42.81	245.08	9.02	
2025-01-17 20:36:43.83	245.25	9.07	
2025-01-17 20:36:44.84	245.43	9.11	
2025-01-17 20:36:45.86	245.60	9.16	
2025-01-17 20:36:46.88	245.78	9.21	
2025-01-17 20:36:47.89	245.95	9.25	
2025-01-17 20:36:48.91	246.13	9.30	
2025-01-17 20:36:49.92	246.30	9.35	
2025-01-17 20:36:50.94	246.48	9.39	
2025-01-17 20:36:51.95	246.66	9.44	
2025-01-17 20:36:52.97	246.83	9.48	
2025-01-17 20:36:53.98	247.01	9.53	
2025-01-17 20:36:55.00	247.19	9.58	
2025-01-17 20:36:56.02	247.37	9.62	
2025-01-17 20:36:57.03	247.55	9.67	
2025-01-17 20:36:58.05	247.73	9.71	
2025-01-17 20:36:59.06	247.91	9.76	
2025-01-17 20:37:00.08	248.10	9.80	
2025-01-17 20:37:01.09	248.28	9.85	
2025-01-17 20:37:02.11	248.46	9.89	
2025-01-17 20:37:03.12	248.64	9.94	
2025-01-17 20:37:04.14	248.83	9.98	
2025-01-17 20:37:05.16	249.01	10.02	
2025-01-17 20:37:06.17	249.20	10.07	
2025-01-17 20:37:07.20	249.39	10.11	
2025-01-17 20:37:08.22	249.57	10.16	
2025-01-17 20:37:09.23	249.76	10.20	
2025-01-17 20:37:10.25	249.95	10.24	
2025-01-17 20:37:11.26	250.14	10.29	
2025-01-17 20:37:12.28	250.33	10.33	
2025-01-17 20:37:13.30	250.52	10.37	
2025-01-17 20:37:14.31	250.70	10.41	
2025-01-17 20:37:15.33	250.90	10.46	
2025-01-17 20:37:16.34	251.09	10.50	
2025-01-17 20:37:17.36	251.28	10.54	
2025-01-17 20:37:18.37	251.47	10.58	
2025-01-17 20:37:19.39	251.66	10.62	
2025-01-17 20:37:20.40	251.86	10.67	
2025-01-17 20:37:21.42	252.05	10.71	
2025-01-17 20:37:22.44	252.25	10.75	
2025-01-17 20:37:23.45	252.44	10.79	
2025-01-17 20:37:24.47	252.64	10.83	
2025-01-17 20:37:25.48	252.83	10.87	
2025-01-17 20:37:26.50	253.03	10.91	
2025-01-17 20:37:27.51	253.23	10.95	
2025-01-17 20:37:28.53	253.43	10.99	
2025-01-17 20:37:29.54	253.62	11.03	
2025-01-17 20:37:30.56	253.82	11.07	
2025-01-17 20:37:31.58	254.02	11.11	
2025-01-17 20:37:32.59	254.22	11.15	
2025-01-17 20:37:33.61	254.42	11.19	
2025-01-17 20:37:34.62	254.62	11.22	
2025-01-17 20:37:35.64	254.83	11.26	
2025-01-17 20:37:36.65	255.03	11.30	
2025-01-17 20:37:37.67	255.23	11.34	
2025-01-17 20:37:38.68	255.44	11.37	
2025-01-17 20:37:39.70	255.64	11.41	
2025-01-17 20:37:40.72	255.85	11.45	
2025-01-17 20:37:41.73	256.05	11.49	
2025-01-17 20:37:42.75	256.26	11.52	
2025-01-17 20:37:43.76	256.46	11.56	
2025-01-17 20:37:44.78	256.67	11.59	
2025-01-17 20:37:45.79	256.88	11.63	
2025-01-17 20:37:46.81	257.08	11.67	
2025-01-17 20:37:47.82	257.29	11.70	
2025-01-17 20:37:48.84	257.50	11.74	
2025-01-17 20:37:49.85	257.71	11.77	
2025-01-17 20:37:50.87	257.92	11.80	
2025-01-17 20:37:51.89	258.13	11.84	
2025-01-17 20:37:52.90	258.34	11.87	
2025-01-17 20:37:53.92	258.55	11.91	
2025-01-17 20:37:54.93	258.76	11.94	
2025-01-17 20:37:55.95	258.98	11.97	
2025-01-17 20:37:56.96	259.19	12.00	
2025-01-17 20:37:57.98	259.40	12.04	
2025-01-17 20:37:58.99	259.62	12.07	
2025-01-17 20:38:00.01	259.83	12.10	
2025-01-17 20:38:01.04	260.05	12.13	
2025-01-17 20:38:02.06	260.26	12.16	
2025-01-17 20:38:03.07	260.48	12.19	
2025-01-17 20:38:04.09	260.70	12.23	
2025-01-17 20:38:05.10	260.91	12.26	
2025-01-17 20:38:06.12	261.13	12.29	
2025-01-17 20:38:07.13	261.35	12.31	
2025-01-17 20:38:08.15	261.56	12.34	
2025-01-17 20:38:09.17	261.78	12.37	
2025-01-17 20:38:10.18	262.00	12.40	
2025-01-17 20:38:11.20	262.22	12.43	
2025-01-17 20:38:12.21	262.44	12.46	
2025-01-17 20:38:13.23	262.66	12.49	
2025-01-17 20:38:14.24	262.88	12.51	
2025-01-17 20:38:15.26	263.10	12.54	
2025-01-17 20:38:16.27	263.32	12.57	
2025-01-17 20:38:17.29	263.55	12.59	
2025-01-17 20:38:18.31	263.77	12.62	
2025-01-17 20:38:19.32	263.99	12.64	
2025-01-17 20:38:20.34	264.22	12.67	
2025-01-17 20:38:21.35	264.44	12.70	
2025-01-17 20:38:22.37	264.66	12.72	
2025-01-17 20:38:23.40	264.89	12.74	
2025-01-17 20:38:24.41	265.11	12.77	
2025-01-17 20:38:25.43	265.34	12.79	
2025-01-17 20:38:26.45	265.57	12.81	
2025-01-17 20:38:27.46	265.79	12.84	
2025-01-17 20:38:28.48	266.02	12.86	
2025-01-17 20:38:29.49	266.24	12.88	
2025-01-17 20:38:30.51	266.47	12.90	
2025-01-17 20:38:31.52	266.70	12.93	
2025-01-17 20:38:32.54	266.92	12.95	
2025-01-17 20:38:33.55	267.15	12.97	
2025-01-17 20:38:34.57	267.38	12.99	
2025-01-17 20:38:35.59	267.61	13.01	
2025-01-17 20:38:36.60	267.84	13.03	
2025-01-17 20:38:37.62	268.07	13.05	
2025-01-17 20:38:38.63	268.29	13.06	
2025-01-17 20:38:39.65	268.53	13.08	
2025-01-17 20:38:40.66	268.75	13.10	
2025-01-17 20:38:41.68	268.99	13.12	
2025-01-17 20:38:42.69	269.21	13.13	
2025-01-17 20:38:43.71	269.45	13.15	
2025-01-17 20:38:44.73	269.68	13.17	
2025-01-17 20:38:45.74	269.91	13.18	
2025-01-17 20:38:46.76	270.14	13.20	
2025-01-17 20:38:47.77	270.37	13.21	
2025-01-17 20:38:48.79	270.60	13.23	
2025-01-17 20:38:49.80	270.84	13.24	
2025-01-17 20:38:50.82	271.07	13.26	
2025-01-17 20:38:51.83	271.30	13.27	
2025-01-17 20:38:52.85	271.53	13.28	
2025-01-17 20:38:53.87	271.77	13.30	
2025-01-17 20:38:54.88	272.00	13.31	
2025-01-17 20:38:55.90	272.23	13.32	
2025-01-17 20:38:56.91	272.47	13.33	
2025-01-17 20:38:57.93	272.70	13.34	
2025-01-17 20:38:58.94	272.93	13.35	
2025-01-17 20:38:59.96	273.17	13.36	
2025-01-17 20:39:00.97	273.40	13.37	
2025-01-17 20:39:01.99	273.64	13.38	
2025-01-17 20:39:03.01	273.87	13.39	
2025-01-17 20:39:04.02	274.11	13.40	
2025-01-17 20:39:05.04	274.34	13.41	
2025-01-17 20:39:06.05	274.58	13.42	
2025-01-17 20:39:07.07	274.81	13.43	
2025-01-17 20:39:08.08	275.05	13.43	
2025-01-17 20:39:09.10	275.28	13.44	
2025-01-17 20:39:10.11	275.52	13.44	
2025-01-17 20:39:11.13	275.75	13.45	
2025-01-17 20:39:12.15	275.99	13.46	
2025-01-17 20:39:13.16	276.23	13.46	
2025-01-17 20:39:14.18	276.46	13.46	
2025-01-17 20:39:15.19	276.70	13.47	
2025-01-17 20:39:16.21	276.93	13.47	
2025-01-17 20:39:17.22	277.17	13.48	
2025-01-17 20:39:18.24	277.41	13.48	
2025-01-17 20:39:19.25	277.64	13.48	
2025-01-17 20:39:20.27	277.88	13.48	
2025-01-17 20:39:21.29	278.12	13.48	
2025-01-17 20:39:22.30	278.35	13.48	
2025-01-17 20:39:23.32	278.59	13.49	
2025-01-17 20:39:24.33	278.82	13.49	
2025-01-17 20:39:25.35	279.06	13.49	
2025-01-17 20:39:26.36	279.29	13.48	
2025-01-17 20:39:27.38	279.53	13.48	
2025-01-17 20:39:28.39	279.77	13.48	
2025-01-17 20:39:29.41	280.00	13.48	
2025-01-17 20:39:30.43	280.24	13.48	
2025-01-17 20:39:31.44	280.47	13.47	
2025-01-17 20:39:32.46	280.71	13.47	
2025-01-17 20:39:33.47	280.95	13.47	
2025-01-17 20:39:34.49	281.18	13.46	
2025-01-17 20:39:35.50	281.42	13.46	
2025-01-17 20:39:36.52	281.65	13.45	
2025-01-17 20:39:37.53	281.89	13.45	
2025-01-17 20:39:38.55	282.12	13.44	
2025-01-17 20:39:39.57	282.36	13.44	
2025-01-17 20:39:40.58	282.60	13.43	
2025-01-17 20:39:41.60	282.83	13.42	
2025-01-17 20:39:42.61	283.06	13.42	
2025-01-17 20:39:43.63	283.30	13.41	
2025-01-17 20:39:44.64	283.53	13.40	
2025-01-17 20:39:45.66	283.77	13.39	
2025-01-17 20:39:46.67	284.00	13.38	
2025-01-17 20:39:47.69	284.24	13.37	
2025-01-17 20:39:48.71	284.47	13.36	
2025-01-17 20:39:49.72	284.71	13.35	
2025-01-17 20:39:50.74	284.94	13.34	
2025-01-17 20:39:51.75	285.17	13.33	
2025-01-17 20:39:52.77	285.41	13.32	
2025-01-17 20:39:53.78	285.64	13.31	
2025-01-17 20:39:54.80	285.87	13.29	
2025-01-17 20:39:55.81	286.10	13.28	
2025-01-17 20:39:56.83	286.34	13.27	
2025-01-17 20:39:57.85	286.57	13.25	
2025-01-17 20:39:58.86	286.80	13.24	
2025-01-17 20:39:59.88	287.03	13.23	
2025-01-17 20:40:00.89	287.26	13.21	
2025-01-17 20:40:01.91	287.50	13.20	
2025-01-17 20:40:02.92	287.73	13.18	
2025-01-17 20:40:03.94	287.96	13.16	
2025-01-17 20:40:04.95	288.19	13.15	
2025-01-17 20:40:05.97	288.42	13.13	
2025-01-17 20:40:06.99	288.65	13.11	
2025-01-17 20:40:08.00	288.88	13.10	
2025-01-17 20:40:09.02	289.11	13.08	
2025-01-17 20:40:10.03	289.34	13.06	
2025-01-17 20:40:11.05	289.56	13.04	
2025-01-17 20:40:12.06	289.79	13.02	
2025-01-17 20:40:13.08	290.02	13.00	
2025-01-17 20:40:14.09	290.25	12.98	
2025-01-17 20:40:15.11	290.48	12.96	
2025-01-17 20:40:16.13	290.70	12.94	
2025-01-17 20:40:17.14	290.93	12.92	
2025-01-17 20:40:18.16	291.16	12.90	
2025-01-17 20:40:19.17	291.38	12.88	
2025-01-17 20:40:20.19	291.61	12.86	
2025-01-17 20:40:21.20	291.83	12.83	
2025-01-17 20:40:22.22	292.06	12.81	
2025-01-17 20:40:23.23	292.28	12.79	
2025-01-17 20:40:24.25	292.51	12.76	
2025-01-17 20:40:25.27	292.73	12.74	
2025-01-17 20:40:26.28	292.95	12.72	
2025-01-17 20:40:27.30	293.18	12.69	
2025-01-17 20:40:28.31	293.40	12.67	
2025-01-17 20:40:29.33	293.62	12.64	
2025-01-17 20:40:30.34	293.84	12.62	
2025-01-17 20:40:31.36	294.07	12.59	
2025-01-17 20:40:32.37	294.29	12.56	
2025-01-17 20:40:33.39	294.51	12.54	
2025-01-17 20:40:34.41	294.73	12.51	
2025-01-17 20:40:35.42	294.95	12.48	
2025-01-17 20:40:36.44	295.17	12.45	
2025-01-17 20:40:37.45	295.38	12.43	
2025-01-17 20:40:38.47	295.60	12.40	
2025-01-17 20:40:39.48	295.82	12.37	
2025-01-17 20:40:40.50	296.04	12.34	
2025-01-17 20:40:41.51	296.25	12.31	
2025-01-17 20:40:42.53	296.47	12.28	
2025-01-17 20:40:43.55	296.69	12.25	
2025-01-17 20:40:44.56	296.90	12.22	
2025-01-17 20:40:45.58	297.12	12.19	
2025-01-17 20:40:46.59	297.33	12.16	
2025-01-17 20:40:47.61	297.55	12.13	
2025-01-17 20:40:48.62	297.76	12.10	
2025-01-17 20:40:49.64	297.98	12.07	
2025-01-17 20:40:50.65	298.19	12.04	
2025-01-17 20:40:51.67	298.40	12.00	
2025-01-17 20:40:52.69	298.61	11.97	
2025-01-17 20:40:53.70	298.82	11.94	
2025-01-17 20:40:54.72	299.04	11.90	
2025-01-17 20:40:55.73	299.24	11.87	
2025-01-17 20:40:56.75	299.46	11.84	
2025-01-17 20:40:57.76	299.66	11.80	
2025-01-17 20:40:58.78	299.87	11.77	
2025-01-17 20:40:59.79	300.08	11.74	
2025-01-17 20:41:00.81	300.29	11.70	
2025-01-17 20:41:01.83	300.50	11.67	
2025-01-17 20:41:02.84	300.70	11.63	
2025-01-17 20:41:03.86	300.91	11.59	
2025-01-17 20:41:04.87	301.11	11.56	
2025-01-17 20:41:05.89	301.32	11.52	
2025-01-17 20:41:06.90	301.52	11.49	
2025-01-17 20:41:07.92	301.73	11.45	
2025-01-17 20:41:08.93	301.93	11.41	
2025-01-17 20:41:09.95	302.14	11.38	
2025-01-17 20:41:10.96	302.34	11.34	
2025-01-17 20:41:11.98	302.54	11.30	
2025-01-17 20:41:13.00	302.74	11.26	
2025-01-17 20:41:14.01	302.94	11.23	
2025-01-17 20:41:15.03	303.14	11.19	
2025-01-17 20:41:16.04	303.34	11.15	
2025-01-17 20:41:17.06	303.54	11.11	
2025-01-17 20:41:18.07	303.74	11.07	
2025-01-17 20:41:19.09	303.94	11.03	
2025-01-17 20:41:20.10	304.13	10.99	
2025-01-17 20:41:21.12	304.33	10.95	
2025-01-17 20:41:22.14	304.53	10.91	
2025-01-17 20:41:23.15	304.72	10.87	
2025-01-17 20:41:24.17	304.92	10.83	
2025-01-17 20:41:25.18	305.11	10.79	
2025-01-17 20:41:26.20	305.31	10.75	
2025-01-17 20:41:27.21	305.50	10.71	
2025-01-17 20:41:28.23	305.69	10.67	
2025-01-17 20:41:29.24	305.89	10.63	
2025-01-17 20:41:30.26	306.08	10.59	
2025-01-17 20:41:31.28	306.27	10.55	
2025-01-17 20:41:32.29	306.46	10.51	
2025-01-17 20:41:33.31	306.65	10.46	
2025-01-17 20:41:34.32	306.84	10.42	
2025-01-17 20:41:35.34	307.03	10.38	
2025-01-17 20:41:36.35	307.22	10.34	
2025-01-17 20:41:37.37	307.41	10.29	
2025-01-17 20:41:38.38	307.59	10.25	
2025-01-17 20:41:39.40	307.78	10.21	
2025-01-17 20:41:40.42	307.97	10.17	
2025-01-17 20:41:41.43	308.15	10.12	
2025-01-17 20:41:42.45	308.34	10.08	
2025-01-17 20:41:43.46	308.52	10.04	
2025-01-17 20:41:44.48	308.70	9.99	
2025-01-17 20:41:45.49	308.89	9.95	
2025-01-17 20:41:46.51	309.07	9.90	
2025-01-17 20:41:47.52	309.25	9.86	
2025-01-17 20:41:48.54	309.43	9.82	
2025-01-17 20:41:49.56	309.61	9.77	
2025-01-17 20:41:50.57	309.79	9.73	
2025-01-17 20:41:51.59	309.97	9.68	
2025-01-17 20:41:52.60	310.15	9.64	
2025-01-17 20:41:53.62	310.33	9.59	
2025-01-17 20:41:54.63	310.51	9.55	
2025-01-17 20:41:55.65	310.69	9.50	
2025-01-17 20:41:56.66	310.86	9.46	
2025-01-17 20:41:57.68	311.04	9.41	
2025-01-17 20:41:58.70	311.22	9.36	
2025-01-17 20:41:59.71	311.39	9.32	
2025-01-17 20:42:00.73	311.57	9.27	
2025-01-17 20:42:01.74	311.74	9.23	
2025-01-17 20:42:02.76	311.91	9.18	
2025-01-17 20:42:03.77	312.08	9.13	
2025-01-17 20:42:04.79	312.26	9.09	
2025-01-17 20:42:05.80	312.43	9.04	
2025-01-17 20:42:06.82	312.60	8.99	
2025-01-17 20:42:07.84	312.77	8.95	
2025-01-17 20:42:08.85	312.94	8.90	
2025-01-17 20:42:09.87	313.11	8.85	
2025-01-17 20:42:10.88	313.28	8.81	
2025-01-17 20:42:11.90	313.45	8.76	
2025-01-17 20:42:12.91	313.61	8.71	
2025-01-17 20:42:13.93	313.78	8.66	
2025-01-17 20:42:14.94	313.95	8.62	
2025-01-17 20:42:15.96	314.11	8.57	
2025-01-17 20:42:16.98	314.28	8.52	
2025-01-17 20:42:17.99	314.44	8.47	
2025-01-17 20:42:19.01	314.61	8.43	
2025-01-17 20:42:20.02	314.77	8.38	
2025-01-17 20:42:21.04	314.93	8.33	
2025-01-17 20:42:22.05	315.10	8.28	
2025-01-17 20:42:23.07	315.26	8.23	
2025-01-17 20:42:24.08	315.42	8.18	
2025-01-17 20:42:25.10	315.58	8.14	
2025-01-17 20:42:26.12	315.74	8.09	
2025-01-17 20:42:27.13	315.90	8.04	
2025-01-17 20:42:28.15	316.06	7.99	
2025-01-17 20:42:29.16	316.22	7.94	
2025-01-17 20:42:30.18	316.37	7.89	
2025-01-17 20:42:31.19	316.53	7.84	
2025-01-17 20:42:32.21	316.69	7.80	
2025-01-17 20:42:33.22	316.84	7.75	
2025-01-17 20:42:34.24	317.00	7.70	
2025-01-17 20:42:35.25	317.16	7.65	
2025-01-17 20:42:36.27	317.31	7.60	
2025-01-17 20:42:37.29	317.47	7.55	
2025-01-17 20:42:38.30	317.62	7.50	
2025-01-17 20:42:39.32	317.77	7.45	
2025-01-17 20:42:40.33	317.92	7.40	
2025-01-17 20:42:41.35	318.08	7.35	
2025-01-17 20:42:42.36	318.23	7.30	
2025-01-17 20:42:43.38	318.38	7.25	
2025-01-17 20:42:44.40	318.53	7.20	
2025-01-17 20:42:45.41	318.68	7.15	
2025-01-17 20:42:46.43	318.83	7.10	
2025-01-17 20:42:47.44	318.97	7.06	
2025-01-17 20:42:48.46	319.12	7.01	
2025-01-17 20:42:49.47	319.27	6.96	
2025-01-17 20:42:50.49	319.42	6.91	
2025-01-17 20:42:51.50	319.56	6.86	
2025-01-17 20:42:52.52	319.71	6.81	
2025-01-17 20:42:53.53	319.85	6.76	
2025-01-17 20:42:54.55	320.00	6.71	
2025-01-17 20:42:55.57	320.15	6.66	
2025-01-17 20:42:56.58	320.29	6.61	
2025-01-17 20:42:57.60	320.43	6.56	
2025-01-17 20:42:58.61	320.57	6.51	
2025-01-17 20:42:59.63	320.72	6.46	
2025-01-17 20:43:00.64	320.86	6.41	
2025-01-17 20:43:01.66	321.00	6.35	
2025-01-17 20:43:02.67	321.14	6.30	
2025-01-17 20:43:03.69	321.28	6.25	
2025-01-17 20:43:04.71	321.42	6.20	
2025-01-17 20:43:05.72	321.56	6.15	
2025-01-17 20:43:06.74	321.70	6.10	
2025-01-17 20:43:07.75	321.84	6.05	
2025-01-17 20:43:08.77	321.98	6.00	
2025-01-17 20:43:09.78	322.11	5.95	
2025-01-17 20:43:10.80	322.25	5.90	
2025-01-17 20:43:11.81	322.39	5.85	
2025-01-17 20:43:12.83	322.52	5.80	
2025-01-17 20:43:13.85	322.66	5.75	
2025-01-17 20:43:14.86	322.79	5.70	
2025-01-17 20:43:15.88	322.93	5.65	
2025-01-17 20:43:16.89	323.06	5.60	
2025-01-17 20:43:17.91	323.19	5.55	
2025-01-17 20:43:18.92	323.33	5.50	
2025-01-17 20:43:19.94	323.46	5.45	
2025-01-17 20:43:20.95	323.59	5.40	
2025-01-17 20:43:21.97	323.72	5.35	
2025-01-17 20:43:22.99	323.85	5.30	
2025-01-17 20:43:24.00	323.98	5.25	
2025-01-17 20:43:25.02	324.11	5.19	
2025-01-17 20:43:26.03	324.24	5.14	
2025-01-17 20:43:27.05	324.37	5.09	
2025-01-17 20:43:28.06	324.50	5.04	
2025-01-17 20:43:29.08	324.63	4.99	
2025-01-17 20:43:30.09	324.76	4.94	
2025-01-17 20:43:31.11	324.88	4.89	
2025-01-17 20:43:32.13	325.01	4.84	
2025-01-17 20:43:33.14	325.14	4.79	
2025-01-17 20:43:34.16	325.26	4.74	
2025-01-17 20:43:35.17	325.39	4.69	
2025-01-17 20:43:36.19	325.51	4.64	
2025-01-17 20:43:37.20	325.64	4.59	
2025-01-17 20:43:38.22	325.76	4.54	
2025-01-17 20:43:39.23	325.88	4.49	
2025-01-17 20:43:40.25	326.01	4.44	
2025-01-17 20:43:41.27	326.13	4.38	
2025-01-17 20:43:42.28	326.25	4.33	
2025-01-17 20:43:43.30	326.37	4.28	
2025-01-17 20:43:44.31	326.49	4.23	
2025-01-17 20:43:45.33	326.62	4.18	
2025-01-17 20:43:46.34	326.74	4.13	
2025-01-17 20:43:47.36	326.86	4.08	
2025-01-17 20:43:48.37	326.97	4.03	

#Closed at: 2025-01-17 20:43:49