passes_logs/2025/01/17/SPB_Silybum_02/SPB_Silybum_02__20250117_111353_AQUA_rec.log

#Pass ID: 20250117_111353_AQUA
#Satellite: AQUA
#Configuration: AQUA
#Start time: 2025-01-17 11:21:57

#Version: 2.0.20230423
#Station: SPB_Silybum_02
#Location: 30.233357 lon 59.946436 lat
#TLE: 1 27424U 02022A   25016.84910416  .00001840  00000+0  38758-3 0  9998
#TLE: 2 27424  98.3592 333.5297 0001787 109.3464 277.9036 14.60690037207895

#Time	Az	El	Level	Level2	SNR	BER	Gain	Gain2
2025-01-17 11:21:59.33	347.37	32.41	
2025-01-17 11:21:59.74	347.35	32.32	
2025-01-17 11:22:00.14	347.33	32.22	
2025-01-17 11:22:00.55	347.31	32.13	
2025-01-17 11:22:00.96	347.28	32.03	
2025-01-17 11:22:01.36	347.26	31.94	
2025-01-17 11:22:01.77	347.24	31.84	
2025-01-17 11:22:02.17	347.22	31.75	
2025-01-17 11:22:02.58	347.20	31.65	
2025-01-17 11:22:02.99	347.18	31.56	
2025-01-17 11:22:03.39	347.16	31.47	
2025-01-17 11:22:03.80	347.14	31.37	
2025-01-17 11:22:04.20	347.12	31.28	
2025-01-17 11:22:04.61	347.10	31.19	
2025-01-17 11:22:05.02	347.08	31.09	
2025-01-17 11:22:05.42	347.06	31.00	
2025-01-17 11:22:05.83	347.04	30.91	
2025-01-17 11:22:06.23	347.02	30.82	
2025-01-17 11:22:06.64	347.00	30.73	
2025-01-17 11:22:07.05	346.98	30.64	
2025-01-17 11:22:07.45	346.96	30.55	
2025-01-17 11:22:07.86	346.94	30.46	
2025-01-17 11:22:08.26	346.92	30.37	
2025-01-17 11:22:08.67	346.91	30.28	
2025-01-17 11:22:09.08	346.89	30.19	
2025-01-17 11:22:09.48	346.87	30.10	
2025-01-17 11:22:09.89	346.85	30.01	
2025-01-17 11:22:10.29	346.83	29.93	
2025-01-17 11:22:10.70	346.81	29.84	
2025-01-17 11:22:11.11	346.79	29.75	
2025-01-17 11:22:11.51	346.78	29.66	
2025-01-17 11:22:11.92	346.76	29.57	
2025-01-17 11:22:12.32	346.74	29.49	
2025-01-17 11:22:12.73	346.72	29.40	
2025-01-17 11:22:13.13	346.71	29.32	
2025-01-17 11:22:13.54	346.69	29.23	
2025-01-17 11:22:13.95	346.67	29.14	
2025-01-17 11:22:14.35	346.65	29.06	
2025-01-17 11:22:14.76	346.64	28.97	
2025-01-17 11:22:15.16	346.62	28.89	
2025-01-17 11:22:15.57	346.60	28.80	
2025-01-17 11:22:15.98	346.58	28.72	
2025-01-17 11:22:16.38	346.57	28.64	
2025-01-17 11:22:16.79	346.55	28.55	
2025-01-17 11:22:17.19	346.54	28.47	
2025-01-17 11:22:17.60	346.52	28.38	
2025-01-17 11:22:18.01	346.50	28.30	
2025-01-17 11:22:18.41	346.49	28.22	
2025-01-17 11:22:18.82	346.47	28.14	
2025-01-17 11:22:19.22	346.45	28.05	
2025-01-17 11:22:19.63	346.44	27.97	
2025-01-17 11:22:20.04	346.42	27.89	
2025-01-17 11:22:20.44	346.41	27.81	
2025-01-17 11:22:20.85	346.39	27.73	
2025-01-17 11:22:21.25	346.37	27.65	
2025-01-17 11:22:21.66	346.36	27.57	
2025-01-17 11:22:22.07	346.34	27.48	
2025-01-17 11:22:22.47	346.33	27.41	
2025-01-17 11:22:22.88	346.31	27.32	
2025-01-17 11:22:23.28	346.30	27.25	
2025-01-17 11:22:23.69	346.28	27.17	
2025-01-17 11:22:24.10	346.27	27.09	
2025-01-17 11:22:24.50	346.25	27.01	
2025-01-17 11:22:24.91	346.24	26.93	
2025-01-17 11:22:25.31	346.22	26.85	
2025-01-17 11:22:25.72	346.21	26.77	
2025-01-17 11:22:26.13	346.19	26.69	
2025-01-17 11:22:26.53	346.18	26.62	
2025-01-17 11:22:26.94	346.16	26.54	
2025-01-17 11:22:27.34	346.15	26.46	
2025-01-17 11:22:27.75	346.14	26.39	
2025-01-17 11:22:28.15	346.12	26.31	
2025-01-17 11:22:28.56	346.11	26.23	
2025-01-17 11:22:28.97	346.09	26.16	
2025-01-17 11:22:29.37	346.08	26.08	
2025-01-17 11:22:29.78	346.07	26.00	
2025-01-17 11:22:30.18	346.05	25.93	
2025-01-17 11:22:30.59	346.04	25.85	
2025-01-17 11:22:31.00	346.02	25.78	
2025-01-17 11:22:31.40	346.01	25.70	
2025-01-17 11:22:31.81	346.00	25.63	
2025-01-17 11:22:32.21	345.98	25.55	
2025-01-17 11:22:32.62	345.97	25.48	
2025-01-17 11:22:33.03	345.96	25.40	
2025-01-17 11:22:33.43	345.94	25.33	
2025-01-17 11:22:33.84	345.93	25.26	
2025-01-17 11:22:34.24	345.92	25.19	
2025-01-17 11:22:34.65	345.90	25.11	
2025-01-17 11:22:35.06	345.89	25.04	
2025-01-17 11:22:35.46	345.88	24.97	
2025-01-17 11:22:35.87	345.87	24.89	
2025-01-17 11:22:36.27	345.85	24.82	
2025-01-17 11:22:36.68	345.84	24.75	
2025-01-17 11:22:37.09	345.83	24.68	
2025-01-17 11:22:37.49	345.82	24.61	
2025-01-17 11:22:37.90	345.80	24.53	
2025-01-17 11:22:38.30	345.79	24.46	
2025-01-17 11:22:38.71	345.78	24.39	
2025-01-17 11:22:39.12	345.77	24.32	
2025-01-17 11:22:39.52	345.75	24.25	
2025-01-17 11:22:39.93	345.74	24.18	
2025-01-17 11:22:40.33	345.73	24.11	
2025-01-17 11:22:40.74	345.72	24.04	
2025-01-17 11:22:41.14	345.71	23.97	
2025-01-17 11:22:41.55	345.69	23.90	
2025-01-17 11:22:41.96	345.68	23.83	
2025-01-17 11:22:42.36	345.67	23.76	
2025-01-17 11:22:42.77	345.66	23.69	
2025-01-17 11:22:43.17	345.65	23.62	
2025-01-17 11:22:43.58	345.63	23.56	
2025-01-17 11:22:43.99	345.62	23.49	
2025-01-17 11:22:44.39	345.61	23.42	
2025-01-17 11:22:44.80	345.60	23.35	
2025-01-17 11:22:45.20	345.59	23.28	
2025-01-17 11:22:45.61	345.58	23.21	
2025-01-17 11:22:46.02	345.57	23.15	
2025-01-17 11:22:46.42	345.56	23.08	
2025-01-17 11:22:46.83	345.54	23.01	
2025-01-17 11:22:47.23	345.53	22.95	
2025-01-17 11:22:47.64	345.52	22.88	
2025-01-17 11:22:48.05	345.51	22.81	
2025-01-17 11:22:48.45	345.50	22.75	
2025-01-17 11:22:48.86	345.49	22.68	
2025-01-17 11:22:49.26	345.48	22.62	
2025-01-17 11:22:49.67	345.47	22.55	
2025-01-17 11:22:50.08	345.46	22.48	
2025-01-17 11:22:50.48	345.45	22.42	
2025-01-17 11:22:50.89	345.44	22.35	
2025-01-17 11:22:51.29	345.43	22.29	
2025-01-17 11:22:51.70	345.42	22.22	
2025-01-17 11:22:52.11	345.40	22.16	
2025-01-17 11:22:52.51	345.39	22.09	
2025-01-17 11:22:52.92	345.38	22.03	
2025-01-17 11:22:53.32	345.37	21.97	
2025-01-17 11:22:53.73	345.36	21.90	
2025-01-17 11:22:54.14	345.35	21.84	
2025-01-17 11:22:54.54	345.34	21.77	
2025-01-17 11:22:54.95	345.33	21.71	
2025-01-17 11:22:55.35	345.32	21.65	
2025-01-17 11:22:55.76	345.31	21.58	
2025-01-17 11:22:56.16	345.30	21.52	
2025-01-17 11:22:56.57	345.29	21.46	
2025-01-17 11:22:56.98	345.28	21.39	
2025-01-17 11:22:57.38	345.27	21.33	
2025-01-17 11:22:57.79	345.26	21.27	
2025-01-17 11:22:58.19	345.25	21.21	
2025-01-17 11:22:58.60	345.25	21.15	
2025-01-17 11:22:59.01	345.24	21.08	
2025-01-17 11:22:59.41	345.23	21.02	
2025-01-17 11:22:59.82	345.22	20.96	
2025-01-17 11:23:00.22	345.21	20.90	
2025-01-17 11:23:00.63	345.20	20.84	
2025-01-17 11:23:01.04	345.19	20.78	
2025-01-17 11:23:01.44	345.18	20.72	
2025-01-17 11:23:01.85	345.17	20.66	
2025-01-17 11:23:02.25	345.16	20.60	
2025-01-17 11:23:02.66	345.15	20.54	
2025-01-17 11:23:03.07	345.14	20.47	
2025-01-17 11:23:03.47	345.13	20.42	
2025-01-17 11:23:03.88	345.12	20.36	
2025-01-17 11:23:04.28	345.12	20.30	
2025-01-17 11:23:04.69	345.11	20.24	
2025-01-17 11:23:05.10	345.10	20.18	
2025-01-17 11:23:05.50	345.09	20.12	
2025-01-17 11:23:05.91	345.08	20.06	
2025-01-17 11:23:06.31	345.07	20.00	
2025-01-17 11:23:06.72	345.06	19.94	
2025-01-17 11:23:07.13	345.05	19.88	
2025-01-17 11:23:07.53	345.05	19.82	
2025-01-17 11:23:07.94	345.04	19.76	
2025-01-17 11:23:08.34	345.03	19.71	
2025-01-17 11:23:08.75	345.02	19.65	
2025-01-17 11:23:09.16	345.01	19.59	
2025-01-17 11:23:09.56	345.00	19.53	
2025-01-17 11:23:09.97	344.99	19.48	
2025-01-17 11:23:10.37	344.99	19.42	
2025-01-17 11:23:10.78	344.98	19.36	
2025-01-17 11:23:11.18	344.97	19.30	
2025-01-17 11:23:11.59	344.96	19.25	
2025-01-17 11:23:12.00	344.95	19.19	
2025-01-17 11:23:12.40	344.94	19.13	
2025-01-17 11:23:12.81	344.94	19.08	
2025-01-17 11:23:13.21	344.93	19.02	
2025-01-17 11:23:13.62	344.92	18.96	
2025-01-17 11:23:14.03	344.91	18.91	
2025-01-17 11:23:14.43	344.90	18.85	
2025-01-17 11:23:14.84	344.90	18.80	
2025-01-17 11:23:15.24	344.89	18.74	
2025-01-17 11:23:15.65	344.88	18.68	
2025-01-17 11:23:16.06	344.87	18.63	
2025-01-17 11:23:16.46	344.86	18.57	
2025-01-17 11:23:16.87	344.86	18.52	
2025-01-17 11:23:17.27	344.85	18.46	
2025-01-17 11:23:17.68	344.84	18.41	
2025-01-17 11:23:18.09	344.83	18.35	
2025-01-17 11:23:18.49	344.83	18.30	
2025-01-17 11:23:18.90	344.82	18.24	
2025-01-17 11:23:19.30	344.81	18.19	
2025-01-17 11:23:19.71	344.80	18.14	
2025-01-17 11:23:20.12	344.80	18.08	
2025-01-17 11:23:20.52	344.79	18.03	
2025-01-17 11:23:20.93	344.78	17.97	
2025-01-17 11:23:21.33	344.77	17.92	
2025-01-17 11:23:21.74	344.77	17.87	
2025-01-17 11:23:22.15	344.76	17.81	
2025-01-17 11:23:22.55	344.75	17.76	
2025-01-17 11:23:22.96	344.74	17.71	
2025-01-17 11:23:23.36	344.74	17.65	
2025-01-17 11:23:23.77	344.73	17.60	
2025-01-17 11:23:24.18	344.72	17.55	
2025-01-17 11:23:24.58	344.72	17.49	
2025-01-17 11:23:24.99	344.71	17.44	
2025-01-17 11:23:25.39	344.70	17.39	
2025-01-17 11:23:25.80	344.70	17.34	
2025-01-17 11:23:26.20	344.69	17.28	
2025-01-17 11:23:26.61	344.68	17.23	
2025-01-17 11:23:27.02	344.67	17.18	
2025-01-17 11:23:27.42	344.67	17.13	
2025-01-17 11:23:27.83	344.66	17.08	
2025-01-17 11:23:28.23	344.65	17.03	
2025-01-17 11:23:28.64	344.65	16.97	
2025-01-17 11:23:29.05	344.64	16.92	
2025-01-17 11:23:29.45	344.63	16.87	
2025-01-17 11:23:29.86	344.63	16.82	
2025-01-17 11:23:30.26	344.62	16.77	
2025-01-17 11:23:30.67	344.61	16.72	
2025-01-17 11:23:31.08	344.61	16.67	
2025-01-17 11:23:31.48	344.60	16.62	
2025-01-17 11:23:31.89	344.59	16.56	
2025-01-17 11:23:32.29	344.59	16.51	
2025-01-17 11:23:32.70	344.58	16.46	
2025-01-17 11:23:33.11	344.57	16.41	
2025-01-17 11:23:33.51	344.57	16.36	
2025-01-17 11:23:33.92	344.56	16.31	
2025-01-17 11:23:34.32	344.55	16.26	
2025-01-17 11:23:34.73	344.55	16.21	
2025-01-17 11:23:35.14	344.54	16.16	
2025-01-17 11:23:35.54	344.54	16.11	
2025-01-17 11:23:35.95	344.53	16.06	
2025-01-17 11:23:36.35	344.52	16.02	
2025-01-17 11:23:36.76	344.52	15.97	
2025-01-17 11:23:37.17	344.51	15.92	
2025-01-17 11:23:37.57	344.50	15.87	
2025-01-17 11:23:37.98	344.50	15.82	
2025-01-17 11:23:38.38	344.49	15.77	
2025-01-17 11:23:38.79	344.49	15.72	
2025-01-17 11:23:39.19	344.48	15.67	
2025-01-17 11:23:39.60	344.47	15.62	
2025-01-17 11:23:40.01	344.47	15.58	
2025-01-17 11:23:40.41	344.46	15.53	
2025-01-17 11:23:40.82	344.46	15.48	
2025-01-17 11:23:41.22	344.45	15.43	
2025-01-17 11:23:41.63	344.44	15.38	
2025-01-17 11:23:42.04	344.44	15.34	
2025-01-17 11:23:42.44	344.43	15.29	
2025-01-17 11:23:42.85	344.43	15.24	
2025-01-17 11:23:43.25	344.42	15.19	
2025-01-17 11:23:43.66	344.42	15.15	
2025-01-17 11:23:44.07	344.41	15.10	
2025-01-17 11:23:44.47	344.40	15.05	
2025-01-17 11:23:44.88	344.40	15.00	
2025-01-17 11:23:45.28	344.39	14.96	
2025-01-17 11:23:45.69	344.39	14.91	
2025-01-17 11:23:46.10	344.38	14.86	
2025-01-17 11:23:46.50	344.38	14.82	
2025-01-17 11:23:46.91	344.37	14.77	
2025-01-17 11:23:47.31	344.36	14.72	
2025-01-17 11:23:47.72	344.36	14.68	
2025-01-17 11:23:48.13	344.35	14.63	
2025-01-17 11:23:48.53	344.35	14.58	
2025-01-17 11:23:48.94	344.34	14.54	
2025-01-17 11:23:49.34	344.34	14.49	
2025-01-17 11:23:49.75	344.33	14.45	
2025-01-17 11:23:50.16	344.33	14.40	
2025-01-17 11:23:50.56	344.32	14.35	
2025-01-17 11:23:50.97	344.32	14.31	
2025-01-17 11:23:51.37	344.31	14.26	
2025-01-17 11:23:51.78	344.31	14.22	
2025-01-17 11:23:52.19	344.30	14.17	
2025-01-17 11:23:52.59	344.29	14.13	
2025-01-17 11:23:53.00	344.29	14.08	
2025-01-17 11:23:53.40	344.28	14.04	
2025-01-17 11:23:53.81	344.28	13.99	
2025-01-17 11:23:54.21	344.27	13.95	
2025-01-17 11:23:54.62	344.27	13.90	
2025-01-17 11:23:55.03	344.26	13.86	
2025-01-17 11:23:55.43	344.26	13.81	
2025-01-17 11:23:55.84	344.25	13.77	
2025-01-17 11:23:56.24	344.25	13.72	
2025-01-17 11:23:56.65	344.24	13.68	
2025-01-17 11:23:57.06	344.24	13.63	
2025-01-17 11:23:57.46	344.23	13.59	
2025-01-17 11:23:57.87	344.23	13.54	
2025-01-17 11:23:58.27	344.22	13.50	
2025-01-17 11:23:58.68	344.22	13.46	
2025-01-17 11:23:59.09	344.21	13.41	
2025-01-17 11:23:59.49	344.21	13.37	
2025-01-17 11:23:59.90	344.20	13.33	
2025-01-17 11:24:00.30	344.20	13.28	
2025-01-17 11:24:00.71	344.19	13.24	
2025-01-17 11:24:01.12	344.19	13.19	
2025-01-17 11:24:01.52	344.18	13.15	
2025-01-17 11:24:01.93	344.18	13.11	
2025-01-17 11:24:02.33	344.18	13.07	
2025-01-17 11:24:02.74	344.17	13.02	
2025-01-17 11:24:03.15	344.17	12.98	
2025-01-17 11:24:03.55	344.16	12.94	
2025-01-17 11:24:03.96	344.16	12.89	
2025-01-17 11:24:04.36	344.15	12.85	
2025-01-17 11:24:04.77	344.15	12.81	
2025-01-17 11:24:05.18	344.14	12.76	
2025-01-17 11:24:05.58	344.14	12.72	
2025-01-17 11:24:05.99	344.13	12.68	
2025-01-17 11:24:06.39	344.13	12.64	
2025-01-17 11:24:06.80	344.12	12.60	
2025-01-17 11:24:07.21	344.12	12.55	
2025-01-17 11:24:07.61	344.12	12.51	
2025-01-17 11:24:08.02	344.11	12.47	
2025-01-17 11:24:08.42	344.11	12.43	
2025-01-17 11:24:08.83	344.10	12.39	
2025-01-17 11:24:09.23	344.10	12.34	
2025-01-17 11:24:09.64	344.09	12.30	
2025-01-17 11:24:10.05	344.09	12.26	
2025-01-17 11:24:10.45	344.08	12.22	
2025-01-17 11:24:10.86	344.08	12.18	
2025-01-17 11:24:11.26	344.08	12.14	
2025-01-17 11:24:11.67	344.07	12.09	
2025-01-17 11:24:12.08	344.07	12.05	
2025-01-17 11:24:12.48	344.06	12.01	
2025-01-17 11:24:12.89	344.06	11.97	
2025-01-17 11:24:13.29	344.05	11.93	
2025-01-17 11:24:13.70	344.05	11.89	
2025-01-17 11:24:14.11	344.05	11.85	
2025-01-17 11:24:14.51	344.04	11.81	
2025-01-17 11:24:14.92	344.04	11.77	
2025-01-17 11:24:15.32	344.03	11.73	
2025-01-17 11:24:15.73	344.03	11.69	
2025-01-17 11:24:16.14	344.03	11.64	
2025-01-17 11:24:16.54	344.02	11.60	
2025-01-17 11:24:16.95	344.02	11.56	
2025-01-17 11:24:17.35	344.01	11.52	
2025-01-17 11:24:17.76	344.01	11.48	
2025-01-17 11:24:18.17	344.01	11.44	
2025-01-17 11:24:18.57	344.00	11.40	
2025-01-17 11:24:18.98	344.00	11.36	
2025-01-17 11:24:19.38	343.99	11.32	
2025-01-17 11:24:19.79	343.99	11.28	
2025-01-17 11:24:20.20	343.99	11.24	
2025-01-17 11:24:20.60	343.98	11.20	
2025-01-17 11:24:21.01	343.98	11.16	
2025-01-17 11:24:21.41	343.97	11.13	
2025-01-17 11:24:21.82	343.97	11.09	
2025-01-17 11:24:22.23	343.97	11.05	
2025-01-17 11:24:22.63	343.96	11.01	
2025-01-17 11:24:23.04	343.96	10.97	
2025-01-17 11:24:23.44	343.95	10.93	
2025-01-17 11:24:23.85	343.95	10.89	
2025-01-17 11:24:24.25	343.95	10.85	
2025-01-17 11:24:24.66	343.94	10.81	
2025-01-17 11:24:25.07	343.94	10.77	
2025-01-17 11:24:25.47	343.94	10.73	
2025-01-17 11:24:25.88	343.93	10.69	
2025-01-17 11:24:26.28	343.93	10.66	
2025-01-17 11:24:26.69	343.92	10.62	
2025-01-17 11:24:27.10	343.92	10.58	
2025-01-17 11:24:27.50	343.92	10.54	
2025-01-17 11:24:27.91	343.91	10.50	
2025-01-17 11:24:28.31	343.91	10.46	
2025-01-17 11:24:28.72	343.91	10.43	
2025-01-17 11:24:29.13	343.90	10.39	
2025-01-17 11:24:29.53	343.90	10.35	
2025-01-17 11:24:29.94	343.90	10.31	
2025-01-17 11:24:30.34	343.89	10.27	
2025-01-17 11:24:30.75	343.89	10.23	
2025-01-17 11:24:31.16	343.88	10.20	
2025-01-17 11:24:31.56	343.88	10.16	
2025-01-17 11:24:31.97	343.88	10.12	
2025-01-17 11:24:32.37	343.87	10.08	
2025-01-17 11:24:32.78	343.87	10.05	
2025-01-17 11:24:33.19	343.87	10.01	
2025-01-17 11:24:33.59	343.86	9.97	
2025-01-17 11:24:34.00	343.86	9.93	
2025-01-17 11:24:34.40	343.86	9.90	
2025-01-17 11:24:34.81	343.85	9.86	
2025-01-17 11:24:35.22	343.85	9.82	
2025-01-17 11:24:35.62	343.85	9.78	
2025-01-17 11:24:36.03	343.84	9.75	
2025-01-17 11:24:36.43	343.84	9.71	
2025-01-17 11:24:36.84	343.84	9.67	
2025-01-17 11:24:37.24	343.83	9.64	
2025-01-17 11:24:37.65	343.83	9.60	
2025-01-17 11:24:38.06	343.83	9.56	
2025-01-17 11:24:38.46	343.82	9.53	
2025-01-17 11:24:38.87	343.82	9.49	
2025-01-17 11:24:39.27	343.82	9.45	
2025-01-17 11:24:39.68	343.81	9.41	
2025-01-17 11:24:40.09	343.81	9.38	
2025-01-17 11:24:40.49	343.81	9.34	
2025-01-17 11:24:40.90	343.80	9.31	
2025-01-17 11:24:41.30	343.80	9.27	
2025-01-17 11:24:41.71	343.80	9.23	
2025-01-17 11:24:42.12	343.79	9.20	
2025-01-17 11:24:42.52	343.79	9.16	
2025-01-17 11:24:42.93	343.79	9.12	
2025-01-17 11:24:43.33	343.79	9.09	
2025-01-17 11:24:43.74	343.78	9.05	
2025-01-17 11:24:44.15	343.78	9.02	
2025-01-17 11:24:44.55	343.78	8.98	
2025-01-17 11:24:44.96	343.77	8.94	
2025-01-17 11:24:45.36	343.77	8.91	
2025-01-17 11:24:45.77	343.77	8.87	
2025-01-17 11:24:46.18	343.76	8.84	
2025-01-17 11:24:46.58	343.76	8.80	
2025-01-17 11:24:46.99	343.76	8.77	
2025-01-17 11:24:47.39	343.76	8.73	
2025-01-17 11:24:47.80	343.75	8.69	
2025-01-17 11:24:48.21	343.75	8.66	
2025-01-17 11:24:48.61	343.75	8.62	
2025-01-17 11:24:49.02	343.74	8.59	
2025-01-17 11:24:49.42	343.74	8.55	
2025-01-17 11:24:49.83	343.74	8.52	
2025-01-17 11:24:50.24	343.73	8.48	
2025-01-17 11:24:50.64	343.73	8.45	
2025-01-17 11:24:51.05	343.73	8.41	
2025-01-17 11:24:51.45	343.73	8.38	
2025-01-17 11:24:51.86	343.72	8.34	
2025-01-17 11:24:52.26	343.72	8.31	
2025-01-17 11:24:52.67	343.72	8.27	
2025-01-17 11:24:53.08	343.71	8.24	
2025-01-17 11:24:53.48	343.71	8.20	
2025-01-17 11:24:53.89	343.71	8.17	
2025-01-17 11:24:54.29	343.71	8.13	
2025-01-17 11:24:54.70	343.70	8.10	
2025-01-17 11:24:55.11	343.70	8.07	
2025-01-17 11:24:55.51	343.70	8.03	
2025-01-17 11:24:55.92	343.70	8.00	
2025-01-17 11:24:56.32	343.69	7.96	
2025-01-17 11:24:56.73	343.69	7.93	
2025-01-17 11:24:57.14	343.69	7.89	
2025-01-17 11:24:57.54	343.68	7.86	
2025-01-17 11:24:57.95	343.68	7.83	
2025-01-17 11:24:58.35	343.68	7.79	
2025-01-17 11:24:58.76	343.68	7.76	
2025-01-17 11:24:59.17	343.67	7.72	
2025-01-17 11:24:59.57	343.67	7.69	
2025-01-17 11:24:59.98	343.67	7.66	
2025-01-17 11:25:00.40	343.67	7.62	
2025-01-17 11:25:00.81	343.66	7.59	
2025-01-17 11:25:01.21	343.66	7.55	
2025-01-17 11:25:01.62	343.66	7.52	
2025-01-17 11:25:02.02	343.66	7.49	
2025-01-17 11:25:02.43	343.65	7.45	
2025-01-17 11:25:02.84	343.65	7.42	
2025-01-17 11:25:03.24	343.65	7.39	
2025-01-17 11:25:03.65	343.65	7.35	
2025-01-17 11:25:04.05	343.64	7.32	
2025-01-17 11:25:04.46	343.64	7.28	
2025-01-17 11:25:04.86	343.64	7.25	
2025-01-17 11:25:05.27	343.64	7.22	
2025-01-17 11:25:05.68	343.63	7.18	
2025-01-17 11:25:06.08	343.63	7.15	
2025-01-17 11:25:06.49	343.63	7.12	
2025-01-17 11:25:06.89	343.63	7.09	
2025-01-17 11:25:07.30	343.62	7.05	
2025-01-17 11:25:07.71	343.62	7.02	
2025-01-17 11:25:08.11	343.62	6.99	
2025-01-17 11:25:08.52	343.62	6.95	
2025-01-17 11:25:08.92	343.61	6.92	
2025-01-17 11:25:09.33	343.61	6.89	
2025-01-17 11:25:09.74	343.61	6.86	
2025-01-17 11:25:10.14	343.61	6.82	
2025-01-17 11:25:10.55	343.60	6.79	
2025-01-17 11:25:10.95	343.60	6.76	
2025-01-17 11:25:11.36	343.60	6.73	
2025-01-17 11:25:11.77	343.60	6.69	
2025-01-17 11:25:12.17	343.59	6.66	
2025-01-17 11:25:12.58	343.59	6.63	
2025-01-17 11:25:12.98	343.59	6.60	
2025-01-17 11:25:13.39	343.59	6.56	
2025-01-17 11:25:13.80	343.59	6.53	
2025-01-17 11:25:14.20	343.58	6.50	
2025-01-17 11:25:14.61	343.58	6.47	
2025-01-17 11:25:15.01	343.58	6.43	
2025-01-17 11:25:15.42	343.58	6.40	
2025-01-17 11:25:15.83	343.57	6.37	
2025-01-17 11:25:16.23	343.57	6.34	
2025-01-17 11:25:16.64	343.57	6.31	
2025-01-17 11:25:17.04	343.57	6.27	
2025-01-17 11:25:17.45	343.57	6.24	
2025-01-17 11:25:17.86	343.56	6.21	
2025-01-17 11:25:18.26	343.56	6.18	
2025-01-17 11:25:18.67	343.56	6.15	
2025-01-17 11:25:19.07	343.56	6.12	
2025-01-17 11:25:19.48	343.55	6.08	
2025-01-17 11:25:19.88	343.55	6.05	
2025-01-17 11:25:20.29	343.55	6.02	
2025-01-17 11:25:20.70	343.55	5.99	
2025-01-17 11:25:21.10	343.55	5.96	
2025-01-17 11:25:21.51	343.54	5.93	
2025-01-17 11:25:21.91	343.54	5.90	
2025-01-17 11:25:22.32	343.54	5.86	
2025-01-17 11:25:22.73	343.54	5.83	
2025-01-17 11:25:23.13	343.54	5.80	
2025-01-17 11:25:23.54	343.53	5.77	
2025-01-17 11:25:23.94	343.53	5.74	
2025-01-17 11:25:24.35	343.53	5.71	
2025-01-17 11:25:24.76	343.53	5.68	
2025-01-17 11:25:25.16	343.53	5.65	
2025-01-17 11:25:25.57	343.52	5.61	
2025-01-17 11:25:25.97	343.52	5.58	
2025-01-17 11:25:26.38	343.52	5.55	
2025-01-17 11:25:26.79	343.52	5.52	
2025-01-17 11:25:27.19	343.52	5.49	
2025-01-17 11:25:27.60	343.51	5.46	
2025-01-17 11:25:28.00	343.51	5.43	
2025-01-17 11:25:28.41	343.51	5.40	
2025-01-17 11:25:28.82	343.51	5.37	
2025-01-17 11:25:29.22	343.51	5.34	
2025-01-17 11:25:29.63	343.50	5.31	
2025-01-17 11:25:30.03	343.50	5.28	
2025-01-17 11:25:30.44	343.50	5.24	
2025-01-17 11:25:30.85	343.50	5.21	
2025-01-17 11:25:31.25	343.50	5.18	
2025-01-17 11:25:31.66	343.49	5.15	
2025-01-17 11:25:32.06	343.49	5.12	
2025-01-17 11:25:32.47	343.49	5.09	
2025-01-17 11:25:32.87	343.49	5.06	
2025-01-17 11:25:33.28	343.49	5.03	
2025-01-17 11:25:33.69	343.48	5.00	
2025-01-17 11:25:34.09	343.48	4.97	
2025-01-17 11:25:34.50	343.48	4.94	
2025-01-17 11:25:34.90	343.48	4.91	
2025-01-17 11:25:35.31	343.48	4.88	
2025-01-17 11:25:35.72	343.48	4.85	
2025-01-17 11:25:36.12	343.47	4.82	
2025-01-17 11:25:36.53	343.47	4.79	
2025-01-17 11:25:36.93	343.47	4.76	
2025-01-17 11:25:37.34	343.47	4.73	
2025-01-17 11:25:37.75	343.47	4.70	
2025-01-17 11:25:38.15	343.47	4.67	
2025-01-17 11:25:38.56	343.46	4.64	
2025-01-17 11:25:38.96	343.46	4.61	
2025-01-17 11:25:39.37	343.46	4.58	
2025-01-17 11:25:39.78	343.46	4.55	
2025-01-17 11:25:40.18	343.46	4.52	
2025-01-17 11:25:40.59	343.45	4.49	
2025-01-17 11:25:40.99	343.45	4.46	
2025-01-17 11:25:41.40	343.45	4.43	
2025-01-17 11:25:41.81	343.45	4.40	
2025-01-17 11:25:42.21	343.45	4.38	
2025-01-17 11:25:42.62	343.45	4.35	
2025-01-17 11:25:43.02	343.44	4.32	
2025-01-17 11:25:43.43	343.44	4.29	
2025-01-17 11:25:43.84	343.44	4.26	
2025-01-17 11:25:44.24	343.44	4.23	
2025-01-17 11:25:44.65	343.44	4.20	
2025-01-17 11:25:45.05	343.44	4.17	
2025-01-17 11:25:45.46	343.44	4.14	
2025-01-17 11:25:45.87	343.43	4.11	
2025-01-17 11:25:46.27	343.43	4.08	
2025-01-17 11:25:46.68	343.43	4.05	
2025-01-17 11:25:47.08	343.43	4.02	
2025-01-17 11:25:47.49	343.43	4.00	

#Closed at: 2025-01-17 11:25:47