passes_logs/2025/01/17/SPB_Silybum_02/SPB_Silybum_02__20250117_011543_SUOMI_NPP_rec.log

#Pass ID: 20250117_011543_SUOMI NPP
#Satellite: SUOMI NPP
#Configuration: NPP
#Start time: 2025-01-17 01:15:44

#Version: 2.0.20230423
#Station: SPB_Silybum_02
#Location: 30.233357 lon 59.946436 lat
#TLE: 1 37849U 11061A   25016.11811449  .00000162  00000+0  97827-4 0  9998
#TLE: 2 37849  98.7448 317.0925 0001640  39.6134 320.5162 14.19538688685075

#Time	Az	El	Level	Level2	SNR	BER	Gain	Gain2
2025-01-17 01:15:46.91	15.44	4.20	
2025-01-17 01:15:48.33	15.39	4.30	
2025-01-17 01:15:49.75	15.33	4.39	
2025-01-17 01:15:51.17	15.28	4.49	
2025-01-17 01:15:52.59	15.23	4.59	
2025-01-17 01:15:54.01	15.17	4.68	
2025-01-17 01:15:55.43	15.12	4.78	
2025-01-17 01:15:56.85	15.06	4.88	
2025-01-17 01:15:58.27	15.01	4.97	
2025-01-17 01:15:59.69	14.95	5.07	
2025-01-17 01:16:01.11	14.90	5.17	
2025-01-17 01:16:02.53	14.84	5.27	
2025-01-17 01:16:03.96	14.78	5.37	
2025-01-17 01:16:05.38	14.73	5.46	
2025-01-17 01:16:06.81	14.67	5.56	
2025-01-17 01:16:08.23	14.61	5.66	
2025-01-17 01:16:09.65	14.55	5.76	
2025-01-17 01:16:11.07	14.49	5.86	
2025-01-17 01:16:12.49	14.43	5.97	
2025-01-17 01:16:13.91	14.37	6.07	
2025-01-17 01:16:15.33	14.31	6.17	
2025-01-17 01:16:16.75	14.25	6.27	
2025-01-17 01:16:18.18	14.19	6.37	
2025-01-17 01:16:19.60	14.13	6.48	
2025-01-17 01:16:21.02	14.06	6.58	
2025-01-17 01:16:22.44	14.00	6.68	
2025-01-17 01:16:23.86	13.94	6.78	
2025-01-17 01:16:25.28	13.87	6.89	
2025-01-17 01:16:26.70	13.81	6.99	
2025-01-17 01:16:28.12	13.75	7.10	
2025-01-17 01:16:29.54	13.68	7.20	
2025-01-17 01:16:30.96	13.61	7.31	
2025-01-17 01:16:32.38	13.55	7.41	
2025-01-17 01:16:33.80	13.48	7.52	
2025-01-17 01:16:35.22	13.41	7.63	
2025-01-17 01:16:36.65	13.34	7.74	
2025-01-17 01:16:38.07	13.28	7.84	
2025-01-17 01:16:39.49	13.21	7.95	
2025-01-17 01:16:40.91	13.14	8.06	
2025-01-17 01:16:42.33	13.07	8.17	
2025-01-17 01:16:43.75	13.00	8.28	
2025-01-17 01:16:45.17	12.93	8.39	
2025-01-17 01:16:46.59	12.85	8.50	
2025-01-17 01:16:48.01	12.78	8.61	
2025-01-17 01:16:49.43	12.71	8.72	
2025-01-17 01:16:50.85	12.63	8.83	
2025-01-17 01:16:52.27	12.56	8.94	
2025-01-17 01:16:53.69	12.48	9.06	
2025-01-17 01:16:55.12	12.41	9.17	
2025-01-17 01:16:56.54	12.33	9.28	
2025-01-17 01:16:57.96	12.26	9.40	
2025-01-17 01:16:59.38	12.18	9.51	
2025-01-17 01:17:00.80	12.10	9.62	
2025-01-17 01:17:02.22	12.02	9.74	
2025-01-17 01:17:03.64	11.94	9.86	
2025-01-17 01:17:05.06	11.86	9.97	
2025-01-17 01:17:06.48	11.78	10.09	
2025-01-17 01:17:07.90	11.70	10.21	
2025-01-17 01:17:09.32	11.62	10.32	
2025-01-17 01:17:10.74	11.53	10.44	
2025-01-17 01:17:12.16	11.45	10.56	
2025-01-17 01:17:13.59	11.37	10.68	
2025-01-17 01:17:15.01	11.28	10.80	
2025-01-17 01:17:16.43	11.19	10.92	
2025-01-17 01:17:17.85	11.11	11.04	
2025-01-17 01:17:19.27	11.02	11.16	
2025-01-17 01:17:20.69	10.93	11.28	
2025-01-17 01:17:22.11	10.84	11.41	
2025-01-17 01:17:23.53	10.75	11.53	
2025-01-17 01:17:24.95	10.66	11.65	
2025-01-17 01:17:26.37	10.57	11.78	
2025-01-17 01:17:27.79	10.48	11.90	
2025-01-17 01:17:29.21	10.39	12.03	
2025-01-17 01:17:30.63	10.29	12.15	
2025-01-17 01:17:32.06	10.20	12.28	
2025-01-17 01:17:33.48	10.10	12.40	
2025-01-17 01:17:34.90	10.01	12.53	
2025-01-17 01:17:36.32	9.91	12.66	
2025-01-17 01:17:37.74	9.81	12.79	
2025-01-17 01:17:39.16	9.71	12.92	
2025-01-17 01:17:40.58	9.61	13.05	
2025-01-17 01:17:42.00	9.51	13.18	
2025-01-17 01:17:43.42	9.41	13.31	
2025-01-17 01:17:44.84	9.31	13.44	
2025-01-17 01:17:46.26	9.20	13.57	
2025-01-17 01:17:47.68	9.10	13.70	
2025-01-17 01:17:49.10	8.99	13.84	
2025-01-17 01:17:50.53	8.88	13.97	
2025-01-17 01:17:51.95	8.78	14.11	
2025-01-17 01:17:53.37	8.67	14.24	
2025-01-17 01:17:54.79	8.56	14.38	
2025-01-17 01:17:56.21	8.45	14.51	
2025-01-17 01:17:57.63	8.33	14.65	
2025-01-17 01:17:59.05	8.22	14.79	
2025-01-17 01:18:00.47	8.11	14.93	
2025-01-17 01:18:01.89	7.99	15.07	
2025-01-17 01:18:03.31	7.87	15.21	
2025-01-17 01:18:04.73	7.76	15.35	
2025-01-17 01:18:06.15	7.64	15.49	
2025-01-17 01:18:07.57	7.52	15.63	
2025-01-17 01:18:09.00	7.40	15.78	
2025-01-17 01:18:10.42	7.27	15.92	
2025-01-17 01:18:11.84	7.15	16.06	
2025-01-17 01:18:13.26	7.02	16.21	
2025-01-17 01:18:14.68	6.90	16.35	
2025-01-17 01:18:16.10	6.77	16.50	
2025-01-17 01:18:17.52	6.64	16.65	
2025-01-17 01:18:18.94	6.51	16.79	
2025-01-17 01:18:20.36	6.38	16.94	
2025-01-17 01:18:21.78	6.25	17.09	
2025-01-17 01:18:23.20	6.11	17.24	
2025-01-17 01:18:24.62	5.98	17.39	
2025-01-17 01:18:26.04	5.84	17.54	
2025-01-17 01:18:27.47	5.70	17.70	
2025-01-17 01:18:28.89	5.56	17.85	
2025-01-17 01:18:30.31	5.42	18.00	
2025-01-17 01:18:31.73	5.28	18.16	
2025-01-17 01:18:33.15	5.13	18.31	
2025-01-17 01:18:34.57	4.99	18.47	
2025-01-17 01:18:35.99	4.84	18.63	
2025-01-17 01:18:37.41	4.69	18.78	
2025-01-17 01:18:38.83	4.54	18.94	
2025-01-17 01:18:40.25	4.39	19.10	
2025-01-17 01:18:41.67	4.23	19.26	
2025-01-17 01:18:43.09	4.08	19.42	
2025-01-17 01:18:44.51	3.92	19.59	
2025-01-17 01:18:45.94	3.76	19.75	
2025-01-17 01:18:47.36	3.60	19.91	
2025-01-17 01:18:48.78	3.44	20.08	
2025-01-17 01:18:50.20	3.27	20.24	
2025-01-17 01:18:51.62	3.11	20.41	
2025-01-17 01:18:53.04	2.94	20.57	
2025-01-17 01:18:54.46	2.77	20.74	
2025-01-17 01:18:55.88	2.60	20.91	
2025-01-17 01:18:57.30	2.42	21.08	
2025-01-17 01:18:58.72	2.25	21.25	
2025-01-17 01:19:00.14	2.07	21.42	
2025-01-17 01:19:01.56	1.89	21.59	
2025-01-17 01:19:02.98	1.71	21.77	
2025-01-17 01:19:04.41	1.52	21.94	
2025-01-17 01:19:05.83	1.34	22.11	
2025-01-17 01:19:07.25	1.15	22.29	
2025-01-17 01:19:08.67	0.96	22.47	
2025-01-17 01:19:10.09	0.76	22.64	
2025-01-17 01:19:11.51	0.57	22.82	
2025-01-17 01:19:12.93	0.37	23.00	
2025-01-17 01:19:14.35	0.17	23.18	
2025-01-17 01:19:15.77	359.97	23.36	
2025-01-17 01:19:17.19	359.77	23.54	
2025-01-17 01:19:18.61	359.56	23.72	
2025-01-17 01:19:20.03	359.35	23.91	
2025-01-17 01:19:21.45	359.14	24.09	
2025-01-17 01:19:22.88	358.92	24.28	
2025-01-17 01:19:24.30	358.70	24.46	
2025-01-17 01:19:25.72	358.48	24.65	
2025-01-17 01:19:27.14	358.26	24.84	
2025-01-17 01:19:28.56	358.04	25.03	
2025-01-17 01:19:29.98	357.81	25.22	
2025-01-17 01:19:31.40	357.58	25.41	
2025-01-17 01:19:32.82	357.34	25.60	
2025-01-17 01:19:34.24	357.11	25.79	
2025-01-17 01:19:35.66	356.87	25.98	
2025-01-17 01:19:37.08	356.63	26.17	
2025-01-17 01:19:38.50	356.38	26.37	
2025-01-17 01:19:39.92	356.13	26.56	
2025-01-17 01:19:41.35	355.88	26.76	
2025-01-17 01:19:42.77	355.62	26.96	
2025-01-17 01:19:44.19	355.37	27.15	
2025-01-17 01:19:45.61	355.10	27.35	
2025-01-17 01:19:47.03	354.84	27.55	
2025-01-17 01:19:48.45	354.57	27.75	
2025-01-17 01:19:49.87	354.30	27.95	
2025-01-17 01:19:51.29	354.02	28.15	
2025-01-17 01:19:52.71	353.75	28.36	
2025-01-17 01:19:54.13	353.46	28.56	
2025-01-17 01:19:55.55	353.18	28.76	
2025-01-17 01:19:56.97	352.89	28.97	
2025-01-17 01:19:58.39	352.59	29.17	
2025-01-17 01:19:59.83	352.29	29.38	
2025-01-17 01:20:01.25	351.99	29.58	
2025-01-17 01:20:02.67	351.69	29.79	
2025-01-17 01:20:04.09	351.38	30.00	
2025-01-17 01:20:05.51	351.07	30.21	
2025-01-17 01:20:06.93	350.75	30.41	
2025-01-17 01:20:08.35	350.43	30.62	
2025-01-17 01:20:09.78	350.10	30.83	
2025-01-17 01:20:11.20	349.77	31.04	
2025-01-17 01:20:12.62	349.43	31.25	
2025-01-17 01:20:14.04	349.10	31.46	
2025-01-17 01:20:15.46	348.75	31.67	
2025-01-17 01:20:16.88	348.40	31.89	
2025-01-17 01:20:18.30	348.05	32.10	
2025-01-17 01:20:19.72	347.70	32.31	
2025-01-17 01:20:21.14	347.33	32.52	
2025-01-17 01:20:22.56	346.97	32.73	
2025-01-17 01:20:23.98	346.60	32.94	
2025-01-17 01:20:25.40	346.22	33.16	
2025-01-17 01:20:26.82	345.84	33.37	
2025-01-17 01:20:28.25	345.45	33.58	
2025-01-17 01:20:29.67	345.06	33.80	
2025-01-17 01:20:31.09	344.66	34.01	
2025-01-17 01:20:32.51	344.26	34.22	
2025-01-17 01:20:33.93	343.85	34.43	
2025-01-17 01:20:35.35	343.44	34.64	
2025-01-17 01:20:36.77	343.02	34.85	
2025-01-17 01:20:38.19	342.59	35.07	
2025-01-17 01:20:39.61	342.17	35.28	
2025-01-17 01:20:41.03	341.73	35.49	
2025-01-17 01:20:42.45	341.29	35.70	
2025-01-17 01:20:43.87	340.84	35.90	
2025-01-17 01:20:45.29	340.39	36.11	
2025-01-17 01:20:46.72	339.93	36.32	
2025-01-17 01:20:48.14	339.46	36.53	
2025-01-17 01:20:49.56	338.99	36.74	
2025-01-17 01:20:50.98	338.52	36.94	
2025-01-17 01:20:52.40	338.04	37.14	
2025-01-17 01:20:53.82	337.55	37.35	
2025-01-17 01:20:55.24	337.05	37.55	
2025-01-17 01:20:56.66	336.55	37.75	
2025-01-17 01:20:58.08	336.05	37.95	
2025-01-17 01:20:59.50	335.53	38.15	
2025-01-17 01:21:00.92	335.01	38.34	
2025-01-17 01:21:02.34	334.49	38.54	
2025-01-17 01:21:03.76	333.95	38.73	
2025-01-17 01:21:05.19	333.41	38.92	
2025-01-17 01:21:06.61	332.87	39.11	
2025-01-17 01:21:08.03	332.32	39.30	
2025-01-17 01:21:09.45	331.76	39.48	
2025-01-17 01:21:10.87	331.19	39.67	
2025-01-17 01:21:12.29	330.62	39.85	
2025-01-17 01:21:13.71	330.05	40.03	
2025-01-17 01:21:15.13	329.46	40.20	
2025-01-17 01:21:16.55	328.87	40.38	
2025-01-17 01:21:17.97	328.28	40.55	
2025-01-17 01:21:19.39	327.67	40.72	
2025-01-17 01:21:20.81	327.06	40.88	
2025-01-17 01:21:22.23	326.45	41.04	
2025-01-17 01:21:23.66	325.82	41.20	
2025-01-17 01:21:25.08	325.20	41.36	
2025-01-17 01:21:26.50	324.56	41.51	
2025-01-17 01:21:27.92	323.92	41.66	
2025-01-17 01:21:29.34	323.28	41.81	
2025-01-17 01:21:30.76	322.63	41.95	
2025-01-17 01:21:32.18	321.97	42.09	
2025-01-17 01:21:33.60	321.31	42.22	
2025-01-17 01:21:35.02	320.64	42.36	
2025-01-17 01:21:36.44	319.96	42.48	
2025-01-17 01:21:37.86	319.29	42.61	
2025-01-17 01:21:39.28	318.60	42.72	
2025-01-17 01:21:40.70	317.91	42.84	
2025-01-17 01:21:42.13	317.21	42.95	
2025-01-17 01:21:43.55	316.51	43.06	
2025-01-17 01:21:44.97	315.81	43.16	
2025-01-17 01:21:46.39	315.10	43.25	
2025-01-17 01:21:47.81	314.39	43.34	
2025-01-17 01:21:49.23	313.67	43.43	
2025-01-17 01:21:50.65	312.96	43.51	
2025-01-17 01:21:52.07	312.23	43.59	
2025-01-17 01:21:53.49	311.50	43.66	
2025-01-17 01:21:54.91	310.77	43.73	
2025-01-17 01:21:56.33	310.04	43.79	
2025-01-17 01:21:57.75	309.31	43.85	
2025-01-17 01:21:59.17	308.57	43.90	
2025-01-17 01:22:00.60	307.82	43.95	
2025-01-17 01:22:02.02	307.08	43.99	
2025-01-17 01:22:03.44	306.33	44.02	
2025-01-17 01:22:04.86	305.59	44.05	
2025-01-17 01:22:06.28	304.84	44.08	
2025-01-17 01:22:07.70	304.09	44.10	
2025-01-17 01:22:09.12	303.34	44.11	
2025-01-17 01:22:10.54	302.59	44.12	
2025-01-17 01:22:11.96	301.84	44.12	
2025-01-17 01:22:13.38	301.09	44.12	
2025-01-17 01:22:14.80	300.34	44.11	
2025-01-17 01:22:16.22	299.59	44.10	
2025-01-17 01:22:17.64	298.84	44.08	
2025-01-17 01:22:19.07	298.09	44.06	
2025-01-17 01:22:20.49	297.34	44.03	
2025-01-17 01:22:21.91	296.60	43.99	
2025-01-17 01:22:23.33	295.86	43.95	
2025-01-17 01:22:24.75	295.11	43.90	
2025-01-17 01:22:26.17	294.38	43.85	
2025-01-17 01:22:27.59	293.64	43.79	
2025-01-17 01:22:29.01	292.91	43.73	
2025-01-17 01:22:30.43	292.17	43.67	
2025-01-17 01:22:31.85	291.45	43.59	
2025-01-17 01:22:33.27	290.72	43.52	
2025-01-17 01:22:34.69	290.00	43.43	
2025-01-17 01:22:36.11	289.28	43.35	
2025-01-17 01:22:37.54	288.57	43.26	
2025-01-17 01:22:38.96	287.86	43.16	
2025-01-17 01:22:40.38	287.15	43.06	
2025-01-17 01:22:41.80	286.45	42.95	
2025-01-17 01:22:43.22	285.76	42.84	
2025-01-17 01:22:44.64	285.07	42.73	
2025-01-17 01:22:46.06	284.38	42.61	
2025-01-17 01:22:47.48	283.70	42.49	
2025-01-17 01:22:48.90	283.03	42.36	
2025-01-17 01:22:50.32	282.36	42.23	
2025-01-17 01:22:51.74	281.69	42.09	
2025-01-17 01:22:53.16	281.04	41.95	
2025-01-17 01:22:54.58	280.38	41.81	
2025-01-17 01:22:56.01	279.73	41.66	
2025-01-17 01:22:57.43	279.09	41.51	
2025-01-17 01:22:58.85	278.46	41.36	
2025-01-17 01:23:00.27	277.83	41.21	
2025-01-17 01:23:01.69	277.20	41.05	
2025-01-17 01:23:03.11	276.59	40.88	
2025-01-17 01:23:04.53	275.98	40.72	
2025-01-17 01:23:05.95	275.37	40.55	
2025-01-17 01:23:07.37	274.78	40.38	
2025-01-17 01:23:08.79	274.18	40.20	
2025-01-17 01:23:10.21	273.60	40.03	
2025-01-17 01:23:11.63	273.02	39.85	
2025-01-17 01:23:13.05	272.45	39.67	
2025-01-17 01:23:14.48	271.88	39.48	
2025-01-17 01:23:15.90	271.32	39.30	
2025-01-17 01:23:17.32	270.77	39.11	
2025-01-17 01:23:18.74	270.22	38.92	
2025-01-17 01:23:20.16	269.68	38.73	
2025-01-17 01:23:21.58	269.15	38.53	
2025-01-17 01:23:23.00	268.62	38.34	
2025-01-17 01:23:24.42	268.10	38.14	
2025-01-17 01:23:25.84	267.58	37.94	
2025-01-17 01:23:27.26	267.07	37.74	
2025-01-17 01:23:28.68	266.57	37.54	
2025-01-17 01:23:30.10	266.07	37.34	
2025-01-17 01:23:31.52	265.59	37.14	
2025-01-17 01:23:32.94	265.10	36.93	
2025-01-17 01:23:34.37	264.62	36.72	
2025-01-17 01:23:35.79	264.15	36.52	
2025-01-17 01:23:37.21	263.68	36.31	
2025-01-17 01:23:38.63	263.22	36.10	
2025-01-17 01:23:40.05	262.77	35.89	
2025-01-17 01:23:41.47	262.32	35.68	
2025-01-17 01:23:42.89	261.88	35.47	
2025-01-17 01:23:44.31	261.44	35.26	
2025-01-17 01:23:45.73	261.01	35.05	
2025-01-17 01:23:47.15	260.59	34.84	
2025-01-17 01:23:48.57	260.17	34.63	
2025-01-17 01:23:49.99	259.75	34.41	
2025-01-17 01:23:51.42	259.34	34.20	
2025-01-17 01:23:52.84	258.94	33.99	
2025-01-17 01:23:54.26	258.54	33.77	
2025-01-17 01:23:55.68	258.14	33.56	
2025-01-17 01:23:57.10	257.76	33.35	
2025-01-17 01:23:58.52	257.37	33.13	
2025-01-17 01:23:59.94	257.00	32.92	
2025-01-17 01:24:01.36	256.62	32.71	
2025-01-17 01:24:02.78	256.26	32.50	
2025-01-17 01:24:04.20	255.89	32.28	
2025-01-17 01:24:05.62	255.53	32.07	
2025-01-17 01:24:07.04	255.18	31.86	
2025-01-17 01:24:08.46	254.83	31.65	
2025-01-17 01:24:09.88	254.49	31.43	
2025-01-17 01:24:11.31	254.14	31.22	
2025-01-17 01:24:12.73	253.81	31.01	
2025-01-17 01:24:14.15	253.48	30.80	
2025-01-17 01:24:15.57	253.15	30.59	
2025-01-17 01:24:16.99	252.83	30.38	
2025-01-17 01:24:18.41	252.51	30.17	
2025-01-17 01:24:19.83	252.19	29.96	
2025-01-17 01:24:21.25	251.88	29.76	
2025-01-17 01:24:22.67	251.58	29.55	
2025-01-17 01:24:24.09	251.28	29.34	
2025-01-17 01:24:25.51	250.98	29.14	
2025-01-17 01:24:26.93	250.68	28.93	
2025-01-17 01:24:28.37	250.39	28.72	
2025-01-17 01:24:29.79	250.10	28.52	
2025-01-17 01:24:31.21	249.82	28.32	
2025-01-17 01:24:32.63	249.54	28.11	
2025-01-17 01:24:34.05	249.26	27.91	
2025-01-17 01:24:35.47	248.99	27.71	
2025-01-17 01:24:36.90	248.72	27.51	
2025-01-17 01:24:38.32	248.45	27.31	
2025-01-17 01:24:39.74	248.19	27.11	
2025-01-17 01:24:41.16	247.93	26.91	
2025-01-17 01:24:42.58	247.67	26.71	
2025-01-17 01:24:44.00	247.42	26.52	
2025-01-17 01:24:45.43	247.17	26.32	
2025-01-17 01:24:46.85	246.92	26.12	
2025-01-17 01:24:48.28	246.68	25.93	
2025-01-17 01:24:49.70	246.44	25.73	
2025-01-17 01:24:51.12	246.20	25.54	
2025-01-17 01:24:52.55	245.96	25.35	
2025-01-17 01:24:53.97	245.73	25.16	
2025-01-17 01:24:55.39	245.50	24.97	
2025-01-17 01:24:56.81	245.27	24.78	
2025-01-17 01:24:58.23	245.05	24.59	
2025-01-17 01:24:59.65	244.83	24.40	
2025-01-17 01:25:01.07	244.61	24.22	
2025-01-17 01:25:02.49	244.40	24.03	
2025-01-17 01:25:03.91	244.18	23.85	
2025-01-17 01:25:05.33	243.97	23.66	
2025-01-17 01:25:06.75	243.77	23.48	
2025-01-17 01:25:08.17	243.56	23.30	
2025-01-17 01:25:09.60	243.36	23.12	
2025-01-17 01:25:11.02	243.15	22.94	
2025-01-17 01:25:12.44	242.96	22.76	
2025-01-17 01:25:13.86	242.76	22.58	
2025-01-17 01:25:15.28	242.57	22.40	
2025-01-17 01:25:16.70	242.37	22.22	
2025-01-17 01:25:18.12	242.18	22.05	
2025-01-17 01:25:19.54	242.00	21.87	
2025-01-17 01:25:20.96	241.81	21.70	
2025-01-17 01:25:22.38	241.63	21.52	
2025-01-17 01:25:23.80	241.45	21.35	
2025-01-17 01:25:25.22	241.27	21.18	
2025-01-17 01:25:26.64	241.09	21.01	
2025-01-17 01:25:28.07	240.92	20.84	
2025-01-17 01:25:29.49	240.74	20.67	
2025-01-17 01:25:30.91	240.57	20.50	
2025-01-17 01:25:32.33	240.40	20.33	
2025-01-17 01:25:33.75	240.24	20.17	
2025-01-17 01:25:35.17	240.07	20.00	
2025-01-17 01:25:36.59	239.91	19.84	
2025-01-17 01:25:38.01	239.74	19.67	
2025-01-17 01:25:39.43	239.58	19.51	
2025-01-17 01:25:40.85	239.43	19.35	
2025-01-17 01:25:42.27	239.27	19.19	
2025-01-17 01:25:43.69	239.11	19.02	
2025-01-17 01:25:45.11	238.96	18.86	
2025-01-17 01:25:46.54	238.81	18.70	
2025-01-17 01:25:47.96	238.66	18.55	
2025-01-17 01:25:49.38	238.51	18.39	
2025-01-17 01:25:50.80	238.36	18.23	
2025-01-17 01:25:52.22	238.22	18.08	
2025-01-17 01:25:53.64	238.07	17.92	
2025-01-17 01:25:55.06	237.93	17.77	
2025-01-17 01:25:56.48	237.79	17.61	
2025-01-17 01:25:57.90	237.65	17.46	
2025-01-17 01:25:59.32	237.51	17.31	
2025-01-17 01:26:00.74	237.38	17.16	
2025-01-17 01:26:02.16	237.24	17.01	
2025-01-17 01:26:03.58	237.11	16.86	
2025-01-17 01:26:05.01	236.97	16.71	
2025-01-17 01:26:06.43	236.84	16.56	
2025-01-17 01:26:07.85	236.71	16.41	
2025-01-17 01:26:09.27	236.58	16.27	
2025-01-17 01:26:10.69	236.46	16.12	
2025-01-17 01:26:12.11	236.33	15.97	
2025-01-17 01:26:13.53	236.21	15.83	
2025-01-17 01:26:14.95	236.08	15.69	
2025-01-17 01:26:16.37	235.96	15.54	
2025-01-17 01:26:17.79	235.84	15.40	
2025-01-17 01:26:19.21	235.72	15.26	
2025-01-17 01:26:20.63	235.60	15.12	
2025-01-17 01:26:22.05	235.48	14.98	
2025-01-17 01:26:23.48	235.37	14.84	
2025-01-17 01:26:24.90	235.25	14.70	
2025-01-17 01:26:26.32	235.14	14.56	
2025-01-17 01:26:27.74	235.02	14.42	
2025-01-17 01:26:29.16	234.91	14.29	
2025-01-17 01:26:30.58	234.80	14.15	
2025-01-17 01:26:32.00	234.69	14.01	
2025-01-17 01:26:33.42	234.58	13.88	
2025-01-17 01:26:34.84	234.47	13.74	
2025-01-17 01:26:36.26	234.37	13.61	
2025-01-17 01:26:37.68	234.26	13.48	
2025-01-17 01:26:39.10	234.15	13.34	
2025-01-17 01:26:40.52	234.05	13.21	
2025-01-17 01:26:41.95	233.95	13.08	
2025-01-17 01:26:43.37	233.84	12.95	
2025-01-17 01:26:44.79	233.74	12.82	
2025-01-17 01:26:46.21	233.64	12.69	
2025-01-17 01:26:47.65	233.54	12.56	
2025-01-17 01:26:49.07	233.44	12.43	
2025-01-17 01:26:50.49	233.35	12.30	
2025-01-17 01:26:51.93	233.25	12.18	
2025-01-17 01:26:53.35	233.15	12.05	
2025-01-17 01:26:54.77	233.06	11.92	
2025-01-17 01:26:56.19	232.96	11.80	
2025-01-17 01:26:57.61	232.87	11.67	
2025-01-17 01:26:59.03	232.78	11.55	
2025-01-17 01:27:00.45	232.69	11.42	
2025-01-17 01:27:01.87	232.60	11.30	
2025-01-17 01:27:03.29	232.51	11.18	
2025-01-17 01:27:04.71	232.42	11.06	
2025-01-17 01:27:06.13	232.33	10.94	
2025-01-17 01:27:07.56	232.24	10.81	
2025-01-17 01:27:08.98	232.15	10.69	
2025-01-17 01:27:10.40	232.07	10.57	
2025-01-17 01:27:11.82	231.98	10.45	
2025-01-17 01:27:13.24	231.90	10.33	
2025-01-17 01:27:14.66	231.81	10.22	
2025-01-17 01:27:16.08	231.73	10.10	
2025-01-17 01:27:17.50	231.65	9.98	
2025-01-17 01:27:18.92	231.56	9.86	
2025-01-17 01:27:20.34	231.48	9.75	
2025-01-17 01:27:21.76	231.40	9.63	
2025-01-17 01:27:23.19	231.32	9.52	
2025-01-17 01:27:24.61	231.24	9.40	
2025-01-17 01:27:26.03	231.16	9.29	
2025-01-17 01:27:27.45	231.08	9.17	
2025-01-17 01:27:28.87	231.01	9.06	
2025-01-17 01:27:30.29	230.93	8.95	
2025-01-17 01:27:31.72	230.85	8.83	
2025-01-17 01:27:33.14	230.78	8.72	
2025-01-17 01:27:34.56	230.70	8.61	
2025-01-17 01:27:35.98	230.63	8.50	
2025-01-17 01:27:37.41	230.55	8.39	
2025-01-17 01:27:38.83	230.48	8.28	
2025-01-17 01:27:40.25	230.41	8.17	
2025-01-17 01:27:41.67	230.34	8.06	
2025-01-17 01:27:43.09	230.27	7.95	
2025-01-17 01:27:44.51	230.19	7.84	
2025-01-17 01:27:45.93	230.12	7.73	
2025-01-17 01:27:47.35	230.05	7.62	
2025-01-17 01:27:48.77	229.98	7.51	
2025-01-17 01:27:50.19	229.92	7.41	
2025-01-17 01:27:51.61	229.85	7.30	
2025-01-17 01:27:53.03	229.78	7.19	
2025-01-17 01:27:54.45	229.71	7.09	
2025-01-17 01:27:55.87	229.65	6.98	
2025-01-17 01:27:57.30	229.58	6.88	
2025-01-17 01:27:58.72	229.51	6.77	
2025-01-17 01:28:00.14	229.45	6.67	
2025-01-17 01:28:01.56	229.38	6.57	
2025-01-17 01:28:02.98	229.32	6.46	
2025-01-17 01:28:04.40	229.26	6.36	
2025-01-17 01:28:05.82	229.19	6.26	
2025-01-17 01:28:07.24	229.13	6.15	
2025-01-17 01:28:08.66	229.07	6.05	
2025-01-17 01:28:10.08	229.01	5.95	
2025-01-17 01:28:11.50	228.95	5.85	
2025-01-17 01:28:12.92	228.88	5.75	
2025-01-17 01:28:14.35	228.82	5.65	
2025-01-17 01:28:15.77	228.76	5.55	
2025-01-17 01:28:17.19	228.70	5.45	
2025-01-17 01:28:18.61	228.64	5.35	
2025-01-17 01:28:20.03	228.59	5.25	
2025-01-17 01:28:21.45	228.53	5.15	
2025-01-17 01:28:22.87	228.47	5.05	
2025-01-17 01:28:24.29	228.41	4.95	
2025-01-17 01:28:25.71	228.36	4.86	
2025-01-17 01:28:27.13	228.30	4.76	
2025-01-17 01:28:28.55	228.24	4.66	
2025-01-17 01:28:29.97	228.19	4.56	
2025-01-17 01:28:31.39	228.13	4.47	
2025-01-17 01:28:32.82	228.08	4.37	
2025-01-17 01:28:34.24	228.02	4.27	
2025-01-17 01:28:35.66	227.97	4.18	
2025-01-17 01:28:37.08	227.91	4.08	

#Closed at: 2025-01-17 01:28:38