passes_logs/2025/01/06/X_MFTI_02/X_MFTI_02__20250106_112720_FENGYUN_3D_rec.log

#Pass ID: 20250106_112720_FENGYUN 3D
#Satellite: FENGYUN 3D
#Configuration: FENGYUN 3D
#Start time: 2025-01-06 11:27:16

#Version: 1.5.20200625
#Station: X_MFTI_02
#Location: 37.5186 lon 55.9291 lat
#TLE: 1 43010U 17072A   23362.50642187  .00000183  00000+0  10870-3 0  9994
#TLE: 2 43010  98.8887 311.3857 0002475  98.0400 262.1057 14.19259665317063

#Time	Az	El	Level	Level2	SNR	BER	Gain	Gain2
2025-01-06 11:27:16.82	182.80	68.48	-69.8	-89.3	3.7	8456291	99	34060
2025-01-06 11:27:17.23	182.99	68.66	-69.7	-89.3	3.8	8452491	99	34172
2025-01-06 11:27:17.65	183.18	68.84	-69.4	-88.9	3.8	8461544	99	34149
2025-01-06 11:27:18.07	183.38	69.02	-69.8	-89.1	3.8	8456130	99	33220
2025-01-06 11:27:18.48	183.58	69.20	-69.8	-89.3	3.8	8462036	99	33916
2025-01-06 11:27:18.90	183.78	69.38	-69.8	-89.3	3.8	8465972	99	33994
2025-01-06 11:27:19.32	183.99	69.57	-69.8	-89.3	3.8	8461257	99	33938
2025-01-06 11:27:19.73	184.20	69.74	-69.8	-89.5	3.8	8465824	99	34808
2025-01-06 11:27:20.15	184.42	69.93	-69.6	-89.6	3.8	8458763	98	36092
2025-01-06 11:27:20.56	184.63	70.10	-69.8	-89.4	3.8	8451816	99	34038
2025-01-06 11:27:20.98	184.86	70.29	-69.7	-89.0	3.7	8459735	99	33171
2025-01-06 11:27:21.40	185.09	70.47	-69.6	-88.9	3.8	8467918	99	33277
2025-01-06 11:27:21.82	185.32	70.65	-69.8	-89.3	3.8	8456062	99	33909
2025-01-06 11:27:22.23	185.56	70.83	-69.6	-89.0	3.8	8458282	99	33794
2025-01-06 11:27:22.65	185.80	71.01	-69.4	-88.8	3.8	8457378	99	33815
2025-01-06 11:27:23.07	186.05	71.19	-69.6	-89.1	3.8	8456474	99	33860
2025-01-06 11:27:23.49	186.30	71.38	-69.3	-89.3	3.8	8466785	98	35943
2025-01-06 11:27:23.90	186.56	71.55	-69.7	-89.3	3.7	8465938	99	34176
2025-01-06 11:27:24.32	186.82	71.74	-69.4	-88.7	3.8	8460514	99	33260
2025-01-06 11:27:24.74	187.09	71.92	-69.3	-89.3	3.8	8472667	98	35928
2025-01-06 11:27:25.16	187.37	72.10	-69.7	-89.2	3.8	8452972	99	33946
2025-01-06 11:27:25.57	187.64	72.28	-69.8	-89.3	3.8	8461864	99	33893
2025-01-06 11:27:25.99	187.93	72.46	-69.9	-89.3	3.8	8465023	99	33790
2025-01-06 11:27:26.41	188.22	72.64	-69.4	-88.9	3.8	8462162	99	34057
2025-01-06 11:27:26.83	188.53	72.82	-69.7	-89.2	3.8	8453773	99	34114
2025-01-06 11:27:27.24	188.83	73.00	-69.5	-88.9	3.8	8461830	99	33596
2025-01-06 11:27:27.66	189.14	73.18	-69.8	-89.2	3.8	8462814	99	33573
2025-01-06 11:27:28.08	189.46	73.36	-69.4	-89.5	3.8	8465789	98	36174
2025-01-06 11:27:28.50	189.79	73.54	-69.4	-88.9	3.8	8462814	99	34049
2025-01-06 11:27:28.91	190.12	73.72	-69.6	-89.0	3.8	8469760	99	33646
2025-01-06 11:27:29.33	190.46	73.90	-69.5	-88.9	3.8	8460559	99	33361
2025-01-06 11:27:29.75	190.82	74.08	-69.5	-89.6	3.8	8467288	98	36079
2025-01-06 11:27:30.16	191.17	74.26	-69.8	-89.3	3.8	8465732	99	34085
2025-01-06 11:27:30.58	191.54	74.44	-69.5	-89.0	3.8	8461212	99	33799
2025-01-06 11:27:31.00	191.92	74.62	-69.6	-89.1	3.8	8454174	99	34025
2025-01-06 11:27:31.41	192.29	74.79	-69.5	-89.3	3.8	8459140	98	35355
2025-01-06 11:27:31.83	192.69	74.97	-69.6	-89.0	3.8	8455329	99	33641
2025-01-06 11:27:32.25	193.10	75.15	-69.4	-88.8	3.8	8468387	99	33606
2025-01-06 11:27:32.67	193.51	75.32	-69.6	-89.1	3.9	8467723	99	34090
2025-01-06 11:27:33.08	193.93	75.50	-69.4	-89.0	3.8	8462413	99	34104
2025-01-06 11:27:33.50	194.37	75.67	-69.4	-88.7	3.8	8454803	99	33398
2025-01-06 11:27:33.92	194.82	75.85	-69.6	-88.9	3.8	8467151	99	33293
2025-01-06 11:27:34.33	195.27	76.02	-69.8	-89.4	3.8	8463535	99	34045
2025-01-06 11:27:34.75	195.74	76.19	-69.6	-89.6	3.7	8460479	98	36164
2025-01-06 11:27:35.17	196.22	76.37	-69.5	-88.9	3.8	8457962	99	33445
2025-01-06 11:27:35.58	196.71	76.54	-69.3	-88.8	3.8	8466167	99	34112
2025-01-06 11:27:36.00	197.22	76.71	-69.4	-88.9	3.8	8465560	99	34212
2025-01-06 11:27:36.42	197.74	76.88	-69.6	-89.7	3.7	8450649	98	36284
2025-01-06 11:27:36.84	198.28	77.05	-69.3	-88.6	3.8	8458671	99	33237
2025-01-06 11:27:37.25	198.82	77.21	-69.3	-89.3	3.8	8466419	98	36025
2025-01-06 11:27:37.67	199.39	77.38	-69.4	-89.4	3.8	8464542	98	35905
2025-01-06 11:27:38.09	199.97	77.55	-69.8	-89.3	3.8	8449264	99	34244
2025-01-06 11:27:38.51	200.57	77.72	-69.6	-89.2	3.8	8462024	99	34149
2025-01-06 11:27:38.92	201.18	77.88	-69.6	-89.1	3.8	8462173	99	34082
2025-01-06 11:27:39.34	201.81	78.04	-69.7	-89.3	3.8	8461257	99	34114
2025-01-06 11:27:39.76	202.46	78.20	-69.2	-89.0	3.8	8473297	98	35223
2025-01-06 11:27:40.18	203.13	78.36	-69.6	-89.1	3.8	8477016	99	34125
2025-01-06 11:27:40.59	203.80	78.52	-69.7	-89.2	3.8	8448944	99	34062
2025-01-06 11:27:41.01	204.51	78.68	-69.7	-89.2	3.8	8458522	99	34115
2025-01-06 11:27:41.43	205.24	78.84	-69.8	-89.3	3.8	8468364	99	33944
2025-01-06 11:27:41.85	205.99	78.99	-69.8	-89.3	3.8	8461830	99	34142
2025-01-06 11:27:42.27	206.76	79.14	-69.5	-89.0	3.8	8455032	99	33890
2025-01-06 11:27:42.68	207.54	79.29	-69.7	-88.9	3.7	8448268	99	33126
2025-01-06 11:27:43.10	208.35	79.44	-69.7	-89.2	3.8	8450397	99	33961
2025-01-06 11:27:43.52	209.19	79.59	-69.8	-89.3	3.8	8459609	99	34040
2025-01-06 11:27:43.94	210.06	79.73	-69.8	-89.3	3.7	8463455	99	33974
2025-01-06 11:27:44.35	210.93	79.87	-69.7	-89.0	3.8	8450363	99	33467
2025-01-06 11:27:44.77	211.84	80.01	-69.7	-89.0	3.8	8458374	99	33291
2025-01-06 11:27:45.19	212.78	80.15	-69.5	-89.5	3.8	8460594	98	36052
2025-01-06 11:27:45.60	213.73	80.29	-69.7	-89.2	3.8	8461395	99	33963
2025-01-06 11:27:46.02	214.72	80.42	-69.4	-88.8	3.8	8461143	99	33615
2025-01-06 11:27:46.44	215.74	80.55	-69.7	-89.2	3.8	8467025	99	33943
2025-01-06 11:27:46.86	216.79	80.68	-69.7	-89.2	3.7	8458499	99	34074
2025-01-06 11:27:47.27	217.85	80.80	-69.5	-89.0	3.8	8458740	99	34001
2025-01-06 11:27:47.69	218.96	80.92	-69.6	-88.9	3.8	8464736	99	33296
2025-01-06 11:27:48.11	220.10	81.04	-69.7	-89.2	3.8	8463489	99	33995
2025-01-06 11:27:48.52	221.24	81.15	-69.3	-88.7	3.8	8452514	99	33921
2025-01-06 11:27:48.94	222.44	81.26	-69.5	-88.9	3.8	8455387	99	33504
2025-01-06 11:27:49.36	223.67	81.36	-69.4	-88.8	3.8	8460411	99	33515
2025-01-06 11:27:49.77	224.90	81.47	-69.7	-89.2	3.8	8456073	99	34071
2025-01-06 11:27:50.19	226.19	81.56	-69.5	-89.0	3.8	8460662	99	34070
2025-01-06 11:27:50.61	227.51	81.66	-69.6	-89.2	3.8	8463420	99	34135
2025-01-06 11:27:51.03	228.86	81.75	-69.9	-89.5	3.8	8456794	99	34292
2025-01-06 11:27:51.44	230.20	81.83	-69.4	-88.9	3.8	8457183	99	34145
2025-01-06 11:27:51.86	231.61	81.91	-69.4	-88.9	3.8	8461395	99	34263
2025-01-06 11:27:52.28	233.04	81.99	-69.8	-89.4	3.8	8466751	99	34337
2025-01-06 11:27:52.70	234.51	82.06	-69.7	-89.3	3.8	8451885	99	34236
2025-01-06 11:27:53.11	235.96	82.12	-69.7	-89.3	3.8	8466087	99	34292
2025-01-06 11:27:53.53	237.47	82.18	-69.4	-89.0	3.8	8456336	99	34164
2025-01-06 11:27:53.95	239.00	82.24	-69.4	-88.9	3.8	8459690	99	34293
2025-01-06 11:27:54.37	240.56	82.29	-69.4	-89.0	3.8	8470584	99	34269
2025-01-06 11:27:54.78	242.09	82.33	-69.4	-89.0	3.8	8470790	99	34370
2025-01-06 11:27:55.20	243.68	82.37	-69.4	-88.9	3.8	8448257	99	34000
2025-01-06 11:27:55.62	245.29	82.40	-69.6	-89.1	3.8	8455444	99	34119
2025-01-06 11:27:56.03	246.87	82.43	-69.4	-88.8	3.8	8463214	99	33446
2025-01-06 11:27:56.45	248.50	82.45	-69.7	-89.2	3.8	8461635	99	34017
2025-01-06 11:27:56.86	250.09	82.46	-69.5	-89.0	3.8	8453029	99	34050
2025-01-06 11:27:57.28	251.73	82.47	-69.5	-89.1	3.8	8457881	99	34302
2025-01-06 11:27:57.70	253.38	82.47	-69.5	-89.0	3.8	8453979	99	34326
2025-01-06 11:27:58.11	254.98	82.47	-69.4	-88.9	3.8	8471340	99	33905
2025-01-06 11:27:58.53	256.62	82.46	-69.4	-89.0	3.8	8462516	99	34356
2025-01-06 11:27:58.95	258.25	82.45	-69.4	-89.0	3.8	8462677	99	34330
2025-01-06 11:27:59.36	259.84	82.42	-69.5	-89.1	3.8	8465595	99	34457
2025-01-06 11:27:59.78	261.46	82.40	-69.5	-89.1	3.8	8456256	99	34380
2025-01-06 11:28:00.20	263.06	82.36	-69.4	-88.9	3.8	8454666	99	33995
2025-01-06 11:28:00.61	264.61	82.33	-69.4	-89.0	3.8	8467140	99	34244
2025-01-06 11:28:01.03	266.18	82.28	-69.6	-89.1	3.8	8465847	99	34154
2025-01-06 11:28:01.44	267.69	82.23	-69.6	-89.1	3.8	8473182	99	34161
2025-01-06 11:28:01.86	269.22	82.17	-69.7	-89.7	3.8	8461807	99	35699
2025-01-06 11:28:02.28	270.73	82.11	-69.7	-89.2	3.8	8466224	99	34267
2025-01-06 11:28:02.69	272.18	82.05	-69.7	-89.3	3.8	8460823	99	34278
2025-01-06 11:28:03.11	273.64	81.98	-69.5	-89.2	3.8	8453865	99	34443
2025-01-06 11:28:03.53	275.07	81.90	-69.6	-89.2	4.0	8456817	99	34407
2025-01-06 11:28:03.95	276.47	81.82	-69.8	-89.3	3.8	8460674	99	34341
2025-01-06 11:28:04.36	277.81	81.73	-69.8	-89.5	3.8	8458705	99	34430
2025-01-06 11:28:04.78	279.15	81.64	-69.7	-89.3	3.8	8465618	99	34364
2025-01-06 11:28:05.20	280.47	81.55	-70.1	-90.8	3.8	8448131	99	38935
2025-01-06 11:28:05.61	281.72	81.45	-69.8	-89.4	3.8	8478298	99	34499
2025-01-06 11:28:06.03	282.98	81.35	-69.8	-89.4	3.8	8463043	99	34401
2025-01-06 11:28:06.45	284.20	81.24	-69.7	-89.3	3.8	8460250	99	34263
2025-01-06 11:28:06.86	285.37	81.13	-69.9	-90.0	3.8	8463054	99	36505
2025-01-06 11:28:07.28	286.53	81.02	-69.7	-89.3	3.8	8469062	99	34375
2025-01-06 11:28:07.70	287.66	80.90	-69.7	-89.3	3.8	8473995	99	34383
2025-01-06 11:28:08.12	288.77	80.78	-69.3	-88.9	3.8	8460411	99	34434
2025-01-06 11:28:08.53	289.82	80.66	-70.0	-90.7	3.8	8469154	99	38663
2025-01-06 11:28:08.95	290.86	80.53	-69.8	-89.3	3.8	8466670	99	34236
2025-01-06 11:28:09.37	291.88	80.40	-69.7	-89.3	3.8	8470252	99	34308
2025-01-06 11:28:09.78	292.85	80.27	-69.5	-89.1	3.8	8459197	99	34384
2025-01-06 11:28:10.20	293.81	80.13	-69.8	-89.6	3.8	8460044	99	35231
2025-01-06 11:28:10.62	294.75	79.99	-69.5	-89.1	3.8	8452869	99	34326
2025-01-06 11:28:11.03	295.63	79.86	-69.6	-89.2	3.8	8463912	99	34361
2025-01-06 11:28:11.45	296.52	79.71	-69.4	-88.7	3.9	8465961	99	33308
2025-01-06 11:28:11.87	297.38	79.57	-69.9	-90.1	3.8	8474842	99	36897
2025-01-06 11:28:12.29	298.21	79.42	-69.6	-89.2	3.8	8451187	99	34118
2025-01-06 11:28:12.71	299.03	79.27	-69.7	-89.2	3.8	8455501	99	34174
2025-01-06 11:28:13.12	299.80	79.12	-69.7	-89.3	3.8	8457183	99	34135
2025-01-06 11:28:13.54	300.57	78.97	-69.6	-89.1	3.7	8467380	99	34208
2025-01-06 11:28:13.96	301.31	78.81	-69.5	-89.0	3.8	8460227	99	34200
2025-01-06 11:28:14.37	302.02	78.66	-69.8	-89.3	3.8	8466762	99	34215
2025-01-06 11:28:14.79	302.72	78.50	-69.7	-89.3	3.8	8462402	99	34223
2025-01-06 11:28:15.21	303.41	78.34	-69.7	-89.2	3.8	8460582	99	34224
2025-01-06 11:28:15.63	304.08	78.18	-69.7	-89.2	3.8	8463512	99	34117
2025-01-06 11:28:16.04	304.71	78.02	-69.8	-89.3	3.8	8466339	99	34110
2025-01-06 11:28:16.46	305.34	77.86	-69.7	-89.2	3.8	8463478	99	34054
2025-01-06 11:28:16.88	305.95	77.69	-69.8	-89.3	3.8	8462471	99	34084
2025-01-06 11:28:17.29	306.54	77.53	-69.6	-89.1	3.8	8451175	99	33987
2025-01-06 11:28:17.71	307.12	77.36	-69.2	-88.7	3.8	8458236	99	33976
2025-01-06 11:28:18.13	307.68	77.19	-69.7	-89.2	3.8	8456600	99	33943
2025-01-06 11:28:18.55	308.24	77.03	-69.3	-88.7	3.8	8462070	99	33874
2025-01-06 11:28:18.96	308.76	76.86	-69.1	-89.1	3.8	8454185	98	35695
2025-01-06 11:28:19.38	309.28	76.69	-69.1	-88.9	3.8	8456726	98	35279
2025-01-06 11:28:19.79	309.78	76.52	-68.6	-88.2	3.8	8478664	98	34725
2025-01-06 11:28:20.21	310.27	76.35	-68.8	-88.5	3.8	8461189	98	34607
2025-01-06 11:28:20.63	310.76	76.17	-68.3	-88.2	3.7	8462139	97	35611
2025-01-06 11:28:21.05	311.23	76.00	-68.2	-88.1	3.8	8461521	97	35291
2025-01-06 11:28:21.46	311.67	75.83	-68.3	-88.1	3.8	8468971	97	35235
2025-01-06 11:28:21.88	312.12	75.65	-69.6	-89.4	3.8	8455982	97	35177
2025-01-06 11:28:22.29	312.55	75.48	-69.4	-89.2	3.8	8459724	97	35137
2025-01-06 11:28:22.71	312.97	75.31	-69.6	-89.3	3.8	8462768	97	35090
2025-01-06 11:28:23.13	313.39	75.13	-68.3	-88.2	3.8	8458339	97	35250
2025-01-06 11:28:23.54	313.78	74.96	-68.2	-88.1	3.8	8470115	97	35293
2025-01-06 11:28:23.96	314.18	74.78	-68.2	-88.0	3.8	8458969	97	35143
2025-01-06 11:28:24.38	314.56	74.60	-68.6	-88.4	3.9	8454883	97	35057
2025-01-06 11:28:24.79	314.93	74.42	-68.8	-88.1	3.9	8452560	98	33085
2025-01-06 11:28:25.21	315.30	74.25	-68.3	-87.6	3.9	8451690	97	33465
2025-01-06 11:28:25.63	315.66	74.07	-69.0	-88.8	3.8	8459930	97	35300
2025-01-06 11:28:26.05	316.01	73.89	-68.4	-88.1	3.8	8453601	97	35173
2025-01-06 11:28:26.46	316.35	73.71	-68.7	-88.3	3.8	8463100	98	34263
2025-01-06 11:28:26.88	316.68	73.53	-68.3	-88.1	3.8	8455844	97	35284
2025-01-06 11:28:27.29	317.00	73.35	-68.4	-88.2	3.8	8446392	97	35351
2025-01-06 11:28:27.71	317.32	73.17	-68.3	-88.1	3.8	8459117	97	35271
2025-01-06 11:28:28.13	317.64	72.99	-67.9	-87.4	3.8	8455421	97	34000
2025-01-06 11:28:28.55	317.94	72.81	-69.7	-88.6	3.8	8453922	99	31493
2025-01-06 11:28:28.97	318.24	72.63	-69.6	-88.7	3.8	8457458	99	32338
2025-01-06 11:28:29.38	318.53	72.45	-69.8	-89.0	3.8	8459953	99	32934
2025-01-06 11:28:29.80	318.82	72.27	-69.7	-88.9	3.8	8461830	99	32706
2025-01-06 11:28:30.22	319.10	72.09	-69.5	-88.7	3.8	8462070	99	32711
2025-01-06 11:28:30.63	319.37	71.91	-69.0	-88.7	3.9	8459529	98	34720
2025-01-06 11:28:31.05	319.64	71.73	-69.8	-89.1	3.8	8441596	99	33194
2025-01-06 11:28:31.46	319.89	71.55	-69.7	-89.1	3.8	8460868	99	33376
2025-01-06 11:28:31.88	320.15	71.37	-69.8	-89.2	3.8	8463581	99	33527
2025-01-06 11:28:32.30	320.41	71.19	-69.1	-88.5	3.8	8448749	99	33544
2025-01-06 11:28:32.71	320.65	71.01	-69.8	-89.3	3.8	8469131	99	33688
2025-01-06 11:28:33.13	320.89	70.83	-69.8	-89.2	3.8	8458557	99	33852
2025-01-06 11:28:33.55	321.13	70.64	-69.9	-89.3	3.8	8465103	99	33872
2025-01-06 11:28:33.96	321.36	70.47	-69.8	-89.3	3.8	8466087	99	33992

#Closed at: 2025-01-06 11:28:34