passes_logs/2025/01/06/X_MFTI_02/X_MFTI_02__20250106_003831_AQUA_rec.log

#Pass ID: 20250106_003831_AQUA
#Satellite: AQUA
#Configuration: AQUA
#Start time: 2025-01-06 00:38:27

#Version: 1.5.20200625
#Station: X_MFTI_02
#Location: 37.5186 lon 55.9291 lat
#TLE: 1 27424U 02022A   23362.45420161  .00001617  00000+0  35675-3 0  9997
#TLE: 2 27424  98.3111 306.4798 0000768  48.9916  62.2296 14.58703046151674

#Time	Az	El	Level	Level2	SNR	BER	Gain	Gain2
2025-01-06 00:38:27.01	26.04	67.67	-75.6	-99.6	3.7	7499084	99	57060
2025-01-06 00:38:27.44	26.15	67.89	-75.5	-99.3	3.9	7439422	99	55639
2025-01-06 00:38:27.87	26.27	68.13	-75.6	-99.3	3.9	7429199	99	55682
2025-01-06 00:38:28.30	26.38	68.36	-75.6	-98.7	3.9	7445068	99	51801
2025-01-06 00:38:28.71	26.50	68.58	-75.6	-98.8	3.8	7478179	99	52009
2025-01-06 00:38:29.14	26.62	68.81	-75.6	-99.3	3.9	7477264	99	55137
2025-01-06 00:38:29.57	26.75	69.04	-75.6	-99.2	3.9	7429656	99	54521
2025-01-06 00:38:29.98	26.87	69.26	-75.6	-99.7	3.9	7442321	99	58232
2025-01-06 00:38:30.41	27.01	69.49	-75.6	-99.3	4.0	7429962	99	54924
2025-01-06 00:38:30.84	27.14	69.73	-75.5	-99.2	3.9	7484130	99	55568
2025-01-06 00:38:31.25	27.28	69.95	-75.5	-99.2	3.9	7443695	99	55001
2025-01-06 00:38:31.68	27.42	70.19	-75.6	-99.5	3.8	7476348	99	56881
2025-01-06 00:38:32.12	27.57	70.43	-75.6	-99.4	3.8	7428131	99	55846
2025-01-06 00:38:32.53	27.71	70.65	-75.5	-99.4	3.9	7476959	99	56439
2025-01-06 00:38:32.95	27.86	70.88	-75.5	-98.9	3.9	7425231	99	52836
2025-01-06 00:38:33.35	28.01	71.10	-75.6	-98.8	3.8	7471923	99	52269
2025-01-06 00:38:33.78	28.17	71.34	-75.6	-99.4	3.9	7459716	99	55875
2025-01-06 00:38:34.20	28.33	71.57	-75.6	-99.3	3.8	7438049	99	55518
2025-01-06 00:38:34.62	28.50	71.80	-75.5	-98.6	3.9	7437438	99	51248
2025-01-06 00:38:35.03	28.67	72.03	-75.6	-98.7	3.8	7459869	99	51394
2025-01-06 00:38:35.45	28.84	72.26	-75.6	-99.4	3.9	7463531	99	55693
2025-01-06 00:38:35.88	29.03	72.50	-75.5	-99.2	3.9	7477722	99	54734
2025-01-06 00:38:36.28	29.21	72.72	-75.6	-99.0	3.9	7456970	99	53244
2025-01-06 00:38:36.68	29.39	72.95	-75.6	-99.0	3.8	7468109	99	53313
2025-01-06 00:38:37.11	29.59	73.19	-75.6	-99.3	3.9	7445068	99	55309
2025-01-06 00:38:37.54	29.80	73.43	-75.6	-99.4	3.9	7448425	99	55703
2025-01-06 00:38:37.97	30.01	73.67	-75.6	-99.6	3.8	7427825	99	57376
2025-01-06 00:38:38.40	30.23	73.91	-75.6	-99.5	4.0	7474670	99	56641
2025-01-06 00:38:38.82	30.45	74.14	-75.6	-99.6	3.9	7443542	99	56877
2025-01-06 00:38:39.25	30.69	74.38	-75.6	-99.4	3.9	7461853	99	56271
2025-01-06 00:38:39.68	30.93	74.63	-75.6	-99.0	3.8	7480621	99	53057
2025-01-06 00:38:40.10	31.17	74.86	-75.6	-99.6	3.9	7466430	99	57270
2025-01-06 00:38:40.51	31.42	75.09	-75.5	-99.6	3.9	7450561	99	57628
2025-01-06 00:38:40.94	31.69	75.33	-75.6	-98.9	4.0	7411499	99	52588
2025-01-06 00:38:41.36	31.96	75.57	-75.6	-98.7	3.8	7483215	99	51707
2025-01-06 00:38:41.78	32.24	75.81	-75.6	-99.7	3.9	7489776	99	57433
2025-01-06 00:38:42.21	32.53	76.05	-75.6	-99.7	3.8	7440185	99	57324
2025-01-06 00:38:42.62	32.82	76.28	-75.6	-100.1	3.8	7463989	99	60640
2025-01-06 00:38:43.05	33.14	76.52	-75.6	-100.1	3.8	7461242	99	60678
2025-01-06 00:38:43.47	33.46	76.76	-75.5	-99.5	3.9	7445068	99	56663
2025-01-06 00:38:43.90	33.80	77.00	-75.6	-99.6	3.9	7420806	99	56752
2025-01-06 00:38:44.33	34.16	77.24	-75.6	-98.7	3.9	7459259	99	51391
2025-01-06 00:38:44.75	34.52	77.48	-75.6	-99.4	3.8	7543945	99	55759
2025-01-06 00:38:45.18	34.90	77.72	-75.6	-99.6	3.9	7475738	99	56891
2025-01-06 00:38:45.58	35.27	77.95	-75.6	-99.5	3.8	7440185	99	56321
2025-01-06 00:38:46.01	35.68	78.19	-75.6	-99.7	3.8	7433166	99	57837
2025-01-06 00:38:46.42	36.10	78.42	-75.4	-99.5	3.9	7431793	99	57344
2025-01-06 00:38:46.84	36.54	78.66	-75.6	-99.8	3.9	7495269	99	58186
2025-01-06 00:38:47.27	37.00	78.90	-74.7	-98.8	3.8	7447814	99	57513
2025-01-06 00:38:47.70	37.50	79.14	-75.6	-99.7	3.8	7454986	99	57956
2025-01-06 00:38:48.13	38.01	79.38	-75.6	-99.7	3.8	7446441	99	58013
2025-01-06 00:38:48.55	38.53	79.61	-75.6	-99.5	4.0	7488403	99	56493
2025-01-06 00:38:48.98	39.10	79.85	-75.6	-99.2	3.9	7425842	99	54326
2025-01-06 00:38:49.41	39.69	80.09	-75.6	-99.1	3.8	7483825	99	54191
2025-01-06 00:38:49.83	40.29	80.32	-75.5	-99.4	3.9	7450103	99	55895
2025-01-06 00:38:50.24	40.91	80.55	-75.6	-99.4	3.9	7447967	99	55987
2025-01-06 00:38:50.64	41.54	80.76	-75.5	-98.8	3.9	7452239	99	52114
2025-01-06 00:38:51.06	42.24	80.99	-75.5	-98.7	3.8	7465515	99	52109
2025-01-06 00:38:51.48	42.98	81.22	-75.6	-99.5	3.9	7434692	99	56406
2025-01-06 00:38:51.89	43.74	81.44	-75.5	-99.3	3.9	7467956	99	55468
2025-01-06 00:38:52.32	44.57	81.67	-75.6	-98.6	3.9	7459716	99	51040
2025-01-06 00:38:52.75	45.46	81.90	-75.5	-99.2	3.8	7516479	99	54709
2025-01-06 00:38:53.18	46.39	82.13	-75.6	-99.5	3.9	7401580	99	56431
2025-01-06 00:38:53.60	47.36	82.35	-75.6	-99.4	3.9	7462005	99	55758
2025-01-06 00:38:54.03	48.42	82.57	-75.6	-99.1	3.8	7485351	99	54317
2025-01-06 00:38:54.44	49.48	82.78	-75.5	-99.4	3.8	7468261	99	56443
2025-01-06 00:38:54.88	50.69	83.01	-75.6	-99.4	3.8	7442169	99	55997
2025-01-06 00:38:55.31	51.95	83.22	-75.6	-99.5	3.9	7454528	99	56311
2025-01-06 00:38:55.72	53.24	83.42	-75.6	-98.6	3.8	7480773	99	50634
2025-01-06 00:38:56.15	54.67	83.63	-75.7	-99.6	3.9	7443542	99	56714
2025-01-06 00:38:56.58	56.19	83.84	-75.6	-99.4	3.9	7404937	99	55916
2025-01-06 00:38:57.00	57.79	84.03	-75.6	-98.8	4.0	7465362	99	51898
2025-01-06 00:38:57.43	59.53	84.23	-75.6	-98.7	3.8	7479095	99	51733
2025-01-06 00:38:57.86	61.39	84.42	-75.8	-99.3	3.8	7422943	99	54186
2025-01-06 00:38:58.28	63.33	84.60	-75.6	-99.6	3.9	7458190	99	56962
2025-01-06 00:38:58.71	65.46	84.77	-75.6	-98.9	3.9	7465667	99	52522
2025-01-06 00:38:59.14	67.73	84.94	-75.6	-99.5	3.8	7533111	99	56561
2025-01-06 00:38:59.55	70.03	85.09	-75.8	-99.1	3.9	7349395	99	52433
2025-01-06 00:38:59.97	72.55	85.24	-75.6	-99.6	3.9	7457275	99	57045
2025-01-06 00:39:00.39	75.22	85.38	-75.6	-99.0	3.9	7487640	99	52856
2025-01-06 00:39:00.82	78.12	85.51	-75.6	-99.5	3.8	7445373	99	56261
2025-01-06 00:39:01.23	81.04	85.63	-75.6	-98.8	3.9	7425689	99	51996
2025-01-06 00:39:01.65	84.19	85.73	-75.6	-99.5	3.9	7458343	99	56507
2025-01-06 00:39:02.07	87.48	85.82	-75.6	-99.0	3.8	7440795	99	53157
2025-01-06 00:39:02.50	90.99	85.90	-75.6	-99.4	3.9	7452087	99	56068
2025-01-06 00:39:02.91	94.46	85.96	-75.8	-98.7	3.9	7373199	99	50314
2025-01-06 00:39:03.34	98.18	86.01	-75.6	-98.8	3.9	7410125	99	52182
2025-01-06 00:39:03.76	101.90	86.03	-75.6	-98.7	3.8	7478942	99	51511
2025-01-06 00:39:04.19	105.73	86.05	-75.6	-99.6	3.9	7467651	99	56567
2025-01-06 00:39:04.62	109.58	86.04	-75.6	-99.4	4.0	7504425	99	55361
2025-01-06 00:39:05.03	113.22	86.02	-75.6	-99.6	3.8	7435913	99	57008
2025-01-06 00:39:05.46	116.98	85.98	-75.6	-99.5	3.8	7481079	99	56591
2025-01-06 00:39:05.88	120.56	85.92	-75.6	-99.5	3.9	7458343	99	56283
2025-01-06 00:39:06.31	124.12	85.85	-75.6	-99.0	3.9	7498168	99	53106
2025-01-06 00:39:06.74	127.54	85.76	-75.6	-99.6	3.9	7464904	99	56972
2025-01-06 00:39:07.16	130.74	85.66	-75.6	-99.6	3.8	7465209	99	56897
2025-01-06 00:39:07.59	133.86	85.55	-75.6	-99.6	3.8	7412872	99	57239
2025-01-06 00:39:08.00	136.67	85.43	-75.6	-99.4	4.0	7541198	99	55409
2025-01-06 00:39:08.44	139.52	85.28	-75.6	-99.5	3.8	7463378	99	56412
2025-01-06 00:39:08.87	142.14	85.13	-75.7	-99.8	3.9	7446289	99	58041
2025-01-06 00:39:09.30	144.60	84.98	-75.6	-99.7	3.8	7425079	99	57828
2025-01-06 00:39:09.73	146.90	84.81	-75.6	-99.2	3.8	7461700	99	54830
2025-01-06 00:39:10.14	148.96	84.64	-75.6	-99.1	3.8	7447662	99	54185
2025-01-06 00:39:10.57	150.98	84.46	-75.6	-99.8	3.9	7448120	99	58204
2025-01-06 00:39:11.01	152.92	84.27	-75.6	-99.7	3.8	7449645	99	57590
2025-01-06 00:39:11.42	154.60	84.08	-75.6	-99.1	3.9	7476654	99	53641
2025-01-06 00:39:11.84	156.22	83.89	-75.7	-99.2	3.8	7497253	99	53946
2025-01-06 00:39:12.25	157.71	83.69	-75.7	-99.8	3.9	7472991	99	57828
2025-01-06 00:39:12.68	159.17	83.49	-75.7	-99.7	3.9	7456970	99	57404
2025-01-06 00:39:13.10	160.50	83.28	-75.7	-99.3	3.7	7471008	99	54476
2025-01-06 00:39:13.52	161.76	83.07	-75.6	-99.6	3.7	7507019	99	57041
2025-01-06 00:39:13.93	162.92	82.86	-75.6	-99.8	3.9	7448577	99	58411
2025-01-06 00:39:14.35	164.03	82.65	-75.7	-99.9	3.9	7471771	99	58509
2025-01-06 00:39:14.77	165.08	82.43	-75.6	-99.4	3.8	7489776	99	56057
2025-01-06 00:39:15.20	166.10	82.21	-75.6	-99.8	3.8	7476043	99	58045
2025-01-06 00:39:15.63	167.05	81.98	-75.6	-99.8	3.9	7460021	99	58221
2025-01-06 00:39:16.06	167.95	81.75	-75.7	-99.9	3.9	7449798	99	58219
2025-01-06 00:39:16.48	168.79	81.53	-75.7	-99.4	3.8	7468109	99	55359
2025-01-06 00:39:16.89	169.56	81.31	-75.6	-99.6	3.9	7450256	99	57024
2025-01-06 00:39:17.32	170.33	81.07	-75.5	-99.6	3.9	7460784	99	57134
2025-01-06 00:39:17.73	171.02	80.85	-75.6	-99.3	3.9	7425842	99	55490
2025-01-06 00:39:18.14	171.69	80.62	-75.6	-99.3	3.7	7463989	99	55232
2025-01-06 00:39:18.57	172.35	80.39	-75.6	-99.6	3.9	7434387	99	56962
2025-01-06 00:39:18.99	172.96	80.16	-75.6	-99.6	3.8	7402954	99	56852
2025-01-06 00:39:19.42	173.56	79.92	-75.5	-98.8	3.9	7440185	99	52460
2025-01-06 00:39:19.83	174.10	79.69	-75.6	-98.8	3.8	7476654	99	52339
2025-01-06 00:39:20.27	174.66	79.44	-75.6	-99.6	3.9	7429656	99	56690
2025-01-06 00:39:20.68	175.16	79.22	-75.6	-99.4	3.9	7443695	99	56033
2025-01-06 00:39:21.11	175.66	78.98	-75.6	-98.8	3.9	7456817	99	51488
2025-01-06 00:39:21.53	176.12	78.74	-75.6	-99.4	3.8	7499389	99	55647
2025-01-06 00:39:21.96	176.58	78.50	-75.6	-99.7	3.8	7484283	99	57623
2025-01-06 00:39:22.39	177.02	78.26	-75.6	-99.5	3.8	7439117	99	56452
2025-01-06 00:39:22.82	177.44	78.01	-75.6	-99.8	3.8	7429351	99	58254
2025-01-06 00:39:23.25	177.84	77.77	-75.7	-99.7	3.9	7451171	99	57059
2025-01-06 00:39:23.67	178.22	77.54	-75.6	-99.5	3.9	7416992	99	56734
2025-01-06 00:39:24.07	178.57	77.31	-74.2	-98.2	3.9	7466735	99	56586
2025-01-06 00:39:24.50	178.92	77.07	-75.6	-99.0	3.8	7481994	99	53150
2025-01-06 00:39:24.92	179.26	76.83	-75.6	-99.6	3.9	7461547	99	57153
2025-01-06 00:39:25.35	179.59	76.59	-75.6	-99.6	3.9	7452239	99	56756
2025-01-06 00:39:25.78	179.92	76.34	-75.6	-98.9	4.0	7420806	99	52545
2025-01-06 00:39:26.19	180.21	76.11	-75.6	-98.8	3.8	7465209	99	51937
2025-01-06 00:39:26.62	180.51	75.87	-75.6	-99.5	3.9	7465209	99	56694
2025-01-06 00:39:27.05	180.80	75.63	-75.6	-99.6	3.9	7492065	99	57012
2025-01-06 00:39:27.48	181.08	75.39	-75.6	-99.0	3.9	7470550	99	52779
2025-01-06 00:39:27.90	181.34	75.15	-75.6	-98.9	3.8	7480010	99	52800
2025-01-06 00:39:28.33	181.60	74.91	-75.6	-99.9	3.9	7471923	99	58834
2025-01-06 00:39:28.75	181.84	74.67	-75.6	-99.8	3.9	7455139	99	58239
2025-01-06 00:39:29.16	182.08	74.44	-75.7	-99.8	3.8	7450561	99	57874
2025-01-06 00:39:29.60	182.32	74.19	-75.6	-99.8	3.9	7507629	99	58196
2025-01-06 00:39:30.01	182.54	73.96	-75.6	-99.7	3.9	7420501	99	58000
2025-01-06 00:39:30.43	182.76	73.73	-75.6	-99.8	3.9	7444610	99	58347
2025-01-06 00:39:30.83	182.96	73.50	-75.7	-98.9	3.8	7502899	99	52591
2025-01-06 00:39:31.25	183.16	73.27	-75.6	-99.8	3.8	7458801	99	58472
2025-01-06 00:39:31.66	183.36	73.04	-75.6	-99.8	3.9	7498779	99	58225
2025-01-06 00:39:32.08	183.55	72.80	-75.0	-99.1	3.9	7487792	99	57836
2025-01-06 00:39:32.50	183.74	72.57	-75.7	-99.0	3.8	7448425	99	53044
2025-01-06 00:39:32.90	183.91	72.35	-75.6	-99.7	3.9	7435607	99	57475
2025-01-06 00:39:33.33	184.09	72.11	-75.6	-99.8	3.9	7449188	99	58065
2025-01-06 00:39:33.76	184.27	71.87	-75.6	-99.0	4.0	7435455	99	53613
2025-01-06 00:39:34.19	184.44	71.63	-75.6	-98.9	3.8	7482910	99	52546
2025-01-06 00:39:34.61	184.61	71.40	-75.6	-99.6	3.9	7453765	99	57432
2025-01-06 00:39:35.02	184.76	71.17	-75.7	-99.8	3.9	7475585	99	57698
2025-01-06 00:39:35.45	184.92	70.93	-75.6	-98.7	3.9	7448425	99	51312
2025-01-06 00:39:35.88	185.08	70.70	-75.7	-98.8	3.8	7497558	99	51428
2025-01-06 00:39:36.28	185.22	70.48	-75.6	-99.7	3.9	7440948	99	57404
2025-01-06 00:39:36.72	185.37	70.24	-75.6	-99.7	3.9	7460479	99	57646

#Closed at: 2025-01-06 00:39:36