passes_logs/2025/01/06/X_MFTI_02/X_MFTI_02__20250106_095720_NOAA_20_rec.log

#Pass ID: 20250106_095720_NOAA 20
#Satellite: NOAA 20
#Configuration: NOAA 20
#Start time: 2025-01-06 09:57:15

#Version: 1.5.20200625
#Station: X_MFTI_02
#Location: 37.5186 lon 55.9291 lat
#TLE: 1 43013U 17073A   23362.44808611  .00000160  00000+0  96626-4 0  9996
#TLE: 2 43013  98.7331 297.9536 0000783  57.5916 302.5335 14.19555620316533

#Time	Az	El	Level	Level2	SNR	BER	Gain	Gain2
2025-01-06 09:57:15.54	144.50	68.02	-62.4	-87.6	3.2	15502754	84	65535
2025-01-06 09:57:15.95	144.35	68.20	-62.5	-87.7	3.0	15673065	85	65535
2025-01-06 09:57:16.38	144.19	68.38	-62.5	-87.7	3.0	15680328	85	65535
2025-01-06 09:57:16.78	144.04	68.56	-62.4	-87.6	3.2	15682296	86	65535
2025-01-06 09:57:17.20	143.87	68.75	-62.5	-87.7	2.8	15666297	84	65535
2025-01-06 09:57:17.60	143.72	68.92	-62.5	-87.7	2.8	15693183	84	65535
2025-01-06 09:57:18.02	143.55	69.11	-62.5	-87.7	2.8	15696647	84	65535
2025-01-06 09:57:18.44	143.38	69.29	-62.4	-87.6	2.9	15701599	85	65535
2025-01-06 09:57:18.85	143.21	69.47	-62.5	-87.7	2.8	15705497	84	65535
2025-01-06 09:57:19.25	143.04	69.65	-62.5	-87.7	2.8	15705810	84	65535
2025-01-06 09:57:19.67	142.86	69.84	-62.5	-87.7	2.8	15704231	84	65535
2025-01-06 09:57:20.09	142.67	70.02	-62.4	-87.6	2.8	15710029	84	65535
2025-01-06 09:57:20.49	142.49	70.20	-62.4	-87.6	2.9	15710029	84	65535
2025-01-06 09:57:20.91	142.30	70.39	-62.4	-87.6	2.8	15708633	84	65535
2025-01-06 09:57:21.32	142.11	70.57	-62.4	-87.6	2.9	15692481	85	65535
2025-01-06 09:57:21.73	141.91	70.75	-62.4	-87.6	2.9	15689979	85	65535
2025-01-06 09:57:22.14	141.71	70.93	-62.5	-87.7	2.8	15698631	84	65535
2025-01-06 09:57:22.56	141.50	71.12	-62.4	-87.6	2.8	15698654	84	65535
2025-01-06 09:57:22.99	141.28	71.31	-62.4	-87.6	2.8	15695259	84	65535
2025-01-06 09:57:23.39	141.08	71.49	-62.5	-87.7	2.8	15713104	84	65535
2025-01-06 09:57:23.79	140.86	71.67	-62.5	-87.7	2.8	15711402	84	65535
2025-01-06 09:57:24.21	140.64	71.86	-62.5	-87.7	2.8	15703483	84	65535
2025-01-06 09:57:24.63	140.40	72.04	-62.4	-87.6	2.9	15698204	85	65535
2025-01-06 09:57:25.04	140.17	72.23	-62.5	-87.7	2.9	15685623	85	65535
2025-01-06 09:57:25.46	139.93	72.41	-62.5	-87.7	2.8	15698707	84	65535
2025-01-06 09:57:25.88	139.68	72.60	-62.4	-87.6	2.8	15707000	84	65535
2025-01-06 09:57:26.29	139.43	72.78	-62.4	-87.6	3.0	15684883	85	65535
2025-01-06 09:57:26.71	139.17	72.97	-62.5	-87.7	3.0	15688507	85	65535
2025-01-06 09:57:27.11	138.92	73.15	-62.4	-87.6	2.8	15696975	84	65535
2025-01-06 09:57:27.53	138.65	73.34	-62.4	-87.6	2.8	15712562	84	65535
2025-01-06 09:57:27.96	138.36	73.53	-62.4	-87.6	2.8	15706726	84	65535
2025-01-06 09:57:28.38	138.08	73.72	-62.4	-87.7	2.8	15689521	84	65535
2025-01-06 09:57:28.78	137.80	73.89	-62.4	-87.6	2.8	15689521	84	65535
2025-01-06 09:57:29.18	137.51	74.07	-62.4	-87.6	2.8	15686317	84	65535
2025-01-06 09:57:29.58	137.22	74.25	-62.4	-87.6	2.8	15697868	84	65535
2025-01-06 09:57:29.99	136.92	74.43	-62.4	-87.6	3.1	15708915	84	65535
2025-01-06 09:57:30.40	136.60	74.61	-62.4	-87.6	2.8	15700195	84	65535
2025-01-06 09:57:30.82	136.27	74.80	-62.4	-87.6	2.8	15696067	84	65535
2025-01-06 09:57:31.23	135.94	74.98	-62.4	-87.6	3.2	15706649	84	65535
2025-01-06 09:57:31.65	135.60	75.17	-62.4	-87.6	2.8	15691757	84	65535
2025-01-06 09:57:32.05	135.26	75.34	-62.4	-87.6	2.8	15694702	84	65535
2025-01-06 09:57:32.46	134.90	75.52	-62.4	-87.6	3.0	15703819	85	65535
2025-01-06 09:57:32.86	134.55	75.70	-62.4	-87.6	3.0	15694335	85	65535
2025-01-06 09:57:33.26	134.18	75.88	-62.4	-87.6	3.3	15683258	85	65535
2025-01-06 09:57:33.68	133.79	76.06	-60.6	-85.8	3.3	15691101	82	65535
2025-01-06 09:57:34.09	133.39	76.24	-62.4	-87.6	2.8	15705841	84	65535
2025-01-06 09:57:34.51	132.98	76.42	-62.4	-87.6	3.1	15693580	84	65535
2025-01-06 09:57:34.93	132.55	76.61	-62.4	-87.6	2.9	15704193	84	65535
2025-01-06 09:57:35.34	132.12	76.78	-61.4	-86.6	3.0	15706611	82	65535
2025-01-06 09:57:35.76	131.67	76.97	-62.4	-87.6	2.9	15706611	84	65535
2025-01-06 09:57:36.18	131.20	77.15	-62.5	-87.7	2.8	15709167	84	65535
2025-01-06 09:57:36.61	130.71	77.33	-62.5	-87.7	2.9	15695556	84	65535
2025-01-06 09:57:37.03	130.22	77.51	-60.8	-86.0	3.0	15713661	83	65535
2025-01-06 09:57:37.44	129.72	77.69	-62.4	-87.6	2.9	15705627	84	65535
2025-01-06 09:57:37.87	129.18	77.87	-62.4	-87.6	3.2	15701370	84	65535
2025-01-06 09:57:38.28	128.66	78.04	-62.4	-87.6	3.0	15697296	84	65535
2025-01-06 09:57:38.69	128.11	78.21	-60.7	-85.9	3.1	15715751	82	65535
2025-01-06 09:57:39.09	127.57	78.38	-62.4	-87.6	3.1	15701759	84	65535
2025-01-06 09:57:39.50	126.99	78.55	-62.4	-87.6	3.1	15686225	84	65535
2025-01-06 09:57:39.91	126.40	78.72	-62.4	-87.6	2.8	15691291	85	65535
2025-01-06 09:57:40.32	125.78	78.89	-62.4	-87.6	3.0	15691261	85	65535
2025-01-06 09:57:40.73	125.15	79.06	-62.4	-87.6	2.8	15697311	84	65535
2025-01-06 09:57:41.15	124.48	79.23	-62.5	-87.7	2.9	15689979	84	65535
2025-01-06 09:57:41.56	123.81	79.39	-62.4	-87.6	2.8	15698181	84	65535
2025-01-06 09:57:41.98	123.10	79.56	-62.4	-87.6	2.8	15709403	84	65535
2025-01-06 09:57:42.40	122.36	79.73	-62.5	-87.7	3.2	15696708	84	65535
2025-01-06 09:57:42.81	121.62	79.89	-62.5	-87.7	3.1	15708595	84	65535
2025-01-06 09:57:43.23	120.84	80.05	-62.4	-87.6	2.8	15700981	84	65535
2025-01-06 09:57:43.65	120.03	80.21	-62.5	-87.7	2.9	15704917	84	65535
2025-01-06 09:57:44.06	119.21	80.36	-62.4	-87.6	3.1	15704917	84	65535
2025-01-06 09:57:44.48	118.34	80.52	-62.5	-87.7	2.8	15700881	84	65535
2025-01-06 09:57:44.88	117.49	80.67	-62.4	-87.6	2.8	15709915	84	65535
2025-01-06 09:57:45.28	116.61	80.82	-62.5	-87.7	2.8	15702941	84	65535
2025-01-06 09:57:45.72	115.61	80.97	-62.5	-87.7	3.1	15705383	84	65535
2025-01-06 09:57:46.13	114.64	81.12	-62.9	-88.1	2.8	15703704	85	65535
2025-01-06 09:57:46.53	113.67	81.26	-62.4	-87.6	3.0	15698005	85	65535
2025-01-06 09:57:46.97	112.56	81.41	-62.5	-87.7	3.3	15700927	85	65535
2025-01-06 09:57:47.37	111.52	81.54	-62.5	-87.7	2.9	15698730	84	65535
2025-01-06 09:57:47.77	110.45	81.67	-62.5	-87.7	2.8	15701728	84	65535
2025-01-06 09:57:48.17	109.34	81.80	-62.4	-87.6	2.8	15697212	84	65535
2025-01-06 09:57:48.59	108.14	81.93	-62.5	-87.7	2.8	15699768	84	65535
2025-01-06 09:57:49.00	106.93	82.05	-62.4	-87.6	2.9	15703292	84	65535
2025-01-06 09:57:49.41	105.68	82.17	-62.4	-87.6	2.9	15701210	85	65535
2025-01-06 09:57:49.82	104.40	82.29	-62.4	-87.6	3.0	15704223	85	65535
2025-01-06 09:57:50.22	103.10	82.40	-62.5	-87.7	2.9	15689323	85	65535
2025-01-06 09:57:50.64	101.70	82.51	-62.4	-87.7	2.8	15689323	84	65535
2025-01-06 09:57:51.04	100.33	82.61	-62.4	-87.6	2.9	15691978	85	65535
2025-01-06 09:57:51.46	98.85	82.72	-62.4	-87.6	2.9	15683334	85	65535
2025-01-06 09:57:51.89	97.29	82.82	-62.4	-87.6	3.2	15679336	85	65535
2025-01-06 09:57:52.31	95.73	82.91	-62.4	-87.6	2.8	15689384	85	65535
2025-01-06 09:57:52.71	94.20	82.99	-62.4	-87.6	3.0	15700752	85	65535
2025-01-06 09:57:53.13	92.56	83.07	-62.5	-87.7	2.9	15691703	85	65535
2025-01-06 09:57:53.54	90.92	83.15	-62.4	-87.6	3.2	15685302	85	65535
2025-01-06 09:57:53.98	89.12	83.22	-62.4	-87.6	2.8	15686134	84	65535
2025-01-06 09:57:54.38	87.45	83.28	-62.4	-87.6	2.8	15704254	84	65535
2025-01-06 09:57:54.79	85.71	83.34	-62.4	-87.6	3.1	15690170	84	65535
2025-01-06 09:57:55.21	83.90	83.39	-62.4	-87.6	2.9	15689987	84	65535
2025-01-06 09:57:55.61	82.15	83.43	-62.4	-87.7	2.8	15704017	84	65535
2025-01-06 09:57:56.02	80.33	83.47	-62.4	-87.6	2.8	15711654	84	65535
2025-01-06 09:57:56.42	78.54	83.50	-62.5	-87.7	2.8	15699737	84	65535
2025-01-06 09:57:56.83	76.69	83.52	-62.4	-87.6	2.8	15688049	84	65535
2025-01-06 09:57:57.25	74.79	83.54	-62.4	-87.6	2.7	15708969	84	65535
2025-01-06 09:57:57.65	72.96	83.55	-62.4	-87.6	2.8	15703247	84	65535
2025-01-06 09:57:58.05	71.13	83.55	-62.4	-87.6	2.8	15706802	84	65535
2025-01-06 09:57:58.47	69.21	83.55	-62.4	-87.6	2.9	15706802	84	65535
2025-01-06 09:57:58.87	67.39	83.54	-60.7	-85.9	3.3	15706466	83	65535
2025-01-06 09:57:59.30	65.43	83.52	-62.3	-87.5	2.9	15696128	84	65535
2025-01-06 09:57:59.72	63.54	83.50	-62.3	-87.5	2.9	15691390	84	65535
2025-01-06 09:58:00.14	61.66	83.47	-62.3	-87.5	3.1	15702896	85	65535
2025-01-06 09:58:00.54	59.89	83.43	-62.1	-87.3	3.1	15680564	85	65535
2025-01-06 09:58:00.96	58.05	83.39	-62.4	-87.6	2.9	15694259	84	65535
2025-01-06 09:58:01.37	56.29	83.34	-62.4	-87.6	2.9	15694442	84	65535
2025-01-06 09:58:01.79	54.50	83.28	-62.2	-87.4	2.9	15689132	84	65535
2025-01-06 09:58:02.21	52.76	83.21	-60.8	-86.0	3.0	15693016	83	65535
2025-01-06 09:58:02.62	51.08	83.14	-62.4	-87.6	3.2	15699592	84	65535
2025-01-06 09:58:03.04	49.40	83.07	-62.4	-87.6	3.0	15695198	84	65535
2025-01-06 09:58:03.46	47.76	82.99	-62.3	-87.5	2.9	15690238	84	65535
2025-01-06 09:58:03.86	46.24	82.90	-62.3	-87.5	3.2	15696365	84	65535
2025-01-06 09:58:04.26	44.75	82.82	-62.3	-87.5	3.2	15690429	84	65535
2025-01-06 09:58:04.68	43.23	82.72	-62.3	-87.5	3.0	15695777	84	65535
2025-01-06 09:58:05.08	41.82	82.62	-62.3	-87.5	2.9	15684295	84	65535
2025-01-06 09:58:05.50	40.38	82.51	-62.3	-87.5	3.1	15680961	84	65535
2025-01-06 09:58:05.90	39.04	82.41	-62.3	-87.5	3.2	15680961	84	65535
2025-01-06 09:58:06.31	37.71	82.30	-62.3	-87.5	3.0	15687309	85	65535
2025-01-06 09:58:06.72	36.43	82.18	-62.2	-87.4	3.1	15679100	85	65535
2025-01-06 09:58:07.13	35.18	82.06	-62.3	-87.5	3.1	15676376	85	65535
2025-01-06 09:58:07.53	33.99	81.94	-62.3	-87.5	2.9	15667396	84	65535
2025-01-06 09:58:07.95	32.79	81.81	-62.2	-87.4	3.1	15686996	85	65535
2025-01-06 09:58:08.35	31.68	81.68	-62.3	-87.5	3.1	15672607	85	65535
2025-01-06 09:58:08.78	30.53	81.54	-62.2	-87.4	3.1	15670082	85	65535
2025-01-06 09:58:09.20	29.44	81.40	-62.4	-87.6	3.2	15686218	84	65535
2025-01-06 09:58:09.62	28.38	81.26	-62.2	-87.4	3.2	15686546	85	65535
2025-01-06 09:58:10.03	27.39	81.11	-62.3	-87.5	3.1	15666641	85	65535
2025-01-06 09:58:10.45	26.40	80.97	-62.3	-87.5	3.5	15670234	85	65535
2025-01-06 09:58:10.87	25.45	80.82	-62.3	-87.5	3.0	15679565	84	65535
2025-01-06 09:58:11.27	24.57	80.67	-62.2	-87.4	3.2	15669975	85	65535
2025-01-06 09:58:11.67	23.71	80.52	-62.2	-87.4	3.2	15655120	85	65535
2025-01-06 09:58:12.08	22.87	80.37	-62.2	-87.4	3.2	15645416	85	65535
2025-01-06 09:58:12.48	22.07	80.22	-62.1	-87.3	3.0	15645416	84	65535
2025-01-06 09:58:12.89	21.28	80.06	-62.1	-87.4	3.0	15643386	84	65535
2025-01-06 09:58:13.30	20.51	79.90	-62.2	-87.4	3.0	15690071	84	65535
2025-01-06 09:58:13.70	19.78	79.75	-62.2	-87.4	3.0	15671028	84	65535
2025-01-06 09:58:14.13	19.03	79.58	-62.2	-87.4	3.1	15674827	85	65535
2025-01-06 09:58:14.53	18.35	79.42	-62.2	-87.4	3.1	15678756	85	65535
2025-01-06 09:58:14.93	17.69	79.26	-62.3	-87.5	3.2	15672012	85	65535
2025-01-06 09:58:15.35	17.02	79.09	-62.3	-87.5	3.1	15669036	85	65535
2025-01-06 09:58:15.77	16.37	78.92	-62.3	-87.5	2.9	15671241	84	65535
2025-01-06 09:58:16.19	15.74	78.74	-62.3	-87.5	2.9	15700019	84	65535
2025-01-06 09:58:16.60	15.14	78.58	-62.3	-87.5	2.9	15696563	84	65535
2025-01-06 09:58:17.02	14.55	78.40	-62.4	-87.6	2.9	15688232	84	65535
2025-01-06 09:58:17.42	14.00	78.23	-62.3	-87.6	2.0	15694343	84	65535
2025-01-06 09:58:17.84	13.45	78.06	-62.4	-87.6	3.1	15712722	84	65535
2025-01-06 09:58:18.27	12.89	77.88	-62.4	-87.6	2.8	15695343	84	65535
2025-01-06 09:58:18.67	12.39	77.71	-62.4	-87.6	2.9	15693000	84	65535
2025-01-06 09:58:19.08	11.89	77.53	-62.3	-87.5	2.8	15686309	82	65535
2025-01-06 09:58:19.49	11.41	77.36	-62.4	-87.6	2.9	15710968	84	65535
2025-01-06 09:58:19.91	10.93	77.18	-62.4	-87.6	2.9	15694602	84	65535
2025-01-06 09:58:20.34	10.45	76.99	-62.4	-87.6	3.0	15694602	85	65535
2025-01-06 09:58:20.74	10.02	76.82	-62.4	-87.6	2.0	15708702	84	65535
2025-01-06 09:58:21.16	9.58	76.64	-62.4	-87.6	3.1	15687644	84	65535
2025-01-06 09:58:21.58	9.15	76.46	-62.4	-87.6	3.1	15704444	84	65535
2025-01-06 09:58:21.98	8.75	76.28	-62.4	-87.6	2.9	15690719	84	65535
2025-01-06 09:58:22.38	8.36	76.11	-61.9	-87.1	2.9	15695480	84	65535
2025-01-06 09:58:22.80	7.97	75.92	-62.4	-87.6	3.2	15703498	84	65535
2025-01-06 09:58:23.21	7.59	75.74	-62.4	-87.6	2.9	15690124	84	65535
2025-01-06 09:58:23.63	7.22	75.56	-62.4	-87.6	3.0	15694580	85	65535
2025-01-06 09:58:24.06	6.84	75.37	-61.2	-86.4	3.3	15682693	84	65535
2025-01-06 09:58:24.48	6.48	75.18	-62.3	-87.5	3.1	15688446	84	65535
2025-01-06 09:58:24.88	6.15	75.01	-62.4	-87.6	2.9	15698989	84	65535
2025-01-06 09:58:25.30	5.82	74.82	-62.3	-87.5	3.0	15688575	85	65535
2025-01-06 09:58:25.72	5.49	74.64	-62.3	-87.5	3.3	15682250	85	65535
2025-01-06 09:58:26.12	5.18	74.46	-62.4	-87.6	3.0	15697830	84	65535
2025-01-06 09:58:26.53	4.87	74.28	-62.3	-87.5	2.9	15691665	84	65535
2025-01-06 09:58:26.95	4.57	74.09	-62.3	-87.5	2.9	15699737	84	65535
2025-01-06 09:58:27.35	4.28	73.91	-62.3	-87.5	3.0	15694526	84	65535
2025-01-06 09:58:27.75	4.00	73.74	-62.3	-87.5	3.1	15694526	84	65535
2025-01-06 09:58:28.17	3.72	73.55	-62.3	-87.5	2.9	15698669	84	65535
2025-01-06 09:58:28.59	3.44	73.36	-62.3	-87.5	2.9	15693740	84	65535
2025-01-06 09:58:28.99	3.18	73.18	-62.4	-87.6	2.9	15702621	84	65535
2025-01-06 09:58:29.42	2.91	72.99	-62.3	-87.5	3.1	15699234	84	65535
2025-01-06 09:58:29.82	2.66	72.81	-62.3	-87.5	2.9	15694091	84	65535
2025-01-06 09:58:30.26	2.39	72.62	-62.3	-87.5	2.9	15706367	84	65535
2025-01-06 09:58:30.67	2.15	72.44	-62.3	-87.5	3.2	15693664	84	65535
2025-01-06 09:58:31.09	1.91	72.25	-62.3	-87.5	2.9	15695343	84	65535
2025-01-06 09:58:31.52	1.66	72.06	-62.3	-87.5	2.9	15694030	84	65535
2025-01-06 09:58:31.94	1.43	71.87	-62.3	-87.5	3.1	15691993	84	65535
2025-01-06 09:58:32.34	1.22	71.69	-62.3	-87.5	3.2	15694541	84	65535
2025-01-06 09:58:32.74	1.00	71.51	-62.3	-87.5	2.9	15692131	84	65535
2025-01-06 09:58:33.14	0.80	71.34	-62.3	-87.5	2.9	15700225	84	65535
2025-01-06 09:58:33.56	0.58	71.15	-62.2	-87.4	3.0	15707252	84	65535
2025-01-06 09:58:33.96	0.38	70.97	-62.3	-87.5	3.0	15704032	84	65535
2025-01-06 09:58:34.37	0.18	70.79	-62.4	-87.6	2.9	15695785	84	65535
2025-01-06 09:58:34.78	359.99	70.61	-62.3	-87.5	2.9	15712722	84	65535
2025-01-06 09:58:35.18	359.80	70.43	-62.3	-87.5	2.9	15712722	84	65535
2025-01-06 09:58:35.60	359.61	70.24	-62.3	-87.5	3.2	15694664	84	65535

#Closed at: 2025-01-06 09:58:35