passes_logs/2026/01/17/Regia/Regia__20260117_095415_AURA_rec.log

#Pass ID: 20260117_095415_AURA
#Satellite: AURA
#Configuration: AURA
#Start time: 2026-01-17 09:54:20.077762

#LorettStation: 1.0.0 05.05.2024
#Station: Regia
#Location: 37.494653 lon 55.929028 lat
#TLE: 1 28376U 04026A   26016.58156990  .00000671  00000+0  14656-3 0  9994
#TLE: 2 28376  98.3230 331.9805 0001618  74.7727 285.3652 14.61008825144074

#Time	Az	El	Level	SNR
2026-01-17 09:54:26.223213	111.1	15.6	-69.4	0.0
2026-01-17 09:54:27.335639	111.0	15.7	-69.6	0.0
2026-01-17 09:54:28.449193	110.8	15.8	-69.3	0.0
2026-01-17 09:54:29.562542	110.6	15.9	-69.4	0.0
2026-01-17 09:54:30.678395	110.4	16.0	-69.4	0.0
2026-01-17 09:54:31.791294	110.3	16.1	-69.4	0.0
2026-01-17 09:54:32.904430	110.1	16.2	-69.2	0.0
2026-01-17 09:54:34.017196	109.9	16.3	-69.5	0.0
2026-01-17 09:54:35.130420	109.7	16.4	-69.7	0.0
2026-01-17 09:54:36.243466	109.5	16.6	-69.5	0.0
2026-01-17 09:54:37.356057	109.4	16.7	-69.5	0.0
2026-01-17 09:54:38.468552	109.2	16.8	-69.4	0.0
2026-01-17 09:54:39.581459	109.0	16.9	-69.5	0.0
2026-01-17 09:54:40.695382	108.8	17.0	-69.3	0.0
2026-01-17 09:54:41.810408	108.6	17.1	-69.2	0.0
2026-01-17 09:54:42.923614	108.4	17.2	-69.5	0.0
2026-01-17 09:54:44.036594	108.2	17.3	-69.6	0.0
2026-01-17 09:54:45.149482	108.0	17.4	-69.6	0.0
2026-01-17 09:54:46.261933	107.8	17.5	-69.2	0.0
2026-01-17 09:54:47.374553	107.6	17.7	-69.5	0.0
2026-01-17 09:54:48.488096	107.4	17.8	-69.4	0.0
2026-01-17 09:54:49.600488	107.2	17.9	-69.5	0.0
2026-01-17 09:54:50.713650	107.0	18.0	-69.4	0.0
2026-01-17 09:54:51.826573	106.8	18.1	-69.6	0.0
2026-01-17 09:54:52.939708	106.6	18.2	-69.6	0.0
2026-01-17 09:54:54.052199	106.4	18.3	-69.7	0.0
2026-01-17 09:54:55.164896	106.2	18.4	-69.7	0.0
2026-01-17 09:54:56.278211	106.0	18.5	-69.5	0.0
2026-01-17 09:54:57.390990	105.8	18.7	-69.6	0.0
2026-01-17 09:54:58.503843	105.6	18.8	-69.4	0.0
2026-01-17 09:54:59.616409	105.4	18.9	-69.7	0.0
2026-01-17 09:55:00.729642	105.2	19.0	-69.6	0.0
2026-01-17 09:55:01.842670	104.9	19.1	-69.6	0.0
2026-01-17 09:55:02.955864	104.7	19.2	-69.7	0.0
2026-01-17 09:55:04.070890	104.5	19.3	-69.6	0.0
2026-01-17 09:55:05.183791	104.3	19.5	-69.6	0.0
2026-01-17 09:55:06.296619	104.0	19.6	-69.8	0.0
2026-01-17 09:55:07.409969	103.8	19.7	-69.8	0.0
2026-01-17 09:55:08.522588	103.6	19.8	-69.6	0.0
2026-01-17 09:55:09.636163	103.4	19.9	-69.7	0.0
2026-01-17 09:55:10.748724	103.1	20.0	-69.6	0.0
2026-01-17 09:55:11.861907	102.9	20.1	-69.7	0.0
2026-01-17 09:55:12.974989	102.7	20.3	-69.5	0.0
2026-01-17 09:55:14.088640	102.4	20.4	-69.5	0.0
2026-01-17 09:55:15.205204	102.2	20.5	-69.5	0.0
2026-01-17 09:55:16.318829	101.9	20.6	-68.8	0.0
2026-01-17 09:55:17.432030	101.7	20.7	-69.5	0.0
2026-01-17 09:55:18.544008	101.4	20.8	-69.6	0.0
2026-01-17 09:55:19.656609	101.2	20.9	-69.5	0.0
2026-01-17 09:55:20.770357	100.9	21.1	-69.7	0.0
2026-01-17 09:55:21.883663	100.7	21.2	-69.5	0.0
2026-01-17 09:55:22.996421	100.4	21.3	-69.6	0.0
2026-01-17 09:55:24.109235	100.2	21.4	-69.6	0.0
2026-01-17 09:55:25.222248	99.9	21.5	-69.6	0.0
2026-01-17 09:55:26.338161	99.7	21.6	-69.4	0.0
2026-01-17 09:55:27.457463	99.4	21.8	-69.5	0.0
2026-01-17 09:55:28.570555	99.1	21.9	-69.6	0.0
2026-01-17 09:55:29.683397	98.9	22.0	-69.8	0.0
2026-01-17 09:55:30.795865	98.6	22.1	-69.6	0.0
2026-01-17 09:55:31.908553	98.3	22.2	-69.7	0.0
2026-01-17 09:55:33.021816	98.1	22.3	-69.8	0.0
2026-01-17 09:55:34.134910	97.8	22.4	-69.6	0.0
2026-01-17 09:55:35.247472	97.5	22.6	-69.5	0.0
2026-01-17 09:55:36.360646	97.2	22.7	-69.5	0.0
2026-01-17 09:55:37.473294	97.0	22.8	-69.5	0.0
2026-01-17 09:55:38.586820	96.7	22.9	-69.6	0.0
2026-01-17 09:55:39.699627	96.4	23.0	-69.6	0.0
2026-01-17 09:55:40.812573	96.1	23.1	-69.7	0.0
2026-01-17 09:55:41.925953	95.8	23.2	-69.5	0.0
2026-01-17 09:55:43.039028	95.5	23.4	-69.6	0.0
2026-01-17 09:55:44.151612	95.2	23.5	-69.7	0.0
2026-01-17 09:55:45.264846	94.9	23.6	-69.6	0.0
2026-01-17 09:55:46.378276	94.6	23.7	-69.9	0.0
2026-01-17 09:55:47.490752	94.3	23.8	-69.8	0.0
2026-01-17 09:55:48.603180	94.0	23.9	-69.6	0.0
2026-01-17 09:55:49.716321	93.7	24.0	-69.5	0.0
2026-01-17 09:55:50.829163	93.4	24.1	-69.2	0.0
2026-01-17 09:55:51.941882	93.1	24.2	-69.5	0.0
2026-01-17 09:55:53.054503	92.8	24.4	-69.6	0.0
2026-01-17 09:55:54.167078	92.5	24.5	-69.6	0.0
2026-01-17 09:55:55.279139	92.2	24.6	-69.4	0.0
2026-01-17 09:55:56.391993	91.8	24.7	-69.4	0.0
2026-01-17 09:55:57.504421	91.5	24.8	-69.6	0.0
2026-01-17 09:55:58.617738	91.2	24.9	-69.9	0.0
2026-01-17 09:55:59.730405	90.9	25.0	-69.6	0.0
2026-01-17 09:56:00.843939	90.5	25.1	-69.6	0.0
2026-01-17 09:56:01.956909	90.2	25.2	-69.6	0.0
2026-01-17 09:56:03.069678	89.9	25.3	-69.5	0.0
2026-01-17 09:56:04.182512	89.5	25.4	-69.6	0.0
2026-01-17 09:56:05.295500	89.2	25.5	-69.6	0.0
2026-01-17 09:56:06.408991	88.9	25.6	-69.6	0.0
2026-01-17 09:56:07.522143	88.5	25.7	-69.8	0.0
2026-01-17 09:56:08.635137	88.2	25.9	-69.5	0.0
2026-01-17 09:56:09.748063	87.8	26.0	-69.7	0.0
2026-01-17 09:56:10.860431	87.5	26.1	-69.5	0.0
2026-01-17 09:56:11.973482	87.1	26.2	-69.8	0.0
2026-01-17 09:56:13.086240	86.8	26.3	-69.7	0.0
2026-01-17 09:56:14.199077	86.4	26.4	-69.8	0.0
2026-01-17 09:56:15.312572	86.1	26.5	-69.4	0.0
2026-01-17 09:56:16.425859	85.7	26.6	-69.6	0.0
2026-01-17 09:56:17.538716	85.3	26.6	-69.8	0.0
2026-01-17 09:56:18.651696	85.0	26.7	-69.6	0.0
2026-01-17 09:56:19.764719	84.6	26.8	-69.5	0.0
2026-01-17 09:56:20.877931	84.2	26.9	-69.7	0.0
2026-01-17 09:56:21.999272	83.9	27.0	-69.6	0.0
2026-01-17 09:56:23.113376	83.5	27.1	-69.7	0.0
2026-01-17 09:56:24.226225	83.1	27.2	-69.7	0.0
2026-01-17 09:56:25.339516	82.7	27.3	-69.0	0.0
2026-01-17 09:56:26.452208	82.4	27.4	-69.6	0.0
2026-01-17 09:56:27.565201	82.0	27.5	-69.4	0.0
2026-01-17 09:56:28.678123	81.6	27.6	-69.8	0.0
2026-01-17 09:56:29.791212	81.2	27.7	-69.4	0.0
2026-01-17 09:56:30.904371	80.8	27.7	-69.4	0.0
2026-01-17 09:56:32.017748	80.4	27.8	-69.6	0.0
2026-01-17 09:56:33.133341	80.0	27.9	-69.5	0.0
2026-01-17 09:56:34.245937	79.6	28.0	-69.6	0.0
2026-01-17 09:56:35.358256	79.2	28.1	-69.7	0.0
2026-01-17 09:56:36.471243	78.8	28.1	-69.7	0.0
2026-01-17 09:56:37.584221	78.4	28.2	-69.6	0.0
2026-01-17 09:56:38.697171	78.0	28.3	-69.7	0.0
2026-01-17 09:56:39.810773	77.6	28.4	-69.6	0.0
2026-01-17 09:56:40.923458	77.2	28.4	-69.5	0.0
2026-01-17 09:56:42.036675	76.8	28.5	-69.6	0.0
2026-01-17 09:56:43.151029	76.4	28.6	-69.5	0.0
2026-01-17 09:56:44.266574	76.0	28.7	-69.6	0.0
2026-01-17 09:56:45.379832	75.5	28.7	-69.3	0.0
2026-01-17 09:56:46.492286	75.1	28.8	-69.6	0.0
2026-01-17 09:56:47.604505	74.7	28.9	-69.7	0.0
2026-01-17 09:56:48.717477	74.3	28.9	-69.5	0.0
2026-01-17 09:56:49.830233	73.9	29.0	-69.6	0.0
2026-01-17 09:56:50.943339	73.4	29.0	-69.6	0.0
2026-01-17 09:56:52.055900	73.0	29.1	-69.7	0.0
2026-01-17 09:56:53.169423	72.6	29.2	-69.6	0.0
2026-01-17 09:56:54.282059	72.2	29.2	-69.4	0.0
2026-01-17 09:56:55.394557	71.7	29.3	-69.4	0.0
2026-01-17 09:56:56.507384	71.3	29.3	-69.7	0.0
2026-01-17 09:56:57.620227	70.9	29.4	-69.7	0.0
2026-01-17 09:56:58.732535	70.4	29.4	-69.7	0.0
2026-01-17 09:56:59.845679	70.0	29.5	-69.0	0.0
2026-01-17 09:57:00.959341	69.6	29.5	-69.6	0.0
2026-01-17 09:57:02.073194	69.1	29.6	-69.8	0.0
2026-01-17 09:57:03.186066	68.7	29.6	-69.7	0.0
2026-01-17 09:57:04.299644	68.2	29.6	-69.4	0.0
2026-01-17 09:57:05.412330	67.8	29.7	-69.4	0.0
2026-01-17 09:57:06.524884	67.3	29.7	-69.7	0.0
2026-01-17 09:57:07.640595	66.9	29.8	-69.8	0.0
2026-01-17 09:57:08.752789	66.5	29.8	-69.3	0.0
2026-01-17 09:57:09.865771	66.0	29.8	-69.5	0.0
2026-01-17 09:57:10.978470	65.6	29.8	-69.6	0.0
2026-01-17 09:57:12.091024	65.1	29.9	-69.7	0.0
2026-01-17 09:57:13.203762	64.7	29.9	-69.5	0.0
2026-01-17 09:57:14.316072	64.2	29.9	-69.6	0.0
2026-01-17 09:57:15.428222	63.8	29.9	-69.6	0.0
2026-01-17 09:57:16.541016	63.3	30.0	-69.8	0.0
2026-01-17 09:57:17.657576	62.9	30.0	-69.4	0.0
2026-01-17 09:57:18.770863	62.4	30.0	-69.8	0.0
2026-01-17 09:57:19.883097	62.0	30.0	-69.7	0.0
2026-01-17 09:57:20.995187	61.5	30.0	-69.8	0.0
2026-01-17 09:57:22.108512	61.1	30.0	-69.9	0.0
2026-01-17 09:57:23.221135	60.6	30.0	-69.7	0.0
2026-01-17 09:57:24.334338	60.2	30.0	-69.6	0.0
2026-01-17 09:57:25.446916	59.7	30.1	-69.6	0.0
2026-01-17 09:57:26.559858	59.2	30.1	-69.6	0.0
2026-01-17 09:57:27.673136	58.8	30.1	-69.6	0.0
2026-01-17 09:57:28.790485	58.3	30.1	-69.7	0.0
2026-01-17 09:57:29.902978	57.9	30.0	-69.7	0.0
2026-01-17 09:57:31.016061	57.4	30.0	-69.5	0.0
2026-01-17 09:57:32.129089	57.0	30.0	-69.5	0.0
2026-01-17 09:57:33.242065	56.5	30.0	-69.7	0.0
2026-01-17 09:57:34.354708	56.1	30.0	-69.5	0.0
2026-01-17 09:57:35.468411	55.6	30.0	-69.5	0.0
2026-01-17 09:57:36.580835	55.2	30.0	-69.8	0.0
2026-01-17 09:57:37.693642	54.7	30.0	-69.7	0.0
2026-01-17 09:57:38.806865	54.3	30.0	-69.5	0.0
2026-01-17 09:57:39.922013	53.8	29.9	-69.6	0.0
2026-01-17 09:57:41.035601	53.4	29.9	-69.8	0.0
2026-01-17 09:57:42.148110	52.9	29.9	-69.8	0.0
2026-01-17 09:57:43.261171	52.5	29.9	-69.7	0.0
2026-01-17 09:57:44.374627	52.0	29.8	-69.7	0.0
2026-01-17 09:57:45.487964	51.6	29.8	-69.6	0.0
2026-01-17 09:57:46.600285	51.1	29.8	-69.6	0.0
2026-01-17 09:57:47.713021	50.7	29.7	-69.8	0.0
2026-01-17 09:57:48.826163	50.2	29.7	-69.7	0.0
2026-01-17 09:57:49.939631	49.8	29.7	-69.2	0.0
2026-01-17 09:57:51.056053	49.4	29.6	-69.7	0.0
2026-01-17 09:57:52.169733	48.9	29.6	-69.7	0.0
2026-01-17 09:57:53.282470	48.5	29.5	-69.7	0.0
2026-01-17 09:57:54.395299	48.0	29.5	-69.7	0.0
2026-01-17 09:57:55.508250	47.6	29.4	-69.7	0.0
2026-01-17 09:57:56.620928	47.2	29.4	-69.7	0.0
2026-01-17 09:57:57.733760	46.7	29.3	-69.7	0.0
2026-01-17 09:57:58.846378	46.3	29.3	-69.5	0.0
2026-01-17 09:57:59.959226	45.9	29.2	-69.7	0.0
2026-01-17 09:58:01.073234	45.4	29.2	-69.8	0.0
2026-01-17 09:58:02.189570	45.0	29.1	-69.8	0.0
2026-01-17 09:58:03.301469	44.6	29.1	-69.6	0.0
2026-01-17 09:58:04.414442	44.2	29.0	-69.6	0.0
2026-01-17 09:58:05.528190	43.7	28.9	-69.6	0.0
2026-01-17 09:58:06.641100	43.3	28.9	-69.7	0.0
2026-01-17 09:58:07.754581	42.9	28.8	-69.7	0.0
2026-01-17 09:58:08.867056	42.5	28.8	-69.6	0.0
2026-01-17 09:58:09.979772	42.1	28.7	-69.7	0.0
2026-01-17 09:58:11.092665	41.7	28.6	-69.7	0.0
2026-01-17 09:58:12.204196	41.3	28.5	-69.7	0.0
2026-01-17 09:58:13.318067	40.8	28.5	-69.4	0.0
2026-01-17 09:58:14.430956	40.4	28.4	-69.5	0.0
2026-01-17 09:58:15.543158	40.0	28.3	-69.6	0.0
2026-01-17 09:58:16.655927	39.6	28.3	-69.7	0.0
2026-01-17 09:58:17.768818	39.2	28.2	-69.6	0.0
2026-01-17 09:58:18.881778	38.8	28.1	-69.6	0.0
2026-01-17 09:58:19.995132	38.4	28.0	-69.6	0.0
2026-01-17 09:58:21.108068	38.0	27.9	-69.9	0.0
2026-01-17 09:58:22.220888	37.6	27.9	-69.7	0.0
2026-01-17 09:58:23.333947	37.2	27.8	-69.7	0.0
2026-01-17 09:58:24.447467	36.9	27.7	-69.4	0.0
2026-01-17 09:58:25.560018	36.5	27.6	-69.5	0.0
2026-01-17 09:58:26.672960	36.1	27.5	-69.5	0.0
2026-01-17 09:58:27.791328	35.7	27.4	-69.6	0.0
2026-01-17 09:58:28.903253	35.3	27.3	-69.8	0.0
2026-01-17 09:58:30.016181	34.9	27.3	-69.6	0.0
2026-01-17 09:58:31.129631	34.6	27.2	-69.5	0.0
2026-01-17 09:58:32.242818	34.2	27.1	-69.5	0.0
2026-01-17 09:58:33.354969	33.8	27.0	-69.8	0.0
2026-01-17 09:58:34.469043	33.4	26.9	-68.8	0.0
2026-01-17 09:58:35.581089	33.1	26.8	-69.6	0.0
2026-01-17 09:58:36.694447	32.7	26.7	-69.5	0.0
2026-01-17 09:58:37.807193	32.4	26.6	-69.5	0.0
2026-01-17 09:58:38.920794	32.0	26.5	-69.4	0.0
2026-01-17 09:58:40.032618	31.6	26.4	-69.6	0.0
2026-01-17 09:58:41.144515	31.3	26.3	-69.9	0.0
2026-01-17 09:58:42.257516	30.9	26.2	-69.6	0.0
2026-01-17 09:58:43.370469	30.6	26.1	-69.6	0.0
2026-01-17 09:58:44.483905	30.2	26.0	-69.7	0.0
2026-01-17 09:58:45.596525	29.9	25.9	-69.5	0.0
2026-01-17 09:58:46.710584	29.5	25.8	-69.9	0.0
2026-01-17 09:58:47.823127	29.2	25.7	-69.4	0.0
2026-01-17 09:58:48.936267	28.9	25.6	-69.5	0.0
2026-01-17 09:58:50.048259	28.5	25.5	-69.8	0.0
2026-01-17 09:58:51.161678	28.2	25.4	-69.8	0.0
2026-01-17 09:58:52.274632	27.8	25.3	-69.8	0.0
2026-01-17 09:58:53.387265	27.5	25.2	-69.6	0.0
2026-01-17 09:58:54.500379	27.2	25.1	-69.5	0.0
2026-01-17 09:58:55.613609	26.9	25.0	-69.6	0.0
2026-01-17 09:58:56.726276	26.5	24.9	-69.6	0.0
2026-01-17 09:58:57.839640	26.2	24.7	-69.8	0.0
2026-01-17 09:58:58.956058	25.9	24.6	-69.6	0.0
2026-01-17 09:59:00.067804	25.6	24.5	-69.4	0.0
2026-01-17 09:59:01.181543	25.3	24.4	-69.7	0.0
2026-01-17 09:59:02.294107	25.0	24.3	-69.7	0.0
2026-01-17 09:59:03.407191	24.7	24.2	-69.8	0.0
2026-01-17 09:59:04.519540	24.3	24.1	-69.7	0.0
2026-01-17 09:59:05.632787	24.0	24.0	-69.7	0.0
2026-01-17 09:59:06.745992	23.7	23.9	-69.6	0.0
2026-01-17 09:59:07.859288	23.4	23.8	-69.7	0.0
2026-01-17 09:59:08.972661	23.1	23.6	-69.6	0.0
2026-01-17 09:59:10.085650	22.8	23.5	-69.7	0.0
2026-01-17 09:59:11.198433	22.6	23.4	-69.7	0.0
2026-01-17 09:59:12.310920	22.3	23.3	-69.7	0.0
2026-01-17 09:59:13.424256	22.0	23.2	-69.6	0.0
2026-01-17 09:59:14.537474	21.7	23.1	-69.6	0.0
2026-01-17 09:59:15.650174	21.4	23.0	-69.7	0.0
2026-01-17 09:59:16.762845	21.1	22.9	-69.8	0.0
2026-01-17 09:59:17.875102	20.8	22.7	-69.8	0.0
2026-01-17 09:59:18.987619	20.6	22.6	-69.7	0.0
2026-01-17 09:59:20.100668	20.3	22.5	-69.7	0.0
2026-01-17 09:59:21.214460	20.0	22.4	-69.4	0.0
2026-01-17 09:59:22.326813	19.7	22.3	-69.7	0.0
2026-01-17 09:59:23.439687	19.5	22.2	-69.4	0.0
2026-01-17 09:59:24.553022	19.2	22.1	-69.8	0.0
2026-01-17 09:59:25.664984	18.9	21.9	-69.7	0.0
2026-01-17 09:59:26.778065	18.7	21.8	-69.6	0.0
2026-01-17 09:59:27.890634	18.4	21.7	-69.6	0.0
2026-01-17 09:59:29.002741	18.2	21.6	-69.6	0.0
2026-01-17 09:59:30.115773	17.9	21.5	-69.7	0.0
2026-01-17 09:59:31.228291	17.6	21.4	-69.7	0.0
2026-01-17 09:59:32.342285	17.4	21.3	-69.4	0.0
2026-01-17 09:59:33.455191	17.1	21.1	-69.7	0.0
2026-01-17 09:59:34.567906	16.9	21.0	-69.3	0.0
2026-01-17 09:59:35.680785	16.6	20.9	-69.7	0.0
2026-01-17 09:59:36.793959	16.4	20.8	-69.6	0.0
2026-01-17 09:59:37.907054	16.2	20.7	-69.5	0.0
2026-01-17 09:59:39.020009	15.9	20.6	-69.5	0.0
2026-01-17 09:59:40.132751	15.7	20.5	-69.6	0.0
2026-01-17 09:59:41.245870	15.4	20.3	-69.8	0.0
2026-01-17 09:59:42.358994	15.2	20.2	-69.6	0.0
2026-01-17 09:59:43.472412	15.0	20.1	-69.5	0.0
2026-01-17 09:59:44.585297	14.7	20.0	-69.6	0.0
2026-01-17 09:59:45.698268	14.5	19.9	-69.6	0.0
2026-01-17 09:59:46.811228	14.3	19.8	-69.7	0.0
2026-01-17 09:59:47.923835	14.0	19.7	-69.6	0.0
2026-01-17 09:59:49.036069	13.8	19.5	-69.3	0.0
2026-01-17 09:59:50.148515	13.6	19.4	-69.8	0.0
2026-01-17 09:59:51.261479	13.4	19.3	-69.5	0.0
2026-01-17 09:59:52.373874	13.2	19.2	-69.7	0.0
2026-01-17 09:59:53.487552	12.9	19.1	-69.7	0.0
2026-01-17 09:59:54.600195	12.7	19.0	-69.5	0.0
2026-01-17 09:59:55.713488	12.5	18.9	-69.8	0.0
2026-01-17 09:59:56.826262	12.3	18.8	-69.6	0.0
2026-01-17 09:59:57.939740	12.1	18.6	-69.2	0.0
2026-01-17 09:59:59.052164	11.9	18.5	-68.9	0.0
2026-01-17 10:00:00.165267	11.7	18.4	-69.7	0.0
2026-01-17 10:00:01.278021	11.5	18.3	-69.7	0.0
2026-01-17 10:00:02.391237	11.3	18.2	-69.6	0.0
2026-01-17 10:00:03.504303	11.1	18.1	-69.6	0.0
2026-01-17 10:00:04.617882	10.9	18.0	-69.6	0.0
2026-01-17 10:00:05.731021	10.7	17.9	-69.7	0.0
2026-01-17 10:00:06.843229	10.5	17.7	-69.6	0.0
2026-01-17 10:00:07.957137	10.3	17.6	-69.6	0.0
2026-01-17 10:00:09.069207	10.1	17.5	-69.4	0.0
2026-01-17 10:00:10.182795	9.9	17.4	-69.7	0.0
2026-01-17 10:00:11.295659	9.7	17.3	-69.5	0.0
2026-01-17 10:00:12.408572	9.5	17.2	-69.7	0.0
2026-01-17 10:00:13.521304	9.3	17.1	-69.6	0.0
2026-01-17 10:00:14.634420	9.1	17.0	-69.6	0.0
2026-01-17 10:00:15.747680	8.9	16.9	-69.5	0.0
2026-01-17 10:00:16.860445	8.7	16.8	-69.9	0.0
2026-01-17 10:00:17.973983	8.6	16.7	-69.6	0.0
2026-01-17 10:00:19.087502	8.4	16.5	-69.6	0.0
2026-01-17 10:00:20.200090	8.2	16.4	-69.5	0.0
2026-01-17 10:00:21.313197	8.0	16.3	-69.6	0.0
2026-01-17 10:00:22.425972	7.8	16.2	-69.4	0.0
2026-01-17 10:00:23.538724	7.7	16.1	-69.7	0.0
2026-01-17 10:00:24.651434	7.5	16.0	-69.5	0.0
2026-01-17 10:00:25.764278	7.3	15.9	-69.5	0.0
2026-01-17 10:00:26.875815	7.2	15.8	-69.7	0.0
2026-01-17 10:00:27.988830	7.0	15.7	-69.7	0.0
2026-01-17 10:00:29.102358	6.8	15.6	-69.7	0.0
2026-01-17 10:00:30.215560	6.6	15.5	-69.6	0.0
2026-01-17 10:00:31.328204	6.5	15.4	-69.7	0.0
2026-01-17 10:00:32.441338	6.3	15.3	-69.1	0.0
2026-01-17 10:00:33.554055	6.1	15.2	-69.8	0.0
2026-01-17 10:00:34.667138	6.0	15.1	-69.7	0.0
2026-01-17 10:00:35.780264	5.8	15.0	-69.8	0.0
#Closed at: 2026-01-17 09:54:15.078625