passes_logs/2025/01/01/X_MFTI_02/X_MFTI_02__20250101_095158_NOAA_20_rec.log

#Pass ID: 20250101_095158_NOAA 20
#Satellite: NOAA 20
#Configuration: NOAA 20
#Start time: 2025-01-01 09:51:54

#Version: 1.5.20200625
#Station: X_MFTI_02
#Location: 37.5186 lon 55.9291 lat
#TLE: 1 43013U 17073A   23362.44808611  .00000160  00000+0  96626-4 0  9996
#TLE: 2 43013  98.7331 297.9536 0000783  57.5916 302.5335 14.19555620316533

#Time	Az	El	Level	Level2	SNR	BER	Gain	Gain2
2025-01-01 09:51:54.90	124.76	68.60	-62.2	-87.4	3.2	15528022	84	65535
2025-01-01 09:51:55.31	124.44	68.75	-62.3	-87.5	3.2	15662780	85	65535
2025-01-01 09:51:55.73	124.12	68.91	-62.2	-87.4	3.2	15651870	85	65535
2025-01-01 09:51:56.14	123.79	69.06	-62.2	-87.4	3.2	15676536	85	65535
2025-01-01 09:51:56.56	123.45	69.22	-61.9	-87.1	3.0	15672805	84	65535
2025-01-01 09:51:56.97	123.12	69.37	-61.9	-87.1	3.3	15690910	84	65535
2025-01-01 09:51:57.38	122.78	69.53	-62.1	-87.3	3.2	15681449	84	65535
2025-01-01 09:51:57.80	122.42	69.68	-61.9	-87.1	3.0	15692207	84	65535
2025-01-01 09:51:58.21	122.07	69.83	-62.0	-87.2	3.3	15690689	84	65535
2025-01-01 09:51:58.63	121.70	69.99	-62.3	-87.5	3.3	15680847	84	65535
2025-01-01 09:51:59.04	121.34	70.14	-62.3	-87.5	3.2	15684173	84	65535
2025-01-01 09:51:59.45	120.97	70.29	-62.3	-87.5	3.1	15682563	84	65535
2025-01-01 09:51:59.87	120.59	70.44	-62.2	-87.4	3.0	15668243	84	65535
2025-01-01 09:52:00.28	120.20	70.59	-62.0	-87.2	3.0	15668243	84	65535
2025-01-01 09:52:00.70	119.80	70.74	-62.2	-87.4	3.0	15666168	84	65535
2025-01-01 09:52:01.12	119.40	70.89	-62.2	-87.4	3.1	15677474	84	65534
2025-01-01 09:52:01.53	119.00	71.04	-62.2	-87.4	3.3	15684844	84	65535
2025-01-01 09:52:01.95	118.58	71.19	-62.3	-87.5	3.3	15685195	84	65535
2025-01-01 09:52:02.36	118.16	71.33	-62.0	-87.2	3.0	15684387	84	65535
2025-01-01 09:52:02.77	117.74	71.48	-62.3	-87.5	3.0	15672950	84	65535
2025-01-01 09:52:03.18	117.31	71.62	-61.9	-87.1	3.0	15685813	84	65535
2025-01-01 09:52:03.60	116.87	71.77	-62.3	-87.5	3.0	15685661	84	65535
2025-01-01 09:52:04.01	116.42	71.91	-62.3	-87.5	3.0	15680793	84	65535
2025-01-01 09:52:04.43	115.96	72.06	-62.2	-87.4	3.0	15670623	84	65535
2025-01-01 09:52:04.84	115.50	72.20	-62.3	-87.5	3.3	15687103	84	65535
2025-01-01 09:52:05.26	115.02	72.34	-62.3	-87.5	3.0	15684402	84	65535
2025-01-01 09:52:05.67	114.55	72.48	-62.2	-87.4	3.0	15690490	84	65535
2025-01-01 09:52:06.09	114.05	72.62	-62.3	-87.5	3.0	15692306	84	65535
2025-01-01 09:52:06.50	113.56	72.75	-62.3	-87.5	3.0	15676879	84	65535
2025-01-01 09:52:06.92	113.05	72.89	-62.3	-87.5	3.2	15684349	84	65535
2025-01-01 09:52:07.33	112.54	73.03	-62.3	-87.5	3.0	15686782	84	65535
2025-01-01 09:52:07.75	112.01	73.16	-62.2	-87.4	3.0	15687530	84	65535
2025-01-01 09:52:08.17	111.47	73.30	-62.3	-87.5	3.0	15689483	84	65535
2025-01-01 09:52:08.58	110.94	73.43	-62.3	-87.5	3.0	15689483	84	65535
2025-01-01 09:52:09.00	110.38	73.56	-62.2	-87.4	3.1	15666427	84	65535
2025-01-01 09:52:09.41	109.83	73.69	-62.3	-87.5	3.1	15682365	84	65535
2025-01-01 09:52:09.83	109.26	73.82	-62.3	-87.5	3.3	15684127	84	65535
2025-01-01 09:52:10.24	108.69	73.95	-62.3	-87.5	3.2	15670440	84	65535
2025-01-01 09:52:10.65	108.11	74.07	-62.2	-87.4	3.2	15674484	85	65535
2025-01-01 09:52:11.07	107.50	74.19	-62.3	-87.5	3.4	15665084	84	65535
2025-01-01 09:52:11.48	106.90	74.32	-62.3	-87.5	3.2	15670997	84	65535
2025-01-01 09:52:11.90	106.28	74.44	-62.5	-87.7	3.1	15679428	84	65535
2025-01-01 09:52:12.32	105.64	74.56	-62.2	-87.4	3.1	15672874	84	65535
2025-01-01 09:52:12.73	105.02	74.67	-62.3	-87.5	3.0	15693046	84	65535
2025-01-01 09:52:13.15	104.36	74.79	-62.3	-87.5	3.0	15683639	84	65535
2025-01-01 09:52:13.56	103.71	74.90	-62.3	-87.5	3.1	15693489	84	65535
2025-01-01 09:52:13.98	103.04	75.02	-62.3	-87.5	3.0	15685638	84	65535
2025-01-01 09:52:14.39	102.37	75.13	-62.3	-87.5	2.5	15684936	84	65535
2025-01-01 09:52:14.80	101.69	75.23	-62.3	-87.5	3.0	15686477	84	65535
2025-01-01 09:52:15.22	100.98	75.34	-62.3	-87.5	3.0	15680259	84	65535
2025-01-01 09:52:15.63	100.28	75.44	-62.3	-87.5	3.1	15685516	84	65535
2025-01-01 09:52:16.05	99.55	75.55	-60.7	-85.9	3.0	15690879	82	65535
2025-01-01 09:52:16.46	98.83	75.64	-62.2	-87.4	3.2	15682876	84	65535
2025-01-01 09:52:16.88	98.08	75.74	-61.9	-87.1	3.0	15682876	84	65535
2025-01-01 09:52:17.30	97.32	75.84	-62.3	-87.5	3.0	15678550	84	65535
2025-01-01 09:52:17.71	96.57	75.93	-62.3	-87.5	2.2	15698181	84	65535
2025-01-01 09:52:18.13	95.79	76.02	-62.3	-87.5	3.0	15687004	84	65535
2025-01-01 09:52:18.54	95.01	76.11	-62.2	-87.4	3.0	15694404	84	65535
2025-01-01 09:52:18.96	94.21	76.20	-62.3	-87.5	3.1	15685592	84	65535
2025-01-01 09:52:19.37	93.42	76.28	-60.7	-85.9	3.3	15688034	82	65535
2025-01-01 09:52:19.79	92.60	76.36	-62.3	-87.5	3.1	15689125	84	65535
2025-01-01 09:52:20.21	91.77	76.44	-62.3	-87.5	3.0	15679344	84	65535
2025-01-01 09:52:20.62	90.94	76.51	-62.3	-87.5	3.0	15690582	84	65535
2025-01-01 09:52:21.04	90.09	76.59	-60.7	-85.9	3.1	15683227	83	65535
2025-01-01 09:52:21.45	89.25	76.65	-62.3	-87.5	3.0	15700164	84	65535
2025-01-01 09:52:21.87	88.38	76.72	-62.0	-87.2	3.2	15663795	85	65535
2025-01-01 09:52:22.28	87.53	76.78	-62.3	-87.5	3.2	15663856	85	65535
2025-01-01 09:52:22.70	86.64	76.85	-61.8	-87.0	3.0	15670783	84	65535
2025-01-01 09:52:23.11	85.76	76.90	-61.9	-87.1	3.0	15684440	84	65535
2025-01-01 09:52:23.53	84.86	76.96	-61.9	-87.1	3.0	15674102	84	65535
2025-01-01 09:52:23.95	83.95	77.01	-61.9	-87.1	3.5	15681465	84	65535
2025-01-01 09:52:24.36	83.05	77.06	-60.1	-85.3	3.2	15673484	82	65535
2025-01-01 09:52:24.77	82.15	77.10	-61.8	-87.0	3.0	15678428	84	65535
2025-01-01 09:52:25.19	81.22	77.15	-61.8	-87.0	3.0	15678428	84	65535
2025-01-01 09:52:25.60	80.30	77.18	-61.8	-87.1	3.3	15683738	84	65535
2025-01-01 09:52:26.02	79.36	77.22	-62.3	-87.5	3.0	15692245	84	65535
2025-01-01 09:52:26.43	78.44	77.25	-62.2	-87.4	3.0	15680610	84	65535
2025-01-01 09:52:26.85	77.48	77.28	-62.3	-87.5	3.0	15683448	84	65535
2025-01-01 09:52:27.26	76.55	77.31	-62.3	-87.5	3.2	15686027	84	65535
2025-01-01 09:52:27.67	75.61	77.33	-62.0	-87.2	3.1	15680870	84	65535
2025-01-01 09:52:28.09	74.65	77.35	-61.9	-87.1	3.0	15690422	84	65535
2025-01-01 09:52:28.51	73.68	77.36	-61.9	-87.1	3.3	15686141	84	65535
2025-01-01 09:52:28.92	72.73	77.37	-62.3	-87.5	3.2	15676727	84	65535
2025-01-01 09:52:29.34	71.76	77.38	-70.0	-95.2	3.2	15669960	84	65535
2025-01-01 09:52:29.76	70.79	77.39	-61.7	-86.9	2.9	15691230	83	65535
2025-01-01 09:52:30.17	69.84	77.39	-62.1	-87.3	3.2	15693099	84	65535
2025-01-01 09:52:30.58	68.89	77.39	-62.1	-87.3	3.0	15676078	84	65535
2025-01-01 09:52:30.99	67.95	77.38	-61.8	-87.0	3.0	15685638	84	65535
2025-01-01 09:52:31.41	66.98	77.37	-61.9	-87.1	2.9	15693511	83	65535
2025-01-01 09:52:31.82	66.03	77.36	-62.0	-87.2	3.3	15686477	84	65535
2025-01-01 09:52:32.24	65.06	77.35	-62.0	-87.2	3.2	15664047	84	65535
2025-01-01 09:52:32.65	64.12	77.33	-61.9	-87.2	3.0	15676223	84	65535
2025-01-01 09:52:33.07	63.16	77.30	-61.9	-87.1	3.0	15695304	83	65535
2025-01-01 09:52:33.49	62.21	77.28	-62.2	-87.4	3.0	15695304	84	65535
2025-01-01 09:52:33.90	61.28	77.25	-62.2	-87.4	3.0	15685920	84	65535
2025-01-01 09:52:34.32	60.33	77.22	-61.8	-87.0	3.0	15689659	84	65535
2025-01-01 09:52:34.73	59.41	77.18	-61.9	-87.1	3.0	15672866	84	65535
2025-01-01 09:52:35.15	58.47	77.14	-61.9	-87.1	3.4	15684616	84	65535
2025-01-01 09:52:35.57	57.54	77.10	-62.0	-87.2	3.0	15677673	84	65535
2025-01-01 09:52:35.98	56.64	77.05	-62.0	-87.2	3.0	15680374	84	65535
2025-01-01 09:52:36.40	55.72	77.00	-61.9	-87.1	3.1	15691581	84	65535
2025-01-01 09:52:36.82	54.81	76.95	-62.3	-87.5	3.2	15684593	84	65535
2025-01-01 09:52:37.23	53.93	76.90	-62.3	-87.5	3.2	15674385	84	65535
2025-01-01 09:52:37.65	53.04	76.84	-62.2	-87.4	3.0	15684066	84	65535
2025-01-01 09:52:38.06	52.17	76.78	-62.1	-87.3	3.0	15687294	84	65535
2025-01-01 09:52:38.48	51.30	76.71	-61.9	-87.1	3.0	15674125	84	65535
2025-01-01 09:52:38.89	50.45	76.65	-62.1	-87.3	3.0	15676338	84	65535
2025-01-01 09:52:39.31	49.59	76.58	-61.9	-87.1	3.0	15684989	84	65535
2025-01-01 09:52:39.72	48.76	76.50	-61.9	-87.1	3.1	15691299	84	65535
2025-01-01 09:52:40.14	47.92	76.43	-61.9	-87.1	3.3	15670166	84	65535
2025-01-01 09:52:40.55	47.11	76.35	-62.9	-88.1	3.0	15683990	84	65535
2025-01-01 09:52:40.96	46.31	76.27	-62.0	-87.2	3.0	15684127	84	65535
2025-01-01 09:52:41.38	45.50	76.19	-61.9	-87.1	3.0	15691246	84	65535
2025-01-01 09:52:41.79	44.72	76.10	-62.0	-87.2	3.0	15691246	84	65535
2025-01-01 09:52:42.20	43.95	76.02	-62.2	-87.4	3.2	15669654	85	65535
2025-01-01 09:52:42.62	43.17	75.92	-62.1	-87.3	3.0	15681602	84	65535
2025-01-01 09:52:43.03	42.42	75.83	-61.8	-87.0	3.2	15681350	83	65535
2025-01-01 09:52:43.44	41.68	75.74	-62.2	-87.4	3.2	15696517	84	65535
2025-01-01 09:52:43.86	40.93	75.64	-62.1	-87.3	3.0	15688438	84	65535
2025-01-01 09:52:44.27	40.21	75.54	-62.1	-87.3	3.0	15675384	84	65535
2025-01-01 09:52:44.69	39.48	75.44	-62.1	-87.3	3.0	15706703	84	65535
2025-01-01 09:52:45.11	38.76	75.33	-62.3	-87.5	3.1	15680999	84	65535
2025-01-01 09:52:45.52	38.07	75.23	-62.3	-87.5	3.0	15680732	84	65535
2025-01-01 09:52:45.94	37.38	75.12	-62.3	-87.5	3.0	15684257	84	65535
2025-01-01 09:52:46.35	36.71	75.01	-62.2	-87.4	3.0	15681571	84	65535
2025-01-01 09:52:46.77	36.04	74.90	-62.0	-87.2	3.0	15675933	84	65535
2025-01-01 09:52:47.19	35.37	74.78	-62.1	-87.3	3.1	15672546	84	65535
2025-01-01 09:52:47.60	34.74	74.67	-62.1	-87.3	3.1	15676528	84	65535
2025-01-01 09:52:48.02	34.09	74.55	-62.2	-87.4	3.4	15672592	84	65535
2025-01-01 09:52:48.43	33.48	74.43	-62.2	-87.4	3.1	15675048	84	65535
2025-01-01 09:52:48.85	32.85	74.31	-62.0	-87.2	3.0	15674148	84	65535
2025-01-01 09:52:49.26	32.25	74.19	-62.1	-87.3	3.0	15676338	84	65535
2025-01-01 09:52:49.68	31.65	74.06	-62.2	-87.4	3.1	15682640	84	65535
2025-01-01 09:52:50.09	31.07	73.94	-62.1	-87.3	3.0	15682640	84	65535
2025-01-01 09:52:50.51	30.49	73.81	-62.3	-87.5	3.0	15677185	84	65535
2025-01-01 09:52:50.92	29.93	73.68	-62.3	-87.5	3.3	15678962	84	65535
2025-01-01 09:52:51.34	29.37	73.55	-62.3	-87.5	3.3	15677780	84	65535
2025-01-01 09:52:51.76	28.81	73.42	-62.1	-87.3	3.0	15683334	84	65535
2025-01-01 09:52:52.17	28.28	73.29	-62.0	-87.2	3.0	15687438	84	65535
2025-01-01 09:52:52.59	27.74	73.15	-62.1	-87.3	3.1	15684486	84	65535
2025-01-01 09:52:53.00	27.23	73.02	-62.1	-87.3	2.9	15682022	84	65535
2025-01-01 09:52:53.42	26.71	72.88	-62.1	-87.3	3.0	15680946	84	65535
2025-01-01 09:52:53.83	26.21	72.75	-62.1	-87.3	3.1	15676666	84	65535
2025-01-01 09:52:54.25	25.71	72.61	-62.1	-87.3	3.0	15678581	84	65535
2025-01-01 09:52:54.66	25.22	72.47	-62.0	-87.2	2.9	15677833	83	65535
2025-01-01 09:52:55.08	24.74	72.33	-61.8	-86.1	4.3	15045173	83	58633
2025-01-01 09:52:55.49	24.27	72.19	-62.0	-87.2	3.0	14616767	84	65535
2025-01-01 09:52:55.90	23.82	72.05	-62.2	-87.4	3.0	15669845	84	65535
2025-01-01 09:52:56.32	23.35	71.91	-62.0	-87.2	2.9	15670257	83	65535
2025-01-01 09:52:56.73	22.91	71.76	-61.9	-87.1	3.1	15698204	84	65535
2025-01-01 09:52:57.15	22.46	71.62	-62.2	-87.4	3.4	15681564	84	65535
2025-01-01 09:52:57.56	22.04	71.47	-62.2	-87.4	3.0	15678443	84	65535
2025-01-01 09:52:57.98	21.60	71.33	-62.0	-87.2	2.3	15680671	83	65535
2025-01-01 09:52:58.39	21.19	71.18	-61.9	-87.1	3.0	15680671	84	65535
2025-01-01 09:52:58.81	20.77	71.03	-62.3	-87.5	3.1	15692123	84	65535
2025-01-01 09:52:59.23	20.36	70.88	-62.1	-87.3	3.2	15672317	84	65535
2025-01-01 09:52:59.64	19.97	70.73	-62.5	-87.7	2.7	15686203	83	65535
2025-01-01 09:53:00.06	19.57	70.58	-62.1	-87.3	3.4	15689605	83	65535
2025-01-01 09:53:00.47	19.19	70.43	-62.1	-87.3	3.3	15693092	84	65535
2025-01-01 09:53:00.89	18.81	70.28	-62.1	-87.3	3.3	15678703	84	65535

#Closed at: 2025-01-01 09:53:01