passes_logs/2025/01/01/X_MFTI_02/X_MFTI_02__20250101_000132_NOAA_20_rec.log

#Pass ID: 20250101_000132_NOAA 20
#Satellite: NOAA 20
#Configuration: NOAA 20
#Start time: 2025-01-01 00:01:28

#Version: 1.5.20200625
#Station: X_MFTI_02
#Location: 37.5186 lon 55.9291 lat
#TLE: 1 43013U 17073A   23362.44808611  .00000160  00000+0  96626-4 0  9996
#TLE: 2 43013  98.7331 297.9536 0000783  57.5916 302.5335 14.19555620316533

#Time	Az	El	Level	Level2	SNR	BER	Gain	Gain2
2025-01-01 00:01:28.53	333.28	68.81	-61.1	-86.3	3.2	15530464	84	65535
2025-01-01 00:01:28.74	333.07	68.87	-62.4	-87.6	3.1	15674682	85	65535
2025-01-01 00:01:28.96	332.86	68.94	-62.4	-87.6	3.2	15674682	85	65535
2025-01-01 00:01:29.17	332.64	69.01	-62.4	-87.6	3.1	15663444	85	65535
2025-01-01 00:01:29.39	332.42	69.08	-62.4	-87.6	3.3	15663444	85	65535
2025-01-01 00:01:29.60	332.21	69.14	-62.3	-87.5	3.3	15671417	85	65535
2025-01-01 00:01:29.82	331.98	69.21	-62.3	-87.5	3.2	15671417	85	65535
2025-01-01 00:01:30.03	331.77	69.27	-62.3	-87.5	3.2	15665954	85	65535
2025-01-01 00:01:30.25	331.54	69.34	-62.2	-87.4	3.3	15665954	84	65535
2025-01-01 00:01:30.45	331.33	69.40	-62.4	-87.6	3.2	15680694	84	65535
2025-01-01 00:01:30.66	331.11	69.46	-62.3	-87.5	3.2	15680694	84	65535
2025-01-01 00:01:30.88	330.88	69.53	-62.4	-87.6	3.2	15680694	84	65535
2025-01-01 00:01:31.10	330.64	69.59	-62.4	-87.6	2.9	15690979	84	65535
2025-01-01 00:01:31.31	330.42	69.66	-62.3	-87.5	3.1	15685317	85	65535
2025-01-01 00:01:31.53	330.18	69.72	-62.3	-87.5	3.1	15685317	85	65535
2025-01-01 00:01:31.74	329.95	69.78	-62.4	-87.6	3.2	15680397	85	65535
2025-01-01 00:01:31.94	329.73	69.84	-62.4	-87.6	2.9	15680397	84	65535
2025-01-01 00:01:32.16	329.49	69.91	-62.4	-87.6	2.9	15680397	84	65535
2025-01-01 00:01:32.37	329.26	69.97	-62.4	-87.6	2.9	15676170	84	65535
2025-01-01 00:01:32.59	329.01	70.03	-62.3	-87.5	3.1	15676170	84	65535
2025-01-01 00:01:32.80	328.78	70.09	-62.3	-87.5	3.0	15694763	84	65535
2025-01-01 00:01:33.02	328.53	70.16	-62.3	-87.5	3.0	15694763	84	65535
2025-01-01 00:01:33.23	328.29	70.22	-62.3	-87.5	3.0	15688079	84	65535
2025-01-01 00:01:33.45	328.04	70.28	-62.2	-87.4	3.1	15688079	84	65535
2025-01-01 00:01:33.66	327.79	70.34	-62.3	-87.5	3.3	15693740	84	65535
2025-01-01 00:01:33.88	327.54	70.40	-62.2	-87.4	3.1	15693740	84	65535
2025-01-01 00:01:34.09	327.29	70.46	-62.3	-87.5	3.1	15692169	84	65535
2025-01-01 00:01:34.31	327.03	70.52	-62.3	-87.5	3.0	15692169	84	65535
2025-01-01 00:01:34.52	326.78	70.58	-62.3	-87.5	3.0	15685768	84	65535
2025-01-01 00:01:34.74	326.52	70.64	-62.3	-87.5	3.0	15685768	84	65535
2025-01-01 00:01:34.95	326.27	70.70	-62.1	-87.3	3.0	15685607	84	65535
2025-01-01 00:01:35.15	326.03	70.75	-62.3	-87.5	3.0	15685607	84	65535
2025-01-01 00:01:35.37	325.76	70.81	-62.4	-87.6	3.0	15677978	84	65535
2025-01-01 00:01:35.58	325.50	70.87	-62.4	-87.6	3.0	15677978	84	65535
2025-01-01 00:01:35.80	325.23	70.93	-62.3	-87.5	3.1	15689376	84	65535
2025-01-01 00:01:36.01	324.97	70.98	-62.3	-87.5	2.9	15689376	84	65535
2025-01-01 00:01:36.21	324.72	71.04	-62.3	-87.5	3.0	15692588	84	65535
2025-01-01 00:01:36.43	324.45	71.09	-62.3	-87.5	3.0	15692588	84	65535
2025-01-01 00:01:36.64	324.18	71.15	-62.3	-87.5	3.1	15692054	84	65535
2025-01-01 00:01:36.86	323.90	71.21	-61.7	-86.9	3.3	15692054	84	65535
2025-01-01 00:01:37.08	323.62	71.26	-62.2	-87.4	3.2	15684135	84	65535
2025-01-01 00:01:37.29	323.35	71.32	-62.1	-87.3	3.0	15684135	84	65535
2025-01-01 00:01:37.51	323.06	71.37	-62.3	-87.5	3.0	15684097	84	65535
2025-01-01 00:01:37.72	322.79	71.43	-62.3	-87.5	3.0	15684097	84	65535
2025-01-01 00:01:37.94	322.50	71.48	-62.3	-87.5	3.0	15687225	84	65535
2025-01-01 00:01:38.14	322.24	71.53	-62.3	-87.5	3.0	15687225	84	65535
2025-01-01 00:01:38.34	321.97	71.58	-62.3	-87.5	3.0	15684692	84	65535
2025-01-01 00:01:38.55	321.69	71.63	-60.9	-86.1	3.0	15684692	83	65535
2025-01-01 00:01:38.77	321.40	71.68	-62.3	-87.5	2.9	15686721	84	65535
2025-01-01 00:01:38.98	321.11	71.74	-62.0	-87.2	3.0	15686721	84	65535
2025-01-01 00:01:39.20	320.81	71.79	-62.1	-87.3	3.0	15702743	84	65535
2025-01-01 00:01:39.40	320.54	71.84	-62.3	-87.5	3.0	15702743	84	65535
2025-01-01 00:01:39.62	320.24	71.89	-62.3	-87.5	3.0	15679290	84	65535
2025-01-01 00:01:39.83	319.95	71.94	-62.3	-87.5	3.0	15679290	84	65535
2025-01-01 00:01:40.05	319.64	71.99	-62.3	-87.5	3.2	15673889	84	65535
2025-01-01 00:01:40.25	319.36	72.03	-60.6	-85.8	3.3	15673889	82	65535
2025-01-01 00:01:40.46	319.07	72.08	-62.2	-87.5	3.1	15673889	84	65535
2025-01-01 00:01:40.66	318.78	72.13	-62.3	-87.5	3.0	15684631	84	65535
2025-01-01 00:01:40.86	318.50	72.17	-62.3	-87.5	3.0	15684631	84	65535
2025-01-01 00:01:41.08	318.18	72.22	-62.2	-87.4	3.0	15698745	84	65535
2025-01-01 00:01:41.28	317.90	72.26	-62.3	-87.5	3.1	15698745	84	65535
2025-01-01 00:01:41.48	317.61	72.31	-62.2	-87.4	3.3	15679504	84	65535
2025-01-01 00:01:41.70	317.29	72.35	-62.3	-87.5	3.0	15679504	84	65535
2025-01-01 00:01:41.91	316.98	72.40	-61.4	-86.6	3.0	15673431	84	65535
2025-01-01 00:01:42.13	316.66	72.44	-62.0	-87.2	3.0	15673431	84	65535
2025-01-01 00:01:42.34	316.35	72.49	-62.3	-87.5	3.1	15690650	84	65535
2025-01-01 00:01:42.56	316.02	72.53	-62.0	-87.2	3.0	15690650	84	65535
2025-01-01 00:01:42.77	315.71	72.58	-62.3	-87.5	2.9	15685302	84	65535
2025-01-01 00:01:42.99	315.38	72.62	-62.1	-87.3	3.3	15685302	84	65535
2025-01-01 00:01:43.20	315.06	72.66	-62.1	-87.3	3.2	15691848	84	65535
2025-01-01 00:01:43.42	314.72	72.71	-62.1	-87.3	3.3	15691848	84	65535
2025-01-01 00:01:43.63	314.40	72.75	-60.6	-85.8	3.4	15688095	82	65535
2025-01-01 00:01:43.85	314.07	72.79	-62.1	-87.3	3.0	15688095	84	65535
2025-01-01 00:01:44.07	313.73	72.83	-62.0	-87.2	3.0	15695388	84	65535
2025-01-01 00:01:44.27	313.42	72.87	-62.1	-87.3	3.2	15695388	84	65535
2025-01-01 00:01:44.48	313.09	72.91	-62.1	-87.3	3.3	15698303	84	65535
2025-01-01 00:01:44.70	312.75	72.95	-62.2	-87.4	2.9	15698303	84	65535
2025-01-01 00:01:44.91	312.42	72.98	-62.1	-87.3	3.0	15687393	84	65535
2025-01-01 00:01:45.13	312.07	73.02	-62.4	-87.6	3.0	15687393	84	65535
2025-01-01 00:01:45.34	311.74	73.06	-61.9	-87.1	2.5	15691589	83	65535
2025-01-01 00:01:45.54	311.42	73.09	-62.3	-87.5	3.0	15691589	84	65535
2025-01-01 00:01:45.76	311.07	73.13	-62.3	-87.5	3.0	15693176	84	65535
2025-01-01 00:01:45.97	310.73	73.17	-62.3	-87.5	3.0	15693176	84	65535
2025-01-01 00:01:46.19	310.38	73.20	-62.1	-87.3	3.3	15676620	84	65535
2025-01-01 00:01:46.39	310.05	73.23	-62.3	-87.6	3.1	15676620	84	65535
2025-01-01 00:01:46.59	309.73	73.26	-62.1	-87.3	3.1	15680755	84	65535
2025-01-01 00:01:46.81	309.37	73.30	-62.3	-87.5	3.0	15680755	84	65535
2025-01-01 00:01:47.02	309.02	73.33	-62.2	-87.4	2.9	15680755	83	65535
2025-01-01 00:01:47.24	308.66	73.36	-62.3	-87.5	3.0	15698402	84	65535
2025-01-01 00:01:47.45	308.31	73.39	-62.2	-87.4	3.1	15698402	84	65535
2025-01-01 00:01:47.67	307.95	73.43	-62.3	-87.5	3.3	15679473	84	65535
2025-01-01 00:01:47.88	307.60	73.46	-62.1	-87.3	3.2	15679473	84	65535
2025-01-01 00:01:48.08	307.26	73.48	-62.1	-87.3	3.1	15685203	84	65535
2025-01-01 00:01:48.30	306.89	73.51	-62.0	-87.2	3.0	15685203	84	65535
2025-01-01 00:01:48.51	306.54	73.54	-62.0	-87.2	3.0	15695388	84	65535
2025-01-01 00:01:48.73	306.17	73.57	-62.3	-87.5	2.1	15695388	84	65535
2025-01-01 00:01:48.94	305.81	73.60	-62.4	-87.6	3.0	15696052	84	65535
2025-01-01 00:01:49.16	305.44	73.62	-62.3	-87.5	3.0	15696052	84	65535
2025-01-01 00:01:49.37	305.08	73.65	-62.3	-87.5	3.0	15687339	84	65535
2025-01-01 00:01:49.57	304.73	73.67	-62.3	-87.5	3.0	15687339	84	65535
2025-01-01 00:01:49.79	304.35	73.70	-62.3	-87.5	3.0	15683433	84	65535
2025-01-01 00:01:50.00	303.99	73.72	-62.3	-87.5	3.0	15683433	84	65535
2025-01-01 00:01:50.22	303.61	73.75	-62.3	-87.5	3.0	15693603	84	65535
2025-01-01 00:01:50.43	303.25	73.77	-62.3	-87.5	3.1	15693603	84	65535
2025-01-01 00:01:50.65	302.86	73.79	-62.2	-87.4	3.1	15686622	84	65535
2025-01-01 00:01:50.87	302.48	73.81	-62.3	-87.6	3.2	15686622	84	65535
2025-01-01 00:01:51.08	302.11	73.83	-62.3	-87.5	3.1	15694381	84	65535
2025-01-01 00:01:51.30	301.73	73.86	-62.4	-87.6	3.0	15694381	84	65535
2025-01-01 00:01:51.51	301.36	73.87	-62.3	-87.5	3.2	15695610	85	65535
2025-01-01 00:01:51.73	300.97	73.89	-62.3	-87.5	3.2	15695610	85	65535
2025-01-01 00:01:51.94	300.60	73.91	-62.3	-87.5	3.2	15665351	85	65535
2025-01-01 00:01:52.16	300.21	73.93	-62.1	-87.3	3.0	15665351	84	65535
2025-01-01 00:01:52.37	299.83	73.95	-62.3	-87.5	3.0	15687873	84	65535
2025-01-01 00:01:52.59	299.44	73.96	-62.4	-87.6	3.1	15687873	84	65535
2025-01-01 00:01:52.80	299.07	73.98	-62.4	-87.6	3.0	15694595	84	65535
2025-01-01 00:01:53.02	298.67	73.99	-62.3	-87.5	2.9	15694595	84	65535
2025-01-01 00:01:53.23	298.30	74.01	-62.3	-87.5	2.9	15699226	84	65535
2025-01-01 00:01:53.45	297.90	74.02	-62.3	-87.5	3.0	15699226	84	65535
2025-01-01 00:01:53.66	297.52	74.03	-62.3	-87.5	3.1	15690803	84	65535
2025-01-01 00:01:53.88	297.13	74.04	-62.2	-87.4	3.2	15690803	84	65535
2025-01-01 00:01:54.09	296.75	74.06	-62.3	-87.5	2.9	15700935	84	65535
2025-01-01 00:01:54.31	296.35	74.07	-62.3	-87.5	2.9	15700935	84	65535
2025-01-01 00:01:54.52	295.97	74.08	-62.3	-87.5	3.1	15699394	85	65535
2025-01-01 00:01:54.74	295.57	74.09	-62.3	-87.5	3.1	15699394	85	65535
2025-01-01 00:01:54.95	295.19	74.09	-62.3	-87.5	3.1	15667335	85	65535
2025-01-01 00:01:55.17	294.79	74.10	-62.4	-87.6	3.1	15667335	85	65535
2025-01-01 00:01:55.38	294.41	74.11	-61.1	-86.3	3.1	15672615	84	65535
2025-01-01 00:01:55.58	294.05	74.11	-62.3	-87.5	3.0	15672615	84	65535
2025-01-01 00:01:55.80	293.65	74.12	-62.4	-87.6	3.2	15687873	84	65535
2025-01-01 00:01:56.02	293.25	74.13	-62.3	-87.5	3.3	15687873	84	65535
2025-01-01 00:01:56.22	292.88	74.13	-62.3	-87.5	2.9	15685997	84	65535
2025-01-01 00:01:56.43	292.50	74.13	-62.3	-87.5	2.9	15685997	84	65535
2025-01-01 00:01:56.65	292.10	74.14	-62.4	-87.6	3.1	15699943	84	65535
2025-01-01 00:01:56.86	291.72	74.14	-62.3	-87.5	3.2	15699943	84	65535
2025-01-01 00:01:57.08	291.31	74.14	-60.8	-86.0	3.3	15699943	83	65535
2025-01-01 00:01:57.29	290.93	74.14	-62.0	-87.2	2.9	15699409	84	65535
2025-01-01 00:01:57.51	290.53	74.14	-62.0	-87.2	3.0	15699409	84	65535
2025-01-01 00:01:57.72	290.15	74.14	-62.3	-87.5	3.0	15698120	84	65535
2025-01-01 00:01:57.92	289.78	74.14	-62.3	-87.5	3.0	15698120	84	65535
2025-01-01 00:01:58.14	289.38	74.14	-62.3	-87.5	3.0	15689544	84	65535
2025-01-01 00:01:58.34	289.01	74.13	-62.3	-87.5	3.0	15689544	84	65535
2025-01-01 00:01:58.55	288.63	74.13	-62.3	-87.5	3.0	15687149	84	65535
2025-01-01 00:01:58.77	288.23	74.13	-60.7	-85.9	3.2	15687149	82	65535
2025-01-01 00:01:58.98	287.85	74.12	-62.3	-87.5	3.1	15679580	84	65535
2025-01-01 00:01:59.20	287.45	74.12	-62.3	-87.5	3.0	15679580	84	65535
2025-01-01 00:01:59.41	287.07	74.11	-62.3	-87.5	3.0	15678039	84	65535
2025-01-01 00:01:59.63	286.67	74.10	-62.2	-87.4	3.0	15678039	84	65535
2025-01-01 00:01:59.85	286.27	74.09	-62.3	-87.5	3.2	15687065	84	65535
2025-01-01 00:02:00.05	285.90	74.09	-62.0	-87.2	3.5	15687065	84	65535
2025-01-01 00:02:00.26	285.52	74.08	-62.3	-87.5	3.2	15681373	84	65535
2025-01-01 00:02:00.48	285.13	74.07	-62.3	-87.5	2.9	15681373	82	65535
2025-01-01 00:02:00.69	284.75	74.06	-62.3	-87.5	3.2	15700645	85	65535
2025-01-01 00:02:00.89	284.39	74.05	-62.3	-87.5	3.3	15700645	85	65535
2025-01-01 00:02:01.11	283.99	74.03	-62.2	-87.4	3.2	15669212	85	65535
2025-01-01 00:02:01.32	283.61	74.02	-62.1	-87.3	3.1	15669212	85	65535
2025-01-01 00:02:01.54	283.22	74.01	-62.0	-87.2	3.3	15675018	85	65535
2025-01-01 00:02:01.75	282.84	74.00	-62.2	-87.4	3.4	15675018	85	65535
2025-01-01 00:02:01.97	282.45	73.98	-62.4	-87.6	3.4	15666656	85	65535
2025-01-01 00:02:02.17	282.09	73.97	-62.4	-87.6	2.1	15666656	84	65535
2025-01-01 00:02:02.38	281.71	73.95	-62.3	-87.5	2.9	15671737	84	65535
2025-01-01 00:02:02.60	281.32	73.93	-62.3	-87.5	2.9	15671737	84	65535
2025-01-01 00:02:02.82	280.93	73.92	-62.3	-87.5	2.9	15703437	84	65535
2025-01-01 00:02:03.02	280.58	73.90	-62.4	-87.6	3.1	15703437	84	65535
2025-01-01 00:02:03.23	280.21	73.88	-62.1	-87.3	3.3	15677268	84	65535
2025-01-01 00:02:03.45	279.82	73.86	-62.1	-87.3	2.9	15677268	84	65535
2025-01-01 00:02:03.66	279.45	73.84	-62.1	-87.3	2.9	15684082	84	65535
2025-01-01 00:02:03.88	279.06	73.82	-62.0	-87.2	2.7	15684082	83	65535
2025-01-01 00:02:04.08	278.72	73.80	-62.3	-87.5	3.0	15684082	84	65535
2025-01-01 00:02:04.29	278.35	73.78	-62.3	-87.6	2.9	15697731	84	65535
2025-01-01 00:02:04.51	277.97	73.76	-62.4	-87.6	2.9	15696929	84	65535
2025-01-01 00:02:04.71	277.62	73.73	-62.4	-87.6	3.0	15696929	84	65535
2025-01-01 00:02:04.92	277.26	73.71	-62.4	-87.6	2.9	15696929	84	65535
2025-01-01 00:02:05.14	276.88	73.69	-62.3	-87.5	3.1	15685371	84	65535
2025-01-01 00:02:05.35	276.52	73.66	-62.3	-87.5	3.1	15685371	84	65535
2025-01-01 00:02:05.57	276.14	73.63	-62.3	-87.5	3.0	15671234	84	65535
2025-01-01 00:02:05.79	275.76	73.61	-62.3	-87.5	3.0	15671234	84	65535
2025-01-01 00:02:05.99	275.42	73.58	-62.3	-87.5	3.2	15690162	84	65535
2025-01-01 00:02:06.20	275.07	73.55	-62.3	-87.5	3.0	15690162	84	65535
2025-01-01 00:02:06.42	274.70	73.53	-62.3	-87.5	3.3	15688240	84	65535
2025-01-01 00:02:06.63	274.34	73.50	-62.3	-87.6	3.2	15688240	84	65535
2025-01-01 00:02:06.85	273.97	73.47	-62.4	-87.6	3.0	15679489	84	65535
2025-01-01 00:02:07.05	273.64	73.44	-62.3	-87.5	3.0	15679489	84	65535
2025-01-01 00:02:07.26	273.29	73.41	-62.3	-87.5	3.0	15679702	84	65535
2025-01-01 00:02:07.48	272.93	73.38	-62.4	-87.6	3.0	15679702	84	65535
2025-01-01 00:02:07.69	272.58	73.35	-62.3	-87.5	3.0	15689117	84	65535
2025-01-01 00:02:07.91	272.22	73.31	-62.4	-87.6	2.9	15689117	84	65535
2025-01-01 00:02:08.12	271.87	73.28	-62.3	-87.5	3.0	15683334	84	65535
2025-01-01 00:02:08.34	271.51	73.25	-62.4	-87.6	3.1	15683334	84	65535
2025-01-01 00:02:08.55	271.17	73.21	-62.4	-87.6	2.9	15688255	84	65535
2025-01-01 00:02:08.77	270.82	73.18	-62.4	-87.6	3.0	15688255	84	65535
2025-01-01 00:02:08.98	270.48	73.14	-62.3	-87.5	3.0	15700401	84	65535
2025-01-01 00:02:09.20	270.13	73.10	-62.4	-87.6	3.2	15700401	84	65535
2025-01-01 00:02:09.41	269.79	73.07	-62.3	-87.5	3.2	15687744	84	65535
2025-01-01 00:02:09.63	269.44	73.03	-62.3	-87.5	3.3	15687744	84	65535
2025-01-01 00:02:09.84	269.11	72.99	-62.4	-87.6	2.9	15684768	84	65535
2025-01-01 00:02:10.06	268.76	72.95	-62.4	-87.6	3.0	15684768	84	65535
2025-01-01 00:02:10.26	268.45	72.92	-62.2	-87.4	2.9	15693702	84	65535
2025-01-01 00:02:10.47	268.12	72.88	-62.2	-87.4	3.0	15693702	84	65535
2025-01-01 00:02:10.69	267.78	72.84	-62.4	-87.6	3.0	15699539	84	65535
2025-01-01 00:02:10.90	267.46	72.80	-62.3	-87.5	3.0	15699539	84	65535
2025-01-01 00:02:11.12	267.12	72.76	-62.4	-87.6	3.0	15686340	84	65535
2025-01-01 00:02:11.33	266.80	72.72	-62.4	-87.6	3.0	15686340	84	65535
2025-01-01 00:02:11.55	266.46	72.67	-62.3	-87.5	3.1	15685020	85	65535
2025-01-01 00:02:11.77	266.13	72.63	-62.3	-87.5	3.2	15685020	85	65535
2025-01-01 00:02:11.98	265.82	72.59	-62.3	-87.5	3.2	15668426	85	65535
2025-01-01 00:02:12.20	265.49	72.54	-60.6	-85.8	3.4	15668426	82	65535
2025-01-01 00:02:12.41	265.17	72.50	-62.3	-87.6	3.2	15685111	84	65535
2025-01-01 00:02:12.63	264.85	72.45	-62.3	-87.5	3.3	15685111	84	65535
2025-01-01 00:02:12.84	264.54	72.41	-62.3	-87.5	3.0	15683197	84	65535
2025-01-01 00:02:13.06	264.22	72.36	-62.3	-87.5	3.0	15683197	84	65535
2025-01-01 00:02:13.27	263.91	72.32	-62.3	-87.5	3.0	15684692	84	65535
2025-01-01 00:02:13.49	263.59	72.27	-62.3	-87.5	3.0	15684692	84	65535
2025-01-01 00:02:13.70	263.29	72.22	-62.3	-87.6	3.1	15676429	84	65535
2025-01-01 00:02:13.92	262.97	72.18	-62.1	-87.3	3.1	15676429	82	65535
2025-01-01 00:02:14.13	262.68	72.13	-62.3	-87.5	3.0	15676429	84	65535
2025-01-01 00:02:14.35	262.36	72.08	-62.4	-87.6	3.2	15698333	84	65535
2025-01-01 00:02:14.56	262.07	72.03	-62.4	-87.6	3.0	15685165	84	65535
2025-01-01 00:02:14.78	261.76	71.98	-62.3	-87.5	2.9	15685165	84	65535
2025-01-01 00:02:14.99	261.47	71.93	-62.0	-87.2	2.9	15695907	84	65535
2025-01-01 00:02:15.21	261.16	71.88	-62.0	-87.2	2.9	15695907	84	65535
2025-01-01 00:02:15.41	260.89	71.83	-62.3	-87.5	3.2	15695907	84	65535
2025-01-01 00:02:15.62	260.60	71.78	-61.9	-87.1	2.7	15685958	83	65535
2025-01-01 00:02:15.83	260.31	71.73	-62.0	-87.2	3.2	15685958	84	65535
2025-01-01 00:02:16.04	260.03	71.68	-62.4	-87.6	2.9	15692039	84	65535
2025-01-01 00:02:16.24	259.76	71.63	-62.2	-87.4	2.9	15692039	84	65535
2025-01-01 00:02:16.44	259.49	71.58	-62.3	-87.5	2.9	15697120	84	65535
2025-01-01 00:02:16.66	259.20	71.53	-62.3	-87.5	2.9	15697120	84	65535
2025-01-01 00:02:16.87	258.92	71.48	-62.4	-87.6	3.1	15698013	84	65535
2025-01-01 00:02:17.09	258.64	71.42	-62.3	-87.5	3.0	15698013	84	65535
2025-01-01 00:02:17.30	258.36	71.37	-62.4	-87.6	2.4	15693153	84	65535
2025-01-01 00:02:17.51	258.09	71.32	-62.4	-87.6	2.9	15693153	84	65535
2025-01-01 00:02:17.72	257.82	71.26	-62.4	-87.6	2.9	15700424	84	65535
2025-01-01 00:02:17.94	257.54	71.21	-62.3	-87.6	2.9	15700424	84	65535
2025-01-01 00:02:18.15	257.27	71.15	-62.3	-87.5	2.9	15693336	84	65535
2025-01-01 00:02:18.37	256.99	71.09	-62.4	-87.6	2.9	15693336	84	65535
2025-01-01 00:02:18.58	256.73	71.04	-62.3	-87.5	2.9	15696075	84	65535
2025-01-01 00:02:18.80	256.45	70.98	-62.4	-87.6	3.2	15696075	84	65535
2025-01-01 00:02:19.01	256.19	70.92	-62.4	-87.6	3.2	15688003	84	65535
2025-01-01 00:02:19.23	255.92	70.86	-62.4	-87.6	3.0	15688003	84	65535
2025-01-01 00:02:19.43	255.68	70.81	-62.3	-87.6	3.0	15699760	84	65535
2025-01-01 00:02:19.63	255.43	70.76	-62.3	-87.5	3.0	15699760	84	65535
2025-01-01 00:02:19.84	255.18	70.70	-62.1	-87.3	2.9	15698478	84	65535
2025-01-01 00:02:20.06	254.91	70.64	-62.4	-87.6	3.2	15698478	84	65535
2025-01-01 00:02:20.27	254.66	70.58	-62.3	-87.5	3.2	15683113	84	65535
2025-01-01 00:02:20.49	254.40	70.52	-62.4	-87.6	3.0	15683113	84	65535
2025-01-01 00:02:20.69	254.17	70.46	-62.4	-87.6	3.0	15686706	84	65535
2025-01-01 00:02:20.91	253.91	70.40	-62.3	-87.6	3.0	15686706	84	65535
2025-01-01 00:02:21.12	253.66	70.34	-62.3	-87.5	3.0	15686706	84	65535
2025-01-01 00:02:21.34	253.41	70.28	-62.3	-87.5	3.0	15681877	84	65535
2025-01-01 00:02:21.55	253.17	70.22	-62.3	-87.5	3.0	15685997	84	65535
2025-01-01 00:02:21.77	252.92	70.16	-62.3	-87.5	3.0	15685997	84	65535

#Closed at: 2025-01-01 00:02:21