passes_logs/2025/01/09/X_MFTI_02/X_MFTI_02__20250109_095727_SUOMI_NPP_rec.log

#Pass ID: 20250109_095727_SUOMI NPP
#Satellite: SUOMI NPP
#Configuration: NPP
#Start time: 2025-01-09 09:57:23

#Version: 1.5.20200625
#Station: X_MFTI_02
#Location: 37.5186 lon 55.9291 lat
#TLE: 1 37849U 11061A   23362.48341244  .00000167  00000+0  99749-4 0  9991
#TLE: 2 37849  98.7252 298.0509 0001500  77.1966 282.9377 14.19535461630502

#Time	Az	El	Level	Level2	SNR	BER	Gain	Gain2
2025-01-09 09:57:23.19	148.16	68.33	-61.4	-86.6	3.2	15533912	83	65535
2025-01-09 09:57:23.60	148.04	68.51	-61.9	-87.1	3.0	15664207	84	65535
2025-01-09 09:57:24.00	147.92	68.69	-61.6	-86.8	3.0	15673416	84	65535
2025-01-09 09:57:24.42	147.79	68.88	-61.6	-86.8	2.9	15672538	83	65535
2025-01-09 09:57:24.84	147.66	69.07	-61.7	-86.9	3.5	15686378	83	65535
2025-01-09 09:57:25.25	147.53	69.25	-61.8	-87.0	3.2	15696174	83	65535
2025-01-09 09:57:25.68	147.39	69.45	-61.6	-86.8	3.1	15689079	83	65535
2025-01-09 09:57:26.09	147.25	69.63	-61.9	-87.1	2.9	15691307	83	65535
2025-01-09 09:57:26.50	147.12	69.82	-61.7	-86.9	2.9	15690406	83	65535
2025-01-09 09:57:26.90	146.98	70.00	-61.7	-86.9	3.3	15697494	84	65535
2025-01-09 09:57:27.32	146.83	70.19	-61.6	-86.8	3.2	15681900	84	65535
2025-01-09 09:57:27.74	146.68	70.38	-61.7	-86.9	2.9	15692764	83	65535
2025-01-09 09:57:28.14	146.53	70.56	-61.4	-86.7	3.1	15695808	83	65535
2025-01-09 09:57:28.56	146.38	70.75	-61.6	-86.8	3.2	15695808	83	65535
2025-01-09 09:57:28.97	146.22	70.94	-61.6	-86.8	3.0	15687530	83	65535
2025-01-09 09:57:29.38	146.06	71.12	-61.4	-86.6	2.0	15696601	82	65535
2025-01-09 09:57:29.81	145.89	71.32	-61.7	-86.9	3.2	15702354	84	65535
2025-01-09 09:57:30.21	145.73	71.50	-61.7	-86.9	3.2	15677345	84	65535
2025-01-09 09:57:30.61	145.56	71.69	-61.7	-86.9	3.0	15682838	84	65535
2025-01-09 09:57:31.01	145.39	71.87	-60.1	-85.3	3.4	15684082	81	65535
2025-01-09 09:57:31.41	145.22	72.05	-61.8	-87.0	2.9	15690376	84	65535
2025-01-09 09:57:31.83	145.03	72.24	-61.7	-86.9	3.0	15690200	84	65535
2025-01-09 09:57:32.25	144.84	72.44	-61.7	-86.9	3.1	15679046	84	65535
2025-01-09 09:57:32.66	144.65	72.63	-60.9	-86.1	3.2	15672065	83	65535
2025-01-09 09:57:33.07	144.45	72.81	-62.0	-87.2	3.0	15695251	84	65535
2025-01-09 09:57:33.47	144.26	73.00	-62.0	-87.2	3.0	15676445	84	65535
2025-01-09 09:57:33.87	144.06	73.18	-61.9	-87.1	3.0	15680503	84	65535
2025-01-09 09:57:34.27	143.86	73.37	-61.7	-86.9	3.1	15681350	84	65535
2025-01-09 09:57:34.68	143.64	73.55	-61.8	-87.0	3.2	15681350	83	65535
2025-01-09 09:57:35.08	143.43	73.74	-61.7	-86.9	3.3	15701187	84	65535
2025-01-09 09:57:35.49	143.21	73.93	-61.8	-87.0	3.0	15681098	84	65535
2025-01-09 09:57:35.91	142.97	74.12	-61.7	-86.9	3.3	15678009	84	65535
2025-01-09 09:57:36.31	142.74	74.31	-61.8	-87.0	3.1	15681289	83	65535
2025-01-09 09:57:36.74	142.49	74.50	-61.8	-87.1	3.1	15689064	84	65535
2025-01-09 09:57:37.15	142.24	74.69	-61.7	-86.9	3.0	15682693	84	65535
2025-01-09 09:57:37.55	141.99	74.88	-61.8	-87.1	3.1	15679512	84	65535
2025-01-09 09:57:37.95	141.73	75.06	-61.6	-86.8	2.9	15678047	83	65535
2025-01-09 09:57:38.37	141.46	75.25	-61.9	-87.1	3.0	15682006	84	65535
2025-01-09 09:57:38.77	141.19	75.44	-61.9	-87.1	3.0	15686386	84	65535
2025-01-09 09:57:39.17	140.91	75.62	-61.9	-87.1	3.4	15673858	84	65535
2025-01-09 09:57:39.58	140.62	75.81	-61.6	-86.8	3.0	15684097	83	65535
2025-01-09 09:57:39.98	140.33	76.00	-61.7	-86.9	2.9	15695075	83	65535
2025-01-09 09:57:40.38	140.03	76.18	-61.7	-86.9	2.9	15695075	83	65535
2025-01-09 09:57:40.78	139.72	76.36	-62.0	-87.2	3.1	15701644	84	65535
2025-01-09 09:57:41.20	139.39	76.56	-61.6	-86.8	2.9	15680976	83	65535
2025-01-09 09:57:41.60	139.07	76.74	-61.6	-86.8	2.9	15697319	83	65535
2025-01-09 09:57:42.00	138.73	76.92	-61.5	-86.7	2.9	15690345	83	65535
2025-01-09 09:57:42.42	138.37	77.11	-61.8	-87.0	3.2	15706214	83	65535
2025-01-09 09:57:42.82	138.01	77.30	-61.6	-86.8	2.8	15692771	83	65535
2025-01-09 09:57:43.24	137.63	77.49	-61.5	-86.8	2.9	15692077	83	65535
2025-01-09 09:57:43.64	137.25	77.67	-61.5	-86.7	2.9	15690467	83	65535
2025-01-09 09:57:44.06	136.84	77.86	-61.8	-87.0	3.2	15698257	83	65535
2025-01-09 09:57:44.48	136.41	78.05	-61.5	-86.7	2.1	15689224	82	65535
2025-01-09 09:57:44.88	136.00	78.23	-61.5	-86.7	2.9	15697021	83	65535
2025-01-09 09:57:45.28	135.57	78.41	-61.6	-86.8	2.9	15705604	83	65535
2025-01-09 09:57:45.68	135.12	78.59	-61.5	-86.7	2.9	15689308	83	65535
2025-01-09 09:57:46.08	134.67	78.77	-61.4	-86.6	2.9	15695182	83	65535
2025-01-09 09:57:46.49	134.18	78.96	-61.5	-86.7	2.9	15695182	83	65535
2025-01-09 09:57:46.89	133.69	79.14	-61.8	-87.0	3.0	15696121	83	65535
2025-01-09 09:57:47.29	133.18	79.31	-61.7	-86.9	3.2	15694915	83	65535
2025-01-09 09:57:47.72	132.62	79.50	-62.0	-87.2	3.0	15696899	83	65535
2025-01-09 09:57:48.14	132.05	79.69	-61.7	-86.9	2.9	15688438	83	65535
2025-01-09 09:57:48.54	131.48	79.86	-61.6	-86.8	3.2	15693489	83	65535
2025-01-09 09:57:48.96	130.87	80.05	-61.7	-87.0	3.2	15691680	83	65535
2025-01-09 09:57:49.36	130.26	80.22	-61.5	-86.7	2.9	15685401	83	65535
2025-01-09 09:57:49.79	129.59	80.41	-61.5	-86.7	2.9	15703727	83	65535
2025-01-09 09:57:50.22	128.88	80.59	-61.5	-86.7	2.9	15697387	83	65535
2025-01-09 09:57:50.64	128.17	80.77	-61.7	-86.9	3.1	15696975	83	65535
2025-01-09 09:57:51.04	127.46	80.94	-61.8	-87.0	2.9	15683532	83	65535
2025-01-09 09:57:51.47	126.67	81.12	-61.7	-86.9	2.9	15692848	83	65535
2025-01-09 09:57:51.88	125.88	81.29	-61.6	-86.8	3.2	15689651	83	65535
2025-01-09 09:57:52.29	125.07	81.46	-61.7	-86.9	2.9	15700263	83	65535
2025-01-09 09:57:52.72	124.18	81.63	-61.7	-86.9	3.0	15690223	84	65535
2025-01-09 09:57:53.14	123.27	81.80	-61.7	-86.9	2.9	15698829	83	65535
2025-01-09 09:57:53.54	122.37	81.96	-61.6	-86.8	2.9	15686302	83	65535
2025-01-09 09:57:53.94	121.43	82.12	-61.8	-87.0	2.9	15703437	83	65535
2025-01-09 09:57:54.36	120.40	82.28	-61.5	-86.7	2.9	15694702	83	65535
2025-01-09 09:57:54.78	119.33	82.44	-61.5	-86.7	3.1	15694702	83	65535
2025-01-09 09:57:55.21	118.19	82.60	-61.7	-86.9	2.9	15683708	83	65535
2025-01-09 09:57:55.63	117.02	82.76	-61.6	-86.8	2.9	15694793	83	65535
2025-01-09 09:57:56.06	115.77	82.91	-61.9	-87.1	3.0	15692115	83	65535
2025-01-09 09:57:56.49	114.47	83.07	-61.5	-86.7	3.2	15697212	83	65535
2025-01-09 09:57:56.89	113.20	83.21	-61.6	-86.8	2.9	15693695	83	65535
2025-01-09 09:57:57.29	111.89	83.34	-61.5	-86.7	2.9	15696594	83	65535
2025-01-09 09:57:57.69	110.52	83.47	-61.4	-86.6	2.9	15698860	83	65535
2025-01-09 09:57:58.13	108.94	83.61	-61.5	-86.7	3.0	15700820	83	65535
2025-01-09 09:57:58.56	107.34	83.74	-61.6	-86.8	2.9	15697792	83	65535
2025-01-09 09:57:58.97	105.74	83.86	-61.5	-86.7	2.9	15695449	83	65535
2025-01-09 09:57:59.39	104.04	83.98	-61.5	-86.7	2.9	15696746	83	65535
2025-01-09 09:57:59.81	102.28	84.10	-61.6	-86.8	2.9	15698654	83	65535
2025-01-09 09:58:00.23	100.44	84.21	-61.5	-86.7	2.9	15697196	83	65535
2025-01-09 09:58:00.64	98.59	84.31	-62.0	-87.3	3.1	15687896	84	65535
2025-01-09 09:58:01.05	96.67	84.40	-62.0	-87.2	3.0	15682228	84	65535
2025-01-09 09:58:01.46	94.68	84.49	-62.0	-87.2	3.0	15681571	84	65535
2025-01-09 09:58:01.88	92.59	84.57	-61.6	-86.8	3.1	15664382	84	65535
2025-01-09 09:58:02.28	90.54	84.64	-61.8	-87.0	3.0	15688087	84	65535
2025-01-09 09:58:02.71	88.27	84.71	-61.6	-86.8	3.0	15680709	84	65535
2025-01-09 09:58:03.13	86.00	84.77	-61.5	-86.8	3.0	15688362	84	65535
2025-01-09 09:58:03.53	83.80	84.81	-61.6	-86.8	3.1	15688362	84	65535
2025-01-09 09:58:03.97	81.33	84.86	-61.8	-87.0	3.0	15680435	84	65535
2025-01-09 09:58:04.37	79.05	84.89	-61.9	-87.1	3.0	15686004	84	65535
2025-01-09 09:58:04.78	76.69	84.91	-61.8	-87.0	3.0	15677581	84	65535
2025-01-09 09:58:05.22	74.14	84.93	-61.7	-86.9	3.0	15676620	84	65535
2025-01-09 09:58:05.62	71.81	84.94	-61.6	-86.8	3.0	15691452	84	65535
2025-01-09 09:58:06.03	69.41	84.93	-61.8	-87.0	3.0	15693458	84	65535
2025-01-09 09:58:06.44	67.03	84.92	-61.7	-86.9	3.0	15678253	83	65535
2025-01-09 09:58:06.84	64.72	84.90	-61.5	-86.7	3.0	15694633	84	65535
2025-01-09 09:58:07.26	62.31	84.87	-61.7	-86.9	3.2	15703544	84	65535
2025-01-09 09:58:07.69	59.88	84.84	-61.6	-86.8	3.3	15678642	84	65535
2025-01-09 09:58:08.10	57.60	84.79	-62.0	-87.2	3.0	15680953	84	65535
2025-01-09 09:58:08.52	55.31	84.73	-61.6	-86.8	3.1	15689598	84	65535
2025-01-09 09:58:08.92	53.18	84.67	-61.6	-86.8	3.3	15670272	84	65535
2025-01-09 09:58:09.34	51.00	84.60	-61.7	-86.9	3.0	15677207	84	65535
2025-01-09 09:58:09.74	48.97	84.53	-61.4	-86.6	2.9	15686119	83	65535
2025-01-09 09:58:10.17	46.86	84.44	-61.6	-86.8	2.9	15706459	83	65535
2025-01-09 09:58:10.57	44.96	84.35	-61.5	-86.7	3.3	15701797	83	65535
2025-01-09 09:58:10.99	43.02	84.25	-61.6	-86.8	2.9	15700172	83	65535
2025-01-09 09:58:11.41	41.16	84.15	-61.8	-87.0	2.9	15692573	83	65535
2025-01-09 09:58:11.81	39.44	84.04	-61.6	-86.8	3.1	15692573	83	65535
2025-01-09 09:58:12.24	37.67	83.92	-61.8	-87.0	2.9	15698844	83	65535
2025-01-09 09:58:12.64	36.08	83.81	-61.7	-86.9	3.0	15701675	83	65535
2025-01-09 09:58:13.05	34.52	83.69	-61.7	-86.9	2.9	15673164	83	65535
2025-01-09 09:58:13.46	33.02	83.56	-61.6	-86.8	3.2	15688476	83	65535
2025-01-09 09:58:13.88	31.54	83.42	-61.6	-86.8	3.2	15693763	83	65535
2025-01-09 09:58:14.31	30.09	83.28	-61.8	-87.0	2.9	15684249	83	65535
2025-01-09 09:58:14.71	28.80	83.14	-61.6	-86.8	2.9	15687934	83	65535
2025-01-09 09:58:15.14	27.46	82.99	-61.9	-87.1	2.9	15693191	83	65535
2025-01-09 09:58:15.56	26.22	82.84	-61.8	-87.0	2.9	15697265	83	65535
2025-01-09 09:58:15.96	25.08	82.70	-62.0	-87.2	2.9	15695106	83	65535
2025-01-09 09:58:16.36	23.99	82.55	-61.7	-86.9	2.9	15702720	83	65535
2025-01-09 09:58:16.77	22.91	82.39	-61.7	-86.9	3.3	15698852	83	65535
2025-01-09 09:58:17.17	21.90	82.24	-61.9	-87.1	3.2	15679573	84	65535
2025-01-09 09:58:17.60	20.87	82.07	-61.7	-86.9	3.0	15679473	84	65535
2025-01-09 09:58:18.02	19.89	81.91	-61.7	-86.9	1.7	15704154	83	65535
2025-01-09 09:58:18.43	18.98	81.74	-61.8	-87.0	2.8	15693275	83	65535
2025-01-09 09:58:18.84	18.11	81.58	-61.9	-87.1	3.0	15693275	84	65535
2025-01-09 09:58:19.24	17.29	81.41	-61.9	-87.1	3.0	15688598	84	65535
2025-01-09 09:58:19.65	16.48	81.24	-60.8	-86.0	3.0	15688598	81	65535
2025-01-09 09:58:20.06	15.71	81.07	-61.7	-86.9	2.9	15692306	83	65535
2025-01-09 09:58:20.46	14.98	80.91	-61.8	-87.0	2.9	15694847	83	65535
2025-01-09 09:58:20.87	14.26	80.73	-61.7	-86.9	2.9	15707481	83	65535
2025-01-09 09:58:21.28	13.57	80.56	-61.8	-87.1	2.9	15707374	83	65535
2025-01-09 09:58:21.69	12.90	80.38	-62.0	-87.2	3.3	15692390	84	65535
2025-01-09 09:58:22.13	12.21	80.19	-65.0	-90.2	3.2	15684593	84	65535
2025-01-09 09:58:22.53	11.61	80.02	-61.8	-87.0	3.0	15681816	84	65535
2025-01-09 09:58:22.94	11.01	79.84	-61.4	-86.6	3.0	15685127	84	65535
2025-01-09 09:58:23.38	10.40	79.65	-61.8	-87.0	2.9	15680618	83	65535
2025-01-09 09:58:23.78	9.86	79.47	-61.8	-87.0	2.9	15682090	83	65535
2025-01-09 09:58:24.18	9.34	79.29	-61.8	-87.0	2.9	15701126	83	65535
2025-01-09 09:58:24.60	8.81	79.11	-61.8	-87.0	3.2	15690490	83	65535
2025-01-09 09:58:25.03	8.29	78.92	-61.8	-87.0	3.2	15686561	83	65535
2025-01-09 09:58:25.43	7.82	78.74	-61.8	-87.0	2.9	15686859	83	65535
2025-01-09 09:58:25.86	7.33	78.54	-61.9	-87.1	2.9	15703079	83	65535
2025-01-09 09:58:26.27	6.88	78.36	-62.0	-87.2	3.0	15668777	84	65535
2025-01-09 09:58:26.67	6.45	78.18	-61.8	-87.0	2.9	15668777	83	65535
2025-01-09 09:58:27.08	6.03	77.99	-62.1	-87.3	3.1	15685333	84	65535
2025-01-09 09:58:27.50	5.61	77.80	-61.7	-86.9	3.0	15683341	84	65535
2025-01-09 09:58:27.93	5.20	77.61	-61.9	-87.1	3.0	15683753	84	65535
2025-01-09 09:58:28.34	4.81	77.42	-61.9	-87.1	2.9	15686477	83	65535
2025-01-09 09:58:28.77	4.42	77.23	-61.9	-87.1	3.0	15690742	84	65535
2025-01-09 09:58:29.18	4.06	77.04	-62.1	-87.3	3.2	15682884	84	65535
2025-01-09 09:58:29.59	3.71	76.85	-61.9	-87.1	3.0	15685668	84	65535
2025-01-09 09:58:30.00	3.37	76.66	-61.7	-86.9	2.9	15684707	83	65535
2025-01-09 09:58:30.41	3.04	76.48	-62.1	-87.4	3.0	15694190	84	65535
2025-01-09 09:58:30.82	2.72	76.29	-61.8	-87.0	3.2	15684974	84	65535
2025-01-09 09:58:31.22	2.42	76.11	-61.9	-87.1	3.3	15690170	84	65535
2025-01-09 09:58:31.64	2.11	75.91	-61.7	-86.9	2.9	15690872	83	65535
2025-01-09 09:58:32.04	1.82	75.73	-61.8	-87.0	3.0	15702751	83	65535
2025-01-09 09:58:32.46	1.53	75.54	-61.9	-87.1	3.0	15689598	84	65535
2025-01-09 09:58:32.88	1.24	75.34	-61.8	-87.0	3.1	15682319	84	65535
2025-01-09 09:58:33.31	0.96	75.14	-61.8	-87.0	3.1	15673530	84	65535
2025-01-09 09:58:33.73	0.69	74.95	-61.9	-87.1	3.1	15677474	84	65535
2025-01-09 09:58:34.14	0.43	74.76	-61.7	-86.9	3.4	15671363	84	65535
2025-01-09 09:58:34.54	0.19	74.58	-61.7	-86.9	3.3	15674186	84	65535
2025-01-09 09:58:34.95	359.94	74.39	-61.5	-86.7	2.9	15674186	83	65535
2025-01-09 09:58:35.36	359.71	74.20	-61.8	-87.0	2.9	15687957	83	65535
2025-01-09 09:58:35.76	359.48	74.02	-61.8	-87.0	3.0	15694656	83	65535
2025-01-09 09:58:36.19	359.24	73.82	-61.8	-87.0	3.2	15700416	84	65535
2025-01-09 09:58:36.61	359.02	73.63	-61.6	-86.8	2.9	15672935	83	65535
2025-01-09 09:58:37.03	358.80	73.43	-62.0	-87.2	2.9	15695343	83	65535
2025-01-09 09:58:37.43	358.59	73.25	-61.7	-86.9	3.0	15683280	84	65535
2025-01-09 09:58:37.85	358.38	73.06	-61.6	-86.8	3.1	15684181	84	65535
2025-01-09 09:58:38.25	358.19	72.87	-61.8	-87.0	2.9	15686363	83	65535
2025-01-09 09:58:38.66	357.99	72.69	-62.1	-87.3	2.8	15711585	84	65535
2025-01-09 09:58:39.08	357.79	72.49	-61.9	-87.1	3.0	15692672	84	65535
2025-01-09 09:58:39.50	357.60	72.30	-61.9	-87.1	3.0	15673568	84	65535
2025-01-09 09:58:39.92	357.41	72.11	-61.7	-86.9	2.9	15685157	83	65535
2025-01-09 09:58:40.34	357.23	71.92	-61.8	-87.0	2.8	15683807	83	65535
2025-01-09 09:58:40.75	357.06	71.73	-61.7	-86.9	3.1	15688446	83	65535
2025-01-09 09:58:41.17	356.88	71.54	-61.7	-86.9	3.0	15681457	84	65535
2025-01-09 09:58:41.60	356.71	71.34	-61.6	-86.8	3.0	15686859	83	65535
2025-01-09 09:58:42.00	356.55	71.16	-61.4	-86.6	3.1	15699844	83	65535
2025-01-09 09:58:42.43	356.38	70.96	-61.6	-86.8	3.1	15699844	84	65535
2025-01-09 09:58:42.84	356.22	70.78	-61.6	-86.8	3.0	15689170	84	65535
2025-01-09 09:58:43.24	356.07	70.60	-61.7	-86.9	3.0	15681533	83	65535
2025-01-09 09:58:43.64	355.93	70.41	-61.8	-87.0	2.9	15678329	83	65535

#Closed at: 2025-01-09 09:58:44