passes_logs/2025/01/30/LEX_Murmansk/LEX_Murmansk__20250130_173356_NOAA_19_rec.log

#Pass ID: 20250130_173356_NOAA 19
#Satellite: NOAA 19
#Configuration: NOAA 19
#Start time: 2025-01-30 17:33:51.385617

#LorettStation: 1.0.0 05.05.2024
#Station: LEX_Murmansk
#Location: 33.156738 lon 68.926811 lat
#TLE: 1 33591U 09005A   25030.15472716  .00000350  00000+0  21086-3 0  9995
#TLE: 2 33591  99.0168  94.0324 0013877  16.1977 343.9635 14.13272478823684

#Time	Az	El	Level	SNR
2025-01-30 17:34:03.542586	146.9	16.3	-91.3	3.0
2025-01-30 17:34:05.862977	146.9	16.6	-91.5	1.2
2025-01-30 17:34:08.176517	146.9	16.9	-91.5	3.7
2025-01-30 17:34:10.501800	146.9	17.1	-91.3	4.3
2025-01-30 17:34:12.819671	146.9	17.4	-91.2	4.0
2025-01-30 17:34:15.136402	146.8	17.7	-91.6	5.3
2025-01-30 17:34:17.448997	146.8	17.9	-91.3	9.4
2025-01-30 17:34:19.768711	146.8	18.2	-91.5	9.6
2025-01-30 17:34:22.096578	146.8	18.5	-91.5	4.6
2025-01-30 17:34:24.419979	146.8	18.8	-92.0	1.6
2025-01-30 17:34:26.739726	146.7	19.1	-92.0	8.9
2025-01-30 17:34:29.065060	146.7	19.4	-92.0	13.0
2025-01-30 17:34:31.382504	146.7	19.7	-92.0	6.6
2025-01-30 17:34:33.721396	146.7	20.0	-91.9	9.2
2025-01-30 17:34:36.052859	146.6	20.3	-92.0	6.7
2025-01-30 17:34:38.378245	146.6	20.6	-92.1	2.4
2025-01-30 17:34:40.706280	146.6	20.9	-92.1	2.5
2025-01-30 17:34:43.041361	146.6	21.2	-92.1	10.8
2025-01-30 17:34:45.363657	146.5	21.5	-91.8	9.3
2025-01-30 17:34:47.697685	146.5	21.8	-92.0	4.3
2025-01-30 17:34:50.023432	146.5	22.2	-91.5	11.7
2025-01-30 17:34:52.349838	146.5	22.5	-91.6	3.8
2025-01-30 17:34:54.665673	146.4	22.8	-91.3	4.2
2025-01-30 17:34:56.991098	146.4	23.2	-91.8	5.8
2025-01-30 17:34:59.317127	146.4	23.5	-91.8	11.6
2025-01-30 17:35:01.636807	146.3	23.9	-91.9	9.2
2025-01-30 17:35:03.966581	146.3	24.2	-92.0	9.2
2025-01-30 17:35:06.298571	146.3	24.6	-91.8	10.9
2025-01-30 17:35:08.611051	146.2	24.9	-91.6	6.5
2025-01-30 17:35:10.858376	146.2	25.3	-91.9	2.7
2025-01-30 17:35:13.100356	146.1	25.7	-91.6	4.9
2025-01-30 17:35:15.341440	146.1	26.0	-90.9	9.4
2025-01-30 17:35:17.583075	146.1	26.4	-91.2	8.6
2025-01-30 17:35:19.833722	146.0	26.8	-92.0	4.0
2025-01-30 17:35:22.135726	146.0	27.2	-91.9	8.2
2025-01-30 17:35:24.451054	145.9	27.6	-92.0	6.0
2025-01-30 17:35:26.759985	145.9	28.0	-92.3	2.8
2025-01-30 17:35:29.083281	145.9	28.4	-91.9	1.1
2025-01-30 17:35:31.407060	145.8	28.8	-92.0	4.9
2025-01-30 17:35:33.723260	145.8	29.2	-92.4	4.1
2025-01-30 17:35:36.041341	145.7	29.6	-92.1	6.8
2025-01-30 17:35:38.357515	145.7	30.1	-92.1	6.6
2025-01-30 17:35:40.677719	145.6	30.5	-92.4	6.0
2025-01-30 17:35:43.006983	145.6	31.0	-92.3	2.1
2025-01-30 17:35:45.329443	145.5	31.4	-92.0	0.9
2025-01-30 17:35:47.751535	145.4	31.9	-92.1	0.3
2025-01-30 17:35:50.073781	145.4	32.4	-92.1	5.5
2025-01-30 17:35:52.395639	145.3	32.9	-92.1	5.0
2025-01-30 17:35:54.718942	145.2	33.3	-92.0	7.0
2025-01-30 17:35:57.034142	145.2	33.8	-92.3	7.9
2025-01-30 17:35:59.347810	145.1	34.3	-91.9	5.5
2025-01-30 17:36:01.670530	145.0	34.8	-92.2	3.9
2025-01-30 17:36:03.987474	145.0	35.4	-91.3	5.6
2025-01-30 17:36:06.316988	144.9	35.9	-91.3	14.1
2025-01-30 17:36:08.634417	144.8	36.4	-91.8	16.0
2025-01-30 17:36:10.955484	144.7	37.0	-91.4	11.9
2025-01-30 17:36:13.283629	144.6	37.5	-91.9	14.3
2025-01-30 17:36:15.611754	144.5	38.1	-92.0	11.1
2025-01-30 17:36:17.939549	144.5	38.7	-92.1	3.5
2025-01-30 17:36:20.268304	144.4	39.2	-92.3	1.7
2025-01-30 17:36:22.594750	144.3	39.8	-92.3	9.9
2025-01-30 17:36:24.926812	144.2	40.4	-92.1	17.4
2025-01-30 17:36:27.247448	144.0	41.0	-91.9	12.9
2025-01-30 17:36:29.576905	143.9	41.7	-92.0	13.9
2025-01-30 17:36:31.895761	143.8	42.3	-91.8	16.0
2025-01-30 17:36:34.221110	143.7	42.9	-92.2	16.9
2025-01-30 17:36:36.524357	143.6	43.6	-92.0	8.3
2025-01-30 17:36:38.766700	143.4	44.2	-91.6	2.2
2025-01-30 17:36:41.006496	143.3	44.9	-91.9	6.6
2025-01-30 17:36:43.246628	143.2	45.5	-91.7	13.1
2025-01-30 17:36:45.487864	143.0	46.2	-92.1	20.3
2025-01-30 17:36:47.749947	142.9	46.9	-92.1	8.4
2025-01-30 17:36:50.070945	142.7	47.6	-91.8	8.0
2025-01-30 17:36:52.382656	142.5	48.3	-92.2	6.9
2025-01-30 17:36:54.709404	142.3	49.1	-92.4	9.7
2025-01-30 17:36:57.028460	142.1	49.8	-92.0	4.9
2025-01-30 17:36:59.314746	141.9	50.6	-91.9	1.7
2025-01-30 17:37:01.609581	141.7	51.4	-92.0	4.9
2025-01-30 17:37:03.907192	141.5	52.1	-92.2	9.2
2025-01-30 17:37:06.214846	141.3	52.9	-92.3	15.8
2025-01-30 17:37:08.526783	141.0	53.8	-91.9	8.9
2025-01-30 17:37:10.852315	140.7	54.6	-92.4	10.1
2025-01-30 17:37:13.180473	140.4	55.4	-92.3	10.1
2025-01-30 17:37:15.508163	140.1	56.3	-92.1	12.0
2025-01-30 17:37:17.822900	139.8	57.2	-91.8	11.5
2025-01-30 17:37:20.158143	139.5	58.0	-91.7	2.9
2025-01-30 17:37:22.487011	139.1	58.9	-92.1	5.1
2025-01-30 17:37:24.817365	138.7	59.8	-91.8	1.4
2025-01-30 17:37:27.147665	138.3	60.8	-91.9	10.4
2025-01-30 17:37:29.466976	137.8	61.7	-91.8	15.9
2025-01-30 17:37:31.787555	137.3	62.6	-91.8	13.5
2025-01-30 17:37:34.123561	136.8	63.6	-91.8	11.9
2025-01-30 17:37:36.457155	136.2	64.5	-91.9	6.0
2025-01-30 17:37:38.777789	135.5	65.5	-91.9	7.3
2025-01-30 17:37:41.109239	134.8	66.5	-91.8	16.5
2025-01-30 17:37:43.438608	134.1	67.5	-91.9	14.2
2025-01-30 17:37:45.766672	133.2	68.5	-91.2	9.7
2025-01-30 17:37:48.093984	132.3	69.5	-91.2	10.4
2025-01-30 17:37:50.418644	131.3	70.5	-91.6	6.5
2025-01-30 17:37:52.746461	130.1	71.5	-91.3	4.3
2025-01-30 17:37:55.078693	128.8	72.5	-91.3	10.3
2025-01-30 17:37:57.409297	127.3	73.5	-91.9	15.5
2025-01-30 17:37:59.724365	125.6	74.5	-91.6	19.4
2025-01-30 17:38:02.043001	123.7	75.5	-92.2	18.0
2025-01-30 17:38:04.375854	121.5	76.5	-92.0	17.7
2025-01-30 17:38:06.696283	119.0	77.4	-91.4	8.3
2025-01-30 17:38:09.015084	116.0	78.4	-91.5	11.8
2025-01-30 17:38:11.338341	112.4	79.3	-91.5	7.8
2025-01-30 17:38:13.664386	108.2	80.2	-91.5	9.6
2025-01-30 17:38:15.977690	103.3	81.0	-91.5	14.6
2025-01-30 17:38:18.303832	97.3	81.7	-91.4	19.0
2025-01-30 17:38:20.626257	90.3	82.4	-91.4	19.7
2025-01-30 17:38:22.954387	82.1	82.9	-91.4	22.1
2025-01-30 17:38:25.290279	72.9	83.2	-91.9	21.1
2025-01-30 17:38:27.619758	63.0	83.3	-91.3	18.6
2025-01-30 17:38:29.941872	53.0	83.3	-91.2	17.3
2025-01-30 17:38:32.266798	43.4	83.0	-91.0	14.6
2025-01-30 17:38:34.589946	34.8	82.6	-91.4	13.4
2025-01-30 17:38:36.916973	27.2	82.0	-91.4	12.9
2025-01-30 17:38:39.235380	20.8	81.3	-91.0	8.7
2025-01-30 17:38:41.560945	15.4	80.6	-91.1	8.3
2025-01-30 17:38:43.889702	10.8	79.7	-91.4	8.5
2025-01-30 17:38:46.214404	7.0	78.8	-90.7	5.0
2025-01-30 17:38:48.532158	3.8	77.9	-91.2	7.1
2025-01-30 17:38:50.859732	1.0	76.9	-91.6	7.7
2025-01-30 17:38:53.193570	358.7	75.9	-91.2	3.3
2025-01-30 17:38:55.518515	356.6	75.0	-91.4	4.7
2025-01-30 17:38:57.844620	354.8	74.0	-91.3	3.8
2025-01-30 17:39:00.153432	353.3	73.0	-91.3	4.7
2025-01-30 17:39:02.473087	351.9	72.0	-91.4	8.2
2025-01-30 17:39:04.810923	350.7	70.9	-91.5	4.1
2025-01-30 17:39:07.140485	349.6	69.9	-91.4	5.5
2025-01-30 17:39:09.465834	348.6	68.9	-91.3	6.9
2025-01-30 17:39:11.788848	347.7	68.0	-91.5	3.8
2025-01-30 17:39:14.113727	346.9	67.0	-90.5	11.4
2025-01-30 17:39:16.437272	346.2	66.0	-91.3	6.3
2025-01-30 17:39:18.751776	345.6	65.0	-91.0	7.1
2025-01-30 17:39:21.074414	345.0	64.1	-91.4	12.4
2025-01-30 17:39:23.410741	344.4	63.1	-91.4	14.8
2025-01-30 17:39:25.729391	343.9	62.2	-91.6	13.4
2025-01-30 17:39:28.057339	343.4	61.2	-91.3	13.9
2025-01-30 17:39:30.378157	343.0	60.3	-91.3	15.9
2025-01-30 17:39:32.707065	342.5	59.4	-91.9	14.7
2025-01-30 17:39:35.030749	342.2	58.5	-91.7	14.6
2025-01-30 17:39:37.345550	341.8	57.6	-91.9	15.8
2025-01-30 17:39:39.667775	341.5	56.8	-91.9	7.3
2025-01-30 17:39:41.999567	341.1	55.9	-91.9	10.3
2025-01-30 17:39:44.324787	340.9	55.1	-91.7	5.9
2025-01-30 17:39:46.650996	340.6	54.2	-91.7	6.0
2025-01-30 17:39:48.969173	340.3	53.4	-92.0	6.5
2025-01-30 17:39:51.291875	340.1	52.6	-92.0	5.7
2025-01-30 17:39:53.609383	339.8	51.8	-92.1	10.2
2025-01-30 17:39:55.931912	339.6	51.0	-92.0	9.7
2025-01-30 17:39:58.254151	339.4	50.3	-91.6	11.3
2025-01-30 17:40:00.578583	339.2	49.5	-92.0	11.9
2025-01-30 17:40:02.905593	339.0	48.8	-92.0	15.1
2025-01-30 17:40:05.231331	338.8	48.0	-91.7	9.3
2025-01-30 17:40:07.554397	338.7	47.3	-91.8	10.5
2025-01-30 17:40:09.885370	338.5	46.6	-92.0	7.7
2025-01-30 17:40:12.203128	338.4	45.9	-91.7	6.2
2025-01-30 17:40:14.532422	338.2	45.2	-91.7	10.0
2025-01-30 17:40:16.863142	338.1	44.5	-91.6	13.6
2025-01-30 17:40:19.182301	337.9	43.9	-91.5	17.6
2025-01-30 17:40:21.507438	337.8	43.2	-91.9	12.7
2025-01-30 17:40:23.831894	337.7	42.6	-91.8	16.7
2025-01-30 17:40:26.155955	337.6	42.0	-92.0	16.3
2025-01-30 17:40:28.478408	337.4	41.3	-91.8	11.4
2025-01-30 17:40:30.802459	337.3	40.7	-91.9	5.1
2025-01-30 17:40:33.140795	337.2	40.1	-91.9	6.4
2025-01-30 17:40:35.453640	337.1	39.5	-91.8	11.8
2025-01-30 17:40:37.776367	337.0	39.0	-91.6	13.0
2025-01-30 17:40:40.093211	336.9	38.4	-91.0	11.8
2025-01-30 17:40:42.412641	336.8	37.8	-91.9	12.5
2025-01-30 17:40:44.745752	336.8	37.3	-92.0	10.1
2025-01-30 17:40:47.075983	336.7	36.7	-91.7	9.4
2025-01-30 17:40:49.404185	336.6	36.2	-91.7	6.2
2025-01-30 17:40:51.732223	336.5	35.7	-91.8	4.9
2025-01-30 17:40:54.061304	336.4	35.1	-91.5	10.9
2025-01-30 17:40:56.385550	336.4	34.6	-91.4	12.9
2025-01-30 17:40:58.688150	336.3	34.1	-91.9	14.2
2025-01-30 17:41:00.991463	336.2	33.6	-91.9	2.4
2025-01-30 17:41:03.315542	336.2	33.2	-91.5	4.0
2025-01-30 17:41:05.650248	336.1	32.7	-91.9	2.2
2025-01-30 17:41:07.972415	336.0	32.2	-91.8	4.6
2025-01-30 17:41:10.296394	336.0	31.7	-91.9	4.0
2025-01-30 17:41:12.627483	335.9	31.3	-92.1	12.4
2025-01-30 17:41:14.937223	335.9	30.8	-92.2	5.1
2025-01-30 17:41:17.262358	335.8	30.4	-92.0	7.8
2025-01-30 17:41:19.584896	335.8	30.0	-91.4	1.7
2025-01-30 17:41:21.902060	335.7	29.5	-91.6	3.2
2025-01-30 17:41:24.217676	335.7	29.1	-91.5	6.8
2025-01-30 17:41:26.542053	335.6	28.7	-91.8	7.7
2025-01-30 17:41:28.862860	335.6	28.3	-92.1	11.0
2025-01-30 17:41:31.187715	335.5	27.9	-92.1	7.5
2025-01-30 17:41:33.501221	335.5	27.5	-92.4	3.9
2025-01-30 17:41:35.807749	335.5	27.1	-92.0	3.1
2025-01-30 17:41:38.126499	335.4	26.7	-91.9	4.8
2025-01-30 17:41:40.453932	335.4	26.3	-91.8	9.0
2025-01-30 17:41:42.780484	335.3	25.9	-92.1	10.1
2025-01-30 17:41:45.108548	335.3	25.6	-91.8	6.8
2025-01-30 17:41:47.423338	335.3	25.2	-91.8	9.2
2025-01-30 17:41:49.753416	335.2	24.8	-91.9	2.5
2025-01-30 17:41:52.068360	335.2	24.5	-92.0	6.6
2025-01-30 17:41:54.394619	335.2	24.1	-91.5	3.0
2025-01-30 17:41:56.723422	335.1	23.8	-92.3	5.4
2025-01-30 17:41:59.037928	335.1	23.4	-91.7	7.2
2025-01-30 17:42:01.353938	335.1	23.1	-92.1	2.4
2025-01-30 17:42:03.672856	335.0	22.8	-92.0	2.7
2025-01-30 17:42:05.996770	335.0	22.4	-92.3	3.7
2025-01-30 17:42:08.321893	335.0	22.1	-92.1	1.5
2025-01-30 17:42:10.645998	335.0	21.8	-91.9	7.5
2025-01-30 17:42:12.965297	334.9	21.5	-91.9	8.2
2025-01-30 17:42:15.287638	334.9	21.2	-91.9	3.0
2025-01-30 17:42:17.723249	334.9	20.8	-91.8	3.0
2025-01-30 17:42:20.062514	334.9	20.5	-91.9	3.4
2025-01-30 17:42:22.394365	334.8	20.2	-92.4	6.9
2025-01-30 17:42:24.729283	334.8	19.9	-92.1	3.2
2025-01-30 17:42:27.053703	334.8	19.6	-91.8	1.9
2025-01-30 17:42:29.374988	334.8	19.3	-92.0	2.3
2025-01-30 17:42:31.696876	334.7	19.1	-92.0	2.4
2025-01-30 17:42:34.022021	334.7	18.8	-92.1	2.2
2025-01-30 17:42:36.356371	334.7	18.5	-91.9	3.9
2025-01-30 17:42:38.687786	334.7	18.2	-92.1	2.8
2025-01-30 17:42:41.001790	334.7	17.9	-92.5	2.7
2025-01-30 17:42:43.326332	334.6	17.7	-92.3	2.5
2025-01-30 17:42:45.630549	334.6	17.4	-92.4	1.7
2025-01-30 17:42:47.875400	334.6	17.1	-92.3	1.6
2025-01-30 17:42:50.116022	334.6	16.9	-91.8	3.5
2025-01-30 17:42:52.357572	334.6	16.6	-92.0	4.2
2025-01-30 17:42:54.598179	334.6	16.4	-92.1	3.7
2025-01-30 17:42:56.838882	334.5	16.1	-92.1	2.1
2025-01-30 17:42:59.152166	334.5	15.9	-92.2	2.0
2025-01-30 17:43:01.455985	334.5	15.6	-92.2	2.8
2025-01-30 17:43:03.778441	334.5	15.4	-92.3	1.4
2025-01-30 17:43:06.097444	334.5	15.1	-92.4	2.9
2025-01-30 17:43:08.415584	334.5	14.9	-92.2	3.0
2025-01-30 17:43:10.728693	334.5	14.6	-92.4	1.7
2025-01-30 17:43:13.051324	334.4	14.4	-92.2	3.6
#Closed at: 2025-01-30 17:33:56.329452