passes_logs/2025/01/30/LEX_Murmansk/LEX_Murmansk__20250130_105531_NOAA_19_rec.log

#Pass ID: 20250130_105531_NOAA 19
#Satellite: NOAA 19
#Configuration: NOAA 19
#Start time: 2025-01-30 10:55:26.525685

#LorettStation: 1.0.0 05.05.2024
#Station: LEX_Murmansk
#Location: 33.156738 lon 68.926811 lat
#TLE: 1 33591U 09005A   25029.16356990  .00000402  00000+0  23831-3 0  9997
#TLE: 2 33591  99.0170  93.0339 0013919  18.9524 341.2163 14.13271889823544

#Time	Az	El	Level	SNR
2025-01-30 10:58:11.776649	354.4	33.0	-89.6	5.6
2025-01-30 10:58:12.937312	354.1	33.2	-89.3	6.9
2025-01-30 10:58:14.098510	353.7	33.3	-89.8	8.7
2025-01-30 10:58:15.261813	353.3	33.4	-89.7	7.6
2025-01-30 10:58:16.416847	352.9	33.5	-89.9	10.1
2025-01-30 10:58:17.581359	352.5	33.6	-89.5	9.4
2025-01-30 10:58:18.740507	352.2	33.7	-89.6	8.2
2025-01-30 10:58:19.906948	351.8	33.9	-89.7	8.2
2025-01-30 10:58:21.070794	351.4	34.0	-89.8	7.9
2025-01-30 10:58:22.238013	351.0	34.1	-89.3	4.0
2025-01-30 10:58:23.397925	350.6	34.2	-89.5	6.5
2025-01-30 10:58:24.556526	350.2	34.3	-89.7	5.5
2025-01-30 10:58:25.720986	349.8	34.4	-89.4	2.5
2025-01-30 10:58:26.884148	349.4	34.5	-89.6	4.5
2025-01-30 10:58:28.052546	349.0	34.6	-89.6	5.8
2025-01-30 10:58:29.215334	348.6	34.7	-90.1	5.1
2025-01-30 10:58:30.379846	348.2	34.8	-89.6	7.2
2025-01-30 10:58:31.541851	347.8	34.9	-89.6	11.0
2025-01-30 10:58:32.708806	347.3	35.0	-89.7	10.2
2025-01-30 10:58:33.862902	346.9	35.1	-89.7	9.9
2025-01-30 10:58:35.027457	346.5	35.2	-89.8	10.4
2025-01-30 10:58:36.193802	346.1	35.3	-89.8	11.3
2025-01-30 10:58:37.371029	345.7	35.4	-89.9	8.5
2025-01-30 10:58:38.537828	345.2	35.5	-89.8	8.4
2025-01-30 10:58:39.694599	344.8	35.6	-90.0	6.4
2025-01-30 10:58:40.875908	344.4	35.7	-89.6	4.3
2025-01-30 10:58:42.035532	343.9	35.8	-89.7	7.2
2025-01-30 10:58:43.209489	343.5	35.9	-89.8	3.9
2025-01-30 10:58:44.369023	343.0	36.0	-90.0	6.7
2025-01-30 10:58:45.531267	342.6	36.1	-89.8	8.1
2025-01-30 10:58:46.686590	342.2	36.1	-89.8	9.0
2025-01-30 10:58:47.851716	341.7	36.2	-90.1	10.2
2025-01-30 10:58:49.020572	341.3	36.3	-89.9	11.1
2025-01-30 10:58:50.186094	340.8	36.4	-89.9	11.0
2025-01-30 10:58:51.360626	340.3	36.5	-90.1	11.7
2025-01-30 10:58:52.527933	339.9	36.5	-89.8	12.2
2025-01-30 10:58:53.685879	339.4	36.6	-90.1	10.1
2025-01-30 10:58:54.846377	339.0	36.7	-90.1	8.3
2025-01-30 10:58:56.006192	338.5	36.7	-89.9	6.1
2025-01-30 10:58:57.175142	338.0	36.8	-89.8	5.0
2025-01-30 10:58:58.339673	337.6	36.9	-89.7	3.6
2025-01-30 10:58:59.503573	337.1	36.9	-89.7	4.7
2025-01-30 10:59:00.666582	336.6	37.0	-89.7	2.7
2025-01-30 10:59:01.829325	336.2	37.0	-90.0	4.2
2025-01-30 10:59:02.991458	335.7	37.1	-90.1	5.3
2025-01-30 10:59:04.150824	335.2	37.1	-89.8	1.8
2025-01-30 10:59:05.277840	334.8	37.2	-89.9	5.4
2025-01-30 10:59:06.398297	334.3	37.2	-90.1	5.5
2025-01-30 10:59:07.519850	333.9	37.3	-90.1	8.1
2025-01-30 10:59:08.640219	333.4	37.3	-89.9	7.8
2025-01-30 10:59:09.761550	332.9	37.4	-90.0	8.8
2025-01-30 10:59:10.882430	332.5	37.4	-90.1	5.5
2025-01-30 10:59:12.003243	332.0	37.4	-90.0	8.7
2025-01-30 10:59:13.124272	331.5	37.5	-89.8	10.3
2025-01-30 10:59:14.247265	331.1	37.5	-90.0	10.7
2025-01-30 10:59:15.374023	330.6	37.5	-89.7	12.3
2025-01-30 10:59:16.514106	330.1	37.6	-89.8	14.5
2025-01-30 10:59:17.635806	329.6	37.6	-90.0	13.6
2025-01-30 10:59:18.756834	329.2	37.6	-90.1	11.5
2025-01-30 10:59:19.881738	328.7	37.6	-90.0	12.4
2025-01-30 10:59:21.003700	328.2	37.6	-90.1	9.4
2025-01-30 10:59:22.124866	327.8	37.7	-90.0	7.9
2025-01-30 10:59:23.246142	327.3	37.7	-90.1	6.6
2025-01-30 10:59:24.368049	326.8	37.7	-90.1	7.1
2025-01-30 10:59:25.490123	326.3	37.7	-90.1	9.9
2025-01-30 10:59:26.613895	325.9	37.7	-90.0	6.1
2025-01-30 10:59:27.740866	325.4	37.7	-90.1	2.9
2025-01-30 10:59:28.863311	324.9	37.7	-90.1	4.4
2025-01-30 10:59:29.984584	324.4	37.7	-90.2	9.6
2025-01-30 10:59:31.105938	324.0	37.7	-90.0	6.9
2025-01-30 10:59:32.227886	323.5	37.7	-90.1	3.6
2025-01-30 10:59:33.350095	323.0	37.7	-89.9	2.5
2025-01-30 10:59:34.473306	322.6	37.7	-90.2	7.5
2025-01-30 10:59:35.594309	322.1	37.7	-89.9	5.2
2025-01-30 10:59:36.729453	321.6	37.7	-90.0	3.4
2025-01-30 10:59:37.862404	321.1	37.7	-89.5	5.5
2025-01-30 10:59:38.984050	320.7	37.6	-89.9	5.8
2025-01-30 10:59:40.105411	320.2	37.6	-89.8	5.6
2025-01-30 10:59:41.227616	319.7	37.6	-89.6	5.4
2025-01-30 10:59:42.349737	319.2	37.6	-89.9	7.2
2025-01-30 10:59:43.470991	318.8	37.5	-89.9	7.1
2025-01-30 10:59:44.593006	318.3	37.5	-89.9	10.1
2025-01-30 10:59:45.714631	317.8	37.5	-90.2	8.6
2025-01-30 10:59:46.835165	317.4	37.5	-89.8	6.7
2025-01-30 10:59:47.956059	316.9	37.4	-90.1	7.9
2025-01-30 10:59:49.077325	316.4	37.4	-89.9	5.4
2025-01-30 10:59:50.197100	316.0	37.3	-89.8	6.6
2025-01-30 10:59:51.319413	315.5	37.3	-90.2	7.4
2025-01-30 10:59:52.440760	315.1	37.3	-89.9	6.3
2025-01-30 10:59:53.563144	314.6	37.2	-90.3	9.6
2025-01-30 10:59:54.686847	314.1	37.2	-89.9	9.0
2025-01-30 10:59:55.808750	313.7	37.1	-89.9	4.5
2025-01-30 10:59:56.933518	313.2	37.1	-90.0	7.8
2025-01-30 10:59:58.065240	312.8	37.0	-89.7	4.4
2025-01-30 10:59:59.210098	312.3	37.0	-89.9	10.0
2025-01-30 11:00:00.334790	311.8	36.9	-90.0	10.1
2025-01-30 11:00:01.467102	311.4	36.8	-90.0	12.0
2025-01-30 11:00:02.597783	310.9	36.8	-89.8	12.5
2025-01-30 11:00:03.722362	310.5	36.7	-89.9	12.5
2025-01-30 11:00:04.847132	310.1	36.7	-90.3	12.7
2025-01-30 11:00:05.971142	309.6	36.6	-90.6	12.0
2025-01-30 11:00:07.099115	309.2	36.5	-90.3	10.9
2025-01-30 11:00:08.224571	308.7	36.4	-90.2	10.2
2025-01-30 11:00:09.352197	308.3	36.4	-90.1	10.7
2025-01-30 11:00:10.472932	307.8	36.3	-90.2	9.8
2025-01-30 11:00:11.594488	307.4	36.2	-90.4	8.1
2025-01-30 11:00:12.719849	307.0	36.1	-90.2	8.3
2025-01-30 11:00:13.844605	306.6	36.1	-90.3	5.0
2025-01-30 11:00:14.971546	306.1	36.0	-90.9	8.6
2025-01-30 11:00:16.099879	305.7	35.9	-90.7	8.2
2025-01-30 11:00:17.232792	305.3	35.8	-90.3	8.9
2025-01-30 11:00:18.357032	304.9	35.7	-90.2	10.1
2025-01-30 11:00:19.481440	304.4	35.6	-90.1	10.9
2025-01-30 11:00:20.617181	304.0	35.6	-90.8	10.9
2025-01-30 11:00:21.780969	303.6	35.5	-90.7	8.3
2025-01-30 11:00:22.906354	303.2	35.4	-90.6	7.9
2025-01-30 11:00:24.030396	302.8	35.3	-90.4	9.4
2025-01-30 11:00:25.156824	302.4	35.2	-90.0	9.7
2025-01-30 11:00:26.282211	301.9	35.1	-90.1	10.9
2025-01-30 11:00:27.403590	301.5	35.0	-90.1	5.5
2025-01-30 11:00:28.525967	301.1	34.9	-90.2	7.7
2025-01-30 11:00:29.647392	300.7	34.8	-90.2	4.9
2025-01-30 11:00:30.769969	300.4	34.7	-90.2	3.7
2025-01-30 11:00:31.896524	300.0	34.6	-90.2	3.4
2025-01-30 11:00:33.025219	299.6	34.5	-90.1	4.7
2025-01-30 11:00:34.146388	299.2	34.4	-90.1	5.0
2025-01-30 11:00:35.268681	298.8	34.3	-90.5	3.0
2025-01-30 11:00:36.394194	298.4	34.2	-88.4	3.9
2025-01-30 11:00:37.518321	298.0	34.1	-90.2	3.4
2025-01-30 11:00:38.642992	297.7	34.0	-90.2	2.9
2025-01-30 11:00:39.766306	297.3	33.8	-89.9	3.7
2025-01-30 11:00:40.895606	296.9	33.7	-89.8	3.8
2025-01-30 11:00:42.017322	296.5	33.6	-90.0	2.7
2025-01-30 11:00:43.141324	296.2	33.5	-89.9	4.6
2025-01-30 11:00:44.266471	295.8	33.4	-89.7	4.4
2025-01-30 11:00:45.391917	295.4	33.3	-90.2	3.4
2025-01-30 11:00:46.514132	295.1	33.2	-90.1	6.4
2025-01-30 11:00:47.641792	294.7	33.0	-90.1	5.6
2025-01-30 11:00:48.766870	294.4	32.9	-89.8	4.7
2025-01-30 11:00:49.891609	294.0	32.8	-89.9	4.9
2025-01-30 11:00:51.014198	293.7	32.7	-90.0	4.1
2025-01-30 11:00:52.138262	293.3	32.6	-90.2	1.2
2025-01-30 11:00:53.262461	293.0	32.5	-90.0	3.5
2025-01-30 11:00:54.385355	292.6	32.3	-90.2	5.6
2025-01-30 11:00:55.511087	292.3	32.2	-90.2	4.4
2025-01-30 11:00:56.639429	292.0	32.1	-90.0	2.9
2025-01-30 11:00:57.762674	291.6	32.0	-90.1	3.8
2025-01-30 11:00:58.885003	291.3	31.8	-90.0	1.5
2025-01-30 11:01:00.010107	291.0	31.7	-90.2	4.2
2025-01-30 11:01:01.133035	290.6	31.6	-89.9	4.4
2025-01-30 11:01:02.257789	290.3	31.5	-89.7	4.8
2025-01-30 11:01:03.380896	290.0	31.3	-88.7	3.1
2025-01-30 11:01:04.503066	289.7	31.2	-90.3	5.7
2025-01-30 11:01:05.626055	289.4	31.1	-90.0	7.0
2025-01-30 11:01:06.747586	289.0	31.0	-90.4	8.2
2025-01-30 11:01:07.869850	288.7	30.8	-89.9	7.6
2025-01-30 11:01:08.996369	288.4	30.7	-90.0	8.9
2025-01-30 11:01:10.118605	288.1	30.6	-90.0	10.6
2025-01-30 11:01:11.246687	287.8	30.5	-89.9	9.4
2025-01-30 11:01:12.371881	287.5	30.3	-89.8	8.8
2025-01-30 11:01:13.494220	287.2	30.2	-89.9	8.5
2025-01-30 11:01:14.616569	286.9	30.1	-89.8	6.6
2025-01-30 11:01:15.742155	286.6	29.9	-89.6	8.4
2025-01-30 11:01:16.867598	286.3	29.8	-89.2	6.0
2025-01-30 11:01:17.990619	286.0	29.7	-87.8	5.5
2025-01-30 11:01:19.113188	285.7	29.5	-88.5	5.1
2025-01-30 11:01:20.236113	285.5	29.4	-88.1	6.3
2025-01-30 11:01:21.362128	285.2	29.3	-86.9	5.9
2025-01-30 11:01:22.485340	284.9	29.2	-85.5	5.0
2025-01-30 11:01:23.612286	284.6	29.0	-85.9	6.7
2025-01-30 11:01:24.738354	284.3	28.9	-89.3	6.9
2025-01-30 11:01:25.864746	284.1	28.8	-89.4	6.3
2025-01-30 11:01:26.986511	283.8	28.6	-89.4	5.7
2025-01-30 11:01:28.107826	283.5	28.5	-89.7	4.4
2025-01-30 11:01:29.236778	283.3	28.4	-87.9	6.4
2025-01-30 11:01:30.361793	283.0	28.2	-87.4	3.6
2025-01-30 11:01:31.489644	282.7	28.1	-90.0	6.4
2025-01-30 11:01:32.612785	282.5	28.0	-90.4	6.7
2025-01-30 11:01:33.734622	282.2	27.8	-89.6	8.7
2025-01-30 11:01:34.856332	282.0	27.7	-89.9	6.7
2025-01-30 11:01:35.977850	281.7	27.6	-88.8	6.2
2025-01-30 11:01:37.102215	281.5	27.4	-89.5	4.6
2025-01-30 11:01:38.225357	281.2	27.3	-89.5	6.7
2025-01-30 11:01:39.358585	281.0	27.2	-89.0	5.9
2025-01-30 11:01:40.479320	280.7	27.0	-89.5	8.8
2025-01-30 11:01:41.600702	280.5	26.9	-89.5	8.2
2025-01-30 11:01:42.724549	280.2	26.8	-88.4	8.4
2025-01-30 11:01:43.847487	280.0	26.6	-90.3	8.1
2025-01-30 11:01:44.970032	279.8	26.5	-89.8	5.4
2025-01-30 11:01:46.093708	279.5	26.4	-89.9	4.3
2025-01-30 11:01:47.215455	279.3	26.3	-89.5	5.3
2025-01-30 11:01:48.339029	279.0	26.1	-89.4	5.9
2025-01-30 11:01:49.463993	278.8	26.0	-89.5	2.5
2025-01-30 11:01:50.585297	278.6	25.9	-89.5	3.3
2025-01-30 11:01:51.707663	278.4	25.7	-89.6	5.4
2025-01-30 11:01:52.829235	278.1	25.6	-89.9	4.8
2025-01-30 11:01:53.950393	277.9	25.5	-89.9	5.6
2025-01-30 11:01:55.071073	277.7	25.3	-89.6	4.2
2025-01-30 11:01:56.202387	277.5	25.2	-89.6	6.1
2025-01-30 11:01:57.323959	277.3	25.1	-89.3	7.2
2025-01-30 11:01:58.448079	277.0	24.9	-89.6	4.8
2025-01-30 11:01:59.578242	276.8	24.8	-90.0	5.1
2025-01-30 11:02:00.703017	276.6	24.7	-90.2	7.1
2025-01-30 11:02:01.859532	276.4	24.6	-89.9	8.5
2025-01-30 11:02:02.987198	276.2	24.4	-90.2	7.6
2025-01-30 11:02:04.114779	276.0	24.3	-90.0	6.5
2025-01-30 11:02:05.241287	275.8	24.2	-89.7	9.6
2025-01-30 11:02:06.363713	275.6	24.0	-89.8	7.3
2025-01-30 11:02:07.489866	275.4	23.9	-90.0	9.0
2025-01-30 11:02:08.613431	275.2	23.8	-90.1	7.8
2025-01-30 11:02:09.738121	275.0	23.7	-90.0	9.4
2025-01-30 11:02:10.861993	274.8	23.5	-90.3	7.0
2025-01-30 11:02:11.986302	274.6	23.4	-90.1	7.2
2025-01-30 11:02:13.107827	274.4	23.3	-90.0	6.8
2025-01-30 11:02:14.231184	274.2	23.1	-90.0	8.2
2025-01-30 11:02:15.354786	274.0	23.0	-90.1	6.5
2025-01-30 11:02:16.478877	273.8	22.9	-89.9	5.9
2025-01-30 11:02:17.605102	273.6	22.8	-89.9	6.2
2025-01-30 11:02:18.726108	273.5	22.6	-89.7	8.7
2025-01-30 11:02:19.850929	273.3	22.5	-89.9	4.4
2025-01-30 11:02:20.976213	273.1	22.4	-89.7	5.2
2025-01-30 11:02:22.099265	272.9	22.3	-89.9	3.0
2025-01-30 11:02:23.224242	272.7	22.1	-89.9	3.8
2025-01-30 11:02:24.344694	272.6	22.0	-90.0	3.5
2025-01-30 11:02:25.465654	272.4	21.9	-90.0	2.9
2025-01-30 11:02:26.589343	272.2	21.8	-90.2	4.9
2025-01-30 11:02:27.710830	272.0	21.6	-90.1	5.0
2025-01-30 11:02:28.832569	271.9	21.5	-89.8	3.1
2025-01-30 11:02:29.955257	271.7	21.4	-90.2	3.6
2025-01-30 11:02:31.078398	271.5	21.3	-89.8	3.7
2025-01-30 11:02:32.200058	271.4	21.2	-90.0	3.8
2025-01-30 11:02:33.323096	271.2	21.0	-90.0	2.5
2025-01-30 11:02:34.448993	271.0	20.9	-90.2	2.5
2025-01-30 11:02:35.587819	270.9	20.8	-90.0	3.3
2025-01-30 11:02:36.710748	270.7	20.7	-89.6	4.4
2025-01-30 11:02:37.841544	270.5	20.5	-89.9	2.6
2025-01-30 11:02:38.962177	270.4	20.4	-90.2	3.2
2025-01-30 11:02:40.089564	270.2	20.3	-89.9	2.1
2025-01-30 11:02:41.212734	270.1	20.2	-89.4	1.9
2025-01-30 11:02:42.334281	269.9	20.1	-89.9	2.6
2025-01-30 11:02:43.467652	269.7	19.9	-90.3	3.1
2025-01-30 11:02:44.596242	269.6	19.8	-90.3	3.0
2025-01-30 11:02:45.716794	269.4	19.7	-90.4	2.2
2025-01-30 11:02:46.838357	269.3	19.6	-90.3	4.1
2025-01-30 11:02:47.960509	269.1	19.5	-90.5	1.6
2025-01-30 11:02:49.082352	269.0	19.4	-90.3	4.3
2025-01-30 11:02:50.209720	268.8	19.2	-90.6	3.7
2025-01-30 11:02:51.331886	268.7	19.1	-90.7	2.5
2025-01-30 11:02:52.462183	268.5	19.0	-90.5	3.4
2025-01-30 11:02:53.583595	268.4	18.9	-90.4	2.8
2025-01-30 11:02:54.712924	268.3	18.8	-90.2	0.8
2025-01-30 11:02:55.842336	268.1	18.7	-90.6	2.9
2025-01-30 11:02:56.962974	268.0	18.5	-90.7	4.1
2025-01-30 11:02:58.083596	267.8	18.4	-90.2	3.4
2025-01-30 11:02:59.205764	267.7	18.3	-90.4	2.9
2025-01-30 11:03:00.328367	267.5	18.2	-90.5	3.9
2025-01-30 11:03:01.455879	267.4	18.1	-90.6	2.8
2025-01-30 11:03:02.581148	267.3	18.0	-90.4	3.6
2025-01-30 11:03:03.706710	267.1	17.9	-90.4	5.7
2025-01-30 11:03:04.833427	267.0	17.7	-90.0	4.1
2025-01-30 11:03:05.959218	266.9	17.6	-90.6	3.9
2025-01-30 11:03:07.080419	266.7	17.5	-90.6	4.1
2025-01-30 11:03:08.202125	266.6	17.4	-90.6	5.3
2025-01-30 11:03:09.324084	266.5	17.3	-90.6	4.4
2025-01-30 11:03:10.445366	266.4	17.2	-90.1	2.3
2025-01-30 11:03:11.566585	266.2	17.1	-90.6	3.0
2025-01-30 11:03:12.689657	266.1	17.0	-90.6	5.5
2025-01-30 11:03:13.810789	266.0	16.9	-90.5	3.5
2025-01-30 11:03:14.931094	265.8	16.8	-90.0	5.5
2025-01-30 11:03:16.055462	265.7	16.6	-89.8	5.2
2025-01-30 11:03:17.176556	265.6	16.5	-89.7	6.3
2025-01-30 11:03:18.297774	265.5	16.4	-89.7	4.2
2025-01-30 11:03:19.419154	265.4	16.3	-90.8	2.4
2025-01-30 11:03:20.538306	265.2	16.2	-90.8	4.7
2025-01-30 11:03:21.658420	265.1	16.1	-90.5	4.7
2025-01-30 11:03:22.780442	265.0	16.0	-90.8	4.4
2025-01-30 11:03:23.937235	264.9	15.9	-90.7	3.6
2025-01-30 11:03:25.090589	264.8	15.8	-89.3	2.8
2025-01-30 11:03:26.253276	264.6	15.7	-89.2	4.9
2025-01-30 11:03:27.404371	264.5	15.6	-90.5	3.6
2025-01-30 11:03:28.526456	264.4	15.5	-90.3	5.3
2025-01-30 11:03:29.647053	264.3	15.4	-90.4	6.4
2025-01-30 11:03:30.768062	264.2	15.2	-90.6	7.0
2025-01-30 11:03:31.890673	264.1	15.1	-89.9	6.3
2025-01-30 11:03:33.011595	263.9	15.0	-90.1	8.2
2025-01-30 11:03:34.132984	263.8	14.9	-90.0	5.1
2025-01-30 11:03:35.287310	263.7	14.8	-90.2	5.4
2025-01-30 11:03:36.418067	263.6	14.7	-90.3	3.5
2025-01-30 11:03:37.574375	263.5	14.6	-90.3	2.5
#Closed at: 2025-01-30 10:55:31.453040