passes_logs/2025/01/30/LEX_Murmansk/LEX_Murmansk__20250130_191536_NOAA_19_rec.log

#Pass ID: 20250130_191536_NOAA 19
#Satellite: NOAA 19
#Configuration: NOAA 19
#Start time: 2025-01-30 19:15:31.885125

#LorettStation: 1.0.0 05.05.2024
#Station: LEX_Murmansk
#Location: 33.156738 lon 68.926811 lat
#TLE: 1 33591U 09005A   25030.15472716  .00000350  00000+0  21086-3 0  9995
#TLE: 2 33591  99.0168  94.0324 0013877  16.1977 343.9635 14.13272478823684

#Time	Az	El	Level	SNR
2025-01-30 19:15:44.129435	202.3	16.2	-92.2	2.8
2025-01-30 19:15:45.280818	202.5	16.3	-92.4	3.7
2025-01-30 19:15:46.434899	202.6	16.4	-92.2	5.1
2025-01-30 19:15:47.588914	202.7	16.5	-92.5	8.4
2025-01-30 19:15:48.748008	202.8	16.6	-92.9	3.4
2025-01-30 19:15:49.902211	203.0	16.7	-92.4	1.4
2025-01-30 19:15:51.069185	203.1	16.8	-92.3	1.0
2025-01-30 19:15:52.227417	203.3	16.9	-92.6	0.9
2025-01-30 19:15:53.377452	203.4	17.0	-92.5	3.8
2025-01-30 19:15:54.534197	203.5	17.2	-92.6	0.8
2025-01-30 19:15:55.694891	203.7	17.3	-92.7	2.7
2025-01-30 19:15:56.854177	203.8	17.4	-92.5	2.3
2025-01-30 19:15:58.008136	203.9	17.5	-92.3	1.3
2025-01-30 19:15:59.165878	204.1	17.6	-92.4	1.9
2025-01-30 19:16:00.330446	204.2	17.7	-92.6	1.4
2025-01-30 19:16:01.493263	204.4	17.9	-92.8	1.8
2025-01-30 19:16:02.648540	204.5	18.0	-92.6	1.0
2025-01-30 19:16:03.808385	204.7	18.1	-92.1	0.7
2025-01-30 19:16:04.962409	204.8	18.2	-92.1	2.6
2025-01-30 19:16:06.121345	205.0	18.3	-91.3	2.0
2025-01-30 19:16:07.273826	205.1	18.4	-91.7	0.8
2025-01-30 19:16:08.426467	205.3	18.6	-92.2	0.5
2025-01-30 19:16:09.586538	205.4	18.7	-92.4	0.9
2025-01-30 19:16:10.739726	205.6	18.8	-92.3	3.3
2025-01-30 19:16:11.891102	205.7	18.9	-92.4	2.0
2025-01-30 19:16:13.041224	205.9	19.0	-92.2	1.6
2025-01-30 19:16:14.195515	206.0	19.1	-92.0	5.6
2025-01-30 19:16:15.345441	206.2	19.3	-92.1	4.1
2025-01-30 19:16:16.493951	206.3	19.4	-92.4	8.1
2025-01-30 19:16:17.654245	206.5	19.5	-92.4	6.9
2025-01-30 19:16:18.806378	206.7	19.6	-92.5	4.9
2025-01-30 19:16:19.960920	206.8	19.8	-92.7	7.1
2025-01-30 19:16:21.123944	207.0	19.9	-92.6	7.6
2025-01-30 19:16:22.277721	207.2	20.0	-92.3	5.6
2025-01-30 19:16:23.436307	207.3	20.1	-92.1	4.8
2025-01-30 19:16:24.584539	207.5	20.2	-92.3	7.1
2025-01-30 19:16:25.742513	207.7	20.4	-92.3	4.9
2025-01-30 19:16:26.899315	207.8	20.5	-92.3	2.6
2025-01-30 19:16:28.061683	208.0	20.6	-92.4	2.8
2025-01-30 19:16:29.214706	208.2	20.7	-92.3	0.6
2025-01-30 19:16:30.376217	208.3	20.9	-92.4	1.3
2025-01-30 19:16:31.530340	208.5	21.0	-92.2	5.3
2025-01-30 19:16:32.689305	208.7	21.1	-92.6	7.3
2025-01-30 19:16:33.847629	208.9	21.2	-92.8	9.3
2025-01-30 19:16:35.003706	209.1	21.4	-92.5	8.4
2025-01-30 19:16:36.156600	209.2	21.5	-92.3	7.8
2025-01-30 19:16:37.309373	209.4	21.6	-92.7	4.7
2025-01-30 19:16:38.470661	209.6	21.8	-92.7	8.7
2025-01-30 19:16:39.623618	209.8	21.9	-92.2	8.2
2025-01-30 19:16:40.773034	210.0	22.0	-92.5	7.9
2025-01-30 19:16:41.927433	210.2	22.1	-92.5	12.6
2025-01-30 19:16:43.053591	210.3	22.3	-92.4	11.0
2025-01-30 19:16:44.177676	210.5	22.4	-92.2	9.6
2025-01-30 19:16:45.298325	210.7	22.5	-92.4	6.4
2025-01-30 19:16:46.419948	210.9	22.6	-92.2	3.5
2025-01-30 19:16:47.540443	211.1	22.8	-92.3	4.5
2025-01-30 19:16:48.661729	211.3	22.9	-92.3	3.3
2025-01-30 19:16:49.782302	211.5	23.0	-92.4	4.7
2025-01-30 19:16:50.904014	211.7	23.1	-92.6	7.3
2025-01-30 19:16:52.026581	211.9	23.3	-92.2	9.8
2025-01-30 19:16:53.147938	212.1	23.4	-92.4	12.5
2025-01-30 19:16:54.305780	212.3	23.5	-92.0	10.1
2025-01-30 19:16:55.447949	212.5	23.7	-92.3	9.8
2025-01-30 19:16:56.594362	212.7	23.8	-92.5	10.3
2025-01-30 19:16:57.747423	212.9	23.9	-92.1	5.4
2025-01-30 19:16:58.904280	213.1	24.1	-92.1	10.1
2025-01-30 19:17:00.063961	213.3	24.2	-92.2	10.7
2025-01-30 19:17:01.210758	213.5	24.3	-91.9	12.3
2025-01-30 19:17:02.369942	213.7	24.5	-92.2	12.7
2025-01-30 19:17:03.525111	214.0	24.6	-92.1	8.7
2025-01-30 19:17:04.678303	214.2	24.7	-92.3	4.8
2025-01-30 19:17:05.848530	214.4	24.9	-92.4	4.2
2025-01-30 19:17:07.004756	214.6	25.0	-92.5	3.9
2025-01-30 19:17:08.148962	214.9	25.1	-92.2	3.8
2025-01-30 19:17:09.272627	215.1	25.3	-92.2	2.2
2025-01-30 19:17:10.432273	215.3	25.4	-92.2	5.0
2025-01-30 19:17:11.572632	215.5	25.5	-92.1	6.4
2025-01-30 19:17:12.718464	215.8	25.7	-92.6	8.1
2025-01-30 19:17:13.862908	216.0	25.8	-92.9	10.1
2025-01-30 19:17:15.017288	216.2	25.9	-92.6	9.4
2025-01-30 19:17:16.173312	216.5	26.1	-92.4	6.3
2025-01-30 19:17:17.323964	216.7	26.2	-92.5	3.6
2025-01-30 19:17:18.483295	217.0	26.4	-92.5	6.2
2025-01-30 19:17:19.635644	217.2	26.5	-92.6	7.0
2025-01-30 19:17:20.797332	217.5	26.6	-92.5	5.4
2025-01-30 19:17:21.948848	217.7	26.8	-92.8	5.6
2025-01-30 19:17:23.106140	218.0	26.9	-92.7	6.6
2025-01-30 19:17:24.271288	218.2	27.0	-92.6	2.4
2025-01-30 19:17:25.431948	218.5	27.2	-92.8	3.2
2025-01-30 19:17:26.587241	218.7	27.3	-92.5	2.5
2025-01-30 19:17:27.750132	219.0	27.5	-92.9	2.5
2025-01-30 19:17:28.905120	219.2	27.6	-93.0	2.8
2025-01-30 19:17:30.066847	219.5	27.7	-92.7	3.4
2025-01-30 19:17:31.228865	219.8	27.9	-92.4	2.8
2025-01-30 19:17:32.375836	220.1	28.0	-92.5	5.1
2025-01-30 19:17:33.534782	220.3	28.1	-92.3	5.3
2025-01-30 19:17:34.696383	220.6	28.3	-92.6	3.4
2025-01-30 19:17:35.850160	220.9	28.4	-92.7	4.1
2025-01-30 19:17:37.004953	221.2	28.6	-92.5	4.8
2025-01-30 19:17:38.157098	221.4	28.7	-92.4	3.4
2025-01-30 19:17:39.318236	221.7	28.8	-92.5	3.9
2025-01-30 19:17:40.473122	222.0	29.0	-92.5	4.6
2025-01-30 19:17:41.630044	222.3	29.1	-92.8	5.1
2025-01-30 19:17:42.777927	222.6	29.2	-92.9	1.7
2025-01-30 19:17:43.933752	222.9	29.4	-92.9	7.0
2025-01-30 19:17:45.084842	223.2	29.5	-92.2	4.9
2025-01-30 19:17:46.242852	223.5	29.7	-92.1	5.6
2025-01-30 19:17:47.404788	223.8	29.8	-92.4	7.5
2025-01-30 19:17:48.564685	224.1	29.9	-92.7	5.4
2025-01-30 19:17:49.718516	224.4	30.1	-92.4	3.1
2025-01-30 19:17:50.872692	224.7	30.2	-92.4	3.3
2025-01-30 19:17:52.034678	225.0	30.3	-92.6	3.5
2025-01-30 19:17:53.190533	225.3	30.5	-92.4	2.1
2025-01-30 19:17:54.341163	225.6	30.6	-92.6	4.6
2025-01-30 19:17:55.499096	225.9	30.7	-92.8	9.3
2025-01-30 19:17:56.654362	226.3	30.9	-92.6	13.0
2025-01-30 19:17:57.810491	226.6	31.0	-92.6	15.2
2025-01-30 19:17:58.970628	226.9	31.1	-92.6	16.4
2025-01-30 19:18:00.133395	227.2	31.3	-92.3	14.1
2025-01-30 19:18:01.291334	227.6	31.4	-92.4	12.7
2025-01-30 19:18:02.445088	227.9	31.5	-92.8	14.1
2025-01-30 19:18:03.603229	228.2	31.7	-92.7	15.0
2025-01-30 19:18:04.765084	228.6	31.8	-92.4	8.3
2025-01-30 19:18:05.916563	228.9	31.9	-92.7	13.3
2025-01-30 19:18:07.076274	229.3	32.1	-92.5	15.4
2025-01-30 19:18:08.229105	229.6	32.2	-92.1	15.3
2025-01-30 19:18:09.380211	230.0	32.3	-92.5	18.0
2025-01-30 19:18:10.538881	230.3	32.5	-92.5	18.0
2025-01-30 19:18:11.702139	230.7	32.6	-92.2	15.2
2025-01-30 19:18:12.854217	231.0	32.7	-92.6	14.3
2025-01-30 19:18:14.017757	231.4	32.8	-92.1	11.1
2025-01-30 19:18:15.174156	231.7	33.0	-91.8	6.3
2025-01-30 19:18:16.331734	232.1	33.1	-92.0	4.5
2025-01-30 19:18:17.482191	232.5	33.2	-92.2	5.9
2025-01-30 19:18:18.635615	232.8	33.3	-92.7	7.2
2025-01-30 19:18:19.791052	233.2	33.5	-92.8	6.2
2025-01-30 19:18:20.958323	233.6	33.6	-92.6	10.2
2025-01-30 19:18:22.112304	234.0	33.7	-93.0	12.5
2025-01-30 19:18:23.266769	234.4	33.8	-92.2	12.4
2025-01-30 19:18:24.442595	234.8	33.9	-92.6	16.1
2025-01-30 19:18:25.597287	235.1	34.1	-92.8	17.3
2025-01-30 19:18:26.756476	235.5	34.2	-92.6	16.3
2025-01-30 19:18:27.914700	235.9	34.3	-92.6	14.2
2025-01-30 19:18:29.065882	236.3	34.4	-92.9	13.7
2025-01-30 19:18:30.222996	236.7	34.5	-92.9	7.1
2025-01-30 19:18:31.377331	237.1	34.6	-92.5	7.6
2025-01-30 19:18:32.523861	237.5	34.8	-92.6	8.8
2025-01-30 19:18:33.674695	237.9	34.9	-92.8	6.2
2025-01-30 19:18:34.828273	238.3	35.0	-92.7	5.9
2025-01-30 19:18:35.981461	238.7	35.1	-93.0	10.9
2025-01-30 19:18:37.141747	239.2	35.2	-92.9	12.5
2025-01-30 19:18:38.305937	239.6	35.3	-92.7	11.5
2025-01-30 19:18:39.464536	240.0	35.4	-92.8	10.9
2025-01-30 19:18:40.617197	240.4	35.5	-92.8	8.4
2025-01-30 19:18:41.769195	240.9	35.6	-92.4	6.4
2025-01-30 19:18:42.926685	241.3	35.7	-92.2	4.2
2025-01-30 19:18:44.076172	241.7	35.8	-92.6	2.5
2025-01-30 19:18:45.231191	242.1	35.9	-92.4	2.7
2025-01-30 19:18:46.385707	242.6	36.0	-92.7	3.5
2025-01-30 19:18:47.541097	243.0	36.1	-92.6	0.5
2025-01-30 19:18:48.696430	243.5	36.2	-92.8	2.0
2025-01-30 19:18:49.858639	243.9	36.3	-92.9	2.5
2025-01-30 19:18:51.013975	244.3	36.4	-92.5	1.2
2025-01-30 19:18:52.174827	244.8	36.4	-92.7	3.4
2025-01-30 19:18:53.329243	245.2	36.5	-92.8	4.9
2025-01-30 19:18:54.481844	245.7	36.6	-92.4	6.3
2025-01-30 19:18:55.636732	246.2	36.7	-92.3	8.5
2025-01-30 19:18:56.792655	246.6	36.8	-92.6	10.2
2025-01-30 19:18:57.948699	247.1	36.9	-92.4	13.2
2025-01-30 19:18:59.107138	247.5	36.9	-92.3	14.9
2025-01-30 19:19:00.260468	248.0	37.0	-92.5	13.2
2025-01-30 19:19:01.413869	248.5	37.1	-92.8	13.1
2025-01-30 19:19:02.572395	248.9	37.2	-92.8	9.3
2025-01-30 19:19:03.733177	249.4	37.2	-92.6	10.0
2025-01-30 19:19:04.890856	249.9	37.3	-92.8	8.7
2025-01-30 19:19:06.048713	250.3	37.4	-92.8	7.6
2025-01-30 19:19:07.202998	250.8	37.4	-92.8	5.1
2025-01-30 19:19:08.361265	251.3	37.5	-92.5	7.1
2025-01-30 19:19:09.514124	251.8	37.5	-92.8	8.5
2025-01-30 19:19:10.675157	252.3	37.6	-92.3	4.8
2025-01-30 19:19:11.821807	252.7	37.7	-92.7	7.3
2025-01-30 19:19:12.977859	253.2	37.7	-92.7	10.9
2025-01-30 19:19:14.136434	253.7	37.8	-92.6	10.6
2025-01-30 19:19:15.290763	254.2	37.8	-92.8	10.1
2025-01-30 19:19:16.446555	254.7	37.9	-92.8	11.9
2025-01-30 19:19:17.605307	255.2	37.9	-93.1	14.6
2025-01-30 19:19:18.758554	255.7	37.9	-92.2	12.9
2025-01-30 19:19:19.911593	256.1	38.0	-92.2	14.1
2025-01-30 19:19:21.071930	256.6	38.0	-92.0	12.2
2025-01-30 19:19:22.221765	257.1	38.0	-92.0	9.7
2025-01-30 19:19:23.383384	257.6	38.1	-92.3	10.9
2025-01-30 19:19:24.539644	258.1	38.1	-92.5	10.0
2025-01-30 19:19:25.701397	258.6	38.1	-92.6	6.6
2025-01-30 19:19:26.855141	259.1	38.2	-92.6	4.9
2025-01-30 19:19:28.013299	259.6	38.2	-92.6	5.0
2025-01-30 19:19:29.168184	260.1	38.2	-92.6	2.9
2025-01-30 19:19:30.331090	260.6	38.2	-92.5	1.5
2025-01-30 19:19:31.483390	261.1	38.2	-92.7	1.8
2025-01-30 19:19:32.641737	261.6	38.3	-92.7	1.3
2025-01-30 19:19:33.791436	262.1	38.3	-92.9	1.4
2025-01-30 19:19:34.947185	262.6	38.3	-92.6	2.6
2025-01-30 19:19:36.106855	263.1	38.3	-92.7	1.1
2025-01-30 19:19:37.265773	263.6	38.3	-92.4	0.9
2025-01-30 19:19:38.426672	264.1	38.3	-92.7	1.6
2025-01-30 19:19:39.585857	264.6	38.3	-93.0	7.2
2025-01-30 19:19:40.742145	265.1	38.3	-92.6	2.3
2025-01-30 19:19:41.894639	265.6	38.3	-92.5	3.1
2025-01-30 19:19:43.059186	266.1	38.3	-92.6	3.0
2025-01-30 19:19:44.214001	266.6	38.3	-92.3	1.6
2025-01-30 19:19:45.374522	267.1	38.2	-92.2	4.4
2025-01-30 19:19:46.531502	267.6	38.2	-92.3	1.7
2025-01-30 19:19:47.689737	268.1	38.2	-92.4	2.8
2025-01-30 19:19:48.844567	268.6	38.2	-92.5	3.0
2025-01-30 19:19:50.000523	269.1	38.2	-92.5	7.6
2025-01-30 19:19:51.160624	269.6	38.1	-92.5	8.5
2025-01-30 19:19:52.318496	270.1	38.1	-92.4	7.3
2025-01-30 19:19:53.468069	270.6	38.1	-92.8	11.7
2025-01-30 19:19:54.618143	271.1	38.1	-92.3	12.3
2025-01-30 19:19:55.777087	271.6	38.0	-92.5	6.0
2025-01-30 19:19:56.930643	272.1	38.0	-92.5	7.4
2025-01-30 19:19:58.088629	272.6	37.9	-92.0	12.8
2025-01-30 19:19:59.243547	273.1	37.9	-92.1	9.5
2025-01-30 19:20:00.398293	273.5	37.9	-92.5	15.7
2025-01-30 19:20:01.560280	274.0	37.8	-92.5	14.7
2025-01-30 19:20:02.720177	274.5	37.8	-92.4	17.7
2025-01-30 19:20:03.880885	275.0	37.7	-92.5	12.1
2025-01-30 19:20:05.046429	275.5	37.7	-92.7	3.4
2025-01-30 19:20:06.205195	276.0	37.6	-92.7	10.5
2025-01-30 19:20:07.376629	276.5	37.5	-92.7	16.8
2025-01-30 19:20:08.537945	276.9	37.5	-92.5	15.2
2025-01-30 19:20:09.692597	277.4	37.4	-92.8	10.9
2025-01-30 19:20:10.846769	277.9	37.4	-92.8	9.1
2025-01-30 19:20:12.005966	278.4	37.3	-92.7	13.4
2025-01-30 19:20:13.161802	278.8	37.2	-92.3	11.6
2025-01-30 19:20:14.323093	279.3	37.2	-92.3	16.6
2025-01-30 19:20:15.475177	279.8	37.1	-92.8	12.0
2025-01-30 19:20:16.626633	280.2	37.0	-92.8	8.4
2025-01-30 19:20:17.782976	280.7	37.0	-93.2	6.9
2025-01-30 19:20:18.939325	281.2	36.9	-92.8	13.5
2025-01-30 19:20:20.095161	281.6	36.8	-92.9	14.5
2025-01-30 19:20:21.254851	282.1	36.7	-92.7	7.0
2025-01-30 19:20:22.409760	282.5	36.6	-92.4	14.6
2025-01-30 19:20:23.567304	283.0	36.6	-92.2	9.9
2025-01-30 19:20:24.718024	283.4	36.5	-92.4	6.7
2025-01-30 19:20:25.868814	283.9	36.4	-91.7	6.0
2025-01-30 19:20:27.016580	284.3	36.3	-92.7	7.1
2025-01-30 19:20:28.178990	284.8	36.2	-92.6	5.0
2025-01-30 19:20:29.326185	285.2	36.1	-92.6	6.9
2025-01-30 19:20:30.487243	285.6	36.0	-92.9	9.3
2025-01-30 19:20:31.637122	286.1	35.9	-92.6	11.9
2025-01-30 19:20:32.795939	286.5	35.8	-92.8	4.6
2025-01-30 19:20:33.956258	286.9	35.7	-92.6	4.0
2025-01-30 19:20:35.103544	287.3	35.6	-92.4	4.7
2025-01-30 19:20:36.256921	287.8	35.5	-92.4	2.9
2025-01-30 19:20:37.414599	288.2	35.4	-92.5	7.6
2025-01-30 19:20:38.580652	288.6	35.3	-92.5	7.1
2025-01-30 19:20:39.726944	289.0	35.2	-92.6	4.0
2025-01-30 19:20:40.886425	289.4	35.1	-92.9	4.7
2025-01-30 19:20:42.046169	289.9	35.0	-92.6	9.1
2025-01-30 19:20:43.187978	290.3	34.9	-92.5	5.0
2025-01-30 19:20:44.342249	290.7	34.8	-91.9	13.4
2025-01-30 19:20:45.506376	291.1	34.7	-92.2	5.5
2025-01-30 19:20:46.663837	291.5	34.6	-92.5	5.4
2025-01-30 19:20:47.819154	291.9	34.4	-92.8	3.5
2025-01-30 19:20:48.967136	292.3	34.3	-92.3	7.6
2025-01-30 19:20:50.119263	292.7	34.2	-92.3	3.4
2025-01-30 19:20:51.268157	293.0	34.1	-92.9	4.2
2025-01-30 19:20:52.434081	293.4	34.0	-92.6	3.5
2025-01-30 19:20:53.589592	293.8	33.9	-92.8	1.7
2025-01-30 19:20:54.744403	294.2	33.7	-92.4	6.0
2025-01-30 19:20:55.905107	294.6	33.6	-92.6	4.4
2025-01-30 19:20:57.062884	294.9	33.5	-92.5	8.2
2025-01-30 19:20:58.213086	295.3	33.4	-92.0	4.2
2025-01-30 19:20:59.371346	295.7	33.3	-92.7	4.7
2025-01-30 19:21:00.525378	296.1	33.1	-92.5	3.9
2025-01-30 19:21:01.684436	296.4	33.0	-92.4	0.7
2025-01-30 19:21:02.840936	296.8	32.9	-92.5	3.3
2025-01-30 19:21:03.998841	297.1	32.8	-92.5	4.2
2025-01-30 19:21:05.159421	297.5	32.6	-92.1	1.9
2025-01-30 19:21:06.309710	297.9	32.5	-92.3	2.8
2025-01-30 19:21:07.464149	298.2	32.4	-92.5	1.8
2025-01-30 19:21:08.621838	298.6	32.3	-92.8	3.3
2025-01-30 19:21:09.780313	298.9	32.1	-92.5	3.9
2025-01-30 19:21:10.939096	299.2	32.0	-92.6	2.7
2025-01-30 19:21:12.109708	299.6	31.9	-92.5	4.4
2025-01-30 19:21:13.269099	299.9	31.7	-92.3	0.9
2025-01-30 19:21:14.424194	300.3	31.6	-92.6	5.4
2025-01-30 19:21:15.581169	300.6	31.5	-92.5	10.6
2025-01-30 19:21:16.739042	300.9	31.3	-92.7	6.4
2025-01-30 19:21:17.895814	301.3	31.2	-92.8	5.9
2025-01-30 19:21:19.044929	301.6	31.1	-92.1	10.9
2025-01-30 19:21:20.203515	301.9	30.9	-92.1	4.8
2025-01-30 19:21:21.355940	302.2	30.8	-92.7	10.0
2025-01-30 19:21:22.513101	302.5	30.7	-92.5	10.1
2025-01-30 19:21:23.668310	302.8	30.5	-92.3	9.1
2025-01-30 19:21:24.823734	303.2	30.4	-92.9	6.8
2025-01-30 19:21:25.987662	303.5	30.3	-92.9	11.1
2025-01-30 19:21:27.146912	303.8	30.1	-92.5	6.0
2025-01-30 19:21:28.309206	304.1	30.0	-92.1	11.1
2025-01-30 19:21:29.459374	304.4	29.9	-92.8	8.0
2025-01-30 19:21:30.616020	304.7	29.7	-92.6	3.5
2025-01-30 19:21:31.766741	305.0	29.6	-92.7	6.4
2025-01-30 19:21:32.911774	305.3	29.5	-92.3	14.3
2025-01-30 19:21:34.032531	305.5	29.3	-92.4	9.6
2025-01-30 19:21:35.152828	305.8	29.2	-92.3	9.8
2025-01-30 19:21:36.274096	306.1	29.1	-92.2	2.9
2025-01-30 19:21:37.395714	306.4	28.9	-92.8	0.8
2025-01-30 19:21:38.517023	306.7	28.8	-92.4	5.4
2025-01-30 19:21:39.638872	306.9	28.7	-92.4	3.2
2025-01-30 19:21:40.760347	307.2	28.5	-92.7	1.7
2025-01-30 19:21:41.881035	307.5	28.4	-92.5	2.5
2025-01-30 19:21:43.002774	307.7	28.3	-92.9	5.4
2025-01-30 19:21:44.124984	308.0	28.1	-92.4	5.9
2025-01-30 19:21:45.284035	308.3	28.0	-92.6	3.2
2025-01-30 19:21:46.432138	308.5	27.9	-92.6	8.1
2025-01-30 19:21:47.584850	308.8	27.7	-92.6	11.2
2025-01-30 19:21:48.733617	309.1	27.6	-92.7	6.0
2025-01-30 19:21:49.905522	309.3	27.5	-92.1	14.3
2025-01-30 19:21:51.058744	309.6	27.3	-92.5	11.5
2025-01-30 19:21:52.213651	309.8	27.2	-92.6	9.0
2025-01-30 19:21:53.368852	310.1	27.0	-92.5	12.8
2025-01-30 19:21:54.518465	310.3	26.9	-92.8	10.7
2025-01-30 19:21:55.671323	310.6	26.8	-92.2	4.7
2025-01-30 19:21:56.830765	310.8	26.6	-92.4	5.6
2025-01-30 19:21:57.982066	311.1	26.5	-92.5	11.3
2025-01-30 19:21:59.144894	311.3	26.4	-92.2	7.4
2025-01-30 19:22:00.295396	311.6	26.2	-92.4	6.3
2025-01-30 19:22:01.453203	311.8	26.1	-92.5	9.0
2025-01-30 19:22:02.610859	312.0	26.0	-92.6	6.7
2025-01-30 19:22:03.767843	312.3	25.8	-92.3	4.0
2025-01-30 19:22:04.916469	312.5	25.7	-92.6	6.8
2025-01-30 19:22:06.068864	312.7	25.6	-92.5	5.0
2025-01-30 19:22:07.222760	313.0	25.4	-92.4	4.1
2025-01-30 19:22:08.373207	313.2	25.3	-92.3	4.0
2025-01-30 19:22:09.532860	313.4	25.2	-92.4	3.8
2025-01-30 19:22:10.684347	313.6	25.0	-92.6	6.3
2025-01-30 19:22:11.836292	313.9	24.9	-92.8	6.1
2025-01-30 19:22:12.988035	314.1	24.8	-92.7	6.7
2025-01-30 19:22:14.138251	314.3	24.6	-92.2	10.5
2025-01-30 19:22:15.299204	314.5	24.5	-92.7	7.1
2025-01-30 19:22:16.448968	314.7	24.4	-92.7	8.0
2025-01-30 19:22:17.605688	314.9	24.2	-92.6	8.1
2025-01-30 19:22:18.759965	315.2	24.1	-92.7	7.4
2025-01-30 19:22:19.918304	315.4	24.0	-92.9	6.0
2025-01-30 19:22:21.073448	315.6	23.8	-92.6	4.2
2025-01-30 19:22:22.229323	315.8	23.7	-92.6	2.2
2025-01-30 19:22:23.384989	316.0	23.6	-92.3	4.0
2025-01-30 19:22:24.534312	316.2	23.4	-92.5	5.4
2025-01-30 19:22:25.693019	316.4	23.3	-92.5	2.6
2025-01-30 19:22:26.843465	316.6	23.2	-92.7	1.8
2025-01-30 19:22:27.997604	316.8	23.1	-92.9	2.9
2025-01-30 19:22:29.156022	317.0	22.9	-92.5	2.3
2025-01-30 19:22:30.308551	317.2	22.8	-92.7	1.6
2025-01-30 19:22:31.464207	317.4	22.7	-92.9	2.8
2025-01-30 19:22:32.622311	317.6	22.5	-92.5	4.9
2025-01-30 19:22:33.778680	317.8	22.4	-92.8	3.5
2025-01-30 19:22:34.931705	317.9	22.3	-92.5	2.9
2025-01-30 19:22:36.116646	318.1	22.2	-92.5	3.7
2025-01-30 19:22:37.265696	318.3	22.0	-92.4	4.6
2025-01-30 19:22:38.424786	318.5	21.9	-92.8	5.9
2025-01-30 19:22:39.584621	318.7	21.8	-92.8	6.6
2025-01-30 19:22:40.739355	318.9	21.6	-92.8	7.2
2025-01-30 19:22:41.896135	319.1	21.5	-92.7	4.0
2025-01-30 19:22:43.049719	319.2	21.4	-92.5	4.4
2025-01-30 19:22:44.195036	319.4	21.3	-92.1	2.1
2025-01-30 19:22:45.355500	319.6	21.1	-92.3	3.0
2025-01-30 19:22:46.513943	319.8	21.0	-92.5	1.4
2025-01-30 19:22:47.678423	319.9	20.9	-92.2	4.0
2025-01-30 19:22:48.830249	320.1	20.8	-92.5	3.9
2025-01-30 19:22:49.982526	320.3	20.7	-92.5	5.5
2025-01-30 19:22:51.146157	320.4	20.5	-92.3	0.9
2025-01-30 19:22:52.294037	320.6	20.4	-92.5	1.7
2025-01-30 19:22:53.447479	320.8	20.3	-92.2	1.0
2025-01-30 19:22:54.596972	320.9	20.2	-92.5	3.2
2025-01-30 19:22:55.751657	321.1	20.0	-92.5	1.3
2025-01-30 19:22:56.905687	321.3	19.9	-92.5	3.3
2025-01-30 19:22:58.069250	321.4	19.8	-92.6	2.0
2025-01-30 19:22:59.230713	321.6	19.7	-92.7	3.0
2025-01-30 19:23:00.386186	321.8	19.6	-92.5	4.5
2025-01-30 19:23:01.553405	321.9	19.4	-92.5	2.2
2025-01-30 19:23:02.697632	322.1	19.3	-92.7	2.1
2025-01-30 19:23:03.853043	322.2	19.2	-92.9	0.4
2025-01-30 19:23:05.010066	322.4	19.1	-92.7	3.4
2025-01-30 19:23:06.168290	322.5	19.0	-92.7	2.4
2025-01-30 19:23:07.328456	322.7	18.8	-92.6	2.0
2025-01-30 19:23:08.492466	322.8	18.7	-92.9	3.2
2025-01-30 19:23:09.646635	323.0	18.6	-92.9	3.1
2025-01-30 19:23:10.799897	323.1	18.5	-92.7	5.0
2025-01-30 19:23:11.958156	323.3	18.4	-92.7	3.0
2025-01-30 19:23:13.114099	323.4	18.3	-92.8	2.7
2025-01-30 19:23:14.267148	323.6	18.1	-92.4	1.4
2025-01-30 19:23:15.427483	323.7	18.0	-92.4	5.3
2025-01-30 19:23:16.579027	323.9	17.9	-92.6	1.9
2025-01-30 19:23:17.732835	324.0	17.8	-92.5	1.5
2025-01-30 19:23:18.881561	324.1	17.7	-92.6	1.0
2025-01-30 19:23:20.040404	324.3	17.6	-92.4	0.4
2025-01-30 19:23:21.197937	324.4	17.5	-93.0	0.7
2025-01-30 19:23:22.352957	324.6	17.3	-92.3	0.6
2025-01-30 19:23:23.524664	324.7	17.2	-92.8	1.6
2025-01-30 19:23:24.678726	324.8	17.1	-92.9	0.4
2025-01-30 19:23:25.834811	325.0	17.0	-92.9	1.6
2025-01-30 19:23:26.992283	325.1	16.9	-93.0	1.8
2025-01-30 19:23:28.140517	325.2	16.8	-92.6	1.5
2025-01-30 19:23:29.293466	325.4	16.7	-92.6	2.6
2025-01-30 19:23:30.453704	325.5	16.6	-92.5	2.4
2025-01-30 19:23:31.610336	325.6	16.5	-92.4	3.9
2025-01-30 19:23:32.775378	325.8	16.3	-92.6	3.4
2025-01-30 19:23:33.923431	325.9	16.2	-92.5	4.5
2025-01-30 19:23:35.073579	326.0	16.1	-92.7	4.4
2025-01-30 19:23:36.227927	326.2	16.0	-92.7	1.6
2025-01-30 19:23:37.387766	326.3	15.9	-92.8	4.3
2025-01-30 19:23:38.541496	326.4	15.8	-92.8	3.3
2025-01-30 19:23:39.697245	326.5	15.7	-92.8	1.7
2025-01-30 19:23:40.961057	326.7	15.6	-92.8	2.8
2025-01-30 19:23:42.122569	326.8	15.5	-92.7	2.2
2025-01-30 19:23:43.280659	326.9	15.4	-92.7	2.3
2025-01-30 19:23:44.437465	327.0	15.3	-92.6	8.2
2025-01-30 19:23:45.595691	327.2	15.2	-92.8	3.4
2025-01-30 19:23:46.761018	327.3	15.0	-92.3	3.1
2025-01-30 19:23:47.923604	327.4	14.9	-92.6	4.2
2025-01-30 19:23:49.087711	327.5	14.8	-92.3	3.9
2025-01-30 19:23:50.245029	327.6	14.7	-92.3	4.8
2025-01-30 19:23:51.402223	327.8	14.6	-92.5	3.4
2025-01-30 19:23:52.551988	327.9	14.5	-92.6	2.8
#Closed at: 2025-01-30 19:15:36.923938