passes_logs/2025/01/30/LEX_Murmansk/LEX_Murmansk__20250130_111719_NOAA_18_rec.log

#Pass ID: 20250130_111719_NOAA 18
#Satellite: NOAA 18
#Configuration: NOAA 18
#Start time: 2025-01-30 11:17:14.001006

#LorettStation: 1.0.0 05.05.2024
#Station: LEX_Murmansk
#Location: 33.156738 lon 68.926811 lat
#TLE: 1 28654U 05018A   25029.10768076  .00000445  00000+0  25948-3 0  9995
#TLE: 2 28654  98.8544 110.0207 0014928 140.4380 219.7885 14.13500636 15173

#Time	Az	El	Level	SNR
2025-01-30 11:17:26.241597	22.9	16.2	-89.2	3.9
2025-01-30 11:17:27.390570	22.8	16.4	-89.8	4.2
2025-01-30 11:17:28.547058	22.7	16.5	-89.8	4.1
2025-01-30 11:17:29.695497	22.7	16.6	-89.8	5.1
2025-01-30 11:17:30.847375	22.6	16.7	-89.5	3.8
2025-01-30 11:17:31.999652	22.5	16.9	-89.8	5.1
2025-01-30 11:17:33.147316	22.4	17.0	-89.4	4.1
2025-01-30 11:17:34.294053	22.3	17.1	-89.6	4.2
2025-01-30 11:17:35.441968	22.2	17.2	-89.9	5.5
2025-01-30 11:17:36.592935	22.1	17.4	-89.7	4.5
2025-01-30 11:17:37.741344	22.0	17.5	-89.9	7.4
2025-01-30 11:17:38.895554	22.0	17.6	-89.9	4.2
2025-01-30 11:17:40.045837	21.9	17.7	-90.1	4.0
2025-01-30 11:17:41.198455	21.8	17.9	-89.6	6.4
2025-01-30 11:17:42.344214	21.7	18.0	-90.0	5.5
2025-01-30 11:17:43.494453	21.6	18.1	-90.1	4.9
2025-01-30 11:17:44.654952	21.5	18.2	-90.1	7.3
2025-01-30 11:17:45.810117	21.4	18.4	-90.0	9.5
2025-01-30 11:17:46.963602	21.3	18.5	-89.9	10.5
2025-01-30 11:17:48.109848	21.2	18.6	-89.1	9.8
2025-01-30 11:17:49.269344	21.1	18.8	-89.5	12.9
2025-01-30 11:17:50.421752	21.0	18.9	-89.4	7.2
2025-01-30 11:17:51.571161	20.9	19.0	-89.6	8.7
2025-01-30 11:17:52.718386	20.8	19.2	-89.6	12.7
2025-01-30 11:17:53.875972	20.7	19.3	-89.8	11.6
2025-01-30 11:17:55.024923	20.6	19.4	-89.3	9.2
2025-01-30 11:17:56.175477	20.5	19.6	-89.5	9.7
2025-01-30 11:17:57.323187	20.4	19.7	-89.8	8.2
2025-01-30 11:17:58.475995	20.3	19.8	-89.6	5.4
2025-01-30 11:17:59.628060	20.2	20.0	-89.3	8.0
2025-01-30 11:18:00.775863	20.1	20.1	-89.4	8.3
2025-01-30 11:18:01.923875	20.0	20.2	-89.5	5.9
2025-01-30 11:18:03.083422	19.8	20.4	-89.7	6.7
2025-01-30 11:18:04.233548	19.7	20.5	-89.7	9.0
2025-01-30 11:18:05.381939	19.6	20.7	-89.6	7.3
2025-01-30 11:18:06.529967	19.5	20.8	-89.8	8.0
2025-01-30 11:18:07.695135	19.4	20.9	-89.6	6.0
2025-01-30 11:18:08.842672	19.3	21.1	-89.6	8.0
2025-01-30 11:18:09.989709	19.2	21.2	-89.4	9.5
2025-01-30 11:18:11.140479	19.0	21.4	-89.5	10.3
2025-01-30 11:18:12.289795	18.9	21.5	-89.4	8.8
2025-01-30 11:18:13.444599	18.8	21.7	-89.7	7.9
2025-01-30 11:18:14.592405	18.7	21.8	-89.8	8.1
2025-01-30 11:18:15.735256	18.6	22.0	-89.5	11.1
2025-01-30 11:18:16.887210	18.4	22.1	-89.2	6.1
2025-01-30 11:18:18.034762	18.3	22.2	-89.5	6.9
2025-01-30 11:18:19.184554	18.2	22.4	-89.1	8.1
2025-01-30 11:18:20.336743	18.1	22.5	-89.6	8.8
2025-01-30 11:18:21.484902	17.9	22.7	-90.2	10.5
2025-01-30 11:18:22.632666	17.8	22.8	-90.1	9.6
2025-01-30 11:18:23.785684	17.7	23.0	-89.7	11.0
2025-01-30 11:18:24.937577	17.5	23.1	-90.0	10.6
2025-01-30 11:18:26.091458	17.4	23.3	-89.5	10.9
2025-01-30 11:18:27.244364	17.3	23.5	-89.6	8.8
2025-01-30 11:18:28.394263	17.1	23.6	-89.8	10.0
2025-01-30 11:18:29.544572	17.0	23.8	-89.7	9.0
2025-01-30 11:18:30.707798	16.9	23.9	-89.5	8.0
2025-01-30 11:18:31.859580	16.7	24.1	-88.9	7.3
2025-01-30 11:18:33.008548	16.6	24.2	-89.3	5.2
2025-01-30 11:18:34.176809	16.4	24.4	-89.4	7.6
2025-01-30 11:18:35.331445	16.3	24.5	-89.0	7.8
2025-01-30 11:18:36.482728	16.1	24.7	-89.5	8.7
2025-01-30 11:18:37.636181	16.0	24.9	-89.4	9.6
2025-01-30 11:18:38.793496	15.8	25.0	-89.8	10.3
2025-01-30 11:18:39.940364	15.7	25.2	-89.5	10.4
2025-01-30 11:18:41.091395	15.5	25.4	-89.6	9.9
2025-01-30 11:18:42.237488	15.4	25.5	-89.4	8.4
2025-01-30 11:18:43.387453	15.2	25.7	-89.2	8.3
2025-01-30 11:18:44.530613	15.1	25.8	-89.3	9.5
2025-01-30 11:18:45.681425	14.9	26.0	-89.3	9.6
2025-01-30 11:18:46.832115	14.7	26.2	-89.3	9.1
2025-01-30 11:18:47.983921	14.6	26.3	-89.7	8.9
2025-01-30 11:18:49.135405	14.4	26.5	-89.6	9.8
2025-01-30 11:18:50.280908	14.3	26.7	-89.4	7.7
2025-01-30 11:18:51.433876	14.1	26.8	-89.5	5.3
2025-01-30 11:18:52.586757	13.9	27.0	-89.6	7.3
2025-01-30 11:18:53.738252	13.7	27.2	-89.4	9.3
2025-01-30 11:18:54.891232	13.6	27.4	-89.6	8.2
2025-01-30 11:18:56.046225	13.4	27.5	-89.5	8.5
2025-01-30 11:18:57.200954	13.2	27.7	-89.3	6.9
2025-01-30 11:18:58.351547	13.0	27.9	-89.5	5.1
2025-01-30 11:18:59.500270	12.9	28.0	-89.3	6.6
2025-01-30 11:19:00.651040	12.7	28.2	-89.3	8.8
2025-01-30 11:19:01.798002	12.5	28.4	-89.5	10.0
2025-01-30 11:19:02.940141	12.3	28.6	-89.8	8.5
2025-01-30 11:19:04.091660	12.1	28.8	-89.3	7.5
2025-01-30 11:19:05.251015	11.9	28.9	-89.4	10.1
2025-01-30 11:19:06.406077	11.7	29.1	-89.5	8.1
2025-01-30 11:19:07.560485	11.5	29.3	-89.2	5.3
2025-01-30 11:19:08.705548	11.3	29.5	-89.5	8.9
2025-01-30 11:19:09.854989	11.1	29.7	-89.7	6.9
2025-01-30 11:19:11.007851	10.9	29.8	-89.2	6.2
2025-01-30 11:19:12.161574	10.7	30.0	-89.2	8.6
2025-01-30 11:19:13.305939	10.5	30.2	-89.3	9.2
2025-01-30 11:19:14.453573	10.3	30.4	-89.4	10.2
2025-01-30 11:19:15.612100	10.1	30.6	-89.6	10.1
2025-01-30 11:19:16.766641	9.9	30.8	-89.7	11.7
2025-01-30 11:19:17.914174	9.7	30.9	-89.2	9.6
2025-01-30 11:19:19.057045	9.4	31.1	-89.3	12.5
2025-01-30 11:19:20.211842	9.2	31.3	-89.6	14.5
2025-01-30 11:19:21.365309	9.0	31.5	-89.4	12.8
2025-01-30 11:19:22.517007	8.8	31.7	-89.2	13.6
2025-01-30 11:19:23.668669	8.5	31.9	-89.6	13.2
2025-01-30 11:19:24.825994	8.3	32.1	-89.5	10.6
2025-01-30 11:19:25.976247	8.1	32.3	-89.2	9.8
2025-01-30 11:19:27.130556	7.8	32.5	-88.5	10.2
2025-01-30 11:19:28.283662	7.6	32.6	-89.0	10.2
2025-01-30 11:19:29.427528	7.3	32.8	-88.6	6.3
2025-01-30 11:19:30.578683	7.1	33.0	-89.3	9.8
2025-01-30 11:19:31.726997	6.8	33.2	-89.2	12.5
2025-01-30 11:19:32.876835	6.6	33.4	-89.1	13.6
2025-01-30 11:19:34.030867	6.3	33.6	-89.2	14.8
2025-01-30 11:19:35.181098	6.1	33.8	-89.4	16.7
2025-01-30 11:19:36.335525	5.8	34.0	-89.4	15.8
2025-01-30 11:19:37.482769	5.5	34.2	-89.5	12.6
2025-01-30 11:19:38.633508	5.3	34.4	-89.5	15.6
2025-01-30 11:19:39.775037	5.0	34.6	-89.6	15.5
2025-01-30 11:19:40.921522	4.7	34.8	-89.4	12.3
2025-01-30 11:19:42.066833	4.4	35.0	-89.5	11.3
2025-01-30 11:19:43.218143	4.1	35.2	-89.7	12.7
2025-01-30 11:19:44.372107	3.9	35.4	-89.5	13.6
2025-01-30 11:19:45.517029	3.6	35.6	-89.8	11.6
2025-01-30 11:19:46.666263	3.3	35.8	-89.4	12.6
2025-01-30 11:19:47.818035	3.0	36.0	-89.4	10.9
2025-01-30 11:19:48.970687	2.7	36.2	-89.7	8.2
2025-01-30 11:19:50.119014	2.4	36.4	-89.7	13.1
2025-01-30 11:19:51.271007	2.1	36.6	-89.7	14.3
2025-01-30 11:19:52.420760	1.7	36.8	-89.5	8.3
2025-01-30 11:19:53.569305	1.4	37.0	-89.7	11.5
2025-01-30 11:19:54.733978	1.1	37.2	-89.7	14.8
2025-01-30 11:19:55.885242	0.8	37.4	-89.5	14.8
2025-01-30 11:19:57.031281	0.4	37.6	-89.5	16.8
2025-01-30 11:19:58.181437	0.1	37.8	-89.7	17.6
2025-01-30 11:19:59.331430	359.8	38.0	-89.7	14.3
2025-01-30 11:20:00.480051	359.4	38.2	-90.0	11.1
2025-01-30 11:20:01.631506	359.1	38.4	-89.8	15.9
2025-01-30 11:20:02.782847	358.7	38.6	-89.9	16.2
2025-01-30 11:20:03.929024	358.4	38.8	-89.5	15.8
2025-01-30 11:20:05.078020	358.0	39.0	-90.0	16.9
2025-01-30 11:20:06.223519	357.7	39.2	-90.2	19.1
2025-01-30 11:20:07.371560	357.3	39.5	-89.9	17.2
2025-01-30 11:20:08.531190	356.9	39.7	-90.1	16.7
2025-01-30 11:20:09.678199	356.5	39.9	-90.4	15.1
2025-01-30 11:20:10.820788	356.2	40.1	-90.2	14.1
2025-01-30 11:20:11.958874	355.8	40.3	-90.3	9.7
2025-01-30 11:20:13.101404	355.4	40.5	-89.9	12.5
2025-01-30 11:20:14.250142	355.0	40.7	-90.0	15.7
2025-01-30 11:20:15.394147	354.6	40.9	-90.2	10.7
2025-01-30 11:20:16.546751	354.2	41.1	-90.3	13.4
2025-01-30 11:20:17.696570	353.8	41.3	-89.9	17.6
2025-01-30 11:20:18.845657	353.3	41.5	-90.2	15.4
2025-01-30 11:20:19.996908	352.9	41.7	-90.2	18.9
2025-01-30 11:20:21.150300	352.5	41.9	-90.1	18.2
2025-01-30 11:20:22.302888	352.0	42.1	-90.0	19.1
2025-01-30 11:20:23.455454	351.6	42.2	-89.9	15.7
2025-01-30 11:20:24.608549	351.2	42.4	-90.0	18.1
2025-01-30 11:20:25.755681	350.7	42.6	-90.4	19.5
2025-01-30 11:20:26.904281	350.3	42.8	-90.4	12.1
2025-01-30 11:20:28.052858	349.8	43.0	-90.1	15.1
2025-01-30 11:20:29.196572	349.3	43.2	-89.9	17.8
2025-01-30 11:20:30.354015	348.9	43.4	-90.2	17.2
2025-01-30 11:20:31.509946	348.4	43.6	-90.3	18.6
2025-01-30 11:20:32.661275	347.9	43.8	-90.5	17.5
2025-01-30 11:20:33.800597	347.4	44.0	-90.2	16.6
2025-01-30 11:20:34.950449	346.9	44.1	-90.5	16.4
2025-01-30 11:20:36.102533	346.4	44.3	-90.4	16.2
2025-01-30 11:20:37.249685	345.9	44.5	-90.0	18.2
2025-01-30 11:20:38.404023	345.4	44.7	-89.7	11.2
2025-01-30 11:20:39.554127	344.9	44.9	-90.2	11.1
2025-01-30 11:20:40.706326	344.3	45.0	-90.2	17.1
2025-01-30 11:20:41.856127	343.8	45.2	-90.0	9.0
2025-01-30 11:20:43.003359	343.3	45.4	-90.3	9.4
2025-01-30 11:20:44.155328	342.7	45.6	-89.9	16.5
2025-01-30 11:20:45.300432	342.2	45.7	-90.1	14.5
2025-01-30 11:20:46.459399	341.6	45.9	-90.4	12.4
2025-01-30 11:20:47.612576	341.1	46.1	-90.3	16.2
2025-01-30 11:20:48.763872	340.5	46.2	-89.9	19.0
2025-01-30 11:20:49.912391	339.9	46.4	-90.0	19.1
2025-01-30 11:20:51.059398	339.3	46.5	-90.3	18.4
2025-01-30 11:20:52.205445	338.8	46.7	-89.8	17.3
2025-01-30 11:20:53.352369	338.2	46.8	-89.9	15.4
2025-01-30 11:20:54.510543	337.6	47.0	-90.1	13.1
2025-01-30 11:20:55.667259	337.0	47.1	-90.1	18.4
2025-01-30 11:20:56.821145	336.4	47.3	-90.1	13.4
2025-01-30 11:20:57.973689	335.8	47.4	-90.1	11.8
2025-01-30 11:20:59.121777	335.1	47.5	-90.2	15.5
2025-01-30 11:21:00.264777	334.5	47.7	-90.1	13.7
2025-01-30 11:21:01.412974	333.9	47.8	-90.5	9.8
2025-01-30 11:21:02.555708	333.3	47.9	-90.0	11.3
2025-01-30 11:21:03.700971	332.6	48.0	-90.1	11.8
2025-01-30 11:21:04.848001	332.0	48.2	-90.4	14.9
2025-01-30 11:21:06.000242	331.3	48.3	-89.7	17.0
2025-01-30 11:21:07.159335	330.7	48.4	-90.0	16.0
2025-01-30 11:21:08.314216	330.0	48.5	-90.0	17.2
2025-01-30 11:21:09.461669	329.4	48.6	-90.3	14.5
2025-01-30 11:21:10.619197	328.7	48.7	-89.9	14.1
2025-01-30 11:21:11.771179	328.0	48.8	-90.2	13.0
2025-01-30 11:21:12.922278	327.4	48.9	-89.9	8.0
2025-01-30 11:21:14.076155	326.7	49.0	-90.1	6.5
2025-01-30 11:21:15.229894	326.0	49.0	-89.8	12.5
2025-01-30 11:21:16.383680	325.3	49.1	-89.9	8.2
2025-01-30 11:21:17.533089	324.6	49.2	-89.4	7.3
2025-01-30 11:21:18.679232	323.9	49.3	-89.5	11.4
2025-01-30 11:21:19.828361	323.2	49.3	-89.2	7.4
2025-01-30 11:21:20.977126	322.5	49.4	-89.1	7.0
2025-01-30 11:21:22.123379	321.8	49.4	-90.0	12.4
2025-01-30 11:21:23.277885	321.1	49.5	-90.1	10.7
2025-01-30 11:21:24.421939	320.4	49.5	-89.9	5.9
2025-01-30 11:21:25.575908	319.7	49.6	-90.1	7.5
2025-01-30 11:21:26.727714	319.0	49.6	-90.3	13.6
2025-01-30 11:21:27.886392	318.3	49.7	-90.3	10.4
2025-01-30 11:21:29.036776	317.6	49.7	-90.1	7.8
2025-01-30 11:21:30.190310	316.9	49.7	-90.3	3.8
2025-01-30 11:21:31.345546	316.2	49.7	-90.3	10.8
2025-01-30 11:21:32.495642	315.4	49.7	-90.3	9.6
2025-01-30 11:21:33.640817	314.7	49.7	-90.4	8.5
2025-01-30 11:21:34.791467	314.0	49.7	-89.6	11.4
2025-01-30 11:21:35.947283	313.3	49.7	-90.0	9.9
2025-01-30 11:21:37.100355	312.6	49.7	-90.0	11.8
2025-01-30 11:21:38.252764	311.9	49.7	-89.8	11.3
2025-01-30 11:21:39.403895	311.1	49.7	-90.4	12.1
2025-01-30 11:21:40.547308	310.4	49.7	-90.5	12.7
2025-01-30 11:21:41.697649	309.7	49.7	-90.0	11.4
2025-01-30 11:21:42.856633	309.0	49.6	-90.2	11.8
2025-01-30 11:21:44.009871	308.3	49.6	-90.2	9.4
2025-01-30 11:21:45.154475	307.6	49.6	-90.2	9.0
2025-01-30 11:21:46.307710	306.9	49.5	-90.2	12.6
2025-01-30 11:21:47.455510	306.2	49.5	-89.3	8.6
2025-01-30 11:21:48.617245	305.5	49.4	-89.6	12.4
2025-01-30 11:21:49.768167	304.8	49.4	-89.5	14.0
2025-01-30 11:21:50.919951	304.1	49.3	-89.7	11.5
2025-01-30 11:21:52.068519	303.4	49.2	-89.4	13.0
2025-01-30 11:21:53.216430	302.7	49.2	-89.0	12.8
2025-01-30 11:21:54.368230	302.0	49.1	-89.2	11.2
2025-01-30 11:21:55.512915	301.3	49.0	-90.5	9.0
2025-01-30 11:21:56.663397	300.6	48.9	-90.1	10.4
2025-01-30 11:21:57.813682	299.9	48.8	-90.4	11.1
2025-01-30 11:21:58.966110	299.3	48.8	-90.3	6.1
2025-01-30 11:22:00.109564	298.6	48.7	-90.5	10.6
2025-01-30 11:22:01.264553	297.9	48.6	-90.4	12.7
2025-01-30 11:22:02.413764	297.3	48.5	-90.2	10.4
2025-01-30 11:22:03.570479	296.6	48.3	-90.0	12.2
2025-01-30 11:22:04.721317	296.0	48.2	-90.2	13.6
2025-01-30 11:22:05.876395	295.3	48.1	-90.7	9.0
2025-01-30 11:22:07.030744	294.7	48.0	-90.3	6.5
2025-01-30 11:22:08.184782	294.0	47.9	-90.3	13.7
2025-01-30 11:22:09.346909	293.4	47.8	-90.3	9.6
2025-01-30 11:22:10.492081	292.8	47.6	-90.2	7.4
2025-01-30 11:22:11.637648	292.1	47.5	-90.4	14.3
2025-01-30 11:22:12.793848	291.5	47.4	-90.2	14.9
2025-01-30 11:22:13.957566	290.9	47.2	-90.3	8.8
2025-01-30 11:22:15.108944	290.3	47.1	-90.3	13.0
2025-01-30 11:22:16.266363	289.7	46.9	-90.1	14.2
2025-01-30 11:22:17.418962	289.1	46.8	-90.3	11.3
2025-01-30 11:22:18.564817	288.5	46.6	-90.0	11.5
2025-01-30 11:22:19.721533	287.9	46.5	-90.0	18.5
2025-01-30 11:22:20.862145	287.4	46.3	-90.7	10.7
2025-01-30 11:22:22.014758	286.8	46.2	-90.3	8.2
2025-01-30 11:22:23.168897	286.2	46.0	-90.1	16.1
2025-01-30 11:22:24.321940	285.7	45.8	-90.1	14.5
2025-01-30 11:22:25.464822	285.1	45.7	-90.5	10.0
2025-01-30 11:22:26.613237	284.6	45.5	-90.1	15.0
2025-01-30 11:22:27.764806	284.0	45.3	-89.8	17.6
2025-01-30 11:22:28.910196	283.5	45.2	-90.1	14.1
2025-01-30 11:22:30.060889	282.9	45.0	-90.2	13.4
2025-01-30 11:22:31.210280	282.4	44.8	-90.1	19.3
2025-01-30 11:22:32.355123	281.9	44.6	-89.8	12.2
2025-01-30 11:22:33.504901	281.4	44.5	-90.2	11.9
2025-01-30 11:22:34.652044	280.9	44.3	-90.2	17.9
2025-01-30 11:22:35.799822	280.4	44.1	-89.9	18.6
2025-01-30 11:22:36.956036	279.9	43.9	-90.1	14.0
2025-01-30 11:22:38.113571	279.4	43.7	-90.0	17.4
2025-01-30 11:22:39.259289	278.9	43.5	-90.1	18.4
2025-01-30 11:22:40.409362	278.4	43.3	-90.1	14.6
2025-01-30 11:22:41.560381	278.0	43.1	-90.0	14.9
2025-01-30 11:22:42.707061	277.5	43.0	-90.3	18.0
2025-01-30 11:22:43.863322	277.0	42.8	-90.1	17.4
2025-01-30 11:22:45.006986	276.6	42.6	-90.3	16.2
2025-01-30 11:22:46.160149	276.1	42.4	-89.9	17.9
2025-01-30 11:22:47.307566	275.7	42.2	-90.3	18.5
2025-01-30 11:22:48.467395	275.2	42.0	-90.3	19.2
2025-01-30 11:22:49.614378	274.8	41.8	-90.2	19.2
2025-01-30 11:22:50.763588	274.4	41.6	-89.7	20.0
2025-01-30 11:22:51.913637	274.0	41.4	-89.9	19.1
2025-01-30 11:22:53.062153	273.5	41.2	-90.2	19.5
2025-01-30 11:22:54.220427	273.1	41.0	-90.2	19.5
2025-01-30 11:22:55.363304	272.7	40.8	-89.3	18.7
2025-01-30 11:22:56.522578	272.3	40.6	-89.4	15.6
2025-01-30 11:22:57.673895	271.9	40.4	-89.0	16.6
2025-01-30 11:22:58.821472	271.5	40.2	-89.9	16.8
2025-01-30 11:22:59.969122	271.1	40.0	-90.0	14.5
2025-01-30 11:23:01.111456	270.7	39.8	-89.6	15.4
2025-01-30 11:23:02.268529	270.4	39.6	-90.1	16.0
2025-01-30 11:23:03.418101	270.0	39.4	-90.1	12.2
2025-01-30 11:23:04.569004	269.6	39.2	-90.1	12.0
2025-01-30 11:23:05.716081	269.3	38.9	-90.1	16.1
2025-01-30 11:23:06.870072	268.9	38.7	-90.0	8.7
2025-01-30 11:23:08.022230	268.5	38.5	-89.8	8.5
2025-01-30 11:23:09.171842	268.2	38.3	-90.1	13.7
2025-01-30 11:23:10.325738	267.8	38.1	-90.3	9.4
2025-01-30 11:23:11.476433	267.5	37.9	-90.3	7.5
2025-01-30 11:23:12.631466	267.2	37.7	-90.0	11.1
2025-01-30 11:23:13.784488	266.8	37.5	-90.4	8.5
2025-01-30 11:23:14.938974	266.5	37.3	-90.0	10.0
2025-01-30 11:23:16.083599	266.2	37.1	-90.1	11.5
2025-01-30 11:23:17.226983	265.9	36.9	-90.1	12.6
2025-01-30 11:23:18.374932	265.5	36.7	-90.2	9.0
2025-01-30 11:23:19.522732	265.2	36.5	-90.4	11.8
2025-01-30 11:23:20.671836	264.9	36.3	-90.3	11.8
2025-01-30 11:23:21.819691	264.6	36.1	-90.2	12.7
2025-01-30 11:23:22.971226	264.3	35.9	-90.3	13.3
2025-01-30 11:23:24.122066	264.0	35.7	-90.4	13.6
2025-01-30 11:23:25.278183	263.7	35.5	-90.0	13.7
2025-01-30 11:23:26.424574	263.4	35.3	-90.2	13.2
2025-01-30 11:23:27.572441	263.1	35.1	-90.2	14.5
2025-01-30 11:23:28.723571	262.9	34.9	-90.2	15.2
2025-01-30 11:23:29.868664	262.6	34.7	-90.3	11.4
2025-01-30 11:23:31.018754	262.3	34.5	-90.1	9.3
2025-01-30 11:23:32.170266	262.0	34.3	-90.2	18.0
2025-01-30 11:23:33.325007	261.8	34.1	-90.1	12.6
2025-01-30 11:23:34.469117	261.5	33.9	-90.5	9.8
2025-01-30 11:23:35.616430	261.2	33.7	-89.9	15.7
2025-01-30 11:23:36.765444	261.0	33.5	-90.1	16.6
2025-01-30 11:23:37.911842	260.7	33.3	-90.5	13.1
2025-01-30 11:23:39.063994	260.5	33.1	-89.7	13.5
2025-01-30 11:23:40.211419	260.2	32.9	-90.1	19.0
2025-01-30 11:23:41.356784	260.0	32.7	-90.1	16.1
2025-01-30 11:23:42.511099	259.7	32.5	-90.4	18.2
2025-01-30 11:23:43.661650	259.5	32.3	-90.3	19.4
2025-01-30 11:23:44.815587	259.2	32.1	-89.8	19.1
2025-01-30 11:23:45.965447	259.0	31.9	-90.1	20.6
2025-01-30 11:23:47.120923	258.8	31.8	-89.9	19.5
2025-01-30 11:23:48.278362	258.5	31.6	-89.7	19.6
2025-01-30 11:23:49.426817	258.3	31.4	-90.2	17.3
2025-01-30 11:23:50.573532	258.1	31.2	-90.0	16.3
2025-01-30 11:23:51.723055	257.8	31.0	-90.1	19.0
2025-01-30 11:23:52.875396	257.6	30.8	-90.5	12.7
2025-01-30 11:23:54.026179	257.4	30.6	-90.2	12.2
2025-01-30 11:23:55.174312	257.2	30.4	-90.0	17.9
2025-01-30 11:23:56.322043	257.0	30.2	-89.9	13.4
2025-01-30 11:23:57.469468	256.8	30.1	-90.3	13.5
2025-01-30 11:23:58.617098	256.6	29.9	-90.2	17.9
2025-01-30 11:23:59.770256	256.4	29.7	-89.1	17.9
2025-01-30 11:24:00.916384	256.2	29.5	-89.4	15.3
2025-01-30 11:24:02.063052	256.0	29.3	-89.2	16.7
2025-01-30 11:24:03.213224	255.8	29.2	-90.0	17.2
2025-01-30 11:24:04.372940	255.6	29.0	-90.2	17.0
2025-01-30 11:24:05.517933	255.4	28.8	-90.3	16.9
2025-01-30 11:24:06.661821	255.2	28.6	-90.0	17.6
2025-01-30 11:24:07.809592	255.0	28.4	-89.5	14.4
2025-01-30 11:24:08.963896	254.8	28.3	-89.4	11.4
2025-01-30 11:24:10.114045	254.6	28.1	-89.3	14.3
2025-01-30 11:24:11.259776	254.4	27.9	-89.4	14.7
2025-01-30 11:24:12.415105	254.2	27.7	-89.7	9.7
2025-01-30 11:24:13.560935	254.1	27.6	-89.4	9.5
2025-01-30 11:24:14.708158	253.9	27.4	-89.7	13.7
2025-01-30 11:24:15.853328	253.7	27.2	-89.7	7.9
2025-01-30 11:24:17.003138	253.5	27.0	-89.4	9.6
2025-01-30 11:24:18.152077	253.4	26.9	-89.3	14.3
2025-01-30 11:24:19.303887	253.2	26.7	-89.7	13.2
2025-01-30 11:24:20.452700	253.0	26.5	-89.4	14.3
2025-01-30 11:24:21.599357	252.9	26.4	-90.1	14.7
2025-01-30 11:24:22.753393	252.7	26.2	-90.2	15.6
2025-01-30 11:24:23.897376	252.5	26.0	-90.2	15.6
2025-01-30 11:24:25.045858	252.4	25.9	-90.1	14.3
2025-01-30 11:24:26.191212	252.2	25.7	-90.0	14.0
2025-01-30 11:24:27.339669	252.1	25.5	-90.2	10.3
2025-01-30 11:24:28.490107	251.9	25.4	-90.2	11.2
2025-01-30 11:24:29.636768	251.8	25.2	-89.9	14.8
2025-01-30 11:24:30.788002	251.6	25.0	-90.1	11.5
2025-01-30 11:24:31.938298	251.5	24.9	-90.3	9.3
2025-01-30 11:24:33.087895	251.3	24.7	-89.9	10.4
2025-01-30 11:24:34.241446	251.2	24.6	-90.1	8.1
2025-01-30 11:24:35.390234	251.0	24.4	-89.8	8.5
2025-01-30 11:24:36.543772	250.9	24.2	-89.9	7.5
2025-01-30 11:24:37.688738	250.7	24.1	-90.3	10.0
2025-01-30 11:24:38.838542	250.6	23.9	-90.1	8.5
2025-01-30 11:24:39.988408	250.4	23.8	-89.8	6.7
2025-01-30 11:24:41.139349	250.3	23.6	-89.9	7.6
2025-01-30 11:24:42.287174	250.2	23.5	-90.3	6.2
2025-01-30 11:24:43.433250	250.0	23.3	-90.0	4.6
2025-01-30 11:24:44.573209	249.9	23.2	-90.1	6.2
2025-01-30 11:24:45.724670	249.8	23.0	-90.1	5.5
2025-01-30 11:24:46.874771	249.6	22.9	-89.7	4.3
2025-01-30 11:24:48.020663	249.5	22.7	-89.9	6.0
2025-01-30 11:24:49.168524	249.4	22.6	-90.2	3.9
2025-01-30 11:24:50.315489	249.2	22.4	-89.7	3.2
2025-01-30 11:24:51.467549	249.1	22.3	-89.6	4.2
2025-01-30 11:24:52.615515	249.0	22.1	-89.6	3.9
2025-01-30 11:24:53.759346	248.9	22.0	-89.8	3.8
2025-01-30 11:24:54.912992	248.7	21.8	-89.9	3.3
2025-01-30 11:24:56.061027	248.6	21.7	-90.4	5.2
2025-01-30 11:24:57.211328	248.5	21.5	-90.3	4.4
2025-01-30 11:24:58.366725	248.4	21.4	-90.2	6.3
2025-01-30 11:24:59.516925	248.2	21.2	-90.3	4.3
2025-01-30 11:25:00.664527	248.1	21.1	-90.1	4.8
2025-01-30 11:25:01.804997	248.0	20.9	-90.5	5.0
2025-01-30 11:25:02.959679	247.9	20.8	-90.2	3.3
2025-01-30 11:25:04.113189	247.8	20.7	-89.9	5.6
2025-01-30 11:25:05.258617	247.7	20.5	-90.0	5.2
2025-01-30 11:25:06.408782	247.6	20.4	-90.3	5.3
2025-01-30 11:25:07.556643	247.4	20.2	-90.3	2.6
2025-01-30 11:25:08.706997	247.3	20.1	-90.2	6.6
2025-01-30 11:25:09.856404	247.2	20.0	-90.0	5.0
2025-01-30 11:25:11.015429	247.1	19.8	-90.2	4.2
2025-01-30 11:25:12.160828	247.0	19.7	-90.2	5.1
2025-01-30 11:25:13.314612	246.9	19.5	-90.1	3.4
2025-01-30 11:25:14.467582	246.8	19.4	-89.8	3.6
2025-01-30 11:25:15.621715	246.7	19.3	-89.8	5.9
2025-01-30 11:25:16.773829	246.6	19.1	-89.6	7.4
2025-01-30 11:25:17.916519	246.5	19.0	-89.5	5.5
2025-01-30 11:25:19.066855	246.4	18.9	-89.5	6.7
2025-01-30 11:25:20.214826	246.3	18.7	-89.7	7.7
2025-01-30 11:25:21.362634	246.2	18.6	-89.8	5.5
2025-01-30 11:25:22.515097	246.1	18.5	-90.1	8.6
2025-01-30 11:25:23.663458	246.0	18.3	-90.0	6.9
2025-01-30 11:25:24.823735	245.9	18.2	-89.7	6.3
2025-01-30 11:25:25.971271	245.8	18.1	-90.1	6.2
2025-01-30 11:25:27.128146	245.7	18.0	-90.0	7.3
2025-01-30 11:25:28.277032	245.6	17.8	-90.2	5.1
2025-01-30 11:25:29.428127	245.5	17.7	-89.9	4.6
2025-01-30 11:25:30.574910	245.4	17.6	-90.0	4.8
2025-01-30 11:25:31.724498	245.3	17.4	-90.0	6.8
2025-01-30 11:25:32.875473	245.2	17.3	-90.0	4.7
2025-01-30 11:25:34.019701	245.1	17.2	-89.7	7.5
2025-01-30 11:25:35.172469	245.1	17.1	-89.8	6.7
2025-01-30 11:25:36.317064	245.0	16.9	-90.0	8.1
2025-01-30 11:25:37.467224	244.9	16.8	-90.1	7.3
2025-01-30 11:25:38.617623	244.8	16.7	-89.7	6.7
2025-01-30 11:25:39.766459	244.7	16.6	-90.2	7.9
2025-01-30 11:25:40.920712	244.6	16.5	-89.9	7.5
2025-01-30 11:25:42.063722	244.5	16.3	-89.7	8.0
2025-01-30 11:25:43.228553	244.4	16.2	-89.0	10.8
2025-01-30 11:25:44.379624	244.4	16.1	-89.3	5.5
2025-01-30 11:25:45.528993	244.3	16.0	-89.1	7.4
2025-01-30 11:25:46.673131	244.2	15.8	-89.2	8.7
2025-01-30 11:25:47.819510	244.1	15.7	-90.1	8.1
2025-01-30 11:25:48.969966	244.0	15.6	-89.6	4.4
2025-01-30 11:25:50.119375	244.0	15.5	-89.9	10.3
2025-01-30 11:25:51.266241	243.9	15.4	-89.7	11.0
2025-01-30 11:25:52.412679	243.8	15.3	-89.7	10.0
2025-01-30 11:25:53.563443	243.7	15.1	-89.7	10.8
2025-01-30 11:25:54.712187	243.6	15.0	-89.9	12.1
2025-01-30 11:25:55.862181	243.6	14.9	-90.1	11.4
2025-01-30 11:25:57.015134	243.5	14.8	-89.7	12.4
2025-01-30 11:25:58.165750	243.4	14.7	-89.6	11.2
2025-01-30 11:25:59.318656	243.3	14.6	-89.8	11.0
#Closed at: 2025-01-30 11:17:19.063950