passes_logs/2025/01/30/LEX_Murmansk/LEX_Murmansk__20250130_143751_NOAA_18_rec.log

#Pass ID: 20250130_143751_NOAA 18
#Satellite: NOAA 18
#Configuration: NOAA 18
#Start time: 2025-01-30 14:37:46.336571

#LorettStation: 1.0.0 05.05.2024
#Station: LEX_Murmansk
#Location: 33.156738 lon 68.926811 lat
#TLE: 1 28654U 05018A   25030.16946896  .00000398  00000+0  23471-3 0  9997
#TLE: 2 28654  98.8542 111.0717 0014961 137.5822 222.6509 14.13501465 15327

#Time	Az	El	Level	SNR
2025-01-30 14:37:58.485880	42.3	15.9	-88.7	4.4
2025-01-30 14:37:59.613626	42.1	15.9	-88.6	5.0
2025-01-30 14:38:00.737704	41.9	16.0	-88.1	6.1
2025-01-30 14:38:01.866316	41.8	16.1	-88.3	4.4
2025-01-30 14:38:02.988844	41.6	16.2	-88.2	6.1
2025-01-30 14:38:04.114481	41.4	16.3	-88.3	3.7
2025-01-30 14:38:05.236674	41.2	16.3	-88.1	6.1
2025-01-30 14:38:06.363328	41.0	16.4	-87.9	2.8
2025-01-30 14:38:07.497829	40.8	16.5	-88.3	3.8
2025-01-30 14:38:08.621720	40.6	16.6	-88.7	4.6
2025-01-30 14:38:09.748840	40.4	16.7	-88.5	4.0
2025-01-30 14:38:10.870766	40.2	16.7	-88.1	4.7
2025-01-30 14:38:12.000261	40.0	16.8	-88.0	4.9
2025-01-30 14:38:13.123176	39.8	16.9	-88.1	5.9
2025-01-30 14:38:14.245527	39.7	17.0	-88.1	6.5
2025-01-30 14:38:15.370349	39.5	17.1	-88.3	6.3
2025-01-30 14:38:16.515726	39.3	17.1	-88.2	7.0
2025-01-30 14:38:17.644581	39.1	17.2	-88.5	5.1
2025-01-30 14:38:18.767220	38.9	17.3	-88.5	6.4
2025-01-30 14:38:19.888947	38.6	17.4	-88.5	4.1
2025-01-30 14:38:21.028016	38.4	17.5	-88.7	5.5
2025-01-30 14:38:22.179942	38.2	17.5	-88.8	6.2
2025-01-30 14:38:23.335771	38.0	17.6	-89.0	8.8
2025-01-30 14:38:24.492215	37.8	17.7	-88.7	5.9
2025-01-30 14:38:25.634647	37.6	17.8	-88.8	3.8
2025-01-30 14:38:26.765144	37.4	17.9	-88.7	4.9
2025-01-30 14:38:27.894404	37.2	17.9	-89.0	5.9
2025-01-30 14:38:29.032292	37.0	18.0	-88.5	6.3
2025-01-30 14:38:30.167824	36.8	18.1	-88.5	8.5
2025-01-30 14:38:31.296440	36.5	18.2	-88.7	6.8
2025-01-30 14:38:32.423401	36.3	18.2	-88.5	4.8
2025-01-30 14:38:33.554468	36.1	18.3	-88.2	5.3
2025-01-30 14:38:34.680487	35.9	18.4	-88.1	6.4
2025-01-30 14:38:35.817400	35.7	18.5	-88.3	5.1
2025-01-30 14:38:36.946159	35.5	18.5	-88.3	6.0
2025-01-30 14:38:38.073291	35.2	18.6	-88.5	5.5
2025-01-30 14:38:39.203355	35.0	18.7	-88.2	5.3
2025-01-30 14:38:40.325345	34.8	18.8	-88.4	7.1
2025-01-30 14:38:41.450672	34.6	18.8	-88.3	5.9
2025-01-30 14:38:42.573614	34.3	18.9	-88.8	8.7
2025-01-30 14:38:43.701843	34.1	19.0	-88.8	9.5
2025-01-30 14:38:44.825306	33.9	19.1	-88.1	7.7
2025-01-30 14:38:45.957505	33.7	19.1	-87.8	7.9
2025-01-30 14:38:47.083103	33.4	19.2	-87.7	9.8
2025-01-30 14:38:48.233386	33.2	19.3	-88.9	9.3
2025-01-30 14:38:49.366015	33.0	19.4	-88.6	10.4
2025-01-30 14:38:50.497006	32.7	19.4	-88.7	10.4
2025-01-30 14:38:51.628269	32.5	19.5	-88.7	8.8
2025-01-30 14:38:52.751379	32.3	19.6	-88.8	10.1
2025-01-30 14:38:53.880069	32.0	19.7	-88.5	6.3
2025-01-30 14:38:55.023148	31.8	19.7	-88.7	7.6
2025-01-30 14:38:56.181188	31.5	19.8	-88.2	6.9
2025-01-30 14:38:57.311566	31.3	19.9	-88.5	8.1
2025-01-30 14:38:58.442625	31.1	20.0	-88.3	6.2
2025-01-30 14:38:59.565342	30.8	20.0	-88.1	7.1
2025-01-30 14:39:00.692030	30.6	20.1	-88.2	10.2
2025-01-30 14:39:01.821781	30.3	20.2	-88.7	9.5
2025-01-30 14:39:02.950031	30.1	20.2	-88.4	10.3
2025-01-30 14:39:04.079139	29.8	20.3	-88.5	10.5
2025-01-30 14:39:05.207113	29.6	20.4	-88.5	13.6
2025-01-30 14:39:06.334685	29.4	20.4	-88.5	8.1
2025-01-30 14:39:07.458858	29.1	20.5	-88.7	10.4
2025-01-30 14:39:08.588084	28.9	20.6	-88.8	12.2
2025-01-30 14:39:09.710750	28.6	20.6	-88.4	11.3
2025-01-30 14:39:10.838993	28.4	20.7	-88.3	10.0
2025-01-30 14:39:11.993228	28.1	20.8	-88.4	9.0
2025-01-30 14:39:13.148295	27.8	20.8	-88.4	12.2
2025-01-30 14:39:14.302721	27.6	20.9	-88.1	11.3
2025-01-30 14:39:15.456676	27.3	21.0	-88.7	12.2
2025-01-30 14:39:16.607640	27.0	21.0	-88.4	8.4
2025-01-30 14:39:17.759392	26.8	21.1	-88.8	13.3
2025-01-30 14:39:18.910120	26.5	21.2	-88.7	11.0
2025-01-30 14:39:20.062151	26.2	21.2	-88.5	10.0
2025-01-30 14:39:21.214558	26.0	21.3	-88.3	8.6
2025-01-30 14:39:22.362781	25.7	21.4	-88.3	6.2
2025-01-30 14:39:23.515234	25.4	21.4	-88.7	6.5
2025-01-30 14:39:24.672399	25.2	21.5	-88.8	9.9
2025-01-30 14:39:25.820728	24.9	21.6	-88.9	6.1
2025-01-30 14:39:26.969624	24.6	21.6	-88.8	6.5
2025-01-30 14:39:28.121351	24.3	21.7	-88.4	10.4
2025-01-30 14:39:29.274128	24.1	21.7	-88.4	8.7
2025-01-30 14:39:30.423240	23.8	21.8	-88.5	11.0
2025-01-30 14:39:31.585979	23.5	21.9	-88.9	10.3
2025-01-30 14:39:32.736230	23.2	21.9	-88.9	11.3
2025-01-30 14:39:33.882726	22.9	22.0	-88.9	11.6
2025-01-30 14:39:35.025801	22.7	22.0	-88.7	10.3
2025-01-30 14:39:36.175445	22.4	22.1	-88.0	9.0
2025-01-30 14:39:37.324920	22.1	22.2	-88.4	8.2
2025-01-30 14:39:38.479245	21.8	22.2	-88.1	6.0
2025-01-30 14:39:39.627295	21.5	22.3	-88.4	8.0
2025-01-30 14:39:40.779365	21.2	22.3	-88.8	13.1
2025-01-30 14:39:41.928538	21.0	22.4	-88.9	9.5
2025-01-30 14:39:43.077824	20.7	22.4	-88.9	8.5
2025-01-30 14:39:44.221918	20.4	22.5	-88.5	8.8
2025-01-30 14:39:45.368013	20.1	22.5	-88.4	9.9
2025-01-30 14:39:46.515939	19.8	22.6	-88.6	12.4
2025-01-30 14:39:47.659920	19.5	22.6	-88.4	9.5
2025-01-30 14:39:48.798275	19.2	22.7	-87.5	10.0
2025-01-30 14:39:49.936916	18.9	22.7	-87.7	11.8
2025-01-30 14:39:51.091129	18.6	22.8	-87.7	12.5
2025-01-30 14:39:52.243225	18.3	22.8	-87.4	10.0
2025-01-30 14:39:53.393108	18.0	22.9	-88.1	6.7
2025-01-30 14:39:54.545378	17.7	22.9	-88.1	7.6
2025-01-30 14:39:55.694088	17.4	23.0	-88.2	9.8
2025-01-30 14:39:56.839829	17.1	23.0	-88.7	8.4
2025-01-30 14:39:57.986945	16.8	23.0	-88.5	6.5
2025-01-30 14:39:59.136237	16.5	23.1	-88.1	6.5
2025-01-30 14:40:00.277735	16.2	23.1	-87.9	12.3
2025-01-30 14:40:01.429072	15.9	23.2	-88.0	6.4
2025-01-30 14:40:02.571040	15.6	23.2	-88.6	9.6
2025-01-30 14:40:03.717609	15.3	23.2	-88.9	10.3
2025-01-30 14:40:04.863756	15.0	23.3	-89.3	9.9
2025-01-30 14:40:06.006372	14.7	23.3	-88.9	7.0
2025-01-30 14:40:07.154552	14.4	23.4	-88.4	9.0
2025-01-30 14:40:08.298448	14.1	23.4	-87.9	8.7
2025-01-30 14:40:09.429498	13.8	23.4	-87.4	9.8
2025-01-30 14:40:10.576835	13.5	23.5	-87.8	12.2
2025-01-30 14:40:11.715856	13.2	23.5	-88.0	12.6
2025-01-30 14:40:12.857618	12.9	23.5	-88.3	11.1
2025-01-30 14:40:14.004704	12.6	23.6	-88.2	11.4
2025-01-30 14:40:15.147039	12.3	23.6	-88.1	11.1
2025-01-30 14:40:16.301101	12.0	23.6	-88.1	12.0
2025-01-30 14:40:17.445038	11.7	23.7	-88.7	7.9
2025-01-30 14:40:18.599487	11.3	23.7	-88.5	8.3
2025-01-30 14:40:19.745928	11.0	23.7	-88.4	10.3
2025-01-30 14:40:20.892212	10.7	23.7	-88.8	7.0
2025-01-30 14:40:22.045880	10.4	23.8	-88.9	6.4
2025-01-30 14:40:23.190380	10.1	23.8	-88.8	12.2
2025-01-30 14:40:24.337474	9.8	23.8	-88.7	9.8
2025-01-30 14:40:25.492788	9.5	23.8	-88.2	8.2
2025-01-30 14:40:26.645850	9.1	23.9	-88.2	11.8
2025-01-30 14:40:27.790120	8.8	23.9	-88.5	7.8
2025-01-30 14:40:28.934166	8.5	23.9	-88.0	9.5
2025-01-30 14:40:30.083722	8.2	23.9	-88.6	13.4
2025-01-30 14:40:31.231151	7.9	23.9	-88.7	11.4
2025-01-30 14:40:32.377439	7.5	24.0	-88.7	8.6
2025-01-30 14:40:33.519948	7.2	24.0	-88.7	8.5
2025-01-30 14:40:34.666696	6.9	24.0	-88.5	12.7
2025-01-30 14:40:35.806183	6.6	24.0	-88.4	13.2
2025-01-30 14:40:36.958859	6.3	24.0	-88.3	10.5
2025-01-30 14:40:38.101678	6.0	24.0	-88.4	9.7
2025-01-30 14:40:39.252938	5.6	24.0	-88.2	9.5
2025-01-30 14:40:40.395581	5.3	24.0	-88.6	7.2
2025-01-30 14:40:41.536314	5.0	24.1	-88.6	5.4
2025-01-30 14:40:42.681961	4.7	24.1	-88.5	11.4
2025-01-30 14:40:43.826592	4.4	24.1	-88.7	8.1
2025-01-30 14:40:44.976386	4.0	24.1	-88.3	7.5
2025-01-30 14:40:46.121806	3.7	24.1	-88.3	8.6
2025-01-30 14:40:47.283623	3.4	24.1	-88.5	11.6
2025-01-30 14:40:48.419533	3.1	24.1	-88.5	6.1
2025-01-30 14:40:49.568321	2.8	24.1	-88.6	8.7
2025-01-30 14:40:50.706491	2.4	24.1	-88.5	10.1
2025-01-30 14:40:51.843824	2.1	24.1	-88.8	8.8
2025-01-30 14:40:53.003036	1.8	24.1	-88.8	8.2
2025-01-30 14:40:54.138296	1.5	24.1	-88.6	12.2
2025-01-30 14:40:55.289842	1.2	24.1	-88.7	9.4
2025-01-30 14:40:56.435770	0.8	24.1	-88.5	6.9
2025-01-30 14:40:57.582459	0.5	24.1	-88.5	11.3
2025-01-30 14:40:58.717314	0.2	24.1	-88.8	11.0
2025-01-30 14:40:59.857959	359.9	24.1	-88.7	9.3
2025-01-30 14:41:01.001966	359.6	24.1	-88.6	7.3
2025-01-30 14:41:02.148147	359.2	24.1	-88.4	10.9
2025-01-30 14:41:03.281728	358.9	24.1	-88.1	9.9
2025-01-30 14:41:04.408006	358.6	24.0	-88.2	11.5
2025-01-30 14:41:05.537888	358.3	24.0	-87.9	12.6
2025-01-30 14:41:06.685210	358.0	24.0	-88.4	12.2
2025-01-30 14:41:07.820679	357.7	24.0	-88.5	13.6
2025-01-30 14:41:08.970078	357.3	24.0	-88.5	13.9
2025-01-30 14:41:10.119310	357.0	24.0	-88.5	13.8
2025-01-30 14:41:11.270552	356.7	24.0	-88.5	12.8
2025-01-30 14:41:12.473414	356.4	23.9	-88.6	10.3
2025-01-30 14:41:13.617022	356.0	23.9	-88.4	9.7
2025-01-30 14:41:14.751260	355.7	23.9	-88.5	10.8
2025-01-30 14:41:15.899536	355.4	23.9	-87.7	8.6
2025-01-30 14:41:17.044362	355.1	23.9	-88.0	7.3
2025-01-30 14:41:18.183675	354.8	23.9	-88.0	12.0
2025-01-30 14:41:19.317449	354.5	23.8	-87.8	9.1
2025-01-30 14:41:20.463011	354.2	23.8	-88.8	9.9
2025-01-30 14:41:21.604871	353.8	23.8	-88.6	13.4
2025-01-30 14:41:22.749248	353.5	23.8	-88.5	12.4
2025-01-30 14:41:23.892753	353.2	23.7	-88.4	10.3
2025-01-30 14:41:25.034732	352.9	23.7	-88.7	8.5
2025-01-30 14:41:26.171475	352.6	23.7	-88.6	9.6
2025-01-30 14:41:27.314875	352.3	23.6	-88.7	13.0
2025-01-30 14:41:28.470125	352.0	23.6	-89.1	7.5
2025-01-30 14:41:29.607102	351.7	23.6	-88.8	9.0
2025-01-30 14:41:30.735367	351.3	23.6	-88.5	12.8
2025-01-30 14:41:31.893586	351.0	23.5	-88.7	7.2
2025-01-30 14:41:33.038584	350.7	23.5	-88.5	5.8
2025-01-30 14:41:34.191292	350.4	23.5	-89.0	9.4
2025-01-30 14:41:35.333201	350.1	23.4	-88.7	11.2
2025-01-30 14:41:36.473330	349.8	23.4	-89.0	9.0
2025-01-30 14:41:37.625106	349.5	23.4	-89.0	11.2
2025-01-30 14:41:38.760136	349.2	23.3	-88.6	12.3
2025-01-30 14:41:39.897408	348.9	23.3	-88.6	7.7
2025-01-30 14:41:41.042081	348.6	23.2	-88.8	7.9
2025-01-30 14:41:42.186866	348.3	23.2	-89.1	10.7
2025-01-30 14:41:43.334061	348.0	23.2	-89.1	7.3
2025-01-30 14:41:44.473956	347.7	23.1	-89.1	8.1
2025-01-30 14:41:45.618222	347.4	23.1	-89.0	9.3
2025-01-30 14:41:46.776027	347.1	23.0	-88.9	9.3
2025-01-30 14:41:47.927365	346.8	23.0	-88.4	6.0
2025-01-30 14:41:49.082758	346.5	22.9	-89.0	6.0
2025-01-30 14:41:50.244819	346.2	22.9	-89.1	9.1
2025-01-30 14:41:51.408033	345.9	22.9	-89.1	6.2
2025-01-30 14:41:52.549562	345.6	22.8	-89.2	7.7
2025-01-30 14:41:53.701696	345.3	22.8	-88.8	9.7
2025-01-30 14:41:54.847058	345.0	22.7	-88.8	9.2
2025-01-30 14:41:55.996901	344.7	22.7	-88.3	7.6
2025-01-30 14:41:57.152140	344.4	22.6	-88.8	7.7
2025-01-30 14:41:58.302725	344.1	22.6	-88.9	9.9
2025-01-30 14:41:59.457167	343.8	22.5	-89.3	7.2
2025-01-30 14:42:00.614463	343.5	22.5	-89.1	6.8
2025-01-30 14:42:01.763248	343.2	22.4	-88.9	12.8
2025-01-30 14:42:02.911523	342.9	22.4	-89.2	7.9
2025-01-30 14:42:04.059122	342.7	22.3	-88.4	5.7
2025-01-30 14:42:05.204366	342.4	22.2	-88.7	13.2
2025-01-30 14:42:06.343850	342.1	22.2	-88.8	9.5
2025-01-30 14:42:07.485038	341.8	22.1	-89.0	7.3
2025-01-30 14:42:08.623490	341.5	22.1	-88.9	7.5
2025-01-30 14:42:09.776378	341.2	22.0	-88.6	12.9
2025-01-30 14:42:10.921730	341.0	22.0	-88.8	5.6
2025-01-30 14:42:12.062269	340.7	21.9	-89.1	8.5
2025-01-30 14:42:13.207509	340.4	21.8	-88.8	11.8
2025-01-30 14:42:14.352670	340.1	21.8	-88.5	9.9
2025-01-30 14:42:15.492459	339.9	21.7	-88.4	7.3
2025-01-30 14:42:16.643920	339.6	21.7	-89.0	10.8
2025-01-30 14:42:17.788911	339.3	21.6	-88.9	13.5
2025-01-30 14:42:18.930141	339.0	21.5	-88.6	9.5
2025-01-30 14:42:20.075496	338.8	21.5	-88.8	8.9
2025-01-30 14:42:21.213233	338.5	21.4	-88.0	12.5
2025-01-30 14:42:22.342207	338.2	21.4	-89.1	8.0
2025-01-30 14:42:23.479903	338.0	21.3	-88.9	8.2
2025-01-30 14:42:24.599891	337.7	21.2	-88.7	7.6
2025-01-30 14:42:25.720795	337.4	21.2	-88.8	5.9
2025-01-30 14:42:26.861016	337.2	21.1	-89.1	8.2
2025-01-30 14:42:28.001608	336.9	21.0	-88.8	8.6
2025-01-30 14:42:29.141088	336.6	21.0	-88.9	7.4
2025-01-30 14:42:30.283501	336.4	20.9	-88.7	6.2
2025-01-30 14:42:31.411360	336.1	20.8	-89.1	8.2
2025-01-30 14:42:32.563096	335.9	20.8	-88.7	9.5
2025-01-30 14:42:33.690331	335.6	20.7	-88.7	9.2
2025-01-30 14:42:34.824734	335.4	20.6	-88.9	7.9
2025-01-30 14:42:35.973882	335.1	20.6	-88.4	4.8
2025-01-30 14:42:37.121662	334.8	20.5	-88.6	6.9
2025-01-30 14:42:38.270428	334.6	20.4	-88.6	7.0
2025-01-30 14:42:39.399337	334.3	20.4	-88.4	6.7
2025-01-30 14:42:40.539787	334.1	20.3	-88.7	6.0
2025-01-30 14:42:41.682407	333.8	20.2	-88.8	5.2
2025-01-30 14:42:42.811525	333.6	20.1	-88.2	6.1
2025-01-30 14:42:43.954133	333.3	20.1	-88.7	6.6
2025-01-30 14:42:45.094075	333.1	20.0	-88.4	3.3
2025-01-30 14:42:46.240459	332.9	19.9	-88.1	3.4
2025-01-30 14:42:47.395150	332.6	19.9	-88.5	5.8
2025-01-30 14:42:48.541390	332.4	19.8	-88.1	6.0
2025-01-30 14:42:49.684889	332.1	19.7	-88.6	6.6
2025-01-30 14:42:50.819961	331.9	19.6	-88.3	4.9
2025-01-30 14:42:51.971638	331.6	19.6	-87.7	4.1
2025-01-30 14:42:53.129825	331.4	19.5	-87.6	5.6
2025-01-30 14:42:54.280012	331.2	19.4	-87.4	4.3
2025-01-30 14:42:55.411397	330.9	19.3	-87.8	5.9
2025-01-30 14:42:56.551425	330.7	19.3	-88.8	6.5
2025-01-30 14:42:57.693589	330.5	19.2	-88.6	6.7
2025-01-30 14:42:58.834483	330.2	19.1	-88.8	5.9
2025-01-30 14:42:59.979524	330.0	19.0	-88.9	6.5
2025-01-30 14:43:01.104414	329.8	19.0	-88.4	9.0
2025-01-30 14:43:02.247937	329.5	18.9	-88.1	7.3
2025-01-30 14:43:03.388540	329.3	18.8	-88.7	4.9
2025-01-30 14:43:04.542413	329.1	18.7	-88.4	5.6
2025-01-30 14:43:05.684114	328.9	18.7	-88.7	6.1
2025-01-30 14:43:06.831027	328.6	18.6	-88.5	6.1
2025-01-30 14:43:07.979021	328.4	18.5	-88.6	5.7
2025-01-30 14:43:09.127898	328.2	18.4	-88.7	5.8
2025-01-30 14:43:10.281588	328.0	18.3	-88.8	7.6
2025-01-30 14:43:11.428352	327.7	18.3	-88.8	6.9
2025-01-30 14:43:12.575345	327.5	18.2	-88.6	5.6
2025-01-30 14:43:13.723498	327.3	18.1	-88.1	6.3
2025-01-30 14:43:14.875671	327.1	18.0	-88.4	4.4
2025-01-30 14:43:16.025178	326.9	18.0	-88.8	6.0
2025-01-30 14:43:17.165308	326.7	17.9	-88.7	6.9
2025-01-30 14:43:18.308169	326.4	17.8	-88.6	6.8
2025-01-30 14:43:19.461078	326.2	17.7	-88.8	3.6
2025-01-30 14:43:20.596924	326.0	17.6	-88.5	4.3
2025-01-30 14:43:21.728491	325.8	17.6	-88.5	4.3
2025-01-30 14:43:22.878497	325.6	17.5	-88.8	4.3
2025-01-30 14:43:24.023865	325.4	17.4	-88.7	5.3
2025-01-30 14:43:25.174950	325.2	17.3	-88.3	3.7
2025-01-30 14:43:26.341387	325.0	17.2	-87.8	4.2
2025-01-30 14:43:27.488386	324.8	17.2	-88.2	4.8
2025-01-30 14:43:28.628193	324.6	17.1	-88.2	5.9
2025-01-30 14:43:29.771982	324.4	17.0	-87.8	5.2
2025-01-30 14:43:30.919355	324.2	16.9	-88.6	7.7
2025-01-30 14:43:32.055020	324.0	16.8	-88.3	6.4
2025-01-30 14:43:33.196770	323.8	16.7	-88.5	8.8
2025-01-30 14:43:34.344689	323.6	16.7	-88.4	8.7
2025-01-30 14:43:35.491397	323.4	16.6	-88.3	6.1
2025-01-30 14:43:36.642020	323.2	16.5	-88.6	8.0
2025-01-30 14:43:37.793777	323.0	16.4	-88.6	5.9
2025-01-30 14:43:38.944566	322.8	16.3	-88.4	7.4
2025-01-30 14:43:40.088722	322.6	16.3	-88.3	6.5
2025-01-30 14:43:41.237346	322.4	16.2	-88.5	8.4
2025-01-30 14:43:42.387076	322.2	16.1	-88.2	6.9
2025-01-30 14:43:43.548363	322.0	16.0	-88.6	6.8
2025-01-30 14:43:44.697152	321.8	15.9	-88.5	6.1
2025-01-30 14:43:45.848139	321.6	15.9	-88.5	4.1
2025-01-30 14:43:47.001615	321.5	15.8	-88.4	6.0
2025-01-30 14:43:48.159113	321.3	15.7	-88.4	5.6
2025-01-30 14:43:49.306652	321.1	15.6	-88.3	7.5
2025-01-30 14:43:50.457407	320.9	15.5	-88.5	5.2
2025-01-30 14:43:51.613789	320.7	15.4	-88.2	5.5
2025-01-30 14:43:52.764645	320.5	15.4	-88.7	5.0
2025-01-30 14:43:53.908719	320.4	15.3	-88.6	7.8
2025-01-30 14:43:55.046047	320.2	15.2	-88.1	3.9
2025-01-30 14:43:56.185335	320.0	15.1	-88.5	6.7
2025-01-30 14:43:57.319527	319.8	15.0	-87.6	6.5
2025-01-30 14:43:58.458220	319.6	14.9	-87.6	7.2
2025-01-30 14:43:59.603611	319.5	14.9	-87.7	6.7
2025-01-30 14:44:00.748282	319.3	14.8	-88.3	5.8
2025-01-30 14:44:01.876729	319.1	14.7	-88.6	5.7
2025-01-30 14:44:03.005866	319.0	14.6	-88.4	5.4
#Closed at: 2025-01-30 14:37:51.305270