passes_logs/2025/01/30/LEX_Murmansk/LEX_Murmansk__20250130_175555_NOAA_18_rec.log

#Pass ID: 20250130_175555_NOAA 18
#Satellite: NOAA 18
#Configuration: NOAA 18
#Start time: 2025-01-30 17:55:49.958032

#LorettStation: 1.0.0 05.05.2024
#Station: LEX_Murmansk
#Location: 33.156738 lon 68.926811 lat
#TLE: 1 28654U 05018A   25030.16946896  .00000398  00000+0  23471-3 0  9997
#TLE: 2 28654  98.8542 111.0717 0014961 137.5822 222.6509 14.13501465 15327

#Time	Az	El	Level	SNR
2025-01-30 17:56:02.261277	123.3	16.3	-91.5	9.8
2025-01-30 17:56:04.597161	123.2	16.5	-91.5	8.1
2025-01-30 17:56:06.928326	123.0	16.8	-91.8	11.7
2025-01-30 17:56:09.248128	122.9	17.0	-91.5	8.8
2025-01-30 17:56:11.573668	122.7	17.3	-91.7	7.2
2025-01-30 17:56:13.892039	122.6	17.6	-91.4	11.3
2025-01-30 17:56:16.224159	122.4	17.8	-91.6	11.3
2025-01-30 17:56:18.545110	122.3	18.1	-91.6	4.0
2025-01-30 17:56:20.876922	122.1	18.4	-91.8	10.3
2025-01-30 17:56:23.196838	122.0	18.6	-92.2	15.3
2025-01-30 17:56:25.532975	121.8	18.9	-91.8	13.4
2025-01-30 17:56:27.859445	121.7	19.2	-91.6	14.6
2025-01-30 17:56:30.187919	121.5	19.5	-91.8	14.1
2025-01-30 17:56:32.509516	121.3	19.7	-92.2	8.6
2025-01-30 17:56:34.839304	121.2	20.0	-91.9	7.8
2025-01-30 17:56:37.171993	121.0	20.3	-92.2	11.7
2025-01-30 17:56:39.489588	120.8	20.6	-91.5	14.7
2025-01-30 17:56:41.818366	120.6	20.9	-91.3	14.4
2025-01-30 17:56:44.138895	120.4	21.2	-91.8	12.8
2025-01-30 17:56:46.468306	120.2	21.5	-91.6	11.4
2025-01-30 17:56:48.791866	120.1	21.8	-91.8	10.1
2025-01-30 17:56:51.098886	119.9	22.1	-91.5	9.2
2025-01-30 17:56:53.362850	119.7	22.4	-91.6	9.8
2025-01-30 17:56:55.686895	119.5	22.7	-92.3	16.1
2025-01-30 17:56:58.015515	119.2	23.0	-92.0	11.5
2025-01-30 17:57:00.334811	119.0	23.4	-91.4	13.3
2025-01-30 17:57:02.663874	118.8	23.7	-91.5	12.4
2025-01-30 17:57:04.994501	118.6	24.0	-91.5	8.2
2025-01-30 17:57:07.326829	118.4	24.3	-91.9	5.7
2025-01-30 17:57:09.674290	118.1	24.7	-92.3	7.9
2025-01-30 17:57:12.002042	117.9	25.0	-92.0	9.3
2025-01-30 17:57:14.331399	117.6	25.4	-91.9	5.1
2025-01-30 17:57:16.656964	117.4	25.7	-92.0	3.3
2025-01-30 17:57:18.986176	117.1	26.1	-91.8	6.2
2025-01-30 17:57:21.294854	116.9	26.4	-91.7	10.2
2025-01-30 17:57:23.535841	116.6	26.7	-91.9	5.6
2025-01-30 17:57:25.776437	116.4	27.1	-91.8	7.3
2025-01-30 17:57:28.017255	116.1	27.4	-92.3	5.1
2025-01-30 17:57:30.258595	115.8	27.8	-92.0	5.5
2025-01-30 17:57:32.510554	115.5	28.2	-92.4	5.5
2025-01-30 17:57:34.828957	115.2	28.5	-92.3	9.7
2025-01-30 17:57:37.145867	114.9	28.9	-92.4	11.4
2025-01-30 17:57:39.466495	114.6	29.3	-92.2	10.1
2025-01-30 17:57:41.746745	114.3	29.7	-92.0	11.3
2025-01-30 17:57:44.040624	114.0	30.1	-91.5	7.5
2025-01-30 17:57:46.352451	113.6	30.5	-91.4	15.0
2025-01-30 17:57:48.671988	113.3	30.9	-92.3	16.0
2025-01-30 17:57:51.011733	112.9	31.3	-92.0	13.2
2025-01-30 17:57:53.341226	112.6	31.7	-92.4	15.3
2025-01-30 17:57:55.671471	112.2	32.1	-92.4	18.1
2025-01-30 17:57:57.996969	111.8	32.5	-92.1	14.7
2025-01-30 17:58:00.322340	111.4	33.0	-91.4	12.8
2025-01-30 17:58:02.658933	111.0	33.4	-92.2	13.0
2025-01-30 17:58:04.982864	110.6	33.8	-91.8	12.6
2025-01-30 17:58:07.311650	110.2	34.3	-91.5	18.9
2025-01-30 17:58:09.637064	109.7	34.7	-91.9	20.2
2025-01-30 17:58:11.959087	109.3	35.1	-91.8	16.3
2025-01-30 17:58:14.288899	108.8	35.6	-91.8	19.5
2025-01-30 17:58:16.622165	108.3	36.0	-91.6	12.2
2025-01-30 17:58:18.954772	107.8	36.5	-92.0	6.4
2025-01-30 17:58:21.288168	107.3	37.0	-92.0	8.8
2025-01-30 17:58:23.603997	106.8	37.4	-92.2	13.2
2025-01-30 17:58:25.935082	106.3	37.9	-92.3	15.3
2025-01-30 17:58:28.256571	105.7	38.4	-92.0	16.0
2025-01-30 17:58:30.580449	105.2	38.9	-91.8	11.3
2025-01-30 17:58:32.903482	104.6	39.3	-92.4	10.5
2025-01-30 17:58:35.218279	104.0	39.8	-91.8	10.9
2025-01-30 17:58:37.549012	103.3	40.3	-92.6	9.4
2025-01-30 17:58:39.883142	102.7	40.8	-92.2	5.5
2025-01-30 17:58:42.210502	102.0	41.3	-92.2	8.9
2025-01-30 17:58:44.538012	101.4	41.8	-92.6	6.2
2025-01-30 17:58:46.864238	100.7	42.3	-92.3	14.4
2025-01-30 17:58:49.191095	99.9	42.8	-91.5	17.4
2025-01-30 17:58:51.511105	99.2	43.3	-91.6	14.8
2025-01-30 17:58:53.849473	98.4	43.8	-92.3	16.3
2025-01-30 17:58:56.178545	97.6	44.3	-92.3	17.5
2025-01-30 17:58:58.507022	96.8	44.8	-92.1	16.4
2025-01-30 17:59:00.834226	95.9	45.3	-92.2	12.3
2025-01-30 17:59:03.171033	95.1	45.8	-92.3	14.4
2025-01-30 17:59:05.495938	94.2	46.3	-92.6	7.2
2025-01-30 17:59:07.825573	93.2	46.8	-92.3	9.6
2025-01-30 17:59:10.157693	92.3	47.3	-92.2	15.3
2025-01-30 17:59:12.497798	91.3	47.7	-92.2	16.3
2025-01-30 17:59:14.812637	90.2	48.2	-92.0	13.6
2025-01-30 17:59:17.145120	89.2	48.7	-92.1	10.0
2025-01-30 17:59:19.468030	88.1	49.2	-92.2	7.8
2025-01-30 17:59:21.787841	87.0	49.6	-92.1	9.3
2025-01-30 17:59:24.102968	85.8	50.1	-92.2	12.4
2025-01-30 17:59:26.441303	84.6	50.5	-92.1	12.8
2025-01-30 17:59:28.764481	83.4	51.0	-92.2	15.5
2025-01-30 17:59:31.093053	82.1	51.4	-91.7	13.8
2025-01-30 17:59:33.410651	80.8	51.8	-91.6	7.0
2025-01-30 17:59:35.730327	79.5	52.2	-92.1	14.6
2025-01-30 17:59:38.056284	78.1	52.6	-92.1	5.1
2025-01-30 17:59:40.400952	76.7	53.0	-91.9	10.1
2025-01-30 17:59:42.733357	75.2	53.4	-92.4	14.2
2025-01-30 17:59:45.059913	73.7	53.7	-92.3	16.6
2025-01-30 17:59:47.385178	72.2	54.0	-92.0	14.3
2025-01-30 17:59:49.706782	70.7	54.4	-92.0	19.1
2025-01-30 17:59:52.036765	69.1	54.6	-92.0	10.5
2025-01-30 17:59:54.362209	67.4	54.9	-91.9	11.7
2025-01-30 17:59:56.690241	65.8	55.2	-92.1	20.5
2025-01-30 17:59:59.015344	64.1	55.4	-92.1	16.3
2025-01-30 18:00:01.344893	62.4	55.6	-91.8	15.9
2025-01-30 18:00:03.665873	60.7	55.7	-92.1	16.7
2025-01-30 18:00:05.992998	58.9	55.9	-92.1	17.8
2025-01-30 18:00:08.318517	57.2	56.0	-91.9	17.3
2025-01-30 18:00:10.643905	55.4	56.1	-92.1	17.0
2025-01-30 18:00:12.963031	53.6	56.2	-91.4	12.8
2025-01-30 18:00:15.288965	51.8	56.2	-90.6	17.4
2025-01-30 18:00:17.619169	50.0	56.2	-91.7	15.3
2025-01-30 18:00:19.943233	48.2	56.2	-92.3	8.2
2025-01-30 18:00:22.266485	46.4	56.2	-92.0	17.5
2025-01-30 18:00:24.595383	44.6	56.1	-91.9	13.4
2025-01-30 18:00:26.928415	42.9	56.0	-92.0	11.1
2025-01-30 18:00:29.257228	41.1	55.9	-91.9	11.7
2025-01-30 18:00:31.583377	39.3	55.7	-92.2	11.5
2025-01-30 18:00:33.904239	37.6	55.6	-92.1	9.8
2025-01-30 18:00:36.238472	35.9	55.4	-92.1	9.0
2025-01-30 18:00:38.569093	34.2	55.1	-92.3	9.6
2025-01-30 18:00:40.897461	32.6	54.9	-92.5	14.9
2025-01-30 18:00:43.217258	31.0	54.6	-92.0	19.8
2025-01-30 18:00:45.550553	29.4	54.3	-91.6	9.4
2025-01-30 18:00:47.883687	27.8	54.0	-91.9	14.5
2025-01-30 18:00:50.210844	26.3	53.7	-92.3	17.7
2025-01-30 18:00:52.542513	24.8	53.4	-92.0	9.3
2025-01-30 18:00:54.864146	23.4	53.0	-92.2	14.7
2025-01-30 18:00:57.183426	21.9	52.6	-92.1	18.5
2025-01-30 18:00:59.506419	20.6	52.2	-92.3	6.7
2025-01-30 18:01:01.833415	19.2	51.8	-92.5	8.5
2025-01-30 18:01:04.163504	17.9	51.4	-92.0	13.6
2025-01-30 18:01:06.488839	16.7	51.0	-92.0	8.8
2025-01-30 18:01:08.829817	15.4	50.5	-92.0	13.5
2025-01-30 18:01:11.160257	14.2	50.1	-91.8	10.3
2025-01-30 18:01:13.478652	13.1	49.6	-92.1	11.4
2025-01-30 18:01:15.797087	11.9	49.2	-92.1	20.5
2025-01-30 18:01:18.125472	10.8	48.7	-91.3	18.1
2025-01-30 18:01:20.452253	9.8	48.2	-92.2	10.6
2025-01-30 18:01:22.779993	8.8	47.7	-92.3	16.7
2025-01-30 18:01:25.104705	7.8	47.2	-92.0	14.6
2025-01-30 18:01:27.433935	6.8	46.7	-92.2	12.6
2025-01-30 18:01:29.758073	5.9	46.2	-92.0	22.3
2025-01-30 18:01:32.093109	5.0	45.7	-91.8	15.6
2025-01-30 18:01:34.407246	4.1	45.3	-92.1	15.2
2025-01-30 18:01:36.738868	3.3	44.8	-92.2	22.2
2025-01-30 18:01:39.069541	2.4	44.3	-91.8	16.7
2025-01-30 18:01:41.380415	1.6	43.8	-91.9	21.1
2025-01-30 18:01:43.700403	0.9	43.3	-92.1	20.3
2025-01-30 18:01:46.014207	0.1	42.8	-92.2	18.0
2025-01-30 18:01:48.333580	359.4	42.3	-91.9	16.9
2025-01-30 18:01:50.653048	358.7	41.8	-92.3	19.2
2025-01-30 18:01:52.981065	358.0	41.3	-92.0	11.0
2025-01-30 18:01:55.307694	357.4	40.8	-92.0	18.8
2025-01-30 18:01:57.631926	356.7	40.3	-91.9	16.6
2025-01-30 18:01:59.960696	356.1	39.8	-92.4	9.1
2025-01-30 18:02:02.291198	355.5	39.3	-91.9	16.4
2025-01-30 18:02:04.618592	354.9	38.8	-92.2	17.6
2025-01-30 18:02:06.946062	354.3	38.4	-92.0	18.0
2025-01-30 18:02:09.273668	353.8	37.9	-91.8	16.9
2025-01-30 18:02:11.611623	353.2	37.4	-92.4	15.5
2025-01-30 18:02:13.930877	352.7	37.0	-92.0	8.4
2025-01-30 18:02:16.263673	352.2	36.5	-92.6	12.4
2025-01-30 18:02:18.593844	351.7	36.0	-92.2	10.2
2025-01-30 18:02:20.923499	351.3	35.6	-92.2	8.3
2025-01-30 18:02:23.250685	350.8	35.1	-92.6	15.1
2025-01-30 18:02:25.578617	350.3	34.7	-92.5	15.6
2025-01-30 18:02:27.903763	349.9	34.2	-92.4	13.0
2025-01-30 18:02:30.229594	349.5	33.8	-92.0	14.5
2025-01-30 18:02:32.558178	349.1	33.4	-92.0	10.4
2025-01-30 18:02:34.872329	348.7	32.9	-92.3	7.5
2025-01-30 18:02:37.210228	348.3	32.5	-92.3	10.0
2025-01-30 18:02:39.530568	347.9	32.1	-91.6	8.6
2025-01-30 18:02:41.854799	347.5	31.7	-91.4	10.7
2025-01-30 18:02:44.176277	347.1	31.3	-92.3	10.1
2025-01-30 18:02:46.502327	346.8	30.9	-92.3	13.3
2025-01-30 18:02:48.828454	346.4	30.5	-91.9	16.4
2025-01-30 18:02:51.153803	346.1	30.1	-92.3	16.2
2025-01-30 18:02:53.481683	345.8	29.7	-92.5	12.3
2025-01-30 18:02:55.813958	345.4	29.3	-92.2	12.1
2025-01-30 18:02:58.141027	345.1	28.9	-92.3	13.6
2025-01-30 18:03:00.464297	344.8	28.5	-92.7	13.3
2025-01-30 18:03:02.781599	344.5	28.1	-92.7	11.3
2025-01-30 18:03:05.109085	344.2	27.8	-92.2	9.0
2025-01-30 18:03:07.432503	344.0	27.4	-92.5	9.5
2025-01-30 18:03:09.759449	343.7	27.0	-92.3	14.0
2025-01-30 18:03:12.084564	343.4	26.7	-92.1	11.0
2025-01-30 18:03:14.409147	343.1	26.3	-92.2	5.6
2025-01-30 18:03:16.743916	342.9	25.9	-92.2	6.5
2025-01-30 18:03:19.069465	342.6	25.6	-92.1	8.0
2025-01-30 18:03:21.394632	342.4	25.3	-91.9	12.6
2025-01-30 18:03:23.726934	342.1	24.9	-92.3	13.5
2025-01-30 18:03:26.046927	341.9	24.6	-92.3	5.6
2025-01-30 18:03:28.383924	341.7	24.2	-92.3	6.3
2025-01-30 18:03:30.722582	341.4	23.9	-92.8	11.6
2025-01-30 18:03:33.047155	341.2	23.6	-92.7	4.5
2025-01-30 18:03:35.363838	341.0	23.3	-92.6	15.6
2025-01-30 18:03:37.694053	340.8	22.9	-92.6	11.4
2025-01-30 18:03:40.023198	340.6	22.6	-92.5	5.5
2025-01-30 18:03:42.354083	340.4	22.3	-92.6	8.0
2025-01-30 18:03:44.682613	340.2	22.0	-91.7	12.5
2025-01-30 18:03:47.016087	340.0	21.7	-91.6	8.7
2025-01-30 18:03:49.345181	339.8	21.4	-92.1	12.3
2025-01-30 18:03:51.672282	339.6	21.1	-92.5	11.7
2025-01-30 18:03:54.001740	339.4	20.8	-92.2	15.8
2025-01-30 18:03:56.320527	339.2	20.5	-92.6	11.2
2025-01-30 18:03:58.648664	339.1	20.2	-92.6	10.0
2025-01-30 18:04:00.975103	338.9	19.9	-92.5	7.7
2025-01-30 18:04:03.303883	338.7	19.6	-92.7	4.7
2025-01-30 18:04:05.641477	338.5	19.4	-92.5	6.4
2025-01-30 18:04:07.970483	338.4	19.1	-92.2	10.8
2025-01-30 18:04:10.293035	338.2	18.8	-92.6	12.9
2025-01-30 18:04:12.618067	338.1	18.5	-92.9	5.7
2025-01-30 18:04:14.944229	337.9	18.3	-92.3	5.7
2025-01-30 18:04:17.275188	337.8	18.0	-92.1	8.0
2025-01-30 18:04:19.605859	337.6	17.7	-92.6	8.7
2025-01-30 18:04:21.938884	337.5	17.5	-92.6	6.7
2025-01-30 18:04:24.271735	337.3	17.2	-92.1	5.2
2025-01-30 18:04:26.594785	337.2	16.9	-92.1	6.0
2025-01-30 18:04:28.922031	337.0	16.7	-92.7	4.9
2025-01-30 18:04:31.245686	336.9	16.4	-92.4	9.5
2025-01-30 18:04:33.570805	336.8	16.2	-92.3	9.3
2025-01-30 18:04:35.889944	336.6	15.9	-92.6	5.9
2025-01-30 18:04:38.225416	336.5	15.7	-92.3	4.5
2025-01-30 18:04:40.547258	336.4	15.5	-92.2	6.5
2025-01-30 18:04:42.881487	336.3	15.2	-92.1	3.2
2025-01-30 18:04:45.208342	336.1	15.0	-91.8	8.5
2025-01-30 18:04:47.536843	336.0	14.7	-91.4	6.8
2025-01-30 18:04:49.868930	335.9	14.5	-91.4	5.6
#Closed at: 2025-01-30 17:55:55.055147