passes_logs/2025/01/30/LEX_Murmansk/LEX_Murmansk__20250130_075604_NOAA_18_rec.log

#Pass ID: 20250130_075604_NOAA 18
#Satellite: NOAA 18
#Configuration: NOAA 18
#Start time: 2025-01-30 07:55:59.802864

#LorettStation: 1.0.0 05.05.2024
#Station: LEX_Murmansk
#Location: 33.156738 lon 68.926811 lat
#TLE: 1 28654U 05018A   25029.10768076  .00000445  00000+0  25948-3 0  9995
#TLE: 2 28654  98.8544 110.0207 0014928 140.4380 219.7885 14.13500636 15173

#Time	Az	El	Level	SNR
2025-01-30 07:56:12.082266	39.9	15.9	-90.8	5.6
2025-01-30 07:56:13.253095	40.1	16.0	-90.9	5.3
2025-01-30 07:56:14.412150	40.2	16.1	-91.0	5.3
2025-01-30 07:56:15.572691	40.4	16.2	-90.8	6.7
2025-01-30 07:56:16.731196	40.6	16.3	-91.1	4.1
2025-01-30 07:56:17.894325	40.8	16.4	-91.0	5.5
2025-01-30 07:56:19.058579	41.0	16.5	-90.9	3.8
2025-01-30 07:56:20.223821	41.2	16.6	-90.9	5.2
2025-01-30 07:56:21.381711	41.4	16.6	-90.9	3.7
2025-01-30 07:56:22.549561	41.5	16.7	-90.8	5.6
2025-01-30 07:56:23.718971	41.7	16.8	-91.1	4.6
2025-01-30 07:56:24.886356	41.9	16.9	-91.1	4.9
2025-01-30 07:56:26.047728	42.1	17.0	-91.3	1.8
2025-01-30 07:56:27.212142	42.3	17.1	-91.2	4.8
2025-01-30 07:56:28.380351	42.5	17.2	-90.8	3.6
2025-01-30 07:56:29.541395	42.7	17.3	-91.0	3.3
2025-01-30 07:56:30.708711	42.9	17.4	-91.0	4.8
2025-01-30 07:56:31.874002	43.1	17.4	-91.4	4.0
2025-01-30 07:56:33.034223	43.3	17.5	-91.2	3.4
2025-01-30 07:56:34.198709	43.5	17.6	-91.1	5.9
2025-01-30 07:56:35.359659	43.7	17.7	-90.4	6.0
2025-01-30 07:56:36.520165	43.9	17.8	-90.1	5.8
2025-01-30 07:56:37.685393	44.1	17.9	-89.7	8.3
2025-01-30 07:56:38.853003	44.3	18.0	-90.0	7.6
2025-01-30 07:56:40.015947	44.5	18.1	-89.9	8.8
2025-01-30 07:56:41.191576	44.7	18.2	-90.0	7.6
2025-01-30 07:56:42.357520	44.9	18.3	-89.9	8.6
2025-01-30 07:56:43.527437	45.1	18.3	-89.6	7.1
2025-01-30 07:56:44.698818	45.3	18.4	-90.5	5.9
2025-01-30 07:56:45.864102	45.6	18.5	-91.3	8.1
2025-01-30 07:56:47.019684	45.8	18.6	-90.9	7.5
2025-01-30 07:56:48.187648	46.0	18.7	-91.0	5.7
2025-01-30 07:56:49.355474	46.2	18.8	-90.9	7.8
2025-01-30 07:56:50.522314	46.4	18.9	-90.8	7.8
2025-01-30 07:56:51.679234	46.6	19.0	-91.0	8.0
2025-01-30 07:56:52.849055	46.9	19.1	-90.8	8.3
2025-01-30 07:56:54.013239	47.1	19.1	-91.0	9.8
2025-01-30 07:56:55.183288	47.3	19.2	-91.1	8.2
2025-01-30 07:56:56.341448	47.5	19.3	-90.8	12.5
2025-01-30 07:56:57.510248	47.7	19.4	-90.6	11.0
2025-01-30 07:56:58.664277	48.0	19.5	-90.6	9.3
2025-01-30 07:56:59.819183	48.2	19.6	-90.7	12.9
2025-01-30 07:57:00.984650	48.4	19.7	-90.7	11.5
2025-01-30 07:57:02.147094	48.6	19.8	-90.9	12.2
2025-01-30 07:57:03.315284	48.9	19.8	-90.8	10.7
2025-01-30 07:57:04.481811	49.1	19.9	-90.7	10.3
2025-01-30 07:57:05.653292	49.3	20.0	-90.9	7.6
2025-01-30 07:57:06.808714	49.6	20.1	-91.1	10.2
2025-01-30 07:57:07.975044	49.8	20.2	-91.4	12.1
2025-01-30 07:57:09.136076	50.1	20.3	-91.3	7.2
2025-01-30 07:57:10.299090	50.3	20.4	-91.1	9.4
2025-01-30 07:57:11.464216	50.5	20.5	-91.2	12.3
2025-01-30 07:57:12.624951	50.8	20.5	-90.9	8.3
2025-01-30 07:57:13.789827	51.0	20.6	-90.3	9.9
2025-01-30 07:57:14.954067	51.3	20.7	-90.8	9.6
2025-01-30 07:57:16.124308	51.5	20.8	-91.1	11.6
2025-01-30 07:57:17.288927	51.7	20.9	-91.2	12.8
2025-01-30 07:57:18.457185	52.0	21.0	-91.0	15.8
2025-01-30 07:57:19.622314	52.2	21.1	-91.0	11.0
2025-01-30 07:57:20.796483	52.5	21.1	-91.2	14.3
2025-01-30 07:57:21.962397	52.7	21.2	-91.2	16.4
2025-01-30 07:57:23.130484	53.0	21.3	-91.3	12.5
2025-01-30 07:57:24.292748	53.3	21.4	-91.2	13.1
2025-01-30 07:57:25.457793	53.5	21.5	-91.0	14.3
2025-01-30 07:57:26.616982	53.8	21.6	-90.9	15.2
2025-01-30 07:57:27.775782	54.0	21.6	-90.9	14.9
2025-01-30 07:57:28.940136	54.3	21.7	-91.0	14.4
2025-01-30 07:57:30.106457	54.5	21.8	-91.3	11.5
2025-01-30 07:57:31.272230	54.8	21.9	-91.1	8.6
2025-01-30 07:57:32.439784	55.1	22.0	-90.9	13.3
2025-01-30 07:57:33.604546	55.3	22.1	-90.7	6.8
2025-01-30 07:57:34.782516	55.6	22.1	-90.7	5.6
2025-01-30 07:57:35.949984	55.9	22.2	-91.3	13.7
2025-01-30 07:57:37.108399	56.1	22.3	-91.5	10.9
2025-01-30 07:57:38.282362	56.4	22.4	-91.1	12.9
2025-01-30 07:57:39.450958	56.7	22.5	-90.8	14.3
2025-01-30 07:57:40.611658	57.0	22.5	-90.8	14.7
2025-01-30 07:57:41.774427	57.2	22.6	-91.0	14.5
2025-01-30 07:57:42.937645	57.5	22.7	-91.2	14.3
2025-01-30 07:57:44.103325	57.8	22.8	-91.4	12.9
2025-01-30 07:57:45.268379	58.1	22.8	-91.2	12.3
2025-01-30 07:57:46.436358	58.3	22.9	-91.0	14.5
2025-01-30 07:57:47.594708	58.6	23.0	-91.5	10.7
2025-01-30 07:57:48.761875	58.9	23.1	-91.2	11.8
2025-01-30 07:57:49.926181	59.2	23.2	-91.4	15.6
2025-01-30 07:57:51.093232	59.5	23.2	-91.3	10.8
2025-01-30 07:57:52.257243	59.8	23.3	-91.4	10.0
2025-01-30 07:57:53.417874	60.0	23.4	-91.1	11.9
2025-01-30 07:57:54.579437	60.3	23.4	-91.0	12.9
2025-01-30 07:57:55.747873	60.6	23.5	-90.8	13.1
2025-01-30 07:57:56.914364	60.9	23.6	-90.9	12.8
2025-01-30 07:57:58.071112	61.2	23.7	-91.1	9.4
2025-01-30 07:57:59.231391	61.5	23.7	-90.8	6.9
2025-01-30 07:58:00.391641	61.8	23.8	-91.1	12.7
2025-01-30 07:58:01.549039	62.1	23.9	-91.3	8.0
2025-01-30 07:58:02.714771	62.4	23.9	-91.2	6.0
2025-01-30 07:58:03.881473	62.7	24.0	-91.3	14.3
2025-01-30 07:58:05.029379	63.0	24.1	-91.6	11.1
2025-01-30 07:58:06.196215	63.3	24.1	-91.6	9.4
2025-01-30 07:58:07.354735	63.6	24.2	-91.2	12.7
2025-01-30 07:58:08.521175	63.9	24.3	-91.4	13.5
2025-01-30 07:58:09.691880	64.2	24.3	-91.2	12.3
2025-01-30 07:58:10.856314	64.5	24.4	-91.4	10.1
2025-01-30 07:58:12.025522	64.8	24.5	-91.5	14.5
2025-01-30 07:58:13.186991	65.1	24.5	-91.1	13.1
2025-01-30 07:58:14.350838	65.4	24.6	-91.0	13.8
2025-01-30 07:58:15.516258	65.8	24.7	-91.3	13.3
2025-01-30 07:58:16.683937	66.1	24.7	-91.2	8.3
2025-01-30 07:58:17.850664	66.4	24.8	-91.4	10.5
2025-01-30 07:58:19.012143	66.7	24.8	-91.2	9.8
2025-01-30 07:58:20.144537	67.0	24.9	-91.4	5.6
2025-01-30 07:58:21.269305	67.3	25.0	-91.4	7.3
2025-01-30 07:58:22.427582	67.6	25.0	-91.0	8.8
2025-01-30 07:58:23.594875	68.0	25.1	-91.3	6.5
2025-01-30 07:58:24.754941	68.3	25.1	-91.2	8.5
2025-01-30 07:58:25.920194	68.6	25.2	-91.3	6.7
2025-01-30 07:58:27.080822	68.9	25.2	-91.3	12.2
2025-01-30 07:58:28.246710	69.2	25.3	-91.0	9.3
2025-01-30 07:58:29.410980	69.6	25.3	-91.2	7.1
2025-01-30 07:58:30.574307	69.9	25.4	-91.4	5.4
2025-01-30 07:58:31.744436	70.2	25.4	-91.6	5.3
2025-01-30 07:58:32.907539	70.6	25.5	-91.4	6.9
2025-01-30 07:58:34.078520	70.9	25.5	-90.3	6.4
2025-01-30 07:58:35.241794	71.2	25.6	-90.0	2.4
2025-01-30 07:58:36.403873	71.6	25.6	-90.0	5.4
2025-01-30 07:58:37.573679	71.9	25.7	-90.3	5.0
2025-01-30 07:58:38.737732	72.2	25.7	-90.5	4.7
2025-01-30 07:58:39.911239	72.6	25.8	-90.3	6.5
2025-01-30 07:58:41.075541	72.9	25.8	-90.1	4.5
2025-01-30 07:58:42.245792	73.2	25.9	-90.2	6.3
2025-01-30 07:58:43.406273	73.6	25.9	-90.1	5.6
2025-01-30 07:58:44.573350	73.9	25.9	-90.2	4.3
2025-01-30 07:58:45.735764	74.2	26.0	-91.4	6.1
2025-01-30 07:58:46.896254	74.6	26.0	-91.6	6.0
2025-01-30 07:58:48.063362	74.9	26.1	-91.4	3.8
2025-01-30 07:58:49.227023	75.3	26.1	-91.3	4.2
2025-01-30 07:58:50.388731	75.6	26.1	-90.2	4.4
2025-01-30 07:58:51.550356	76.0	26.2	-90.0	3.9
2025-01-30 07:58:52.729033	76.3	26.2	-90.7	6.2
2025-01-30 07:58:53.896453	76.6	26.2	-90.4	5.3
2025-01-30 07:58:55.059982	77.0	26.3	-90.0	6.8
2025-01-30 07:58:56.227470	77.3	26.3	-90.2	6.1
2025-01-30 07:58:57.396170	77.7	26.3	-89.8	4.9
2025-01-30 07:58:58.555006	78.0	26.4	-89.9	4.6
2025-01-30 07:58:59.717863	78.4	26.4	-89.9	3.3
2025-01-30 07:59:00.878101	78.7	26.4	-90.0	5.1
2025-01-30 07:59:02.043763	79.1	26.4	-91.4	6.7
2025-01-30 07:59:03.214460	79.4	26.5	-91.0	5.3
2025-01-30 07:59:04.375812	79.8	26.5	-90.9	10.4
2025-01-30 07:59:05.539088	80.1	26.5	-91.0	9.2
2025-01-30 07:59:06.696596	80.5	26.5	-91.1	7.2
2025-01-30 07:59:07.860888	80.8	26.5	-91.2	9.2
2025-01-30 07:59:09.031246	81.2	26.6	-91.6	8.5
2025-01-30 07:59:10.195771	81.5	26.6	-91.3	6.7
2025-01-30 07:59:11.362460	81.9	26.6	-91.1	5.4
2025-01-30 07:59:12.525547	82.2	26.6	-91.2	4.6
2025-01-30 07:59:13.688946	82.6	26.6	-91.0	6.8
2025-01-30 07:59:14.859882	82.9	26.6	-91.4	7.2
2025-01-30 07:59:16.023085	83.3	26.6	-91.4	6.5
2025-01-30 07:59:17.177875	83.7	26.7	-91.0	6.4
2025-01-30 07:59:18.342095	84.0	26.7	-91.1	6.2
2025-01-30 07:59:19.511794	84.4	26.7	-91.1	6.8
2025-01-30 07:59:20.670490	84.7	26.7	-91.3	7.6
2025-01-30 07:59:21.833826	85.1	26.7	-91.4	5.3
2025-01-30 07:59:22.997800	85.4	26.7	-91.5	4.8
2025-01-30 07:59:24.165007	85.8	26.7	-91.2	5.4
2025-01-30 07:59:25.334493	86.1	26.7	-91.1	5.6
2025-01-30 07:59:26.499756	86.5	26.7	-91.3	8.6
2025-01-30 07:59:27.664225	86.9	26.7	-91.4	6.4
2025-01-30 07:59:28.823505	87.2	26.7	-91.8	8.6
2025-01-30 07:59:29.989392	87.6	26.7	-91.5	9.3
2025-01-30 07:59:31.152890	87.9	26.7	-91.4	6.4
2025-01-30 07:59:32.328203	88.3	26.7	-91.4	8.9
2025-01-30 07:59:33.495793	88.6	26.7	-91.2	7.2
2025-01-30 07:59:34.659563	89.0	26.7	-91.3	7.5
2025-01-30 07:59:35.833968	89.3	26.7	-91.1	10.3
2025-01-30 07:59:36.993697	89.7	26.7	-91.0	9.4
2025-01-30 07:59:38.167539	90.1	26.7	-91.3	6.4
2025-01-30 07:59:39.330950	90.4	26.6	-91.0	11.0
2025-01-30 07:59:40.495687	90.8	26.6	-91.3	9.4
2025-01-30 07:59:41.660616	91.1	26.6	-91.6	9.9
2025-01-30 07:59:42.826481	91.5	26.6	-91.2	8.7
2025-01-30 07:59:43.983907	91.8	26.6	-91.5	8.8
2025-01-30 07:59:45.146290	92.2	26.6	-91.3	6.6
2025-01-30 07:59:46.310675	92.5	26.5	-91.1	7.9
2025-01-30 07:59:47.471318	92.9	26.5	-91.0	9.8
2025-01-30 07:59:48.642822	93.2	26.5	-91.2	7.6
2025-01-30 07:59:49.807111	93.6	26.5	-91.3	8.5
2025-01-30 07:59:50.970837	93.9	26.5	-91.1	6.4
2025-01-30 07:59:52.131502	94.3	26.4	-91.4	9.2
2025-01-30 07:59:53.298927	94.6	26.4	-90.8	8.8
2025-01-30 07:59:54.468313	95.0	26.4	-90.9	9.0
2025-01-30 07:59:55.633008	95.3	26.4	-90.9	11.6
2025-01-30 07:59:56.792189	95.7	26.3	-91.3	11.5
2025-01-30 07:59:57.953350	96.0	26.3	-91.3	13.6
2025-01-30 07:59:59.109507	96.4	26.3	-91.2	11.5
2025-01-30 08:00:00.257391	96.7	26.2	-91.2	12.3
2025-01-30 08:00:01.430603	97.1	26.2	-91.3	10.4
2025-01-30 08:00:02.596514	97.4	26.2	-91.3	12.0
2025-01-30 08:00:03.770475	97.8	26.1	-91.2	12.7
2025-01-30 08:00:04.936986	98.1	26.1	-90.9	13.9
2025-01-30 08:00:06.100782	98.4	26.1	-90.9	11.7
2025-01-30 08:00:07.261228	98.8	26.0	-91.2	12.4
2025-01-30 08:00:08.423925	99.1	26.0	-91.4	11.6
2025-01-30 08:00:09.590750	99.5	26.0	-91.3	11.0
2025-01-30 08:00:10.754545	99.8	25.9	-91.0	11.4
2025-01-30 08:00:11.924920	100.1	25.9	-91.0	13.0
2025-01-30 08:00:13.085381	100.5	25.8	-90.9	10.7
2025-01-30 08:00:14.248297	100.8	25.8	-91.1	10.8
2025-01-30 08:00:15.417556	101.2	25.7	-91.0	12.0
2025-01-30 08:00:16.580837	101.5	25.7	-91.3	10.9
2025-01-30 08:00:17.749091	101.8	25.6	-91.4	8.5
2025-01-30 08:00:18.916253	102.2	25.6	-91.3	10.7
2025-01-30 08:00:20.084053	102.5	25.6	-91.6	8.5
2025-01-30 08:00:21.256437	102.8	25.5	-91.5	8.1
2025-01-30 08:00:22.418575	103.2	25.5	-91.2	10.1
2025-01-30 08:00:23.595121	103.5	25.4	-91.0	8.1
2025-01-30 08:00:24.761803	103.8	25.3	-91.0	7.4
2025-01-30 08:00:25.926350	104.1	25.3	-91.2	7.2
2025-01-30 08:00:27.084442	104.5	25.2	-91.3	6.5
2025-01-30 08:00:28.248094	104.8	25.2	-91.3	9.2
2025-01-30 08:00:29.416008	105.1	25.1	-91.4	9.3
2025-01-30 08:00:30.580432	105.4	25.1	-91.0	9.2
2025-01-30 08:00:31.749573	105.8	25.0	-91.3	11.0
2025-01-30 08:00:32.913852	106.1	25.0	-91.5	13.4
2025-01-30 08:00:34.084415	106.4	24.9	-91.5	11.4
2025-01-30 08:00:35.263645	106.7	24.8	-91.4	11.1
2025-01-30 08:00:36.434085	107.0	24.8	-91.2	13.2
2025-01-30 08:00:37.596522	107.4	24.7	-90.9	12.2
2025-01-30 08:00:38.762994	107.7	24.7	-91.1	12.7
2025-01-30 08:00:39.922789	108.0	24.6	-91.6	11.8
2025-01-30 08:00:41.081177	108.3	24.5	-91.4	10.6
2025-01-30 08:00:42.252119	108.6	24.5	-91.3	9.9
2025-01-30 08:00:43.422087	108.9	24.4	-91.1	11.1
2025-01-30 08:00:44.590927	109.2	24.3	-90.9	8.5
2025-01-30 08:00:45.755490	109.5	24.3	-91.4	10.0
2025-01-30 08:00:46.919493	109.8	24.2	-91.4	7.0
2025-01-30 08:00:48.078449	110.1	24.1	-91.6	8.9
2025-01-30 08:00:49.239273	110.4	24.1	-91.3	8.6
2025-01-30 08:00:50.402095	110.7	24.0	-91.3	8.5
2025-01-30 08:00:51.571291	111.1	23.9	-91.3	6.1
2025-01-30 08:00:52.737690	111.4	23.9	-91.7	8.1
2025-01-30 08:00:53.906087	111.6	23.8	-91.5	8.6
2025-01-30 08:00:55.073688	111.9	23.7	-91.4	7.9
2025-01-30 08:00:56.243900	112.2	23.6	-91.1	6.9
2025-01-30 08:00:57.412105	112.5	23.6	-91.1	6.3
2025-01-30 08:00:58.573905	112.8	23.5	-91.3	7.4
2025-01-30 08:00:59.748357	113.1	23.4	-91.5	6.3
2025-01-30 08:01:00.913383	113.4	23.4	-91.3	6.2
2025-01-30 08:01:02.077968	113.7	23.3	-91.3	5.9
2025-01-30 08:01:03.245053	114.0	23.2	-91.0	5.4
2025-01-30 08:01:04.416071	114.3	23.1	-91.4	9.5
2025-01-30 08:01:05.578693	114.6	23.1	-91.2	6.6
2025-01-30 08:01:06.746136	114.9	23.0	-91.4	8.8
2025-01-30 08:01:07.907271	115.1	22.9	-91.5	9.6
2025-01-30 08:01:09.072696	115.4	22.8	-91.2	6.6
2025-01-30 08:01:10.237957	115.7	22.7	-91.0	8.6
2025-01-30 08:01:11.407594	116.0	22.7	-91.1	11.6
2025-01-30 08:01:12.572356	116.3	22.6	-91.5	8.1
2025-01-30 08:01:13.735343	116.5	22.5	-91.5	7.9
2025-01-30 08:01:14.897517	116.8	22.4	-91.4	13.0
2025-01-30 08:01:16.070987	117.1	22.3	-90.9	7.9
2025-01-30 08:01:17.234847	117.3	22.3	-91.3	7.6
2025-01-30 08:01:18.400269	117.6	22.2	-91.4	11.9
2025-01-30 08:01:19.567285	117.9	22.1	-91.4	7.7
2025-01-30 08:01:20.726459	118.2	22.0	-91.4	8.8
2025-01-30 08:01:21.883990	118.4	21.9	-91.1	14.5
2025-01-30 08:01:23.042504	118.7	21.9	-91.0	11.1
2025-01-30 08:01:24.211782	118.9	21.8	-91.0	8.5
2025-01-30 08:01:25.376904	119.2	21.7	-90.8	12.8
2025-01-30 08:01:26.546483	119.5	21.6	-90.7	9.3
2025-01-30 08:01:27.704464	119.7	21.5	-90.9	8.0
2025-01-30 08:01:28.865013	120.0	21.4	-91.2	11.5
2025-01-30 08:01:30.032611	120.2	21.4	-91.0	10.3
2025-01-30 08:01:31.193276	120.5	21.3	-91.2	9.8
2025-01-30 08:01:32.362699	120.8	21.2	-91.3	12.2
2025-01-30 08:01:33.526488	121.0	21.1	-90.8	10.3
2025-01-30 08:01:34.693469	121.3	21.0	-91.1	11.8
2025-01-30 08:01:35.860792	121.5	20.9	-91.4	14.0
2025-01-30 08:01:37.028024	121.8	20.8	-91.5	14.8
2025-01-30 08:01:38.193439	122.0	20.8	-90.1	12.0
2025-01-30 08:01:39.362109	122.2	20.7	-89.9	12.9
2025-01-30 08:01:40.532246	122.5	20.6	-89.6	14.5
2025-01-30 08:01:41.694508	122.7	20.5	-90.1	14.7
2025-01-30 08:01:42.861387	123.0	20.4	-90.2	12.4
2025-01-30 08:01:44.027241	123.2	20.3	-90.1	10.9
2025-01-30 08:01:45.194252	123.5	20.2	-90.4	13.2
2025-01-30 08:01:46.362049	123.7	20.1	-91.0	11.9
2025-01-30 08:01:47.518899	123.9	20.1	-91.4	12.5
2025-01-30 08:01:48.688138	124.2	20.0	-91.2	9.5
2025-01-30 08:01:49.844490	124.4	19.9	-91.1	12.6
2025-01-30 08:01:51.006133	124.6	19.8	-91.1	10.9
2025-01-30 08:01:52.167442	124.9	19.7	-91.0	8.4
2025-01-30 08:01:53.334424	125.1	19.6	-91.2	13.2
2025-01-30 08:01:54.497914	125.3	19.5	-91.3	13.4
2025-01-30 08:01:55.669030	125.6	19.4	-90.0	8.2
2025-01-30 08:01:56.836649	125.8	19.4	-90.2	13.3
2025-01-30 08:01:57.997768	126.0	19.3	-90.1	13.2
2025-01-30 08:01:59.167451	126.2	19.2	-90.1	9.0
2025-01-30 08:02:00.330792	126.4	19.1	-90.1	13.4
2025-01-30 08:02:01.497990	126.7	19.0	-90.1	11.8
2025-01-30 08:02:02.655243	126.9	18.9	-91.5	8.9
2025-01-30 08:02:03.820300	127.1	18.8	-91.6	12.5
2025-01-30 08:02:04.983930	127.3	18.7	-91.5	11.7
2025-01-30 08:02:06.150627	127.5	18.6	-91.7	10.4
2025-01-30 08:02:07.318402	127.8	18.5	-91.6	12.4
2025-01-30 08:02:08.477515	128.0	18.5	-91.2	13.5
2025-01-30 08:02:09.646196	128.2	18.4	-91.8	14.1
2025-01-30 08:02:10.808208	128.4	18.3	-91.6	14.6
2025-01-30 08:02:11.974928	128.6	18.2	-91.5	13.8
2025-01-30 08:02:13.137699	128.8	18.1	-91.4	14.5
2025-01-30 08:02:14.302035	129.0	18.0	-91.2	13.4
2025-01-30 08:02:15.470830	129.2	17.9	-91.2	12.5
2025-01-30 08:02:16.636359	129.4	17.8	-91.2	10.6
2025-01-30 08:02:17.801859	129.6	17.7	-91.4	11.6
2025-01-30 08:02:18.965633	129.8	17.6	-91.4	12.1
2025-01-30 08:02:20.130062	130.0	17.6	-91.5	8.6
2025-01-30 08:02:21.294060	130.2	17.5	-91.3	10.7
2025-01-30 08:02:22.454917	130.4	17.4	-91.3	9.9
2025-01-30 08:02:23.617068	130.6	17.3	-91.2	8.7
2025-01-30 08:02:24.783906	130.8	17.2	-91.5	7.4
2025-01-30 08:02:25.949171	131.0	17.1	-91.5	9.1
2025-01-30 08:02:27.107084	131.2	17.0	-91.4	7.8
2025-01-30 08:02:28.263471	131.4	16.9	-91.5	8.0
2025-01-30 08:02:29.430619	131.6	16.8	-91.8	10.8
2025-01-30 08:02:30.601253	131.8	16.7	-91.2	8.9
2025-01-30 08:02:31.763846	132.0	16.7	-91.2	7.5
2025-01-30 08:02:32.935162	132.2	16.6	-91.0	5.4
2025-01-30 08:02:34.097102	132.4	16.5	-91.1	6.9
2025-01-30 08:02:35.258733	132.6	16.4	-91.3	6.6
2025-01-30 08:02:36.428135	132.8	16.3	-91.5	8.0
2025-01-30 08:02:37.588684	132.9	16.2	-91.5	6.1
2025-01-30 08:02:38.759717	133.1	16.1	-90.9	5.8
2025-01-30 08:02:39.923870	133.3	16.0	-91.0	4.8
2025-01-30 08:02:41.094407	133.5	15.9	-91.3	6.1
2025-01-30 08:02:42.265779	133.7	15.8	-91.4	5.0
2025-01-30 08:02:43.432210	133.8	15.8	-91.1	6.1
2025-01-30 08:02:44.611737	134.0	15.7	-91.1	4.4
2025-01-30 08:02:45.777333	134.2	15.6	-90.2	5.4
2025-01-30 08:02:46.943595	134.4	15.5	-90.8	6.6
2025-01-30 08:02:48.107641	134.6	15.4	-90.7	5.1
2025-01-30 08:02:49.277229	134.7	15.3	-91.1	6.6
2025-01-30 08:02:50.442501	134.9	15.2	-91.5	6.7
2025-01-30 08:02:51.606732	135.1	15.1	-91.6	4.7
2025-01-30 08:02:52.771152	135.3	15.0	-91.6	4.8
2025-01-30 08:02:53.940055	135.4	15.0	-91.5	7.2
2025-01-30 08:02:55.103457	135.6	14.9	-91.4	5.7
2025-01-30 08:02:56.272104	135.8	14.8	-91.2	7.5
2025-01-30 08:02:57.439512	135.9	14.7	-91.5	4.0
2025-01-30 08:02:58.633527	136.1	14.6	-91.7	4.7
#Closed at: 2025-01-30 07:56:04.870891