passes_logs/2025/01/30/LEX_Murmansk/LEX_Murmansk__20250130_073400_NOAA_19_rec.log

#Pass ID: 20250130_073400_NOAA 19
#Satellite: NOAA 19
#Configuration: NOAA 19
#Start time: 2025-01-30 07:33:55.154615

#LorettStation: 1.0.0 05.05.2024
#Station: LEX_Murmansk
#Location: 33.156738 lon 68.926811 lat
#TLE: 1 33591U 09005A   25029.16356990  .00000402  00000+0  23831-3 0  9997
#TLE: 2 33591  99.0170  93.0339 0013919  18.9524 341.2163 14.13271889823544

#Time	Az	El	Level	SNR
2025-01-30 07:34:07.271703	32.9	16.2	-90.5	4.7
2025-01-30 07:34:08.429843	33.0	16.3	-90.8	3.7
2025-01-30 07:34:09.591192	33.2	16.4	-90.6	5.5
2025-01-30 07:34:10.750981	33.3	16.5	-91.1	4.7
2025-01-30 07:34:11.912505	33.4	16.6	-91.0	5.2
2025-01-30 07:34:13.079242	33.5	16.7	-91.0	3.5
2025-01-30 07:34:14.243414	33.6	16.8	-91.2	4.0
2025-01-30 07:34:15.410519	33.8	17.0	-91.0	3.8
2025-01-30 07:34:16.576669	33.9	17.1	-90.9	5.1
2025-01-30 07:34:17.744190	34.0	17.2	-91.1	3.8
2025-01-30 07:34:18.908455	34.1	17.3	-91.1	2.8
2025-01-30 07:34:20.065542	34.3	17.4	-91.0	1.1
2025-01-30 07:34:21.221438	34.4	17.5	-90.8	1.7
2025-01-30 07:34:22.386477	34.5	17.7	-91.0	2.9
2025-01-30 07:34:23.550155	34.7	17.8	-91.0	2.2
2025-01-30 07:34:24.708879	34.8	17.9	-91.2	2.7
2025-01-30 07:34:25.871686	34.9	18.0	-90.9	4.4
2025-01-30 07:34:27.032027	35.1	18.1	-91.0	6.3
2025-01-30 07:34:28.204334	35.2	18.3	-90.8	4.2
2025-01-30 07:34:29.358552	35.3	18.4	-90.7	4.4
2025-01-30 07:34:30.523835	35.5	18.5	-91.0	5.6
2025-01-30 07:34:31.688264	35.6	18.6	-91.0	4.7
2025-01-30 07:34:32.858809	35.7	18.8	-91.1	5.6
2025-01-30 07:34:34.024394	35.9	18.9	-91.1	6.7
2025-01-30 07:34:35.188925	36.0	19.0	-90.9	5.3
2025-01-30 07:34:36.355337	36.2	19.1	-90.6	3.6
2025-01-30 07:34:37.522614	36.3	19.2	-91.0	4.4
2025-01-30 07:34:38.702224	36.4	19.4	-91.0	2.5
2025-01-30 07:34:39.862541	36.6	19.5	-90.9	3.2
2025-01-30 07:34:41.034832	36.7	19.6	-91.2	2.9
2025-01-30 07:34:42.201155	36.9	19.8	-91.3	5.0
2025-01-30 07:34:43.361489	37.0	19.9	-91.0	6.2
2025-01-30 07:34:44.529166	37.2	20.0	-90.8	8.2
2025-01-30 07:34:45.695198	37.3	20.1	-91.0	6.6
2025-01-30 07:34:46.857371	37.5	20.3	-91.0	6.0
2025-01-30 07:34:48.019089	37.6	20.4	-90.7	7.3
2025-01-30 07:34:49.186746	37.8	20.5	-90.5	5.6
2025-01-30 07:34:50.343346	37.9	20.6	-91.0	7.6
2025-01-30 07:34:51.509123	38.1	20.8	-91.0	7.6
2025-01-30 07:34:52.677708	38.3	20.9	-91.0	8.6
2025-01-30 07:34:53.840929	38.4	21.0	-91.3	6.7
2025-01-30 07:34:55.005318	38.6	21.2	-91.1	4.9
2025-01-30 07:34:56.169568	38.7	21.3	-90.8	2.8
2025-01-30 07:34:57.332553	38.9	21.4	-90.5	3.4
2025-01-30 07:34:58.496418	39.1	21.6	-90.4	3.7
2025-01-30 07:34:59.657423	39.2	21.7	-90.6	5.6
2025-01-30 07:35:00.824238	39.4	21.8	-90.7	7.1
2025-01-30 07:35:01.985166	39.6	22.0	-89.8	7.1
2025-01-30 07:35:03.154155	39.7	22.1	-90.7	9.3
2025-01-30 07:35:04.317384	39.9	22.2	-90.7	7.2
2025-01-30 07:35:05.479497	40.1	22.4	-90.4	9.2
2025-01-30 07:35:06.648123	40.2	22.5	-90.3	7.4
2025-01-30 07:35:07.814393	40.4	22.6	-90.4	5.4
2025-01-30 07:35:08.982291	40.6	22.8	-90.6	7.7
2025-01-30 07:35:10.137762	40.8	22.9	-90.8	9.6
2025-01-30 07:35:11.300258	41.0	23.1	-90.8	9.2
2025-01-30 07:35:12.468923	41.1	23.2	-90.9	6.0
2025-01-30 07:35:13.633053	41.3	23.3	-90.9	4.0
2025-01-30 07:35:14.797698	41.5	23.5	-90.7	3.1
2025-01-30 07:35:15.967378	41.7	23.6	-90.9	3.3
2025-01-30 07:35:17.129765	41.9	23.7	-90.8	3.6
2025-01-30 07:35:18.299040	42.1	23.9	-90.7	4.2
2025-01-30 07:35:19.462442	42.3	24.0	-90.8	5.8
2025-01-30 07:35:20.626630	42.5	24.2	-90.7	8.9
2025-01-30 07:35:21.793613	42.6	24.3	-90.8	10.1
2025-01-30 07:35:22.958993	42.8	24.5	-90.4	9.5
2025-01-30 07:35:24.132823	43.0	24.6	-90.6	8.8
2025-01-30 07:35:25.297618	43.2	24.7	-90.6	7.0
2025-01-30 07:35:26.467591	43.4	24.9	-90.5	8.3
2025-01-30 07:35:27.631091	43.6	25.0	-90.8	10.5
2025-01-30 07:35:28.800283	43.9	25.2	-91.0	10.3
2025-01-30 07:35:29.956914	44.1	25.3	-91.1	11.3
2025-01-30 07:35:31.121712	44.3	25.5	-90.8	11.1
2025-01-30 07:35:32.285128	44.5	25.6	-90.7	5.3
2025-01-30 07:35:33.450421	44.7	25.8	-90.8	5.1
2025-01-30 07:35:34.614426	44.9	25.9	-90.9	3.2
2025-01-30 07:35:35.777936	45.1	26.0	-90.9	0.4
2025-01-30 07:35:36.941256	45.3	26.2	-90.9	2.9
2025-01-30 07:35:38.104526	45.6	26.3	-90.7	1.0
2025-01-30 07:35:39.268796	45.8	26.5	-90.9	2.3
2025-01-30 07:35:40.433324	46.0	26.6	-91.1	7.2
2025-01-30 07:35:41.594521	46.2	26.8	-91.2	5.2
2025-01-30 07:35:42.759491	46.5	26.9	-91.3	8.1
2025-01-30 07:35:43.930362	46.7	27.1	-91.1	5.7
2025-01-30 07:35:45.093672	46.9	27.2	-91.1	6.1
2025-01-30 07:35:46.255073	47.2	27.4	-90.9	4.7
2025-01-30 07:35:47.422951	47.4	27.5	-91.1	6.1
2025-01-30 07:35:48.583385	47.6	27.7	-90.9	3.6
2025-01-30 07:35:49.743396	47.9	27.8	-90.8	3.8
2025-01-30 07:35:50.921669	48.1	28.0	-91.3	6.4
2025-01-30 07:35:52.085615	48.4	28.1	-91.0	5.7
2025-01-30 07:35:53.247553	48.6	28.3	-90.7	4.7
2025-01-30 07:35:54.411190	48.9	28.4	-90.7	4.2
2025-01-30 07:35:55.585995	49.1	28.6	-91.2	1.5
2025-01-30 07:35:56.757418	49.4	28.7	-91.1	1.2
2025-01-30 07:35:57.917987	49.6	28.9	-91.3	4.3
2025-01-30 07:35:59.082745	49.9	29.0	-91.3	5.6
2025-01-30 07:36:00.236494	50.1	29.2	-90.8	4.8
2025-01-30 07:36:01.408474	50.4	29.3	-90.7	6.7
2025-01-30 07:36:02.572567	50.7	29.5	-91.0	5.7
2025-01-30 07:36:03.738042	50.9	29.6	-91.3	5.4
2025-01-30 07:36:04.904857	51.2	29.8	-91.2	4.9
2025-01-30 07:36:06.068428	51.5	30.0	-91.2	5.1
2025-01-30 07:36:07.236558	51.8	30.1	-90.9	4.8
2025-01-30 07:36:08.402839	52.0	30.3	-90.9	5.8
2025-01-30 07:36:09.567444	52.3	30.4	-91.0	9.7
2025-01-30 07:36:10.729356	52.6	30.6	-91.3	10.5
2025-01-30 07:36:11.890132	52.9	30.7	-91.3	12.8
2025-01-30 07:36:13.047304	53.2	30.9	-90.6	9.4
2025-01-30 07:36:14.209596	53.5	31.0	-90.9	9.1
2025-01-30 07:36:15.367554	53.8	31.2	-91.1	6.0
2025-01-30 07:36:16.531984	54.1	31.3	-91.1	4.9
2025-01-30 07:36:17.693490	54.4	31.5	-91.0	3.6
2025-01-30 07:36:18.871841	54.7	31.6	-90.8	2.9
2025-01-30 07:36:20.039115	55.0	31.8	-90.8	3.5
2025-01-30 07:36:21.203519	55.3	32.0	-91.1	3.7
2025-01-30 07:36:22.371512	55.6	32.1	-90.9	7.5
2025-01-30 07:36:23.534666	55.9	32.3	-90.9	12.8
2025-01-30 07:36:24.695573	56.2	32.4	-90.8	12.2
2025-01-30 07:36:25.862342	56.5	32.6	-90.7	13.3
2025-01-30 07:36:27.031621	56.9	32.7	-90.2	12.9
2025-01-30 07:36:28.187915	57.2	32.9	-90.9	11.4
2025-01-30 07:36:29.355338	57.5	33.0	-91.2	8.6
2025-01-30 07:36:30.528593	57.9	33.2	-91.0	11.6
2025-01-30 07:36:31.693995	58.2	33.3	-90.8	9.5
2025-01-30 07:36:32.863295	58.5	33.5	-90.8	10.4
2025-01-30 07:36:34.028886	58.9	33.6	-91.0	16.1
2025-01-30 07:36:35.190954	59.2	33.8	-91.2	16.6
2025-01-30 07:36:36.353043	59.6	33.9	-91.4	15.7
2025-01-30 07:36:37.518517	59.9	34.1	-91.0	13.7
2025-01-30 07:36:38.680626	60.3	34.2	-91.1	9.7
2025-01-30 07:36:39.839999	60.6	34.4	-91.0	7.9
2025-01-30 07:36:40.997921	61.0	34.5	-91.1	7.5
2025-01-30 07:36:42.162615	61.3	34.7	-90.7	2.7
2025-01-30 07:36:43.330101	61.7	34.8	-90.7	3.2
2025-01-30 07:36:44.493854	62.1	35.0	-90.6	7.4
2025-01-30 07:36:45.657580	62.5	35.1	-91.1	7.0
2025-01-30 07:36:46.828898	62.8	35.3	-91.2	7.8
2025-01-30 07:36:47.994198	63.2	35.4	-90.8	11.7
2025-01-30 07:36:49.157636	63.6	35.5	-91.0	13.8
2025-01-30 07:36:50.318489	64.0	35.7	-90.9	14.0
2025-01-30 07:36:51.479342	64.4	35.8	-91.0	14.6
2025-01-30 07:36:52.642508	64.8	36.0	-90.8	13.5
2025-01-30 07:36:53.806854	65.2	36.1	-90.8	9.9
2025-01-30 07:36:54.971390	65.6	36.2	-91.0	11.0
2025-01-30 07:36:56.135427	66.0	36.4	-90.9	13.1
2025-01-30 07:36:57.296922	66.4	36.5	-91.3	7.9
2025-01-30 07:36:58.454614	66.8	36.7	-91.2	10.1
2025-01-30 07:36:59.623512	67.2	36.8	-91.1	10.9
2025-01-30 07:37:00.785388	67.6	36.9	-91.2	12.8
2025-01-30 07:37:01.963391	68.0	37.1	-90.8	16.3
2025-01-30 07:37:03.133162	68.5	37.2	-91.1	16.4
2025-01-30 07:37:04.294378	68.9	37.3	-90.8	16.0
2025-01-30 07:37:05.463843	69.3	37.5	-91.2	13.9
2025-01-30 07:37:06.625987	69.7	37.6	-90.8	10.7
2025-01-30 07:37:07.791471	70.2	37.7	-90.7	5.6
2025-01-30 07:37:08.958872	70.6	37.8	-91.1	5.8
2025-01-30 07:37:10.100420	71.1	38.0	-91.0	6.7
2025-01-30 07:37:11.262735	71.5	38.1	-90.9	3.4
2025-01-30 07:37:12.429309	72.0	38.2	-91.0	6.8
2025-01-30 07:37:13.595177	72.4	38.3	-91.2	6.1
2025-01-30 07:37:14.762051	72.9	38.4	-91.4	6.3
2025-01-30 07:37:15.932330	73.3	38.6	-91.0	9.0
2025-01-30 07:37:17.094488	73.8	38.7	-90.8	11.6
2025-01-30 07:37:18.260750	74.3	38.8	-90.7	11.5
2025-01-30 07:37:19.426155	74.7	38.9	-90.9	13.8
2025-01-30 07:37:20.584287	75.2	39.0	-90.9	14.8
2025-01-30 07:37:21.746566	75.7	39.1	-91.0	15.8
2025-01-30 07:37:22.910990	76.2	39.2	-91.2	14.9
2025-01-30 07:37:24.078291	76.6	39.3	-91.1	14.5
2025-01-30 07:37:25.239420	77.1	39.4	-90.8	9.3
2025-01-30 07:37:26.396687	77.6	39.5	-91.0	8.6
2025-01-30 07:37:27.554958	78.1	39.6	-91.1	10.3
2025-01-30 07:37:28.726213	78.6	39.7	-90.9	12.4
2025-01-30 07:37:29.891498	79.1	39.8	-91.0	11.5
2025-01-30 07:37:31.052777	79.6	39.9	-91.3	8.4
2025-01-30 07:37:32.220079	80.1	40.0	-91.3	13.5
2025-01-30 07:37:33.388136	80.6	40.1	-91.4	12.2
2025-01-30 07:37:34.564144	81.1	40.2	-91.1	9.5
2025-01-30 07:37:35.727480	81.6	40.2	-91.1	13.0
2025-01-30 07:37:36.892747	82.1	40.3	-91.1	10.9
2025-01-30 07:37:38.059498	82.6	40.4	-91.2	9.5
2025-01-30 07:37:39.226852	83.2	40.5	-91.2	9.1
2025-01-30 07:37:40.388383	83.7	40.6	-91.3	9.2
2025-01-30 07:37:41.546804	84.2	40.6	-91.4	10.4
2025-01-30 07:37:42.714919	84.7	40.7	-91.4	13.5
2025-01-30 07:37:43.879060	85.2	40.8	-91.4	11.5
2025-01-30 07:37:45.048006	85.8	40.8	-91.3	8.8
2025-01-30 07:37:46.207154	86.3	40.9	-91.2	9.6
2025-01-30 07:37:47.375552	86.8	40.9	-91.3	8.8
2025-01-30 07:37:48.542805	87.4	41.0	-91.3	5.4
2025-01-30 07:37:49.710728	87.9	41.0	-91.3	10.2
2025-01-30 07:37:50.873390	88.4	41.1	-91.2	9.5
2025-01-30 07:37:52.038381	89.0	41.1	-91.2	7.1
2025-01-30 07:37:53.204303	89.5	41.2	-91.2	11.4
2025-01-30 07:37:54.367672	90.1	41.2	-91.2	9.9
2025-01-30 07:37:55.533873	90.6	41.3	-91.2	5.6
2025-01-30 07:37:56.700586	91.2	41.3	-91.3	10.4
2025-01-30 07:37:57.864422	91.7	41.3	-91.2	8.5
2025-01-30 07:37:59.031383	92.3	41.4	-91.2	7.1
2025-01-30 07:38:00.189969	92.8	41.4	-90.7	11.5
2025-01-30 07:38:01.355288	93.3	41.4	-90.9	12.3
2025-01-30 07:38:02.519975	93.9	41.4	-91.2	12.6
2025-01-30 07:38:03.687038	94.4	41.5	-91.2	14.2
2025-01-30 07:38:04.851623	95.0	41.5	-91.3	9.7
2025-01-30 07:38:06.013810	95.6	41.5	-91.2	7.5
2025-01-30 07:38:07.177623	96.1	41.5	-90.9	8.9
2025-01-30 07:38:08.343303	96.7	41.5	-91.1	7.0
2025-01-30 07:38:09.506391	97.2	41.5	-91.4	6.9
2025-01-30 07:38:10.667219	97.8	41.5	-91.3	3.0
2025-01-30 07:38:11.840421	98.3	41.5	-91.4	3.5
2025-01-30 07:38:13.001089	98.9	41.5	-91.4	2.0
2025-01-30 07:38:14.167854	99.4	41.5	-91.1	2.2
2025-01-30 07:38:15.334686	100.0	41.5	-91.2	4.4
2025-01-30 07:38:16.516311	100.5	41.5	-91.3	4.3
2025-01-30 07:38:17.682093	101.1	41.5	-91.1	2.7
2025-01-30 07:38:18.839179	101.6	41.4	-91.2	2.1
2025-01-30 07:38:20.012794	102.2	41.4	-91.0	2.4
2025-01-30 07:38:21.175949	102.7	41.4	-91.1	3.4
2025-01-30 07:38:22.340864	103.3	41.4	-91.0	3.8
2025-01-30 07:38:23.507766	103.8	41.3	-91.2	6.3
2025-01-30 07:38:24.670762	104.4	41.3	-91.4	8.4
2025-01-30 07:38:25.829766	104.9	41.3	-91.3	8.0
2025-01-30 07:38:26.994690	105.5	41.2	-91.1	6.8
2025-01-30 07:38:28.165302	106.0	41.2	-90.9	10.0
2025-01-30 07:38:29.327833	106.5	41.2	-91.1	13.4
2025-01-30 07:38:30.493152	107.1	41.1	-91.3	8.0
2025-01-30 07:38:31.654755	107.6	41.1	-90.8	11.1
2025-01-30 07:38:32.818198	108.2	41.0	-91.2	14.6
2025-01-30 07:38:33.984324	108.7	40.9	-91.2	7.2
2025-01-30 07:38:35.144981	109.2	40.9	-91.0	10.2
2025-01-30 07:38:36.310891	109.7	40.8	-90.7	10.9
2025-01-30 07:38:37.467996	110.3	40.8	-91.1	6.1
2025-01-30 07:38:38.633337	110.8	40.7	-91.3	9.3
2025-01-30 07:38:39.793518	111.3	40.6	-91.1	12.4
2025-01-30 07:38:40.948040	111.8	40.6	-91.2	3.1
2025-01-30 07:38:42.112054	112.4	40.5	-91.0	7.1
2025-01-30 07:38:43.273295	112.9	40.4	-90.9	13.3
2025-01-30 07:38:44.439603	113.4	40.3	-91.3	5.1
2025-01-30 07:38:45.608864	113.9	40.3	-91.2	7.4
2025-01-30 07:38:46.771125	114.4	40.2	-91.3	13.0
2025-01-30 07:38:47.937963	114.9	40.1	-91.3	5.7
2025-01-30 07:38:49.103100	115.4	40.0	-91.1	6.4
2025-01-30 07:38:50.267555	115.9	39.9	-91.1	11.1
2025-01-30 07:38:51.433459	116.4	39.8	-91.4	5.3
2025-01-30 07:38:52.598728	116.9	39.7	-91.4	6.0
2025-01-30 07:38:53.768385	117.4	39.6	-90.8	11.4
2025-01-30 07:38:54.929584	117.9	39.5	-91.2	7.5
2025-01-30 07:38:56.089673	118.4	39.4	-90.9	6.8
2025-01-30 07:38:57.246875	118.9	39.3	-91.4	12.1
2025-01-30 07:38:58.405628	119.4	39.2	-91.1	6.6
2025-01-30 07:38:59.569504	119.8	39.1	-91.1	7.5
2025-01-30 07:39:00.731014	120.3	39.0	-91.0	9.3
2025-01-30 07:39:01.893936	120.8	38.9	-91.1	5.9
2025-01-30 07:39:03.053830	121.3	38.8	-91.1	4.1
2025-01-30 07:39:04.224505	121.7	38.7	-91.0	7.6
2025-01-30 07:39:05.389478	122.2	38.6	-90.7	6.4
2025-01-30 07:39:06.559043	122.7	38.5	-91.3	5.7
2025-01-30 07:39:07.721497	123.1	38.3	-91.2	6.7
2025-01-30 07:39:08.890958	123.6	38.2	-91.0	9.1
2025-01-30 07:39:10.056071	124.0	38.1	-91.1	6.7
2025-01-30 07:39:11.218753	124.5	38.0	-90.8	10.9
2025-01-30 07:39:12.384171	124.9	37.9	-90.9	9.1
2025-01-30 07:39:13.552076	125.3	37.7	-91.0	5.6
2025-01-30 07:39:14.721680	125.8	37.6	-91.0	14.7
2025-01-30 07:39:15.885341	126.2	37.5	-91.0	12.0
2025-01-30 07:39:17.050515	126.6	37.3	-90.8	8.7
2025-01-30 07:39:18.209087	127.1	37.2	-90.7	14.2
2025-01-30 07:39:19.372843	127.5	37.1	-91.2	10.5
2025-01-30 07:39:20.536123	127.9	36.9	-91.4	8.0
2025-01-30 07:39:21.695019	128.3	36.8	-91.1	11.9
2025-01-30 07:39:22.866439	128.7	36.7	-91.2	11.6
2025-01-30 07:39:24.031282	129.2	36.5	-91.1	8.7
2025-01-30 07:39:25.200232	129.6	36.4	-91.2	11.8
2025-01-30 07:39:26.361166	130.0	36.3	-91.2	11.9
2025-01-30 07:39:27.527775	130.4	36.1	-91.5	11.1
2025-01-30 07:39:28.696203	130.8	36.0	-91.3	14.8
2025-01-30 07:39:29.860200	131.2	35.8	-91.3	12.6
2025-01-30 07:39:31.021773	131.6	35.7	-91.2	10.8
2025-01-30 07:39:32.187475	131.9	35.6	-91.1	14.7
2025-01-30 07:39:33.353168	132.3	35.4	-91.1	14.2
2025-01-30 07:39:34.516441	132.7	35.3	-91.1	11.2
2025-01-30 07:39:35.679183	133.1	35.1	-91.1	9.8
2025-01-30 07:39:36.843520	133.5	35.0	-91.2	10.6
2025-01-30 07:39:38.009751	133.8	34.8	-91.3	9.7
2025-01-30 07:39:39.178060	134.2	34.7	-91.0	10.7
2025-01-30 07:39:40.340333	134.6	34.5	-90.9	11.0
2025-01-30 07:39:41.495366	134.9	34.4	-91.4	9.0
2025-01-30 07:39:42.656498	135.3	34.2	-91.0	4.6
2025-01-30 07:39:43.823199	135.6	34.1	-91.1	3.9
2025-01-30 07:39:44.983242	136.0	33.9	-91.2	4.6
2025-01-30 07:39:46.156702	136.3	33.8	-91.3	6.4
2025-01-30 07:39:47.316776	136.7	33.6	-91.0	8.3
2025-01-30 07:39:48.481788	137.0	33.5	-91.4	5.7
2025-01-30 07:39:49.649558	137.3	33.3	-91.3	6.5
2025-01-30 07:39:50.811914	137.7	33.2	-91.0	10.0
2025-01-30 07:39:51.973926	138.0	33.0	-90.8	8.4
2025-01-30 07:39:53.132824	138.3	32.9	-91.1	8.2
2025-01-30 07:39:54.295844	138.7	32.7	-91.2	11.4
2025-01-30 07:39:55.462951	139.0	32.6	-90.9	3.6
2025-01-30 07:39:56.623747	139.3	32.4	-90.8	4.3
2025-01-30 07:39:57.786104	139.6	32.3	-91.1	8.3
2025-01-30 07:39:58.952036	139.9	32.1	-90.9	6.3
2025-01-30 07:40:00.114681	140.3	32.0	-91.0	6.2
2025-01-30 07:40:01.269926	140.6	31.8	-91.2	8.8
2025-01-30 07:40:02.435280	140.9	31.7	-91.2	6.9
2025-01-30 07:40:03.610716	141.2	31.5	-90.8	2.7
2025-01-30 07:40:04.781257	141.5	31.4	-90.8	4.2
2025-01-30 07:40:05.943009	141.8	31.2	-91.2	3.8
2025-01-30 07:40:07.111898	142.1	31.1	-90.9	4.7
2025-01-30 07:40:08.275365	142.4	30.9	-90.9	5.2
2025-01-30 07:40:09.444618	142.7	30.7	-91.0	4.2
2025-01-30 07:40:10.610392	142.9	30.6	-91.0	3.7
2025-01-30 07:40:11.771018	143.2	30.4	-90.9	5.1
2025-01-30 07:40:12.938041	143.5	30.3	-91.2	3.5
2025-01-30 07:40:14.104576	143.8	30.1	-91.1	4.3
2025-01-30 07:40:15.266714	144.1	30.0	-91.1	7.4
2025-01-30 07:40:16.434653	144.3	29.8	-91.1	5.2
2025-01-30 07:40:17.598959	144.6	29.7	-91.2	2.1
2025-01-30 07:40:18.775850	144.9	29.5	-91.2	2.3
2025-01-30 07:40:19.944945	145.1	29.4	-91.2	2.8
2025-01-30 07:40:21.103050	145.4	29.2	-91.3	4.0
2025-01-30 07:40:22.268249	145.7	29.1	-91.2	2.5
2025-01-30 07:40:23.442387	145.9	28.9	-91.2	3.2
2025-01-30 07:40:24.606711	146.2	28.7	-91.1	3.1
2025-01-30 07:40:25.772475	146.4	28.6	-91.4	6.0
2025-01-30 07:40:26.934219	146.7	28.4	-91.4	4.0
2025-01-30 07:40:28.104379	146.9	28.3	-91.2	4.0
2025-01-30 07:40:29.269704	147.2	28.1	-91.2	7.1
2025-01-30 07:40:30.427940	147.4	28.0	-90.9	5.7
2025-01-30 07:40:31.585603	147.7	27.8	-91.3	7.6
2025-01-30 07:40:32.749051	147.9	27.7	-91.2	7.5
2025-01-30 07:40:33.913824	148.2	27.5	-91.1	7.0
2025-01-30 07:40:35.079836	148.4	27.4	-91.2	8.8
2025-01-30 07:40:36.242207	148.6	27.2	-91.1	8.5
2025-01-30 07:40:37.404911	148.9	27.1	-91.3	10.6
2025-01-30 07:40:38.569527	149.1	26.9	-91.2	9.0
2025-01-30 07:40:39.732941	149.3	26.8	-91.0	10.1
2025-01-30 07:40:40.896075	149.5	26.6	-91.1	9.5
2025-01-30 07:40:42.055038	149.8	26.5	-91.5	8.7
2025-01-30 07:40:43.215873	150.0	26.4	-91.2	8.9
2025-01-30 07:40:44.378488	150.2	26.2	-91.0	7.1
2025-01-30 07:40:45.542510	150.4	26.1	-91.3	5.9
2025-01-30 07:40:46.704290	150.6	25.9	-91.1	8.4
2025-01-30 07:40:47.867325	150.9	25.8	-91.3	9.3
2025-01-30 07:40:49.036185	151.1	25.6	-91.5	7.9
2025-01-30 07:40:50.203278	151.3	25.5	-91.2	10.7
2025-01-30 07:40:51.363848	151.5	25.3	-91.4	10.7
2025-01-30 07:40:52.530964	151.7	25.2	-91.1	9.9
2025-01-30 07:40:53.692101	151.9	25.0	-91.3	12.4
2025-01-30 07:40:54.858582	152.1	24.9	-91.5	10.8
2025-01-30 07:40:56.018786	152.3	24.8	-91.4	11.2
2025-01-30 07:40:57.184305	152.5	24.6	-91.3	7.9
2025-01-30 07:40:58.347158	152.7	24.5	-91.2	7.7
2025-01-30 07:40:59.510613	152.9	24.3	-91.3	6.5
2025-01-30 07:41:00.674759	153.1	24.2	-91.0	6.1
2025-01-30 07:41:01.836034	153.3	24.0	-91.3	6.4
2025-01-30 07:41:02.998834	153.5	23.9	-91.0	4.0
2025-01-30 07:41:04.167612	153.7	23.8	-91.1	8.5
2025-01-30 07:41:05.332988	153.8	23.6	-91.5	8.1
2025-01-30 07:41:06.494128	154.0	23.5	-91.4	5.5
2025-01-30 07:41:07.660987	154.2	23.3	-91.6	7.8
2025-01-30 07:41:08.823994	154.4	23.2	-91.4	7.1
2025-01-30 07:41:09.987669	154.6	23.1	-91.3	6.3
2025-01-30 07:41:11.162639	154.8	22.9	-91.1	7.0
2025-01-30 07:41:12.327850	154.9	22.8	-91.2	6.8
2025-01-30 07:41:13.487307	155.1	22.7	-91.6	6.9
2025-01-30 07:41:14.653566	155.3	22.5	-91.4	7.5
2025-01-30 07:41:15.819552	155.5	22.4	-91.2	7.0
2025-01-30 07:41:16.979128	155.6	22.3	-91.3	5.0
2025-01-30 07:41:18.144780	155.8	22.1	-91.3	6.4
2025-01-30 07:41:19.313097	156.0	22.0	-91.4	6.7
2025-01-30 07:41:20.478098	156.2	21.8	-91.2	5.3
2025-01-30 07:41:21.639791	156.3	21.7	-91.0	6.6
2025-01-30 07:41:22.800521	156.5	21.6	-91.1	9.4
2025-01-30 07:41:23.970028	156.6	21.4	-91.3	4.7
2025-01-30 07:41:25.134148	156.8	21.3	-91.2	3.4
2025-01-30 07:41:26.298497	157.0	21.2	-91.1	7.5
2025-01-30 07:41:27.464705	157.1	21.1	-90.9	5.8
2025-01-30 07:41:28.625096	157.3	20.9	-91.1	6.7
2025-01-30 07:41:29.791448	157.4	20.8	-91.2	9.6
2025-01-30 07:41:30.953837	157.6	20.7	-91.0	6.4
2025-01-30 07:41:32.123270	157.8	20.5	-91.1	8.4
2025-01-30 07:41:33.290192	157.9	20.4	-91.0	7.8
2025-01-30 07:41:34.456195	158.1	20.3	-90.9	6.0
2025-01-30 07:41:35.621322	158.2	20.1	-91.2	4.0
2025-01-30 07:41:36.786581	158.4	20.0	-91.5	7.4
2025-01-30 07:41:37.947838	158.5	19.9	-91.4	5.0
2025-01-30 07:41:39.111988	158.7	19.8	-90.9	1.7
2025-01-30 07:41:40.281294	158.8	19.6	-91.0	1.7
2025-01-30 07:41:41.436254	159.0	19.5	-91.0	2.4
2025-01-30 07:41:42.604077	159.1	19.4	-91.1	2.4
2025-01-30 07:41:43.770389	159.2	19.3	-90.9	3.8
2025-01-30 07:41:44.941913	159.4	19.1	-91.1	4.8
2025-01-30 07:41:46.105006	159.5	19.0	-91.1	4.7
2025-01-30 07:41:47.272612	159.7	18.9	-90.9	4.7
2025-01-30 07:41:48.435569	159.8	18.8	-90.7	6.7
2025-01-30 07:41:49.599199	159.9	18.6	-91.1	6.8
2025-01-30 07:41:50.766269	160.1	18.5	-91.5	7.5
2025-01-30 07:41:51.926786	160.2	18.4	-91.0	6.7
2025-01-30 07:41:53.089569	160.3	18.3	-91.2	6.3
2025-01-30 07:41:54.249917	160.5	18.2	-91.3	6.0
2025-01-30 07:41:55.413287	160.6	18.0	-91.5	4.3
2025-01-30 07:41:56.569749	160.7	17.9	-91.0	3.9
2025-01-30 07:41:57.733198	160.9	17.8	-91.2	4.4
2025-01-30 07:41:58.896480	161.0	17.7	-91.4	2.9
2025-01-30 07:42:00.056840	161.1	17.6	-91.3	1.7
2025-01-30 07:42:01.220731	161.3	17.4	-91.1	4.4
2025-01-30 07:42:02.374479	161.4	17.3	-91.1	4.3
2025-01-30 07:42:03.536466	161.5	17.2	-91.2	3.9
2025-01-30 07:42:04.698836	161.6	17.1	-91.3	3.2
2025-01-30 07:42:05.866301	161.8	17.0	-91.0	2.9
2025-01-30 07:42:07.024763	161.9	16.9	-91.3	2.6
2025-01-30 07:42:08.192039	162.0	16.7	-91.0	4.3
2025-01-30 07:42:09.350740	162.1	16.6	-91.2	4.2
2025-01-30 07:42:10.515214	162.2	16.5	-91.6	4.5
2025-01-30 07:42:11.679553	162.4	16.4	-91.0	2.7
2025-01-30 07:42:12.845336	162.5	16.3	-91.4	4.7
2025-01-30 07:42:14.011410	162.6	16.2	-91.4	3.3
2025-01-30 07:42:15.178666	162.7	16.1	-91.3	5.7
2025-01-30 07:42:16.346777	162.8	15.9	-91.0	4.5
2025-01-30 07:42:17.509856	162.9	15.8	-91.0	5.6
2025-01-30 07:42:18.670607	163.1	15.7	-91.1	5.2
2025-01-30 07:42:19.830538	163.2	15.6	-91.5	4.3
2025-01-30 07:42:21.003685	163.3	15.5	-91.4	5.1
2025-01-30 07:42:22.161830	163.4	15.4	-91.3	5.5
2025-01-30 07:42:23.339425	163.5	15.3	-91.0	5.2
2025-01-30 07:42:24.508952	163.6	15.2	-90.8	4.0
2025-01-30 07:42:25.670938	163.7	15.1	-91.5	2.7
2025-01-30 07:42:26.833506	163.8	14.9	-91.2	3.2
2025-01-30 07:42:27.993688	163.9	14.8	-91.5	3.2
2025-01-30 07:42:29.162604	164.1	14.7	-91.1	1.9
2025-01-30 07:42:30.326047	164.2	14.6	-91.1	2.1
2025-01-30 07:42:31.476280	164.3	14.5	-91.0	3.6
#Closed at: 2025-01-30 07:34:00.077878