passes_logs/2025/01/30/LEX_Murmansk/LEX_Murmansk__20250130_211944_NOAA_18_rec.log

#Pass ID: 20250130_211944_NOAA 18
#Satellite: NOAA 18
#Configuration: NOAA 18
#Start time: 2025-01-30 21:19:39.916962

#LorettStation: 1.0.0 05.05.2024
#Station: LEX_Murmansk
#Location: 33.156738 lon 68.926811 lat
#TLE: 1 28654U 05018A   25030.16946896  .00000398  00000+0  23471-3 0  9997
#TLE: 2 28654  98.8542 111.0717 0014961 137.5822 222.6509 14.13501465 15327

#Time	Az	El	Level	SNR
2025-01-30 21:19:52.164907	237.4	15.8	-91.7	11.0
2025-01-30 21:19:53.308953	237.6	15.9	-91.5	10.8
2025-01-30 21:19:54.456479	237.8	16.0	-92.7	8.8
2025-01-30 21:19:55.600915	238.0	16.0	-92.5	8.6
2025-01-30 21:19:56.748401	238.2	16.1	-92.7	14.2
2025-01-30 21:19:57.899084	238.4	16.2	-92.9	13.6
2025-01-30 21:19:59.045000	238.6	16.3	-92.6	10.9
2025-01-30 21:20:00.189250	238.8	16.3	-92.8	10.9
2025-01-30 21:20:01.335044	239.0	16.4	-93.0	8.7
2025-01-30 21:20:02.484631	239.2	16.5	-92.5	5.2
2025-01-30 21:20:03.634314	239.4	16.6	-92.7	11.1
2025-01-30 21:20:04.797626	239.6	16.6	-92.8	8.6
2025-01-30 21:20:05.950531	239.8	16.7	-92.7	5.3
2025-01-30 21:20:07.094695	240.0	16.8	-92.6	6.9
2025-01-30 21:20:08.242132	240.2	16.9	-92.7	9.0
2025-01-30 21:20:09.388897	240.4	16.9	-92.5	7.4
2025-01-30 21:20:10.536810	240.7	17.0	-92.8	9.5
2025-01-30 21:20:11.680306	240.9	17.1	-92.5	7.0
2025-01-30 21:20:12.824760	241.1	17.2	-92.5	7.3
2025-01-30 21:20:13.973500	241.3	17.2	-92.6	6.4
2025-01-30 21:20:15.117897	241.5	17.3	-92.6	8.9
2025-01-30 21:20:16.266618	241.7	17.4	-92.7	9.6
2025-01-30 21:20:17.413452	241.9	17.4	-92.8	7.2
2025-01-30 21:20:18.555559	242.2	17.5	-92.6	6.1
2025-01-30 21:20:19.709888	242.4	17.6	-92.5	7.8
2025-01-30 21:20:20.854053	242.6	17.7	-93.0	6.9
2025-01-30 21:20:21.999762	242.8	17.7	-92.7	8.0
2025-01-30 21:20:23.153277	243.0	17.8	-92.5	9.6
2025-01-30 21:20:24.296971	243.3	17.9	-92.6	8.9
2025-01-30 21:20:25.444326	243.5	18.0	-93.0	7.6
2025-01-30 21:20:26.588358	243.7	18.0	-93.2	13.3
2025-01-30 21:20:27.738478	243.9	18.1	-93.0	10.4
2025-01-30 21:20:28.882768	244.2	18.2	-92.7	4.2
2025-01-30 21:20:30.029314	244.4	18.2	-93.0	5.4
2025-01-30 21:20:31.176197	244.6	18.3	-92.9	10.8
2025-01-30 21:20:32.325933	244.9	18.4	-92.8	15.4
2025-01-30 21:20:33.465203	245.1	18.4	-93.0	9.1
2025-01-30 21:20:34.613543	245.3	18.5	-93.0	7.5
2025-01-30 21:20:35.763714	245.5	18.6	-93.0	11.1
2025-01-30 21:20:36.907343	245.8	18.7	-92.9	15.0
2025-01-30 21:20:38.060603	246.0	18.7	-92.8	12.1
2025-01-30 21:20:39.206052	246.3	18.8	-92.6	6.7
2025-01-30 21:20:40.352101	246.5	18.9	-92.8	10.1
2025-01-30 21:20:41.503375	246.7	18.9	-92.8	5.5
2025-01-30 21:20:42.648645	247.0	19.0	-93.0	14.7
2025-01-30 21:20:43.792351	247.2	19.1	-92.8	13.4
2025-01-30 21:20:44.940701	247.5	19.1	-92.9	7.6
2025-01-30 21:20:46.093641	247.7	19.2	-92.9	10.3
2025-01-30 21:20:47.242952	247.9	19.3	-93.0	12.6
2025-01-30 21:20:48.390907	248.2	19.3	-92.7	8.2
2025-01-30 21:20:49.541112	248.4	19.4	-93.1	10.6
2025-01-30 21:20:50.689356	248.7	19.5	-93.3	4.3
2025-01-30 21:20:51.825974	248.9	19.5	-92.9	5.3
2025-01-30 21:20:52.946847	249.2	19.6	-92.9	3.9
2025-01-30 21:20:54.068817	249.4	19.6	-93.0	4.8
2025-01-30 21:20:55.189241	249.7	19.7	-92.7	3.3
2025-01-30 21:20:56.310461	249.9	19.8	-92.9	3.8
2025-01-30 21:20:57.430694	250.1	19.8	-92.6	4.3
2025-01-30 21:20:58.550975	250.4	19.9	-92.9	3.2
2025-01-30 21:20:59.671769	250.6	20.0	-93.2	5.0
2025-01-30 21:21:00.791964	250.9	20.0	-92.7	3.2
2025-01-30 21:21:01.915176	251.1	20.1	-92.9	3.2
2025-01-30 21:21:03.036425	251.4	20.1	-92.7	7.9
2025-01-30 21:21:04.180680	251.7	20.2	-93.3	4.6
2025-01-30 21:21:05.327154	251.9	20.3	-93.2	2.9
2025-01-30 21:21:06.473936	252.2	20.3	-93.0	5.9
2025-01-30 21:21:07.613615	252.4	20.4	-93.3	5.5
2025-01-30 21:21:08.764527	252.7	20.4	-93.1	9.0
2025-01-30 21:21:09.908607	253.0	20.5	-93.1	6.1
2025-01-30 21:21:11.055103	253.2	20.5	-93.3	7.3
2025-01-30 21:21:12.201032	253.5	20.6	-92.8	6.0
2025-01-30 21:21:13.343322	253.8	20.7	-93.0	6.1
2025-01-30 21:21:14.489721	254.0	20.7	-93.2	5.4
2025-01-30 21:21:15.630467	254.3	20.8	-92.8	5.7
2025-01-30 21:21:16.778437	254.6	20.8	-92.8	6.0
2025-01-30 21:21:17.925908	254.8	20.9	-93.2	6.1
2025-01-30 21:21:19.073077	255.1	20.9	-92.9	5.6
2025-01-30 21:21:20.219708	255.4	21.0	-93.0	10.7
2025-01-30 21:21:21.363996	255.6	21.0	-92.8	11.0
2025-01-30 21:21:22.502421	255.9	21.1	-92.6	4.3
2025-01-30 21:21:23.654174	256.2	21.2	-92.9	6.1
2025-01-30 21:21:24.797011	256.5	21.2	-92.7	7.8
2025-01-30 21:21:25.943765	256.7	21.3	-92.6	6.9
2025-01-30 21:21:27.093775	257.0	21.3	-93.2	6.5
2025-01-30 21:21:28.240254	257.3	21.4	-92.9	7.5
2025-01-30 21:21:29.386997	257.6	21.4	-93.2	4.1
2025-01-30 21:21:30.535101	257.9	21.5	-93.1	3.0
2025-01-30 21:21:31.684452	258.1	21.5	-92.6	4.2
2025-01-30 21:21:32.825870	258.4	21.5	-92.7	11.0
2025-01-30 21:21:33.971615	258.7	21.6	-93.1	14.2
2025-01-30 21:21:35.120348	259.0	21.6	-92.1	6.6
2025-01-30 21:21:36.265220	259.3	21.7	-91.7	12.6
2025-01-30 21:21:37.411930	259.6	21.7	-91.8	9.7
2025-01-30 21:21:38.559765	259.8	21.8	-92.3	11.7
2025-01-30 21:21:39.705722	260.1	21.8	-92.6	9.3
2025-01-30 21:21:40.860555	260.4	21.9	-92.7	6.6
2025-01-30 21:21:42.000468	260.7	21.9	-93.1	10.1
2025-01-30 21:21:43.150395	261.0	21.9	-93.0	10.3
2025-01-30 21:21:44.300267	261.3	22.0	-92.9	14.9
2025-01-30 21:21:45.446157	261.6	22.0	-93.1	8.7
2025-01-30 21:21:46.594885	261.9	22.1	-93.1	9.3
2025-01-30 21:21:47.739660	262.2	22.1	-92.9	11.3
2025-01-30 21:21:48.900058	262.4	22.2	-92.9	13.0
2025-01-30 21:21:50.048996	262.7	22.2	-92.8	16.0
2025-01-30 21:21:51.199726	263.0	22.2	-92.8	17.4
2025-01-30 21:21:52.347983	263.3	22.3	-93.1	18.3
2025-01-30 21:21:53.492758	263.6	22.3	-92.6	18.6
2025-01-30 21:21:54.643895	263.9	22.3	-92.9	18.8
2025-01-30 21:21:55.795460	264.2	22.4	-92.9	9.5
2025-01-30 21:21:56.943607	264.5	22.4	-92.7	7.1
2025-01-30 21:21:58.090719	264.8	22.4	-92.9	14.3
2025-01-30 21:21:59.237443	265.1	22.5	-93.1	8.3
2025-01-30 21:22:00.382312	265.4	22.5	-92.9	5.1
2025-01-30 21:22:01.525860	265.7	22.5	-93.2	4.7
2025-01-30 21:22:02.670692	266.0	22.6	-93.0	17.2
2025-01-30 21:22:03.811426	266.3	22.6	-92.8	7.1
2025-01-30 21:22:04.958940	266.6	22.6	-93.1	5.9
2025-01-30 21:22:06.101727	266.9	22.6	-92.4	17.0
2025-01-30 21:22:07.242361	267.2	22.7	-92.8	14.7
2025-01-30 21:22:08.387051	267.5	22.7	-93.0	7.0
2025-01-30 21:22:09.536576	267.8	22.7	-92.6	7.7
2025-01-30 21:22:10.681160	268.1	22.7	-93.0	13.4
2025-01-30 21:22:11.826347	268.4	22.8	-92.9	8.6
2025-01-30 21:22:12.971710	268.7	22.8	-92.7	7.8
2025-01-30 21:22:14.117713	269.0	22.8	-92.7	16.4
2025-01-30 21:22:15.263196	269.3	22.8	-92.3	7.7
2025-01-30 21:22:16.408319	269.6	22.9	-92.7	11.0
2025-01-30 21:22:17.569494	270.0	22.9	-92.7	15.2
2025-01-30 21:22:18.716592	270.3	22.9	-92.9	18.6
2025-01-30 21:22:19.858703	270.6	22.9	-92.9	8.9
2025-01-30 21:22:21.007466	270.9	22.9	-92.7	18.0
2025-01-30 21:22:22.154477	271.2	22.9	-93.1	12.3
2025-01-30 21:22:23.295454	271.5	23.0	-93.0	15.9
2025-01-30 21:22:24.441230	271.8	23.0	-93.2	12.7
2025-01-30 21:22:25.587945	272.1	23.0	-92.8	14.9
2025-01-30 21:22:26.736613	272.4	23.0	-93.0	12.4
2025-01-30 21:22:27.880741	272.7	23.0	-92.8	10.0
2025-01-30 21:22:29.029787	273.0	23.0	-92.8	11.5
2025-01-30 21:22:30.176251	273.3	23.0	-93.0	15.5
2025-01-30 21:22:31.323089	273.7	23.0	-92.8	7.1
2025-01-30 21:22:32.471000	274.0	23.0	-92.7	8.6
2025-01-30 21:22:33.617641	274.3	23.1	-93.1	15.8
2025-01-30 21:22:34.769225	274.6	23.1	-92.8	10.4
2025-01-30 21:22:35.909277	274.9	23.1	-93.2	8.1
2025-01-30 21:22:37.054524	275.2	23.1	-92.5	6.3
2025-01-30 21:22:38.204037	275.5	23.1	-92.7	17.8
2025-01-30 21:22:39.351854	275.8	23.1	-91.8	5.0
2025-01-30 21:22:40.495526	276.1	23.1	-91.7	7.8
2025-01-30 21:22:41.645220	276.4	23.1	-91.9	7.0
2025-01-30 21:22:42.792510	276.8	23.1	-92.0	12.3
2025-01-30 21:22:43.936216	277.1	23.1	-92.4	8.2
2025-01-30 21:22:45.082687	277.4	23.1	-92.9	10.4
2025-01-30 21:22:46.234546	277.7	23.1	-92.5	15.3
2025-01-30 21:22:47.386109	278.0	23.1	-93.0	10.5
2025-01-30 21:22:48.531871	278.3	23.1	-92.8	12.5
2025-01-30 21:22:49.682079	278.6	23.1	-92.9	8.1
2025-01-30 21:22:50.828235	278.9	23.1	-92.9	8.2
2025-01-30 21:22:51.976385	279.2	23.1	-93.0	4.9
2025-01-30 21:22:53.120301	279.6	23.1	-92.6	7.9
2025-01-30 21:22:54.264946	279.9	23.0	-92.5	14.7
2025-01-30 21:22:55.413814	280.2	23.0	-92.9	8.8
2025-01-30 21:22:56.557884	280.5	23.0	-92.6	5.5
2025-01-30 21:22:57.704250	280.8	23.0	-92.9	13.0
2025-01-30 21:22:58.857065	281.1	23.0	-93.0	9.2
2025-01-30 21:22:59.999866	281.4	23.0	-92.8	10.7
2025-01-30 21:23:01.147641	281.7	23.0	-92.8	8.6
2025-01-30 21:23:02.294615	282.0	23.0	-92.9	6.2
2025-01-30 21:23:03.438027	282.3	23.0	-92.7	8.6
2025-01-30 21:23:04.582526	282.6	22.9	-93.0	6.6
2025-01-30 21:23:05.727223	282.9	22.9	-92.6	5.6
2025-01-30 21:23:06.877686	283.3	22.9	-92.6	7.8
2025-01-30 21:23:08.025053	283.6	22.9	-92.9	7.3
2025-01-30 21:23:09.169537	283.9	22.9	-92.7	9.9
2025-01-30 21:23:10.312884	284.2	22.9	-92.9	8.6
2025-01-30 21:23:11.460588	284.5	22.8	-93.1	6.0
2025-01-30 21:23:12.606582	284.8	22.8	-92.8	11.6
2025-01-30 21:23:13.750470	285.1	22.8	-93.1	10.3
2025-01-30 21:23:14.898157	285.4	22.8	-93.0	5.5
2025-01-30 21:23:16.042015	285.7	22.7	-92.7	5.9
2025-01-30 21:23:17.179003	286.0	22.7	-93.2	11.2
2025-01-30 21:23:18.321080	286.3	22.7	-92.7	9.3
2025-01-30 21:23:19.465805	286.6	22.7	-93.0	8.8
2025-01-30 21:23:20.612008	286.9	22.6	-93.1	10.1
2025-01-30 21:23:21.759423	287.2	22.6	-92.7	7.5
2025-01-30 21:23:22.907077	287.5	22.6	-92.9	7.9
2025-01-30 21:23:24.062943	287.8	22.6	-93.1	8.4
2025-01-30 21:23:25.202400	288.1	22.5	-92.9	11.2
2025-01-30 21:23:26.349349	288.4	22.5	-93.0	8.9
2025-01-30 21:23:27.500246	288.7	22.5	-93.4	7.0
2025-01-30 21:23:28.647150	289.0	22.4	-93.0	7.7
2025-01-30 21:23:29.796623	289.3	22.4	-92.7	14.0
2025-01-30 21:23:30.948019	289.6	22.4	-92.7	4.9
2025-01-30 21:23:32.094034	289.9	22.3	-92.6	8.5
2025-01-30 21:23:33.242101	290.2	22.3	-93.3	10.3
2025-01-30 21:23:34.386219	290.5	22.3	-92.5	5.8
2025-01-30 21:23:35.533500	290.8	22.2	-92.7	8.9
2025-01-30 21:23:36.680857	291.1	22.2	-92.9	4.9
2025-01-30 21:23:37.827167	291.4	22.2	-92.6	6.2
2025-01-30 21:23:38.975832	291.7	22.1	-93.0	6.8
2025-01-30 21:23:40.124723	292.0	22.1	-92.9	5.8
2025-01-30 21:23:41.271391	292.3	22.0	-92.4	11.0
2025-01-30 21:23:42.422992	292.5	22.0	-93.0	6.5
2025-01-30 21:23:43.568207	292.8	22.0	-92.0	4.6
2025-01-30 21:23:44.714882	293.1	21.9	-91.8	14.2
2025-01-30 21:23:45.861747	293.4	21.9	-91.9	5.8
2025-01-30 21:23:47.008900	293.7	21.8	-92.2	6.5
2025-01-30 21:23:48.154959	294.0	21.8	-92.9	15.0
2025-01-30 21:23:49.300067	294.3	21.7	-92.7	14.5
2025-01-30 21:23:50.451253	294.6	21.7	-93.0	5.3
2025-01-30 21:23:51.604314	294.8	21.6	-93.1	5.8
2025-01-30 21:23:52.754793	295.1	21.6	-93.3	7.1
2025-01-30 21:23:53.898541	295.4	21.6	-93.1	5.1
2025-01-30 21:23:55.049462	295.7	21.5	-92.7	3.5
2025-01-30 21:23:56.196531	296.0	21.5	-92.8	7.3
2025-01-30 21:23:57.340928	296.3	21.4	-92.7	7.6
2025-01-30 21:23:58.480370	296.5	21.4	-93.2	4.8
2025-01-30 21:23:59.627844	296.8	21.3	-93.0	5.4
2025-01-30 21:24:00.780441	297.1	21.3	-93.2	8.7
2025-01-30 21:24:01.924678	297.4	21.2	-93.3	6.6
2025-01-30 21:24:03.074523	297.6	21.2	-93.3	8.1
2025-01-30 21:24:04.220159	297.9	21.1	-93.0	6.6
2025-01-30 21:24:05.366888	298.2	21.1	-93.1	6.9
2025-01-30 21:24:06.516402	298.5	21.0	-92.8	5.9
2025-01-30 21:24:07.660784	298.7	20.9	-93.0	10.2
2025-01-30 21:24:08.808137	299.0	20.9	-93.2	10.1
2025-01-30 21:24:09.960985	299.3	20.8	-92.9	7.3
2025-01-30 21:24:11.104744	299.5	20.8	-93.0	6.9
2025-01-30 21:24:12.252337	299.8	20.7	-92.8	4.7
2025-01-30 21:24:13.398601	300.1	20.7	-93.2	2.4
2025-01-30 21:24:14.544046	300.3	20.6	-92.9	3.6
2025-01-30 21:24:15.692583	300.6	20.6	-92.7	5.2
2025-01-30 21:24:16.838893	300.9	20.5	-93.2	5.1
2025-01-30 21:24:17.989025	301.1	20.4	-93.1	3.9
2025-01-30 21:24:19.146449	301.4	20.4	-92.7	6.0
2025-01-30 21:24:20.294320	301.7	20.3	-92.8	5.2
2025-01-30 21:24:21.439188	301.9	20.3	-93.1	4.9
2025-01-30 21:24:22.585177	302.2	20.2	-92.7	7.6
2025-01-30 21:24:23.729787	302.4	20.1	-93.0	15.1
2025-01-30 21:24:24.875207	302.7	20.1	-93.0	6.6
2025-01-30 21:24:26.020231	303.0	20.0	-92.7	4.0
2025-01-30 21:24:27.168025	303.2	20.0	-93.0	6.5
2025-01-30 21:24:28.311631	303.5	19.9	-93.5	14.1
2025-01-30 21:24:29.459632	303.7	19.8	-93.0	11.1
2025-01-30 21:24:30.605282	304.0	19.8	-93.3	4.5
2025-01-30 21:24:31.754995	304.2	19.7	-93.4	6.2
2025-01-30 21:24:32.905404	304.5	19.6	-93.0	8.0
2025-01-30 21:24:34.048686	304.7	19.6	-92.9	3.5
2025-01-30 21:24:35.195523	305.0	19.5	-93.2	7.1
2025-01-30 21:24:36.340436	305.2	19.4	-93.1	4.2
2025-01-30 21:24:37.488152	305.5	19.4	-92.9	3.8
2025-01-30 21:24:38.630329	305.7	19.3	-93.5	5.7
2025-01-30 21:24:39.774252	306.0	19.3	-93.4	8.8
2025-01-30 21:24:40.922864	306.2	19.2	-93.2	6.4
2025-01-30 21:24:42.065547	306.4	19.1	-93.3	4.1
2025-01-30 21:24:43.212014	306.7	19.1	-93.2	10.2
2025-01-30 21:24:44.355716	306.9	19.0	-93.0	12.1
2025-01-30 21:24:45.502270	307.2	18.9	-93.1	12.1
2025-01-30 21:24:46.648264	307.4	18.9	-93.0	5.8
2025-01-30 21:24:47.796525	307.6	18.8	-92.2	6.5
2025-01-30 21:24:48.941155	307.9	18.7	-92.2	8.5
2025-01-30 21:24:50.084215	308.1	18.6	-91.9	5.0
2025-01-30 21:24:51.234613	308.3	18.6	-92.1	7.2
2025-01-30 21:24:52.378246	308.6	18.5	-93.1	9.8
2025-01-30 21:24:53.528357	308.8	18.4	-92.9	4.6
2025-01-30 21:24:54.671399	309.0	18.4	-93.1	7.3
2025-01-30 21:24:55.816177	309.3	18.3	-93.2	11.6
2025-01-30 21:24:56.959781	309.5	18.2	-93.0	4.3
2025-01-30 21:24:58.106119	309.7	18.2	-92.7	4.9
2025-01-30 21:24:59.255740	310.0	18.1	-92.8	6.4
2025-01-30 21:25:00.399992	310.2	18.0	-93.0	5.3
2025-01-30 21:25:01.548598	310.4	17.9	-93.1	5.0
2025-01-30 21:25:02.698958	310.6	17.9	-93.0	3.8
2025-01-30 21:25:03.841449	310.9	17.8	-92.8	5.6
2025-01-30 21:25:04.992273	311.1	17.7	-92.8	5.2
2025-01-30 21:25:06.145495	311.3	17.7	-93.0	8.0
2025-01-30 21:25:07.292698	311.5	17.6	-92.5	8.5
2025-01-30 21:25:08.440502	311.7	17.5	-92.6	5.2
2025-01-30 21:25:09.585623	312.0	17.4	-93.0	6.2
2025-01-30 21:25:10.736627	312.2	17.4	-92.7	11.5
2025-01-30 21:25:11.878138	312.4	17.3	-92.9	4.4
2025-01-30 21:25:13.024742	312.6	17.2	-93.4	5.2
2025-01-30 21:25:14.162659	312.8	17.2	-93.0	8.4
2025-01-30 21:25:15.283609	313.0	17.1	-92.7	6.8
2025-01-30 21:25:16.404044	313.2	17.0	-93.0	4.8
2025-01-30 21:25:17.524984	313.4	16.9	-92.8	7.2
2025-01-30 21:25:18.646236	313.6	16.9	-92.9	6.5
2025-01-30 21:25:19.766706	313.8	16.8	-93.0	3.5
2025-01-30 21:25:20.888020	314.0	16.7	-92.7	8.9
2025-01-30 21:25:22.008581	314.3	16.6	-93.1	7.9
2025-01-30 21:25:23.130101	314.5	16.6	-92.6	10.0
2025-01-30 21:25:24.252280	314.7	16.5	-92.9	9.2
2025-01-30 21:25:25.401635	314.9	16.4	-93.2	5.8
2025-01-30 21:25:26.545086	315.1	16.4	-93.2	6.1
2025-01-30 21:25:27.689490	315.3	16.3	-92.7	7.5
2025-01-30 21:25:28.836128	315.5	16.2	-93.1	5.5
2025-01-30 21:25:29.978218	315.7	16.1	-93.4	5.4
2025-01-30 21:25:31.130582	315.9	16.1	-92.9	7.1
2025-01-30 21:25:32.273011	316.1	16.0	-93.1	9.8
2025-01-30 21:25:33.423761	316.3	15.9	-93.1	6.8
2025-01-30 21:25:34.571997	316.5	15.8	-92.8	5.6
2025-01-30 21:25:35.716695	316.7	15.8	-93.0	9.5
2025-01-30 21:25:36.865329	316.8	15.7	-93.4	4.5
2025-01-30 21:25:38.011578	317.0	15.6	-93.1	4.4
2025-01-30 21:25:39.159817	317.2	15.5	-93.2	8.1
2025-01-30 21:25:40.308191	317.4	15.4	-93.4	9.0
2025-01-30 21:25:41.457966	317.6	15.4	-92.9	5.9
2025-01-30 21:25:42.620480	317.8	15.3	-93.2	7.2
2025-01-30 21:25:43.770104	318.0	15.2	-93.1	9.5
2025-01-30 21:25:44.919855	318.2	15.1	-92.9	6.7
2025-01-30 21:25:46.068034	318.4	15.1	-93.2	7.5
2025-01-30 21:25:47.217100	318.6	15.0	-93.4	6.2
2025-01-30 21:25:48.364137	318.7	14.9	-92.9	7.8
2025-01-30 21:25:49.511534	318.9	14.8	-93.0	9.7
2025-01-30 21:25:50.660261	319.1	14.8	-93.2	12.3
2025-01-30 21:25:51.807536	319.3	14.7	-92.0	8.5
2025-01-30 21:25:52.998795	319.5	14.6	-92.0	11.1
#Closed at: 2025-01-30 21:19:44.972613