passes_logs/2025/01/30/LEX_Murmansk/LEX_Murmansk__20250130_155411_NOAA_19_rec.log

#Pass ID: 20250130_155411_NOAA 19
#Satellite: NOAA 19
#Configuration: NOAA 19
#Start time: 2025-01-30 15:54:06.051836

#LorettStation: 1.0.0 05.05.2024
#Station: LEX_Murmansk
#Location: 33.156738 lon 68.926811 lat
#TLE: 1 33591U 09005A   25030.15472716  .00000350  00000+0  21086-3 0  9995
#TLE: 2 33591  99.0168  94.0324 0013877  16.1977 343.9635 14.13272478823684

#Time	Az	El	Level	SNR
2025-01-30 15:54:18.275569	98.1	16.2	-90.9	11.5
2025-01-30 15:54:19.432863	98.0	16.3	-91.2	13.0
2025-01-30 15:54:20.593171	97.9	16.4	-91.1	10.3
2025-01-30 15:54:21.743478	97.8	16.5	-90.9	6.7
2025-01-30 15:54:22.893410	97.6	16.6	-91.1	3.7
2025-01-30 15:54:24.043676	97.5	16.7	-90.7	3.9
2025-01-30 15:54:25.196009	97.4	16.9	-91.0	3.2
2025-01-30 15:54:26.345544	97.3	17.0	-91.7	4.6
2025-01-30 15:54:27.506187	97.1	17.1	-90.4	10.5
2025-01-30 15:54:28.659487	97.0	17.2	-90.0	11.2
2025-01-30 15:54:29.810879	96.9	17.3	-90.5	12.4
2025-01-30 15:54:30.964039	96.8	17.4	-90.0	10.0
2025-01-30 15:54:32.114511	96.6	17.6	-90.9	10.1
2025-01-30 15:54:33.264445	96.5	17.7	-90.5	7.9
2025-01-30 15:54:34.418396	96.4	17.8	-90.7	8.6
2025-01-30 15:54:35.575413	96.2	17.9	-90.4	11.3
2025-01-30 15:54:36.735695	96.1	18.0	-90.9	11.8
2025-01-30 15:54:37.890202	96.0	18.2	-90.8	9.4
2025-01-30 15:54:39.038174	95.8	18.3	-90.4	5.2
2025-01-30 15:54:40.187454	95.7	18.4	-90.2	2.7
2025-01-30 15:54:41.333764	95.5	18.5	-90.6	2.1
2025-01-30 15:54:42.486262	95.4	18.6	-89.8	3.3
2025-01-30 15:54:43.637779	95.3	18.8	-90.4	4.4
2025-01-30 15:54:44.787520	95.1	18.9	-90.2	6.3
2025-01-30 15:54:45.948837	95.0	19.0	-90.3	8.3
2025-01-30 15:54:47.106719	94.8	19.1	-90.9	9.8
2025-01-30 15:54:48.257083	94.7	19.3	-91.1	7.7
2025-01-30 15:54:49.406179	94.5	19.4	-91.4	5.5
2025-01-30 15:54:50.559957	94.4	19.5	-91.0	4.3
2025-01-30 15:54:51.716987	94.3	19.6	-91.1	1.5
2025-01-30 15:54:52.870946	94.1	19.7	-91.4	4.0
2025-01-30 15:54:54.016191	94.0	19.9	-91.6	6.5
2025-01-30 15:54:55.170363	93.8	20.0	-91.3	5.3
2025-01-30 15:54:56.324015	93.6	20.1	-91.5	4.0
2025-01-30 15:54:57.485202	93.5	20.3	-91.9	2.4
2025-01-30 15:54:58.638367	93.3	20.4	-91.3	3.7
2025-01-30 15:54:59.797534	93.2	20.5	-90.9	3.1
2025-01-30 15:55:00.947576	93.0	20.6	-91.0	2.7
2025-01-30 15:55:02.104481	92.9	20.8	-90.8	5.0
2025-01-30 15:55:03.261966	92.7	20.9	-91.6	6.5
2025-01-30 15:55:04.417655	92.5	21.0	-91.5	9.2
2025-01-30 15:55:05.571116	92.4	21.2	-91.5	10.2
2025-01-30 15:55:06.726738	92.2	21.3	-91.8	6.1
2025-01-30 15:55:07.887824	92.0	21.4	-91.6	6.1
2025-01-30 15:55:09.040477	91.9	21.5	-91.4	6.2
2025-01-30 15:55:10.200724	91.7	21.7	-91.4	5.5
2025-01-30 15:55:11.360175	91.5	21.8	-91.6	8.3
2025-01-30 15:55:12.514192	91.3	21.9	-91.6	9.5
2025-01-30 15:55:13.675020	91.2	22.1	-91.8	8.0
2025-01-30 15:55:14.826730	91.0	22.2	-91.7	4.1
2025-01-30 15:55:15.983471	90.8	22.3	-91.6	3.2
2025-01-30 15:55:17.135379	90.6	22.5	-91.5	2.4
2025-01-30 15:55:18.282990	90.5	22.6	-91.7	0.9
2025-01-30 15:55:19.437167	90.3	22.7	-91.7	0.5
2025-01-30 15:55:20.589124	90.1	22.9	-91.3	4.3
2025-01-30 15:55:21.746415	89.9	23.0	-91.3	2.2
2025-01-30 15:55:22.894598	89.7	23.1	-91.8	4.6
2025-01-30 15:55:24.062570	89.5	23.3	-91.5	5.3
2025-01-30 15:55:25.216971	89.3	23.4	-91.8	2.6
2025-01-30 15:55:26.379787	89.1	23.6	-91.7	2.5
2025-01-30 15:55:27.538058	88.9	23.7	-91.5	1.1
2025-01-30 15:55:28.688757	88.7	23.8	-91.7	2.6
2025-01-30 15:55:29.842299	88.6	24.0	-91.8	2.3
2025-01-30 15:55:31.006633	88.3	24.1	-86.1	3.0
2025-01-30 15:55:32.159789	88.1	24.2	-86.8	2.8
2025-01-30 15:55:33.317120	87.9	24.4	-91.0	3.6
2025-01-30 15:55:34.471193	87.7	24.5	-91.2	3.1
2025-01-30 15:55:35.629236	87.5	24.7	-86.6	3.1
2025-01-30 15:55:36.786881	87.3	24.8	-89.8	3.4
2025-01-30 15:55:37.946495	87.1	24.9	-91.7	2.8
2025-01-30 15:55:39.095301	86.9	25.1	-91.5	0.8
2025-01-30 15:55:40.217303	86.7	25.2	-91.3	3.2
2025-01-30 15:55:41.337623	86.5	25.3	-91.3	1.2
2025-01-30 15:55:42.458574	86.3	25.5	-91.7	3.3
2025-01-30 15:55:43.579292	86.1	25.6	-91.3	5.6
2025-01-30 15:55:44.699717	85.8	25.8	-91.7	4.6
2025-01-30 15:55:45.820615	85.6	25.9	-91.4	3.5
2025-01-30 15:55:46.941301	85.4	26.0	-91.4	3.1
2025-01-30 15:55:48.061615	85.2	26.2	-88.7	4.4
2025-01-30 15:55:49.185987	85.0	26.3	-90.0	1.7
2025-01-30 15:55:50.326273	84.7	26.5	-91.3	3.0
2025-01-30 15:55:51.483447	84.5	26.6	-90.8	3.3
2025-01-30 15:55:52.626547	84.3	26.7	-89.6	4.5
2025-01-30 15:55:53.780679	84.0	26.9	-91.4	4.4
2025-01-30 15:55:54.934412	83.8	27.0	-91.4	2.4
2025-01-30 15:55:56.071769	83.6	27.2	-88.0	3.7
2025-01-30 15:55:57.224296	83.3	27.3	-87.7	4.5
2025-01-30 15:55:58.381891	83.1	27.5	-87.8	5.9
2025-01-30 15:55:59.544182	82.8	27.6	-87.9	4.9
2025-01-30 15:56:00.696712	82.6	27.7	-88.4	5.6
2025-01-30 15:56:01.854334	82.3	27.9	-89.3	5.8
2025-01-30 15:56:03.007248	82.0	28.0	-91.4	10.7
2025-01-30 15:56:04.160085	81.8	28.2	-91.4	13.8
2025-01-30 15:56:05.315820	81.5	28.3	-91.4	11.6
2025-01-30 15:56:06.480951	81.3	28.5	-91.6	10.4
2025-01-30 15:56:07.636045	81.0	28.6	-91.5	7.6
2025-01-30 15:56:08.796129	80.7	28.8	-91.8	7.1
2025-01-30 15:56:09.950767	80.5	28.9	-91.6	8.4
2025-01-30 15:56:11.103484	80.2	29.0	-91.4	11.2
2025-01-30 15:56:12.263786	79.9	29.2	-91.6	11.5
2025-01-30 15:56:13.416181	79.6	29.3	-91.3	12.5
2025-01-30 15:56:14.571903	79.4	29.5	-91.5	12.4
2025-01-30 15:56:15.724589	79.1	29.6	-91.6	8.2
2025-01-30 15:56:16.873581	78.8	29.8	-91.5	6.1
2025-01-30 15:56:18.030807	78.5	29.9	-91.5	7.5
2025-01-30 15:56:19.185951	78.2	30.1	-91.5	2.4
2025-01-30 15:56:20.331841	77.9	30.2	-91.3	1.2
2025-01-30 15:56:21.482832	77.6	30.3	-91.7	4.1
2025-01-30 15:56:22.633730	77.3	30.5	-91.2	8.7
2025-01-30 15:56:23.791941	77.0	30.6	-91.6	9.0
2025-01-30 15:56:24.946682	76.7	30.8	-91.6	12.1
2025-01-30 15:56:26.107646	76.4	30.9	-91.5	14.9
2025-01-30 15:56:27.262921	76.1	31.1	-91.5	14.1
2025-01-30 15:56:28.420432	75.8	31.2	-91.7	13.5
2025-01-30 15:56:29.573722	75.5	31.3	-91.6	12.0
2025-01-30 15:56:30.722086	75.2	31.5	-91.4	7.1
2025-01-30 15:56:31.872154	74.8	31.6	-91.4	6.5
2025-01-30 15:56:33.034640	74.5	31.8	-91.3	10.3
2025-01-30 15:56:34.190780	74.2	31.9	-91.4	10.5
2025-01-30 15:56:35.337831	73.9	32.1	-91.1	14.6
2025-01-30 15:56:36.488276	73.5	32.2	-90.7	14.9
2025-01-30 15:56:37.640708	73.2	32.3	-83.9	8.9
2025-01-30 15:56:38.796824	72.9	32.5	-84.7	7.7
2025-01-30 15:56:39.949287	72.5	32.6	-90.2	8.9
2025-01-30 15:56:41.109488	72.2	32.8	-90.5	7.5
2025-01-30 15:56:42.262053	71.8	32.9	-87.1	3.2
2025-01-30 15:56:43.415709	71.5	33.0	-91.6	4.8
2025-01-30 15:56:44.576707	71.1	33.2	-91.5	5.1
2025-01-30 15:56:45.731113	70.8	33.3	-91.7	4.2
2025-01-30 15:56:46.886692	70.4	33.4	-91.6	8.2
2025-01-30 15:56:48.041373	70.1	33.6	-91.4	11.2
2025-01-30 15:56:49.196601	69.7	33.7	-91.5	13.2
2025-01-30 15:56:50.347074	69.3	33.8	-91.4	14.8
2025-01-30 15:56:51.500895	69.0	34.0	-91.3	14.7
2025-01-30 15:56:52.648601	68.6	34.1	-91.5	15.2
2025-01-30 15:56:53.787849	68.2	34.2	-91.5	12.9
2025-01-30 15:56:54.941875	67.8	34.4	-91.1	10.3
2025-01-30 15:56:56.095870	67.5	34.5	-91.3	10.6
2025-01-30 15:56:57.250730	67.1	34.6	-91.3	8.2
2025-01-30 15:56:58.407613	66.7	34.7	-91.6	9.3
2025-01-30 15:56:59.564965	66.3	34.9	-91.6	12.9
2025-01-30 15:57:00.737259	65.9	35.0	-91.4	14.2
2025-01-30 15:57:01.886580	65.5	35.1	-91.6	15.8
2025-01-30 15:57:03.038002	65.1	35.2	-91.5	16.7
2025-01-30 15:57:04.187579	64.7	35.4	-91.3	13.4
2025-01-30 15:57:05.345333	64.3	35.5	-91.5	13.9
2025-01-30 15:57:06.498490	63.9	35.6	-91.4	12.4
2025-01-30 15:57:07.655623	63.5	35.7	-91.3	10.0
2025-01-30 15:57:08.821692	63.1	35.8	-91.2	7.7
2025-01-30 15:57:09.978466	62.6	36.0	-91.4	6.2
2025-01-30 15:57:11.123761	62.2	36.1	-91.5	6.7
2025-01-30 15:57:12.274663	61.8	36.2	-91.3	3.7
2025-01-30 15:57:13.428795	61.4	36.3	-91.5	6.5
2025-01-30 15:57:14.573999	60.9	36.4	-91.2	6.2
2025-01-30 15:57:15.738017	60.5	36.5	-91.3	6.5
2025-01-30 15:57:16.887754	60.1	36.6	-91.4	8.1
2025-01-30 15:57:18.037106	59.6	36.7	-91.9	11.1
2025-01-30 15:57:19.212983	59.2	36.8	-89.8	11.8
2025-01-30 15:57:20.374591	58.7	36.9	-89.1	12.6
2025-01-30 15:57:21.533647	58.3	37.0	-91.0	17.4
2025-01-30 15:57:22.689115	57.8	37.1	-87.4	11.5
2025-01-30 15:57:23.838876	57.4	37.2	-89.6	13.0
2025-01-30 15:57:24.989517	56.9	37.3	-91.2	13.0
2025-01-30 15:57:26.129670	56.5	37.4	-91.3	11.0
2025-01-30 15:57:27.250408	56.0	37.5	-91.2	9.3
2025-01-30 15:57:28.370465	55.6	37.6	-91.0	7.6
2025-01-30 15:57:29.491368	55.2	37.7	-91.5	9.3
2025-01-30 15:57:30.612777	54.7	37.8	-91.1	9.3
2025-01-30 15:57:31.734265	54.2	37.8	-91.4	6.8
2025-01-30 15:57:32.854093	53.8	37.9	-91.1	7.3
2025-01-30 15:57:33.973913	53.3	38.0	-91.5	9.7
2025-01-30 15:57:35.094808	52.9	38.1	-91.7	11.9
2025-01-30 15:57:36.218453	52.4	38.1	-91.2	12.7
2025-01-30 15:57:37.346152	51.9	38.2	-91.7	15.7
2025-01-30 15:57:38.508357	51.4	38.3	-91.9	16.7
2025-01-30 15:57:39.670915	51.0	38.4	-91.7	17.1
2025-01-30 15:57:40.829949	50.5	38.4	-90.7	13.4
2025-01-30 15:57:41.979540	50.0	38.5	-90.9	11.5
2025-01-30 15:57:43.127772	49.5	38.5	-90.7	12.3
2025-01-30 15:57:44.287570	49.0	38.6	-91.4	9.2
2025-01-30 15:57:45.440570	48.5	38.7	-91.4	11.2
2025-01-30 15:57:46.588028	48.0	38.7	-91.8	9.0
2025-01-30 15:57:47.744943	47.5	38.8	-91.5	7.4
2025-01-30 15:57:48.897342	47.0	38.8	-91.8	8.9
2025-01-30 15:57:50.055447	46.5	38.9	-91.8	7.9
2025-01-30 15:57:51.201122	46.0	38.9	-91.9	5.3
2025-01-30 15:57:52.349012	45.5	39.0	-91.9	2.7
2025-01-30 15:57:53.501853	45.0	39.0	-91.6	11.1
2025-01-30 15:57:54.647048	44.5	39.0	-90.8	10.3
2025-01-30 15:57:55.808142	44.0	39.1	-91.1	12.8
2025-01-30 15:57:56.966065	43.5	39.1	-89.1	11.0
2025-01-30 15:57:58.122577	43.0	39.1	-90.6	13.1
2025-01-30 15:57:59.274277	42.5	39.2	-91.3	11.8
2025-01-30 15:58:00.426764	42.0	39.2	-91.4	12.7
2025-01-30 15:58:01.579635	41.5	39.2	-91.8	11.5
2025-01-30 15:58:02.730322	40.9	39.2	-91.3	10.6
2025-01-30 15:58:03.875517	40.4	39.3	-91.7	11.4
2025-01-30 15:58:05.030648	39.9	39.3	-92.0	14.3
2025-01-30 15:58:06.184654	39.4	39.3	-91.9	11.7
2025-01-30 15:58:07.339838	38.9	39.3	-91.7	16.5
2025-01-30 15:58:08.491489	38.4	39.3	-91.9	13.8
2025-01-30 15:58:09.647674	37.9	39.3	-91.5	13.4
2025-01-30 15:58:10.803328	37.4	39.3	-91.5	11.2
2025-01-30 15:58:11.959160	36.8	39.3	-91.6	10.1
2025-01-30 15:58:13.114074	36.3	39.3	-91.6	11.0
2025-01-30 15:58:14.259925	35.8	39.3	-91.8	12.0
2025-01-30 15:58:15.415102	35.3	39.3	-92.0	14.5
2025-01-30 15:58:16.573523	34.8	39.3	-91.8	12.6
2025-01-30 15:58:17.731871	34.3	39.3	-91.9	8.8
2025-01-30 15:58:18.892673	33.8	39.3	-91.8	8.8
2025-01-30 15:58:20.045528	33.2	39.2	-91.9	9.7
2025-01-30 15:58:21.187111	32.7	39.2	-91.4	4.6
2025-01-30 15:58:22.310562	32.2	39.2	-91.7	6.2
2025-01-30 15:58:23.430249	31.7	39.2	-91.4	8.3
2025-01-30 15:58:24.550392	31.2	39.1	-91.2	10.3
2025-01-30 15:58:25.670628	30.8	39.1	-91.7	7.4
2025-01-30 15:58:26.791981	30.3	39.1	-91.4	6.3
2025-01-30 15:58:27.913266	29.8	39.0	-91.1	5.1
2025-01-30 15:58:29.033675	29.3	39.0	-91.3	7.8
2025-01-30 15:58:30.154994	28.8	39.0	-91.6	8.6
2025-01-30 15:58:31.276913	28.3	38.9	-90.8	3.6
2025-01-30 15:58:32.401478	27.8	38.9	-91.4	6.5
2025-01-30 15:58:33.553731	27.3	38.8	-90.4	8.9
2025-01-30 15:58:34.702959	26.8	38.8	-91.5	6.7
2025-01-30 15:58:35.854066	26.3	38.7	-91.7	5.3
2025-01-30 15:58:36.999852	25.8	38.7	-91.5	7.2
2025-01-30 15:58:38.161488	25.3	38.6	-91.7	8.5
2025-01-30 15:58:39.314174	24.8	38.6	-91.7	8.2
2025-01-30 15:58:40.469067	24.4	38.5	-92.0	7.6
2025-01-30 15:58:41.627735	23.9	38.4	-91.9	7.3
2025-01-30 15:58:42.786465	23.4	38.4	-91.7	6.5
2025-01-30 15:58:43.943268	22.9	38.3	-92.1	6.3
2025-01-30 15:58:45.096942	22.4	38.2	-91.5	5.8
2025-01-30 15:58:46.257624	21.9	38.1	-91.2	4.6
2025-01-30 15:58:47.410475	21.5	38.1	-91.2	6.9
2025-01-30 15:58:48.561706	21.0	38.0	-91.6	8.5
2025-01-30 15:58:49.715815	20.5	37.9	-91.6	6.4
2025-01-30 15:58:50.876504	20.0	37.8	-91.9	9.5
2025-01-30 15:58:52.033660	19.6	37.7	-91.8	9.6
2025-01-30 15:58:53.187565	19.1	37.7	-91.6	8.0
2025-01-30 15:58:54.333807	18.6	37.6	-92.0	6.4
2025-01-30 15:58:55.487701	18.2	37.5	-92.1	7.5
2025-01-30 15:58:56.639244	17.7	37.4	-91.8	7.1
2025-01-30 15:58:57.797010	17.3	37.3	-91.8	4.7
2025-01-30 15:58:58.951018	16.8	37.2	-91.9	8.0
2025-01-30 15:59:00.103865	16.4	37.1	-91.7	7.0
2025-01-30 15:59:01.249281	15.9	37.0	-91.6	5.0
2025-01-30 15:59:02.401734	15.5	36.9	-92.1	8.0
2025-01-30 15:59:03.554582	15.0	36.8	-91.8	4.5
2025-01-30 15:59:04.707849	14.6	36.7	-91.6	3.8
2025-01-30 15:59:05.855157	14.2	36.6	-91.7	5.7
2025-01-30 15:59:07.015786	13.7	36.5	-91.8	6.5
2025-01-30 15:59:08.138767	13.3	36.4	-91.7	5.8
2025-01-30 15:59:09.260014	12.9	36.3	-91.6	3.3
2025-01-30 15:59:10.381056	12.5	36.2	-91.7	6.0
2025-01-30 15:59:11.501187	12.1	36.1	-91.6	7.3
2025-01-30 15:59:12.621660	11.7	36.0	-91.5	8.1
2025-01-30 15:59:13.741728	11.3	35.9	-91.9	5.9
2025-01-30 15:59:14.862974	10.9	35.7	-91.6	4.5
2025-01-30 15:59:15.983330	10.5	35.6	-91.8	6.4
2025-01-30 15:59:17.105869	10.1	35.5	-91.3	4.7
2025-01-30 15:59:18.225289	9.7	35.4	-91.7	4.8
2025-01-30 15:59:19.371333	9.3	35.3	-91.7	3.5
2025-01-30 15:59:20.521265	8.9	35.2	-92.2	6.5
2025-01-30 15:59:21.671640	8.5	35.0	-91.8	6.0
2025-01-30 15:59:22.816784	8.1	34.9	-91.8	4.8
2025-01-30 15:59:23.964311	7.7	34.8	-92.1	8.6
2025-01-30 15:59:25.117704	7.3	34.7	-92.1	8.9
2025-01-30 15:59:26.274763	6.9	34.5	-91.8	4.9
2025-01-30 15:59:27.427577	6.6	34.4	-91.3	8.3
2025-01-30 15:59:28.580003	6.2	34.3	-90.9	7.0
2025-01-30 15:59:29.726595	5.8	34.1	-91.2	6.5
2025-01-30 15:59:30.887111	5.4	34.0	-91.2	8.8
2025-01-30 15:59:32.047132	5.1	33.9	-91.5	12.7
2025-01-30 15:59:33.201344	4.7	33.7	-91.1	7.1
2025-01-30 15:59:34.358338	4.3	33.6	-91.2	7.8
2025-01-30 15:59:35.514781	4.0	33.5	-92.0	11.6
2025-01-30 15:59:36.672003	3.6	33.3	-92.0	11.4
2025-01-30 15:59:37.824360	3.3	33.2	-91.7	9.4
2025-01-30 15:59:38.975515	2.9	33.1	-91.8	10.6
2025-01-30 15:59:40.129447	2.6	32.9	-91.9	11.3
2025-01-30 15:59:41.277343	2.2	32.8	-91.9	6.7
2025-01-30 15:59:42.424116	1.9	32.7	-91.6	12.3
2025-01-30 15:59:43.579248	1.5	32.5	-92.1	13.7
2025-01-30 15:59:44.736135	1.2	32.4	-91.8	8.6
2025-01-30 15:59:45.889033	0.9	32.3	-92.0	8.6
2025-01-30 15:59:47.040053	0.5	32.1	-91.7	6.7
2025-01-30 15:59:48.193061	0.2	32.0	-92.1	7.5
2025-01-30 15:59:49.350047	359.9	31.8	-91.6	7.5
2025-01-30 15:59:50.504126	359.6	31.7	-91.6	8.2
2025-01-30 15:59:51.658671	359.3	31.6	-91.7	3.8
2025-01-30 15:59:52.816247	358.9	31.4	-91.7	5.4
2025-01-30 15:59:53.962278	358.6	31.3	-91.8	5.1
2025-01-30 15:59:55.120455	358.3	31.1	-91.7	3.7
2025-01-30 15:59:56.267812	358.0	31.0	-91.9	5.2
2025-01-30 15:59:57.425581	357.7	30.8	-91.4	4.0
2025-01-30 15:59:58.580295	357.4	30.7	-91.6	5.5
2025-01-30 15:59:59.737671	357.1	30.6	-91.8	3.1
2025-01-30 16:00:00.892048	356.8	30.4	-91.8	6.8
2025-01-30 16:00:02.048820	356.5	30.3	-91.6	3.4
2025-01-30 16:00:03.204270	356.2	30.1	-91.9	3.7
2025-01-30 16:00:04.355731	355.9	30.0	-91.6	5.2
2025-01-30 16:00:05.511123	355.6	29.8	-91.7	6.3
2025-01-30 16:00:06.663909	355.4	29.7	-92.0	5.5
2025-01-30 16:00:07.830554	355.1	29.6	-92.0	4.3
2025-01-30 16:00:08.972933	354.8	29.4	-91.8	8.6
2025-01-30 16:00:10.122837	354.5	29.3	-91.6	7.5
2025-01-30 16:00:11.243591	354.3	29.1	-91.5	6.2
2025-01-30 16:00:12.363947	354.0	29.0	-91.7	8.8
2025-01-30 16:00:13.483920	353.7	28.8	-91.5	8.6
2025-01-30 16:00:14.605033	353.5	28.7	-92.0	6.0
2025-01-30 16:00:15.725080	353.2	28.6	-92.0	7.4
2025-01-30 16:00:16.845767	353.0	28.4	-91.9	5.8
2025-01-30 16:00:17.967383	352.7	28.3	-91.7	7.1
2025-01-30 16:00:19.087888	352.5	28.1	-91.8	5.7
2025-01-30 16:00:20.213647	352.2	28.0	-91.8	3.1
2025-01-30 16:00:21.338537	352.0	27.9	-91.5	2.3
2025-01-30 16:00:22.497998	351.7	27.7	-92.2	6.2
2025-01-30 16:00:23.647830	351.5	27.6	-91.6	4.7
2025-01-30 16:00:24.803687	351.2	27.4	-91.6	2.8
2025-01-30 16:00:25.946353	351.0	27.3	-91.7	2.2
2025-01-30 16:00:27.113336	350.7	27.2	-92.1	5.1
2025-01-30 16:00:28.265668	350.5	27.0	-92.0	3.3
2025-01-30 16:00:29.415482	350.2	26.9	-91.9	3.5
2025-01-30 16:00:30.568837	350.0	26.7	-91.9	7.6
2025-01-30 16:00:31.719928	349.8	26.6	-91.4	7.7
2025-01-30 16:00:32.878128	349.5	26.4	-92.0	8.4
2025-01-30 16:00:34.033026	349.3	26.3	-91.9	5.6
2025-01-30 16:00:35.178926	349.1	26.2	-91.4	13.0
2025-01-30 16:00:36.335888	348.9	26.0	-91.1	7.9
2025-01-30 16:00:37.489063	348.6	25.9	-91.6	13.5
2025-01-30 16:00:38.636797	348.4	25.7	-91.0	11.3
2025-01-30 16:00:39.783172	348.2	25.6	-91.8	10.8
2025-01-30 16:00:40.933577	348.0	25.5	-92.0	2.4
2025-01-30 16:00:42.087697	347.8	25.3	-91.8	8.0
2025-01-30 16:00:43.245746	347.6	25.2	-91.7	4.4
2025-01-30 16:00:44.404496	347.4	25.0	-91.7	5.2
2025-01-30 16:00:45.558142	347.1	24.9	-91.8	4.2
2025-01-30 16:00:46.716444	346.9	24.8	-91.9	4.1
2025-01-30 16:00:47.863411	346.7	24.6	-92.1	1.8
2025-01-30 16:00:49.012519	346.5	24.5	-92.0	5.0
2025-01-30 16:00:50.158783	346.3	24.4	-91.7	5.9
2025-01-30 16:00:51.305754	346.1	24.2	-91.7	5.4
2025-01-30 16:00:52.433104	345.9	24.1	-91.8	6.6
2025-01-30 16:00:53.585479	345.7	23.9	-91.7	5.6
2025-01-30 16:00:54.728926	345.5	23.8	-91.8	5.2
2025-01-30 16:00:55.882818	345.3	23.7	-91.6	10.2
2025-01-30 16:00:57.031865	345.2	23.5	-91.6	13.6
2025-01-30 16:00:58.194580	345.0	23.4	-91.8	12.7
2025-01-30 16:00:59.346096	344.8	23.3	-92.0	9.7
2025-01-30 16:01:00.498118	344.6	23.1	-92.0	4.3
2025-01-30 16:01:01.651461	344.4	23.0	-91.7	6.7
2025-01-30 16:01:02.805634	344.2	22.9	-92.1	6.0
2025-01-30 16:01:03.952965	344.0	22.7	-91.4	4.2
2025-01-30 16:01:05.110204	343.9	22.6	-91.6	5.8
2025-01-30 16:01:06.256085	343.7	22.5	-91.8	2.5
2025-01-30 16:01:07.412893	343.5	22.3	-91.9	3.2
2025-01-30 16:01:08.565958	343.3	22.2	-91.6	8.5
2025-01-30 16:01:09.730954	343.2	22.1	-91.7	5.1
2025-01-30 16:01:10.881839	343.0	21.9	-92.1	7.9
2025-01-30 16:01:12.036745	342.8	21.8	-92.0	6.7
2025-01-30 16:01:13.192281	342.6	21.7	-91.8	4.8
2025-01-30 16:01:14.344209	342.5	21.6	-91.7	1.9
2025-01-30 16:01:15.494379	342.3	21.4	-92.1	11.9
2025-01-30 16:01:16.641199	342.1	21.3	-91.8	8.2
2025-01-30 16:01:17.802623	342.0	21.2	-92.0	12.1
2025-01-30 16:01:18.958561	341.8	21.0	-91.9	8.8
2025-01-30 16:01:20.113326	341.6	20.9	-91.6	7.2
2025-01-30 16:01:21.267298	341.5	20.8	-91.9	6.6
2025-01-30 16:01:22.422698	341.3	20.7	-92.0	4.0
2025-01-30 16:01:23.579636	341.2	20.5	-91.5	4.0
2025-01-30 16:01:24.735628	341.0	20.4	-92.2	1.1
2025-01-30 16:01:25.881021	340.9	20.3	-92.2	2.0
2025-01-30 16:01:27.046308	340.7	20.1	-92.2	3.8
2025-01-30 16:01:28.214306	340.6	20.0	-91.8	2.1
2025-01-30 16:01:29.350869	340.4	19.9	-91.9	2.8
2025-01-30 16:01:30.497918	340.3	19.8	-91.9	2.6
2025-01-30 16:01:31.654030	340.1	19.7	-91.8	1.5
2025-01-30 16:01:32.811487	340.0	19.5	-92.3	3.0
2025-01-30 16:01:33.962735	339.8	19.4	-91.9	7.7
2025-01-30 16:01:35.118085	339.7	19.3	-91.9	10.8
2025-01-30 16:01:36.272091	339.5	19.2	-91.9	3.1
2025-01-30 16:01:37.429651	339.4	19.0	-91.8	2.8
2025-01-30 16:01:38.588162	339.2	18.9	-92.0	2.5
2025-01-30 16:01:39.751142	339.1	18.8	-91.6	2.0
2025-01-30 16:01:40.911279	339.0	18.7	-91.4	3.5
2025-01-30 16:01:42.069558	338.8	18.6	-91.4	1.6
2025-01-30 16:01:43.217161	338.7	18.4	-91.9	1.7
2025-01-30 16:01:44.366649	338.6	18.3	-91.8	1.4
2025-01-30 16:01:45.524961	338.4	18.2	-92.1	6.5
2025-01-30 16:01:46.677355	338.3	18.1	-91.9	1.8
2025-01-30 16:01:47.833289	338.1	18.0	-92.0	5.6
2025-01-30 16:01:48.993595	338.0	17.8	-92.1	5.6
2025-01-30 16:01:50.145408	337.9	17.7	-91.9	5.4
2025-01-30 16:01:51.298746	337.8	17.6	-92.1	6.2
2025-01-30 16:01:52.454155	337.6	17.5	-91.9	2.9
2025-01-30 16:01:53.600086	337.5	17.4	-91.4	7.2
2025-01-30 16:01:54.751953	337.4	17.3	-92.5	1.5
2025-01-30 16:01:55.906374	337.3	17.1	-91.9	1.4
2025-01-30 16:01:57.065149	337.1	17.0	-92.0	2.0
2025-01-30 16:01:58.218941	337.0	16.9	-92.0	2.1
2025-01-30 16:01:59.379872	336.9	16.8	-91.9	3.3
2025-01-30 16:02:00.530633	336.8	16.7	-91.5	3.6
2025-01-30 16:02:01.682950	336.6	16.6	-91.8	4.2
2025-01-30 16:02:02.832336	336.5	16.5	-91.9	3.2
2025-01-30 16:02:03.992936	336.4	16.3	-91.8	2.8
2025-01-30 16:02:05.143027	336.3	16.2	-91.8	4.4
2025-01-30 16:02:06.295805	336.2	16.1	-91.8	3.2
2025-01-30 16:02:07.451134	336.1	16.0	-91.4	6.7
2025-01-30 16:02:08.605100	335.9	15.9	-91.3	7.4
2025-01-30 16:02:09.757166	335.8	15.8	-91.4	5.7
2025-01-30 16:02:10.911687	335.7	15.7	-91.6	4.4
2025-01-30 16:02:12.062915	335.6	15.6	-92.0	1.9
2025-01-30 16:02:13.210304	335.5	15.5	-91.5	8.6
2025-01-30 16:02:14.359465	335.4	15.3	-91.4	7.0
2025-01-30 16:02:15.509792	335.3	15.2	-92.0	1.4
2025-01-30 16:02:16.661478	335.2	15.1	-91.7	1.6
2025-01-30 16:02:17.812285	335.0	15.0	-92.0	1.7
2025-01-30 16:02:18.971331	334.9	14.9	-91.8	2.1
2025-01-30 16:02:20.121757	334.8	14.8	-91.5	4.4
2025-01-30 16:02:21.275300	334.7	14.7	-91.6	3.6
2025-01-30 16:02:22.420854	334.6	14.6	-91.8	1.4
#Closed at: 2025-01-30 15:54:11.083853