passes_logs/2025/01/30/LEX_Murmansk/LEX_Murmansk__20250130_141517_NOAA_19_rec.log

#Pass ID: 20250130_141517_NOAA 19
#Satellite: NOAA 19
#Configuration: NOAA 19
#Start time: 2025-01-30 14:15:12.766263

#LorettStation: 1.0.0 05.05.2024
#Station: LEX_Murmansk
#Location: 33.156738 lon 68.926811 lat
#TLE: 1 33591U 09005A   25030.15472716  .00000350  00000+0  21086-3 0  9995
#TLE: 2 33591  99.0168  94.0324 0013877  16.1977 343.9635 14.13272478823684

#Time	Az	El	Level	SNR
2025-01-30 14:15:29.045959	56.6	16.3	-90.5	3.4
2025-01-30 14:15:30.203412	56.4	16.3	-90.3	2.9
2025-01-30 14:15:31.356744	56.2	16.4	-90.6	4.2
2025-01-30 14:15:32.504651	56.0	16.5	-90.3	4.5
2025-01-30 14:15:33.656787	55.8	16.6	-90.6	1.4
2025-01-30 14:15:34.811670	55.6	16.7	-90.6	5.4
2025-01-30 14:15:35.966837	55.5	16.8	-90.7	7.3
2025-01-30 14:15:37.117721	55.3	16.9	-90.6	6.7
2025-01-30 14:15:38.276435	55.1	17.0	-90.5	4.9
2025-01-30 14:15:39.427263	54.9	17.1	-90.5	5.0
2025-01-30 14:15:40.583649	54.7	17.1	-90.4	1.0
2025-01-30 14:15:41.732753	54.5	17.2	-90.5	0.4
2025-01-30 14:15:42.892834	54.3	17.3	-90.4	2.7
2025-01-30 14:15:44.047068	54.1	17.4	-90.6	4.7
2025-01-30 14:15:45.198991	53.9	17.5	-90.6	1.9
2025-01-30 14:15:46.348914	53.7	17.6	-90.5	4.1
2025-01-30 14:15:47.499713	53.5	17.7	-90.3	8.8
2025-01-30 14:15:48.651692	53.3	17.8	-89.7	10.9
2025-01-30 14:15:49.800891	53.1	17.9	-90.6	9.9
2025-01-30 14:15:50.958401	52.9	17.9	-90.9	10.2
2025-01-30 14:15:52.112260	52.7	18.0	-89.8	6.3
2025-01-30 14:15:53.267290	52.5	18.1	-89.7	3.2
2025-01-30 14:15:54.423613	52.3	18.2	-90.0	4.9
2025-01-30 14:15:55.576439	52.1	18.3	-89.9	3.8
2025-01-30 14:15:56.725695	51.9	18.4	-89.9	6.4
2025-01-30 14:15:57.877122	51.7	18.5	-89.9	8.6
2025-01-30 14:15:59.022198	51.5	18.6	-89.7	4.7
2025-01-30 14:16:00.174797	51.3	18.6	-89.8	4.9
2025-01-30 14:16:01.333709	51.1	18.7	-90.0	1.8
2025-01-30 14:16:02.483016	50.8	18.8	-89.6	2.9
2025-01-30 14:16:03.636162	50.6	18.9	-90.0	3.7
2025-01-30 14:16:04.787143	50.4	19.0	-90.5	2.7
2025-01-30 14:16:05.944561	50.2	19.1	-90.3	3.8
2025-01-30 14:16:07.096452	50.0	19.2	-89.8	5.4
2025-01-30 14:16:08.252744	49.8	19.3	-90.1	5.8
2025-01-30 14:16:09.407083	49.5	19.3	-90.7	8.4
2025-01-30 14:16:10.565500	49.3	19.4	-90.8	9.1
2025-01-30 14:16:11.723759	49.1	19.5	-90.8	11.1
2025-01-30 14:16:12.876949	48.9	19.6	-90.7	6.8
2025-01-30 14:16:14.030073	48.6	19.7	-91.0	5.1
2025-01-30 14:16:15.180466	48.4	19.8	-90.9	5.8
2025-01-30 14:16:16.330006	48.2	19.9	-90.8	3.0
2025-01-30 14:16:17.485196	47.9	19.9	-90.6	7.2
2025-01-30 14:16:18.632763	47.7	20.0	-90.7	8.4
2025-01-30 14:16:19.757772	47.5	20.1	-90.8	5.5
2025-01-30 14:16:20.893320	47.3	20.2	-90.7	9.8
2025-01-30 14:16:22.034230	47.0	20.3	-90.9	11.5
2025-01-30 14:16:23.171608	46.8	20.4	-90.6	7.8
2025-01-30 14:16:24.294973	46.6	20.5	-91.0	6.0
2025-01-30 14:16:25.430205	46.3	20.5	-91.0	4.7
2025-01-30 14:16:26.561868	46.1	20.6	-91.1	3.4
2025-01-30 14:16:27.698277	45.8	20.7	-90.8	2.4
2025-01-30 14:16:28.824970	45.6	20.8	-90.8	2.7
2025-01-30 14:16:29.952487	45.4	20.9	-90.9	3.0
2025-01-30 14:16:31.087903	45.1	20.9	-90.7	4.2
2025-01-30 14:16:32.235580	44.9	21.0	-90.8	6.5
2025-01-30 14:16:33.382588	44.6	21.1	-90.7	6.9
2025-01-30 14:16:34.521741	44.4	21.2	-90.7	9.6
2025-01-30 14:16:35.662888	44.1	21.3	-91.1	13.1
2025-01-30 14:16:36.803462	43.9	21.3	-90.8	10.0
2025-01-30 14:16:37.924478	43.6	21.4	-90.7	9.3
2025-01-30 14:16:39.047475	43.4	21.5	-90.8	8.1
2025-01-30 14:16:40.169462	43.2	21.6	-90.8	6.6
2025-01-30 14:16:41.292502	42.9	21.7	-90.9	5.0
2025-01-30 14:16:42.414021	42.6	21.7	-90.7	5.3
2025-01-30 14:16:43.535685	42.4	21.8	-90.7	6.8
2025-01-30 14:16:44.658830	42.1	21.9	-91.1	7.7
2025-01-30 14:16:45.781859	41.9	22.0	-90.7	9.1
2025-01-30 14:16:46.902863	41.6	22.0	-91.1	10.3
2025-01-30 14:16:48.024487	41.4	22.1	-90.8	9.0
2025-01-30 14:16:49.172468	41.1	22.2	-90.8	8.9
2025-01-30 14:16:50.325286	40.8	22.3	-90.7	6.2
2025-01-30 14:16:51.467019	40.6	22.4	-90.7	5.3
2025-01-30 14:16:52.591558	40.3	22.4	-91.1	5.3
2025-01-30 14:16:53.773021	40.0	22.5	-90.7	2.8
2025-01-30 14:16:54.896946	39.8	22.6	-91.0	1.9
2025-01-30 14:16:56.024424	39.5	22.6	-90.8	3.8
2025-01-30 14:16:57.178664	39.2	22.7	-90.6	2.7
2025-01-30 14:16:58.371383	38.9	22.8	-90.8	5.5
2025-01-30 14:16:59.520816	38.7	22.9	-90.9	5.7
2025-01-30 14:17:00.644822	38.4	22.9	-90.6	7.8
2025-01-30 14:17:01.768836	38.1	23.0	-90.8	12.3
2025-01-30 14:17:03.008507	37.8	23.1	-90.7	12.2
2025-01-30 14:17:04.133252	37.5	23.2	-90.4	11.6
2025-01-30 14:17:05.258768	37.3	23.2	-91.1	8.2
2025-01-30 14:17:06.387953	37.0	23.3	-90.8	8.8
2025-01-30 14:17:07.520539	36.7	23.4	-91.0	7.4
2025-01-30 14:17:08.655264	36.4	23.4	-90.0	3.3
2025-01-30 14:17:09.797879	36.1	23.5	-90.1	4.0
2025-01-30 14:17:10.934890	35.8	23.6	-90.1	5.9
2025-01-30 14:17:12.069571	35.5	23.6	-90.1	7.3
2025-01-30 14:17:13.204035	35.3	23.7	-90.6	6.7
2025-01-30 14:17:14.438854	34.9	23.8	-90.9	11.2
2025-01-30 14:17:15.575588	34.7	23.8	-90.8	10.7
2025-01-30 14:17:16.702287	34.4	23.9	-90.8	9.5
2025-01-30 14:17:17.848436	34.1	23.9	-91.4	11.8
2025-01-30 14:17:19.007599	33.8	24.0	-90.6	12.2
2025-01-30 14:17:20.164222	33.5	24.1	-90.7	8.5
2025-01-30 14:17:21.314051	33.2	24.1	-90.7	6.3
2025-01-30 14:17:22.463231	32.9	24.2	-91.1	5.1
2025-01-30 14:17:23.612952	32.6	24.3	-90.6	4.3
2025-01-30 14:17:24.763001	32.3	24.3	-91.0	2.9
2025-01-30 14:17:25.910763	31.9	24.4	-91.0	2.9
2025-01-30 14:17:27.071651	31.6	24.4	-91.1	4.2
2025-01-30 14:17:28.209410	31.3	24.5	-90.9	2.5
2025-01-30 14:17:29.354027	31.0	24.5	-90.8	4.2
2025-01-30 14:17:30.510779	30.7	24.6	-91.2	6.7
2025-01-30 14:17:31.682160	30.4	24.6	-90.8	7.5
2025-01-30 14:17:32.812124	30.1	24.7	-91.3	9.8
2025-01-30 14:17:34.572939	29.6	24.8	-91.2	10.9
2025-01-30 14:17:36.049991	29.2	24.8	-90.9	8.0
2025-01-30 14:17:37.171005	28.9	24.9	-90.9	10.8
2025-01-30 14:17:38.292031	28.6	24.9	-90.8	9.9
2025-01-30 14:17:39.414517	28.3	25.0	-91.2	11.7
2025-01-30 14:17:40.535551	28.0	25.0	-90.8	11.2
2025-01-30 14:17:41.657549	27.7	25.1	-91.2	8.8
2025-01-30 14:17:42.779549	27.3	25.1	-91.1	6.2
2025-01-30 14:17:43.900553	27.0	25.2	-91.0	6.0
2025-01-30 14:17:45.021555	26.7	25.2	-91.2	9.1
2025-01-30 14:17:46.144553	26.4	25.2	-91.1	5.9
2025-01-30 14:17:47.263561	26.1	25.3	-91.1	3.7
2025-01-30 14:17:48.385533	25.8	25.3	-91.0	6.9
2025-01-30 14:17:49.507537	25.5	25.4	-91.2	8.2
2025-01-30 14:17:50.630947	25.1	25.4	-91.2	10.4
2025-01-30 14:17:51.751949	24.8	25.4	-91.1	11.7
2025-01-30 14:17:52.872951	24.5	25.5	-91.3	13.3
2025-01-30 14:17:53.993954	24.2	25.5	-91.1	12.9
2025-01-30 14:17:55.145598	23.9	25.6	-90.9	11.0
2025-01-30 14:17:56.299936	23.5	25.6	-90.7	9.4
2025-01-30 14:17:57.456718	23.2	25.6	-90.6	7.6
2025-01-30 14:17:58.603996	22.9	25.7	-91.0	8.4
2025-01-30 14:17:59.759384	22.5	25.7	-91.1	5.3
2025-01-30 14:18:00.913618	22.2	25.7	-90.9	6.4
2025-01-30 14:18:02.067963	21.9	25.7	-90.6	8.4
2025-01-30 14:18:03.224612	21.5	25.8	-90.4	5.1
2025-01-30 14:18:04.377080	21.2	25.8	-90.4	4.8
2025-01-30 14:18:05.537032	20.8	25.8	-90.8	4.4
2025-01-30 14:18:06.692002	20.5	25.8	-90.4	2.7
2025-01-30 14:18:07.837806	20.2	25.9	-90.7	2.8
2025-01-30 14:18:08.986226	19.8	25.9	-90.9	3.5
2025-01-30 14:18:10.137070	19.5	25.9	-91.0	5.3
2025-01-30 14:18:11.293024	19.2	25.9	-90.7	4.0
2025-01-30 14:18:12.448050	18.8	26.0	-90.6	3.8
2025-01-30 14:18:13.595145	18.5	26.0	-90.2	3.3
2025-01-30 14:18:14.721086	18.2	26.0	-90.1	6.3
2025-01-30 14:18:15.863057	17.8	26.0	-90.3	5.9
2025-01-30 14:18:17.021147	17.5	26.0	-90.6	6.6
2025-01-30 14:18:18.165039	17.1	26.0	-90.6	7.8
2025-01-30 14:18:19.302273	16.8	26.0	-91.2	7.7
2025-01-30 14:18:20.433899	16.5	26.1	-91.3	10.8
2025-01-30 14:18:21.554599	16.1	26.1	-91.0	11.1
2025-01-30 14:18:22.683802	15.8	26.1	-90.6	12.1
2025-01-30 14:18:23.813641	15.5	26.1	-91.2	12.3
2025-01-30 14:18:24.946510	15.1	26.1	-91.1	10.7
2025-01-30 14:18:26.081698	14.8	26.1	-90.9	11.8
2025-01-30 14:18:27.203366	14.5	26.1	-90.7	6.2
2025-01-30 14:18:28.327677	14.1	26.1	-90.9	6.6
2025-01-30 14:18:29.450395	13.8	26.1	-91.0	7.6
2025-01-30 14:18:30.576975	13.5	26.1	-90.9	8.3
2025-01-30 14:18:31.706858	13.1	26.1	-90.9	4.8
2025-01-30 14:18:32.832764	12.8	26.1	-91.1	5.4
2025-01-30 14:18:33.963523	12.5	26.1	-90.8	5.4
2025-01-30 14:18:35.103084	12.1	26.1	-91.1	6.6
2025-01-30 14:18:36.232391	11.8	26.1	-90.9	3.8
2025-01-30 14:18:37.353688	11.5	26.1	-91.0	3.7
2025-01-30 14:18:38.480802	11.1	26.1	-90.8	4.9
2025-01-30 14:18:39.611746	10.8	26.1	-90.6	7.0
2025-01-30 14:18:40.750862	10.4	26.1	-91.3	6.4
2025-01-30 14:18:41.904869	10.1	26.1	-91.2	6.0
2025-01-30 14:18:43.050925	9.8	26.1	-90.8	7.1
2025-01-30 14:18:44.201098	9.4	26.1	-90.8	5.3
2025-01-30 14:18:45.352207	9.1	26.0	-91.1	4.1
2025-01-30 14:18:46.487171	8.7	26.0	-90.7	6.9
2025-01-30 14:18:47.630696	8.4	26.0	-91.0	6.5
2025-01-30 14:18:48.774795	8.1	26.0	-91.1	3.4
2025-01-30 14:18:49.925320	7.7	26.0	-91.2	5.9
2025-01-30 14:18:51.082796	7.4	26.0	-90.9	6.0
2025-01-30 14:18:52.226566	7.1	25.9	-91.3	5.0
2025-01-30 14:18:53.378969	6.7	25.9	-90.9	6.4
2025-01-30 14:18:54.523853	6.4	25.9	-90.9	8.5
2025-01-30 14:18:55.679022	6.0	25.9	-91.0	6.9
2025-01-30 14:18:56.826995	5.7	25.9	-91.2	5.3
2025-01-30 14:18:57.977832	5.4	25.8	-91.4	7.2
2025-01-30 14:18:59.124541	5.0	25.8	-90.9	8.0
2025-01-30 14:19:00.271058	4.7	25.8	-91.0	8.2
2025-01-30 14:19:01.413612	4.4	25.8	-91.1	9.5
2025-01-30 14:19:02.558576	4.0	25.7	-90.8	8.7
2025-01-30 14:19:03.707626	3.7	25.7	-90.9	8.8
2025-01-30 14:19:04.857000	3.4	25.7	-91.2	11.0
2025-01-30 14:19:06.006560	3.1	25.6	-90.8	11.3
2025-01-30 14:19:07.156022	2.7	25.6	-90.8	9.3
2025-01-30 14:19:08.304636	2.4	25.6	-91.1	8.3
2025-01-30 14:19:09.455127	2.1	25.5	-90.8	10.1
2025-01-30 14:19:10.615418	1.7	25.5	-91.1	10.4
2025-01-30 14:19:11.765053	1.4	25.5	-90.8	10.7
2025-01-30 14:19:12.913617	1.1	25.4	-90.5	12.3
2025-01-30 14:19:14.060061	0.8	25.4	-90.8	11.1
2025-01-30 14:19:15.212616	0.4	25.3	-91.3	13.3
2025-01-30 14:19:16.364691	0.1	25.3	-90.8	12.5
2025-01-30 14:19:17.514010	359.8	25.3	-90.2	10.1
2025-01-30 14:19:18.661032	359.5	25.2	-90.4	11.9
2025-01-30 14:19:19.805313	359.1	25.2	-90.2	11.2
2025-01-30 14:19:20.947997	358.8	25.1	-90.1	10.7
2025-01-30 14:19:22.098693	358.5	25.1	-91.1	11.3
2025-01-30 14:19:23.246679	358.2	25.0	-91.1	11.2
2025-01-30 14:19:24.397827	357.9	25.0	-90.7	11.1
2025-01-30 14:19:25.556685	357.5	24.9	-90.8	12.3
2025-01-30 14:19:26.690208	357.2	24.9	-91.4	11.6
2025-01-30 14:19:27.810480	356.9	24.9	-91.2	14.6
2025-01-30 14:19:28.952556	356.6	24.8	-91.1	13.8
2025-01-30 14:19:30.100116	356.3	24.8	-90.9	13.1
2025-01-30 14:19:31.230166	356.0	24.7	-90.7	15.3
2025-01-30 14:19:32.349186	355.7	24.7	-90.7	14.4
2025-01-30 14:19:33.490541	355.4	24.6	-90.8	12.7
2025-01-30 14:19:34.630624	355.1	24.5	-90.9	11.3
2025-01-30 14:19:35.755071	354.8	24.5	-90.8	11.6
2025-01-30 14:19:36.885858	354.5	24.4	-91.4	11.9
2025-01-30 14:19:38.022682	354.2	24.4	-90.9	11.2
2025-01-30 14:19:39.175860	353.9	24.3	-91.1	12.6
2025-01-30 14:19:40.320350	353.6	24.3	-90.5	13.6
2025-01-30 14:19:41.465931	353.3	24.2	-90.1	15.7
2025-01-30 14:19:42.606337	353.0	24.1	-90.4	13.8
2025-01-30 14:19:43.749328	352.7	24.1	-90.6	11.2
2025-01-30 14:19:44.897126	352.4	24.0	-89.8	11.6
2025-01-30 14:19:46.032704	352.1	24.0	-90.0	10.4
2025-01-30 14:19:47.177053	351.8	23.9	-91.0	11.7
2025-01-30 14:19:48.314782	351.5	23.8	-90.7	9.5
2025-01-30 14:19:49.435877	351.2	23.8	-90.8	8.5
2025-01-30 14:19:50.557142	350.9	23.7	-90.6	6.6
2025-01-30 14:19:51.692180	350.6	23.6	-90.9	7.2
2025-01-30 14:19:52.812820	350.3	23.6	-91.1	8.2
2025-01-30 14:19:53.936137	350.1	23.5	-91.3	9.6
2025-01-30 14:19:55.063013	349.8	23.5	-91.2	8.7
2025-01-30 14:19:56.184002	349.5	23.4	-91.1	6.0
2025-01-30 14:19:57.305778	349.2	23.3	-91.1	8.1
2025-01-30 14:19:58.426298	348.9	23.3	-91.1	9.9
2025-01-30 14:19:59.546902	348.7	23.2	-91.3	9.8
2025-01-30 14:20:00.667320	348.4	23.1	-91.1	7.2
2025-01-30 14:20:01.789037	348.1	23.0	-91.2	4.9
2025-01-30 14:20:02.914415	347.8	23.0	-91.1	5.9
2025-01-30 14:20:04.039763	347.6	22.9	-90.8	5.8
2025-01-30 14:20:05.164551	347.3	22.8	-90.8	2.9
2025-01-30 14:20:06.287134	347.0	22.8	-90.8	4.0
2025-01-30 14:20:07.438527	346.8	22.7	-91.1	4.4
2025-01-30 14:20:08.584639	346.5	22.6	-91.2	4.3
2025-01-30 14:20:09.716466	346.2	22.5	-90.8	3.1
2025-01-30 14:20:10.844643	346.0	22.5	-91.1	2.3
2025-01-30 14:20:11.974997	345.7	22.4	-91.0	4.2
2025-01-30 14:20:13.109936	345.4	22.3	-90.9	4.6
2025-01-30 14:20:14.252885	345.2	22.3	-90.6	3.9
2025-01-30 14:20:15.396718	344.9	22.2	-90.8	5.2
2025-01-30 14:20:16.540121	344.6	22.1	-91.1	4.5
2025-01-30 14:20:17.682309	344.4	22.0	-90.9	3.9
2025-01-30 14:20:18.830679	344.1	21.9	-91.0	4.8
2025-01-30 14:20:19.977824	343.9	21.9	-91.3	5.8
2025-01-30 14:20:21.126846	343.6	21.8	-90.2	9.5
2025-01-30 14:20:22.267689	343.3	21.7	-90.1	5.0
2025-01-30 14:20:23.386742	343.1	21.6	-89.6	4.5
2025-01-30 14:20:24.508015	342.8	21.6	-90.2	6.7
2025-01-30 14:20:25.629563	342.6	21.5	-90.3	8.1
2025-01-30 14:20:26.762972	342.3	21.4	-90.8	7.6
2025-01-30 14:20:27.897692	342.1	21.3	-90.9	7.5
2025-01-30 14:20:29.023906	341.9	21.2	-91.1	8.9
2025-01-30 14:20:30.146871	341.6	21.2	-91.1	6.4
2025-01-30 14:20:31.268417	341.4	21.1	-90.2	7.5
2025-01-30 14:20:32.388037	341.1	21.0	-90.3	5.0
2025-01-30 14:20:33.507956	340.9	20.9	-90.3	5.6
2025-01-30 14:20:34.628791	340.7	20.8	-90.2	6.9
2025-01-30 14:20:35.764003	340.4	20.8	-90.4	3.1
2025-01-30 14:20:36.893871	340.2	20.7	-90.0	5.6
2025-01-30 14:20:38.014663	339.9	20.6	-90.5	6.2
2025-01-30 14:20:39.368667	339.7	20.5	-90.1	4.7
2025-01-30 14:20:40.515709	339.4	20.4	-90.0	4.2
2025-01-30 14:20:41.659953	339.2	20.3	-90.2	4.9
2025-01-30 14:20:42.798699	339.0	20.3	-89.9	2.8
2025-01-30 14:20:43.939480	338.7	20.2	-90.5	3.4
2025-01-30 14:20:45.082155	338.5	20.1	-90.2	1.8
2025-01-30 14:20:46.224618	338.3	20.0	-90.2	1.6
2025-01-30 14:20:47.373141	338.0	19.9	-90.3	1.9
2025-01-30 14:20:48.507779	337.8	19.8	-90.9	1.2
2025-01-30 14:20:49.653356	337.6	19.7	-91.0	3.6
2025-01-30 14:20:50.793030	337.4	19.7	-90.6	4.1
2025-01-30 14:20:51.937522	337.2	19.6	-91.1	3.2
2025-01-30 14:20:53.083871	336.9	19.5	-90.0	2.9
2025-01-30 14:20:54.228393	336.7	19.4	-90.3	2.1
2025-01-30 14:20:55.360363	336.5	19.3	-90.0	2.4
2025-01-30 14:20:56.479848	336.3	19.2	-89.8	4.3
2025-01-30 14:20:57.603816	336.1	19.2	-90.1	5.1
2025-01-30 14:20:58.724750	335.9	19.1	-90.4	4.7
2025-01-30 14:20:59.843887	335.6	19.0	-90.1	4.7
2025-01-30 14:21:00.964289	335.4	18.9	-90.2	7.1
2025-01-30 14:21:02.084443	335.2	18.8	-90.0	9.3
2025-01-30 14:21:03.206869	335.0	18.7	-90.1	3.1
2025-01-30 14:21:04.331145	334.8	18.6	-90.4	5.4
2025-01-30 14:21:05.454086	334.6	18.6	-90.0	4.2
2025-01-30 14:21:06.590138	334.4	18.5	-90.8	0.3
2025-01-30 14:21:07.714925	334.2	18.4	-91.0	1.4
2025-01-30 14:21:08.852456	334.0	18.3	-90.9	1.0
2025-01-30 14:21:09.989324	333.8	18.2	-90.8	1.0
2025-01-30 14:21:11.149609	333.6	18.1	-90.9	2.1
2025-01-30 14:21:12.274795	333.4	18.0	-90.7	1.7
2025-01-30 14:21:13.395242	333.2	18.0	-91.1	1.6
2025-01-30 14:21:14.522484	333.0	17.9	-90.8	0.7
2025-01-30 14:21:15.674946	332.8	17.8	-91.0	0.8
2025-01-30 14:21:16.827718	332.6	17.7	-91.1	3.2
2025-01-30 14:21:17.978650	332.4	17.6	-91.2	3.4
2025-01-30 14:21:19.130249	332.2	17.5	-90.8	0.6
2025-01-30 14:21:20.280135	332.0	17.4	-91.2	1.6
2025-01-30 14:21:21.441994	331.8	17.3	-91.0	3.4
2025-01-30 14:21:22.590085	331.6	17.3	-91.4	2.9
2025-01-30 14:21:23.748045	331.4	17.2	-91.2	2.3
2025-01-30 14:21:24.877765	331.3	17.1	-91.0	2.2
2025-01-30 14:21:26.026345	331.1	17.0	-91.3	3.4
2025-01-30 14:21:27.170785	330.9	16.9	-91.4	4.6
2025-01-30 14:21:28.324538	330.7	16.8	-90.9	6.3
2025-01-30 14:21:29.478271	330.5	16.7	-91.0	5.9
2025-01-30 14:21:30.629777	330.3	16.6	-90.2	2.1
2025-01-30 14:21:31.792749	330.1	16.5	-90.1	2.7
2025-01-30 14:21:32.943773	330.0	16.5	-90.6	3.9
2025-01-30 14:21:34.098003	329.8	16.4	-90.5	2.9
2025-01-30 14:21:35.248603	329.6	16.3	-90.5	2.0
2025-01-30 14:21:36.401689	329.4	16.2	-90.2	4.3
2025-01-30 14:21:37.562757	329.2	16.1	-90.4	4.6
2025-01-30 14:21:38.724261	329.1	16.0	-90.3	1.4
2025-01-30 14:21:39.874255	328.9	15.9	-90.3	1.8
2025-01-30 14:21:41.031549	328.7	15.8	-90.2	3.5
2025-01-30 14:21:42.185409	328.5	15.7	-90.2	3.0
2025-01-30 14:21:43.334149	328.4	15.7	-90.4	1.6
2025-01-30 14:21:44.486609	328.2	15.6	-91.3	4.1
2025-01-30 14:21:45.639717	328.0	15.5	-91.3	8.3
2025-01-30 14:21:46.797652	327.9	15.4	-91.3	4.0
2025-01-30 14:21:47.954021	327.7	15.3	-91.0	1.8
2025-01-30 14:21:49.113746	327.5	15.2	-91.0	2.8
2025-01-30 14:21:50.264908	327.4	15.1	-91.3	7.0
2025-01-30 14:21:51.424027	327.2	15.0	-90.8	5.2
2025-01-30 14:21:52.578754	327.0	15.0	-90.9	3.5
2025-01-30 14:21:53.724808	326.9	14.9	-91.1	5.8
2025-01-30 14:21:54.876272	326.7	14.8	-91.4	7.5
2025-01-30 14:21:56.025352	326.5	14.7	-91.1	3.0
2025-01-30 14:21:57.180849	326.4	14.6	-90.9	2.2
#Closed at: 2025-01-30 14:15:17.835719