passes_logs/2025/01/30/LEX_Murmansk/LEX_Murmansk__20250130_161645_NOAA_18_rec.log

#Pass ID: 20250130_161645_NOAA 18
#Satellite: NOAA 18
#Configuration: NOAA 18
#Start time: 2025-01-30 16:16:40.637757

#LorettStation: 1.0.0 05.05.2024
#Station: LEX_Murmansk
#Location: 33.156738 lon 68.926811 lat
#TLE: 1 28654U 05018A   25030.16946896  .00000398  00000+0  23471-3 0  9997
#TLE: 2 28654  98.8542 111.0717 0014961 137.5822 222.6509 14.13501465 15327

#Time	Az	El	Level	SNR
2025-01-30 16:16:52.799980	77.3	16.0	-91.1	10.9
2025-01-30 16:16:53.928655	77.1	16.1	-91.7	5.9
2025-01-30 16:16:55.076947	77.0	16.2	-91.5	8.0
2025-01-30 16:16:56.224313	76.8	16.3	-91.6	8.1
2025-01-30 16:16:57.362732	76.7	16.4	-91.3	11.1
2025-01-30 16:16:58.510177	76.5	16.5	-91.5	14.0
2025-01-30 16:16:59.651744	76.4	16.6	-91.3	12.1
2025-01-30 16:17:00.800355	76.2	16.7	-91.6	13.9
2025-01-30 16:17:01.962033	76.0	16.8	-91.3	8.8
2025-01-30 16:17:03.116677	75.9	16.9	-91.1	13.8
2025-01-30 16:17:04.275481	75.7	17.0	-90.5	12.4
2025-01-30 16:17:05.435216	75.5	17.1	-90.6	14.5
2025-01-30 16:17:06.585657	75.4	17.2	-90.8	10.8
2025-01-30 16:17:07.741358	75.2	17.3	-90.8	11.5
2025-01-30 16:17:08.891521	75.0	17.4	-90.8	8.1
2025-01-30 16:17:10.041315	74.9	17.5	-90.4	5.8
2025-01-30 16:17:11.187639	74.7	17.6	-90.7	7.4
2025-01-30 16:17:12.337947	74.5	17.7	-90.6	8.4
2025-01-30 16:17:13.463086	74.4	17.8	-90.9	6.1
2025-01-30 16:17:14.611992	74.2	17.9	-90.8	15.1
2025-01-30 16:17:15.750977	74.0	18.0	-90.6	13.4
2025-01-30 16:17:16.874987	73.8	18.1	-90.5	11.5
2025-01-30 16:17:18.022881	73.7	18.2	-90.7	12.5
2025-01-30 16:17:19.161964	73.5	18.4	-90.1	12.2
2025-01-30 16:17:20.310355	73.3	18.5	-90.5	13.8
2025-01-30 16:17:21.453230	73.1	18.6	-90.7	7.6
2025-01-30 16:17:22.604709	72.9	18.7	-90.5	10.7
2025-01-30 16:17:23.751596	72.7	18.8	-90.6	11.0
2025-01-30 16:17:24.905544	72.6	18.9	-90.5	12.9
2025-01-30 16:17:26.067878	72.4	19.0	-90.6	13.4
2025-01-30 16:17:27.219749	72.2	19.1	-90.6	11.6
2025-01-30 16:17:28.373473	72.0	19.2	-90.6	10.6
2025-01-30 16:17:29.523966	71.8	19.3	-91.3	9.4
2025-01-30 16:17:30.648858	71.6	19.4	-91.4	13.4
2025-01-30 16:17:31.788677	71.4	19.5	-91.4	11.8
2025-01-30 16:17:32.924143	71.2	19.6	-91.9	6.6
2025-01-30 16:17:34.069453	71.0	19.7	-91.6	11.3
2025-01-30 16:17:35.218043	70.8	19.8	-91.7	14.5
2025-01-30 16:17:36.372324	70.6	19.9	-92.1	14.0
2025-01-30 16:17:37.519418	70.4	20.0	-91.8	13.6
2025-01-30 16:17:38.657829	70.2	20.1	-91.7	12.3
2025-01-30 16:17:39.809415	70.0	20.2	-92.0	13.6
2025-01-30 16:17:40.972349	69.8	20.3	-91.8	11.0
2025-01-30 16:17:42.118710	69.6	20.4	-91.6	12.6
2025-01-30 16:17:43.272513	69.4	20.5	-91.6	14.7
2025-01-30 16:17:44.421584	69.2	20.6	-91.4	11.8
2025-01-30 16:17:45.581026	69.0	20.7	-91.6	15.6
2025-01-30 16:17:46.732881	68.8	20.8	-91.5	14.3
2025-01-30 16:17:47.888439	68.6	20.9	-91.5	13.6
2025-01-30 16:17:49.042705	68.4	21.0	-91.7	11.9
2025-01-30 16:17:50.200651	68.1	21.2	-91.6	13.8
2025-01-30 16:17:51.351351	67.9	21.3	-91.9	7.5
2025-01-30 16:17:52.508831	67.7	21.4	-91.4	6.7
2025-01-30 16:17:53.667245	67.5	21.5	-91.1	12.2
2025-01-30 16:17:54.817609	67.3	21.6	-91.0	13.4
2025-01-30 16:17:55.974500	67.0	21.7	-91.1	11.2
2025-01-30 16:17:57.103424	66.8	21.8	-91.0	14.8
2025-01-30 16:17:58.264080	66.6	21.9	-91.2	15.7
2025-01-30 16:17:59.412477	66.4	22.0	-91.6	18.7
2025-01-30 16:18:00.554643	66.1	22.1	-91.3	15.1
2025-01-30 16:18:01.700235	65.9	22.2	-91.4	14.9
2025-01-30 16:18:02.847165	65.7	22.3	-91.5	12.8
2025-01-30 16:18:03.998044	65.4	22.4	-91.3	10.9
2025-01-30 16:18:05.158542	65.2	22.5	-91.1	10.9
2025-01-30 16:18:06.310230	65.0	22.6	-91.6	13.6
2025-01-30 16:18:07.461179	64.7	22.7	-91.5	14.7
2025-01-30 16:18:08.613314	64.5	22.8	-91.7	16.1
2025-01-30 16:18:09.767917	64.2	22.9	-91.6	14.0
2025-01-30 16:18:10.921026	64.0	23.0	-91.7	12.7
2025-01-30 16:18:12.072841	63.7	23.1	-91.3	10.3
2025-01-30 16:18:13.232803	63.5	23.2	-91.5	13.0
2025-01-30 16:18:14.396559	63.2	23.3	-91.2	6.8
2025-01-30 16:18:15.546596	63.0	23.4	-90.7	5.9
2025-01-30 16:18:16.688854	62.7	23.5	-91.6	12.0
2025-01-30 16:18:17.843202	62.5	23.6	-91.4	9.6
2025-01-30 16:18:18.991732	62.2	23.7	-91.2	11.1
2025-01-30 16:18:20.138472	62.0	23.8	-91.2	11.8
2025-01-30 16:18:21.292100	61.7	23.9	-91.3	12.9
2025-01-30 16:18:22.448878	61.5	24.0	-90.9	11.6
2025-01-30 16:18:23.602594	61.2	24.2	-91.6	11.2
2025-01-30 16:18:24.753529	60.9	24.3	-92.1	10.2
2025-01-30 16:18:25.883961	60.7	24.3	-91.8	9.2
2025-01-30 16:18:27.020004	60.4	24.4	-91.7	6.8
2025-01-30 16:18:28.165270	60.1	24.5	-91.3	10.7
2025-01-30 16:18:29.312597	59.9	24.6	-90.8	9.9
2025-01-30 16:18:30.463091	59.6	24.7	-90.9	10.0
2025-01-30 16:18:31.610201	59.3	24.8	-90.4	12.2
2025-01-30 16:18:32.762989	59.0	24.9	-90.4	11.4
2025-01-30 16:18:33.910189	58.8	25.0	-91.7	11.0
2025-01-30 16:18:35.060662	58.5	25.1	-91.2	9.2
2025-01-30 16:18:36.212177	58.2	25.2	-91.5	14.9
2025-01-30 16:18:37.362349	57.9	25.3	-91.0	6.7
2025-01-30 16:18:38.519862	57.6	25.4	-90.8	6.8
2025-01-30 16:18:39.673384	57.3	25.5	-91.2	9.5
2025-01-30 16:18:40.827581	57.1	25.6	-91.3	5.5
2025-01-30 16:18:41.987555	56.8	25.7	-91.1	8.1
2025-01-30 16:18:43.153810	56.5	25.8	-91.1	8.0
2025-01-30 16:18:44.300816	56.2	25.9	-91.3	8.2
2025-01-30 16:18:45.462519	55.9	26.0	-91.4	9.1
2025-01-30 16:18:46.612069	55.6	26.1	-91.2	8.0
2025-01-30 16:18:47.771936	55.3	26.2	-91.3	8.4
2025-01-30 16:18:48.925856	55.0	26.3	-91.8	8.3
2025-01-30 16:18:50.082101	54.7	26.4	-91.4	6.6
2025-01-30 16:18:51.234768	54.4	26.5	-91.2	9.8
2025-01-30 16:18:52.385201	54.1	26.5	-91.5	8.9
2025-01-30 16:18:53.538878	53.8	26.6	-91.9	8.7
2025-01-30 16:18:54.692292	53.4	26.7	-91.5	8.4
2025-01-30 16:18:55.845171	53.1	26.8	-91.5	4.3
2025-01-30 16:18:56.998529	52.8	26.9	-91.7	5.5
2025-01-30 16:18:58.149791	52.5	27.0	-92.0	4.9
2025-01-30 16:18:59.293587	52.2	27.1	-91.8	4.9
2025-01-30 16:19:00.448240	51.9	27.2	-92.4	8.3
2025-01-30 16:19:01.597879	51.6	27.2	-91.8	6.3
2025-01-30 16:19:02.751743	51.2	27.3	-92.1	6.1
2025-01-30 16:19:03.901475	50.9	27.4	-92.1	6.7
2025-01-30 16:19:05.055714	50.6	27.5	-92.0	4.4
2025-01-30 16:19:06.214168	50.3	27.6	-91.9	5.6
2025-01-30 16:19:07.365726	49.9	27.7	-92.0	5.2
2025-01-30 16:19:08.523244	49.6	27.7	-92.3	6.5
2025-01-30 16:19:09.688286	49.3	27.8	-92.2	5.7
2025-01-30 16:19:10.835699	48.9	27.9	-91.7	6.8
2025-01-30 16:19:11.999932	48.6	28.0	-92.0	8.1
2025-01-30 16:19:13.155323	48.3	28.1	-91.7	5.4
2025-01-30 16:19:14.307140	47.9	28.1	-91.9	8.9
2025-01-30 16:19:15.461985	47.6	28.2	-92.0	10.0
2025-01-30 16:19:16.617209	47.2	28.3	-91.9	8.3
2025-01-30 16:19:17.775488	46.9	28.3	-91.9	10.5
2025-01-30 16:19:18.930205	46.5	28.4	-92.1	10.6
2025-01-30 16:19:20.086061	46.2	28.5	-92.2	6.8
2025-01-30 16:19:21.235808	45.8	28.6	-92.2	10.1
2025-01-30 16:19:22.394050	45.5	28.6	-91.8	6.3
2025-01-30 16:19:23.547579	45.1	28.7	-92.1	5.5
2025-01-30 16:19:24.703369	44.8	28.8	-92.1	11.0
2025-01-30 16:19:25.863366	44.4	28.8	-91.9	8.4
2025-01-30 16:19:27.010277	44.1	28.9	-92.2	9.0
2025-01-30 16:19:28.165801	43.7	29.0	-91.7	12.0
2025-01-30 16:19:29.319588	43.4	29.0	-91.9	12.0
2025-01-30 16:19:30.478127	43.0	29.1	-91.8	11.7
2025-01-30 16:19:31.631714	42.6	29.1	-92.0	9.7
2025-01-30 16:19:32.786237	42.3	29.2	-92.1	9.4
2025-01-30 16:19:33.943238	41.9	29.3	-90.7	8.1
2025-01-30 16:19:35.103632	41.6	29.3	-90.6	7.7
2025-01-30 16:19:36.267243	41.2	29.4	-90.6	10.7
2025-01-30 16:19:37.424294	40.8	29.4	-90.7	10.3
2025-01-30 16:19:38.576492	40.4	29.5	-91.6	8.3
2025-01-30 16:19:39.726941	40.1	29.5	-91.8	12.1
2025-01-30 16:19:40.881368	39.7	29.6	-91.9	6.4
2025-01-30 16:19:42.033992	39.3	29.6	-92.1	5.9
2025-01-30 16:19:43.184839	39.0	29.7	-91.9	11.4
2025-01-30 16:19:44.344354	38.6	29.7	-91.9	7.0
2025-01-30 16:19:45.500488	38.2	29.8	-92.2	6.3
2025-01-30 16:19:46.657782	37.8	29.8	-92.0	14.1
2025-01-30 16:19:47.811035	37.4	29.9	-91.8	10.6
2025-01-30 16:19:48.965147	37.1	29.9	-92.0	10.9
2025-01-30 16:19:50.127203	36.7	29.9	-91.9	16.8
2025-01-30 16:19:51.283177	36.3	30.0	-91.8	16.2
2025-01-30 16:19:52.432906	35.9	30.0	-92.3	16.0
2025-01-30 16:19:53.591307	35.5	30.1	-92.1	17.0
2025-01-30 16:19:54.743920	35.2	30.1	-92.1	13.5
2025-01-30 16:19:55.899137	34.8	30.1	-91.6	14.5
2025-01-30 16:19:57.055564	34.4	30.2	-91.8	8.3
2025-01-30 16:19:58.212300	34.0	30.2	-91.8	15.1
2025-01-30 16:19:59.362461	33.6	30.2	-91.8	8.9
2025-01-30 16:20:00.520217	33.2	30.2	-92.0	10.1
2025-01-30 16:20:01.672170	32.8	30.3	-92.0	16.0
2025-01-30 16:20:02.830956	32.4	30.3	-92.0	11.1
2025-01-30 16:20:03.989376	32.1	30.3	-91.9	10.6
2025-01-30 16:20:05.142587	31.7	30.3	-92.1	11.7
2025-01-30 16:20:06.302821	31.3	30.4	-92.2	11.2
2025-01-30 16:20:07.459315	30.9	30.4	-92.0	9.1
2025-01-30 16:20:08.615319	30.5	30.4	-91.7	12.3
2025-01-30 16:20:09.769977	30.1	30.4	-91.1	15.1
2025-01-30 16:20:10.924402	29.7	30.4	-91.1	7.7
2025-01-30 16:20:12.076217	29.3	30.4	-90.7	10.0
2025-01-30 16:20:13.226586	28.9	30.4	-91.1	8.6
2025-01-30 16:20:14.382680	28.5	30.5	-91.2	7.8
2025-01-30 16:20:15.537701	28.1	30.5	-91.1	8.0
2025-01-30 16:20:16.696668	27.7	30.5	-90.9	5.0
2025-01-30 16:20:17.850671	27.3	30.5	-91.1	10.6
2025-01-30 16:20:19.003720	27.0	30.5	-91.1	9.2
2025-01-30 16:20:20.162081	26.6	30.5	-90.8	12.6
2025-01-30 16:20:21.312484	26.2	30.5	-90.6	12.0
2025-01-30 16:20:22.464331	25.8	30.5	-91.0	12.5
2025-01-30 16:20:23.625029	25.4	30.5	-90.9	14.2
2025-01-30 16:20:24.782169	25.0	30.5	-91.2	8.4
2025-01-30 16:20:25.938112	24.6	30.5	-90.9	5.7
2025-01-30 16:20:27.100114	24.2	30.5	-90.6	5.7
2025-01-30 16:20:28.250248	23.8	30.4	-92.0	11.0
2025-01-30 16:20:29.389421	23.4	30.4	-92.0	12.5
2025-01-30 16:20:30.544957	23.0	30.4	-91.8	9.7
2025-01-30 16:20:31.696491	22.6	30.4	-91.9	12.1
2025-01-30 16:20:32.858782	22.2	30.4	-91.9	9.8
2025-01-30 16:20:34.015479	21.8	30.4	-91.8	9.7
2025-01-30 16:20:35.172109	21.5	30.4	-91.9	9.8
2025-01-30 16:20:36.332275	21.1	30.3	-91.9	7.2
2025-01-30 16:20:37.481034	20.7	30.3	-92.0	9.2
2025-01-30 16:20:38.629303	20.3	30.3	-91.8	10.0
2025-01-30 16:20:39.784388	19.9	30.3	-92.0	13.5
2025-01-30 16:20:40.941786	19.5	30.2	-92.1	7.0
2025-01-30 16:20:42.097262	19.1	30.2	-91.7	11.8
2025-01-30 16:20:43.250314	18.7	30.2	-91.9	14.2
2025-01-30 16:20:44.406084	18.3	30.2	-92.3	8.5
2025-01-30 16:20:45.556309	18.0	30.1	-91.9	8.1
2025-01-30 16:20:46.718526	17.6	30.1	-92.1	13.5
2025-01-30 16:20:47.871626	17.2	30.1	-91.8	7.5
2025-01-30 16:20:49.019451	16.8	30.0	-91.8	5.9
2025-01-30 16:20:50.174517	16.4	30.0	-92.2	7.5
2025-01-30 16:20:51.323160	16.0	30.0	-92.0	11.8
2025-01-30 16:20:52.475154	15.7	29.9	-92.0	7.2
2025-01-30 16:20:53.626215	15.3	29.9	-91.9	12.3
2025-01-30 16:20:54.778434	14.9	29.8	-92.1	11.7
2025-01-30 16:20:55.930586	14.5	29.8	-91.9	9.2
2025-01-30 16:20:57.083678	14.2	29.7	-91.9	14.1
2025-01-30 16:20:58.212640	13.8	29.7	-91.7	16.8
2025-01-30 16:20:59.332639	13.4	29.7	-91.8	8.2
2025-01-30 16:21:00.453929	13.1	29.6	-91.9	6.6
2025-01-30 16:21:01.575472	12.7	29.6	-92.0	9.1
2025-01-30 16:21:02.696079	12.3	29.5	-91.9	9.9
2025-01-30 16:21:03.818300	12.0	29.5	-91.7	3.6
2025-01-30 16:21:04.939348	11.6	29.4	-91.8	6.5
2025-01-30 16:21:06.059532	11.3	29.4	-91.9	8.2
2025-01-30 16:21:07.179599	10.9	29.3	-91.8	8.1
2025-01-30 16:21:08.299247	10.6	29.2	-91.9	10.8
2025-01-30 16:21:09.438752	10.2	29.2	-92.1	4.8
2025-01-30 16:21:10.583462	9.8	29.1	-92.0	7.6
2025-01-30 16:21:11.744177	9.5	29.1	-92.0	6.4
2025-01-30 16:21:12.896692	9.1	29.0	-92.0	4.1
2025-01-30 16:21:14.039965	8.8	28.9	-92.0	6.1
2025-01-30 16:21:15.196811	8.4	28.9	-91.9	8.4
2025-01-30 16:21:16.345990	8.0	28.8	-91.1	4.5
2025-01-30 16:21:17.499961	7.7	28.7	-91.4	6.8
2025-01-30 16:21:18.645991	7.3	28.7	-92.0	11.8
2025-01-30 16:21:19.800132	7.0	28.6	-92.1	11.8
2025-01-30 16:21:20.957699	6.6	28.5	-92.4	5.9
2025-01-30 16:21:22.104026	6.3	28.5	-92.0	7.6
2025-01-30 16:21:23.269728	5.9	28.4	-92.2	13.5
2025-01-30 16:21:24.420707	5.6	28.3	-91.9	6.5
2025-01-30 16:21:25.573240	5.3	28.3	-91.4	9.4
2025-01-30 16:21:26.729339	4.9	28.2	-92.1	9.0
2025-01-30 16:21:27.892182	4.6	28.1	-91.0	6.4
2025-01-30 16:21:29.043261	4.2	28.0	-91.3	5.7
2025-01-30 16:21:30.175280	3.9	28.0	-90.9	8.4
2025-01-30 16:21:31.310770	3.6	27.9	-91.0	7.8
2025-01-30 16:21:32.449558	3.2	27.8	-91.6	7.6
2025-01-30 16:21:33.591784	2.9	27.7	-92.0	8.6
2025-01-30 16:21:34.736480	2.6	27.6	-91.5	11.0
2025-01-30 16:21:35.890653	2.3	27.6	-92.0	6.5
2025-01-30 16:21:37.043444	1.9	27.5	-92.0	5.4
2025-01-30 16:21:38.189892	1.6	27.4	-91.8	13.1
2025-01-30 16:21:39.345459	1.3	27.3	-92.0	10.4
2025-01-30 16:21:40.488862	1.0	27.2	-90.9	10.4
2025-01-30 16:21:41.636380	0.6	27.1	-90.9	13.1
2025-01-30 16:21:42.790106	0.3	27.1	-91.3	10.3
2025-01-30 16:21:43.946185	0.0	27.0	-91.2	9.2
2025-01-30 16:21:45.102070	359.7	26.9	-91.1	11.4
2025-01-30 16:21:46.273716	359.4	26.8	-91.0	9.5
2025-01-30 16:21:47.429939	359.1	26.7	-91.0	10.3
2025-01-30 16:21:48.580100	358.8	26.6	-91.5	15.0
2025-01-30 16:21:49.733293	358.4	26.5	-91.8	13.1
2025-01-30 16:21:50.888043	358.1	26.4	-91.9	13.0
2025-01-30 16:21:52.041639	357.8	26.3	-91.8	13.9
2025-01-30 16:21:53.190714	357.5	26.2	-91.8	15.2
2025-01-30 16:21:54.344244	357.2	26.2	-92.0	13.4
2025-01-30 16:21:55.514076	356.9	26.1	-92.0	16.0
2025-01-30 16:21:56.667098	356.6	26.0	-92.3	11.6
2025-01-30 16:21:57.826672	356.3	25.9	-92.1	18.3
2025-01-30 16:21:58.970648	356.0	25.8	-91.8	15.3
2025-01-30 16:22:00.124466	355.7	25.7	-91.9	15.2
2025-01-30 16:22:01.275306	355.5	25.6	-91.5	15.0
2025-01-30 16:22:02.424122	355.2	25.5	-92.2	15.1
2025-01-30 16:22:03.580031	354.9	25.4	-92.1	17.3
2025-01-30 16:22:04.731619	354.6	25.3	-92.2	18.2
2025-01-30 16:22:05.862763	354.3	25.2	-92.2	13.2
2025-01-30 16:22:06.983090	354.0	25.1	-92.3	12.4
2025-01-30 16:22:08.106370	353.8	25.0	-92.1	13.7
2025-01-30 16:22:09.226460	353.5	24.9	-91.9	13.8
2025-01-30 16:22:10.347721	353.2	24.8	-92.2	11.2
2025-01-30 16:22:11.468360	353.0	24.7	-92.2	10.4
2025-01-30 16:22:12.589528	352.7	24.6	-92.3	14.0
2025-01-30 16:22:13.710031	352.4	24.5	-90.8	15.6
2025-01-30 16:22:14.832879	352.2	24.4	-91.0	12.5
2025-01-30 16:22:15.959373	351.9	24.3	-91.1	8.8
2025-01-30 16:22:17.094546	351.6	24.2	-90.8	9.4
2025-01-30 16:22:18.249972	351.4	24.1	-90.9	12.5
2025-01-30 16:22:19.400009	351.1	24.0	-90.8	7.7
2025-01-30 16:22:20.554053	350.9	23.9	-92.1	7.2
2025-01-30 16:22:21.705002	350.6	23.8	-91.9	14.2
2025-01-30 16:22:22.863381	350.3	23.7	-92.2	7.3
2025-01-30 16:22:24.018891	350.1	23.6	-92.3	10.8
2025-01-30 16:22:25.176851	349.8	23.5	-91.9	14.7
2025-01-30 16:22:26.325115	349.6	23.4	-92.1	13.9
2025-01-30 16:22:27.472020	349.3	23.3	-91.9	11.3
2025-01-30 16:22:28.636895	349.1	23.2	-91.8	15.5
2025-01-30 16:22:29.803546	348.8	23.1	-92.0	13.3
2025-01-30 16:22:30.957906	348.6	23.0	-91.8	17.1
2025-01-30 16:22:32.106305	348.3	22.9	-91.9	10.2
2025-01-30 16:22:33.264979	348.1	22.8	-92.0	15.6
2025-01-30 16:22:34.422496	347.8	22.7	-91.9	17.0
2025-01-30 16:22:35.579778	347.6	22.6	-92.4	14.4
2025-01-30 16:22:36.740819	347.4	22.5	-92.1	10.9
2025-01-30 16:22:37.896319	347.1	22.4	-91.9	13.8
2025-01-30 16:22:39.050525	346.9	22.3	-92.1	10.9
2025-01-30 16:22:40.202809	346.7	22.2	-91.9	12.3
2025-01-30 16:22:41.351326	346.4	22.1	-91.5	7.5
2025-01-30 16:22:42.505224	346.2	22.0	-91.8	6.8
2025-01-30 16:22:43.664395	346.0	21.9	-91.4	15.5
2025-01-30 16:22:44.820535	345.7	21.8	-91.8	13.9
2025-01-30 16:22:45.970986	345.5	21.7	-91.9	9.1
2025-01-30 16:22:47.122618	345.3	21.5	-91.8	7.6
2025-01-30 16:22:48.268240	345.1	21.4	-91.5	8.7
2025-01-30 16:22:49.426255	344.8	21.3	-91.9	7.2
2025-01-30 16:22:50.581475	344.6	21.2	-91.6	10.6
2025-01-30 16:22:51.734587	344.4	21.1	-92.0	6.5
2025-01-30 16:22:52.893101	344.2	21.0	-92.0	12.7
2025-01-30 16:22:54.048845	344.0	20.9	-91.7	16.1
2025-01-30 16:22:55.204959	343.8	20.8	-92.1	13.0
2025-01-30 16:22:56.364046	343.6	20.7	-91.8	9.3
2025-01-30 16:22:57.515752	343.3	20.6	-91.9	9.0
2025-01-30 16:22:58.674833	343.1	20.5	-91.7	8.5
2025-01-30 16:22:59.830575	342.9	20.4	-91.8	9.8
2025-01-30 16:23:00.982493	342.7	20.3	-91.6	6.9
2025-01-30 16:23:02.132060	342.5	20.2	-91.7	6.0
2025-01-30 16:23:03.279317	342.3	20.1	-91.6	3.7
2025-01-30 16:23:04.429927	342.1	20.0	-91.8	4.3
2025-01-30 16:23:05.583174	341.9	19.9	-91.7	5.9
2025-01-30 16:23:06.735389	341.7	19.8	-91.3	5.0
2025-01-30 16:23:07.894921	341.5	19.7	-90.9	5.6
2025-01-30 16:23:09.052907	341.3	19.6	-91.2	4.3
2025-01-30 16:23:10.197503	341.1	19.4	-91.3	5.2
2025-01-30 16:23:11.339964	340.9	19.3	-90.8	5.3
2025-01-30 16:23:12.461996	340.7	19.2	-91.2	5.3
2025-01-30 16:23:13.584076	340.6	19.1	-90.8	8.5
2025-01-30 16:23:14.704269	340.4	19.0	-91.9	9.9
2025-01-30 16:23:15.825787	340.2	18.9	-91.9	5.1
2025-01-30 16:23:16.945763	340.0	18.8	-91.9	5.1
2025-01-30 16:23:18.066209	339.8	18.7	-92.1	4.6
2025-01-30 16:23:19.187035	339.6	18.6	-91.4	11.1
2025-01-30 16:23:20.307749	339.5	18.5	-91.7	7.3
2025-01-30 16:23:21.428689	339.3	18.4	-92.0	6.2
2025-01-30 16:23:22.549512	339.1	18.3	-91.6	9.5
2025-01-30 16:23:23.695663	338.9	18.2	-92.0	10.3
2025-01-30 16:23:24.855939	338.7	18.1	-91.9	12.5
2025-01-30 16:23:26.009323	338.6	18.0	-92.0	10.5
2025-01-30 16:23:27.164425	338.4	17.9	-91.9	8.1
2025-01-30 16:23:28.308748	338.2	17.8	-92.1	7.1
2025-01-30 16:23:29.460887	338.0	17.7	-91.9	8.4
2025-01-30 16:23:30.614681	337.9	17.6	-92.1	9.5
2025-01-30 16:23:31.769316	337.7	17.5	-91.8	5.7
2025-01-30 16:23:32.919674	337.5	17.4	-92.2	5.4
2025-01-30 16:23:34.065898	337.4	17.3	-92.0	7.2
2025-01-30 16:23:35.218345	337.2	17.2	-92.2	9.6
2025-01-30 16:23:36.371582	337.0	17.1	-91.9	4.7
2025-01-30 16:23:37.521485	336.9	17.0	-92.1	5.5
2025-01-30 16:23:38.672359	336.7	16.9	-91.9	3.9
2025-01-30 16:23:39.831043	336.5	16.8	-92.4	6.4
2025-01-30 16:23:40.984865	336.4	16.7	-92.1	3.9
2025-01-30 16:23:42.142352	336.2	16.6	-92.1	7.7
2025-01-30 16:23:43.292711	336.0	16.5	-92.0	2.7
2025-01-30 16:23:44.453471	335.9	16.4	-92.4	4.7
2025-01-30 16:23:45.608241	335.7	16.3	-92.2	7.7
2025-01-30 16:23:46.758969	335.6	16.2	-92.3	8.6
2025-01-30 16:23:47.912495	335.4	16.1	-92.2	6.4
2025-01-30 16:23:49.065714	335.3	16.0	-92.0	6.6
2025-01-30 16:23:50.223264	335.1	15.9	-91.9	5.9
2025-01-30 16:23:51.377297	335.0	15.8	-92.1	2.8
2025-01-30 16:23:52.530464	334.8	15.7	-92.1	8.2
2025-01-30 16:23:53.685884	334.7	15.6	-92.1	5.9
2025-01-30 16:23:54.849330	334.5	15.5	-91.8	4.4
2025-01-30 16:23:56.017867	334.3	15.4	-91.9	5.1
2025-01-30 16:23:57.178487	334.2	15.3	-92.3	5.0
2025-01-30 16:23:58.335637	334.1	15.2	-92.0	8.8
2025-01-30 16:23:59.482051	333.9	15.1	-92.4	9.5
2025-01-30 16:24:00.631613	333.8	15.0	-92.2	9.8
2025-01-30 16:24:01.784875	333.6	14.9	-92.3	8.6
2025-01-30 16:24:02.924627	333.5	14.8	-91.8	8.3
2025-01-30 16:24:04.045701	333.3	14.7	-92.0	5.7
2025-01-30 16:24:05.165668	333.2	14.6	-92.0	7.0
2025-01-30 16:24:06.286315	333.1	14.5	-92.0	6.0
#Closed at: 2025-01-30 16:16:45.616688