passes_logs/2025/01/30/LEX_Murmansk/LEX_Murmansk__20250130_125759_NOAA_18_rec.log

#Pass ID: 20250130_125759_NOAA 18
#Satellite: NOAA 18
#Configuration: NOAA 18
#Start time: 2025-01-30 12:57:54.086375

#LorettStation: 1.0.0 05.05.2024
#Station: LEX_Murmansk
#Location: 33.156738 lon 68.926811 lat
#TLE: 1 28654U 05018A   25029.10768076  .00000445  00000+0  25948-3 0  9995
#TLE: 2 28654  98.8544 110.0207 0014928 140.4380 219.7885 14.13500636 15173

#Time	Az	El	Level	SNR
2025-01-30 12:58:06.195337	25.8	16.0	-89.4	3.7
2025-01-30 12:58:07.343607	25.7	16.1	-89.7	6.4
2025-01-30 12:58:08.491359	25.5	16.2	-89.7	5.4
2025-01-30 12:58:09.635580	25.4	16.3	-89.8	4.9
2025-01-30 12:58:10.783181	25.2	16.4	-89.8	5.6
2025-01-30 12:58:11.937958	25.0	16.5	-89.6	4.4
2025-01-30 12:58:13.084162	24.8	16.6	-89.6	4.6
2025-01-30 12:58:14.232671	24.7	16.7	-89.5	5.0
2025-01-30 12:58:15.382297	24.5	16.8	-89.9	6.7
2025-01-30 12:58:16.526888	24.3	16.8	-89.7	6.6
2025-01-30 12:58:17.672545	24.2	16.9	-89.7	5.9
2025-01-30 12:58:18.827979	24.0	17.0	-89.9	8.7
2025-01-30 12:58:19.971904	23.8	17.1	-89.6	3.3
2025-01-30 12:58:21.123127	23.6	17.2	-89.5	4.9
2025-01-30 12:58:22.277898	23.5	17.3	-89.6	6.6
2025-01-30 12:58:23.424428	23.3	17.4	-89.7	4.8
2025-01-30 12:58:24.573340	23.1	17.5	-90.0	6.7
2025-01-30 12:58:25.720980	22.9	17.6	-89.9	8.8
2025-01-30 12:58:26.876167	22.7	17.7	-89.6	4.8
2025-01-30 12:58:28.029007	22.5	17.8	-89.1	6.8
2025-01-30 12:58:29.188577	22.4	17.9	-89.1	9.1
2025-01-30 12:58:30.333233	22.2	18.0	-88.7	6.6
2025-01-30 12:58:31.483298	22.0	18.1	-89.0	5.1
2025-01-30 12:58:32.631296	21.8	18.2	-89.0	7.3
2025-01-30 12:58:33.777410	21.6	18.3	-88.8	8.5
2025-01-30 12:58:34.925987	21.4	18.4	-89.0	7.2
2025-01-30 12:58:36.072899	21.2	18.5	-89.1	6.7
2025-01-30 12:58:37.228107	21.0	18.6	-89.0	11.2
2025-01-30 12:58:38.375713	20.8	18.7	-89.1	5.8
2025-01-30 12:58:39.524493	20.6	18.8	-89.0	6.5
2025-01-30 12:58:40.682103	20.4	18.9	-88.8	8.4
2025-01-30 12:58:41.827386	20.2	19.0	-88.8	9.8
2025-01-30 12:58:42.978081	20.0	19.1	-89.2	7.2
2025-01-30 12:58:44.132627	19.8	19.2	-88.9	8.5
2025-01-30 12:58:45.290888	19.6	19.3	-89.0	5.2
2025-01-30 12:58:46.439216	19.4	19.4	-88.9	7.4
2025-01-30 12:58:47.595627	19.2	19.5	-88.7	7.6
2025-01-30 12:58:48.745294	19.0	19.6	-89.0	9.5
2025-01-30 12:58:49.894473	18.8	19.7	-89.2	10.6
2025-01-30 12:58:51.046572	18.6	19.8	-88.8	10.1
2025-01-30 12:58:52.194576	18.4	19.9	-89.8	6.4
2025-01-30 12:58:53.345843	18.2	19.9	-89.6	8.4
2025-01-30 12:58:54.493268	18.0	20.0	-89.8	6.8
2025-01-30 12:58:55.649709	17.8	20.1	-90.0	6.9
2025-01-30 12:58:56.795847	17.5	20.2	-89.5	10.4
2025-01-30 12:58:57.942339	17.3	20.3	-89.2	8.3
2025-01-30 12:58:59.099292	17.1	20.4	-89.2	7.1
2025-01-30 12:59:00.246835	16.9	20.5	-89.1	8.4
2025-01-30 12:59:01.400758	16.7	20.6	-89.0	5.1
2025-01-30 12:59:02.548208	16.4	20.7	-89.1	5.4
2025-01-30 12:59:03.696686	16.2	20.8	-88.5	7.9
2025-01-30 12:59:04.843516	16.0	20.9	-89.3	6.2
2025-01-30 12:59:05.987056	15.8	21.0	-89.7	7.1
2025-01-30 12:59:07.136513	15.5	21.1	-89.9	5.9
2025-01-30 12:59:08.287983	15.3	21.2	-89.7	7.8
2025-01-30 12:59:09.442935	15.1	21.3	-89.7	9.8
2025-01-30 12:59:10.588930	14.8	21.4	-89.8	9.3
2025-01-30 12:59:11.744962	14.6	21.5	-90.0	10.3
2025-01-30 12:59:12.903661	14.4	21.6	-89.1	5.2
2025-01-30 12:59:14.048317	14.1	21.7	-89.9	6.2
2025-01-30 12:59:15.194159	13.9	21.8	-89.9	9.3
2025-01-30 12:59:16.351056	13.6	21.9	-90.0	9.1
2025-01-30 12:59:17.498360	13.4	22.0	-89.9	10.9
2025-01-30 12:59:18.646814	13.2	22.1	-90.0	10.9
2025-01-30 12:59:19.795037	12.9	22.2	-90.0	14.1
2025-01-30 12:59:20.945377	12.7	22.3	-89.9	12.7
2025-01-30 12:59:22.095123	12.4	22.3	-90.0	7.9
2025-01-30 12:59:23.240516	12.2	22.4	-89.6	10.9
2025-01-30 12:59:24.388409	11.9	22.5	-89.8	6.4
2025-01-30 12:59:25.540907	11.7	22.6	-89.8	7.7
2025-01-30 12:59:26.697852	11.4	22.7	-89.9	9.6
2025-01-30 12:59:27.846799	11.2	22.8	-90.0	9.5
2025-01-30 12:59:28.993992	10.9	22.9	-90.2	6.2
2025-01-30 12:59:30.148104	10.6	23.0	-89.8	12.5
2025-01-30 12:59:31.297108	10.4	23.1	-90.1	13.5
2025-01-30 12:59:32.453248	10.1	23.2	-89.9	14.4
2025-01-30 12:59:33.603002	9.9	23.3	-90.1	11.6
2025-01-30 12:59:34.749751	9.6	23.4	-90.2	14.1
2025-01-30 12:59:35.897390	9.3	23.4	-89.8	9.3
2025-01-30 12:59:37.051487	9.1	23.5	-89.9	10.5
2025-01-30 12:59:38.199777	8.8	23.6	-89.9	10.0
2025-01-30 12:59:39.340065	8.5	23.7	-89.6	9.7
2025-01-30 12:59:40.499780	8.2	23.8	-89.7	10.4
2025-01-30 12:59:41.656190	8.0	23.9	-90.1	14.6
2025-01-30 12:59:42.810106	7.7	24.0	-89.1	11.9
2025-01-30 12:59:43.960810	7.4	24.1	-89.2	11.1
2025-01-30 12:59:45.114175	7.1	24.2	-90.0	11.8
2025-01-30 12:59:46.262955	6.9	24.2	-89.2	8.0
2025-01-30 12:59:47.412341	6.6	24.3	-89.0	7.4
2025-01-30 12:59:48.563089	6.3	24.4	-89.2	5.9
2025-01-30 12:59:49.709880	6.0	24.5	-90.0	12.7
2025-01-30 12:59:50.857466	5.7	24.6	-89.0	7.7
2025-01-30 12:59:52.016528	5.4	24.7	-89.3	5.6
2025-01-30 12:59:53.164949	5.1	24.8	-89.8	10.6
2025-01-30 12:59:54.308876	4.8	24.8	-90.1	11.9
2025-01-30 12:59:55.457485	4.6	24.9	-90.1	8.6
2025-01-30 12:59:56.608767	4.3	25.0	-90.1	11.1
2025-01-30 12:59:57.760663	4.0	25.1	-90.2	11.3
2025-01-30 12:59:58.911330	3.7	25.2	-89.9	12.4
2025-01-30 13:00:00.061425	3.4	25.2	-90.3	12.6
2025-01-30 13:00:01.208537	3.1	25.3	-89.8	12.7
2025-01-30 13:00:02.353116	2.8	25.4	-89.9	12.6
2025-01-30 13:00:03.503138	2.5	25.5	-90.1	10.4
2025-01-30 13:00:04.651909	2.2	25.6	-89.9	12.5
2025-01-30 13:00:05.803668	1.8	25.6	-90.1	10.5
2025-01-30 13:00:06.960690	1.5	25.7	-89.9	8.5
2025-01-30 13:00:08.123895	1.2	25.8	-89.8	9.4
2025-01-30 13:00:09.289293	0.9	25.9	-89.7	10.6
2025-01-30 13:00:10.431532	0.6	25.9	-90.0	11.6
2025-01-30 13:00:11.573462	0.3	26.0	-89.8	9.8
2025-01-30 13:00:12.722591	360.0	26.1	-89.9	12.1
2025-01-30 13:00:13.868021	359.7	26.1	-90.1	12.2
2025-01-30 13:00:15.008190	359.3	26.2	-90.1	14.2
2025-01-30 13:00:16.157870	359.0	26.3	-90.0	12.0
2025-01-30 13:00:17.308218	358.7	26.4	-90.1	13.0
2025-01-30 13:00:18.455827	358.4	26.4	-89.8	7.5
2025-01-30 13:00:19.605517	358.1	26.5	-90.2	9.5
2025-01-30 13:00:20.760523	357.7	26.6	-90.0	11.9
2025-01-30 13:00:21.908836	357.4	26.6	-90.0	7.7
2025-01-30 13:00:23.061639	357.1	26.7	-90.3	5.1
2025-01-30 13:00:24.217393	356.7	26.8	-90.1	8.8
2025-01-30 13:00:25.362583	356.4	26.8	-89.8	6.5
2025-01-30 13:00:26.507649	356.1	26.9	-90.1	8.5
2025-01-30 13:00:27.628179	355.8	26.9	-90.1	10.9
2025-01-30 13:00:28.763885	355.4	27.0	-90.1	12.2
2025-01-30 13:00:29.916674	355.1	27.1	-90.1	10.6
2025-01-30 13:00:31.064080	354.7	27.1	-89.9	9.9
2025-01-30 13:00:32.215992	354.4	27.2	-89.9	11.9
2025-01-30 13:00:33.368415	354.1	27.2	-90.1	12.4
2025-01-30 13:00:34.512223	353.7	27.3	-90.2	12.2
2025-01-30 13:00:35.659261	353.4	27.3	-90.3	9.8
2025-01-30 13:00:36.807934	353.0	27.4	-90.3	9.6
2025-01-30 13:00:37.964968	352.7	27.4	-90.0	9.8
2025-01-30 13:00:39.111067	352.4	27.5	-89.8	7.3
2025-01-30 13:00:40.262041	352.0	27.5	-90.0	11.6
2025-01-30 13:00:41.419168	351.7	27.6	-90.5	6.0
2025-01-30 13:00:42.570678	351.3	27.6	-90.3	7.9
2025-01-30 13:00:43.724149	351.0	27.7	-90.3	10.9
2025-01-30 13:00:44.877473	350.6	27.7	-90.1	7.9
2025-01-30 13:00:46.031351	350.2	27.8	-90.3	9.9
2025-01-30 13:00:47.184080	349.9	27.8	-90.1	9.6
2025-01-30 13:00:48.340043	349.5	27.9	-90.2	11.5
2025-01-30 13:00:49.492321	349.2	27.9	-90.1	11.4
2025-01-30 13:00:50.640188	348.8	27.9	-90.3	10.3
2025-01-30 13:00:51.790031	348.5	28.0	-89.8	9.8
2025-01-30 13:00:52.938176	348.1	28.0	-90.3	9.3
2025-01-30 13:00:54.089640	347.8	28.1	-90.3	10.2
2025-01-30 13:00:55.240382	347.4	28.1	-90.1	9.1
2025-01-30 13:00:56.397691	347.0	28.1	-89.9	6.9
2025-01-30 13:00:57.549866	346.7	28.2	-90.4	5.2
2025-01-30 13:00:58.703875	346.3	28.2	-90.3	9.6
2025-01-30 13:00:59.858789	345.9	28.2	-90.2	6.4
2025-01-30 13:01:01.013463	345.6	28.3	-89.3	5.7
2025-01-30 13:01:02.161145	345.2	28.3	-89.3	4.4
2025-01-30 13:01:03.311738	344.9	28.3	-89.2	6.6
2025-01-30 13:01:04.467577	344.5	28.3	-89.8	5.9
2025-01-30 13:01:05.610992	344.1	28.4	-90.3	7.8
2025-01-30 13:01:06.764271	343.8	28.4	-90.4	5.9
2025-01-30 13:01:07.912959	343.4	28.4	-90.2	4.9
2025-01-30 13:01:09.066685	343.0	28.4	-90.0	2.8
2025-01-30 13:01:10.212585	342.7	28.4	-90.2	8.2
2025-01-30 13:01:11.365115	342.3	28.5	-90.3	8.1
2025-01-30 13:01:12.515396	341.9	28.5	-90.4	5.7
2025-01-30 13:01:13.663156	341.6	28.5	-90.1	8.6
2025-01-30 13:01:14.812920	341.2	28.5	-90.1	8.6
2025-01-30 13:01:15.961119	340.8	28.5	-90.4	10.0
2025-01-30 13:01:17.104557	340.4	28.5	-89.7	8.5
2025-01-30 13:01:18.257158	340.1	28.5	-90.2	11.5
2025-01-30 13:01:19.406554	339.7	28.5	-90.0	10.6
2025-01-30 13:01:20.558343	339.3	28.6	-90.3	12.7
2025-01-30 13:01:21.710672	339.0	28.6	-90.2	10.6
2025-01-30 13:01:22.869042	338.6	28.6	-90.5	11.6
2025-01-30 13:01:24.019964	338.2	28.6	-90.0	9.0
2025-01-30 13:01:25.169350	337.8	28.6	-90.2	9.3
2025-01-30 13:01:26.313488	337.5	28.6	-90.2	11.1
2025-01-30 13:01:27.463330	337.1	28.6	-90.1	8.8
2025-01-30 13:01:28.614973	336.7	28.6	-89.9	10.5
2025-01-30 13:01:29.770491	336.4	28.6	-90.0	10.9
2025-01-30 13:01:30.924982	336.0	28.6	-90.1	8.2
2025-01-30 13:01:32.078990	335.6	28.5	-90.3	7.1
2025-01-30 13:01:33.237083	335.2	28.5	-90.1	12.2
2025-01-30 13:01:34.390947	334.9	28.5	-90.2	7.4
2025-01-30 13:01:35.548768	334.5	28.5	-90.5	9.1
2025-01-30 13:01:36.701279	334.1	28.5	-90.1	11.8
2025-01-30 13:01:37.850937	333.8	28.5	-90.3	8.1
2025-01-30 13:01:39.001998	333.4	28.5	-90.4	7.7
2025-01-30 13:01:40.152620	333.0	28.5	-90.2	11.9
2025-01-30 13:01:41.299616	332.7	28.4	-90.3	12.7
2025-01-30 13:01:42.449585	332.3	28.4	-90.3	7.6
2025-01-30 13:01:43.597690	331.9	28.4	-90.1	8.4
2025-01-30 13:01:44.743501	331.6	28.4	-90.2	9.2
2025-01-30 13:01:45.892998	331.2	28.4	-89.9	7.6
2025-01-30 13:01:47.046712	330.8	28.3	-90.2	7.3
2025-01-30 13:01:48.200597	330.5	28.3	-90.1	6.9
2025-01-30 13:01:49.349519	330.1	28.3	-90.0	5.3
2025-01-30 13:01:50.508201	329.7	28.3	-90.1	7.3
2025-01-30 13:01:51.656747	329.4	28.2	-90.0	8.2
2025-01-30 13:01:52.814254	329.0	28.2	-90.2	9.3
2025-01-30 13:01:53.960869	328.6	28.2	-90.3	9.6
2025-01-30 13:01:55.116535	328.3	28.1	-90.4	8.4
2025-01-30 13:01:56.268048	327.9	28.1	-90.5	13.2
2025-01-30 13:01:57.415025	327.6	28.1	-90.1	5.7
2025-01-30 13:01:58.567211	327.2	28.0	-90.2	9.9
2025-01-30 13:01:59.713141	326.8	28.0	-90.2	10.5
2025-01-30 13:02:00.857889	326.5	28.0	-90.3	10.8
2025-01-30 13:02:02.014179	326.1	27.9	-90.1	10.4
2025-01-30 13:02:03.161904	325.8	27.9	-89.5	8.7
2025-01-30 13:02:04.309714	325.4	27.8	-89.4	12.1
2025-01-30 13:02:05.456020	325.1	27.8	-89.2	12.7
2025-01-30 13:02:06.604766	324.7	27.7	-89.3	12.1
2025-01-30 13:02:07.753207	324.4	27.7	-89.2	9.5
2025-01-30 13:02:08.898516	324.0	27.7	-89.3	9.8
2025-01-30 13:02:10.045909	323.7	27.6	-90.0	12.8
2025-01-30 13:02:11.190823	323.3	27.6	-90.1	10.8
2025-01-30 13:02:12.346915	323.0	27.5	-89.9	11.1
2025-01-30 13:02:13.492178	322.6	27.5	-90.3	15.4
2025-01-30 13:02:14.647820	322.3	27.4	-90.1	12.6
2025-01-30 13:02:15.793198	321.9	27.3	-90.3	11.7
2025-01-30 13:02:16.937974	321.6	27.3	-90.4	12.1
2025-01-30 13:02:18.084827	321.2	27.2	-90.1	11.4
2025-01-30 13:02:19.240307	320.9	27.2	-90.0	11.0
2025-01-30 13:02:20.392848	320.6	27.1	-89.8	13.6
2025-01-30 13:02:21.545221	320.2	27.1	-90.2	11.4
2025-01-30 13:02:22.695082	319.9	27.0	-90.4	12.4
2025-01-30 13:02:23.843805	319.6	26.9	-90.2	10.0
2025-01-30 13:02:24.989272	319.2	26.9	-90.3	9.2
2025-01-30 13:02:26.135235	318.9	26.8	-90.4	12.9
2025-01-30 13:02:27.283884	318.6	26.8	-89.9	14.8
2025-01-30 13:02:28.436069	318.2	26.7	-89.8	12.8
2025-01-30 13:02:29.587417	317.9	26.6	-90.4	11.5
2025-01-30 13:02:30.735712	317.6	26.6	-90.3	13.1
2025-01-30 13:02:31.889107	317.2	26.5	-90.2	8.9
2025-01-30 13:02:33.035648	316.9	26.4	-90.2	7.7
2025-01-30 13:02:34.189505	316.6	26.4	-90.0	11.7
2025-01-30 13:02:35.335992	316.3	26.3	-90.4	8.6
2025-01-30 13:02:36.488524	315.9	26.2	-90.5	9.1
2025-01-30 13:02:37.640737	315.6	26.2	-90.2	9.9
2025-01-30 13:02:38.790074	315.3	26.1	-89.9	12.1
2025-01-30 13:02:39.938397	315.0	26.0	-90.3	11.4
2025-01-30 13:02:41.087951	314.7	25.9	-90.2	11.6
2025-01-30 13:02:42.233708	314.4	25.9	-90.1	12.0
2025-01-30 13:02:43.385063	314.0	25.8	-90.2	10.3
2025-01-30 13:02:44.532748	313.7	25.7	-90.6	10.2
2025-01-30 13:02:45.680657	313.4	25.6	-90.3	13.5
2025-01-30 13:02:46.832730	313.1	25.6	-90.4	12.5
2025-01-30 13:02:47.983592	312.8	25.5	-90.3	10.6
2025-01-30 13:02:49.131409	312.5	25.4	-90.3	11.2
2025-01-30 13:02:50.280311	312.2	25.3	-90.3	12.5
2025-01-30 13:02:51.432203	311.9	25.2	-90.1	7.8
2025-01-30 13:02:52.589332	311.6	25.2	-90.2	9.0
2025-01-30 13:02:53.737303	311.3	25.1	-90.4	11.4
2025-01-30 13:02:54.886996	311.0	25.0	-90.3	8.7
2025-01-30 13:02:56.034404	310.7	24.9	-90.2	8.4
2025-01-30 13:02:57.186301	310.4	24.8	-89.9	12.0
2025-01-30 13:02:58.342629	310.1	24.8	-90.2	13.2
2025-01-30 13:02:59.497200	309.8	24.7	-90.0	7.2
2025-01-30 13:03:00.653321	309.5	24.6	-90.3	15.5
2025-01-30 13:03:01.807563	309.3	24.5	-90.4	10.0
2025-01-30 13:03:02.958288	309.0	24.4	-90.4	8.2
2025-01-30 13:03:04.114374	308.7	24.3	-90.0	5.9
2025-01-30 13:03:05.266895	308.4	24.2	-90.2	9.7
2025-01-30 13:03:06.413779	308.1	24.2	-90.2	5.8
2025-01-30 13:03:07.565556	307.8	24.1	-90.4	6.5
2025-01-30 13:03:08.716720	307.6	24.0	-90.4	15.2
2025-01-30 13:03:09.862172	307.3	23.9	-89.2	7.0
2025-01-30 13:03:11.016404	307.0	23.8	-89.1	8.1
2025-01-30 13:03:12.167076	306.7	23.7	-89.1	9.1
2025-01-30 13:03:13.321795	306.5	23.6	-89.4	8.5
2025-01-30 13:03:14.473007	306.2	23.5	-90.4	9.8
2025-01-30 13:03:15.623776	305.9	23.4	-90.4	6.8
2025-01-30 13:03:16.766592	305.6	23.4	-90.2	9.0
2025-01-30 13:03:17.914559	305.4	23.3	-90.6	8.9
2025-01-30 13:03:19.059478	305.1	23.2	-90.5	5.7
2025-01-30 13:03:20.211824	304.9	23.1	-90.2	8.8
2025-01-30 13:03:21.359217	304.6	23.0	-90.2	12.7
2025-01-30 13:03:22.504205	304.3	22.9	-90.5	13.8
2025-01-30 13:03:23.654922	304.1	22.8	-90.4	13.9
2025-01-30 13:03:24.804472	303.8	22.7	-90.4	11.0
2025-01-30 13:03:25.952836	303.6	22.6	-90.5	6.7
2025-01-30 13:03:27.106004	303.3	22.5	-90.4	9.5
2025-01-30 13:03:28.254329	303.1	22.4	-90.0	6.2
2025-01-30 13:03:29.403158	302.8	22.3	-90.3	6.8
2025-01-30 13:03:30.547892	302.6	22.2	-90.4	8.4
2025-01-30 13:03:31.700033	302.3	22.1	-90.4	9.6
2025-01-30 13:03:32.844984	302.1	22.1	-90.5	6.1
2025-01-30 13:03:34.001410	301.8	22.0	-90.5	6.5
2025-01-30 13:03:35.146299	301.6	21.9	-90.2	8.9
2025-01-30 13:03:36.293877	301.3	21.8	-89.6	6.4
2025-01-30 13:03:37.444095	301.1	21.7	-90.2	4.7
2025-01-30 13:03:38.592408	300.9	21.6	-90.2	5.9
2025-01-30 13:03:39.747370	300.6	21.5	-90.3	7.7
2025-01-30 13:03:40.900344	300.4	21.4	-90.5	7.1
2025-01-30 13:03:42.048391	300.1	21.3	-90.3	4.3
2025-01-30 13:03:43.199104	299.9	21.2	-90.1	5.6
2025-01-30 13:03:44.348319	299.7	21.1	-90.1	6.3
2025-01-30 13:03:45.498077	299.5	21.0	-90.1	6.9
2025-01-30 13:03:46.645314	299.2	20.9	-90.0	7.4
2025-01-30 13:03:47.799361	299.0	20.8	-90.1	6.6
2025-01-30 13:03:48.946663	298.8	20.7	-90.2	6.1
2025-01-30 13:03:50.095035	298.5	20.6	-90.2	6.6
2025-01-30 13:03:51.247809	298.3	20.5	-89.8	7.3
2025-01-30 13:03:52.394445	298.1	20.4	-90.1	5.5
2025-01-30 13:03:53.542433	297.9	20.3	-90.4	6.4
2025-01-30 13:03:54.695009	297.7	20.2	-90.0	6.9
2025-01-30 13:03:55.843579	297.4	20.1	-90.0	4.0
2025-01-30 13:03:56.987211	297.2	20.0	-90.2	5.8
2025-01-30 13:03:58.136599	297.0	19.9	-90.3	6.2
2025-01-30 13:03:59.291257	296.8	19.8	-89.9	7.8
2025-01-30 13:04:00.435371	296.6	19.7	-90.0	6.1
2025-01-30 13:04:01.582980	296.4	19.6	-90.2	7.6
2025-01-30 13:04:02.735785	296.2	19.5	-90.3	7.7
2025-01-30 13:04:03.891968	296.0	19.4	-90.4	4.3
2025-01-30 13:04:05.038551	295.8	19.3	-90.0	5.4
2025-01-30 13:04:06.187436	295.6	19.2	-90.1	3.0
2025-01-30 13:04:07.307787	295.4	19.2	-90.1	7.1
2025-01-30 13:04:08.428553	295.2	19.1	-89.9	4.4
2025-01-30 13:04:09.549581	295.0	19.0	-90.1	4.7
2025-01-30 13:04:10.670084	294.8	18.9	-90.1	8.4
2025-01-30 13:04:11.790629	294.6	18.8	-90.1	7.4
2025-01-30 13:04:12.911071	294.4	18.7	-90.2	4.9
2025-01-30 13:04:14.031415	294.2	18.6	-89.0	4.1
2025-01-30 13:04:15.154002	294.0	18.5	-89.2	10.6
2025-01-30 13:04:16.282145	293.8	18.4	-89.1	9.7
2025-01-30 13:04:17.423554	293.6	18.3	-89.4	9.7
2025-01-30 13:04:18.571598	293.4	18.2	-90.0	7.5
2025-01-30 13:04:19.721360	293.2	18.1	-90.1	6.7
2025-01-30 13:04:20.866971	293.0	18.0	-89.9	8.3
2025-01-30 13:04:22.012221	292.9	17.9	-89.4	7.9
2025-01-30 13:04:23.144127	292.7	17.8	-89.1	7.5
2025-01-30 13:04:24.277216	292.5	17.7	-89.1	4.6
2025-01-30 13:04:25.428187	292.3	17.6	-89.2	6.2
2025-01-30 13:04:26.571256	292.1	17.5	-88.9	7.4
2025-01-30 13:04:27.718383	291.9	17.4	-89.2	7.5
2025-01-30 13:04:28.862907	291.8	17.3	-89.4	6.2
2025-01-30 13:04:30.018556	291.6	17.2	-89.2	5.7
2025-01-30 13:04:31.172159	291.4	17.1	-90.1	10.8
2025-01-30 13:04:32.320075	291.2	17.0	-89.7	13.1
2025-01-30 13:04:33.472780	291.1	16.9	-90.2	9.0
2025-01-30 13:04:34.616543	290.9	16.8	-90.2	7.6
2025-01-30 13:04:35.766175	290.7	16.7	-89.7	8.3
2025-01-30 13:04:36.916880	290.5	16.6	-90.0	11.3
2025-01-30 13:04:38.067878	290.4	16.6	-89.8	7.4
2025-01-30 13:04:39.217587	290.2	16.5	-90.0	9.6
2025-01-30 13:04:40.367630	290.0	16.4	-89.7	10.2
2025-01-30 13:04:41.518906	289.9	16.3	-90.1	9.2
2025-01-30 13:04:42.665966	289.7	16.2	-90.3	9.5
2025-01-30 13:04:43.813894	289.5	16.1	-90.1	8.5
2025-01-30 13:04:44.959771	289.4	16.0	-90.2	6.0
2025-01-30 13:04:46.116989	289.2	15.9	-90.1	6.2
2025-01-30 13:04:47.260599	289.0	15.8	-90.1	8.5
2025-01-30 13:04:48.412652	288.9	15.7	-90.2	5.1
2025-01-30 13:04:49.562053	288.7	15.6	-89.7	5.6
2025-01-30 13:04:50.707766	288.6	15.5	-90.0	8.8
2025-01-30 13:04:51.859709	288.4	15.4	-90.2	8.3
2025-01-30 13:04:53.008630	288.2	15.3	-90.1	7.4
2025-01-30 13:04:54.164870	288.1	15.2	-89.9	9.8
2025-01-30 13:04:55.312538	287.9	15.1	-89.7	9.9
2025-01-30 13:04:56.458101	287.8	15.0	-90.1	7.5
2025-01-30 13:04:57.608875	287.6	14.9	-90.1	8.2
2025-01-30 13:04:58.755514	287.5	14.8	-90.3	8.4
2025-01-30 13:04:59.903807	287.3	14.8	-90.2	9.1
2025-01-30 13:05:01.059075	287.2	14.7	-90.3	7.2
#Closed at: 2025-01-30 12:57:59.002463