passes_logs/2025/01/30/LEX_Murmansk/LEX_Murmansk__20250130_123554_NOAA_19_rec.log

#Pass ID: 20250130_123554_NOAA 19
#Satellite: NOAA 19
#Configuration: NOAA 19
#Start time: 2025-01-30 12:35:49.756851

#LorettStation: 1.0.0 05.05.2024
#Station: LEX_Murmansk
#Location: 33.156738 lon 68.926811 lat
#TLE: 1 33591U 09005A   25029.16356990  .00000402  00000+0  23831-3 0  9997
#TLE: 2 33591  99.0170  93.0339 0013919  18.9524 341.2163 14.13271889823544

#Time	Az	El	Level	SNR
2025-01-30 12:36:01.944344	32.1	15.9	-89.5	1.8
2025-01-30 12:36:03.107805	31.9	16.0	-89.6	3.1
2025-01-30 12:36:04.259710	31.8	16.1	-89.4	1.7
2025-01-30 12:36:05.417556	31.6	16.2	-89.4	1.8
2025-01-30 12:36:06.563867	31.4	16.3	-89.3	2.7
2025-01-30 12:36:07.726539	31.2	16.4	-89.2	3.7
2025-01-30 12:36:08.873742	31.0	16.4	-89.5	2.1
2025-01-30 12:36:10.030122	30.9	16.5	-89.5	2.2
2025-01-30 12:36:11.185733	30.7	16.6	-89.5	3.4
2025-01-30 12:36:12.343431	30.5	16.7	-89.7	2.6
2025-01-30 12:36:13.498083	30.3	16.8	-89.7	3.4
2025-01-30 12:36:14.654939	30.1	16.9	-89.7	5.7
2025-01-30 12:36:15.811083	29.9	17.0	-89.7	6.0
2025-01-30 12:36:16.978862	29.7	17.1	-89.7	3.8
2025-01-30 12:36:18.128181	29.5	17.2	-89.7	2.8
2025-01-30 12:36:19.285382	29.3	17.2	-89.6	2.1
2025-01-30 12:36:20.440237	29.1	17.3	-89.2	1.3
2025-01-30 12:36:21.605013	28.9	17.4	-89.1	2.6
2025-01-30 12:36:22.754646	28.7	17.5	-89.6	2.5
2025-01-30 12:36:23.915262	28.5	17.6	-89.4	3.9
2025-01-30 12:36:25.080649	28.3	17.7	-89.4	4.3
2025-01-30 12:36:26.245182	28.1	17.8	-89.2	6.6
2025-01-30 12:36:27.392668	27.9	17.9	-89.5	8.2
2025-01-30 12:36:28.543439	27.7	17.9	-89.3	8.5
2025-01-30 12:36:29.690894	27.5	18.0	-89.3	6.9
2025-01-30 12:36:30.849012	27.3	18.1	-89.3	3.8
2025-01-30 12:36:32.003467	27.1	18.2	-89.4	1.2
2025-01-30 12:36:33.161753	26.9	18.3	-89.5	2.5
2025-01-30 12:36:34.320194	26.7	18.4	-89.2	4.3
2025-01-30 12:36:35.467541	26.5	18.5	-89.8	6.6
2025-01-30 12:36:36.630287	26.3	18.5	-89.6	4.2
2025-01-30 12:36:37.774537	26.1	18.6	-89.8	6.2
2025-01-30 12:36:38.923924	25.8	18.7	-90.0	9.1
2025-01-30 12:36:40.079501	25.6	18.8	-89.7	5.6
2025-01-30 12:36:41.242350	25.4	18.9	-89.8	3.5
2025-01-30 12:36:42.394197	25.2	19.0	-89.5	2.4
2025-01-30 12:36:43.554577	25.0	19.1	-89.8	3.8
2025-01-30 12:36:44.709940	24.7	19.1	-89.5	2.3
2025-01-30 12:36:45.871929	24.5	19.2	-89.3	2.4
2025-01-30 12:36:47.027864	24.3	19.3	-89.4	4.0
2025-01-30 12:36:48.184731	24.1	19.4	-89.6	4.2
2025-01-30 12:36:49.343628	23.8	19.5	-89.4	4.3
2025-01-30 12:36:50.504574	23.6	19.6	-89.3	5.6
2025-01-30 12:36:51.667991	23.4	19.7	-89.7	4.7
2025-01-30 12:36:52.826772	23.2	19.7	-89.5	7.3
2025-01-30 12:36:53.985100	22.9	19.8	-89.2	6.6
2025-01-30 12:36:55.146191	22.7	19.9	-89.0	7.8
2025-01-30 12:36:56.305402	22.5	20.0	-89.3	3.3
2025-01-30 12:36:57.458439	22.2	20.1	-89.4	6.0
2025-01-30 12:36:58.607277	22.0	20.2	-89.3	6.7
2025-01-30 12:36:59.770169	21.8	20.2	-89.5	6.2
2025-01-30 12:37:00.924143	21.5	20.3	-89.7	8.0
2025-01-30 12:37:02.077777	21.3	20.4	-89.6	8.2
2025-01-30 12:37:03.236974	21.0	20.5	-89.6	6.5
2025-01-30 12:37:04.388407	20.8	20.6	-89.5	2.6
2025-01-30 12:37:05.544631	20.5	20.7	-89.6	3.7
2025-01-30 12:37:06.706848	20.3	20.7	-89.6	3.5
2025-01-30 12:37:07.863937	20.1	20.8	-89.4	3.8
2025-01-30 12:37:09.014185	19.8	20.9	-89.5	4.1
2025-01-30 12:37:10.168220	19.6	21.0	-89.9	3.3
2025-01-30 12:37:11.323658	19.3	21.1	-89.8	3.5
2025-01-30 12:37:12.479899	19.1	21.1	-90.1	6.7
2025-01-30 12:37:13.632155	18.8	21.2	-89.6	6.4
2025-01-30 12:37:14.789195	18.6	21.3	-89.6	6.7
2025-01-30 12:37:15.944938	18.3	21.4	-89.8	10.0
2025-01-30 12:37:17.092752	18.0	21.5	-89.5	7.9
2025-01-30 12:37:18.254199	17.8	21.5	-89.5	5.4
2025-01-30 12:37:19.408984	17.5	21.6	-89.1	5.5
2025-01-30 12:37:20.569910	17.3	21.7	-89.3	7.7
2025-01-30 12:37:21.720630	17.0	21.8	-89.4	3.3
2025-01-30 12:37:22.882353	16.7	21.8	-89.4	5.6
2025-01-30 12:37:24.037624	16.5	21.9	-89.6	6.4
2025-01-30 12:37:25.198071	16.2	22.0	-89.3	6.7
2025-01-30 12:37:26.356556	15.9	22.1	-89.7	5.3
2025-01-30 12:37:27.520195	15.7	22.1	-89.6	5.6
2025-01-30 12:37:28.673154	15.4	22.2	-89.2	3.4
2025-01-30 12:37:29.828117	15.1	22.3	-89.7	5.8
2025-01-30 12:37:30.983053	14.9	22.4	-89.8	5.7
2025-01-30 12:37:32.140253	14.6	22.4	-90.0	5.1
2025-01-30 12:37:33.292691	14.3	22.5	-89.7	4.6
2025-01-30 12:37:34.459182	14.0	22.6	-89.9	4.1
2025-01-30 12:37:35.615519	13.7	22.6	-89.6	4.3
2025-01-30 12:37:36.780977	13.5	22.7	-89.4	5.3
2025-01-30 12:37:37.935389	13.2	22.8	-89.4	3.2
2025-01-30 12:37:39.087862	12.9	22.9	-89.4	6.7
2025-01-30 12:37:40.245770	12.6	22.9	-89.7	6.2
2025-01-30 12:37:41.415407	12.3	23.0	-89.7	8.9
2025-01-30 12:37:42.572191	12.1	23.1	-89.7	10.8
2025-01-30 12:37:43.730574	11.8	23.1	-89.6	12.6
2025-01-30 12:37:44.889895	11.5	23.2	-89.6	13.0
2025-01-30 12:37:46.049836	11.2	23.3	-89.7	10.7
2025-01-30 12:37:47.201062	10.9	23.3	-89.6	8.6
2025-01-30 12:37:48.352400	10.6	23.4	-89.7	6.2
2025-01-30 12:37:49.505941	10.3	23.5	-89.3	5.6
2025-01-30 12:37:50.668495	10.0	23.5	-89.3	5.1
2025-01-30 12:37:51.823557	9.7	23.6	-89.2	3.9
2025-01-30 12:37:52.975343	9.4	23.6	-89.8	6.6
2025-01-30 12:37:54.126932	9.1	23.7	-89.9	8.2
2025-01-30 12:37:55.287286	8.8	23.8	-89.6	7.1
2025-01-30 12:37:56.445842	8.5	23.8	-89.6	9.7
2025-01-30 12:37:57.605369	8.2	23.9	-89.6	11.4
2025-01-30 12:37:58.751784	7.9	23.9	-89.6	11.0
2025-01-30 12:37:59.915250	7.6	24.0	-89.6	6.1
2025-01-30 12:38:01.072610	7.3	24.0	-89.3	6.3
2025-01-30 12:38:02.229447	7.0	24.1	-89.7	3.3
2025-01-30 12:38:03.389251	6.7	24.2	-89.5	5.2
2025-01-30 12:38:04.549679	6.4	24.2	-89.6	3.9
2025-01-30 12:38:05.711174	6.1	24.3	-89.7	3.2
2025-01-30 12:38:06.879927	5.8	24.3	-89.9	1.9
2025-01-30 12:38:08.032207	5.5	24.4	-89.8	4.4
2025-01-30 12:38:09.182145	5.2	24.4	-89.3	5.6
2025-01-30 12:38:10.343153	4.9	24.5	-89.1	3.4
2025-01-30 12:38:11.505906	4.5	24.5	-89.5	4.5
2025-01-30 12:38:12.661930	4.2	24.6	-89.4	5.9
2025-01-30 12:38:13.825091	3.9	24.6	-89.5	6.5
2025-01-30 12:38:14.987186	3.6	24.7	-89.6	9.4
2025-01-30 12:38:16.148347	3.3	24.7	-89.5	10.4
2025-01-30 12:38:17.301808	3.0	24.8	-89.8	9.2
2025-01-30 12:38:18.455875	2.6	24.8	-89.5	10.1
2025-01-30 12:38:19.607988	2.3	24.8	-89.7	8.6
2025-01-30 12:38:20.760115	2.0	24.9	-89.2	9.8
2025-01-30 12:38:21.911525	1.7	24.9	-89.5	8.0
2025-01-30 12:38:23.065125	1.4	25.0	-89.6	6.9
2025-01-30 12:38:24.225044	1.0	25.0	-89.7	6.0
2025-01-30 12:38:25.382681	0.7	25.0	-89.6	6.2
2025-01-30 12:38:26.538191	0.4	25.1	-89.6	7.5
2025-01-30 12:38:27.693665	0.1	25.1	-89.6	3.4
2025-01-30 12:38:28.838651	359.7	25.2	-89.6	3.1
2025-01-30 12:38:29.989766	359.4	25.2	-90.0	7.2
2025-01-30 12:38:31.142527	359.1	25.2	-89.8	7.0
2025-01-30 12:38:32.292776	358.8	25.3	-89.7	6.4
2025-01-30 12:38:33.442909	358.4	25.3	-89.5	9.0
2025-01-30 12:38:34.602205	358.1	25.3	-89.4	7.1
2025-01-30 12:38:35.762982	357.8	25.4	-90.0	7.1
2025-01-30 12:38:36.912707	357.4	25.4	-89.7	6.4
2025-01-30 12:38:38.075743	357.1	25.4	-89.4	9.6
2025-01-30 12:38:39.229865	356.8	25.4	-89.5	9.9
2025-01-30 12:38:40.384837	356.5	25.5	-89.8	9.6
2025-01-30 12:38:41.543760	356.1	25.5	-89.7	9.8
2025-01-30 12:38:42.702094	355.8	25.5	-89.6	9.1
2025-01-30 12:38:43.855015	355.5	25.5	-89.5	9.3
2025-01-30 12:38:45.013736	355.1	25.6	-89.8	8.8
2025-01-30 12:38:46.169713	354.8	25.6	-89.7	5.6
2025-01-30 12:38:47.332573	354.4	25.6	-89.5	5.5
2025-01-30 12:38:48.488662	354.1	25.6	-89.6	6.1
2025-01-30 12:38:49.649928	353.8	25.6	-89.9	7.3
2025-01-30 12:38:50.816244	353.4	25.6	-90.1	3.6
2025-01-30 12:38:51.976004	353.1	25.7	-90.1	2.9
2025-01-30 12:38:53.137268	352.8	25.7	-89.7	4.9
2025-01-30 12:38:54.290990	352.4	25.7	-90.0	4.2
2025-01-30 12:38:55.450349	352.1	25.7	-89.7	4.1
2025-01-30 12:38:56.612784	351.7	25.7	-89.7	2.9
2025-01-30 12:38:57.761439	351.4	25.7	-89.5	2.6
2025-01-30 12:38:58.920607	351.1	25.7	-89.7	4.5
2025-01-30 12:39:00.077269	350.7	25.7	-89.4	7.3
2025-01-30 12:39:01.228096	350.4	25.7	-89.4	5.3
2025-01-30 12:39:02.383805	350.1	25.7	-89.7	4.6
2025-01-30 12:39:03.543304	349.7	25.7	-89.7	7.7
2025-01-30 12:39:04.700139	349.4	25.8	-89.7	6.7
2025-01-30 12:39:05.859221	349.0	25.8	-89.9	7.2
2025-01-30 12:39:07.020686	348.7	25.8	-89.6	9.7
2025-01-30 12:39:08.179292	348.4	25.8	-89.9	10.7
2025-01-30 12:39:09.340560	348.0	25.8	-89.4	11.0
2025-01-30 12:39:10.497952	347.7	25.7	-89.6	10.8
2025-01-30 12:39:11.666993	347.3	25.7	-89.5	9.3
2025-01-30 12:39:12.818521	347.0	25.7	-89.7	10.0
2025-01-30 12:39:13.979924	346.7	25.7	-89.3	6.0
2025-01-30 12:39:15.126573	346.3	25.7	-89.2	5.8
2025-01-30 12:39:16.282721	346.0	25.7	-89.2	3.6
2025-01-30 12:39:17.437673	345.6	25.7	-89.5	4.6
2025-01-30 12:39:18.597393	345.3	25.7	-89.8	4.3
2025-01-30 12:39:19.749188	345.0	25.7	-89.8	4.2
2025-01-30 12:39:20.912425	344.6	25.7	-89.9	6.0
2025-01-30 12:39:22.071207	344.3	25.7	-89.6	4.4
2025-01-30 12:39:23.222621	344.0	25.6	-89.6	5.8
2025-01-30 12:39:24.377845	343.6	25.6	-89.7	5.9
2025-01-30 12:39:25.538512	343.3	25.6	-89.8	5.1
2025-01-30 12:39:26.706704	343.0	25.6	-89.7	6.5
2025-01-30 12:39:27.863153	342.6	25.6	-89.4	5.4
2025-01-30 12:39:29.016586	342.3	25.6	-89.3	4.3
2025-01-30 12:39:30.168483	341.9	25.5	-89.3	5.5
2025-01-30 12:39:31.328826	341.6	25.5	-89.3	5.1
2025-01-30 12:39:32.488755	341.3	25.5	-89.4	4.2
2025-01-30 12:39:33.651326	340.9	25.5	-89.5	5.2
2025-01-30 12:39:34.803159	340.6	25.4	-89.5	3.1
2025-01-30 12:39:35.964102	340.3	25.4	-89.5	4.7
2025-01-30 12:39:37.125484	339.9	25.4	-89.3	4.4
2025-01-30 12:39:38.284448	339.6	25.4	-89.5	2.0
2025-01-30 12:39:39.442445	339.3	25.3	-89.5	4.3
2025-01-30 12:39:40.601489	339.0	25.3	-89.4	1.9
2025-01-30 12:39:41.760304	338.6	25.3	-89.3	3.5
2025-01-30 12:39:42.916435	338.3	25.2	-89.6	3.1
2025-01-30 12:39:44.077494	338.0	25.2	-89.5	3.4
2025-01-30 12:39:45.235431	337.6	25.2	-89.5	4.5
2025-01-30 12:39:46.380440	337.3	25.1	-89.5	3.7
2025-01-30 12:39:47.527127	337.0	25.1	-89.6	5.6
2025-01-30 12:39:48.683383	336.7	25.1	-89.5	2.7
2025-01-30 12:39:49.837424	336.4	25.0	-89.4	3.0
2025-01-30 12:39:50.991896	336.0	25.0	-89.3	4.4
2025-01-30 12:39:52.145947	335.7	24.9	-89.4	3.9
2025-01-30 12:39:53.303536	335.4	24.9	-89.6	4.2
2025-01-30 12:39:54.456438	335.1	24.9	-89.7	6.0
2025-01-30 12:39:55.612222	334.7	24.8	-89.7	5.4
2025-01-30 12:39:56.783121	334.4	24.8	-89.5	4.2
2025-01-30 12:39:57.942076	334.1	24.7	-89.9	3.7
2025-01-30 12:39:59.088555	333.8	24.7	-89.9	4.8
2025-01-30 12:40:00.246861	333.5	24.6	-89.7	4.8
2025-01-30 12:40:01.403935	333.2	24.6	-89.7	3.0
2025-01-30 12:40:02.562947	332.8	24.5	-89.7	5.0
2025-01-30 12:40:03.719384	332.5	24.5	-89.7	3.0
2025-01-30 12:40:04.876036	332.2	24.4	-89.8	4.7
2025-01-30 12:40:06.031716	331.9	24.4	-89.5	2.8
2025-01-30 12:40:07.194920	331.6	24.3	-89.6	2.6
2025-01-30 12:40:08.345983	331.3	24.3	-89.6	2.5
2025-01-30 12:40:09.498714	331.0	24.2	-89.5	4.6
2025-01-30 12:40:10.648849	330.7	24.2	-89.8	4.5
2025-01-30 12:40:11.811336	330.4	24.1	-89.6	2.4
2025-01-30 12:40:12.965084	330.1	24.1	-89.8	3.8
2025-01-30 12:40:14.109793	329.8	24.0	-89.6	4.0
2025-01-30 12:40:15.255160	329.5	24.0	-89.8	3.2
2025-01-30 12:40:16.409566	329.2	23.9	-90.0	3.9
2025-01-30 12:40:17.570264	328.9	23.8	-89.9	4.7
2025-01-30 12:40:18.716398	328.6	23.8	-89.3	2.9
2025-01-30 12:40:19.872705	328.3	23.7	-89.4	3.2
2025-01-30 12:40:21.018235	328.0	23.7	-89.1	3.2
2025-01-30 12:40:22.173267	327.7	23.6	-89.2	0.4
2025-01-30 12:40:23.325793	327.4	23.5	-89.4	2.3
2025-01-30 12:40:24.481549	327.1	23.5	-89.8	5.7
2025-01-30 12:40:25.643501	326.8	23.4	-89.6	4.6
2025-01-30 12:40:26.808480	326.5	23.4	-89.5	3.8
2025-01-30 12:40:27.963087	326.2	23.3	-89.5	4.4
2025-01-30 12:40:29.124709	325.9	23.2	-89.6	3.6
2025-01-30 12:40:30.267882	325.6	23.2	-89.3	2.6
2025-01-30 12:40:31.421695	325.4	23.1	-89.6	2.5
2025-01-30 12:40:32.587606	325.1	23.0	-89.6	2.9
2025-01-30 12:40:33.750619	324.8	23.0	-89.5	2.2
2025-01-30 12:40:34.909890	324.5	22.9	-89.6	2.0
2025-01-30 12:40:36.066343	324.2	22.8	-89.4	2.3
2025-01-30 12:40:37.222606	323.9	22.7	-89.9	5.5
2025-01-30 12:40:38.379377	323.7	22.7	-89.7	1.1
2025-01-30 12:40:39.533497	323.4	22.6	-89.7	3.2
2025-01-30 12:40:40.692294	323.1	22.5	-89.7	3.7
2025-01-30 12:40:41.850704	322.8	22.5	-89.7	3.2
2025-01-30 12:40:43.014393	322.6	22.4	-89.3	4.5
2025-01-30 12:40:44.163904	322.3	22.3	-89.5	4.6
2025-01-30 12:40:45.327668	322.0	22.2	-89.3	3.7
2025-01-30 12:40:46.478269	321.8	22.2	-89.3	5.4
2025-01-30 12:40:47.639853	321.5	22.1	-89.7	5.3
2025-01-30 12:40:48.804161	321.2	22.0	-89.6	5.2
2025-01-30 12:40:49.959998	321.0	21.9	-89.5	5.1
2025-01-30 12:40:51.119443	320.7	21.9	-89.7	3.8
2025-01-30 12:40:52.272788	320.4	21.8	-89.7	5.0
2025-01-30 12:40:53.437359	320.2	21.7	-89.8	2.2
2025-01-30 12:40:54.596833	319.9	21.6	-89.8	6.3
2025-01-30 12:40:55.746549	319.6	21.6	-89.7	2.8
2025-01-30 12:40:56.903714	319.4	21.5	-89.3	3.8
2025-01-30 12:40:58.058865	319.1	21.4	-89.5	6.7
2025-01-30 12:40:59.214322	318.9	21.3	-89.8	4.6
2025-01-30 12:41:00.365398	318.6	21.3	-89.0	3.2
2025-01-30 12:41:01.526802	318.4	21.2	-89.4	5.0
2025-01-30 12:41:02.684650	318.1	21.1	-89.7	4.0
2025-01-30 12:41:03.844878	317.9	21.0	-89.9	1.8
2025-01-30 12:41:05.002094	317.6	20.9	-89.3	1.7
2025-01-30 12:41:06.167798	317.4	20.9	-89.6	3.0
2025-01-30 12:41:07.325509	317.1	20.8	-89.5	2.4
2025-01-30 12:41:08.484169	316.9	20.7	-90.0	3.5
2025-01-30 12:41:09.630107	316.6	20.6	-89.4	2.0
2025-01-30 12:41:10.793053	316.4	20.5	-89.5	1.2
2025-01-30 12:41:11.945645	316.1	20.5	-89.1	2.1
2025-01-30 12:41:13.106080	315.9	20.4	-89.5	5.3
2025-01-30 12:41:14.263726	315.7	20.3	-89.5	3.8
2025-01-30 12:41:15.425534	315.4	20.2	-89.7	3.8
2025-01-30 12:41:16.579678	315.2	20.1	-89.9	3.3
2025-01-30 12:41:17.732950	315.0	20.0	-89.9	1.7
2025-01-30 12:41:18.889495	314.7	20.0	-89.7	0.9
2025-01-30 12:41:20.051241	314.5	19.9	-89.7	1.9
2025-01-30 12:41:21.207487	314.3	19.8	-90.1	2.2
2025-01-30 12:41:22.365917	314.0	19.7	-89.4	4.3
2025-01-30 12:41:23.519434	313.8	19.6	-89.0	3.9
2025-01-30 12:41:24.673881	313.6	19.5	-88.6	4.2
2025-01-30 12:41:25.832175	313.4	19.5	-89.2	2.6
2025-01-30 12:41:26.996030	313.1	19.4	-89.6	2.6
2025-01-30 12:41:28.149540	312.9	19.3	-88.8	5.1
2025-01-30 12:41:29.317242	312.7	19.2	-89.6	6.1
2025-01-30 12:41:30.476324	312.5	19.1	-89.3	4.7
2025-01-30 12:41:31.626524	312.2	19.0	-89.3	6.3
2025-01-30 12:41:32.782668	312.0	18.9	-89.6	5.5
2025-01-30 12:41:33.945351	311.8	18.9	-89.7	4.0
2025-01-30 12:41:35.106490	311.6	18.8	-89.7	5.2
2025-01-30 12:41:36.267423	311.4	18.7	-89.7	4.8
2025-01-30 12:41:37.416925	311.2	18.6	-89.6	5.8
2025-01-30 12:41:38.573759	310.9	18.5	-89.1	5.7
2025-01-30 12:41:39.727023	310.7	18.4	-89.5	3.9
2025-01-30 12:41:40.888170	310.5	18.3	-89.1	3.0
2025-01-30 12:41:42.043036	310.3	18.3	-89.3	3.4
2025-01-30 12:41:43.203871	310.1	18.2	-88.2	2.3
2025-01-30 12:41:44.357610	309.9	18.1	-88.5	2.1
2025-01-30 12:41:45.518589	309.7	18.0	-89.5	2.3
2025-01-30 12:41:46.672325	309.5	17.9	-86.6	1.8
2025-01-30 12:41:47.832916	309.3	17.8	-89.9	1.3
2025-01-30 12:41:48.992688	309.1	17.7	-89.9	2.6
2025-01-30 12:41:50.155105	308.9	17.6	-89.6	4.4
2025-01-30 12:41:51.312140	308.7	17.6	-89.7	4.2
2025-01-30 12:41:52.472478	308.5	17.5	-89.8	2.5
2025-01-30 12:41:53.626296	308.3	17.4	-89.7	1.4
2025-01-30 12:41:54.776106	308.1	17.3	-89.4	4.7
2025-01-30 12:41:55.934037	307.9	17.2	-89.8	6.4
2025-01-30 12:41:57.102201	307.7	17.1	-89.2	5.7
2025-01-30 12:41:58.263422	307.5	17.0	-88.8	3.5
2025-01-30 12:41:59.434999	307.3	16.9	-88.7	4.3
2025-01-30 12:42:00.585730	307.1	16.9	-89.8	4.3
2025-01-30 12:42:01.745704	306.9	16.8	-88.7	3.6
2025-01-30 12:42:02.905875	306.8	16.7	-88.7	4.4
2025-01-30 12:42:04.057350	306.6	16.6	-88.9	2.8
2025-01-30 12:42:05.223441	306.4	16.5	-89.2	3.9
2025-01-30 12:42:06.375937	306.2	16.4	-89.3	3.1
2025-01-30 12:42:07.540360	306.0	16.3	-89.3	3.5
2025-01-30 12:42:08.692816	305.8	16.2	-89.5	3.7
2025-01-30 12:42:09.848657	305.7	16.2	-89.9	4.5
2025-01-30 12:42:11.010754	305.5	16.1	-89.4	3.0
2025-01-30 12:42:12.172599	305.3	16.0	-89.3	2.6
2025-01-30 12:42:13.326641	305.1	15.9	-88.8	3.9
2025-01-30 12:42:14.485320	304.9	15.8	-89.6	6.1
2025-01-30 12:42:15.640345	304.8	15.7	-89.6	8.2
2025-01-30 12:42:16.813119	304.6	15.6	-89.9	4.1
2025-01-30 12:42:17.980075	304.4	15.5	-89.7	5.4
2025-01-30 12:42:19.138980	304.2	15.5	-89.7	7.2
2025-01-30 12:42:20.300236	304.1	15.4	-89.7	6.4
2025-01-30 12:42:21.453144	303.9	15.3	-89.8	8.0
2025-01-30 12:42:22.612800	303.7	15.2	-89.6	7.6
2025-01-30 12:42:23.776510	303.6	15.1	-89.9	4.6
2025-01-30 12:42:24.933165	303.4	15.0	-89.5	3.3
2025-01-30 12:42:26.088306	303.2	14.9	-89.9	3.2
2025-01-30 12:42:27.241627	303.1	14.8	-89.4	2.4
2025-01-30 12:42:28.407032	302.9	14.8	-89.3	1.0
2025-01-30 12:42:29.569425	302.7	14.7	-89.2	1.2
#Closed at: 2025-01-30 12:35:54.740866