passes_logs/2025/01/30/LEX_Murmansk/LEX_Murmansk__20250130_091442_NOAA_19_rec.log

#Pass ID: 20250130_091442_NOAA 19
#Satellite: NOAA 19
#Configuration: NOAA 19
#Start time: 2025-01-30 09:14:37.484735

#LorettStation: 1.0.0 05.05.2024
#Station: LEX_Murmansk
#Location: 33.156738 lon 68.926811 lat
#TLE: 1 33591U 09005A   25029.16356990  .00000402  00000+0  23831-3 0  9997
#TLE: 2 33591  99.0170  93.0339 0013919  18.9524 341.2163 14.13271889823544

#Time	Az	El	Level	SNR
2025-01-30 09:14:49.721101	25.1	16.3	-90.8	3.2
2025-01-30 09:14:52.021430	25.1	16.6	-90.7	2.5
2025-01-30 09:14:54.334761	25.0	16.8	-90.6	2.4
2025-01-30 09:14:56.647651	25.0	17.1	-90.9	3.1
2025-01-30 09:14:58.948387	24.9	17.4	-91.0	3.6
2025-01-30 09:15:01.351609	24.9	17.6	-91.0	3.4
2025-01-30 09:15:03.667283	24.9	17.9	-91.1	3.5
2025-01-30 09:15:05.977708	24.8	18.2	-90.9	5.2
2025-01-30 09:15:08.276349	24.8	18.5	-91.0	3.8
2025-01-30 09:15:10.593685	24.7	18.7	-90.9	5.9
2025-01-30 09:15:12.913367	24.7	19.0	-91.2	7.8
2025-01-30 09:15:15.214696	24.7	19.3	-91.2	1.2
2025-01-30 09:15:17.518304	24.6	19.6	-91.0	1.5
2025-01-30 09:15:19.839008	24.6	19.9	-91.0	4.8
2025-01-30 09:15:22.132920	24.5	20.2	-91.1	7.7
2025-01-30 09:15:24.434009	24.5	20.5	-91.2	5.6
2025-01-30 09:15:26.740616	24.4	20.8	-90.9	7.7
2025-01-30 09:15:29.050545	24.4	21.1	-91.0	7.9
2025-01-30 09:15:31.351373	24.3	21.4	-91.0	2.7
2025-01-30 09:15:33.645232	24.3	21.7	-91.3	5.0
2025-01-30 09:15:35.945637	24.2	22.0	-90.9	7.6
2025-01-30 09:15:38.249784	24.2	22.4	-91.1	9.5
2025-01-30 09:15:40.556363	24.1	22.7	-91.4	8.0
2025-01-30 09:15:42.858700	24.0	23.0	-91.0	7.8
2025-01-30 09:15:45.177436	24.0	23.4	-90.9	10.6
2025-01-30 09:15:47.487836	23.9	23.7	-91.0	4.6
2025-01-30 09:15:49.801672	23.9	24.0	-91.1	3.9
2025-01-30 09:15:52.113245	23.8	24.4	-91.2	6.1
2025-01-30 09:15:54.421979	23.7	24.7	-91.2	12.7
2025-01-30 09:15:56.723632	23.7	25.1	-90.9	6.2
2025-01-30 09:15:59.020212	23.6	25.5	-90.9	9.4
2025-01-30 09:16:01.303397	23.5	25.8	-90.9	9.9
2025-01-30 09:16:03.605935	23.4	26.2	-90.7	4.9
2025-01-30 09:16:06.015417	23.4	26.6	-91.0	2.3
2025-01-30 09:16:08.312091	23.3	27.0	-90.7	3.6
2025-01-30 09:16:10.629150	23.2	27.4	-90.1	5.6
2025-01-30 09:16:12.936356	23.1	27.8	-90.1	3.5
2025-01-30 09:16:15.237471	23.0	28.1	-91.1	6.7
2025-01-30 09:16:17.532807	23.0	28.6	-91.0	8.1
2025-01-30 09:16:19.835732	22.9	29.0	-90.8	5.9
2025-01-30 09:16:22.149349	22.8	29.4	-90.4	4.8
2025-01-30 09:16:24.456007	22.7	29.8	-91.1	3.3
2025-01-30 09:16:26.760937	22.6	30.2	-90.9	7.7
2025-01-30 09:16:29.072959	22.5	30.7	-90.3	8.8
2025-01-30 09:16:31.385519	22.4	31.1	-90.1	5.0
2025-01-30 09:16:33.691357	22.3	31.6	-90.2	6.3
2025-01-30 09:16:35.993666	22.2	32.0	-90.4	5.1
2025-01-30 09:16:38.305907	22.1	32.5	-91.0	2.8
2025-01-30 09:16:40.620665	21.9	32.9	-90.9	3.2
2025-01-30 09:16:42.929941	21.8	33.4	-91.2	8.1
2025-01-30 09:16:45.236091	21.7	33.9	-91.1	10.4
2025-01-30 09:16:47.542388	21.6	34.4	-90.9	7.4
2025-01-30 09:16:49.847509	21.4	34.9	-90.9	5.0
2025-01-30 09:16:52.154221	21.3	35.4	-90.9	10.2
2025-01-30 09:16:54.469631	21.2	35.9	-91.3	6.9
2025-01-30 09:16:56.782354	21.0	36.4	-91.2	2.1
2025-01-30 09:16:59.081721	20.9	36.9	-90.9	4.6
2025-01-30 09:17:01.384606	20.7	37.5	-91.5	12.1
2025-01-30 09:17:03.689992	20.6	38.0	-90.9	12.1
2025-01-30 09:17:05.997828	20.4	38.6	-91.2	9.6
2025-01-30 09:17:08.303184	20.2	39.2	-91.1	9.4
2025-01-30 09:17:10.607634	20.0	39.7	-91.0	16.2
2025-01-30 09:17:12.922774	19.8	40.3	-91.1	9.9
2025-01-30 09:17:15.227929	19.7	40.9	-91.0	3.5
2025-01-30 09:17:17.537058	19.5	41.5	-91.1	8.0
2025-01-30 09:17:19.838479	19.2	42.1	-91.3	13.3
2025-01-30 09:17:22.141092	19.0	42.7	-90.9	16.8
2025-01-30 09:17:24.439374	18.8	43.3	-90.9	13.9
2025-01-30 09:17:26.743031	18.6	44.0	-91.1	9.5
2025-01-30 09:17:29.049336	18.3	44.6	-91.3	16.6
2025-01-30 09:17:31.359756	18.1	45.3	-90.9	10.7
2025-01-30 09:17:33.665338	17.8	46.0	-91.1	7.3
2025-01-30 09:17:35.972802	17.5	46.6	-91.4	5.0
2025-01-30 09:17:38.283290	17.2	47.3	-90.8	5.8
2025-01-30 09:17:40.608102	16.9	48.0	-91.2	14.3
2025-01-30 09:17:42.910806	16.6	48.8	-91.2	16.3
2025-01-30 09:17:45.219496	16.3	49.5	-91.2	8.0
2025-01-30 09:17:47.525321	15.9	50.2	-91.1	9.2
2025-01-30 09:17:49.841939	15.5	51.0	-91.4	6.2
2025-01-30 09:17:52.142045	15.2	51.7	-91.1	10.1
2025-01-30 09:17:54.420159	14.8	52.5	-91.1	7.8
2025-01-30 09:17:56.662166	14.3	53.2	-91.0	4.4
2025-01-30 09:17:58.905405	13.9	54.0	-90.9	3.0
2025-01-30 09:18:01.150446	13.4	54.7	-91.0	3.4
2025-01-30 09:18:03.393449	12.9	55.5	-90.8	4.4
2025-01-30 09:18:05.668172	12.4	56.3	-90.9	12.6
2025-01-30 09:18:07.973767	11.8	57.1	-91.3	10.8
2025-01-30 09:18:10.281366	11.2	58.0	-91.0	3.4
2025-01-30 09:18:12.560901	10.6	58.8	-90.9	2.5
2025-01-30 09:18:14.834160	9.9	59.6	-91.1	12.1
2025-01-30 09:18:17.117862	9.2	60.5	-90.7	14.5
2025-01-30 09:18:19.412229	8.4	61.3	-91.2	11.1
2025-01-30 09:18:21.710012	7.6	62.2	-90.9	4.4
2025-01-30 09:18:24.004777	6.7	63.1	-91.2	6.8
2025-01-30 09:18:26.307855	5.7	63.9	-91.1	4.5
2025-01-30 09:18:28.588993	4.6	64.8	-90.9	14.2
2025-01-30 09:18:30.873692	3.5	65.7	-90.5	19.7
2025-01-30 09:18:33.160301	2.3	66.6	-90.9	17.4
2025-01-30 09:18:35.426500	1.0	67.4	-91.0	11.9
2025-01-30 09:18:37.710327	359.5	68.3	-91.3	6.5
2025-01-30 09:18:40.003164	358.0	69.2	-90.6	9.1
2025-01-30 09:18:42.290268	356.2	70.0	-90.4	9.3
2025-01-30 09:18:44.581310	354.3	70.9	-90.0	17.2
2025-01-30 09:18:46.862436	352.3	71.7	-90.9	10.4
2025-01-30 09:18:49.133806	350.0	72.5	-91.0	8.5
2025-01-30 09:18:51.437523	347.5	73.3	-91.3	5.9
2025-01-30 09:18:53.731047	344.7	74.1	-90.3	11.3
2025-01-30 09:18:56.011860	341.7	74.8	-90.5	7.8
2025-01-30 09:18:58.293823	338.3	75.5	-90.0	9.9
2025-01-30 09:19:00.579631	334.6	76.1	-91.2	6.6
2025-01-30 09:19:02.856178	330.6	76.7	-91.1	13.4
2025-01-30 09:19:05.128402	326.3	77.2	-91.0	12.6
2025-01-30 09:19:07.405509	321.6	77.6	-90.3	13.0
2025-01-30 09:19:09.677737	316.6	77.9	-90.5	18.0
2025-01-30 09:19:11.952230	311.3	78.2	-90.3	20.5
2025-01-30 09:19:14.228857	305.9	78.3	-90.8	21.0
2025-01-30 09:19:16.485023	300.4	78.4	-90.4	21.6
2025-01-30 09:19:18.755007	294.9	78.3	-90.4	21.4
2025-01-30 09:19:21.025130	289.5	78.1	-90.4	16.8
2025-01-30 09:19:23.293693	284.4	77.9	-91.1	22.0
2025-01-30 09:19:25.563370	279.4	77.5	-91.0	15.4
2025-01-30 09:19:27.850492	274.8	77.0	-91.0	21.9
2025-01-30 09:19:30.147065	270.5	76.5	-91.0	17.5
2025-01-30 09:19:32.424252	266.6	75.9	-90.7	14.3
2025-01-30 09:19:34.718771	262.9	75.3	-91.4	19.5
2025-01-30 09:19:37.000758	259.7	74.6	-91.1	12.1
2025-01-30 09:19:39.306364	256.7	73.9	-91.0	21.4
2025-01-30 09:19:41.601122	254.0	73.1	-91.0	14.7
2025-01-30 09:19:43.876737	251.5	72.3	-91.1	22.4
2025-01-30 09:19:46.159946	249.3	71.5	-91.2	19.6
2025-01-30 09:19:48.433987	247.3	70.7	-91.3	14.7
2025-01-30 09:19:50.707115	245.5	69.8	-91.5	19.4
2025-01-30 09:19:52.991962	243.8	69.0	-91.4	11.3
2025-01-30 09:19:55.263288	242.3	68.1	-91.5	17.9
2025-01-30 09:19:57.555318	240.8	67.2	-91.3	9.7
2025-01-30 09:19:59.836813	239.6	66.4	-91.4	16.5
2025-01-30 09:20:02.123120	238.4	65.5	-91.1	11.6
2025-01-30 09:20:04.424839	237.2	64.6	-91.2	10.8
2025-01-30 09:20:06.714177	236.2	63.7	-91.5	20.1
2025-01-30 09:20:09.004307	235.3	62.9	-91.7	10.4
2025-01-30 09:20:11.291667	234.4	62.0	-91.3	18.6
2025-01-30 09:20:13.572822	233.6	61.1	-91.6	9.9
2025-01-30 09:20:15.870583	232.8	60.3	-91.5	16.0
2025-01-30 09:20:18.167705	232.1	59.4	-91.2	17.1
2025-01-30 09:20:20.450940	231.4	58.6	-91.4	16.2
2025-01-30 09:20:22.738898	230.8	57.8	-91.4	20.1
2025-01-30 09:20:24.996547	230.2	57.0	-91.3	20.8
2025-01-30 09:20:27.268740	229.6	56.2	-91.4	22.3
2025-01-30 09:20:29.554559	229.1	55.3	-91.5	20.6
2025-01-30 09:20:31.844304	228.6	54.6	-91.0	19.2
2025-01-30 09:20:34.133336	228.1	53.8	-91.3	16.5
2025-01-30 09:20:36.420553	227.7	53.0	-91.6	14.5
2025-01-30 09:20:38.707750	227.3	52.2	-91.6	17.4
2025-01-30 09:20:40.991713	226.9	51.5	-91.5	8.8
2025-01-30 09:20:43.281535	226.5	50.7	-91.0	15.1
2025-01-30 09:20:45.589779	226.1	50.0	-91.3	9.3
2025-01-30 09:20:47.885424	225.8	49.3	-91.1	15.0
2025-01-30 09:20:50.176280	225.4	48.6	-91.4	16.0
2025-01-30 09:20:52.457615	225.1	47.9	-91.3	13.0
2025-01-30 09:20:54.738607	224.8	47.2	-91.1	9.2
2025-01-30 09:20:57.034703	224.5	46.5	-91.3	8.2
2025-01-30 09:20:59.320727	224.3	45.8	-91.0	5.3
2025-01-30 09:21:01.611318	224.0	45.2	-91.3	3.5
2025-01-30 09:21:03.906849	223.8	44.5	-91.3	4.2
2025-01-30 09:21:06.196735	223.5	43.9	-91.1	6.4
2025-01-30 09:21:08.486253	223.3	43.2	-90.6	6.8
2025-01-30 09:21:10.778074	223.1	42.6	-91.5	9.3
2025-01-30 09:21:13.079354	222.8	42.0	-91.3	5.5
2025-01-30 09:21:15.384641	222.6	41.4	-91.4	9.6
2025-01-30 09:21:17.693017	222.4	40.8	-91.5	10.7
2025-01-30 09:21:20.002372	222.2	40.2	-91.2	7.5
2025-01-30 09:21:22.268508	222.1	39.6	-91.3	12.7
2025-01-30 09:21:24.548586	221.9	39.1	-91.5	7.4
2025-01-30 09:21:26.848162	221.7	38.5	-91.6	14.1
2025-01-30 09:21:29.131608	221.6	38.0	-91.6	13.3
2025-01-30 09:21:31.434166	221.4	37.4	-91.2	14.7
2025-01-30 09:21:33.728389	221.2	36.9	-91.5	15.8
2025-01-30 09:21:36.031308	221.1	36.4	-91.5	15.8
2025-01-30 09:21:38.316349	220.9	35.8	-91.2	15.9
2025-01-30 09:21:40.603360	220.8	35.3	-91.1	10.2
2025-01-30 09:21:42.904413	220.7	34.8	-91.2	11.8
2025-01-30 09:21:45.212589	220.5	34.3	-91.1	16.1
2025-01-30 09:21:47.511636	220.4	33.8	-91.4	16.3
2025-01-30 09:21:49.795263	220.3	33.4	-91.4	15.3
2025-01-30 09:21:52.057253	220.2	32.9	-90.8	9.8
2025-01-30 09:21:54.353933	220.1	32.4	-91.0	12.4
2025-01-30 09:21:56.669975	220.0	32.0	-91.4	11.2
2025-01-30 09:21:58.956416	219.8	31.5	-91.5	7.6
2025-01-30 09:22:01.251235	219.7	31.1	-91.3	10.9
2025-01-30 09:22:03.544367	219.6	30.6	-91.1	9.6
2025-01-30 09:22:05.854788	219.5	30.2	-91.2	6.6
2025-01-30 09:22:08.156390	219.4	29.8	-91.3	4.9
2025-01-30 09:22:10.457947	219.3	29.4	-91.2	5.7
2025-01-30 09:22:12.757311	219.3	29.0	-91.3	6.6
2025-01-30 09:22:15.069616	219.2	28.5	-91.4	4.5
2025-01-30 09:22:17.315281	219.1	28.1	-91.3	3.0
2025-01-30 09:22:19.556296	219.0	27.8	-90.8	3.2
2025-01-30 09:22:21.797359	218.9	27.4	-91.5	1.3
2025-01-30 09:22:24.037371	218.8	27.0	-91.7	3.5
2025-01-30 09:22:26.278940	218.8	26.6	-91.3	2.5
2025-01-30 09:22:28.521609	218.7	26.3	-91.2	4.2
2025-01-30 09:22:30.762620	218.6	25.9	-91.5	5.4
2025-01-30 09:22:33.005624	218.5	25.5	-91.2	7.0
2025-01-30 09:22:35.248645	218.5	25.2	-91.2	6.4
2025-01-30 09:22:37.507083	218.4	24.8	-91.1	4.7
2025-01-30 09:22:39.802171	218.3	24.5	-90.7	7.5
2025-01-30 09:22:42.112966	218.3	24.1	-90.8	4.0
2025-01-30 09:22:44.413453	218.2	23.8	-90.5	6.9
2025-01-30 09:22:46.694154	218.2	23.5	-90.8	8.6
2025-01-30 09:22:48.968369	218.1	23.1	-90.6	7.3
2025-01-30 09:22:51.245713	218.0	22.8	-91.2	10.1
2025-01-30 09:22:53.511964	218.0	22.5	-91.3	4.8
2025-01-30 09:22:55.800651	217.9	22.2	-91.5	8.2
2025-01-30 09:22:58.074876	217.9	21.8	-91.5	7.7
2025-01-30 09:23:00.345987	217.8	21.5	-91.1	9.7
2025-01-30 09:23:02.622837	217.8	21.2	-91.2	11.3
2025-01-30 09:23:04.917694	217.7	20.9	-91.7	7.2
2025-01-30 09:23:07.221325	217.7	20.6	-91.3	8.4
2025-01-30 09:23:09.502058	217.6	20.3	-91.3	6.3
2025-01-30 09:23:11.784887	217.6	20.0	-91.2	9.1
2025-01-30 09:23:14.084769	217.5	19.7	-91.6	9.3
2025-01-30 09:23:16.388563	217.5	19.4	-91.4	8.7
2025-01-30 09:23:18.659134	217.4	19.2	-91.5	7.6
2025-01-30 09:23:20.956245	217.4	18.9	-91.5	5.1
2025-01-30 09:23:23.235166	217.3	18.6	-91.5	7.6
2025-01-30 09:23:25.551128	217.3	18.3	-91.5	6.0
2025-01-30 09:23:27.858308	217.2	18.0	-91.3	9.2
2025-01-30 09:23:30.147103	217.2	17.8	-91.3	6.6
2025-01-30 09:23:32.444931	217.2	17.5	-90.9	5.9
2025-01-30 09:23:34.747300	217.1	17.2	-91.4	3.8
2025-01-30 09:23:37.047079	217.1	17.0	-91.3	5.6
2025-01-30 09:23:39.346559	217.1	16.7	-91.4	7.2
2025-01-30 09:23:41.653929	217.0	16.5	-91.1	4.5
2025-01-30 09:23:43.950502	217.0	16.2	-91.3	5.5
2025-01-30 09:23:46.272196	216.9	16.0	-91.5	4.5
2025-01-30 09:23:48.574016	216.9	15.7	-91.8	3.8
2025-01-30 09:23:50.873652	216.9	15.5	-91.6	4.1
2025-01-30 09:23:53.178784	216.8	15.2	-91.3	4.0
2025-01-30 09:23:55.483822	216.8	15.0	-90.9	3.6
2025-01-30 09:23:57.776733	216.8	14.7	-91.7	3.6
2025-01-30 09:24:00.068552	216.7	14.5	-91.2	4.0
#Closed at: 2025-01-30 09:14:42.538154