passes_logs/2025/01/30/LEX_Murmansk/LEX_Murmansk__20250130_093628_NOAA_18_rec.log

#Pass ID: 20250130_093628_NOAA 18
#Satellite: NOAA 18
#Configuration: NOAA 18
#Start time: 2025-01-30 09:36:23.785811

#LorettStation: 1.0.0 05.05.2024
#Station: LEX_Murmansk
#Location: 33.156738 lon 68.926811 lat
#TLE: 1 28654U 05018A   25029.10768076  .00000445  00000+0  25948-3 0  9995
#TLE: 2 28654  98.8544 110.0207 0014928 140.4380 219.7885 14.13500636 15173

#Time	Az	El	Level	SNR
2025-01-30 09:36:36.031461	27.2	16.3	-87.9	4.7
2025-01-30 09:36:38.357997	27.3	16.6	-88.0	4.3
2025-01-30 09:36:40.680303	27.4	16.8	-88.0	5.7
2025-01-30 09:36:43.006291	27.5	17.1	-88.5	5.2
2025-01-30 09:36:45.321866	27.6	17.3	-88.1	6.7
2025-01-30 09:36:47.639435	27.6	17.6	-88.5	6.5
2025-01-30 09:36:49.963127	27.7	17.9	-88.1	5.0
2025-01-30 09:36:52.278626	27.8	18.2	-88.0	8.3
2025-01-30 09:36:54.601765	27.9	18.4	-88.1	8.5
2025-01-30 09:36:56.917947	28.0	18.7	-87.8	7.2
2025-01-30 09:36:59.238356	28.1	19.0	-87.9	8.0
2025-01-30 09:37:01.560954	28.2	19.3	-88.0	8.8
2025-01-30 09:37:03.876843	28.3	19.6	-88.1	8.5
2025-01-30 09:37:06.184689	28.4	19.8	-88.0	9.2
2025-01-30 09:37:08.507147	28.5	20.1	-87.6	6.3
2025-01-30 09:37:10.833406	28.6	20.4	-87.8	10.1
2025-01-30 09:37:13.156664	28.7	20.7	-87.8	8.9
2025-01-30 09:37:15.480711	28.8	21.0	-87.6	9.2
2025-01-30 09:37:17.801675	28.9	21.4	-87.8	10.5
2025-01-30 09:37:20.118938	29.0	21.7	-87.4	9.8
2025-01-30 09:37:22.441539	29.1	22.0	-87.4	7.2
2025-01-30 09:37:24.764758	29.3	22.3	-87.3	10.1
2025-01-30 09:37:27.087479	29.4	22.6	-87.3	11.1
2025-01-30 09:37:29.394351	29.5	23.0	-88.1	9.2
2025-01-30 09:37:31.709674	29.6	23.3	-88.5	10.0
2025-01-30 09:37:34.024706	29.7	23.6	-87.3	10.3
2025-01-30 09:37:36.339509	29.9	24.0	-87.2	8.7
2025-01-30 09:37:38.660450	30.0	24.3	-88.3	8.7
2025-01-30 09:37:40.979075	30.1	24.7	-88.4	6.8
2025-01-30 09:37:43.294354	30.3	25.0	-87.8	9.5
2025-01-30 09:37:45.610548	30.4	25.4	-87.9	9.8
2025-01-30 09:37:47.929619	30.5	25.7	-88.1	9.4
2025-01-30 09:37:50.246164	30.7	26.1	-88.0	10.4
2025-01-30 09:37:52.557241	30.8	26.5	-87.8	9.1
2025-01-30 09:37:54.876934	31.0	26.8	-87.6	6.6
2025-01-30 09:37:57.190225	31.1	27.2	-87.7	8.3
2025-01-30 09:37:59.507997	31.3	27.6	-87.7	9.2
2025-01-30 09:38:01.824875	31.5	28.0	-88.0	9.4
2025-01-30 09:38:04.146184	31.6	28.4	-87.7	10.0
2025-01-30 09:38:06.461499	31.8	28.8	-87.7	9.6
2025-01-30 09:38:08.779252	32.0	29.2	-87.6	10.2
2025-01-30 09:38:11.097620	32.1	29.6	-87.7	4.9
2025-01-30 09:38:13.411549	32.3	30.1	-87.6	5.3
2025-01-30 09:38:15.735300	32.5	30.5	-87.8	10.2
2025-01-30 09:38:18.057388	32.7	30.9	-87.8	10.3
2025-01-30 09:38:20.384121	32.9	31.4	-87.7	8.7
2025-01-30 09:38:22.702903	33.1	31.8	-87.9	9.0
2025-01-30 09:38:25.021857	33.3	32.3	-87.9	11.5
2025-01-30 09:38:27.342033	33.5	32.7	-88.2	7.5
2025-01-30 09:38:29.660232	33.7	33.2	-88.0	7.4
2025-01-30 09:38:31.982877	33.9	33.7	-87.9	7.0
2025-01-30 09:38:34.307686	34.2	34.1	-87.8	11.1
2025-01-30 09:38:36.630379	34.4	34.6	-88.1	11.7
2025-01-30 09:38:38.950301	34.6	35.1	-87.8	10.2
2025-01-30 09:38:41.271753	34.9	35.6	-87.8	9.4
2025-01-30 09:38:43.582081	35.2	36.1	-87.9	12.3
2025-01-30 09:38:45.898272	35.4	36.6	-88.0	10.1
2025-01-30 09:38:48.217778	35.7	37.2	-88.0	10.0
2025-01-30 09:38:50.535625	36.0	37.7	-87.8	5.6
2025-01-30 09:38:52.863955	36.3	38.2	-87.7	10.3
2025-01-30 09:38:55.187697	36.6	38.8	-87.8	11.4
2025-01-30 09:38:57.509925	36.9	39.3	-87.8	10.3
2025-01-30 09:38:59.825513	37.2	39.9	-87.8	14.5
2025-01-30 09:39:02.145757	37.5	40.5	-87.8	14.4
2025-01-30 09:39:04.467459	37.9	41.1	-87.8	11.4
2025-01-30 09:39:06.791999	38.2	41.7	-87.9	10.6
2025-01-30 09:39:09.106125	38.6	42.3	-87.5	9.9
2025-01-30 09:39:11.426946	39.0	42.9	-88.2	11.5
2025-01-30 09:39:13.741825	39.4	43.5	-88.1	14.3
2025-01-30 09:39:16.055113	39.8	44.1	-87.8	10.7
2025-01-30 09:39:18.380800	40.2	44.7	-87.9	11.1
2025-01-30 09:39:20.706323	40.7	45.4	-88.0	12.9
2025-01-30 09:39:23.018346	41.1	46.0	-88.1	11.7
2025-01-30 09:39:25.334224	41.6	46.7	-88.0	10.3
2025-01-30 09:39:27.651666	42.1	47.3	-87.9	7.5
2025-01-30 09:39:29.971515	42.6	48.0	-88.4	6.0
2025-01-30 09:39:32.288710	43.2	48.7	-87.9	5.1
2025-01-30 09:39:34.605080	43.8	49.4	-87.8	7.1
2025-01-30 09:39:36.928887	44.4	50.1	-88.0	7.4
2025-01-30 09:39:39.240939	45.0	50.8	-87.9	9.4
2025-01-30 09:39:41.561104	45.6	51.5	-87.9	7.4
2025-01-30 09:39:43.883438	46.3	52.2	-88.2	8.5
2025-01-30 09:39:46.204586	47.0	52.9	-87.6	11.2
2025-01-30 09:39:48.514648	47.8	53.6	-87.6	8.7
2025-01-30 09:39:50.806298	48.6	54.4	-88.1	11.2
2025-01-30 09:39:53.046973	49.4	55.1	-88.2	7.0
2025-01-30 09:39:55.288527	50.2	55.8	-87.9	13.4
2025-01-30 09:39:57.528828	51.1	56.5	-88.1	13.8
2025-01-30 09:39:59.768715	52.1	57.3	-87.7	15.6
2025-01-30 09:40:02.016108	53.1	58.0	-88.2	13.5
2025-01-30 09:40:04.341250	54.2	58.7	-88.0	17.0
2025-01-30 09:40:06.636556	55.3	59.5	-88.1	15.4
2025-01-30 09:40:08.968269	56.5	60.2	-87.8	14.7
2025-01-30 09:40:11.284112	57.8	61.0	-87.9	12.4
2025-01-30 09:40:13.598543	59.2	61.7	-87.7	12.9
2025-01-30 09:40:15.922645	60.6	62.5	-87.9	10.7
2025-01-30 09:40:18.240764	62.1	63.2	-88.1	12.0
2025-01-30 09:40:20.555558	63.8	63.9	-87.8	6.2
2025-01-30 09:40:22.869211	65.5	64.6	-87.7	11.3
2025-01-30 09:40:25.185114	67.4	65.3	-87.6	13.1
2025-01-30 09:40:27.506584	69.3	66.0	-87.8	15.6
2025-01-30 09:40:29.822530	71.4	66.6	-88.1	13.9
2025-01-30 09:40:32.137651	73.6	67.2	-88.1	12.3
2025-01-30 09:40:34.450783	75.9	67.8	-88.1	8.0
2025-01-30 09:40:36.763103	78.4	68.4	-88.2	14.6
2025-01-30 09:40:39.088290	81.0	68.9	-87.9	9.1
2025-01-30 09:40:41.413952	83.8	69.4	-88.0	10.5
2025-01-30 09:40:43.724175	86.7	69.9	-88.2	16.0
2025-01-30 09:40:46.040665	89.7	70.3	-88.3	12.9
2025-01-30 09:40:48.373912	92.9	70.6	-87.7	10.5
2025-01-30 09:40:50.699593	96.2	70.9	-87.2	8.0
2025-01-30 09:40:53.014641	99.5	71.1	-87.4	15.3
2025-01-30 09:40:55.329490	103.0	71.3	-87.1	9.6
2025-01-30 09:40:57.640291	106.5	71.4	-87.4	10.1
2025-01-30 09:40:59.958150	110.0	71.4	-87.1	8.7
2025-01-30 09:41:02.268729	113.5	71.4	-87.1	9.8
2025-01-30 09:41:04.582344	117.0	71.3	-87.3	7.8
2025-01-30 09:41:06.913758	120.5	71.2	-87.2	5.8
2025-01-30 09:41:09.231870	123.8	70.9	-87.2	11.7
2025-01-30 09:41:11.552461	127.1	70.7	-87.4	7.2
2025-01-30 09:41:13.866145	130.3	70.3	-87.2	10.9
2025-01-30 09:41:16.186132	133.4	69.9	-87.2	15.4
2025-01-30 09:41:18.512238	136.3	69.5	-87.1	9.9
2025-01-30 09:41:20.832025	139.1	69.0	-87.2	13.3
2025-01-30 09:41:23.151367	141.7	68.5	-87.1	15.8
2025-01-30 09:41:25.466070	144.2	67.9	-87.1	10.0
2025-01-30 09:41:27.788564	146.6	67.3	-87.5	15.5
2025-01-30 09:41:30.100370	148.8	66.7	-87.2	10.4
2025-01-30 09:41:32.409850	150.9	66.1	-87.5	7.4
2025-01-30 09:41:34.729638	152.9	65.4	-88.1	13.1
2025-01-30 09:41:37.033930	154.8	64.7	-88.3	9.6
2025-01-30 09:41:39.360292	156.6	64.0	-88.3	12.3
2025-01-30 09:41:41.683749	158.2	63.3	-88.2	15.5
2025-01-30 09:41:44.003275	159.8	62.6	-88.6	10.9
2025-01-30 09:41:46.320254	161.2	61.8	-88.5	15.3
2025-01-30 09:41:48.641608	162.6	61.1	-88.9	13.3
2025-01-30 09:41:50.971178	163.9	60.3	-88.6	9.1
2025-01-30 09:41:53.302474	165.2	59.6	-88.9	11.3
2025-01-30 09:41:55.618693	166.3	58.8	-88.7	9.4
2025-01-30 09:41:57.935606	167.4	58.1	-88.2	6.2
2025-01-30 09:42:00.250271	168.4	57.3	-89.0	12.3
2025-01-30 09:42:02.575802	169.4	56.6	-89.0	11.0
2025-01-30 09:42:04.896892	170.4	55.8	-88.5	11.2
2025-01-30 09:42:07.214034	171.2	55.1	-88.8	12.9
2025-01-30 09:42:09.531724	172.1	54.3	-89.0	10.1
2025-01-30 09:42:11.852977	172.9	53.6	-88.9	11.8
2025-01-30 09:42:14.165023	173.6	52.9	-88.8	6.3
2025-01-30 09:42:16.488543	174.3	52.1	-88.9	10.8
2025-01-30 09:42:18.820168	175.0	51.4	-88.2	8.5
2025-01-30 09:42:21.137262	175.7	50.7	-88.1	10.4
2025-01-30 09:42:23.455231	176.3	50.0	-88.1	6.4
2025-01-30 09:42:25.768540	176.9	49.3	-88.0	12.6
2025-01-30 09:42:28.086533	177.5	48.6	-87.7	8.7
2025-01-30 09:42:30.397548	178.0	47.9	-88.0	7.9
2025-01-30 09:42:32.708937	178.6	47.2	-88.1	13.1
2025-01-30 09:42:35.041011	179.1	46.6	-88.0	12.5
2025-01-30 09:42:37.368306	179.5	45.9	-87.8	15.2
2025-01-30 09:42:39.693501	180.0	45.3	-88.6	15.1
2025-01-30 09:42:42.015592	180.5	44.6	-88.7	14.6
2025-01-30 09:42:44.327119	180.9	44.0	-88.6	14.4
2025-01-30 09:42:46.653101	181.3	43.4	-88.6	14.4
2025-01-30 09:42:48.974825	181.7	42.7	-88.8	8.6
2025-01-30 09:42:51.299880	182.1	42.1	-88.8	12.1
2025-01-30 09:42:53.610014	182.4	41.5	-89.2	14.6
2025-01-30 09:42:55.927826	182.8	40.9	-89.0	9.7
2025-01-30 09:42:58.246548	183.1	40.4	-89.1	11.4
2025-01-30 09:43:00.558304	183.5	39.8	-88.7	8.8
2025-01-30 09:43:02.884613	183.8	39.2	-88.9	10.6
2025-01-30 09:43:05.200214	184.1	38.7	-88.7	12.0
2025-01-30 09:43:07.513671	184.4	38.1	-89.0	7.5
2025-01-30 09:43:09.828434	184.7	37.6	-89.0	8.2
2025-01-30 09:43:12.144641	185.0	37.0	-89.0	7.7
2025-01-30 09:43:14.462991	185.2	36.5	-88.9	5.6
2025-01-30 09:43:16.776969	185.5	36.0	-89.2	9.2
2025-01-30 09:43:19.096584	185.8	35.5	-88.9	6.6
2025-01-30 09:43:21.426166	186.0	35.0	-88.8	9.4
2025-01-30 09:43:23.748221	186.3	34.5	-88.7	10.3
2025-01-30 09:43:26.053481	186.5	34.0	-88.6	6.2
2025-01-30 09:43:28.372283	186.7	33.5	-88.7	6.1
2025-01-30 09:43:30.683850	186.9	33.0	-88.6	9.2
2025-01-30 09:43:33.001794	187.2	32.6	-88.5	9.9
2025-01-30 09:43:35.318420	187.4	32.1	-88.3	9.4
2025-01-30 09:43:37.640318	187.6	31.7	-88.8	7.0
2025-01-30 09:43:39.956588	187.8	31.2	-88.7	4.7
2025-01-30 09:43:42.285198	188.0	30.8	-88.3	5.6
2025-01-30 09:43:44.599673	188.1	30.3	-88.9	6.7
2025-01-30 09:43:46.910248	188.3	29.9	-88.8	9.0
2025-01-30 09:43:49.233406	188.5	29.5	-89.0	9.3
2025-01-30 09:43:51.556327	188.7	29.1	-88.8	7.9
2025-01-30 09:43:53.876005	188.9	28.6	-88.9	9.9
2025-01-30 09:43:56.182389	189.0	28.2	-88.9	8.3
2025-01-30 09:43:58.500634	189.2	27.8	-89.0	5.7
2025-01-30 09:44:00.814461	189.4	27.4	-89.4	9.4
2025-01-30 09:44:03.127052	189.5	27.1	-89.2	11.4
2025-01-30 09:44:05.432732	189.7	26.7	-88.1	7.6
2025-01-30 09:44:07.750656	189.8	26.3	-89.1	11.2
2025-01-30 09:44:10.068198	190.0	25.9	-89.3	7.7
2025-01-30 09:44:12.381762	190.1	25.6	-89.3	4.7
2025-01-30 09:44:14.699429	190.2	25.2	-89.2	7.0
2025-01-30 09:44:17.014351	190.4	24.8	-89.2	7.8
2025-01-30 09:44:19.333331	190.5	24.5	-88.8	10.9
2025-01-30 09:44:21.653317	190.6	24.1	-89.2	13.0
2025-01-30 09:44:23.976470	190.8	23.8	-89.5	11.6
2025-01-30 09:44:26.289747	190.9	23.4	-89.1	9.8
2025-01-30 09:44:28.614938	191.0	23.1	-89.0	10.1
2025-01-30 09:44:30.926679	191.1	22.8	-88.9	8.7
2025-01-30 09:44:33.239843	191.3	22.4	-89.0	9.1
2025-01-30 09:44:35.553599	191.4	22.1	-89.3	9.6
2025-01-30 09:44:37.866295	191.5	21.8	-89.0	7.4
2025-01-30 09:44:40.188315	191.6	21.5	-89.4	9.5
2025-01-30 09:44:42.508235	191.7	21.2	-89.3	5.4
2025-01-30 09:44:44.824597	191.8	20.9	-89.5	7.5
2025-01-30 09:44:47.137838	191.9	20.6	-89.5	7.3
2025-01-30 09:44:49.446355	192.0	20.3	-89.1	9.9
2025-01-30 09:44:51.768032	192.1	20.0	-89.0	10.7
2025-01-30 09:44:54.077227	192.2	19.7	-89.3	9.6
2025-01-30 09:44:56.391638	192.3	19.4	-89.2	7.7
2025-01-30 09:44:58.706989	192.4	19.1	-89.4	10.1
2025-01-30 09:45:01.216644	192.5	18.8	-89.3	9.0
2025-01-30 09:45:03.538239	192.6	18.5	-89.2	6.5
2025-01-30 09:45:05.868583	192.7	18.2	-89.4	4.7
2025-01-30 09:45:08.188021	192.8	17.9	-89.0	5.7
2025-01-30 09:45:10.499503	192.9	17.7	-88.8	3.6
2025-01-30 09:45:12.829090	193.0	17.4	-88.4	5.4
2025-01-30 09:45:15.150671	193.1	17.1	-88.2	4.7
2025-01-30 09:45:17.473028	193.2	16.9	-88.1	5.0
2025-01-30 09:45:19.791405	193.2	16.6	-88.4	6.4
2025-01-30 09:45:22.119192	193.3	16.3	-88.7	5.5
2025-01-30 09:45:24.432077	193.4	16.1	-88.0	6.1
2025-01-30 09:45:26.750723	193.5	15.8	-88.3	3.6
2025-01-30 09:45:29.067528	193.6	15.6	-88.4	6.1
2025-01-30 09:45:31.380698	193.6	15.3	-88.3	3.0
2025-01-30 09:45:33.698915	193.7	15.1	-88.4	4.7
2025-01-30 09:45:36.026657	193.8	14.8	-88.9	6.4
2025-01-30 09:45:38.343245	193.9	14.6	-88.4	4.3
#Closed at: 2025-01-30 09:36:28.824388