passes_logs/2026/01/04/R3.2S_Murmansk/R3.2S_Murmansk__20260104_231812_SUOMI_NPP_rec.log

#Pass ID: 20260104_231812_SUOMI NPP
#Satellite: SUOMI NPP
#Configuration: NPP
#almurnet v.1.7.20251203
#Start time: 2026-01-04 23:18:14

#Version: 2.2.20231116
#Station: R3.2S_Murmansk
#Location: 33.079688 lon 68.888172 lat
#TLE: 1 37849U 11061A   26003.96724563  .00000164  00000+0  98899-4 0  9990
#TLE: 2 37849  98.7800 306.1116 0002573  82.3190 277.8279 14.19522066735141

#Time	Az	El	Level	Level2	SNR	BER	BlckErr	Temp	State	Recorded	gain1	gain2
2026-01-04 23:18:14.33	20.39	2.11	-58.5	-74.2	3.8	1.49e+00	0	26	0	0	83	21747
2026-01-04 23:18:18.37	20.58	2.36	-58.4	-73.5	3.8	1.49e+00	0	26	104	0	82	21150
2026-01-04 23:18:22.41	20.76	2.61	-58.4	-73.4	3.8	1.49e+00	0	26	104	0	82	20831
2026-01-04 23:18:26.44	20.95	2.86	-58.4	-73.0	3.8	1.49e+00	0	26	104	0	82	19924
2026-01-04 23:18:30.48	21.14	3.11	-58.3	-71.2	4.1	1.46e+00	0	26	0	0	82	16296
2026-01-04 23:18:34.51	21.33	3.36	-58.3	-70.2	4.4	1.19e+00	73	26	0	3145728	82	14461
2026-01-04 23:18:38.55	21.53	3.62	-58.2	-69.8	4.5	1.04e+00	0	26	0	9437184	82	13851
2026-01-04 23:18:42.59	21.73	3.87	-57.8	-66.1	6.7	1.95e-01	0	26	0	17825792	82	8996
2026-01-04 23:18:46.62	21.93	4.13	-57.1	-63.0	9.2	6.28e-03	0	26	0	25165824	80	7081
2026-01-04 23:18:50.65	22.14	4.39	-56.9	-62.3	9.8	2.24e-03	0	27	0	32505856	80	6551
2026-01-04 23:18:54.69	22.35	4.66	-57.5	-64.7	7.8	4.20e-02	0	27	0	39845888	80	8586
2026-01-04 23:18:58.72	22.56	4.92	-58.0	-67.9	5.5	3.63e-01	0	26	0	48234496	81	11747
2026-01-04 23:19:02.76	22.78	5.19	-58.3	-70.8	4.3	2.06e-01	70	27	0	55574528	81	16357
2026-01-04 23:19:06.79	23.00	5.47	-57.1	-62.8	9.5	2.86e-03	0	27	0	58720256	80	6903
2026-01-04 23:19:10.82	23.22	5.74	-55.9	-59.7	11.8	1.44e-05	0	27	0	66060288	78	5417
2026-01-04 23:19:14.85	23.45	6.01	-55.8	-59.5	11.9	7.00e-07	0	27	0	74448896	77	5620
2026-01-04 23:19:18.88	23.68	6.29	-55.6	-59.1	12.2	1.50e-06	0	27	0	81788928	77	5373
2026-01-04 23:19:22.92	23.92	6.58	-55.1	-58.2	12.8	0.00e+00	0	27	0	89128960	76	5107
2026-01-04 23:19:26.95	24.16	6.86	-54.9	-57.8	13.0	0.00e+00	0	27	0	96468992	76	4909
2026-01-04 23:19:30.98	24.40	7.15	-54.5	-57.2	13.2	0.00e+00	0	27	0	103809024	75	4862
2026-01-04 23:19:35.01	24.65	7.44	-54.3	-57.0	13.4	0.00e+00	0	27	0	112197632	75	4715
2026-01-04 23:19:39.05	24.91	7.73	-54.1	-56.6	13.5	0.00e+00	0	27	0	119537664	74	4806
2026-01-04 23:19:43.09	25.16	8.03	-54.1	-56.5	13.6	0.00e+00	0	27	0	126877696	74	4748
2026-01-04 23:19:47.13	25.43	8.33	-53.7	-56.0	13.8	0.00e+00	0	27	0	134217728	73	4727
2026-01-04 23:19:51.16	25.70	8.63	-53.8	-56.2	13.7	0.00e+00	0	27	0	142606336	73	4818
2026-01-04 23:19:55.19	25.97	8.93	-53.8	-56.1	13.7	0.00e+00	0	27	0	149946368	73	4786
2026-01-04 23:19:59.23	26.25	9.24	-53.7	-55.9	13.8	0.00e+00	0	27	0	157286400	73	4702
2026-01-04 23:20:03.27	26.54	9.55	-53.6	-55.9	13.9	0.00e+00	0	27	0	164626432	73	4652
2026-01-04 23:20:07.30	26.83	9.87	-53.5	-55.8	13.9	0.00e+00	0	27	0	171966464	73	4599
2026-01-04 23:20:11.34	27.12	10.19	-53.5	-55.7	13.9	0.00e+00	0	27	0	180355072	73	4592
2026-01-04 23:20:15.37	27.42	10.51	-53.6	-55.8	13.9	0.00e+00	0	27	0	187695104	73	4639
2026-01-04 23:20:19.41	27.73	10.84	-53.6	-55.9	13.9	0.00e+00	0	27	0	195035136	73	4667
2026-01-04 23:20:23.45	28.05	11.17	-53.3	-55.4	14.1	0.00e+00	0	27	0	202375168	73	4431
2026-01-04 23:20:27.49	28.37	11.50	-53.2	-55.2	14.1	0.00e+00	0	27	0	210763776	72	4580
2026-01-04 23:20:31.52	28.70	11.84	-52.9	-54.9	14.3	0.00e+00	0	27	0	218103808	72	4394
2026-01-04 23:20:35.55	29.04	12.18	-52.9	-54.8	14.3	0.00e+00	0	28	0	225443840	72	4382
2026-01-04 23:20:39.59	29.38	12.52	-52.9	-54.8	14.3	0.00e+00	0	27	0	232783872	72	4391
2026-01-04 23:20:43.63	29.74	12.87	-52.8	-54.7	14.3	0.00e+00	0	27	0	240123904	72	4332
2026-01-04 23:20:47.67	30.10	13.23	-52.6	-54.5	14.3	0.00e+00	0	28	0	248512512	71	4448
2026-01-04 23:20:51.69	30.46	13.58	-52.6	-54.4	14.4	0.00e+00	0	27	0	255852544	71	4431
2026-01-04 23:20:55.73	30.84	13.95	-52.5	-54.4	14.4	0.00e+00	0	28	0	263192576	71	4410
2026-01-04 23:20:59.77	31.23	14.31	-52.6	-54.5	14.4	0.00e+00	0	27	0	270532608	71	4455
2026-01-04 23:21:03.80	31.62	14.68	-52.9	-54.8	14.2	0.00e+00	0	27	0	277872640	71	4614
2026-01-04 23:21:07.84	32.03	15.06	-52.8	-54.6	14.3	0.00e+00	0	28	0	286261248	71	4545
2026-01-04 23:21:11.88	32.44	15.44	-52.8	-54.7	14.3	0.00e+00	0	28	0	293601280	71	4586
2026-01-04 23:21:15.90	32.86	15.82	-52.9	-54.9	14.2	0.00e+00	0	27	0	300941312	71	4655
2026-01-04 23:21:19.93	33.30	16.21	-53.2	-55.3	14.1	0.00e+00	0	28	0	308281344	71	4888
2026-01-04 23:21:23.96	33.74	16.60	-53.3	-55.4	14.1	0.00e+00	0	28	0	316669952	72	4662
2026-01-04 23:21:28.00	34.20	17.00	-53.3	-55.3	14.2	0.00e+00	0	28	0	324009984	72	4622
2026-01-04 23:21:32.02	34.67	17.40	-52.9	-54.9	14.3	0.00e+00	0	28	0	331350016	72	4398
2026-01-04 23:21:36.05	35.15	17.81	-52.8	-54.7	14.3	0.00e+00	0	28	0	338690048	71	4556
2026-01-04 23:21:40.09	35.65	18.23	-52.9	-54.8	14.3	0.00e+00	0	28	0	346030080	71	4630
2026-01-04 23:21:44.13	36.15	18.64	-53.1	-55.1	14.2	0.00e+00	0	28	0	354418688	71	4792
2026-01-04 23:21:48.16	36.67	19.07	-53.2	-55.2	14.1	0.00e+00	0	28	0	361758720	71	4829
2026-01-04 23:21:52.20	37.21	19.50	-53.3	-55.3	14.2	0.00e+00	0	28	0	369098752	72	4605
2026-01-04 23:21:56.24	37.76	19.93	-53.1	-55.1	14.3	0.00e+00	0	28	0	376438784	72	4505
2026-01-04 23:22:00.27	38.33	20.37	-53.1	-55.0	14.3	0.00e+00	0	28	0	383778816	72	4445
2026-01-04 23:22:04.30	38.91	20.81	-52.8	-54.7	14.4	0.00e+00	0	27	0	392167424	72	4310
2026-01-04 23:22:08.33	39.50	21.26	-53.3	-55.3	14.1	0.00e+00	0	28	0	399507456	72	4637
2026-01-04 23:22:12.36	40.12	21.71	-53.4	-55.4	14.2	0.00e+00	0	28	0	406847488	72	4665
2026-01-04 23:22:16.41	40.75	22.17	-53.0	-54.9	14.4	0.00e+00	0	28	0	414187520	72	4396
2026-01-04 23:22:20.44	41.40	22.64	-52.6	-54.4	14.4	0.00e+00	0	28	0	422576128	71	4416
2026-01-04 23:22:24.47	42.07	23.10	-52.9	-54.8	14.3	0.00e+00	0	28	0	429916160	71	4647
2026-01-04 23:22:28.51	42.76	23.58	-52.8	-54.6	14.4	0.00e+00	0	28	0	437256192	71	4507
2026-01-04 23:22:32.54	43.47	24.05	-52.3	-54.0	14.6	0.00e+00	0	28	0	444596224	71	4236
2026-01-04 23:22:36.57	44.20	24.53	-52.3	-54.0	14.5	0.00e+00	0	28	0	451936256	70	4475
2026-01-04 23:22:40.61	44.96	25.02	-52.9	-54.7	14.2	0.00e+00	0	27	0	460324864	70	4860
2026-01-04 23:22:44.64	45.74	25.51	-53.0	-54.8	14.3	0.00e+00	0	28	0	467664896	71	4650
2026-01-04 23:22:48.67	46.54	26.00	-52.7	-54.5	14.5	0.00e+00	0	28	0	475004928	71	4448
2026-01-04 23:22:52.71	47.36	26.50	-53.2	-55.1	14.2	0.00e+00	0	28	0	482344960	71	4804
2026-01-04 23:22:56.74	48.22	27.00	-53.4	-55.4	14.2	0.00e+00	0	28	0	489684992	72	4658
2026-01-04 23:23:00.77	49.09	27.50	-53.2	-55.1	14.3	0.00e+00	0	28	0	498073600	72	4538
2026-01-04 23:23:04.81	50.00	28.00	-53.1	-55.0	14.4	0.00e+00	0	28	0	505413632	72	4457
2026-01-04 23:23:08.85	50.93	28.51	-52.3	-53.9	14.7	0.00e+00	0	28	0	512753664	71	4189
2026-01-04 23:23:12.89	51.90	29.01	-52.7	-54.5	14.5	0.00e+00	0	28	0	520093696	71	4447
2026-01-04 23:23:16.92	52.89	29.52	-53.2	-55.1	14.2	0.00e+00	0	28	0	527433728	71	4763
2026-01-04 23:23:20.95	53.92	30.03	-54.1	-56.3	13.9	0.00e+00	0	28	0	535822336	73	4892
2026-01-04 23:23:24.99	54.97	30.53	-53.9	-56.0	14.0	0.00e+00	0	28	0	543162368	73	4714
2026-01-04 23:23:29.02	56.06	31.03	-54.7	-57.1	13.6	0.00e+00	0	28	0	550502400	74	5050
2026-01-04 23:23:33.06	57.19	31.53	-55.9	-58.9	12.9	0.00e+00	0	28	0	557842432	77	5261
2026-01-04 23:23:37.10	58.35	32.03	-55.9	-58.8	13.0	0.00e+00	0	28	0	566231040	78	4923
2026-01-04 23:23:41.14	59.54	32.52	-56.0	-59.0	12.8	0.00e+00	0	28	0	573571072	77	5305
2026-01-04 23:23:45.17	60.77	33.01	-56.9	-60.6	12.0	7.00e-07	0	28	0	580911104	78	6045
2026-01-04 23:23:49.21	62.04	33.49	-55.9	-58.9	13.0	0.00e+00	0	28	0	588251136	78	4941
2026-01-04 23:23:53.24	63.34	33.96	-57.0	-60.9	11.8	7.00e-07	0	28	0	595591168	79	5872
2026-01-04 23:23:57.28	64.68	34.42	-56.8	-60.4	12.1	3.00e-06	0	28	0	603979776	80	5266
2026-01-04 23:24:01.31	66.05	34.87	-56.3	-59.5	12.6	0.00e+00	0	28	0	611319808	79	5040
2026-01-04 23:24:05.34	67.47	35.31	-57.1	-61.0	11.7	2.20e-06	0	28	0	618659840	79	5937
2026-01-04 23:24:09.36	68.91	35.73	-55.3	-57.9	13.5	0.00e+00	0	28	0	625999872	77	4675
2026-01-04 23:24:13.40	70.41	36.14	-55.9	-58.8	12.9	0.00e+00	0	28	0	634388480	76	5519
2026-01-04 23:24:17.42	71.93	36.53	-53.7	-55.7	14.3	0.00e+00	0	28	0	641728512	74	4293
2026-01-04 23:24:21.46	73.49	36.91	-54.1	-56.2	14.0	0.00e+00	0	28	0	649068544	73	4835
2026-01-04 23:24:25.49	75.09	37.26	-53.7	-55.7	14.3	0.00e+00	0	28	0	656408576	74	4337
2026-01-04 23:24:29.52	76.71	37.59	-53.4	-55.3	14.3	0.00e+00	0	28	0	663748608	72	4632
2026-01-04 23:24:33.56	78.38	37.91	-53.9	-55.9	14.1	0.00e+00	0	28	0	672137216	74	4433
2026-01-04 23:24:37.59	80.07	38.19	-54.6	-57.0	13.7	0.00e+00	0	28	0	679477248	74	4995
2026-01-04 23:24:41.63	81.79	38.45	-53.5	-55.4	14.4	0.00e+00	0	28	0	686817280	73	4407
2026-01-04 23:24:45.66	83.54	38.68	-54.2	-56.4	13.9	0.00e+00	0	28	0	694157312	73	4966
2026-01-04 23:24:49.70	85.31	38.89	-54.9	-57.4	13.6	0.00e+00	0	28	0	701497344	75	4937
2026-01-04 23:24:53.74	87.11	39.07	-53.9	-56.0	14.1	0.00e+00	0	28	0	709885952	73	4754
2026-01-04 23:24:57.77	88.92	39.21	-54.8	-57.2	13.5	0.00e+00	0	28	0	717225984	74	5141
2026-01-04 23:25:01.77	90.72	39.32	-55.0	-57.4	13.8	0.00e+00	0	28	0	724566016	76	4665
2026-01-04 23:25:05.81	92.56	39.41	-54.1	-56.2	14.0	0.00e+00	0	28	0	731906048	74	4570
2026-01-04 23:25:09.85	94.41	39.46	-56.5	-59.9	12.4	7.00e-07	0	28	0	739246080	78	5543
2026-01-04 23:25:13.88	96.25	39.47	-53.9	-55.9	14.2	0.00e+00	0	28	0	747634688	74	4395
2026-01-04 23:25:17.91	98.10	39.46	-52.9	-54.7	14.4	0.00e+00	0	28	0	754974720	71	4575
2026-01-04 23:25:21.95	99.94	39.41	-52.8	-54.5	14.5	0.00e+00	0	28	0	762314752	71	4490
2026-01-04 23:25:25.99	101.78	39.33	-53.8	-55.8	14.2	0.00e+00	0	28	0	769654784	74	4358
2026-01-04 23:25:30.02	103.60	39.22	-53.8	-55.9	14.1	0.00e+00	0	28	0	776994816	73	4669
2026-01-04 23:25:34.06	105.42	39.07	-54.3	-56.4	14.0	0.00e+00	0	28	0	785383424	74	4705
2026-01-04 23:25:38.09	107.21	38.90	-53.0	-54.8	14.4	0.00e+00	0	28	0	792723456	72	4387
2026-01-04 23:25:42.13	108.99	38.70	-53.7	-55.8	14.0	0.00e+00	0	28	0	800063488	72	4898
2026-01-04 23:25:46.17	110.74	38.46	-52.2	-53.8	14.7	0.00e+00	0	28	0	807403520	70	4384
2026-01-04 23:25:50.20	112.46	38.20	-52.0	-53.6	14.7	0.00e+00	0	28	0	815792128	70	4289
2026-01-04 23:25:54.24	114.16	37.92	-53.3	-55.3	14.2	0.00e+00	0	28	0	823132160	71	4882
2026-01-04 23:25:58.28	115.83	37.61	-52.4	-54.1	14.7	0.00e+00	0	28	0	830472192	71	4246
2026-01-04 23:26:02.31	117.47	37.28	-50.4	-51.8	14.9	0.00e+00	0	28	0	837812224	66	4352
2026-01-04 23:26:06.34	119.06	36.92	-52.4	-54.1	14.6	0.00e+00	0	28	0	845152256	70	4524
2026-01-04 23:26:10.37	120.63	36.55	-50.5	-51.9	15.0	0.00e+00	0	28	0	853540864	67	4157
2026-01-04 23:26:14.40	122.16	36.15	-50.1	-51.5	14.9	0.00e+00	0	28	0	860880896	65	4465
2026-01-04 23:26:18.43	123.65	35.74	-51.5	-53.0	14.8	0.00e+00	0	28	0	868220928	69	4231
2026-01-04 23:26:22.47	125.11	35.32	-53.1	-55.0	14.4	0.00e+00	0	28	0	875560960	72	4454
2026-01-04 23:26:26.50	126.53	34.88	-52.6	-54.3	14.5	0.00e+00	0	28	0	883949568	70	4604
2026-01-04 23:26:30.54	127.91	34.43	-54.0	-56.1	14.0	0.00e+00	0	28	0	891289600	73	4768
2026-01-04 23:26:34.57	129.25	33.97	-56.1	-59.2	12.7	0.00e+00	0	28	0	898629632	77	5424
2026-01-04 23:26:38.61	130.56	33.49	-54.3	-56.5	14.0	0.00e+00	0	28	0	905969664	75	4459
2026-01-04 23:26:42.63	131.83	33.01	-55.2	-57.7	13.5	0.00e+00	0	28	0	913309696	76	4848
2026-01-04 23:26:46.67	133.06	32.53	-58.3	-64.4	9.3	1.36e-03	0	28	0	921698304	81	7873
2026-01-04 23:26:50.71	134.26	32.03	-54.4	-56.7	13.9	0.00e+00	0	28	0	929038336	75	4566
2026-01-04 23:26:54.74	135.42	31.53	-56.2	-59.3	12.7	1.50e-06	0	28	0	936378368	78	5205
2026-01-04 23:26:58.76	136.55	31.03	-55.2	-57.8	13.4	0.00e+00	0	28	0	943718400	75	5192
2026-01-04 23:27:02.79	137.64	30.53	-54.7	-57.1	13.8	0.00e+00	0	28	0	951058432	76	4542
2026-01-04 23:27:06.82	138.70	30.02	-52.9	-54.7	14.3	0.00e+00	0	28	0	959447040	71	4564
2026-01-04 23:27:10.86	139.73	29.51	-54.4	-56.6	13.9	0.00e+00	0	28	0	966787072	75	4537
2026-01-04 23:27:14.89	140.73	29.00	-53.7	-55.8	14.0	0.00e+00	0	28	0	974127104	72	4896
2026-01-04 23:27:18.92	141.69	28.50	-52.5	-54.3	14.6	0.00e+00	0	28	0	981467136	71	4345
2026-01-04 23:27:22.96	142.63	27.99	-51.5	-53.1	14.7	0.00e+00	0	28	0	988807168	68	4523
2026-01-04 23:27:27.00	143.54	27.48	-52.2	-53.9	14.6	0.00e+00	0	28	0	997195776	70	4429
2026-01-04 23:27:31.03	144.42	26.98	-50.5	-51.9	15.0	0.00e+00	0	28	0	1004535808	67	4164
2026-01-04 23:27:35.06	145.28	26.48	-52.3	-54.0	14.6	0.00e+00	0	28	0	1011875840	70	4479
2026-01-04 23:27:39.10	146.11	25.98	-50.5	-51.9	14.9	0.00e+00	0	28	0	1019215872	67	4159
2026-01-04 23:27:43.14	146.91	25.48	-51.7	-53.3	14.6	0.00e+00	0	28	0	1027604480	68	4640
2026-01-04 23:27:47.18	147.69	24.99	-50.7	-52.1	15.0	0.00e+00	0	28	0	1034944512	68	4050
2026-01-04 23:27:51.22	148.45	24.50	-49.8	-51.1	15.0	0.00e+00	0	28	0	1042284544	65	4274
2026-01-04 23:27:55.25	149.18	24.02	-50.7	-52.2	14.8	0.00e+00	0	28	0	1049624576	66	4568
2026-01-04 23:27:59.28	149.89	23.54	-50.9	-52.4	14.8	0.00e+00	0	28	0	1056964608	67	4407
2026-01-04 23:28:03.32	150.59	23.06	-51.3	-52.8	14.6	0.00e+00	0	28	0	1065353216	67	4647
2026-01-04 23:28:07.36	151.26	22.59	-51.0	-52.5	14.7	0.00e+00	0	28	0	1072693248	67	4452
2026-01-04 23:28:11.39	151.91	22.13	-51.1	-52.6	14.7	0.00e+00	0	28	0	1080033280	67	4522
2026-01-04 23:28:15.43	152.55	21.66	-51.5	-53.1	14.7	0.00e+00	0	28	0	1087373312	68	4512
2026-01-04 23:28:19.46	153.16	21.21	-51.3	-52.9	14.7	0.00e+00	0	28	0	1094713344	68	4392
2026-01-04 23:28:23.50	153.76	20.76	-52.7	-54.6	14.3	0.00e+00	0	28	0	1103101952	70	4776
2026-01-04 23:28:27.54	154.34	20.31	-53.2	-55.2	14.1	0.00e+00	0	28	0	1110441984	71	4851
2026-01-04 23:28:31.58	154.91	19.87	-52.4	-54.2	14.5	0.00e+00	0	28	0	1117782016	71	4302
2026-01-04 23:28:35.61	155.46	19.43	-52.7	-54.6	14.3	0.00e+00	0	28	0	1125122048	71	4509
2026-01-04 23:28:39.64	155.99	19.00	-53.0	-54.9	14.2	0.00e+00	0	28	0	1133510656	71	4701
2026-01-04 23:28:43.67	156.51	18.58	-52.5	-54.2	14.5	0.00e+00	0	28	0	1140850688	71	4334
2026-01-04 23:28:47.72	157.02	18.16	-52.2	-54.0	14.5	0.00e+00	0	28	0	1148190720	70	4460
2026-01-04 23:28:51.74	157.52	17.74	-52.7	-54.5	14.3	0.00e+00	0	28	0	1155530752	70	4740
2026-01-04 23:28:55.77	158.00	17.33	-52.9	-54.8	14.3	0.00e+00	0	28	0	1162870784	71	4647
2026-01-04 23:28:59.80	158.47	16.93	-52.4	-54.3	14.5	0.00e+00	0	28	0	1171259392	71	4342
2026-01-04 23:29:03.84	158.92	16.52	-52.4	-54.2	14.4	0.00e+00	0	28	0	1178599424	70	4547
2026-01-04 23:29:07.87	159.37	16.13	-52.7	-54.5	14.3	0.00e+00	0	28	0	1185939456	70	4751
2026-01-04 23:29:11.90	159.80	15.74	-53.3	-55.4	14.0	0.00e+00	0	28	0	1193279488	71	4963
2026-01-04 23:29:15.94	160.23	15.35	-53.5	-55.6	14.0	0.00e+00	0	28	0	1201668096	72	4788
2026-01-04 23:29:19.96	160.64	14.97	-53.3	-55.3	14.1	0.00e+00	0	28	0	1209008128	72	4645
2026-01-04 23:29:24.00	161.04	14.59	-53.2	-55.2	14.2	0.00e+00	0	28	0	1216348160	72	4556
2026-01-04 23:29:28.04	161.44	14.22	-53.6	-55.7	13.9	0.00e+00	0	28	0	1223688192	72	4868
2026-01-04 23:29:32.07	161.82	13.85	-53.4	-55.5	14.0	0.00e+00	0	28	0	1231028224	72	4743
2026-01-04 23:29:36.10	162.20	13.49	-53.6	-55.8	13.9	0.00e+00	0	28	0	1239416832	72	4882
2026-01-04 23:29:40.14	162.57	13.13	-52.9	-54.8	14.3	0.00e+00	0	28	0	1246756864	72	4378
2026-01-04 23:29:44.18	162.93	12.78	-52.6	-54.6	14.2	0.00e+00	0	28	0	1254096896	71	4511
2026-01-04 23:29:48.21	163.28	12.42	-52.4	-54.3	14.5	0.00e+00	0	28	0	1261436928	71	4385
2026-01-04 23:29:52.25	163.62	12.08	-52.5	-54.5	14.3	0.00e+00	0	28	0	1268776960	70	4716
2026-01-04 23:29:56.28	163.95	11.74	-53.0	-55.0	14.2	0.00e+00	0	28	0	1277165568	71	4731
2026-01-04 23:30:00.31	164.28	11.40	-53.5	-55.7	13.9	0.00e+00	0	28	0	1284505600	72	4819
2026-01-04 23:30:04.35	164.60	11.06	-53.9	-56.3	13.6	0.00e+00	0	28	0	1291845632	72	5199
2026-01-04 23:30:08.39	164.92	10.73	-54.2	-56.8	13.4	0.00e+00	0	28	0	1299185664	73	5180
2026-01-04 23:30:12.43	165.23	10.40	-54.5	-57.1	13.3	0.00e+00	0	28	0	1306525696	74	5087
2026-01-04 23:30:16.46	165.53	10.08	-54.5	-57.1	13.3	0.00e+00	0	28	0	1314914304	74	5081
2026-01-04 23:30:20.49	165.82	9.76	-54.2	-56.7	13.6	0.00e+00	0	28	0	1322254336	74	4828
2026-01-04 23:30:24.52	166.11	9.44	-54.0	-56.4	13.7	0.00e+00	0	28	0	1329594368	74	4660
2026-01-04 23:30:28.56	166.39	9.13	-54.0	-56.4	13.7	0.00e+00	0	28	0	1336934400	74	4666
2026-01-04 23:30:32.60	166.67	8.82	-53.9	-56.3	13.8	0.00e+00	0	28	0	1345323008	74	4602
2026-01-04 23:30:36.63	166.94	8.51	-54.0	-56.5	13.6	0.00e+00	0	28	0	1352663040	74	4744
2026-01-04 23:30:40.67	167.21	8.21	-54.3	-56.9	13.3	0.00e+00	0	28	0	1360003072	74	4962
2026-01-04 23:30:44.71	167.47	7.91	-54.4	-57.1	13.2	0.00e+00	0	28	0	1367343104	74	5068
2026-01-04 23:30:48.75	167.73	7.61	-54.3	-57.0	13.3	0.00e+00	0	28	0	1374683136	74	4984
2026-01-04 23:30:52.78	167.98	7.31	-54.3	-57.0	13.3	0.00e+00	0	28	0	1383071744	74	5007
2026-01-04 23:30:56.81	168.23	7.02	-54.2	-56.8	13.4	0.00e+00	0	28	0	1390411776	74	4886
2026-01-04 23:31:00.84	168.47	6.74	-54.1	-56.7	13.4	0.00e+00	0	28	0	1397751808	74	4838
2026-01-04 23:31:04.87	168.71	6.45	-54.4	-57.2	13.1	0.00e+00	0	28	0	1405091840	74	5134
2026-01-04 23:31:08.91	168.94	6.17	-54.5	-57.3	13.0	0.00e+00	0	28	0	1412431872	74	5199
2026-01-04 23:31:12.95	169.17	5.89	-54.8	-57.8	12.8	0.00e+00	0	28	0	1420820480	74	5508
2026-01-04 23:31:16.98	169.40	5.61	-55.0	-58.2	12.5	0.00e+00	0	28	0	1428160512	75	5461
2026-01-04 23:31:21.01	169.62	5.33	-55.2	-58.7	12.2	1.50e-06	0	28	0	1435500544	75	5726
2026-01-04 23:31:25.05	169.84	5.06	-55.3	-58.9	12.1	1.50e-06	0	28	0	1442840576	75	5878
2026-01-04 23:31:29.08	170.05	4.79	-59.9	-75.9	3.8	1.49e+00	0	28	104	1444937728	84	24797
2026-01-04 23:31:33.12	170.26	4.52	-60.3	-76.4	3.8	1.49e+00	0	28	104	1444937728	85	24813
2026-01-04 23:31:37.15	170.47	4.26	-60.7	-76.8	3.8	1.49e+00	0	28	104	1444937728	86	24449
2026-01-04 23:31:41.19	170.67	3.99	-60.9	-76.9	3.9	1.49e+00	0	28	104	1444937728	86	24938
2026-01-04 23:31:45.22	170.87	3.73	-61.0	-77.1	3.8	1.49e+00	0	28	104	1444937728	87	23867
2026-01-04 23:31:49.26	171.07	3.47	-60.9	-77.0	3.8	1.49e+00	0	28	104	1444937728	87	23679
2026-01-04 23:31:53.29	171.26	3.22	-60.9	-77.0	3.8	1.49e+00	0	28	104	1444937728	87	23584
2026-01-04 23:31:57.33	171.45	2.96	-60.8	-76.9	3.8	1.49e+00	0	28	104	1444937728	87	23531
2026-01-04 23:32:01.36	171.64	2.71	-60.8	-76.9	3.8	1.49e+00	0	28	104	1444937728	87	23439
2026-01-04 23:32:05.40	171.82	2.46	-60.8	-76.9	3.8	1.49e+00	0	28	104	1444937728	87	23335
2026-01-04 23:32:09.44	172.00	2.21	-60.8	-76.9	3.8	1.49e+00	0	28	104	1444937728	87	23368
2026-01-04 23:32:13.47	172.18	1.97	-60.7	-76.8	3.8	1.49e+00	0	28	104	1444937728	87	23227

#Closed at: 2026-01-04 23:32:14
#Recorded file [1444 MB]: D:/lorett/data/31004_260105_021814.dat