passes_logs/2026/01/04/R3.2S_Murmansk/R3.2S_Murmansk__20260104_001338_AQUA_rec.log

#Pass ID: 20260104_001338_AQUA
#Satellite: AQUA
#Configuration: AQUA
#almurnet v.1.7.20251203
#Start time: 2026-01-04 00:13:40

#Version: 2.2.20231116
#Station: R3.2S_Murmansk
#Location: 33.079688 lon 68.888172 lat
#TLE: 1 27424U 02022A   25365.92641127  .00002078  00000+0  42628-3 0  9999
#TLE: 2 27424  98.4058 327.1196 0001962  94.7781 340.6230 14.61783896258835

#Time	Az	El	Level	Level2	SNR	BER	BlckErr	Temp	State	Recorded	gain1	gain2
2026-01-04 00:13:40.46	21.10	2.09	-58.4	-77.6	3.8	7.45e-01	0	28	0	0	86	31305
2026-01-04 00:13:43.46	21.33	2.27	-58.4	-77.2	3.8	7.45e-01	0	28	104	0	84	33390
2026-01-04 00:13:46.46	21.56	2.44	-58.4	-77.4	3.8	7.46e-01	0	28	104	0	84	34145
2026-01-04 00:13:49.46	21.79	2.61	-58.4	-77.7	3.8	7.43e-01	0	28	104	0	84	35522
2026-01-04 00:13:52.45	22.03	2.79	-58.4	-77.4	3.9	7.43e-01	0	28	104	0	84	34456
2026-01-04 00:13:55.44	22.27	2.97	-58.4	-76.6	3.8	7.45e-01	0	28	104	0	84	31127
2026-01-04 00:13:58.45	22.51	3.14	-58.3	-74.3	3.9	7.42e-01	0	28	104	0	84	24038
2026-01-04 00:14:01.45	22.76	3.32	-58.2	-72.2	4.9	7.13e-01	0	29	0	0	84	18797
2026-01-04 00:14:04.45	23.01	3.50	-58.2	-72.0	5.0	7.10e-01	0	29	0	0	84	18391
2026-01-04 00:14:07.45	23.26	3.68	-58.1	-69.5	6.5	6.69e-01	92	28	0	2621440	84	13881
2026-01-04 00:14:10.45	23.51	3.86	-57.5	-65.3	10.1	6.14e-01	0	29	0	8388608	84	8486
2026-01-04 00:14:13.45	23.77	4.05	-57.4	-64.8	10.5	6.08e-01	0	29	0	14155776	84	8008
2026-01-04 00:14:16.44	24.03	4.23	-55.6	-60.0	13.4	6.03e-01	0	29	0	19398656	80	5813
2026-01-04 00:14:19.44	24.30	4.41	-53.2	-55.8	14.9	6.01e-01	0	29	0	25165824	75	4795
2026-01-04 00:14:22.44	24.56	4.60	-52.5	-54.9	15.1	6.00e-01	0	29	0	30932992	73	4864
2026-01-04 00:14:25.43	24.84	4.78	-54.1	-57.3	14.4	6.02e-01	0	29	0	36175872	75	5698
2026-01-04 00:14:28.42	25.11	4.97	-56.2	-61.4	12.7	6.06e-01	0	29	0	41943040	80	6833
2026-01-04 00:14:31.41	25.39	5.16	-56.6	-62.4	12.0	6.04e-01	0	29	0	47710208	82	6879
2026-01-04 00:14:34.40	25.67	5.35	-57.1	-64.3	10.5	6.07e-01	0	29	0	52953088	83	8013
2026-01-04 00:14:37.39	25.96	5.53	-52.3	-54.4	15.3	6.03e-01	0	29	0	58720256	73	4582
2026-01-04 00:14:40.40	26.25	5.73	-52.2	-54.4	15.3	6.01e-01	0	29	0	64487424	73	4556
2026-01-04 00:14:43.39	26.54	5.92	-52.1	-54.3	15.3	6.01e-01	0	29	0	70254592	73	4497
2026-01-04 00:14:46.39	26.84	6.11	-52.1	-54.3	15.3	6.01e-01	0	29	0	75497472	73	4507
2026-01-04 00:14:49.40	27.14	6.31	-52.0	-54.2	15.3	6.01e-01	0	29	0	81264640	73	4461
2026-01-04 00:14:52.40	27.45	6.50	-51.8	-53.9	15.3	6.00e-01	0	29	0	87031808	72	4572
2026-01-04 00:14:55.39	27.76	6.70	-51.9	-54.0	15.3	6.03e-01	0	29	0	92798976	72	4620
2026-01-04 00:14:58.39	28.08	6.89	-51.8	-53.9	15.4	6.02e-01	0	29	0	98041856	72	4554
2026-01-04 00:15:01.38	28.40	7.09	-51.8	-53.9	15.4	5.99e-01	0	29	0	103809024	72	4561
2026-01-04 00:15:04.38	28.72	7.29	-51.7	-53.7	15.4	6.01e-01	0	29	0	109576192	72	4451
2026-01-04 00:15:07.37	29.05	7.49	-51.7	-53.8	15.4	6.02e-01	0	29	0	114819072	72	4501
2026-01-04 00:15:10.36	29.38	7.69	-51.6	-53.6	15.5	6.00e-01	0	29	0	120586240	72	4429
2026-01-04 00:15:13.35	29.72	7.89	-51.7	-53.7	15.4	6.01e-01	0	29	0	126353408	72	4477
2026-01-04 00:15:16.35	30.06	8.09	-51.6	-53.6	15.5	6.00e-01	0	29	0	131596288	72	4426
2026-01-04 00:15:19.34	30.41	8.30	-51.4	-53.3	15.4	6.01e-01	0	29	0	137363456	71	4535
2026-01-04 00:15:22.33	30.76	8.50	-51.6	-53.5	15.4	6.00e-01	0	29	0	143130624	71	4644
2026-01-04 00:15:25.33	31.12	8.71	-51.5	-53.4	15.4	5.99e-01	0	29	0	148897792	71	4578
2026-01-04 00:15:28.33	31.49	8.91	-51.2	-53.0	15.5	6.02e-01	0	29	0	154140672	71	4387
2026-01-04 00:15:31.31	31.85	9.12	-51.3	-53.2	15.5	6.01e-01	0	29	0	159907840	71	4470
2026-01-04 00:15:34.30	32.23	9.33	-51.2	-53.2	15.5	6.01e-01	0	29	0	165675008	71	4443
2026-01-04 00:15:37.30	32.61	9.54	-51.3	-53.2	15.5	5.99e-01	0	29	0	170917888	71	4483
2026-01-04 00:15:40.30	33.00	9.75	-51.2	-53.1	15.5	6.00e-01	0	29	0	176685056	71	4415
2026-01-04 00:15:43.31	33.39	9.96	-51.1	-52.9	15.5	6.03e-01	0	29	0	182452224	71	4331
2026-01-04 00:15:46.32	33.79	10.18	-51.0	-52.8	15.6	6.01e-01	0	29	0	188219392	71	4267
2026-01-04 00:15:49.32	34.19	10.39	-51.0	-52.9	15.5	6.00e-01	0	29	0	193986560	71	4300
2026-01-04 00:15:52.33	34.61	10.61	-51.0	-52.8	15.5	6.00e-01	0	29	0	199229440	70	4544
2026-01-04 00:15:55.34	35.03	10.82	-50.9	-52.7	15.5	5.98e-01	0	29	0	204996608	70	4492
2026-01-04 00:15:58.33	35.45	11.04	-50.8	-52.6	15.5	6.00e-01	0	29	0	210763776	70	4419
2026-01-04 00:16:01.27	35.87	11.25	-50.8	-52.6	15.6	5.98e-01	0	29	0	216006656	70	4411
2026-01-04 00:16:04.27	36.31	11.47	-50.7	-52.5	15.6	6.03e-01	0	29	0	221773824	70	4353
2026-01-04 00:16:07.27	36.75	11.69	-50.7	-52.4	15.6	6.01e-01	0	29	0	227540992	70	4340
2026-01-04 00:16:10.27	37.20	11.91	-50.7	-52.5	15.6	6.02e-01	0	29	0	232783872	70	4343
2026-01-04 00:16:13.26	37.66	12.13	-50.7	-52.4	15.6	6.03e-01	0	29	0	238551040	70	4336
2026-01-04 00:16:16.26	38.12	12.35	-50.5	-52.2	15.6	6.01e-01	0	29	0	244318208	70	4239
2026-01-04 00:16:19.26	38.60	12.57	-50.4	-52.1	15.6	6.00e-01	0	29	0	250085376	70	4189
2026-01-04 00:16:22.25	39.07	12.79	-50.3	-52.0	15.6	5.99e-01	0	29	0	255328256	69	4358
2026-01-04 00:16:25.23	39.56	13.01	-50.4	-52.1	15.6	5.99e-01	0	29	0	261095424	69	4429
2026-01-04 00:16:28.22	40.05	13.23	-50.4	-52.1	15.6	6.01e-01	0	29	0	266862592	69	4401
2026-01-04 00:16:31.22	40.55	13.46	-50.4	-52.1	15.6	6.01e-01	0	29	0	272105472	69	4420
2026-01-04 00:16:34.22	41.06	13.68	-50.3	-52.0	15.6	6.03e-01	0	29	0	277872640	69	4347
2026-01-04 00:16:37.22	41.58	13.90	-50.2	-51.9	15.6	6.04e-01	0	29	0	283639808	69	4325
2026-01-04 00:16:40.21	42.11	14.13	-50.2	-51.9	15.6	6.01e-01	0	29	0	289406976	69	4332
2026-01-04 00:16:43.21	42.64	14.35	-50.2	-51.9	15.6	6.00e-01	0	29	0	294649856	69	4328
2026-01-04 00:16:46.21	43.19	14.58	-50.2	-51.8	15.6	6.01e-01	0	29	0	300417024	69	4285
2026-01-04 00:16:49.20	43.74	14.80	-50.2	-51.8	15.7	6.02e-01	0	29	0	306184192	69	4277
2026-01-04 00:16:52.20	44.30	15.02	-50.1	-51.7	15.7	6.02e-01	0	29	0	311427072	69	4234
2026-01-04 00:16:55.20	44.87	15.25	-50.1	-51.7	15.7	6.00e-01	0	29	0	317194240	69	4240
2026-01-04 00:16:58.20	45.45	15.47	-50.0	-51.6	15.7	6.00e-01	0	29	0	322961408	69	4183
2026-01-04 00:17:01.19	46.03	15.70	-49.9	-51.6	15.7	6.02e-01	0	29	0	328204288	69	4149
2026-01-04 00:17:04.18	46.63	15.92	-50.1	-51.8	15.7	6.00e-01	0	29	0	333971456	69	4257
2026-01-04 00:17:07.18	47.24	16.14	-50.0	-51.7	15.7	6.01e-01	0	29	0	339738624	69	4195
2026-01-04 00:17:10.17	47.85	16.36	-50.1	-51.7	15.7	5.98e-01	0	29	0	345505792	69	4222
2026-01-04 00:17:13.17	48.48	16.58	-50.0	-51.6	15.6	6.00e-01	0	29	0	350748672	68	4418
2026-01-04 00:17:16.17	49.11	16.80	-49.9	-51.5	15.6	6.03e-01	0	29	0	356515840	68	4376
2026-01-04 00:17:19.15	49.75	17.02	-50.1	-51.7	15.6	6.01e-01	0	29	0	362283008	68	4493
2026-01-04 00:17:22.15	50.41	17.24	-49.9	-51.5	15.6	6.01e-01	0	29	0	367525888	68	4365
2026-01-04 00:17:25.13	51.07	17.45	-50.0	-51.6	15.6	5.98e-01	0	29	0	373293056	68	4426
2026-01-04 00:17:28.11	51.74	17.67	-50.0	-51.6	15.6	6.01e-01	0	29	0	379060224	68	4427
2026-01-04 00:17:31.10	52.42	17.88	-49.9	-51.5	15.6	6.01e-01	0	29	0	384303104	68	4391
2026-01-04 00:17:34.09	53.11	18.09	-49.9	-51.5	15.6	5.99e-01	0	29	0	390070272	68	4378
2026-01-04 00:17:37.10	53.82	18.30	-50.0	-51.7	15.6	5.98e-01	0	29	0	395837440	68	4457
2026-01-04 00:17:40.10	54.53	18.51	-49.9	-51.6	15.6	6.00e-01	0	29	0	401604608	68	4395
2026-01-04 00:17:43.10	55.25	18.72	-50.1	-51.7	15.6	5.99e-01	0	29	0	406847488	68	4484
2026-01-04 00:17:46.10	55.99	18.92	-50.2	-51.8	15.5	5.99e-01	0	29	0	412614656	68	4517
2026-01-04 00:17:49.09	56.73	19.12	-50.0	-51.6	15.6	6.01e-01	0	29	0	418381824	68	4407
2026-01-04 00:17:52.09	57.49	19.32	-50.2	-51.8	15.5	6.00e-01	0	29	0	424148992	68	4539
2026-01-04 00:17:55.08	58.25	19.51	-50.3	-52.0	15.5	6.01e-01	0	29	0	429391872	68	4609
2026-01-04 00:17:58.08	59.02	19.70	-50.0	-51.7	15.6	6.01e-01	0	29	0	435159040	68	4452
2026-01-04 00:18:01.07	59.81	19.89	-50.1	-51.8	15.6	6.01e-01	0	29	0	440926208	68	4499
2026-01-04 00:18:04.07	60.60	20.07	-50.1	-51.7	15.6	6.01e-01	0	29	0	446169088	68	4471
2026-01-04 00:18:07.06	61.40	20.25	-50.2	-51.8	15.5	6.00e-01	0	29	0	451936256	68	4529
2026-01-04 00:18:10.04	62.21	20.43	-50.3	-52.0	15.5	6.00e-01	0	29	0	457703424	68	4628
2026-01-04 00:18:13.05	63.04	20.60	-50.2	-51.9	15.5	6.01e-01	0	29	0	462946304	68	4550
2026-01-04 00:18:16.05	63.87	20.77	-50.4	-52.0	15.5	6.04e-01	0	29	0	468713472	68	4640
2026-01-04 00:18:19.04	64.71	20.93	-50.4	-52.1	15.5	6.03e-01	0	29	0	474480640	68	4688
2026-01-04 00:18:22.03	65.56	21.09	-50.2	-51.9	15.5	6.03e-01	0	29	0	480247808	68	4547
2026-01-04 00:18:25.03	66.42	21.24	-50.4	-52.0	15.5	6.01e-01	0	29	0	485490688	68	4646
2026-01-04 00:18:28.02	67.29	21.39	-50.3	-51.9	15.5	5.99e-01	0	29	0	491257856	68	4577
2026-01-04 00:18:31.02	68.17	21.53	-50.4	-52.0	15.5	6.02e-01	0	29	0	497025024	68	4646
2026-01-04 00:18:34.00	69.05	21.67	-50.4	-52.1	15.5	6.03e-01	0	28	0	502267904	68	4658
2026-01-04 00:18:36.98	69.94	21.80	-50.4	-52.1	15.5	5.99e-01	0	29	0	508035072	68	4667
2026-01-04 00:18:39.98	70.84	21.92	-50.3	-51.9	15.5	6.02e-01	0	29	0	513802240	68	4585
2026-01-04 00:18:42.97	71.75	22.04	-50.5	-52.2	15.5	6.02e-01	0	29	0	519569408	68	4731
2026-01-04 00:18:45.97	72.67	22.15	-50.3	-52.0	15.5	6.01e-01	0	29	0	524812288	68	4624
2026-01-04 00:18:48.96	73.59	22.26	-50.4	-52.1	15.5	5.98e-01	0	29	0	530579456	68	4679
2026-01-04 00:18:51.96	74.51	22.36	-50.3	-52.0	15.5	6.00e-01	0	29	0	536346624	68	4601
2026-01-04 00:18:54.96	75.45	22.45	-50.3	-52.0	15.5	6.01e-01	0	29	0	541589504	68	4611
2026-01-04 00:18:57.97	76.39	22.53	-50.5	-52.2	15.5	6.00e-01	0	29	0	547356672	68	4752
2026-01-04 00:19:00.97	77.34	22.61	-50.5	-52.2	15.4	6.01e-01	0	29	0	553123840	68	4717
2026-01-04 00:19:03.96	78.29	22.68	-50.4	-52.1	15.5	6.02e-01	0	29	0	558891008	68	4682
2026-01-04 00:19:06.95	79.24	22.74	-50.2	-51.9	15.5	6.00e-01	0	29	0	564133888	68	4561
2026-01-04 00:19:09.94	80.20	22.79	-50.5	-52.2	15.5	6.01e-01	0	29	0	569901056	68	4754
2026-01-04 00:19:12.94	81.16	22.84	-50.7	-52.5	15.5	6.00e-01	0	29	0	575668224	69	4601
2026-01-04 00:19:15.94	82.12	22.88	-50.4	-52.1	15.6	5.98e-01	0	29	0	580911104	69	4419
2026-01-04 00:19:18.95	83.09	22.91	-50.2	-51.8	15.7	6.02e-01	0	29	0	586678272	69	4256
2026-01-04 00:19:21.94	84.06	22.93	-50.3	-51.9	15.6	6.03e-01	0	29	0	592445440	69	4320
2026-01-04 00:19:24.94	85.03	22.95	-50.4	-52.0	15.6	6.00e-01	0	29	0	598212608	69	4385
2026-01-04 00:19:27.93	85.99	22.95	-50.3	-51.9	15.6	5.99e-01	0	29	0	603455488	69	4315
2026-01-04 00:19:30.92	86.96	22.95	-50.2	-51.9	15.6	6.04e-01	0	29	0	609222656	69	4303
2026-01-04 00:19:33.92	87.93	22.94	-50.4	-52.1	15.6	6.02e-01	0	29	0	614989824	69	4398
2026-01-04 00:19:36.91	88.90	22.92	-50.3	-52.0	15.6	6.00e-01	0	29	0	620232704	69	4345
2026-01-04 00:19:39.90	89.86	22.90	-50.2	-51.8	15.6	5.99e-01	0	29	0	625999872	69	4290
2026-01-04 00:19:42.90	90.83	22.86	-50.3	-51.9	15.6	6.01e-01	0	29	0	631767040	69	4317
2026-01-04 00:19:45.88	91.79	22.82	-50.1	-51.7	15.7	6.01e-01	0	29	0	637009920	69	4230
2026-01-04 00:19:48.87	92.75	22.77	-50.2	-51.8	15.7	6.01e-01	0	29	0	642777088	69	4276
2026-01-04 00:19:51.86	93.70	22.72	-50.2	-51.9	15.6	6.03e-01	0	29	0	648544256	69	4295
2026-01-04 00:19:54.86	94.66	22.65	-50.2	-51.8	15.7	5.99e-01	0	29	0	654311424	69	4262
2026-01-04 00:19:57.85	95.60	22.58	-50.2	-51.8	15.7	6.01e-01	0	29	0	659554304	69	4279
2026-01-04 00:20:00.84	96.55	22.50	-50.1	-51.7	15.7	6.01e-01	0	29	0	665321472	69	4208
2026-01-04 00:20:03.84	97.49	22.41	-50.2	-51.8	15.7	6.01e-01	0	29	0	671088640	69	4253
2026-01-04 00:20:06.84	98.42	22.32	-50.1	-51.7	15.7	6.00e-01	0	29	0	676331520	69	4213
2026-01-04 00:20:09.83	99.35	22.22	-50.2	-51.8	15.7	6.02e-01	0	29	0	682098688	69	4272
2026-01-04 00:20:12.83	100.27	22.11	-50.0	-51.6	15.7	6.01e-01	0	29	0	687865856	69	4181
2026-01-04 00:20:15.83	101.18	21.99	-50.2	-51.8	15.7	5.99e-01	0	29	0	693633024	69	4282
2026-01-04 00:20:18.83	102.09	21.87	-50.3	-51.9	15.6	6.01e-01	0	29	0	698875904	69	4327
2026-01-04 00:20:21.82	102.99	21.74	-50.0	-51.6	15.7	6.01e-01	0	29	0	704643072	69	4186
2026-01-04 00:20:24.81	103.88	21.61	-50.0	-51.6	15.8	5.99e-01	0	29	0	710410240	69	4151
2026-01-04 00:20:27.80	104.76	21.47	-50.1	-51.7	15.7	6.01e-01	0	29	0	715653120	69	4218
2026-01-04 00:20:30.80	105.64	21.33	-49.9	-51.5	15.7	5.99e-01	0	29	0	721420288	69	4132
2026-01-04 00:20:33.79	106.51	21.18	-49.9	-51.5	15.8	6.04e-01	0	29	0	727187456	69	4133
2026-01-04 00:20:36.79	107.37	21.02	-50.1	-51.7	15.7	6.01e-01	0	29	0	732954624	69	4208
2026-01-04 00:20:39.78	108.21	20.86	-49.9	-51.5	15.7	6.02e-01	0	29	0	738197504	69	4139
2026-01-04 00:20:42.78	109.06	20.69	-50.0	-51.7	15.7	6.01e-01	0	29	0	743964672	69	4196
2026-01-04 00:20:45.77	109.89	20.52	-50.2	-51.8	15.7	6.03e-01	0	29	0	749731840	69	4288
2026-01-04 00:20:48.77	110.71	20.35	-49.8	-51.4	15.7	6.01e-01	0	29	0	754974720	68	4324
2026-01-04 00:20:51.77	111.52	20.17	-49.9	-51.5	15.7	5.99e-01	0	29	0	760741888	68	4343
2026-01-04 00:20:54.77	112.32	19.99	-49.9	-51.6	15.6	6.00e-01	0	29	0	766509056	68	4398
2026-01-04 00:20:57.76	113.12	19.80	-49.8	-51.4	15.7	6.01e-01	0	29	0	772276224	68	4309
2026-01-04 00:21:00.75	113.90	19.61	-49.8	-51.4	15.7	6.01e-01	0	29	0	777519104	68	4314
2026-01-04 00:21:03.75	114.67	19.42	-50.0	-51.6	15.6	6.02e-01	0	29	0	783286272	68	4397
2026-01-04 00:21:06.75	115.43	19.22	-49.7	-51.3	15.7	6.01e-01	0	29	0	789053440	68	4257
2026-01-04 00:21:09.75	116.19	19.02	-49.8	-51.4	15.7	6.01e-01	0	29	0	794296320	68	4323
2026-01-04 00:21:12.75	116.93	18.82	-49.8	-51.4	15.7	6.03e-01	0	29	0	800063488	68	4334
2026-01-04 00:21:15.74	117.66	18.61	-49.8	-51.5	15.7	6.01e-01	0	29	0	805830656	68	4344
2026-01-04 00:21:18.75	118.38	18.40	-49.8	-51.4	15.7	6.00e-01	0	29	0	811597824	68	4339
2026-01-04 00:21:21.75	119.10	18.19	-49.8	-51.4	15.7	5.99e-01	0	29	0	816840704	68	4300
2026-01-04 00:21:24.74	119.80	17.98	-49.8	-51.4	15.7	6.02e-01	0	29	0	822607872	68	4296
2026-01-04 00:21:27.74	120.49	17.77	-49.7	-51.3	15.7	6.00e-01	0	29	0	828375040	68	4283
2026-01-04 00:21:30.73	121.17	17.55	-49.7	-51.3	15.7	6.00e-01	0	29	0	833617920	68	4270
2026-01-04 00:21:33.72	121.84	17.34	-49.8	-51.4	15.7	6.00e-01	0	29	0	839385088	68	4302
2026-01-04 00:21:36.71	122.50	17.12	-49.8	-51.4	15.7	6.00e-01	0	29	0	845152256	68	4333
2026-01-04 00:21:39.71	123.15	16.90	-49.7	-51.3	15.7	6.02e-01	0	29	0	850919424	68	4258
2026-01-04 00:21:42.70	123.79	16.68	-49.7	-51.3	15.7	6.01e-01	0	29	0	856162304	68	4258
2026-01-04 00:21:45.70	124.42	16.46	-49.8	-51.4	15.7	5.99e-01	0	29	0	861929472	68	4325
2026-01-04 00:21:48.70	125.05	16.23	-49.8	-51.4	15.6	6.00e-01	0	29	0	867696640	68	4339
2026-01-04 00:21:51.69	125.66	16.01	-49.6	-51.2	15.7	6.01e-01	0	29	0	872939520	68	4232
2026-01-04 00:21:54.68	126.26	15.79	-49.6	-51.2	15.7	6.03e-01	0	29	0	878706688	68	4234
2026-01-04 00:21:57.69	126.86	15.56	-49.7	-51.3	15.7	6.02e-01	0	29	0	884473856	68	4288
2026-01-04 00:22:00.69	127.45	15.33	-49.8	-51.4	15.6	6.01e-01	0	29	0	890241024	68	4309
2026-01-04 00:22:03.68	128.02	15.11	-49.8	-51.4	15.7	6.01e-01	0	29	0	895483904	68	4304
2026-01-04 00:22:06.68	128.59	14.88	-49.7	-51.4	15.7	5.99e-01	0	29	0	901251072	68	4296
2026-01-04 00:22:09.69	129.15	14.66	-49.7	-51.3	15.7	6.00e-01	0	29	0	907018240	68	4270
2026-01-04 00:22:12.68	129.70	14.43	-49.8	-51.4	15.7	6.03e-01	0	29	0	912261120	68	4312
2026-01-04 00:22:15.70	130.24	14.20	-49.7	-51.3	15.6	6.01e-01	0	29	0	918028288	68	4277
2026-01-04 00:22:18.69	130.77	13.98	-49.8	-51.4	15.6	6.03e-01	0	29	0	923795456	68	4332
2026-01-04 00:22:21.68	131.30	13.75	-49.9	-51.6	15.6	6.00e-01	0	29	0	929562624	68	4415
2026-01-04 00:22:24.68	131.81	13.53	-49.9	-51.5	15.6	6.05e-01	0	29	0	934805504	68	4385
2026-01-04 00:22:27.67	132.32	13.30	-49.9	-51.6	15.6	6.01e-01	0	29	0	940572672	68	4416
2026-01-04 00:22:30.65	132.82	13.08	-49.9	-51.5	15.6	6.01e-01	0	29	0	946339840	68	4380
2026-01-04 00:22:33.63	133.31	12.86	-49.9	-51.6	15.6	6.02e-01	0	29	0	951582720	68	4411
2026-01-04 00:22:36.63	133.79	12.63	-49.8	-51.5	15.6	6.01e-01	0	29	0	957349888	68	4364
2026-01-04 00:22:39.61	134.27	12.41	-50.0	-51.7	15.6	5.98e-01	0	29	0	963117056	68	4450
2026-01-04 00:22:42.61	134.74	12.19	-50.0	-51.7	15.6	5.99e-01	0	29	0	968884224	68	4451
2026-01-04 00:22:45.61	135.20	11.97	-50.0	-51.7	15.5	6.00e-01	0	29	0	974127104	68	4483
2026-01-04 00:22:48.60	135.65	11.75	-50.1	-51.9	15.5	6.00e-01	0	29	0	979894272	68	4551
2026-01-04 00:22:51.60	136.10	11.53	-50.1	-51.9	15.5	6.00e-01	0	29	0	985661440	68	4552
2026-01-04 00:22:54.59	136.54	11.31	-50.1	-51.9	15.5	6.02e-01	0	29	0	990904320	68	4549
2026-01-04 00:22:57.58	136.98	11.09	-50.2	-52.0	15.5	6.00e-01	0	29	0	996671488	68	4608
2026-01-04 00:23:00.58	137.40	10.87	-50.2	-51.9	15.5	6.00e-01	0	29	0	1002438656	68	4586
2026-01-04 00:23:03.58	137.83	10.65	-50.2	-52.0	15.5	6.01e-01	0	29	0	1007681536	68	4600
2026-01-04 00:23:06.56	138.24	10.44	-50.2	-51.9	15.5	6.01e-01	0	29	0	1013448704	68	4584
2026-01-04 00:23:09.56	138.65	10.22	-50.3	-52.0	15.4	6.01e-01	0	29	0	1019215872	68	4639
2026-01-04 00:23:12.55	139.05	10.01	-50.4	-52.2	15.4	6.01e-01	0	29	0	1024983040	68	4706
2026-01-04 00:23:15.55	139.44	9.79	-50.5	-52.3	15.4	6.00e-01	0	29	0	1030225920	68	4780
2026-01-04 00:23:18.54	139.83	9.58	-50.6	-52.4	15.4	6.00e-01	0	29	0	1035993088	69	4591
2026-01-04 00:23:21.53	140.22	9.37	-50.5	-52.3	15.4	6.03e-01	0	29	0	1041760256	69	4525
2026-01-04 00:23:24.52	140.59	9.16	-50.5	-52.4	15.4	5.99e-01	0	29	0	1047003136	69	4553
2026-01-04 00:23:27.51	140.97	8.95	-50.7	-52.6	15.4	6.01e-01	0	29	0	1052770304	69	4662
2026-01-04 00:23:30.50	141.33	8.74	-50.6	-52.5	15.4	6.02e-01	0	29	0	1058537472	69	4603
2026-01-04 00:23:33.49	141.69	8.54	-50.6	-52.5	15.3	6.03e-01	0	29	0	1063780352	69	4621
2026-01-04 00:23:36.48	142.05	8.33	-50.7	-52.6	15.3	6.00e-01	0	29	0	1069547520	69	4673
2026-01-04 00:23:39.47	142.40	8.12	-50.6	-52.5	15.3	6.00e-01	0	29	0	1075314688	69	4620
2026-01-04 00:23:42.45	142.74	7.92	-50.7	-52.6	15.3	6.01e-01	0	29	0	1080557568	69	4668
2026-01-04 00:23:45.45	143.09	7.72	-50.9	-52.8	15.2	6.01e-01	0	29	0	1086324736	69	4803
2026-01-04 00:23:48.45	143.42	7.51	-50.9	-52.8	15.3	6.01e-01	0	29	0	1092091904	69	4801
2026-01-04 00:23:51.44	143.75	7.31	-51.0	-53.0	15.2	6.01e-01	0	29	0	1097859072	69	4908
2026-01-04 00:23:54.43	144.08	7.11	-51.1	-53.1	15.3	6.02e-01	0	29	0	1103101952	70	4673
2026-01-04 00:23:57.43	144.40	6.91	-51.3	-53.4	15.2	6.01e-01	0	29	0	1108869120	70	4838
2026-01-04 00:24:00.43	144.72	6.71	-51.2	-53.3	15.3	6.02e-01	0	29	0	1114636288	70	4775
2026-01-04 00:24:03.43	145.03	6.52	-51.3	-53.4	15.2	5.99e-01	0	29	0	1120403456	70	4831
2026-01-04 00:24:06.42	145.34	6.32	-51.2	-53.3	15.2	6.02e-01	0	29	0	1125646336	70	4792
2026-01-04 00:24:09.41	145.65	6.12	-51.3	-53.5	15.2	5.99e-01	0	29	0	1131413504	70	4871
2026-01-04 00:24:12.40	145.95	5.93	-51.3	-53.4	15.2	5.99e-01	0	29	0	1137180672	70	4833
2026-01-04 00:24:15.41	146.24	5.74	-51.5	-53.6	15.1	6.03e-01	0	29	0	1142423552	70	4970
2026-01-04 00:24:18.40	146.53	5.54	-51.5	-53.6	15.1	6.01e-01	0	29	0	1148190720	70	4959
2026-01-04 00:24:21.42	146.82	5.35	-51.3	-53.4	15.3	6.02e-01	0	29	0	1153957888	71	4597
2026-01-04 00:24:24.41	147.11	5.16	-51.5	-53.7	15.2	6.01e-01	0	29	0	1159725056	71	4736
2026-01-04 00:24:27.41	147.39	4.97	-58.6	-77.6	3.7	7.43e-01	0	29	104	1164443648	85	32964
2026-01-04 00:24:30.40	147.66	4.78	-59.6	-78.9	3.9	7.45e-01	0	29	104	1164443648	86	36371
2026-01-04 00:24:33.40	147.94	4.59	-60.0	-79.3	3.8	7.46e-01	0	29	104	1164443648	87	36036
2026-01-04 00:24:36.39	148.21	4.41	-60.3	-79.6	3.8	7.47e-01	0	29	104	1164443648	88	35213
2026-01-04 00:24:39.39	148.47	4.22	-60.5	-79.9	3.8	7.46e-01	0	29	104	1164443648	88	36111
2026-01-04 00:24:42.39	148.73	4.04	-60.7	-80.1	3.9	7.49e-01	0	29	104	1164443648	89	35032
2026-01-04 00:24:45.38	148.99	3.85	-60.8	-80.2	3.8	7.49e-01	0	29	104	1164443648	89	35301
2026-01-04 00:24:48.38	149.25	3.67	-60.8	-80.2	3.8	7.47e-01	0	29	104	1164443648	89	35453
2026-01-04 00:24:51.37	149.50	3.49	-60.7	-80.1	3.8	7.45e-01	0	29	104	1164443648	89	34987
2026-01-04 00:24:54.37	149.75	3.31	-60.7	-80.1	3.8	7.48e-01	0	29	104	1164443648	89	34883
2026-01-04 00:24:57.37	149.99	3.13	-60.7	-80.0	3.8	7.46e-01	0	29	104	1164443648	89	34800
2026-01-04 00:25:00.37	150.24	2.95	-60.6	-80.0	3.8	7.45e-01	0	29	104	1164443648	89	34700
2026-01-04 00:25:03.38	150.48	2.77	-60.6	-80.0	3.8	7.49e-01	0	29	104	1164443648	89	34671
2026-01-04 00:25:06.37	150.71	2.59	-60.6	-80.0	3.8	7.44e-01	0	29	104	1164443648	89	34551
2026-01-04 00:25:09.37	150.95	2.42	-60.6	-80.0	3.8	7.48e-01	0	29	104	1164443648	89	34532
2026-01-04 00:25:12.36	151.18	2.24	-60.6	-79.9	3.8	7.44e-01	0	29	104	1164443648	89	34456
2026-01-04 00:25:15.36	151.41	2.07	-60.6	-79.9	3.8	7.46e-01	0	29	104	1164443648	89	34476
2026-01-04 00:25:18.37	151.63	1.89	-60.6	-79.9	3.8	7.43e-01	0	29	104	1164443648	89	34363

#Closed at: 2026-01-04 00:25:18
#Recorded file [1164 MB]: D:/lorett/data/31004_260104_031340.dat