passes_logs/2026/01/04/R3.2S_Murmansk/R3.2S_Murmansk__20260104_195840_TY-42_rec.log

#Pass ID: 20260104_195840_TY-42
#Satellite: TY-42
#Configuration: TY-42_900M
#almurnet v.1.7.20251203
#Start time: 2026-01-04 19:58:41

#Version: 2.2.20231116
#Station: R3.2S_Murmansk
#Location: 33.079688 lon 68.888172 lat
#TLE: 1 64048U 25103A   26004.62913194  .00008006  00000-0  38191-3 0 09999
#TLE: 2 64048 097.4104 080.2420 0001638 091.3072 286.8001 15.19153636 35244

#Time	Az	El	Level	Level2	SNR	BER	BlckErr	Temp	State	Recorded	gain1	gain2
2026-01-04 19:58:41.34	189.97	2.06	-58.2	-61.5	6.1	0.00e+00	0	33	0	0	83	20669
2026-01-04 19:58:44.32	190.15	2.26	-58.4	-61.6	6.1	0.00e+00	0	33	104	0	84	19893
2026-01-04 19:58:47.32	190.33	2.46	-58.4	-61.7	6.1	0.00e+00	0	33	104	0	84	19939
2026-01-04 19:58:50.30	190.52	2.66	-58.4	-61.6	6.2	0.00e+00	0	33	104	0	84	19909
2026-01-04 19:58:53.30	190.71	2.86	-58.4	-61.7	6.2	0.00e+00	0	33	104	0	84	19955
2026-01-04 19:58:56.28	190.90	3.07	-58.4	-61.7	6.2	0.00e+00	0	34	104	0	84	19967
2026-01-04 19:58:59.28	191.10	3.28	-58.4	-61.7	6.2	0.00e+00	0	34	104	0	84	19980
2026-01-04 19:59:02.27	191.30	3.49	-58.4	-61.7	6.2	0.00e+00	0	34	104	0	84	20012
2026-01-04 19:59:05.29	191.51	3.70	-58.4	-61.7	6.2	0.00e+00	0	34	104	0	84	19950
2026-01-04 19:59:08.29	191.71	3.92	-58.4	-61.7	6.2	0.00e+00	0	34	104	0	84	19998
2026-01-04 19:59:11.30	191.93	4.13	-58.5	-61.7	6.2	0.00e+00	0	34	104	0	84	20042
2026-01-04 19:59:14.32	192.14	4.35	-58.5	-61.7	6.2	0.00e+00	0	34	104	0	84	20088
2026-01-04 19:59:17.32	192.36	4.57	-58.5	-61.7	6.1	0.00e+00	0	34	104	0	84	20029
2026-01-04 19:59:20.31	192.59	4.80	-58.5	-61.7	6.1	0.00e+00	0	35	104	0	84	20102
2026-01-04 19:59:23.31	192.81	5.02	-58.5	-61.7	6.2	0.00e+00	0	35	104	0	84	20110
2026-01-04 19:59:26.30	193.04	5.25	-58.5	-61.7	6.2	0.00e+00	0	35	104	0	84	20119
2026-01-04 19:59:29.28	193.28	5.48	-55.1	-56.6	7.0	0.00e+00	0	35	104	0	76	17604
2026-01-04 19:59:32.28	193.52	5.71	-51.6	-52.4	8.6	0.00e+00	0	35	104	0	70	15429
2026-01-04 19:59:35.27	193.76	5.94	-46.3	-46.7	11.2	2.55e-01	0	36	0	268435456	59	15032
2026-01-04 19:59:38.26	194.01	6.18	-45.0	-45.3	11.8	1.31e-01	0	37	0	603979776	57	14318
2026-01-04 19:59:41.25	194.27	6.41	-43.0	-43.3	12.4	1.80e-02	0	37	0	947912704	53	14377
2026-01-04 19:59:44.22	194.52	6.65	-42.9	-43.2	12.4	1.80e-02	0	37	0	1275068416	52	14968
2026-01-04 19:59:47.19	194.79	6.90	-42.9	-43.2	12.4	1.08e-02	0	37	0	1610612736	52	14972
2026-01-04 19:59:50.18	195.06	7.14	-42.6	-42.9	12.5	1.11e-02	0	37	0	1946157056	52	14578
2026-01-04 19:59:53.15	195.33	7.39	-42.5	-42.8	12.6	9.51e-03	0	38	0	2281701376	52	14351
2026-01-04 19:59:56.13	195.61	7.64	-42.4	-42.6	12.6	8.91e-03	0	38	0	2617245696	52	14110
2026-01-04 19:59:59.11	195.89	7.89	-42.3	-42.6	12.6	8.16e-03	0	38	0	2952790016	51	14855
2026-01-04 20:00:02.10	196.18	8.15	-42.2	-42.5	12.6	7.46e-03	0	38	0	3288334336	51	14725
2026-01-04 20:00:05.10	196.48	8.41	-41.9	-42.2	12.7	5.76e-03	0	38	0	3632267264	51	14254
2026-01-04 20:00:08.10	196.79	8.68	-41.9	-42.2	12.7	5.07e-03	0	38	0	3967811584	51	14245
2026-01-04 20:00:11.09	197.10	8.94	-41.9	-42.1	12.7	4.95e-03	0	38	0	4294967296	50	14933
2026-01-04 20:00:14.10	197.42	9.21	-41.9	-42.2	12.7	4.63e-03	0	39	0	4638900224	50	15061
2026-01-04 20:00:17.08	197.75	9.49	-41.7	-42.0	12.8	4.53e-03	0	38	0	4974444544	50	14618
2026-01-04 20:00:20.08	198.08	9.76	-41.6	-41.9	12.8	3.97e-03	0	39	0	5309988864	50	14444
2026-01-04 20:00:23.05	198.42	10.04	-41.5	-41.8	12.8	3.69e-03	0	39	0	5645533184	50	14307
2026-01-04 20:00:26.03	198.77	10.32	-41.5	-41.8	12.9	3.15e-03	0	39	0	5981077504	50	14280
2026-01-04 20:00:29.02	199.12	10.61	-41.1	-41.4	12.9	3.11e-03	0	39	0	6316621824	49	14535
2026-01-04 20:00:32.01	199.49	10.90	-41.1	-41.3	13.0	2.38e-03	0	39	0	6652166144	49	14426
2026-01-04 20:00:35.00	199.86	11.19	-41.1	-41.3	13.0	1.46e-03	0	39	0	6996099072	49	14429
2026-01-04 20:00:38.00	200.24	11.49	-40.7	-41.0	13.0	1.32e-03	0	39	0	7331643392	48	14742
2026-01-04 20:00:40.98	200.63	11.79	-40.6	-40.9	13.0	1.34e-03	0	39	0	7658799104	48	14470
2026-01-04 20:00:43.98	201.03	12.10	-40.5	-40.8	13.1	1.44e-03	0	40	0	8002732032	48	14275
2026-01-04 20:00:46.98	201.44	12.41	-40.4	-40.7	13.1	3.15e-03	0	40	0	8338276352	48	14187
2026-01-04 20:00:49.95	201.86	12.72	-39.6	-39.9	13.0	3.24e-03	0	40	0	8673820672	46	14472
2026-01-04 20:00:52.94	202.29	13.04	-39.7	-39.9	13.0	2.65e-03	0	40	0	9009364992	46	14548
2026-01-04 20:00:55.93	202.74	13.36	-39.6	-39.9	13.0	2.86e-03	0	40	0	9344909312	46	14546
2026-01-04 20:00:58.93	203.19	13.69	-39.5	-39.8	13.1	2.89e-03	0	40	0	9680453632	46	14383
2026-01-04 20:01:01.93	203.66	14.02	-39.2	-39.5	13.1	2.86e-03	0	40	0	10015997952	45	14693
2026-01-04 20:01:04.91	204.13	14.35	-39.1	-39.4	13.1	2.13e-03	0	40	0	10359930880	45	14461
2026-01-04 20:01:07.90	204.62	14.69	-38.9	-39.2	13.2	1.85e-03	0	40	0	10695475200	45	14161
2026-01-04 20:01:10.88	205.12	15.03	-38.7	-39.0	13.2	1.58e-03	0	40	0	11022630912	44	14689
2026-01-04 20:01:13.87	205.64	15.38	-38.6	-38.9	13.2	1.87e-03	0	40	0	11366563840	44	14476
2026-01-04 20:01:16.86	206.17	15.73	-38.5	-38.8	13.2	1.03e-03	0	40	0	11702108160	44	14371
2026-01-04 20:01:19.85	206.72	16.09	-38.3	-38.6	13.2	1.15e-03	0	40	0	12037652480	43	14828
2026-01-04 20:01:22.81	207.27	16.45	-38.2	-38.4	13.3	9.25e-04	0	40	0	12364808192	43	14592
2026-01-04 20:01:25.81	207.85	16.81	-38.1	-38.4	13.3	9.25e-04	0	40	0	12708741120	43	14476
2026-01-04 20:01:28.79	208.44	17.18	-38.0	-38.3	13.4	1.41e-03	0	40	0	13044285440	43	14277
2026-01-04 20:01:31.77	209.04	17.56	-38.0	-38.2	13.4	1.16e-03	0	40	0	13379829760	43	14231
2026-01-04 20:01:34.74	209.66	17.93	-37.8	-38.0	13.3	6.01e-04	0	40	0	13715374080	42	14767
2026-01-04 20:01:37.74	210.31	18.32	-37.7	-37.9	13.4	5.20e-04	0	40	0	14042529792	42	14582
2026-01-04 20:01:40.73	210.97	18.71	-37.3	-37.6	13.4	5.39e-04	0	40	0	14386462720	41	14813
2026-01-04 20:01:43.72	211.65	19.10	-37.1	-37.4	13.5	2.62e-04	0	41	0	14722007040	41	14544
2026-01-04 20:01:46.71	212.36	19.50	-37.1	-37.4	13.5	3.15e-04	0	40	0	15057551360	41	14466
2026-01-04 20:01:49.69	213.08	19.90	-36.8	-37.1	13.5	5.58e-04	0	41	0	15393095680	40	14805
2026-01-04 20:01:52.68	213.82	20.30	-36.8	-37.1	13.5	2.10e-04	0	41	0	15728640000	40	14787
2026-01-04 20:01:55.67	214.59	20.71	-36.6	-36.9	13.6	2.10e-04	0	41	0	16064184320	40	14442
2026-01-04 20:01:58.66	215.38	21.13	-36.5	-36.7	13.6	1.14e-04	0	41	0	16399728640	40	14207
2026-01-04 20:02:01.64	216.19	21.54	-36.2	-36.4	13.6	1.95e-04	0	41	0	16735272960	39	14544
2026-01-04 20:02:04.64	217.03	21.96	-36.0	-36.3	13.6	8.58e-05	0	41	0	17070817280	39	14318
2026-01-04 20:02:07.61	217.88	22.38	-35.9	-36.1	13.7	1.10e-04	0	41	0	17406361600	39	14078
2026-01-04 20:02:10.60	218.77	22.80	-35.9	-36.2	13.6	1.05e-04	0	41	0	17750294528	38	14987
2026-01-04 20:02:13.59	219.69	23.23	-35.7	-35.9	13.6	7.62e-05	0	41	0	18085838848	38	14536
2026-01-04 20:02:16.60	220.64	23.66	-35.6	-35.9	13.7	7.62e-05	0	41	0	18421383168	38	14496
2026-01-04 20:02:19.60	221.62	24.09	-35.5	-35.8	13.7	6.19e-05	0	41	0	18756927488	38	14362
2026-01-04 20:02:22.60	222.62	24.52	-35.3	-35.5	13.7	6.19e-05	0	41	0	19100860416	37	14752
2026-01-04 20:02:25.60	223.66	24.95	-35.1	-35.4	13.7	7.15e-05	0	41	0	19436404736	37	14470
2026-01-04 20:02:28.59	224.72	25.38	-35.1	-35.3	13.7	3.33e-05	0	41	0	19763560448	37	14402
2026-01-04 20:02:31.59	225.82	25.81	-34.8	-35.0	13.7	5.72e-05	0	41	0	20107493376	36	14747
2026-01-04 20:02:34.57	226.95	26.24	-34.6	-34.8	13.7	2.38e-05	0	41	0	20443037696	36	14437
2026-01-04 20:02:37.55	228.11	26.66	-34.5	-34.7	13.8	2.38e-05	0	41	0	20778582016	36	14248
2026-01-04 20:02:40.55	229.30	27.07	-34.5	-34.8	13.8	2.38e-05	0	40	0	21114126336	36	14363
2026-01-04 20:02:43.55	230.54	27.49	-31.7	-31.9	13.7	2.38e-05	0	41	0	21458059264	30	14596
2026-01-04 20:02:46.54	231.80	27.90	-31.5	-31.8	13.7	7.62e-05	0	41	0	21785214976	30	14405
2026-01-04 20:02:49.53	233.10	28.30	-31.5	-31.8	13.7	1.00e-04	0	41	0	22120759296	30	14323
2026-01-04 20:02:52.52	234.43	28.69	-31.4	-31.7	13.8	1.10e-04	0	41	0	22464692224	30	14189
2026-01-04 20:02:55.49	235.79	29.07	-31.2	-31.5	13.7	7.15e-05	0	41	0	22800236544	29	14701
2026-01-04 20:02:58.49	237.20	29.44	-31.1	-31.4	13.8	5.24e-05	0	41	0	23127392256	29	14490
2026-01-04 20:03:01.46	238.62	29.79	-31.1	-31.4	13.8	9.53e-05	0	41	0	23471325184	29	14486
2026-01-04 20:03:04.45	240.10	30.14	-31.1	-31.3	13.8	6.19e-05	0	41	0	23806869504	29	14424
2026-01-04 20:03:07.44	241.60	30.47	-31.1	-31.3	13.8	3.81e-05	0	41	0	24134025216	29	14382
2026-01-04 20:03:10.43	243.13	30.78	-30.7	-31.0	13.8	5.72e-05	0	41	0	24477958144	28	14678
2026-01-04 20:03:13.42	244.70	31.08	-30.6	-30.9	13.8	4.29e-05	0	41	0	24813502464	28	14470
2026-01-04 20:03:16.41	246.30	31.36	-30.5	-30.8	13.8	2.38e-05	0	41	0	25149046784	28	14373
2026-01-04 20:03:19.29	247.86	31.60	-30.6	-30.9	13.8	2.38e-05	0	41	0	25484591104	28	14461
2026-01-04 20:03:22.42	249.59	31.85	-30.5	-30.8	13.8	5.24e-05	0	41	0	25836912640	28	14381
2026-01-04 20:03:25.27	251.19	32.05	-30.4	-30.7	13.8	6.67e-05	0	41	0	26155679744	28	14160
2026-01-04 20:03:28.41	252.97	32.25	-30.5	-30.7	13.7	3.81e-05	0	41	0	26508001280	27	15070
2026-01-04 20:03:31.25	254.60	32.41	-30.4	-30.6	13.7	3.33e-05	0	41	0	26835156992	27	14946
2026-01-04 20:03:34.38	256.41	32.55	-30.4	-30.6	13.7	4.76e-05	0	41	0	27187478528	27	14900
2026-01-04 20:03:37.24	258.08	32.66	-30.4	-30.7	13.7	3.81e-05	0	41	0	27506245632	27	15008
2026-01-04 20:03:40.37	259.92	32.74	-30.5	-30.7	13.7	2.86e-05	0	41	0	27858567168	27	15070
2026-01-04 20:03:43.22	261.60	32.79	-30.3	-30.6	13.7	2.38e-05	0	41	0	28177334272	27	14860
2026-01-04 20:03:46.37	263.47	32.82	-30.5	-30.8	13.7	9.50e-06	0	41	0	28529655808	27	15130
2026-01-04 20:03:49.22	265.16	32.82	-30.4	-30.7	13.6	9.50e-06	0	41	0	28848422912	27	14999
2026-01-04 20:03:52.36	267.01	32.79	-30.5	-30.8	13.6	4.70e-06	0	41	0	29209133056	27	15134
2026-01-04 20:03:55.21	268.70	32.73	-30.6	-30.9	13.6	1.90e-05	0	41	0	29527900160	27	15339
2026-01-04 20:03:58.33	270.53	32.64	-30.6	-30.8	13.6	5.24e-05	0	41	0	29871833088	27	15265
2026-01-04 20:04:01.17	272.18	32.54	-30.8	-31.1	13.5	4.76e-05	0	41	0	30198988800	27	15666
2026-01-04 20:04:04.29	273.99	32.39	-30.7	-31.0	13.6	1.86e-04	0	41	0	30551310336	27	15484
2026-01-04 20:04:07.15	275.63	32.23	-30.7	-30.9	13.6	2.14e-04	0	41	0	30870077440	27	15402
2026-01-04 20:04:10.28	277.40	32.03	-30.8	-31.0	13.7	1.62e-04	0	41	0	31222398976	27	15637
2026-01-04 20:04:13.12	278.98	31.83	-30.8	-31.0	13.7	9.05e-05	0	41	0	31541166080	27	15605
2026-01-04 20:04:16.26	280.71	31.58	-30.9	-31.1	13.7	3.81e-05	0	41	0	31893487616	27	15803
2026-01-04 20:04:19.11	282.25	31.33	-31.1	-31.4	13.7	4.76e-05	0	41	0	32212254720	27	16251
2026-01-04 20:04:22.24	283.92	31.04	-31.2	-31.4	13.7	3.33e-05	0	41	0	32572964864	28	15448
2026-01-04 20:04:25.08	285.40	30.76	-31.2	-31.5	13.6	3.81e-05	0	41	0	32891731968	28	15480
2026-01-04 20:04:28.22	287.00	30.43	-31.3	-31.6	13.7	1.90e-05	0	41	0	33235664896	28	15722
2026-01-04 20:04:31.06	288.42	30.12	-31.4	-31.7	13.7	3.81e-05	0	41	0	33562820608	28	15898
2026-01-04 20:04:34.19	289.95	29.75	-31.4	-31.6	13.8	3.81e-05	0	41	0	33915142144	28	15779
2026-01-04 20:04:37.04	291.32	29.41	-31.4	-31.7	13.8	1.90e-05	0	41	0	34233909248	28	15957
2026-01-04 20:04:40.17	292.77	29.03	-31.6	-31.8	13.8	1.90e-05	0	41	0	34586230784	28	16194
2026-01-04 20:04:43.03	294.08	28.66	-31.7	-31.9	13.8	3.81e-05	0	41	0	34904997888	29	15445
2026-01-04 20:04:46.15	295.46	28.25	-31.8	-32.1	13.8	4.76e-05	0	41	0	35257319424	29	15686
2026-01-04 20:04:49.00	296.69	27.87	-31.8	-32.1	13.8	4.76e-05	0	41	0	35576086528	29	15664
2026-01-04 20:04:52.14	298.01	27.45	-32.0	-32.3	13.8	1.48e-04	0	41	0	35936796672	29	16038
2026-01-04 20:04:54.98	299.17	27.06	-32.0	-32.3	13.8	7.15e-05	0	41	0	36255563776	29	16057
2026-01-04 20:04:58.11	300.41	26.62	-32.2	-32.5	13.8	1.10e-04	0	41	0	36599496704	30	15523
2026-01-04 20:05:00.95	301.50	26.22	-32.3	-32.6	13.8	3.81e-05	0	41	0	36926652416	30	15722
2026-01-04 20:05:04.09	302.68	25.78	-32.5	-32.8	13.8	6.67e-05	0	41	0	37278973952	30	16081
2026-01-04 20:05:06.94	303.72	25.37	-32.5	-32.8	13.8	7.15e-05	0	41	0	37597741056	30	16073
2026-01-04 20:05:10.06	304.82	24.93	-32.6	-32.9	13.8	8.10e-05	0	41	0	37950062592	31	15382
2026-01-04 20:05:12.91	305.80	24.52	-32.8	-33.1	13.7	8.58e-05	0	41	0	38268829696	31	15692
2026-01-04 20:05:16.03	306.84	24.07	-32.8	-33.1	13.7	8.10e-05	0	41	0	38621151232	31	15782
2026-01-04 20:05:18.89	307.77	23.67	-33.0	-33.3	13.7	4.29e-05	0	41	0	38939918336	31	16034
2026-01-04 20:05:22.04	308.75	23.22	-33.1	-33.4	13.6	1.19e-04	0	41	0	39292239872	31	16283
2026-01-04 20:05:24.89	309.62	22.81	-33.3	-33.6	13.6	1.10e-04	0	41	0	39619395584	32	15667
2026-01-04 20:05:28.02	310.55	22.37	-33.4	-33.7	13.6	1.67e-04	0	41	0	39963328512	32	15868
2026-01-04 20:05:30.87	311.36	21.97	-33.6	-33.9	13.6	2.43e-04	0	41	0	40290484224	32	16218
2026-01-04 20:05:34.01	312.24	21.54	-33.8	-34.1	13.6	2.43e-04	0	41	0	40642805760	33	15822
2026-01-04 20:05:36.86	313.01	21.14	-34.1	-34.4	13.5	2.34e-04	0	41	0	40961572864	34	15397
2026-01-04 20:05:40.00	313.83	20.71	-34.2	-34.5	13.5	3.15e-04	0	41	0	41313894400	34	15562
2026-01-04 20:05:42.86	314.56	20.32	-34.2	-34.4	13.5	3.15e-04	0	41	0	41632661504	34	15473
2026-01-04 20:05:46.00	315.34	19.90	-34.4	-34.7	13.5	3.48e-04	0	41	0	41993371648	34	15977
2026-01-04 20:05:48.84	316.02	19.52	-34.3	-34.6	13.5	5.29e-04	0	41	0	42312138752	34	15732
2026-01-04 20:05:51.97	316.75	19.11	-34.4	-34.6	13.4	1.70e-03	0	41	0	42656071680	34	15786
2026-01-04 20:05:54.82	317.40	18.74	-34.4	-34.7	13.4	2.17e-03	0	41	0	42983227392	34	15991
2026-01-04 20:05:57.94	318.08	18.34	-34.5	-34.8	13.4	3.70e-03	0	41	0	43335548928	34	16066
2026-01-04 20:06:00.79	318.69	17.97	-34.8	-35.0	13.4	3.70e-03	0	41	0	43654316032	35	15643
2026-01-04 20:06:03.90	319.34	17.58	-35.0	-35.3	13.3	4.20e-03	0	41	0	44006637568	35	16045
2026-01-04 20:06:06.75	319.92	17.22	-37.6	-37.9	13.5	4.73e-03	0	41	0	44325404672	41	15318
2026-01-04 20:06:09.88	320.53	16.84	-37.6	-37.9	13.5	2.02e-03	0	42	0	44677726208	41	15337
2026-01-04 20:06:12.73	321.08	16.49	-37.8	-38.0	13.5	1.64e-03	0	41	0	44996493312	41	15618
2026-01-04 20:06:15.86	321.66	16.12	-37.9	-38.2	13.4	2.30e-03	0	42	0	45348814848	41	15911
2026-01-04 20:06:18.71	322.18	15.78	-37.9	-38.2	13.4	2.39e-03	0	41	0	45667581952	41	15871
2026-01-04 20:06:21.84	322.73	15.41	-38.2	-38.4	13.5	2.64e-03	0	41	0	46019903488	42	15414
2026-01-04 20:06:24.69	323.22	15.08	-38.3	-38.6	13.4	2.88e-03	0	42	0	46347059200	42	15753
2026-01-04 20:06:27.83	323.75	14.73	-38.3	-38.5	13.4	2.96e-03	0	42	0	46690992128	42	15640
2026-01-04 20:06:30.68	324.21	14.41	-38.4	-38.7	13.4	3.08e-03	0	42	0	47009759232	42	15857
2026-01-04 20:06:33.82	324.71	14.06	-38.3	-38.6	13.4	3.60e-03	0	42	0	47370469376	42	15755
2026-01-04 20:06:36.67	325.15	13.74	-38.4	-38.7	13.4	3.53e-03	0	42	0	47689236480	42	15892
2026-01-04 20:06:39.81	325.62	13.40	-38.4	-38.7	13.4	3.94e-03	0	42	0	48041558016	42	15909
2026-01-04 20:06:42.67	326.05	13.10	-38.7	-39.0	13.3	4.52e-03	0	42	0	48360325120	43	15501
2026-01-04 20:06:45.81	326.50	12.77	-38.7	-38.9	13.3	5.56e-03	0	42	0	48721035264	43	15438
2026-01-04 20:06:48.65	326.89	12.47	-38.8	-39.1	13.2	6.31e-03	0	41	0	49039802368	43	15740
2026-01-04 20:06:51.77	327.32	12.15	-39.1	-39.4	13.1	8.72e-03	0	42	0	49383735296	43	16211
2026-01-04 20:06:54.62	327.70	11.86	-39.2	-39.5	13.1	8.72e-03	0	42	0	49710891008	44	15520
2026-01-04 20:06:57.74	328.11	11.55	-39.3	-39.6	13.1	1.05e-02	0	42	0	50063212544	44	15806
2026-01-04 20:07:00.57	328.47	11.27	-39.4	-39.7	13.0	1.19e-02	0	42	0	50373591040	44	15893
2026-01-04 20:07:03.68	328.86	10.97	-39.4	-39.7	12.9	1.41e-02	0	42	0	50725912576	44	16001
2026-01-04 20:07:06.53	329.20	10.69	-39.5	-39.8	12.8	1.65e-02	0	42	0	51044679680	44	16109
2026-01-04 20:07:09.65	329.57	10.39	-39.6	-40.0	12.7	2.02e-02	0	42	0	51397001216	45	15478
2026-01-04 20:07:12.49	329.90	10.13	-39.8	-40.1	12.6	2.63e-02	0	42	0	51724156928	45	15668
2026-01-04 20:07:15.62	330.26	9.84	-39.9	-40.2	12.4	3.04e-02	0	42	0	52068089856	45	15999
2026-01-04 20:07:18.47	330.58	9.57	-40.0	-40.3	12.3	3.49e-02	0	42	0	52386856960	45	16202
2026-01-04 20:07:21.60	330.92	9.29	-40.2	-40.5	12.1	3.69e-02	0	42	0	52747567104	46	15525
2026-01-04 20:07:24.45	331.22	9.04	-40.4	-40.7	11.9	4.81e-02	0	42	0	53066334208	46	15981
2026-01-04 20:07:27.57	331.54	8.76	-40.5	-40.8	12.0	5.93e-02	0	42	0	53418655744	46	16116
2026-01-04 20:07:30.41	331.83	8.51	-40.6	-41.0	12.0	5.55e-02	0	42	0	53737422848	47	15493
2026-01-04 20:07:33.56	332.15	8.24	-40.7	-41.0	11.9	7.08e-02	0	42	0	54089744384	47	15507
2026-01-04 20:07:36.41	332.43	7.99	-40.7	-41.0	11.5	7.08e-02	0	42	0	54408511488	47	15511
2026-01-04 20:07:39.54	332.73	7.73	-40.8	-41.1	11.5	9.15e-02	0	42	0	54760833024	47	15760
2026-01-04 20:07:42.39	332.99	7.49	-40.9	-41.2	11.4	1.03e-01	0	42	0	55087988736	47	15925
2026-01-04 20:07:45.52	333.28	7.23	-40.8	-41.1	11.3	1.04e-01	0	42	0	55431921664	47	15821
2026-01-04 20:07:48.37	333.54	7.00	-41.0	-41.4	11.1	1.31e-01	0	42	0	55750688768	47	16313
2026-01-04 20:07:51.52	333.82	6.74	-41.9	-42.3	10.9	1.65e-01	0	42	0	56111398912	49	16151
2026-01-04 20:07:54.37	334.06	6.51	-42.1	-42.5	10.8	1.73e-01	0	42	0	56430166016	49	16410
2026-01-04 20:07:57.50	334.33	6.27	-42.4	-42.7	10.7	1.85e-01	14	43	0	56782487552	50	15981
2026-01-04 20:08:00.34	334.57	6.04	-42.4	-42.8	10.5	1.94e-01	478	43	0	57101254656	50	16117
2026-01-04 20:08:03.47	334.82	5.80	-42.6	-42.9	10.7	2.13e-01	13	43	0	57453576192	50	16365
2026-01-04 20:08:06.32	335.05	5.58	-42.5	-42.9	10.7	2.13e-01	27	43	0	57772343296	51	15370
2026-01-04 20:08:09.42	335.30	5.35	-42.7	-43.1	10.5	2.27e-01	1085	43	0	58124664832	51	15714
2026-01-04 20:08:12.27	335.52	5.13	-42.9	-43.3	10.4	2.56e-01	2124	43	0	58443431936	51	16076
2026-01-04 20:08:15.39	335.75	4.90	-59.3	-62.5	6.2	0.00e+00	0	42	104	58703478784	84	22056
2026-01-04 20:08:18.26	335.97	4.69	-52.8	-53.7	6.1	0.00e+00	0	42	104	58703478784	72	15888
2026-01-04 20:08:21.39	336.20	4.46	-60.9	-64.1	6.2	0.00e+00	0	42	104	58703478784	87	22222
2026-01-04 20:08:24.25	336.40	4.25	-61.1	-64.3	6.2	0.00e+00	0	42	104	58703478784	87	22855
2026-01-04 20:08:27.39	336.63	4.02	-61.2	-64.4	6.2	0.00e+00	0	42	104	58703478784	88	21816
2026-01-04 20:08:30.25	336.83	3.82	-61.2	-64.4	6.2	0.00e+00	0	42	104	58703478784	88	21850
2026-01-04 20:08:33.39	337.04	3.60	-61.3	-64.5	6.2	0.00e+00	0	41	104	58703478784	88	22027
2026-01-04 20:08:36.24	337.23	3.40	-61.3	-64.5	6.2	0.00e+00	0	41	104	58703478784	88	22107
2026-01-04 20:08:39.38	337.44	3.18	-61.2	-64.4	6.2	0.00e+00	0	41	104	58703478784	88	21785
2026-01-04 20:08:42.24	337.63	2.99	-61.2	-64.4	6.2	0.00e+00	0	41	104	58703478784	88	21706
2026-01-04 20:08:45.39	337.83	2.77	-61.1	-64.3	6.2	0.00e+00	0	41	104	58703478784	88	21566
2026-01-04 20:08:48.24	338.01	2.58	-61.1	-64.3	6.2	0.00e+00	0	41	104	58703478784	88	21565
2026-01-04 20:08:51.40	338.20	2.37	-61.1	-64.3	6.2	0.00e+00	0	41	104	58703478784	88	21529
2026-01-04 20:08:54.26	338.38	2.18	-61.1	-64.3	6.2	0.00e+00	0	41	104	58703478784	88	21453
2026-01-04 20:08:57.39	338.57	1.97	-61.0	-64.3	6.2	0.00e+00	0	41	104	58703478784	88	21363

#Closed at: 2026-01-04 20:08:58
#Recorded file [58703 MB]: D:/lorett/data/31004_260104_225841.dat