passes_logs/2026/01/04/R3.2S_Murmansk/R3.2S_Murmansk__20260104_071752_FENGYUN_3D_rec.log

#Pass ID: 20260104_071752_FENGYUN 3D
#Satellite: FENGYUN 3D
#Configuration: FENGYUN 3D
#almurnet v.1.7.20251203
#Start time: 2026-01-04 07:17:52

#Version: 2.2.20231116
#Station: R3.2S_Murmansk
#Location: 33.079688 lon 68.888172 lat
#TLE: 1 43010U 17072A   26003.93866112 -.00000029  00000+0  82070-5 0  9995
#TLE: 2 43010  98.9913 335.5841 0001959 128.6134 231.5217 14.19691935421687

#Time	Az	El	Level	Level2	SNR	BER	BlckErr	Temp	State	Recorded	gain1	gain2
2026-01-04 07:17:52.74	64.14	2.01	-58.4	-71.4	3.8	8.46e-01	0	26	0	0	83	15678
2026-01-04 07:17:56.78	63.89	2.24	-58.4	-71.4	3.8	8.46e-01	0	26	104	0	81	17574
2026-01-04 07:18:00.81	63.63	2.47	-58.3	-71.4	3.8	8.46e-01	0	27	104	0	81	17566
2026-01-04 07:18:04.84	63.36	2.71	-58.3	-71.3	3.8	8.46e-01	0	27	104	0	81	17448
2026-01-04 07:18:08.88	63.10	2.94	-58.3	-71.4	3.8	8.45e-01	0	27	104	0	81	17488
2026-01-04 07:18:12.91	62.83	3.18	-58.3	-71.3	3.8	8.46e-01	0	27	104	0	81	17451
2026-01-04 07:18:16.95	62.55	3.41	-58.3	-71.4	3.8	8.47e-01	0	27	104	0	81	17499
2026-01-04 07:18:20.99	62.27	3.65	-58.3	-71.3	3.8	8.45e-01	0	27	104	0	81	17312
2026-01-04 07:18:25.03	61.98	3.89	-58.3	-71.3	3.8	8.45e-01	0	27	104	0	81	17441
2026-01-04 07:18:29.06	61.69	4.13	-58.3	-71.1	3.8	8.46e-01	0	27	104	0	81	16895
2026-01-04 07:18:33.10	61.39	4.38	-58.3	-71.3	3.8	8.44e-01	0	27	104	0	81	17402
2026-01-04 07:18:37.14	61.09	4.62	-58.1	-68.3	4.1	8.40e-01	0	27	0	0	81	12293
2026-01-04 07:18:41.17	60.78	4.87	-57.1	-63.2	6.5	2.17e-01	0	28	0	6291456	80	7264
2026-01-04 07:18:45.20	60.47	5.11	-56.1	-60.3	9.1	9.21e-03	0	28	0	29360128	78	5813
2026-01-04 07:18:49.24	60.15	5.36	-57.4	-64.2	5.8	6.04e-01	0	28	0	49283072	80	8089
2026-01-04 07:18:53.27	59.83	5.61	-50.5	-52.1	14.0	0.00e+00	0	28	0	72351744	67	4253
2026-01-04 07:18:57.29	59.50	5.86	-49.9	-51.4	14.3	0.00e+00	0	28	0	94371840	66	4154
2026-01-04 07:19:01.30	59.17	6.11	-50.0	-51.4	14.3	0.00e+00	0	28	0	117440512	66	4177
2026-01-04 07:19:05.33	58.83	6.37	-50.0	-51.4	14.3	0.00e+00	0	28	0	139460608	66	4181
2026-01-04 07:19:09.36	58.48	6.62	-49.9	-51.3	14.3	0.00e+00	0	28	0	162529280	66	4128
2026-01-04 07:19:13.40	58.12	6.88	-49.9	-51.4	14.3	0.00e+00	0	28	0	185597952	66	4161
2026-01-04 07:19:17.42	57.76	7.14	-49.9	-51.3	14.4	0.00e+00	0	28	0	207618048	66	4101
2026-01-04 07:19:21.45	57.40	7.40	-49.8	-51.2	14.4	0.00e+00	0	28	0	230686720	66	4079
2026-01-04 07:19:25.49	57.02	7.66	-49.6	-50.9	14.4	0.00e+00	0	28	0	253755392	65	4190
2026-01-04 07:19:29.52	56.64	7.92	-49.3	-50.7	14.6	0.00e+00	0	28	0	275775488	65	4071
2026-01-04 07:19:33.55	56.25	8.19	-49.2	-50.5	14.5	0.00e+00	0	28	0	298844160	64	4227
2026-01-04 07:19:37.59	55.86	8.46	-49.2	-50.5	14.5	0.00e+00	0	28	0	321912832	64	4238
2026-01-04 07:19:41.62	55.45	8.72	-49.1	-50.4	14.6	0.00e+00	0	28	0	343932928	64	4184
2026-01-04 07:19:45.65	55.04	8.99	-49.1	-50.5	14.6	0.00e+00	0	28	0	367001600	64	4195
2026-01-04 07:19:49.69	54.62	9.26	-49.2	-50.5	14.6	0.00e+00	0	28	0	390070272	64	4210
2026-01-04 07:19:53.72	54.20	9.54	-49.0	-50.3	14.6	0.00e+00	0	28	0	412090368	64	4133
2026-01-04 07:19:57.75	53.76	9.81	-49.1	-50.4	14.6	0.00e+00	0	28	0	435159040	64	4166
2026-01-04 07:20:01.78	53.32	10.08	-49.0	-50.3	14.7	0.00e+00	0	28	0	457179136	64	4105
2026-01-04 07:20:05.82	52.86	10.36	-49.0	-50.3	14.7	0.00e+00	0	28	0	480247808	64	4140
2026-01-04 07:20:09.84	52.40	10.64	-48.6	-49.9	14.7	0.00e+00	0	28	0	503316480	63	4174
2026-01-04 07:20:13.88	51.93	10.92	-48.7	-49.9	14.7	0.00e+00	0	28	0	525336576	63	4189
2026-01-04 07:20:17.91	51.45	11.20	-48.5	-49.8	14.8	0.00e+00	0	28	0	548405248	63	4113
2026-01-04 07:20:21.95	50.96	11.48	-48.6	-49.8	14.8	0.00e+00	0	28	0	571473920	63	4120
2026-01-04 07:20:25.98	50.46	11.76	-48.5	-49.7	14.8	0.00e+00	0	28	0	593494016	63	4067
2026-01-04 07:20:30.00	49.95	12.04	-48.3	-49.6	14.9	0.00e+00	0	28	0	616562688	63	4019
2026-01-04 07:20:34.04	49.43	12.33	-48.2	-49.4	15.0	0.00e+00	0	28	0	638582784	63	3952
2026-01-04 07:20:38.07	48.90	12.61	-48.3	-49.6	14.9	0.00e+00	0	28	0	661651456	63	4005
2026-01-04 07:20:42.10	48.36	12.90	-48.1	-49.3	14.9	0.00e+00	0	28	0	684720128	62	4120
2026-01-04 07:20:46.13	47.81	13.19	-47.8	-49.0	15.0	0.00e+00	0	28	0	706740224	62	3981
2026-01-04 07:20:50.16	47.25	13.47	-47.9	-49.1	15.0	0.00e+00	0	28	0	729808896	62	4014
2026-01-04 07:20:54.20	46.68	13.76	-47.6	-48.8	15.0	0.00e+00	0	28	0	752877568	61	4109
2026-01-04 07:20:58.23	46.09	14.05	-47.7	-48.9	14.9	0.00e+00	0	28	0	774897664	61	4149
2026-01-04 07:21:02.26	45.49	14.34	-47.6	-48.8	15.0	0.00e+00	0	28	0	797966336	61	4126
2026-01-04 07:21:06.29	44.89	14.63	-47.5	-48.7	15.0	0.00e+00	0	28	0	819986432	61	4056
2026-01-04 07:21:10.32	44.27	14.92	-47.3	-48.4	15.1	0.00e+00	0	28	0	843055104	61	3937
2026-01-04 07:21:14.35	43.63	15.21	-47.3	-48.4	15.1	0.00e+00	0	28	0	866123776	61	3958
2026-01-04 07:21:18.38	42.99	15.50	-47.3	-48.4	15.1	0.00e+00	0	28	0	888143872	61	3951
2026-01-04 07:21:22.41	42.33	15.79	-47.3	-48.4	15.1	0.00e+00	0	28	0	911212544	61	3941
2026-01-04 07:21:26.43	41.66	16.07	-47.2	-48.3	15.2	0.00e+00	0	28	0	933232640	61	3902
2026-01-04 07:21:30.46	40.97	16.36	-47.1	-48.2	15.1	0.00e+00	0	28	0	956301312	60	4077
2026-01-04 07:21:34.49	40.28	16.65	-47.2	-48.4	15.0	0.00e+00	0	29	0	979369984	60	4158
2026-01-04 07:21:38.52	39.56	16.93	-47.1	-48.2	15.1	0.00e+00	0	28	0	1001390080	60	4063
2026-01-04 07:21:42.55	38.84	17.22	-46.9	-48.0	15.2	0.00e+00	0	28	0	1024458752	60	3966
2026-01-04 07:21:46.59	38.10	17.50	-46.7	-47.8	15.2	0.00e+00	0	28	0	1047527424	60	3904
2026-01-04 07:21:50.62	37.34	17.78	-47.0	-48.2	15.0	0.00e+00	0	28	0	1069547520	59	4297
2026-01-04 07:21:54.66	36.57	18.06	-47.0	-48.1	15.1	0.00e+00	0	28	0	1092616192	59	4259
2026-01-04 07:21:58.68	35.79	18.33	-46.7	-47.8	15.1	0.00e+00	0	28	0	1114636288	59	4140
2026-01-04 07:22:02.72	34.99	18.61	-46.8	-47.9	15.1	0.00e+00	0	28	0	1137704960	59	4157
2026-01-04 07:22:06.74	34.18	18.88	-46.8	-47.9	15.1	0.00e+00	0	28	0	1160773632	59	4154
2026-01-04 07:22:10.77	33.36	19.15	-46.8	-47.9	15.1	0.00e+00	0	28	0	1182793728	59	4169
2026-01-04 07:22:14.81	32.52	19.41	-46.8	-48.0	15.1	0.00e+00	0	28	0	1205862400	59	4202
2026-01-04 07:22:18.84	31.66	19.67	-46.6	-47.7	15.2	0.00e+00	0	28	0	1228931072	59	4077
2026-01-04 07:22:22.87	30.79	19.93	-46.7	-47.8	15.2	0.00e+00	0	29	0	1250951168	59	4131
2026-01-04 07:22:26.90	29.90	20.18	-46.5	-47.6	15.2	0.00e+00	0	29	0	1274019840	59	4037
2026-01-04 07:22:30.93	29.01	20.43	-46.5	-47.6	15.2	0.00e+00	0	29	0	1296039936	59	4046
2026-01-04 07:22:34.96	28.09	20.67	-46.6	-47.7	15.2	0.00e+00	0	28	0	1319108608	59	4077
2026-01-04 07:22:38.99	27.16	20.90	-46.5	-47.6	15.2	0.00e+00	0	28	0	1342177280	59	4017
2026-01-04 07:22:43.02	26.22	21.13	-46.2	-47.3	15.4	0.00e+00	0	28	0	1364197376	59	3877
2026-01-04 07:22:47.06	25.26	21.36	-46.2	-47.3	15.2	0.00e+00	0	29	0	1387266048	58	4114
2026-01-04 07:22:51.09	24.29	21.57	-46.4	-47.4	15.2	0.00e+00	0	28	0	1410334720	58	4185
2026-01-04 07:22:55.13	23.30	21.78	-46.3	-47.4	15.2	0.00e+00	0	28	0	1432354816	58	4187
2026-01-04 07:22:59.16	22.30	21.99	-46.2	-47.2	15.2	0.00e+00	0	29	0	1455423488	58	4093
2026-01-04 07:23:03.20	21.29	22.18	-46.0	-47.1	15.3	0.00e+00	0	29	0	1478492160	58	4012
2026-01-04 07:23:07.23	20.27	22.37	-45.9	-47.0	15.3	0.00e+00	0	29	0	1500512256	58	3961
2026-01-04 07:23:11.27	19.23	22.54	-46.0	-47.0	15.3	0.00e+00	0	29	0	1523580928	58	4003
2026-01-04 07:23:15.30	18.18	22.71	-46.1	-47.1	15.3	0.00e+00	0	28	0	1545601024	58	4048
2026-01-04 07:23:19.33	17.12	22.87	-45.8	-46.9	15.3	0.00e+00	0	29	0	1568669696	58	3927
2026-01-04 07:23:23.36	16.06	23.02	-46.0	-47.1	15.3	0.00e+00	0	28	0	1591738368	58	4007
2026-01-04 07:23:27.39	14.98	23.16	-46.0	-47.1	15.3	0.00e+00	0	29	0	1613758464	58	4023
2026-01-04 07:23:31.42	13.89	23.29	-46.0	-47.0	15.3	0.00e+00	0	29	0	1636827136	58	4001
2026-01-04 07:23:35.45	12.79	23.41	-45.8	-46.9	15.4	0.00e+00	0	29	0	1659895808	58	3920
2026-01-04 07:23:39.48	11.69	23.51	-45.5	-46.6	15.3	0.00e+00	0	28	0	1681915904	57	4013
2026-01-04 07:23:43.51	10.57	23.61	-45.4	-46.4	15.4	0.00e+00	0	29	0	1704984576	57	3933
2026-01-04 07:23:47.54	9.45	23.69	-45.6	-46.7	15.3	0.00e+00	0	29	0	1727004672	57	4058
2026-01-04 07:23:51.57	8.33	23.77	-45.7	-46.7	15.3	0.00e+00	0	29	0	1750073344	57	4094
2026-01-04 07:23:55.61	7.20	23.83	-45.5	-46.6	15.3	0.00e+00	0	29	0	1773142016	57	4023
2026-01-04 07:23:59.63	6.07	23.88	-45.5	-46.5	15.3	0.00e+00	0	28	0	1795162112	57	3992
2026-01-04 07:24:03.67	4.93	23.91	-45.5	-46.5	15.3	0.00e+00	0	29	0	1818230784	57	3989
2026-01-04 07:24:07.71	3.79	23.94	-45.6	-46.7	15.3	0.00e+00	0	28	0	1841299456	57	4067
2026-01-04 07:24:11.75	2.64	23.95	-45.5	-46.5	15.3	0.00e+00	0	29	0	1863319552	57	3996
2026-01-04 07:24:15.79	1.50	23.95	-45.5	-46.6	15.3	0.00e+00	0	29	0	1886388224	57	4009
2026-01-04 07:24:19.83	0.36	23.94	-45.5	-46.5	15.3	0.00e+00	0	29	0	1908408320	57	3988
2026-01-04 07:24:23.86	359.22	23.91	-45.5	-46.6	15.3	0.00e+00	0	29	0	1931476992	57	4024
2026-01-04 07:24:27.90	358.08	23.88	-45.5	-46.5	15.3	0.00e+00	0	28	0	1954545664	57	3995
2026-01-04 07:24:31.92	356.95	23.83	-45.5	-46.5	15.3	0.00e+00	0	28	0	1976565760	57	3985
2026-01-04 07:24:35.94	355.82	23.77	-45.5	-46.6	15.3	0.00e+00	0	29	0	1999634432	57	4018
2026-01-04 07:24:39.97	354.70	23.69	-45.4	-46.5	15.3	0.00e+00	0	29	0	2022703104	57	3974
2026-01-04 07:24:43.99	353.58	23.61	-45.5	-46.5	15.3	0.00e+00	0	28	0	2044723200	57	3989
2026-01-04 07:24:48.00	352.47	23.52	-45.5	-46.6	15.3	0.00e+00	0	29	0	2067791872	57	4010
2026-01-04 07:24:52.03	351.37	23.41	-45.6	-46.6	15.3	0.00e+00	0	29	0	2089811968	57	4025
2026-01-04 07:24:56.08	350.27	23.29	-45.6	-46.7	15.3	0.00e+00	0	28	0	2112880640	57	4055
2026-01-04 07:25:00.11	349.18	23.16	-45.6	-46.7	15.3	0.00e+00	0	29	0	2135949312	57	4058
2026-01-04 07:25:04.14	348.10	23.02	-45.6	-46.7	15.3	0.00e+00	0	29	0	2157969408	57	4060
2026-01-04 07:25:08.17	347.03	22.87	-45.4	-46.4	15.4	0.00e+00	0	29	0	2181038080	57	3955
2026-01-04 07:25:12.20	345.97	22.71	-45.6	-46.7	15.3	0.00e+00	0	29	0	2204106752	57	4071
2026-01-04 07:25:16.24	344.92	22.54	-45.6	-46.7	15.3	0.00e+00	0	29	0	2226126848	57	4052
2026-01-04 07:25:20.27	343.88	22.37	-45.6	-46.7	15.3	0.00e+00	0	28	0	2249195520	57	4064
2026-01-04 07:25:24.30	342.86	22.18	-45.7	-46.7	15.3	0.00e+00	0	28	0	2271215616	57	4094
2026-01-04 07:25:28.33	341.85	21.99	-45.8	-46.8	15.3	0.00e+00	0	29	0	2294284288	57	4124
2026-01-04 07:25:32.36	340.85	21.79	-46.0	-47.0	15.2	0.00e+00	0	29	0	2317352960	57	4238
2026-01-04 07:25:36.40	339.86	21.58	-45.9	-46.9	15.2	0.00e+00	0	29	0	2339373056	57	4187
2026-01-04 07:25:40.43	338.89	21.36	-45.7	-46.8	15.3	0.00e+00	0	28	0	2362441728	57	4123
2026-01-04 07:25:44.46	337.94	21.14	-45.8	-46.9	15.2	0.00e+00	0	28	0	2385510400	57	4152
2026-01-04 07:25:48.49	336.99	20.91	-45.8	-46.9	15.2	0.00e+00	0	28	0	2407530496	57	4161
2026-01-04 07:25:52.53	336.06	20.67	-46.0	-47.1	15.2	0.00e+00	0	29	0	2430599168	57	4275
2026-01-04 07:25:56.56	335.15	20.43	-46.3	-47.4	15.1	0.00e+00	0	29	0	2452619264	57	4430
2026-01-04 07:26:00.60	334.25	20.18	-46.3	-47.4	15.2	0.00e+00	0	29	0	2475687936	58	4168
2026-01-04 07:26:04.63	333.36	19.93	-46.3	-47.4	15.2	0.00e+00	0	28	0	2498756608	58	4161
2026-01-04 07:26:08.67	332.49	19.67	-46.4	-47.5	15.2	0.00e+00	0	28	0	2520776704	58	4201
2026-01-04 07:26:12.70	331.63	19.41	-46.6	-47.8	15.1	0.00e+00	0	29	0	2543845376	58	4345
2026-01-04 07:26:16.74	330.79	19.15	-46.9	-48.0	15.1	0.00e+00	0	29	0	2566914048	59	4219
2026-01-04 07:26:20.77	329.96	18.88	-46.8	-47.9	15.1	0.00e+00	0	29	0	2588934144	59	4172
2026-01-04 07:26:24.81	329.15	18.61	-46.8	-47.9	15.1	0.00e+00	0	29	0	2612002816	59	4188
2026-01-04 07:26:28.84	328.35	18.33	-46.7	-47.8	15.2	0.00e+00	0	29	0	2635071488	59	4113
2026-01-04 07:26:32.87	327.57	18.06	-46.7	-47.8	15.2	0.00e+00	0	29	0	2657091584	59	4111
2026-01-04 07:26:36.91	326.80	17.78	-46.9	-48.0	15.1	0.00e+00	0	29	0	2680160256	59	4232
2026-01-04 07:26:40.93	326.05	17.50	-46.9	-47.9	15.1	0.00e+00	0	29	0	2702180352	59	4188
2026-01-04 07:26:44.96	325.31	17.22	-46.8	-47.9	15.2	0.00e+00	0	29	0	2725249024	59	4165
2026-01-04 07:26:49.00	324.58	16.93	-46.9	-48.0	15.1	0.00e+00	0	29	0	2748317696	59	4208
2026-01-04 07:26:53.04	323.87	16.65	-46.9	-48.0	15.1	0.00e+00	0	29	0	2771386368	59	4211
2026-01-04 07:26:57.07	323.17	16.36	-47.1	-48.2	15.1	0.00e+00	0	29	0	2793406464	59	4327
2026-01-04 07:27:01.11	322.48	16.07	-47.3	-48.5	15.0	0.00e+00	0	29	0	2816475136	59	4451
2026-01-04 07:27:05.14	321.81	15.78	-47.4	-48.5	15.0	0.00e+00	0	29	0	2838495232	59	4491
2026-01-04 07:27:09.17	321.15	15.49	-47.0	-48.1	15.1	0.00e+00	0	29	0	2861563904	60	4035
2026-01-04 07:27:13.21	320.50	15.20	-46.9	-48.0	15.2	0.00e+00	0	29	0	2884632576	60	3974
2026-01-04 07:27:17.24	319.87	14.91	-47.0	-48.2	15.1	0.00e+00	0	29	0	2906652672	60	4054
2026-01-04 07:27:21.28	319.25	14.62	-47.2	-48.3	15.1	0.00e+00	0	29	0	2929721344	60	4112
2026-01-04 07:27:25.30	318.64	14.34	-47.2	-48.4	15.0	0.00e+00	0	29	0	2952790016	60	4165
2026-01-04 07:27:29.33	318.05	14.05	-47.2	-48.4	15.0	0.00e+00	0	29	0	2974810112	60	4149
2026-01-04 07:27:33.36	317.46	13.76	-47.4	-48.5	15.0	0.00e+00	0	29	0	2997878784	60	4212
2026-01-04 07:27:37.39	316.89	13.47	-47.4	-48.5	15.0	0.00e+00	0	29	0	3019898880	60	4224
2026-01-04 07:27:41.42	316.32	13.18	-47.7	-48.8	14.9	0.00e+00	0	29	0	3042967552	60	4391
2026-01-04 07:27:45.45	315.77	12.90	-47.7	-48.9	14.9	0.00e+00	0	29	0	3066036224	60	4411
2026-01-04 07:27:49.48	315.23	12.61	-47.7	-48.8	14.9	0.00e+00	0	29	0	3088056320	60	4385
2026-01-04 07:27:53.51	314.70	12.32	-47.8	-49.0	14.8	0.00e+00	0	29	0	3111124992	60	4461
2026-01-04 07:27:57.54	314.19	12.04	-47.9	-49.1	14.9	0.00e+00	0	29	0	3134193664	61	4282
2026-01-04 07:28:01.57	313.68	11.76	-48.1	-49.3	14.8	0.00e+00	0	29	0	3156213760	61	4349
2026-01-04 07:28:05.60	313.18	11.47	-48.0	-49.2	14.9	0.00e+00	0	28	0	3179282432	61	4298
2026-01-04 07:28:09.64	312.69	11.19	-48.0	-49.2	14.8	0.00e+00	0	29	0	3201302528	61	4331
2026-01-04 07:28:13.67	312.21	10.91	-48.3	-49.5	14.7	0.00e+00	0	29	0	3224371200	61	4476
2026-01-04 07:28:17.70	311.74	10.63	-48.4	-49.7	14.8	0.00e+00	0	28	0	3247439872	62	4305
2026-01-04 07:28:21.74	311.27	10.36	-48.5	-49.7	14.8	0.00e+00	0	28	0	3269459968	62	4320
2026-01-04 07:28:25.77	310.82	10.08	-48.5	-49.7	14.8	0.00e+00	0	29	0	3292528640	62	4332
2026-01-04 07:28:29.80	310.38	9.80	-48.4	-49.6	14.8	0.00e+00	0	29	0	3315597312	62	4255
2026-01-04 07:28:33.84	309.94	9.53	-48.4	-49.7	14.8	0.00e+00	0	29	0	3337617408	62	4300
2026-01-04 07:28:37.87	309.51	9.26	-48.6	-49.9	14.7	0.00e+00	0	29	0	3360686080	62	4414
2026-01-04 07:28:41.91	309.09	8.99	-48.8	-50.1	14.6	0.00e+00	0	29	0	3382706176	62	4503
2026-01-04 07:28:45.94	308.68	8.72	-48.9	-50.1	14.6	0.00e+00	0	29	0	3405774848	62	4533
2026-01-04 07:28:49.97	308.28	8.45	-48.9	-50.2	14.6	0.00e+00	0	29	0	3428843520	62	4573
2026-01-04 07:28:54.01	307.88	8.18	-49.1	-50.4	14.6	0.00e+00	0	29	0	3450863616	63	4406
2026-01-04 07:28:58.04	307.49	7.92	-48.9	-50.2	14.6	0.00e+00	0	29	0	3473932288	63	4340
2026-01-04 07:29:02.07	307.11	7.65	-49.0	-50.4	14.6	0.00e+00	0	29	0	3497000960	63	4396
2026-01-04 07:29:06.11	306.74	7.39	-49.3	-50.6	14.5	0.00e+00	0	29	0	3519021056	63	4534
2026-01-04 07:29:10.14	306.37	7.13	-49.2	-50.5	14.5	0.00e+00	0	29	0	3542089728	63	4493
2026-01-04 07:29:14.17	306.01	6.87	-49.4	-50.8	14.4	0.00e+00	0	29	0	3564109824	64	4362
2026-01-04 07:29:18.20	305.66	6.62	-49.4	-50.8	14.4	0.00e+00	0	29	0	3587178496	64	4350
2026-01-04 07:29:22.23	305.31	6.36	-49.4	-50.8	14.4	0.00e+00	0	29	0	3610247168	64	4360
2026-01-04 07:29:26.26	304.97	6.11	-49.3	-50.7	14.4	0.00e+00	0	29	0	3632267264	64	4304
2026-01-04 07:29:30.29	304.63	5.85	-49.4	-50.8	14.4	0.00e+00	0	29	0	3655335936	64	4372
2026-01-04 07:29:34.32	304.30	5.60	-49.5	-50.9	14.4	0.00e+00	0	29	0	3678404608	64	4402
2026-01-04 07:29:38.36	303.98	5.35	-49.5	-51.0	14.3	0.00e+00	0	29	0	3700424704	64	4450
2026-01-04 07:29:42.40	303.66	5.10	-49.7	-51.1	14.2	0.00e+00	0	29	0	3723493376	64	4544
2026-01-04 07:29:46.43	303.35	4.86	-59.3	-71.9	3.8	8.46e-01	0	29	104	3738173440	83	16565
2026-01-04 07:29:50.47	303.04	4.61	-60.5	-73.5	3.8	8.45e-01	0	29	104	3738173440	86	16834
2026-01-04 07:29:54.50	302.74	4.37	-61.0	-74.1	3.8	8.46e-01	0	29	104	3738173440	87	16929
2026-01-04 07:29:58.54	302.45	4.12	-61.3	-74.4	3.8	8.44e-01	0	29	104	3738173440	87	17554
2026-01-04 07:30:02.57	302.15	3.88	-61.3	-74.4	3.8	8.47e-01	0	29	104	3738173440	87	17592
2026-01-04 07:30:06.61	301.87	3.64	-61.4	-74.5	3.8	8.44e-01	0	29	104	3738173440	87	17752
2026-01-04 07:30:10.64	301.59	3.40	-61.3	-74.4	3.8	8.45e-01	0	29	104	3738173440	87	17678
2026-01-04 07:30:14.68	301.31	3.17	-61.2	-74.3	3.8	8.45e-01	0	29	104	3738173440	87	17444
2026-01-04 07:30:18.72	301.04	2.93	-61.2	-74.3	3.8	8.45e-01	0	29	104	3738173440	87	17328
2026-01-04 07:30:22.75	300.77	2.70	-61.1	-74.3	3.8	8.46e-01	0	29	104	3738173440	87	17326
2026-01-04 07:30:26.78	300.51	2.46	-61.1	-74.2	3.8	8.45e-01	0	29	104	3738173440	87	17211
2026-01-04 07:30:30.81	300.25	2.23	-61.1	-74.2	3.8	8.45e-01	0	29	104	3738173440	87	17121
2026-01-04 07:30:34.85	299.99	2.00	-61.0	-74.1	3.8	8.46e-01	0	29	104	3738173440	87	17059

#Closed at: 2026-01-04 07:30:37
#Recorded file [3738 MB]: D:/lorett/data/31004_260104_101752.dat