passes_logs/2026/01/04/R3.2S_Murmansk/R3.2S_Murmansk__20260104_061605_SUOMI_NPP_rec.log

#Pass ID: 20260104_061605_SUOMI NPP
#Satellite: SUOMI NPP
#Configuration: NPP
#almurnet v.1.7.20251203
#Start time: 2026-01-04 06:16:07

#Version: 2.2.20231116
#Station: R3.2S_Murmansk
#Location: 33.079688 lon 68.888172 lat
#TLE: 1 37849U 11061A   26001.07732418  .00000182  00000+0  10735-3 0  9990
#TLE: 2 37849  98.7795 303.2470 0002580  87.2016 272.9455 14.19520779734739

#Time	Az	El	Level	Level2	SNR	BER	BlckErr	Temp	State	Recorded	gain1	gain2
2026-01-04 06:16:07.85	79.27	2.14	-58.3	-74.4	3.8	1.49e+00	0	27	0	0	83	22077
2026-01-04 06:16:11.85	79.03	2.37	-58.3	-74.3	3.8	1.49e+00	0	27	104	0	81	24650
2026-01-04 06:16:15.84	78.79	2.60	-58.3	-74.3	3.8	1.49e+00	0	27	104	0	81	24635
2026-01-04 06:16:19.84	78.54	2.84	-58.3	-74.3	3.8	1.49e+00	0	27	104	0	81	24553
2026-01-04 06:16:23.83	78.28	3.08	-58.3	-74.3	3.8	1.49e+00	0	27	104	0	81	24565
2026-01-04 06:16:27.81	78.02	3.31	-58.3	-74.3	3.8	1.49e+00	0	27	104	0	81	24646
2026-01-04 06:16:31.79	77.76	3.55	-58.3	-74.3	3.8	1.49e+00	0	27	104	0	81	24527
2026-01-04 06:16:35.79	77.49	3.79	-58.3	-74.3	3.8	1.49e+00	0	27	104	0	81	24642
2026-01-04 06:16:39.79	77.22	4.03	-58.3	-74.2	3.8	1.49e+00	0	27	104	0	81	24247
2026-01-04 06:16:43.78	76.94	4.28	-58.3	-74.3	3.8	1.49e+00	0	27	104	0	81	24598
2026-01-04 06:16:47.78	76.66	4.52	-58.2	-73.0	3.8	1.49e+00	0	27	104	0	81	21071
2026-01-04 06:16:51.77	76.38	4.77	-58.0	-69.7	4.5	1.20e+00	0	27	0	1048576	81	14394
2026-01-04 06:16:55.78	76.08	5.02	-57.6	-66.5	6.2	2.50e-01	0	28	0	8388608	81	9996
2026-01-04 06:16:59.77	75.78	5.27	-58.4	-70.8	4.3	1.02e+00	48	28	0	13631488	81	16435
2026-01-04 06:17:03.77	75.48	5.52	-55.0	-58.7	12.3	2.20e-06	0	28	0	18874368	76	5459
2026-01-04 06:17:07.77	75.17	5.77	-54.6	-58.0	12.7	0.00e+00	0	28	0	26214400	75	5312
2026-01-04 06:17:11.76	74.86	6.03	-54.4	-57.7	12.9	0.00e+00	0	28	0	34603008	75	5131
2026-01-04 06:17:15.75	74.54	6.29	-54.2	-57.4	13.1	0.00e+00	0	28	0	41943040	75	4966
2026-01-04 06:17:19.73	74.22	6.54	-54.0	-57.0	13.3	0.00e+00	0	28	0	49283072	74	5012
2026-01-04 06:17:23.71	73.89	6.80	-54.1	-57.1	13.2	0.00e+00	0	28	0	56623104	74	5100
2026-01-04 06:17:27.68	73.55	7.06	-54.1	-57.2	13.2	0.00e+00	0	28	0	63963136	74	5103
2026-01-04 06:17:31.67	73.21	7.33	-54.0	-56.8	13.4	0.00e+00	0	28	0	71303168	74	4919
2026-01-04 06:17:35.66	72.85	7.59	-54.0	-56.9	13.4	0.00e+00	0	28	0	78643200	74	4944
2026-01-04 06:17:39.66	72.50	7.86	-54.2	-57.2	13.2	0.00e+00	0	28	0	85983232	74	5103
2026-01-04 06:17:43.66	72.13	8.13	-54.2	-57.2	13.3	0.00e+00	0	28	0	94371840	74	5114
2026-01-04 06:17:47.65	71.76	8.40	-54.4	-57.7	12.9	0.00e+00	0	28	0	101711872	74	5461
2026-01-04 06:17:51.64	71.38	8.67	-54.1	-57.2	13.2	0.00e+00	0	28	0	109051904	74	5144
2026-01-04 06:17:55.64	71.00	8.94	-53.8	-56.7	13.5	0.00e+00	0	28	0	116391936	74	4859
2026-01-04 06:17:59.65	70.60	9.22	-54.0	-57.1	13.3	0.00e+00	0	28	0	123731968	74	5054
2026-01-04 06:18:03.60	70.20	9.49	-53.7	-56.5	13.7	0.00e+00	0	28	0	131072000	74	4728
2026-01-04 06:18:07.60	69.79	9.77	-53.6	-56.4	13.7	0.00e+00	0	28	0	138412032	73	4938
2026-01-04 06:18:11.60	69.38	10.05	-53.7	-56.5	13.6	0.00e+00	0	28	0	146800640	73	5020
2026-01-04 06:18:15.59	68.95	10.34	-53.7	-56.4	13.6	0.00e+00	0	28	0	154140672	73	4957
2026-01-04 06:18:19.58	68.52	10.62	-53.5	-56.2	13.8	0.00e+00	0	28	0	161480704	73	4821
2026-01-04 06:18:23.57	68.08	10.90	-53.8	-56.5	13.6	0.00e+00	0	28	0	168820736	73	5001
2026-01-04 06:18:27.55	67.62	11.19	-53.8	-56.5	13.7	0.00e+00	0	28	0	176160768	73	4985
2026-01-04 06:18:31.53	67.17	11.48	-53.8	-56.5	13.6	0.00e+00	0	28	0	183500800	73	5007
2026-01-04 06:18:35.52	66.70	11.77	-53.9	-56.6	13.5	0.00e+00	0	28	0	190840832	73	5096
2026-01-04 06:18:39.53	66.21	12.06	-53.9	-56.8	13.5	0.00e+00	0	28	0	199229440	73	5171
2026-01-04 06:18:43.53	65.72	12.35	-53.5	-56.1	13.8	0.00e+00	0	28	0	206569472	73	4795
2026-01-04 06:18:47.53	65.22	12.65	-53.5	-56.0	13.9	0.00e+00	0	28	0	213909504	73	4724
2026-01-04 06:18:51.51	64.71	12.94	-52.9	-55.3	14.2	0.00e+00	0	28	0	221249536	72	4606
2026-01-04 06:18:55.51	64.19	13.24	-52.8	-55.1	14.2	0.00e+00	0	28	0	228589568	72	4501
2026-01-04 06:18:59.51	63.66	13.54	-52.8	-55.1	14.3	0.00e+00	0	28	0	235929600	72	4505
2026-01-04 06:19:03.52	63.11	13.84	-53.0	-55.3	14.1	0.00e+00	0	28	0	243269632	72	4641
2026-01-04 06:19:07.51	62.56	14.14	-52.9	-55.2	14.2	0.00e+00	0	28	0	251658240	72	4592
2026-01-04 06:19:11.52	61.99	14.44	-52.7	-54.9	14.2	0.00e+00	0	28	0	258998272	71	4705
2026-01-04 06:19:15.52	61.41	14.75	-52.6	-54.9	14.2	0.00e+00	0	28	0	266338304	71	4680
2026-01-04 06:19:19.51	60.82	15.05	-52.6	-54.9	14.2	0.00e+00	0	28	0	273678336	71	4703
2026-01-04 06:19:23.49	60.22	15.35	-52.8	-55.2	14.1	0.00e+00	0	28	0	281018368	71	4851
2026-01-04 06:19:27.47	59.61	15.66	-53.3	-56.0	13.8	0.00e+00	0	28	0	288358400	71	5312
2026-01-04 06:19:31.46	58.98	15.96	-53.4	-56.1	13.8	0.00e+00	0	28	0	295698432	72	5064
2026-01-04 06:19:35.45	58.34	16.27	-53.3	-56.0	13.9	0.00e+00	0	28	0	304087040	72	4987
2026-01-04 06:19:39.45	57.69	16.57	-53.4	-56.0	13.8	0.00e+00	0	28	0	311427072	72	5031
2026-01-04 06:19:43.45	57.02	16.88	-53.4	-56.0	13.8	0.00e+00	0	28	0	318767104	72	5019
2026-01-04 06:19:47.45	56.34	17.18	-53.1	-55.6	14.0	0.00e+00	0	28	0	326107136	72	4804
2026-01-04 06:19:51.44	55.64	17.48	-53.0	-55.5	14.1	0.00e+00	0	28	0	333447168	72	4722
2026-01-04 06:19:55.45	54.93	17.79	-53.5	-56.2	13.8	0.00e+00	0	28	0	340787200	72	5108
2026-01-04 06:19:59.44	54.20	18.09	-53.1	-55.6	14.1	0.00e+00	0	28	0	348127232	72	4794
2026-01-04 06:20:03.42	53.47	18.39	-53.0	-55.4	14.2	0.00e+00	0	28	0	356515840	72	4679
2026-01-04 06:20:07.43	52.71	18.69	-53.1	-55.6	14.1	0.00e+00	0	28	0	363855872	72	4763
2026-01-04 06:20:11.44	51.94	18.99	-53.1	-55.6	14.1	0.00e+00	0	28	0	371195904	72	4781
2026-01-04 06:20:15.45	51.15	19.29	-52.7	-54.8	14.3	0.00e+00	0	28	0	378535936	72	4385
2026-01-04 06:20:19.44	50.35	19.58	-52.6	-54.8	14.3	0.00e+00	0	28	0	385875968	71	4606
2026-01-04 06:20:23.43	49.53	19.87	-52.2	-54.5	14.4	0.00e+00	0	29	0	393216000	71	4444
2026-01-04 06:20:27.42	48.70	20.16	-51.7	-53.7	14.6	0.00e+00	0	28	0	400556032	69	4588
2026-01-04 06:20:31.39	47.86	20.44	-51.7	-53.7	14.5	0.00e+00	0	28	0	408944640	69	4558
2026-01-04 06:20:35.37	47.00	20.72	-51.5	-53.5	14.6	0.00e+00	0	28	0	416284672	69	4452
2026-01-04 06:20:39.36	46.12	21.00	-51.6	-53.5	14.6	0.00e+00	0	28	0	423624704	69	4491
2026-01-04 06:20:43.34	45.23	21.27	-51.7	-53.7	14.5	0.00e+00	0	29	0	430964736	69	4570
2026-01-04 06:20:47.33	44.32	21.54	-51.4	-53.3	14.7	0.00e+00	0	28	0	438304768	69	4353
2026-01-04 06:20:51.34	43.39	21.81	-51.2	-53.1	14.8	0.00e+00	0	28	0	445644800	69	4273
2026-01-04 06:20:55.35	42.44	22.06	-51.2	-53.0	14.7	0.00e+00	0	28	0	452984832	68	4477
2026-01-04 06:20:59.34	41.48	22.32	-50.9	-52.6	14.9	0.00e+00	0	28	0	460324864	68	4289
2026-01-04 06:21:03.32	40.51	22.56	-51.3	-53.1	14.7	0.00e+00	0	28	0	468713472	68	4529
2026-01-04 06:21:07.32	39.52	22.80	-51.3	-53.0	14.7	0.00e+00	0	28	0	476053504	68	4490
2026-01-04 06:21:11.32	38.51	23.03	-51.1	-52.9	14.8	0.00e+00	0	28	0	483393536	68	4396
2026-01-04 06:21:15.31	37.49	23.26	-51.2	-52.9	14.8	0.00e+00	0	29	0	490733568	68	4420
2026-01-04 06:21:19.30	36.46	23.47	-51.2	-52.9	14.7	0.00e+00	0	28	0	498073600	68	4437
2026-01-04 06:21:23.30	35.41	23.68	-51.2	-52.8	14.8	0.00e+00	0	28	0	505413632	68	4391
2026-01-04 06:21:27.29	34.35	23.88	-51.2	-52.9	14.8	0.00e+00	0	29	0	512753664	68	4398
2026-01-04 06:21:31.27	33.27	24.07	-51.2	-52.9	14.8	0.00e+00	0	28	0	521142272	68	4412
2026-01-04 06:21:35.26	32.19	24.25	-50.5	-52.1	14.9	0.00e+00	0	28	0	528482304	67	4274
2026-01-04 06:21:39.24	31.09	24.41	-51.0	-52.7	14.8	0.00e+00	0	28	0	535822336	67	4556
2026-01-04 06:21:43.22	29.98	24.57	-52.1	-54.0	14.5	0.00e+00	0	28	0	543162368	69	4726
2026-01-04 06:21:47.22	28.85	24.72	-53.2	-55.5	14.0	0.00e+00	0	29	0	550502400	71	5017
2026-01-04 06:21:51.23	27.72	24.86	-52.3	-54.3	14.5	0.00e+00	0	28	0	557842432	71	4354
2026-01-04 06:21:55.21	26.58	24.98	-52.7	-54.9	14.3	0.00e+00	0	28	0	565182464	71	4661
2026-01-04 06:21:59.22	25.42	25.09	-52.7	-54.8	14.3	0.00e+00	0	28	0	573571072	71	4629
2026-01-04 06:22:03.21	24.26	25.19	-52.8	-55.1	14.2	0.00e+00	0	28	0	580911104	71	4781
2026-01-04 06:22:07.22	23.09	25.28	-53.1	-55.4	14.1	0.00e+00	0	29	0	588251136	71	4949
2026-01-04 06:22:11.21	21.92	25.36	-52.6	-54.8	14.3	0.00e+00	0	28	0	595591168	71	4623
2026-01-04 06:22:15.19	20.75	25.42	-52.6	-54.7	14.4	0.00e+00	0	29	0	602931200	71	4577
2026-01-04 06:22:19.20	19.56	25.46	-53.1	-55.6	14.0	0.00e+00	0	28	0	610271232	71	5051
2026-01-04 06:22:23.19	18.38	25.50	-52.9	-55.1	14.2	0.00e+00	0	28	0	617611264	71	4796
2026-01-04 06:22:27.18	17.19	25.52	-52.5	-54.7	14.4	0.00e+00	0	29	0	625999872	71	4555
2026-01-04 06:22:31.17	16.00	25.53	-53.2	-55.7	13.9	0.00e+00	0	29	0	633339904	71	5110
2026-01-04 06:22:35.15	14.82	25.52	-52.9	-55.3	14.1	0.00e+00	0	28	0	640679936	71	4907
2026-01-04 06:22:39.13	13.64	25.51	-52.2	-54.2	14.6	0.00e+00	0	29	0	648019968	71	4327
2026-01-04 06:22:43.12	12.45	25.47	-51.6	-53.5	14.7	0.00e+00	0	28	0	655360000	69	4481
2026-01-04 06:22:47.10	11.27	25.43	-51.7	-53.5	14.6	0.00e+00	0	28	0	662700032	69	4489
2026-01-04 06:22:51.10	10.09	25.37	-51.1	-52.8	14.8	0.00e+00	0	28	0	670040064	68	4362
2026-01-04 06:22:55.10	8.92	25.30	-50.7	-52.3	14.9	0.00e+00	0	29	0	678428672	67	4363
2026-01-04 06:22:59.10	7.75	25.21	-50.5	-52.1	15.0	0.00e+00	0	28	0	685768704	67	4243
2026-01-04 06:23:03.10	6.59	25.11	-50.9	-52.5	14.8	0.00e+00	0	29	0	693108736	67	4486
2026-01-04 06:23:07.09	5.44	25.00	-51.3	-53.0	14.7	0.00e+00	0	29	0	700448768	67	4708
2026-01-04 06:23:11.09	4.29	24.88	-51.7	-53.4	14.7	0.00e+00	0	28	0	707788800	68	4657
2026-01-04 06:23:15.09	3.15	24.75	-51.7	-53.3	14.7	0.00e+00	0	29	0	715128832	68	4635
2026-01-04 06:23:19.09	2.03	24.60	-52.1	-53.9	14.6	0.00e+00	0	29	0	722468864	70	4402
2026-01-04 06:23:23.09	0.91	24.45	-51.8	-53.6	14.7	0.00e+00	0	28	0	730857472	69	4506
2026-01-04 06:23:27.08	359.81	24.28	-52.6	-54.6	14.3	0.00e+00	0	28	0	738197504	70	4809
2026-01-04 06:23:31.06	358.72	24.10	-52.8	-54.9	14.3	0.00e+00	0	28	0	745537536	70	4972
2026-01-04 06:23:35.04	357.65	23.92	-52.9	-55.2	14.2	0.00e+00	0	29	0	752877568	71	4821
2026-01-04 06:23:39.05	356.58	23.72	-52.5	-54.6	14.4	0.00e+00	0	29	0	760217600	71	4538
2026-01-04 06:23:43.04	355.53	23.51	-53.2	-55.6	14.0	0.00e+00	0	28	0	767557632	71	5068
2026-01-04 06:23:47.02	354.50	23.30	-52.7	-54.9	14.3	0.00e+00	0	28	0	774897664	71	4658
2026-01-04 06:23:51.02	353.47	23.08	-52.5	-54.6	14.4	0.00e+00	0	28	0	783286272	71	4519
2026-01-04 06:23:55.02	352.46	22.85	-53.6	-56.3	13.7	0.00e+00	0	28	0	790626304	72	5163
2026-01-04 06:23:59.02	351.47	22.61	-52.8	-55.1	14.3	0.00e+00	0	28	0	797966336	72	4497
2026-01-04 06:24:03.02	350.49	22.37	-53.2	-55.8	13.9	0.00e+00	0	29	0	805306368	71	5165
2026-01-04 06:24:07.02	349.53	22.11	-53.4	-56.0	13.9	0.00e+00	0	29	0	812646400	72	5016
2026-01-04 06:24:11.02	348.58	21.86	-52.4	-54.5	14.5	0.00e+00	0	28	0	819986432	71	4448
2026-01-04 06:24:15.02	347.65	21.60	-52.7	-54.9	14.2	0.00e+00	0	28	0	827326464	70	4981
2026-01-04 06:24:19.02	346.74	21.33	-52.4	-54.6	14.3	0.00e+00	0	28	0	835715072	70	4799
2026-01-04 06:24:23.03	345.84	21.05	-51.3	-53.1	14.8	0.00e+00	0	29	0	843055104	69	4268
2026-01-04 06:24:27.02	344.95	20.78	-51.0	-52.7	14.8	0.00e+00	0	28	0	850395136	68	4334
2026-01-04 06:24:31.02	344.09	20.50	-51.7	-53.7	14.5	0.00e+00	0	29	0	857735168	68	4852
2026-01-04 06:24:35.02	343.24	20.21	-52.1	-54.2	14.4	0.00e+00	0	28	0	865075200	69	4848
2026-01-04 06:24:38.99	342.41	19.93	-52.1	-54.2	14.3	0.00e+00	0	28	0	872415232	69	4859
2026-01-04 06:24:42.98	341.59	19.64	-51.7	-53.8	14.5	0.00e+00	0	28	0	879755264	69	4617
2026-01-04 06:24:46.97	340.79	19.34	-51.9	-53.9	14.5	0.00e+00	0	29	0	888143872	69	4678
2026-01-04 06:24:50.97	340.00	19.05	-51.8	-53.8	14.5	0.00e+00	0	29	0	895483904	69	4612
2026-01-04 06:24:54.98	339.23	18.75	-51.8	-53.8	14.5	0.00e+00	0	29	0	902823936	69	4633
2026-01-04 06:24:58.96	338.47	18.45	-51.7	-53.7	14.6	0.00e+00	0	28	0	910163968	69	4555
2026-01-04 06:25:02.97	337.73	18.15	-51.3	-53.1	14.8	0.00e+00	0	29	0	917504000	69	4275
2026-01-04 06:25:06.97	337.00	17.85	-51.4	-53.2	14.8	0.00e+00	0	29	0	924844032	69	4293
2026-01-04 06:25:10.97	336.29	17.55	-52.0	-54.0	14.5	0.00e+00	0	28	0	932184064	69	4719
2026-01-04 06:25:14.96	335.59	17.24	-51.4	-53.1	14.8	0.00e+00	0	28	0	940572672	69	4267
2026-01-04 06:25:18.96	334.91	16.94	-51.4	-53.1	14.8	0.00e+00	0	29	0	947912704	69	4269
2026-01-04 06:25:22.96	334.24	16.63	-51.6	-53.4	14.7	0.00e+00	0	29	0	955252736	69	4410
2026-01-04 06:25:26.95	333.58	16.33	-51.7	-53.5	14.6	0.00e+00	0	28	0	962592768	69	4477
2026-01-04 06:25:30.94	332.94	16.03	-50.9	-52.5	14.9	0.00e+00	0	28	0	969932800	68	4232
2026-01-04 06:25:34.92	332.32	15.72	-51.6	-53.4	14.6	0.00e+00	0	28	0	977272832	68	4669
2026-01-04 06:25:38.90	331.70	15.42	-52.2	-54.2	14.4	0.00e+00	0	28	0	984612864	69	4818
2026-01-04 06:25:42.88	331.10	15.12	-51.8	-53.6	14.6	0.00e+00	0	29	0	993001472	69	4526
2026-01-04 06:25:46.88	330.51	14.81	-51.3	-53.1	14.8	0.00e+00	0	28	0	1000341504	69	4253
2026-01-04 06:25:50.86	329.93	14.51	-51.7	-53.5	14.6	0.00e+00	0	28	0	1007681536	69	4482
2026-01-04 06:25:54.85	329.37	14.21	-52.8	-54.9	14.2	0.00e+00	0	28	0	1015021568	70	4934
2026-01-04 06:25:58.85	328.81	13.91	-52.7	-54.7	14.3	0.00e+00	0	28	0	1022361600	71	4597
2026-01-04 06:26:02.84	328.27	13.61	-51.7	-53.5	14.7	0.00e+00	0	28	0	1029701632	70	4230
2026-01-04 06:26:06.85	327.73	13.31	-51.9	-53.7	14.6	0.00e+00	0	29	0	1037041664	69	4562
2026-01-04 06:26:10.84	327.21	13.02	-52.0	-53.9	14.5	0.00e+00	0	28	0	1044381696	69	4688
2026-01-04 06:26:14.84	326.70	12.72	-51.8	-53.7	14.5	0.00e+00	0	29	0	1052770304	69	4553
2026-01-04 06:26:18.84	326.19	12.42	-52.2	-54.2	14.4	0.00e+00	0	29	0	1060110336	69	4837
2026-01-04 06:26:22.83	325.70	12.13	-52.6	-54.7	14.2	0.00e+00	0	28	0	1067450368	70	4833
2026-01-04 06:26:26.83	325.22	11.84	-52.9	-55.1	14.0	0.00e+00	0	28	0	1074790400	70	5066
2026-01-04 06:26:30.81	324.75	11.55	-53.2	-55.5	13.9	0.00e+00	0	29	0	1082130432	71	5025
2026-01-04 06:26:34.79	324.29	11.26	-53.0	-55.3	14.0	0.00e+00	0	29	0	1089470464	71	4897
2026-01-04 06:26:38.78	323.84	10.98	-52.6	-54.7	14.3	0.00e+00	0	29	0	1096810496	71	4554
2026-01-04 06:26:42.76	323.40	10.69	-52.8	-54.9	14.2	0.00e+00	0	29	0	1105199104	71	4669
2026-01-04 06:26:46.77	322.96	10.41	-53.3	-55.6	13.9	0.00e+00	0	29	0	1112539136	71	5048
2026-01-04 06:26:50.76	322.54	10.12	-53.4	-55.8	13.9	0.00e+00	0	29	0	1119879168	72	4885
2026-01-04 06:26:54.76	322.12	9.84	-53.1	-55.4	14.1	0.00e+00	0	29	0	1127219200	72	4657
2026-01-04 06:26:58.76	321.71	9.56	-53.0	-55.2	14.2	0.00e+00	0	29	0	1134559232	72	4558
2026-01-04 06:27:02.75	321.31	9.29	-53.1	-55.4	14.1	0.00e+00	0	28	0	1141899264	72	4653
2026-01-04 06:27:06.74	320.91	9.01	-53.8	-56.4	13.6	0.00e+00	0	28	0	1149239296	72	5224
2026-01-04 06:27:10.74	320.53	8.74	-54.1	-56.8	13.4	0.00e+00	0	28	0	1157627904	73	5207
2026-01-04 06:27:14.76	320.14	8.46	-54.1	-56.9	13.3	0.00e+00	0	29	0	1164967936	73	5278
2026-01-04 06:27:18.75	319.77	8.19	-54.2	-57.0	13.2	0.00e+00	0	29	0	1172307968	73	5315
2026-01-04 06:27:22.76	319.41	7.92	-54.2	-57.1	13.2	0.00e+00	0	29	0	1179648000	73	5361
2026-01-04 06:27:26.75	319.05	7.66	-54.1	-56.9	13.3	0.00e+00	0	29	0	1186988032	73	5239
2026-01-04 06:27:30.74	318.70	7.39	-54.5	-57.5	13.0	0.00e+00	0	28	0	1194328064	74	5340
2026-01-04 06:27:34.73	318.35	7.13	-54.8	-58.1	12.7	0.00e+00	0	28	0	1202716672	74	5683
2026-01-04 06:27:38.73	318.02	6.87	-54.8	-58.1	12.8	0.00e+00	0	29	0	1210056704	75	5370
2026-01-04 06:27:42.71	317.69	6.61	-54.5	-57.6	13.0	0.00e+00	0	28	0	1217396736	75	5055
2026-01-04 06:27:46.70	317.36	6.35	-54.0	-56.7	13.4	0.00e+00	0	29	0	1224736768	74	4865
2026-01-04 06:27:50.71	317.04	6.09	-53.6	-56.2	13.6	0.00e+00	0	28	0	1232076800	73	4833
2026-01-04 06:27:54.71	316.73	5.84	-53.5	-55.9	13.7	0.00e+00	0	28	0	1239416832	73	4702
2026-01-04 06:27:58.72	316.42	5.58	-53.8	-56.5	13.4	0.00e+00	0	28	0	1246756864	73	5012
2026-01-04 06:28:02.70	316.11	5.33	-54.3	-57.2	13.0	0.00e+00	0	29	0	1254096896	73	5464
2026-01-04 06:28:06.69	315.82	5.08	-54.9	-58.4	12.3	0.00e+00	0	29	0	1262485504	75	5554
2026-01-04 06:28:10.69	315.53	4.83	-59.7	-75.7	3.8	1.49e+00	0	29	104	1266679808	84	24344
2026-01-04 06:28:14.68	315.24	4.59	-60.6	-76.7	3.8	1.49e+00	0	29	104	1266679808	86	24293
2026-01-04 06:28:18.67	314.96	4.34	-61.1	-77.2	3.8	1.49e+00	0	29	104	1266679808	87	24163
2026-01-04 06:28:22.66	314.68	4.10	-61.3	-77.4	3.8	1.49e+00	0	29	104	1266679808	87	24896
2026-01-04 06:28:26.65	314.41	3.86	-61.5	-77.6	3.8	1.49e+00	0	29	104	1266679808	88	23904
2026-01-04 06:28:30.66	314.14	3.61	-61.4	-77.5	3.8	1.49e+00	0	29	104	1266679808	88	23659
2026-01-04 06:28:34.65	313.88	3.37	-61.3	-77.4	3.8	1.49e+00	0	29	104	1266679808	88	23336
2026-01-04 06:28:38.65	313.62	3.14	-61.2	-77.3	3.8	1.49e+00	0	29	104	1266679808	88	23215
2026-01-04 06:28:42.63	313.37	2.90	-61.2	-77.3	3.8	1.49e+00	0	29	104	1266679808	88	23075
2026-01-04 06:28:46.62	313.12	2.67	-61.2	-77.3	3.8	1.49e+00	0	29	104	1266679808	88	23052
2026-01-04 06:28:50.62	312.87	2.43	-61.1	-77.2	3.8	1.49e+00	0	29	104	1266679808	88	23006
2026-01-04 06:28:54.61	312.63	2.20	-61.1	-77.2	3.8	1.49e+00	0	29	104	1266679808	88	22890
2026-01-04 06:28:58.60	312.39	1.97	-61.1	-77.2	3.8	1.49e+00	0	29	104	1266679808	88	22821

#Closed at: 2026-01-04 06:29:00
#Recorded file [1266 MB]: D:/lorett/data/31004_260104_091607.dat