passes_logs/2026/01/04/R3.2S_Murmansk/R3.2S_Murmansk__20260104_145105_AQUA_rec.log

#Pass ID: 20260104_145105_AQUA
#Satellite: AQUA
#Configuration: AQUA
#almurnet v.1.7.20251203
#Start time: 2026-01-04 14:51:06

#Version: 2.2.20231116
#Station: R3.2S_Murmansk
#Location: 33.079688 lon 68.888172 lat
#TLE: 1 27424U 02022A   26003.93831471  .00001925  00000+0  39553-3 0  9996
#TLE: 2 27424  98.4067 330.1809 0002002  92.1714 343.8415 14.61796291259276

#Time	Az	El	Level	Level2	SNR	BER	BlckErr	Temp	State	Recorded	gain1	gain2
2026-01-04 14:51:06.42	252.83	2.03	-58.6	-78.0	3.8	7.47e-01	0	27	0	0	86	32647
2026-01-04 14:51:09.41	253.20	2.15	-58.6	-78.0	3.8	7.48e-01	0	27	104	0	84	36546
2026-01-04 14:51:12.39	253.57	2.27	-58.6	-77.9	3.8	7.46e-01	0	27	104	0	84	36471
2026-01-04 14:51:15.38	253.94	2.39	-58.6	-77.9	3.8	7.47e-01	0	27	104	0	84	36506
2026-01-04 14:51:18.36	254.31	2.51	-58.6	-78.0	3.8	7.44e-01	0	27	104	0	84	36600
2026-01-04 14:51:21.35	254.69	2.63	-58.6	-77.9	3.8	7.47e-01	0	27	104	0	84	36520
2026-01-04 14:51:24.34	255.07	2.74	-58.6	-77.9	3.8	7.50e-01	0	27	104	0	84	36425
2026-01-04 14:51:27.34	255.46	2.86	-58.6	-77.9	3.8	7.47e-01	0	28	104	0	84	36510
2026-01-04 14:51:30.35	255.85	2.98	-58.6	-78.0	3.8	7.44e-01	0	28	104	0	84	36623
2026-01-04 14:51:33.34	256.24	3.10	-58.6	-77.9	3.8	7.43e-01	0	27	104	0	84	36286
2026-01-04 14:51:36.35	256.64	3.22	-58.6	-77.9	3.8	7.48e-01	0	28	104	0	84	36424
2026-01-04 14:51:39.33	257.04	3.33	-58.6	-78.0	3.8	7.47e-01	0	28	104	0	84	36687
2026-01-04 14:51:42.33	257.44	3.45	-58.6	-77.9	3.8	7.47e-01	0	28	104	0	84	36341
2026-01-04 14:51:45.33	257.85	3.56	-58.6	-77.7	3.8	7.47e-01	0	28	104	0	84	35304
2026-01-04 14:51:48.34	258.26	3.68	-58.6	-77.9	3.8	7.49e-01	0	28	104	0	84	36513
2026-01-04 14:51:51.33	258.67	3.79	-58.6	-78.0	3.8	7.46e-01	0	28	104	0	84	36562
2026-01-04 14:51:54.33	259.09	3.91	-58.6	-77.2	3.8	7.47e-01	0	28	104	0	84	33679
2026-01-04 14:51:57.33	259.51	4.02	-58.6	-77.3	3.8	7.46e-01	0	28	104	0	84	33698
2026-01-04 14:52:00.32	259.93	4.13	-58.6	-77.7	3.8	7.47e-01	0	28	104	0	84	35625
2026-01-04 14:52:03.32	260.36	4.25	-58.6	-77.4	3.8	7.48e-01	0	28	104	0	84	34184
2026-01-04 14:52:06.33	260.79	4.36	-58.6	-77.2	3.9	7.47e-01	0	28	104	0	84	33507
2026-01-04 14:52:09.32	261.22	4.47	-58.6	-77.9	3.8	7.46e-01	0	28	104	0	85	34133
2026-01-04 14:52:12.32	261.66	4.58	-58.6	-77.0	3.9	7.49e-01	0	28	104	0	85	30744
2026-01-04 14:52:15.30	262.10	4.69	-58.6	-76.8	3.9	7.49e-01	0	28	104	0	85	30084
2026-01-04 14:52:18.28	262.54	4.79	-58.6	-75.9	3.9	7.43e-01	0	29	104	0	85	27291
2026-01-04 14:52:21.29	262.99	4.90	-58.4	-71.9	5.1	7.02e-01	0	29	0	0	85	17084
2026-01-04 14:52:24.28	263.44	5.01	-58.0	-67.1	8.7	6.31e-01	0	29	0	4718592	85	9904
2026-01-04 14:52:27.27	263.89	5.11	-58.1	-67.9	8.0	6.39e-01	1	29	0	10485760	84	11446
2026-01-04 14:52:30.27	264.35	5.22	-54.2	-57.1	14.6	6.06e-01	0	29	0	14155776	77	4969
2026-01-04 14:52:33.25	264.81	5.32	-53.4	-56.0	15.0	6.05e-01	0	28	0	19922944	76	4600
2026-01-04 14:52:36.26	265.28	5.42	-52.2	-54.4	15.3	6.07e-01	0	28	0	25690112	73	4547
2026-01-04 14:52:39.26	265.74	5.52	-52.0	-54.1	15.4	6.05e-01	0	29	0	31457280	73	4423
2026-01-04 14:52:42.25	266.21	5.62	-52.1	-54.3	15.3	6.07e-01	0	29	0	36700160	73	4521
2026-01-04 14:52:45.25	266.69	5.72	-52.1	-54.3	15.3	6.08e-01	0	29	0	42467328	73	4521
2026-01-04 14:52:48.24	267.17	5.82	-52.0	-54.2	15.3	6.06e-01	0	29	0	48234496	73	4471
2026-01-04 14:52:51.24	267.65	5.92	-52.5	-54.8	15.1	6.05e-01	0	29	0	53477376	73	4785
2026-01-04 14:52:54.22	268.13	6.01	-53.7	-56.6	14.7	6.05e-01	0	29	0	59244544	75	5223
2026-01-04 14:52:57.22	268.62	6.11	-54.1	-57.2	14.4	6.06e-01	0	29	0	65011712	75	5620
2026-01-04 14:53:00.22	269.11	6.20	-54.5	-57.8	14.3	6.07e-01	0	29	0	70254592	76	5700
2026-01-04 14:53:03.22	269.61	6.29	-54.5	-57.7	14.4	6.07e-01	0	29	0	76021760	77	5319
2026-01-04 14:53:06.22	270.10	6.38	-53.6	-56.3	14.9	6.05e-01	0	29	0	81788928	76	4796
2026-01-04 14:53:09.21	270.60	6.47	-52.1	-54.2	15.3	6.09e-01	0	29	0	87556096	73	4493
2026-01-04 14:53:12.21	271.11	6.56	-52.2	-54.4	15.3	6.06e-01	0	29	0	92798976	73	4571
2026-01-04 14:53:15.19	271.61	6.64	-52.2	-54.3	15.3	6.06e-01	0	29	0	98566144	73	4535
2026-01-04 14:53:18.18	272.12	6.73	-52.0	-54.1	15.4	6.07e-01	0	29	0	104333312	73	4427
2026-01-04 14:53:21.18	272.64	6.81	-51.9	-53.9	15.3	6.06e-01	0	29	0	110100480	72	4584
2026-01-04 14:53:24.17	273.15	6.89	-51.9	-54.0	15.3	6.07e-01	0	29	0	115343360	72	4640
2026-01-04 14:53:27.16	273.67	6.97	-51.7	-53.7	15.4	6.06e-01	0	29	0	121110528	72	4458
2026-01-04 14:53:30.16	274.19	7.05	-51.7	-53.7	15.3	6.07e-01	0	29	0	126877696	72	4490
2026-01-04 14:53:33.14	274.72	7.13	-51.6	-53.6	15.4	6.07e-01	0	29	0	132120576	72	4425
2026-01-04 14:53:36.14	275.24	7.20	-51.5	-53.5	15.5	6.05e-01	0	29	0	137887744	72	4363
2026-01-04 14:53:39.15	275.78	7.28	-51.6	-53.6	15.5	6.07e-01	0	29	0	143654912	72	4415
2026-01-04 14:53:42.14	276.31	7.35	-51.5	-53.4	15.5	6.06e-01	0	29	0	148897792	72	4334
2026-01-04 14:53:45.15	276.85	7.42	-51.6	-53.6	15.4	6.05e-01	0	29	0	154664960	72	4397
2026-01-04 14:53:48.14	277.39	7.49	-51.4	-53.3	15.5	6.09e-01	0	29	0	160432128	72	4272
2026-01-04 14:53:51.14	277.93	7.55	-51.6	-53.5	15.5	6.06e-01	0	29	0	166199296	72	4387
2026-01-04 14:53:54.14	278.48	7.62	-51.6	-53.5	15.5	6.08e-01	0	29	0	171442176	72	4377
2026-01-04 14:53:57.14	279.02	7.68	-51.5	-53.5	15.5	6.07e-01	0	29	0	177209344	72	4349
2026-01-04 14:54:00.13	279.57	7.74	-51.6	-53.6	15.5	6.06e-01	0	29	0	182976512	72	4396
2026-01-04 14:54:03.13	280.12	7.80	-51.6	-53.5	15.5	6.06e-01	0	29	0	188743680	72	4380
2026-01-04 14:54:06.13	280.68	7.85	-51.4	-53.3	15.6	6.08e-01	0	29	0	193986560	72	4285
2026-01-04 14:54:09.13	281.23	7.91	-51.5	-53.4	15.5	6.06e-01	0	29	0	199753728	72	4324
2026-01-04 14:54:12.12	281.79	7.96	-51.6	-53.6	15.5	6.06e-01	0	29	0	205520896	72	4401
2026-01-04 14:54:15.11	282.35	8.01	-51.5	-53.5	15.5	6.03e-01	0	29	0	210763776	72	4343
2026-01-04 14:54:18.09	282.91	8.06	-51.6	-53.5	15.5	6.02e-01	0	29	0	216530944	72	4351
2026-01-04 14:54:21.09	283.47	8.10	-51.6	-53.5	15.5	6.06e-01	0	29	0	222298112	72	4349
2026-01-04 14:54:24.08	284.04	8.15	-51.6	-53.5	15.5	6.04e-01	0	29	0	227540992	72	4391
2026-01-04 14:54:27.08	284.61	8.19	-51.6	-53.6	15.5	6.05e-01	0	29	0	233308160	72	4406
2026-01-04 14:54:30.07	285.18	8.23	-51.7	-53.6	15.5	6.03e-01	0	29	0	239075328	72	4417
2026-01-04 14:54:33.07	285.75	8.26	-51.7	-53.6	15.5	6.04e-01	0	29	0	244318208	72	4435
2026-01-04 14:54:36.06	286.32	8.30	-51.7	-53.6	15.5	6.04e-01	0	29	0	250085376	72	4412
2026-01-04 14:54:39.05	286.89	8.33	-51.8	-53.7	15.5	6.05e-01	0	29	0	255852544	72	4478
2026-01-04 14:54:42.04	287.46	8.36	-51.8	-53.7	15.4	6.06e-01	0	29	0	261619712	72	4472
2026-01-04 14:54:45.05	288.04	8.39	-51.9	-53.8	15.4	6.02e-01	0	29	0	266862592	72	4534
2026-01-04 14:54:48.04	288.62	8.42	-51.8	-53.8	15.4	6.03e-01	0	29	0	272629760	72	4507
2026-01-04 14:54:51.04	289.20	8.44	-51.9	-53.9	15.4	6.04e-01	0	29	0	278396928	72	4585
2026-01-04 14:54:54.03	289.78	8.46	-51.8	-53.7	15.4	6.02e-01	0	29	0	284164096	72	4481
2026-01-04 14:54:57.03	290.36	8.48	-51.8	-53.7	15.5	6.04e-01	0	29	0	289406976	72	4462
2026-01-04 14:55:00.03	290.94	8.49	-51.9	-53.8	15.5	6.03e-01	0	29	0	295174144	72	4525
2026-01-04 14:55:03.03	291.52	8.51	-51.7	-53.6	15.5	6.02e-01	0	29	0	300941312	72	4415
2026-01-04 14:55:06.02	292.10	8.52	-51.8	-53.8	15.4	6.02e-01	0	29	0	306184192	72	4507
2026-01-04 14:55:09.03	292.68	8.53	-51.9	-53.8	15.4	6.01e-01	0	29	0	311951360	72	4537
2026-01-04 14:55:12.02	293.26	8.54	-51.7	-53.7	15.5	6.03e-01	0	29	0	317718528	72	4443
2026-01-04 14:55:15.02	293.85	8.54	-51.5	-53.4	15.6	6.02e-01	0	29	0	323485696	72	4329
2026-01-04 14:55:18.01	294.43	8.54	-51.6	-53.5	15.5	6.01e-01	0	29	0	328728576	72	4389
2026-01-04 14:55:21.00	295.01	8.54	-51.6	-53.5	15.5	6.01e-01	0	29	0	334495744	72	4358
2026-01-04 14:55:23.99	295.59	8.54	-51.5	-53.4	15.6	6.03e-01	0	29	0	340262912	72	4314
2026-01-04 14:55:26.98	296.17	8.53	-51.4	-53.3	15.6	6.06e-01	0	29	0	345505792	72	4266
2026-01-04 14:55:29.96	296.75	8.52	-51.6	-53.5	15.5	6.03e-01	0	29	0	351272960	72	4385
2026-01-04 14:55:32.93	297.33	8.51	-51.5	-53.4	15.6	6.04e-01	0	29	0	357040128	72	4336
2026-01-04 14:55:35.92	297.91	8.50	-51.4	-53.3	15.6	6.05e-01	0	29	0	362283008	72	4279
2026-01-04 14:55:38.92	298.49	8.49	-51.6	-53.5	15.5	6.03e-01	0	29	0	368050176	72	4363
2026-01-04 14:55:41.91	299.07	8.47	-51.4	-53.3	15.6	6.01e-01	0	29	0	373817344	72	4283
2026-01-04 14:55:44.91	299.65	8.45	-51.4	-53.3	15.6	6.03e-01	0	29	0	379060224	72	4281
2026-01-04 14:55:47.89	300.22	8.43	-51.3	-53.2	15.5	6.01e-01	0	29	0	384827392	71	4487
2026-01-04 14:55:50.88	300.80	8.40	-51.4	-53.3	15.5	6.02e-01	0	29	0	390594560	71	4530
2026-01-04 14:55:53.86	301.37	8.37	-51.3	-53.2	15.5	6.04e-01	0	29	0	395837440	71	4481
2026-01-04 14:55:56.84	301.94	8.35	-51.3	-53.2	15.5	6.04e-01	0	29	0	401604608	71	4462
2026-01-04 14:55:59.83	302.51	8.31	-51.3	-53.2	15.5	6.04e-01	0	29	0	407371776	71	4463
2026-01-04 14:56:02.82	303.08	8.28	-51.2	-53.1	15.5	6.04e-01	0	29	0	412614656	71	4425
2026-01-04 14:56:05.82	303.66	8.24	-51.4	-53.3	15.5	6.01e-01	0	29	0	418381824	71	4504
2026-01-04 14:56:08.82	304.23	8.21	-51.4	-53.3	15.5	6.02e-01	0	29	0	424148992	71	4507
2026-01-04 14:56:11.82	304.79	8.17	-51.3	-53.2	15.5	6.04e-01	0	29	0	429916160	71	4490
2026-01-04 14:56:14.81	305.36	8.12	-51.4	-53.3	15.5	6.04e-01	0	29	0	435159040	71	4506
2026-01-04 14:56:17.80	305.92	8.08	-51.3	-53.3	15.5	6.05e-01	0	29	0	440926208	71	4503
2026-01-04 14:56:20.80	306.48	8.03	-51.4	-53.3	15.5	6.04e-01	0	29	0	446693376	71	4540
2026-01-04 14:56:23.79	307.04	7.98	-51.4	-53.3	15.5	6.05e-01	0	29	0	452460544	71	4519
2026-01-04 14:56:26.77	307.60	7.93	-51.3	-53.3	15.5	6.03e-01	0	29	0	457703424	71	4495
2026-01-04 14:56:29.77	308.15	7.88	-51.4	-53.4	15.5	6.03e-01	0	29	0	463470592	71	4554
2026-01-04 14:56:32.76	308.71	7.82	-51.3	-53.3	15.5	6.05e-01	0	29	0	469237760	71	4501
2026-01-04 14:56:35.76	309.26	7.77	-51.3	-53.2	15.5	6.04e-01	0	29	0	474480640	71	4468
2026-01-04 14:56:38.76	309.81	7.71	-51.3	-53.3	15.5	6.02e-01	0	29	0	480247808	71	4502
2026-01-04 14:56:41.76	310.35	7.65	-51.4	-53.4	15.5	6.04e-01	0	29	0	486014976	71	4577
2026-01-04 14:56:44.75	310.90	7.58	-51.4	-53.3	15.5	6.04e-01	0	29	0	491257856	71	4542
2026-01-04 14:56:47.74	311.44	7.52	-51.4	-53.3	15.4	6.04e-01	0	29	0	497025024	71	4539
2026-01-04 14:56:50.74	311.98	7.45	-51.4	-53.3	15.5	6.01e-01	0	29	0	502792192	71	4543
2026-01-04 14:56:53.75	312.52	7.38	-51.5	-53.5	15.4	6.05e-01	0	29	0	508559360	71	4606
2026-01-04 14:56:56.75	313.05	7.31	-51.3	-53.2	15.5	6.07e-01	0	29	0	513802240	71	4491
2026-01-04 14:56:59.76	313.58	7.24	-51.3	-53.2	15.5	6.01e-01	0	29	0	519569408	71	4468
2026-01-04 14:57:02.78	314.12	7.16	-51.5	-53.5	15.4	6.03e-01	0	29	0	525336576	71	4601
2026-01-04 14:57:05.78	314.64	7.09	-51.4	-53.4	15.5	6.03e-01	0	29	0	531103744	71	4579
2026-01-04 14:57:08.77	315.16	7.01	-51.5	-53.5	15.4	6.03e-01	0	29	0	536346624	71	4630
2026-01-04 14:57:11.75	315.68	6.93	-51.4	-53.3	15.4	6.06e-01	0	29	0	542113792	71	4541
2026-01-04 14:57:14.75	316.20	6.85	-51.6	-53.6	15.4	6.01e-01	0	29	0	547880960	71	4686
2026-01-04 14:57:17.75	316.71	6.77	-51.5	-53.6	15.4	6.06e-01	0	29	0	553648128	71	4661
2026-01-04 14:57:20.73	317.22	6.69	-51.6	-53.6	15.4	6.04e-01	0	29	0	558891008	71	4689
2026-01-04 14:57:23.73	317.72	6.60	-51.5	-53.6	15.4	6.03e-01	0	29	0	564658176	71	4653
2026-01-04 14:57:26.71	318.22	6.52	-51.5	-53.6	15.4	6.05e-01	0	29	0	570425344	71	4668
2026-01-04 14:57:29.69	318.72	6.43	-50.0	-53.7	14.9	6.02e-01	0	29	0	575668224	69	5292
2026-01-04 14:57:32.68	319.22	6.34	-48.4	-53.5	14.2	6.02e-01	0	29	0	581435392	64	6923
2026-01-04 14:57:35.68	319.71	6.25	-51.5	-53.6	15.3	6.06e-01	0	29	0	587202560	70	4975
2026-01-04 14:57:38.68	320.21	6.16	-51.6	-53.6	15.4	6.02e-01	0	29	0	592445440	71	4701
2026-01-04 14:57:41.68	320.69	6.06	-51.5	-53.6	15.4	6.03e-01	0	29	0	598212608	71	4684
2026-01-04 14:57:44.68	321.18	5.97	-51.6	-53.7	15.3	6.04e-01	0	29	0	603979776	71	4750
2026-01-04 14:57:47.67	321.66	5.87	-51.7	-53.7	15.3	6.03e-01	0	30	0	609222656	71	4757
2026-01-04 14:57:50.67	322.14	5.78	-51.7	-53.9	15.3	6.03e-01	0	29	0	614989824	71	4824
2026-01-04 14:57:53.68	322.61	5.68	-51.5	-53.5	15.4	6.04e-01	0	29	0	620756992	71	4639
2026-01-04 14:57:56.67	323.08	5.58	-51.6	-53.7	15.4	6.04e-01	0	29	0	626524160	71	4739
2026-01-04 14:57:59.67	323.55	5.48	-51.7	-53.8	15.3	6.04e-01	0	29	0	631767040	71	4777
2026-01-04 14:58:02.66	324.01	5.38	-51.8	-54.0	15.2	6.03e-01	0	29	0	637534208	71	4883
2026-01-04 14:58:05.67	324.48	5.28	-51.8	-54.0	15.3	6.04e-01	0	30	0	643301376	71	4882
2026-01-04 14:58:08.66	324.93	5.17	-51.8	-54.0	15.2	6.03e-01	0	29	0	649068544	71	4883
2026-01-04 14:58:11.66	325.39	5.07	-51.7	-53.9	15.3	6.05e-01	0	30	0	654311424	71	4829
2026-01-04 14:58:14.66	325.84	4.96	-59.0	-78.1	3.8	7.45e-01	0	29	104	659030016	85	34955
2026-01-04 14:58:17.66	326.29	4.86	-60.1	-79.5	3.8	7.44e-01	0	29	104	659030016	87	36785
2026-01-04 14:58:20.67	326.73	4.75	-60.6	-80.0	3.9	7.47e-01	0	29	104	659030016	89	34542
2026-01-04 14:58:23.67	327.17	4.64	-60.8	-80.2	3.9	7.49e-01	0	29	104	659030016	89	35576
2026-01-04 14:58:26.66	327.61	4.53	-61.0	-80.3	3.8	7.44e-01	0	30	104	659030016	89	36009
2026-01-04 14:58:29.66	328.04	4.43	-61.0	-80.4	3.8	7.44e-01	0	30	104	659030016	89	36257
2026-01-04 14:58:32.66	328.47	4.32	-61.0	-80.4	3.8	7.45e-01	0	30	104	659030016	89	36314
2026-01-04 14:58:35.66	328.90	4.20	-61.0	-80.4	3.8	7.44e-01	0	30	104	659030016	89	36158
2026-01-04 14:58:38.66	329.32	4.09	-60.9	-80.3	3.8	7.46e-01	0	30	104	659030016	89	35702
2026-01-04 14:58:41.66	329.74	3.98	-60.8	-80.2	3.8	7.48e-01	0	30	104	659030016	89	35555
2026-01-04 14:58:44.66	330.16	3.87	-60.8	-80.2	3.8	7.47e-01	0	30	104	659030016	89	35358
2026-01-04 14:58:47.66	330.57	3.75	-60.8	-80.2	3.8	7.46e-01	0	30	104	659030016	89	35311
2026-01-04 14:58:50.65	330.98	3.64	-60.7	-80.1	3.8	7.45e-01	0	29	104	659030016	89	35089
2026-01-04 14:58:53.64	331.39	3.53	-60.7	-80.1	3.8	7.47e-01	0	30	104	659030016	89	34993
2026-01-04 14:58:56.63	331.79	3.41	-60.7	-80.1	3.8	7.49e-01	0	30	104	659030016	89	34992
2026-01-04 14:58:59.63	332.19	3.30	-60.7	-80.1	3.8	7.45e-01	0	30	104	659030016	89	34885
2026-01-04 14:59:02.64	332.59	3.18	-60.7	-80.0	3.8	7.48e-01	0	30	104	659030016	89	34817
2026-01-04 14:59:05.64	332.98	3.06	-60.6	-80.0	3.8	7.48e-01	0	30	104	659030016	89	34696
2026-01-04 14:59:08.65	333.37	2.95	-60.6	-80.0	3.8	7.46e-01	0	30	104	659030016	89	34714
2026-01-04 14:59:11.63	333.76	2.83	-60.6	-80.0	3.8	7.50e-01	0	30	104	659030016	89	34543
2026-01-04 14:59:14.60	334.14	2.71	-60.6	-80.0	3.8	7.47e-01	0	30	104	659030016	89	34601
2026-01-04 14:59:17.61	334.52	2.59	-60.6	-80.0	3.8	7.45e-01	0	30	104	659030016	89	34577
2026-01-04 14:59:20.59	334.89	2.48	-60.6	-80.0	3.8	7.46e-01	0	30	104	659030016	89	34563
2026-01-04 14:59:23.58	335.27	2.36	-60.6	-80.0	3.8	7.46e-01	0	30	104	659030016	89	34502
2026-01-04 14:59:26.57	335.64	2.24	-60.6	-79.9	3.8	7.44e-01	0	30	104	659030016	89	34414
2026-01-04 14:59:29.56	336.00	2.12	-60.6	-79.9	3.8	7.43e-01	0	30	104	659030016	89	34368
2026-01-04 14:59:32.55	336.37	2.00	-60.5	-79.9	3.8	7.47e-01	0	30	104	659030016	89	34341

#Closed at: 2026-01-04 14:59:35
#Recorded file [659 MB]: D:/lorett/data/31004_260104_175106.dat