passes_logs/2026/01/04/R3.2S_Murmansk/R3.2S_Murmansk__20260104_095520_NOAA_20_JPSS-1_rec.log

#Pass ID: 20260104_095520_NOAA 20 (JPSS-1)
#Satellite: NOAA 20 (JPSS-1)
#Configuration: NOAA 20
#almurnet v.1.7.20251203
#Start time: 2026-01-04 09:55:20

#Version: 2.2.20231116
#Station: R3.2S_Murmansk
#Location: 33.079688 lon 68.888172 lat
#TLE: 1 43013U 17073A   26003.91140107  .00000139  00000+0  86966-4 0  9994
#TLE: 2 43013  98.7625 304.9685 0001869  55.4713 304.6639 14.19532967421166

#Time	Az	El	Level	Level2	SNR	BER	BlckErr	Temp	State	Recorded	gain1	gain2
2026-01-04 09:55:20.50	161.35	2.00	-58.6	-74.6	3.8	1.49e+00	0	26	0	0	82	23916
2026-01-04 09:55:24.53	161.41	2.26	-58.6	-74.4	3.8	1.49e+00	0	27	104	0	82	23507
2026-01-04 09:55:28.56	161.46	2.52	-58.6	-74.5	3.8	1.49e+00	0	27	104	0	82	23669
2026-01-04 09:55:32.59	161.52	2.79	-58.6	-74.6	3.8	1.49e+00	0	27	104	0	82	24001
2026-01-04 09:55:36.63	161.58	3.05	-58.6	-74.5	3.8	1.49e+00	0	27	104	0	82	23640
2026-01-04 09:55:40.66	161.64	3.32	-58.6	-74.6	3.8	1.49e+00	0	27	104	0	82	23980
2026-01-04 09:55:44.69	161.70	3.59	-58.5	-73.5	3.8	1.49e+00	0	27	104	0	82	21246
2026-01-04 09:55:48.73	161.76	3.87	-58.4	-70.6	4.3	1.36e+00	58	27	0	0	82	15126
2026-01-04 09:55:52.76	161.82	4.14	-58.2	-68.5	5.2	5.58e-01	0	27	0	7340032	82	11900
2026-01-04 09:55:56.79	161.88	4.42	-58.1	-67.2	5.9	2.96e-01	0	27	0	14680064	81	10886
2026-01-04 09:56:00.81	161.95	4.71	-57.9	-66.2	6.7	1.58e-01	0	27	0	22020096	81	9672
2026-01-04 09:56:04.84	162.01	4.99	-57.9	-66.2	6.6	1.58e-01	0	28	0	29360128	81	9685
2026-01-04 09:56:08.84	162.08	5.28	-57.2	-62.6	9.9	4.50e-05	0	27	0	33554432	79	7165
2026-01-04 09:56:12.86	162.14	5.57	-55.1	-58.2	12.8	0.00e+00	0	28	0	40894464	76	5107
2026-01-04 09:56:16.87	162.21	5.86	-54.9	-57.8	13.0	0.00e+00	0	28	0	49283072	76	4903
2026-01-04 09:56:20.90	162.28	6.16	-54.7	-57.5	13.1	0.00e+00	0	28	0	56623104	75	5031
2026-01-04 09:56:24.90	162.35	6.46	-54.5	-57.2	13.3	0.00e+00	0	28	0	63963136	75	4858
2026-01-04 09:56:28.92	162.42	6.77	-54.5	-57.1	13.4	0.00e+00	0	28	0	71303168	75	4812
2026-01-04 09:56:32.94	162.49	7.07	-54.4	-57.0	13.4	0.00e+00	0	28	0	78643200	75	4749
2026-01-04 09:56:36.96	162.57	7.39	-54.3	-56.8	13.6	0.00e+00	0	28	0	87031808	75	4630
2026-01-04 09:56:40.98	162.64	7.70	-54.1	-56.6	13.6	0.00e+00	0	28	0	94371840	74	4794
2026-01-04 09:56:45.00	162.72	8.02	-54.1	-56.6	13.6	0.00e+00	0	28	0	101711872	74	4773
2026-01-04 09:56:49.01	162.80	8.34	-53.9	-56.3	13.8	0.00e+00	0	28	0	109051904	74	4627
2026-01-04 09:56:53.02	162.87	8.67	-53.9	-56.2	13.9	0.00e+00	0	28	0	116391936	74	4565
2026-01-04 09:56:57.04	162.96	9.00	-53.8	-56.1	13.9	0.00e+00	0	28	0	123731968	74	4535
2026-01-04 09:57:01.06	163.04	9.34	-53.6	-55.9	14.0	0.00e+00	0	28	0	132120576	73	4653
2026-01-04 09:57:05.08	163.12	9.68	-53.6	-55.8	14.0	0.00e+00	0	28	0	139460608	73	4617
2026-01-04 09:57:09.09	163.21	10.03	-53.5	-55.6	14.1	0.00e+00	0	28	0	146800640	73	4513
2026-01-04 09:57:13.10	163.29	10.38	-53.5	-55.7	14.1	0.00e+00	0	28	0	154140672	73	4547
2026-01-04 09:57:17.11	163.38	10.73	-53.4	-55.5	14.2	0.00e+00	0	28	0	161480704	73	4442
2026-01-04 09:57:21.12	163.47	11.09	-53.3	-55.4	14.3	0.00e+00	0	28	0	168820736	73	4400
2026-01-04 09:57:25.13	163.56	11.46	-53.1	-55.1	14.3	0.00e+00	0	28	0	177209344	72	4540
2026-01-04 09:57:29.15	163.66	11.83	-53.0	-55.1	14.3	0.00e+00	0	28	0	184549376	72	4498
2026-01-04 09:57:33.16	163.76	12.21	-53.0	-54.9	14.4	0.00e+00	0	28	0	191889408	72	4432
2026-01-04 09:57:37.17	163.85	12.59	-52.9	-54.8	14.4	0.00e+00	0	28	0	199229440	72	4388
2026-01-04 09:57:41.18	163.95	12.98	-53.0	-54.9	14.4	0.00e+00	0	28	0	206569472	72	4401
2026-01-04 09:57:45.20	164.06	13.38	-52.9	-54.8	14.5	0.00e+00	0	28	0	214958080	72	4352
2026-01-04 09:57:49.22	164.16	13.78	-52.7	-54.5	14.6	0.00e+00	0	28	0	222298112	72	4211
2026-01-04 09:57:53.23	164.27	14.19	-52.7	-54.5	14.5	0.00e+00	0	28	0	229638144	71	4453
2026-01-04 09:57:57.25	164.38	14.60	-52.7	-54.5	14.5	0.00e+00	0	28	0	236978176	71	4464
2026-01-04 09:58:01.27	164.50	15.03	-52.6	-54.4	14.5	0.00e+00	0	28	0	244318208	71	4411
2026-01-04 09:58:05.28	164.61	15.46	-52.5	-54.3	14.6	0.00e+00	0	28	0	251658240	71	4343
2026-01-04 09:58:09.29	164.73	15.89	-52.5	-54.3	14.6	0.00e+00	0	28	0	260046848	71	4364
2026-01-04 09:58:13.31	164.85	16.34	-52.6	-54.4	14.5	0.00e+00	0	28	0	267386880	71	4406
2026-01-04 09:58:17.32	164.98	16.79	-52.6	-54.4	14.6	0.00e+00	0	28	0	274726912	71	4411
2026-01-04 09:58:21.33	165.11	17.25	-52.7	-54.5	14.5	0.00e+00	0	28	0	282066944	71	4477
2026-01-04 09:58:25.35	165.24	17.73	-52.8	-54.6	14.5	0.00e+00	0	28	0	289406976	71	4543
2026-01-04 09:58:29.37	165.38	18.21	-52.9	-54.7	14.4	0.00e+00	0	28	0	297795584	71	4570
2026-01-04 09:58:33.38	165.52	18.70	-53.0	-54.9	14.4	0.00e+00	0	28	0	305135616	71	4655
2026-01-04 09:58:37.39	165.66	19.19	-53.2	-55.1	14.3	0.00e+00	0	28	0	312475648	71	4774
2026-01-04 09:58:41.40	165.81	19.70	-53.3	-55.2	14.2	0.00e+00	0	28	0	319815680	71	4851
2026-01-04 09:58:45.41	165.96	20.22	-53.4	-55.3	14.3	0.00e+00	0	28	0	327155712	72	4644
2026-01-04 09:58:49.43	166.12	20.75	-53.5	-55.5	14.2	0.00e+00	0	28	0	334495744	72	4758
2026-01-04 09:58:53.45	166.29	21.30	-53.7	-55.7	14.1	0.00e+00	0	28	0	342884352	72	4866
2026-01-04 09:58:57.46	166.46	21.85	-53.8	-55.9	14.0	0.00e+00	0	29	0	350224384	72	4959
2026-01-04 09:59:01.49	166.63	22.42	-53.6	-55.6	14.1	0.00e+00	0	28	0	357564416	72	4809
2026-01-04 09:59:05.51	166.81	23.00	-53.6	-55.6	14.2	0.00e+00	0	28	0	364904448	72	4784
2026-01-04 09:59:09.52	167.00	23.59	-53.5	-55.5	14.2	0.00e+00	0	28	0	372244480	72	4736
2026-01-04 09:59:13.53	167.19	24.19	-53.4	-55.4	14.3	0.00e+00	0	28	0	379584512	72	4670
2026-01-04 09:59:17.55	167.39	24.81	-53.3	-55.2	14.4	0.00e+00	0	28	0	387973120	72	4557
2026-01-04 09:59:21.56	167.60	25.45	-53.0	-54.8	14.5	0.00e+00	0	28	0	395313152	72	4342
2026-01-04 09:59:25.57	167.81	26.10	-53.0	-54.8	14.5	0.00e+00	0	28	0	402653184	72	4365
2026-01-04 09:59:29.58	168.04	26.76	-53.2	-55.1	14.4	0.00e+00	0	28	0	409993216	72	4537
2026-01-04 09:59:33.59	168.27	27.44	-53.7	-55.7	14.2	0.00e+00	0	28	0	417333248	72	4825
2026-01-04 09:59:37.60	168.51	28.14	-54.2	-56.3	14.0	0.00e+00	0	28	0	425721856	73	4919
2026-01-04 09:59:41.61	168.77	28.85	-54.4	-56.7	13.9	0.00e+00	0	28	0	433061888	74	4830
2026-01-04 09:59:45.63	169.03	29.59	-54.7	-57.0	13.8	0.00e+00	0	28	0	440401920	74	5015
2026-01-04 09:59:49.65	169.31	30.34	-54.9	-57.3	13.6	0.00e+00	0	28	0	447741952	74	5178
2026-01-04 09:59:53.67	169.59	31.11	-55.1	-57.6	13.6	0.00e+00	0	28	0	455081984	75	5056
2026-01-04 09:59:57.67	169.89	31.90	-55.1	-57.6	13.6	0.00e+00	0	28	0	462422016	75	5050
2026-01-04 10:00:01.68	170.21	32.71	-54.7	-57.0	13.8	0.00e+00	0	28	0	470810624	75	4753
2026-01-04 10:00:05.71	170.54	33.55	-54.4	-56.5	14.1	0.00e+00	0	28	0	478150656	75	4491
2026-01-04 10:00:09.71	170.89	34.40	-53.6	-55.5	14.4	0.00e+00	0	28	0	485490688	73	4473
2026-01-04 10:00:13.74	171.26	35.29	-53.5	-55.4	14.4	0.00e+00	0	28	0	492830720	73	4419
2026-01-04 10:00:17.75	171.64	36.19	-53.3	-55.2	14.5	0.00e+00	0	28	0	500170752	73	4307
2026-01-04 10:00:21.78	172.05	37.12	-53.3	-55.1	14.5	0.00e+00	0	28	0	508559360	72	4520
2026-01-04 10:00:25.79	172.48	38.07	-53.6	-55.6	14.3	0.00e+00	0	28	0	515899392	72	4764
2026-01-04 10:00:29.79	172.94	39.05	-53.7	-55.6	14.3	0.00e+00	0	28	0	523239424	72	4793
2026-01-04 10:00:33.81	173.42	40.05	-53.9	-55.9	14.2	0.00e+00	0	28	0	530579456	73	4675
2026-01-04 10:00:37.83	173.94	41.09	-54.1	-56.2	14.1	0.00e+00	0	29	0	537919488	73	4856
2026-01-04 10:00:41.85	174.48	42.15	-53.9	-55.8	14.3	0.00e+00	0	28	0	545259520	73	4643
2026-01-04 10:00:45.86	175.07	43.24	-54.4	-56.5	14.1	0.00e+00	0	28	0	553648128	74	4747
2026-01-04 10:00:49.88	175.69	44.36	-54.7	-57.0	13.8	0.00e+00	0	28	0	560988160	74	5020
2026-01-04 10:00:53.89	176.36	45.50	-54.8	-57.1	13.8	0.00e+00	0	28	0	568328192	74	5098
2026-01-04 10:00:57.90	177.08	46.68	-54.7	-56.9	14.0	0.00e+00	0	28	0	575668224	75	4666
2026-01-04 10:01:01.91	177.85	47.88	-55.1	-57.6	13.6	0.00e+00	0	28	0	583008256	75	5056
2026-01-04 10:01:05.92	178.68	49.11	-54.1	-56.1	14.2	0.00e+00	0	28	0	590348288	74	4531
2026-01-04 10:01:09.93	179.59	50.37	-52.9	-54.6	14.7	0.00e+00	0	29	0	598736896	72	4268
2026-01-04 10:01:13.95	180.57	51.66	-51.7	-53.2	15.0	0.00e+00	0	28	0	606076928	70	4068
2026-01-04 10:01:17.97	181.64	52.97	-51.0	-52.3	15.1	0.00e+00	0	28	0	613416960	68	4136
2026-01-04 10:01:21.98	182.81	54.31	-50.7	-52.1	15.1	0.00e+00	0	28	0	620756992	68	4014
2026-01-04 10:01:25.98	184.09	55.67	-51.2	-52.6	14.9	0.00e+00	0	28	0	628097024	67	4529
2026-01-04 10:01:29.99	185.50	57.05	-52.0	-53.5	14.8	0.00e+00	0	28	0	635437056	69	4471
2026-01-04 10:01:34.00	187.06	58.44	-51.6	-53.1	15.0	0.00e+00	0	28	0	643825664	69	4273
2026-01-04 10:01:38.01	188.79	59.85	-51.0	-52.4	15.1	0.00e+00	0	28	0	651165696	68	4171
2026-01-04 10:01:42.02	190.72	61.26	-49.6	-50.8	15.2	0.00e+00	0	29	0	658505728	65	4120
2026-01-04 10:01:46.03	192.88	62.67	-50.1	-51.4	15.1	0.00e+00	0	28	0	665845760	65	4400
2026-01-04 10:01:50.04	195.30	64.07	-50.5	-51.8	15.1	0.00e+00	0	28	0	673185792	66	4384
2026-01-04 10:01:54.04	198.03	65.45	-52.2	-53.7	14.8	0.00e+00	0	28	0	681574400	69	4572
2026-01-04 10:01:58.04	201.11	66.80	-53.5	-55.3	14.5	0.00e+00	0	28	0	688914432	72	4613
2026-01-04 10:02:02.05	204.60	68.10	-54.4	-56.4	14.1	0.00e+00	0	28	0	696254464	73	4958
2026-01-04 10:02:06.06	208.57	69.33	-53.9	-55.8	14.4	0.00e+00	0	28	0	703594496	73	4636
2026-01-04 10:02:10.13	213.12	70.50	-54.7	-56.9	14.0	0.00e+00	0	28	0	710934528	74	4945
2026-01-04 10:02:14.15	218.19	71.53	-54.3	-56.3	14.3	0.00e+00	0	28	0	718274560	74	4633
2026-01-04 10:02:18.17	223.86	72.43	-53.9	-55.7	14.5	0.00e+00	0	28	0	726663168	74	4336
2026-01-04 10:02:22.18	230.07	73.14	-54.5	-56.6	14.2	0.00e+00	0	28	0	734003200	74	4766
2026-01-04 10:02:26.20	236.80	73.66	-53.5	-55.3	14.6	0.00e+00	0	29	0	741343232	73	4366
2026-01-04 10:02:30.21	243.87	73.95	-53.4	-55.2	14.6	0.00e+00	0	28	0	748683264	72	4583
2026-01-04 10:02:34.22	251.09	74.00	-53.1	-54.8	14.7	0.00e+00	0	28	0	756023296	72	4375
2026-01-04 10:02:38.24	258.27	73.81	-54.0	-55.9	14.4	0.00e+00	0	28	0	763363328	73	4686
2026-01-04 10:02:42.25	265.15	73.39	-55.5	-57.9	13.7	0.00e+00	0	29	0	771751936	76	4972
2026-01-04 10:02:46.26	271.59	72.76	-54.5	-56.5	14.3	0.00e+00	0	29	0	779091968	75	4456
2026-01-04 10:02:50.28	277.50	71.94	-54.4	-56.3	14.3	0.00e+00	0	28	0	786432000	75	4377
2026-01-04 10:02:54.29	282.81	70.97	-54.0	-55.9	14.5	0.00e+00	0	28	0	793772032	74	4395
2026-01-04 10:02:58.32	287.56	69.86	-54.5	-56.5	14.2	0.00e+00	0	28	0	801112064	74	4729
2026-01-04 10:03:02.33	291.75	68.66	-55.8	-58.3	13.7	0.00e+00	0	28	0	809500672	78	4642
2026-01-04 10:03:06.34	295.44	67.39	-55.7	-58.2	13.6	0.00e+00	0	28	0	816840704	77	4853
2026-01-04 10:03:10.34	298.70	66.07	-54.6	-56.6	14.2	0.00e+00	0	28	0	824180736	75	4530
2026-01-04 10:03:14.36	301.58	64.70	-52.1	-53.6	14.9	0.00e+00	0	28	0	831520768	70	4261
2026-01-04 10:03:18.38	304.14	63.30	-50.0	-51.2	15.2	0.00e+00	0	28	0	838860800	66	4074
2026-01-04 10:03:22.40	306.42	61.89	-48.8	-50.0	15.4	0.00e+00	0	28	0	846200832	64	3987
2026-01-04 10:03:26.41	308.44	60.48	-52.2	-53.7	14.8	0.00e+00	0	28	0	854589440	69	4587
2026-01-04 10:03:30.43	310.26	59.07	-52.7	-54.4	14.7	0.00e+00	0	28	0	861929472	70	4664
2026-01-04 10:03:34.45	311.89	57.67	-53.1	-54.8	14.8	0.00e+00	0	28	0	869269504	73	4128
2026-01-04 10:03:38.46	313.37	56.29	-54.1	-56.0	14.3	0.00e+00	0	29	0	876609536	73	4740
2026-01-04 10:03:42.48	314.70	54.92	-49.7	-51.0	15.3	0.00e+00	0	29	0	883949568	66	3966
2026-01-04 10:03:46.50	315.92	53.58	-50.2	-51.5	15.1	0.00e+00	0	28	0	892338176	66	4218
2026-01-04 10:03:50.52	317.03	52.26	-50.0	-51.2	15.1	0.00e+00	0	28	0	899678208	65	4333
2026-01-04 10:03:54.53	318.05	50.96	-53.1	-54.8	14.6	0.00e+00	0	28	0	907018240	71	4612
2026-01-04 10:03:58.53	318.98	49.70	-54.3	-56.3	14.2	0.00e+00	0	28	0	914358272	73	4905
2026-01-04 10:04:02.55	319.85	48.46	-55.6	-58.0	13.7	0.00e+00	0	28	0	921698304	77	4747
2026-01-04 10:04:06.57	320.65	47.24	-54.2	-56.2	14.2	0.00e+00	0	29	0	929038336	73	4820
2026-01-04 10:04:10.57	321.39	46.06	-55.6	-58.2	13.6	0.00e+00	0	28	0	937426944	77	4820
2026-01-04 10:04:14.59	322.08	44.91	-53.2	-54.8	14.7	0.00e+00	0	28	0	944766976	72	4380
2026-01-04 10:04:18.60	322.72	43.78	-53.8	-55.7	14.3	0.00e+00	0	28	0	952107008	72	4817
2026-01-04 10:04:22.62	323.32	42.68	-52.4	-54.0	14.9	0.00e+00	0	28	0	959447040	71	4208
2026-01-04 10:04:26.63	323.88	41.61	-51.5	-52.8	15.1	0.00e+00	0	29	0	966787072	69	4138
2026-01-04 10:04:30.63	324.41	40.58	-55.0	-57.3	13.9	0.00e+00	0	29	0	974127104	75	4902
2026-01-04 10:04:34.66	324.91	39.56	-52.9	-54.5	14.8	0.00e+00	0	28	0	982515712	72	4230
2026-01-04 10:04:38.68	325.38	38.57	-52.9	-54.6	14.7	0.00e+00	0	28	0	989855744	71	4514
2026-01-04 10:04:42.69	325.82	37.61	-54.3	-56.4	14.1	0.00e+00	0	28	0	997195776	73	4974
2026-01-04 10:04:46.71	326.24	36.67	-53.5	-55.3	14.5	0.00e+00	0	28	0	1004535808	73	4376
2026-01-04 10:04:50.74	326.63	35.76	-52.6	-54.2	14.8	0.00e+00	0	28	0	1011875840	71	4311
2026-01-04 10:04:54.74	327.01	34.87	-53.2	-54.9	14.5	0.00e+00	0	28	0	1020264448	71	4677
2026-01-04 10:04:58.75	327.36	34.01	-53.9	-55.8	14.2	0.00e+00	0	28	0	1027604480	72	4893
2026-01-04 10:05:02.77	327.70	33.17	-54.2	-56.3	14.1	0.00e+00	0	28	0	1034944512	73	4911
2026-01-04 10:05:06.79	328.03	32.35	-54.0	-56.0	14.2	0.00e+00	0	28	0	1042284544	73	4738
2026-01-04 10:05:10.80	328.34	31.55	-54.1	-56.1	14.1	0.00e+00	0	28	0	1049624576	73	4812
2026-01-04 10:05:14.81	328.63	30.77	-54.0	-56.0	14.2	0.00e+00	0	28	0	1056964608	73	4730
2026-01-04 10:05:18.83	328.91	30.02	-53.9	-55.9	14.3	0.00e+00	0	29	0	1065353216	73	4688
2026-01-04 10:05:22.83	329.18	29.28	-54.0	-56.0	14.2	0.00e+00	0	28	0	1072693248	73	4729
2026-01-04 10:05:26.85	329.44	28.56	-53.6	-55.5	14.5	0.00e+00	0	28	0	1080033280	73	4450
2026-01-04 10:05:30.85	329.69	27.86	-53.0	-54.7	14.7	0.00e+00	0	28	0	1087373312	72	4322
2026-01-04 10:05:34.88	329.93	27.17	-52.0	-53.6	14.9	0.00e+00	0	28	0	1094713344	70	4253
2026-01-04 10:05:38.88	330.16	26.50	-52.2	-53.8	14.8	0.00e+00	0	28	0	1102053376	70	4344
2026-01-04 10:05:42.89	330.38	25.85	-52.7	-54.4	14.6	0.00e+00	0	28	0	1110441984	70	4685
2026-01-04 10:05:46.91	330.59	25.21	-52.7	-54.4	14.6	0.00e+00	0	28	0	1117782016	70	4681
2026-01-04 10:05:50.93	330.79	24.58	-52.2	-53.8	14.8	0.00e+00	0	28	0	1125122048	70	4388
2026-01-04 10:05:54.94	330.99	23.97	-51.7	-53.2	15.0	0.00e+00	0	28	0	1132462080	70	4093
2026-01-04 10:05:58.97	331.18	23.38	-51.3	-52.8	15.0	7.00e-07	0	28	0	1139802112	69	4118
2026-01-04 10:06:02.97	331.37	22.80	-51.5	-53.0	15.0	0.00e+00	0	28	0	1148190720	69	4217
2026-01-04 10:06:06.97	331.55	22.23	-51.7	-53.3	14.9	1.67e-05	0	28	0	1155530752	69	4346
2026-01-04 10:06:10.96	331.72	21.67	-51.8	-53.3	14.8	0.00e+00	0	28	0	1162870784	69	4385
2026-01-04 10:06:14.97	331.88	21.13	-51.7	-53.3	14.9	0.00e+00	0	28	0	1170210816	69	4343
2026-01-04 10:06:18.97	332.05	20.60	-51.6	-53.2	14.9	0.00e+00	0	28	0	1177550848	69	4292
2026-01-04 10:06:22.99	332.20	20.07	-51.6	-53.2	14.9	0.00e+00	0	28	0	1184890880	69	4295
2026-01-04 10:06:26.99	332.36	19.56	-51.8	-53.4	14.8	0.00e+00	0	28	0	1193279488	69	4412
2026-01-04 10:06:31.01	332.50	19.06	-51.9	-53.5	14.8	0.00e+00	0	28	0	1200619520	69	4450
2026-01-04 10:06:35.04	332.65	18.56	-52.1	-53.7	14.7	0.00e+00	0	28	0	1207959552	69	4577
2026-01-04 10:06:39.07	332.79	18.08	-52.3	-54.0	14.6	0.00e+00	0	29	0	1215299584	69	4712
2026-01-04 10:06:43.09	332.93	17.60	-52.5	-54.2	14.6	0.00e+00	0	28	0	1222639616	70	4581
2026-01-04 10:06:47.08	333.06	17.14	-52.6	-54.4	14.5	0.00e+00	0	28	0	1229979648	70	4668
2026-01-04 10:06:51.10	333.19	16.68	-52.6	-54.4	14.5	0.00e+00	0	28	0	1238368256	70	4677
2026-01-04 10:06:55.12	333.31	16.23	-52.7	-54.4	14.5	0.00e+00	0	28	0	1245708288	70	4699
2026-01-04 10:06:59.12	333.44	15.80	-52.7	-54.5	14.5	0.00e+00	0	28	0	1253048320	70	4720
2026-01-04 10:07:03.13	333.56	15.36	-52.6	-54.3	14.5	0.00e+00	0	28	0	1260388352	70	4633
2026-01-04 10:07:07.13	333.67	14.94	-52.5	-54.3	14.5	0.00e+00	0	28	0	1267728384	70	4617
2026-01-04 10:07:11.15	333.79	14.52	-52.6	-54.4	14.5	0.00e+00	0	28	0	1275068416	70	4674
2026-01-04 10:07:15.16	333.90	14.11	-52.7	-54.5	14.4	0.00e+00	0	28	0	1283457024	70	4751
2026-01-04 10:07:19.15	334.01	13.71	-52.7	-54.5	14.5	0.00e+00	0	28	0	1290797056	70	4715
2026-01-04 10:07:23.15	334.11	13.31	-52.7	-54.5	14.4	0.00e+00	0	28	0	1298137088	70	4753
2026-01-04 10:07:27.18	334.22	12.92	-52.8	-54.6	14.4	0.00e+00	0	28	0	1305477120	70	4799
2026-01-04 10:07:31.21	334.32	12.53	-52.8	-54.6	14.4	0.00e+00	0	28	0	1312817152	70	4798
2026-01-04 10:07:35.23	334.42	12.15	-52.9	-54.8	14.4	0.00e+00	0	28	0	1321205760	71	4605
2026-01-04 10:07:39.24	334.52	11.78	-52.8	-54.6	14.4	0.00e+00	0	28	0	1328545792	71	4527
2026-01-04 10:07:43.25	334.61	11.41	-52.8	-54.6	14.4	0.00e+00	0	28	0	1335885824	71	4538
2026-01-04 10:07:47.26	334.71	11.05	-52.8	-54.7	14.4	0.00e+00	0	28	0	1343225856	71	4546
2026-01-04 10:07:51.26	334.80	10.70	-52.8	-54.7	14.4	0.00e+00	0	28	0	1350565888	71	4551
2026-01-04 10:07:55.28	334.89	10.34	-52.8	-54.7	14.4	0.00e+00	0	28	0	1357905920	71	4557
2026-01-04 10:07:59.30	334.98	10.00	-52.8	-54.8	14.3	0.00e+00	0	28	0	1366294528	71	4608
2026-01-04 10:08:03.31	335.06	9.65	-52.8	-54.7	14.4	0.00e+00	0	28	0	1373634560	71	4550
2026-01-04 10:08:07.32	335.15	9.32	-52.9	-54.9	14.3	0.00e+00	0	28	0	1380974592	71	4652
2026-01-04 10:08:11.32	335.23	8.99	-52.9	-54.9	14.3	0.00e+00	0	28	0	1388314624	71	4653
2026-01-04 10:08:15.33	335.31	8.66	-52.9	-54.9	14.2	0.00e+00	0	28	0	1395654656	71	4701
2026-01-04 10:08:19.36	335.39	8.33	-53.1	-55.1	14.1	0.00e+00	0	28	0	1402994688	71	4795
2026-01-04 10:08:23.39	335.47	8.01	-53.1	-55.2	14.1	0.00e+00	0	28	0	1411383296	71	4855
2026-01-04 10:08:27.42	335.55	7.69	-53.3	-55.5	14.0	2.20e-06	0	28	0	1418723328	71	4993
2026-01-04 10:08:31.45	335.63	7.38	-53.4	-55.6	14.0	0.00e+00	0	28	0	1426063360	72	4774
2026-01-04 10:08:35.49	335.71	7.07	-53.5	-55.7	13.9	4.50e-06	0	28	0	1433403392	72	4860
2026-01-04 10:08:39.51	335.78	6.76	-53.6	-55.8	13.8	0.00e+00	0	28	0	1440743424	72	4926
2026-01-04 10:08:43.54	335.85	6.46	-53.7	-56.1	13.7	0.00e+00	0	28	0	1449132032	72	5083
2026-01-04 10:08:47.56	335.93	6.16	-53.8	-56.3	13.6	0.00e+00	0	28	0	1456472064	72	5174
2026-01-04 10:08:51.60	336.00	5.86	-53.8	-56.2	13.7	0.00e+00	0	28	0	1463812096	73	4856
2026-01-04 10:08:55.63	336.07	5.57	-53.9	-56.4	13.5	0.00e+00	0	28	0	1471152128	73	4969
2026-01-04 10:08:59.66	336.14	5.28	-54.1	-56.7	13.4	0.00e+00	0	29	0	1478492160	73	5139
2026-01-04 10:09:03.69	336.21	4.99	-57.8	-65.3	8.2	0.00e+00	0	28	0	1486880768	80	9191
2026-01-04 10:09:07.73	336.27	4.71	-60.5	-76.6	3.8	1.49e+00	0	29	104	1486880768	86	23920
2026-01-04 10:09:11.76	336.34	4.43	-61.0	-77.1	3.8	1.49e+00	0	28	104	1486880768	87	24010
2026-01-04 10:09:15.80	336.41	4.15	-61.2	-77.3	3.8	1.49e+00	0	29	104	1486880768	87	24573
2026-01-04 10:09:19.84	336.47	3.88	-61.3	-77.4	3.8	1.49e+00	0	29	104	1486880768	87	24832
2026-01-04 10:09:23.87	336.53	3.60	-61.3	-77.4	3.8	1.49e+00	0	29	104	1486880768	87	24925
2026-01-04 10:09:27.90	336.60	3.34	-61.3	-77.4	3.8	1.49e+00	0	29	104	1486880768	87	24849
2026-01-04 10:09:31.94	336.66	3.07	-60.8	-77.3	3.8	1.49e+00	0	29	104	1486880768	87	24625
2026-01-04 10:09:35.97	336.72	2.80	-61.2	-77.3	3.8	1.49e+00	0	29	104	1486880768	87	24555
2026-01-04 10:09:40.01	336.78	2.54	-61.1	-77.3	3.8	1.49e+00	0	29	104	1486880768	87	24453
2026-01-04 10:09:44.04	336.84	2.28	-61.1	-77.2	3.8	1.49e+00	0	29	104	1486880768	87	24316
2026-01-04 10:09:48.08	336.90	2.03	-61.1	-77.2	3.8	1.49e+00	0	28	104	1486880768	87	24269

#Closed at: 2026-01-04 10:09:50
#Recorded file [1486 MB]: D:/lorett/data/31004_260104_125520.dat