passes_logs/2026/01/04/R3.2S_Murmansk/R3.2S_Murmansk__20260104_025738_SUOMI_NPP_rec.log

#Pass ID: 20260104_025738_SUOMI NPP
#Satellite: SUOMI NPP
#Configuration: NPP
#almurnet v.1.7.20251203
#Start time: 2026-01-04 02:57:39

#Version: 2.2.20231116
#Station: R3.2S_Murmansk
#Location: 33.079688 lon 68.888172 lat
#TLE: 1 37849U 11061A   26001.07732418  .00000182  00000+0  10735-3 0  9990
#TLE: 2 37849  98.7795 303.2470 0002580  87.2016 272.9455 14.19520779734739

#Time	Az	El	Level	Level2	SNR	BER	BlckErr	Temp	State	Recorded	gain1	gain2
2026-01-04 02:57:39.42	36.76	2.06	-58.4	-74.4	3.8	1.49e+00	0	27	0	0	83	22254
2026-01-04 02:57:43.41	36.58	2.30	-58.4	-74.4	3.8	1.49e+00	0	27	104	0	81	24934
2026-01-04 02:57:47.41	36.40	2.55	-58.4	-74.4	3.8	1.49e+00	0	27	104	0	81	24897
2026-01-04 02:57:51.41	36.21	2.79	-58.4	-74.4	3.8	1.49e+00	0	27	104	0	81	24866
2026-01-04 02:57:55.41	36.02	3.04	-58.4	-74.4	3.8	1.49e+00	0	27	104	0	82	23369
2026-01-04 02:57:59.41	35.82	3.29	-58.4	-74.4	3.8	1.49e+00	0	27	104	0	82	23439
2026-01-04 02:58:03.41	35.62	3.54	-58.4	-74.5	3.8	1.49e+00	0	27	104	0	82	23603
2026-01-04 02:58:07.41	35.42	3.80	-58.4	-74.4	3.8	1.49e+00	0	27	104	0	82	23475
2026-01-04 02:58:11.41	35.21	4.05	-58.4	-74.1	3.8	1.49e+00	0	28	104	0	82	22775
2026-01-04 02:58:15.42	35.00	4.31	-58.4	-73.3	3.8	1.49e+00	0	28	104	0	82	20609
2026-01-04 02:58:19.41	34.79	4.57	-58.3	-71.9	3.8	1.48e+00	0	28	104	0	82	17490
2026-01-04 02:58:23.41	34.57	4.83	-58.0	-68.0	5.4	5.70e-01	0	28	0	3145728	82	11255
2026-01-04 02:58:27.41	34.35	5.10	-58.4	-71.3	4.1	1.44e+00	0	28	0	9437184	81	17333
2026-01-04 02:58:31.39	34.12	5.36	-57.9	-67.7	5.4	1.17e+00	0	28	0	14680064	81	11485
2026-01-04 02:58:35.38	33.89	5.63	-55.2	-58.9	12.3	7.00e-07	0	28	0	23068672	76	5581
2026-01-04 02:58:39.38	33.65	5.90	-55.2	-58.9	12.3	0.00e+00	0	28	0	30408704	76	5547
2026-01-04 02:58:43.36	33.41	6.17	-54.8	-58.2	12.8	0.00e+00	0	28	0	37748736	76	5118
2026-01-04 02:58:47.36	33.17	6.45	-54.6	-57.8	12.9	0.00e+00	0	28	0	45088768	75	5182
2026-01-04 02:58:51.37	32.92	6.73	-54.6	-57.8	13.0	0.00e+00	0	28	0	52428800	75	5160
2026-01-04 02:58:55.36	32.66	7.01	-54.2	-57.2	13.3	0.00e+00	0	28	0	59768832	75	4824
2026-01-04 02:58:59.37	32.40	7.29	-54.1	-57.0	13.4	0.00e+00	0	28	0	67108864	74	5001
2026-01-04 02:59:03.36	32.13	7.58	-54.0	-56.8	13.5	0.00e+00	0	28	0	75497472	74	4912
2026-01-04 02:59:07.37	31.86	7.87	-54.1	-56.9	13.4	0.00e+00	0	28	0	82837504	74	4958
2026-01-04 02:59:11.36	31.58	8.16	-54.2	-57.0	13.4	0.00e+00	0	28	0	90177536	74	5024
2026-01-04 02:59:15.35	31.30	8.45	-54.1	-57.0	13.5	0.00e+00	0	28	0	97517568	74	4995
2026-01-04 02:59:19.35	31.01	8.75	-53.8	-56.5	13.7	0.00e+00	0	28	0	104857600	73	4989
2026-01-04 02:59:23.34	30.71	9.04	-53.8	-56.6	13.6	0.00e+00	0	28	0	112197632	73	5069
2026-01-04 02:59:27.33	30.41	9.35	-53.7	-56.5	13.6	0.00e+00	0	28	0	119537664	73	5010
2026-01-04 02:59:31.31	30.10	9.65	-53.4	-56.1	13.9	0.00e+00	0	28	0	127926272	73	4767
2026-01-04 02:59:35.30	29.79	9.96	-53.6	-56.2	13.8	0.00e+00	0	28	0	135266304	73	4831
2026-01-04 02:59:39.29	29.46	10.27	-53.5	-56.1	13.9	0.00e+00	0	28	0	142606336	73	4765
2026-01-04 02:59:43.28	29.13	10.58	-53.2	-55.6	14.1	0.00e+00	0	28	0	149946368	73	4494
2026-01-04 02:59:47.29	28.79	10.90	-52.9	-55.2	14.2	0.00e+00	0	28	0	157286400	72	4564
2026-01-04 02:59:51.30	28.45	11.22	-53.1	-55.4	14.1	0.00e+00	0	28	0	164626432	72	4659
2026-01-04 02:59:55.31	28.09	11.54	-53.2	-55.6	14.0	0.00e+00	0	28	0	173015040	72	4779
2026-01-04 02:59:59.31	27.73	11.87	-53.2	-55.5	14.0	0.00e+00	0	28	0	180355072	72	4754
2026-01-04 03:00:03.31	27.36	12.20	-53.4	-55.7	14.0	0.00e+00	0	28	0	187695104	72	4847
2026-01-04 03:00:07.32	26.98	12.53	-53.1	-55.4	14.1	0.00e+00	0	28	0	195035136	72	4668
2026-01-04 03:00:11.31	26.59	12.87	-53.0	-55.3	14.1	0.00e+00	0	28	0	202375168	72	4614
2026-01-04 03:00:15.31	26.19	13.21	-52.9	-55.1	14.3	0.00e+00	0	28	0	209715200	72	4503
2026-01-04 03:00:19.31	25.78	13.55	-53.0	-55.2	14.3	0.00e+00	0	29	0	217055232	72	4584
2026-01-04 03:00:23.30	25.37	13.89	-53.2	-55.5	14.1	0.00e+00	0	28	0	224395264	72	4744
2026-01-04 03:00:27.30	24.94	14.24	-52.8	-54.9	14.4	0.00e+00	0	28	0	232783872	72	4409
2026-01-04 03:00:31.27	24.51	14.59	-52.6	-54.5	14.4	0.00e+00	0	28	0	240123904	71	4490
2026-01-04 03:00:35.25	24.06	14.95	-52.6	-54.5	14.5	0.00e+00	0	28	0	247463936	71	4471
2026-01-04 03:00:39.24	23.60	15.31	-52.4	-54.3	14.6	0.00e+00	0	28	0	254803968	71	4359
2026-01-04 03:00:43.25	23.13	15.67	-52.5	-54.4	14.5	0.00e+00	0	28	0	262144000	71	4403
2026-01-04 03:00:47.25	22.64	16.04	-52.8	-54.8	14.3	0.00e+00	0	28	0	269484032	71	4622
2026-01-04 03:00:51.25	22.15	16.41	-52.7	-54.7	14.4	0.00e+00	0	28	0	276824064	71	4598
2026-01-04 03:00:55.25	21.64	16.78	-52.6	-54.7	14.4	0.00e+00	0	28	0	285212672	71	4569
2026-01-04 03:00:59.26	21.11	17.16	-52.9	-55.1	14.3	0.00e+00	0	28	0	292552704	71	4776
2026-01-04 03:01:03.27	20.58	17.54	-52.8	-54.8	14.4	0.00e+00	0	29	0	299892736	71	4642
2026-01-04 03:01:07.28	20.02	17.92	-53.0	-55.1	14.2	0.00e+00	0	29	0	307232768	71	4807
2026-01-04 03:01:11.29	19.46	18.31	-53.3	-55.5	14.1	0.00e+00	0	29	0	314572800	71	5021
2026-01-04 03:01:15.28	18.88	18.69	-53.6	-55.9	14.1	0.00e+00	0	29	0	321912832	73	4684
2026-01-04 03:01:19.21	18.30	19.08	-53.5	-55.7	14.2	0.00e+00	0	29	0	330301440	73	4585
2026-01-04 03:01:23.20	17.69	19.47	-53.5	-55.7	14.2	0.00e+00	0	29	0	337641472	73	4559
2026-01-04 03:01:27.19	17.06	19.87	-52.7	-54.7	14.5	0.00e+00	0	29	0	344981504	72	4325
2026-01-04 03:01:31.18	16.42	20.27	-53.2	-55.4	14.3	0.00e+00	0	29	0	352321536	72	4669
2026-01-04 03:01:35.16	15.76	20.67	-52.9	-55.0	14.4	0.00e+00	0	29	0	359661568	72	4477
2026-01-04 03:01:39.15	15.09	21.07	-52.9	-54.9	14.5	0.00e+00	0	29	0	367001600	72	4406
2026-01-04 03:01:43.14	14.39	21.48	-53.2	-55.3	14.3	0.00e+00	0	28	0	374341632	72	4612
2026-01-04 03:01:47.13	13.68	21.89	-53.2	-55.3	14.3	0.00e+00	0	29	0	382730240	72	4646
2026-01-04 03:01:51.13	12.94	22.30	-53.5	-55.7	14.1	0.00e+00	0	29	0	390070272	72	4847
2026-01-04 03:01:55.12	12.19	22.71	-53.7	-56.1	14.0	0.00e+00	0	29	0	397410304	73	4796
2026-01-04 03:01:59.13	11.41	23.12	-53.9	-56.4	13.8	0.00e+00	0	29	0	404750336	73	4954
2026-01-04 03:02:03.11	10.61	23.54	-53.4	-55.6	14.3	0.00e+00	0	29	0	412090368	73	4506
2026-01-04 03:02:07.10	9.80	23.95	-53.2	-55.3	14.3	0.00e+00	0	29	0	419430400	72	4630
2026-01-04 03:02:11.10	8.96	24.36	-53.4	-55.5	14.2	0.00e+00	0	29	0	426770432	72	4739
2026-01-04 03:02:15.10	8.09	24.78	-53.5	-55.7	14.1	0.00e+00	0	29	0	434110464	72	4826
2026-01-04 03:02:19.09	7.21	25.19	-53.5	-55.7	14.1	0.00e+00	0	29	0	442499072	72	4842
2026-01-04 03:02:23.08	6.30	25.60	-53.1	-55.3	14.4	0.00e+00	0	29	0	449839104	72	4603
2026-01-04 03:02:27.07	5.37	26.01	-53.3	-55.4	14.3	0.00e+00	0	29	0	457179136	72	4685
2026-01-04 03:02:31.06	4.41	26.42	-53.1	-55.1	14.4	0.00e+00	0	29	0	464519168	71	4800
2026-01-04 03:02:35.04	3.43	26.82	-54.0	-56.3	14.0	0.00e+00	0	29	0	471859200	73	4896
2026-01-04 03:02:39.03	2.42	27.22	-52.4	-54.2	14.7	0.00e+00	0	29	0	479199232	71	4297
2026-01-04 03:02:43.03	1.38	27.61	-52.4	-54.3	14.6	0.00e+00	0	29	0	486539264	71	4376
2026-01-04 03:02:47.01	0.33	28.00	-52.9	-55.1	14.3	0.00e+00	0	29	0	494927872	71	4814
2026-01-04 03:02:51.02	359.24	28.39	-53.4	-55.7	14.1	0.00e+00	0	29	0	502267904	72	4850
2026-01-04 03:02:55.03	358.12	28.77	-54.6	-57.6	13.4	0.00e+00	0	29	0	509607936	74	5362
2026-01-04 03:02:59.04	356.97	29.14	-53.8	-56.3	14.0	0.00e+00	0	29	0	516947968	74	4610
2026-01-04 03:03:03.03	355.81	29.50	-53.8	-56.4	13.9	0.00e+00	0	29	0	524288000	73	4943
2026-01-04 03:03:07.02	354.62	29.86	-54.5	-57.5	13.5	0.00e+00	0	29	0	531628032	74	5295
2026-01-04 03:03:11.02	353.39	30.20	-56.1	-60.1	12.2	0.00e+00	0	29	0	540016640	77	6056
2026-01-04 03:03:15.03	352.14	30.53	-55.3	-58.7	13.0	0.00e+00	0	29	0	547356672	77	5115
2026-01-04 03:03:19.04	350.87	30.86	-55.0	-58.1	13.4	0.00e+00	0	29	0	554696704	76	5048
2026-01-04 03:03:23.02	349.57	31.16	-54.8	-57.9	13.2	0.00e+00	0	29	0	562036736	75	5265
2026-01-04 03:03:27.01	348.25	31.46	-54.7	-58.0	13.2	0.00e+00	0	29	0	569376768	75	5335
2026-01-04 03:03:31.00	346.91	31.73	-54.6	-57.9	13.2	0.00e+00	0	29	0	576716800	75	5240
2026-01-04 03:03:34.97	345.55	32.00	-54.0	-56.6	14.0	0.00e+00	0	29	0	584056832	74	4787
2026-01-04 03:03:38.96	344.16	32.24	-54.4	-57.2	13.7	0.00e+00	0	29	0	592445440	74	5124
2026-01-04 03:03:42.94	342.76	32.47	-54.0	-56.6	14.0	0.00e+00	0	29	0	599785472	74	4800
2026-01-04 03:03:46.93	341.33	32.68	-53.6	-56.1	14.1	0.00e+00	0	29	0	607125504	73	4784
2026-01-04 03:03:50.94	339.88	32.88	-54.1	-56.8	13.8	0.00e+00	0	29	0	614465536	73	5201
2026-01-04 03:03:54.92	338.42	33.05	-53.3	-55.6	14.3	0.00e+00	0	29	0	621805568	73	4516
2026-01-04 03:03:58.91	336.94	33.20	-52.7	-54.7	14.5	0.00e+00	0	29	0	629145600	71	4598
2026-01-04 03:04:02.90	335.45	33.33	-52.5	-54.5	14.5	0.00e+00	0	29	0	636485632	70	4708
2026-01-04 03:04:06.89	333.95	33.44	-54.4	-57.1	13.7	0.00e+00	0	29	0	643825664	74	5095
2026-01-04 03:04:10.88	332.44	33.52	-53.6	-56.0	14.2	0.00e+00	0	29	0	652214272	73	4708
2026-01-04 03:04:14.88	330.91	33.59	-53.8	-56.0	14.2	0.00e+00	0	29	0	659554304	73	4726
2026-01-04 03:04:18.87	329.39	33.63	-53.1	-55.2	14.5	0.00e+00	0	29	0	666894336	72	4550
2026-01-04 03:04:22.86	327.87	33.64	-55.2	-58.3	13.2	0.00e+00	0	29	0	674234368	75	5527
2026-01-04 03:04:26.85	326.34	33.64	-54.7	-57.4	13.8	0.00e+00	0	29	0	681574400	75	4967
2026-01-04 03:04:30.82	324.82	33.61	-54.4	-57.1	13.8	0.00e+00	0	29	0	688914432	75	4806
2026-01-04 03:04:34.81	323.30	33.56	-53.8	-56.2	14.1	0.00e+00	0	29	0	696254464	73	4834
2026-01-04 03:04:38.80	321.79	33.48	-54.2	-56.8	13.8	0.00e+00	0	29	0	703594496	73	5169
2026-01-04 03:04:42.79	320.28	33.39	-54.5	-57.3	13.6	0.00e+00	0	29	0	711983104	74	5206
2026-01-04 03:04:46.77	318.79	33.27	-54.8	-57.7	13.5	0.00e+00	0	29	0	719323136	74	5438
2026-01-04 03:04:50.76	317.30	33.13	-54.2	-56.9	13.9	0.00e+00	0	29	0	726663168	74	4931
2026-01-04 03:04:54.76	315.83	32.97	-53.6	-55.9	14.2	0.00e+00	0	29	0	734003200	73	4700
2026-01-04 03:04:58.76	314.37	32.78	-54.4	-57.3	13.7	0.00e+00	0	29	0	741343232	74	5165
2026-01-04 03:05:02.74	312.93	32.58	-54.5	-57.4	13.6	0.00e+00	0	29	0	748683264	74	5258
2026-01-04 03:05:06.74	311.51	32.36	-53.5	-55.9	14.2	0.00e+00	0	29	0	756023296	73	4685
2026-01-04 03:05:10.73	310.11	32.13	-53.4	-55.8	14.2	0.00e+00	0	29	0	764411904	73	4643
2026-01-04 03:05:14.71	308.73	31.87	-53.8	-56.4	14.0	0.00e+00	0	29	0	771751936	73	4942
2026-01-04 03:05:18.71	307.37	31.60	-53.9	-56.3	14.1	0.00e+00	0	29	0	779091968	73	4897
2026-01-04 03:05:22.70	306.04	31.31	-55.2	-58.3	13.2	0.00e+00	0	29	0	786432000	75	5478
2026-01-04 03:05:26.69	304.73	31.01	-55.1	-58.4	13.2	0.00e+00	0	29	0	793772032	75	5562
2026-01-04 03:05:30.68	303.44	30.70	-54.6	-57.4	13.7	0.00e+00	0	29	0	801112064	75	4940
2026-01-04 03:05:34.65	302.19	30.37	-54.5	-57.2	13.8	0.00e+00	0	29	0	808452096	75	4819
2026-01-04 03:05:38.63	300.96	30.04	-53.7	-56.1	14.1	0.00e+00	0	29	0	815792128	73	4786
2026-01-04 03:05:42.64	299.74	29.69	-52.5	-54.4	14.7	0.00e+00	0	29	0	824180736	71	4430
2026-01-04 03:05:46.62	298.57	29.33	-53.5	-55.9	14.2	0.00e+00	0	29	0	831520768	72	4931
2026-01-04 03:05:50.62	297.41	28.96	-54.6	-57.3	13.7	0.00e+00	0	29	0	838860800	75	4916
2026-01-04 03:05:54.62	296.28	28.59	-54.8	-57.5	13.6	0.00e+00	0	29	0	846200832	74	5327
2026-01-04 03:05:58.62	295.17	28.20	-56.1	-59.6	12.7	0.00e+00	0	29	0	853540864	78	5395
2026-01-04 03:06:02.60	294.10	27.82	-55.0	-57.9	13.6	0.00e+00	0	29	0	860880896	76	4927
2026-01-04 03:06:06.58	293.05	27.42	-54.6	-57.3	13.9	0.00e+00	0	29	0	868220928	75	4871
2026-01-04 03:06:10.58	292.03	27.03	-53.3	-55.2	14.5	0.00e+00	0	29	0	876609536	73	4338
2026-01-04 03:06:14.58	291.03	26.62	-52.7	-54.6	14.6	0.00e+00	0	29	0	883949568	71	4497
2026-01-04 03:06:18.57	290.05	26.22	-53.5	-55.7	14.3	0.00e+00	0	29	0	891289600	72	4857
2026-01-04 03:06:22.57	289.10	25.81	-53.6	-55.7	14.3	0.00e+00	0	29	0	898629632	73	4582
2026-01-04 03:06:26.55	288.18	25.40	-53.4	-55.5	14.4	0.00e+00	0	29	0	905969664	73	4470
2026-01-04 03:06:30.53	287.29	24.99	-52.9	-54.7	14.6	0.00e+00	0	29	0	913309696	72	4338
2026-01-04 03:06:34.51	286.41	24.57	-51.2	-52.7	15.1	0.00e+00	0	29	0	920649728	69	4069
2026-01-04 03:06:38.50	285.56	24.16	-52.0	-53.7	14.8	0.00e+00	0	29	0	927989760	69	4591
2026-01-04 03:06:42.48	284.73	23.75	-51.9	-53.5	14.9	0.00e+00	0	29	0	936378368	70	4238
2026-01-04 03:06:46.47	283.92	23.33	-52.0	-53.7	14.8	0.00e+00	0	29	0	943718400	70	4329
2026-01-04 03:06:50.46	283.13	22.92	-52.4	-54.2	14.7	0.00e+00	0	29	0	951058432	70	4553
2026-01-04 03:06:54.46	282.37	22.51	-52.6	-54.5	14.5	0.00e+00	0	29	0	958398464	70	4731
2026-01-04 03:06:58.46	281.62	22.09	-51.8	-53.4	15.0	0.00e+00	0	29	0	965738496	70	4178
2026-01-04 03:07:02.45	280.89	21.68	-52.3	-54.1	14.7	0.00e+00	0	29	0	973078528	70	4518
2026-01-04 03:07:06.44	280.18	21.28	-52.5	-54.4	14.6	0.00e+00	0	29	0	980418560	70	4670
2026-01-04 03:07:10.44	279.49	20.87	-52.5	-54.3	14.6	0.00e+00	0	29	0	988807168	70	4641
2026-01-04 03:07:14.45	278.82	20.46	-52.6	-54.5	14.6	0.00e+00	0	29	0	996147200	70	4719
2026-01-04 03:07:18.45	278.16	20.06	-53.5	-55.6	14.3	0.00e+00	0	29	0	1003487232	72	4811
2026-01-04 03:07:22.44	277.53	19.66	-53.7	-55.9	14.2	0.00e+00	0	29	0	1010827264	73	4667
2026-01-04 03:07:26.43	276.91	19.27	-52.8	-54.6	14.7	0.00e+00	0	29	0	1018167296	72	4282
2026-01-04 03:07:30.43	276.30	18.87	-53.3	-55.3	14.4	0.00e+00	0	29	0	1025507328	72	4629
2026-01-04 03:07:34.41	275.72	18.48	-53.3	-55.4	14.3	0.00e+00	0	29	0	1033895936	72	4666
2026-01-04 03:07:38.41	275.14	18.09	-52.7	-54.6	14.6	0.00e+00	0	29	0	1041235968	71	4522
2026-01-04 03:07:42.39	274.59	17.71	-52.6	-54.5	14.6	0.00e+00	0	29	0	1048576000	71	4446
2026-01-04 03:07:46.38	274.04	17.33	-52.8	-54.7	14.5	0.00e+00	0	29	0	1055916032	71	4573
2026-01-04 03:07:50.35	273.52	16.95	-52.9	-54.8	14.5	0.00e+00	0	29	0	1063256064	71	4605
2026-01-04 03:07:54.33	273.00	16.58	-52.3	-54.1	14.8	0.00e+00	0	29	0	1070596096	71	4260
2026-01-04 03:07:58.33	272.50	16.21	-52.6	-54.5	14.6	0.00e+00	0	29	0	1077936128	71	4459
2026-01-04 03:08:02.31	272.01	15.84	-54.2	-56.8	13.8	0.00e+00	0	29	0	1085276160	73	5160
2026-01-04 03:08:06.31	271.53	15.48	-54.1	-56.4	14.0	0.00e+00	0	29	0	1093664768	74	4690
2026-01-04 03:08:10.31	271.06	15.11	-53.0	-54.8	14.6	0.00e+00	0	29	0	1101004800	72	4372
2026-01-04 03:08:14.31	270.60	14.76	-52.7	-54.5	14.6	0.00e+00	0	29	0	1108344832	71	4449
2026-01-04 03:08:18.29	270.16	14.40	-53.8	-55.8	14.1	0.00e+00	0	29	0	1115684864	72	4918
2026-01-04 03:08:22.29	269.72	14.05	-54.5	-56.8	13.8	0.00e+00	0	29	0	1123024896	74	4922
2026-01-04 03:08:26.28	269.30	13.70	-54.3	-56.5	14.0	0.00e+00	0	29	0	1130364928	74	4758
2026-01-04 03:08:30.27	268.89	13.36	-54.2	-56.5	14.0	0.00e+00	0	29	0	1137704960	74	4715
2026-01-04 03:08:34.25	268.48	13.02	-54.2	-56.4	14.0	0.00e+00	0	29	0	1145044992	74	4704
2026-01-04 03:08:38.23	268.09	12.68	-54.3	-56.6	13.9	0.00e+00	0	29	0	1153433600	74	4761
2026-01-04 03:08:42.21	267.71	12.35	-54.5	-56.8	13.8	0.00e+00	0	29	0	1160773632	74	4897
2026-01-04 03:08:46.20	267.33	12.02	-54.2	-56.5	13.9	0.00e+00	0	29	0	1168113664	74	4720
2026-01-04 03:08:50.20	266.96	11.69	-53.5	-55.5	14.3	0.00e+00	0	29	0	1175453696	73	4461
2026-01-04 03:08:54.19	266.60	11.36	-53.2	-55.1	14.4	0.00e+00	0	29	0	1182793728	72	4531
2026-01-04 03:08:58.18	266.25	11.04	-53.3	-55.2	14.3	0.00e+00	0	29	0	1190133760	72	4598
2026-01-04 03:09:02.18	265.90	10.72	-54.2	-56.5	13.8	0.00e+00	0	29	0	1197473792	73	5039
2026-01-04 03:09:06.18	265.57	10.41	-55.1	-57.8	13.3	0.00e+00	0	29	0	1205862400	75	5206
2026-01-04 03:09:10.17	265.24	10.10	-55.2	-58.0	13.2	0.00e+00	0	29	0	1213202432	75	5318
2026-01-04 03:09:14.16	264.92	9.79	-55.0	-57.7	13.3	0.00e+00	0	29	0	1220542464	75	5112
2026-01-04 03:09:18.16	264.60	9.48	-54.9	-57.5	13.5	0.00e+00	0	29	0	1227882496	75	5033
2026-01-04 03:09:22.17	264.29	9.17	-54.5	-57.0	13.7	0.00e+00	0	29	0	1235222528	75	4745
2026-01-04 03:09:26.16	263.99	8.87	-54.3	-56.7	13.8	0.00e+00	0	29	0	1242562560	75	4580
2026-01-04 03:09:30.15	263.70	8.58	-54.1	-56.4	13.9	0.00e+00	0	29	0	1249902592	74	4690
2026-01-04 03:09:34.16	263.41	8.28	-54.2	-56.5	13.8	0.00e+00	0	29	0	1258291200	74	4740
2026-01-04 03:09:38.15	263.13	7.99	-54.6	-57.1	13.5	0.00e+00	0	29	0	1265631232	74	5084
2026-01-04 03:09:42.14	262.85	7.70	-55.0	-57.8	13.2	0.00e+00	0	29	0	1272971264	75	5214
2026-01-04 03:09:46.13	262.58	7.41	-55.1	-58.0	13.0	0.00e+00	0	29	0	1280311296	75	5334
2026-01-04 03:09:50.11	262.31	7.13	-55.5	-58.6	12.8	0.00e+00	0	29	0	1287651328	76	5369
2026-01-04 03:09:54.11	262.05	6.85	-55.3	-58.3	13.0	0.00e+00	0	29	0	1294991360	76	5185
2026-01-04 03:09:58.11	261.80	6.56	-55.2	-58.2	13.0	0.00e+00	0	29	0	1302331392	76	5136
2026-01-04 03:10:02.10	261.55	6.29	-55.5	-58.6	12.7	0.00e+00	0	29	0	1310720000	76	5363
2026-01-04 03:10:06.10	261.30	6.01	-55.5	-58.7	12.7	0.00e+00	0	29	0	1318060032	76	5414
2026-01-04 03:10:10.09	261.06	5.74	-55.6	-58.8	12.5	0.00e+00	0	29	0	1325400064	76	5502
2026-01-04 03:10:14.09	260.82	5.47	-55.8	-59.3	12.2	0.00e+00	0	29	0	1332740096	76	5831
2026-01-04 03:10:18.09	260.59	5.20	-55.6	-59.1	12.3	7.00e-07	0	29	0	1340080128	76	5673
2026-01-04 03:10:22.08	260.37	4.94	-59.2	-75.2	3.8	9.36e-01	0	29	104	1347420160	83	24234
2026-01-04 03:10:26.10	260.14	4.67	-60.4	-76.5	3.8	1.49e+00	0	29	104	1347420160	85	25133
2026-01-04 03:10:30.09	259.92	4.41	-60.9	-77.0	3.8	1.49e+00	0	29	104	1347420160	86	25021
2026-01-04 03:10:34.08	259.71	4.15	-61.2	-77.3	3.8	1.49e+00	0	29	104	1347420160	87	24585
2026-01-04 03:10:38.06	259.50	3.90	-61.4	-77.5	3.8	1.49e+00	0	29	104	1347420160	87	25079
2026-01-04 03:10:42.06	259.29	3.64	-61.4	-77.5	3.8	1.49e+00	0	29	104	1347420160	88	23771
2026-01-04 03:10:46.05	259.09	3.39	-61.3	-77.4	3.8	1.49e+00	0	29	104	1347420160	88	23424
2026-01-04 03:10:50.04	258.89	3.14	-61.2	-77.3	3.8	1.49e+00	0	29	104	1347420160	88	23159
2026-01-04 03:10:54.03	258.70	2.89	-61.1	-77.2	3.8	1.49e+00	0	29	104	1347420160	88	22915
2026-01-04 03:10:58.03	258.51	2.64	-61.1	-77.1	3.8	1.49e+00	0	29	104	1347420160	88	22720
2026-01-04 03:11:02.04	258.32	2.39	-61.0	-77.1	3.8	1.49e+00	0	29	104	1347420160	88	22663
2026-01-04 03:11:06.04	258.13	2.15	-61.0	-77.1	3.8	1.49e+00	0	29	104	1347420160	88	22593

#Closed at: 2026-01-04 03:11:08
#Recorded file [1347 MB]: D:/lorett/data/31004_260104_055739.dat