passes_logs/2026/01/04/R3.2S_Murmansk/R3.2S_Murmansk__20260104_004755_NOAA_21_JPSS-2_rec.log

#Pass ID: 20260104_004755_NOAA 21 (JPSS-2)
#Satellite: NOAA 21 (JPSS-2)
#Configuration: NOAA-21
#almurnet v.1.7.20251203
#Start time: 2026-01-04 00:47:57

#Version: 2.2.20231116
#Station: R3.2S_Murmansk
#Location: 33.079688 lon 68.888172 lat
#TLE: 1 54234U 22150A   26003.45311712  .00000198  00000+0  11468-3 0  9993
#TLE: 2 54234  98.7487 304.4932 0001159 347.5017  12.6130 14.19531745163172

#Time	Az	El	Level	Level2	SNR	BER	BlckErr	Temp	State	Recorded	gain1	gain2
2026-01-04 00:47:57.34	24.92	2.11	-58.8	-72.6	3.8	1.49e+00	0	27	0	0	84	17035
2026-01-04 00:48:01.35	24.93	2.36	-58.6	-72.4	3.8	1.49e+00	0	27	104	0	82	18625
2026-01-04 00:48:05.36	24.93	2.62	-58.6	-72.4	3.8	1.49e+00	0	27	104	0	82	18658
2026-01-04 00:48:09.33	24.93	2.88	-58.6	-72.3	3.8	1.49e+00	0	27	104	0	82	18469
2026-01-04 00:48:13.33	24.93	3.15	-58.5	-71.7	3.8	1.49e+00	0	27	104	0	82	17142
2026-01-04 00:48:17.34	24.93	3.42	-58.5	-70.7	3.8	1.49e+00	0	27	104	0	82	15359
2026-01-04 00:48:21.33	24.93	3.69	-58.5	-71.6	3.8	1.49e+00	0	28	104	0	82	16938
2026-01-04 00:48:25.33	24.93	3.96	-58.6	-72.1	3.8	1.49e+00	0	27	104	0	82	18031
2026-01-04 00:48:29.33	24.93	4.23	-58.3	-68.9	3.9	1.44e+00	0	28	104	0	82	12442
2026-01-04 00:48:33.33	24.93	4.51	-57.6	-64.4	6.4	2.04e-01	0	28	0	8388608	81	7889
2026-01-04 00:48:37.33	24.93	4.79	-57.1	-62.5	8.0	3.50e-02	0	28	0	20971520	80	6687
2026-01-04 00:48:41.31	24.93	5.07	-57.4	-63.5	7.2	3.79e-02	0	28	0	33554432	80	7460
2026-01-04 00:48:45.31	24.93	5.36	-55.2	-58.4	11.3	3.80e-06	0	28	0	40894464	75	5567
2026-01-04 00:48:49.32	24.93	5.65	-53.7	-56.0	12.8	0.00e+00	0	28	0	53477376	74	4467
2026-01-04 00:48:53.31	24.93	5.94	-52.3	-54.2	13.7	0.00e+00	0	28	0	66060288	71	4294
2026-01-04 00:48:57.32	24.92	6.24	-52.1	-53.9	13.8	0.00e+00	0	28	0	78643200	70	4407
2026-01-04 00:49:01.32	24.92	6.54	-52.0	-53.7	13.9	0.00e+00	0	28	0	91226112	70	4323
2026-01-04 00:49:05.33	24.92	6.85	-51.9	-53.6	13.9	0.00e+00	0	28	0	103809024	70	4275
2026-01-04 00:49:09.31	24.91	7.15	-51.9	-53.6	13.9	0.00e+00	0	28	0	116391936	70	4274
2026-01-04 00:49:13.29	24.91	7.46	-51.8	-53.4	14.0	0.00e+00	0	28	0	128974848	69	4424
2026-01-04 00:49:17.30	24.90	7.78	-51.6	-53.2	14.1	0.00e+00	0	28	0	141557760	69	4315
2026-01-04 00:49:21.28	24.90	8.09	-51.5	-53.1	14.2	0.00e+00	0	28	0	153092096	69	4270
2026-01-04 00:49:25.28	24.89	8.42	-51.4	-53.0	14.2	0.00e+00	0	28	0	165675008	69	4202
2026-01-04 00:49:29.27	24.89	8.74	-51.3	-52.8	14.3	0.00e+00	0	28	0	178257920	69	4133
2026-01-04 00:49:33.27	24.88	9.07	-51.2	-52.7	14.4	0.00e+00	0	28	0	190840832	69	4081
2026-01-04 00:49:37.27	24.87	9.41	-51.2	-52.6	14.3	0.00e+00	0	28	0	203423744	68	4290
2026-01-04 00:49:41.27	24.86	9.75	-51.1	-52.6	14.3	0.00e+00	0	28	0	216006656	68	4262
2026-01-04 00:49:45.26	24.86	10.09	-51.0	-52.4	14.4	0.00e+00	0	28	0	228589568	68	4176
2026-01-04 00:49:49.27	24.85	10.44	-50.9	-52.3	14.5	0.00e+00	0	28	0	241172480	68	4142
2026-01-04 00:49:53.28	24.84	10.80	-50.7	-52.2	14.6	0.00e+00	0	28	0	253755392	68	4057
2026-01-04 00:49:57.26	24.83	11.16	-50.4	-51.8	14.6	0.00e+00	0	28	0	266338304	67	4128
2026-01-04 00:50:01.25	24.82	11.52	-50.4	-51.8	14.6	0.00e+00	0	28	0	278921216	67	4101
2026-01-04 00:50:05.23	24.80	11.89	-50.3	-51.7	14.6	0.00e+00	0	28	0	290455552	67	4057
2026-01-04 00:50:09.22	24.79	12.27	-50.1	-51.5	14.6	0.00e+00	0	28	0	303038464	66	4214
2026-01-04 00:50:13.22	24.78	12.65	-50.0	-51.4	14.7	0.00e+00	0	29	0	315621376	66	4157
2026-01-04 00:50:17.20	24.76	13.04	-49.9	-51.3	14.7	0.00e+00	0	29	0	328204288	66	4107
2026-01-04 00:50:21.20	24.75	13.43	-49.8	-51.1	14.8	0.00e+00	0	28	0	340787200	66	4046
2026-01-04 00:50:25.19	24.73	13.83	-49.8	-51.1	14.8	0.00e+00	0	29	0	353370112	66	4017
2026-01-04 00:50:29.17	24.72	14.24	-49.7	-51.0	14.8	0.00e+00	0	29	0	365953024	66	3986
2026-01-04 00:50:33.17	24.70	14.65	-49.7	-51.0	14.7	0.00e+00	0	28	0	378535936	65	4198
2026-01-04 00:50:37.18	24.68	15.08	-49.5	-50.8	14.8	0.00e+00	0	29	0	391118848	65	4103
2026-01-04 00:50:41.18	24.66	15.50	-49.6	-50.8	14.8	0.00e+00	0	29	0	403701760	65	4126
2026-01-04 00:50:45.16	24.64	15.94	-49.6	-50.9	14.8	0.00e+00	0	29	0	416284672	65	4173
2026-01-04 00:50:49.16	24.62	16.39	-49.6	-50.9	14.8	0.00e+00	0	29	0	427819008	65	4168
2026-01-04 00:50:53.16	24.59	16.84	-49.7	-51.0	14.8	0.00e+00	0	29	0	440401920	65	4219
2026-01-04 00:50:57.17	24.57	17.30	-49.8	-51.0	14.7	0.00e+00	0	29	0	452984832	65	4231
2026-01-04 00:51:01.17	24.54	17.77	-49.6	-50.9	14.8	0.00e+00	0	29	0	465567744	65	4159
2026-01-04 00:51:05.16	24.52	18.25	-49.7	-51.0	14.8	0.00e+00	0	29	0	478150656	65	4200
2026-01-04 00:51:09.14	24.49	18.74	-49.6	-50.8	14.8	0.00e+00	0	29	0	490733568	65	4145
2026-01-04 00:51:13.12	24.46	19.24	-49.5	-50.7	14.9	0.00e+00	0	29	0	503316480	65	4088
2026-01-04 00:51:17.10	24.43	19.74	-49.6	-50.9	14.8	0.00e+00	0	29	0	515899392	65	4150
2026-01-04 00:51:21.08	24.40	20.26	-49.3	-50.6	14.9	0.00e+00	0	28	0	528482304	65	4011
2026-01-04 00:51:25.09	24.36	20.79	-49.3	-50.5	15.0	0.00e+00	0	29	0	541065216	65	3981
2026-01-04 00:51:29.08	24.32	21.34	-49.1	-50.3	14.9	0.00e+00	0	29	0	552599552	64	4105
2026-01-04 00:51:33.08	24.29	21.89	-48.8	-49.9	15.0	0.00e+00	0	29	0	565182464	64	3946
2026-01-04 00:51:37.08	24.24	22.46	-48.6	-49.8	15.0	0.00e+00	0	29	0	577765376	63	4128
2026-01-04 00:51:41.08	24.20	23.04	-48.6	-49.8	15.0	0.00e+00	0	29	0	590348288	63	4113
2026-01-04 00:51:45.08	24.16	23.63	-48.3	-49.5	15.1	0.00e+00	0	29	0	602931200	63	3972
2026-01-04 00:51:49.07	24.11	24.24	-48.4	-49.5	15.1	0.00e+00	0	29	0	615514112	63	3980
2026-01-04 00:51:53.06	24.06	24.86	-48.4	-49.6	15.1	0.00e+00	0	29	0	628097024	63	4009
2026-01-04 00:51:57.06	24.01	25.49	-48.6	-49.8	15.0	0.00e+00	0	29	0	640679936	63	4114
2026-01-04 00:52:01.06	23.95	26.15	-48.8	-50.0	14.9	0.00e+00	0	29	0	653262848	63	4201
2026-01-04 00:52:05.05	23.89	26.81	-49.4	-50.6	14.8	0.00e+00	0	29	0	665845760	63	4528
2026-01-04 00:52:09.05	23.83	27.50	-49.7	-50.9	14.8	0.00e+00	0	29	0	678428672	64	4422
2026-01-04 00:52:13.04	23.77	28.20	-49.8	-51.1	14.7	0.00e+00	0	29	0	689963008	64	4497
2026-01-04 00:52:17.02	23.70	28.92	-49.8	-51.0	14.8	0.00e+00	0	29	0	702545920	65	4218
2026-01-04 00:52:21.01	23.63	29.65	-49.7	-51.0	14.8	0.00e+00	0	29	0	715128832	65	4204
2026-01-04 00:52:24.99	23.55	30.41	-49.5	-50.8	14.9	0.00e+00	0	29	0	727711744	65	4109
2026-01-04 00:52:28.98	23.47	31.19	-49.4	-50.6	15.0	0.00e+00	0	29	0	740294656	65	4019
2026-01-04 00:52:32.99	23.38	31.99	-49.3	-50.5	15.0	0.00e+00	0	29	0	752877568	65	4001
2026-01-04 00:52:36.99	23.29	32.82	-49.8	-51.0	14.8	0.00e+00	0	28	0	765460480	65	4228
2026-01-04 00:52:40.98	23.19	33.66	-50.1	-51.3	14.7	0.00e+00	0	29	0	778043392	65	4381
2026-01-04 00:52:44.97	23.09	34.53	-50.8	-52.1	14.5	0.00e+00	0	29	0	790626304	66	4526
2026-01-04 00:52:48.97	22.98	35.42	-51.2	-52.6	14.4	0.00e+00	0	29	0	802160640	67	4504
2026-01-04 00:52:52.97	22.86	36.34	-51.7	-53.2	14.3	0.00e+00	0	29	0	814743552	68	4582
2026-01-04 00:52:56.96	22.74	37.29	-51.4	-52.8	14.5	0.00e+00	0	29	0	827326464	68	4352
2026-01-04 00:53:00.95	22.60	38.26	-51.7	-53.2	14.3	0.00e+00	0	29	0	839909376	68	4551
2026-01-04 00:53:04.95	22.46	39.27	-51.6	-53.0	14.4	0.00e+00	0	28	0	852492288	68	4457
2026-01-04 00:53:08.93	22.31	40.30	-51.6	-53.0	14.4	0.00e+00	0	29	0	865075200	68	4476
2026-01-04 00:53:12.92	22.14	41.36	-52.3	-53.9	14.1	0.00e+00	0	29	0	877658112	69	4660
2026-01-04 00:53:16.92	21.96	42.46	-52.4	-53.9	14.1	0.00e+00	0	29	0	890241024	69	4677
2026-01-04 00:53:20.90	21.77	43.58	-52.4	-54.0	14.2	0.00e+00	0	29	0	902823936	70	4458
2026-01-04 00:53:24.88	21.57	44.74	-52.8	-54.5	14.0	0.00e+00	0	29	0	914358272	71	4457
2026-01-04 00:53:28.87	21.35	45.93	-52.5	-54.0	14.3	0.00e+00	0	29	0	926941184	71	4219
2026-01-04 00:53:32.86	21.10	47.16	-51.7	-53.0	14.5	0.00e+00	0	29	0	939524096	69	4232
2026-01-04 00:53:36.86	20.84	48.43	-50.8	-52.1	14.8	0.00e+00	0	29	0	952107008	68	4013
2026-01-04 00:53:40.85	20.55	49.74	-50.7	-52.0	14.7	0.00e+00	0	29	0	964689920	67	4207
2026-01-04 00:53:44.85	20.24	51.08	-51.1	-52.4	14.5	0.00e+00	0	29	0	977272832	67	4439
2026-01-04 00:53:48.85	19.89	52.47	-50.7	-52.0	14.7	0.00e+00	0	29	0	989855744	67	4202
2026-01-04 00:53:52.85	19.50	53.89	-49.7	-50.9	15.0	0.00e+00	0	29	0	1002438656	66	3931
2026-01-04 00:53:56.86	19.08	55.35	-49.4	-50.5	15.0	0.00e+00	0	29	0	1015021568	65	3997
2026-01-04 00:54:00.86	18.60	56.86	-49.2	-50.4	15.1	0.00e+00	0	29	0	1027604480	65	3918
2026-01-04 00:54:04.87	18.07	58.40	-49.3	-50.5	15.0	0.00e+00	0	29	0	1040187392	64	4197
2026-01-04 00:54:08.87	17.47	59.98	-49.1	-50.2	15.1	0.00e+00	0	29	0	1052770304	64	4068
2026-01-04 00:54:12.86	16.79	61.59	-48.9	-50.1	15.1	0.00e+00	0	29	0	1065353216	64	4014
2026-01-04 00:54:16.85	16.01	63.24	-48.7	-49.8	15.1	0.00e+00	0	29	0	1076887552	63	4117
2026-01-04 00:54:20.84	15.11	64.92	-48.4	-49.4	15.2	0.00e+00	0	29	0	1089470464	63	3949
2026-01-04 00:54:24.82	14.06	66.63	-47.9	-49.0	15.2	0.00e+00	0	29	0	1102053376	62	3966
2026-01-04 00:54:28.80	12.83	68.37	-48.0	-49.1	15.2	0.00e+00	0	29	0	1114636288	62	4016
2026-01-04 00:54:32.80	11.35	70.14	-48.9	-50.1	15.0	0.00e+00	0	29	0	1127219200	63	4250
2026-01-04 00:54:36.79	9.56	71.92	-48.9	-50.1	15.0	0.00e+00	0	29	0	1139802112	63	4257
2026-01-04 00:54:40.79	7.34	73.71	-48.7	-49.9	15.1	0.00e+00	0	29	0	1152385024	63	4149
2026-01-04 00:54:44.79	4.54	75.51	-48.6	-49.7	15.1	0.00e+00	0	29	0	1164967936	63	4074
2026-01-04 00:54:48.78	0.93	77.27	-48.9	-50.1	15.0	0.00e+00	0	29	0	1177550848	63	4257
2026-01-04 00:54:52.76	356.14	78.99	-49.2	-50.4	14.9	0.00e+00	0	29	0	1189085184	63	4407
2026-01-04 00:54:56.76	349.54	80.63	-48.5	-49.6	15.2	0.00e+00	0	29	0	1201668096	63	4026
2026-01-04 00:55:00.74	340.34	82.10	-49.1	-50.2	15.0	0.00e+00	0	29	0	1214251008	63	4320
2026-01-04 00:55:04.74	327.30	83.29	-49.6	-50.8	15.0	0.00e+00	0	29	0	1226833920	65	4135
2026-01-04 00:55:08.75	309.89	84.01	-48.9	-50.0	15.1	0.00e+00	0	29	0	1239416832	64	3999
2026-01-04 00:55:12.75	290.10	84.08	-49.2	-50.4	14.9	0.00e+00	0	29	0	1251999744	63	4403
2026-01-04 00:55:16.75	272.00	83.48	-49.5	-50.6	14.9	0.00e+00	0	29	0	1264582656	64	4272
2026-01-04 00:55:20.74	258.14	82.36	-48.8	-49.9	15.1	0.00e+00	0	29	0	1277165568	63	4181
2026-01-04 00:55:24.72	248.27	80.94	-48.9	-50.0	15.1	0.00e+00	0	29	0	1289748480	63	4205
2026-01-04 00:55:28.69	241.27	79.34	-48.9	-50.1	15.0	0.00e+00	0	29	0	1302331392	63	4249
2026-01-04 00:55:32.69	236.15	77.62	-48.9	-50.0	15.2	0.00e+00	0	29	0	1313865728	64	3969
2026-01-04 00:55:36.67	232.34	75.86	-48.1	-49.2	15.2	0.00e+00	0	29	0	1326448640	62	4063
2026-01-04 00:55:40.67	229.39	74.07	-48.4	-49.4	15.2	0.00e+00	0	29	0	1339031552	63	3933
2026-01-04 00:55:44.67	227.07	72.27	-49.0	-50.1	14.9	0.00e+00	0	29	0	1351614464	63	4285
2026-01-04 00:55:48.64	225.21	70.50	-48.2	-49.2	15.1	0.00e+00	0	29	0	1364197376	62	4089
2026-01-04 00:55:52.64	223.67	68.72	-48.9	-50.0	15.2	0.00e+00	0	29	0	1376780288	64	3978
2026-01-04 00:55:56.63	222.39	66.97	-48.2	-49.3	15.1	0.00e+00	0	29	0	1389363200	62	4104
2026-01-04 00:56:00.62	221.31	65.25	-48.8	-49.9	15.0	0.00e+00	0	29	0	1401946112	63	4173
2026-01-04 00:56:04.61	220.38	63.56	-48.2	-49.2	15.1	0.00e+00	0	29	0	1414529024	61	4321
2026-01-04 00:56:08.61	219.58	61.90	-49.4	-50.5	14.9	0.00e+00	0	29	0	1426063360	64	4211
2026-01-04 00:56:12.60	218.88	60.27	-48.1	-49.2	15.1	0.00e+00	0	29	0	1438646272	62	4070
2026-01-04 00:56:16.58	218.26	58.69	-49.9	-51.1	14.8	0.00e+00	0	29	0	1451229184	64	4502
2026-01-04 00:56:20.57	217.72	57.14	-49.0	-50.1	15.1	0.00e+00	0	29	0	1463812096	64	4025
2026-01-04 00:56:24.54	217.23	55.64	-50.1	-51.3	14.8	0.00e+00	0	29	0	1476395008	65	4376
2026-01-04 00:56:28.52	216.80	54.17	-51.2	-52.5	14.5	0.00e+00	0	29	0	1488977920	67	4492
2026-01-04 00:56:32.50	216.41	52.75	-50.2	-51.4	14.9	0.00e+00	0	29	0	1501560832	67	3945
2026-01-04 00:56:36.49	216.05	51.35	-52.0	-53.5	14.4	0.00e+00	0	29	0	1514143744	69	4447
2026-01-04 00:56:40.49	215.73	50.00	-52.4	-53.9	14.2	0.00e+00	0	29	0	1526726656	69	4681
2026-01-04 00:56:44.48	215.43	48.68	-53.1	-54.8	14.0	0.00e+00	0	29	0	1538260992	71	4637
2026-01-04 00:56:48.49	215.16	47.40	-51.6	-52.9	14.6	0.00e+00	0	29	0	1550843904	69	4193
2026-01-04 00:56:52.50	214.91	46.15	-52.8	-54.4	14.1	0.00e+00	0	29	0	1563426816	70	4652
2026-01-04 00:56:56.49	214.69	44.94	-53.1	-54.8	14.0	0.00e+00	0	29	0	1576009728	71	4601
2026-01-04 00:57:00.48	214.48	43.77	-53.7	-55.5	13.7	0.00e+00	0	29	0	1588592640	72	4738
2026-01-04 00:57:04.48	214.28	42.63	-51.9	-53.3	14.5	0.00e+00	0	29	0	1601175552	70	4120
2026-01-04 00:57:08.47	214.10	41.53	-52.4	-53.9	14.2	0.00e+00	0	29	0	1613758464	69	4669
2026-01-04 00:57:12.47	213.93	40.45	-52.5	-54.1	14.2	0.00e+00	0	29	0	1626341376	70	4520
2026-01-04 00:57:16.44	213.78	39.42	-52.1	-53.6	14.4	0.00e+00	0	29	0	1638924288	70	4262
2026-01-04 00:57:20.41	213.63	38.41	-52.1	-53.6	14.4	0.00e+00	0	29	0	1650458624	70	4255
2026-01-04 00:57:24.41	213.49	37.43	-52.1	-53.6	14.4	0.00e+00	0	29	0	1663041536	70	4255
2026-01-04 00:57:28.39	213.37	36.48	-50.8	-52.0	14.8	0.00e+00	0	29	0	1675624448	68	3989
2026-01-04 00:57:32.38	213.25	35.55	-50.5	-51.7	14.8	0.00e+00	0	29	0	1688207360	67	4083
2026-01-04 00:57:36.39	213.13	34.64	-50.8	-52.1	14.7	0.00e+00	0	29	0	1700790272	67	4283
2026-01-04 00:57:40.38	213.03	33.77	-50.8	-52.1	14.6	0.00e+00	0	29	0	1713373184	67	4284
2026-01-04 00:57:44.39	212.93	32.91	-50.1	-51.3	14.9	0.00e+00	0	29	0	1725956096	66	4110
2026-01-04 00:57:48.38	212.83	32.08	-49.8	-51.0	15.0	0.00e+00	0	29	0	1738539008	66	3994
2026-01-04 00:57:52.38	212.75	31.28	-50.4	-51.7	14.7	0.00e+00	0	29	0	1751121920	66	4321
2026-01-04 00:57:56.37	212.66	30.49	-50.3	-51.6	14.7	0.00e+00	0	29	0	1763704832	66	4257
2026-01-04 00:58:00.35	212.58	29.73	-50.3	-51.6	14.7	0.00e+00	0	29	0	1776287744	66	4251
2026-01-04 00:58:04.34	212.51	28.99	-50.1	-51.4	14.8	0.00e+00	0	29	0	1787822080	66	4175
2026-01-04 00:58:08.34	212.44	28.26	-49.9	-51.1	14.9	0.00e+00	0	29	0	1800404992	66	4028
2026-01-04 00:58:12.34	212.37	27.55	-49.6	-50.8	14.9	0.00e+00	0	29	0	1812987904	65	4143
2026-01-04 00:58:16.33	212.31	26.86	-49.5	-50.7	14.9	0.00e+00	0	29	0	1825570816	65	4074
2026-01-04 00:58:20.31	212.25	26.19	-49.2	-50.4	15.0	0.00e+00	0	29	0	1838153728	65	3938
2026-01-04 00:58:24.30	212.19	25.54	-49.1	-50.3	15.0	0.00e+00	0	29	0	1850736640	64	4129
2026-01-04 00:58:28.28	212.13	24.90	-49.3	-50.4	14.9	0.00e+00	0	29	0	1863319552	64	4184
2026-01-04 00:58:32.27	212.08	24.27	-49.2	-50.4	14.9	0.00e+00	0	29	0	1875902464	64	4171
2026-01-04 00:58:36.25	212.03	23.67	-49.3	-50.5	14.9	0.00e+00	0	29	0	1887436800	64	4200
2026-01-04 00:58:40.25	211.99	23.07	-49.4	-50.6	14.9	0.00e+00	0	29	0	1900019712	64	4274
2026-01-04 00:58:44.24	211.94	22.48	-49.3	-50.5	14.9	0.00e+00	0	29	0	1912602624	64	4194
2026-01-04 00:58:48.25	211.90	21.91	-49.1	-50.2	15.0	0.00e+00	0	29	0	1925185536	64	4098
2026-01-04 00:58:52.22	211.86	21.36	-49.0	-50.1	15.0	0.00e+00	0	29	0	1937768448	64	4047
2026-01-04 00:58:56.22	211.82	20.81	-49.0	-50.2	15.0	0.00e+00	0	29	0	1950351360	64	4058
2026-01-04 00:59:00.22	211.78	20.28	-49.2	-50.4	14.9	0.00e+00	0	29	0	1962934272	64	4151
2026-01-04 00:59:04.21	211.75	19.75	-49.3	-50.5	14.9	0.00e+00	0	29	0	1975517184	64	4214
2026-01-04 00:59:08.20	211.71	19.24	-49.4	-50.6	14.8	0.00e+00	0	29	0	1988100096	64	4270
2026-01-04 00:59:12.20	211.68	18.74	-49.6	-50.8	14.8	0.00e+00	0	29	0	2000683008	64	4353
2026-01-04 00:59:16.21	211.65	18.24	-49.7	-50.9	14.7	0.00e+00	0	29	0	2013265920	64	4431
2026-01-04 00:59:20.20	211.62	17.76	-49.9	-51.2	14.7	0.00e+00	0	29	0	2024800256	64	4554
2026-01-04 00:59:24.20	211.59	17.29	-50.1	-51.4	14.7	0.00e+00	0	29	0	2037383168	65	4398
2026-01-04 00:59:28.17	211.57	16.83	-50.2	-51.5	14.6	0.00e+00	0	29	0	2049966080	65	4464
2026-01-04 00:59:32.16	211.54	16.37	-50.2	-51.5	14.6	0.00e+00	0	29	0	2062548992	65	4478
2026-01-04 00:59:36.13	211.52	15.93	-50.2	-51.6	14.6	0.00e+00	0	29	0	2075131904	65	4497
2026-01-04 00:59:40.10	211.49	15.49	-50.1	-51.4	14.6	0.00e+00	0	29	0	2087714816	65	4424
2026-01-04 00:59:44.10	211.47	15.06	-50.3	-51.7	14.5	0.00e+00	0	29	0	2100297728	65	4558
2026-01-04 00:59:48.10	211.45	14.63	-50.5	-51.8	14.5	0.00e+00	0	29	0	2112880640	66	4389
2026-01-04 00:59:52.11	211.43	14.22	-50.5	-51.9	14.5	0.00e+00	0	29	0	2125463552	66	4420
2026-01-04 00:59:56.11	211.41	13.80	-50.4	-51.8	14.5	0.00e+00	0	29	0	2136997888	66	4355
2026-01-04 01:00:00.10	211.39	13.40	-50.7	-52.1	14.4	0.00e+00	0	29	0	2149580800	66	4495
2026-01-04 01:00:04.10	211.38	13.01	-50.5	-51.9	14.5	0.00e+00	0	29	0	2162163712	66	4398
2026-01-04 01:00:08.10	211.36	12.61	-50.5	-51.9	14.5	0.00e+00	0	29	0	2174746624	66	4436
2026-01-04 01:00:12.10	211.34	12.23	-50.5	-51.9	14.5	0.00e+00	0	29	0	2187329536	66	4418
2026-01-04 01:00:16.11	211.33	11.85	-50.6	-52.0	14.5	0.00e+00	0	29	0	2199912448	66	4462
2026-01-04 01:00:20.12	211.32	11.48	-50.7	-52.1	14.4	0.00e+00	0	29	0	2212495360	66	4517
2026-01-04 01:00:24.11	211.30	11.11	-50.8	-52.2	14.4	0.00e+00	0	29	0	2225078272	66	4573
2026-01-04 01:00:28.10	211.29	10.75	-51.0	-52.4	14.4	0.00e+00	0	29	0	2237661184	67	4422
2026-01-04 01:00:32.09	211.28	10.39	-51.0	-52.5	14.3	0.00e+00	0	29	0	2250244096	67	4454
2026-01-04 01:00:36.07	211.26	10.04	-51.0	-52.5	14.3	0.00e+00	0	29	0	2262827008	67	4470
2026-01-04 01:00:40.10	211.25	9.70	-51.1	-52.6	14.2	0.00e+00	0	29	0	2274361344	67	4529
2026-01-04 01:00:44.10	211.24	9.35	-51.1	-52.6	14.2	0.00e+00	0	29	0	2286944256	67	4534
2026-01-04 01:00:48.10	211.23	9.02	-51.2	-52.7	14.2	0.00e+00	0	29	0	2299527168	67	4569
2026-01-04 01:00:52.09	211.22	8.68	-51.3	-52.8	14.1	0.00e+00	0	29	0	2312110080	67	4641
2026-01-04 01:00:56.09	211.21	8.36	-51.4	-53.0	14.0	0.00e+00	0	29	0	2324692992	67	4714
2026-01-04 01:01:00.09	211.21	8.03	-51.6	-53.2	14.1	0.00e+00	0	29	0	2337275904	68	4578
2026-01-04 01:01:04.08	211.20	7.71	-51.7	-53.3	14.0	0.00e+00	0	29	0	2349858816	68	4639
2026-01-04 01:01:08.07	211.19	7.40	-51.9	-53.6	13.9	0.00e+00	0	29	0	2362441728	69	4521
2026-01-04 01:01:12.07	211.18	7.09	-52.0	-53.7	13.9	0.00e+00	0	29	0	2375024640	69	4577
2026-01-04 01:01:16.08	211.18	6.78	-51.9	-53.6	13.9	0.00e+00	0	29	0	2387607552	69	4524
2026-01-04 01:01:20.08	211.17	6.47	-52.3	-54.0	13.7	0.00e+00	0	29	0	2400190464	69	4758
2026-01-04 01:01:24.08	211.17	6.17	-52.3	-54.1	13.7	0.00e+00	0	29	0	2412773376	69	4769
2026-01-04 01:01:28.08	211.16	5.87	-52.5	-54.4	13.6	0.00e+00	0	29	0	2424307712	70	4652
2026-01-04 01:01:32.07	211.16	5.58	-52.4	-54.2	13.6	0.00e+00	0	29	0	2436890624	70	4581
2026-01-04 01:01:36.08	211.15	5.29	-52.7	-54.6	13.4	0.00e+00	0	29	0	2449473536	70	4777
2026-01-04 01:01:40.06	211.15	5.00	-52.8	-54.8	13.2	0.00e+00	0	29	0	2462056448	70	4925
2026-01-04 01:01:44.06	211.14	4.72	-60.2	-74.1	3.8	1.49e+00	0	29	104	2464153600	85	19032
2026-01-04 01:01:48.07	211.14	4.43	-60.6	-74.5	3.8	1.49e+00	0	29	104	2464153600	86	18831
2026-01-04 01:01:52.07	211.14	4.15	-60.9	-74.7	3.8	1.49e+00	0	29	104	2464153600	86	19340
2026-01-04 01:01:56.07	211.13	3.88	-61.0	-74.9	3.8	1.49e+00	0	29	104	2464153600	87	18616
2026-01-04 01:02:00.07	211.13	3.61	-61.1	-75.0	3.8	1.49e+00	0	29	104	2464153600	87	18878
2026-01-04 01:02:04.06	211.13	3.34	-61.2	-75.1	3.9	1.49e+00	0	29	104	2464153600	87	18994
2026-01-04 01:02:08.07	211.12	3.07	-61.1	-75.0	3.8	1.49e+00	0	29	104	2464153600	87	18816
2026-01-04 01:02:12.06	211.12	2.80	-61.0	-74.9	3.8	1.49e+00	0	29	104	2464153600	87	18668
2026-01-04 01:02:16.06	211.12	2.54	-61.0	-74.9	3.8	1.49e+00	0	29	104	2464153600	87	18605
2026-01-04 01:02:20.05	211.12	2.28	-61.0	-74.9	3.8	1.49e+00	0	29	104	2464153600	87	18561
2026-01-04 01:02:24.04	211.12	2.02	-60.9	-74.8	3.8	1.49e+00	0	29	104	2464153600	87	18493

#Closed at: 2026-01-04 01:02:26
#Recorded file [2464 MB]: D:/lorett/data/31004_260104_034757.dat