passes_logs/2026/01/04/R3.2S_Murmansk/R3.2S_Murmansk__20260104_072540_NOAA_21_JPSS-2_rec.log

#Pass ID: 20260104_072540_NOAA 21 (JPSS-2)
#Satellite: NOAA 21 (JPSS-2)
#Configuration: NOAA-21
#almurnet v.1.7.20251203
#Start time: 2026-01-04 07:30:44

#Version: 2.2.20231116
#Station: R3.2S_Murmansk
#Location: 33.079688 lon 68.888172 lat
#TLE: 1 54234U 22150A   26003.94651505  .00000183  00000+0  10759-3 0  9990
#TLE: 2 54234  98.7488 304.9806 0001136 345.9488  14.1656 14.19531852163244

#Time	Az	El	Level	Level2	SNR	BER	BlckErr	Temp	State	Recorded	gain1	gain2
2026-01-04 07:30:44.18	69.26	28.03	-61.0	-74.1	3.8	8.45e-01	0	28	0	0	87	17000
2026-01-04 07:30:47.19	68.46	28.35	-61.1	-75.0	3.8	1.49e+00	0	29	104	0	87	18818
2026-01-04 07:30:50.22	67.65	28.66	-60.9	-74.8	3.8	1.49e+00	0	29	104	0	87	18327
2026-01-04 07:30:53.24	66.82	28.96	-60.8	-74.6	3.8	1.49e+00	0	29	104	0	87	18028
2026-01-04 07:30:56.26	65.97	29.26	-60.6	-74.5	3.8	1.49e+00	0	29	104	0	87	17689
2026-01-04 07:30:59.28	65.11	29.56	-60.6	-74.3	3.8	1.49e+00	0	29	104	0	87	17445
2026-01-04 07:31:02.30	64.24	29.86	-60.6	-74.4	3.8	1.49e+00	0	29	104	0	87	17487
2026-01-04 07:31:05.33	63.34	30.15	-60.5	-74.4	3.8	1.49e+00	0	28	104	0	87	17509
2026-01-04 07:31:08.36	62.43	30.43	-60.5	-74.3	3.8	1.49e+00	0	29	104	0	87	17457
2026-01-04 07:31:11.39	61.50	30.71	-60.5	-74.3	3.8	1.49e+00	0	29	104	0	87	17322
2026-01-04 07:31:14.42	60.56	30.99	-60.5	-74.3	3.8	1.49e+00	0	29	104	0	87	17481
2026-01-04 07:31:17.45	59.60	31.25	-60.5	-74.2	3.8	1.49e+00	0	29	104	0	87	17251
2026-01-04 07:31:20.48	58.63	31.51	-60.5	-74.3	3.8	1.49e+00	0	29	104	0	87	17328
2026-01-04 07:31:23.50	57.64	31.76	-60.4	-74.1	3.8	1.49e+00	0	29	104	0	87	17077
2026-01-04 07:31:26.53	56.63	32.01	-60.4	-73.8	3.8	1.49e+00	0	29	104	0	87	16429
2026-01-04 07:31:29.56	55.61	32.25	-60.4	-74.1	3.8	1.49e+00	0	29	104	0	87	16896
2026-01-04 07:31:32.58	54.58	32.47	-60.4	-73.5	3.8	1.49e+00	0	29	104	0	87	15901
2026-01-04 07:31:35.61	53.53	32.69	-60.1	-71.0	3.9	1.49e+00	0	29	104	0	86	12544
2026-01-04 07:31:38.63	52.47	32.90	-58.3	-62.9	9.2	6.80e-06	0	29	0	7340032	81	6597
2026-01-04 07:31:41.65	51.39	33.10	-51.6	-53.0	14.4	0.00e+00	0	29	0	16777216	68	4475
2026-01-04 07:31:44.60	50.33	33.29	-50.9	-52.2	14.7	0.00e+00	0	29	0	26214400	68	4088
2026-01-04 07:31:47.62	49.23	33.46	-50.9	-52.2	14.7	0.00e+00	0	29	0	35651584	68	4081
2026-01-04 07:31:50.64	48.12	33.63	-50.8	-52.1	14.7	0.00e+00	0	28	0	45088768	68	4025
2026-01-04 07:31:53.66	47.00	33.79	-50.4	-51.6	14.8	0.00e+00	0	28	0	54525952	67	4047
2026-01-04 07:31:56.68	45.86	33.93	-50.4	-51.6	14.8	0.00e+00	0	29	0	63963136	67	4044
2026-01-04 07:31:59.71	44.72	34.06	-50.4	-51.7	14.7	0.00e+00	0	29	0	73400320	67	4062
2026-01-04 07:32:02.73	43.57	34.18	-50.8	-52.1	14.6	0.00e+00	0	29	0	82837504	67	4282
2026-01-04 07:32:05.76	42.40	34.29	-50.6	-51.9	14.6	0.00e+00	0	29	0	92274688	67	4191
2026-01-04 07:32:08.78	41.24	34.38	-50.6	-51.9	14.7	0.00e+00	0	29	0	101711872	67	4171
2026-01-04 07:32:11.81	40.06	34.46	-50.5	-51.8	14.7	0.00e+00	0	29	0	111149056	67	4114
2026-01-04 07:32:14.83	38.88	34.52	-50.4	-51.7	14.7	0.00e+00	0	29	0	120586240	67	4077
2026-01-04 07:32:17.86	37.70	34.58	-50.4	-51.6	14.6	0.00e+00	0	28	0	130023424	66	4286
2026-01-04 07:32:20.88	36.51	34.61	-50.7	-52.0	14.5	0.00e+00	0	28	0	139460608	66	4462
2026-01-04 07:32:23.91	35.32	34.64	-50.7	-52.1	14.5	0.00e+00	0	29	0	148897792	66	4515
2026-01-04 07:32:26.93	34.13	34.65	-50.5	-51.7	14.6	0.00e+00	0	29	0	158334976	66	4333
2026-01-04 07:32:29.95	32.94	34.64	-50.3	-51.6	14.7	0.00e+00	0	29	0	167772160	66	4267
2026-01-04 07:32:32.97	31.76	34.63	-50.5	-51.8	14.6	0.00e+00	0	28	0	177209344	66	4383
2026-01-04 07:32:35.99	30.57	34.59	-50.7	-52.0	14.5	0.00e+00	0	29	0	186646528	66	4466
2026-01-04 07:32:39.02	29.38	34.55	-50.5	-51.8	14.6	0.00e+00	0	28	0	196083712	66	4391
2026-01-04 07:32:42.04	28.20	34.49	-50.8	-52.1	14.4	0.00e+00	0	29	0	205520896	66	4540
2026-01-04 07:32:45.07	27.03	34.41	-50.5	-51.8	14.7	0.00e+00	0	28	0	214958080	67	4125
2026-01-04 07:32:48.09	25.86	34.33	-50.6	-51.9	14.6	0.00e+00	0	28	0	224395264	67	4177
2026-01-04 07:32:51.11	24.70	34.23	-50.9	-52.3	14.5	0.00e+00	0	28	0	233832448	67	4380
2026-01-04 07:32:54.13	23.54	34.11	-50.5	-51.8	14.7	0.00e+00	0	29	0	243269632	67	4124
2026-01-04 07:32:57.16	22.39	33.99	-50.1	-51.4	14.8	0.00e+00	0	29	0	252706816	66	4163
2026-01-04 07:33:00.18	21.26	33.85	-50.1	-51.4	14.7	0.00e+00	0	29	0	262144000	66	4165
2026-01-04 07:33:03.20	20.13	33.70	-50.3	-51.6	14.6	0.00e+00	0	29	0	271581184	66	4273
2026-01-04 07:33:06.22	19.02	33.54	-50.2	-51.5	14.7	0.00e+00	0	28	0	281018368	66	4215
2026-01-04 07:33:09.25	17.91	33.36	-50.5	-51.8	14.6	0.00e+00	0	29	0	290455552	66	4360
2026-01-04 07:33:12.27	16.82	33.18	-50.2	-51.4	14.7	0.00e+00	0	29	0	299892736	66	4182
2026-01-04 07:33:15.30	15.74	32.98	-50.2	-51.4	14.7	0.00e+00	0	29	0	309329920	66	4178
2026-01-04 07:33:18.32	14.67	32.78	-50.1	-51.3	14.8	0.00e+00	0	29	0	319815680	66	4138
2026-01-04 07:33:21.35	13.62	32.56	-49.8	-51.0	14.9	0.00e+00	0	29	0	328204288	66	4000
2026-01-04 07:33:24.38	12.58	32.34	-49.9	-51.2	14.8	0.00e+00	0	29	0	338690048	66	4060
2026-01-04 07:33:27.40	11.56	32.10	-49.9	-51.1	14.8	0.00e+00	0	28	0	347078656	66	4029
2026-01-04 07:33:30.43	10.54	31.86	-49.7	-50.9	14.8	0.00e+00	0	29	0	357564416	65	4158
2026-01-04 07:33:33.45	9.55	31.61	-50.1	-51.3	14.6	0.00e+00	0	28	0	367001600	65	4378
2026-01-04 07:33:36.47	8.58	31.36	-49.6	-50.8	14.8	0.00e+00	0	29	0	376438784	65	4128
2026-01-04 07:33:39.51	7.61	31.09	-49.7	-51.0	14.8	0.00e+00	0	29	0	385875968	65	4199
2026-01-04 07:33:42.54	6.66	30.82	-49.9	-51.2	14.7	0.00e+00	0	29	0	395313152	65	4319
2026-01-04 07:33:45.56	5.73	30.55	-49.3	-50.5	14.9	0.00e+00	0	29	0	404750336	65	3978
2026-01-04 07:33:48.59	4.82	30.26	-49.7	-50.9	14.8	0.00e+00	0	29	0	414187520	65	4180
2026-01-04 07:33:51.61	3.92	29.98	-50.1	-51.4	14.6	0.00e+00	0	28	0	423624704	65	4416
2026-01-04 07:33:54.64	3.04	29.68	-49.5	-50.7	14.9	0.00e+00	0	29	0	433061888	65	4058
2026-01-04 07:33:57.67	2.17	29.39	-49.5	-50.7	14.9	0.00e+00	0	29	0	442499072	65	4093
2026-01-04 07:34:00.69	1.32	29.09	-49.7	-51.0	14.8	0.00e+00	0	29	0	451936256	65	4201
2026-01-04 07:34:03.72	0.49	28.78	-49.7	-51.0	14.8	0.00e+00	0	29	0	461373440	65	4207
2026-01-04 07:34:06.74	359.67	28.48	-49.7	-50.9	14.8	0.00e+00	0	28	0	470810624	65	4156
2026-01-04 07:34:09.77	358.87	28.16	-49.4	-50.7	14.9	0.00e+00	0	29	0	480247808	65	4053
2026-01-04 07:34:12.80	358.08	27.85	-49.0	-50.1	15.0	0.00e+00	0	29	0	489684992	64	4025
2026-01-04 07:34:15.82	357.31	27.54	-49.2	-50.4	14.9	0.00e+00	0	28	0	499122176	64	4162
2026-01-04 07:34:18.85	356.55	27.22	-49.3	-50.5	14.8	0.00e+00	0	29	0	508559360	64	4237
2026-01-04 07:34:21.88	355.81	26.90	-49.0	-50.2	14.9	0.00e+00	0	28	0	517996544	64	4067
2026-01-04 07:34:24.90	355.09	26.58	-49.0	-50.1	14.9	0.00e+00	0	28	0	527433728	64	4032
2026-01-04 07:34:27.93	354.37	26.25	-49.2	-50.4	14.9	0.00e+00	0	29	0	536870912	64	4178
2026-01-04 07:34:30.95	353.68	25.93	-49.2	-50.4	14.9	0.00e+00	0	29	0	546308096	64	4163
2026-01-04 07:34:33.97	353.00	25.61	-49.1	-50.3	14.9	0.00e+00	0	29	0	555745280	64	4107
2026-01-04 07:34:37.00	352.33	25.28	-48.9	-50.0	15.0	0.00e+00	0	28	0	565182464	64	4004
2026-01-04 07:34:40.02	351.67	24.96	-48.9	-50.1	15.0	0.00e+00	0	29	0	574619648	64	4007
2026-01-04 07:34:43.05	351.03	24.64	-48.9	-50.1	14.9	0.00e+00	0	28	0	584056832	64	4014
2026-01-04 07:34:46.08	350.40	24.31	-48.7	-49.8	14.9	0.00e+00	0	29	0	593494016	63	4123
2026-01-04 07:34:49.10	349.79	23.99	-48.5	-49.6	15.0	0.00e+00	0	29	0	602931200	63	4017
2026-01-04 07:34:52.13	349.19	23.66	-48.3	-49.4	14.9	0.00e+00	0	28	0	612368384	62	4176
2026-01-04 07:34:55.15	348.60	23.34	-48.7	-49.9	14.8	0.00e+00	0	29	0	621805568	62	4398
2026-01-04 07:34:58.17	348.02	23.02	-49.1	-50.3	14.8	0.00e+00	0	29	0	631242752	63	4351
2026-01-04 07:35:01.20	347.46	22.70	-49.1	-50.3	14.8	0.00e+00	0	28	0	640679936	63	4345
2026-01-04 07:35:04.21	346.91	22.38	-49.0	-50.2	14.8	0.00e+00	0	28	0	650117120	63	4333
2026-01-04 07:35:07.24	346.36	22.06	-49.1	-50.3	14.8	0.00e+00	0	28	0	659554304	63	4389
2026-01-04 07:35:10.27	345.83	21.74	-49.0	-50.2	14.8	0.00e+00	0	28	0	668991488	63	4330
2026-01-04 07:35:13.29	345.31	21.43	-48.9	-50.1	14.9	0.00e+00	0	29	0	678428672	63	4255
2026-01-04 07:35:16.31	344.80	21.11	-49.0	-50.2	14.8	0.00e+00	0	28	0	687865856	63	4321
2026-01-04 07:35:19.33	344.31	20.80	-49.3	-50.5	14.7	0.00e+00	0	29	0	697303040	63	4482
2026-01-04 07:35:22.36	343.82	20.49	-49.3	-50.6	14.8	0.00e+00	0	29	0	706740224	64	4246
2026-01-04 07:35:25.39	343.34	20.18	-49.3	-50.6	14.7	0.00e+00	0	29	0	716177408	64	4253
2026-01-04 07:35:28.41	342.87	19.87	-49.2	-50.4	14.8	0.00e+00	0	28	0	725614592	64	4192
2026-01-04 07:35:31.43	342.41	19.56	-49.0	-50.2	14.9	0.00e+00	0	29	0	735051776	64	4052
2026-01-04 07:35:34.46	341.96	19.26	-48.9	-50.1	14.9	0.00e+00	0	29	0	744488960	64	4036
2026-01-04 07:35:37.48	341.52	18.95	-49.2	-50.4	14.8	0.00e+00	0	29	0	753926144	64	4166
2026-01-04 07:35:40.51	341.09	18.65	-49.3	-50.5	14.7	0.00e+00	0	29	0	763363328	64	4225
2026-01-04 07:35:43.53	340.66	18.35	-49.2	-50.4	14.8	0.00e+00	0	28	0	772800512	64	4180
2026-01-04 07:35:46.56	340.25	18.06	-49.2	-50.4	14.8	0.00e+00	0	29	0	782237696	64	4158
2026-01-04 07:35:49.59	339.84	17.76	-49.2	-50.4	14.8	0.00e+00	0	29	0	791674880	64	4185
2026-01-04 07:35:52.61	339.44	17.47	-49.4	-50.7	14.7	0.00e+00	0	29	0	801112064	64	4300
2026-01-04 07:35:55.63	339.05	17.18	-49.8	-51.1	14.6	0.00e+00	0	29	0	810549248	64	4507
2026-01-04 07:35:58.65	338.67	16.89	-49.9	-51.2	14.6	0.00e+00	0	29	0	819986432	65	4302
2026-01-04 07:36:01.68	338.29	16.60	-49.7	-51.0	14.7	0.00e+00	0	29	0	829423616	65	4200
2026-01-04 07:36:04.70	337.92	16.32	-49.7	-50.9	14.7	0.00e+00	0	28	0	838860800	65	4193
2026-01-04 07:36:07.73	337.56	16.03	-49.7	-51.0	14.7	0.00e+00	0	29	0	848297984	65	4210
2026-01-04 07:36:10.75	337.21	15.75	-49.9	-51.2	14.6	0.00e+00	0	29	0	857735168	65	4297
2026-01-04 07:36:13.77	336.86	15.48	-50.0	-51.4	14.6	7.60e-06	0	29	0	867172352	65	4401
2026-01-04 07:36:16.80	336.52	15.20	-50.1	-51.4	14.5	0.00e+00	0	29	0	876609536	65	4429
2026-01-04 07:36:19.83	336.18	14.92	-50.0	-51.3	14.5	0.00e+00	0	29	0	886046720	65	4385
2026-01-04 07:36:22.85	335.86	14.65	-49.9	-51.2	14.6	0.00e+00	0	29	0	895483904	65	4340
2026-01-04 07:36:25.88	335.53	14.38	-49.9	-51.2	14.6	0.00e+00	0	28	0	904921088	65	4327
2026-01-04 07:36:28.90	335.22	14.11	-49.8	-51.1	14.6	0.00e+00	0	29	0	914358272	65	4243
2026-01-04 07:36:31.92	334.91	13.85	-49.8	-51.1	14.6	0.00e+00	0	29	0	923795456	65	4263
2026-01-04 07:36:34.94	334.60	13.58	-49.9	-51.2	14.6	0.00e+00	0	29	0	933232640	65	4302
2026-01-04 07:36:37.97	334.30	13.32	-50.1	-51.5	14.5	0.00e+00	0	29	0	942669824	65	4445
2026-01-04 07:36:40.99	334.01	13.06	-50.1	-51.5	14.4	0.00e+00	0	29	0	952107008	65	4468
2026-01-04 07:36:44.02	333.72	12.80	-50.1	-51.5	14.4	0.00e+00	0	29	0	962592768	65	4457
2026-01-04 07:36:47.04	333.44	12.55	-49.9	-51.3	14.5	0.00e+00	0	29	0	970981376	65	4352
2026-01-04 07:36:50.06	333.16	12.29	-49.9	-51.2	14.5	0.00e+00	0	29	0	981467136	65	4326
2026-01-04 07:36:53.08	332.88	12.04	-49.8	-51.2	14.6	0.00e+00	0	29	0	989855744	65	4293
2026-01-04 07:36:56.11	332.62	11.79	-49.9	-51.2	14.5	0.00e+00	0	29	0	1000341504	65	4320
2026-01-04 07:36:59.13	332.35	11.54	-50.1	-51.4	14.5	8.30e-06	0	29	0	1009778688	65	4427
2026-01-04 07:37:02.16	332.09	11.30	-50.2	-51.5	14.4	0.00e+00	0	29	0	1019215872	65	4492
2026-01-04 07:37:05.19	331.84	11.05	-50.2	-51.6	14.4	0.00e+00	0	29	0	1028653056	65	4529
2026-01-04 07:37:08.22	331.59	10.81	-50.5	-51.9	14.4	0.00e+00	0	29	0	1038090240	66	4414
2026-01-04 07:37:11.25	331.34	10.57	-50.5	-52.0	14.3	0.00e+00	0	29	0	1047527424	66	4442
2026-01-04 07:37:14.27	331.10	10.33	-50.5	-51.9	14.3	0.00e+00	0	29	0	1056964608	66	4433
2026-01-04 07:37:17.30	330.86	10.09	-50.6	-52.0	14.3	0.00e+00	0	29	0	1066401792	66	4485
2026-01-04 07:37:20.32	330.62	9.86	-50.6	-52.1	14.3	0.00e+00	0	29	0	1075838976	66	4510
2026-01-04 07:37:23.34	330.39	9.62	-50.6	-52.0	14.3	0.00e+00	0	29	0	1085276160	66	4459
2026-01-04 07:37:26.36	330.17	9.39	-50.5	-52.0	14.3	0.00e+00	0	29	0	1094713344	66	4450
2026-01-04 07:37:29.37	329.95	9.16	-50.6	-52.1	14.3	0.00e+00	0	29	0	1104150528	66	4498
2026-01-04 07:37:32.40	329.73	8.93	-50.8	-52.3	14.2	0.00e+00	0	29	0	1113587712	66	4619
2026-01-04 07:37:35.42	329.51	8.71	-50.8	-52.3	14.1	0.00e+00	0	29	0	1123024896	66	4628
2026-01-04 07:37:38.44	329.30	8.48	-50.9	-52.4	14.2	0.00e+00	0	29	0	1132462080	67	4411
2026-01-04 07:37:41.46	329.09	8.26	-50.9	-52.4	14.2	0.00e+00	0	29	0	1141899264	67	4427
2026-01-04 07:37:44.49	328.89	8.03	-51.0	-52.5	14.1	0.00e+00	0	29	0	1151336448	67	4487
2026-01-04 07:37:47.52	328.69	7.81	-51.2	-52.7	14.0	0.00e+00	0	29	0	1160773632	67	4579
2026-01-04 07:37:50.55	328.49	7.59	-51.0	-52.6	14.1	0.00e+00	0	29	0	1170210816	67	4513
2026-01-04 07:37:53.56	328.29	7.38	-51.2	-52.7	14.0	0.00e+00	0	29	0	1179648000	67	4595
2026-01-04 07:37:56.59	328.10	7.16	-51.1	-52.7	14.0	0.00e+00	0	29	0	1189085184	67	4576
2026-01-04 07:37:59.61	327.91	6.95	-51.3	-52.9	13.9	0.00e+00	0	29	0	1198522368	67	4669
2026-01-04 07:38:02.64	327.72	6.73	-51.6	-53.3	13.9	0.00e+00	0	29	0	1207959552	68	4614
2026-01-04 07:38:05.65	327.54	6.52	-51.8	-53.5	13.7	0.00e+00	0	29	0	1217396736	68	4741
2026-01-04 07:38:08.68	327.36	6.31	-51.9	-53.7	13.7	0.00e+00	0	29	0	1226833920	69	4568
2026-01-04 07:38:11.70	327.18	6.10	-52.1	-54.0	13.6	0.00e+00	0	29	0	1236271104	69	4710
2026-01-04 07:38:14.72	327.01	5.90	-52.0	-53.8	13.6	0.00e+00	0	29	0	1245708288	69	4637
2026-01-04 07:38:17.75	326.83	5.69	-52.1	-53.9	13.6	0.00e+00	0	29	0	1255145472	69	4667
2026-01-04 07:38:20.78	326.66	5.49	-52.2	-54.1	13.5	0.00e+00	0	29	0	1264582656	69	4770
2026-01-04 07:38:23.80	326.50	5.28	-52.4	-54.4	13.3	0.00e+00	0	29	0	1274019840	69	4940
2026-01-04 07:38:26.83	326.33	5.08	-52.3	-54.2	13.5	0.00e+00	0	29	0	1283457024	70	4549
2026-01-04 07:38:29.85	326.17	4.88	-59.3	-73.0	3.8	1.49e+00	0	29	104	1289748480	83	18864
2026-01-04 07:38:32.88	326.01	4.68	-60.4	-74.2	3.8	1.49e+00	0	29	104	1289748480	85	19308
2026-01-04 07:38:35.91	325.85	4.48	-60.9	-74.8	3.8	1.49e+00	0	29	104	1289748480	86	19406
2026-01-04 07:38:38.93	325.69	4.28	-61.1	-74.9	3.8	1.49e+00	0	29	104	1289748480	87	18714
2026-01-04 07:38:41.96	325.54	4.09	-61.3	-75.1	3.8	1.49e+00	0	29	104	1289748480	87	19096
2026-01-04 07:38:44.97	325.39	3.89	-61.4	-75.2	3.8	1.49e+00	0	29	104	1289748480	87	19330
2026-01-04 07:38:48.00	325.24	3.70	-61.4	-75.3	3.8	1.49e+00	0	29	104	1289748480	87	19490
2026-01-04 07:38:51.02	325.09	3.51	-61.3	-75.2	3.8	1.49e+00	0	29	104	1289748480	87	19246
2026-01-04 07:38:54.05	324.95	3.32	-61.3	-75.1	3.8	1.49e+00	0	29	104	1289748480	87	19142
2026-01-04 07:38:57.08	324.80	3.13	-61.2	-75.1	3.8	1.49e+00	0	29	104	1289748480	87	19089
2026-01-04 07:39:00.11	324.66	2.94	-61.2	-75.1	3.8	1.49e+00	0	29	104	1289748480	87	18969
2026-01-04 07:39:03.14	324.52	2.75	-61.2	-75.0	3.8	1.49e+00	0	29	104	1289748480	87	18948
2026-01-04 07:39:06.16	324.38	2.56	-61.1	-75.0	3.8	1.49e+00	0	29	104	1289748480	87	18857
2026-01-04 07:39:09.19	324.25	2.38	-61.1	-75.0	3.8	1.49e+00	0	29	104	1289748480	87	18759
2026-01-04 07:39:12.22	324.12	2.19	-61.1	-75.0	3.8	1.49e+00	0	29	104	1289748480	87	18775
2026-01-04 07:39:15.24	323.98	2.01	-61.1	-75.0	3.8	1.49e+00	0	29	104	1289748480	87	18754

#Closed at: 2026-01-04 07:39:16
#Recorded file [1289 MB]: D:/lorett/data/31004_260104_103043.dat