passes_logs/2026/01/04/R3.2S_Murmansk/R3.2S_Murmansk__20260104_210805_NOAA_21_JPSS-2_rec.log

#Pass ID: 20260104_210805_NOAA 21 (JPSS-2)
#Satellite: NOAA 21 (JPSS-2)
#Configuration: NOAA-21
#almurnet v.1.7.20251203
#Start time: 2026-01-04 21:08:07

#Version: 2.2.20231116
#Station: R3.2S_Murmansk
#Location: 33.079688 lon 68.888172 lat
#TLE: 1 54234U 22150A   26004.43991293  .00000169  00000+0  10108-3 0  9998
#TLE: 2 54234  98.7489 305.4680 0001107 344.3033  15.8108 14.19531967163313

#Time	Az	El	Level	Level2	SNR	BER	BlckErr	Temp	State	Recorded	gain1	gain2
2026-01-04 21:08:07.29	18.61	2.06	-58.3	-72.1	3.8	1.49e+00	0	26	0	0	83	16911
2026-01-04 21:08:10.28	18.91	2.19	-58.3	-72.0	3.8	1.49e+00	0	26	104	0	81	18776
2026-01-04 21:08:13.29	19.22	2.32	-58.3	-71.9	3.8	1.49e+00	0	26	104	0	81	18567
2026-01-04 21:08:16.29	19.53	2.44	-58.3	-71.9	3.8	1.49e+00	0	26	104	0	81	18596
2026-01-04 21:08:19.29	19.85	2.57	-58.3	-72.0	3.8	1.49e+00	0	27	104	0	81	18835
2026-01-04 21:08:22.29	20.17	2.70	-58.3	-72.0	3.8	1.49e+00	0	27	104	0	81	18759
2026-01-04 21:08:25.29	20.48	2.83	-58.3	-72.0	3.8	1.49e+00	0	27	104	0	81	18739
2026-01-04 21:08:28.28	20.80	2.95	-58.3	-72.0	3.8	1.49e+00	0	27	104	0	81	18829
2026-01-04 21:08:31.27	21.13	3.08	-58.3	-72.1	3.8	1.49e+00	0	27	104	0	81	18986
2026-01-04 21:08:34.26	21.45	3.21	-58.3	-72.1	3.8	1.49e+00	0	27	104	0	81	18990
2026-01-04 21:08:37.24	21.78	3.33	-58.3	-72.0	3.8	1.49e+00	0	27	104	0	81	18799
2026-01-04 21:08:40.23	22.11	3.46	-58.3	-72.0	3.8	1.49e+00	0	27	104	0	81	18771
2026-01-04 21:08:43.21	22.45	3.58	-58.3	-72.0	3.8	1.49e+00	0	27	104	0	81	18904
2026-01-04 21:08:46.20	22.78	3.71	-58.3	-72.0	3.8	1.49e+00	0	27	104	0	81	18743
2026-01-04 21:08:49.20	23.12	3.83	-58.3	-72.1	3.8	1.49e+00	0	27	104	0	81	18954
2026-01-04 21:08:52.19	23.47	3.96	-58.2	-71.5	3.8	1.49e+00	0	27	104	0	81	17774
2026-01-04 21:08:55.20	23.81	4.09	-58.3	-71.7	3.8	1.49e+00	0	27	104	0	81	18249
2026-01-04 21:08:58.21	24.16	4.21	-58.2	-70.7	3.8	1.49e+00	0	27	104	0	81	16284
2026-01-04 21:09:01.20	24.51	4.34	-58.0	-68.7	3.9	1.45e+00	0	27	104	0	81	12883
2026-01-04 21:09:04.20	24.87	4.46	-57.4	-64.3	6.3	3.53e-01	0	27	0	2097152	81	7723
2026-01-04 21:09:07.20	25.23	4.58	-54.4	-57.3	11.7	3.35e-05	0	27	0	11534336	75	4893
2026-01-04 21:09:10.20	25.59	4.71	-52.5	-54.5	13.2	0.00e+00	0	27	0	20971520	71	4474
2026-01-04 21:09:13.19	25.95	4.83	-53.8	-56.4	12.1	7.00e-07	0	28	0	30408704	72	5246
2026-01-04 21:09:16.19	26.32	4.95	-56.4	-61.2	8.7	9.18e-03	0	28	0	38797312	77	6872
2026-01-04 21:09:19.20	26.69	5.08	-57.4	-64.5	6.1	2.55e-01	0	28	0	49283072	80	8432
2026-01-04 21:09:22.19	27.06	5.20	-55.9	-59.8	10.0	1.70e-04	0	28	0	53477376	77	5838
2026-01-04 21:09:25.19	27.43	5.32	-54.4	-57.1	11.9	6.10e-06	0	27	0	60817408	75	4795
2026-01-04 21:09:28.19	27.81	5.44	-52.5	-54.4	13.4	0.00e+00	0	28	0	70254592	71	4424
2026-01-04 21:09:31.19	28.19	5.56	-52.3	-54.1	13.6	0.00e+00	0	28	0	79691776	71	4283
2026-01-04 21:09:34.17	28.57	5.68	-52.1	-53.9	13.6	0.00e+00	0	28	0	89128960	70	4398
2026-01-04 21:09:37.16	28.96	5.80	-52.0	-53.8	13.7	0.00e+00	0	28	0	97517568	70	4354
2026-01-04 21:09:40.15	29.35	5.92	-51.9	-53.6	13.8	0.00e+00	0	28	0	106954752	70	4256
2026-01-04 21:09:43.15	29.74	6.04	-52.0	-53.7	13.7	0.00e+00	0	28	0	116391936	70	4337
2026-01-04 21:09:46.13	30.14	6.16	-51.9	-53.6	13.8	0.00e+00	0	28	0	125829120	70	4284
2026-01-04 21:09:49.13	30.54	6.28	-52.0	-53.8	13.7	0.00e+00	0	28	0	135266304	70	4361
2026-01-04 21:09:52.12	30.94	6.39	-52.0	-53.7	13.7	0.00e+00	0	28	0	144703488	70	4332
2026-01-04 21:09:55.14	31.35	6.51	-51.8	-53.5	13.9	0.00e+00	0	28	0	154140672	70	4194
2026-01-04 21:09:58.15	31.76	6.63	-51.7	-53.4	14.0	0.00e+00	0	28	0	163577856	70	4161
2026-01-04 21:10:01.15	32.17	6.74	-51.7	-53.4	13.8	0.00e+00	0	28	0	173015040	69	4430
2026-01-04 21:10:04.15	32.58	6.86	-51.9	-53.6	13.8	0.00e+00	0	28	0	182452224	69	4514
2026-01-04 21:10:07.14	33.00	6.97	-51.8	-53.5	13.8	0.00e+00	0	28	0	191889408	69	4489
2026-01-04 21:10:10.13	33.42	7.08	-51.6	-53.3	13.9	0.00e+00	0	28	0	201326592	69	4341
2026-01-04 21:10:13.14	33.85	7.19	-51.5	-53.1	14.0	0.00e+00	0	28	0	210763776	69	4287
2026-01-04 21:10:16.13	34.27	7.30	-51.5	-53.2	14.0	0.00e+00	0	28	0	220200960	69	4295
2026-01-04 21:10:19.13	34.71	7.42	-51.6	-53.2	14.0	0.00e+00	0	28	0	228589568	69	4321
2026-01-04 21:10:22.13	35.14	7.52	-51.3	-52.9	14.1	0.00e+00	0	28	0	238026752	69	4185
2026-01-04 21:10:25.12	35.58	7.63	-51.3	-52.8	14.1	0.00e+00	0	28	0	247463936	69	4134
2026-01-04 21:10:28.11	36.02	7.74	-51.3	-52.9	14.1	0.00e+00	0	28	0	256901120	69	4167
2026-01-04 21:10:31.11	36.46	7.85	-51.3	-52.9	14.1	0.00e+00	0	28	0	266338304	69	4155
2026-01-04 21:10:34.10	36.90	7.95	-51.3	-52.9	14.0	0.00e+00	0	28	0	275775488	68	4413
2026-01-04 21:10:37.09	37.35	8.06	-51.3	-52.8	14.1	0.00e+00	0	28	0	285212672	68	4380
2026-01-04 21:10:40.08	37.80	8.16	-51.2	-52.8	14.1	0.00e+00	0	28	0	294649856	68	4348
2026-01-04 21:10:43.07	38.26	8.26	-51.2	-52.8	14.1	0.00e+00	0	28	0	304087040	68	4352
2026-01-04 21:10:46.05	38.71	8.36	-51.3	-52.8	14.1	0.00e+00	0	28	0	313524224	68	4377
2026-01-04 21:10:49.06	39.18	8.46	-51.2	-52.8	14.1	0.00e+00	0	28	0	322961408	68	4341
2026-01-04 21:10:52.05	39.64	8.56	-51.2	-52.8	14.1	0.00e+00	0	28	0	332398592	68	4345
2026-01-04 21:10:55.06	40.11	8.66	-51.3	-52.8	14.1	0.00e+00	0	28	0	341835776	68	4374
2026-01-04 21:10:58.06	40.58	8.75	-51.1	-52.7	14.2	0.00e+00	0	28	0	351272960	68	4298
2026-01-04 21:11:01.06	41.06	8.85	-51.1	-52.6	14.2	0.00e+00	0	28	0	359661568	68	4289
2026-01-04 21:11:04.05	41.53	8.94	-51.1	-52.6	14.2	0.00e+00	0	28	0	369098752	68	4270
2026-01-04 21:11:07.05	42.01	9.04	-51.2	-52.7	14.1	0.00e+00	0	28	0	378535936	68	4330
2026-01-04 21:11:10.05	42.50	9.13	-51.4	-53.0	14.0	0.00e+00	0	28	0	387973120	68	4481
2026-01-04 21:11:13.06	42.98	9.22	-51.4	-52.9	14.1	0.00e+00	0	28	0	397410304	68	4438
2026-01-04 21:11:16.06	43.47	9.30	-51.0	-52.6	14.2	0.00e+00	0	28	0	406847488	68	4243
2026-01-04 21:11:19.06	43.97	9.39	-51.0	-52.5	14.2	0.00e+00	0	28	0	416284672	68	4227
2026-01-04 21:11:22.06	44.46	9.48	-51.0	-52.5	14.3	0.00e+00	0	28	0	425721856	68	4214
2026-01-04 21:11:25.03	44.95	9.56	-51.1	-52.6	14.2	0.00e+00	0	28	0	435159040	68	4258
2026-01-04 21:11:28.04	45.45	9.64	-51.1	-52.6	14.2	0.00e+00	0	28	0	444596224	68	4281
2026-01-04 21:11:31.04	45.96	9.72	-51.2	-52.7	14.2	0.00e+00	0	28	0	454033408	68	4308
2026-01-04 21:11:34.03	46.46	9.80	-51.1	-52.6	14.3	0.00e+00	0	28	0	463470592	68	4273
2026-01-04 21:11:37.02	46.97	9.88	-51.0	-52.5	14.3	0.00e+00	0	28	0	472907776	68	4200
2026-01-04 21:11:40.02	47.48	9.95	-51.0	-52.5	14.3	0.00e+00	0	28	0	482344960	68	4200
2026-01-04 21:11:43.02	47.99	10.02	-50.9	-52.4	14.3	0.00e+00	0	28	0	491782144	68	4180
2026-01-04 21:11:46.04	48.51	10.10	-51.0	-52.6	14.3	0.00e+00	0	28	0	501219328	68	4246
2026-01-04 21:11:49.04	49.03	10.17	-51.2	-52.7	14.2	0.00e+00	0	28	0	509607936	68	4310
2026-01-04 21:11:52.03	49.55	10.23	-51.1	-52.6	14.2	0.00e+00	0	28	0	519045120	68	4290
2026-01-04 21:11:55.04	50.07	10.30	-51.0	-52.5	14.3	0.00e+00	0	28	0	528482304	68	4203
2026-01-04 21:11:58.05	50.60	10.36	-51.0	-52.5	14.3	0.00e+00	0	28	0	537919488	68	4221
2026-01-04 21:12:01.05	51.13	10.43	-51.1	-52.6	14.2	0.00e+00	0	28	0	547356672	68	4267
2026-01-04 21:12:04.04	51.65	10.49	-51.2	-52.7	14.2	0.00e+00	0	28	0	556793856	68	4334
2026-01-04 21:12:07.05	52.19	10.54	-51.1	-52.6	14.3	0.00e+00	0	28	0	566231040	68	4266
2026-01-04 21:12:10.05	52.72	10.60	-51.1	-52.6	14.3	0.00e+00	0	28	0	575668224	68	4249
2026-01-04 21:12:13.05	53.26	10.66	-51.2	-52.7	14.2	0.00e+00	0	28	0	585105408	68	4316
2026-01-04 21:12:16.06	53.80	10.71	-51.1	-52.6	14.2	0.00e+00	0	28	0	594542592	68	4280
2026-01-04 21:12:19.05	54.33	10.76	-50.8	-52.3	14.4	0.00e+00	0	28	0	603979776	68	4099
2026-01-04 21:12:22.06	54.88	10.80	-50.5	-51.9	14.4	0.00e+00	0	28	0	613416960	67	4187
2026-01-04 21:12:25.05	55.42	10.85	-50.6	-52.1	14.3	0.00e+00	0	28	0	622854144	67	4243
2026-01-04 21:12:28.05	55.96	10.89	-50.8	-52.3	14.2	0.00e+00	0	28	0	632291328	67	4367
2026-01-04 21:12:31.05	56.51	10.93	-50.9	-52.4	14.2	0.00e+00	0	29	0	641728512	67	4411
2026-01-04 21:12:34.04	57.05	10.97	-50.8	-52.2	14.3	0.00e+00	0	28	0	651165696	67	4339
2026-01-04 21:12:37.03	57.60	11.01	-50.8	-52.3	14.3	0.00e+00	0	28	0	659554304	67	4370
2026-01-04 21:12:40.03	58.15	11.04	-50.8	-52.3	14.2	0.00e+00	0	28	0	668991488	67	4375
2026-01-04 21:12:43.02	58.70	11.08	-50.6	-52.1	14.4	0.00e+00	0	28	0	678428672	67	4269
2026-01-04 21:12:46.03	59.26	11.11	-50.5	-51.9	14.4	0.00e+00	0	28	0	687865856	67	4174
2026-01-04 21:12:49.03	59.81	11.13	-50.3	-51.7	14.5	0.00e+00	0	28	0	697303040	67	4067
2026-01-04 21:12:52.02	60.36	11.16	-50.4	-51.9	14.4	0.00e+00	0	28	0	706740224	67	4153
2026-01-04 21:12:55.02	60.92	11.18	-50.3	-51.7	14.5	0.00e+00	0	28	0	716177408	67	4087
2026-01-04 21:12:58.03	61.47	11.20	-50.3	-51.7	14.5	0.00e+00	0	28	0	725614592	67	4082
2026-01-04 21:13:01.03	62.03	11.22	-50.3	-51.7	14.5	0.00e+00	0	28	0	735051776	67	4080
2026-01-04 21:13:04.01	62.59	11.23	-50.4	-51.8	14.5	0.00e+00	0	29	0	744488960	67	4136
2026-01-04 21:13:07.02	63.15	11.25	-50.4	-51.8	14.5	0.00e+00	0	28	0	753926144	67	4128
2026-01-04 21:13:10.01	63.70	11.26	-50.5	-51.9	14.4	0.00e+00	0	29	0	763363328	67	4187
2026-01-04 21:13:13.01	64.26	11.27	-50.5	-51.9	14.4	0.00e+00	0	28	0	772800512	67	4175
2026-01-04 21:13:16.01	64.82	11.27	-50.4	-51.9	14.4	0.00e+00	0	28	0	782237696	67	4154
2026-01-04 21:13:19.00	65.38	11.28	-50.6	-52.0	14.4	0.00e+00	0	28	0	791674880	67	4240
2026-01-04 21:13:22.00	65.94	11.28	-50.4	-51.8	14.5	0.00e+00	0	28	0	801112064	67	4142
2026-01-04 21:13:24.99	66.50	11.28	-50.4	-51.8	14.4	0.00e+00	0	29	0	809500672	67	4132
2026-01-04 21:13:27.98	67.05	11.27	-50.4	-51.7	14.5	0.00e+00	0	28	0	818937856	67	4092
2026-01-04 21:13:30.97	67.61	11.27	-50.4	-51.7	14.5	0.00e+00	0	28	0	828375040	67	4098
2026-01-04 21:13:33.97	68.17	11.26	-50.4	-51.8	14.5	0.00e+00	0	28	0	837812224	67	4139
2026-01-04 21:13:36.96	68.73	11.25	-50.5	-52.0	14.4	0.00e+00	0	28	0	847249408	67	4199
2026-01-04 21:13:39.95	69.28	11.23	-50.6	-52.1	14.4	0.00e+00	0	28	0	856686592	67	4253
2026-01-04 21:13:42.94	69.84	11.22	-50.5	-52.0	14.4	0.00e+00	0	29	0	866123776	67	4210
2026-01-04 21:13:45.93	70.40	11.20	-50.5	-52.0	14.4	0.00e+00	0	28	0	875560960	67	4203
2026-01-04 21:13:48.93	70.95	11.18	-50.5	-51.9	14.4	0.00e+00	0	28	0	884998144	67	4149
2026-01-04 21:13:51.92	71.51	11.15	-50.6	-52.0	14.4	0.00e+00	0	28	0	894435328	67	4204
2026-01-04 21:13:54.92	72.06	11.13	-50.6	-52.0	14.4	0.00e+00	0	29	0	903872512	67	4235
2026-01-04 21:13:57.92	72.62	11.10	-50.3	-51.7	14.5	0.00e+00	0	29	0	913309696	67	4090
2026-01-04 21:14:00.92	73.17	11.07	-50.5	-51.9	14.4	0.00e+00	0	29	0	921698304	67	4188
2026-01-04 21:14:03.93	73.72	11.04	-50.4	-51.8	14.5	0.00e+00	0	28	0	931135488	67	4120
2026-01-04 21:14:06.93	74.27	11.00	-50.6	-52.1	14.4	0.00e+00	0	29	0	940572672	67	4261
2026-01-04 21:14:09.94	74.82	10.97	-50.6	-52.1	14.4	0.00e+00	0	29	0	950009856	67	4265
2026-01-04 21:14:12.94	75.37	10.93	-50.5	-51.9	14.4	0.00e+00	0	28	0	959447040	67	4178
2026-01-04 21:14:15.94	75.92	10.89	-50.6	-52.0	14.4	0.00e+00	0	28	0	968884224	67	4236
2026-01-04 21:14:18.93	76.46	10.84	-50.7	-52.2	14.3	0.00e+00	0	28	0	978321408	67	4306
2026-01-04 21:14:21.94	77.01	10.80	-50.5	-51.9	14.4	0.00e+00	0	28	0	987758592	67	4190
2026-01-04 21:14:24.94	77.55	10.75	-50.6	-52.0	14.4	0.00e+00	0	28	0	997195776	67	4232
2026-01-04 21:14:27.94	78.09	10.70	-50.5	-52.0	14.4	0.00e+00	0	29	0	1006632960	67	4206
2026-01-04 21:14:30.93	78.63	10.65	-50.6	-52.0	14.4	0.00e+00	0	29	0	1016070144	67	4222
2026-01-04 21:14:33.92	79.16	10.59	-50.6	-52.1	14.4	0.00e+00	0	29	0	1025507328	67	4246
2026-01-04 21:14:36.92	79.69	10.54	-50.6	-52.0	14.4	0.00e+00	0	28	0	1034944512	67	4238
2026-01-04 21:14:39.91	80.23	10.48	-50.6	-52.0	14.4	0.00e+00	0	29	0	1044381696	67	4223
2026-01-04 21:14:42.91	80.76	10.42	-50.5	-51.9	14.4	0.00e+00	0	29	0	1053818880	67	4186
2026-01-04 21:14:45.90	81.28	10.36	-50.5	-51.9	14.4	0.00e+00	0	29	0	1063256064	67	4179
2026-01-04 21:14:48.90	81.81	10.29	-50.6	-52.0	14.4	0.00e+00	0	29	0	1072693248	67	4232
2026-01-04 21:14:51.89	82.33	10.22	-50.7	-52.1	14.3	0.00e+00	0	28	0	1081081856	67	4276
2026-01-04 21:14:54.89	82.85	10.16	-50.5	-51.9	14.5	0.00e+00	0	29	0	1090519040	67	4159
2026-01-04 21:14:57.89	83.37	10.09	-50.6	-52.1	14.4	0.00e+00	0	29	0	1099956224	67	4250
2026-01-04 21:15:00.88	83.89	10.01	-50.6	-52.0	14.4	0.00e+00	0	29	0	1109393408	67	4239
2026-01-04 21:15:03.89	84.40	9.94	-50.5	-51.9	14.4	0.00e+00	0	29	0	1118830592	67	4184
2026-01-04 21:15:06.89	84.91	9.86	-50.6	-52.1	14.3	0.00e+00	0	29	0	1128267776	67	4254
2026-01-04 21:15:09.89	85.42	9.79	-50.6	-52.0	14.4	0.00e+00	0	29	0	1137704960	67	4235
2026-01-04 21:15:12.90	85.93	9.71	-50.7	-52.2	14.3	0.00e+00	0	29	0	1147142144	67	4294
2026-01-04 21:15:15.89	86.43	9.63	-50.8	-52.3	14.3	0.00e+00	0	29	0	1156579328	67	4342
2026-01-04 21:15:18.89	86.93	9.54	-50.7	-52.1	14.3	0.00e+00	0	29	0	1166016512	67	4275
2026-01-04 21:15:21.89	87.43	9.46	-50.8	-52.3	14.2	0.00e+00	0	28	0	1175453696	67	4360
2026-01-04 21:15:24.89	87.93	9.37	-50.7	-52.2	14.3	0.00e+00	0	29	0	1184890880	67	4295
2026-01-04 21:15:27.87	88.42	9.29	-50.7	-52.2	14.3	0.00e+00	0	29	0	1194328064	67	4327
2026-01-04 21:15:30.86	88.91	9.20	-50.7	-52.2	14.3	0.00e+00	0	28	0	1203765248	67	4333
2026-01-04 21:15:33.86	89.39	9.11	-50.5	-51.9	14.4	0.00e+00	0	29	0	1212153856	67	4180
2026-01-04 21:15:36.85	89.88	9.02	-50.7	-52.2	14.3	0.00e+00	0	29	0	1221591040	67	4323
2026-01-04 21:15:39.84	90.36	8.93	-50.9	-52.4	14.2	0.00e+00	0	29	0	1231028224	67	4441
2026-01-04 21:15:42.82	90.83	8.83	-51.0	-52.5	14.1	0.00e+00	0	29	0	1240465408	67	4483
2026-01-04 21:15:45.81	91.31	8.74	-50.8	-52.4	14.2	0.00e+00	0	29	0	1249902592	67	4392
2026-01-04 21:15:48.79	91.78	8.64	-50.9	-52.5	14.1	0.00e+00	0	29	0	1259339776	67	4456
2026-01-04 21:15:51.78	92.24	8.54	-50.9	-52.4	14.2	0.00e+00	0	29	0	1268776960	67	4427
2026-01-04 21:15:54.77	92.71	8.44	-51.0	-52.5	14.1	0.00e+00	0	29	0	1278214144	67	4490
2026-01-04 21:15:57.78	93.17	8.34	-51.1	-52.7	14.0	0.00e+00	0	29	0	1287651328	67	4548
2026-01-04 21:16:00.77	93.63	8.24	-51.3	-52.9	13.9	0.00e+00	0	29	0	1297088512	67	4682
2026-01-04 21:16:03.78	94.09	8.14	-51.2	-52.8	13.9	0.00e+00	0	29	0	1306525696	67	4634
2026-01-04 21:16:06.79	94.55	8.03	-51.1	-52.7	14.0	0.00e+00	0	29	0	1315962880	67	4590
2026-01-04 21:16:09.79	95.00	7.93	-51.1	-52.7	14.0	0.00e+00	0	29	0	1325400064	67	4583
2026-01-04 21:16:12.80	95.45	7.82	-51.2	-52.8	14.0	0.00e+00	0	29	0	1334837248	67	4627
2026-01-04 21:16:15.80	95.89	7.71	-51.3	-52.9	13.9	0.00e+00	0	29	0	1344274432	67	4671
2026-01-04 21:16:18.79	96.33	7.60	-51.4	-53.0	13.8	0.00e+00	0	29	0	1352663040	67	4749
2026-01-04 21:16:21.79	96.77	7.49	-51.7	-53.4	13.8	0.00e+00	0	29	0	1362100224	68	4662
2026-01-04 21:16:24.78	97.20	7.38	-51.5	-53.2	13.9	0.00e+00	0	29	0	1371537408	68	4563
2026-01-04 21:16:27.79	97.64	7.27	-51.6	-53.2	13.9	0.00e+00	0	29	0	1380974592	68	4596
2026-01-04 21:16:30.78	98.06	7.16	-51.6	-53.3	13.8	0.00e+00	0	29	0	1390411776	68	4648
2026-01-04 21:16:33.78	98.49	7.05	-51.5	-53.1	13.9	0.00e+00	0	29	0	1399848960	68	4533
2026-01-04 21:16:36.77	98.91	6.93	-51.5	-53.2	13.8	0.00e+00	0	29	0	1409286144	68	4576
2026-01-04 21:16:39.76	99.33	6.82	-51.5	-53.2	13.8	0.00e+00	0	29	0	1418723328	68	4582
2026-01-04 21:16:42.76	99.75	6.70	-51.6	-53.3	13.8	0.00e+00	0	29	0	1428160512	68	4640
2026-01-04 21:16:45.75	100.16	6.59	-51.6	-53.3	13.8	0.00e+00	0	29	0	1437597696	68	4639
2026-01-04 21:16:48.75	100.57	6.47	-51.7	-53.3	13.8	0.00e+00	0	29	0	1447034880	68	4651
2026-01-04 21:16:51.75	100.97	6.35	-51.8	-53.5	13.7	0.00e+00	0	29	0	1456472064	68	4749
2026-01-04 21:16:54.75	101.38	6.24	-51.8	-53.5	13.7	0.00e+00	0	29	0	1465909248	68	4723
2026-01-04 21:16:57.76	101.78	6.12	-51.7	-53.5	13.7	0.00e+00	0	29	0	1475346432	68	4727
2026-01-04 21:17:00.76	102.18	6.00	-51.8	-53.6	13.7	0.00e+00	0	29	0	1483735040	69	4519
2026-01-04 21:17:03.75	102.57	5.88	-52.0	-53.8	13.6	0.00e+00	0	29	0	1493172224	69	4626
2026-01-04 21:17:06.74	102.96	5.76	-52.0	-53.8	13.6	0.00e+00	0	29	0	1502609408	69	4645
2026-01-04 21:17:09.73	103.35	5.64	-52.1	-53.9	13.5	0.00e+00	0	29	0	1512046592	69	4692
2026-01-04 21:17:12.72	103.73	5.52	-52.2	-54.0	13.5	0.00e+00	0	29	0	1521483776	69	4740
2026-01-04 21:17:15.72	104.11	5.39	-52.1	-53.9	13.5	0.00e+00	0	29	0	1530920960	69	4694
2026-01-04 21:17:18.72	104.49	5.27	-52.2	-54.0	13.5	0.00e+00	0	29	0	1540358144	69	4752
2026-01-04 21:17:21.72	104.87	5.15	-52.3	-54.2	13.4	0.00e+00	0	29	0	1549795328	69	4830
2026-01-04 21:17:24.71	105.24	5.03	-52.1	-54.0	13.5	0.00e+00	0	29	0	1559232512	69	4717
2026-01-04 21:17:27.71	105.61	4.90	-59.3	-73.0	3.8	1.49e+00	0	29	104	1562378240	83	18939
2026-01-04 21:17:30.72	105.98	4.78	-60.0	-73.8	3.8	1.49e+00	0	29	104	1562378240	85	18366
2026-01-04 21:17:33.71	106.34	4.65	-60.3	-74.1	3.8	1.49e+00	0	29	104	1562378240	85	19074
2026-01-04 21:17:36.70	106.70	4.53	-60.6	-74.4	3.8	1.49e+00	0	29	104	1562378240	86	18543
2026-01-04 21:17:39.70	107.06	4.40	-60.7	-74.5	3.8	1.49e+00	0	29	104	1562378240	86	18895
2026-01-04 21:17:42.71	107.41	4.28	-60.8	-74.6	3.8	1.49e+00	0	29	104	1562378240	86	19166
2026-01-04 21:17:45.70	107.76	4.15	-60.9	-74.8	3.8	1.49e+00	0	29	104	1562378240	87	18331
2026-01-04 21:17:48.69	108.11	4.03	-61.0	-74.8	3.8	1.49e+00	0	29	104	1562378240	87	18494
2026-01-04 21:17:51.68	108.46	3.90	-61.1	-74.9	3.8	1.49e+00	0	29	104	1562378240	87	18667
2026-01-04 21:17:54.68	108.80	3.77	-61.1	-75.0	3.8	1.49e+00	0	29	104	1562378240	87	18825
2026-01-04 21:17:57.65	109.14	3.65	-61.1	-74.9	3.8	1.49e+00	0	29	104	1562378240	87	18656
2026-01-04 21:18:00.62	109.47	3.52	-61.1	-74.9	3.8	1.49e+00	0	29	104	1562378240	87	18656
2026-01-04 21:18:03.60	109.81	3.40	-61.0	-74.9	3.8	1.49e+00	0	29	104	1562378240	87	18565
2026-01-04 21:18:06.58	110.14	3.27	-61.0	-74.8	3.8	1.49e+00	0	29	104	1562378240	87	18511
2026-01-04 21:18:09.56	110.47	3.14	-61.0	-74.8	3.8	1.49e+00	0	29	104	1562378240	87	18495
2026-01-04 21:18:12.55	110.79	3.02	-61.0	-74.9	3.8	1.49e+00	0	29	104	1562378240	87	18522
2026-01-04 21:18:15.52	111.11	2.89	-61.0	-74.8	3.8	1.49e+00	0	29	104	1562378240	87	18445
2026-01-04 21:18:18.51	111.43	2.76	-60.9	-74.8	3.8	1.49e+00	0	29	104	1562378240	87	18405
2026-01-04 21:18:21.50	111.75	2.63	-60.9	-74.8	3.8	1.49e+00	0	29	104	1562378240	87	18362
2026-01-04 21:18:24.51	112.07	2.50	-60.9	-74.8	3.8	1.49e+00	0	29	104	1562378240	87	18353
2026-01-04 21:18:27.51	112.38	2.38	-60.9	-74.8	3.8	1.49e+00	0	29	104	1562378240	87	18383
2026-01-04 21:18:30.52	112.70	2.25	-60.9	-74.8	3.8	1.49e+00	0	29	104	1562378240	87	18386
2026-01-04 21:18:33.50	113.00	2.12	-60.9	-74.8	3.8	1.49e+00	0	29	104	1562378240	87	18306
2026-01-04 21:18:36.48	113.31	1.99	-60.9	-74.7	3.8	1.49e+00	0	29	104	1562378240	87	18295

#Closed at: 2026-01-04 21:18:39
#Recorded file [1562 MB]: D:/lorett/data/31004_260105_000807.dat