passes_logs/2026/01/04/R3.2S_Murmansk/R3.2S_Murmansk__20260104_075454_SUOMI_NPP_rec.log

#Pass ID: 20260104_075454_SUOMI NPP
#Satellite: SUOMI NPP
#Configuration: NPP
#almurnet v.1.7.20251203
#Start time: 2026-01-04 07:54:54

#Version: 2.2.20231116
#Station: R3.2S_Murmansk
#Location: 33.079688 lon 68.888172 lat
#TLE: 1 37849U 11061A   26001.07732418  .00000182  00000+0  10735-3 0  9990
#TLE: 2 37849  98.7795 303.2470 0002580  87.2016 272.9455 14.19520779734739

#Time	Az	El	Level	Level2	SNR	BER	BlckErr	Temp	State	Recorded	gain1	gain2
2026-01-04 07:54:54.86	112.92	2.03	-58.8	-74.8	3.8	1.49e+00	0	26	0	0	84	21954
2026-01-04 07:54:58.90	112.77	2.28	-58.6	-74.5	3.8	1.49e+00	0	27	104	0	82	23850
2026-01-04 07:55:02.92	112.62	2.53	-58.6	-74.6	3.8	1.49e+00	0	27	104	0	82	23897
2026-01-04 07:55:06.96	112.46	2.78	-58.6	-74.5	3.8	1.49e+00	0	27	104	0	82	23663
2026-01-04 07:55:11.00	112.31	3.04	-58.6	-74.5	3.8	1.49e+00	0	27	104	0	82	23696
2026-01-04 07:55:15.02	112.15	3.30	-58.6	-74.6	3.8	1.49e+00	0	27	104	0	82	24032
2026-01-04 07:55:19.06	111.98	3.56	-58.6	-74.5	3.8	1.49e+00	0	27	104	0	82	23642
2026-01-04 07:55:23.10	111.82	3.83	-58.6	-74.6	3.8	1.49e+00	0	27	104	0	82	24067
2026-01-04 07:55:27.14	111.65	4.09	-58.5	-72.7	3.8	1.49e+00	0	27	104	0	82	19304
2026-01-04 07:55:31.17	111.47	4.36	-58.2	-68.1	5.4	6.78e-01	0	28	0	3145728	82	11376
2026-01-04 07:55:35.21	111.30	4.63	-57.6	-64.6	8.0	6.12e-02	0	27	0	10485760	81	8052
2026-01-04 07:55:39.24	111.12	4.90	-56.4	-60.8	11.1	2.37e-04	0	27	0	18874368	79	5810
2026-01-04 07:55:43.28	110.93	5.18	-55.1	-58.3	12.7	0.00e+00	0	28	0	26214400	76	5179
2026-01-04 07:55:47.31	110.74	5.46	-55.0	-58.1	12.8	0.00e+00	0	28	0	33554432	76	5069
2026-01-04 07:55:51.34	110.55	5.74	-56.5	-61.0	10.8	2.28e-05	0	28	0	40894464	78	6340
2026-01-04 07:55:55.37	110.36	6.02	-57.9	-66.1	6.7	1.11e-01	0	28	0	49283072	80	10101
2026-01-04 07:55:59.40	110.16	6.31	-58.1	-67.1	6.0	2.79e-01	0	28	0	56623104	81	10769
2026-01-04 07:56:03.43	109.95	6.60	-58.2	-68.7	5.1	5.07e-01	0	28	0	63963136	81	12942
2026-01-04 07:56:07.47	109.75	6.89	-58.5	-72.0	3.9	1.44e+00	0	28	104	68157440	82	17871
2026-01-04 07:56:11.50	109.53	7.19	-58.6	-73.1	3.8	1.49e+00	0	28	104	68157440	82	20219
2026-01-04 07:56:15.54	109.32	7.49	-58.6	-74.2	3.8	1.49e+00	0	28	104	68157440	82	22782
2026-01-04 07:56:19.56	109.09	7.79	-58.6	-74.5	3.8	1.49e+00	0	28	104	68157440	82	23616
2026-01-04 07:56:23.60	108.87	8.09	-58.6	-74.5	3.8	1.49e+00	0	28	104	68157440	82	23605
2026-01-04 07:56:27.63	108.63	8.40	-58.6	-74.2	3.8	1.49e+00	0	28	104	68157440	82	22976
2026-01-04 07:56:31.66	108.40	8.71	-58.6	-74.3	3.8	1.49e+00	0	28	104	68157440	82	23166
2026-01-04 07:56:35.69	108.15	9.02	-58.6	-74.6	3.8	1.49e+00	0	28	104	68157440	82	23870
2026-01-04 07:56:39.73	107.91	9.34	-58.6	-74.6	3.8	1.49e+00	0	28	104	68157440	82	24061
2026-01-04 07:56:43.76	107.65	9.66	-58.6	-74.6	3.8	1.49e+00	0	28	104	68157440	82	24072
2026-01-04 07:56:47.79	107.39	9.99	-58.6	-74.6	3.9	1.49e+00	0	28	104	68157440	82	24026
2026-01-04 07:56:51.83	107.13	10.32	-58.6	-74.6	3.8	1.49e+00	0	28	104	68157440	82	24127
2026-01-04 07:56:55.86	106.85	10.65	-58.6	-74.6	3.8	1.49e+00	0	28	104	68157440	82	24095
2026-01-04 07:56:59.90	106.57	10.99	-58.6	-74.7	3.8	1.49e+00	0	28	104	68157440	82	24159
2026-01-04 07:57:03.94	106.29	11.33	-58.6	-74.6	3.8	1.49e+00	0	28	104	68157440	82	24018
2026-01-04 07:57:07.97	105.99	11.67	-58.6	-74.7	3.8	1.49e+00	0	29	104	68157440	82	24137
2026-01-04 07:57:12.01	105.69	12.02	-58.6	-74.7	3.8	1.49e+00	0	28	104	68157440	82	24152
2026-01-04 07:57:16.04	105.38	12.37	-58.6	-74.6	3.8	1.49e+00	0	28	104	68157440	82	24053
2026-01-04 07:57:20.07	105.07	12.73	-58.6	-74.6	3.8	1.49e+00	0	28	104	68157440	82	24115
2026-01-04 07:57:24.10	104.75	13.09	-58.6	-74.7	3.8	1.49e+00	0	28	104	68157440	82	24161
2026-01-04 07:57:28.14	104.41	13.46	-58.6	-74.7	3.8	1.49e+00	0	29	104	68157440	82	24150
2026-01-04 07:57:32.17	104.07	13.83	-58.6	-74.7	3.8	1.49e+00	0	29	104	68157440	82	24188
2026-01-04 07:57:36.22	103.72	14.21	-58.6	-74.6	3.8	1.49e+00	0	29	104	68157440	82	24124
2026-01-04 07:57:40.25	103.36	14.59	-58.6	-74.7	3.8	1.49e+00	0	29	104	68157440	82	24155
2026-01-04 07:57:44.29	102.99	14.97	-58.6	-74.7	3.8	1.49e+00	0	28	104	68157440	82	24168
2026-01-04 07:57:48.32	102.61	15.36	-58.6	-74.7	3.8	1.49e+00	0	28	104	68157440	82	24193
2026-01-04 07:57:52.36	102.22	15.76	-58.6	-74.7	3.8	1.49e+00	0	29	104	68157440	82	24187
2026-01-04 07:57:56.39	101.82	16.16	-58.6	-74.7	3.8	1.49e+00	0	28	104	68157440	82	24188
2026-01-04 07:58:00.43	101.41	16.56	-58.6	-74.7	3.8	1.49e+00	0	29	104	68157440	82	24226
2026-01-04 07:58:04.46	100.99	16.97	-58.6	-74.7	3.8	1.49e+00	0	29	104	68157440	82	24176
2026-01-04 07:58:08.49	100.55	17.39	-58.6	-74.7	3.8	1.49e+00	0	29	104	68157440	82	24155
2026-01-04 07:58:12.53	100.10	17.81	-58.6	-74.7	3.8	1.49e+00	0	29	104	68157440	82	24204
2026-01-04 07:58:16.56	99.64	18.23	-58.6	-74.7	3.8	1.49e+00	0	29	104	68157440	82	24156
2026-01-04 07:58:20.61	99.17	18.67	-58.6	-74.7	3.8	1.49e+00	0	29	104	68157440	82	24186
2026-01-04 07:58:24.64	98.68	19.10	-58.6	-74.7	3.8	1.49e+00	0	29	104	68157440	82	24177
2026-01-04 07:58:28.68	98.18	19.55	-58.6	-74.6	3.8	1.49e+00	0	29	104	68157440	82	24098
2026-01-04 07:58:32.71	97.66	19.99	-58.6	-74.6	3.8	1.49e+00	0	29	104	68157440	82	24128
2026-01-04 07:58:36.75	97.12	20.45	-58.6	-74.7	3.8	1.49e+00	0	29	104	68157440	82	24191
2026-01-04 07:58:40.79	96.57	20.91	-58.6	-74.7	3.8	1.49e+00	0	29	104	68157440	82	24158
2026-01-04 07:58:44.83	96.00	21.37	-58.6	-74.7	3.8	1.49e+00	0	29	104	68157440	82	24153
2026-01-04 07:58:48.86	95.42	21.84	-58.6	-74.7	3.8	1.49e+00	0	29	104	68157440	82	24169
2026-01-04 07:58:52.89	94.82	22.32	-58.6	-74.7	3.8	1.49e+00	0	29	104	68157440	82	24260
2026-01-04 07:58:56.93	94.19	22.80	-58.6	-74.7	3.8	1.49e+00	0	29	104	68157440	82	24230
2026-01-04 07:59:00.96	93.55	23.29	-58.6	-74.7	3.8	1.49e+00	0	29	104	68157440	82	24204
2026-01-04 07:59:04.99	92.89	23.78	-58.6	-74.6	3.8	1.49e+00	0	29	104	68157440	82	24128
2026-01-04 07:59:09.03	92.20	24.28	-58.6	-74.7	3.8	1.49e+00	0	29	104	68157440	82	24161
2026-01-04 07:59:13.07	91.49	24.78	-58.6	-74.7	3.8	1.49e+00	0	29	104	68157440	82	24178
2026-01-04 07:59:17.11	90.76	25.28	-58.6	-74.7	3.8	1.49e+00	0	29	104	68157440	82	24153
2026-01-04 07:59:21.15	90.00	25.80	-58.6	-74.7	3.8	1.49e+00	0	29	104	68157440	82	24163
2026-01-04 07:59:25.19	89.22	26.31	-58.6	-74.7	3.8	1.49e+00	0	29	104	68157440	82	24152
2026-01-04 07:59:29.21	88.42	26.83	-58.6	-74.7	3.8	1.49e+00	0	29	104	68157440	82	24184
2026-01-04 07:59:33.24	87.58	27.35	-58.6	-74.7	3.8	1.49e+00	0	29	104	68157440	82	24168
2026-01-04 07:59:37.27	86.72	27.87	-58.6	-74.7	3.8	1.49e+00	0	29	104	68157440	82	24165
2026-01-04 07:59:41.32	85.83	28.40	-58.6	-74.7	3.8	1.49e+00	0	29	104	68157440	82	24140
2026-01-04 07:59:45.34	84.91	28.93	-58.6	-74.6	3.8	1.49e+00	0	29	104	68157440	82	24083
2026-01-04 07:59:49.38	83.96	29.46	-58.6	-74.6	3.8	1.49e+00	0	29	104	68157440	82	24127
2026-01-04 07:59:53.42	82.97	29.99	-58.6	-74.6	3.8	1.49e+00	0	29	104	68157440	82	24009
2026-01-04 07:59:57.45	81.95	30.52	-58.6	-74.7	3.8	1.49e+00	0	29	104	68157440	82	24149
2026-01-04 08:00:01.49	80.90	31.06	-58.6	-74.7	3.8	1.49e+00	0	29	104	68157440	82	24187
2026-01-04 08:00:05.50	79.82	31.58	-58.6	-74.7	3.8	1.49e+00	0	29	104	68157440	82	24171
2026-01-04 08:00:09.54	78.69	32.11	-58.6	-74.7	3.8	1.49e+00	0	29	104	68157440	82	24169
2026-01-04 08:00:13.58	77.53	32.63	-58.6	-74.7	3.8	1.49e+00	0	29	104	68157440	82	24191
2026-01-04 08:00:17.62	76.33	33.15	-58.6	-74.7	3.8	1.49e+00	0	29	104	68157440	82	24146
2026-01-04 08:00:21.65	75.09	33.66	-58.6	-74.7	3.8	1.49e+00	0	29	104	68157440	82	24181
2026-01-04 08:00:25.69	73.81	34.16	-58.6	-74.7	3.8	1.49e+00	0	29	104	68157440	82	24188
2026-01-04 08:00:29.72	72.50	34.66	-58.7	-74.7	3.8	1.49e+00	0	29	104	68157440	82	24208
2026-01-04 08:00:33.75	71.14	35.14	-58.6	-74.7	3.8	1.49e+00	0	29	104	68157440	82	24172
2026-01-04 08:00:37.79	69.74	35.62	-58.6	-74.7	3.8	1.49e+00	0	29	104	68157440	82	24184
2026-01-04 08:00:41.83	68.30	36.08	-58.6	-74.7	3.8	1.49e+00	0	29	104	68157440	82	24231
2026-01-04 08:00:45.86	66.82	36.52	-58.6	-74.7	3.8	1.49e+00	0	29	104	68157440	82	24179
2026-01-04 08:00:49.90	65.30	36.95	-58.6	-74.7	3.8	1.49e+00	0	29	104	68157440	82	24163
2026-01-04 08:00:53.94	63.74	37.36	-58.6	-74.7	3.8	1.49e+00	0	29	104	68157440	82	24149
2026-01-04 08:00:57.97	62.14	37.75	-58.6	-74.7	3.8	1.49e+00	0	29	104	68157440	82	24180
2026-01-04 08:01:02.00	60.50	38.12	-58.6	-74.7	3.8	1.49e+00	0	29	104	68157440	82	24161
2026-01-04 08:01:06.03	58.83	38.46	-58.6	-74.7	3.8	1.49e+00	0	29	104	68157440	82	24171
2026-01-04 08:01:10.07	57.12	38.78	-58.6	-74.7	3.8	1.49e+00	0	29	104	68157440	82	24146
2026-01-04 08:01:14.11	55.38	39.08	-58.6	-74.7	3.8	1.49e+00	0	29	104	68157440	82	24195
2026-01-04 08:01:18.14	53.61	39.34	-58.6	-74.7	3.8	1.49e+00	0	29	104	68157440	82	24196
2026-01-04 08:01:22.18	51.81	39.58	-58.6	-74.7	3.8	1.49e+00	0	29	104	68157440	82	24242
2026-01-04 08:01:26.22	49.98	39.78	-58.6	-74.7	3.8	1.49e+00	0	29	104	68157440	82	24199
2026-01-04 08:01:30.25	48.14	39.95	-58.6	-74.7	3.8	1.49e+00	0	29	104	68157440	82	24192
2026-01-04 08:01:34.27	46.29	40.09	-58.6	-74.7	3.8	1.49e+00	0	29	104	68157440	82	24209
2026-01-04 08:01:38.31	44.41	40.19	-58.6	-74.7	3.8	1.49e+00	0	29	104	68157440	82	24184
2026-01-04 08:01:42.34	42.53	40.26	-58.6	-74.7	3.8	1.49e+00	0	29	104	68157440	82	24168
2026-01-04 08:01:46.37	40.64	40.29	-58.6	-74.6	3.8	1.49e+00	0	29	104	68157440	82	24120
2026-01-04 08:01:50.41	38.75	40.29	-58.6	-74.7	3.8	1.49e+00	0	29	104	68157440	82	24139
2026-01-04 08:01:54.43	36.86	40.25	-58.6	-74.7	3.8	1.49e+00	0	29	104	68157440	82	24228
2026-01-04 08:01:58.46	34.98	40.18	-58.6	-74.7	3.8	1.49e+00	0	29	104	68157440	82	24143
2026-01-04 08:02:02.50	33.11	40.07	-58.6	-74.6	3.8	1.49e+00	0	29	104	68157440	82	24116
2026-01-04 08:02:06.50	31.26	39.93	-58.6	-74.7	3.8	1.49e+00	0	29	104	68157440	82	24191
2026-01-04 08:02:10.54	29.42	39.75	-58.6	-74.7	3.8	1.49e+00	0	29	104	68157440	82	24137
2026-01-04 08:02:14.57	27.61	39.55	-58.6	-74.6	3.8	1.49e+00	0	29	104	68157440	82	24118
2026-01-04 08:02:18.61	25.81	39.31	-58.6	-74.7	3.8	1.49e+00	0	29	104	68157440	82	24172
2026-01-04 08:02:22.65	24.04	39.04	-58.6	-74.7	3.8	1.49e+00	0	29	104	68157440	82	24155
2026-01-04 08:02:26.69	22.31	38.74	-58.6	-74.6	3.8	1.49e+00	0	29	104	68157440	82	24110
2026-01-04 08:02:30.72	20.61	38.42	-58.6	-74.7	3.8	1.49e+00	0	29	104	68157440	82	24138
2026-01-04 08:02:34.74	18.95	38.07	-58.6	-74.7	3.8	1.49e+00	0	29	104	68157440	82	24191
2026-01-04 08:02:38.78	17.31	37.70	-58.6	-74.7	3.8	1.49e+00	0	29	104	68157440	82	24167
2026-01-04 08:02:42.82	15.72	37.31	-58.6	-74.7	3.8	1.49e+00	0	29	104	68157440	82	24140
2026-01-04 08:02:46.85	14.17	36.90	-58.6	-74.7	3.8	1.49e+00	0	29	104	68157440	82	24144
2026-01-04 08:02:50.89	12.65	36.47	-58.6	-74.7	3.8	1.49e+00	0	29	104	68157440	82	24148
2026-01-04 08:02:54.93	11.18	36.02	-58.6	-74.6	3.8	1.49e+00	0	29	104	68157440	82	24115
2026-01-04 08:02:58.97	9.75	35.56	-58.6	-74.6	3.8	1.49e+00	0	29	104	68157440	82	24125
2026-01-04 08:03:03.01	8.35	35.09	-58.6	-74.6	3.8	1.49e+00	0	29	104	68157440	82	24077
2026-01-04 08:03:07.02	7.01	34.60	-58.6	-74.7	3.8	1.49e+00	0	29	104	68157440	82	24147
2026-01-04 08:03:11.05	5.70	34.11	-58.6	-74.6	3.8	1.49e+00	0	29	104	68157440	82	24092
2026-01-04 08:03:15.09	4.43	33.60	-58.6	-74.6	3.8	1.49e+00	0	29	104	68157440	82	24089
2026-01-04 08:03:19.12	3.20	33.09	-58.6	-74.7	3.8	1.49e+00	0	29	104	68157440	82	24137
2026-01-04 08:03:23.16	2.01	32.58	-58.6	-74.6	3.8	1.49e+00	0	29	104	68157440	82	24117
2026-01-04 08:03:27.20	0.86	32.05	-58.6	-74.7	3.8	1.49e+00	0	29	104	68157440	82	24147
2026-01-04 08:03:31.24	359.74	31.53	-58.6	-74.6	3.8	1.49e+00	0	29	104	68157440	82	24106
2026-01-04 08:03:35.27	358.66	31.00	-58.6	-74.6	3.8	1.49e+00	0	29	104	68157440	82	24102
2026-01-04 08:03:39.31	357.61	30.47	-58.6	-74.6	3.8	1.49e+00	0	29	104	68157440	82	24101
2026-01-04 08:03:43.34	356.60	29.94	-58.6	-74.6	3.8	1.49e+00	0	29	104	68157440	82	24113
2026-01-04 08:03:47.38	355.62	29.41	-58.6	-74.6	3.8	1.49e+00	0	29	104	68157440	82	24091
2026-01-04 08:03:51.41	354.68	28.88	-58.6	-74.7	3.8	1.49e+00	0	29	104	68157440	82	24199
2026-01-04 08:03:55.45	353.76	28.35	-58.6	-74.7	3.8	1.49e+00	0	29	104	68157440	82	24164
2026-01-04 08:03:59.49	352.88	27.83	-58.6	-74.6	3.8	1.49e+00	0	29	104	68157440	82	24102
2026-01-04 08:04:03.52	352.02	27.30	-58.6	-74.6	3.8	1.49e+00	0	29	104	68157440	82	24100
2026-01-04 08:04:07.55	351.19	26.79	-58.6	-74.7	3.8	1.49e+00	0	29	104	68157440	82	24160
2026-01-04 08:04:11.58	350.39	26.27	-58.6	-74.7	3.8	1.49e+00	0	29	104	68157440	82	24153
2026-01-04 08:04:15.62	349.62	25.76	-58.6	-74.7	3.8	1.49e+00	0	29	104	68157440	82	24143
2026-01-04 08:04:19.65	348.87	25.25	-58.6	-74.6	3.8	1.49e+00	0	29	104	68157440	82	24088
2026-01-04 08:04:23.69	348.14	24.74	-58.6	-74.6	3.8	1.49e+00	0	29	104	68157440	82	24105
2026-01-04 08:04:27.73	347.44	24.24	-58.6	-74.6	3.8	1.49e+00	0	29	104	68157440	82	24098
2026-01-04 08:04:31.76	346.76	23.75	-58.6	-74.6	3.8	1.49e+00	0	29	104	68157440	82	24072
2026-01-04 08:04:35.79	346.10	23.26	-58.6	-74.6	3.8	1.49e+00	0	29	104	68157440	82	24008
2026-01-04 08:04:39.83	345.46	22.77	-58.6	-74.7	3.8	1.49e+00	0	29	104	68157440	82	24157
2026-01-04 08:04:43.86	344.84	22.30	-58.6	-74.7	3.8	1.49e+00	0	29	104	68157440	82	24134
2026-01-04 08:04:47.90	344.24	21.82	-58.6	-74.6	3.8	1.49e+00	0	29	104	68157440	82	24049
2026-01-04 08:04:51.94	343.66	21.35	-58.6	-74.6	3.8	1.49e+00	0	29	104	68157440	82	24039
2026-01-04 08:04:55.98	343.10	20.89	-58.6	-74.6	3.8	1.49e+00	0	29	104	68157440	82	24076
2026-01-04 08:05:00.01	342.55	20.43	-58.6	-74.7	3.8	1.49e+00	0	29	104	68157440	82	24132
2026-01-04 08:05:04.05	342.02	19.98	-58.6	-74.6	3.8	1.49e+00	0	29	104	68157440	82	24062
2026-01-04 08:05:08.07	341.51	19.53	-58.6	-74.6	3.8	1.49e+00	0	29	104	68157440	82	24079
2026-01-04 08:05:12.10	341.01	19.09	-58.6	-74.6	3.8	1.49e+00	0	29	104	68157440	82	24048
2026-01-04 08:05:16.14	340.52	18.66	-58.6	-74.6	3.8	1.49e+00	0	29	104	68157440	82	24101
2026-01-04 08:05:20.17	340.05	18.23	-58.6	-74.6	3.8	1.49e+00	0	29	104	68157440	82	24129
2026-01-04 08:05:24.20	339.59	17.80	-58.6	-74.6	3.8	1.49e+00	0	29	104	68157440	82	24059
2026-01-04 08:05:28.23	339.15	17.39	-58.6	-74.6	3.8	1.49e+00	0	29	104	68157440	82	24064
2026-01-04 08:05:32.27	338.72	16.97	-58.6	-74.6	3.8	1.49e+00	0	29	104	68157440	82	24009
2026-01-04 08:05:36.30	338.30	16.56	-58.6	-74.6	3.8	1.49e+00	0	29	104	68157440	82	24045
2026-01-04 08:05:40.33	337.89	16.16	-58.6	-74.6	3.8	1.49e+00	0	29	104	68157440	82	24039
2026-01-04 08:05:44.37	337.49	15.76	-58.6	-74.6	3.8	1.49e+00	0	29	104	68157440	82	24094
2026-01-04 08:05:48.40	337.11	15.37	-58.6	-74.6	3.8	1.49e+00	0	29	104	68157440	82	24046
2026-01-04 08:05:52.44	336.73	14.98	-58.6	-74.6	3.8	1.49e+00	0	29	104	68157440	82	24057
2026-01-04 08:05:56.49	336.36	14.59	-58.6	-74.6	3.8	1.49e+00	0	29	104	68157440	82	24057
2026-01-04 08:06:00.52	336.01	14.22	-58.6	-74.6	3.8	1.49e+00	0	29	104	68157440	82	23990
2026-01-04 08:06:04.55	335.66	13.84	-58.6	-74.6	3.8	1.49e+00	0	29	104	68157440	82	24005
2026-01-04 08:06:08.58	335.32	13.47	-58.6	-74.6	3.8	1.49e+00	0	29	104	68157440	82	24019
2026-01-04 08:06:12.61	334.99	13.11	-58.6	-74.6	3.8	1.49e+00	0	29	104	68157440	82	24049
2026-01-04 08:06:16.64	334.67	12.75	-58.6	-74.6	3.8	1.49e+00	0	29	104	68157440	82	24033
2026-01-04 08:06:20.68	334.36	12.39	-58.6	-74.6	3.8	1.49e+00	0	29	104	68157440	82	24034
2026-01-04 08:06:24.70	334.05	12.04	-58.6	-74.6	3.8	1.49e+00	0	29	104	68157440	82	23991
2026-01-04 08:06:28.74	333.76	11.69	-58.6	-74.6	3.8	1.49e+00	0	29	104	68157440	82	24058
2026-01-04 08:06:32.77	333.47	11.35	-58.6	-74.6	3.8	1.49e+00	0	29	104	68157440	82	24020
2026-01-04 08:06:36.80	333.18	11.01	-58.6	-74.6	3.8	1.49e+00	0	29	104	68157440	82	24016
2026-01-04 08:06:40.83	332.91	10.68	-58.6	-74.6	3.8	1.49e+00	0	29	104	68157440	82	24031
2026-01-04 08:06:44.87	332.64	10.34	-58.6	-74.6	3.8	1.49e+00	0	29	104	68157440	82	24016
2026-01-04 08:06:48.89	332.37	10.02	-58.6	-74.6	3.8	1.49e+00	0	29	104	68157440	82	23983
2026-01-04 08:06:52.92	332.12	9.69	-58.6	-74.6	3.8	1.49e+00	0	29	104	68157440	82	24032
2026-01-04 08:06:56.97	331.86	9.37	-58.6	-74.6	3.8	1.49e+00	0	29	104	68157440	82	23948
2026-01-04 08:07:01.00	331.62	9.06	-58.6	-74.6	3.8	1.49e+00	0	29	104	68157440	82	24011
2026-01-04 08:07:05.04	331.38	8.74	-58.6	-74.6	3.8	1.49e+00	0	29	104	68157440	82	24030
2026-01-04 08:07:09.07	331.14	8.43	-58.6	-74.6	3.8	1.49e+00	0	29	104	68157440	82	24000
2026-01-04 08:07:13.11	330.91	8.12	-58.6	-74.6	3.8	1.49e+00	0	29	104	68157440	82	23999
2026-01-04 08:07:17.14	330.69	7.82	-58.6	-74.6	3.8	1.49e+00	0	29	104	68157440	82	23981
2026-01-04 08:07:21.18	330.47	7.52	-58.6	-74.6	3.8	1.49e+00	0	29	104	68157440	82	24050
2026-01-04 08:07:25.22	330.25	7.22	-58.6	-74.6	3.8	1.49e+00	0	29	104	68157440	82	24048
2026-01-04 08:07:29.25	330.04	6.93	-58.6	-74.6	3.8	1.49e+00	0	29	104	68157440	82	23970
2026-01-04 08:07:33.28	329.84	6.64	-58.6	-74.6	3.8	1.49e+00	0	29	104	68157440	82	24010
2026-01-04 08:07:37.32	329.64	6.35	-58.6	-74.6	3.8	1.49e+00	0	29	104	68157440	82	24023
2026-01-04 08:07:41.35	329.44	6.06	-58.6	-74.6	3.8	1.49e+00	0	29	104	68157440	82	24059
2026-01-04 08:07:45.39	329.25	5.78	-58.6	-74.6	3.8	1.49e+00	0	29	104	68157440	82	24009
2026-01-04 08:07:49.42	329.06	5.50	-58.6	-74.6	3.8	1.49e+00	0	29	104	68157440	82	24019
2026-01-04 08:07:53.45	328.87	5.22	-58.6	-74.6	3.8	1.49e+00	0	29	104	68157440	82	23976
2026-01-04 08:07:57.49	328.69	4.94	-58.6	-74.6	3.8	1.49e+00	0	29	104	68157440	82	24027
2026-01-04 08:08:01.52	328.51	4.67	-58.6	-74.6	3.8	1.49e+00	0	29	104	68157440	82	23983
2026-01-04 08:08:05.56	328.34	4.40	-58.6	-74.6	3.8	1.49e+00	0	29	104	68157440	82	24029
2026-01-04 08:08:09.59	328.17	4.13	-58.6	-74.6	3.8	1.49e+00	0	29	104	68157440	82	23967
2026-01-04 08:08:13.63	328.00	3.87	-58.6	-74.6	3.8	1.49e+00	0	29	104	68157440	82	24048
2026-01-04 08:08:17.67	327.84	3.61	-58.6	-74.6	3.8	1.49e+00	0	29	104	68157440	82	24005
2026-01-04 08:08:21.71	327.68	3.34	-58.6	-74.6	3.8	1.49e+00	0	29	104	68157440	82	24008
2026-01-04 08:08:25.74	327.52	3.09	-58.6	-74.6	3.8	1.49e+00	0	29	104	68157440	82	24044
2026-01-04 08:08:29.78	327.37	2.83	-58.6	-74.6	3.8	1.49e+00	0	29	104	68157440	82	24022
2026-01-04 08:08:33.82	327.21	2.57	-58.6	-74.6	3.8	1.49e+00	0	29	104	68157440	82	24007
2026-01-04 08:08:37.85	327.07	2.32	-58.6	-74.6	3.8	1.49e+00	0	29	104	68157440	82	24045
2026-01-04 08:08:41.88	326.92	2.07	-58.6	-74.6	3.8	1.49e+00	0	29	104	68157440	82	24069

#Closed at: 2026-01-04 08:08:45
#Recorded file [68 MB]: D:/lorett/data/31004_260104_105454.dat