passes_logs/2026/01/04/R3.2S_Murmansk/R3.2S_Murmansk__20260104_081524_NOAA_20_JPSS-1_rec.log

#Pass ID: 20260104_081524_NOAA 20 (JPSS-1)
#Satellite: NOAA 20 (JPSS-1)
#Configuration: NOAA 20
#almurnet v.1.7.20251203
#Start time: 2026-01-04 08:15:25

#Version: 2.2.20231116
#Station: R3.2S_Murmansk
#Location: 33.079688 lon 68.888172 lat
#TLE: 1 43013U 17073A   26003.91140107  .00000139  00000+0  86966-4 0  9994
#TLE: 2 43013  98.7625 304.9685 0001869  55.4713 304.6639 14.19532967421166

#Time	Az	El	Level	Level2	SNR	BER	BlckErr	Temp	State	Recorded	gain1	gain2
2026-01-04 08:15:25.05	122.13	2.05	-60.7	-76.8	3.8	1.49e+00	0	26	0	0	86	24572
2026-01-04 08:15:29.08	122.01	2.30	-60.7	-76.8	3.8	1.49e+00	0	27	104	0	86	24521
2026-01-04 08:15:33.12	121.89	2.56	-60.9	-77.0	3.8	1.49e+00	0	27	104	0	86	25167
2026-01-04 08:15:37.15	121.78	2.82	-60.8	-76.9	3.8	1.49e+00	0	27	104	0	86	24761
2026-01-04 08:15:41.19	121.65	3.08	-60.5	-76.6	3.8	1.49e+00	0	27	104	0	86	24079
2026-01-04 08:15:45.23	121.53	3.35	-60.2	-76.3	3.8	1.49e+00	0	27	104	0	86	23190
2026-01-04 08:15:49.27	121.40	3.61	-59.8	-75.9	3.8	1.49e+00	0	27	104	0	86	22011
2026-01-04 08:15:53.30	121.27	3.88	-59.5	-75.5	3.8	1.49e+00	0	27	104	0	85	22451
2026-01-04 08:15:57.33	121.14	4.15	-58.9	-74.7	3.8	1.49e+00	0	27	104	0	84	21563
2026-01-04 08:16:01.37	121.01	4.43	-56.1	-60.6	11.0	5.54e-04	0	27	0	5242880	78	6024
2026-01-04 08:16:05.39	120.87	4.70	-54.4	-57.3	13.0	0.00e+00	0	27	0	12582912	75	4926
2026-01-04 08:16:09.42	120.73	4.98	-54.1	-56.8	13.3	0.00e+00	0	28	0	19922944	74	4904
2026-01-04 08:16:13.44	120.59	5.26	-56.0	-60.2	11.3	7.49e-03	0	28	0	27262976	78	5730
2026-01-04 08:16:17.47	120.44	5.55	-53.9	-56.6	13.5	0.00e+00	0	28	0	34603008	74	4761
2026-01-04 08:16:21.50	120.29	5.84	-53.8	-56.4	13.6	0.00e+00	0	28	0	42991616	74	4670
2026-01-04 08:16:25.53	120.14	6.13	-53.9	-56.4	13.6	0.00e+00	0	28	0	50331648	74	4684
2026-01-04 08:16:29.55	119.99	6.42	-53.8	-56.3	13.7	0.00e+00	0	28	0	57671680	74	4643
2026-01-04 08:16:33.58	119.83	6.72	-53.8	-56.2	13.7	0.00e+00	0	28	0	65011712	74	4597
2026-01-04 08:16:37.61	119.67	7.02	-53.7	-56.1	13.8	0.00e+00	0	28	0	72351744	74	4517
2026-01-04 08:16:41.63	119.50	7.32	-53.7	-56.0	13.9	0.00e+00	0	28	0	80740352	74	4488
2026-01-04 08:16:45.65	119.33	7.62	-53.7	-56.1	13.8	0.00e+00	0	28	0	88080384	73	4772
2026-01-04 08:16:49.69	119.16	7.94	-53.6	-55.9	13.9	0.00e+00	0	28	0	95420416	73	4684
2026-01-04 08:16:53.72	118.98	8.25	-53.7	-56.0	13.8	0.00e+00	0	28	0	102760448	73	4759
2026-01-04 08:16:57.75	118.80	8.57	-53.6	-55.9	13.9	0.00e+00	0	28	0	110100480	73	4657
2026-01-04 08:17:01.78	118.61	8.89	-53.5	-55.7	14.0	0.00e+00	0	28	0	118489088	73	4572
2026-01-04 08:17:05.81	118.42	9.21	-53.5	-55.7	14.1	0.00e+00	0	28	0	125829120	73	4548
2026-01-04 08:17:09.84	118.22	9.54	-53.4	-55.5	14.2	0.00e+00	0	28	0	133169152	73	4455
2026-01-04 08:17:13.87	118.02	9.88	-53.3	-55.4	14.2	0.00e+00	0	28	0	140509184	73	4405
2026-01-04 08:17:17.89	117.82	10.21	-53.3	-55.3	14.2	0.00e+00	0	28	0	147849216	73	4376
2026-01-04 08:17:21.92	117.61	10.55	-53.3	-55.3	14.3	0.00e+00	0	28	0	156237824	73	4374
2026-01-04 08:17:25.96	117.39	10.90	-53.2	-55.2	14.2	0.00e+00	0	28	0	163577856	72	4566
2026-01-04 08:17:29.99	117.17	11.25	-53.1	-55.1	14.3	0.00e+00	0	28	0	170917888	72	4523
2026-01-04 08:17:34.02	116.94	11.61	-52.9	-54.9	14.4	0.00e+00	0	28	0	178257920	72	4401
2026-01-04 08:17:38.05	116.71	11.97	-53.0	-54.9	14.4	0.00e+00	0	28	0	185597952	72	4416
2026-01-04 08:17:42.08	116.47	12.33	-52.8	-54.8	14.5	0.00e+00	0	28	0	193986560	72	4341
2026-01-04 08:17:46.11	116.23	12.70	-52.7	-54.6	14.5	0.00e+00	0	28	0	201326592	72	4257
2026-01-04 08:17:50.13	115.97	13.07	-52.6	-54.4	14.5	0.00e+00	0	28	0	208666624	71	4428
2026-01-04 08:17:54.16	115.72	13.45	-52.6	-54.4	14.5	0.00e+00	0	28	0	216006656	71	4430
2026-01-04 08:17:58.19	115.45	13.84	-52.7	-54.5	14.5	0.00e+00	0	28	0	224395264	71	4469
2026-01-04 08:18:02.22	115.18	14.23	-52.6	-54.3	14.6	0.00e+00	0	28	0	231735296	71	4389
2026-01-04 08:18:06.25	114.90	14.63	-52.6	-54.4	14.6	0.00e+00	0	28	0	239075328	71	4394
2026-01-04 08:18:10.27	114.61	15.03	-52.6	-54.4	14.5	0.00e+00	0	28	0	246415360	71	4436
2026-01-04 08:18:14.31	114.31	15.44	-52.5	-54.2	14.6	0.00e+00	0	28	0	253755392	71	4329
2026-01-04 08:18:18.34	114.00	15.85	-52.5	-54.3	14.6	0.00e+00	0	28	0	262144000	71	4354
2026-01-04 08:18:22.37	113.69	16.27	-52.5	-54.2	14.7	0.00e+00	0	28	0	269484032	71	4329
2026-01-04 08:18:26.40	113.37	16.70	-52.4	-54.1	14.7	0.00e+00	0	28	0	276824064	71	4280
2026-01-04 08:18:30.43	113.03	17.13	-52.5	-54.2	14.7	0.00e+00	0	28	0	284164096	71	4320
2026-01-04 08:18:34.45	112.69	17.57	-52.4	-54.2	14.7	0.00e+00	0	28	0	291504128	71	4293
2026-01-04 08:18:38.49	112.33	18.02	-52.6	-54.4	14.6	0.00e+00	0	28	0	299892736	71	4431
2026-01-04 08:18:42.51	111.97	18.48	-52.8	-54.6	14.5	0.00e+00	0	28	0	307232768	71	4543
2026-01-04 08:18:46.54	111.59	18.94	-53.0	-54.8	14.4	0.00e+00	0	28	0	314572800	71	4637
2026-01-04 08:18:50.56	111.20	19.41	-53.1	-55.0	14.3	0.00e+00	0	28	0	321912832	71	4734
2026-01-04 08:18:54.59	110.80	19.88	-53.2	-55.1	14.3	0.00e+00	0	28	0	329252864	71	4783
2026-01-04 08:18:58.62	110.39	20.37	-53.4	-55.4	14.2	0.00e+00	0	28	0	337641472	71	4931
2026-01-04 08:19:02.63	109.96	20.86	-53.5	-55.5	14.2	0.00e+00	0	28	0	344981504	72	4707
2026-01-04 08:19:06.65	109.52	21.35	-53.5	-55.5	14.2	0.00e+00	0	28	0	352321536	72	4733
2026-01-04 08:19:10.68	109.06	21.86	-53.6	-55.6	14.2	0.00e+00	0	28	0	359661568	72	4796
2026-01-04 08:19:14.70	108.59	22.38	-53.5	-55.5	14.3	0.00e+00	0	28	0	367001600	72	4733
2026-01-04 08:19:18.74	108.10	22.90	-53.5	-55.4	14.3	0.00e+00	0	28	0	374341632	72	4692
2026-01-04 08:19:22.77	107.59	23.44	-53.5	-55.5	14.2	0.00e+00	0	28	0	382730240	72	4743
2026-01-04 08:19:26.80	107.06	23.98	-53.6	-55.6	14.2	0.00e+00	0	28	0	390070272	72	4770
2026-01-04 08:19:30.83	106.52	24.53	-53.4	-55.3	14.3	0.00e+00	0	28	0	397410304	72	4617
2026-01-04 08:19:34.86	105.95	25.09	-53.4	-55.4	14.3	0.00e+00	0	28	0	404750336	72	4680
2026-01-04 08:19:38.89	105.37	25.66	-53.5	-55.4	14.3	0.00e+00	0	28	0	413138944	72	4685
2026-01-04 08:19:42.92	104.76	26.23	-53.4	-55.4	14.3	0.00e+00	0	29	0	420478976	72	4668
2026-01-04 08:19:46.94	104.13	26.82	-53.5	-55.5	14.2	0.00e+00	0	29	0	427819008	72	4747
2026-01-04 08:19:50.97	103.48	27.41	-53.4	-55.3	14.3	0.00e+00	0	28	0	435159040	72	4651
2026-01-04 08:19:55.00	102.80	28.01	-53.6	-55.5	14.3	0.00e+00	0	28	0	442499072	72	4757
2026-01-04 08:19:59.02	102.09	28.62	-53.4	-55.3	14.3	0.00e+00	0	28	0	450887680	72	4644
2026-01-04 08:20:03.05	101.36	29.24	-53.4	-55.3	14.4	0.00e+00	0	28	0	458227712	72	4603
2026-01-04 08:20:07.08	100.59	29.87	-53.6	-55.6	14.3	0.00e+00	0	28	0	465567744	72	4761
2026-01-04 08:20:11.11	99.80	30.51	-54.6	-56.9	13.8	0.00e+00	0	28	0	472907776	74	4973
2026-01-04 08:20:15.14	98.97	31.15	-54.6	-57.0	13.8	0.00e+00	0	28	0	480247808	74	5012
2026-01-04 08:20:19.17	98.11	31.80	-54.9	-57.3	13.7	0.00e+00	0	29	0	488636416	75	4890
2026-01-04 08:20:23.20	97.21	32.46	-54.8	-57.2	13.8	0.00e+00	0	29	0	495976448	75	4839
2026-01-04 08:20:27.23	96.28	33.12	-55.2	-57.8	13.4	0.00e+00	0	29	0	503316480	75	5190
2026-01-04 08:20:31.26	95.30	33.79	-55.3	-57.9	13.4	0.00e+00	0	29	0	510656512	75	5270
2026-01-04 08:20:35.29	94.29	34.46	-55.1	-57.6	13.6	0.00e+00	0	29	0	517996544	75	5067
2026-01-04 08:20:39.31	93.23	35.14	-55.0	-57.5	13.6	0.00e+00	0	28	0	526385152	75	5036
2026-01-04 08:20:43.34	92.12	35.82	-54.7	-57.0	13.9	0.00e+00	0	28	0	533725184	75	4721
2026-01-04 08:20:47.36	90.97	36.50	-54.6	-56.8	14.0	0.00e+00	0	28	0	541065216	75	4633
2026-01-04 08:20:51.40	89.77	37.18	-54.1	-56.2	14.2	0.00e+00	0	28	0	548405248	74	4588
2026-01-04 08:20:55.43	88.52	37.87	-53.9	-56.1	14.3	0.00e+00	0	29	0	555745280	74	4521
2026-01-04 08:20:59.45	87.21	38.54	-54.3	-56.6	14.0	0.00e+00	0	28	0	564133888	74	4811
2026-01-04 08:21:03.48	85.85	39.22	-54.6	-56.8	13.9	0.00e+00	0	28	0	571473920	74	4920
2026-01-04 08:21:07.51	84.43	39.88	-54.4	-56.6	14.0	0.00e+00	0	28	0	578813952	74	4803
2026-01-04 08:21:11.52	82.95	40.54	-55.1	-57.6	13.6	0.00e+00	0	29	0	586153984	75	5096
2026-01-04 08:21:15.55	81.41	41.19	-55.5	-58.2	13.4	0.00e+00	0	28	0	593494016	76	5107
2026-01-04 08:21:19.59	79.80	41.83	-54.7	-57.0	14.0	0.00e+00	0	28	0	601882624	76	4465
2026-01-04 08:21:23.61	78.14	42.44	-53.0	-54.8	14.6	0.00e+00	0	29	0	609222656	72	4364
2026-01-04 08:21:27.64	76.40	43.05	-52.6	-54.3	14.8	0.00e+00	0	29	0	616562688	71	4344
2026-01-04 08:21:31.67	74.61	43.63	-52.6	-54.3	14.7	0.00e+00	0	29	0	623902720	71	4355
2026-01-04 08:21:35.70	72.74	44.18	-52.4	-54.1	14.8	0.00e+00	0	28	0	631242752	71	4263
2026-01-04 08:21:39.74	70.81	44.71	-52.6	-54.2	14.6	0.00e+00	0	29	0	639631360	70	4583
2026-01-04 08:21:43.77	68.82	45.21	-54.0	-56.0	14.2	0.00e+00	0	29	0	646971392	73	4733
2026-01-04 08:21:47.80	66.76	45.67	-54.0	-56.1	14.2	0.00e+00	0	28	0	654311424	73	4768
2026-01-04 08:21:51.84	64.65	46.09	-54.4	-56.6	14.0	0.00e+00	0	28	0	661651456	73	5066
2026-01-04 08:21:55.86	62.48	46.48	-55.0	-57.4	13.7	0.00e+00	0	28	0	668991488	75	4937
2026-01-04 08:21:59.88	60.27	46.82	-55.3	-57.8	13.6	0.00e+00	0	28	0	677380096	75	5172
2026-01-04 08:22:03.91	58.01	47.12	-54.9	-57.3	13.8	0.00e+00	0	29	0	684720128	75	4888
2026-01-04 08:22:07.95	55.70	47.36	-54.8	-57.0	14.0	0.00e+00	0	28	0	692060160	75	4725
2026-01-04 08:22:11.98	53.36	47.56	-54.9	-57.2	13.9	0.00e+00	0	28	0	699400192	75	4857
2026-01-04 08:22:16.00	51.01	47.71	-54.8	-57.0	13.9	0.00e+00	0	29	0	707788800	75	4756
2026-01-04 08:22:20.04	48.62	47.80	-54.7	-56.9	14.0	0.00e+00	0	28	0	715128832	75	4681
2026-01-04 08:22:24.06	46.23	47.84	-54.6	-56.8	14.1	0.00e+00	0	29	0	722468864	75	4603
2026-01-04 08:22:28.09	43.84	47.82	-54.8	-57.1	13.9	0.00e+00	0	29	0	729808896	75	4790
2026-01-04 08:22:32.11	41.46	47.75	-54.5	-56.7	14.1	0.00e+00	0	28	0	737148928	75	4553
2026-01-04 08:22:36.14	39.09	47.63	-55.0	-57.3	13.8	0.00e+00	0	29	0	745537536	75	4886
2026-01-04 08:22:40.17	36.74	47.45	-54.7	-57.0	14.0	0.00e+00	0	29	0	752877568	75	4716
2026-01-04 08:22:44.20	34.43	47.23	-55.4	-57.9	13.5	0.00e+00	0	29	0	760217600	75	5239
2026-01-04 08:22:48.23	32.15	46.95	-55.1	-57.5	13.8	0.00e+00	0	29	0	767557632	76	4711
2026-01-04 08:22:52.26	29.91	46.63	-54.9	-57.2	14.0	0.00e+00	0	28	0	774897664	76	4563
2026-01-04 08:22:56.28	27.73	46.26	-54.6	-56.7	14.1	0.00e+00	0	29	0	782237696	75	4591
2026-01-04 08:23:00.31	25.60	45.85	-54.6	-56.7	14.1	0.00e+00	0	29	0	790626304	75	4590
2026-01-04 08:23:04.35	23.52	45.41	-53.9	-55.8	14.4	0.00e+00	0	29	0	797966336	74	4361
2026-01-04 08:23:08.38	21.50	44.93	-53.3	-55.1	14.6	0.00e+00	0	29	0	805306368	73	4282
2026-01-04 08:23:12.41	19.55	44.41	-52.8	-54.5	14.8	0.00e+00	0	28	0	812646400	72	4198
2026-01-04 08:23:16.43	17.66	43.87	-52.8	-54.5	14.7	0.00e+00	0	28	0	821035008	71	4462
2026-01-04 08:23:20.46	15.84	43.30	-52.3	-53.9	14.9	0.00e+00	0	29	0	828375040	71	4153
2026-01-04 08:23:24.49	14.08	42.71	-52.0	-53.5	14.9	0.00e+00	0	28	0	835715072	70	4223
2026-01-04 08:23:28.53	12.38	42.10	-52.1	-53.6	14.9	0.00e+00	0	28	0	843055104	70	4283
2026-01-04 08:23:32.56	10.76	41.47	-52.7	-54.3	14.6	0.00e+00	0	28	0	850395136	70	4645
2026-01-04 08:23:36.59	9.19	40.83	-52.4	-54.1	14.7	0.00e+00	0	28	0	858783744	70	4494
2026-01-04 08:23:40.61	7.69	40.18	-52.5	-54.1	14.7	0.00e+00	0	28	0	866123776	70	4544
2026-01-04 08:23:44.63	6.25	39.52	-52.7	-54.3	14.6	0.00e+00	0	29	0	873463808	70	4639
2026-01-04 08:23:48.67	4.86	38.84	-53.0	-54.8	14.6	0.00e+00	0	28	0	880803840	71	4614
2026-01-04 08:23:52.70	3.54	38.17	-53.5	-55.3	14.5	0.00e+00	0	28	0	888143872	72	4628
2026-01-04 08:23:56.74	2.26	37.49	-54.0	-56.0	14.3	0.00e+00	0	28	0	896532480	73	4709
2026-01-04 08:24:00.77	1.04	36.81	-54.4	-56.5	14.1	0.00e+00	0	29	0	903872512	74	4744
2026-01-04 08:24:04.79	359.87	36.13	-55.2	-57.6	13.7	0.00e+00	0	29	0	911212544	75	5080
2026-01-04 08:24:08.83	358.75	35.45	-55.4	-57.9	13.6	0.00e+00	0	29	0	918552576	75	5226
2026-01-04 08:24:12.85	357.67	34.77	-55.6	-58.2	13.4	0.00e+00	0	28	0	925892608	76	5135
2026-01-04 08:24:16.88	356.64	34.10	-55.9	-58.7	13.3	0.00e+00	0	29	0	934281216	77	5130
2026-01-04 08:24:20.90	355.65	33.43	-55.6	-58.1	13.6	0.00e+00	0	29	0	941621248	77	4782
2026-01-04 08:24:24.93	354.71	32.77	-55.4	-57.8	13.7	0.00e+00	0	29	0	948961280	77	4630
2026-01-04 08:24:28.96	353.79	32.11	-55.0	-57.3	13.9	0.00e+00	0	29	0	956301312	76	4640
2026-01-04 08:24:32.99	352.92	31.46	-55.1	-57.4	13.9	0.00e+00	0	29	0	963641344	76	4705
2026-01-04 08:24:37.02	352.08	30.81	-55.0	-57.3	13.9	0.00e+00	0	29	0	972029952	76	4614
2026-01-04 08:24:41.04	351.28	30.18	-55.1	-57.4	13.9	0.00e+00	0	29	0	979369984	76	4695
2026-01-04 08:24:45.08	350.50	29.55	-54.5	-56.7	14.1	0.00e+00	0	29	0	986710016	75	4551
2026-01-04 08:24:49.10	349.76	28.93	-54.4	-56.5	14.2	0.00e+00	0	29	0	994050048	75	4472
2026-01-04 08:24:53.13	349.04	28.32	-54.6	-56.8	14.1	0.00e+00	0	29	0	1001390080	75	4626
2026-01-04 08:24:57.16	348.35	27.71	-54.2	-56.3	14.3	0.00e+00	0	28	0	1009778688	75	4356
2026-01-04 08:25:01.18	347.69	27.12	-54.1	-56.2	14.2	0.00e+00	0	28	0	1017118720	74	4554
2026-01-04 08:25:05.21	347.05	26.53	-54.0	-56.1	14.3	0.00e+00	0	29	0	1024458752	74	4516
2026-01-04 08:25:09.23	346.44	25.95	-54.1	-56.2	14.2	0.00e+00	0	29	0	1031798784	74	4586
2026-01-04 08:25:13.27	345.84	25.38	-54.2	-56.4	14.1	0.00e+00	0	29	0	1039138816	74	4662
2026-01-04 08:25:17.30	345.27	24.82	-53.8	-55.8	14.4	0.00e+00	0	29	0	1047527424	74	4355
2026-01-04 08:25:21.33	344.72	24.27	-53.5	-55.4	14.5	0.00e+00	0	29	0	1054867456	73	4398
2026-01-04 08:25:25.35	344.19	23.72	-53.4	-55.3	14.5	0.00e+00	0	29	0	1062207488	73	4378
2026-01-04 08:25:29.38	343.68	23.19	-53.5	-55.4	14.4	0.00e+00	0	29	0	1069547520	73	4439
2026-01-04 08:25:33.41	343.18	22.66	-53.5	-55.3	14.5	0.00e+00	0	29	0	1076887552	73	4389
2026-01-04 08:25:37.44	342.70	22.14	-53.5	-55.4	14.4	0.00e+00	0	29	0	1085276160	73	4392
2026-01-04 08:25:41.47	342.24	21.63	-53.4	-55.3	14.5	0.00e+00	0	29	0	1092616192	73	4381
2026-01-04 08:25:45.50	341.79	21.13	-53.3	-55.2	14.5	0.00e+00	0	29	0	1099956224	73	4306
2026-01-04 08:25:49.52	341.36	20.64	-53.4	-55.2	14.5	0.00e+00	0	29	0	1107296256	73	4336
2026-01-04 08:25:53.55	340.94	20.15	-53.4	-55.3	14.5	0.00e+00	0	28	0	1115684864	73	4356
2026-01-04 08:25:57.58	340.54	19.68	-53.4	-55.3	14.5	0.00e+00	0	29	0	1123024896	73	4372
2026-01-04 08:26:01.61	340.14	19.20	-53.3	-55.2	14.5	0.00e+00	0	29	0	1130364928	73	4328
2026-01-04 08:26:05.64	339.76	18.74	-53.6	-55.6	14.3	0.00e+00	0	29	0	1137704960	73	4503
2026-01-04 08:26:09.68	339.39	18.28	-53.7	-55.7	14.3	0.00e+00	0	29	0	1145044992	73	4576
2026-01-04 08:26:13.71	339.04	17.83	-53.7	-55.7	14.3	0.00e+00	0	29	0	1153433600	73	4570
2026-01-04 08:26:17.73	338.69	17.39	-53.7	-55.7	14.3	0.00e+00	0	29	0	1160773632	73	4580
2026-01-04 08:26:21.77	338.36	16.96	-53.7	-55.7	14.3	0.00e+00	0	29	0	1168113664	73	4560
2026-01-04 08:26:25.80	338.03	16.53	-53.4	-55.3	14.4	0.00e+00	0	29	0	1175453696	73	4383
2026-01-04 08:26:29.83	337.71	16.11	-53.4	-55.3	14.4	0.00e+00	0	28	0	1182793728	73	4380
2026-01-04 08:26:33.86	337.41	15.69	-53.5	-55.5	14.3	0.00e+00	0	28	0	1191182336	73	4481
2026-01-04 08:26:37.89	337.11	15.28	-53.7	-55.8	14.2	3.00e-06	0	29	0	1198522368	73	4602
2026-01-04 08:26:41.92	336.82	14.88	-54.0	-56.1	14.1	7.00e-07	0	29	0	1205862400	73	4800
2026-01-04 08:26:45.95	336.53	14.48	-54.1	-56.3	13.9	0.00e+00	0	29	0	1213202432	73	4919
2026-01-04 08:26:49.98	336.26	14.08	-54.1	-56.4	13.9	0.00e+00	0	29	0	1220542464	73	4948
2026-01-04 08:26:54.02	335.99	13.70	-54.3	-56.6	13.8	0.00e+00	0	29	0	1228931072	73	5046
2026-01-04 08:26:58.05	335.73	13.32	-54.3	-56.7	13.7	0.00e+00	0	29	0	1236271104	73	5123
2026-01-04 08:27:02.08	335.48	12.94	-54.2	-56.6	13.8	0.00e+00	0	29	0	1243611136	73	5050
2026-01-04 08:27:06.11	335.23	12.57	-54.2	-56.5	13.8	0.00e+00	0	29	0	1250951168	73	5019
2026-01-04 08:27:10.14	334.99	12.20	-54.1	-56.4	13.9	0.00e+00	0	29	0	1258291200	73	4960
2026-01-04 08:27:14.18	334.76	11.84	-54.2	-56.5	13.8	0.00e+00	0	29	0	1266679808	73	5018
2026-01-04 08:27:18.21	334.53	11.48	-54.4	-56.8	13.7	0.00e+00	0	29	0	1274019840	73	5161
2026-01-04 08:27:22.24	334.31	11.13	-54.5	-56.9	13.7	0.00e+00	0	29	0	1281359872	74	4957
2026-01-04 08:27:26.27	334.10	10.79	-54.4	-56.9	13.7	2.20e-06	0	29	0	1288699904	74	4935
2026-01-04 08:27:30.29	333.89	10.44	-54.3	-56.9	13.7	2.28e-05	0	29	0	1297088512	74	4979
2026-01-04 08:27:34.32	333.68	10.11	-54.2	-56.9	13.7	0.00e+00	0	29	0	1304428544	74	4980
2026-01-04 08:27:38.35	333.48	9.77	-54.3	-57.0	13.6	0.00e+00	0	29	0	1311768576	74	4992
2026-01-04 08:27:42.38	333.29	9.44	-54.3	-56.9	13.6	0.00e+00	0	29	0	1319108608	74	4951
2026-01-04 08:27:46.41	333.10	9.11	-54.4	-56.9	13.6	0.00e+00	0	29	0	1326448640	74	4975
2026-01-04 08:27:50.44	332.91	8.79	-54.4	-57.0	13.5	0.00e+00	0	29	0	1333788672	74	5010
2026-01-04 08:27:54.46	332.73	8.47	-54.7	-57.3	13.3	0.00e+00	0	29	0	1342177280	74	5204
2026-01-04 08:27:58.49	332.55	8.16	-54.7	-57.5	13.3	0.00e+00	0	29	0	1349517312	74	5281
2026-01-04 08:28:02.52	332.38	7.85	-54.8	-57.6	13.2	0.00e+00	0	29	0	1356857344	74	5345
2026-01-04 08:28:06.55	332.21	7.54	-54.8	-57.6	13.2	0.00e+00	0	29	0	1364197376	74	5355
2026-01-04 08:28:10.58	332.04	7.24	-54.9	-57.7	13.2	0.00e+00	0	29	0	1371537408	75	5142
2026-01-04 08:28:14.61	331.88	6.94	-54.9	-57.9	13.0	0.00e+00	0	29	0	1379926016	75	5226
2026-01-04 08:28:18.63	331.72	6.64	-55.0	-58.0	12.9	0.00e+00	0	29	0	1387266048	75	5334
2026-01-04 08:28:22.66	331.57	6.34	-55.1	-58.2	12.8	0.00e+00	0	29	0	1394606080	75	5426
2026-01-04 08:28:26.69	331.42	6.05	-55.3	-58.5	12.6	0.00e+00	0	29	0	1401946112	75	5649
2026-01-04 08:28:30.72	331.27	5.76	-55.3	-58.7	12.5	0.00e+00	0	29	0	1410334720	75	5724
2026-01-04 08:28:34.75	331.12	5.48	-55.5	-59.0	12.4	0.00e+00	0	29	0	1417674752	76	5603
2026-01-04 08:28:38.78	330.98	5.20	-55.6	-59.2	12.2	7.00e-07	0	29	0	1425014784	76	5751
2026-01-04 08:28:42.82	330.84	4.92	-59.4	-75.4	3.8	1.49e+00	0	29	104	1431306240	83	24888
2026-01-04 08:28:46.86	330.71	4.64	-60.6	-76.7	3.8	1.49e+00	0	29	104	1431306240	86	24310
2026-01-04 08:28:50.89	330.57	4.36	-61.1	-77.2	3.8	1.49e+00	0	29	104	1431306240	87	24220
2026-01-04 08:28:54.92	330.44	4.09	-61.3	-77.4	3.8	1.49e+00	0	29	104	1431306240	87	24756
2026-01-04 08:28:58.95	330.32	3.82	-61.3	-77.5	3.8	1.49e+00	0	29	104	1431306240	87	24995
2026-01-04 08:29:02.98	330.19	3.56	-61.4	-77.5	3.8	1.49e+00	0	29	104	1431306240	87	25264
2026-01-04 08:29:07.02	330.07	3.29	-61.3	-77.4	3.8	1.49e+00	0	29	104	1431306240	87	24872
2026-01-04 08:29:11.06	329.95	3.03	-61.2	-77.4	3.8	1.49e+00	0	29	104	1431306240	87	24791
2026-01-04 08:29:15.10	329.83	2.77	-61.2	-77.3	3.8	1.49e+00	0	29	104	1431306240	87	24615
2026-01-04 08:29:19.14	329.72	2.51	-61.2	-77.3	3.8	1.49e+00	0	29	104	1431306240	87	24550
2026-01-04 08:29:23.17	329.60	2.25	-61.1	-77.3	3.8	1.49e+00	0	29	104	1431306240	87	24470
2026-01-04 08:29:27.21	329.49	2.00	-61.1	-77.2	3.8	1.49e+00	0	29	104	1431306240	87	24353

#Closed at: 2026-01-04 08:29:27
#Recorded file [1431 MB]: D:/lorett/data/31004_260104_111524.dat