passes_logs/2026/01/04/R3.2S_Murmansk/R3.2S_Murmansk__20260104_053838_FENGYUN_3D_rec.log

#Pass ID: 20260104_053838_FENGYUN 3D
#Satellite: FENGYUN 3D
#Configuration: FENGYUN 3D
#almurnet v.1.7.20251203
#Start time: 2026-01-04 05:38:38

#Version: 2.2.20231116
#Station: R3.2S_Murmansk
#Location: 33.079688 lon 68.888172 lat
#TLE: 1 43010U 17072A   26003.51579816  .00000092  00000+0  65324-4 0  9992
#TLE: 2 43010  98.9912 335.1548 0001916 128.4619 231.6729 14.19692074421623

#Time	Az	El	Level	Level2	SNR	BER	BlckErr	Temp	State	Recorded	gain1	gain2
2026-01-04 05:38:38.46	43.60	1.97	-58.4	-71.4	3.8	8.46e-01	0	27	0	0	83	15735
2026-01-04 05:38:42.47	43.39	2.21	-58.3	-71.4	3.8	8.45e-01	0	27	104	0	81	17511
2026-01-04 05:38:46.48	43.17	2.45	-58.3	-71.4	3.8	8.45e-01	0	27	104	0	81	17571
2026-01-04 05:38:50.47	42.94	2.69	-58.3	-71.3	3.8	8.45e-01	0	27	104	0	81	17452
2026-01-04 05:38:54.46	42.72	2.93	-58.3	-71.4	3.8	8.46e-01	0	27	104	0	81	17577
2026-01-04 05:38:58.46	42.48	3.17	-58.3	-71.3	3.8	8.45e-01	0	27	104	0	81	17464
2026-01-04 05:39:02.47	42.25	3.41	-58.3	-71.2	3.8	8.45e-01	0	27	104	0	81	17157
2026-01-04 05:39:06.47	42.01	3.66	-58.3	-71.4	3.8	8.46e-01	0	27	104	0	81	17493
2026-01-04 05:39:10.47	41.76	3.91	-58.3	-71.3	3.8	8.45e-01	0	28	104	0	81	17347
2026-01-04 05:39:14.47	41.52	4.15	-58.3	-71.4	3.8	8.46e-01	0	28	104	0	81	17560
2026-01-04 05:39:18.46	41.26	4.40	-58.2	-70.2	3.8	8.47e-01	0	28	104	0	81	15244
2026-01-04 05:39:22.43	41.01	4.65	-57.9	-66.7	4.5	8.27e-01	0	28	0	0	81	10261
2026-01-04 05:39:26.41	40.75	4.91	-56.8	-62.1	7.4	1.04e-01	0	28	0	11534336	80	6416
2026-01-04 05:39:30.38	40.48	5.16	-57.1	-62.7	6.9	5.65e-01	0	28	0	31457280	80	6866
2026-01-04 05:39:34.36	40.21	5.42	-51.5	-53.1	13.7	0.00e+00	0	28	0	51380224	69	4284
2026-01-04 05:39:38.34	39.93	5.68	-50.1	-51.6	14.2	0.00e+00	0	28	0	73400320	66	4275
2026-01-04 05:39:42.33	39.65	5.94	-49.8	-51.2	14.3	0.00e+00	0	28	0	96468992	65	4327
2026-01-04 05:39:46.31	39.37	6.20	-49.8	-51.3	14.3	0.00e+00	0	28	0	118489088	65	4355
2026-01-04 05:39:50.31	39.07	6.46	-49.8	-51.2	14.3	0.00e+00	0	28	0	141557760	65	4331
2026-01-04 05:39:54.31	38.77	6.73	-49.7	-51.1	14.4	0.00e+00	0	28	0	163577856	65	4250
2026-01-04 05:39:58.31	38.47	7.00	-49.5	-50.9	14.5	0.00e+00	0	28	0	186646528	65	4160
2026-01-04 05:40:02.31	38.16	7.27	-49.5	-50.9	14.5	0.00e+00	0	28	0	208666624	65	4172
2026-01-04 05:40:06.31	37.84	7.55	-49.5	-50.8	14.5	0.00e+00	0	28	0	230686720	65	4142
2026-01-04 05:40:10.32	37.52	7.82	-49.5	-50.8	14.5	0.00e+00	0	28	0	253755392	65	4139
2026-01-04 05:40:14.32	37.19	8.10	-49.5	-50.8	14.5	0.00e+00	0	28	0	275775488	65	4138
2026-01-04 05:40:18.31	36.85	8.38	-49.3	-50.7	14.6	0.00e+00	0	28	0	298844160	65	4064
2026-01-04 05:40:22.30	36.51	8.66	-49.5	-50.8	14.6	0.00e+00	0	28	0	320864256	65	4133
2026-01-04 05:40:26.30	36.16	8.95	-49.1	-50.4	14.7	0.00e+00	0	28	0	342884352	64	4170
2026-01-04 05:40:30.29	35.80	9.23	-49.1	-50.4	14.7	0.00e+00	0	29	0	365953024	64	4146
2026-01-04 05:40:34.29	35.44	9.52	-48.7	-50.0	14.8	0.00e+00	0	28	0	387973120	64	3986
2026-01-04 05:40:38.27	35.06	9.81	-48.8	-50.0	14.8	0.00e+00	0	28	0	411041792	64	3997
2026-01-04 05:40:42.27	34.68	10.10	-48.7	-49.9	14.9	0.00e+00	0	28	0	433061888	64	3957
2026-01-04 05:40:46.25	34.30	10.40	-48.8	-50.1	14.7	0.00e+00	0	28	0	455081984	63	4251
2026-01-04 05:40:50.24	33.90	10.69	-48.5	-49.7	14.9	0.00e+00	0	28	0	478150656	63	4081
2026-01-04 05:40:54.22	33.50	10.99	-48.5	-49.8	14.9	0.00e+00	0	28	0	500170752	63	4100
2026-01-04 05:40:58.20	33.09	11.29	-48.4	-49.6	14.9	0.00e+00	0	28	0	523239424	63	4033
2026-01-04 05:41:02.18	32.67	11.59	-48.3	-49.5	15.0	0.00e+00	0	29	0	545259520	63	3980
2026-01-04 05:41:06.19	32.23	11.90	-48.2	-49.4	15.0	0.00e+00	0	29	0	567279616	63	3946
2026-01-04 05:41:10.20	31.79	12.21	-48.3	-49.5	15.0	0.00e+00	0	29	0	590348288	63	3993
2026-01-04 05:41:14.19	31.34	12.52	-48.3	-49.5	15.0	0.00e+00	0	28	0	612368384	63	3996
2026-01-04 05:41:18.17	30.88	12.83	-48.1	-49.4	14.9	0.00e+00	0	28	0	635437056	62	4149
2026-01-04 05:41:22.17	30.41	13.14	-48.2	-49.4	14.9	0.00e+00	0	29	0	657457152	62	4176
2026-01-04 05:41:26.16	29.93	13.46	-48.1	-49.3	14.9	0.00e+00	0	29	0	680525824	62	4134
2026-01-04 05:41:30.15	29.44	13.78	-47.8	-49.0	15.1	0.00e+00	0	29	0	702545920	62	3960
2026-01-04 05:41:34.12	28.94	14.10	-47.9	-49.1	15.0	0.00e+00	0	29	0	724566016	62	4007
2026-01-04 05:41:38.10	28.43	14.42	-47.8	-48.9	15.1	0.00e+00	0	29	0	747634688	62	3944
2026-01-04 05:41:42.09	27.91	14.74	-47.5	-48.7	15.1	0.00e+00	0	29	0	769654784	61	4054
2026-01-04 05:41:46.09	27.37	15.07	-47.4	-48.5	15.1	0.00e+00	0	29	0	792723456	61	3991
2026-01-04 05:41:50.08	26.82	15.40	-47.3	-48.4	15.1	0.00e+00	0	29	0	814743552	61	3957
2026-01-04 05:41:54.08	26.26	15.73	-47.2	-48.3	15.1	0.00e+00	0	28	0	836763648	60	4136
2026-01-04 05:41:58.06	25.69	16.06	-47.3	-48.4	15.1	0.00e+00	0	29	0	859832320	60	4167
2026-01-04 05:42:02.06	25.10	16.39	-47.0	-48.1	15.2	0.00e+00	0	29	0	881852416	60	4028
2026-01-04 05:42:06.06	24.50	16.72	-47.0	-48.1	15.2	0.00e+00	0	29	0	904921088	60	4040
2026-01-04 05:42:10.07	23.88	17.06	-46.9	-48.0	15.2	0.00e+00	0	29	0	926941184	60	3989
2026-01-04 05:42:14.06	23.25	17.40	-46.9	-48.0	15.2	0.00e+00	0	29	0	950009856	60	4000
2026-01-04 05:42:18.05	22.61	17.73	-46.8	-47.9	15.2	0.00e+00	0	29	0	972029952	60	3954
2026-01-04 05:42:22.04	21.95	18.07	-47.0	-48.1	15.1	0.00e+00	0	29	0	994050048	59	4265
2026-01-04 05:42:26.03	21.28	18.41	-47.0	-48.1	15.1	0.00e+00	0	29	0	1017118720	59	4291
2026-01-04 05:42:30.02	20.59	18.75	-46.9	-48.0	15.1	0.00e+00	0	29	0	1039138816	59	4222
2026-01-04 05:42:34.01	19.89	19.09	-46.8	-47.9	15.2	0.00e+00	0	29	0	1062207488	59	4153
2026-01-04 05:42:37.99	19.17	19.43	-46.6	-47.7	15.2	0.00e+00	0	29	0	1084227584	59	4057
2026-01-04 05:42:41.98	18.43	19.76	-47.0	-48.2	15.1	0.00e+00	0	29	0	1106247680	59	4296
2026-01-04 05:42:45.98	17.68	20.10	-46.9	-48.0	15.2	0.00e+00	0	29	0	1129316352	59	4210
2026-01-04 05:42:49.98	16.90	20.44	-46.7	-47.8	15.2	0.00e+00	0	29	0	1151336448	59	4144
2026-01-04 05:42:53.97	16.12	20.78	-46.8	-47.9	15.2	0.00e+00	0	29	0	1174405120	59	4158
2026-01-04 05:42:57.97	15.31	21.11	-46.6	-47.7	15.2	0.00e+00	0	29	0	1196425216	59	4088
2026-01-04 05:43:01.96	14.49	21.45	-46.4	-47.5	15.3	0.00e+00	0	29	0	1219493888	59	3969
2026-01-04 05:43:05.95	13.64	21.78	-46.3	-47.4	15.3	0.00e+00	0	29	0	1241513984	59	3938
2026-01-04 05:43:09.93	12.79	22.10	-46.1	-47.2	15.3	0.00e+00	0	29	0	1263534080	58	4052
2026-01-04 05:43:13.92	11.91	22.43	-46.2	-47.3	15.2	0.00e+00	0	29	0	1286602752	58	4121
2026-01-04 05:43:17.91	11.01	22.75	-46.4	-47.5	15.2	0.00e+00	0	29	0	1308622848	58	4207
2026-01-04 05:43:21.92	10.09	23.07	-46.2	-47.3	15.2	0.00e+00	0	29	0	1331691520	58	4133
2026-01-04 05:43:25.92	9.15	23.39	-46.1	-47.2	15.3	0.00e+00	0	29	0	1353711616	58	4076
2026-01-04 05:43:29.92	8.20	23.70	-46.2	-47.3	15.2	0.00e+00	0	29	0	1376780288	58	4104
2026-01-04 05:43:33.89	7.23	24.00	-46.0	-47.1	15.3	0.00e+00	0	29	0	1398800384	58	4023
2026-01-04 05:43:37.89	6.24	24.30	-46.1	-47.2	15.3	0.00e+00	0	29	0	1420820480	58	4073
2026-01-04 05:43:41.88	5.22	24.59	-46.0	-47.1	15.3	0.00e+00	0	29	0	1443889152	58	4014
2026-01-04 05:43:45.88	4.19	24.88	-46.0	-47.0	15.3	0.00e+00	0	29	0	1465909248	58	4002
2026-01-04 05:43:49.87	3.14	25.16	-46.1	-47.1	15.3	0.00e+00	0	29	0	1488977920	58	4045
2026-01-04 05:43:53.88	2.07	25.43	-45.7	-46.8	15.4	0.00e+00	0	29	0	1510998016	58	3887
2026-01-04 05:43:57.87	0.98	25.69	-45.7	-46.8	15.3	0.00e+00	0	29	0	1534066688	57	4104
2026-01-04 05:44:01.86	359.88	25.94	-45.9	-47.0	15.2	0.00e+00	0	29	0	1556086784	57	4218
2026-01-04 05:44:05.85	358.76	26.19	-45.8	-46.9	15.3	0.00e+00	0	29	0	1578106880	57	4158
2026-01-04 05:44:09.83	357.62	26.42	-45.7	-46.7	15.3	0.00e+00	0	29	0	1601175552	57	4080
2026-01-04 05:44:13.81	356.47	26.64	-45.8	-46.8	15.3	0.00e+00	0	29	0	1623195648	57	4127
2026-01-04 05:44:17.81	355.29	26.85	-45.5	-46.5	15.4	0.00e+00	0	29	0	1646264320	57	3979
2026-01-04 05:44:21.80	354.11	27.05	-45.7	-46.7	15.3	0.00e+00	0	29	0	1668284416	57	4092
2026-01-04 05:44:25.78	352.91	27.24	-45.6	-46.7	15.3	0.00e+00	0	29	0	1690304512	57	4056
2026-01-04 05:44:29.76	351.70	27.41	-45.7	-46.7	15.3	0.00e+00	0	29	0	1713373184	57	4092
2026-01-04 05:44:33.74	350.47	27.57	-45.4	-46.4	15.4	0.00e+00	0	29	0	1735393280	57	3948
2026-01-04 05:44:37.72	349.24	27.72	-45.4	-46.5	15.4	0.00e+00	0	29	0	1757413376	57	3963
2026-01-04 05:44:41.70	347.99	27.85	-45.3	-46.3	15.4	0.00e+00	0	28	0	1780482048	57	3894
2026-01-04 05:44:45.69	346.73	27.97	-45.4	-46.4	15.4	0.00e+00	0	28	0	1802502144	57	3946
2026-01-04 05:44:49.69	345.45	28.07	-45.4	-46.4	15.4	0.00e+00	0	29	0	1824522240	57	3938
2026-01-04 05:44:53.69	344.17	28.16	-45.3	-46.3	15.4	0.00e+00	0	29	0	1847590912	57	3895
2026-01-04 05:44:57.69	342.89	28.23	-45.0	-46.1	15.4	0.00e+00	0	29	0	1869611008	56	4009
2026-01-04 05:45:01.68	341.60	28.29	-45.1	-46.1	15.4	0.00e+00	0	29	0	1892679680	56	4026
2026-01-04 05:45:05.67	340.30	28.33	-45.3	-46.3	15.3	0.00e+00	0	29	0	1914699776	56	4119
2026-01-04 05:45:09.67	339.00	28.35	-45.3	-46.3	15.3	0.00e+00	0	29	0	1937768448	56	4121
2026-01-04 05:45:13.67	337.70	28.35	-45.3	-46.4	15.3	0.00e+00	0	29	0	1959788544	56	4158
2026-01-04 05:45:17.66	336.41	28.34	-45.2	-46.2	15.3	0.00e+00	0	29	0	1982857216	56	4081
2026-01-04 05:45:21.65	335.11	28.32	-45.1	-46.2	15.3	0.00e+00	0	29	0	2004877312	56	4060
2026-01-04 05:45:25.65	333.82	28.28	-45.2	-46.2	15.3	0.00e+00	0	29	0	2026897408	56	4080
2026-01-04 05:45:29.65	332.53	28.22	-45.2	-46.2	15.3	0.00e+00	0	29	0	2049966080	56	4091
2026-01-04 05:45:33.63	331.25	28.14	-45.3	-46.3	15.3	0.00e+00	0	29	0	2071986176	56	4124
2026-01-04 05:45:37.61	329.97	28.05	-45.4	-46.4	15.3	0.00e+00	0	29	0	2095054848	56	4182
2026-01-04 05:45:41.60	328.70	27.95	-45.2	-46.2	15.3	0.00e+00	0	29	0	2117074944	56	4072
2026-01-04 05:45:45.59	327.44	27.83	-45.3	-46.3	15.3	0.00e+00	0	29	0	2139095040	56	4130
2026-01-04 05:45:49.58	326.19	27.69	-45.3	-46.3	15.3	0.00e+00	0	29	0	2162163712	56	4104
2026-01-04 05:45:53.58	324.95	27.54	-45.4	-46.4	15.3	0.00e+00	0	29	0	2184183808	56	4180
2026-01-04 05:45:57.59	323.72	27.38	-45.3	-46.3	15.3	0.00e+00	0	29	0	2207252480	56	4122
2026-01-04 05:46:01.59	322.50	27.20	-45.1	-46.1	15.4	0.00e+00	0	29	0	2229272576	56	4050
2026-01-04 05:46:05.58	321.30	27.01	-45.2	-46.2	15.3	0.00e+00	0	29	0	2252341248	56	4094
2026-01-04 05:46:09.58	320.12	26.81	-45.5	-46.5	15.2	0.00e+00	0	29	0	2274361344	56	4227
2026-01-04 05:46:13.57	318.95	26.59	-45.5	-46.5	15.3	0.00e+00	0	29	0	2297430016	56	4242
2026-01-04 05:46:17.57	317.79	26.37	-45.4	-46.4	15.3	0.00e+00	0	29	0	2319450112	56	4161
2026-01-04 05:46:21.57	316.65	26.13	-45.4	-46.5	15.3	0.00e+00	0	29	0	2341470208	56	4198
2026-01-04 05:46:25.56	315.53	25.88	-45.5	-46.6	15.3	0.00e+00	0	29	0	2364538880	56	4253
2026-01-04 05:46:29.54	314.43	25.63	-45.4	-46.4	15.3	0.00e+00	0	29	0	2386558976	56	4170
2026-01-04 05:46:33.52	313.35	25.36	-45.7	-46.7	15.2	0.00e+00	0	29	0	2409627648	56	4339
2026-01-04 05:46:37.51	312.29	25.09	-45.9	-47.0	15.2	0.00e+00	0	29	0	2431647744	57	4200
2026-01-04 05:46:41.50	311.24	24.81	-45.8	-46.9	15.3	0.00e+00	0	29	0	2453667840	57	4147
2026-01-04 05:46:45.48	310.22	24.52	-45.8	-46.8	15.3	0.00e+00	0	29	0	2476736512	57	4145
2026-01-04 05:46:49.45	309.21	24.23	-45.9	-47.0	15.2	0.00e+00	0	29	0	2498756608	57	4197
2026-01-04 05:46:53.46	308.22	23.93	-45.9	-47.0	15.2	0.00e+00	0	29	0	2520776704	57	4201
2026-01-04 05:46:57.45	307.25	23.62	-45.7	-46.7	15.3	0.00e+00	0	29	0	2543845376	57	4093
2026-01-04 05:47:01.46	306.29	23.31	-46.2	-47.3	15.2	0.00e+00	0	29	0	2565865472	57	4358
2026-01-04 05:47:05.45	305.36	23.00	-46.0	-47.0	15.2	0.00e+00	0	29	0	2588934144	57	4241
2026-01-04 05:47:09.44	304.45	22.68	-46.2	-47.3	15.2	0.00e+00	0	29	0	2610954240	57	4361
2026-01-04 05:47:13.44	303.55	22.35	-46.3	-47.4	15.2	0.00e+00	0	29	0	2634022912	57	4393
2026-01-04 05:47:17.43	302.68	22.02	-46.3	-47.3	15.3	0.00e+00	0	29	0	2656043008	58	4136
2026-01-04 05:47:21.42	301.82	21.69	-46.7	-47.8	15.1	0.00e+00	0	29	0	2678063104	58	4352
2026-01-04 05:47:25.42	300.98	21.36	-46.8	-47.9	15.1	0.00e+00	0	29	0	2701131776	58	4398
2026-01-04 05:47:29.41	300.16	21.03	-46.8	-47.9	15.1	0.00e+00	0	29	0	2723151872	58	4403
2026-01-04 05:47:33.40	299.35	20.69	-46.9	-48.0	15.2	0.00e+00	0	29	0	2746220544	59	4230
2026-01-04 05:47:37.38	298.57	20.36	-46.7	-47.7	15.2	0.00e+00	0	29	0	2768240640	59	4094
2026-01-04 05:47:41.37	297.80	20.02	-46.9	-47.9	15.2	0.00e+00	0	29	0	2791309312	59	4191
2026-01-04 05:47:45.36	297.05	19.68	-47.0	-48.1	15.1	0.00e+00	0	29	0	2813329408	59	4271
2026-01-04 05:47:49.36	296.31	19.34	-46.9	-48.0	15.2	0.00e+00	0	29	0	2835349504	59	4201
2026-01-04 05:47:53.35	295.60	19.00	-47.0	-48.1	15.2	0.00e+00	0	29	0	2858418176	59	4245
2026-01-04 05:47:57.35	294.89	18.66	-47.0	-48.1	15.1	0.00e+00	0	29	0	2880438272	59	4273
2026-01-04 05:48:01.35	294.20	18.32	-47.3	-48.4	15.1	0.00e+00	0	29	0	2903506944	59	4428
2026-01-04 05:48:05.35	293.53	17.98	-47.1	-48.2	15.2	0.00e+00	0	29	0	2925527040	60	4095
2026-01-04 05:48:09.35	292.87	17.64	-47.3	-48.4	15.1	0.00e+00	0	29	0	2947547136	60	4179
2026-01-04 05:48:13.34	292.23	17.30	-47.2	-48.4	15.1	0.00e+00	0	29	0	2970615808	60	4151
2026-01-04 05:48:17.35	291.60	16.96	-47.2	-48.3	15.1	0.00e+00	0	29	0	2992635904	60	4136
2026-01-04 05:48:21.34	290.99	16.63	-47.3	-48.5	15.1	0.00e+00	0	29	0	3015704576	60	4195
2026-01-04 05:48:25.34	290.39	16.29	-47.3	-48.5	15.1	0.00e+00	0	29	0	3037724672	60	4197
2026-01-04 05:48:29.34	289.80	15.96	-47.6	-48.7	15.0	0.00e+00	0	29	0	3060793344	60	4333
2026-01-04 05:48:33.33	289.23	15.63	-47.6	-48.7	15.0	0.00e+00	0	29	0	3082813440	60	4336
2026-01-04 05:48:37.32	288.67	15.30	-47.8	-49.0	15.0	0.00e+00	0	29	0	3105882112	60	4455
2026-01-04 05:48:41.30	288.13	14.97	-47.8	-48.9	15.0	0.00e+00	0	29	0	3127902208	60	4433
2026-01-04 05:48:45.29	287.59	14.65	-48.1	-49.3	14.9	0.00e+00	0	29	0	3149922304	61	4362
2026-01-04 05:48:49.28	287.07	14.32	-48.1	-49.3	14.9	0.00e+00	0	29	0	3172990976	61	4352
2026-01-04 05:48:53.27	286.56	14.00	-48.1	-49.2	15.0	0.00e+00	0	29	0	3195011072	61	4326
2026-01-04 05:48:57.25	286.06	13.68	-48.1	-49.3	14.9	0.00e+00	0	29	0	3217031168	61	4363
2026-01-04 05:49:01.24	285.57	13.36	-48.1	-49.3	14.9	0.00e+00	0	29	0	3240099840	61	4351
2026-01-04 05:49:05.24	285.09	13.05	-48.1	-49.3	14.9	0.00e+00	0	29	0	3262119936	61	4360
2026-01-04 05:49:09.22	284.62	12.73	-48.4	-49.6	14.8	0.00e+00	0	29	0	3285188608	61	4508
2026-01-04 05:49:13.23	284.16	12.42	-48.4	-49.6	14.9	0.00e+00	0	29	0	3307208704	62	4291
2026-01-04 05:49:17.23	283.71	12.11	-48.6	-49.8	14.8	0.00e+00	0	29	0	3330277376	62	4375
2026-01-04 05:49:21.23	283.27	11.80	-48.8	-50.0	14.8	0.00e+00	0	29	0	3352297472	62	4468
2026-01-04 05:49:25.23	282.84	11.49	-48.8	-50.1	14.7	0.00e+00	0	29	0	3375366144	62	4504
2026-01-04 05:49:29.22	282.42	11.19	-48.7	-49.9	14.8	0.00e+00	0	29	0	3397386240	62	4413
2026-01-04 05:49:33.22	282.00	10.89	-48.8	-50.1	14.7	0.00e+00	0	29	0	3419406336	62	4501
2026-01-04 05:49:37.20	281.60	10.59	-48.9	-50.1	14.8	0.00e+00	0	29	0	3442475008	63	4291
2026-01-04 05:49:41.19	281.21	10.29	-49.1	-50.4	14.7	0.00e+00	0	29	0	3464495104	63	4401
2026-01-04 05:49:45.16	280.82	10.00	-49.2	-50.4	14.7	0.00e+00	0	29	0	3487563776	63	4424
2026-01-04 05:49:49.14	280.44	9.71	-49.1	-50.4	14.7	0.00e+00	0	29	0	3509583872	63	4412
2026-01-04 05:49:53.11	280.07	9.42	-49.1	-50.4	14.7	0.00e+00	0	29	0	3531603968	63	4398
2026-01-04 05:49:57.11	279.71	9.13	-49.2	-50.5	14.7	0.00e+00	0	29	0	3554672640	64	4220
2026-01-04 05:50:01.10	279.35	8.85	-49.3	-50.6	14.7	0.00e+00	0	29	0	3576692736	64	4260
2026-01-04 05:50:05.10	279.00	8.56	-49.1	-50.4	14.8	0.00e+00	0	29	0	3598712832	64	4149
2026-01-04 05:50:09.09	278.66	8.28	-49.2	-50.5	14.7	0.00e+00	0	29	0	3621781504	64	4241
2026-01-04 05:50:13.08	278.32	8.00	-49.3	-50.6	14.6	0.00e+00	0	29	0	3643801600	64	4273
2026-01-04 05:50:17.08	277.99	7.73	-49.4	-50.7	14.6	0.00e+00	0	29	0	3666870272	64	4300
2026-01-04 05:50:21.07	277.67	7.45	-49.5	-50.8	14.5	0.00e+00	0	29	0	3688890368	64	4377
2026-01-04 05:50:25.06	277.36	7.18	-49.4	-50.7	14.5	0.00e+00	0	29	0	3711959040	64	4339
2026-01-04 05:50:29.06	277.04	6.91	-49.5	-50.8	14.5	0.00e+00	0	29	0	3733979136	64	4380
2026-01-04 05:50:33.04	276.74	6.64	-49.7	-51.0	14.4	0.00e+00	0	29	0	3755999232	64	4490
2026-01-04 05:50:37.02	276.44	6.37	-49.7	-51.0	14.5	0.00e+00	0	29	0	3779067904	65	4238
2026-01-04 05:50:41.01	276.15	6.11	-49.8	-51.2	14.4	0.00e+00	0	29	0	3801088000	65	4326
2026-01-04 05:50:45.00	275.86	5.84	-49.8	-51.1	14.4	0.00e+00	0	29	0	3823108096	65	4289
2026-01-04 05:50:48.97	275.58	5.58	-50.3	-51.7	14.2	0.00e+00	0	29	0	3846176768	65	4590
2026-01-04 05:50:52.95	275.31	5.33	-50.2	-51.6	14.2	0.00e+00	0	29	0	3868196864	65	4539
2026-01-04 05:50:56.95	275.03	5.07	-50.2	-51.7	14.2	0.00e+00	0	29	0	3890216960	66	4324
2026-01-04 05:51:00.95	274.77	4.81	-59.5	-72.6	3.8	8.47e-01	0	29	104	3900702720	84	16903
2026-01-04 05:51:04.95	274.50	4.56	-60.5	-73.6	3.8	8.45e-01	0	29	104	3900702720	86	17037
2026-01-04 05:51:08.94	274.25	4.31	-61.0	-74.1	3.8	8.45e-01	0	29	104	3900702720	87	16966
2026-01-04 05:51:12.95	273.99	4.06	-61.3	-74.4	3.8	8.46e-01	0	29	104	3900702720	87	17533
2026-01-04 05:51:16.96	273.74	3.81	-61.5	-74.6	3.8	8.46e-01	0	29	104	3900702720	88	16961
2026-01-04 05:51:20.96	273.50	3.56	-61.4	-74.6	3.8	8.46e-01	0	29	104	3900702720	88	16888
2026-01-04 05:51:24.96	273.26	3.31	-61.3	-74.4	3.8	8.45e-01	0	29	104	3900702720	88	16600
2026-01-04 05:51:28.95	273.02	3.07	-61.2	-74.3	3.8	8.47e-01	0	29	104	3900702720	88	16324
2026-01-04 05:51:32.94	272.79	2.83	-61.1	-74.2	3.8	8.46e-01	0	29	104	3900702720	88	16226
2026-01-04 05:51:36.94	272.56	2.59	-61.1	-74.2	3.8	8.46e-01	0	29	104	3900702720	88	16179
2026-01-04 05:51:40.92	272.34	2.35	-61.1	-74.2	3.8	8.46e-01	0	29	104	3900702720	88	16180
2026-01-04 05:51:44.89	272.12	2.12	-61.0	-74.2	3.9	8.46e-01	0	29	104	3900702720	88	16142
2026-01-04 05:51:48.88	271.90	1.88	-61.0	-74.1	3.8	8.46e-01	0	29	104	3900702720	88	15977

#Closed at: 2026-01-04 05:51:49
#Recorded file [3900 MB]: D:/lorett/data/31004_260104_083838.dat