passes_logs/2026/01/04/R3.2S_Murmansk/R3.2S_Murmansk__20260104_233902_NOAA_20_JPSS-1_rec.log

#Pass ID: 20260104_233902_NOAA 20 (JPSS-1)
#Satellite: NOAA 20 (JPSS-1)
#Configuration: NOAA 20
#almurnet v.1.7.20251203
#Start time: 2026-01-04 23:39:02

#Version: 2.2.20231116
#Station: R3.2S_Murmansk
#Location: 33.079688 lon 68.888172 lat
#TLE: 1 43013U 17073A   26004.47528369  .00000132  00000+0  83671-4 0  9999
#TLE: 2 43013  98.7626 305.5264 0001854  54.5883 305.5466 14.19533142421242

#Time	Az	El	Level	Level2	SNR	BER	BlckErr	Temp	State	Recorded	gain1	gain2
2026-01-04 23:39:02.32	21.24	2.00	-58.4	-74.2	3.8	1.49e+00	0	26	0	0	83	21680
2026-01-04 23:39:06.36	21.37	2.25	-58.4	-73.4	3.8	1.49e+00	0	26	104	0	81	22151
2026-01-04 23:39:10.39	21.51	2.50	-58.4	-73.0	3.8	1.49e+00	0	26	104	0	81	21220
2026-01-04 23:39:14.43	21.64	2.76	-58.4	-72.9	3.8	1.49e+00	0	26	104	0	81	20964
2026-01-04 23:39:18.46	21.78	3.01	-58.3	-71.6	4.0	1.47e+00	0	26	0	0	81	17934
2026-01-04 23:39:22.50	21.92	3.28	-58.2	-70.1	4.5	1.29e+00	43	26	0	1048576	81	15071
2026-01-04 23:39:26.53	22.06	3.54	-58.2	-70.1	4.4	1.29e+00	66	26	0	8388608	81	15176
2026-01-04 23:39:30.57	22.21	3.80	-57.8	-66.5	6.2	3.05e-01	0	26	0	15728640	81	10059
2026-01-04 23:39:34.61	22.35	4.07	-57.0	-62.7	9.4	6.67e-03	0	26	0	23068672	80	6844
2026-01-04 23:39:38.64	22.50	4.34	-56.1	-60.3	11.3	7.62e-05	0	27	0	30408704	78	5809
2026-01-04 23:39:42.66	22.65	4.61	-56.3	-60.9	10.9	1.17e-04	0	27	0	38797312	78	6210
2026-01-04 23:39:46.70	22.80	4.89	-57.1	-63.3	8.9	8.02e-03	0	27	0	46137344	79	7783
2026-01-04 23:39:50.73	22.96	5.16	-56.2	-60.5	11.3	6.56e-05	0	27	0	53477376	79	5626
2026-01-04 23:39:54.77	23.12	5.44	-55.8	-59.5	11.9	8.42e-01	0	27	0	60817408	78	5316
2026-01-04 23:39:58.80	23.28	5.73	-54.9	-57.9	12.9	7.00e-07	0	27	0	68157440	76	4974
2026-01-04 23:40:02.83	23.44	6.01	-54.6	-57.5	13.1	0.00e+00	0	27	0	75497472	75	4991
2026-01-04 23:40:06.86	23.61	6.30	-54.4	-57.2	13.3	0.00e+00	0	27	0	83886080	75	4835
2026-01-04 23:40:10.90	23.78	6.59	-54.5	-57.2	13.2	0.00e+00	0	27	0	91226112	75	4862
2026-01-04 23:40:14.93	23.95	6.89	-54.2	-56.7	13.4	0.00e+00	0	27	0	98566144	74	4866
2026-01-04 23:40:18.97	24.13	7.19	-54.4	-57.0	13.3	0.00e+00	0	27	0	105906176	74	5028
2026-01-04 23:40:23.01	24.31	7.49	-54.2	-56.7	13.5	0.00e+00	0	27	0	113246208	74	4867
2026-01-04 23:40:27.04	24.49	7.80	-54.2	-56.7	13.5	0.00e+00	0	27	0	121634816	74	4869
2026-01-04 23:40:31.08	24.68	8.11	-54.1	-56.6	13.6	0.00e+00	0	27	0	128974848	74	4776
2026-01-04 23:40:35.11	24.87	8.42	-54.0	-56.5	13.7	0.00e+00	0	27	0	136314880	74	4715
2026-01-04 23:40:39.15	25.06	8.74	-53.9	-56.3	13.8	0.00e+00	0	27	0	143654912	74	4604
2026-01-04 23:40:43.18	25.26	9.06	-53.8	-56.1	13.9	0.00e+00	0	27	0	152043520	74	4529
2026-01-04 23:40:47.22	25.46	9.38	-53.7	-56.0	13.9	0.00e+00	0	27	0	159383552	74	4484
2026-01-04 23:40:51.26	25.67	9.71	-53.6	-55.9	13.9	0.00e+00	0	27	0	166723584	73	4655
2026-01-04 23:40:55.28	25.88	10.04	-53.6	-55.8	14.0	0.00e+00	0	27	0	174063616	73	4617
2026-01-04 23:40:59.31	26.09	10.38	-53.5	-55.6	14.0	0.00e+00	0	27	0	181403648	73	4544
2026-01-04 23:41:03.34	26.31	10.72	-53.3	-55.5	14.1	0.00e+00	0	27	0	189792256	73	4457
2026-01-04 23:41:07.38	26.54	11.06	-53.2	-55.3	14.2	0.00e+00	0	27	0	197132288	73	4374
2026-01-04 23:41:11.42	26.77	11.41	-53.1	-55.1	14.2	0.00e+00	0	27	0	204472320	72	4500
2026-01-04 23:41:15.46	27.00	11.77	-52.9	-54.8	14.4	0.00e+00	0	27	0	211812352	72	4380
2026-01-04 23:41:19.49	27.24	12.13	-52.8	-54.7	14.4	0.00e+00	0	28	0	220200960	72	4311
2026-01-04 23:41:23.52	27.48	12.49	-52.5	-54.3	14.5	0.00e+00	0	28	0	227540992	71	4391
2026-01-04 23:41:27.55	27.73	12.86	-52.5	-54.3	14.5	0.00e+00	0	27	0	234881024	71	4356
2026-01-04 23:41:31.58	27.99	13.23	-52.3	-54.0	14.6	0.00e+00	0	27	0	242221056	71	4232
2026-01-04 23:41:35.61	28.25	13.61	-52.3	-54.1	14.6	0.00e+00	0	27	0	249561088	71	4252
2026-01-04 23:41:39.65	28.52	14.00	-52.2	-54.0	14.5	0.00e+00	0	28	0	257949696	70	4454
2026-01-04 23:41:43.68	28.79	14.39	-52.2	-54.0	14.6	0.00e+00	0	28	0	265289728	70	4443
2026-01-04 23:41:47.71	29.08	14.79	-52.2	-53.9	14.5	0.00e+00	0	28	0	272629760	70	4429
2026-01-04 23:41:51.75	29.37	15.19	-52.1	-53.8	14.6	0.00e+00	0	28	0	279969792	70	4391
2026-01-04 23:41:55.78	29.66	15.60	-52.1	-53.9	14.6	0.00e+00	0	27	0	287309824	70	4396
2026-01-04 23:41:59.81	29.97	16.01	-52.1	-53.8	14.6	0.00e+00	0	27	0	295698432	70	4368
2026-01-04 23:42:03.84	30.28	16.43	-52.0	-53.7	14.7	0.00e+00	0	28	0	303038464	70	4316
2026-01-04 23:42:07.87	30.60	16.86	-51.9	-53.5	14.7	0.00e+00	0	28	0	310378496	70	4240
2026-01-04 23:42:11.91	30.93	17.30	-51.8	-53.4	14.8	0.00e+00	0	28	0	317718528	70	4185
2026-01-04 23:42:15.94	31.27	17.74	-51.6	-53.3	14.8	0.00e+00	0	28	0	325058560	69	4345
2026-01-04 23:42:19.98	31.62	18.19	-51.8	-53.4	14.7	0.00e+00	0	28	0	333447168	69	4423
2026-01-04 23:42:24.00	31.97	18.64	-52.1	-53.8	14.5	0.00e+00	0	27	0	340787200	69	4606
2026-01-04 23:42:28.03	32.34	19.11	-52.2	-53.9	14.5	0.00e+00	0	28	0	348127232	69	4674
2026-01-04 23:42:32.06	32.72	19.58	-52.0	-53.7	14.5	0.00e+00	0	27	0	355467264	69	4587
2026-01-04 23:42:36.09	33.11	20.06	-52.1	-53.8	14.6	0.00e+00	0	27	0	362807296	69	4623
2026-01-04 23:42:40.13	33.52	20.55	-52.1	-53.8	14.5	0.00e+00	0	28	0	371195904	69	4640
2026-01-04 23:42:44.16	33.93	21.05	-52.1	-53.8	14.5	0.00e+00	0	28	0	378535936	69	4641
2026-01-04 23:42:48.20	34.36	21.55	-52.1	-53.7	14.6	0.00e+00	0	28	0	385875968	69	4589
2026-01-04 23:42:52.24	34.80	22.07	-52.2	-53.9	14.5	0.00e+00	0	28	0	393216000	69	4705
2026-01-04 23:42:56.27	35.26	22.59	-52.1	-53.8	14.6	0.00e+00	0	28	0	401604608	69	4632
2026-01-04 23:43:00.31	35.73	23.12	-51.9	-53.6	14.7	0.00e+00	0	28	0	408944640	69	4515
2026-01-04 23:43:04.34	36.22	23.66	-51.9	-53.5	14.7	0.00e+00	0	27	0	416284672	69	4462
2026-01-04 23:43:08.38	36.73	24.21	-52.1	-53.8	14.6	0.00e+00	0	28	0	423624704	69	4616
2026-01-04 23:43:12.41	37.25	24.77	-52.4	-54.1	14.5	0.00e+00	0	28	0	430964736	69	4786
2026-01-04 23:43:16.45	37.79	25.34	-52.4	-54.1	14.6	0.00e+00	0	28	0	439353344	70	4509
2026-01-04 23:43:20.49	38.35	25.92	-52.5	-54.3	14.5	0.00e+00	0	28	0	446693376	70	4601
2026-01-04 23:43:24.53	38.93	26.51	-52.9	-54.7	14.3	0.00e+00	0	28	0	454033408	70	4868
2026-01-04 23:43:28.57	39.53	27.11	-52.8	-54.6	14.4	0.00e+00	0	28	0	461373440	71	4534
2026-01-04 23:43:32.61	40.15	27.72	-52.9	-54.7	14.4	0.00e+00	0	28	0	469762048	71	4560
2026-01-04 23:43:36.64	40.80	28.34	-53.2	-55.1	14.3	0.00e+00	0	28	0	477102080	71	4785
2026-01-04 23:43:40.67	41.47	28.97	-53.6	-55.6	14.1	0.00e+00	0	28	0	484442112	72	4811
2026-01-04 23:43:44.70	42.17	29.61	-54.2	-56.4	13.9	0.00e+00	0	28	0	491782144	73	4967
2026-01-04 23:43:48.74	42.90	30.26	-54.6	-57.0	13.7	0.00e+00	0	28	0	499122176	74	4994
2026-01-04 23:43:52.78	43.66	30.92	-55.0	-57.6	13.5	0.00e+00	0	28	0	507510784	75	5060
2026-01-04 23:43:56.82	44.44	31.59	-54.7	-57.1	13.8	0.00e+00	0	28	0	514850816	75	4774
2026-01-04 23:44:00.85	45.26	32.27	-54.2	-56.4	14.1	0.00e+00	0	28	0	522190848	75	4426
2026-01-04 23:44:04.88	46.11	32.96	-53.9	-56.0	14.2	0.00e+00	0	28	0	529530880	74	4483
2026-01-04 23:44:08.92	47.01	33.66	-53.3	-55.1	14.5	0.00e+00	0	28	0	537919488	73	4286
2026-01-04 23:44:12.94	47.93	34.36	-53.0	-54.8	14.5	0.00e+00	0	28	0	545259520	72	4382
2026-01-04 23:44:16.98	48.90	35.08	-52.4	-54.1	14.7	0.00e+00	0	28	0	552599552	71	4265
2026-01-04 23:44:21.01	49.91	35.80	-52.5	-54.2	14.6	0.00e+00	0	28	0	559939584	70	4554
2026-01-04 23:44:25.04	50.97	36.53	-52.8	-54.5	14.5	0.00e+00	0	28	0	567279616	71	4476
2026-01-04 23:44:29.07	52.07	37.26	-52.1	-53.7	14.8	0.00e+00	0	28	0	575668224	70	4322
2026-01-04 23:44:33.10	53.22	37.99	-51.5	-53.1	14.9	0.00e+00	0	28	0	583008256	69	4244
2026-01-04 23:44:37.14	54.43	38.73	-52.1	-53.7	14.6	0.00e+00	0	28	0	590348288	69	4591
2026-01-04 23:44:41.18	55.70	39.48	-52.4	-54.1	14.6	0.00e+00	0	28	0	597688320	70	4507
2026-01-04 23:44:45.22	57.02	40.22	-52.1	-53.7	14.7	0.00e+00	0	28	0	605028352	70	4338
2026-01-04 23:44:49.26	58.40	40.96	-53.1	-54.9	14.4	0.00e+00	0	28	0	613416960	71	4673
2026-01-04 23:44:53.29	59.85	41.69	-52.9	-54.6	14.5	0.00e+00	0	28	0	620756992	71	4530
2026-01-04 23:44:57.33	61.36	42.43	-53.4	-55.3	14.3	0.00e+00	0	28	0	628097024	72	4636
2026-01-04 23:45:01.36	62.94	43.15	-52.6	-54.3	14.7	0.00e+00	0	28	0	635437056	71	4353
2026-01-04 23:45:05.39	64.59	43.86	-53.4	-55.3	14.2	0.00e+00	0	28	0	642777088	71	4878
2026-01-04 23:45:09.42	66.31	44.55	-52.5	-54.1	14.7	0.00e+00	0	28	0	651165696	71	4274
2026-01-04 23:45:13.46	68.11	45.23	-53.1	-54.9	14.4	0.00e+00	0	28	0	658505728	71	4702
2026-01-04 23:45:17.50	69.99	45.89	-52.6	-54.3	14.6	0.00e+00	0	28	0	665845760	71	4360
2026-01-04 23:45:21.53	71.95	46.52	-53.4	-55.3	14.3	0.00e+00	0	28	0	673185792	72	4599
2026-01-04 23:45:25.57	73.98	47.13	-53.0	-54.7	14.6	0.00e+00	0	28	0	681574400	72	4337
2026-01-04 23:45:29.61	76.10	47.71	-53.8	-55.8	14.2	0.00e+00	0	28	0	688914432	73	4622
2026-01-04 23:45:33.64	78.28	48.25	-53.6	-55.5	14.4	0.00e+00	0	28	0	696254464	73	4459
2026-01-04 23:45:37.68	80.55	48.75	-54.2	-56.3	14.0	0.00e+00	0	28	0	703594496	73	4890
2026-01-04 23:45:41.71	82.88	49.20	-54.2	-56.3	14.1	0.00e+00	0	28	0	710934528	74	4619
2026-01-04 23:45:45.75	85.28	49.61	-54.6	-56.9	13.8	0.00e+00	0	28	0	719323136	74	4971
2026-01-04 23:45:49.79	87.75	49.97	-53.8	-55.7	14.4	0.00e+00	0	28	0	726663168	74	4328
2026-01-04 23:45:53.83	90.26	50.28	-54.3	-56.4	14.0	0.00e+00	0	28	0	734003200	73	4982
2026-01-04 23:45:57.87	92.83	50.53	-52.8	-54.5	14.7	0.00e+00	0	28	0	741343232	72	4224
2026-01-04 23:46:01.89	95.42	50.72	-52.5	-54.2	14.7	0.00e+00	0	28	0	748683264	71	4323
2026-01-04 23:46:05.92	98.04	50.85	-52.4	-54.1	14.8	0.00e+00	0	28	0	757071872	71	4256
2026-01-04 23:46:09.95	100.68	50.91	-52.6	-54.3	14.5	0.00e+00	0	28	0	764411904	70	4649
2026-01-04 23:46:13.99	103.34	50.92	-54.0	-56.1	14.1	0.00e+00	0	28	0	771751936	73	4760
2026-01-04 23:46:18.02	105.98	50.86	-53.6	-55.6	14.3	0.00e+00	0	28	0	779091968	73	4505
2026-01-04 23:46:22.05	108.61	50.74	-53.3	-55.2	14.6	0.00e+00	0	28	0	787480576	73	4304
2026-01-04 23:46:26.08	111.21	50.55	-53.3	-55.2	14.5	0.00e+00	0	28	0	794820608	73	4302
2026-01-04 23:46:30.11	113.77	50.31	-53.2	-55.0	14.5	0.00e+00	0	28	0	802160640	72	4479
2026-01-04 23:46:34.14	116.29	50.01	-55.3	-57.9	13.4	0.00e+00	0	28	0	809500672	75	5274
2026-01-04 23:46:38.18	118.77	49.66	-54.9	-57.3	13.7	0.00e+00	0	28	0	816840704	75	4875
2026-01-04 23:46:42.21	121.17	49.25	-55.2	-57.7	13.6	0.00e+00	0	28	0	825229312	76	4835
2026-01-04 23:46:46.24	123.51	48.80	-56.1	-59.0	13.1	0.00e+00	0	28	0	832569344	78	5011
2026-01-04 23:46:50.27	125.79	48.31	-56.3	-59.4	12.7	0.00e+00	0	28	0	839909376	78	5252
2026-01-04 23:46:54.30	127.98	47.77	-55.0	-57.5	13.6	0.00e+00	0	28	0	847249408	75	4997
2026-01-04 23:46:58.34	130.11	47.20	-54.3	-56.4	14.1	0.00e+00	0	28	0	854589440	75	4436
2026-01-04 23:47:02.38	132.16	46.59	-53.8	-55.8	14.3	0.00e+00	0	28	0	862978048	74	4363
2026-01-04 23:47:06.41	134.12	45.96	-54.4	-56.5	14.1	0.00e+00	0	28	0	870318080	75	4493
2026-01-04 23:47:10.45	136.02	45.30	-54.2	-56.4	14.1	0.00e+00	0	28	0	877658112	74	4665
2026-01-04 23:47:14.48	137.83	44.63	-54.0	-56.0	14.2	0.00e+00	0	28	0	884998144	74	4460
2026-01-04 23:47:18.51	139.56	43.93	-53.7	-55.7	14.2	0.00e+00	0	28	0	892338176	72	4849
2026-01-04 23:47:22.55	141.23	43.22	-52.8	-54.6	14.6	0.00e+00	0	28	0	900726784	72	4245
2026-01-04 23:47:26.59	142.82	42.49	-53.3	-55.2	14.4	0.00e+00	0	28	0	908066816	72	4572
2026-01-04 23:47:30.62	144.34	41.76	-54.2	-56.3	14.0	0.00e+00	0	28	0	915406848	73	4908
2026-01-04 23:47:34.66	145.80	41.02	-54.0	-56.0	14.2	0.00e+00	0	28	0	922746880	74	4468
2026-01-04 23:47:38.69	147.19	40.28	-55.9	-58.9	12.9	0.00e+00	0	28	0	931135488	77	5251
2026-01-04 23:47:42.72	148.52	39.54	-55.9	-58.8	13.1	0.00e+00	0	28	0	938475520	78	4909
2026-01-04 23:47:46.75	149.79	38.80	-57.0	-60.7	12.0	0.00e+00	0	28	0	945815552	79	5787
2026-01-04 23:47:50.79	151.01	38.05	-53.9	-55.8	14.3	0.00e+00	0	28	0	953155584	74	4388
2026-01-04 23:47:54.83	152.17	37.31	-57.1	-61.0	11.7	1.50e-06	0	28	0	960495616	79	5975
2026-01-04 23:47:58.87	153.28	36.57	-54.2	-56.3	14.2	0.00e+00	0	28	0	968884224	75	4372
2026-01-04 23:48:02.90	154.35	35.84	-57.3	-61.5	11.4	4.80e-05	0	28	0	976224256	80	5942
2026-01-04 23:48:06.93	155.36	35.12	-53.2	-55.0	14.5	0.00e+00	0	28	0	983564288	72	4450
2026-01-04 23:48:10.97	156.34	34.40	-56.0	-59.1	12.8	0.00e+00	0	28	0	990904320	77	5394
2026-01-04 23:48:15.00	157.27	33.69	-54.1	-56.1	14.2	0.00e+00	0	28	0	998244352	74	4542
2026-01-04 23:48:19.04	158.17	32.99	-54.5	-56.8	13.8	0.00e+00	0	28	0	1006632960	74	4905
2026-01-04 23:48:23.08	159.03	32.30	-55.6	-58.5	13.2	0.00e+00	0	28	0	1013972992	77	5002
2026-01-04 23:48:27.10	159.85	31.62	-54.0	-56.1	14.1	0.00e+00	0	28	0	1021313024	74	4538
2026-01-04 23:48:31.13	160.64	30.94	-55.1	-57.7	13.4	0.00e+00	0	28	0	1028653056	75	5103
2026-01-04 23:48:35.16	161.40	30.28	-55.9	-58.9	12.9	0.00e+00	0	28	0	1037041664	77	5223
2026-01-04 23:48:39.20	162.13	29.62	-54.5	-56.8	13.9	0.00e+00	0	28	0	1044381696	75	4618
2026-01-04 23:48:43.23	162.83	28.98	-54.6	-56.9	13.7	0.00e+00	0	28	0	1051721728	74	4981
2026-01-04 23:48:47.27	163.51	28.35	-54.7	-57.1	13.7	0.00e+00	0	28	0	1059061760	75	4764
2026-01-04 23:48:51.30	164.16	27.72	-53.6	-55.6	14.3	0.00e+00	0	28	0	1066401792	73	4508
2026-01-04 23:48:55.34	164.78	27.11	-53.1	-54.9	14.4	0.00e+00	0	28	0	1074790400	72	4430
2026-01-04 23:48:59.37	165.39	26.51	-53.7	-55.8	14.1	0.00e+00	0	28	0	1082130432	72	4889
2026-01-04 23:49:03.41	165.97	25.91	-54.0	-56.2	14.0	0.00e+00	0	28	0	1089470464	73	4840
2026-01-04 23:49:07.44	166.53	25.33	-53.6	-55.6	14.2	0.00e+00	0	28	0	1096810496	73	4528
2026-01-04 23:49:11.48	167.07	24.76	-53.5	-55.5	14.3	0.00e+00	0	28	0	1105199104	73	4485
2026-01-04 23:49:15.52	167.60	24.19	-53.6	-55.6	14.2	0.00e+00	0	28	0	1112539136	73	4525
2026-01-04 23:49:19.56	168.10	23.64	-53.6	-55.6	14.2	0.00e+00	0	28	0	1119879168	73	4518
2026-01-04 23:49:23.58	168.59	23.10	-53.2	-55.1	14.4	0.00e+00	0	28	0	1127219200	73	4277
2026-01-04 23:49:27.62	169.06	22.56	-53.0	-54.9	14.5	0.00e+00	0	28	0	1134559232	72	4392
2026-01-04 23:49:31.65	169.52	22.03	-53.1	-55.0	14.4	0.00e+00	0	28	0	1142947840	72	4453
2026-01-04 23:49:35.69	169.97	21.52	-53.6	-55.7	14.1	0.00e+00	0	28	0	1150287872	72	4852
2026-01-04 23:49:39.72	170.39	21.01	-53.8	-56.0	13.9	0.00e+00	0	28	0	1157627904	72	5005
2026-01-04 23:49:43.76	170.81	20.51	-53.2	-55.2	14.3	0.00e+00	0	28	0	1164967936	72	4565
2026-01-04 23:49:47.80	171.22	20.02	-52.6	-54.4	14.5	0.00e+00	0	28	0	1172307968	71	4410
2026-01-04 23:49:51.83	171.61	19.54	-52.6	-54.4	14.5	0.00e+00	0	28	0	1180696576	71	4418
2026-01-04 23:49:55.87	171.99	19.06	-52.9	-54.8	14.4	0.00e+00	0	28	0	1188036608	71	4635
2026-01-04 23:49:59.91	172.36	18.59	-53.4	-55.4	14.1	0.00e+00	0	28	0	1195376640	71	4949
2026-01-04 23:50:03.94	172.71	18.13	-53.2	-55.1	14.2	0.00e+00	0	28	0	1202716672	71	4806
2026-01-04 23:50:07.98	173.06	17.68	-52.8	-54.6	14.4	0.00e+00	0	28	0	1211105280	71	4534
2026-01-04 23:50:12.01	173.40	17.24	-51.9	-53.6	14.7	0.00e+00	0	28	0	1218445312	70	4253
2026-01-04 23:50:16.05	173.73	16.80	-51.7	-53.3	14.7	0.00e+00	0	28	0	1225785344	69	4356
2026-01-04 23:50:20.09	174.05	16.37	-51.9	-53.6	14.6	0.00e+00	0	28	0	1233125376	69	4508
2026-01-04 23:50:24.14	174.36	15.94	-52.4	-54.1	14.4	0.00e+00	0	28	0	1240465408	69	4814
2026-01-04 23:50:28.17	174.67	15.52	-53.0	-55.0	14.3	0.00e+00	0	28	0	1248854016	71	4713
2026-01-04 23:50:32.20	174.96	15.11	-53.3	-55.4	14.1	0.00e+00	0	28	0	1256194048	71	4934
2026-01-04 23:50:36.23	175.25	14.71	-53.3	-55.3	14.1	0.00e+00	0	28	0	1263534080	71	4909
2026-01-04 23:50:40.27	175.53	14.31	-53.1	-55.1	14.2	0.00e+00	0	28	0	1270874112	71	4779
2026-01-04 23:50:44.31	175.81	13.92	-52.8	-54.7	14.3	0.00e+00	0	28	0	1278214144	71	4598
2026-01-04 23:50:48.35	176.08	13.53	-52.7	-54.6	14.4	0.00e+00	0	28	0	1286602752	71	4510
2026-01-04 23:50:52.38	176.34	13.15	-52.7	-54.6	14.4	0.00e+00	0	28	0	1293942784	71	4502
2026-01-04 23:50:56.42	176.59	12.77	-52.9	-54.8	14.3	0.00e+00	0	28	0	1301282816	71	4623
2026-01-04 23:51:00.46	176.84	12.40	-53.1	-55.1	14.2	0.00e+00	0	28	0	1308622848	71	4792
2026-01-04 23:51:04.49	177.08	12.03	-53.3	-55.4	14.0	0.00e+00	0	28	0	1317011456	71	4930
2026-01-04 23:51:08.53	177.32	11.67	-53.5	-55.6	14.0	0.00e+00	0	28	0	1324351488	72	4800
2026-01-04 23:51:12.57	177.55	11.32	-53.5	-55.7	14.0	0.00e+00	0	28	0	1331691520	72	4840
2026-01-04 23:51:16.59	177.78	10.97	-53.5	-55.6	14.0	0.00e+00	0	28	0	1339031552	72	4812
2026-01-04 23:51:20.63	178.00	10.62	-53.4	-55.6	14.0	0.00e+00	0	28	0	1346371584	72	4791
2026-01-04 23:51:24.67	178.22	10.28	-53.4	-55.6	14.0	0.00e+00	0	28	0	1354760192	72	4782
2026-01-04 23:51:28.69	178.43	9.94	-53.4	-55.6	14.0	0.00e+00	0	28	0	1362100224	72	4801
2026-01-04 23:51:32.72	178.64	9.61	-53.3	-55.4	14.1	0.00e+00	0	28	0	1369440256	72	4690
2026-01-04 23:51:36.75	178.84	9.28	-53.3	-55.5	14.0	0.00e+00	0	28	0	1376780288	72	4717
2026-01-04 23:51:40.78	179.04	8.95	-53.4	-55.5	14.0	0.00e+00	0	28	0	1384120320	72	4756
2026-01-04 23:51:44.82	179.24	8.63	-53.5	-55.7	13.9	0.00e+00	0	28	0	1392508928	72	4851
2026-01-04 23:51:48.85	179.43	8.31	-53.6	-55.9	13.8	0.00e+00	0	28	0	1399848960	72	4943
2026-01-04 23:51:52.89	179.62	8.00	-53.8	-56.2	13.6	0.00e+00	0	28	0	1407188992	72	5144
2026-01-04 23:51:56.92	179.80	7.69	-53.9	-56.3	13.5	0.00e+00	0	28	0	1414529024	72	5211
2026-01-04 23:52:00.96	179.98	7.38	-54.1	-56.6	13.5	0.00e+00	0	28	0	1422917632	73	5098
2026-01-04 23:52:04.99	180.16	7.08	-53.9	-56.7	13.5	0.00e+00	0	28	0	1430257664	73	5135
2026-01-04 23:52:09.02	180.33	6.78	-53.6	-57.1	13.3	0.00e+00	0	28	0	1437597696	73	5348
2026-01-04 23:52:13.06	180.50	6.48	-54.0	-57.0	13.3	0.00e+00	0	28	0	1444937728	73	5289
2026-01-04 23:52:17.09	180.67	6.19	-54.2	-57.2	13.1	0.00e+00	0	28	0	1452277760	73	5433
2026-01-04 23:52:21.12	180.83	5.90	-53.7	-57.2	13.2	0.00e+00	0	28	0	1460666368	73	5418
2026-01-04 23:52:25.16	181.00	5.61	-52.7	-57.2	13.2	0.00e+00	0	28	0	1468006400	71	6073
2026-01-04 23:52:29.18	181.15	5.33	-54.0	-57.3	13.0	0.00e+00	0	28	0	1475346432	73	5476
2026-01-04 23:52:33.22	181.31	5.04	-54.3	-57.2	13.0	0.00e+00	0	28	0	1482686464	73	5461
2026-01-04 23:52:37.25	181.46	4.77	-59.9	-75.9	3.8	1.49e+00	0	28	104	1483735040	84	24881
2026-01-04 23:52:41.29	181.61	4.49	-60.4	-76.4	3.8	1.49e+00	0	28	104	1483735040	85	24978
2026-01-04 23:52:45.33	181.76	4.22	-60.6	-76.7	3.8	1.49e+00	0	28	104	1483735040	86	24246
2026-01-04 23:52:49.37	181.91	3.94	-60.8	-76.9	3.8	1.49e+00	0	28	104	1483735040	86	24741
2026-01-04 23:52:53.40	182.05	3.68	-60.9	-76.9	3.8	1.49e+00	0	28	104	1483735040	86	24943
2026-01-04 23:52:57.44	182.19	3.41	-60.9	-77.0	3.8	1.49e+00	0	28	104	1483735040	87	23617
2026-01-04 23:53:01.48	182.33	3.15	-60.8	-76.9	3.8	1.49e+00	0	28	104	1483735040	87	23458
2026-01-04 23:53:05.52	182.47	2.89	-60.8	-76.9	3.8	1.49e+00	0	28	104	1483735040	87	23364
2026-01-04 23:53:09.55	182.60	2.63	-60.8	-76.9	3.8	1.49e+00	0	28	104	1483735040	87	23326
2026-01-04 23:53:13.58	182.73	2.37	-60.7	-76.8	3.8	1.49e+00	0	28	104	1483735040	87	23250
2026-01-04 23:53:17.62	182.86	2.12	-60.7	-76.8	3.8	1.49e+00	0	28	104	1483735040	87	23111

#Closed at: 2026-01-04 23:53:20
#Recorded file [1483 MB]: D:/lorett/data/31004_260105_023902.dat