passes_logs/2026/01/04/R3.2S_Murmansk/R3.2S_Murmansk__20260104_131015_AQUA_rec.log

#Pass ID: 20260104_131015_AQUA
#Satellite: AQUA
#Configuration: AQUA
#almurnet v.1.7.20251203
#Start time: 2026-01-04 13:10:14

#Version: 2.2.20231116
#Station: R3.2S_Murmansk
#Location: 33.079688 lon 68.888172 lat
#TLE: 1 27424U 02022A   26003.93831471  .00001925  00000+0  39553-3 0  9996
#TLE: 2 27424  98.4067 330.1809 0002002  92.1714 343.8415 14.61796291259276

#Time	Az	El	Level	Level2	SNR	BER	BlckErr	Temp	State	Recorded	gain1	gain2
2026-01-04 13:10:14.45	202.47	1.96	-58.7	-77.9	3.8	7.45e-01	0	28	0	0	86	32249
2026-01-04 13:10:17.44	202.68	2.14	-58.6	-77.8	3.8	7.45e-01	0	28	104	0	85	33717
2026-01-04 13:10:20.44	202.88	2.32	-58.6	-77.6	3.8	7.48e-01	0	28	104	0	85	33199
2026-01-04 13:10:23.43	203.09	2.50	-58.6	-77.9	3.8	7.47e-01	0	28	104	0	85	34217
2026-01-04 13:10:26.43	203.30	2.69	-58.6	-77.6	3.8	7.44e-01	0	28	104	0	85	33111
2026-01-04 13:10:29.43	203.52	2.87	-58.6	-77.4	3.8	7.42e-01	0	28	104	0	85	32489
2026-01-04 13:10:32.43	203.74	3.06	-58.6	-77.7	3.8	7.49e-01	0	28	104	0	85	33460
2026-01-04 13:10:35.43	203.96	3.24	-58.6	-78.0	3.8	7.47e-01	0	28	104	0	85	34640
2026-01-04 13:10:38.43	204.18	3.43	-58.6	-77.5	3.9	7.48e-01	0	28	104	0	85	32886
2026-01-04 13:10:41.43	204.41	3.62	-58.6	-77.0	3.8	7.46e-01	0	29	104	0	85	31044
2026-01-04 13:10:44.43	204.64	3.80	-58.6	-77.0	3.9	7.46e-01	0	29	104	0	85	30777
2026-01-04 13:10:47.42	204.87	3.99	-58.6	-75.4	3.9	7.45e-01	0	29	104	0	85	25640
2026-01-04 13:10:50.44	205.11	4.19	-58.6	-76.8	3.8	7.49e-01	0	29	104	0	85	30266
2026-01-04 13:10:53.44	205.35	4.38	-58.6	-76.2	3.9	7.47e-01	0	29	104	0	85	28096
2026-01-04 13:10:56.44	205.59	4.57	-58.3	-69.8	6.5	6.67e-01	92	29	0	1572864	85	13564
2026-01-04 13:10:59.44	205.83	4.77	-58.3	-69.3	6.9	6.60e-01	92	29	0	7340032	85	12795
2026-01-04 13:11:02.44	206.08	4.96	-58.2	-68.6	7.5	6.49e-01	79	29	0	13107200	85	11694
2026-01-04 13:11:05.43	206.34	5.16	-58.5	-74.4	3.8	7.43e-01	0	29	104	16777216	84	24204
2026-01-04 13:11:08.43	206.59	5.36	-52.9	-55.3	15.3	6.07e-01	0	29	0	21495808	75	4526
2026-01-04 13:11:11.42	206.85	5.56	-52.4	-54.6	15.4	6.06e-01	0	29	0	26738688	74	4427
2026-01-04 13:11:14.41	207.11	5.76	-52.3	-54.6	15.3	6.07e-01	0	29	0	32505856	73	4675
2026-01-04 13:11:17.41	207.38	5.96	-52.2	-54.5	15.4	6.05e-01	0	29	0	38273024	73	4647
2026-01-04 13:11:20.39	207.65	6.16	-52.0	-54.2	15.5	6.06e-01	0	29	0	44040192	73	4466
2026-01-04 13:11:23.39	207.93	6.37	-52.0	-54.1	15.5	6.07e-01	0	29	0	49283072	73	4437
2026-01-04 13:11:26.39	208.21	6.57	-52.0	-54.1	15.5	6.05e-01	0	29	0	55050240	73	4419
2026-01-04 13:11:29.38	208.49	6.78	-52.1	-54.2	15.5	6.06e-01	0	29	0	60817408	73	4454
2026-01-04 13:11:32.36	208.77	6.99	-52.0	-54.1	15.5	6.08e-01	0	30	0	66060288	73	4409
2026-01-04 13:11:35.36	209.07	7.20	-51.8	-53.8	15.6	6.07e-01	0	30	0	71827456	72	4499
2026-01-04 13:11:38.34	209.36	7.41	-51.8	-53.9	15.6	6.05e-01	0	30	0	77594624	72	4560
2026-01-04 13:11:41.32	209.66	7.62	-51.8	-53.9	15.6	6.06e-01	0	30	0	82837504	72	4552
2026-01-04 13:11:44.29	209.96	7.83	-51.9	-53.9	15.6	6.06e-01	0	30	0	88604672	72	4589
2026-01-04 13:11:47.28	210.27	8.04	-51.7	-53.6	15.6	6.07e-01	0	30	0	94371840	72	4436
2026-01-04 13:11:50.27	210.59	8.26	-51.8	-53.8	15.6	6.04e-01	0	30	0	99614720	72	4499
2026-01-04 13:11:53.25	210.90	8.48	-51.6	-53.5	15.7	6.09e-01	0	30	0	105381888	72	4374
2026-01-04 13:11:56.24	211.23	8.69	-51.5	-53.4	15.7	6.04e-01	0	30	0	111149056	72	4337
2026-01-04 13:11:59.25	211.56	8.92	-51.4	-53.3	15.8	6.05e-01	0	30	0	116916224	72	4257
2026-01-04 13:12:02.23	211.89	9.14	-51.5	-53.4	15.7	6.06e-01	0	30	0	122159104	72	4320
2026-01-04 13:12:05.22	212.23	9.36	-51.4	-53.3	15.8	6.05e-01	0	30	0	127926272	72	4266
2026-01-04 13:12:08.22	212.58	9.58	-51.5	-53.4	15.7	6.08e-01	0	30	0	133693440	72	4295
2026-01-04 13:12:11.22	212.93	9.81	-51.3	-53.2	15.7	6.06e-01	0	30	0	138936320	71	4460
2026-01-04 13:12:14.20	213.29	10.04	-51.3	-53.1	15.7	6.06e-01	0	30	0	144703488	71	4437
2026-01-04 13:12:17.19	213.65	10.27	-51.3	-53.1	15.8	6.06e-01	0	30	0	150470656	71	4411
2026-01-04 13:12:20.18	214.02	10.50	-51.1	-52.9	15.8	6.09e-01	0	30	0	155713536	71	4333
2026-01-04 13:12:23.17	214.39	10.73	-51.1	-53.0	15.8	6.06e-01	0	30	0	161480704	71	4342
2026-01-04 13:12:26.17	214.77	10.96	-51.1	-52.9	15.8	6.07e-01	0	30	0	167247872	71	4337
2026-01-04 13:12:29.17	215.16	11.20	-51.1	-52.9	15.8	6.07e-01	0	30	0	173015040	71	4310
2026-01-04 13:12:32.16	215.55	11.43	-51.0	-52.7	15.9	6.07e-01	0	30	0	178257920	71	4242
2026-01-04 13:12:35.14	215.95	11.67	-50.9	-52.7	15.9	6.07e-01	0	30	0	184025088	71	4206
2026-01-04 13:12:38.14	216.36	11.91	-50.9	-52.7	15.9	6.08e-01	0	30	0	189792256	71	4197
2026-01-04 13:12:41.14	216.77	12.15	-50.9	-52.7	15.9	6.04e-01	0	30	0	195035136	71	4204
2026-01-04 13:12:44.14	217.20	12.39	-50.9	-52.6	15.8	6.07e-01	0	30	0	200802304	70	4424
2026-01-04 13:12:47.12	217.62	12.63	-50.8	-52.5	15.9	6.07e-01	0	30	0	206569472	70	4367
2026-01-04 13:12:50.11	218.06	12.88	-50.7	-52.5	15.9	6.07e-01	0	30	0	211812352	70	4343
2026-01-04 13:12:53.11	218.50	13.12	-50.8	-52.5	15.9	6.07e-01	0	30	0	217579520	70	4389
2026-01-04 13:12:56.13	218.96	13.37	-50.8	-52.6	15.9	6.06e-01	0	30	0	223346688	70	4409
2026-01-04 13:12:59.14	219.42	13.62	-50.8	-52.5	15.9	6.07e-01	0	30	0	229113856	70	4355
2026-01-04 13:13:02.15	219.89	13.87	-50.7	-52.4	15.9	6.07e-01	0	30	0	234356736	70	4321
2026-01-04 13:13:05.15	220.37	14.12	-50.7	-52.4	15.9	6.07e-01	0	30	0	240123904	70	4339
2026-01-04 13:13:08.15	220.85	14.37	-50.6	-52.3	15.9	6.06e-01	0	30	0	245891072	70	4257
2026-01-04 13:13:11.14	221.34	14.63	-50.4	-52.1	16.0	6.06e-01	0	30	0	251658240	70	4156
2026-01-04 13:13:14.14	221.85	14.88	-50.5	-52.2	16.0	6.05e-01	0	30	0	256901120	70	4234
2026-01-04 13:13:17.15	222.36	15.14	-50.6	-52.3	15.9	6.07e-01	0	31	0	262668288	70	4243
2026-01-04 13:13:20.15	222.88	15.39	-50.3	-52.0	15.9	6.06e-01	0	30	0	268435456	69	4356
2026-01-04 13:13:23.17	223.41	15.65	-50.2	-51.8	16.0	6.08e-01	0	30	0	274202624	69	4284
2026-01-04 13:13:26.17	223.95	15.91	-50.3	-52.0	16.0	6.07e-01	0	30	0	279445504	69	4343
2026-01-04 13:13:29.18	224.50	16.17	-50.3	-51.9	15.9	6.08e-01	0	30	0	285212672	69	4338
2026-01-04 13:13:32.18	225.06	16.43	-50.3	-51.9	15.9	6.06e-01	0	30	0	290979840	69	4329
2026-01-04 13:13:35.19	225.63	16.69	-50.1	-51.7	16.0	6.06e-01	0	30	0	296747008	69	4235
2026-01-04 13:13:38.19	226.21	16.95	-50.1	-51.7	16.0	6.07e-01	0	30	0	301989888	69	4206
2026-01-04 13:13:41.18	226.80	17.21	-50.3	-52.0	15.9	6.07e-01	0	30	0	307757056	69	4355
2026-01-04 13:13:44.19	227.40	17.47	-50.3	-52.0	15.9	6.07e-01	0	30	0	313524224	69	4367
2026-01-04 13:13:47.18	228.01	17.73	-50.2	-51.8	16.0	6.06e-01	0	30	0	319291392	69	4279
2026-01-04 13:13:50.17	228.63	17.99	-50.3	-51.9	16.0	6.04e-01	0	30	0	324534272	69	4327
2026-01-04 13:13:53.17	229.26	18.25	-50.4	-52.0	16.0	6.06e-01	0	31	0	330301440	69	4366
2026-01-04 13:13:56.17	229.91	18.51	-50.3	-51.9	16.0	6.06e-01	0	30	0	336068608	69	4318
2026-01-04 13:13:59.17	230.56	18.77	-50.2	-51.8	16.0	6.05e-01	0	31	0	341311488	69	4282
2026-01-04 13:14:02.16	231.23	19.02	-50.3	-51.9	16.0	6.07e-01	0	30	0	347078656	69	4325
2026-01-04 13:14:05.15	231.91	19.28	-50.2	-51.9	16.0	6.07e-01	0	30	0	352845824	69	4307
2026-01-04 13:14:08.15	232.60	19.54	-50.3	-51.9	16.0	6.06e-01	0	31	0	358612992	69	4305
2026-01-04 13:14:11.15	233.30	19.80	-50.4	-52.0	16.0	6.09e-01	0	30	0	363855872	69	4384
2026-01-04 13:14:14.15	234.02	20.05	-50.3	-51.9	16.0	6.09e-01	0	30	0	369623040	69	4323
2026-01-04 13:14:17.13	234.74	20.30	-50.3	-51.9	16.0	6.05e-01	0	30	0	375390208	69	4339
2026-01-04 13:14:20.12	235.48	20.55	-50.3	-52.0	15.9	6.06e-01	0	30	0	380633088	69	4352
2026-01-04 13:14:23.10	236.22	20.80	-50.4	-52.1	15.9	6.06e-01	0	30	0	386400256	69	4408
2026-01-04 13:14:26.08	236.98	21.05	-50.3	-52.0	16.0	6.08e-01	0	30	0	392167424	69	4349
2026-01-04 13:14:29.07	237.76	21.29	-50.3	-52.0	16.0	6.08e-01	0	31	0	397410304	69	4343
2026-01-04 13:14:32.07	238.55	21.54	-50.5	-52.1	15.9	6.03e-01	0	30	0	403177472	69	4412
2026-01-04 13:14:35.07	239.35	21.78	-50.5	-52.1	15.9	6.06e-01	0	31	0	408944640	69	4429
2026-01-04 13:14:38.07	240.17	22.01	-50.6	-52.2	15.9	6.07e-01	0	31	0	414711808	69	4485
2026-01-04 13:14:41.07	240.99	22.25	-50.6	-52.2	15.9	6.06e-01	0	31	0	419954688	69	4472
2026-01-04 13:14:44.07	241.83	22.48	-50.5	-52.2	15.9	6.08e-01	0	31	0	425721856	69	4459
2026-01-04 13:14:47.06	242.69	22.70	-50.7	-52.3	15.9	6.06e-01	0	31	0	431489024	69	4537
2026-01-04 13:14:50.04	243.55	22.93	-50.6	-52.2	15.9	6.06e-01	0	31	0	436731904	69	4492
2026-01-04 13:14:53.04	244.42	23.14	-50.6	-52.3	15.9	6.07e-01	0	31	0	442499072	69	4502
2026-01-04 13:14:56.04	245.32	23.36	-50.7	-52.3	15.9	6.05e-01	0	31	0	448266240	69	4534
2026-01-04 13:14:59.02	246.21	23.56	-50.6	-52.2	15.9	6.05e-01	0	31	0	453509120	69	4471
2026-01-04 13:15:02.02	247.13	23.76	-50.7	-52.3	15.9	6.06e-01	0	31	0	459276288	69	4543
2026-01-04 13:15:05.01	248.05	23.96	-50.7	-52.3	15.9	6.06e-01	0	31	0	465043456	69	4539
2026-01-04 13:15:08.01	248.99	24.15	-50.7	-52.4	15.9	6.06e-01	0	31	0	470810624	69	4567
2026-01-04 13:15:11.01	249.95	24.34	-50.9	-52.6	15.9	6.07e-01	0	31	0	476053504	69	4695
2026-01-04 13:15:14.01	250.91	24.51	-50.8	-52.5	15.9	6.08e-01	0	31	0	481820672	69	4618
2026-01-04 13:15:17.01	251.88	24.68	-51.1	-52.8	15.8	6.06e-01	0	31	0	487587840	69	4768
2026-01-04 13:15:20.01	252.86	24.85	-50.9	-52.6	15.9	6.06e-01	0	31	0	493355008	69	4686
2026-01-04 13:15:23.02	253.86	25.00	-50.8	-52.5	15.9	6.05e-01	0	30	0	498597888	69	4624
2026-01-04 13:15:26.00	254.86	25.15	-50.8	-52.5	15.9	6.07e-01	0	30	0	504365056	69	4612
2026-01-04 13:15:29.01	255.88	25.29	-50.9	-52.6	15.9	6.06e-01	0	31	0	510132224	69	4696
2026-01-04 13:15:32.00	256.89	25.42	-50.8	-52.5	15.9	6.06e-01	0	31	0	515375104	69	4636
2026-01-04 13:15:35.00	257.92	25.55	-50.9	-52.6	15.9	6.07e-01	0	31	0	521142272	69	4658
2026-01-04 13:15:37.99	258.96	25.66	-50.7	-52.3	16.0	6.08e-01	0	31	0	526909440	69	4545
2026-01-04 13:15:40.99	260.00	25.77	-50.7	-52.4	16.0	6.03e-01	0	31	0	532152320	69	4564
2026-01-04 13:15:43.98	261.05	25.86	-50.8	-52.4	15.9	6.03e-01	0	31	0	537919488	69	4594
2026-01-04 13:15:46.96	262.11	25.95	-50.6	-52.3	16.0	6.06e-01	0	31	0	543686656	69	4512
2026-01-04 13:15:49.95	263.17	26.02	-50.7	-52.3	16.0	6.06e-01	0	31	0	548929536	69	4526
2026-01-04 13:15:52.93	264.23	26.09	-50.7	-52.4	15.9	6.03e-01	0	30	0	554696704	69	4549
2026-01-04 13:15:55.92	265.30	26.15	-50.7	-52.3	15.9	6.03e-01	0	31	0	560463872	69	4535
2026-01-04 13:15:58.92	266.37	26.19	-50.5	-52.1	15.9	6.02e-01	0	31	0	566231040	69	4437
2026-01-04 13:16:01.91	267.45	26.23	-50.5	-52.1	16.0	6.04e-01	0	31	0	571473920	69	4428
2026-01-04 13:16:04.92	268.53	26.26	-50.6	-52.3	16.0	6.02e-01	0	31	0	577241088	69	4497
2026-01-04 13:16:07.92	269.62	26.27	-50.6	-52.2	16.0	6.05e-01	0	31	0	583008256	69	4481
2026-01-04 13:16:10.91	270.70	26.28	-50.7	-52.4	16.0	6.03e-01	0	31	0	588775424	69	4549
2026-01-04 13:16:13.91	271.78	26.27	-50.7	-52.3	15.9	6.06e-01	0	31	0	594018304	69	4517
2026-01-04 13:16:16.92	272.87	26.26	-50.5	-52.1	16.0	6.03e-01	0	31	0	599785472	69	4426
2026-01-04 13:16:19.93	273.95	26.23	-50.6	-52.2	16.0	6.01e-01	0	31	0	605552640	69	4475
2026-01-04 13:16:22.92	275.03	26.20	-50.5	-52.1	16.0	6.06e-01	0	31	0	611319808	69	4395
2026-01-04 13:16:25.93	276.11	26.15	-50.5	-52.1	16.0	6.03e-01	0	31	0	616562688	69	4434
2026-01-04 13:16:28.92	277.17	26.09	-50.4	-52.0	16.0	6.04e-01	0	30	0	622329856	69	4359
2026-01-04 13:16:31.92	278.24	26.03	-50.4	-52.0	16.0	6.05e-01	0	31	0	628097024	69	4382
2026-01-04 13:16:34.92	279.31	25.95	-50.5	-52.1	16.0	6.02e-01	0	31	0	633339904	69	4416
2026-01-04 13:16:37.92	280.36	25.87	-50.3	-51.9	16.1	6.02e-01	0	31	0	639107072	69	4292
2026-01-04 13:16:40.91	281.41	25.77	-50.5	-52.1	16.0	6.01e-01	0	31	0	644874240	69	4400
2026-01-04 13:16:43.91	282.45	25.67	-50.4	-52.0	16.0	6.02e-01	0	31	0	650641408	69	4373
2026-01-04 13:16:46.91	283.49	25.55	-50.5	-52.1	16.0	6.05e-01	0	31	0	655884288	69	4440
2026-01-04 13:16:49.90	284.52	25.43	-50.5	-52.1	16.0	6.04e-01	0	31	0	661651456	69	4416
2026-01-04 13:16:52.89	285.53	25.30	-50.4	-52.0	16.1	6.04e-01	0	31	0	667418624	69	4342
2026-01-04 13:16:55.88	286.54	25.16	-50.5	-52.1	16.0	6.04e-01	0	30	0	672661504	69	4393
2026-01-04 13:16:58.88	287.54	25.01	-50.4	-52.0	16.0	6.04e-01	0	31	0	678428672	69	4370
2026-01-04 13:17:01.87	288.53	24.86	-50.5	-52.2	16.0	6.05e-01	0	31	0	684195840	69	4442
2026-01-04 13:17:04.87	289.52	24.70	-50.5	-52.1	16.0	6.04e-01	0	31	0	689963008	69	4425
2026-01-04 13:17:07.85	290.48	24.53	-50.4	-52.0	16.0	6.04e-01	0	31	0	695205888	69	4375
2026-01-04 13:17:10.85	291.44	24.35	-50.5	-52.1	16.0	6.05e-01	0	31	0	700973056	69	4433
2026-01-04 13:17:13.84	292.39	24.17	-50.3	-51.9	16.0	6.05e-01	0	31	0	706740224	69	4318
2026-01-04 13:17:16.85	293.33	23.98	-50.5	-52.1	16.0	6.03e-01	0	31	0	711983104	69	4415
2026-01-04 13:17:19.85	294.25	23.78	-50.5	-52.0	16.0	6.03e-01	0	31	0	717750272	69	4390
2026-01-04 13:17:22.85	295.17	23.58	-50.3	-51.9	16.0	6.03e-01	0	31	0	723517440	69	4324
2026-01-04 13:17:25.85	296.07	23.37	-50.4	-52.0	16.0	6.03e-01	0	31	0	729284608	69	4368
2026-01-04 13:17:28.85	296.96	23.16	-50.4	-52.0	16.0	6.04e-01	0	31	0	734527488	69	4389
2026-01-04 13:17:31.84	297.83	22.95	-50.3	-51.9	16.0	6.01e-01	0	31	0	740294656	69	4330
2026-01-04 13:17:34.84	298.70	22.73	-50.4	-51.9	16.1	6.02e-01	0	31	0	746061824	69	4339
2026-01-04 13:17:37.83	299.54	22.50	-50.5	-52.1	16.0	6.05e-01	0	31	0	751304704	69	4418
2026-01-04 13:17:40.85	300.39	22.27	-50.2	-51.8	16.1	6.04e-01	0	31	0	757071872	69	4267
2026-01-04 13:17:43.85	301.22	22.04	-50.2	-51.8	16.1	6.03e-01	0	31	0	762839040	69	4261
2026-01-04 13:17:46.83	302.02	21.80	-50.3	-51.9	16.1	6.02e-01	0	31	0	768606208	69	4332
2026-01-04 13:17:49.83	302.82	21.56	-50.3	-51.9	16.1	6.03e-01	0	31	0	773849088	69	4296
2026-01-04 13:17:52.82	303.61	21.32	-50.4	-52.0	16.0	6.03e-01	0	31	0	779616256	69	4342
2026-01-04 13:17:55.81	304.38	21.08	-50.3	-51.9	16.1	6.02e-01	0	31	0	785383424	69	4298
2026-01-04 13:17:58.82	305.15	20.83	-50.2	-51.8	16.1	6.05e-01	0	31	0	790626304	69	4262
2026-01-04 13:18:01.82	305.90	20.58	-50.3	-51.9	16.1	6.08e-01	0	31	0	796393472	69	4323
2026-01-04 13:18:04.81	306.63	20.34	-50.3	-51.9	16.1	6.06e-01	0	31	0	802160640	69	4292
2026-01-04 13:18:07.80	307.36	20.08	-50.1	-51.7	16.1	6.04e-01	0	31	0	807927808	69	4228
2026-01-04 13:18:10.81	308.07	19.83	-50.2	-51.8	16.1	6.05e-01	0	31	0	813170688	69	4250
2026-01-04 13:18:13.80	308.77	19.58	-50.3	-51.9	16.1	6.06e-01	0	31	0	818937856	69	4336
2026-01-04 13:18:16.80	309.46	19.32	-50.1	-51.7	16.1	6.03e-01	0	31	0	824705024	69	4213
2026-01-04 13:18:19.80	310.14	19.06	-50.2	-51.8	16.1	6.02e-01	0	31	0	830472192	69	4265
2026-01-04 13:18:22.80	310.80	18.81	-50.1	-51.6	16.1	6.03e-01	0	31	0	835715072	69	4188
2026-01-04 13:18:25.79	311.45	18.55	-50.1	-51.7	16.1	6.02e-01	0	31	0	841482240	69	4196
2026-01-04 13:18:28.79	312.10	18.29	-50.1	-51.7	16.1	6.02e-01	0	31	0	847249408	69	4207
2026-01-04 13:18:31.78	312.72	18.03	-50.0	-51.5	16.1	6.04e-01	0	31	0	852492288	69	4140
2026-01-04 13:18:34.78	313.35	17.77	-50.0	-51.6	16.1	6.03e-01	0	31	0	858259456	69	4154
2026-01-04 13:18:37.79	313.96	17.51	-50.1	-51.6	16.1	6.03e-01	0	31	0	864026624	69	4189
2026-01-04 13:18:40.79	314.56	17.25	-50.0	-51.6	16.1	6.05e-01	0	31	0	869269504	69	4179
2026-01-04 13:18:43.79	315.14	17.00	-49.9	-51.5	16.1	6.06e-01	0	31	0	875036672	69	4116
2026-01-04 13:18:46.79	315.72	16.74	-50.0	-51.6	16.1	6.03e-01	0	31	0	880803840	69	4175
2026-01-04 13:18:49.79	316.29	16.48	-50.1	-51.7	16.1	6.03e-01	0	31	0	886571008	69	4195
2026-01-04 13:18:52.77	316.84	16.22	-50.0	-51.5	16.1	6.05e-01	0	31	0	891813888	69	4134
2026-01-04 13:18:55.76	317.39	15.97	-49.9	-51.5	16.1	6.05e-01	0	31	0	897581056	69	4110
2026-01-04 13:18:58.74	317.92	15.71	-50.0	-51.6	16.1	6.04e-01	0	31	0	903348224	69	4161
2026-01-04 13:19:01.72	318.45	15.46	-50.1	-51.7	16.1	6.03e-01	0	31	0	908591104	69	4225
2026-01-04 13:19:04.72	318.97	15.21	-50.1	-51.7	16.1	6.04e-01	0	31	0	914358272	69	4241
2026-01-04 13:19:07.72	319.48	14.95	-50.0	-51.6	16.1	6.03e-01	0	31	0	920125440	69	4174
2026-01-04 13:19:10.71	319.98	14.70	-49.9	-51.5	16.1	6.01e-01	0	31	0	925892608	69	4130
2026-01-04 13:19:13.72	320.47	14.45	-50.1	-51.7	16.1	6.04e-01	0	31	0	931135488	69	4213
2026-01-04 13:19:16.72	320.96	14.20	-50.0	-51.6	16.1	6.03e-01	0	31	0	936902656	69	4177
2026-01-04 13:19:19.71	321.43	13.95	-50.1	-51.8	16.0	6.03e-01	0	31	0	942669824	69	4244
2026-01-04 13:19:22.71	321.90	13.70	-50.1	-51.7	16.1	6.04e-01	0	31	0	948436992	69	4226
2026-01-04 13:19:25.72	322.36	13.45	-50.1	-51.7	16.1	6.05e-01	0	31	0	953679872	69	4232
2026-01-04 13:19:28.72	322.81	13.21	-50.2	-51.8	16.1	6.04e-01	0	31	0	959447040	69	4276
2026-01-04 13:19:31.71	323.26	12.96	-50.2	-51.9	16.0	6.03e-01	0	31	0	965214208	69	4304
2026-01-04 13:19:34.71	323.69	12.72	-50.2	-51.9	16.0	6.02e-01	0	31	0	970457088	69	4305
2026-01-04 13:19:37.70	324.12	12.48	-50.4	-52.0	16.0	6.02e-01	0	31	0	976224256	69	4376
2026-01-04 13:19:40.69	324.54	12.24	-50.5	-52.1	16.0	6.04e-01	0	31	0	981991424	69	4432
2026-01-04 13:19:43.69	324.96	12.00	-50.2	-51.9	16.0	6.03e-01	0	31	0	987234304	69	4303
2026-01-04 13:19:46.68	325.36	11.76	-50.2	-51.8	16.0	6.05e-01	0	31	0	993001472	69	4290
2026-01-04 13:19:49.67	325.76	11.53	-50.3	-52.0	16.0	6.03e-01	0	31	0	998768640	69	4348
2026-01-04 13:19:52.66	326.16	11.29	-50.5	-52.2	15.9	6.03e-01	0	31	0	1004535808	69	4473
2026-01-04 13:19:55.65	326.54	11.06	-50.6	-52.3	15.9	6.03e-01	0	31	0	1009778688	69	4541
2026-01-04 13:19:58.65	326.93	10.83	-50.6	-52.4	15.9	6.03e-01	0	31	0	1015545856	69	4551
2026-01-04 13:20:01.64	327.30	10.60	-50.6	-52.3	15.9	6.04e-01	0	31	0	1021313024	69	4540
2026-01-04 13:20:04.63	327.67	10.37	-50.6	-52.4	15.9	6.02e-01	0	31	0	1026555904	69	4547
2026-01-04 13:20:07.62	328.03	10.14	-50.7	-52.4	15.9	6.05e-01	0	31	0	1032323072	69	4597
2026-01-04 13:20:10.62	328.39	9.92	-50.7	-52.5	15.9	6.02e-01	0	31	0	1038090240	69	4613
2026-01-04 13:20:13.61	328.74	9.69	-50.7	-52.4	15.9	6.03e-01	0	31	0	1043857408	69	4581
2026-01-04 13:20:16.61	329.09	9.47	-50.7	-52.4	15.9	6.03e-01	0	31	0	1049100288	69	4589
2026-01-04 13:20:19.60	329.43	9.25	-50.7	-52.5	15.9	6.03e-01	0	31	0	1054867456	69	4625
2026-01-04 13:20:22.60	329.76	9.03	-50.9	-52.7	15.8	6.00e-01	0	31	0	1060634624	69	4746
2026-01-04 13:20:25.61	330.10	8.81	-50.8	-52.6	15.8	6.02e-01	0	31	0	1065877504	69	4699
2026-01-04 13:20:28.61	330.42	8.59	-51.0	-52.8	15.8	6.03e-01	0	31	0	1071644672	69	4797
2026-01-04 13:20:31.60	330.74	8.37	-51.0	-52.9	15.8	6.03e-01	0	31	0	1077411840	69	4825
2026-01-04 13:20:34.60	331.06	8.16	-51.1	-52.9	15.7	6.04e-01	0	31	0	1083179008	69	4849
2026-01-04 13:20:37.59	331.37	7.94	-51.2	-53.1	15.7	6.06e-01	0	31	0	1088421888	70	4678
2026-01-04 13:20:40.58	331.67	7.73	-51.3	-53.2	15.7	6.03e-01	0	31	0	1094189056	70	4729
2026-01-04 13:20:43.58	331.97	7.52	-51.3	-53.3	15.7	6.03e-01	0	31	0	1099956224	70	4765
2026-01-04 13:20:46.57	332.27	7.31	-51.5	-53.5	15.7	6.01e-01	0	31	0	1105199104	70	4875
2026-01-04 13:20:49.57	332.56	7.10	-51.4	-53.3	15.7	6.05e-01	0	31	0	1110966272	70	4785
2026-01-04 13:20:52.56	332.85	6.89	-51.3	-53.2	15.7	6.04e-01	0	31	0	1116733440	70	4757
2026-01-04 13:20:55.55	333.13	6.69	-51.4	-53.4	15.7	6.01e-01	0	31	0	1122500608	70	4819
2026-01-04 13:20:58.54	333.41	6.48	-51.6	-53.6	15.7	6.04e-01	0	31	0	1127743488	70	4940
2026-01-04 13:21:01.51	333.69	6.28	-51.4	-53.4	15.7	6.01e-01	0	31	0	1133510656	70	4856
2026-01-04 13:21:04.50	333.96	6.08	-51.5	-53.5	15.6	6.04e-01	0	31	0	1139277824	70	4903
2026-01-04 13:21:07.50	334.23	5.88	-51.3	-53.3	15.7	6.02e-01	0	31	0	1144520704	70	4784
2026-01-04 13:21:10.49	334.49	5.68	-51.7	-53.9	15.6	6.04e-01	0	31	0	1150287872	71	4816
2026-01-04 13:21:13.49	334.75	5.48	-51.8	-54.0	15.5	6.01e-01	0	31	0	1156055040	71	4900
2026-01-04 13:21:16.48	335.01	5.29	-51.7	-53.8	15.6	6.02e-01	0	31	0	1161297920	71	4811
2026-01-04 13:21:19.48	335.26	5.09	-51.6	-53.7	15.6	6.03e-01	0	31	0	1167065088	71	4756
2026-01-04 13:21:22.48	335.51	4.90	-59.8	-78.9	3.9	7.48e-01	0	31	104	1170210816	87	34316
2026-01-04 13:21:25.47	335.76	4.70	-60.6	-80.0	3.9	7.46e-01	0	31	104	1170210816	89	34639
2026-01-04 13:21:28.46	336.00	4.51	-61.0	-80.3	3.8	7.49e-01	0	31	104	1170210816	89	35847
2026-01-04 13:21:31.45	336.24	4.32	-61.1	-80.4	3.8	7.49e-01	0	31	104	1170210816	89	36257
2026-01-04 13:21:34.44	336.48	4.13	-61.2	-80.6	3.8	7.47e-01	0	31	104	1170210816	90	35024
2026-01-04 13:21:37.44	336.71	3.94	-61.3	-80.6	3.8	7.47e-01	0	31	104	1170210816	90	35223
2026-01-04 13:21:40.44	336.95	3.75	-61.3	-80.7	3.8	7.43e-01	0	31	104	1170210816	90	35301
2026-01-04 13:21:43.44	337.17	3.57	-61.2	-80.6	3.8	7.46e-01	0	31	104	1170210816	90	35117
2026-01-04 13:21:46.45	337.40	3.38	-61.2	-80.5	3.8	7.48e-01	0	31	104	1170210816	90	34852
2026-01-04 13:21:49.46	337.62	3.19	-61.1	-80.5	3.8	7.47e-01	0	31	104	1170210816	90	34745
2026-01-04 13:21:52.46	337.84	3.01	-61.1	-80.5	3.8	7.44e-01	0	31	104	1170210816	90	34580
2026-01-04 13:21:55.46	338.06	2.83	-61.1	-80.5	3.8	7.43e-01	0	31	104	1170210816	90	34532
2026-01-04 13:21:58.45	338.27	2.65	-61.1	-80.5	3.8	7.46e-01	0	31	104	1170210816	90	34544
2026-01-04 13:22:01.45	338.48	2.47	-61.0	-80.4	3.8	7.47e-01	0	31	104	1170210816	90	34303
2026-01-04 13:22:04.45	338.69	2.29	-61.0	-80.4	3.8	7.46e-01	0	31	104	1170210816	90	34261
2026-01-04 13:22:07.45	338.90	2.11	-61.0	-80.4	3.8	7.43e-01	0	31	104	1170210816	90	34168

#Closed at: 2026-01-04 13:22:10
#Recorded file [1170 MB]: D:/lorett/data/31004_260104_161014.dat