passes_logs/2026/01/04/R3.2S_Murmansk/R3.2S_Murmansk__20260104_135753_FENGYUN_3D_rec.log

#Pass ID: 20260104_135753_FENGYUN 3D
#Satellite: FENGYUN 3D
#Configuration: FENGYUN 3D
#almurnet v.1.7.20251203
#Start time: 2026-01-04 13:57:55

#Version: 2.2.20231116
#Station: R3.2S_Murmansk
#Location: 33.079688 lon 68.888172 lat
#TLE: 1 43010U 17072A   26003.93866112 -.00000029  00000+0  82070-5 0  9995
#TLE: 2 43010  98.9913 335.5841 0001959 128.6134 231.5217 14.19691935421687

#Time	Az	El	Level	Level2	SNR	BER	BlckErr	Temp	State	Recorded	gain1	gain2
2026-01-04 13:57:55.05	213.01	2.09	-59.3	-72.2	3.8	8.45e-01	0	27	0	0	85	15283
2026-01-04 13:57:59.05	213.30	2.31	-59.1	-71.9	3.8	8.45e-01	0	28	104	0	83	16688
2026-01-04 13:58:03.04	213.59	2.53	-59.1	-72.1	3.8	8.45e-01	0	28	104	0	83	16980
2026-01-04 13:58:07.03	213.89	2.76	-59.1	-71.9	3.8	8.46e-01	0	28	104	0	83	16563
2026-01-04 13:58:11.04	214.20	2.98	-59.1	-71.8	3.8	8.45e-01	0	28	104	0	83	16487
2026-01-04 13:58:15.05	214.50	3.20	-59.1	-72.1	3.8	8.45e-01	0	28	104	0	83	17039
2026-01-04 13:58:19.07	214.82	3.43	-59.1	-71.6	3.8	8.45e-01	0	28	104	0	83	16058
2026-01-04 13:58:23.07	215.13	3.66	-59.1	-71.4	3.8	8.45e-01	0	28	104	0	83	15755
2026-01-04 13:58:27.07	215.46	3.89	-59.0	-71.3	3.8	8.47e-01	0	29	104	0	83	15553
2026-01-04 13:58:31.07	215.78	4.12	-59.1	-71.8	3.8	8.45e-01	0	29	104	0	83	16357
2026-01-04 13:58:35.08	216.11	4.35	-58.9	-69.8	3.8	8.44e-01	0	29	104	0	83	13097
2026-01-04 13:58:39.07	216.45	4.58	-58.4	-66.2	5.1	7.56e-01	0	29	0	0	83	8628
2026-01-04 13:58:43.07	216.79	4.81	-57.4	-62.4	7.8	9.59e-02	0	29	0	10485760	81	6209
2026-01-04 13:58:47.08	217.14	5.05	-54.1	-56.5	12.3	2.20e-06	0	29	0	33554432	74	4713
2026-01-04 13:58:51.06	217.49	5.28	-54.9	-57.5	11.8	1.10e-06	0	29	0	49283072	75	5010
2026-01-04 13:58:55.06	217.85	5.52	-50.1	-51.5	14.6	0.00e+00	0	29	0	71303168	66	4233
2026-01-04 13:58:59.04	218.21	5.76	-50.0	-51.4	14.6	0.00e+00	0	29	0	93323264	66	4169
2026-01-04 13:59:03.04	218.58	5.99	-50.1	-51.4	14.6	0.00e+00	0	29	0	116391936	66	4179
2026-01-04 13:59:07.03	218.95	6.23	-50.0	-51.4	14.7	0.00e+00	0	29	0	138412032	66	4170
2026-01-04 13:59:11.02	219.33	6.48	-49.9	-51.3	14.7	0.00e+00	0	29	0	161480704	66	4099
2026-01-04 13:59:15.02	219.72	6.72	-49.8	-51.1	14.8	0.00e+00	0	29	0	183500800	66	4033
2026-01-04 13:59:19.02	220.11	6.96	-49.8	-51.2	14.8	0.00e+00	0	29	0	206569472	66	4063
2026-01-04 13:59:23.03	220.51	7.21	-49.6	-50.9	14.8	0.00e+00	0	29	0	228589568	65	4160
2026-01-04 13:59:27.03	220.92	7.46	-49.7	-51.0	14.8	0.00e+00	0	30	0	251658240	65	4220
2026-01-04 13:59:31.02	221.33	7.70	-49.7	-51.1	14.8	0.00e+00	0	30	0	273678336	65	4256
2026-01-04 13:59:35.01	221.75	7.95	-49.7	-51.0	14.8	0.00e+00	0	30	0	295698432	65	4216
2026-01-04 13:59:39.00	222.17	8.20	-49.6	-50.9	14.8	0.00e+00	0	29	0	318767104	65	4176
2026-01-04 13:59:43.01	222.61	8.45	-49.3	-50.6	15.0	0.00e+00	0	29	0	340787200	65	4030
2026-01-04 13:59:47.02	223.05	8.71	-49.3	-50.6	15.0	0.00e+00	0	30	0	363855872	65	4019
2026-01-04 13:59:51.02	223.49	8.96	-49.3	-50.6	15.0	0.00e+00	0	30	0	385875968	65	4038
2026-01-04 13:59:55.02	223.95	9.21	-49.2	-50.4	15.0	0.00e+00	0	30	0	408944640	64	4181
2026-01-04 13:59:59.00	224.41	9.47	-48.9	-50.1	15.1	0.00e+00	0	30	0	430964736	64	4034
2026-01-04 14:00:03.00	224.88	9.72	-48.9	-50.2	15.1	0.00e+00	0	30	0	452984832	64	4053
2026-01-04 14:00:06.99	225.36	9.98	-48.9	-50.2	15.1	0.00e+00	0	30	0	476053504	64	4053
2026-01-04 14:00:10.99	225.85	10.24	-48.6	-49.8	15.1	0.00e+00	0	30	0	498073600	63	4123
2026-01-04 14:00:14.99	226.34	10.50	-48.5	-49.7	15.2	0.00e+00	0	30	0	521142272	63	4078
2026-01-04 14:00:19.00	226.85	10.76	-48.6	-49.8	15.1	0.00e+00	0	30	0	544210944	63	4130
2026-01-04 14:00:23.01	227.36	11.02	-48.7	-49.9	15.1	0.00e+00	0	30	0	566231040	63	4191
2026-01-04 14:00:27.00	227.88	11.28	-48.7	-49.9	15.1	0.00e+00	0	30	0	588251136	63	4161
2026-01-04 14:00:30.99	228.41	11.55	-48.8	-50.0	15.1	0.00e+00	0	30	0	611319808	63	4240
2026-01-04 14:00:35.00	228.95	11.81	-48.4	-49.7	15.2	0.00e+00	0	30	0	633339904	63	4052
2026-01-04 14:00:39.00	229.50	12.07	-48.3	-49.5	15.3	0.00e+00	0	30	0	656408576	63	3976
2026-01-04 14:00:43.01	230.06	12.34	-48.5	-49.7	15.2	0.00e+00	0	30	0	678428672	63	4062
2026-01-04 14:00:47.01	230.63	12.60	-48.4	-49.6	15.2	0.00e+00	0	30	0	701497344	63	4023
2026-01-04 14:00:51.02	231.21	12.87	-48.0	-49.1	15.3	0.00e+00	0	30	0	723517440	62	4025
2026-01-04 14:00:55.01	231.80	13.13	-47.8	-49.0	15.4	0.00e+00	0	30	0	746586112	62	3963
2026-01-04 14:00:58.99	232.39	13.40	-47.9	-49.1	15.3	0.00e+00	0	30	0	768606208	62	4009
2026-01-04 14:01:02.97	233.00	13.66	-47.9	-49.0	15.3	0.00e+00	0	30	0	790626304	62	4002
2026-01-04 14:01:06.96	233.62	13.92	-47.9	-49.1	15.4	0.00e+00	0	30	0	813694976	62	4005
2026-01-04 14:01:10.95	234.25	14.19	-47.9	-49.0	15.4	0.00e+00	0	30	0	835715072	62	4003
2026-01-04 14:01:14.94	234.89	14.45	-47.9	-49.0	15.4	0.00e+00	0	30	0	857735168	62	3984
2026-01-04 14:01:18.95	235.54	14.72	-47.8	-49.0	15.4	0.00e+00	0	30	0	880803840	62	3968
2026-01-04 14:01:22.96	236.21	14.98	-47.5	-48.7	15.4	0.00e+00	0	30	0	903872512	61	4055
2026-01-04 14:01:26.95	236.88	15.24	-47.5	-48.6	15.4	0.00e+00	0	30	0	925892608	61	4043
2026-01-04 14:01:30.93	237.56	15.50	-47.6	-48.7	15.4	0.00e+00	0	30	0	947912704	61	4067
2026-01-04 14:01:34.92	238.26	15.76	-47.5	-48.6	15.4	0.00e+00	0	30	0	970981376	61	4020
2026-01-04 14:01:38.90	238.97	16.02	-47.3	-48.4	15.5	0.00e+00	0	30	0	993001472	61	3941
2026-01-04 14:01:42.89	239.69	16.28	-47.3	-48.4	15.5	0.00e+00	0	30	0	1015021568	61	3933
2026-01-04 14:01:46.89	240.42	16.54	-47.4	-48.6	15.4	0.00e+00	0	30	0	1038090240	61	4014
2026-01-04 14:01:50.89	241.17	16.79	-47.1	-48.2	15.4	0.00e+00	0	30	0	1060110336	60	4065
2026-01-04 14:01:54.88	241.93	17.04	-47.0	-48.0	15.5	0.00e+00	0	30	0	1083179008	60	3996
2026-01-04 14:01:58.87	242.70	17.29	-47.0	-48.0	15.5	0.00e+00	0	30	0	1105199104	60	4001
2026-01-04 14:02:02.83	243.47	17.54	-47.1	-48.2	15.5	0.00e+00	0	30	0	1127219200	60	4053
2026-01-04 14:02:06.81	244.26	17.78	-47.1	-48.2	15.4	0.00e+00	0	30	0	1150287872	60	4072
2026-01-04 14:02:10.81	245.07	18.02	-47.0	-48.1	15.5	0.00e+00	0	30	0	1172307968	60	4024
2026-01-04 14:02:14.82	245.90	18.26	-46.7	-47.8	15.6	0.00e+00	0	30	0	1195376640	60	3888
2026-01-04 14:02:18.81	246.73	18.50	-46.8	-47.9	15.5	0.00e+00	0	30	0	1217396736	60	3938
2026-01-04 14:02:22.83	247.58	18.73	-47.0	-48.1	15.4	0.00e+00	0	30	0	1240465408	59	4287
2026-01-04 14:02:26.82	248.44	18.96	-47.0	-48.1	15.4	0.00e+00	0	30	0	1262485504	59	4269
2026-01-04 14:02:30.81	249.30	19.18	-47.2	-48.3	15.4	0.00e+00	0	30	0	1284505600	59	4357
2026-01-04 14:02:34.80	250.19	19.40	-46.9	-48.0	15.4	0.00e+00	0	30	0	1307574272	59	4212
2026-01-04 14:02:38.79	251.08	19.61	-47.0	-48.1	15.4	0.00e+00	0	30	0	1329594368	59	4261
2026-01-04 14:02:42.79	251.99	19.82	-46.9	-48.0	15.4	0.00e+00	0	30	0	1352663040	59	4209
2026-01-04 14:02:46.79	252.91	20.02	-46.7	-47.7	15.5	0.00e+00	0	30	0	1374683136	59	4098
2026-01-04 14:02:50.81	253.84	20.22	-46.5	-47.6	15.6	0.00e+00	0	30	0	1397751808	59	4026
2026-01-04 14:02:54.81	254.79	20.41	-46.6	-47.7	15.5	0.00e+00	0	30	0	1419771904	59	4081
2026-01-04 14:02:58.79	255.73	20.60	-46.5	-47.6	15.6	0.00e+00	0	30	0	1441792000	59	4011
2026-01-04 14:03:02.77	256.70	20.77	-46.7	-47.8	15.5	0.00e+00	0	30	0	1464860672	59	4112
2026-01-04 14:03:06.75	257.67	20.94	-46.7	-47.8	15.5	0.00e+00	0	30	0	1486880768	59	4111
2026-01-04 14:03:10.75	258.65	21.11	-46.7	-47.7	15.5	0.00e+00	0	30	0	1509949440	59	4095
2026-01-04 14:03:14.74	259.65	21.26	-46.7	-47.8	15.5	0.00e+00	0	30	0	1531969536	59	4099
2026-01-04 14:03:18.73	260.65	21.41	-46.5	-47.6	15.6	0.00e+00	0	30	0	1553989632	59	4018
2026-01-04 14:03:22.73	261.66	21.55	-46.4	-47.5	15.6	0.00e+00	0	30	0	1577058304	59	3961
2026-01-04 14:03:26.73	262.69	21.69	-46.5	-47.6	15.6	0.00e+00	0	30	0	1599078400	59	4019
2026-01-04 14:03:30.73	263.72	21.81	-46.6	-47.6	15.5	0.00e+00	0	30	0	1622147072	59	4042
2026-01-04 14:03:34.73	264.76	21.93	-46.6	-47.6	15.5	0.00e+00	0	30	0	1644167168	59	4045
2026-01-04 14:03:38.71	265.80	22.03	-46.7	-47.8	15.5	0.00e+00	0	30	0	1667235840	59	4119
2026-01-04 14:03:42.72	266.86	22.13	-46.4	-47.5	15.6	0.00e+00	0	30	0	1689255936	59	3974
2026-01-04 14:03:46.72	267.92	22.22	-46.5	-47.6	15.6	0.00e+00	0	30	0	1711276032	59	4012
2026-01-04 14:03:50.71	268.98	22.29	-46.4	-47.5	15.6	0.00e+00	0	30	0	1734344704	59	3977
2026-01-04 14:03:54.71	270.05	22.36	-46.5	-47.5	15.6	0.00e+00	0	30	0	1756364800	59	3992
2026-01-04 14:03:58.71	271.12	22.42	-46.4	-47.5	15.5	0.00e+00	0	30	0	1779433472	58	4205
2026-01-04 14:04:02.71	272.20	22.47	-46.5	-47.6	15.5	0.00e+00	0	30	0	1801453568	58	4266
2026-01-04 14:04:06.69	273.28	22.50	-46.4	-47.5	15.5	0.00e+00	0	30	0	1824522240	58	4194
2026-01-04 14:04:10.68	274.36	22.53	-46.5	-47.6	15.5	0.00e+00	0	30	0	1846542336	58	4276
2026-01-04 14:04:14.67	275.44	22.55	-46.4	-47.4	15.5	0.00e+00	0	30	0	1868562432	58	4184
2026-01-04 14:04:18.67	276.52	22.56	-46.5	-47.5	15.5	0.00e+00	0	30	0	1891631104	58	4232
2026-01-04 14:04:22.68	277.61	22.55	-46.5	-47.5	15.5	0.00e+00	0	30	0	1914699776	58	4228
2026-01-04 14:04:26.68	278.69	22.54	-46.5	-47.6	15.5	0.00e+00	0	30	0	1936719872	58	4280
2026-01-04 14:04:30.68	279.78	22.51	-46.5	-47.6	15.5	0.00e+00	0	30	0	1958739968	58	4268
2026-01-04 14:04:34.66	280.85	22.48	-46.5	-47.5	15.5	0.00e+00	0	30	0	1981808640	58	4240
2026-01-04 14:04:38.66	281.93	22.43	-46.7	-47.8	15.4	0.00e+00	0	30	0	2003828736	58	4349
2026-01-04 14:04:42.67	283.01	22.38	-46.5	-47.6	15.5	0.00e+00	0	30	0	2026897408	58	4246
2026-01-04 14:04:46.67	284.08	22.31	-46.6	-47.7	15.5	0.00e+00	0	30	0	2048917504	58	4300
2026-01-04 14:04:50.66	285.14	22.24	-46.7	-47.7	15.5	0.00e+00	0	30	0	2070937600	58	4334
2026-01-04 14:04:54.65	286.20	22.16	-46.7	-47.8	15.4	0.00e+00	0	30	0	2094006272	58	4362
2026-01-04 14:04:58.64	287.25	22.06	-46.7	-47.8	15.4	0.00e+00	0	30	0	2116026368	58	4375
2026-01-04 14:05:02.64	288.30	21.96	-46.9	-48.0	15.4	0.00e+00	0	30	0	2139095040	58	4476
2026-01-04 14:05:06.63	289.33	21.85	-47.0	-48.1	15.4	0.00e+00	0	30	0	2161115136	59	4270
2026-01-04 14:05:10.60	290.36	21.73	-46.9	-47.9	15.5	0.00e+00	0	30	0	2184183808	59	4179
2026-01-04 14:05:14.59	291.38	21.60	-46.8	-47.9	15.5	0.00e+00	0	30	0	2206203904	59	4161
2026-01-04 14:05:18.58	292.40	21.46	-47.0	-48.1	15.4	0.00e+00	0	30	0	2228224000	59	4257
2026-01-04 14:05:22.59	293.40	21.31	-46.9	-48.0	15.5	0.00e+00	0	30	0	2251292672	59	4197
2026-01-04 14:05:26.60	294.40	21.16	-47.0	-48.1	15.5	0.00e+00	0	30	0	2273312768	59	4249
2026-01-04 14:05:30.60	295.39	21.00	-47.2	-48.3	15.4	0.00e+00	0	30	0	2296381440	59	4373
2026-01-04 14:05:34.59	296.37	20.83	-47.0	-48.1	15.5	0.00e+00	0	30	0	2318401536	60	4015
2026-01-04 14:05:38.58	297.33	20.65	-46.8	-47.8	15.6	0.00e+00	0	30	0	2341470208	60	3913
2026-01-04 14:05:42.58	298.29	20.47	-46.8	-47.9	15.6	0.00e+00	0	30	0	2363490304	60	3940
2026-01-04 14:05:46.57	299.23	20.28	-47.0	-48.1	15.5	0.00e+00	0	30	0	2385510400	60	4033
2026-01-04 14:05:50.57	300.16	20.09	-47.0	-48.1	15.5	0.00e+00	0	30	0	2408579072	60	4035
2026-01-04 14:05:54.58	301.08	19.89	-47.0	-48.1	15.5	0.00e+00	0	30	0	2431647744	60	4023
2026-01-04 14:05:58.57	301.99	19.68	-47.0	-48.1	15.5	0.00e+00	0	30	0	2453667840	60	4032
2026-01-04 14:06:02.56	302.88	19.47	-47.1	-48.2	15.5	0.00e+00	0	30	0	2475687936	60	4052
2026-01-04 14:06:06.54	303.76	19.26	-47.1	-48.1	15.5	0.00e+00	0	30	0	2498756608	60	4050
2026-01-04 14:06:10.52	304.63	19.04	-47.2	-48.2	15.5	0.00e+00	0	30	0	2520776704	60	4098
2026-01-04 14:06:14.51	305.49	18.81	-47.0	-48.0	15.5	0.00e+00	0	30	0	2542796800	60	3990
2026-01-04 14:06:18.49	306.33	18.59	-47.4	-48.6	15.4	0.00e+00	0	30	0	2565865472	60	4256
2026-01-04 14:06:22.49	307.17	18.35	-47.5	-48.6	15.3	0.00e+00	0	30	0	2587885568	60	4272
2026-01-04 14:06:26.47	307.99	18.12	-47.3	-48.3	15.4	0.00e+00	0	30	0	2609905664	60	4132
2026-01-04 14:06:30.47	308.80	17.88	-47.3	-48.4	15.4	0.00e+00	0	30	0	2632974336	60	4174
2026-01-04 14:06:34.45	309.59	17.64	-47.3	-48.4	15.4	0.00e+00	0	30	0	2654994432	60	4179
2026-01-04 14:06:38.45	310.38	17.39	-47.6	-48.7	15.3	0.00e+00	0	30	0	2678063104	60	4334
2026-01-04 14:06:42.45	311.15	17.14	-47.8	-48.9	15.2	0.00e+00	0	30	0	2700083200	60	4427
2026-01-04 14:06:46.44	311.91	16.89	-48.0	-49.2	15.3	0.00e+00	0	30	0	2723151872	61	4306
2026-01-04 14:06:50.44	312.66	16.64	-48.2	-49.4	15.2	0.00e+00	0	30	0	2745171968	61	4405
2026-01-04 14:06:54.44	313.39	16.39	-47.8	-49.0	15.3	0.00e+00	0	30	0	2768240640	61	4199
2026-01-04 14:06:58.44	314.12	16.13	-47.8	-48.9	15.3	0.00e+00	0	30	0	2790260736	61	4177
2026-01-04 14:07:02.43	314.83	15.87	-47.7	-48.8	15.4	0.00e+00	0	30	0	2813329408	61	4117
2026-01-04 14:07:06.41	315.53	15.62	-47.7	-48.8	15.3	0.00e+00	0	30	0	2835349504	61	4143
2026-01-04 14:07:10.38	316.21	15.36	-48.0	-49.1	15.2	0.00e+00	0	30	0	2857369600	61	4275
2026-01-04 14:07:14.37	316.89	15.10	-48.2	-49.3	15.2	0.00e+00	0	30	0	2879389696	61	4382
2026-01-04 14:07:18.36	317.55	14.84	-48.1	-49.2	15.2	0.00e+00	0	30	0	2902458368	61	4338
2026-01-04 14:07:22.34	318.20	14.58	-48.3	-49.5	15.1	0.00e+00	0	30	0	2924478464	61	4488
2026-01-04 14:07:26.34	318.85	14.32	-48.3	-49.5	15.2	0.00e+00	0	30	0	2947547136	62	4208
2026-01-04 14:07:30.31	319.47	14.05	-48.2	-49.3	15.2	0.00e+00	0	30	0	2969567232	62	4140
2026-01-04 14:07:34.32	320.10	13.79	-48.3	-49.4	15.2	0.00e+00	0	30	0	2991587328	62	4192
2026-01-04 14:07:38.31	320.71	13.53	-48.2	-49.4	15.2	0.00e+00	0	30	0	3014656000	62	4173
2026-01-04 14:07:42.30	321.31	13.26	-48.3	-49.5	15.2	0.00e+00	0	30	0	3036676096	62	4233
2026-01-04 14:07:46.30	321.90	13.00	-48.3	-49.4	15.2	0.00e+00	0	30	0	3059744768	62	4181
2026-01-04 14:07:50.29	322.48	12.74	-48.4	-49.5	15.1	0.00e+00	0	30	0	3081764864	62	4238
2026-01-04 14:07:54.27	323.05	12.48	-48.6	-49.8	15.1	0.00e+00	0	30	0	3103784960	62	4376
2026-01-04 14:07:58.26	323.61	12.22	-48.6	-49.8	15.1	0.00e+00	0	30	0	3126853632	62	4357
2026-01-04 14:08:02.26	324.16	11.95	-48.6	-49.8	15.1	0.00e+00	0	30	0	3148873728	62	4359
2026-01-04 14:08:06.25	324.70	11.69	-48.7	-49.9	15.0	0.00e+00	0	30	0	3171942400	62	4406
2026-01-04 14:08:10.25	325.23	11.43	-48.9	-50.1	15.0	0.00e+00	0	30	0	3193962496	63	4282
2026-01-04 14:08:14.24	325.75	11.17	-49.0	-50.2	15.0	0.00e+00	0	30	0	3217031168	63	4330
2026-01-04 14:08:18.22	326.27	10.91	-49.0	-50.3	15.0	0.00e+00	0	30	0	3239051264	63	4350
2026-01-04 14:08:22.21	326.77	10.66	-49.1	-50.4	14.9	0.00e+00	0	30	0	3261071360	63	4403
2026-01-04 14:08:26.20	327.27	10.40	-49.2	-50.5	14.9	0.00e+00	0	30	0	3284140032	63	4446
2026-01-04 14:08:30.19	327.76	10.14	-49.2	-50.5	14.9	0.00e+00	0	30	0	3306160128	63	4458
2026-01-04 14:08:34.19	328.24	9.89	-49.2	-50.5	14.9	0.00e+00	0	30	0	3329228800	63	4457
2026-01-04 14:08:38.19	328.71	9.63	-49.1	-50.4	14.9	0.00e+00	0	30	0	3351248896	63	4402
2026-01-04 14:08:42.19	329.18	9.38	-49.2	-50.5	14.8	0.00e+00	0	30	0	3374317568	63	4456
2026-01-04 14:08:46.18	329.64	9.12	-49.2	-50.5	14.8	0.00e+00	0	30	0	3396337664	63	4474
2026-01-04 14:08:50.17	330.08	8.87	-49.5	-50.8	14.8	0.00e+00	0	30	0	3418357760	64	4372
2026-01-04 14:08:54.16	330.53	8.62	-49.4	-50.7	14.8	0.00e+00	0	30	0	3441426432	64	4322
2026-01-04 14:08:58.14	330.96	8.37	-49.2	-50.5	14.9	0.00e+00	0	30	0	3463446528	64	4202
2026-01-04 14:09:02.12	331.39	8.13	-49.2	-50.5	14.9	0.00e+00	0	30	0	3485466624	64	4218
2026-01-04 14:09:06.11	331.81	7.88	-49.4	-50.7	14.8	0.00e+00	0	30	0	3508535296	64	4323
2026-01-04 14:09:10.09	332.22	7.63	-49.6	-51.0	14.7	0.00e+00	0	30	0	3530555392	64	4469
2026-01-04 14:09:14.06	332.63	7.39	-49.8	-51.2	14.6	0.00e+00	0	30	0	3552575488	64	4561
2026-01-04 14:09:18.05	333.03	7.15	-49.9	-51.3	14.6	0.00e+00	0	30	0	3575644160	65	4379
2026-01-04 14:09:22.05	333.43	6.90	-50.0	-51.4	14.6	0.00e+00	0	30	0	3597664256	65	4434
2026-01-04 14:09:26.04	333.81	6.66	-50.0	-51.4	14.5	0.00e+00	0	30	0	3620732928	65	4430
2026-01-04 14:09:30.04	334.20	6.42	-50.2	-51.7	14.4	0.00e+00	0	30	0	3642753024	65	4555
2026-01-04 14:09:34.03	334.58	6.18	-50.2	-51.7	14.4	0.00e+00	0	30	0	3665821696	65	4578
2026-01-04 14:09:38.03	334.95	5.94	-50.3	-51.8	14.3	0.00e+00	0	30	0	3687841792	65	4617
2026-01-04 14:09:42.02	335.31	5.71	-50.4	-51.8	14.3	0.00e+00	0	30	0	3709861888	66	4383
2026-01-04 14:09:46.02	335.67	5.47	-50.3	-51.8	14.4	0.00e+00	0	30	0	3732930560	66	4375
2026-01-04 14:09:50.02	336.03	5.24	-50.6	-52.1	14.2	0.00e+00	0	30	0	3754950656	66	4508
2026-01-04 14:09:54.00	336.38	5.01	-50.4	-51.9	14.3	0.00e+00	0	30	0	3778019328	66	4427
2026-01-04 14:09:58.01	336.72	4.77	-60.7	-73.8	3.8	8.46e-01	0	30	104	3783262208	86	17347
2026-01-04 14:10:02.01	337.06	4.54	-61.3	-74.4	3.8	8.46e-01	0	30	104	3783262208	87	17596
2026-01-04 14:10:06.01	337.40	4.31	-61.6	-74.6	3.8	8.45e-01	0	30	104	3783262208	88	17021
2026-01-04 14:10:10.00	337.73	4.08	-61.6	-74.7	3.8	8.45e-01	0	30	104	3783262208	88	17123
2026-01-04 14:10:13.99	338.05	3.86	-61.7	-74.7	3.8	8.46e-01	0	30	104	3783262208	88	17278
2026-01-04 14:10:17.99	338.37	3.63	-61.6	-74.7	3.8	8.47e-01	0	30	104	3783262208	88	17167
2026-01-04 14:10:21.97	338.69	3.41	-61.6	-74.6	3.8	8.44e-01	0	30	104	3783262208	88	17066
2026-01-04 14:10:25.97	339.00	3.18	-61.5	-74.6	3.8	8.46e-01	0	30	104	3783262208	88	16930
2026-01-04 14:10:29.97	339.30	2.96	-61.5	-74.5	3.8	8.45e-01	0	30	104	3783262208	88	16851
2026-01-04 14:10:33.96	339.61	2.74	-61.4	-74.5	3.8	8.45e-01	0	30	104	3783262208	88	16747
2026-01-04 14:10:37.96	339.91	2.52	-61.4	-74.5	3.8	8.44e-01	0	30	104	3783262208	88	16735
2026-01-04 14:10:41.96	340.20	2.30	-60.1	-73.9	4.0	8.41e-01	0	30	104	3783262208	86	17639
2026-01-04 14:10:45.96	340.49	2.08	-60.9	-74.2	3.8	8.43e-01	0	30	104	3783262208	86	18227

#Closed at: 2026-01-04 14:10:48
#Recorded file [3783 MB]: D:/lorett/data/31004_260104_165754.dat