passes_logs/2026/01/04/R3.2S_Murmansk/R3.2S_Murmansk__20260104_215829_NOAA_20_JPSS-1_rec.log

#Pass ID: 20260104_215829_NOAA 20 (JPSS-1)
#Satellite: NOAA 20 (JPSS-1)
#Configuration: NOAA 20
#almurnet v.1.7.20251203
#Start time: 2026-01-04 21:58:29

#Version: 2.2.20231116
#Station: R3.2S_Murmansk
#Location: 33.079688 lon 68.888172 lat
#TLE: 1 43013U 17073A   26004.47528369  .00000132  00000+0  83671-4 0  9999
#TLE: 2 43013  98.7626 305.5264 0001854  54.5883 305.5466 14.19533142421242

#Time	Az	El	Level	Level2	SNR	BER	BlckErr	Temp	State	Recorded	gain1	gain2
2026-01-04 21:58:29.98	18.54	2.03	-58.4	-74.4	3.8	1.49e+00	0	26	0	0	83	22160
2026-01-04 21:58:33.01	18.78	2.19	-58.4	-74.4	3.8	1.49e+00	0	26	104	0	81	24734
2026-01-04 21:58:36.03	19.02	2.34	-58.4	-74.3	3.8	1.49e+00	0	26	104	0	81	24558
2026-01-04 21:58:39.06	19.27	2.50	-58.4	-74.3	3.8	1.49e+00	0	26	104	0	81	24595
2026-01-04 21:58:42.09	19.52	2.66	-58.4	-74.4	3.8	1.49e+00	0	26	104	0	81	24844
2026-01-04 21:58:45.10	19.78	2.82	-58.4	-74.3	3.9	1.49e+00	0	26	104	0	81	24654
2026-01-04 21:58:48.13	20.03	2.98	-58.4	-74.3	3.8	1.49e+00	0	26	104	0	81	24550
2026-01-04 21:58:51.15	20.29	3.14	-58.4	-74.4	3.8	1.49e+00	0	26	104	0	81	24703
2026-01-04 21:58:54.17	20.55	3.30	-58.4	-73.8	3.8	1.49e+00	0	26	104	0	81	23214
2026-01-04 21:58:57.20	20.81	3.46	-58.4	-73.2	3.8	1.49e+00	0	27	104	0	81	21692
2026-01-04 21:59:00.22	21.08	3.62	-58.3	-72.7	3.8	1.49e+00	0	27	104	0	81	20413
2026-01-04 21:59:03.25	21.35	3.78	-58.2	-70.5	4.3	1.39e+00	0	27	0	0	81	15762
2026-01-04 21:59:06.28	21.62	3.94	-58.1	-68.9	4.9	7.87e-01	0	27	0	5242880	81	13156
2026-01-04 21:59:09.30	21.89	4.10	-57.9	-67.3	5.8	4.46e-01	0	27	0	10485760	81	10918
2026-01-04 21:59:12.33	22.17	4.27	-56.8	-62.1	10.0	6.26e-03	0	27	0	15728640	80	6359
2026-01-04 21:59:15.36	22.45	4.43	-55.4	-58.9	12.2	0.00e+00	0	27	0	22020096	77	5274
2026-01-04 21:59:18.39	22.74	4.59	-55.1	-58.5	12.4	0.00e+00	0	27	0	27262976	76	5306
2026-01-04 21:59:21.41	23.02	4.76	-56.5	-61.4	10.5	1.62e-04	0	27	0	33554432	78	6635
2026-01-04 21:59:24.44	23.31	4.92	-57.7	-66.0	6.7	9.03e-02	0	27	0	38797312	80	9982
2026-01-04 21:59:27.46	23.60	5.09	-57.2	-63.7	8.8	3.36e-04	0	27	0	44040192	79	8130
2026-01-04 21:59:30.48	23.90	5.25	-58.0	-67.5	5.8	2.90e-02	0	27	0	48234496	81	11205
2026-01-04 21:59:33.51	24.20	5.42	-56.5	-61.3	10.6	5.37e-04	0	27	0	52428800	79	6189
2026-01-04 21:59:36.53	24.50	5.59	-55.7	-59.5	11.9	6.10e-06	0	27	0	57671680	78	5311
2026-01-04 21:59:39.56	24.81	5.75	-55.0	-58.1	12.7	0.00e+00	0	27	0	63963136	76	5100
2026-01-04 21:59:42.59	25.12	5.92	-55.0	-58.1	12.8	0.00e+00	0	27	0	69206016	76	5068
2026-01-04 21:59:45.61	25.43	6.09	-54.9	-57.9	13.0	0.00e+00	0	27	0	75497472	76	4955
2026-01-04 21:59:48.63	25.74	6.25	-54.8	-57.7	13.1	0.00e+00	0	28	0	80740352	76	4838
2026-01-04 21:59:51.66	26.06	6.42	-54.6	-57.5	13.1	0.00e+00	0	28	0	85983232	75	5031
2026-01-04 21:59:54.69	26.38	6.59	-54.5	-57.3	13.2	0.00e+00	0	27	0	92274688	75	4923
2026-01-04 21:59:57.71	26.71	6.76	-54.2	-56.8	13.5	0.00e+00	0	28	0	97517568	75	4640
2026-01-04 22:00:00.74	27.04	6.93	-54.2	-56.8	13.4	0.00e+00	0	28	0	103809024	74	4921
2026-01-04 22:00:03.77	27.37	7.10	-54.1	-56.7	13.5	0.00e+00	0	28	0	109051904	74	4850
2026-01-04 22:00:06.78	27.71	7.27	-53.9	-56.3	13.7	0.00e+00	0	28	0	114294784	74	4641
2026-01-04 22:00:09.80	28.05	7.44	-53.9	-56.4	13.7	0.00e+00	0	28	0	120586240	74	4669
2026-01-04 22:00:12.84	28.40	7.61	-53.8	-56.2	13.8	0.00e+00	0	27	0	125829120	74	4589
2026-01-04 22:00:15.86	28.74	7.78	-53.8	-56.1	13.9	0.00e+00	0	28	0	132120576	74	4526
2026-01-04 22:00:18.89	29.10	7.95	-53.7	-56.0	13.8	0.00e+00	0	28	0	137363456	73	4738
2026-01-04 22:00:21.91	29.45	8.12	-53.7	-56.1	13.8	0.00e+00	0	28	0	142606336	73	4776
2026-01-04 22:00:24.94	29.81	8.30	-53.6	-55.8	13.9	0.00e+00	0	28	0	148897792	73	4648
2026-01-04 22:00:27.96	30.18	8.47	-53.7	-56.0	13.8	0.00e+00	0	28	0	154140672	73	4744
2026-01-04 22:00:30.98	30.55	8.64	-53.9	-56.3	13.7	0.00e+00	0	28	0	160432128	73	4908
2026-01-04 22:00:34.01	30.92	8.81	-53.9	-56.3	13.7	0.00e+00	0	28	0	165675008	73	4900
2026-01-04 22:00:37.04	31.30	8.99	-53.9	-56.3	13.7	0.00e+00	0	28	0	171966464	73	4871
2026-01-04 22:00:40.05	31.68	9.16	-53.8	-56.1	13.8	0.00e+00	0	28	0	177209344	73	4811
2026-01-04 22:00:43.08	32.06	9.33	-53.6	-55.9	13.9	0.00e+00	0	28	0	182452224	73	4688
2026-01-04 22:00:46.09	32.45	9.50	-53.6	-55.9	13.9	0.00e+00	0	28	0	188743680	73	4685
2026-01-04 22:00:49.11	32.85	9.67	-53.7	-56.0	13.9	0.00e+00	0	28	0	193986560	73	4739
2026-01-04 22:00:52.13	33.25	9.85	-53.6	-55.9	13.9	0.00e+00	0	28	0	200278016	73	4656
2026-01-04 22:00:55.15	33.65	10.02	-53.5	-55.8	14.0	0.00e+00	0	28	0	205520896	73	4602
2026-01-04 22:00:58.18	34.06	10.19	-53.4	-55.6	14.0	0.00e+00	0	28	0	210763776	73	4521
2026-01-04 22:01:01.20	34.47	10.37	-53.4	-55.6	14.1	0.00e+00	0	28	0	217055232	73	4496
2026-01-04 22:01:04.23	34.89	10.54	-53.5	-55.6	14.1	0.00e+00	0	28	0	222298112	73	4536
2026-01-04 22:01:07.25	35.31	10.71	-53.5	-55.6	14.1	0.00e+00	0	28	0	228589568	73	4544
2026-01-04 22:01:10.28	35.74	10.88	-53.6	-55.8	14.0	0.00e+00	0	28	0	233832448	73	4617
2026-01-04 22:01:13.31	36.17	11.06	-53.2	-55.3	14.2	0.00e+00	0	28	0	239075328	73	4367
2026-01-04 22:01:16.34	36.61	11.23	-53.2	-55.2	14.2	0.00e+00	0	28	0	245366784	72	4578
2026-01-04 22:01:19.37	37.05	11.40	-53.3	-55.4	14.1	0.00e+00	0	28	0	250609664	72	4661
2026-01-04 22:01:22.39	37.50	11.57	-53.0	-55.0	14.3	0.00e+00	0	28	0	256901120	72	4493
2026-01-04 22:01:25.41	37.95	11.74	-52.9	-54.8	14.4	0.00e+00	0	28	0	262144000	72	4374
2026-01-04 22:01:28.43	38.41	11.91	-52.8	-54.7	14.4	0.00e+00	0	28	0	267386880	72	4327
2026-01-04 22:01:31.45	38.87	12.08	-52.8	-54.7	14.4	0.00e+00	0	28	0	273678336	72	4329
2026-01-04 22:01:34.47	39.34	12.25	-52.7	-54.6	14.4	0.00e+00	0	28	0	278921216	71	4513
2026-01-04 22:01:37.50	39.81	12.42	-52.6	-54.5	14.4	0.00e+00	0	28	0	285212672	71	4448
2026-01-04 22:01:40.52	40.29	12.59	-52.7	-54.5	14.4	0.00e+00	0	28	0	290455552	71	4491
2026-01-04 22:01:43.55	40.77	12.76	-52.6	-54.5	14.4	0.00e+00	0	28	0	295698432	71	4468
2026-01-04 22:01:46.57	41.26	12.93	-52.6	-54.4	14.5	0.00e+00	0	28	0	301989888	71	4417
2026-01-04 22:01:49.60	41.76	13.09	-52.4	-54.2	14.6	0.00e+00	0	28	0	307232768	71	4316
2026-01-04 22:01:52.63	42.26	13.26	-52.4	-54.2	14.5	0.00e+00	0	28	0	313524224	71	4320
2026-01-04 22:01:55.66	42.76	13.42	-52.5	-54.3	14.5	0.00e+00	0	28	0	318767104	71	4386
2026-01-04 22:01:58.68	43.27	13.59	-52.4	-54.3	14.5	0.00e+00	0	28	0	325058560	71	4347
2026-01-04 22:02:01.71	43.79	13.75	-52.3	-54.1	14.6	0.00e+00	0	28	0	330301440	71	4280
2026-01-04 22:02:04.73	44.31	13.91	-52.4	-54.2	14.6	0.00e+00	0	28	0	335544320	71	4310
2026-01-04 22:02:07.76	44.84	14.07	-52.6	-54.4	14.5	0.00e+00	0	28	0	341835776	71	4440
2026-01-04 22:02:10.79	45.37	14.23	-52.6	-54.4	14.5	0.00e+00	0	28	0	347078656	71	4413
2026-01-04 22:02:13.82	45.91	14.39	-52.6	-54.5	14.4	0.00e+00	0	28	0	353370112	71	4450
2026-01-04 22:02:16.85	46.46	14.55	-52.8	-54.7	14.4	0.00e+00	0	28	0	358612992	71	4565
2026-01-04 22:02:19.88	47.01	14.71	-53.1	-55.2	14.2	0.00e+00	0	28	0	363855872	71	4818
2026-01-04 22:02:22.91	47.56	14.86	-53.2	-55.2	14.1	0.00e+00	0	28	0	370147328	71	4850
2026-01-04 22:02:25.93	48.12	15.01	-53.2	-55.3	14.1	0.00e+00	0	28	0	375390208	71	4876
2026-01-04 22:02:28.95	48.69	15.16	-53.5	-55.6	14.1	0.00e+00	0	28	0	381681664	72	4764
2026-01-04 22:02:31.98	49.26	15.31	-53.7	-55.9	13.9	0.00e+00	0	28	0	386924544	72	4971
2026-01-04 22:02:35.01	49.84	15.46	-53.8	-56.0	13.9	0.00e+00	0	28	0	392167424	72	5004
2026-01-04 22:02:38.04	50.43	15.61	-53.6	-55.7	14.0	0.00e+00	0	28	0	398458880	72	4863
2026-01-04 22:02:41.06	51.01	15.75	-53.7	-55.9	13.9	0.00e+00	0	28	0	403701760	72	4947
2026-01-04 22:02:44.09	51.61	15.89	-54.1	-56.5	13.8	0.00e+00	0	28	0	409993216	73	4984
2026-01-04 22:02:47.11	52.21	16.03	-54.4	-56.8	13.6	0.00e+00	0	28	0	415236096	74	4895
2026-01-04 22:02:50.14	52.81	16.17	-54.1	-56.4	13.9	0.00e+00	0	28	0	421527552	74	4682
2026-01-04 22:02:53.17	53.43	16.31	-53.9	-56.2	14.0	0.00e+00	0	28	0	426770432	74	4548
2026-01-04 22:02:56.20	54.04	16.44	-54.0	-56.3	13.9	0.00e+00	0	28	0	432013312	74	4617
2026-01-04 22:02:59.23	54.67	16.57	-53.9	-56.1	14.0	0.00e+00	0	28	0	438304768	74	4526
2026-01-04 22:03:02.26	55.29	16.70	-53.6	-55.8	14.1	0.00e+00	0	28	0	443547648	73	4614
2026-01-04 22:03:05.29	55.93	16.83	-53.5	-55.6	14.2	0.00e+00	0	28	0	449839104	73	4507
2026-01-04 22:03:08.31	56.56	16.95	-53.4	-55.4	14.3	0.00e+00	0	28	0	455081984	73	4405
2026-01-04 22:03:11.34	57.20	17.07	-53.1	-55.0	14.3	0.00e+00	0	28	0	460324864	72	4487
2026-01-04 22:03:14.37	57.85	17.19	-52.8	-54.7	14.5	0.00e+00	0	28	0	466616320	72	4324
2026-01-04 22:03:17.39	58.50	17.30	-52.7	-54.5	14.5	0.00e+00	0	28	0	471859200	71	4462
2026-01-04 22:03:20.42	59.16	17.41	-52.9	-54.7	14.4	0.00e+00	0	28	0	478150656	71	4597
2026-01-04 22:03:23.45	59.82	17.52	-53.1	-55.1	14.3	0.00e+00	0	28	0	483393536	71	4768
2026-01-04 22:03:26.48	60.49	17.63	-53.0	-55.0	14.3	0.00e+00	0	28	0	489684992	71	4719
2026-01-04 22:03:29.45	61.15	17.73	-53.0	-54.9	14.3	0.00e+00	0	28	0	494927872	71	4699
2026-01-04 22:03:32.47	61.82	17.82	-53.4	-55.4	14.1	0.00e+00	0	28	0	500170752	71	4968
2026-01-04 22:03:35.49	62.50	17.92	-53.2	-55.2	14.3	0.00e+00	0	28	0	506462208	72	4587
2026-01-04 22:03:38.52	63.18	18.01	-53.0	-54.9	14.4	0.00e+00	0	28	0	511705088	72	4418
2026-01-04 22:03:41.55	63.87	18.10	-53.0	-54.9	14.4	0.00e+00	0	28	0	516947968	72	4422
2026-01-04 22:03:44.58	64.57	18.18	-53.2	-55.2	14.3	0.00e+00	0	28	0	523239424	72	4563
2026-01-04 22:03:47.61	65.26	18.26	-53.2	-55.2	14.3	0.00e+00	0	28	0	528482304	72	4578
2026-01-04 22:03:50.63	65.96	18.34	-53.2	-55.1	14.3	0.00e+00	0	28	0	534773760	72	4544
2026-01-04 22:03:53.65	66.66	18.41	-53.1	-55.0	14.4	0.00e+00	0	28	0	540016640	72	4459
2026-01-04 22:03:56.67	67.36	18.48	-53.1	-55.0	14.4	0.00e+00	0	28	0	545259520	72	4469
2026-01-04 22:03:59.70	68.07	18.55	-53.2	-55.1	14.3	0.00e+00	0	28	0	551550976	72	4529
2026-01-04 22:04:02.73	68.78	18.61	-53.2	-55.1	14.3	0.00e+00	0	28	0	556793856	72	4544
2026-01-04 22:04:05.76	69.50	18.66	-53.2	-55.1	14.3	0.00e+00	0	28	0	563085312	72	4530
2026-01-04 22:04:08.78	70.21	18.71	-53.4	-55.4	14.2	0.00e+00	0	28	0	568328192	72	4667
2026-01-04 22:04:11.80	70.93	18.76	-53.5	-55.6	14.1	0.00e+00	0	28	0	573571072	72	4802
2026-01-04 22:04:14.83	71.65	18.81	-53.5	-55.6	14.1	0.00e+00	0	28	0	579862528	72	4802
2026-01-04 22:04:17.85	72.37	18.85	-53.6	-55.7	14.1	0.00e+00	0	28	0	585105408	72	4846
2026-01-04 22:04:20.87	73.09	18.88	-53.3	-55.2	14.3	0.00e+00	0	28	0	591396864	72	4597
2026-01-04 22:04:23.90	73.82	18.91	-53.6	-55.7	14.1	0.00e+00	0	28	0	596639744	72	4828
2026-01-04 22:04:26.93	74.55	18.94	-53.9	-56.1	14.0	0.00e+00	0	28	0	602931200	73	4771
2026-01-04 22:04:29.94	75.27	18.96	-53.8	-55.9	14.1	0.00e+00	0	28	0	608174080	73	4697
2026-01-04 22:04:32.95	76.00	18.98	-53.3	-55.3	14.3	0.00e+00	0	28	0	613416960	73	4387
2026-01-04 22:04:35.99	76.73	18.99	-53.5	-55.6	14.2	0.00e+00	0	28	0	619708416	73	4500
2026-01-04 22:04:39.00	77.46	19.00	-53.8	-56.0	14.0	0.00e+00	0	28	0	624951296	73	4715
2026-01-04 22:04:42.03	78.19	19.00	-53.7	-55.8	14.1	0.00e+00	0	28	0	631242752	73	4642
2026-01-04 22:04:45.06	78.92	19.00	-53.3	-55.3	14.3	0.00e+00	0	28	0	636485632	73	4365
2026-01-04 22:04:48.09	79.66	18.99	-53.1	-55.1	14.3	0.00e+00	0	28	0	641728512	72	4512
2026-01-04 22:04:51.11	80.38	18.98	-53.2	-55.2	14.3	0.00e+00	0	28	0	648019968	72	4550
2026-01-04 22:04:54.13	81.11	18.97	-53.4	-55.4	14.2	0.00e+00	0	28	0	653262848	72	4700
2026-01-04 22:04:57.15	81.84	18.95	-53.6	-55.8	14.0	0.00e+00	0	28	0	659554304	72	4887
2026-01-04 22:05:00.18	82.57	18.93	-53.9	-56.0	13.9	0.00e+00	0	28	0	664797184	72	5041
2026-01-04 22:05:03.20	83.30	18.90	-53.5	-55.6	14.1	0.00e+00	0	28	0	670040064	72	4798
2026-01-04 22:05:06.22	84.02	18.87	-53.1	-55.1	14.4	0.00e+00	0	28	0	676331520	72	4508
2026-01-04 22:05:09.25	84.75	18.83	-52.8	-54.6	14.5	0.00e+00	0	28	0	681574400	72	4282
2026-01-04 22:05:12.28	85.47	18.79	-53.0	-54.9	14.4	0.00e+00	0	28	0	687865856	72	4441
2026-01-04 22:05:15.31	86.19	18.74	-53.3	-55.4	14.2	0.00e+00	0	28	0	693108736	72	4653
2026-01-04 22:05:18.33	86.91	18.69	-53.3	-55.3	14.3	0.00e+00	0	28	0	698351616	72	4606
2026-01-04 22:05:21.36	87.62	18.64	-52.8	-54.6	14.5	0.00e+00	0	28	0	704643072	72	4280
2026-01-04 22:05:24.39	88.34	18.58	-52.6	-54.4	14.5	0.00e+00	0	28	0	709885952	71	4415
2026-01-04 22:05:27.42	89.05	18.52	-52.2	-53.9	14.6	0.00e+00	0	28	0	716177408	70	4413
2026-01-04 22:05:30.44	89.76	18.45	-52.4	-54.1	14.6	0.00e+00	0	28	0	721420288	70	4538
2026-01-04 22:05:33.47	90.46	18.38	-52.7	-54.5	14.4	0.00e+00	0	28	0	727711744	70	4742
2026-01-04 22:05:36.50	91.16	18.30	-52.8	-54.6	14.3	0.00e+00	0	28	0	732954624	70	4809
2026-01-04 22:05:39.52	91.86	18.23	-52.8	-54.6	14.3	0.00e+00	0	28	0	738197504	70	4807
2026-01-04 22:05:42.55	92.56	18.14	-52.6	-54.4	14.5	0.00e+00	0	28	0	744488960	70	4674
2026-01-04 22:05:45.58	93.25	18.06	-52.5	-54.2	14.5	0.00e+00	0	28	0	749731840	70	4589
2026-01-04 22:05:48.60	93.93	17.97	-51.9	-53.6	14.8	0.00e+00	0	28	0	756023296	70	4253
2026-01-04 22:05:51.63	94.62	17.87	-52.1	-53.7	14.7	0.00e+00	0	28	0	761266176	70	4340
2026-01-04 22:05:54.65	95.30	17.78	-52.0	-53.6	14.7	0.00e+00	0	28	0	766509056	70	4287
2026-01-04 22:05:57.68	95.97	17.68	-51.8	-53.4	14.8	0.00e+00	0	28	0	772800512	70	4189
2026-01-04 22:06:00.70	96.64	17.57	-51.6	-53.2	14.8	0.00e+00	0	28	0	778043392	69	4322
2026-01-04 22:06:03.73	97.31	17.47	-51.4	-53.0	14.9	0.00e+00	0	28	0	784334848	69	4199
2026-01-04 22:06:06.75	97.97	17.36	-51.5	-53.1	14.8	0.00e+00	0	28	0	789577728	69	4277
2026-01-04 22:06:09.78	98.62	17.24	-51.8	-53.4	14.7	0.00e+00	0	28	0	794820608	69	4427
2026-01-04 22:06:12.80	99.27	17.13	-51.9	-53.6	14.7	0.00e+00	0	28	0	801112064	69	4505
2026-01-04 22:06:15.83	99.92	17.01	-52.1	-53.8	14.5	0.00e+00	0	28	0	806354944	69	4647
2026-01-04 22:06:18.85	100.56	16.89	-52.0	-53.7	14.6	0.00e+00	0	28	0	812646400	69	4566
2026-01-04 22:06:21.88	101.20	16.76	-52.4	-54.1	14.4	0.00e+00	0	28	0	817889280	69	4808
2026-01-04 22:06:24.91	101.83	16.63	-52.8	-54.7	14.3	0.00e+00	0	28	0	824180736	70	4824
2026-01-04 22:06:27.92	102.45	16.50	-52.9	-54.8	14.3	0.00e+00	0	28	0	829423616	71	4627
2026-01-04 22:06:30.93	103.07	16.37	-53.0	-54.9	14.3	0.00e+00	0	28	0	834666496	71	4705
2026-01-04 22:06:33.96	103.69	16.24	-53.1	-55.0	14.3	0.00e+00	0	28	0	840957952	71	4750
2026-01-04 22:06:36.99	104.30	16.10	-52.9	-54.7	14.4	0.00e+00	0	28	0	846200832	71	4586
2026-01-04 22:06:40.01	104.90	15.96	-52.9	-54.8	14.4	0.00e+00	0	28	0	852492288	71	4638
2026-01-04 22:06:43.04	105.50	15.82	-53.4	-55.4	14.1	0.00e+00	0	28	0	857735168	71	4958
2026-01-04 22:06:46.07	106.10	15.67	-53.5	-55.6	14.1	0.00e+00	0	28	0	862978048	72	4776
2026-01-04 22:06:49.09	106.68	15.53	-53.3	-55.4	14.2	0.00e+00	0	28	0	869269504	72	4655
2026-01-04 22:06:52.11	107.26	15.38	-53.4	-55.5	14.1	0.00e+00	0	28	0	874512384	72	4730
2026-01-04 22:06:55.13	107.84	15.23	-53.4	-55.4	14.2	0.00e+00	0	28	0	880803840	72	4684
2026-01-04 22:06:58.16	108.41	15.08	-53.5	-55.5	14.1	0.00e+00	0	28	0	886046720	72	4748
2026-01-04 22:07:01.19	108.98	14.93	-53.4	-55.4	14.2	0.00e+00	0	28	0	891289600	72	4689
2026-01-04 22:07:04.21	109.54	14.77	-53.0	-54.9	14.4	0.00e+00	0	28	0	897581056	72	4428
2026-01-04 22:07:07.23	110.09	14.62	-52.7	-54.5	14.6	0.00e+00	0	28	0	902823936	72	4238
2026-01-04 22:07:10.26	110.64	14.46	-52.8	-54.7	14.4	0.00e+00	0	28	0	909115392	71	4584
2026-01-04 22:07:13.29	111.19	14.30	-52.9	-54.8	14.3	0.00e+00	0	28	0	914358272	71	4648
2026-01-04 22:07:16.31	111.72	14.14	-53.6	-55.7	14.1	0.00e+00	0	28	0	919601152	72	4833
2026-01-04 22:07:19.34	112.26	13.98	-53.7	-55.9	13.9	0.00e+00	0	28	0	925892608	72	4951
2026-01-04 22:07:22.36	112.78	13.82	-53.5	-55.6	14.1	0.00e+00	0	28	0	931135488	72	4774
2026-01-04 22:07:25.39	113.30	13.65	-52.9	-54.9	14.4	0.00e+00	0	28	0	937426944	72	4396
2026-01-04 22:07:28.42	113.82	13.49	-52.8	-54.7	14.5	0.00e+00	0	28	0	942669824	72	4321
2026-01-04 22:07:31.44	114.33	13.32	-52.8	-54.7	14.5	0.00e+00	0	28	0	947912704	72	4312
2026-01-04 22:07:34.46	114.83	13.16	-52.6	-54.4	14.5	0.00e+00	0	28	0	954204160	71	4427
2026-01-04 22:07:37.49	115.33	12.99	-52.8	-54.7	14.3	0.00e+00	0	28	0	959447040	71	4591
2026-01-04 22:07:40.52	115.83	12.82	-53.0	-55.0	14.2	0.00e+00	0	28	0	965738496	71	4750
2026-01-04 22:07:43.54	116.31	12.65	-52.9	-54.8	14.3	0.00e+00	0	28	0	970981376	71	4621
2026-01-04 22:07:46.57	116.80	12.48	-52.5	-54.4	14.5	0.00e+00	0	28	0	977272832	71	4408
2026-01-04 22:07:49.60	117.27	12.31	-52.9	-54.8	14.3	0.00e+00	0	28	0	982515712	71	4639
2026-01-04 22:07:52.62	117.74	12.14	-53.1	-55.2	14.1	0.00e+00	0	28	0	987758592	71	4817
2026-01-04 22:07:55.64	118.21	11.97	-52.8	-54.7	14.3	0.00e+00	0	28	0	994050048	71	4591
2026-01-04 22:07:58.67	118.67	11.80	-52.6	-54.5	14.4	0.00e+00	0	28	0	999292928	71	4454
2026-01-04 22:08:01.70	119.13	11.63	-53.0	-55.0	14.2	0.00e+00	0	28	0	1005584384	71	4743
2026-01-04 22:08:04.73	119.58	11.45	-53.2	-55.3	14.1	0.00e+00	0	28	0	1010827264	71	4905
2026-01-04 22:08:07.76	120.03	11.28	-53.0	-55.0	14.2	0.00e+00	0	28	0	1016070144	71	4746
2026-01-04 22:08:10.78	120.47	11.11	-52.9	-54.9	14.2	0.00e+00	0	28	0	1022361600	71	4692
2026-01-04 22:08:13.80	120.90	10.94	-53.1	-55.1	14.1	0.00e+00	0	28	0	1027604480	71	4797
2026-01-04 22:08:16.83	121.34	10.76	-53.3	-55.4	14.0	0.00e+00	0	28	0	1033895936	71	4953
2026-01-04 22:08:19.85	121.76	10.59	-53.2	-55.3	14.0	0.00e+00	0	28	0	1039138816	71	4893
2026-01-04 22:08:22.87	122.18	10.41	-53.0	-55.0	14.2	0.00e+00	0	28	0	1044381696	71	4737
2026-01-04 22:08:25.90	122.60	10.24	-53.2	-55.4	14.0	0.00e+00	0	28	0	1050673152	71	4942
2026-01-04 22:08:28.92	123.01	10.07	-53.6	-55.8	13.8	0.00e+00	0	28	0	1055916032	72	4921
2026-01-04 22:08:31.95	123.42	9.89	-53.5	-55.7	13.9	0.00e+00	0	28	0	1062207488	72	4851
2026-01-04 22:08:34.98	123.82	9.72	-53.3	-55.5	14.0	0.00e+00	0	28	0	1067450368	72	4723
2026-01-04 22:08:38.00	124.22	9.54	-53.4	-55.6	13.9	0.00e+00	0	28	0	1072693248	72	4806
2026-01-04 22:08:41.03	124.61	9.37	-53.7	-56.0	13.7	0.00e+00	0	28	0	1078984704	72	5008
2026-01-04 22:08:44.05	125.00	9.20	-53.7	-56.1	13.7	0.00e+00	0	28	0	1084227584	72	5072
2026-01-04 22:08:47.08	125.39	9.02	-53.6	-55.9	13.8	0.00e+00	0	28	0	1090519040	72	4960
2026-01-04 22:08:50.10	125.76	8.85	-53.6	-55.9	13.8	0.00e+00	0	28	0	1095761920	72	4964
2026-01-04 22:08:53.12	126.14	8.67	-53.8	-56.2	13.6	0.00e+00	0	28	0	1102053376	72	5127
2026-01-04 22:08:56.15	126.51	8.50	-54.0	-56.6	13.5	0.00e+00	0	28	0	1107296256	73	5056
2026-01-04 22:08:59.17	126.88	8.33	-54.2	-56.9	13.3	0.00e+00	0	28	0	1112539136	73	5269
2026-01-04 22:09:02.20	127.24	8.15	-54.0	-56.6	13.5	0.00e+00	0	28	0	1118830592	73	5063
2026-01-04 22:09:05.22	127.60	7.98	-53.8	-56.3	13.6	0.00e+00	0	28	0	1124073472	73	4871
2026-01-04 22:09:08.24	127.95	7.81	-53.9	-56.4	13.5	0.00e+00	0	28	0	1130364928	73	4979
2026-01-04 22:09:11.25	128.30	7.64	-54.1	-56.7	13.4	0.00e+00	0	28	0	1135607808	73	5154
2026-01-04 22:09:14.29	128.65	7.46	-54.0	-56.7	13.4	0.00e+00	0	28	0	1140850688	73	5103
2026-01-04 22:09:17.32	129.00	7.29	-54.0	-56.6	13.4	0.00e+00	0	28	0	1147142144	73	5093
2026-01-04 22:09:20.34	129.33	7.12	-54.1	-56.7	13.3	0.00e+00	0	28	0	1152385024	73	5132
2026-01-04 22:09:23.37	129.67	6.95	-54.4	-57.2	13.1	0.00e+00	0	28	0	1158676480	73	5461
2026-01-04 22:09:26.40	130.00	6.78	-54.6	-57.7	12.8	0.00e+00	0	28	0	1163919360	74	5430
2026-01-04 22:09:29.42	130.33	6.61	-54.6	-57.5	12.9	0.00e+00	0	28	0	1169162240	74	5332
2026-01-04 22:09:32.45	130.65	6.44	-54.4	-57.3	13.0	0.00e+00	0	28	0	1175453696	74	5177
2026-01-04 22:09:35.47	130.98	6.27	-54.4	-57.2	13.1	0.00e+00	0	28	0	1180696576	74	5149
2026-01-04 22:09:38.50	131.29	6.10	-54.5	-57.5	12.9	0.00e+00	0	28	0	1186988032	74	5281
2026-01-04 22:09:41.53	131.61	5.93	-54.7	-57.8	12.7	0.00e+00	0	28	0	1192230912	74	5528
2026-01-04 22:09:44.56	131.92	5.76	-54.9	-58.3	12.4	7.00e-07	0	28	0	1198522368	75	5469
2026-01-04 22:09:47.59	132.22	5.59	-55.1	-58.6	12.2	7.00e-07	0	28	0	1203765248	75	5722
2026-01-04 22:09:50.61	132.53	5.43	-55.1	-58.7	12.1	7.00e-07	0	28	0	1209008128	75	5765
2026-01-04 22:09:53.64	132.83	5.26	-55.1	-58.6	12.1	7.00e-07	0	28	0	1215299584	75	5714
2026-01-04 22:09:56.66	133.12	5.09	-55.0	-58.7	12.1	7.00e-07	0	28	0	1220542464	75	5734
2026-01-04 22:09:59.68	133.42	4.92	-58.7	-74.7	3.8	1.49e+00	0	28	104	1224736768	82	24161
2026-01-04 22:10:02.71	133.71	4.76	-59.8	-75.8	3.8	1.49e+00	0	28	104	1224736768	84	24533
2026-01-04 22:10:05.73	134.00	4.59	-60.1	-76.2	3.8	1.49e+00	0	28	104	1224736768	85	24261
2026-01-04 22:10:08.76	134.28	4.43	-60.4	-76.5	3.8	1.49e+00	0	28	104	1224736768	85	25024
2026-01-04 22:10:11.78	134.56	4.26	-60.7	-76.7	3.8	1.49e+00	0	28	104	1224736768	86	24326
2026-01-04 22:10:14.81	134.84	4.10	-60.8	-76.9	3.8	1.49e+00	0	28	104	1224736768	86	24852
2026-01-04 22:10:17.83	135.11	3.94	-61.0	-77.1	3.8	1.49e+00	0	28	104	1224736768	87	23956
2026-01-04 22:10:20.86	135.39	3.77	-61.1	-77.2	3.8	1.49e+00	0	29	104	1224736768	87	24202
2026-01-04 22:10:23.89	135.66	3.61	-61.0	-77.1	3.8	1.49e+00	0	28	104	1224736768	87	24093
2026-01-04 22:10:26.91	135.92	3.45	-61.0	-77.1	3.8	1.49e+00	0	28	104	1224736768	87	24005
2026-01-04 22:10:29.93	136.19	3.28	-61.0	-77.1	3.8	1.49e+00	0	28	104	1224736768	87	23933
2026-01-04 22:10:32.95	136.45	3.12	-60.9	-77.0	3.8	1.49e+00	0	28	104	1224736768	87	23778
2026-01-04 22:10:35.98	136.71	2.96	-60.9	-77.0	3.8	1.49e+00	0	29	104	1224736768	87	23774
2026-01-04 22:10:39.01	136.96	2.80	-60.9	-77.0	3.8	1.49e+00	0	28	104	1224736768	87	23683
2026-01-04 22:10:42.04	137.22	2.64	-60.9	-77.0	3.8	1.49e+00	0	28	104	1224736768	87	23626
2026-01-04 22:10:45.07	137.47	2.48	-60.9	-76.9	3.8	1.49e+00	0	28	104	1224736768	87	23581
2026-01-04 22:10:48.10	137.72	2.32	-60.9	-76.9	3.8	1.49e+00	0	29	104	1224736768	87	23534
2026-01-04 22:10:51.13	137.96	2.16	-60.9	-76.9	3.8	1.49e+00	0	28	104	1224736768	87	23522
2026-01-04 22:10:54.15	138.20	2.01	-60.8	-76.9	3.8	1.49e+00	0	28	104	1224736768	87	23471

#Closed at: 2026-01-04 22:10:56
#Recorded file [1224 MB]: D:/lorett/data/31004_260105_005829.dat