passes_logs/2026/01/04/R3.2S_Murmansk/R3.2S_Murmansk__20260104_213741_SUOMI_NPP_rec.log

#Pass ID: 20260104_213741_SUOMI NPP
#Satellite: SUOMI NPP
#Configuration: NPP
#almurnet v.1.7.20251203
#Start time: 2026-01-04 21:37:41

#Version: 2.2.20231116
#Station: R3.2S_Murmansk
#Location: 33.079688 lon 68.888172 lat
#TLE: 1 37849U 11061A   26003.96724563  .00000164  00000+0  98899-4 0  9990
#TLE: 2 37849  98.7800 306.1116 0002573  82.3190 277.8279 14.19522066735141

#Time	Az	El	Level	Level2	SNR	BER	BlckErr	Temp	State	Recorded	gain1	gain2
2026-01-04 21:37:41.94	18.52	2.04	-58.4	-74.4	3.8	1.49e+00	0	26	0	0	83	22228
2026-01-04 21:37:44.96	18.79	2.19	-58.4	-74.4	3.8	1.49e+00	0	26	104	0	81	24800
2026-01-04 21:37:47.99	19.07	2.33	-58.4	-74.3	3.8	1.49e+00	0	26	104	0	81	24549
2026-01-04 21:37:51.02	19.36	2.47	-58.4	-74.4	3.8	1.49e+00	0	26	104	0	81	24712
2026-01-04 21:37:54.05	19.64	2.62	-58.4	-74.4	3.8	1.49e+00	0	27	104	0	81	24825
2026-01-04 21:37:57.07	19.93	2.76	-58.4	-74.4	3.8	1.49e+00	0	27	104	0	81	24852
2026-01-04 21:38:00.10	20.22	2.91	-58.4	-74.3	3.8	1.49e+00	0	27	104	0	81	24597
2026-01-04 21:38:03.13	20.51	3.05	-58.4	-74.3	3.8	1.49e+00	0	27	104	0	81	24677
2026-01-04 21:38:06.16	20.81	3.20	-58.4	-74.4	3.8	1.49e+00	0	27	104	0	82	23408
2026-01-04 21:38:09.18	21.11	3.34	-58.5	-74.3	3.8	1.49e+00	0	27	104	0	82	23171
2026-01-04 21:38:12.21	21.41	3.49	-58.4	-74.5	3.8	1.49e+00	0	27	104	0	82	23591
2026-01-04 21:38:15.23	21.72	3.63	-58.4	-73.9	3.8	1.49e+00	0	27	104	0	82	22207
2026-01-04 21:38:18.25	22.02	3.78	-58.4	-73.6	3.8	1.49e+00	0	27	104	0	82	21451
2026-01-04 21:38:21.28	22.33	3.92	-58.4	-73.1	3.8	1.49e+00	0	27	104	0	82	20265
2026-01-04 21:38:24.31	22.65	4.07	-58.3	-70.9	4.2	1.40e+00	0	27	0	0	82	15664
2026-01-04 21:38:27.34	22.96	4.22	-58.2	-69.2	4.8	8.98e-01	0	27	0	3145728	82	12816
2026-01-04 21:38:30.37	23.28	4.36	-57.2	-63.5	8.8	3.56e-02	0	27	0	9437184	81	7104
2026-01-04 21:38:33.40	23.61	4.51	-55.0	-58.2	12.6	2.20e-06	0	27	0	14680064	76	5141
2026-01-04 21:38:36.42	23.93	4.65	-54.0	-56.6	13.4	0.00e+00	0	28	0	20971520	74	4812
2026-01-04 21:38:39.45	24.26	4.80	-55.4	-59.1	12.0	0.00e+00	0	27	0	26214400	75	6051
2026-01-04 21:38:42.47	24.59	4.95	-57.3	-63.7	8.6	1.07e-02	0	27	0	31457280	79	8166
2026-01-04 21:38:45.49	24.93	5.09	-56.9	-62.6	9.7	1.82e-04	0	28	0	37748736	78	7582
2026-01-04 21:38:48.52	25.27	5.24	-57.8	-66.3	6.7	1.72e-02	0	28	0	40894464	80	10313
2026-01-04 21:38:51.55	25.61	5.39	-56.4	-60.9	10.9	1.64e-04	0	28	0	46137344	78	6232
2026-01-04 21:38:54.58	25.95	5.53	-55.4	-58.9	12.3	2.20e-06	0	28	0	51380224	77	5219
2026-01-04 21:38:57.60	26.30	5.68	-54.8	-57.8	12.9	0.00e+00	0	28	0	57671680	76	4913
2026-01-04 21:39:00.63	26.65	5.82	-54.4	-57.1	13.2	0.00e+00	0	28	0	62914560	75	4812
2026-01-04 21:39:03.64	27.00	5.97	-54.4	-57.2	13.2	0.00e+00	0	28	0	69206016	75	4866
2026-01-04 21:39:06.67	27.36	6.12	-54.2	-56.9	13.3	0.00e+00	0	28	0	74448896	74	4949
2026-01-04 21:39:09.70	27.73	6.26	-54.2	-56.8	13.4	0.00e+00	0	28	0	79691776	74	4883
2026-01-04 21:39:12.73	28.09	6.41	-54.3	-57.0	13.2	0.00e+00	0	28	0	85983232	74	5020
2026-01-04 21:39:15.75	28.46	6.55	-54.2	-56.9	13.3	0.00e+00	0	28	0	91226112	74	4949
2026-01-04 21:39:18.77	28.83	6.70	-54.1	-56.7	13.5	0.00e+00	0	28	0	97517568	74	4848
2026-01-04 21:39:21.80	29.21	6.85	-54.0	-56.5	13.6	0.00e+00	0	28	0	102760448	74	4722
2026-01-04 21:39:24.83	29.59	6.99	-53.8	-56.1	13.8	0.00e+00	0	28	0	108003328	74	4530
2026-01-04 21:39:27.85	29.97	7.14	-53.4	-55.6	14.0	0.00e+00	0	28	0	114294784	73	4523
2026-01-04 21:39:30.87	30.35	7.28	-53.4	-55.6	14.0	0.00e+00	0	28	0	119537664	73	4519
2026-01-04 21:39:33.90	30.75	7.42	-53.4	-55.6	14.0	0.00e+00	0	28	0	125829120	73	4545
2026-01-04 21:39:36.93	31.14	7.57	-53.2	-55.3	14.1	0.00e+00	0	28	0	131072000	72	4645
2026-01-04 21:39:39.96	31.54	7.71	-52.9	-55.0	14.2	0.00e+00	0	28	0	137363456	72	4470
2026-01-04 21:39:42.98	31.94	7.86	-52.8	-54.8	14.3	0.00e+00	0	28	0	142606336	72	4349
2026-01-04 21:39:46.01	32.35	8.00	-52.7	-54.7	14.2	0.00e+00	0	28	0	147849216	71	4549
2026-01-04 21:39:49.04	32.76	8.14	-53.0	-55.1	14.1	0.00e+00	0	28	0	154140672	71	4776
2026-01-04 21:39:52.07	33.17	8.28	-53.1	-55.2	14.0	0.00e+00	0	28	0	159383552	71	4847
2026-01-04 21:39:55.09	33.59	8.43	-53.0	-55.1	14.0	0.00e+00	0	28	0	165675008	71	4775
2026-01-04 21:39:58.12	34.01	8.57	-53.0	-55.1	14.1	0.00e+00	0	28	0	170917888	71	4776
2026-01-04 21:40:01.15	34.43	8.71	-53.0	-55.1	14.1	0.00e+00	0	28	0	176160768	71	4793
2026-01-04 21:40:04.18	34.86	8.85	-53.2	-55.3	14.0	0.00e+00	0	28	0	182452224	71	4914
2026-01-04 21:40:07.20	35.29	8.99	-53.3	-55.5	13.9	0.00e+00	0	28	0	187695104	71	5014
2026-01-04 21:40:10.23	35.73	9.13	-53.2	-55.3	14.0	0.00e+00	0	28	0	193986560	71	4874
2026-01-04 21:40:13.25	36.17	9.27	-53.2	-55.3	14.0	0.00e+00	0	28	0	199229440	71	4915
2026-01-04 21:40:16.29	36.62	9.40	-53.3	-55.4	13.9	0.00e+00	0	28	0	204472320	71	4967
2026-01-04 21:40:19.31	37.07	9.54	-53.2	-55.3	14.1	0.00e+00	0	28	0	210763776	72	4616
2026-01-04 21:40:22.33	37.52	9.68	-53.0	-55.0	14.2	0.00e+00	0	28	0	216006656	72	4482
2026-01-04 21:40:25.36	37.98	9.81	-53.1	-55.2	14.1	0.00e+00	0	28	0	222298112	72	4549
2026-01-04 21:40:28.38	38.44	9.95	-53.4	-55.6	14.0	0.00e+00	0	28	0	227540992	72	4764
2026-01-04 21:40:31.40	38.90	10.08	-53.5	-55.8	13.8	0.00e+00	0	28	0	233832448	72	4880
2026-01-04 21:40:34.42	39.37	10.21	-53.2	-55.3	14.1	0.00e+00	0	28	0	239075328	72	4620
2026-01-04 21:40:37.44	39.84	10.34	-53.4	-55.6	14.0	0.00e+00	0	28	0	244318208	72	4772
2026-01-04 21:40:40.47	40.32	10.47	-53.6	-55.9	13.8	0.00e+00	0	28	0	250609664	72	4942
2026-01-04 21:40:43.49	40.80	10.60	-53.8	-56.1	13.7	0.00e+00	0	28	0	255852544	72	5080
2026-01-04 21:40:46.51	41.29	10.73	-53.7	-56.0	13.8	0.00e+00	0	28	0	262144000	72	5001
2026-01-04 21:40:49.53	41.78	10.86	-53.5	-55.7	13.9	0.00e+00	0	28	0	267386880	72	4843
2026-01-04 21:40:52.56	42.27	10.99	-53.5	-55.7	13.9	0.00e+00	0	28	0	272629760	72	4841
2026-01-04 21:40:55.59	42.77	11.11	-53.8	-56.1	13.8	0.00e+00	0	28	0	278921216	72	5061
2026-01-04 21:40:58.61	43.27	11.23	-53.9	-56.3	13.7	0.00e+00	0	28	0	284164096	73	4893
2026-01-04 21:41:01.63	43.78	11.36	-54.1	-56.5	13.6	0.00e+00	0	28	0	290455552	73	5025
2026-01-04 21:41:04.65	44.29	11.48	-54.0	-56.4	13.7	0.00e+00	0	28	0	295698432	73	4941
2026-01-04 21:41:07.68	44.81	11.60	-54.1	-56.5	13.6	0.00e+00	0	28	0	300941312	73	4994
2026-01-04 21:41:10.70	45.32	11.71	-54.5	-57.1	13.4	0.00e+00	0	28	0	307232768	74	5092
2026-01-04 21:41:13.73	45.85	11.83	-54.2	-56.6	13.7	0.00e+00	0	28	0	312475648	74	4790
2026-01-04 21:41:16.76	46.37	11.95	-54.0	-56.4	13.8	0.00e+00	0	28	0	318767104	74	4657
2026-01-04 21:41:19.77	46.90	12.06	-54.2	-56.6	13.6	0.00e+00	0	28	0	324009984	74	4810
2026-01-04 21:41:22.80	47.44	12.17	-54.3	-56.8	13.6	0.00e+00	0	28	0	329252864	74	4877
2026-01-04 21:41:25.83	47.98	12.28	-53.9	-56.2	13.8	0.00e+00	0	28	0	335544320	74	4597
2026-01-04 21:41:28.85	48.52	12.39	-53.9	-56.2	13.9	0.00e+00	0	28	0	340787200	74	4556
2026-01-04 21:41:31.88	49.07	12.50	-54.1	-56.5	13.7	0.00e+00	0	28	0	347078656	74	4707
2026-01-04 21:41:34.90	49.62	12.60	-54.2	-56.6	13.7	0.00e+00	0	28	0	352321536	74	4806
2026-01-04 21:41:37.92	50.17	12.70	-54.1	-56.5	13.7	0.00e+00	0	28	0	357564416	74	4751
2026-01-04 21:41:40.95	50.73	12.80	-54.1	-56.4	13.8	0.00e+00	0	28	0	363855872	74	4686
2026-01-04 21:41:43.98	51.29	12.90	-53.7	-55.9	13.9	0.00e+00	0	28	0	369098752	73	4702
2026-01-04 21:41:46.99	51.85	13.00	-53.5	-55.6	14.1	0.00e+00	0	28	0	375390208	73	4505
2026-01-04 21:41:50.02	52.42	13.09	-52.8	-54.8	14.4	0.00e+00	0	28	0	380633088	72	4347
2026-01-04 21:41:53.04	52.99	13.18	-52.9	-54.8	14.3	0.00e+00	0	28	0	385875968	72	4359
2026-01-04 21:41:56.07	53.57	13.27	-53.1	-55.1	14.2	0.00e+00	0	28	0	392167424	72	4522
2026-01-04 21:41:59.09	54.15	13.36	-53.2	-55.2	14.2	0.00e+00	0	28	0	397410304	72	4568
2026-01-04 21:42:02.12	54.73	13.44	-52.7	-54.6	14.5	0.00e+00	0	28	0	403701760	72	4246
2026-01-04 21:42:05.13	55.31	13.53	-52.9	-54.8	14.3	0.00e+00	0	28	0	408944640	71	4644
2026-01-04 21:42:08.16	55.90	13.61	-53.3	-55.4	14.1	0.00e+00	0	28	0	415236096	71	4927
2026-01-04 21:42:11.19	56.50	13.68	-52.9	-54.8	14.4	0.00e+00	0	28	0	420478976	72	4357
2026-01-04 21:42:14.22	57.09	13.76	-52.7	-54.6	14.3	0.00e+00	0	28	0	425721856	71	4518
2026-01-04 21:42:17.24	57.69	13.83	-53.5	-55.6	14.0	0.00e+00	0	28	0	432013312	72	4779
2026-01-04 21:42:20.26	58.29	13.90	-53.3	-55.3	14.1	0.00e+00	0	28	0	437256192	72	4646
2026-01-04 21:42:23.29	58.89	13.97	-53.2	-55.2	14.2	0.00e+00	0	28	0	443547648	72	4564
2026-01-04 21:42:26.32	59.50	14.03	-54.6	-57.2	13.4	0.00e+00	0	28	0	448790528	74	5126
2026-01-04 21:42:29.35	60.11	14.09	-54.1	-56.4	13.8	0.00e+00	0	28	0	454033408	74	4676
2026-01-04 21:42:32.37	60.72	14.15	-53.4	-55.4	14.2	0.00e+00	0	28	0	460324864	73	4432
2026-01-04 21:42:35.40	61.33	14.21	-53.6	-55.8	14.0	0.00e+00	0	28	0	465567744	73	4622
2026-01-04 21:42:38.42	61.95	14.26	-53.6	-55.7	14.0	0.00e+00	0	28	0	471859200	73	4580
2026-01-04 21:42:41.44	62.56	14.31	-53.0	-55.0	14.3	0.00e+00	0	28	0	477102080	72	4464
2026-01-04 21:42:44.47	63.18	14.36	-53.1	-55.1	14.2	0.00e+00	0	28	0	482344960	72	4519
2026-01-04 21:42:47.50	63.81	14.40	-52.9	-54.8	14.4	0.00e+00	0	28	0	488636416	72	4357
2026-01-04 21:42:50.52	64.43	14.44	-52.5	-54.3	14.5	0.00e+00	0	28	0	493879296	71	4360
2026-01-04 21:42:53.55	65.05	14.48	-53.1	-55.1	14.2	0.00e+00	0	28	0	500170752	71	4773
2026-01-04 21:42:56.57	65.68	14.52	-53.0	-55.0	14.2	0.00e+00	0	28	0	505413632	71	4725
2026-01-04 21:42:59.59	66.31	14.55	-52.4	-54.2	14.5	0.00e+00	0	28	0	511705088	71	4310
2026-01-04 21:43:02.62	66.94	14.58	-52.7	-54.6	14.4	0.00e+00	0	28	0	516947968	71	4508
2026-01-04 21:43:05.64	67.57	14.60	-53.1	-55.2	14.1	0.00e+00	0	28	0	522190848	71	4838
2026-01-04 21:43:08.66	68.20	14.62	-53.1	-55.1	14.2	0.00e+00	0	28	0	528482304	71	4790
2026-01-04 21:43:11.69	68.83	14.64	-53.1	-55.1	14.1	0.00e+00	0	28	0	533725184	71	4798
2026-01-04 21:43:14.71	69.46	14.66	-52.9	-54.9	14.2	0.00e+00	0	28	0	540016640	71	4676
2026-01-04 21:43:17.74	70.09	14.67	-53.2	-55.2	14.0	0.00e+00	0	28	0	545259520	71	4864
2026-01-04 21:43:20.76	70.73	14.68	-53.4	-55.5	14.1	0.00e+00	0	28	0	550502400	72	4736
2026-01-04 21:43:23.79	71.36	14.69	-52.8	-54.7	14.4	0.00e+00	0	29	0	556793856	72	4305
2026-01-04 21:43:26.81	71.99	14.69	-52.8	-54.8	14.3	0.00e+00	0	28	0	562036736	71	4599
2026-01-04 21:43:29.84	72.63	14.69	-53.0	-55.0	14.2	0.00e+00	0	28	0	568328192	71	4706
2026-01-04 21:43:32.87	73.27	14.68	-52.6	-54.4	14.4	0.00e+00	0	28	0	573571072	71	4431
2026-01-04 21:43:35.89	73.90	14.68	-52.7	-54.6	14.3	0.00e+00	0	28	0	578813952	71	4544
2026-01-04 21:43:38.92	74.53	14.67	-52.6	-54.5	14.4	0.00e+00	0	28	0	585105408	71	4447
2026-01-04 21:43:41.95	75.17	14.65	-52.0	-53.7	14.6	0.00e+00	0	28	0	590348288	70	4328
2026-01-04 21:43:44.98	75.80	14.64	-52.1	-53.8	14.6	0.00e+00	0	28	0	596639744	70	4386
2026-01-04 21:43:48.00	76.43	14.62	-52.5	-54.3	14.4	0.00e+00	0	28	0	601882624	70	4633
2026-01-04 21:43:51.03	77.06	14.59	-52.6	-54.5	14.3	0.00e+00	0	28	0	607125504	70	4730
2026-01-04 21:43:54.05	77.69	14.57	-52.6	-54.5	14.3	0.00e+00	0	28	0	613416960	70	4712
2026-01-04 21:43:57.08	78.32	14.54	-52.7	-54.6	14.3	0.00e+00	0	28	0	618659840	70	4794
2026-01-04 21:44:00.11	78.95	14.50	-52.8	-54.8	14.2	0.00e+00	0	28	0	624951296	70	4901
2026-01-04 21:44:03.14	79.58	14.47	-52.9	-54.9	14.2	0.00e+00	0	28	0	630194176	71	4688
2026-01-04 21:44:06.17	80.21	14.43	-52.8	-54.8	14.3	0.00e+00	0	28	0	636485632	71	4608
2026-01-04 21:44:09.19	80.83	14.39	-52.7	-54.6	14.4	0.00e+00	0	28	0	641728512	71	4499
2026-01-04 21:44:12.22	81.45	14.34	-52.4	-54.2	14.5	0.00e+00	0	28	0	646971392	71	4314
2026-01-04 21:44:15.25	82.07	14.30	-51.8	-53.5	14.7	0.00e+00	0	28	0	653262848	70	4229
2026-01-04 21:44:18.28	82.69	14.24	-51.8	-53.5	14.6	0.00e+00	0	28	0	658505728	69	4456
2026-01-04 21:44:21.30	83.31	14.19	-51.9	-53.6	14.6	0.00e+00	0	28	0	664797184	69	4507
2026-01-04 21:44:24.33	83.92	14.13	-51.6	-53.2	14.7	0.00e+00	0	28	0	670040064	69	4331
2026-01-04 21:44:27.36	84.53	14.07	-52.0	-53.8	14.5	0.00e+00	0	28	0	675282944	69	4606
2026-01-04 21:44:30.39	85.14	14.01	-52.4	-54.2	14.3	0.00e+00	0	28	0	681574400	69	4864
2026-01-04 21:44:33.41	85.75	13.95	-52.5	-54.3	14.4	0.00e+00	0	28	0	686817280	70	4633
2026-01-04 21:44:36.44	86.35	13.88	-52.4	-54.3	14.4	0.00e+00	0	28	0	693108736	70	4609
2026-01-04 21:44:39.47	86.95	13.81	-52.2	-54.0	14.5	0.00e+00	0	28	0	698351616	70	4448
2026-01-04 21:44:42.50	87.55	13.73	-51.9	-53.6	14.6	0.00e+00	0	28	0	704643072	70	4290
2026-01-04 21:44:45.53	88.15	13.66	-51.4	-53.0	14.8	0.00e+00	0	28	0	709885952	69	4219
2026-01-04 21:44:48.56	88.74	13.58	-51.4	-53.0	14.8	0.00e+00	0	29	0	715128832	69	4232
2026-01-04 21:44:51.58	89.33	13.50	-51.6	-53.3	14.6	0.00e+00	0	28	0	721420288	69	4364
2026-01-04 21:44:54.61	89.92	13.41	-51.6	-53.3	14.7	0.00e+00	0	28	0	726663168	69	4361
2026-01-04 21:44:57.64	90.50	13.33	-52.0	-53.7	14.5	0.00e+00	0	28	0	732954624	69	4589
2026-01-04 21:45:00.66	91.08	13.24	-52.2	-54.0	14.5	0.00e+00	0	28	0	738197504	70	4451
2026-01-04 21:45:03.69	91.66	13.15	-51.8	-53.4	14.7	0.00e+00	0	28	0	743440384	70	4189
2026-01-04 21:45:06.71	92.23	13.06	-51.8	-53.5	14.7	0.00e+00	0	28	0	749731840	70	4226
2026-01-04 21:45:09.73	92.79	12.96	-52.0	-53.8	14.6	0.00e+00	0	28	0	754974720	70	4364
2026-01-04 21:45:12.76	93.36	12.86	-51.8	-53.6	14.7	0.00e+00	0	28	0	761266176	70	4245
2026-01-04 21:45:15.79	93.92	12.76	-52.1	-53.9	14.5	0.00e+00	0	28	0	766509056	70	4400
2026-01-04 21:45:18.81	94.48	12.66	-52.6	-54.6	14.2	0.00e+00	0	28	0	771751936	70	4766
2026-01-04 21:45:21.83	95.03	12.56	-52.6	-54.6	14.2	0.00e+00	0	28	0	778043392	70	4774
2026-01-04 21:45:24.85	95.58	12.45	-52.7	-54.7	14.2	0.00e+00	0	28	0	783286272	70	4837
2026-01-04 21:45:27.88	96.13	12.35	-53.0	-55.1	14.1	0.00e+00	0	28	0	789577728	71	4760
2026-01-04 21:45:30.91	96.68	12.24	-53.3	-55.4	14.0	0.00e+00	0	28	0	794820608	72	4705
2026-01-04 21:45:33.93	97.21	12.13	-53.5	-55.7	13.9	0.00e+00	0	28	0	800063488	72	4855
2026-01-04 21:45:36.95	97.75	12.01	-53.6	-55.8	13.9	0.00e+00	0	28	0	806354944	72	4912
2026-01-04 21:45:39.98	98.28	11.90	-53.9	-56.3	13.7	0.00e+00	0	28	0	811597824	73	4874
2026-01-04 21:45:43.01	98.81	11.78	-53.5	-55.7	14.0	0.00e+00	0	28	0	817889280	73	4594
2026-01-04 21:45:46.03	99.33	11.67	-53.1	-55.1	14.1	0.00e+00	0	28	0	823132160	72	4534
2026-01-04 21:45:49.06	99.85	11.55	-53.4	-55.5	14.0	0.00e+00	0	28	0	829423616	72	4744
2026-01-04 21:45:52.08	100.37	11.43	-54.1	-56.5	13.6	0.00e+00	0	28	0	834666496	73	4999
2026-01-04 21:45:55.11	100.88	11.30	-54.4	-57.0	13.4	0.00e+00	0	28	0	839909376	74	5022
2026-01-04 21:45:58.13	101.38	11.18	-54.6	-57.2	13.3	0.00e+00	0	28	0	846200832	74	5147
2026-01-04 21:46:01.15	101.88	11.05	-54.0	-56.4	13.7	0.00e+00	0	28	0	851443712	74	4682
2026-01-04 21:46:04.18	102.38	10.93	-53.6	-55.8	14.0	0.00e+00	0	28	0	857735168	73	4608
2026-01-04 21:46:07.20	102.88	10.80	-53.8	-56.1	13.8	0.00e+00	0	28	0	862978048	73	4808
2026-01-04 21:46:10.23	103.37	10.67	-54.1	-56.6	13.6	0.00e+00	0	28	0	868220928	73	5060
2026-01-04 21:46:13.25	103.85	10.54	-53.7	-56.0	13.8	0.00e+00	0	28	0	874512384	73	4751
2026-01-04 21:46:16.28	104.34	10.41	-53.4	-55.5	14.1	0.00e+00	0	28	0	879755264	73	4470
2026-01-04 21:46:19.30	104.81	10.28	-53.8	-56.1	13.8	0.00e+00	0	28	0	886046720	73	4811
2026-01-04 21:46:22.32	105.29	10.15	-54.3	-56.8	13.4	0.00e+00	0	28	0	891289600	73	5210
2026-01-04 21:46:25.35	105.76	10.01	-54.2	-56.7	13.5	0.00e+00	0	28	0	896532480	73	5112
2026-01-04 21:46:28.37	106.22	9.88	-53.9	-56.3	13.7	0.00e+00	0	28	0	902823936	73	4891
2026-01-04 21:46:31.40	106.68	9.74	-53.5	-55.8	14.0	0.00e+00	0	28	0	908066816	73	4609
2026-01-04 21:46:34.43	107.14	9.61	-53.5	-55.7	14.0	0.00e+00	0	28	0	914358272	73	4560
2026-01-04 21:46:37.45	107.59	9.47	-53.4	-55.6	14.0	0.00e+00	0	28	0	919601152	73	4519
2026-01-04 21:46:40.48	108.04	9.33	-53.4	-55.6	14.0	0.00e+00	0	28	0	924844032	73	4506
2026-01-04 21:46:43.51	108.49	9.19	-53.5	-55.8	13.9	0.00e+00	0	28	0	931135488	73	4607
2026-01-04 21:46:46.54	108.93	9.05	-53.5	-55.7	14.0	0.00e+00	0	28	0	936378368	73	4568
2026-01-04 21:46:49.56	109.37	8.91	-53.2	-55.4	14.0	0.00e+00	0	28	0	942669824	72	4656
2026-01-04 21:46:52.59	109.80	8.77	-53.3	-55.5	14.0	0.00e+00	0	28	0	947912704	72	4706
2026-01-04 21:46:55.62	110.23	8.63	-53.5	-55.7	13.9	0.00e+00	0	28	0	953155584	72	4840
2026-01-04 21:46:58.65	110.65	8.49	-53.5	-55.8	13.8	0.00e+00	0	28	0	959447040	72	4875
2026-01-04 21:47:01.67	111.07	8.34	-53.1	-55.3	14.1	0.00e+00	0	28	0	964689920	72	4605
2026-01-04 21:47:04.70	111.49	8.20	-52.9	-55.0	14.2	0.00e+00	0	28	0	970981376	72	4468
2026-01-04 21:47:07.72	111.90	8.06	-53.1	-55.2	14.1	0.00e+00	0	28	0	976224256	72	4576
2026-01-04 21:47:10.75	112.31	7.91	-53.3	-55.6	13.9	0.00e+00	0	28	0	982515712	72	4780
2026-01-04 21:47:13.78	112.72	7.77	-53.5	-55.8	13.8	0.00e+00	0	28	0	987758592	72	4905
2026-01-04 21:47:16.81	113.12	7.62	-53.4	-55.6	13.8	0.00e+00	0	28	0	993001472	72	4810
2026-01-04 21:47:19.83	113.52	7.48	-53.4	-55.7	13.8	0.00e+00	0	28	0	999292928	72	4828
2026-01-04 21:47:22.86	113.91	7.33	-53.6	-55.9	13.7	0.00e+00	0	28	0	1004535808	72	4976
2026-01-04 21:47:25.89	114.30	7.19	-53.5	-55.8	13.7	0.00e+00	0	28	0	1010827264	72	4893
2026-01-04 21:47:28.91	114.69	7.04	-53.5	-55.8	13.7	0.00e+00	0	28	0	1016070144	72	4919
2026-01-04 21:47:31.95	115.07	6.90	-53.2	-55.5	13.8	0.00e+00	0	28	0	1021313024	72	4732
2026-01-04 21:47:34.97	115.45	6.75	-53.4	-55.7	13.7	0.00e+00	0	28	0	1027604480	72	4828
2026-01-04 21:47:38.00	115.83	6.60	-53.5	-56.0	13.6	0.00e+00	0	28	0	1032847360	72	5004
2026-01-04 21:47:41.02	116.20	6.46	-53.5	-55.9	13.6	0.00e+00	0	28	0	1039138816	72	4964
2026-01-04 21:47:44.05	116.57	6.31	-53.5	-55.9	13.6	0.00e+00	0	28	0	1044381696	72	4967
2026-01-04 21:47:47.07	116.93	6.16	-53.6	-56.1	13.4	0.00e+00	0	28	0	1049624576	72	5086
2026-01-04 21:47:50.09	117.29	6.02	-53.8	-56.4	13.3	0.00e+00	0	28	0	1055916032	72	5248
2026-01-04 21:47:53.11	117.65	5.87	-54.0	-56.7	13.2	0.00e+00	0	28	0	1061158912	73	5145
2026-01-04 21:47:56.14	118.00	5.72	-54.1	-57.0	13.0	0.00e+00	0	28	0	1067450368	73	5300
2026-01-04 21:47:59.18	118.35	5.57	-54.1	-56.9	13.0	0.00e+00	0	28	0	1072693248	73	5268
2026-01-04 21:48:02.19	118.70	5.43	-54.2	-57.1	12.9	0.00e+00	0	28	0	1078984704	73	5384
2026-01-04 21:48:05.22	119.04	5.28	-54.5	-57.7	12.6	0.00e+00	0	28	0	1084227584	74	5444
2026-01-04 21:48:08.24	119.38	5.13	-54.5	-57.7	12.6	0.00e+00	0	28	0	1089470464	74	5460
2026-01-04 21:48:11.27	119.72	4.98	-58.5	-73.8	3.8	1.09e+00	0	28	104	1094713344	82	21912
2026-01-04 21:48:14.29	120.05	4.84	-59.6	-75.6	3.8	1.49e+00	0	28	104	1094713344	84	23929
2026-01-04 21:48:17.32	120.38	4.69	-60.1	-76.1	3.8	1.49e+00	0	28	104	1094713344	85	23927
2026-01-04 21:48:20.35	120.71	4.54	-60.4	-76.5	3.8	1.49e+00	0	29	104	1094713344	85	24988
2026-01-04 21:48:23.37	121.04	4.39	-60.6	-76.7	3.8	1.49e+00	0	28	104	1094713344	86	24179
2026-01-04 21:48:26.40	121.36	4.25	-60.8	-76.8	3.8	1.49e+00	0	29	104	1094713344	86	24647
2026-01-04 21:48:29.42	121.68	4.10	-60.9	-76.9	3.8	1.49e+00	0	28	104	1094713344	86	24909
2026-01-04 21:48:32.45	121.99	3.95	-61.0	-77.0	3.8	1.49e+00	0	28	104	1094713344	87	23825
2026-01-04 21:48:35.48	122.31	3.80	-61.0	-77.1	3.8	1.49e+00	0	28	104	1094713344	87	23914
2026-01-04 21:48:38.51	122.61	3.66	-61.0	-77.1	3.8	1.49e+00	0	28	104	1094713344	87	24051
2026-01-04 21:48:41.53	122.92	3.51	-61.0	-77.1	3.8	1.49e+00	0	28	104	1094713344	87	23869
2026-01-04 21:48:44.56	123.22	3.36	-60.9	-77.0	3.8	1.49e+00	0	28	104	1094713344	87	23724
2026-01-04 21:48:47.59	123.53	3.22	-60.9	-77.0	3.8	1.49e+00	0	28	104	1094713344	87	23708
2026-01-04 21:48:50.61	123.82	3.07	-60.9	-77.0	3.8	1.49e+00	0	28	104	1094713344	87	23616
2026-01-04 21:48:53.64	124.12	2.93	-60.9	-76.9	3.8	1.49e+00	0	29	104	1094713344	87	23562
2026-01-04 21:48:56.67	124.41	2.78	-60.8	-76.9	3.8	1.49e+00	0	29	104	1094713344	87	23530
2026-01-04 21:48:59.70	124.70	2.63	-60.8	-76.9	3.8	1.49e+00	0	29	104	1094713344	87	23495
2026-01-04 21:49:02.72	124.99	2.49	-60.8	-76.9	3.8	1.49e+00	0	28	104	1094713344	87	23421
2026-01-04 21:49:05.75	125.27	2.34	-60.8	-76.9	3.8	1.49e+00	0	29	104	1094713344	87	23397
2026-01-04 21:49:08.78	125.55	2.20	-60.8	-76.9	3.8	1.49e+00	0	29	104	1094713344	87	23324
2026-01-04 21:49:11.81	125.83	2.05	-60.8	-76.8	3.8	1.49e+00	0	29	104	1094713344	87	23303

#Closed at: 2026-01-04 21:49:14
#Recorded file [1094 MB]: D:/lorett/data/31004_260105_003741.dat