passes_logs/2026/01/04/R3.2S_Murmansk/R3.2S_Murmansk__20260104_111540_SUOMI_NPP_rec.log

#Pass ID: 20260104_111540_SUOMI NPP
#Satellite: SUOMI NPP
#Configuration: NPP
#almurnet v.1.7.20251203
#Start time: 2026-01-04 11:15:41

#Version: 2.2.20231116
#Station: R3.2S_Murmansk
#Location: 33.079688 lon 68.888172 lat
#TLE: 1 37849U 11061A   26001.07732418  .00000182  00000+0  10735-3 0  9990
#TLE: 2 37849  98.7795 303.2470 0002580  87.2016 272.9455 14.19520779734739

#Time	Az	El	Level	Level2	SNR	BER	BlckErr	Temp	State	Recorded	gain1	gain2
2026-01-04 11:15:41.74	193.18	2.09	-58.7	-74.8	3.8	1.49e+00	0	26	0	0	82	24450
2026-01-04 11:15:45.71	193.38	2.33	-58.7	-74.8	3.8	1.49e+00	0	26	104	0	82	24435
2026-01-04 11:15:49.69	193.58	2.57	-58.7	-74.8	3.8	1.49e+00	0	26	104	0	82	24512
2026-01-04 11:15:53.66	193.79	2.81	-58.7	-74.7	3.8	1.49e+00	0	26	104	0	82	24378
2026-01-04 11:15:57.64	194.00	3.06	-58.7	-74.7	3.8	1.49e+00	0	27	104	0	82	24138
2026-01-04 11:16:01.62	194.22	3.31	-58.7	-74.7	3.8	1.49e+00	0	27	104	0	82	24154
2026-01-04 11:16:05.60	194.43	3.56	-58.7	-74.4	3.8	1.49e+00	0	27	104	0	82	23565
2026-01-04 11:16:09.57	194.66	3.81	-58.7	-74.5	3.8	1.49e+00	0	27	104	0	82	23736
2026-01-04 11:16:13.54	194.88	4.06	-58.7	-74.7	3.8	1.49e+00	0	27	104	0	82	24332
2026-01-04 11:16:17.53	195.11	4.31	-58.6	-73.6	3.8	1.49e+00	0	27	104	0	82	21268
2026-01-04 11:16:21.49	195.34	4.57	-58.6	-73.5	3.8	1.49e+00	0	27	104	0	82	21093
2026-01-04 11:16:25.47	195.58	4.83	-58.7	-74.3	3.8	1.49e+00	0	27	104	0	82	23144
2026-01-04 11:16:29.46	195.82	5.09	-58.7	-73.4	3.8	1.49e+00	0	27	104	0	82	20953
2026-01-04 11:16:33.42	196.06	5.35	-58.7	-74.6	3.7	1.49e+00	0	27	104	0	82	23913
2026-01-04 11:16:37.38	196.31	5.62	-55.8	-59.3	12.2	0.00e+00	0	28	0	5242880	77	5516
2026-01-04 11:16:41.35	196.56	5.89	-55.5	-58.8	12.6	0.00e+00	0	27	0	13631488	76	5476
2026-01-04 11:16:45.31	196.82	6.16	-55.4	-58.6	12.6	0.00e+00	0	27	0	20971520	76	5377
2026-01-04 11:16:49.27	197.08	6.43	-55.0	-58.0	12.9	0.00e+00	0	27	0	28311552	75	5302
2026-01-04 11:16:53.24	197.34	6.70	-54.9	-57.8	13.0	0.00e+00	0	28	0	35651584	75	5183
2026-01-04 11:16:57.18	197.61	6.98	-54.8	-57.5	13.2	0.00e+00	0	28	0	42991616	75	5027
2026-01-04 11:17:01.14	197.88	7.25	-54.5	-57.1	13.5	0.00e+00	0	28	0	50331648	75	4782
2026-01-04 11:17:05.10	198.16	7.54	-54.4	-57.0	13.5	0.00e+00	0	28	0	57671680	74	4989
2026-01-04 11:17:09.08	198.45	7.82	-54.1	-56.5	13.7	0.00e+00	0	28	0	65011712	74	4739
2026-01-04 11:17:13.05	198.74	8.11	-54.3	-56.7	13.7	0.00e+00	0	28	0	72351744	74	4834
2026-01-04 11:17:17.01	199.04	8.40	-54.2	-56.6	13.7	0.00e+00	0	28	0	79691776	74	4794
2026-01-04 11:17:20.99	199.34	8.69	-54.2	-56.6	13.7	0.00e+00	0	28	0	88080384	74	4814
2026-01-04 11:17:24.97	199.65	8.99	-54.3	-56.7	13.7	0.00e+00	0	28	0	95420416	74	4844
2026-01-04 11:17:28.93	199.96	9.29	-54.2	-56.6	13.7	0.00e+00	0	28	0	102760448	74	4812
2026-01-04 11:17:32.90	200.28	9.59	-54.4	-56.9	13.6	0.00e+00	0	28	0	110100480	74	4928
2026-01-04 11:17:36.88	200.61	9.89	-54.1	-56.4	13.9	0.00e+00	0	28	0	117440512	74	4687
2026-01-04 11:17:40.86	200.94	10.20	-53.7	-55.9	14.1	0.00e+00	0	28	0	124780544	74	4428
2026-01-04 11:17:44.83	201.28	10.51	-53.6	-55.8	14.1	0.00e+00	0	28	0	132120576	73	4601
2026-01-04 11:17:48.79	201.63	10.82	-53.3	-55.3	14.2	0.00e+00	0	28	0	139460608	73	4385
2026-01-04 11:17:52.74	201.98	11.14	-53.2	-55.2	14.3	0.00e+00	0	28	0	146800640	73	4321
2026-01-04 11:17:56.70	202.34	11.46	-53.0	-54.9	14.3	0.00e+00	0	28	0	154140672	72	4440
2026-01-04 11:18:00.68	202.71	11.78	-53.3	-55.3	14.2	0.00e+00	0	28	0	161480704	72	4628
2026-01-04 11:18:04.65	203.09	12.11	-53.3	-55.3	14.2	0.00e+00	0	28	0	169869312	72	4621
2026-01-04 11:18:08.63	203.47	12.44	-53.2	-55.1	14.3	0.00e+00	0	28	0	177209344	72	4528
2026-01-04 11:18:12.58	203.86	12.77	-53.1	-55.0	14.4	0.00e+00	0	28	0	184549376	72	4478
2026-01-04 11:18:16.55	204.27	13.10	-53.1	-55.1	14.3	0.00e+00	0	28	0	191889408	72	4507
2026-01-04 11:18:20.51	204.68	13.44	-53.0	-54.9	14.4	0.00e+00	0	28	0	199229440	72	4399
2026-01-04 11:18:24.50	205.10	13.79	-52.9	-54.7	14.4	0.00e+00	0	28	0	206569472	72	4316
2026-01-04 11:18:28.47	205.53	14.13	-52.7	-54.5	14.5	0.00e+00	0	28	0	213909504	71	4481
2026-01-04 11:18:32.45	205.97	14.48	-52.8	-54.7	14.4	0.00e+00	0	28	0	221249536	71	4557
2026-01-04 11:18:36.42	206.42	14.84	-53.1	-55.0	14.3	0.00e+00	0	28	0	228589568	71	4739
2026-01-04 11:18:40.39	206.88	15.19	-53.2	-55.2	14.2	0.00e+00	0	28	0	236978176	71	4829
2026-01-04 11:18:44.37	207.35	15.56	-52.9	-54.7	14.4	0.00e+00	0	28	0	244318208	71	4594
2026-01-04 11:18:48.35	207.83	15.92	-52.6	-54.3	14.6	0.00e+00	0	28	0	251658240	71	4371
2026-01-04 11:18:52.33	208.32	16.29	-52.9	-54.8	14.4	0.00e+00	0	28	0	258998272	71	4615
2026-01-04 11:18:56.29	208.83	16.66	-53.1	-55.0	14.3	0.00e+00	0	28	0	266338304	71	4726
2026-01-04 11:19:00.25	209.34	17.03	-53.2	-55.2	14.3	0.00e+00	0	28	0	273678336	71	4817
2026-01-04 11:19:04.21	209.87	17.41	-53.5	-55.6	14.2	0.00e+00	0	28	0	281018368	72	4775
2026-01-04 11:19:08.17	210.41	17.79	-53.5	-55.5	14.2	0.00e+00	0	28	0	288358400	72	4725
2026-01-04 11:19:12.15	210.97	18.18	-53.1	-54.9	14.4	0.00e+00	0	28	0	295698432	72	4431
2026-01-04 11:19:16.14	211.54	18.57	-53.3	-55.2	14.3	0.00e+00	0	28	0	303038464	72	4573
2026-01-04 11:19:20.13	212.13	18.96	-53.4	-55.4	14.2	0.00e+00	0	28	0	310378496	72	4654
2026-01-04 11:19:24.12	212.73	19.36	-53.5	-55.6	14.2	0.00e+00	0	28	0	318767104	72	4769
2026-01-04 11:19:28.08	213.35	19.76	-53.5	-55.5	14.2	0.00e+00	0	28	0	326107136	72	4754
2026-01-04 11:19:32.05	213.98	20.16	-53.3	-55.2	14.3	0.00e+00	0	28	0	333447168	72	4587
2026-01-04 11:19:36.03	214.62	20.57	-53.3	-55.2	14.3	0.00e+00	0	28	0	340787200	72	4586
2026-01-04 11:19:40.02	215.29	20.98	-53.5	-55.5	14.2	0.00e+00	0	28	0	348127232	72	4748
2026-01-04 11:19:44.00	215.97	21.39	-53.1	-55.0	14.4	0.00e+00	0	28	0	355467264	72	4476
2026-01-04 11:19:47.97	216.67	21.81	-52.7	-54.4	14.6	0.00e+00	0	28	0	362807296	71	4420
2026-01-04 11:19:51.94	217.39	22.22	-52.4	-54.1	14.7	0.00e+00	0	28	0	370147328	71	4271
2026-01-04 11:19:55.90	218.12	22.64	-52.7	-54.5	14.5	0.00e+00	0	28	0	378535936	71	4476
2026-01-04 11:19:59.87	218.88	23.06	-51.8	-53.4	14.8	0.00e+00	0	28	0	385875968	70	4167
2026-01-04 11:20:03.84	219.65	23.48	-51.4	-52.9	15.0	0.00e+00	0	28	0	393216000	69	4162
2026-01-04 11:20:07.81	220.45	23.91	-51.6	-53.2	14.8	0.00e+00	0	28	0	400556032	69	4295
2026-01-04 11:20:11.77	221.27	24.33	-51.7	-53.3	14.8	0.00e+00	0	28	0	407896064	69	4368
2026-01-04 11:20:15.75	222.11	24.76	-51.9	-53.5	14.7	0.00e+00	0	28	0	415236096	69	4490
2026-01-04 11:20:19.72	222.97	25.18	-52.1	-53.7	14.6	0.00e+00	0	29	0	422576128	69	4576
2026-01-04 11:20:23.68	223.85	25.61	-51.9	-53.5	14.7	0.00e+00	0	28	0	429916160	69	4459
2026-01-04 11:20:27.64	224.76	26.03	-52.7	-54.4	14.5	0.00e+00	0	28	0	437256192	70	4689
2026-01-04 11:20:31.63	225.70	26.46	-52.5	-54.2	14.7	0.00e+00	0	28	0	444596224	71	4315
2026-01-04 11:20:35.60	226.65	26.88	-52.2	-53.8	14.7	0.00e+00	0	28	0	451936256	70	4387
2026-01-04 11:20:39.58	227.64	27.31	-52.5	-54.2	14.6	0.00e+00	0	28	0	460324864	70	4574
2026-01-04 11:20:43.56	228.65	27.73	-52.4	-54.0	14.6	0.00e+00	0	28	0	467664896	70	4477
2026-01-04 11:20:47.54	229.68	28.14	-52.6	-54.3	14.5	0.00e+00	0	28	0	475004928	70	4628
2026-01-04 11:20:51.50	230.74	28.55	-53.2	-55.0	14.3	0.00e+00	0	28	0	482344960	71	4741
2026-01-04 11:20:55.49	231.84	28.96	-53.8	-55.8	14.2	0.00e+00	0	28	0	489684992	73	4649
2026-01-04 11:20:59.46	232.95	29.36	-54.0	-56.1	14.0	0.00e+00	0	28	0	497025024	73	4804
2026-01-04 11:21:03.43	234.09	29.76	-55.3	-57.9	13.3	0.00e+00	0	28	0	504365056	75	5240
2026-01-04 11:21:07.41	235.26	30.15	-55.2	-57.7	13.5	0.00e+00	0	28	0	511705088	76	4853
2026-01-04 11:21:11.38	236.46	30.53	-55.1	-57.5	13.7	0.00e+00	0	28	0	519045120	76	4738
2026-01-04 11:21:15.36	237.69	30.90	-55.9	-58.8	13.1	0.00e+00	0	28	0	527433728	76	5469
2026-01-04 11:21:19.34	238.94	31.26	-55.5	-58.1	13.4	0.00e+00	0	28	0	534773760	77	4804
2026-01-04 11:21:23.31	240.22	31.61	-55.7	-58.5	13.2	0.00e+00	0	28	0	542113792	76	5302
2026-01-04 11:21:27.28	241.53	31.95	-55.5	-58.1	13.5	0.00e+00	0	28	0	549453824	77	4766
2026-01-04 11:21:31.26	242.86	32.28	-54.7	-57.0	14.0	0.00e+00	0	28	0	556793856	76	4450
2026-01-04 11:21:35.23	244.22	32.59	-55.2	-57.8	13.5	0.00e+00	0	28	0	564133888	75	5184
2026-01-04 11:21:39.21	245.61	32.89	-55.6	-58.3	13.4	0.00e+00	0	28	0	571473920	77	4871
2026-01-04 11:21:43.18	247.02	33.17	-54.5	-56.7	14.0	0.00e+00	0	28	0	578813952	75	4594
2026-01-04 11:21:47.16	248.46	33.44	-56.0	-58.9	13.0	0.00e+00	0	28	0	586153984	77	5238
2026-01-04 11:21:51.14	249.91	33.69	-56.4	-59.6	12.8	0.00e+00	0	28	0	594542592	78	5369
2026-01-04 11:21:55.10	251.39	33.92	-56.8	-60.2	12.3	0.00e+00	0	28	0	601882624	78	5735
2026-01-04 11:21:59.06	252.88	34.12	-56.4	-59.5	12.9	0.00e+00	0	28	0	609222656	79	5038
2026-01-04 11:22:03.03	254.39	34.31	-56.5	-59.8	12.7	0.00e+00	0	28	0	616562688	79	5163
2026-01-04 11:22:07.01	255.92	34.48	-55.4	-57.9	13.6	0.00e+00	0	28	0	623902720	77	4700
2026-01-04 11:22:10.99	257.47	34.63	-55.5	-58.1	13.5	0.00e+00	0	28	0	631242752	77	4766
2026-01-04 11:22:14.97	259.03	34.75	-55.2	-57.6	13.7	0.00e+00	0	28	0	638582784	76	4763
2026-01-04 11:22:18.94	260.60	34.86	-56.3	-59.4	12.8	0.00e+00	0	28	0	645922816	77	5539
2026-01-04 11:22:22.91	262.17	34.93	-57.3	-61.1	11.8	2.20e-06	0	28	0	653262848	79	6044
2026-01-04 11:22:26.90	263.76	34.99	-56.0	-58.8	13.2	0.00e+00	0	28	0	661651456	78	4882
2026-01-04 11:22:30.87	265.35	35.02	-56.8	-60.1	12.4	7.00e-07	0	28	0	668991488	78	5692
2026-01-04 11:22:34.85	266.94	35.02	-58.3	-63.5	10.2	3.68e-04	0	28	0	676331520	81	7110
2026-01-04 11:22:38.83	268.53	35.00	-57.6	-61.7	11.5	1.11e-04	0	28	0	683671552	81	5753
2026-01-04 11:22:42.81	270.12	34.96	-55.9	-58.6	13.3	0.00e+00	0	28	0	691011584	78	4783
2026-01-04 11:22:46.79	271.70	34.90	-56.4	-59.5	12.9	0.00e+00	0	28	0	698351616	78	5296
2026-01-04 11:22:50.76	273.27	34.81	-56.5	-59.6	12.8	0.00e+00	0	28	0	705691648	79	5048
2026-01-04 11:22:54.72	274.82	34.69	-55.9	-58.8	13.2	0.00e+00	0	28	0	713031680	77	5162
2026-01-04 11:22:58.71	276.38	34.56	-56.6	-59.7	12.8	0.00e+00	0	28	0	720371712	78	5455
2026-01-04 11:23:02.68	277.92	34.40	-56.7	-60.0	12.6	3.00e-06	0	28	0	727711744	80	5004
2026-01-04 11:23:06.64	279.43	34.22	-57.8	-62.1	11.2	2.67e-05	0	28	0	736100352	80	6388
2026-01-04 11:23:10.59	280.92	34.02	-57.4	-61.3	11.8	7.00e-07	0	28	0	743440384	79	6143
2026-01-04 11:23:14.58	282.42	33.80	-54.9	-57.2	13.9	0.00e+00	0	28	0	750780416	76	4549
2026-01-04 11:23:18.57	283.88	33.56	-55.7	-58.3	13.4	0.00e+00	0	28	0	758120448	77	4898
2026-01-04 11:23:22.54	285.33	33.31	-54.8	-57.0	14.0	0.00e+00	0	28	0	765460480	76	4492
2026-01-04 11:23:26.52	286.75	33.04	-54.9	-57.2	13.9	0.00e+00	0	28	0	772800512	76	4550
2026-01-04 11:23:30.48	288.14	32.75	-55.1	-57.5	13.8	0.00e+00	0	28	0	780140544	76	4716
2026-01-04 11:23:34.46	289.51	32.44	-54.2	-56.3	14.2	0.00e+00	0	28	0	787480576	74	4622
2026-01-04 11:23:38.42	290.85	32.12	-53.4	-55.2	14.4	0.00e+00	0	28	0	794820608	72	4578
2026-01-04 11:23:42.39	292.16	31.79	-53.0	-54.7	14.6	0.00e+00	0	28	0	803209216	72	4338
2026-01-04 11:23:46.37	293.46	31.45	-52.9	-54.6	14.6	0.00e+00	0	28	0	810549248	72	4257
2026-01-04 11:23:50.36	294.73	31.09	-52.5	-54.1	14.7	0.00e+00	0	28	0	817889280	71	4269
2026-01-04 11:23:54.34	295.96	30.73	-52.8	-54.5	14.6	0.00e+00	0	28	0	825229312	71	4468
2026-01-04 11:23:58.32	297.17	30.35	-53.6	-55.5	14.3	0.00e+00	0	28	0	832569344	72	4725
2026-01-04 11:24:02.29	298.35	29.97	-52.4	-54.0	14.7	0.00e+00	0	28	0	839909376	71	4237
2026-01-04 11:24:06.27	299.51	29.58	-53.8	-55.9	14.2	0.00e+00	0	28	0	847249408	73	4652
2026-01-04 11:24:10.24	300.63	29.18	-52.8	-54.5	14.6	0.00e+00	0	28	0	854589440	71	4467
2026-01-04 11:24:14.21	301.73	28.78	-52.6	-54.2	14.7	0.00e+00	0	28	0	861929472	71	4331
2026-01-04 11:24:18.18	302.80	28.37	-53.4	-55.3	14.3	0.00e+00	0	28	0	869269504	71	4875
2026-01-04 11:24:22.16	303.85	27.96	-53.1	-54.9	14.5	0.00e+00	0	28	0	877658112	72	4409
2026-01-04 11:24:26.14	304.87	27.54	-54.0	-56.0	14.1	0.00e+00	0	28	0	884998144	73	4733
2026-01-04 11:24:30.13	305.87	27.12	-54.4	-56.5	14.1	0.00e+00	0	28	0	892338176	75	4476
2026-01-04 11:24:34.10	306.83	26.70	-54.7	-57.0	13.9	0.00e+00	0	28	0	899678208	74	4990
2026-01-04 11:24:38.08	307.78	26.28	-54.2	-56.2	14.1	0.00e+00	0	28	0	907018240	74	4586
2026-01-04 11:24:42.05	308.70	25.86	-56.2	-59.3	12.9	0.00e+00	0	28	0	914358272	77	5472
2026-01-04 11:24:46.03	309.59	25.43	-54.2	-56.3	14.2	0.00e+00	0	28	0	921698304	75	4357
2026-01-04 11:24:50.00	310.46	25.01	-54.7	-57.0	13.8	0.00e+00	0	28	0	929038336	74	5007
2026-01-04 11:24:53.97	311.31	24.58	-54.0	-56.0	14.2	0.00e+00	0	28	0	936378368	74	4483
2026-01-04 11:24:57.94	312.14	24.16	-54.6	-56.9	13.8	0.00e+00	0	28	0	944766976	74	4983
2026-01-04 11:25:01.92	312.94	23.74	-54.4	-56.6	14.0	0.00e+00	0	28	0	952107008	75	4508
2026-01-04 11:25:05.89	313.73	23.32	-53.9	-55.9	14.2	0.00e+00	0	28	0	959447040	73	4674
2026-01-04 11:25:09.88	314.50	22.90	-53.3	-55.2	14.5	0.00e+00	0	28	0	966787072	73	4304
2026-01-04 11:25:13.85	315.24	22.48	-51.4	-52.8	15.0	0.00e+00	0	28	0	974127104	69	4131
2026-01-04 11:25:17.85	315.97	22.06	-53.1	-55.0	14.3	0.00e+00	0	28	0	981467136	71	4735
2026-01-04 11:25:21.84	316.68	21.65	-53.0	-54.8	14.5	0.00e+00	0	28	0	988807168	72	4346
2026-01-04 11:25:25.81	317.37	21.24	-52.3	-54.0	14.7	0.00e+00	0	28	0	996147200	71	4198
2026-01-04 11:25:29.79	318.04	20.83	-52.3	-53.9	14.8	0.00e+00	0	28	0	1004535808	71	4192
2026-01-04 11:25:33.77	318.70	20.42	-52.2	-53.8	14.7	0.00e+00	0	28	0	1011875840	70	4378
2026-01-04 11:25:37.75	319.33	20.02	-52.2	-53.8	14.7	0.00e+00	0	28	0	1019215872	70	4388
2026-01-04 11:25:41.73	319.96	19.62	-52.3	-54.0	14.6	0.00e+00	0	28	0	1026555904	70	4476
2026-01-04 11:25:45.70	320.56	19.22	-52.4	-54.1	14.6	0.00e+00	0	28	0	1033895936	70	4534
2026-01-04 11:25:49.67	321.15	18.83	-51.4	-52.9	14.9	0.00e+00	0	28	0	1041235968	69	4178
2026-01-04 11:25:53.65	321.73	18.44	-51.3	-52.8	14.8	0.00e+00	0	28	0	1048576000	68	4371
2026-01-04 11:25:57.62	322.29	18.06	-52.0	-53.7	14.6	0.00e+00	0	28	0	1055916032	69	4558
2026-01-04 11:26:01.59	322.84	17.68	-52.1	-53.8	14.6	0.00e+00	0	28	0	1063256064	69	4618
2026-01-04 11:26:05.56	323.38	17.30	-52.0	-53.6	14.6	0.00e+00	0	28	0	1070596096	69	4502
2026-01-04 11:26:09.54	323.90	16.92	-52.9	-54.7	14.3	0.00e+00	0	28	0	1078984704	70	4868
2026-01-04 11:26:13.52	324.41	16.55	-53.5	-55.5	14.1	0.00e+00	0	28	0	1086324736	72	4738
2026-01-04 11:26:17.51	324.92	16.18	-53.8	-55.9	14.1	0.00e+00	0	28	0	1093664768	73	4695
2026-01-04 11:26:21.48	325.40	15.82	-53.4	-55.4	14.3	0.00e+00	0	28	0	1101004800	73	4397
2026-01-04 11:26:25.46	325.88	15.46	-53.2	-55.2	14.3	0.00e+00	0	28	0	1108344832	72	4552
2026-01-04 11:26:29.43	326.34	15.10	-53.5	-55.5	14.1	0.00e+00	0	28	0	1115684864	72	4746
2026-01-04 11:26:33.41	326.80	14.74	-53.4	-55.4	14.2	0.00e+00	0	28	0	1123024896	72	4693
2026-01-04 11:26:37.38	327.24	14.40	-52.8	-54.7	14.5	0.00e+00	0	28	0	1130364928	72	4317
2026-01-04 11:26:41.36	327.68	14.05	-52.4	-54.1	14.6	0.00e+00	0	28	0	1137704960	71	4282
2026-01-04 11:26:45.34	328.11	13.70	-52.8	-54.6	14.4	0.00e+00	0	28	0	1146093568	71	4521
2026-01-04 11:26:49.33	328.52	13.36	-53.2	-55.2	14.2	0.00e+00	0	28	0	1153433600	71	4851
2026-01-04 11:26:53.30	328.93	13.03	-53.2	-55.3	14.2	0.00e+00	0	28	0	1160773632	72	4600
2026-01-04 11:26:57.26	329.33	12.70	-52.9	-54.8	14.4	0.00e+00	0	28	0	1168113664	72	4350
2026-01-04 11:27:01.23	329.72	12.37	-52.9	-54.8	14.4	0.00e+00	0	28	0	1175453696	72	4358
2026-01-04 11:27:05.21	330.10	12.04	-53.1	-55.1	14.3	0.00e+00	0	28	0	1182793728	72	4510
2026-01-04 11:27:09.19	330.47	11.72	-53.6	-55.8	14.0	0.00e+00	0	28	0	1190133760	72	4877
2026-01-04 11:27:13.16	330.84	11.40	-53.6	-55.8	13.9	0.00e+00	0	28	0	1197473792	72	4920
2026-01-04 11:27:17.14	331.20	11.08	-53.4	-55.5	14.1	0.00e+00	0	28	0	1205862400	72	4730
2026-01-04 11:27:21.11	331.55	10.77	-53.1	-55.1	14.2	0.00e+00	0	28	0	1213202432	72	4545
2026-01-04 11:27:25.07	331.89	10.46	-53.0	-55.0	14.3	0.00e+00	0	28	0	1220542464	72	4443
2026-01-04 11:27:29.05	332.23	10.15	-53.0	-55.0	14.2	0.00e+00	0	28	0	1227882496	72	4477
2026-01-04 11:27:33.02	332.56	9.85	-53.0	-55.0	14.2	0.00e+00	0	28	0	1235222528	72	4493
2026-01-04 11:27:36.99	332.89	9.55	-52.9	-54.9	14.3	0.00e+00	0	28	0	1242562560	72	4432
2026-01-04 11:27:40.95	333.21	9.25	-52.7	-54.7	14.3	0.00e+00	0	28	0	1249902592	71	4577
2026-01-04 11:27:44.93	333.52	8.95	-52.6	-54.6	14.3	0.00e+00	0	28	0	1257242624	71	4499
2026-01-04 11:27:48.91	333.83	8.66	-52.9	-54.9	14.2	0.00e+00	0	28	0	1264582656	71	4693
2026-01-04 11:27:52.89	334.13	8.37	-53.0	-55.1	14.1	0.00e+00	0	28	0	1271922688	71	4774
2026-01-04 11:27:56.86	334.42	8.08	-53.3	-55.5	13.9	0.00e+00	0	28	0	1279262720	71	5022
2026-01-04 11:28:00.82	334.71	7.80	-53.6	-55.8	13.8	0.00e+00	0	28	0	1287651328	72	4916
2026-01-04 11:28:04.78	335.00	7.52	-53.5	-55.7	13.9	0.00e+00	0	28	0	1294991360	72	4857
2026-01-04 11:28:08.74	335.27	7.24	-53.4	-55.6	13.9	0.00e+00	0	28	0	1302331392	72	4800
2026-01-04 11:28:12.71	335.55	6.96	-53.3	-55.4	13.9	7.00e-07	0	28	0	1309671424	72	4694
2026-01-04 11:28:16.67	335.82	6.69	-53.4	-55.6	13.8	0.00e+00	0	28	0	1317011456	72	4803
2026-01-04 11:28:20.63	336.08	6.42	-53.5	-55.7	13.8	3.00e-06	0	28	0	1324351488	72	4868
2026-01-04 11:28:24.60	336.34	6.15	-53.7	-56.2	13.6	1.52e-05	0	28	0	1331691520	72	5112
2026-01-04 11:28:28.57	336.60	5.88	-54.1	-56.8	13.3	0.00e+00	0	28	0	1339031552	73	5185
2026-01-04 11:28:32.56	336.85	5.61	-54.6	-57.6	12.9	5.30e-06	0	28	0	1346371584	74	5367
2026-01-04 11:28:36.52	337.10	5.35	-55.1	-58.4	12.5	0.00e+00	0	28	0	1353711616	75	5569
2026-01-04 11:28:40.50	337.35	5.09	-55.1	-58.5	12.4	0.00e+00	0	28	0	1362100224	75	5616
2026-01-04 11:28:44.48	337.59	4.83	-60.2	-76.2	3.8	1.49e+00	0	28	104	1364197376	85	24402
2026-01-04 11:28:48.49	337.82	4.57	-60.9	-77.0	3.8	1.49e+00	0	28	104	1364197376	87	23801
2026-01-04 11:28:52.50	338.06	4.32	-61.2	-77.3	3.8	1.49e+00	0	28	104	1364197376	87	24419
2026-01-04 11:28:56.49	338.29	4.06	-61.2	-77.4	3.8	1.49e+00	0	28	104	1364197376	87	24726
2026-01-04 11:29:00.49	338.51	3.81	-61.3	-77.5	3.8	1.49e+00	0	28	104	1364197376	87	25018
2026-01-04 11:29:04.48	338.74	3.56	-61.3	-77.4	3.8	1.49e+00	0	28	104	1364197376	87	24769
2026-01-04 11:29:08.48	338.96	3.31	-61.2	-77.3	3.8	1.49e+00	0	29	104	1364197376	87	24669
2026-01-04 11:29:12.44	339.17	3.07	-61.1	-77.3	3.8	1.49e+00	0	28	104	1364197376	87	24419
2026-01-04 11:29:16.42	339.38	2.83	-61.1	-77.2	3.8	1.49e+00	0	29	104	1364197376	87	24373
2026-01-04 11:29:20.39	339.59	2.59	-61.1	-77.2	3.8	1.49e+00	0	28	104	1364197376	87	24241
2026-01-04 11:29:24.37	339.80	2.35	-61.1	-77.1	3.8	1.49e+00	0	29	104	1364197376	87	24129
2026-01-04 11:29:28.34	340.00	2.11	-61.0	-77.2	3.8	1.49e+00	0	28	104	1364197376	87	24181
2026-01-04 11:29:32.32	340.20	1.88	-61.0	-77.1	3.8	1.49e+00	0	29	104	1364197376	87	24089

#Closed at: 2026-01-04 11:29:32
#Recorded file [1364 MB]: D:/lorett/data/31004_260104_141541.dat