passes_logs/2026/01/04/R3.2S_Murmansk/R3.2S_Murmansk__20260104_224834_NOAA_21_JPSS-2_rec.log

#Pass ID: 20260104_224834_NOAA 21 (JPSS-2)
#Satellite: NOAA 21 (JPSS-2)
#Configuration: NOAA-21
#almurnet v.1.7.20251203
#Start time: 2026-01-04 22:48:36

#Version: 2.2.20231116
#Station: R3.2S_Murmansk
#Location: 33.079688 lon 68.888172 lat
#TLE: 1 54234U 22150A   26004.43991293  .00000169  00000+0  10108-3 0  9998
#TLE: 2 54234  98.7489 305.4680 0001107 344.3033  15.8108 14.19531967163313

#Time	Az	El	Level	Level2	SNR	BER	BlckErr	Temp	State	Recorded	gain1	gain2
2026-01-04 22:48:36.51	19.53	2.12	-58.4	-72.2	3.8	1.49e+00	0	26	0	0	83	17106
2026-01-04 22:48:40.54	19.76	2.35	-58.4	-71.9	3.8	1.49e+00	0	26	104	0	81	18665
2026-01-04 22:48:44.57	19.99	2.59	-58.3	-71.5	3.8	1.49e+00	0	26	104	0	81	17705
2026-01-04 22:48:48.60	20.23	2.83	-58.3	-70.7	3.8	1.49e+00	0	26	104	0	81	16259
2026-01-04 22:48:52.64	20.47	3.07	-58.3	-70.4	3.8	1.49e+00	0	26	104	0	81	15623
2026-01-04 22:48:56.67	20.71	3.31	-58.0	-67.7	4.5	1.44e+00	9	27	104	0	81	11518
2026-01-04 22:49:00.70	20.96	3.56	-57.6	-65.1	5.8	3.58e-01	0	26	0	7340032	81	8498
2026-01-04 22:49:04.73	21.21	3.80	-57.4	-64.2	6.4	2.23e-01	0	26	0	19922944	81	7648
2026-01-04 22:49:08.76	21.47	4.05	-56.0	-59.9	9.9	3.76e-03	0	27	0	32505856	78	5579
2026-01-04 22:49:12.79	21.73	4.30	-53.3	-55.6	12.8	0.00e+00	0	27	0	45088768	73	4523
2026-01-04 22:49:16.83	21.99	4.55	-52.5	-54.5	13.2	0.00e+00	0	27	0	57671680	71	4456
2026-01-04 22:49:20.88	22.26	4.81	-54.3	-57.1	11.7	4.50e-06	0	27	0	70254592	73	5387
2026-01-04 22:49:24.91	22.53	5.06	-52.5	-54.5	13.3	0.00e+00	0	27	0	82837504	71	4449
2026-01-04 22:49:28.95	22.81	5.32	-57.7	-65.3	5.7	4.54e-02	0	27	0	95420416	80	9210
2026-01-04 22:49:32.98	23.09	5.58	-52.2	-54.0	13.5	0.00e+00	0	27	0	108003328	70	4469
2026-01-04 22:49:37.01	23.38	5.84	-52.1	-53.9	13.6	0.00e+00	0	27	0	120586240	70	4393
2026-01-04 22:49:41.06	23.67	6.11	-51.9	-53.6	13.7	0.00e+00	0	27	0	133169152	70	4279
2026-01-04 22:49:45.09	23.96	6.37	-51.4	-53.0	14.0	0.00e+00	0	27	0	145752064	69	4213
2026-01-04 22:49:49.13	24.27	6.64	-51.5	-53.1	13.9	0.00e+00	0	27	0	158334976	69	4258
2026-01-04 22:49:53.17	24.57	6.91	-51.4	-53.0	14.0	0.00e+00	0	27	0	170917888	69	4197
2026-01-04 22:49:57.20	24.88	7.18	-51.3	-52.9	14.1	0.00e+00	0	27	0	183500800	69	4150
2026-01-04 22:50:01.24	25.20	7.46	-51.3	-52.9	14.1	0.00e+00	0	27	0	196083712	69	4165
2026-01-04 22:50:05.28	25.53	7.73	-51.2	-52.8	14.0	0.00e+00	0	27	0	208666624	68	4378
2026-01-04 22:50:09.33	25.86	8.01	-51.3	-52.9	14.0	0.00e+00	0	27	0	221249536	68	4407
2026-01-04 22:50:13.36	26.19	8.30	-51.3	-52.9	13.9	0.00e+00	0	27	0	233832448	68	4433
2026-01-04 22:50:17.40	26.53	8.58	-51.2	-52.8	14.1	0.00e+00	0	28	0	247463936	68	4358
2026-01-04 22:50:21.44	26.88	8.87	-51.0	-52.6	14.2	0.00e+00	0	28	0	258998272	68	4250
2026-01-04 22:50:25.48	27.23	9.16	-51.0	-52.5	14.1	0.00e+00	0	28	0	272629760	68	4237
2026-01-04 22:50:29.52	27.59	9.45	-51.0	-52.5	14.2	0.00e+00	0	28	0	285212672	68	4208
2026-01-04 22:50:33.56	27.96	9.74	-51.2	-52.7	14.1	0.00e+00	0	28	0	297795584	68	4313
2026-01-04 22:50:37.59	28.34	10.04	-50.6	-52.1	14.3	0.00e+00	0	28	0	310378496	67	4249
2026-01-04 22:50:41.63	28.72	10.34	-50.4	-51.9	14.3	0.00e+00	0	28	0	322961408	67	4153
2026-01-04 22:50:45.67	29.11	10.64	-50.2	-51.6	14.4	0.00e+00	0	28	0	335544320	66	4260
2026-01-04 22:50:49.71	29.51	10.94	-50.1	-51.4	14.5	0.00e+00	0	27	0	348127232	66	4186
2026-01-04 22:50:53.75	29.91	11.25	-50.1	-51.5	14.4	0.00e+00	0	28	0	360710144	66	4201
2026-01-04 22:50:57.78	30.32	11.56	-50.0	-51.4	14.5	0.00e+00	0	28	0	373293056	66	4148
2026-01-04 22:51:01.82	30.75	11.87	-50.0	-51.3	14.5	0.00e+00	0	28	0	385875968	66	4137
2026-01-04 22:51:05.86	31.18	12.18	-49.8	-51.1	14.6	0.00e+00	0	28	0	398458880	66	4041
2026-01-04 22:51:09.90	31.62	12.50	-49.9	-51.3	14.5	0.00e+00	0	28	0	411041792	66	4101
2026-01-04 22:51:13.94	32.07	12.82	-49.8	-51.1	14.6	0.00e+00	0	28	0	423624704	66	4024
2026-01-04 22:51:17.97	32.52	13.14	-49.7	-51.0	14.5	0.00e+00	0	28	0	436207616	65	4230
2026-01-04 22:51:22.01	32.99	13.47	-49.8	-51.1	14.5	0.00e+00	0	28	0	448790528	65	4248
2026-01-04 22:51:26.05	33.47	13.80	-49.6	-51.0	14.6	0.00e+00	0	28	0	461373440	65	4197
2026-01-04 22:51:30.09	33.96	14.13	-49.9	-51.3	14.4	0.00e+00	0	28	0	473956352	65	4351
2026-01-04 22:51:34.12	34.45	14.46	-50.0	-51.3	14.4	0.00e+00	0	28	0	486539264	65	4357
2026-01-04 22:51:38.15	34.96	14.80	-50.0	-51.3	14.4	0.00e+00	0	28	0	499122176	65	4390
2026-01-04 22:51:42.19	35.48	15.13	-50.0	-51.3	14.4	0.00e+00	0	28	0	511705088	65	4391
2026-01-04 22:51:46.22	36.02	15.47	-50.2	-51.6	14.3	0.00e+00	0	28	0	524288000	65	4497
2026-01-04 22:51:50.26	36.56	15.82	-50.1	-51.4	14.4	0.00e+00	0	28	0	536870912	65	4437
2026-01-04 22:51:54.30	37.12	16.17	-50.2	-51.6	14.3	0.00e+00	0	28	0	549453824	65	4533
2026-01-04 22:51:58.34	37.69	16.51	-50.2	-51.5	14.5	0.00e+00	0	28	0	562036736	66	4229
2026-01-04 22:52:02.38	38.27	16.86	-49.9	-51.2	14.6	0.00e+00	0	28	0	574619648	66	4085
2026-01-04 22:52:06.41	38.86	17.22	-49.8	-51.1	14.6	0.00e+00	0	28	0	587202560	66	4031
2026-01-04 22:52:10.45	39.47	17.57	-49.7	-51.0	14.6	0.00e+00	0	28	0	599785472	66	4003
2026-01-04 22:52:14.49	40.09	17.93	-49.7	-51.0	14.6	0.00e+00	0	28	0	612368384	65	4196
2026-01-04 22:52:18.53	40.73	18.29	-49.5	-50.7	14.7	0.00e+00	0	28	0	624951296	65	4093
2026-01-04 22:52:22.57	41.38	18.65	-49.8	-51.2	14.5	0.00e+00	0	28	0	637534208	65	4295
2026-01-04 22:52:26.61	42.05	19.01	-49.8	-51.1	14.5	0.00e+00	0	28	0	651165696	65	4269
2026-01-04 22:52:30.65	42.73	19.38	-49.7	-51.0	14.6	0.00e+00	0	28	0	662700032	65	4196
2026-01-04 22:52:34.69	43.43	19.75	-49.5	-50.7	14.7	0.00e+00	0	28	0	676331520	65	4085
2026-01-04 22:52:38.73	44.15	20.11	-49.1	-50.3	14.7	0.00e+00	0	28	0	688914432	64	4105
2026-01-04 22:52:42.77	44.88	20.48	-48.7	-49.9	14.8	0.00e+00	0	28	0	701497344	63	4181
2026-01-04 22:52:46.80	45.63	20.85	-49.0	-50.2	14.7	0.00e+00	0	28	0	714080256	63	4307
2026-01-04 22:52:50.84	46.40	21.22	-48.9	-50.1	14.7	0.00e+00	0	28	0	726663168	63	4269
2026-01-04 22:52:54.88	47.18	21.59	-48.8	-50.0	14.7	0.00e+00	0	28	0	739246080	63	4240
2026-01-04 22:52:58.91	47.98	21.96	-48.9	-50.1	14.7	0.00e+00	0	28	0	751828992	63	4289
2026-01-04 22:53:02.96	48.81	22.33	-48.7	-49.9	14.8	0.00e+00	0	28	0	764411904	63	4179
2026-01-04 22:53:06.99	49.65	22.69	-48.8	-49.9	14.8	0.00e+00	0	28	0	776994816	63	4185
2026-01-04 22:53:11.03	50.51	23.06	-48.9	-50.1	14.7	0.00e+00	0	28	0	789577728	63	4290
2026-01-04 22:53:15.06	51.39	23.43	-49.0	-50.2	14.7	0.00e+00	0	28	0	802160640	63	4301
2026-01-04 22:53:19.10	52.29	23.79	-49.0	-50.2	14.7	0.00e+00	0	28	0	814743552	63	4336
2026-01-04 22:53:23.14	53.21	24.15	-49.0	-50.2	14.7	0.00e+00	0	28	0	827326464	63	4297
2026-01-04 22:53:27.18	54.16	24.51	-49.0	-50.2	14.7	0.00e+00	0	28	0	839909376	63	4327
2026-01-04 22:53:31.21	55.12	24.87	-49.3	-50.6	14.6	0.00e+00	0	28	0	852492288	63	4505
2026-01-04 22:53:35.26	56.11	25.22	-49.3	-50.5	14.7	0.00e+00	0	28	0	865075200	64	4223
2026-01-04 22:53:39.29	57.11	25.57	-49.3	-50.5	14.7	0.00e+00	0	28	0	877658112	64	4222
2026-01-04 22:53:43.33	58.14	25.91	-49.0	-50.2	14.8	0.00e+00	0	28	0	890241024	64	4096
2026-01-04 22:53:47.36	59.19	26.25	-49.3	-50.5	14.7	0.00e+00	0	28	0	902823936	64	4241
2026-01-04 22:53:51.40	60.27	26.58	-49.1	-50.3	14.7	0.00e+00	0	28	0	915406848	64	4107
2026-01-04 22:53:55.43	61.36	26.91	-49.1	-50.3	14.8	0.00e+00	0	28	0	927989760	64	4116
2026-01-04 22:53:59.47	62.48	27.22	-49.2	-50.4	14.7	0.00e+00	0	28	0	940572672	64	4154
2026-01-04 22:54:03.50	63.61	27.53	-48.8	-50.0	14.9	0.00e+00	0	28	0	953155584	64	3985
2026-01-04 22:54:07.54	64.77	27.83	-48.8	-50.0	14.9	0.00e+00	0	28	0	965738496	64	3981
2026-01-04 22:54:11.58	65.96	28.13	-49.3	-50.6	14.7	0.00e+00	0	28	0	978321408	64	4260
2026-01-04 22:54:15.62	67.16	28.41	-49.0	-50.2	14.8	0.00e+00	0	28	0	990904320	64	4058
2026-01-04 22:54:19.66	68.38	28.68	-49.2	-50.4	14.7	0.00e+00	0	28	0	1003487232	64	4193
2026-01-04 22:54:23.70	69.63	28.94	-49.1	-50.3	14.8	0.00e+00	0	28	0	1016070144	64	4145
2026-01-04 22:54:27.74	70.89	29.18	-49.0	-50.2	14.8	0.00e+00	0	28	0	1028653056	64	4060
2026-01-04 22:54:31.77	72.17	29.42	-49.4	-50.6	14.7	0.00e+00	0	28	0	1042284544	64	4264
2026-01-04 22:54:35.81	73.47	29.64	-49.3	-50.5	14.7	0.00e+00	0	28	0	1054867456	64	4205
2026-01-04 22:54:39.84	74.79	29.84	-49.4	-50.6	14.7	0.00e+00	0	28	0	1067450368	64	4290
2026-01-04 22:54:43.88	76.12	30.03	-49.7	-51.0	14.6	0.00e+00	0	28	0	1080033280	64	4445
2026-01-04 22:54:47.91	77.46	30.21	-49.7	-50.9	14.5	0.00e+00	0	28	0	1092616192	64	4426
2026-01-04 22:54:51.95	78.83	30.37	-49.7	-50.9	14.6	0.00e+00	0	28	0	1105199104	64	4417
2026-01-04 22:54:55.99	80.20	30.51	-49.5	-50.7	14.6	0.00e+00	0	28	0	1117782016	64	4335
2026-01-04 22:55:00.02	81.58	30.63	-49.8	-51.1	14.5	0.00e+00	0	28	0	1130364928	64	4529
2026-01-04 22:55:04.06	82.98	30.74	-49.5	-50.8	14.7	0.00e+00	0	28	0	1142947840	65	4101
2026-01-04 22:55:08.10	84.39	30.83	-49.5	-50.8	14.7	0.00e+00	0	28	0	1155530752	65	4109
2026-01-04 22:55:12.14	85.80	30.90	-49.7	-50.9	14.7	0.00e+00	0	28	0	1168113664	65	4181
2026-01-04 22:55:16.18	87.21	30.95	-49.8	-51.1	14.6	0.00e+00	0	28	0	1180696576	65	4265
2026-01-04 22:55:20.22	88.63	30.98	-49.8	-51.1	14.6	0.00e+00	0	28	0	1193279488	65	4268
2026-01-04 22:55:24.26	90.06	31.00	-49.9	-51.1	14.6	0.00e+00	0	28	0	1205862400	65	4269
2026-01-04 22:55:28.29	91.48	30.99	-49.7	-50.9	14.7	0.00e+00	0	28	0	1218445312	65	4190
2026-01-04 22:55:32.32	92.90	30.97	-49.6	-50.9	14.7	0.00e+00	0	28	0	1231028224	65	4156
2026-01-04 22:55:36.36	94.32	30.93	-49.7	-50.9	14.7	0.00e+00	0	28	0	1243611136	65	4180
2026-01-04 22:55:40.39	95.73	30.86	-49.6	-50.9	14.7	0.00e+00	0	28	0	1256194048	65	4152
2026-01-04 22:55:44.42	97.13	30.78	-49.6	-50.8	14.7	0.00e+00	0	28	0	1268776960	65	4130
2026-01-04 22:55:48.46	98.53	30.69	-49.3	-50.5	14.8	0.00e+00	0	28	0	1281359872	65	3972
2026-01-04 22:55:52.50	99.93	30.57	-49.8	-51.0	14.6	0.00e+00	0	28	0	1293942784	65	4229
2026-01-04 22:55:56.54	101.31	30.43	-49.5	-50.7	14.7	0.00e+00	0	28	0	1306525696	65	4078
2026-01-04 22:56:00.57	102.68	30.28	-49.5	-50.7	14.7	0.00e+00	0	28	0	1319108608	65	4083
2026-01-04 22:56:04.61	104.03	30.12	-50.0	-51.3	14.5	0.00e+00	0	28	0	1331691520	65	4342
2026-01-04 22:56:08.65	105.38	29.93	-49.7	-50.9	14.7	0.00e+00	0	28	0	1344274432	65	4175
2026-01-04 22:56:12.69	106.70	29.73	-49.6	-50.8	14.7	0.00e+00	0	28	0	1356857344	65	4125
2026-01-04 22:56:16.73	108.02	29.52	-49.4	-50.6	14.8	0.00e+00	0	28	0	1369440256	65	4046
2026-01-04 22:56:20.78	109.31	29.29	-49.6	-50.8	14.7	0.00e+00	0	28	0	1382023168	65	4137
2026-01-04 22:56:24.81	110.58	29.05	-49.2	-50.4	14.9	0.00e+00	0	28	0	1394606080	65	3925
2026-01-04 22:56:28.85	111.84	28.80	-49.4	-50.7	14.6	0.00e+00	0	28	0	1408237568	64	4300
2026-01-04 22:56:32.88	113.07	28.53	-49.6	-50.8	14.6	0.00e+00	0	28	0	1419771904	64	4386
2026-01-04 22:56:36.92	114.29	28.25	-49.2	-50.5	14.7	0.00e+00	0	28	0	1433403392	64	4200
2026-01-04 22:56:40.95	115.48	27.97	-49.6	-50.8	14.6	0.00e+00	0	28	0	1444937728	64	4381
2026-01-04 22:56:44.99	116.66	27.67	-49.4	-50.6	14.7	0.00e+00	0	28	0	1458569216	64	4257
2026-01-04 22:56:49.03	117.81	27.36	-49.3	-50.5	14.7	0.00e+00	0	28	0	1471152128	64	4223
2026-01-04 22:56:53.07	118.94	27.04	-49.3	-50.5	14.7	0.00e+00	0	28	0	1483735040	64	4201
2026-01-04 22:56:57.10	120.05	26.72	-49.0	-50.2	14.8	0.00e+00	0	28	0	1496317952	64	4088
2026-01-04 22:57:01.14	121.13	26.39	-48.7	-49.9	14.9	0.00e+00	0	28	0	1508900864	64	3915
2026-01-04 22:57:05.18	122.20	26.06	-48.6	-49.8	14.8	0.00e+00	0	28	0	1521483776	63	4107
2026-01-04 22:57:09.21	123.24	25.71	-48.8	-50.0	14.8	0.00e+00	0	28	0	1534066688	63	4218
2026-01-04 22:57:13.24	124.26	25.37	-48.8	-50.0	14.8	0.00e+00	0	28	0	1546649600	63	4231
2026-01-04 22:57:17.27	125.25	25.02	-49.0	-50.3	14.7	0.00e+00	0	28	0	1559232512	63	4350
2026-01-04 22:57:21.31	126.23	24.66	-48.9	-50.1	14.7	0.00e+00	0	28	0	1571815424	63	4263
2026-01-04 22:57:25.35	127.19	24.30	-48.8	-50.0	14.8	0.00e+00	0	28	0	1584398336	63	4209
2026-01-04 22:57:29.38	128.12	23.94	-48.8	-50.0	14.8	0.00e+00	0	28	0	1596981248	63	4198
2026-01-04 22:57:33.42	129.03	23.57	-48.7	-49.9	14.8	0.00e+00	0	28	0	1609564160	63	4158
2026-01-04 22:57:37.46	129.93	23.20	-49.0	-50.2	14.7	0.00e+00	0	28	0	1622147072	63	4314
2026-01-04 22:57:41.50	130.80	22.84	-49.2	-50.5	14.6	0.00e+00	0	28	0	1634729984	63	4463
2026-01-04 22:57:45.54	131.65	22.46	-49.0	-50.3	14.7	0.00e+00	0	28	0	1647312896	63	4350
2026-01-04 22:57:49.58	132.49	22.09	-48.8	-50.0	14.7	0.00e+00	0	28	0	1659895808	63	4234
2026-01-04 22:57:53.62	133.30	21.72	-48.8	-50.0	14.7	0.00e+00	0	28	0	1672478720	63	4212
2026-01-04 22:57:57.65	134.10	21.35	-48.7	-49.9	14.8	0.00e+00	0	28	0	1685061632	63	4176
2026-01-04 22:58:01.68	134.87	20.98	-48.7	-49.9	14.8	0.00e+00	0	28	0	1697644544	63	4159
2026-01-04 22:58:05.73	135.63	20.61	-48.9	-50.1	14.7	0.00e+00	0	28	0	1710227456	63	4282
2026-01-04 22:58:09.77	136.38	20.24	-49.1	-50.3	14.6	0.00e+00	0	28	0	1722810368	63	4385
2026-01-04 22:58:13.81	137.10	19.87	-49.2	-50.4	14.6	0.00e+00	0	28	0	1735393280	63	4438
2026-01-04 22:58:17.85	137.81	19.50	-49.2	-50.4	14.6	0.00e+00	0	28	0	1747976192	63	4428
2026-01-04 22:58:21.88	138.50	19.13	-49.0	-50.3	14.6	0.00e+00	0	28	0	1760559104	63	4352
2026-01-04 22:58:25.92	139.18	18.76	-48.9	-50.1	14.7	0.00e+00	0	28	0	1773142016	63	4251
2026-01-04 22:58:29.95	139.83	18.40	-49.0	-50.2	14.7	0.00e+00	0	28	0	1785724928	63	4325
2026-01-04 22:58:33.99	140.48	18.04	-49.0	-50.2	14.6	0.00e+00	0	28	0	1798307840	63	4329
2026-01-04 22:58:38.03	141.11	17.68	-49.0	-50.3	14.6	0.00e+00	0	28	0	1810890752	63	4355
2026-01-04 22:58:42.06	141.73	17.32	-49.1	-50.3	14.6	0.00e+00	0	28	0	1823473664	63	4362
2026-01-04 22:58:46.10	142.33	16.96	-49.2	-50.4	14.6	0.00e+00	0	28	0	1836056576	63	4432
2026-01-04 22:58:50.14	142.92	16.61	-49.3	-50.6	14.5	0.00e+00	0	28	0	1848639488	63	4510
2026-01-04 22:58:54.17	143.49	16.26	-49.6	-50.9	14.5	0.00e+00	0	28	0	1862270976	64	4392
2026-01-04 22:58:58.22	144.05	15.91	-49.6	-50.8	14.5	0.00e+00	0	28	0	1874853888	64	4391
2026-01-04 22:59:02.25	144.60	15.56	-49.9	-51.2	14.5	0.00e+00	0	28	0	1887436800	65	4336
2026-01-04 22:59:06.28	145.14	15.22	-49.9	-51.2	14.4	0.00e+00	0	28	0	1900019712	65	4339
2026-01-04 22:59:10.32	145.67	14.88	-50.1	-51.5	14.4	0.00e+00	0	28	0	1912602624	65	4444
2026-01-04 22:59:14.36	146.18	14.54	-50.3	-51.7	14.3	0.00e+00	0	28	0	1925185536	65	4552
2026-01-04 22:59:18.41	146.69	14.20	-50.2	-51.6	14.3	0.00e+00	0	28	0	1937768448	65	4536
2026-01-04 22:59:22.45	147.18	13.87	-50.1	-51.5	14.4	0.00e+00	0	28	0	1950351360	65	4472
2026-01-04 22:59:26.48	147.66	13.53	-50.2	-51.6	14.3	0.00e+00	0	28	0	1962934272	65	4538
2026-01-04 22:59:30.52	148.13	13.21	-50.5	-51.9	14.3	0.00e+00	0	28	0	1975517184	66	4413
2026-01-04 22:59:34.56	148.60	12.88	-50.3	-51.7	14.3	0.00e+00	0	28	0	1988100096	66	4325
2026-01-04 22:59:38.60	149.05	12.56	-50.2	-51.6	14.4	0.00e+00	0	28	0	2000683008	66	4252
2026-01-04 22:59:42.64	149.49	12.24	-50.3	-51.7	14.4	0.00e+00	0	28	0	2013265920	66	4293
2026-01-04 22:59:46.68	149.93	11.92	-50.3	-51.7	14.3	0.00e+00	0	28	0	2025848832	66	4308
2026-01-04 22:59:50.70	150.35	11.60	-50.4	-51.9	14.3	0.00e+00	0	28	0	2038431744	66	4404
2026-01-04 22:59:54.74	150.77	11.29	-50.5	-51.9	14.2	0.00e+00	0	28	0	2051014656	66	4438
2026-01-04 22:59:58.77	151.17	10.98	-50.5	-51.9	14.2	0.00e+00	0	28	0	2063597568	66	4435
2026-01-04 23:00:02.81	151.57	10.68	-50.5	-52.0	14.2	0.00e+00	0	28	0	2076180480	66	4442
2026-01-04 23:00:06.85	151.97	10.37	-50.4	-51.8	14.2	0.00e+00	0	28	0	2088763392	66	4391
2026-01-04 23:00:10.89	152.35	10.07	-50.4	-51.9	14.2	0.00e+00	0	28	0	2101346304	66	4398
2026-01-04 23:00:14.93	152.73	9.77	-50.3	-51.8	14.3	0.00e+00	0	28	0	2113929216	66	4342
2026-01-04 23:00:18.97	153.10	9.47	-50.3	-51.7	14.3	0.00e+00	0	28	0	2126512128	66	4327
2026-01-04 23:00:23.01	153.46	9.18	-50.5	-52.0	14.2	0.00e+00	0	28	0	2139095040	66	4475
2026-01-04 23:00:27.05	153.82	8.89	-50.8	-52.3	14.0	0.00e+00	0	28	0	2151677952	66	4635
2026-01-04 23:00:31.09	154.17	8.60	-50.9	-52.4	14.0	0.00e+00	0	28	0	2164260864	66	4692
2026-01-04 23:00:35.13	154.51	8.31	-51.0	-52.6	14.0	0.00e+00	0	28	0	2176843776	67	4494
2026-01-04 23:00:39.17	154.85	8.03	-50.9	-52.5	14.0	0.00e+00	0	28	0	2189426688	67	4461
2026-01-04 23:00:43.21	155.18	7.74	-51.0	-52.6	13.9	0.00e+00	0	28	0	2203058176	67	4498
2026-01-04 23:00:47.24	155.50	7.46	-51.2	-52.8	13.8	0.00e+00	0	28	0	2214592512	67	4610
2026-01-04 23:00:51.26	155.82	7.19	-51.1	-52.8	13.9	0.00e+00	0	28	0	2228224000	67	4599
2026-01-04 23:00:55.30	156.13	6.91	-51.6	-53.3	13.7	0.00e+00	0	28	0	2240806912	68	4623
2026-01-04 23:00:59.34	156.44	6.64	-51.7	-53.4	13.7	0.00e+00	0	28	0	2253389824	68	4677
2026-01-04 23:01:03.38	156.74	6.37	-51.8	-53.6	13.6	0.00e+00	0	28	0	2265972736	68	4784
2026-01-04 23:01:07.42	157.04	6.10	-52.1	-53.9	13.5	0.00e+00	0	28	0	2278555648	69	4684
2026-01-04 23:01:11.46	157.33	5.83	-52.2	-54.1	13.3	0.00e+00	0	28	0	2291138560	69	4768
2026-01-04 23:01:15.50	157.62	5.57	-52.3	-54.3	13.3	0.00e+00	0	28	0	2303721472	70	4601
2026-01-04 23:01:19.54	157.90	5.31	-52.5	-54.6	13.1	0.00e+00	0	28	0	2316304384	70	4761
2026-01-04 23:01:23.58	158.17	5.05	-52.4	-54.4	13.2	0.00e+00	0	28	0	2328887296	70	4685
2026-01-04 23:01:27.62	158.45	4.79	-59.7	-73.5	3.8	1.49e+00	0	28	104	2333081600	84	18865
2026-01-04 23:01:31.64	158.71	4.53	-60.3	-74.1	3.9	1.49e+00	0	28	104	2333081600	85	19018
2026-01-04 23:01:35.66	158.98	4.28	-60.6	-74.5	3.8	1.49e+00	0	28	104	2333081600	86	18737
2026-01-04 23:01:39.69	159.24	4.03	-60.9	-74.7	3.8	1.49e+00	0	28	104	2333081600	86	19321
2026-01-04 23:01:43.72	159.49	3.78	-61.0	-74.9	3.8	1.49e+00	0	28	104	2333081600	87	18521
2026-01-04 23:01:47.76	159.74	3.53	-61.0	-74.8	3.8	1.49e+00	0	28	104	2333081600	87	18435
2026-01-04 23:01:51.79	159.99	3.28	-60.9	-74.8	3.8	1.49e+00	0	28	104	2333081600	87	18363
2026-01-04 23:01:55.82	160.23	3.04	-60.9	-74.7	3.8	1.49e+00	0	28	104	2333081600	87	18272
2026-01-04 23:01:59.85	160.47	2.80	-60.8	-74.7	3.8	1.49e+00	0	29	104	2333081600	87	18181
2026-01-04 23:02:03.88	160.71	2.56	-60.8	-74.7	3.8	1.49e+00	0	28	104	2333081600	87	18105
2026-01-04 23:02:07.92	160.94	2.32	-60.8	-74.6	3.8	1.49e+00	0	28	104	2333081600	87	18063
2026-01-04 23:02:11.96	161.17	2.08	-60.8	-74.7	3.8	1.49e+00	0	28	104	2333081600	87	18098

#Closed at: 2026-01-04 23:02:15
#Recorded file [2333 MB]: D:/lorett/data/31004_260105_014836.dat