passes_logs/2026/01/04/R3.2S_Murmansk/R3.2S_Murmansk__20260104_050601_AQUA_rec.log

#Pass ID: 20260104_050601_AQUA
#Satellite: AQUA
#Configuration: AQUA
#almurnet v.1.7.20251203
#Start time: 2026-01-04 05:06:03

#Version: 2.2.20231116
#Station: R3.2S_Murmansk
#Location: 33.079688 lon 68.888172 lat
#TLE: 1 27424U 02022A   25365.92641127  .00002078  00000+0  42628-3 0  9999
#TLE: 2 27424  98.4058 327.1196 0001962  94.7781 340.6230 14.61783896258835

#Time	Az	El	Level	Level2	SNR	BER	BlckErr	Temp	State	Recorded	gain1	gain2
2026-01-04 05:06:03.49	37.77	2.12	-60.2	-79.6	3.8	7.47e-01	0	26	0	0	88	35159
2026-01-04 05:06:06.51	37.56	2.30	-60.5	-79.8	3.8	7.49e-01	0	27	104	0	88	36095
2026-01-04 05:06:09.51	37.36	2.48	-60.5	-79.8	3.8	7.47e-01	0	27	104	0	88	36041
2026-01-04 05:06:12.52	37.15	2.66	-60.4	-79.8	3.8	7.45e-01	0	27	104	0	88	35694
2026-01-04 05:06:15.51	36.93	2.84	-60.3	-79.7	3.8	7.48e-01	0	27	104	0	88	35446
2026-01-04 05:06:18.51	36.72	3.02	-60.1	-79.5	3.8	7.46e-01	0	27	104	0	88	34618
2026-01-04 05:06:21.52	36.50	3.21	-59.7	-79.1	3.8	7.47e-01	0	27	104	0	88	33203
2026-01-04 05:06:24.51	36.28	3.39	-58.8	-78.2	3.8	7.46e-01	0	27	104	0	86	33558
2026-01-04 05:06:27.51	36.05	3.58	-58.2	-77.6	3.8	7.44e-01	0	27	104	0	85	33000
2026-01-04 05:06:30.51	35.82	3.77	-58.2	-77.5	3.8	7.44e-01	0	27	104	0	85	32916
2026-01-04 05:06:33.49	35.59	3.95	-58.2	-77.6	3.8	7.47e-01	0	27	104	0	85	33002
2026-01-04 05:06:36.48	35.36	4.14	-58.2	-77.4	3.8	7.46e-01	0	27	104	0	85	32519
2026-01-04 05:06:39.47	35.12	4.33	-58.2	-77.5	3.8	7.43e-01	0	27	104	0	85	32696
2026-01-04 05:06:42.46	34.87	4.52	-58.1	-77.3	3.8	7.47e-01	0	28	104	0	85	32112
2026-01-04 05:06:45.46	34.63	4.71	-57.9	-75.6	3.8	7.49e-01	0	27	104	0	84	28016
2026-01-04 05:06:48.46	34.38	4.91	-57.0	-72.6	3.8	7.44e-01	0	27	104	0	83	20882
2026-01-04 05:06:51.46	34.12	5.10	-57.7	-75.1	3.9	7.45e-01	0	28	104	0	83	27931
2026-01-04 05:06:54.45	33.87	5.30	-56.9	-72.4	3.9	7.42e-01	0	28	104	0	83	20490
2026-01-04 05:06:57.45	33.60	5.49	-53.0	-65.2	3.8	7.45e-01	0	28	104	0	75	14149
2026-01-04 05:07:00.45	33.34	5.69	-56.2	-70.6	3.8	7.46e-01	0	28	104	0	80	19715
2026-01-04 05:07:03.46	33.07	5.89	-56.3	-70.8	3.9	7.43e-01	0	28	104	0	82	18082
2026-01-04 05:07:06.45	32.79	6.09	-54.3	-67.1	3.8	7.42e-01	0	28	104	0	76	16514
2026-01-04 05:07:09.44	32.52	6.29	-57.2	-73.1	3.9	7.45e-01	0	28	104	0	83	22125
2026-01-04 05:07:12.45	32.23	6.49	-52.7	-64.7	3.8	7.44e-01	0	28	104	0	74	14103
2026-01-04 05:07:15.44	31.95	6.70	-53.6	-65.9	3.9	7.45e-01	0	28	104	0	74	16208
2026-01-04 05:07:18.44	31.65	6.90	-55.1	-68.0	3.9	7.46e-01	0	28	104	0	77	17426
2026-01-04 05:07:21.44	31.36	7.11	-52.6	-64.5	3.9	7.42e-01	0	28	104	0	74	13784
2026-01-04 05:07:24.44	31.06	7.31	-56.3	-70.1	3.8	7.45e-01	0	28	104	0	81	17634
2026-01-04 05:07:27.44	30.75	7.52	-53.0	-65.1	3.8	7.46e-01	0	28	104	0	75	13896
2026-01-04 05:07:30.43	30.44	7.73	-52.8	-64.8	3.8	7.43e-01	0	28	104	0	74	14225
2026-01-04 05:07:33.43	30.12	7.94	-57.0	-72.2	3.9	7.43e-01	0	28	104	0	83	19848
2026-01-04 05:07:36.42	29.80	8.15	-52.1	-63.8	3.8	7.50e-01	0	28	104	0	73	13515
2026-01-04 05:07:39.41	29.48	8.36	-57.4	-72.6	3.9	7.47e-01	0	28	104	0	84	19645
2026-01-04 05:07:42.40	29.14	8.57	-57.0	-71.9	3.9	7.44e-01	0	28	104	0	83	19331
2026-01-04 05:07:45.39	28.81	8.79	-53.6	-65.7	3.9	7.46e-01	0	28	104	0	76	14192
2026-01-04 05:07:48.38	28.47	9.00	-55.4	-68.4	3.9	7.46e-01	0	28	104	0	78	17258
2026-01-04 05:07:51.39	28.12	9.22	-56.1	-69.8	3.9	7.46e-01	0	28	104	0	81	17034
2026-01-04 05:07:54.38	27.76	9.44	-51.9	-63.5	3.8	7.44e-01	0	28	104	0	71	14637
2026-01-04 05:07:57.37	27.40	9.66	-57.4	-73.0	3.9	7.43e-01	0	28	104	0	83	21960
2026-01-04 05:08:00.37	27.04	9.88	-53.5	-65.5	3.8	7.46e-01	0	28	104	0	76	13814
2026-01-04 05:08:03.36	26.66	10.10	-52.8	-64.6	3.8	7.45e-01	0	28	104	0	73	14798
2026-01-04 05:08:06.36	26.28	10.32	-52.9	-64.7	3.8	7.47e-01	0	28	104	0	73	15030
2026-01-04 05:08:09.36	25.90	10.54	-51.0	-62.5	3.8	7.45e-01	0	28	104	0	71	13042
2026-01-04 05:08:12.36	25.51	10.77	-55.8	-68.9	3.9	7.44e-01	0	28	104	0	80	16221
2026-01-04 05:08:15.35	25.11	10.99	-52.7	-64.5	3.9	7.45e-01	0	28	104	0	74	13864
2026-01-04 05:08:18.33	24.70	11.22	-52.3	-64.0	3.8	7.49e-01	0	28	104	0	73	13773
2026-01-04 05:08:21.34	24.29	11.45	-57.4	-72.7	3.9	7.49e-01	0	28	104	0	83	21188
2026-01-04 05:08:24.34	23.87	11.67	-51.5	-63.1	3.8	7.46e-01	0	28	104	0	72	13114
2026-01-04 05:08:27.33	23.44	11.90	-56.8	-71.3	3.9	7.43e-01	0	28	104	0	82	18963
2026-01-04 05:08:30.32	23.01	12.13	-58.2	-74.9	3.9	7.44e-01	0	28	104	0	84	25592
2026-01-04 05:08:33.33	22.57	12.36	-51.6	-63.2	3.9	7.45e-01	0	28	104	0	72	13273
2026-01-04 05:08:36.32	22.12	12.59	-54.7	-67.3	3.8	7.46e-01	0	28	104	0	77	15986
2026-01-04 05:08:39.30	21.66	12.83	-56.3	-69.6	3.9	7.45e-01	0	28	104	0	81	16692
2026-01-04 05:08:42.27	21.20	13.06	-51.4	-62.9	3.8	7.46e-01	0	28	104	0	70	14524
2026-01-04 05:08:45.25	20.73	13.29	-57.7	-73.2	3.8	7.44e-01	0	28	104	0	83	22420
2026-01-04 05:08:48.25	20.25	13.52	-52.2	-63.9	3.8	7.43e-01	0	28	104	0	73	13602
2026-01-04 05:08:51.24	19.76	13.76	-51.4	-62.9	3.9	7.44e-01	0	28	104	0	71	13593
2026-01-04 05:08:54.23	19.26	13.99	-51.0	-62.4	3.9	7.43e-01	0	28	104	0	70	13682
2026-01-04 05:08:57.23	18.76	14.23	-50.7	-62.1	3.9	7.45e-01	0	28	104	0	70	13202
2026-01-04 05:09:00.22	18.24	14.46	-54.1	-66.2	3.8	7.50e-01	0	28	104	0	75	15888
2026-01-04 05:09:03.22	17.71	14.70	-57.0	-71.2	3.9	7.47e-01	0	28	104	0	82	18928
2026-01-04 05:09:06.22	17.18	14.94	-50.7	-62.1	3.9	7.45e-01	0	28	104	0	70	13177
2026-01-04 05:09:09.22	16.64	15.17	-58.3	-74.4	3.9	7.42e-01	0	28	104	0	84	24320
2026-01-04 05:09:12.21	16.08	15.41	-51.2	-62.7	3.8	7.46e-01	0	28	104	0	71	13404
2026-01-04 05:09:15.20	15.52	15.65	-57.4	-72.3	3.9	7.48e-01	0	28	104	0	83	20234
2026-01-04 05:09:18.20	14.95	15.88	-58.5	-75.1	3.9	7.45e-01	0	28	104	0	85	24817
2026-01-04 05:09:21.19	14.37	16.12	-51.8	-63.4	3.8	7.46e-01	0	28	104	0	72	13628
2026-01-04 05:09:24.18	13.78	16.35	-53.7	-65.7	3.8	7.46e-01	0	28	104	0	75	14975
2026-01-04 05:09:27.18	13.18	16.59	-57.0	-71.2	3.9	7.44e-01	0	28	104	0	82	18866
2026-01-04 05:09:30.17	12.56	16.82	-50.2	-61.5	3.8	7.45e-01	0	28	104	0	69	13072
2026-01-04 05:09:33.18	11.94	17.06	-58.4	-74.9	3.9	7.47e-01	0	28	104	0	85	24250
2026-01-04 05:09:36.17	11.31	17.29	-50.9	-62.2	3.8	7.46e-01	0	28	104	0	71	12664
2026-01-04 05:09:39.16	10.67	17.52	-57.6	-72.7	3.9	7.42e-01	0	28	104	0	84	19979
2026-01-04 05:09:42.16	10.01	17.75	-50.8	-62.3	3.9	7.47e-01	0	28	104	0	70	13430
2026-01-04 05:09:45.16	9.34	17.98	-50.7	-62.1	3.9	7.46e-01	0	28	104	0	70	13233
2026-01-04 05:09:48.14	8.67	18.21	-53.6	-65.6	3.8	7.48e-01	0	29	104	0	74	15677
2026-01-04 05:09:51.13	7.99	18.43	-57.2	-71.5	3.9	7.46e-01	0	28	104	0	82	19403
2026-01-04 05:09:54.13	7.29	18.66	-50.9	-62.3	3.9	7.46e-01	0	28	104	0	70	13437
2026-01-04 05:09:57.13	6.58	18.88	-58.6	-75.8	3.8	7.48e-01	0	28	104	0	85	26772
2026-01-04 05:10:00.12	5.86	19.10	-51.1	-62.5	3.9	7.48e-01	0	28	104	0	71	13066
2026-01-04 05:10:03.12	5.13	19.31	-55.7	-68.9	3.9	7.39e-01	0	28	104	0	80	16160
2026-01-04 05:10:06.12	4.39	19.53	-51.0	-62.5	3.9	7.43e-01	0	28	104	0	71	13020
2026-01-04 05:10:09.13	3.63	19.74	-50.6	-62.0	3.9	7.45e-01	0	28	104	0	70	13028
2026-01-04 05:10:12.13	2.86	19.95	-53.6	-65.5	3.9	7.44e-01	0	28	104	0	74	15465
2026-01-04 05:10:15.12	2.09	20.15	-57.1	-71.4	3.8	7.47e-01	0	28	104	0	82	19229
2026-01-04 05:10:18.12	1.30	20.36	-51.2	-62.7	3.9	7.44e-01	0	28	104	0	71	13400
2026-01-04 05:10:21.12	0.51	20.55	-58.5	-76.0	3.9	7.45e-01	0	28	104	0	85	27561
2026-01-04 05:10:24.11	359.70	20.75	-51.5	-63.0	3.9	7.45e-01	0	29	104	0	72	13100
2026-01-04 05:10:27.10	358.88	20.93	-56.9	-70.9	3.9	7.44e-01	0	28	104	0	83	17269
2026-01-04 05:10:30.10	358.05	21.12	-51.3	-62.7	3.9	7.49e-01	0	28	104	0	71	13383
2026-01-04 05:10:33.09	357.21	21.30	-51.1	-62.5	3.9	7.44e-01	0	28	104	0	71	13035
2026-01-04 05:10:36.09	356.36	21.47	-53.5	-65.3	3.9	7.47e-01	0	28	104	0	74	15217
2026-01-04 05:10:39.08	355.50	21.64	-57.3	-71.6	3.8	7.44e-01	0	28	104	0	82	19782
2026-01-04 05:10:42.07	354.63	21.81	-51.2	-62.6	3.9	7.45e-01	0	28	104	0	71	13193
2026-01-04 05:10:45.05	353.76	21.97	-59.0	-76.6	3.8	7.43e-01	0	29	104	0	85	29475
2026-01-04 05:10:48.05	352.87	22.12	-51.6	-63.2	3.9	7.46e-01	0	28	104	0	72	13359
2026-01-04 05:10:51.05	351.97	22.26	-54.7	-67.1	3.8	7.42e-01	0	28	104	0	77	15641
2026-01-04 05:10:54.07	351.06	22.41	-51.5	-63.0	3.8	7.46e-01	0	28	104	0	72	13084
2026-01-04 05:10:57.06	350.14	22.54	-51.3	-62.8	3.8	7.44e-01	0	28	104	0	71	13465
2026-01-04 05:11:00.04	349.22	22.66	-53.6	-65.5	3.9	7.48e-01	0	28	104	0	74	15572
2026-01-04 05:11:03.05	348.29	22.78	-57.4	-71.7	3.8	7.48e-01	0	28	104	0	82	19861
2026-01-04 05:11:06.06	347.34	22.90	-51.1	-62.5	3.9	7.46e-01	0	28	104	0	71	13051
2026-01-04 05:11:09.05	346.40	23.00	-59.1	-76.8	3.8	7.43e-01	0	28	104	0	86	28372
2026-01-04 05:11:12.05	345.45	23.10	-51.9	-63.4	3.9	7.45e-01	0	28	104	0	72	13663
2026-01-04 05:11:15.05	344.49	23.18	-58.4	-73.9	3.8	7.45e-01	0	28	104	0	85	21656
2026-01-04 05:11:18.05	343.52	23.27	-51.7	-63.3	3.9	7.45e-01	0	28	104	0	72	13425
2026-01-04 05:11:21.03	342.56	23.34	-52.0	-63.6	3.9	7.44e-01	0	28	104	0	72	14020
2026-01-04 05:11:24.03	341.59	23.40	-53.7	-65.6	3.9	7.44e-01	0	28	104	0	75	14725
2026-01-04 05:11:27.02	340.61	23.46	-57.6	-72.1	3.8	7.46e-01	0	29	104	0	83	19684
2026-01-04 05:11:30.02	339.63	23.50	-51.3	-62.7	3.8	7.46e-01	0	29	104	0	71	13303
2026-01-04 05:11:33.02	338.64	23.54	-59.3	-77.2	3.8	7.46e-01	0	28	104	0	86	29699
2026-01-04 05:11:36.01	337.66	23.57	-51.9	-63.5	3.9	7.48e-01	0	29	104	0	73	13102
2026-01-04 05:11:39.01	336.67	23.59	-57.9	-72.9	3.8	7.47e-01	0	28	104	0	83	21671
2026-01-04 05:11:41.98	335.69	23.60	-52.2	-63.7	3.9	7.48e-01	0	29	104	0	73	13407
2026-01-04 05:11:44.99	334.70	23.61	-51.9	-63.4	3.8	7.46e-01	0	29	104	0	73	12840
2026-01-04 05:11:47.98	333.71	23.60	-58.2	-73.3	3.8	7.44e-01	0	29	104	0	85	20074
2026-01-04 05:11:50.97	332.73	23.59	-52.6	-64.2	3.8	7.45e-01	0	28	104	0	74	13288
2026-01-04 05:11:53.94	331.75	23.56	-51.8	-63.2	3.8	7.49e-01	0	28	104	0	72	13369
2026-01-04 05:11:56.95	330.76	23.53	-59.4	-77.4	3.8	7.50e-01	0	29	104	0	86	30449
2026-01-04 05:11:59.95	329.77	23.49	-52.1	-63.6	3.8	7.47e-01	0	28	104	0	73	13165
2026-01-04 05:12:02.97	328.79	23.44	-55.9	-68.9	3.8	7.45e-01	0	28	104	0	79	17149
2026-01-04 05:12:05.96	327.81	23.38	-52.1	-63.6	3.8	7.45e-01	0	29	104	0	73	13145
2026-01-04 05:12:08.97	326.83	23.31	-51.9	-63.2	3.9	7.47e-01	0	29	104	0	73	12633
2026-01-04 05:12:11.97	325.87	23.24	-54.2	-66.1	3.8	7.43e-01	0	28	104	0	76	14713
2026-01-04 05:12:14.96	324.91	23.16	-57.9	-72.8	3.8	7.48e-01	0	28	104	0	83	21398
2026-01-04 05:12:17.96	323.95	23.06	-51.9	-63.6	3.8	7.43e-01	0	28	104	0	73	13175
2026-01-04 05:12:20.97	322.99	22.96	-59.4	-77.4	3.8	7.47e-01	0	29	104	0	86	30418
2026-01-04 05:12:23.96	322.05	22.86	-51.9	-63.4	3.9	7.45e-01	0	28	104	0	73	12842
2026-01-04 05:12:26.96	321.11	22.74	-59.3	-76.2	3.8	7.48e-01	0	29	104	0	86	26669
2026-01-04 05:12:29.96	320.18	22.62	-51.8	-62.9	3.9	7.48e-01	0	28	104	0	72	12872
2026-01-04 05:12:32.96	319.26	22.49	-52.3	-63.0	3.8	7.45e-01	0	28	104	0	73	12320
2026-01-04 05:12:35.96	318.34	22.36	-54.5	-67.0	3.8	7.42e-01	0	28	104	0	76	16481
2026-01-04 05:12:38.95	317.44	22.22	-57.9	-72.1	3.8	7.45e-01	0	29	104	0	83	19615
2026-01-04 05:12:41.95	316.54	22.07	-51.5	-54.1	5.4	7.06e-01	0	28	104	0	72	4671
2026-01-04 05:12:44.95	315.65	21.91	-59.2	-69.6	7.4	6.46e-01	80	29	0	3670016	86	12388
2026-01-04 05:12:47.93	314.78	21.75	-51.1	-52.8	15.4	6.04e-01	0	29	0	9437184	70	4507
2026-01-04 05:12:50.93	313.91	21.59	-50.6	-52.3	15.5	6.03e-01	0	29	0	14680064	70	4265
2026-01-04 05:12:53.93	313.05	21.41	-50.5	-52.2	15.4	6.05e-01	0	28	0	20447232	69	4453
2026-01-04 05:12:56.92	312.21	21.24	-50.8	-52.5	15.4	6.03e-01	0	28	0	26214400	69	4607
2026-01-04 05:12:59.91	311.37	21.06	-50.6	-52.3	15.4	6.03e-01	0	28	0	31981568	69	4531
2026-01-04 05:13:02.91	310.54	20.87	-50.5	-52.1	15.5	6.02e-01	0	28	0	37224448	69	4416
2026-01-04 05:13:05.91	309.73	20.68	-50.2	-51.7	15.5	6.04e-01	0	28	0	42991616	69	4242
2026-01-04 05:13:08.91	308.92	20.48	-50.2	-51.8	15.5	6.03e-01	0	29	0	48758784	69	4266
2026-01-04 05:13:11.92	308.12	20.28	-51.4	-53.3	15.2	6.01e-01	0	28	0	54525952	70	4799
2026-01-04 05:13:14.91	307.34	20.08	-50.3	-51.9	15.4	6.02e-01	0	29	0	59768832	68	4560
2026-01-04 05:13:17.89	306.57	19.87	-50.0	-51.6	15.6	6.04e-01	0	28	0	65536000	69	4174
2026-01-04 05:13:20.89	305.81	19.66	-51.0	-52.8	15.3	6.05e-01	0	28	0	71303168	69	4766
2026-01-04 05:13:23.89	305.06	19.45	-50.3	-51.9	15.5	6.02e-01	0	29	0	76546048	69	4337
2026-01-04 05:13:26.90	304.31	19.24	-50.4	-52.0	15.4	6.05e-01	0	28	0	82313216	69	4382
2026-01-04 05:13:29.89	303.59	19.02	-50.5	-52.2	15.4	6.02e-01	0	29	0	88080384	69	4448
2026-01-04 05:13:32.89	302.87	18.80	-50.9	-52.6	15.4	6.04e-01	0	28	0	93847552	69	4670
2026-01-04 05:13:35.89	302.16	18.57	-50.3	-52.0	15.5	6.07e-01	0	29	0	99090432	69	4344
2026-01-04 05:13:38.88	301.47	18.35	-50.6	-52.3	15.4	6.05e-01	0	29	0	104857600	69	4503
2026-01-04 05:13:41.87	300.78	18.12	-50.2	-51.8	15.5	6.04e-01	0	29	0	110624768	69	4258
2026-01-04 05:13:44.86	300.11	17.90	-50.2	-51.8	15.5	6.04e-01	0	29	0	115867648	69	4263
2026-01-04 05:13:47.85	299.45	17.67	-50.7	-52.4	15.4	6.03e-01	0	29	0	121634816	69	4557
2026-01-04 05:13:50.84	298.80	17.43	-50.3	-51.9	15.5	6.02e-01	0	29	0	127401984	69	4327
2026-01-04 05:13:53.82	298.16	17.20	-50.7	-52.5	15.4	6.03e-01	0	29	0	132644864	69	4614
2026-01-04 05:13:56.82	297.53	16.97	-50.3	-51.9	15.5	6.01e-01	0	28	0	138412032	69	4301
2026-01-04 05:13:59.81	296.91	16.74	-50.3	-51.9	15.5	6.03e-01	0	28	0	144179200	69	4321
2026-01-04 05:14:02.81	296.30	16.50	-50.5	-52.1	15.5	6.05e-01	0	28	0	149946368	69	4436
2026-01-04 05:14:05.81	295.70	16.26	-50.3	-51.9	15.5	6.02e-01	0	29	0	155189248	69	4329
2026-01-04 05:14:08.81	295.11	16.03	-50.5	-52.1	15.5	6.03e-01	0	29	0	160956416	69	4437
2026-01-04 05:14:11.81	294.53	15.79	-50.7	-52.4	15.4	6.03e-01	0	29	0	166723584	69	4569
2026-01-04 05:14:14.80	293.96	15.56	-50.5	-52.2	15.4	6.02e-01	0	29	0	171966464	69	4481
2026-01-04 05:14:17.81	293.40	15.32	-50.5	-52.1	15.5	6.03e-01	0	28	0	177733632	69	4421
2026-01-04 05:14:20.80	292.85	15.08	-50.4	-52.0	15.5	6.04e-01	0	28	0	183500800	69	4362
2026-01-04 05:14:23.80	292.31	14.84	-51.0	-52.8	15.3	6.02e-01	0	29	0	189267968	69	4791
2026-01-04 05:14:26.79	291.77	14.61	-50.5	-52.1	15.5	6.03e-01	0	28	0	194510848	69	4414
2026-01-04 05:14:29.79	291.25	14.37	-50.7	-52.4	15.3	6.03e-01	0	28	0	200278016	69	4590
2026-01-04 05:14:32.79	290.74	14.13	-51.1	-52.9	15.3	6.04e-01	0	28	0	206045184	69	4833
2026-01-04 05:14:35.79	290.23	13.90	-50.4	-52.1	15.6	6.03e-01	0	28	0	211812352	70	4156
2026-01-04 05:14:38.79	289.73	13.66	-51.0	-52.8	15.3	6.03e-01	0	28	0	217055232	69	4779
2026-01-04 05:14:41.78	289.24	13.43	-50.7	-52.4	15.4	6.02e-01	0	28	0	222822400	69	4574
2026-01-04 05:14:44.77	288.77	13.19	-51.0	-52.8	15.3	6.06e-01	0	28	0	228589568	69	4787
2026-01-04 05:14:47.75	288.30	12.96	-51.1	-52.8	15.3	6.02e-01	0	28	0	233832448	70	4542
2026-01-04 05:14:50.75	287.83	12.73	-50.6	-52.2	15.5	6.02e-01	0	29	0	239599616	70	4237
2026-01-04 05:14:53.74	287.38	12.50	-51.1	-52.9	15.3	6.02e-01	0	28	0	245366784	70	4584
2026-01-04 05:14:56.73	286.93	12.26	-51.0	-52.8	15.4	6.04e-01	0	28	0	250609664	70	4536
2026-01-04 05:14:59.72	286.49	12.03	-50.9	-52.6	15.4	6.02e-01	0	28	0	256376832	70	4417
2026-01-04 05:15:02.70	286.06	11.80	-51.1	-53.0	15.4	6.02e-01	0	28	0	262144000	70	4610
2026-01-04 05:15:05.71	285.63	11.57	-51.1	-53.0	15.3	6.06e-01	0	28	0	267386880	70	4603
2026-01-04 05:15:08.71	285.21	11.35	-51.0	-52.8	15.4	6.04e-01	0	28	0	273154048	70	4509
2026-01-04 05:15:11.72	284.80	11.12	-51.1	-53.0	15.3	6.04e-01	0	28	0	278921216	70	4600
2026-01-04 05:15:14.73	284.40	10.89	-51.4	-53.3	15.3	6.03e-01	0	28	0	284688384	70	4764
2026-01-04 05:15:17.74	284.00	10.66	-51.3	-53.2	15.3	6.04e-01	0	29	0	290455552	70	4706
2026-01-04 05:15:20.74	283.60	10.44	-51.1	-52.9	15.3	6.02e-01	0	28	0	295698432	70	4588
2026-01-04 05:15:23.75	283.22	10.22	-51.3	-53.2	15.3	6.02e-01	0	28	0	301465600	70	4740
2026-01-04 05:15:26.74	282.84	9.99	-51.5	-53.5	15.2	6.04e-01	0	28	0	307232768	70	4876
2026-01-04 05:15:29.73	282.47	9.77	-51.3	-53.2	15.3	6.03e-01	0	28	0	312475648	70	4714
2026-01-04 05:15:32.73	282.10	9.55	-51.3	-53.2	15.3	6.04e-01	0	29	0	318242816	70	4744
2026-01-04 05:15:35.73	281.75	9.33	-51.4	-53.3	15.2	6.05e-01	0	28	0	324009984	70	4813
2026-01-04 05:15:38.72	281.39	9.12	-51.5	-53.4	15.2	6.04e-01	0	29	0	329777152	70	4847
2026-01-04 05:15:41.71	281.05	8.90	-51.5	-53.4	15.3	6.04e-01	0	29	0	335020032	71	4569
2026-01-04 05:15:44.70	280.70	8.69	-51.6	-53.5	15.3	6.05e-01	0	28	0	340787200	71	4634
2026-01-04 05:15:47.69	280.37	8.47	-51.6	-53.6	15.3	6.03e-01	0	28	0	346554368	71	4663
2026-01-04 05:15:50.67	280.04	8.26	-51.8	-53.8	15.2	6.04e-01	0	28	0	351797248	71	4770
2026-01-04 05:15:53.66	279.71	8.05	-51.8	-53.8	15.2	6.05e-01	0	29	0	357564416	71	4806
2026-01-04 05:15:56.64	279.40	7.84	-51.8	-53.8	15.2	6.06e-01	0	28	0	363331584	71	4783
2026-01-04 05:15:59.64	279.08	7.63	-51.7	-53.7	15.2	6.05e-01	0	28	0	368574464	71	4738
2026-01-04 05:16:02.63	278.77	7.42	-51.9	-54.0	15.1	6.03e-01	0	28	0	374341632	71	4899
2026-01-04 05:16:05.62	278.46	7.21	-51.9	-54.0	15.1	6.02e-01	0	28	0	380108800	71	4871
2026-01-04 05:16:08.61	278.16	7.01	-52.1	-54.2	15.2	6.04e-01	0	28	0	385351680	72	4725
2026-01-04 05:16:11.61	277.87	6.80	-51.8	-53.8	15.3	6.05e-01	0	28	0	391118848	72	4540
2026-01-04 05:16:14.59	277.58	6.60	-51.9	-54.0	15.2	6.02e-01	0	28	0	396886016	72	4612
2026-01-04 05:16:17.58	277.29	6.40	-52.2	-54.4	15.1	6.05e-01	0	28	0	402653184	72	4828
2026-01-04 05:16:20.58	277.01	6.19	-52.1	-54.3	15.1	6.02e-01	0	28	0	407896064	72	4784
2026-01-04 05:16:23.58	276.73	5.99	-52.0	-54.1	15.2	6.02e-01	0	29	0	413663232	72	4683
2026-01-04 05:16:26.58	276.46	5.79	-52.2	-54.3	15.1	6.04e-01	0	29	0	419430400	72	4811
2026-01-04 05:16:29.57	276.19	5.60	-52.2	-54.5	15.0	6.03e-01	0	29	0	424673280	72	4902
2026-01-04 05:16:32.57	275.92	5.40	-52.5	-54.9	14.9	6.02e-01	0	28	0	430440448	72	5141
2026-01-04 05:16:35.56	275.66	5.20	-52.3	-54.7	15.1	6.02e-01	0	28	0	436207616	73	4706
2026-01-04 05:16:38.56	275.40	5.01	-53.7	-56.5	14.7	6.04e-01	0	29	0	441974784	74	5496
2026-01-04 05:16:41.55	275.15	4.81	-59.5	-78.9	3.8	7.49e-01	0	29	104	442499072	86	36192
2026-01-04 05:16:44.53	274.90	4.62	-59.9	-79.3	3.8	7.47e-01	0	28	104	442499072	87	35913
2026-01-04 05:16:47.53	274.66	4.43	-60.3	-79.7	3.8	7.45e-01	0	29	104	442499072	88	35430
2026-01-04 05:16:50.51	274.41	4.24	-60.6	-80.0	3.8	7.45e-01	0	29	104	442499072	88	36597
2026-01-04 05:16:53.49	274.18	4.05	-60.8	-80.2	3.8	7.48e-01	0	28	104	442499072	89	35383
2026-01-04 05:16:56.47	273.94	3.86	-60.9	-80.3	3.8	7.47e-01	0	29	104	442499072	89	35869
2026-01-04 05:16:59.47	273.71	3.67	-60.9	-80.3	3.8	7.47e-01	0	29	104	442499072	89	35865
2026-01-04 05:17:02.43	273.48	3.49	-60.8	-80.2	3.8	7.45e-01	0	29	104	442499072	89	35504
2026-01-04 05:17:05.43	273.26	3.30	-60.8	-80.1	3.8	7.45e-01	0	29	104	442499072	89	35260
2026-01-04 05:17:08.43	273.04	3.12	-60.7	-80.1	3.8	7.50e-01	0	29	104	442499072	89	34975
2026-01-04 05:17:11.42	272.82	2.94	-60.6	-80.0	3.8	7.49e-01	0	29	104	442499072	89	34796
2026-01-04 05:17:14.41	272.60	2.75	-60.6	-80.0	3.8	7.48e-01	0	29	104	442499072	89	34688
2026-01-04 05:17:17.39	272.39	2.57	-60.6	-80.0	3.8	7.47e-01	0	29	104	442499072	89	34611
2026-01-04 05:17:20.39	272.18	2.39	-60.6	-79.9	3.8	7.47e-01	0	29	104	442499072	89	34413
2026-01-04 05:17:23.38	271.97	2.21	-60.5	-79.9	3.8	7.46e-01	0	29	104	442499072	89	34415
2026-01-04 05:17:26.38	271.77	2.03	-60.5	-79.9	3.8	7.44e-01	0	29	104	442499072	89	34281
2026-01-04 05:17:29.37	271.57	1.85	-60.5	-79.9	3.8	7.45e-01	0	29	104	442499072	89	34161

#Closed at: 2026-01-04 05:17:29
#Recorded file [442 MB]: D:/lorett/data/31004_260104_080603.dat