passes_logs/2026/01/04/R3.2S_Murmansk/R3.2S_Murmansk__20260104_043711_SUOMI_NPP_rec.log

#Pass ID: 20260104_043711_SUOMI NPP
#Satellite: SUOMI NPP
#Configuration: NPP
#almurnet v.1.7.20251203
#Start time: 2026-01-04 04:37:11

#Version: 2.2.20231116
#Station: R3.2S_Murmansk
#Location: 33.079688 lon 68.888172 lat
#TLE: 1 37849U 11061A   26001.07732418  .00000182  00000+0  10735-3 0  9990
#TLE: 2 37849  98.7795 303.2470 0002580  87.2016 272.9455 14.19520779734739

#Time	Az	El	Level	Level2	SNR	BER	BlckErr	Temp	State	Recorded	gain1	gain2
2026-01-04 04:37:11.24	53.65	2.01	-58.4	-74.5	3.8	1.49e+00	0	26	0	0	83	22275
2026-01-04 04:37:15.24	53.40	2.24	-58.4	-74.5	3.8	1.49e+00	0	27	104	0	81	24979
2026-01-04 04:37:19.24	53.14	2.47	-58.4	-74.4	3.8	1.49e+00	0	27	104	0	81	24857
2026-01-04 04:37:23.24	52.88	2.70	-58.4	-74.5	3.8	1.49e+00	0	27	104	0	81	25031
2026-01-04 04:37:27.24	52.61	2.93	-58.4	-74.5	3.8	1.49e+00	0	27	104	0	81	25023
2026-01-04 04:37:31.24	52.35	3.16	-58.4	-74.5	3.8	1.49e+00	0	27	104	0	82	23587
2026-01-04 04:37:35.23	52.07	3.40	-58.4	-74.5	3.8	1.49e+00	0	27	104	0	82	23665
2026-01-04 04:37:39.22	51.79	3.63	-58.4	-74.5	3.8	1.49e+00	0	27	104	0	82	23604
2026-01-04 04:37:43.24	51.51	3.87	-58.4	-74.5	3.8	1.49e+00	0	27	104	0	82	23611
2026-01-04 04:37:47.24	51.22	4.11	-58.4	-74.4	3.8	1.49e+00	0	27	104	0	82	23487
2026-01-04 04:37:51.22	50.93	4.35	-58.4	-74.2	3.8	1.49e+00	0	27	104	0	82	22946
2026-01-04 04:37:55.21	50.63	4.59	-58.3	-72.2	3.8	1.49e+00	0	28	104	0	82	18102
2026-01-04 04:37:59.19	50.33	4.83	-58.1	-68.7	5.1	7.12e-01	0	28	0	3145728	82	12115
2026-01-04 04:38:03.19	50.02	5.08	-58.4	-70.8	4.2	1.06e+00	0	28	0	9437184	82	15565
2026-01-04 04:38:07.19	49.71	5.33	-58.1	-70.5	4.2	5.10e-01	0	28	0	15728640	81	15876
2026-01-04 04:38:11.18	49.39	5.57	-54.7	-58.1	12.6	0.00e+00	0	28	0	23068672	75	5393
2026-01-04 04:38:15.17	49.07	5.82	-54.7	-58.1	12.7	0.00e+00	0	28	0	31457280	75	5348
2026-01-04 04:38:19.18	48.73	6.07	-54.5	-57.7	13.0	0.00e+00	0	28	0	38797312	75	5104
2026-01-04 04:38:23.17	48.40	6.32	-54.3	-57.4	13.2	0.00e+00	0	28	0	46137344	75	4954
2026-01-04 04:38:27.16	48.06	6.58	-54.3	-57.4	13.2	0.00e+00	0	28	0	53477376	75	4978
2026-01-04 04:38:31.14	47.71	6.83	-54.2	-57.2	13.3	0.00e+00	0	28	0	60817408	75	4846
2026-01-04 04:38:35.15	47.35	7.09	-54.5	-57.6	13.0	0.00e+00	0	28	0	68157440	74	5388
2026-01-04 04:38:39.14	46.99	7.34	-54.7	-58.1	12.7	0.00e+00	0	28	0	75497472	74	5709
2026-01-04 04:38:43.13	46.62	7.60	-54.6	-58.0	12.8	0.00e+00	0	28	0	83886080	74	5614
2026-01-04 04:38:47.10	46.25	7.86	-54.5	-57.8	12.9	0.00e+00	0	28	0	91226112	74	5493
2026-01-04 04:38:51.10	45.86	8.12	-54.4	-57.6	13.0	0.00e+00	0	28	0	98566144	74	5389
2026-01-04 04:38:55.09	45.48	8.39	-54.0	-56.9	13.4	0.00e+00	0	28	0	105906176	74	4979
2026-01-04 04:38:59.07	45.08	8.65	-53.9	-56.8	13.5	0.00e+00	0	28	0	113246208	74	4911
2026-01-04 04:39:03.05	44.68	8.92	-53.9	-56.6	13.6	0.00e+00	0	28	0	120586240	74	4812
2026-01-04 04:39:07.04	44.26	9.18	-53.7	-56.4	13.6	0.00e+00	0	28	0	127926272	73	4973
2026-01-04 04:39:11.03	43.84	9.45	-53.7	-56.5	13.6	0.00e+00	0	28	0	135266304	73	4990
2026-01-04 04:39:15.03	43.41	9.72	-53.8	-56.6	13.6	0.00e+00	0	28	0	143654912	73	5082
2026-01-04 04:39:19.03	42.98	10.00	-53.7	-56.4	13.7	0.00e+00	0	28	0	150994944	73	4944
2026-01-04 04:39:23.02	42.53	10.27	-54.1	-56.9	13.5	0.00e+00	0	28	0	158334976	73	5231
2026-01-04 04:39:27.02	42.08	10.55	-53.8	-56.5	13.7	0.00e+00	0	28	0	165675008	73	4994
2026-01-04 04:39:30.99	41.62	10.82	-54.0	-56.7	13.6	0.00e+00	0	28	0	173015040	73	5133
2026-01-04 04:39:34.98	41.15	11.10	-54.1	-56.8	13.5	0.00e+00	0	28	0	180355072	73	5218
2026-01-04 04:39:38.97	40.67	11.37	-53.8	-56.5	13.7	0.00e+00	0	28	0	187695104	73	4993
2026-01-04 04:39:42.98	40.17	11.65	-53.7	-56.3	13.8	0.00e+00	0	28	0	196083712	73	4880
2026-01-04 04:39:46.97	39.67	11.93	-53.3	-55.8	14.0	0.00e+00	0	28	0	203423744	73	4625
2026-01-04 04:39:50.95	39.17	12.22	-53.2	-55.6	14.0	0.00e+00	0	28	0	210763776	72	4814
2026-01-04 04:39:54.93	38.65	12.50	-53.3	-55.8	14.0	0.00e+00	0	28	0	218103808	72	4899
2026-01-04 04:39:58.92	38.12	12.78	-53.1	-55.4	14.1	0.00e+00	0	28	0	225443840	72	4693
2026-01-04 04:40:02.91	37.58	13.06	-53.2	-55.5	14.1	0.00e+00	0	28	0	232783872	72	4737
2026-01-04 04:40:06.90	37.03	13.35	-52.9	-55.2	14.2	0.00e+00	0	28	0	240123904	72	4547
2026-01-04 04:40:10.91	36.46	13.63	-53.0	-55.4	14.1	0.00e+00	0	28	0	248512512	72	4655
2026-01-04 04:40:14.90	35.89	13.92	-52.7	-55.0	14.2	0.00e+00	0	28	0	255852544	71	4722
2026-01-04 04:40:18.90	35.30	14.21	-53.2	-55.7	13.9	0.00e+00	0	28	0	263192576	71	5126
2026-01-04 04:40:22.88	34.71	14.49	-53.4	-56.0	13.7	0.00e+00	0	28	0	270532608	71	5293
2026-01-04 04:40:26.87	34.10	14.78	-53.5	-56.1	13.8	0.00e+00	0	28	0	277872640	72	5044
2026-01-04 04:40:30.88	33.48	15.07	-53.3	-55.8	13.9	0.00e+00	0	28	0	285212672	72	4909
2026-01-04 04:40:34.86	32.85	15.35	-53.3	-55.8	13.9	0.00e+00	0	28	0	292552704	72	4894
2026-01-04 04:40:38.86	32.20	15.64	-53.4	-55.9	13.8	0.00e+00	0	28	0	300941312	72	4980
2026-01-04 04:40:42.84	31.54	15.92	-53.6	-56.3	13.7	0.00e+00	0	28	0	308281344	72	5166
2026-01-04 04:40:46.84	30.87	16.21	-53.2	-55.6	14.0	0.00e+00	0	28	0	315621376	72	4812
2026-01-04 04:40:50.83	30.19	16.49	-53.5	-56.0	13.8	0.00e+00	0	28	0	322961408	72	5037
2026-01-04 04:40:54.83	29.49	16.78	-53.3	-55.8	13.9	0.00e+00	0	28	0	330301440	72	4896
2026-01-04 04:40:58.81	28.78	17.06	-53.6	-56.2	13.7	0.00e+00	0	28	0	337641472	72	5141
2026-01-04 04:41:02.80	28.06	17.34	-53.3	-55.8	14.0	0.00e+00	0	28	0	344981504	72	4904
2026-01-04 04:41:06.78	27.32	17.62	-54.0	-56.9	13.5	0.00e+00	0	28	0	352321536	73	5243
2026-01-04 04:41:10.78	26.57	17.90	-53.1	-55.5	14.2	0.00e+00	0	28	0	360710144	72	4746
2026-01-04 04:41:14.78	25.80	18.17	-53.0	-55.2	14.2	0.00e+00	0	28	0	368050176	72	4593
2026-01-04 04:41:18.78	25.02	18.45	-53.1	-55.5	14.1	0.00e+00	0	28	0	375390208	72	4750
2026-01-04 04:41:22.77	24.22	18.72	-52.4	-54.7	14.4	0.00e+00	0	28	0	382730240	71	4571
2026-01-04 04:41:26.76	23.42	18.98	-52.0	-54.1	14.5	0.00e+00	0	28	0	390070272	70	4535
2026-01-04 04:41:30.76	22.59	19.25	-51.8	-53.8	14.5	0.00e+00	0	28	0	397410304	70	4355
2026-01-04 04:41:34.75	21.75	19.51	-51.9	-53.9	14.6	0.00e+00	0	28	0	404750336	70	4429
2026-01-04 04:41:38.75	20.90	19.77	-51.8	-53.8	14.6	0.00e+00	0	28	0	413138944	70	4355
2026-01-04 04:41:42.74	20.03	20.02	-51.9	-54.0	14.5	0.00e+00	0	28	0	420478976	69	4715
2026-01-04 04:41:46.74	19.15	20.27	-51.9	-54.0	14.5	0.00e+00	0	28	0	427819008	69	4726
2026-01-04 04:41:50.74	18.25	20.51	-51.7	-53.7	14.6	0.00e+00	0	29	0	435159040	69	4591
2026-01-04 04:41:54.74	17.34	20.75	-51.3	-53.2	14.7	0.00e+00	0	29	0	442499072	68	4570
2026-01-04 04:41:58.73	16.42	20.98	-51.3	-53.1	14.7	0.00e+00	0	28	0	449839104	68	4510
2026-01-04 04:42:02.70	15.49	21.20	-51.4	-53.2	14.7	0.00e+00	0	28	0	457179136	68	4589
2026-01-04 04:42:06.70	14.53	21.42	-51.3	-53.1	14.8	0.00e+00	0	29	0	465567744	68	4502
2026-01-04 04:42:10.69	13.57	21.64	-51.4	-53.2	14.7	0.00e+00	0	28	0	472907776	68	4597
2026-01-04 04:42:14.70	12.58	21.84	-51.3	-53.0	14.8	0.00e+00	0	28	0	480247808	68	4492
2026-01-04 04:42:18.69	11.59	22.04	-51.1	-52.8	14.9	0.00e+00	0	28	0	487587840	68	4345
2026-01-04 04:42:22.69	10.59	22.23	-51.3	-53.0	14.8	0.00e+00	0	29	0	494927872	68	4470
2026-01-04 04:42:26.70	9.57	22.42	-51.5	-53.2	14.7	0.00e+00	0	29	0	502267904	68	4589
2026-01-04 04:42:30.71	8.53	22.59	-51.3	-53.1	14.7	0.00e+00	0	28	0	510656512	68	4517
2026-01-04 04:42:34.69	7.50	22.76	-51.4	-53.0	14.8	0.00e+00	0	28	0	517996544	68	4489
2026-01-04 04:42:38.70	6.44	22.91	-50.9	-52.5	15.0	0.00e+00	0	29	0	525336576	68	4220
2026-01-04 04:42:42.71	5.37	23.06	-51.9	-53.7	14.6	0.00e+00	0	29	0	532676608	69	4572
2026-01-04 04:42:46.71	4.30	23.20	-52.9	-55.1	14.3	0.00e+00	0	29	0	540016640	71	4782
2026-01-04 04:42:50.72	3.22	23.32	-53.2	-55.5	14.1	0.00e+00	0	29	0	547356672	72	4743
2026-01-04 04:42:54.71	2.13	23.44	-52.6	-54.7	14.5	0.00e+00	0	29	0	554696704	71	4571
2026-01-04 04:42:58.68	1.04	23.54	-52.2	-54.2	14.7	0.00e+00	0	29	0	563085312	71	4301
2026-01-04 04:43:02.67	359.94	23.64	-52.6	-54.7	14.3	0.00e+00	0	29	0	570425344	70	4863
2026-01-04 04:43:06.67	358.82	23.72	-52.3	-54.2	14.5	0.00e+00	0	29	0	577765376	70	4597
2026-01-04 04:43:10.67	357.71	23.79	-53.2	-55.6	14.0	0.00e+00	0	29	0	585105408	71	5095
2026-01-04 04:43:14.67	356.59	23.85	-53.0	-55.3	14.2	0.00e+00	0	29	0	592445440	71	4917
2026-01-04 04:43:18.67	355.46	23.90	-53.7	-56.2	13.8	0.00e+00	0	29	0	599785472	72	5159
2026-01-04 04:43:22.67	354.33	23.93	-53.5	-56.1	13.9	0.00e+00	0	29	0	607125504	72	5055
2026-01-04 04:43:26.67	353.20	23.96	-53.2	-55.6	14.1	0.00e+00	0	29	0	615514112	72	4800
2026-01-04 04:43:30.64	352.08	23.97	-52.1	-54.1	14.5	0.00e+00	0	28	0	622854144	70	4516
2026-01-04 04:43:34.64	350.94	23.97	-53.1	-55.6	14.0	0.00e+00	0	29	0	630194176	71	5082
2026-01-04 04:43:38.62	349.82	23.95	-52.3	-54.4	14.5	0.00e+00	0	29	0	637534208	71	4433
2026-01-04 04:43:42.60	348.69	23.93	-52.3	-54.4	14.4	0.00e+00	0	29	0	644874240	70	4697
2026-01-04 04:43:46.60	347.56	23.89	-52.1	-54.1	14.5	0.00e+00	0	29	0	652214272	70	4545
2026-01-04 04:43:50.60	346.44	23.84	-52.0	-53.9	14.6	0.00e+00	0	29	0	659554304	69	4667
2026-01-04 04:43:54.59	345.32	23.78	-52.1	-54.0	14.7	0.00e+00	0	29	0	666894336	70	4469
2026-01-04 04:43:58.58	344.20	23.71	-51.4	-53.1	14.9	0.00e+00	0	29	0	675282944	69	4284
2026-01-04 04:44:02.56	343.10	23.63	-51.0	-52.6	15.0	0.00e+00	0	29	0	682622976	68	4246
2026-01-04 04:44:06.55	342.00	23.53	-51.2	-52.8	14.9	0.00e+00	0	29	0	689963008	68	4350
2026-01-04 04:44:10.55	340.90	23.43	-51.3	-52.9	14.9	0.00e+00	0	28	0	697303040	68	4441
2026-01-04 04:44:14.53	339.81	23.31	-51.8	-53.6	14.6	0.00e+00	0	28	0	704643072	68	4791
2026-01-04 04:44:18.54	338.73	23.18	-51.6	-53.3	14.8	0.00e+00	0	29	0	711983104	69	4350
2026-01-04 04:44:22.55	337.66	23.05	-52.0	-53.8	14.6	0.00e+00	0	28	0	720371712	69	4648
2026-01-04 04:44:26.54	336.60	22.90	-51.5	-53.2	14.9	0.00e+00	0	29	0	727711744	69	4297
2026-01-04 04:44:30.53	335.55	22.74	-52.0	-53.9	14.6	0.00e+00	0	29	0	735051776	69	4673
2026-01-04 04:44:34.54	334.50	22.57	-52.2	-54.1	14.6	0.00e+00	0	29	0	742391808	70	4538
2026-01-04 04:44:38.53	333.48	22.40	-52.8	-55.0	14.3	0.00e+00	0	29	0	749731840	70	5017
2026-01-04 04:44:42.53	332.46	22.22	-52.8	-55.0	14.3	0.00e+00	0	29	0	757071872	71	4711
2026-01-04 04:44:46.52	331.46	22.02	-53.0	-55.3	14.2	0.00e+00	0	29	0	764411904	71	4873
2026-01-04 04:44:50.52	330.46	21.82	-52.8	-55.0	14.3	0.00e+00	0	29	0	772800512	71	4715
2026-01-04 04:44:54.52	329.48	21.62	-52.4	-54.4	14.6	0.00e+00	0	29	0	780140544	71	4392
2026-01-04 04:44:58.50	328.52	21.40	-52.2	-54.2	14.5	0.00e+00	0	29	0	787480576	70	4593
2026-01-04 04:45:02.49	327.57	21.18	-53.1	-55.5	14.1	0.00e+00	0	29	0	794820608	71	5006
2026-01-04 04:45:06.48	326.64	20.96	-53.4	-55.9	13.9	0.00e+00	0	29	0	802160640	71	5238
2026-01-04 04:45:10.47	325.71	20.72	-53.8	-56.6	13.7	0.00e+00	0	28	0	809500672	72	5367
2026-01-04 04:45:14.47	324.80	20.48	-54.1	-57.0	13.6	0.00e+00	0	29	0	816840704	74	5015
2026-01-04 04:45:18.48	323.90	20.24	-52.8	-55.0	14.4	0.00e+00	0	29	0	824180736	72	4490
2026-01-04 04:45:22.46	323.03	19.99	-52.0	-54.0	14.6	0.00e+00	0	29	0	832569344	70	4445
2026-01-04 04:45:26.46	322.16	19.74	-52.0	-53.9	14.6	0.00e+00	0	29	0	839909376	70	4436
2026-01-04 04:45:30.46	321.31	19.48	-51.4	-53.3	14.8	0.00e+00	0	29	0	847249408	69	4343
2026-01-04 04:45:34.47	320.47	19.22	-51.4	-53.2	14.6	0.00e+00	0	29	0	854589440	68	4578
2026-01-04 04:45:38.47	319.64	18.95	-52.7	-54.9	14.2	0.00e+00	0	28	0	861929472	70	4972
2026-01-04 04:45:42.48	318.83	18.69	-53.2	-55.7	14.0	0.00e+00	0	29	0	869269504	71	5142
2026-01-04 04:45:46.49	318.03	18.41	-52.7	-55.0	14.3	0.00e+00	0	29	0	877658112	71	4745
2026-01-04 04:45:50.48	317.26	18.14	-51.9	-53.9	14.6	0.00e+00	0	29	0	884998144	70	4429
2026-01-04 04:45:54.49	316.49	17.86	-51.6	-53.5	14.7	0.00e+00	0	29	0	892338176	69	4443
2026-01-04 04:45:58.47	315.74	17.59	-52.6	-54.8	14.3	0.00e+00	0	29	0	899678208	70	4889
2026-01-04 04:46:02.45	315.00	17.31	-52.2	-54.2	14.5	0.00e+00	0	29	0	907018240	70	4588
2026-01-04 04:46:06.44	314.28	17.03	-52.7	-55.0	14.2	0.00e+00	0	29	0	914358272	70	5010
2026-01-04 04:46:10.44	313.57	16.74	-52.6	-54.7	14.3	0.00e+00	0	29	0	921698304	70	4863
2026-01-04 04:46:14.43	312.88	16.46	-52.1	-54.1	14.6	0.00e+00	0	29	0	930086912	70	4524
2026-01-04 04:46:18.43	312.19	16.18	-51.9	-53.7	14.7	0.00e+00	0	28	0	937426944	70	4328
2026-01-04 04:46:22.43	311.52	15.89	-52.1	-54.0	14.6	0.00e+00	0	29	0	944766976	70	4470
2026-01-04 04:46:26.44	310.86	15.60	-51.3	-53.0	14.9	0.00e+00	0	29	0	952107008	69	4229
2026-01-04 04:46:30.42	310.22	15.32	-51.5	-53.2	14.8	0.00e+00	0	29	0	959447040	69	4309
2026-01-04 04:46:34.40	309.59	15.03	-51.7	-53.5	14.7	0.00e+00	0	29	0	966787072	69	4468
2026-01-04 04:46:38.40	308.97	14.74	-52.0	-53.8	14.6	0.00e+00	0	28	0	974127104	69	4634
2026-01-04 04:46:42.39	308.36	14.46	-51.7	-53.4	14.7	0.00e+00	0	29	0	982515712	69	4431
2026-01-04 04:46:46.40	307.76	14.17	-51.8	-53.6	14.7	0.00e+00	0	29	0	989855744	69	4494
2026-01-04 04:46:50.40	307.18	13.88	-52.5	-54.5	14.4	0.00e+00	0	29	0	997195776	70	4740
2026-01-04 04:46:54.39	306.60	13.60	-52.4	-54.4	14.4	0.00e+00	0	29	0	1004535808	70	4673
2026-01-04 04:46:58.39	306.04	13.31	-52.2	-54.1	14.6	0.00e+00	0	29	0	1011875840	70	4502
2026-01-04 04:47:02.38	305.49	13.03	-51.5	-53.2	14.8	0.00e+00	0	29	0	1019215872	69	4338
2026-01-04 04:47:06.38	304.95	12.74	-52.1	-54.0	14.5	0.00e+00	0	29	0	1026555904	69	4718
2026-01-04 04:47:10.36	304.42	12.46	-53.0	-55.2	14.2	0.00e+00	0	29	0	1034944512	71	4836
2026-01-04 04:47:14.36	303.90	12.18	-52.8	-54.8	14.3	0.00e+00	0	29	0	1042284544	71	4627
2026-01-04 04:47:18.36	303.39	11.90	-52.1	-54.0	14.6	0.00e+00	0	29	0	1049624576	70	4454
2026-01-04 04:47:22.36	302.89	11.61	-52.1	-54.1	14.5	0.00e+00	0	29	0	1056964608	70	4524
2026-01-04 04:47:26.36	302.40	11.33	-52.3	-54.3	14.5	0.00e+00	0	29	0	1064304640	70	4605
2026-01-04 04:47:30.35	301.92	11.06	-52.6	-54.7	14.3	0.00e+00	0	29	0	1071644672	70	4826
2026-01-04 04:47:34.35	301.45	10.78	-53.0	-55.3	14.1	0.00e+00	0	29	0	1080033280	71	4875
2026-01-04 04:47:38.35	300.99	10.50	-53.1	-55.3	14.1	0.00e+00	0	29	0	1087373312	71	4898
2026-01-04 04:47:42.36	300.53	10.23	-53.2	-55.5	14.0	0.00e+00	0	29	0	1094713344	71	5032
2026-01-04 04:47:46.36	300.09	9.95	-53.8	-56.4	13.7	0.00e+00	0	29	0	1102053376	72	5243
2026-01-04 04:47:50.37	299.65	9.68	-53.9	-56.5	13.7	0.00e+00	0	29	0	1109393408	73	4994
2026-01-04 04:47:54.38	299.22	9.41	-53.4	-55.8	14.0	0.00e+00	0	29	0	1116733440	73	4606
2026-01-04 04:47:58.37	298.80	9.14	-53.2	-55.4	14.1	0.00e+00	0	29	0	1124073472	72	4697
2026-01-04 04:48:02.38	298.39	8.87	-53.1	-55.3	14.1	0.00e+00	0	28	0	1132462080	72	4630
2026-01-04 04:48:06.37	297.98	8.61	-53.5	-55.9	13.9	0.00e+00	0	29	0	1139802112	72	4935
2026-01-04 04:48:10.35	297.59	8.34	-53.5	-55.9	13.9	0.00e+00	0	29	0	1147142144	72	4934
2026-01-04 04:48:14.35	297.20	8.08	-53.3	-55.5	14.1	0.00e+00	0	29	0	1154482176	72	4733
2026-01-04 04:48:18.35	296.82	7.82	-53.3	-55.5	14.0	0.00e+00	0	29	0	1161822208	72	4750
2026-01-04 04:48:22.35	296.44	7.56	-53.4	-55.7	13.9	0.00e+00	0	29	0	1169162240	72	4859
2026-01-04 04:48:26.35	296.07	7.30	-53.8	-56.4	13.5	0.00e+00	0	29	0	1176502272	72	5270
2026-01-04 04:48:30.36	295.71	7.04	-54.3	-57.1	13.2	0.00e+00	0	29	0	1184890880	73	5389
2026-01-04 04:48:34.35	295.36	6.78	-54.8	-58.0	12.9	0.00e+00	0	29	0	1192230912	74	5600
2026-01-04 04:48:38.36	295.01	6.53	-55.0	-58.3	12.7	0.00e+00	0	29	0	1199570944	75	5480
2026-01-04 04:48:42.36	294.66	6.27	-55.0	-58.4	12.5	0.00e+00	0	29	0	1206910976	75	5579
2026-01-04 04:48:46.35	294.33	6.02	-54.8	-58.0	12.8	0.00e+00	0	29	0	1214251008	75	5312
2026-01-04 04:48:50.37	294.00	5.77	-54.9	-58.1	12.7	0.00e+00	0	29	0	1221591040	75	5372
2026-01-04 04:48:54.39	293.67	5.52	-55.2	-58.7	12.4	0.00e+00	0	29	0	1229979648	75	5770
2026-01-04 04:48:58.40	293.35	5.27	-56.3	-60.8	11.1	3.58e-05	0	29	0	1237319680	77	6513
2026-01-04 04:49:02.40	293.04	5.03	-58.2	-68.0	5.6	2.44e-01	0	29	0	1244659712	81	11928
2026-01-04 04:49:06.41	292.73	4.78	-58.7	-74.4	3.8	1.49e+00	0	29	104	1246756864	82	23395
2026-01-04 04:49:10.42	292.42	4.54	-58.7	-74.5	3.8	1.49e+00	0	29	104	1246756864	82	23771
2026-01-04 04:49:14.43	292.13	4.30	-58.7	-74.7	3.8	1.49e+00	0	29	104	1246756864	82	24338
2026-01-04 04:49:18.43	291.83	4.05	-58.7	-74.8	3.8	1.49e+00	0	29	104	1246756864	82	24497
2026-01-04 04:49:22.43	291.55	3.82	-58.7	-74.5	3.8	1.49e+00	0	29	104	1246756864	82	23753
2026-01-04 04:49:26.44	291.26	3.58	-58.7	-74.7	3.8	1.49e+00	0	29	104	1246756864	82	24291
2026-01-04 04:49:30.43	290.99	3.34	-58.7	-74.7	3.8	1.49e+00	0	29	104	1246756864	82	24373
2026-01-04 04:49:34.45	290.71	3.11	-58.7	-74.7	3.8	1.49e+00	0	29	104	1246756864	82	24332
2026-01-04 04:49:38.45	290.44	2.87	-58.7	-74.7	3.8	1.49e+00	0	29	104	1246756864	82	24405
2026-01-04 04:49:42.45	290.18	2.64	-58.7	-74.7	3.8	1.49e+00	0	29	104	1246756864	82	24406
2026-01-04 04:49:46.46	289.92	2.41	-58.7	-74.8	3.8	1.49e+00	0	29	104	1246756864	82	24442
2026-01-04 04:49:50.46	289.66	2.18	-58.7	-74.7	3.8	1.49e+00	0	29	104	1246756864	82	24375
2026-01-04 04:49:54.48	289.41	1.95	-58.7	-74.7	3.8	1.49e+00	0	29	104	1246756864	82	24396

#Closed at: 2026-01-04 04:49:55
#Recorded file [1246 MB]: D:/lorett/data/31004_260104_073711.dat