passes_logs/2026/01/04/R3.2S_Murmansk/R3.2S_Murmansk__20260104_093431_SUOMI_NPP_rec.log

#Pass ID: 20260104_093431_SUOMI NPP
#Satellite: SUOMI NPP
#Configuration: NPP
#almurnet v.1.7.20251203
#Start time: 2026-01-04 09:34:32

#Version: 2.2.20231116
#Station: R3.2S_Murmansk
#Location: 33.079688 lon 68.888172 lat
#TLE: 1 37849U 11061A   26001.07732418  .00000182  00000+0  10735-3 0  9990
#TLE: 2 37849  98.7795 303.2470 0002580  87.2016 272.9455 14.19520779734739

#Time	Az	El	Level	Level2	SNR	BER	BlckErr	Temp	State	Recorded	gain1	gain2
2026-01-04 09:34:32.37	151.24	2.07	-58.5	-74.5	3.8	1.49e+00	0	26	0	0	83	22396
2026-01-04 09:34:36.40	151.25	2.33	-58.5	-74.5	3.8	1.49e+00	0	26	104	0	82	23682
2026-01-04 09:34:40.44	151.26	2.60	-58.5	-74.5	3.9	1.49e+00	0	27	104	0	82	23583
2026-01-04 09:34:44.47	151.27	2.86	-58.5	-74.4	3.8	1.49e+00	0	27	104	0	82	23513
2026-01-04 09:34:48.51	151.28	3.13	-58.5	-74.4	3.9	1.49e+00	0	27	104	0	82	23447
2026-01-04 09:34:52.54	151.29	3.40	-58.4	-73.9	3.8	1.49e+00	0	27	104	0	82	22092
2026-01-04 09:34:56.57	151.30	3.68	-58.3	-70.9	4.2	1.45e+00	0	27	0	0	82	15618
2026-01-04 09:35:00.61	151.31	3.95	-58.1	-68.3	5.2	6.15e-01	0	27	0	5242880	82	11657
2026-01-04 09:35:04.65	151.32	4.23	-57.7	-65.8	6.8	1.44e-01	0	27	0	12582912	81	9260
2026-01-04 09:35:08.68	151.33	4.52	-57.1	-63.1	9.2	1.03e-02	0	27	0	20971520	80	7178
2026-01-04 09:35:12.72	151.33	4.80	-56.7	-62.0	10.1	1.83e-03	0	27	0	28311552	80	6294
2026-01-04 09:35:16.76	151.34	5.09	-57.2	-63.2	9.3	1.69e-03	0	27	0	35651584	80	7245
2026-01-04 09:35:20.77	151.35	5.38	-55.8	-59.6	11.8	2.50e-01	0	27	0	41943040	78	5374
2026-01-04 09:35:24.80	151.36	5.67	-55.7	-59.4	11.9	3.00e-06	0	27	0	49283072	77	5584
2026-01-04 09:35:28.83	151.37	5.97	-55.6	-59.3	12.1	3.00e-06	0	27	0	56623104	77	5494
2026-01-04 09:35:32.86	151.38	6.27	-55.5	-59.0	12.2	1.50e-06	0	27	0	63963136	77	5330
2026-01-04 09:35:36.90	151.39	6.58	-55.6	-59.0	12.3	0.00e+00	0	28	0	71303168	77	5335
2026-01-04 09:35:40.93	151.40	6.89	-55.4	-58.8	12.5	0.00e+00	0	28	0	79691776	77	5164
2026-01-04 09:35:44.96	151.41	7.20	-55.4	-58.8	12.5	7.00e-07	0	28	0	87031808	77	5165
2026-01-04 09:35:48.99	151.41	7.52	-55.5	-58.9	12.5	0.00e+00	0	28	0	94371840	77	5221
2026-01-04 09:35:53.01	151.42	7.84	-55.3	-58.5	12.7	0.00e+00	0	28	0	101711872	77	5034
2026-01-04 09:35:57.05	151.43	8.16	-55.1	-58.0	12.9	0.00e+00	0	28	0	109051904	76	5041
2026-01-04 09:36:01.08	151.44	8.49	-55.0	-57.9	13.0	0.00e+00	0	28	0	117440512	76	4937
2026-01-04 09:36:05.11	151.45	8.82	-55.0	-57.9	13.1	0.00e+00	0	28	0	124780544	76	4968
2026-01-04 09:36:09.14	151.45	9.16	-54.9	-57.7	13.2	0.00e+00	0	28	0	132120576	76	4832
2026-01-04 09:36:13.19	151.46	9.50	-54.9	-57.7	13.2	0.00e+00	0	28	0	139460608	76	4827
2026-01-04 09:36:17.21	151.47	9.85	-54.9	-57.7	13.2	0.00e+00	0	28	0	146800640	76	4852
2026-01-04 09:36:21.23	151.48	10.20	-54.8	-57.4	13.4	0.00e+00	0	28	0	155189248	76	4697
2026-01-04 09:36:25.26	151.48	10.56	-54.5	-57.1	13.5	0.00e+00	0	28	0	162529280	75	4766
2026-01-04 09:36:29.29	151.49	10.92	-54.4	-56.9	13.6	0.00e+00	0	28	0	169869312	75	4704
2026-01-04 09:36:33.31	151.50	11.29	-54.2	-56.7	13.6	0.00e+00	0	28	0	177209344	74	4840
2026-01-04 09:36:37.34	151.51	11.66	-54.0	-56.4	13.8	0.00e+00	0	28	0	184549376	74	4664
2026-01-04 09:36:41.37	151.51	12.04	-53.9	-56.2	13.9	0.00e+00	0	28	0	192937984	74	4586
2026-01-04 09:36:45.40	151.52	12.42	-53.9	-56.2	13.9	0.00e+00	0	28	0	200278016	74	4555
2026-01-04 09:36:49.44	151.52	12.82	-53.8	-56.0	14.0	0.00e+00	0	28	0	207618048	74	4487
2026-01-04 09:36:53.48	151.53	13.22	-53.6	-55.8	14.0	0.00e+00	0	28	0	214958080	73	4629
2026-01-04 09:36:57.50	151.54	13.62	-53.6	-55.8	14.0	0.00e+00	0	28	0	222298112	73	4606
2026-01-04 09:37:01.53	151.54	14.03	-53.6	-55.7	14.1	0.00e+00	0	28	0	230686720	73	4592
2026-01-04 09:37:05.56	151.55	14.45	-53.5	-55.6	14.1	0.00e+00	0	28	0	238026752	73	4497
2026-01-04 09:37:09.59	151.55	14.87	-52.9	-55.4	14.2	0.00e+00	0	28	0	245366784	72	4656
2026-01-04 09:37:13.62	151.56	15.31	-52.8	-55.2	14.2	0.00e+00	0	28	0	252706816	72	4577
2026-01-04 09:37:17.65	151.56	15.75	-52.6	-55.0	14.2	0.00e+00	0	28	0	260046848	71	4732
2026-01-04 09:37:21.68	151.56	16.20	-52.7	-55.1	14.2	0.00e+00	0	28	0	268435456	71	4805
2026-01-04 09:37:25.71	151.57	16.65	-52.6	-55.0	14.2	0.00e+00	0	28	0	275775488	71	4748
2026-01-04 09:37:29.74	151.57	17.12	-52.5	-54.9	14.3	0.00e+00	0	28	0	283115520	71	4679
2026-01-04 09:37:33.77	151.58	17.59	-52.7	-55.1	14.2	0.00e+00	0	28	0	290455552	71	4780
2026-01-04 09:37:37.80	151.58	18.08	-52.4	-54.7	14.4	0.00e+00	0	28	0	298844160	71	4564
2026-01-04 09:37:41.83	151.58	18.57	-52.0	-54.2	14.5	0.00e+00	0	28	0	306184192	70	4574
2026-01-04 09:37:45.87	151.58	19.08	-52.0	-54.1	14.5	0.00e+00	0	28	0	313524224	70	4515
2026-01-04 09:37:49.90	151.58	19.59	-51.9	-54.0	14.5	0.00e+00	0	28	0	320864256	70	4486
2026-01-04 09:37:53.92	151.59	20.12	-52.0	-54.2	14.5	0.00e+00	0	28	0	328204288	70	4593
2026-01-04 09:37:57.96	151.59	20.66	-51.8	-53.9	14.6	0.00e+00	0	28	0	336592896	70	4416
2026-01-04 09:38:01.99	151.59	21.21	-51.7	-53.8	14.6	0.00e+00	0	28	0	343932928	69	4618
2026-01-04 09:38:06.02	151.59	21.77	-51.7	-53.8	14.6	0.00e+00	0	28	0	351272960	69	4620
2026-01-04 09:38:10.04	151.59	22.34	-51.9	-54.1	14.4	0.00e+00	0	28	0	358612992	69	4773
2026-01-04 09:38:14.08	151.58	22.93	-51.8	-53.8	14.6	0.00e+00	0	28	0	365953024	69	4643
2026-01-04 09:38:18.11	151.58	23.53	-52.0	-54.0	14.5	0.00e+00	0	28	0	374341632	69	4711
2026-01-04 09:38:22.13	151.58	24.14	-52.0	-54.0	14.5	0.00e+00	0	28	0	381681664	69	4720
2026-01-04 09:38:26.16	151.58	24.77	-52.4	-54.5	14.4	0.00e+00	0	29	0	389021696	70	4707
2026-01-04 09:38:30.20	151.57	25.42	-52.3	-54.3	14.5	0.00e+00	0	28	0	396361728	70	4626
2026-01-04 09:38:34.24	151.57	26.08	-52.2	-54.3	14.5	0.00e+00	0	28	0	403701760	70	4607
2026-01-04 09:38:38.26	151.56	26.76	-52.9	-55.1	14.2	0.00e+00	0	28	0	412090368	70	5070
2026-01-04 09:38:42.28	151.55	27.45	-53.3	-55.6	14.1	0.00e+00	0	28	0	419430400	71	5052
2026-01-04 09:38:46.31	151.55	28.17	-53.1	-55.2	14.3	0.00e+00	0	28	0	426770432	72	4596
2026-01-04 09:38:50.34	151.54	28.90	-53.3	-55.7	14.1	0.00e+00	0	29	0	434110464	72	4827
2026-01-04 09:38:54.37	151.53	29.65	-53.8	-56.4	13.8	0.00e+00	0	28	0	441450496	72	5224
2026-01-04 09:38:58.40	151.52	30.43	-53.4	-55.6	14.2	0.00e+00	0	28	0	449839104	72	4778
2026-01-04 09:39:02.43	151.51	31.22	-53.9	-56.4	13.8	0.00e+00	0	28	0	457179136	72	5226
2026-01-04 09:39:06.45	151.49	32.03	-54.4	-57.2	13.6	0.00e+00	0	28	0	464519168	75	4833
2026-01-04 09:39:10.49	151.48	32.88	-54.8	-57.8	13.4	0.00e+00	0	28	0	471859200	75	5167
2026-01-04 09:39:14.53	151.46	33.74	-54.6	-57.4	13.5	0.00e+00	0	28	0	480247808	75	4972
2026-01-04 09:39:18.56	151.44	34.63	-53.8	-56.3	14.0	0.00e+00	0	28	0	487587840	74	4604
2026-01-04 09:39:22.60	151.42	35.55	-52.6	-54.8	14.4	0.00e+00	0	28	0	494927872	71	4600
2026-01-04 09:39:26.62	151.40	36.48	-51.9	-53.8	14.7	0.00e+00	0	28	0	502267904	70	4389
2026-01-04 09:39:30.65	151.38	37.45	-51.7	-53.6	14.7	0.00e+00	0	28	0	509607936	69	4495
2026-01-04 09:39:34.69	151.35	38.45	-51.8	-53.7	14.7	0.00e+00	0	28	0	517996544	69	4594
2026-01-04 09:39:38.72	151.32	39.48	-51.2	-53.2	14.9	0.00e+00	0	29	0	525336576	69	4292
2026-01-04 09:39:42.76	151.29	40.55	-50.9	-52.7	14.9	0.00e+00	0	28	0	532676608	68	4323
2026-01-04 09:39:46.80	151.25	41.64	-50.9	-52.7	14.8	0.00e+00	0	28	0	540016640	67	4584
2026-01-04 09:39:50.82	151.21	42.76	-52.1	-54.3	14.5	0.00e+00	0	28	0	547356672	69	4880
2026-01-04 09:39:54.85	151.17	43.92	-51.7	-53.8	14.6	0.00e+00	0	28	0	555745280	69	4603
2026-01-04 09:39:58.87	151.12	45.12	-52.7	-55.2	14.2	0.00e+00	0	28	0	563085312	70	5108
2026-01-04 09:40:02.90	151.07	46.35	-54.4	-58.0	13.2	0.00e+00	0	28	0	570425344	74	5614
2026-01-04 09:40:06.93	151.01	47.62	-54.0	-57.6	13.4	0.00e+00	0	28	0	577765376	74	5394
2026-01-04 09:40:10.95	150.95	48.93	-53.0	-55.9	14.1	0.00e+00	0	28	0	585105408	72	4969
2026-01-04 09:40:14.98	150.88	50.28	-52.4	-54.8	14.4	0.00e+00	0	28	0	593494016	71	4622
2026-01-04 09:40:19.02	150.80	51.67	-50.2	-51.9	15.0	0.00e+00	0	28	0	600834048	67	4165
2026-01-04 09:40:23.05	150.71	53.11	-51.7	-53.6	14.6	0.00e+00	0	28	0	608174080	68	4808
2026-01-04 09:40:27.08	150.61	54.58	-51.1	-52.8	14.9	0.00e+00	0	29	0	615514112	68	4381
2026-01-04 09:40:31.12	150.49	56.10	-51.6	-53.5	14.7	0.00e+00	0	28	0	622854144	68	4712
2026-01-04 09:40:35.15	150.36	57.66	-52.3	-54.3	14.5	0.00e+00	0	28	0	631242752	70	4609
2026-01-04 09:40:39.18	150.22	59.26	-53.5	-56.3	13.8	0.00e+00	0	29	0	638582784	72	5192
2026-01-04 09:40:43.21	150.05	60.91	-52.8	-55.3	14.1	0.00e+00	0	28	0	645922816	70	5171
2026-01-04 09:40:47.25	149.86	62.60	-51.4	-53.3	14.8	0.00e+00	0	28	0	653262848	69	4367
2026-01-04 09:40:51.28	149.63	64.33	-50.7	-52.3	14.8	0.00e+00	0	28	0	661651456	66	4626
2026-01-04 09:40:55.32	149.37	66.11	-52.2	-53.9	14.6	0.00e+00	0	28	0	668991488	69	4688
2026-01-04 09:40:59.35	149.05	67.92	-54.0	-56.3	14.0	0.00e+00	0	28	0	676331520	73	4877
2026-01-04 09:41:03.38	148.67	69.76	-56.8	-61.2	11.5	0.00e+00	0	28	0	683671552	78	6448
2026-01-04 09:41:07.40	148.21	71.64	-55.3	-58.0	13.5	0.00e+00	0	28	0	691011584	76	5019
2026-01-04 09:41:11.44	147.62	73.56	-54.7	-57.3	13.7	0.00e+00	0	28	0	699400192	75	4880
2026-01-04 09:41:15.47	146.87	75.50	-53.9	-56.2	14.0	0.00e+00	0	28	0	706740224	74	4589
2026-01-04 09:41:19.49	145.87	77.47	-56.2	-59.9	12.5	7.00e-07	0	29	0	714080256	78	5587
2026-01-04 09:41:23.52	144.47	79.46	-56.0	-59.9	12.5	0.00e+00	0	29	0	721420288	78	5533
2026-01-04 09:41:27.53	142.42	81.45	-55.5	-58.7	13.1	0.00e+00	0	28	0	728760320	76	5424
2026-01-04 09:41:31.56	139.06	83.45	-52.4	-54.2	14.7	0.00e+00	0	28	0	736100352	71	4302
2026-01-04 09:41:35.59	132.75	85.42	-51.9	-53.6	14.7	0.00e+00	0	28	0	744488960	69	4529
2026-01-04 09:41:39.62	117.45	87.26	-54.3	-56.9	13.8	0.00e+00	0	28	0	751828992	74	4978
2026-01-04 09:41:43.65	68.59	88.39	-54.1	-56.7	13.9	0.00e+00	0	28	0	759169024	73	5151
2026-01-04 09:41:47.69	12.95	87.49	-54.9	-57.6	13.5	0.00e+00	0	28	0	766509056	74	5390
2026-01-04 09:41:51.72	355.06	85.69	-52.7	-54.7	14.6	0.00e+00	0	28	0	774897664	71	4548
2026-01-04 09:41:55.75	348.03	83.73	-51.1	-52.7	15.0	0.00e+00	0	28	0	782237696	68	4292
2026-01-04 09:41:59.77	344.40	81.74	-53.6	-55.8	14.3	0.00e+00	0	28	0	789577728	73	4605
2026-01-04 09:42:03.81	342.20	79.74	-53.4	-55.4	14.3	0.00e+00	0	28	0	796917760	72	4698
2026-01-04 09:42:07.83	340.73	77.75	-53.3	-55.4	14.4	0.00e+00	0	29	0	804257792	72	4656
2026-01-04 09:42:11.87	339.68	75.78	-54.3	-56.9	13.8	0.00e+00	0	28	0	812646400	74	4948
2026-01-04 09:42:15.90	338.90	73.83	-52.7	-54.5	14.7	0.00e+00	0	29	0	819986432	71	4450
2026-01-04 09:42:19.93	338.30	71.92	-55.9	-59.1	13.0	0.00e+00	0	28	0	827326464	77	5342
2026-01-04 09:42:23.96	337.82	70.03	-55.2	-57.9	13.6	0.00e+00	0	28	0	834666496	76	4979
2026-01-04 09:42:27.99	337.43	68.18	-53.3	-55.3	14.3	0.00e+00	0	28	0	842006528	71	4885
2026-01-04 09:42:32.03	337.10	66.37	-52.0	-53.8	14.8	0.00e+00	0	28	0	850395136	70	4343
2026-01-04 09:42:36.06	336.83	64.59	-50.9	-52.4	14.8	0.00e+00	0	28	0	857735168	66	4701
2026-01-04 09:42:40.09	336.61	62.86	-51.2	-53.0	14.9	0.00e+00	0	28	0	865075200	69	4240
2026-01-04 09:42:44.12	336.41	61.17	-53.5	-56.0	14.0	0.00e+00	0	28	0	872415232	72	4992
2026-01-04 09:42:48.15	336.24	59.52	-51.7	-53.5	14.7	0.00e+00	0	29	0	879755264	69	4485
2026-01-04 09:42:52.18	336.09	57.92	-52.2	-54.1	14.6	0.00e+00	0	28	0	888143872	69	4800
2026-01-04 09:42:56.22	335.96	56.35	-51.4	-53.1	14.9	0.00e+00	0	28	0	895483904	69	4254
2026-01-04 09:43:00.23	335.85	54.84	-53.8	-56.6	13.8	0.00e+00	0	28	0	902823936	72	5344
2026-01-04 09:43:04.26	335.75	53.36	-52.9	-55.2	14.4	0.00e+00	0	28	0	910163968	72	4553
2026-01-04 09:43:08.29	335.66	51.93	-55.0	-58.8	13.0	0.00e+00	0	28	0	917504000	75	5803
2026-01-04 09:43:12.32	335.58	50.53	-52.5	-54.5	14.6	0.00e+00	0	28	0	925892608	71	4484
2026-01-04 09:43:16.34	335.50	49.18	-53.9	-56.5	13.8	0.00e+00	0	28	0	933232640	72	5333
2026-01-04 09:43:20.37	335.44	47.87	-52.3	-54.3	14.6	0.00e+00	0	28	0	940572672	71	4354
2026-01-04 09:43:24.41	335.38	46.60	-52.2	-54.0	14.6	0.00e+00	0	28	0	947912704	69	4750
2026-01-04 09:43:28.42	335.33	45.37	-53.9	-56.4	14.0	0.00e+00	0	28	0	956301312	73	4950
2026-01-04 09:43:32.45	335.28	44.17	-52.6	-54.6	14.5	0.00e+00	0	29	0	963641344	71	4540
2026-01-04 09:43:36.49	335.24	43.00	-52.1	-53.9	14.6	0.00e+00	0	29	0	970981376	70	4440
2026-01-04 09:43:40.52	335.20	41.87	-53.3	-55.7	14.0	0.00e+00	0	28	0	978321408	71	5106
2026-01-04 09:43:44.53	335.16	40.78	-52.0	-53.9	14.7	0.00e+00	0	28	0	985661440	70	4414
2026-01-04 09:43:48.56	335.13	39.72	-53.4	-55.9	14.1	0.00e+00	0	28	0	993001472	72	4929
2026-01-04 09:43:52.59	335.10	38.69	-55.1	-59.0	12.6	0.00e+00	0	28	0	1001390080	75	5938
2026-01-04 09:43:56.63	335.08	37.69	-55.4	-59.6	12.2	7.00e-07	0	29	0	1008730112	76	6051
2026-01-04 09:44:00.65	335.05	36.72	-53.4	-56.0	14.0	0.00e+00	0	28	0	1016070144	73	4759
2026-01-04 09:44:04.69	335.03	35.77	-52.9	-55.3	14.2	0.00e+00	0	28	0	1023410176	71	4891
2026-01-04 09:44:08.72	335.01	34.86	-56.5	-62.5	10.5	6.86e-05	0	28	0	1031798784	78	7535
2026-01-04 09:44:12.75	334.99	33.97	-56.9	-63.2	9.7	1.04e-02	0	28	0	1039138816	79	7692
2026-01-04 09:44:16.79	334.98	33.10	-54.8	-58.2	13.2	0.00e+00	0	29	0	1046478848	76	5103
2026-01-04 09:44:20.81	334.96	32.26	-53.7	-56.3	13.9	0.00e+00	0	28	0	1053818880	73	4916
2026-01-04 09:44:24.84	334.95	31.44	-53.8	-56.4	13.8	0.00e+00	0	29	0	1061158912	73	4957
2026-01-04 09:44:28.87	334.94	30.65	-53.7	-56.2	14.0	0.00e+00	0	28	0	1069547520	73	4841
2026-01-04 09:44:32.89	334.93	29.88	-54.2	-57.0	13.6	0.00e+00	0	28	0	1076887552	73	5284
2026-01-04 09:44:36.93	334.92	29.12	-54.8	-58.0	13.1	0.00e+00	0	28	0	1084227584	74	5608
2026-01-04 09:44:40.95	334.92	28.39	-54.1	-56.9	13.7	0.00e+00	0	28	0	1091567616	74	4932
2026-01-04 09:44:44.96	334.91	27.68	-52.5	-54.6	14.5	0.00e+00	0	28	0	1098907648	71	4500
2026-01-04 09:44:49.00	334.90	26.98	-52.3	-54.3	14.5	0.00e+00	0	28	0	1107296256	70	4601
2026-01-04 09:44:53.03	334.90	26.30	-52.8	-54.9	14.3	0.00e+00	0	28	0	1114636288	71	4695
2026-01-04 09:44:57.06	334.90	25.64	-52.6	-54.8	14.3	0.00e+00	0	28	0	1121976320	71	4616
2026-01-04 09:45:01.08	334.89	24.99	-52.5	-54.6	14.5	0.00e+00	0	28	0	1129316352	71	4494
2026-01-04 09:45:05.12	334.89	24.36	-52.0	-53.9	14.6	0.00e+00	0	28	0	1136656384	70	4427
2026-01-04 09:45:09.14	334.89	23.74	-51.7	-53.6	14.7	0.00e+00	0	28	0	1145044992	69	4504
2026-01-04 09:45:13.17	334.89	23.14	-51.7	-53.6	14.7	0.00e+00	0	28	0	1152385024	69	4510
2026-01-04 09:45:17.21	334.89	22.55	-51.4	-53.2	14.8	0.00e+00	0	28	0	1159725056	69	4300
2026-01-04 09:45:21.24	334.89	21.98	-51.0	-52.7	14.8	0.00e+00	0	28	0	1167065088	68	4328
2026-01-04 09:45:25.27	334.89	21.42	-51.2	-53.0	14.7	0.00e+00	0	28	0	1174405120	68	4474
2026-01-04 09:45:29.29	334.89	20.87	-51.9	-53.9	14.4	0.00e+00	0	28	0	1182793728	68	4932
2026-01-04 09:45:33.30	334.90	20.33	-52.6	-54.9	14.2	0.00e+00	0	29	0	1190133760	70	4952
2026-01-04 09:45:37.32	334.90	19.81	-53.2	-55.8	13.9	0.00e+00	0	28	0	1197473792	71	5217
2026-01-04 09:45:41.31	334.90	19.29	-53.4	-56.0	13.8	0.00e+00	0	28	0	1204813824	72	5039
2026-01-04 09:45:45.33	334.91	18.79	-53.1	-55.7	14.0	0.00e+00	0	28	0	1212153856	72	4829
2026-01-04 09:45:49.35	334.91	18.30	-53.1	-55.7	14.0	0.00e+00	0	28	0	1219493888	72	4822
2026-01-04 09:45:53.37	334.91	17.81	-53.1	-55.6	14.0	0.00e+00	0	28	0	1227882496	72	4811
2026-01-04 09:45:57.39	334.92	17.34	-52.9	-55.3	14.1	0.00e+00	0	28	0	1235222528	72	4619
2026-01-04 09:46:01.41	334.93	16.87	-52.8	-55.2	14.2	0.00e+00	0	28	0	1242562560	72	4551
2026-01-04 09:46:05.42	334.93	16.42	-52.8	-55.2	14.2	0.00e+00	0	29	0	1249902592	72	4575
2026-01-04 09:46:09.44	334.94	15.97	-53.2	-55.7	13.9	0.00e+00	0	28	0	1257242624	72	4866
2026-01-04 09:46:13.47	334.94	15.53	-53.4	-56.0	13.8	0.00e+00	0	28	0	1265631232	72	5017
2026-01-04 09:46:17.46	334.95	15.10	-53.5	-56.3	13.7	0.00e+00	0	28	0	1272971264	72	5167
2026-01-04 09:46:21.47	334.96	14.67	-53.6	-56.4	13.6	0.00e+00	0	28	0	1280311296	72	5232
2026-01-04 09:46:25.48	334.96	14.25	-53.6	-56.5	13.5	0.00e+00	0	28	0	1287651328	72	5291
2026-01-04 09:46:29.49	334.97	13.84	-53.6	-56.4	13.6	0.00e+00	0	29	0	1294991360	72	5243
2026-01-04 09:46:33.50	334.98	13.44	-53.6	-56.4	13.6	0.00e+00	0	29	0	1302331392	72	5233
2026-01-04 09:46:37.52	334.99	13.04	-53.6	-56.3	13.6	0.00e+00	0	28	0	1310720000	72	5211
2026-01-04 09:46:41.53	335.00	12.65	-53.3	-55.9	13.8	0.00e+00	0	28	0	1318060032	72	4973
2026-01-04 09:46:45.55	335.00	12.27	-53.4	-56.0	13.8	0.00e+00	0	29	0	1325400064	72	5038
2026-01-04 09:46:49.57	335.01	11.89	-53.2	-55.8	13.9	0.00e+00	0	28	0	1332740096	72	4881
2026-01-04 09:46:53.57	335.02	11.52	-53.1	-55.6	13.9	0.00e+00	0	28	0	1340080128	72	4779
2026-01-04 09:46:57.59	335.03	11.15	-53.0	-55.5	14.0	0.00e+00	0	29	0	1347420160	72	4729
2026-01-04 09:47:01.60	335.04	10.79	-53.0	-55.4	14.0	0.00e+00	0	28	0	1355808768	72	4683
2026-01-04 09:47:05.62	335.05	10.43	-52.9	-55.2	14.1	0.00e+00	0	29	0	1363148800	72	4594
2026-01-04 09:47:09.63	335.06	10.08	-52.9	-55.2	14.1	0.00e+00	0	28	0	1370488832	72	4594
2026-01-04 09:47:13.64	335.07	9.74	-52.8	-55.1	14.2	0.00e+00	0	28	0	1377828864	72	4507
2026-01-04 09:47:17.65	335.08	9.40	-52.9	-55.2	14.1	0.00e+00	0	28	0	1385168896	72	4596
2026-01-04 09:47:21.66	335.09	9.06	-52.9	-55.2	14.1	3.80e-06	0	29	0	1393557504	72	4560
2026-01-04 09:47:25.68	335.10	8.73	-52.9	-55.2	14.1	0.00e+00	0	28	0	1400897536	72	4578
2026-01-04 09:47:29.69	335.11	8.40	-53.0	-55.3	14.0	0.00e+00	0	28	0	1408237568	72	4619
2026-01-04 09:47:33.71	335.12	8.08	-53.0	-55.3	14.0	0.00e+00	0	29	0	1415577600	72	4620
2026-01-04 09:47:37.73	335.13	7.75	-53.1	-55.4	13.9	0.00e+00	0	29	0	1422917632	72	4704
2026-01-04 09:47:41.74	335.14	7.44	-53.0	-55.4	13.9	0.00e+00	0	29	0	1430257664	72	4692
2026-01-04 09:47:45.75	335.16	7.13	-53.3	-55.9	13.7	0.00e+00	0	28	0	1438646272	72	4928
2026-01-04 09:47:49.77	335.17	6.82	-53.5	-56.1	13.6	0.00e+00	0	29	0	1445986304	72	5050
2026-01-04 09:47:53.78	335.18	6.52	-53.4	-56.0	13.6	0.00e+00	0	28	0	1453326336	72	5041
2026-01-04 09:47:57.79	335.19	6.21	-53.4	-56.1	13.5	0.00e+00	0	29	0	1460666368	72	5068
2026-01-04 09:48:01.80	335.20	5.92	-53.7	-56.6	13.3	0.00e+00	0	28	0	1468006400	72	5350
2026-01-04 09:48:05.81	335.21	5.62	-53.7	-56.6	13.2	0.00e+00	0	29	0	1476395008	72	5370
2026-01-04 09:48:09.81	335.23	5.33	-53.7	-56.6	13.2	0.00e+00	0	29	0	1483735040	72	5382
2026-01-04 09:48:13.84	335.24	5.05	-53.8	-56.9	13.0	0.00e+00	0	28	0	1491075072	72	5538
2026-01-04 09:48:17.88	335.25	4.76	-60.2	-76.3	3.8	1.49e+00	0	28	104	1493172224	85	24463
2026-01-04 09:48:21.90	335.26	4.48	-60.8	-76.9	3.8	1.49e+00	0	28	104	1493172224	86	24804
2026-01-04 09:48:25.93	335.27	4.20	-61.1	-77.1	3.8	1.49e+00	0	29	104	1493172224	87	24095
2026-01-04 09:48:29.97	335.29	3.92	-61.2	-77.2	3.8	1.49e+00	0	29	104	1493172224	87	24385
2026-01-04 09:48:33.99	335.30	3.65	-61.3	-77.3	3.8	1.49e+00	0	29	104	1493172224	87	24671
2026-01-04 09:48:38.02	335.31	3.38	-61.2	-77.3	3.8	1.49e+00	0	29	104	1493172224	87	24463
2026-01-04 09:48:42.05	335.33	3.11	-61.1	-77.3	3.8	1.49e+00	0	29	104	1493172224	87	24413
2026-01-04 09:48:46.08	335.34	2.84	-61.1	-77.2	3.8	1.49e+00	0	29	104	1493172224	87	24249
2026-01-04 09:48:50.12	335.35	2.58	-61.0	-77.2	3.8	1.49e+00	0	29	104	1493172224	87	24146
2026-01-04 09:48:54.15	335.36	2.32	-61.0	-77.1	3.8	1.49e+00	0	29	104	1493172224	87	24037
2026-01-04 09:48:58.19	335.38	2.06	-61.0	-77.1	3.8	1.49e+00	0	29	104	1493172224	87	23992

#Closed at: 2026-01-04 09:48:59
#Recorded file [1493 MB]: D:/lorett/data/31004_260104_123432.dat