passes_logs/2026/01/04/R3.2S_Murmansk/R3.2S_Murmansk__20260104_113138_AQUA_rec.log

#Pass ID: 20260104_113138_AQUA
#Satellite: AQUA
#Configuration: AQUA
#almurnet v.1.7.20251203
#Start time: 2026-01-04 11:31:41

#Version: 2.2.20231116
#Station: R3.2S_Murmansk
#Location: 33.079688 lon 68.888172 lat
#TLE: 1 27424U 02022A   26003.93831471  .00001925  00000+0  39553-3 0  9996
#TLE: 2 27424  98.4067 330.1809 0002002  92.1714 343.8415 14.61796291259276

#Time	Az	El	Level	Level2	SNR	BER	BlckErr	Temp	State	Recorded	gain1	gain2
2026-01-04 11:31:41.19	159.11	2.15	-58.3	-77.7	3.8	7.45e-01	0	27	0	0	85	33348
2026-01-04 11:31:45.16	159.15	2.41	-58.3	-77.6	3.8	7.47e-01	0	27	104	0	84	35026
2026-01-04 11:31:49.15	159.20	2.69	-58.3	-77.7	3.8	7.47e-01	0	27	104	0	84	35360
2026-01-04 11:31:53.12	159.24	2.96	-58.3	-77.0	3.8	7.48e-01	0	28	104	0	84	32606
2026-01-04 11:31:57.10	159.29	3.23	-58.3	-77.3	3.8	7.48e-01	0	27	104	0	84	33955
2026-01-04 11:32:01.07	159.33	3.51	-58.2	-72.5	4.7	7.15e-01	0	27	104	0	84	19432
2026-01-04 11:32:05.05	159.38	3.79	-57.6	-66.5	9.1	6.29e-01	0	28	0	6291456	84	9745
2026-01-04 11:32:09.03	159.43	4.08	-56.8	-63.2	11.5	6.10e-01	0	28	0	13631488	82	7498
2026-01-04 11:32:13.01	159.48	4.37	-56.3	-61.8	12.3	6.09e-01	0	28	0	21495808	81	6750
2026-01-04 11:32:16.94	159.53	4.66	-56.1	-61.3	12.6	6.09e-01	0	28	0	28835840	81	6399
2026-01-04 11:32:20.92	159.58	4.95	-56.5	-62.4	12.0	6.08e-01	0	28	0	36175872	81	7209
2026-01-04 11:32:24.88	159.63	5.25	-57.9	-74.4	3.8	7.41e-01	0	28	104	43515904	83	25602
2026-01-04 11:32:28.86	159.68	5.55	-52.5	-54.8	15.1	6.08e-01	0	28	0	48758784	74	4517
2026-01-04 11:32:32.83	159.73	5.86	-51.6	-53.7	15.2	6.04e-01	0	28	0	56623104	72	4463
2026-01-04 11:32:36.81	159.79	6.17	-51.4	-53.5	15.3	6.05e-01	0	28	0	63963136	72	4341
2026-01-04 11:32:40.79	159.84	6.49	-51.3	-53.4	15.2	6.04e-01	0	28	0	71303168	71	4547
2026-01-04 11:32:44.76	159.90	6.81	-51.2	-53.1	15.3	6.05e-01	0	28	0	78643200	71	4435
2026-01-04 11:32:48.73	159.95	7.13	-51.1	-53.1	15.3	6.07e-01	0	28	0	85983232	71	4403
2026-01-04 11:32:52.73	160.01	7.46	-51.1	-53.0	15.3	6.07e-01	0	28	0	93847552	71	4371
2026-01-04 11:32:56.70	160.07	7.80	-51.0	-53.0	15.3	6.06e-01	0	28	0	101187584	71	4344
2026-01-04 11:33:00.69	160.13	8.14	-51.0	-52.9	15.3	6.07e-01	0	28	0	108527616	71	4339
2026-01-04 11:33:04.66	160.19	8.48	-51.1	-53.0	15.3	6.07e-01	0	28	0	115867648	71	4390
2026-01-04 11:33:08.63	160.25	8.83	-51.0	-52.9	15.4	6.06e-01	0	28	0	123731968	71	4310
2026-01-04 11:33:12.59	160.32	9.18	-51.1	-53.0	15.4	6.08e-01	0	28	0	131072000	71	4346
2026-01-04 11:33:16.56	160.38	9.54	-50.9	-52.8	15.4	6.05e-01	0	28	0	138412032	71	4257
2026-01-04 11:33:20.55	160.45	9.91	-50.7	-52.5	15.4	6.06e-01	0	28	0	145752064	70	4357
2026-01-04 11:33:24.52	160.52	10.28	-50.6	-52.4	15.4	6.07e-01	0	28	0	153092096	70	4294
2026-01-04 11:33:28.49	160.59	10.66	-50.5	-52.2	15.5	6.05e-01	0	28	0	160956416	70	4232
2026-01-04 11:33:32.47	160.66	11.04	-50.2	-52.0	15.4	6.05e-01	0	28	0	168296448	69	4342
2026-01-04 11:33:36.45	160.73	11.44	-50.3	-52.0	15.4	6.05e-01	0	28	0	175636480	69	4380
2026-01-04 11:33:40.42	160.81	11.83	-50.2	-51.9	15.4	6.07e-01	0	28	0	182976512	69	4331
2026-01-04 11:33:44.38	160.88	12.24	-50.3	-52.0	15.4	6.06e-01	0	28	0	190316544	69	4358
2026-01-04 11:33:48.34	160.96	12.65	-50.3	-52.1	15.4	6.07e-01	0	28	0	198180864	69	4392
2026-01-04 11:33:52.32	161.04	13.07	-50.3	-52.0	15.4	6.07e-01	0	28	0	205520896	69	4378
2026-01-04 11:33:56.31	161.12	13.51	-50.2	-51.9	15.4	6.05e-01	0	28	0	212860928	69	4330
2026-01-04 11:34:00.27	161.21	13.94	-50.1	-51.8	15.5	6.07e-01	0	28	0	220200960	69	4259
2026-01-04 11:34:04.25	161.29	14.39	-50.0	-51.6	15.5	6.05e-01	0	28	0	228065280	69	4175
2026-01-04 11:34:08.22	161.38	14.85	-49.8	-51.4	15.4	6.10e-01	0	28	0	235405312	68	4338
2026-01-04 11:34:12.20	161.47	15.31	-49.9	-51.5	15.4	6.07e-01	0	28	0	242745344	68	4376
2026-01-04 11:34:16.16	161.57	15.79	-49.9	-51.5	15.4	6.07e-01	0	28	0	250085376	68	4353
2026-01-04 11:34:20.15	161.66	16.28	-49.9	-51.6	15.4	6.06e-01	0	28	0	257425408	68	4395
2026-01-04 11:34:24.14	161.76	16.78	-49.9	-51.5	15.4	6.05e-01	0	28	0	265289728	68	4385
2026-01-04 11:34:28.11	161.87	17.29	-49.7	-51.3	15.5	6.07e-01	0	28	0	272629760	68	4272
2026-01-04 11:34:32.07	161.97	17.81	-49.7	-51.3	15.5	6.06e-01	0	28	0	279969792	68	4288
2026-01-04 11:34:36.05	162.08	18.34	-49.8	-51.5	15.5	6.05e-01	0	28	0	287309824	68	4350
2026-01-04 11:34:40.02	162.19	18.89	-49.9	-51.5	15.4	6.06e-01	0	28	0	294649856	68	4389
2026-01-04 11:34:44.01	162.31	19.45	-49.9	-51.5	15.4	6.07e-01	0	28	0	302514176	68	4363
2026-01-04 11:34:47.98	162.43	20.02	-49.9	-51.6	15.4	6.06e-01	0	28	0	309854208	68	4399
2026-01-04 11:34:51.95	162.56	20.61	-50.0	-51.6	15.4	6.06e-01	0	28	0	317194240	68	4433
2026-01-04 11:34:55.93	162.69	21.21	-50.2	-51.9	15.3	6.06e-01	0	28	0	324534272	68	4548
2026-01-04 11:34:59.90	162.82	21.83	-50.2	-51.9	15.4	6.06e-01	0	28	0	332398592	68	4553
2026-01-04 11:35:03.89	162.96	22.47	-50.2	-51.8	15.3	6.06e-01	0	28	0	339738624	68	4539
2026-01-04 11:35:07.87	163.11	23.13	-50.1	-51.8	15.4	6.04e-01	0	28	0	347078656	68	4498
2026-01-04 11:35:11.84	163.26	23.80	-50.2	-51.9	15.3	6.05e-01	0	28	0	354418688	68	4570
2026-01-04 11:35:15.81	163.42	24.49	-50.3	-51.9	15.3	6.07e-01	0	28	0	361758720	68	4598
2026-01-04 11:35:19.78	163.58	25.20	-50.3	-51.9	15.3	6.07e-01	0	28	0	369623040	68	4596
2026-01-04 11:35:23.75	163.75	25.94	-50.3	-51.9	15.3	6.06e-01	0	28	0	376963072	68	4580
2026-01-04 11:35:27.72	163.93	26.69	-50.1	-51.7	15.4	6.08e-01	0	28	0	384303104	68	4465
2026-01-04 11:35:31.69	164.12	27.47	-49.8	-51.4	15.5	6.07e-01	0	28	0	391643136	68	4304
2026-01-04 11:35:35.67	164.32	28.28	-49.7	-51.3	15.5	6.05e-01	0	28	0	398983168	68	4247
2026-01-04 11:35:39.65	164.52	29.11	-49.6	-51.2	15.5	6.07e-01	0	28	0	406847488	68	4210
2026-01-04 11:35:43.63	164.74	29.96	-49.6	-51.1	15.5	6.05e-01	0	28	0	414187520	68	4186
2026-01-04 11:35:47.61	164.97	30.85	-49.6	-51.2	15.5	6.07e-01	0	28	0	421527552	68	4206
2026-01-04 11:35:51.59	165.21	31.76	-49.7	-51.2	15.5	6.08e-01	0	28	0	428867584	68	4234
2026-01-04 11:35:55.58	165.47	32.71	-49.9	-51.5	15.4	6.08e-01	0	28	0	436731904	68	4385
2026-01-04 11:35:59.55	165.74	33.68	-50.1	-51.8	15.4	6.06e-01	0	28	0	444071936	68	4495
2026-01-04 11:36:03.51	166.03	34.69	-50.5	-52.1	15.3	6.08e-01	0	28	0	451411968	68	4699
2026-01-04 11:36:07.51	166.33	35.74	-50.9	-52.7	15.3	6.06e-01	0	28	0	458752000	69	4723
2026-01-04 11:36:11.49	166.66	36.82	-51.4	-53.2	15.2	6.07e-01	0	28	0	466616320	70	4714
2026-01-04 11:36:15.47	167.01	37.94	-51.6	-53.5	15.2	6.06e-01	0	28	0	473956352	70	4871
2026-01-04 11:36:19.43	167.38	39.09	-51.6	-53.5	15.3	6.06e-01	0	28	0	481296384	71	4611
2026-01-04 11:36:23.41	167.77	40.29	-51.6	-53.4	15.3	6.04e-01	0	28	0	488636416	71	4562
2026-01-04 11:36:27.39	168.20	41.54	-51.0	-52.7	15.5	6.07e-01	0	28	0	495976448	71	4228
2026-01-04 11:36:31.38	168.67	42.83	-50.7	-52.3	15.5	6.06e-01	0	28	0	503840768	70	4271
2026-01-04 11:36:35.36	169.17	44.16	-49.7	-51.3	15.5	6.08e-01	0	28	0	511180800	68	4255
2026-01-04 11:36:39.33	169.72	45.54	-50.0	-51.5	15.4	6.07e-01	0	28	0	518520832	68	4390
2026-01-04 11:36:43.31	170.31	46.97	-50.1	-51.7	15.4	6.06e-01	0	28	0	525860864	68	4462
2026-01-04 11:36:47.30	170.97	48.45	-50.3	-51.9	15.3	6.08e-01	0	28	0	533725184	68	4594
2026-01-04 11:36:51.29	171.69	49.98	-49.8	-51.3	15.5	6.08e-01	0	28	0	541065216	68	4285
2026-01-04 11:36:55.26	172.49	51.56	-49.3	-50.8	15.5	6.06e-01	0	28	0	548405248	67	4271
2026-01-04 11:36:59.23	173.37	53.18	-49.0	-50.5	15.6	6.06e-01	0	28	0	555745280	67	4106
2026-01-04 11:37:03.20	174.36	54.86	-49.5	-51.0	15.5	6.08e-01	0	28	0	563609600	67	4379
2026-01-04 11:37:07.17	175.47	56.58	-50.2	-51.8	15.4	6.02e-01	0	28	0	570949632	68	4494
2026-01-04 11:37:11.15	176.74	58.35	-50.8	-52.5	15.3	6.03e-01	0	28	0	578289664	69	4605
2026-01-04 11:37:15.13	178.18	60.16	-51.4	-53.2	15.3	6.05e-01	0	28	0	585629696	70	4714
2026-01-04 11:37:19.12	179.86	62.01	-52.4	-54.4	15.2	6.01e-01	0	28	0	592969728	72	4830
2026-01-04 11:37:23.10	181.80	63.89	-53.3	-55.5	15.0	6.05e-01	0	28	0	600834048	74	4891
2026-01-04 11:37:27.06	184.07	65.78	-54.2	-56.5	14.9	6.04e-01	0	28	0	608174080	76	4917
2026-01-04 11:37:31.04	186.78	67.68	-54.6	-57.1	14.8	6.03e-01	0	28	0	615514112	77	4965
2026-01-04 11:37:35.02	190.04	69.57	-55.4	-58.4	14.5	6.02e-01	0	28	0	622854144	78	5422
2026-01-04 11:37:39.01	194.02	71.44	-54.3	-56.6	15.0	6.04e-01	0	28	0	630718464	77	4684
2026-01-04 11:37:42.97	198.89	73.21	-53.3	-55.4	15.2	6.01e-01	0	28	0	638058496	75	4590
2026-01-04 11:37:46.96	204.97	74.89	-52.7	-54.6	15.3	6.05e-01	0	28	0	645398528	74	4415
2026-01-04 11:37:50.94	212.52	76.37	-52.9	-54.9	15.2	6.02e-01	0	28	0	652738560	74	4591
2026-01-04 11:37:54.93	221.80	77.59	-52.0	-53.8	15.4	6.05e-01	0	28	0	660078592	73	4279
2026-01-04 11:37:58.90	232.75	78.43	-51.4	-53.1	15.5	6.04e-01	0	28	0	667942912	72	4161
2026-01-04 11:38:02.87	244.94	78.81	-51.5	-53.2	15.5	6.02e-01	0	28	0	675282944	72	4229
2026-01-04 11:38:06.87	257.50	78.68	-51.9	-53.7	15.2	6.01e-01	0	28	0	682622976	71	4723
2026-01-04 11:38:10.83	269.10	78.05	-51.2	-52.8	15.5	6.00e-01	0	28	0	689963008	71	4286
2026-01-04 11:38:14.79	279.15	77.00	-52.3	-54.1	15.2	6.03e-01	0	28	0	697303040	72	4689
2026-01-04 11:38:18.76	287.48	75.64	-53.3	-55.3	15.1	6.04e-01	0	28	0	705167360	74	4806
2026-01-04 11:38:22.72	294.20	74.06	-52.7	-54.6	15.3	6.01e-01	0	28	0	712507392	74	4407
2026-01-04 11:38:26.69	299.63	72.33	-52.9	-54.8	15.3	6.06e-01	0	28	0	719847424	74	4519
2026-01-04 11:38:30.66	304.01	70.51	-53.5	-55.7	15.0	6.02e-01	0	28	0	727187456	74	4994
2026-01-04 11:38:34.63	307.60	68.64	-53.4	-55.5	15.1	6.03e-01	0	28	0	734527488	75	4647
2026-01-04 11:38:38.61	310.56	66.75	-53.1	-55.1	15.2	6.02e-01	0	28	0	742391808	75	4439
2026-01-04 11:38:42.58	313.04	64.85	-52.5	-54.3	15.4	6.00e-01	0	28	0	749731840	74	4278
2026-01-04 11:38:46.54	315.13	62.98	-52.0	-53.8	15.4	6.03e-01	0	28	0	757071872	73	4276
2026-01-04 11:38:50.52	316.93	61.11	-51.2	-52.9	15.4	6.04e-01	0	28	0	764411904	71	4298
2026-01-04 11:38:54.49	318.48	59.29	-50.9	-52.5	15.4	6.04e-01	0	28	0	771751936	70	4373
2026-01-04 11:38:58.47	319.83	57.50	-50.5	-52.1	15.5	6.03e-01	0	28	0	779616256	70	4171
2026-01-04 11:39:02.45	321.02	55.76	-50.1	-51.7	15.5	6.02e-01	0	28	0	786956288	69	4213
2026-01-04 11:39:06.42	322.07	54.07	-49.6	-51.1	15.5	6.02e-01	0	28	0	794296320	68	4147
2026-01-04 11:39:10.39	323.00	52.42	-50.0	-51.5	15.5	6.01e-01	0	28	0	801636352	68	4356
2026-01-04 11:39:14.36	323.84	50.83	-50.1	-51.6	15.4	6.04e-01	0	28	0	809500672	68	4433
2026-01-04 11:39:18.33	324.60	49.28	-50.7	-52.3	15.4	6.03e-01	0	28	0	816840704	69	4530
2026-01-04 11:39:22.29	325.28	47.79	-50.3	-51.9	15.5	6.04e-01	0	28	0	824180736	69	4309
2026-01-04 11:39:26.25	325.90	46.34	-50.7	-52.4	15.4	6.03e-01	0	28	0	831520768	69	4555
2026-01-04 11:39:30.20	326.47	44.95	-50.7	-52.3	15.4	6.04e-01	0	28	0	838860800	69	4519
2026-01-04 11:39:34.17	326.99	43.60	-50.6	-52.2	15.4	6.02e-01	0	28	0	846200832	69	4471
2026-01-04 11:39:38.16	327.48	42.29	-51.2	-52.9	15.3	6.05e-01	0	28	0	854065152	70	4567
2026-01-04 11:39:42.13	327.93	41.03	-51.3	-53.0	15.3	6.01e-01	0	28	0	861405184	70	4613
2026-01-04 11:39:46.13	328.35	39.80	-51.5	-53.2	15.3	6.05e-01	0	28	0	868745216	70	4747
2026-01-04 11:39:50.09	328.73	38.63	-51.3	-53.1	15.3	6.02e-01	0	28	0	876085248	70	4661
2026-01-04 11:39:54.06	329.09	37.49	-51.1	-52.8	15.3	6.04e-01	0	28	0	883949568	70	4538
2026-01-04 11:39:58.03	329.43	36.40	-50.8	-52.4	15.4	6.02e-01	0	28	0	891289600	70	4327
2026-01-04 11:40:02.02	329.74	35.33	-48.2	-51.9	14.9	6.03e-01	0	28	0	898629632	65	5421
2026-01-04 11:40:05.99	330.04	34.31	-49.7	-51.2	15.5	6.02e-01	0	28	0	905969664	68	4221
2026-01-04 11:40:09.98	330.32	33.31	-49.7	-51.2	15.5	6.03e-01	0	28	0	913309696	68	4233
2026-01-04 11:40:13.95	330.59	32.36	-49.5	-51.0	15.6	6.04e-01	0	28	0	921174016	68	4141
2026-01-04 11:40:17.92	330.84	31.43	-49.3	-50.9	15.5	6.01e-01	0	28	0	928514048	67	4293
2026-01-04 11:40:21.89	331.07	30.54	-49.2	-50.7	15.5	6.03e-01	0	28	0	935854080	67	4205
2026-01-04 11:40:25.87	331.30	29.67	-49.5	-51.0	15.5	6.01e-01	0	28	0	943194112	67	4353
2026-01-04 11:40:29.84	331.51	28.83	-49.7	-51.3	15.4	6.04e-01	0	28	0	950534144	67	4495
2026-01-04 11:40:33.83	331.72	28.01	-49.7	-51.2	15.4	6.02e-01	0	28	0	958398464	67	4491
2026-01-04 11:40:37.80	331.91	27.22	-49.7	-51.3	15.4	6.03e-01	0	28	0	965738496	67	4502
2026-01-04 11:40:41.77	332.09	26.45	-50.1	-51.7	15.3	6.01e-01	0	28	0	973078528	67	4720
2026-01-04 11:40:45.74	332.27	25.71	-50.3	-51.9	15.4	6.05e-01	0	28	0	980418560	68	4583
2026-01-04 11:40:49.71	332.44	24.99	-50.2	-51.8	15.4	6.01e-01	0	28	0	988282880	68	4532
2026-01-04 11:40:53.69	332.60	24.29	-50.2	-51.8	15.4	6.03e-01	0	28	0	995622912	68	4521
2026-01-04 11:40:57.66	332.76	23.61	-50.4	-52.0	15.3	6.02e-01	0	28	0	1002962944	68	4638
2026-01-04 11:41:01.62	332.91	22.95	-50.5	-52.1	15.3	6.03e-01	0	28	0	1010302976	68	4698
2026-01-04 11:41:05.61	333.05	22.30	-50.4	-52.1	15.3	6.01e-01	0	28	0	1017643008	68	4671
2026-01-04 11:41:09.58	333.19	21.67	-50.2	-51.9	15.4	6.03e-01	0	28	0	1025507328	68	4556
2026-01-04 11:41:13.53	333.33	21.06	-50.2	-51.8	15.3	6.04e-01	0	28	0	1032847360	68	4516
2026-01-04 11:41:17.51	333.45	20.47	-50.1	-51.7	15.4	6.02e-01	0	28	0	1040187392	68	4446
2026-01-04 11:41:21.49	333.58	19.88	-50.0	-51.6	15.4	6.03e-01	0	28	0	1047527424	68	4415
2026-01-04 11:41:25.48	333.70	19.32	-49.9	-51.5	15.4	6.04e-01	0	28	0	1054867456	68	4357
2026-01-04 11:41:29.44	333.82	18.76	-49.9	-51.4	15.5	6.02e-01	0	28	0	1062731776	68	4339
2026-01-04 11:41:33.41	333.93	18.23	-49.8	-51.4	15.5	6.02e-01	0	28	0	1070071808	68	4293
2026-01-04 11:41:37.39	334.04	17.70	-49.8	-51.4	15.5	6.01e-01	0	28	0	1077411840	68	4298
2026-01-04 11:41:41.37	334.15	17.18	-49.8	-51.4	15.5	6.05e-01	0	28	0	1084751872	68	4299
2026-01-04 11:41:45.36	334.25	16.68	-49.9	-51.5	15.4	6.03e-01	0	28	0	1092616192	68	4370
2026-01-04 11:41:49.33	334.35	16.19	-49.9	-51.6	15.4	6.05e-01	0	28	0	1099956224	68	4407
2026-01-04 11:41:53.30	334.45	15.71	-50.1	-51.7	15.4	6.03e-01	0	28	0	1107296256	68	4472
2026-01-04 11:41:57.27	334.54	15.24	-50.0	-51.6	15.4	6.04e-01	0	28	0	1114636288	68	4424
2026-01-04 11:42:01.25	334.63	14.77	-49.9	-51.5	15.4	6.02e-01	0	28	0	1121976320	68	4366
2026-01-04 11:42:05.22	334.72	14.32	-50.0	-51.7	15.4	6.03e-01	0	28	0	1129840640	68	4444
2026-01-04 11:42:09.20	334.81	13.88	-50.0	-51.6	15.4	6.00e-01	0	28	0	1137180672	68	4424
2026-01-04 11:42:13.17	334.90	13.45	-49.9	-51.5	15.4	6.05e-01	0	28	0	1144520704	68	4380
2026-01-04 11:42:17.15	334.98	13.02	-49.9	-51.6	15.4	6.04e-01	0	28	0	1151860736	68	4399
2026-01-04 11:42:21.12	335.06	12.60	-50.0	-51.7	15.4	6.04e-01	0	28	0	1159200768	68	4464
2026-01-04 11:42:25.08	335.14	12.19	-50.0	-51.7	15.4	6.02e-01	0	28	0	1167065088	68	4451
2026-01-04 11:42:29.05	335.22	11.79	-50.1	-51.8	15.4	6.02e-01	0	28	0	1174405120	68	4529
2026-01-04 11:42:33.04	335.29	11.40	-50.3	-52.0	15.3	6.02e-01	0	28	0	1181745152	68	4615
2026-01-04 11:42:37.01	335.37	11.01	-50.3	-52.0	15.3	6.02e-01	0	28	0	1189085184	68	4615
2026-01-04 11:42:40.97	335.44	10.63	-50.3	-52.1	15.3	6.03e-01	0	28	0	1196425216	68	4665
2026-01-04 11:42:44.96	335.51	10.25	-50.4	-52.1	15.3	6.04e-01	0	28	0	1204289536	68	4693
2026-01-04 11:42:48.93	335.58	9.88	-50.5	-52.2	15.3	6.03e-01	0	28	0	1211629568	68	4749
2026-01-04 11:42:52.91	335.65	9.52	-50.5	-52.3	15.2	6.03e-01	0	28	0	1218969600	68	4792
2026-01-04 11:42:56.90	335.71	9.16	-50.5	-52.3	15.2	6.02e-01	0	28	0	1226309632	68	4811
2026-01-04 11:43:00.87	335.78	8.81	-50.6	-52.4	15.3	6.03e-01	0	28	0	1234173952	69	4584
2026-01-04 11:43:04.84	335.84	8.47	-50.7	-52.5	15.3	6.02e-01	0	28	0	1241513984	69	4639
2026-01-04 11:43:08.81	335.91	8.13	-50.7	-52.5	15.3	6.03e-01	0	28	0	1248854016	69	4640
2026-01-04 11:43:12.79	335.97	7.79	-50.8	-52.7	15.2	6.02e-01	0	28	0	1256194048	69	4716
2026-01-04 11:43:16.76	336.03	7.46	-51.0	-52.9	15.1	6.03e-01	0	28	0	1263534080	69	4851
2026-01-04 11:43:20.74	336.09	7.13	-51.1	-53.0	15.1	6.04e-01	0	28	0	1271398400	69	4917
2026-01-04 11:43:24.73	336.15	6.81	-51.1	-53.1	15.2	6.02e-01	0	28	0	1278738432	70	4660
2026-01-04 11:43:28.70	336.21	6.49	-51.3	-53.3	15.1	6.02e-01	0	28	0	1286078464	70	4800
2026-01-04 11:43:32.67	336.26	6.18	-51.2	-53.2	15.2	6.02e-01	0	28	0	1293418496	70	4726
2026-01-04 11:43:36.65	336.32	5.87	-51.4	-53.4	15.1	6.03e-01	0	28	0	1300758528	70	4859
2026-01-04 11:43:40.62	336.37	5.57	-51.5	-53.5	15.1	6.03e-01	0	28	0	1308622848	70	4926
2026-01-04 11:43:44.61	336.43	5.26	-51.6	-53.7	15.0	6.03e-01	0	28	0	1315962880	70	5005
2026-01-04 11:43:48.60	336.48	4.97	-56.0	-60.9	13.4	6.01e-01	0	28	0	1323302912	79	6802
2026-01-04 11:43:52.59	336.54	4.67	-60.0	-79.4	3.8	7.46e-01	0	28	104	1324351488	87	36178
2026-01-04 11:43:56.57	336.59	4.38	-60.5	-79.9	3.8	7.48e-01	0	28	104	1324351488	88	36369
2026-01-04 11:44:00.59	336.64	4.09	-60.7	-80.1	3.8	7.49e-01	0	28	104	1324351488	89	35120
2026-01-04 11:44:04.59	336.69	3.81	-60.8	-80.2	3.8	7.46e-01	0	28	104	1324351488	89	35507
2026-01-04 11:44:08.60	336.74	3.52	-60.9	-80.3	3.9	7.49e-01	0	28	104	1324351488	89	35729
2026-01-04 11:44:12.59	336.79	3.25	-60.8	-80.2	3.8	7.46e-01	0	29	104	1324351488	89	35381
2026-01-04 11:44:16.56	336.84	2.97	-60.7	-80.1	3.8	7.46e-01	0	28	104	1324351488	89	35179
2026-01-04 11:44:20.52	336.89	2.70	-60.7	-80.1	3.8	7.46e-01	0	28	104	1324351488	89	34966
2026-01-04 11:44:24.50	336.93	2.44	-60.7	-80.0	3.8	7.48e-01	0	29	104	1324351488	89	34875
2026-01-04 11:44:28.47	336.98	2.17	-60.6	-80.0	3.8	7.47e-01	0	28	104	1324351488	89	34739

#Closed at: 2026-01-04 11:44:31
#Recorded file [1324 MB]: D:/lorett/data/31004_260104_143141.dat