passes_logs/2026/01/04/R3.2S_Murmansk/R3.2S_Murmansk__20260104_032849_AQUA_rec.log

#Pass ID: 20260104_032849_AQUA
#Satellite: AQUA
#Configuration: AQUA
#almurnet v.1.7.20251203
#Start time: 2026-01-04 03:28:49

#Version: 2.2.20231116
#Station: R3.2S_Murmansk
#Location: 33.079688 lon 68.888172 lat
#TLE: 1 27424U 02022A   25365.92641127  .00002078  00000+0  42628-3 0  9999
#TLE: 2 27424  98.4058 327.1196 0001962  94.7781 340.6230 14.61783896258835

#Time	Az	El	Level	Level2	SNR	BER	BlckErr	Temp	State	Recorded	gain1	gain2
2026-01-04 03:28:49.48	27.71	1.98	-58.1	-77.4	3.8	7.47e-01	0	26	0	0	85	32550
2026-01-04 03:28:52.49	27.61	2.18	-57.9	-77.3	3.8	7.47e-01	0	27	104	0	83	35944
2026-01-04 03:28:55.49	27.51	2.37	-57.9	-77.3	3.8	7.51e-01	0	27	104	0	83	35794
2026-01-04 03:28:58.48	27.41	2.57	-57.9	-77.3	3.8	7.47e-01	0	27	104	0	83	35733
2026-01-04 03:29:01.47	27.31	2.77	-57.9	-77.2	3.8	7.47e-01	0	27	104	0	83	35681
2026-01-04 03:29:04.46	27.21	2.97	-57.9	-77.2	3.8	7.48e-01	0	27	104	0	83	35679
2026-01-04 03:29:07.46	27.11	3.17	-57.9	-77.3	3.8	7.47e-01	0	27	104	0	83	35793
2026-01-04 03:29:10.44	27.00	3.37	-57.9	-77.3	3.8	7.49e-01	0	27	104	0	83	35874
2026-01-04 03:29:13.44	26.89	3.57	-57.9	-77.2	3.8	7.48e-01	0	27	104	0	83	35553
2026-01-04 03:29:16.44	26.79	3.78	-57.9	-77.0	3.8	7.47e-01	0	27	104	0	83	34679
2026-01-04 03:29:19.44	26.67	3.99	-57.8	-76.7	3.8	7.47e-01	0	27	104	0	83	33447
2026-01-04 03:29:22.43	26.56	4.20	-57.8	-76.4	3.8	7.42e-01	0	27	104	0	83	32550
2026-01-04 03:29:25.43	26.45	4.41	-57.7	-76.0	3.8	7.47e-01	0	27	104	0	83	30957
2026-01-04 03:29:28.44	26.33	4.62	-57.3	-74.1	3.8	7.47e-01	0	27	104	0	83	24828
2026-01-04 03:29:31.43	26.21	4.84	-56.7	-71.9	3.8	7.45e-01	0	28	104	0	82	20537
2026-01-04 03:29:34.43	26.09	5.06	-56.8	-71.7	3.8	7.48e-01	0	27	104	0	81	21150
2026-01-04 03:29:37.43	25.96	5.28	-57.0	-72.4	3.9	7.46e-01	0	28	104	0	82	21510
2026-01-04 03:29:40.43	25.84	5.50	-53.3	-65.5	3.8	7.45e-01	0	27	104	0	75	14583
2026-01-04 03:29:43.41	25.71	5.72	-52.0	-63.8	3.8	7.43e-01	0	27	104	0	72	14226
2026-01-04 03:29:46.40	25.58	5.94	-55.3	-68.7	3.9	7.46e-01	0	28	104	0	80	15776
2026-01-04 03:29:49.40	25.45	6.17	-52.8	-64.8	3.8	7.47e-01	0	28	104	0	74	14295
2026-01-04 03:29:52.39	25.31	6.40	-55.1	-68.1	3.8	7.47e-01	0	28	104	0	77	17597
2026-01-04 03:29:55.38	25.17	6.63	-53.5	-65.7	3.9	7.44e-01	0	27	104	0	75	15047
2026-01-04 03:29:58.38	25.03	6.86	-52.4	-64.4	3.8	7.44e-01	0	27	104	0	74	13596
2026-01-04 03:30:01.37	24.89	7.09	-57.1	-72.3	3.9	7.45e-01	0	28	104	0	83	20098
2026-01-04 03:30:04.36	24.74	7.33	-52.6	-64.5	3.9	7.44e-01	0	28	104	0	74	13765
2026-01-04 03:30:07.34	24.60	7.57	-52.6	-64.6	3.9	7.45e-01	0	28	104	0	72	15592
2026-01-04 03:30:10.33	24.45	7.81	-55.9	-69.7	3.9	7.45e-01	0	28	104	0	81	16704
2026-01-04 03:30:13.32	24.29	8.05	-52.0	-63.8	3.9	7.43e-01	0	28	104	0	73	13500
2026-01-04 03:30:16.31	24.13	8.30	-54.0	-66.3	3.8	7.47e-01	0	28	104	0	75	16116
2026-01-04 03:30:19.29	23.97	8.55	-52.9	-64.9	3.9	7.46e-01	0	28	104	0	73	15366
2026-01-04 03:30:22.29	23.81	8.80	-51.7	-63.3	3.8	7.48e-01	0	28	104	0	72	13514
2026-01-04 03:30:25.28	23.64	9.05	-57.2	-72.2	3.9	7.46e-01	0	28	104	0	83	20013
2026-01-04 03:30:28.26	23.47	9.31	-52.0	-63.7	3.8	7.49e-01	0	28	104	0	73	13379
2026-01-04 03:30:31.26	23.30	9.57	-51.6	-63.3	3.9	7.48e-01	0	28	104	0	71	14226
2026-01-04 03:30:34.25	23.12	9.83	-57.7	-73.1	4.0	7.46e-01	0	28	104	0	84	20938
2026-01-04 03:30:37.24	22.94	10.09	-51.5	-63.0	3.9	7.47e-01	0	28	104	0	72	13095
2026-01-04 03:30:40.24	22.75	10.36	-53.6	-65.6	3.9	7.45e-01	0	28	104	0	74	15677
2026-01-04 03:30:43.24	22.56	10.63	-52.4	-64.2	3.9	7.48e-01	0	28	104	0	72	14904
2026-01-04 03:30:46.24	22.37	10.91	-50.7	-62.1	3.9	7.42e-01	0	28	104	0	70	13254
2026-01-04 03:30:49.25	22.17	11.19	-57.3	-72.3	3.9	7.45e-01	0	28	104	0	83	20207
2026-01-04 03:30:52.26	21.97	11.47	-51.5	-63.1	3.9	7.46e-01	0	28	104	0	72	13127
2026-01-04 03:30:55.25	21.76	11.75	-51.0	-62.5	3.8	7.46e-01	0	28	104	0	70	13839
2026-01-04 03:30:58.24	21.55	12.04	-57.7	-72.8	4.0	7.45e-01	0	28	104	0	84	20277
2026-01-04 03:31:01.24	21.33	12.33	-50.7	-62.1	3.9	7.46e-01	0	28	104	0	70	13125
2026-01-04 03:31:04.23	21.11	12.62	-53.2	-65.4	3.8	7.45e-01	0	28	104	0	74	15344
2026-01-04 03:31:07.21	20.89	12.92	-51.6	-63.2	3.9	7.45e-01	0	28	104	0	71	14148
2026-01-04 03:31:10.21	20.65	13.22	-50.3	-61.6	3.9	7.46e-01	0	28	104	0	69	13260
2026-01-04 03:31:13.19	20.42	13.52	-57.4	-72.4	3.9	7.43e-01	0	28	104	0	83	20421
2026-01-04 03:31:16.18	20.18	13.83	-51.0	-62.4	3.9	7.47e-01	0	28	104	0	71	12958
2026-01-04 03:31:19.21	19.93	14.15	-50.4	-61.7	3.9	7.45e-01	0	28	104	0	69	13356
2026-01-04 03:31:22.20	19.67	14.46	-58.7	-76.1	3.9	7.42e-01	0	28	104	0	85	27796
2026-01-04 03:31:25.20	19.41	14.78	-50.7	-62.1	3.9	7.44e-01	0	28	104	0	70	13204
2026-01-04 03:31:28.19	19.15	15.11	-52.8	-64.5	3.8	7.48e-01	0	28	104	0	73	14698
2026-01-04 03:31:31.18	18.87	15.44	-51.3	-62.8	3.9	7.48e-01	0	28	104	0	71	13479
2026-01-04 03:31:34.17	18.60	15.77	-50.2	-61.5	3.9	7.45e-01	0	28	104	0	69	13086
2026-01-04 03:31:37.17	18.31	16.11	-57.6	-72.6	3.9	7.44e-01	0	28	104	0	83	20783
2026-01-04 03:31:40.18	18.01	16.45	-50.8	-62.2	3.9	7.43e-01	0	28	104	0	70	13263
2026-01-04 03:31:43.18	17.71	16.80	-49.7	-61.0	3.8	7.51e-01	0	28	104	0	68	13054
2026-01-04 03:31:46.17	17.40	17.15	-58.9	-76.4	3.9	7.42e-01	0	28	104	0	86	27202
2026-01-04 03:31:49.16	17.08	17.50	-50.4	-61.7	3.8	7.45e-01	0	28	104	0	70	12592
2026-01-04 03:31:52.15	16.76	17.86	-52.5	-64.1	3.8	7.46e-01	0	28	104	0	72	14860
2026-01-04 03:31:55.15	16.42	18.23	-51.0	-62.4	3.8	7.47e-01	0	28	104	0	70	13644
2026-01-04 03:31:58.15	16.08	18.60	-50.2	-61.4	3.8	7.45e-01	0	28	104	0	69	12959
2026-01-04 03:32:01.15	15.73	18.98	-57.8	-73.0	3.8	7.46e-01	0	29	104	0	83	21924
2026-01-04 03:32:04.14	15.37	19.36	-50.6	-62.1	3.8	7.44e-01	0	28	104	0	70	13112
2026-01-04 03:32:07.15	14.99	19.75	-50.2	-61.6	3.8	7.49e-01	0	28	104	0	69	13129
2026-01-04 03:32:10.14	14.61	20.14	-59.2	-77.6	3.8	7.44e-01	0	28	104	0	86	31263
2026-01-04 03:32:13.15	14.21	20.54	-50.8	-62.2	3.8	7.46e-01	0	28	104	0	70	13372
2026-01-04 03:32:16.13	13.81	20.94	-55.0	-67.5	3.9	7.47e-01	0	28	104	0	77	16350
2026-01-04 03:32:19.11	13.40	21.34	-57.8	-72.7	3.8	7.46e-01	0	28	104	0	83	21184
2026-01-04 03:32:22.10	12.97	21.76	-51.0	-62.4	3.9	7.42e-01	0	29	104	0	71	12931
2026-01-04 03:32:25.08	12.53	22.17	-58.3	-73.7	3.8	7.43e-01	0	28	104	0	84	22433
2026-01-04 03:32:28.08	12.08	22.60	-50.8	-62.1	3.8	7.44e-01	0	28	104	0	70	13207
2026-01-04 03:32:31.06	11.61	23.03	-51.7	-63.2	3.8	7.43e-01	0	29	104	0	71	14166
2026-01-04 03:32:34.06	11.13	23.47	-59.4	-78.1	3.8	7.43e-01	0	29	104	0	86	33232
2026-01-04 03:32:37.04	10.63	23.91	-50.7	-62.0	3.9	7.47e-01	0	29	104	0	70	13104
2026-01-04 03:32:40.03	10.12	24.35	-53.3	-65.1	3.8	7.46e-01	0	28	104	0	74	14844
2026-01-04 03:32:43.04	9.59	24.81	-51.4	-62.8	3.9	7.43e-01	0	29	104	0	71	13516
2026-01-04 03:32:46.04	9.05	25.27	-50.7	-62.1	3.9	7.45e-01	0	29	104	0	70	13151
2026-01-04 03:32:49.03	8.49	25.74	-58.4	-73.8	3.8	7.48e-01	0	29	104	0	84	22558
2026-01-04 03:32:52.02	7.91	26.21	-50.8	-62.1	3.8	7.46e-01	0	28	104	0	70	13242
2026-01-04 03:32:55.02	7.31	26.69	-50.4	-61.7	3.8	7.46e-01	0	29	104	0	69	13357
2026-01-04 03:32:58.01	6.69	27.17	-59.5	-78.1	3.8	7.44e-01	0	28	104	0	86	33236
2026-01-04 03:33:01.01	6.06	27.66	-50.8	-62.1	3.9	7.46e-01	0	29	104	0	70	13165
2026-01-04 03:33:04.00	5.40	28.16	-52.8	-64.6	3.8	7.47e-01	0	28	104	0	73	14748
2026-01-04 03:33:07.00	4.72	28.66	-50.6	-61.9	3.8	7.46e-01	0	29	104	0	70	12931
2026-01-04 03:33:09.99	4.01	29.17	-50.3	-61.5	3.9	7.44e-01	0	28	104	0	69	13045
2026-01-04 03:33:12.98	3.29	29.68	-59.2	-76.0	3.9	7.43e-01	0	29	104	0	86	25970
2026-01-04 03:33:15.96	2.54	30.19	-50.0	-61.3	3.9	7.41e-01	0	29	104	0	69	12673
2026-01-04 03:33:18.94	1.77	30.71	-57.7	-72.0	3.8	7.48e-01	0	29	104	0	83	19443
2026-01-04 03:33:21.93	0.97	31.23	-59.7	-78.2	3.8	7.46e-01	0	29	104	0	87	31778
2026-01-04 03:33:24.93	0.13	31.76	-49.9	-61.2	3.8	7.46e-01	0	29	104	0	69	12563
2026-01-04 03:33:27.93	359.27	32.29	-52.8	-64.5	3.8	7.47e-01	0	29	104	0	73	14660
2026-01-04 03:33:30.92	358.38	32.82	-50.6	-61.9	3.8	7.42e-01	0	29	104	0	70	12915
2026-01-04 03:33:33.91	357.46	33.36	-50.0	-61.3	3.9	7.45e-01	0	29	104	0	69	12715
2026-01-04 03:33:36.91	356.51	33.90	-58.7	-74.0	3.8	7.44e-01	0	29	104	0	85	21800
2026-01-04 03:33:39.92	355.52	34.44	-50.9	-62.2	3.8	7.45e-01	0	28	104	0	70	13383
2026-01-04 03:33:42.92	354.50	34.98	-51.3	-62.6	3.8	7.45e-01	0	29	104	0	70	14006
2026-01-04 03:33:45.91	353.44	35.51	-59.9	-78.4	3.8	7.47e-01	0	29	104	0	87	32405
2026-01-04 03:33:48.89	352.36	36.05	-51.3	-62.7	3.8	7.44e-01	0	29	104	0	71	13339
2026-01-04 03:33:51.89	351.22	36.58	-54.4	-66.5	3.8	7.45e-01	0	29	104	0	76	15441
2026-01-04 03:33:54.88	350.06	37.11	-51.9	-63.3	3.8	7.46e-01	0	29	104	0	72	13443
2026-01-04 03:33:57.87	348.85	37.63	-51.5	-62.9	3.8	7.47e-01	0	29	104	0	72	12868
2026-01-04 03:34:00.86	347.60	38.15	-59.3	-75.5	3.8	7.49e-01	0	29	104	0	86	24527
2026-01-04 03:34:03.86	346.31	38.66	-51.7	-63.1	3.9	7.45e-01	0	29	104	0	72	13200
2026-01-04 03:34:06.85	344.98	39.16	-53.3	-65.0	3.8	7.42e-01	0	28	104	0	74	14613
2026-01-04 03:34:09.84	343.61	39.65	-51.8	-63.0	3.8	7.43e-01	0	29	104	0	72	12961
2026-01-04 03:34:12.84	342.19	40.13	-52.0	-63.5	3.8	7.45e-01	0	29	104	0	73	13081
2026-01-04 03:34:15.83	340.73	40.60	-55.3	-67.5	3.9	7.44e-01	0	29	104	0	79	14598
2026-01-04 03:34:18.83	339.23	41.05	-51.7	-63.1	3.8	7.50e-01	0	29	104	0	72	13187
2026-01-04 03:34:21.82	337.69	41.48	-51.5	-62.8	3.8	7.47e-01	0	29	104	0	72	12789
2026-01-04 03:34:24.81	336.10	41.90	-59.3	-67.1	10.5	6.12e-01	0	29	0	1048576	86	9385
2026-01-04 03:34:27.80	334.47	42.29	-51.3	-53.0	15.6	6.02e-01	0	29	0	5242880	71	4344
2026-01-04 03:34:30.78	332.81	42.66	-51.1	-52.8	15.6	6.00e-01	0	29	0	10485760	71	4265
2026-01-04 03:34:33.78	331.10	43.01	-51.3	-53.0	15.5	6.03e-01	0	29	0	16252928	70	4603
2026-01-04 03:34:36.77	329.36	43.34	-51.0	-52.6	15.5	6.00e-01	0	29	0	22020096	70	4429
2026-01-04 03:34:39.77	327.57	43.63	-51.2	-52.9	15.5	6.01e-01	0	29	0	27787264	70	4562
2026-01-04 03:34:42.77	325.76	43.90	-51.0	-52.7	15.6	6.02e-01	0	29	0	33030144	70	4448
2026-01-04 03:34:45.77	323.91	44.14	-50.9	-52.5	15.6	6.01e-01	0	29	0	38797312	70	4386
2026-01-04 03:34:48.77	322.04	44.34	-51.3	-53.0	15.5	6.01e-01	0	29	0	44564480	70	4603
2026-01-04 03:34:51.76	320.15	44.51	-51.0	-52.7	15.5	6.03e-01	0	28	0	49807360	70	4446
2026-01-04 03:34:54.77	318.23	44.65	-50.9	-52.6	15.6	5.99e-01	0	29	0	55574528	70	4402
2026-01-04 03:34:57.77	316.31	44.75	-51.1	-52.8	15.5	6.00e-01	0	29	0	61341696	70	4504
2026-01-04 03:35:00.77	314.37	44.82	-50.9	-52.5	15.6	6.03e-01	0	29	0	67108864	70	4372
2026-01-04 03:35:03.77	312.42	44.85	-50.9	-52.5	15.6	5.99e-01	0	29	0	72351744	70	4371
2026-01-04 03:35:06.77	310.48	44.84	-50.8	-52.4	15.6	6.02e-01	0	29	0	78118912	70	4317
2026-01-04 03:35:09.76	308.54	44.80	-51.5	-53.2	15.4	6.01e-01	0	29	0	83886080	70	4731
2026-01-04 03:35:12.77	306.60	44.72	-51.2	-52.9	15.5	6.00e-01	0	29	0	89653248	70	4573
2026-01-04 03:35:15.76	304.68	44.61	-51.1	-52.8	15.5	6.00e-01	0	29	0	94896128	70	4497
2026-01-04 03:35:18.75	302.78	44.46	-51.1	-52.7	15.6	5.99e-01	0	29	0	100663296	70	4461
2026-01-04 03:35:21.75	300.89	44.28	-51.1	-52.7	15.6	6.02e-01	0	29	0	106430464	70	4481
2026-01-04 03:35:24.74	299.03	44.07	-51.0	-52.7	15.6	6.01e-01	0	29	0	111673344	70	4455
2026-01-04 03:35:27.73	297.20	43.82	-50.6	-52.1	15.7	6.00e-01	0	29	0	117440512	70	4174
2026-01-04 03:35:30.72	295.39	43.55	-50.7	-52.3	15.5	6.01e-01	0	29	0	123207680	69	4523
2026-01-04 03:35:33.72	293.62	43.24	-51.1	-52.7	15.5	6.01e-01	0	29	0	128974848	69	4738
2026-01-04 03:35:36.72	291.88	42.91	-50.0	-51.5	15.7	6.00e-01	0	29	0	134217728	69	4120
2026-01-04 03:35:39.73	290.17	42.55	-50.7	-52.3	15.6	6.02e-01	0	29	0	139984896	70	4254
2026-01-04 03:35:42.71	288.52	42.17	-51.3	-53.1	15.5	6.01e-01	0	29	0	145752064	70	4668
2026-01-04 03:35:45.71	286.90	41.77	-50.1	-51.6	15.7	6.00e-01	0	29	0	150994944	69	4163
2026-01-04 03:35:48.70	285.32	41.35	-51.8	-53.6	15.3	6.03e-01	0	29	0	156762112	71	4700
2026-01-04 03:35:51.69	283.79	40.91	-51.3	-53.0	15.4	6.01e-01	0	29	0	162529280	71	4353
2026-01-04 03:35:54.68	282.30	40.45	-50.5	-52.0	15.7	6.01e-01	0	29	0	167772160	70	4131
2026-01-04 03:35:57.68	280.85	39.98	-51.3	-53.0	15.5	6.03e-01	0	29	0	173539328	70	4627
2026-01-04 03:36:00.68	279.44	39.49	-51.7	-53.5	15.5	6.02e-01	0	29	0	179306496	71	4628
2026-01-04 03:36:03.69	278.07	38.99	-51.5	-53.2	15.5	6.03e-01	0	29	0	185073664	71	4481
2026-01-04 03:36:06.68	276.75	38.49	-51.6	-53.3	15.5	6.00e-01	0	29	0	190316544	72	4285
2026-01-04 03:36:09.68	275.47	37.97	-52.1	-53.9	15.3	6.03e-01	0	29	0	196083712	71	4864
2026-01-04 03:36:12.67	274.24	37.45	-52.7	-54.7	15.2	6.00e-01	0	28	0	201850880	73	4731
2026-01-04 03:36:15.67	273.04	36.92	-52.8	-54.8	15.3	6.02e-01	0	29	0	207618048	73	4777
2026-01-04 03:36:18.68	271.87	36.39	-52.9	-54.9	15.3	6.02e-01	0	29	0	212860928	73	4832
2026-01-04 03:36:21.66	270.76	35.85	-53.2	-55.2	15.3	6.00e-01	0	29	0	218628096	74	4731
2026-01-04 03:36:24.63	269.69	35.32	-52.6	-54.5	15.5	6.01e-01	0	29	0	224395264	74	4374
2026-01-04 03:36:27.61	268.64	34.78	-51.6	-53.4	15.6	5.99e-01	0	29	0	229638144	72	4307
2026-01-04 03:36:30.59	267.64	34.25	-51.4	-53.1	15.6	6.01e-01	0	29	0	235405312	72	4183
2026-01-04 03:36:33.58	266.66	33.71	-51.1	-52.7	15.7	6.01e-01	0	29	0	241172480	71	4233
2026-01-04 03:36:36.57	265.72	33.17	-51.2	-52.9	15.6	6.00e-01	0	29	0	246415360	71	4316
2026-01-04 03:36:39.56	264.81	32.64	-50.9	-52.6	15.7	6.02e-01	0	29	0	252182528	71	4152
2026-01-04 03:36:42.55	263.92	32.10	-51.0	-52.7	15.5	6.01e-01	0	29	0	257949696	70	4486
2026-01-04 03:36:45.55	263.07	31.57	-50.7	-52.3	15.6	6.00e-01	0	29	0	263192576	70	4290
2026-01-04 03:36:48.55	262.24	31.04	-50.3	-51.8	15.7	5.98e-01	0	29	0	268959744	69	4278
2026-01-04 03:36:51.54	261.45	30.52	-51.1	-52.8	15.4	5.99e-01	0	29	0	274726912	69	4781
2026-01-04 03:36:54.54	260.68	30.00	-50.5	-52.1	15.6	6.01e-01	0	29	0	279969792	69	4417
2026-01-04 03:36:57.53	259.93	29.48	-50.6	-52.3	15.6	6.02e-01	0	29	0	285736960	69	4503
2026-01-04 03:37:00.53	259.21	28.97	-50.4	-52.0	15.6	6.01e-01	0	29	0	291504128	69	4387
2026-01-04 03:37:03.54	258.51	28.46	-50.6	-52.2	15.6	6.01e-01	0	29	0	297271296	69	4450
2026-01-04 03:37:06.52	257.84	27.96	-51.0	-52.6	15.5	6.00e-01	0	29	0	302514176	69	4704
2026-01-04 03:37:09.52	257.18	27.47	-50.8	-52.4	15.5	6.00e-01	0	29	0	308281344	69	4584
2026-01-04 03:37:12.51	256.55	26.98	-50.8	-52.5	15.5	6.01e-01	0	29	0	314048512	69	4614
2026-01-04 03:37:15.51	255.94	26.49	-50.8	-52.5	15.5	6.01e-01	0	29	0	319815680	69	4639
2026-01-04 03:37:18.51	255.34	26.02	-51.0	-52.7	15.5	6.00e-01	0	29	0	325058560	69	4712
2026-01-04 03:37:21.50	254.77	25.54	-50.7	-52.4	15.5	5.99e-01	0	29	0	330825728	69	4579
2026-01-04 03:37:24.49	254.21	25.08	-50.7	-52.4	15.5	6.00e-01	0	29	0	336592896	69	4547
2026-01-04 03:37:27.49	253.67	24.62	-50.9	-52.6	15.5	6.00e-01	0	29	0	341835776	69	4700
2026-01-04 03:37:30.47	253.15	24.17	-50.9	-52.6	15.5	6.02e-01	0	29	0	347602944	69	4652
2026-01-04 03:37:33.47	252.64	23.72	-50.7	-52.3	15.5	6.02e-01	0	29	0	353370112	69	4528
2026-01-04 03:37:36.46	252.15	23.27	-50.9	-52.6	15.5	5.99e-01	0	29	0	358612992	69	4662
2026-01-04 03:37:39.46	251.67	22.84	-50.6	-52.2	15.5	6.01e-01	0	29	0	364380160	69	4466
2026-01-04 03:37:42.46	251.20	22.41	-50.7	-52.4	15.5	5.98e-01	0	29	0	370147328	69	4557
2026-01-04 03:37:45.46	250.75	21.98	-50.7	-52.4	15.5	5.99e-01	0	29	0	375914496	69	4573
2026-01-04 03:37:48.45	250.31	21.56	-50.8	-52.4	15.5	6.00e-01	0	29	0	381157376	69	4597
2026-01-04 03:37:51.45	249.89	21.15	-50.7	-52.4	15.5	6.02e-01	0	29	0	386924544	69	4553
2026-01-04 03:37:54.44	249.47	20.74	-50.7	-52.4	15.5	6.00e-01	0	29	0	392691712	69	4568
2026-01-04 03:37:57.44	249.07	20.34	-50.6	-52.3	15.5	6.01e-01	0	29	0	397934592	69	4524
2026-01-04 03:38:00.43	248.68	19.94	-50.5	-52.2	15.5	6.00e-01	0	29	0	403701760	69	4451
2026-01-04 03:38:03.42	248.30	19.55	-50.7	-52.4	15.5	6.02e-01	0	29	0	409468928	69	4550
2026-01-04 03:38:06.41	247.93	19.17	-50.6	-52.3	15.5	6.01e-01	0	29	0	415236096	69	4522
2026-01-04 03:38:09.41	247.57	18.79	-50.5	-52.1	15.6	5.99e-01	0	29	0	420478976	69	4439
2026-01-04 03:38:12.40	247.22	18.41	-50.8	-52.5	15.5	6.04e-01	0	29	0	426246144	69	4625
2026-01-04 03:38:15.40	246.88	18.04	-50.8	-52.5	15.5	5.98e-01	0	29	0	432013312	69	4647
2026-01-04 03:38:18.38	246.54	17.68	-50.5	-52.2	15.6	6.03e-01	0	29	0	437256192	69	4456
2026-01-04 03:38:21.38	246.22	17.32	-50.5	-52.1	15.6	6.00e-01	0	29	0	443023360	69	4417
2026-01-04 03:38:24.37	245.90	16.96	-50.5	-52.2	15.6	6.00e-01	0	29	0	448790528	69	4463
2026-01-04 03:38:27.37	245.59	16.61	-50.6	-52.3	15.5	6.00e-01	0	29	0	454557696	69	4505
2026-01-04 03:38:30.36	245.29	16.27	-50.6	-52.2	15.5	5.98e-01	0	29	0	459800576	69	4487
2026-01-04 03:38:33.35	245.00	15.93	-50.4	-52.1	15.6	6.02e-01	0	29	0	465567744	69	4417
2026-01-04 03:38:36.35	244.72	15.59	-50.6	-52.3	15.5	6.05e-01	0	29	0	471334912	69	4528
2026-01-04 03:38:39.35	244.44	15.26	-50.8	-52.5	15.5	6.00e-01	0	29	0	476577792	69	4624
2026-01-04 03:38:42.35	244.16	14.93	-50.8	-52.5	15.5	6.00e-01	0	29	0	482344960	69	4623
2026-01-04 03:38:45.35	243.90	14.60	-50.6	-52.4	15.5	6.01e-01	0	29	0	488112128	69	4549
2026-01-04 03:38:48.34	243.64	14.29	-50.7	-52.4	15.5	6.03e-01	0	29	0	493355008	69	4564
2026-01-04 03:38:51.33	243.39	13.97	-50.5	-52.2	15.6	6.01e-01	0	29	0	499122176	69	4459
2026-01-04 03:38:54.34	243.14	13.66	-50.6	-52.4	15.5	6.02e-01	0	29	0	504889344	69	4556
2026-01-04 03:38:57.33	242.90	13.35	-50.8	-52.5	15.5	6.03e-01	0	29	0	510656512	69	4651
2026-01-04 03:39:00.33	242.66	13.04	-50.9	-52.7	15.4	6.00e-01	0	29	0	515899392	69	4721
2026-01-04 03:39:03.33	242.43	12.74	-50.8	-52.5	15.4	6.00e-01	0	29	0	521666560	69	4645
2026-01-04 03:39:06.33	242.20	12.45	-50.7	-52.5	15.5	6.02e-01	0	29	0	527433728	69	4619
2026-01-04 03:39:09.33	241.98	12.15	-50.7	-52.4	15.5	6.01e-01	0	29	0	533200896	69	4560
2026-01-04 03:39:12.32	241.76	11.86	-50.7	-52.5	15.4	6.02e-01	0	29	0	538443776	69	4622
2026-01-04 03:39:15.32	241.55	11.58	-50.8	-52.5	15.5	6.02e-01	0	29	0	544210944	69	4650
2026-01-04 03:39:18.31	241.35	11.29	-50.9	-52.6	15.4	5.99e-01	0	29	0	549978112	69	4698
2026-01-04 03:39:21.30	241.14	11.01	-50.9	-52.6	15.4	6.01e-01	0	29	0	555220992	69	4685
2026-01-04 03:39:24.29	240.95	10.74	-50.9	-52.7	15.4	6.01e-01	0	29	0	560988160	69	4718
2026-01-04 03:39:27.27	240.75	10.47	-51.0	-52.8	15.4	6.02e-01	0	29	0	566755328	69	4799
2026-01-04 03:39:30.27	240.56	10.20	-51.1	-52.9	15.4	6.02e-01	0	29	0	571998208	69	4838
2026-01-04 03:39:33.26	240.38	9.93	-51.2	-53.1	15.4	6.00e-01	0	29	0	577765376	70	4662
2026-01-04 03:39:36.26	240.20	9.66	-51.2	-53.0	15.4	5.99e-01	0	29	0	583532544	70	4626
2026-01-04 03:39:39.26	240.02	9.40	-51.2	-53.0	15.4	6.02e-01	0	29	0	589299712	70	4622
2026-01-04 03:39:42.25	239.84	9.14	-51.3	-53.2	15.4	6.02e-01	0	29	0	594542592	70	4715
2026-01-04 03:39:45.26	239.67	8.88	-51.3	-53.2	15.4	6.00e-01	0	29	0	600309760	70	4708
2026-01-04 03:39:48.26	239.50	8.63	-51.3	-53.2	15.4	6.01e-01	0	29	0	606076928	70	4735
2026-01-04 03:39:51.25	239.34	8.38	-51.4	-53.3	15.4	6.00e-01	0	29	0	611319808	70	4773
2026-01-04 03:39:54.26	239.18	8.13	-51.3	-53.2	15.4	6.00e-01	0	29	0	617086976	70	4744
2026-01-04 03:39:57.26	239.02	7.88	-51.4	-53.3	15.3	5.99e-01	0	29	0	622854144	70	4801
2026-01-04 03:40:00.25	238.86	7.64	-51.4	-53.3	15.3	5.99e-01	0	29	0	628621312	70	4777
2026-01-04 03:40:03.24	238.71	7.40	-51.6	-53.5	15.3	6.01e-01	0	29	0	633864192	70	4917
2026-01-04 03:40:06.24	238.56	7.16	-51.6	-53.6	15.3	6.01e-01	0	29	0	639631360	71	4666
2026-01-04 03:40:09.23	238.41	6.92	-51.5	-53.5	15.4	6.00e-01	0	29	0	645398528	71	4632
2026-01-04 03:40:12.22	238.27	6.69	-51.6	-53.6	15.3	6.03e-01	0	29	0	650641408	71	4679
2026-01-04 03:40:15.22	238.13	6.46	-51.7	-53.8	15.3	6.00e-01	0	29	0	656408576	71	4794
2026-01-04 03:40:18.21	237.99	6.23	-51.9	-54.0	15.2	6.02e-01	0	29	0	662175744	71	4872
2026-01-04 03:40:21.20	237.85	6.00	-51.9	-54.0	15.2	6.00e-01	0	29	0	667418624	71	4912
2026-01-04 03:40:24.19	237.72	5.77	-51.9	-54.0	15.2	6.00e-01	0	29	0	673185792	71	4914
2026-01-04 03:40:27.18	237.59	5.55	-51.9	-54.1	15.2	6.04e-01	0	29	0	678952960	71	4929
2026-01-04 03:40:30.14	237.46	5.33	-52.0	-54.2	15.2	6.01e-01	0	29	0	684195840	72	4731
2026-01-04 03:40:33.13	237.34	5.11	-52.0	-54.2	15.2	6.00e-01	0	29	0	689963008	72	4745
2026-01-04 03:40:36.13	237.21	4.89	-59.5	-78.7	3.8	7.46e-01	0	29	104	693633024	86	35437
2026-01-04 03:40:39.12	237.09	4.68	-60.0	-79.4	3.8	7.48e-01	0	29	104	693633024	87	36511
2026-01-04 03:40:42.12	236.97	4.46	-60.4	-79.7	3.8	7.46e-01	0	29	104	693633024	88	35676
2026-01-04 03:40:45.12	236.85	4.25	-60.6	-79.9	3.8	7.46e-01	0	29	104	693633024	88	36510
2026-01-04 03:40:48.12	236.73	4.04	-60.7	-80.0	3.8	7.46e-01	0	29	104	693633024	89	34863
2026-01-04 03:40:51.12	236.62	3.83	-60.7	-80.1	3.8	7.43e-01	0	29	104	693633024	89	34970
2026-01-04 03:40:54.12	236.51	3.62	-60.8	-80.1	3.8	7.46e-01	0	29	104	693633024	89	35244
2026-01-04 03:40:57.11	236.40	3.41	-60.8	-80.2	3.8	7.46e-01	0	29	104	693633024	89	35664
2026-01-04 03:41:00.10	236.29	3.21	-60.7	-80.1	3.8	7.50e-01	0	29	104	693633024	89	35254
2026-01-04 03:41:03.09	236.18	3.01	-60.7	-80.1	3.8	7.47e-01	0	29	104	693633024	89	35020
2026-01-04 03:41:06.08	236.08	2.81	-60.7	-80.0	3.8	7.43e-01	0	29	104	693633024	89	34815
2026-01-04 03:41:09.08	235.97	2.61	-60.6	-80.0	3.8	7.46e-01	0	29	104	693633024	89	34750
2026-01-04 03:41:12.08	235.87	2.41	-60.6	-80.0	3.8	7.50e-01	0	29	104	693633024	89	34578
2026-01-04 03:41:15.09	235.77	2.21	-60.6	-80.0	3.8	7.48e-01	0	29	104	693633024	89	34657
2026-01-04 03:41:18.08	235.67	2.01	-60.6	-79.9	3.8	7.48e-01	0	29	104	693633024	89	34479

#Closed at: 2026-01-04 03:41:18
#Recorded file [693 MB]: D:/lorett/data/31004_260104_062849.dat