passes_logs/2026/01/04/R3.2S_Murmansk/R3.2S_Murmansk__20260104_103933_TY-42_rec.log

#Pass ID: 20260104_103933_TY-42
#Satellite: TY-42
#Configuration: TY-42_900M
#almurnet v.1.7.20251203
#Start time: 2026-01-04 10:39:33

#Version: 2.2.20231116
#Station: R3.2S_Murmansk
#Location: 33.079688 lon 68.888172 lat
#TLE: 1 64048U 25103A   26004.25768519  .00008007  00000-0  38191-3 0 09998
#TLE: 2 64048 097.4105 079.8777 0001642 091.8272 056.1443 15.19158095 35181

#Time	Az	El	Level	Level2	SNR	BER	BlckErr	Temp	State	Recorded	gain1	gain2
2026-01-04 10:39:33.73	22.42	1.99	-58.1	-61.3	6.1	0.00e+00	0	32	0	0	82	21484
2026-01-04 10:39:36.76	22.27	2.19	-58.1	-61.4	6.2	0.00e+00	0	33	104	0	83	20416
2026-01-04 10:39:39.78	22.12	2.40	-58.1	-61.3	6.1	0.00e+00	0	33	104	0	83	20333
2026-01-04 10:39:42.80	21.96	2.61	-58.1	-61.3	6.2	0.00e+00	0	33	104	0	83	20347
2026-01-04 10:39:45.83	21.81	2.81	-58.1	-61.3	6.2	0.00e+00	0	33	104	0	83	20330
2026-01-04 10:39:48.86	21.64	3.03	-58.1	-61.3	6.2	0.00e+00	0	33	104	0	83	20378
2026-01-04 10:39:51.88	21.48	3.24	-58.1	-61.4	6.2	0.00e+00	0	33	104	0	83	20420
2026-01-04 10:39:54.90	21.31	3.45	-58.1	-61.3	6.2	0.00e+00	0	34	104	0	83	20340
2026-01-04 10:39:57.93	21.14	3.67	-58.1	-61.3	6.2	0.00e+00	0	34	104	0	83	20379
2026-01-04 10:40:00.95	20.97	3.89	-58.1	-61.4	6.2	0.00e+00	0	34	104	0	83	20399
2026-01-04 10:40:03.98	20.79	4.11	-58.1	-61.4	6.2	0.00e+00	0	34	104	0	83	20402
2026-01-04 10:40:07.00	20.61	4.33	-58.1	-61.4	6.2	0.00e+00	0	34	104	0	83	20437
2026-01-04 10:40:10.02	20.42	4.55	-58.1	-61.3	6.2	0.00e+00	0	34	104	0	83	20383
2026-01-04 10:40:13.05	20.23	4.78	-58.1	-61.4	6.2	0.00e+00	0	34	104	0	83	20462
2026-01-04 10:40:16.07	20.04	5.01	-58.1	-61.4	6.2	0.00e+00	0	34	104	0	83	20431
2026-01-04 10:40:19.09	19.84	5.24	-58.1	-61.3	6.2	0.00e+00	0	35	104	0	83	20387
2026-01-04 10:40:22.10	19.64	5.47	-58.3	-61.6	6.2	0.00e+00	0	35	104	0	83	20891
2026-01-04 10:40:25.11	19.44	5.71	-58.1	-61.4	6.2	0.00e+00	0	35	104	0	83	20408
2026-01-04 10:40:28.12	19.23	5.95	-58.3	-61.6	6.2	0.00e+00	0	35	104	0	83	20908
2026-01-04 10:40:31.13	19.01	6.19	-58.2	-61.5	6.2	0.00e+00	0	35	104	0	83	20644
2026-01-04 10:40:34.15	18.79	6.43	-58.4	-61.6	6.1	0.00e+00	0	35	104	0	83	21005
2026-01-04 10:40:37.17	18.57	6.68	-58.3	-61.5	6.2	0.00e+00	0	35	104	0	83	20790
2026-01-04 10:40:40.18	18.34	6.93	-58.4	-61.7	6.2	0.00e+00	0	35	104	0	83	21121
2026-01-04 10:40:43.19	18.11	7.18	-58.3	-61.6	6.2	0.00e+00	0	35	104	0	83	20912
2026-01-04 10:40:46.20	17.87	7.43	-58.5	-61.7	6.2	0.00e+00	0	35	104	0	83	21199
2026-01-04 10:40:49.22	17.62	7.69	-58.4	-61.6	6.2	0.00e+00	0	35	104	0	83	21028
2026-01-04 10:40:52.23	17.37	7.95	-58.5	-61.7	6.1	0.00e+00	0	35	104	0	83	21293
2026-01-04 10:40:55.25	17.11	8.22	-58.4	-61.7	6.2	0.00e+00	0	36	104	0	83	21232
2026-01-04 10:40:58.25	16.85	8.48	-58.6	-61.8	6.2	0.00e+00	0	36	104	0	83	21504
2026-01-04 10:41:01.27	16.58	8.75	-58.5	-61.7	6.2	0.00e+00	0	36	104	0	83	21212
2026-01-04 10:41:04.27	16.31	9.03	-55.4	-56.9	7.0	0.00e+00	0	36	104	0	78	16336
2026-01-04 10:41:07.28	16.03	9.30	-44.5	-44.8	11.8	5.07e-02	0	37	0	251658240	56	14424
2026-01-04 10:41:10.30	15.74	9.58	-42.4	-42.8	12.5	1.92e-02	0	37	0	587202560	52	14282
2026-01-04 10:41:13.31	15.44	9.87	-42.3	-42.6	12.5	7.00e-03	0	37	0	922746880	51	14863
2026-01-04 10:41:16.32	15.14	10.16	-42.3	-42.6	12.6	6.43e-03	0	37	0	1258291200	51	14913
2026-01-04 10:41:19.32	14.83	10.45	-42.3	-42.6	12.6	6.04e-03	0	37	0	1593835520	51	14922
2026-01-04 10:41:22.34	14.50	10.74	-42.1	-42.4	12.6	6.70e-03	0	38	0	1937768448	51	14570
2026-01-04 10:41:25.34	14.18	11.04	-42.0	-42.3	12.7	6.83e-03	0	38	0	2281701376	51	14361
2026-01-04 10:41:28.35	13.84	11.34	-41.7	-42.0	12.7	5.31e-03	0	38	0	2617245696	50	14747
2026-01-04 10:41:31.35	13.50	11.65	-41.7	-42.0	12.7	4.71e-03	0	38	0	2952790016	50	14704
2026-01-04 10:41:34.36	13.14	11.96	-41.5	-41.8	12.8	3.95e-03	0	38	0	3288334336	50	14426
2026-01-04 10:41:37.37	12.78	12.28	-41.2	-41.5	12.8	3.36e-03	0	38	0	3632267264	49	14724
2026-01-04 10:41:40.38	12.41	12.60	-41.0	-41.3	12.9	2.40e-03	0	39	0	3967811584	49	14381
2026-01-04 10:41:43.39	12.02	12.92	-40.9	-41.2	12.9	1.95e-03	0	38	0	4311744512	49	14213
2026-01-04 10:41:46.39	11.63	13.25	-40.6	-40.9	12.9	1.61e-03	0	39	0	4647288832	48	14540
2026-01-04 10:41:49.40	11.22	13.59	-39.6	-39.9	12.8	1.50e-03	0	39	0	4982833152	46	14591
2026-01-04 10:41:52.41	10.81	13.92	-39.3	-39.6	12.9	2.15e-03	0	39	0	5318377472	45	14911
2026-01-04 10:41:55.42	10.38	14.27	-39.1	-39.4	12.9	1.58e-03	0	39	0	5662310400	45	14571
2026-01-04 10:41:58.42	9.94	14.61	-38.9	-39.2	13.0	1.20e-03	0	39	0	5997854720	45	14194
2026-01-04 10:42:01.43	9.49	14.97	-38.7	-39.0	13.0	1.02e-03	0	39	0	6341787648	44	14749
2026-01-04 10:42:04.43	9.02	15.33	-38.7	-39.0	13.0	7.34e-04	0	39	0	6677331968	44	14648
2026-01-04 10:42:07.45	8.54	15.69	-38.5	-38.8	13.1	7.34e-04	0	39	0	7012876288	44	14355
2026-01-04 10:42:10.47	8.04	16.06	-38.4	-38.7	13.2	4.00e-04	0	39	0	7348420608	44	14185
2026-01-04 10:42:13.49	7.53	16.44	-38.1	-38.4	13.1	4.00e-04	0	39	0	7692353536	43	14544
2026-01-04 10:42:16.51	7.00	16.82	-37.8	-38.1	13.2	4.58e-04	0	39	0	8036286464	42	14913
2026-01-04 10:42:19.52	6.46	17.20	-37.7	-38.0	13.2	2.67e-04	0	39	0	8371830784	42	14668
2026-01-04 10:42:22.53	5.90	17.59	-37.6	-37.9	13.3	1.91e-04	0	39	0	8715763712	42	14538
2026-01-04 10:42:25.54	5.33	17.99	-37.3	-37.6	13.3	1.81e-04	0	39	0	9051308032	41	14818
2026-01-04 10:42:28.56	4.73	18.39	-37.3	-37.5	13.3	1.72e-04	0	40	0	9386852352	41	14727
2026-01-04 10:42:31.58	4.12	18.80	-37.2	-37.4	13.3	6.67e-05	0	40	0	9730785280	41	14594
2026-01-04 10:42:34.59	3.48	19.21	-37.0	-37.2	13.4	1.05e-04	0	39	0	10066329600	41	14232
2026-01-04 10:42:37.60	2.83	19.63	-36.8	-37.1	13.4	7.15e-05	0	40	0	10410262528	40	14899
2026-01-04 10:42:40.61	2.16	20.05	-36.7	-37.0	13.4	5.72e-05	0	40	0	10745806848	40	14625
2026-01-04 10:42:43.62	1.46	20.48	-36.8	-37.0	13.5	5.24e-05	0	39	0	11081351168	40	14736
2026-01-04 10:42:46.64	0.74	20.91	-36.6	-36.9	13.5	5.72e-05	0	40	0	11425284096	40	14495
2026-01-04 10:42:49.65	360.00	21.35	-36.4	-36.6	13.5	1.43e-05	0	40	0	11760828416	39	14902
2026-01-04 10:42:52.67	359.23	21.79	-36.3	-36.6	13.5	1.43e-05	0	39	0	12096372736	39	14826
2026-01-04 10:42:55.68	358.44	22.24	-36.1	-36.3	13.6	1.90e-05	0	40	0	12440305664	39	14440
2026-01-04 10:42:58.69	357.62	22.69	-36.1	-36.4	13.6	0.00e+00	0	40	0	12784238592	39	14454
2026-01-04 10:43:01.69	356.77	23.15	-35.9	-36.2	13.6	1.43e-05	0	40	0	13119782912	39	14169
2026-01-04 10:43:04.72	355.89	23.61	-35.8	-36.0	13.6	0.00e+00	0	40	0	13455327232	38	14745
2026-01-04 10:43:07.72	354.99	24.07	-35.6	-35.9	13.6	4.70e-06	0	40	0	13799260160	38	14477
2026-01-04 10:43:10.74	354.05	24.54	-35.2	-35.4	13.6	0.00e+00	0	40	0	14134804480	37	14606
2026-01-04 10:43:13.76	353.08	25.00	-35.2	-35.4	13.6	0.00e+00	0	40	0	14470348800	37	14557
2026-01-04 10:43:16.77	352.08	25.47	-34.9	-35.1	13.7	0.00e+00	0	40	0	14814281728	37	14075
2026-01-04 10:43:19.78	351.05	25.94	-34.8	-35.0	13.7	0.00e+00	0	40	0	15158214656	36	14737
2026-01-04 10:43:22.79	349.98	26.41	-34.6	-34.8	13.7	0.00e+00	0	40	0	15493758976	36	14407
2026-01-04 10:43:25.80	348.88	26.88	-34.6	-34.8	13.7	0.00e+00	0	40	0	15829303296	36	14372
2026-01-04 10:43:28.82	347.73	27.35	-31.7	-32.0	13.6	0.00e+00	0	40	0	16164847616	30	14661
2026-01-04 10:43:31.83	346.55	27.82	-31.7	-31.9	13.7	0.00e+00	0	40	0	16508780544	30	14594
2026-01-04 10:43:34.83	345.34	28.28	-31.6	-31.8	13.7	0.00e+00	0	40	0	16844324864	30	14388
2026-01-04 10:43:37.85	344.08	28.74	-31.5	-31.7	13.7	4.70e-06	0	40	0	17188257792	30	14239
2026-01-04 10:43:40.85	342.79	29.19	-31.4	-31.6	13.7	4.70e-06	0	40	0	17523802112	30	14070
2026-01-04 10:43:43.86	341.46	29.63	-31.3	-31.5	13.7	4.70e-06	0	40	0	17859346432	29	14745
2026-01-04 10:43:46.87	340.09	30.07	-31.2	-31.5	13.7	0.00e+00	0	40	0	18194890752	29	14704
2026-01-04 10:43:49.89	338.67	30.49	-31.2	-31.5	13.7	0.00e+00	0	40	0	18538823680	29	14649
2026-01-04 10:43:52.91	337.20	30.91	-31.1	-31.4	13.7	0.00e+00	0	40	0	18874368000	29	14471
2026-01-04 10:43:55.91	335.71	31.31	-31.1	-31.3	13.7	0.00e+00	0	40	0	19218300928	29	14418
2026-01-04 10:43:58.93	334.17	31.69	-30.9	-31.1	13.7	0.00e+00	0	40	0	19562233856	29	14077
2026-01-04 10:44:01.94	332.60	32.06	-30.8	-31.1	13.7	0.00e+00	0	40	0	19897778176	28	14841
2026-01-04 10:44:04.95	330.98	32.41	-30.7	-30.9	13.7	0.00e+00	0	40	0	20233322496	28	14523
2026-01-04 10:44:07.97	329.33	32.74	-30.6	-30.8	13.7	0.00e+00	0	40	0	20577255424	28	14403
2026-01-04 10:44:10.98	327.64	33.05	-30.6	-30.8	13.7	0.00e+00	0	40	0	20912799744	28	14430
2026-01-04 10:44:13.99	325.92	33.33	-30.4	-30.7	13.7	4.70e-06	0	40	0	21248344064	28	14121
2026-01-04 10:44:16.99	324.18	33.59	-30.4	-30.6	13.7	0.00e+00	0	40	0	21592276992	28	14081
2026-01-04 10:44:20.02	322.39	33.82	-30.4	-30.6	13.6	0.00e+00	0	40	0	21927821312	27	14898
2026-01-04 10:44:23.03	320.58	34.03	-30.4	-30.6	13.6	0.00e+00	0	40	0	22271754240	27	14929
2026-01-04 10:44:26.04	318.75	34.20	-30.3	-30.6	13.7	0.00e+00	0	40	0	22607298560	27	14791
2026-01-04 10:44:29.05	316.91	34.35	-30.4	-30.6	13.6	0.00e+00	0	40	0	22942842880	27	14908
2026-01-04 10:44:32.06	315.04	34.46	-30.2	-30.5	13.6	0.00e+00	0	40	0	23278387200	27	14660
2026-01-04 10:44:35.09	313.16	34.54	-30.2	-30.5	13.6	0.00e+00	0	40	0	23622320128	27	14628
2026-01-04 10:44:38.09	311.28	34.58	-30.2	-30.5	13.6	4.70e-06	0	40	0	23966253056	27	14649
2026-01-04 10:44:41.09	309.40	34.60	-30.1	-30.3	13.7	0.00e+00	0	40	0	24301797376	27	14393
2026-01-04 10:44:44.10	307.52	34.58	-30.1	-30.4	13.7	0.00e+00	0	40	0	24637341696	27	14485
2026-01-04 10:44:47.10	305.64	34.52	-30.2	-30.5	13.6	0.00e+00	0	40	0	24972886016	27	14697
2026-01-04 10:44:50.10	303.77	34.44	-30.1	-30.4	13.6	0.00e+00	0	40	0	25316818944	27	14528
2026-01-04 10:44:53.10	301.92	34.32	-30.3	-30.5	13.6	0.00e+00	0	40	0	25652363264	27	14759
2026-01-04 10:44:56.12	300.07	34.17	-30.3	-30.6	13.6	0.00e+00	0	40	0	25987907584	27	14866
2026-01-04 10:44:59.14	298.24	33.99	-30.4	-30.6	13.6	4.70e-06	0	40	0	26331840512	27	14926
2026-01-04 10:45:02.15	296.44	33.78	-30.4	-30.6	13.6	0.00e+00	0	40	0	26667384832	27	14928
2026-01-04 10:45:05.15	294.67	33.54	-30.5	-30.8	13.6	0.00e+00	0	40	0	27002929152	27	15140
2026-01-04 10:45:08.16	292.92	33.27	-30.5	-30.7	13.6	0.00e+00	0	40	0	27346862080	27	15105
2026-01-04 10:45:11.17	291.21	32.98	-30.6	-30.9	13.6	4.70e-06	0	40	0	27682406400	27	15333
2026-01-04 10:45:14.18	289.52	32.67	-30.6	-30.8	13.7	0.00e+00	0	40	0	28026339328	27	15269
2026-01-04 10:45:17.20	287.87	32.33	-30.6	-30.8	13.7	0.00e+00	0	40	0	28361883648	27	15262
2026-01-04 10:45:20.21	286.26	31.98	-30.7	-31.0	13.7	0.00e+00	0	40	0	28697427968	27	15557
2026-01-04 10:45:23.22	284.69	31.61	-30.7	-31.0	13.7	0.00e+00	0	40	0	29032972288	27	15565
2026-01-04 10:45:26.22	283.17	31.22	-30.9	-31.1	13.7	0.00e+00	0	40	0	29376905216	27	15800
2026-01-04 10:45:29.23	281.68	30.81	-30.9	-31.1	13.7	0.00e+00	0	40	0	29720838144	27	15819
2026-01-04 10:45:32.24	280.23	30.40	-31.0	-31.3	13.7	0.00e+00	0	40	0	30056382464	27	16072
2026-01-04 10:45:35.26	278.81	29.97	-31.0	-31.3	13.7	0.00e+00	0	40	0	30391926784	28	15160
2026-01-04 10:45:38.27	277.44	29.53	-31.2	-31.4	13.8	0.00e+00	0	40	0	30727471104	28	15469
2026-01-04 10:45:41.28	276.11	29.08	-31.3	-31.5	13.8	0.00e+00	0	40	0	31071404032	28	15626
2026-01-04 10:45:44.29	274.82	28.63	-31.5	-31.8	13.8	4.70e-06	0	40	0	31406948352	28	16101
2026-01-04 10:45:47.28	273.58	28.17	-31.5	-31.8	13.8	4.70e-06	0	40	0	31750881280	28	16024
2026-01-04 10:45:50.26	272.38	27.71	-31.6	-31.9	13.8	0.00e+00	0	40	0	32078036992	28	16218
2026-01-04 10:45:53.26	271.21	27.24	-31.8	-32.1	13.8	0.00e+00	0	40	0	32413581312	29	15685
2026-01-04 10:45:56.22	270.09	26.78	-31.9	-32.1	13.8	0.00e+00	0	40	0	32757514240	29	15824
2026-01-04 10:45:59.19	269.01	26.32	-32.0	-32.2	13.7	0.00e+00	0	40	0	33084669952	29	15983
2026-01-04 10:46:02.17	267.95	25.85	-32.1	-32.3	13.7	1.43e-05	0	40	0	33420214272	29	16178
2026-01-04 10:46:05.12	266.94	25.39	-32.3	-32.6	13.7	9.50e-06	0	40	0	33747369984	30	15706
2026-01-04 10:46:08.08	265.96	24.93	-32.4	-32.7	13.7	1.43e-05	0	40	0	34091302912	30	15900
2026-01-04 10:46:11.06	265.00	24.46	-32.6	-32.9	13.7	9.50e-06	0	40	0	34418458624	30	16293
2026-01-04 10:46:14.04	264.07	24.00	-32.7	-33.0	13.7	9.50e-06	0	40	0	34754002944	31	15577
2026-01-04 10:46:17.01	263.18	23.54	-32.9	-33.2	13.7	4.70e-06	0	40	0	35089547264	31	15894
2026-01-04 10:46:19.98	262.32	23.09	-33.1	-33.4	13.6	3.33e-05	0	40	0	35425091584	32	15432
2026-01-04 10:46:22.95	261.48	22.64	-33.3	-33.5	13.6	3.33e-05	0	40	0	35760635904	32	15639
2026-01-04 10:46:25.92	260.67	22.19	-33.4	-33.6	13.6	2.38e-05	0	40	0	36087791616	32	15766
2026-01-04 10:46:28.89	259.89	21.75	-33.5	-33.8	13.6	2.38e-05	0	40	0	36431724544	32	16122
2026-01-04 10:46:31.85	259.13	21.31	-33.8	-34.0	13.6	3.81e-05	0	40	0	36758880256	33	15638
2026-01-04 10:46:34.81	258.40	20.88	-33.9	-34.1	13.6	5.72e-05	0	40	0	37094424576	33	15815
2026-01-04 10:46:37.77	257.69	20.45	-34.0	-34.3	13.5	6.67e-05	0	40	0	37421580288	33	16023
2026-01-04 10:46:40.75	256.99	20.03	-34.3	-34.6	13.5	6.67e-05	0	40	0	37757124608	34	15667
2026-01-04 10:46:43.72	256.33	19.61	-34.5	-34.7	13.5	9.53e-05	0	40	0	38092668928	34	15974
2026-01-04 10:46:46.68	255.68	19.19	-34.7	-34.9	13.5	1.24e-04	0	40	0	38428213248	35	15455
2026-01-04 10:46:49.66	255.05	18.78	-34.9	-35.2	13.4	1.72e-04	0	40	0	38763757568	35	15842
2026-01-04 10:46:52.65	254.44	18.38	-35.1	-35.4	13.4	1.62e-04	0	40	0	39099301888	35	16225
2026-01-04 10:46:55.62	253.85	17.98	-37.7	-38.0	13.5	1.95e-04	0	40	0	39434846208	41	15486
2026-01-04 10:46:58.59	253.28	17.59	-37.9	-38.2	13.5	1.38e-04	0	40	0	39770390528	41	15854
2026-01-04 10:47:01.57	252.72	17.20	-38.2	-38.5	13.5	1.33e-04	0	40	0	40097546240	42	15492
2026-01-04 10:47:04.54	252.18	16.82	-38.3	-38.6	13.4	9.53e-05	0	40	0	40441479168	42	15692
2026-01-04 10:47:07.50	251.66	16.44	-38.5	-38.7	13.4	1.14e-04	0	40	0	40768634880	42	15943
2026-01-04 10:47:10.47	251.15	16.07	-38.5	-38.7	13.4	2.91e-04	0	40	0	41104179200	42	16001
2026-01-04 10:47:13.43	250.66	15.71	-38.7	-38.9	13.4	2.67e-04	0	40	0	41439723520	43	15467
2026-01-04 10:47:16.40	250.18	15.34	-38.7	-39.0	13.3	3.05e-04	0	40	0	41775267840	43	15529
2026-01-04 10:47:19.38	249.71	14.99	-38.8	-39.0	13.3	3.34e-04	0	40	0	42110812160	43	15645
2026-01-04 10:47:22.35	249.26	14.64	-38.9	-39.2	13.3	4.86e-04	0	40	0	42437967872	43	15898
2026-01-04 10:47:25.32	248.82	14.29	-39.0	-39.3	13.3	4.34e-04	0	40	0	42773512192	43	16026
2026-01-04 10:47:28.29	248.39	13.95	-39.1	-39.3	13.3	5.29e-04	0	40	0	43109056512	43	16193
2026-01-04 10:47:31.26	247.98	13.61	-39.2	-39.5	13.2	5.77e-04	0	40	0	43444600832	44	15528
2026-01-04 10:47:34.24	247.57	13.28	-39.3	-39.6	13.2	5.58e-04	0	40	0	43780145152	44	15704
2026-01-04 10:47:37.22	247.17	12.95	-39.5	-39.8	13.2	7.39e-04	0	40	0	44107300864	44	16096
2026-01-04 10:47:40.20	246.79	12.63	-39.6	-39.9	13.2	9.39e-04	0	40	0	44451233792	45	15427
2026-01-04 10:47:43.17	246.42	12.31	-39.9	-40.1	13.1	1.00e-03	0	40	0	44778389504	45	15831
2026-01-04 10:47:46.13	246.05	11.99	-40.0	-40.3	13.1	1.26e-03	0	40	0	45113933824	45	16041
2026-01-04 10:47:49.08	245.70	11.69	-40.2	-40.4	13.1	1.37e-03	0	40	0	45449478144	46	15456
2026-01-04 10:47:52.04	245.36	11.38	-40.4	-40.7	13.0	1.76e-03	0	40	0	45785022464	46	15913
2026-01-04 10:47:55.02	245.02	11.08	-40.6	-40.8	13.0	2.31e-03	0	41	0	46112178176	46	16175
2026-01-04 10:47:57.99	244.69	10.78	-40.8	-41.1	13.0	2.53e-03	0	41	0	46447722496	47	15703
2026-01-04 10:48:00.97	244.37	10.49	-40.8	-41.1	12.9	2.82e-03	0	41	0	46783266816	47	15738
2026-01-04 10:48:03.94	244.06	10.20	-41.0	-41.3	12.8	3.10e-03	0	41	0	47118811136	47	16038
2026-01-04 10:48:06.91	243.75	9.91	-41.8	-42.1	12.9	3.55e-03	0	41	0	47454355456	49	15777
2026-01-04 10:48:09.86	243.46	9.63	-42.2	-42.5	12.8	3.25e-03	0	41	0	47781511168	50	15577
2026-01-04 10:48:12.83	243.17	9.35	-42.5	-42.8	12.7	3.77e-03	0	41	0	48125444096	50	16163
2026-01-04 10:48:15.81	242.88	9.08	-42.9	-43.2	12.7	6.51e-03	0	41	0	48452599808	51	15907
2026-01-04 10:48:18.79	242.61	8.80	-43.1	-43.4	12.7	7.04e-03	0	40	0	48788144128	52	15344
2026-01-04 10:48:21.75	242.34	8.53	-43.4	-43.7	12.6	7.13e-03	0	41	0	49123688448	52	15948
2026-01-04 10:48:24.73	242.07	8.27	-43.2	-43.5	12.6	9.30e-03	0	40	0	49459232768	52	15603
2026-01-04 10:48:27.70	241.81	8.01	-43.4	-43.7	12.5	9.30e-03	0	41	0	49794777088	52	15910
2026-01-04 10:48:30.66	241.56	7.75	-43.4	-43.7	12.6	9.52e-03	0	41	0	50121932800	52	15997
2026-01-04 10:48:33.64	241.32	7.49	-43.5	-43.8	12.6	9.52e-03	0	41	0	50457477120	52	16190
2026-01-04 10:48:36.60	241.08	7.24	-43.9	-44.2	12.5	9.51e-03	0	41	0	50793021440	53	15960
2026-01-04 10:48:39.58	240.84	6.99	-58.9	-62.1	6.2	1.19e-02	0	40	104	50893684736	83	22306
2026-01-04 10:48:42.56	240.61	6.74	-58.8	-62.1	6.2	1.19e-02	0	40	104	50893684736	83	22160
2026-01-04 10:48:45.53	240.38	6.49	-58.8	-62.0	6.2	1.19e-02	0	40	104	50893684736	83	22099
2026-01-04 10:48:48.50	240.16	6.25	-58.8	-62.0	6.2	2.70e-03	0	40	104	50893684736	83	22081
2026-01-04 10:48:51.47	239.95	6.01	-58.7	-61.9	6.2	2.70e-03	0	40	104	50893684736	83	21775
2026-01-04 10:48:54.44	239.74	5.77	-58.5	-61.8	6.2	2.70e-03	0	39	104	50893684736	83	21449
2026-01-04 10:48:57.41	239.53	5.54	-58.5	-61.8	6.2	2.70e-03	0	39	104	50893684736	83	21477
2026-01-04 10:49:00.38	239.33	5.31	-58.5	-61.8	6.2	0.00e+00	0	39	104	50893684736	83	21437
2026-01-04 10:49:03.33	239.13	5.08	-58.4	-61.6	6.2	0.00e+00	0	39	104	50893684736	83	21093
2026-01-04 10:49:06.32	238.93	4.85	-59.6	-62.8	6.2	0.00e+00	0	39	104	50893684736	84	22838
2026-01-04 10:49:09.31	238.74	4.62	-60.2	-63.5	6.2	0.00e+00	0	39	104	50893684736	86	21935
2026-01-04 10:49:12.31	238.55	4.40	-60.6	-63.8	6.2	0.00e+00	0	39	104	50893684736	86	22773
2026-01-04 10:49:15.31	238.37	4.18	-60.8	-64.0	6.2	0.00e+00	0	39	104	50893684736	87	22053
2026-01-04 10:49:18.30	238.19	3.96	-60.9	-64.1	6.2	0.00e+00	0	39	104	50893684736	87	22300
2026-01-04 10:49:21.30	238.01	3.74	-60.9	-64.2	6.2	0.00e+00	0	39	104	50893684736	87	22456
2026-01-04 10:49:24.29	237.84	3.52	-61.0	-64.2	6.2	0.00e+00	0	39	104	50893684736	87	22536
2026-01-04 10:49:27.29	237.67	3.31	-61.0	-64.2	6.2	0.00e+00	0	39	104	50893684736	87	22616
2026-01-04 10:49:30.25	237.50	3.10	-60.9	-64.2	6.2	0.00e+00	0	39	104	50893684736	87	22477
2026-01-04 10:49:33.21	237.34	2.89	-60.9	-64.1	6.2	0.00e+00	0	39	104	50893684736	87	22333
2026-01-04 10:49:36.19	237.18	2.68	-60.9	-64.2	6.2	0.00e+00	0	39	104	50893684736	87	22386
2026-01-04 10:49:39.16	237.02	2.48	-60.8	-64.1	6.2	0.00e+00	0	39	104	50893684736	87	22250
2026-01-04 10:49:42.13	236.87	2.28	-60.8	-64.1	6.2	0.00e+00	0	39	104	50893684736	87	22178
2026-01-04 10:49:45.11	236.72	2.07	-60.8	-64.1	6.2	0.00e+00	0	38	104	50893684736	87	22123

#Closed at: 2026-01-04 10:49:47
#Recorded file [50893 MB]: D:/lorett/data/31004_260104_133933.dat