passes_logs/2026/01/04/R3.2S_Murmansk/R3.2S_Murmansk__20260104_090500_NOAA_21_JPSS-2_rec.log

#Pass ID: 20260104_090500_NOAA 21 (JPSS-2)
#Satellite: NOAA 21 (JPSS-2)
#Configuration: NOAA-21
#almurnet v.1.7.20251203
#Start time: 2026-01-04 09:05:00

#Version: 2.2.20231116
#Station: R3.2S_Murmansk
#Location: 33.079688 lon 68.888172 lat
#TLE: 1 54234U 22150A   26003.94651505  .00000183  00000+0  10759-3 0  9990
#TLE: 2 54234  98.7488 304.9806 0001136 345.9488  14.1656 14.19531852163244

#Time	Az	El	Level	Level2	SNR	BER	BlckErr	Temp	State	Recorded	gain1	gain2
2026-01-04 09:05:00.45	141.27	1.97	-58.3	-72.1	3.8	1.49e+00	0	26	0	0	82	18066
2026-01-04 09:05:04.48	141.23	2.23	-58.3	-72.1	3.8	1.49e+00	0	27	104	0	81	19082
2026-01-04 09:05:08.51	141.20	2.49	-58.3	-72.1	3.8	1.49e+00	0	27	104	0	81	19049
2026-01-04 09:05:12.55	141.16	2.76	-58.3	-72.1	3.8	1.49e+00	0	27	104	0	81	19024
2026-01-04 09:05:16.57	141.12	3.02	-58.3	-72.0	3.8	1.49e+00	0	27	104	0	81	18758
2026-01-04 09:05:20.61	141.09	3.29	-58.3	-71.4	3.8	1.49e+00	0	27	104	0	81	17541
2026-01-04 09:05:24.64	141.05	3.57	-58.1	-69.3	4.0	1.48e+00	0	27	104	0	81	13763
2026-01-04 09:05:28.68	141.01	3.84	-57.5	-65.1	5.7	3.90e-01	0	27	0	3145728	81	8465
2026-01-04 09:05:32.71	140.96	4.12	-55.9	-59.9	9.9	6.43e-03	0	27	0	15728640	78	5574
2026-01-04 09:05:36.75	140.92	4.40	-54.4	-57.2	11.7	6.10e-06	0	27	0	28311552	75	4859
2026-01-04 09:05:40.78	140.88	4.68	-53.8	-56.3	12.4	0.00e+00	0	27	0	40894464	74	4603
2026-01-04 09:05:44.82	140.83	4.97	-54.5	-57.5	11.5	1.14e-05	0	27	0	53477376	74	5317
2026-01-04 09:05:48.86	140.79	5.26	-53.7	-56.1	12.5	5.56e-05	0	28	0	62914560	74	4533
2026-01-04 09:05:52.88	140.74	5.55	-52.4	-54.4	13.4	0.00e+00	0	28	0	73400320	71	4404
2026-01-04 09:05:56.92	140.69	5.85	-52.3	-54.2	13.5	0.00e+00	0	28	0	85983232	70	4560
2026-01-04 09:06:00.95	140.64	6.15	-52.1	-54.0	13.6	0.00e+00	0	28	0	98566144	70	4444
2026-01-04 09:06:04.99	140.59	6.45	-51.8	-53.6	13.8	0.00e+00	0	28	0	111149056	70	4251
2026-01-04 09:06:09.02	140.54	6.75	-51.9	-53.6	13.8	0.00e+00	0	28	0	123731968	70	4280
2026-01-04 09:06:13.05	140.49	7.06	-51.7	-53.4	14.0	0.00e+00	0	28	0	136314880	70	4158
2026-01-04 09:06:17.09	140.43	7.38	-51.6	-53.3	13.9	0.00e+00	0	28	0	148897792	69	4359
2026-01-04 09:06:21.12	140.38	7.70	-51.5	-53.1	14.0	0.00e+00	0	28	0	161480704	69	4266
2026-01-04 09:06:25.15	140.32	8.02	-51.3	-52.9	14.1	0.00e+00	0	28	0	174063616	69	4148
2026-01-04 09:06:29.17	140.26	8.34	-51.2	-52.7	14.1	0.00e+00	0	28	0	186646528	68	4332
2026-01-04 09:06:33.20	140.20	8.67	-51.0	-52.6	14.2	0.00e+00	0	28	0	199229440	68	4251
2026-01-04 09:06:37.24	140.13	9.01	-51.0	-52.5	14.2	0.00e+00	0	28	0	211812352	68	4214
2026-01-04 09:06:41.26	140.07	9.34	-51.0	-52.5	14.3	0.00e+00	0	28	0	224395264	68	4196
2026-01-04 09:06:45.29	140.00	9.69	-50.5	-51.9	14.3	0.00e+00	0	28	0	238026752	67	4183
2026-01-04 09:06:49.32	139.93	10.03	-50.3	-51.7	14.5	0.00e+00	0	28	0	249561088	67	4088
2026-01-04 09:06:53.36	139.86	10.39	-50.3	-51.7	14.5	0.00e+00	0	28	0	263192576	67	4070
2026-01-04 09:06:57.39	139.79	10.74	-50.3	-51.7	14.5	0.00e+00	0	28	0	275775488	67	4061
2026-01-04 09:07:01.42	139.72	11.11	-50.2	-51.5	14.6	0.00e+00	0	28	0	287309824	67	4002
2026-01-04 09:07:05.46	139.64	11.48	-50.2	-51.5	14.5	0.00e+00	0	28	0	300941312	66	4230
2026-01-04 09:07:09.49	139.56	11.85	-50.0	-51.3	14.5	0.00e+00	0	28	0	312475648	66	4141
2026-01-04 09:07:13.53	139.48	12.23	-50.0	-51.3	14.6	0.00e+00	0	28	0	326107136	66	4122
2026-01-04 09:07:17.56	139.40	12.62	-49.9	-51.3	14.6	0.00e+00	0	28	0	338690048	66	4107
2026-01-04 09:07:21.59	139.31	13.01	-49.9	-51.2	14.6	0.00e+00	0	28	0	351272960	66	4065
2026-01-04 09:07:25.62	139.22	13.41	-49.9	-51.2	14.6	0.00e+00	0	28	0	363855872	66	4083
2026-01-04 09:07:29.65	139.13	13.81	-49.9	-51.2	14.6	0.00e+00	0	28	0	376438784	66	4068
2026-01-04 09:07:33.68	139.03	14.22	-49.8	-51.0	14.7	0.00e+00	0	28	0	389021696	66	4004
2026-01-04 09:07:37.72	138.93	14.64	-49.6	-50.8	14.7	0.00e+00	0	28	0	401604608	65	4144
2026-01-04 09:07:41.75	138.83	15.07	-49.5	-50.7	14.7	0.00e+00	0	28	0	414187520	65	4094
2026-01-04 09:07:45.78	138.73	15.50	-49.6	-50.9	14.7	0.00e+00	0	28	0	426770432	65	4154
2026-01-04 09:07:49.81	138.62	15.94	-49.5	-50.8	14.7	0.00e+00	0	28	0	439353344	65	4129
2026-01-04 09:07:53.84	138.51	16.39	-49.5	-50.8	14.7	0.00e+00	0	28	0	451936256	65	4105
2026-01-04 09:07:57.88	138.39	16.85	-49.5	-50.8	14.7	0.00e+00	0	28	0	464519168	65	4121
2026-01-04 09:08:01.91	138.27	17.31	-49.6	-50.8	14.7	0.00e+00	0	28	0	477102080	65	4135
2026-01-04 09:08:05.94	138.15	17.78	-49.6	-50.8	14.7	0.00e+00	0	28	0	489684992	65	4144
2026-01-04 09:08:09.98	138.02	18.27	-49.7	-51.0	14.6	0.00e+00	0	28	0	502267904	65	4203
2026-01-04 09:08:14.02	137.89	18.76	-49.8	-51.1	14.6	0.00e+00	0	28	0	514850816	65	4244
2026-01-04 09:08:18.05	137.75	19.27	-49.8	-51.1	14.6	0.00e+00	0	28	0	527433728	65	4250
2026-01-04 09:08:22.08	137.61	19.78	-49.5	-50.8	14.7	0.00e+00	0	28	0	540016640	65	4130
2026-01-04 09:08:26.11	137.46	20.30	-49.4	-50.7	14.8	0.00e+00	0	28	0	552599552	65	4074
2026-01-04 09:08:30.14	137.31	20.84	-49.3	-50.5	14.8	0.00e+00	0	28	0	565182464	65	4003
2026-01-04 09:08:34.17	137.15	21.38	-48.9	-50.1	14.9	0.00e+00	0	28	0	577765376	64	4026
2026-01-04 09:08:38.21	136.98	21.94	-48.7	-49.9	15.0	0.00e+00	0	28	0	590348288	64	3931
2026-01-04 09:08:42.23	136.81	22.51	-48.5	-49.6	15.0	0.00e+00	0	28	0	602931200	63	4043
2026-01-04 09:08:46.26	136.63	23.09	-48.4	-49.5	15.0	0.00e+00	0	28	0	615514112	63	3984
2026-01-04 09:08:50.30	136.44	23.69	-48.3	-49.4	15.0	0.00e+00	0	28	0	628097024	63	3942
2026-01-04 09:08:54.34	136.24	24.30	-48.1	-49.2	15.0	0.00e+00	0	28	0	640679936	62	4096
2026-01-04 09:08:58.38	136.04	24.92	-48.4	-49.5	14.9	0.00e+00	0	28	0	653262848	62	4220
2026-01-04 09:09:02.42	135.83	25.56	-48.6	-49.8	14.8	0.00e+00	0	28	0	665845760	62	4358
2026-01-04 09:09:06.45	135.61	26.22	-49.1	-50.3	14.8	0.00e+00	0	28	0	678428672	63	4345
2026-01-04 09:09:10.49	135.37	26.89	-49.2	-50.4	14.7	0.00e+00	0	28	0	691011584	63	4434
2026-01-04 09:09:14.52	135.13	27.57	-49.4	-50.6	14.7	0.00e+00	0	28	0	703594496	64	4276
2026-01-04 09:09:18.57	134.88	28.28	-49.4	-50.7	14.7	0.00e+00	0	28	0	716177408	64	4293
2026-01-04 09:09:22.60	134.61	28.99	-49.5	-50.7	14.7	0.00e+00	0	28	0	728760320	64	4311
2026-01-04 09:09:26.63	134.33	29.73	-49.8	-51.1	14.6	0.00e+00	0	28	0	741343232	64	4506
2026-01-04 09:09:30.64	134.04	30.48	-49.4	-50.6	14.7	0.00e+00	0	28	0	753926144	64	4260
2026-01-04 09:09:34.66	133.74	31.26	-49.3	-50.5	14.8	0.00e+00	0	28	0	766509056	64	4206
2026-01-04 09:09:38.70	133.41	32.05	-49.4	-50.6	14.8	0.00e+00	0	28	0	779091968	64	4250
2026-01-04 09:09:42.73	133.07	32.87	-49.6	-50.9	14.7	0.00e+00	0	28	0	791674880	64	4405
2026-01-04 09:09:46.76	132.71	33.71	-49.9	-51.1	14.6	0.00e+00	0	28	0	804257792	64	4545
2026-01-04 09:09:50.80	132.34	34.57	-50.1	-51.4	14.6	0.00e+00	0	28	0	816840704	65	4409
2026-01-04 09:09:54.84	131.94	35.45	-50.5	-51.8	14.5	0.00e+00	0	28	0	829423616	66	4390
2026-01-04 09:09:58.87	131.51	36.36	-51.2	-52.6	14.4	0.00e+00	0	28	0	842006528	67	4510
2026-01-04 09:10:02.91	131.06	37.29	-51.8	-53.3	14.2	0.00e+00	0	28	0	854589440	68	4605
2026-01-04 09:10:06.95	130.59	38.24	-51.8	-53.3	14.2	0.00e+00	0	29	0	867172352	68	4622
2026-01-04 09:10:10.98	130.08	39.22	-51.8	-53.3	14.3	0.00e+00	0	28	0	879755264	69	4370
2026-01-04 09:10:15.02	129.54	40.23	-51.3	-52.7	14.5	0.00e+00	0	28	0	892338176	69	4086
2026-01-04 09:10:19.06	128.97	41.26	-51.9	-53.4	14.2	0.00e+00	0	28	0	905969664	69	4418
2026-01-04 09:10:23.08	128.35	42.32	-51.9	-53.4	14.2	0.00e+00	0	28	0	917504000	69	4411
2026-01-04 09:10:27.12	127.70	43.40	-51.8	-53.2	14.3	0.00e+00	0	28	0	931135488	69	4334
2026-01-04 09:10:31.15	126.99	44.51	-52.1	-53.6	14.2	0.00e+00	0	28	0	943718400	69	4516
2026-01-04 09:10:35.18	126.24	45.65	-52.4	-54.0	14.0	0.00e+00	0	28	0	956301312	70	4465
2026-01-04 09:10:39.22	125.42	46.82	-51.5	-52.9	14.5	0.00e+00	0	28	0	968884224	69	4148
2026-01-04 09:10:43.24	124.55	48.00	-51.5	-52.9	14.4	0.00e+00	0	28	0	981467136	69	4160
2026-01-04 09:10:47.27	123.60	49.22	-50.9	-52.2	14.6	0.00e+00	0	28	0	994050048	68	4090
2026-01-04 09:10:51.30	122.57	50.46	-51.1	-52.5	14.5	0.00e+00	0	28	0	1006632960	68	4203
2026-01-04 09:10:55.34	121.44	51.72	-50.9	-52.2	14.7	0.00e+00	0	28	0	1019215872	68	4056
2026-01-04 09:10:59.38	120.22	53.01	-50.9	-52.2	14.7	0.00e+00	0	28	0	1031798784	68	4084
2026-01-04 09:11:03.41	118.88	54.31	-50.4	-51.6	14.7	0.00e+00	0	29	0	1044381696	67	4037
2026-01-04 09:11:07.45	117.41	55.63	-50.0	-51.3	14.8	0.00e+00	0	28	0	1056964608	66	4102
2026-01-04 09:11:11.48	115.80	56.96	-49.7	-50.9	14.8	0.00e+00	0	28	0	1069547520	65	4173
2026-01-04 09:11:15.51	114.02	58.30	-49.5	-50.7	14.9	0.00e+00	0	28	0	1082130432	65	4087
2026-01-04 09:11:19.55	112.05	59.64	-49.3	-50.5	14.9	0.00e+00	0	28	0	1094713344	65	3989
2026-01-04 09:11:23.59	109.87	60.97	-49.0	-50.2	14.9	0.00e+00	0	28	0	1107296256	64	4079
2026-01-04 09:11:27.62	107.44	62.29	-48.6	-49.8	15.0	0.00e+00	0	28	0	1119879168	63	4115
2026-01-04 09:11:31.65	104.74	63.58	-48.3	-49.4	15.1	0.00e+00	0	28	0	1132462080	63	3932
2026-01-04 09:11:35.68	101.73	64.84	-48.5	-49.6	15.0	0.00e+00	0	28	0	1145044992	63	4040
2026-01-04 09:11:39.71	98.36	66.05	-48.5	-49.7	15.0	0.00e+00	0	29	0	1157627904	63	4062
2026-01-04 09:11:43.73	94.62	67.19	-48.1	-49.2	15.1	0.00e+00	0	29	0	1170210816	62	4069
2026-01-04 09:11:47.76	90.46	68.24	-48.5	-49.6	14.9	0.00e+00	0	28	0	1182793728	62	4283
2026-01-04 09:11:51.80	85.84	69.19	-48.2	-49.3	15.0	0.00e+00	0	29	0	1195376640	62	4140
2026-01-04 09:11:55.84	80.79	70.01	-48.1	-49.2	15.0	0.00e+00	0	29	0	1207959552	62	4079
2026-01-04 09:11:59.87	75.32	70.68	-48.9	-50.1	14.9	0.00e+00	0	28	0	1220542464	63	4259
2026-01-04 09:12:03.91	69.49	71.17	-48.6	-49.7	15.0	0.00e+00	0	28	0	1233125376	63	4071
2026-01-04 09:12:07.94	63.40	71.47	-48.1	-49.1	15.0	0.00e+00	0	29	0	1245708288	62	4037
2026-01-04 09:12:11.96	57.19	71.56	-49.0	-50.1	14.8	0.00e+00	0	28	0	1258291200	63	4273
2026-01-04 09:12:16.00	50.95	71.45	-48.2	-49.2	15.0	0.00e+00	0	29	0	1270874112	62	4091
2026-01-04 09:12:20.04	44.86	71.14	-48.3	-49.4	14.9	0.00e+00	0	29	0	1283457024	62	4160
2026-01-04 09:12:24.07	39.07	70.63	-49.2	-50.4	14.8	0.00e+00	0	29	0	1296039936	63	4408
2026-01-04 09:12:28.10	33.64	69.96	-48.3	-49.4	14.9	0.00e+00	0	29	0	1308622848	62	4170
2026-01-04 09:12:32.13	28.63	69.13	-48.5	-49.6	15.0	0.00e+00	0	28	0	1321205760	63	4033
2026-01-04 09:12:36.16	24.06	68.17	-49.3	-50.5	14.8	0.00e+00	0	28	0	1333788672	63	4474
2026-01-04 09:12:40.20	19.92	67.11	-48.9	-50.0	14.8	0.00e+00	0	29	0	1346371584	62	4465
2026-01-04 09:12:44.21	16.22	65.97	-48.8	-49.9	15.1	0.00e+00	0	28	0	1358954496	64	3932
2026-01-04 09:12:48.25	12.88	64.76	-50.1	-51.3	14.7	0.00e+00	0	28	0	1371537408	65	4384
2026-01-04 09:12:52.29	9.88	63.50	-48.1	-49.1	15.0	0.00e+00	0	29	0	1384120320	62	4050
2026-01-04 09:12:56.33	7.20	62.20	-49.5	-50.7	14.8	0.00e+00	0	29	0	1396703232	65	4079
2026-01-04 09:13:00.37	4.79	60.88	-49.6	-50.7	14.7	0.00e+00	0	29	0	1409286144	64	4329
2026-01-04 09:13:04.40	2.63	59.55	-49.1	-50.2	14.9	0.00e+00	0	28	0	1421869056	64	4073
2026-01-04 09:13:08.44	0.67	58.22	-50.0	-51.2	14.6	0.00e+00	0	29	0	1434451968	65	4320
2026-01-04 09:13:12.47	358.91	56.88	-49.1	-50.2	14.9	0.00e+00	0	28	0	1447034880	64	4091
2026-01-04 09:13:16.49	357.32	55.56	-49.5	-50.6	14.8	0.00e+00	0	29	0	1459617792	64	4270
2026-01-04 09:13:20.53	355.86	54.24	-51.3	-52.7	14.5	0.00e+00	0	29	0	1472200704	68	4309
2026-01-04 09:13:24.56	354.54	52.95	-51.0	-52.3	14.5	0.00e+00	0	29	0	1484783616	67	4380
2026-01-04 09:13:28.59	353.32	51.67	-50.7	-52.0	14.6	0.00e+00	0	28	0	1497366528	67	4196
2026-01-04 09:13:32.62	352.21	50.41	-50.2	-51.4	14.7	0.00e+00	0	28	0	1509949440	66	4171
2026-01-04 09:13:36.66	351.18	49.18	-52.7	-54.3	14.0	0.00e+00	0	28	0	1522532352	70	4608
2026-01-04 09:13:40.69	350.24	47.97	-52.5	-54.1	14.2	0.00e+00	0	29	0	1535115264	71	4249
2026-01-04 09:13:44.71	349.37	46.78	-51.4	-52.8	14.5	0.00e+00	0	28	0	1547698176	69	4123
2026-01-04 09:13:48.74	348.56	45.63	-51.2	-52.5	14.5	0.00e+00	0	28	0	1560281088	68	4201
2026-01-04 09:13:52.77	347.81	44.49	-52.8	-54.4	13.8	0.00e+00	0	29	0	1572864000	70	4665
2026-01-04 09:13:56.81	347.11	43.39	-53.1	-54.8	13.8	0.00e+00	0	28	0	1585446912	71	4618
2026-01-04 09:14:00.84	346.46	42.31	-52.1	-53.5	14.3	0.00e+00	0	29	0	1598029824	70	4236
2026-01-04 09:14:04.86	345.85	41.26	-51.1	-52.5	14.6	0.00e+00	0	29	0	1610612736	68	4201
2026-01-04 09:14:08.90	345.28	40.23	-52.3	-53.9	14.1	0.00e+00	0	28	0	1624244224	69	4669
2026-01-04 09:14:12.93	344.75	39.23	-52.4	-54.0	14.0	0.00e+00	0	29	0	1635778560	70	4464
2026-01-04 09:14:16.97	344.24	38.25	-51.3	-52.7	14.6	0.00e+00	0	29	0	1649410048	69	4052
2026-01-04 09:14:21.01	343.77	37.30	-50.1	-51.4	14.7	0.00e+00	0	29	0	1661992960	66	4155
2026-01-04 09:14:25.05	343.32	36.38	-50.2	-51.4	14.7	0.00e+00	0	29	0	1674575872	66	4185
2026-01-04 09:14:29.08	342.90	35.47	-50.7	-52.0	14.5	0.00e+00	0	29	0	1687158784	66	4476
2026-01-04 09:14:33.11	342.51	34.60	-50.9	-52.2	14.5	0.00e+00	0	28	0	1699741696	67	4334
2026-01-04 09:14:37.14	342.13	33.74	-50.6	-51.9	14.6	0.00e+00	0	28	0	1712324608	67	4188
2026-01-04 09:14:41.17	341.77	32.91	-50.3	-51.6	14.7	0.00e+00	0	29	0	1724907520	67	4038
2026-01-04 09:14:45.19	341.44	32.10	-50.4	-51.7	14.7	0.00e+00	0	29	0	1737490432	67	4061
2026-01-04 09:14:49.22	341.12	31.31	-50.4	-51.7	14.7	0.00e+00	0	29	0	1750073344	67	4060
2026-01-04 09:14:53.26	340.81	30.53	-49.6	-50.8	14.8	0.00e+00	0	29	0	1762656256	65	4103
2026-01-04 09:14:57.29	340.52	29.78	-48.9	-50.1	14.9	0.00e+00	0	29	0	1775239168	64	4008
2026-01-04 09:15:01.32	340.25	29.05	-49.1	-50.2	14.9	0.00e+00	0	29	0	1787822080	64	4097
2026-01-04 09:15:05.36	339.98	28.33	-49.1	-50.2	14.9	0.00e+00	0	28	0	1800404992	64	4098
2026-01-04 09:15:09.39	339.73	27.63	-49.1	-50.2	14.9	0.00e+00	0	29	0	1812987904	64	4096
2026-01-04 09:15:13.42	339.49	26.95	-49.0	-50.1	14.9	0.00e+00	0	29	0	1825570816	64	4043
2026-01-04 09:15:17.45	339.26	26.28	-48.9	-50.1	15.0	0.00e+00	0	29	0	1838153728	64	4009
2026-01-04 09:15:21.49	339.04	25.63	-49.2	-50.3	14.9	0.00e+00	0	28	0	1850736640	64	4136
2026-01-04 09:15:25.52	338.83	24.99	-49.4	-50.6	14.8	0.00e+00	0	29	0	1863319552	64	4275
2026-01-04 09:15:29.55	338.63	24.37	-49.5	-50.8	14.7	0.00e+00	0	29	0	1875902464	64	4348
2026-01-04 09:15:33.59	338.44	23.77	-49.7	-50.9	14.7	0.00e+00	0	29	0	1888485376	64	4439
2026-01-04 09:15:37.62	338.25	23.17	-49.4	-50.7	14.7	0.00e+00	0	29	0	1901068288	64	4299
2026-01-04 09:15:41.65	338.07	22.59	-49.5	-50.7	14.7	0.00e+00	0	28	0	1913651200	64	4305
2026-01-04 09:15:45.68	337.90	22.02	-49.2	-50.3	14.8	0.00e+00	0	29	0	1926234112	64	4140
2026-01-04 09:15:49.71	337.74	21.47	-48.8	-50.0	15.0	0.00e+00	0	29	0	1938817024	64	3981
2026-01-04 09:15:53.74	337.58	20.93	-48.8	-50.0	14.9	0.00e+00	0	29	0	1951399936	64	3979
2026-01-04 09:15:57.77	337.43	20.39	-48.8	-49.9	15.0	0.00e+00	0	28	0	1963982848	64	3943
2026-01-04 09:16:01.80	337.28	19.87	-48.7	-49.8	15.0	0.00e+00	0	29	0	1976565760	64	3906
2026-01-04 09:16:05.83	337.14	19.36	-48.8	-50.0	15.0	0.00e+00	0	29	0	1989148672	64	3960
2026-01-04 09:16:09.87	337.01	18.86	-49.0	-50.1	14.9	0.00e+00	0	29	0	2001731584	64	4047
2026-01-04 09:16:13.90	336.87	18.37	-49.0	-50.2	14.9	0.00e+00	0	29	0	2014314496	64	4081
2026-01-04 09:16:17.93	336.75	17.88	-49.2	-50.4	14.8	0.00e+00	0	29	0	2026897408	64	4149
2026-01-04 09:16:21.97	336.63	17.41	-49.3	-50.5	14.7	0.00e+00	0	29	0	2039480320	64	4236
2026-01-04 09:16:26.01	336.51	16.95	-49.5	-50.7	14.7	0.00e+00	0	29	0	2052063232	64	4335
2026-01-04 09:16:30.04	336.39	16.49	-49.7	-51.0	14.6	0.00e+00	0	29	0	2064646144	64	4469
2026-01-04 09:16:34.07	336.29	16.04	-50.0	-51.3	14.6	7.60e-06	0	29	0	2077229056	65	4341
2026-01-04 09:16:38.10	336.18	15.60	-50.1	-51.4	14.5	0.00e+00	0	29	0	2089811968	65	4409
2026-01-04 09:16:42.14	336.08	15.17	-50.1	-51.5	14.5	0.00e+00	0	29	0	2102394880	65	4458
2026-01-04 09:16:46.17	335.98	14.75	-50.2	-51.5	14.5	0.00e+00	0	29	0	2114977792	65	4481
2026-01-04 09:16:50.20	335.88	14.33	-50.3	-51.6	14.4	0.00e+00	0	29	0	2127560704	65	4544
2026-01-04 09:16:54.23	335.79	13.92	-50.4	-51.8	14.4	0.00e+00	0	29	0	2140143616	65	4601
2026-01-04 09:16:58.26	335.70	13.52	-50.5	-51.8	14.4	0.00e+00	0	29	0	2152726528	66	4390
2026-01-04 09:17:02.29	335.61	13.12	-50.3	-51.7	14.5	0.00e+00	0	29	0	2165309440	66	4308
2026-01-04 09:17:06.33	335.53	12.73	-50.5	-51.9	14.4	0.00e+00	0	29	0	2177892352	66	4394
2026-01-04 09:17:10.37	335.45	12.34	-50.4	-51.8	14.4	0.00e+00	0	29	0	2190475264	66	4352
2026-01-04 09:17:14.40	335.37	11.97	-50.3	-51.7	14.4	0.00e+00	0	29	0	2203058176	66	4317
2026-01-04 09:17:18.43	335.29	11.59	-50.4	-51.7	14.4	0.00e+00	0	28	0	2215641088	66	4340
2026-01-04 09:17:22.47	335.21	11.22	-50.4	-51.8	14.4	0.00e+00	0	29	0	2228224000	66	4366
2026-01-04 09:17:26.50	335.14	10.86	-50.4	-51.8	14.4	0.00e+00	0	29	0	2240806912	66	4381
2026-01-04 09:17:30.53	335.07	10.51	-50.4	-51.8	14.4	0.00e+00	0	29	0	2253389824	66	4359
2026-01-04 09:17:34.57	335.00	10.15	-50.5	-51.9	14.3	0.00e+00	0	28	0	2265972736	66	4426
2026-01-04 09:17:38.60	334.94	9.81	-50.5	-51.9	14.3	0.00e+00	0	29	0	2278555648	66	4427
2026-01-04 09:17:42.63	334.87	9.46	-50.5	-52.0	14.3	0.00e+00	0	29	0	2291138560	66	4448
2026-01-04 09:17:46.66	334.81	9.13	-50.6	-52.0	14.3	7.00e-07	0	28	0	2303721472	66	4491
2026-01-04 09:17:50.69	334.75	8.79	-50.8	-52.2	14.2	0.00e+00	0	29	0	2317352960	66	4590
2026-01-04 09:17:54.73	334.69	8.46	-50.7	-52.2	14.2	0.00e+00	0	29	0	2328887296	66	4563
2026-01-04 09:17:58.76	334.64	8.14	-50.9	-52.5	14.1	0.00e+00	0	29	0	2342518784	67	4444
2026-01-04 09:18:02.80	334.58	7.82	-51.1	-52.7	14.0	0.00e+00	0	28	0	2355101696	67	4557
2026-01-04 09:18:06.83	334.53	7.50	-51.2	-52.8	13.9	0.00e+00	0	29	0	2367684608	67	4644
2026-01-04 09:18:10.87	334.48	7.19	-51.5	-53.1	13.9	0.00e+00	0	28	0	2380267520	68	4528
2026-01-04 09:18:14.90	334.42	6.88	-51.6	-53.2	13.9	0.00e+00	0	29	0	2392850432	68	4583
2026-01-04 09:18:18.93	334.38	6.57	-51.7	-53.4	13.8	0.00e+00	0	29	0	2405433344	68	4660
2026-01-04 09:18:22.95	334.33	6.27	-51.8	-53.5	13.7	0.00e+00	0	28	0	2418016256	68	4727
2026-01-04 09:18:26.99	334.28	5.98	-51.9	-53.7	13.7	0.00e+00	0	29	0	2430599168	69	4570
2026-01-04 09:18:31.02	334.24	5.68	-52.2	-54.0	13.5	0.00e+00	0	28	0	2443182080	69	4732
2026-01-04 09:18:35.05	334.19	5.39	-52.3	-54.2	13.4	0.00e+00	0	29	0	2455764992	69	4821
2026-01-04 09:18:39.08	334.15	5.10	-52.1	-54.0	13.5	0.00e+00	0	29	0	2468347904	70	4470
2026-01-04 09:18:43.12	334.11	4.81	-60.0	-73.9	3.8	1.49e+00	0	29	104	2473590784	85	18522
2026-01-04 09:18:47.16	334.07	4.53	-60.8	-74.6	3.8	1.49e+00	0	29	104	2473590784	86	19154
2026-01-04 09:18:51.20	334.03	4.25	-61.1	-75.0	3.8	1.49e+00	0	29	104	2473590784	87	18865
2026-01-04 09:18:55.23	333.99	3.97	-61.2	-75.1	3.8	1.49e+00	0	29	104	2473590784	87	19118
2026-01-04 09:18:59.27	333.95	3.70	-61.4	-75.2	3.8	1.49e+00	0	29	104	2473590784	87	19337
2026-01-04 09:19:03.31	333.91	3.43	-61.3	-75.2	3.8	1.49e+00	0	29	104	2473590784	87	19262
2026-01-04 09:19:07.35	333.88	3.16	-61.2	-75.1	3.8	1.49e+00	0	29	104	2473590784	87	19104
2026-01-04 09:19:11.38	333.84	2.89	-61.2	-75.1	3.8	1.49e+00	0	29	104	2473590784	87	18953
2026-01-04 09:19:15.42	333.81	2.63	-61.1	-75.1	3.8	1.49e+00	0	29	104	2473590784	87	18952
2026-01-04 09:19:19.45	333.78	2.37	-61.1	-75.0	3.8	1.49e+00	0	29	104	2473590784	87	18818
2026-01-04 09:19:23.49	333.75	2.11	-61.1	-75.0	3.8	1.49e+00	0	29	104	2473590784	87	18743

#Closed at: 2026-01-04 09:19:27
#Recorded file [2473 MB]: D:/lorett/data/31004_260104_120500.dat