passes_logs/2026/01/04/R3.2S_Murmansk/R3.2S_Murmansk__20260104_021826_FENGYUN_3D_rec.log

#Pass ID: 20260104_021826_FENGYUN 3D
#Satellite: FENGYUN 3D
#Configuration: FENGYUN 3D
#almurnet v.1.7.20251203
#Start time: 2026-01-04 02:18:27

#Version: 2.2.20231116
#Station: R3.2S_Murmansk
#Location: 33.079688 lon 68.888172 lat
#TLE: 1 43010U 17072A   26003.51579816  .00000092  00000+0  65324-4 0  9992
#TLE: 2 43010  98.9912 335.1548 0001916 128.4619 231.6729 14.19692074421623

#Time	Az	El	Level	Level2	SNR	BER	BlckErr	Temp	State	Recorded	gain1	gain2
2026-01-04 02:18:27.65	23.58	2.09	-58.5	-71.5	3.8	8.46e-01	0	27	0	0	83	15923
2026-01-04 02:18:31.63	23.65	2.34	-58.5	-71.5	3.8	8.46e-01	0	27	104	0	82	16871
2026-01-04 02:18:35.62	23.72	2.60	-58.5	-71.4	3.8	8.46e-01	0	27	104	0	82	16597
2026-01-04 02:18:39.61	23.78	2.86	-58.5	-70.6	3.8	8.45e-01	0	27	104	0	82	15151
2026-01-04 02:18:43.60	23.85	3.12	-58.3	-68.7	4.0	8.42e-01	0	27	104	0	82	12161
2026-01-04 02:18:47.60	23.92	3.38	-58.2	-67.7	4.3	8.30e-01	0	28	0	0	82	10806
2026-01-04 02:18:51.59	23.99	3.65	-58.3	-69.2	4.0	8.43e-01	0	28	104	0	82	12854
2026-01-04 02:18:55.58	24.06	3.92	-57.7	-64.9	5.5	7.24e-01	0	28	0	0	82	7880
2026-01-04 02:18:59.58	24.13	4.19	-56.2	-60.3	9.1	1.14e-02	0	28	0	22020096	79	5504
2026-01-04 02:19:03.59	24.20	4.47	-55.1	-58.3	10.7	4.05e-04	0	28	0	45088768	76	5195
2026-01-04 02:19:07.59	24.28	4.75	-55.1	-58.2	10.8	3.24e-04	0	28	0	67108864	76	5143
2026-01-04 02:19:11.59	24.35	5.03	-55.9	-59.7	9.5	3.69e-03	0	28	0	89128960	76	6123
2026-01-04 02:19:15.59	24.43	5.31	-54.3	-57.0	11.5	8.48e-02	0	28	0	112197632	75	4717
2026-01-04 02:19:19.57	24.51	5.60	-50.3	-51.8	14.2	0.00e+00	0	28	0	130023424	67	4113
2026-01-04 02:19:23.56	24.58	5.89	-50.0	-51.5	14.3	0.00e+00	0	28	0	152043520	66	4209
2026-01-04 02:19:27.53	24.66	6.18	-49.9	-51.3	14.4	0.00e+00	0	28	0	174063616	66	4104
2026-01-04 02:19:31.53	24.74	6.47	-49.5	-50.9	14.5	0.00e+00	0	28	0	197132288	65	4179
2026-01-04 02:19:35.52	24.82	6.77	-49.6	-51.0	14.5	0.00e+00	0	28	0	219152384	65	4212
2026-01-04 02:19:39.52	24.91	7.08	-49.4	-50.8	14.6	0.00e+00	0	28	0	242221056	65	4108
2026-01-04 02:19:43.53	24.99	7.39	-49.4	-50.7	14.6	0.00e+00	0	28	0	264241152	65	4080
2026-01-04 02:19:47.53	25.08	7.70	-49.1	-50.4	14.7	0.00e+00	0	28	0	287309824	64	4159
2026-01-04 02:19:51.53	25.17	8.01	-49.0	-50.3	14.7	0.00e+00	0	28	0	309329920	64	4138
2026-01-04 02:19:55.53	25.26	8.33	-48.9	-50.2	14.8	0.00e+00	0	28	0	332398592	64	4075
2026-01-04 02:19:59.51	25.35	8.65	-48.8	-50.1	14.8	0.00e+00	0	28	0	354418688	64	4026
2026-01-04 02:20:03.52	25.44	8.98	-48.9	-50.2	14.7	0.00e+00	0	28	0	376438784	63	4306
2026-01-04 02:20:07.50	25.53	9.31	-48.9	-50.1	14.7	0.00e+00	0	28	0	399507456	63	4289
2026-01-04 02:20:11.49	25.63	9.65	-48.8	-50.0	14.8	0.00e+00	0	28	0	421527552	63	4241
2026-01-04 02:20:15.48	25.72	9.99	-48.6	-49.8	14.8	0.00e+00	0	28	0	444596224	63	4140
2026-01-04 02:20:19.48	25.82	10.33	-48.5	-49.8	14.9	0.00e+00	0	28	0	466616320	63	4113
2026-01-04 02:20:23.48	25.93	10.68	-48.5	-49.8	14.9	0.00e+00	0	28	0	489684992	63	4115
2026-01-04 02:20:27.46	26.03	11.03	-48.5	-49.7	14.9	0.00e+00	0	28	0	511705088	63	4096
2026-01-04 02:20:31.45	26.13	11.39	-48.5	-49.7	14.9	0.00e+00	0	29	0	533725184	63	4082
2026-01-04 02:20:35.43	26.24	11.76	-48.5	-49.7	14.9	0.00e+00	0	28	0	556793856	63	4075
2026-01-04 02:20:39.41	26.35	12.13	-48.5	-49.7	14.9	0.00e+00	0	29	0	578813952	63	4065
2026-01-04 02:20:43.41	26.46	12.50	-48.3	-49.6	15.0	0.00e+00	0	29	0	601882624	63	4010
2026-01-04 02:20:47.40	26.58	12.88	-48.2	-49.4	14.9	0.00e+00	0	29	0	623902720	62	4147
2026-01-04 02:20:51.40	26.69	13.27	-48.0	-49.2	15.0	0.00e+00	0	29	0	645922816	62	4061
2026-01-04 02:20:55.41	26.82	13.67	-48.0	-49.1	15.0	0.00e+00	0	29	0	668991488	62	4049
2026-01-04 02:20:59.41	26.94	14.07	-47.8	-49.0	15.1	0.00e+00	0	29	0	691011584	62	3990
2026-01-04 02:21:03.40	27.06	14.48	-47.7	-48.9	15.1	0.00e+00	0	29	0	714080256	62	3927
2026-01-04 02:21:07.40	27.19	14.89	-47.4	-48.6	15.2	0.00e+00	0	29	0	736100352	61	4018
2026-01-04 02:21:11.39	27.32	15.31	-47.2	-48.4	15.2	0.00e+00	0	29	0	758120448	61	3922
2026-01-04 02:21:15.38	27.46	15.74	-47.1	-48.2	15.2	0.00e+00	0	29	0	781189120	60	4083
2026-01-04 02:21:19.38	27.60	16.18	-47.0	-48.1	15.2	0.00e+00	0	29	0	803209216	60	4046
2026-01-04 02:21:23.37	27.74	16.62	-46.9	-48.0	15.2	0.00e+00	0	29	0	826277888	60	3976
2026-01-04 02:21:27.38	27.89	17.07	-46.9	-48.0	15.2	0.00e+00	0	29	0	848297984	60	3997
2026-01-04 02:21:31.36	28.04	17.53	-47.0	-48.1	15.1	0.00e+00	0	29	0	871366656	59	4276
2026-01-04 02:21:35.35	28.19	18.00	-47.1	-48.3	15.1	0.00e+00	0	29	0	893386752	59	4343
2026-01-04 02:21:39.33	28.35	18.48	-47.1	-48.2	15.1	0.00e+00	0	29	0	915406848	59	4337
2026-01-04 02:21:43.32	28.51	18.96	-46.9	-48.1	15.1	0.00e+00	0	29	0	938475520	59	4248
2026-01-04 02:21:47.33	28.68	19.46	-46.8	-47.9	15.2	0.00e+00	0	29	0	960495616	59	4168
2026-01-04 02:21:51.32	28.85	19.97	-46.7	-47.8	15.2	0.00e+00	0	29	0	983564288	59	4125
2026-01-04 02:21:55.32	29.03	20.49	-46.7	-47.8	15.2	0.00e+00	0	29	0	1005584384	59	4127
2026-01-04 02:21:59.32	29.21	21.01	-46.7	-47.8	15.2	0.00e+00	0	29	0	1028653056	59	4126
2026-01-04 02:22:03.35	29.40	21.56	-46.6	-47.7	15.2	0.00e+00	0	29	0	1050673152	59	4087
2026-01-04 02:22:07.35	29.60	22.11	-46.3	-47.4	15.3	0.00e+00	0	29	0	1073741824	59	3942
2026-01-04 02:22:11.35	29.80	22.67	-46.1	-47.1	15.3	0.00e+00	0	29	0	1095761920	58	4047
2026-01-04 02:22:15.36	30.01	23.25	-46.0	-47.0	15.3	0.00e+00	0	29	0	1118830592	58	4003
2026-01-04 02:22:19.37	30.23	23.84	-45.9	-46.9	15.4	0.00e+00	0	29	0	1140850688	58	3957
2026-01-04 02:22:23.37	30.45	24.44	-45.9	-46.9	15.4	0.00e+00	0	29	0	1163919360	58	3948
2026-01-04 02:22:27.36	30.68	25.06	-45.8	-46.8	15.4	0.00e+00	0	29	0	1185939456	58	3913
2026-01-04 02:22:31.35	30.92	25.68	-45.9	-47.0	15.4	0.00e+00	0	29	0	1209008128	58	3961
2026-01-04 02:22:35.35	31.17	26.33	-45.6	-46.7	15.3	0.00e+00	0	29	0	1231028224	57	4057
2026-01-04 02:22:39.34	31.43	26.99	-45.3	-46.3	15.5	0.00e+00	0	29	0	1253048320	57	3889
2026-01-04 02:22:43.33	31.70	27.66	-45.3	-46.3	15.5	0.00e+00	0	29	0	1276116992	57	3911
2026-01-04 02:22:47.32	31.98	28.35	-45.6	-46.6	15.4	0.00e+00	0	29	0	1298137088	57	4051
2026-01-04 02:22:51.31	32.27	29.06	-45.6	-46.8	15.4	0.00e+00	0	29	0	1321205760	57	4104
2026-01-04 02:22:55.31	32.58	29.79	-45.3	-46.4	15.5	0.00e+00	0	29	0	1343225856	57	3926
2026-01-04 02:22:59.32	32.90	30.53	-45.4	-46.5	15.4	0.00e+00	0	29	0	1366294528	57	3968
2026-01-04 02:23:03.32	33.23	31.30	-45.5	-46.5	15.4	0.00e+00	0	29	0	1388314624	57	3975
2026-01-04 02:23:07.32	33.58	32.08	-45.6	-46.7	15.4	0.00e+00	0	29	0	1410334720	57	4059
2026-01-04 02:23:11.32	33.94	32.88	-45.4	-46.5	15.4	0.00e+00	0	29	0	1433403392	57	3961
2026-01-04 02:23:15.32	34.33	33.71	-45.3	-46.3	15.5	0.00e+00	0	29	0	1455423488	57	3888
2026-01-04 02:23:19.33	34.73	34.55	-45.5	-46.6	15.4	0.00e+00	0	29	0	1478492160	57	4028
2026-01-04 02:23:23.34	35.15	35.42	-45.2	-46.3	15.5	0.00e+00	0	29	0	1500512256	57	3869
2026-01-04 02:23:27.33	35.60	36.31	-45.6	-46.7	15.4	0.00e+00	0	29	0	1523580928	57	4060
2026-01-04 02:23:31.32	36.07	37.22	-45.1	-46.1	15.4	0.00e+00	0	29	0	1545601024	56	4018
2026-01-04 02:23:35.30	36.56	38.16	-45.2	-46.3	15.4	0.00e+00	0	29	0	1568669696	56	4100
2026-01-04 02:23:39.28	37.08	39.11	-44.9	-45.9	15.5	0.00e+00	0	29	0	1590689792	56	3917
2026-01-04 02:23:43.26	37.64	40.10	-45.3	-46.3	15.3	0.00e+00	0	29	0	1612709888	56	4121
2026-01-04 02:23:47.26	38.23	41.11	-45.3	-46.3	15.4	0.00e+00	0	29	0	1635778560	56	4137
2026-01-04 02:23:51.27	38.86	42.15	-45.3	-46.4	15.3	0.00e+00	0	29	0	1657798656	56	4162
2026-01-04 02:23:55.27	39.52	43.21	-45.9	-46.9	15.3	0.00e+00	0	29	0	1680867328	56	4421
2026-01-04 02:23:59.26	40.24	44.30	-45.8	-46.8	15.3	0.00e+00	0	29	0	1702887424	56	4387
2026-01-04 02:24:03.22	40.99	45.40	-46.1	-47.2	15.3	0.00e+00	0	29	0	1724907520	57	4293
2026-01-04 02:24:07.22	41.81	46.55	-45.6	-46.6	15.4	0.00e+00	0	29	0	1747976192	57	4019
2026-01-04 02:24:11.22	42.69	47.71	-45.9	-47.0	15.3	0.00e+00	0	29	0	1769996288	57	4206
2026-01-04 02:24:15.23	43.64	48.91	-45.6	-46.6	15.4	0.00e+00	0	29	0	1793064960	57	4037
2026-01-04 02:24:19.23	44.67	50.13	-46.2	-47.2	15.2	0.00e+00	0	29	0	1815085056	57	4332
2026-01-04 02:24:23.22	45.77	51.37	-46.0	-47.1	15.3	0.00e+00	0	29	0	1838153728	57	4270
2026-01-04 02:24:27.22	46.98	52.63	-46.8	-47.9	15.2	0.00e+00	0	29	0	1860173824	58	4419
2026-01-04 02:24:31.21	48.29	53.90	-46.5	-47.6	15.2	0.00e+00	0	29	0	1883242496	58	4272
2026-01-04 02:24:35.19	49.71	55.20	-47.1	-48.2	15.2	0.00e+00	0	29	0	1905262592	59	4311
2026-01-04 02:24:39.18	51.27	56.50	-47.0	-48.1	15.2	0.00e+00	0	29	0	1927282688	59	4269
2026-01-04 02:24:43.18	53.00	57.82	-46.3	-47.3	15.3	0.00e+00	0	29	0	1950351360	58	4129
2026-01-04 02:24:47.17	54.89	59.14	-46.6	-47.7	15.2	0.00e+00	0	29	0	1972371456	58	4310
2026-01-04 02:24:51.18	57.00	60.47	-46.0	-47.0	15.4	0.00e+00	0	29	0	1995440128	58	3992
2026-01-04 02:24:55.17	59.32	61.77	-45.7	-46.7	15.4	0.00e+00	0	29	0	2017460224	57	4083
2026-01-04 02:24:59.16	61.89	63.06	-45.4	-46.4	15.5	0.00e+00	0	29	0	2040528896	57	3954
2026-01-04 02:25:03.17	64.78	64.33	-45.4	-46.4	15.4	0.00e+00	0	29	0	2062548992	56	4192
2026-01-04 02:25:07.16	67.97	65.55	-45.3	-46.3	15.4	0.00e+00	0	29	0	2084569088	56	4130
2026-01-04 02:25:11.16	71.53	66.71	-45.3	-46.4	15.4	0.00e+00	0	29	0	2107637760	56	4154
2026-01-04 02:25:15.15	75.49	67.79	-44.9	-45.9	15.5	0.00e+00	0	29	0	2129657856	56	3933
2026-01-04 02:25:19.13	79.85	68.78	-44.8	-45.8	15.5	0.00e+00	0	29	0	2152726528	56	3901
2026-01-04 02:25:23.13	84.66	69.66	-45.1	-46.2	15.4	0.00e+00	0	29	0	2174746624	56	4052
2026-01-04 02:25:27.13	89.91	70.40	-44.8	-45.7	15.6	0.00e+00	0	29	0	2196766720	56	3864
2026-01-04 02:25:31.12	95.53	70.97	-44.5	-45.5	15.5	0.00e+00	0	29	0	2219835392	55	3997
2026-01-04 02:25:35.09	101.43	71.37	-44.5	-45.5	15.5	0.00e+00	0	29	0	2241855488	55	4001
2026-01-04 02:25:39.08	107.57	71.58	-44.5	-45.5	15.5	0.00e+00	0	29	0	2264924160	55	3987
2026-01-04 02:25:43.06	113.77	71.58	-44.4	-45.4	15.5	0.00e+00	0	29	0	2286944256	55	3927
2026-01-04 02:25:47.04	119.90	71.38	-44.7	-45.7	15.4	0.00e+00	0	29	0	2308964352	55	4079
2026-01-04 02:25:51.03	125.85	70.99	-44.8	-45.8	15.4	0.00e+00	0	29	0	2332033024	55	4129
2026-01-04 02:25:55.02	131.48	70.42	-45.1	-46.1	15.3	0.00e+00	0	29	0	2354053120	55	4257
2026-01-04 02:25:59.03	136.76	69.69	-44.7	-45.7	15.4	0.00e+00	0	29	0	2377121792	55	4091
2026-01-04 02:26:03.05	141.62	68.81	-45.1	-46.2	15.3	0.00e+00	0	29	0	2399141888	55	4299
2026-01-04 02:26:07.06	146.03	67.81	-45.2	-46.2	15.4	0.00e+00	0	29	0	2422210560	56	4095
2026-01-04 02:26:11.07	150.01	66.73	-45.1	-46.1	15.4	0.00e+00	0	29	0	2444230656	56	4039
2026-01-04 02:26:15.06	153.58	65.57	-45.2	-46.2	15.4	0.00e+00	0	29	0	2467299328	56	4065
2026-01-04 02:26:19.05	156.79	64.35	-45.3	-46.4	15.4	0.00e+00	0	29	0	2489319424	56	4164
2026-01-04 02:26:23.05	159.67	63.08	-45.4	-46.5	15.3	0.00e+00	0	29	0	2512388096	56	4198
2026-01-04 02:26:27.05	162.26	61.79	-45.6	-46.6	15.3	0.00e+00	0	29	0	2534408192	56	4285
2026-01-04 02:26:31.05	164.60	60.48	-45.9	-46.9	15.3	0.00e+00	0	29	0	2556428288	56	4437
2026-01-04 02:26:35.03	166.69	59.16	-46.2	-47.2	15.3	0.00e+00	0	29	0	2579496960	57	4323
2026-01-04 02:26:39.00	168.58	57.84	-46.6	-47.7	15.2	0.00e+00	0	29	0	2601517056	58	4311
2026-01-04 02:26:42.98	170.31	56.52	-46.7	-47.8	15.2	0.00e+00	0	29	0	2623537152	58	4357
2026-01-04 02:26:46.97	171.88	55.21	-46.8	-47.9	15.2	0.00e+00	0	29	0	2646605824	58	4413
2026-01-04 02:26:50.98	173.32	53.91	-46.6	-47.6	15.4	0.00e+00	0	29	0	2668625920	59	4025
2026-01-04 02:26:54.96	174.63	52.63	-46.7	-47.8	15.3	0.00e+00	0	29	0	2691694592	59	4121
2026-01-04 02:26:58.95	175.83	51.37	-46.3	-47.3	15.5	0.00e+00	0	29	0	2713714688	59	3909
2026-01-04 02:27:02.95	176.94	50.12	-46.0	-47.1	15.4	0.00e+00	0	29	0	2736783360	58	4014
2026-01-04 02:27:06.95	177.97	48.90	-45.6	-46.6	15.4	0.00e+00	0	29	0	2758803456	57	4051
2026-01-04 02:27:10.95	178.92	47.70	-46.4	-47.5	15.2	0.00e+00	0	29	0	2781872128	57	4451
2026-01-04 02:27:14.95	179.80	46.53	-45.9	-46.9	15.5	0.00e+00	0	29	0	2803892224	58	3918
2026-01-04 02:27:18.95	180.62	45.38	-46.0	-47.1	15.4	0.00e+00	0	29	0	2825912320	58	4026
2026-01-04 02:27:22.97	181.39	44.26	-45.9	-46.9	15.4	0.00e+00	0	29	0	2848980992	58	3945
2026-01-04 02:27:26.96	182.11	43.16	-46.0	-47.1	15.4	0.00e+00	0	29	0	2871001088	58	4013
2026-01-04 02:27:30.96	182.78	42.10	-45.5	-46.5	15.4	0.00e+00	0	29	0	2894069760	57	3995
2026-01-04 02:27:34.95	183.40	41.06	-45.3	-46.3	15.5	0.00e+00	0	29	0	2916089856	57	3896
2026-01-04 02:27:38.95	183.99	40.04	-45.3	-46.3	15.5	0.00e+00	0	29	0	2939158528	57	3875
2026-01-04 02:27:42.95	184.55	39.05	-45.1	-46.1	15.4	0.00e+00	0	29	0	2961178624	56	4036
2026-01-04 02:27:46.94	185.07	38.09	-45.4	-46.5	15.3	0.00e+00	0	29	0	2983198720	56	4198
2026-01-04 02:27:50.92	185.57	37.15	-45.6	-46.6	15.3	0.00e+00	0	29	0	3006267392	56	4291
2026-01-04 02:27:54.91	186.03	36.24	-45.4	-46.5	15.3	0.00e+00	0	29	0	3028287488	56	4199
2026-01-04 02:27:58.92	186.48	35.34	-45.4	-46.4	15.4	0.00e+00	0	29	0	3051356160	56	4163
2026-01-04 02:28:02.93	186.90	34.47	-45.2	-46.2	15.4	0.00e+00	0	29	0	3073376256	56	4091
2026-01-04 02:28:06.93	187.30	33.62	-45.2	-46.3	15.4	0.00e+00	0	29	0	3096444928	56	4100
2026-01-04 02:28:10.92	187.69	32.79	-45.4	-46.5	15.3	0.00e+00	0	29	0	3118465024	56	4198
2026-01-04 02:28:14.91	188.05	31.99	-45.7	-46.8	15.3	0.00e+00	0	29	0	3141533696	56	4348
2026-01-04 02:28:18.91	188.40	31.20	-45.7	-46.7	15.3	0.00e+00	0	29	0	3163553792	56	4322
2026-01-04 02:28:22.91	188.73	30.44	-45.5	-46.5	15.3	0.00e+00	0	29	0	3185573888	56	4232
2026-01-04 02:28:26.91	189.05	29.69	-45.6	-46.6	15.3	0.00e+00	0	29	0	3208642560	56	4267
2026-01-04 02:28:30.89	189.35	28.96	-45.6	-46.6	15.3	0.00e+00	0	29	0	3230662656	56	4273
2026-01-04 02:28:34.89	189.64	28.25	-45.5	-46.6	15.3	0.00e+00	0	29	0	3253731328	56	4245
2026-01-04 02:28:38.87	189.92	27.56	-45.5	-46.6	15.3	0.00e+00	0	29	0	3275751424	56	4246
2026-01-04 02:28:42.85	190.19	26.89	-45.7	-46.7	15.3	0.00e+00	0	29	0	3298820096	56	4316
2026-01-04 02:28:46.84	190.45	26.23	-45.8	-46.9	15.3	0.00e+00	0	29	0	3320840192	56	4407
2026-01-04 02:28:50.82	190.69	25.58	-45.9	-47.0	15.3	0.00e+00	0	29	0	3342860288	57	4210
2026-01-04 02:28:54.82	190.93	24.95	-46.2	-47.2	15.2	0.00e+00	0	29	0	3365928960	57	4330
2026-01-04 02:28:58.82	191.16	24.33	-46.1	-47.1	15.3	0.00e+00	0	29	0	3387949056	57	4288
2026-01-04 02:29:02.82	191.39	23.73	-46.2	-47.2	15.2	0.00e+00	0	29	0	3411017728	57	4332
2026-01-04 02:29:06.80	191.60	23.14	-46.3	-47.3	15.2	0.00e+00	0	29	0	3433037824	57	4388
2026-01-04 02:29:10.78	191.81	22.57	-46.3	-47.4	15.3	0.00e+00	0	29	0	3455057920	58	4175
2026-01-04 02:29:14.76	192.01	22.01	-46.4	-47.5	15.3	0.00e+00	0	29	0	3478126592	58	4196
2026-01-04 02:29:18.76	192.20	21.45	-46.5	-47.5	15.3	0.00e+00	0	29	0	3500146688	58	4235
2026-01-04 02:29:22.75	192.39	20.91	-46.4	-47.5	15.3	0.00e+00	0	29	0	3523215360	58	4194
2026-01-04 02:29:26.76	192.57	20.38	-46.5	-47.6	15.2	0.00e+00	0	29	0	3545235456	58	4271
2026-01-04 02:29:30.75	192.75	19.86	-46.6	-47.7	15.2	0.00e+00	0	29	0	3567255552	58	4300
2026-01-04 02:29:34.75	192.92	19.35	-46.8	-47.9	15.2	0.00e+00	0	29	0	3590324224	58	4417
2026-01-04 02:29:38.74	193.09	18.85	-47.1	-48.2	15.2	0.00e+00	0	29	0	3612344320	59	4299
2026-01-04 02:29:42.72	193.25	18.37	-47.1	-48.2	15.1	0.00e+00	0	29	0	3635412992	59	4320
2026-01-04 02:29:46.71	193.40	17.89	-47.3	-48.4	15.1	0.00e+00	0	29	0	3657433088	59	4408
2026-01-04 02:29:50.69	193.55	17.42	-47.1	-48.2	15.2	0.00e+00	0	29	0	3679453184	60	4083
2026-01-04 02:29:54.66	193.70	16.96	-47.0	-48.1	15.2	0.00e+00	0	29	0	3702521856	60	4023
2026-01-04 02:29:58.65	193.85	16.51	-47.2	-48.3	15.2	0.00e+00	0	29	0	3724541952	60	4132
2026-01-04 02:30:02.65	193.99	16.06	-47.3	-48.4	15.1	0.00e+00	0	29	0	3747610624	60	4191
2026-01-04 02:30:06.64	194.12	15.62	-47.6	-48.7	15.1	0.00e+00	0	29	0	3769630720	60	4318
2026-01-04 02:30:10.65	194.26	15.19	-47.6	-48.8	15.0	0.00e+00	0	29	0	3791650816	60	4341
2026-01-04 02:30:14.64	194.39	14.77	-47.7	-48.8	15.0	0.00e+00	0	29	0	3814719488	60	4390
2026-01-04 02:30:18.64	194.51	14.35	-47.8	-49.0	15.0	0.00e+00	0	29	0	3836739584	60	4472
2026-01-04 02:30:22.64	194.64	13.94	-47.9	-49.1	15.0	0.00e+00	0	29	0	3859808256	61	4275
2026-01-04 02:30:26.65	194.76	13.54	-48.0	-49.2	15.0	0.00e+00	0	29	0	3881828352	61	4292
2026-01-04 02:30:30.63	194.88	13.15	-48.1	-49.3	15.0	0.00e+00	0	29	0	3904897024	61	4343
2026-01-04 02:30:34.63	194.99	12.76	-48.2	-49.4	14.9	0.00e+00	0	29	0	3926917120	61	4411
2026-01-04 02:30:38.62	195.10	12.37	-48.2	-49.4	14.9	0.00e+00	0	29	0	3948937216	61	4428
2026-01-04 02:30:42.61	195.21	12.00	-48.3	-49.5	14.9	0.00e+00	0	29	0	3972005888	61	4480
2026-01-04 02:30:46.60	195.32	11.63	-48.3	-49.5	14.8	0.00e+00	0	29	0	3994025984	61	4443
2026-01-04 02:30:50.59	195.43	11.26	-48.3	-49.5	14.8	0.00e+00	0	29	0	4017094656	61	4459
2026-01-04 02:30:54.58	195.53	10.90	-48.5	-49.7	14.9	0.00e+00	0	29	0	4039114752	62	4299
2026-01-04 02:30:58.57	195.63	10.54	-48.4	-49.6	14.9	0.00e+00	0	29	0	4061134848	62	4290
2026-01-04 02:31:02.58	195.73	10.19	-48.5	-49.7	14.8	0.00e+00	0	29	0	4084203520	62	4331
2026-01-04 02:31:06.58	195.83	9.85	-48.6	-49.8	14.8	0.00e+00	0	29	0	4106223616	62	4384
2026-01-04 02:31:10.59	195.92	9.50	-48.7	-49.9	14.8	0.00e+00	0	29	0	4129292288	62	4416
2026-01-04 02:31:14.59	196.02	9.17	-48.7	-49.9	14.8	0.00e+00	0	29	0	4151312384	62	4428
2026-01-04 02:31:18.56	196.11	8.84	-48.8	-50.0	14.7	0.00e+00	0	29	0	4174381056	62	4477
2026-01-04 02:31:22.56	196.20	8.51	-48.9	-50.2	14.7	0.00e+00	0	29	0	4196401152	63	4297
2026-01-04 02:31:26.55	196.28	8.19	-48.9	-50.2	14.7	0.00e+00	0	29	0	4219469824	63	4315
2026-01-04 02:31:30.55	196.37	7.87	-49.0	-50.3	14.7	0.00e+00	0	29	0	4241489920	63	4371
2026-01-04 02:31:34.55	196.46	7.55	-49.1	-50.4	14.6	0.00e+00	0	29	0	4264558592	63	4426
2026-01-04 02:31:38.54	196.54	7.24	-49.3	-50.6	14.6	0.00e+00	0	29	0	4286578688	63	4524
2026-01-04 02:31:42.53	196.62	6.93	-49.4	-50.8	14.5	0.00e+00	0	29	0	4308598784	64	4359
2026-01-04 02:31:46.50	196.70	6.63	-49.4	-50.8	14.5	0.00e+00	0	29	0	4331667456	64	4346
2026-01-04 02:31:50.49	196.78	6.33	-49.5	-50.9	14.5	0.00e+00	0	29	0	4353687552	64	4404
2026-01-04 02:31:54.49	196.86	6.03	-49.7	-51.1	14.4	0.00e+00	0	29	0	4376756224	64	4514
2026-01-04 02:31:58.48	196.93	5.74	-49.7	-51.1	14.4	0.00e+00	0	29	0	4398776320	64	4521
2026-01-04 02:32:02.48	197.01	5.45	-49.8	-51.3	14.3	0.00e+00	0	29	0	4420796416	64	4614
2026-01-04 02:32:06.49	197.08	5.16	-50.1	-51.5	14.2	0.00e+00	0	29	0	4443865088	65	4490
2026-01-04 02:32:10.48	197.16	4.87	-59.8	-72.9	3.8	8.45e-01	0	29	104	4456448000	84	17598
2026-01-04 02:32:14.48	197.23	4.59	-60.4	-73.5	3.8	8.46e-01	0	29	104	4456448000	86	16844
2026-01-04 02:32:18.47	197.30	4.31	-60.7	-73.8	3.8	8.45e-01	0	29	104	4456448000	86	17389
2026-01-04 02:32:22.47	197.37	4.04	-60.9	-74.0	3.8	8.44e-01	0	29	104	4456448000	86	17792
2026-01-04 02:32:26.47	197.44	3.76	-61.0	-74.1	3.8	8.45e-01	0	29	104	4456448000	87	17010
2026-01-04 02:32:30.46	197.50	3.49	-61.1	-74.3	3.8	8.45e-01	0	29	104	4456448000	87	17303
2026-01-04 02:32:34.46	197.57	3.22	-61.1	-74.2	3.8	8.47e-01	0	29	104	4456448000	87	17170
2026-01-04 02:32:38.48	197.64	2.96	-61.0	-74.1	3.8	8.43e-01	0	29	104	4456448000	87	17059
2026-01-04 02:32:42.48	197.70	2.69	-61.0	-74.1	3.8	8.47e-01	0	29	104	4456448000	87	17005
2026-01-04 02:32:46.48	197.76	2.43	-61.0	-74.1	3.8	8.44e-01	0	29	104	4456448000	87	16953
2026-01-04 02:32:50.47	197.83	2.18	-60.9	-74.1	3.8	8.45e-01	0	29	104	4456448000	87	16913

#Closed at: 2026-01-04 02:32:54
#Recorded file [4456 MB]: D:/lorett/data/31004_260104_051827.dat