passes_logs/2026/01/04/R3.2S_Murmansk/R3.2S_Murmansk__20260104_015116_AQUA_rec.log

#Pass ID: 20260104_015116_AQUA
#Satellite: AQUA
#Configuration: AQUA
#almurnet v.1.7.20251203
#Start time: 2026-01-04 01:51:18

#Version: 2.2.20231116
#Station: R3.2S_Murmansk
#Location: 33.079688 lon 68.888172 lat
#TLE: 1 27424U 02022A   25365.92641127  .00002078  00000+0  42628-3 0  9999
#TLE: 2 27424  98.4058 327.1196 0001962  94.7781 340.6230 14.61783896258835

#Time	Az	El	Level	Level2	SNR	BER	BlckErr	Temp	State	Recorded	gain1	gain2
2026-01-04 01:51:18.35	22.56	2.10	-58.2	-77.5	3.8	7.49e-01	0	27	0	0	85	32678
2026-01-04 01:51:21.34	22.62	2.30	-58.0	-77.2	3.8	7.47e-01	0	27	104	0	83	35654
2026-01-04 01:51:24.35	22.68	2.50	-58.0	-77.2	3.8	7.47e-01	0	27	104	0	83	35691
2026-01-04 01:51:27.34	22.73	2.70	-58.0	-77.2	3.8	7.46e-01	0	27	104	0	83	35559
2026-01-04 01:51:30.35	22.79	2.91	-58.0	-76.9	3.8	7.44e-01	0	27	104	0	83	34359
2026-01-04 01:51:33.35	22.85	3.11	-57.9	-76.4	3.8	7.47e-01	0	27	104	0	83	32523
2026-01-04 01:51:36.34	22.91	3.32	-57.8	-75.9	3.9	7.43e-01	0	27	104	0	83	30545
2026-01-04 01:51:39.34	22.97	3.52	-57.9	-76.3	3.8	7.47e-01	0	27	104	0	83	32147
2026-01-04 01:51:42.34	23.03	3.73	-57.9	-76.4	3.8	7.47e-01	0	27	104	0	83	32329
2026-01-04 01:51:45.33	23.10	3.94	-57.3	-73.6	3.8	7.44e-01	0	27	104	0	83	23536
2026-01-04 01:51:48.32	23.16	4.16	-56.8	-72.1	3.8	7.43e-01	0	27	104	0	82	20795
2026-01-04 01:51:51.31	23.22	4.37	-56.0	-70.2	3.9	7.45e-01	0	27	104	0	81	17685
2026-01-04 01:51:54.31	23.29	4.59	-55.9	-69.9	3.8	7.47e-01	0	27	104	0	81	17158
2026-01-04 01:51:57.30	23.35	4.81	-56.1	-70.3	3.8	7.45e-01	0	27	104	0	80	18969
2026-01-04 01:52:00.29	23.42	5.03	-56.3	-70.7	3.8	7.46e-01	0	28	104	0	80	19867
2026-01-04 01:52:03.28	23.49	5.25	-57.5	-74.1	3.9	7.46e-01	0	28	104	0	83	24752
2026-01-04 01:52:06.28	23.55	5.48	-54.3	-67.0	3.8	7.47e-01	0	28	104	0	77	15433
2026-01-04 01:52:09.29	23.62	5.70	-55.8	-69.5	3.8	7.47e-01	0	28	104	0	80	17288
2026-01-04 01:52:12.29	23.69	5.93	-53.2	-65.3	3.8	7.47e-01	0	28	104	0	74	15142
2026-01-04 01:52:15.28	23.76	6.16	-52.2	-64.1	3.9	7.47e-01	0	28	104	0	73	13945
2026-01-04 01:52:18.28	23.84	6.40	-55.6	-69.0	3.9	7.44e-01	0	28	104	0	78	18432
2026-01-04 01:52:21.28	23.91	6.64	-57.1	-72.7	3.9	7.45e-01	0	28	104	0	82	22424
2026-01-04 01:52:24.28	23.98	6.87	-52.2	-63.9	3.9	7.45e-01	0	28	104	0	73	13696
2026-01-04 01:52:27.29	24.06	7.12	-57.3	-73.0	3.9	7.43e-01	0	28	104	0	83	21899
2026-01-04 01:52:30.29	24.13	7.36	-52.9	-64.9	3.8	7.46e-01	0	28	104	0	74	14405
2026-01-04 01:52:33.29	24.21	7.61	-52.0	-63.7	3.9	7.45e-01	0	28	104	0	73	13414
2026-01-04 01:52:36.28	24.29	7.86	-52.9	-64.9	3.8	7.47e-01	0	28	104	0	74	14444
2026-01-04 01:52:39.27	24.37	8.11	-52.7	-64.7	3.8	7.45e-01	0	28	104	0	74	14110
2026-01-04 01:52:42.27	24.45	8.36	-55.4	-68.5	3.9	7.45e-01	0	28	104	0	79	16332
2026-01-04 01:52:45.26	24.53	8.62	-58.3	-75.7	3.9	7.43e-01	0	28	104	0	84	28219
2026-01-04 01:52:48.25	24.62	8.88	-51.1	-62.7	3.9	7.42e-01	0	28	104	0	71	13348
2026-01-04 01:52:51.23	24.70	9.14	-57.6	-73.5	3.9	7.42e-01	0	28	104	0	83	23231
2026-01-04 01:52:54.21	24.79	9.40	-52.3	-64.1	3.9	7.45e-01	0	28	104	0	73	13980
2026-01-04 01:52:57.21	24.87	9.67	-56.3	-70.1	3.9	7.44e-01	0	28	104	0	81	17567
2026-01-04 01:53:00.20	24.96	9.95	-51.8	-63.5	3.9	7.44e-01	0	28	104	0	72	13801
2026-01-04 01:53:03.20	25.05	10.22	-51.2	-62.8	3.9	7.43e-01	0	28	104	0	71	13435
2026-01-04 01:53:06.20	25.15	10.50	-55.1	-68.0	3.9	7.45e-01	0	28	104	0	78	16352
2026-01-04 01:53:09.20	25.24	10.79	-58.3	-75.4	3.8	7.47e-01	0	28	104	0	84	27236
2026-01-04 01:53:12.20	25.34	11.07	-50.9	-62.4	3.9	7.46e-01	0	28	104	0	71	12853
2026-01-04 01:53:15.22	25.44	11.37	-57.7	-73.5	3.9	7.44e-01	0	28	104	0	83	23166
2026-01-04 01:53:18.21	25.54	11.66	-51.8	-63.4	3.8	7.44e-01	0	28	104	0	72	13692
2026-01-04 01:53:21.20	25.64	11.96	-55.8	-69.0	3.9	7.46e-01	0	28	104	0	80	16498
2026-01-04 01:53:24.20	25.74	12.26	-51.3	-62.8	3.9	7.44e-01	0	28	104	0	71	13540
2026-01-04 01:53:27.19	25.85	12.57	-50.7	-62.1	3.9	7.44e-01	0	28	104	0	70	13207
2026-01-04 01:53:30.19	25.95	12.88	-55.1	-67.8	3.9	7.45e-01	0	28	104	0	79	15194
2026-01-04 01:53:33.19	26.06	13.19	-58.5	-75.5	3.9	7.43e-01	0	28	104	0	84	27400
2026-01-04 01:53:36.19	26.18	13.51	-51.6	-63.1	3.9	7.45e-01	0	28	104	0	72	13210
2026-01-04 01:53:39.18	26.29	13.84	-57.8	-73.7	3.9	7.44e-01	0	28	104	0	83	23622
2026-01-04 01:53:42.18	26.41	14.17	-51.5	-63.1	3.8	7.43e-01	0	28	104	0	72	13139
2026-01-04 01:53:45.17	26.53	14.50	-56.2	-69.7	3.9	7.46e-01	0	28	104	0	81	16868
2026-01-04 01:53:48.17	26.65	14.84	-51.3	-62.8	3.8	7.47e-01	0	28	104	0	71	13554
2026-01-04 01:53:51.15	26.77	15.18	-50.9	-62.3	3.9	7.43e-01	0	28	104	0	71	12745
2026-01-04 01:53:54.15	26.90	15.53	-54.2	-66.5	3.9	7.45e-01	0	28	104	0	76	15430
2026-01-04 01:53:57.14	27.03	15.88	-57.4	-72.3	3.9	7.44e-01	0	28	104	0	83	20215
2026-01-04 01:54:00.12	27.16	16.24	-50.2	-61.6	3.9	7.45e-01	0	28	104	0	69	13119
2026-01-04 01:54:03.11	27.30	16.61	-57.4	-72.2	3.8	7.45e-01	0	28	104	0	82	21142
2026-01-04 01:54:06.10	27.44	16.98	-50.9	-62.3	3.8	7.45e-01	0	28	104	0	70	13549
2026-01-04 01:54:09.11	27.58	17.36	-53.5	-65.6	3.9	7.43e-01	0	28	104	0	75	14866
2026-01-04 01:54:12.13	27.73	17.75	-50.7	-62.1	3.8	7.45e-01	0	28	104	0	70	13114
2026-01-04 01:54:15.13	27.88	18.14	-50.3	-61.7	3.9	7.49e-01	0	28	104	0	69	13299
2026-01-04 01:54:18.12	28.03	18.54	-53.7	-65.8	3.8	7.46e-01	0	28	104	0	75	15158
2026-01-04 01:54:21.12	28.19	18.95	-57.3	-71.8	3.8	7.43e-01	0	28	104	0	82	20197
2026-01-04 01:54:24.12	28.35	19.36	-50.2	-61.5	3.8	7.47e-01	0	28	104	0	69	12992
2026-01-04 01:54:27.12	28.52	19.78	-58.3	-74.1	3.8	7.45e-01	0	28	104	0	84	23430
2026-01-04 01:54:30.10	28.69	20.21	-50.6	-61.9	3.9	7.43e-01	0	28	104	0	70	12918
2026-01-04 01:54:33.09	28.86	20.65	-56.5	-70.0	3.9	7.45e-01	0	28	104	0	81	17370
2026-01-04 01:54:36.09	29.05	21.09	-50.7	-62.2	3.8	7.46e-01	0	28	104	0	70	13269
2026-01-04 01:54:39.09	29.23	21.54	-51.0	-62.5	3.9	7.45e-01	0	28	104	0	70	13734
2026-01-04 01:54:42.09	29.42	22.01	-53.8	-65.9	3.8	7.45e-01	0	28	104	0	75	15334
2026-01-04 01:54:45.09	29.62	22.48	-57.4	-71.9	3.8	7.41e-01	0	28	104	0	82	20336
2026-01-04 01:54:48.08	29.82	22.96	-50.8	-62.2	3.8	7.44e-01	0	28	104	0	70	13264
2026-01-04 01:54:51.06	30.03	23.45	-57.7	-72.4	3.9	7.47e-01	0	28	104	0	83	20426
2026-01-04 01:54:54.06	30.25	23.95	-51.8	-63.4	3.8	7.48e-01	0	28	104	0	72	13712
2026-01-04 01:54:57.05	30.47	24.46	-53.2	-65.0	3.9	7.46e-01	0	28	104	0	74	14562
2026-01-04 01:55:00.04	30.70	24.97	-51.4	-62.8	3.9	7.43e-01	0	28	104	0	72	12807
2026-01-04 01:55:03.04	30.94	25.51	-51.3	-62.7	3.9	7.45e-01	0	28	104	0	71	13348
2026-01-04 01:55:06.04	31.19	26.05	-55.2	-67.8	3.8	7.46e-01	0	28	104	0	78	16002
2026-01-04 01:55:09.03	31.44	26.60	-58.8	-75.4	3.8	7.43e-01	0	28	104	0	85	25673
2026-01-04 01:55:12.03	31.70	27.17	-51.8	-63.2	3.9	7.49e-01	0	28	104	0	72	13391
2026-01-04 01:55:15.03	31.98	27.75	-58.6	-74.3	3.8	7.48e-01	0	28	104	0	84	23981
2026-01-04 01:55:18.03	32.26	28.34	-50.3	-61.6	3.9	7.45e-01	0	28	104	0	69	13143
2026-01-04 01:55:21.02	32.55	28.95	-56.9	-70.7	3.8	7.47e-01	0	28	104	0	81	18780
2026-01-04 01:55:24.01	32.86	29.57	-50.2	-61.6	3.8	7.42e-01	0	28	104	0	69	13130
2026-01-04 01:55:27.01	33.17	30.20	-50.4	-61.7	3.8	7.45e-01	0	28	104	0	69	13296
2026-01-04 01:55:30.00	33.50	30.85	-54.7	-67.0	3.8	7.43e-01	0	28	104	0	78	14662
2026-01-04 01:55:32.99	33.85	31.51	-58.9	-75.3	3.8	7.42e-01	0	28	104	0	85	25320
2026-01-04 01:55:36.00	34.21	32.19	-50.4	-61.7	3.8	7.47e-01	0	28	104	0	70	12591
2026-01-04 01:55:39.00	34.58	32.88	-58.7	-74.5	3.8	7.44e-01	0	29	104	0	85	23264
2026-01-04 01:55:42.00	34.97	33.59	-50.6	-61.9	3.9	7.46e-01	0	29	104	0	70	12887
2026-01-04 01:55:45.00	35.38	34.32	-57.1	-71.0	3.9	7.46e-01	0	29	104	0	82	18364
2026-01-04 01:55:48.01	35.80	35.06	-51.2	-62.5	3.9	7.44e-01	0	29	104	0	71	13088
2026-01-04 01:55:51.00	36.25	35.82	-51.7	-63.2	3.9	7.48e-01	0	29	104	0	72	13385
2026-01-04 01:55:53.99	36.71	36.60	-53.9	-65.9	3.8	7.47e-01	0	28	104	0	75	15243
2026-01-04 01:55:56.97	37.20	37.39	-58.0	-72.8	3.8	7.47e-01	0	29	104	0	83	21374
2026-01-04 01:55:59.96	37.71	38.20	-52.1	-63.6	3.8	7.40e-01	0	29	104	0	73	13255
2026-01-04 01:56:02.95	38.25	39.03	-59.1	-75.7	3.8	7.45e-01	0	29	104	0	85	26490
2026-01-04 01:56:05.95	38.82	39.89	-51.9	-63.5	3.8	7.47e-01	0	29	104	0	73	13043
2026-01-04 01:56:08.94	39.42	40.75	-58.0	-72.7	3.8	7.46e-01	0	29	104	0	83	21187
2026-01-04 01:56:11.93	40.05	41.64	-51.7	-63.1	3.8	7.48e-01	0	29	104	0	72	13251
2026-01-04 01:56:14.94	40.72	42.56	-50.7	-62.0	3.8	7.46e-01	0	29	104	0	70	13046
2026-01-04 01:56:17.93	41.43	43.48	-51.9	-63.3	3.8	7.41e-01	0	29	104	0	71	14296
2026-01-04 01:56:20.93	42.18	44.43	-56.8	-70.0	3.8	7.42e-01	0	29	104	0	81	17411
2026-01-04 01:56:23.92	42.98	45.40	-50.1	-61.4	3.8	7.46e-01	0	29	104	0	69	12811
2026-01-04 01:56:26.90	43.83	46.38	-58.8	-74.6	3.8	7.46e-01	0	29	104	0	85	23327
2026-01-04 01:56:29.90	44.73	47.39	-49.9	-61.1	3.8	7.46e-01	0	29	104	0	69	12467
2026-01-04 01:56:32.89	45.69	48.41	-56.8	-70.2	3.8	7.44e-01	0	29	104	0	81	17743
2026-01-04 01:56:35.89	46.73	49.45	-51.6	-63.0	3.8	7.45e-01	0	29	104	0	72	13025
2026-01-04 01:56:38.88	47.83	50.50	-50.1	-61.3	3.8	7.44e-01	0	28	104	0	69	12709
2026-01-04 01:56:41.87	49.01	51.57	-50.7	-62.2	3.8	7.45e-01	0	28	104	0	69	14056
2026-01-04 01:56:44.87	50.28	52.65	-55.6	-68.0	3.8	7.45e-01	0	28	104	0	78	16406
2026-01-04 01:56:47.87	51.66	53.74	-49.8	-61.0	3.8	7.46e-01	0	29	104	0	68	12969
2026-01-04 01:56:50.87	53.14	54.84	-58.8	-74.2	3.9	7.46e-01	0	29	104	0	85	22392
2026-01-04 01:56:53.86	54.73	55.93	-50.5	-61.7	3.9	7.47e-01	0	29	104	0	70	12614
2026-01-04 01:56:56.85	56.45	57.03	-58.4	-73.0	3.8	7.47e-01	0	29	104	0	84	20767
2026-01-04 01:56:59.84	58.32	58.13	-54.0	-65.7	3.8	7.46e-01	0	29	104	0	77	13318
2026-01-04 01:57:02.83	60.35	59.21	-52.4	-64.1	3.8	7.44e-01	0	29	104	0	73	13937
2026-01-04 01:57:05.83	62.55	60.29	-52.5	-54.5	15.2	6.02e-01	0	29	0	524288	73	4622
2026-01-04 01:57:08.82	64.95	61.34	-56.5	-60.1	14.1	6.01e-01	0	29	0	6291456	80	5923
2026-01-04 01:57:11.81	67.54	62.36	-52.8	-54.9	15.3	6.01e-01	0	29	0	11534336	74	4566
2026-01-04 01:57:14.81	70.38	63.34	-53.1	-55.1	15.3	6.02e-01	0	29	0	17301504	74	4692
2026-01-04 01:57:17.80	73.44	64.27	-54.2	-56.6	15.0	5.98e-01	0	29	0	23068672	76	4928
2026-01-04 01:57:20.80	76.76	65.15	-54.5	-57.0	14.9	6.00e-01	0	28	0	28835840	77	4901
2026-01-04 01:57:23.79	80.33	65.95	-54.9	-57.5	14.8	6.01e-01	0	29	0	34078720	77	5180
2026-01-04 01:57:26.78	84.16	66.68	-54.5	-57.0	15.0	6.00e-01	0	29	0	39845888	77	4890
2026-01-04 01:57:29.78	88.26	67.30	-54.3	-56.8	15.0	6.02e-01	0	29	0	45613056	77	4773
2026-01-04 01:57:32.78	92.58	67.83	-54.4	-56.8	15.0	6.01e-01	0	29	0	50855936	77	4796
2026-01-04 01:57:35.77	97.10	68.23	-54.3	-56.7	15.0	6.02e-01	0	29	0	56623104	77	4757
2026-01-04 01:57:38.76	101.76	68.50	-54.3	-56.7	15.1	6.00e-01	0	29	0	62390272	77	4727
2026-01-04 01:57:41.76	106.55	68.64	-54.3	-56.7	15.1	6.02e-01	0	28	0	67633152	77	4720
2026-01-04 01:57:44.75	111.35	68.65	-54.3	-56.7	15.0	6.00e-01	0	28	0	73400320	76	4993
2026-01-04 01:57:47.74	116.13	68.52	-53.6	-55.9	15.1	6.02e-01	0	28	0	79167488	75	4815
2026-01-04 01:57:50.76	120.85	68.25	-53.4	-55.6	15.2	6.01e-01	0	29	0	84934656	75	4669
2026-01-04 01:57:53.74	125.36	67.85	-53.3	-55.4	15.3	5.98e-01	0	28	0	90177536	75	4570
2026-01-04 01:57:56.73	129.69	67.34	-53.5	-55.7	15.2	5.99e-01	0	29	0	95944704	75	4732
2026-01-04 01:57:59.72	133.79	66.72	-53.2	-55.3	15.3	5.99e-01	0	28	0	101711872	75	4522
2026-01-04 01:58:02.71	137.64	66.00	-53.2	-55.3	15.3	6.03e-01	0	29	0	106954752	75	4538
2026-01-04 01:58:05.70	141.23	65.20	-52.3	-54.2	15.5	6.03e-01	0	29	0	112721920	73	4463
2026-01-04 01:58:08.69	144.56	64.33	-52.0	-53.9	15.5	5.97e-01	0	28	0	118489088	73	4293
2026-01-04 01:58:11.70	147.66	63.39	-52.0	-53.8	15.5	6.01e-01	0	29	0	124256256	73	4259
2026-01-04 01:58:14.70	150.51	62.41	-51.9	-53.7	15.5	6.03e-01	0	28	0	129499136	72	4470
2026-01-04 01:58:17.70	153.13	61.39	-51.5	-53.2	15.6	6.03e-01	0	29	0	135266304	72	4223
2026-01-04 01:58:20.68	155.53	60.34	-51.9	-53.8	15.4	6.04e-01	0	29	0	141033472	72	4495
2026-01-04 01:58:23.68	157.75	59.27	-51.8	-53.6	15.4	6.00e-01	0	28	0	146276352	71	4691
2026-01-04 01:58:26.67	159.79	58.18	-51.2	-52.8	15.6	6.01e-01	0	29	0	152043520	71	4275
2026-01-04 01:58:29.67	161.68	57.08	-51.0	-52.7	15.6	6.02e-01	0	28	0	157810688	71	4234
2026-01-04 01:58:32.67	163.42	55.97	-50.2	-51.8	15.6	6.02e-01	0	28	0	163053568	69	4265
2026-01-04 01:58:35.66	165.02	54.87	-50.1	-51.7	15.7	6.01e-01	0	29	0	168820736	69	4227
2026-01-04 01:58:38.66	166.50	53.77	-50.0	-51.6	15.7	6.01e-01	0	28	0	174587904	69	4168
2026-01-04 01:58:41.66	167.88	52.67	-50.1	-51.7	15.7	6.02e-01	0	29	0	180355072	69	4209
2026-01-04 01:58:44.66	169.16	51.59	-50.2	-51.7	15.7	6.00e-01	0	29	0	185597952	69	4228
2026-01-04 01:58:47.66	170.35	50.52	-50.7	-52.4	15.5	5.99e-01	0	28	0	191365120	69	4569
2026-01-04 01:58:50.65	171.46	49.46	-50.9	-52.5	15.4	6.00e-01	0	29	0	197132288	69	4643
2026-01-04 01:58:53.64	172.49	48.42	-50.9	-52.6	15.4	6.00e-01	0	29	0	202375168	69	4694
2026-01-04 01:58:56.63	173.46	47.40	-51.0	-52.7	15.5	6.02e-01	0	29	0	208142336	70	4482
2026-01-04 01:58:59.62	174.37	46.39	-50.8	-52.5	15.6	6.01e-01	0	29	0	213909504	70	4370
2026-01-04 01:59:02.62	175.22	45.40	-50.6	-52.2	15.6	5.98e-01	0	28	0	219676672	70	4242
2026-01-04 01:59:05.61	176.02	44.43	-50.7	-52.4	15.6	6.02e-01	0	29	0	224919552	70	4296
2026-01-04 01:59:08.60	176.77	43.48	-50.8	-52.4	15.6	6.00e-01	0	28	0	230686720	70	4333
2026-01-04 01:59:11.60	177.48	42.54	-50.8	-52.4	15.6	6.00e-01	0	29	0	236453888	70	4313
2026-01-04 01:59:14.59	178.15	41.63	-51.0	-52.7	15.5	6.00e-01	0	29	0	241696768	70	4475
2026-01-04 01:59:17.60	178.79	40.73	-51.3	-53.0	15.4	6.01e-01	0	29	0	247463936	70	4631
2026-01-04 01:59:20.60	179.39	39.86	-51.5	-53.3	15.3	6.00e-01	0	29	0	253231104	70	4800
2026-01-04 01:59:23.59	179.96	39.00	-51.1	-52.8	15.6	5.99e-01	0	29	0	258998272	71	4275
2026-01-04 01:59:26.59	180.50	38.17	-51.1	-52.8	15.6	6.00e-01	0	28	0	264241152	71	4291
2026-01-04 01:59:29.58	181.02	37.35	-51.0	-52.7	15.6	6.01e-01	0	29	0	270008320	71	4237
2026-01-04 01:59:32.58	181.51	36.55	-50.9	-52.6	15.6	6.01e-01	0	29	0	275775488	71	4156
2026-01-04 01:59:35.57	181.97	35.77	-50.6	-52.2	15.6	6.01e-01	0	29	0	281018368	70	4207
2026-01-04 01:59:38.57	182.42	35.01	-50.2	-51.8	15.6	6.03e-01	0	28	0	286785536	69	4271
2026-01-04 01:59:41.57	182.85	34.26	-49.9	-51.5	15.7	6.00e-01	0	29	0	292552704	69	4116
2026-01-04 01:59:44.57	183.25	33.53	-49.6	-51.2	15.6	6.01e-01	0	29	0	298319872	68	4207
2026-01-04 01:59:47.57	183.64	32.82	-49.5	-51.1	15.7	6.02e-01	0	29	0	303562752	68	4151
2026-01-04 01:59:50.55	184.02	32.13	-49.3	-50.9	15.7	6.00e-01	0	29	0	309329920	67	4300
2026-01-04 01:59:53.54	184.37	31.45	-49.4	-50.9	15.6	6.02e-01	0	29	0	315097088	67	4312
2026-01-04 01:59:56.54	184.72	30.78	-49.3	-50.8	15.6	6.01e-01	0	28	0	320864256	67	4252
2026-01-04 01:59:59.52	185.04	30.14	-49.2	-50.7	15.6	6.04e-01	0	29	0	326107136	67	4216
2026-01-04 02:00:02.53	185.36	29.50	-49.3	-50.8	15.6	6.00e-01	0	28	0	331874304	67	4260
2026-01-04 02:00:05.54	185.67	28.88	-49.5	-51.0	15.6	6.02e-01	0	29	0	337641472	67	4370
2026-01-04 02:00:08.53	185.96	28.27	-49.8	-51.4	15.5	5.98e-01	0	29	0	342884352	67	4556
2026-01-04 02:00:11.53	186.24	27.67	-49.8	-51.4	15.5	5.99e-01	0	29	0	348651520	67	4594
2026-01-04 02:00:14.52	186.52	27.09	-50.0	-51.6	15.5	5.99e-01	0	29	0	354418688	67	4663
2026-01-04 02:00:17.50	186.78	26.53	-50.1	-51.7	15.4	6.01e-01	0	29	0	359661568	67	4733
2026-01-04 02:00:20.50	187.03	25.97	-50.2	-51.8	15.5	6.02e-01	0	29	0	365428736	68	4522
2026-01-04 02:00:23.50	187.28	25.43	-50.4	-52.0	15.4	6.03e-01	0	29	0	371195904	68	4638
2026-01-04 02:00:26.49	187.52	24.89	-50.4	-52.0	15.4	6.01e-01	0	28	0	376963072	68	4639
2026-01-04 02:00:29.48	187.74	24.37	-50.4	-52.0	15.5	6.00e-01	0	28	0	382205952	68	4639
2026-01-04 02:00:32.49	187.97	23.86	-50.2	-51.8	15.5	6.01e-01	0	29	0	387973120	68	4531
2026-01-04 02:00:35.48	188.18	23.36	-50.3	-52.0	15.5	6.05e-01	0	29	0	393740288	68	4609
2026-01-04 02:00:38.47	188.39	22.87	-50.4	-52.1	15.5	6.03e-01	0	29	0	398983168	68	4655
2026-01-04 02:00:41.48	188.60	22.38	-50.4	-52.1	15.4	5.99e-01	0	29	0	404750336	68	4681
2026-01-04 02:00:44.48	188.79	21.91	-50.3	-52.0	15.5	6.01e-01	0	29	0	410517504	68	4603
2026-01-04 02:00:47.48	188.98	21.44	-50.2	-51.9	15.5	5.99e-01	0	29	0	416284672	68	4566
2026-01-04 02:00:50.49	189.17	20.99	-50.2	-51.9	15.5	6.02e-01	0	29	0	421527552	68	4547
2026-01-04 02:00:53.47	189.35	20.54	-50.1	-51.8	15.5	6.02e-01	0	29	0	427294720	68	4514
2026-01-04 02:00:56.47	189.52	20.10	-49.9	-51.6	15.5	6.01e-01	0	29	0	433061888	68	4396
2026-01-04 02:00:59.47	189.69	19.67	-49.9	-51.6	15.6	6.00e-01	0	28	0	438304768	68	4393
2026-01-04 02:01:02.45	189.86	19.25	-49.9	-51.5	15.6	6.05e-01	0	29	0	444071936	68	4347
2026-01-04 02:01:05.43	190.02	18.84	-49.9	-51.5	15.6	5.97e-01	0	28	0	449839104	68	4384
2026-01-04 02:01:08.42	190.17	18.44	-50.0	-51.6	15.6	6.03e-01	0	28	0	455081984	68	4412
2026-01-04 02:01:11.40	190.33	18.04	-49.9	-51.5	15.6	6.02e-01	0	29	0	460849152	68	4358
2026-01-04 02:01:14.40	190.48	17.64	-49.8	-51.4	15.6	6.00e-01	0	29	0	466616320	68	4338
2026-01-04 02:01:17.37	190.62	17.26	-49.7	-51.3	15.6	6.01e-01	0	29	0	472383488	68	4279
2026-01-04 02:01:20.37	190.76	16.88	-49.7	-51.3	15.6	6.01e-01	0	29	0	477626368	68	4280
2026-01-04 02:01:23.38	190.90	16.50	-49.8	-51.4	15.6	6.01e-01	0	29	0	483393536	68	4299
2026-01-04 02:01:26.37	191.04	16.14	-49.7	-51.3	15.6	6.01e-01	0	28	0	489160704	68	4284
2026-01-04 02:01:29.37	191.17	15.77	-49.7	-51.2	15.7	6.02e-01	0	29	0	494927872	68	4232
2026-01-04 02:01:32.37	191.30	15.42	-49.8	-51.4	15.6	6.01e-01	0	29	0	500170752	68	4326
2026-01-04 02:01:35.37	191.42	15.07	-49.8	-51.5	15.6	6.01e-01	0	29	0	505937920	68	4342
2026-01-04 02:01:38.37	191.55	14.72	-49.9	-51.5	15.6	6.02e-01	0	29	0	511705088	68	4388
2026-01-04 02:01:41.36	191.67	14.38	-49.9	-51.6	15.5	6.02e-01	0	29	0	516947968	68	4410
2026-01-04 02:01:44.36	191.79	14.05	-50.1	-51.8	15.5	6.02e-01	0	29	0	522715136	68	4508
2026-01-04 02:01:47.36	191.90	13.72	-50.0	-51.6	15.5	6.02e-01	0	29	0	528482304	68	4431
2026-01-04 02:01:50.36	192.01	13.39	-50.0	-51.7	15.5	6.03e-01	0	29	0	534249472	68	4477
2026-01-04 02:01:53.35	192.12	13.07	-50.0	-51.7	15.5	6.00e-01	0	29	0	539492352	68	4468
2026-01-04 02:01:56.34	192.23	12.76	-50.1	-51.8	15.5	6.01e-01	0	28	0	545259520	68	4500
2026-01-04 02:01:59.34	192.34	12.44	-50.0	-51.7	15.5	6.01e-01	0	29	0	551026688	68	4478
2026-01-04 02:02:02.31	192.44	12.14	-50.0	-51.7	15.5	6.04e-01	0	29	0	556269568	68	4444
2026-01-04 02:02:05.31	192.54	11.84	-50.1	-51.7	15.5	6.00e-01	0	29	0	562036736	68	4485
2026-01-04 02:02:08.30	192.64	11.54	-50.1	-51.8	15.5	6.03e-01	0	28	0	567803904	68	4515
2026-01-04 02:02:11.29	192.74	11.24	-50.3	-52.0	15.4	6.02e-01	0	29	0	573046784	68	4612
2026-01-04 02:02:14.30	192.84	10.95	-50.2	-52.0	15.4	6.01e-01	0	29	0	578813952	68	4609
2026-01-04 02:02:17.28	192.93	10.66	-50.3	-52.1	15.4	5.99e-01	0	29	0	584581120	68	4665
2026-01-04 02:02:20.28	193.03	10.38	-50.3	-52.1	15.4	5.99e-01	0	29	0	590348288	68	4667
2026-01-04 02:02:23.28	193.12	10.10	-50.6	-52.4	15.4	6.01e-01	0	29	0	595591168	68	4835
2026-01-04 02:02:26.28	193.21	9.82	-50.5	-52.3	15.4	6.03e-01	0	28	0	601358336	68	4779
2026-01-04 02:02:29.28	193.29	9.55	-50.6	-52.4	15.4	6.00e-01	0	29	0	607125504	69	4576
2026-01-04 02:02:32.28	193.38	9.28	-50.6	-52.4	15.4	6.03e-01	0	29	0	612892672	69	4567
2026-01-04 02:02:35.27	193.47	9.01	-50.7	-52.5	15.4	6.00e-01	0	29	0	618135552	69	4606
2026-01-04 02:02:38.27	193.55	8.75	-50.6	-52.5	15.4	6.02e-01	0	29	0	623902720	69	4603
2026-01-04 02:02:41.26	193.63	8.49	-50.8	-52.6	15.4	6.00e-01	0	29	0	629669888	69	4686
2026-01-04 02:02:44.26	193.71	8.23	-50.8	-52.6	15.4	6.01e-01	0	29	0	634912768	69	4695
2026-01-04 02:02:47.25	193.79	7.97	-50.8	-52.6	15.4	6.04e-01	0	29	0	640679936	69	4700
2026-01-04 02:02:50.25	193.87	7.72	-50.9	-52.8	15.3	6.04e-01	0	29	0	646447104	69	4785
2026-01-04 02:02:53.24	193.94	7.47	-51.0	-52.9	15.3	6.00e-01	0	29	0	651689984	69	4821
2026-01-04 02:02:56.23	194.02	7.23	-51.0	-52.9	15.3	6.00e-01	0	29	0	657457152	69	4839
2026-01-04 02:02:59.22	194.09	6.98	-51.1	-53.0	15.3	5.98e-01	0	29	0	663224320	69	4909
2026-01-04 02:03:02.21	194.17	6.74	-51.2	-53.1	15.3	6.00e-01	0	29	0	668467200	70	4692
2026-01-04 02:03:05.21	194.24	6.50	-51.3	-53.3	15.3	6.04e-01	0	29	0	674234368	70	4782
2026-01-04 02:03:08.20	194.31	6.26	-51.4	-53.4	15.2	6.00e-01	0	29	0	680001536	70	4835
2026-01-04 02:03:11.20	194.38	6.03	-51.5	-53.5	15.2	6.02e-01	0	29	0	685768704	70	4912
2026-01-04 02:03:14.17	194.45	5.80	-51.4	-53.5	15.2	6.02e-01	0	29	0	691011584	70	4884
2026-01-04 02:03:17.15	194.52	5.57	-51.5	-53.7	15.2	6.01e-01	0	29	0	696778752	70	4998
2026-01-04 02:03:20.15	194.58	5.34	-51.6	-53.7	15.2	6.02e-01	0	29	0	702545920	70	4994
2026-01-04 02:03:23.14	194.65	5.12	-51.7	-53.9	15.2	6.04e-01	0	29	0	707788800	71	4846
2026-01-04 02:03:26.14	194.71	4.89	-59.2	-78.5	3.8	7.45e-01	0	29	104	710934528	86	34863
2026-01-04 02:03:29.15	194.78	4.67	-59.7	-79.1	3.8	7.47e-01	0	29	104	710934528	87	35130
2026-01-04 02:03:32.14	194.84	4.45	-60.0	-79.4	3.8	7.48e-01	0	29	104	710934528	87	36317
2026-01-04 02:03:35.13	194.90	4.24	-60.2	-79.6	3.8	7.47e-01	0	29	104	710934528	88	34997
2026-01-04 02:03:38.13	194.97	4.02	-60.3	-79.7	3.8	7.45e-01	0	29	104	710934528	88	35498
2026-01-04 02:03:41.11	195.03	3.81	-60.4	-79.8	3.8	7.49e-01	0	29	104	710934528	88	35864
2026-01-04 02:03:44.11	195.09	3.59	-60.5	-79.9	3.8	7.46e-01	0	29	104	710934528	88	36313
2026-01-04 02:03:47.11	195.15	3.38	-60.6	-80.0	3.8	7.45e-01	0	29	104	710934528	88	36556
2026-01-04 02:03:50.11	195.20	3.18	-60.5	-79.9	3.8	7.46e-01	0	29	104	710934528	88	36114
2026-01-04 02:03:53.11	195.26	2.97	-60.4	-79.8	3.8	7.49e-01	0	29	104	710934528	88	35971
2026-01-04 02:03:56.11	195.32	2.76	-60.4	-79.8	3.8	7.46e-01	0	29	104	710934528	88	35715
2026-01-04 02:03:59.11	195.38	2.56	-60.3	-79.7	3.8	7.46e-01	0	29	104	710934528	88	35577
2026-01-04 02:04:02.09	195.43	2.36	-60.3	-79.7	3.8	7.45e-01	0	29	104	710934528	88	35515
2026-01-04 02:04:05.08	195.49	2.16	-60.3	-79.7	3.8	7.47e-01	0	29	104	710934528	88	35454
2026-01-04 02:04:08.06	195.54	1.96	-60.3	-79.6	3.8	7.48e-01	0	29	104	710934528	88	35198

#Closed at: 2026-01-04 02:04:08
#Recorded file [710 MB]: D:/lorett/data/31004_260104_045118.dat