passes_logs/2026/01/04/R3.2S_Murmansk/R3.2S_Murmansk__20260104_063628_NOAA_20_JPSS-1_rec.log

#Pass ID: 20260104_063628_NOAA 20 (JPSS-1)
#Satellite: NOAA 20 (JPSS-1)
#Configuration: NOAA 20
#almurnet v.1.7.20251203
#Start time: 2026-01-04 06:36:28

#Version: 2.2.20231116
#Station: R3.2S_Murmansk
#Location: 33.079688 lon 68.888172 lat
#TLE: 1 43013U 17073A   26003.41800368  .00000169  00000+0  10117-3 0  9998
#TLE: 2 43013  98.7624 304.4804 0001884  56.1176 304.0179 14.19532918421092

#Time	Az	El	Level	Level2	SNR	BER	BlckErr	Temp	State	Recorded	gain1	gain2
2026-01-04 06:36:28.28	87.18	2.00	-58.4	-74.5	3.8	1.49e+00	0	26	0	0	83	22319
2026-01-04 06:36:32.28	86.95	2.23	-58.4	-74.4	3.8	1.49e+00	0	27	104	0	81	24790
2026-01-04 06:36:36.28	86.73	2.47	-58.4	-74.4	3.8	1.49e+00	0	27	104	0	81	24778
2026-01-04 06:36:40.29	86.49	2.71	-58.4	-74.4	3.8	1.49e+00	0	27	104	0	81	24762
2026-01-04 06:36:44.27	86.26	2.94	-58.4	-74.4	3.8	1.49e+00	0	27	104	0	81	24759
2026-01-04 06:36:48.26	86.02	3.19	-58.4	-74.4	3.8	1.49e+00	0	27	104	0	81	24802
2026-01-04 06:36:52.25	85.78	3.43	-58.3	-74.4	3.9	1.49e+00	0	27	104	0	81	24705
2026-01-04 06:36:56.22	85.53	3.67	-58.4	-74.4	3.8	1.49e+00	0	27	104	0	81	24744
2026-01-04 06:37:00.21	85.28	3.92	-58.3	-74.2	3.8	1.49e+00	0	27	104	0	81	24289
2026-01-04 06:37:04.19	85.02	4.16	-58.3	-74.3	3.8	1.49e+00	0	27	104	0	81	24654
2026-01-04 06:37:08.19	84.76	4.41	-58.3	-73.7	3.8	1.49e+00	0	27	104	0	81	22961
2026-01-04 06:37:12.18	84.50	4.66	-58.2	-70.8	4.2	1.42e+00	0	27	0	0	81	16435
2026-01-04 06:37:16.19	84.22	4.92	-57.9	-67.6	5.6	4.53e-01	0	28	0	6291456	81	11382
2026-01-04 06:37:20.18	83.95	5.17	-57.3	-63.4	9.2	1.78e-02	0	28	0	13631488	81	6967
2026-01-04 06:37:24.17	83.67	5.43	-55.9	-60.0	11.6	1.90e-05	0	28	0	16777216	78	5624
2026-01-04 06:37:28.17	83.38	5.68	-55.1	-58.3	12.7	0.00e+00	0	28	0	25165824	76	5188
2026-01-04 06:37:32.16	83.09	5.94	-54.9	-57.9	13.0	0.00e+00	0	28	0	32505856	76	4935
2026-01-04 06:37:36.16	82.79	6.21	-54.8	-57.7	13.1	0.00e+00	0	28	0	39845888	76	4844
2026-01-04 06:37:40.15	82.49	6.47	-54.8	-57.7	13.2	0.00e+00	0	28	0	47185920	76	4822
2026-01-04 06:37:44.16	82.18	6.74	-54.6	-57.4	13.2	0.00e+00	0	28	0	54525952	75	4951
2026-01-04 06:37:48.17	81.86	7.01	-54.5	-57.2	13.3	0.00e+00	0	28	0	61865984	75	4860
2026-01-04 06:37:52.18	81.54	7.28	-54.4	-57.1	13.4	0.00e+00	0	28	0	70254592	75	4808
2026-01-04 06:37:56.17	81.22	7.55	-54.3	-57.0	13.4	0.00e+00	0	28	0	77594624	75	4749
2026-01-04 06:38:00.16	80.88	7.82	-54.2	-56.9	13.5	0.00e+00	0	28	0	84934656	75	4697
2026-01-04 06:38:04.17	80.54	8.10	-54.3	-56.9	13.4	0.00e+00	0	28	0	92274688	74	4975
2026-01-04 06:38:08.18	80.19	8.38	-54.3	-56.9	13.4	0.00e+00	0	28	0	99614720	74	4977
2026-01-04 06:38:12.18	79.84	8.66	-54.3	-56.9	13.5	0.00e+00	0	28	0	106954752	74	4982
2026-01-04 06:38:16.20	79.48	8.94	-54.3	-56.9	13.5	0.00e+00	0	28	0	115343360	74	4931
2026-01-04 06:38:20.21	79.11	9.22	-54.3	-56.9	13.5	0.00e+00	0	28	0	122683392	74	4960
2026-01-04 06:38:24.23	78.73	9.51	-54.3	-56.8	13.6	0.00e+00	0	28	0	130023424	74	4910
2026-01-04 06:38:28.24	78.35	9.80	-54.2	-56.7	13.6	0.00e+00	0	28	0	137363456	74	4857
2026-01-04 06:38:32.25	77.95	10.09	-54.2	-56.7	13.6	0.00e+00	0	28	0	144703488	74	4817
2026-01-04 06:38:36.25	77.55	10.38	-54.2	-56.6	13.7	0.00e+00	0	28	0	152043520	74	4801
2026-01-04 06:38:40.25	77.15	10.68	-54.2	-56.6	13.7	0.00e+00	0	28	0	160432128	74	4801
2026-01-04 06:38:44.26	76.73	10.98	-54.2	-56.6	13.7	0.00e+00	0	28	0	167772160	74	4800
2026-01-04 06:38:48.26	76.30	11.28	-54.1	-56.5	13.7	0.00e+00	0	28	0	175112192	74	4727
2026-01-04 06:38:52.25	75.87	11.58	-54.0	-56.3	13.9	0.00e+00	0	28	0	182452224	74	4611
2026-01-04 06:38:56.25	75.42	11.88	-53.9	-56.2	13.9	0.00e+00	0	28	0	189792256	74	4560
2026-01-04 06:39:00.23	74.97	12.18	-53.9	-56.2	13.9	0.00e+00	0	28	0	197132288	74	4548
2026-01-04 06:39:04.22	74.51	12.49	-53.8	-56.0	14.0	0.00e+00	0	28	0	204472320	74	4486
2026-01-04 06:39:08.22	74.04	12.80	-53.9	-56.3	13.9	0.00e+00	0	28	0	211812352	74	4601
2026-01-04 06:39:12.20	73.56	13.11	-53.9	-56.2	13.9	0.00e+00	0	28	0	220200960	74	4591
2026-01-04 06:39:16.19	73.07	13.42	-53.8	-56.0	14.1	0.00e+00	0	28	0	227540992	74	4464
2026-01-04 06:39:20.19	72.56	13.73	-53.5	-55.7	14.1	0.00e+00	0	28	0	234881024	73	4559
2026-01-04 06:39:24.18	72.05	14.05	-53.4	-55.6	14.2	0.00e+00	0	28	0	242221056	73	4494
2026-01-04 06:39:28.16	71.52	14.36	-53.5	-55.6	14.1	0.00e+00	0	28	0	249561088	73	4545
2026-01-04 06:39:32.14	70.99	14.68	-53.4	-55.5	14.2	0.00e+00	0	29	0	256901120	73	4452
2026-01-04 06:39:36.13	70.44	15.00	-53.3	-55.3	14.3	0.00e+00	0	28	0	264241152	73	4384
2026-01-04 06:39:40.12	69.88	15.32	-53.2	-55.2	14.3	0.00e+00	0	28	0	272629760	72	4555
2026-01-04 06:39:44.12	69.30	15.65	-53.2	-55.2	14.3	0.00e+00	0	28	0	279969792	72	4566
2026-01-04 06:39:48.11	68.71	15.97	-53.2	-55.2	14.3	0.00e+00	0	28	0	287309824	72	4586
2026-01-04 06:39:52.11	68.11	16.30	-53.3	-55.3	14.2	0.00e+00	0	28	0	294649856	72	4609
2026-01-04 06:39:56.11	67.50	16.63	-53.2	-55.1	14.3	0.00e+00	0	28	0	301989888	72	4539
2026-01-04 06:40:00.10	66.87	16.95	-53.2	-55.2	14.3	0.00e+00	0	28	0	309329920	72	4582
2026-01-04 06:40:04.10	66.23	17.28	-53.3	-55.3	14.3	0.00e+00	0	28	0	316669952	72	4604
2026-01-04 06:40:08.10	65.57	17.61	-53.4	-55.4	14.2	0.00e+00	0	28	0	325058560	72	4684
2026-01-04 06:40:12.09	64.90	17.94	-53.4	-55.4	14.2	0.00e+00	0	28	0	332398592	72	4697
2026-01-04 06:40:16.09	64.21	18.27	-53.5	-55.5	14.2	0.00e+00	0	28	0	339738624	72	4750
2026-01-04 06:40:20.09	63.51	18.60	-53.3	-55.3	14.3	0.00e+00	0	28	0	347078656	72	4614
2026-01-04 06:40:24.11	62.79	18.93	-53.3	-55.3	14.3	0.00e+00	0	28	0	354418688	72	4600
2026-01-04 06:40:28.11	62.06	19.26	-53.3	-55.4	14.2	0.00e+00	0	28	0	361758720	72	4654
2026-01-04 06:40:32.10	61.31	19.59	-53.5	-55.5	14.2	0.00e+00	0	28	0	370147328	72	4733
2026-01-04 06:40:36.10	60.54	19.92	-53.3	-55.3	14.3	0.00e+00	0	28	0	377487360	72	4615
2026-01-04 06:40:40.12	59.76	20.25	-52.9	-54.8	14.5	0.00e+00	0	28	0	384827392	72	4368
2026-01-04 06:40:44.13	58.95	20.58	-52.8	-54.7	14.6	0.00e+00	0	28	0	392167424	72	4293
2026-01-04 06:40:48.13	58.14	20.90	-52.6	-54.4	14.5	0.00e+00	0	28	0	399507456	71	4426
2026-01-04 06:40:52.13	57.30	21.22	-52.2	-54.0	14.7	0.00e+00	0	28	0	406847488	71	4200
2026-01-04 06:40:56.13	56.45	21.54	-52.3	-54.0	14.7	0.00e+00	0	28	0	414187520	71	4210
2026-01-04 06:41:00.12	55.58	21.85	-51.8	-53.4	14.9	0.00e+00	0	28	0	422576128	70	4164
2026-01-04 06:41:04.11	54.70	22.17	-51.6	-53.2	14.9	0.00e+00	0	28	0	429916160	69	4293
2026-01-04 06:41:08.12	53.79	22.47	-51.7	-53.3	14.8	0.00e+00	0	28	0	437256192	69	4362
2026-01-04 06:41:12.13	52.86	22.78	-51.7	-53.3	14.8	0.00e+00	0	28	0	444596224	69	4342
2026-01-04 06:41:16.13	51.92	23.08	-51.8	-53.4	14.8	0.00e+00	0	28	0	451936256	69	4405
2026-01-04 06:41:20.12	50.96	23.37	-51.7	-53.4	14.8	0.00e+00	0	28	0	459276288	69	4395
2026-01-04 06:41:24.10	49.98	23.66	-51.6	-53.2	14.8	0.00e+00	0	28	0	467664896	69	4332
2026-01-04 06:41:28.09	48.99	23.94	-51.8	-53.4	14.8	0.00e+00	0	28	0	475004928	69	4432
2026-01-04 06:41:32.08	47.98	24.22	-52.0	-53.6	14.7	0.00e+00	0	28	0	482344960	69	4545
2026-01-04 06:41:36.08	46.94	24.49	-52.1	-53.8	14.6	0.00e+00	0	28	0	489684992	69	4618
2026-01-04 06:41:40.05	45.90	24.75	-51.8	-53.4	14.8	0.00e+00	0	28	0	497025024	69	4404
2026-01-04 06:41:44.05	44.83	25.00	-51.7	-53.3	14.8	0.00e+00	0	28	0	504365056	69	4386
2026-01-04 06:41:48.04	43.75	25.24	-51.6	-53.1	14.9	0.00e+00	0	28	0	511705088	69	4277
2026-01-04 06:41:52.04	42.65	25.48	-51.5	-53.1	14.9	0.00e+00	0	28	0	519045120	69	4263
2026-01-04 06:41:56.01	41.54	25.70	-51.6	-53.1	14.9	0.00e+00	0	28	0	527433728	69	4279
2026-01-04 06:42:00.00	40.41	25.92	-51.7	-53.2	14.9	0.00e+00	0	28	0	534773760	69	4337
2026-01-04 06:42:03.99	39.26	26.12	-51.9	-53.5	14.8	0.00e+00	0	28	0	542113792	69	4449
2026-01-04 06:42:07.96	38.10	26.31	-52.5	-54.2	14.6	0.00e+00	0	28	0	549453824	70	4571
2026-01-04 06:42:11.95	36.93	26.50	-52.6	-54.3	14.6	0.00e+00	0	28	0	556793856	70	4631
2026-01-04 06:42:15.95	35.74	26.66	-52.7	-54.6	14.5	0.00e+00	0	28	0	564133888	70	4761
2026-01-04 06:42:19.95	34.54	26.82	-52.8	-54.6	14.4	0.00e+00	0	28	0	571473920	70	4808
2026-01-04 06:42:23.94	33.33	26.96	-53.1	-54.9	14.4	0.00e+00	0	28	0	579862528	71	4704
2026-01-04 06:42:27.93	32.10	27.09	-53.1	-55.0	14.4	0.00e+00	0	28	0	587202560	71	4729
2026-01-04 06:42:31.93	30.87	27.21	-53.5	-55.4	14.3	0.00e+00	0	28	0	594542592	72	4704
2026-01-04 06:42:35.91	29.63	27.31	-53.5	-55.5	14.3	0.00e+00	0	28	0	601882624	72	4719
2026-01-04 06:42:39.89	28.39	27.39	-53.6	-55.6	14.2	0.00e+00	0	29	0	609222656	72	4814
2026-01-04 06:42:43.88	27.14	27.46	-53.6	-55.6	14.2	0.00e+00	0	28	0	616562688	72	4785
2026-01-04 06:42:47.87	25.88	27.52	-54.0	-56.1	14.1	0.00e+00	0	28	0	623902720	73	4775
2026-01-04 06:42:51.87	24.62	27.56	-53.5	-55.5	14.4	0.00e+00	0	28	0	631242752	73	4453
2026-01-04 06:42:55.84	23.36	27.58	-53.3	-55.2	14.5	0.00e+00	0	28	0	639631360	73	4294
2026-01-04 06:42:59.84	22.09	27.59	-53.1	-54.9	14.5	0.00e+00	0	28	0	646971392	72	4410
2026-01-04 06:43:03.82	20.83	27.59	-53.0	-54.9	14.6	0.00e+00	0	28	0	654311424	72	4397
2026-01-04 06:43:07.79	19.57	27.57	-52.8	-54.5	14.7	0.00e+00	0	28	0	661651456	72	4225
2026-01-04 06:43:11.78	18.31	27.53	-52.7	-54.4	14.7	0.00e+00	0	28	0	668991488	72	4183
2026-01-04 06:43:15.77	17.05	27.48	-52.5	-54.2	14.7	0.00e+00	0	28	0	676331520	71	4329
2026-01-04 06:43:19.77	15.79	27.41	-52.1	-53.7	14.8	0.00e+00	0	28	0	683671552	70	4335
2026-01-04 06:43:23.77	14.54	27.33	-52.0	-53.6	14.8	0.00e+00	0	28	0	691011584	70	4270
2026-01-04 06:43:27.76	13.30	27.23	-51.9	-53.5	14.9	0.00e+00	0	28	0	699400192	70	4203
2026-01-04 06:43:31.75	12.07	27.12	-52.1	-53.8	14.8	0.00e+00	0	28	0	706740224	70	4352
2026-01-04 06:43:35.75	10.84	27.00	-52.1	-53.7	14.8	0.00e+00	0	28	0	714080256	70	4330
2026-01-04 06:43:39.76	9.63	26.86	-52.2	-53.9	14.7	0.00e+00	0	28	0	721420288	70	4403
2026-01-04 06:43:43.77	8.42	26.70	-52.4	-54.1	14.7	0.00e+00	0	29	0	728760320	70	4507
2026-01-04 06:43:47.75	7.23	26.54	-52.7	-54.4	14.6	0.00e+00	0	28	0	736100352	70	4679
2026-01-04 06:43:51.76	6.05	26.36	-53.0	-54.8	14.5	0.00e+00	0	28	0	744488960	71	4626
2026-01-04 06:43:55.75	4.89	26.17	-53.1	-55.0	14.4	0.00e+00	0	28	0	751828992	71	4720
2026-01-04 06:43:59.76	3.73	25.97	-53.4	-55.4	14.3	0.00e+00	0	29	0	759169024	71	4938
2026-01-04 06:44:03.75	2.60	25.75	-53.4	-55.4	14.3	0.00e+00	0	28	0	766509056	72	4667
2026-01-04 06:44:07.75	1.48	25.53	-53.5	-55.5	14.3	0.00e+00	0	28	0	773849088	72	4714
2026-01-04 06:44:11.76	0.37	25.30	-53.4	-55.3	14.4	0.00e+00	0	28	0	781189120	72	4630
2026-01-04 06:44:15.75	359.29	25.06	-53.5	-55.5	14.3	0.00e+00	0	28	0	788529152	72	4726
2026-01-04 06:44:19.75	358.22	24.81	-53.4	-55.3	14.4	0.00e+00	0	29	0	796917760	72	4625
2026-01-04 06:44:23.76	357.16	24.54	-53.2	-55.0	14.5	0.00e+00	0	28	0	804257792	72	4486
2026-01-04 06:44:27.75	356.13	24.28	-53.3	-55.2	14.4	0.00e+00	0	28	0	811597824	72	4588
2026-01-04 06:44:31.76	355.11	24.00	-53.1	-54.9	14.5	0.00e+00	0	28	0	818937856	72	4434
2026-01-04 06:44:35.75	354.11	23.72	-52.7	-54.5	14.6	0.00e+00	0	28	0	826277888	71	4448
2026-01-04 06:44:39.76	353.13	23.43	-52.5	-54.2	14.7	0.00e+00	0	29	0	833617920	71	4315
2026-01-04 06:44:43.75	352.16	23.14	-52.3	-53.9	14.8	0.00e+00	0	28	0	842006528	71	4190
2026-01-04 06:44:47.74	351.22	22.84	-52.2	-53.8	14.8	0.00e+00	0	28	0	849346560	70	4365
2026-01-04 06:44:51.73	350.30	22.54	-52.0	-53.6	14.8	0.00e+00	0	28	0	856686592	70	4268
2026-01-04 06:44:55.73	349.39	22.24	-52.1	-53.8	14.8	0.00e+00	0	28	0	864026624	70	4344
2026-01-04 06:44:59.70	348.51	21.93	-52.1	-53.7	14.8	0.00e+00	0	29	0	871366656	70	4308
2026-01-04 06:45:03.69	347.64	21.61	-51.7	-53.3	15.0	0.00e+00	0	28	0	878706688	70	4111
2026-01-04 06:45:07.66	346.79	21.30	-51.6	-53.1	14.9	0.00e+00	0	28	0	886046720	69	4265
2026-01-04 06:45:11.64	345.95	20.98	-51.3	-52.8	15.0	0.00e+00	0	28	0	893386752	69	4142
2026-01-04 06:45:15.63	345.14	20.66	-51.2	-52.7	15.0	0.00e+00	0	28	0	900726784	68	4300
2026-01-04 06:45:19.62	344.34	20.33	-50.8	-52.3	15.1	0.00e+00	0	28	0	909115392	68	4101
2026-01-04 06:45:23.61	343.55	20.01	-50.9	-52.4	15.1	0.00e+00	0	29	0	916455424	68	4156
2026-01-04 06:45:27.60	342.79	19.68	-50.9	-52.4	15.1	0.00e+00	0	28	0	923795456	68	4153
2026-01-04 06:45:31.59	342.04	19.35	-50.8	-52.2	15.1	0.00e+00	0	28	0	931135488	68	4077
2026-01-04 06:45:35.59	341.30	19.03	-50.9	-52.3	15.1	0.00e+00	0	28	0	938475520	68	4135
2026-01-04 06:45:39.57	340.58	18.70	-51.0	-52.5	15.1	0.00e+00	0	28	0	945815552	68	4196
2026-01-04 06:45:43.57	339.88	18.37	-51.1	-52.6	15.0	0.00e+00	0	28	0	953155584	68	4268
2026-01-04 06:45:47.57	339.19	18.04	-51.4	-52.9	14.9	0.00e+00	0	28	0	961544192	68	4404
2026-01-04 06:45:51.55	338.52	17.71	-51.5	-53.1	14.8	0.00e+00	0	29	0	968884224	68	4494
2026-01-04 06:45:55.52	337.87	17.38	-51.9	-53.5	14.7	0.00e+00	0	28	0	976224256	68	4722
2026-01-04 06:45:59.51	337.22	17.06	-52.1	-53.8	14.7	0.00e+00	0	28	0	983564288	69	4609
2026-01-04 06:46:03.51	336.59	16.73	-52.3	-54.1	14.6	0.00e+00	0	28	0	990904320	69	4765
2026-01-04 06:46:07.49	335.98	16.40	-52.2	-53.9	14.6	0.00e+00	0	28	0	998244352	69	4665
2026-01-04 06:46:11.47	335.38	16.08	-52.1	-53.8	14.6	0.00e+00	0	28	0	1005584384	69	4638
2026-01-04 06:46:15.46	334.79	15.75	-52.4	-54.1	14.5	0.00e+00	0	28	0	1012924416	69	4782
2026-01-04 06:46:19.45	334.21	15.43	-52.4	-54.1	14.5	0.00e+00	0	29	0	1021313024	69	4794
2026-01-04 06:46:23.44	333.65	15.11	-52.6	-54.4	14.5	0.00e+00	0	28	0	1028653056	70	4675
2026-01-04 06:46:27.43	333.10	14.79	-52.7	-54.5	14.4	0.00e+00	0	29	0	1035993088	70	4733
2026-01-04 06:46:31.43	332.56	14.47	-52.8	-54.6	14.4	0.00e+00	0	29	0	1043333120	70	4792
2026-01-04 06:46:35.42	332.03	14.15	-52.9	-54.7	14.4	0.00e+00	0	29	0	1050673152	71	4587
2026-01-04 06:46:39.43	331.51	13.84	-52.9	-54.7	14.4	0.00e+00	0	28	0	1058013184	71	4586
2026-01-04 06:46:43.42	331.01	13.52	-53.0	-54.9	14.4	0.00e+00	0	29	0	1065353216	71	4694
2026-01-04 06:46:47.43	330.51	13.21	-53.2	-55.2	14.2	0.00e+00	0	28	0	1073741824	71	4843
2026-01-04 06:46:51.44	330.03	12.90	-53.4	-55.5	14.1	0.00e+00	0	28	0	1081081856	71	4998
2026-01-04 06:46:55.45	329.55	12.59	-53.7	-55.8	14.0	0.00e+00	0	28	0	1088421888	72	4910
2026-01-04 06:46:59.44	329.09	12.28	-53.7	-55.9	14.0	0.00e+00	0	28	0	1095761920	72	4937
2026-01-04 06:47:03.44	328.63	11.98	-53.5	-55.7	14.1	0.00e+00	0	28	0	1103101952	72	4821
2026-01-04 06:47:07.45	328.19	11.67	-53.7	-55.9	14.0	0.00e+00	0	28	0	1110441984	72	4948
2026-01-04 06:47:11.44	327.75	11.37	-53.8	-56.0	13.9	0.00e+00	0	28	0	1118830592	72	4998
2026-01-04 06:47:15.44	327.33	11.08	-53.8	-56.0	13.9	0.00e+00	0	29	0	1126170624	72	5019
2026-01-04 06:47:19.44	326.91	10.78	-53.7	-55.9	13.9	0.00e+00	0	28	0	1133510656	72	4972
2026-01-04 06:47:23.43	326.50	10.49	-53.7	-55.9	13.9	0.00e+00	0	28	0	1140850688	72	4973
2026-01-04 06:47:27.43	326.10	10.19	-53.9	-56.3	13.8	0.00e+00	0	28	0	1148190720	73	4873
2026-01-04 06:47:31.44	325.71	9.90	-54.0	-56.4	13.8	0.00e+00	0	28	0	1155530752	73	4970
2026-01-04 06:47:35.44	325.33	9.61	-54.2	-56.6	13.7	0.00e+00	0	29	0	1163919360	73	5061
2026-01-04 06:47:39.44	324.95	9.33	-54.4	-56.9	13.5	0.00e+00	0	28	0	1171259392	73	5260
2026-01-04 06:47:43.44	324.58	9.04	-54.5	-57.2	13.4	0.00e+00	0	28	0	1178599424	74	5124
2026-01-04 06:47:47.44	324.22	8.76	-54.6	-57.3	13.4	0.00e+00	0	28	0	1185939456	74	5180
2026-01-04 06:47:51.44	323.86	8.48	-54.3	-56.9	13.5	0.00e+00	0	29	0	1193279488	74	4938
2026-01-04 06:47:55.44	323.52	8.20	-54.3	-56.9	13.5	0.00e+00	0	28	0	1200619520	74	4952
2026-01-04 06:47:59.45	323.17	7.93	-54.4	-57.0	13.5	0.00e+00	0	29	0	1207959552	74	5005
2026-01-04 06:48:03.45	322.84	7.65	-54.4	-57.1	13.4	0.00e+00	0	29	0	1216348160	74	5067
2026-01-04 06:48:07.45	322.51	7.38	-54.6	-57.3	13.3	0.00e+00	0	29	0	1223688192	74	5176
2026-01-04 06:48:11.44	322.19	7.11	-54.6	-57.3	13.2	0.00e+00	0	29	0	1231028224	74	5206
2026-01-04 06:48:15.43	321.88	6.84	-54.6	-57.4	13.1	0.00e+00	0	29	0	1238368256	74	5263
2026-01-04 06:48:19.44	321.57	6.58	-54.7	-57.5	13.1	0.00e+00	0	29	0	1245708288	74	5329
2026-01-04 06:48:23.42	321.27	6.31	-54.9	-58.0	12.9	0.00e+00	0	29	0	1253048320	75	5298
2026-01-04 06:48:27.42	320.97	6.05	-55.0	-58.2	12.7	0.00e+00	0	29	0	1260388352	75	5433
2026-01-04 06:48:31.42	320.68	5.79	-55.1	-58.4	12.6	0.00e+00	0	28	0	1268776960	75	5540
2026-01-04 06:48:35.44	320.39	5.53	-55.1	-58.3	12.6	0.00e+00	0	28	0	1276116992	75	5515
2026-01-04 06:48:39.43	320.11	5.27	-55.0	-58.2	12.7	0.00e+00	0	28	0	1283457024	75	5405
2026-01-04 06:48:43.44	319.83	5.02	-55.9	-59.8	11.8	0.00e+00	0	28	0	1290797056	76	6160
2026-01-04 06:48:47.45	319.56	4.76	-60.2	-76.3	3.8	1.49e+00	0	29	104	1291845632	85	24565
2026-01-04 06:48:51.45	319.29	4.51	-60.9	-77.0	3.8	1.49e+00	0	29	104	1291845632	86	25095
2026-01-04 06:48:55.46	319.03	4.26	-61.2	-77.3	3.8	1.49e+00	0	29	104	1291845632	87	24562
2026-01-04 06:48:59.47	318.77	4.01	-61.3	-77.5	3.8	1.49e+00	0	29	104	1291845632	87	25021
2026-01-04 06:49:03.48	318.52	3.77	-61.4	-77.5	3.8	1.49e+00	0	29	104	1291845632	87	25121
2026-01-04 06:49:07.47	318.27	3.52	-61.3	-77.4	3.8	1.49e+00	0	29	104	1291845632	87	24793
2026-01-04 06:49:11.43	318.03	3.28	-61.2	-77.3	3.8	1.49e+00	0	29	104	1291845632	87	24604
2026-01-04 06:49:15.41	317.80	3.04	-61.2	-77.3	3.8	1.49e+00	0	29	104	1291845632	87	24618
2026-01-04 06:49:19.42	317.56	2.80	-61.2	-77.3	3.8	1.49e+00	0	29	104	1291845632	87	24457
2026-01-04 06:49:23.41	317.33	2.56	-61.1	-77.2	3.8	1.49e+00	0	29	104	1291845632	87	24341
2026-01-04 06:49:27.42	317.10	2.33	-61.1	-77.2	3.8	1.49e+00	0	29	104	1291845632	87	24368
2026-01-04 06:49:31.40	316.88	2.09	-61.1	-77.2	3.8	1.49e+00	0	29	104	1291845632	87	24249

#Closed at: 2026-01-04 06:49:33
#Recorded file [1291 MB]: D:/lorett/data/31004_260104_093628.dat