passes_logs/2026/01/04/R3.2S_Murmansk/R3.2S_Murmansk__20260104_011730_SUOMI_NPP_rec.log

#Pass ID: 20260104_011730_SUOMI NPP
#Satellite: SUOMI NPP
#Configuration: NPP
#almurnet v.1.7.20251203
#Start time: 2026-01-04 01:17:31

#Version: 2.2.20231116
#Station: R3.2S_Murmansk
#Location: 33.079688 lon 68.888172 lat
#TLE: 1 37849U 11061A   26001.07732418  .00000182  00000+0  10735-3 0  9990
#TLE: 2 37849  98.7795 303.2470 0002580  87.2016 272.9455 14.19520779734739

#Time	Az	El	Level	Level2	SNR	BER	BlckErr	Temp	State	Recorded	gain1	gain2
2026-01-04 01:17:31.29	26.75	2.07	-58.5	-74.5	3.8	1.49e+00	0	27	0	0	83	22440
2026-01-04 01:17:35.28	26.71	2.32	-58.5	-74.5	3.8	1.49e+00	0	27	104	0	82	23698
2026-01-04 01:17:39.26	26.67	2.58	-58.5	-74.5	3.8	1.49e+00	0	27	104	0	82	23641
2026-01-04 01:17:43.27	26.63	2.84	-58.5	-74.5	3.8	1.49e+00	0	27	104	0	82	23607
2026-01-04 01:17:47.27	26.58	3.11	-58.4	-74.3	3.8	1.49e+00	0	27	104	0	82	23276
2026-01-04 01:17:51.27	26.54	3.37	-58.4	-73.7	3.8	1.49e+00	0	27	104	0	82	21675
2026-01-04 01:17:55.27	26.49	3.64	-58.4	-73.4	3.8	1.49e+00	0	27	104	0	82	20829
2026-01-04 01:17:59.28	26.44	3.91	-58.4	-73.7	3.8	1.49e+00	0	27	104	0	82	21613
2026-01-04 01:18:03.27	26.40	4.18	-58.4	-73.6	3.8	1.49e+00	0	27	104	0	82	21408
2026-01-04 01:18:07.27	26.35	4.46	-58.2	-70.2	4.4	1.28e+00	62	27	0	0	82	14376
2026-01-04 01:18:11.27	26.30	4.74	-57.7	-66.3	6.5	1.89e-01	0	27	0	7340032	82	9221
2026-01-04 01:18:15.27	26.24	5.02	-57.6	-65.8	7.0	7.86e-02	0	28	0	14680064	81	9177
2026-01-04 01:18:19.28	26.19	5.31	-56.4	-61.0	10.9	1.29e-02	0	28	0	19922944	79	5967
2026-01-04 01:18:23.28	26.13	5.60	-55.2	-58.9	12.3	7.00e-07	0	28	0	27262976	77	5261
2026-01-04 01:18:27.27	26.08	5.89	-54.3	-57.5	13.1	0.00e+00	0	28	0	34603008	75	5006
2026-01-04 01:18:31.27	26.02	6.18	-54.1	-57.0	13.3	0.00e+00	0	28	0	42991616	74	5038
2026-01-04 01:18:35.26	25.96	6.48	-54.0	-56.9	13.4	0.00e+00	0	28	0	50331648	74	4945
2026-01-04 01:18:39.26	25.90	6.78	-53.8	-56.7	13.6	0.00e+00	0	28	0	57671680	74	4822
2026-01-04 01:18:43.27	25.84	7.09	-53.6	-56.2	13.7	0.00e+00	0	28	0	65011712	73	4861
2026-01-04 01:18:47.26	25.77	7.40	-53.5	-56.1	13.8	0.00e+00	0	28	0	72351744	73	4797
2026-01-04 01:18:51.24	25.71	7.71	-53.6	-56.3	13.7	0.00e+00	0	28	0	79691776	73	4883
2026-01-04 01:18:55.23	25.64	8.02	-53.4	-56.0	13.9	0.00e+00	0	28	0	88080384	73	4724
2026-01-04 01:18:59.22	25.57	8.34	-53.4	-55.9	13.9	0.00e+00	0	28	0	95420416	73	4705
2026-01-04 01:19:03.21	25.50	8.67	-53.1	-55.6	14.0	0.00e+00	0	28	0	102760448	72	4761
2026-01-04 01:19:07.20	25.42	8.99	-53.2	-55.7	14.0	0.00e+00	0	28	0	110100480	72	4820
2026-01-04 01:19:11.20	25.35	9.33	-53.2	-55.7	14.0	0.00e+00	0	28	0	117440512	72	4825
2026-01-04 01:19:15.19	25.27	9.66	-53.2	-55.6	14.0	0.00e+00	0	28	0	124780544	72	4792
2026-01-04 01:19:19.19	25.19	10.01	-53.1	-55.4	14.0	0.00e+00	0	28	0	132120576	71	4948
2026-01-04 01:19:23.18	25.11	10.35	-53.0	-55.3	14.1	0.00e+00	0	28	0	139460608	71	4900
2026-01-04 01:19:27.18	25.02	10.70	-53.0	-55.2	14.1	0.00e+00	0	28	0	147849216	71	4865
2026-01-04 01:19:31.17	24.94	11.06	-53.1	-55.3	14.0	0.00e+00	0	28	0	155189248	71	4922
2026-01-04 01:19:35.16	24.85	11.42	-52.8	-55.0	14.2	0.00e+00	0	28	0	162529280	71	4730
2026-01-04 01:19:39.15	24.75	11.79	-52.8	-55.1	14.2	0.00e+00	0	28	0	169869312	71	4762
2026-01-04 01:19:43.15	24.66	12.16	-52.6	-54.7	14.4	0.00e+00	0	28	0	177209344	71	4553
2026-01-04 01:19:47.15	24.56	12.54	-52.4	-54.5	14.5	0.00e+00	0	28	0	184549376	71	4449
2026-01-04 01:19:51.14	24.46	12.92	-52.3	-54.3	14.5	0.00e+00	0	28	0	191889408	71	4386
2026-01-04 01:19:55.13	24.36	13.31	-52.2	-54.2	14.5	0.00e+00	0	28	0	200278016	70	4581
2026-01-04 01:19:59.12	24.25	13.70	-52.1	-54.0	14.6	0.00e+00	0	28	0	207618048	70	4489
2026-01-04 01:20:03.08	24.14	14.10	-52.1	-54.1	14.5	0.00e+00	0	29	0	214958080	70	4510
2026-01-04 01:20:07.06	24.02	14.51	-51.9	-53.8	14.7	0.00e+00	0	28	0	222298112	70	4362
2026-01-04 01:20:11.04	23.91	14.92	-51.6	-53.5	14.6	0.00e+00	0	28	0	229638144	69	4482
2026-01-04 01:20:15.04	23.79	15.35	-51.5	-53.3	14.7	0.00e+00	0	28	0	236978176	69	4375
2026-01-04 01:20:19.03	23.66	15.78	-51.4	-53.2	14.8	0.00e+00	0	28	0	244318208	69	4314
2026-01-04 01:20:23.03	23.53	16.21	-51.3	-53.0	14.9	0.00e+00	0	28	0	252706816	69	4229
2026-01-04 01:20:27.04	23.39	16.66	-51.3	-53.0	14.7	0.00e+00	0	28	0	260046848	68	4492
2026-01-04 01:20:31.03	23.26	17.11	-51.3	-53.1	14.7	0.00e+00	0	28	0	267386880	68	4516
2026-01-04 01:20:35.02	23.11	17.58	-51.5	-53.3	14.7	0.00e+00	0	28	0	274726912	68	4629
2026-01-04 01:20:39.02	22.96	18.05	-51.5	-53.2	14.7	0.00e+00	0	28	0	282066944	68	4593
2026-01-04 01:20:43.00	22.81	18.52	-51.5	-53.3	14.7	0.00e+00	0	28	0	289406976	68	4610
2026-01-04 01:20:47.01	22.65	19.01	-51.4	-53.2	14.8	0.00e+00	0	28	0	296747008	68	4548
2026-01-04 01:20:51.01	22.48	19.51	-51.5	-53.2	14.7	0.00e+00	0	28	0	304087040	68	4573
2026-01-04 01:20:54.99	22.31	20.02	-51.4	-53.1	14.8	0.00e+00	0	28	0	312475648	68	4496
2026-01-04 01:20:58.99	22.14	20.54	-51.3	-52.9	14.8	0.00e+00	0	28	0	319815680	68	4431
2026-01-04 01:21:02.99	21.95	21.07	-51.3	-52.9	14.8	0.00e+00	0	28	0	327155712	68	4422
2026-01-04 01:21:06.99	21.76	21.61	-51.2	-52.8	14.9	0.00e+00	0	29	0	334495744	68	4386
2026-01-04 01:21:10.97	21.56	22.16	-51.3	-52.9	14.8	0.00e+00	0	29	0	341835776	68	4425
2026-01-04 01:21:14.97	21.35	22.72	-51.5	-53.2	14.7	0.00e+00	0	29	0	349175808	68	4581
2026-01-04 01:21:18.97	21.14	23.30	-51.4	-53.1	14.8	0.00e+00	0	29	0	356515840	68	4507
2026-01-04 01:21:22.98	20.91	23.89	-51.3	-53.0	14.9	0.00e+00	0	29	0	364904448	68	4444
2026-01-04 01:21:26.97	20.68	24.49	-51.5	-53.3	14.7	0.00e+00	0	29	0	372244480	68	4600
2026-01-04 01:21:30.95	20.44	25.10	-52.3	-54.2	14.5	0.00e+00	0	29	0	379584512	69	4818
2026-01-04 01:21:34.93	20.19	25.73	-52.5	-54.5	14.5	0.00e+00	0	28	0	386924544	70	4719
2026-01-04 01:21:38.93	19.92	26.37	-52.4	-54.3	14.5	0.00e+00	0	29	0	394264576	70	4602
2026-01-04 01:21:42.93	19.65	27.03	-53.0	-55.1	14.3	0.00e+00	0	28	0	401604608	71	4770
2026-01-04 01:21:46.94	19.36	27.71	-53.6	-56.0	14.2	0.00e+00	0	29	0	409993216	73	4707
2026-01-04 01:21:50.93	19.06	28.40	-53.5	-55.8	14.1	0.00e+00	0	28	0	417333248	72	4909
2026-01-04 01:21:54.93	18.74	29.10	-53.3	-55.5	14.3	0.00e+00	0	28	0	424673280	72	4753
2026-01-04 01:21:58.91	18.41	29.82	-53.8	-56.3	14.0	0.00e+00	0	29	0	432013312	73	4887
2026-01-04 01:22:02.89	18.07	30.56	-54.3	-57.0	13.7	0.00e+00	0	29	0	439353344	73	5288
2026-01-04 01:22:06.87	17.70	31.32	-54.2	-56.7	13.8	0.00e+00	0	29	0	446693376	73	5120
2026-01-04 01:22:10.85	17.32	32.09	-54.6	-57.3	13.6	0.00e+00	0	29	0	454033408	74	5176
2026-01-04 01:22:14.84	16.92	32.89	-54.9	-57.8	13.4	0.00e+00	0	29	0	461373440	75	5217
2026-01-04 01:22:18.85	16.50	33.71	-54.9	-58.0	13.3	0.00e+00	0	29	0	469762048	75	5292
2026-01-04 01:22:22.85	16.05	34.55	-55.6	-59.1	12.8	0.00e+00	0	29	0	477102080	76	5670
2026-01-04 01:22:26.86	15.58	35.41	-54.4	-57.3	13.6	0.00e+00	0	28	0	484442112	74	5165
2026-01-04 01:22:30.85	15.08	36.29	-54.8	-57.9	13.4	0.00e+00	0	28	0	491782144	75	5231
2026-01-04 01:22:34.85	14.56	37.19	-55.1	-58.4	13.1	0.00e+00	0	29	0	499122176	75	5541
2026-01-04 01:22:38.84	14.00	38.11	-54.3	-57.1	13.7	0.00e+00	0	29	0	506462208	74	5059
2026-01-04 01:22:42.85	13.41	39.06	-54.9	-58.1	13.1	0.00e+00	0	28	0	513802240	74	5709
2026-01-04 01:22:46.85	12.78	40.03	-55.0	-58.3	13.1	0.00e+00	0	29	0	522190848	75	5480
2026-01-04 01:22:50.85	12.11	41.03	-54.7	-57.6	13.6	0.00e+00	0	29	0	529530880	75	5042
2026-01-04 01:22:54.84	11.40	42.04	-53.6	-56.1	14.1	0.00e+00	0	29	0	536870912	73	4774
2026-01-04 01:22:58.83	10.64	43.08	-53.5	-56.0	14.1	0.00e+00	0	29	0	544210944	73	4720
2026-01-04 01:23:02.83	9.83	44.14	-53.3	-55.7	14.2	0.00e+00	0	29	0	551550976	73	4591
2026-01-04 01:23:06.81	8.96	45.22	-52.9	-55.4	14.2	0.00e+00	0	28	0	558891008	71	4933
2026-01-04 01:23:10.80	8.03	46.33	-53.5	-56.1	14.0	0.00e+00	0	28	0	566231040	72	5092
2026-01-04 01:23:14.80	7.03	47.46	-53.1	-55.5	14.2	0.00e+00	0	29	0	574619648	71	4987
2026-01-04 01:23:18.80	5.95	48.61	-53.1	-55.3	14.4	0.00e+00	0	29	0	581959680	72	4619
2026-01-04 01:23:22.81	4.78	49.78	-51.9	-53.8	14.8	0.00e+00	0	29	0	589299712	70	4357
2026-01-04 01:23:26.80	3.52	50.96	-51.4	-53.2	14.9	0.00e+00	0	29	0	596639744	68	4574
2026-01-04 01:23:30.80	2.16	52.16	-52.6	-54.5	14.6	0.00e+00	0	29	0	603979776	70	4738
2026-01-04 01:23:34.79	0.68	53.36	-52.8	-54.8	14.4	0.00e+00	0	29	0	611319808	70	4897
2026-01-04 01:23:38.79	359.06	54.58	-51.8	-53.7	14.8	0.00e+00	0	28	0	619708416	70	4314
2026-01-04 01:23:42.79	357.31	55.80	-53.3	-55.8	14.2	0.00e+00	0	29	0	627048448	72	4905
2026-01-04 01:23:46.78	355.39	57.02	-54.9	-57.9	13.4	0.00e+00	0	28	0	634388480	74	5559
2026-01-04 01:23:50.77	353.30	58.23	-54.2	-56.8	14.0	0.00e+00	0	29	0	641728512	75	4640
2026-01-04 01:23:54.77	351.00	59.43	-53.4	-55.7	14.3	0.00e+00	0	29	0	649068544	72	4867
2026-01-04 01:23:58.76	348.48	60.60	-53.1	-55.1	14.5	0.00e+00	0	29	0	656408576	72	4534
2026-01-04 01:24:02.76	345.72	61.74	-51.7	-53.4	15.0	0.00e+00	0	29	0	663748608	70	4175
2026-01-04 01:24:06.74	342.71	62.83	-51.8	-53.7	14.9	0.00e+00	0	28	0	672137216	70	4298
2026-01-04 01:24:10.72	339.42	63.86	-52.1	-54.1	14.7	0.00e+00	0	29	0	679477248	69	4778
2026-01-04 01:24:14.71	335.83	64.83	-51.8	-53.7	14.8	0.00e+00	0	29	0	686817280	69	4553
2026-01-04 01:24:18.69	331.94	65.71	-51.7	-53.4	14.9	0.00e+00	0	29	0	694157312	69	4410
2026-01-04 01:24:22.69	327.71	66.49	-51.9	-53.6	14.8	0.00e+00	0	29	0	701497344	69	4541
2026-01-04 01:24:26.69	323.20	67.15	-54.2	-56.6	14.1	0.00e+00	0	29	0	708837376	74	4769
2026-01-04 01:24:30.68	318.43	67.68	-55.4	-58.2	13.6	0.00e+00	0	28	0	716177408	77	4822
2026-01-04 01:24:34.67	313.44	68.05	-53.6	-55.6	14.5	0.00e+00	0	29	0	723517440	73	4510
2026-01-04 01:24:38.66	308.31	68.27	-54.0	-56.1	14.4	0.00e+00	0	29	0	731906048	74	4514
2026-01-04 01:24:42.64	303.11	68.33	-54.0	-56.3	14.2	0.00e+00	0	29	0	739246080	73	4871
2026-01-04 01:24:46.65	297.89	68.22	-53.8	-56.0	14.3	0.00e+00	0	29	0	746586112	73	4729
2026-01-04 01:24:50.66	292.77	67.95	-54.5	-57.0	14.0	0.00e+00	0	28	0	753926144	74	5007
2026-01-04 01:24:54.67	287.83	67.51	-55.5	-58.5	13.5	0.00e+00	0	29	0	761266176	77	4993
2026-01-04 01:24:58.66	283.14	66.94	-54.8	-57.3	14.0	0.00e+00	0	29	0	768606208	76	4630
2026-01-04 01:25:02.65	278.73	66.24	-53.3	-55.2	14.5	0.00e+00	0	29	0	775946240	71	4834
2026-01-04 01:25:06.62	274.64	65.43	-52.0	-53.8	14.9	0.00e+00	0	29	0	784334848	70	4363
2026-01-04 01:25:10.61	270.83	64.52	-52.3	-54.1	14.8	0.00e+00	0	29	0	791674880	70	4527
2026-01-04 01:25:14.60	267.33	63.53	-52.7	-54.8	14.5	0.00e+00	0	29	0	799014912	70	4875
2026-01-04 01:25:18.60	264.12	62.47	-53.5	-55.9	14.2	0.00e+00	0	29	0	806354944	72	4953
2026-01-04 01:25:22.59	261.19	61.36	-53.8	-56.3	14.0	0.00e+00	0	29	0	813694976	73	4916
2026-01-04 01:25:26.58	258.51	60.20	-54.5	-57.2	13.8	0.00e+00	0	29	0	821035008	74	5158
2026-01-04 01:25:30.58	256.07	59.02	-53.8	-56.0	14.3	0.00e+00	0	29	0	828375040	73	4748
2026-01-04 01:25:34.58	253.84	57.81	-51.8	-53.5	14.9	0.00e+00	0	29	0	836763648	70	4237
2026-01-04 01:25:38.57	251.80	56.60	-51.4	-53.1	14.9	0.00e+00	0	29	0	844103680	68	4510
2026-01-04 01:25:42.56	249.94	55.38	-51.5	-53.1	15.0	0.00e+00	0	29	0	851443712	69	4283
2026-01-04 01:25:46.55	248.24	54.16	-51.9	-53.6	14.9	0.00e+00	0	29	0	858783744	70	4291
2026-01-04 01:25:50.55	246.67	52.94	-52.1	-53.9	14.7	0.00e+00	0	29	0	866123776	69	4690
2026-01-04 01:25:54.56	245.22	51.73	-53.6	-55.8	14.3	0.00e+00	0	29	0	873463808	72	4921
2026-01-04 01:25:58.54	243.89	50.53	-52.9	-54.8	14.7	0.00e+00	0	29	0	880803840	72	4368
2026-01-04 01:26:02.54	242.66	49.35	-51.4	-53.1	14.9	0.00e+00	0	29	0	889192448	68	4501
2026-01-04 01:26:06.52	241.53	48.19	-52.3	-54.2	14.8	0.00e+00	0	28	0	896532480	71	4332
2026-01-04 01:26:10.51	240.48	47.05	-54.7	-57.2	13.9	0.00e+00	0	28	0	903872512	75	4856
2026-01-04 01:26:14.50	239.50	45.93	-52.9	-54.9	14.6	0.00e+00	0	29	0	911212544	72	4394
2026-01-04 01:26:18.48	238.59	44.83	-52.8	-54.8	14.6	0.00e+00	0	29	0	918552576	72	4343
2026-01-04 01:26:22.47	237.74	43.75	-53.5	-55.8	14.3	0.00e+00	0	29	0	925892608	72	4891
2026-01-04 01:26:26.46	236.95	42.70	-56.8	-61.8	11.3	1.50e-06	0	28	0	933232640	78	6883
2026-01-04 01:26:30.46	236.20	41.66	-55.2	-58.4	13.2	0.00e+00	0	29	0	940572672	76	5230
2026-01-04 01:26:34.46	235.50	40.65	-54.4	-57.1	13.8	0.00e+00	0	29	0	948961280	74	5077
2026-01-04 01:26:38.45	234.85	39.66	-55.0	-58.0	13.4	0.00e+00	0	29	0	956301312	75	5336
2026-01-04 01:26:42.44	234.23	38.70	-55.4	-59.3	12.3	0.00e+00	0	29	0	963641344	76	5811
2026-01-04 01:26:46.44	233.65	37.76	-56.4	-60.6	12.1	0.00e+00	0	29	0	970981376	77	6349
2026-01-04 01:26:50.44	233.10	36.84	-53.8	-56.1	14.3	0.00e+00	0	29	0	978321408	74	4495
2026-01-04 01:26:54.44	232.59	35.94	-53.0	-55.0	14.6	0.00e+00	0	28	0	985661440	72	4442
2026-01-04 01:26:58.44	232.10	35.07	-54.2	-56.7	13.9	0.00e+00	0	29	0	994050048	73	5135
2026-01-04 01:27:02.42	231.63	34.22	-55.0	-57.7	13.6	0.00e+00	0	29	0	1001390080	76	4855
2026-01-04 01:27:06.41	231.19	33.38	-54.6	-57.2	13.8	0.00e+00	0	29	0	1008730112	74	5113
2026-01-04 01:27:10.39	230.78	32.57	-54.6	-57.3	13.8	0.00e+00	0	29	0	1016070144	75	4874
2026-01-04 01:27:14.36	230.38	31.79	-55.0	-57.8	13.5	0.00e+00	0	29	0	1023410176	75	5213
2026-01-04 01:27:18.36	230.01	31.01	-54.1	-56.3	14.2	0.00e+00	0	29	0	1030750208	74	4635
2026-01-04 01:27:22.36	229.65	30.26	-55.7	-58.7	13.1	0.00e+00	0	29	0	1038090240	76	5452
2026-01-04 01:27:26.36	229.30	29.52	-56.3	-59.8	12.6	0.00e+00	0	29	0	1045430272	78	5522
2026-01-04 01:27:30.36	228.98	28.80	-55.5	-58.4	13.4	0.00e+00	0	29	0	1053818880	77	4972
2026-01-04 01:27:34.34	228.66	28.10	-56.0	-59.2	12.9	0.00e+00	0	29	0	1061158912	77	5457
2026-01-04 01:27:38.33	228.37	27.41	-55.3	-58.2	13.4	0.00e+00	0	29	0	1068498944	76	5148
2026-01-04 01:27:42.31	228.08	26.75	-54.3	-56.7	14.1	0.00e+00	0	29	0	1075838976	75	4587
2026-01-04 01:27:46.29	227.81	26.09	-54.7	-57.0	14.0	0.00e+00	0	29	0	1083179008	75	4743
2026-01-04 01:27:50.28	227.55	25.45	-55.8	-58.6	13.3	0.00e+00	0	29	0	1090519040	76	5350
2026-01-04 01:27:54.29	227.30	24.83	-54.8	-57.1	14.0	0.00e+00	0	29	0	1097859072	76	4521
2026-01-04 01:27:58.30	227.05	24.21	-53.9	-55.9	14.4	0.00e+00	0	29	0	1106247680	74	4423
2026-01-04 01:28:02.30	226.82	23.61	-54.5	-56.8	14.0	0.00e+00	0	29	0	1113587712	74	4880
2026-01-04 01:28:06.29	226.60	23.03	-55.1	-57.5	13.7	0.00e+00	0	29	0	1120927744	75	5040
2026-01-04 01:28:10.28	226.39	22.46	-54.4	-56.6	14.1	0.00e+00	0	29	0	1128267776	75	4509
2026-01-04 01:28:14.25	226.18	21.90	-53.9	-55.9	14.3	0.00e+00	0	29	0	1135607808	74	4422
2026-01-04 01:28:18.24	225.98	21.35	-54.1	-56.2	14.2	0.00e+00	0	29	0	1142947840	74	4598
2026-01-04 01:28:22.19	225.79	20.82	-54.8	-57.2	13.8	0.00e+00	0	29	0	1150287872	74	5104
2026-01-04 01:28:26.18	225.61	20.29	-54.7	-57.0	13.9	0.00e+00	0	29	0	1157627904	75	4751
2026-01-04 01:28:30.18	225.43	19.78	-54.4	-56.6	14.1	0.00e+00	0	29	0	1164967936	75	4504
2026-01-04 01:28:34.16	225.26	19.27	-54.1	-56.2	14.2	0.00e+00	0	29	0	1173356544	74	4583
2026-01-04 01:28:38.17	225.10	18.77	-53.9	-56.0	14.3	0.00e+00	0	29	0	1180696576	74	4463
2026-01-04 01:28:42.14	224.94	18.29	-53.8	-55.7	14.4	0.00e+00	0	29	0	1188036608	74	4338
2026-01-04 01:28:46.14	224.78	17.81	-53.5	-55.4	14.5	0.00e+00	0	29	0	1195376640	73	4401
2026-01-04 01:28:50.15	224.63	17.34	-53.2	-55.1	14.6	0.00e+00	0	29	0	1202716672	73	4247
2026-01-04 01:28:54.15	224.49	16.88	-53.5	-55.4	14.3	0.00e+00	0	29	0	1210056704	72	4689
2026-01-04 01:28:58.14	224.35	16.43	-53.7	-55.8	14.2	0.00e+00	0	29	0	1218445312	72	4876
2026-01-04 01:29:02.12	224.22	15.99	-54.0	-56.1	14.1	0.00e+00	0	29	0	1225785344	73	4780
2026-01-04 01:29:06.11	224.09	15.55	-53.9	-56.1	14.1	0.00e+00	0	29	0	1233125376	73	4764
2026-01-04 01:29:10.08	223.96	15.13	-54.1	-56.3	14.0	0.00e+00	0	29	0	1240465408	73	4874
2026-01-04 01:29:14.07	223.84	14.71	-54.1	-56.3	14.0	0.00e+00	0	29	0	1247805440	73	4900
2026-01-04 01:29:18.06	223.72	14.29	-54.5	-56.8	13.8	0.00e+00	0	29	0	1255145472	74	4916
2026-01-04 01:29:22.04	223.60	13.89	-54.8	-57.3	13.6	0.00e+00	0	29	0	1262485504	74	5177
2026-01-04 01:29:26.03	223.49	13.49	-54.8	-57.3	13.6	0.00e+00	0	29	0	1269825536	75	4895
2026-01-04 01:29:30.02	223.38	13.09	-55.1	-57.8	13.3	0.00e+00	0	29	0	1278214144	75	5203
2026-01-04 01:29:34.03	223.28	12.70	-54.8	-57.3	13.6	0.00e+00	0	29	0	1285554176	75	4882
2026-01-04 01:29:38.02	223.18	12.32	-54.4	-56.7	13.9	0.00e+00	0	29	0	1292894208	75	4595
2026-01-04 01:29:42.02	223.08	11.94	-54.1	-56.4	14.0	0.00e+00	0	29	0	1300234240	74	4662
2026-01-04 01:29:46.01	222.98	11.57	-53.9	-56.1	14.1	0.00e+00	0	29	0	1307574272	74	4494
2026-01-04 01:29:50.02	222.89	11.20	-54.0	-56.1	14.1	0.00e+00	0	29	0	1314914304	74	4533
2026-01-04 01:29:54.02	222.79	10.84	-53.6	-55.7	14.2	0.00e+00	0	29	0	1322254336	73	4558
2026-01-04 01:29:58.01	222.71	10.49	-53.9	-56.0	14.1	0.00e+00	0	29	0	1330642944	73	4753
2026-01-04 01:30:02.01	222.62	10.14	-53.7	-55.9	14.1	0.00e+00	0	29	0	1337982976	73	4676
2026-01-04 01:30:05.99	222.54	9.80	-54.0	-56.2	13.9	0.00e+00	0	29	0	1345323008	73	4862
2026-01-04 01:30:09.99	222.45	9.45	-54.1	-56.3	13.9	0.00e+00	0	29	0	1352663040	73	4918
2026-01-04 01:30:13.99	222.37	9.12	-54.3	-56.7	13.8	0.00e+00	0	29	0	1360003072	74	4848
2026-01-04 01:30:17.97	222.30	8.79	-54.6	-57.1	13.6	0.00e+00	0	29	0	1367343104	74	5082
2026-01-04 01:30:21.96	222.22	8.46	-54.7	-57.4	13.4	0.00e+00	0	29	0	1374683136	74	5241
2026-01-04 01:30:25.95	222.15	8.14	-54.9	-57.7	13.3	0.00e+00	0	29	0	1383071744	75	5142
2026-01-04 01:30:29.94	222.08	7.82	-55.1	-57.9	13.1	0.00e+00	0	29	0	1390411776	75	5276
2026-01-04 01:30:33.93	222.01	7.50	-55.2	-58.1	13.0	0.00e+00	0	29	0	1397751808	75	5391
2026-01-04 01:30:37.93	221.94	7.19	-55.1	-58.1	13.0	0.00e+00	0	29	0	1405091840	75	5369
2026-01-04 01:30:41.90	221.87	6.89	-55.3	-58.4	12.8	7.00e-07	0	29	0	1412431872	75	5590
2026-01-04 01:30:45.90	221.81	6.58	-55.2	-58.3	12.9	0.00e+00	0	29	0	1419771904	76	5170
2026-01-04 01:30:49.90	221.74	6.28	-55.5	-58.7	12.7	0.00e+00	0	29	0	1427111936	76	5431
2026-01-04 01:30:53.90	221.68	5.98	-55.5	-58.8	12.6	0.00e+00	0	29	0	1435500544	76	5521
2026-01-04 01:30:57.89	221.62	5.69	-55.6	-59.1	12.4	0.00e+00	0	29	0	1442840576	76	5657
2026-01-04 01:31:01.89	221.56	5.40	-55.5	-58.9	12.5	0.00e+00	0	29	0	1450180608	76	5529
2026-01-04 01:31:05.90	221.51	5.11	-55.6	-59.1	12.3	0.00e+00	0	29	0	1457520640	76	5703
2026-01-04 01:31:09.89	221.45	4.82	-60.1	-76.2	3.8	1.49e+00	0	29	104	1460666368	85	24185
2026-01-04 01:31:13.89	221.40	4.54	-60.6	-76.7	3.8	1.49e+00	0	29	104	1460666368	86	24362
2026-01-04 01:31:17.87	221.34	4.27	-60.9	-77.0	3.8	1.49e+00	0	29	104	1460666368	86	25069
2026-01-04 01:31:21.85	221.29	3.99	-61.0	-77.2	3.8	1.49e+00	0	29	104	1460666368	87	24138
2026-01-04 01:31:25.84	221.24	3.72	-61.1	-77.2	3.8	1.49e+00	0	29	104	1460666368	87	24381
2026-01-04 01:31:29.81	221.19	3.45	-61.2	-77.4	3.8	1.49e+00	0	29	104	1460666368	87	24706
2026-01-04 01:31:33.82	221.14	3.18	-61.1	-77.2	3.8	1.49e+00	0	29	104	1460666368	87	24393
2026-01-04 01:31:37.82	221.10	2.91	-61.1	-77.2	3.8	1.49e+00	0	29	104	1460666368	87	24219
2026-01-04 01:31:41.82	221.05	2.65	-61.0	-77.2	3.8	1.49e+00	0	29	104	1460666368	87	24164
2026-01-04 01:31:45.82	221.00	2.39	-61.0	-77.1	3.8	1.49e+00	0	29	104	1460666368	87	24074
2026-01-04 01:31:49.82	220.96	2.13	-61.0	-77.1	3.8	1.49e+00	0	29	104	1460666368	87	24061
2026-01-04 01:31:53.82	220.92	1.88	-61.0	-77.1	3.8	1.49e+00	0	29	104	1460666368	87	23989

#Closed at: 2026-01-04 01:31:54
#Recorded file [1460 MB]: D:/lorett/data/31004_260104_041731.dat