passes_logs/2026/01/04/R3.2S_Murmansk/R3.2S_Murmansk__20260104_035845_FENGYUN_3D_rec.log

#Pass ID: 20260104_035845_FENGYUN 3D
#Satellite: FENGYUN 3D
#Configuration: FENGYUN 3D
#almurnet v.1.7.20251203
#Start time: 2026-01-04 03:58:47

#Version: 2.2.20231116
#Station: R3.2S_Murmansk
#Location: 33.079688 lon 68.888172 lat
#TLE: 1 43010U 17072A   26003.51579816  .00000092  00000+0  65324-4 0  9992
#TLE: 2 43010  98.9912 335.1548 0001916 128.4619 231.6729 14.19692074421623

#Time	Az	El	Level	Level2	SNR	BER	BlckErr	Temp	State	Recorded	gain1	gain2
2026-01-04 03:58:47.48	30.89	2.10	-58.5	-71.5	3.8	8.45e-01	0	27	0	0	83	15852
2026-01-04 03:58:51.47	30.78	2.35	-58.5	-71.5	3.8	8.46e-01	0	27	104	0	82	16774
2026-01-04 03:58:55.47	30.68	2.61	-58.4	-71.5	3.8	8.44e-01	0	27	104	0	82	16747
2026-01-04 03:58:59.44	30.57	2.86	-58.4	-71.5	3.8	8.46e-01	0	28	104	0	82	16727
2026-01-04 03:59:03.43	30.46	3.12	-58.4	-71.5	3.8	8.46e-01	0	28	104	0	82	16719
2026-01-04 03:59:07.44	30.34	3.38	-58.4	-71.4	3.8	8.46e-01	0	28	104	0	82	16598
2026-01-04 03:59:11.43	30.23	3.65	-58.4	-70.5	3.8	8.46e-01	0	28	104	0	82	15031
2026-01-04 03:59:15.43	30.11	3.91	-58.3	-69.2	3.8	8.44e-01	0	28	104	0	82	12879
2026-01-04 03:59:19.43	29.99	4.18	-58.3	-69.2	4.0	8.45e-01	0	28	104	0	82	12835
2026-01-04 03:59:23.43	29.87	4.45	-58.2	-68.3	4.1	8.39e-01	0	28	0	0	82	11614
2026-01-04 03:59:27.43	29.74	4.73	-57.2	-63.1	6.7	1.90e-01	0	28	0	6291456	81	6782
2026-01-04 03:59:31.43	29.61	5.01	-56.0	-60.0	9.3	9.37e-03	0	28	0	29360128	78	5604
2026-01-04 03:59:35.43	29.48	5.29	-55.3	-58.6	10.3	2.48e-02	0	28	0	48234496	77	5079
2026-01-04 03:59:39.43	29.35	5.57	-50.8	-52.4	14.1	0.00e+00	0	28	0	69206016	68	4150
2026-01-04 03:59:43.43	29.21	5.85	-49.9	-51.3	14.4	0.00e+00	0	28	0	91226112	66	4128
2026-01-04 03:59:47.43	29.07	6.14	-49.8	-51.2	14.4	0.00e+00	0	28	0	114294784	66	4077
2026-01-04 03:59:51.41	28.93	6.43	-49.7	-51.1	14.5	0.00e+00	0	28	0	136314880	66	4029
2026-01-04 03:59:55.40	28.79	6.72	-49.6	-51.0	14.5	0.00e+00	0	28	0	158334976	65	4202
2026-01-04 03:59:59.39	28.64	7.02	-49.4	-50.8	14.6	0.00e+00	0	28	0	181403648	65	4117
2026-01-04 04:00:03.37	28.48	7.32	-49.5	-50.9	14.6	0.00e+00	0	29	0	203423744	65	4154
2026-01-04 04:00:07.36	28.33	7.62	-49.4	-50.7	14.6	0.00e+00	0	29	0	226492416	65	4077
2026-01-04 04:00:11.36	28.17	7.93	-49.1	-50.4	14.7	0.00e+00	0	29	0	248512512	64	4191
2026-01-04 04:00:15.34	28.01	8.24	-49.2	-50.5	14.6	0.00e+00	0	29	0	270532608	64	4223
2026-01-04 04:00:19.34	27.84	8.56	-49.2	-50.5	14.6	0.00e+00	0	29	0	293601280	64	4242
2026-01-04 04:00:23.35	27.67	8.88	-49.3	-50.7	14.6	0.00e+00	0	28	0	315621376	64	4299
2026-01-04 04:00:27.33	27.49	9.20	-49.3	-50.6	14.6	0.00e+00	0	28	0	338690048	64	4278
2026-01-04 04:00:31.33	27.31	9.52	-49.5	-50.8	14.5	0.00e+00	0	29	0	360710144	64	4377
2026-01-04 04:00:35.33	27.13	9.85	-49.2	-50.5	14.7	0.00e+00	0	29	0	383778816	64	4236
2026-01-04 04:00:39.34	26.94	10.19	-49.1	-50.4	14.7	0.00e+00	0	29	0	405798912	64	4170
2026-01-04 04:00:43.34	26.74	10.53	-48.9	-50.2	14.8	0.00e+00	0	29	0	428867584	64	4076
2026-01-04 04:00:47.36	26.54	10.87	-48.7	-50.0	14.9	0.00e+00	0	29	0	450887680	64	3981
2026-01-04 04:00:51.35	26.34	11.22	-48.6	-49.8	14.9	0.00e+00	0	29	0	473956352	63	4119
2026-01-04 04:00:55.33	26.13	11.57	-48.6	-49.8	14.9	0.00e+00	0	29	0	495976448	63	4123
2026-01-04 04:00:59.30	25.92	11.92	-48.3	-49.5	15.0	0.00e+00	0	28	0	517996544	63	4003
2026-01-04 04:01:03.31	25.69	12.28	-48.2	-49.4	15.0	0.00e+00	0	29	0	541065216	63	3949
2026-01-04 04:01:07.30	25.47	12.65	-48.2	-49.4	14.9	0.00e+00	0	29	0	563085312	62	4185
2026-01-04 04:01:11.30	25.24	13.02	-48.1	-49.3	15.0	0.00e+00	0	29	0	586153984	62	4106
2026-01-04 04:01:15.30	25.00	13.40	-48.1	-49.3	15.0	0.00e+00	0	29	0	608174080	62	4122
2026-01-04 04:01:19.28	24.75	13.78	-48.1	-49.3	15.0	0.00e+00	0	29	0	631242752	62	4103
2026-01-04 04:01:23.28	24.50	14.17	-48.0	-49.2	15.0	0.00e+00	0	29	0	653262848	62	4070
2026-01-04 04:01:27.27	24.24	14.56	-47.9	-49.1	15.1	0.00e+00	0	29	0	675282944	62	4011
2026-01-04 04:01:31.22	23.98	14.95	-47.9	-49.0	15.1	0.00e+00	0	29	0	698351616	62	3988
2026-01-04 04:01:35.21	23.70	15.36	-47.6	-48.8	15.0	0.00e+00	0	29	0	720371712	61	4107
2026-01-04 04:01:39.21	23.42	15.77	-47.4	-48.5	15.1	0.00e+00	0	29	0	743440384	61	3988
2026-01-04 04:01:43.21	23.13	16.19	-47.3	-48.4	15.2	0.00e+00	0	29	0	765460480	61	3956
2026-01-04 04:01:47.21	22.83	16.61	-47.2	-48.4	15.2	0.00e+00	0	29	0	787480576	61	3918
2026-01-04 04:01:51.20	22.52	17.04	-47.2	-48.3	15.1	0.00e+00	0	29	0	810549248	60	4120
2026-01-04 04:01:55.20	22.20	17.48	-46.9	-48.0	15.2	0.00e+00	0	29	0	832569344	60	3977
2026-01-04 04:01:59.18	21.88	17.92	-46.7	-47.8	15.3	0.00e+00	0	29	0	855638016	60	3883
2026-01-04 04:02:03.17	21.54	18.37	-47.0	-48.2	15.1	0.00e+00	0	29	0	877658112	59	4295
2026-01-04 04:02:07.13	21.19	18.82	-46.9	-48.1	15.2	0.00e+00	0	29	0	899678208	59	4246
2026-01-04 04:02:11.13	20.83	19.29	-47.0	-48.2	15.1	0.00e+00	0	29	0	922746880	59	4304
2026-01-04 04:02:15.13	20.46	19.76	-47.0	-48.1	15.2	0.00e+00	0	29	0	944766976	59	4247
2026-01-04 04:02:19.13	20.08	20.24	-46.6	-47.7	15.3	0.00e+00	0	29	0	967835648	59	4082
2026-01-04 04:02:23.13	19.68	20.73	-46.6	-47.6	15.3	0.00e+00	0	29	0	989855744	59	4040
2026-01-04 04:02:27.12	19.27	21.23	-46.6	-47.7	15.3	0.00e+00	0	29	0	1012924416	59	4085
2026-01-04 04:02:31.12	18.85	21.73	-46.6	-47.7	15.3	0.00e+00	0	29	0	1034944512	59	4086
2026-01-04 04:02:35.09	18.41	22.24	-46.5	-47.6	15.3	0.00e+00	0	29	0	1056964608	59	4011
2026-01-04 04:02:39.09	17.96	22.77	-46.1	-47.2	15.3	0.00e+00	0	29	0	1080033280	58	4064
2026-01-04 04:02:43.09	17.48	23.30	-46.2	-47.2	15.3	0.00e+00	0	29	0	1102053376	58	4097
2026-01-04 04:02:47.08	17.00	23.84	-46.3	-47.4	15.3	0.00e+00	0	29	0	1125122048	58	4165
2026-01-04 04:02:51.09	16.49	24.39	-46.0	-47.1	15.4	0.00e+00	0	29	0	1147142144	58	4026
2026-01-04 04:02:55.08	15.97	24.95	-45.8	-46.9	15.4	0.00e+00	0	29	0	1169162240	58	3923
2026-01-04 04:02:59.08	15.43	25.51	-46.0	-47.0	15.4	0.00e+00	0	29	0	1192230912	58	3988
2026-01-04 04:03:03.08	14.86	26.09	-46.0	-47.0	15.4	0.00e+00	0	29	0	1214251008	58	3984
2026-01-04 04:03:07.06	14.28	26.67	-45.9	-46.9	15.4	0.00e+00	0	29	0	1237319680	58	3943
2026-01-04 04:03:11.04	13.68	27.27	-45.5	-46.6	15.4	0.00e+00	0	29	0	1259339776	57	4011
2026-01-04 04:03:15.02	13.05	27.87	-45.9	-46.9	15.3	0.00e+00	0	29	0	1281359872	57	4190
2026-01-04 04:03:19.03	12.39	28.49	-45.7	-46.8	15.3	0.00e+00	0	29	0	1304428544	57	4116
2026-01-04 04:03:23.02	11.71	29.11	-45.5	-46.5	15.4	0.00e+00	0	29	0	1326448640	57	3988
2026-01-04 04:03:27.02	11.00	29.74	-45.5	-46.6	15.4	0.00e+00	0	29	0	1349517312	57	4012
2026-01-04 04:03:31.02	10.26	30.38	-45.8	-46.8	15.3	0.00e+00	0	29	0	1371537408	57	4139
2026-01-04 04:03:35.00	9.49	31.03	-45.8	-46.8	15.3	0.00e+00	0	29	0	1394606080	57	4132
2026-01-04 04:03:39.00	8.69	31.69	-45.3	-46.4	15.5	0.00e+00	0	29	0	1416626176	57	3919
2026-01-04 04:03:43.00	7.85	32.36	-45.6	-46.6	15.4	0.00e+00	0	29	0	1438646272	57	4021
2026-01-04 04:03:46.99	6.98	33.03	-45.4	-46.4	15.4	0.00e+00	0	29	0	1461714944	57	3945
2026-01-04 04:03:50.99	6.07	33.72	-45.2	-46.3	15.4	0.00e+00	0	29	0	1483735040	56	4103
2026-01-04 04:03:54.99	5.12	34.40	-45.2	-46.2	15.4	0.00e+00	0	29	0	1506803712	56	4085
2026-01-04 04:03:58.98	4.13	35.10	-45.7	-46.8	15.3	0.00e+00	0	29	0	1528823808	56	4356
2026-01-04 04:04:02.98	3.09	35.80	-45.4	-46.5	15.3	0.00e+00	0	29	0	1551892480	56	4209
2026-01-04 04:04:06.96	2.01	36.50	-45.4	-46.4	15.3	0.00e+00	0	29	0	1573912576	56	4188
2026-01-04 04:04:10.95	0.88	37.21	-45.6	-46.7	15.3	0.00e+00	0	29	0	1595932672	56	4296
2026-01-04 04:04:14.96	359.70	37.92	-45.5	-46.5	15.3	0.00e+00	0	29	0	1619001344	56	4240
2026-01-04 04:04:18.96	358.46	38.63	-45.4	-46.4	15.3	0.00e+00	0	29	0	1642070016	56	4192
2026-01-04 04:04:22.96	357.17	39.34	-45.3	-46.4	15.3	0.00e+00	0	29	0	1664090112	56	4153
2026-01-04 04:04:26.96	355.82	40.04	-45.6	-46.6	15.3	0.00e+00	0	29	0	1686110208	56	4284
2026-01-04 04:04:30.95	354.42	40.74	-45.6	-46.6	15.3	0.00e+00	0	29	0	1709178880	56	4274
2026-01-04 04:04:34.95	352.94	41.44	-45.7	-46.8	15.3	0.00e+00	0	29	0	1731198976	56	4350
2026-01-04 04:04:38.95	351.41	42.12	-45.5	-46.6	15.3	0.00e+00	0	29	0	1754267648	56	4244
2026-01-04 04:04:42.94	349.81	42.79	-45.6	-46.6	15.3	0.00e+00	0	29	0	1776287744	56	4282
2026-01-04 04:04:46.94	348.14	43.45	-45.6	-46.7	15.3	0.00e+00	0	29	0	1798307840	56	4307
2026-01-04 04:04:50.94	346.40	44.09	-45.8	-46.9	15.3	0.00e+00	0	29	0	1821376512	57	4153
2026-01-04 04:04:54.95	344.58	44.71	-45.7	-46.7	15.4	0.00e+00	0	29	0	1843396608	57	4098
2026-01-04 04:04:58.95	342.69	45.31	-45.6	-46.6	15.4	0.00e+00	0	29	0	1866465280	57	4042
2026-01-04 04:05:02.95	340.74	45.88	-45.7	-46.7	15.4	0.00e+00	0	29	0	1889533952	57	4081
2026-01-04 04:05:06.93	338.72	46.41	-46.4	-47.5	15.2	0.00e+00	0	29	0	1911554048	57	4447
2026-01-04 04:05:10.93	336.63	46.92	-46.3	-47.3	15.3	0.00e+00	0	29	0	1933574144	58	4144
2026-01-04 04:05:14.91	334.48	47.38	-46.5	-47.6	15.3	0.00e+00	0	29	0	1956642816	58	4258
2026-01-04 04:05:18.91	332.26	47.81	-46.4	-47.5	15.3	0.00e+00	0	29	0	1978662912	58	4216
2026-01-04 04:05:22.93	329.96	48.19	-46.7	-47.8	15.2	0.00e+00	0	29	0	2001731584	58	4366
2026-01-04 04:05:26.93	327.63	48.52	-46.7	-47.8	15.2	0.00e+00	0	29	0	2023751680	58	4365
2026-01-04 04:05:30.92	325.25	48.80	-46.6	-47.7	15.2	0.00e+00	0	29	0	2045771776	58	4307
2026-01-04 04:05:34.93	322.82	49.03	-46.6	-47.6	15.3	0.00e+00	0	29	0	2068840448	58	4289
2026-01-04 04:05:38.92	320.37	49.21	-46.5	-47.6	15.3	0.00e+00	0	29	0	2090860544	58	4266
2026-01-04 04:05:42.91	317.90	49.33	-46.7	-47.8	15.3	0.00e+00	0	29	0	2113929216	59	4111
2026-01-04 04:05:46.92	315.40	49.39	-46.5	-47.6	15.4	0.00e+00	0	29	0	2135949312	59	4016
2026-01-04 04:05:50.91	312.90	49.39	-46.3	-47.4	15.4	0.00e+00	0	29	0	2159017984	59	3926
2026-01-04 04:05:54.92	310.40	49.33	-46.8	-47.8	15.2	0.00e+00	0	29	0	2181038080	58	4375
2026-01-04 04:05:58.91	307.93	49.22	-46.7	-47.7	15.2	0.00e+00	0	29	0	2204106752	58	4337
2026-01-04 04:06:02.90	305.47	49.04	-47.0	-48.1	15.2	0.00e+00	0	29	0	2226126848	59	4273
2026-01-04 04:06:06.88	303.06	48.82	-46.5	-47.5	15.4	0.00e+00	0	29	0	2248146944	59	3989
2026-01-04 04:06:10.87	300.68	48.54	-46.5	-47.5	15.4	0.00e+00	0	29	0	2271215616	59	3976
2026-01-04 04:06:14.85	298.35	48.21	-46.7	-47.7	15.3	0.00e+00	0	29	0	2293235712	59	4093
2026-01-04 04:06:18.84	296.07	47.83	-46.2	-47.2	15.3	0.00e+00	0	29	0	2315255808	58	4083
2026-01-04 04:06:22.83	293.84	47.41	-46.3	-47.3	15.3	0.00e+00	0	29	0	2338324480	58	4139
2026-01-04 04:06:26.83	291.67	46.95	-46.5	-47.5	15.3	0.00e+00	0	29	0	2360344576	58	4229
2026-01-04 04:06:30.83	289.57	46.45	-45.9	-47.0	15.4	0.00e+00	0	29	0	2383413248	58	3963
2026-01-04 04:06:34.83	287.54	45.91	-46.0	-47.1	15.4	0.00e+00	0	29	0	2405433344	58	4018
2026-01-04 04:06:38.83	285.58	45.34	-45.9	-46.9	15.4	0.00e+00	0	29	0	2428502016	58	3953
2026-01-04 04:06:42.83	283.69	44.75	-45.5	-46.5	15.4	0.00e+00	0	29	0	2450522112	57	3976
2026-01-04 04:06:46.83	281.87	44.13	-45.8	-46.8	15.3	0.00e+00	0	29	0	2473590784	57	4126
2026-01-04 04:06:50.81	280.13	43.49	-45.7	-46.7	15.4	0.00e+00	0	29	0	2495610880	57	4069
2026-01-04 04:06:54.80	278.45	42.83	-45.5	-46.5	15.5	0.00e+00	0	29	0	2518679552	57	3976
2026-01-04 04:06:58.80	276.84	42.16	-45.8	-46.8	15.4	0.00e+00	0	29	0	2540699648	57	4115
2026-01-04 04:07:02.78	275.30	41.48	-45.9	-46.9	15.4	0.00e+00	0	29	0	2562719744	57	4182
2026-01-04 04:07:06.77	273.83	40.78	-45.7	-46.7	15.4	0.00e+00	0	29	0	2585788416	57	4088
2026-01-04 04:07:10.76	272.41	40.08	-45.9	-46.9	15.3	0.00e+00	0	29	0	2607808512	57	4193
2026-01-04 04:07:14.77	271.05	39.37	-45.9	-47.0	15.3	0.00e+00	0	29	0	2630877184	57	4204
2026-01-04 04:07:18.75	269.76	38.66	-45.7	-46.7	15.4	0.00e+00	0	29	0	2652897280	57	4087
2026-01-04 04:07:22.76	268.52	37.95	-45.5	-46.5	15.5	0.00e+00	0	29	0	2674917376	57	3972
2026-01-04 04:07:26.77	267.32	37.24	-45.4	-46.4	15.5	0.00e+00	0	29	0	2697986048	57	3956
2026-01-04 04:07:30.78	266.18	36.52	-45.3	-46.3	15.5	0.00e+00	0	29	0	2720006144	57	3888
2026-01-04 04:07:34.78	265.10	35.82	-45.4	-46.5	15.5	0.00e+00	0	29	0	2743074816	57	3969
2026-01-04 04:07:38.77	264.06	35.12	-45.3	-46.3	15.5	0.00e+00	0	29	0	2765094912	57	3910
2026-01-04 04:07:42.76	263.06	34.42	-45.3	-46.3	15.5	0.00e+00	0	29	0	2788163584	57	3892
2026-01-04 04:07:46.76	262.10	33.73	-45.3	-46.3	15.5	0.00e+00	0	29	0	2810183680	57	3893
2026-01-04 04:07:50.75	261.19	33.04	-45.7	-46.8	15.4	0.00e+00	0	29	0	2833252352	57	4102
2026-01-04 04:07:54.73	260.32	32.37	-45.6	-46.6	15.4	0.00e+00	0	29	0	2855272448	57	4022
2026-01-04 04:07:58.72	259.48	31.70	-45.9	-47.0	15.3	0.00e+00	0	29	0	2877292544	57	4211
2026-01-04 04:08:02.72	258.67	31.04	-45.9	-47.0	15.3	0.00e+00	0	29	0	2900361216	57	4201
2026-01-04 04:08:06.69	257.90	30.39	-46.1	-47.1	15.3	0.00e+00	0	29	0	2922381312	57	4273
2026-01-04 04:08:10.68	257.16	29.75	-45.9	-46.9	15.3	0.00e+00	0	29	0	2944401408	57	4181
2026-01-04 04:08:14.67	256.44	29.11	-45.9	-47.0	15.3	0.00e+00	0	29	0	2967470080	57	4204
2026-01-04 04:08:18.68	255.75	28.48	-45.9	-46.9	15.3	0.00e+00	0	29	0	2989490176	57	4167
2026-01-04 04:08:22.68	255.09	27.87	-46.1	-47.1	15.3	0.00e+00	0	29	0	3012558848	57	4268
2026-01-04 04:08:26.68	254.46	27.26	-46.1	-47.2	15.3	0.00e+00	0	29	0	3034578944	57	4296
2026-01-04 04:08:30.68	253.85	26.66	-46.2	-47.2	15.3	0.00e+00	0	29	0	3057647616	57	4321
2026-01-04 04:08:34.67	253.26	26.07	-46.0	-47.1	15.3	0.00e+00	0	29	0	3079667712	57	4249
2026-01-04 04:08:38.67	252.69	25.49	-45.9	-47.0	15.3	0.00e+00	0	29	0	3102736384	57	4199
2026-01-04 04:08:42.66	252.15	24.92	-46.0	-47.0	15.3	0.00e+00	0	29	0	3124756480	57	4220
2026-01-04 04:08:46.66	251.62	24.36	-45.9	-47.0	15.3	0.00e+00	0	29	0	3147825152	57	4208
2026-01-04 04:08:50.66	251.11	23.81	-46.0	-47.1	15.3	0.00e+00	0	29	0	3169845248	57	4253
2026-01-04 04:08:54.66	250.62	23.27	-46.0	-47.1	15.3	0.00e+00	0	29	0	3191865344	57	4261
2026-01-04 04:08:58.65	250.15	22.74	-46.1	-47.2	15.3	0.00e+00	0	29	0	3214934016	57	4306
2026-01-04 04:09:02.64	249.69	22.21	-46.3	-47.4	15.2	0.00e+00	0	29	0	3236954112	57	4405
2026-01-04 04:09:06.63	249.25	21.70	-46.4	-47.4	15.2	0.00e+00	0	29	0	3260022784	57	4438
2026-01-04 04:09:10.62	248.83	21.19	-46.3	-47.4	15.3	0.00e+00	0	29	0	3282042880	58	4170
2026-01-04 04:09:14.62	248.41	20.69	-46.3	-47.4	15.3	0.00e+00	0	29	0	3304062976	58	4149
2026-01-04 04:09:18.61	248.01	20.20	-46.5	-47.6	15.2	0.00e+00	0	29	0	3327131648	58	4256
2026-01-04 04:09:22.61	247.63	19.72	-46.7	-47.8	15.2	0.00e+00	0	29	0	3349151744	58	4349
2026-01-04 04:09:26.60	247.25	19.25	-46.9	-48.1	15.2	0.00e+00	0	29	0	3372220416	59	4243
2026-01-04 04:09:30.61	246.89	18.78	-47.2	-48.4	15.1	0.00e+00	0	29	0	3394240512	59	4400
2026-01-04 04:09:34.61	246.54	18.32	-47.3	-48.5	15.1	0.00e+00	0	29	0	3417309184	59	4445
2026-01-04 04:09:38.61	246.20	17.87	-47.0	-48.1	15.3	0.00e+00	0	29	0	3439329280	60	4028
2026-01-04 04:09:42.60	245.87	17.42	-46.9	-48.0	15.3	0.00e+00	0	29	0	3462397952	60	3960
2026-01-04 04:09:46.61	245.55	16.98	-47.0	-48.0	15.3	0.00e+00	0	29	0	3484418048	60	3993
2026-01-04 04:09:50.62	245.23	16.55	-47.2	-48.3	15.2	0.00e+00	0	29	0	3507486720	60	4099
2026-01-04 04:09:54.63	244.93	16.12	-47.3	-48.4	15.1	0.00e+00	0	29	0	3529506816	60	4147
2026-01-04 04:09:58.62	244.64	15.70	-47.3	-48.4	15.1	0.00e+00	0	29	0	3552575488	60	4188
2026-01-04 04:10:02.62	244.35	15.29	-47.3	-48.4	15.1	0.00e+00	0	29	0	3574595584	60	4177
2026-01-04 04:10:06.60	244.08	14.89	-47.6	-48.7	15.1	0.00e+00	0	29	0	3596615680	60	4316
2026-01-04 04:10:10.59	243.81	14.49	-47.9	-49.1	14.9	0.00e+00	0	29	0	3619684352	60	4511
2026-01-04 04:10:14.57	243.55	14.10	-48.1	-49.3	14.9	0.00e+00	0	29	0	3641704448	61	4375
2026-01-04 04:10:18.57	243.29	13.71	-48.2	-49.4	15.0	0.00e+00	0	29	0	3664773120	61	4414
2026-01-04 04:10:22.56	243.05	13.32	-48.1	-49.3	14.9	0.00e+00	0	29	0	3686793216	61	4351
2026-01-04 04:10:26.56	242.81	12.95	-48.1	-49.2	15.0	0.00e+00	0	29	0	3708813312	61	4327
2026-01-04 04:10:30.55	242.57	12.58	-48.0	-49.1	15.0	0.00e+00	0	29	0	3731881984	61	4274
2026-01-04 04:10:34.54	242.34	12.21	-48.0	-49.1	15.0	0.00e+00	0	29	0	3753902080	61	4277
2026-01-04 04:10:38.55	242.12	11.85	-48.1	-49.3	14.9	0.00e+00	0	29	0	3776970752	61	4370
2026-01-04 04:10:42.55	241.90	11.49	-48.2	-49.3	14.9	0.00e+00	0	29	0	3798990848	61	4383
2026-01-04 04:10:46.54	241.69	11.14	-48.3	-49.5	14.9	0.00e+00	0	29	0	3821010944	61	4483
2026-01-04 04:10:50.54	241.49	10.79	-48.5	-49.7	14.9	0.00e+00	0	29	0	3844079616	62	4319
2026-01-04 04:10:54.52	241.28	10.45	-48.6	-49.8	14.8	0.00e+00	0	29	0	3866099712	62	4390
2026-01-04 04:10:58.51	241.09	10.11	-48.7	-49.9	14.8	0.00e+00	0	29	0	3889168384	62	4437
2026-01-04 04:11:02.51	240.90	9.77	-48.8	-50.0	14.8	0.00e+00	0	29	0	3911188480	62	4490
2026-01-04 04:11:06.51	240.71	9.44	-48.9	-50.2	14.7	0.00e+00	0	29	0	3934257152	62	4558
2026-01-04 04:11:10.51	240.53	9.11	-48.9	-50.1	14.7	0.00e+00	0	29	0	3956277248	62	4542
2026-01-04 04:11:14.51	240.35	8.79	-49.0	-50.2	14.7	0.00e+00	0	29	0	3979345920	63	4329
2026-01-04 04:11:18.48	240.18	8.47	-49.0	-50.3	14.7	0.00e+00	0	29	0	4001366016	63	4368
2026-01-04 04:11:22.48	240.01	8.16	-49.1	-50.4	14.7	0.00e+00	0	29	0	4023386112	63	4432
2026-01-04 04:11:26.47	239.84	7.85	-49.2	-50.5	14.7	0.00e+00	0	29	0	4046454784	63	4453
2026-01-04 04:11:30.46	239.68	7.54	-49.3	-50.7	14.6	0.00e+00	0	29	0	4068474880	63	4559
2026-01-04 04:11:34.47	239.52	7.23	-49.4	-50.7	14.6	0.00e+00	0	29	0	4091543552	64	4303
2026-01-04 04:11:38.47	239.36	6.93	-49.4	-50.7	14.6	0.00e+00	0	29	0	4113563648	64	4311
2026-01-04 04:11:42.48	239.21	6.63	-49.4	-50.8	14.5	0.00e+00	0	29	0	4136632320	64	4351
2026-01-04 04:11:46.49	239.06	6.34	-49.6	-51.0	14.5	0.00e+00	0	29	0	4158652416	64	4444
2026-01-04 04:11:50.48	238.92	6.05	-49.6	-51.0	14.5	0.00e+00	0	29	0	4181721088	64	4489
2026-01-04 04:11:54.48	238.78	5.76	-49.8	-51.2	14.4	0.00e+00	0	29	0	4203741184	64	4547
2026-01-04 04:11:58.47	238.64	5.47	-50.0	-51.4	14.3	0.00e+00	0	29	0	4225761280	65	4430
2026-01-04 04:12:02.49	238.50	5.19	-50.0	-51.4	14.3	0.00e+00	0	29	0	4248829952	65	4433
2026-01-04 04:12:06.48	238.37	4.91	-59.7	-72.7	3.8	8.46e-01	0	29	104	4266655744	84	17170
2026-01-04 04:12:10.48	238.24	4.63	-60.6	-73.7	3.8	8.45e-01	0	29	104	4266655744	86	17111
2026-01-04 04:12:14.46	238.11	4.36	-60.9	-74.1	3.8	8.46e-01	0	29	104	4266655744	87	16916
2026-01-04 04:12:18.46	237.98	4.09	-61.1	-74.3	3.8	8.45e-01	0	29	104	4266655744	87	17291
2026-01-04 04:12:22.45	237.86	3.82	-61.2	-74.3	3.8	8.46e-01	0	29	104	4266655744	87	17445
2026-01-04 04:12:26.44	237.74	3.55	-61.3	-74.4	3.8	8.45e-01	0	29	104	4266655744	87	17672
2026-01-04 04:12:30.43	237.62	3.29	-61.2	-74.4	3.8	8.45e-01	0	29	104	4266655744	87	17482
2026-01-04 04:12:34.44	237.51	3.03	-61.2	-74.3	3.8	8.45e-01	0	29	104	4266655744	87	17348
2026-01-04 04:12:38.42	237.39	2.77	-61.1	-74.2	3.8	8.45e-01	0	29	104	4266655744	87	17273
2026-01-04 04:12:42.41	237.28	2.51	-61.1	-74.2	3.8	8.46e-01	0	29	104	4266655744	87	17195
2026-01-04 04:12:46.40	237.17	2.25	-61.1	-74.2	3.8	8.46e-01	0	29	104	4266655744	87	17109
2026-01-04 04:12:50.40	237.07	2.00	-61.0	-74.1	3.8	8.46e-01	0	29	104	4266655744	87	17016

#Closed at: 2026-01-04 04:12:52
#Recorded file [4266 MB]: D:/lorett/data/31004_260104_065847.dat