passes_logs/2026/01/04/R3.2S_Murmansk/R3.2S_Murmansk__20260104_121553_FENGYUN_3D_rec.log

#Pass ID: 20260104_121553_FENGYUN 3D
#Satellite: FENGYUN 3D
#Configuration: FENGYUN 3D
#almurnet v.1.7.20251203
#Start time: 2026-01-04 12:15:53

#Version: 2.2.20231116
#Station: R3.2S_Murmansk
#Location: 33.079688 lon 68.888172 lat
#TLE: 1 43010U 17072A   26003.93866112 -.00000029  00000+0  82070-5 0  9995
#TLE: 2 43010  98.9913 335.5841 0001959 128.6134 231.5217 14.19691935421687

#Time	Az	El	Level	Level2	SNR	BER	BlckErr	Temp	State	Recorded	gain1	gain2
2026-01-04 12:15:53.83	169.14	2.03	-59.2	-72.1	3.8	8.46e-01	0	28	0	0	84	15946
2026-01-04 12:15:57.82	169.23	2.29	-59.0	-71.7	3.8	8.45e-01	0	29	104	0	83	16250
2026-01-04 12:16:01.81	169.33	2.54	-59.0	-71.5	3.8	8.45e-01	0	29	104	0	83	15838
2026-01-04 12:16:05.80	169.42	2.80	-59.0	-72.0	3.8	8.47e-01	0	29	104	0	83	16706
2026-01-04 12:16:09.79	169.52	3.06	-59.0	-71.8	3.8	8.46e-01	0	29	104	0	83	16471
2026-01-04 12:16:13.78	169.62	3.33	-59.0	-71.9	3.8	8.46e-01	0	29	104	0	83	16572
2026-01-04 12:16:17.75	169.72	3.59	-59.0	-71.3	3.8	8.44e-01	0	29	104	0	83	15451
2026-01-04 12:16:21.74	169.83	3.86	-58.5	-66.9	4.7	8.12e-01	0	29	0	0	83	9363
2026-01-04 12:16:25.72	169.93	4.13	-57.9	-64.3	6.3	2.62e-01	0	30	0	11534336	82	7302
2026-01-04 12:16:29.71	170.04	4.40	-57.5	-63.1	7.2	1.15e-01	0	30	0	33554432	81	6752
2026-01-04 12:16:33.70	170.15	4.68	-57.2	-62.2	7.9	6.00e-02	0	30	0	56623104	81	6110
2026-01-04 12:16:37.68	170.26	4.96	-57.0	-61.7	8.4	2.81e-02	0	30	0	78643200	80	6077
2026-01-04 12:16:41.67	170.37	5.24	-54.2	-56.6	6.6	8.10e-01	0	30	104	94371840	75	4527
2026-01-04 12:16:45.67	170.48	5.53	-51.3	-53.0	14.2	0.00e+00	0	30	0	115343360	69	4223
2026-01-04 12:16:49.66	170.60	5.81	-50.8	-52.4	14.4	0.00e+00	0	30	0	137363456	68	4173
2026-01-04 12:16:53.66	170.72	6.11	-49.8	-51.3	14.7	0.00e+00	0	30	0	159383552	66	4115
2026-01-04 12:16:57.66	170.84	6.40	-49.9	-51.4	14.7	0.00e+00	0	30	0	182452224	66	4172
2026-01-04 12:17:01.64	170.96	6.70	-49.7	-51.1	14.8	0.00e+00	0	30	0	204472320	65	4274
2026-01-04 12:17:05.63	171.09	7.00	-49.5	-50.9	14.9	0.00e+00	0	30	0	227540992	65	4189
2026-01-04 12:17:09.62	171.21	7.30	-49.6	-51.0	14.9	0.00e+00	0	30	0	249561088	65	4230
2026-01-04 12:17:13.62	171.34	7.61	-49.2	-50.7	15.0	0.00e+00	0	30	0	272629760	65	4056
2026-01-04 12:17:17.61	171.48	7.93	-49.3	-50.7	15.0	0.00e+00	0	30	0	294649856	65	4078
2026-01-04 12:17:21.61	171.61	8.24	-49.2	-50.6	15.1	0.00e+00	0	31	0	316669952	65	4009
2026-01-04 12:17:25.61	171.75	8.56	-49.1	-50.5	15.0	0.00e+00	0	31	0	339738624	64	4210
2026-01-04 12:17:29.62	171.89	8.89	-49.2	-50.6	15.0	0.00e+00	0	31	0	361758720	64	4243
2026-01-04 12:17:33.64	172.03	9.22	-49.2	-50.6	15.0	0.00e+00	0	31	0	384827392	64	4245
2026-01-04 12:17:37.66	172.18	9.55	-49.2	-50.6	15.0	0.00e+00	0	31	0	407896064	64	4285
2026-01-04 12:17:41.68	172.33	9.89	-49.1	-50.5	15.1	0.00e+00	0	31	0	429916160	64	4228
2026-01-04 12:17:45.69	172.48	10.23	-49.2	-50.6	15.1	0.00e+00	0	31	0	452984832	64	4253
2026-01-04 12:17:49.69	172.64	10.58	-49.1	-50.4	15.1	0.00e+00	0	31	0	475004928	64	4193
2026-01-04 12:17:53.70	172.80	10.93	-49.0	-50.4	15.1	0.00e+00	0	31	0	498073600	64	4175
2026-01-04 12:17:57.69	172.96	11.29	-48.9	-50.2	15.2	0.00e+00	0	31	0	520093696	64	4095
2026-01-04 12:18:01.69	173.13	11.65	-48.8	-50.2	15.3	0.00e+00	0	31	0	543162368	64	4053
2026-01-04 12:18:05.70	173.30	12.02	-48.7	-50.0	15.2	0.00e+00	0	31	0	565182464	63	4242
2026-01-04 12:18:09.71	173.47	12.39	-48.7	-50.1	15.2	0.00e+00	0	31	0	587202560	63	4260
2026-01-04 12:18:13.72	173.65	12.77	-48.7	-50.0	15.2	0.00e+00	0	31	0	610271232	63	4233
2026-01-04 12:18:17.71	173.83	13.15	-48.7	-50.1	15.2	0.00e+00	0	31	0	632291328	63	4251
2026-01-04 12:18:21.71	174.02	13.54	-48.5	-49.8	15.3	0.00e+00	0	31	0	655360000	63	4126
2026-01-04 12:18:25.70	174.21	13.93	-48.4	-49.7	15.4	0.00e+00	0	31	0	677380096	63	4079
2026-01-04 12:18:29.70	174.41	14.33	-48.3	-49.6	15.5	0.00e+00	0	31	0	700448768	63	4015
2026-01-04 12:18:33.69	174.61	14.74	-48.1	-49.3	15.4	0.00e+00	0	31	0	722468864	62	4134
2026-01-04 12:18:37.68	174.81	15.16	-47.9	-49.1	15.5	0.00e+00	0	31	0	745537536	62	4032
2026-01-04 12:18:41.67	175.02	15.58	-47.7	-48.9	15.5	0.00e+00	0	31	0	767557632	61	4175
2026-01-04 12:18:45.68	175.24	16.00	-47.5	-48.7	15.6	0.00e+00	0	31	0	790626304	61	4094
2026-01-04 12:18:49.68	175.47	16.44	-47.5	-48.7	15.6	0.00e+00	0	31	0	812646400	61	4082
2026-01-04 12:18:53.66	175.69	16.88	-47.3	-48.5	15.6	0.00e+00	0	31	0	834666496	61	3977
2026-01-04 12:18:57.66	175.93	17.33	-47.2	-48.4	15.7	0.00e+00	0	31	0	857735168	61	3944
2026-01-04 12:19:01.64	176.17	17.79	-47.1	-48.3	15.6	0.00e+00	0	31	0	879755264	60	4133
2026-01-04 12:19:05.63	176.42	18.26	-47.0	-48.2	15.6	0.00e+00	0	31	0	902823936	60	4067
2026-01-04 12:19:09.63	176.68	18.73	-46.8	-48.0	15.8	0.00e+00	0	31	0	924844032	60	3978
2026-01-04 12:19:13.62	176.94	19.21	-46.8	-48.1	15.7	0.00e+00	0	31	0	946864128	60	4007
2026-01-04 12:19:17.61	177.21	19.71	-47.0	-48.2	15.6	0.00e+00	0	31	0	969932800	59	4324
2026-01-04 12:19:21.61	177.49	20.21	-46.9	-48.2	15.6	0.00e+00	0	31	0	991952896	59	4293
2026-01-04 12:19:25.60	177.78	20.72	-46.9	-48.1	15.7	0.00e+00	0	31	0	1015021568	59	4269
2026-01-04 12:19:29.59	178.08	21.24	-46.8	-48.0	15.7	0.00e+00	0	31	0	1037041664	59	4234
2026-01-04 12:19:33.57	178.39	21.77	-46.7	-47.9	15.7	0.00e+00	0	31	0	1059061760	59	4180
2026-01-04 12:19:37.58	178.71	22.32	-46.5	-47.8	15.8	0.00e+00	0	31	0	1082130432	59	4101
2026-01-04 12:19:41.58	179.04	22.87	-46.5	-47.7	15.8	0.00e+00	0	31	0	1104150528	59	4071
2026-01-04 12:19:45.57	179.38	23.44	-46.5	-47.7	15.8	0.00e+00	0	31	0	1127219200	59	4098
2026-01-04 12:19:49.58	179.74	24.01	-46.5	-47.7	15.8	0.00e+00	0	31	0	1149239296	59	4085
2026-01-04 12:19:53.57	180.10	24.60	-46.3	-47.5	15.9	0.00e+00	0	31	0	1172307968	59	3980
2026-01-04 12:19:57.58	180.49	25.21	-46.4	-47.6	15.9	0.00e+00	0	31	0	1194328064	59	4031
2026-01-04 12:20:01.58	180.88	25.82	-46.2	-47.4	15.9	0.00e+00	0	31	0	1217396736	59	3925
2026-01-04 12:20:05.58	181.29	26.45	-45.9	-47.0	15.9	0.00e+00	0	31	0	1239416832	58	3986
2026-01-04 12:20:09.59	181.72	27.09	-45.9	-47.1	15.9	0.00e+00	0	31	0	1262485504	58	4030
2026-01-04 12:20:13.60	182.16	27.74	-46.1	-47.3	15.9	0.00e+00	0	31	0	1284505600	58	4106
2026-01-04 12:20:17.60	182.62	28.41	-46.2	-47.4	15.9	0.00e+00	0	31	0	1307574272	58	4148
2026-01-04 12:20:21.59	183.10	29.09	-46.1	-47.3	15.9	0.00e+00	0	31	0	1329594368	58	4107
2026-01-04 12:20:25.58	183.60	29.79	-45.9	-47.1	15.9	0.00e+00	0	31	0	1351614464	58	4039
2026-01-04 12:20:29.59	184.12	30.50	-46.0	-47.1	16.0	0.00e+00	0	31	0	1374683136	58	4049
2026-01-04 12:20:33.59	184.67	31.23	-46.2	-47.2	16.0	0.00e+00	0	31	0	1396703232	58	4077
2026-01-04 12:20:37.58	185.23	31.97	-46.1	-47.1	16.0	0.00e+00	0	31	0	1419771904	58	4039
2026-01-04 12:20:41.56	185.83	32.73	-46.2	-47.2	16.0	0.00e+00	0	31	0	1441792000	58	4086
2026-01-04 12:20:45.56	186.45	33.51	-45.8	-46.9	16.1	0.00e+00	0	31	0	1464860672	58	3919
2026-01-04 12:20:49.56	187.10	34.30	-45.8	-46.8	16.1	0.00e+00	0	31	0	1486880768	58	3913
2026-01-04 12:20:53.55	187.78	35.10	-45.8	-46.9	16.0	0.00e+00	0	31	0	1508900864	57	4159
2026-01-04 12:20:57.54	188.50	35.93	-45.7	-46.8	16.0	0.00e+00	0	31	0	1531969536	57	4110
2026-01-04 12:21:01.51	189.25	36.76	-45.5	-46.6	16.0	0.00e+00	0	31	0	1553989632	57	4015
2026-01-04 12:21:05.50	190.04	37.62	-45.5	-46.5	16.1	0.00e+00	0	31	0	1577058304	57	3979
2026-01-04 12:21:09.49	190.88	38.49	-45.6	-46.6	16.0	0.00e+00	0	31	0	1599078400	57	4051
2026-01-04 12:21:13.47	191.75	39.37	-45.9	-46.9	16.0	0.00e+00	0	31	0	1621098496	57	4161
2026-01-04 12:21:17.48	192.69	40.28	-45.7	-46.7	16.0	0.00e+00	0	31	0	1644167168	57	4088
2026-01-04 12:21:21.47	193.67	41.20	-46.0	-47.1	16.0	0.00e+00	0	31	0	1666187264	57	4253
2026-01-04 12:21:25.47	194.71	42.13	-46.0	-47.0	16.0	0.00e+00	0	31	0	1689255936	57	4236
2026-01-04 12:21:29.44	195.80	43.07	-46.1	-47.1	15.9	0.00e+00	0	31	0	1711276032	57	4287
2026-01-04 12:21:33.44	196.97	44.03	-46.3	-47.4	15.9	0.00e+00	0	31	0	1733296128	57	4416
2026-01-04 12:21:37.41	198.20	44.99	-46.0	-47.1	15.9	0.00e+00	0	31	0	1756364800	57	4245
2026-01-04 12:21:41.40	199.51	45.97	-46.1	-47.1	16.0	0.00e+00	0	31	0	1778384896	57	4283
2026-01-04 12:21:45.41	200.91	46.95	-45.9	-46.9	16.0	0.00e+00	0	31	0	1801453568	57	4178
2026-01-04 12:21:49.41	202.40	47.94	-46.2	-47.3	15.9	0.00e+00	0	31	0	1823473664	57	4350
2026-01-04 12:21:53.39	203.98	48.92	-46.5	-47.6	15.9	0.00e+00	0	31	0	1845493760	58	4244
2026-01-04 12:21:57.40	205.67	49.91	-46.7	-47.8	15.9	0.00e+00	0	31	0	1868562432	58	4345
2026-01-04 12:22:01.39	207.46	50.89	-46.8	-47.8	15.9	0.00e+00	0	31	0	1890582528	58	4391
2026-01-04 12:22:05.39	209.38	51.86	-46.6	-47.7	15.9	0.00e+00	0	31	0	1913651200	58	4315
2026-01-04 12:22:09.39	211.43	52.81	-46.9	-47.9	15.9	0.00e+00	0	31	0	1935671296	59	4189
2026-01-04 12:22:13.39	213.61	53.75	-46.9	-48.0	15.9	0.00e+00	0	31	0	1958739968	59	4194
2026-01-04 12:22:17.40	215.94	54.65	-47.1	-48.2	15.8	0.00e+00	0	31	0	1980760064	59	4296
2026-01-04 12:22:21.37	218.39	55.52	-46.8	-47.8	16.0	0.00e+00	0	31	0	2003828736	59	4134
2026-01-04 12:22:25.37	221.01	56.35	-46.9	-47.9	16.0	0.00e+00	0	31	0	2025848832	60	3948
2026-01-04 12:22:29.38	223.79	57.13	-46.9	-48.0	15.9	0.00e+00	0	31	0	2048917504	59	4220
2026-01-04 12:22:33.36	226.71	57.85	-46.7	-47.7	15.9	0.00e+00	0	31	0	2070937600	59	4087
2026-01-04 12:22:37.36	229.80	58.51	-46.7	-47.8	16.0	0.00e+00	0	31	0	2092957696	59	4116
2026-01-04 12:22:41.37	233.04	59.10	-46.3	-47.4	16.1	0.00e+00	0	31	0	2116026368	59	3930
2026-01-04 12:22:45.37	236.41	59.60	-46.6	-47.7	16.0	0.00e+00	0	31	0	2138046464	59	4062
2026-01-04 12:22:49.37	239.90	60.02	-46.2	-47.2	16.2	0.00e+00	0	31	0	2161115136	59	3858
2026-01-04 12:22:53.37	243.49	60.34	-46.1	-47.1	16.1	0.00e+00	0	31	0	2183135232	58	4027
2026-01-04 12:22:57.39	247.18	60.56	-46.5	-47.5	16.0	0.00e+00	0	31	0	2206203904	58	4226
2026-01-04 12:23:01.37	250.88	60.68	-46.4	-47.4	16.0	0.00e+00	0	31	0	2228224000	58	4187
2026-01-04 12:23:05.35	254.59	60.69	-46.3	-47.3	16.0	0.00e+00	0	31	0	2250244096	58	4135
2026-01-04 12:23:09.36	258.32	60.59	-46.2	-47.2	16.0	0.00e+00	0	31	0	2273312768	58	4097
2026-01-04 12:23:13.34	261.98	60.40	-46.3	-47.3	16.0	0.00e+00	0	31	0	2295332864	58	4144
2026-01-04 12:23:17.34	265.59	60.10	-46.3	-47.4	16.0	0.00e+00	0	31	0	2318401536	58	4151
2026-01-04 12:23:21.34	269.10	59.70	-46.4	-47.5	16.0	0.00e+00	0	31	0	2340421632	58	4195
2026-01-04 12:23:25.33	272.49	59.22	-46.8	-47.9	15.9	0.00e+00	0	31	0	2363490304	59	4155
2026-01-04 12:23:29.31	275.74	58.65	-46.7	-47.7	16.0	0.00e+00	0	31	0	2385510400	59	4089
2026-01-04 12:23:33.29	278.84	58.01	-46.9	-47.9	15.9	0.00e+00	0	31	0	2407530496	59	4170
2026-01-04 12:23:37.27	281.79	57.31	-46.8	-47.8	16.0	0.00e+00	0	31	0	2430599168	59	4137
2026-01-04 12:23:41.25	284.59	56.54	-47.1	-48.2	16.0	0.00e+00	0	31	0	2452619264	60	4056
2026-01-04 12:23:45.27	287.25	55.72	-46.9	-47.9	16.1	0.00e+00	0	31	0	2475687936	60	3958
2026-01-04 12:23:49.27	289.76	54.86	-47.0	-48.0	16.0	0.00e+00	0	31	0	2497708032	60	3986
2026-01-04 12:23:53.26	292.10	53.97	-47.0	-48.1	16.0	0.00e+00	0	31	0	2519728128	60	4009
2026-01-04 12:23:57.26	294.31	53.04	-47.0	-48.1	16.0	0.00e+00	0	31	0	2542796800	60	4013
2026-01-04 12:24:01.26	296.39	52.10	-46.9	-48.0	16.0	0.00e+00	0	31	0	2564816896	60	3983
2026-01-04 12:24:05.27	298.34	51.13	-46.8	-47.9	16.0	0.00e+00	0	31	0	2587885568	59	4148
2026-01-04 12:24:09.27	300.16	50.16	-46.9	-48.0	16.0	0.00e+00	0	31	0	2609905664	59	4203
2026-01-04 12:24:13.26	301.87	49.18	-46.5	-47.5	16.1	0.00e+00	0	31	0	2632974336	59	3972
2026-01-04 12:24:17.27	303.48	48.19	-46.7	-47.7	16.0	0.00e+00	0	31	0	2654994432	59	4088
2026-01-04 12:24:21.25	304.98	47.21	-46.3	-47.3	16.2	0.00e+00	0	31	0	2678063104	59	3887
2026-01-04 12:24:25.25	306.39	46.23	-46.5	-47.6	16.1	0.00e+00	0	31	0	2700083200	59	4016
2026-01-04 12:24:29.23	307.72	45.26	-46.4	-47.5	16.1	0.00e+00	0	31	0	2723151872	59	3971
2026-01-04 12:24:33.22	308.97	44.29	-46.3	-47.3	16.2	0.00e+00	0	31	0	2745171968	59	3877
2026-01-04 12:24:37.22	310.16	43.33	-46.3	-47.3	16.1	0.00e+00	0	31	0	2767192064	59	3911
2026-01-04 12:24:41.20	311.27	42.39	-46.1	-47.1	16.1	0.00e+00	0	31	0	2790260736	58	4012
2026-01-04 12:24:45.20	312.32	41.46	-46.3	-47.4	16.0	0.00e+00	0	31	0	2812280832	58	4151
2026-01-04 12:24:49.19	313.31	40.54	-46.1	-47.1	16.1	0.00e+00	0	31	0	2835349504	58	4040
2026-01-04 12:24:53.18	314.25	39.64	-45.8	-46.8	16.2	0.00e+00	0	31	0	2857369600	58	3913
2026-01-04 12:24:57.18	315.14	38.75	-45.9	-46.9	16.1	0.00e+00	0	31	0	2879389696	58	3956
2026-01-04 12:25:01.17	315.99	37.87	-45.7	-46.7	16.2	0.00e+00	0	31	0	2902458368	58	3856
2026-01-04 12:25:05.16	316.79	37.02	-45.6	-46.6	16.1	0.00e+00	0	31	0	2924478464	57	4049
2026-01-04 12:25:09.16	317.55	36.17	-46.0	-47.0	16.0	0.00e+00	0	31	0	2947547136	57	4213
2026-01-04 12:25:13.16	318.28	35.35	-46.0	-47.0	16.0	0.00e+00	0	31	0	2969567232	57	4234
2026-01-04 12:25:17.17	318.97	34.54	-46.0	-47.0	16.0	0.00e+00	0	31	0	2991587328	57	4231
2026-01-04 12:25:21.17	319.63	33.74	-46.0	-47.1	16.0	0.00e+00	0	31	0	3014656000	57	4244
2026-01-04 12:25:25.17	320.26	32.97	-45.6	-46.6	16.1	0.00e+00	0	31	0	3036676096	57	4051
2026-01-04 12:25:29.16	320.86	32.21	-45.7	-46.7	16.1	0.00e+00	0	31	0	3059744768	57	4079
2026-01-04 12:25:33.15	321.44	31.47	-46.0	-47.0	16.0	0.00e+00	0	31	0	3081764864	57	4211
2026-01-04 12:25:37.14	321.99	30.74	-46.0	-47.1	16.0	0.00e+00	0	31	0	3104833536	57	4256
2026-01-04 12:25:41.12	322.51	30.03	-46.0	-47.1	16.0	0.00e+00	0	31	0	3126853632	57	4253
2026-01-04 12:25:45.13	323.02	29.33	-46.0	-47.0	16.0	0.00e+00	0	31	0	3149922304	57	4222
2026-01-04 12:25:49.12	323.50	28.65	-46.0	-47.0	16.0	0.00e+00	0	31	0	3171942400	57	4208
2026-01-04 12:25:53.10	323.96	27.98	-46.0	-47.0	16.0	0.00e+00	0	31	0	3193962496	57	4205
2026-01-04 12:25:57.11	324.41	27.32	-46.1	-47.1	16.0	0.00e+00	0	31	0	3217031168	57	4291
2026-01-04 12:26:01.10	324.84	26.68	-46.1	-47.2	15.9	0.00e+00	0	31	0	3239051264	57	4308
2026-01-04 12:26:05.10	325.26	26.06	-46.2	-47.2	15.9	0.00e+00	0	31	0	3262119936	57	4329
2026-01-04 12:26:09.10	325.65	25.44	-46.3	-47.4	15.9	0.00e+00	0	31	0	3284140032	57	4396
2026-01-04 12:26:13.08	326.04	24.84	-46.5	-47.5	16.0	0.00e+00	0	31	0	3307208704	58	4240
2026-01-04 12:26:17.09	326.41	24.25	-46.6	-47.7	15.9	0.00e+00	0	31	0	3329228800	58	4304
2026-01-04 12:26:21.08	326.77	23.67	-46.6	-47.7	15.9	0.00e+00	0	31	0	3352297472	58	4327
2026-01-04 12:26:25.07	327.11	23.11	-46.6	-47.7	15.9	0.00e+00	0	31	0	3374317568	58	4299
2026-01-04 12:26:29.06	327.45	22.55	-46.8	-47.9	15.9	0.00e+00	0	31	0	3396337664	58	4427
2026-01-04 12:26:33.06	327.77	22.01	-47.0	-48.1	15.9	0.00e+00	0	31	0	3419406336	59	4260
2026-01-04 12:26:37.05	328.08	21.48	-47.1	-48.2	15.9	0.00e+00	0	31	0	3441426432	59	4333
2026-01-04 12:26:41.04	328.38	20.95	-47.2	-48.3	15.9	0.00e+00	0	31	0	3464495104	59	4347
2026-01-04 12:26:45.03	328.68	20.44	-47.2	-48.3	15.9	0.00e+00	0	31	0	3486515200	59	4380
2026-01-04 12:26:49.02	328.96	19.94	-47.3	-48.4	15.8	0.00e+00	0	31	0	3508535296	59	4437
2026-01-04 12:26:53.01	329.24	19.45	-47.2	-48.2	15.9	0.00e+00	0	31	0	3531603968	60	4097
2026-01-04 12:26:57.00	329.51	18.96	-47.3	-48.4	15.9	0.00e+00	0	31	0	3553624064	60	4165
2026-01-04 12:27:01.00	329.77	18.48	-47.5	-48.6	15.8	0.00e+00	0	31	0	3576692736	60	4260
2026-01-04 12:27:04.99	330.02	18.02	-47.6	-48.7	15.8	0.00e+00	0	31	0	3598712832	60	4309
2026-01-04 12:27:08.98	330.26	17.56	-47.7	-48.9	15.7	0.00e+00	0	31	0	3620732928	60	4407
2026-01-04 12:27:12.97	330.50	17.11	-47.7	-48.9	15.7	0.00e+00	0	31	0	3643801600	60	4397
2026-01-04 12:27:16.96	330.74	16.67	-47.9	-49.0	15.7	0.00e+00	0	31	0	3665821696	60	4483
2026-01-04 12:27:20.95	330.96	16.23	-47.8	-48.9	15.8	0.00e+00	0	31	0	3688890368	61	4175
2026-01-04 12:27:24.94	331.18	15.80	-47.8	-48.9	15.8	0.00e+00	0	31	0	3710910464	61	4169
2026-01-04 12:27:28.94	331.40	15.38	-47.9	-49.1	15.7	0.00e+00	0	31	0	3732930560	61	4252
2026-01-04 12:27:32.93	331.61	14.97	-48.1	-49.2	15.7	0.00e+00	0	31	0	3755999232	61	4312
2026-01-04 12:27:36.90	331.81	14.56	-48.2	-49.3	15.6	0.00e+00	0	31	0	3778019328	61	4391
2026-01-04 12:27:40.88	332.01	14.16	-48.3	-49.4	15.6	0.00e+00	0	31	0	3801088000	61	4435
2026-01-04 12:27:44.86	332.20	13.77	-48.5	-49.7	15.6	0.00e+00	0	31	0	3823108096	62	4304
2026-01-04 12:27:48.85	332.39	13.38	-48.5	-49.7	15.5	0.00e+00	0	31	0	3845128192	62	4334
2026-01-04 12:27:52.85	332.58	12.99	-48.6	-49.9	15.5	0.00e+00	0	31	0	3868196864	62	4395
2026-01-04 12:27:56.86	332.76	12.62	-48.7	-49.9	15.5	0.00e+00	0	31	0	3890216960	62	4430
2026-01-04 12:28:00.86	332.94	12.24	-48.8	-50.0	15.4	0.00e+00	0	31	0	3913285632	62	4493
2026-01-04 12:28:04.84	333.11	11.88	-48.9	-50.1	15.4	2.05e-05	0	31	0	3935305728	62	4517
2026-01-04 12:28:08.84	333.28	11.52	-49.0	-50.2	15.4	0.00e+00	0	31	0	3958374400	63	4320
2026-01-04 12:28:12.83	333.44	11.16	-48.9	-50.2	15.5	4.50e-06	0	31	0	3980394496	63	4294
2026-01-04 12:28:16.83	333.61	10.81	-49.0	-50.3	15.4	0.00e+00	0	31	0	4002414592	63	4352
2026-01-04 12:28:20.82	333.77	10.46	-49.1	-50.4	15.4	0.00e+00	0	31	0	4025483264	63	4397
2026-01-04 12:28:24.83	333.92	10.12	-49.2	-50.4	15.4	0.00e+00	0	31	0	4047503360	63	4440
2026-01-04 12:28:28.83	334.07	9.78	-49.3	-50.6	15.3	0.00e+00	0	31	0	4070572032	63	4509
2026-01-04 12:28:32.82	334.22	9.45	-49.3	-50.6	15.3	0.00e+00	0	31	0	4092592128	63	4499
2026-01-04 12:28:36.82	334.37	9.12	-49.4	-50.7	15.3	0.00e+00	0	31	0	4114612224	64	4315
2026-01-04 12:28:40.79	334.51	8.80	-49.5	-50.8	15.3	0.00e+00	0	31	0	4137680896	64	4378
2026-01-04 12:28:44.77	334.65	8.48	-49.5	-50.8	15.3	0.00e+00	0	31	0	4159700992	64	4345
2026-01-04 12:28:48.77	334.79	8.16	-49.5	-50.8	15.2	0.00e+00	0	31	0	4182769664	64	4386
2026-01-04 12:28:52.78	334.93	7.85	-49.6	-50.9	15.2	5.70e-06	0	31	0	4204789760	64	4401
2026-01-04 12:28:56.77	335.06	7.54	-49.6	-50.9	15.2	0.00e+00	0	31	0	4226809856	64	4424
2026-01-04 12:29:00.77	335.19	7.23	-49.9	-51.2	15.1	0.00e+00	0	31	0	4249878528	65	4333
2026-01-04 12:29:04.77	335.32	6.93	-49.9	-51.2	15.1	0.00e+00	0	31	0	4271898624	65	4330
2026-01-04 12:29:08.77	335.45	6.63	-50.3	-51.7	14.9	0.00e+00	0	31	0	4294967296	65	4549
2026-01-04 12:29:12.75	335.57	6.34	-50.3	-51.7	14.9	9.10e-06	0	31	0	4316987392	66	4322
2026-01-04 12:29:16.75	335.69	6.05	-50.6	-52.0	14.8	0.00e+00	0	31	0	4340056064	66	4463
2026-01-04 12:29:20.73	335.81	5.76	-50.5	-52.0	14.7	0.00e+00	0	31	0	4362076160	66	4463
2026-01-04 12:29:24.73	335.93	5.47	-50.3	-51.7	14.8	0.00e+00	0	31	0	4385144832	66	4339
2026-01-04 12:29:28.73	336.05	5.19	-50.6	-52.1	14.7	0.00e+00	0	31	0	4407164928	66	4500
2026-01-04 12:29:32.73	336.16	4.91	-60.1	-73.1	3.8	8.46e-01	0	31	104	4424990720	85	16898
2026-01-04 12:29:36.72	336.27	4.63	-61.3	-74.4	3.8	8.46e-01	0	31	104	4424990720	87	17509
2026-01-04 12:29:40.72	336.38	4.36	-61.7	-74.8	3.8	8.46e-01	0	31	104	4424990720	88	17303
2026-01-04 12:29:44.70	336.49	4.09	-61.8	-74.9	3.8	8.45e-01	0	31	104	4424990720	88	17625
2026-01-04 12:29:48.69	336.60	3.82	-61.9	-75.0	3.8	8.46e-01	0	31	104	4424990720	89	16733
2026-01-04 12:29:52.69	336.71	3.55	-61.9	-75.0	3.8	8.46e-01	0	31	104	4424990720	89	16794
2026-01-04 12:29:56.69	336.81	3.29	-61.8	-74.9	3.8	8.45e-01	0	31	104	4424990720	89	16597
2026-01-04 12:30:00.70	336.91	3.03	-61.8	-74.9	3.8	8.47e-01	0	31	104	4424990720	89	16556
2026-01-04 12:30:04.70	337.01	2.77	-61.8	-74.8	3.8	8.45e-01	0	31	104	4424990720	89	16454
2026-01-04 12:30:08.71	337.11	2.51	-61.7	-74.8	3.8	8.45e-01	0	31	104	4424990720	89	16371
2026-01-04 12:30:12.69	337.21	2.26	-61.7	-74.7	3.8	8.46e-01	0	32	104	4424990720	89	16226
2026-01-04 12:30:16.70	337.31	2.00	-61.6	-74.7	3.8	8.46e-01	0	32	104	4424990720	89	16253

#Closed at: 2026-01-04 12:30:17
#Recorded file [4424 MB]: D:/lorett/data/31004_260104_151553.dat