passes_logs/2026/01/02/R4.6S_Anadyr_2ch/R4.6S_Anadyr_2ch__20260102_234133_2025-108B_rec.log

#Pass ID: 20260102_234133_2025-108B
#Satellite: 2025-108B
#Configuration: 3PB_600M
#almurnet v.1.7.20251203
#Start time: 2026-01-02 23:41:34

#Version: 2.2.20231116
#Station: R4.6S_Anadyr_2ch
#Location: 177.4865 lon 64.73178 lat
#TLE: 1 64088U 25108B   25351.01672131  .00008460  00000+0  43413-3 0  9994
#TLE: 2 64088  97.4940  63.8579 0011684 285.1423  74.8517 15.16717580 31720

#Time	Az	El	Level	Level2	SNR	BER	BlckErr	Temp	State	Recorded	gain1	gain2
2026-01-02 23:41:34.99	17.80	0.09	-52.5	-53.9	3.4	0.00e+00	0	34	0	0	60	83500
2026-01-02 23:41:38.01	17.81	0.28	-52.8	-55.3	3.6	0.00e+00	0	36	104	0	60	97967
2026-01-02 23:41:41.04	17.82	0.47	-52.9	-55.3	3.5	0.00e+00	0	36	104	0	60	98712
2026-01-02 23:41:44.07	17.83	0.67	-52.8	-55.2	3.6	0.00e+00	0	36	104	0	60	97556
2026-01-02 23:41:47.10	17.84	0.87	-52.9	-55.4	3.6	0.00e+00	0	36	104	0	60	99070
2026-01-02 23:41:50.14	17.85	1.07	-52.8	-55.2	3.6	0.00e+00	0	36	104	0	60	97595
2026-01-02 23:41:53.17	17.86	1.27	-52.8	-55.3	3.6	0.00e+00	0	36	104	0	60	97857
2026-01-02 23:41:56.20	17.87	1.47	-52.8	-55.2	3.6	0.00e+00	0	36	104	0	60	97089
2026-01-02 23:41:59.23	17.88	1.68	-52.8	-55.2	3.6	0.00e+00	0	36	104	0	60	97185
2026-01-02 23:42:02.26	17.89	1.88	-52.8	-55.2	3.6	0.00e+00	0	37	104	0	60	97569
2026-01-02 23:42:05.29	17.90	2.09	-52.8	-55.2	3.6	0.00e+00	0	37	104	0	60	97660
2026-01-02 23:42:08.32	17.91	2.30	-52.8	-55.3	3.6	0.00e+00	0	37	104	0	60	98102
2026-01-02 23:42:11.35	17.92	2.52	-52.9	-55.3	3.6	0.00e+00	0	37	104	0	60	98242
2026-01-02 23:42:14.38	17.93	2.73	-52.9	-55.4	3.6	0.00e+00	0	37	104	0	60	99091
2026-01-02 23:42:17.41	17.94	2.95	-53.0	-55.4	3.6	0.00e+00	0	37	104	0	60	99338
2026-01-02 23:42:20.45	17.95	3.17	-52.8	-55.3	3.6	0.00e+00	0	37	104	0	60	98078
2026-01-02 23:42:23.48	17.96	3.39	-52.9	-55.4	3.6	0.00e+00	0	37	104	0	60	99105
2026-01-02 23:42:26.50	17.97	3.61	-52.9	-55.3	3.6	0.00e+00	0	37	104	0	60	98715
2026-01-02 23:42:29.54	17.98	3.84	-52.8	-55.3	3.6	0.00e+00	0	37	104	0	60	97876
2026-01-02 23:42:32.57	17.98	4.07	-52.8	-55.2	3.6	0.00e+00	0	37	104	0	60	97145
2026-01-02 23:42:35.59	17.99	4.30	-52.8	-55.2	3.6	0.00e+00	0	37	104	0	60	97499
2026-01-02 23:42:38.62	18.00	4.53	-52.9	-55.4	3.6	0.00e+00	0	37	104	0	60	99282
2026-01-02 23:42:41.65	18.01	4.77	-52.8	-55.2	3.6	0.00e+00	0	37	104	0	60	97703
2026-01-02 23:42:44.68	18.02	5.01	-52.8	-55.2	3.6	0.00e+00	0	37	104	0	60	97810
2026-01-02 23:42:47.71	18.03	5.25	-52.8	-55.2	3.6	0.00e+00	0	37	104	0	60	97749
2026-01-02 23:42:50.74	18.04	5.50	-52.9	-55.3	3.5	0.00e+00	0	38	104	0	60	98878
2026-01-02 23:42:53.77	18.05	5.75	-52.9	-55.3	3.6	0.00e+00	0	37	104	0	60	98956
2026-01-02 23:42:56.79	18.06	6.00	-52.9	-55.3	3.6	0.00e+00	0	37	104	0	60	98886
2026-01-02 23:42:59.82	18.06	6.25	-52.8	-55.3	3.6	0.00e+00	0	37	104	0	60	98482
2026-01-02 23:43:02.85	18.07	6.51	-52.8	-55.3	3.6	0.00e+00	0	38	104	0	60	98210
2026-01-02 23:43:05.88	18.08	6.77	-52.8	-55.2	3.5	0.00e+00	0	38	104	0	60	97626
2026-01-02 23:43:08.91	18.09	7.03	-52.9	-55.3	3.5	0.00e+00	0	38	104	0	60	98601
2026-01-02 23:43:11.94	18.10	7.30	-52.8	-55.3	3.6	0.00e+00	0	38	104	0	60	98494
2026-01-02 23:43:14.97	18.10	7.58	-52.7	-55.2	3.6	0.00e+00	0	38	104	0	60	97401
2026-01-02 23:43:18.00	18.11	7.85	-52.8	-55.3	3.6	0.00e+00	0	38	104	0	60	98130
2026-01-02 23:43:21.03	18.12	8.13	-52.6	-55.1	3.6	0.00e+00	0	38	104	0	60	95927
2026-01-02 23:43:24.06	18.13	8.42	-52.3	-54.7	3.6	0.00e+00	0	38	104	0	60	92118
2026-01-02 23:43:27.09	18.13	8.70	-51.2	-53.7	3.6	0.00e+00	0	38	104	0	60	82065
2026-01-02 23:43:30.12	18.14	9.00	-49.5	-52.0	3.6	0.00e+00	0	38	104	0	60	67231
2026-01-02 23:43:33.15	18.15	9.30	-49.5	-52.0	3.6	0.00e+00	0	38	104	0	60	67221
2026-01-02 23:43:36.18	18.16	9.60	-49.4	-51.9	3.6	0.00e+00	0	38	104	0	60	66738
2026-01-02 23:43:39.22	18.16	9.91	-49.5	-52.0	3.6	0.00e+00	0	38	104	0	60	67062
2026-01-02 23:43:42.25	18.17	10.22	-49.4	-52.0	3.6	0.00e+00	0	38	104	0	60	67057
2026-01-02 23:43:45.28	18.18	10.54	-49.4	-52.0	3.6	0.00e+00	0	38	104	0	60	66941
2026-01-02 23:43:48.31	18.18	10.86	-49.4	-52.0	3.6	0.00e+00	0	38	104	0	60	67235
2026-01-02 23:43:51.35	18.19	11.19	-49.5	-51.9	3.6	0.00e+00	0	38	104	0	60	66811
2026-01-02 23:43:54.38	18.19	11.52	-49.4	-52.0	3.6	0.00e+00	0	38	104	0	60	66952
2026-01-02 23:43:57.41	18.20	11.86	-49.4	-51.9	3.5	0.00e+00	0	38	104	0	60	66842
2026-01-02 23:44:00.44	18.21	12.21	-49.2	-51.9	3.6	0.00e+00	0	38	104	0	60	66443
2026-01-02 23:44:03.48	18.21	12.56	-49.4	-52.0	3.6	0.00e+00	0	38	104	0	60	67405
2026-01-02 23:44:06.51	18.22	12.92	-49.4	-52.0	3.6	0.00e+00	0	39	104	0	60	66972
2026-01-02 23:44:09.54	18.22	13.29	-49.4	-52.0	3.6	0.00e+00	0	39	104	0	60	67150
2026-01-02 23:44:12.58	18.23	13.67	-49.4	-51.9	3.6	0.00e+00	0	39	104	0	60	66778
2026-01-02 23:44:15.61	18.23	14.05	-49.0	-51.6	3.6	0.00e+00	0	39	104	0	60	64545
2026-01-02 23:44:18.64	18.24	14.44	-49.5	-51.9	3.6	0.00e+00	0	39	104	0	60	66788
2026-01-02 23:44:21.68	18.24	14.84	-49.6	-52.0	3.6	0.00e+00	0	39	104	0	60	67500
2026-01-02 23:44:24.71	18.24	15.24	-49.6	-52.1	3.6	0.00e+00	0	38	104	0	60	67735
2026-01-02 23:44:27.74	18.25	15.66	-49.6	-52.1	3.6	0.00e+00	0	39	104	0	60	68183
2026-01-02 23:44:30.78	18.25	16.08	-49.9	-52.4	3.6	0.00e+00	0	39	104	0	60	70499
2026-01-02 23:44:33.81	18.25	16.52	-49.7	-52.3	3.6	0.00e+00	0	39	104	0	60	70012
2026-01-02 23:44:36.84	18.26	16.96	-49.6	-52.0	3.6	0.00e+00	0	39	104	0	60	67601
2026-01-02 23:44:39.87	18.26	17.42	-49.2	-51.3	3.6	0.00e+00	0	39	104	0	60	62179
2026-01-02 23:44:42.90	18.26	17.88	-49.0	-51.1	3.6	0.00e+00	0	39	104	0	60	60593
2026-01-02 23:44:45.94	18.26	18.36	-48.9	-50.9	3.6	0.00e+00	0	39	104	0	60	59223
2026-01-02 23:44:48.97	18.26	18.85	-48.6	-50.4	3.6	0.00e+00	0	39	104	0	60	56263
2026-01-02 23:44:52.00	18.26	19.35	-48.5	-50.2	3.6	0.00e+00	0	39	104	0	60	54988
2026-01-02 23:44:55.04	18.26	19.87	-48.1	-49.7	3.7	0.00e+00	0	39	104	0	60	51486
2026-01-02 23:44:58.07	18.26	20.40	-47.8	-49.2	3.8	0.00e+00	0	39	104	0	60	48721
2026-01-02 23:45:01.10	18.26	20.94	-47.4	-48.6	3.8	0.00e+00	0	39	104	0	60	45679
2026-01-02 23:45:04.13	18.26	21.50	-47.3	-48.4	3.9	0.00e+00	0	39	104	0	60	44486
2026-01-02 23:45:07.17	18.26	22.07	-46.7	-47.6	4.1	0.00e+00	0	39	104	0	60	40605
2026-01-02 23:45:10.20	18.26	22.66	-46.3	-47.2	4.2	0.00e+00	0	39	104	0	60	38672
2026-01-02 23:45:13.23	18.25	23.27	-46.0	-46.7	4.4	0.00e+00	0	39	104	0	60	36384
2026-01-02 23:45:16.27	18.25	23.89	-45.6	-46.3	4.5	0.00e+00	0	39	104	0	60	34766
2026-01-02 23:45:19.30	18.24	24.54	-45.4	-46.0	4.6	0.00e+00	0	39	104	0	60	33760
2026-01-02 23:45:22.33	18.24	25.20	-45.2	-45.8	4.7	0.00e+00	0	39	104	0	60	33035
2026-01-02 23:45:25.36	18.23	25.88	-45.0	-45.5	4.8	0.00e+00	0	39	104	0	60	32014
2026-01-02 23:45:28.40	18.23	26.59	-45.0	-45.6	4.8	0.00e+00	0	39	104	0	60	32217
2026-01-02 23:45:31.43	18.22	27.32	-44.9	-45.4	4.8	0.00e+00	0	39	104	0	60	31497
2026-01-02 23:45:34.46	18.21	28.07	-44.9	-45.4	4.8	0.00e+00	0	39	104	0	60	31470
2026-01-02 23:45:37.50	18.20	28.85	-44.9	-45.5	4.8	0.00e+00	0	39	104	0	60	31756
2026-01-02 23:45:40.53	18.19	29.65	-44.9	-45.4	4.8	0.00e+00	0	39	104	0	60	31456
2026-01-02 23:45:43.56	18.17	30.48	-44.9	-45.4	4.9	0.00e+00	0	39	104	0	60	31464
2026-01-02 23:45:46.59	18.16	31.34	-44.8	-45.2	4.9	0.00e+00	0	39	104	0	60	30838
2026-01-02 23:45:49.63	18.14	32.24	-44.9	-45.4	4.9	0.00e+00	0	39	104	0	60	31428
2026-01-02 23:45:52.66	18.13	33.16	-44.7	-45.3	4.9	0.00e+00	0	39	104	0	60	30967
2026-01-02 23:45:55.69	18.11	34.12	-44.7	-45.3	4.9	0.00e+00	0	39	104	0	60	30957
2026-01-02 23:45:58.72	18.08	35.11	-44.5	-45.0	5.0	0.00e+00	0	39	104	0	60	30035
2026-01-02 23:46:01.75	18.06	36.14	-44.4	-44.9	5.0	0.00e+00	0	39	104	0	60	29647
2026-01-02 23:46:04.79	18.03	37.22	-44.3	-44.7	5.1	0.00e+00	0	39	104	0	60	29041
2026-01-02 23:46:07.82	18.00	38.33	-44.0	-44.4	5.1	0.00e+00	0	39	104	0	60	27951
2026-01-02 23:46:10.86	17.97	39.49	-43.8	-44.2	5.2	0.00e+00	0	39	104	0	60	27493
2026-01-02 23:46:13.89	17.94	40.69	-43.7	-44.1	5.2	0.00e+00	0	39	104	0	60	27180
2026-01-02 23:46:16.92	17.90	41.93	-43.7	-44.1	5.2	0.00e+00	0	39	104	0	60	27048
2026-01-02 23:46:19.96	17.85	43.23	-43.5	-43.9	5.2	0.00e+00	0	39	104	0	60	26443
2026-01-02 23:46:22.99	17.80	44.58	-43.6	-44.0	5.2	0.00e+00	0	39	104	0	60	26693
2026-01-02 23:46:26.02	17.75	45.98	-43.4	-43.7	5.2	0.00e+00	0	39	104	0	60	25997
2026-01-02 23:46:29.05	17.69	47.44	-43.4	-43.8	5.2	0.00e+00	0	39	104	0	60	26125
2026-01-02 23:46:32.08	17.62	48.96	-43.6	-43.9	5.2	0.00e+00	0	39	104	0	60	26609
2026-01-02 23:46:35.11	17.54	50.53	-43.1	-43.5	5.3	0.00e+00	0	39	104	0	60	25273
2026-01-02 23:46:38.15	17.45	52.18	-43.1	-43.4	5.3	0.00e+00	0	39	104	0	60	25030
2026-01-02 23:46:41.18	17.35	53.88	-43.1	-43.5	5.2	0.00e+00	0	39	104	0	60	25318
2026-01-02 23:46:44.21	17.24	55.64	-43.2	-43.6	5.2	0.00e+00	0	39	104	0	60	25461
2026-01-02 23:46:47.24	17.11	57.47	-43.4	-43.7	5.2	0.00e+00	0	39	104	0	60	25946
2026-01-02 23:46:50.27	16.95	59.37	-43.8	-44.2	5.2	0.00e+00	0	39	104	0	60	27297
2026-01-02 23:46:53.30	16.77	61.33	-43.8	-44.2	5.1	0.00e+00	0	39	104	0	60	27319
2026-01-02 23:46:56.34	16.56	63.37	-44.2	-44.6	5.0	0.00e+00	0	39	104	0	60	28654
2026-01-02 23:46:59.37	16.30	65.46	-44.5	-45.0	5.0	0.00e+00	0	39	104	0	60	30027
2026-01-02 23:47:02.40	15.98	67.61	-44.8	-45.3	4.9	0.00e+00	0	39	104	0	60	30957
2026-01-02 23:47:05.43	15.58	69.83	-45.2	-45.7	4.8	0.00e+00	0	39	104	0	60	32620
2026-01-02 23:47:08.47	15.08	72.11	-45.6	-46.1	4.8	0.00e+00	0	39	104	0	60	34263
2026-01-02 23:47:11.50	14.41	74.43	-45.2	-45.8	4.9	0.00e+00	0	39	104	0	60	32784
2026-01-02 23:47:14.53	13.48	76.79	-44.9	-45.4	5.0	0.00e+00	0	39	104	0	60	31506
2026-01-02 23:47:17.56	12.13	79.19	-44.3	-44.6	5.1	0.00e+00	0	39	104	0	60	28794
2026-01-02 23:47:20.59	9.97	81.62	-43.9	-44.3	5.2	0.00e+00	0	39	104	0	60	27688
2026-01-02 23:47:23.62	6.01	84.05	-43.4	-43.8	5.3	0.00e+00	0	39	104	0	60	26172
2026-01-02 23:47:26.65	356.58	86.44	-43.0	-43.3	5.4	0.00e+00	0	39	104	0	60	24808
2026-01-02 23:47:29.68	318.50	88.41	-42.6	-42.9	5.4	0.00e+00	0	39	104	0	60	23510
2026-01-02 23:47:32.71	237.93	87.77	-42.5	-42.8	5.4	0.00e+00	0	39	104	0	60	23289
2026-01-02 23:47:35.74	217.51	85.52	-42.9	-43.2	5.3	0.00e+00	0	39	104	0	60	24429
2026-01-02 23:47:38.78	211.05	83.10	-43.3	-42.5	8.6	0.00e+00	0	39	0	0	60	22561
2026-01-02 23:47:41.81	207.99	80.66	-43.5	-42.7	8.5	0.00e+00	0	39	0	0	60	23070
2026-01-02 23:47:44.84	206.22	78.24	-43.5	-42.8	8.5	0.00e+00	0	39	0	0	60	23217
2026-01-02 23:47:47.87	205.06	75.84	-44.0	-43.3	8.2	0.00e+00	0	39	0	0	60	24623
2026-01-02 23:47:50.91	204.25	73.48	-44.1	-43.3	8.2	0.00e+00	0	39	0	0	60	24857
2026-01-02 23:47:53.94	203.65	71.17	-44.0	-43.3	8.5	0.00e+00	0	39	0	0	60	24682
2026-01-02 23:47:56.97	203.20	68.92	-43.7	-42.9	8.6	0.00e+00	0	39	0	0	60	23626
2026-01-02 23:48:00.01	202.83	66.71	-43.0	-42.2	9.0	0.00e+00	0	39	0	0	60	21805
2026-01-02 23:48:03.04	202.54	64.57	-43.1	-42.2	8.8	0.00e+00	0	39	0	0	60	21832
2026-01-02 23:48:06.07	202.30	62.50	-42.8	-41.9	9.0	0.00e+00	0	39	0	0	60	21118
2026-01-02 23:48:09.11	202.10	60.48	-42.5	-41.7	9.2	0.00e+00	0	39	0	0	60	20469
2026-01-02 23:48:12.14	201.93	58.53	-42.5	-41.7	9.1	0.00e+00	0	39	0	0	60	20486
2026-01-02 23:48:15.18	201.78	56.65	-43.3	-42.5	8.7	0.00e+00	0	39	0	0	60	22514
2026-01-02 23:48:18.21	201.66	54.84	-44.5	-43.7	8.0	0.00e+00	0	39	0	0	60	25982
2026-01-02 23:48:21.24	201.55	53.09	-44.6	-43.9	8.0	0.00e+00	0	39	0	0	60	26432
2026-01-02 23:48:24.27	201.45	51.40	-43.8	-43.0	8.8	0.00e+00	0	39	0	0	60	23974
2026-01-02 23:48:27.31	201.37	49.78	-43.1	-42.3	9.2	0.00e+00	0	39	0	0	60	22052
2026-01-02 23:48:30.34	201.30	48.22	-41.7	-40.8	10.2	0.00e+00	0	39	0	0	60	18571
2026-01-02 23:48:33.37	201.23	46.72	-41.1	-40.2	10.3	0.00e+00	0	39	0	0	60	17360
2026-01-02 23:48:36.41	201.17	45.27	-41.4	-40.5	9.8	0.00e+00	0	39	0	0	60	17903
2026-01-02 23:48:39.44	201.12	43.88	-42.2	-41.3	9.8	0.00e+00	0	39	0	0	60	19735
2026-01-02 23:48:42.47	201.07	42.55	-42.2	-41.4	10.1	0.00e+00	0	39	0	0	60	19751
2026-01-02 23:48:45.51	201.03	41.26	-41.6	-40.7	10.4	0.00e+00	0	39	0	0	60	18398
2026-01-02 23:48:48.54	200.99	40.03	-41.3	-40.5	10.5	0.00e+00	0	39	0	0	60	17893
2026-01-02 23:48:51.57	200.95	38.84	-40.4	-39.5	10.8	0.00e+00	0	39	0	0	60	16016
2026-01-02 23:48:54.60	200.92	37.70	-40.6	-39.7	10.9	0.00e+00	0	39	0	0	60	16368
2026-01-02 23:48:57.64	200.89	36.59	-41.0	-40.1	10.4	0.00e+00	0	39	0	0	60	17140
2026-01-02 23:49:00.67	200.87	35.53	-41.0	-40.1	9.8	0.00e+00	0	39	0	0	60	17098
2026-01-02 23:49:03.71	200.84	34.51	-41.6	-40.8	9.6	0.00e+00	0	39	0	0	60	18480
2026-01-02 23:49:06.74	200.82	33.53	-42.3	-41.5	9.3	0.00e+00	0	39	0	0	60	20032
2026-01-02 23:49:09.77	200.80	32.58	-43.9	-43.1	8.5	0.00e+00	0	39	0	0	60	24050
2026-01-02 23:49:12.80	200.78	31.66	-43.2	-42.4	8.8	0.00e+00	0	39	0	0	60	22346
2026-01-02 23:49:15.84	200.77	30.78	-41.8	-40.9	9.7	0.00e+00	0	39	0	0	60	18821
2026-01-02 23:49:18.87	200.75	29.92	-41.7	-40.8	9.7	0.00e+00	0	39	0	0	60	18488
2026-01-02 23:49:21.90	200.74	29.10	-42.1	-41.3	9.8	0.00e+00	0	39	0	0	60	19524
2026-01-02 23:49:24.94	200.73	28.30	-41.7	-40.8	10.3	0.00e+00	0	39	0	0	60	18579
2026-01-02 23:49:27.97	200.72	27.53	-41.5	-40.6	10.5	0.00e+00	0	39	0	0	60	18171
2026-01-02 23:49:31.00	200.71	26.79	-39.9	-39.0	11.5	0.00e+00	0	39	0	0	60	15085
2026-01-02 23:49:34.04	200.70	26.06	-39.3	-38.4	12.1	0.00e+00	0	39	0	0	60	14129
2026-01-02 23:49:37.07	200.69	25.36	-39.3	-38.4	11.7	0.00e+00	0	39	0	0	60	14070
2026-01-02 23:49:40.10	200.68	24.68	-39.5	-38.6	11.5	0.00e+00	0	39	0	0	60	14347
2026-01-02 23:49:43.13	200.68	24.03	-40.9	-40.0	11.4	0.00e+00	0	39	0	0	60	16892
2026-01-02 23:49:46.17	200.67	23.39	-39.5	-38.6	11.2	0.00e+00	0	39	0	0	60	14385
2026-01-02 23:49:49.20	200.67	22.77	-39.7	-38.8	11.7	0.00e+00	0	39	0	0	60	14669
2026-01-02 23:49:52.24	200.66	22.16	-38.4	-37.4	11.8	0.00e+00	0	39	0	0	58	14143
2026-01-02 23:49:55.27	200.66	21.58	-38.6	-37.7	11.8	0.00e+00	0	39	0	0	58	14580
2026-01-02 23:49:58.30	200.66	21.01	-38.8	-37.9	10.8	0.00e+00	0	39	0	0	58	14856
2026-01-02 23:50:01.34	200.66	20.46	-40.3	-39.4	11.3	0.00e+00	0	39	0	0	60	15841
2026-01-02 23:50:04.37	200.65	19.92	-40.6	-39.7	11.0	0.00e+00	0	39	0	0	60	16309
2026-01-02 23:50:07.40	200.65	19.39	-41.6	-40.7	10.4	0.00e+00	0	39	0	0	60	18318
2026-01-02 23:50:10.43	200.65	18.88	-42.0	-41.2	9.6	0.00e+00	0	39	0	0	60	19381
2026-01-02 23:50:13.47	200.65	18.38	-42.8	-42.0	9.7	0.00e+00	0	39	0	0	60	21256
2026-01-02 23:50:16.50	200.65	17.90	-41.2	-40.3	10.9	0.00e+00	0	39	0	0	60	17473
2026-01-02 23:50:19.53	200.65	17.42	-40.6	-39.7	10.9	0.00e+00	0	39	0	0	60	16313
2026-01-02 23:50:22.57	200.65	16.96	-40.2	-39.3	11.2	0.00e+00	0	39	0	0	60	15621
2026-01-02 23:50:25.60	200.65	16.51	-39.4	-38.5	11.3	0.00e+00	0	39	0	0	60	14254
2026-01-02 23:50:28.63	200.66	16.06	-39.8	-38.9	11.3	0.00e+00	0	39	0	0	60	14945
2026-01-02 23:50:31.67	200.66	15.63	-40.2	-39.3	11.4	0.00e+00	0	39	0	0	60	15552
2026-01-02 23:50:34.70	200.66	15.21	-39.8	-38.9	11.1	0.00e+00	0	39	0	0	60	14855
2026-01-02 23:50:37.73	200.66	14.80	-40.4	-39.6	11.5	0.00e+00	0	39	0	0	60	16086
2026-01-02 23:50:40.77	200.66	14.39	-40.1	-39.2	10.7	0.00e+00	0	39	0	0	60	15337
2026-01-02 23:50:43.80	200.67	13.99	-39.6	-38.7	11.6	0.00e+00	0	39	0	0	60	14512
2026-01-02 23:50:46.83	200.67	13.61	-39.4	-38.4	11.5	0.00e+00	0	39	0	0	60	14131
2026-01-02 23:50:49.87	200.67	13.23	-40.0	-39.1	11.5	0.00e+00	0	39	0	0	60	15156
2026-01-02 23:50:52.90	200.68	12.85	-39.6	-38.7	11.8	0.00e+00	0	39	0	0	60	14574
2026-01-02 23:50:55.93	200.68	12.49	-40.6	-39.7	11.2	0.00e+00	0	39	0	0	60	16415
2026-01-02 23:50:58.96	200.68	12.13	-40.8	-39.9	11.3	0.00e+00	0	39	0	0	60	16808
2026-01-02 23:51:02.00	200.69	11.78	-40.5	-39.6	11.0	0.00e+00	0	39	0	0	60	16221
2026-01-02 23:51:05.03	200.69	11.43	-41.1	-40.2	10.4	0.00e+00	0	39	0	0	60	17379
2026-01-02 23:51:08.06	200.70	11.09	-40.9	-40.0	10.2	0.00e+00	0	39	0	0	60	16851
2026-01-02 23:51:11.10	200.70	10.76	-40.7	-39.8	10.2	0.00e+00	0	39	0	0	60	16561
2026-01-02 23:51:14.13	200.70	10.43	-42.3	-41.5	10.1	0.00e+00	0	39	0	0	60	20023
2026-01-02 23:51:17.16	200.71	10.11	-40.7	-39.8	11.2	0.00e+00	0	39	0	0	60	16455
2026-01-02 23:51:20.20	200.71	9.79	-40.2	-39.3	10.7	0.00e+00	0	39	0	0	60	15565
2026-01-02 23:51:23.23	200.72	9.48	-40.9	-40.0	10.3	0.00e+00	0	39	0	0	60	17001
2026-01-02 23:51:26.26	200.72	9.18	-41.5	-40.6	9.7	0.00e+00	0	39	0	0	60	18108
2026-01-02 23:51:29.30	200.73	8.87	-42.8	-42.0	8.3	0.00e+00	0	39	0	0	60	21389
2026-01-02 23:51:32.33	200.73	8.58	-44.3	-43.6	7.7	0.00e+00	0	39	0	0	60	25522
2026-01-02 23:51:35.36	200.74	8.29	-42.9	-42.2	7.8	0.00e+00	0	39	0	0	60	21719
2026-01-02 23:51:38.39	200.75	8.00	-42.2	-41.4	9.6	0.00e+00	0	39	0	0	60	19752
2026-01-02 23:51:41.42	200.75	7.72	-41.8	-40.9	9.9	0.00e+00	0	39	0	0	60	18801
2026-01-02 23:51:44.46	200.76	7.44	-41.3	-40.3	10.1	0.00e+00	0	39	0	0	60	17600
2026-01-02 23:51:47.49	200.76	7.16	-41.2	-40.3	9.8	0.00e+00	0	39	0	0	60	17539
2026-01-02 23:51:50.52	200.77	6.89	-41.4	-40.5	9.9	0.00e+00	0	39	0	0	60	17914
2026-01-02 23:51:53.55	200.78	6.62	-41.2	-40.3	10.0	0.00e+00	0	39	0	0	60	17537
2026-01-02 23:51:56.58	200.78	6.36	-41.8	-40.9	10.5	0.00e+00	0	39	0	0	60	18799
2026-01-02 23:51:59.62	200.79	6.10	-42.0	-41.0	8.1	0.00e+00	0	39	0	0	60	18922
2026-01-02 23:52:02.65	200.79	5.84	-42.0	-41.2	8.7	0.00e+00	0	39	0	0	60	19411
2026-01-02 23:52:05.68	200.80	5.58	-41.9	-41.0	9.3	0.00e+00	0	39	0	0	60	19038
2026-01-02 23:52:08.72	200.81	5.33	-42.4	-41.5	8.0	0.00e+00	0	39	0	0	60	20163
2026-01-02 23:52:11.75	200.81	5.09	-41.7	-40.8	8.3	0.00e+00	0	39	0	0	60	18618
2026-01-02 23:52:14.78	200.82	4.84	-41.6	-40.7	8.0	0.00e+00	0	39	0	0	60	18272
2026-01-02 23:52:17.81	200.83	4.60	-41.1	-40.3	8.5	0.00e+00	0	39	0	0	60	17577
2026-01-02 23:52:20.84	200.83	4.36	-40.5	-39.6	8.5	0.00e+00	0	39	0	0	60	16211
2026-01-02 23:52:23.87	200.84	4.12	-41.5	-40.5	8.4	0.00e+00	0	39	0	0	60	18007
2026-01-02 23:52:26.91	200.85	3.89	-41.4	-40.5	8.3	0.00e+00	0	39	0	0	60	17971
2026-01-02 23:52:29.94	200.85	3.66	-41.6	-40.8	8.1	0.00e+00	0	39	0	0	60	18641
2026-01-02 23:52:32.97	200.86	3.43	-41.9	-41.1	8.3	0.00e+00	0	39	0	0	60	19090
2026-01-02 23:52:36.00	200.87	3.20	-42.0	-41.1	8.4	0.00e+00	0	39	0	0	60	19291
2026-01-02 23:52:39.04	200.88	2.98	-42.1	-41.3	8.4	0.00e+00	0	39	0	0	60	19650
2026-01-02 23:52:42.06	200.88	2.76	-42.9	-42.1	7.8	0.00e+00	0	39	0	0	60	21586
2026-01-02 23:52:45.10	200.89	2.54	-43.9	-43.1	7.2	0.00e+00	0	39	0	0	60	24078
2026-01-02 23:52:48.13	200.90	2.32	-43.2	-42.3	8.0	0.00e+00	0	39	0	0	60	22149
2026-01-02 23:52:51.16	200.90	2.11	-43.4	-42.6	7.8	0.00e+00	0	39	0	0	60	22850
2026-01-02 23:52:54.19	200.91	1.90	-43.4	-42.6	7.6	0.00e+00	0	39	0	0	60	22854
2026-01-02 23:52:57.22	200.92	1.69	-43.3	-42.5	7.4	0.00e+00	0	39	0	0	60	22544
2026-01-02 23:53:00.26	200.93	1.48	-43.3	-42.5	7.4	0.00e+00	0	39	0	0	60	22622
2026-01-02 23:53:03.29	200.93	1.27	-43.1	-42.3	7.5	0.00e+00	0	39	0	0	60	22138
2026-01-02 23:53:06.32	200.94	1.07	-43.2	-42.4	7.5	0.00e+00	0	39	0	0	60	22288
2026-01-02 23:53:09.36	200.95	0.86	-43.4	-42.7	7.7	0.00e+00	0	39	0	0	60	22976
2026-01-02 23:53:12.39	200.96	0.66	-43.3	-42.5	7.5	0.00e+00	0	39	0	0	60	22473
2026-01-02 23:53:15.42	200.96	0.46	-43.8	-43.1	7.3	0.00e+00	0	39	0	0	60	24050
2026-01-02 23:53:18.46	200.97	0.26	-43.7	-42.9	7.4	0.00e+00	0	39	0	0	60	23668
2026-01-02 23:53:21.49	200.98	0.07	-43.9	-43.1	7.3	0.00e+00	0	39	0	0	60	24234

#Closed at: 2026-01-02 23:53:24
#Recorded file [0 MB]: D:/lorett/data/35034_260103_024134.dat