passes_logs/2026/01/02/R4.6S_Anadyr_2ch/R4.6S_Anadyr_2ch__20260102_060926_2025-108B_rec.log

#Pass ID: 20260102_060926_2025-108B
#Satellite: 2025-108B
#Configuration: 3PB_600M
#almurnet v.1.7.20251203
#Start time: 2026-01-02 06:09:29

#Version: 2.2.20231116
#Station: R4.6S_Anadyr_2ch
#Location: 177.4865 lon 64.73178 lat
#TLE: 1 64088U 25108B   25351.01672131  .00008460  00000+0  43413-3 0  9994
#TLE: 2 64088  97.4940  63.8579 0011684 285.1423  74.8517 15.16717580 31720

#Time	Az	El	Level	Level2	SNR	BER	BlckErr	Temp	State	Recorded	gain1	gain2
2026-01-02 06:09:29.44	68.79	0.13	-51.9	-53.3	3.4	0.00e+00	0	32	0	0	60	78574
2026-01-02 06:09:31.46	68.56	0.22	-51.8	-54.2	3.6	0.00e+00	0	34	104	0	60	86600
2026-01-02 06:09:33.48	68.32	0.31	-51.8	-54.3	3.5	0.00e+00	0	34	104	0	60	87845
2026-01-02 06:09:35.50	68.08	0.41	-51.9	-54.4	3.6	0.00e+00	0	34	104	0	60	88936
2026-01-02 06:09:37.53	67.84	0.50	-52.1	-54.5	3.6	0.00e+00	0	34	104	0	60	90068
2026-01-02 06:09:39.55	67.60	0.59	-52.0	-54.4	3.6	0.00e+00	0	34	104	0	60	89137
2026-01-02 06:09:41.57	67.35	0.68	-52.1	-54.5	3.6	0.00e+00	0	34	104	0	60	89701
2026-01-02 06:09:43.59	67.11	0.78	-52.1	-54.6	3.6	0.00e+00	0	35	104	0	60	90426
2026-01-02 06:09:45.61	66.86	0.87	-52.1	-54.5	3.6	0.00e+00	0	35	104	0	60	90105
2026-01-02 06:09:47.63	66.61	0.96	-51.8	-54.2	3.6	0.00e+00	0	35	104	0	60	86700
2026-01-02 06:09:49.65	66.35	1.05	-51.7	-54.2	3.6	0.00e+00	0	35	104	0	60	86651
2026-01-02 06:09:51.67	66.10	1.14	-51.7	-54.2	3.6	0.00e+00	0	35	104	0	60	86331
2026-01-02 06:09:53.69	65.84	1.24	-51.8	-54.3	3.6	0.00e+00	0	35	104	0	60	87311
2026-01-02 06:09:55.71	65.58	1.33	-51.7	-54.2	3.6	0.00e+00	0	35	104	0	60	86535
2026-01-02 06:09:57.74	65.32	1.42	-51.8	-54.2	3.6	0.00e+00	0	35	104	0	60	86614
2026-01-02 06:09:59.76	65.06	1.51	-51.8	-54.3	3.6	0.00e+00	0	35	104	0	60	87934
2026-01-02 06:10:01.78	64.79	1.60	-51.8	-54.3	3.6	0.00e+00	0	35	104	0	60	87896
2026-01-02 06:10:03.80	64.53	1.69	-51.7	-54.2	3.6	0.00e+00	0	35	104	0	60	86340
2026-01-02 06:10:05.82	64.26	1.79	-51.7	-54.2	3.6	0.00e+00	0	35	104	0	60	86415
2026-01-02 06:10:07.85	63.99	1.88	-51.8	-54.2	3.6	0.00e+00	0	35	104	0	60	86863
2026-01-02 06:10:09.87	63.71	1.97	-51.8	-54.3	3.6	0.00e+00	0	35	104	0	60	87243
2026-01-02 06:10:11.89	63.44	2.06	-51.9	-54.4	3.6	0.00e+00	0	35	104	0	60	88476
2026-01-02 06:10:13.91	63.16	2.15	-51.9	-54.3	3.6	0.00e+00	0	35	104	0	60	87894
2026-01-02 06:10:15.93	62.88	2.24	-51.9	-54.3	3.6	0.00e+00	0	35	104	0	60	88105
2026-01-02 06:10:17.95	62.60	2.33	-51.7	-54.2	3.6	0.00e+00	0	35	104	0	60	86321
2026-01-02 06:10:19.97	62.31	2.42	-51.8	-54.2	3.5	0.00e+00	0	35	104	0	60	87194
2026-01-02 06:10:21.99	62.03	2.51	-51.9	-54.4	3.6	0.00e+00	0	35	104	0	60	89038
2026-01-02 06:10:24.02	61.73	2.60	-51.9	-54.4	3.6	0.00e+00	0	36	104	0	60	88916
2026-01-02 06:10:26.04	61.44	2.69	-52.0	-54.4	3.6	0.00e+00	0	36	104	0	60	89197
2026-01-02 06:10:28.06	61.15	2.78	-52.2	-54.7	3.6	0.00e+00	0	36	104	0	60	91479
2026-01-02 06:10:30.08	60.85	2.87	-52.0	-54.4	3.6	0.00e+00	0	36	104	0	60	89099
2026-01-02 06:10:32.10	60.56	2.96	-52.1	-54.6	3.6	0.00e+00	0	35	104	0	60	90327
2026-01-02 06:10:34.13	60.25	3.05	-52.0	-54.4	3.6	0.00e+00	0	36	104	0	60	89202
2026-01-02 06:10:36.15	59.95	3.14	-51.9	-54.4	3.6	0.00e+00	0	36	104	0	60	88640
2026-01-02 06:10:38.17	59.65	3.23	-51.8	-54.3	3.6	0.00e+00	0	36	104	0	60	87486
2026-01-02 06:10:40.19	59.34	3.32	-51.8	-54.3	3.6	0.00e+00	0	36	104	0	60	87855
2026-01-02 06:10:42.21	59.03	3.40	-52.0	-54.4	3.6	0.00e+00	0	36	104	0	60	89149
2026-01-02 06:10:44.24	58.72	3.49	-52.0	-54.4	3.6	0.00e+00	0	36	104	0	60	89216
2026-01-02 06:10:46.26	58.40	3.58	-51.8	-54.2	3.6	0.00e+00	0	36	104	0	60	86995
2026-01-02 06:10:48.28	58.08	3.67	-51.7	-54.2	3.6	0.00e+00	0	36	104	0	60	86527
2026-01-02 06:10:50.30	57.77	3.75	-52.0	-54.4	3.6	0.00e+00	0	36	104	0	60	89065
2026-01-02 06:10:52.32	57.44	3.84	-51.7	-54.2	3.6	0.00e+00	0	36	104	0	60	86538
2026-01-02 06:10:54.34	57.12	3.92	-51.7	-54.2	3.6	0.00e+00	0	36	104	0	60	87000
2026-01-02 06:10:56.37	56.79	4.01	-51.9	-54.3	3.6	0.00e+00	0	36	104	0	60	88167
2026-01-02 06:10:58.39	56.46	4.10	-51.7	-54.2	3.6	0.00e+00	0	36	104	0	60	86643
2026-01-02 06:11:00.41	56.13	4.18	-51.7	-54.2	3.6	0.00e+00	0	36	104	0	60	86377
2026-01-02 06:11:02.43	55.80	4.26	-52.0	-54.4	3.6	0.00e+00	0	36	104	0	60	88667
2026-01-02 06:11:04.45	55.46	4.35	-51.9	-54.4	3.6	0.00e+00	0	36	104	0	60	88579
2026-01-02 06:11:06.47	55.12	4.43	-52.0	-54.4	3.6	0.00e+00	0	36	104	0	60	88817
2026-01-02 06:11:08.49	54.78	4.51	-52.2	-54.6	3.6	0.00e+00	0	36	104	0	60	91177
2026-01-02 06:11:10.52	54.44	4.60	-51.9	-54.3	3.6	0.00e+00	0	36	104	0	60	88064
2026-01-02 06:11:12.54	54.09	4.68	-51.9	-54.3	3.6	0.00e+00	0	36	104	0	60	87979
2026-01-02 06:11:14.56	53.74	4.76	-51.7	-54.2	3.6	0.00e+00	0	36	104	0	60	86803
2026-01-02 06:11:16.58	53.39	4.84	-51.6	-54.1	3.6	0.00e+00	0	36	104	0	60	85278
2026-01-02 06:11:18.60	53.04	4.92	-51.6	-54.1	3.6	0.00e+00	0	36	104	0	60	85767
2026-01-02 06:11:20.62	52.68	5.00	-51.8	-54.3	3.6	0.00e+00	0	37	104	0	60	87268
2026-01-02 06:11:22.65	52.32	5.08	-51.7	-54.2	3.6	0.00e+00	0	37	104	0	60	86788
2026-01-02 06:11:24.67	51.96	5.16	-51.8	-54.2	3.6	0.00e+00	0	36	104	0	60	86799
2026-01-02 06:11:26.69	51.60	5.24	-51.8	-54.2	3.6	0.00e+00	0	36	104	0	60	87028
2026-01-02 06:11:28.71	51.23	5.32	-51.7	-54.2	3.6	0.00e+00	0	37	104	0	60	86528
2026-01-02 06:11:30.73	50.86	5.40	-51.8	-54.3	3.6	0.00e+00	0	37	104	0	60	87717
2026-01-02 06:11:32.75	50.49	5.47	-52.0	-54.5	3.6	0.00e+00	0	37	104	0	60	89753
2026-01-02 06:11:34.78	50.12	5.55	-51.8	-54.3	3.6	0.00e+00	0	37	104	0	60	87791
2026-01-02 06:11:36.80	49.74	5.62	-51.9	-54.4	3.6	0.00e+00	0	37	104	0	60	88686
2026-01-02 06:11:38.82	49.37	5.70	-52.0	-54.4	3.6	0.00e+00	0	37	104	0	60	89076
2026-01-02 06:11:40.84	48.99	5.77	-51.9	-54.4	3.6	0.00e+00	0	37	104	0	60	88325
2026-01-02 06:11:42.86	48.60	5.84	-51.8	-54.3	3.6	0.00e+00	0	37	104	0	60	87494
2026-01-02 06:11:44.89	48.22	5.92	-51.9	-54.4	3.6	0.00e+00	0	37	104	0	60	88310
2026-01-02 06:11:46.91	47.83	5.99	-52.1	-54.5	3.6	0.00e+00	0	37	104	0	60	89811
2026-01-02 06:11:48.93	47.44	6.06	-51.9	-54.4	3.6	0.00e+00	0	37	104	0	60	88400
2026-01-02 06:11:50.95	47.05	6.13	-51.9	-54.4	3.6	0.00e+00	0	37	104	0	60	88619
2026-01-02 06:11:52.97	46.65	6.20	-51.8	-54.3	3.6	0.00e+00	0	37	104	0	60	87252
2026-01-02 06:11:55.00	46.25	6.27	-51.8	-54.3	3.6	0.00e+00	0	37	104	0	60	87260
2026-01-02 06:11:57.02	45.85	6.33	-51.9	-54.4	3.6	0.00e+00	0	37	104	0	60	88784
2026-01-02 06:11:59.04	45.45	6.40	-51.8	-54.2	3.6	0.00e+00	0	37	104	0	60	87199
2026-01-02 06:12:01.06	45.05	6.46	-51.8	-54.2	3.6	0.00e+00	0	37	104	0	60	86907
2026-01-02 06:12:03.08	44.64	6.53	-51.9	-54.3	3.6	0.00e+00	0	37	104	0	60	87793
2026-01-02 06:12:05.10	44.23	6.59	-51.8	-54.2	3.6	0.00e+00	0	37	104	0	60	86834
2026-01-02 06:12:07.13	43.82	6.66	-51.8	-54.3	3.6	0.00e+00	0	37	104	0	60	87660
2026-01-02 06:12:09.15	43.41	6.72	-51.8	-54.2	3.6	0.00e+00	0	37	104	0	60	87182
2026-01-02 06:12:11.17	42.99	6.78	-51.9	-54.3	3.6	0.00e+00	0	37	104	0	60	87567
2026-01-02 06:12:13.19	42.58	6.84	-51.8	-54.3	3.6	0.00e+00	0	37	104	0	60	87477
2026-01-02 06:12:15.21	42.16	6.90	-51.8	-54.3	3.6	0.00e+00	0	37	104	0	60	87477
2026-01-02 06:12:17.23	41.74	6.95	-51.7	-54.2	3.6	0.00e+00	0	37	104	0	60	86226
2026-01-02 06:12:19.26	41.31	7.01	-51.7	-54.2	3.6	0.00e+00	0	37	104	0	60	86945
2026-01-02 06:12:21.28	40.89	7.07	-51.8	-54.3	3.6	0.00e+00	0	37	104	0	60	87555
2026-01-02 06:12:23.30	40.46	7.12	-51.7	-54.2	3.6	0.00e+00	0	37	104	0	60	86911
2026-01-02 06:12:25.32	40.03	7.17	-51.7	-54.2	3.6	0.00e+00	0	37	104	0	60	86278
2026-01-02 06:12:27.34	39.60	7.23	-51.6	-54.1	3.6	0.00e+00	0	37	104	0	60	85510
2026-01-02 06:12:29.37	39.16	7.28	-51.7	-54.1	3.6	0.00e+00	0	37	104	0	60	86165
2026-01-02 06:12:31.39	38.73	7.33	-51.7	-54.1	3.6	0.00e+00	0	37	104	0	60	85927
2026-01-02 06:12:33.41	38.29	7.38	-51.8	-54.2	3.6	0.00e+00	0	37	104	0	60	86618
2026-01-02 06:12:35.43	37.85	7.42	-51.8	-54.3	3.6	0.00e+00	0	37	104	0	60	87443
2026-01-02 06:12:37.45	37.41	7.47	-51.9	-54.4	3.6	0.00e+00	0	37	104	0	60	88463
2026-01-02 06:12:39.47	36.97	7.51	-51.9	-54.4	3.6	0.00e+00	0	37	104	0	60	88587
2026-01-02 06:12:41.50	36.53	7.56	-52.0	-54.4	3.6	0.00e+00	0	37	104	0	60	89207
2026-01-02 06:12:43.52	36.08	7.60	-51.9	-54.4	3.6	0.00e+00	0	37	104	0	60	89208
2026-01-02 06:12:45.54	35.63	7.64	-51.9	-54.4	3.6	0.00e+00	0	37	104	0	60	88228
2026-01-02 06:12:47.56	35.19	7.68	-51.8	-54.3	3.6	0.00e+00	0	37	104	0	60	87583
2026-01-02 06:12:49.58	34.74	7.72	-51.7	-54.2	3.6	0.00e+00	0	37	104	0	60	86430
2026-01-02 06:12:51.60	34.28	7.76	-52.2	-54.6	3.6	0.00e+00	0	37	104	0	60	91256
2026-01-02 06:12:53.63	33.83	7.79	-51.8	-54.3	3.6	0.00e+00	0	37	104	0	60	87625
2026-01-02 06:12:55.65	33.38	7.83	-52.3	-54.7	3.6	0.00e+00	0	37	104	0	60	91952
2026-01-02 06:12:57.67	32.92	7.86	-52.0	-54.5	3.6	0.00e+00	0	37	104	0	60	89678
2026-01-02 06:12:59.69	32.46	7.89	-51.9	-54.5	3.6	0.00e+00	0	37	104	0	60	89465
2026-01-02 06:13:01.71	32.01	7.92	-51.9	-54.3	3.6	0.00e+00	0	37	104	0	60	87953
2026-01-02 06:13:03.73	31.55	7.95	-51.8	-54.3	3.6	0.00e+00	0	37	104	0	60	87558
2026-01-02 06:13:05.76	31.09	7.98	-51.7	-54.2	3.6	0.00e+00	0	37	104	0	60	86352
2026-01-02 06:13:07.78	30.62	8.00	-51.8	-54.3	3.6	0.00e+00	0	37	104	0	60	87368
2026-01-02 06:13:09.80	30.16	8.03	-51.7	-54.2	3.6	0.00e+00	0	37	104	0	60	86466
2026-01-02 06:13:11.82	29.70	8.05	-51.7	-54.2	3.6	0.00e+00	0	37	104	0	60	86553
2026-01-02 06:13:13.84	29.24	8.07	-51.7	-54.1	3.6	0.00e+00	0	37	104	0	60	86189
2026-01-02 06:13:15.87	28.77	8.09	-51.8	-54.3	3.6	0.00e+00	0	37	104	0	60	87431
2026-01-02 06:13:17.89	28.30	8.11	-51.8	-54.3	3.6	0.00e+00	0	37	104	0	60	87696
2026-01-02 06:13:19.91	27.84	8.12	-51.8	-54.3	3.6	0.00e+00	0	37	104	0	60	87263
2026-01-02 06:13:21.93	27.37	8.14	-51.7	-54.2	3.6	0.00e+00	0	37	104	0	60	86238
2026-01-02 06:13:23.96	26.90	8.15	-51.7	-54.2	3.6	0.00e+00	0	37	104	0	60	86462
2026-01-02 06:13:25.98	26.43	8.17	-51.9	-54.3	3.6	0.00e+00	0	37	104	0	60	87976
2026-01-02 06:13:28.00	25.97	8.18	-52.1	-54.6	3.6	0.00e+00	0	37	104	0	60	90537
2026-01-02 06:13:30.02	25.50	8.18	-52.0	-54.5	3.6	0.00e+00	0	37	104	0	60	89910
2026-01-02 06:13:32.04	25.03	8.19	-52.0	-54.4	3.6	0.00e+00	0	37	104	0	60	89047
2026-01-02 06:13:34.07	24.56	8.20	-52.0	-54.5	3.6	0.00e+00	0	37	104	0	60	89396
2026-01-02 06:13:36.09	24.09	8.20	-51.8	-54.2	3.6	0.00e+00	0	37	104	0	60	87173
2026-01-02 06:13:38.11	23.62	8.21	-51.7	-54.2	3.6	0.00e+00	0	37	104	0	60	86500
2026-01-02 06:13:40.13	23.15	8.21	-51.7	-54.2	3.6	0.00e+00	0	37	104	0	60	86617
2026-01-02 06:13:42.15	22.68	8.21	-51.7	-54.2	3.6	0.00e+00	0	37	104	0	60	86591
2026-01-02 06:13:44.18	22.21	8.21	-51.8	-54.3	3.6	0.00e+00	0	37	104	0	60	87631
2026-01-02 06:13:46.20	21.74	8.20	-51.9	-54.3	3.6	0.00e+00	0	37	104	0	60	88123
2026-01-02 06:13:48.22	21.27	8.20	-51.7	-54.2	3.6	0.00e+00	0	37	104	0	60	86533
2026-01-02 06:13:50.24	20.80	8.19	-51.9	-54.4	3.6	0.00e+00	0	37	104	0	60	88538
2026-01-02 06:13:52.26	20.33	8.18	-51.7	-54.2	3.6	0.00e+00	0	37	104	0	60	86464
2026-01-02 06:13:54.28	19.86	8.17	-51.8	-54.2	3.6	0.00e+00	0	37	104	0	60	87139
2026-01-02 06:13:56.30	19.39	8.16	-51.8	-54.3	3.6	0.00e+00	0	37	104	0	60	87322
2026-01-02 06:13:58.32	18.93	8.15	-51.8	-54.3	3.6	0.00e+00	0	37	104	0	60	87475
2026-01-02 06:14:00.34	18.46	8.14	-51.9	-54.4	3.6	0.00e+00	0	37	104	0	60	88656
2026-01-02 06:14:02.36	17.99	8.12	-51.8	-54.2	3.6	0.00e+00	0	38	104	0	60	87118
2026-01-02 06:14:04.38	17.53	8.10	-51.8	-54.3	3.6	0.00e+00	0	37	104	0	60	87357
2026-01-02 06:14:06.40	17.06	8.08	-51.7	-54.1	3.6	0.00e+00	0	38	104	0	60	86185
2026-01-02 06:14:08.43	16.60	8.06	-51.7	-54.2	3.6	0.00e+00	0	37	104	0	60	86236
2026-01-02 06:14:10.45	16.13	8.04	-51.8	-54.2	3.6	0.00e+00	0	37	104	0	60	86974
2026-01-02 06:14:12.47	15.67	8.02	-51.8	-54.3	3.6	0.00e+00	0	37	104	0	60	87788
2026-01-02 06:14:14.49	15.21	7.99	-51.7	-54.2	3.6	0.00e+00	0	37	104	0	60	86831
2026-01-02 06:14:16.51	14.75	7.97	-51.7	-54.1	3.6	0.00e+00	0	37	104	0	60	85834
2026-01-02 06:14:18.53	14.29	7.94	-51.6	-54.1	3.6	0.00e+00	0	37	104	0	60	86064
2026-01-02 06:14:20.55	13.83	7.91	-51.6	-54.1	3.6	0.00e+00	0	37	104	0	60	85592
2026-01-02 06:14:22.58	13.37	7.88	-51.6	-54.1	3.6	0.00e+00	0	37	104	0	60	85301
2026-01-02 06:14:24.60	12.91	7.85	-51.5	-54.0	3.6	0.00e+00	0	37	104	0	60	84941
2026-01-02 06:14:26.62	12.46	7.82	-51.6	-54.0	3.6	0.00e+00	0	38	104	0	60	85147
2026-01-02 06:14:28.64	12.00	7.78	-51.6	-54.1	3.6	0.00e+00	0	37	104	0	60	85318
2026-01-02 06:14:30.66	11.55	7.75	-51.6	-54.1	3.6	0.00e+00	0	37	104	0	60	85705
2026-01-02 06:14:32.68	11.10	7.71	-51.6	-54.1	3.6	0.00e+00	0	37	104	0	60	85576
2026-01-02 06:14:34.71	10.65	7.67	-51.6	-54.1	3.6	0.00e+00	0	38	104	0	60	85559
2026-01-02 06:14:36.73	10.20	7.63	-51.6	-54.1	3.6	0.00e+00	0	37	104	0	60	85411
2026-01-02 06:14:38.75	9.75	7.59	-51.6	-54.0	3.6	0.00e+00	0	37	104	0	60	85089
2026-01-02 06:14:40.77	9.31	7.55	-51.7	-54.2	3.6	0.00e+00	0	37	104	0	60	86350
2026-01-02 06:14:42.80	8.86	7.50	-51.7	-54.1	3.6	0.00e+00	0	37	104	0	60	85657
2026-01-02 06:14:44.82	8.42	7.46	-51.7	-54.1	3.6	0.00e+00	0	37	104	0	60	86193
2026-01-02 06:14:46.84	7.98	7.41	-51.7	-54.2	3.6	0.00e+00	0	37	104	0	60	86814
2026-01-02 06:14:48.86	7.54	7.36	-51.8	-54.2	3.5	0.00e+00	0	37	104	0	60	86980
2026-01-02 06:14:50.88	7.11	7.31	-51.7	-54.2	3.6	0.00e+00	0	37	104	0	60	86223
2026-01-02 06:14:52.90	6.67	7.26	-51.7	-54.2	3.6	0.00e+00	0	38	104	0	60	86313
2026-01-02 06:14:54.93	6.24	7.21	-51.7	-54.1	3.6	0.00e+00	0	37	104	0	60	85558
2026-01-02 06:14:56.95	5.81	7.16	-51.6	-54.1	3.6	0.00e+00	0	37	104	0	60	85430
2026-01-02 06:14:58.97	5.38	7.11	-51.6	-54.1	3.6	0.00e+00	0	38	104	0	60	85287
2026-01-02 06:15:00.99	4.95	7.05	-51.6	-54.1	3.6	0.00e+00	0	38	104	0	60	85391
2026-01-02 06:15:03.01	4.53	7.00	-51.6	-54.0	3.6	0.00e+00	0	38	104	0	60	84819
2026-01-02 06:15:05.03	4.11	6.94	-51.6	-54.1	3.6	0.00e+00	0	38	104	0	60	85437
2026-01-02 06:15:07.05	3.69	6.88	-51.6	-54.1	3.6	0.00e+00	0	37	104	0	60	85839
2026-01-02 06:15:09.08	3.27	6.82	-51.6	-54.1	3.6	0.00e+00	0	37	104	0	60	85419
2026-01-02 06:15:11.10	2.85	6.76	-51.6	-54.1	3.6	0.00e+00	0	37	104	0	60	85296
2026-01-02 06:15:13.12	2.43	6.70	-51.6	-54.1	3.6	0.00e+00	0	37	104	0	60	85260
2026-01-02 06:15:15.14	2.02	6.64	-51.6	-54.0	3.6	0.00e+00	0	37	104	0	60	85054
2026-01-02 06:15:17.16	1.61	6.58	-51.6	-54.0	3.6	0.00e+00	0	37	104	0	60	84944
2026-01-02 06:15:19.18	1.21	6.51	-51.6	-54.0	3.6	0.00e+00	0	38	104	0	60	85093
2026-01-02 06:15:21.20	0.80	6.45	-51.6	-54.0	3.6	0.00e+00	0	38	104	0	60	84857
2026-01-02 06:15:23.23	0.39	6.38	-51.5	-54.0	3.6	0.00e+00	0	38	104	0	60	84750
2026-01-02 06:15:25.25	359.99	6.32	-51.6	-54.0	3.6	0.00e+00	0	37	104	0	60	85083
2026-01-02 06:15:27.27	359.60	6.25	-51.6	-54.1	3.6	0.00e+00	0	38	104	0	60	85412
2026-01-02 06:15:29.29	359.20	6.18	-51.6	-54.0	3.6	0.00e+00	0	38	104	0	60	85111
2026-01-02 06:15:31.31	358.81	6.11	-51.6	-54.0	3.6	0.00e+00	0	38	104	0	60	85053
2026-01-02 06:15:33.34	358.41	6.04	-51.6	-54.0	3.6	0.00e+00	0	37	104	0	60	85072
2026-01-02 06:15:35.36	358.02	5.97	-51.6	-54.1	3.6	0.00e+00	0	38	104	0	60	85349
2026-01-02 06:15:37.38	357.64	5.90	-51.6	-54.1	3.6	0.00e+00	0	38	104	0	60	85333
2026-01-02 06:15:39.40	357.25	5.83	-51.6	-54.1	3.6	0.00e+00	0	38	104	0	60	85621
2026-01-02 06:15:41.42	356.87	5.75	-51.6	-54.0	3.6	0.00e+00	0	38	104	0	60	84916
2026-01-02 06:15:43.44	356.49	5.68	-51.6	-54.0	3.6	0.00e+00	0	37	104	0	60	85038
2026-01-02 06:15:45.47	356.11	5.60	-51.6	-54.0	3.6	0.00e+00	0	38	104	0	60	84976
2026-01-02 06:15:47.49	355.74	5.53	-51.6	-54.0	3.6	0.00e+00	0	38	104	0	60	85027
2026-01-02 06:15:49.51	355.36	5.45	-51.6	-54.1	3.6	0.00e+00	0	37	104	0	60	85444
2026-01-02 06:15:51.53	354.99	5.38	-51.6	-54.1	3.6	0.00e+00	0	37	104	0	60	85948
2026-01-02 06:15:53.55	354.63	5.30	-51.6	-54.1	3.6	0.00e+00	0	37	104	0	60	85391
2026-01-02 06:15:55.57	354.26	5.22	-51.6	-54.1	3.6	0.00e+00	0	38	104	0	60	85346
2026-01-02 06:15:57.59	353.90	5.14	-51.6	-54.1	3.6	0.00e+00	0	37	104	0	60	85947
2026-01-02 06:15:59.61	353.54	5.06	-51.6	-54.1	3.6	0.00e+00	0	38	104	0	60	85655
2026-01-02 06:16:01.64	353.18	4.98	-51.6	-54.1	3.6	0.00e+00	0	38	104	0	60	85919
2026-01-02 06:16:03.66	352.82	4.90	-51.6	-54.1	3.6	0.00e+00	0	38	104	0	60	85759
2026-01-02 06:16:05.68	352.47	4.82	-51.6	-54.1	3.6	0.00e+00	0	38	104	0	60	85283
2026-01-02 06:16:07.70	352.12	4.74	-51.6	-54.1	3.6	0.00e+00	0	38	104	0	60	85702
2026-01-02 06:16:09.72	351.77	4.66	-51.6	-54.1	3.6	0.00e+00	0	38	104	0	60	85260
2026-01-02 06:16:11.74	351.43	4.58	-51.6	-54.1	3.6	0.00e+00	0	38	104	0	60	85750
2026-01-02 06:16:13.76	351.09	4.49	-51.7	-54.1	3.6	0.00e+00	0	37	104	0	60	86165
2026-01-02 06:16:15.79	350.74	4.41	-51.7	-54.2	3.6	0.00e+00	0	37	104	0	60	86450
2026-01-02 06:16:17.81	350.41	4.33	-51.6	-54.1	3.6	0.00e+00	0	38	104	0	60	85865
2026-01-02 06:16:19.83	350.07	4.24	-51.6	-54.1	3.6	0.00e+00	0	38	104	0	60	85275
2026-01-02 06:16:21.85	349.74	4.16	-51.6	-54.1	3.6	0.00e+00	0	38	104	0	60	85316
2026-01-02 06:16:23.87	349.41	4.07	-51.6	-54.1	3.6	0.00e+00	0	38	104	0	60	85502
2026-01-02 06:16:25.90	349.08	3.99	-51.6	-54.0	3.6	0.00e+00	0	38	104	0	60	84996
2026-01-02 06:16:27.92	348.75	3.90	-51.6	-54.1	3.6	0.00e+00	0	38	104	0	60	85706
2026-01-02 06:16:29.94	348.43	3.82	-51.6	-54.1	3.6	0.00e+00	0	38	104	0	60	85620
2026-01-02 06:16:31.96	348.11	3.73	-51.7	-54.1	3.5	0.00e+00	0	37	104	0	60	85775
2026-01-02 06:16:33.98	347.79	3.64	-51.6	-54.1	3.6	0.00e+00	0	38	104	0	60	85728
2026-01-02 06:16:36.00	347.47	3.55	-51.7	-54.2	3.6	0.00e+00	0	38	104	0	60	86598
2026-01-02 06:16:38.03	347.16	3.47	-51.7	-54.2	3.6	0.00e+00	0	38	104	0	60	86479
2026-01-02 06:16:40.05	346.85	3.38	-51.7	-54.2	3.6	0.00e+00	0	38	104	0	60	86923
2026-01-02 06:16:42.07	346.54	3.29	-51.6	-54.1	3.6	0.00e+00	0	38	104	0	60	85458
2026-01-02 06:16:44.09	346.23	3.20	-51.8	-54.2	3.6	0.00e+00	0	37	104	0	60	87033
2026-01-02 06:16:46.11	345.93	3.11	-51.8	-54.2	3.6	0.00e+00	0	38	104	0	60	86949
2026-01-02 06:16:48.14	345.62	3.03	-51.8	-54.3	3.6	0.00e+00	0	38	104	0	60	87472
2026-01-02 06:16:50.16	345.32	2.94	-51.8	-54.2	3.6	0.00e+00	0	38	104	0	60	87126
2026-01-02 06:16:52.18	345.03	2.85	-51.7	-54.2	3.6	0.00e+00	0	38	104	0	60	86425
2026-01-02 06:16:54.20	344.73	2.76	-51.7	-54.2	3.6	0.00e+00	0	38	104	0	60	86236
2026-01-02 06:16:56.22	344.44	2.67	-51.6	-54.1	3.6	0.00e+00	0	38	104	0	60	85435
2026-01-02 06:16:58.24	344.15	2.58	-51.8	-54.3	3.6	0.00e+00	0	38	104	0	60	87607
2026-01-02 06:17:00.26	343.86	2.49	-51.7	-54.2	3.6	0.00e+00	0	38	104	0	60	86457
2026-01-02 06:17:02.28	343.57	2.40	-51.7	-54.2	3.6	0.00e+00	0	38	104	0	60	86736
2026-01-02 06:17:04.30	343.29	2.31	-51.7	-54.1	3.6	0.00e+00	0	38	104	0	60	86073
2026-01-02 06:17:06.33	343.01	2.22	-51.8	-54.3	3.6	0.00e+00	0	38	104	0	60	87471
2026-01-02 06:17:08.35	342.73	2.13	-51.7	-54.2	3.6	0.00e+00	0	38	104	0	60	86308
2026-01-02 06:17:10.37	342.45	2.03	-51.8	-54.3	3.6	0.00e+00	0	38	104	0	60	87903
2026-01-02 06:17:12.39	342.18	1.94	-51.8	-54.2	3.6	0.00e+00	0	38	104	0	60	87003
2026-01-02 06:17:14.41	341.90	1.85	-51.7	-54.2	3.6	0.00e+00	0	38	104	0	60	86532
2026-01-02 06:17:16.44	341.63	1.76	-51.7	-54.2	3.6	0.00e+00	0	38	104	0	60	86800
2026-01-02 06:17:18.46	341.36	1.67	-51.7	-54.2	3.6	0.00e+00	0	38	104	0	60	86271
2026-01-02 06:17:20.48	341.10	1.58	-51.7	-54.1	3.6	0.00e+00	0	38	104	0	60	86152
2026-01-02 06:17:22.50	340.83	1.49	-51.6	-54.1	3.6	0.00e+00	0	38	104	0	60	85233
2026-01-02 06:17:24.52	340.57	1.39	-51.6	-54.1	3.6	0.00e+00	0	38	104	0	60	85700
2026-01-02 06:17:26.54	340.31	1.30	-51.8	-54.3	3.6	0.00e+00	0	38	104	0	60	87385
2026-01-02 06:17:28.56	340.05	1.21	-51.7	-54.2	3.6	0.00e+00	0	37	104	0	60	86583
2026-01-02 06:17:30.58	339.80	1.12	-51.7	-54.1	3.6	0.00e+00	0	38	104	0	60	86192
2026-01-02 06:17:32.61	339.54	1.03	-51.8	-54.2	3.6	0.00e+00	0	38	104	0	60	86761
2026-01-02 06:17:34.63	339.29	0.93	-51.7	-54.2	3.6	0.00e+00	0	38	104	0	60	86444
2026-01-02 06:17:36.65	339.04	0.84	-51.6	-54.1	3.6	0.00e+00	0	37	104	0	60	85860
2026-01-02 06:17:38.67	338.79	0.75	-51.7	-54.1	3.6	0.00e+00	0	38	104	0	60	85801
2026-01-02 06:17:40.69	338.55	0.66	-51.7	-54.1	3.6	0.00e+00	0	37	104	0	60	85728
2026-01-02 06:17:42.72	338.30	0.56	-51.7	-54.2	3.6	0.00e+00	0	38	104	0	60	86279
2026-01-02 06:17:44.74	338.06	0.47	-51.7	-54.2	3.6	0.00e+00	0	38	104	0	60	86391
2026-01-02 06:17:46.76	337.82	0.38	-51.6	-54.1	3.6	0.00e+00	0	38	104	0	60	85862
2026-01-02 06:17:48.78	337.58	0.29	-51.6	-54.1	3.6	0.00e+00	0	38	104	0	60	85934
2026-01-02 06:17:50.80	337.35	0.19	-51.7	-54.2	3.6	0.00e+00	0	38	104	0	60	86237
2026-01-02 06:17:52.82	337.11	0.10	-51.6	-54.1	3.6	0.00e+00	0	38	104	0	60	85830
2026-01-02 06:17:54.84	336.88	0.01	-51.7	-54.1	3.6	0.00e+00	0	38	104	0	60	85804
2026-01-02 06:17:56.87	336.65	-0.08	-51.6	-54.1	3.6	0.00e+00	0	38	104	0	60	85458

#Closed at: 2026-01-02 06:17:57
#Recorded file [0 MB]: D:/lorett/data/35034_260102_090929.dat