passes_logs/2026/01/02/R4.6S_Anadyr_2ch/R4.6S_Anadyr_2ch__20260102_220729_2025-108B_rec.log

#Pass ID: 20260102_220729_2025-108B
#Satellite: 2025-108B
#Configuration: 3PB_600M
#almurnet v.1.7.20251203
#Start time: 2026-01-02 22:07:34

#Version: 2.2.20231116
#Station: R4.6S_Anadyr_2ch
#Location: 177.4865 lon 64.73178 lat
#TLE: 1 64088U 25108B   25351.01672131  .00008460  00000+0  43413-3 0  9994
#TLE: 2 64088  97.4940  63.8579 0011684 285.1423  74.8517 15.16717580 31720

#Time	Az	El	Level	Level2	SNR	BER	BlckErr	Temp	State	Recorded	gain1	gain2
2026-01-02 22:07:34.74	21.94	0.27	-51.9	-53.3	3.3	0.00e+00	0	34	0	0	60	78014
2026-01-02 22:07:37.77	22.18	0.44	-51.6	-54.2	3.6	0.00e+00	0	35	104	0	60	86937
2026-01-02 22:07:40.80	22.42	0.61	-51.7	-54.3	3.6	0.00e+00	0	36	104	0	60	87794
2026-01-02 22:07:43.84	22.67	0.79	-51.6	-54.2	3.6	0.00e+00	0	36	104	0	60	87115
2026-01-02 22:07:46.87	22.92	0.96	-51.8	-54.3	3.6	0.00e+00	0	36	104	0	60	87324
2026-01-02 22:07:49.90	23.17	1.14	-51.4	-54.2	3.6	0.00e+00	0	36	104	0	60	86694
2026-01-02 22:07:52.93	23.42	1.31	-51.6	-54.3	3.6	0.00e+00	0	36	104	0	60	87507
2026-01-02 22:07:55.97	23.68	1.49	-51.9	-54.4	3.6	0.00e+00	0	36	104	0	60	88911
2026-01-02 22:07:59.00	23.95	1.67	-51.9	-54.4	3.6	0.00e+00	0	36	104	0	60	88862
2026-01-02 22:08:02.03	24.21	1.85	-51.9	-54.5	3.6	0.00e+00	0	37	104	0	60	89677
2026-01-02 22:08:05.06	24.49	2.03	-51.8	-54.4	3.6	0.00e+00	0	37	104	0	60	88914
2026-01-02 22:08:08.10	24.76	2.21	-51.2	-54.1	3.6	0.00e+00	0	37	104	0	60	85480
2026-01-02 22:08:11.13	25.04	2.39	-51.5	-54.2	3.6	0.00e+00	0	37	104	0	60	86761
2026-01-02 22:08:14.16	25.32	2.58	-51.9	-54.5	3.6	0.00e+00	0	37	104	0	60	89655
2026-01-02 22:08:17.19	25.61	2.76	-51.8	-54.4	3.6	0.00e+00	0	37	104	0	60	89180
2026-01-02 22:08:20.22	25.90	2.95	-50.3	-53.6	3.6	0.00e+00	0	37	104	0	60	80684
2026-01-02 22:08:23.25	26.20	3.13	-51.3	-54.2	3.6	0.00e+00	0	37	104	0	60	86524
2026-01-02 22:08:26.29	26.50	3.32	-51.8	-54.4	3.6	0.00e+00	0	37	104	0	60	89088
2026-01-02 22:08:29.32	26.81	3.51	-51.7	-54.4	3.6	0.00e+00	0	37	104	0	60	88592
2026-01-02 22:08:32.35	27.12	3.70	-51.5	-54.3	3.6	0.00e+00	0	37	104	0	60	88060
2026-01-02 22:08:35.38	27.43	3.89	-51.2	-54.1	3.6	0.00e+00	0	37	104	0	60	85738
2026-01-02 22:08:38.42	27.76	4.08	-50.8	-53.9	3.6	0.00e+00	0	37	104	0	60	84080
2026-01-02 22:08:41.45	28.08	4.28	-51.5	-54.3	3.6	0.00e+00	0	37	104	0	60	87776
2026-01-02 22:08:44.48	28.41	4.47	-51.6	-54.4	3.6	0.00e+00	0	37	104	0	60	88303
2026-01-02 22:08:47.52	28.75	4.67	-52.0	-54.5	3.5	0.00e+00	0	38	104	0	60	89737
2026-01-02 22:08:50.55	29.09	4.87	-52.0	-54.5	3.6	0.00e+00	0	38	104	0	60	90046
2026-01-02 22:08:53.58	29.44	5.06	-52.1	-54.6	3.6	0.00e+00	0	38	104	0	60	91050
2026-01-02 22:08:56.61	29.79	5.26	-52.1	-54.6	3.6	0.00e+00	0	38	104	0	60	90820
2026-01-02 22:08:59.64	30.15	5.47	-51.1	-54.2	3.6	0.00e+00	0	38	104	0	60	86614
2026-01-02 22:09:02.68	30.52	5.67	-51.8	-54.5	3.6	0.00e+00	0	38	104	0	60	89528
2026-01-02 22:09:05.71	30.89	5.87	-50.7	-53.9	3.6	0.00e+00	0	38	104	0	60	84100
2026-01-02 22:09:08.74	31.26	6.08	-49.4	-53.0	3.6	0.00e+00	0	38	104	0	60	75705
2026-01-02 22:09:11.77	31.65	6.28	-51.6	-54.3	3.5	0.00e+00	0	38	104	0	60	88214
2026-01-02 22:09:14.80	32.04	6.49	-51.9	-54.5	3.6	0.00e+00	0	38	104	0	60	89767
2026-01-02 22:09:17.83	32.43	6.70	-52.3	-54.7	3.6	0.00e+00	0	38	104	0	60	92179
2026-01-02 22:09:20.86	32.84	6.91	-52.0	-54.6	3.6	0.00e+00	0	38	104	0	60	90452
2026-01-02 22:09:23.89	33.25	7.12	-51.2	-54.1	3.6	0.00e+00	0	38	104	0	60	86032
2026-01-02 22:09:26.93	33.67	7.33	-52.1	-54.7	3.6	0.00e+00	0	38	104	0	60	91905
2026-01-02 22:09:29.96	34.09	7.54	-52.0	-54.6	3.6	0.00e+00	0	38	104	0	60	91243
2026-01-02 22:09:32.99	34.52	7.76	-51.8	-54.5	3.6	0.00e+00	0	38	104	0	60	89451
2026-01-02 22:09:36.02	34.96	7.97	-52.1	-54.7	3.6	0.00e+00	0	38	104	0	60	91403
2026-01-02 22:09:39.05	35.41	8.19	-50.4	-53.6	3.6	0.00e+00	0	38	104	0	60	81373
2026-01-02 22:09:42.09	35.87	8.41	-50.2	-53.7	3.6	0.00e+00	0	38	104	0	60	81863
2026-01-02 22:09:45.12	36.33	8.63	-50.6	-53.8	3.6	0.00e+00	0	38	104	0	60	83065
2026-01-02 22:09:48.15	36.81	8.85	-52.2	-54.8	3.6	0.00e+00	0	38	104	0	60	92672
2026-01-02 22:09:51.18	37.29	9.07	-51.8	-54.5	3.5	0.00e+00	0	38	104	0	60	89991
2026-01-02 22:09:54.21	37.78	9.29	-52.2	-54.7	3.6	0.00e+00	0	38	104	0	60	92240
2026-01-02 22:09:57.24	38.28	9.51	-52.0	-54.7	3.5	0.00e+00	0	38	104	0	60	91321
2026-01-02 22:10:00.28	38.79	9.74	-52.2	-54.7	3.6	0.00e+00	0	38	104	0	60	92182
2026-01-02 22:10:03.30	39.30	9.96	-51.8	-54.6	3.6	0.00e+00	0	38	104	0	60	90323
2026-01-02 22:10:06.33	39.83	10.19	-52.2	-54.7	3.6	0.00e+00	0	38	104	0	60	91854
2026-01-02 22:10:09.36	40.37	10.42	-51.2	-54.1	3.6	0.00e+00	0	38	104	0	60	85906
2026-01-02 22:10:12.39	40.91	10.64	-49.4	-53.1	3.6	0.00e+00	0	38	104	0	60	76532
2026-01-02 22:10:15.42	41.47	10.87	-52.1	-54.8	3.6	0.00e+00	0	38	104	0	60	92393
2026-01-02 22:10:18.45	42.04	11.10	-51.8	-54.5	3.6	0.00e+00	0	38	104	0	60	90144
2026-01-02 22:10:21.49	42.62	11.33	-52.2	-54.7	3.6	0.00e+00	0	38	104	0	60	92169
2026-01-02 22:10:24.52	43.21	11.56	-52.4	-54.8	3.6	0.00e+00	0	38	104	0	60	93289
2026-01-02 22:10:27.55	43.81	11.79	-52.1	-54.7	3.6	0.00e+00	0	38	104	0	60	91672
2026-01-02 22:10:30.58	44.42	12.02	-51.9	-54.5	3.6	0.00e+00	0	38	104	0	60	90080
2026-01-02 22:10:33.62	45.04	12.25	-51.5	-54.4	3.6	0.00e+00	0	38	104	0	60	88474
2026-01-02 22:10:36.65	45.68	12.49	-51.3	-54.3	3.6	0.00e+00	0	38	104	0	60	87658
2026-01-02 22:10:39.68	46.32	12.72	-51.2	-54.2	3.6	0.00e+00	0	38	104	0	60	86878
2026-01-02 22:10:42.71	46.98	12.95	-51.8	-54.6	3.6	0.00e+00	0	38	104	0	60	90645
2026-01-02 22:10:45.75	47.65	13.18	-52.2	-54.8	3.6	0.00e+00	0	38	104	0	60	93147
2026-01-02 22:10:48.78	48.33	13.41	-52.2	-54.8	3.6	0.00e+00	0	38	104	0	60	92755
2026-01-02 22:10:51.81	49.03	13.64	-52.1	-54.7	3.6	0.00e+00	0	38	104	0	60	92202
2026-01-02 22:10:54.85	49.74	13.87	-52.4	-54.9	3.6	0.00e+00	0	38	104	0	60	93615
2026-01-02 22:10:57.88	50.46	14.10	-52.0	-54.7	3.6	0.00e+00	0	39	104	0	60	91845
2026-01-02 22:11:00.91	51.19	14.33	-52.2	-54.7	3.6	0.00e+00	0	38	104	0	60	92323
2026-01-02 22:11:03.94	51.93	14.55	-52.2	-54.8	3.6	0.00e+00	0	38	104	0	60	92796
2026-01-02 22:11:06.97	52.69	14.78	-52.4	-54.9	3.6	0.00e+00	0	38	104	0	60	93991
2026-01-02 22:11:10.00	53.47	15.00	-52.1	-54.7	3.5	0.00e+00	0	38	104	0	60	92187
2026-01-02 22:11:13.03	54.25	15.22	-52.0	-54.7	3.6	0.00e+00	0	38	104	0	60	91536
2026-01-02 22:11:16.07	55.06	15.44	-52.4	-54.8	3.6	0.00e+00	0	38	104	0	60	93132
2026-01-02 22:11:19.10	55.87	15.66	-52.4	-54.9	3.6	0.00e+00	0	38	104	0	60	93789
2026-01-02 22:11:22.13	56.70	15.88	-52.3	-54.8	3.6	0.00e+00	0	38	104	0	60	92844
2026-01-02 22:11:25.16	57.54	16.09	-52.3	-54.8	3.6	0.00e+00	0	38	104	0	60	92775
2026-01-02 22:11:28.19	58.39	16.30	-52.1	-54.7	3.6	0.00e+00	0	38	104	0	60	92247
2026-01-02 22:11:31.22	59.26	16.51	-52.2	-54.8	3.6	0.00e+00	0	39	104	0	60	92637
2026-01-02 22:11:34.26	60.14	16.71	-52.2	-54.7	3.6	0.00e+00	0	38	104	0	60	92163
2026-01-02 22:11:37.29	61.04	16.91	-52.3	-54.9	3.6	0.00e+00	0	39	104	0	60	93475
2026-01-02 22:11:40.32	61.95	17.10	-52.4	-54.9	3.6	0.00e+00	0	39	104	0	60	93642
2026-01-02 22:11:43.35	62.87	17.29	-52.4	-54.9	3.6	0.00e+00	0	39	104	0	60	93709
2026-01-02 22:11:46.38	63.81	17.48	-52.4	-54.9	3.6	0.00e+00	0	39	104	0	60	93845
2026-01-02 22:11:49.42	64.76	17.66	-43.5	-43.9	5.3	0.00e+00	0	39	104	0	60	26482
2026-01-02 22:11:52.45	65.72	17.84	-43.8	-44.2	5.2	0.00e+00	0	39	104	0	60	27574
2026-01-02 22:11:55.48	66.70	18.01	-44.4	-44.8	5.1	0.00e+00	0	39	104	0	60	29430
2026-01-02 22:11:58.51	67.68	18.17	-44.7	-45.2	5.0	0.00e+00	0	38	104	0	60	30736
2026-01-02 22:12:01.55	68.69	18.33	-44.6	-45.1	5.0	0.00e+00	0	39	104	0	60	30488
2026-01-02 22:12:04.58	69.70	18.48	-44.7	-45.2	5.0	0.00e+00	0	39	104	0	60	30812
2026-01-02 22:12:07.61	70.72	18.62	-44.7	-45.3	5.0	0.00e+00	0	39	104	0	60	31025
2026-01-02 22:12:10.64	71.75	18.76	-44.4	-44.9	5.1	0.00e+00	0	39	104	0	60	29628
2026-01-02 22:12:13.67	72.80	18.89	-43.8	-44.2	5.1	0.00e+00	0	39	104	0	60	27564
2026-01-02 22:12:16.71	73.85	19.01	-43.6	-44.0	5.1	0.00e+00	0	39	104	0	60	26863
2026-01-02 22:12:19.73	74.91	19.13	-43.6	-43.9	5.2	0.00e+00	0	39	104	0	60	26476
2026-01-02 22:12:22.77	75.99	19.24	-43.3	-43.7	5.1	0.00e+00	0	39	104	0	60	25798
2026-01-02 22:12:25.80	77.07	19.33	-43.2	-43.5	5.3	0.00e+00	0	39	104	0	60	25420
2026-01-02 22:12:28.83	78.16	19.42	-42.6	-42.9	5.3	0.00e+00	0	39	104	0	60	23568
2026-01-02 22:12:31.86	79.25	19.50	-42.1	-42.4	5.5	0.00e+00	0	39	104	0	60	22206
2026-01-02 22:12:34.90	80.36	19.57	-42.1	-42.3	5.4	0.00e+00	0	38	104	0	60	22158
2026-01-02 22:12:37.93	81.46	19.63	-42.0	-42.3	5.5	0.00e+00	0	39	104	0	60	22044
2026-01-02 22:12:40.96	82.58	19.69	-41.6	-41.8	5.6	0.00e+00	0	39	104	0	60	20832
2026-01-02 22:12:43.99	83.69	19.73	-41.3	-41.6	5.6	0.00e+00	0	39	104	0	60	20439
2026-01-02 22:12:47.03	84.81	19.76	-41.3	-41.6	5.6	0.00e+00	0	39	104	0	60	20385
2026-01-02 22:12:50.06	85.94	19.79	-41.4	-41.7	5.6	0.00e+00	0	39	104	0	60	20529
2026-01-02 22:12:53.09	87.06	19.80	-41.5	-41.8	5.5	0.00e+00	0	39	104	0	60	20691
2026-01-02 22:12:56.13	88.19	19.80	-42.1	-42.4	5.4	0.00e+00	0	39	104	0	60	22410
2026-01-02 22:12:59.16	89.31	19.80	-41.6	-41.9	5.6	0.00e+00	0	39	104	0	60	20975
2026-01-02 22:13:02.19	90.43	19.78	-41.6	-41.9	5.6	0.00e+00	0	39	104	0	60	20940
2026-01-02 22:13:05.23	91.56	19.75	-41.5	-41.9	5.5	0.00e+00	0	39	104	0	60	21034
2026-01-02 22:13:08.26	92.68	19.72	-41.8	-42.2	5.6	0.00e+00	0	39	104	0	60	21821
2026-01-02 22:13:11.30	93.80	19.67	-41.5	-41.7	5.6	0.00e+00	0	39	104	0	60	20541
2026-01-02 22:13:14.33	94.91	19.61	-41.4	-41.7	5.6	0.00e+00	0	39	104	0	60	20448
2026-01-02 22:13:17.36	96.02	19.55	-41.2	-41.6	5.6	0.00e+00	0	39	104	0	60	20237
2026-01-02 22:13:20.39	97.12	19.47	-41.1	-41.3	5.6	0.00e+00	0	39	104	0	60	19606
2026-01-02 22:13:23.42	98.22	19.39	-41.2	-41.5	5.7	0.00e+00	0	39	104	0	60	20006
2026-01-02 22:13:26.45	99.31	19.30	-40.9	-41.1	5.6	0.00e+00	0	39	104	0	60	19294
2026-01-02 22:13:29.49	100.39	19.20	-41.2	-41.6	5.5	0.00e+00	0	39	104	0	60	20278
2026-01-02 22:13:32.52	101.47	19.09	-41.5	-41.8	5.5	0.00e+00	0	39	104	0	60	20813
2026-01-02 22:13:35.55	102.53	18.97	-41.6	-42.0	5.3	0.00e+00	0	39	104	0	60	21217
2026-01-02 22:13:38.59	103.59	18.84	-41.8	-42.1	5.5	0.00e+00	0	39	104	0	60	21514
2026-01-02 22:13:41.62	104.64	18.71	-42.0	-42.3	5.5	0.00e+00	0	39	104	0	60	21928
2026-01-02 22:13:44.65	105.67	18.57	-42.4	-42.7	5.4	0.00e+00	0	39	104	0	60	23132
2026-01-02 22:13:47.68	106.70	18.42	-42.5	-42.8	5.4	0.00e+00	0	39	104	0	60	23288
2026-01-02 22:13:50.72	107.71	18.26	-42.9	-43.3	5.4	0.00e+00	0	39	104	0	60	24841
2026-01-02 22:13:53.75	108.71	18.10	-43.3	-43.7	5.3	0.00e+00	0	39	104	0	60	25831
2026-01-02 22:13:56.78	109.70	17.93	-43.6	-43.9	5.2	0.00e+00	0	39	104	0	60	26533
2026-01-02 22:13:59.81	110.68	17.76	-43.7	-44.1	5.2	0.00e+00	0	39	104	0	60	27249
2026-01-02 22:14:02.84	111.64	17.58	-43.8	-44.3	5.1	0.00e+00	0	39	104	0	60	27687
2026-01-02 22:14:05.88	112.60	17.40	-44.0	-44.5	5.1	0.00e+00	0	39	104	0	60	28314
2026-01-02 22:14:08.91	113.54	17.21	-44.0	-44.4	5.1	0.00e+00	0	39	104	0	60	28153
2026-01-02 22:14:11.94	114.46	17.01	-44.0	-44.5	5.1	0.00e+00	0	39	104	0	60	28415
2026-01-02 22:14:14.97	115.37	16.81	-43.8	-44.3	5.1	0.00e+00	0	39	104	0	60	27589
2026-01-02 22:14:18.00	116.27	16.61	-43.7	-44.1	5.1	0.00e+00	0	39	104	0	60	27138
2026-01-02 22:14:21.04	117.16	16.40	-43.5	-43.9	5.1	0.00e+00	0	39	104	0	60	26461
2026-01-02 22:14:24.07	118.03	16.19	-43.7	-44.1	5.2	0.00e+00	0	39	104	0	60	27106
2026-01-02 22:14:27.10	118.89	15.98	-44.1	-44.5	5.1	0.00e+00	0	39	104	0	60	28541
2026-01-02 22:14:30.13	119.73	15.76	-44.1	-44.5	5.1	0.00e+00	0	39	104	0	60	28539
2026-01-02 22:14:33.17	120.56	15.54	-44.1	-44.5	5.1	0.00e+00	0	39	104	0	60	28476
2026-01-02 22:14:36.20	121.38	15.32	-44.2	-44.6	5.0	0.00e+00	0	39	104	0	60	28852
2026-01-02 22:14:39.23	122.18	15.10	-44.2	-44.7	5.1	0.00e+00	0	39	104	0	60	28983
2026-01-02 22:14:42.27	122.97	14.87	-44.8	-45.2	4.8	0.00e+00	0	39	104	0	60	30926
2026-01-02 22:14:45.30	123.74	14.65	-44.5	-45.0	5.0	0.00e+00	0	39	104	0	60	29965
2026-01-02 22:14:48.33	124.51	14.42	-44.6	-45.1	4.9	0.00e+00	0	39	104	0	60	30316
2026-01-02 22:14:51.37	125.26	14.19	-44.6	-45.1	4.9	0.00e+00	0	39	104	0	60	30401
2026-01-02 22:14:54.40	125.99	13.96	-44.6	-45.1	4.9	0.00e+00	0	39	104	0	60	30311
2026-01-02 22:14:57.43	126.71	13.72	-44.3	-44.8	4.9	0.00e+00	0	39	104	0	60	29481
2026-01-02 22:15:00.47	127.42	13.49	-44.2	-44.6	5.0	0.00e+00	0	39	104	0	60	28714
2026-01-02 22:15:03.50	128.12	13.26	-44.0	-44.4	5.0	0.00e+00	0	39	104	0	60	28147
2026-01-02 22:15:06.53	128.80	13.02	-43.8	-44.3	5.0	0.00e+00	0	39	104	0	60	27634
2026-01-02 22:15:09.56	129.47	12.79	-44.0	-44.5	5.0	0.00e+00	0	39	104	0	60	28250
2026-01-02 22:15:12.60	130.14	12.55	-44.1	-44.6	5.0	0.00e+00	0	39	104	0	60	28638
2026-01-02 22:15:15.63	130.78	12.32	-44.5	-45.0	4.9	0.00e+00	0	39	104	0	60	30116
2026-01-02 22:15:18.66	131.42	12.08	-44.6	-45.0	4.9	0.00e+00	0	39	104	0	60	30131
2026-01-02 22:15:21.69	132.04	11.85	-44.7	-45.2	4.9	0.00e+00	0	39	104	0	60	30879
2026-01-02 22:15:24.73	132.65	11.62	-44.9	-45.5	4.9	0.00e+00	0	39	104	0	60	31666
2026-01-02 22:15:27.76	133.26	11.38	-45.1	-45.6	4.9	0.00e+00	0	39	104	0	60	32095
2026-01-02 22:15:30.79	133.85	11.15	-45.1	-45.6	4.8	0.00e+00	0	39	104	0	60	32381
2026-01-02 22:15:33.83	134.43	10.92	-44.9	-45.4	4.9	0.00e+00	0	39	104	0	60	31525
2026-01-02 22:15:36.86	134.99	10.68	-44.8	-45.4	4.9	0.00e+00	0	39	104	0	60	31334
2026-01-02 22:15:39.89	135.55	10.45	-44.9	-45.4	4.9	0.00e+00	0	39	104	0	60	31435
2026-01-02 22:15:42.93	136.10	10.22	-44.9	-45.4	4.9	0.00e+00	0	39	104	0	60	31506
2026-01-02 22:15:45.96	136.64	9.99	-44.8	-45.3	4.9	0.00e+00	0	39	104	0	60	31123
2026-01-02 22:15:48.99	137.17	9.76	-44.9	-45.5	4.9	0.00e+00	0	39	104	0	60	31693
2026-01-02 22:15:52.02	137.68	9.53	-45.0	-45.5	4.9	0.00e+00	0	39	104	0	60	31706
2026-01-02 22:15:55.06	138.20	9.31	-45.0	-45.4	4.8	0.00e+00	0	39	104	0	60	31654
2026-01-02 22:15:58.09	138.69	9.08	-45.0	-45.5	4.8	0.00e+00	0	39	104	0	60	31984
2026-01-02 22:16:01.12	139.19	8.86	-45.0	-45.6	4.8	0.00e+00	0	39	104	0	60	32098
2026-01-02 22:16:04.15	139.67	8.63	-45.0	-45.5	4.8	0.00e+00	0	39	104	0	60	31846
2026-01-02 22:16:07.18	140.14	8.41	-45.1	-45.7	4.8	0.00e+00	0	39	104	0	60	32596
2026-01-02 22:16:10.21	140.60	8.19	-45.2	-45.8	4.8	0.00e+00	0	39	104	0	60	32972
2026-01-02 22:16:13.24	141.06	7.97	-45.4	-45.9	4.8	0.00e+00	0	39	104	0	60	33413
2026-01-02 22:16:16.27	141.51	7.75	-45.2	-45.7	4.8	0.00e+00	0	39	104	0	60	32423
2026-01-02 22:16:19.31	141.95	7.53	-45.4	-46.0	4.7	0.00e+00	0	39	104	0	60	33871
2026-01-02 22:16:22.34	142.38	7.31	-45.2	-45.7	4.7	0.00e+00	0	39	104	0	60	32587
2026-01-02 22:16:25.37	142.81	7.10	-45.3	-45.8	4.7	0.00e+00	0	39	104	0	60	33091
2026-01-02 22:16:28.40	143.23	6.88	-45.4	-45.9	4.7	0.00e+00	0	39	104	0	60	33526
2026-01-02 22:16:31.44	143.64	6.67	-45.6	-46.2	4.7	0.00e+00	0	39	104	0	60	34513
2026-01-02 22:16:34.47	144.04	6.46	-45.7	-46.4	4.6	0.00e+00	0	39	104	0	60	35128
2026-01-02 22:16:37.50	144.44	6.25	-45.8	-46.4	4.5	0.00e+00	0	39	104	0	60	35341
2026-01-02 22:16:40.53	144.83	6.04	-45.8	-46.4	4.6	0.00e+00	0	39	104	0	60	35214
2026-01-02 22:16:43.56	145.21	5.83	-46.0	-46.6	4.5	0.00e+00	0	39	104	0	60	36301
2026-01-02 22:16:46.60	145.59	5.62	-46.2	-46.9	4.3	0.00e+00	0	39	104	0	60	37620
2026-01-02 22:16:49.63	145.96	5.42	-46.5	-47.4	4.1	0.00e+00	0	39	104	0	60	39667
2026-01-02 22:16:52.66	146.32	5.22	-47.2	-48.3	3.9	0.00e+00	0	39	104	0	60	43988
2026-01-02 22:16:55.69	146.68	5.01	-47.5	-49.0	3.7	0.00e+00	0	39	104	0	60	47485
2026-01-02 22:16:58.72	147.03	4.81	-47.9	-49.7	3.6	0.00e+00	0	39	104	0	60	51636
2026-01-02 22:17:01.75	147.38	4.61	-48.1	-50.2	3.6	0.00e+00	0	39	104	0	60	54479
2026-01-02 22:17:04.78	147.72	4.41	-48.1	-50.4	3.6	0.00e+00	0	39	104	0	60	55971
2026-01-02 22:17:07.81	148.05	4.21	-48.0	-50.4	3.6	0.00e+00	0	39	104	0	60	56135
2026-01-02 22:17:10.85	148.39	4.02	-47.9	-50.4	3.6	0.00e+00	0	39	104	0	60	56036
2026-01-02 22:17:13.88	148.71	3.82	-47.9	-50.4	3.6	0.00e+00	0	39	104	0	60	55759
2026-01-02 22:17:16.91	149.03	3.63	-47.8	-50.3	3.6	0.00e+00	0	39	104	0	60	55167
2026-01-02 22:17:19.94	149.34	3.43	-47.8	-50.3	3.6	0.00e+00	0	39	104	0	60	55483
2026-01-02 22:17:22.97	149.65	3.24	-47.8	-50.3	3.6	0.00e+00	0	39	104	0	60	55195
2026-01-02 22:17:26.01	149.96	3.05	-47.8	-50.3	3.6	0.00e+00	0	39	104	0	60	55088
2026-01-02 22:17:29.04	150.26	2.86	-47.8	-50.2	3.6	0.00e+00	0	39	104	0	60	54933
2026-01-02 22:17:32.07	150.55	2.67	-47.8	-50.2	3.6	0.00e+00	0	39	104	0	60	54894
2026-01-02 22:17:35.11	150.85	2.48	-51.8	-54.3	3.6	0.00e+00	0	39	104	0	60	87694
2026-01-02 22:17:38.14	151.13	2.30	-52.4	-55.0	3.6	0.00e+00	0	39	104	0	60	94546
2026-01-02 22:17:41.17	151.41	2.11	-52.5	-55.0	3.6	0.00e+00	0	39	104	0	60	94965
2026-01-02 22:17:44.20	151.69	1.93	-52.5	-55.0	3.6	0.00e+00	0	39	104	0	60	94656
2026-01-02 22:17:47.23	151.96	1.75	-52.5	-55.0	3.6	0.00e+00	0	39	104	0	60	94728
2026-01-02 22:17:50.27	152.24	1.56	-52.6	-55.0	3.6	0.00e+00	0	39	104	0	60	94717
2026-01-02 22:17:53.30	152.50	1.38	-52.5	-55.0	3.6	0.00e+00	0	39	104	0	60	94735
2026-01-02 22:17:56.33	152.76	1.20	-52.5	-54.9	3.6	0.00e+00	0	39	104	0	60	94419
2026-01-02 22:17:59.36	153.02	1.02	-52.5	-55.0	3.6	0.00e+00	0	39	104	0	60	94537
2026-01-02 22:18:02.40	153.28	0.85	-52.5	-55.0	3.6	0.00e+00	0	39	104	0	60	94600
2026-01-02 22:18:05.42	153.53	0.67	-52.5	-55.0	3.6	0.00e+00	0	39	104	0	60	94649
2026-01-02 22:18:08.46	153.77	0.49	-52.5	-55.0	3.6	0.00e+00	0	39	104	0	60	94548
2026-01-02 22:18:11.48	154.02	0.32	-52.5	-54.9	3.6	0.00e+00	0	39	104	0	60	94250
2026-01-02 22:18:14.51	154.26	0.15	-52.5	-55.0	3.6	0.00e+00	0	39	104	0	60	94804
2026-01-02 22:18:17.55	154.49	-0.03	-52.5	-54.9	3.6	0.00e+00	0	39	104	0	60	94411

#Closed at: 2026-01-02 22:18:18
#Recorded file [0 MB]: D:/lorett/data/35034_260103_010734.dat