passes_logs/2026/01/02/R4.6S_Anadyr_2ch/R4.6S_Anadyr_2ch__20260102_104848_2025-108B_rec.log

#Pass ID: 20260102_104848_2025-108B
#Satellite: 2025-108B
#Configuration: 3PB_600M
#almurnet v.1.7.20251203
#Start time: 2026-01-02 10:48:52

#Version: 2.2.20231116
#Station: R4.6S_Anadyr_2ch
#Location: 177.4865 lon 64.73178 lat
#TLE: 1 64088U 25108B   25351.01672131  .00008460  00000+0  43413-3 0  9994
#TLE: 2 64088  97.4940  63.8579 0011684 285.1423  74.8517 15.16717580 31720

#Time	Az	El	Level	Level2	SNR	BER	BlckErr	Temp	State	Recorded	gain1	gain2
2026-01-02 10:48:52.03	196.90	0.21	-51.9	-52.9	3.3	0.00e+00	0	36	0	0	60	74914
2026-01-02 10:48:55.06	197.09	0.39	-51.9	-54.5	3.6	0.00e+00	0	36	104	0	60	89266
2026-01-02 10:48:58.09	197.29	0.57	-51.9	-54.4	3.6	0.00e+00	0	36	104	0	60	88703
2026-01-02 10:49:01.12	197.50	0.75	-52.0	-54.4	3.6	0.00e+00	0	36	104	0	60	88752
2026-01-02 10:49:04.15	197.70	0.94	-51.9	-54.4	3.6	0.00e+00	0	36	104	0	60	88807
2026-01-02 10:49:07.18	197.91	1.13	-51.9	-54.4	3.6	0.00e+00	0	36	104	0	60	88830
2026-01-02 10:49:10.22	198.12	1.31	-52.0	-54.4	3.6	0.00e+00	0	36	104	0	60	88974
2026-01-02 10:49:13.25	198.34	1.50	-52.0	-54.4	3.6	0.00e+00	0	36	104	0	60	89047
2026-01-02 10:49:16.28	198.56	1.69	-52.0	-54.4	3.6	0.00e+00	0	36	104	0	60	89177
2026-01-02 10:49:19.32	198.78	1.88	-52.0	-54.4	3.6	0.00e+00	0	36	104	0	60	88699
2026-01-02 10:49:22.35	199.01	2.07	-52.0	-54.4	3.6	0.00e+00	0	36	104	0	60	89204
2026-01-02 10:49:25.38	199.23	2.27	-52.0	-54.4	3.6	0.00e+00	0	36	104	0	60	89045
2026-01-02 10:49:28.41	199.47	2.46	-52.0	-54.4	3.6	0.00e+00	0	37	104	0	60	88822
2026-01-02 10:49:31.44	199.70	2.66	-52.0	-54.5	3.6	0.00e+00	0	37	104	0	60	89357
2026-01-02 10:49:34.47	199.94	2.86	-52.0	-54.5	3.6	0.00e+00	0	37	104	0	60	89349
2026-01-02 10:49:37.51	200.19	3.06	-52.0	-54.4	3.6	0.00e+00	0	37	104	0	60	89207
2026-01-02 10:49:40.54	200.44	3.26	-51.9	-54.4	3.6	0.00e+00	0	37	104	0	60	88739
2026-01-02 10:49:43.57	200.69	3.46	-52.0	-54.4	3.6	0.00e+00	0	37	104	0	60	88914
2026-01-02 10:49:46.61	200.94	3.67	-51.9	-54.4	3.6	0.00e+00	0	37	104	0	60	88822
2026-01-02 10:49:49.64	201.21	3.87	-52.0	-54.4	3.6	0.00e+00	0	37	104	0	60	89003
2026-01-02 10:49:52.67	201.47	4.08	-51.9	-54.4	3.6	0.00e+00	0	37	104	0	60	88437
2026-01-02 10:49:55.70	201.74	4.29	-51.9	-54.3	3.6	0.00e+00	0	37	104	0	60	88120
2026-01-02 10:49:58.74	202.01	4.50	-51.9	-54.4	3.6	0.00e+00	0	37	104	0	60	88464
2026-01-02 10:50:01.77	202.29	4.71	-51.9	-54.4	3.6	0.00e+00	0	37	104	0	60	89230
2026-01-02 10:50:04.80	202.58	4.93	-51.9	-54.4	3.6	0.00e+00	0	37	104	0	60	88765
2026-01-02 10:50:07.83	202.87	5.14	-51.9	-54.4	3.6	0.00e+00	0	37	104	0	60	88764
2026-01-02 10:50:10.86	203.16	5.36	-51.9	-54.3	3.6	0.00e+00	0	37	104	0	60	88043
2026-01-02 10:50:13.90	203.46	5.58	-51.9	-54.4	3.6	0.00e+00	0	38	104	0	60	88401
2026-01-02 10:50:16.93	203.77	5.80	-51.9	-54.4	3.6	0.00e+00	0	38	104	0	60	88422
2026-01-02 10:50:19.96	204.08	6.03	-51.9	-54.4	3.6	0.00e+00	0	38	104	0	60	88694
2026-01-02 10:50:23.00	204.39	6.25	-51.9	-54.4	3.5	0.00e+00	0	38	104	0	60	88504
2026-01-02 10:50:26.03	204.71	6.48	-51.9	-54.4	3.6	0.00e+00	0	38	104	0	60	88521
2026-01-02 10:50:29.06	205.04	6.71	-51.9	-54.4	3.6	0.00e+00	0	38	104	0	60	88466
2026-01-02 10:50:32.09	205.38	6.94	-51.9	-54.4	3.6	0.00e+00	0	38	104	0	60	88654
2026-01-02 10:50:35.12	205.72	7.17	-51.9	-54.4	3.6	0.00e+00	0	38	104	0	60	89107
2026-01-02 10:50:38.16	206.07	7.41	-52.0	-54.4	3.6	0.00e+00	0	38	104	0	60	88576
2026-01-02 10:50:41.19	206.42	7.65	-52.0	-54.4	3.6	0.00e+00	0	38	104	0	60	89196
2026-01-02 10:50:44.22	206.78	7.89	-52.0	-54.5	3.6	0.00e+00	0	38	104	0	60	89259
2026-01-02 10:50:47.25	207.15	8.13	-52.0	-54.5	3.6	0.00e+00	0	38	104	0	60	89369
2026-01-02 10:50:50.28	207.52	8.37	-52.0	-54.4	3.6	0.00e+00	0	38	104	0	60	88952
2026-01-02 10:50:53.31	207.90	8.62	-52.0	-54.4	3.6	0.00e+00	0	38	104	0	60	89174
2026-01-02 10:50:56.34	208.30	8.87	-52.0	-54.4	3.6	0.00e+00	0	38	104	0	60	88827
2026-01-02 10:50:59.38	208.69	9.12	-52.0	-54.5	3.6	0.00e+00	0	38	104	0	60	89269
2026-01-02 10:51:02.41	209.10	9.37	-52.0	-54.4	3.6	0.00e+00	0	38	104	0	60	88995
2026-01-02 10:51:05.44	209.52	9.63	-52.0	-54.4	3.6	0.00e+00	0	38	104	0	60	88989
2026-01-02 10:51:08.47	209.94	9.88	-52.0	-54.4	3.6	0.00e+00	0	38	104	0	60	88658
2026-01-02 10:51:11.51	210.37	10.14	-52.0	-54.4	3.5	0.00e+00	0	38	104	0	60	89227
2026-01-02 10:51:14.54	210.81	10.40	-51.9	-54.5	3.6	0.00e+00	0	38	104	0	60	89250
2026-01-02 10:51:17.57	211.26	10.67	-52.0	-54.4	3.6	0.00e+00	0	38	104	0	60	88708
2026-01-02 10:51:20.61	211.73	10.94	-52.0	-54.4	3.6	0.00e+00	0	38	104	0	60	89012
2026-01-02 10:51:23.64	212.20	11.20	-52.0	-54.4	3.6	0.00e+00	0	38	104	0	60	88613
2026-01-02 10:51:26.67	212.68	11.48	-52.0	-54.4	3.6	0.00e+00	0	38	104	0	60	89069
2026-01-02 10:51:29.70	213.17	11.75	-52.0	-54.4	3.6	0.00e+00	0	38	104	0	60	88883
2026-01-02 10:51:32.74	213.67	12.03	-52.0	-54.4	3.6	0.00e+00	0	38	104	0	60	88981
2026-01-02 10:51:35.77	214.18	12.30	-52.0	-54.5	3.6	0.00e+00	0	38	104	0	60	89442
2026-01-02 10:51:38.80	214.71	12.58	-52.0	-54.4	3.6	0.00e+00	0	38	104	0	60	89002
2026-01-02 10:51:41.83	215.24	12.87	-52.0	-54.4	3.6	0.00e+00	0	38	104	0	60	88991
2026-01-02 10:51:44.86	215.79	13.15	-52.0	-54.4	3.6	0.00e+00	0	38	104	0	60	88944
2026-01-02 10:51:47.90	216.35	13.44	-52.0	-54.4	3.6	0.00e+00	0	38	104	0	60	88872
2026-01-02 10:51:50.93	216.92	13.73	-52.0	-54.4	3.6	0.00e+00	0	38	104	0	60	88756
2026-01-02 10:51:53.96	217.51	14.02	-52.0	-54.4	3.6	0.00e+00	0	38	104	0	60	88431
2026-01-02 10:51:56.99	218.11	14.31	-52.0	-54.4	3.6	0.00e+00	0	38	104	0	60	88860
2026-01-02 10:52:00.02	218.72	14.61	-51.9	-54.4	3.6	0.00e+00	0	38	104	0	60	88875
2026-01-02 10:52:03.05	219.35	14.90	-52.0	-54.4	3.6	0.00e+00	0	39	104	0	60	88840
2026-01-02 10:52:06.09	219.99	15.20	-52.0	-54.4	3.6	0.00e+00	0	39	104	0	60	88887
2026-01-02 10:52:09.12	220.65	15.50	-52.0	-54.4	3.6	0.00e+00	0	38	104	0	60	88828
2026-01-02 10:52:12.15	221.32	15.80	-52.0	-54.4	3.6	0.00e+00	0	38	104	0	60	88849
2026-01-02 10:52:15.19	222.01	16.11	-52.0	-54.4	3.6	0.00e+00	0	39	104	0	60	88948
2026-01-02 10:52:18.22	222.71	16.41	-52.0	-54.4	3.6	0.00e+00	0	39	104	0	60	88721
2026-01-02 10:52:21.25	223.43	16.72	-52.0	-54.4	3.6	0.00e+00	0	39	104	0	60	88798
2026-01-02 10:52:24.28	224.16	17.02	-52.0	-54.4	3.6	0.00e+00	0	39	104	0	60	88464
2026-01-02 10:52:27.31	224.92	17.33	-52.0	-54.5	3.6	0.00e+00	0	39	104	0	60	89430
2026-01-02 10:52:30.35	225.69	17.64	-52.0	-54.4	3.6	0.00e+00	0	39	104	0	60	88841
2026-01-02 10:52:33.38	226.48	17.95	-52.0	-54.4	3.6	0.00e+00	0	39	104	0	60	89079
2026-01-02 10:52:36.41	227.28	18.25	-52.0	-54.4	3.6	0.00e+00	0	39	104	0	60	88812
2026-01-02 10:52:39.44	228.11	18.56	-52.0	-54.4	3.6	0.00e+00	0	39	104	0	60	88849
2026-01-02 10:52:42.47	228.95	18.87	-52.0	-54.4	3.6	0.00e+00	0	39	104	0	60	88459
2026-01-02 10:52:45.50	229.81	19.17	-52.0	-54.4	3.6	0.00e+00	0	39	104	0	60	88761
2026-01-02 10:52:48.53	230.69	19.48	-52.0	-54.4	3.6	0.00e+00	0	39	104	0	60	88676
2026-01-02 10:52:51.56	231.60	19.78	-52.0	-54.4	3.6	0.00e+00	0	39	104	0	60	88551
2026-01-02 10:52:54.60	232.52	20.08	-52.0	-54.4	3.6	0.00e+00	0	39	104	0	60	88696
2026-01-02 10:52:57.63	233.46	20.38	-52.0	-54.4	3.6	0.00e+00	0	39	104	0	60	88864
2026-01-02 10:53:00.66	234.42	20.67	-52.0	-54.4	3.6	0.00e+00	0	39	104	0	60	89147
2026-01-02 10:53:03.69	235.41	20.97	-52.0	-54.4	3.6	0.00e+00	0	39	104	0	60	89032
2026-01-02 10:53:06.73	236.41	21.26	-52.0	-54.4	3.6	0.00e+00	0	39	104	0	60	88824
2026-01-02 10:53:09.76	237.44	21.54	-52.0	-54.4	3.6	0.00e+00	0	39	104	0	60	88758
2026-01-02 10:53:12.79	238.48	21.82	-52.0	-54.5	3.6	0.00e+00	0	39	104	0	60	89346
2026-01-02 10:53:15.83	239.55	22.09	-52.0	-54.4	3.6	0.00e+00	0	39	104	0	60	89233
2026-01-02 10:53:18.86	240.63	22.36	-52.0	-54.4	3.6	0.00e+00	0	39	104	0	60	89136
2026-01-02 10:53:21.89	241.74	22.62	-52.0	-54.4	3.6	0.00e+00	0	39	104	0	60	88756
2026-01-02 10:53:24.92	242.87	22.88	-52.0	-54.4	3.6	0.00e+00	0	39	104	0	60	88687
2026-01-02 10:53:27.96	244.02	23.13	-51.9	-54.4	3.6	0.00e+00	0	39	104	0	60	88732
2026-01-02 10:53:30.99	245.18	23.36	-51.9	-54.4	3.6	0.00e+00	0	39	104	0	60	88664
2026-01-02 10:53:34.02	246.37	23.59	-51.9	-54.4	3.6	0.00e+00	0	38	104	0	60	88709
2026-01-02 10:53:37.08	247.58	23.82	-51.9	-54.4	3.6	0.00e+00	0	38	104	0	60	88478
2026-01-02 10:53:40.03	248.77	24.02	-51.9	-54.3	3.6	0.00e+00	0	39	104	0	60	88150
2026-01-02 10:53:43.06	250.01	24.22	-52.0	-54.4	3.6	0.00e+00	0	38	104	0	60	89152
2026-01-02 10:53:46.09	251.27	24.41	-51.9	-54.4	3.6	0.00e+00	0	39	104	0	60	88522
2026-01-02 10:53:49.12	252.54	24.59	-51.9	-54.4	3.6	0.00e+00	0	39	104	0	60	88704
2026-01-02 10:53:52.16	253.83	24.75	-51.9	-54.4	3.6	0.00e+00	0	39	104	0	60	88744
2026-01-02 10:53:55.19	255.13	24.90	-51.9	-54.4	3.6	0.00e+00	0	38	104	0	60	88610
2026-01-02 10:53:58.22	256.44	25.04	-51.9	-54.4	3.6	0.00e+00	0	38	104	0	60	89022
2026-01-02 10:54:01.26	257.77	25.16	-51.9	-54.3	3.6	0.00e+00	0	38	104	0	60	88148
2026-01-02 10:54:04.29	259.11	25.27	-51.9	-54.4	3.6	0.00e+00	0	38	104	0	60	88405
2026-01-02 10:54:07.33	260.46	25.37	-51.9	-54.4	3.5	0.00e+00	0	38	104	0	60	88263
2026-01-02 10:54:10.36	261.81	25.45	-51.9	-54.3	3.6	0.00e+00	0	39	104	0	60	88051
2026-01-02 10:54:13.39	263.17	25.51	-51.9	-54.4	3.6	0.00e+00	0	39	104	0	60	88712
2026-01-02 10:54:16.42	264.54	25.56	-51.9	-54.3	3.6	0.00e+00	0	39	104	0	60	88094
2026-01-02 10:54:19.45	265.90	25.59	-51.9	-54.3	3.6	0.00e+00	0	38	104	0	60	88186
2026-01-02 10:54:22.48	267.28	25.61	-51.9	-54.4	3.6	0.00e+00	0	39	104	0	60	88645
2026-01-02 10:54:25.52	268.65	25.61	-51.9	-54.3	3.6	0.00e+00	0	38	104	0	60	87988
2026-01-02 10:54:28.55	270.02	25.60	-51.9	-54.4	3.6	0.00e+00	0	39	104	0	60	88726
2026-01-02 10:54:31.58	271.39	25.57	-51.9	-54.4	3.5	0.00e+00	0	39	104	0	60	88373
2026-01-02 10:54:34.62	272.76	25.52	-51.9	-54.4	3.6	0.00e+00	0	38	104	0	60	88441
2026-01-02 10:54:37.65	274.12	25.46	-51.9	-54.4	3.6	0.00e+00	0	38	104	0	60	88811
2026-01-02 10:54:40.68	275.47	25.38	-52.0	-54.5	3.6	0.00e+00	0	38	104	0	60	89302
2026-01-02 10:54:43.71	276.81	25.28	-51.9	-54.4	3.6	0.00e+00	0	38	104	0	60	88617
2026-01-02 10:54:46.75	278.15	25.18	-51.9	-54.4	3.6	0.00e+00	0	39	104	0	60	88706
2026-01-02 10:54:49.78	279.48	25.05	-51.9	-54.4	3.6	0.00e+00	0	38	104	0	60	88460
2026-01-02 10:54:52.81	280.79	24.92	-51.9	-54.4	3.6	0.00e+00	0	38	104	0	60	88537
2026-01-02 10:54:55.85	282.09	24.77	-51.9	-54.4	3.6	0.00e+00	0	39	104	0	60	88997
2026-01-02 10:54:58.88	283.38	24.61	-51.9	-54.4	3.6	0.00e+00	0	39	104	0	60	88442
2026-01-02 10:55:01.91	284.65	24.43	-51.9	-54.3	3.6	0.00e+00	0	39	104	0	60	88018
2026-01-02 10:55:04.95	285.91	24.24	-51.9	-54.4	3.6	0.00e+00	0	39	104	0	60	88854
2026-01-02 10:55:07.98	287.15	24.05	-51.9	-54.4	3.6	0.00e+00	0	39	104	0	60	88257
2026-01-02 10:55:11.01	288.37	23.84	-51.9	-54.4	3.6	0.00e+00	0	39	104	0	60	88237
2026-01-02 10:55:14.05	289.57	23.62	-51.9	-54.4	3.6	0.00e+00	0	39	104	0	60	88450
2026-01-02 10:55:17.08	290.76	23.39	-51.9	-54.3	3.6	0.00e+00	0	39	104	0	60	88210
2026-01-02 10:55:20.11	291.92	23.15	-51.9	-54.4	3.6	0.00e+00	0	39	104	0	60	88507
2026-01-02 10:55:23.15	293.07	22.91	-52.0	-54.4	3.6	0.00e+00	0	39	104	0	60	88985
2026-01-02 10:55:26.18	294.19	22.65	-52.0	-54.4	3.6	0.00e+00	0	38	104	0	60	88876
2026-01-02 10:55:29.21	295.30	22.39	-51.9	-54.4	3.6	0.00e+00	0	39	104	0	60	88318
2026-01-02 10:55:32.25	296.39	22.13	-51.9	-54.4	3.6	0.00e+00	0	38	104	0	60	88359
2026-01-02 10:55:35.28	297.45	21.85	-51.9	-54.4	3.6	0.00e+00	0	39	104	0	60	88332
2026-01-02 10:55:38.31	298.49	21.58	-51.9	-54.4	3.6	0.00e+00	0	38	104	0	60	88882
2026-01-02 10:55:41.35	299.52	21.29	-51.9	-54.4	3.6	0.00e+00	0	39	104	0	60	88895
2026-01-02 10:55:44.38	300.52	21.01	-51.9	-54.4	3.6	0.00e+00	0	38	104	0	60	88591
2026-01-02 10:55:47.41	301.50	20.72	-51.9	-54.3	3.6	0.00e+00	0	39	104	0	60	88173
2026-01-02 10:55:50.45	302.46	20.42	-51.9	-54.4	3.6	0.00e+00	0	39	104	0	60	88247
2026-01-02 10:55:53.48	303.40	20.13	-51.9	-54.4	3.6	0.00e+00	0	39	104	0	60	88805
2026-01-02 10:55:56.52	304.32	19.83	-51.9	-54.4	3.6	0.00e+00	0	39	104	0	60	88267
2026-01-02 10:55:59.55	305.22	19.53	-51.9	-54.3	3.6	0.00e+00	0	39	104	0	60	87909
2026-01-02 10:56:02.58	306.10	19.22	-51.9	-54.4	3.6	0.00e+00	0	39	104	0	60	88342
2026-01-02 10:56:05.62	306.97	18.92	-51.9	-54.4	3.6	0.00e+00	0	39	104	0	60	88696
2026-01-02 10:56:08.65	307.81	18.62	-51.9	-54.3	3.6	0.00e+00	0	39	104	0	60	87972
2026-01-02 10:56:11.69	308.63	18.31	-51.9	-54.4	3.6	0.00e+00	0	39	104	0	60	88244
2026-01-02 10:56:14.72	309.44	18.00	-51.9	-54.4	3.6	0.00e+00	0	39	104	0	60	88423
2026-01-02 10:56:17.75	310.22	17.70	-51.9	-54.4	3.6	0.00e+00	0	38	104	0	60	88259
2026-01-02 10:56:20.78	310.99	17.39	-51.9	-54.4	3.6	0.00e+00	0	38	104	0	60	88319
2026-01-02 10:56:23.82	311.75	17.09	-51.9	-54.4	3.6	0.00e+00	0	39	104	0	60	88724
2026-01-02 10:56:26.85	312.48	16.78	-51.9	-54.3	3.6	0.00e+00	0	39	104	0	60	87817
2026-01-02 10:56:29.89	313.20	16.48	-51.9	-54.4	3.6	0.00e+00	0	38	104	0	60	88570
2026-01-02 10:56:32.92	313.90	16.18	-51.9	-54.4	3.6	0.00e+00	0	39	104	0	60	88502
2026-01-02 10:56:35.95	314.59	15.88	-51.9	-54.3	3.6	0.00e+00	0	39	104	0	60	88139
2026-01-02 10:56:38.98	315.26	15.58	-51.9	-54.3	3.6	0.00e+00	0	39	104	0	60	87965
2026-01-02 10:56:42.02	315.92	15.28	-51.9	-54.4	3.6	0.00e+00	0	39	104	0	60	88428
2026-01-02 10:56:45.05	316.56	14.98	-51.9	-54.3	3.6	0.00e+00	0	39	104	0	60	88076
2026-01-02 10:56:48.08	317.18	14.69	-51.9	-54.4	3.6	0.00e+00	0	39	104	0	60	88434
2026-01-02 10:56:51.12	317.80	14.39	-51.9	-54.4	3.6	0.00e+00	0	39	104	0	60	88429
2026-01-02 10:56:54.15	318.40	14.10	-51.9	-54.4	3.6	0.00e+00	0	39	104	0	60	88796
2026-01-02 10:56:57.18	318.98	13.81	-51.9	-54.4	3.6	0.00e+00	0	39	104	0	60	88518
2026-01-02 10:57:00.20	319.55	13.53	-51.9	-54.4	3.6	0.00e+00	0	39	104	0	60	88643
2026-01-02 10:57:03.23	320.11	13.24	-51.9	-54.4	3.6	0.00e+00	0	39	104	0	60	88569
2026-01-02 10:57:06.26	320.66	12.96	-51.9	-54.4	3.5	0.00e+00	0	39	104	0	60	89028
2026-01-02 10:57:09.29	321.19	12.68	-51.9	-54.4	3.6	0.00e+00	0	39	104	0	60	88647
2026-01-02 10:57:12.33	321.72	12.40	-51.9	-54.4	3.6	0.00e+00	0	39	104	0	60	88464
2026-01-02 10:57:15.36	322.23	12.12	-51.9	-54.4	3.6	0.00e+00	0	39	104	0	60	88251
2026-01-02 10:57:18.39	322.73	11.85	-51.9	-54.3	3.6	0.00e+00	0	39	104	0	60	88124
2026-01-02 10:57:21.42	323.22	11.57	-51.9	-54.3	3.6	0.00e+00	0	39	104	0	60	88119
2026-01-02 10:57:24.46	323.71	11.30	-51.9	-54.4	3.6	0.00e+00	0	39	104	0	60	88627
2026-01-02 10:57:27.49	324.18	11.04	-51.9	-54.4	3.6	0.00e+00	0	39	104	0	60	88527
2026-01-02 10:57:30.52	324.64	10.77	-51.9	-54.3	3.6	0.00e+00	0	39	104	0	60	87947
2026-01-02 10:57:33.55	325.09	10.51	-51.9	-54.4	3.6	0.00e+00	0	39	104	0	60	88811
2026-01-02 10:57:36.58	325.53	10.25	-51.9	-54.4	3.6	0.00e+00	0	39	104	0	60	88527
2026-01-02 10:57:39.62	325.96	9.99	-51.9	-54.3	3.6	0.00e+00	0	39	104	0	60	87963
2026-01-02 10:57:42.65	326.39	9.73	-51.9	-54.4	3.6	0.00e+00	0	39	104	0	60	88453
2026-01-02 10:57:45.68	326.80	9.48	-51.9	-54.3	3.6	0.00e+00	0	39	104	0	60	87737
2026-01-02 10:57:48.72	327.21	9.23	-51.9	-54.3	3.6	0.00e+00	0	39	104	0	60	87984
2026-01-02 10:57:51.75	327.61	8.98	-51.9	-54.4	3.6	0.00e+00	0	39	104	0	60	88287
2026-01-02 10:57:54.78	328.00	8.73	-51.9	-54.4	3.6	0.00e+00	0	39	104	0	60	88286
2026-01-02 10:57:57.81	328.38	8.49	-51.9	-54.4	3.6	0.00e+00	0	39	104	0	60	88451
2026-01-02 10:58:00.84	328.76	8.24	-51.9	-54.4	3.5	0.00e+00	0	39	104	0	60	88329
2026-01-02 10:58:03.88	329.13	8.00	-51.9	-54.3	3.6	0.00e+00	0	39	104	0	60	87990
2026-01-02 10:58:06.91	329.49	7.76	-51.9	-54.4	3.6	0.00e+00	0	39	104	0	60	88602
2026-01-02 10:58:09.94	329.84	7.53	-51.9	-54.3	3.6	0.00e+00	0	39	104	0	60	88179
2026-01-02 10:58:12.97	330.19	7.29	-51.9	-54.4	3.6	0.00e+00	0	39	104	0	60	88397
2026-01-02 10:58:16.00	330.53	7.06	-51.9	-54.3	3.6	0.00e+00	0	39	104	0	60	87996
2026-01-02 10:58:19.04	330.87	6.83	-51.9	-54.4	3.6	0.00e+00	0	39	104	0	60	88542
2026-01-02 10:58:22.07	331.20	6.60	-51.9	-54.4	3.6	0.00e+00	0	39	104	0	60	88867
2026-01-02 10:58:25.10	331.52	6.38	-51.9	-54.4	3.6	0.00e+00	0	39	104	0	60	88562
2026-01-02 10:58:28.13	331.84	6.15	-51.9	-54.4	3.6	0.00e+00	0	39	104	0	60	88725
2026-01-02 10:58:31.16	332.15	5.93	-51.9	-54.4	3.6	0.00e+00	0	39	104	0	60	88250
2026-01-02 10:58:34.19	332.46	5.71	-51.9	-54.4	3.6	0.00e+00	0	39	104	0	60	88246
2026-01-02 10:58:37.22	332.76	5.49	-51.9	-54.4	3.6	0.00e+00	0	39	104	0	60	88552
2026-01-02 10:58:40.25	333.05	5.27	-51.9	-54.4	3.6	0.00e+00	0	39	104	0	60	88441
2026-01-02 10:58:43.28	333.34	5.06	-51.9	-54.4	3.6	0.00e+00	0	39	104	0	60	88494
2026-01-02 10:58:46.31	333.63	4.85	-51.9	-54.4	3.6	0.00e+00	0	39	104	0	60	88605
2026-01-02 10:58:49.35	333.91	4.63	-51.9	-54.4	3.6	0.00e+00	0	39	104	0	60	88259
2026-01-02 10:58:52.38	334.19	4.42	-51.9	-54.4	3.6	0.00e+00	0	39	104	0	60	88328
2026-01-02 10:58:55.41	334.46	4.22	-52.0	-54.4	3.6	0.00e+00	0	39	104	0	60	88820
2026-01-02 10:58:58.45	334.72	4.01	-51.9	-54.3	3.6	0.00e+00	0	39	104	0	60	88016
2026-01-02 10:59:01.47	334.99	3.80	-51.9	-54.4	3.6	0.00e+00	0	39	104	0	60	88432
2026-01-02 10:59:04.51	335.24	3.60	-51.9	-54.4	3.6	0.00e+00	0	39	104	0	60	88294
2026-01-02 10:59:07.54	335.50	3.40	-51.9	-54.3	3.6	0.00e+00	0	39	104	0	60	88128
2026-01-02 10:59:10.57	335.75	3.20	-51.9	-54.4	3.6	0.00e+00	0	39	104	0	60	88467
2026-01-02 10:59:13.60	335.99	3.00	-51.9	-54.4	3.6	0.00e+00	0	39	104	0	60	88234
2026-01-02 10:59:16.63	336.24	2.80	-51.9	-54.3	3.6	0.00e+00	0	39	104	0	60	88034
2026-01-02 10:59:19.66	336.47	2.61	-51.9	-54.4	3.6	0.00e+00	0	39	104	0	60	88268
2026-01-02 10:59:22.69	336.71	2.41	-51.9	-54.4	3.6	0.00e+00	0	39	104	0	60	88611
2026-01-02 10:59:25.73	336.94	2.22	-51.9	-54.4	3.6	0.00e+00	0	39	104	0	60	88649
2026-01-02 10:59:28.76	337.17	2.03	-51.9	-54.4	3.5	0.00e+00	0	39	104	0	60	88771
2026-01-02 10:59:31.79	337.39	1.84	-51.9	-54.4	3.6	0.00e+00	0	39	104	0	60	88307
2026-01-02 10:59:34.82	337.61	1.65	-51.9	-54.4	3.6	0.00e+00	0	39	104	0	60	88418
2026-01-02 10:59:37.85	337.83	1.46	-51.9	-54.3	3.6	0.00e+00	0	39	104	0	60	87988
2026-01-02 10:59:40.88	338.04	1.27	-51.9	-54.3	3.6	0.00e+00	0	39	104	0	60	88086
2026-01-02 10:59:43.91	338.25	1.09	-51.9	-54.4	3.6	0.00e+00	0	39	104	0	60	88667
2026-01-02 10:59:46.94	338.46	0.91	-51.9	-54.4	3.6	0.00e+00	0	39	104	0	60	88947
2026-01-02 10:59:49.98	338.67	0.72	-51.9	-54.3	3.5	0.00e+00	0	39	104	0	60	87969
2026-01-02 10:59:53.01	338.87	0.54	-51.9	-54.4	3.6	0.00e+00	0	39	104	0	60	88826
2026-01-02 10:59:56.04	339.07	0.36	-51.9	-54.4	3.6	0.00e+00	0	39	104	0	60	88542
2026-01-02 10:59:59.08	339.27	0.18	-51.9	-54.4	3.6	0.00e+00	0	39	104	0	60	88574
2026-01-02 11:00:02.11	339.46	0.00	-51.9	-54.3	3.6	0.00e+00	0	39	104	0	60	88166

#Closed at: 2026-01-02 11:00:02
#Recorded file [0 MB]: D:/lorett/data/35034_260102_134852.dat