passes_logs/2026/01/02/R4.6S_Anadyr_2ch/R4.6S_Anadyr_2ch__20260102_074112_2025-108B_rec.log

#Pass ID: 20260102_074112_2025-108B
#Satellite: 2025-108B
#Configuration: 3PB_600M
#almurnet v.1.7.20251203
#Start time: 2026-01-02 07:41:14

#Version: 2.2.20231116
#Station: R4.6S_Anadyr_2ch
#Location: 177.4865 lon 64.73178 lat
#TLE: 1 64088U 25108B   25351.01672131  .00008460  00000+0  43413-3 0  9994
#TLE: 2 64088  97.4940  63.8579 0011684 285.1423  74.8517 15.16717580 31720

#Time	Az	El	Level	Level2	SNR	BER	BlckErr	Temp	State	Recorded	gain1	gain2
2026-01-02 07:41:14.90	108.45	0.15	-51.6	-52.9	3.4	0.00e+00	0	34	0	0	60	74495
2026-01-02 07:41:17.93	108.22	0.32	-51.7	-54.2	3.6	0.00e+00	0	35	104	0	60	86898
2026-01-02 07:41:20.96	108.00	0.50	-51.8	-54.3	3.6	0.00e+00	0	35	104	0	60	87329
2026-01-02 07:41:23.99	107.76	0.68	-51.8	-54.2	3.6	0.00e+00	0	36	104	0	60	86966
2026-01-02 07:41:27.02	107.53	0.85	-51.8	-54.3	3.6	0.00e+00	0	36	104	0	60	87403
2026-01-02 07:41:30.05	107.29	1.03	-51.8	-54.3	3.6	0.00e+00	0	36	104	0	60	87341
2026-01-02 07:41:33.08	107.04	1.21	-51.8	-54.3	3.6	0.00e+00	0	36	104	0	60	87538
2026-01-02 07:41:36.11	106.80	1.39	-51.8	-54.3	3.6	0.00e+00	0	36	104	0	60	87463
2026-01-02 07:41:39.14	106.54	1.57	-51.8	-54.3	3.6	0.00e+00	0	36	104	0	60	87635
2026-01-02 07:41:42.18	106.29	1.76	-51.8	-54.3	3.6	0.00e+00	0	36	104	0	60	87324
2026-01-02 07:41:45.21	106.03	1.94	-51.9	-54.3	3.6	0.00e+00	0	36	104	0	60	88217
2026-01-02 07:41:48.24	105.76	2.13	-51.9	-54.4	3.6	0.00e+00	0	36	104	0	60	88400
2026-01-02 07:41:51.27	105.50	2.31	-51.8	-54.3	3.6	0.00e+00	0	36	104	0	60	87581
2026-01-02 07:41:54.30	105.22	2.50	-51.8	-54.2	3.6	0.00e+00	0	36	104	0	60	87148
2026-01-02 07:41:57.33	104.95	2.69	-51.8	-54.3	3.6	0.00e+00	0	36	104	0	60	87648
2026-01-02 07:42:00.36	104.66	2.88	-51.9	-54.4	3.6	0.00e+00	0	36	104	0	60	88942
2026-01-02 07:42:03.39	104.38	3.07	-51.9	-54.4	3.6	0.00e+00	0	37	104	0	60	88472
2026-01-02 07:42:06.42	104.09	3.26	-51.9	-54.4	3.6	0.00e+00	0	37	104	0	60	88346
2026-01-02 07:42:09.46	103.79	3.45	-51.8	-54.2	3.6	0.00e+00	0	37	104	0	60	86956
2026-01-02 07:42:12.49	103.49	3.64	-51.8	-54.2	3.6	0.00e+00	0	37	104	0	60	86940
2026-01-02 07:42:15.52	103.18	3.84	-51.8	-54.2	3.6	0.00e+00	0	37	104	0	60	87037
2026-01-02 07:42:18.55	102.87	4.04	-51.8	-54.3	3.6	0.00e+00	0	37	104	0	60	87602
2026-01-02 07:42:21.58	102.55	4.23	-51.9	-54.3	3.6	0.00e+00	0	37	104	0	60	88129
2026-01-02 07:42:24.61	102.23	4.43	-51.8	-54.2	3.6	0.00e+00	0	37	104	0	60	86644
2026-01-02 07:42:27.64	101.90	4.63	-51.8	-54.3	3.6	0.00e+00	0	37	104	0	60	87334
2026-01-02 07:42:30.67	101.57	4.83	-51.8	-54.3	3.6	0.00e+00	0	37	104	0	60	87499
2026-01-02 07:42:33.70	101.23	5.03	-51.7	-54.2	3.6	0.00e+00	0	37	104	0	60	86745
2026-01-02 07:42:36.73	100.88	5.24	-51.7	-54.2	3.6	0.00e+00	0	37	104	0	60	86733
2026-01-02 07:42:39.76	100.53	5.44	-51.8	-54.3	3.6	0.00e+00	0	37	104	0	60	87829
2026-01-02 07:42:42.80	100.17	5.65	-51.9	-54.3	3.6	0.00e+00	0	37	104	0	60	87900
2026-01-02 07:42:45.83	99.80	5.85	-51.8	-54.3	3.6	0.00e+00	0	37	104	0	60	87777
2026-01-02 07:42:48.86	99.43	6.06	-51.9	-54.4	3.6	0.00e+00	0	37	104	0	60	88318
2026-01-02 07:42:51.89	99.05	6.27	-51.8	-54.3	3.6	0.00e+00	0	37	104	0	60	87422
2026-01-02 07:42:54.92	98.67	6.48	-51.9	-54.4	3.6	0.00e+00	0	37	104	0	60	88715
2026-01-02 07:42:57.95	98.27	6.69	-51.8	-54.3	3.6	0.00e+00	0	37	104	0	60	88055
2026-01-02 07:43:00.98	97.87	6.90	-51.8	-54.3	3.6	0.00e+00	0	37	104	0	60	88122
2026-01-02 07:43:04.01	97.47	7.12	-51.9	-54.4	3.6	0.00e+00	0	37	104	0	60	88340
2026-01-02 07:43:07.04	97.05	7.33	-51.8	-54.3	3.6	0.00e+00	0	37	104	0	60	87651
2026-01-02 07:43:10.07	96.63	7.55	-51.9	-54.4	3.6	0.00e+00	0	37	104	0	60	88291
2026-01-02 07:43:13.11	96.20	7.77	-51.8	-54.3	3.6	0.00e+00	0	37	104	0	60	87714
2026-01-02 07:43:16.14	95.76	7.98	-51.8	-54.2	3.6	0.00e+00	0	37	104	0	60	86767
2026-01-02 07:43:19.17	95.31	8.20	-51.9	-54.4	3.6	0.00e+00	0	37	104	0	60	88777
2026-01-02 07:43:22.21	94.86	8.42	-51.8	-54.3	3.6	0.00e+00	0	38	104	0	60	87573
2026-01-02 07:43:25.24	94.39	8.65	-51.8	-54.3	3.6	0.00e+00	0	37	104	0	60	87495
2026-01-02 07:43:28.27	93.92	8.87	-51.8	-54.3	3.6	0.00e+00	0	37	104	0	60	87742
2026-01-02 07:43:31.30	93.44	9.09	-51.9	-54.4	3.6	0.00e+00	0	38	104	0	60	88467
2026-01-02 07:43:34.34	92.95	9.32	-51.8	-54.3	3.6	0.00e+00	0	38	104	0	60	87620
2026-01-02 07:43:37.37	92.45	9.54	-51.9	-54.4	3.6	0.00e+00	0	38	104	0	60	88284
2026-01-02 07:43:40.40	91.94	9.77	-51.9	-54.4	3.6	0.00e+00	0	38	104	0	60	88240
2026-01-02 07:43:43.43	91.42	9.99	-51.9	-54.3	3.6	0.00e+00	0	38	104	0	60	87540
2026-01-02 07:43:46.46	90.89	10.22	-51.9	-54.3	3.6	0.00e+00	0	38	104	0	60	88019
2026-01-02 07:43:49.50	90.35	10.45	-51.8	-54.3	3.6	0.00e+00	0	38	104	0	60	87380
2026-01-02 07:43:52.53	89.80	10.68	-51.9	-54.4	3.6	0.00e+00	0	38	104	0	60	88750
2026-01-02 07:43:55.56	89.24	10.91	-51.9	-54.4	3.6	0.00e+00	0	38	104	0	60	88558
2026-01-02 07:43:58.59	88.66	11.14	-51.8	-54.3	3.6	0.00e+00	0	38	104	0	60	87815
2026-01-02 07:44:01.62	88.08	11.37	-51.9	-54.4	3.6	0.00e+00	0	38	104	0	60	88797
2026-01-02 07:44:04.66	87.49	11.60	-51.9	-54.3	3.6	0.00e+00	0	38	104	0	60	88200
2026-01-02 07:44:07.69	86.88	11.83	-51.9	-54.3	3.6	0.00e+00	0	38	104	0	60	88075
2026-01-02 07:44:10.72	86.27	12.06	-51.8	-54.3	3.6	0.00e+00	0	38	104	0	60	87731
2026-01-02 07:44:13.75	85.64	12.29	-51.9	-54.4	3.6	0.00e+00	0	38	104	0	60	88730
2026-01-02 07:44:16.79	85.00	12.52	-51.9	-54.4	3.6	0.00e+00	0	38	104	0	60	88352
2026-01-02 07:44:19.82	84.34	12.75	-51.9	-54.3	3.6	0.00e+00	0	38	104	0	60	87846
2026-01-02 07:44:22.86	83.68	12.98	-51.8	-54.3	3.6	0.00e+00	0	38	104	0	60	87856
2026-01-02 07:44:25.89	83.00	13.21	-51.8	-54.3	3.6	0.00e+00	0	38	104	0	60	87527
2026-01-02 07:44:28.92	82.31	13.43	-51.8	-54.2	3.6	0.00e+00	0	38	104	0	60	86985
2026-01-02 07:44:31.95	81.61	13.66	-51.8	-54.3	3.6	0.00e+00	0	38	104	0	60	87558
2026-01-02 07:44:34.99	80.89	13.89	-51.9	-54.3	3.6	0.00e+00	0	38	104	0	60	88114
2026-01-02 07:44:38.02	80.16	14.11	-51.8	-54.3	3.6	0.00e+00	0	38	104	0	60	87768
2026-01-02 07:44:41.05	79.42	14.33	-51.9	-54.3	3.6	0.00e+00	0	38	104	0	60	88073
2026-01-02 07:44:44.08	78.67	14.56	-51.9	-54.4	3.6	0.00e+00	0	38	104	0	60	88506
2026-01-02 07:44:47.12	77.90	14.78	-51.9	-54.4	3.6	0.00e+00	0	38	104	0	60	88357
2026-01-02 07:44:50.15	77.12	14.99	-51.8	-54.3	3.6	0.00e+00	0	38	104	0	60	87897
2026-01-02 07:44:53.18	76.32	15.21	-52.0	-54.4	3.6	0.00e+00	0	38	104	0	60	88830
2026-01-02 07:44:56.21	75.52	15.42	-51.8	-54.3	3.6	0.00e+00	0	38	104	0	60	87289
2026-01-02 07:44:59.25	74.69	15.63	-51.8	-54.3	3.6	0.00e+00	0	38	104	0	60	87382
2026-01-02 07:45:02.28	73.86	15.84	-51.8	-54.3	3.6	0.00e+00	0	38	104	0	60	87664
2026-01-02 07:45:05.31	73.01	16.04	-51.8	-54.3	3.6	0.00e+00	0	38	104	0	60	87582
2026-01-02 07:45:08.35	72.15	16.24	-51.8	-54.3	3.6	0.00e+00	0	38	104	0	60	87344
2026-01-02 07:45:11.38	71.27	16.43	-51.8	-54.3	3.6	0.00e+00	0	38	104	0	60	88215
2026-01-02 07:45:14.41	70.38	16.63	-51.8	-54.3	3.6	0.00e+00	0	38	104	0	60	87503
2026-01-02 07:45:17.44	69.48	16.81	-51.7	-54.2	3.6	0.00e+00	0	38	104	0	60	87147
2026-01-02 07:45:20.48	68.57	17.00	-51.7	-54.1	3.5	0.00e+00	0	38	104	0	60	86205
2026-01-02 07:45:23.51	67.64	17.17	-51.8	-54.3	3.6	0.00e+00	0	38	104	0	60	87490
2026-01-02 07:45:26.54	66.70	17.34	-51.7	-54.2	3.6	0.00e+00	0	38	104	0	60	86444
2026-01-02 07:45:29.57	65.75	17.51	-51.8	-54.2	3.6	0.00e+00	0	38	104	0	60	86836
2026-01-02 07:45:32.60	64.79	17.67	-51.8	-54.3	3.6	0.00e+00	0	38	104	0	60	87415
2026-01-02 07:45:35.64	63.81	17.82	-51.8	-54.3	3.6	0.00e+00	0	38	104	0	60	87808
2026-01-02 07:45:38.67	62.82	17.97	-51.8	-54.3	3.6	0.00e+00	0	38	104	0	60	87543
2026-01-02 07:45:41.70	61.82	18.11	-51.8	-54.3	3.6	0.00e+00	0	38	104	0	60	87632
2026-01-02 07:45:44.73	60.82	18.25	-51.8	-54.3	3.5	0.00e+00	0	38	104	0	60	87396
2026-01-02 07:45:47.77	59.80	18.37	-51.8	-54.3	3.6	0.00e+00	0	38	104	0	60	87955
2026-01-02 07:45:50.80	58.77	18.49	-51.8	-54.3	3.6	0.00e+00	0	38	104	0	60	87524
2026-01-02 07:45:53.83	57.74	18.60	-51.8	-54.3	3.6	0.00e+00	0	38	104	0	60	87987
2026-01-02 07:45:56.87	56.69	18.70	-51.9	-54.3	3.6	0.00e+00	0	38	104	0	60	87918
2026-01-02 07:45:59.90	55.64	18.80	-51.8	-54.3	3.6	0.00e+00	0	38	104	0	60	87587
2026-01-02 07:46:02.93	54.58	18.88	-51.8	-54.2	3.6	0.00e+00	0	38	104	0	60	86495
2026-01-02 07:46:05.97	53.51	18.96	-51.8	-54.2	3.6	0.00e+00	0	38	104	0	60	87191
2026-01-02 07:46:09.00	52.44	19.03	-51.8	-54.3	3.6	0.00e+00	0	38	104	0	60	87580
2026-01-02 07:46:12.03	51.36	19.08	-51.7	-54.2	3.6	0.00e+00	0	38	104	0	60	86775
2026-01-02 07:46:15.07	50.28	19.13	-51.8	-54.2	3.6	0.00e+00	0	38	104	0	60	87054
2026-01-02 07:46:18.10	49.20	19.17	-51.8	-54.3	3.6	0.00e+00	0	38	104	0	60	87421
2026-01-02 07:46:21.13	48.11	19.20	-51.8	-54.2	3.6	0.00e+00	0	38	104	0	60	86972
2026-01-02 07:46:24.16	47.02	19.22	-51.8	-54.3	3.6	0.00e+00	0	38	104	0	60	87332
2026-01-02 07:46:27.20	45.93	19.23	-51.7	-54.2	3.6	0.00e+00	0	38	104	0	60	86486
2026-01-02 07:46:30.23	44.84	19.23	-51.7	-54.2	3.6	0.00e+00	0	38	104	0	60	86858
2026-01-02 07:46:33.26	43.75	19.22	-51.8	-54.2	3.6	0.00e+00	0	38	104	0	60	86970
2026-01-02 07:46:36.29	42.66	19.21	-51.7	-54.2	3.6	0.00e+00	0	38	104	0	60	86551
2026-01-02 07:46:39.32	41.58	19.18	-51.8	-54.3	3.6	0.00e+00	0	38	104	0	60	87264
2026-01-02 07:46:42.35	40.49	19.14	-51.8	-54.2	3.6	0.00e+00	0	38	104	0	60	86741
2026-01-02 07:46:45.38	39.41	19.09	-51.8	-54.3	3.6	0.00e+00	0	38	104	0	60	87427
2026-01-02 07:46:48.42	38.33	19.04	-51.8	-54.3	3.6	0.00e+00	0	38	104	0	60	87443
2026-01-02 07:46:51.45	37.26	18.97	-51.8	-54.3	3.6	0.00e+00	0	38	104	0	60	87671
2026-01-02 07:46:54.48	36.20	18.90	-51.8	-54.2	3.6	0.00e+00	0	38	104	0	60	87136
2026-01-02 07:46:57.52	35.14	18.81	-51.8	-54.2	3.6	0.00e+00	0	39	104	0	60	87067
2026-01-02 07:47:00.55	34.08	18.72	-51.9	-54.4	3.6	0.00e+00	0	38	104	0	60	88273
2026-01-02 07:47:03.58	33.04	18.62	-51.9	-54.3	3.6	0.00e+00	0	38	104	0	60	87826
2026-01-02 07:47:06.61	32.00	18.51	-51.8	-54.3	3.6	0.00e+00	0	39	104	0	60	87862
2026-01-02 07:47:09.64	30.98	18.40	-51.8	-54.3	3.6	0.00e+00	0	38	104	0	60	87214
2026-01-02 07:47:12.67	29.96	18.27	-51.8	-54.3	3.5	0.00e+00	0	39	104	0	60	87214
2026-01-02 07:47:15.71	28.95	18.14	-51.8	-54.3	3.6	0.00e+00	0	38	104	0	60	87941
2026-01-02 07:47:18.74	27.95	18.00	-51.8	-54.3	3.6	0.00e+00	0	38	104	0	60	87748
2026-01-02 07:47:21.77	26.96	17.86	-51.8	-54.3	3.6	0.00e+00	0	38	104	0	60	87708
2026-01-02 07:47:24.80	25.99	17.70	-51.8	-54.3	3.6	0.00e+00	0	38	104	0	60	87390
2026-01-02 07:47:27.83	25.02	17.54	-51.8	-54.3	3.6	0.00e+00	0	39	104	0	60	87512
2026-01-02 07:47:30.87	24.07	17.38	-51.9	-54.4	3.5	0.00e+00	0	38	104	0	60	88457
2026-01-02 07:47:33.90	23.13	17.21	-51.8	-54.3	3.6	0.00e+00	0	38	104	0	60	87937
2026-01-02 07:47:36.93	22.20	17.03	-51.9	-54.4	3.6	0.00e+00	0	38	104	0	60	88640
2026-01-02 07:47:39.96	21.29	16.85	-51.8	-54.3	3.6	0.00e+00	0	39	104	0	60	87504
2026-01-02 07:47:42.99	20.39	16.67	-51.8	-54.3	3.6	0.00e+00	0	39	104	0	60	87565
2026-01-02 07:47:46.03	19.49	16.48	-51.8	-54.3	3.6	0.00e+00	0	39	104	0	60	87354
2026-01-02 07:47:49.06	18.62	16.28	-51.8	-54.3	3.6	0.00e+00	0	39	104	0	60	87599
2026-01-02 07:47:52.09	17.76	16.08	-51.8	-54.3	3.6	0.00e+00	0	39	104	0	60	88059
2026-01-02 07:47:55.12	16.91	15.88	-51.8	-54.3	3.6	0.00e+00	0	39	104	0	60	87321
2026-01-02 07:47:58.15	16.07	15.68	-51.8	-54.3	3.6	0.00e+00	0	38	104	0	60	87483
2026-01-02 07:48:01.19	15.25	15.47	-51.8	-54.2	3.6	0.00e+00	0	38	104	0	60	87019
2026-01-02 07:48:04.22	14.44	15.26	-51.8	-54.3	3.6	0.00e+00	0	38	104	0	60	87446
2026-01-02 07:48:07.25	13.65	15.04	-51.8	-54.3	3.6	0.00e+00	0	39	104	0	60	87655
2026-01-02 07:48:10.28	12.86	14.83	-51.8	-54.3	3.6	0.00e+00	0	38	104	0	60	87410
2026-01-02 07:48:13.32	12.09	14.61	-51.8	-54.2	3.6	0.00e+00	0	39	104	0	60	86839
2026-01-02 07:48:16.35	11.34	14.39	-51.8	-54.3	3.6	0.00e+00	0	39	104	0	60	87661
2026-01-02 07:48:19.38	10.60	14.17	-51.8	-54.3	3.6	0.00e+00	0	39	104	0	60	87639
2026-01-02 07:48:22.41	9.87	13.94	-51.8	-54.3	3.6	0.00e+00	0	39	104	0	60	87481
2026-01-02 07:48:25.44	9.15	13.72	-51.8	-54.3	3.6	0.00e+00	0	39	104	0	60	87709
2026-01-02 07:48:28.48	8.45	13.49	-51.8	-54.3	3.6	0.00e+00	0	39	104	0	60	87855
2026-01-02 07:48:31.51	7.76	13.26	-51.8	-54.2	3.6	0.00e+00	0	39	104	0	60	87132
2026-01-02 07:48:34.54	7.08	13.04	-51.8	-54.3	3.6	0.00e+00	0	39	104	0	60	87559
2026-01-02 07:48:37.57	6.42	12.81	-51.8	-54.3	3.6	0.00e+00	0	39	104	0	60	87754
2026-01-02 07:48:40.60	5.76	12.58	-51.8	-54.3	3.5	0.00e+00	0	39	104	0	60	87740
2026-01-02 07:48:43.64	5.12	12.35	-51.8	-54.3	3.6	0.00e+00	0	39	104	0	60	87593
2026-01-02 07:48:46.67	4.49	12.12	-51.8	-54.3	3.6	0.00e+00	0	39	104	0	60	87869
2026-01-02 07:48:49.70	3.88	11.89	-51.9	-54.3	3.6	0.00e+00	0	39	104	0	60	87823
2026-01-02 07:48:52.74	3.27	11.66	-51.9	-54.3	3.6	0.00e+00	0	38	104	0	60	87840
2026-01-02 07:48:55.77	2.68	11.43	-51.8	-54.3	3.6	0.00e+00	0	39	104	0	60	88011
2026-01-02 07:48:58.80	2.09	11.20	-51.8	-54.3	3.6	0.00e+00	0	39	104	0	60	87538
2026-01-02 07:49:01.83	1.52	10.97	-51.8	-54.3	3.6	0.00e+00	0	39	104	0	60	87995
2026-01-02 07:49:04.86	0.96	10.74	-51.8	-54.3	3.6	0.00e+00	0	39	104	0	60	87902
2026-01-02 07:49:07.89	0.41	10.51	-51.8	-54.3	3.6	0.00e+00	0	39	104	0	60	87693
2026-01-02 07:49:10.93	359.87	10.29	-51.9	-54.4	3.6	0.00e+00	0	39	104	0	60	88353
2026-01-02 07:49:13.96	359.34	10.06	-51.9	-54.3	3.6	0.00e+00	0	39	104	0	60	88166
2026-01-02 07:49:16.99	358.82	9.83	-51.9	-54.4	3.6	0.00e+00	0	39	104	0	60	88393
2026-01-02 07:49:20.03	358.31	9.61	-51.9	-54.3	3.6	0.00e+00	0	39	104	0	60	88071
2026-01-02 07:49:23.06	357.81	9.38	-51.8	-54.3	3.6	0.00e+00	0	39	104	0	60	87295
2026-01-02 07:49:26.09	357.32	9.16	-51.8	-54.2	3.6	0.00e+00	0	39	104	0	60	86820
2026-01-02 07:49:29.12	356.84	8.94	-51.8	-54.3	3.6	0.00e+00	0	39	104	0	60	87298
2026-01-02 07:49:32.15	356.37	8.71	-51.7	-54.2	3.6	0.00e+00	0	39	104	0	60	86927
2026-01-02 07:49:35.18	355.90	8.49	-51.8	-54.2	3.6	0.00e+00	0	39	104	0	60	86985
2026-01-02 07:49:38.21	355.45	8.27	-51.9	-54.4	3.6	0.00e+00	0	39	104	0	60	88841
2026-01-02 07:49:41.24	355.00	8.05	-51.9	-54.3	3.6	0.00e+00	0	39	104	0	60	87853
2026-01-02 07:49:44.28	354.56	7.83	-51.9	-54.5	3.6	0.00e+00	0	39	104	0	60	89251
2026-01-02 07:49:47.31	354.13	7.62	-51.9	-54.3	3.6	0.00e+00	0	39	104	0	60	87999
2026-01-02 07:49:50.34	353.71	7.40	-52.0	-54.4	3.6	0.00e+00	0	39	104	0	60	88899
2026-01-02 07:49:53.37	353.30	7.19	-51.9	-54.4	3.6	0.00e+00	0	39	104	0	60	88880
2026-01-02 07:49:56.40	352.89	6.97	-51.9	-54.4	3.6	0.00e+00	0	39	104	0	60	88799
2026-01-02 07:49:59.43	352.49	6.76	-51.8	-54.3	3.6	0.00e+00	0	39	104	0	60	87681
2026-01-02 07:50:02.46	352.10	6.55	-51.8	-54.2	3.6	0.00e+00	0	39	104	0	60	87154
2026-01-02 07:50:05.50	351.71	6.34	-51.8	-54.2	3.6	0.00e+00	0	39	104	0	60	86585
2026-01-02 07:50:08.53	351.33	6.13	-51.8	-54.2	3.6	0.00e+00	0	39	104	0	60	87136
2026-01-02 07:50:11.56	350.96	5.92	-51.7	-54.2	3.6	0.00e+00	0	39	104	0	60	86721
2026-01-02 07:50:14.59	350.60	5.72	-51.8	-54.3	3.6	0.00e+00	0	39	104	0	60	87414
2026-01-02 07:50:17.63	350.24	5.51	-51.8	-54.3	3.6	0.00e+00	0	39	104	0	60	87373
2026-01-02 07:50:20.66	349.89	5.31	-51.8	-54.3	3.6	0.00e+00	0	39	104	0	60	87926
2026-01-02 07:50:23.69	349.54	5.10	-51.8	-54.3	3.6	0.00e+00	0	39	104	0	60	87429
2026-01-02 07:50:26.72	349.20	4.90	-51.8	-54.2	3.6	0.00e+00	0	39	104	0	60	87194
2026-01-02 07:50:29.75	348.87	4.70	-51.9	-54.4	3.6	0.00e+00	0	39	104	0	60	88522
2026-01-02 07:50:32.78	348.54	4.50	-51.9	-54.3	3.6	0.00e+00	0	39	104	0	60	87926
2026-01-02 07:50:35.81	348.22	4.30	-51.8	-54.3	3.6	0.00e+00	0	39	104	0	60	87656
2026-01-02 07:50:38.85	347.90	4.11	-51.7	-54.2	3.6	0.00e+00	0	39	104	0	60	86878
2026-01-02 07:50:41.88	347.59	3.91	-51.8	-54.2	3.6	0.00e+00	0	39	104	0	60	87186
2026-01-02 07:50:44.91	347.29	3.72	-51.8	-54.3	3.6	0.00e+00	0	39	104	0	60	87387
2026-01-02 07:50:47.94	346.99	3.52	-51.9	-54.3	3.6	0.00e+00	0	39	104	0	60	88179
2026-01-02 07:50:50.97	346.69	3.33	-51.8	-54.3	3.6	0.00e+00	0	39	104	0	60	87794
2026-01-02 07:50:54.01	346.40	3.14	-51.9	-54.4	3.6	0.00e+00	0	39	104	0	60	88226
2026-01-02 07:50:57.04	346.11	2.95	-51.9	-54.3	3.6	0.00e+00	0	39	104	0	60	87684
2026-01-02 07:51:00.08	345.83	2.76	-51.9	-54.4	3.6	0.00e+00	0	39	104	0	60	88514
2026-01-02 07:51:03.11	345.56	2.57	-51.9	-54.4	3.6	0.00e+00	0	39	104	0	60	88311
2026-01-02 07:51:06.14	345.28	2.38	-51.8	-54.3	3.6	0.00e+00	0	39	104	0	60	87675
2026-01-02 07:51:09.18	345.02	2.20	-51.8	-54.3	3.6	0.00e+00	0	39	104	0	60	87566
2026-01-02 07:51:12.21	344.75	2.01	-51.9	-54.4	3.6	0.00e+00	0	39	104	0	60	88624
2026-01-02 07:51:15.24	344.50	1.83	-51.9	-54.3	3.6	0.00e+00	0	39	104	0	60	88069
2026-01-02 07:51:18.28	344.24	1.64	-51.9	-54.4	3.6	0.00e+00	0	39	104	0	60	88746
2026-01-02 07:51:21.31	343.99	1.46	-52.0	-54.5	3.6	0.00e+00	0	39	104	0	60	89385
2026-01-02 07:51:24.34	343.74	1.28	-51.8	-54.3	3.6	0.00e+00	0	39	104	0	60	87444
2026-01-02 07:51:27.37	343.50	1.10	-51.8	-54.2	3.6	0.00e+00	0	39	104	0	60	86920
2026-01-02 07:51:30.41	343.26	0.92	-51.8	-54.3	3.6	0.00e+00	0	39	104	0	60	87562
2026-01-02 07:51:33.44	343.03	0.75	-51.9	-54.3	3.6	0.00e+00	0	39	104	0	60	88074
2026-01-02 07:51:36.47	342.80	0.57	-51.8	-54.3	3.6	0.00e+00	0	39	104	0	60	87875
2026-01-02 07:51:39.50	342.57	0.39	-51.9	-54.4	3.6	0.00e+00	0	39	104	0	60	88522
2026-01-02 07:51:42.53	342.35	0.22	-51.8	-54.3	3.6	0.00e+00	0	39	104	0	60	87818
2026-01-02 07:51:45.57	342.12	0.04	-51.8	-54.3	3.6	0.00e+00	0	39	104	0	60	87363

#Closed at: 2026-01-02 07:51:46
#Recorded file [0 MB]: D:/lorett/data/35034_260102_104114.dat