passes_logs/2026/01/02/R4.6S_Anadyr_2ch/R4.6S_Anadyr_2ch__20260102_030440_2025-108B_rec.log

#Pass ID: 20260102_030440_2025-108B
#Satellite: 2025-108B
#Configuration: 3PB_600M
#almurnet v.1.7.20251203
#Start time: 2026-01-02 03:04:41

#Version: 2.2.20231116
#Station: R4.6S_Anadyr_2ch
#Location: 177.4865 lon 64.73178 lat
#TLE: 1 64088U 25108B   25351.01672131  .00008460  00000+0  43413-3 0  9994
#TLE: 2 64088  97.4940  63.8579 0011684 285.1423  74.8517 15.16717580 31720

#Time	Az	El	Level	Level2	SNR	BER	BlckErr	Temp	State	Recorded	gain1	gain2
2026-01-02 03:04:41.71	22.87	0.07	-51.8	-53.2	3.4	0.00e+00	0	33	0	0	60	77371
2026-01-02 03:04:43.72	22.64	0.16	-51.6	-54.1	3.6	0.00e+00	0	34	104	0	60	85806
2026-01-02 03:04:45.74	22.40	0.26	-51.7	-54.1	3.6	0.00e+00	0	34	104	0	60	85717
2026-01-02 03:04:47.76	22.17	0.35	-51.5	-54.0	3.6	0.00e+00	0	34	104	0	60	84873
2026-01-02 03:04:49.78	21.93	0.44	-51.6	-54.1	3.6	0.00e+00	0	35	104	0	60	85428
2026-01-02 03:04:51.80	21.69	0.53	-51.6	-54.0	3.6	0.00e+00	0	35	104	0	60	85148
2026-01-02 03:04:53.82	21.45	0.63	-51.5	-54.0	3.6	0.00e+00	0	35	104	0	60	84580
2026-01-02 03:04:55.85	21.20	0.72	-51.7	-54.2	3.6	0.00e+00	0	35	104	0	60	86570
2026-01-02 03:04:57.87	20.96	0.81	-51.6	-54.0	3.6	0.00e+00	0	35	104	0	60	84995
2026-01-02 03:04:59.89	20.71	0.90	-51.5	-53.9	3.6	0.00e+00	0	35	104	0	60	84125
2026-01-02 03:05:01.91	20.46	1.00	-51.6	-54.0	3.6	0.00e+00	0	35	104	0	60	85180
2026-01-02 03:05:03.93	20.21	1.09	-51.6	-54.0	3.6	0.00e+00	0	35	104	0	60	85025
2026-01-02 03:05:05.95	19.96	1.18	-51.7	-54.2	3.6	0.00e+00	0	35	104	0	60	86831
2026-01-02 03:05:07.97	19.70	1.27	-51.7	-54.2	3.6	0.00e+00	0	35	104	0	60	86344
2026-01-02 03:05:09.99	19.44	1.36	-51.7	-54.2	3.6	0.00e+00	0	35	104	0	60	86287
2026-01-02 03:05:12.01	19.18	1.46	-51.6	-54.1	3.6	0.00e+00	0	35	104	0	60	85440
2026-01-02 03:05:14.03	18.92	1.55	-51.6	-54.1	3.6	0.00e+00	0	35	104	0	60	85675
2026-01-02 03:05:16.05	18.66	1.64	-51.6	-54.1	3.6	0.00e+00	0	35	104	0	60	85326
2026-01-02 03:05:18.07	18.39	1.73	-51.7	-54.2	3.6	0.00e+00	0	35	104	0	60	86300
2026-01-02 03:05:20.09	18.12	1.82	-51.9	-54.3	3.6	0.00e+00	0	35	104	0	60	87678
2026-01-02 03:05:22.11	17.85	1.91	-51.6	-54.1	3.6	0.00e+00	0	35	104	0	60	85688
2026-01-02 03:05:24.13	17.58	2.00	-51.6	-54.1	3.6	0.00e+00	0	36	104	0	60	85267
2026-01-02 03:05:26.15	17.31	2.10	-51.6	-54.1	3.6	0.00e+00	0	36	104	0	60	85459
2026-01-02 03:05:28.17	17.03	2.19	-51.7	-54.1	3.6	0.00e+00	0	36	104	0	60	86029
2026-01-02 03:05:30.19	16.75	2.28	-51.8	-54.3	3.6	0.00e+00	0	35	104	0	60	87296
2026-01-02 03:05:32.21	16.47	2.37	-51.7	-54.2	3.6	0.00e+00	0	36	104	0	60	86582
2026-01-02 03:05:34.23	16.18	2.46	-51.6	-54.1	3.6	0.00e+00	0	36	104	0	60	85483
2026-01-02 03:05:36.25	15.90	2.55	-51.6	-54.1	3.5	0.00e+00	0	36	104	0	60	85801
2026-01-02 03:05:38.27	15.61	2.64	-51.6	-54.1	3.6	0.00e+00	0	36	104	0	60	85462
2026-01-02 03:05:40.28	15.32	2.73	-51.6	-54.1	3.6	0.00e+00	0	36	104	0	60	85455
2026-01-02 03:05:42.30	15.03	2.82	-51.6	-54.0	3.6	0.00e+00	0	36	104	0	60	85094
2026-01-02 03:05:44.33	14.73	2.91	-51.6	-54.1	3.6	0.00e+00	0	36	104	0	60	85514
2026-01-02 03:05:46.34	14.44	3.00	-51.8	-54.2	3.6	0.00e+00	0	36	104	0	60	86571
2026-01-02 03:05:48.36	14.14	3.09	-51.7	-54.1	3.6	0.00e+00	0	36	104	0	60	85712
2026-01-02 03:05:50.38	13.84	3.17	-51.6	-54.1	3.6	0.00e+00	0	36	104	0	60	85294
2026-01-02 03:05:52.41	13.53	3.26	-51.7	-54.1	3.6	0.00e+00	0	36	104	0	60	85989
2026-01-02 03:05:54.43	13.22	3.35	-51.6	-54.1	3.6	0.00e+00	0	36	104	0	60	85457
2026-01-02 03:05:56.45	12.91	3.44	-51.7	-54.1	3.6	0.00e+00	0	36	104	0	60	86012
2026-01-02 03:05:58.47	12.60	3.53	-51.7	-54.2	3.6	0.00e+00	0	36	104	0	60	86456
2026-01-02 03:06:00.49	12.29	3.62	-51.7	-54.2	3.6	0.00e+00	0	36	104	0	60	86529
2026-01-02 03:06:02.51	11.97	3.70	-51.6	-54.1	3.6	0.00e+00	0	36	104	0	60	85987
2026-01-02 03:06:04.53	11.65	3.79	-51.8	-54.3	3.6	0.00e+00	0	36	104	0	60	87268
2026-01-02 03:06:06.55	11.33	3.88	-51.8	-54.3	3.6	0.00e+00	0	36	104	0	60	87722
2026-01-02 03:06:08.57	11.01	3.96	-51.7	-54.1	3.6	0.00e+00	0	36	104	0	60	86189
2026-01-02 03:06:10.59	10.68	4.05	-51.8	-54.3	3.6	0.00e+00	0	36	104	0	60	87638
2026-01-02 03:06:12.61	10.36	4.13	-51.7	-54.1	3.6	0.00e+00	0	36	104	0	60	86009
2026-01-02 03:06:14.63	10.03	4.22	-51.7	-54.2	3.6	0.00e+00	0	36	104	0	60	86847
2026-01-02 03:06:16.65	9.69	4.30	-51.7	-54.1	3.6	0.00e+00	0	36	104	0	60	85845
2026-01-02 03:06:18.66	9.36	4.39	-51.7	-54.2	3.6	0.00e+00	0	36	104	0	60	86553
2026-01-02 03:06:20.68	9.02	4.47	-51.7	-54.1	3.6	0.00e+00	0	36	104	0	60	85926
2026-01-02 03:06:22.70	8.68	4.55	-51.7	-54.2	3.6	0.00e+00	0	36	104	0	60	86651
2026-01-02 03:06:24.72	8.34	4.64	-51.8	-54.2	3.6	0.00e+00	0	37	104	0	60	86851
2026-01-02 03:06:26.74	7.99	4.72	-51.6	-54.1	3.6	0.00e+00	0	37	104	0	60	85746
2026-01-02 03:06:28.76	7.64	4.80	-51.7	-54.2	3.6	0.00e+00	0	37	104	0	60	86747
2026-01-02 03:06:30.78	7.29	4.88	-51.7	-54.2	3.6	0.00e+00	0	37	104	0	60	86458
2026-01-02 03:06:32.79	6.94	4.96	-51.7	-54.2	3.6	0.00e+00	0	36	104	0	60	86944
2026-01-02 03:06:34.81	6.59	5.04	-52.0	-54.4	3.6	0.00e+00	0	37	104	0	60	89116
2026-01-02 03:06:36.83	6.23	5.12	-51.7	-54.1	3.6	0.00e+00	0	37	104	0	60	86126
2026-01-02 03:06:38.85	5.87	5.20	-52.0	-54.4	3.6	0.00e+00	0	37	104	0	60	89177
2026-01-02 03:06:40.88	5.50	5.28	-51.9	-54.4	3.6	0.00e+00	0	37	104	0	60	88460
2026-01-02 03:06:42.90	5.14	5.36	-51.8	-54.3	3.6	0.00e+00	0	37	104	0	60	87673
2026-01-02 03:06:44.92	4.77	5.43	-51.7	-54.2	3.6	0.00e+00	0	37	104	0	60	86777
2026-01-02 03:06:46.94	4.40	5.51	-51.7	-54.2	3.6	0.00e+00	0	37	104	0	60	86995
2026-01-02 03:06:48.96	4.03	5.59	-51.8	-54.3	3.6	0.00e+00	0	37	104	0	60	87522
2026-01-02 03:06:50.98	3.65	5.66	-51.7	-54.1	3.6	0.00e+00	0	37	104	0	60	85917
2026-01-02 03:06:53.00	3.27	5.74	-51.6	-54.1	3.6	0.00e+00	0	37	104	0	60	85237
2026-01-02 03:06:55.03	2.89	5.81	-51.7	-54.2	3.6	0.00e+00	0	37	104	0	60	86630
2026-01-02 03:06:57.05	2.51	5.89	-51.7	-54.2	3.6	0.00e+00	0	37	104	0	60	86440
2026-01-02 03:06:59.07	2.12	5.96	-51.7	-54.1	3.6	0.00e+00	0	37	104	0	60	85683
2026-01-02 03:07:01.09	1.74	6.03	-51.6	-54.0	3.6	0.00e+00	0	37	104	0	60	84753
2026-01-02 03:07:03.11	1.35	6.10	-51.7	-54.1	3.6	0.00e+00	0	37	104	0	60	85660
2026-01-02 03:07:05.14	0.95	6.17	-51.7	-54.2	3.6	0.00e+00	0	37	104	0	60	86539
2026-01-02 03:07:07.16	0.56	6.24	-51.7	-54.1	3.6	0.00e+00	0	37	104	0	60	85951
2026-01-02 03:07:09.18	0.16	6.31	-51.7	-54.1	3.6	0.00e+00	0	37	104	0	60	86060
2026-01-02 03:07:11.20	359.76	6.38	-51.7	-54.1	3.6	0.00e+00	0	37	104	0	60	86114
2026-01-02 03:07:13.22	359.36	6.44	-51.7	-54.1	3.6	0.00e+00	0	37	104	0	60	85884
2026-01-02 03:07:15.25	358.95	6.51	-51.6	-54.0	3.6	0.00e+00	0	37	104	0	60	85097
2026-01-02 03:07:17.27	358.55	6.57	-51.9	-54.3	3.6	0.00e+00	0	37	104	0	60	88206
2026-01-02 03:07:19.29	358.14	6.64	-51.7	-54.1	3.6	0.00e+00	0	37	104	0	60	86167
2026-01-02 03:07:21.31	357.73	6.70	-51.7	-54.1	3.6	0.00e+00	0	37	104	0	60	86059
2026-01-02 03:07:23.33	357.31	6.76	-51.6	-54.1	3.6	0.00e+00	0	37	104	0	60	85641
2026-01-02 03:07:25.35	356.90	6.82	-51.5	-54.0	3.6	0.00e+00	0	37	104	0	60	84418
2026-01-02 03:07:27.37	356.48	6.88	-51.5	-54.0	3.6	0.00e+00	0	37	104	0	60	84461
2026-01-02 03:07:29.40	356.06	6.94	-51.7	-54.1	3.6	0.00e+00	0	37	104	0	60	85696
2026-01-02 03:07:31.42	355.64	7.00	-51.8	-54.3	3.6	0.00e+00	0	37	104	0	60	87241
2026-01-02 03:07:33.44	355.21	7.06	-51.6	-54.1	3.6	0.00e+00	0	37	104	0	60	85556
2026-01-02 03:07:35.46	354.79	7.11	-51.5	-54.0	3.6	0.00e+00	0	37	104	0	60	84878
2026-01-02 03:07:37.48	354.36	7.17	-51.6	-54.1	3.6	0.00e+00	0	37	104	0	60	85237
2026-01-02 03:07:39.50	353.93	7.22	-51.6	-54.1	3.6	0.00e+00	0	37	104	0	60	85836
2026-01-02 03:07:41.52	353.50	7.27	-51.7	-54.2	3.6	0.00e+00	0	37	104	0	60	86720
2026-01-02 03:07:43.54	353.06	7.32	-51.7	-54.1	3.6	0.00e+00	0	37	104	0	60	85873
2026-01-02 03:07:45.57	352.63	7.37	-51.9	-54.4	3.6	0.00e+00	0	37	104	0	60	88247
2026-01-02 03:07:47.59	352.19	7.42	-51.7	-54.2	3.6	0.00e+00	0	37	104	0	60	86455
2026-01-02 03:07:49.61	351.75	7.47	-51.6	-54.1	3.6	0.00e+00	0	37	104	0	60	85781
2026-01-02 03:07:51.63	351.31	7.52	-51.6	-54.0	3.6	0.00e+00	0	37	104	0	60	85099
2026-01-02 03:07:53.66	350.86	7.56	-51.7	-54.2	3.6	0.00e+00	0	37	104	0	60	86224
2026-01-02 03:07:55.68	350.42	7.61	-51.7	-54.1	3.6	0.00e+00	0	37	104	0	60	86128
2026-01-02 03:07:57.70	349.97	7.65	-51.7	-54.2	3.6	0.00e+00	0	37	104	0	60	86233
2026-01-02 03:07:59.72	349.52	7.69	-51.8	-54.2	3.6	0.00e+00	0	37	104	0	60	86827
2026-01-02 03:08:01.75	349.07	7.73	-51.7	-54.2	3.6	0.00e+00	0	37	104	0	60	86448
2026-01-02 03:08:03.77	348.62	7.77	-51.7	-54.1	3.6	0.00e+00	0	37	104	0	60	85782
2026-01-02 03:08:05.79	348.17	7.81	-51.7	-54.2	3.6	0.00e+00	0	37	104	0	60	86583
2026-01-02 03:08:07.81	347.71	7.84	-51.7	-54.2	3.6	0.00e+00	0	37	104	0	60	86230
2026-01-02 03:08:09.83	347.26	7.88	-51.7	-54.2	3.6	0.00e+00	0	37	104	0	60	86668
2026-01-02 03:08:11.85	346.80	7.91	-51.7	-54.2	3.6	0.00e+00	0	37	104	0	60	86250
2026-01-02 03:08:13.87	346.34	7.94	-51.8	-54.2	3.6	0.00e+00	0	37	104	0	60	87148
2026-01-02 03:08:15.90	345.88	7.97	-51.8	-54.2	3.6	0.00e+00	0	37	104	0	60	86795
2026-01-02 03:08:17.92	345.42	8.00	-51.8	-54.2	3.6	0.00e+00	0	37	104	0	60	87128
2026-01-02 03:08:19.94	344.96	8.03	-51.8	-54.2	3.6	0.00e+00	0	37	104	0	60	86905
2026-01-02 03:08:21.96	344.50	8.05	-51.7	-54.1	3.6	0.00e+00	0	37	104	0	60	86103
2026-01-02 03:08:23.98	344.03	8.08	-51.7	-54.2	3.6	0.00e+00	0	37	104	0	60	86532
2026-01-02 03:08:26.00	343.57	8.10	-51.8	-54.2	3.6	0.00e+00	0	37	104	0	60	86586
2026-01-02 03:08:28.03	343.10	8.12	-51.7	-54.2	3.6	0.00e+00	0	37	104	0	60	86277
2026-01-02 03:08:30.05	342.63	8.14	-51.7	-54.1	3.6	0.00e+00	0	37	104	0	60	86081
2026-01-02 03:08:32.07	342.17	8.16	-51.6	-54.1	3.6	0.00e+00	0	37	104	0	60	85231
2026-01-02 03:08:34.09	341.70	8.18	-51.5	-54.0	3.6	0.00e+00	0	37	104	0	60	84767
2026-01-02 03:08:36.11	341.23	8.19	-51.8	-54.2	3.6	0.00e+00	0	37	104	0	60	86552
2026-01-02 03:08:38.13	340.76	8.20	-51.7	-54.1	3.6	0.00e+00	0	37	104	0	60	85784
2026-01-02 03:08:40.16	340.29	8.22	-51.9	-54.3	3.6	0.00e+00	0	37	104	0	60	87828
2026-01-02 03:08:42.18	339.82	8.23	-51.7	-54.1	3.6	0.00e+00	0	37	104	0	60	85503
2026-01-02 03:08:44.20	339.35	8.24	-51.8	-54.3	3.6	0.00e+00	0	37	104	0	60	87617
2026-01-02 03:08:46.22	338.88	8.24	-51.8	-54.2	3.6	0.00e+00	0	37	104	0	60	86537
2026-01-02 03:08:48.25	338.41	8.25	-51.7	-54.2	3.6	0.00e+00	0	37	104	0	60	86323
2026-01-02 03:08:50.27	337.93	8.25	-51.9	-54.4	3.6	0.00e+00	0	37	104	0	60	88506
2026-01-02 03:08:52.29	337.46	8.26	-51.8	-54.2	3.6	0.00e+00	0	37	104	0	60	87042
2026-01-02 03:08:54.31	336.99	8.26	-51.7	-54.1	3.6	0.00e+00	0	37	104	0	60	86156
2026-01-02 03:08:56.33	336.52	8.26	-51.7	-54.2	3.6	0.00e+00	0	37	104	0	60	86532
2026-01-02 03:08:58.36	336.04	8.26	-51.8	-54.2	3.6	0.00e+00	0	37	104	0	60	86973
2026-01-02 03:09:00.38	335.57	8.25	-51.7	-54.2	3.6	0.00e+00	0	37	104	0	60	86522
2026-01-02 03:09:02.40	335.10	8.25	-51.7	-54.2	3.6	0.00e+00	0	37	104	0	60	86565
2026-01-02 03:09:04.42	334.63	8.24	-51.7	-54.1	3.6	0.00e+00	0	37	104	0	60	86136
2026-01-02 03:09:06.44	334.16	8.23	-51.7	-54.2	3.6	0.00e+00	0	37	104	0	60	86449
2026-01-02 03:09:08.46	333.69	8.22	-51.7	-54.2	3.6	0.00e+00	0	37	104	0	60	86420
2026-01-02 03:09:10.48	333.22	8.21	-51.8	-54.2	3.6	0.00e+00	0	37	104	0	60	86934
2026-01-02 03:09:12.50	332.75	8.20	-51.7	-54.1	3.6	0.00e+00	0	37	104	0	60	86013
2026-01-02 03:09:14.53	332.28	8.19	-51.6	-54.1	3.6	0.00e+00	0	37	104	0	60	85881
2026-01-02 03:09:16.55	331.81	8.17	-51.7	-54.2	3.6	0.00e+00	0	37	104	0	60	86492
2026-01-02 03:09:18.57	331.34	8.15	-51.8	-54.2	3.6	0.00e+00	0	37	104	0	60	87181
2026-01-02 03:09:20.59	330.87	8.13	-51.7	-54.1	3.6	0.00e+00	0	37	104	0	60	86038
2026-01-02 03:09:22.61	330.40	8.11	-51.8	-54.2	3.6	0.00e+00	0	37	104	0	60	86748
2026-01-02 03:09:24.64	329.94	8.09	-51.7	-54.2	3.6	0.00e+00	0	37	104	0	60	86350
2026-01-02 03:09:26.66	329.47	8.07	-51.7	-54.1	3.6	0.00e+00	0	37	104	0	60	86027
2026-01-02 03:09:28.68	329.01	8.04	-51.8	-54.3	3.6	0.00e+00	0	37	104	0	60	87297
2026-01-02 03:09:30.70	328.54	8.02	-51.9	-54.3	3.6	0.00e+00	0	37	104	0	60	88171
2026-01-02 03:09:32.72	328.08	7.99	-51.6	-54.1	3.6	0.00e+00	0	37	104	0	60	85870
2026-01-02 03:09:34.75	327.62	7.96	-51.8	-54.3	3.6	0.00e+00	0	37	104	0	60	87299
2026-01-02 03:09:36.77	327.16	7.93	-51.9	-54.3	3.6	0.00e+00	0	37	104	0	60	88045
2026-01-02 03:09:38.79	326.70	7.90	-51.8	-54.3	3.6	0.00e+00	0	38	104	0	60	87440
2026-01-02 03:09:40.81	326.24	7.86	-51.8	-54.3	3.6	0.00e+00	0	37	104	0	60	87661
2026-01-02 03:09:42.83	325.78	7.83	-51.7	-54.2	3.6	0.00e+00	0	37	104	0	60	86681
2026-01-02 03:09:44.86	325.33	7.79	-51.7	-54.1	3.6	0.00e+00	0	37	104	0	60	85880
2026-01-02 03:09:46.88	324.87	7.75	-51.7	-54.1	3.6	0.00e+00	0	38	104	0	60	86109
2026-01-02 03:09:48.90	324.42	7.72	-51.6	-54.1	3.6	0.00e+00	0	38	104	0	60	85764
2026-01-02 03:09:50.93	323.97	7.67	-51.7	-54.1	3.6	0.00e+00	0	38	104	0	60	85802
2026-01-02 03:09:52.95	323.52	7.63	-51.8	-54.3	3.6	0.00e+00	0	38	104	0	60	87846
2026-01-02 03:09:54.97	323.07	7.59	-51.6	-54.1	3.6	0.00e+00	0	38	104	0	60	85439
2026-01-02 03:09:56.99	322.63	7.55	-51.7	-54.1	3.6	0.00e+00	0	38	104	0	60	85464
2026-01-02 03:09:59.01	322.18	7.50	-51.6	-54.0	3.6	0.00e+00	0	38	104	0	60	85216
2026-01-02 03:10:01.03	321.74	7.45	-51.7	-54.2	3.6	0.00e+00	0	38	104	0	60	86238
2026-01-02 03:10:03.06	321.30	7.41	-51.6	-54.1	3.6	0.00e+00	0	37	104	0	60	85743
2026-01-02 03:10:05.08	320.86	7.36	-51.8	-54.3	3.6	0.00e+00	0	38	104	0	60	87296
2026-01-02 03:10:07.10	320.42	7.31	-51.7	-54.2	3.6	0.00e+00	0	37	104	0	60	86338
2026-01-02 03:10:09.12	319.99	7.25	-51.6	-54.0	3.6	0.00e+00	0	38	104	0	60	85134
2026-01-02 03:10:11.14	319.55	7.20	-51.6	-54.1	3.6	0.00e+00	0	38	104	0	60	85454
2026-01-02 03:10:13.17	319.12	7.15	-51.6	-54.1	3.6	0.00e+00	0	38	104	0	60	85819
2026-01-02 03:10:15.19	318.69	7.09	-51.8	-54.3	3.6	0.00e+00	0	38	104	0	60	88078
2026-01-02 03:10:17.21	318.26	7.03	-51.7	-54.1	3.6	0.00e+00	0	38	104	0	60	85515
2026-01-02 03:10:19.23	317.84	6.98	-51.7	-54.1	3.6	0.00e+00	0	38	104	0	60	86169
2026-01-02 03:10:21.25	317.42	6.92	-51.8	-54.3	3.6	0.00e+00	0	38	104	0	60	87217
2026-01-02 03:10:23.27	317.00	6.86	-51.8	-54.3	3.6	0.00e+00	0	38	104	0	60	87446
2026-01-02 03:10:25.29	316.58	6.80	-51.7	-54.2	3.6	0.00e+00	0	38	104	0	60	86506
2026-01-02 03:10:27.32	316.16	6.74	-51.7	-54.1	3.6	0.00e+00	0	38	104	0	60	86041
2026-01-02 03:10:29.34	315.74	6.67	-51.8	-54.3	3.6	0.00e+00	0	38	104	0	60	87841
2026-01-02 03:10:31.36	315.33	6.61	-51.8	-54.2	3.6	0.00e+00	0	38	104	0	60	86818
2026-01-02 03:10:33.38	314.92	6.55	-51.7	-54.1	3.6	0.00e+00	0	38	104	0	60	85738
2026-01-02 03:10:35.40	314.51	6.48	-51.8	-54.3	3.6	0.00e+00	0	38	104	0	60	87247
2026-01-02 03:10:37.42	314.11	6.41	-51.7	-54.1	3.6	0.00e+00	0	38	104	0	60	86018
2026-01-02 03:10:39.45	313.70	6.35	-51.6	-54.0	3.6	0.00e+00	0	38	104	0	60	84892
2026-01-02 03:10:41.47	313.30	6.28	-51.6	-54.0	3.6	0.00e+00	0	38	104	0	60	84762
2026-01-02 03:10:43.49	312.90	6.21	-51.6	-54.1	3.6	0.00e+00	0	38	104	0	60	85374
2026-01-02 03:10:45.51	312.51	6.14	-51.6	-54.1	3.6	0.00e+00	0	38	104	0	60	85564
2026-01-02 03:10:47.54	312.11	6.07	-51.7	-54.1	3.6	0.00e+00	0	38	104	0	60	85558
2026-01-02 03:10:49.56	311.72	6.00	-51.7	-54.1	3.6	0.00e+00	0	38	104	0	60	86004
2026-01-02 03:10:51.58	311.33	5.92	-51.7	-54.2	3.6	0.00e+00	0	38	104	0	60	86389
2026-01-02 03:10:53.60	310.94	5.85	-51.8	-54.3	3.5	0.00e+00	0	38	104	0	60	87465
2026-01-02 03:10:55.62	310.56	5.78	-51.8	-54.2	3.6	0.00e+00	0	38	104	0	60	86473
2026-01-02 03:10:57.64	310.18	5.70	-51.7	-54.2	3.6	0.00e+00	0	38	104	0	60	86238
2026-01-02 03:10:59.65	309.80	5.63	-51.8	-54.2	3.6	0.00e+00	0	38	104	0	60	86659
2026-01-02 03:11:01.67	309.42	5.55	-51.8	-54.2	3.6	0.00e+00	0	38	104	0	60	87116
2026-01-02 03:11:03.69	309.05	5.48	-51.8	-54.2	3.6	0.00e+00	0	38	104	0	60	86773
2026-01-02 03:11:05.71	308.68	5.40	-51.8	-54.2	3.6	0.00e+00	0	38	104	0	60	86690
2026-01-02 03:11:07.73	308.31	5.32	-51.7	-54.2	3.6	0.00e+00	0	38	104	0	60	86441
2026-01-02 03:11:09.75	307.94	5.24	-51.9	-54.4	3.6	0.00e+00	0	38	104	0	60	88888
2026-01-02 03:11:11.77	307.58	5.16	-51.7	-54.1	3.6	0.00e+00	0	38	104	0	60	85859
2026-01-02 03:11:13.79	307.21	5.08	-51.7	-54.1	3.6	0.00e+00	0	38	104	0	60	86115
2026-01-02 03:11:15.81	306.86	5.00	-51.8	-54.2	3.6	0.00e+00	0	38	104	0	60	86819
2026-01-02 03:11:17.84	306.50	4.92	-51.8	-54.2	3.6	0.00e+00	0	38	104	0	60	87012
2026-01-02 03:11:19.86	306.14	4.84	-51.6	-54.1	3.6	0.00e+00	0	38	104	0	60	85564
2026-01-02 03:11:21.88	305.79	4.76	-51.8	-54.3	3.6	0.00e+00	0	38	104	0	60	87622
2026-01-02 03:11:23.90	305.44	4.68	-51.6	-54.1	3.6	0.00e+00	0	38	104	0	60	85877
2026-01-02 03:11:25.92	305.09	4.59	-51.9	-54.4	3.6	0.00e+00	0	38	104	0	60	88441
2026-01-02 03:11:27.94	304.75	4.51	-51.7	-54.2	3.6	0.00e+00	0	38	104	0	60	86231
2026-01-02 03:11:29.95	304.41	4.43	-51.7	-54.2	3.6	0.00e+00	0	38	104	0	60	86980
2026-01-02 03:11:31.97	304.07	4.34	-51.9	-54.3	3.6	0.00e+00	0	38	104	0	60	88110
2026-01-02 03:11:33.99	303.73	4.26	-51.9	-54.3	3.6	0.00e+00	0	38	104	0	60	87970
2026-01-02 03:11:36.01	303.40	4.17	-51.9	-54.3	3.6	0.00e+00	0	38	104	0	60	87696
2026-01-02 03:11:38.03	303.06	4.09	-51.7	-54.2	3.6	0.00e+00	0	38	104	0	60	86679
2026-01-02 03:11:40.05	302.73	4.00	-51.7	-54.2	3.6	0.00e+00	0	38	104	0	60	86742
2026-01-02 03:11:42.07	302.41	3.91	-51.7	-54.2	3.6	0.00e+00	0	38	104	0	60	86264
2026-01-02 03:11:44.09	302.08	3.83	-51.7	-54.2	3.6	0.00e+00	0	38	104	0	60	86470
2026-01-02 03:11:46.11	301.76	3.74	-51.6	-54.0	3.6	0.00e+00	0	38	104	0	60	85206
2026-01-02 03:11:48.14	301.44	3.65	-51.8	-54.2	3.6	0.00e+00	0	38	104	0	60	87163
2026-01-02 03:11:50.16	301.12	3.56	-51.7	-54.2	3.6	0.00e+00	0	38	104	0	60	86860
2026-01-02 03:11:52.17	300.80	3.48	-51.7	-54.1	3.6	0.00e+00	0	38	104	0	60	85953
2026-01-02 03:11:54.20	300.49	3.39	-51.8	-54.3	3.6	0.00e+00	0	38	104	0	60	87622
2026-01-02 03:11:56.22	300.18	3.30	-51.7	-54.1	3.6	0.00e+00	0	38	104	0	60	85693
2026-01-02 03:11:58.24	299.87	3.21	-51.6	-54.1	3.6	0.00e+00	0	38	104	0	60	85735
2026-01-02 03:12:00.26	299.56	3.12	-51.6	-54.1	3.6	0.00e+00	0	38	104	0	60	85674
2026-01-02 03:12:02.28	299.26	3.03	-51.6	-54.2	3.6	0.00e+00	0	38	104	0	60	86304
2026-01-02 03:12:04.30	298.96	2.94	-51.6	-54.1	3.6	0.00e+00	0	38	104	0	60	85493
2026-01-02 03:12:06.32	298.66	2.85	-51.8	-54.3	3.6	0.00e+00	0	38	104	0	60	87219
2026-01-02 03:12:08.34	298.36	2.76	-51.6	-54.0	3.6	0.00e+00	0	38	104	0	60	84873
2026-01-02 03:12:10.36	298.07	2.67	-51.5	-54.0	3.6	0.00e+00	0	38	104	0	60	84413
2026-01-02 03:12:12.38	297.78	2.58	-51.7	-54.2	3.6	0.00e+00	0	38	104	0	60	86889
2026-01-02 03:12:14.40	297.49	2.49	-51.7	-54.1	3.6	0.00e+00	0	38	104	0	60	85957
2026-01-02 03:12:16.42	297.20	2.40	-51.9	-54.3	3.6	0.00e+00	0	38	104	0	60	88081
2026-01-02 03:12:18.44	296.92	2.31	-51.7	-54.2	3.6	0.00e+00	0	38	104	0	60	86278
2026-01-02 03:12:20.46	296.63	2.22	-51.7	-54.2	3.6	0.00e+00	0	38	104	0	60	86267
2026-01-02 03:12:22.48	296.35	2.13	-51.7	-54.1	3.6	0.00e+00	0	38	104	0	60	85635
2026-01-02 03:12:24.50	296.07	2.03	-51.7	-54.2	3.6	0.00e+00	0	38	104	0	60	86369
2026-01-02 03:12:26.52	295.80	1.94	-51.6	-54.1	3.5	0.00e+00	0	38	104	0	60	85702
2026-01-02 03:12:28.54	295.52	1.85	-51.7	-54.2	3.6	0.00e+00	0	38	104	0	60	86704
2026-01-02 03:12:30.56	295.25	1.76	-51.8	-54.2	3.5	0.00e+00	0	38	104	0	60	86559
2026-01-02 03:12:32.58	294.98	1.67	-51.7	-54.1	3.6	0.00e+00	0	38	104	0	60	86130
2026-01-02 03:12:34.60	294.71	1.57	-51.7	-54.1	3.6	0.00e+00	0	38	104	0	60	86099
2026-01-02 03:12:36.62	294.45	1.48	-51.7	-54.1	3.6	0.00e+00	0	38	104	0	60	86025
2026-01-02 03:12:38.64	294.19	1.39	-51.7	-54.1	3.5	0.00e+00	0	38	104	0	60	85628
2026-01-02 03:12:40.66	293.92	1.30	-51.6	-54.1	3.6	0.00e+00	0	38	104	0	60	85710
2026-01-02 03:12:42.68	293.67	1.20	-51.7	-54.2	3.6	0.00e+00	0	38	104	0	60	86636
2026-01-02 03:12:44.70	293.41	1.11	-51.8	-54.3	3.6	0.00e+00	0	38	104	0	60	87507
2026-01-02 03:12:46.72	293.15	1.02	-51.7	-54.1	3.6	0.00e+00	0	38	104	0	60	85490
2026-01-02 03:12:48.75	292.90	0.93	-51.7	-54.1	3.6	0.00e+00	0	38	104	0	60	85970
2026-01-02 03:12:50.77	292.65	0.83	-51.7	-54.2	3.6	0.00e+00	0	38	104	0	60	86370
2026-01-02 03:12:52.78	292.40	0.74	-51.5	-54.0	3.6	0.00e+00	0	38	104	0	60	85070
2026-01-02 03:12:54.81	292.15	0.65	-51.7	-54.1	3.6	0.00e+00	0	38	104	0	60	85867
2026-01-02 03:12:56.82	291.91	0.56	-51.7	-54.1	3.6	0.00e+00	0	38	104	0	60	86102
2026-01-02 03:12:58.84	291.66	0.46	-51.7	-54.2	3.6	0.00e+00	0	38	104	0	60	86521
2026-01-02 03:13:00.87	291.42	0.37	-51.6	-54.0	3.6	0.00e+00	0	38	104	0	60	85053
2026-01-02 03:13:02.88	291.18	0.28	-51.7	-54.1	3.5	0.00e+00	0	38	104	0	60	86007
2026-01-02 03:13:04.90	290.95	0.18	-51.7	-54.1	3.6	0.00e+00	0	38	104	0	60	85707
2026-01-02 03:13:06.92	290.71	0.09	-51.8	-54.2	3.6	0.00e+00	0	38	104	0	60	86897
2026-01-02 03:13:08.95	290.48	-0.00	-51.7	-54.1	3.6	0.00e+00	0	38	104	0	60	85736

#Closed at: 2026-01-02 03:13:10
#Recorded file [0 MB]: D:/lorett/data/35034_260102_060441.dat