passes_logs/2026/01/02/R4.6S_Anadyr_2ch/R4.6S_Anadyr_2ch__20260102_013048_2025-108B_rec.log

#Pass ID: 20260102_013048_2025-108B
#Satellite: 2025-108B
#Configuration: 3PB_600M
#almurnet v.1.7.20251203
#Start time: 2026-01-02 01:30:49

#Version: 2.2.20231116
#Station: R4.6S_Anadyr_2ch
#Location: 177.4865 lon 64.73178 lat
#TLE: 1 64088U 25108B   25351.01672131  .00008460  00000+0  43413-3 0  9994
#TLE: 2 64088  97.4940  63.8579 0011684 285.1423  74.8517 15.16717580 31720

#Time	Az	El	Level	Level2	SNR	BER	BlckErr	Temp	State	Recorded	gain1	gain2
2026-01-02 01:30:49.34	17.86	0.04	-38.1	-37.7	12.0	0.00e+00	0	34	0	0	56	16365
2026-01-02 01:30:52.36	17.64	0.21	-51.6	-54.1	3.6	0.00e+00	0	35	104	0	60	85342
2026-01-02 01:30:55.40	17.42	0.39	-51.5	-54.0	3.6	0.00e+00	0	36	104	0	60	84608
2026-01-02 01:30:58.43	17.19	0.56	-51.6	-54.1	3.6	0.00e+00	0	36	104	0	60	85602
2026-01-02 01:31:01.46	16.96	0.74	-51.6	-54.1	3.6	0.00e+00	0	36	104	0	60	85571
2026-01-02 01:31:04.49	16.73	0.92	-51.7	-54.1	3.6	0.00e+00	0	36	104	0	60	85505
2026-01-02 01:31:07.52	16.50	1.10	-51.7	-54.1	3.6	0.00e+00	0	36	104	0	60	86003
2026-01-02 01:31:10.56	16.26	1.28	-51.6	-54.0	3.6	0.00e+00	0	36	104	0	60	84946
2026-01-02 01:31:13.59	16.02	1.46	-51.6	-54.1	3.6	0.00e+00	0	36	104	0	60	85745
2026-01-02 01:31:16.62	15.77	1.64	-51.7	-54.1	3.6	0.00e+00	0	36	104	0	60	85652
2026-01-02 01:31:19.65	15.52	1.82	-51.6	-54.1	3.6	0.00e+00	0	36	104	0	60	85628
2026-01-02 01:31:22.68	15.26	2.00	-51.6	-54.1	3.6	0.00e+00	0	37	104	0	60	85462
2026-01-02 01:31:25.72	15.00	2.19	-51.6	-54.0	3.6	0.00e+00	0	37	104	0	60	84987
2026-01-02 01:31:28.75	14.74	2.38	-51.8	-54.3	3.6	0.00e+00	0	37	104	0	60	87239
2026-01-02 01:31:31.78	14.47	2.56	-51.7	-54.1	3.6	0.00e+00	0	37	104	0	60	85765
2026-01-02 01:31:34.81	14.20	2.75	-51.7	-54.2	3.6	0.00e+00	0	37	104	0	60	86847
2026-01-02 01:31:37.84	13.92	2.94	-51.7	-54.1	3.6	0.00e+00	0	37	104	0	60	86047
2026-01-02 01:31:40.87	13.64	3.13	-51.6	-54.0	3.6	0.00e+00	0	37	104	0	60	85099
2026-01-02 01:31:43.90	13.35	3.32	-51.7	-54.2	3.6	0.00e+00	0	37	104	0	60	86299
2026-01-02 01:31:46.93	13.06	3.51	-51.8	-54.2	3.6	0.00e+00	0	37	104	0	60	86559
2026-01-02 01:31:49.96	12.77	3.71	-51.6	-54.0	3.6	0.00e+00	0	37	104	0	60	85149
2026-01-02 01:31:53.00	12.46	3.90	-51.7	-54.1	3.6	0.00e+00	0	37	104	0	60	85580
2026-01-02 01:31:56.03	12.16	4.10	-51.6	-54.1	3.6	0.00e+00	0	37	104	0	60	85608
2026-01-02 01:31:59.06	11.84	4.29	-51.7	-54.1	3.6	0.00e+00	0	37	104	0	60	85994
2026-01-02 01:32:02.09	11.53	4.49	-51.7	-54.1	3.6	0.00e+00	0	37	104	0	60	85873
2026-01-02 01:32:05.12	11.20	4.69	-51.6	-54.1	3.6	0.00e+00	0	37	104	0	60	85383
2026-01-02 01:32:08.16	10.87	4.89	-51.6	-54.1	3.6	0.00e+00	0	37	104	0	60	85521
2026-01-02 01:32:11.19	10.54	5.10	-51.7	-54.1	3.6	0.00e+00	0	37	104	0	60	86003
2026-01-02 01:32:14.22	10.20	5.30	-51.6	-54.1	3.6	0.00e+00	0	37	104	0	60	85619
2026-01-02 01:32:17.25	9.85	5.50	-51.6	-54.1	3.6	0.00e+00	0	38	104	0	60	85654
2026-01-02 01:32:20.29	9.49	5.71	-51.7	-54.1	3.6	0.00e+00	0	37	104	0	60	85944
2026-01-02 01:32:23.32	9.13	5.92	-51.6	-54.0	3.6	0.00e+00	0	37	104	0	60	84913
2026-01-02 01:32:26.35	8.77	6.12	-51.7	-54.1	3.6	0.00e+00	0	37	104	0	60	86106
2026-01-02 01:32:29.38	8.39	6.33	-51.6	-54.1	3.6	0.00e+00	0	38	104	0	60	86130
2026-01-02 01:32:32.41	8.01	6.54	-51.7	-54.1	3.6	0.00e+00	0	38	104	0	60	85404
2026-01-02 01:32:35.44	7.63	6.76	-51.7	-54.2	3.6	0.00e+00	0	38	104	0	60	86437
2026-01-02 01:32:38.48	7.23	6.97	-51.6	-54.1	3.6	0.00e+00	0	38	104	0	60	85395
2026-01-02 01:32:41.51	6.83	7.18	-51.7	-54.1	3.6	0.00e+00	0	38	104	0	60	85979
2026-01-02 01:32:44.54	6.42	7.40	-51.7	-54.1	3.6	0.00e+00	0	38	104	0	60	86178
2026-01-02 01:32:47.57	6.00	7.62	-51.8	-54.2	3.6	0.00e+00	0	38	104	0	60	86990
2026-01-02 01:32:50.61	5.57	7.83	-51.7	-54.2	3.6	0.00e+00	0	38	104	0	60	86379
2026-01-02 01:32:53.64	5.14	8.05	-51.7	-54.3	3.6	0.00e+00	0	38	104	0	60	87248
2026-01-02 01:32:56.67	4.70	8.27	-51.7	-54.1	3.6	0.00e+00	0	38	104	0	60	85804
2026-01-02 01:32:59.70	4.25	8.49	-51.7	-54.1	3.6	0.00e+00	0	38	104	0	60	85497
2026-01-02 01:33:02.74	3.79	8.72	-51.8	-54.2	3.6	0.00e+00	0	38	104	0	60	86746
2026-01-02 01:33:05.77	3.32	8.94	-51.7	-54.1	3.6	0.00e+00	0	38	104	0	60	85693
2026-01-02 01:33:08.80	2.84	9.16	-51.7	-54.2	3.6	0.00e+00	0	38	104	0	60	86697
2026-01-02 01:33:11.83	2.35	9.39	-51.7	-54.1	3.6	0.00e+00	0	38	104	0	60	86150
2026-01-02 01:33:14.87	1.86	9.61	-51.8	-54.2	3.6	0.00e+00	0	38	104	0	60	86842
2026-01-02 01:33:17.90	1.35	9.84	-51.7	-54.1	3.6	0.00e+00	0	38	104	0	60	85806
2026-01-02 01:33:20.93	0.84	10.07	-51.8	-54.2	3.6	0.00e+00	0	38	104	0	60	87035
2026-01-02 01:33:23.96	0.31	10.30	-51.7	-54.2	3.6	0.00e+00	0	38	104	0	60	86689
2026-01-02 01:33:26.99	359.78	10.53	-51.7	-54.1	3.6	0.00e+00	0	38	104	0	60	85887
2026-01-02 01:33:30.02	359.23	10.76	-51.7	-54.1	3.6	0.00e+00	0	38	104	0	60	85779
2026-01-02 01:33:33.05	358.67	10.99	-51.7	-54.2	3.6	0.00e+00	0	38	104	0	60	86883
2026-01-02 01:33:36.08	358.11	11.22	-51.7	-54.2	3.6	0.00e+00	0	38	104	0	60	86604
2026-01-02 01:33:39.11	357.53	11.45	-51.6	-54.1	3.6	0.00e+00	0	38	104	0	60	85774
2026-01-02 01:33:42.14	356.94	11.68	-51.7	-54.1	3.6	0.00e+00	0	38	104	0	60	86128
2026-01-02 01:33:45.17	356.34	11.91	-51.7	-54.2	3.6	0.00e+00	0	38	104	0	60	86452
2026-01-02 01:33:48.21	355.72	12.14	-51.7	-54.2	3.6	0.00e+00	0	38	104	0	60	86291
2026-01-02 01:33:51.24	355.10	12.38	-51.7	-54.1	3.6	0.00e+00	0	38	104	0	60	86044
2026-01-02 01:33:54.27	354.46	12.61	-51.7	-54.2	3.6	0.00e+00	0	38	104	0	60	86314
2026-01-02 01:33:57.30	353.81	12.84	-51.7	-54.1	3.6	0.00e+00	0	38	104	0	60	85833
2026-01-02 01:34:00.33	353.15	13.07	-51.7	-54.1	3.6	0.00e+00	0	38	104	0	60	85374
2026-01-02 01:34:03.37	352.47	13.30	-51.8	-54.3	3.6	0.00e+00	0	38	104	0	60	87449
2026-01-02 01:34:06.40	351.78	13.53	-51.8	-54.3	3.6	0.00e+00	0	38	104	0	60	87570
2026-01-02 01:34:09.43	351.08	13.76	-51.8	-54.2	3.6	0.00e+00	0	38	104	0	60	86469
2026-01-02 01:34:12.47	350.37	13.99	-51.7	-54.1	3.6	0.00e+00	0	38	104	0	60	85991
2026-01-02 01:34:15.50	349.64	14.22	-51.7	-54.1	3.6	0.00e+00	0	38	104	0	60	85804
2026-01-02 01:34:18.53	348.90	14.44	-51.7	-54.2	3.6	0.00e+00	0	38	104	0	60	86503
2026-01-02 01:34:21.56	348.15	14.67	-51.7	-54.1	3.6	0.00e+00	0	38	104	0	60	85678
2026-01-02 01:34:24.59	347.38	14.89	-51.7	-54.1	3.6	0.00e+00	0	38	104	0	60	85756
2026-01-02 01:34:27.62	346.60	15.11	-51.7	-54.1	3.6	0.00e+00	0	38	104	0	60	86082
2026-01-02 01:34:30.65	345.81	15.33	-51.8	-54.2	3.6	0.00e+00	0	38	104	0	60	86863
2026-01-02 01:34:33.69	345.00	15.54	-51.7	-54.1	3.6	0.00e+00	0	38	104	0	60	85993
2026-01-02 01:34:36.71	344.18	15.75	-51.7	-54.1	3.6	0.00e+00	0	38	104	0	60	85972
2026-01-02 01:34:39.75	343.34	15.96	-51.8	-54.2	3.6	0.00e+00	0	38	104	0	60	87167
2026-01-02 01:34:42.78	342.49	16.17	-51.7	-54.2	3.6	0.00e+00	0	38	104	0	60	86392
2026-01-02 01:34:45.80	341.63	16.37	-51.7	-54.1	3.6	0.00e+00	0	38	104	0	60	85781
2026-01-02 01:34:48.83	340.75	16.57	-51.7	-54.2	3.6	0.00e+00	0	38	104	0	60	86278
2026-01-02 01:34:51.87	339.86	16.77	-51.7	-54.2	3.5	0.00e+00	0	38	104	0	60	86833
2026-01-02 01:34:54.90	338.96	16.96	-51.7	-54.1	3.6	0.00e+00	0	38	104	0	60	85873
2026-01-02 01:34:57.93	338.04	17.14	-51.8	-54.3	3.6	0.00e+00	0	38	104	0	60	87936
2026-01-02 01:35:00.97	337.10	17.32	-51.7	-54.1	3.6	0.00e+00	0	38	104	0	60	85915
2026-01-02 01:35:04.00	336.16	17.50	-51.8	-54.3	3.6	0.00e+00	0	38	104	0	60	87351
2026-01-02 01:35:07.03	335.20	17.67	-51.7	-54.2	3.6	0.00e+00	0	39	104	0	60	86530
2026-01-02 01:35:10.06	334.23	17.83	-51.8	-54.3	3.6	0.00e+00	0	38	104	0	60	87239
2026-01-02 01:35:13.09	333.25	17.99	-51.7	-54.2	3.6	0.00e+00	0	39	104	0	60	86785
2026-01-02 01:35:16.13	332.26	18.14	-51.7	-54.1	3.6	0.00e+00	0	38	104	0	60	86142
2026-01-02 01:35:19.16	331.25	18.28	-51.8	-54.2	3.6	0.00e+00	0	39	104	0	60	87134
2026-01-02 01:35:22.19	330.24	18.42	-51.8	-54.3	3.6	0.00e+00	0	38	104	0	60	87312
2026-01-02 01:35:25.23	329.21	18.55	-51.7	-54.2	3.6	0.00e+00	0	38	104	0	60	86254
2026-01-02 01:35:28.26	328.17	18.67	-51.7	-54.1	3.6	0.00e+00	0	39	104	0	60	86064
2026-01-02 01:35:31.29	327.13	18.78	-51.8	-54.3	3.6	0.00e+00	0	38	104	0	60	87276
2026-01-02 01:35:34.32	326.08	18.89	-51.8	-54.3	3.6	0.00e+00	0	39	104	0	60	87855
2026-01-02 01:35:37.35	325.02	18.98	-51.7	-54.2	3.6	0.00e+00	0	39	104	0	60	86602
2026-01-02 01:35:40.39	323.94	19.07	-51.7	-54.2	3.6	0.00e+00	0	38	104	0	60	86921
2026-01-02 01:35:43.42	322.87	19.15	-51.7	-54.2	3.6	0.00e+00	0	39	104	0	60	86916
2026-01-02 01:35:46.45	321.78	19.22	-51.9	-54.4	3.6	0.00e+00	0	39	104	0	60	88260
2026-01-02 01:35:49.48	320.70	19.28	-51.8	-54.2	3.6	0.00e+00	0	39	104	0	60	87045
2026-01-02 01:35:52.52	319.60	19.33	-51.7	-54.2	3.6	0.00e+00	0	39	104	0	60	86625
2026-01-02 01:35:55.55	318.50	19.37	-51.7	-54.2	3.6	0.00e+00	0	39	104	0	60	86512
2026-01-02 01:35:58.59	317.40	19.40	-51.7	-54.1	3.6	0.00e+00	0	38	104	0	60	86153
2026-01-02 01:36:01.62	316.30	19.42	-51.6	-54.1	3.6	0.00e+00	0	39	104	0	60	85451
2026-01-02 01:36:04.66	315.19	19.43	-51.8	-54.3	3.6	0.00e+00	0	38	104	0	60	87400
2026-01-02 01:36:07.69	314.09	19.44	-51.9	-54.3	3.6	0.00e+00	0	38	104	0	60	87832
2026-01-02 01:36:10.72	312.98	19.43	-51.7	-54.1	3.6	0.00e+00	0	39	104	0	60	86145
2026-01-02 01:36:13.76	311.88	19.41	-51.6	-54.1	3.6	0.00e+00	0	39	104	0	60	85697
2026-01-02 01:36:16.79	310.78	19.38	-51.8	-54.2	3.6	0.00e+00	0	39	104	0	60	87183
2026-01-02 01:36:19.82	309.68	19.34	-51.8	-54.3	3.6	0.00e+00	0	39	104	0	60	87254
2026-01-02 01:36:22.86	308.58	19.29	-51.8	-54.2	3.6	0.00e+00	0	39	104	0	60	86821
2026-01-02 01:36:25.89	307.49	19.24	-51.7	-54.2	3.5	0.00e+00	0	39	104	0	60	86717
2026-01-02 01:36:28.92	306.40	19.17	-51.7	-54.2	3.6	0.00e+00	0	39	104	0	60	86352
2026-01-02 01:36:31.95	305.32	19.09	-51.6	-54.1	3.6	0.00e+00	0	39	104	0	60	85337
2026-01-02 01:36:34.99	304.24	19.01	-51.7	-54.1	3.6	0.00e+00	0	39	104	0	60	86045
2026-01-02 01:36:38.02	303.18	18.91	-51.6	-54.1	3.5	0.00e+00	0	39	104	0	60	85726
2026-01-02 01:36:41.05	302.12	18.81	-51.8	-54.2	3.6	0.00e+00	0	39	104	0	60	87077
2026-01-02 01:36:44.09	301.06	18.70	-51.7	-54.1	3.6	0.00e+00	0	39	104	0	60	85835
2026-01-02 01:36:47.12	300.02	18.58	-51.7	-54.2	3.6	0.00e+00	0	39	104	0	60	86493
2026-01-02 01:36:50.15	298.99	18.45	-51.7	-54.2	3.6	0.00e+00	0	39	104	0	60	86376
2026-01-02 01:36:53.18	297.97	18.32	-51.8	-54.3	3.6	0.00e+00	0	39	104	0	60	87346
2026-01-02 01:36:56.21	296.96	18.17	-51.9	-54.3	3.6	0.00e+00	0	39	104	0	60	88159
2026-01-02 01:36:59.24	295.96	18.02	-51.7	-54.2	3.6	0.00e+00	0	39	104	0	60	86814
2026-01-02 01:37:02.28	294.96	17.87	-51.7	-54.2	3.6	0.00e+00	0	39	104	0	60	86461
2026-01-02 01:37:05.31	293.99	17.70	-51.6	-54.1	3.6	0.00e+00	0	39	104	0	60	85961
2026-01-02 01:37:08.34	293.02	17.54	-51.7	-54.1	3.6	0.00e+00	0	39	104	0	60	85755
2026-01-02 01:37:11.37	292.07	17.36	-51.7	-54.1	3.6	0.00e+00	0	39	104	0	60	85785
2026-01-02 01:37:14.41	291.12	17.18	-51.7	-54.2	3.6	0.00e+00	0	39	104	0	60	86515
2026-01-02 01:37:17.44	290.20	16.99	-51.7	-54.2	3.6	0.00e+00	0	39	104	0	60	86249
2026-01-02 01:37:20.47	289.28	16.80	-51.8	-54.3	3.6	0.00e+00	0	39	104	0	60	87372
2026-01-02 01:37:23.50	288.38	16.61	-51.7	-54.2	3.6	0.00e+00	0	39	104	0	60	86501
2026-01-02 01:37:26.54	287.49	16.41	-51.7	-54.1	3.6	0.00e+00	0	39	104	0	60	86108
2026-01-02 01:37:29.57	286.62	16.21	-51.7	-54.2	3.6	0.00e+00	0	39	104	0	60	86636
2026-01-02 01:37:32.60	285.76	16.00	-51.7	-54.2	3.6	0.00e+00	0	39	104	0	60	86556
2026-01-02 01:37:35.63	284.92	15.79	-51.7	-54.2	3.6	0.00e+00	0	39	104	0	60	86650
2026-01-02 01:37:38.66	284.08	15.58	-51.8	-54.2	3.6	0.00e+00	0	39	104	0	60	86933
2026-01-02 01:37:41.70	283.26	15.36	-51.7	-54.2	3.6	0.00e+00	0	39	104	0	60	86642
2026-01-02 01:37:44.73	282.46	15.14	-51.8	-54.2	3.6	0.00e+00	0	39	104	0	60	86756
2026-01-02 01:37:47.76	281.67	14.92	-51.8	-54.3	3.6	0.00e+00	0	39	104	0	60	87498
2026-01-02 01:37:50.79	280.89	14.69	-51.7	-54.2	3.6	0.00e+00	0	39	104	0	60	86341
2026-01-02 01:37:53.83	280.13	14.47	-51.6	-54.0	3.6	0.00e+00	0	39	104	0	60	85083
2026-01-02 01:37:56.86	279.38	14.24	-51.7	-54.2	3.6	0.00e+00	0	39	104	0	60	86587
2026-01-02 01:37:59.90	278.64	14.01	-51.8	-54.1	3.6	0.00e+00	0	39	104	0	60	86106
2026-01-02 01:38:02.93	277.92	13.78	-51.8	-54.3	3.6	0.00e+00	0	39	104	0	60	87796
2026-01-02 01:38:05.95	277.21	13.55	-51.9	-54.3	3.6	0.00e+00	0	39	104	0	60	88030
2026-01-02 01:38:08.99	276.51	13.32	-51.8	-54.2	3.6	0.00e+00	0	39	104	0	60	86897
2026-01-02 01:38:12.02	275.83	13.09	-51.8	-54.2	3.6	0.00e+00	0	39	104	0	60	86884
2026-01-02 01:38:15.05	275.16	12.85	-51.7	-54.1	3.6	0.00e+00	0	39	104	0	60	86108
2026-01-02 01:38:18.09	274.50	12.62	-51.6	-54.1	3.6	0.00e+00	0	39	104	0	60	86017
2026-01-02 01:38:21.12	273.85	12.39	-51.7	-54.2	3.6	0.00e+00	0	39	104	0	60	86488
2026-01-02 01:38:24.15	273.22	12.15	-51.7	-54.1	3.6	0.00e+00	0	39	104	0	60	86085
2026-01-02 01:38:27.18	272.60	11.92	-51.7	-54.1	3.6	0.00e+00	0	39	104	0	60	85811
2026-01-02 01:38:30.21	271.99	11.68	-51.7	-54.2	3.6	0.00e+00	0	39	104	0	60	86307
2026-01-02 01:38:33.25	271.39	11.45	-51.6	-54.1	3.6	0.00e+00	0	39	104	0	60	85703
2026-01-02 01:38:36.28	270.80	11.22	-51.7	-54.1	3.6	0.00e+00	0	39	104	0	60	85942
2026-01-02 01:38:39.31	270.22	10.98	-51.8	-54.2	3.6	0.00e+00	0	39	104	0	60	86937
2026-01-02 01:38:42.34	269.66	10.75	-51.7	-54.2	3.6	0.00e+00	0	39	104	0	60	86564
2026-01-02 01:38:45.38	269.10	10.52	-51.7	-54.2	3.6	0.00e+00	0	39	104	0	60	86660
2026-01-02 01:38:48.41	268.56	10.29	-51.7	-54.2	3.6	0.00e+00	0	39	104	0	60	86350
2026-01-02 01:38:51.45	268.02	10.05	-51.7	-54.2	3.6	0.00e+00	0	39	104	0	60	86715
2026-01-02 01:38:54.48	267.50	9.82	-51.7	-54.1	3.6	0.00e+00	0	39	104	0	60	86039
2026-01-02 01:38:57.51	266.99	9.60	-51.7	-54.2	3.6	0.00e+00	0	39	104	0	60	86962
2026-01-02 01:39:00.55	266.48	9.37	-51.7	-54.2	3.6	0.00e+00	0	39	104	0	60	86400
2026-01-02 01:39:03.58	265.99	9.14	-51.7	-54.1	3.6	0.00e+00	0	39	104	0	60	85937
2026-01-02 01:39:06.61	265.51	8.91	-51.7	-54.2	3.6	0.00e+00	0	39	104	0	60	86355
2026-01-02 01:39:09.64	265.03	8.69	-51.7	-54.2	3.6	0.00e+00	0	39	104	0	60	86619
2026-01-02 01:39:12.68	264.56	8.46	-51.7	-54.1	3.6	0.00e+00	0	39	104	0	60	86185
2026-01-02 01:39:15.71	264.11	8.24	-51.8	-54.1	3.6	0.00e+00	0	39	104	0	60	86171
2026-01-02 01:39:18.74	263.66	8.02	-51.7	-54.2	3.6	0.00e+00	0	39	104	0	60	86436
2026-01-02 01:39:21.77	263.22	7.80	-51.7	-54.2	3.6	0.00e+00	0	39	104	0	60	86533
2026-01-02 01:39:24.81	262.78	7.58	-51.9	-54.3	3.6	0.00e+00	0	39	104	0	60	88078
2026-01-02 01:39:27.83	262.36	7.36	-51.8	-54.2	3.6	0.00e+00	0	39	104	0	60	86756
2026-01-02 01:39:30.87	261.94	7.14	-51.8	-54.3	3.6	0.00e+00	0	39	104	0	60	87479
2026-01-02 01:39:33.90	261.53	6.92	-51.7	-54.2	3.6	0.00e+00	0	39	104	0	60	86275
2026-01-02 01:39:36.92	261.13	6.71	-51.7	-54.1	3.6	0.00e+00	0	39	104	0	60	85867
2026-01-02 01:39:39.95	260.74	6.50	-51.7	-54.2	3.6	0.00e+00	0	39	104	0	60	86515
2026-01-02 01:39:42.98	260.35	6.28	-51.7	-54.2	3.6	0.00e+00	0	39	104	0	60	86527
2026-01-02 01:39:46.01	259.98	6.07	-51.7	-54.1	3.6	0.00e+00	0	39	104	0	60	85620
2026-01-02 01:39:49.05	259.60	5.86	-51.7	-54.2	3.5	0.00e+00	0	39	104	0	60	86220
2026-01-02 01:39:52.08	259.24	5.65	-51.7	-54.2	3.6	0.00e+00	0	39	104	0	60	86518
2026-01-02 01:39:55.11	258.88	5.45	-51.7	-54.1	3.6	0.00e+00	0	39	104	0	60	86193
2026-01-02 01:39:58.15	258.52	5.24	-51.8	-54.3	3.6	0.00e+00	0	39	104	0	60	87748
2026-01-02 01:40:01.18	258.18	5.03	-51.8	-54.2	3.6	0.00e+00	0	39	104	0	60	86951
2026-01-02 01:40:04.21	257.83	4.83	-51.8	-54.2	3.6	0.00e+00	0	39	104	0	60	87144
2026-01-02 01:40:07.24	257.50	4.63	-51.9	-54.3	3.6	0.00e+00	0	39	104	0	60	88005
2026-01-02 01:40:10.27	257.17	4.43	-51.8	-54.2	3.6	0.00e+00	0	39	104	0	60	86936
2026-01-02 01:40:13.31	256.85	4.23	-51.7	-54.1	3.6	0.00e+00	0	39	104	0	60	85998
2026-01-02 01:40:16.34	256.53	4.03	-51.8	-54.3	3.6	0.00e+00	0	39	104	0	60	87304
2026-01-02 01:40:19.37	256.22	3.83	-51.8	-54.2	3.6	0.00e+00	0	39	104	0	60	86708
2026-01-02 01:40:22.40	255.91	3.63	-51.8	-54.3	3.6	0.00e+00	0	39	104	0	60	87478
2026-01-02 01:40:25.43	255.61	3.44	-51.9	-54.4	3.6	0.00e+00	0	39	104	0	60	88313
2026-01-02 01:40:28.46	255.31	3.24	-51.9	-54.3	3.5	0.00e+00	0	39	104	0	60	87936
2026-01-02 01:40:31.49	255.02	3.05	-51.9	-54.3	3.6	0.00e+00	0	39	104	0	60	88077
2026-01-02 01:40:34.52	254.74	2.86	-51.8	-54.3	3.6	0.00e+00	0	39	104	0	60	87651
2026-01-02 01:40:37.55	254.45	2.67	-51.8	-54.3	3.6	0.00e+00	0	39	104	0	60	87483
2026-01-02 01:40:40.58	254.18	2.48	-51.7	-54.2	3.6	0.00e+00	0	39	104	0	60	86352
2026-01-02 01:40:43.61	253.90	2.29	-51.9	-54.3	3.6	0.00e+00	0	39	104	0	60	87950
2026-01-02 01:40:46.64	253.64	2.10	-51.8	-54.2	3.6	0.00e+00	0	39	104	0	60	86680
2026-01-02 01:40:49.68	253.37	1.92	-51.7	-54.2	3.6	0.00e+00	0	39	104	0	60	86263
2026-01-02 01:40:52.71	253.11	1.73	-51.7	-54.1	3.6	0.00e+00	0	39	104	0	60	86158
2026-01-02 01:40:55.74	252.86	1.55	-51.7	-54.2	3.6	0.00e+00	0	39	104	0	60	86239
2026-01-02 01:40:58.77	252.61	1.37	-51.8	-54.2	3.6	0.00e+00	0	39	104	0	60	86932
2026-01-02 01:41:01.80	252.36	1.18	-51.7	-54.1	3.6	0.00e+00	0	39	104	0	60	86100
2026-01-02 01:41:04.84	252.11	1.00	-51.9	-54.3	3.6	0.00e+00	0	39	104	0	60	87958
2026-01-02 01:41:07.87	251.88	0.82	-51.8	-54.3	3.6	0.00e+00	0	39	104	0	60	87215
2026-01-02 01:41:10.90	251.64	0.64	-51.9	-54.4	3.6	0.00e+00	0	39	104	0	60	88721
2026-01-02 01:41:13.93	251.41	0.47	-51.9	-54.3	3.6	0.00e+00	0	39	104	0	60	88190
2026-01-02 01:41:16.96	251.18	0.29	-51.7	-54.2	3.6	0.00e+00	0	39	104	0	60	86336
2026-01-02 01:41:19.99	250.95	0.11	-51.8	-54.3	3.6	0.00e+00	0	39	104	0	60	87665
2026-01-02 01:41:23.03	250.73	-0.06	-52.0	-54.5	3.6	0.00e+00	0	39	104	0	60	89298

#Closed at: 2026-01-02 01:41:24
#Recorded file [0 MB]: D:/lorett/data/35034_260102_043049.dat