passes_logs/2026/01/02/R4.6S_Anadyr_2ch/R4.6S_Anadyr_2ch__20260102_091406_2025-108B_rec.log

#Pass ID: 20260102_091406_2025-108B
#Satellite: 2025-108B
#Configuration: 3PB_600M
#almurnet v.1.7.20251203
#Start time: 2026-01-02 09:14:08

#Version: 2.2.20231116
#Station: R4.6S_Anadyr_2ch
#Location: 177.4865 lon 64.73178 lat
#TLE: 1 64088U 25108B   25351.01672131  .00008460  00000+0  43413-3 0  9994
#TLE: 2 64088  97.4940  63.8579 0011684 285.1423  74.8517 15.16717580 31720

#Time	Az	El	Level	Level2	SNR	BER	BlckErr	Temp	State	Recorded	gain1	gain2
2026-01-02 09:14:08.06	151.19	0.11	-51.8	-53.2	3.3	0.00e+00	0	34	0	0	60	77194
2026-01-02 09:14:11.10	151.16	0.31	-51.8	-54.2	3.6	0.00e+00	0	35	104	0	60	87171
2026-01-02 09:14:14.12	151.13	0.51	-51.8	-54.3	3.6	0.00e+00	0	35	104	0	60	87349
2026-01-02 09:14:17.15	151.10	0.70	-51.8	-54.3	3.6	0.00e+00	0	36	104	0	60	87323
2026-01-02 09:14:20.18	151.07	0.90	-51.8	-54.3	3.6	0.00e+00	0	36	104	0	60	87602
2026-01-02 09:14:23.21	151.03	1.11	-51.8	-54.3	3.6	0.00e+00	0	36	104	0	60	87210
2026-01-02 09:14:26.24	151.00	1.31	-51.8	-54.3	3.6	0.00e+00	0	36	104	0	60	87492
2026-01-02 09:14:29.27	150.96	1.51	-51.8	-54.3	3.6	0.00e+00	0	36	104	0	60	87707
2026-01-02 09:14:32.31	150.92	1.72	-51.9	-54.3	3.6	0.00e+00	0	36	104	0	60	88042
2026-01-02 09:14:35.34	150.89	1.93	-51.8	-54.3	3.6	0.00e+00	0	36	104	0	60	87847
2026-01-02 09:14:38.37	150.85	2.14	-51.8	-54.3	3.6	0.00e+00	0	36	104	0	60	87439
2026-01-02 09:14:41.40	150.81	2.36	-51.8	-54.3	3.6	0.00e+00	0	36	104	0	60	87806
2026-01-02 09:14:44.43	150.77	2.57	-51.8	-54.3	3.6	0.00e+00	0	37	104	0	60	87521
2026-01-02 09:14:47.46	150.73	2.79	-51.8	-54.3	3.6	0.00e+00	0	37	104	0	60	88145
2026-01-02 09:14:50.49	150.69	3.01	-51.9	-54.3	3.6	0.00e+00	0	36	104	0	60	87833
2026-01-02 09:14:53.52	150.64	3.23	-51.9	-54.3	3.6	0.00e+00	0	37	104	0	60	88208
2026-01-02 09:14:56.54	150.60	3.45	-51.9	-54.3	3.6	0.00e+00	0	37	104	0	60	88046
2026-01-02 09:14:59.58	150.56	3.68	-51.9	-54.3	3.5	0.00e+00	0	37	104	0	60	88149
2026-01-02 09:15:02.60	150.51	3.91	-51.9	-54.4	3.6	0.00e+00	0	37	104	0	60	88336
2026-01-02 09:15:05.63	150.46	4.14	-51.9	-54.3	3.6	0.00e+00	0	37	104	0	60	88094
2026-01-02 09:15:08.66	150.42	4.37	-51.9	-54.3	3.6	0.00e+00	0	37	104	0	60	87705
2026-01-02 09:15:11.69	150.37	4.61	-51.9	-54.3	3.6	0.00e+00	0	37	104	0	60	87931
2026-01-02 09:15:14.72	150.32	4.85	-51.8	-54.3	3.6	0.00e+00	0	37	104	0	60	87628
2026-01-02 09:15:17.75	150.26	5.09	-51.9	-54.3	3.6	0.00e+00	0	37	104	0	60	88084
2026-01-02 09:15:20.78	150.21	5.34	-51.9	-54.3	3.6	0.00e+00	0	37	104	0	60	87531
2026-01-02 09:15:23.81	150.16	5.58	-51.9	-54.3	3.5	0.00e+00	0	37	104	0	60	87586
2026-01-02 09:15:26.84	150.10	5.84	-51.9	-54.3	3.6	0.00e+00	0	37	104	0	60	87924
2026-01-02 09:15:29.87	150.05	6.09	-51.9	-54.3	3.6	0.00e+00	0	37	104	0	60	87788
2026-01-02 09:15:32.90	149.99	6.35	-51.9	-54.3	3.6	0.00e+00	0	37	104	0	60	88108
2026-01-02 09:15:35.93	149.93	6.61	-51.9	-54.3	3.6	0.00e+00	0	37	104	0	60	88132
2026-01-02 09:15:38.96	149.87	6.87	-51.8	-54.3	3.6	0.00e+00	0	37	104	0	60	87601
2026-01-02 09:15:41.99	149.80	7.14	-51.9	-54.3	3.6	0.00e+00	0	37	104	0	60	88050
2026-01-02 09:15:45.02	149.74	7.41	-51.9	-54.3	3.6	0.00e+00	0	37	104	0	60	88106
2026-01-02 09:15:48.05	149.67	7.69	-51.9	-54.3	3.6	0.00e+00	0	38	104	0	60	87895
2026-01-02 09:15:51.08	149.60	7.97	-51.9	-54.3	3.6	0.00e+00	0	37	104	0	60	88006
2026-01-02 09:15:54.11	149.53	8.25	-51.8	-54.3	3.6	0.00e+00	0	38	104	0	60	87896
2026-01-02 09:15:57.15	149.46	8.54	-51.9	-54.3	3.5	0.00e+00	0	38	104	0	60	87691
2026-01-02 09:16:00.18	149.39	8.83	-51.9	-54.3	3.6	0.00e+00	0	38	104	0	60	88169
2026-01-02 09:16:03.21	149.31	9.13	-51.9	-54.3	3.6	0.00e+00	0	38	104	0	60	88039
2026-01-02 09:16:06.24	149.23	9.43	-51.9	-54.3	3.6	0.00e+00	0	38	104	0	60	87520
2026-01-02 09:16:09.27	149.15	9.73	-51.9	-54.3	3.5	0.00e+00	0	38	104	0	60	87515
2026-01-02 09:16:12.30	149.07	10.04	-51.9	-54.3	3.6	0.00e+00	0	38	104	0	60	87965
2026-01-02 09:16:15.33	148.98	10.36	-51.9	-54.3	3.6	0.00e+00	0	38	104	0	60	87882
2026-01-02 09:16:18.36	148.90	10.68	-51.9	-54.3	3.6	0.00e+00	0	38	104	0	60	87959
2026-01-02 09:16:21.40	148.80	11.01	-51.9	-54.4	3.6	0.00e+00	0	38	104	0	60	88573
2026-01-02 09:16:24.43	148.71	11.34	-51.9	-54.3	3.6	0.00e+00	0	38	104	0	60	88180
2026-01-02 09:16:27.46	148.62	11.68	-51.9	-54.3	3.6	0.00e+00	0	38	104	0	60	88100
2026-01-02 09:16:30.49	148.52	12.02	-51.9	-54.4	3.6	0.00e+00	0	38	104	0	60	88289
2026-01-02 09:16:33.52	148.41	12.37	-51.9	-54.3	3.6	0.00e+00	0	38	104	0	60	87990
2026-01-02 09:16:36.55	148.31	12.73	-51.9	-54.3	3.5	0.00e+00	0	38	104	0	60	87670
2026-01-02 09:16:39.58	148.20	13.09	-51.9	-54.3	3.6	0.00e+00	0	38	104	0	60	87948
2026-01-02 09:16:42.61	148.09	13.46	-51.9	-54.4	3.6	0.00e+00	0	38	104	0	60	88512
2026-01-02 09:16:45.64	147.97	13.84	-51.9	-54.4	3.6	0.00e+00	0	38	104	0	60	88391
2026-01-02 09:16:48.67	147.85	14.23	-51.9	-54.3	3.6	0.00e+00	0	38	104	0	60	88155
2026-01-02 09:16:51.70	147.73	14.62	-51.9	-54.4	3.5	0.00e+00	0	38	104	0	60	88390
2026-01-02 09:16:54.74	147.60	15.02	-51.9	-54.3	3.6	0.00e+00	0	38	104	0	60	87909
2026-01-02 09:16:57.77	147.47	15.43	-51.9	-54.3	3.6	0.00e+00	0	38	104	0	60	87968
2026-01-02 09:17:00.79	147.33	15.85	-51.9	-54.3	3.6	0.00e+00	0	38	104	0	60	87757
2026-01-02 09:17:03.82	147.19	16.28	-51.9	-54.3	3.6	0.00e+00	0	38	104	0	60	88041
2026-01-02 09:17:06.85	147.04	16.71	-51.9	-54.3	3.6	0.00e+00	0	38	104	0	60	88025
2026-01-02 09:17:09.88	146.89	17.16	-51.9	-54.4	3.6	0.00e+00	0	38	104	0	60	88460
2026-01-02 09:17:12.91	146.73	17.62	-51.9	-54.4	3.6	0.00e+00	0	38	104	0	60	88268
2026-01-02 09:17:15.95	146.57	18.09	-51.9	-54.4	3.6	0.00e+00	0	38	104	0	60	88437
2026-01-02 09:17:18.98	146.40	18.56	-51.9	-54.4	3.6	0.00e+00	0	38	104	0	60	88749
2026-01-02 09:17:22.01	146.22	19.06	-51.9	-54.4	3.6	0.00e+00	0	38	104	0	60	88715
2026-01-02 09:17:25.04	146.04	19.56	-51.9	-54.4	3.6	0.00e+00	0	38	104	0	60	88279
2026-01-02 09:17:28.07	145.84	20.07	-51.9	-54.3	3.6	0.00e+00	0	38	104	0	60	88216
2026-01-02 09:17:31.10	145.64	20.60	-51.9	-54.3	3.6	0.00e+00	0	38	104	0	60	87585
2026-01-02 09:17:34.14	145.44	21.15	-51.9	-54.3	3.6	0.00e+00	0	38	104	0	60	87997
2026-01-02 09:17:37.17	145.22	21.70	-51.9	-54.3	3.6	0.00e+00	0	38	104	0	60	88119
2026-01-02 09:17:40.20	144.99	22.27	-51.9	-54.4	3.6	0.00e+00	0	38	104	0	60	88267
2026-01-02 09:17:43.23	144.76	22.86	-51.9	-54.3	3.6	0.00e+00	0	38	104	0	60	88079
2026-01-02 09:17:46.26	144.51	23.46	-51.9	-54.3	3.6	0.00e+00	0	38	104	0	60	88140
2026-01-02 09:17:49.29	144.25	24.08	-51.9	-54.4	3.6	0.00e+00	0	39	104	0	60	88450
2026-01-02 09:17:52.32	143.98	24.72	-51.9	-54.4	3.6	0.00e+00	0	39	104	0	60	88819
2026-01-02 09:17:55.35	143.70	25.38	-51.9	-54.4	3.6	0.00e+00	0	39	104	0	60	88334
2026-01-02 09:17:58.38	143.40	26.05	-51.9	-54.4	3.6	0.00e+00	0	39	104	0	60	88264
2026-01-02 09:18:01.41	143.09	26.75	-51.9	-54.4	3.6	0.00e+00	0	39	104	0	60	88651
2026-01-02 09:18:04.45	142.76	27.46	-51.9	-54.3	3.6	0.00e+00	0	38	104	0	60	87890
2026-01-02 09:18:07.48	142.41	28.20	-51.9	-54.3	3.6	0.00e+00	0	39	104	0	60	88184
2026-01-02 09:18:10.51	142.05	28.96	-51.9	-54.3	3.6	0.00e+00	0	38	104	0	60	87708
2026-01-02 09:18:13.54	141.67	29.75	-51.9	-54.3	3.5	0.00e+00	0	39	104	0	60	87947
2026-01-02 09:18:16.58	141.26	30.56	-51.9	-54.3	3.6	0.00e+00	0	38	104	0	60	87906
2026-01-02 09:18:19.61	140.83	31.39	-51.9	-54.3	3.6	0.00e+00	0	38	104	0	60	87846
2026-01-02 09:18:22.64	140.38	32.26	-51.9	-54.3	3.6	0.00e+00	0	38	104	0	60	88219
2026-01-02 09:18:25.67	139.90	33.14	-51.9	-54.3	3.6	0.00e+00	0	38	104	0	60	87850
2026-01-02 09:18:28.71	139.39	34.06	-51.9	-54.3	3.6	0.00e+00	0	39	104	0	60	88070
2026-01-02 09:18:31.74	138.84	35.01	-51.9	-54.3	3.6	0.00e+00	0	39	104	0	60	88092
2026-01-02 09:18:34.77	138.26	35.99	-51.9	-54.3	3.6	0.00e+00	0	39	104	0	60	87986
2026-01-02 09:18:37.81	137.64	37.00	-51.9	-54.4	3.6	0.00e+00	0	39	104	0	60	88243
2026-01-02 09:18:40.84	136.98	38.04	-51.9	-54.4	3.6	0.00e+00	0	39	104	0	60	88806
2026-01-02 09:18:43.87	136.28	39.12	-51.9	-54.4	3.6	0.00e+00	0	39	104	0	60	89104
2026-01-02 09:18:46.91	135.51	40.23	-51.9	-54.4	3.6	0.00e+00	0	39	104	0	60	88392
2026-01-02 09:18:49.94	134.70	41.37	-51.9	-54.4	3.6	0.00e+00	0	39	104	0	60	88722
2026-01-02 09:18:52.97	133.81	42.55	-51.9	-54.4	3.6	0.00e+00	0	39	104	0	60	88527
2026-01-02 09:18:56.00	132.86	43.76	-51.9	-54.3	3.6	0.00e+00	0	39	104	0	60	87915
2026-01-02 09:18:59.04	131.82	45.02	-51.9	-54.3	3.6	0.00e+00	0	39	104	0	60	87824
2026-01-02 09:19:02.07	130.70	46.30	-51.9	-54.3	3.6	0.00e+00	0	39	104	0	60	87857
2026-01-02 09:19:05.10	129.48	47.61	-51.9	-54.3	3.6	0.00e+00	0	39	104	0	60	87511
2026-01-02 09:19:08.13	128.14	48.95	-51.8	-54.4	3.6	0.00e+00	0	39	104	0	60	88221
2026-01-02 09:19:11.16	126.68	50.32	-51.9	-54.3	3.6	0.00e+00	0	39	104	0	60	87756
2026-01-02 09:19:14.19	125.07	51.71	-51.9	-54.3	3.6	0.00e+00	0	39	104	0	60	87588
2026-01-02 09:19:17.22	123.30	53.13	-51.9	-54.4	3.6	0.00e+00	0	39	104	0	60	88339
2026-01-02 09:19:20.26	121.34	54.56	-51.9	-54.4	3.6	0.00e+00	0	39	104	0	60	88228
2026-01-02 09:19:23.29	119.17	55.99	-51.9	-54.3	3.6	0.00e+00	0	39	104	0	60	87888
2026-01-02 09:19:26.32	116.76	57.42	-51.9	-54.4	3.6	0.00e+00	0	39	104	0	60	88339
2026-01-02 09:19:29.36	114.07	58.84	-51.9	-54.3	3.6	0.00e+00	0	39	104	0	60	88149
2026-01-02 09:19:32.39	111.09	60.23	-51.9	-54.3	3.6	0.00e+00	0	39	104	0	60	87907
2026-01-02 09:19:35.42	107.76	61.57	-51.9	-54.3	3.6	0.00e+00	0	39	104	0	60	88028
2026-01-02 09:19:38.46	104.05	62.85	-51.9	-54.3	3.6	0.00e+00	0	39	104	0	60	87338
2026-01-02 09:19:41.49	99.94	64.04	-51.9	-54.3	3.6	0.00e+00	0	39	104	0	60	87996
2026-01-02 09:19:44.52	95.41	65.11	-51.9	-54.4	3.6	0.00e+00	0	39	104	0	60	88427
2026-01-02 09:19:47.56	90.42	66.05	-51.9	-54.4	3.6	0.00e+00	0	39	104	0	60	88375
2026-01-02 09:19:50.59	85.05	66.82	-51.9	-54.3	3.6	0.00e+00	0	39	104	0	60	87989
2026-01-02 09:19:53.62	79.31	67.40	-51.9	-54.4	3.6	0.00e+00	0	39	104	0	60	88523
2026-01-02 09:19:56.65	73.31	67.76	-51.9	-54.4	3.5	0.00e+00	0	39	104	0	60	88443
2026-01-02 09:19:59.68	67.17	67.89	-51.9	-54.4	3.6	0.00e+00	0	39	104	0	60	88868
2026-01-02 09:20:02.72	60.99	67.79	-51.9	-54.4	3.6	0.00e+00	0	39	104	0	60	88373
2026-01-02 09:20:05.75	54.96	67.46	-51.9	-54.3	3.6	0.00e+00	0	39	104	0	60	87784
2026-01-02 09:20:08.78	49.19	66.91	-51.9	-54.3	3.6	0.00e+00	0	39	104	0	60	88057
2026-01-02 09:20:11.81	43.77	66.16	-51.9	-54.3	3.6	0.00e+00	0	39	104	0	60	87903
2026-01-02 09:20:14.84	38.75	65.25	-51.9	-54.4	3.6	0.00e+00	0	39	104	0	60	88339
2026-01-02 09:20:17.88	34.15	64.19	-51.9	-54.4	3.6	0.00e+00	0	39	104	0	60	88436
2026-01-02 09:20:20.91	29.99	63.01	-51.9	-54.4	3.6	0.00e+00	0	39	104	0	60	88270
2026-01-02 09:20:23.94	26.24	61.75	-51.9	-54.3	3.6	0.00e+00	0	39	104	0	60	88218
2026-01-02 09:20:26.98	22.86	60.41	-51.9	-54.4	3.6	0.00e+00	0	39	104	0	60	88405
2026-01-02 09:20:30.01	19.83	59.04	-51.9	-54.3	3.6	0.00e+00	0	39	104	0	60	87668
2026-01-02 09:20:33.04	17.12	57.63	-51.9	-54.3	3.6	0.00e+00	0	39	104	0	60	87741
2026-01-02 09:20:36.08	14.67	56.20	-51.9	-54.4	3.6	0.00e+00	0	39	104	0	60	88467
2026-01-02 09:20:39.11	12.48	54.77	-51.9	-54.4	3.6	0.00e+00	0	39	104	0	60	88301
2026-01-02 09:20:42.14	10.50	53.34	-51.9	-54.4	3.6	0.00e+00	0	39	104	0	60	88237
2026-01-02 09:20:45.17	8.70	51.93	-51.9	-54.4	3.6	0.00e+00	0	39	104	0	60	88871
2026-01-02 09:20:48.21	7.07	50.53	-51.9	-54.4	3.6	0.00e+00	0	39	104	0	60	88780
2026-01-02 09:20:51.24	5.59	49.16	-51.9	-54.4	3.6	0.00e+00	0	39	104	0	60	88303
2026-01-02 09:20:54.27	4.24	47.82	-51.9	-54.4	3.6	0.00e+00	0	39	104	0	60	88700
2026-01-02 09:20:57.31	3.00	46.50	-51.9	-54.3	3.6	0.00e+00	0	39	104	0	60	87538
2026-01-02 09:21:00.34	1.87	45.22	-51.9	-54.4	3.6	0.00e+00	0	39	104	0	60	88663
2026-01-02 09:21:03.37	0.83	43.97	-51.9	-54.4	3.5	0.00e+00	0	39	104	0	60	88520
2026-01-02 09:21:06.40	359.86	42.76	-51.9	-54.4	3.6	0.00e+00	0	39	104	0	60	88262
2026-01-02 09:21:09.44	358.97	41.58	-51.9	-54.4	3.6	0.00e+00	0	39	104	0	60	88854
2026-01-02 09:21:12.47	358.15	40.43	-51.9	-54.4	3.6	0.00e+00	0	39	104	0	60	88642
2026-01-02 09:21:15.50	357.38	39.32	-51.9	-54.4	3.6	0.00e+00	0	39	104	0	60	88506
2026-01-02 09:21:18.54	356.66	38.24	-51.9	-54.3	3.6	0.00e+00	0	39	104	0	60	87824
2026-01-02 09:21:21.57	356.00	37.20	-51.9	-54.4	3.6	0.00e+00	0	39	104	0	60	88532
2026-01-02 09:21:24.60	355.38	36.19	-51.9	-54.3	3.6	0.00e+00	0	39	104	0	60	87848
2026-01-02 09:21:27.64	354.79	35.20	-51.9	-54.3	3.6	0.00e+00	0	39	104	0	60	88017
2026-01-02 09:21:30.67	354.25	34.26	-52.0	-54.4	3.6	0.00e+00	0	39	104	0	60	89072
2026-01-02 09:21:33.70	353.73	33.34	-51.9	-54.3	3.6	0.00e+00	0	39	104	0	60	88182
2026-01-02 09:21:36.73	353.25	32.45	-51.9	-54.4	3.6	0.00e+00	0	39	104	0	60	88458
2026-01-02 09:21:39.77	352.79	31.58	-51.9	-54.4	3.6	0.00e+00	0	39	104	0	60	88561
2026-01-02 09:21:42.79	352.36	30.75	-51.9	-54.4	3.6	0.00e+00	0	39	104	0	60	88629
2026-01-02 09:21:45.83	351.95	29.93	-51.9	-54.4	3.6	0.00e+00	0	39	104	0	60	88266
2026-01-02 09:21:48.85	351.57	29.15	-51.9	-54.3	3.6	0.00e+00	0	39	104	0	60	88192
2026-01-02 09:21:51.89	351.20	28.39	-52.0	-54.4	3.6	0.00e+00	0	39	104	0	60	88663
2026-01-02 09:21:54.91	350.86	27.65	-51.9	-54.4	3.6	0.00e+00	0	39	104	0	60	88978
2026-01-02 09:21:57.94	350.53	26.93	-51.9	-54.4	3.6	0.00e+00	0	39	104	0	60	88498
2026-01-02 09:22:00.98	350.22	26.23	-52.0	-54.4	3.6	0.00e+00	0	39	104	0	60	88965
2026-01-02 09:22:04.01	349.92	25.56	-51.9	-54.3	3.6	0.00e+00	0	39	104	0	60	88174
2026-01-02 09:22:07.04	349.63	24.90	-51.9	-54.4	3.6	0.00e+00	0	39	104	0	60	88749
2026-01-02 09:22:10.07	349.36	24.26	-51.9	-54.4	3.6	0.00e+00	0	39	104	0	60	88436
2026-01-02 09:22:13.10	349.10	23.64	-51.9	-54.4	3.6	0.00e+00	0	39	104	0	60	88392
2026-01-02 09:22:16.13	348.86	23.04	-51.9	-54.4	3.6	0.00e+00	0	39	104	0	60	88639
2026-01-02 09:22:19.16	348.62	22.45	-51.9	-54.3	3.6	0.00e+00	0	39	104	0	60	88200
2026-01-02 09:22:22.19	348.39	21.88	-52.0	-54.5	3.6	0.00e+00	0	39	104	0	60	89272
2026-01-02 09:22:25.22	348.18	21.32	-51.9	-54.4	3.6	0.00e+00	0	39	104	0	60	88394
2026-01-02 09:22:28.25	347.97	20.78	-52.0	-54.4	3.6	0.00e+00	0	39	104	0	60	88875
2026-01-02 09:22:31.28	347.77	20.25	-52.0	-54.4	3.6	0.00e+00	0	39	104	0	60	89010
2026-01-02 09:22:34.32	347.58	19.73	-52.0	-54.4	3.6	0.00e+00	0	39	104	0	60	88887
2026-01-02 09:22:37.34	347.39	19.23	-52.0	-54.4	3.6	0.00e+00	0	39	104	0	60	88615
2026-01-02 09:22:40.37	347.22	18.74	-52.0	-54.4	3.6	0.00e+00	0	39	104	0	60	88965
2026-01-02 09:22:43.41	347.05	18.26	-51.9	-54.3	3.6	0.00e+00	0	39	104	0	60	87994
2026-01-02 09:22:46.44	346.88	17.79	-51.9	-54.4	3.6	0.00e+00	0	39	104	0	60	88861
2026-01-02 09:22:49.47	346.72	17.33	-51.9	-54.4	3.6	0.00e+00	0	39	104	0	60	88388
2026-01-02 09:22:52.50	346.57	16.88	-51.9	-54.4	3.6	0.00e+00	0	39	104	0	60	88228
2026-01-02 09:22:55.53	346.43	16.45	-51.9	-54.4	3.6	0.00e+00	0	39	104	0	60	88279
2026-01-02 09:22:58.56	346.28	16.02	-51.9	-54.4	3.5	0.00e+00	0	39	104	0	60	88272
2026-01-02 09:23:01.59	346.15	15.60	-51.9	-54.4	3.6	0.00e+00	0	39	104	0	60	88551
2026-01-02 09:23:04.61	346.02	15.19	-51.9	-54.4	3.6	0.00e+00	0	39	104	0	60	88611
2026-01-02 09:23:07.65	345.89	14.79	-51.9	-54.4	3.6	0.00e+00	0	39	104	0	60	88356
2026-01-02 09:23:10.67	345.77	14.39	-51.9	-54.3	3.6	0.00e+00	0	39	104	0	60	88038
2026-01-02 09:23:13.70	345.65	14.01	-51.9	-54.4	3.6	0.00e+00	0	39	104	0	60	88426
2026-01-02 09:23:16.73	345.53	13.63	-51.9	-54.4	3.6	0.00e+00	0	39	104	0	60	88544
2026-01-02 09:23:19.76	345.42	13.26	-51.9	-54.4	3.6	0.00e+00	0	39	104	0	60	88656
2026-01-02 09:23:22.79	345.31	12.90	-51.9	-54.4	3.6	0.00e+00	0	39	104	0	60	88368
2026-01-02 09:23:25.82	345.21	12.54	-51.9	-54.3	3.6	0.00e+00	0	39	104	0	60	88063
2026-01-02 09:23:28.85	345.11	12.19	-51.9	-54.4	3.6	0.00e+00	0	39	104	0	60	88809
2026-01-02 09:23:31.88	345.01	11.84	-51.9	-54.4	3.6	0.00e+00	0	39	104	0	60	88506
2026-01-02 09:23:34.91	344.92	11.51	-51.9	-54.4	3.6	0.00e+00	0	39	104	0	60	88407
2026-01-02 09:23:37.91	344.83	11.18	-51.9	-54.4	3.6	0.00e+00	0	39	104	0	60	88269
2026-01-02 09:23:40.95	344.74	10.85	-51.9	-54.4	3.6	0.00e+00	0	39	104	0	60	88722
2026-01-02 09:23:43.98	344.65	10.53	-51.9	-54.4	3.6	0.00e+00	0	39	104	0	60	88426
2026-01-02 09:23:47.01	344.57	10.21	-52.0	-54.4	3.6	0.00e+00	0	39	104	0	60	88393
2026-01-02 09:23:50.04	344.48	9.90	-51.9	-54.4	3.6	0.00e+00	0	39	104	0	60	88755
2026-01-02 09:23:53.07	344.41	9.59	-51.9	-54.4	3.6	0.00e+00	0	39	104	0	60	88772
2026-01-02 09:23:56.09	344.33	9.29	-51.9	-54.4	3.6	0.00e+00	0	39	104	0	60	88627
2026-01-02 09:23:59.12	344.25	9.00	-51.9	-54.4	3.6	0.00e+00	0	39	104	0	60	88963
2026-01-02 09:24:02.16	344.18	8.70	-52.0	-54.5	3.6	0.00e+00	0	39	104	0	60	89929
2026-01-02 09:24:05.19	344.11	8.42	-51.9	-54.4	3.6	0.00e+00	0	39	104	0	60	88280
2026-01-02 09:24:08.22	344.04	8.13	-51.9	-54.4	3.6	0.00e+00	0	39	104	0	60	88563
2026-01-02 09:24:11.25	343.98	7.85	-52.0	-54.4	3.6	0.00e+00	0	39	104	0	60	89157
2026-01-02 09:24:14.28	343.91	7.58	-52.0	-54.4	3.6	0.00e+00	0	39	104	0	60	88466
2026-01-02 09:24:17.31	343.85	7.31	-52.0	-54.4	3.6	0.00e+00	0	39	104	0	60	88595
2026-01-02 09:24:20.34	343.79	7.04	-51.9	-54.4	3.6	0.00e+00	0	39	104	0	60	88552
2026-01-02 09:24:23.37	343.73	6.77	-51.9	-54.4	3.6	0.00e+00	0	39	104	0	60	88292
2026-01-02 09:24:26.40	343.67	6.51	-52.0	-54.4	3.6	0.00e+00	0	39	104	0	60	88978
2026-01-02 09:24:29.43	343.61	6.25	-51.9	-54.4	3.6	0.00e+00	0	39	104	0	60	88499
2026-01-02 09:24:32.47	343.56	6.00	-52.0	-54.4	3.6	0.00e+00	0	39	104	0	60	88299
2026-01-02 09:24:35.50	343.50	5.75	-52.0	-54.4	3.6	0.00e+00	0	39	104	0	60	88869
2026-01-02 09:24:38.53	343.45	5.50	-52.0	-54.5	3.6	0.00e+00	0	39	104	0	60	89677
2026-01-02 09:24:41.56	343.40	5.25	-52.0	-54.4	3.6	0.00e+00	0	39	104	0	60	88850
2026-01-02 09:24:44.59	343.35	5.01	-51.9	-54.4	3.6	0.00e+00	0	39	104	0	60	88564
2026-01-02 09:24:47.62	343.30	4.77	-51.9	-54.4	3.6	0.00e+00	0	39	104	0	60	88698
2026-01-02 09:24:50.65	343.25	4.54	-51.9	-54.4	3.6	0.00e+00	0	39	104	0	60	88366
2026-01-02 09:24:53.68	343.21	4.30	-52.0	-54.4	3.6	0.00e+00	0	39	104	0	60	88838
2026-01-02 09:24:56.71	343.16	4.07	-52.0	-54.5	3.6	0.00e+00	0	39	104	0	60	89357
2026-01-02 09:24:59.74	343.12	3.84	-51.9	-54.4	3.6	0.00e+00	0	39	104	0	60	88604
2026-01-02 09:25:02.77	343.08	3.62	-52.0	-54.4	3.6	0.00e+00	0	39	104	0	60	88767
2026-01-02 09:25:05.80	343.04	3.39	-51.9	-54.4	3.6	0.00e+00	0	39	104	0	60	88701
2026-01-02 09:25:08.82	342.99	3.17	-51.9	-54.4	3.6	0.00e+00	0	39	104	0	60	88486
2026-01-02 09:25:11.85	342.96	2.95	-51.9	-54.4	3.6	0.00e+00	0	39	104	0	60	88519
2026-01-02 09:25:14.89	342.92	2.73	-51.9	-54.4	3.6	0.00e+00	0	39	104	0	60	88517
2026-01-02 09:25:17.92	342.88	2.52	-51.9	-54.3	3.6	0.00e+00	0	39	104	0	60	87579
2026-01-02 09:25:20.95	342.84	2.30	-51.9	-54.4	3.6	0.00e+00	0	39	104	0	60	88607
2026-01-02 09:25:23.98	342.81	2.09	-51.9	-54.3	3.6	0.00e+00	0	39	104	0	60	87995
2026-01-02 09:25:27.01	342.77	1.88	-51.9	-54.3	3.6	0.00e+00	0	39	104	0	60	88078
2026-01-02 09:25:30.05	342.74	1.68	-51.9	-54.4	3.6	0.00e+00	0	39	104	0	60	88351
2026-01-02 09:25:33.08	342.70	1.47	-51.9	-54.4	3.6	0.00e+00	0	39	104	0	60	88305
2026-01-02 09:25:36.11	342.67	1.27	-51.9	-54.3	3.6	0.00e+00	0	39	104	0	60	88198
2026-01-02 09:25:39.15	342.64	1.06	-51.9	-54.3	3.6	0.00e+00	0	39	104	0	60	88039
2026-01-02 09:25:42.18	342.61	0.86	-51.9	-54.4	3.6	0.00e+00	0	39	104	0	60	88613
2026-01-02 09:25:45.21	342.58	0.67	-51.9	-54.4	3.6	0.00e+00	0	39	104	0	60	88698
2026-01-02 09:25:48.24	342.55	0.47	-51.9	-54.4	3.6	0.00e+00	0	39	104	0	60	88352
2026-01-02 09:25:51.27	342.52	0.27	-51.9	-54.4	3.6	0.00e+00	0	39	104	0	60	88594
2026-01-02 09:25:54.31	342.49	0.08	-51.9	-54.4	3.5	0.00e+00	0	39	104	0	60	88273
2026-01-02 09:25:57.34	342.46	-0.11	-51.9	-54.4	3.6	0.00e+00	0	39	104	0	60	88262

#Closed at: 2026-01-02 09:25:57
#Recorded file [0 MB]: D:/lorett/data/35034_260102_121408.dat