passes_logs/2026/01/11/R2M6_AANII_01/R2M6_AANII_01__20260111_011043_NOAA_20_JPSS-1_rec.log

#Pass ID: 20260111_011043_NOAA 20 (JPSS-1)
#Satellite: NOAA 20 (JPSS-1)
#Configuration: NOAA 20
#almurnet v.1.7.20240730
#Start time: 2026-01-11 01:10:43

#Version: 2.2.20231116
#Station: R2M6_AANII_01
#Location: 30.233357 lon 59.946436 lat
#TLE: 1 43013U 17073A   26009.69119415  .00000109  00000+0  72598-4 0  9996
#TLE: 2 43013  98.7631 310.6868 0001678  46.7442 313.3874 14.19534878421981

#Time	Az	El	Level	Level2	SNR	BER	BlckErr	Temp	State	Recorded	gain1	gain2
2026-01-11 01:10:43.41	14.31	6.96	-31.6	-38.3	4.9	1.30e+00	0	39	0	0	23	7746
2026-01-11 01:10:46.43	14.19	7.18	-31.9	-39.3	6.7	1.76e-01	0	39	0	1048576	23	8487
2026-01-11 01:10:49.44	14.06	7.41	-31.6	-37.8	7.8	1.09e-01	0	39	0	7340032	23	7366
2026-01-11 01:10:52.47	13.94	7.64	-31.4	-36.9	8.6	4.47e-02	0	40	0	12582912	23	6758
2026-01-11 01:10:55.48	13.81	7.87	-31.4	-36.8	8.7	5.43e-02	0	40	0	18874368	23	6711
2026-01-11 01:10:58.50	13.68	8.10	-30.8	-35.4	10.7	4.94e-03	0	40	0	24117248	21	6111
2026-01-11 01:11:01.51	13.55	8.34	-30.1	-33.7	12.3	5.24e-04	0	40	0	29360128	20	5438
2026-01-11 01:11:04.52	13.41	8.57	-29.9	-33.7	12.7	6.02e-05	0	40	0	35651584	19	5533
2026-01-11 01:11:07.54	13.27	8.81	-30.0	-33.8	12.7	5.34e-05	0	40	0	40894464	19	5567
2026-01-11 01:11:10.56	13.13	9.05	-29.9	-33.0	12.8	5.41e-05	0	40	0	46137344	20	5175
2026-01-11 01:11:13.57	12.99	9.30	-29.9	-33.5	12.0	4.57e-05	0	40	0	52428800	19	5438
2026-01-11 01:11:16.59	12.85	9.54	-30.0	-33.6	12.8	5.49e-05	0	40	0	57671680	19	5504
2026-01-11 01:11:19.61	12.70	9.79	-30.0	-33.3	12.7	3.58e-04	0	40	0	63963136	20	5281
2026-01-11 01:11:22.62	12.55	10.04	-30.0	-33.2	12.7	1.22e-04	0	40	0	69206016	20	5241
2026-01-11 01:11:25.63	12.40	10.29	-30.1	-33.5	12.6	5.95e-05	0	40	0	74448896	20	5334
2026-01-11 01:11:28.64	12.24	10.54	-30.0	-33.6	12.9	4.42e-05	0	40	0	80740352	19	5486
2026-01-11 01:11:31.66	12.08	10.80	-29.9	-33.4	13.1	3.50e-05	0	41	0	85983232	19	5411
2026-01-11 01:11:34.67	11.92	11.06	-30.1	-33.5	12.6	2.67e-03	0	40	0	92274688	20	5322
2026-01-11 01:11:37.68	11.76	11.32	-29.9	-33.3	13.2	2.79e-03	0	41	0	97517568	19	5343
2026-01-11 01:11:40.69	11.59	11.59	-30.0	-33.5	13.1	2.73e-03	0	41	0	102760448	19	5442
2026-01-11 01:11:43.71	11.42	11.85	-29.9	-33.0	13.0	2.63e-03	0	41	0	109051904	20	5143
2026-01-11 01:11:46.72	11.24	12.12	-30.0	-33.4	12.8	2.87e-03	0	41	0	114294784	20	5272
2026-01-11 01:11:49.73	11.06	12.39	-30.0	-33.3	12.9	2.76e-03	0	41	0	120586240	20	5247
2026-01-11 01:11:52.76	10.88	12.67	-29.9	-33.5	13.2	2.49e-03	0	41	0	125829120	19	5403
2026-01-11 01:11:55.78	10.70	12.95	-30.1	-33.4	12.9	2.85e-03	0	41	0	131072000	20	5278
2026-01-11 01:11:58.80	10.51	13.23	-29.8	-33.1	13.5	2.66e-03	0	41	0	137363456	19	5263
2026-01-11 01:12:01.81	10.31	13.51	-29.9	-33.2	13.4	2.48e-03	0	41	0	142606336	19	5308
2026-01-11 01:12:04.81	10.12	13.80	-30.0	-33.2	13.1	2.73e-03	0	41	0	148897792	20	5173
2026-01-11 01:12:07.83	9.91	14.09	-29.9	-33.2	13.5	1.44e-05	0	41	0	154140672	19	5299
2026-01-11 01:12:10.85	9.71	14.38	-29.7	-32.8	13.8	8.30e-06	0	41	0	159383552	19	5119
2026-01-11 01:12:13.87	9.50	14.68	-29.9	-33.2	13.5	1.06e-05	0	41	0	165675008	19	5271
2026-01-11 01:12:16.88	9.28	14.98	-29.6	-32.4	14.0	6.80e-06	0	41	0	170917888	19	4997
2026-01-11 01:12:19.90	9.07	15.28	-29.6	-32.4	14.1	1.50e-06	0	41	0	176160768	19	4982
2026-01-11 01:12:22.91	8.84	15.59	-29.5	-32.3	14.2	2.57e-03	0	41	0	182452224	19	4929
2026-01-11 01:12:25.92	8.61	15.90	-29.6	-32.4	14.1	7.00e-07	0	41	0	187695104	19	4973
2026-01-11 01:12:28.93	8.38	16.21	-29.7	-32.6	14.0	3.80e-06	0	41	0	193986560	19	5061
2026-01-11 01:12:31.95	8.14	16.52	-29.7	-32.8	13.9	3.00e-06	0	41	0	199229440	19	5098
2026-01-11 01:12:34.96	7.90	16.84	-29.7	-32.7	13.9	3.00e-06	0	41	0	204472320	19	5097
2026-01-11 01:12:37.98	7.65	17.17	-29.8	-32.9	13.8	3.80e-06	0	41	0	210763776	19	5149
2026-01-11 01:12:41.00	7.39	17.50	-28.8	-31.9	13.6	1.50e-06	0	41	0	216006656	19	5092
2026-01-11 01:12:44.01	7.13	17.83	-29.8	-32.8	12.6	7.00e-07	0	41	0	222298112	19	5129
2026-01-11 01:12:47.02	6.87	18.16	-29.9	-33.3	13.6	2.48e-03	0	41	0	227540992	19	5288
2026-01-11 01:12:50.05	6.59	18.50	-29.8	-33.0	13.8	2.49e-03	0	41	0	232783872	19	5190
2026-01-11 01:12:53.07	6.31	18.85	-29.8	-32.8	14.0	2.25e-03	0	41	0	239075328	19	5113
2026-01-11 01:12:56.08	6.02	19.19	-29.9	-33.3	13.6	2.20e-06	0	41	0	244318208	19	5293
2026-01-11 01:12:59.10	5.73	19.54	-29.9	-33.3	13.7	4.50e-06	0	41	0	250609664	19	5283
2026-01-11 01:13:02.12	5.43	19.90	-30.1	-33.2	13.3	9.90e-06	0	42	0	255852544	20	5141
2026-01-11 01:13:05.14	5.12	20.26	-30.3	-33.7	13.0	2.67e-03	0	41	0	261095424	20	5339
2026-01-11 01:13:08.16	4.80	20.62	-30.2	-33.5	13.1	2.66e-03	0	41	0	267386880	20	5277
2026-01-11 01:13:11.18	4.48	20.99	-30.4	-34.0	12.9	2.52e-03	0	42	0	272629760	20	5466
2026-01-11 01:13:14.20	4.15	21.37	-30.3	-33.8	13.0	2.80e-03	0	41	0	278921216	20	5383
2026-01-11 01:13:17.22	3.81	21.74	-30.2	-33.6	13.2	2.74e-03	0	41	0	284164096	20	5300
2026-01-11 01:13:20.24	3.46	22.13	-30.2	-33.6	13.2	2.43e-03	0	41	0	289406976	20	5282
2026-01-11 01:13:23.26	3.10	22.51	-30.4	-34.0	13.0	3.35e-05	0	41	0	295698432	20	5438
2026-01-11 01:13:26.28	2.73	22.91	-30.5	-34.2	12.7	2.71e-03	0	41	0	300941312	20	5556
2026-01-11 01:13:29.30	2.36	23.30	-30.6	-34.1	12.5	2.69e-03	0	42	0	307232768	21	5375
2026-01-11 01:13:32.30	1.97	23.70	-30.7	-34.4	12.3	3.02e-03	0	42	0	312475648	21	5516
2026-01-11 01:13:35.33	1.57	24.11	-30.6	-34.0	12.6	2.81e-03	0	42	0	317718528	21	5353
2026-01-11 01:13:38.35	1.16	24.52	-30.7	-34.3	12.4	2.72e-03	0	41	0	324009984	21	5480
2026-01-11 01:13:41.36	0.75	24.93	-30.8	-34.6	12.2	2.39e-04	0	42	0	329252864	21	5609
2026-01-11 01:13:44.38	0.31	25.35	-30.6	-34.0	12.7	1.25e-04	0	41	0	335544320	21	5325
2026-01-11 01:13:47.40	359.87	25.78	-30.7	-34.2	12.5	8.62e-05	0	41	0	340787200	21	5433
2026-01-11 01:13:50.41	359.42	26.21	-30.6	-34.1	12.7	9.76e-05	0	41	0	346030080	21	5367
2026-01-11 01:13:53.43	358.95	26.64	-30.6	-34.1	12.6	1.01e-04	0	42	0	352321536	21	5379
2026-01-11 01:13:56.44	358.47	27.08	-30.6	-34.1	12.7	8.39e-05	0	42	0	357564416	21	5383
2026-01-11 01:13:59.46	357.97	27.53	-30.7	-34.2	12.6	9.99e-05	0	42	0	363855872	21	5416
2026-01-11 01:14:02.49	357.46	27.98	-30.7	-34.2	12.7	7.78e-05	0	42	0	369098752	21	5394
2026-01-11 01:14:05.50	356.94	28.43	-30.4	-33.5	13.2	2.89e-05	0	42	0	374341632	21	5123
2026-01-11 01:14:08.52	356.40	28.89	-30.4	-33.9	13.2	2.28e-05	0	41	0	380633088	20	5384
2026-01-11 01:14:11.54	355.84	29.36	-30.4	-33.9	13.1	1.22e-05	0	42	0	385875968	20	5397
2026-01-11 01:14:14.56	355.27	29.82	-30.8	-34.6	12.4	1.04e-04	0	42	0	392167424	21	5581
2026-01-11 01:14:17.58	354.68	30.30	-30.9	-34.9	12.2	2.39e-04	0	42	0	397410304	21	5676
2026-01-11 01:14:20.59	354.07	30.77	-31.0	-34.6	12.1	4.82e-04	0	42	0	402653184	22	5441
2026-01-11 01:14:23.61	353.45	31.25	-31.1	-34.9	11.9	6.12e-04	0	42	0	408944640	22	5586
2026-01-11 01:14:26.63	352.80	31.74	-31.2	-35.1	11.8	9.06e-04	0	42	0	414187520	22	5656
2026-01-11 01:14:29.65	352.14	32.23	-31.2	-35.0	11.8	4.92e-04	0	42	0	420478976	22	5623
2026-01-11 01:14:32.66	351.45	32.72	-31.1	-34.9	12.0	4.15e-04	0	42	0	425721856	22	5550
2026-01-11 01:14:35.68	350.74	33.22	-31.2	-35.2	11.7	6.23e-04	0	42	0	430964736	22	5710
2026-01-11 01:14:38.69	350.02	33.71	-31.2	-35.0	11.9	6.23e-04	0	42	0	437256192	22	5610
2026-01-11 01:14:41.71	349.26	34.21	-31.2	-35.1	11.8	9.58e-04	0	42	0	442499072	22	5642
2026-01-11 01:14:44.72	348.49	34.72	-31.1	-34.7	12.1	4.87e-04	0	42	0	448790528	22	5490
2026-01-11 01:14:47.74	347.69	35.22	-31.1	-34.9	12.0	3.08e-04	0	42	0	454033408	22	5542
2026-01-11 01:14:50.76	346.86	35.73	-31.1	-34.8	12.0	2.34e-04	0	42	0	459276288	22	5540
2026-01-11 01:14:53.79	346.00	36.24	-31.2	-35.2	11.7	5.18e-04	0	42	0	465567744	22	5706
2026-01-11 01:14:56.80	345.12	36.75	-31.1	-34.8	12.1	2.46e-04	0	42	0	470810624	22	5516
2026-01-11 01:14:59.82	344.21	37.26	-31.1	-34.8	12.1	2.44e-04	0	42	0	477102080	22	5500
2026-01-11 01:15:02.82	343.28	37.76	-31.0	-34.6	12.2	2.64e-04	0	42	0	482344960	22	5424
2026-01-11 01:15:05.83	342.31	38.26	-31.0	-34.6	12.2	3.73e-04	0	42	0	487587840	22	5443
2026-01-11 01:15:08.86	341.31	38.77	-31.0	-34.6	12.2	5.22e-04	0	42	0	493879296	22	5418
2026-01-11 01:15:11.87	340.28	39.27	-30.9	-34.8	12.4	3.49e-04	0	42	0	499122176	21	5639
2026-01-11 01:15:14.89	339.22	39.77	-31.2	-35.2	11.8	4.60e-04	0	42	0	504365056	22	5679
2026-01-11 01:15:17.91	338.12	40.26	-31.3	-35.4	11.7	6.17e-04	0	42	0	510656512	22	5748
2026-01-11 01:15:20.93	336.99	40.75	-31.5	-35.5	11.2	8.40e-04	0	42	0	515899392	23	5713
2026-01-11 01:15:23.95	335.83	41.23	-31.9	-36.9	10.2	4.96e-03	0	42	0	522190848	23	6395
2026-01-11 01:15:26.97	334.63	41.71	-31.8	-36.4	10.6	3.84e-03	0	42	0	527433728	23	6142
2026-01-11 01:15:29.98	333.39	42.17	-31.6	-35.7	11.1	2.02e-03	0	42	0	532676608	23	5808
2026-01-11 01:15:33.00	332.12	42.62	-31.1	-34.3	12.1	4.37e-04	0	42	0	538968064	23	5186
2026-01-11 01:15:36.02	330.81	43.07	-30.5	-33.7	13.0	5.87e-05	0	42	0	544210944	21	5159
2026-01-11 01:15:39.03	329.47	43.50	-30.0	-33.1	14.2	5.30e-06	0	42	0	550502400	19	5175
2026-01-11 01:15:42.04	328.09	43.92	-29.9	-33.0	14.4	7.00e-07	0	42	0	555745280	19	5105
2026-01-11 01:15:45.05	326.68	44.32	-30.4	-33.7	13.6	3.00e-06	0	42	0	560988160	20	5265
2026-01-11 01:15:48.07	325.23	44.71	-29.8	-32.6	14.6	2.20e-06	0	42	0	567279616	19	4978
2026-01-11 01:15:51.08	323.74	45.08	-29.5	-32.3	15.1	7.70e-05	0	42	0	572522496	18	4990
2026-01-11 01:15:54.10	322.22	45.43	-30.6	-33.8	13.2	1.68e-03	0	42	0	578813952	21	5221
2026-01-11 01:15:57.11	320.67	45.76	-30.8	-34.3	12.8	2.03e-03	0	42	0	584056832	21	5415
2026-01-11 01:16:00.13	319.08	46.07	-30.7	-34.1	12.9	1.79e-03	0	42	0	589299712	21	5324
2026-01-11 01:16:03.14	317.46	46.36	-30.7	-34.1	13.0	3.35e-05	0	42	0	595591168	21	5320
2026-01-11 01:16:06.16	315.81	46.62	-31.0	-34.6	12.4	1.38e-04	0	42	0	600834048	22	5393
2026-01-11 01:16:09.18	314.14	46.86	-31.6	-35.7	11.1	2.72e-03	0	42	0	607125504	23	5819
2026-01-11 01:16:12.20	312.44	47.07	-31.5	-35.5	11.3	2.91e-03	0	42	0	612368384	23	5710
2026-01-11 01:16:15.21	310.72	47.26	-31.5	-35.6	11.3	4.27e-03	0	42	0	617611264	23	5725
2026-01-11 01:16:18.22	308.98	47.41	-31.2	-34.9	12.0	1.05e-03	0	42	0	623902720	22	5543
2026-01-11 01:16:21.24	307.22	47.54	-31.5	-35.9	11.5	2.29e-03	0	42	0	629145600	22	6008
2026-01-11 01:16:24.26	305.45	47.64	-32.0	-36.7	10.1	6.63e-03	0	42	0	634388480	24	6161
2026-01-11 01:16:27.26	303.68	47.71	-31.7	-35.7	10.8	2.88e-03	0	42	0	640679936	24	5681
2026-01-11 01:16:30.28	301.90	47.75	-32.0	-36.5	10.2	6.57e-03	0	42	0	645922816	24	6069
2026-01-11 01:16:33.29	300.11	47.76	-31.2	-34.6	11.9	4.42e-04	0	42	0	652214272	23	5295
2026-01-11 01:16:36.30	298.33	47.74	-31.5	-35.3	11.5	5.27e-04	0	42	0	657457152	23	5609
2026-01-11 01:16:39.32	296.54	47.69	-31.4	-35.2	11.5	9.41e-04	0	42	0	662700032	23	5553
2026-01-11 01:16:42.34	294.76	47.61	-31.6	-35.8	11.1	2.40e-03	0	42	0	668991488	23	5868
2026-01-11 01:16:45.36	293.00	47.50	-31.0	-34.4	12.4	2.10e-04	0	42	0	674234368	22	5333
2026-01-11 01:16:48.37	291.25	47.36	-31.3	-35.4	11.8	4.43e-04	0	42	0	680525824	22	5750
2026-01-11 01:16:51.39	289.51	47.19	-31.6	-35.8	11.0	1.22e-03	0	42	0	685768704	23	5849
2026-01-11 01:16:54.40	287.80	46.99	-31.1	-34.8	12.2	4.09e-04	0	42	0	691011584	22	5489
2026-01-11 01:16:57.42	286.11	46.77	-31.6	-35.7	11.2	8.87e-04	0	42	0	697303040	23	5813
2026-01-11 01:17:00.43	284.44	46.52	-31.7	-36.3	10.7	3.72e-03	0	42	0	702545920	23	6081
2026-01-11 01:17:03.45	282.80	46.25	-31.2	-34.6	11.9	4.20e-04	0	42	0	708837376	23	5313
2026-01-11 01:17:06.46	281.20	45.95	-30.2	-34.2	11.7	2.70e-04	0	42	0	714080256	22	5713
2026-01-11 01:17:09.48	279.62	45.64	-31.3	-35.3	11.8	5.33e-04	0	42	0	719323136	22	5730
2026-01-11 01:17:12.49	278.08	45.30	-31.0	-34.6	12.3	3.65e-04	0	42	0	725614592	22	5447
2026-01-11 01:17:15.52	276.56	44.94	-30.4	-33.8	13.4	1.75e-05	0	42	0	730857472	20	5321
2026-01-11 01:17:18.53	275.08	44.56	-30.4	-33.8	13.3	1.44e-05	0	42	0	737148928	20	5328
2026-01-11 01:17:21.55	273.64	44.16	-30.4	-33.9	13.3	1.83e-05	0	42	0	742391808	20	5384
2026-01-11 01:17:24.56	272.24	43.75	-29.1	-31.5	15.5	1.72e-03	0	42	0	747634688	18	4728
2026-01-11 01:17:27.59	270.86	43.33	-29.3	-32.0	15.2	2.31e-03	0	42	0	753926144	18	4899
2026-01-11 01:17:30.60	269.53	42.89	-29.3	-31.9	15.3	2.18e-03	0	42	0	759169024	18	4847
2026-01-11 01:17:33.62	268.23	42.44	-28.7	-30.9	16.1	2.10e-03	0	42	0	765460480	17	4661
2026-01-11 01:17:36.63	266.98	41.98	-29.2	-31.6	15.5	1.99e-03	0	42	0	770703360	18	4754
2026-01-11 01:17:39.65	265.75	41.51	-29.2	-31.6	15.4	2.01e-03	0	42	0	775946240	18	4767
2026-01-11 01:17:42.66	264.56	41.04	-28.9	-31.5	15.8	2.29e-03	0	42	0	782237696	17	4827
2026-01-11 01:17:45.68	263.41	40.55	-29.4	-32.1	15.1	2.77e-03	0	42	0	787480576	18	4935
2026-01-11 01:17:48.69	262.29	40.06	-29.5	-31.8	14.9	2.48e-03	0	42	0	792723456	19	4730
2026-01-11 01:17:51.71	261.20	39.56	-29.6	-32.2	14.7	2.62e-03	0	42	0	799014912	19	4843
2026-01-11 01:17:54.73	260.15	39.06	-29.7	-32.6	14.4	2.84e-03	0	42	0	804257792	19	4984
2026-01-11 01:17:57.74	259.13	38.56	-29.8	-32.6	14.4	5.36e-04	0	42	0	810549248	19	5009
2026-01-11 01:18:00.75	258.14	38.05	-29.4	-32.1	15.0	0.00e+00	0	42	0	815792128	18	4931
2026-01-11 01:18:03.77	257.18	37.55	-29.7	-32.5	14.5	1.50e-06	0	42	0	821035008	19	4963
2026-01-11 01:18:06.79	256.25	37.04	-30.0	-32.8	13.9	5.30e-06	0	42	0	827326464	20	4984
2026-01-11 01:18:09.81	255.35	36.52	-30.4	-33.8	13.3	2.48e-03	0	42	0	832569344	20	5357
2026-01-11 01:18:12.83	254.48	36.01	-30.8	-34.6	12.4	2.90e-03	0	42	0	838860800	21	5569
2026-01-11 01:18:15.84	253.63	35.51	-31.2	-35.1	11.7	4.96e-04	0	42	0	844103680	22	5650
2026-01-11 01:18:18.85	252.82	35.00	-31.2	-35.3	11.5	1.37e-03	0	42	0	849346560	22	5754
2026-01-11 01:18:21.85	252.03	34.50	-31.4	-35.8	11.2	1.14e-03	0	42	0	855638016	22	6001
2026-01-11 01:18:24.87	251.26	33.99	-31.7	-36.5	10.3	5.11e-03	0	42	0	860880896	23	6257
2026-01-11 01:18:27.88	250.51	33.49	-31.8	-36.7	10.2	6.54e-03	0	42	0	867172352	23	6321
2026-01-11 01:18:30.90	249.79	32.99	-31.8	-36.6	10.2	4.91e-03	0	42	0	872415232	23	6297
2026-01-11 01:18:33.93	249.08	32.49	-31.7	-36.5	10.2	6.51e-03	0	42	0	877658112	23	6260
2026-01-11 01:18:36.94	248.40	32.00	-31.4	-36.0	11.0	2.14e-03	0	42	0	883949568	22	6073
2026-01-11 01:18:39.95	247.74	31.51	-31.3	-35.7	11.2	1.22e-03	0	42	0	889192448	22	5964
2026-01-11 01:18:42.96	247.11	31.03	-31.3	-35.5	11.3	1.07e-03	0	42	0	895483904	22	5881
2026-01-11 01:18:45.97	246.49	30.55	-31.1	-35.1	11.7	5.70e-04	0	42	0	900726784	22	5681
2026-01-11 01:18:48.99	245.88	30.07	-30.9	-34.9	12.1	2.10e-04	0	42	0	905969664	21	5704
2026-01-11 01:18:52.01	245.30	29.60	-31.4	-36.0	11.0	1.21e-03	0	42	0	912261120	22	6103
2026-01-11 01:18:55.01	244.73	29.13	-31.4	-35.9	11.0	1.62e-03	0	42	0	917504000	22	6058
2026-01-11 01:18:58.03	244.18	28.67	-31.1	-35.1	11.6	7.40e-04	0	42	0	922746880	22	5692
2026-01-11 01:19:01.04	243.64	28.21	-31.0	-34.8	11.8	6.84e-04	0	42	0	929038336	22	5542
2026-01-11 01:19:04.06	243.12	27.76	-31.2	-35.5	11.3	1.25e-03	0	42	0	934281216	22	5860
2026-01-11 01:19:07.07	242.62	27.31	-30.9	-34.6	11.9	4.71e-04	0	42	0	940572672	22	5477
2026-01-11 01:19:10.08	242.13	26.86	-30.9	-35.1	11.9	4.46e-04	0	42	0	945815552	21	5810
2026-01-11 01:19:13.09	241.65	26.43	-30.6	-34.2	12.5	1.64e-04	0	42	0	951058432	21	5433
2026-01-11 01:19:16.11	241.18	25.99	-30.5	-34.2	12.8	5.95e-05	0	42	0	957349888	20	5553
2026-01-11 01:19:19.13	240.73	25.56	-30.7	-34.2	12.5	7.88e-04	0	42	0	962592768	21	5425
2026-01-11 01:19:22.15	240.29	25.13	-30.3	-33.9	13.0	3.87e-04	0	42	0	968884224	20	5399
2026-01-11 01:19:25.15	239.86	24.72	-30.4	-34.1	12.9	2.17e-04	0	42	0	974127104	20	5501
2026-01-11 01:19:28.17	239.44	24.30	-30.7	-34.4	12.3	1.98e-04	0	42	0	979369984	21	5504
2026-01-11 01:19:31.19	239.04	23.89	-30.6	-34.0	12.5	3.33e-04	0	42	0	985661440	21	5371
2026-01-11 01:19:34.22	238.64	23.48	-30.4	-33.9	12.9	1.11e-04	0	42	0	990904320	20	5437
2026-01-11 01:19:37.23	238.26	23.08	-30.2	-33.6	13.1	2.97e-05	0	42	0	997195776	20	5289
2026-01-11 01:19:40.25	237.88	22.69	-29.9	-32.8	13.7	1.60e-03	0	42	0	1002438656	20	4984
2026-01-11 01:19:43.27	237.51	22.30	-30.0	-33.4	13.7	2.03e-03	0	42	0	1007681536	19	5315
2026-01-11 01:19:46.28	237.16	21.91	-30.1	-33.1	13.4	1.56e-03	0	42	0	1013972992	20	5131
2026-01-11 01:19:49.29	236.81	21.53	-30.0	-33.1	13.4	1.25e-03	0	42	0	1019215872	20	5131
2026-01-11 01:19:52.30	236.47	21.15	-30.1	-33.1	13.4	1.44e-05	0	42	0	1024458752	20	5130
2026-01-11 01:19:55.32	236.14	20.78	-30.2	-33.5	13.1	3.73e-05	0	42	0	1030750208	20	5272
2026-01-11 01:19:58.34	235.82	20.41	-30.1	-33.4	13.2	2.51e-05	0	42	0	1035993088	20	5228
2026-01-11 01:20:01.36	235.50	20.05	-30.2	-33.4	13.1	2.36e-05	0	42	0	1042284544	20	5257
2026-01-11 01:20:04.37	235.20	19.69	-30.2	-33.6	13.0	3.43e-05	0	42	0	1047527424	20	5317
2026-01-11 01:20:07.39	234.89	19.33	-29.5	-32.8	13.0	3.89e-05	0	42	0	1052770304	20	5295
2026-01-11 01:20:10.41	234.60	18.98	-30.2	-33.7	12.0	3.81e-05	0	42	0	1059061760	20	5400
2026-01-11 01:20:13.43	234.31	18.63	-30.2	-33.8	12.8	6.25e-05	0	42	0	1064304640	20	5407
2026-01-11 01:20:16.44	234.03	18.29	-30.2	-33.7	12.8	6.71e-05	0	42	0	1070596096	20	5392
2026-01-11 01:20:19.45	233.76	17.95	-30.2	-33.8	12.8	5.18e-05	0	42	0	1075838976	20	5405
2026-01-11 01:20:22.47	233.49	17.62	-30.1	-33.3	13.0	3.66e-05	0	42	0	1081081856	20	5233
2026-01-11 01:20:25.49	233.23	17.29	-30.2	-33.5	12.9	3.58e-05	0	42	0	1087373312	20	5321
2026-01-11 01:20:28.51	232.98	16.96	-30.2	-33.7	12.7	1.94e-03	0	42	0	1092616192	20	5374
2026-01-11 01:20:31.53	232.73	16.64	-30.3	-34.0	12.5	2.49e-03	0	42	0	1098907648	20	5515
2026-01-11 01:20:34.54	232.48	16.32	-30.3	-34.1	12.4	2.83e-03	0	42	0	1104150528	20	5578
2026-01-11 01:20:37.56	232.24	16.00	-30.4	-34.4	12.2	2.79e-03	0	42	0	1109393408	20	5671
2026-01-11 01:20:40.58	232.01	15.69	-30.4	-33.9	12.2	2.90e-03	0	42	0	1115684864	21	5355
2026-01-11 01:20:43.59	231.78	15.38	-30.4	-34.3	12.2	2.93e-03	0	42	0	1120927744	20	5662
2026-01-11 01:20:46.61	231.56	15.07	-30.7	-34.8	11.5	3.65e-03	0	42	0	1127219200	21	5792
2026-01-11 01:20:49.62	231.34	14.77	-30.7	-34.9	11.4	3.72e-03	0	42	0	1132462080	21	5800
2026-01-11 01:20:52.63	231.12	14.47	-30.7	-34.8	11.5	3.70e-03	0	42	0	1137704960	21	5777
2026-01-11 01:20:55.66	230.91	14.18	-30.6	-34.4	11.7	3.55e-03	0	42	0	1143996416	21	5604
2026-01-11 01:20:58.67	230.70	13.88	-30.3	-34.2	12.2	2.75e-03	0	42	0	1149239296	20	5647
2026-01-11 01:21:01.68	230.50	13.59	-30.3	-34.0	12.3	1.62e-04	0	42	0	1155530752	20	5548
2026-01-11 01:21:04.69	230.30	13.31	-30.3	-34.3	12.0	3.58e-04	0	42	0	1160773632	20	5696
2026-01-11 01:21:07.71	230.11	13.02	-30.4	-34.6	11.8	3.78e-04	0	42	0	1166016512	20	5824
2026-01-11 01:21:10.73	229.92	12.74	-30.6	-34.6	11.4	8.57e-04	0	42	0	1172307968	21	5727
2026-01-11 01:21:13.75	229.73	12.47	-30.7	-35.0	11.1	4.19e-03	0	42	0	1177550848	21	5923
2026-01-11 01:21:16.77	229.55	12.19	-30.9	-35.6	10.7	5.15e-03	0	42	0	1183842304	21	6170
2026-01-11 01:21:19.78	229.37	11.92	-30.9	-35.5	10.8	3.49e-03	0	42	0	1189085184	21	6140
2026-01-11 01:21:22.79	229.19	11.65	-30.8	-35.3	10.9	1.90e-03	0	42	0	1194328064	21	6026
2026-01-11 01:21:25.80	229.02	11.38	-30.7	-34.9	11.1	1.89e-03	0	42	0	1200619520	21	5867
2026-01-11 01:21:28.82	228.85	11.12	-30.8	-35.3	10.8	2.04e-03	0	42	0	1205862400	21	6083
2026-01-11 01:21:31.84	228.69	10.86	-30.9	-35.7	10.4	3.24e-03	0	42	0	1211105280	21	6276
2026-01-11 01:21:34.84	228.52	10.60	-29.8	-34.2	11.0	2.16e-03	0	42	0	1217396736	21	5976
2026-01-11 01:21:37.86	228.36	10.34	-30.7	-35.2	10.4	2.44e-03	0	42	0	1222639616	21	6017
2026-01-11 01:21:40.87	228.20	10.09	-30.8	-35.3	10.7	5.02e-03	0	42	0	1228931072	21	6084
2026-01-11 01:21:43.89	228.05	9.84	-30.8	-35.5	10.5	3.08e-03	0	42	0	1234173952	21	6206
2026-01-11 01:21:46.91	227.90	9.59	-30.8	-35.4	10.7	4.27e-03	0	42	0	1239416832	21	6123
2026-01-11 01:21:49.92	227.75	9.34	-30.7	-35.2	10.7	3.80e-03	0	42	0	1245708288	21	6049
2026-01-11 01:21:52.93	227.60	9.10	-30.8	-35.5	10.5	4.97e-03	0	42	0	1250951168	21	6207
2026-01-11 01:21:55.94	227.46	8.85	-30.9	-35.9	10.1	8.63e-03	0	42	0	1257242624	21	6425
2026-01-11 01:21:58.95	227.32	8.61	-30.9	-35.7	9.9	1.25e-02	0	42	0	1262485504	22	6204
2026-01-11 01:22:01.96	227.18	8.38	-30.8	-35.8	10.1	1.14e-02	0	42	0	1267728384	21	6389
2026-01-11 01:22:04.97	227.04	8.14	-30.8	-35.6	10.2	8.15e-03	0	42	0	1274019840	21	6299
2026-01-11 01:22:07.98	226.91	7.91	-30.9	-36.1	9.8	1.07e-02	0	42	0	1279262720	21	6541
2026-01-11 01:22:11.00	226.78	7.67	-31.0	-36.1	9.4	1.08e-02	0	42	0	1284505600	22	6445
2026-01-11 01:22:14.01	226.65	7.44	-31.2	-36.8	8.8	2.27e-02	0	42	0	1290797056	22	6883
2026-01-11 01:22:17.03	226.52	7.21	-31.1	-36.4	9.1	3.87e-02	0	42	0	1296039936	22	6623
2026-01-11 01:22:20.04	226.39	6.99	-33.2	-47.5	3.8	1.49e+00	0	42	104	1299185664	26	18651

#Closed at: 2026-01-11 01:22:21
#Recorded file [1299 MB]: D:/data/31010_260111_041045.dat