passes_logs/2026/01/11/R2M6_AANII_01/R2M6_AANII_01__20260111_101304_NOAA_21_JPSS-2_rec.log

#Pass ID: 20260111_101304_NOAA 21 (JPSS-2)
#Satellite: NOAA 21 (JPSS-2)
#Configuration: NOAA 21
#almurnet v.1.7.20240730
#Start time: 2026-01-11 10:13:56

#Version: 2.2.20231116
#Station: R2M6_AANII_01
#Location: 30.233357 lon 59.946436 lat
#TLE: 1 54234U 22150A   26009.79679979  .00000100  00000+0  68070-4 0  9993
#TLE: 2 54234  98.7494 310.7596 0000833 322.2782  37.8335 14.19533646164071

#Time	Az	El	Level	Level2	SNR	BER	BlckErr	Temp	State	Recorded	gain1	gain2
2026-01-11 10:13:56.62	156.95	11.41	-33.6	-44.8	3.8	8.45e-01	0	42	0	0	27	12988
2026-01-11 10:13:59.62	156.94	11.69	-34.0	-45.3	3.8	1.49e+00	0	42	104	0	29	13223
2026-01-11 10:14:02.62	156.94	11.97	-34.0	-45.3	3.8	1.49e+00	0	42	104	0	29	13223
2026-01-11 10:14:05.63	156.93	12.26	-34.0	-45.3	3.8	1.49e+00	0	42	104	0	29	13224
2026-01-11 10:14:08.63	156.92	12.55	-34.0	-45.3	3.8	1.49e+00	0	42	104	0	29	13269
2026-01-11 10:14:11.65	156.91	12.84	-33.9	-45.2	3.8	1.49e+00	0	42	104	0	29	13181
2026-01-11 10:14:14.65	156.91	13.14	-34.0	-45.3	3.8	1.49e+00	0	42	104	0	29	13274
2026-01-11 10:14:17.65	156.90	13.44	-34.1	-45.6	3.8	1.49e+00	0	42	104	0	29	13481
2026-01-11 10:14:20.65	156.89	13.74	-34.0	-45.4	3.8	1.49e+00	0	42	104	0	29	13379
2026-01-11 10:14:23.66	156.88	14.05	-33.8	-45.0	3.8	1.49e+00	0	42	104	0	29	13086
2026-01-11 10:14:26.67	156.87	14.36	-33.7	-45.2	3.8	1.49e+00	0	42	104	0	28	13598
2026-01-11 10:14:29.68	156.86	14.68	-33.3	-44.9	3.8	1.49e+00	0	42	104	0	27	13654
2026-01-11 10:14:32.70	156.85	15.00	-32.9	-41.5	3.9	1.48e+00	0	42	104	0	27	9723
2026-01-11 10:14:35.71	156.84	15.32	-32.1	-37.4	6.1	3.93e-01	0	42	0	1048576	25	6690
2026-01-11 10:14:38.71	156.83	15.65	-30.6	-33.9	9.6	1.82e-02	0	42	0	9437184	22	5222
2026-01-11 10:14:41.71	156.81	15.98	-29.1	-31.2	12.4	2.37e-04	0	42	0	18874368	19	4570
2026-01-11 10:14:44.70	156.80	16.32	-28.0	-29.5	14.1	0.00e+00	0	42	0	28311552	17	4246
2026-01-11 10:14:47.71	156.79	16.66	-28.1	-29.6	14.0	1.67e-05	0	42	0	37748736	17	4298
2026-01-11 10:14:50.70	156.78	17.01	-29.3	-32.0	12.2	1.46e-04	0	42	0	47185920	18	4953
2026-01-11 10:14:53.70	156.76	17.36	-29.3	-31.6	12.2	1.54e-04	0	42	0	56623104	19	4694
2026-01-11 10:14:56.70	156.75	17.72	-28.4	-30.0	13.5	1.37e-05	0	42	0	66060288	18	4288
2026-01-11 10:14:59.71	156.73	18.08	-28.5	-30.6	13.5	1.06e-05	0	42	0	75497472	17	4576
2026-01-11 10:15:02.71	156.72	18.45	-28.1	-29.5	14.1	1.52e-05	0	42	0	84934656	17	4271
2026-01-11 10:15:05.71	156.70	18.82	-27.8	-29.0	14.4	7.00e-07	0	42	0	94371840	17	4114
2026-01-11 10:15:08.71	156.68	19.20	-27.9	-29.1	14.4	3.80e-06	0	42	0	103809024	17	4146
2026-01-11 10:15:11.71	156.67	19.58	-27.5	-28.6	15.0	0.00e+00	0	42	0	113246208	16	4098
2026-01-11 10:15:14.72	156.65	19.98	-27.4	-28.5	15.0	7.00e-07	0	42	0	122683392	16	4077
2026-01-11 10:15:17.72	156.63	20.37	-27.4	-28.4	15.2	0.00e+00	0	42	0	132120576	16	4046
2026-01-11 10:15:20.72	156.61	20.78	-27.0	-28.2	15.4	0.00e+00	0	42	0	141557760	15	4105
2026-01-11 10:15:23.73	156.59	21.19	-27.1	-28.2	15.4	0.00e+00	0	42	0	150994944	15	4110
2026-01-11 10:15:26.75	156.57	21.61	-27.1	-28.2	15.4	0.00e+00	0	42	0	160432128	15	4110
2026-01-11 10:15:29.77	156.54	22.03	-26.7	-27.8	15.9	0.00e+00	0	42	0	169869312	14	4112
2026-01-11 10:15:32.77	156.52	22.46	-26.6	-27.7	16.0	0.00e+00	0	42	0	179306496	14	4085
2026-01-11 10:15:35.77	156.50	22.90	-26.3	-27.0	16.4	0.00e+00	0	42	0	188743680	14	3908
2026-01-11 10:15:38.78	156.47	23.35	-26.0	-26.8	16.8	0.00e+00	0	42	0	198180864	13	3960
2026-01-11 10:15:41.78	156.45	23.80	-25.9	-26.6	16.8	0.00e+00	0	42	0	207618048	13	3912
2026-01-11 10:15:44.78	156.42	24.27	-25.9	-26.7	16.9	0.00e+00	0	42	0	216006656	13	3923
2026-01-11 10:15:47.79	156.39	24.74	-26.0	-26.7	16.9	0.00e+00	0	42	0	225443840	13	3927
2026-01-11 10:15:50.79	156.36	25.22	-26.0	-26.9	16.8	0.00e+00	0	42	0	234881024	13	3976
2026-01-11 10:15:53.79	156.33	25.70	-26.2	-27.2	16.6	0.00e+00	0	42	0	244318208	13	4056
2026-01-11 10:15:56.79	156.30	26.20	-26.3	-27.6	16.5	0.00e+00	0	42	0	253755392	13	4143
2026-01-11 10:15:59.78	156.27	26.70	-26.5	-28.0	16.2	0.00e+00	0	42	0	263192576	13	4257
2026-01-11 10:16:02.79	156.23	27.22	-26.7	-28.4	16.0	0.00e+00	0	42	0	272629760	13	4378
2026-01-11 10:16:05.81	156.20	27.75	-26.9	-28.9	15.8	0.00e+00	0	42	0	282066944	13	4488
2026-01-11 10:16:08.83	156.16	28.29	-26.9	-28.8	15.8	0.00e+00	0	42	0	291504128	13	4478
2026-01-11 10:16:11.83	156.12	28.84	-27.0	-28.6	15.7	0.00e+00	0	42	0	300941312	14	4298
2026-01-11 10:16:14.83	156.08	29.39	-27.0	-28.4	15.8	0.00e+00	0	42	0	310378496	14	4248
2026-01-11 10:16:17.85	156.04	29.96	-27.0	-28.6	15.7	0.00e+00	0	42	0	319815680	14	4298
2026-01-11 10:16:20.85	156.00	30.54	-27.0	-28.6	15.7	0.00e+00	0	42	0	329252864	14	4320
2026-01-11 10:16:23.86	155.95	31.14	-26.8	-28.2	16.0	0.00e+00	0	42	0	338690048	14	4190
2026-01-11 10:16:26.88	155.90	31.75	-27.0	-28.4	15.8	0.00e+00	0	42	0	348127232	14	4263
2026-01-11 10:16:29.88	155.85	32.36	-27.2	-28.9	15.6	0.00e+00	0	42	0	357564416	14	4382
2026-01-11 10:16:32.88	155.80	32.99	-27.5	-29.6	15.2	0.00e+00	0	42	0	367001600	14	4592
2026-01-11 10:16:35.87	155.74	33.63	-27.6	-29.5	15.1	0.00e+00	0	42	0	376438784	15	4436
2026-01-11 10:16:38.88	155.68	34.29	-27.6	-29.3	15.1	0.00e+00	0	42	0	385875968	15	4392
2026-01-11 10:16:41.89	155.62	34.96	-27.9	-30.0	14.7	7.00e-07	0	42	0	395313152	15	4606
2026-01-11 10:16:44.88	155.56	35.65	-28.4	-30.5	14.3	1.50e-06	0	42	0	404750336	16	4628
2026-01-11 10:16:47.89	155.49	36.35	-28.5	-30.9	14.1	1.50e-06	0	42	0	414187520	16	4750
2026-01-11 10:16:50.90	155.42	37.07	-28.8	-31.2	13.7	8.30e-06	0	42	0	422576128	17	4719
2026-01-11 10:16:53.91	155.35	37.80	-28.7	-30.8	13.9	2.20e-06	0	42	0	432013312	17	4612
2026-01-11 10:16:56.93	155.27	38.55	-28.6	-30.7	13.9	2.20e-06	0	42	0	442499072	17	4587
2026-01-11 10:16:59.94	155.19	39.32	-28.7	-30.8	13.9	4.50e-06	0	42	0	450887680	17	4586
2026-01-11 10:17:02.95	155.10	40.10	-28.8	-31.1	13.8	6.10e-06	0	42	0	460324864	17	4677
2026-01-11 10:17:05.96	155.01	40.91	-28.8	-31.2	13.7	5.30e-06	0	42	0	469762048	17	4714
2026-01-11 10:17:08.97	154.91	41.72	-28.9	-31.4	13.6	6.80e-06	0	42	0	479199232	17	4789
2026-01-11 10:17:11.98	154.81	42.56	-29.3	-31.8	13.1	3.81e-05	0	42	0	488636416	18	4785
2026-01-11 10:17:14.98	154.70	43.42	-29.1	-30.8	13.3	2.13e-05	0	42	0	498073600	19	4383
2026-01-11 10:17:17.98	154.59	44.29	-29.2	-30.9	13.3	1.52e-05	0	42	0	507510784	19	4408
2026-01-11 10:17:20.98	154.47	45.19	-29.4	-31.5	13.0	2.82e-05	0	42	0	516947968	19	4576
2026-01-11 10:17:23.98	154.34	46.10	-29.5	-31.8	12.8	5.87e-05	0	42	0	526385152	19	4685
2026-01-11 10:17:26.99	154.20	47.04	-29.1	-30.9	13.4	2.44e-05	0	42	0	535822336	19	4398
2026-01-11 10:17:29.99	154.05	47.99	-28.9	-30.3	13.7	1.22e-05	0	42	0	545259520	19	4220
2026-01-11 10:17:33.01	153.89	48.98	-28.8	-30.5	13.9	4.50e-06	0	42	0	554696704	18	4392
2026-01-11 10:17:36.00	153.73	49.97	-28.7	-30.3	14.0	2.20e-06	0	42	0	564133888	18	4340
2026-01-11 10:17:39.01	153.55	51.00	-28.9	-30.8	13.8	6.10e-06	0	42	0	573571072	18	4493
2026-01-11 10:17:42.00	153.35	52.04	-28.7	-30.3	14.1	3.80e-06	0	42	0	583008256	18	4324
2026-01-11 10:17:45.01	153.14	53.11	-27.8	-29.2	15.2	0.00e+00	0	42	0	592445440	16	4237
2026-01-11 10:17:48.03	152.91	54.20	-27.6	-28.9	15.4	0.00e+00	0	42	0	601882624	16	4150
2026-01-11 10:17:51.03	152.67	55.31	-27.0	-27.9	16.1	0.00e+00	0	42	0	611319808	15	4006
2026-01-11 10:17:54.03	152.40	56.45	-27.1	-28.2	16.0	0.00e+00	0	42	0	620756992	15	4078
2026-01-11 10:17:57.04	152.11	57.61	-26.9	-27.7	16.2	0.00e+00	0	42	0	630194176	15	3941
2026-01-11 10:18:00.05	151.80	58.79	-26.8	-28.0	16.3	0.00e+00	0	42	0	639631360	14	4137
2026-01-11 10:18:03.04	151.45	59.99	-26.1	-27.1	17.1	0.00e+00	0	42	0	649068544	13	3997
2026-01-11 10:18:06.05	151.07	61.22	-26.4	-27.5	16.8	0.00e+00	0	42	0	657457152	13	4126
2026-01-11 10:18:09.05	150.64	62.47	-26.4	-27.7	16.8	0.00e+00	0	42	0	666894336	13	4152
2026-01-11 10:18:12.04	150.17	63.73	-25.8	-26.3	17.4	0.00e+00	0	42	0	676331520	13	3811
2026-01-11 10:18:15.05	149.64	65.03	-25.6	-26.3	17.6	0.00e+00	0	42	0	685768704	12	3926
2026-01-11 10:18:18.06	149.05	66.34	-25.3	-25.8	17.9	0.00e+00	0	42	0	695205888	12	3806
2026-01-11 10:18:21.07	148.37	67.67	-25.5	-26.2	17.7	0.00e+00	0	42	0	704643072	12	3898
2026-01-11 10:18:24.08	147.60	69.02	-25.8	-26.8	17.4	0.00e+00	0	42	0	714080256	12	4051
2026-01-11 10:18:27.10	146.71	70.39	-26.0	-27.2	17.1	0.00e+00	0	42	0	723517440	12	4155
2026-01-11 10:18:30.11	145.68	71.77	-26.5	-27.8	16.5	0.00e+00	0	42	0	732954624	13	4206
2026-01-11 10:18:33.12	144.47	73.16	-26.3	-27.3	16.8	0.00e+00	0	42	0	742391808	13	4075
2026-01-11 10:18:36.14	143.02	74.56	-26.2	-27.2	16.9	0.00e+00	0	42	0	751828992	13	4034
2026-01-11 10:18:39.16	141.26	75.97	-26.4	-27.6	16.8	0.00e+00	0	42	0	761266176	13	4134
2026-01-11 10:18:42.18	139.09	77.37	-26.1	-27.0	17.0	0.00e+00	0	42	0	770703360	13	3991
2026-01-11 10:18:45.19	136.38	78.76	-26.0	-26.8	17.0	0.00e+00	0	42	0	780140544	13	3948
2026-01-11 10:18:48.21	132.87	80.14	-26.0	-26.8	17.2	0.00e+00	0	42	0	789577728	13	3950
2026-01-11 10:18:51.23	128.21	81.47	-25.7	-26.5	17.6	0.00e+00	0	42	0	799014912	12	3956
2026-01-11 10:18:54.25	121.87	82.74	-26.0	-27.2	17.2	0.00e+00	0	42	0	808452096	12	4141
2026-01-11 10:18:57.27	112.97	83.88	-27.2	-29.0	15.9	0.00e+00	0	42	0	817889280	14	4395
2026-01-11 10:19:00.29	100.41	84.82	-27.8	-29.7	15.3	2.20e-06	0	42	0	827326464	15	4493
2026-01-11 10:19:03.31	83.52	85.42	-27.9	-30.1	15.1	3.00e-06	0	42	0	836763648	15	4592
2026-01-11 10:19:06.32	63.89	85.53	-27.7	-28.9	15.7	0.00e+00	0	42	0	846200832	16	4137
2026-01-11 10:19:09.34	45.41	85.13	-28.2	-30.0	15.1	3.00e-06	0	42	0	855638016	16	4424
2026-01-11 10:19:12.36	31.00	84.32	-28.4	-30.6	14.7	0.00e+00	0	42	0	865075200	16	4615
2026-01-11 10:19:15.38	20.67	83.25	-28.7	-30.7	14.3	1.29e-05	0	42	0	874512384	17	4541
2026-01-11 10:19:18.40	13.36	82.03	-27.7	-29.0	15.6	0.00e+00	0	42	0	883949568	16	4170
2026-01-11 10:19:21.40	8.09	80.73	-26.9	-27.6	16.4	0.00e+00	0	42	0	893386752	15	3922
2026-01-11 10:19:24.42	4.14	79.37	-26.4	-27.1	16.9	0.00e+00	0	42	0	902823936	14	3909
2026-01-11 10:19:27.43	1.12	77.99	-26.7	-27.7	16.5	0.00e+00	0	42	0	912261120	14	4051
2026-01-11 10:19:30.45	358.73	76.59	-25.3	-26.2	18.1	0.00e+00	0	42	0	921698304	11	3992
2026-01-11 10:19:33.46	356.81	75.19	-26.1	-27.4	17.2	0.00e+00	0	42	0	931135488	12	4181
2026-01-11 10:19:36.47	355.24	73.79	-26.0	-27.2	17.3	0.00e+00	0	42	0	940572672	12	4137
2026-01-11 10:19:39.49	353.93	72.40	-27.1	-28.6	16.0	0.00e+00	0	42	0	950009856	14	4303
2026-01-11 10:19:42.51	352.82	71.01	-25.9	-26.6	17.4	0.00e+00	0	42	0	959447040	13	3873
2026-01-11 10:19:45.53	351.87	69.64	-26.6	-28.0	16.6	0.00e+00	0	42	0	968884224	13	4230
2026-01-11 10:19:48.56	351.05	68.28	-26.0	-26.8	17.1	0.00e+00	0	42	0	978321408	13	3926
2026-01-11 10:19:51.59	350.33	66.93	-25.4	-26.3	17.9	0.00e+00	0	42	0	987758592	11	4010
2026-01-11 10:19:54.60	349.70	65.61	-26.6	-28.1	16.5	0.00e+00	0	42	0	997195776	13	4264
2026-01-11 10:19:57.61	349.15	64.31	-25.9	-26.5	17.3	0.00e+00	0	42	0	1006632960	13	3854
2026-01-11 10:20:00.61	348.65	63.04	-27.6	-29.4	15.3	0.00e+00	0	42	0	1016070144	15	4409
2026-01-11 10:20:03.63	348.21	61.78	-28.1	-29.8	14.8	0.00e+00	0	42	0	1025507328	16	4402
2026-01-11 10:20:06.66	347.81	60.54	-27.5	-28.4	15.7	0.00e+00	0	42	0	1034944512	16	4025
2026-01-11 10:20:09.68	347.44	59.32	-28.3	-30.5	14.5	0.00e+00	0	42	0	1044381696	16	4604
2026-01-11 10:20:12.70	347.11	58.13	-28.0	-29.1	14.9	0.00e+00	0	42	0	1053818880	17	4114
2026-01-11 10:20:15.72	346.81	56.96	-26.3	-27.3	16.9	0.00e+00	0	42	0	1063256064	13	4064
2026-01-11 10:20:18.74	346.54	55.81	-28.1	-30.0	14.9	0.00e+00	0	42	0	1072693248	16	4443
2026-01-11 10:20:21.75	346.28	54.69	-28.6	-30.7	14.0	7.00e-07	0	42	0	1082130432	17	4543
2026-01-11 10:20:24.77	346.05	53.59	-28.1	-29.3	14.9	0.00e+00	0	42	0	1091567616	17	4149
2026-01-11 10:20:27.79	345.83	52.51	-28.6	-30.6	14.2	1.50e-06	0	42	0	1101004800	17	4513
2026-01-11 10:20:30.82	345.63	51.45	-29.7	-32.3	12.6	6.79e-05	0	42	0	1110441984	19	4830
2026-01-11 10:20:33.84	345.45	50.42	-29.7	-32.2	12.6	8.23e-05	0	42	0	1119879168	19	4811
2026-01-11 10:20:36.87	345.27	49.41	-29.6	-31.4	12.6	2.17e-04	0	42	0	1129316352	20	4467
2026-01-11 10:20:39.89	345.11	48.42	-28.9	-30.2	13.8	4.50e-06	0	42	0	1138753536	19	4197
2026-01-11 10:20:42.91	344.96	47.45	-29.5	-31.7	12.8	6.86e-05	0	42	0	1148190720	19	4640
2026-01-11 10:20:45.93	344.82	46.51	-29.5	-31.7	12.8	6.48e-05	0	42	0	1157627904	19	4663
2026-01-11 10:20:48.95	344.69	45.58	-29.4	-31.5	13.0	4.27e-05	0	42	0	1167065088	19	4582
2026-01-11 10:20:51.97	344.57	44.68	-29.4	-31.6	12.9	6.17e-05	0	42	0	1176502272	19	4622
2026-01-11 10:20:54.99	344.45	43.80	-29.1	-30.8	13.4	1.37e-05	0	42	0	1185939456	19	4391
2026-01-11 10:20:58.01	344.34	42.93	-29.0	-30.6	13.5	8.30e-06	0	42	0	1195376640	19	4303
2026-01-11 10:21:01.03	344.24	42.09	-29.4	-31.5	12.9	4.34e-05	0	42	0	1204813824	19	4608
2026-01-11 10:21:04.05	344.14	41.26	-29.5	-31.7	12.9	4.27e-05	0	42	0	1214251008	19	4651
2026-01-11 10:21:07.07	344.05	40.45	-28.9	-30.3	13.8	9.90e-06	0	42	0	1223688192	19	4217
2026-01-11 10:21:10.09	343.96	39.67	-29.1	-30.7	13.5	6.10e-06	0	42	0	1233125376	19	4350
2026-01-11 10:21:13.11	343.88	38.89	-29.4	-31.5	13.0	2.59e-05	0	42	0	1242562560	19	4603
2026-01-11 10:21:16.13	343.80	38.14	-29.0	-30.4	13.6	7.60e-06	0	42	0	1251999744	19	4253
2026-01-11 10:21:19.14	343.72	37.40	-28.2	-29.7	14.6	7.00e-07	0	42	0	1261436928	17	4262
2026-01-11 10:21:22.16	343.65	36.68	-28.2	-29.5	14.7	0.00e+00	0	42	0	1270874112	17	4219
2026-01-11 10:21:25.18	343.58	35.97	-28.8	-31.1	13.8	6.80e-06	0	42	0	1280311296	17	4699
2026-01-11 10:21:28.20	343.52	35.28	-28.8	-30.5	13.9	3.00e-06	0	42	0	1289748480	18	4399
2026-01-11 10:21:31.21	343.46	34.61	-28.1	-29.4	14.8	0.00e+00	0	42	0	1299185664	17	4176
2026-01-11 10:21:34.23	343.40	33.95	-28.1	-29.5	14.7	0.00e+00	0	42	0	1308622848	17	4200
2026-01-11 10:21:37.25	343.35	33.30	-28.1	-29.4	14.7	7.00e-07	0	42	0	1318060032	17	4179
2026-01-11 10:21:40.27	343.30	32.66	-27.9	-29.0	15.0	0.00e+00	0	42	0	1327497216	17	4078
2026-01-11 10:21:43.28	343.25	32.04	-28.4	-30.0	14.3	0.00e+00	0	42	0	1336934400	17	4362
2026-01-11 10:21:46.29	343.20	31.44	-27.6	-28.8	15.3	0.00e+00	0	42	0	1346371584	16	4130
2026-01-11 10:21:49.31	343.15	30.84	-27.7	-29.0	15.2	0.00e+00	0	42	0	1355808768	16	4178
2026-01-11 10:21:52.33	343.11	30.25	-27.8	-29.4	15.0	0.00e+00	0	42	0	1365245952	16	4298
2026-01-11 10:21:55.36	343.07	29.68	-27.9	-29.5	14.9	0.00e+00	0	42	0	1374683136	16	4346
2026-01-11 10:21:58.37	343.03	29.12	-27.9	-29.5	14.9	0.00e+00	0	42	0	1384120320	16	4322
2026-01-11 10:22:01.40	342.99	28.57	-27.8	-29.2	15.0	1.50e-06	0	42	0	1393557504	16	4258
2026-01-11 10:22:04.41	342.95	28.03	-27.7	-29.0	15.1	0.00e+00	0	42	0	1402994688	16	4193
2026-01-11 10:22:07.42	342.92	27.50	-27.6	-28.9	15.1	7.00e-07	0	42	0	1412431872	16	4165
2026-01-11 10:22:10.44	342.88	26.98	-27.4	-28.3	15.5	0.00e+00	0	42	0	1421869056	16	4005
2026-01-11 10:22:13.46	342.85	26.47	-26.8	-27.5	16.0	0.00e+00	0	42	0	1431306240	15	3925
2026-01-11 10:22:16.49	342.82	25.97	-26.6	-27.7	16.2	0.00e+00	0	42	0	1440743424	14	4066
2026-01-11 10:22:19.51	342.79	25.48	-26.5	-27.4	16.3	0.00e+00	0	42	0	1450180608	14	3999
2026-01-11 10:22:22.53	342.77	25.00	-26.2	-27.2	16.7	0.00e+00	0	42	0	1459617792	13	4050
2026-01-11 10:22:25.54	342.74	24.52	-26.3	-27.5	16.5	0.00e+00	0	42	0	1469054976	13	4111
2026-01-11 10:22:28.56	342.71	24.06	-26.5	-27.9	16.3	0.00e+00	0	42	0	1478492160	13	4232
2026-01-11 10:22:31.57	342.69	23.60	-26.6	-28.2	16.2	0.00e+00	0	42	0	1487929344	13	4302
2026-01-11 10:22:34.59	342.67	23.15	-26.7	-28.4	16.0	0.00e+00	0	42	0	1497366528	13	4362
2026-01-11 10:22:37.61	342.64	22.71	-26.8	-28.6	15.9	0.00e+00	0	42	0	1506803712	13	4427
2026-01-11 10:22:40.63	342.62	22.28	-27.0	-28.6	15.6	0.00e+00	0	42	0	1516240896	14	4304
2026-01-11 10:22:43.65	342.60	21.85	-27.0	-28.5	15.7	0.00e+00	0	42	0	1525678080	14	4273
2026-01-11 10:22:46.66	342.58	21.43	-26.7	-28.0	16.0	0.00e+00	0	42	0	1535115264	14	4143
2026-01-11 10:22:49.68	342.56	21.02	-26.7	-28.0	15.9	0.00e+00	0	42	0	1544552448	14	4146
2026-01-11 10:22:52.70	342.54	20.62	-26.7	-28.0	15.9	0.00e+00	0	42	0	1553989632	14	4147
2026-01-11 10:22:55.72	342.53	20.22	-26.9	-28.3	15.7	0.00e+00	0	42	0	1563426816	14	4226
2026-01-11 10:22:58.74	342.51	19.82	-26.9	-28.3	15.7	0.00e+00	0	42	0	1572864000	14	4239
2026-01-11 10:23:01.77	342.49	19.43	-26.9	-28.4	15.6	0.00e+00	0	42	0	1582301184	14	4260
2026-01-11 10:23:04.80	342.48	19.05	-27.1	-28.8	15.4	0.00e+00	0	42	0	1591738368	14	4369
2026-01-11 10:23:07.82	342.47	18.68	-27.4	-29.5	15.0	0.00e+00	0	42	0	1601175552	14	4583
2026-01-11 10:23:10.84	342.45	18.31	-27.4	-29.4	15.0	7.00e-07	0	42	0	1610612736	14	4552
2026-01-11 10:23:13.86	342.44	17.94	-27.7	-29.6	14.6	0.00e+00	0	42	0	1620049920	15	4487
2026-01-11 10:23:16.87	342.43	17.58	-27.3	-28.9	15.0	0.00e+00	0	42	0	1629487104	15	4285
2026-01-11 10:23:19.89	342.41	17.23	-27.3	-28.7	15.1	0.00e+00	0	42	0	1638924288	15	4231
2026-01-11 10:23:22.92	342.40	16.88	-27.4	-29.0	14.9	0.00e+00	0	42	0	1648361472	15	4333
2026-01-11 10:23:25.94	342.39	16.54	-27.6	-29.5	14.6	0.00e+00	0	42	0	1657798656	15	4484
2026-01-11 10:23:28.97	342.38	16.20	-27.7	-29.7	14.5	1.50e-06	0	42	0	1667235840	15	4537
2026-01-11 10:23:31.99	342.37	15.86	-27.7	-29.7	14.5	0.00e+00	0	42	0	1676673024	15	4517
2026-01-11 10:23:35.01	342.36	15.53	-27.6	-29.5	14.6	0.00e+00	0	42	0	1686110208	15	4473
2026-01-11 10:23:38.03	342.35	15.21	-27.3	-28.8	15.0	0.00e+00	0	42	0	1695547392	15	4265
2026-01-11 10:23:41.05	342.34	14.89	-27.4	-29.0	14.9	0.00e+00	0	42	0	1704984576	15	4334
2026-01-11 10:23:44.07	342.34	14.57	-27.5	-29.3	14.7	0.00e+00	0	42	0	1714421760	15	4405
2026-01-11 10:23:47.09	342.33	14.26	-27.6	-29.5	14.5	1.50e-06	0	42	0	1723858944	15	4470
2026-01-11 10:23:50.12	342.32	13.95	-27.5	-29.3	14.7	0.00e+00	0	42	0	1733296128	15	4407
2026-01-11 10:23:53.14	342.32	13.64	-27.6	-29.5	14.5	1.50e-06	0	42	0	1742733312	15	4471
2026-01-11 10:23:56.16	342.31	13.34	-27.4	-29.0	14.8	7.00e-07	0	42	0	1752170496	15	4322
2026-01-11 10:23:59.16	342.30	13.05	-27.6	-29.5	14.4	7.00e-07	0	42	0	1761607680	15	4482
2026-01-11 10:24:02.17	342.30	12.75	-27.5	-29.3	14.5	0.00e+00	0	42	0	1771044864	15	4420
2026-01-11 10:24:05.19	342.29	12.46	-27.6	-29.6	14.4	0.00e+00	0	42	0	1780482048	15	4508
2026-01-11 10:24:08.22	342.29	12.17	-27.9	-30.2	14.0	1.50e-06	0	42	0	1789919232	15	4681
2026-01-11 10:24:11.23	342.28	11.89	-27.4	-29.1	14.6	7.00e-07	0	42	0	1799356416	15	4367
2026-01-11 10:24:14.26	342.28	11.61	-27.5	-29.3	14.5	7.00e-07	0	42	0	1808793600	15	4420
2026-01-11 10:24:17.27	342.28	11.33	-27.5	-29.3	14.5	7.00e-07	0	42	0	1818230784	15	4418
2026-01-11 10:24:20.30	342.27	11.06	-27.7	-29.8	14.1	1.50e-06	0	42	0	1827667968	15	4581
2026-01-11 10:24:23.32	342.27	10.79	-27.7	-29.8	14.2	2.20e-06	0	42	0	1837105152	15	4568
2026-01-11 10:24:26.34	342.27	10.52	-27.8	-30.1	13.9	3.00e-06	0	42	0	1846542336	15	4674
2026-01-11 10:24:29.36	342.26	10.25	-28.2	-30.3	13.7	7.00e-07	0	42	0	1855979520	16	4626
2026-01-11 10:24:32.38	342.26	9.99	-28.2	-30.5	13.5	1.06e-05	0	42	0	1865416704	16	4675
2026-01-11 10:24:35.40	342.26	9.73	-28.3	-30.8	13.4	3.80e-06	0	42	0	1874853888	16	4766
2026-01-11 10:24:38.41	342.26	9.48	-28.3	-30.6	13.4	1.29e-05	0	42	0	1884291072	16	4722
2026-01-11 10:24:41.43	342.25	9.22	-28.2	-30.4	13.5	1.22e-05	0	42	0	1893728256	16	4657
2026-01-11 10:24:44.44	342.25	8.97	-28.4	-31.0	13.1	2.21e-05	0	42	0	1903165440	16	4843
2026-01-11 10:24:47.45	342.25	8.72	-28.9	-31.7	12.4	9.53e-05	0	42	0	1912602624	17	4960
2026-01-11 10:24:50.47	342.25	8.48	-28.8	-31.3	12.6	8.31e-05	0	42	0	1922039808	17	4854
2026-01-11 10:24:53.49	342.25	8.23	-28.8	-30.9	12.6	2.01e-04	0	42	0	1931476992	18	4598
2026-01-11 10:24:56.52	342.25	7.99	-28.9	-31.2	12.4	1.61e-04	0	42	0	1940914176	18	4697
2026-01-11 10:24:59.54	342.25	7.75	-28.9	-31.3	12.3	1.78e-04	0	42	0	1950351360	18	4737
2026-01-11 10:25:02.55	342.25	7.51	-29.0	-31.5	12.1	4.30e-04	0	42	0	1959788544	18	4788
2026-01-11 10:25:05.57	342.25	7.28	-29.4	-32.1	11.3	9.45e-04	0	42	0	1969225728	19	4926
2026-01-11 10:25:08.60	342.25	7.04	-32.9	-45.0	3.8	1.05e+00	0	42	104	1977614336	25	14502

#Closed at: 2026-01-11 10:25:10
#Recorded file [1977 MB]: D:/data/31010_260111_131435.dat