passes_logs/2026/01/11/R2M6_AANII_01/R2M6_AANII_01__20260111_132317_FENGYUN_3D_rec.log

#Pass ID: 20260111_132317_FENGYUN 3D
#Satellite: FENGYUN 3D
#Configuration: FENGYUN 3D
#almurnet v.1.7.20240730
#Start time: 2026-01-11 13:23:17

#Version: 2.2.20231116
#Station: R2M6_AANII_01
#Location: 30.233357 lon 59.946436 lat
#TLE: 1 43010U 17072A   26010.98637270  .00000005  00000+0  24269-4 0  9997
#TLE: 2 43010  98.9936 342.7405 0002213 115.1030 245.0375 14.19693961422685

#Time	Az	El	Level	Level2	SNR	BER	BlckErr	Temp	State	Recorded	gain1	gain2
2026-01-11 13:23:17.98	192.98	7.07	-27.9	-29.9	5.7	7.69e-01	0	40	0	0	16	4549
2026-01-11 13:23:20.98	193.17	7.28	-29.2	-32.3	10.5	2.96e-03	0	40	0	5242880	18	5122
2026-01-11 13:23:23.96	193.37	7.50	-27.7	-29.5	12.9	2.35e-04	0	40	0	22020096	16	4420
2026-01-11 13:23:26.95	193.56	7.72	-26.9	-28.2	13.8	9.10e-06	0	40	0	38797312	15	4153
2026-01-11 13:23:29.93	193.76	7.94	-27.0	-28.3	13.8	8.00e-06	0	40	0	55574528	15	4178
2026-01-11 13:23:32.93	193.97	8.16	-26.5	-27.6	14.5	5.70e-06	0	40	0	72351744	14	4101
2026-01-11 13:23:35.93	194.17	8.38	-26.4	-27.8	14.6	1.10e-06	0	40	0	89128960	13	4270
2026-01-11 13:23:38.92	194.38	8.61	-26.6	-28.3	14.4	1.10e-06	0	41	0	105906176	13	4402
2026-01-11 13:23:41.91	194.59	8.83	-26.3	-27.8	14.7	1.10e-06	0	41	0	122683392	13	4272
2026-01-11 13:23:44.91	194.81	9.06	-26.3	-27.8	14.7	0.00e+00	0	41	0	139460608	13	4258
2026-01-11 13:23:47.92	195.03	9.29	-26.5	-28.1	14.5	0.00e+00	0	41	0	156237824	13	4356
2026-01-11 13:23:50.90	195.25	9.53	-26.5	-28.1	14.5	0.00e+00	0	41	0	174063616	13	4344
2026-01-11 13:23:53.89	195.47	9.76	-26.3	-27.7	14.8	1.10e-06	0	41	0	190840832	13	4229
2026-01-11 13:23:56.89	195.70	10.00	-26.4	-28.0	14.6	3.40e-06	0	41	0	207618048	13	4311
2026-01-11 13:23:59.89	195.93	10.23	-26.1	-27.3	15.1	0.00e+00	0	41	0	224395264	13	4114
2026-01-11 13:24:02.87	196.17	10.47	-26.1	-27.2	15.1	0.00e+00	0	41	0	241172480	13	4099
2026-01-11 13:24:05.89	196.41	10.72	-26.0	-27.1	15.2	0.00e+00	0	41	0	257949696	13	4072
2026-01-11 13:24:08.89	196.65	10.96	-26.1	-27.2	15.2	0.00e+00	0	41	0	274726912	13	4087
2026-01-11 13:24:11.88	196.90	11.20	-25.9	-26.8	15.4	0.00e+00	0	41	0	291504128	13	3992
2026-01-11 13:24:14.88	197.15	11.45	-26.0	-26.9	15.3	0.00e+00	0	41	0	308281344	13	4027
2026-01-11 13:24:17.88	197.40	11.70	-26.0	-27.1	15.3	0.00e+00	0	42	0	325058560	13	4062
2026-01-11 13:24:20.87	197.66	11.95	-25.8	-27.0	15.6	8.00e-06	0	41	0	341835776	12	4155
2026-01-11 13:24:23.86	197.93	12.21	-25.8	-27.1	15.5	0.00e+00	0	41	0	358612992	12	4170
2026-01-11 13:24:26.85	198.19	12.46	-25.6	-26.7	15.8	0.00e+00	0	42	0	375390208	12	4066
2026-01-11 13:24:29.85	198.47	12.72	-25.4	-26.3	16.0	0.00e+00	0	42	0	392167424	12	3962
2026-01-11 13:24:32.85	198.74	12.98	-25.6	-26.6	15.9	1.48e-05	0	41	0	409993216	12	4037
2026-01-11 13:24:35.84	199.03	13.24	-25.6	-26.5	15.9	9.10e-06	0	42	0	426770432	12	4028
2026-01-11 13:24:38.84	199.31	13.51	-25.4	-26.3	16.1	0.00e+00	0	42	0	443547648	12	3959
2026-01-11 13:24:41.83	199.60	13.78	-25.5	-26.4	16.0	0.00e+00	0	42	0	460324864	12	3992
2026-01-11 13:24:44.81	199.90	14.04	-25.3	-26.4	16.3	5.70e-06	0	41	0	477102080	11	4106
2026-01-11 13:24:47.80	200.20	14.31	-25.2	-26.3	16.4	0.00e+00	0	42	0	493879296	11	4070
2026-01-11 13:24:50.78	200.51	14.59	-25.3	-26.5	16.3	4.50e-06	0	42	0	510656512	11	4127
2026-01-11 13:24:53.78	200.82	14.86	-25.3	-26.4	16.4	4.50e-06	0	42	0	527433728	11	4095
2026-01-11 13:24:56.77	201.14	15.14	-25.3	-26.5	16.4	2.20e-06	0	42	0	544210944	11	4115
2026-01-11 13:24:59.76	201.46	15.42	-25.1	-26.0	16.7	4.50e-06	0	42	0	560988160	11	3985
2026-01-11 13:25:02.75	201.79	15.71	-25.1	-26.0	16.6	1.10e-06	0	42	0	577765376	11	3998
2026-01-11 13:25:05.74	202.13	15.99	-24.9	-25.6	16.9	0.00e+00	0	42	0	594542592	11	3895
2026-01-11 13:25:08.73	202.47	16.28	-24.8	-25.4	17.0	9.10e-06	0	42	0	611319808	11	3842
2026-01-11 13:25:11.73	202.82	16.57	-24.6	-25.4	17.3	1.02e-05	0	42	0	628097024	10	3957
2026-01-11 13:25:14.72	203.17	16.86	-24.5	-25.2	17.4	4.50e-06	0	42	0	644874240	10	3899
2026-01-11 13:25:17.72	203.54	17.16	-24.7	-25.6	17.2	0.00e+00	0	42	0	661651456	10	4002
2026-01-11 13:25:20.71	203.91	17.46	-24.4	-25.1	17.5	0.00e+00	0	42	0	678428672	10	3867
2026-01-11 13:25:23.72	204.29	17.76	-24.7	-25.7	17.2	1.02e-05	0	42	0	695205888	10	4031
2026-01-11 13:25:26.70	204.67	18.06	-24.6	-25.5	17.3	0.00e+00	0	42	0	711983104	10	3973
2026-01-11 13:25:29.69	205.06	18.37	-24.4	-24.9	17.6	0.00e+00	0	42	0	729808896	10	3837
2026-01-11 13:25:32.68	205.46	18.67	-24.2	-25.1	17.8	0.00e+00	0	42	0	745537536	9	3977
2026-01-11 13:25:35.67	205.86	18.98	-24.0	-24.7	18.0	0.00e+00	0	42	0	762314752	9	3887
2026-01-11 13:25:38.67	206.28	19.30	-24.1	-24.8	17.9	0.00e+00	0	42	0	780140544	9	3918
2026-01-11 13:25:41.65	206.70	19.61	-24.0	-24.6	18.0	0.00e+00	0	42	0	796917760	9	3853
2026-01-11 13:25:44.64	207.13	19.93	-24.1	-24.9	17.8	0.00e+00	0	42	0	813694976	9	3945
2026-01-11 13:25:47.63	207.57	20.25	-24.0	-24.6	18.1	0.00e+00	0	42	0	830472192	9	3876
2026-01-11 13:25:50.61	208.02	20.57	-23.9	-24.5	18.1	0.00e+00	0	42	0	847249408	9	3832
2026-01-11 13:25:53.59	208.48	20.90	-24.1	-24.8	18.1	0.00e+00	0	42	0	864026624	9	3887
2026-01-11 13:25:56.58	208.95	21.23	-24.2	-25.0	18.0	0.00e+00	0	42	0	880803840	9	3937
2026-01-11 13:25:59.55	209.42	21.55	-24.0	-24.5	18.3	0.00e+00	0	42	0	897581056	9	3828
2026-01-11 13:26:02.54	209.91	21.89	-23.8	-24.6	18.5	0.00e+00	0	42	0	914358272	8	3958
2026-01-11 13:26:05.53	210.41	22.22	-23.7	-24.4	18.7	0.00e+00	0	42	0	931135488	8	3899
2026-01-11 13:26:08.52	210.92	22.56	-23.7	-24.4	18.6	0.00e+00	0	42	0	947912704	8	3917
2026-01-11 13:26:11.51	211.44	22.90	-23.7	-24.4	18.7	0.00e+00	0	42	0	964689920	8	3911
2026-01-11 13:26:14.49	211.96	23.24	-23.5	-24.0	18.8	0.00e+00	0	42	0	981467136	8	3822
2026-01-11 13:26:17.48	212.51	23.58	-23.8	-24.6	18.6	0.00e+00	0	42	0	998244352	8	3946
2026-01-11 13:26:20.46	213.06	23.92	-23.6	-24.1	18.8	0.00e+00	0	42	0	1015021568	8	3834
2026-01-11 13:26:23.45	213.62	24.27	-23.6	-24.2	18.8	0.00e+00	0	42	0	1031798784	8	3866
2026-01-11 13:26:26.45	214.20	24.62	-23.4	-23.8	19.1	0.00e+00	0	42	0	1048576000	8	3756
2026-01-11 13:26:29.44	214.80	24.97	-23.2	-23.9	19.2	0.00e+00	0	42	0	1065353216	7	3889
2026-01-11 13:26:32.46	215.41	25.32	-23.2	-23.9	19.2	0.00e+00	0	42	0	1082130432	7	3881
2026-01-11 13:26:35.45	216.02	25.68	-23.1	-23.8	19.3	0.00e+00	0	42	0	1098907648	7	3859
2026-01-11 13:26:38.44	216.65	26.03	-23.2	-24.0	19.2	0.00e+00	0	42	0	1115684864	7	3911
2026-01-11 13:26:41.42	217.30	26.39	-23.1	-23.6	19.4	0.00e+00	0	42	0	1132462080	7	3828
2026-01-11 13:26:44.42	217.96	26.74	-23.1	-23.6	19.4	0.00e+00	0	42	0	1149239296	7	3821
2026-01-11 13:26:47.42	218.63	27.10	-23.2	-23.9	19.2	0.00e+00	0	42	0	1166016512	7	3891
2026-01-11 13:26:50.40	219.32	27.46	-23.3	-24.0	19.2	0.00e+00	0	42	0	1182793728	7	3923
2026-01-11 13:26:53.38	220.02	27.81	-22.7	-23.4	19.8	0.00e+00	0	42	0	1199570944	6	3877
2026-01-11 13:26:56.36	220.74	28.17	-22.6	-23.2	19.9	0.00e+00	0	42	0	1216348160	6	3832
2026-01-11 13:26:59.36	221.48	28.53	-22.7	-23.4	19.8	0.00e+00	0	42	0	1233125376	6	3878
2026-01-11 13:27:02.35	222.23	28.88	-22.8	-23.5	19.7	0.00e+00	0	42	0	1250951168	6	3910
2026-01-11 13:27:05.34	223.00	29.24	-22.7	-23.3	19.8	0.00e+00	0	42	0	1267728384	6	3868
2026-01-11 13:27:08.33	223.78	29.59	-22.7	-23.3	19.8	0.00e+00	0	42	0	1284505600	6	3856
2026-01-11 13:27:11.31	224.58	29.94	-22.9	-23.8	19.6	0.00e+00	0	42	0	1301282816	6	3979
2026-01-11 13:27:14.30	225.40	30.29	-22.6	-23.2	19.9	0.00e+00	0	42	0	1318060032	6	3825
2026-01-11 13:27:17.28	226.23	30.64	-22.4	-22.6	20.2	0.00e+00	0	42	0	1334837248	6	3702
2026-01-11 13:27:20.27	227.09	30.99	-22.5	-22.9	20.1	0.00e+00	0	42	0	1351614464	6	3767
2026-01-11 13:27:23.25	227.96	31.33	-22.5	-22.8	20.2	0.00e+00	0	42	0	1368391680	6	3738
2026-01-11 13:27:26.25	228.85	31.67	-22.8	-23.6	19.7	0.00e+00	0	42	0	1385168896	6	3924
2026-01-11 13:27:29.23	229.76	32.01	-22.8	-23.5	19.8	0.00e+00	0	42	0	1401946112	6	3898
2026-01-11 13:27:32.22	230.68	32.34	-22.9	-23.7	19.7	0.00e+00	0	42	0	1418723328	6	3951
2026-01-11 13:27:35.22	231.63	32.67	-22.8	-23.4	19.8	0.00e+00	0	42	0	1435500544	6	3886
2026-01-11 13:27:38.21	232.60	32.99	-22.7	-23.3	19.9	0.00e+00	0	42	0	1452277760	6	3862
2026-01-11 13:27:41.20	233.58	33.31	-22.2	-22.8	20.4	0.00e+00	0	42	0	1469054976	5	3856
2026-01-11 13:27:44.19	234.58	33.62	-22.5	-23.3	20.2	0.00e+00	0	42	0	1485832192	5	3963
2026-01-11 13:27:47.18	235.60	33.92	-22.8	-24.0	19.8	0.00e+00	0	42	0	1502609408	5	4148
2026-01-11 13:27:50.17	236.64	34.22	-22.4	-23.1	20.3	0.00e+00	0	42	0	1519386624	5	3920
2026-01-11 13:27:53.15	237.70	34.51	-22.7	-23.7	20.0	0.00e+00	0	42	0	1536163840	5	4066
2026-01-11 13:27:56.16	238.78	34.79	-22.7	-23.4	19.9	0.00e+00	0	42	0	1552941056	6	3889
2026-01-11 13:27:59.15	239.88	35.06	-22.2	-22.8	20.4	0.00e+00	0	42	0	1569718272	5	3844
2026-01-11 13:28:02.14	240.99	35.32	-22.5	-23.3	20.1	0.00e+00	0	43	0	1586495488	5	3979
2026-01-11 13:28:05.14	242.13	35.58	-22.5	-23.5	20.1	0.00e+00	0	42	0	1603272704	5	4011
2026-01-11 13:28:08.11	243.27	35.82	-22.1	-22.6	20.5	0.00e+00	0	42	0	1620049920	5	3806
2026-01-11 13:28:11.09	244.42	36.05	-22.6	-23.7	20.0	0.00e+00	0	42	0	1636827136	5	4056
2026-01-11 13:28:14.08	245.60	36.27	-22.2	-22.8	20.5	0.00e+00	0	43	0	1653604352	5	3851
2026-01-11 13:28:17.07	246.80	36.47	-22.7	-23.9	19.9	0.00e+00	0	42	0	1670381568	5	4113
2026-01-11 13:28:20.05	248.00	36.67	-22.1	-22.5	20.6	0.00e+00	0	42	0	1687158784	5	3786
2026-01-11 13:28:23.04	249.23	36.85	-22.8	-24.0	19.8	0.00e+00	0	42	0	1703936000	5	4136
2026-01-11 13:28:26.04	250.47	37.02	-22.2	-22.8	20.5	0.00e+00	0	42	0	1721761792	5	3839
2026-01-11 13:28:29.03	251.71	37.17	-22.6	-23.6	20.0	0.00e+00	0	42	0	1738539008	5	4049
2026-01-11 13:28:32.03	252.98	37.31	-22.6	-23.6	20.0	0.00e+00	0	42	0	1754267648	5	4050
2026-01-11 13:28:35.02	254.25	37.43	-22.5	-23.3	20.2	0.00e+00	0	42	0	1772093440	5	3977
2026-01-11 13:28:38.00	255.52	37.54	-21.9	-22.0	20.8	0.00e+00	0	42	0	1788870656	5	3671
2026-01-11 13:28:40.99	256.80	37.64	-22.2	-22.7	20.5	0.00e+00	0	42	0	1805647872	5	3834
2026-01-11 13:28:43.99	258.10	37.71	-22.3	-22.9	20.4	0.00e+00	0	42	0	1822425088	5	3866
2026-01-11 13:28:46.98	259.40	37.78	-22.3	-23.0	20.3	0.00e+00	0	42	0	1839202304	5	3897
2026-01-11 13:28:49.97	260.70	37.82	-22.3	-23.0	20.4	0.00e+00	0	42	0	1855979520	5	3887
2026-01-11 13:28:52.96	262.00	37.85	-22.3	-23.0	20.4	0.00e+00	0	42	0	1872756736	5	3893
2026-01-11 13:28:55.95	263.31	37.86	-22.5	-23.5	20.1	0.00e+00	0	42	0	1889533952	5	4005
2026-01-11 13:28:58.94	264.62	37.86	-22.4	-23.2	20.3	0.00e+00	0	42	0	1906311168	5	3934
2026-01-11 13:29:01.91	265.91	37.84	-22.5	-23.4	20.2	0.00e+00	0	43	0	1923088384	5	3984
2026-01-11 13:29:04.90	267.22	37.81	-22.6	-23.6	20.1	0.00e+00	0	42	0	1939865600	5	4032
2026-01-11 13:29:07.88	268.51	37.75	-22.2	-22.7	20.5	0.00e+00	0	42	0	1956642816	5	3825
2026-01-11 13:29:10.87	269.81	37.69	-22.0	-22.4	20.6	0.00e+00	0	42	0	1973420032	5	3757
2026-01-11 13:29:13.86	271.09	37.60	-22.0	-22.3	20.7	0.00e+00	0	42	0	1990197248	5	3735
2026-01-11 13:29:16.85	272.38	37.50	-22.2	-22.8	20.5	0.00e+00	0	42	0	2006974464	5	3849
2026-01-11 13:29:19.84	273.65	37.39	-22.4	-23.2	20.3	0.00e+00	0	43	0	2023751680	5	3931
2026-01-11 13:29:22.83	274.91	37.26	-22.3	-23.0	20.3	0.00e+00	0	42	0	2040528896	5	3890
2026-01-11 13:29:25.82	276.17	37.11	-22.4	-23.2	20.2	0.00e+00	0	42	0	2057306112	5	3940
2026-01-11 13:29:28.81	277.41	36.95	-22.4	-23.1	20.3	0.00e+00	0	42	0	2074083328	5	3932
2026-01-11 13:29:31.79	278.63	36.78	-22.4	-23.2	20.2	0.00e+00	0	42	0	2090860544	5	3950
2026-01-11 13:29:34.78	279.85	36.60	-22.8	-24.0	19.8	0.00e+00	0	42	0	2107637760	5	4138
2026-01-11 13:29:37.78	281.05	36.40	-22.9	-23.6	19.8	0.00e+00	0	42	0	2124414976	6	3926
2026-01-11 13:29:40.77	282.24	36.19	-22.9	-23.7	19.7	0.00e+00	0	42	0	2141192192	6	3959
2026-01-11 13:29:43.75	283.41	35.96	-23.2	-24.4	19.4	0.00e+00	0	43	0	2157969408	6	4130
2026-01-11 13:29:46.74	284.56	35.73	-22.7	-23.2	20.0	0.00e+00	0	42	0	2174746624	6	3845
2026-01-11 13:29:49.72	285.70	35.49	-22.3	-22.4	20.4	0.00e+00	0	42	0	2191523840	6	3658
2026-01-11 13:29:52.70	286.81	35.23	-22.5	-22.9	20.2	0.00e+00	0	43	0	2208301056	6	3767
2026-01-11 13:29:55.69	287.92	34.97	-22.6	-23.1	20.0	0.00e+00	0	42	0	2225078272	6	3810
2026-01-11 13:29:58.69	289.00	34.69	-22.8	-23.6	19.8	0.00e+00	0	43	0	2242904064	6	3917
2026-01-11 13:30:01.68	290.07	34.41	-22.9	-23.8	19.7	0.00e+00	0	43	0	2259681280	6	3983
2026-01-11 13:30:04.67	291.12	34.12	-22.9	-23.7	19.7	0.00e+00	0	43	0	2276458496	6	3953
2026-01-11 13:30:07.67	292.15	33.82	-22.6	-23.2	20.0	0.00e+00	0	43	0	2293235712	6	3831
2026-01-11 13:30:10.66	293.17	33.51	-22.9	-23.7	19.7	0.00e+00	0	43	0	2310012928	6	3958
2026-01-11 13:30:13.67	294.17	33.20	-22.9	-23.6	19.8	0.00e+00	0	42	0	2326790144	6	3930
2026-01-11 13:30:16.65	295.14	32.88	-22.8	-23.6	19.8	0.00e+00	0	43	0	2343567360	6	3924
2026-01-11 13:30:19.64	296.09	32.56	-22.9	-23.8	19.7	0.00e+00	0	42	0	2360344576	6	3972
2026-01-11 13:30:22.63	297.03	32.23	-22.6	-23.2	20.0	0.00e+00	0	43	0	2377121792	6	3823
2026-01-11 13:30:25.61	297.94	31.90	-22.7	-23.3	19.9	0.00e+00	0	42	0	2393899008	6	3861
2026-01-11 13:30:28.59	298.84	31.57	-23.0	-23.9	19.6	0.00e+00	0	43	0	2410676224	6	4001
2026-01-11 13:30:31.57	299.72	31.23	-23.1	-24.2	19.5	0.00e+00	0	42	0	2427453440	6	4065
2026-01-11 13:30:34.57	300.58	30.89	-23.1	-24.1	19.5	0.00e+00	0	42	0	2444230656	6	4059
2026-01-11 13:30:37.56	301.43	30.54	-22.8	-23.6	19.8	0.00e+00	0	42	0	2461007872	6	3919
2026-01-11 13:30:40.56	302.26	30.19	-22.7	-23.3	19.9	0.00e+00	0	42	0	2477785088	6	3863
2026-01-11 13:30:43.55	303.07	29.84	-23.2	-24.2	19.5	0.00e+00	0	43	0	2494562304	6	4079
2026-01-11 13:30:46.54	303.86	29.49	-23.2	-24.3	19.4	0.00e+00	0	43	0	2511339520	6	4092
2026-01-11 13:30:49.54	304.64	29.14	-23.3	-24.6	19.2	0.00e+00	0	42	0	2528116736	6	4183
2026-01-11 13:30:52.54	305.40	28.78	-23.8	-25.1	18.7	0.00e+00	0	42	0	2544893952	7	4186
2026-01-11 13:30:55.53	306.15	28.43	-23.6	-24.7	18.9	0.00e+00	0	43	0	2562719744	7	4086
2026-01-11 13:30:58.54	306.88	28.07	-23.9	-25.4	18.5	0.00e+00	0	42	0	2579496960	7	4271
2026-01-11 13:31:01.53	307.59	27.72	-23.4	-23.7	19.2	0.00e+00	0	42	0	2596274176	8	3727
2026-01-11 13:31:04.51	308.28	27.36	-23.1	-23.7	19.4	0.00e+00	0	42	0	2613051392	7	3836
2026-01-11 13:31:07.51	308.97	27.01	-23.2	-23.9	19.3	0.00e+00	0	42	0	2629828608	7	3905
2026-01-11 13:31:10.49	309.63	26.65	-23.2	-23.9	19.3	0.00e+00	0	42	0	2646605824	7	3889
2026-01-11 13:31:13.50	310.29	26.30	-22.8	-23.5	19.7	0.00e+00	0	42	0	2663383040	6	3901
2026-01-11 13:31:16.48	310.92	25.95	-23.0	-23.8	19.6	0.00e+00	0	43	0	2680160256	6	3980
2026-01-11 13:31:19.47	311.55	25.60	-23.1	-24.2	19.4	0.00e+00	0	42	0	2696937472	6	4073
2026-01-11 13:31:22.45	312.15	25.25	-23.2	-24.4	19.2	0.00e+00	0	42	0	2713714688	6	4136
2026-01-11 13:31:25.43	312.75	24.90	-23.2	-24.2	19.3	0.00e+00	0	42	0	2730491904	6	4080
2026-01-11 13:31:28.42	313.34	24.55	-23.2	-24.3	19.3	0.00e+00	0	42	0	2747269120	6	4091
2026-01-11 13:31:31.42	313.91	24.21	-23.4	-24.9	19.0	0.00e+00	0	43	0	2764046336	6	4249
2026-01-11 13:31:34.41	314.47	23.86	-23.7	-24.8	18.8	0.00e+00	0	42	0	2780823552	7	4124
2026-01-11 13:31:37.40	315.02	23.52	-23.7	-24.9	18.7	0.00e+00	0	43	0	2797600768	7	4133
2026-01-11 13:31:40.39	315.56	23.18	-23.7	-24.8	18.8	0.00e+00	0	43	0	2814377984	7	4116
2026-01-11 13:31:43.36	316.08	22.84	-23.7	-25.0	18.7	0.00e+00	0	42	0	2831155200	7	4146
2026-01-11 13:31:46.35	316.59	22.51	-24.1	-25.2	18.3	0.00e+00	0	42	0	2847932416	8	4088
2026-01-11 13:31:49.33	317.10	22.17	-23.9	-24.8	18.5	0.00e+00	0	43	0	2864709632	8	3998
2026-01-11 13:31:52.32	317.59	21.84	-23.9	-24.8	18.5	0.00e+00	0	43	0	2881486848	8	4004
2026-01-11 13:31:55.32	318.08	21.51	-23.8	-24.6	18.6	0.00e+00	0	43	0	2898264064	8	3959
2026-01-11 13:31:58.31	318.55	21.19	-23.9	-24.9	18.5	0.00e+00	0	43	0	2915041280	8	4023
2026-01-11 13:32:01.30	319.01	20.86	-24.1	-25.3	18.2	0.00e+00	0	43	0	2931818496	8	4127
2026-01-11 13:32:04.29	319.47	20.54	-24.5	-25.6	17.8	0.00e+00	0	43	0	2948595712	9	4077
2026-01-11 13:32:07.28	319.91	20.22	-24.5	-25.7	17.8	0.00e+00	0	43	0	2965372928	9	4104
2026-01-11 13:32:10.27	320.35	19.90	-24.9	-26.4	17.4	0.00e+00	0	42	0	2982150144	9	4289
2026-01-11 13:32:13.28	320.78	19.58	-24.7	-26.0	17.6	0.00e+00	0	43	0	2999975936	9	4184
2026-01-11 13:32:16.28	321.20	19.27	-24.9	-26.4	17.4	0.00e+00	0	43	0	3016753152	9	4306
2026-01-11 13:32:19.28	321.62	18.96	-24.9	-26.5	17.3	0.00e+00	0	42	0	3033530368	9	4331
2026-01-11 13:32:22.27	322.02	18.65	-24.9	-26.5	17.3	0.00e+00	0	43	0	3050307584	9	4322
2026-01-11 13:32:25.27	322.42	18.35	-25.1	-26.4	17.1	0.00e+00	0	42	0	3067084800	10	4179
2026-01-11 13:32:28.27	322.81	18.04	-25.0	-26.1	17.2	0.00e+00	0	43	0	3083862016	10	4115
2026-01-11 13:32:31.25	323.19	17.74	-24.9	-26.1	17.2	0.00e+00	0	43	0	3100639232	10	4101
2026-01-11 13:32:34.26	323.56	17.45	-24.9	-26.0	17.3	0.00e+00	0	43	0	3117416448	10	4078
2026-01-11 13:32:37.25	323.93	17.15	-24.9	-26.0	17.3	0.00e+00	0	43	0	3134193664	10	4085
2026-01-11 13:32:40.24	324.29	16.86	-25.0	-26.1	17.2	0.00e+00	0	43	0	3150970880	10	4109
2026-01-11 13:32:43.23	324.64	16.57	-25.3	-26.9	16.8	0.00e+00	0	43	0	3167748096	10	4313
2026-01-11 13:32:46.23	324.99	16.28	-25.3	-26.8	16.8	0.00e+00	0	43	0	3184525312	10	4298
2026-01-11 13:32:49.23	325.33	15.99	-25.3	-26.8	16.8	0.00e+00	0	42	0	3201302528	10	4291
2026-01-11 13:32:52.21	325.66	15.71	-25.5	-26.9	16.5	0.00e+00	0	42	0	3218079744	11	4202
2026-01-11 13:32:55.22	325.99	15.43	-25.4	-26.6	16.6	0.00e+00	0	43	0	3235905536	11	4129
2026-01-11 13:32:58.21	326.32	15.15	-25.3	-26.4	16.7	0.00e+00	0	43	0	3251634176	11	4078
2026-01-11 13:33:01.20	326.63	14.88	-25.3	-26.3	16.7	0.00e+00	0	43	0	3269459968	11	4056
2026-01-11 13:33:04.19	326.94	14.60	-25.5	-26.7	16.5	0.00e+00	0	43	0	3286237184	11	4150
2026-01-11 13:33:07.17	327.25	14.33	-25.6	-27.0	16.3	0.00e+00	0	43	0	3303014400	11	4228
2026-01-11 13:33:10.16	327.55	14.06	-25.7	-27.2	16.2	0.00e+00	0	43	0	3319791616	11	4276
2026-01-11 13:33:13.15	327.85	13.80	-25.7	-27.3	16.1	0.00e+00	0	43	0	3336568832	11	4317
2026-01-11 13:33:16.13	328.14	13.54	-25.7	-27.2	16.2	0.00e+00	0	42	0	3353346048	11	4297
2026-01-11 13:33:19.14	328.42	13.27	-26.0	-27.8	15.8	0.00e+00	0	42	0	3370123264	11	4457
2026-01-11 13:33:22.12	328.70	13.01	-26.0	-27.4	15.7	0.00e+00	0	43	0	3386900480	12	4238
2026-01-11 13:33:25.11	328.98	12.76	-26.1	-27.6	15.6	0.00e+00	0	43	0	3403677696	12	4293
2026-01-11 13:33:28.09	329.25	12.50	-26.1	-27.7	15.5	0.00e+00	0	43	0	3420454912	12	4322
2026-01-11 13:33:31.09	329.52	12.25	-26.2	-27.9	15.3	0.00e+00	0	43	0	3437232128	12	4386
2026-01-11 13:33:34.09	329.78	12.00	-26.2	-27.9	15.4	0.00e+00	0	43	0	3454009344	12	4362
2026-01-11 13:33:37.07	330.04	11.75	-26.5	-28.1	14.9	0.00e+00	0	43	0	3470786560	13	4311
2026-01-11 13:33:40.07	330.30	11.50	-26.6	-28.2	14.9	0.00e+00	0	43	0	3487563776	13	4347
2026-01-11 13:33:43.06	330.55	11.25	-26.6	-28.2	14.8	0.00e+00	0	43	0	3504340992	13	4355
2026-01-11 13:33:46.06	330.79	11.01	-26.5	-27.5	15.0	0.00e+00	0	43	0	3521118208	14	4060
2026-01-11 13:33:49.04	331.04	10.77	-26.4	-27.7	15.1	1.10e-06	0	43	0	3537895424	13	4205
2026-01-11 13:33:52.02	331.27	10.53	-26.4	-27.8	15.0	0.00e+00	0	43	0	3554672640	13	4238
2026-01-11 13:33:55.02	331.51	10.29	-26.7	-28.5	14.6	1.10e-06	0	43	0	3571449856	13	4431
2026-01-11 13:33:58.02	331.74	10.06	-26.6	-28.3	14.7	0.00e+00	0	43	0	3589275648	13	4387
2026-01-11 13:34:00.99	331.97	9.83	-26.7	-28.5	14.6	2.20e-06	0	43	0	3605004288	13	4422
2026-01-11 13:34:03.98	332.20	9.59	-26.5	-28.1	14.8	0.00e+00	0	43	0	3621781504	13	4330
2026-01-11 13:34:06.98	332.42	9.36	-26.6	-28.2	14.7	0.00e+00	0	43	0	3639607296	13	4357
2026-01-11 13:34:09.97	332.64	9.14	-26.7	-28.5	14.5	2.20e-06	0	43	0	3655335936	13	4452
2026-01-11 13:34:12.95	332.85	8.91	-26.7	-28.6	14.5	2.20e-06	0	43	0	3672113152	13	4452
2026-01-11 13:34:15.94	333.06	8.69	-26.9	-29.0	14.2	2.20e-06	0	43	0	3689938944	13	4582
2026-01-11 13:34:18.93	333.27	8.46	-26.6	-28.4	14.6	2.20e-06	0	42	0	3706716160	13	4399
2026-01-11 13:34:21.92	333.48	8.24	-26.9	-28.9	14.2	0.00e+00	0	43	0	3723493376	13	4563
2026-01-11 13:34:24.90	333.68	8.02	-26.8	-28.7	14.3	0.00e+00	0	43	0	3740270592	13	4505
2026-01-11 13:34:27.89	333.88	7.81	-26.9	-28.5	14.1	1.10e-06	0	43	0	3757047808	14	4327
2026-01-11 13:34:30.87	334.08	7.59	-26.9	-28.5	14.1	2.20e-06	0	43	0	3773825024	14	4326
2026-01-11 13:34:33.86	334.28	7.37	-27.3	-29.4	13.6	1.37e-05	0	43	0	3790602240	14	4580
2026-01-11 13:34:36.85	334.47	7.16	-27.1	-29.1	13.7	6.80e-06	0	43	0	3807379456	14	4510
2026-01-11 13:34:39.84	334.66	6.95	-33.3	-44.6	3.8	8.45e-01	0	43	104	3815768064	26	13288

#Closed at: 2026-01-11 13:34:40
#Recorded file [3815 MB]: D:/data/31010_260111_162319.dat