passes_logs/2026/01/11/R2M6_AANII_01/R2M6_AANII_01__20260111_124227_AQUA_rec.log

#Pass ID: 20260111_124227_AQUA
#Satellite: AQUA
#Configuration: AQUA
#almurnet v.1.7.20240730
#Start time: 2026-01-11 12:42:28

#Version: 2.2.20231116
#Station: R2M6_AANII_01
#Location: 30.233357 lon 59.946436 lat
#TLE: 1 27424U 02022A   26009.89520876  .00001045  00000+0  21914-3 0  9996
#TLE: 2 27424  98.4076 336.2372 0002032  84.5955   1.0356 14.61811442260144

#Time	Az	El	Level	Level2	SNR	BER	BlckErr	Temp	State	Recorded	gain1	gain2
2026-01-11 12:42:28.35	182.80	7.08	-30.6	-35.9	5.2	7.09e-01	0	40	0	0	22	6619
2026-01-11 12:42:31.35	182.95	7.31	-31.2	-37.4	5.1	7.07e-01	0	40	104	0	23	7337
2026-01-11 12:42:34.36	183.11	7.56	-30.6	-34.3	16.3	6.08e-01	0	40	0	3670016	23	5556
2026-01-11 12:42:37.37	183.27	7.80	-30.5	-34.5	16.6	6.06e-01	0	40	0	9437184	22	5725
2026-01-11 12:42:40.37	183.43	8.05	-30.3	-33.9	17.0	6.06e-01	0	40	0	15204352	22	5433
2026-01-11 12:42:43.37	183.59	8.30	-30.4	-34.3	16.8	6.07e-01	0	40	0	20447232	22	5617
2026-01-11 12:42:46.38	183.76	8.55	-30.2	-33.4	17.4	6.09e-01	0	40	0	26214400	22	5243
2026-01-11 12:42:49.39	183.93	8.80	-30.0	-33.0	17.7	6.08e-01	0	40	0	31981568	22	5066
2026-01-11 12:42:52.40	184.10	9.06	-30.0	-32.9	17.8	6.07e-01	0	40	0	37748736	22	5051
2026-01-11 12:42:55.42	184.28	9.32	-29.8	-32.9	18.1	6.07e-01	0	40	0	42991616	21	5160
2026-01-11 12:42:58.44	184.46	9.59	-29.8	-33.0	18.1	6.07e-01	0	40	0	48758784	21	5163
2026-01-11 12:43:01.44	184.64	9.85	-29.8	-32.7	18.3	6.06e-01	0	40	0	54525952	21	5072
2026-01-11 12:43:04.46	184.83	10.12	-29.8	-32.7	18.3	6.08e-01	0	41	0	60293120	21	5047
2026-01-11 12:43:07.45	185.02	10.39	-29.6	-32.3	18.6	6.06e-01	0	41	0	65536000	21	4916
2026-01-11 12:43:10.46	185.21	10.67	-29.7	-32.5	18.5	6.04e-01	0	41	0	71303168	21	4967
2026-01-11 12:43:13.47	185.41	10.95	-29.7	-32.4	18.6	6.06e-01	0	40	0	77070336	21	4933
2026-01-11 12:43:16.48	185.61	11.23	-29.8	-32.7	18.4	6.07e-01	0	41	0	82837504	21	5032
2026-01-11 12:43:19.49	185.82	11.51	-29.6	-32.2	18.8	6.05e-01	0	41	0	88080384	21	4851
2026-01-11 12:43:22.50	186.03	11.80	-29.7	-32.4	18.6	6.07e-01	0	41	0	93847552	21	4930
2026-01-11 12:43:25.51	186.24	12.09	-29.5	-32.0	18.9	6.08e-01	0	41	0	99614720	21	4774
2026-01-11 12:43:28.51	186.46	12.39	-29.6	-32.3	18.7	6.05e-01	0	41	0	105381888	21	4896
2026-01-11 12:43:31.52	186.68	12.69	-29.6	-32.2	18.8	6.06e-01	0	41	0	111149056	21	4857
2026-01-11 12:43:34.53	186.91	12.99	-29.6	-32.1	18.9	6.05e-01	0	41	0	116391936	21	4819
2026-01-11 12:43:37.55	187.14	13.30	-29.5	-32.0	18.9	6.07e-01	0	41	0	122159104	21	4799
2026-01-11 12:43:40.56	187.38	13.61	-29.5	-32.4	19.1	6.06e-01	0	41	0	127926272	20	5024
2026-01-11 12:43:43.56	187.62	13.92	-29.4	-32.0	19.3	6.07e-01	0	41	0	133693440	20	4884
2026-01-11 12:43:46.57	187.87	14.24	-29.4	-32.1	19.3	6.05e-01	0	41	0	138936320	20	4923
2026-01-11 12:43:49.58	188.13	14.57	-29.4	-32.2	19.2	6.06e-01	0	41	0	144703488	20	4947
2026-01-11 12:43:52.58	188.38	14.89	-29.4	-32.0	19.4	6.09e-01	0	41	0	150470656	20	4872
2026-01-11 12:43:55.58	188.65	15.23	-29.3	-31.8	19.5	6.06e-01	0	41	0	156237824	20	4808
2026-01-11 12:43:58.60	188.92	15.56	-29.3	-31.7	19.6	6.05e-01	0	41	0	161480704	20	4777
2026-01-11 12:44:01.61	189.20	15.91	-29.3	-31.9	19.5	6.07e-01	0	41	0	167247872	20	4827
2026-01-11 12:44:04.59	189.48	16.25	-29.3	-31.9	19.5	6.08e-01	0	41	0	173015040	20	4842
2026-01-11 12:44:07.59	189.77	16.60	-29.2	-31.6	19.7	6.08e-01	0	41	0	178782208	20	4737
2026-01-11 12:44:10.60	190.07	16.95	-29.2	-31.7	19.7	6.06e-01	0	41	0	184025088	20	4759
2026-01-11 12:44:13.61	190.37	17.32	-29.2	-31.5	19.8	6.08e-01	0	41	0	189792256	20	4697
2026-01-11 12:44:16.63	190.69	17.68	-29.2	-31.5	19.8	6.05e-01	0	41	0	195559424	20	4695
2026-01-11 12:44:19.62	191.01	18.05	-29.2	-31.5	19.8	6.06e-01	0	41	0	201326592	20	4686
2026-01-11 12:44:22.63	191.34	18.43	-29.1	-31.2	20.0	6.06e-01	0	41	0	206569472	20	4595
2026-01-11 12:44:25.64	191.68	18.81	-29.2	-31.5	19.9	6.07e-01	0	41	0	212336640	20	4691
2026-01-11 12:44:28.64	192.02	19.20	-29.2	-31.5	19.8	6.05e-01	0	41	0	218103808	20	4700
2026-01-11 12:44:31.64	192.38	19.59	-29.7	-32.7	19.2	6.07e-01	0	41	0	223870976	20	5093
2026-01-11 12:44:34.66	192.74	19.99	-29.6	-32.6	19.2	6.04e-01	0	41	0	229113856	20	5079
2026-01-11 12:44:37.66	193.12	20.40	-29.6	-32.4	19.4	6.08e-01	0	42	0	234881024	20	5005
2026-01-11 12:44:40.67	193.50	20.81	-29.5	-32.2	19.5	6.08e-01	0	41	0	240648192	20	4929
2026-01-11 12:44:43.68	193.90	21.23	-29.3	-31.7	19.9	6.08e-01	0	41	0	246415360	20	4739
2026-01-11 12:44:46.69	194.30	21.65	-29.3	-31.8	19.8	6.03e-01	0	41	0	251658240	20	4788
2026-01-11 12:44:49.71	194.73	22.09	-29.5	-32.2	19.5	6.03e-01	0	41	0	257425408	20	4931
2026-01-11 12:44:52.72	195.16	22.53	-29.5	-32.2	19.5	6.06e-01	0	41	0	263192576	20	4908
2026-01-11 12:44:55.74	195.60	22.97	-29.5	-32.3	19.5	6.07e-01	0	42	0	268959744	20	4943
2026-01-11 12:44:58.75	196.06	23.42	-29.6	-32.4	19.5	6.07e-01	0	42	0	274726912	20	4984
2026-01-11 12:45:01.74	196.53	23.88	-29.3	-31.8	19.8	6.06e-01	0	41	0	279969792	20	4775
2026-01-11 12:45:04.73	197.01	24.34	-29.4	-32.1	19.7	6.06e-01	0	41	0	285736960	20	4879
2026-01-11 12:45:07.74	197.51	24.81	-29.5	-32.1	19.7	6.06e-01	0	42	0	291504128	20	4894
2026-01-11 12:45:10.73	198.02	25.29	-29.3	-31.8	19.9	6.06e-01	0	41	0	296747008	20	4767
2026-01-11 12:45:13.73	198.55	25.77	-29.3	-31.6	20.0	6.07e-01	0	41	0	302514176	20	4694
2026-01-11 12:45:16.73	199.10	26.27	-29.3	-31.8	19.9	6.07e-01	0	42	0	308281344	20	4772
2026-01-11 12:45:19.74	199.66	26.77	-29.1	-31.2	20.2	6.07e-01	0	42	0	314048512	20	4599
2026-01-11 12:45:22.76	200.25	27.28	-29.1	-31.2	20.3	6.07e-01	0	42	0	319291392	20	4582
2026-01-11 12:45:25.77	200.85	27.79	-29.0	-30.8	20.5	6.07e-01	0	41	0	325058560	20	4460
2026-01-11 12:45:28.78	201.47	28.31	-29.1	-31.2	20.3	6.08e-01	0	42	0	330825728	20	4558
2026-01-11 12:45:31.77	202.12	28.84	-29.2	-31.3	20.3	6.07e-01	0	42	0	336592896	20	4614
2026-01-11 12:45:34.78	202.78	29.38	-29.2	-31.3	20.3	6.06e-01	0	42	0	341835776	20	4597
2026-01-11 12:45:37.79	203.47	29.92	-29.1	-31.1	20.4	6.06e-01	0	42	0	347602944	20	4547
2026-01-11 12:45:40.79	204.18	30.47	-29.3	-31.7	20.1	6.07e-01	0	41	0	353370112	20	4717
2026-01-11 12:45:43.77	204.91	31.02	-29.1	-31.1	20.5	6.05e-01	0	42	0	359137280	20	4524
2026-01-11 12:45:46.76	205.67	31.58	-29.2	-31.4	20.3	6.08e-01	0	42	0	364380160	20	4625
2026-01-11 12:45:49.74	206.46	32.14	-29.3	-31.5	20.2	6.07e-01	0	42	0	370147328	20	4652
2026-01-11 12:45:52.73	207.27	32.71	-29.4	-31.8	20.1	6.05e-01	0	41	0	375914496	20	4754
2026-01-11 12:45:55.72	208.12	33.29	-29.6	-32.4	19.7	6.08e-01	0	41	0	381157376	20	4950
2026-01-11 12:45:58.70	208.99	33.86	-29.7	-32.7	19.6	6.07e-01	0	41	0	386924544	20	5046
2026-01-11 12:46:01.69	209.90	34.45	-29.8	-33.0	19.4	6.05e-01	0	41	0	392691712	20	5158
2026-01-11 12:46:04.67	210.84	35.04	-30.0	-33.4	19.2	6.08e-01	0	42	0	397934592	20	5304
2026-01-11 12:46:07.64	211.81	35.62	-29.8	-32.9	19.5	6.06e-01	0	41	0	403701760	20	5124
2026-01-11 12:46:10.62	212.82	36.22	-30.0	-33.3	19.2	6.08e-01	0	42	0	409468928	20	5261
2026-01-11 12:46:13.60	213.86	36.81	-30.1	-33.5	19.1	6.07e-01	0	42	0	414711808	20	5370
2026-01-11 12:46:16.58	214.95	37.40	-29.9	-32.6	19.3	6.07e-01	0	42	0	420478976	21	4920
2026-01-11 12:46:19.57	216.08	38.00	-29.9	-32.7	19.3	6.05e-01	0	42	0	426246144	21	4946
2026-01-11 12:46:22.55	217.25	38.59	-29.9	-32.5	19.4	6.06e-01	0	42	0	431489024	21	4886
2026-01-11 12:46:25.53	218.46	39.18	-29.7	-32.1	19.7	6.07e-01	0	42	0	437256192	21	4712
2026-01-11 12:46:28.52	219.72	39.77	-29.8	-32.4	19.6	6.08e-01	0	42	0	443023360	21	4817
2026-01-11 12:46:31.50	221.02	40.35	-29.7	-31.9	19.8	6.08e-01	0	42	0	448266240	21	4671
2026-01-11 12:46:34.50	222.38	40.93	-29.8	-32.3	19.6	6.07e-01	0	42	0	454033408	21	4809
2026-01-11 12:46:37.51	223.80	41.50	-29.4	-31.8	20.3	6.06e-01	0	42	0	459800576	20	4744
2026-01-11 12:46:40.51	225.26	42.06	-29.0	-30.7	20.9	6.06e-01	0	42	0	465567744	20	4384
2026-01-11 12:46:43.50	226.76	42.61	-29.1	-31.0	20.7	6.05e-01	0	42	0	470810624	20	4467
2026-01-11 12:46:46.51	228.33	43.14	-29.0	-30.7	20.9	6.06e-01	0	42	0	476577792	20	4381
2026-01-11 12:46:49.51	229.95	43.66	-28.9	-31.1	21.0	6.08e-01	0	42	0	482344960	19	4609
2026-01-11 12:46:52.51	231.62	44.16	-28.9	-30.9	21.1	6.07e-01	0	42	0	487587840	19	4549
2026-01-11 12:46:55.52	233.34	44.64	-28.7	-30.6	21.3	6.08e-01	0	42	0	493355008	19	4444
2026-01-11 12:46:58.53	235.12	45.09	-28.8	-30.7	21.2	6.09e-01	0	42	0	499122176	19	4483
2026-01-11 12:47:01.53	236.94	45.52	-29.1	-31.4	20.8	6.06e-01	0	42	0	504889344	19	4688
2026-01-11 12:47:04.53	238.81	45.93	-29.2	-31.7	20.7	6.06e-01	0	42	0	510132224	19	4803
2026-01-11 12:47:07.53	240.73	46.30	-29.5	-32.3	20.4	6.07e-01	0	42	0	515899392	19	5013
2026-01-11 12:47:10.55	242.70	46.64	-29.3	-32.0	20.5	6.06e-01	0	42	0	521666560	19	4896
2026-01-11 12:47:13.55	244.70	46.95	-29.3	-31.8	20.6	6.07e-01	0	42	0	527433728	19	4836
2026-01-11 12:47:16.55	246.74	47.22	-29.4	-32.2	20.4	6.06e-01	0	42	0	532676608	19	4959
2026-01-11 12:47:19.56	248.82	47.45	-29.6	-32.1	20.1	6.06e-01	0	42	0	538443776	20	4827
2026-01-11 12:47:22.56	250.93	47.65	-29.7	-32.4	20.0	6.07e-01	0	42	0	544210944	20	4932
2026-01-11 12:47:25.57	253.06	47.80	-29.7	-32.5	19.9	6.06e-01	0	42	0	549978112	20	4961
2026-01-11 12:47:28.58	255.21	47.92	-29.9	-33.0	19.6	6.04e-01	0	42	0	555220992	20	5133
2026-01-11 12:47:31.59	257.37	47.99	-29.7	-32.6	19.9	6.04e-01	0	42	0	560988160	20	4978
2026-01-11 12:47:34.59	259.54	48.01	-29.6	-32.3	20.0	6.03e-01	0	42	0	566755328	20	4893
2026-01-11 12:47:37.57	261.69	48.00	-29.5	-31.9	20.3	6.07e-01	0	42	0	572522496	20	4756
2026-01-11 12:47:40.56	263.84	47.94	-30.0	-33.1	19.5	6.07e-01	0	42	0	577765376	20	5186
2026-01-11 12:47:43.56	265.98	47.84	-29.8	-32.8	19.7	6.06e-01	0	42	0	583532544	20	5061
2026-01-11 12:47:46.54	268.10	47.70	-30.1	-32.9	19.4	6.06e-01	0	42	0	589299712	21	4991
2026-01-11 12:47:49.54	270.21	47.52	-29.9	-32.3	19.8	6.08e-01	0	42	0	594542592	21	4775
2026-01-11 12:47:52.55	272.29	47.29	-30.2	-33.2	19.2	6.06e-01	0	42	0	600309760	21	5086
2026-01-11 12:47:55.55	274.34	47.03	-30.1	-32.8	19.4	6.04e-01	0	42	0	606076928	21	4963
2026-01-11 12:47:58.56	276.36	46.74	-30.3	-33.1	18.9	6.07e-01	0	42	0	611844096	22	4943
2026-01-11 12:48:01.57	278.34	46.40	-30.5	-33.5	18.7	6.08e-01	0	42	0	617086976	22	5091
2026-01-11 12:48:04.57	280.26	46.04	-29.8	-32.3	19.8	6.08e-01	0	42	0	622854144	21	4771
2026-01-11 12:48:07.56	282.14	45.65	-29.7	-32.0	19.9	6.07e-01	0	42	0	628621312	21	4689
2026-01-11 12:48:10.56	283.97	45.23	-29.8	-32.3	19.8	6.06e-01	0	42	0	634388480	21	4777
2026-01-11 12:48:13.55	285.75	44.78	-30.0	-32.7	19.6	6.07e-01	0	42	0	639631360	21	4915
2026-01-11 12:48:16.56	287.48	44.31	-30.1	-33.1	19.3	6.07e-01	0	42	0	645398528	21	5043
2026-01-11 12:48:19.57	289.17	43.82	-30.0	-32.6	19.5	6.02e-01	0	42	0	651165696	21	4880
2026-01-11 12:48:22.58	290.80	43.31	-29.9	-32.5	19.7	6.06e-01	0	42	0	656408576	21	4834
2026-01-11 12:48:25.58	292.38	42.78	-30.4	-33.7	19.0	6.08e-01	0	42	0	662175744	21	5269
2026-01-11 12:48:28.56	293.89	42.25	-30.0	-32.7	19.5	6.07e-01	0	42	0	667942912	21	4925
2026-01-11 12:48:31.56	295.36	41.69	-30.3	-33.6	19.0	6.07e-01	0	42	0	673710080	21	5232
2026-01-11 12:48:34.56	296.78	41.13	-30.4	-33.7	18.9	6.08e-01	0	42	0	678952960	21	5276
2026-01-11 12:48:37.57	298.16	40.55	-30.4	-33.7	18.9	6.06e-01	0	42	0	684720128	21	5284
2026-01-11 12:48:40.58	299.49	39.97	-30.4	-33.8	18.9	6.07e-01	0	42	0	690487296	21	5306
2026-01-11 12:48:43.58	300.76	39.39	-30.3	-33.6	19.0	6.05e-01	0	42	0	696254464	21	5229
2026-01-11 12:48:46.61	302.00	38.79	-30.0	-32.6	19.6	6.05e-01	0	42	0	701497344	21	4869
2026-01-11 12:48:49.60	303.19	38.20	-30.2	-33.4	19.1	6.06e-01	0	42	0	707264512	21	5154
2026-01-11 12:48:52.61	304.33	37.60	-30.1	-33.0	19.3	6.08e-01	0	42	0	713031680	21	5032
2026-01-11 12:48:55.62	305.44	37.01	-30.4	-33.7	18.9	6.07e-01	0	42	0	718798848	21	5281
2026-01-11 12:48:58.64	306.50	36.41	-29.7	-32.0	19.9	6.06e-01	0	42	0	724041728	21	4675
2026-01-11 12:49:01.65	307.53	35.81	-29.7	-31.9	20.0	6.05e-01	0	42	0	729808896	21	4649
2026-01-11 12:49:04.67	308.52	35.22	-29.7	-32.0	19.9	6.06e-01	0	42	0	735576064	21	4670
2026-01-11 12:49:07.69	309.48	34.62	-29.5	-31.6	20.1	6.06e-01	0	42	0	741343232	21	4544
2026-01-11 12:49:10.70	310.40	34.04	-29.4	-31.2	20.3	6.07e-01	0	42	0	747110400	21	4437
2026-01-11 12:49:13.71	311.28	33.46	-29.5	-32.1	20.0	6.08e-01	0	42	0	752353280	20	4838
2026-01-11 12:49:16.73	312.14	32.88	-28.9	-30.9	21.1	6.05e-01	0	42	0	758120448	19	4538
2026-01-11 12:49:19.74	312.96	32.30	-29.0	-31.3	20.9	6.07e-01	0	42	0	763887616	19	4679
2026-01-11 12:49:22.75	313.76	31.74	-29.1	-31.4	20.8	6.05e-01	0	42	0	769654784	19	4710
2026-01-11 12:49:25.76	314.53	31.18	-29.2	-31.7	20.6	6.05e-01	0	42	0	774897664	19	4819
2026-01-11 12:49:28.79	315.27	30.62	-28.8	-30.7	21.2	6.06e-01	0	42	0	780664832	19	4491
2026-01-11 12:49:31.80	315.99	30.07	-29.1	-31.5	20.8	6.05e-01	0	42	0	786432000	19	4729
2026-01-11 12:49:34.82	316.68	29.53	-29.0	-31.3	20.8	6.06e-01	0	42	0	792199168	19	4666
2026-01-11 12:49:37.82	317.35	29.00	-28.9	-31.1	20.9	6.05e-01	0	42	0	797966336	19	4609
2026-01-11 12:49:40.82	317.99	28.47	-29.3	-31.9	20.5	6.06e-01	0	42	0	803209216	19	4863
2026-01-11 12:49:43.82	318.62	27.95	-29.6	-32.7	20.0	6.07e-01	0	42	0	808976384	19	5165
2026-01-11 12:49:46.85	319.23	27.44	-29.5	-32.0	20.0	6.06e-01	0	42	0	814743552	20	4805
2026-01-11 12:49:49.86	319.81	26.93	-29.4	-31.9	20.1	6.09e-01	0	42	0	820510720	20	4762
2026-01-11 12:49:52.87	320.38	26.43	-29.3	-31.5	20.3	6.02e-01	0	42	0	825753600	20	4652
2026-01-11 12:49:55.88	320.93	25.94	-29.4	-31.8	20.1	6.00e-01	0	42	0	831520768	20	4739
2026-01-11 12:49:58.88	321.46	25.46	-29.5	-32.0	20.0	6.02e-01	0	42	0	837287936	20	4802
2026-01-11 12:50:01.90	321.98	24.98	-29.6	-32.3	19.9	6.02e-01	0	42	0	843055104	20	4891
2026-01-11 12:50:04.91	322.48	24.51	-29.8	-32.8	19.6	6.05e-01	0	42	0	848297984	20	5077
2026-01-11 12:50:07.92	322.97	24.04	-29.7	-32.5	19.7	6.02e-01	0	42	0	854065152	20	4975
2026-01-11 12:50:10.93	323.44	23.59	-29.6	-32.4	19.7	6.03e-01	0	42	0	859832320	20	4969
2026-01-11 12:50:13.94	323.90	23.14	-29.7	-32.7	19.5	6.03e-01	0	42	0	865599488	20	5049
2026-01-11 12:50:16.96	324.35	22.69	-29.7	-32.5	19.6	6.01e-01	0	42	0	871366656	20	4978
2026-01-11 12:50:19.97	324.78	22.26	-29.6	-32.2	19.8	6.02e-01	0	42	0	876609536	20	4891
2026-01-11 12:50:22.99	325.20	21.82	-29.9	-33.1	19.3	6.00e-01	0	42	0	882376704	20	5199
2026-01-11 12:50:26.00	325.61	21.40	-29.6	-32.4	19.7	6.03e-01	0	42	0	888143872	20	4953
2026-01-11 12:50:29.02	326.01	20.98	-29.5	-32.2	19.8	6.01e-01	0	42	0	893911040	20	4876
2026-01-11 12:50:32.03	326.40	20.57	-29.5	-32.2	19.8	6.03e-01	0	42	0	899153920	20	4871
2026-01-11 12:50:35.05	326.78	20.17	-29.4	-31.9	19.9	6.01e-01	0	42	0	904921088	20	4794
2026-01-11 12:50:38.06	327.14	19.77	-29.3	-31.7	20.0	6.04e-01	0	42	0	910688256	20	4722
2026-01-11 12:50:41.08	327.50	19.37	-29.3	-31.6	20.0	6.00e-01	0	42	0	916455424	20	4699
2026-01-11 12:50:44.09	327.85	18.99	-29.3	-31.6	20.0	6.00e-01	0	42	0	921698304	20	4703
2026-01-11 12:50:47.11	328.19	18.60	-29.4	-31.8	19.9	6.03e-01	0	42	0	927465472	20	4766
2026-01-11 12:50:50.12	328.52	18.23	-29.3	-31.7	20.0	6.02e-01	0	42	0	933232640	20	4716
2026-01-11 12:50:53.13	328.85	17.86	-29.3	-31.6	20.1	6.02e-01	0	42	0	938999808	20	4697
2026-01-11 12:50:56.14	329.16	17.49	-29.3	-31.7	20.0	6.00e-01	0	42	0	944766976	20	4717
2026-01-11 12:50:59.15	329.47	17.13	-29.3	-31.5	20.1	6.03e-01	0	42	0	950009856	20	4669
2026-01-11 12:51:02.17	329.77	16.78	-29.2	-31.5	20.1	6.01e-01	0	42	0	955777024	20	4673
2026-01-11 12:51:05.18	330.06	16.43	-29.3	-31.5	20.0	6.01e-01	0	42	0	961544192	20	4679
2026-01-11 12:51:08.20	330.35	16.08	-29.3	-31.7	19.9	6.03e-01	0	42	0	967311360	20	4728
2026-01-11 12:51:11.22	330.63	15.74	-29.3	-31.7	19.9	6.02e-01	0	42	0	973078528	20	4722
2026-01-11 12:51:14.23	330.90	15.40	-29.4	-31.9	19.7	6.01e-01	0	42	0	978321408	20	4805
2026-01-11 12:51:17.24	331.17	15.07	-29.3	-31.8	19.7	6.05e-01	0	42	0	984088576	20	4779
2026-01-11 12:51:20.26	331.43	14.74	-29.3	-31.7	19.7	6.02e-01	0	42	0	989855744	20	4751
2026-01-11 12:51:23.28	331.69	14.42	-29.4	-32.0	19.6	6.03e-01	0	42	0	995622912	20	4856
2026-01-11 12:51:26.28	331.94	14.10	-29.6	-32.4	19.4	5.99e-01	0	42	0	1000865792	20	4995
2026-01-11 12:51:29.29	332.18	13.79	-29.5	-32.4	19.4	6.01e-01	0	42	0	1006632960	20	4974
2026-01-11 12:51:32.31	332.42	13.48	-29.5	-32.2	19.4	6.01e-01	0	42	0	1012400128	20	4924
2026-01-11 12:51:35.33	332.66	13.17	-29.4	-32.1	19.5	6.05e-01	0	42	0	1018167296	20	4878
2026-01-11 12:51:38.35	332.89	12.87	-29.4	-32.0	19.5	6.02e-01	0	42	0	1023934464	20	4869
2026-01-11 12:51:41.37	333.11	12.57	-29.5	-32.2	19.4	6.02e-01	0	42	0	1029177344	20	4941
2026-01-11 12:51:44.38	333.33	12.27	-29.7	-32.7	19.1	6.02e-01	0	42	0	1034944512	20	5094
2026-01-11 12:51:47.40	333.55	11.98	-29.7	-32.9	18.9	6.01e-01	0	42	0	1040711680	20	5163
2026-01-11 12:51:50.41	333.76	11.69	-29.8	-33.1	18.8	6.03e-01	0	42	0	1046478848	20	5268
2026-01-11 12:51:53.42	333.97	11.41	-29.6	-32.6	19.2	6.02e-01	0	42	0	1052246016	20	5060
2026-01-11 12:51:56.44	334.17	11.13	-29.7	-32.7	19.0	6.04e-01	0	42	0	1057488896	20	5119
2026-01-11 12:51:59.45	334.37	10.85	-29.8	-33.2	18.7	6.00e-01	0	42	0	1063256064	20	5289
2026-01-11 12:52:02.46	334.57	10.58	-29.8	-33.1	18.7	5.97e-01	0	42	0	1069023232	20	5270
2026-01-11 12:52:05.49	334.76	10.30	-29.8	-33.0	18.7	6.01e-01	0	42	0	1074790400	20	5246
2026-01-11 12:52:08.50	334.95	10.04	-29.9	-33.5	18.3	6.02e-01	0	42	0	1080033280	20	5456
2026-01-11 12:52:11.51	335.14	9.77	-30.1	-33.5	18.0	6.01e-01	0	42	0	1085800448	21	5330
2026-01-11 12:52:14.53	335.32	9.51	-30.0	-33.2	18.2	6.01e-01	0	42	0	1091567616	21	5224
2026-01-11 12:52:17.54	335.50	9.25	-30.1	-33.7	17.9	6.02e-01	0	42	0	1097334784	21	5395
2026-01-11 12:52:20.56	335.68	8.99	-29.9	-33.1	18.3	6.02e-01	0	42	0	1103101952	21	5172
2026-01-11 12:52:23.58	335.85	8.74	-30.1	-33.7	17.9	6.02e-01	0	42	0	1108344832	21	5405
2026-01-11 12:52:26.59	336.02	8.48	-30.1	-33.5	17.9	6.02e-01	0	42	0	1114112000	21	5361
2026-01-11 12:52:29.61	336.19	8.24	-29.9	-33.0	18.2	6.01e-01	0	42	0	1119879168	21	5170
2026-01-11 12:52:32.62	336.35	7.99	-30.1	-33.6	17.9	6.00e-01	0	42	0	1125646336	21	5374
2026-01-11 12:52:35.64	336.51	7.74	-30.2	-33.9	17.5	6.00e-01	0	42	0	1130889216	21	5540
2026-01-11 12:52:38.64	336.67	7.50	-30.3	-34.4	17.2	6.01e-01	0	42	0	1136656384	21	5737
2026-01-11 12:52:41.66	336.83	7.26	-30.1	-33.8	17.6	6.03e-01	0	42	0	1142423552	21	5474
2026-01-11 12:52:44.66	336.98	7.03	-33.4	-52.0	3.7	7.46e-01	0	42	104	1147666432	27	30893
2026-01-11 12:52:47.68	337.13	6.79	-33.9	-53.3	3.8	7.47e-01	0	42	104	1147666432	28	33502

#Closed at: 2026-01-11 12:52:47
#Recorded file [1147 MB]: D:/data/31010_260111_154232.dat