passes_logs/2026/01/11/R2M6_AANII_01/R2M6_AANII_01__20260111_074558_NOAA_20_JPSS-1_rec.log

#Pass ID: 20260111_074558_NOAA 20 (JPSS-1)
#Satellite: NOAA 20 (JPSS-1)
#Configuration: NOAA 20
#almurnet v.1.7.20240730
#Start time: 2026-01-11 07:45:58

#Version: 2.2.20231116
#Station: R2M6_AANII_01
#Location: 30.233357 lon 59.946436 lat
#TLE: 1 43013U 17073A   26009.69119415  .00000109  00000+0  72598-4 0  9996
#TLE: 2 43013  98.7631 310.6868 0001678  46.7442 313.3874 14.19534878421981

#Time	Az	El	Level	Level2	SNR	BER	BlckErr	Temp	State	Recorded	gain1	gain2
2026-01-11 07:45:58.31	80.61	7.01	-32.1	-40.1	4.4	1.37e+00	0	39	0	0	25	9071
2026-01-11 07:46:00.32	80.37	7.11	-31.9	-38.9	6.1	2.94e-01	0	39	0	0	25	8066
2026-01-11 07:46:02.33	80.14	7.22	-31.9	-38.9	6.2	2.53e-01	0	39	0	3145728	25	8003
2026-01-11 07:46:04.34	79.90	7.33	-31.9	-38.7	6.4	2.79e-01	0	39	0	7340032	25	7849
2026-01-11 07:46:06.35	79.66	7.44	-31.9	-38.6	6.5	2.16e-01	0	40	0	10485760	25	7730
2026-01-11 07:46:08.35	79.42	7.55	-32.1	-39.6	5.8	4.03e-01	0	39	0	14680064	25	8542
2026-01-11 07:46:10.37	79.18	7.66	-31.7	-38.0	7.4	1.69e-01	0	40	0	18874368	24	7373
2026-01-11 07:46:12.38	78.93	7.77	-31.3	-36.3	9.1	3.28e-02	0	40	0	22020096	23	6457
2026-01-11 07:46:14.40	78.68	7.88	-31.4	-36.8	8.7	2.67e-02	0	40	0	26214400	23	6697
2026-01-11 07:46:16.41	78.43	7.98	-31.5	-37.1	8.5	4.12e-02	0	40	0	29360128	23	6875
2026-01-11 07:46:18.42	78.18	8.09	-31.5	-37.3	8.4	4.13e-02	0	40	0	33554432	23	6994
2026-01-11 07:46:20.44	77.93	8.20	-31.5	-37.3	8.4	3.86e-02	0	40	0	37748736	23	7013
2026-01-11 07:46:22.45	77.68	8.31	-31.4	-36.6	8.9	3.56e-02	0	40	0	40894464	23	6569
2026-01-11 07:46:24.46	77.42	8.42	-31.0	-35.2	10.0	1.19e-02	0	40	0	45088768	23	5848
2026-01-11 07:46:26.48	77.16	8.53	-30.8	-34.4	10.7	3.98e-03	0	40	0	48234496	23	5458
2026-01-11 07:46:28.49	76.90	8.63	-30.9	-35.2	10.5	4.30e-03	0	40	0	52428800	22	5919
2026-01-11 07:46:30.50	76.64	8.74	-31.0	-35.5	10.3	7.48e-03	0	40	0	56623104	22	6039
2026-01-11 07:46:32.51	76.37	8.85	-30.9	-35.3	10.5	2.80e-03	0	40	0	59768832	22	5947
2026-01-11 07:46:34.52	76.11	8.96	-30.9	-35.3	10.5	4.01e-03	0	40	0	63963136	22	5939
2026-01-11 07:46:36.54	75.84	9.07	-30.9	-35.1	10.6	3.69e-03	0	40	0	67108864	22	5880
2026-01-11 07:46:38.54	75.57	9.17	-30.9	-35.2	10.6	3.84e-03	0	41	0	71303168	22	5885
2026-01-11 07:46:40.55	75.30	9.28	-30.8	-35.0	10.7	3.03e-03	0	41	0	74448896	22	5804
2026-01-11 07:46:42.55	75.02	9.39	-30.8	-35.0	10.8	3.38e-03	0	41	0	78643200	22	5781
2026-01-11 07:46:44.56	74.75	9.49	-30.8	-34.8	10.9	2.28e-03	0	40	0	82837504	22	5695
2026-01-11 07:46:46.58	74.47	9.60	-30.8	-34.8	11.0	1.91e-03	0	41	0	85983232	22	5680
2026-01-11 07:46:48.59	74.19	9.71	-30.8	-34.9	10.9	3.08e-03	0	41	0	90177536	22	5754
2026-01-11 07:46:50.60	73.91	9.81	-30.8	-34.8	11.0	1.68e-03	0	41	0	93323264	22	5701
2026-01-11 07:46:52.62	73.62	9.92	-31.0	-35.3	10.5	2.53e-03	0	41	0	97517568	22	5945
2026-01-11 07:46:54.63	73.33	10.03	-31.0	-35.6	10.4	4.25e-03	0	41	0	101711872	22	6079
2026-01-11 07:46:56.64	73.04	10.13	-31.1	-35.6	10.3	4.73e-03	0	41	0	104857600	22	6097
2026-01-11 07:46:58.66	72.75	10.24	-31.0	-35.4	10.6	4.34e-03	0	41	0	109051904	22	5974
2026-01-11 07:47:00.67	72.46	10.34	-31.1	-35.8	10.3	5.06e-03	0	41	0	113246208	22	6184
2026-01-11 07:47:02.69	72.16	10.45	-31.2	-36.0	10.1	8.97e-03	0	41	0	116391936	22	6274
2026-01-11 07:47:04.70	71.86	10.55	-30.9	-34.9	11.0	1.99e-03	0	41	0	120586240	22	5725
2026-01-11 07:47:06.71	71.57	10.66	-30.7	-34.2	11.5	9.26e-04	0	41	0	123731968	22	5412
2026-01-11 07:47:08.72	71.26	10.76	-30.7	-34.4	11.4	1.16e-03	0	41	0	127926272	22	5526
2026-01-11 07:47:10.73	70.96	10.86	-30.7	-34.2	11.5	7.27e-04	0	41	0	131072000	22	5406
2026-01-11 07:47:12.75	70.65	10.97	-30.6	-34.1	11.6	5.51e-04	0	41	0	135266304	22	5378
2026-01-11 07:47:14.76	70.34	11.07	-30.6	-33.9	11.7	5.80e-04	0	41	0	139460608	22	5295
2026-01-11 07:47:16.77	70.03	11.17	-30.5	-33.7	11.9	3.86e-04	0	41	0	142606336	22	5205
2026-01-11 07:47:18.78	69.72	11.27	-30.5	-33.8	11.9	5.00e-04	0	41	0	146800640	22	5230
2026-01-11 07:47:20.78	69.41	11.38	-30.2	-33.2	12.6	1.29e-04	0	41	0	149946368	21	5109
2026-01-11 07:47:22.79	69.09	11.48	-30.2	-33.2	12.6	9.30e-05	0	41	0	154140672	21	5123
2026-01-11 07:47:24.80	68.77	11.58	-30.1	-33.1	12.7	6.33e-05	0	41	0	158334976	21	5067
2026-01-11 07:47:26.81	68.45	11.68	-30.1	-33.0	12.7	6.86e-05	0	41	0	161480704	21	5033
2026-01-11 07:47:28.83	68.12	11.78	-30.3	-33.5	12.4	1.23e-04	0	41	0	165675008	21	5230
2026-01-11 07:47:30.85	67.80	11.88	-30.5	-34.3	11.8	2.37e-04	0	41	0	168820736	21	5565
2026-01-11 07:47:32.86	67.47	11.98	-30.4	-33.9	12.2	2.64e-04	0	41	0	173015040	21	5374
2026-01-11 07:47:34.87	67.14	12.07	-30.2	-33.3	12.6	1.29e-04	0	41	0	177209344	21	5134
2026-01-11 07:47:36.88	66.81	12.17	-30.3	-33.5	12.5	1.55e-04	0	41	0	180355072	21	5201
2026-01-11 07:47:38.89	66.47	12.27	-30.0	-32.6	13.1	3.20e-05	0	41	0	184549376	21	4855
2026-01-11 07:47:40.90	66.13	12.37	-30.0	-32.6	13.1	3.43e-05	0	41	0	187695104	21	4866
2026-01-11 07:47:42.91	65.79	12.46	-30.0	-32.6	13.1	2.05e-05	0	41	0	191889408	21	4874
2026-01-11 07:47:44.92	65.45	12.56	-29.9	-32.5	13.2	3.28e-05	0	41	0	196083712	21	4828
2026-01-11 07:47:46.93	65.11	12.65	-30.0	-32.8	12.9	3.96e-05	0	41	0	199229440	21	4950
2026-01-11 07:47:48.94	64.76	12.75	-29.8	-32.1	13.4	1.60e-05	0	41	0	203423744	21	4701
2026-01-11 07:47:50.95	64.42	12.84	-29.7	-32.2	13.7	9.90e-06	0	41	0	206569472	20	4846
2026-01-11 07:47:52.97	64.06	12.93	-29.8	-32.5	13.5	2.20e-06	0	41	0	210763776	20	4920
2026-01-11 07:47:54.97	63.71	13.02	-29.9	-32.9	13.3	1.98e-05	0	41	0	214958080	20	5066
2026-01-11 07:47:56.99	63.36	13.12	-29.9	-32.8	13.3	1.14e-05	0	41	0	218103808	20	5035
2026-01-11 07:47:59.00	63.00	13.21	-30.0	-33.2	13.1	1.75e-05	0	41	0	222298112	20	5185
2026-01-11 07:48:01.02	62.64	13.30	-30.0	-33.2	13.1	2.89e-05	0	41	0	225443840	20	5194
2026-01-11 07:48:03.03	62.28	13.39	-30.1	-33.4	13.0	2.97e-05	0	41	0	229638144	20	5267
2026-01-11 07:48:05.04	61.91	13.47	-29.9	-33.0	13.2	2.21e-05	0	41	0	233832448	20	5112
2026-01-11 07:48:07.06	61.54	13.56	-30.0	-33.2	13.1	3.58e-05	0	41	0	236978176	20	5173
2026-01-11 07:48:09.07	61.18	13.65	-30.3	-33.9	12.7	7.62e-05	0	41	0	241172480	20	5458
2026-01-11 07:48:11.08	60.81	13.73	-30.1	-33.4	13.0	3.43e-05	0	41	0	244318208	20	5256
2026-01-11 07:48:13.10	60.43	13.82	-30.2	-33.6	12.9	3.50e-05	0	41	0	248512512	20	5335
2026-01-11 07:48:15.12	60.05	13.90	-30.0	-33.0	13.2	2.28e-05	0	41	0	252706816	20	5118
2026-01-11 07:48:17.13	59.68	13.98	-30.0	-33.2	13.2	1.83e-05	0	41	0	255852544	20	5165
2026-01-11 07:48:19.13	59.30	14.07	-30.2	-33.6	12.9	6.79e-05	0	41	0	260046848	20	5329
2026-01-11 07:48:21.13	58.92	14.15	-30.0	-33.2	13.1	2.74e-05	0	41	0	263192576	20	5179
2026-01-11 07:48:23.15	58.54	14.23	-29.9	-32.9	13.3	1.67e-05	0	41	0	267386880	20	5068
2026-01-11 07:48:25.16	58.15	14.31	-30.1	-33.3	13.1	3.73e-05	0	41	0	271581184	20	5230
2026-01-11 07:48:27.17	57.77	14.38	-29.7	-32.3	13.8	1.06e-05	0	41	0	274726912	20	4845
2026-01-11 07:48:29.19	57.37	14.46	-29.7	-32.2	13.9	6.10e-06	0	41	0	278921216	20	4804
2026-01-11 07:48:31.20	56.98	14.54	-29.6	-32.0	13.9	7.00e-07	0	41	0	282066944	20	4746
2026-01-11 07:48:33.21	56.59	14.61	-29.7	-32.1	13.9	5.30e-06	0	41	0	286261248	20	4788
2026-01-11 07:48:35.22	56.20	14.68	-29.7	-32.3	13.8	4.50e-06	0	42	0	290455552	20	4834
2026-01-11 07:48:37.24	55.80	14.76	-29.6	-31.9	14.1	1.50e-06	0	41	0	293601280	20	4692
2026-01-11 07:48:39.25	55.40	14.83	-29.5	-31.6	14.2	0.00e+00	0	41	0	297795584	20	4620
2026-01-11 07:48:41.27	54.99	14.90	-29.5	-31.7	14.2	0.00e+00	0	41	0	300941312	20	4637
2026-01-11 07:48:43.28	54.59	14.97	-29.5	-31.7	14.2	7.00e-07	0	41	0	305135616	20	4656
2026-01-11 07:48:45.29	54.19	15.03	-29.5	-31.6	14.3	1.50e-06	0	42	0	309329920	20	4621
2026-01-11 07:48:47.29	53.78	15.10	-29.4	-31.5	14.3	7.00e-07	0	41	0	312475648	20	4585
2026-01-11 07:48:49.30	53.37	15.16	-29.6	-31.9	14.1	7.00e-07	0	41	0	316669952	20	4703
2026-01-11 07:48:51.31	52.96	15.23	-29.6	-31.9	14.1	2.20e-06	0	42	0	319815680	20	4694
2026-01-11 07:48:53.32	52.55	15.29	-29.6	-32.1	14.0	4.50e-06	0	42	0	324009984	20	4764
2026-01-11 07:48:55.32	52.14	15.35	-29.6	-32.0	14.0	4.50e-06	0	41	0	328204288	20	4743
2026-01-11 07:48:57.34	51.72	15.41	-29.6	-32.0	14.0	1.50e-06	0	41	0	331350016	20	4755
2026-01-11 07:48:59.35	51.31	15.47	-29.7	-32.3	13.8	4.50e-06	0	42	0	335544320	20	4851
2026-01-11 07:49:01.37	50.89	15.52	-29.6	-31.9	14.1	2.20e-06	0	42	0	338690048	20	4687
2026-01-11 07:49:03.38	50.47	15.58	-29.6	-32.1	14.0	2.20e-06	0	42	0	342884352	20	4764
2026-01-11 07:49:05.39	50.05	15.63	-29.8	-32.5	13.7	6.80e-06	0	41	0	346030080	20	4898
2026-01-11 07:49:07.40	49.62	15.69	-29.8	-32.6	13.7	3.80e-06	0	41	0	350224384	20	4929
2026-01-11 07:49:09.41	49.20	15.74	-30.0	-33.1	13.3	1.29e-05	0	42	0	354418688	20	5140
2026-01-11 07:49:11.43	48.77	15.79	-30.2	-33.6	13.0	4.73e-05	0	42	0	357564416	20	5310
2026-01-11 07:49:13.44	48.34	15.83	-30.2	-33.6	12.9	6.02e-05	0	41	0	361758720	20	5340
2026-01-11 07:49:15.46	47.91	15.88	-30.4	-34.2	12.6	1.04e-04	0	42	0	364904448	20	5581
2026-01-11 07:49:17.46	47.48	15.93	-30.5	-34.4	12.5	1.27e-04	0	42	0	369098752	20	5630
2026-01-11 07:49:19.48	47.05	15.97	-30.6	-34.4	12.1	4.16e-04	0	42	0	373293056	21	5525
2026-01-11 07:49:21.48	46.62	16.01	-30.1	-32.8	13.2	3.05e-05	0	42	0	376438784	21	4898
2026-01-11 07:49:23.50	46.19	16.05	-29.8	-32.3	13.8	3.80e-06	0	41	0	380633088	20	4847
2026-01-11 07:49:25.50	45.75	16.09	-29.7	-32.1	14.0	6.10e-06	0	42	0	383778816	20	4757
2026-01-11 07:49:27.52	45.31	16.13	-29.8	-32.4	13.8	1.50e-06	0	42	0	387973120	20	4859
2026-01-11 07:49:29.53	44.88	16.16	-29.9	-32.6	13.6	4.50e-06	0	42	0	392167424	20	4950
2026-01-11 07:49:31.54	44.44	16.20	-29.9	-32.8	13.6	1.90e-05	0	42	0	395313152	20	5021
2026-01-11 07:49:33.56	44.00	16.23	-30.0	-32.9	13.5	1.67e-05	0	42	0	399507456	20	5060
2026-01-11 07:49:35.56	43.56	16.26	-30.0	-33.1	13.3	1.83e-05	0	42	0	402653184	20	5127
2026-01-11 07:49:37.57	43.12	16.29	-30.0	-33.1	13.4	1.14e-05	0	42	0	406847488	20	5120
2026-01-11 07:49:39.58	42.68	16.31	-30.1	-33.2	13.3	2.05e-05	0	42	0	411041792	20	5175
2026-01-11 07:49:41.59	42.24	16.34	-30.2	-33.5	13.1	3.96e-05	0	42	0	414187520	20	5264
2026-01-11 07:49:43.60	41.79	16.36	-30.1	-33.2	13.3	2.36e-05	0	42	0	418381824	20	5175
2026-01-11 07:49:45.62	41.35	16.38	-30.1	-33.3	13.2	1.83e-05	0	42	0	421527552	20	5212
2026-01-11 07:49:47.63	40.90	16.40	-30.2	-33.6	13.0	2.97e-05	0	42	0	425721856	20	5319
2026-01-11 07:49:49.64	40.46	16.42	-30.1	-33.3	13.2	1.67e-05	0	42	0	429916160	20	5218
2026-01-11 07:49:51.65	40.01	16.44	-30.0	-33.1	13.4	3.12e-05	0	42	0	433061888	20	5126
2026-01-11 07:49:53.66	39.57	16.45	-30.0	-33.1	13.3	1.44e-05	0	42	0	437256192	20	5138
2026-01-11 07:49:55.67	39.12	16.47	-30.1	-33.3	13.2	2.82e-05	0	42	0	440401920	20	5191
2026-01-11 07:49:57.68	38.68	16.48	-30.1	-33.3	13.2	2.05e-05	0	42	0	444596224	20	5195
2026-01-11 07:49:59.70	38.23	16.49	-30.2	-33.5	13.1	1.44e-05	0	42	0	448790528	20	5272
2026-01-11 07:50:01.72	37.78	16.50	-30.3	-33.9	12.8	3.58e-05	0	42	0	451936256	20	5428
2026-01-11 07:50:03.74	37.33	16.50	-30.2	-33.6	13.0	4.11e-05	0	42	0	456130560	20	5325
2026-01-11 07:50:05.74	36.88	16.51	-30.1	-33.3	13.2	3.12e-05	0	42	0	459276288	20	5211
2026-01-11 07:50:07.76	36.43	16.51	-30.1	-33.2	13.3	1.83e-05	0	42	0	463470592	20	5171
2026-01-11 07:50:09.77	35.99	16.51	-30.1	-33.4	13.1	1.98e-05	0	42	0	467664896	20	5246
2026-01-11 07:50:11.78	35.54	16.51	-30.1	-33.3	13.2	1.37e-05	0	42	0	470810624	20	5198
2026-01-11 07:50:13.80	35.09	16.50	-30.2	-33.5	13.0	2.21e-05	0	42	0	475004928	20	5288
2026-01-11 07:50:15.81	34.64	16.50	-30.0	-33.0	13.4	1.75e-05	0	42	0	478150656	20	5090
2026-01-11 07:50:17.82	34.20	16.49	-30.0	-33.0	13.4	1.90e-05	0	42	0	482344960	20	5108
2026-01-11 07:50:19.83	33.75	16.49	-30.0	-33.0	13.4	2.44e-05	0	42	0	486539264	20	5089
2026-01-11 07:50:21.84	33.30	16.48	-29.9	-32.7	13.6	9.90e-06	0	42	0	489684992	20	4977
2026-01-11 07:50:23.86	32.85	16.46	-29.9	-32.7	13.6	6.10e-06	0	42	0	493879296	20	4972
2026-01-11 07:50:25.87	32.41	16.45	-29.9	-32.7	13.6	2.20e-06	0	42	0	497025024	20	4993
2026-01-11 07:50:27.88	31.96	16.43	-29.8	-32.6	13.7	1.37e-05	0	42	0	501219328	20	4948
2026-01-11 07:50:29.89	31.52	16.42	-29.8	-32.5	13.7	6.80e-06	0	42	0	505413632	20	4899
2026-01-11 07:50:31.90	31.07	16.40	-29.9	-32.7	13.6	9.90e-06	0	42	0	508559360	20	4987
2026-01-11 07:50:33.92	30.63	16.38	-29.9	-32.7	13.6	4.50e-06	0	42	0	512753664	20	4975
2026-01-11 07:50:35.93	30.19	16.36	-29.8	-32.6	13.6	9.90e-06	0	42	0	515899392	20	4951
2026-01-11 07:50:37.95	29.74	16.33	-29.8	-32.5	13.7	7.60e-06	0	42	0	520093696	20	4901
2026-01-11 07:50:39.95	29.30	16.31	-29.5	-31.6	14.3	3.80e-06	0	42	0	524288000	20	4608
2026-01-11 07:50:41.96	28.86	16.28	-29.6	-31.8	14.2	0.00e+00	0	42	0	527433728	20	4683
2026-01-11 07:50:43.97	28.42	16.25	-29.7	-32.1	13.9	3.80e-06	0	42	0	531628032	20	4789
2026-01-11 07:50:45.98	27.98	16.22	-29.6	-32.0	14.1	1.50e-06	0	42	0	534773760	20	4717
2026-01-11 07:50:47.99	27.54	16.19	-29.6	-31.8	14.1	2.20e-06	0	42	0	538968064	20	4687
2026-01-11 07:50:50.00	27.11	16.15	-29.3	-31.2	14.5	1.50e-06	0	42	0	543162368	20	4468
2026-01-11 07:50:52.02	26.67	16.12	-29.5	-32.2	14.3	7.00e-07	0	42	0	546308096	19	4889
2026-01-11 07:50:54.03	26.23	16.08	-29.6	-32.4	14.2	2.20e-06	0	42	0	550502400	19	4959
2026-01-11 07:50:56.04	25.80	16.04	-29.9	-33.1	13.7	6.10e-06	0	42	0	553648128	19	5236
2026-01-11 07:50:58.04	25.37	16.00	-29.7	-32.8	13.9	3.00e-06	0	42	0	557842432	19	5108
2026-01-11 07:51:00.06	24.94	15.96	-29.8	-33.0	13.8	3.00e-06	0	42	0	562036736	19	5178
2026-01-11 07:51:02.06	24.51	15.91	-29.7	-32.7	14.0	7.00e-07	0	42	0	565182464	19	5074
2026-01-11 07:51:04.08	24.08	15.87	-29.8	-32.9	13.8	1.22e-05	0	42	0	569376768	19	5169
2026-01-11 07:51:06.09	23.65	15.82	-29.8	-32.9	13.8	3.00e-06	0	42	0	572522496	19	5172
2026-01-11 07:51:08.10	23.22	15.77	-30.0	-33.2	13.2	2.97e-05	0	42	0	576716800	20	5168
2026-01-11 07:51:10.10	22.80	15.72	-29.9	-32.7	13.5	1.14e-05	0	42	0	579862528	20	4982
2026-01-11 07:51:12.12	22.38	15.67	-30.1	-33.4	13.0	2.44e-05	0	42	0	584056832	20	5246
2026-01-11 07:51:14.13	21.95	15.62	-30.1	-33.4	13.1	3.35e-05	0	42	0	588251136	20	5252
2026-01-11 07:51:16.14	21.53	15.57	-30.1	-33.2	13.1	3.66e-05	0	42	0	591396864	20	5180
2026-01-11 07:51:18.15	21.11	15.51	-30.1	-33.3	13.1	1.98e-05	0	42	0	595591168	20	5226
2026-01-11 07:51:20.17	20.70	15.45	-30.4	-34.1	12.6	5.18e-05	0	42	0	599785472	20	5533
2026-01-11 07:51:22.18	20.28	15.40	-30.1	-33.4	13.1	4.65e-05	0	42	0	602931200	20	5261
2026-01-11 07:51:24.20	19.86	15.34	-29.9	-32.8	13.5	1.06e-05	0	42	0	607125504	20	5008
2026-01-11 07:51:26.20	19.45	15.27	-29.9	-32.8	13.5	7.60e-06	0	42	0	610271232	20	5029
2026-01-11 07:51:28.21	19.04	15.21	-29.7	-32.1	13.9	6.80e-06	0	42	0	614465536	20	4792
2026-01-11 07:51:30.23	18.63	15.15	-29.7	-32.1	13.9	3.80e-06	0	42	0	618659840	20	4787
2026-01-11 07:51:32.23	18.23	15.08	-29.7	-32.3	13.8	7.00e-07	0	42	0	621805568	20	4853
2026-01-11 07:51:34.24	17.82	15.02	-29.8	-32.6	13.5	9.10e-06	0	42	0	625999872	20	4967
2026-01-11 07:51:36.25	17.42	14.95	-29.9	-32.8	13.4	9.10e-06	0	42	0	629145600	20	5043
2026-01-11 07:51:38.26	17.02	14.88	-29.9	-32.9	13.3	1.83e-05	0	42	0	633339904	20	5073
2026-01-11 07:51:40.27	16.62	14.81	-30.1	-33.4	13.0	2.44e-05	0	42	0	636485632	20	5264
2026-01-11 07:51:42.28	16.22	14.74	-29.8	-32.7	13.4	1.83e-05	0	42	0	640679936	20	5006
2026-01-11 07:51:44.28	15.83	14.67	-29.8	-32.5	13.6	6.80e-06	0	42	0	644874240	20	4925
2026-01-11 07:51:46.30	15.43	14.59	-29.8	-32.6	13.5	1.06e-05	0	42	0	648019968	20	4951
2026-01-11 07:51:48.32	15.04	14.52	-29.7	-32.2	13.8	2.20e-06	0	42	0	652214272	20	4803
2026-01-11 07:51:50.33	14.65	14.44	-29.6	-32.1	13.8	3.80e-06	0	42	0	655360000	20	4794
2026-01-11 07:51:52.34	14.26	14.37	-29.8	-32.4	13.6	9.10e-06	0	42	0	659554304	20	4899
2026-01-11 07:51:54.35	13.88	14.29	-29.9	-32.8	13.3	9.90e-06	0	42	0	663748608	20	5029
2026-01-11 07:51:56.36	13.50	14.21	-29.9	-33.0	13.2	2.13e-05	0	42	0	666894336	20	5100
2026-01-11 07:51:58.38	13.11	14.13	-29.7	-32.3	13.7	6.10e-06	0	42	0	671088640	20	4848
2026-01-11 07:52:00.39	12.73	14.05	-29.7	-32.2	13.7	6.80e-06	0	42	0	674234368	20	4830
2026-01-11 07:52:02.40	12.36	13.97	-29.8	-32.5	13.5	1.22e-05	0	42	0	678428672	20	4922
2026-01-11 07:52:04.41	11.98	13.88	-30.1	-33.3	13.0	4.57e-05	0	42	0	682622976	20	5232
2026-01-11 07:52:06.42	11.61	13.80	-30.1	-33.5	12.9	3.89e-05	0	42	0	685768704	20	5301
2026-01-11 07:52:08.45	11.23	13.71	-30.1	-33.4	12.9	5.26e-05	0	42	0	689963008	20	5266
2026-01-11 07:52:10.44	10.87	13.63	-30.2	-33.7	12.8	8.92e-05	0	42	0	693108736	20	5375
2026-01-11 07:52:12.46	10.50	13.54	-30.2	-33.6	12.7	7.55e-05	0	42	0	697303040	20	5362
2026-01-11 07:52:14.47	10.14	13.46	-30.2	-33.7	12.7	9.46e-05	0	42	0	701497344	20	5379
2026-01-11 07:52:16.49	9.77	13.37	-30.4	-33.9	12.1	3.01e-04	0	42	0	704643072	21	5394
2026-01-11 07:52:18.50	9.41	13.28	-30.5	-34.2	12.0	3.25e-04	0	42	0	708837376	21	5481
2026-01-11 07:52:20.51	9.06	13.19	-30.7	-34.6	11.7	5.78e-04	0	42	0	711983104	21	5662
2026-01-11 07:52:22.52	8.70	13.10	-30.7	-34.6	11.7	4.72e-04	0	42	0	716177408	21	5662
2026-01-11 07:52:24.53	8.35	13.01	-30.8	-35.1	11.4	1.02e-03	0	42	0	720371712	21	5884
2026-01-11 07:52:26.53	8.00	12.92	-30.9	-35.4	11.1	1.86e-03	0	42	0	723517440	21	6066
2026-01-11 07:52:28.55	7.65	12.82	-30.8	-35.0	11.4	1.09e-03	0	42	0	727711744	21	5845
2026-01-11 07:52:30.56	7.30	12.73	-30.7	-34.9	11.5	7.20e-04	0	42	0	730857472	21	5795
2026-01-11 07:52:32.58	6.96	12.64	-30.5	-34.3	11.9	5.07e-04	0	42	0	735051776	21	5527
2026-01-11 07:52:34.58	6.62	12.54	-30.7	-34.6	11.7	6.82e-04	0	42	0	739246080	21	5692
2026-01-11 07:52:36.60	6.28	12.45	-30.8	-35.1	11.3	1.09e-03	0	42	0	742391808	21	5903
2026-01-11 07:52:38.61	5.94	12.35	-30.9	-35.6	10.9	2.24e-03	0	42	0	746586112	21	6136
2026-01-11 07:52:40.62	5.60	12.25	-31.0	-35.4	10.7	3.04e-03	0	42	0	749731840	22	5956
2026-01-11 07:52:42.63	5.27	12.16	-31.0	-35.3	10.8	2.48e-03	0	42	0	753926144	22	5911
2026-01-11 07:52:44.64	4.94	12.06	-31.1	-35.5	10.6	2.81e-03	0	42	0	758120448	22	6002
2026-01-11 07:52:46.66	4.61	11.96	-31.2	-35.9	10.3	5.99e-03	0	42	0	761266176	22	6182
2026-01-11 07:52:48.67	4.28	11.86	-31.0	-35.1	10.9	2.76e-03	0	42	0	765460480	22	5827
2026-01-11 07:52:50.68	3.96	11.76	-31.0	-35.2	10.8	2.45e-03	0	42	0	768606208	22	5877
2026-01-11 07:52:52.70	3.64	11.66	-31.0	-35.4	10.6	3.48e-03	0	42	0	772800512	22	5980
2026-01-11 07:52:54.71	3.32	11.56	-31.1	-35.7	10.5	4.08e-03	0	42	0	776994816	22	6084
2026-01-11 07:52:56.72	3.00	11.46	-31.0	-35.2	10.8	3.85e-03	0	42	0	780140544	22	5864
2026-01-11 07:52:58.73	2.69	11.36	-31.2	-35.9	10.2	6.41e-03	0	42	0	784334848	22	6203
2026-01-11 07:53:00.75	2.37	11.26	-31.2	-36.1	10.1	6.65e-03	0	42	0	787480576	22	6327
2026-01-11 07:53:02.76	2.06	11.16	-31.1	-35.7	10.4	4.50e-03	0	42	0	791674880	22	6098
2026-01-11 07:53:04.78	1.75	11.05	-31.2	-36.0	10.1	5.65e-03	0	42	0	795869184	22	6252
2026-01-11 07:53:06.79	1.44	10.95	-31.0	-35.5	10.5	5.78e-03	0	42	0	799014912	22	6002
2026-01-11 07:53:08.79	1.14	10.85	-30.8	-34.8	11.0	1.80e-03	0	42	0	803209216	22	5687
2026-01-11 07:53:10.80	0.84	10.75	-30.7	-34.3	11.3	1.02e-03	0	42	0	806354944	22	5486
2026-01-11 07:53:12.81	0.54	10.64	-30.7	-34.4	11.3	1.12e-03	0	42	0	810549248	22	5501
2026-01-11 07:53:14.82	0.24	10.54	-30.7	-34.5	11.1	2.26e-03	0	42	0	814743552	22	5565
2026-01-11 07:53:16.84	359.95	10.43	-30.5	-33.8	11.7	6.45e-04	0	42	0	817889280	22	5262
2026-01-11 07:53:18.85	359.65	10.33	-30.6	-34.0	11.6	8.48e-04	0	42	0	822083584	22	5328
2026-01-11 07:53:20.87	359.36	10.22	-30.5	-33.9	11.6	6.81e-04	0	42	0	825229312	22	5300
2026-01-11 07:53:22.87	359.07	10.12	-30.5	-33.8	11.7	6.84e-04	0	42	0	829423616	22	5250
2026-01-11 07:53:24.89	358.79	10.01	-30.4	-33.4	11.9	3.55e-04	0	42	0	833617920	22	5104
2026-01-11 07:53:26.90	358.50	9.91	-30.4	-33.5	11.9	3.80e-04	0	42	0	836763648	22	5130
2026-01-11 07:53:28.91	358.22	9.80	-30.6	-34.1	11.4	7.03e-04	0	42	0	840957952	22	5386
2026-01-11 07:53:30.92	357.94	9.69	-30.2	-33.4	12.2	2.80e-04	0	42	0	844103680	21	5211
2026-01-11 07:53:32.94	357.66	9.59	-30.3	-33.8	11.9	3.46e-04	0	42	0	848297984	21	5366
2026-01-11 07:53:34.95	357.38	9.48	-30.2	-33.6	12.0	3.03e-04	0	42	0	851443712	21	5298
2026-01-11 07:53:36.96	357.11	9.38	-30.2	-33.4	12.2	2.17e-04	0	42	0	855638016	21	5226
2026-01-11 07:53:38.98	356.83	9.27	-30.4	-34.0	11.7	1.95e-04	0	42	0	859832320	21	5491
2026-01-11 07:53:40.99	356.56	9.16	-30.1	-33.2	12.3	2.69e-04	0	42	0	862978048	21	5147
2026-01-11 07:53:42.99	356.30	9.05	-30.2	-33.6	12.0	1.27e-04	0	42	0	867172352	21	5298
2026-01-11 07:53:45.00	356.03	8.95	-30.0	-33.0	12.3	1.21e-04	0	42	0	870318080	21	5085
2026-01-11 07:53:47.02	355.77	8.84	-30.1	-33.1	12.3	1.90e-04	0	42	0	874512384	21	5121
2026-01-11 07:53:49.03	355.50	8.73	-29.9	-32.7	12.6	1.11e-04	0	42	0	878706688	21	4960
2026-01-11 07:53:51.03	355.25	8.62	-30.1	-33.1	12.2	2.90e-04	0	42	0	881852416	21	5131
2026-01-11 07:53:53.05	354.99	8.52	-30.6	-34.9	11.0	1.12e-03	0	42	0	886046720	21	5879
2026-01-11 07:53:55.04	354.73	8.41	-30.1	-33.3	12.1	1.49e-04	0	42	0	889192448	21	5194
2026-01-11 07:53:57.05	354.48	8.30	-30.1	-33.2	12.1	2.08e-04	0	42	0	893386752	21	5171
2026-01-11 07:53:59.07	354.22	8.19	-30.2	-33.6	11.9	3.60e-04	0	42	0	897581056	21	5316
2026-01-11 07:54:01.08	353.97	8.08	-30.1	-33.4	12.0	3.58e-04	0	42	0	900726784	21	5251
2026-01-11 07:54:03.09	353.73	7.98	-30.4	-34.1	11.5	5.39e-04	0	42	0	904921088	21	5556
2026-01-11 07:54:05.09	353.48	7.87	-30.3	-34.1	11.5	8.43e-04	0	42	0	908066816	21	5543
2026-01-11 07:54:07.11	353.23	7.76	-30.3	-34.1	11.4	5.29e-04	0	42	0	912261120	21	5547
2026-01-11 07:54:09.12	352.99	7.65	-30.5	-34.6	11.1	1.91e-03	0	42	0	916455424	21	5761
2026-01-11 07:54:11.12	352.75	7.54	-30.5	-34.8	10.9	2.36e-03	0	42	0	919601152	21	5857
2026-01-11 07:54:13.13	352.51	7.44	-30.5	-34.8	10.9	2.75e-03	0	42	0	923795456	21	5857
2026-01-11 07:54:15.14	352.27	7.33	-30.3	-33.9	11.5	6.43e-04	0	42	0	926941184	21	5471
2026-01-11 07:54:17.16	352.04	7.22	-30.1	-33.5	11.8	5.68e-04	0	42	0	931135488	21	5297
2026-01-11 07:54:19.17	351.80	7.11	-30.1	-33.2	12.0	3.28e-04	0	42	0	935329792	21	5185
2026-01-11 07:54:21.18	351.57	7.00	-33.0	-47.1	3.8	1.49e+00	0	42	104	937426944	26	18271
2026-01-11 07:54:23.20	351.34	6.89	-33.5	-47.6	3.8	1.49e+00	0	42	104	937426944	27	18152

#Closed at: 2026-01-11 07:54:23
#Recorded file [937 MB]: D:/data/31010_260111_104600.dat