passes_logs/2026/01/11/R2M6_AANII_01/R2M6_AANII_01__20260111_231138_NOAA_20_JPSS-1_rec.log

#Pass ID: 20260111_231138_NOAA 20 (JPSS-1)
#Satellite: NOAA 20 (JPSS-1)
#Configuration: NOAA 20
#almurnet v.1.7.20240730
#Start time: 2026-01-11 23:11:40

#Version: 2.2.20231116
#Station: R2M6_AANII_01
#Location: 30.233357 lon 59.946436 lat
#TLE: 1 43013U 17073A   26011.31235446  .00000090  00000+0  63634-4 0  9991
#TLE: 2 43013  98.7632 312.2907 0001646  44.6084 315.5224 14.19535308422217

#Time	Az	El	Level	Level2	SNR	BER	BlckErr	Temp	State	Recorded	gain1	gain2
2026-01-11 23:11:40.41	25.71	7.11	-31.8	-39.2	4.7	1.29e+00	0	39	0	0	23	8497
2026-01-11 23:11:43.42	25.92	7.32	-31.9	-39.2	6.2	3.09e-01	0	39	0	1048576	24	8359
2026-01-11 23:11:46.44	26.13	7.54	-31.5	-37.4	8.1	8.12e-02	0	39	0	7340032	23	7093
2026-01-11 23:11:49.46	26.34	7.75	-31.0	-36.1	9.6	1.82e-02	0	39	0	12582912	22	6405
2026-01-11 23:11:52.48	26.56	7.97	-30.8	-35.5	10.4	8.32e-03	0	40	0	18874368	21	6220
2026-01-11 23:11:55.50	26.78	8.18	-30.5	-34.6	11.2	1.57e-03	0	40	0	24117248	21	5743
2026-01-11 23:11:58.53	27.00	8.40	-30.4	-34.2	11.4	1.23e-03	0	40	0	29360128	21	5582
2026-01-11 23:12:01.51	27.23	8.62	-30.6	-34.7	11.2	1.71e-03	0	40	0	35651584	21	5772
2026-01-11 23:12:04.53	27.46	8.84	-30.6	-34.8	11.1	1.91e-03	0	40	0	40894464	21	5816
2026-01-11 23:12:07.55	27.69	9.07	-30.5	-34.3	11.5	9.25e-04	0	40	0	46137344	21	5602
2026-01-11 23:12:10.57	27.93	9.29	-30.4	-34.7	11.6	6.27e-04	0	40	0	52428800	20	5885
2026-01-11 23:12:13.59	28.17	9.52	-30.1	-33.8	12.2	2.66e-04	0	40	0	57671680	20	5490
2026-01-11 23:12:16.60	28.41	9.75	-30.3	-34.2	12.0	8.69e-05	0	40	0	63963136	20	5671
2026-01-11 23:12:19.62	28.66	9.98	-29.0	-32.2	12.7	6.17e-05	0	41	0	69206016	20	5187
2026-01-11 23:12:22.64	28.91	10.21	-29.9	-33.4	12.5	3.89e-05	0	40	0	74448896	19	5413
2026-01-11 23:12:25.65	29.16	10.45	-29.8	-33.2	13.1	2.74e-05	0	41	0	80740352	19	5340
2026-01-11 23:12:28.67	29.42	10.68	-29.8	-33.3	13.2	3.58e-05	0	41	0	85983232	19	5345
2026-01-11 23:12:31.68	29.68	10.92	-29.7	-33.0	13.3	2.21e-05	0	41	0	92274688	19	5249
2026-01-11 23:12:34.70	29.95	11.16	-29.9	-33.3	13.1	1.83e-05	0	41	0	97517568	19	5362
2026-01-11 23:12:37.72	30.22	11.40	-29.9	-33.3	13.2	1.52e-04	0	41	0	102760448	19	5363
2026-01-11 23:12:40.74	30.49	11.64	-29.7	-32.9	13.5	2.66e-04	0	41	0	109051904	19	5188
2026-01-11 23:12:43.76	30.77	11.89	-29.9	-33.4	13.2	4.13e-04	0	41	0	114294784	19	5384
2026-01-11 23:12:46.78	31.05	12.14	-29.7	-32.8	13.6	5.68e-04	0	41	0	120586240	19	5152
2026-01-11 23:12:49.80	31.34	12.38	-29.8	-33.0	13.4	4.03e-04	0	41	0	125829120	19	5239
2026-01-11 23:12:52.83	31.64	12.64	-29.8	-33.2	13.4	9.90e-06	0	41	0	131072000	19	5294
2026-01-11 23:12:55.85	31.93	12.89	-29.8	-32.7	13.3	1.67e-05	0	41	0	137363456	20	5036
2026-01-11 23:12:58.88	32.24	13.15	-29.9	-33.3	13.3	3.05e-05	0	41	0	142606336	19	5350
2026-01-11 23:13:01.90	32.54	13.40	-30.0	-33.2	13.0	8.92e-05	0	41	0	148897792	20	5207
2026-01-11 23:13:04.92	32.86	13.66	-29.8	-32.6	13.4	1.75e-04	0	41	0	154140672	20	4973
2026-01-11 23:13:07.94	33.18	13.92	-29.9	-33.4	13.3	2.97e-04	0	41	0	159383552	19	5365
2026-01-11 23:13:10.96	33.50	14.18	-29.6	-32.7	13.8	3.08e-04	0	41	0	165675008	19	5089
2026-01-11 23:13:13.98	33.83	14.45	-29.8	-33.1	13.6	6.80e-06	0	41	0	170917888	19	5243
2026-01-11 23:13:17.00	34.16	14.72	-29.9	-33.3	13.4	8.30e-06	0	41	0	177209344	19	5333
2026-01-11 23:13:20.01	34.50	14.98	-29.9	-33.3	13.5	9.10e-06	0	41	0	182452224	19	5306
2026-01-11 23:13:23.03	34.85	15.26	-30.1	-33.4	13.0	2.44e-05	0	41	0	187695104	20	5273
2026-01-11 23:13:26.05	35.20	15.53	-30.2	-33.6	12.9	9.99e-05	0	41	0	193986560	20	5324
2026-01-11 23:13:29.07	35.56	15.80	-30.3	-33.8	12.7	8.01e-05	0	41	0	199229440	20	5438
2026-01-11 23:13:32.08	35.92	16.08	-30.3	-33.9	12.7	8.31e-05	0	41	0	205520896	20	5458
2026-01-11 23:13:35.10	36.30	16.36	-30.2	-33.7	12.8	4.80e-05	0	41	0	210763776	20	5380
2026-01-11 23:13:38.12	36.68	16.64	-30.2	-33.5	13.0	3.58e-05	0	41	0	216006656	20	5282
2026-01-11 23:13:41.14	37.06	16.93	-30.2	-33.6	13.0	4.57e-05	0	41	0	222298112	20	5328
2026-01-11 23:13:44.16	37.45	17.21	-30.3	-33.9	12.8	6.17e-05	0	41	0	227540992	20	5443
2026-01-11 23:13:47.18	37.85	17.50	-30.5	-34.3	12.5	1.11e-04	0	41	0	233832448	20	5619
2026-01-11 23:13:50.21	38.26	17.79	-30.6	-34.4	12.1	1.87e-04	0	41	0	239075328	21	5529
2026-01-11 23:13:53.23	38.68	18.08	-30.5	-34.0	12.4	1.90e-04	0	41	0	244318208	21	5364
2026-01-11 23:13:56.25	39.10	18.38	-30.4	-33.6	12.7	2.18e-04	0	41	0	250609664	21	5218
2026-01-11 23:13:59.28	39.53	18.68	-30.4	-33.7	12.7	1.19e-04	0	41	0	255852544	21	5259
2026-01-11 23:14:02.29	39.97	18.97	-30.3	-33.2	13.0	4.57e-05	0	41	0	262144000	21	5057
2026-01-11 23:14:05.31	40.42	19.27	-30.1	-32.7	13.4	1.44e-05	0	41	0	267386880	21	4875
2026-01-11 23:14:08.33	40.87	19.58	-30.1	-32.6	13.5	1.06e-05	0	41	0	272629760	21	4825
2026-01-11 23:14:11.35	41.34	19.88	-30.2	-33.1	13.2	2.28e-05	0	41	0	278921216	21	4993
2026-01-11 23:14:14.37	41.81	20.19	-30.2	-33.6	13.1	2.88e-04	0	41	0	284164096	20	5306
2026-01-11 23:14:17.38	42.30	20.49	-30.1	-33.2	13.4	1.70e-04	0	41	0	290455552	20	5143
2026-01-11 23:14:20.41	42.79	20.80	-29.7	-32.6	14.2	2.67e-04	0	41	0	295698432	19	5012
2026-01-11 23:14:23.42	43.29	21.12	-29.7	-32.7	14.2	1.01e-04	0	42	0	300941312	19	5053
2026-01-11 23:14:26.44	43.81	21.43	-29.6	-32.2	14.5	0.00e+00	0	42	0	307232768	19	4896
2026-01-11 23:14:29.45	44.33	21.74	-29.3	-31.5	15.0	0.00e+00	0	41	0	312475648	19	4647
2026-01-11 23:14:32.47	44.86	22.06	-29.2	-31.3	15.1	0.00e+00	0	41	0	318767104	19	4581
2026-01-11 23:14:35.48	45.40	22.38	-29.2	-31.9	15.1	1.82e-04	0	41	0	324009984	18	4873
2026-01-11 23:14:38.51	45.96	22.70	-29.1	-31.5	15.3	6.02e-05	0	42	0	329252864	18	4737
2026-01-11 23:14:41.52	46.52	23.02	-28.9	-31.1	15.5	0.00e+00	0	42	0	335544320	18	4619
2026-01-11 23:14:44.54	47.10	23.34	-28.7	-30.4	16.0	0.00e+00	0	42	0	340787200	18	4414
2026-01-11 23:14:47.56	47.69	23.66	-28.4	-29.9	16.3	0.00e+00	0	42	0	347078656	18	4256
2026-01-11 23:14:50.58	48.29	23.98	-28.2	-29.8	16.6	0.00e+00	0	42	0	352321536	17	4329
2026-01-11 23:14:53.60	48.91	24.31	-28.3	-30.2	16.4	0.00e+00	0	41	0	357564416	17	4438
2026-01-11 23:14:56.62	49.53	24.63	-28.8	-31.2	15.8	0.00e+00	0	42	0	363855872	17	4762
2026-01-11 23:14:59.63	50.17	24.96	-28.8	-31.3	15.7	0.00e+00	0	41	0	369098752	17	4798
2026-01-11 23:15:02.65	50.82	25.28	-28.7	-31.1	15.9	0.00e+00	0	41	0	375390208	17	4708
2026-01-11 23:15:05.66	51.49	25.61	-29.0	-31.3	15.5	0.00e+00	0	42	0	380633088	18	4687
2026-01-11 23:15:08.67	52.16	25.93	-29.4	-32.2	15.0	0.00e+00	0	42	0	385875968	18	4966
2026-01-11 23:15:11.70	52.86	26.26	-29.5	-31.9	14.8	0.00e+00	0	42	0	392167424	19	4757
2026-01-11 23:15:14.71	53.56	26.59	-29.9	-32.7	14.0	1.50e-06	0	41	0	397410304	20	4922
2026-01-11 23:15:17.73	54.28	26.91	-30.1	-33.2	13.7	6.10e-06	0	42	0	403701760	20	5107
2026-01-11 23:15:20.74	55.02	27.23	-30.3	-33.6	13.4	1.44e-05	0	41	0	408944640	20	5270
2026-01-11 23:15:23.77	55.77	27.56	-30.8	-34.7	12.3	9.61e-05	0	41	0	414187520	21	5606
2026-01-11 23:15:26.78	56.53	27.88	-30.9	-34.7	12.3	1.68e-04	0	42	0	420478976	21	5614
2026-01-11 23:15:29.80	57.32	28.20	-30.7	-34.2	12.7	6.71e-05	0	42	0	425721856	21	5385
2026-01-11 23:15:32.81	58.11	28.51	-30.7	-34.4	12.5	1.08e-04	0	42	0	432013312	21	5472
2026-01-11 23:15:35.83	58.92	28.83	-31.3	-35.4	11.5	6.81e-04	0	42	0	437256192	22	5783
2026-01-11 23:15:38.85	59.75	29.14	-31.7	-36.2	10.6	2.58e-03	0	42	0	442499072	23	6055
2026-01-11 23:15:41.87	60.59	29.45	-31.9	-37.0	9.9	8.89e-03	0	42	0	448790528	23	6479
2026-01-11 23:15:44.89	61.45	29.75	-31.8	-36.5	10.3	5.32e-03	0	42	0	454033408	23	6232
2026-01-11 23:15:47.91	62.33	30.06	-32.0	-37.0	9.6	1.23e-02	0	42	0	460324864	24	6391
2026-01-11 23:15:50.92	63.22	30.35	-32.3	-38.0	8.8	2.52e-02	0	42	0	465567744	24	6959
2026-01-11 23:15:53.94	64.12	30.65	-32.1	-37.2	9.4	1.70e-02	0	42	0	470810624	24	6486
2026-01-11 23:15:56.97	65.05	30.94	-32.1	-37.5	9.2	1.47e-02	0	42	0	477102080	24	6664
2026-01-11 23:15:59.99	65.99	31.22	-32.2	-37.8	9.0	2.36e-02	0	42	0	482344960	24	6818
2026-01-11 23:16:03.00	66.95	31.50	-32.0	-37.0	9.7	1.22e-02	0	42	0	488636416	24	6391
2026-01-11 23:16:06.02	67.92	31.77	-32.1	-37.1	9.6	1.02e-02	0	42	0	493879296	24	6399
2026-01-11 23:16:09.04	68.91	32.03	-31.2	-34.6	11.8	5.85e-04	0	42	0	499122176	23	5342
2026-01-11 23:16:12.05	69.91	32.29	-31.0	-34.0	12.3	2.50e-04	0	42	0	505413632	23	5081
2026-01-11 23:16:15.07	70.93	32.54	-30.7	-33.6	12.9	8.62e-05	0	42	0	510656512	22	5030
2026-01-11 23:16:18.08	71.96	32.78	-30.4	-33.4	13.3	1.29e-05	0	42	0	516947968	21	5074
2026-01-11 23:16:21.09	73.01	33.01	-30.4	-33.4	13.3	2.44e-05	0	42	0	522190848	21	5077
2026-01-11 23:16:24.11	74.08	33.24	-30.6	-33.8	13.0	2.51e-05	0	42	0	527433728	21	5243
2026-01-11 23:16:27.14	75.16	33.45	-30.8	-34.5	12.6	9.38e-05	0	42	0	533725184	21	5515
2026-01-11 23:16:30.16	76.25	33.66	-31.2	-35.2	11.8	3.61e-04	0	42	0	538968064	22	5698
2026-01-11 23:16:33.17	77.36	33.86	-31.8	-36.7	10.3	3.18e-03	0	42	0	545259520	23	6328
2026-01-11 23:16:36.20	78.48	34.04	-31.9	-37.1	9.9	8.04e-03	0	42	0	550502400	23	6532
2026-01-11 23:16:39.21	79.61	34.21	-31.8	-36.8	10.2	5.85e-03	0	42	0	555745280	23	6341
2026-01-11 23:16:42.22	80.75	34.38	-31.9	-37.0	10.1	6.81e-03	0	42	0	562036736	23	6456
2026-01-11 23:16:45.24	81.91	34.53	-31.6	-35.9	10.8	5.36e-03	0	42	0	567279616	23	5915
2026-01-11 23:16:48.25	83.07	34.66	-31.1	-34.7	12.1	3.07e-04	0	42	0	572522496	22	5488
2026-01-11 23:16:51.28	84.25	34.79	-31.6	-35.8	10.9	1.50e-03	0	42	0	578813952	23	5878
2026-01-11 23:16:54.29	85.43	34.90	-31.6	-36.0	10.8	3.19e-03	0	42	0	584056832	23	5946
2026-01-11 23:16:57.31	86.62	35.00	-31.2	-34.7	11.8	7.93e-04	0	42	0	590348288	23	5368
2026-01-11 23:17:00.33	87.82	35.09	-31.3	-35.5	11.6	1.33e-03	0	42	0	595591168	22	5812
2026-01-11 23:17:03.35	89.02	35.16	-31.1	-34.8	12.1	2.43e-04	0	42	0	600834048	22	5515
2026-01-11 23:17:06.38	90.23	35.22	-31.7	-36.2	10.7	3.05e-03	0	42	0	607125504	23	6036
2026-01-11 23:17:09.40	91.45	35.27	-31.4	-35.3	11.4	9.80e-04	0	42	0	612368384	23	5614
2026-01-11 23:17:12.42	92.66	35.30	-30.9	-33.7	12.5	1.56e-04	0	42	0	618659840	23	4966
2026-01-11 23:17:15.44	93.88	35.32	-30.8	-34.0	12.6	6.17e-05	0	42	0	623902720	22	5181
2026-01-11 23:17:18.46	95.10	35.32	-31.0	-34.6	12.2	2.22e-04	0	42	0	630194176	22	5416
2026-01-11 23:17:21.48	96.32	35.31	-30.4	-32.8	13.4	1.75e-05	0	42	0	635437056	22	4738
2026-01-11 23:17:24.48	97.53	35.28	-31.3	-35.3	11.7	2.07e-04	0	42	0	640679936	22	5716
2026-01-11 23:17:27.50	98.74	35.24	-30.8	-33.9	12.7	2.17e-04	0	42	0	646971392	22	5133
2026-01-11 23:17:30.52	99.95	35.19	-30.4	-33.2	13.4	7.60e-06	0	42	0	652214272	21	4989
2026-01-11 23:17:33.54	101.16	35.12	-31.5	-35.7	11.0	1.09e-03	0	42	0	657457152	23	5821
2026-01-11 23:17:36.55	102.36	35.04	-31.9	-37.0	10.0	7.16e-03	0	42	0	663748608	23	6480
2026-01-11 23:17:39.56	103.55	34.95	-32.1	-37.4	9.5	1.26e-02	0	42	0	668991488	24	6562
2026-01-11 23:17:42.56	104.73	34.84	-31.5	-35.0	11.1	1.38e-03	0	42	0	675282944	24	5394
2026-01-11 23:17:45.58	105.91	34.72	-31.4	-35.3	11.3	1.01e-03	0	42	0	680525824	23	5646
2026-01-11 23:17:48.60	107.08	34.58	-31.0	-34.1	12.1	2.37e-04	0	42	0	685768704	23	5148
2026-01-11 23:17:51.61	108.24	34.44	-31.5	-35.7	11.0	1.30e-03	0	42	0	692060160	23	5829
2026-01-11 23:17:54.63	109.39	34.28	-30.7	-33.8	12.7	1.32e-04	0	42	0	697303040	22	5117
2026-01-11 23:17:57.65	110.53	34.11	-31.2	-35.3	11.6	3.34e-04	0	42	0	703594496	22	5767
2026-01-11 23:18:00.67	111.65	33.93	-31.1	-34.8	11.9	5.04e-04	0	42	0	708837376	22	5542
2026-01-11 23:18:03.68	112.77	33.74	-31.2	-35.0	11.8	7.68e-04	0	42	0	714080256	22	5632
2026-01-11 23:18:06.70	113.87	33.53	-31.4	-35.7	11.2	1.30e-03	0	42	0	720371712	22	5935
2026-01-11 23:18:09.71	114.95	33.32	-31.8	-36.8	10.1	8.33e-03	0	42	0	725614592	23	6401
2026-01-11 23:18:12.73	116.03	33.10	-31.9	-36.4	10.0	1.16e-02	0	42	0	731906048	24	6089
2026-01-11 23:18:15.74	117.08	32.87	-31.2	-34.8	11.5	8.01e-04	0	42	0	737148928	23	5445
2026-01-11 23:18:18.74	118.12	32.63	-31.5	-35.6	11.0	1.08e-03	0	42	0	742391808	23	5789
2026-01-11 23:18:21.76	119.15	32.38	-31.3	-34.9	11.4	8.03e-04	0	42	0	748683264	23	5502
2026-01-11 23:18:24.77	120.16	32.13	-31.3	-35.2	11.2	1.52e-03	0	42	0	753926144	23	5629
2026-01-11 23:18:27.79	121.16	31.87	-32.0	-37.5	9.5	7.54e-03	0	42	0	759169024	23	6790
2026-01-11 23:18:30.81	122.14	31.60	-31.6	-35.6	10.5	6.62e-03	0	42	0	765460480	24	5707
2026-01-11 23:18:33.82	123.10	31.32	-30.9	-34.3	12.2	1.09e-04	0	42	0	770703360	22	5327
2026-01-11 23:18:36.84	124.05	31.04	-31.2	-35.2	11.5	1.17e-03	0	42	0	776994816	22	5724
2026-01-11 23:18:39.84	124.98	30.75	-30.9	-34.4	12.1	2.59e-04	0	42	0	782237696	22	5380
2026-01-11 23:18:42.87	125.90	30.46	-31.7	-36.3	10.3	5.70e-03	0	42	0	787480576	23	6167
2026-01-11 23:18:45.89	126.80	30.16	-31.3	-35.2	11.1	1.14e-03	0	42	0	793772032	23	5645
2026-01-11 23:18:48.91	127.69	29.86	-32.4	-38.8	8.0	5.89e-02	0	42	0	799014912	24	7548
2026-01-11 23:18:51.93	128.56	29.55	-30.7	-33.8	12.5	5.38e-04	0	42	0	805306368	22	5131
2026-01-11 23:18:54.95	129.41	29.24	-31.2	-35.3	11.5	2.45e-04	0	42	0	810549248	22	5772
2026-01-11 23:18:57.97	130.25	28.93	-30.9	-34.3	12.1	3.91e-04	0	42	0	815792128	22	5359
2026-01-11 23:19:00.98	131.06	28.61	-31.2	-35.3	11.5	4.83e-04	0	42	0	822083584	22	5766
2026-01-11 23:19:04.00	131.87	28.30	-31.7	-36.1	10.0	1.23e-02	0	42	0	827326464	24	5951
2026-01-11 23:19:07.01	132.66	27.98	-31.2	-34.9	11.3	7.85e-04	0	42	0	833617920	23	5517
2026-01-11 23:19:10.02	133.43	27.66	-31.7	-36.7	9.9	6.91e-03	0	42	0	838860800	23	6415
2026-01-11 23:19:13.04	134.19	27.33	-30.1	-32.9	13.3	2.67e-05	0	42	0	844103680	21	4927
2026-01-11 23:19:16.06	134.93	27.01	-30.6	-34.2	12.3	1.03e-04	0	42	0	850395136	21	5474
2026-01-11 23:19:19.07	135.66	26.68	-30.2	-33.0	13.2	4.65e-05	0	42	0	855638016	21	4963
2026-01-11 23:19:22.09	136.37	26.35	-29.5	-32.1	14.5	0.00e+00	0	42	0	861929472	19	4847
2026-01-11 23:19:25.11	137.07	26.03	-30.1	-33.2	13.4	1.44e-05	0	42	0	867172352	20	5137
2026-01-11 23:19:28.13	137.76	25.70	-29.4	-31.3	14.6	0.00e+00	0	42	0	872415232	20	4477
2026-01-11 23:19:31.15	138.43	25.37	-29.4	-31.9	14.6	0.00e+00	0	42	0	878706688	19	4794
2026-01-11 23:19:34.17	139.09	25.04	-29.7	-32.7	14.0	4.50e-06	0	42	0	883949568	19	5092
2026-01-11 23:19:37.18	139.74	24.71	-28.9	-30.7	15.3	0.00e+00	0	42	0	890241024	19	4420
2026-01-11 23:19:40.19	140.37	24.39	-29.1	-31.7	14.9	0.00e+00	0	42	0	895483904	18	4843
2026-01-11 23:19:43.20	140.99	24.06	-29.3	-31.5	14.7	2.20e-06	0	42	0	900726784	19	4678
2026-01-11 23:19:46.22	141.59	23.73	-28.6	-30.9	15.7	0.00e+00	0	42	0	907018240	17	4687
2026-01-11 23:19:49.25	142.19	23.41	-28.4	-30.4	16.0	0.00e+00	0	42	0	912261120	17	4541
2026-01-11 23:19:52.26	142.77	23.09	-29.0	-31.3	15.1	0.00e+00	0	42	0	918552576	18	4724
2026-01-11 23:19:55.28	143.35	22.76	-28.4	-30.4	16.0	0.00e+00	0	42	0	923795456	17	4521
2026-01-11 23:19:58.30	143.91	22.44	-28.2	-30.4	16.2	5.34e-05	0	42	0	929038336	16	4663
2026-01-11 23:20:01.32	144.46	22.12	-28.9	-31.8	15.0	9.23e-05	0	42	0	935329792	17	5005
2026-01-11 23:20:04.33	144.99	21.80	-29.1	-31.6	14.9	4.50e-05	0	42	0	940572672	18	4830
2026-01-11 23:20:07.36	145.52	21.48	-28.7	-31.1	15.4	0.00e+00	0	42	0	946864128	17	4762
2026-01-11 23:20:10.38	146.04	21.17	-28.6	-30.9	15.5	2.20e-06	0	42	0	952107008	17	4712
2026-01-11 23:20:13.40	146.55	20.85	-28.8	-31.5	15.2	0.00e+00	0	42	0	957349888	17	4901
2026-01-11 23:20:16.41	147.05	20.54	-28.7	-31.1	15.4	0.00e+00	0	42	0	963641344	17	4773
2026-01-11 23:20:19.42	147.53	20.23	-28.9	-31.7	15.0	0.00e+00	0	42	0	968884224	17	4958
2026-01-11 23:20:22.45	148.01	19.92	-29.4	-32.5	14.2	1.50e-06	0	42	0	974127104	18	5156
2026-01-11 23:20:25.47	148.48	19.61	-29.5	-32.2	14.1	2.20e-06	0	42	0	980418560	19	4916
2026-01-11 23:20:28.48	148.94	19.31	-29.1	-31.7	14.7	0.00e+00	0	42	0	985661440	18	4874
2026-01-11 23:20:31.51	149.39	19.00	-29.5	-32.7	14.0	1.50e-06	0	42	0	991952896	18	5226
2026-01-11 23:20:34.53	149.83	18.70	-30.0	-33.2	13.0	2.89e-05	0	42	0	997195776	20	5198
2026-01-11 23:20:37.55	150.27	18.40	-30.0	-33.1	13.0	5.11e-05	0	42	0	1002438656	20	5192
2026-01-11 23:20:40.54	150.69	18.11	-29.8	-33.1	13.4	1.67e-05	0	42	0	1008730112	19	5290
2026-01-11 23:20:43.56	151.11	17.81	-30.5	-34.3	11.8	2.54e-04	0	42	0	1013972992	21	5556
2026-01-11 23:20:46.58	151.52	17.52	-30.8	-35.1	11.1	4.40e-03	0	42	0	1020264448	21	5955
2026-01-11 23:20:49.58	151.92	17.23	-30.7	-35.0	11.2	4.03e-03	0	42	0	1025507328	21	5893
2026-01-11 23:20:52.60	152.32	16.94	-29.9	-33.2	12.8	2.59e-03	0	42	0	1030750208	20	5219
2026-01-11 23:20:55.63	152.71	16.65	-29.9	-33.4	13.1	2.27e-03	0	42	0	1037041664	19	5411
2026-01-11 23:20:58.65	153.09	16.37	-30.1	-33.6	12.5	8.62e-05	0	42	0	1042284544	20	5393
2026-01-11 23:21:01.67	153.46	16.09	-30.1	-33.8	12.3	2.81e-03	0	42	0	1048576000	20	5490
2026-01-11 23:21:04.69	153.83	15.81	-29.8	-33.0	12.8	2.61e-03	0	42	0	1053818880	20	5197
2026-01-11 23:21:07.70	154.19	15.53	-29.8	-33.4	13.0	2.65e-03	0	42	0	1059061760	19	5406
2026-01-11 23:21:10.73	154.54	15.25	-29.8	-33.2	13.0	2.50e-03	0	42	0	1065353216	19	5352
2026-01-11 23:21:13.75	154.89	14.98	-30.0	-33.4	12.6	2.33e-03	0	42	0	1070596096	20	5321
2026-01-11 23:21:16.76	155.23	14.71	-30.4	-34.7	11.7	2.93e-03	0	42	0	1076887552	20	5873
2026-01-11 23:21:19.78	155.57	14.44	-30.1	-33.7	12.4	1.62e-04	0	42	0	1082130432	20	5442
2026-01-11 23:21:22.81	155.90	14.17	-30.2	-34.0	12.1	2.84e-04	0	42	0	1087373312	20	5580
2026-01-11 23:21:25.82	156.23	13.91	-30.1	-33.7	12.3	1.69e-04	0	42	0	1093664768	20	5456
2026-01-11 23:21:28.84	156.54	13.64	-29.9	-33.7	12.8	5.56e-05	0	42	0	1098907648	19	5533
2026-01-11 23:21:31.87	156.86	13.38	-30.2	-34.2	12.0	2.30e-03	0	42	0	1105199104	20	5668
2026-01-11 23:21:34.89	157.17	13.12	-30.3	-34.5	11.7	7.21e-04	0	42	0	1110441984	20	5833
2026-01-11 23:21:37.91	157.47	12.86	-30.1	-33.7	12.3	2.45e-04	0	42	0	1115684864	20	5480
2026-01-11 23:21:40.93	157.77	12.61	-30.1	-33.8	12.2	2.61e-04	0	42	0	1121976320	20	5504
2026-01-11 23:21:43.95	158.06	12.35	-30.1	-33.8	12.1	2.97e-04	0	42	0	1127219200	20	5522
2026-01-11 23:21:46.97	158.35	12.10	-30.0	-33.4	11.6	1.29e-04	0	42	0	1133510656	20	5328
2026-01-11 23:21:49.98	158.64	11.85	-30.0	-33.9	12.4	1.07e-04	0	42	0	1138753536	19	5626
2026-01-11 23:21:53.00	158.92	11.61	-30.1	-33.7	12.2	1.65e-04	0	42	0	1143996416	20	5470
2026-01-11 23:21:56.02	159.19	11.36	-30.1	-33.9	12.0	2.35e-03	0	42	0	1150287872	20	5559
2026-01-11 23:21:59.03	159.46	11.12	-30.0	-33.5	12.2	2.58e-03	0	42	0	1155530752	20	5429
2026-01-11 23:22:02.05	159.73	10.88	-30.0	-33.8	12.0	3.88e-04	0	42	0	1161822208	20	5553
2026-01-11 23:22:05.08	159.99	10.64	-30.1	-33.8	11.9	4.13e-04	0	42	0	1167065088	20	5553
2026-01-11 23:22:08.09	160.25	10.40	-30.3	-34.6	11.4	7.67e-04	0	42	0	1172307968	20	5899
2026-01-11 23:22:11.10	160.50	10.16	-30.3	-34.6	11.4	8.35e-04	0	42	0	1178599424	20	5909
2026-01-11 23:22:14.12	160.75	9.93	-30.5	-35.2	10.9	4.30e-03	0	42	0	1183842304	20	6213
2026-01-11 23:22:17.14	161.00	9.69	-30.3	-34.9	11.1	4.48e-03	0	42	0	1190133760	20	6058
2026-01-11 23:22:20.16	161.24	9.46	-30.5	-35.4	10.7	5.10e-03	0	42	0	1195376640	20	6349
2026-01-11 23:22:23.18	161.48	9.23	-30.4	-35.1	10.9	4.96e-03	0	42	0	1200619520	20	6195
2026-01-11 23:22:26.19	161.71	9.01	-30.4	-34.9	11.0	5.29e-03	0	42	0	1206910976	20	6091
2026-01-11 23:22:29.21	161.95	8.78	-30.5	-35.0	10.5	4.20e-03	0	42	0	1212153856	21	6034
2026-01-11 23:22:32.22	162.18	8.56	-30.6	-35.3	10.3	5.39e-03	0	42	0	1218445312	21	6186
2026-01-11 23:22:35.24	162.40	8.33	-30.6	-35.1	10.4	7.51e-03	0	42	0	1223688192	21	6105
2026-01-11 23:22:38.26	162.62	8.11	-30.6	-35.3	10.3	8.25e-03	0	42	0	1228931072	21	6176
2026-01-11 23:22:41.27	162.84	7.89	-30.7	-35.6	9.9	1.05e-02	0	42	0	1235222528	21	6361
2026-01-11 23:22:44.30	163.06	7.68	-30.6	-35.3	10.1	1.03e-02	0	42	0	1240465408	21	6234
2026-01-11 23:22:47.31	163.27	7.46	-30.5	-35.3	10.1	8.10e-03	0	42	0	1246756864	21	6238
2026-01-11 23:22:50.32	163.48	7.25	-30.5	-35.3	10.1	8.96e-03	0	42	0	1251999744	21	6225
2026-01-11 23:22:53.34	163.69	7.03	-31.9	-46.0	3.8	1.49e+00	0	42	104	1256194048	25	18363

#Closed at: 2026-01-11 23:22:53
#Recorded file [1256 MB]: D:/data/31010_260112_021142.dat