passes_logs/2026/01/11/R2M6_AANII_01/R2M6_AANII_01__20260111_014943_FENGYUN_3D_rec.log

#Pass ID: 20260111_014943_FENGYUN 3D
#Satellite: FENGYUN 3D
#Configuration: FENGYUN 3D
#almurnet v.1.7.20240730
#Start time: 2026-01-11 01:49:45

#Version: 2.2.20231116
#Station: R2M6_AANII_01
#Location: 30.233357 lon 59.946436 lat
#TLE: 1 43010U 17072A   26009.92921666 -.00000228  00000+0 -86059-4 0  9998
#TLE: 2 43010  98.9936 341.6668 0002176 116.7510 243.3888 14.19693142422537

#Time	Az	El	Level	Level2	SNR	BER	BlckErr	Temp	State	Recorded	gain1	gain2
2026-01-11 01:49:45.77	22.09	7.14	-29.0	-32.0	5.5	7.85e-01	0	40	0	0	18	5054
2026-01-11 01:49:48.79	22.20	7.37	-29.3	-32.6	10.1	6.25e-03	0	40	0	5242880	18	5258
2026-01-11 01:49:51.81	22.32	7.60	-28.9	-31.9	10.9	1.85e-03	0	40	0	22020096	17	5117
2026-01-11 01:49:54.82	22.43	7.83	-27.9	-30.0	12.4	4.40e-04	0	40	0	38797312	16	4577
2026-01-11 01:49:57.85	22.55	8.07	-26.6	-28.0	14.0	2.86e-04	0	40	0	56623104	14	4214
2026-01-11 01:50:00.86	22.67	8.30	-26.7	-28.6	14.0	0.00e+00	0	40	0	73400320	13	4501
2026-01-11 01:50:03.89	22.79	8.54	-26.5	-28.1	14.3	2.77e-04	0	40	0	90177536	13	4359
2026-01-11 01:50:06.89	22.91	8.78	-26.3	-28.2	14.5	2.73e-04	0	40	0	106954752	12	4500
2026-01-11 01:50:09.91	23.04	9.02	-26.1	-27.7	14.8	1.90e-04	0	40	0	123731968	12	4359
2026-01-11 01:50:12.93	23.16	9.27	-26.0	-27.6	14.9	2.14e-04	0	40	0	141557760	12	4321
2026-01-11 01:50:15.95	23.29	9.52	-25.9	-27.9	15.1	2.04e-04	0	40	0	158334976	11	4516
2026-01-11 01:50:18.97	23.42	9.77	-25.9	-27.8	15.2	4.47e-04	0	41	0	175112192	11	4472
2026-01-11 01:50:21.98	23.56	10.02	-26.0	-27.5	15.0	3.98e-04	0	41	0	191889408	12	4285
2026-01-11 01:50:25.00	23.69	10.27	-25.9	-27.3	15.1	0.00e+00	0	41	0	208666624	12	4226
2026-01-11 01:50:28.02	23.83	10.53	-26.0	-27.6	15.0	3.15e-04	0	41	0	225443840	12	4308
2026-01-11 01:50:31.03	23.97	10.79	-26.1	-27.8	14.9	3.67e-04	0	41	0	243269632	12	4371
2026-01-11 01:50:34.04	24.11	11.05	-25.9	-27.2	15.3	4.13e-04	0	41	0	260046848	12	4202
2026-01-11 01:50:37.07	24.25	11.32	-25.8	-27.6	15.4	8.07e-04	0	41	0	276824064	11	4410
2026-01-11 01:50:40.09	24.40	11.58	-25.9	-27.8	15.3	9.26e-04	0	41	0	293601280	11	4468
2026-01-11 01:50:43.11	24.54	11.85	-25.4	-27.2	15.9	8.83e-04	0	41	0	310378496	10	4420
2026-01-11 01:50:46.12	24.69	12.13	-25.4	-27.1	16.0	0.00e+00	0	41	0	328204288	10	4402
2026-01-11 01:50:49.14	24.85	12.40	-25.5	-27.3	15.9	0.00e+00	0	41	0	344981504	10	4444
2026-01-11 01:50:52.17	25.01	12.69	-25.5	-26.9	15.8	8.00e-04	0	41	0	361758720	11	4226
2026-01-11 01:50:55.19	25.16	12.97	-25.5	-26.9	15.8	0.00e+00	0	41	0	378535936	11	4237
2026-01-11 01:50:58.21	25.33	13.25	-25.7	-27.4	15.6	0.00e+00	0	41	0	395313152	11	4354
2026-01-11 01:51:01.21	25.49	13.54	-25.5	-26.8	15.9	0.00e+00	0	41	0	413138944	11	4208
2026-01-11 01:51:04.23	25.66	13.83	-25.5	-26.9	15.8	0.00e+00	0	41	0	429916160	11	4234
2026-01-11 01:51:07.24	25.83	14.13	-26.0	-27.5	15.3	0.00e+00	0	41	0	446693376	12	4270
2026-01-11 01:51:10.26	26.00	14.43	-25.3	-26.8	16.2	4.11e-04	0	41	0	463470592	10	4307
2026-01-11 01:51:13.28	26.18	14.73	-25.2	-26.8	16.2	0.00e+00	0	42	0	480247808	10	4299
2026-01-11 01:51:16.30	26.36	15.04	-25.2	-26.7	16.3	0.00e+00	0	41	0	498073600	10	4285
2026-01-11 01:51:19.31	26.54	15.35	-25.4	-27.1	16.1	5.34e-04	0	41	0	514850816	10	4391
2026-01-11 01:51:22.33	26.73	15.66	-24.9	-26.6	16.7	5.09e-04	0	41	0	531628032	9	4369
2026-01-11 01:51:25.35	26.92	15.98	-25.0	-26.7	16.6	0.00e+00	0	41	0	548405248	9	4391
2026-01-11 01:51:28.36	27.12	16.30	-24.9	-26.5	16.7	3.60e-04	0	41	0	565182464	9	4341
2026-01-11 01:51:31.37	27.31	16.62	-24.9	-26.5	16.7	3.31e-04	0	41	0	581959680	9	4355
2026-01-11 01:51:34.40	27.52	16.95	-24.5	-25.6	17.2	0.00e+00	0	41	0	599785472	9	4113
2026-01-11 01:51:37.42	27.73	17.29	-24.5	-25.6	17.2	3.12e-04	0	41	0	616562688	9	4115
2026-01-11 01:51:40.44	27.94	17.63	-24.3	-25.3	17.4	2.53e-04	0	42	0	633339904	9	4039
2026-01-11 01:51:43.45	28.15	17.97	-24.2	-25.6	17.5	0.00e+00	0	41	0	650117120	8	4225
2026-01-11 01:51:46.46	28.37	18.31	-23.9	-25.0	17.8	0.00e+00	0	42	0	666894336	8	4065
2026-01-11 01:51:49.48	28.60	18.67	-24.0	-25.1	17.8	3.04e-04	0	42	0	684720128	8	4084
2026-01-11 01:51:52.50	28.83	19.02	-24.1	-25.2	17.8	0.00e+00	0	42	0	701497344	8	4124
2026-01-11 01:51:55.52	29.07	19.38	-24.1	-25.3	17.7	0.00e+00	0	42	0	718274560	8	4132
2026-01-11 01:51:58.55	29.31	19.75	-23.9	-25.0	17.9	0.00e+00	0	42	0	735051776	8	4056
2026-01-11 01:52:01.57	29.55	20.12	-23.9	-24.8	18.0	0.00e+00	0	42	0	751828992	8	4022
2026-01-11 01:52:04.58	29.81	20.50	-23.8	-25.1	18.1	0.00e+00	0	42	0	769654784	7	4203
2026-01-11 01:52:07.58	30.06	20.88	-23.6	-24.7	18.3	0.00e+00	0	42	0	786432000	7	4110
2026-01-11 01:52:10.60	30.33	21.26	-23.5	-24.5	18.4	0.00e+00	0	42	0	803209216	7	4057
2026-01-11 01:52:13.62	30.60	21.66	-23.2	-24.5	18.7	0.00e+00	0	42	0	819986432	6	4147
2026-01-11 01:52:16.63	30.88	22.05	-23.3	-24.6	18.7	0.00e+00	0	42	0	836763648	6	4176
2026-01-11 01:52:19.65	31.16	22.46	-23.3	-24.7	18.6	0.00e+00	0	42	0	853540864	6	4212
2026-01-11 01:52:22.67	31.45	22.87	-23.4	-24.9	18.5	0.00e+00	0	42	0	870318080	6	4250
2026-01-11 01:52:25.69	31.75	23.28	-23.4	-24.3	18.6	0.00e+00	0	42	0	888143872	7	3994
2026-01-11 01:52:28.70	32.06	23.70	-23.5	-24.5	18.5	0.00e+00	0	42	0	904921088	7	4050
2026-01-11 01:52:31.71	32.37	24.13	-23.3	-24.1	18.7	0.00e+00	0	42	0	921698304	7	3950
2026-01-11 01:52:34.73	32.70	24.56	-23.1	-23.6	19.0	0.00e+00	0	42	0	938475520	7	3825
2026-01-11 01:52:37.75	33.03	25.00	-23.1	-23.6	19.0	0.00e+00	0	42	0	955252736	7	3832
2026-01-11 01:52:40.76	33.37	25.45	-23.2	-24.3	18.9	0.00e+00	0	42	0	973078528	6	4109
2026-01-11 01:52:43.77	33.72	25.90	-22.8	-23.5	19.3	0.00e+00	0	42	0	989855744	6	3917
2026-01-11 01:52:46.79	34.08	26.36	-22.8	-23.5	19.3	0.00e+00	0	42	0	1006632960	6	3913
2026-01-11 01:52:49.81	34.45	26.82	-22.8	-23.7	19.2	0.00e+00	0	42	0	1023410176	6	3955
2026-01-11 01:52:52.82	34.83	27.30	-22.9	-23.8	19.2	0.00e+00	0	42	0	1040187392	6	3994
2026-01-11 01:52:55.84	35.23	27.78	-22.7	-23.3	19.5	0.00e+00	0	42	0	1058013184	6	3864
2026-01-11 01:52:58.87	35.63	28.27	-22.7	-23.3	19.5	0.00e+00	0	42	0	1074790400	6	3859
2026-01-11 01:53:01.89	36.05	28.76	-22.8	-23.5	19.4	0.00e+00	0	42	0	1091567616	6	3920
2026-01-11 01:53:04.91	36.48	29.26	-22.7	-23.4	19.4	0.00e+00	0	42	0	1108344832	6	3884
2026-01-11 01:53:07.93	36.92	29.77	-22.8	-23.5	19.4	9.38e-05	0	42	0	1125122048	6	3906
2026-01-11 01:53:10.94	37.38	30.29	-22.5	-22.9	19.7	0.00e+00	0	42	0	1142947840	6	3769
2026-01-11 01:53:13.96	37.85	30.81	-22.4	-22.7	19.8	0.00e+00	0	42	0	1159725056	6	3737
2026-01-11 01:53:16.98	38.34	31.35	-22.6	-23.1	19.6	3.40e-06	0	42	0	1176502272	6	3817
2026-01-11 01:53:20.00	38.84	31.89	-22.6	-23.2	19.6	0.00e+00	0	42	0	1193279488	6	3848
2026-01-11 01:53:23.02	39.36	32.43	-23.0	-23.9	19.2	0.00e+00	0	42	0	1210056704	6	4014
2026-01-11 01:53:26.03	39.89	32.99	-23.2	-24.4	19.1	2.23e-04	0	42	0	1227882496	6	4123
2026-01-11 01:53:29.05	40.45	33.55	-22.7	-23.4	19.5	1.84e-04	0	42	0	1244659712	6	3877
2026-01-11 01:53:32.07	41.02	34.12	-22.5	-22.9	19.7	2.07e-04	0	42	0	1261436928	6	3778
2026-01-11 01:53:35.09	41.62	34.70	-22.3	-22.5	20.0	0.00e+00	0	42	0	1278214144	6	3676
2026-01-11 01:53:38.10	42.23	35.28	-22.3	-22.9	20.0	0.00e+00	0	42	0	1294991360	5	3883
2026-01-11 01:53:41.12	42.87	35.87	-22.1	-22.5	20.2	0.00e+00	0	42	0	1311768576	5	3793
2026-01-11 01:53:44.13	43.53	36.47	-22.0	-22.4	20.3	0.00e+00	0	42	0	1329594368	5	3767
2026-01-11 01:53:47.15	44.21	37.08	-22.3	-23.0	20.0	0.00e+00	0	42	0	1346371584	5	3906
2026-01-11 01:53:50.17	44.92	37.69	-22.3	-23.0	20.0	0.00e+00	0	42	0	1363148800	5	3902
2026-01-11 01:53:53.19	45.66	38.31	-22.3	-23.0	20.0	0.00e+00	0	42	0	1379926016	5	3904
2026-01-11 01:53:56.21	46.43	38.94	-22.3	-23.1	20.0	0.00e+00	0	42	0	1396703232	5	3916
2026-01-11 01:53:59.23	47.22	39.57	-22.1	-22.6	20.2	0.00e+00	0	42	0	1414529024	5	3821
2026-01-11 01:54:02.25	48.05	40.21	-22.1	-22.5	20.3	0.00e+00	0	42	0	1431306240	5	3795
2026-01-11 01:54:05.26	48.91	40.85	-22.1	-22.6	20.3	0.00e+00	0	42	0	1448083456	5	3801
2026-01-11 01:54:08.27	49.80	41.49	-22.0	-22.4	20.4	0.00e+00	0	42	0	1464860672	5	3756
2026-01-11 01:54:11.28	50.73	42.14	-22.4	-23.8	19.9	0.00e+00	0	42	0	1481637888	4	4207
2026-01-11 01:54:14.29	51.69	42.79	-22.5	-23.4	19.9	0.00e+00	0	42	0	1498415104	5	4000
2026-01-11 01:54:17.31	52.70	43.45	-22.3	-23.1	20.0	0.00e+00	0	42	0	1516240896	5	3916
2026-01-11 01:54:20.32	53.75	44.10	-23.0	-24.1	19.3	0.00e+00	0	42	0	1533018112	6	4042
2026-01-11 01:54:23.35	54.84	44.76	-22.7	-23.4	19.7	0.00e+00	0	42	0	1549795328	6	3884
2026-01-11 01:54:26.37	55.98	45.42	-23.2	-24.4	18.5	0.00e+00	0	42	0	1566572544	6	4122
2026-01-11 01:54:29.40	57.17	46.08	-22.8	-23.5	19.6	0.00e+00	0	42	0	1583349760	6	3910
2026-01-11 01:54:32.41	58.41	46.73	-22.7	-23.3	19.8	6.06e-05	0	42	0	1601175552	6	3863
2026-01-11 01:54:35.43	59.69	47.37	-22.7	-23.2	19.8	0.00e+00	0	42	0	1617952768	6	3843
2026-01-11 01:54:38.45	61.04	48.01	-22.7	-23.3	19.8	0.00e+00	0	42	0	1634729984	6	3863
2026-01-11 01:54:41.47	62.43	48.65	-22.6	-23.1	19.9	0.00e+00	0	42	0	1651507200	6	3812
2026-01-11 01:54:44.49	63.89	49.27	-22.5	-22.9	20.0	3.54e-05	0	42	0	1668284416	6	3777
2026-01-11 01:54:47.51	65.41	49.88	-22.9	-23.8	19.5	6.52e-05	0	42	0	1686110208	6	3978
2026-01-11 01:54:50.53	66.98	50.48	-22.9	-23.8	19.6	3.40e-04	0	42	0	1702887424	6	3966
2026-01-11 01:54:53.54	68.61	51.06	-22.8	-23.6	19.6	5.49e-05	0	42	0	1719664640	6	3936
2026-01-11 01:54:56.56	70.32	51.63	-22.9	-23.7	19.6	0.00e+00	0	42	0	1736441856	6	3962
2026-01-11 01:54:59.58	72.08	52.17	-23.0	-24.1	19.2	0.00e+00	0	42	0	1753219072	6	4068
2026-01-11 01:55:02.60	73.91	52.69	-23.1	-24.3	19.1	0.00e+00	0	42	0	1771044864	6	4116
2026-01-11 01:55:05.62	75.81	53.19	-23.3	-24.6	19.0	0.00e+00	0	42	0	1787822080	6	4189
2026-01-11 01:55:08.64	77.77	53.66	-23.1	-24.3	19.2	0.00e+00	0	42	0	1804599296	6	4107
2026-01-11 01:55:11.65	79.78	54.09	-23.5	-25.0	18.8	0.00e+00	0	42	0	1821376512	6	4291
2026-01-11 01:55:14.67	81.86	54.50	-23.8	-25.2	18.5	0.00e+00	0	42	0	1838153728	7	4218
2026-01-11 01:55:17.68	83.99	54.87	-23.1	-23.7	19.2	0.00e+00	0	42	0	1855979520	7	3848
2026-01-11 01:55:20.71	86.19	55.20	-23.5	-24.5	18.8	0.00e+00	0	42	0	1872756736	7	4070
2026-01-11 01:55:23.73	88.43	55.50	-23.4	-24.2	19.0	0.00e+00	0	42	0	1889533952	7	3980
2026-01-11 01:55:26.75	90.71	55.75	-23.6	-24.7	18.7	0.00e+00	0	42	0	1906311168	7	4107
2026-01-11 01:55:29.76	93.02	55.96	-23.8	-24.6	18.6	0.00e+00	0	42	0	1923088384	8	3968
2026-01-11 01:55:32.78	95.38	56.12	-24.1	-25.3	18.2	0.00e+00	0	42	0	1940914176	8	4139
2026-01-11 01:55:35.79	97.74	56.23	-24.0	-25.1	18.3	0.00e+00	0	42	0	1957691392	8	4091
2026-01-11 01:55:38.80	100.13	56.30	-23.2	-24.0	19.1	0.00e+00	0	42	0	1974468608	7	3921
2026-01-11 01:55:41.81	102.52	56.33	-23.3	-24.1	19.0	0.00e+00	0	42	0	1991245824	7	3971
2026-01-11 01:55:44.83	104.92	56.30	-23.4	-24.4	18.9	0.00e+00	0	42	0	2008023040	7	4044
2026-01-11 01:55:47.86	107.32	56.22	-23.4	-24.4	18.9	0.00e+00	0	42	0	2024800256	7	4021
2026-01-11 01:55:50.88	109.69	56.10	-23.3	-24.1	19.1	0.00e+00	0	42	0	2042626048	7	3960
2026-01-11 01:55:53.90	112.04	55.94	-23.8	-25.1	18.6	0.00e+00	0	42	0	2059403264	7	4216
2026-01-11 01:55:56.92	114.36	55.72	-23.3	-24.1	19.1	0.00e+00	0	42	0	2076180480	7	3948
2026-01-11 01:55:59.94	116.64	55.47	-23.2	-24.0	19.1	0.00e+00	0	42	0	2092957696	7	3923
2026-01-11 01:56:02.95	118.87	55.17	-23.8	-25.3	18.4	0.00e+00	0	42	0	2109734912	7	4267
2026-01-11 01:56:05.97	121.06	54.83	-23.6	-24.7	18.7	0.00e+00	0	42	0	2126512128	7	4112
2026-01-11 01:56:08.99	123.19	54.46	-23.5	-24.6	18.8	0.00e+00	0	42	0	2144337920	7	4089
2026-01-11 01:56:12.01	125.27	54.05	-23.3	-24.2	19.0	0.00e+00	0	42	0	2161115136	7	3969
2026-01-11 01:56:15.03	127.29	53.60	-23.2	-23.9	19.1	0.00e+00	0	42	0	2177892352	7	3905
2026-01-11 01:56:18.03	129.23	53.13	-23.5	-24.7	18.7	0.00e+00	0	42	0	2194669568	7	4105
2026-01-11 01:56:21.05	131.12	52.63	-23.7	-24.9	18.7	0.00e+00	0	42	0	2211446784	7	4145
2026-01-11 01:56:24.08	132.95	52.10	-23.4	-24.3	19.0	0.00e+00	0	42	0	2229272576	7	4002
2026-01-11 01:56:27.09	134.71	51.56	-23.3	-24.2	19.0	0.00e+00	0	42	0	2246049792	7	3981
2026-01-11 01:56:30.11	136.41	50.99	-23.0	-24.0	19.3	0.00e+00	0	42	0	2262827008	6	4053
2026-01-11 01:56:33.13	138.04	50.40	-22.9	-23.8	19.4	0.00e+00	0	42	0	2279604224	6	3995
2026-01-11 01:56:36.15	139.62	49.80	-22.6	-23.2	19.7	0.00e+00	0	42	0	2296381440	6	3836
2026-01-11 01:56:39.17	141.13	49.18	-23.0	-24.0	19.3	0.00e+00	0	42	0	2313158656	6	4043
2026-01-11 01:56:42.19	142.58	48.56	-22.8	-24.1	19.5	0.00e+00	0	42	0	2330984448	5	4170
2026-01-11 01:56:45.22	143.98	47.92	-22.8	-23.6	19.5	0.00e+00	0	42	0	2347761664	6	3962
2026-01-11 01:56:48.24	145.32	47.27	-22.7	-23.3	19.6	0.00e+00	0	42	0	2364538880	6	3874
2026-01-11 01:56:51.27	146.61	46.62	-22.6	-23.2	19.7	0.00e+00	0	42	0	2381316096	6	3853
2026-01-11 01:56:54.29	147.84	45.97	-22.5	-23.0	19.8	0.00e+00	0	42	0	2399141888	6	3805
2026-01-11 01:56:57.31	149.02	45.31	-22.4	-23.2	19.9	0.00e+00	0	42	0	2415919104	5	3969
2026-01-11 01:57:00.33	150.16	44.65	-22.5	-23.6	19.7	0.00e+00	0	42	0	2432696320	5	4055
2026-01-11 01:57:03.35	151.25	43.99	-22.4	-23.3	19.8	0.00e+00	0	42	0	2449473536	5	3994
2026-01-11 01:57:06.37	152.30	43.33	-22.6	-23.8	19.5	0.00e+00	0	42	0	2466250752	5	4121
2026-01-11 01:57:09.38	153.30	42.67	-22.5	-23.5	19.7	0.00e+00	0	42	0	2484076544	5	4032
2026-01-11 01:57:12.40	154.26	42.02	-22.6	-23.6	19.6	0.00e+00	0	42	0	2500853760	5	4069
2026-01-11 01:57:15.41	155.19	41.37	-22.6	-23.7	19.5	0.00e+00	0	42	0	2517630976	5	4096
2026-01-11 01:57:18.43	156.08	40.72	-22.2	-22.9	19.9	0.00e+00	0	42	0	2534408192	5	3901
2026-01-11 01:57:21.45	156.94	40.07	-22.3	-23.0	19.9	1.69e-04	0	42	0	2551185408	5	3923
2026-01-11 01:57:24.46	157.76	39.43	-22.3	-23.2	19.9	0.00e+00	0	42	0	2567962624	5	3957
2026-01-11 01:57:27.48	158.55	38.80	-22.0	-22.9	20.2	3.11e-04	0	42	0	2585788416	4	4006
2026-01-11 01:57:30.50	159.31	38.17	-22.3	-23.5	19.9	5.58e-04	0	42	0	2602565632	4	4148
2026-01-11 01:57:33.51	160.05	37.55	-22.3	-23.6	19.8	6.91e-04	0	42	0	2619342848	4	4193
2026-01-11 01:57:36.54	160.76	36.93	-22.3	-23.5	19.9	6.68e-04	0	42	0	2636120064	4	4143
2026-01-11 01:57:39.55	161.44	36.32	-22.3	-23.6	19.8	6.40e-04	0	42	0	2652897280	4	4181
2026-01-11 01:57:42.57	162.10	35.72	-22.4	-23.7	19.7	0.00e+00	0	42	0	2670723072	4	4215
2026-01-11 01:57:45.59	162.73	35.13	-22.4	-23.7	19.7	1.10e-06	0	42	0	2687500288	4	4213
2026-01-11 01:57:48.60	163.34	34.54	-22.3	-23.5	19.8	4.14e-04	0	42	0	2704277504	4	4161
2026-01-11 01:57:51.62	163.94	33.96	-22.4	-23.7	19.7	0.00e+00	0	42	0	2721054720	4	4205
2026-01-11 01:57:54.64	164.51	33.39	-22.7	-23.9	19.4	1.10e-06	0	42	0	2737831936	5	4133
2026-01-11 01:57:57.65	165.06	32.83	-22.4	-23.2	19.7	2.20e-06	0	42	0	2755657728	5	3978
2026-01-11 01:58:00.68	165.60	32.27	-22.2	-22.8	19.9	0.00e+00	0	42	0	2772434944	5	3884
2026-01-11 01:58:03.70	166.11	31.72	-22.3	-23.0	19.8	0.00e+00	0	42	0	2789212160	5	3925
2026-01-11 01:58:06.72	166.61	31.18	-22.4	-23.4	18.6	0.00e+00	0	42	0	2805989376	5	4009
2026-01-11 01:58:09.74	167.10	30.64	-22.7	-23.8	19.4	0.00e+00	0	42	0	2822766592	5	4125
2026-01-11 01:58:12.76	167.57	30.12	-22.7	-24.0	19.3	0.00e+00	0	42	0	2840592384	5	4153
2026-01-11 01:58:15.77	168.02	29.60	-22.7	-24.0	19.3	1.14e-05	0	42	0	2857369600	5	4154
2026-01-11 01:58:18.78	168.46	29.09	-22.6	-23.6	19.5	0.00e+00	0	42	0	2874146816	5	4068
2026-01-11 01:58:21.80	168.89	28.58	-22.5	-23.4	19.6	0.00e+00	0	42	0	2890924032	5	4012
2026-01-11 01:58:24.82	169.30	28.09	-22.4	-23.4	19.6	3.66e-05	0	42	0	2907701248	5	4002
2026-01-11 01:58:27.84	169.71	27.60	-22.5	-23.5	15.1	1.02e-05	0	42	0	2925527040	5	4041
2026-01-11 01:58:30.86	170.10	27.12	-22.6	-23.6	19.4	0.00e+00	0	42	0	2942304256	5	4074
2026-01-11 01:58:33.88	170.48	26.64	-22.8	-24.1	19.2	5.23e-04	0	42	0	2959081472	5	4199
2026-01-11 01:58:36.90	170.85	26.17	-22.8	-24.2	19.2	1.14e-05	0	42	0	2975858688	5	4205
2026-01-11 01:58:39.91	171.20	25.71	-22.8	-24.1	19.2	9.95e-05	0	42	0	2992635904	5	4193
2026-01-11 01:58:42.93	171.55	25.26	-22.9	-24.3	19.1	3.54e-04	0	42	0	3010461696	5	4228
2026-01-11 01:58:45.95	171.89	24.81	-22.9	-24.4	19.1	3.67e-04	0	43	0	3027238912	5	4258
2026-01-11 01:58:48.97	172.22	24.37	-23.3	-24.7	18.6	1.14e-05	0	42	0	3044016128	6	4228
2026-01-11 01:58:51.99	172.54	23.93	-23.1	-24.3	18.8	3.66e-04	0	42	0	3060793344	6	4138
2026-01-11 01:58:55.01	172.86	23.51	-23.2	-24.4	18.8	3.13e-04	0	42	0	3077570560	6	4160
2026-01-11 01:58:58.03	173.16	23.08	-23.1	-24.4	18.8	0.00e+00	0	42	0	3095396352	6	4139
2026-01-11 01:59:01.04	173.46	22.67	-23.3	-24.7	18.7	2.47e-04	0	42	0	3112173568	6	4210
2026-01-11 01:59:04.05	173.75	22.26	-23.3	-24.7	18.6	3.15e-04	0	42	0	3128950784	6	4235
2026-01-11 01:59:07.07	174.03	21.86	-23.5	-25.1	18.4	0.00e+00	0	42	0	3145728000	6	4339
2026-01-11 01:59:10.09	174.31	21.46	-23.8	-24.7	18.2	0.00e+00	0	42	0	3162505216	8	3987
2026-01-11 01:59:13.11	174.57	21.06	-23.5	-24.7	18.4	0.00e+00	0	42	0	3179282432	7	4107
2026-01-11 01:59:16.14	174.84	20.67	-23.6	-24.8	18.3	0.00e+00	0	42	0	3197108224	7	4141
2026-01-11 01:59:19.16	175.09	20.29	-23.8	-25.3	18.0	0.00e+00	0	42	0	3213885440	7	4265
2026-01-11 01:59:22.18	175.34	19.91	-23.9	-25.5	17.9	0.00e+00	0	42	0	3230662656	7	4331
2026-01-11 01:59:25.20	175.59	19.54	-24.2	-25.6	17.3	0.00e+00	0	42	0	3247439872	8	4224
2026-01-11 01:59:28.22	175.83	19.17	-24.2	-25.7	17.6	0.00e+00	0	42	0	3264217088	8	4254
2026-01-11 01:59:31.23	176.06	18.81	-24.4	-25.6	17.3	1.64e-04	0	42	0	3282042880	9	4129
2026-01-11 01:59:34.24	176.29	18.46	-24.3	-25.4	17.5	0.00e+00	0	42	0	3298820096	9	4067
2026-01-11 01:59:37.26	176.51	18.11	-24.4	-25.5	17.4	0.00e+00	0	42	0	3315597312	9	4100
2026-01-11 01:59:40.28	176.73	17.76	-24.4	-26.0	17.4	2.44e-04	0	42	0	3332374528	8	4341
2026-01-11 01:59:43.31	176.95	17.41	-24.7	-26.1	17.1	1.77e-04	0	42	0	3349151744	9	4255
2026-01-11 01:59:46.31	177.15	17.08	-24.6	-25.9	17.0	1.89e-04	0	42	0	3366977536	9	4211
2026-01-11 01:59:49.33	177.36	16.74	-24.6	-25.9	17.1	1.84e-04	0	42	0	3383754752	9	4204
2026-01-11 01:59:52.35	177.56	16.41	-24.5	-25.9	17.2	2.02e-04	0	42	0	3400531968	9	4184
2026-01-11 01:59:55.37	177.76	16.08	-24.7	-26.1	17.0	0.00e+00	0	42	0	3417309184	9	4239
2026-01-11 01:59:58.40	177.95	15.76	-24.8	-26.4	16.8	0.00e+00	0	42	0	3434086400	9	4336
2026-01-11 02:00:01.42	178.14	15.44	-24.9	-26.6	16.8	2.63e-04	0	42	0	3451912192	9	4368
2026-01-11 02:00:04.43	178.32	15.13	-25.2	-26.7	16.4	0.00e+00	0	42	0	3468689408	10	4300
2026-01-11 02:00:07.46	178.50	14.82	-25.0	-26.4	16.6	0.00e+00	0	42	0	3485466624	10	4203
2026-01-11 02:00:10.48	178.68	14.51	-25.1	-26.6	16.5	0.00e+00	0	42	0	3502243840	10	4278
2026-01-11 02:00:13.50	178.86	14.21	-25.4	-27.1	16.2	0.00e+00	0	42	0	3519021056	10	4414
2026-01-11 02:00:16.52	179.03	13.91	-25.3	-27.0	16.3	0.00e+00	0	42	0	3536846848	10	4373
2026-01-11 02:00:19.55	179.20	13.61	-25.4	-27.2	16.1	0.00e+00	0	42	0	3553624064	10	4441
2026-01-11 02:00:22.57	179.36	13.31	-25.6	-27.1	15.9	0.00e+00	0	42	0	3570401280	11	4277
2026-01-11 02:00:25.59	179.52	13.03	-25.4	-26.7	16.1	0.00e+00	0	42	0	3587178496	11	4176
2026-01-11 02:00:28.60	179.68	12.74	-25.5	-26.9	16.0	0.00e+00	0	42	0	3603955712	11	4243
2026-01-11 02:00:31.62	179.84	12.46	-25.5	-26.9	16.0	0.00e+00	0	42	0	3621781504	11	4228
2026-01-11 02:00:34.63	179.99	12.18	-25.5	-26.9	16.0	0.00e+00	0	42	0	3638558720	11	4228
2026-01-11 02:00:37.66	180.14	11.90	-25.6	-27.1	15.9	1.10e-06	0	42	0	3655335936	11	4281
2026-01-11 02:00:40.67	180.29	11.62	-25.5	-27.0	15.9	0.00e+00	0	42	0	3672113152	11	4255
2026-01-11 02:00:43.69	180.44	11.35	-25.8	-27.6	15.5	0.00e+00	0	42	0	3688890368	11	4433
2026-01-11 02:00:46.71	180.58	11.08	-25.9	-27.7	15.4	9.10e-06	0	42	0	3706716160	11	4471
2026-01-11 02:00:49.73	180.72	10.82	-25.9	-27.9	15.3	5.70e-06	0	42	0	3723493376	11	4516
2026-01-11 02:00:52.74	180.86	10.56	-25.9	-27.4	15.2	0.00e+00	0	42	0	3740270592	12	4259
2026-01-11 02:00:55.76	180.99	10.30	-26.0	-27.6	15.1	1.02e-05	0	42	0	3757047808	12	4325
2026-01-11 02:00:58.78	181.13	10.04	-26.1	-27.8	15.0	1.02e-05	0	42	0	3773825024	12	4387
2026-01-11 02:01:01.80	181.26	9.78	-26.2	-28.1	14.8	0.00e+00	0	42	0	3790602240	12	4475
2026-01-11 02:01:04.82	181.39	9.53	-26.2	-28.0	14.8	0.00e+00	0	42	0	3808428032	12	4432
2026-01-11 02:01:07.84	181.52	9.28	-26.2	-28.1	14.8	4.50e-06	0	42	0	3825205248	12	4454
2026-01-11 02:01:10.86	181.64	9.03	-26.3	-28.3	14.7	0.00e+00	0	42	0	3841982464	12	4512
2026-01-11 02:01:13.89	181.76	8.79	-26.3	-28.3	14.6	1.10e-06	0	42	0	3858759680	12	4516
2026-01-11 02:01:16.90	181.89	8.54	-26.5	-28.3	14.3	0.00e+00	0	42	0	3875536896	13	4406
2026-01-11 02:01:19.91	182.01	8.30	-26.5	-28.3	14.3	1.03e-03	0	42	0	3893362688	13	4408
2026-01-11 02:01:22.93	182.12	8.06	-26.7	-28.6	14.1	0.00e+00	0	42	0	3910139904	13	4506
2026-01-11 02:01:25.95	182.24	7.83	-26.5	-28.6	14.3	0.00e+00	0	42	0	3926917120	12	4633
2026-01-11 02:01:28.98	182.35	7.59	-26.6	-28.4	14.1	1.06e-03	0	42	0	3943694336	13	4455
2026-01-11 02:01:32.00	182.47	7.36	-26.8	-29.0	13.8	1.01e-03	0	42	0	3960471552	13	4617
2026-01-11 02:01:35.02	182.58	7.13	-27.2	-29.4	13.3	1.21e-03	0	42	0	3978297344	14	4632
2026-01-11 02:01:38.04	182.69	6.90	-33.2	-44.4	3.8	8.46e-01	0	42	104	3979345920	26	13193

#Closed at: 2026-01-11 02:01:38
#Recorded file [3979 MB]: D:/data/31010_260111_044947.dat