passes_logs/2026/01/11/R2M6_AANII_01/R2M6_AANII_01__20260111_004957_SUOMI_NPP_rec.log

#Pass ID: 20260111_004957_SUOMI NPP
#Satellite: SUOMI NPP
#Configuration: NPP
#almurnet v.1.7.20240730
#Start time: 2026-01-11 00:49:57

#Version: 2.2.20231116
#Station: R2M6_AANII_01
#Location: 30.233357 lon 59.946436 lat
#TLE: 1 37849U 11061A   26009.81756760  .00000113  00000+0  74747-4 0  9994
#TLE: 2 37849  98.7806 311.9110 0002525  72.5604 287.5848 14.19524046735974

#Time	Az	El	Level	Level2	SNR	BER	BlckErr	Temp	State	Recorded	gain1	gain2
2026-01-11 00:49:57.29	16.15	6.96	-31.9	-38.2	4.6	1.37e+00	0	39	0	0	23	7419
2026-01-11 00:50:00.30	16.10	7.19	-32.1	-38.4	5.8	3.95e-01	0	40	0	1048576	24	7436
2026-01-11 00:50:03.31	16.04	7.43	-32.0	-37.7	6.3	3.44e-01	0	40	0	7340032	24	6970
2026-01-11 00:50:06.33	15.98	7.66	-31.9	-36.8	7.0	2.23e-01	0	40	0	12582912	24	6356
2026-01-11 00:50:09.34	15.92	7.90	-31.0	-34.7	8.7	4.88e-02	0	40	0	18874368	23	5536
2026-01-11 00:50:12.35	15.86	8.14	-30.9	-34.4	9.4	8.56e-03	0	40	0	24117248	21	5365
2026-01-11 00:50:15.36	15.80	8.38	-30.6	-33.3	10.5	3.15e-03	0	40	0	29360128	21	4912
2026-01-11 00:50:18.39	15.74	8.62	-30.3	-32.8	11.7	6.59e-04	0	40	0	35651584	20	4806
2026-01-11 00:50:21.40	15.67	8.87	-30.4	-32.9	11.6	6.11e-04	0	40	0	40894464	20	4825
2026-01-11 00:50:24.41	15.61	9.12	-30.4	-33.2	11.4	3.99e-03	0	40	0	46137344	20	4930
2026-01-11 00:50:27.42	15.54	9.37	-30.5	-32.8	11.4	4.36e-03	0	40	0	52428800	21	4697
2026-01-11 00:50:30.43	15.47	9.62	-30.4	-32.9	11.6	3.66e-03	0	40	0	57671680	20	4834
2026-01-11 00:50:33.44	15.40	9.88	-30.4	-32.9	11.7	3.34e-03	0	40	0	63963136	20	4830
2026-01-11 00:50:36.45	15.33	10.14	-30.6	-33.1	11.2	1.48e-03	0	41	0	69206016	21	4816
2026-01-11 00:50:39.47	15.26	10.40	-30.5	-32.8	11.5	6.19e-04	0	40	0	74448896	21	4688
2026-01-11 00:50:42.48	15.19	10.66	-30.7	-33.5	11.0	4.86e-03	0	41	0	80740352	21	4952
2026-01-11 00:50:45.50	15.11	10.93	-30.9	-33.9	10.7	6.31e-03	0	41	0	85983232	21	5097
2026-01-11 00:50:48.52	15.03	11.20	-30.8	-33.5	11.0	5.38e-03	0	41	0	92274688	21	4959
2026-01-11 00:50:51.54	14.96	11.47	-30.7	-33.2	11.2	5.04e-03	0	41	0	97517568	21	4818
2026-01-11 00:50:54.56	14.88	11.75	-29.9	-31.6	12.7	2.98e-03	0	41	0	102760448	20	4345
2026-01-11 00:50:57.57	14.79	12.03	-29.9	-31.9	13.0	2.77e-03	0	41	0	109051904	19	4529
2026-01-11 00:51:00.58	14.71	12.31	-29.7	-31.2	13.4	1.75e-05	0	41	0	114294784	19	4306
2026-01-11 00:51:03.60	14.62	12.60	-29.7	-31.3	13.4	1.67e-05	0	41	0	120586240	19	4314
2026-01-11 00:51:06.61	14.53	12.88	-29.5	-30.8	13.7	2.66e-03	0	41	0	125829120	19	4160
2026-01-11 00:51:09.63	14.44	13.18	-29.4	-31.1	13.9	2.34e-03	0	41	0	131072000	18	4354
2026-01-11 00:51:12.64	14.35	13.47	-29.4	-31.0	14.0	2.60e-03	0	41	0	137363456	18	4332
2026-01-11 00:51:15.66	14.26	13.77	-29.3	-30.8	14.1	2.20e-06	0	41	0	142606336	18	4256
2026-01-11 00:51:18.68	14.16	14.07	-29.4	-31.0	14.0	3.80e-06	0	41	0	147849216	18	4327
2026-01-11 00:51:21.69	14.06	14.38	-29.3	-30.6	14.2	0.00e+00	0	41	0	154140672	18	4208
2026-01-11 00:51:24.71	13.96	14.69	-29.2	-30.4	14.4	0.00e+00	0	41	0	159383552	18	4140
2026-01-11 00:51:27.73	13.86	15.01	-29.2	-30.5	14.3	0.00e+00	0	41	0	165675008	18	4179
2026-01-11 00:51:30.75	13.75	15.32	-29.2	-30.5	14.4	0.00e+00	0	41	0	170917888	18	4160
2026-01-11 00:51:33.77	13.64	15.65	-29.4	-31.0	14.1	2.20e-06	0	41	0	176160768	18	4309
2026-01-11 00:51:36.78	13.53	15.97	-29.8	-31.2	13.3	2.89e-05	0	41	0	182452224	20	4187
2026-01-11 00:51:39.79	13.42	16.30	-29.7	-31.3	12.6	1.06e-05	0	41	0	187695104	19	4299
2026-01-11 00:51:42.81	13.30	16.64	-29.7	-31.2	13.6	7.60e-06	0	41	0	193986560	19	4288
2026-01-11 00:51:45.82	13.18	16.98	-29.5	-30.8	13.8	0.00e+00	0	41	0	199229440	19	4155
2026-01-11 00:51:48.84	13.06	17.32	-29.2	-30.4	14.5	7.00e-07	0	42	0	204472320	18	4128
2026-01-11 00:51:51.86	12.94	17.67	-29.1	-30.0	14.8	1.50e-06	0	41	0	210763776	18	4021
2026-01-11 00:51:54.88	12.81	18.03	-29.2	-30.3	14.6	2.54e-03	0	41	0	216006656	18	4086
2026-01-11 00:51:57.88	12.68	18.39	-29.1	-30.2	14.7	2.88e-03	0	42	0	222298112	18	4056
2026-01-11 00:52:00.90	12.54	18.75	-29.0	-29.9	14.9	2.60e-03	0	41	0	227540992	18	3978
2026-01-11 00:52:03.91	12.40	19.12	-29.0	-30.3	14.9	2.90e-03	0	41	0	232783872	17	4199
2026-01-11 00:52:06.93	12.26	19.50	-29.4	-30.7	14.4	7.00e-07	0	41	0	239075328	18	4224
2026-01-11 00:52:09.94	12.11	19.88	-28.9	-30.0	15.2	0.00e+00	0	41	0	244318208	17	4102
2026-01-11 00:52:12.97	11.96	20.26	-29.0	-29.8	14.9	2.44e-03	0	42	0	250609664	18	3963
2026-01-11 00:52:16.00	11.80	20.66	-28.8	-29.8	15.3	2.48e-03	0	42	0	255852544	17	4053
2026-01-11 00:52:19.01	11.65	21.06	-28.7	-29.5	15.4	2.32e-03	0	42	0	261095424	17	3974
2026-01-11 00:52:22.01	11.48	21.46	-28.6	-29.3	15.6	2.57e-03	0	42	0	267386880	17	3918
2026-01-11 00:52:25.04	11.31	21.87	-28.8	-29.8	15.3	2.42e-03	0	42	0	272629760	17	4032
2026-01-11 00:52:28.05	11.14	22.29	-28.8	-29.9	15.3	1.60e-04	0	42	0	278921216	17	4061
2026-01-11 00:52:31.06	10.96	22.71	-28.9	-30.0	15.2	0.00e+00	0	41	0	284164096	17	4100
2026-01-11 00:52:34.08	10.78	23.14	-29.1	-29.9	15.0	0.00e+00	0	42	0	289406976	18	3975
2026-01-11 00:52:37.10	10.59	23.58	-28.7	-29.6	15.4	0.00e+00	0	42	0	295698432	17	3975
2026-01-11 00:52:40.11	10.39	24.02	-28.8	-29.9	15.2	2.50e-03	0	42	0	300941312	17	4075
2026-01-11 00:52:43.14	10.19	24.48	-29.3	-30.5	14.7	2.48e-03	0	42	0	307232768	18	4142
2026-01-11 00:52:46.15	9.99	24.94	-29.8	-31.4	13.8	1.52e-04	0	42	0	312475648	19	4310
2026-01-11 00:52:49.17	9.77	25.40	-30.0	-31.3	13.5	2.28e-05	0	42	0	317718528	20	4205
2026-01-11 00:52:52.19	9.55	25.88	-29.9	-31.2	13.5	2.21e-05	0	42	0	324009984	20	4160
2026-01-11 00:52:55.20	9.32	26.36	-30.2	-31.8	13.2	1.83e-05	0	42	0	329252864	20	4363
2026-01-11 00:52:58.22	9.09	26.85	-30.4	-32.1	12.7	6.63e-05	0	42	0	334495744	21	4352
2026-01-11 00:53:01.23	8.85	27.35	-30.9	-33.4	12.0	2.10e-04	0	42	0	340787200	21	4804
2026-01-11 00:53:04.24	8.60	27.86	-30.7	-32.7	12.2	2.27e-04	0	42	0	346030080	21	4572
2026-01-11 00:53:07.26	8.34	28.38	-30.7	-32.9	12.1	2.77e-04	0	42	0	352321536	21	4622
2026-01-11 00:53:10.27	8.07	28.90	-30.6	-32.6	12.4	6.02e-05	0	42	0	357564416	21	4510
2026-01-11 00:53:13.30	7.79	29.44	-30.9	-32.9	11.8	3.61e-04	0	42	0	362807296	22	4525
2026-01-11 00:53:16.31	7.50	29.99	-31.2	-33.7	11.4	1.57e-03	0	42	0	369098752	22	4800
2026-01-11 00:53:19.32	7.20	30.54	-31.1	-33.5	11.5	8.12e-04	0	42	0	374341632	22	4744
2026-01-11 00:53:22.33	6.90	31.11	-31.1	-33.4	11.6	3.67e-04	0	42	0	380633088	22	4695
2026-01-11 00:53:25.35	6.57	31.68	-31.5	-34.2	10.7	1.19e-03	0	42	0	385875968	23	4905
2026-01-11 00:53:28.37	6.24	32.27	-31.7	-34.7	10.3	8.47e-03	0	42	0	391118848	23	5109
2026-01-11 00:53:31.39	5.90	32.87	-31.5	-34.0	10.7	4.38e-03	0	42	0	397410304	23	4843
2026-01-11 00:53:34.41	5.54	33.48	-31.6	-34.4	10.6	4.24e-03	0	42	0	402653184	23	4963
2026-01-11 00:53:37.42	5.16	34.09	-32.0	-35.4	9.4	1.63e-02	0	42	0	408944640	24	5324
2026-01-11 00:53:40.43	4.78	34.72	-32.2	-36.3	8.7	2.23e-02	0	42	0	414187520	24	5726
2026-01-11 00:53:43.46	4.37	35.36	-32.2	-36.2	9.0	1.45e-02	0	42	0	419430400	24	5722
2026-01-11 00:53:46.47	3.95	36.02	-32.7	-38.1	7.0	7.23e-02	0	42	0	425721856	25	6644
2026-01-11 00:53:49.49	3.51	36.68	-32.8	-38.3	6.8	2.02e-01	0	42	0	430964736	25	6778
2026-01-11 00:53:52.50	3.06	37.35	-32.3	-36.2	8.4	7.03e-02	0	42	0	437256192	25	5621
2026-01-11 00:53:55.51	2.58	38.04	-31.8	-34.2	10.0	1.77e-02	0	42	0	442499072	25	4731
2026-01-11 00:53:58.52	2.08	38.74	-31.8	-35.0	10.2	5.92e-03	0	42	0	447741952	23	5221
2026-01-11 00:54:01.54	1.56	39.45	-32.1	-35.6	9.3	1.71e-02	0	42	0	454033408	24	5428
2026-01-11 00:54:04.56	1.02	40.18	-32.2	-36.3	8.8	3.70e-02	0	42	0	459276288	24	5748
2026-01-11 00:54:07.56	0.45	40.91	-31.6	-34.5	10.7	2.57e-03	0	42	0	465567744	23	5009
2026-01-11 00:54:10.59	359.85	41.66	-30.8	-32.5	12.3	2.66e-04	0	42	0	470810624	22	4382
2026-01-11 00:54:13.61	359.22	42.42	-30.8	-32.5	12.4	5.24e-04	0	42	0	476053504	22	4364
2026-01-11 00:54:16.63	358.56	43.19	-30.4	-32.4	13.0	1.98e-05	0	42	0	482344960	20	4504
2026-01-11 00:54:19.65	357.87	43.97	-30.3	-32.0	13.3	9.90e-06	0	42	0	487587840	20	4370
2026-01-11 00:54:22.67	357.14	44.77	-29.6	-30.1	14.5	7.00e-07	0	42	0	493879296	20	3819
2026-01-11 00:54:25.69	356.38	45.57	-29.7	-30.5	14.4	0.00e+00	0	42	0	499122176	20	3923
2026-01-11 00:54:28.71	355.57	46.39	-30.2	-31.7	13.6	1.52e-05	0	42	0	504365056	20	4304
2026-01-11 00:54:31.72	354.72	47.21	-29.8	-31.3	13.7	7.00e-07	0	42	0	510656512	19	4237
2026-01-11 00:54:34.74	353.83	48.04	-30.0	-31.3	13.8	3.80e-06	0	42	0	515899392	20	4163
2026-01-11 00:54:37.76	352.88	48.88	-29.7	-30.9	14.4	1.77e-03	0	42	0	522190848	19	4135
2026-01-11 00:54:40.78	351.88	49.73	-29.5	-30.3	14.9	1.79e-03	0	42	0	527433728	19	3953
2026-01-11 00:54:43.79	350.82	50.58	-29.1	-29.9	15.4	1.96e-03	0	42	0	532676608	18	3930
2026-01-11 00:54:46.81	349.70	51.44	-29.2	-30.1	15.1	0.00e+00	0	42	0	538968064	18	4005
2026-01-11 00:54:49.83	348.51	52.31	-29.4	-30.7	15.0	0.00e+00	0	42	0	544210944	18	4162
2026-01-11 00:54:52.83	347.26	53.17	-30.6	-32.3	12.8	3.89e-05	0	42	0	549453824	21	4398
2026-01-11 00:54:55.85	345.92	54.03	-30.3	-31.4	13.5	2.08e-03	0	42	0	555745280	21	4093
2026-01-11 00:54:58.87	344.49	54.89	-30.2	-31.8	13.6	2.27e-03	0	42	0	560988160	20	4298
2026-01-11 00:55:01.89	342.98	55.75	-30.4	-32.3	13.4	1.84e-03	0	42	0	567279616	20	4471
2026-01-11 00:55:04.90	341.38	56.60	-30.5	-32.0	13.1	2.32e-03	0	42	0	572522496	21	4268
2026-01-11 00:55:07.93	339.66	57.44	-31.0	-33.0	12.1	2.33e-03	0	42	0	577765376	22	4524
2026-01-11 00:55:10.94	337.85	58.27	-30.2	-31.1	13.8	1.48e-03	0	42	0	584056832	21	4004
2026-01-11 00:55:13.95	335.92	59.07	-29.8	-31.2	14.4	3.00e-06	0	42	0	589299712	19	4202
2026-01-11 00:55:16.97	333.87	59.86	-29.7	-30.4	14.5	9.76e-05	0	42	0	595591168	20	3897
2026-01-11 00:55:19.99	331.68	60.62	-29.3	-30.3	15.2	4.99e-04	0	42	0	600834048	18	4047
2026-01-11 00:55:23.01	329.37	61.35	-29.2	-30.0	15.4	1.31e-03	0	42	0	606076928	18	3966
2026-01-11 00:55:26.02	326.92	62.04	-29.4	-30.5	15.0	1.34e-03	0	42	0	612368384	18	4112
2026-01-11 00:55:29.03	324.33	62.70	-28.9	-29.4	15.7	7.00e-07	0	42	0	617611264	18	3802
2026-01-11 00:55:32.05	321.60	63.30	-29.4	-30.1	15.0	4.50e-06	0	42	0	623902720	19	3916
2026-01-11 00:55:35.06	318.74	63.86	-29.3	-30.5	15.1	0.00e+00	0	42	0	629145600	18	4100
2026-01-11 00:55:38.08	315.73	64.36	-29.1	-30.0	15.4	0.00e+00	0	42	0	634388480	18	3971
2026-01-11 00:55:41.10	312.60	64.79	-28.7	-28.9	16.1	0.00e+00	0	42	0	640679936	18	3675
2026-01-11 00:55:44.12	309.36	65.16	-28.5	-28.9	16.3	0.00e+00	0	42	0	645922816	17	3775
2026-01-11 00:55:47.14	306.01	65.45	-29.3	-29.9	15.3	0.00e+00	0	42	0	652214272	19	3840
2026-01-11 00:55:50.16	302.59	65.67	-29.2	-29.6	15.3	0.00e+00	0	42	0	657457152	19	3783
2026-01-11 00:55:53.18	299.12	65.81	-28.7	-28.8	16.1	0.00e+00	0	42	0	662700032	18	3665
2026-01-11 00:55:56.20	295.61	65.86	-27.8	-27.7	17.2	0.00e+00	0	42	0	668991488	16	3583
2026-01-11 00:55:59.22	292.09	65.84	-28.7	-29.5	15.9	0.00e+00	0	42	0	674234368	17	3937
2026-01-11 00:56:02.24	288.60	65.73	-28.9	-29.8	15.9	0.00e+00	0	42	0	680525824	17	4025
2026-01-11 00:56:05.25	285.17	65.54	-27.8	-28.4	17.0	0.00e+00	0	42	0	685768704	15	3855
2026-01-11 00:56:08.27	281.80	65.27	-28.5	-28.9	16.3	2.13e-03	0	42	0	691011584	17	3785
2026-01-11 00:56:11.28	278.52	64.93	-28.8	-29.7	15.8	2.27e-03	0	42	0	697303040	17	3996
2026-01-11 00:56:14.30	275.35	64.52	-28.5	-28.9	16.2	2.30e-03	0	42	0	702545920	17	3778
2026-01-11 00:56:17.32	272.29	64.04	-28.0	-28.4	16.9	2.43e-03	0	42	0	708837376	16	3739
2026-01-11 00:56:20.34	269.37	63.51	-27.1	-26.8	17.9	2.16e-03	0	42	0	714080256	15	3462
2026-01-11 00:56:23.36	266.58	62.92	-28.1	-28.4	16.8	0.00e+00	0	42	0	719323136	16	3740
2026-01-11 00:56:26.37	263.95	62.28	-28.5	-29.4	16.4	2.16e-03	0	42	0	725614592	16	3997
2026-01-11 00:56:29.38	261.45	61.60	-30.6	-32.3	12.9	2.12e-03	0	42	0	730857472	21	4404
2026-01-11 00:56:32.40	259.08	60.88	-29.6	-30.5	14.8	2.34e-03	0	42	0	737148928	19	4009
2026-01-11 00:56:35.41	256.85	60.13	-30.5	-32.0	13.2	1.90e-03	0	42	0	742391808	21	4275
2026-01-11 00:56:38.43	254.75	59.35	-31.1	-33.2	11.9	2.91e-03	0	42	0	747634688	22	4572
2026-01-11 00:56:41.45	252.77	58.54	-29.6	-30.7	14.6	6.30e-04	0	42	0	753926144	19	4079
2026-01-11 00:56:44.47	250.91	57.72	-31.0	-33.0	12.1	3.73e-04	0	42	0	759169024	22	4544
2026-01-11 00:56:47.49	249.16	56.88	-31.0	-33.1	11.9	4.88e-04	0	42	0	765460480	22	4560
2026-01-11 00:56:50.51	247.51	56.03	-31.2	-33.7	11.6	1.13e-03	0	42	0	770703360	22	4793
2026-01-11 00:56:53.52	245.97	55.18	-30.7	-32.6	12.8	2.92e-03	0	42	0	775946240	21	4489
2026-01-11 00:56:56.53	244.52	54.32	-30.2	-31.2	13.5	2.85e-03	0	42	0	782237696	21	4050
2026-01-11 00:56:59.53	243.16	53.46	-29.9	-31.4	14.1	0.00e+00	0	42	0	787480576	19	4272
2026-01-11 00:57:02.56	241.86	52.59	-30.0	-31.4	13.8	5.30e-06	0	42	0	792723456	20	4191
2026-01-11 00:57:05.57	240.65	51.72	-30.2	-31.9	13.4	5.30e-06	0	42	0	799014912	20	4348
2026-01-11 00:57:08.59	239.50	50.86	-28.7	-28.8	15.9	7.00e-07	0	42	0	804257792	18	3667
2026-01-11 00:57:11.60	238.42	50.00	-29.4	-30.3	14.8	0.00e+00	0	42	0	810549248	19	3958
2026-01-11 00:57:14.61	237.40	49.15	-30.8	-33.0	12.3	8.46e-05	0	42	0	815792128	21	4632
2026-01-11 00:57:17.64	236.43	48.30	-31.7	-34.6	10.4	3.88e-03	0	42	0	821035008	23	5060
2026-01-11 00:57:20.66	235.51	47.46	-30.4	-31.9	13.0	3.43e-05	0	42	0	827326464	21	4277
2026-01-11 00:57:23.67	234.65	46.63	-29.5	-30.0	14.6	0.00e+00	0	42	0	832569344	20	3803
2026-01-11 00:57:26.68	233.83	45.82	-31.0	-33.3	11.7	1.73e-04	0	42	0	838860800	22	4659
2026-01-11 00:57:29.69	233.05	45.01	-31.3	-34.1	11.2	1.02e-03	0	42	0	844103680	22	4947
2026-01-11 00:57:32.71	232.31	44.21	-31.3	-34.0	11.1	1.50e-03	0	42	0	849346560	22	4929
2026-01-11 00:57:35.72	231.60	43.42	-31.3	-33.5	11.2	1.58e-03	0	42	0	855638016	23	4634
2026-01-11 00:57:38.74	230.93	42.64	-31.0	-33.3	11.5	5.55e-04	0	42	0	860880896	22	4648
2026-01-11 00:57:41.75	230.29	41.88	-31.5	-34.6	10.8	1.91e-03	0	42	0	867172352	22	5179
2026-01-11 00:57:44.76	229.68	41.12	-32.4	-37.2	8.0	5.50e-02	0	42	0	872415232	24	6232
2026-01-11 00:57:47.77	229.10	40.38	-32.7	-37.8	7.2	1.52e-01	0	42	0	877658112	25	6531
2026-01-11 00:57:50.78	228.55	39.66	-32.3	-36.5	8.5	4.43e-02	0	42	0	883949568	24	5887
2026-01-11 00:57:53.79	228.02	38.94	-32.3	-36.8	8.3	2.85e-02	0	42	0	889192448	24	6010
2026-01-11 00:57:56.80	227.51	38.23	-32.3	-36.6	8.5	4.38e-02	0	42	0	894435328	24	5917
2026-01-11 00:57:59.83	227.02	37.54	-32.7	-38.0	6.9	1.92e-01	0	42	0	900726784	25	6673
2026-01-11 00:58:02.85	226.56	36.85	-32.7	-38.1	6.9	2.00e-01	0	42	0	905969664	25	6684
2026-01-11 00:58:05.87	226.11	36.18	-32.3	-36.2	8.3	6.35e-02	0	42	0	912261120	25	5644
2026-01-11 00:58:08.89	225.68	35.52	-31.3	-33.5	11.0	4.53e-03	0	42	0	917504000	23	4659
2026-01-11 00:58:11.90	225.27	34.88	-31.1	-33.7	11.3	2.56e-03	0	42	0	922746880	22	4806
2026-01-11 00:58:14.92	224.87	34.24	-30.2	-31.4	13.2	2.89e-05	0	42	0	929038336	21	4121
2026-01-11 00:58:17.95	224.49	33.61	-30.4	-32.5	12.8	5.03e-05	0	42	0	934281216	20	4556
2026-01-11 00:58:20.97	224.13	33.00	-31.6	-34.7	10.1	3.01e-03	0	42	0	940572672	23	5132
2026-01-11 00:58:23.98	223.78	32.40	-31.2	-34.0	11.2	1.49e-03	0	42	0	945815552	22	4923
2026-01-11 00:58:27.00	223.44	31.81	-32.0	-35.7	9.1	1.97e-02	0	42	0	951058432	24	5509
2026-01-11 00:58:30.01	223.11	31.23	-30.2	-31.5	13.0	4.52e-04	0	42	0	957349888	21	4163
2026-01-11 00:58:33.03	222.80	30.65	-29.7	-31.0	14.1	2.01e-04	0	42	0	962592768	19	4190
2026-01-11 00:58:36.04	222.49	30.09	-30.5	-32.4	12.5	6.79e-05	0	42	0	968884224	21	4455
2026-01-11 00:58:39.05	222.20	29.54	-30.2	-31.9	13.1	3.50e-05	0	42	0	974127104	20	4401
2026-01-11 00:58:42.06	221.92	29.00	-31.1	-33.6	11.3	9.22e-04	0	42	0	979369984	22	4787
2026-01-11 00:58:45.09	221.64	28.47	-32.0	-35.7	8.8	1.84e-02	0	42	0	985661440	24	5538
2026-01-11 00:58:48.10	221.38	27.95	-31.4	-34.5	10.2	6.38e-03	0	42	0	990904320	22	5172
2026-01-11 00:58:51.11	221.12	27.44	-30.8	-33.3	11.8	2.07e-03	0	42	0	997195776	21	4781
2026-01-11 00:58:54.14	220.88	26.93	-30.4	-31.9	12.7	5.50e-04	0	42	0	1002438656	21	4308
2026-01-11 00:58:57.15	220.64	26.43	-29.8	-31.0	13.7	1.44e-05	0	42	0	1007681536	20	4110
2026-01-11 00:59:00.17	220.40	25.94	-29.9	-31.3	13.4	8.30e-06	0	42	0	1013972992	20	4207
2026-01-11 00:59:03.19	220.18	25.46	-30.2	-32.2	12.9	1.44e-05	0	42	0	1019215872	20	4487
2026-01-11 00:59:06.21	219.96	24.99	-30.2	-32.2	13.0	1.12e-04	0	42	0	1025507328	20	4498
2026-01-11 00:59:09.23	219.75	24.53	-30.2	-32.1	12.9	2.65e-03	0	42	0	1030750208	20	4467
2026-01-11 00:59:12.25	219.55	24.07	-30.3	-32.5	12.7	2.53e-03	0	42	0	1035993088	20	4600
2026-01-11 00:59:15.27	219.35	23.62	-30.8	-33.2	11.7	3.59e-03	0	42	0	1042284544	21	4788
2026-01-11 00:59:18.28	219.15	23.18	-31.4	-34.8	10.2	9.60e-03	0	42	0	1047527424	22	5298
2026-01-11 00:59:21.30	218.97	22.75	-31.1	-33.8	11.0	4.91e-03	0	42	0	1053818880	22	4890
2026-01-11 00:59:24.32	218.78	22.32	-30.6	-32.8	11.9	3.09e-03	0	42	0	1059061760	21	4638
2026-01-11 00:59:27.32	218.61	21.90	-29.9	-31.3	13.3	2.35e-03	0	42	0	1064304640	20	4217
2026-01-11 00:59:30.34	218.44	21.49	-29.8	-31.3	13.7	2.10e-03	0	42	0	1070596096	19	4320
2026-01-11 00:59:33.36	218.27	21.08	-29.9	-31.8	13.4	1.59e-03	0	42	0	1075838976	19	4460
2026-01-11 00:59:36.37	218.11	20.68	-29.8	-31.4	13.6	1.75e-05	0	42	0	1081081856	19	4329
2026-01-11 00:59:39.39	217.95	20.28	-29.9	-31.7	13.4	1.14e-05	0	42	0	1087373312	19	4446
2026-01-11 00:59:42.39	217.79	19.89	-30.0	-31.5	13.1	4.42e-05	0	42	0	1092616192	20	4302
2026-01-11 00:59:45.41	217.64	19.51	-30.2	-32.2	12.6	1.11e-04	0	42	0	1098907648	20	4514
2026-01-11 00:59:48.43	217.50	19.13	-30.3	-32.4	12.5	1.25e-04	0	42	0	1104150528	20	4604
2026-01-11 00:59:51.44	217.35	18.76	-30.3	-32.4	12.5	1.52e-04	0	42	0	1109393408	20	4585
2026-01-11 00:59:54.46	217.22	18.39	-30.5	-32.6	11.9	3.47e-04	0	42	0	1115684864	21	4589
2026-01-11 00:59:57.47	217.08	18.03	-30.6	-32.9	11.8	1.68e-03	0	42	0	1120927744	21	4678
2026-01-11 01:00:00.48	216.95	17.67	-31.0	-33.7	10.8	1.83e-03	0	42	0	1127219200	22	4896
2026-01-11 01:00:03.49	216.82	17.32	-31.3	-34.5	10.1	5.11e-03	0	42	0	1132462080	22	5240
2026-01-11 01:00:06.50	216.69	16.98	-31.0	-33.7	10.7	4.28e-03	0	42	0	1137704960	22	4905
2026-01-11 01:00:09.51	216.57	16.63	-30.7	-32.8	11.4	1.13e-03	0	42	0	1143996416	22	4549
2026-01-11 01:00:12.53	216.45	16.30	-30.5	-33.0	11.5	1.04e-03	0	42	0	1149239296	21	4794
2026-01-11 01:00:15.55	216.34	15.96	-30.6	-32.9	11.2	6.18e-04	0	42	0	1155530752	21	4707
2026-01-11 01:00:18.56	216.22	15.63	-30.7	-33.1	11.3	1.15e-03	0	42	0	1160773632	21	4782
2026-01-11 01:00:21.58	216.11	15.31	-30.5	-33.1	11.7	1.60e-03	0	42	0	1166016512	20	4875
2026-01-11 01:00:24.60	216.00	14.99	-30.4	-33.0	11.8	1.85e-03	0	42	0	1172307968	20	4822
2026-01-11 01:00:27.61	215.89	14.67	-30.5	-33.1	11.7	5.79e-04	0	42	0	1177550848	20	4893
2026-01-11 01:00:30.63	215.79	14.36	-30.8	-33.8	10.8	1.62e-03	0	42	0	1183842304	21	5052
2026-01-11 01:00:33.65	215.69	14.05	-31.0	-33.9	10.4	3.71e-03	0	42	0	1189085184	22	5012
2026-01-11 01:00:36.66	215.59	13.75	-31.1	-34.1	10.1	8.79e-03	0	42	0	1194328064	22	5107
2026-01-11 01:00:39.68	215.49	13.44	-30.5	-32.8	11.5	3.00e-03	0	42	0	1200619520	21	4677
2026-01-11 01:00:42.69	215.40	13.15	-30.3	-32.6	12.0	2.58e-03	0	42	0	1205862400	20	4695
2026-01-11 01:00:45.70	215.30	12.85	-30.2	-32.2	12.2	2.07e-03	0	42	0	1211105280	20	4575
2026-01-11 01:00:48.71	215.21	12.56	-30.1	-32.1	12.3	1.76e-03	0	42	0	1217396736	20	4518
2026-01-11 01:00:51.72	215.12	12.28	-30.2	-32.4	12.0	1.62e-03	0	42	0	1222639616	20	4644
2026-01-11 01:00:54.74	215.04	11.99	-30.1	-32.3	12.1	1.44e-03	0	42	0	1228931072	20	4595
2026-01-11 01:00:57.76	214.95	11.71	-30.2	-32.5	11.9	1.50e-03	0	42	0	1234173952	20	4665
2026-01-11 01:01:00.78	214.87	11.43	-30.3	-32.9	11.6	1.34e-03	0	42	0	1239416832	20	4827
2026-01-11 01:01:03.80	214.79	11.16	-30.5	-32.8	11.3	1.41e-03	0	42	0	1245708288	21	4699
2026-01-11 01:01:06.82	214.70	10.89	-30.7	-33.5	10.8	3.39e-03	0	42	0	1250951168	21	4999
2026-01-11 01:01:09.85	214.63	10.62	-30.8	-34.0	10.3	5.32e-03	0	42	0	1257242624	21	5198
2026-01-11 01:01:12.86	214.55	10.35	-30.8	-34.0	10.3	6.34e-03	0	42	0	1262485504	21	5196
2026-01-11 01:01:15.87	214.47	10.09	-31.0	-34.2	9.8	7.12e-03	0	42	0	1267728384	22	5216
2026-01-11 01:01:18.89	214.40	9.83	-30.9	-34.3	10.1	7.00e-03	0	42	0	1274019840	21	5354
2026-01-11 01:01:21.90	214.33	9.57	-31.0	-34.0	9.9	1.08e-02	0	42	0	1279262720	22	5127
2026-01-11 01:01:24.92	214.26	9.31	-30.8	-33.9	10.3	5.91e-03	0	42	0	1285554176	21	5169
2026-01-11 01:01:27.93	214.19	9.06	-30.7	-33.8	10.4	5.32e-03	0	42	0	1290797056	21	5126
2026-01-11 01:01:30.95	214.12	8.81	-30.6	-33.4	10.7	3.86e-03	0	42	0	1296039936	21	4988
2026-01-11 01:01:33.97	214.05	8.56	-30.5	-33.1	10.8	2.81e-03	0	42	0	1302331392	21	4867
2026-01-11 01:01:36.98	213.98	8.32	-30.6	-33.4	10.6	3.29e-03	0	42	0	1307574272	21	4992
2026-01-11 01:01:39.99	213.92	8.08	-30.7	-33.9	10.2	4.68e-03	0	42	0	1313865728	21	5194
2026-01-11 01:01:42.99	213.86	7.84	-30.7	-33.7	10.3	6.97e-03	0	42	0	1319108608	21	5125
2026-01-11 01:01:46.01	213.79	7.60	-30.7	-33.7	10.2	6.17e-03	0	42	0	1324351488	21	5131
2026-01-11 01:01:49.03	213.73	7.36	-30.9	-34.5	9.6	1.22e-02	0	42	0	1330642944	21	5482
2026-01-11 01:01:52.05	213.67	7.13	-30.9	-34.6	9.5	1.73e-02	0	42	0	1335885824	21	5528
2026-01-11 01:01:55.08	213.61	6.89	-33.5	-46.1	3.8	1.49e+00	0	42	104	1336934400	26	15521

#Closed at: 2026-01-11 01:01:55
#Recorded file [1336 MB]: D:/data/31010_260111_034959.dat