passes_logs/2026/01/11/R2M6_AANII_01/R2M6_AANII_01__20260111_051047_FENGYUN_3D_rec.log

#Pass ID: 20260111_051047_FENGYUN 3D
#Satellite: FENGYUN 3D
#Configuration: FENGYUN 3D
#almurnet v.1.7.20240730
#Start time: 2026-01-11 05:10:48

#Version: 2.2.20231116
#Station: R2M6_AANII_01
#Location: 30.233357 lon 59.946436 lat
#TLE: 1 43010U 17072A   26009.92921666 -.00000228  00000+0 -86059-4 0  9998
#TLE: 2 43010  98.9936 341.6668 0002176 116.7510 243.3888 14.19693142422537

#Time	Az	El	Level	Level2	SNR	BER	BlckErr	Temp	State	Recorded	gain1	gain2
2026-01-11 05:10:48.48	8.64	7.06	-31.8	-39.0	4.1	8.35e-01	0	39	0	0	23	8270
2026-01-11 05:10:50.50	8.40	7.16	-31.0	-35.9	6.6	1.88e-01	0	39	0	0	22	6282
2026-01-11 05:10:52.51	8.15	7.27	-31.1	-36.1	6.5	2.27e-01	0	40	0	10485760	22	6374
2026-01-11 05:10:54.52	7.91	7.37	-31.0	-35.5	6.9	2.21e-01	0	40	0	22020096	22	6101
2026-01-11 05:10:56.53	7.66	7.47	-29.9	-32.7	9.2	4.59e-02	0	40	0	33554432	21	4957
2026-01-11 05:10:58.55	7.41	7.57	-29.4	-32.2	10.4	8.86e-03	0	40	0	45088768	19	4952
2026-01-11 05:11:00.56	7.15	7.68	-28.4	-30.0	12.2	7.45e-04	0	40	0	56623104	18	4328
2026-01-11 05:11:02.58	6.90	7.78	-28.3	-30.9	12.2	2.06e-04	0	40	0	67108864	16	4852
2026-01-11 05:11:04.59	6.64	7.88	-28.6	-31.0	11.8	1.14e-03	0	40	0	78643200	17	4749
2026-01-11 05:11:06.59	6.39	7.98	-28.1	-30.3	12.6	2.21e-04	0	40	0	90177536	16	4640
2026-01-11 05:11:08.60	6.13	8.09	-27.5	-29.5	13.2	3.54e-05	0	40	0	101711872	15	4514
2026-01-11 05:11:10.62	5.86	8.19	-27.6	-29.7	13.1	2.41e-04	0	40	0	113246208	15	4575
2026-01-11 05:11:12.63	5.60	8.29	-27.0	-28.9	13.9	1.94e-05	0	40	0	123731968	14	4440
2026-01-11 05:11:14.65	5.33	8.39	-27.1	-29.0	13.8	9.10e-06	0	40	0	135266304	14	4484
2026-01-11 05:11:16.66	5.06	8.49	-27.1	-29.0	13.8	1.25e-05	0	40	0	146800640	14	4490
2026-01-11 05:11:18.68	4.79	8.60	-27.1	-29.0	13.8	1.37e-05	0	40	0	158334976	14	4478
2026-01-11 05:11:20.69	4.52	8.70	-27.0	-28.9	14.0	1.31e-03	0	40	0	169869312	14	4432
2026-01-11 05:11:22.70	4.25	8.80	-27.2	-29.2	13.8	1.84e-04	0	40	0	180355072	14	4536
2026-01-11 05:11:24.71	3.97	8.90	-27.5	-29.5	13.3	2.00e-03	0	40	0	191889408	15	4511
2026-01-11 05:11:26.72	3.70	9.00	-27.7	-30.0	13.0	2.09e-03	0	41	0	203423744	15	4652
2026-01-11 05:11:28.74	3.42	9.10	-27.6	-29.6	13.3	2.53e-04	0	41	0	214958080	15	4544
2026-01-11 05:11:30.76	3.13	9.20	-27.3	-29.4	13.7	2.16e-03	0	40	0	226492416	14	4582
2026-01-11 05:11:32.78	2.85	9.30	-27.9	-30.4	12.8	6.29e-05	0	41	0	236978176	15	4786
2026-01-11 05:11:34.80	2.56	9.40	-27.2	-28.7	13.8	9.10e-06	0	40	0	248512512	15	4271
2026-01-11 05:11:36.81	2.27	9.50	-26.8	-28.7	14.4	0.00e+00	0	41	0	260046848	13	4498
2026-01-11 05:11:38.83	1.98	9.60	-26.9	-29.1	14.1	1.85e-03	0	41	0	271581184	13	4616
2026-01-11 05:11:40.84	1.69	9.70	-27.2	-29.1	13.9	1.62e-04	0	41	0	283115520	14	4495
2026-01-11 05:11:42.85	1.40	9.79	-27.1	-28.9	14.0	1.79e-03	0	41	0	294649856	14	4458
2026-01-11 05:11:44.86	1.10	9.89	-27.1	-28.9	14.0	1.02e-05	0	41	0	305135616	14	4432
2026-01-11 05:11:46.88	0.81	9.99	-26.6	-28.3	14.6	0.00e+00	0	41	0	316669952	13	4376
2026-01-11 05:11:48.89	0.51	10.09	-26.5	-28.1	14.8	0.00e+00	0	41	0	328204288	13	4314
2026-01-11 05:11:50.90	0.21	10.18	-26.4	-27.8	15.0	1.27e-04	0	41	0	339738624	13	4235
2026-01-11 05:11:52.92	359.90	10.28	-26.3	-27.7	15.0	1.05e-04	0	41	0	350224384	13	4214
2026-01-11 05:11:54.93	359.60	10.37	-26.4	-28.3	14.9	0.00e+00	0	41	0	361758720	12	4492
2026-01-11 05:11:56.93	359.29	10.47	-26.6	-28.3	14.7	6.80e-06	0	41	0	373293056	13	4376
2026-01-11 05:11:58.94	358.98	10.56	-26.8	-28.2	14.4	6.86e-05	0	41	0	384827392	14	4249
2026-01-11 05:12:00.95	358.67	10.66	-26.1	-27.7	15.3	0.00e+00	0	41	0	396361728	12	4309
2026-01-11 05:12:02.96	358.36	10.75	-26.0	-27.4	15.5	5.26e-05	0	41	0	406847488	12	4235
2026-01-11 05:12:04.98	358.04	10.85	-26.3	-28.1	15.1	7.43e-05	0	41	0	418381824	12	4422
2026-01-11 05:12:06.99	357.72	10.94	-26.2	-27.9	15.2	0.00e+00	0	41	0	429916160	12	4368
2026-01-11 05:12:09.00	357.40	11.03	-26.1	-27.6	15.4	1.83e-04	0	41	0	441450496	12	4304
2026-01-11 05:12:11.02	357.08	11.12	-26.1	-27.8	15.3	1.54e-04	0	41	0	452984832	12	4338
2026-01-11 05:12:13.03	356.75	11.22	-26.0	-27.5	15.5	0.00e+00	0	41	0	463470592	12	4261
2026-01-11 05:12:15.05	356.43	11.31	-26.1	-27.6	15.4	1.10e-06	0	41	0	475004928	12	4298
2026-01-11 05:12:17.06	356.10	11.40	-26.1	-27.7	15.3	0.00e+00	0	41	0	486539264	12	4330
2026-01-11 05:12:19.07	355.77	11.49	-26.2	-28.0	15.2	0.00e+00	0	41	0	498073600	12	4393
2026-01-11 05:12:21.08	355.44	11.58	-25.9	-27.6	15.7	2.04e-04	0	41	0	508559360	11	4409
2026-01-11 05:12:23.09	355.10	11.66	-26.0	-27.5	15.3	1.60e-04	0	41	0	520093696	12	4260
2026-01-11 05:12:25.10	354.77	11.75	-26.1	-27.7	15.4	0.00e+00	0	41	0	531628032	12	4320
2026-01-11 05:12:27.11	354.43	11.84	-26.1	-27.8	15.4	0.00e+00	0	41	0	543162368	12	4335
2026-01-11 05:12:29.12	354.09	11.93	-26.1	-27.7	15.4	0.00e+00	0	41	0	554696704	12	4326
2026-01-11 05:12:31.14	353.74	12.01	-26.2	-27.9	15.3	0.00e+00	0	41	0	566231040	12	4381
2026-01-11 05:12:33.15	353.40	12.10	-26.2	-27.9	15.3	0.00e+00	0	41	0	576716800	12	4374
2026-01-11 05:12:35.15	353.05	12.18	-26.0	-27.4	15.6	7.78e-04	0	41	0	588251136	12	4249
2026-01-11 05:12:37.16	352.70	12.27	-25.9	-27.2	15.7	1.11e-04	0	41	0	599785472	12	4177
2026-01-11 05:12:39.18	352.35	12.35	-25.8	-27.0	15.8	7.31e-04	0	41	0	611319808	12	4130
2026-01-11 05:12:41.19	352.00	12.43	-25.9	-27.7	15.7	7.44e-04	0	41	0	622854144	11	4426
2026-01-11 05:12:43.20	351.65	12.51	-25.8	-27.4	15.9	0.00e+00	0	41	0	633339904	11	4356
2026-01-11 05:12:45.21	351.29	12.59	-25.9	-27.3	15.7	7.97e-04	0	41	0	644874240	12	4206
2026-01-11 05:12:47.22	350.93	12.67	-26.0	-27.9	15.7	7.94e-04	0	41	0	656408576	11	4480
2026-01-11 05:12:49.23	350.57	12.75	-26.0	-27.5	15.5	0.00e+00	0	41	0	666894336	12	4275
2026-01-11 05:12:51.25	350.21	12.83	-25.9	-27.6	15.8	1.09e-03	0	41	0	678428672	11	4405
2026-01-11 05:12:53.26	349.84	12.91	-25.8	-26.9	15.9	1.17e-03	0	42	0	689963008	12	4110
2026-01-11 05:12:55.27	349.48	12.98	-25.8	-27.5	15.9	8.12e-05	0	41	0	701497344	11	4362
2026-01-11 05:12:57.29	349.11	13.06	-25.9	-27.2	15.7	0.00e+00	0	42	0	713031680	12	4184
2026-01-11 05:12:59.31	348.73	13.13	-25.7	-27.2	16.1	0.00e+00	0	41	0	724566016	11	4279
2026-01-11 05:13:01.32	348.36	13.21	-25.5	-26.9	16.2	0.00e+00	0	42	0	735051776	11	4206
2026-01-11 05:13:03.32	347.99	13.28	-25.7	-27.3	16.0	0.00e+00	0	42	0	746586112	11	4325
2026-01-11 05:13:05.33	347.61	13.35	-25.7	-27.2	16.1	3.92e-04	0	42	0	758120448	11	4283
2026-01-11 05:13:07.34	347.24	13.42	-25.3	-26.4	16.5	0.00e+00	0	42	0	769654784	11	4082
2026-01-11 05:13:09.34	346.86	13.49	-25.4	-27.1	16.5	0.00e+00	0	42	0	781189120	10	4374
2026-01-11 05:13:11.35	346.48	13.56	-25.7	-27.3	16.1	0.00e+00	0	42	0	791674880	11	4307
2026-01-11 05:13:13.36	346.09	13.62	-25.7	-26.7	16.0	0.00e+00	0	42	0	803209216	12	4055
2026-01-11 05:13:15.37	345.71	13.69	-25.7	-27.2	16.1	0.00e+00	0	42	0	814743552	11	4287
2026-01-11 05:13:17.39	345.32	13.75	-25.4	-26.6	16.5	1.41e-04	0	42	0	826277888	11	4117
2026-01-11 05:13:19.39	344.94	13.82	-25.4	-26.7	16.4	1.66e-04	0	42	0	837812224	11	4153
2026-01-11 05:13:21.40	344.55	13.88	-25.6	-27.0	16.2	0.00e+00	0	42	0	848297984	11	4226
2026-01-11 05:13:23.41	344.15	13.94	-25.5	-26.7	16.4	1.59e-04	0	41	0	859832320	11	4157
2026-01-11 05:13:25.42	343.76	14.00	-25.3	-26.5	16.5	0.00e+00	0	42	0	871366656	11	4097
2026-01-11 05:13:27.43	343.37	14.06	-25.3	-26.9	16.6	0.00e+00	0	42	0	881852416	10	4315
2026-01-11 05:13:29.43	342.97	14.12	-25.4	-27.1	16.5	1.01e-04	0	42	0	893386752	10	4388
2026-01-11 05:13:31.45	342.57	14.17	-25.4	-26.7	16.5	8.12e-05	0	42	0	904921088	11	4150
2026-01-11 05:13:33.46	342.17	14.23	-25.5	-26.8	16.4	0.00e+00	0	42	0	916455424	11	4187
2026-01-11 05:13:35.48	341.77	14.28	-25.5	-26.7	16.4	1.91e-04	0	42	0	927989760	11	4150
2026-01-11 05:13:37.48	341.37	14.34	-25.7	-27.3	16.1	1.57e-04	0	42	0	938475520	11	4304
2026-01-11 05:13:39.50	340.96	14.39	-25.5	-26.8	16.3	0.00e+00	0	42	0	950009856	11	4193
2026-01-11 05:13:41.51	340.56	14.44	-25.3	-26.8	16.7	0.00e+00	0	42	0	961544192	10	4284
2026-01-11 05:13:43.52	340.15	14.49	-25.3	-27.0	16.6	0.00e+00	0	42	0	973078528	10	4329
2026-01-11 05:13:45.54	339.74	14.53	-25.1	-26.5	16.9	1.36e-04	0	42	0	984612864	10	4202
2026-01-11 05:13:47.55	339.33	14.58	-25.1	-26.5	16.8	1.27e-04	0	42	0	996147200	10	4209
2026-01-11 05:13:49.56	338.92	14.63	-25.3	-26.9	16.6	1.94e-04	0	42	0	1006632960	10	4307
2026-01-11 05:13:51.57	338.51	14.67	-25.3	-26.8	16.6	0.00e+00	0	42	0	1018167296	10	4301
2026-01-11 05:13:53.58	338.10	14.71	-25.1	-26.4	16.9	0.00e+00	0	42	0	1029701632	10	4176
2026-01-11 05:13:55.60	337.68	14.75	-25.1	-26.5	16.8	0.00e+00	0	42	0	1041235968	10	4217
2026-01-11 05:13:57.61	337.26	14.79	-25.3	-26.9	16.6	5.72e-05	0	42	0	1051721728	10	4324
2026-01-11 05:13:59.62	336.85	14.83	-25.3	-26.8	16.7	1.50e-03	0	42	0	1063256064	10	4290
2026-01-11 05:14:01.64	336.43	14.86	-25.1	-26.4	16.9	1.45e-03	0	42	0	1074790400	10	4193
2026-01-11 05:14:03.65	336.01	14.90	-25.4	-27.0	16.5	4.34e-05	0	42	0	1086324736	10	4343
2026-01-11 05:14:05.67	335.59	14.93	-25.2	-26.7	16.7	1.57e-03	0	42	0	1097859072	10	4272
2026-01-11 05:14:07.69	335.17	14.96	-25.2	-26.7	16.7	1.07e-03	0	42	0	1109393408	10	4269
2026-01-11 05:14:09.70	334.74	14.99	-25.2	-26.6	16.8	2.05e-05	0	42	0	1119879168	10	4234
2026-01-11 05:14:11.72	334.32	15.02	-24.9	-26.0	17.2	1.59e-03	0	42	0	1131413504	10	4073
2026-01-11 05:14:13.72	333.90	15.05	-24.7	-26.0	17.4	1.50e-03	0	42	0	1142947840	9	4188
2026-01-11 05:14:15.73	333.48	15.07	-24.8	-26.2	17.3	0.00e+00	0	42	0	1154482176	9	4242
2026-01-11 05:14:17.74	333.05	15.10	-24.7	-26.1	17.3	1.42e-03	0	42	0	1166016512	9	4227
2026-01-11 05:14:19.75	332.63	15.12	-24.7	-26.1	17.3	0.00e+00	0	42	0	1176502272	9	4222
2026-01-11 05:14:21.76	332.20	15.14	-24.9	-26.5	17.0	0.00e+00	0	42	0	1188036608	9	4335
2026-01-11 05:14:23.78	331.77	15.16	-24.9	-26.4	17.1	0.00e+00	0	42	0	1199570944	9	4308
2026-01-11 05:14:25.79	331.34	15.18	-24.8	-26.2	17.2	0.00e+00	0	42	0	1211105280	9	4256
2026-01-11 05:14:27.80	330.92	15.19	-24.8	-26.3	17.2	0.00e+00	0	42	0	1221591040	9	4271
2026-01-11 05:14:29.82	330.49	15.21	-25.0	-26.7	17.0	1.37e-03	0	42	0	1233125376	9	4372
2026-01-11 05:14:31.84	330.06	15.22	-24.9	-26.1	17.0	0.00e+00	0	42	0	1244659712	10	4109
2026-01-11 05:14:33.85	329.63	15.23	-25.0	-26.2	17.0	0.00e+00	0	42	0	1256194048	10	4133
2026-01-11 05:14:35.87	329.20	15.24	-24.9	-26.0	17.1	0.00e+00	0	42	0	1267728384	10	4095
2026-01-11 05:14:37.88	328.77	15.25	-25.0	-26.6	17.0	0.00e+00	0	42	0	1279262720	9	4354
2026-01-11 05:14:39.89	328.34	15.26	-25.1	-26.5	16.8	0.00e+00	0	42	0	1289748480	10	4223
2026-01-11 05:14:41.90	327.91	15.26	-25.0	-26.3	16.9	0.00e+00	0	42	0	1301282816	10	4156
2026-01-11 05:14:43.92	327.48	15.27	-25.0	-26.2	17.0	0.00e+00	0	42	0	1312817152	10	4143
2026-01-11 05:14:45.93	327.05	15.27	-24.8	-25.7	17.2	1.58e-04	0	42	0	1324351488	10	4011
2026-01-11 05:14:47.93	326.62	15.27	-24.8	-26.3	17.2	0.00e+00	0	42	0	1334837248	9	4283
2026-01-11 05:14:49.94	326.19	15.26	-25.0	-26.1	17.0	1.61e-04	0	42	0	1346371584	10	4120
2026-01-11 05:14:51.94	325.76	15.26	-25.1	-26.5	16.8	6.40e-05	0	42	0	1357905920	10	4212
2026-01-11 05:14:53.95	325.33	15.26	-25.1	-26.4	16.9	0.00e+00	0	42	0	1369440256	10	4189
2026-01-11 05:14:55.96	324.90	15.25	-25.1	-26.4	16.9	0.00e+00	0	42	0	1379926016	10	4175
2026-01-11 05:14:57.97	324.47	15.24	-24.9	-26.0	17.1	1.27e-04	0	42	0	1391460352	10	4074
2026-01-11 05:14:59.98	324.04	15.23	-24.7	-26.1	17.3	0.00e+00	0	42	0	1402994688	9	4219
2026-01-11 05:15:02.00	323.61	15.22	-24.9	-26.4	17.1	1.80e-04	0	42	0	1414529024	9	4310
2026-01-11 05:15:04.01	323.19	15.21	-24.8	-26.2	17.2	2.23e-04	0	42	0	1426063360	9	4244
2026-01-11 05:15:06.03	322.75	15.19	-25.0	-26.3	16.9	0.00e+00	0	42	0	1436549120	10	4154
2026-01-11 05:15:08.04	322.33	15.18	-24.8	-26.3	17.2	2.18e-04	0	42	0	1448083456	9	4271
2026-01-11 05:15:10.05	321.90	15.16	-24.7	-26.0	17.3	1.12e-03	0	42	0	1459617792	9	4191
2026-01-11 05:15:12.06	321.47	15.14	-24.7	-26.1	17.3	0.00e+00	0	42	0	1471152128	9	4221
2026-01-11 05:15:14.07	321.05	15.12	-24.9	-26.5	17.0	2.15e-04	0	42	0	1482686464	9	4337
2026-01-11 05:15:16.08	320.62	15.10	-25.0	-26.7	17.0	3.24e-04	0	42	0	1493172224	9	4371
2026-01-11 05:15:18.09	320.20	15.07	-25.0	-26.7	17.0	0.00e+00	0	42	0	1504706560	9	4372
2026-01-11 05:15:20.10	319.77	15.05	-25.2	-26.5	16.8	1.75e-04	0	42	0	1516240896	10	4216
2026-01-11 05:15:22.11	319.35	15.02	-25.3	-26.8	16.6	1.22e-03	0	42	0	1527775232	10	4289
2026-01-11 05:15:24.12	318.93	14.99	-25.2	-26.5	16.8	1.62e-04	0	42	0	1538260992	10	4229
2026-01-11 05:15:26.13	318.51	14.96	-25.4	-27.0	16.5	1.08e-03	0	42	0	1549795328	10	4341
2026-01-11 05:15:28.14	318.09	14.93	-25.0	-26.3	16.9	9.78e-04	0	42	0	1561329664	10	4161
2026-01-11 05:15:30.15	317.67	14.89	-24.9	-26.0	17.1	1.34e-04	0	42	0	1572864000	10	4090
2026-01-11 05:15:32.17	317.24	14.86	-24.5	-25.7	17.5	8.83e-04	0	42	0	1584398336	9	4108
2026-01-11 05:15:34.18	316.83	14.82	-24.8	-26.4	17.1	1.21e-03	0	42	0	1594884096	9	4299
2026-01-11 05:15:36.19	316.41	14.79	-24.6	-25.9	17.3	1.48e-04	0	42	0	1606418432	9	4180
2026-01-11 05:15:38.21	315.99	14.75	-24.7	-26.0	17.3	1.28e-03	0	42	0	1617952768	9	4205
2026-01-11 05:15:40.22	315.58	14.71	-24.8	-26.2	17.2	1.33e-03	0	42	0	1629487104	9	4251
2026-01-11 05:15:42.23	315.16	14.66	-24.9	-26.6	17.0	2.41e-04	0	42	0	1641021440	9	4350
2026-01-11 05:15:44.24	314.75	14.62	-25.0	-26.3	16.9	2.04e-04	0	42	0	1652555776	10	4152
2026-01-11 05:15:46.25	314.34	14.58	-25.1	-26.4	16.8	0.00e+00	0	42	0	1663041536	10	4192
2026-01-11 05:15:48.27	313.93	14.53	-24.8	-25.9	17.1	0.00e+00	0	42	0	1674575872	10	4049
2026-01-11 05:15:50.28	313.52	14.48	-24.8	-26.2	17.1	0.00e+00	0	42	0	1686110208	9	4254
2026-01-11 05:15:52.30	313.11	14.43	-25.0	-26.2	16.9	0.00e+00	0	42	0	1697644544	10	4135
2026-01-11 05:15:54.31	312.70	14.38	-25.5	-26.7	16.3	0.00e+00	0	42	0	1708130304	11	4171
2026-01-11 05:15:56.32	312.30	14.33	-24.8	-25.8	17.1	0.00e+00	0	42	0	1719664640	10	4037
2026-01-11 05:15:58.33	311.90	14.28	-24.9	-26.6	16.9	0.00e+00	0	42	0	1731198976	9	4350
2026-01-11 05:16:00.35	311.49	14.22	-25.0	-26.1	16.9	0.00e+00	0	42	0	1742733312	10	4119
2026-01-11 05:16:02.36	311.09	14.17	-25.0	-26.1	16.9	0.00e+00	0	42	0	1754267648	10	4119
2026-01-11 05:16:04.38	310.69	14.11	-25.3	-26.8	16.6	0.00e+00	0	42	0	1764753408	10	4306
2026-01-11 05:16:06.39	310.30	14.05	-25.3	-26.9	16.5	0.00e+00	0	42	0	1776287744	10	4330
2026-01-11 05:16:08.40	309.90	13.99	-25.5	-26.9	16.2	0.00e+00	0	42	0	1787822080	11	4213
2026-01-11 05:16:10.40	309.51	13.93	-25.4	-27.1	16.4	0.00e+00	0	42	0	1799356416	10	4385
2026-01-11 05:16:12.42	309.11	13.87	-25.8	-27.5	15.9	0.00e+00	0	42	0	1810890752	11	4365
2026-01-11 05:16:14.42	308.73	13.81	-25.7	-27.2	16.1	0.00e+00	0	42	0	1821376512	11	4287
2026-01-11 05:16:16.44	308.34	13.74	-25.5	-26.8	16.2	0.00e+00	0	42	0	1832910848	11	4188
2026-01-11 05:16:18.45	307.95	13.68	-25.5	-26.8	16.3	0.00e+00	0	42	0	1844445184	11	4178
2026-01-11 05:16:20.45	307.56	13.61	-25.8	-27.5	15.9	0.00e+00	0	42	0	1855979520	11	4372
2026-01-11 05:16:22.45	307.18	13.55	-25.1	-26.5	16.0	0.00e+00	0	42	0	1866465280	11	4214
2026-01-11 05:16:24.47	306.80	13.48	-25.2	-26.1	15.7	0.00e+00	0	42	0	1877999616	11	4001
2026-01-11 05:16:26.48	306.42	13.41	-25.1	-26.5	16.7	0.00e+00	0	42	0	1889533952	10	4217
2026-01-11 05:16:28.48	306.04	13.34	-25.3	-26.8	16.5	0.00e+00	0	42	0	1901068288	10	4300
2026-01-11 05:16:30.49	305.67	13.27	-25.4	-27.1	16.3	0.00e+00	0	42	0	1912602624	10	4365
2026-01-11 05:16:32.50	305.29	13.19	-25.4	-27.1	16.3	0.00e+00	0	42	0	1923088384	10	4368
2026-01-11 05:16:34.50	304.92	13.12	-24.9	-26.0	15.1	5.48e-04	0	42	0	1934622720	11	4100
2026-01-11 05:16:36.51	304.55	13.05	-25.7	-27.2	13.1	0.00e+00	0	42	0	1946157056	11	4298
2026-01-11 05:16:38.53	304.18	12.97	-25.7	-27.3	15.9	0.00e+00	0	42	0	1957691392	11	4334
2026-01-11 05:16:40.54	303.81	12.89	-25.7	-27.2	16.0	0.00e+00	0	42	0	1969225728	11	4298
2026-01-11 05:16:42.55	303.45	12.82	-25.6	-27.0	16.1	0.00e+00	0	42	0	1979711488	11	4247
2026-01-11 05:16:44.56	303.08	12.74	-25.6	-27.0	16.1	0.00e+00	0	42	0	1991245824	11	4240
2026-01-11 05:16:46.57	302.72	12.66	-25.6	-27.0	16.1	2.36e-04	0	42	0	2002780160	11	4245
2026-01-11 05:16:48.57	302.36	12.58	-25.6	-27.1	16.0	1.29e-03	0	42	0	2013265920	11	4277
2026-01-11 05:16:50.59	302.00	12.50	-25.8	-27.4	15.8	0.00e+00	0	42	0	2024800256	11	4347
2026-01-11 05:16:52.60	301.65	12.42	-25.7	-27.3	15.9	1.80e-03	0	42	0	2036334592	11	4326
2026-01-11 05:16:54.62	301.29	12.34	-26.2	-27.8	15.3	1.77e-03	0	42	0	2047868928	12	4344
2026-01-11 05:16:56.63	300.94	12.25	-26.0	-27.4	15.5	2.20e-06	0	42	0	2059403264	12	4230
2026-01-11 05:16:58.65	300.59	12.17	-26.0	-27.9	15.5	8.83e-04	0	42	0	2070937600	11	4497
2026-01-11 05:17:00.66	300.24	12.08	-26.3	-27.7	15.1	1.43e-03	0	42	0	2081423360	13	4202
2026-01-11 05:17:02.68	299.90	12.00	-26.1	-27.7	15.3	1.10e-06	0	42	0	2092957696	12	4324
2026-01-11 05:17:04.69	299.55	11.91	-26.1	-27.7	15.3	1.46e-03	0	42	0	2104492032	12	4316
2026-01-11 05:17:06.71	299.21	11.82	-26.3	-28.1	15.1	1.26e-03	0	42	0	2116026368	12	4430
2026-01-11 05:17:08.71	298.87	11.74	-26.6	-28.2	14.7	0.00e+00	0	42	0	2127560704	13	4358
2026-01-11 05:17:10.72	298.54	11.65	-26.3	-28.0	15.1	0.00e+00	0	42	0	2138046464	12	4415
2026-01-11 05:17:12.72	298.20	11.56	-26.5	-28.5	14.9	0.00e+00	0	42	0	2149580800	12	4555
2026-01-11 05:17:14.72	297.87	11.47	-26.5	-28.6	14.8	0.00e+00	0	42	0	2161115136	12	4570
2026-01-11 05:17:16.73	297.54	11.38	-26.0	-27.5	15.4	0.00e+00	0	42	0	2172649472	12	4269
2026-01-11 05:17:18.75	297.21	11.29	-26.0	-27.5	15.4	0.00e+00	0	42	0	2183135232	12	4259
2026-01-11 05:17:20.76	296.88	11.20	-26.1	-27.8	15.2	5.26e-05	0	42	0	2194669568	12	4353
2026-01-11 05:17:22.77	296.56	11.11	-25.8	-27.6	15.7	0.00e+00	0	42	0	2206203904	11	4400
2026-01-11 05:17:24.78	296.23	11.02	-25.9	-27.4	15.4	0.00e+00	0	42	0	2217738240	12	4240
2026-01-11 05:17:26.79	295.91	10.92	-25.8	-27.6	15.6	0.00e+00	0	42	0	2229272576	11	4410
2026-01-11 05:17:28.81	295.59	10.83	-26.1	-27.7	15.2	0.00e+00	0	42	0	2239758336	12	4334
2026-01-11 05:17:30.82	295.28	10.74	-26.2	-28.0	15.0	0.00e+00	0	42	0	2251292672	12	4411
2026-01-11 05:17:32.84	294.96	10.64	-26.2	-28.0	15.0	0.00e+00	0	42	0	2262827008	12	4407
2026-01-11 05:17:34.85	294.65	10.55	-26.6	-28.3	14.6	1.10e-06	0	42	0	2274361344	13	4383
2026-01-11 05:17:36.86	294.34	10.45	-26.3	-28.2	14.9	0.00e+00	0	42	0	2285895680	12	4456
2026-01-11 05:17:38.86	294.03	10.36	-26.2	-27.5	15.0	0.00e+00	0	42	0	2296381440	13	4160
2026-01-11 05:17:40.88	293.72	10.26	-26.4	-28.4	14.8	0.00e+00	0	42	0	2307915776	12	4527
2026-01-11 05:17:42.89	293.42	10.16	-26.4	-27.8	14.8	0.00e+00	0	42	0	2319450112	13	4260
2026-01-11 05:17:44.90	293.12	10.07	-26.3	-28.2	14.8	0.00e+00	0	42	0	2330984448	12	4472
2026-01-11 05:17:46.91	292.82	9.97	-26.7	-28.0	14.4	1.10e-06	0	42	0	2341470208	14	4191
2026-01-11 05:17:48.93	292.52	9.87	-26.1	-27.8	15.0	0.00e+00	0	42	0	2353004544	12	4373
2026-01-11 05:17:50.94	292.22	9.77	-26.3	-28.3	14.7	0.00e+00	0	42	0	2364538880	12	4506
2026-01-11 05:17:52.95	291.92	9.68	-26.2	-27.9	15.0	0.00e+00	0	42	0	2376073216	12	4380
2026-01-11 05:17:54.97	291.63	9.58	-26.4	-28.4	14.7	0.00e+00	0	42	0	2387607552	12	4523
2026-01-11 05:17:56.98	291.34	9.48	-26.3	-28.2	14.7	1.10e-06	0	42	0	2398093312	12	4486
2026-01-11 05:17:59.00	291.05	9.38	-26.5	-28.2	14.4	0.00e+00	0	42	0	2409627648	13	4372
2026-01-11 05:18:01.01	290.76	9.28	-26.5	-28.1	14.5	1.13e-03	0	42	0	2421161984	13	4344
2026-01-11 05:18:03.02	290.48	9.18	-26.6	-28.4	14.3	1.10e-06	0	42	0	2432696320	13	4422
2026-01-11 05:18:05.04	290.20	9.08	-27.0	-29.3	13.7	3.40e-06	0	42	0	2444230656	13	4699
2026-01-11 05:18:07.05	289.92	8.98	-26.9	-29.1	13.9	3.40e-06	0	42	0	2455764992	13	4629
2026-01-11 05:18:09.07	289.64	8.88	-26.7	-28.6	14.1	2.20e-06	0	42	0	2466250752	13	4476
2026-01-11 05:18:11.08	289.36	8.78	-26.8	-28.9	13.9	4.50e-06	0	42	0	2477785088	13	4573
2026-01-11 05:18:13.08	289.09	8.67	-26.8	-29.0	13.8	1.05e-03	0	42	0	2489319424	13	4600
2026-01-11 05:18:15.10	288.81	8.57	-26.6	-28.3	14.2	1.26e-03	0	42	0	2500853760	13	4415
2026-01-11 05:18:17.11	288.54	8.47	-26.3	-28.3	14.5	0.00e+00	0	42	0	2511339520	12	4528
2026-01-11 05:18:19.13	288.27	8.37	-26.5	-28.2	14.3	1.65e-03	0	42	0	2522873856	13	4374
2026-01-11 05:18:21.14	288.01	8.27	-26.6	-28.5	14.1	2.06e-03	0	42	0	2534408192	13	4471
2026-01-11 05:18:23.15	287.74	8.17	-26.4	-28.0	14.2	1.25e-04	0	42	0	2545942528	13	4322
2026-01-11 05:18:25.17	287.48	8.06	-26.7	-28.6	13.8	1.15e-03	0	42	0	2557476864	13	4498
2026-01-11 05:18:27.18	287.22	7.96	-26.5	-28.3	14.0	4.06e-04	0	42	0	2567962624	13	4416
2026-01-11 05:18:29.19	286.96	7.86	-27.0	-28.9	13.4	3.54e-05	0	42	0	2579496960	14	4468
2026-01-11 05:18:31.20	286.70	7.76	-27.0	-28.9	13.4	1.14e-03	0	42	0	2591031296	14	4484
2026-01-11 05:18:33.21	286.44	7.65	-26.8	-28.9	13.7	1.03e-03	0	42	0	2602565632	13	4607
2026-01-11 05:18:35.22	286.19	7.55	-26.7	-28.8	13.7	9.10e-06	0	42	0	2614099968	13	4561
2026-01-11 05:18:37.24	285.94	7.45	-26.8	-28.9	13.7	4.03e-04	0	42	0	2625634304	13	4589
2026-01-11 05:18:39.25	285.69	7.34	-27.0	-28.9	13.4	2.74e-05	0	42	0	2636120064	14	4479
2026-01-11 05:18:41.25	285.44	7.24	-26.7	-28.7	13.8	1.10e-06	0	42	0	2647654400	13	4532
2026-01-11 05:18:43.26	285.19	7.14	-26.8	-28.9	13.7	1.48e-05	0	42	0	2659188736	13	4594
2026-01-11 05:18:45.27	284.95	7.03	-32.8	-44.3	3.8	8.46e-01	0	42	104	2664431616	25	13420

#Closed at: 2026-01-11 05:18:46
#Recorded file [2664 MB]: D:/data/31010_260111_081050.dat