passes_logs/2026/01/11/R2M6_AANII_01/R2M6_AANII_01__20260111_030634_AQUA_rec.log

#Pass ID: 20260111_030634_AQUA
#Satellite: AQUA
#Configuration: AQUA
#almurnet v.1.7.20240730
#Start time: 2026-01-11 03:06:34

#Version: 2.2.20231116
#Station: R2M6_AANII_01
#Location: 30.233357 lon 59.946436 lat
#TLE: 1 27424U 02022A   26009.89520876  .00001045  00000+0  21914-3 0  9996
#TLE: 2 27424  98.4076 336.2372 0002032  84.5955   1.0356 14.61811442260144

#Time	Az	El	Level	Level2	SNR	BER	BlckErr	Temp	State	Recorded	gain1	gain2
2026-01-11 03:06:34.62	10.08	6.98	-32.2	-48.3	3.8	7.48e-01	0	39	0	0	25	23091
2026-01-11 03:06:37.64	9.87	7.21	-32.3	-48.7	3.8	7.47e-01	0	40	104	0	25	23638
2026-01-11 03:06:40.66	9.66	7.44	-32.1	-47.5	3.8	7.46e-01	0	40	104	0	25	21308
2026-01-11 03:06:43.67	9.45	7.67	-31.4	-45.4	3.8	7.42e-01	0	40	104	0	24	18046
2026-01-11 03:06:46.70	9.22	7.91	-30.7	-44.3	3.8	7.43e-01	0	40	104	0	21	17268
2026-01-11 03:06:49.71	9.00	8.14	-29.5	-42.6	3.8	7.47e-01	0	40	104	0	22	16305
2026-01-11 03:06:52.73	8.77	8.38	-30.7	-44.2	3.8	7.44e-01	0	40	104	0	22	16939
2026-01-11 03:06:55.76	8.54	8.62	-31.3	-45.4	3.8	7.47e-01	0	40	104	0	23	18249
2026-01-11 03:06:58.78	8.30	8.87	-32.1	-47.7	3.8	7.44e-01	0	40	104	0	24	21782
2026-01-11 03:07:01.80	8.06	9.11	-32.5	-49.0	3.8	7.43e-01	0	40	104	0	25	24013
2026-01-11 03:07:04.82	7.81	9.36	-32.8	-49.9	3.8	7.44e-01	0	40	104	0	26	25796
2026-01-11 03:07:07.83	7.56	9.61	-33.0	-51.2	3.8	7.44e-01	0	40	104	0	26	29352
2026-01-11 03:07:10.84	7.31	9.86	-33.1	-51.5	3.8	7.46e-01	0	40	104	0	27	29832
2026-01-11 03:07:13.85	7.05	10.11	-33.1	-51.2	3.8	7.50e-01	0	41	104	0	27	28872
2026-01-11 03:07:16.87	6.78	10.37	-32.9	-50.6	3.8	7.42e-01	0	40	104	0	26	27317
2026-01-11 03:07:19.90	6.51	10.63	-32.8	-49.7	3.8	7.45e-01	0	41	104	0	26	25055
2026-01-11 03:07:22.92	6.23	10.89	-32.6	-48.6	3.8	7.44e-01	0	41	104	0	26	22688
2026-01-11 03:07:25.94	5.95	11.15	-32.2	-47.4	3.8	7.46e-01	0	41	104	0	25	20658
2026-01-11 03:07:28.96	5.66	11.42	-32.4	-48.1	3.8	7.46e-01	0	41	104	0	25	21873
2026-01-11 03:07:31.99	5.36	11.69	-32.2	-47.3	3.8	7.44e-01	0	41	104	0	25	20429
2026-01-11 03:07:35.01	5.06	11.96	-31.3	-45.0	3.8	7.39e-01	0	41	104	0	23	17588
2026-01-11 03:07:38.02	4.76	12.23	-30.4	-43.7	3.8	7.43e-01	0	41	104	0	21	16467
2026-01-11 03:07:41.05	4.44	12.51	-30.3	-43.2	3.8	7.46e-01	0	41	104	0	21	15957
2026-01-11 03:07:44.07	4.12	12.79	-30.7	-44.0	3.8	7.44e-01	0	41	104	0	22	16507
2026-01-11 03:07:47.09	3.80	13.07	-31.7	-45.8	3.8	7.48e-01	0	41	104	0	24	18326
2026-01-11 03:07:50.12	3.46	13.35	-32.5	-48.2	3.8	7.45e-01	0	41	104	0	25	22081
2026-01-11 03:07:53.15	3.12	13.64	-32.8	-49.2	3.8	7.46e-01	0	41	104	0	26	23874
2026-01-11 03:07:56.17	2.77	13.93	-32.7	-48.7	3.8	7.43e-01	0	41	104	0	26	22636
2026-01-11 03:07:59.18	2.42	14.22	-33.1	-50.3	3.8	7.43e-01	0	41	104	0	26	26282
2026-01-11 03:08:02.19	2.05	14.52	-33.3	-51.0	3.8	7.47e-01	0	41	104	0	27	27758
2026-01-11 03:08:05.20	1.68	14.82	-33.1	-49.7	3.8	7.43e-01	0	41	104	0	27	24504
2026-01-11 03:08:08.22	1.30	15.12	-32.9	-49.4	3.8	7.43e-01	0	41	104	0	26	23939
2026-01-11 03:08:11.24	0.91	15.42	-32.8	-49.0	3.8	7.46e-01	0	41	104	0	26	23242
2026-01-11 03:08:14.26	0.51	15.73	-32.3	-47.4	3.8	7.45e-01	0	41	104	0	25	20425
2026-01-11 03:08:17.28	0.11	16.04	-32.3	-47.4	3.8	7.45e-01	0	41	104	0	25	20327
2026-01-11 03:08:20.30	359.69	16.35	-32.1	-46.5	3.8	7.43e-01	0	41	104	0	25	18964
2026-01-11 03:08:23.32	359.26	16.67	-31.3	-44.9	3.8	7.45e-01	0	42	104	0	23	17170
2026-01-11 03:08:26.34	358.83	16.99	-30.2	-42.8	3.8	7.46e-01	0	41	104	0	21	15420
2026-01-11 03:08:29.37	358.38	17.31	-30.0	-42.9	3.8	7.42e-01	0	41	104	0	20	15858
2026-01-11 03:08:32.40	357.92	17.64	-30.7	-43.6	3.8	7.43e-01	0	41	104	0	22	15942
2026-01-11 03:08:35.41	357.46	17.97	-31.6	-45.8	3.8	7.45e-01	0	41	104	0	23	18439
2026-01-11 03:08:38.42	356.98	18.30	-32.4	-47.7	3.8	7.42e-01	0	41	104	0	25	20847
2026-01-11 03:08:41.44	356.49	18.63	-33.1	-49.8	3.8	7.44e-01	0	41	104	0	26	24735
2026-01-11 03:08:44.46	355.99	18.97	-32.8	-48.4	3.8	7.45e-01	0	41	104	0	26	21842
2026-01-11 03:08:47.48	355.47	19.31	-32.9	-48.8	3.8	7.41e-01	0	42	104	0	26	22550
2026-01-11 03:08:50.50	354.95	19.65	-33.3	-49.9	3.8	7.47e-01	0	42	104	0	27	24492
2026-01-11 03:08:53.52	354.41	19.99	-33.3	-50.0	3.8	7.44e-01	0	41	104	0	27	24586
2026-01-11 03:08:56.54	353.86	20.34	-33.1	-49.3	3.8	7.45e-01	0	42	104	0	27	23090
2026-01-11 03:08:59.56	353.29	20.69	-33.2	-49.3	3.8	7.43e-01	0	42	104	0	27	23098
2026-01-11 03:09:02.58	352.71	21.04	-32.9	-41.4	4.9	7.08e-01	0	41	104	0	26	9510
2026-01-11 03:09:05.60	352.11	21.40	-32.2	-37.8	14.2	6.04e-01	0	42	0	3145728	25	6866
2026-01-11 03:09:08.62	351.51	21.76	-31.2	-35.3	16.9	6.03e-01	0	42	0	8388608	23	5753
2026-01-11 03:09:11.64	350.88	22.12	-30.3	-33.6	18.6	6.05e-01	0	42	0	14155776	21	5287
2026-01-11 03:09:14.66	350.24	22.48	-30.0	-32.9	19.0	6.01e-01	0	42	0	19922944	21	5012
2026-01-11 03:09:17.67	349.59	22.84	-29.9	-33.1	19.2	6.05e-01	0	42	0	25690112	20	5204
2026-01-11 03:09:20.69	348.91	23.20	-29.7	-32.6	19.6	6.03e-01	0	42	0	31457280	20	5028
2026-01-11 03:09:23.71	348.22	23.57	-29.8	-32.9	19.4	6.04e-01	0	41	0	36700160	20	5129
2026-01-11 03:09:26.73	347.52	23.94	-29.8	-32.8	19.4	6.03e-01	0	42	0	42467328	20	5104
2026-01-11 03:09:29.74	346.79	24.30	-29.6	-32.3	19.7	6.03e-01	0	42	0	48234496	20	4917
2026-01-11 03:09:32.75	346.05	24.67	-29.8	-32.8	19.5	6.04e-01	0	42	0	54001664	20	5095
2026-01-11 03:09:35.76	345.29	25.04	-29.8	-32.8	19.5	6.03e-01	0	42	0	59768832	20	5090
2026-01-11 03:09:38.78	344.51	25.41	-29.6	-32.4	19.7	6.03e-01	0	42	0	65011712	20	4945
2026-01-11 03:09:41.79	343.72	25.78	-29.5	-32.6	20.0	6.05e-01	0	42	0	70778880	19	5113
2026-01-11 03:09:44.81	342.90	26.15	-29.4	-32.4	20.1	6.06e-01	0	42	0	76546048	19	5035
2026-01-11 03:09:47.83	342.06	26.51	-29.5	-32.6	20.0	6.04e-01	0	42	0	82313216	19	5108
2026-01-11 03:09:50.86	341.19	26.88	-29.6	-32.3	19.8	6.03e-01	0	41	0	88080384	20	4920
2026-01-11 03:09:53.88	340.31	27.25	-29.4	-32.3	20.2	6.03e-01	0	42	0	93323264	19	5026
2026-01-11 03:09:56.89	339.41	27.61	-29.5	-32.4	20.2	6.05e-01	0	42	0	99090432	19	5049
2026-01-11 03:09:59.91	338.49	27.97	-29.4	-32.2	20.3	6.02e-01	0	42	0	104857600	19	4968
2026-01-11 03:10:02.92	337.54	28.32	-29.6	-32.4	19.9	6.01e-01	0	42	0	110624768	20	4927
2026-01-11 03:10:05.94	336.57	28.67	-29.7	-32.5	19.8	6.05e-01	0	41	0	116391936	20	4984
2026-01-11 03:10:08.97	335.58	29.02	-30.2	-33.3	19.0	6.04e-01	0	42	0	121634816	21	5160
2026-01-11 03:10:11.98	334.57	29.37	-30.1	-33.2	19.1	6.03e-01	0	42	0	127401984	21	5091
2026-01-11 03:10:15.00	333.53	29.70	-30.5	-34.2	18.5	6.04e-01	0	42	0	133169152	21	5477
2026-01-11 03:10:18.02	332.47	30.03	-29.3	-32.0	20.4	6.04e-01	0	41	0	138936320	19	4916
2026-01-11 03:10:21.02	331.40	30.36	-30.1	-33.1	19.1	6.01e-01	0	42	0	144179200	21	5069
2026-01-11 03:10:24.04	330.29	30.67	-30.0	-33.2	19.3	6.03e-01	0	42	0	149946368	20	5225
2026-01-11 03:10:27.04	329.17	30.98	-30.0	-33.4	19.3	6.01e-01	0	42	0	155713536	20	5288
2026-01-11 03:10:30.06	328.03	31.28	-29.2	-31.6	20.6	6.04e-01	0	42	0	161480704	19	4777
2026-01-11 03:10:33.08	326.85	31.57	-29.3	-32.0	20.4	6.05e-01	0	42	0	167247872	19	4910
2026-01-11 03:10:36.09	325.67	31.85	-29.2	-31.6	20.7	6.03e-01	0	42	0	172490752	19	4764
2026-01-11 03:10:39.11	324.45	32.12	-29.1	-31.6	20.8	6.04e-01	0	42	0	178257920	19	4756
2026-01-11 03:10:42.12	323.22	32.37	-29.0	-31.7	21.0	6.02e-01	0	42	0	184025088	18	4909
2026-01-11 03:10:45.14	321.97	32.62	-29.1	-31.4	20.8	6.00e-01	0	42	0	189792256	19	4713
2026-01-11 03:10:48.16	320.69	32.85	-29.1	-31.5	20.8	6.03e-01	0	42	0	195559424	19	4736
2026-01-11 03:10:51.18	319.40	33.06	-29.0	-31.3	20.9	6.03e-01	0	42	0	200802304	19	4666
2026-01-11 03:10:54.20	318.09	33.27	-29.1	-31.4	20.9	6.03e-01	0	42	0	206569472	19	4702
2026-01-11 03:10:57.21	316.77	33.45	-29.3	-31.9	20.6	6.04e-01	0	42	0	212336640	19	4853
2026-01-11 03:11:00.23	315.43	33.62	-29.6	-32.4	17.9	6.04e-01	0	42	0	218103808	20	4920
2026-01-11 03:11:03.25	314.08	33.77	-29.7	-32.6	18.5	6.07e-01	0	42	0	223870976	20	4996
2026-01-11 03:11:06.27	312.71	33.91	-29.9	-32.9	19.5	6.01e-01	0	42	0	229113856	20	5105
2026-01-11 03:11:09.29	311.33	34.03	-29.9	-32.9	19.5	6.02e-01	0	42	0	234881024	20	5098
2026-01-11 03:11:12.30	309.95	34.13	-29.2	-31.6	20.8	6.06e-01	0	42	0	240648192	19	4775
2026-01-11 03:11:15.33	308.55	34.21	-29.4	-31.8	20.0	6.00e-01	0	42	0	246415360	20	4718
2026-01-11 03:11:18.34	307.15	34.28	-29.3	-31.9	20.7	6.02e-01	0	42	0	252182528	19	4859
2026-01-11 03:11:21.36	305.74	34.32	-29.4	-31.7	20.2	6.01e-01	0	42	0	257425408	20	4693
2026-01-11 03:11:24.38	304.33	34.34	-29.6	-32.2	20.0	6.02e-01	0	42	0	263192576	20	4850
2026-01-11 03:11:27.40	302.92	34.35	-29.4	-32.2	20.4	6.04e-01	0	42	0	268959744	19	4955
2026-01-11 03:11:30.41	301.51	34.34	-29.2	-31.2	20.5	6.02e-01	0	42	0	274726912	20	4547
2026-01-11 03:11:33.42	300.11	34.30	-29.3	-32.0	20.5	6.04e-01	0	42	0	279969792	19	4884
2026-01-11 03:11:36.43	298.71	34.25	-29.6	-32.7	20.1	6.07e-01	0	42	0	285736960	19	5141
2026-01-11 03:11:39.45	297.31	34.18	-29.7	-32.5	19.7	6.05e-01	0	42	0	291504128	20	4977
2026-01-11 03:11:42.46	295.92	34.09	-29.2	-31.7	20.7	6.02e-01	0	42	0	297271296	19	4789
2026-01-11 03:11:45.48	294.53	33.98	-29.9	-33.1	19.3	6.02e-01	0	42	0	303038464	20	5180
2026-01-11 03:11:48.49	293.16	33.86	-29.3	-31.4	20.1	6.06e-01	0	42	0	308281344	20	4601
2026-01-11 03:11:51.51	291.80	33.72	-29.0	-30.8	20.8	6.02e-01	0	42	0	314048512	20	4409
2026-01-11 03:11:54.53	290.44	33.56	-29.6	-32.3	20.0	6.04e-01	0	42	0	319815680	20	4902
2026-01-11 03:11:57.55	289.11	33.38	-30.0	-33.3	19.4	6.02e-01	0	42	0	325582848	20	5264
2026-01-11 03:12:00.56	287.79	33.19	-29.6	-32.3	19.9	6.02e-01	0	42	0	330825728	20	4918
2026-01-11 03:12:03.59	286.48	32.98	-29.5	-32.4	20.2	6.07e-01	0	42	0	336592896	19	5051
2026-01-11 03:12:06.61	285.19	32.76	-29.3	-31.5	20.4	6.00e-01	0	42	0	342360064	20	4623
2026-01-11 03:12:09.62	283.93	32.52	-29.6	-32.4	19.8	6.04e-01	0	42	0	348127232	20	4947
2026-01-11 03:12:12.63	282.69	32.27	-28.9	-31.0	20.9	6.02e-01	0	42	0	353894400	19	4573
2026-01-11 03:12:15.65	281.46	32.01	-29.3	-32.0	20.4	6.02e-01	0	42	0	359137280	19	4906
2026-01-11 03:12:18.66	280.25	31.74	-29.3	-31.8	20.5	6.05e-01	0	42	0	364904448	19	4850
2026-01-11 03:12:21.67	279.07	31.45	-29.6	-32.6	20.0	6.04e-01	0	42	0	370671616	19	5134
2026-01-11 03:12:24.70	277.90	31.16	-28.5	-31.3	19.6	6.05e-01	0	42	0	376438784	20	4984
2026-01-11 03:12:27.71	276.76	30.85	-29.3	-32.0	19.4	6.06e-01	0	42	0	382205952	19	4913
2026-01-11 03:12:30.72	275.64	30.54	-29.4	-32.3	20.2	6.02e-01	0	42	0	387448832	19	5023
2026-01-11 03:12:33.74	274.54	30.22	-29.9	-33.1	19.4	6.02e-01	0	42	0	393216000	20	5186
2026-01-11 03:12:36.76	273.47	29.89	-29.5	-32.4	20.1	6.03e-01	0	42	0	398983168	19	5050
2026-01-11 03:12:39.77	272.42	29.56	-29.7	-32.5	19.7	6.04e-01	0	42	0	404750336	20	4984
2026-01-11 03:12:42.77	271.39	29.22	-29.5	-32.6	19.9	6.03e-01	0	42	0	409993216	19	5140
2026-01-11 03:12:45.78	270.39	28.87	-29.9	-33.1	19.3	6.05e-01	0	42	0	415760384	20	5204
2026-01-11 03:12:48.80	269.40	28.52	-29.5	-32.1	19.9	6.04e-01	0	42	0	421527552	20	4848
2026-01-11 03:12:51.80	268.45	28.17	-30.1	-33.2	18.8	6.03e-01	0	42	0	427294720	21	5124
2026-01-11 03:12:54.81	267.51	27.81	-30.1	-33.6	19.0	6.01e-01	0	42	0	432537600	20	5391
2026-01-11 03:12:57.83	266.59	27.45	-29.5	-32.1	19.9	6.03e-01	0	42	0	438304768	20	4836
2026-01-11 03:13:00.86	265.69	27.08	-30.2	-33.5	18.7	6.02e-01	0	42	0	444071936	21	5255
2026-01-11 03:13:03.88	264.81	26.72	-29.4	-32.3	20.1	6.03e-01	0	42	0	449839104	19	5015
2026-01-11 03:13:06.90	263.95	26.35	-29.5	-32.6	19.9	6.04e-01	0	42	0	455606272	19	5135
2026-01-11 03:13:09.91	263.12	25.98	-29.8	-32.8	19.4	6.03e-01	0	42	0	460849152	20	5089
2026-01-11 03:13:12.92	262.31	25.61	-29.6	-32.8	19.8	6.03e-01	0	42	0	466616320	19	5201
2026-01-11 03:13:15.94	261.51	25.24	-29.7	-32.7	19.4	6.03e-01	0	42	0	472383488	20	5082
2026-01-11 03:13:18.96	260.73	24.87	-29.6	-32.4	19.6	6.05e-01	0	42	0	478150656	20	4970
2026-01-11 03:13:21.98	259.98	24.50	-29.6	-32.4	19.5	6.05e-01	0	42	0	483917824	20	4960
2026-01-11 03:13:25.00	259.24	24.13	-29.6	-32.8	19.7	6.03e-01	0	42	0	489160704	19	5201
2026-01-11 03:13:28.03	258.51	23.76	-29.6	-32.3	19.6	6.03e-01	0	42	0	494927872	20	4936
2026-01-11 03:13:31.03	257.82	23.39	-30.0	-33.5	18.8	6.04e-01	0	42	0	500695040	20	5385
2026-01-11 03:13:34.04	257.13	23.02	-30.1	-33.6	18.7	6.05e-01	0	42	0	506462208	20	5431
2026-01-11 03:13:37.05	256.46	22.66	-30.0	-33.4	18.9	6.02e-01	0	42	0	512229376	20	5324
2026-01-11 03:13:40.07	255.81	22.29	-29.7	-32.7	19.3	6.01e-01	0	42	0	517472256	20	5077
2026-01-11 03:13:43.08	255.18	21.93	-29.7	-32.6	19.3	6.05e-01	0	42	0	523239424	20	5063
2026-01-11 03:13:46.09	254.56	21.57	-29.7	-32.6	19.3	6.05e-01	0	42	0	529006592	20	5064
2026-01-11 03:13:49.11	253.95	21.22	-29.5	-32.3	19.5	6.03e-01	0	42	0	534773760	20	4945
2026-01-11 03:13:52.14	253.36	20.86	-29.6	-32.8	19.6	6.03e-01	0	42	0	540540928	19	5237
2026-01-11 03:13:55.16	252.78	20.51	-29.5	-32.7	19.6	6.02e-01	0	42	0	545783808	19	5241
2026-01-11 03:13:58.18	252.21	20.16	-29.5	-32.5	19.7	6.03e-01	0	42	0	551550976	19	5125
2026-01-11 03:14:01.19	251.67	19.81	-29.5	-32.7	19.6	6.05e-01	0	42	0	557318144	19	5188
2026-01-11 03:14:04.21	251.13	19.46	-29.1	-32.8	19.2	6.04e-01	0	42	0	563085312	18	5504
2026-01-11 03:14:07.23	250.60	19.12	-29.3	-32.3	19.8	6.02e-01	0	42	0	568852480	19	5042
2026-01-11 03:14:10.25	250.09	18.78	-29.5	-32.6	19.6	6.02e-01	0	42	0	574095360	19	5156
2026-01-11 03:14:13.27	249.59	18.44	-29.6	-32.9	19.5	6.05e-01	0	42	0	579862528	19	5257
2026-01-11 03:14:16.29	249.10	18.11	-29.4	-32.1	19.5	6.03e-01	0	42	0	585629696	20	4869
2026-01-11 03:14:19.30	248.63	17.78	-29.4	-32.5	19.6	6.03e-01	0	42	0	591396864	19	5115
2026-01-11 03:14:22.31	248.16	17.45	-29.4	-32.4	19.6	6.02e-01	0	42	0	596639744	19	5110
2026-01-11 03:14:25.33	247.71	17.13	-29.6	-32.9	19.4	6.04e-01	0	42	0	602406912	19	5270
2026-01-11 03:14:28.35	247.26	16.80	-29.5	-32.3	19.4	6.03e-01	0	42	0	608174080	20	4944
2026-01-11 03:14:31.37	246.83	16.48	-29.4	-32.4	19.7	6.03e-01	0	42	0	613941248	19	5089
2026-01-11 03:14:34.39	246.40	16.17	-29.4	-32.6	19.5	6.04e-01	0	42	0	619708416	19	5181
2026-01-11 03:14:37.40	245.99	15.86	-29.5	-32.6	19.5	6.02e-01	0	42	0	624951296	19	5191
2026-01-11 03:14:40.42	245.58	15.54	-29.5	-32.7	19.4	6.06e-01	0	42	0	630718464	19	5203
2026-01-11 03:14:43.42	245.19	15.24	-29.5	-32.7	19.3	6.04e-01	0	42	0	636485632	19	5221
2026-01-11 03:14:46.44	244.80	14.93	-29.6	-32.5	19.1	6.05e-01	0	42	0	642252800	20	5049
2026-01-11 03:14:49.45	244.42	14.63	-29.6	-32.6	19.0	6.03e-01	0	42	0	647495680	20	5101
2026-01-11 03:14:52.46	244.05	14.34	-29.7	-33.0	18.8	6.01e-01	0	42	0	653262848	20	5228
2026-01-11 03:14:55.48	243.69	14.04	-29.6	-32.7	18.9	6.03e-01	0	42	0	659030016	20	5133
2026-01-11 03:14:58.50	243.33	13.75	-29.6	-32.6	19.0	6.02e-01	0	42	0	664797184	20	5096
2026-01-11 03:15:01.52	242.98	13.46	-29.6	-33.0	19.0	6.02e-01	0	42	0	670564352	19	5349
2026-01-11 03:15:04.53	242.64	13.17	-29.7	-32.9	18.7	6.03e-01	0	42	0	675807232	20	5219
2026-01-11 03:15:07.56	242.31	12.88	-29.7	-32.8	18.8	6.02e-01	0	42	0	681574400	20	5190
2026-01-11 03:15:10.58	241.98	12.60	-29.6	-32.8	18.8	6.01e-01	0	42	0	687341568	20	5155
2026-01-11 03:15:13.59	241.66	12.32	-29.5	-32.5	18.9	6.02e-01	0	42	0	693108736	20	5052
2026-01-11 03:15:16.60	241.35	12.05	-29.6	-32.6	18.8	6.04e-01	0	42	0	698875904	20	5120
2026-01-11 03:15:19.62	241.04	11.78	-29.7	-32.8	18.7	6.03e-01	0	42	0	704118784	20	5200
2026-01-11 03:15:22.64	240.74	11.50	-29.6	-32.7	18.0	6.05e-01	0	42	0	709885952	20	5151
2026-01-11 03:15:25.67	240.45	11.23	-29.6	-32.8	18.6	6.04e-01	0	42	0	715653120	20	5186
2026-01-11 03:15:28.67	240.16	10.97	-30.0	-33.8	18.0	6.04e-01	0	42	0	721420288	20	5593
2026-01-11 03:15:31.69	239.87	10.71	-29.9	-33.5	18.2	6.04e-01	0	42	0	727187456	20	5486
2026-01-11 03:15:34.70	239.60	10.45	-30.0	-34.0	17.8	6.03e-01	0	42	0	732430336	20	5674
2026-01-11 03:15:37.72	239.33	10.19	-30.3	-34.3	17.2	6.03e-01	0	42	0	738197504	21	5681
2026-01-11 03:15:40.74	239.06	9.93	-30.0	-33.8	18.0	6.04e-01	0	42	0	743964672	20	5588
2026-01-11 03:15:43.74	238.80	9.68	-30.3	-34.3	17.3	6.04e-01	0	42	0	749731840	21	5718
2026-01-11 03:15:46.76	238.54	9.43	-30.1	-34.1	17.7	6.05e-01	0	42	0	754974720	20	5738
2026-01-11 03:15:49.78	238.29	9.18	-30.4	-34.8	16.9	6.04e-01	0	42	0	760741888	21	5928
2026-01-11 03:15:52.79	238.04	8.93	-30.0	-33.8	17.8	6.03e-01	0	42	0	766509056	20	5635
2026-01-11 03:15:55.81	237.80	8.69	-30.0	-34.0	17.7	6.02e-01	0	42	0	772276224	20	5693
2026-01-11 03:15:58.83	237.56	8.44	-30.3	-34.4	17.0	6.04e-01	0	42	0	778043392	21	5795
2026-01-11 03:16:01.85	237.33	8.20	-30.0	-34.1	17.6	6.04e-01	0	42	0	783286272	20	5742
2026-01-11 03:16:04.86	237.10	7.97	-30.3	-34.6	16.9	6.04e-01	0	42	0	789053440	21	5870
2026-01-11 03:16:07.87	236.87	7.73	-30.8	-35.5	15.9	6.03e-01	0	42	0	794820608	22	6234
2026-01-11 03:16:10.89	236.65	7.50	-30.4	-34.5	16.5	6.06e-01	0	42	0	800587776	22	5724
2026-01-11 03:16:13.90	236.43	7.26	-30.5	-35.1	16.4	6.03e-01	0	42	0	805830656	21	6120
2026-01-11 03:16:16.92	236.22	7.03	-33.1	-49.5	4.0	7.41e-01	0	42	104	811073536	27	23600

#Closed at: 2026-01-11 03:16:17
#Recorded file [811 MB]: D:/data/31010_260111_060903.dat