passes_logs/2026/01/11/R2M6_AANII_01/R2M6_AANII_01__20260111_225107_SUOMI_NPP_rec.log

#Pass ID: 20260111_225107_SUOMI NPP
#Satellite: SUOMI NPP
#Configuration: NPP
#almurnet v.1.7.20240730
#Start time: 2026-01-11 22:51:09

#Version: 2.2.20231116
#Station: R2M6_AANII_01
#Location: 30.233357 lon 59.946436 lat
#TLE: 1 37849U 11061A   26011.29776829  .00000112  00000+0  74065-4 0  9999
#TLE: 2 37849  98.7807 313.3784 0002522  70.0451 290.0996 14.19524507736187

#Time	Az	El	Level	Level2	SNR	BER	BlckErr	Temp	State	Recorded	gain1	gain2
2026-01-11 22:51:09.19	29.71	7.10	-31.8	-37.8	4.6	1.28e+00	0	39	0	0	23	7194
2026-01-11 22:51:12.22	29.99	7.29	-32.0	-38.0	5.9	3.98e-01	0	39	0	1048576	24	7250
2026-01-11 22:51:15.24	30.27	7.48	-31.4	-35.6	8.1	1.09e-01	0	39	0	7340032	23	5812
2026-01-11 22:51:18.25	30.56	7.68	-30.9	-34.0	9.8	1.07e-02	0	40	0	12582912	22	5151
2026-01-11 22:51:21.27	30.85	7.87	-30.7	-33.8	10.3	5.77e-03	0	40	0	18874368	21	5143
2026-01-11 22:51:24.28	31.14	8.06	-30.3	-32.6	11.3	8.86e-04	0	40	0	24117248	21	4649
2026-01-11 22:51:27.30	31.44	8.26	-30.1	-32.3	11.8	6.38e-04	0	40	0	29360128	20	4639
2026-01-11 22:51:30.32	31.74	8.46	-30.1	-32.3	11.9	3.95e-04	0	40	0	35651584	20	4624
2026-01-11 22:51:33.34	32.05	8.66	-30.3	-33.0	11.4	7.70e-04	0	40	0	40894464	20	4876
2026-01-11 22:51:36.36	32.36	8.86	-30.2	-32.4	11.8	4.87e-04	0	40	0	47185920	20	4661
2026-01-11 22:51:39.37	32.67	9.06	-30.5	-33.3	11.3	7.57e-04	0	40	0	52428800	20	5004
2026-01-11 22:51:42.39	32.99	9.26	-30.3	-32.3	11.7	5.54e-04	0	40	0	57671680	21	4512
2026-01-11 22:51:45.40	33.31	9.46	-30.3	-32.7	11.6	5.59e-04	0	40	0	63963136	20	4779
2026-01-11 22:51:48.42	33.64	9.66	-30.3	-32.7	11.8	4.91e-04	0	40	0	69206016	20	4735
2026-01-11 22:51:51.43	33.97	9.86	-30.3	-32.7	11.8	4.18e-04	0	40	0	74448896	20	4753
2026-01-11 22:51:54.44	34.30	10.07	-30.5	-32.8	11.3	7.30e-04	0	41	0	80740352	21	4696
2026-01-11 22:51:57.46	34.64	10.27	-30.5	-32.8	11.3	9.00e-04	0	41	0	85983232	21	4702
2026-01-11 22:52:00.48	34.99	10.48	-30.5	-32.8	11.4	1.02e-03	0	41	0	92274688	21	4695
2026-01-11 22:52:03.48	35.33	10.68	-30.1	-31.7	12.1	2.54e-04	0	41	0	97517568	21	4318
2026-01-11 22:52:06.50	35.69	10.89	-30.0	-31.8	12.5	3.34e-04	0	41	0	102760448	20	4434
2026-01-11 22:52:09.52	36.05	11.10	-29.8	-31.3	12.8	2.01e-04	0	41	0	109051904	20	4268
2026-01-11 22:52:12.54	36.41	11.31	-29.8	-31.3	12.9	1.50e-04	0	41	0	114294784	20	4257
2026-01-11 22:52:15.55	36.78	11.52	-29.9	-31.4	12.8	1.21e-04	0	41	0	120586240	20	4285
2026-01-11 22:52:18.57	37.15	11.73	-29.7	-30.9	13.2	3.12e-05	0	41	0	125829120	20	4131
2026-01-11 22:52:21.59	37.53	11.94	-29.5	-30.4	13.4	1.67e-05	0	41	0	131072000	20	3997
2026-01-11 22:52:24.60	37.92	12.15	-29.6	-30.6	13.4	1.14e-05	0	41	0	137363456	20	4054
2026-01-11 22:52:27.62	38.31	12.37	-29.9	-31.8	13.0	2.39e-04	0	41	0	142606336	19	4514
2026-01-11 22:52:30.65	38.70	12.58	-29.7	-30.9	13.2	1.34e-04	0	41	0	148897792	20	4143
2026-01-11 22:52:33.66	39.10	12.79	-30.0	-32.1	12.9	1.52e-04	0	41	0	154140672	19	4584
2026-01-11 22:52:36.67	39.51	13.01	-30.0	-31.7	12.7	2.79e-04	0	41	0	159383552	20	4397
2026-01-11 22:52:39.69	39.92	13.22	-30.2	-32.2	12.4	1.67e-04	0	41	0	165675008	20	4557
2026-01-11 22:52:42.71	40.34	13.44	-29.8	-31.1	13.2	1.45e-04	0	41	0	170917888	20	4176
2026-01-11 22:52:45.72	40.76	13.66	-29.6	-30.5	13.6	1.14e-05	0	41	0	177209344	20	3990
2026-01-11 22:52:48.74	41.19	13.87	-29.3	-29.8	14.0	6.80e-06	0	41	0	182452224	20	3805
2026-01-11 22:52:51.76	41.63	14.09	-29.3	-30.3	14.1	1.67e-05	0	41	0	187695104	19	4023
2026-01-11 22:52:54.78	42.07	14.31	-29.3	-30.3	14.1	7.00e-07	0	41	0	193986560	19	4012
2026-01-11 22:52:57.78	42.52	14.53	-29.4	-30.4	14.1	2.20e-06	0	41	0	199229440	19	4050
2026-01-11 22:53:00.80	42.97	14.75	-29.5	-30.7	13.9	3.00e-06	0	41	0	205520896	19	4144
2026-01-11 22:53:03.82	43.43	14.96	-29.4	-30.4	14.1	0.00e+00	0	41	0	210763776	19	4058
2026-01-11 22:53:06.84	43.90	15.18	-29.6	-31.0	13.7	2.20e-06	0	41	0	216006656	19	4218
2026-01-11 22:53:09.85	44.38	15.40	-29.8	-31.6	13.4	8.30e-06	0	41	0	222298112	19	4390
2026-01-11 22:53:12.86	44.86	15.62	-30.0	-31.9	13.1	1.83e-05	0	41	0	227540992	19	4519
2026-01-11 22:53:15.88	45.35	15.84	-29.9	-31.4	13.2	1.90e-05	0	41	0	232783872	20	4255
2026-01-11 22:53:18.90	45.84	16.06	-29.9	-31.3	13.2	1.90e-05	0	41	0	239075328	20	4240
2026-01-11 22:53:21.92	46.35	16.28	-29.9	-31.2	13.3	4.11e-05	0	42	0	244318208	20	4195
2026-01-11 22:53:24.94	46.86	16.50	-30.0	-31.9	13.2	9.90e-06	0	41	0	250609664	19	4508
2026-01-11 22:53:27.96	47.38	16.72	-29.2	-30.4	14.5	7.00e-07	0	41	0	255852544	18	4135
2026-01-11 22:53:30.98	47.90	16.94	-29.1	-30.1	14.8	0.00e+00	0	42	0	261095424	18	4043
2026-01-11 22:53:34.00	48.43	17.16	-29.0	-29.8	14.9	0.00e+00	0	42	0	267386880	18	3958
2026-01-11 22:53:37.00	48.97	17.38	-29.3	-30.6	14.5	7.00e-07	0	42	0	272629760	18	4181
2026-01-11 22:53:40.02	49.52	17.60	-29.3	-30.7	14.5	3.80e-06	0	41	0	278921216	18	4199
2026-01-11 22:53:43.04	50.07	17.82	-29.1	-30.0	14.8	7.00e-07	0	42	0	284164096	18	4014
2026-01-11 22:53:46.06	50.64	18.03	-29.1	-30.0	14.8	1.30e-04	0	42	0	289406976	18	4018
2026-01-11 22:53:49.07	51.21	18.25	-29.2	-30.5	14.5	5.74e-04	0	42	0	295698432	18	4147
2026-01-11 22:53:52.10	51.79	18.46	-29.2	-30.4	14.6	4.42e-04	0	41	0	300941312	18	4116
2026-01-11 22:53:55.10	52.37	18.68	-29.4	-30.9	14.3	1.50e-06	0	41	0	307232768	18	4269
2026-01-11 22:53:58.13	52.97	18.89	-29.4	-30.9	14.3	1.03e-03	0	42	0	312475648	18	4253
2026-01-11 22:54:01.14	53.57	19.10	-29.2	-29.8	14.7	1.50e-06	0	42	0	317718528	19	3858
2026-01-11 22:54:04.16	54.19	19.31	-29.6	-30.8	14.1	2.20e-06	0	42	0	324009984	19	4138
2026-01-11 22:54:07.18	54.81	19.52	-29.9	-31.7	13.5	8.69e-05	0	42	0	329252864	19	4426
2026-01-11 22:54:10.20	55.43	19.73	-30.2	-32.0	12.9	3.73e-05	0	41	0	335544320	20	4434
2026-01-11 22:54:13.21	56.07	19.94	-29.9	-31.0	13.6	1.06e-05	0	41	0	340787200	20	4127
2026-01-11 22:54:16.23	56.72	20.14	-29.9	-31.1	13.6	1.06e-05	0	42	0	346030080	20	4136
2026-01-11 22:54:19.25	57.37	20.34	-30.1	-31.6	13.2	2.51e-05	0	42	0	352321536	20	4304
2026-01-11 22:54:22.25	58.03	20.54	-29.6	-30.7	14.2	0.00e+00	0	41	0	357564416	19	4118
2026-01-11 22:54:25.27	58.70	20.74	-30.1	-31.8	13.1	2.85e-04	0	41	0	363855872	20	4376
2026-01-11 22:54:28.28	59.38	20.94	-30.3	-32.2	12.8	1.15e-04	0	42	0	369098752	20	4501
2026-01-11 22:54:31.30	60.06	21.13	-29.7	-30.5	14.0	3.00e-06	0	42	0	374341632	20	3977
2026-01-11 22:54:34.32	60.76	21.32	-29.6	-30.4	14.1	1.50e-06	0	42	0	380633088	20	3931
2026-01-11 22:54:37.34	61.47	21.51	-29.4	-29.8	14.4	0.00e+00	0	42	0	385875968	20	3772
2026-01-11 22:54:40.36	62.18	21.69	-29.6	-30.8	14.2	1.50e-06	0	42	0	392167424	19	4142
2026-01-11 22:54:43.37	62.90	21.88	-29.8	-31.4	13.7	6.10e-06	0	42	0	397410304	19	4327
2026-01-11 22:54:46.38	63.63	22.05	-28.9	-29.6	15.2	0.00e+00	0	42	0	402653184	18	3877
2026-01-11 22:54:49.39	64.36	22.23	-29.1	-30.2	14.9	0.00e+00	0	42	0	408944640	18	4042
2026-01-11 22:54:52.40	65.10	22.40	-29.7	-31.0	14.1	0.00e+00	0	42	0	414187520	19	4185
2026-01-11 22:54:55.42	65.86	22.57	-30.2	-31.8	13.2	2.13e-05	0	42	0	419430400	20	4357
2026-01-11 22:54:58.44	66.62	22.73	-29.8	-30.9	13.8	8.30e-06	0	42	0	425721856	20	4068
2026-01-11 22:55:01.45	67.39	22.89	-29.7	-31.0	14.1	4.50e-06	0	42	0	430964736	19	4185
2026-01-11 22:55:04.46	68.16	23.04	-30.4	-32.4	12.8	2.82e-05	0	42	0	437256192	20	4553
2026-01-11 22:55:07.48	68.95	23.19	-30.3	-31.6	13.0	5.72e-05	0	42	0	442499072	21	4209
2026-01-11 22:55:10.50	69.74	23.34	-30.5	-32.1	12.6	6.86e-05	0	42	0	447741952	21	4370
2026-01-11 22:55:13.52	70.54	23.48	-30.2	-31.4	13.2	3.66e-05	0	42	0	454033408	21	4125
2026-01-11 22:55:16.54	71.35	23.62	-30.7	-33.0	12.1	1.42e-04	0	42	0	459276288	21	4647
2026-01-11 22:55:19.56	72.16	23.75	-31.9	-35.5	9.6	9.21e-03	0	42	0	465567744	23	5500
2026-01-11 22:55:22.58	72.98	23.87	-31.0	-32.7	11.6	7.07e-04	0	42	0	470810624	23	4373
2026-01-11 22:55:25.60	73.81	23.99	-30.9	-32.8	11.9	2.49e-04	0	42	0	476053504	22	4484
2026-01-11 22:55:28.61	74.64	24.11	-30.9	-32.8	11.9	2.94e-04	0	42	0	482344960	22	4496
2026-01-11 22:55:31.63	75.48	24.22	-30.8	-32.7	11.9	3.46e-04	0	42	0	487587840	22	4480
2026-01-11 22:55:34.64	76.32	24.32	-31.1	-33.5	11.4	6.31e-04	0	42	0	493879296	22	4738
2026-01-11 22:55:37.66	77.17	24.42	-31.5	-34.1	10.6	3.47e-03	0	42	0	499122176	23	4902
2026-01-11 22:55:40.67	78.02	24.51	-31.3	-34.1	11.0	1.88e-03	0	42	0	504365056	22	4991
2026-01-11 22:55:43.68	78.88	24.59	-30.3	-31.1	13.0	1.67e-04	0	42	0	510656512	22	3966
2026-01-11 22:55:46.69	79.74	24.67	-29.6	-30.2	14.2	3.00e-06	0	42	0	515899392	20	3876
2026-01-11 22:55:49.71	80.60	24.74	-30.6	-32.5	12.4	4.73e-05	0	42	0	522190848	21	4495
2026-01-11 22:55:52.72	81.47	24.81	-30.6	-32.5	12.4	2.00e-04	0	42	0	527433728	21	4499
2026-01-11 22:55:55.74	82.35	24.86	-30.8	-33.1	12.0	2.28e-04	0	42	0	532676608	21	4702
2026-01-11 22:55:58.76	83.23	24.91	-31.0	-33.3	11.5	1.74e-03	0	42	0	538968064	22	4666
2026-01-11 22:56:01.78	84.11	24.96	-30.8	-32.6	12.1	2.60e-04	0	42	0	544210944	22	4419
2026-01-11 22:56:04.79	84.99	25.00	-30.0	-31.0	13.5	3.05e-05	0	42	0	550502400	21	4006
2026-01-11 22:56:07.81	85.87	25.03	-29.0	-29.3	15.2	0.00e+00	0	42	0	555745280	19	3712
2026-01-11 22:56:10.84	86.76	25.05	-29.6	-30.7	14.3	0.00e+00	0	42	0	560988160	19	4115
2026-01-11 22:56:13.85	87.65	25.07	-29.6	-30.7	14.3	0.00e+00	0	42	0	567279616	19	4089
2026-01-11 22:56:16.87	88.53	25.08	-29.5	-30.6	14.4	0.00e+00	0	42	0	572522496	19	4073
2026-01-11 22:56:19.88	89.42	25.08	-29.8	-30.7	14.0	4.50e-06	0	42	0	578813952	20	4024
2026-01-11 22:56:22.90	90.31	25.07	-30.2	-31.9	13.2	3.58e-05	0	42	0	584056832	20	4372
2026-01-11 22:56:25.91	91.19	25.06	-30.5	-32.3	12.6	1.87e-04	0	42	0	589299712	21	4419
2026-01-11 22:56:28.92	92.08	25.04	-29.8	-30.7	14.0	9.10e-06	0	42	0	595591168	20	4025
2026-01-11 22:56:31.92	92.96	25.02	-29.5	-30.1	14.3	3.00e-06	0	42	0	600834048	20	3836
2026-01-11 22:56:34.94	93.84	24.98	-29.8	-30.8	13.8	0.00e+00	0	42	0	606076928	20	4061
2026-01-11 22:56:37.95	94.72	24.94	-29.7	-30.7	13.9	3.00e-06	0	42	0	612368384	20	4013
2026-01-11 22:56:40.97	95.61	24.89	-29.4	-29.7	14.5	1.50e-06	0	42	0	617611264	20	3746
2026-01-11 22:56:43.99	96.48	24.84	-29.1	-29.5	15.0	3.80e-06	0	42	0	623902720	19	3781
2026-01-11 22:56:47.00	97.35	24.78	-28.9	-28.9	15.3	0.00e+00	0	42	0	629145600	19	3625
2026-01-11 22:56:50.03	98.23	24.71	-28.8	-29.2	15.4	0.00e+00	0	42	0	634388480	18	3794
2026-01-11 22:56:53.04	99.09	24.64	-29.3	-30.4	14.8	0.00e+00	0	42	0	640679936	18	4108
2026-01-11 22:56:56.06	99.96	24.56	-29.2	-30.2	14.9	1.50e-06	0	42	0	645922816	18	4048
2026-01-11 22:56:59.08	100.82	24.47	-29.0	-29.8	15.2	0.00e+00	0	42	0	652214272	18	3938
2026-01-11 22:57:02.09	101.67	24.38	-28.8	-29.4	15.4	6.80e-06	0	42	0	657457152	18	3830
2026-01-11 22:57:05.11	102.52	24.28	-29.1	-30.0	15.0	0.00e+00	0	42	0	662700032	18	3991
2026-01-11 22:57:08.13	103.36	24.17	-28.9	-29.5	15.3	6.25e-05	0	42	0	668991488	18	3861
2026-01-11 22:57:11.14	104.20	24.06	-28.8	-29.3	15.4	2.97e-04	0	42	0	674234368	18	3819
2026-01-11 22:57:14.16	105.03	23.94	-28.8	-29.9	15.3	3.80e-06	0	42	0	680525824	17	4062
2026-01-11 22:57:17.18	105.85	23.82	-28.6	-29.2	15.7	0.00e+00	0	42	0	685768704	17	3885
2026-01-11 22:57:20.19	106.67	23.69	-28.0	-28.4	16.4	0.00e+00	0	42	0	691011584	16	3783
2026-01-11 22:57:23.22	107.49	23.56	-27.8	-28.0	16.7	0.00e+00	0	42	0	697303040	16	3665
2026-01-11 22:57:26.24	108.29	23.42	-27.5	-27.2	17.1	0.00e+00	0	42	0	702545920	16	3476
2026-01-11 22:57:29.25	109.09	23.27	-27.9	-28.2	16.5	0.00e+00	0	42	0	708837376	16	3733
2026-01-11 22:57:32.27	109.88	23.13	-28.5	-29.0	15.7	0.00e+00	0	42	0	714080256	17	3843
2026-01-11 22:57:35.30	110.67	22.97	-28.1	-28.4	16.0	0.00e+00	0	42	0	719323136	17	3724
2026-01-11 22:57:38.32	111.44	22.81	-28.3	-28.6	16.0	0.00e+00	0	42	0	725614592	17	3726
2026-01-11 22:57:41.33	112.21	22.65	-28.1	-28.2	16.2	0.00e+00	0	42	0	730857472	17	3636
2026-01-11 22:57:44.35	112.97	22.49	-28.7	-29.6	15.4	0.00e+00	0	42	0	737148928	17	3988
2026-01-11 22:57:47.37	113.72	22.32	-28.9	-29.5	15.2	0.00e+00	0	42	0	742391808	18	3871
2026-01-11 22:57:50.39	114.47	22.14	-29.1	-30.1	14.8	7.00e-07	0	42	0	747634688	18	4032
2026-01-11 22:57:53.41	115.21	21.97	-29.5	-31.1	14.2	3.66e-04	0	42	0	753926144	18	4323
2026-01-11 22:57:56.42	115.93	21.79	-29.3	-30.1	14.5	4.65e-05	0	42	0	759169024	19	3958
2026-01-11 22:57:59.44	116.65	21.60	-29.1	-29.6	14.6	7.00e-07	0	42	0	765460480	19	3823
2026-01-11 22:58:02.46	117.37	21.41	-29.9	-31.7	13.4	6.10e-06	0	42	0	770703360	19	4453
2026-01-11 22:58:05.48	118.07	21.22	-29.9	-31.2	13.3	2.74e-05	0	42	0	775946240	20	4186
2026-01-11 22:58:08.50	118.76	21.03	-29.1	-29.6	14.7	1.50e-06	0	42	0	782237696	19	3811
2026-01-11 22:58:11.51	119.45	20.83	-29.4	-30.5	14.2	3.19e-04	0	42	0	787480576	19	4054
2026-01-11 22:58:14.53	120.13	20.64	-29.9	-31.6	13.5	1.77e-04	0	42	0	793772032	19	4412
2026-01-11 22:58:17.54	120.79	20.44	-29.8	-31.4	13.6	5.30e-06	0	42	0	799014912	19	4341
2026-01-11 22:58:20.55	121.45	20.23	-29.8	-31.4	13.6	9.90e-06	0	42	0	804257792	19	4340
2026-01-11 22:58:23.57	122.11	20.03	-29.4	-30.5	14.2	2.59e-05	0	42	0	810549248	19	4053
2026-01-11 22:58:26.58	122.75	19.82	-29.4	-30.3	14.3	7.00e-07	0	42	0	815792128	19	4012
2026-01-11 22:58:29.61	123.39	19.61	-29.9	-31.9	13.3	1.37e-05	0	42	0	822083584	19	4501
2026-01-11 22:58:32.63	124.01	19.40	-29.8	-31.1	13.4	1.06e-05	0	42	0	827326464	20	4166
2026-01-11 22:58:35.65	124.63	19.19	-29.6	-30.6	13.6	6.10e-06	0	42	0	832569344	20	4009
2026-01-11 22:58:38.66	125.24	18.98	-30.4	-32.7	12.2	1.77e-04	0	42	0	838860800	20	4704
2026-01-11 22:58:41.68	125.84	18.76	-30.1	-31.3	12.8	1.94e-04	0	42	0	844103680	21	4157
2026-01-11 22:58:44.70	126.44	18.55	-29.1	-29.7	14.6	1.50e-06	0	42	0	850395136	19	3865
2026-01-11 22:58:47.72	127.02	18.33	-29.7	-31.1	13.7	9.10e-06	0	42	0	855638016	19	4249
2026-01-11 22:58:50.73	127.60	18.12	-29.4	-30.5	14.0	4.50e-06	0	42	0	860880896	19	4093
2026-01-11 22:58:53.74	128.17	17.90	-29.3	-30.3	14.2	1.50e-06	0	42	0	867172352	19	4014
2026-01-11 22:58:56.75	128.73	17.68	-29.7	-31.3	13.5	3.80e-06	0	42	0	872415232	19	4309
2026-01-11 22:58:59.77	129.28	17.46	-29.6	-31.0	13.7	1.29e-05	0	42	0	877658112	19	4233
2026-01-11 22:59:02.78	129.83	17.24	-29.3	-30.6	14.3	2.20e-06	0	42	0	883949568	18	4195
2026-01-11 22:59:05.80	130.37	17.02	-29.8	-31.5	13.3	9.90e-06	0	42	0	889192448	19	4399
2026-01-11 22:59:08.81	130.90	16.80	-30.0	-31.6	12.8	1.09e-04	0	42	0	895483904	20	4350
2026-01-11 22:59:11.83	131.42	16.58	-29.5	-30.2	13.7	2.20e-06	0	42	0	900726784	20	3927
2026-01-11 22:59:14.85	131.94	16.36	-29.3	-29.8	13.9	6.80e-06	0	42	0	905969664	20	3819
2026-01-11 22:59:17.87	132.44	16.13	-29.7	-31.4	13.3	9.10e-06	0	42	0	912261120	19	4361
2026-01-11 22:59:20.89	132.95	15.91	-29.1	-29.7	14.3	7.00e-07	0	42	0	917504000	19	3880
2026-01-11 22:59:23.91	133.44	15.69	-29.3	-30.2	14.0	1.50e-06	0	42	0	923795456	19	3998
2026-01-11 22:59:26.93	133.93	15.47	-29.9	-32.0	12.8	5.34e-05	0	42	0	929038336	19	4589
2026-01-11 22:59:29.94	134.41	15.25	-30.2	-32.6	11.8	3.64e-04	0	42	0	934281216	20	4736
2026-01-11 22:59:32.96	134.88	15.03	-29.8	-31.5	12.6	7.32e-05	0	42	0	940572672	20	4366
2026-01-11 22:59:35.97	135.35	14.80	-29.8	-31.2	12.9	6.25e-05	0	42	0	945815552	20	4234
2026-01-11 22:59:38.99	135.81	14.58	-29.7	-31.0	13.0	1.90e-05	0	42	0	952107008	20	4163
2026-01-11 22:59:42.00	136.26	14.36	-29.3	-30.3	13.8	2.20e-06	0	42	0	957349888	19	4060
2026-01-11 22:59:45.02	136.70	14.14	-29.0	-30.1	14.2	0.00e+00	0	42	0	962592768	18	4077
2026-01-11 22:59:48.04	137.15	13.92	-29.4	-31.2	13.5	9.10e-06	0	42	0	968884224	18	4421
2026-01-11 22:59:51.06	137.58	13.70	-29.9	-32.0	12.6	7.01e-05	0	42	0	974127104	19	4613
2026-01-11 22:59:54.07	138.01	13.49	-30.1	-32.2	12.0	2.94e-04	0	42	0	980418560	20	4598
2026-01-11 22:59:57.10	138.43	13.27	-30.0	-31.9	12.2	2.32e-04	0	42	0	985661440	20	4499
2026-01-11 23:00:00.11	138.85	13.05	-29.7	-31.1	12.7	1.03e-04	0	42	0	990904320	20	4231
2026-01-11 23:00:03.12	139.25	12.83	-29.7	-31.1	12.7	7.78e-05	0	42	0	997195776	20	4225
2026-01-11 23:00:06.14	139.66	12.62	-29.5	-30.5	13.0	2.51e-05	0	42	0	1002438656	20	4059
2026-01-11 23:00:09.15	140.06	12.40	-29.4	-30.9	13.2	2.21e-05	0	42	0	1008730112	19	4246
2026-01-11 23:00:12.17	140.45	12.19	-29.5	-31.1	13.0	3.28e-05	0	42	0	1013972992	19	4331
2026-01-11 23:00:15.19	140.84	11.97	-29.6	-31.4	12.7	5.11e-05	0	42	0	1019215872	19	4434
2026-01-11 23:00:18.21	141.22	11.76	-30.1	-32.4	11.6	4.49e-04	0	42	0	1025507328	20	4703
2026-01-11 23:00:21.22	141.60	11.54	-30.3	-33.3	10.9	2.15e-03	0	42	0	1030750208	20	5087
2026-01-11 23:00:24.24	141.97	11.33	-29.9	-33.1	10.7	3.92e-03	0	42	0	1037041664	20	5198
2026-01-11 23:00:27.25	142.33	11.12	-30.3	-33.3	10.3	2.33e-03	0	42	0	1042284544	20	5087
2026-01-11 23:00:30.26	142.69	10.91	-30.1	-32.6	11.2	1.14e-03	0	42	0	1047527424	20	4795
2026-01-11 23:00:33.26	143.05	10.70	-30.0	-32.7	11.6	6.15e-04	0	42	0	1053818880	19	4933
2026-01-11 23:00:36.27	143.40	10.49	-29.9	-32.6	11.7	1.54e-03	0	42	0	1059061760	19	4868
2026-01-11 23:00:39.29	143.74	10.29	-29.8	-32.3	11.8	1.75e-03	0	42	0	1064304640	19	4788
2026-01-11 23:00:42.32	144.09	10.08	-29.8	-32.4	11.7	6.00e-04	0	42	0	1070596096	19	4839
2026-01-11 23:00:45.33	144.42	9.87	-29.7	-31.9	12.0	2.94e-04	0	42	0	1075838976	19	4642
2026-01-11 23:00:48.35	144.76	9.67	-29.8	-32.1	11.9	6.09e-04	0	42	0	1082130432	19	4703
2026-01-11 23:00:51.38	145.09	9.46	-30.0	-32.3	11.3	1.05e-03	0	42	0	1087373312	20	4729
2026-01-11 23:00:54.40	145.41	9.26	-30.2	-33.2	10.6	4.19e-03	0	42	0	1092616192	20	5078
2026-01-11 23:00:57.42	145.73	9.05	-30.2	-33.2	10.6	5.24e-03	0	42	0	1098907648	20	5076
2026-01-11 23:01:00.44	146.05	8.85	-29.9	-32.4	11.2	3.62e-03	0	42	0	1104150528	20	4791
2026-01-11 23:01:03.47	146.36	8.65	-29.9	-32.7	11.5	2.83e-03	0	42	0	1110441984	19	4963
2026-01-11 23:01:06.48	146.67	8.45	-30.0	-32.6	11.0	4.22e-03	0	42	0	1115684864	20	4867
2026-01-11 23:01:09.49	146.97	8.25	-30.0	-32.9	10.8	3.81e-03	0	42	0	1120927744	20	4989
2026-01-11 23:01:12.50	147.27	8.05	-30.2	-33.6	10.2	6.05e-03	0	42	0	1127219200	20	5324
2026-01-11 23:01:15.52	147.56	7.86	-30.4	-34.5	9.4	2.13e-02	0	42	0	1132462080	20	5782
2026-01-11 23:01:18.53	147.85	7.66	-30.7	-35.2	8.5	3.79e-02	0	42	0	1138753536	21	6055
2026-01-11 23:01:21.55	148.14	7.46	-30.6	-34.5	9.0	2.23e-02	0	42	0	1143996416	21	5674
2026-01-11 23:01:24.56	148.42	7.27	-30.4	-34.3	9.5	1.78e-02	0	42	0	1149239296	20	5667
2026-01-11 23:01:27.57	148.70	7.08	-32.1	-44.7	3.9	2.27e-01	0	42	104	1154482176	24	15299
2026-01-11 23:01:30.59	148.98	6.88	-33.6	-45.9	3.8	1.49e+00	0	42	104	1154482176	27	14922

#Closed at: 2026-01-11 23:01:31
#Recorded file [1154 MB]: D:/data/31010_260112_015111.dat