passes_logs/2026/01/11/R2M6_AANII_01/R2M6_AANII_01__20260111_092332_NOAA_20_JPSS-1_rec.log

#Pass ID: 20260111_092332_NOAA 20 (JPSS-1)
#Satellite: NOAA 20 (JPSS-1)
#Configuration: NOAA 20
#almurnet v.1.7.20240730
#Start time: 2026-01-11 09:23:33

#Version: 2.2.20231116
#Station: R2M6_AANII_01
#Location: 30.233357 lon 59.946436 lat
#TLE: 1 43013U 17073A   26009.69119415  .00000109  00000+0  72598-4 0  9996
#TLE: 2 43013  98.7631 310.6868 0001678  46.7442 313.3874 14.19534878421981

#Time	Az	El	Level	Level2	SNR	BER	BlckErr	Temp	State	Recorded	gain1	gain2
2026-01-11 09:23:33.05	131.50	7.06	-31.4	-36.8	5.0	1.27e+00	0	39	0	0	24	6716
2026-01-11 09:23:36.07	131.37	7.29	-31.5	-37.3	7.6	8.60e-02	0	39	0	1048576	24	7026
2026-01-11 09:23:39.09	131.23	7.51	-31.3	-36.2	8.7	3.89e-02	0	40	0	7340032	24	6291
2026-01-11 09:23:42.10	131.08	7.74	-31.4	-37.3	8.2	3.46e-02	0	40	0	12582912	23	7057
2026-01-11 09:23:45.12	130.94	7.98	-30.8	-34.8	10.2	8.79e-03	0	40	0	18874368	23	5660
2026-01-11 09:23:48.14	130.79	8.21	-30.4	-33.9	11.3	1.65e-03	0	40	0	24117248	22	5360
2026-01-11 09:23:51.16	130.65	8.45	-30.5	-34.2	11.0	1.80e-03	0	40	0	29360128	22	5498
2026-01-11 09:23:54.17	130.49	8.68	-30.4	-33.8	11.3	1.24e-03	0	40	0	35651584	22	5335
2026-01-11 09:23:57.20	130.34	8.92	-30.4	-33.6	11.6	7.67e-04	0	40	0	40894464	22	5239
2026-01-11 09:24:00.21	130.18	9.17	-30.2	-33.7	11.9	4.16e-04	0	40	0	47185920	21	5354
2026-01-11 09:24:03.23	130.02	9.41	-30.5	-34.5	11.3	1.15e-03	0	40	0	52428800	21	5702
2026-01-11 09:24:06.25	129.86	9.66	-30.4	-34.4	11.4	8.51e-04	0	40	0	57671680	21	5670
2026-01-11 09:24:09.26	129.70	9.90	-30.4	-34.3	11.5	7.74e-04	0	40	0	63963136	21	5641
2026-01-11 09:24:12.27	129.53	10.15	-30.2	-33.4	12.1	4.53e-04	0	40	0	69206016	21	5247
2026-01-11 09:24:15.30	129.35	10.41	-30.0	-33.1	12.4	1.14e-04	0	40	0	74448896	21	5091
2026-01-11 09:24:18.31	129.18	10.66	-30.1	-33.0	12.5	1.04e-04	0	41	0	80740352	21	5060
2026-01-11 09:24:21.33	129.00	10.92	-30.3	-33.7	12.0	2.61e-04	0	41	0	85983232	21	5324
2026-01-11 09:24:24.36	128.82	11.18	-30.2	-33.5	12.2	2.49e-04	0	41	0	92274688	21	5253
2026-01-11 09:24:27.38	128.64	11.45	-30.4	-34.0	11.8	3.53e-04	0	41	0	97517568	21	5460
2026-01-11 09:24:30.39	128.45	11.71	-30.0	-32.8	12.7	1.12e-04	0	41	0	102760448	21	4980
2026-01-11 09:24:33.41	128.26	11.98	-30.0	-32.8	12.7	6.10e-05	0	41	0	109051904	21	4991
2026-01-11 09:24:36.43	128.06	12.25	-30.2	-33.3	12.4	1.40e-04	0	41	0	114294784	21	5174
2026-01-11 09:24:39.45	127.86	12.52	-30.0	-32.9	12.7	7.32e-05	0	41	0	120586240	21	5010
2026-01-11 09:24:42.47	127.66	12.80	-30.0	-32.7	12.9	5.18e-05	0	41	0	125829120	21	4909
2026-01-11 09:24:45.49	127.45	13.08	-30.0	-32.8	12.8	5.64e-05	0	41	0	131072000	21	4961
2026-01-11 09:24:48.51	127.24	13.36	-30.3	-33.6	12.3	1.69e-04	0	41	0	137363456	21	5270
2026-01-11 09:24:51.53	127.02	13.65	-30.1	-33.1	12.7	4.65e-05	0	41	0	142606336	21	5049
2026-01-11 09:24:54.55	126.80	13.93	-30.1	-32.8	12.9	4.19e-05	0	41	0	148897792	21	4948
2026-01-11 09:24:57.57	126.58	14.22	-30.1	-32.9	12.9	6.79e-05	0	41	0	154140672	21	4990
2026-01-11 09:25:00.58	126.35	14.52	-30.0	-32.7	13.1	3.20e-05	0	41	0	159383552	21	4909
2026-01-11 09:25:03.60	126.12	14.81	-30.0	-32.8	13.0	2.89e-05	0	41	0	165675008	21	4939
2026-01-11 09:25:06.62	125.88	15.11	-29.9	-32.4	13.3	2.05e-05	0	41	0	170917888	21	4804
2026-01-11 09:25:09.62	125.64	15.42	-29.9	-32.4	13.3	2.36e-05	0	41	0	177209344	21	4810
2026-01-11 09:25:12.64	125.39	15.72	-30.1	-32.8	13.0	2.21e-05	0	41	0	182452224	21	4936
2026-01-11 09:25:15.66	125.13	16.03	-29.8	-32.1	13.5	1.14e-05	0	41	0	187695104	21	4685
2026-01-11 09:25:18.68	124.88	16.35	-29.9	-32.3	13.5	1.29e-05	0	41	0	193986560	21	4741
2026-01-11 09:25:21.69	124.61	16.66	-29.8	-32.1	13.6	1.44e-05	0	41	0	199229440	21	4687
2026-01-11 09:25:24.71	124.34	16.98	-29.9	-32.2	13.5	6.10e-06	0	41	0	205520896	21	4712
2026-01-11 09:25:27.72	124.06	17.30	-30.0	-32.6	13.3	1.67e-05	0	41	0	210763776	21	4857
2026-01-11 09:25:30.75	123.78	17.63	-30.0	-32.6	13.3	2.05e-05	0	41	0	216006656	21	4869
2026-01-11 09:25:33.76	123.49	17.96	-30.0	-32.6	13.4	1.52e-05	0	41	0	222298112	21	4847
2026-01-11 09:25:36.78	123.19	18.30	-29.9	-32.4	13.5	1.60e-05	0	41	0	227540992	21	4784
2026-01-11 09:25:39.80	122.89	18.64	-29.8	-32.1	13.8	4.50e-06	0	41	0	233832448	21	4651
2026-01-11 09:25:42.81	122.58	18.98	-30.0	-32.5	13.5	7.60e-06	0	41	0	239075328	21	4785
2026-01-11 09:25:45.83	122.26	19.32	-30.1	-32.8	13.3	9.90e-06	0	42	0	244318208	21	4915
2026-01-11 09:25:48.85	121.94	19.67	-30.2	-33.0	13.1	1.83e-05	0	41	0	250609664	21	4989
2026-01-11 09:25:51.87	121.61	20.03	-30.2	-33.2	13.1	3.96e-05	0	42	0	255852544	21	5048
2026-01-11 09:25:54.89	121.27	20.38	-30.4	-33.6	12.8	5.64e-05	0	42	0	262144000	21	5183
2026-01-11 09:25:57.90	120.92	20.75	-30.3	-33.3	13.0	3.66e-05	0	41	0	267386880	21	5099
2026-01-11 09:26:00.91	120.56	21.11	-30.6	-34.2	12.4	9.15e-05	0	41	0	272629760	21	5434
2026-01-11 09:26:03.92	120.20	21.48	-30.2	-32.9	13.3	2.74e-05	0	42	0	278921216	21	4937
2026-01-11 09:26:06.94	119.82	21.85	-30.4	-33.4	13.0	2.44e-05	0	41	0	284164096	21	5103
2026-01-11 09:26:09.96	119.44	22.23	-30.1	-32.7	13.5	1.52e-05	0	42	0	290455552	21	4836
2026-01-11 09:26:12.98	119.04	22.62	-30.2	-33.1	13.3	1.90e-05	0	41	0	295698432	21	4986
2026-01-11 09:26:15.99	118.64	23.00	-30.4	-33.4	13.0	3.43e-05	0	42	0	300941312	21	5114
2026-01-11 09:26:19.01	118.23	23.39	-30.3	-33.3	13.1	2.05e-05	0	42	0	307232768	21	5049
2026-01-11 09:26:22.03	117.80	23.79	-30.4	-33.4	13.0	5.41e-05	0	42	0	312475648	21	5100
2026-01-11 09:26:25.05	117.37	24.19	-30.3	-33.2	13.1	2.21e-05	0	42	0	317718528	21	5047
2026-01-11 09:26:28.06	116.92	24.59	-30.4	-33.4	13.1	3.20e-05	0	42	0	324009984	21	5103
2026-01-11 09:26:31.08	116.46	25.00	-30.4	-33.5	13.1	3.28e-05	0	42	0	329252864	21	5139
2026-01-11 09:26:34.09	115.99	25.41	-30.3	-33.2	13.3	2.67e-05	0	42	0	335544320	21	5015
2026-01-11 09:26:37.11	115.50	25.83	-30.3	-33.2	13.3	2.36e-05	0	42	0	340787200	21	4997
2026-01-11 09:26:40.13	115.01	26.25	-30.4	-33.4	13.2	1.75e-05	0	42	0	346030080	21	5081
2026-01-11 09:26:43.14	114.50	26.68	-30.3	-33.2	13.4	2.44e-05	0	41	0	352321536	21	5000
2026-01-11 09:26:46.17	113.97	27.11	-30.3	-33.2	13.3	2.59e-05	0	41	0	357564416	21	5018
2026-01-11 09:26:49.19	113.43	27.54	-30.3	-33.1	13.4	1.06e-05	0	42	0	363855872	21	4986
2026-01-11 09:26:52.20	112.88	27.98	-30.5	-33.6	13.1	4.19e-05	0	42	0	369098752	21	5165
2026-01-11 09:26:55.22	112.30	28.42	-30.6	-33.8	13.0	3.50e-05	0	42	0	374341632	21	5233
2026-01-11 09:26:58.23	111.72	28.86	-31.0	-35.1	12.2	1.91e-04	0	42	0	380633088	21	5750
2026-01-11 09:27:01.25	111.12	29.31	-31.2	-35.2	11.7	4.40e-04	0	42	0	385875968	22	5701
2026-01-11 09:27:04.27	110.49	29.76	-31.4	-35.7	11.4	8.95e-04	0	42	0	392167424	22	5923
2026-01-11 09:27:07.28	109.86	30.22	-31.8	-36.7	10.3	3.11e-03	0	42	0	397410304	23	6297
2026-01-11 09:27:10.29	109.20	30.68	-31.9	-37.0	10.0	7.93e-03	0	42	0	402653184	23	6479
2026-01-11 09:27:13.32	108.52	31.14	-32.0	-36.8	9.8	9.53e-03	0	42	0	408944640	24	6268
2026-01-11 09:27:16.33	107.83	31.60	-31.9	-36.4	10.2	6.28e-03	0	42	0	414187520	24	6017
2026-01-11 09:27:19.35	107.11	32.07	-31.9	-36.4	10.2	8.11e-03	0	42	0	420478976	24	6059
2026-01-11 09:27:22.37	106.37	32.54	-32.1	-37.0	9.8	1.22e-02	0	42	0	425721856	24	6349
2026-01-11 09:27:25.38	105.62	33.01	-31.8	-36.2	10.3	5.40e-03	0	42	0	430964736	24	5948
2026-01-11 09:27:28.40	104.83	33.48	-31.8	-35.9	10.6	4.40e-03	0	42	0	437256192	24	5785
2026-01-11 09:27:31.41	104.03	33.95	-31.7	-35.7	10.7	2.67e-03	0	42	0	442499072	24	5700
2026-01-11 09:27:34.44	103.20	34.43	-31.4	-34.7	11.5	8.89e-04	0	42	0	448790528	24	5269
2026-01-11 09:27:37.46	102.35	34.90	-31.3	-34.8	11.7	4.20e-04	0	42	0	454033408	23	5414
2026-01-11 09:27:40.47	101.47	35.37	-31.1	-34.1	12.4	1.50e-04	0	42	0	459276288	23	5109
2026-01-11 09:27:43.48	100.57	35.84	-31.1	-34.2	12.2	2.72e-04	0	42	0	465567744	23	5153
2026-01-11 09:27:46.49	99.64	36.31	-31.0	-34.0	12.4	1.60e-04	0	42	0	470810624	23	5069
2026-01-11 09:27:49.51	98.68	36.78	-30.8	-33.9	12.7	6.48e-05	0	42	0	477102080	22	5141
2026-01-11 09:27:52.53	97.69	37.25	-31.1	-34.7	12.2	2.33e-04	0	42	0	482344960	22	5461
2026-01-11 09:27:55.54	96.68	37.71	-31.0	-34.4	12.4	1.51e-04	0	42	0	487587840	22	5332
2026-01-11 09:27:58.55	95.64	38.17	-31.3	-35.2	11.9	3.96e-04	0	42	0	493879296	22	5679
2026-01-11 09:28:01.57	94.56	38.62	-31.0	-34.5	12.3	3.30e-04	0	42	0	499122176	22	5384
2026-01-11 09:28:04.59	93.46	39.07	-31.2	-35.0	12.0	3.34e-04	0	42	0	505413632	22	5587
2026-01-11 09:28:07.61	92.32	39.51	-31.1	-34.7	12.3	2.75e-04	0	42	0	510656512	22	5433
2026-01-11 09:28:10.63	91.15	39.94	-31.1	-34.6	12.4	1.43e-04	0	42	0	515899392	22	5421
2026-01-11 09:28:13.66	89.95	40.37	-30.5	-32.9	13.4	3.12e-05	0	42	0	522190848	22	4767
2026-01-11 09:28:16.68	88.72	40.78	-30.6	-33.2	13.3	1.98e-05	0	42	0	527433728	22	4878
2026-01-11 09:28:19.70	87.46	41.19	-29.9	-32.0	14.4	0.00e+00	0	42	0	533725184	21	4565
2026-01-11 09:28:22.71	86.17	41.58	-30.2	-32.6	14.0	2.20e-06	0	42	0	538968064	21	4761
2026-01-11 09:28:25.73	84.85	41.96	-30.0	-32.1	14.3	7.00e-07	0	42	0	544210944	21	4588
2026-01-11 09:28:28.74	83.50	42.32	-30.0	-32.3	14.2	0.00e+00	0	42	0	550502400	21	4652
2026-01-11 09:28:31.75	82.12	42.67	-30.3	-32.9	13.8	2.20e-06	0	42	0	555745280	21	4874
2026-01-11 09:28:34.77	80.70	43.00	-30.7	-33.9	13.0	1.29e-05	0	42	0	562036736	21	5250
2026-01-11 09:28:37.77	79.27	43.32	-30.2	-32.6	14.0	1.50e-06	0	42	0	567279616	21	4765
2026-01-11 09:28:40.78	77.80	43.62	-30.2	-32.6	14.0	1.50e-06	0	42	0	572522496	21	4757
2026-01-11 09:28:43.81	76.30	43.90	-30.2	-32.6	14.0	1.50e-06	0	42	0	578813952	21	4757
2026-01-11 09:28:46.82	74.78	44.15	-30.0	-32.2	14.2	7.00e-07	0	42	0	584056832	21	4627
2026-01-11 09:28:49.83	73.23	44.39	-30.0	-32.2	14.3	7.00e-07	0	42	0	589299712	21	4618
2026-01-11 09:28:52.85	71.66	44.61	-30.3	-32.9	13.9	3.00e-06	0	42	0	595591168	21	4867
2026-01-11 09:28:55.87	70.07	44.80	-30.5	-33.6	13.4	1.06e-05	0	42	0	600834048	21	5124
2026-01-11 09:28:58.88	68.47	44.96	-30.6	-33.7	13.3	2.21e-05	0	42	0	607125504	21	5172
2026-01-11 09:29:01.90	66.85	45.11	-30.8	-34.4	12.8	5.49e-05	0	42	0	612368384	21	5453
2026-01-11 09:29:04.92	65.21	45.22	-30.9	-34.0	12.8	7.01e-05	0	42	0	617611264	22	5161
2026-01-11 09:29:07.94	63.56	45.32	-31.0	-34.3	12.6	1.01e-04	0	42	0	623902720	22	5302
2026-01-11 09:29:10.94	61.91	45.38	-31.1	-34.6	12.3	9.68e-05	0	42	0	629145600	22	5412
2026-01-11 09:29:13.97	60.25	45.42	-30.8	-33.7	13.0	2.59e-05	0	42	0	635437056	22	5053
2026-01-11 09:29:16.99	58.58	45.43	-31.0	-34.5	12.5	1.01e-04	0	42	0	640679936	22	5346
2026-01-11 09:29:20.00	56.92	45.42	-31.2	-35.1	12.1	1.87e-04	0	42	0	645922816	22	5585
2026-01-11 09:29:23.03	55.26	45.38	-31.3	-35.4	11.9	4.13e-04	0	42	0	652214272	22	5729
2026-01-11 09:29:26.02	53.62	45.31	-31.5	-35.8	11.6	5.39e-04	0	42	0	657457152	22	5911
2026-01-11 09:29:29.04	51.97	45.22	-31.5	-35.4	11.5	4.85e-04	0	42	0	663748608	23	5651
2026-01-11 09:29:32.06	50.34	45.10	-31.6	-35.8	11.2	2.16e-03	0	42	0	668991488	23	5809
2026-01-11 09:29:35.07	48.72	44.95	-31.8	-36.4	10.8	2.59e-03	0	41	0	674234368	23	6083
2026-01-11 09:29:38.09	47.12	44.78	-31.8	-36.4	10.8	3.83e-03	0	42	0	680525824	23	6078
2026-01-11 09:29:41.11	45.53	44.59	-32.0	-36.6	10.2	5.87e-03	0	42	0	685768704	24	6111
2026-01-11 09:29:44.12	43.97	44.37	-31.5	-34.9	11.5	1.09e-03	0	42	0	692060160	24	5305
2026-01-11 09:29:47.13	42.43	44.13	-31.0	-33.8	12.6	1.40e-04	0	42	0	697303040	23	4999
2026-01-11 09:29:50.15	40.91	43.87	-30.6	-33.3	13.2	2.97e-05	0	42	0	702545920	22	4902
2026-01-11 09:29:53.17	39.42	43.59	-30.3	-32.9	13.8	6.10e-06	0	42	0	708837376	21	4883
2026-01-11 09:29:56.19	37.95	43.29	-29.9	-31.9	14.4	7.00e-07	0	42	0	714080256	21	4525
2026-01-11 09:29:59.21	36.51	42.98	-29.6	-31.6	14.9	7.00e-07	0	42	0	720371712	20	4547
2026-01-11 09:30:02.21	35.11	42.64	-29.4	-31.1	15.2	0.00e+00	0	42	0	725614592	20	4397
2026-01-11 09:30:05.23	33.73	42.29	-29.2	-31.0	15.6	0.00e+00	0	42	0	730857472	19	4453
2026-01-11 09:30:08.24	32.39	41.93	-29.0	-30.6	15.8	0.00e+00	0	42	0	737148928	19	4339
2026-01-11 09:30:11.25	31.07	41.55	-28.7	-30.5	16.2	0.00e+00	0	42	0	742391808	18	4410
2026-01-11 09:30:14.27	29.79	41.16	-28.9	-30.8	16.1	0.00e+00	0	42	0	747634688	18	4504
2026-01-11 09:30:17.27	28.54	40.76	-28.9	-30.8	16.0	0.00e+00	0	42	0	753926144	18	4512
2026-01-11 09:30:20.29	27.32	40.34	-28.7	-30.3	16.3	0.00e+00	0	42	0	759169024	18	4349
2026-01-11 09:30:23.29	26.13	39.92	-29.4	-32.2	15.2	0.00e+00	0	42	0	765460480	18	4938
2026-01-11 09:30:26.31	24.97	39.49	-29.7	-32.3	14.8	0.00e+00	0	42	0	770703360	19	4869
2026-01-11 09:30:29.32	23.84	39.05	-29.4	-31.6	15.2	0.00e+00	0	42	0	775946240	19	4640
2026-01-11 09:30:32.34	22.74	38.61	-29.7	-32.3	14.8	7.00e-07	0	42	0	782237696	19	4888
2026-01-11 09:30:35.36	21.67	38.15	-29.8	-32.6	14.7	0.00e+00	0	42	0	787480576	19	4968
2026-01-11 09:30:38.36	20.64	37.70	-29.7	-32.3	14.7	0.00e+00	0	42	0	793772032	19	4870
2026-01-11 09:30:41.37	19.63	37.24	-30.0	-32.7	14.2	2.20e-06	0	42	0	799014912	20	4906
2026-01-11 09:30:44.38	18.65	36.78	-30.7	-34.0	12.9	2.13e-05	0	42	0	804257792	21	5287
2026-01-11 09:30:47.40	17.70	36.31	-30.7	-34.0	12.9	3.96e-05	0	42	0	810549248	21	5299
2026-01-11 09:30:50.40	16.78	35.84	-30.9	-34.6	12.5	9.30e-05	0	42	0	815792128	21	5539
2026-01-11 09:30:53.43	15.88	35.37	-30.9	-34.3	12.4	1.23e-04	0	42	0	821035008	22	5292
2026-01-11 09:30:56.44	15.00	34.90	-31.5	-36.0	11.2	1.10e-03	0	42	0	827326464	22	6044
2026-01-11 09:30:59.46	14.16	34.43	-31.5	-35.7	11.1	1.41e-03	0	42	0	832569344	23	5795
2026-01-11 09:31:02.47	13.33	33.96	-31.9	-36.8	10.2	6.65e-03	0	42	0	838860800	23	6373
2026-01-11 09:31:05.49	12.53	33.49	-32.2	-37.5	9.3	1.49e-02	0	42	0	844103680	24	6672
2026-01-11 09:31:08.51	11.75	33.02	-31.9	-36.3	10.1	7.82e-03	0	42	0	849346560	24	6013
2026-01-11 09:31:11.53	11.00	32.55	-31.8	-36.1	10.3	6.43e-03	0	42	0	855638016	24	5914
2026-01-11 09:31:14.56	10.26	32.08	-31.7	-35.9	10.5	4.71e-03	0	42	0	860880896	24	5797
2026-01-11 09:31:17.57	9.55	31.62	-31.4	-35.0	11.2	1.75e-03	0	42	0	867172352	24	5397
2026-01-11 09:31:20.59	8.86	31.16	-31.5	-35.0	11.1	1.52e-03	0	42	0	872415232	24	5401
2026-01-11 09:31:23.59	8.19	30.70	-31.1	-34.4	11.9	4.19e-04	0	42	0	877658112	23	5266
2026-01-11 09:31:26.60	7.54	30.24	-31.2	-34.6	11.8	4.36e-04	0	42	0	883949568	23	5342
2026-01-11 09:31:29.61	6.91	29.79	-31.3	-35.0	11.5	9.62e-04	0	42	0	889192448	23	5511
2026-01-11 09:31:32.62	6.29	29.34	-31.2	-34.5	11.8	5.58e-04	0	42	0	895483904	23	5322
2026-01-11 09:31:35.64	5.69	28.90	-31.3	-34.9	11.6	6.58e-04	0	42	0	900726784	23	5479
2026-01-11 09:31:38.67	5.11	28.45	-30.9	-34.0	12.2	2.39e-04	0	42	0	905969664	23	5090
2026-01-11 09:31:41.68	4.54	28.01	-31.0	-34.1	12.0	3.20e-04	0	42	0	912261120	23	5149
2026-01-11 09:31:44.70	3.99	27.58	-31.1	-34.5	11.8	5.97e-04	0	42	0	917504000	23	5304
2026-01-11 09:31:47.72	3.45	27.15	-31.0	-34.2	11.9	3.07e-04	0	42	0	923795456	23	5202
2026-01-11 09:31:50.74	2.93	26.72	-30.9	-33.8	12.2	2.28e-04	0	42	0	929038336	23	5059
2026-01-11 09:31:53.75	2.42	26.30	-30.9	-33.7	12.3	2.68e-04	0	42	0	934281216	23	5018
2026-01-11 09:31:56.76	1.93	25.88	-30.7	-33.7	12.6	1.17e-04	0	42	0	940572672	22	5105
2026-01-11 09:31:59.78	1.45	25.46	-30.6	-33.6	12.7	7.09e-05	0	42	0	945815552	22	5049
2026-01-11 09:32:02.80	0.98	25.05	-30.8	-34.1	12.4	1.28e-04	0	42	0	952107008	22	5253
2026-01-11 09:32:05.82	0.52	24.64	-30.5	-33.4	12.9	5.56e-05	0	42	0	957349888	22	4976
2026-01-11 09:32:08.83	0.08	24.24	-30.6	-33.5	12.8	5.41e-05	0	42	0	962592768	22	5013
2026-01-11 09:32:11.84	359.65	23.85	-30.6	-33.6	12.6	4.95e-05	0	42	0	968884224	22	5070
2026-01-11 09:32:14.87	359.22	23.45	-30.4	-33.0	13.0	4.95e-05	0	42	0	974127104	22	4855
2026-01-11 09:32:17.88	358.81	23.06	-30.3	-32.6	13.3	1.98e-05	0	42	0	979369984	22	4719
2026-01-11 09:32:20.89	358.41	22.68	-30.2	-33.0	13.3	1.60e-05	0	42	0	985661440	21	4944
2026-01-11 09:32:23.90	358.02	22.30	-30.4	-33.5	12.9	3.12e-05	0	42	0	990904320	21	5158
2026-01-11 09:32:26.91	357.64	21.92	-30.4	-33.5	13.0	4.34e-05	0	42	0	997195776	21	5132
2026-01-11 09:32:29.92	357.27	21.55	-30.4	-33.5	12.9	3.43e-05	0	42	0	1002438656	21	5141
2026-01-11 09:32:32.94	356.91	21.18	-30.3	-33.3	13.1	3.43e-05	0	42	0	1007681536	21	5067
2026-01-11 09:32:35.97	356.55	20.82	-30.3	-33.3	13.0	3.12e-05	0	42	0	1013972992	21	5090
2026-01-11 09:32:38.99	356.21	20.46	-30.4	-33.6	12.8	5.34e-05	0	42	0	1019215872	21	5212
2026-01-11 09:32:42.01	355.87	20.10	-30.3	-33.3	13.0	5.34e-05	0	42	0	1025507328	21	5068
2026-01-11 09:32:45.04	355.54	19.75	-30.3	-33.2	13.1	3.35e-05	0	42	0	1030750208	21	5027
2026-01-11 09:32:48.05	355.22	19.40	-30.2	-32.9	13.2	2.05e-05	0	42	0	1035993088	21	4936
2026-01-11 09:32:51.06	354.90	19.06	-30.3	-33.2	13.1	3.81e-05	0	42	0	1042284544	21	5040
2026-01-11 09:32:54.08	354.60	18.72	-30.3	-33.2	13.0	3.58e-05	0	42	0	1047527424	21	5062
2026-01-11 09:32:57.09	354.30	18.38	-30.4	-33.5	12.8	4.42e-05	0	42	0	1053818880	21	5169
2026-01-11 09:33:00.10	354.00	18.05	-30.6	-34.2	12.4	1.34e-04	0	42	0	1059061760	21	5427
2026-01-11 09:33:03.12	353.72	17.72	-30.7	-34.4	12.2	2.62e-04	0	42	0	1064304640	21	5545
2026-01-11 09:33:06.14	353.44	17.39	-30.6	-34.2	12.3	1.92e-04	0	42	0	1070596096	21	5442
2026-01-11 09:33:09.17	353.16	17.07	-30.6	-34.3	12.2	2.63e-04	0	42	0	1075838976	21	5508
2026-01-11 09:33:12.18	352.89	16.75	-30.6	-34.2	12.2	2.63e-04	0	42	0	1082130432	21	5471
2026-01-11 09:33:15.20	352.63	16.44	-30.5	-33.9	12.4	1.73e-04	0	42	0	1087373312	21	5353
2026-01-11 09:33:18.21	352.37	16.12	-30.5	-34.0	12.4	1.36e-04	0	42	0	1092616192	21	5369
2026-01-11 09:33:21.22	352.12	15.82	-30.5	-33.9	12.4	1.77e-04	0	42	0	1098907648	21	5339
2026-01-11 09:33:24.23	351.88	15.51	-30.3	-33.4	12.8	7.24e-05	0	42	0	1104150528	21	5126
2026-01-11 09:33:27.25	351.64	15.21	-30.2	-33.0	12.8	5.41e-05	0	42	0	1110441984	21	5017
2026-01-11 09:33:30.27	351.40	14.91	-30.4	-33.7	12.5	1.11e-04	0	42	0	1115684864	21	5256
2026-01-11 09:33:33.29	351.17	14.62	-30.5	-34.1	12.2	2.26e-04	0	42	0	1120927744	21	5427
2026-01-11 09:33:36.31	350.94	14.32	-30.6	-34.2	12.1	2.72e-04	0	42	0	1127219200	21	5500
2026-01-11 09:33:39.33	350.72	14.03	-30.6	-34.5	11.9	4.99e-04	0	42	0	1132462080	21	5591
2026-01-11 09:33:42.34	350.51	13.75	-30.8	-35.1	11.3	6.71e-04	0	42	0	1138753536	21	5911
2026-01-11 09:33:45.36	350.29	13.46	-30.8	-35.0	11.4	8.67e-04	0	42	0	1143996416	21	5856
2026-01-11 09:33:48.38	350.08	13.18	-30.8	-35.0	11.4	1.33e-03	0	42	0	1149239296	21	5830
2026-01-11 09:33:51.40	349.88	12.91	-30.8	-34.9	11.5	1.02e-03	0	42	0	1155530752	21	5816
2026-01-11 09:33:54.42	349.68	12.63	-30.8	-35.1	11.3	8.83e-04	0	42	0	1160773632	21	5918
2026-01-11 09:33:57.43	349.48	12.36	-30.8	-35.2	11.2	1.12e-03	0	42	0	1166016512	21	5956
2026-01-11 09:34:00.44	349.29	12.09	-30.8	-35.1	11.2	1.34e-03	0	42	0	1172307968	21	5928
2026-01-11 09:34:03.47	349.10	11.82	-30.9	-35.5	10.9	2.36e-03	0	42	0	1177550848	21	6113
2026-01-11 09:34:06.48	348.92	11.56	-30.7	-34.9	11.4	1.11e-03	0	42	0	1183842304	21	5820
2026-01-11 09:34:09.50	348.73	11.30	-30.9	-35.3	11.0	2.22e-03	0	42	0	1189085184	21	6025
2026-01-11 09:34:12.52	348.56	11.04	-30.7	-34.8	11.4	8.15e-04	0	42	0	1194328064	21	5760
2026-01-11 09:34:15.54	348.38	10.78	-30.7	-34.8	11.4	1.03e-03	0	42	0	1200619520	21	5784
2026-01-11 09:34:18.55	348.21	10.52	-30.7	-35.0	11.2	1.31e-03	0	42	0	1205862400	21	5878
2026-01-11 09:34:21.57	348.04	10.27	-31.0	-35.4	10.6	2.67e-03	0	42	0	1212153856	22	5968
2026-01-11 09:34:24.58	347.87	10.02	-30.9	-35.1	10.7	2.68e-03	0	42	0	1217396736	22	5835
2026-01-11 09:34:27.59	347.71	9.78	-31.0	-35.4	10.6	4.00e-03	0	42	0	1222639616	22	5969
2026-01-11 09:34:30.62	347.55	9.53	-30.9	-35.1	10.8	3.32e-03	0	42	0	1228931072	22	5821
2026-01-11 09:34:33.64	347.39	9.29	-30.9	-35.0	10.8	2.74e-03	0	42	0	1234173952	22	5799
2026-01-11 09:34:36.65	347.24	9.04	-30.9	-35.1	10.6	4.57e-03	0	42	0	1240465408	22	5865
2026-01-11 09:34:39.66	347.09	8.81	-30.9	-35.2	10.5	3.19e-03	0	42	0	1245708288	22	5920
2026-01-11 09:34:42.66	346.94	8.57	-30.9	-35.1	10.5	4.67e-03	0	42	0	1250951168	22	5889
2026-01-11 09:34:45.67	346.80	8.34	-30.8	-35.0	10.6	5.48e-03	0	42	0	1257242624	22	5798
2026-01-11 09:34:48.69	346.65	8.10	-31.0	-35.7	10.1	9.46e-03	0	42	0	1262485504	22	6157
2026-01-11 09:34:51.71	346.51	7.87	-31.1	-35.9	9.9	7.29e-03	0	42	0	1268776960	22	6263
2026-01-11 09:34:54.74	346.37	7.64	-31.2	-36.4	9.4	2.19e-02	0	42	0	1274019840	22	6552
2026-01-11 09:34:57.75	346.24	7.41	-31.1	-36.1	9.7	8.21e-03	0	42	0	1279262720	22	6383
2026-01-11 09:35:00.76	346.10	7.19	-31.1	-36.2	9.5	1.13e-02	0	42	0	1285554176	22	6493
2026-01-11 09:35:03.77	345.97	6.97	-33.2	-47.2	3.8	1.49e+00	0	42	104	1288699904	26	18017

#Closed at: 2026-01-11 09:35:04
#Recorded file [1288 MB]: D:/data/31010_260111_122334.dat