passes_logs/2026/01/11/R2M6_AANII_01/R2M6_AANII_01__20260111_114237_FENGYUN_3D_rec.log

#Pass ID: 20260111_114237_FENGYUN 3D
#Satellite: FENGYUN 3D
#Configuration: FENGYUN 3D
#almurnet v.1.7.20240730
#Start time: 2026-01-11 11:42:37

#Version: 2.2.20231116
#Station: R2M6_AANII_01
#Location: 30.233357 lon 59.946436 lat
#TLE: 1 43010U 17072A   26009.92921666 -.00000228  00000+0 -86059-4 0  9998
#TLE: 2 43010  98.9936 341.6668 0002176 116.7510 243.3888 14.19693142422537

#Time	Az	El	Level	Level2	SNR	BER	BlckErr	Temp	State	Recorded	gain1	gain2
2026-01-11 11:42:37.25	140.14	7.01	-28.9	-31.0	5.5	7.82e-01	0	40	0	0	19	4604
2026-01-11 11:42:40.25	140.05	7.24	-29.4	-32.2	10.1	8.26e-03	0	40	0	5242880	19	5005
2026-01-11 11:42:43.23	139.96	7.47	-29.0	-31.3	10.7	5.10e-03	0	40	0	22020096	19	4689
2026-01-11 11:42:46.23	139.87	7.70	-28.2	-30.3	12.0	6.30e-04	0	40	0	38797312	17	4567
2026-01-11 11:42:49.25	139.78	7.94	-28.6	-31.1	11.5	1.14e-03	0	40	0	55574528	17	4833
2026-01-11 11:42:52.26	139.68	8.18	-27.5	-29.1	13.1	5.37e-05	0	40	0	73400320	16	4301
2026-01-11 11:42:55.26	139.58	8.42	-26.9	-28.2	13.8	6.80e-06	0	40	0	90177536	15	4180
2026-01-11 11:42:58.27	139.48	8.66	-26.7	-28.2	14.1	2.20e-06	0	40	0	106954752	14	4284
2026-01-11 11:43:01.27	139.38	8.91	-26.7	-28.3	14.1	1.10e-06	0	40	0	123731968	14	4300
2026-01-11 11:43:04.29	139.28	9.16	-26.9	-28.6	13.9	1.25e-05	0	40	0	140509184	14	4402
2026-01-11 11:43:07.30	139.17	9.41	-26.9	-28.6	13.9	5.70e-06	0	40	0	157286400	14	4398
2026-01-11 11:43:10.30	139.07	9.66	-27.1	-29.0	13.7	4.50e-06	0	40	0	174063616	14	4503
2026-01-11 11:43:13.30	138.96	9.91	-26.8	-28.3	14.1	1.10e-06	0	41	0	190840832	14	4297
2026-01-11 11:43:16.33	138.85	10.17	-26.9	-28.7	13.9	9.10e-06	0	41	0	208666624	14	4427
2026-01-11 11:43:19.34	138.73	10.43	-26.8	-28.5	14.1	4.50e-06	0	41	0	225443840	14	4343
2026-01-11 11:43:22.37	138.62	10.70	-26.8	-28.4	14.1	1.10e-06	0	41	0	242221056	14	4332
2026-01-11 11:43:25.39	138.50	10.96	-27.0	-28.8	13.9	6.80e-06	0	41	0	258998272	14	4448
2026-01-11 11:43:28.40	138.38	11.23	-26.5	-27.7	14.5	1.10e-06	0	41	0	275775488	14	4148
2026-01-11 11:43:31.39	138.25	11.50	-26.5	-27.7	14.6	2.20e-06	0	41	0	292552704	14	4121
2026-01-11 11:43:34.38	138.13	11.77	-26.3	-27.2	14.9	0.00e+00	0	41	0	309329920	14	4002
2026-01-11 11:43:37.40	138.00	12.05	-26.6	-27.8	14.6	0.00e+00	0	41	0	326107136	14	4153
2026-01-11 11:43:40.41	137.87	12.33	-26.4	-27.9	14.8	0.00e+00	0	41	0	343932928	13	4292
2026-01-11 11:43:43.39	137.74	12.61	-26.1	-27.4	15.1	0.00e+00	0	41	0	360710144	13	4142
2026-01-11 11:43:46.40	137.61	12.90	-26.3	-27.8	14.8	0.00e+00	0	41	0	377487360	13	4280
2026-01-11 11:43:49.40	137.47	13.19	-26.0	-27.2	15.2	0.00e+00	0	41	0	394264576	13	4097
2026-01-11 11:43:52.43	137.32	13.48	-26.0	-26.9	15.4	0.00e+00	0	41	0	411041792	13	4028
2026-01-11 11:43:55.41	137.18	13.78	-26.0	-27.0	15.3	0.00e+00	0	41	0	427819008	13	4044
2026-01-11 11:43:58.40	137.04	14.07	-26.0	-27.1	15.3	1.10e-06	0	41	0	444596224	13	4083
2026-01-11 11:44:01.40	136.89	14.38	-25.9	-26.9	15.4	0.00e+00	0	41	0	461373440	13	4039
2026-01-11 11:44:04.40	136.73	14.68	-25.9	-26.8	15.5	0.00e+00	0	41	0	478150656	13	3995
2026-01-11 11:44:07.42	136.57	14.99	-25.9	-26.7	15.6	0.00e+00	0	41	0	495976448	13	3980
2026-01-11 11:44:10.44	136.41	15.31	-25.7	-26.9	15.8	0.00e+00	0	41	0	512753664	12	4129
2026-01-11 11:44:13.46	136.25	15.63	-25.7	-26.9	15.8	0.00e+00	0	41	0	529530880	12	4125
2026-01-11 11:44:16.47	136.08	15.95	-25.5	-26.5	16.0	0.00e+00	0	41	0	546308096	12	4019
2026-01-11 11:44:19.48	135.91	16.28	-25.3	-26.0	16.3	0.00e+00	0	41	0	563085312	12	3901
2026-01-11 11:44:22.50	135.73	16.61	-25.5	-26.8	16.2	0.00e+00	0	41	0	579862528	11	4193
2026-01-11 11:44:25.52	135.55	16.94	-25.2	-26.3	16.5	0.00e+00	0	41	0	597688320	11	4068
2026-01-11 11:44:28.53	135.37	17.28	-25.4	-26.7	16.4	0.00e+00	0	41	0	614465536	11	4161
2026-01-11 11:44:31.55	135.18	17.63	-25.2	-26.2	16.6	0.00e+00	0	41	0	631242752	11	4046
2026-01-11 11:44:34.57	134.98	17.98	-25.2	-26.2	16.6	0.00e+00	0	41	0	648019968	11	4043
2026-01-11 11:44:37.59	134.78	18.33	-24.9	-25.7	17.0	0.00e+00	0	42	0	664797184	11	3910
2026-01-11 11:44:40.60	134.58	18.69	-24.7	-25.7	17.2	0.00e+00	0	42	0	681574400	10	4034
2026-01-11 11:44:43.62	134.37	19.05	-24.6	-25.5	17.4	0.00e+00	0	41	0	699400192	10	3967
2026-01-11 11:44:46.63	134.16	19.42	-24.6	-25.3	17.5	0.00e+00	0	42	0	716177408	10	3936
2026-01-11 11:44:49.65	133.94	19.79	-24.6	-25.3	17.5	0.00e+00	0	41	0	732954624	10	3922
2026-01-11 11:44:52.68	133.71	20.17	-24.5	-25.3	17.5	0.00e+00	0	42	0	749731840	10	3926
2026-01-11 11:44:55.68	133.48	20.56	-24.4	-25.0	17.7	0.00e+00	0	41	0	766509056	10	3863
2026-01-11 11:44:58.70	133.25	20.94	-24.3	-24.8	17.8	0.00e+00	0	42	0	784334848	10	3815
2026-01-11 11:45:01.71	133.00	21.34	-24.2	-25.0	18.0	0.00e+00	0	42	0	801112064	9	3949
2026-01-11 11:45:04.71	132.76	21.74	-24.2	-25.1	17.9	0.00e+00	0	42	0	817889280	9	3998
2026-01-11 11:45:07.73	132.50	22.14	-24.0	-24.6	18.2	0.00e+00	0	42	0	834666496	9	3857
2026-01-11 11:45:10.74	132.24	22.55	-23.8	-24.3	18.3	2.20e-06	0	42	0	851443712	9	3783
2026-01-11 11:45:13.77	131.96	22.97	-24.0	-24.5	18.2	0.00e+00	0	42	0	869269504	9	3845
2026-01-11 11:45:16.78	131.69	23.40	-23.8	-24.3	18.4	0.00e+00	0	42	0	886046720	9	3787
2026-01-11 11:45:19.80	131.40	23.83	-23.8	-24.2	18.4	0.00e+00	0	42	0	902823936	9	3775
2026-01-11 11:45:22.82	131.10	24.27	-23.9	-24.3	18.4	0.00e+00	0	42	0	919601152	9	3800
2026-01-11 11:45:25.84	130.80	24.71	-24.1	-24.8	18.2	1.10e-06	0	42	0	936378368	9	3901
2026-01-11 11:45:28.86	130.49	25.16	-23.9	-24.8	18.4	0.00e+00	0	42	0	954204160	8	4028
2026-01-11 11:45:31.88	130.17	25.62	-23.6	-24.2	18.8	0.00e+00	0	42	0	970981376	8	3864
2026-01-11 11:45:34.90	129.83	26.08	-23.6	-24.3	18.7	2.20e-06	0	42	0	987758592	8	3908
2026-01-11 11:45:37.92	129.49	26.55	-23.8	-24.6	18.6	0.00e+00	0	42	0	1004535808	8	3971
2026-01-11 11:45:40.93	129.14	27.03	-23.6	-24.2	18.8	0.00e+00	0	42	0	1021313024	8	3881
2026-01-11 11:45:43.95	128.78	27.52	-23.5	-24.1	18.8	0.00e+00	0	42	0	1038090240	8	3848
2026-01-11 11:45:46.97	128.40	28.01	-23.2	-24.0	19.1	0.00e+00	0	42	0	1055916032	7	3921
2026-01-11 11:45:49.98	128.02	28.51	-23.2	-24.0	19.1	0.00e+00	0	42	0	1072693248	7	3937
2026-01-11 11:45:53.00	127.62	29.02	-23.2	-23.9	19.2	0.00e+00	0	42	0	1089470464	7	3899
2026-01-11 11:45:56.00	127.21	29.53	-23.3	-24.1	19.1	0.00e+00	0	42	0	1106247680	7	3947
2026-01-11 11:45:59.00	126.79	30.05	-23.0	-23.6	19.4	0.00e+00	0	42	0	1123024896	7	3827
2026-01-11 11:46:02.03	126.34	30.58	-22.9	-23.3	19.5	0.00e+00	0	42	0	1139802112	7	3760
2026-01-11 11:46:05.03	125.89	31.12	-22.8	-23.1	19.6	0.00e+00	0	42	0	1157627904	7	3720
2026-01-11 11:46:08.05	125.42	31.67	-22.7	-23.4	19.7	0.00e+00	0	42	0	1174405120	6	3906
2026-01-11 11:46:11.07	124.93	32.22	-23.0	-23.9	19.5	0.00e+00	0	42	0	1191182336	6	4019
2026-01-11 11:46:14.08	124.43	32.78	-23.0	-24.0	19.4	0.00e+00	0	42	0	1207959552	6	4029
2026-01-11 11:46:17.09	123.91	33.35	-22.9	-23.7	19.6	0.00e+00	0	42	0	1224736768	6	3965
2026-01-11 11:46:20.10	123.36	33.93	-22.6	-23.2	19.8	0.00e+00	0	42	0	1241513984	6	3847
2026-01-11 11:46:23.12	122.80	34.52	-22.6	-23.2	19.8	0.00e+00	0	42	0	1259339776	6	3844
2026-01-11 11:46:26.12	122.22	35.11	-22.6	-23.2	19.8	0.00e+00	0	42	0	1276116992	6	3841
2026-01-11 11:46:29.13	121.62	35.71	-23.0	-23.9	19.5	0.00e+00	0	42	0	1292894208	6	4018
2026-01-11 11:46:32.15	120.99	36.32	-22.8	-23.6	19.6	0.00e+00	0	42	0	1309671424	6	3953
2026-01-11 11:46:35.16	120.34	36.94	-22.8	-23.6	19.6	0.00e+00	0	42	0	1326448640	6	3953
2026-01-11 11:46:38.16	119.66	37.56	-23.0	-24.0	19.5	0.00e+00	0	42	0	1343225856	6	4033
2026-01-11 11:46:41.15	118.97	38.18	-23.0	-24.1	19.4	0.00e+00	0	42	0	1360003072	6	4066
2026-01-11 11:46:44.14	118.24	38.82	-23.0	-23.9	19.5	0.00e+00	0	42	0	1376780288	6	4013
2026-01-11 11:46:47.14	117.48	39.46	-22.5	-22.9	20.1	0.00e+00	0	42	0	1393557504	6	3776
2026-01-11 11:46:50.14	116.69	40.10	-22.7	-23.4	19.8	0.00e+00	0	42	0	1410334720	6	3902
2026-01-11 11:46:53.14	115.87	40.76	-23.0	-24.0	19.5	0.00e+00	0	42	0	1428160512	6	4040
2026-01-11 11:46:56.14	115.02	41.41	-22.9	-23.8	19.6	0.00e+00	0	42	0	1444937728	6	3984
2026-01-11 11:46:59.15	114.12	42.08	-23.0	-24.1	19.5	0.00e+00	0	42	0	1461714944	6	4057
2026-01-11 11:47:02.15	113.19	42.74	-22.7	-23.4	19.9	0.00e+00	0	42	0	1478492160	6	3890
2026-01-11 11:47:05.17	112.22	43.42	-23.0	-23.9	19.6	0.00e+00	0	42	0	1495269376	6	4016
2026-01-11 11:47:08.17	111.21	44.09	-22.8	-23.5	19.9	0.00e+00	0	42	0	1512046592	6	3917
2026-01-11 11:47:11.16	110.16	44.76	-22.8	-23.5	19.9	0.00e+00	0	42	0	1528823808	6	3910
2026-01-11 11:47:14.16	109.05	45.43	-23.1	-24.2	19.5	0.00e+00	0	42	0	1545601024	6	4082
2026-01-11 11:47:17.15	107.91	46.09	-23.3	-24.6	19.4	0.00e+00	0	42	0	1562378240	6	4182
2026-01-11 11:47:20.15	106.71	46.76	-23.6	-24.7	19.1	0.00e+00	0	42	0	1579155456	7	4092
2026-01-11 11:47:23.17	105.45	47.43	-23.3	-24.1	19.4	0.00e+00	0	42	0	1596981248	7	3938
2026-01-11 11:47:26.18	104.14	48.09	-23.8	-25.1	18.9	0.00e+00	0	42	0	1613758464	7	4185
2026-01-11 11:47:29.20	102.77	48.75	-23.3	-24.2	19.4	0.00e+00	0	42	0	1630535680	7	3956
2026-01-11 11:47:32.21	101.35	49.39	-23.7	-25.0	18.9	0.00e+00	0	42	0	1647312896	7	4164
2026-01-11 11:47:35.22	99.86	50.03	-24.0	-25.5	18.7	0.00e+00	0	42	0	1664090112	7	4293
2026-01-11 11:47:38.23	98.31	50.65	-24.3	-25.7	18.4	0.00e+00	0	42	0	1680867328	8	4235
2026-01-11 11:47:41.23	96.70	51.25	-24.2	-25.5	18.5	0.00e+00	0	42	0	1698693120	8	4172
2026-01-11 11:47:44.23	95.03	51.84	-23.9	-24.8	18.9	0.00e+00	0	42	0	1715470336	8	4004
2026-01-11 11:47:47.24	93.28	52.41	-23.8	-24.7	18.9	0.00e+00	0	42	0	1732247552	8	3992
2026-01-11 11:47:50.25	91.46	52.96	-24.0	-25.0	18.8	0.00e+00	0	42	0	1749024768	8	4049
2026-01-11 11:47:53.27	89.58	53.48	-24.3	-25.6	18.5	0.00e+00	0	42	0	1765801984	8	4202
2026-01-11 11:47:56.28	87.63	53.97	-24.0	-25.1	18.8	0.00e+00	0	42	0	1782579200	8	4068
2026-01-11 11:47:59.29	85.61	54.44	-23.4	-23.7	19.4	0.00e+00	0	42	0	1799356416	8	3746
2026-01-11 11:48:02.29	83.54	54.87	-23.3	-24.1	19.5	0.00e+00	0	42	0	1817182208	7	3937
2026-01-11 11:48:05.29	81.40	55.26	-23.3	-24.2	19.4	0.00e+00	0	42	0	1833959424	7	3961
2026-01-11 11:48:08.28	79.22	55.62	-23.5	-24.5	19.3	0.00e+00	0	42	0	1850736640	7	4034
2026-01-11 11:48:11.29	76.97	55.93	-23.7	-24.9	19.0	0.00e+00	0	42	0	1867513856	7	4158
2026-01-11 11:48:14.28	74.68	56.21	-24.4	-25.9	18.3	0.00e+00	0	42	0	1884291072	8	4273
2026-01-11 11:48:17.30	72.33	56.44	-24.2	-25.4	18.6	0.00e+00	0	42	0	1901068288	8	4153
2026-01-11 11:48:20.30	69.96	56.62	-24.6	-25.8	18.2	0.00e+00	0	42	0	1917845504	9	4135
2026-01-11 11:48:23.30	67.57	56.75	-24.6	-25.2	18.3	0.00e+00	0	42	0	1934622720	10	3871
2026-01-11 11:48:26.31	65.14	56.84	-24.6	-25.8	18.3	0.00e+00	0	42	0	1952448512	9	4120
2026-01-11 11:48:29.31	62.72	56.88	-23.7	-24.3	19.3	0.00e+00	0	42	0	1969225728	8	3873
2026-01-11 11:48:32.32	60.28	56.87	-23.4	-23.8	19.5	0.00e+00	0	42	0	1986002944	8	3760
2026-01-11 11:48:35.33	57.85	56.80	-23.7	-24.4	19.2	0.00e+00	0	42	0	2002780160	8	3900
2026-01-11 11:48:38.31	55.46	56.69	-23.6	-24.6	19.3	0.00e+00	0	42	0	2019557376	7	4056
2026-01-11 11:48:41.33	53.06	56.53	-23.4	-24.3	19.5	0.00e+00	0	42	0	2036334592	7	3972
2026-01-11 11:48:44.33	50.71	56.33	-23.4	-24.1	19.6	0.00e+00	0	42	0	2053111808	7	3941
2026-01-11 11:48:47.34	48.39	56.08	-23.3	-24.0	19.7	0.00e+00	0	42	0	2069889024	7	3901
2026-01-11 11:48:50.34	46.12	55.78	-23.2	-23.7	19.7	0.00e+00	0	42	0	2086666240	7	3845
2026-01-11 11:48:53.33	43.91	55.45	-22.7	-23.3	20.2	0.00e+00	0	42	0	2103443456	6	3849
2026-01-11 11:48:56.35	41.73	55.07	-23.1	-24.1	19.8	0.00e+00	0	42	0	2120220672	6	4047
2026-01-11 11:48:59.35	39.63	54.66	-23.2	-24.3	19.7	0.00e+00	0	42	0	2138046464	6	4103
2026-01-11 11:49:02.35	37.59	54.21	-23.1	-24.1	19.8	0.00e+00	0	42	0	2154823680	6	4036
2026-01-11 11:49:05.37	35.61	53.73	-23.0	-24.0	19.8	0.00e+00	0	42	0	2171600896	6	4019
2026-01-11 11:49:08.38	33.69	53.23	-22.8	-23.4	20.1	0.00e+00	0	42	0	2188378112	6	3879
2026-01-11 11:49:11.40	31.84	52.69	-23.6	-24.7	19.3	0.00e+00	0	42	0	2205155328	7	4071
2026-01-11 11:49:14.41	30.06	52.13	-23.4	-24.2	19.5	0.00e+00	0	42	0	2222981120	7	3965
2026-01-11 11:49:17.43	28.35	51.55	-23.3	-24.1	19.5	0.00e+00	0	42	0	2239758336	7	3935
2026-01-11 11:49:20.44	26.70	50.96	-23.2	-23.9	19.6	0.00e+00	0	42	0	2256535552	7	3886
2026-01-11 11:49:23.45	25.12	50.35	-23.1	-23.7	19.7	0.00e+00	0	42	0	2273312768	7	3827
2026-01-11 11:49:26.46	23.61	49.72	-23.3	-24.1	19.5	0.00e+00	0	42	0	2290089984	7	3938
2026-01-11 11:49:29.47	22.16	49.08	-23.0	-23.4	19.9	0.00e+00	0	42	0	2306867200	7	3760
2026-01-11 11:49:32.49	20.76	48.43	-23.0	-23.5	19.8	0.00e+00	0	42	0	2323644416	7	3789
2026-01-11 11:49:35.51	19.42	47.77	-22.8	-23.0	20.0	0.00e+00	0	42	0	2341470208	7	3682
2026-01-11 11:49:38.49	18.15	47.12	-22.7	-23.3	20.1	0.00e+00	0	42	0	2358247424	6	3861
2026-01-11 11:49:41.50	16.93	46.45	-22.9	-23.6	20.0	0.00e+00	0	42	0	2375024640	6	3938
2026-01-11 11:49:44.50	15.76	45.78	-22.3	-22.5	20.5	0.00e+00	0	42	0	2391801856	6	3682
2026-01-11 11:49:47.50	14.64	45.12	-22.6	-23.1	20.2	0.00e+00	0	42	0	2408579072	6	3821
2026-01-11 11:49:50.50	13.56	44.45	-22.6	-23.0	20.2	0.00e+00	0	42	0	2425356288	6	3789
2026-01-11 11:49:53.50	12.53	43.78	-22.6	-23.2	20.2	0.00e+00	0	42	0	2442133504	6	3829
2026-01-11 11:49:56.49	11.55	43.11	-22.6	-23.1	20.2	0.00e+00	0	42	0	2458910720	6	3813
2026-01-11 11:49:59.48	10.61	42.45	-23.0	-23.9	19.8	0.00e+00	0	42	0	2475687936	6	4002
2026-01-11 11:50:02.49	9.69	41.79	-23.2	-24.3	19.6	0.00e+00	0	42	0	2492465152	6	4082
2026-01-11 11:50:05.50	8.82	41.13	-23.2	-24.4	19.6	0.00e+00	0	42	0	2509242368	6	4109
2026-01-11 11:50:08.51	7.98	40.47	-23.2	-23.9	19.6	0.00e+00	0	42	0	2527068160	7	3871
2026-01-11 11:50:11.51	7.18	39.83	-22.3	-22.9	20.5	0.00e+00	0	42	0	2543845376	5	3879
2026-01-11 11:50:14.52	6.40	39.18	-22.4	-23.2	20.3	0.00e+00	0	42	0	2560622592	5	3935
2026-01-11 11:50:17.52	5.66	38.55	-22.5	-23.3	20.3	0.00e+00	0	42	0	2577399808	5	3967
2026-01-11 11:50:20.52	4.95	37.92	-22.6	-23.5	20.2	0.00e+00	0	42	0	2594177024	5	4010
2026-01-11 11:50:23.53	4.26	37.29	-22.5	-23.4	20.2	0.00e+00	0	42	0	2610954240	5	3989
2026-01-11 11:50:26.55	3.60	36.67	-22.4	-23.1	20.3	0.00e+00	0	42	0	2627731456	5	3919
2026-01-11 11:50:29.56	2.96	36.06	-22.5	-23.3	20.2	0.00e+00	0	42	0	2645557248	5	3968
2026-01-11 11:50:32.57	2.35	35.46	-22.4	-23.3	20.2	0.00e+00	0	42	0	2662334464	5	3962
2026-01-11 11:50:35.59	1.76	34.86	-22.3	-22.9	20.4	0.00e+00	0	42	0	2679111680	5	3872
2026-01-11 11:50:38.60	1.19	34.28	-22.6	-23.6	20.0	0.00e+00	0	42	0	2695888896	5	4039
2026-01-11 11:50:41.62	0.64	33.70	-22.9	-24.2	19.7	0.00e+00	0	42	0	2712666112	5	4190
2026-01-11 11:50:44.63	0.11	33.12	-22.7	-23.9	19.9	0.00e+00	0	42	0	2729443328	5	4106
2026-01-11 11:50:47.64	359.60	32.56	-22.7	-23.3	19.9	0.00e+00	0	42	0	2747269120	6	3865
2026-01-11 11:50:50.65	359.11	32.01	-22.8	-23.5	19.9	0.00e+00	0	42	0	2764046336	6	3900
2026-01-11 11:50:53.66	358.63	31.46	-22.9	-23.8	19.7	0.00e+00	0	42	0	2780823552	6	3967
2026-01-11 11:50:56.67	358.17	30.92	-23.0	-24.0	19.6	0.00e+00	0	42	0	2797600768	6	4035
2026-01-11 11:50:59.68	357.73	30.39	-23.1	-24.1	19.5	0.00e+00	0	42	0	2814377984	6	4049
2026-01-11 11:51:02.69	357.30	29.86	-22.9	-23.6	19.7	0.00e+00	0	42	0	2831155200	6	3935
2026-01-11 11:51:05.70	356.88	29.35	-22.9	-23.8	19.7	0.00e+00	0	42	0	2847932416	6	3963
2026-01-11 11:51:08.69	356.48	28.84	-23.3	-24.5	19.3	0.00e+00	0	42	0	2864709632	6	4157
2026-01-11 11:51:11.70	356.09	28.34	-23.0	-23.9	19.6	0.00e+00	0	42	0	2882535424	6	3998
2026-01-11 11:51:14.69	355.71	27.85	-23.0	-24.0	19.6	0.00e+00	0	42	0	2899312640	6	4015
2026-01-11 11:51:17.68	355.35	27.37	-23.2	-24.4	19.4	0.00e+00	0	42	0	2916089856	6	4113
2026-01-11 11:51:20.69	355.00	26.89	-23.1	-24.2	19.4	0.00e+00	0	42	0	2932867072	6	4080
2026-01-11 11:51:23.67	354.66	26.42	-23.1	-24.2	19.4	0.00e+00	0	42	0	2949644288	6	4087
2026-01-11 11:51:26.67	354.32	25.96	-23.2	-24.3	19.3	0.00e+00	0	42	0	2966421504	6	4108
2026-01-11 11:51:29.67	354.00	25.50	-23.2	-24.3	19.3	0.00e+00	0	42	0	2983198720	6	4107
2026-01-11 11:51:32.68	353.68	25.05	-23.2	-24.4	19.3	0.00e+00	0	42	0	2999975936	6	4130
2026-01-11 11:51:35.67	353.38	24.61	-23.2	-24.3	19.3	0.00e+00	0	42	0	3016753152	6	4084
2026-01-11 11:51:38.68	353.08	24.17	-23.2	-24.5	19.2	0.00e+00	0	42	0	3033530368	6	4138
2026-01-11 11:51:41.67	352.80	23.74	-23.3	-24.6	19.1	0.00e+00	0	42	0	3050307584	6	4183
2026-01-11 11:51:44.68	352.52	23.31	-23.3	-24.5	19.2	0.00e+00	0	42	0	3068133376	6	4148
2026-01-11 11:51:47.70	352.24	22.89	-23.5	-24.6	18.9	0.00e+00	0	42	0	3084910592	7	4051
2026-01-11 11:51:50.72	351.98	22.48	-23.6	-24.7	18.8	0.00e+00	0	42	0	3101687808	7	4091
2026-01-11 11:51:53.73	351.72	22.07	-23.6	-24.7	18.8	0.00e+00	0	42	0	3118465024	7	4081
2026-01-11 11:51:56.74	351.47	21.67	-23.4	-24.4	18.9	0.00e+00	0	42	0	3135242240	7	4005
2026-01-11 11:51:59.75	351.22	21.27	-23.5	-24.5	18.9	0.00e+00	0	42	0	3152019456	7	4045
2026-01-11 11:52:02.75	350.99	20.88	-23.7	-24.9	18.7	0.00e+00	0	42	0	3168796672	7	4125
2026-01-11 11:52:05.73	350.76	20.50	-23.8	-25.1	18.5	0.00e+00	0	42	0	3185573888	7	4195
2026-01-11 11:52:08.73	350.53	20.13	-23.9	-25.4	17.4	1.45e-03	0	42	0	3203399680	7	4259
2026-01-11 11:52:11.75	350.31	19.75	-24.3	-25.7	17.0	3.10e-03	0	42	0	3220176896	8	4237
2026-01-11 11:52:14.76	350.10	19.38	-24.7	-26.2	16.8	5.95e-04	0	42	0	3236954112	9	4243
2026-01-11 11:52:17.76	349.89	19.02	-24.8	-26.3	16.4	4.22e-03	0	42	0	3253731328	9	4284
2026-01-11 11:52:20.77	349.68	18.66	-24.8	-26.4	16.3	6.31e-03	0	42	0	3270508544	9	4322
2026-01-11 11:52:23.77	349.49	18.30	-24.4	-25.5	17.1	1.42e-03	0	42	0	3287285760	9	4076
2026-01-11 11:52:26.78	349.29	17.95	-24.6	-25.8	17.6	0.00e+00	0	42	0	3304062976	9	4150
2026-01-11 11:52:29.77	349.10	17.61	-24.4	-25.4	17.8	0.00e+00	0	42	0	3320840192	9	4047
2026-01-11 11:52:32.77	348.92	17.27	-24.4	-25.3	17.9	0.00e+00	0	42	0	3338665984	9	4009
2026-01-11 11:52:35.76	348.74	16.94	-24.4	-25.4	17.8	0.00e+00	0	42	0	3355443200	9	4046
2026-01-11 11:52:38.76	348.56	16.61	-24.5	-25.5	17.7	0.00e+00	0	42	0	3372220416	9	4063
2026-01-11 11:52:41.76	348.39	16.28	-24.7	-26.0	17.5	0.00e+00	0	42	0	3388997632	9	4185
2026-01-11 11:52:44.76	348.22	15.96	-24.8	-26.3	17.3	0.00e+00	0	42	0	3405774848	9	4263
2026-01-11 11:52:47.76	348.06	15.64	-24.9	-26.5	17.2	0.00e+00	0	42	0	3422552064	9	4311
2026-01-11 11:52:50.76	347.90	15.32	-25.2	-26.5	16.9	0.00e+00	0	42	0	3439329280	10	4218
2026-01-11 11:52:53.77	347.74	15.01	-25.1	-26.5	16.9	0.00e+00	0	42	0	3456106496	10	4211
2026-01-11 11:52:56.77	347.59	14.70	-25.4	-27.0	16.6	0.00e+00	0	42	0	3472883712	10	4339
2026-01-11 11:52:59.78	347.44	14.40	-25.4	-27.1	16.6	0.00e+00	0	42	0	3489660928	10	4360
2026-01-11 11:53:02.79	347.29	14.10	-25.9	-27.6	16.0	0.00e+00	0	42	0	3506438144	11	4404
2026-01-11 11:53:05.79	347.15	13.80	-25.7	-27.3	16.2	0.00e+00	0	42	0	3524263936	11	4304
2026-01-11 11:53:08.78	347.01	13.51	-25.8	-27.5	16.0	0.00e+00	0	42	0	3541041152	11	4362
2026-01-11 11:53:11.79	346.87	13.21	-25.9	-27.7	15.9	0.00e+00	0	42	0	3557818368	11	4414
2026-01-11 11:53:14.82	346.73	12.92	-26.2	-27.8	15.4	0.00e+00	0	42	0	3574595584	12	4346
2026-01-11 11:53:17.84	346.60	12.64	-25.8	-26.9	15.9	0.00e+00	0	42	0	3591372800	12	4109
2026-01-11 11:53:20.85	346.47	12.36	-25.8	-27.0	15.9	0.00e+00	0	42	0	3608150016	12	4144
2026-01-11 11:53:23.86	346.34	12.08	-26.0	-27.4	15.6	0.00e+00	0	42	0	3625975808	12	4242
2026-01-11 11:53:26.86	346.22	11.80	-26.0	-27.4	15.6	1.10e-06	0	42	0	3642753024	12	4244
2026-01-11 11:53:29.88	346.10	11.53	-26.0	-27.4	15.6	0.00e+00	0	42	0	3659530240	12	4237
2026-01-11 11:53:32.89	345.98	11.26	-26.0	-27.4	15.6	0.00e+00	0	42	0	3676307456	12	4242
2026-01-11 11:53:35.91	345.86	10.99	-26.1	-27.8	15.4	0.00e+00	0	42	0	3693084672	12	4340
2026-01-11 11:53:38.92	345.75	10.73	-26.0	-27.6	15.5	0.00e+00	0	42	0	3709861888	12	4287
2026-01-11 11:53:41.92	345.63	10.47	-26.0	-27.7	15.3	0.00e+00	0	42	0	3727687680	12	4337
2026-01-11 11:53:44.92	345.52	10.21	-26.0	-27.6	15.4	4.50e-06	0	42	0	3744464896	12	4328
2026-01-11 11:53:47.93	345.42	9.95	-26.1	-27.7	15.3	0.00e+00	0	42	0	3761242112	12	4331
2026-01-11 11:53:50.95	345.31	9.70	-26.3	-28.2	15.0	0.00e+00	0	42	0	3778019328	12	4459
2026-01-11 11:53:53.95	345.21	9.45	-26.2	-27.9	15.2	0.00e+00	0	42	0	3794796544	12	4391
2026-01-11 11:53:56.95	345.10	9.20	-26.2	-27.9	15.2	0.00e+00	0	42	0	3811573760	12	4369
2026-01-11 11:53:59.96	345.00	8.95	-26.5	-28.1	14.7	0.00e+00	0	42	0	3828350976	13	4329
2026-01-11 11:54:02.96	344.91	8.71	-26.4	-27.9	14.8	0.00e+00	0	42	0	3845128192	13	4265
2026-01-11 11:54:05.97	344.81	8.47	-26.6	-28.3	14.6	0.00e+00	0	42	0	3862953984	13	4394
2026-01-11 11:54:08.97	344.72	8.23	-26.4	-28.0	14.7	0.00e+00	0	42	0	3879731200	13	4299
2026-01-11 11:54:11.98	344.62	7.99	-26.6	-28.2	14.6	1.10e-06	0	42	0	3896508416	13	4368
2026-01-11 11:54:14.97	344.53	7.76	-26.5	-28.2	14.5	0.00e+00	0	42	0	3913285632	13	4349
2026-01-11 11:54:17.98	344.44	7.53	-26.6	-28.4	14.4	0.00e+00	0	42	0	3930062848	13	4410
2026-01-11 11:54:20.98	344.36	7.30	-26.5	-28.2	14.5	2.20e-06	0	42	0	3946840064	13	4372
2026-01-11 11:54:23.98	344.27	7.07	-32.3	-40.3	4.4	5.56e-01	0	42	0	3962568704	24	8997

#Closed at: 2026-01-11 11:54:26
#Recorded file [3962 MB]: D:/data/31010_260111_144239.dat