passes_logs/2026/01/11/R2M6_AANII_01/R2M6_AANII_01__20260111_100439_FENGYUN_3D_rec.log

#Pass ID: 20260111_100439_FENGYUN 3D
#Satellite: FENGYUN 3D
#Configuration: FENGYUN 3D
#almurnet v.1.7.20240730
#Start time: 2026-01-11 10:04:39

#Version: 2.2.20231116
#Station: R2M6_AANII_01
#Location: 30.233357 lon 59.946436 lat
#TLE: 1 43010U 17072A   26009.92921666 -.00000228  00000+0 -86059-4 0  9998
#TLE: 2 43010  98.9936 341.6668 0002176 116.7510 243.3888 14.19693142422537

#Time	Az	El	Level	Level2	SNR	BER	BlckErr	Temp	State	Recorded	gain1	gain2
2026-01-11 10:04:39.66	89.54	7.02	-31.2	-36.3	4.6	8.22e-01	0	39	0	0	23	6477
2026-01-11 10:04:42.67	89.22	7.19	-30.2	-33.7	8.5	4.05e-02	0	39	0	5242880	21	5360
2026-01-11 10:04:45.70	88.90	7.37	-30.1	-33.4	8.7	2.31e-02	0	40	0	22020096	21	5217
2026-01-11 10:04:48.72	88.57	7.55	-29.2	-31.6	10.8	2.40e-03	0	40	0	39845888	19	4742
2026-01-11 10:04:51.75	88.24	7.73	-27.7	-29.5	13.0	3.31e-05	0	40	0	56623104	16	4427
2026-01-11 10:04:54.76	87.90	7.91	-26.9	-28.1	14.0	4.50e-06	0	40	0	73400320	15	4140
2026-01-11 10:04:57.78	87.56	8.09	-26.9	-28.1	14.0	1.10e-06	0	40	0	90177536	15	4142
2026-01-11 10:05:00.80	87.22	8.27	-27.0	-28.3	14.0	2.20e-06	0	40	0	106954752	15	4176
2026-01-11 10:05:03.81	86.87	8.45	-26.8	-28.5	14.2	0.00e+00	0	40	0	124780544	14	4348
2026-01-11 10:05:06.83	86.52	8.63	-27.1	-29.0	13.8	1.10e-06	0	40	0	141557760	14	4495
2026-01-11 10:05:09.85	86.16	8.82	-26.9	-28.6	14.2	2.20e-06	0	40	0	158334976	14	4375
2026-01-11 10:05:12.87	85.80	9.00	-26.8	-28.4	14.3	1.10e-06	0	41	0	175112192	14	4311
2026-01-11 10:05:15.89	85.43	9.18	-26.8	-28.3	14.4	0.00e+00	0	41	0	191889408	14	4279
2026-01-11 10:05:18.91	85.06	9.36	-26.5	-27.5	14.8	0.00e+00	0	40	0	208666624	14	4073
2026-01-11 10:05:21.93	84.69	9.54	-26.7	-28.2	14.5	0.00e+00	0	41	0	226492416	14	4251
2026-01-11 10:05:24.95	84.31	9.73	-26.6	-28.0	14.6	0.00e+00	0	41	0	243269632	14	4189
2026-01-11 10:05:27.97	83.92	9.91	-26.4	-27.5	14.9	0.00e+00	0	41	0	260046848	14	4062
2026-01-11 10:05:30.99	83.53	10.09	-26.1	-27.3	15.3	0.00e+00	0	41	0	276824064	13	4103
2026-01-11 10:05:34.00	83.14	10.27	-26.7	-28.5	14.6	1.10e-06	0	41	0	293601280	13	4449
2026-01-11 10:05:37.03	82.73	10.46	-26.7	-28.7	14.5	0.00e+00	0	41	0	311427072	13	4496
2026-01-11 10:05:40.05	82.33	10.64	-26.7	-28.7	14.5	0.00e+00	0	41	0	328204288	13	4500
2026-01-11 10:05:43.06	81.92	10.82	-26.6	-28.4	14.7	0.00e+00	0	41	0	344981504	13	4431
2026-01-11 10:05:46.08	81.50	11.00	-26.4	-27.9	15.0	0.00e+00	0	41	0	361758720	13	4277
2026-01-11 10:05:49.11	81.08	11.19	-26.6	-28.3	14.8	0.00e+00	0	41	0	378535936	13	4391
2026-01-11 10:05:52.13	80.65	11.37	-26.3	-27.7	15.2	0.00e+00	0	41	0	396361728	13	4210
2026-01-11 10:05:55.15	80.22	11.55	-26.2	-27.5	15.3	0.00e+00	0	41	0	413138944	13	4174
2026-01-11 10:05:58.15	79.79	11.73	-26.1	-27.1	15.5	0.00e+00	0	41	0	429916160	13	4070
2026-01-11 10:06:01.17	79.34	11.91	-26.0	-27.1	15.6	0.00e+00	0	42	0	446693376	13	4048
2026-01-11 10:06:04.18	78.90	12.09	-26.1	-27.1	15.5	4.50e-06	0	41	0	463470592	13	4070
2026-01-11 10:06:07.20	78.44	12.27	-25.9	-26.8	15.7	0.00e+00	0	41	0	480247808	13	3989
2026-01-11 10:06:10.22	77.98	12.45	-25.9	-26.7	15.7	0.00e+00	0	41	0	498073600	13	3974
2026-01-11 10:06:13.23	77.52	12.63	-25.8	-27.0	15.9	2.20e-06	0	42	0	514850816	12	4139
2026-01-11 10:06:16.25	77.05	12.81	-25.7	-26.9	16.0	0.00e+00	0	41	0	531628032	12	4117
2026-01-11 10:06:19.27	76.57	12.99	-25.9	-27.2	15.8	3.40e-06	0	42	0	548405248	12	4182
2026-01-11 10:06:22.29	76.09	13.17	-25.8	-27.1	15.8	1.10e-06	0	41	0	565182464	12	4176
2026-01-11 10:06:25.31	75.60	13.35	-26.1	-27.6	15.6	1.10e-06	0	41	0	583008256	12	4317
2026-01-11 10:06:28.33	75.10	13.52	-25.9	-27.4	15.7	0.00e+00	0	41	0	599785472	12	4243
2026-01-11 10:06:31.35	74.60	13.70	-25.8	-27.0	16.0	0.00e+00	0	42	0	616562688	12	4145
2026-01-11 10:06:34.37	74.09	13.87	-25.5	-26.4	16.3	0.00e+00	0	42	0	633339904	12	3982
2026-01-11 10:06:37.39	73.58	14.04	-25.2	-26.3	16.7	0.00e+00	0	42	0	650117120	11	4057
2026-01-11 10:06:40.41	73.06	14.22	-25.4	-26.6	16.6	0.00e+00	0	42	0	667942912	11	4141
2026-01-11 10:06:43.43	72.54	14.39	-25.5	-26.8	16.6	0.00e+00	0	42	0	684720128	11	4177
2026-01-11 10:06:46.46	72.00	14.56	-25.5	-26.8	16.6	0.00e+00	0	42	0	701497344	11	4166
2026-01-11 10:06:49.48	71.47	14.73	-25.6	-27.1	16.5	0.00e+00	0	42	0	718274560	11	4247
2026-01-11 10:06:52.50	70.92	14.89	-25.6	-27.0	16.5	0.00e+00	0	42	0	735051776	11	4216
2026-01-11 10:06:55.52	70.37	15.06	-25.4	-26.5	16.8	0.00e+00	0	41	0	752877568	11	4083
2026-01-11 10:06:58.53	69.82	15.22	-25.7	-27.2	16.4	0.00e+00	0	42	0	769654784	11	4279
2026-01-11 10:07:01.54	69.26	15.38	-25.3	-26.4	16.8	0.00e+00	0	42	0	786432000	11	4057
2026-01-11 10:07:04.55	68.69	15.55	-25.2	-26.1	17.0	0.00e+00	0	42	0	803209216	11	3987
2026-01-11 10:07:07.57	68.12	15.70	-25.1	-25.9	17.1	0.00e+00	0	42	0	819986432	11	3949
2026-01-11 10:07:10.58	67.54	15.86	-25.1	-26.0	17.1	0.00e+00	0	42	0	837812224	11	3967
2026-01-11 10:07:13.60	66.95	16.02	-25.1	-25.9	17.1	0.00e+00	0	42	0	854589440	11	3941
2026-01-11 10:07:16.62	66.36	16.17	-25.1	-25.8	17.2	0.00e+00	0	42	0	871366656	11	3930
2026-01-11 10:07:19.64	65.76	16.32	-24.9	-25.5	17.3	0.00e+00	0	42	0	888143872	11	3855
2026-01-11 10:07:22.67	65.15	16.47	-25.3	-26.2	17.0	0.00e+00	0	42	0	904921088	11	4016
2026-01-11 10:07:25.69	64.54	16.61	-25.2	-26.1	17.1	0.00e+00	0	42	0	922746880	11	3989
2026-01-11 10:07:28.70	63.93	16.76	-25.1	-25.9	17.2	0.00e+00	0	42	0	939524096	11	3942
2026-01-11 10:07:31.71	63.31	16.90	-25.0	-25.6	17.3	0.00e+00	0	42	0	956301312	11	3867
2026-01-11 10:07:34.73	62.68	17.03	-24.7	-25.4	17.7	0.00e+00	0	42	0	973078528	10	3940
2026-01-11 10:07:37.75	62.04	17.17	-24.8	-25.8	17.5	0.00e+00	0	42	0	989855744	10	4021
2026-01-11 10:07:40.76	61.40	17.30	-24.9	-26.0	17.4	0.00e+00	0	42	0	1007681536	10	4065
2026-01-11 10:07:43.77	60.76	17.43	-24.8	-25.7	17.5	0.00e+00	0	42	0	1024458752	10	4005
2026-01-11 10:07:46.78	60.11	17.56	-24.6	-25.2	17.8	0.00e+00	0	42	0	1041235968	10	3888
2026-01-11 10:07:49.80	59.46	17.68	-24.2	-25.0	18.1	0.00e+00	0	42	0	1058013184	9	3938
2026-01-11 10:07:52.81	58.80	17.80	-24.5	-25.7	17.8	0.00e+00	0	42	0	1074790400	9	4104
2026-01-11 10:07:55.83	58.13	17.92	-24.6	-25.9	17.7	0.00e+00	0	42	0	1091567616	9	4163
2026-01-11 10:07:58.85	57.46	18.03	-24.4	-25.4	17.9	0.00e+00	0	42	0	1108344832	9	4042
2026-01-11 10:08:01.84	56.79	18.14	-24.4	-25.5	17.9	0.00e+00	0	42	0	1125122048	9	4055
2026-01-11 10:08:04.86	56.10	18.24	-24.3	-25.2	18.0	0.00e+00	0	42	0	1142947840	9	3986
2026-01-11 10:08:07.88	55.42	18.34	-24.1	-24.8	18.3	0.00e+00	0	42	0	1159725056	9	3888
2026-01-11 10:08:10.90	54.73	18.44	-24.3	-25.1	18.1	0.00e+00	0	42	0	1176502272	9	3967
2026-01-11 10:08:13.92	54.03	18.54	-24.2	-25.1	18.1	0.00e+00	0	42	0	1193279488	9	3957
2026-01-11 10:08:16.95	53.33	18.63	-24.1	-24.8	18.3	0.00e+00	0	42	0	1210056704	9	3883
2026-01-11 10:08:19.98	52.62	18.71	-24.1	-24.7	18.3	0.00e+00	0	42	0	1227882496	9	3868
2026-01-11 10:08:23.00	51.91	18.79	-23.9	-24.4	18.5	0.00e+00	0	42	0	1244659712	9	3799
2026-01-11 10:08:26.02	51.20	18.87	-23.9	-24.3	18.5	0.00e+00	0	42	0	1261436928	9	3786
2026-01-11 10:08:29.03	50.49	18.94	-23.9	-24.4	18.5	0.00e+00	0	42	0	1278214144	9	3798
2026-01-11 10:08:32.05	49.77	19.01	-24.0	-24.6	18.4	0.00e+00	0	42	0	1294991360	9	3832
2026-01-11 10:08:35.08	49.05	19.08	-24.0	-24.5	18.4	0.00e+00	0	42	0	1312817152	9	3814
2026-01-11 10:08:38.10	48.32	19.14	-24.1	-24.7	18.3	0.00e+00	0	42	0	1329594368	9	3868
2026-01-11 10:08:41.11	47.60	19.19	-23.9	-24.4	18.5	0.00e+00	0	42	0	1346371584	9	3794
2026-01-11 10:08:44.12	46.87	19.24	-23.9	-24.3	18.5	0.00e+00	0	42	0	1363148800	9	3773
2026-01-11 10:08:47.13	46.14	19.29	-24.2	-25.0	18.2	0.00e+00	0	42	0	1379926016	9	3930
2026-01-11 10:08:50.15	45.41	19.33	-23.9	-24.4	18.5	0.00e+00	0	42	0	1397751808	9	3795
2026-01-11 10:08:53.16	44.67	19.36	-23.8	-24.1	18.6	0.00e+00	0	42	0	1414529024	9	3727
2026-01-11 10:08:56.17	43.94	19.39	-23.9	-24.8	18.5	0.00e+00	0	42	0	1431306240	8	4002
2026-01-11 10:08:59.18	43.20	19.42	-23.8	-24.6	18.6	0.00e+00	0	42	0	1448083456	8	3947
2026-01-11 10:09:02.20	42.46	19.44	-23.9	-24.9	18.5	0.00e+00	0	42	0	1464860672	8	4018
2026-01-11 10:09:05.22	41.72	19.45	-23.9	-24.7	18.6	0.00e+00	0	42	0	1482686464	8	3984
2026-01-11 10:09:08.24	40.98	19.47	-24.0	-25.0	18.4	0.00e+00	0	42	0	1499463680	8	4039
2026-01-11 10:09:11.27	40.24	19.47	-24.0	-25.0	18.4	0.00e+00	0	42	0	1516240896	8	4045
2026-01-11 10:09:14.28	39.50	19.47	-23.8	-24.7	18.6	0.00e+00	0	42	0	1533018112	8	3972
2026-01-11 10:09:17.29	38.76	19.47	-23.8	-24.7	18.6	0.00e+00	0	42	0	1549795328	8	3981
2026-01-11 10:09:20.31	38.02	19.46	-23.7	-24.3	18.8	0.00e+00	0	42	0	1566572544	8	3889
2026-01-11 10:09:23.33	37.28	19.44	-24.0	-25.1	18.4	0.00e+00	0	42	0	1584398336	8	4087
2026-01-11 10:09:26.35	36.54	19.43	-24.1	-25.3	18.3	0.00e+00	0	42	0	1601175552	8	4121
2026-01-11 10:09:29.36	35.80	19.40	-23.7	-24.4	18.7	0.00e+00	0	42	0	1617952768	8	3910
2026-01-11 10:09:32.38	35.06	19.37	-23.8	-24.6	18.6	0.00e+00	0	42	0	1634729984	8	3957
2026-01-11 10:09:35.40	34.33	19.34	-23.9	-24.9	18.5	0.00e+00	0	42	0	1651507200	8	4020
2026-01-11 10:09:38.42	33.59	19.30	-23.9	-24.7	18.5	0.00e+00	0	42	0	1669332992	8	3986
2026-01-11 10:09:41.44	32.86	19.26	-23.9	-24.8	18.5	0.00e+00	0	42	0	1686110208	8	3986
2026-01-11 10:09:44.44	32.14	19.21	-23.8	-24.6	18.6	0.00e+00	0	42	0	1702887424	8	3961
2026-01-11 10:09:47.46	31.41	19.15	-24.1	-25.2	18.3	0.00e+00	0	42	0	1719664640	8	4099
2026-01-11 10:09:50.48	30.68	19.10	-23.8	-24.6	18.6	0.00e+00	0	42	0	1736441856	8	3946
2026-01-11 10:09:53.50	29.96	19.03	-23.8	-24.7	18.6	0.00e+00	0	42	0	1753219072	8	3970
2026-01-11 10:09:56.52	29.24	18.97	-24.0	-25.0	18.4	0.00e+00	0	42	0	1771044864	8	4057
2026-01-11 10:09:59.53	28.53	18.90	-24.1	-25.3	18.3	0.00e+00	0	42	0	1787822080	8	4114
2026-01-11 10:10:02.55	27.82	18.82	-23.6	-24.2	18.8	0.00e+00	0	42	0	1804599296	8	3855
2026-01-11 10:10:05.57	27.11	18.74	-23.8	-24.7	18.5	0.00e+00	0	42	0	1821376512	8	3983
2026-01-11 10:10:08.60	26.41	18.66	-23.9	-24.7	18.5	0.00e+00	0	42	0	1838153728	8	3984
2026-01-11 10:10:11.62	25.71	18.57	-24.2	-25.4	18.2	0.00e+00	0	42	0	1855979520	8	4150
2026-01-11 10:10:14.64	25.01	18.47	-24.5	-25.6	17.8	0.00e+00	0	42	0	1872756736	9	4096
2026-01-11 10:10:17.65	24.32	18.38	-24.4	-25.4	17.9	0.00e+00	0	42	0	1889533952	9	4043
2026-01-11 10:10:20.67	23.63	18.28	-24.1	-24.8	18.2	0.00e+00	0	42	0	1906311168	9	3894
2026-01-11 10:10:23.68	22.95	18.17	-23.9	-24.8	18.5	0.00e+00	0	42	0	1923088384	8	3996
2026-01-11 10:10:26.70	22.28	18.07	-24.1	-25.2	18.2	0.00e+00	0	42	0	1940914176	8	4093
2026-01-11 10:10:29.70	21.61	17.96	-24.0	-25.1	18.3	0.00e+00	0	42	0	1957691392	8	4074
2026-01-11 10:10:32.72	20.94	17.84	-24.0	-25.2	18.3	0.00e+00	0	42	0	1974468608	8	4094
2026-01-11 10:10:35.73	20.28	17.72	-24.2	-25.5	18.0	0.00e+00	0	42	0	1991245824	8	4183
2026-01-11 10:10:38.76	19.62	17.60	-24.4	-26.0	17.8	0.00e+00	0	42	0	2008023040	8	4298
2026-01-11 10:10:41.78	18.97	17.47	-24.4	-25.4	17.8	0.00e+00	0	42	0	2025848832	9	4041
2026-01-11 10:10:44.79	18.33	17.35	-24.5	-25.7	17.7	0.00e+00	0	42	0	2042626048	9	4111
2026-01-11 10:10:47.81	17.69	17.22	-24.7	-26.0	17.5	0.00e+00	0	42	0	2059403264	9	4189
2026-01-11 10:10:50.83	17.05	17.08	-24.4	-25.5	17.8	0.00e+00	0	42	0	2076180480	9	4053
2026-01-11 10:10:53.85	16.42	16.94	-24.7	-26.0	17.5	0.00e+00	0	42	0	2092957696	9	4194
2026-01-11 10:10:56.87	15.80	16.81	-24.8	-26.2	17.4	0.00e+00	0	42	0	2110783488	9	4244
2026-01-11 10:10:59.89	15.18	16.66	-24.7	-26.0	17.5	0.00e+00	0	42	0	2127560704	9	4195
2026-01-11 10:11:02.92	14.57	16.52	-24.9	-26.4	17.3	0.00e+00	0	42	0	2144337920	9	4291
2026-01-11 10:11:05.94	13.96	16.37	-24.9	-26.1	17.2	0.00e+00	0	42	0	2161115136	10	4101
2026-01-11 10:11:08.97	13.36	16.22	-24.9	-26.1	17.2	0.00e+00	0	42	0	2177892352	10	4103
2026-01-11 10:11:11.98	12.77	16.07	-24.8	-25.7	17.3	0.00e+00	0	42	0	2195718144	10	4012
2026-01-11 10:11:15.01	12.18	15.91	-24.8	-25.7	17.4	0.00e+00	0	42	0	2212495360	10	3998
2026-01-11 10:11:18.03	11.60	15.76	-25.0	-26.2	17.1	0.00e+00	0	42	0	2229272576	10	4135
2026-01-11 10:11:21.05	11.03	15.60	-24.9	-25.9	17.2	0.00e+00	0	42	0	2246049792	10	4057
2026-01-11 10:11:24.07	10.46	15.44	-24.9	-25.9	17.2	0.00e+00	0	42	0	2262827008	10	4063
2026-01-11 10:11:27.10	9.90	15.28	-25.1	-26.4	17.0	0.00e+00	0	42	0	2280652800	10	4183
2026-01-11 10:11:30.11	9.34	15.12	-25.3	-26.9	16.7	0.00e+00	0	42	0	2297430016	10	4308
2026-01-11 10:11:33.13	8.79	14.95	-25.4	-26.6	16.6	0.00e+00	0	42	0	2314207232	11	4127
2026-01-11 10:11:36.15	8.25	14.79	-25.6	-27.0	16.4	0.00e+00	0	42	0	2330984448	11	4227
2026-01-11 10:11:39.15	7.71	14.62	-25.1	-25.9	16.9	0.00e+00	0	42	0	2347761664	11	3958
2026-01-11 10:11:42.17	7.18	14.45	-25.2	-26.1	16.9	0.00e+00	0	42	0	2365587456	11	3998
2026-01-11 10:11:45.19	6.66	14.28	-25.4	-26.6	16.6	0.00e+00	0	42	0	2382364672	11	4115
2026-01-11 10:11:48.21	6.14	14.11	-25.3	-26.3	16.7	0.00e+00	0	42	0	2399141888	11	4042
2026-01-11 10:11:51.23	5.63	13.94	-25.8	-27.4	16.1	0.00e+00	0	42	0	2415919104	11	4345
2026-01-11 10:11:54.25	5.12	13.76	-25.8	-27.5	16.0	0.00e+00	0	42	0	2432696320	11	4360
2026-01-11 10:11:57.27	4.62	13.59	-25.4	-26.6	16.5	0.00e+00	0	42	0	2450522112	11	4131
2026-01-11 10:12:00.29	4.12	13.41	-25.7	-27.1	16.2	0.00e+00	0	42	0	2467299328	11	4270
2026-01-11 10:12:03.31	3.63	13.24	-25.5	-26.8	16.4	0.00e+00	0	42	0	2484076544	11	4171
2026-01-11 10:12:06.33	3.15	13.06	-25.5	-26.8	16.4	0.00e+00	0	42	0	2500853760	11	4175
2026-01-11 10:12:09.35	2.67	12.88	-25.6	-27.0	16.3	0.00e+00	0	42	0	2517630976	11	4231
2026-01-11 10:12:12.37	2.20	12.70	-25.7	-27.2	16.1	0.00e+00	0	42	0	2535456768	11	4286
2026-01-11 10:12:15.39	1.74	12.52	-26.0	-27.8	15.7	0.00e+00	0	42	0	2552233984	11	4455
2026-01-11 10:12:18.41	1.28	12.34	-26.0	-27.4	15.7	0.00e+00	0	42	0	2569011200	12	4230
2026-01-11 10:12:21.42	0.83	12.16	-25.8	-26.9	15.9	0.00e+00	0	42	0	2585788416	12	4104
2026-01-11 10:12:24.43	0.38	11.98	-26.1	-27.6	15.5	0.00e+00	0	42	0	2602565632	12	4287
2026-01-11 10:12:27.45	359.94	11.80	-26.1	-27.5	15.5	0.00e+00	0	42	0	2619342848	12	4277
2026-01-11 10:12:30.47	359.50	11.62	-25.6	-26.6	16.1	0.00e+00	0	42	0	2637168640	12	4015
2026-01-11 10:12:33.48	359.07	11.44	-26.0	-27.4	15.6	1.10e-06	0	42	0	2653945856	12	4225
2026-01-11 10:12:36.50	358.64	11.26	-25.8	-27.0	15.8	0.00e+00	0	42	0	2670723072	12	4136
2026-01-11 10:12:39.52	358.22	11.08	-26.0	-27.4	15.6	0.00e+00	0	42	0	2687500288	12	4227
2026-01-11 10:12:42.54	357.81	10.90	-26.0	-27.5	15.5	0.00e+00	0	42	0	2704277504	12	4257
2026-01-11 10:12:45.56	357.40	10.71	-26.0	-27.5	15.5	0.00e+00	0	42	0	2722103296	12	4256
2026-01-11 10:12:48.58	356.99	10.53	-25.9	-27.3	15.6	0.00e+00	0	42	0	2738880512	12	4201
2026-01-11 10:12:51.59	356.59	10.35	-26.2	-27.9	15.2	0.00e+00	0	42	0	2755657728	12	4374
2026-01-11 10:12:54.61	356.20	10.17	-26.3	-28.0	15.1	0.00e+00	0	42	0	2772434944	12	4421
2026-01-11 10:12:57.63	355.81	9.99	-26.3	-28.0	15.1	0.00e+00	0	42	0	2789212160	12	4416
2026-01-11 10:13:00.65	355.42	9.80	-26.2	-27.9	15.2	0.00e+00	0	42	0	2805989376	12	4370
2026-01-11 10:13:03.67	355.04	9.62	-26.4	-28.4	14.9	0.00e+00	0	42	0	2823815168	12	4510
2026-01-11 10:13:06.69	354.67	9.44	-26.6	-28.4	14.6	1.10e-06	0	42	0	2840592384	13	4405
2026-01-11 10:13:09.70	354.30	9.26	-26.5	-28.1	14.7	0.00e+00	0	42	0	2857369600	13	4334
2026-01-11 10:13:12.72	353.93	9.08	-26.9	-29.0	14.2	0.00e+00	0	42	0	2874146816	13	4584
2026-01-11 10:13:15.74	353.57	8.90	-26.8	-28.7	14.3	0.00e+00	0	42	0	2890924032	13	4497
2026-01-11 10:13:18.76	353.21	8.72	-26.5	-28.2	14.6	0.00e+00	0	42	0	2907701248	13	4356
2026-01-11 10:13:21.77	352.86	8.53	-26.9	-28.5	14.1	3.40e-06	0	42	0	2925527040	14	4327
2026-01-11 10:13:24.79	352.52	8.35	-26.9	-28.4	14.1	0.00e+00	0	42	0	2942304256	14	4316
2026-01-11 10:13:27.82	352.17	8.17	-27.4	-29.7	13.4	4.50e-06	0	42	0	2959081472	14	4690
2026-01-11 10:13:30.84	351.83	7.99	-26.9	-28.1	14.0	1.10e-06	0	42	0	2975858688	15	4116
2026-01-11 10:13:33.87	351.50	7.81	-26.5	-27.7	14.6	0.00e+00	0	42	0	2993684480	14	4109
2026-01-11 10:13:36.88	351.17	7.63	-26.8	-28.2	14.2	0.00e+00	0	42	0	3010461696	14	4264
2026-01-11 10:13:39.91	350.84	7.45	-26.9	-28.5	14.0	0.00e+00	0	42	0	3027238912	14	4354
2026-01-11 10:13:42.92	350.52	7.28	-27.0	-28.7	13.9	1.10e-06	0	42	0	3044016128	14	4402
2026-01-11 10:13:45.94	350.20	7.10	-27.0	-28.7	13.9	1.10e-06	0	42	0	3060793344	14	4388
2026-01-11 10:13:48.96	349.89	6.92	-33.4	-44.9	3.8	8.45e-01	0	42	104	3063939072	26	13472

#Closed at: 2026-01-11 10:13:49
#Recorded file [3063 MB]: D:/data/31010_260111_130441.dat