passes_logs/2026/01/11/R2M6_AANII_01/R2M6_AANII_01__20260111_065620_FENGYUN_3E_rec.log

#Pass ID: 20260111_065620_FENGYUN 3E
#Satellite: FENGYUN 3E
#Configuration: FENGYUN 3E
#almurnet v.1.7.20240730
#Start time: 2026-01-11 06:56:20

#Version: 2.2.20231116
#Station: R2M6_AANII_01
#Location: 30.233357 lon 59.946436 lat
#TLE: 1 49008U 21062A   26010.00248113 -.00000186  00000+0 -66867-4 0  9993
#TLE: 2 49008  98.7487  15.1892 0001787 147.8079 212.3207 14.19883469234134

#Time	Az	El	Level	Level2	SNR	BER	BlckErr	Temp	State	Recorded	gain1	gain2
2026-01-11 06:56:20.46	9.07	7.01	-30.9	-35.4	4.6	8.16e-01	0	40	0	0	21	6041
2026-01-11 06:56:23.48	8.74	7.19	-30.7	-34.4	6.5	2.82e-01	0	40	0	7340032	21	5542
2026-01-11 06:56:26.50	8.42	7.36	-30.6	-34.0	6.8	2.38e-01	0	40	0	28311552	21	5359
2026-01-11 06:56:29.52	8.09	7.54	-30.6	-34.1	6.8	1.70e-01	0	40	0	50331648	21	5371
2026-01-11 06:56:32.55	7.75	7.72	-30.6	-34.1	6.8	2.14e-01	0	40	0	71303168	21	5389
2026-01-11 06:56:35.57	7.41	7.89	-28.8	-30.2	10.5	1.13e-02	0	40	0	93323264	18	4258
2026-01-11 06:56:38.59	7.07	8.07	-28.8	-30.9	10.4	5.02e-03	0	40	0	115343360	17	4576
2026-01-11 06:56:41.60	6.73	8.25	-28.8	-30.9	10.4	6.53e-03	0	41	0	137363456	17	4554
2026-01-11 06:56:44.61	6.38	8.42	-29.0	-31.2	10.2	5.45e-03	0	40	0	158334976	17	4669
2026-01-11 06:56:47.63	6.02	8.60	-28.4	-30.4	11.1	2.00e-03	0	40	0	180355072	16	4518
2026-01-11 06:56:50.64	5.66	8.78	-28.7	-30.5	10.8	3.14e-03	0	40	0	202375168	17	4434
2026-01-11 06:56:53.66	5.30	8.96	-28.7	-30.5	10.7	2.48e-03	0	41	0	224395264	17	4446
2026-01-11 06:56:56.69	4.93	9.13	-29.1	-31.4	10.2	5.21e-03	0	41	0	246415360	17	4730
2026-01-11 06:56:59.71	4.55	9.31	-27.7	-29.2	12.0	5.60e-04	0	41	0	267386880	15	4252
2026-01-11 06:57:02.72	4.18	9.49	-27.0	-28.4	13.1	5.60e-05	0	41	0	289406976	13	4259
2026-01-11 06:57:05.74	3.79	9.67	-27.0	-28.5	13.1	2.40e-05	0	41	0	311427072	13	4284
2026-01-11 06:57:08.77	3.40	9.85	-26.6	-27.5	13.6	8.00e-06	0	41	0	333447168	13	4020
2026-01-11 06:57:11.79	3.01	10.03	-26.4	-27.1	13.9	9.10e-06	0	41	0	355467264	13	3916
2026-01-11 06:57:14.81	2.61	10.20	-26.5	-27.8	13.8	6.80e-06	0	41	0	376438784	12	4199
2026-01-11 06:57:17.83	2.21	10.38	-26.9	-28.2	13.3	9.10e-06	0	41	0	398458880	13	4185
2026-01-11 06:57:20.85	1.80	10.56	-26.6	-27.6	13.7	1.14e-05	0	41	0	420478976	13	4025
2026-01-11 06:57:23.86	1.39	10.74	-26.7	-27.8	13.5	9.10e-06	0	41	0	442499072	13	4096
2026-01-11 06:57:26.88	0.97	10.92	-26.5	-27.8	13.8	1.37e-05	0	41	0	464519168	12	4199
2026-01-11 06:57:29.90	0.55	11.09	-26.4	-27.5	14.0	1.73e-04	0	41	0	485490688	12	4116
2026-01-11 06:57:32.90	0.12	11.27	-26.3	-27.4	14.1	2.09e-04	0	41	0	507510784	12	4077
2026-01-11 06:57:35.92	359.69	11.45	-26.1	-27.0	14.3	0.00e+00	0	41	0	529530880	12	3976
2026-01-11 06:57:38.93	359.25	11.62	-26.0	-26.6	14.6	1.10e-06	0	41	0	550502400	12	3878
2026-01-11 06:57:41.96	358.80	11.80	-26.4	-27.6	14.0	2.27e-04	0	42	0	572522496	12	4126
2026-01-11 06:57:44.98	358.35	11.97	-26.5	-27.7	13.9	2.62e-04	0	41	0	594542592	12	4160
2026-01-11 06:57:48.00	357.89	12.15	-26.3	-27.4	14.1	2.68e-04	0	42	0	616562688	12	4094
2026-01-11 06:57:51.02	357.43	12.32	-26.8	-27.9	13.5	1.02e-05	0	42	0	638582784	13	4116
2026-01-11 06:57:54.04	356.96	12.50	-26.8	-27.5	13.6	2.97e-05	0	41	0	659554304	14	3892
2026-01-11 06:57:57.06	356.49	12.67	-25.9	-26.9	14.8	0.00e+00	0	41	0	681574400	11	4045
2026-01-11 06:58:00.08	356.01	12.84	-26.0	-27.2	14.7	0.00e+00	0	42	0	703594496	11	4126
2026-01-11 06:58:03.11	355.53	13.02	-26.3	-27.3	14.2	1.10e-06	0	42	0	725614592	12	4055
2026-01-11 06:58:06.13	355.04	13.19	-26.0	-26.8	14.6	0.00e+00	0	42	0	747634688	12	3914
2026-01-11 06:58:09.14	354.54	13.36	-25.8	-26.1	14.9	0.00e+00	0	42	0	768606208	12	3761
2026-01-11 06:58:12.17	354.04	13.53	-25.9	-26.9	14.8	0.00e+00	0	42	0	790626304	11	4052
2026-01-11 06:58:15.19	353.53	13.69	-25.8	-26.7	15.0	0.00e+00	0	42	0	812646400	11	3988
2026-01-11 06:58:18.21	353.02	13.86	-25.5	-26.6	15.3	0.00e+00	0	42	0	834666496	10	4068
2026-01-11 06:58:21.23	352.50	14.03	-25.7	-26.6	15.0	1.10e-06	0	42	0	856686592	11	3965
2026-01-11 06:58:24.25	351.97	14.19	-25.5	-26.1	15.3	0.00e+00	0	42	0	877658112	11	3852
2026-01-11 06:58:27.28	351.44	14.35	-25.6	-26.2	15.3	0.00e+00	0	42	0	899678208	11	3877
2026-01-11 06:58:30.30	350.90	14.52	-25.5	-26.6	15.4	0.00e+00	0	42	0	921698304	10	4080
2026-01-11 06:58:33.32	350.36	14.68	-25.2	-26.0	15.7	0.00e+00	0	42	0	943718400	10	3923
2026-01-11 06:58:36.34	349.81	14.84	-25.1	-25.7	15.9	0.00e+00	0	42	0	965738496	10	3843
2026-01-11 06:58:39.37	349.25	14.99	-25.2	-25.8	15.8	0.00e+00	0	42	0	987758592	10	3881
2026-01-11 06:58:42.39	348.69	15.15	-25.1	-25.6	15.9	0.00e+00	0	42	0	1008730112	10	3839
2026-01-11 06:58:45.40	348.12	15.30	-25.0	-25.6	16.0	0.00e+00	0	42	0	1030750208	10	3828
2026-01-11 06:58:48.42	347.55	15.45	-25.1	-25.6	16.0	6.17e-05	0	42	0	1052770304	10	3832
2026-01-11 06:58:51.44	346.97	15.60	-25.1	-25.7	15.9	1.70e-04	0	42	0	1074790400	10	3853
2026-01-11 06:58:54.45	346.39	15.75	-25.0	-25.9	16.0	8.14e-04	0	42	0	1095761920	9	4012
2026-01-11 06:58:57.48	345.79	15.89	-25.0	-26.0	16.0	0.00e+00	0	42	0	1117782016	9	4027
2026-01-11 06:59:00.50	345.20	16.04	-24.9	-25.7	16.2	1.52e-03	0	42	0	1139802112	9	3949
2026-01-11 06:59:03.52	344.59	16.18	-25.1	-25.6	15.5	1.55e-03	0	42	0	1161822208	10	3831
2026-01-11 06:59:06.53	343.99	16.32	-24.9	-25.7	16.2	1.64e-03	0	42	0	1183842304	9	3969
2026-01-11 06:59:09.55	343.37	16.45	-25.2	-25.9	15.8	1.29e-04	0	42	0	1204813824	10	3898
2026-01-11 06:59:12.57	342.75	16.58	-25.0	-25.9	16.1	0.00e+00	0	42	0	1226833920	9	3999
2026-01-11 06:59:15.58	342.13	16.71	-24.9	-25.7	16.2	0.00e+00	0	42	0	1248854016	9	3948
2026-01-11 06:59:18.60	341.50	16.84	-24.8	-25.5	16.3	0.00e+00	0	42	0	1270874112	9	3920
2026-01-11 06:59:21.62	340.86	16.97	-24.7	-25.4	16.4	1.15e-04	0	42	0	1292894208	9	3888
2026-01-11 06:59:24.64	340.22	17.09	-24.6	-25.1	16.5	0.00e+00	0	42	0	1313865728	9	3823
2026-01-11 06:59:27.67	339.57	17.21	-24.4	-25.2	16.7	0.00e+00	0	42	0	1335885824	8	3954
2026-01-11 06:59:30.69	338.92	17.32	-24.5	-25.0	16.6	0.00e+00	0	42	0	1357905920	9	3787
2026-01-11 06:59:33.71	338.27	17.43	-24.5	-25.5	16.6	3.09e-04	0	42	0	1378877440	8	4010
2026-01-11 06:59:36.72	337.61	17.54	-24.7	-25.4	16.4	1.67e-04	0	42	0	1400897536	9	3888
2026-01-11 06:59:39.75	336.94	17.65	-24.5	-24.9	16.7	0.00e+00	0	42	0	1422917632	9	3761
2026-01-11 06:59:42.77	336.27	17.75	-24.5	-25.0	16.6	0.00e+00	0	42	0	1444937728	9	3790
2026-01-11 06:59:45.78	335.59	17.84	-24.6	-25.5	16.6	0.00e+00	0	42	0	1466957824	8	4025
2026-01-11 06:59:48.81	334.91	17.94	-24.5	-25.5	16.7	0.00e+00	0	42	0	1487929344	8	4014
2026-01-11 06:59:51.83	334.23	18.03	-24.9	-25.7	16.3	0.00e+00	0	42	0	1509949440	9	3957
2026-01-11 06:59:54.85	333.54	18.11	-24.4	-24.7	16.8	0.00e+00	0	42	0	1531969536	9	3719
2026-01-11 06:59:57.87	332.85	18.20	-24.5	-25.3	16.8	4.54e-04	0	42	0	1553989632	8	3964
2026-01-11 07:00:00.90	332.15	18.27	-24.4	-25.2	16.8	0.00e+00	0	42	0	1576009728	8	3948
2026-01-11 07:00:03.92	331.45	18.35	-24.3	-25.0	16.9	0.00e+00	0	42	0	1598029824	8	3883
2026-01-11 07:00:06.93	330.75	18.42	-24.1	-24.5	17.2	0.00e+00	0	42	0	1619001344	8	3778
2026-01-11 07:00:09.95	330.05	18.48	-24.3	-24.9	17.0	1.77e-03	0	42	0	1641021440	8	3876
2026-01-11 07:00:12.97	329.34	18.54	-24.2	-24.9	17.0	1.61e-03	0	42	0	1663041536	8	3859
2026-01-11 07:00:15.98	328.63	18.60	-24.1	-24.6	17.1	1.74e-03	0	42	0	1685061632	8	3800
2026-01-11 07:00:19.01	327.91	18.65	-24.1	-24.6	17.1	0.00e+00	0	42	0	1706033152	8	3793
2026-01-11 07:00:22.03	327.19	18.70	-24.2	-24.7	17.1	1.44e-03	0	42	0	1728053248	8	3814
2026-01-11 07:00:25.06	326.47	18.74	-24.1	-24.7	17.1	1.53e-03	0	42	0	1750073344	8	3815
2026-01-11 07:00:28.07	325.75	18.78	-24.2	-24.7	17.1	1.45e-04	0	42	0	1772093440	8	3817
2026-01-11 07:00:31.10	325.03	18.81	-24.1	-24.4	17.2	0.00e+00	0	42	0	1794113536	8	3761
2026-01-11 07:00:34.11	324.31	18.84	-24.0	-24.3	17.3	0.00e+00	0	42	0	1815085056	8	3721
2026-01-11 07:00:37.12	323.58	18.87	-23.9	-24.5	17.4	3.17e-04	0	42	0	1837105152	7	3877
2026-01-11 07:00:40.15	322.86	18.89	-23.8	-24.3	17.5	3.52e-04	0	42	0	1859125248	7	3837
2026-01-11 07:00:43.17	322.13	18.90	-23.8	-24.3	17.5	0.00e+00	0	42	0	1881145344	7	3831
2026-01-11 07:00:46.18	321.40	18.91	-23.9	-24.6	17.4	0.00e+00	0	42	0	1903165440	7	3896
2026-01-11 07:00:49.20	320.67	18.92	-23.8	-24.3	17.5	0.00e+00	0	42	0	1924136960	7	3844
2026-01-11 07:00:52.22	319.94	18.92	-23.8	-24.5	17.4	0.00e+00	0	42	0	1946157056	7	3871
2026-01-11 07:00:55.25	319.21	18.91	-23.9	-24.7	17.3	0.00e+00	0	42	0	1968177152	7	3923
2026-01-11 07:00:58.27	318.49	18.90	-24.1	-24.5	17.2	0.00e+00	0	42	0	1990197248	8	3778
2026-01-11 07:01:01.28	317.76	18.89	-24.0	-24.4	17.2	0.00e+00	0	42	0	2012217344	8	3755
2026-01-11 07:01:04.31	317.03	18.87	-24.2	-24.8	17.0	0.00e+00	0	42	0	2033188864	8	3839
2026-01-11 07:01:07.33	316.30	18.85	-24.1	-24.6	17.1	0.00e+00	0	42	0	2055208960	8	3795
2026-01-11 07:01:10.35	315.58	18.82	-23.8	-24.4	17.4	0.00e+00	0	42	0	2077229056	7	3868
2026-01-11 07:01:13.37	314.86	18.79	-23.9	-24.5	17.4	0.00e+00	0	42	0	2099249152	7	3893
2026-01-11 07:01:16.39	314.14	18.75	-23.8	-24.4	17.4	0.00e+00	0	42	0	2120220672	7	3848
2026-01-11 07:01:19.41	313.42	18.70	-24.0	-24.8	17.2	2.30e-04	0	42	0	2142240768	7	3960
2026-01-11 07:01:22.42	312.70	18.66	-24.1	-24.5	17.1	0.00e+00	0	42	0	2164260864	8	3777
2026-01-11 07:01:25.45	311.98	18.61	-24.0	-24.9	17.2	0.00e+00	0	42	0	2186280960	7	3989
2026-01-11 07:01:28.47	311.27	18.55	-24.2	-24.7	17.0	8.01e-05	0	42	0	2208301056	8	3814
2026-01-11 07:01:31.49	310.56	18.49	-24.1	-24.4	17.2	6.40e-05	0	42	0	2229272576	8	3761
2026-01-11 07:01:34.50	309.85	18.42	-23.8	-24.5	17.4	0.00e+00	0	42	0	2251292672	7	3883
2026-01-11 07:01:37.52	309.15	18.36	-23.9	-24.5	17.3	0.00e+00	0	42	0	2273312768	7	3885
2026-01-11 07:01:40.54	308.45	18.28	-24.0	-24.7	17.2	0.00e+00	0	42	0	2295332864	7	3939
2026-01-11 07:01:43.55	307.75	18.20	-23.9	-24.6	17.3	0.00e+00	0	42	0	2316304384	7	3906
2026-01-11 07:01:46.57	307.06	18.12	-23.9	-24.7	17.3	0.00e+00	0	42	0	2338324480	7	3920
2026-01-11 07:01:49.59	306.37	18.04	-23.9	-24.7	17.3	0.00e+00	0	42	0	2360344576	7	3923
2026-01-11 07:01:52.60	305.69	17.95	-24.0	-24.7	17.2	0.00e+00	0	42	0	2382364672	7	3939
2026-01-11 07:01:55.63	305.00	17.85	-24.0	-24.3	17.2	0.00e+00	0	42	0	2404384768	8	3727
2026-01-11 07:01:58.66	304.32	17.76	-24.0	-24.8	17.1	0.00e+00	0	42	0	2425356288	7	3962
2026-01-11 07:02:01.67	303.65	17.66	-24.3	-24.9	16.9	0.00e+00	0	42	0	2447376384	8	3861
2026-01-11 07:02:04.70	302.98	17.55	-24.4	-25.3	16.6	0.00e+00	0	42	0	2469396480	8	3964
2026-01-11 07:02:07.71	302.32	17.44	-24.7	-25.4	16.3	0.00e+00	0	42	0	2491416576	9	3887
2026-01-11 07:02:10.72	301.66	17.33	-24.3	-24.9	16.9	0.00e+00	0	42	0	2513436672	8	3868
2026-01-11 07:02:13.74	301.01	17.22	-24.3	-25.0	16.8	0.00e+00	0	42	0	2534408192	8	3906
2026-01-11 07:02:16.75	300.36	17.10	-24.7	-25.2	16.4	0.00e+00	0	42	0	2556428288	9	3852
2026-01-11 07:02:19.77	299.72	16.98	-24.6	-25.2	16.4	0.00e+00	0	42	0	2578448384	9	3837
2026-01-11 07:02:22.79	299.08	16.85	-24.7	-25.3	16.3	0.00e+00	0	42	0	2600468480	9	3865
2026-01-11 07:02:25.81	298.45	16.73	-24.8	-25.6	16.1	0.00e+00	0	42	0	2621440000	9	3941
2026-01-11 07:02:28.83	297.82	16.60	-24.7	-25.3	16.3	0.00e+00	0	42	0	2643460096	9	3852
2026-01-11 07:02:31.84	297.20	16.46	-24.8	-25.5	16.2	0.00e+00	0	42	0	2665480192	9	3906
2026-01-11 07:02:34.87	296.58	16.33	-24.7	-25.3	16.3	0.00e+00	0	42	0	2687500288	9	3861
2026-01-11 07:02:37.88	295.97	16.19	-24.6	-25.2	16.4	0.00e+00	0	42	0	2709520384	9	3832
2026-01-11 07:02:40.90	295.37	16.05	-24.6	-25.2	16.4	0.00e+00	0	42	0	2730491904	9	3832
2026-01-11 07:02:43.91	294.77	15.91	-24.6	-25.0	16.4	0.00e+00	0	42	0	2752512000	9	3803
2026-01-11 07:02:46.93	294.17	15.76	-24.6	-25.1	16.4	0.00e+00	0	42	0	2774532096	9	3818
2026-01-11 07:02:49.96	293.58	15.61	-24.8	-25.5	16.2	0.00e+00	0	42	0	2795503616	9	3914
2026-01-11 07:02:52.97	293.00	15.46	-24.8	-25.6	16.1	1.10e-06	0	42	0	2817523712	9	3934
2026-01-11 07:02:55.99	292.43	15.31	-24.9	-25.8	16.0	0.00e+00	0	42	0	2839543808	9	3981
2026-01-11 07:02:59.01	291.86	15.16	-25.3	-26.1	15.6	0.00e+00	0	42	0	2861563904	10	3958
2026-01-11 07:03:02.03	291.29	15.00	-25.3	-26.1	15.6	0.00e+00	0	42	0	2883584000	10	3950
2026-01-11 07:03:05.05	290.73	14.85	-25.3	-26.1	15.6	0.00e+00	0	42	0	2904555520	10	3945
2026-01-11 07:03:08.07	290.18	14.69	-24.9	-25.2	16.0	0.00e+00	0	42	0	2926575616	10	3749
2026-01-11 07:03:11.10	289.63	14.53	-24.9	-25.2	16.0	0.00e+00	0	42	0	2948595712	10	3744
2026-01-11 07:03:14.12	289.09	14.36	-25.0	-25.6	15.8	0.00e+00	0	42	0	2970615808	10	3837
2026-01-11 07:03:17.14	288.56	14.20	-25.1	-25.7	15.8	0.00e+00	0	42	0	2992635904	10	3848
2026-01-11 07:03:20.16	288.03	14.04	-25.4	-26.3	15.4	0.00e+00	0	42	0	3013607424	10	4002
2026-01-11 07:03:23.18	287.51	13.87	-25.3	-26.2	15.4	1.10e-06	0	42	0	3035627520	10	3980
2026-01-11 07:03:26.20	286.99	13.70	-25.3	-26.2	15.5	0.00e+00	0	42	0	3057647616	10	3974
2026-01-11 07:03:29.23	286.48	13.53	-25.1	-25.7	15.7	0.00e+00	0	42	0	3079667712	10	3871
2026-01-11 07:03:32.24	285.97	13.36	-25.2	-25.9	15.6	0.00e+00	0	42	0	3101687808	10	3915
2026-01-11 07:03:35.27	285.47	13.19	-25.5	-26.7	15.2	0.00e+00	0	42	0	3123707904	10	4098
2026-01-11 07:03:38.28	284.98	13.02	-25.3	-26.2	15.4	0.00e+00	0	42	0	3144679424	10	3971
2026-01-11 07:03:41.29	284.49	12.85	-25.3	-26.1	15.4	0.00e+00	0	42	0	3166699520	10	3967
2026-01-11 07:03:44.31	284.01	12.68	-25.4	-26.3	15.3	0.00e+00	0	42	0	3188719616	10	4018
2026-01-11 07:03:47.33	283.54	12.50	-25.4	-26.3	15.3	0.00e+00	0	42	0	3210739712	10	4004
2026-01-11 07:03:50.34	283.07	12.33	-25.4	-26.3	15.3	0.00e+00	0	42	0	3231711232	10	4016
2026-01-11 07:03:53.36	282.60	12.15	-25.6	-26.7	15.1	0.00e+00	0	42	0	3253731328	10	4122
2026-01-11 07:03:56.37	282.14	11.98	-25.9	-26.9	14.7	0.00e+00	0	42	0	3275751424	11	4061
2026-01-11 07:03:59.39	281.69	11.80	-25.5	-25.5	15.1	0.00e+00	0	42	0	3297771520	12	3629
2026-01-11 07:04:02.41	281.24	11.63	-25.6	-25.9	14.9	0.00e+00	0	42	0	3318743040	12	3707
2026-01-11 07:04:05.43	280.80	11.45	-25.7	-25.9	14.8	2.20e-06	0	42	0	3340763136	12	3723
2026-01-11 07:04:08.44	280.36	11.27	-25.8	-26.3	14.6	0.00e+00	0	42	0	3362783232	12	3805
2026-01-11 07:04:11.46	279.93	11.10	-25.9	-26.6	14.5	1.10e-06	0	42	0	3384803328	12	3885
2026-01-11 07:04:14.48	279.50	10.92	-25.9	-26.5	14.5	3.40e-06	0	42	0	3406823424	12	3867
2026-01-11 07:04:17.50	279.08	10.74	-26.3	-27.4	14.0	1.10e-06	0	42	0	3427794944	12	4079
2026-01-11 07:04:20.52	278.66	10.56	-26.1	-26.9	14.3	0.00e+00	0	42	0	3449815040	12	3947
2026-01-11 07:04:23.54	278.25	10.38	-26.5	-27.3	13.7	5.70e-06	0	42	0	3471835136	13	3960
2026-01-11 07:04:26.56	277.85	10.20	-26.4	-27.1	13.9	5.70e-06	0	42	0	3493855232	13	3901
2026-01-11 07:04:29.58	277.44	10.02	-26.0	-26.1	14.4	0.00e+00	0	42	0	3515875328	13	3671
2026-01-11 07:04:32.59	277.05	9.85	-25.9	-26.5	14.5	0.00e+00	0	43	0	3536846848	12	3855
2026-01-11 07:04:35.61	276.66	9.67	-26.0	-26.8	14.3	1.10e-06	0	42	0	3558866944	12	3930
2026-01-11 07:04:38.63	276.27	9.49	-26.0	-26.7	14.3	2.20e-06	0	42	0	3580887040	12	3914
2026-01-11 07:04:41.65	275.89	9.31	-25.9	-26.6	14.4	0.00e+00	0	43	0	3601858560	12	3878
2026-01-11 07:04:44.66	275.51	9.13	-26.2	-27.2	14.0	4.50e-06	0	43	0	3623878656	12	4037
2026-01-11 07:04:47.68	275.14	8.95	-25.9	-26.6	14.3	0.00e+00	0	42	0	3645898752	12	3879
2026-01-11 07:04:50.70	274.77	8.77	-26.6	-28.1	13.5	9.10e-06	0	42	0	3667918848	12	4275
2026-01-11 07:04:53.71	274.41	8.60	-26.7	-27.3	13.4	2.05e-05	0	43	0	3688890368	14	3859
2026-01-11 07:04:56.73	274.05	8.42	-26.6	-27.6	13.4	2.51e-05	0	42	0	3710910464	13	4044
2026-01-11 07:04:59.75	273.70	8.24	-26.4	-27.2	13.6	5.70e-06	0	42	0	3732930560	13	3931
2026-01-11 07:05:02.77	273.35	8.06	-26.4	-27.3	13.5	5.70e-06	0	42	0	3754950656	13	3954
2026-01-11 07:05:05.78	273.00	7.89	-26.8	-28.0	13.1	1.71e-05	0	42	0	3776970752	13	4164
2026-01-11 07:05:08.80	272.66	7.71	-26.8	-28.1	13.0	4.69e-05	0	42	0	3797942272	13	4178
2026-01-11 07:05:11.82	272.33	7.53	-26.7	-27.8	13.2	2.40e-05	0	42	0	3819962368	13	4084
2026-01-11 07:05:14.84	271.99	7.35	-26.4	-27.1	13.6	1.14e-05	0	42	0	3841982464	13	3923
2026-01-11 07:05:17.85	271.66	7.18	-26.5	-27.4	13.4	1.94e-05	0	42	0	3864002560	13	3983
2026-01-11 07:05:20.87	271.34	7.00	-33.0	-43.0	3.8	8.47e-01	0	42	104	3874488320	25	11282

#Closed at: 2026-01-11 07:05:21
#Recorded file [3874 MB]: D:/data/31010_260111_095622.dat