passes_logs/2026/01/11/R2M6_AANII_01/R2M6_AANII_01__20260111_020053_NOAA_21_JPSS-2_rec.log

#Pass ID: 20260111_020053_NOAA 21 (JPSS-2)
#Satellite: NOAA 21 (JPSS-2)
#Configuration: NOAA 21
#almurnet v.1.7.20240730
#Start time: 2026-01-11 02:01:45

#Version: 2.2.20231116
#Station: R2M6_AANII_01
#Location: 30.233357 lon 59.946436 lat
#TLE: 1 54234U 22150A   26009.79679979  .00000100  00000+0  68070-4 0  9993
#TLE: 2 54234  98.7494 310.7596 0000833 322.2782  37.8335 14.19533646164071

#Time	Az	El	Level	Level2	SNR	BER	BlckErr	Temp	State	Recorded	gain1	gain2
2026-01-11 02:01:45.05	6.50	10.61	-33.2	-44.6	3.8	8.46e-01	0	42	0	0	26	13328
2026-01-11 02:01:48.05	6.19	10.83	-33.9	-46.1	3.8	1.49e+00	0	42	104	0	27	14739
2026-01-11 02:01:51.07	5.87	11.05	-33.9	-46.2	3.8	1.49e+00	0	42	104	0	27	14819
2026-01-11 02:01:54.05	5.55	11.27	-33.9	-46.2	3.8	1.49e+00	0	42	104	0	27	14816
2026-01-11 02:01:57.05	5.23	11.50	-33.9	-46.2	3.8	1.49e+00	0	42	104	0	27	14804
2026-01-11 02:02:00.05	4.90	11.72	-33.9	-46.2	3.8	1.49e+00	0	42	104	0	27	14843
2026-01-11 02:02:03.04	4.56	11.94	-33.9	-46.2	3.8	1.49e+00	0	42	104	0	27	14796
2026-01-11 02:02:06.04	4.22	12.17	-33.9	-46.2	3.8	1.49e+00	0	42	104	0	27	14809
2026-01-11 02:02:09.06	3.87	12.40	-33.9	-45.7	3.8	1.49e+00	0	42	104	0	28	13978
2026-01-11 02:02:12.05	3.52	12.63	-34.0	-46.3	3.8	1.49e+00	0	42	104	0	27	14906
2026-01-11 02:02:15.06	3.16	12.86	-33.9	-46.2	3.8	1.49e+00	0	42	104	0	27	14795
2026-01-11 02:02:18.07	2.79	13.09	-33.8	-46.0	3.8	1.49e+00	0	42	104	0	27	14585
2026-01-11 02:02:21.07	2.42	13.32	-33.7	-45.7	3.8	1.49e+00	0	42	104	0	27	14407
2026-01-11 02:02:24.09	2.05	13.56	-33.3	-45.5	3.8	1.49e+00	0	42	104	0	26	14534
2026-01-11 02:02:27.08	1.66	13.79	-33.3	-44.7	3.8	1.49e+00	0	42	104	0	26	13456
2026-01-11 02:02:30.09	1.27	14.03	-33.2	-44.6	3.8	1.49e+00	0	42	104	0	26	13318
2026-01-11 02:02:33.10	0.88	14.26	-33.3	-44.9	3.8	1.49e+00	0	42	104	0	26	13797
2026-01-11 02:02:36.10	0.48	14.50	-31.9	-37.4	6.8	2.14e-01	0	42	0	0	23	6823
2026-01-11 02:02:39.11	0.07	14.74	-30.4	-33.5	10.2	7.42e-03	0	42	0	9437184	21	5168
2026-01-11 02:02:42.11	359.65	14.98	-30.5	-34.3	10.1	6.11e-03	0	42	0	18874368	20	5598
2026-01-11 02:02:45.12	359.23	15.22	-30.4	-34.1	10.3	5.73e-03	0	42	0	28311552	20	5487
2026-01-11 02:02:48.12	358.80	15.46	-30.4	-34.1	10.3	7.42e-03	0	42	0	37748736	20	5487
2026-01-11 02:02:51.12	358.37	15.70	-28.8	-30.7	13.2	4.11e-05	0	42	0	47185920	18	4511
2026-01-11 02:02:54.12	357.92	15.94	-27.8	-30.0	14.4	6.69e-04	0	42	0	55574528	15	4608
2026-01-11 02:02:57.13	357.47	16.18	-27.8	-30.0	14.3	2.20e-06	0	42	0	65011712	15	4632
2026-01-11 02:03:00.14	357.01	16.42	-28.3	-30.5	13.9	6.26e-04	0	42	0	74448896	16	4647
2026-01-11 02:03:03.12	356.55	16.66	-28.2	-30.4	14.0	7.76e-04	0	42	0	83886080	16	4610
2026-01-11 02:03:06.13	356.07	16.91	-27.4	-28.9	15.0	9.12e-04	0	42	0	93323264	15	4305
2026-01-11 02:03:09.15	355.59	17.15	-27.4	-29.4	15.0	1.03e-03	0	42	0	102760448	14	4562
2026-01-11 02:03:12.15	355.10	17.40	-27.4	-29.5	15.0	1.05e-03	0	42	0	112197632	14	4579
2026-01-11 02:03:15.16	354.60	17.64	-27.7	-29.6	14.6	1.17e-03	0	42	0	121634816	15	4502
2026-01-11 02:03:18.16	354.10	17.89	-27.6	-29.5	14.7	3.83e-04	0	42	0	131072000	15	4451
2026-01-11 02:03:21.16	353.58	18.13	-27.4	-29.4	15.1	6.36e-04	0	42	0	140509184	14	4537
2026-01-11 02:03:24.16	353.06	18.38	-27.7	-29.7	14.6	2.77e-04	0	42	0	149946368	15	4534
2026-01-11 02:03:27.15	352.53	18.62	-27.7	-29.6	14.7	1.41e-04	0	42	0	159383552	15	4488
2026-01-11 02:03:30.16	351.99	18.86	-27.3	-29.3	15.1	5.83e-04	0	42	0	168820736	14	4518
2026-01-11 02:03:33.16	351.44	19.11	-27.2	-28.9	15.4	8.30e-06	0	42	0	178257920	14	4410
2026-01-11 02:03:36.16	350.88	19.35	-27.2	-29.0	15.3	2.47e-04	0	42	0	187695104	14	4417
2026-01-11 02:03:39.17	350.31	19.60	-27.2	-28.9	15.4	1.38e-04	0	42	0	197132288	14	4414
2026-01-11 02:03:42.16	349.74	19.84	-27.2	-28.4	15.4	2.91e-04	0	42	0	206569472	15	4159
2026-01-11 02:03:45.19	349.15	20.08	-26.9	-28.9	15.6	3.04e-04	0	42	0	216006656	13	4523
2026-01-11 02:03:48.19	348.55	20.32	-27.0	-28.6	15.6	2.18e-04	0	42	0	225443840	14	4304
2026-01-11 02:03:51.18	347.95	20.56	-26.8	-28.7	15.8	0.00e+00	0	42	0	233832448	13	4455
2026-01-11 02:03:54.19	347.33	20.80	-26.7	-28.3	16.0	0.00e+00	0	42	0	243269632	13	4343
2026-01-11 02:03:57.19	346.71	21.04	-26.9	-28.7	15.8	0.00e+00	0	42	0	252706816	13	4460
2026-01-11 02:04:00.19	346.08	21.27	-26.9	-28.8	15.7	0.00e+00	0	42	0	262144000	13	4478
2026-01-11 02:04:03.20	345.43	21.51	-26.7	-28.4	16.0	0.00e+00	0	42	0	271581184	13	4373
2026-01-11 02:04:06.19	344.78	21.74	-26.4	-27.7	16.3	0.00e+00	0	42	0	281018368	13	4181
2026-01-11 02:04:09.17	344.12	21.97	-26.6	-28.2	16.0	0.00e+00	0	42	0	290455552	13	4319
2026-01-11 02:04:12.18	343.45	22.20	-26.7	-28.3	16.0	0.00e+00	0	42	0	299892736	13	4354
2026-01-11 02:04:15.17	342.76	22.42	-26.5	-27.9	16.3	0.00e+00	0	42	0	309329920	13	4218
2026-01-11 02:04:18.17	342.07	22.64	-26.5	-28.0	16.2	0.00e+00	0	42	0	318767104	13	4251
2026-01-11 02:04:21.17	341.37	22.87	-26.7	-28.3	16.0	0.00e+00	0	42	0	328204288	13	4344
2026-01-11 02:04:24.17	340.65	23.08	-26.7	-28.5	15.9	0.00e+00	0	42	0	337641472	13	4390
2026-01-11 02:04:27.18	339.93	23.30	-26.7	-28.4	16.0	0.00e+00	0	42	0	347078656	13	4377
2026-01-11 02:04:30.19	339.19	23.51	-26.7	-28.4	16.0	0.00e+00	0	42	0	356515840	13	4362
2026-01-11 02:04:33.20	338.45	23.72	-26.6	-28.0	16.2	0.00e+00	0	42	0	365953024	13	4267
2026-01-11 02:04:36.20	337.69	23.92	-26.9	-28.7	15.8	0.00e+00	0	42	0	375390208	13	4463
2026-01-11 02:04:39.20	336.93	24.13	-27.0	-28.5	15.7	0.00e+00	0	42	0	384827392	14	4296
2026-01-11 02:04:42.19	336.16	24.32	-27.1	-28.8	15.6	0.00e+00	0	42	0	393216000	14	4350
2026-01-11 02:04:45.21	335.37	24.51	-27.1	-28.8	15.6	0.00e+00	0	42	0	403701760	14	4352
2026-01-11 02:04:48.22	334.57	24.70	-27.2	-28.9	15.5	0.00e+00	0	42	0	412090368	14	4409
2026-01-11 02:04:51.22	333.77	24.89	-27.2	-29.0	15.5	0.00e+00	0	42	0	421527552	14	4422
2026-01-11 02:04:54.21	332.96	25.06	-27.0	-28.5	15.7	0.00e+00	0	42	0	430964736	14	4281
2026-01-11 02:04:57.21	332.14	25.24	-27.2	-28.9	15.5	0.00e+00	0	42	0	440401920	14	4385
2026-01-11 02:05:00.22	331.31	25.40	-26.9	-28.7	15.9	0.00e+00	0	42	0	449839104	13	4456
2026-01-11 02:05:03.21	330.47	25.56	-27.3	-29.1	15.4	0.00e+00	0	42	0	459276288	14	4458
2026-01-11 02:05:06.20	329.63	25.72	-27.5	-29.0	15.2	0.00e+00	0	42	0	468713472	15	4323
2026-01-11 02:05:09.21	328.77	25.87	-27.4	-29.5	15.2	0.00e+00	0	42	0	478150656	14	4578
2026-01-11 02:05:12.20	327.91	26.01	-27.8	-29.4	14.9	0.00e+00	0	42	0	487587840	16	4294
2026-01-11 02:05:15.21	327.03	26.15	-26.8	-27.9	16.1	0.00e+00	0	42	0	497025024	14	4128
2026-01-11 02:05:18.21	326.15	26.28	-26.8	-28.6	16.0	0.00e+00	0	42	0	506462208	13	4414
2026-01-11 02:05:21.23	325.26	26.41	-26.7	-28.4	16.1	0.00e+00	0	42	0	515899392	13	4372
2026-01-11 02:05:24.24	324.37	26.52	-26.6	-28.1	16.2	0.00e+00	0	42	0	525336576	13	4272
2026-01-11 02:05:27.23	323.47	26.63	-26.5	-27.9	16.3	0.00e+00	0	42	0	534773760	13	4216
2026-01-11 02:05:30.24	322.56	26.73	-26.7	-28.3	16.1	0.00e+00	0	42	0	544210944	13	4336
2026-01-11 02:05:33.25	321.65	26.83	-26.8	-28.5	16.1	0.00e+00	0	42	0	553648128	13	4379
2026-01-11 02:05:36.24	320.73	26.91	-26.5	-27.9	16.3	0.00e+00	0	42	0	563085312	13	4227
2026-01-11 02:05:39.25	319.81	26.99	-26.8	-28.6	16.0	0.00e+00	0	42	0	571473920	13	4426
2026-01-11 02:05:42.24	318.89	27.06	-26.2	-28.2	14.8	0.00e+00	0	42	0	580911104	13	4499
2026-01-11 02:05:45.24	317.96	27.12	-26.9	-28.7	14.1	0.00e+00	0	42	0	590348288	13	4454
2026-01-11 02:05:48.22	317.03	27.18	-27.0	-28.9	15.8	0.00e+00	0	42	0	599785472	13	4509
2026-01-11 02:05:51.22	316.09	27.22	-26.5	-27.8	16.4	4.47e-03	0	42	0	609222656	13	4209
2026-01-11 02:05:54.22	315.15	27.26	-26.9	-28.8	15.9	0.00e+00	0	42	0	618659840	13	4465
2026-01-11 02:05:57.22	314.21	27.29	-26.8	-28.6	15.9	0.00e+00	0	42	0	628097024	13	4432
2026-01-11 02:06:00.20	313.28	27.31	-26.8	-28.6	16.0	3.48e-03	0	42	0	637534208	13	4432
2026-01-11 02:06:03.19	312.34	27.32	-26.8	-28.5	16.0	0.00e+00	0	42	0	646971392	13	4389
2026-01-11 02:06:06.21	311.39	27.32	-26.7	-28.4	16.0	4.67e-04	0	42	0	656408576	13	4367
2026-01-11 02:06:09.22	310.44	27.32	-26.6	-28.1	16.2	0.00e+00	0	42	0	665845760	13	4276
2026-01-11 02:06:12.22	309.50	27.30	-26.6	-28.2	16.2	3.77e-03	0	42	0	675282944	13	4307
2026-01-11 02:06:15.22	308.56	27.28	-27.0	-28.4	15.8	4.17e-03	0	42	0	684720128	14	4257
2026-01-11 02:06:18.22	307.62	27.25	-26.6	-28.2	16.2	4.18e-03	0	42	0	694157312	13	4311
2026-01-11 02:06:21.23	306.67	27.21	-26.6	-28.1	16.2	4.47e-03	0	42	0	703594496	13	4290
2026-01-11 02:06:24.24	305.73	27.16	-26.5	-27.9	16.3	4.36e-03	0	42	0	713031680	13	4239
2026-01-11 02:06:27.24	304.80	27.10	-26.6	-28.1	16.2	3.72e-03	0	42	0	722468864	13	4292
2026-01-11 02:06:30.24	303.87	27.04	-26.8	-28.6	16.0	4.44e-03	0	42	0	730857472	13	4413
2026-01-11 02:06:33.24	302.95	26.97	-27.0	-28.9	15.8	4.08e-03	0	42	0	740294656	13	4513
2026-01-11 02:06:36.25	302.02	26.89	-26.9	-28.8	15.8	3.54e-03	0	42	0	750780416	13	4473
2026-01-11 02:06:39.24	301.11	26.80	-27.0	-28.4	15.8	0.00e+00	0	42	0	759169024	14	4249
2026-01-11 02:06:42.25	300.20	26.70	-26.7	-28.3	16.1	3.15e-03	0	42	0	768606208	13	4329
2026-01-11 02:06:45.26	299.29	26.60	-26.5	-27.9	16.3	0.00e+00	0	42	0	778043392	13	4233
2026-01-11 02:06:48.27	298.39	26.48	-26.7	-28.4	16.0	0.00e+00	0	42	0	787480576	13	4365
2026-01-11 02:06:51.26	297.50	26.36	-26.6	-28.0	16.2	0.00e+00	0	42	0	796917760	13	4261
2026-01-11 02:06:54.28	296.61	26.24	-26.4	-27.7	16.4	0.00e+00	0	42	0	806354944	13	4186
2026-01-11 02:06:57.29	295.72	26.11	-26.6	-28.2	16.2	2.05e-03	0	42	0	815792128	13	4295
2026-01-11 02:07:00.29	294.85	25.97	-26.6	-28.1	16.2	0.00e+00	0	42	0	825229312	13	4275
2026-01-11 02:07:03.29	293.99	25.82	-26.4	-28.2	16.4	0.00e+00	0	42	0	834666496	12	4412
2026-01-11 02:07:06.31	293.13	25.67	-26.6	-28.2	16.1	0.00e+00	0	42	0	844103680	13	4318
2026-01-11 02:07:09.33	292.28	25.51	-26.6	-28.2	16.1	0.00e+00	0	42	0	853540864	13	4313
2026-01-11 02:07:12.34	291.44	25.34	-26.5	-27.9	16.2	0.00e+00	0	42	0	862978048	13	4236
2026-01-11 02:07:15.35	290.61	25.17	-26.5	-27.9	16.2	0.00e+00	0	42	0	872415232	13	4228
2026-01-11 02:07:18.35	289.79	25.00	-26.7	-28.3	16.0	0.00e+00	0	42	0	881852416	13	4350
2026-01-11 02:07:21.34	288.98	24.82	-26.9	-28.4	15.7	0.00e+00	0	42	0	891289600	14	4244
2026-01-11 02:07:24.35	288.17	24.63	-26.8	-28.7	15.8	0.00e+00	0	42	0	900726784	13	4450
2026-01-11 02:07:27.38	287.37	24.44	-26.8	-28.5	15.9	0.00e+00	0	42	0	910163968	13	4379
2026-01-11 02:07:30.39	286.59	24.25	-26.5	-28.0	16.2	0.00e+00	0	42	0	919601152	13	4259
2026-01-11 02:07:33.40	285.81	24.05	-26.7	-28.3	16.0	0.00e+00	0	42	0	929038336	13	4342
2026-01-11 02:07:36.43	285.04	23.84	-27.1	-28.8	15.5	0.00e+00	0	42	0	938475520	14	4368
2026-01-11 02:07:39.44	284.29	23.63	-26.4	-27.8	16.2	0.00e+00	0	42	0	947912704	13	4204
2026-01-11 02:07:42.47	283.54	23.42	-26.3	-27.9	16.5	0.00e+00	0	42	0	957349888	12	4340
2026-01-11 02:07:45.48	282.80	23.21	-26.5	-28.3	15.1	0.00e+00	0	42	0	966787072	12	4472
2026-01-11 02:07:48.50	282.08	22.99	-27.0	-28.6	15.5	0.00e+00	0	42	0	976224256	14	4318
2026-01-11 02:07:51.52	281.36	22.77	-26.4	-27.6	16.3	6.68e-04	0	42	0	985661440	13	4171
2026-01-11 02:07:54.54	280.65	22.54	-26.3	-27.9	16.4	2.44e-03	0	42	0	995098624	12	4349
2026-01-11 02:07:57.55	279.96	22.32	-26.4	-28.3	16.2	2.24e-03	0	42	0	1004535808	12	4464
2026-01-11 02:08:00.57	279.27	22.09	-26.4	-27.8	16.2	1.23e-03	0	42	0	1013972992	13	4208
2026-01-11 02:08:03.60	278.59	21.86	-26.4	-28.2	16.3	3.58e-03	0	42	0	1023410176	12	4422
2026-01-11 02:08:06.63	277.93	21.62	-26.7	-28.5	15.7	3.92e-03	0	42	0	1032847360	13	4409
2026-01-11 02:08:09.64	277.27	21.39	-26.5	-27.9	16.1	4.38e-03	0	42	0	1042284544	13	4245
2026-01-11 02:08:12.67	276.62	21.15	-25.8	-27.0	16.9	4.33e-03	0	42	0	1051721728	12	4099
2026-01-11 02:08:15.67	275.99	20.91	-26.0	-27.2	16.7	0.00e+00	0	42	0	1061158912	12	4165
2026-01-11 02:08:18.69	275.37	20.67	-26.6	-28.3	15.9	0.00e+00	0	42	0	1070596096	13	4344
2026-01-11 02:08:21.72	274.75	20.43	-26.6	-28.2	15.9	0.00e+00	0	42	0	1080033280	13	4325
2026-01-11 02:08:24.74	274.14	20.19	-26.4	-28.2	16.1	0.00e+00	0	42	0	1089470464	12	4424
2026-01-11 02:08:27.76	273.54	19.94	-26.7	-28.3	15.8	0.00e+00	0	42	0	1098907648	13	4364
2026-01-11 02:08:30.78	272.96	19.70	-26.7	-28.4	15.8	0.00e+00	0	42	0	1108344832	13	4376
2026-01-11 02:08:33.79	272.38	19.46	-26.4	-27.7	16.1	0.00e+00	0	42	0	1117782016	13	4171
2026-01-11 02:08:36.81	271.81	19.21	-26.4	-28.2	16.1	0.00e+00	0	42	0	1127219200	12	4434
2026-01-11 02:08:39.83	271.25	18.96	-26.9	-28.9	15.4	0.00e+00	0	42	0	1136656384	13	4529
2026-01-11 02:08:42.85	270.70	18.72	-27.5	-29.2	14.7	0.00e+00	0	42	0	1146093568	15	4397
2026-01-11 02:08:45.86	270.16	18.47	-27.5	-29.7	14.7	0.00e+00	0	42	0	1155530752	14	4646
2026-01-11 02:08:48.88	269.63	18.22	-27.5	-29.4	14.6	0.00e+00	0	42	0	1164967936	15	4444
2026-01-11 02:08:51.90	269.10	17.98	-27.6	-29.4	14.6	7.00e-07	0	42	0	1174405120	15	4443
2026-01-11 02:08:54.92	268.59	17.73	-26.9	-28.5	15.4	0.00e+00	0	42	0	1183842304	14	4291
2026-01-11 02:08:57.94	268.08	17.48	-26.9	-28.9	15.4	3.55e-03	0	42	0	1193279488	13	4543
2026-01-11 02:09:00.97	267.58	17.24	-27.0	-29.0	15.3	0.00e+00	0	42	0	1202716672	13	4556
2026-01-11 02:09:03.99	267.09	16.99	-26.8	-28.7	15.5	3.63e-03	0	42	0	1212153856	13	4478
2026-01-11 02:09:07.00	266.61	16.74	-26.8	-28.7	15.5	0.00e+00	0	42	0	1221591040	13	4479
2026-01-11 02:09:10.01	266.14	16.50	-27.2	-29.0	15.0	1.47e-03	0	42	0	1231028224	14	4444
2026-01-11 02:09:13.03	265.67	16.25	-26.8	-28.7	15.4	1.27e-03	0	42	0	1240465408	13	4473
2026-01-11 02:09:16.05	265.21	16.01	-26.8	-28.6	15.5	8.10e-04	0	42	0	1249902592	13	4443
2026-01-11 02:09:19.07	264.76	15.77	-26.9	-28.9	15.3	3.75e-04	0	42	0	1259339776	13	4528
2026-01-11 02:09:22.09	264.31	15.52	-27.1	-28.9	15.1	4.06e-04	0	42	0	1268776960	14	4424
2026-01-11 02:09:25.11	263.88	15.28	-27.4	-29.5	14.7	6.65e-04	0	42	0	1278214144	14	4608
2026-01-11 02:09:28.12	263.45	15.04	-27.3	-29.2	14.8	3.05e-05	0	42	0	1287651328	14	4519
2026-01-11 02:09:31.13	263.03	14.80	-27.1	-28.9	15.0	2.40e-03	0	42	0	1297088512	14	4408
2026-01-11 02:09:34.15	262.61	14.56	-27.3	-29.3	14.7	0.00e+00	0	42	0	1306525696	14	4543
2026-01-11 02:09:37.16	262.20	14.32	-27.7	-29.8	14.2	2.28e-04	0	42	0	1315962880	15	4574
2026-01-11 02:09:40.18	261.80	14.08	-27.5	-29.3	14.5	0.00e+00	0	42	0	1325400064	15	4425
2026-01-11 02:09:43.19	261.40	13.84	-27.6	-29.5	14.4	4.45e-04	0	42	0	1334837248	15	4478
2026-01-11 02:09:46.21	261.01	13.61	-27.7	-29.6	14.3	0.00e+00	0	42	0	1344274432	15	4531
2026-01-11 02:09:49.23	260.63	13.37	-27.9	-30.3	13.9	3.80e-06	0	42	0	1353711616	15	4727
2026-01-11 02:09:52.25	260.25	13.14	-27.8	-30.1	14.0	3.80e-06	0	42	0	1362100224	15	4661
2026-01-11 02:09:55.26	259.88	12.90	-28.0	-30.0	13.9	1.37e-05	0	42	0	1372585984	16	4512
2026-01-11 02:09:58.28	259.52	12.67	-27.6	-29.5	14.2	7.00e-07	0	42	0	1382023168	15	4509
2026-01-11 02:10:01.30	259.16	12.44	-27.7	-29.8	14.0	7.00e-07	0	42	0	1390411776	15	4598
2026-01-11 02:10:04.32	258.80	12.21	-27.8	-30.0	13.9	6.10e-06	0	42	0	1400897536	15	4643
2026-01-11 02:10:07.34	258.45	11.98	-27.8	-30.0	13.9	6.10e-06	0	42	0	1409286144	15	4648
2026-01-11 02:10:10.36	258.11	11.75	-27.8	-30.1	13.8	6.80e-06	0	42	0	1419771904	15	4690
2026-01-11 02:10:13.38	257.77	11.52	-27.5	-29.4	14.2	1.50e-06	0	42	0	1429209088	15	4471
2026-01-11 02:10:16.40	257.44	11.30	-27.6	-29.5	14.2	2.20e-06	0	42	0	1437597696	15	4500
2026-01-11 02:10:19.42	257.11	11.07	-27.6	-29.5	14.2	7.00e-07	0	42	0	1448083456	15	4486
2026-01-11 02:10:22.44	256.79	10.85	-28.2	-30.4	13.5	7.60e-06	0	42	0	1456472064	16	4653
2026-01-11 02:10:25.45	256.48	10.63	-28.5	-31.1	13.1	1.83e-05	0	42	0	1465909248	16	4893
2026-01-11 02:10:28.46	256.16	10.41	-28.6	-31.0	12.8	6.33e-05	0	42	0	1476395008	17	4733
2026-01-11 02:10:31.47	255.86	10.19	-28.3	-30.8	13.2	6.70e-03	0	42	0	1484783616	16	4790
2026-01-11 02:10:34.49	255.55	9.97	-27.9	-30.2	13.6	2.28e-05	0	42	0	1494220800	15	4734
2026-01-11 02:10:37.51	255.26	9.75	-27.6	-29.6	14.0	5.79e-03	0	42	0	1503657984	15	4544
2026-01-11 02:10:40.53	254.96	9.53	-27.7	-29.8	13.8	5.11e-03	0	42	0	1513095168	15	4596
2026-01-11 02:10:43.54	254.67	9.32	-28.1	-30.3	13.4	2.10e-04	0	42	0	1522532352	16	4617
2026-01-11 02:10:46.56	254.39	9.10	-28.4	-31.0	13.0	3.89e-03	0	42	0	1531969536	16	4862
2026-01-11 02:10:49.58	254.11	8.89	-28.6	-31.1	12.6	9.30e-05	0	42	0	1541406720	17	4780
2026-01-11 02:10:52.59	253.83	8.68	-28.6	-31.0	12.7	5.12e-03	0	42	0	1550843904	17	4747
2026-01-11 02:10:55.61	253.56	8.47	-28.5	-30.9	12.7	6.79e-05	0	42	0	1560281088	17	4712
2026-01-11 02:10:58.63	253.29	8.26	-28.4	-31.1	12.9	5.27e-03	0	42	0	1569718272	16	4886
2026-01-11 02:11:01.64	253.03	8.05	-28.4	-31.0	12.8	4.57e-05	0	42	0	1579155456	16	4879
2026-01-11 02:11:04.66	252.77	7.84	-28.3	-30.8	12.9	4.19e-05	0	42	0	1588592640	16	4811
2026-01-11 02:11:07.68	252.51	7.63	-28.5	-31.2	12.7	7.93e-05	0	42	0	1598029824	16	4949
2026-01-11 02:11:10.70	252.26	7.43	-28.8	-31.5	12.1	2.85e-04	0	42	0	1607467008	17	4953
2026-01-11 02:11:13.72	252.01	7.22	-28.6	-31.2	12.3	1.52e-04	0	42	0	1616904192	17	4846
2026-01-11 02:11:16.75	251.76	7.02	-32.7	-44.5	3.8	1.09e+00	0	42	104	1625292800	25	13892

#Closed at: 2026-01-11 02:11:17
#Recorded file [1625 MB]: D:/data/31010_260111_050235.dat