passes_logs/2026/01/11/R2M6_AANII_01/R2M6_AANII_01__20260111_033524_FENGYUN_3E_rec.log

#Pass ID: 20260111_033524_FENGYUN 3E
#Satellite: FENGYUN 3E
#Configuration: FENGYUN 3E
#almurnet v.1.7.20240730
#Start time: 2026-01-11 03:41:35

#Version: 2.2.20231116
#Station: R2M6_AANII_01
#Location: 30.233357 lon 59.946436 lat
#TLE: 1 49008U 21062A   26010.00248113 -.00000186  00000+0 -66867-4 0  9993
#TLE: 2 49008  98.7487  15.1892 0001787 147.8079 212.3207 14.19883469234134

#Time	Az	El	Level	Level2	SNR	BER	BlckErr	Temp	State	Recorded	gain1	gain2
2026-01-11 03:41:35.42	108.17	38.20	-33.7	-44.9	3.8	8.46e-01	0	42	0	0	27	13147
2026-01-11 03:41:37.43	109.03	38.09	-34.0	-43.8	3.8	8.47e-01	0	42	104	0	27	11161
2026-01-11 03:41:39.45	109.90	37.98	-34.0	-43.8	3.8	8.45e-01	0	42	104	0	27	11182
2026-01-11 03:41:41.46	110.76	37.86	-34.0	-43.8	3.8	8.45e-01	0	42	104	0	27	11197
2026-01-11 03:41:43.47	111.61	37.73	-34.0	-43.8	3.8	8.45e-01	0	42	104	0	27	11161
2026-01-11 03:41:45.46	112.44	37.60	-33.9	-43.7	3.8	8.46e-01	0	42	104	0	27	11123
2026-01-11 03:41:47.47	113.28	37.47	-33.9	-43.7	3.8	8.47e-01	0	42	104	0	27	11137
2026-01-11 03:41:49.47	114.10	37.32	-34.0	-43.8	3.8	8.45e-01	0	42	104	0	27	11192
2026-01-11 03:41:51.47	114.92	37.18	-34.0	-43.8	3.8	8.46e-01	0	42	104	0	27	11194
2026-01-11 03:41:53.47	115.73	37.02	-33.9	-43.6	3.8	8.47e-01	0	42	104	0	27	11090
2026-01-11 03:41:55.47	116.53	36.86	-33.8	-43.5	3.8	8.46e-01	0	42	104	0	27	10960
2026-01-11 03:41:57.48	117.33	36.70	-33.7	-43.3	3.8	8.46e-01	0	42	104	0	27	10823
2026-01-11 03:41:59.49	118.12	36.52	-33.6	-43.1	3.8	8.46e-01	0	42	104	0	27	10691
2026-01-11 03:42:01.50	118.91	36.35	-33.5	-42.7	3.8	8.45e-01	0	42	104	0	27	10393
2026-01-11 03:42:03.50	119.68	36.17	-33.5	-42.9	3.8	8.46e-01	0	42	104	0	27	10587
2026-01-11 03:42:05.49	120.44	35.98	-33.5	-42.8	3.8	8.46e-01	0	43	104	0	27	10572
2026-01-11 03:42:07.50	121.19	35.79	-33.5	-42.8	3.8	8.45e-01	0	42	104	0	27	10547
2026-01-11 03:42:09.51	121.94	35.60	-33.5	-42.8	3.8	8.46e-01	0	43	104	0	27	10559
2026-01-11 03:42:11.52	122.68	35.40	-33.4	-42.2	3.8	8.46e-01	0	43	104	0	27	9925
2026-01-11 03:42:13.52	123.41	35.20	-33.3	-41.8	3.8	8.46e-01	0	43	104	0	27	9479
2026-01-11 03:42:15.53	124.13	34.99	-33.4	-42.3	3.8	8.46e-01	0	42	104	0	27	9991
2026-01-11 03:42:17.53	124.84	34.78	-33.4	-42.5	3.8	8.45e-01	0	43	104	0	27	10254
2026-01-11 03:42:19.52	125.54	34.57	-33.1	-40.4	3.8	8.46e-01	0	42	104	0	27	8286
2026-01-11 03:42:21.52	126.23	34.36	-33.0	-39.7	3.9	8.45e-01	0	42	104	0	27	7781
2026-01-11 03:42:23.52	126.91	34.14	-33.0	-39.8	3.8	8.46e-01	0	42	104	0	27	7828
2026-01-11 03:42:25.53	127.59	33.92	-26.0	-26.1	15.0	1.10e-06	0	43	0	5242880	13	3648
2026-01-11 03:42:27.51	128.25	33.70	-23.0	-22.8	18.3	0.00e+00	0	42	0	18874368	7	3498
2026-01-11 03:42:29.52	128.91	33.47	-25.2	-25.9	16.0	0.00e+00	0	43	0	33554432	10	3889
2026-01-11 03:42:31.52	129.55	33.24	-26.7	-27.1	14.2	4.50e-06	0	42	0	48234496	14	3771
2026-01-11 03:42:33.51	130.19	33.01	-26.7	-27.6	14.2	3.40e-06	0	43	0	62914560	13	4014
2026-01-11 03:42:35.51	130.82	32.78	-25.0	-25.0	16.2	0.00e+00	0	42	0	77594624	11	3579
2026-01-11 03:42:37.52	131.44	32.54	-24.0	-23.7	17.4	0.00e+00	0	42	0	91226112	9	3506
2026-01-11 03:42:39.52	132.05	32.30	-23.3	-23.4	18.0	0.00e+00	0	43	0	105906176	7	3631
2026-01-11 03:42:41.52	132.66	32.07	-23.3	-23.4	18.0	0.00e+00	0	43	0	120586240	7	3629
2026-01-11 03:42:43.52	133.25	31.83	-23.4	-23.7	17.9	0.00e+00	0	43	0	135266304	7	3692
2026-01-11 03:42:45.53	133.84	31.59	-23.4	-23.5	17.9	0.00e+00	0	42	0	149946368	7	3663
2026-01-11 03:42:47.52	134.41	31.34	-23.4	-23.6	17.8	0.00e+00	0	43	0	163577856	7	3672
2026-01-11 03:42:49.52	134.98	31.10	-22.7	-22.6	18.6	0.00e+00	0	42	0	178257920	6	3552
2026-01-11 03:42:51.54	135.55	30.85	-22.7	-22.6	18.7	0.00e+00	0	42	0	192937984	6	3550
2026-01-11 03:42:53.55	136.10	30.61	-22.9	-23.0	18.4	0.00e+00	0	42	0	207618048	6	3645
2026-01-11 03:42:55.55	136.65	30.36	-23.0	-23.2	18.3	0.00e+00	0	42	0	222298112	6	3700
2026-01-11 03:42:57.56	137.19	30.12	-22.9	-23.1	18.4	0.00e+00	0	42	0	235929600	6	3671
2026-01-11 03:42:59.57	137.72	29.87	-23.0	-23.2	18.3	0.00e+00	0	43	0	250609664	6	3685
2026-01-11 03:43:01.56	138.23	29.62	-22.8	-22.9	18.5	0.00e+00	0	43	0	265289728	6	3619
2026-01-11 03:43:03.55	138.74	29.37	-22.9	-23.1	18.4	0.00e+00	0	43	0	279969792	6	3659
2026-01-11 03:43:05.56	139.25	29.13	-23.1	-23.4	18.2	0.00e+00	0	43	0	293601280	6	3727
2026-01-11 03:43:07.55	139.74	28.88	-23.1	-23.5	18.1	0.00e+00	0	43	0	308281344	6	3749
2026-01-11 03:43:09.55	140.23	28.63	-23.1	-23.5	18.1	0.00e+00	0	43	0	322961408	6	3754
2026-01-11 03:43:11.55	140.72	28.38	-23.0	-23.3	18.2	0.00e+00	0	42	0	337641472	6	3703
2026-01-11 03:43:13.55	141.19	28.13	-23.1	-23.4	18.1	0.00e+00	0	43	0	351272960	6	3738
2026-01-11 03:43:15.54	141.66	27.89	-23.3	-23.9	17.9	0.00e+00	0	42	0	365953024	6	3857
2026-01-11 03:43:17.54	142.12	27.64	-23.2	-23.6	18.0	0.00e+00	0	42	0	380633088	6	3777
2026-01-11 03:43:19.53	142.57	27.39	-23.1	-23.4	18.1	0.00e+00	0	43	0	395313152	6	3746
2026-01-11 03:43:21.54	143.02	27.15	-23.2	-23.6	18.0	0.00e+00	0	43	0	409993216	6	3781
2026-01-11 03:43:23.54	143.46	26.90	-22.9	-23.1	18.3	0.00e+00	0	43	0	423624704	6	3671
2026-01-11 03:43:25.53	143.89	26.66	-23.0	-23.2	18.2	0.00e+00	0	43	0	438304768	6	3681
2026-01-11 03:43:27.53	144.32	26.41	-23.1	-23.4	18.1	0.00e+00	0	43	0	452984832	6	3738
2026-01-11 03:43:29.52	144.74	26.17	-23.2	-23.7	17.9	0.00e+00	0	43	0	467664896	6	3804
2026-01-11 03:43:31.54	145.16	25.92	-23.0	-23.2	18.2	0.00e+00	0	43	0	481296384	6	3686
2026-01-11 03:43:33.54	145.56	25.68	-23.1	-23.4	18.1	0.00e+00	0	43	0	495976448	6	3747
2026-01-11 03:43:35.55	145.97	25.43	-23.3	-23.7	17.9	0.00e+00	0	43	0	510656512	6	3812
2026-01-11 03:43:37.55	146.36	25.19	-23.1	-23.5	18.0	0.00e+00	0	43	0	525336576	6	3754
2026-01-11 03:43:39.55	146.75	24.95	-23.1	-23.5	18.0	0.00e+00	0	43	0	538968064	6	3763
2026-01-11 03:43:41.55	147.14	24.71	-22.9	-23.0	18.3	0.00e+00	0	43	0	553648128	6	3642
2026-01-11 03:43:43.55	147.52	24.47	-22.8	-23.3	18.4	0.00e+00	0	43	0	568328192	5	3819
2026-01-11 03:43:45.56	147.89	24.23	-22.9	-23.6	18.2	0.00e+00	0	43	0	583008256	5	3892
2026-01-11 03:43:47.56	148.26	23.99	-23.2	-23.8	17.9	0.00e+00	0	43	0	597688320	6	3821
2026-01-11 03:43:49.57	148.63	23.75	-23.3	-23.9	17.8	0.00e+00	0	43	0	611319808	6	3849
2026-01-11 03:43:51.57	148.98	23.52	-23.5	-24.3	17.6	0.00e+00	0	43	0	625999872	6	3946
2026-01-11 03:43:53.58	149.34	23.28	-23.8	-24.5	17.2	0.00e+00	0	43	0	640679936	7	3895
2026-01-11 03:43:55.57	149.68	23.05	-23.5	-23.8	17.5	0.00e+00	0	43	0	655360000	7	3733
2026-01-11 03:43:57.58	150.03	22.82	-23.6	-24.1	17.4	1.10e-06	0	43	0	670040064	7	3795
2026-01-11 03:43:59.59	150.37	22.59	-23.5	-23.7	17.6	0.00e+00	0	43	0	683671552	7	3717
2026-01-11 03:44:01.60	150.70	22.35	-23.7	-24.2	17.4	0.00e+00	0	42	0	698351616	7	3813
2026-01-11 03:44:03.60	151.03	22.12	-23.3	-23.3	17.8	0.00e+00	0	42	0	713031680	7	3613
2026-01-11 03:44:05.61	151.35	21.90	-23.5	-24.4	17.5	0.00e+00	0	43	0	727711744	6	3966
2026-01-11 03:44:07.62	151.67	21.67	-23.6	-24.0	17.4	0.00e+00	0	42	0	742391808	7	3766
2026-01-11 03:44:09.62	151.99	21.44	-23.7	-24.2	17.3	0.00e+00	0	42	0	756023296	7	3823
2026-01-11 03:44:11.62	152.29	21.22	-23.7	-24.1	17.3	0.00e+00	0	43	0	770703360	7	3804
2026-01-11 03:44:13.62	152.60	20.99	-23.8	-24.5	17.1	0.00e+00	0	43	0	785383424	7	3883
2026-01-11 03:44:15.62	152.90	20.77	-23.8	-24.5	13.1	0.00e+00	0	42	0	800063488	7	3889
2026-01-11 03:44:17.61	153.20	20.55	-23.7	-24.3	17.0	0.00e+00	0	42	0	813694976	7	3839
2026-01-11 03:44:19.62	153.49	20.33	-23.8	-24.5	17.1	0.00e+00	0	42	0	828375040	7	3879
2026-01-11 03:44:21.62	153.78	20.11	-23.6	-23.9	17.3	0.00e+00	0	43	0	843055104	7	3757
2026-01-11 03:44:23.62	154.06	19.90	-23.7	-24.3	17.2	1.26e-03	0	42	0	857735168	7	3842
2026-01-11 03:44:25.62	154.34	19.68	-23.9	-24.6	17.0	0.00e+00	0	43	0	871366656	7	3904
2026-01-11 03:44:27.61	154.62	19.47	-24.0	-24.8	16.9	0.00e+00	0	43	0	886046720	7	3960
2026-01-11 03:44:29.61	154.89	19.25	-24.0	-24.9	16.8	0.00e+00	0	43	0	900726784	7	3984
2026-01-11 03:44:31.62	155.16	19.04	-24.0	-24.8	16.9	0.00e+00	0	42	0	915406848	7	3977
2026-01-11 03:44:33.62	155.43	18.83	-24.3	-25.1	16.5	1.53e-03	0	43	0	930086912	8	3919
2026-01-11 03:44:35.62	155.69	18.62	-24.1	-24.6	16.8	0.00e+00	0	43	0	943718400	8	3803
2026-01-11 03:44:37.62	155.95	18.41	-24.0	-24.4	16.9	0.00e+00	0	43	0	958398464	8	3754
2026-01-11 03:44:39.62	156.21	18.20	-24.0	-24.5	16.8	1.26e-03	0	43	0	973078528	8	3779
2026-01-11 03:44:41.62	156.46	17.99	-24.1	-24.5	16.8	1.38e-03	0	43	0	987758592	8	3789
2026-01-11 03:44:43.61	156.70	17.79	-24.2	-24.7	16.7	0.00e+00	0	43	0	1001390080	8	3840
2026-01-11 03:44:45.61	156.95	17.59	-24.3	-25.0	16.5	1.43e-03	0	43	0	1016070144	8	3895
2026-01-11 03:44:47.61	157.19	17.38	-24.2	-24.9	16.6	1.50e-03	0	43	0	1030750208	8	3875
2026-01-11 03:44:49.59	157.43	17.18	-24.3	-25.1	16.4	0.00e+00	0	43	0	1045430272	8	3930
2026-01-11 03:44:51.60	157.67	16.98	-24.3	-25.1	16.5	1.46e-03	0	43	0	1059061760	8	3929
2026-01-11 03:44:53.61	157.90	16.78	-24.4	-25.3	16.3	1.36e-03	0	42	0	1073741824	8	3983
2026-01-11 03:44:55.62	158.13	16.58	-24.4	-25.3	16.3	0.00e+00	0	43	0	1088421888	8	3976
2026-01-11 03:44:57.62	158.36	16.39	-24.6	-25.1	16.1	1.23e-03	0	43	0	1103101952	9	3831
2026-01-11 03:44:59.63	158.59	16.19	-24.6	-25.2	16.1	1.28e-03	0	43	0	1117782016	9	3845
2026-01-11 03:45:01.63	158.81	16.00	-24.6	-25.1	16.1	0.00e+00	0	43	0	1132462080	9	3836
2026-01-11 03:45:03.63	159.03	15.80	-24.6	-25.1	16.1	1.12e-03	0	43	0	1146093568	9	3825
2026-01-11 03:45:05.65	159.25	15.61	-24.7	-25.3	16.0	0.00e+00	0	43	0	1160773632	9	3874
2026-01-11 03:45:07.65	159.46	15.42	-24.5	-25.1	16.1	0.00e+00	0	43	0	1175453696	9	3819
2026-01-11 03:45:09.65	159.67	15.23	-24.6	-25.2	16.1	0.00e+00	0	43	0	1190133760	9	3841
2026-01-11 03:45:11.66	159.88	15.04	-24.8	-25.6	15.8	1.47e-03	0	43	0	1203765248	9	3945
2026-01-11 03:45:13.66	160.09	14.85	-24.8	-25.7	15.7	0.00e+00	0	42	0	1218445312	9	3977
2026-01-11 03:45:15.66	160.29	14.66	-24.9	-25.9	15.6	1.71e-05	0	43	0	1233125376	9	4014
2026-01-11 03:45:17.66	160.49	14.48	-25.2	-25.9	15.3	3.66e-05	0	43	0	1247805440	10	3924
2026-01-11 03:45:19.66	160.69	14.29	-25.3	-26.3	15.1	0.00e+00	0	43	0	1262485504	10	4026
2026-01-11 03:45:21.67	160.89	14.11	-25.4	-26.4	15.1	0.00e+00	0	43	0	1276116992	10	4038
2026-01-11 03:45:23.66	161.08	13.93	-25.5	-26.6	15.0	1.30e-04	0	43	0	1290797056	10	4099
2026-01-11 03:45:25.66	161.27	13.75	-25.6	-26.3	14.9	0.00e+00	0	43	0	1305477120	11	3915
2026-01-11 03:45:27.66	161.46	13.57	-25.4	-26.5	15.0	1.53e-04	0	43	0	1320157184	10	4085
2026-01-11 03:45:29.64	161.65	13.39	-25.9	-27.1	14.4	2.33e-04	0	43	0	1333788672	11	4133
2026-01-11 03:45:31.65	161.83	13.21	-25.8	-26.7	14.6	0.00e+00	0	43	0	1348468736	11	4024
2026-01-11 03:45:33.64	162.01	13.03	-25.8	-26.9	14.5	1.11e-04	0	42	0	1363148800	11	4055
2026-01-11 03:45:35.65	162.20	12.86	-25.9	-27.0	14.4	9.49e-05	0	42	0	1377828864	11	4103
2026-01-11 03:45:37.65	162.37	12.68	-26.0	-26.9	14.2	3.40e-06	0	43	0	1391460352	12	3958
2026-01-11 03:45:39.64	162.55	12.51	-26.3	-26.9	13.9	3.40e-06	0	43	0	1406140416	13	3856
2026-01-11 03:45:41.65	162.73	12.34	-25.6	-26.3	14.8	1.65e-04	0	43	0	1420820480	11	3911
2026-01-11 03:45:43.64	162.90	12.16	-25.4	-26.4	15.0	0.00e+00	0	43	0	1435500544	10	4033
2026-01-11 03:45:45.64	163.07	11.99	-25.7	-26.7	14.6	2.01e-04	0	43	0	1450180608	11	4005
2026-01-11 03:45:47.64	163.24	11.82	-25.7	-26.7	14.6	0.00e+00	0	43	0	1463812096	11	4006
2026-01-11 03:45:49.65	163.41	11.65	-25.7	-26.7	14.6	0.00e+00	0	43	0	1478492160	11	4005
2026-01-11 03:45:51.66	163.57	11.49	-26.0	-27.3	14.2	0.00e+00	0	43	0	1493172224	11	4182
2026-01-11 03:45:53.65	163.74	11.32	-26.1	-27.0	14.0	2.59e-04	0	43	0	1507852288	12	4006
2026-01-11 03:45:55.64	163.90	11.15	-26.5	-27.5	13.5	2.74e-05	0	43	0	1521483776	13	4007
2026-01-11 03:45:57.65	164.06	10.99	-26.6	-27.8	13.3	1.94e-05	0	43	0	1536163840	13	4092
2026-01-11 03:45:59.65	164.22	10.82	-26.7	-27.9	13.2	3.31e-05	0	43	0	1550843904	13	4127
2026-01-11 03:46:01.65	164.37	10.66	-26.7	-27.8	13.2	2.40e-05	0	43	0	1565523968	13	4110
2026-01-11 03:46:03.65	164.53	10.50	-26.2	-27.2	13.8	2.49e-04	0	43	0	1579155456	12	4058
2026-01-11 03:46:05.65	164.68	10.34	-25.9	-27.0	14.3	2.20e-06	0	43	0	1593835520	11	4103
2026-01-11 03:46:07.64	164.83	10.18	-26.0	-27.2	14.2	1.10e-06	0	43	0	1608515584	11	4160
2026-01-11 03:46:09.64	164.98	10.02	-25.9	-27.1	14.2	1.10e-06	0	43	0	1623195648	11	4115
2026-01-11 03:46:11.65	165.13	9.86	-26.0	-27.2	14.2	2.20e-06	0	42	0	1637875712	11	4149
2026-01-11 03:46:13.64	165.28	9.70	-26.0	-27.2	14.2	3.40e-06	0	43	0	1651507200	11	4153
2026-01-11 03:46:15.64	165.42	9.54	-25.9	-27.1	14.2	3.40e-06	0	43	0	1666187264	11	4122
2026-01-11 03:46:17.64	165.57	9.39	-26.1	-27.0	13.8	4.50e-06	0	43	0	1680867328	12	4008
2026-01-11 03:46:19.63	165.71	9.23	-26.3	-27.6	13.6	1.14e-05	0	43	0	1695547392	12	4150
2026-01-11 03:46:21.61	165.85	9.08	-26.1	-27.0	13.8	1.10e-06	0	43	0	1709178880	12	4013
2026-01-11 03:46:23.62	165.99	8.92	-26.2	-27.3	13.6	1.48e-05	0	43	0	1723858944	12	4087
2026-01-11 03:46:25.62	166.13	8.77	-26.0	-26.9	13.9	3.40e-06	0	43	0	1738539008	12	3971
2026-01-11 03:46:27.62	166.27	8.62	-26.3	-27.4	13.6	9.10e-06	0	43	0	1752170496	12	4114
2026-01-11 03:46:29.63	166.40	8.47	-26.1	-27.1	13.7	5.70e-06	0	43	0	1766850560	12	4034
2026-01-11 03:46:31.63	166.54	8.31	-26.1	-27.1	13.7	4.50e-06	0	43	0	1781530624	12	4033
2026-01-11 03:46:33.62	166.67	8.17	-26.2	-27.3	13.6	1.02e-05	0	43	0	1796210688	12	4083
2026-01-11 03:46:35.62	166.80	8.02	-26.2	-27.4	13.5	5.70e-06	0	42	0	1810890752	12	4106
2026-01-11 03:46:37.63	166.93	7.87	-26.6	-28.1	13.1	1.71e-05	0	43	0	1824522240	12	4295
2026-01-11 03:46:39.64	167.06	7.72	-26.7	-27.8	12.8	4.57e-05	0	43	0	1839202304	13	4126
2026-01-11 03:46:41.66	167.19	7.57	-26.7	-27.9	12.9	4.46e-05	0	43	0	1853882368	13	4142
2026-01-11 03:46:43.66	167.32	7.42	-26.9	-28.3	12.7	1.94e-03	0	43	0	1868562432	13	4254
2026-01-11 03:46:45.67	167.45	7.28	-26.7	-28.0	12.8	8.12e-05	0	43	0	1883242496	13	4161
2026-01-11 03:46:47.67	167.57	7.13	-27.0	-28.6	12.5	8.69e-05	0	43	0	1896873984	13	4335
2026-01-11 03:46:49.68	167.69	6.99	-32.5	-42.3	3.8	8.47e-01	0	43	104	1903165440	24	11095
2026-01-11 03:46:51.70	167.82	6.84	-33.2	-42.8	3.8	8.46e-01	0	43	104	1903165440	26	10873

#Closed at: 2026-01-11 03:46:51
#Recorded file [1903 MB]: D:/data/31010_260111_064224.dat