passes_logs/2026/01/11/R2M6_AANII_01/R2M6_AANII_01__20260111_002018_NOAA_21_JPSS-2_rec.log

#Pass ID: 20260111_002018_NOAA 21 (JPSS-2)
#Satellite: NOAA 21 (JPSS-2)
#Configuration: NOAA 21
#almurnet v.1.7.20240730
#Start time: 2026-01-11 00:20:18

#Version: 2.2.20231116
#Station: R2M6_AANII_01
#Location: 30.233357 lon 59.946436 lat
#TLE: 1 54234U 22150A   26009.79679979  .00000100  00000+0  68070-4 0  9993
#TLE: 2 54234  98.7494 310.7596 0000833 322.2782  37.8335 14.19533646164071

#Time	Az	El	Level	Level2	SNR	BER	BlckErr	Temp	State	Recorded	gain1	gain2
2026-01-11 00:20:18.89	18.10	7.01	-30.9	-36.7	4.5	1.42e+00	0	39	0	0	21	7020
2026-01-11 00:20:21.90	18.11	7.25	-31.5	-37.2	6.2	2.57e-01	0	39	0	3145728	23	6920
2026-01-11 00:20:24.91	18.13	7.48	-31.2	-36.5	7.1	1.25e-01	0	40	0	12582912	22	6583
2026-01-11 00:20:27.93	18.14	7.72	-31.2	-36.2	7.3	1.31e-01	0	40	0	22020096	22	6409
2026-01-11 00:20:30.94	18.15	7.96	-31.0	-35.5	7.8	7.46e-02	0	40	0	30408704	22	6054
2026-01-11 00:20:33.96	18.16	8.20	-30.6	-34.6	8.8	4.28e-02	0	40	0	40894464	21	5728
2026-01-11 00:20:36.99	18.17	8.44	-29.5	-32.2	11.3	5.54e-03	0	40	0	49283072	19	4944
2026-01-11 00:20:40.00	18.18	8.69	-29.0	-31.5	12.2	5.02e-03	0	40	0	59768832	18	4796
2026-01-11 00:20:43.01	18.20	8.94	-28.8	-31.4	12.6	4.67e-03	0	40	0	69206016	17	4862
2026-01-11 00:20:46.03	18.21	9.19	-28.6	-31.0	12.8	4.30e-03	0	40	0	77594624	17	4749
2026-01-11 00:20:49.04	18.22	9.44	-28.5	-30.8	12.9	4.83e-03	0	40	0	87031808	17	4680
2026-01-11 00:20:52.06	18.23	9.70	-27.8	-30.1	13.9	2.20e-06	0	40	0	96468992	15	4674
2026-01-11 00:20:55.08	18.24	9.96	-27.8	-30.0	13.9	4.18e-03	0	40	0	105906176	15	4660
2026-01-11 00:20:58.11	18.25	10.22	-27.8	-30.0	13.9	3.80e-06	0	40	0	116391936	15	4661
2026-01-11 00:21:01.12	18.26	10.48	-27.7	-29.8	14.1	6.66e-04	0	40	0	124780544	15	4590
2026-01-11 00:21:04.13	18.28	10.75	-27.6	-29.5	14.3	0.00e+00	0	41	0	134217728	15	4491
2026-01-11 00:21:07.14	18.29	11.02	-27.7	-29.7	14.2	7.00e-07	0	41	0	143654912	15	4539
2026-01-11 00:21:10.17	18.30	11.30	-27.7	-29.8	14.2	3.00e-06	0	41	0	153092096	15	4568
2026-01-11 00:21:13.19	18.31	11.57	-27.8	-30.1	14.0	2.20e-06	0	41	0	162529280	15	4665
2026-01-11 00:21:16.19	18.32	11.85	-27.7	-29.8	14.2	7.00e-07	0	41	0	171966464	15	4584
2026-01-11 00:21:19.20	18.33	12.13	-27.7	-29.8	14.2	7.00e-07	0	41	0	181403648	15	4575
2026-01-11 00:21:22.21	18.34	12.42	-27.7	-29.8	14.2	0.00e+00	0	41	0	190840832	15	4590
2026-01-11 00:21:25.22	18.36	12.71	-27.8	-30.0	14.1	6.80e-06	0	41	0	200278016	15	4644
2026-01-11 00:21:28.24	18.37	13.00	-28.0	-30.0	14.0	1.50e-06	0	41	0	209715200	16	4512
2026-01-11 00:21:31.26	18.38	13.30	-27.9	-30.3	14.0	3.80e-06	0	41	0	219152384	15	4748
2026-01-11 00:21:34.28	18.39	13.60	-28.0	-29.9	14.1	1.50e-06	0	41	0	228589568	16	4490
2026-01-11 00:21:37.30	18.40	13.90	-27.6	-29.4	14.5	7.00e-07	0	41	0	238026752	15	4448
2026-01-11 00:21:40.31	18.41	14.21	-26.6	-28.8	14.6	0.00e+00	0	41	0	247463936	14	4628
2026-01-11 00:21:43.33	18.42	14.52	-27.4	-29.5	14.3	0.00e+00	0	41	0	256901120	14	4599
2026-01-11 00:21:46.34	18.43	14.84	-27.4	-29.6	14.8	0.00e+00	0	41	0	266338304	14	4613
2026-01-11 00:21:49.37	18.44	15.16	-27.7	-29.8	14.4	3.99e-03	0	41	0	275775488	15	4552
2026-01-11 00:21:52.39	18.46	15.48	-27.5	-29.7	14.7	2.26e-03	0	41	0	285212672	14	4639
2026-01-11 00:21:55.40	18.47	15.81	-27.5	-29.2	14.7	3.58e-03	0	41	0	294649856	15	4380
2026-01-11 00:21:58.40	18.48	16.14	-27.5	-29.2	14.8	4.06e-03	0	41	0	304087040	15	4374
2026-01-11 00:22:01.42	18.49	16.48	-27.4	-29.4	14.9	3.97e-03	0	41	0	313524224	14	4565
2026-01-11 00:22:04.45	18.50	16.82	-27.4	-29.4	14.9	3.70e-03	0	41	0	322961408	14	4564
2026-01-11 00:22:07.47	18.51	17.17	-27.3	-29.3	15.0	0.00e+00	0	41	0	332398592	14	4524
2026-01-11 00:22:10.49	18.52	17.52	-27.6	-29.5	14.7	3.88e-03	0	41	0	341835776	15	4464
2026-01-11 00:22:13.51	18.53	17.88	-27.7	-29.7	14.6	0.00e+00	0	41	0	351272960	15	4519
2026-01-11 00:22:16.52	18.54	18.25	-27.8	-30.0	14.4	4.08e-03	0	41	0	360710144	15	4610
2026-01-11 00:22:19.54	18.55	18.61	-27.7	-29.7	14.6	0.00e+00	0	41	0	370147328	15	4514
2026-01-11 00:22:22.56	18.56	18.99	-27.3	-29.3	15.1	0.00e+00	0	41	0	379584512	14	4522
2026-01-11 00:22:25.57	18.57	19.37	-27.4	-29.4	15.1	0.00e+00	0	42	0	389021696	14	4540
2026-01-11 00:22:28.59	18.58	19.75	-27.6	-29.4	14.8	0.00e+00	0	41	0	398458880	15	4435
2026-01-11 00:22:31.61	18.59	20.15	-27.4	-29.4	15.1	0.00e+00	0	41	0	407896064	14	4542
2026-01-11 00:22:34.63	18.60	20.54	-27.1	-28.8	15.4	0.00e+00	0	41	0	417333248	14	4370
2026-01-11 00:22:37.64	18.62	20.95	-27.2	-29.1	15.3	0.00e+00	0	42	0	426770432	14	4445
2026-01-11 00:22:40.66	18.63	21.36	-26.6	-28.2	16.0	0.00e+00	0	41	0	436207616	13	4310
2026-01-11 00:22:43.68	18.64	21.78	-26.8	-28.7	15.8	0.00e+00	0	42	0	445644800	13	4448
2026-01-11 00:22:46.70	18.65	22.20	-26.6	-28.1	16.1	0.00e+00	0	41	0	455081984	13	4288
2026-01-11 00:22:49.72	18.66	22.64	-26.7	-28.4	15.9	0.00e+00	0	42	0	464519168	13	4366
2026-01-11 00:22:52.74	18.67	23.08	-26.5	-27.9	16.2	0.00e+00	0	42	0	473956352	13	4239
2026-01-11 00:22:55.75	18.68	23.52	-26.4	-28.3	16.3	0.00e+00	0	42	0	483393536	12	4449
2026-01-11 00:22:58.77	18.69	23.98	-26.8	-28.6	15.9	0.00e+00	0	42	0	492830720	13	4418
2026-01-11 00:23:01.79	18.70	24.44	-26.3	-27.6	16.5	0.00e+00	0	41	0	502267904	13	4143
2026-01-11 00:23:04.80	18.71	24.91	-26.8	-28.5	16.0	0.00e+00	0	42	0	511705088	13	4387
2026-01-11 00:23:07.82	18.72	25.39	-26.8	-28.7	15.9	0.00e+00	0	42	0	521142272	13	4439
2026-01-11 00:23:10.84	18.72	25.88	-27.0	-28.5	15.5	0.00e+00	0	42	0	530579456	14	4284
2026-01-11 00:23:13.86	18.73	26.38	-27.0	-28.6	15.7	7.00e-07	0	42	0	540016640	14	4294
2026-01-11 00:23:16.87	18.74	26.89	-26.8	-28.7	15.9	0.00e+00	0	42	0	549453824	13	4434
2026-01-11 00:23:19.89	18.75	27.41	-27.1	-28.6	15.7	3.35e-05	0	42	0	558891008	14	4311
2026-01-11 00:23:22.91	18.76	27.94	-27.3	-29.3	15.4	0.00e+00	0	42	0	568328192	14	4493
2026-01-11 00:23:25.92	18.77	28.47	-27.4	-29.3	15.3	1.41e-04	0	42	0	577765376	14	4506
2026-01-11 00:23:28.94	18.78	29.02	-27.7	-29.5	15.0	6.33e-05	0	42	0	587202560	15	4439
2026-01-11 00:23:31.95	18.79	29.58	-28.3	-30.4	14.3	6.40e-05	0	42	0	596639744	16	4596
2026-01-11 00:23:34.97	18.80	30.15	-27.5	-29.1	15.2	3.80e-06	0	42	0	606076928	15	4340
2026-01-11 00:23:38.00	18.81	30.74	-27.4	-28.9	15.3	1.22e-05	0	42	0	615514112	15	4266
2026-01-11 00:23:41.01	18.82	31.33	-27.0	-28.6	15.8	1.44e-05	0	42	0	624951296	14	4295
2026-01-11 00:23:44.03	18.82	31.94	-26.9	-28.7	16.0	0.00e+00	0	42	0	634388480	13	4439
2026-01-11 00:23:47.05	18.83	32.56	-27.0	-29.0	15.8	0.00e+00	0	42	0	643825664	13	4512
2026-01-11 00:23:50.06	18.84	33.19	-27.3	-29.1	15.5	0.00e+00	0	42	0	653262848	14	4453
2026-01-11 00:23:53.09	18.85	33.84	-27.6	-29.4	15.1	2.21e-05	0	42	0	662700032	15	4427
2026-01-11 00:23:56.10	18.86	34.49	-27.9	-29.9	14.8	0.00e+00	0	42	0	672137216	15	4564
2026-01-11 00:23:59.11	18.87	35.17	-28.2	-30.1	14.6	1.50e-06	0	42	0	681574400	16	4496
2026-01-11 00:24:02.11	18.87	35.85	-28.2	-30.2	14.6	0.00e+00	0	42	0	691011584	16	4514
2026-01-11 00:24:05.13	18.88	36.56	-28.5	-30.3	14.2	2.20e-06	0	42	0	700448768	17	4449
2026-01-11 00:24:08.14	18.89	37.27	-28.9	-31.4	13.5	1.22e-05	0	42	0	709885952	17	4801
2026-01-11 00:24:11.15	18.89	38.01	-29.2	-31.5	13.2	1.75e-05	0	42	0	719323136	18	4701
2026-01-11 00:24:14.16	18.90	38.76	-28.9	-31.4	13.6	7.60e-06	0	42	0	728760320	17	4775
2026-01-11 00:24:17.17	18.91	39.53	-28.8	-30.6	13.8	1.06e-05	0	42	0	738197504	18	4408
2026-01-11 00:24:20.19	18.91	40.31	-28.5	-30.3	14.3	0.00e+00	0	42	0	747634688	17	4433
2026-01-11 00:24:23.22	18.92	41.12	-28.4	-30.1	14.3	7.00e-07	0	42	0	757071872	17	4384
2026-01-11 00:24:26.23	18.93	41.94	-28.5	-30.5	14.1	2.20e-06	0	42	0	766509056	17	4485
2026-01-11 00:24:29.25	18.93	42.79	-29.4	-32.1	12.9	4.42e-05	0	42	0	775946240	18	4898
2026-01-11 00:24:32.27	18.94	43.65	-30.0	-33.1	11.4	3.17e-04	0	42	0	785383424	19	5151
2026-01-11 00:24:35.30	18.94	44.53	-29.6	-32.0	12.7	2.27e-03	0	42	0	794820608	19	4743
2026-01-11 00:24:38.31	18.95	45.43	-29.2	-31.1	13.2	2.89e-05	0	42	0	804257792	19	4472
2026-01-11 00:24:41.32	18.95	46.35	-29.4	-31.6	12.8	4.80e-05	0	42	0	813694976	19	4609
2026-01-11 00:24:44.34	18.95	47.30	-29.4	-31.6	12.8	1.28e-03	0	42	0	823132160	19	4634
2026-01-11 00:24:47.36	18.96	48.26	-28.8	-31.1	13.8	1.63e-03	0	42	0	832569344	17	4689
2026-01-11 00:24:50.38	18.96	49.25	-28.4	-30.6	14.4	8.60e-04	0	42	0	842006528	16	4652
2026-01-11 00:24:53.40	18.96	50.26	-28.5	-30.2	14.3	8.01e-04	0	42	0	851443712	17	4414
2026-01-11 00:24:56.42	18.96	51.29	-27.9	-29.4	15.0	6.61e-04	0	42	0	860880896	16	4298
2026-01-11 00:24:59.44	18.96	52.35	-28.0	-29.8	14.9	0.00e+00	0	42	0	870318080	16	4387
2026-01-11 00:25:02.44	18.96	53.42	-27.9	-29.9	14.9	4.48e-04	0	42	0	879755264	15	4566
2026-01-11 00:25:05.47	18.96	54.53	-28.1	-29.9	14.8	0.00e+00	0	42	0	889192448	16	4440
2026-01-11 00:25:08.49	18.96	55.66	-27.4	-28.3	15.7	2.49e-04	0	42	0	898629632	16	3997
2026-01-11 00:25:11.51	18.96	56.81	-27.2	-28.3	15.8	0.00e+00	0	42	0	908066816	15	4111
2026-01-11 00:25:14.53	18.95	57.99	-27.5	-29.2	15.3	0.00e+00	0	42	0	917504000	15	4353
2026-01-11 00:25:17.54	18.95	59.18	-27.1	-28.1	15.9	0.00e+00	0	42	0	926941184	15	4051
2026-01-11 00:25:20.56	18.94	60.41	-26.8	-27.6	16.2	0.00e+00	0	42	0	936378368	15	3921
2026-01-11 00:25:23.58	18.93	61.65	-26.5	-27.4	16.6	0.00e+00	0	42	0	945815552	14	3991
2026-01-11 00:25:26.60	18.92	62.93	-26.1	-27.0	17.0	7.00e-07	0	42	0	955252736	13	3995
2026-01-11 00:25:29.60	18.90	64.21	-26.4	-27.7	16.6	0.00e+00	0	42	0	964689920	13	4176
2026-01-11 00:25:32.61	18.89	65.53	-25.8	-26.8	17.4	2.20e-06	0	42	0	974127104	12	4035
2026-01-11 00:25:35.63	18.87	66.87	-25.9	-27.6	17.3	0.00e+00	0	42	0	983564288	11	4353
2026-01-11 00:25:38.64	18.84	68.23	-26.2	-27.8	16.9	0.00e+00	0	42	0	993001472	12	4300
2026-01-11 00:25:41.67	18.81	69.62	-25.6	-26.9	17.6	0.00e+00	0	42	0	1002438656	11	4177
2026-01-11 00:25:44.69	18.77	71.02	-25.4	-26.5	17.8	0.00e+00	0	42	0	1011875840	11	4077
2026-01-11 00:25:47.71	18.73	72.45	-25.5	-26.7	17.7	0.00e+00	0	42	0	1021313024	11	4125
2026-01-11 00:25:50.73	18.67	73.89	-26.0	-27.2	17.2	0.00e+00	0	42	0	1030750208	12	4149
2026-01-11 00:25:53.75	18.60	75.35	-26.0	-27.6	14.8	0.00e+00	0	42	0	1040187392	11	4369
2026-01-11 00:25:56.77	18.51	76.83	-26.6	-28.1	16.4	0.00e+00	0	42	0	1049624576	13	4271
2026-01-11 00:25:59.80	18.39	78.33	-26.8	-28.6	16.2	0.00e+00	0	42	0	1059061760	13	4394
2026-01-11 00:26:02.82	18.24	79.84	-27.4	-28.9	15.5	0.00e+00	0	42	0	1068498944	15	4265
2026-01-11 00:26:05.83	18.02	81.35	-27.0	-28.9	16.0	5.97e-04	0	42	0	1077936128	13	4508
2026-01-11 00:26:08.85	17.71	82.88	-26.5	-27.3	16.6	0.00e+00	0	42	0	1087373312	14	3960
2026-01-11 00:26:11.87	17.22	84.41	-27.6	-29.3	15.4	5.69e-04	0	42	0	1096810496	15	4377
2026-01-11 00:26:14.88	16.34	85.95	-28.5	-30.4	14.3	8.79e-04	0	42	0	1106247680	17	4471
2026-01-11 00:26:17.90	14.37	87.50	-28.4	-30.2	14.4	3.15e-04	0	42	0	1115684864	17	4398
2026-01-11 00:26:20.92	6.03	89.03	-28.4	-30.6	14.6	5.88e-04	0	42	0	1125122048	16	4613
2026-01-11 00:26:23.94	219.79	89.35	-31.5	-35.6	9.5	3.41e-03	0	42	0	1133510656	22	5773
2026-01-11 00:26:26.95	205.56	87.83	-27.4	-28.2	15.8	0.00e+00	0	42	0	1143996416	16	3965
2026-01-11 00:26:29.97	203.08	86.28	-27.2	-28.9	15.7	0.00e+00	0	42	0	1153433600	14	4390
2026-01-11 00:26:32.99	202.07	84.74	-26.8	-28.6	16.2	1.93e-03	0	42	0	1161822208	13	4406
2026-01-11 00:26:36.01	201.52	83.20	-27.0	-28.3	16.1	0.00e+00	0	42	0	1172307968	14	4227
2026-01-11 00:26:39.03	201.18	81.66	-27.6	-29.3	15.3	0.00e+00	0	42	0	1180696576	15	4373
2026-01-11 00:26:42.06	200.94	80.14	-27.7	-29.0	15.3	0.00e+00	0	42	0	1191182336	16	4191
2026-01-11 00:26:45.08	200.78	78.63	-27.6	-29.2	15.3	0.00e+00	0	42	0	1200619520	15	4366
2026-01-11 00:26:48.10	200.66	77.13	-26.5	-28.0	16.5	0.00e+00	0	42	0	1210056704	13	4251
2026-01-11 00:26:51.10	200.56	75.66	-25.3	-25.8	17.8	0.00e+00	0	42	0	1219493888	12	3793
2026-01-11 00:26:54.12	200.49	74.19	-25.2	-26.4	18.1	0.00e+00	0	42	0	1227882496	10	4156
2026-01-11 00:26:57.13	200.43	72.74	-25.4	-26.5	17.7	0.00e+00	0	42	0	1237319680	11	4076
2026-01-11 00:27:00.14	200.38	71.31	-26.5	-27.9	16.5	0.00e+00	0	42	0	1246756864	13	4236
2026-01-11 00:27:03.16	200.34	69.90	-27.1	-28.3	15.7	0.00e+00	0	42	0	1256194048	15	4108
2026-01-11 00:27:06.18	200.31	68.51	-26.2	-27.3	16.9	0.00e+00	0	42	0	1265631232	13	4050
2026-01-11 00:27:09.19	200.28	67.14	-27.2	-28.9	15.7	0.00e+00	0	42	0	1275068416	14	4381
2026-01-11 00:27:12.21	200.26	65.79	-26.2	-27.1	16.8	0.00e+00	0	42	0	1284505600	13	4018
2026-01-11 00:27:15.23	200.24	64.47	-24.9	-25.9	18.4	0.00e+00	0	42	0	1293942784	10	4021
2026-01-11 00:27:18.25	200.22	63.16	-27.1	-28.8	15.6	0.00e+00	0	42	0	1303379968	14	4359
2026-01-11 00:27:21.27	200.21	61.88	-26.5	-27.8	16.4	0.00e+00	0	42	0	1312817152	13	4211
2026-01-11 00:27:24.28	200.20	60.63	-25.9	-27.0	17.2	0.00e+00	0	42	0	1322254336	12	4088
2026-01-11 00:27:27.29	200.19	59.40	-27.5	-29.1	15.3	0.00e+00	0	42	0	1331691520	15	4342
2026-01-11 00:27:30.31	200.18	58.19	-25.9	-26.5	17.1	0.00e+00	0	42	0	1341128704	13	3876
2026-01-11 00:27:33.32	200.18	57.01	-26.9	-28.7	15.9	0.00e+00	0	42	0	1350565888	13	4445
2026-01-11 00:27:36.34	200.17	55.85	-28.4	-30.7	14.2	0.00e+00	0	42	0	1360003072	16	4703
2026-01-11 00:27:39.36	200.17	54.71	-28.6	-30.6	14.0	4.50e-06	0	42	0	1369440256	17	4540
2026-01-11 00:27:42.37	200.17	53.61	-26.8	-28.1	16.1	0.00e+00	0	42	0	1378877440	14	4157
2026-01-11 00:27:45.38	200.17	52.52	-27.8	-29.8	14.8	1.50e-06	0	42	0	1388314624	15	4541
2026-01-11 00:27:48.40	200.17	51.46	-28.6	-30.6	14.0	0.00e+00	0	42	0	1397751808	17	4535
2026-01-11 00:27:51.42	200.17	50.41	-29.5	-31.9	12.6	7.55e-05	0	42	0	1407188992	19	4735
2026-01-11 00:27:54.44	200.17	49.40	-28.8	-30.6	13.6	5.41e-05	0	42	0	1416626176	18	4421
2026-01-11 00:27:57.46	200.17	48.40	-28.7	-30.7	13.9	3.58e-05	0	42	0	1426063360	17	4568
2026-01-11 00:28:00.48	200.17	47.43	-30.0	-32.7	11.8	4.71e-04	0	42	0	1435500544	20	4924
2026-01-11 00:28:03.50	200.18	46.47	-29.5	-31.7	12.7	1.01e-04	0	42	0	1444937728	19	4659
2026-01-11 00:28:06.52	200.18	45.54	-29.4	-32.1	12.8	6.17e-05	0	42	0	1454374912	18	4893
2026-01-11 00:28:09.54	200.18	44.63	-29.8	-32.6	12.0	3.59e-04	0	42	0	1463812096	19	4982
2026-01-11 00:28:12.57	200.19	43.74	-28.7	-30.4	13.7	4.95e-05	0	42	0	1473249280	18	4379
2026-01-11 00:28:15.59	200.19	42.87	-28.7	-30.4	13.7	2.20e-06	0	42	0	1482686464	18	4368
2026-01-11 00:28:18.60	200.20	42.03	-29.2	-31.6	12.9	3.58e-05	0	42	0	1492123648	18	4760
2026-01-11 00:28:21.62	200.20	41.19	-29.4	-32.1	12.8	7.62e-05	0	42	0	1501560832	18	4913
2026-01-11 00:28:24.64	200.21	40.38	-29.3	-31.8	12.9	4.19e-05	0	42	0	1510998016	18	4820
2026-01-11 00:28:27.66	200.21	39.59	-29.3	-31.7	12.9	4.11e-05	0	42	0	1520435200	18	4789
2026-01-11 00:28:30.69	200.22	38.81	-29.1	-31.5	13.1	3.73e-05	0	42	0	1529872384	18	4710
2026-01-11 00:28:33.71	200.22	38.05	-28.7	-30.8	12.8	1.52e-05	0	42	0	1539309568	17	4597
2026-01-11 00:28:36.71	200.23	37.31	-27.7	-29.6	14.9	0.00e+00	0	42	0	1548746752	15	4459
2026-01-11 00:28:39.73	200.24	36.59	-28.4	-30.7	14.2	7.00e-07	0	42	0	1558183936	16	4674
2026-01-11 00:28:42.74	200.24	35.88	-28.2	-30.2	14.4	1.50e-06	0	42	0	1567621120	16	4519
2026-01-11 00:28:45.76	200.25	35.18	-28.2	-30.1	14.5	2.43e-03	0	42	0	1577058304	16	4499
2026-01-11 00:28:48.78	200.25	34.50	-28.1	-29.9	14.5	0.00e+00	0	42	0	1586495488	16	4446
2026-01-11 00:28:51.80	200.26	33.84	-27.5	-29.2	15.0	1.28e-03	0	42	0	1595932672	15	4377
2026-01-11 00:28:54.82	200.27	33.19	-27.6	-29.5	14.9	2.25e-04	0	42	0	1605369856	15	4449
2026-01-11 00:28:57.85	200.28	32.55	-27.5	-29.3	15.0	3.17e-04	0	42	0	1614807040	15	4382
2026-01-11 00:29:00.87	200.28	31.92	-27.3	-29.2	15.3	2.43e-04	0	42	0	1624244224	14	4489
2026-01-11 00:29:03.89	200.29	31.31	-27.3	-29.1	15.4	3.01e-03	0	42	0	1633681408	14	4462
2026-01-11 00:29:06.90	200.30	30.71	-27.5	-29.3	15.0	3.37e-04	0	42	0	1643118592	15	4397
2026-01-11 00:29:09.91	200.30	30.13	-27.5	-29.1	15.1	0.00e+00	0	42	0	1652555776	15	4351
2026-01-11 00:29:12.94	200.31	29.55	-27.5	-29.7	15.0	5.98e-04	0	42	0	1661992960	14	4622
2026-01-11 00:29:15.95	200.32	28.99	-27.5	-29.6	15.1	6.83e-04	0	42	0	1671430144	14	4602
2026-01-11 00:29:18.97	200.33	28.44	-27.1	-28.8	15.5	7.25e-04	0	42	0	1680867328	14	4362
2026-01-11 00:29:21.98	200.33	27.90	-26.9	-28.8	15.8	7.24e-04	0	42	0	1690304512	13	4478
2026-01-11 00:29:24.99	200.34	27.37	-26.6	-28.1	16.1	0.00e+00	0	42	0	1699741696	13	4292
2026-01-11 00:29:28.01	200.35	26.84	-26.6	-28.2	16.0	8.13e-04	0	42	0	1709178880	13	4316
2026-01-11 00:29:31.03	200.36	26.33	-26.5	-28.3	16.2	0.00e+00	0	42	0	1718616064	12	4470
2026-01-11 00:29:34.04	200.37	25.83	-26.4	-28.3	16.2	8.89e-04	0	42	0	1728053248	12	4452
2026-01-11 00:29:37.06	200.37	25.34	-26.8	-28.5	15.8	0.00e+00	0	42	0	1737490432	13	4391
2026-01-11 00:29:40.05	200.38	24.86	-26.7	-28.3	16.0	0.00e+00	0	42	0	1746927616	13	4331
2026-01-11 00:29:43.06	200.39	24.39	-26.4	-28.2	16.3	0.00e+00	0	42	0	1756364800	12	4431
2026-01-11 00:29:46.07	200.40	23.92	-26.3	-27.9	16.4	0.00e+00	0	42	0	1765801984	12	4350
2026-01-11 00:29:49.08	200.41	23.46	-26.5	-28.3	16.2	0.00e+00	0	42	0	1775239168	12	4460
2026-01-11 00:29:52.11	200.42	23.01	-26.7	-28.3	15.9	0.00e+00	0	42	0	1784676352	13	4339
2026-01-11 00:29:55.12	200.42	22.57	-26.6	-28.1	16.1	0.00e+00	0	42	0	1794113536	13	4276
2026-01-11 00:29:58.14	200.43	22.13	-26.5	-28.0	16.1	0.00e+00	0	42	0	1803550720	13	4268
2026-01-11 00:30:01.15	200.44	21.71	-26.7	-28.3	15.9	3.86e-03	0	42	0	1812987904	13	4340
2026-01-11 00:30:04.16	200.45	21.29	-26.9	-28.8	15.6	0.00e+00	0	42	0	1822425088	13	4500
2026-01-11 00:30:07.17	200.46	20.88	-27.3	-29.3	15.1	3.46e-03	0	42	0	1831862272	14	4530
2026-01-11 00:30:10.20	200.47	20.47	-26.9	-28.8	15.6	0.00e+00	0	42	0	1841299456	13	4483
2026-01-11 00:30:13.22	200.47	20.07	-26.9	-28.9	15.6	3.65e-03	0	42	0	1850736640	13	4527
2026-01-11 00:30:16.24	200.48	19.67	-27.0	-29.0	15.5	3.41e-03	0	42	0	1860173824	13	4563
2026-01-11 00:30:19.25	200.49	19.28	-27.4	-29.5	14.9	3.65e-03	0	42	0	1869611008	14	4577
2026-01-11 00:30:22.27	200.50	18.90	-26.9	-28.4	15.5	3.61e-03	0	42	0	1879048192	14	4280
2026-01-11 00:30:25.28	200.51	18.53	-26.9	-28.9	15.5	0.00e+00	0	42	0	1888485376	13	4517
2026-01-11 00:30:28.29	200.52	18.16	-27.1	-28.9	15.2	3.12e-03	0	42	0	1897922560	14	4409
2026-01-11 00:30:31.30	200.52	17.79	-27.3	-29.2	15.0	0.00e+00	0	42	0	1907359744	14	4496
2026-01-11 00:30:34.33	200.53	17.43	-27.4	-29.5	14.8	0.00e+00	0	42	0	1916796928	14	4586
2026-01-11 00:30:37.35	200.54	17.08	-27.6	-29.4	14.6	7.00e-07	0	42	0	1926234112	15	4435
2026-01-11 00:30:40.37	200.55	16.73	-27.5	-29.3	14.7	7.00e-07	0	42	0	1935671296	15	4403
2026-01-11 00:30:43.39	200.56	16.38	-27.5	-29.2	14.6	0.00e+00	0	42	0	1945108480	15	4403
2026-01-11 00:30:46.40	200.57	16.04	-27.6	-29.4	14.6	7.00e-07	0	42	0	1954545664	15	4454
2026-01-11 00:30:49.43	200.58	15.71	-27.6	-29.5	14.5	7.00e-07	0	42	0	1963982848	15	4484
2026-01-11 00:30:52.43	200.59	15.38	-27.7	-29.8	14.3	7.00e-07	0	42	0	1973420032	15	4567
2026-01-11 00:30:55.45	200.59	15.05	-27.7	-29.7	14.3	7.00e-07	0	42	0	1982857216	15	4545
2026-01-11 00:30:58.47	200.60	14.73	-27.8	-29.9	14.2	0.00e+00	0	42	0	1992294400	15	4613
2026-01-11 00:31:01.50	200.61	14.41	-27.8	-29.9	14.2	2.20e-06	0	42	0	2001731584	15	4605
2026-01-11 00:31:04.51	200.62	14.10	-27.8	-30.1	14.1	2.20e-06	0	42	0	2011168768	15	4660
2026-01-11 00:31:07.52	200.63	13.79	-27.9	-30.3	13.9	4.50e-06	0	42	0	2020605952	15	4719
2026-01-11 00:31:10.53	200.64	13.48	-28.3	-30.7	13.5	1.22e-05	0	42	0	2030043136	16	4748
2026-01-11 00:31:13.55	200.65	13.18	-28.4	-30.5	13.3	2.21e-05	0	42	0	2039480320	17	4558
2026-01-11 00:31:16.56	200.66	12.88	-28.2	-30.3	13.7	7.60e-06	0	42	0	2048917504	16	4613
2026-01-11 00:31:19.58	200.66	12.59	-28.1	-30.2	13.7	3.00e-06	0	42	0	2058354688	16	4587
2026-01-11 00:31:22.59	200.67	12.30	-27.9	-30.3	13.8	4.50e-06	0	42	0	2067791872	15	4730
2026-01-11 00:31:25.61	200.68	12.01	-28.2	-30.4	13.6	2.53e-04	0	42	0	2077229056	16	4636
2026-01-11 00:31:28.63	200.69	11.73	-28.2	-30.5	13.6	9.10e-06	0	42	0	2086666240	16	4667
2026-01-11 00:31:31.64	200.70	11.45	-28.2	-30.5	13.5	2.83e-04	0	42	0	2096103424	16	4691
2026-01-11 00:31:34.66	200.71	11.17	-28.2	-30.5	13.5	9.10e-06	0	42	0	2105540608	16	4673
2026-01-11 00:31:37.68	200.72	10.89	-28.3	-30.7	13.4	2.32e-04	0	42	0	2114977792	16	4742
2026-01-11 00:31:40.70	200.73	10.62	-28.5	-30.8	13.0	1.83e-04	0	42	0	2124414976	17	4662
2026-01-11 00:31:43.71	200.73	10.35	-28.5	-30.7	13.0	2.49e-04	0	42	0	2133852160	17	4631
2026-01-11 00:31:46.73	200.74	10.09	-28.6	-30.9	12.9	2.13e-04	0	42	0	2142240768	17	4702
2026-01-11 00:31:49.75	200.75	9.82	-28.6	-31.0	12.8	6.86e-05	0	42	0	2152726528	17	4720
2026-01-11 00:31:52.77	200.76	9.56	-28.6	-30.9	12.8	2.02e-04	0	42	0	2162163712	17	4704
2026-01-11 00:31:55.79	200.77	9.31	-28.6	-30.9	12.8	6.71e-05	0	42	0	2171600896	17	4715
2026-01-11 00:31:58.81	200.78	9.05	-28.7	-31.2	12.6	2.82e-04	0	42	0	2181038080	17	4820
2026-01-11 00:32:01.82	200.79	8.80	-28.8	-31.6	12.3	1.60e-04	0	42	0	2189426688	17	4947
2026-01-11 00:32:04.84	200.80	8.55	-29.1	-31.7	11.9	2.80e-04	0	42	0	2199912448	18	4884
2026-01-11 00:32:07.86	200.80	8.30	-29.0	-31.6	12.0	4.93e-04	0	42	0	2209349632	18	4848
2026-01-11 00:32:10.87	200.81	8.06	-29.0	-31.6	11.9	3.97e-04	0	42	0	2217738240	18	4855
2026-01-11 00:32:13.89	200.82	7.81	-29.0	-31.5	12.0	3.62e-04	0	42	0	2228224000	18	4819
2026-01-11 00:32:16.91	200.83	7.57	-28.9	-31.8	12.0	3.41e-04	0	42	0	2236612608	17	5037
2026-01-11 00:32:19.93	200.84	7.34	-28.9	-31.9	12.0	3.64e-04	0	42	0	2246049792	17	5062
2026-01-11 00:32:22.95	200.85	7.10	-29.3	-32.4	11.3	1.08e-03	0	42	0	2256535552	18	5155
2026-01-11 00:32:25.97	200.86	6.87	-33.5	-45.8	3.8	1.49e+00	0	42	104	2257584128	26	14817

#Closed at: 2026-01-11 00:32:26
#Recorded file [2257 MB]: D:/data/31010_260111_032020.dat