passes_logs/2026/01/11/R2M6_AANII_01/R2M6_AANII_01__20260111_033007_FENGYUN_3D_rec.log

#Pass ID: 20260111_033007_FENGYUN 3D
#Satellite: FENGYUN 3D
#Configuration: FENGYUN 3D
#almurnet v.1.7.20240730
#Start time: 2026-01-11 03:30:09

#Version: 2.2.20231116
#Station: R2M6_AANII_01
#Location: 30.233357 lon 59.946436 lat
#TLE: 1 43010U 17072A   26009.92921666 -.00000228  00000+0 -86059-4 0  9998
#TLE: 2 43010  98.9936 341.6668 0002176 116.7510 243.3888 14.19693142422537

#Time	Az	El	Level	Level2	SNR	BER	BlckErr	Temp	State	Recorded	gain1	gain2
2026-01-11 03:30:09.08	13.79	7.09	-30.5	-34.8	5.0	8.04e-01	0	40	0	0	21	5897
2026-01-11 03:30:12.09	13.63	7.31	-30.6	-34.9	7.6	1.10e-01	0	40	0	5242880	21	5909
2026-01-11 03:30:15.11	13.46	7.53	-30.3	-34.3	8.4	4.78e-02	0	40	0	22020096	20	5733
2026-01-11 03:30:18.13	13.30	7.76	-29.8	-33.4	9.5	2.55e-02	0	40	0	38797312	19	5429
2026-01-11 03:30:21.14	13.13	7.98	-28.6	-31.2	11.6	3.82e-03	0	40	0	56623104	17	4845
2026-01-11 03:30:24.16	12.96	8.21	-28.3	-30.9	12.2	5.34e-04	0	40	0	73400320	16	4839
2026-01-11 03:30:27.19	12.79	8.44	-27.6	-29.7	13.1	2.38e-03	0	40	0	90177536	15	4578
2026-01-11 03:30:30.21	12.61	8.67	-28.0	-30.2	12.7	2.40e-03	0	40	0	106954752	16	4597
2026-01-11 03:30:33.23	12.43	8.91	-28.0	-30.1	12.8	2.66e-03	0	40	0	123731968	16	4575
2026-01-11 03:30:36.24	12.25	9.14	-26.9	-29.1	14.1	2.10e-03	0	41	0	141557760	13	4621
2026-01-11 03:30:39.25	12.07	9.38	-26.9	-28.9	14.2	1.98e-03	0	40	0	158334976	13	4569
2026-01-11 03:30:42.26	11.88	9.62	-27.0	-28.8	14.0	3.40e-06	0	40	0	175112192	14	4408
2026-01-11 03:30:45.28	11.69	9.86	-26.7	-28.5	14.5	3.40e-06	0	41	0	191889408	13	4450
2026-01-11 03:30:48.31	11.49	10.10	-26.6	-28.2	14.7	1.89e-03	0	41	0	208666624	13	4363
2026-01-11 03:30:51.34	11.29	10.35	-26.6	-28.4	14.6	1.10e-06	0	41	0	226492416	13	4403
2026-01-11 03:30:54.36	11.09	10.60	-26.5	-28.1	14.8	1.10e-06	0	41	0	243269632	13	4332
2026-01-11 03:30:57.37	10.88	10.85	-26.8	-28.8	14.4	5.70e-06	0	41	0	260046848	13	4515
2026-01-11 03:31:00.39	10.67	11.10	-26.5	-28.1	14.8	0.00e+00	0	41	0	276824064	13	4324
2026-01-11 03:31:03.41	10.46	11.35	-26.5	-28.2	14.8	0.00e+00	0	41	0	293601280	13	4343
2026-01-11 03:31:06.43	10.24	11.61	-26.4	-28.3	15.0	0.00e+00	0	41	0	310378496	12	4480
2026-01-11 03:31:09.45	10.02	11.87	-26.3	-28.0	15.1	0.00e+00	0	41	0	328204288	12	4423
2026-01-11 03:31:12.46	9.80	12.13	-26.0	-27.5	15.5	0.00e+00	0	41	0	344981504	12	4268
2026-01-11 03:31:15.48	9.57	12.39	-25.8	-26.9	15.8	0.00e+00	0	41	0	361758720	12	4116
2026-01-11 03:31:18.50	9.33	12.66	-25.8	-27.5	15.9	1.37e-05	0	41	0	378535936	11	4385
2026-01-11 03:31:21.52	9.09	12.93	-25.7	-27.2	16.0	0.00e+00	0	41	0	395313152	11	4301
2026-01-11 03:31:24.54	8.85	13.20	-25.8	-27.5	15.9	0.00e+00	0	41	0	413138944	11	4379
2026-01-11 03:31:27.57	8.60	13.47	-25.8	-27.5	15.4	0.00e+00	0	41	0	429916160	11	4378
2026-01-11 03:31:30.59	8.35	13.75	-25.8	-27.6	15.9	1.62e-04	0	41	0	446693376	11	4389
2026-01-11 03:31:33.61	8.09	14.03	-25.8	-27.4	16.0	1.34e-04	0	41	0	463470592	11	4352
2026-01-11 03:31:36.62	7.82	14.31	-25.8	-27.5	15.9	0.00e+00	0	41	0	480247808	11	4371
2026-01-11 03:31:39.64	7.56	14.59	-25.8	-27.6	15.9	1.09e-04	0	41	0	498073600	11	4388
2026-01-11 03:31:42.66	7.28	14.88	-25.7	-27.3	16.1	6.86e-05	0	41	0	514850816	11	4313
2026-01-11 03:31:45.69	7.00	15.17	-25.4	-26.6	16.5	1.02e-04	0	41	0	531628032	11	4130
2026-01-11 03:31:48.71	6.72	15.46	-25.3	-26.9	16.6	1.09e-04	0	41	0	548405248	10	4320
2026-01-11 03:31:51.73	6.42	15.75	-25.1	-26.5	16.8	1.01e-04	0	42	0	565182464	10	4206
2026-01-11 03:31:54.74	6.13	16.05	-24.9	-26.1	17.1	1.62e-04	0	41	0	583008256	10	4101
2026-01-11 03:31:57.77	5.82	16.35	-25.0	-26.2	17.1	0.00e+00	0	41	0	599785472	10	4126
2026-01-11 03:32:00.79	5.51	16.65	-25.1	-26.4	16.9	1.61e-04	0	42	0	616562688	10	4186
2026-01-11 03:32:03.80	5.20	16.96	-25.1	-26.5	16.9	0.00e+00	0	41	0	633339904	10	4204
2026-01-11 03:32:06.81	4.88	17.27	-25.0	-26.2	17.0	0.00e+00	0	42	0	650117120	10	4140
2026-01-11 03:32:09.84	4.54	17.58	-24.9	-25.9	17.2	0.00e+00	0	41	0	667942912	10	4060
2026-01-11 03:32:12.86	4.21	17.89	-24.8	-26.2	17.3	0.00e+00	0	41	0	684720128	9	4263
2026-01-11 03:32:15.87	3.86	18.21	-24.6	-25.8	17.6	0.00e+00	0	41	0	701497344	9	4133
2026-01-11 03:32:18.90	3.51	18.53	-24.5	-25.7	17.6	0.00e+00	0	42	0	718274560	9	4118
2026-01-11 03:32:21.92	3.15	18.86	-24.5	-26.0	17.7	0.00e+00	0	42	0	735051776	8	4321
2026-01-11 03:32:24.94	2.78	19.18	-24.3	-25.3	17.8	0.00e+00	0	42	0	752877568	9	4011
2026-01-11 03:32:27.96	2.40	19.51	-24.2	-25.5	18.0	0.00e+00	0	42	0	769654784	8	4180
2026-01-11 03:32:30.97	2.02	19.85	-24.4	-25.9	17.8	0.00e+00	0	42	0	786432000	8	4278
2026-01-11 03:32:33.98	1.63	20.18	-24.2	-25.5	18.0	0.00e+00	0	42	0	803209216	8	4187
2026-01-11 03:32:37.00	1.23	20.52	-24.1	-25.3	18.1	0.00e+00	0	42	0	819986432	8	4136
2026-01-11 03:32:40.01	0.82	20.86	-24.0	-25.0	18.3	0.00e+00	0	42	0	837812224	8	4061
2026-01-11 03:32:43.03	0.39	21.21	-24.0	-25.0	14.4	0.00e+00	0	42	0	854589440	8	4051
2026-01-11 03:32:46.05	359.96	21.56	-24.0	-25.0	18.3	1.38e-03	0	42	0	871366656	8	4044
2026-01-11 03:32:49.07	359.52	21.91	-24.0	-25.1	18.3	5.37e-05	0	42	0	888143872	8	4070
2026-01-11 03:32:52.07	359.07	22.26	-23.7	-24.9	18.6	3.40e-06	0	42	0	904921088	7	4132
2026-01-11 03:32:55.09	358.61	22.62	-23.6	-24.6	18.8	1.23e-03	0	42	0	922746880	7	4072
2026-01-11 03:32:58.12	358.14	22.98	-23.5	-24.5	18.9	1.48e-03	0	42	0	939524096	7	4027
2026-01-11 03:33:01.14	357.65	23.34	-23.5	-24.5	18.8	3.89e-05	0	42	0	956301312	7	4050
2026-01-11 03:33:04.16	357.16	23.71	-23.4	-24.4	18.9	1.17e-03	0	42	0	973078528	7	4015
2026-01-11 03:33:07.17	356.65	24.08	-23.5	-24.9	18.9	1.18e-03	0	42	0	989855744	6	4245
2026-01-11 03:33:10.19	356.13	24.45	-23.5	-24.6	18.8	1.09e-03	0	42	0	1007681536	7	4061
2026-01-11 03:33:13.20	355.60	24.82	-23.9	-25.4	18.4	9.47e-04	0	42	0	1024458752	7	4276
2026-01-11 03:33:16.22	355.05	25.20	-23.9	-25.3	18.5	8.00e-04	0	42	0	1041235968	7	4233
2026-01-11 03:33:19.23	354.49	25.58	-23.6	-24.6	18.8	0.00e+00	0	42	0	1058013184	7	4069
2026-01-11 03:33:22.26	353.92	25.96	-23.3	-24.1	19.1	0.00e+00	0	42	0	1074790400	7	3933
2026-01-11 03:33:25.27	353.33	26.34	-23.2	-24.3	19.3	7.79e-04	0	42	0	1091567616	6	4108
2026-01-11 03:33:28.28	352.73	26.73	-23.1	-24.3	19.3	0.00e+00	0	42	0	1109393408	6	4091
2026-01-11 03:33:31.30	352.11	27.12	-22.9	-23.8	19.6	0.00e+00	0	42	0	1126170624	6	3973
2026-01-11 03:33:34.32	351.48	27.51	-22.9	-23.7	19.6	0.00e+00	0	42	0	1142947840	6	3948
2026-01-11 03:33:37.33	350.83	27.90	-23.1	-24.1	19.4	0.00e+00	0	42	0	1159725056	6	4043
2026-01-11 03:33:40.35	350.16	28.29	-23.2	-24.3	19.3	0.00e+00	0	42	0	1176502272	6	4097
2026-01-11 03:33:43.36	349.48	28.68	-23.1	-24.1	19.4	0.00e+00	0	42	0	1193279488	6	4048
2026-01-11 03:33:46.38	348.78	29.08	-23.0	-24.0	19.5	0.00e+00	0	42	0	1211105280	6	4014
2026-01-11 03:33:49.40	348.07	29.47	-23.0	-24.0	19.5	0.00e+00	0	42	0	1227882496	6	4016
2026-01-11 03:33:52.42	347.33	29.87	-23.0	-23.9	19.5	0.00e+00	0	42	0	1244659712	6	4018
2026-01-11 03:33:55.44	346.58	30.27	-23.0	-23.9	19.5	0.00e+00	0	42	0	1261436928	6	4011
2026-01-11 03:33:58.46	345.80	30.66	-23.2	-24.3	19.4	0.00e+00	0	42	0	1278214144	6	4093
2026-01-11 03:34:01.47	345.01	31.06	-23.3	-24.5	19.3	0.00e+00	0	42	0	1294991360	6	4149
2026-01-11 03:34:04.49	344.20	31.45	-23.0	-24.0	19.5	1.26e-04	0	42	0	1312817152	6	4030
2026-01-11 03:34:07.51	343.37	31.84	-23.0	-24.0	19.5	0.00e+00	0	42	0	1329594368	6	4036
2026-01-11 03:34:10.53	342.52	32.23	-22.9	-23.7	19.7	0.00e+00	0	42	0	1346371584	6	3946
2026-01-11 03:34:13.55	341.64	32.62	-23.1	-24.2	19.4	1.60e-05	0	42	0	1363148800	6	4087
2026-01-11 03:34:16.58	340.74	33.01	-23.1	-24.1	19.5	0.00e+00	0	42	0	1380974592	6	4040
2026-01-11 03:34:19.60	339.83	33.39	-23.0	-24.1	19.5	8.04e-04	0	42	0	1397751808	6	4043
2026-01-11 03:34:22.62	338.89	33.77	-22.7	-23.4	19.9	8.06e-04	0	42	0	1414529024	6	3878
2026-01-11 03:34:25.63	337.93	34.14	-22.6	-23.7	20.0	1.07e-03	0	42	0	1431306240	5	4065
2026-01-11 03:34:28.65	336.95	34.51	-22.6	-23.6	20.0	8.37e-04	0	42	0	1448083456	5	4036
2026-01-11 03:34:31.68	335.94	34.88	-22.6	-23.5	20.0	9.03e-04	0	42	0	1464860672	5	4022
2026-01-11 03:34:34.69	334.91	35.23	-22.7	-23.7	20.0	0.00e+00	0	42	0	1482686464	5	4072
2026-01-11 03:34:37.71	333.86	35.58	-22.7	-23.9	19.9	7.11e-04	0	42	0	1499463680	5	4106
2026-01-11 03:34:40.72	332.79	35.93	-22.4	-23.2	20.2	6.24e-04	0	42	0	1516240896	5	3955
2026-01-11 03:34:43.73	331.70	36.26	-22.3	-23.0	20.3	6.67e-04	0	42	0	1533018112	5	3891
2026-01-11 03:34:46.75	330.58	36.59	-22.7	-23.7	20.0	0.00e+00	0	42	0	1549795328	5	4074
2026-01-11 03:34:49.78	329.43	36.91	-22.5	-23.4	20.1	2.62e-04	0	42	0	1567621120	5	3988
2026-01-11 03:34:52.79	328.27	37.21	-22.5	-23.3	20.1	0.00e+00	0	42	0	1584398336	5	3976
2026-01-11 03:34:55.81	327.08	37.51	-22.8	-23.9	19.8	0.00e+00	0	42	0	1601175552	5	4115
2026-01-11 03:34:58.83	325.87	37.79	-22.5	-23.4	20.1	0.00e+00	0	42	0	1617952768	5	3998
2026-01-11 03:35:01.86	324.64	38.06	-22.7	-23.9	19.9	0.00e+00	0	42	0	1634729984	5	4115
2026-01-11 03:35:04.88	323.39	38.32	-22.7	-23.9	19.9	0.00e+00	0	42	0	1652555776	5	4102
2026-01-11 03:35:07.90	322.12	38.57	-22.5	-23.4	20.1	0.00e+00	0	42	0	1669332992	5	3985
2026-01-11 03:35:10.93	320.83	38.80	-22.5	-23.4	20.1	0.00e+00	0	42	0	1686110208	5	3990
2026-01-11 03:35:13.96	319.52	39.01	-22.7	-23.8	19.9	0.00e+00	0	42	0	1702887424	5	4093
2026-01-11 03:35:16.98	318.19	39.21	-22.5	-23.4	20.2	0.00e+00	0	42	0	1719664640	5	3979
2026-01-11 03:35:19.99	316.86	39.39	-22.3	-23.1	20.3	0.00e+00	0	42	0	1737490432	5	3914
2026-01-11 03:35:23.02	315.50	39.56	-22.7	-23.7	20.0	0.00e+00	0	42	0	1754267648	5	4072
2026-01-11 03:35:26.03	314.14	39.70	-22.7	-23.8	19.9	0.00e+00	0	42	0	1771044864	5	4077
2026-01-11 03:35:29.06	312.76	39.83	-22.2	-23.3	20.4	0.00e+00	0	42	0	1787822080	4	4091
2026-01-11 03:35:32.08	311.37	39.94	-22.6	-23.7	20.0	0.00e+00	0	42	0	1804599296	5	4058
2026-01-11 03:35:35.09	309.98	40.03	-22.7	-23.8	19.9	1.67e-04	0	42	0	1822425088	5	4087
2026-01-11 03:35:38.10	308.57	40.11	-22.6	-23.6	20.0	0.00e+00	0	42	0	1839202304	5	4051
2026-01-11 03:35:41.12	307.16	40.16	-22.9	-24.3	19.7	7.89e-05	0	42	0	1855979520	5	4209
2026-01-11 03:35:44.14	305.75	40.19	-22.4	-23.3	20.2	6.06e-05	0	42	0	1872756736	5	3959
2026-01-11 03:35:47.16	304.33	40.20	-22.6	-23.6	20.0	0.00e+00	0	42	0	1889533952	5	4044
2026-01-11 03:35:50.18	302.92	40.20	-22.7	-23.8	20.0	0.00e+00	0	42	0	1907359744	5	4080
2026-01-11 03:35:53.20	301.50	40.17	-22.1	-22.6	20.4	0.00e+00	0	42	0	1924136960	5	3802
2026-01-11 03:35:56.23	300.09	40.12	-22.2	-22.8	20.3	0.00e+00	0	42	0	1940914176	5	3842
2026-01-11 03:35:59.25	298.68	40.06	-22.6	-23.7	19.6	1.10e-06	0	42	0	1957691392	5	4067
2026-01-11 03:36:02.27	297.28	39.97	-22.6	-23.7	19.7	0.00e+00	0	42	0	1974468608	5	4061
2026-01-11 03:36:05.28	295.89	39.87	-22.5	-23.5	19.8	0.00e+00	0	42	0	1992294400	5	4009
2026-01-11 03:36:08.30	294.51	39.75	-22.9	-24.1	19.7	0.00e+00	0	42	0	2009071616	5	4170
2026-01-11 03:36:11.32	293.13	39.60	-22.0	-22.3	20.7	0.00e+00	0	42	0	2025848832	5	3735
2026-01-11 03:36:14.34	291.77	39.45	-22.2	-23.2	20.4	0.00e+00	0	42	0	2042626048	4	4055
2026-01-11 03:36:17.36	290.43	39.27	-22.1	-23.1	20.5	0.00e+00	0	42	0	2059403264	4	4034
2026-01-11 03:36:20.37	289.10	39.08	-22.3	-23.5	20.3	0.00e+00	0	42	0	2077229056	4	4140
2026-01-11 03:36:23.39	287.79	38.87	-22.3	-23.5	20.3	0.00e+00	0	42	0	2094006272	4	4117
2026-01-11 03:36:26.40	286.50	38.64	-22.2	-22.8	20.4	0.00e+00	0	42	0	2110783488	5	3860
2026-01-11 03:36:29.41	285.22	38.40	-21.9	-22.7	20.7	0.00e+00	0	42	0	2127560704	4	3930
2026-01-11 03:36:32.43	283.96	38.15	-22.0	-22.9	20.6	0.00e+00	0	42	0	2144337920	4	3975
2026-01-11 03:36:35.45	282.73	37.88	-22.2	-23.3	20.4	0.00e+00	0	42	0	2162163712	4	4082
2026-01-11 03:36:38.47	281.51	37.60	-22.0	-22.8	20.6	0.00e+00	0	42	0	2178940928	4	3956
2026-01-11 03:36:41.48	280.31	37.31	-21.8	-22.5	20.4	0.00e+00	0	42	0	2195718144	4	3892
2026-01-11 03:36:44.50	279.14	37.00	-21.8	-22.4	20.4	0.00e+00	0	42	0	2212495360	4	3855
2026-01-11 03:36:47.52	277.99	36.69	-22.3	-23.5	20.2	6.68e-04	0	42	0	2229272576	4	4138
2026-01-11 03:36:50.54	276.86	36.37	-22.4	-23.7	20.1	6.06e-05	0	42	0	2247098368	4	4188
2026-01-11 03:36:53.56	275.75	36.03	-22.2	-22.7	20.4	0.00e+00	0	42	0	2263875584	5	3835
2026-01-11 03:36:56.57	274.67	35.69	-22.1	-22.5	20.5	8.30e-04	0	42	0	2280652800	5	3787
2026-01-11 03:36:59.59	273.60	35.34	-22.1	-23.0	20.5	4.71e-04	0	42	0	2297430016	4	3999
2026-01-11 03:37:02.61	272.56	34.98	-22.2	-23.2	20.4	0.00e+00	0	42	0	2314207232	4	4061
2026-01-11 03:37:05.63	271.55	34.62	-22.2	-23.3	20.3	1.09e-03	0	42	0	2332033024	4	4082
2026-01-11 03:37:08.65	270.55	34.25	-22.1	-23.0	20.5	1.09e-03	0	42	0	2348810240	4	4006
2026-01-11 03:37:11.66	269.58	33.88	-22.0	-22.8	20.6	1.18e-03	0	42	0	2365587456	4	3960
2026-01-11 03:37:14.68	268.63	33.50	-22.3	-23.5	20.2	5.27e-04	0	42	0	2382364672	4	4128
2026-01-11 03:37:17.69	267.71	33.12	-22.7	-23.8	19.8	1.34e-03	0	42	0	2399141888	5	4089
2026-01-11 03:37:20.72	266.80	32.73	-22.6	-23.7	19.9	1.22e-03	0	42	0	2415919104	5	4058
2026-01-11 03:37:23.74	265.92	32.34	-22.6	-23.5	19.9	0.00e+00	0	42	0	2433744896	5	4011
2026-01-11 03:37:26.76	265.05	31.95	-22.5	-23.3	20.0	0.00e+00	0	42	0	2450522112	5	3984
2026-01-11 03:37:29.78	264.21	31.56	-22.5	-23.3	20.0	0.00e+00	0	42	0	2467299328	5	3982
2026-01-11 03:37:32.81	263.39	31.16	-22.7	-23.8	19.8	0.00e+00	0	42	0	2484076544	5	4104
2026-01-11 03:37:35.82	262.59	30.77	-22.5	-23.4	20.0	0.00e+00	0	42	0	2500853760	5	3995
2026-01-11 03:37:38.85	261.80	30.37	-22.5	-23.4	20.0	0.00e+00	0	42	0	2518679552	5	3993
2026-01-11 03:37:41.87	261.04	29.97	-22.4	-23.3	20.0	0.00e+00	0	42	0	2535456768	5	3961
2026-01-11 03:37:44.89	260.30	29.57	-22.5	-23.3	20.0	0.00e+00	0	42	0	2552233984	5	3971
2026-01-11 03:37:47.90	259.57	29.18	-22.5	-23.3	20.0	0.00e+00	0	42	0	2569011200	5	3971
2026-01-11 03:37:50.93	258.86	28.78	-22.7	-23.8	19.7	0.00e+00	0	42	0	2586836992	5	4099
2026-01-11 03:37:53.94	258.17	28.38	-22.9	-24.3	19.5	0.00e+00	0	42	0	2603614208	5	4209
2026-01-11 03:37:56.95	257.50	27.99	-22.8	-23.9	19.7	0.00e+00	0	42	0	2620391424	5	4124
2026-01-11 03:37:59.97	256.84	27.60	-22.7	-23.3	19.7	0.00e+00	0	42	0	2637168640	6	3872
2026-01-11 03:38:02.97	256.21	27.21	-22.7	-23.9	19.7	0.00e+00	0	42	0	2653945856	5	4112
2026-01-11 03:38:06.00	255.58	26.81	-23.0	-24.3	19.4	0.00e+00	0	42	0	2670723072	5	4227
2026-01-11 03:38:09.01	254.97	26.43	-23.1	-24.1	19.3	0.00e+00	0	42	0	2687500288	6	4050
2026-01-11 03:38:12.03	254.37	26.04	-23.1	-24.2	19.3	2.93e-04	0	42	0	2705326080	6	4082
2026-01-11 03:38:15.05	253.79	25.66	-23.0	-24.0	19.3	4.57e-05	0	42	0	2722103296	6	4037
2026-01-11 03:38:18.07	253.22	25.27	-23.0	-24.0	19.4	0.00e+00	0	42	0	2738880512	6	4022
2026-01-11 03:38:21.09	252.67	24.89	-23.3	-24.5	19.1	8.37e-04	0	42	0	2755657728	6	4162
2026-01-11 03:38:24.11	252.13	24.52	-23.4	-24.8	19.0	1.18e-03	0	42	0	2772434944	6	4215
2026-01-11 03:38:27.13	251.60	24.14	-23.7	-25.0	18.6	1.61e-03	0	42	0	2790260736	7	4149
2026-01-11 03:38:30.14	251.09	23.77	-23.4	-24.2	19.0	1.56e-03	0	42	0	2807037952	7	3966
2026-01-11 03:38:33.17	250.59	23.40	-23.5	-24.4	18.9	1.51e-03	0	42	0	2823815168	7	4018
2026-01-11 03:38:36.19	250.09	23.04	-23.3	-24.1	19.0	0.00e+00	0	42	0	2840592384	7	3952
2026-01-11 03:38:39.21	249.62	22.67	-23.6	-24.7	18.7	0.00e+00	0	42	0	2857369600	7	4086
2026-01-11 03:38:42.23	249.15	22.31	-23.5	-24.6	18.7	1.76e-03	0	42	0	2875195392	7	4068
2026-01-11 03:38:45.24	248.69	21.96	-23.4	-24.4	18.8	0.00e+00	0	42	0	2891972608	7	4002
2026-01-11 03:38:48.26	248.24	21.60	-23.3	-24.6	19.0	0.00e+00	0	42	0	2908749824	6	4170
2026-01-11 03:38:51.28	247.81	21.25	-23.4	-24.7	18.9	0.00e+00	0	42	0	2925527040	6	4213
2026-01-11 03:38:54.30	247.38	20.90	-23.4	-24.8	18.8	0.00e+00	0	42	0	2942304256	6	4232
2026-01-11 03:38:57.32	246.96	20.56	-23.8	-25.2	18.4	0.00e+00	0	42	0	2960130048	7	4208
2026-01-11 03:39:00.34	246.56	20.22	-24.0	-25.5	18.2	0.00e+00	0	42	0	2976907264	7	4293
2026-01-11 03:39:03.36	246.16	19.88	-24.0	-25.1	18.1	0.00e+00	0	42	0	2993684480	8	4084
2026-01-11 03:39:06.38	245.77	19.54	-24.1	-25.3	18.1	0.00e+00	0	42	0	3010461696	8	4117
2026-01-11 03:39:09.37	245.39	19.21	-24.1	-25.2	18.1	0.00e+00	0	42	0	3027238912	8	4114
2026-01-11 03:39:12.39	245.02	18.89	-24.2	-25.5	17.9	0.00e+00	0	42	0	3045064704	8	4186
2026-01-11 03:39:15.41	244.65	18.56	-24.4	-25.8	17.7	0.00e+00	0	42	0	3061841920	8	4269
2026-01-11 03:39:18.43	244.29	18.24	-24.5	-25.6	17.6	0.00e+00	0	42	0	3078619136	9	4083
2026-01-11 03:39:21.46	243.94	17.91	-24.7	-26.1	17.3	0.00e+00	0	42	0	3095396352	9	4222
2026-01-11 03:39:24.48	243.60	17.60	-24.8	-26.2	17.2	0.00e+00	0	42	0	3112173568	9	4255
2026-01-11 03:39:27.49	243.27	17.28	-24.5	-25.6	17.5	0.00e+00	0	42	0	3129999360	9	4087
2026-01-11 03:39:30.51	242.94	16.97	-24.5	-26.1	17.6	0.00e+00	0	42	0	3146776576	8	4319
2026-01-11 03:39:33.54	242.62	16.66	-24.6	-25.8	17.4	3.51e-04	0	42	0	3163553792	9	4145
2026-01-11 03:39:36.56	242.30	16.36	-24.7	-26.0	17.3	3.18e-04	0	42	0	3180331008	9	4208
2026-01-11 03:39:39.58	241.99	16.06	-24.9	-26.4	17.1	0.00e+00	0	42	0	3197108224	9	4304
2026-01-11 03:39:42.59	241.69	15.76	-25.0	-26.2	16.9	9.95e-05	0	42	0	3214934016	10	4128
2026-01-11 03:39:45.60	241.40	15.46	-24.9	-26.5	17.0	3.48e-04	0	42	0	3231711232	9	4335
2026-01-11 03:39:48.63	241.11	15.17	-25.0	-26.3	16.8	8.55e-04	0	42	0	3248488448	10	4160
2026-01-11 03:39:51.65	240.82	14.88	-25.1	-26.5	16.7	0.00e+00	0	42	0	3265265664	10	4220
2026-01-11 03:39:54.68	240.55	14.59	-25.0	-26.3	16.8	8.63e-04	0	42	0	3282042880	10	4168
2026-01-11 03:39:57.70	240.27	14.30	-25.1	-26.5	16.7	0.00e+00	0	42	0	3299868672	10	4209
2026-01-11 03:40:00.71	240.01	14.02	-25.1	-26.4	16.7	0.00e+00	0	42	0	3316645888	10	4200
2026-01-11 03:40:03.73	239.74	13.74	-25.1	-26.4	16.7	0.00e+00	0	42	0	3333423104	10	4201
2026-01-11 03:40:06.75	239.49	13.46	-25.3	-26.9	16.5	0.00e+00	0	42	0	3350200320	10	4311
2026-01-11 03:40:09.77	239.23	13.19	-25.7	-27.3	15.9	0.00e+00	0	42	0	3366977536	11	4337
2026-01-11 03:40:12.79	238.99	12.92	-25.6	-27.0	16.1	0.00e+00	0	42	0	3384803328	11	4239
2026-01-11 03:40:15.82	238.74	12.65	-25.6	-27.1	16.0	0.00e+00	0	42	0	3401580544	11	4268
2026-01-11 03:40:18.83	238.50	12.38	-25.7	-27.2	15.9	0.00e+00	0	42	0	3418357760	11	4304
2026-01-11 03:40:21.85	238.27	12.11	-25.9	-27.7	15.6	0.00e+00	0	42	0	3435134976	11	4432
2026-01-11 03:40:24.87	238.04	11.85	-25.7	-27.2	15.9	0.00e+00	0	42	0	3451912192	11	4293
2026-01-11 03:40:27.89	237.81	11.59	-25.6	-27.0	16.0	0.00e+00	0	42	0	3469737984	11	4243
2026-01-11 03:40:30.90	237.59	11.33	-25.7	-27.3	15.8	0.00e+00	0	42	0	3486515200	11	4309
2026-01-11 03:40:33.92	237.38	11.08	-25.8	-27.6	15.6	0.00e+00	0	42	0	3503292416	11	4401
2026-01-11 03:40:36.94	237.16	10.82	-25.9	-27.7	15.5	0.00e+00	0	42	0	3520069632	11	4436
2026-01-11 03:40:39.96	236.95	10.57	-26.0	-27.9	15.4	0.00e+00	0	42	0	3536846848	11	4484
2026-01-11 03:40:42.98	236.75	10.32	-25.7	-27.2	13.3	0.00e+00	0	42	0	3553624064	12	4284
2026-01-11 03:40:46.00	236.54	10.08	-26.0	-27.5	15.2	0.00e+00	0	42	0	3571449856	12	4277
2026-01-11 03:40:49.03	236.34	9.83	-26.1	-27.7	15.1	9.89e-04	0	42	0	3588227072	12	4330
2026-01-11 03:40:52.05	236.15	9.59	-26.0	-27.4	15.2	0.00e+00	0	42	0	3605004288	12	4259
2026-01-11 03:40:55.08	235.96	9.35	-26.0	-27.6	15.1	0.00e+00	0	42	0	3621781504	12	4292
2026-01-11 03:40:58.11	235.77	9.11	-26.1	-27.7	15.0	8.81e-04	0	42	0	3639607296	12	4331
2026-01-11 03:41:01.13	235.58	8.87	-26.1	-27.7	15.0	8.71e-04	0	42	0	3656384512	12	4332
2026-01-11 03:41:04.15	235.40	8.63	-26.3	-28.1	14.8	0.00e+00	0	42	0	3673161728	12	4460
2026-01-11 03:41:07.17	235.22	8.40	-26.2	-27.9	14.9	5.84e-04	0	42	0	3689938944	12	4394
2026-01-11 03:41:10.19	235.04	8.17	-26.4	-28.4	14.6	4.93e-04	0	42	0	3706716160	12	4527
2026-01-11 03:41:13.21	234.87	7.94	-26.7	-28.7	14.0	1.05e-04	0	42	0	3724541952	13	4519
2026-01-11 03:41:16.23	234.70	7.71	-26.5	-28.1	14.4	5.37e-05	0	42	0	3741319168	13	4329
2026-01-11 03:41:19.25	234.53	7.49	-26.8	-28.8	14.0	2.18e-04	0	42	0	3758096384	13	4536
2026-01-11 03:41:22.28	234.36	7.26	-26.9	-29.0	13.8	3.40e-06	0	42	0	3774873600	13	4616
2026-01-11 03:41:25.30	234.20	7.04	-32.8	-44.2	3.8	8.46e-01	0	42	104	3786407936	25	13399
2026-01-11 03:41:28.32	234.04	6.82	-33.6	-44.8	3.8	8.46e-01	0	42	104	3786407936	27	13006

#Closed at: 2026-01-11 03:41:28
#Recorded file [3786 MB]: D:/data/31010_260111_063010.dat