passes_logs/2026/01/11/R2M6_AANII_01/R2M6_AANII_01__20260111_083417_NOAA_21_JPSS-2_rec.log

#Pass ID: 20260111_083417_NOAA 21 (JPSS-2)
#Satellite: NOAA 21 (JPSS-2)
#Configuration: NOAA 21
#almurnet v.1.7.20240730
#Start time: 2026-01-11 08:34:17

#Version: 2.2.20231116
#Station: R2M6_AANII_01
#Location: 30.233357 lon 59.946436 lat
#TLE: 1 54234U 22150A   26009.79679979  .00000100  00000+0  68070-4 0  9993
#TLE: 2 54234  98.7494 310.7596 0000833 322.2782  37.8335 14.19533646164071

#Time	Az	El	Level	Level2	SNR	BER	BlckErr	Temp	State	Recorded	gain1	gain2
2026-01-11 08:34:17.79	106.18	6.99	-30.8	-35.4	4.5	1.42e+00	0	39	0	0	23	6085
2026-01-11 08:34:20.81	105.93	7.19	-30.9	-35.5	7.6	8.69e-02	0	39	0	3145728	22	6078
2026-01-11 08:34:23.83	105.67	7.39	-30.6	-34.4	8.4	4.85e-02	0	39	0	12582912	22	5559
2026-01-11 08:34:26.85	105.41	7.59	-30.3	-33.3	9.3	2.30e-02	0	40	0	22020096	22	5092
2026-01-11 08:34:29.88	105.14	7.80	-29.3	-31.8	11.4	1.34e-03	0	40	0	31457280	19	4829
2026-01-11 08:34:32.88	104.88	8.00	-28.7	-30.9	12.5	1.18e-04	0	40	0	40894464	18	4608
2026-01-11 08:34:35.91	104.60	8.21	-28.5	-30.3	12.8	7.09e-05	0	40	0	50331648	18	4424
2026-01-11 08:34:38.93	104.32	8.41	-28.3	-30.2	13.2	2.21e-05	0	40	0	59768832	17	4505
2026-01-11 08:34:41.95	104.04	8.62	-28.2	-30.1	13.3	2.28e-05	0	40	0	69206016	17	4453
2026-01-11 08:34:44.98	103.76	8.83	-28.3	-30.3	13.1	2.36e-05	0	40	0	78643200	17	4536
2026-01-11 08:34:47.99	103.47	9.04	-28.2	-29.9	13.4	1.22e-05	0	40	0	88080384	17	4401
2026-01-11 08:34:51.01	103.17	9.25	-28.5	-30.8	12.9	2.67e-05	0	40	0	97517568	17	4668
2026-01-11 08:34:54.03	102.87	9.46	-28.5	-30.8	12.9	5.18e-05	0	40	0	106954752	17	4691
2026-01-11 08:34:57.04	102.57	9.67	-28.5	-30.7	12.9	3.58e-05	0	40	0	116391936	17	4648
2026-01-11 08:35:00.07	102.26	9.89	-28.3	-30.2	13.2	2.67e-05	0	40	0	125829120	17	4504
2026-01-11 08:35:03.08	101.95	10.10	-27.7	-29.3	14.2	1.50e-06	0	40	0	135266304	16	4338
2026-01-11 08:35:06.11	101.63	10.32	-27.8	-29.4	14.1	3.80e-06	0	41	0	144703488	16	4348
2026-01-11 08:35:09.13	101.31	10.54	-27.7	-29.2	14.3	7.00e-07	0	41	0	154140672	16	4283
2026-01-11 08:35:12.15	100.98	10.76	-27.7	-29.2	14.3	5.30e-06	0	41	0	163577856	16	4284
2026-01-11 08:35:15.18	100.65	10.98	-27.7	-29.2	14.2	7.60e-06	0	41	0	173015040	16	4302
2026-01-11 08:35:18.20	100.31	11.20	-27.8	-29.5	14.1	6.10e-06	0	41	0	182452224	16	4387
2026-01-11 08:35:21.22	99.97	11.42	-27.8	-29.6	14.0	3.80e-06	0	41	0	191889408	16	4397
2026-01-11 08:35:24.23	99.63	11.64	-27.9	-29.8	13.9	7.00e-07	0	41	0	201326592	16	4474
2026-01-11 08:35:27.24	99.27	11.86	-27.6	-29.0	14.4	0.00e+00	0	41	0	210763776	16	4230
2026-01-11 08:35:30.27	98.91	12.09	-27.7	-29.2	14.3	7.00e-07	0	41	0	220200960	16	4288
2026-01-11 08:35:33.29	98.55	12.31	-27.6	-29.0	14.5	0.00e+00	0	41	0	229638144	16	4227
2026-01-11 08:35:36.31	98.18	12.54	-27.5	-28.8	14.6	2.20e-06	0	41	0	239075328	16	4183
2026-01-11 08:35:39.33	97.80	12.76	-27.4	-28.5	14.9	0.00e+00	0	41	0	248512512	16	4093
2026-01-11 08:35:42.35	97.42	12.99	-27.6	-29.0	14.5	0.00e+00	0	41	0	257949696	16	4228
2026-01-11 08:35:45.37	97.04	13.22	-27.7	-29.2	14.4	7.00e-07	0	41	0	267386880	16	4294
2026-01-11 08:35:48.39	96.64	13.45	-27.9	-29.7	14.2	3.00e-06	0	41	0	276824064	16	4419
2026-01-11 08:35:51.40	96.24	13.68	-27.4	-28.6	14.8	7.00e-07	0	41	0	286261248	16	4104
2026-01-11 08:35:54.42	95.84	13.91	-27.4	-28.5	14.9	0.00e+00	0	41	0	295698432	16	4095
2026-01-11 08:35:57.44	95.42	14.14	-27.4	-28.5	15.0	0.00e+00	0	41	0	305135616	16	4071
2026-01-11 08:36:00.44	95.01	14.37	-27.4	-28.5	15.0	7.00e-07	0	41	0	313524224	16	4068
2026-01-11 08:36:03.46	94.58	14.61	-27.5	-28.7	14.9	0.00e+00	0	41	0	324009984	16	4145
2026-01-11 08:36:06.47	94.15	14.84	-27.6	-28.9	14.8	0.00e+00	0	41	0	332398592	16	4195
2026-01-11 08:36:09.49	93.71	15.07	-27.5	-28.7	15.0	0.00e+00	0	41	0	341835776	16	4122
2026-01-11 08:36:12.51	93.26	15.31	-27.7	-29.2	14.7	0.00e+00	0	41	0	352321536	16	4273
2026-01-11 08:36:15.52	92.81	15.54	-27.8	-29.4	14.6	0.00e+00	0	41	0	360710144	16	4311
2026-01-11 08:36:18.54	92.35	15.78	-27.9	-29.6	14.5	7.00e-07	0	41	0	370147328	16	4375
2026-01-11 08:36:21.56	91.88	16.01	-28.0	-30.0	14.3	1.50e-06	0	41	0	379584512	16	4485
2026-01-11 08:36:24.58	91.40	16.25	-27.9	-29.6	14.6	7.00e-07	0	42	0	389021696	16	4365
2026-01-11 08:36:27.61	90.92	16.49	-27.9	-29.6	14.5	0.00e+00	0	41	0	399507456	16	4373
2026-01-11 08:36:30.63	90.43	16.72	-27.8	-29.4	14.6	0.00e+00	0	41	0	407896064	16	4324
2026-01-11 08:36:33.65	89.93	16.96	-27.8	-29.4	14.7	7.00e-07	0	41	0	418381824	16	4313
2026-01-11 08:36:36.67	89.42	17.20	-27.7	-29.2	14.8	0.00e+00	0	42	0	427819008	16	4251
2026-01-11 08:36:39.69	88.90	17.43	-27.5	-28.5	15.2	0.00e+00	0	42	0	436207616	16	4081
2026-01-11 08:36:42.70	88.38	17.67	-27.7	-29.2	14.8	0.00e+00	0	42	0	446693376	16	4251
2026-01-11 08:36:45.72	87.85	17.91	-27.4	-28.4	15.3	0.00e+00	0	42	0	455081984	16	4046
2026-01-11 08:36:48.73	87.31	18.14	-27.5	-28.7	15.1	7.00e-07	0	41	0	464519168	16	4117
2026-01-11 08:36:51.75	86.76	18.38	-27.0	-28.0	15.6	0.00e+00	0	42	0	475004928	15	4044
2026-01-11 08:36:54.77	86.20	18.61	-27.1	-28.4	15.4	0.00e+00	0	42	0	483393536	15	4149
2026-01-11 08:36:57.79	85.64	18.85	-27.2	-28.5	15.3	0.00e+00	0	42	0	493879296	15	4193
2026-01-11 08:37:00.81	85.06	19.08	-27.3	-28.7	15.2	0.00e+00	0	42	0	502267904	15	4245
2026-01-11 08:37:03.82	84.48	19.31	-27.0	-28.1	15.6	0.00e+00	0	42	0	511705088	15	4084
2026-01-11 08:37:06.84	83.88	19.54	-27.0	-28.1	15.6	0.00e+00	0	42	0	521142272	15	4070
2026-01-11 08:37:09.85	83.28	19.77	-26.8	-27.7	15.9	0.00e+00	0	42	0	530579456	15	3961
2026-01-11 08:37:12.88	82.67	20.00	-26.6	-27.7	16.1	0.00e+00	0	42	0	540016640	14	4078
2026-01-11 08:37:15.90	82.05	20.23	-26.7	-27.8	16.1	0.00e+00	0	42	0	549453824	14	4100
2026-01-11 08:37:18.91	81.42	20.46	-26.7	-27.8	16.1	0.00e+00	0	42	0	558891008	14	4085
2026-01-11 08:37:21.92	80.78	20.68	-26.8	-28.2	15.9	0.00e+00	0	42	0	568328192	14	4198
2026-01-11 08:37:24.94	80.13	20.90	-26.8	-28.2	15.9	0.00e+00	0	42	0	577765376	14	4199
2026-01-11 08:37:27.96	79.48	21.12	-26.8	-28.2	15.9	0.00e+00	0	42	0	587202560	14	4194
2026-01-11 08:37:30.97	78.81	21.34	-26.7	-27.7	16.2	0.00e+00	0	42	0	596639744	14	4078
2026-01-11 08:37:33.99	78.13	21.56	-27.0	-28.5	15.8	0.00e+00	0	42	0	606076928	14	4273
2026-01-11 08:37:37.02	77.44	21.77	-26.8	-28.0	16.0	0.00e+00	0	42	0	615514112	14	4160
2026-01-11 08:37:40.04	76.75	21.98	-27.1	-28.7	15.7	0.00e+00	0	42	0	624951296	14	4341
2026-01-11 08:37:43.05	76.04	22.19	-26.9	-28.3	15.9	0.00e+00	0	42	0	634388480	14	4223
2026-01-11 08:37:46.07	75.33	22.40	-26.9	-28.3	15.9	0.00e+00	0	42	0	643825664	14	4230
2026-01-11 08:37:49.09	74.60	22.60	-26.9	-28.3	15.9	0.00e+00	0	42	0	653262848	14	4227
2026-01-11 08:37:52.11	73.87	22.80	-26.7	-27.9	16.1	0.00e+00	0	42	0	662700032	14	4117
2026-01-11 08:37:55.13	73.12	22.99	-26.7	-27.9	16.1	0.00e+00	0	42	0	672137216	14	4106
2026-01-11 08:37:58.15	72.37	23.18	-26.7	-27.7	16.2	0.00e+00	0	42	0	681574400	14	4067
2026-01-11 08:38:01.18	71.61	23.37	-26.5	-27.4	16.4	0.00e+00	0	42	0	691011584	14	3991
2026-01-11 08:38:04.20	70.83	23.55	-26.8	-28.0	16.1	0.00e+00	0	42	0	700448768	14	4149
2026-01-11 08:38:07.22	70.05	23.73	-27.2	-28.9	15.6	0.00e+00	0	42	0	709885952	14	4395
2026-01-11 08:38:10.24	69.26	23.91	-27.1	-28.7	15.8	0.00e+00	0	42	0	719323136	14	4322
2026-01-11 08:38:13.27	68.46	24.08	-27.0	-28.4	15.9	0.00e+00	0	42	0	728760320	14	4264
2026-01-11 08:38:16.29	67.66	24.24	-26.7	-27.8	16.3	0.00e+00	0	42	0	738197504	14	4084
2026-01-11 08:38:19.31	66.84	24.40	-26.8	-28.1	16.0	0.00e+00	0	42	0	747634688	14	4173
2026-01-11 08:38:22.33	66.02	24.55	-27.1	-28.8	15.7	0.00e+00	0	42	0	757071872	14	4357
2026-01-11 08:38:25.35	65.19	24.70	-26.8	-28.0	16.1	7.00e-07	0	42	0	766509056	14	4142
2026-01-11 08:38:28.36	64.35	24.84	-26.8	-28.1	16.1	2.20e-06	0	42	0	775946240	14	4157
2026-01-11 08:38:31.38	63.51	24.98	-26.7	-27.9	16.2	7.00e-07	0	42	0	785383424	14	4108
2026-01-11 08:38:34.40	62.65	25.11	-26.5	-27.4	16.5	0.00e+00	0	42	0	794820608	14	3981
2026-01-11 08:38:37.42	61.79	25.23	-26.7	-27.8	16.2	0.00e+00	0	42	0	804257792	14	4096
2026-01-11 08:38:40.42	60.93	25.35	-26.5	-27.3	16.5	0.00e+00	0	42	0	813694976	14	3952
2026-01-11 08:38:43.43	60.06	25.45	-26.7	-27.8	16.3	0.00e+00	0	42	0	823132160	14	4086
2026-01-11 08:38:46.45	59.19	25.56	-26.8	-28.1	16.1	0.00e+00	0	42	0	832569344	14	4157
2026-01-11 08:38:49.48	58.30	25.65	-26.7	-27.7	16.3	0.00e+00	0	42	0	842006528	14	4056
2026-01-11 08:38:52.50	57.41	25.74	-26.6	-27.7	16.4	0.00e+00	0	42	0	851443712	14	4055
2026-01-11 08:38:55.52	56.52	25.82	-26.6	-27.5	16.4	0.00e+00	0	42	0	860880896	14	4018
2026-01-11 08:38:58.53	55.62	25.90	-26.7	-27.9	16.2	0.00e+00	0	42	0	870318080	14	4117
2026-01-11 08:39:01.56	54.72	25.96	-26.9	-28.2	16.0	0.00e+00	0	42	0	879755264	14	4197
2026-01-11 08:39:04.58	53.81	26.02	-26.9	-28.3	16.1	0.00e+00	0	42	0	889192448	14	4211
2026-01-11 08:39:07.60	52.90	26.07	-26.7	-27.9	16.3	0.00e+00	0	42	0	898629632	14	4115
2026-01-11 08:39:10.61	51.99	26.12	-26.8	-28.1	16.1	0.00e+00	0	42	0	908066816	14	4170
2026-01-11 08:39:13.63	51.08	26.15	-27.3	-29.1	15.6	0.00e+00	0	42	0	917504000	14	4448
2026-01-11 08:39:16.65	50.16	26.18	-27.3	-29.3	15.5	0.00e+00	0	42	0	926941184	14	4493
2026-01-11 08:39:19.67	49.25	26.20	-26.8	-27.5	16.2	0.00e+00	0	42	0	936378368	15	3917
2026-01-11 08:39:22.68	48.33	26.21	-26.9	-28.4	16.0	0.00e+00	0	42	0	945815552	14	4243
2026-01-11 08:39:25.69	47.42	26.21	-27.1	-28.8	15.7	0.00e+00	0	42	0	955252736	14	4351
2026-01-11 08:39:28.71	46.50	26.21	-26.7	-27.8	16.3	0.00e+00	0	42	0	964689920	14	4094
2026-01-11 08:39:31.71	45.59	26.19	-26.6	-27.5	16.4	0.00e+00	0	42	0	974127104	14	4012
2026-01-11 08:39:34.73	44.67	26.17	-26.5	-27.4	16.5	0.00e+00	0	42	0	983564288	14	3976
2026-01-11 08:39:37.75	43.76	26.14	-26.7	-27.8	16.3	0.00e+00	0	42	0	993001472	14	4079
2026-01-11 08:39:40.75	42.85	26.11	-26.8	-28.1	16.1	0.00e+00	0	42	0	1002438656	14	4158
2026-01-11 08:39:43.77	41.94	26.06	-26.8	-28.1	16.1	0.00e+00	0	42	0	1011875840	14	4164
2026-01-11 08:39:46.77	41.04	26.01	-27.0	-28.4	15.9	0.00e+00	0	42	0	1021313024	14	4257
2026-01-11 08:39:49.79	40.14	25.95	-26.9	-28.2	16.1	0.00e+00	0	42	0	1030750208	14	4192
2026-01-11 08:39:52.81	39.24	25.88	-26.8	-28.1	16.1	0.00e+00	0	42	0	1040187392	14	4168
2026-01-11 08:39:55.82	38.34	25.80	-26.7	-27.8	16.2	0.00e+00	0	42	0	1049624576	14	4087
2026-01-11 08:39:58.84	37.45	25.72	-26.7	-27.9	16.2	0.00e+00	0	42	0	1059061760	14	4106
2026-01-11 08:40:01.87	36.56	25.63	-26.8	-28.1	16.1	0.00e+00	0	42	0	1068498944	14	4158
2026-01-11 08:40:04.89	35.68	25.53	-26.8	-28.1	16.1	0.00e+00	0	42	0	1077936128	14	4171
2026-01-11 08:40:07.91	34.81	25.43	-26.6	-27.5	16.4	0.00e+00	0	42	0	1087373312	14	4018
2026-01-11 08:40:10.94	33.93	25.32	-26.5	-27.4	16.4	0.00e+00	0	42	0	1096810496	14	3996
2026-01-11 08:40:13.95	33.07	25.20	-26.4	-27.1	16.6	0.00e+00	0	42	0	1106247680	14	3909
2026-01-11 08:40:16.97	32.22	25.08	-26.6	-27.6	16.3	0.00e+00	0	42	0	1115684864	14	4037
2026-01-11 08:40:20.00	31.36	24.94	-26.6	-27.5	16.4	0.00e+00	0	42	0	1125122048	14	4011
2026-01-11 08:40:23.01	30.52	24.81	-26.3	-27.0	16.6	0.00e+00	0	42	0	1134559232	14	3879
2026-01-11 08:40:26.03	29.69	24.66	-26.4	-27.7	16.4	0.00e+00	0	42	0	1143996416	13	4174
2026-01-11 08:40:29.05	28.86	24.52	-26.7	-28.4	16.1	0.00e+00	0	42	0	1153433600	13	4358
2026-01-11 08:40:32.08	28.04	24.36	-26.7	-28.2	16.2	0.00e+00	0	42	0	1162870784	13	4317
2026-01-11 08:40:35.09	27.23	24.20	-26.8	-28.6	16.0	0.00e+00	0	42	0	1172307968	13	4433
2026-01-11 08:40:38.10	26.44	24.04	-26.7	-28.3	16.1	0.00e+00	0	42	0	1181745152	13	4335
2026-01-11 08:40:41.13	25.64	23.87	-26.6	-28.2	16.2	0.00e+00	0	42	0	1191182336	13	4308
2026-01-11 08:40:44.15	24.85	23.69	-26.8	-28.6	15.9	0.00e+00	0	42	0	1200619520	13	4436
2026-01-11 08:40:47.17	24.08	23.51	-26.8	-28.2	15.9	0.00e+00	0	42	0	1210056704	14	4189
2026-01-11 08:40:50.19	23.31	23.33	-26.3	-27.0	16.5	0.00e+00	0	42	0	1219493888	14	3890
2026-01-11 08:40:53.21	22.55	23.14	-26.5	-27.9	16.3	0.00e+00	0	42	0	1228931072	13	4226
2026-01-11 08:40:56.23	21.81	22.95	-26.9	-28.8	15.8	0.00e+00	0	42	0	1238368256	13	4489
2026-01-11 08:40:59.25	21.07	22.76	-27.1	-28.8	15.5	0.00e+00	0	42	0	1247805440	14	4372
2026-01-11 08:41:02.27	20.34	22.56	-26.9	-28.2	15.8	0.00e+00	0	42	0	1257242624	14	4209
2026-01-11 08:41:05.28	19.62	22.36	-26.6	-27.7	16.2	0.00e+00	0	42	0	1266679808	14	4063
2026-01-11 08:41:08.30	18.91	22.15	-26.9	-28.3	15.8	0.00e+00	0	42	0	1276116992	14	4232
2026-01-11 08:41:11.32	18.21	21.94	-26.2	-27.2	16.6	0.00e+00	0	42	0	1285554176	13	4056
2026-01-11 08:41:14.33	17.52	21.73	-26.5	-27.8	16.3	0.00e+00	0	42	0	1294991360	13	4207
2026-01-11 08:41:17.35	16.84	21.52	-26.8	-28.5	16.0	0.00e+00	0	42	0	1304428544	13	4390
2026-01-11 08:41:20.37	16.17	21.30	-26.6	-28.2	16.1	0.00e+00	0	42	0	1313865728	13	4306
2026-01-11 08:41:23.39	15.50	21.08	-26.6	-28.2	16.1	7.00e-07	0	42	0	1323302912	13	4302
2026-01-11 08:41:26.41	14.85	20.86	-26.6	-28.0	16.2	0.00e+00	0	42	0	1332740096	13	4272
2026-01-11 08:41:29.43	14.21	20.64	-26.8	-28.6	15.9	0.00e+00	0	42	0	1342177280	13	4426
2026-01-11 08:41:32.46	13.57	20.42	-26.8	-28.1	15.9	0.00e+00	0	42	0	1351614464	14	4188
2026-01-11 08:41:35.48	12.94	20.19	-27.0	-28.5	15.7	0.00e+00	0	42	0	1361051648	14	4273
2026-01-11 08:41:38.50	12.33	19.96	-26.9	-28.2	15.8	0.00e+00	0	42	0	1370488832	14	4213
2026-01-11 08:41:41.52	11.72	19.73	-27.0	-28.4	15.7	0.00e+00	0	42	0	1379926016	14	4264
2026-01-11 08:41:44.53	11.13	19.51	-26.9	-28.4	15.7	0.00e+00	0	42	0	1389363200	14	4260
2026-01-11 08:41:47.55	10.54	19.27	-27.1	-28.8	15.4	0.00e+00	0	42	0	1398800384	14	4383
2026-01-11 08:41:50.58	9.96	19.04	-27.3	-28.8	15.1	0.00e+00	0	42	0	1408237568	15	4272
2026-01-11 08:41:53.60	9.39	18.81	-27.3	-28.8	15.1	0.00e+00	0	42	0	1417674752	15	4267
2026-01-11 08:41:56.61	8.83	18.58	-27.6	-29.5	14.8	1.50e-06	0	42	0	1427111936	15	4463
2026-01-11 08:41:59.62	8.27	18.34	-27.4	-28.9	15.1	0.00e+00	0	42	0	1436549120	15	4311
2026-01-11 08:42:02.63	7.73	18.11	-27.5	-29.2	14.9	0.00e+00	0	42	0	1445986304	15	4389
2026-01-11 08:42:05.66	7.19	17.87	-27.2	-28.5	15.3	0.00e+00	0	42	0	1455423488	15	4179
2026-01-11 08:42:08.68	6.67	17.64	-27.1	-28.3	15.4	7.00e-07	0	42	0	1464860672	15	4118
2026-01-11 08:42:11.69	6.15	17.40	-27.0	-28.0	15.6	0.00e+00	0	42	0	1474297856	15	4038
2026-01-11 08:42:14.71	5.64	17.17	-26.7	-27.9	15.8	0.00e+00	0	42	0	1483735040	14	4131
2026-01-11 08:42:17.73	5.14	16.93	-26.9	-28.4	15.6	0.00e+00	0	42	0	1493172224	14	4252
2026-01-11 08:42:20.75	4.64	16.70	-27.0	-28.6	15.5	0.00e+00	0	42	0	1502609408	14	4316
2026-01-11 08:42:23.76	4.16	16.46	-27.0	-28.6	15.4	0.00e+00	0	42	0	1512046592	14	4322
2026-01-11 08:42:26.78	3.68	16.23	-27.1	-28.8	15.3	0.00e+00	0	42	0	1521483776	14	4387
2026-01-11 08:42:29.79	3.21	15.99	-27.1	-28.8	15.3	7.00e-07	0	42	0	1530920960	14	4382
2026-01-11 08:42:32.81	2.74	15.76	-27.5	-29.6	14.8	0.00e+00	0	42	0	1540358144	14	4616
2026-01-11 08:42:35.83	2.29	15.52	-27.6	-29.5	14.6	0.00e+00	0	42	0	1549795328	15	4461
2026-01-11 08:42:38.86	1.83	15.29	-27.2	-28.5	15.1	0.00e+00	0	42	0	1559232512	15	4194
2026-01-11 08:42:41.88	1.39	15.05	-27.1	-28.4	15.2	7.00e-07	0	42	0	1568669696	15	4153
2026-01-11 08:42:44.89	0.96	14.82	-27.2	-28.6	15.1	0.00e+00	0	42	0	1578106880	15	4219
2026-01-11 08:42:47.91	0.53	14.59	-27.6	-29.4	14.6	0.00e+00	0	42	0	1587544064	15	4447
2026-01-11 08:42:50.92	0.11	14.36	-27.8	-30.0	14.2	0.00e+00	0	42	0	1596981248	15	4641
2026-01-11 08:42:53.93	359.70	14.13	-27.8	-30.0	14.2	1.50e-06	0	42	0	1606418432	15	4634
2026-01-11 08:42:56.95	359.29	13.90	-27.4	-29.0	14.8	0.00e+00	0	42	0	1615855616	15	4346
2026-01-11 08:42:59.97	358.89	13.67	-27.4	-29.0	14.8	0.00e+00	0	42	0	1625292800	15	4331
2026-01-11 08:43:02.99	358.49	13.44	-27.6	-29.5	14.5	0.00e+00	0	42	0	1634729984	15	4470
2026-01-11 08:43:06.00	358.10	13.21	-27.7	-29.8	14.3	0.00e+00	0	42	0	1644167168	15	4587
2026-01-11 08:43:09.02	357.72	12.98	-28.2	-30.4	13.8	1.50e-06	0	42	0	1653604352	16	4619
2026-01-11 08:43:12.04	357.34	12.75	-27.9	-29.6	14.3	7.00e-07	0	42	0	1663041536	16	4377
2026-01-11 08:43:15.06	356.97	12.53	-27.8	-29.5	14.3	1.50e-06	0	42	0	1672478720	16	4355
2026-01-11 08:43:18.07	356.61	12.30	-27.8	-29.5	14.3	7.00e-07	0	42	0	1681915904	16	4363
2026-01-11 08:43:21.09	356.25	12.08	-27.8	-29.5	14.3	0.00e+00	0	42	0	1691353088	16	4367
2026-01-11 08:43:24.11	355.89	11.86	-28.0	-29.9	14.1	3.80e-06	0	42	0	1700790272	16	4468
2026-01-11 08:43:27.13	355.54	11.64	-28.3	-30.6	13.6	4.50e-06	0	42	0	1710227456	16	4706
2026-01-11 08:43:30.15	355.20	11.41	-28.0	-29.9	14.0	7.00e-07	0	42	0	1719664640	16	4500
2026-01-11 08:43:33.17	354.86	11.19	-27.8	-29.4	14.2	0.00e+00	0	42	0	1729101824	16	4348
2026-01-11 08:43:36.20	354.53	10.97	-27.7	-29.3	14.3	0.00e+00	0	42	0	1738539008	16	4308
2026-01-11 08:43:39.22	354.20	10.76	-27.6	-29.1	14.5	7.00e-07	0	42	0	1747976192	16	4245
2026-01-11 08:43:42.23	353.88	10.54	-28.0	-30.0	13.9	5.30e-06	0	42	0	1757413376	16	4516
2026-01-11 08:43:45.25	353.56	10.32	-28.5	-30.8	13.1	3.96e-05	0	42	0	1766850560	17	4655
2026-01-11 08:43:48.27	353.25	10.11	-28.5	-30.5	13.3	1.75e-05	0	42	0	1776287744	17	4579
2026-01-11 08:43:51.28	352.94	9.90	-28.4	-30.5	13.2	2.21e-05	0	42	0	1785724928	17	4560
2026-01-11 08:43:54.30	352.63	9.68	-28.4	-30.5	13.2	2.05e-05	0	42	0	1795162112	17	4577
2026-01-11 08:43:57.32	352.34	9.47	-28.6	-30.9	12.9	3.89e-05	0	42	0	1804599296	17	4712
2026-01-11 08:44:00.35	352.04	9.26	-28.2	-29.9	13.5	8.30e-06	0	42	0	1814036480	17	4402
2026-01-11 08:44:03.36	351.75	9.05	-28.4	-30.4	13.3	1.44e-05	0	42	0	1823473664	17	4532
2026-01-11 08:44:06.39	351.46	8.84	-28.4	-30.6	13.1	2.67e-05	0	42	0	1832910848	17	4592
2026-01-11 08:44:09.41	351.18	8.63	-28.7	-31.3	12.7	8.16e-05	0	42	0	1842348032	17	4819
2026-01-11 08:44:12.43	350.90	8.42	-28.9	-31.7	12.4	1.59e-04	0	42	0	1851785216	17	4981
2026-01-11 08:44:15.45	350.63	8.22	-28.8	-31.0	12.5	9.61e-05	0	42	0	1861222400	18	4634
2026-01-11 08:44:18.47	350.36	8.01	-29.0	-31.4	12.2	2.82e-04	0	42	0	1870659584	18	4777
2026-01-11 08:44:21.48	350.09	7.81	-28.9	-31.3	12.2	2.05e-04	0	42	0	1880096768	18	4735
2026-01-11 08:44:24.50	349.83	7.61	-28.9	-31.3	12.2	2.32e-04	0	42	0	1889533952	18	4751
2026-01-11 08:44:27.51	349.58	7.41	-28.6	-30.6	12.7	1.85e-04	0	42	0	1898971136	18	4504
2026-01-11 08:44:30.54	349.32	7.21	-28.7	-30.9	12.5	1.52e-04	0	42	0	1908408320	18	4596
2026-01-11 08:44:33.56	349.07	7.01	-33.2	-45.0	3.8	1.49e+00	0	42	104	1914699776	26	14042

#Closed at: 2026-01-11 08:44:34
#Recorded file [1914 MB]: D:/data/31010_260111_113419.dat