passes_logs/2026/01/11/R2M6_AANII_01/R2M6_AANII_01__20260111_025125_NOAA_20_JPSS-1_rec.log

#Pass ID: 20260111_025125_NOAA 20 (JPSS-1)
#Satellite: NOAA 20 (JPSS-1)
#Configuration: NOAA 20
#almurnet v.1.7.20240730
#Start time: 2026-01-11 02:51:25

#Version: 2.2.20231116
#Station: R2M6_AANII_01
#Location: 30.233357 lon 59.946436 lat
#TLE: 1 43013U 17073A   26009.69119415  .00000109  00000+0  72598-4 0  9996
#TLE: 2 43013  98.7631 310.6868 0001678  46.7442 313.3874 14.19534878421981

#Time	Az	El	Level	Level2	SNR	BER	BlckErr	Temp	State	Recorded	gain1	gain2
2026-01-11 02:51:25.34	8.66	6.98	-32.5	-44.5	3.8	1.49e+00	0	39	0	0	25	14186
2026-01-11 02:51:28.36	8.32	7.15	-32.4	-42.7	4.5	1.05e+00	0	39	0	1048576	24	11830
2026-01-11 02:51:31.38	7.97	7.31	-31.2	-41.5	4.6	9.48e-01	0	40	0	7340032	23	11835
2026-01-11 02:51:34.40	7.62	7.48	-32.3	-41.3	5.2	7.82e-01	0	40	0	12582912	24	10144
2026-01-11 02:51:37.42	7.27	7.65	-31.8	-38.8	7.2	1.90e-01	0	40	0	18874368	23	8008
2026-01-11 02:51:40.44	6.91	7.81	-31.4	-37.1	8.9	3.58e-02	0	40	0	24117248	22	6984
2026-01-11 02:51:43.45	6.55	7.98	-31.4	-37.4	8.6	4.34e-02	0	40	0	29360128	22	7171
2026-01-11 02:51:46.48	6.18	8.15	-31.3	-36.9	9.1	2.15e-02	0	40	0	35651584	22	6828
2026-01-11 02:51:49.49	5.81	8.31	-31.2	-36.5	9.4	2.27e-02	0	40	0	40894464	22	6612
2026-01-11 02:51:52.50	5.44	8.48	-30.9	-35.5	10.2	1.29e-02	0	40	0	47185920	22	6063
2026-01-11 02:51:55.51	5.06	8.64	-30.9	-35.7	10.4	6.64e-03	0	40	0	52428800	21	6271
2026-01-11 02:51:58.53	4.67	8.81	-30.8	-35.6	10.5	6.51e-03	0	40	0	57671680	21	6205
2026-01-11 02:52:01.55	4.29	8.98	-30.9	-35.7	10.5	6.88e-03	0	40	0	63963136	21	6262
2026-01-11 02:52:04.57	3.89	9.14	-30.8	-35.5	10.6	5.39e-03	0	40	0	69206016	21	6180
2026-01-11 02:52:07.58	3.50	9.31	-30.9	-35.9	10.3	7.39e-03	0	41	0	74448896	21	6384
2026-01-11 02:52:10.59	3.10	9.47	-31.0	-35.6	10.3	8.57e-03	0	41	0	80740352	22	6091
2026-01-11 02:52:13.60	2.69	9.64	-31.0	-35.6	10.3	8.95e-03	0	41	0	85983232	22	6088
2026-01-11 02:52:16.63	2.28	9.80	-31.2	-36.1	9.9	1.37e-02	0	41	0	92274688	22	6343
2026-01-11 02:52:19.64	1.86	9.96	-31.1	-35.7	10.3	8.58e-03	0	41	0	97517568	22	6133
2026-01-11 02:52:22.67	1.44	10.13	-31.1	-35.8	10.2	6.56e-03	0	41	0	102760448	22	6185
2026-01-11 02:52:25.68	1.01	10.29	-30.8	-35.1	11.0	1.79e-03	0	41	0	109051904	21	5968
2026-01-11 02:52:28.69	0.58	10.45	-30.7	-35.1	11.1	1.78e-03	0	41	0	114294784	21	5930
2026-01-11 02:52:31.72	0.15	10.62	-30.8	-35.2	11.0	1.82e-03	0	41	0	120586240	21	6009
2026-01-11 02:52:34.72	359.71	10.78	-30.9	-35.5	10.8	5.43e-03	0	41	0	125829120	21	6126
2026-01-11 02:52:37.74	359.26	10.94	-30.9	-35.7	10.6	5.80e-03	0	41	0	131072000	21	6254
2026-01-11 02:52:40.75	358.81	11.10	-30.7	-34.9	11.2	1.86e-03	0	41	0	137363456	21	5860
2026-01-11 02:52:43.77	358.36	11.26	-30.8	-35.3	11.0	1.83e-03	0	41	0	142606336	21	6016
2026-01-11 02:52:46.79	357.90	11.42	-31.0	-35.5	10.5	2.69e-03	0	41	0	148897792	22	6004
2026-01-11 02:52:49.80	357.43	11.58	-30.9	-35.6	10.8	2.51e-03	0	41	0	154140672	21	6189
2026-01-11 02:52:52.82	356.96	11.73	-31.1	-35.6	10.5	3.35e-03	0	41	0	159383552	22	6046
2026-01-11 02:52:55.83	356.48	11.89	-31.0	-35.5	10.5	3.12e-03	0	41	0	165675008	22	5995
2026-01-11 02:52:58.84	356.00	12.04	-31.1	-35.6	10.5	4.83e-03	0	41	0	170917888	22	6050
2026-01-11 02:53:01.86	355.52	12.20	-31.0	-35.4	10.6	2.47e-03	0	41	0	177209344	22	5936
2026-01-11 02:53:04.88	355.02	12.35	-31.1	-35.5	10.5	5.74e-03	0	41	0	182452224	22	6023
2026-01-11 02:53:07.90	354.53	12.51	-30.6	-34.5	11.7	9.83e-04	0	41	0	187695104	21	5658
2026-01-11 02:53:10.91	354.03	12.66	-30.8	-35.1	11.2	1.13e-03	0	41	0	193986560	21	5918
2026-01-11 02:53:13.93	353.52	12.81	-30.2	-33.8	12.5	1.79e-04	0	41	0	199229440	20	5463
2026-01-11 02:53:16.95	353.00	12.95	-30.3	-34.0	12.4	1.25e-04	0	41	0	205520896	20	5529
2026-01-11 02:53:19.97	352.49	13.10	-30.5	-34.6	12.1	1.94e-04	0	42	0	210763776	20	5770
2026-01-11 02:53:22.99	351.96	13.25	-30.3	-34.0	12.4	1.23e-03	0	41	0	216006656	20	5554
2026-01-11 02:53:26.00	351.43	13.39	-30.1	-33.5	12.8	1.10e-03	0	42	0	222298112	20	5330
2026-01-11 02:53:29.02	350.90	13.53	-30.1	-33.6	12.8	1.42e-03	0	42	0	227540992	20	5355
2026-01-11 02:53:32.04	350.36	13.67	-29.9	-33.5	13.3	1.50e-03	0	41	0	233832448	19	5396
2026-01-11 02:53:35.05	349.82	13.81	-29.8	-33.0	13.5	1.82e-03	0	42	0	239075328	19	5235
2026-01-11 02:53:38.07	349.27	13.95	-30.3	-34.0	12.5	1.89e-03	0	41	0	244318208	20	5512
2026-01-11 02:53:41.09	348.71	14.08	-30.0	-33.2	13.1	1.54e-03	0	42	0	250609664	20	5180
2026-01-11 02:53:44.11	348.15	14.22	-30.0	-33.2	13.0	1.10e-03	0	42	0	255852544	20	5214
2026-01-11 02:53:47.13	347.59	14.35	-30.3	-34.1	12.4	4.13e-04	0	42	0	261095424	20	5596
2026-01-11 02:53:50.15	347.02	14.48	-30.0	-33.6	13.0	3.54e-04	0	42	0	267386880	19	5451
2026-01-11 02:53:53.17	346.44	14.61	-30.1	-33.5	12.9	6.93e-04	0	42	0	272629760	20	5301
2026-01-11 02:53:56.19	345.86	14.73	-30.2	-33.7	12.7	7.93e-05	0	42	0	278921216	20	5397
2026-01-11 02:53:59.20	345.28	14.85	-30.4	-34.4	12.3	1.52e-04	0	42	0	284164096	20	5663
2026-01-11 02:54:02.21	344.69	14.97	-30.6	-34.4	11.9	5.25e-04	0	42	0	289406976	21	5574
2026-01-11 02:54:05.22	344.10	15.09	-30.5	-34.1	12.1	5.42e-04	0	42	0	295698432	21	5460
2026-01-11 02:54:08.24	343.50	15.20	-30.3	-34.0	12.6	2.28e-03	0	42	0	300941312	20	5501
2026-01-11 02:54:11.27	342.89	15.32	-29.9	-32.9	13.3	2.55e-03	0	42	0	307232768	20	5073
2026-01-11 02:54:14.28	342.28	15.43	-29.8	-33.1	13.6	6.80e-06	0	42	0	312475648	19	5234
2026-01-11 02:54:17.29	341.67	15.53	-29.6	-32.5	14.0	3.00e-06	0	42	0	317718528	19	5024
2026-01-11 02:54:20.31	341.06	15.64	-29.7	-32.6	14.0	1.57e-04	0	42	0	324009984	19	5053
2026-01-11 02:54:23.33	340.43	15.74	-29.7	-32.7	13.4	2.59e-05	0	42	0	329252864	20	5049
2026-01-11 02:54:26.35	339.81	15.83	-29.7	-32.8	13.8	7.00e-07	0	42	0	335544320	19	5114
2026-01-11 02:54:29.36	339.18	15.93	-29.7	-32.7	13.8	8.01e-05	0	42	0	340787200	19	5100
2026-01-11 02:54:32.37	338.55	16.02	-29.8	-32.9	13.7	2.99e-04	0	42	0	346030080	19	5171
2026-01-11 02:54:35.40	337.91	16.11	-30.2	-33.7	12.8	2.06e-04	0	42	0	352321536	20	5357
2026-01-11 02:54:38.41	337.27	16.19	-29.8	-32.6	13.5	1.87e-04	0	42	0	357564416	20	4964
2026-01-11 02:54:41.42	336.62	16.27	-29.8	-32.9	13.7	1.65e-04	0	42	0	363855872	19	5164
2026-01-11 02:54:44.44	335.97	16.35	-29.4	-32.0	14.3	2.87e-04	0	42	0	369098752	19	4852
2026-01-11 02:54:47.44	335.32	16.43	-29.4	-32.5	14.3	3.84e-04	0	42	0	374341632	18	5128
2026-01-11 02:54:50.46	334.67	16.50	-29.7	-32.8	13.8	1.43e-04	0	42	0	380633088	19	5119
2026-01-11 02:54:53.49	334.01	16.57	-29.6	-32.5	14.0	3.00e-06	0	42	0	385875968	19	5027
2026-01-11 02:54:56.50	333.35	16.63	-29.7	-32.8	13.8	3.80e-06	0	42	0	392167424	19	5116
2026-01-11 02:54:59.52	332.68	16.69	-30.0	-33.4	13.4	1.37e-05	0	42	0	397410304	19	5362
2026-01-11 02:55:02.53	332.02	16.74	-30.2	-33.6	13.0	2.82e-05	0	42	0	402653184	20	5326
2026-01-11 02:55:05.55	331.35	16.80	-29.8	-32.6	13.6	1.14e-05	0	42	0	408944640	20	4950
2026-01-11 02:55:08.57	330.68	16.85	-29.9	-32.8	13.4	1.37e-05	0	42	0	414187520	20	5030
2026-01-11 02:55:11.58	330.01	16.89	-30.0	-33.0	13.3	1.52e-05	0	42	0	419430400	20	5096
2026-01-11 02:55:14.59	329.33	16.93	-30.0	-33.2	13.2	3.12e-05	0	42	0	425721856	20	5156
2026-01-11 02:55:17.61	328.65	16.97	-29.1	-32.6	12.8	3.96e-05	0	42	0	430964736	20	5387
2026-01-11 02:55:20.63	327.97	17.00	-30.3	-33.9	12.5	1.67e-04	0	42	0	437256192	20	5455
2026-01-11 02:55:23.64	327.30	17.03	-30.0	-33.0	13.3	1.56e-04	0	42	0	442499072	20	5101
2026-01-11 02:55:26.66	326.61	17.05	-29.9	-32.9	13.4	1.60e-05	0	42	0	447741952	20	5071
2026-01-11 02:55:29.68	325.93	17.07	-30.1	-33.4	13.0	3.35e-05	0	42	0	454033408	20	5270
2026-01-11 02:55:32.70	325.25	17.09	-30.2	-33.5	13.0	3.12e-05	0	42	0	459276288	20	5298
2026-01-11 02:55:35.72	324.56	17.10	-30.2	-33.6	12.9	2.01e-04	0	42	0	465567744	20	5319
2026-01-11 02:55:38.74	323.88	17.11	-30.1	-33.4	13.1	3.27e-04	0	42	0	470810624	20	5263
2026-01-11 02:55:41.75	323.20	17.11	-30.1	-33.3	13.1	3.97e-04	0	42	0	477102080	20	5223
2026-01-11 02:55:44.77	322.51	17.11	-30.1	-33.2	13.1	2.28e-05	0	42	0	482344960	20	5191
2026-01-11 02:55:47.79	321.82	17.10	-30.1	-33.4	13.0	3.05e-05	0	42	0	487587840	20	5255
2026-01-11 02:55:50.82	321.14	17.09	-30.0	-33.0	13.3	1.67e-05	0	42	0	493879296	20	5103
2026-01-11 02:55:53.83	320.46	17.08	-29.9	-33.2	13.5	3.25e-04	0	42	0	499122176	19	5278
2026-01-11 02:55:56.85	319.77	17.06	-29.9	-32.9	13.4	4.55e-04	0	42	0	505413632	20	5077
2026-01-11 02:55:59.87	319.09	17.04	-30.1	-33.2	13.2	2.36e-04	0	42	0	510656512	20	5188
2026-01-11 02:56:02.88	318.41	17.02	-30.0	-33.1	13.2	2.97e-05	0	42	0	515899392	20	5139
2026-01-11 02:56:05.89	317.73	16.99	-30.1	-33.4	13.0	2.08e-03	0	42	0	522190848	20	5268
2026-01-11 02:56:08.90	317.05	16.95	-30.1	-33.5	13.0	1.99e-03	0	42	0	527433728	20	5285
2026-01-11 02:56:11.92	316.38	16.91	-30.0	-33.0	13.3	2.30e-03	0	42	0	532676608	20	5116
2026-01-11 02:56:14.94	315.70	16.87	-30.2	-33.8	12.8	2.27e-03	0	42	0	538968064	20	5408
2026-01-11 02:56:17.97	315.02	16.83	-29.9	-33.2	13.5	8.23e-05	0	42	0	544210944	19	5298
2026-01-11 02:56:20.98	314.35	16.78	-29.9	-33.1	13.6	9.75e-04	0	42	0	550502400	19	5256
2026-01-11 02:56:24.01	313.68	16.72	-29.8	-32.9	13.8	2.51e-03	0	42	0	555745280	19	5170
2026-01-11 02:56:27.02	313.02	16.66	-29.5	-32.1	14.3	2.57e-03	0	42	0	560988160	19	4872
2026-01-11 02:56:30.03	312.36	16.60	-29.5	-32.2	14.1	2.30e-03	0	42	0	567279616	19	4919
2026-01-11 02:56:33.05	311.70	16.54	-29.5	-32.3	14.1	1.95e-03	0	42	0	572522496	19	4965
2026-01-11 02:56:36.07	311.04	16.47	-29.7	-32.6	13.8	2.40e-03	0	42	0	578813952	19	5078
2026-01-11 02:56:39.09	310.38	16.40	-29.9	-33.3	13.5	9.10e-06	0	42	0	584056832	19	5317
2026-01-11 02:56:42.11	309.73	16.32	-29.5	-32.2	14.1	1.50e-06	0	42	0	589299712	19	4933
2026-01-11 02:56:45.12	309.08	16.24	-29.6	-32.4	14.0	2.20e-06	0	42	0	595591168	19	5006
2026-01-11 02:56:48.14	308.44	16.16	-29.8	-33.0	13.6	7.60e-06	0	42	0	600834048	19	5201
2026-01-11 02:56:51.16	307.80	16.07	-29.8	-33.0	13.6	2.25e-03	0	42	0	607125504	19	5200
2026-01-11 02:56:54.19	307.16	15.98	-29.7	-32.8	13.7	2.47e-03	0	42	0	612368384	19	5149
2026-01-11 02:56:57.20	306.52	15.89	-29.8	-33.0	13.6	9.10e-06	0	42	0	617611264	19	5223
2026-01-11 02:57:00.23	305.89	15.79	-30.0	-33.5	13.3	1.06e-05	0	42	0	623902720	19	5403
2026-01-11 02:57:03.25	305.27	15.69	-30.0	-33.5	13.3	1.67e-05	0	42	0	629145600	19	5402
2026-01-11 02:57:06.26	304.65	15.59	-30.1	-33.4	12.9	4.65e-05	0	42	0	635437056	20	5267
2026-01-11 02:57:09.28	304.03	15.49	-29.9	-33.3	13.4	1.29e-05	0	42	0	640679936	19	5320
2026-01-11 02:57:12.29	303.42	15.38	-29.6	-32.5	13.7	5.30e-06	0	42	0	645922816	19	5044
2026-01-11 02:57:15.31	302.81	15.27	-29.8	-33.0	13.6	6.10e-06	0	42	0	652214272	19	5207
2026-01-11 02:57:18.31	302.21	15.16	-30.1	-33.6	12.7	1.76e-03	0	42	0	657457152	20	5344
2026-01-11 02:57:21.32	301.61	15.04	-29.9	-33.3	13.4	1.75e-05	0	42	0	663748608	19	5321
2026-01-11 02:57:24.35	301.02	14.92	-29.7	-32.8	13.7	1.14e-05	0	42	0	668991488	19	5139
2026-01-11 02:57:27.35	300.43	14.80	-29.7	-32.7	13.7	5.30e-06	0	42	0	674234368	19	5100
2026-01-11 02:57:30.36	299.85	14.68	-29.9	-33.3	13.3	1.44e-05	0	42	0	680525824	19	5332
2026-01-11 02:57:33.37	299.27	14.55	-29.7	-32.7	13.7	9.10e-06	0	42	0	685768704	19	5118
2026-01-11 02:57:36.39	298.69	14.42	-29.8	-33.2	13.3	1.96e-03	0	42	0	692060160	19	5317
2026-01-11 02:57:39.40	298.13	14.29	-29.9	-33.4	13.2	1.09e-03	0	42	0	697303040	19	5383
2026-01-11 02:57:42.42	297.56	14.16	-29.7	-32.9	13.5	3.85e-04	0	42	0	702545920	19	5188
2026-01-11 02:57:45.43	297.00	14.03	-29.7	-33.0	13.5	1.60e-05	0	42	0	708837376	19	5210
2026-01-11 02:57:48.44	296.45	13.89	-29.8	-33.2	13.2	1.52e-05	0	42	0	714080256	19	5302
2026-01-11 02:57:51.46	295.90	13.75	-30.1	-33.5	12.7	5.11e-05	0	42	0	719323136	20	5323
2026-01-11 02:57:54.48	295.36	13.61	-30.0	-33.2	12.9	1.52e-03	0	42	0	725614592	20	5227
2026-01-11 02:57:57.50	294.82	13.47	-30.1	-33.5	12.7	2.11e-03	0	42	0	730857472	20	5351
2026-01-11 02:58:00.52	294.28	13.33	-30.2	-33.9	12.4	2.30e-03	0	42	0	737148928	20	5488
2026-01-11 02:58:03.53	293.76	13.18	-30.2	-34.0	12.3	2.32e-03	0	42	0	742391808	20	5532
2026-01-11 02:58:06.55	293.23	13.04	-30.4	-34.5	11.9	1.03e-03	0	42	0	747634688	20	5778
2026-01-11 02:58:09.57	292.72	12.89	-30.7	-35.0	11.2	2.64e-03	0	42	0	753926144	21	5872
2026-01-11 02:58:12.59	292.20	12.74	-30.9	-35.6	10.8	2.16e-03	0	42	0	759169024	21	6160
2026-01-11 02:58:15.61	291.69	12.59	-30.7	-35.1	11.1	1.52e-03	0	42	0	765460480	21	5916
2026-01-11 02:58:18.62	291.19	12.44	-30.6	-34.6	11.5	8.67e-04	0	42	0	770703360	21	5690
2026-01-11 02:58:21.64	290.70	12.29	-30.7	-35.0	11.1	2.06e-03	0	42	0	775946240	21	5888
2026-01-11 02:58:24.66	290.20	12.13	-31.0	-35.9	10.5	5.77e-03	0	42	0	782237696	21	6350
2026-01-11 02:58:27.68	289.72	11.98	-31.1	-35.8	10.2	5.20e-03	0	42	0	787480576	22	6183
2026-01-11 02:58:30.70	289.24	11.82	-30.8	-35.3	10.9	2.60e-03	0	42	0	793772032	21	6066
2026-01-11 02:58:33.71	288.76	11.66	-30.9	-35.5	10.7	3.19e-03	0	42	0	799014912	21	6161
2026-01-11 02:58:36.74	288.29	11.50	-31.0	-35.9	10.4	4.75e-03	0	42	0	804257792	21	6366
2026-01-11 02:58:39.74	287.82	11.35	-31.0	-35.7	10.2	6.35e-03	0	42	0	810549248	22	6145
2026-01-11 02:58:42.74	287.37	11.19	-30.9	-35.9	10.4	4.15e-03	0	42	0	815792128	21	6354
2026-01-11 02:58:45.76	286.91	11.03	-30.8	-35.5	10.6	3.78e-03	0	42	0	822083584	21	6176
2026-01-11 02:58:48.78	286.46	10.87	-30.9	-35.6	10.5	4.07e-03	0	42	0	827326464	21	6240
2026-01-11 02:58:51.80	286.01	10.70	-30.8	-35.5	10.6	5.53e-03	0	42	0	832569344	21	6168
2026-01-11 02:58:54.81	285.57	10.54	-30.7	-35.1	10.9	2.53e-03	0	42	0	838860800	21	5960
2026-01-11 02:58:57.83	285.14	10.38	-30.6	-34.7	11.2	4.31e-03	0	42	0	844103680	21	5777
2026-01-11 02:59:00.86	284.71	10.22	-30.5	-34.5	11.3	3.12e-03	0	42	0	850395136	21	5712
2026-01-11 02:59:03.87	284.28	10.05	-30.5	-34.6	11.1	2.58e-03	0	42	0	855638016	21	5774
2026-01-11 02:59:06.89	283.86	9.89	-30.5	-34.6	11.2	4.93e-03	0	42	0	860880896	21	5747
2026-01-11 02:59:09.91	283.44	9.72	-30.5	-35.0	11.2	5.14e-03	0	42	0	867172352	20	6074
2026-01-11 02:59:12.94	283.03	9.56	-30.4	-34.6	11.5	4.50e-03	0	42	0	872415232	20	5870
2026-01-11 02:59:15.95	282.62	9.39	-30.2	-34.1	11.8	1.31e-03	0	42	0	878706688	20	5654
2026-01-11 02:59:18.97	282.22	9.23	-30.2	-34.0	11.9	8.98e-04	0	42	0	883949568	20	5600
2026-01-11 02:59:21.99	281.82	9.06	-30.1	-34.0	11.9	6.55e-04	0	42	0	889192448	20	5608
2026-01-11 02:59:25.00	281.43	8.89	-30.0	-33.6	12.1	2.46e-04	0	42	0	895483904	20	5431
2026-01-11 02:59:28.02	281.04	8.73	-30.0	-33.6	12.1	2.79e-03	0	42	0	900726784	20	5429
2026-01-11 02:59:31.04	280.66	8.56	-29.9	-33.3	12.3	2.88e-03	0	42	0	905969664	20	5327
2026-01-11 02:59:34.04	280.28	8.40	-30.0	-33.4	12.2	1.87e-04	0	42	0	912261120	20	5377
2026-01-11 02:59:37.05	279.91	8.23	-29.9	-33.8	12.3	2.75e-04	0	42	0	917504000	19	5637
2026-01-11 02:59:40.07	279.53	8.06	-29.9	-33.5	12.1	6.26e-04	0	42	0	923795456	20	5407
2026-01-11 02:59:43.09	279.17	7.90	-30.0	-33.5	12.1	2.05e-04	0	42	0	929038336	20	5430
2026-01-11 02:59:46.10	278.81	7.73	-30.0	-33.6	12.1	3.29e-04	0	42	0	934281216	20	5459
2026-01-11 02:59:49.12	278.45	7.56	-30.1	-34.1	11.6	7.15e-04	0	42	0	940572672	20	5668
2026-01-11 02:59:52.13	278.09	7.40	-30.5	-34.6	11.6	3.96e-04	0	42	0	945815552	20	5763
2026-01-11 02:59:55.14	277.75	7.23	-30.0	-33.6	11.9	1.82e-03	0	42	0	952107008	20	5486
2026-01-11 02:59:58.14	277.40	7.07	-30.5	-35.0	10.9	1.32e-03	0	42	0	957349888	21	5998
2026-01-11 03:00:01.16	277.06	6.90	-33.5	-47.6	3.8	1.49e+00	0	42	104	957349888	27	18262

#Closed at: 2026-01-11 03:00:02
#Recorded file [957 MB]: D:/data/31010_260111_055127.dat