passes_logs/2026/01/11/R2M6_AANII_01/R2M6_AANII_01__20260111_023036_SUOMI_NPP_rec.log

#Pass ID: 20260111_023036_SUOMI NPP
#Satellite: SUOMI NPP
#Configuration: NPP
#almurnet v.1.7.20240730
#Start time: 2026-01-11 02:30:36

#Version: 2.2.20231116
#Station: R2M6_AANII_01
#Location: 30.233357 lon 59.946436 lat
#TLE: 1 37849U 11061A   26009.81756760  .00000113  00000+0  74747-4 0  9994
#TLE: 2 37849  98.7806 311.9110 0002525  72.5604 287.5848 14.19524046735974

#Time	Az	El	Level	Level2	SNR	BER	BlckErr	Temp	State	Recorded	gain1	gain2
2026-01-11 02:30:36.15	9.90	6.98	-32.4	-41.6	3.9	1.48e+00	0	39	0	0	24	10445
2026-01-11 02:30:39.16	9.61	7.17	-32.1	-39.4	4.3	1.41e+00	0	39	104	0	24	8308
2026-01-11 02:30:42.17	9.31	7.35	-32.2	-39.3	5.1	5.97e-01	0	40	0	3145728	24	8218
2026-01-11 02:30:45.18	9.01	7.54	-32.1	-39.1	5.3	6.43e-01	0	40	0	9437184	24	7996
2026-01-11 02:30:48.20	8.71	7.73	-31.5	-36.0	7.8	1.36e-01	0	40	0	14680064	23	6055
2026-01-11 02:30:51.22	8.40	7.91	-30.9	-34.4	9.8	1.34e-02	0	40	0	20971520	21	5418
2026-01-11 02:30:54.23	8.08	8.10	-30.9	-34.6	9.8	1.46e-02	0	40	0	26214400	21	5473
2026-01-11 02:30:57.25	7.76	8.29	-31.0	-34.5	9.5	1.40e-02	0	40	0	31457280	22	5345
2026-01-11 02:31:00.25	7.44	8.48	-30.8	-34.2	10.1	1.01e-02	0	40	0	37748736	21	5297
2026-01-11 02:31:03.27	7.12	8.67	-30.7	-33.7	10.5	6.58e-03	0	40	0	42991616	21	5098
2026-01-11 02:31:06.29	6.78	8.86	-30.9	-34.6	9.8	9.79e-03	0	40	0	48234496	21	5460
2026-01-11 02:31:09.30	6.45	9.05	-31.0	-34.2	9.8	1.33e-02	0	40	0	54525952	22	5215
2026-01-11 02:31:12.32	6.11	9.24	-31.2	-34.8	9.4	1.96e-02	0	40	0	59768832	22	5448
2026-01-11 02:31:15.33	5.76	9.44	-30.9	-34.4	10.0	1.15e-02	0	41	0	66060288	21	5394
2026-01-11 02:31:18.34	5.41	9.63	-31.0	-34.0	10.0	1.48e-02	0	41	0	71303168	22	5094
2026-01-11 02:31:21.35	5.06	9.82	-30.8	-34.1	10.3	7.64e-03	0	41	0	76546048	21	5265
2026-01-11 02:31:24.36	4.70	10.01	-30.7	-33.5	10.7	7.53e-03	0	41	0	82837504	21	4998
2026-01-11 02:31:27.37	4.34	10.21	-30.7	-33.7	10.7	3.66e-03	0	41	0	88080384	21	5062
2026-01-11 02:31:30.37	3.97	10.40	-30.7	-33.7	10.7	2.17e-03	0	41	0	94371840	21	5055
2026-01-11 02:31:33.40	3.59	10.60	-30.7	-33.5	10.8	2.94e-03	0	41	0	99614720	21	4989
2026-01-11 02:31:36.42	3.21	10.79	-30.7	-33.7	10.7	3.65e-03	0	41	0	104857600	21	5073
2026-01-11 02:31:39.44	2.83	10.99	-30.7	-33.5	10.9	1.87e-03	0	41	0	111149056	21	4966
2026-01-11 02:31:42.46	2.43	11.18	-30.4	-32.6	11.6	2.63e-03	0	41	0	116391936	21	4620
2026-01-11 02:31:45.48	2.04	11.38	-30.3	-32.8	11.7	6.38e-04	0	41	0	122683392	20	4808
2026-01-11 02:31:48.50	1.64	11.58	-30.4	-33.2	11.5	6.99e-04	0	41	0	127926272	20	4933
2026-01-11 02:31:51.51	1.23	11.77	-30.3	-32.8	11.7	5.51e-04	0	41	0	133169152	20	4815
2026-01-11 02:31:54.52	0.82	11.97	-30.3	-32.8	11.8	4.69e-04	0	41	0	139460608	20	4783
2026-01-11 02:31:57.54	0.40	12.16	-30.3	-33.3	11.1	5.66e-04	0	41	0	144703488	19	5067
2026-01-11 02:32:00.55	359.98	12.36	-30.4	-33.1	11.6	7.71e-04	0	41	0	150994944	20	4902
2026-01-11 02:32:03.56	359.55	12.55	-30.4	-33.0	11.6	7.53e-04	0	41	0	156237824	20	4901
2026-01-11 02:32:06.58	359.11	12.75	-30.3	-32.8	11.8	3.32e-03	0	41	0	161480704	20	4788
2026-01-11 02:32:09.60	358.67	12.95	-30.3	-32.9	11.7	3.27e-03	0	41	0	167772160	20	4835
2026-01-11 02:32:12.62	358.22	13.14	-30.3	-32.9	11.7	7.91e-04	0	41	0	173015040	20	4847
2026-01-11 02:32:15.63	357.77	13.34	-30.7	-33.6	10.9	1.09e-03	0	41	0	178257920	21	5017
2026-01-11 02:32:18.65	357.31	13.54	-30.7	-33.4	11.0	2.74e-03	0	41	0	184549376	21	4945
2026-01-11 02:32:21.66	356.84	13.73	-30.9	-34.2	10.5	5.77e-03	0	41	0	189792256	21	5239
2026-01-11 02:32:24.67	356.37	13.92	-30.8	-34.0	10.6	5.32e-03	0	41	0	196083712	21	5152
2026-01-11 02:32:27.69	355.89	14.12	-30.6	-33.1	11.2	4.15e-03	0	41	0	201326592	21	4813
2026-01-11 02:32:30.71	355.41	14.31	-30.7	-33.5	11.0	3.83e-03	0	41	0	206569472	21	4965
2026-01-11 02:32:33.73	354.91	14.51	-30.9	-34.1	10.6	5.43e-03	0	41	0	212860928	21	5196
2026-01-11 02:32:36.74	354.42	14.70	-31.0	-34.2	10.5	6.24e-03	0	42	0	218103808	21	5262
2026-01-11 02:32:39.76	353.91	14.89	-30.8	-33.7	10.9	2.89e-03	0	42	0	224395264	21	5043
2026-01-11 02:32:42.77	353.40	15.08	-30.8	-33.8	10.8	4.90e-03	0	42	0	229638144	21	5070
2026-01-11 02:32:45.78	352.88	15.27	-30.7	-33.3	11.2	3.43e-03	0	41	0	234881024	21	4883
2026-01-11 02:32:48.80	352.36	15.46	-30.7	-33.2	11.3	2.01e-03	0	42	0	241172480	21	4854
2026-01-11 02:32:51.82	351.82	15.65	-30.9	-33.9	10.7	4.48e-03	0	42	0	246415360	21	5140
2026-01-11 02:32:54.84	351.28	15.84	-30.9	-33.7	10.6	6.15e-03	0	42	0	252706816	22	4955
2026-01-11 02:32:57.86	350.74	16.03	-30.5	-33.0	11.5	1.47e-03	0	42	0	257949696	21	4752
2026-01-11 02:33:00.88	350.19	16.21	-30.6	-33.2	11.3	8.57e-04	0	42	0	263192576	21	4836
2026-01-11 02:33:03.89	349.63	16.40	-30.4	-33.2	11.7	7.34e-04	0	42	0	269484032	20	4922
2026-01-11 02:33:06.90	349.06	16.58	-30.5	-33.3	11.7	6.12e-04	0	42	0	274726912	20	4954
2026-01-11 02:33:09.92	348.49	16.76	-29.9	-32.1	12.9	4.73e-05	0	42	0	281018368	19	4613
2026-01-11 02:33:12.94	347.91	16.94	-30.0	-31.9	12.6	8.54e-05	0	42	0	286261248	20	4480
2026-01-11 02:33:15.95	347.32	17.11	-29.7	-31.0	13.2	1.57e-04	0	42	0	291504128	20	4186
2026-01-11 02:33:18.97	346.72	17.29	-29.8	-31.7	13.2	1.41e-04	0	42	0	297795584	19	4472
2026-01-11 02:33:21.98	346.12	17.46	-29.6	-31.1	13.6	5.41e-05	0	42	0	303038464	19	4289
2026-01-11 02:33:25.00	345.51	17.64	-29.6	-31.2	13.5	3.28e-05	0	42	0	309329920	19	4325
2026-01-11 02:33:28.01	344.90	17.80	-29.2	-30.5	14.3	1.50e-06	0	42	0	314572800	18	4200
2026-01-11 02:33:31.03	344.28	17.97	-29.4	-31.1	13.9	7.00e-07	0	42	0	319815680	18	4378
2026-01-11 02:33:34.05	343.64	18.14	-29.9	-31.8	13.1	1.90e-05	0	42	0	326107136	19	4520
2026-01-11 02:33:37.07	343.01	18.30	-29.3	-30.8	14.1	2.20e-06	0	42	0	331350016	18	4299
2026-01-11 02:33:40.09	342.36	18.46	-29.6	-31.2	13.5	2.89e-05	0	42	0	336592896	19	4317
2026-01-11 02:33:43.10	341.71	18.61	-29.7	-31.4	13.4	9.10e-06	0	42	0	342884352	19	4370
2026-01-11 02:33:46.12	341.06	18.77	-29.7	-31.3	13.5	3.00e-06	0	42	0	348127232	19	4324
2026-01-11 02:33:49.12	340.40	18.92	-29.7	-31.4	13.5	6.10e-06	0	42	0	354418688	19	4374
2026-01-11 02:33:52.15	339.72	19.07	-29.4	-31.1	14.0	1.48e-04	0	42	0	359661568	18	4376
2026-01-11 02:33:55.17	339.04	19.21	-29.0	-29.9	14.7	1.59e-04	0	42	0	364904448	18	4021
2026-01-11 02:33:58.18	338.36	19.35	-28.8	-29.5	15.0	1.52e-04	0	42	0	371195904	18	3889
2026-01-11 02:34:01.18	337.68	19.49	-28.5	-29.3	15.4	1.29e-04	0	42	0	376438784	17	3930
2026-01-11 02:34:04.20	336.98	19.62	-28.7	-29.7	15.2	4.95e-05	0	42	0	382730240	17	4035
2026-01-11 02:34:07.22	336.28	19.75	-29.1	-30.3	14.6	2.13e-05	0	42	0	387973120	18	4107
2026-01-11 02:34:10.24	335.57	19.88	-28.9	-29.7	14.9	2.23e-04	0	42	0	393216000	18	3939
2026-01-11 02:34:13.26	334.85	20.00	-29.1	-30.3	14.6	5.35e-04	0	42	0	399507456	18	4102
2026-01-11 02:34:16.28	334.13	20.12	-29.3	-30.7	14.4	3.67e-04	0	42	0	404750336	18	4222
2026-01-11 02:34:19.30	333.41	20.23	-28.5	-28.8	15.5	0.00e+00	0	42	0	411041792	18	3704
2026-01-11 02:34:22.32	332.67	20.34	-28.3	-29.2	15.8	0.00e+00	0	42	0	416284672	16	4005
2026-01-11 02:34:25.33	331.94	20.44	-28.8	-29.8	15.2	6.52e-04	0	42	0	421527552	17	4058
2026-01-11 02:34:28.35	331.20	20.54	-28.4	-29.3	15.8	5.26e-04	0	42	0	427819008	16	4025
2026-01-11 02:34:31.37	330.45	20.64	-28.6	-29.3	15.5	5.97e-04	0	42	0	433061888	17	3932
2026-01-11 02:34:34.39	329.70	20.73	-29.4	-31.0	14.1	1.13e-03	0	42	0	439353344	18	4318
2026-01-11 02:34:37.40	328.95	20.82	-29.6	-30.9	13.9	6.03e-04	0	42	0	444596224	19	4198
2026-01-11 02:34:40.42	328.19	20.90	-29.7	-31.3	13.7	3.67e-04	0	42	0	449839104	19	4311
2026-01-11 02:34:43.43	327.43	20.97	-30.0	-31.8	12.9	4.42e-05	0	42	0	456130560	20	4403
2026-01-11 02:34:46.45	326.66	21.04	-30.0	-31.8	12.9	4.57e-05	0	42	0	461373440	20	4397
2026-01-11 02:34:49.47	325.89	21.11	-30.0	-32.0	12.4	2.40e-04	0	42	0	467664896	19	4535
2026-01-11 02:34:52.48	325.12	21.17	-30.0	-32.0	13.0	2.65e-04	0	42	0	472907776	19	4560
2026-01-11 02:34:55.50	324.34	21.22	-30.5	-32.7	12.1	3.94e-04	0	42	0	478150656	21	4626
2026-01-11 02:34:58.52	323.56	21.27	-29.7	-31.2	13.7	8.30e-06	0	42	0	484442112	19	4284
2026-01-11 02:35:01.54	322.78	21.31	-29.9	-31.7	13.4	1.44e-05	0	42	0	489684992	19	4435
2026-01-11 02:35:04.56	322.00	21.35	-30.1	-31.8	12.8	5.64e-05	0	42	0	495976448	20	4407
2026-01-11 02:35:07.58	321.21	21.38	-29.8	-31.6	13.4	2.40e-03	0	42	0	501219328	19	4427
2026-01-11 02:35:10.60	320.42	21.41	-29.8	-31.7	13.3	1.63e-03	0	42	0	506462208	19	4470
2026-01-11 02:35:13.62	319.63	21.43	-30.0	-31.9	12.7	2.17e-03	0	42	0	512753664	20	4449
2026-01-11 02:35:16.63	318.85	21.45	-30.6	-33.1	11.6	3.10e-03	0	42	0	517996544	21	4801
2026-01-11 02:35:19.65	318.06	21.45	-30.4	-32.8	12.1	2.87e-03	0	42	0	524288000	20	4745
2026-01-11 02:35:22.67	317.27	21.46	-30.0	-31.6	12.9	3.73e-05	0	42	0	529530880	20	4360
2026-01-11 02:35:25.69	316.48	21.46	-29.6	-31.2	13.6	2.49e-03	0	42	0	534773760	19	4300
2026-01-11 02:35:28.71	315.69	21.45	-29.8	-31.8	13.3	2.67e-03	0	42	0	541065216	19	4492
2026-01-11 02:35:31.72	314.90	21.43	-29.9	-31.9	13.1	2.57e-03	0	42	0	546308096	19	4533
2026-01-11 02:35:34.74	314.11	21.41	-29.9	-31.9	13.1	2.89e-03	0	42	0	551550976	19	4542
2026-01-11 02:35:37.76	313.32	21.39	-30.1	-31.9	12.8	3.00e-03	0	42	0	557842432	20	4449
2026-01-11 02:35:40.78	312.54	21.36	-30.1	-32.0	12.8	1.14e-04	0	42	0	563085312	20	4460
2026-01-11 02:35:43.79	311.75	21.32	-29.9	-31.9	13.3	1.37e-05	0	42	0	569376768	19	4506
2026-01-11 02:35:46.82	310.97	21.28	-29.6	-30.9	13.9	6.80e-06	0	42	0	574619648	19	4195
2026-01-11 02:35:49.83	310.19	21.23	-29.3	-30.6	14.4	0.00e+00	0	42	0	579862528	18	4198
2026-01-11 02:35:52.86	309.41	21.18	-29.0	-29.9	14.9	7.00e-07	0	42	0	586153984	18	3990
2026-01-11 02:35:55.88	308.64	21.12	-29.1	-30.1	14.7	2.16e-03	0	42	0	591396864	18	4066
2026-01-11 02:35:58.89	307.87	21.05	-29.4	-30.5	14.1	3.00e-06	0	42	0	597688320	19	4082
2026-01-11 02:36:01.90	307.10	20.98	-29.3	-30.7	14.3	1.50e-06	0	42	0	602931200	18	4227
2026-01-11 02:36:04.92	306.33	20.91	-29.2	-29.9	14.5	1.50e-06	0	42	0	608174080	19	3905
2026-01-11 02:36:07.94	305.57	20.83	-29.6	-30.9	13.9	3.80e-06	0	42	0	614465536	19	4179
2026-01-11 02:36:10.95	304.82	20.74	-29.9	-31.6	13.0	3.00e-06	0	42	0	619708416	19	4419
2026-01-11 02:36:13.97	304.07	20.65	-28.7	-29.6	15.2	0.00e+00	0	42	0	625999872	17	4003
2026-01-11 02:36:16.98	303.32	20.56	-28.7	-29.8	15.2	0.00e+00	0	42	0	631242752	17	4054
2026-01-11 02:36:20.00	302.58	20.46	-29.1	-30.2	14.6	1.91e-04	0	42	0	636485632	18	4089
2026-01-11 02:36:23.02	301.84	20.36	-29.7	-31.4	13.5	2.08e-03	0	42	0	642777088	19	4362
2026-01-11 02:36:26.03	301.11	20.25	-29.6	-31.0	13.7	1.14e-05	0	42	0	648019968	19	4248
2026-01-11 02:36:29.04	300.38	20.13	-29.7	-31.4	13.6	1.75e-05	0	42	0	654311424	19	4354
2026-01-11 02:36:32.05	299.66	20.02	-30.1	-31.9	12.7	4.65e-05	0	42	0	659554304	20	4433
2026-01-11 02:36:35.07	298.94	19.90	-30.1	-32.0	12.7	5.64e-05	0	42	0	664797184	20	4457
2026-01-11 02:36:38.09	298.23	19.77	-30.2	-32.3	12.4	3.31e-03	0	42	0	671088640	20	4576
2026-01-11 02:36:41.10	297.53	19.64	-29.9	-31.5	12.9	3.25e-03	0	42	0	676331520	20	4321
2026-01-11 02:36:44.12	296.83	19.51	-29.4	-31.1	13.9	3.02e-03	0	42	0	682622976	18	4377
2026-01-11 02:36:47.14	296.13	19.37	-29.9	-31.9	13.1	3.23e-03	0	42	0	687865856	19	4515
2026-01-11 02:36:50.16	295.45	19.23	-30.0	-31.8	12.7	3.17e-03	0	42	0	693108736	20	4419
2026-01-11 02:36:53.16	294.77	19.09	-29.9	-32.0	13.0	4.60e-04	0	42	0	699400192	19	4547
2026-01-11 02:36:56.18	294.10	18.94	-29.1	-30.2	14.4	3.12e-03	0	42	0	704643072	18	4108
2026-01-11 02:36:59.18	293.43	18.79	-29.1	-30.2	14.4	2.83e-03	0	42	0	709885952	18	4106
2026-01-11 02:37:02.18	292.78	18.64	-29.2	-30.6	14.2	2.93e-03	0	42	0	716177408	18	4216
2026-01-11 02:37:05.20	292.12	18.48	-30.1	-32.1	12.4	3.00e-03	0	42	0	721420288	20	4539
2026-01-11 02:37:08.22	291.48	18.32	-30.4	-33.0	11.8	3.30e-03	0	42	0	727711744	20	4851
2026-01-11 02:37:11.25	290.83	18.16	-30.3	-32.7	12.0	6.64e-04	0	42	0	732954624	20	4760
2026-01-11 02:37:14.26	290.20	17.99	-31.1	-34.2	10.2	2.78e-03	0	42	0	738197504	22	5165
2026-01-11 02:37:17.27	289.58	17.83	-31.3	-35.0	9.5	1.54e-02	0	42	0	744488960	22	5504
2026-01-11 02:37:20.28	288.96	17.66	-30.6	-33.3	11.2	2.73e-03	0	42	0	749731840	21	4876
2026-01-11 02:37:23.30	288.35	17.49	-29.6	-31.1	13.4	1.11e-04	0	42	0	756023296	19	4299
2026-01-11 02:37:26.32	287.74	17.31	-29.6	-31.2	13.3	2.78e-03	0	42	0	761266176	19	4322
2026-01-11 02:37:29.34	287.14	17.14	-29.7	-31.5	13.1	1.22e-05	0	42	0	766509056	19	4434
2026-01-11 02:37:32.35	286.55	16.96	-30.2	-32.4	12.2	1.30e-04	0	42	0	772800512	20	4634
2026-01-11 02:37:35.35	285.97	16.78	-29.7	-31.1	12.9	8.08e-05	0	42	0	778043392	20	4236
2026-01-11 02:37:38.37	285.39	16.60	-29.3	-30.9	13.8	6.80e-06	0	42	0	784334848	18	4338
2026-01-11 02:37:41.39	284.82	16.42	-29.9	-31.9	12.8	4.73e-05	0	42	0	789577728	19	4574
2026-01-11 02:37:44.41	284.26	16.23	-30.7	-33.7	10.6	1.80e-03	0	42	0	794820608	21	5092
2026-01-11 02:37:47.42	283.70	16.05	-30.6	-33.2	11.1	2.30e-03	0	42	0	801112064	21	4882
2026-01-11 02:37:50.44	283.15	15.86	-30.2	-32.6	11.9	4.03e-04	0	42	0	806354944	20	4733
2026-01-11 02:37:53.46	282.61	15.67	-29.9	-31.8	12.4	1.55e-04	0	42	0	812646400	20	4458
2026-01-11 02:37:56.48	282.08	15.49	-30.0	-31.9	12.3	2.05e-03	0	42	0	817889280	20	4512
2026-01-11 02:37:59.50	281.55	15.29	-29.9	-31.5	12.6	1.21e-03	0	42	0	823132160	20	4359
2026-01-11 02:38:02.52	281.02	15.10	-30.2	-32.7	11.8	2.75e-04	0	42	0	829423616	20	4754
2026-01-11 02:38:05.54	280.51	14.91	-30.4	-33.4	11.3	9.37e-04	0	42	0	834666496	20	5034
2026-01-11 02:38:08.56	280.00	14.72	-30.1	-32.4	12.1	7.41e-04	0	42	0	840957952	20	4650
2026-01-11 02:38:11.58	279.50	14.53	-29.9	-32.0	12.7	1.91e-04	0	42	0	846200832	19	4600
2026-01-11 02:38:14.58	279.00	14.33	-29.8	-32.0	12.7	4.32e-04	0	42	0	851443712	19	4599
2026-01-11 02:38:17.59	278.52	14.14	-30.0	-32.1	12.2	8.90e-04	0	42	0	857735168	20	4570
2026-01-11 02:38:20.61	278.03	13.94	-30.0	-32.0	12.3	4.39e-04	0	42	0	862978048	20	4522
2026-01-11 02:38:23.62	277.56	13.75	-29.8	-31.7	12.8	8.18e-04	0	42	0	868220928	19	4509
2026-01-11 02:38:26.65	277.09	13.55	-29.6	-31.3	13.2	7.76e-04	0	42	0	874512384	19	4365
2026-01-11 02:38:29.66	276.63	13.36	-29.6	-31.3	13.2	1.47e-03	0	42	0	879755264	19	4366
2026-01-11 02:38:32.67	276.17	13.16	-29.2	-30.7	13.8	4.84e-04	0	42	0	886046720	18	4271
2026-01-11 02:38:35.69	275.72	12.96	-29.0	-30.2	14.2	3.80e-06	0	42	0	891289600	18	4114
2026-01-11 02:38:38.71	275.27	12.77	-29.5	-31.3	13.5	6.17e-05	0	42	0	896532480	18	4472
2026-01-11 02:38:41.72	274.83	12.57	-29.9	-32.0	12.7	2.44e-03	0	42	0	902823936	19	4583
2026-01-11 02:38:44.74	274.40	12.37	-30.3	-32.9	11.6	2.19e-03	0	42	0	908066816	20	4846
2026-01-11 02:38:47.75	273.97	12.18	-30.4	-32.7	11.3	2.33e-03	0	42	0	914358272	21	4696
2026-01-11 02:38:50.77	273.55	11.98	-30.5	-33.0	11.2	9.67e-04	0	42	0	919601152	21	4773
2026-01-11 02:38:53.79	273.14	11.78	-30.4	-32.7	11.4	2.42e-03	0	42	0	924844032	21	4685
2026-01-11 02:38:56.81	272.73	11.59	-30.5	-33.0	11.2	1.22e-03	0	42	0	931135488	21	4770
2026-01-11 02:38:59.83	272.32	11.39	-30.7	-33.5	10.8	2.48e-03	0	42	0	936378368	21	4993
2026-01-11 02:39:02.83	271.92	11.19	-30.2	-32.6	11.7	2.34e-03	0	42	0	942669824	20	4752
2026-01-11 02:39:05.85	271.53	11.00	-30.2	-32.6	11.7	2.18e-03	0	42	0	947912704	20	4751
2026-01-11 02:39:08.87	271.14	10.80	-30.2	-32.7	11.7	2.87e-03	0	42	0	953155584	20	4783
2026-01-11 02:39:11.89	270.76	10.61	-30.0	-32.0	12.0	2.23e-03	0	42	0	959447040	20	4538
2026-01-11 02:39:14.91	270.38	10.41	-29.4	-31.3	13.3	8.50e-04	0	42	0	964689920	18	4486
2026-01-11 02:39:17.93	270.00	10.21	-29.1	-30.5	13.9	8.30e-06	0	42	0	970981376	18	4218
2026-01-11 02:39:20.95	269.64	10.02	-29.4	-31.1	13.4	1.22e-05	0	42	0	976224256	18	4418
2026-01-11 02:39:23.97	269.27	9.83	-29.7	-31.7	12.7	2.70e-03	0	42	0	981467136	19	4517
2026-01-11 02:39:26.98	268.92	9.63	-30.0	-32.0	12.0	3.72e-03	0	42	0	987758592	20	4539
2026-01-11 02:39:30.00	268.56	9.44	-29.9	-32.3	12.2	4.43e-03	0	42	0	993001472	19	4719
2026-01-11 02:39:33.02	268.21	9.25	-29.9	-32.3	12.1	3.26e-04	0	42	0	999292928	19	4748
2026-01-11 02:39:36.04	267.87	9.05	-30.2	-32.8	11.4	5.70e-04	0	42	0	1004535808	20	4838
2026-01-11 02:39:39.06	267.53	8.86	-30.0	-32.2	11.8	3.64e-03	0	42	0	1009778688	20	4623
2026-01-11 02:39:42.07	267.20	8.67	-29.9	-31.9	12.0	3.42e-03	0	42	0	1016070144	20	4508
2026-01-11 02:39:45.09	266.87	8.48	-30.2	-32.7	11.4	4.19e-03	0	42	0	1021313024	20	4805
2026-01-11 02:39:48.11	266.54	8.29	-30.2	-32.8	11.3	4.34e-03	0	42	0	1027604480	20	4849
2026-01-11 02:39:51.12	266.22	8.10	-30.3	-33.0	11.2	4.96e-03	0	42	0	1032847360	20	4932
2026-01-11 02:39:54.15	265.90	7.91	-30.5	-33.3	10.6	5.94e-03	0	42	0	1038090240	21	4966
2026-01-11 02:39:57.17	265.59	7.72	-30.5	-33.2	10.6	4.28e-03	0	42	0	1044381696	21	4902
2026-01-11 02:40:00.18	265.28	7.53	-30.6	-33.7	10.2	5.19e-03	0	42	0	1049624576	21	5125
2026-01-11 02:40:03.20	264.97	7.35	-30.8	-34.2	9.8	1.10e-02	0	42	0	1054867456	21	5360
2026-01-11 02:40:06.20	264.67	7.16	-31.3	-35.7	8.2	4.05e-02	0	42	0	1061158912	22	5990
2026-01-11 02:40:09.22	264.38	6.98	-33.1	-45.5	3.8	1.49e+00	0	42	104	1063256064	26	14981

#Closed at: 2026-01-11 02:40:10
#Recorded file [1063 MB]: D:/data/31010_260111_053039.dat