passes_logs/2026/01/11/R2M6_AANII_01/R2M6_AANII_01__20260111_132835_FENGYUN_3E_rec.log

#Pass ID: 20260111_132835_FENGYUN 3E
#Satellite: FENGYUN 3E
#Configuration: FENGYUN 3E
#almurnet v.1.7.20240730
#Start time: 2026-01-11 13:34:47

#Version: 2.2.20231116
#Station: R2M6_AANII_01
#Location: 30.233357 lon 59.946436 lat
#TLE: 1 49008U 21062A   26010.98903141  .00000148  00000+0  90257-4 0  9995
#TLE: 2 49008  98.7490  16.1644 0001865 146.3673 213.7622 14.19884943234274

#Time	Az	El	Level	Level2	SNR	BER	BlckErr	Temp	State	Recorded	gain1	gain2
2026-01-11 13:34:47.29	40.78	38.22	-33.5	-45.0	3.8	8.47e-01	0	42	0	0	26	13595
2026-01-11 13:34:49.27	39.94	38.08	-33.9	-43.2	3.8	8.47e-01	0	43	104	0	28	10471
2026-01-11 13:34:51.26	39.11	37.94	-33.9	-43.3	3.8	8.45e-01	0	43	104	0	28	10553
2026-01-11 13:34:53.26	38.28	37.79	-33.9	-43.3	3.8	8.46e-01	0	43	104	0	28	10540
2026-01-11 13:34:55.25	37.46	37.64	-33.9	-43.3	3.8	8.46e-01	0	43	104	0	28	10544
2026-01-11 13:34:57.24	36.64	37.48	-33.9	-43.2	3.8	8.46e-01	0	43	104	0	28	10525
2026-01-11 13:34:59.23	35.84	37.31	-33.9	-43.2	3.8	8.47e-01	0	43	104	0	28	10472
2026-01-11 13:35:01.21	35.05	37.14	-33.9	-43.1	3.8	8.46e-01	0	43	104	0	28	10426
2026-01-11 13:35:03.20	34.26	36.97	-33.9	-43.3	3.8	8.46e-01	0	43	104	0	28	10596
2026-01-11 13:35:05.19	33.49	36.79	-34.0	-43.3	3.8	8.47e-01	0	43	104	0	28	10611
2026-01-11 13:35:07.17	32.72	36.60	-34.0	-43.3	3.8	8.46e-01	0	43	104	0	28	10585
2026-01-11 13:35:09.17	31.96	36.41	-33.9	-43.3	3.8	8.46e-01	0	43	104	0	28	10587
2026-01-11 13:35:11.17	31.20	36.21	-33.9	-43.1	3.8	8.46e-01	0	43	104	0	28	10435
2026-01-11 13:35:13.16	30.46	36.01	-33.9	-43.0	3.8	8.45e-01	0	43	104	0	28	10374
2026-01-11 13:35:15.15	29.73	35.81	-33.8	-42.9	3.8	8.47e-01	0	43	104	0	28	10267
2026-01-11 13:35:17.13	29.01	35.60	-33.6	-41.7	3.8	8.46e-01	0	43	104	0	28	9155
2026-01-11 13:35:19.10	28.30	35.39	-33.5	-41.2	3.8	8.47e-01	0	43	104	0	28	8727
2026-01-11 13:35:21.07	27.60	35.18	-33.6	-42.1	3.8	8.45e-01	0	43	104	0	28	9503
2026-01-11 13:35:23.06	26.91	34.96	-33.7	-42.6	3.8	8.45e-01	0	43	104	0	28	9985
2026-01-11 13:35:25.03	26.23	34.74	-33.6	-41.8	3.8	8.46e-01	0	43	104	0	28	9251
2026-01-11 13:35:27.01	25.55	34.52	-33.5	-40.9	3.8	8.45e-01	0	43	104	0	28	8443
2026-01-11 13:35:28.99	24.89	34.29	-33.6	-41.9	3.8	8.46e-01	0	43	104	0	28	9324
2026-01-11 13:35:30.98	24.23	34.06	-33.6	-41.9	3.8	8.45e-01	0	43	104	0	28	9352
2026-01-11 13:35:32.96	23.59	33.83	-33.5	-40.7	3.8	8.46e-01	0	43	104	0	28	8283
2026-01-11 13:35:34.95	22.95	33.60	-32.8	-37.7	4.9	8.06e-01	0	43	0	0	26	6346
2026-01-11 13:35:36.94	22.32	33.36	-31.5	-33.9	7.6	1.48e-01	0	43	0	9437184	24	4741
2026-01-11 13:35:38.93	21.70	33.12	-30.7	-32.7	8.9	3.86e-02	0	43	0	23068672	22	4537
2026-01-11 13:35:40.92	21.08	32.88	-27.1	-27.5	14.1	1.60e-05	0	43	0	37748736	15	3764
2026-01-11 13:35:42.92	20.48	32.63	-27.2	-28.2	13.9	3.40e-06	0	43	0	52428800	14	4053
2026-01-11 13:35:44.91	19.89	32.39	-26.3	-26.7	15.1	0.00e+00	0	43	0	67108864	13	3773
2026-01-11 13:35:46.92	19.30	32.14	-25.5	-25.5	16.0	0.00e+00	0	43	0	80740352	12	3587
2026-01-11 13:35:48.92	18.72	31.89	-25.7	-26.4	15.9	0.00e+00	0	43	0	95420416	11	3901
2026-01-11 13:35:50.91	18.15	31.65	-25.8	-26.2	15.6	0.00e+00	0	43	0	110100480	12	3753
2026-01-11 13:35:52.89	17.60	31.40	-24.6	-24.6	17.1	0.00e+00	0	43	0	123731968	10	3594
2026-01-11 13:35:54.89	17.04	31.15	-23.6	-23.5	18.1	0.00e+00	0	43	0	138412032	8	3558
2026-01-11 13:35:56.88	16.50	30.89	-23.3	-23.2	18.5	0.00e+00	0	43	0	153092096	7	3591
2026-01-11 13:35:58.88	15.97	30.64	-23.1	-23.0	18.6	0.00e+00	0	43	0	167772160	7	3528
2026-01-11 13:36:00.86	15.45	30.39	-23.0	-22.6	18.8	0.00e+00	0	43	0	181403648	7	3456
2026-01-11 13:36:02.84	14.93	30.14	-23.1	-22.8	18.7	0.00e+00	0	43	0	196083712	7	3495
2026-01-11 13:36:04.82	14.43	29.89	-23.3	-23.3	18.4	0.00e+00	0	43	0	210763776	7	3609
2026-01-11 13:36:06.81	13.93	29.63	-23.2	-23.1	18.5	0.00e+00	0	43	0	224395264	7	3564
2026-01-11 13:36:08.79	13.44	29.38	-23.3	-23.3	18.4	0.00e+00	0	43	0	239075328	7	3611
2026-01-11 13:36:10.76	12.96	29.13	-23.0	-22.6	18.8	0.00e+00	0	43	0	253755392	7	3458
2026-01-11 13:36:12.73	12.49	28.88	-23.1	-22.9	18.7	0.00e+00	0	43	0	267386880	7	3514
2026-01-11 13:36:14.70	12.02	28.63	-23.2	-23.2	18.5	0.00e+00	0	43	0	282066944	7	3580
2026-01-11 13:36:16.68	11.57	28.38	-23.3	-23.3	18.4	0.00e+00	0	43	0	295698432	7	3597
2026-01-11 13:36:18.64	11.12	28.13	-23.0	-22.8	18.7	0.00e+00	0	43	0	310378496	7	3484
2026-01-11 13:36:20.61	10.68	27.88	-23.2	-23.2	18.5	0.00e+00	0	43	0	324009984	7	3583
2026-01-11 13:36:22.59	10.24	27.63	-23.5	-23.7	18.2	0.00e+00	0	43	0	338690048	7	3690
2026-01-11 13:36:24.57	9.81	27.38	-23.6	-24.0	18.0	0.00e+00	0	43	0	353370112	7	3773
2026-01-11 13:36:26.56	9.38	27.13	-23.7	-24.1	18.0	0.00e+00	0	43	0	367001600	7	3791
2026-01-11 13:36:28.55	8.96	26.88	-23.6	-23.9	18.1	0.00e+00	0	43	0	381681664	7	3725
2026-01-11 13:36:30.53	8.55	26.63	-23.0	-22.7	18.7	0.00e+00	0	43	0	396361728	7	3480
2026-01-11 13:36:32.52	8.14	26.38	-23.1	-22.8	18.6	0.00e+00	0	43	0	409993216	7	3506
2026-01-11 13:36:34.48	7.75	26.13	-23.2	-23.2	18.4	0.00e+00	0	43	0	424673280	7	3576
2026-01-11 13:36:36.46	7.36	25.89	-23.2	-23.1	18.4	0.00e+00	0	43	0	438304768	7	3571
2026-01-11 13:36:38.45	6.97	25.64	-23.2	-23.2	18.4	0.00e+00	0	43	0	452984832	7	3571
2026-01-11 13:36:40.43	6.59	25.39	-23.1	-22.9	18.6	0.00e+00	0	43	0	467664896	7	3515
2026-01-11 13:36:42.41	6.22	25.15	-23.3	-23.4	18.3	0.00e+00	0	43	0	481296384	7	3619
2026-01-11 13:36:44.38	5.85	24.91	-23.6	-23.9	18.0	0.00e+00	0	43	0	495976448	7	3736
2026-01-11 13:36:46.36	5.49	24.67	-23.6	-23.9	18.0	0.00e+00	0	43	0	510656512	7	3741
2026-01-11 13:36:48.35	5.13	24.42	-23.5	-23.8	18.1	0.00e+00	0	43	0	524288000	7	3714
2026-01-11 13:36:50.33	4.78	24.18	-23.6	-24.0	17.9	0.00e+00	0	43	0	538968064	7	3772
2026-01-11 13:36:52.31	4.43	23.94	-23.4	-23.5	18.2	0.00e+00	0	43	0	553648128	7	3651
2026-01-11 13:36:54.28	4.10	23.71	-23.3	-23.3	18.4	0.00e+00	0	43	0	567279616	7	3595
2026-01-11 13:36:56.26	3.76	23.47	-23.0	-22.6	18.6	0.00e+00	0	43	0	581959680	7	3464
2026-01-11 13:36:58.24	3.43	23.23	-23.1	-22.9	18.5	0.00e+00	0	43	0	596639744	7	3512
2026-01-11 13:37:00.21	3.11	23.00	-23.3	-23.3	18.3	0.00e+00	0	43	0	610271232	7	3600
2026-01-11 13:37:02.20	2.79	22.77	-23.4	-23.6	18.2	0.00e+00	0	43	0	624951296	7	3663
2026-01-11 13:37:04.18	2.47	22.53	-23.4	-23.6	18.1	0.00e+00	0	43	0	638582784	7	3668
2026-01-11 13:37:06.16	2.16	22.30	-23.2	-23.1	18.4	0.00e+00	0	43	0	653262848	7	3568
2026-01-11 13:37:08.15	1.85	22.07	-23.2	-23.0	18.4	0.00e+00	0	43	0	667942912	7	3544
2026-01-11 13:37:10.13	1.55	21.84	-23.4	-23.6	18.2	0.00e+00	0	43	0	681574400	7	3660
2026-01-11 13:37:12.12	1.25	21.61	-23.7	-24.1	17.9	0.00e+00	0	43	0	696254464	7	3784
2026-01-11 13:37:14.11	0.96	21.39	-23.9	-24.7	17.6	0.00e+00	0	43	0	710934528	7	3918
2026-01-11 13:37:16.09	0.67	21.16	-24.7	-25.3	16.7	0.00e+00	0	43	0	724566016	9	3843
2026-01-11 13:37:18.08	0.39	20.94	-24.6	-25.2	16.8	0.00e+00	0	43	0	739246080	9	3820
2026-01-11 13:37:20.06	0.11	20.71	-24.7	-25.2	16.8	0.00e+00	0	43	0	753926144	9	3833
2026-01-11 13:37:22.03	359.83	20.49	-24.7	-25.2	16.8	0.00e+00	0	43	0	767557632	9	3836
2026-01-11 13:37:23.99	359.56	20.27	-25.1	-25.7	16.2	0.00e+00	0	43	0	782237696	10	3859
2026-01-11 13:37:25.98	359.30	20.05	-24.4	-24.3	17.0	0.00e+00	0	43	0	795869184	10	3527
2026-01-11 13:37:27.96	359.03	19.84	-24.2	-24.3	17.2	0.00e+00	0	43	0	810549248	9	3632
2026-01-11 13:37:29.93	358.77	19.62	-24.3	-24.4	17.1	0.00e+00	0	43	0	824180736	9	3658
2026-01-11 13:37:31.90	358.52	19.41	-24.1	-24.0	17.4	0.00e+00	0	43	0	838860800	9	3552
2026-01-11 13:37:33.88	358.27	19.19	-24.1	-24.1	17.3	0.00e+00	0	43	0	853540864	9	3576
2026-01-11 13:37:35.84	358.02	18.98	-24.2	-24.3	17.2	0.00e+00	0	43	0	867172352	9	3637
2026-01-11 13:37:37.82	357.78	18.77	-24.7	-25.3	16.6	0.00e+00	0	43	0	881852416	9	3865
2026-01-11 13:37:39.80	357.53	18.56	-24.4	-24.7	16.9	0.00e+00	0	43	0	896532480	9	3727
2026-01-11 13:37:41.78	357.30	18.35	-24.5	-24.8	16.9	0.00e+00	0	43	0	910163968	9	3735
2026-01-11 13:37:43.76	357.06	18.14	-24.6	-25.1	16.7	0.00e+00	0	43	0	924844032	9	3804
2026-01-11 13:37:45.73	356.83	17.94	-24.5	-24.9	16.8	0.00e+00	0	43	0	938475520	9	3772
2026-01-11 13:37:47.70	356.60	17.73	-24.8	-25.5	16.5	0.00e+00	0	43	0	953155584	9	3898
2026-01-11 13:37:49.67	356.38	17.53	-24.7	-25.2	16.6	0.00e+00	0	43	0	966787072	9	3841
2026-01-11 13:37:51.64	356.16	17.33	-24.5	-24.9	16.8	0.00e+00	0	43	0	981467136	9	3753
2026-01-11 13:37:53.60	355.94	17.13	-24.7	-25.3	16.6	0.00e+00	0	43	0	996147200	9	3858
2026-01-11 13:37:55.58	355.72	16.93	-24.8	-25.6	16.4	0.00e+00	0	43	0	1009778688	9	3927
2026-01-11 13:37:57.55	355.51	16.73	-24.8	-25.5	16.5	0.00e+00	0	43	0	1024458752	9	3898
2026-01-11 13:37:59.52	355.30	16.53	-24.9	-25.7	16.3	0.00e+00	0	43	0	1038090240	9	3959
2026-01-11 13:38:01.50	355.10	16.34	-25.0	-25.9	16.2	0.00e+00	0	43	0	1052770304	9	3991
2026-01-11 13:38:03.49	354.89	16.14	-25.2	-25.8	16.0	0.00e+00	0	43	0	1067450368	10	3875
2026-01-11 13:38:05.48	354.69	15.94	-25.3	-26.0	15.9	0.00e+00	0	43	0	1081081856	10	3928
2026-01-11 13:38:07.47	354.49	15.75	-25.4	-26.3	15.7	0.00e+00	0	43	0	1095761920	10	3993
2026-01-11 13:38:09.46	354.29	15.56	-25.6	-26.3	15.5	0.00e+00	0	43	0	1110441984	11	3889
2026-01-11 13:38:11.43	354.10	15.37	-25.5	-25.9	15.7	0.00e+00	0	43	0	1124073472	11	3808
2026-01-11 13:38:13.42	353.90	15.18	-25.5	-26.0	15.6	0.00e+00	0	43	0	1138753536	11	3822
2026-01-11 13:38:15.40	353.71	14.99	-25.6	-26.2	15.5	0.00e+00	0	43	0	1153433600	11	3862
2026-01-11 13:38:17.39	353.53	14.80	-25.2	-25.5	15.9	0.00e+00	0	43	0	1167065088	11	3701
2026-01-11 13:38:19.38	353.34	14.61	-25.4	-25.8	15.7	0.00e+00	0	43	0	1181745152	11	3764
2026-01-11 13:38:21.35	353.16	14.43	-25.5	-26.0	15.6	0.00e+00	0	43	0	1196425216	11	3825
2026-01-11 13:38:23.34	352.98	14.24	-25.3	-25.6	15.8	0.00e+00	0	43	0	1210056704	11	3721
2026-01-11 13:38:25.32	352.80	14.06	-25.3	-25.5	15.8	0.00e+00	0	43	0	1224736768	11	3704
2026-01-11 13:38:27.30	352.63	13.88	-25.4	-25.9	15.6	0.00e+00	0	43	0	1239416832	11	3800
2026-01-11 13:38:29.27	352.46	13.70	-25.4	-25.9	15.6	0.00e+00	0	43	0	1253048320	11	3792
2026-01-11 13:38:31.24	352.29	13.52	-25.5	-26.0	15.5	0.00e+00	0	43	0	1267728384	11	3828
2026-01-11 13:38:33.23	352.12	13.34	-25.5	-26.0	15.5	0.00e+00	0	43	0	1281359872	11	3828
2026-01-11 13:38:35.21	351.95	13.16	-25.6	-26.2	15.4	0.00e+00	0	43	0	1296039936	11	3872
2026-01-11 13:38:37.20	351.79	12.98	-25.6	-26.3	15.3	0.00e+00	0	43	0	1310720000	11	3893
2026-01-11 13:38:39.20	351.62	12.81	-25.6	-26.3	15.3	0.00e+00	0	43	0	1325400064	11	3891
2026-01-11 13:38:41.19	351.46	12.63	-25.6	-26.2	15.4	0.00e+00	0	43	0	1339031552	11	3878
2026-01-11 13:38:43.19	351.30	12.46	-25.7	-26.5	15.3	0.00e+00	0	43	0	1353711616	11	3932
2026-01-11 13:38:45.19	351.14	12.28	-25.8	-26.7	15.1	0.00e+00	0	43	0	1368391680	11	3991
2026-01-11 13:38:47.18	350.99	12.11	-26.1	-26.8	14.7	0.00e+00	0	43	0	1382023168	12	3932
2026-01-11 13:38:49.19	350.83	11.94	-25.8	-26.4	14.9	0.00e+00	0	43	0	1396703232	12	3819
2026-01-11 13:38:51.18	350.68	11.77	-26.3	-27.3	14.4	1.10e-06	0	43	0	1411383296	12	4042
2026-01-11 13:38:53.17	350.53	11.60	-26.4	-27.6	14.2	0.00e+00	0	43	0	1426063360	12	4134
2026-01-11 13:38:55.16	350.39	11.43	-26.2	-27.0	14.5	2.20e-06	0	43	0	1439694848	12	3987
2026-01-11 13:38:57.15	350.24	11.26	-26.1	-26.9	14.6	0.00e+00	0	43	0	1454374912	12	3945
2026-01-11 13:38:59.14	350.10	11.09	-26.2	-27.2	14.4	1.10e-06	0	43	0	1469054976	12	4031
2026-01-11 13:39:01.14	349.95	10.93	-26.1	-26.9	14.6	0.00e+00	0	43	0	1482686464	12	3940
2026-01-11 13:39:03.12	349.81	10.76	-26.2	-27.1	14.4	0.00e+00	0	43	0	1497366528	12	4005
2026-01-11 13:39:05.13	349.67	10.60	-26.1	-27.0	14.5	0.00e+00	0	43	0	1512046592	12	3966
2026-01-11 13:39:07.13	349.53	10.44	-26.1	-26.8	14.6	0.00e+00	0	43	0	1526726656	12	3920
2026-01-11 13:39:09.12	349.40	10.27	-26.2	-27.1	14.4	1.10e-06	0	43	0	1540358144	12	3992
2026-01-11 13:39:11.12	349.26	10.11	-26.3	-27.4	14.2	5.70e-06	0	43	0	1555038208	12	4068
2026-01-11 13:39:13.11	349.13	9.95	-26.2	-27.1	14.3	1.10e-06	0	43	0	1569718272	12	3999
2026-01-11 13:39:15.10	349.00	9.79	-26.1	-27.0	14.4	1.10e-06	0	43	0	1584398336	12	3971
2026-01-11 13:39:17.09	348.87	9.63	-26.3	-27.3	14.2	1.10e-06	0	43	0	1598029824	12	4045
2026-01-11 13:39:19.08	348.74	9.48	-26.3	-27.4	14.2	3.40e-06	0	43	0	1612709888	12	4082
2026-01-11 13:39:21.05	348.62	9.32	-26.3	-27.4	14.1	0.00e+00	0	43	0	1627389952	12	4090
2026-01-11 13:39:23.03	348.49	9.17	-26.3	-27.4	14.1	2.20e-06	0	43	0	1641021440	12	4070
2026-01-11 13:39:25.02	348.37	9.01	-26.3	-27.4	14.1	4.50e-06	0	43	0	1655701504	12	4088
2026-01-11 13:39:27.00	348.25	8.86	-26.3	-27.5	14.1	5.70e-06	0	43	0	1670381568	12	4099
2026-01-11 13:39:28.98	348.13	8.71	-26.4	-27.7	13.9	3.40e-06	0	43	0	1684013056	12	4145
2026-01-11 13:39:30.97	348.01	8.55	-26.4	-27.5	14.0	2.20e-06	0	43	0	1698693120	12	4117
2026-01-11 13:39:32.96	347.89	8.40	-26.4	-27.5	14.0	3.40e-06	0	43	0	1713373184	12	4120
2026-01-11 13:39:34.94	347.77	8.25	-26.2	-27.2	14.2	1.10e-06	0	43	0	1727004672	12	4021
2026-01-11 13:39:36.93	347.65	8.10	-26.5	-27.8	13.8	8.00e-06	0	43	0	1741684736	12	4194
2026-01-11 13:39:38.94	347.54	7.95	-26.6	-27.6	13.6	1.25e-05	0	43	0	1755316224	13	4025
2026-01-11 13:39:40.93	347.43	7.80	-26.4	-27.1	13.9	4.50e-06	0	43	0	1769996288	13	3915
2026-01-11 13:39:42.93	347.31	7.65	-26.7	-27.7	13.5	1.14e-05	0	43	0	1784676352	13	4061
2026-01-11 13:39:44.93	347.20	7.50	-26.4	-27.1	13.9	5.70e-06	0	43	0	1799356416	13	3905
2026-01-11 13:39:46.93	347.09	7.36	-26.8	-28.1	13.2	2.63e-05	0	43	0	1814036480	13	4181
2026-01-11 13:39:48.92	346.98	7.21	-27.4	-28.8	12.5	9.38e-05	0	43	0	1827667968	14	4265
2026-01-11 13:39:50.90	346.88	7.07	-32.5	-39.2	3.9	8.46e-01	0	43	104	1839202304	25	7857

#Closed at: 2026-01-11 13:39:51
#Recorded file [1839 MB]: D:/data/31010_260111_163534.dat