passes_logs/2026/01/11/R2M6_AANII_01/R2M6_AANII_01__20260111_104244_SUOMI_NPP_rec.log

#Pass ID: 20260111_104244_SUOMI NPP
#Satellite: SUOMI NPP
#Configuration: NPP
#almurnet v.1.7.20240730
#Start time: 2026-01-11 10:42:44

#Version: 2.2.20231116
#Station: R2M6_AANII_01
#Location: 30.233357 lon 59.946436 lat
#TLE: 1 37849U 11061A   26009.81756760  .00000113  00000+0  74747-4 0  9994
#TLE: 2 37849  98.7806 311.9110 0002525  72.5604 287.5848 14.19524046735974

#Time	Az	El	Level	Level2	SNR	BER	BlckErr	Temp	State	Recorded	gain1	gain2
2026-01-11 10:42:44.51	170.13	6.97	-30.8	-34.3	5.3	1.25e+00	0	39	0	0	22	5381
2026-01-11 10:42:47.54	170.20	7.21	-31.2	-35.3	8.1	5.17e-02	0	39	0	1048576	23	5726
2026-01-11 10:42:50.55	170.27	7.44	-30.8	-33.4	9.5	2.60e-02	0	39	0	7340032	23	4865
2026-01-11 10:42:53.57	170.34	7.68	-30.3	-32.3	10.9	2.66e-03	0	40	0	12582912	22	4509
2026-01-11 10:42:56.59	170.41	7.92	-30.2	-32.3	11.3	1.23e-03	0	39	0	18874368	21	4580
2026-01-11 10:42:59.61	170.48	8.16	-30.2	-32.2	11.3	1.13e-03	0	40	0	24117248	21	4564
2026-01-11 10:43:02.63	170.56	8.40	-30.3	-32.7	11.0	1.31e-03	0	40	0	29360128	21	4717
2026-01-11 10:43:05.64	170.63	8.65	-30.1	-32.0	11.6	1.14e-03	0	40	0	35651584	21	4471
2026-01-11 10:43:08.65	170.71	8.90	-30.3	-32.4	11.3	1.23e-03	0	40	0	40894464	21	4594
2026-01-11 10:43:11.67	170.78	9.15	-29.9	-31.3	12.1	2.23e-04	0	40	0	47185920	21	4219
2026-01-11 10:43:14.68	170.86	9.40	-29.7	-31.3	12.5	1.13e-04	0	40	0	52428800	20	4308
2026-01-11 10:43:17.70	170.94	9.65	-29.7	-31.3	12.5	1.33e-04	0	40	0	57671680	20	4315
2026-01-11 10:43:20.73	171.02	9.91	-29.7	-31.3	12.5	7.78e-05	0	40	0	63963136	20	4302
2026-01-11 10:43:23.75	171.10	10.18	-29.7	-31.1	12.7	7.47e-05	0	41	0	69206016	20	4233
2026-01-11 10:43:26.77	171.19	10.44	-29.6	-30.9	12.9	5.11e-05	0	40	0	75497472	20	4164
2026-01-11 10:43:29.78	171.27	10.71	-29.8	-31.3	12.6	8.08e-05	0	40	0	80740352	20	4305
2026-01-11 10:43:32.80	171.36	10.98	-29.5	-30.6	13.1	3.58e-05	0	41	0	85983232	20	4069
2026-01-11 10:43:35.82	171.45	11.25	-29.5	-30.6	13.1	1.90e-05	0	41	0	92274688	20	4080
2026-01-11 10:43:38.85	171.54	11.53	-29.6	-30.7	13.1	4.50e-05	0	41	0	97517568	20	4104
2026-01-11 10:43:41.87	171.63	11.81	-29.3	-30.3	13.7	6.80e-06	0	41	0	103809024	19	4060
2026-01-11 10:43:44.88	171.72	12.09	-29.3	-30.2	13.8	3.80e-06	0	41	0	109051904	19	4037
2026-01-11 10:43:47.90	171.81	12.37	-29.3	-30.3	13.7	6.80e-06	0	41	0	114294784	19	4069
2026-01-11 10:43:50.90	171.91	12.66	-29.4	-30.7	13.6	6.80e-06	0	41	0	120586240	19	4159
2026-01-11 10:43:53.92	172.00	12.95	-29.4	-30.7	13.6	4.50e-06	0	41	0	125829120	19	4184
2026-01-11 10:43:56.94	172.10	13.25	-29.4	-30.6	13.6	1.29e-05	0	41	0	131072000	19	4147
2026-01-11 10:43:59.95	172.20	13.54	-29.2	-30.1	14.0	2.20e-06	0	41	0	137363456	19	3987
2026-01-11 10:44:02.97	172.31	13.85	-29.1	-29.9	14.2	1.50e-06	0	41	0	142606336	19	3947
2026-01-11 10:44:05.99	172.41	14.15	-29.1	-29.9	14.2	1.50e-06	0	41	0	148897792	19	3945
2026-01-11 10:44:09.02	172.52	14.47	-29.4	-30.5	13.8	7.60e-06	0	41	0	154140672	19	4123
2026-01-11 10:44:12.03	172.63	14.78	-29.1	-29.8	14.3	4.50e-06	0	41	0	159383552	19	3901
2026-01-11 10:44:15.05	172.74	15.10	-29.1	-29.9	14.2	1.50e-06	0	41	0	165675008	19	3923
2026-01-11 10:44:18.06	172.85	15.42	-29.2	-30.1	14.1	3.80e-06	0	41	0	170917888	19	4001
2026-01-11 10:44:21.08	172.96	15.75	-29.2	-30.0	14.1	7.00e-07	0	41	0	177209344	19	3977
2026-01-11 10:44:24.10	173.08	16.08	-29.3	-30.2	14.0	1.50e-06	0	41	0	182452224	19	4015
2026-01-11 10:44:27.11	173.20	16.41	-29.4	-30.7	13.8	6.10e-06	0	41	0	187695104	19	4161
2026-01-11 10:44:30.14	173.32	16.75	-29.6	-31.2	13.5	9.90e-06	0	41	0	193986560	19	4311
2026-01-11 10:44:33.15	173.45	17.10	-29.7	-31.4	13.4	1.22e-05	0	41	0	199229440	19	4371
2026-01-11 10:44:36.17	173.58	17.45	-29.8	-31.6	13.3	1.44e-05	0	41	0	205520896	19	4426
2026-01-11 10:44:39.18	173.71	17.80	-29.8	-31.5	13.4	1.52e-05	0	41	0	210763776	19	4401
2026-01-11 10:44:42.19	173.84	18.16	-29.9	-31.8	13.3	1.37e-05	0	41	0	216006656	19	4459
2026-01-11 10:44:45.19	173.98	18.52	-30.1	-31.8	12.8	3.20e-05	0	41	0	222298112	20	4391
2026-01-11 10:44:48.21	174.11	18.89	-30.4	-32.7	12.2	1.79e-04	0	41	0	227540992	20	4684
2026-01-11 10:44:51.23	174.26	19.27	-30.3	-32.0	12.4	2.61e-04	0	41	0	233832448	21	4357
2026-01-11 10:44:54.24	174.40	19.65	-30.5	-32.4	12.2	1.91e-04	0	41	0	239075328	21	4488
2026-01-11 10:44:57.26	174.55	20.04	-30.3	-31.8	12.5	7.01e-05	0	41	0	244318208	21	4296
2026-01-11 10:45:00.28	174.71	20.43	-30.1	-31.4	12.8	1.07e-04	0	41	0	250609664	21	4183
2026-01-11 10:45:03.28	174.86	20.82	-30.2	-31.6	12.7	3.96e-05	0	42	0	255852544	21	4230
2026-01-11 10:45:06.30	175.02	21.23	-30.5	-32.4	12.2	1.37e-04	0	42	0	261095424	21	4478
2026-01-11 10:45:09.32	175.19	21.64	-30.3	-31.9	12.5	1.42e-04	0	41	0	267386880	21	4319
2026-01-11 10:45:12.34	175.35	22.06	-30.5	-32.4	12.2	1.82e-04	0	41	0	272629760	21	4500
2026-01-11 10:45:15.36	175.53	22.49	-30.3	-31.9	12.5	7.78e-05	0	42	0	278921216	21	4323
2026-01-11 10:45:18.38	175.70	22.92	-30.4	-32.2	12.3	1.58e-04	0	41	0	284164096	21	4421
2026-01-11 10:45:21.40	175.89	23.36	-30.4	-32.1	12.4	1.40e-04	0	42	0	289406976	21	4381
2026-01-11 10:45:24.42	176.07	23.80	-30.3	-31.9	12.6	9.23e-05	0	42	0	295698432	21	4322
2026-01-11 10:45:27.44	176.27	24.26	-30.1	-31.1	13.2	3.50e-05	0	41	0	300941312	21	4055
2026-01-11 10:45:30.46	176.46	24.72	-29.9	-31.2	13.4	7.60e-06	0	42	0	307232768	20	4181
2026-01-11 10:45:33.48	176.67	25.19	-29.9	-31.1	13.6	4.50e-06	0	42	0	312475648	20	4152
2026-01-11 10:45:36.50	176.88	25.67	-29.9	-31.2	13.5	7.60e-06	0	41	0	317718528	20	4167
2026-01-11 10:45:39.52	177.09	26.15	-29.7	-30.6	13.8	7.60e-06	0	42	0	324009984	20	3999
2026-01-11 10:45:42.53	177.31	26.65	-29.7	-30.5	13.9	2.20e-06	0	42	0	329252864	20	3965
2026-01-11 10:45:45.54	177.54	27.15	-29.6	-30.3	14.1	3.80e-06	0	42	0	335544320	20	3923
2026-01-11 10:45:48.55	177.77	27.66	-29.6	-30.4	14.0	1.50e-06	0	42	0	340787200	20	3941
2026-01-11 10:45:51.57	178.02	28.18	-29.4	-29.8	14.4	1.50e-06	0	42	0	346030080	20	3766
2026-01-11 10:45:54.60	178.27	28.71	-29.3	-30.1	14.6	7.00e-07	0	42	0	352321536	19	3942
2026-01-11 10:45:57.61	178.53	29.25	-29.9	-31.6	13.7	5.30e-06	0	42	0	357564416	19	4387
2026-01-11 10:46:00.63	178.79	29.80	-30.1	-31.7	13.2	1.83e-05	0	41	0	363855872	20	4327
2026-01-11 10:46:03.65	179.07	30.36	-29.8	-30.8	13.9	1.44e-05	0	42	0	369098752	20	4046
2026-01-11 10:46:06.66	179.35	30.93	-30.1	-31.6	13.4	1.14e-05	0	42	0	374341632	20	4278
2026-01-11 10:46:09.69	179.65	31.52	-30.6	-32.5	12.4	1.49e-04	0	42	0	380633088	21	4490
2026-01-11 10:46:12.70	179.96	32.11	-31.2	-33.8	11.3	9.47e-04	0	42	0	385875968	22	4855
2026-01-11 10:46:15.71	180.27	32.71	-31.1	-33.4	11.4	1.21e-03	0	42	0	392167424	22	4730
2026-01-11 10:46:18.72	180.60	33.32	-30.9	-32.8	11.9	5.69e-04	0	42	0	397410304	22	4504
2026-01-11 10:46:21.74	180.94	33.95	-30.5	-31.6	12.6	5.87e-05	0	42	0	402653184	22	4104
2026-01-11 10:46:24.75	181.29	34.59	-30.4	-32.0	12.8	5.87e-05	0	42	0	408944640	21	4317
2026-01-11 10:46:27.76	181.66	35.24	-30.5	-32.2	12.6	8.08e-05	0	42	0	414187520	21	4396
2026-01-11 10:46:30.79	182.04	35.90	-31.0	-33.0	11.8	3.16e-04	0	42	0	420478976	22	4571
2026-01-11 10:46:33.80	182.44	36.58	-31.4	-34.4	10.9	1.19e-03	0	42	0	425721856	22	5083
2026-01-11 10:46:36.81	182.85	37.26	-31.4	-33.7	10.7	2.49e-03	0	42	0	430964736	23	4735
2026-01-11 10:46:39.83	183.28	37.96	-31.0	-32.7	11.6	1.18e-03	0	42	0	437256192	23	4365
2026-01-11 10:46:42.84	183.73	38.68	-31.9	-35.5	9.8	5.63e-03	0	42	0	442499072	23	5443
2026-01-11 10:46:45.87	184.20	39.41	-32.1	-35.9	9.0	4.59e-02	0	42	0	448790528	24	5564
2026-01-11 10:46:48.88	184.69	40.15	-32.3	-36.6	8.5	3.94e-02	0	42	0	454033408	24	5903
2026-01-11 10:46:51.91	185.21	40.90	-32.3	-36.1	8.5	3.30e-02	0	42	0	459276288	25	5575
2026-01-11 10:46:54.92	185.74	41.67	-32.2	-35.6	8.8	3.05e-02	0	42	0	465567744	25	5360
2026-01-11 10:46:57.94	186.31	42.45	-31.7	-34.4	10.1	8.95e-03	0	42	0	470810624	24	4914
2026-01-11 10:47:00.95	186.90	43.24	-31.2	-33.3	11.2	1.91e-03	0	42	0	476053504	23	4554
2026-01-11 10:47:03.97	187.52	44.05	-31.4	-33.8	11.0	2.94e-03	0	42	0	482344960	23	4766
2026-01-11 10:47:06.99	188.17	44.87	-30.9	-32.3	12.1	1.43e-03	0	42	0	487587840	23	4220
2026-01-11 10:47:10.01	188.86	45.71	-30.2	-31.4	13.4	4.50e-05	0	42	0	493879296	21	4108
2026-01-11 10:47:13.03	189.58	46.56	-29.9	-30.6	13.9	1.06e-05	0	42	0	499122176	21	3897
2026-01-11 10:47:16.04	190.35	47.42	-30.6	-32.3	12.7	2.59e-05	0	42	0	504365056	21	4407
2026-01-11 10:47:19.07	191.15	48.29	-31.1	-33.5	11.6	5.31e-04	0	42	0	510656512	22	4726
2026-01-11 10:47:22.09	192.01	49.17	-31.2	-33.6	11.5	3.94e-04	0	42	0	515899392	22	4770
2026-01-11 10:47:25.10	192.91	50.07	-30.2	-31.2	13.5	9.10e-06	0	42	0	522190848	21	4058
2026-01-11 10:47:28.11	193.86	50.97	-29.8	-30.6	14.2	9.90e-06	0	42	0	527433728	20	3965
2026-01-11 10:47:31.13	194.88	51.88	-30.2	-31.9	13.3	1.83e-05	0	42	0	532676608	20	4360
2026-01-11 10:47:34.13	195.95	52.80	-30.0	-31.2	13.8	6.10e-06	0	42	0	538968064	20	4139
2026-01-11 10:47:37.15	197.10	53.72	-30.1	-31.6	13.6	4.50e-06	0	42	0	544210944	20	4271
2026-01-11 10:47:40.16	198.32	54.65	-30.0	-31.2	13.9	3.00e-06	0	42	0	550502400	20	4144
2026-01-11 10:47:43.16	199.62	55.58	-29.3	-29.8	15.2	0.00e+00	0	42	0	555745280	19	3843
2026-01-11 10:47:46.18	201.02	56.52	-29.5	-30.5	14.7	7.00e-07	0	42	0	560988160	19	4014
2026-01-11 10:47:49.20	202.51	57.45	-27.8	-27.9	17.1	0.00e+00	0	42	0	567279616	16	3614
2026-01-11 10:47:52.21	204.10	58.38	-28.2	-28.3	16.6	0.00e+00	0	42	0	572522496	17	3622
2026-01-11 10:47:55.23	205.81	59.30	-28.8	-29.6	15.9	0.00e+00	0	42	0	578813952	17	3953
2026-01-11 10:47:58.24	207.64	60.21	-28.8	-29.7	15.8	0.00e+00	0	42	0	584056832	17	3990
2026-01-11 10:48:01.24	209.59	61.10	-30.0	-31.3	14.0	4.50e-06	0	42	0	589299712	20	4143
2026-01-11 10:48:04.25	211.69	61.98	-29.1	-29.4	15.4	0.00e+00	0	42	0	595591168	19	3729
2026-01-11 10:48:07.25	213.94	62.83	-29.5	-30.4	14.9	0.00e+00	0	42	0	600834048	19	3985
2026-01-11 10:48:10.24	216.34	63.65	-28.7	-28.9	16.0	0.00e+00	0	42	0	606076928	18	3685
2026-01-11 10:48:13.24	218.92	64.43	-28.8	-29.1	15.9	0.00e+00	0	42	0	612368384	18	3731
2026-01-11 10:48:16.22	221.65	65.17	-29.4	-30.1	15.1	0.00e+00	0	42	0	617611264	19	3888
2026-01-11 10:48:19.21	224.58	65.86	-29.8	-31.1	14.4	0.00e+00	0	42	0	622854144	19	4177
2026-01-11 10:48:22.22	227.71	66.51	-29.5	-30.4	15.0	7.00e-07	0	42	0	629145600	19	3968
2026-01-11 10:48:25.23	231.02	67.09	-29.6	-30.1	14.7	0.00e+00	0	42	0	634388480	20	3828
2026-01-11 10:48:28.23	234.49	67.60	-30.6	-32.3	13.0	1.75e-05	0	42	0	640679936	21	4376
2026-01-11 10:48:31.25	238.16	68.03	-30.6	-32.1	13.2	5.30e-06	0	42	0	645922816	21	4315
2026-01-11 10:48:34.25	241.94	68.38	-31.2	-33.5	12.0	6.22e-04	0	42	0	651165696	22	4677
2026-01-11 10:48:37.27	245.87	68.64	-32.2	-35.7	9.6	4.68e-03	0	42	0	657457152	24	5383
2026-01-11 10:48:40.29	249.88	68.81	-31.5	-33.5	11.3	1.59e-03	0	42	0	662700032	24	4513
2026-01-11 10:48:43.30	253.92	68.89	-31.1	-32.7	12.0	1.41e-03	0	42	0	668991488	23	4332
2026-01-11 10:48:46.31	257.98	68.86	-30.3	-31.3	13.7	1.22e-05	0	42	0	674234368	21	4065
2026-01-11 10:48:49.32	262.01	68.74	-29.6	-30.7	14.8	0.00e+00	0	42	0	679477248	19	4062
2026-01-11 10:48:52.33	265.97	68.52	-29.9	-31.0	14.2	2.20e-06	0	42	0	685768704	20	4065
2026-01-11 10:48:55.35	269.83	68.22	-29.1	-29.2	15.6	0.00e+00	0	42	0	691011584	19	3669
2026-01-11 10:48:58.36	273.56	67.82	-29.4	-29.5	15.1	0.00e+00	0	42	0	696254464	20	3670
2026-01-11 10:49:01.36	277.11	67.35	-29.4	-29.7	15.0	0.00e+00	0	42	0	702545920	20	3707
2026-01-11 10:49:04.36	280.50	66.81	-30.4	-32.2	13.5	4.50e-06	0	42	0	707788800	20	4437
2026-01-11 10:49:07.38	283.73	66.19	-29.2	-29.5	15.5	0.00e+00	0	42	0	714080256	19	3745
2026-01-11 10:49:10.38	286.75	65.52	-28.8	-28.6	16.0	0.00e+00	0	42	0	719323136	19	3522
2026-01-11 10:49:13.39	289.60	64.80	-27.1	-27.3	17.8	0.00e+00	0	42	0	724566016	14	3672
2026-01-11 10:49:16.41	292.27	64.03	-28.0	-27.7	17.0	0.00e+00	0	42	0	730857472	17	3497
2026-01-11 10:49:19.41	294.76	63.23	-29.2	-30.1	15.3	0.00e+00	0	42	0	736100352	18	4037
2026-01-11 10:49:22.43	297.09	62.39	-27.4	-27.5	17.4	0.00e+00	0	42	0	742391808	15	3653
2026-01-11 10:49:25.45	299.27	61.53	-25.5	-28.6	14.2	1.50e-06	0	42	0	747634688	11	5130
2026-01-11 10:49:28.46	301.29	60.64	-27.6	-28.3	16.7	0.00e+00	0	42	0	752877568	15	3872
2026-01-11 10:49:31.45	303.16	59.75	-28.5	-29.1	16.1	0.00e+00	0	42	0	759169024	17	3848
2026-01-11 10:49:34.46	304.92	58.84	-29.3	-30.5	15.2	0.00e+00	0	42	0	764411904	18	4096
2026-01-11 10:49:37.47	306.56	57.91	-26.4	-26.1	18.8	0.00e+00	0	42	0	769654784	13	3486
2026-01-11 10:49:40.48	308.10	56.99	-27.1	-27.3	17.9	0.00e+00	0	42	0	775946240	14	3672
2026-01-11 10:49:43.48	309.53	56.06	-27.6	-27.9	17.3	0.00e+00	0	42	0	781189120	15	3717
2026-01-11 10:49:46.50	310.87	55.13	-27.5	-27.6	17.2	0.00e+00	0	42	0	787480576	15	3653
2026-01-11 10:49:49.51	312.13	54.20	-28.0	-28.7	16.8	0.00e+00	0	42	0	792723456	15	3935
2026-01-11 10:49:52.52	313.31	53.28	-28.8	-29.1	15.9	0.00e+00	0	42	0	797966336	18	3730
2026-01-11 10:49:55.51	314.41	52.37	-28.9	-29.2	15.9	0.00e+00	0	42	0	804257792	18	3764
2026-01-11 10:49:58.52	315.45	51.46	-31.0	-32.9	12.3	2.72e-04	0	42	0	809500672	22	4488
2026-01-11 10:50:01.53	316.43	50.55	-31.1	-33.1	12.1	1.31e-04	0	42	0	814743552	22	4556
2026-01-11 10:50:04.53	317.36	49.66	-31.0	-33.0	12.1	2.35e-04	0	42	0	821035008	22	4520
2026-01-11 10:50:07.54	318.23	48.78	-30.9	-32.5	12.5	1.96e-04	0	42	0	826277888	22	4352
2026-01-11 10:50:10.56	319.06	47.90	-28.5	-28.4	16.3	0.00e+00	0	42	0	832569344	18	3551
2026-01-11 10:50:13.58	319.84	47.04	-31.3	-33.9	11.3	7.36e-04	0	42	0	837812224	22	4861
2026-01-11 10:50:16.59	320.59	46.19	-28.8	-29.1	15.9	0.00e+00	0	42	0	843055104	18	3740
2026-01-11 10:50:19.60	321.29	45.36	-29.5	-30.5	14.8	0.00e+00	0	42	0	849346560	19	4002
2026-01-11 10:50:22.61	321.96	44.54	-30.8	-32.8	12.6	1.62e-04	0	42	0	854589440	21	4559
2026-01-11 10:50:25.63	322.59	43.72	-28.9	-28.9	15.8	0.00e+00	0	42	0	860880896	19	3586
2026-01-11 10:50:28.63	323.20	42.93	-29.8	-31.2	14.3	0.00e+00	0	42	0	866123776	19	4233
2026-01-11 10:50:31.63	323.77	42.15	-30.2	-31.2	13.6	1.60e-05	0	42	0	871366656	21	4055
2026-01-11 10:50:34.63	324.32	41.38	-29.2	-29.5	15.3	7.00e-07	0	42	0	877658112	19	3752
2026-01-11 10:50:37.64	324.84	40.63	-30.8	-32.8	12.5	4.04e-05	0	42	0	882900992	21	4564
2026-01-11 10:50:40.64	325.34	39.89	-32.4	-36.4	8.4	4.23e-02	0	42	0	888143872	25	5711
2026-01-11 10:50:43.64	325.82	39.16	-31.6	-34.0	10.5	2.00e-02	0	42	0	894435328	24	4712
2026-01-11 10:50:46.64	326.28	38.45	-29.1	-29.4	15.3	0.00e+00	0	42	0	899678208	19	3726
2026-01-11 10:50:49.64	326.72	37.74	-30.6	-32.4	12.8	1.83e-05	0	42	0	904921088	21	4412
2026-01-11 10:50:52.64	327.14	37.06	-31.3	-33.5	11.3	2.46e-03	0	42	0	911212544	23	4638
2026-01-11 10:50:55.65	327.55	36.38	-30.4	-31.4	13.1	3.20e-05	0	42	0	916455424	22	4024
2026-01-11 10:50:58.64	327.93	35.72	-30.4	-31.9	13.1	2.13e-05	0	42	0	922746880	21	4261
2026-01-11 10:51:01.65	328.31	35.06	-29.9	-31.1	13.9	3.80e-06	0	42	0	927989760	20	4113
2026-01-11 10:51:04.64	328.67	34.43	-30.8	-32.9	12.4	4.80e-05	0	42	0	933232640	21	4587
2026-01-11 10:51:07.64	329.01	33.80	-32.1	-35.8	9.2	8.49e-03	0	42	0	939524096	24	5471
2026-01-11 10:51:10.64	329.35	33.18	-32.4	-36.8	8.4	4.23e-02	0	42	0	944766976	24	5990
2026-01-11 10:51:13.64	329.67	32.58	-32.0	-35.3	9.6	1.09e-02	0	42	0	950009856	24	5275
2026-01-11 10:51:16.65	329.98	31.98	-31.6	-33.8	10.6	5.49e-03	0	42	0	956301312	24	4663
2026-01-11 10:51:19.64	330.28	31.40	-30.9	-32.6	12.2	9.30e-05	0	42	0	961544192	22	4410
2026-01-11 10:51:22.65	330.57	30.83	-31.2	-33.6	11.6	4.90e-04	0	42	0	966787072	22	4749
2026-01-11 10:51:25.66	330.86	30.27	-31.7	-34.8	10.4	2.97e-03	0	42	0	973078528	23	5133
2026-01-11 10:51:28.66	331.13	29.72	-31.7	-34.6	10.4	7.69e-03	0	42	0	978321408	23	5067
2026-01-11 10:51:31.68	331.39	29.17	-31.2	-33.3	11.3	1.21e-03	0	42	0	984612864	23	4579
2026-01-11 10:51:34.67	331.65	28.64	-30.9	-32.4	12.0	4.61e-04	0	42	0	989855744	23	4241
2026-01-11 10:51:37.67	331.89	28.12	-29.9	-30.4	13.9	8.30e-06	0	42	0	995098624	21	3826
2026-01-11 10:51:40.67	332.13	27.61	-29.2	-29.6	15.0	7.00e-07	0	42	0	1001390080	19	3796
2026-01-11 10:51:43.68	332.37	27.10	-28.4	-28.3	16.2	0.00e+00	0	42	0	1006632960	18	3544
2026-01-11 10:51:46.70	332.59	26.60	-29.3	-30.5	14.8	0.00e+00	0	42	0	1011875840	18	4138
2026-01-11 10:51:49.73	332.81	26.11	-30.1	-31.7	13.3	1.22e-05	0	42	0	1018167296	20	4319
2026-01-11 10:51:52.75	333.03	25.63	-30.1	-31.6	13.4	2.59e-05	0	42	0	1023410176	20	4295
2026-01-11 10:51:55.75	333.24	25.16	-29.6	-30.4	14.1	3.00e-06	0	42	0	1029701632	20	3952
2026-01-11 10:51:58.75	333.44	24.70	-29.5	-30.0	14.4	0.00e+00	0	42	0	1034944512	20	3818
2026-01-11 10:52:01.76	333.63	24.24	-29.6	-30.2	14.2	1.50e-06	0	42	0	1040187392	20	3891
2026-01-11 10:52:04.76	333.82	23.80	-29.4	-30.0	14.4	1.50e-06	0	42	0	1046478848	20	3827
2026-01-11 10:52:07.77	334.01	23.36	-29.2	-29.8	14.8	0.00e+00	0	42	0	1051721728	19	3851
2026-01-11 10:52:10.78	334.19	22.92	-29.1	-29.6	14.9	0.00e+00	0	42	0	1058013184	19	3810
2026-01-11 10:52:13.78	334.37	22.50	-29.2	-29.8	14.9	0.00e+00	0	42	0	1063256064	19	3850
2026-01-11 10:52:16.79	334.54	22.08	-29.1	-29.4	15.0	7.00e-07	0	42	0	1068498944	19	3755
2026-01-11 10:52:19.79	334.71	21.66	-28.6	-28.8	15.7	0.00e+00	0	42	0	1074790400	18	3695
2026-01-11 10:52:22.80	334.87	21.26	-28.3	-28.1	16.1	0.00e+00	0	42	0	1080033280	18	3512
2026-01-11 10:52:25.81	335.03	20.86	-28.1	-28.1	16.3	0.00e+00	0	42	0	1085276160	17	3608
2026-01-11 10:52:28.83	335.19	20.46	-28.1	-28.2	16.3	0.00e+00	0	42	0	1091567616	17	3622
2026-01-11 10:52:31.84	335.34	20.07	-28.0	-27.9	16.4	7.00e-07	0	42	0	1096810496	17	3553
2026-01-11 10:52:34.87	335.49	19.69	-28.4	-28.8	15.9	0.00e+00	0	42	0	1103101952	17	3771
2026-01-11 10:52:37.89	335.64	19.31	-28.5	-29.1	15.8	0.00e+00	0	42	0	1108344832	17	3856
2026-01-11 10:52:40.91	335.78	18.94	-28.9	-30.1	15.1	0.00e+00	0	42	0	1113587712	17	4137
2026-01-11 10:52:43.92	335.92	18.57	-29.3	-30.5	14.5	0.00e+00	0	42	0	1119879168	18	4169
2026-01-11 10:52:46.94	336.06	18.21	-29.7	-31.0	13.9	3.00e-06	0	42	0	1125122048	19	4211
2026-01-11 10:52:49.93	336.19	17.86	-30.0	-31.4	13.3	1.75e-05	0	42	0	1131413504	20	4244
2026-01-11 10:52:52.94	336.33	17.50	-30.0	-31.5	13.2	6.02e-05	0	42	0	1136656384	20	4280
2026-01-11 10:52:55.95	336.45	17.16	-29.5	-30.1	14.1	3.80e-06	0	42	0	1141899264	20	3868
2026-01-11 10:52:58.97	336.58	16.82	-29.5	-30.0	14.1	2.20e-06	0	42	0	1148190720	20	3849
2026-01-11 10:53:01.96	336.70	16.48	-29.1	-29.7	14.7	0.00e+00	0	42	0	1153433600	19	3835
2026-01-11 10:53:04.97	336.82	16.15	-29.2	-29.8	14.6	7.00e-07	0	42	0	1158676480	19	3863
2026-01-11 10:53:07.97	336.94	15.82	-29.0	-29.4	14.8	0.00e+00	0	42	0	1164967936	19	3761
2026-01-11 10:53:10.97	337.06	15.50	-29.2	-29.9	14.5	7.00e-07	0	42	0	1170210816	19	3896
2026-01-11 10:53:13.97	337.17	15.18	-29.4	-30.3	14.2	0.00e+00	0	42	0	1176502272	19	4023
2026-01-11 10:53:16.98	337.28	14.87	-29.7	-31.3	13.6	1.75e-05	0	42	0	1181745152	19	4310
2026-01-11 10:53:19.97	337.39	14.56	-29.8	-31.3	13.5	4.50e-06	0	42	0	1186988032	19	4324
2026-01-11 10:53:22.97	337.50	14.25	-29.8	-31.6	13.4	2.21e-05	0	42	0	1193279488	19	4405
2026-01-11 10:53:25.97	337.61	13.95	-29.8	-30.9	13.4	1.67e-05	0	42	0	1198522368	20	4120
2026-01-11 10:53:28.96	337.71	13.65	-29.8	-31.0	13.3	1.44e-05	0	42	0	1203765248	20	4155
2026-01-11 10:53:31.97	337.81	13.35	-30.0	-31.5	12.9	4.27e-05	0	42	0	1210056704	20	4310
2026-01-11 10:53:34.97	337.91	13.06	-30.0	-31.5	13.0	5.11e-05	0	42	0	1215299584	20	4304
2026-01-11 10:53:37.98	338.01	12.77	-29.9	-31.4	13.0	6.33e-05	0	42	0	1220542464	20	4279
2026-01-11 10:53:40.95	338.11	12.49	-30.1	-31.9	12.7	5.64e-05	0	42	0	1226833920	20	4428
2026-01-11 10:53:43.93	338.20	12.21	-30.2	-32.2	12.4	1.06e-04	0	42	0	1232076800	20	4546
2026-01-11 10:53:46.92	338.30	11.93	-30.1	-32.0	12.5	1.16e-04	0	42	0	1237319680	20	4492
2026-01-11 10:53:49.92	338.39	11.66	-30.0	-31.8	12.6	9.53e-05	0	42	0	1243611136	20	4415
2026-01-11 10:53:52.94	338.48	11.38	-30.0	-31.8	12.6	6.25e-05	0	42	0	1248854016	20	4430
2026-01-11 10:53:55.95	338.57	11.11	-30.0	-31.8	12.6	1.07e-04	0	42	0	1255145472	20	4402
2026-01-11 10:53:58.97	338.66	10.84	-29.9	-31.6	12.7	8.23e-05	0	42	0	1260388352	20	4356
2026-01-11 10:54:01.99	338.74	10.58	-30.0	-31.7	12.6	7.78e-05	0	42	0	1265631232	20	4377
2026-01-11 10:54:05.01	338.83	10.32	-29.9	-31.5	12.7	6.71e-05	0	42	0	1271922688	20	4332
2026-01-11 10:54:08.02	338.91	10.06	-29.8	-31.3	12.8	6.25e-05	0	42	0	1277165568	20	4278
2026-01-11 10:54:11.03	339.00	9.80	-29.8	-31.2	12.9	5.34e-05	0	42	0	1283457024	20	4242
2026-01-11 10:54:14.05	339.08	9.54	-29.8	-31.3	12.7	5.41e-05	0	42	0	1288699904	20	4284
2026-01-11 10:54:17.07	339.16	9.29	-29.8	-31.3	12.7	4.88e-05	0	42	0	1293942784	20	4278
2026-01-11 10:54:20.07	339.24	9.04	-29.9	-31.4	12.6	7.32e-05	0	42	0	1300234240	20	4316
2026-01-11 10:54:23.08	339.32	8.80	-29.9	-31.6	12.4	1.26e-04	0	42	0	1305477120	20	4365
2026-01-11 10:54:26.09	339.40	8.55	-29.8	-31.4	12.6	8.46e-05	0	42	0	1310720000	20	4299
2026-01-11 10:54:29.11	339.47	8.31	-30.0	-31.8	12.3	1.73e-04	0	42	0	1317011456	20	4442
2026-01-11 10:54:32.13	339.55	8.07	-30.0	-31.8	12.2	1.30e-04	0	42	0	1322254336	20	4457
2026-01-11 10:54:35.13	339.62	7.83	-29.8	-31.4	12.5	1.90e-04	0	42	0	1328545792	20	4333
2026-01-11 10:54:38.14	339.70	7.60	-30.1	-32.1	12.0	2.87e-04	0	42	0	1333788672	20	4564
2026-01-11 10:54:41.16	339.77	7.36	-30.1	-32.4	11.8	3.84e-04	0	42	0	1339031552	20	4661
2026-01-11 10:54:44.18	339.84	7.13	-30.1	-32.4	11.9	3.14e-04	0	42	0	1345323008	20	4665

#Closed at: 2026-01-11 10:54:46
#Recorded file [1345 MB]: D:/data/31010_260111_134246.dat