passes_logs/2026/01/11/R2M6_AANII_01/R2M6_AANII_01__20260111_150822_FENGYUN_3E_rec.log

#Pass ID: 20260111_150822_FENGYUN 3E
#Satellite: FENGYUN 3E
#Configuration: FENGYUN 3E
#almurnet v.1.7.20240730
#Start time: 2026-01-11 15:08:22

#Version: 2.2.20231116
#Station: R2M6_AANII_01
#Location: 30.233357 lon 59.946436 lat
#TLE: 1 49008U 21062A   26010.98903141  .00000148  00000+0  90257-4 0  9995
#TLE: 2 49008  98.7490  16.1644 0001865 146.3673 213.7622 14.19884943234274

#Time	Az	El	Level	Level2	SNR	BER	BlckErr	Temp	State	Recorded	gain1	gain2
2026-01-11 15:08:22.93	177.08	7.02	-27.2	-29.2	5.6	7.62e-01	0	40	0	0	14	4512
2026-01-11 15:08:25.95	177.18	7.24	-29.1	-31.6	9.2	1.73e-02	0	40	0	7340032	18	4807
2026-01-11 15:08:28.97	177.29	7.48	-27.6	-28.9	11.5	1.90e-03	0	40	0	28311552	16	4184
2026-01-11 15:08:31.98	177.40	7.71	-26.3	-27.4	13.0	3.43e-05	0	40	0	50331648	13	4121
2026-01-11 15:08:35.00	177.51	7.95	-25.9	-27.1	13.6	4.50e-06	0	40	0	72351744	12	4131
2026-01-11 15:08:38.02	177.62	8.18	-25.8	-26.9	13.7	1.14e-05	0	40	0	94371840	12	4083
2026-01-11 15:08:41.04	177.74	8.42	-25.8	-27.0	13.7	6.80e-06	0	40	0	116391936	12	4099
2026-01-11 15:08:44.06	177.85	8.67	-26.0	-27.3	13.5	8.00e-06	0	40	0	137363456	12	4188
2026-01-11 15:08:47.07	177.97	8.91	-25.8	-26.8	13.8	2.20e-06	0	40	0	159383552	12	4067
2026-01-11 15:08:50.08	178.09	9.16	-25.6	-26.5	14.0	2.20e-06	0	40	0	181403648	12	3972
2026-01-11 15:08:53.10	178.21	9.41	-25.5	-26.1	14.2	0.00e+00	0	41	0	203423744	12	3880
2026-01-11 15:08:56.13	178.34	9.66	-25.5	-26.3	14.2	1.10e-06	0	41	0	224395264	12	3922
2026-01-11 15:08:59.14	178.46	9.91	-25.5	-26.2	14.3	1.10e-06	0	41	0	246415360	12	3895
2026-01-11 15:09:02.15	178.59	10.17	-25.5	-26.6	14.4	0.00e+00	0	41	0	268435456	11	4104
2026-01-11 15:09:05.17	178.72	10.43	-25.2	-25.9	14.8	1.10e-06	0	41	0	290455552	11	3931
2026-01-11 15:09:08.20	178.85	10.69	-25.2	-25.9	14.8	0.00e+00	0	41	0	312475648	11	3930
2026-01-11 15:09:11.21	178.98	10.96	-25.1	-25.8	14.9	0.00e+00	0	41	0	333447168	11	3887
2026-01-11 15:09:14.23	179.12	11.22	-25.0	-25.4	15.1	0.00e+00	0	41	0	355467264	11	3803
2026-01-11 15:09:17.25	179.26	11.49	-25.1	-25.7	15.0	0.00e+00	0	41	0	377487360	11	3858
2026-01-11 15:09:20.28	179.40	11.77	-25.0	-25.5	15.1	0.00e+00	0	41	0	398458880	11	3823
2026-01-11 15:09:23.29	179.54	12.04	-25.0	-25.5	15.1	0.00e+00	0	41	0	420478976	11	3825
2026-01-11 15:09:26.30	179.69	12.32	-24.6	-25.1	15.5	0.00e+00	0	41	0	442499072	10	3835
2026-01-11 15:09:29.32	179.84	12.60	-24.5	-24.9	15.7	0.00e+00	0	41	0	464519168	10	3769
2026-01-11 15:09:32.34	179.99	12.89	-24.3	-25.1	15.8	0.00e+00	0	41	0	486539264	9	3919
2026-01-11 15:09:35.35	180.14	13.18	-24.2	-24.9	15.9	0.00e+00	0	41	0	507510784	9	3882
2026-01-11 15:09:38.38	180.30	13.47	-24.2	-24.9	15.9	0.00e+00	0	41	0	529530880	9	3885
2026-01-11 15:09:41.38	180.46	13.76	-24.4	-25.2	15.6	0.00e+00	0	42	0	551550976	9	3976
2026-01-11 15:09:44.40	180.62	14.06	-24.2	-24.8	16.0	0.00e+00	0	41	0	573571072	9	3869
2026-01-11 15:09:47.42	180.78	14.37	-24.2	-24.8	16.0	0.00e+00	0	42	0	594542592	9	3870
2026-01-11 15:09:50.44	180.95	14.67	-24.3	-25.1	15.8	0.00e+00	0	42	0	616562688	9	3961
2026-01-11 15:09:53.46	181.13	14.98	-24.1	-24.7	16.0	0.00e+00	0	42	0	638582784	9	3860
2026-01-11 15:09:56.48	181.30	15.30	-24.6	-25.7	15.4	0.00e+00	0	42	0	660602880	9	4113
2026-01-11 15:09:59.50	181.48	15.61	-24.1	-24.7	16.0	0.00e+00	0	42	0	682622976	9	3857
2026-01-11 15:10:02.49	181.66	15.93	-24.2	-24.9	16.0	0.00e+00	0	42	0	703594496	9	3895
2026-01-11 15:10:05.52	181.85	16.26	-23.8	-24.6	16.3	0.00e+00	0	42	0	725614592	8	3939
2026-01-11 15:10:08.54	182.04	16.59	-23.8	-24.5	16.4	0.00e+00	0	42	0	747634688	8	3908
2026-01-11 15:10:11.55	182.24	16.92	-23.7	-24.3	16.6	0.00e+00	0	42	0	769654784	8	3855
2026-01-11 15:10:14.57	182.43	17.26	-23.7	-24.3	16.5	0.00e+00	0	42	0	790626304	8	3861
2026-01-11 15:10:17.57	182.64	17.60	-23.7	-24.3	16.6	0.00e+00	0	42	0	812646400	8	3867
2026-01-11 15:10:20.58	182.84	17.94	-23.4	-24.1	16.8	0.00e+00	0	42	0	834666496	7	3929
2026-01-11 15:10:23.59	183.05	18.29	-23.4	-24.2	16.8	0.00e+00	0	42	0	856686592	7	3959
2026-01-11 15:10:26.60	183.27	18.65	-23.3	-24.0	17.0	0.00e+00	0	42	0	877658112	7	3895
2026-01-11 15:10:29.63	183.49	19.01	-23.4	-24.1	16.9	0.00e+00	0	42	0	899678208	7	3929
2026-01-11 15:10:32.65	183.72	19.38	-23.2	-23.9	17.1	0.00e+00	0	42	0	921698304	7	3864
2026-01-11 15:10:35.65	183.95	19.75	-23.3	-23.9	17.1	0.00e+00	0	42	0	943718400	7	3872
2026-01-11 15:10:38.67	184.19	20.12	-23.3	-23.9	17.2	0.00e+00	0	42	0	964689920	7	3850
2026-01-11 15:10:41.69	184.43	20.50	-23.2	-23.8	17.2	0.00e+00	0	42	0	986710016	7	3831
2026-01-11 15:10:44.70	184.68	20.89	-23.2	-23.7	17.2	0.00e+00	0	42	0	1008730112	7	3814
2026-01-11 15:10:47.72	184.93	21.28	-23.3	-23.9	17.2	0.00e+00	0	42	0	1030750208	7	3862
2026-01-11 15:10:50.74	185.20	21.68	-23.1	-23.9	17.4	0.00e+00	0	42	0	1052770304	6	3971
2026-01-11 15:10:53.76	185.46	22.08	-23.0	-23.9	17.4	0.00e+00	0	42	0	1073741824	6	3966
2026-01-11 15:10:56.77	185.74	22.49	-23.1	-24.1	17.3	0.00e+00	0	42	0	1095761920	6	4016
2026-01-11 15:10:59.79	186.02	22.91	-22.9	-23.6	17.6	0.00e+00	0	42	0	1117782016	6	3896
2026-01-11 15:11:02.80	186.31	23.33	-23.1	-23.9	17.4	0.00e+00	0	42	0	1138753536	6	3980
2026-01-11 15:11:05.82	186.60	23.75	-23.0	-23.8	17.4	0.00e+00	0	42	0	1160773632	6	3956
2026-01-11 15:11:08.84	186.91	24.19	-23.2	-24.4	17.2	0.00e+00	0	42	0	1182793728	6	4100
2026-01-11 15:11:11.85	187.22	24.63	-23.1	-24.2	17.2	0.00e+00	0	42	0	1204813824	6	4067
2026-01-11 15:11:14.87	187.54	25.08	-23.0	-23.8	17.4	0.00e+00	0	42	0	1225785344	6	3969
2026-01-11 15:11:17.89	187.87	25.53	-22.7	-23.3	17.6	0.00e+00	0	42	0	1247805440	6	3863
2026-01-11 15:11:20.91	188.21	25.99	-22.7	-23.9	17.6	0.00e+00	0	42	0	1269825536	5	4114
2026-01-11 15:11:23.94	188.56	26.46	-22.5	-23.4	17.9	0.00e+00	0	42	0	1291845632	5	3967
2026-01-11 15:11:26.95	188.92	26.93	-22.4	-23.0	18.1	0.00e+00	0	42	0	1313865728	5	3881
2026-01-11 15:11:29.97	189.29	27.42	-22.3	-22.8	18.2	0.00e+00	0	42	0	1334837248	5	3817
2026-01-11 15:11:32.99	189.68	27.91	-22.2	-22.5	18.4	0.00e+00	0	42	0	1356857344	5	3747
2026-01-11 15:11:36.01	190.07	28.40	-22.2	-22.7	18.4	1.10e-06	0	42	0	1378877440	5	3780
2026-01-11 15:11:39.02	190.47	28.91	-22.1	-22.5	18.5	0.00e+00	0	42	0	1400897536	5	3740
2026-01-11 15:11:42.05	190.89	29.42	-22.2	-23.2	18.3	0.00e+00	0	42	0	1422917632	4	4021
2026-01-11 15:11:45.06	191.32	29.94	-22.0	-22.7	18.5	0.00e+00	0	42	0	1443889152	4	3914
2026-01-11 15:11:48.07	191.76	30.47	-22.2	-23.1	18.3	0.00e+00	0	42	0	1465909248	4	4021
2026-01-11 15:11:51.08	192.22	31.00	-22.3	-23.5	18.1	0.00e+00	0	42	0	1487929344	4	4133
2026-01-11 15:11:54.09	192.69	31.54	-22.4	-23.2	17.9	0.00e+00	0	42	0	1509949440	5	3947
2026-01-11 15:11:57.11	193.18	32.10	-22.3	-22.9	18.0	0.00e+00	0	42	0	1530920960	5	3890
2026-01-11 15:12:00.11	193.69	32.65	-22.3	-23.0	18.0	0.00e+00	0	42	0	1552941056	5	3917
2026-01-11 15:12:03.12	194.21	33.22	-22.6	-23.6	17.8	0.00e+00	0	42	0	1574961152	5	4040
2026-01-11 15:12:06.14	194.75	33.79	-22.6	-23.5	17.9	0.00e+00	0	42	0	1596981248	5	4013
2026-01-11 15:12:09.16	195.31	34.38	-22.7	-23.2	17.9	0.00e+00	0	42	0	1617952768	6	3803
2026-01-11 15:12:12.18	195.90	34.97	-22.2	-22.5	18.5	0.00e+00	0	42	0	1639972864	5	3724
2026-01-11 15:12:15.20	196.50	35.57	-22.2	-22.7	18.4	0.00e+00	0	42	0	1661992960	5	3796
2026-01-11 15:12:18.22	197.12	36.18	-22.5	-23.3	18.1	0.00e+00	0	42	0	1684013056	5	3961
2026-01-11 15:12:21.23	197.77	36.80	-22.2	-22.6	18.4	0.00e+00	0	42	0	1706033152	5	3793
2026-01-11 15:12:24.24	198.44	37.42	-22.5	-23.4	18.1	0.00e+00	0	42	0	1727004672	5	3969
2026-01-11 15:12:27.26	199.14	38.05	-23.0	-23.8	17.6	0.00e+00	0	42	0	1749024768	6	3972
2026-01-11 15:12:30.27	199.86	38.68	-23.4	-24.1	18.2	0.00e+00	0	43	0	1771044864	6	3897
2026-01-11 15:12:33.29	200.62	39.33	-23.5	-23.7	18.2	0.00e+00	0	42	0	1792016384	7	3700
2026-01-11 15:12:36.31	201.40	39.98	-23.3	-23.2	18.4	0.00e+00	0	42	0	1814036480	7	3593
2026-01-11 15:12:39.32	202.22	40.64	-23.0	-23.3	18.7	0.00e+00	0	42	0	1836056576	6	3699
2026-01-11 15:12:42.32	203.06	41.30	-23.3	-23.7	18.4	0.00e+00	0	42	0	1857028096	6	3806
2026-01-11 15:12:45.34	203.95	41.96	-23.8	-24.3	17.9	0.00e+00	0	42	0	1879048192	7	3842
2026-01-11 15:12:48.36	204.87	42.64	-23.6	-23.9	18.1	0.00e+00	0	42	0	1901068288	7	3739
2026-01-11 15:12:51.37	205.83	43.31	-23.4	-23.6	18.3	0.00e+00	0	42	0	1923088384	7	3663
2026-01-11 15:12:54.38	206.82	43.99	-23.4	-23.6	18.3	0.00e+00	0	42	0	1945108480	7	3663
2026-01-11 15:12:57.40	207.87	44.67	-24.3	-25.0	17.3	0.00e+00	0	42	0	1966080000	8	3877
2026-01-11 15:13:00.41	208.95	45.35	-23.8	-23.8	18.0	0.00e+00	0	42	0	1988100096	8	3614
2026-01-11 15:13:03.43	210.09	46.03	-23.9	-24.1	17.8	0.00e+00	0	42	0	2010120192	8	3671
2026-01-11 15:13:06.45	211.28	46.71	-24.3	-24.9	17.5	0.00e+00	0	42	0	2032140288	8	3854
2026-01-11 15:13:09.48	212.52	47.39	-24.3	-24.9	17.4	0.00e+00	0	42	0	2054160384	8	3856
2026-01-11 15:13:12.50	213.81	48.07	-24.8	-25.4	16.9	0.00e+00	0	43	0	2075131904	9	3877
2026-01-11 15:13:15.51	215.16	48.73	-24.1	-24.5	17.6	0.00e+00	0	42	0	2097152000	8	3759
2026-01-11 15:13:18.54	216.57	49.40	-24.3	-25.0	17.4	0.00e+00	0	42	0	2119172096	8	3888
2026-01-11 15:13:21.55	218.03	50.05	-24.7	-25.3	17.0	0.00e+00	0	42	0	2141192192	9	3849
2026-01-11 15:13:24.58	219.57	50.69	-24.3	-24.5	17.4	0.00e+00	0	42	0	2163212288	9	3657
2026-01-11 15:13:27.59	221.16	51.32	-24.9	-25.6	16.8	0.00e+00	0	42	0	2184183808	9	3923
2026-01-11 15:13:30.60	222.82	51.93	-24.4	-24.7	17.3	0.00e+00	0	42	0	2206203904	9	3706
2026-01-11 15:13:33.62	224.55	52.52	-24.6	-25.1	17.1	0.00e+00	0	42	0	2228224000	9	3798
2026-01-11 15:13:36.63	226.35	53.09	-24.6	-25.1	17.1	0.00e+00	0	43	0	2250244096	9	3799
2026-01-11 15:13:39.65	228.22	53.64	-24.6	-25.0	17.2	0.00e+00	0	42	0	2271215616	9	3769
2026-01-11 15:13:42.67	230.16	54.17	-24.6	-25.1	17.1	0.00e+00	0	42	0	2293235712	9	3811
2026-01-11 15:13:45.68	232.17	54.66	-24.6	-25.0	17.2	0.00e+00	0	42	0	2315255808	9	3787
2026-01-11 15:13:48.70	234.25	55.12	-24.1	-24.4	17.8	0.00e+00	0	42	0	2337275904	8	3746
2026-01-11 15:13:51.72	236.39	55.55	-24.5	-24.7	17.3	0.00e+00	0	42	0	2358247424	9	3715
2026-01-11 15:13:54.73	238.59	55.95	-24.4	-24.5	17.5	0.00e+00	0	42	0	2380267520	9	3658
2026-01-11 15:13:57.75	240.86	56.30	-24.9	-25.7	16.8	0.00e+00	0	42	0	2402287616	9	3934
2026-01-11 15:14:00.77	243.18	56.61	-24.4	-24.6	17.4	0.00e+00	0	42	0	2424307712	9	3691
2026-01-11 15:14:03.79	245.55	56.88	-24.4	-24.7	17.2	0.00e+00	0	42	0	2446327808	9	3706
2026-01-11 15:14:06.80	247.96	57.10	-24.0	-23.8	17.9	0.00e+00	0	42	0	2467299328	9	3502
2026-01-11 15:14:09.82	250.41	57.27	-24.0	-23.8	17.8	0.00e+00	0	42	0	2489319424	9	3509
2026-01-11 15:14:12.84	252.88	57.40	-24.8	-25.4	17.0	0.00e+00	0	42	0	2511339520	9	3866
2026-01-11 15:14:15.85	255.36	57.47	-24.7	-25.2	17.2	0.00e+00	0	42	0	2533359616	9	3824
2026-01-11 15:14:18.87	257.86	57.50	-24.6	-25.0	17.2	0.00e+00	0	42	0	2554331136	9	3780
2026-01-11 15:14:21.88	260.36	57.47	-24.5	-24.8	17.3	0.00e+00	0	42	0	2576351232	9	3723
2026-01-11 15:14:24.90	262.85	57.39	-24.9	-25.6	17.0	0.00e+00	0	42	0	2598371328	9	3920
2026-01-11 15:14:27.92	265.32	57.26	-24.9	-25.1	16.9	0.00e+00	0	42	0	2619342848	10	3694
2026-01-11 15:14:30.95	267.77	57.08	-25.5	-26.5	16.2	0.00e+00	0	42	0	2641362944	10	4020
2026-01-11 15:14:33.96	270.17	56.86	-24.6	-24.5	17.2	0.00e+00	0	42	0	2663383040	10	3572
2026-01-11 15:14:36.98	272.53	56.59	-24.6	-24.9	17.2	0.00e+00	0	42	0	2685403136	9	3758
2026-01-11 15:14:40.00	274.85	56.27	-24.5	-24.9	17.3	0.00e+00	0	42	0	2707423232	9	3748
2026-01-11 15:14:43.02	277.11	55.92	-24.7	-25.2	17.1	0.00e+00	0	42	0	2728394752	9	3812
2026-01-11 15:14:46.04	279.31	55.52	-24.6	-25.1	17.1	0.00e+00	0	42	0	2750414848	9	3805
2026-01-11 15:14:49.06	281.45	55.09	-24.7	-25.3	17.0	0.00e+00	0	42	0	2772434944	9	3845
2026-01-11 15:14:52.08	283.52	54.62	-24.3	-24.3	17.5	0.00e+00	0	42	0	2794455040	9	3629
2026-01-11 15:14:55.10	285.52	54.13	-24.8	-25.4	17.0	0.00e+00	0	42	0	2816475136	9	3884
2026-01-11 15:14:58.11	287.45	53.60	-24.4	-24.6	17.4	0.00e+00	0	42	0	2837446656	9	3688
2026-01-11 15:15:01.12	289.30	53.06	-24.8	-25.5	16.9	0.00e+00	0	42	0	2859466752	9	3889
2026-01-11 15:15:04.13	291.09	52.48	-24.3	-24.3	17.5	0.00e+00	0	42	0	2881486848	9	3623
2026-01-11 15:15:07.14	292.81	51.89	-24.5	-24.9	17.1	0.00e+00	0	42	0	2903506944	9	3749
2026-01-11 15:15:10.16	294.46	51.28	-25.1	-25.5	16.7	0.00e+00	0	42	0	2924478464	10	3784
2026-01-11 15:15:13.18	296.05	50.65	-24.4	-24.6	17.4	0.00e+00	0	42	0	2946498560	9	3679
2026-01-11 15:15:16.20	297.58	50.01	-24.7	-25.2	17.0	0.00e+00	0	42	0	2968518656	9	3821
2026-01-11 15:15:19.21	299.04	49.37	-24.9	-25.7	16.8	0.00e+00	0	42	0	2990538752	9	3949
2026-01-11 15:15:22.23	300.44	48.71	-24.4	-24.6	17.3	0.00e+00	0	42	0	3012558848	9	3682
2026-01-11 15:15:25.24	301.77	48.04	-24.7	-25.2	17.0	0.00e+00	0	42	0	3033530368	9	3814
2026-01-11 15:15:28.25	303.06	47.37	-24.0	-23.8	17.7	0.00e+00	0	42	0	3055550464	9	3514
2026-01-11 15:15:31.26	304.29	46.70	-24.6	-25.0	17.1	0.00e+00	0	42	0	3077570560	9	3781
2026-01-11 15:15:34.28	305.47	46.02	-23.4	-23.0	18.4	0.00e+00	0	42	0	3099590656	8	3429
2026-01-11 15:15:37.29	306.59	45.34	-23.0	-22.8	18.8	0.00e+00	0	42	0	3120562176	7	3484
2026-01-11 15:15:40.32	307.68	44.66	-22.6	-22.3	19.2	0.00e+00	0	42	0	3142582272	6	3487
2026-01-11 15:15:43.34	308.72	43.98	-23.3	-23.7	18.5	0.00e+00	0	42	0	3164602368	6	3806
2026-01-11 15:15:46.35	309.72	43.31	-23.4	-24.1	18.3	0.00e+00	0	42	0	3186622464	6	3876
2026-01-11 15:15:49.38	310.68	42.63	-23.5	-23.8	18.2	0.00e+00	0	42	0	3207593984	7	3711
2026-01-11 15:15:52.38	311.59	41.97	-23.2	-23.0	18.6	0.00e+00	0	42	0	3229614080	7	3539
2026-01-11 15:15:55.39	312.47	41.30	-23.3	-23.3	18.5	0.00e+00	0	42	0	3251634176	7	3598
2026-01-11 15:15:58.41	313.31	40.64	-23.3	-23.2	18.5	0.00e+00	0	42	0	3272605696	7	3584
2026-01-11 15:16:01.44	314.13	39.99	-23.2	-23.1	18.5	0.00e+00	0	42	0	3294625792	7	3553
2026-01-11 15:16:04.46	314.91	39.34	-23.1	-22.8	18.6	0.00e+00	0	42	0	3316645888	7	3505
2026-01-11 15:16:07.47	315.66	38.70	-23.1	-22.9	18.6	0.00e+00	0	42	0	3338665984	7	3526
2026-01-11 15:16:10.49	316.38	38.07	-23.3	-23.4	18.4	0.00e+00	0	43	0	3360686080	7	3617
2026-01-11 15:16:13.52	317.08	37.44	-23.3	-23.4	18.4	0.00e+00	0	43	0	3381657600	7	3617
2026-01-11 15:16:16.54	317.75	36.82	-23.0	-22.7	18.7	0.00e+00	0	43	0	3403677696	7	3474
2026-01-11 15:16:19.56	318.40	36.20	-23.1	-22.9	18.7	0.00e+00	0	42	0	3425697792	7	3505
2026-01-11 15:16:22.58	319.02	35.60	-22.5	-22.2	19.1	0.00e+00	0	42	0	3447717888	6	3471
2026-01-11 15:16:25.60	319.62	35.00	-22.5	-22.2	19.1	0.00e+00	0	42	0	3469737984	6	3480
2026-01-11 15:16:28.63	320.21	34.41	-22.8	-22.8	18.9	0.00e+00	0	42	0	3491758080	6	3599
2026-01-11 15:16:31.64	320.76	33.83	-23.0	-23.1	18.7	0.00e+00	0	42	0	3512729600	6	3672
2026-01-11 15:16:34.66	321.30	33.26	-23.3	-23.9	18.3	0.00e+00	0	42	0	3534749696	6	3846
2026-01-11 15:16:37.68	321.83	32.69	-23.3	-23.9	18.3	0.00e+00	0	42	0	3556769792	6	3836
2026-01-11 15:16:40.71	322.33	32.13	-23.0	-23.2	18.7	0.00e+00	0	42	0	3578789888	6	3686
2026-01-11 15:16:43.73	322.82	31.58	-22.9	-23.0	18.7	0.00e+00	0	42	0	3600809984	6	3625
2026-01-11 15:16:46.75	323.30	31.04	-23.0	-23.1	18.7	0.00e+00	0	42	0	3621781504	6	3665
2026-01-11 15:16:49.77	323.76	30.51	-22.8	-22.8	18.8	0.00e+00	0	42	0	3643801600	6	3607
2026-01-11 15:16:52.78	324.20	29.99	-23.3	-23.8	18.3	0.00e+00	0	42	0	3665821696	6	3814
2026-01-11 15:16:55.80	324.63	29.47	-23.5	-24.3	18.1	0.00e+00	0	42	0	3687841792	6	3930
2026-01-11 15:16:58.82	325.05	28.96	-23.7	-24.2	17.9	0.00e+00	0	42	0	3708813312	7	3811
2026-01-11 15:17:01.84	325.45	28.46	-23.4	-23.5	18.2	0.00e+00	0	42	0	3730833408	7	3650
2026-01-11 15:17:04.85	325.84	27.97	-23.5	-23.8	17.9	0.00e+00	0	43	0	3752853504	7	3725
2026-01-11 15:17:07.87	326.22	27.48	-23.3	-23.4	18.3	0.00e+00	0	42	0	3774873600	7	3626
2026-01-11 15:17:10.89	326.59	27.00	-23.2	-23.2	18.4	0.00e+00	0	43	0	3796893696	7	3572
2026-01-11 15:17:13.90	326.95	26.53	-23.2	-23.0	18.4	0.00e+00	0	43	0	3817865216	7	3550
2026-01-11 15:17:16.92	327.30	26.06	-23.0	-22.8	18.5	0.00e+00	0	42	0	3839885312	7	3494
2026-01-11 15:17:19.93	327.64	25.61	-23.1	-23.0	18.4	0.00e+00	0	43	0	3861905408	7	3541
2026-01-11 15:17:22.95	327.97	25.15	-23.1	-22.9	18.4	0.00e+00	0	42	0	3883925504	7	3518
2026-01-11 15:17:25.97	328.29	24.71	-23.2	-23.0	18.4	0.00e+00	0	43	0	3904897024	7	3544
2026-01-11 15:17:28.99	328.61	24.27	-23.2	-23.2	18.3	0.00e+00	0	42	0	3926917120	7	3579
2026-01-11 15:17:32.01	328.91	23.84	-23.3	-23.3	18.2	0.00e+00	0	42	0	3948937216	7	3609
2026-01-11 15:17:35.03	329.21	23.41	-23.6	-24.0	17.8	0.00e+00	0	42	0	3970957312	7	3762
2026-01-11 15:17:38.05	329.50	22.99	-23.7	-24.3	17.6	0.00e+00	0	42	0	3991928832	7	3824
2026-01-11 15:17:41.06	329.78	22.58	-23.7	-24.2	17.7	0.00e+00	0	42	0	4013948928	7	3815
2026-01-11 15:17:44.07	330.05	22.18	-23.8	-24.4	17.6	0.00e+00	0	43	0	4035969024	7	3871
2026-01-11 15:17:47.10	330.32	21.77	-23.7	-24.3	17.7	0.00e+00	0	42	0	4057989120	7	3820
2026-01-11 15:17:50.11	330.58	21.38	-23.6	-24.1	17.8	0.00e+00	0	42	0	4078960640	7	3773
2026-01-11 15:17:53.12	330.84	20.99	-23.6	-24.1	17.8	0.00e+00	0	42	0	4100980736	7	3774
2026-01-11 15:17:56.15	331.09	20.60	-23.9	-24.6	17.5	0.00e+00	0	42	0	4123000832	7	3913
2026-01-11 15:17:59.16	331.33	20.23	-24.2	-24.8	17.1	0.00e+00	0	42	0	4145020928	8	3842
2026-01-11 15:18:02.19	331.57	19.85	-24.1	-24.4	17.3	0.00e+00	0	43	0	4167041024	8	3764
2026-01-11 15:18:05.21	331.81	19.48	-24.1	-24.6	17.2	0.00e+00	0	42	0	4188012544	8	3797
2026-01-11 15:18:08.23	332.03	19.12	-24.4	-25.1	16.9	0.00e+00	0	42	0	4210032640	8	3928
2026-01-11 15:18:11.24	332.26	18.76	-24.4	-25.1	16.9	0.00e+00	0	42	0	4232052736	8	3914
2026-01-11 15:18:14.27	332.48	18.40	-24.5	-25.4	16.8	0.00e+00	0	42	0	4254072832	8	3994
2026-01-11 15:18:17.30	332.69	18.05	-24.9	-25.8	16.3	0.00e+00	0	42	0	4276092928	9	3972
2026-01-11 15:18:20.32	332.90	17.71	-24.4	-24.7	16.8	0.00e+00	0	42	0	4297064448	9	3732
2026-01-11 15:18:23.33	333.10	17.37	-24.6	-25.1	16.6	0.00e+00	0	42	0	4319084544	9	3804
2026-01-11 15:18:26.35	333.30	17.03	-24.6	-25.1	16.6	0.00e+00	0	42	0	4341104640	9	3818
2026-01-11 15:18:29.36	333.50	16.70	-24.6	-25.0	16.6	0.00e+00	0	42	0	4363124736	9	3787
2026-01-11 15:18:32.39	333.69	16.37	-24.5	-25.0	16.6	0.00e+00	0	43	0	4385144832	9	3788
2026-01-11 15:18:35.40	333.88	16.05	-24.7	-25.2	16.5	0.00e+00	0	42	0	4406116352	9	3850
2026-01-11 15:18:38.42	334.06	15.73	-24.8	-25.5	16.4	0.00e+00	0	42	0	4428136448	9	3907
2026-01-11 15:18:41.42	334.24	15.42	-25.0	-25.9	16.1	0.00e+00	0	43	0	4450156544	9	4015
2026-01-11 15:18:44.44	334.42	15.10	-25.0	-25.9	16.1	0.00e+00	0	42	0	4472176640	9	4004
2026-01-11 15:18:47.46	334.59	14.80	-25.0	-26.0	16.0	0.00e+00	0	42	0	4493148160	9	4023
2026-01-11 15:18:50.48	334.77	14.49	-25.3	-26.1	15.7	0.00e+00	0	42	0	4515168256	10	3953
2026-01-11 15:18:53.50	334.93	14.19	-25.4	-26.3	15.5	0.00e+00	0	42	0	4537188352	10	3992
2026-01-11 15:18:56.52	335.10	13.89	-25.5	-26.0	15.5	0.00e+00	0	42	0	4559208448	11	3822
2026-01-11 15:18:59.53	335.26	13.60	-25.4	-25.8	15.5	0.00e+00	0	42	0	4581228544	11	3792
2026-01-11 15:19:02.55	335.42	13.31	-25.5	-26.1	15.4	0.00e+00	0	42	0	4602200064	11	3838
2026-01-11 15:19:05.58	335.57	13.02	-25.3	-25.7	15.6	0.00e+00	0	42	0	4624220160	11	3754
2026-01-11 15:19:08.60	335.73	12.74	-25.5	-26.0	15.4	0.00e+00	0	42	0	4646240256	11	3813
2026-01-11 15:19:11.61	335.88	12.46	-25.5	-26.0	15.4	0.00e+00	0	42	0	4667211776	11	3821
2026-01-11 15:19:14.62	336.03	12.18	-25.6	-26.3	15.2	0.00e+00	0	42	0	4689231872	11	3894
2026-01-11 15:19:17.64	336.17	11.91	-25.7	-26.5	15.1	0.00e+00	0	42	0	4711251968	11	3935
2026-01-11 15:19:20.65	336.31	11.63	-25.8	-26.8	14.9	0.00e+00	0	42	0	4733272064	11	4014
2026-01-11 15:19:23.66	336.45	11.37	-25.9	-27.0	14.8	1.10e-06	0	42	0	4754243584	11	4066
2026-01-11 15:19:26.68	336.59	11.10	-25.8	-26.8	14.9	0.00e+00	0	43	0	4776263680	11	4020
2026-01-11 15:19:29.68	336.73	10.84	-26.0	-27.1	14.7	0.00e+00	0	42	0	4798283776	11	4101
2026-01-11 15:19:32.69	336.86	10.58	-25.9	-26.6	14.6	0.00e+00	0	42	0	4820303872	12	3869
2026-01-11 15:19:35.70	336.99	10.32	-26.0	-26.7	14.6	0.00e+00	0	43	0	4841275392	12	3897
2026-01-11 15:19:38.71	337.12	10.06	-26.3	-27.4	14.1	3.40e-06	0	43	0	4863295488	12	4070
2026-01-11 15:19:41.72	337.25	9.81	-26.6	-27.6	13.7	2.20e-06	0	42	0	4885315584	13	4036
2026-01-11 15:19:44.73	337.38	9.56	-26.7	-27.7	13.6	1.02e-05	0	42	0	4907335680	13	4048
2026-01-11 15:19:47.75	337.50	9.31	-26.6	-27.6	13.7	1.14e-05	0	42	0	4928307200	13	4023
2026-01-11 15:19:50.76	337.62	9.07	-26.7	-27.9	13.5	1.14e-05	0	42	0	4950327296	13	4106
2026-01-11 15:19:53.79	337.74	8.82	-26.9	-28.3	13.3	1.25e-05	0	43	0	4972347392	13	4208
2026-01-11 15:19:56.80	337.86	8.58	-27.2	-28.5	12.8	5.37e-05	0	42	0	4994367488	14	4159
2026-01-11 15:19:59.81	337.98	8.34	-26.9	-27.7	13.3	2.63e-05	0	43	0	5015339008	14	3961
2026-01-11 15:20:02.82	338.09	8.11	-26.9	-27.7	13.2	3.66e-05	0	42	0	5037359104	14	3957
2026-01-11 15:20:05.85	338.21	7.87	-26.7	-27.3	13.5	1.83e-05	0	42	0	5059379200	14	3856
2026-01-11 15:20:08.86	338.32	7.64	-26.7	-27.2	13.5	1.14e-05	0	42	0	5081399296	14	3844
2026-01-11 15:20:11.87	338.43	7.41	-26.6	-27.0	13.6	1.02e-05	0	42	0	5102370816	14	3795
2026-01-11 15:20:14.88	338.54	7.18	-26.9	-27.7	13.1	2.63e-05	0	43	0	5124390912	14	3965
2026-01-11 15:20:17.89	338.64	6.96	-33.2	-42.8	3.8	8.46e-01	0	43	104	5134876672	26	10870

#Closed at: 2026-01-11 15:20:18
#Recorded file [5134 MB]: D:/data/31010_260111_180824.dat