passes_logs/2026/01/11/R2M6_AANII_01/R2M6_AANII_01__20260111_090318_SUOMI_NPP_rec.log

#Pass ID: 20260111_090318_SUOMI NPP
#Satellite: SUOMI NPP
#Configuration: NPP
#almurnet v.1.7.20240730
#Start time: 2026-01-11 09:03:20

#Version: 2.2.20231116
#Station: R2M6_AANII_01
#Location: 30.233357 lon 59.946436 lat
#TLE: 1 37849U 11061A   26009.81756760  .00000113  00000+0  74747-4 0  9994
#TLE: 2 37849  98.7806 311.9110 0002525  72.5604 287.5848 14.19524046735974

#Time	Az	El	Level	Level2	SNR	BER	BlckErr	Temp	State	Recorded	gain1	gain2
2026-01-11 09:03:20.07	118.76	7.14	-31.7	-36.9	4.7	1.33e+00	0	39	0	0	24	6533
2026-01-11 09:03:23.08	118.56	7.36	-31.8	-36.8	6.4	2.64e-01	0	39	0	1048576	25	6376
2026-01-11 09:03:26.09	118.35	7.57	-31.7	-36.6	6.9	2.12e-01	0	40	0	7340032	24	6309
2026-01-11 09:03:29.11	118.15	7.79	-31.1	-34.3	9.2	3.33e-02	0	40	0	12582912	23	5176
2026-01-11 09:03:32.12	117.94	8.01	-30.8	-33.4	10.4	5.78e-03	0	40	0	18874368	22	4859
2026-01-11 09:03:35.13	117.73	8.23	-30.6	-32.9	10.8	3.28e-03	0	40	0	24117248	22	4689
2026-01-11 09:03:38.14	117.51	8.46	-30.8	-33.4	10.5	3.32e-03	0	40	0	29360128	22	4874
2026-01-11 09:03:41.16	117.29	8.68	-31.1	-34.4	9.7	9.40e-03	0	40	0	35651584	22	5280
2026-01-11 09:03:44.18	117.07	8.91	-31.0	-34.0	10.0	1.26e-02	0	40	0	40894464	22	5115
2026-01-11 09:03:47.19	116.84	9.14	-30.5	-32.4	11.4	1.43e-03	0	40	0	46137344	22	4449
2026-01-11 09:03:50.22	116.61	9.37	-30.6	-32.7	11.1	1.67e-03	0	40	0	52428800	22	4581
2026-01-11 09:03:53.24	116.38	9.60	-30.8	-33.2	10.9	2.46e-03	0	40	0	57671680	22	4736
2026-01-11 09:03:56.26	116.14	9.83	-30.6	-32.4	11.5	1.06e-03	0	41	0	63963136	22	4446
2026-01-11 09:03:59.28	115.90	10.07	-30.6	-32.5	11.4	8.74e-04	0	41	0	69206016	22	4487
2026-01-11 09:04:02.30	115.65	10.31	-31.0	-33.7	10.5	2.27e-03	0	41	0	74448896	22	4946
2026-01-11 09:04:05.33	115.40	10.54	-30.7	-32.9	11.1	2.33e-03	0	41	0	80740352	22	4636
2026-01-11 09:04:08.35	115.14	10.79	-30.7	-32.7	11.4	1.11e-03	0	41	0	85983232	22	4523
2026-01-11 09:04:11.37	114.88	11.03	-31.0	-33.6	10.7	3.40e-03	0	41	0	92274688	22	4867
2026-01-11 09:04:14.39	114.62	11.27	-30.7	-32.8	11.3	7.93e-04	0	41	0	97517568	22	4568
2026-01-11 09:04:17.40	114.35	11.52	-30.4	-31.8	12.1	2.55e-04	0	41	0	102760448	22	4233
2026-01-11 09:04:20.43	114.08	11.77	-30.3	-31.9	12.4	1.39e-04	0	41	0	109051904	21	4355
2026-01-11 09:04:23.45	113.80	12.02	-30.3	-32.1	12.2	2.17e-04	0	41	0	114294784	21	4403
2026-01-11 09:04:26.45	113.52	12.27	-30.2	-31.7	12.5	1.06e-04	0	41	0	120586240	21	4286
2026-01-11 09:04:29.47	113.23	12.52	-30.1	-31.4	12.7	7.70e-05	0	41	0	125829120	21	4188
2026-01-11 09:04:32.49	112.94	12.78	-30.3	-31.8	12.5	1.27e-04	0	41	0	131072000	21	4312
2026-01-11 09:04:35.50	112.64	13.03	-30.0	-31.0	13.0	4.57e-05	0	41	0	137363456	21	4063
2026-01-11 09:04:38.52	112.34	13.29	-30.0	-31.1	13.0	1.90e-05	0	41	0	142606336	21	4073
2026-01-11 09:04:41.52	112.03	13.55	-30.2	-31.5	12.8	8.08e-05	0	41	0	148897792	21	4204
2026-01-11 09:04:44.54	111.72	13.82	-30.0	-31.1	13.0	5.49e-05	0	41	0	154140672	21	4072
2026-01-11 09:04:47.56	111.40	14.08	-30.1	-31.4	12.8	4.95e-05	0	41	0	159383552	21	4161
2026-01-11 09:04:50.58	111.07	14.35	-30.1	-31.3	12.9	3.58e-05	0	41	0	165675008	21	4143
2026-01-11 09:04:53.60	110.74	14.62	-30.2	-31.6	12.7	5.56e-05	0	41	0	170917888	21	4232
2026-01-11 09:04:56.61	110.40	14.89	-30.2	-31.7	12.7	8.85e-05	0	41	0	177209344	21	4249
2026-01-11 09:04:59.63	110.06	15.16	-30.3	-31.8	12.7	6.25e-05	0	41	0	182452224	21	4278
2026-01-11 09:05:02.66	109.71	15.44	-30.0	-31.1	13.1	3.43e-05	0	41	0	187695104	21	4060
2026-01-11 09:05:05.67	109.35	15.71	-30.3	-31.7	12.7	7.32e-05	0	41	0	193986560	21	4245
2026-01-11 09:05:08.67	108.99	15.99	-30.2	-31.6	12.8	5.87e-05	0	41	0	199229440	21	4215
2026-01-11 09:05:11.67	108.62	16.27	-29.9	-30.7	13.4	4.27e-05	0	41	0	205520896	21	3935
2026-01-11 09:05:14.69	108.24	16.56	-29.9	-30.7	13.5	9.10e-06	0	42	0	210763776	21	3937
2026-01-11 09:05:17.71	107.85	16.84	-30.2	-31.4	13.0	2.21e-05	0	41	0	216006656	21	4148
2026-01-11 09:05:20.73	107.46	17.13	-29.9	-30.6	13.5	6.80e-06	0	41	0	222298112	21	3918
2026-01-11 09:05:23.75	107.06	17.42	-30.4	-32.0	12.7	7.32e-05	0	41	0	227540992	21	4322
2026-01-11 09:05:26.75	106.65	17.71	-30.7	-32.9	12.0	3.22e-04	0	41	0	232783872	21	4656
2026-01-11 09:05:29.77	106.23	18.00	-30.7	-33.0	12.0	3.20e-04	0	41	0	239075328	21	4669
2026-01-11 09:05:32.79	105.81	18.30	-30.6	-32.7	12.2	4.07e-04	0	41	0	244318208	21	4576
2026-01-11 09:05:35.81	105.37	18.59	-30.3	-31.8	12.9	7.55e-05	0	42	0	250609664	21	4261
2026-01-11 09:05:38.83	104.93	18.89	-30.4	-32.1	12.7	6.25e-05	0	41	0	255852544	21	4341
2026-01-11 09:05:41.84	104.48	19.19	-30.5	-32.3	12.5	8.92e-05	0	41	0	261095424	21	4435
2026-01-11 09:05:44.84	104.02	19.49	-30.4	-32.1	12.7	9.99e-05	0	41	0	267386880	21	4371
2026-01-11 09:05:47.85	103.55	19.80	-30.7	-32.8	12.2	1.83e-04	0	41	0	272629760	21	4608
2026-01-11 09:05:50.86	103.07	20.10	-30.5	-32.1	12.7	1.03e-04	0	42	0	278921216	21	4368
2026-01-11 09:05:53.88	102.58	20.41	-30.5	-32.2	12.7	9.68e-05	0	42	0	284164096	21	4397
2026-01-11 09:05:56.90	102.08	20.72	-30.3	-31.9	12.7	3.66e-05	0	42	0	289406976	21	4332
2026-01-11 09:05:59.92	101.57	21.03	-30.5	-32.4	12.5	1.37e-04	0	41	0	295698432	21	4465
2026-01-11 09:06:02.94	101.05	21.34	-30.8	-33.2	11.9	4.94e-04	0	42	0	300941312	21	4778
2026-01-11 09:06:05.95	100.52	21.65	-30.7	-32.5	12.1	4.03e-04	0	42	0	307232768	22	4426
2026-01-11 09:06:08.97	99.98	21.96	-30.5	-32.0	12.4	2.63e-04	0	42	0	312475648	22	4268
2026-01-11 09:06:11.98	99.43	22.28	-30.6	-32.3	12.3	1.55e-04	0	42	0	317718528	22	4351
2026-01-11 09:06:14.99	98.86	22.59	-30.2	-31.7	13.0	6.79e-05	0	41	0	324009984	21	4240
2026-01-11 09:06:18.01	98.29	22.91	-30.3	-31.8	13.0	1.90e-05	0	42	0	329252864	21	4266
2026-01-11 09:06:21.02	97.70	23.23	-30.1	-31.3	13.3	4.50e-06	0	42	0	335544320	21	4107
2026-01-11 09:06:24.03	97.10	23.54	-30.1	-31.2	13.5	1.52e-05	0	42	0	340787200	21	4068
2026-01-11 09:06:27.05	96.49	23.86	-30.1	-31.1	13.4	2.13e-05	0	42	0	346030080	21	4047
2026-01-11 09:06:30.07	95.86	24.18	-30.2	-31.5	13.2	1.83e-05	0	42	0	352321536	21	4180
2026-01-11 09:06:33.09	95.22	24.50	-30.2	-31.3	13.3	1.22e-05	0	42	0	357564416	21	4115
2026-01-11 09:06:36.11	94.57	24.82	-30.2	-31.4	13.3	9.90e-06	0	42	0	362807296	21	4140
2026-01-11 09:06:39.13	93.90	25.14	-30.4	-32.0	13.0	2.59e-05	0	42	0	369098752	21	4313
2026-01-11 09:06:42.14	93.23	25.46	-30.5	-32.1	12.7	2.97e-05	0	42	0	374341632	21	4369
2026-01-11 09:06:45.16	92.53	25.77	-30.3	-31.7	13.2	3.96e-05	0	42	0	380633088	21	4237
2026-01-11 09:06:48.17	91.83	26.09	-30.8	-33.0	12.3	9.76e-05	0	42	0	385875968	21	4645
2026-01-11 09:06:51.20	91.10	26.41	-30.3	-31.7	13.1	4.88e-05	0	42	0	391118848	21	4225
2026-01-11 09:06:54.22	90.37	26.72	-30.0	-30.9	13.7	2.20e-06	0	42	0	397410304	21	3977
2026-01-11 09:06:57.24	89.62	27.03	-29.5	-30.0	14.6	7.00e-07	0	42	0	402653184	20	3831
2026-01-11 09:07:00.26	88.85	27.34	-29.8	-30.9	13.9	1.50e-06	0	42	0	408944640	20	4095
2026-01-11 09:07:03.28	88.07	27.65	-30.3	-32.3	13.0	5.72e-05	0	42	0	414187520	20	4534
2026-01-11 09:07:06.30	87.27	27.95	-30.2	-32.0	13.3	3.05e-05	0	42	0	419430400	20	4412
2026-01-11 09:07:09.31	86.47	28.26	-30.8	-33.1	12.1	2.49e-04	0	42	0	425721856	21	4720
2026-01-11 09:07:12.32	85.64	28.55	-30.8	-33.1	12.1	2.49e-04	0	42	0	430964736	21	4706
2026-01-11 09:07:15.34	84.80	28.85	-30.4	-32.1	12.9	7.70e-05	0	42	0	437256192	21	4360
2026-01-11 09:07:18.36	83.94	29.14	-30.8	-33.1	12.2	1.65e-04	0	42	0	442499072	21	4721
2026-01-11 09:07:21.38	83.07	29.43	-31.3	-34.3	10.9	1.58e-03	0	42	0	447741952	22	5114
2026-01-11 09:07:24.39	82.18	29.71	-31.6	-34.7	10.4	2.99e-03	0	42	0	454033408	23	5181
2026-01-11 09:07:27.41	81.28	29.99	-31.9	-35.3	9.5	1.61e-02	0	42	0	459276288	24	5342
2026-01-11 09:07:30.43	80.36	30.26	-32.2	-36.3	8.7	2.17e-02	0	42	0	465567744	24	5810
2026-01-11 09:07:33.45	79.42	30.52	-31.4	-33.6	10.8	2.68e-03	0	42	0	470810624	24	4625
2026-01-11 09:07:36.46	78.47	30.78	-31.5	-34.3	10.7	9.17e-04	0	42	0	476053504	23	4985
2026-01-11 09:07:39.48	77.51	31.03	-31.5	-34.6	10.4	2.53e-03	0	42	0	482344960	23	5118
2026-01-11 09:07:42.50	76.53	31.28	-31.5	-34.6	10.5	3.46e-03	0	42	0	487587840	23	5157
2026-01-11 09:07:45.52	75.53	31.52	-31.6	-35.0	10.1	7.49e-03	0	42	0	493879296	23	5311
2026-01-11 09:07:48.54	74.52	31.75	-31.5	-34.4	10.6	2.55e-03	0	42	0	499122176	23	5036
2026-01-11 09:07:51.55	73.50	31.97	-31.5	-34.3	10.6	2.94e-03	0	42	0	504365056	23	4987
2026-01-11 09:07:54.57	72.46	32.18	-31.5	-34.2	10.9	3.41e-03	0	42	0	510656512	23	4915
2026-01-11 09:07:57.59	71.41	32.38	-31.0	-33.1	12.0	2.88e-04	0	42	0	515899392	22	4626
2026-01-11 09:08:00.58	70.35	32.57	-31.4	-34.1	10.9	2.76e-03	0	42	0	522190848	23	4904
2026-01-11 09:08:03.60	69.28	32.75	-30.5	-31.9	12.9	4.04e-05	0	42	0	527433728	22	4202
2026-01-11 09:08:06.62	68.19	32.93	-30.8	-32.6	12.3	1.30e-04	0	42	0	532676608	22	4456
2026-01-11 09:08:09.64	67.09	33.09	-31.1	-33.5	11.7	8.20e-04	0	42	0	538968064	22	4773
2026-01-11 09:08:12.66	65.98	33.24	-30.1	-31.2	13.5	1.98e-05	0	42	0	544210944	21	4082
2026-01-11 09:08:15.67	64.86	33.38	-29.9	-30.7	13.9	3.80e-06	0	42	0	550502400	21	3937
2026-01-11 09:08:18.69	63.73	33.50	-29.9	-31.0	14.0	7.00e-07	0	42	0	555745280	20	4115
2026-01-11 09:08:21.70	62.60	33.62	-31.2	-34.0	11.3	4.74e-04	0	42	0	560988160	22	4936
2026-01-11 09:08:24.72	61.45	33.72	-30.8	-32.5	12.4	1.75e-04	0	42	0	567279616	22	4398
2026-01-11 09:08:27.74	60.30	33.81	-31.0	-33.2	11.9	4.18e-04	0	42	0	572522496	22	4636
2026-01-11 09:08:30.76	59.14	33.88	-30.9	-32.6	12.4	2.45e-04	0	42	0	578813952	22	4409
2026-01-11 09:08:33.78	57.98	33.95	-29.9	-30.6	14.0	4.50e-06	0	42	0	584056832	21	3903
2026-01-11 09:08:36.79	56.82	34.00	-30.7	-32.8	12.7	8.69e-05	0	42	0	589299712	21	4575
2026-01-11 09:08:39.81	55.65	34.03	-31.3	-34.0	11.5	2.91e-04	0	42	0	595591168	22	4924
2026-01-11 09:08:42.82	54.48	34.05	-31.2	-33.7	11.6	1.07e-03	0	42	0	600834048	22	4811
2026-01-11 09:08:45.84	53.30	34.06	-31.1	-33.5	11.7	9.16e-04	0	42	0	607125504	22	4744
2026-01-11 09:08:48.85	52.14	34.06	-30.9	-32.8	12.2	3.50e-04	0	42	0	612368384	22	4486
2026-01-11 09:08:51.87	50.96	34.04	-31.6	-34.5	10.5	2.08e-03	0	42	0	617611264	23	5072
2026-01-11 09:08:54.89	49.79	34.01	-31.0	-32.7	11.9	5.84e-04	0	42	0	623902720	23	4394
2026-01-11 09:08:57.91	48.63	33.96	-31.2	-33.3	11.5	6.03e-04	0	42	0	629145600	23	4607
2026-01-11 09:09:00.92	47.47	33.90	-32.0	-35.6	9.3	1.60e-02	0	42	0	635437056	24	5439
2026-01-11 09:09:03.94	46.31	33.83	-31.1	-33.1	11.5	1.36e-03	0	42	0	640679936	23	4544
2026-01-11 09:09:06.96	45.15	33.75	-30.9	-32.9	12.1	1.88e-04	0	42	0	645922816	22	4547
2026-01-11 09:09:09.97	44.01	33.65	-31.1	-33.5	11.7	4.20e-04	0	42	0	652214272	22	4753
2026-01-11 09:09:12.99	42.87	33.54	-30.9	-33.2	11.8	6.31e-04	0	42	0	657457152	22	4651
2026-01-11 09:09:16.01	41.74	33.42	-31.0	-33.1	12.0	4.55e-04	0	42	0	662700032	22	4615
2026-01-11 09:09:19.03	40.62	33.28	-31.0	-33.4	11.6	4.87e-04	0	42	0	668991488	22	4751
2026-01-11 09:09:22.06	39.51	33.13	-30.7	-32.2	12.5	1.39e-04	0	42	0	674234368	22	4307
2026-01-11 09:09:25.07	38.41	32.98	-30.4	-31.6	12.9	9.53e-05	0	42	0	680525824	22	4097
2026-01-11 09:09:28.09	37.32	32.81	-31.1	-33.7	11.5	4.97e-04	0	42	0	685768704	22	4809
2026-01-11 09:09:31.11	36.24	32.63	-31.4	-33.8	11.0	4.14e-03	0	42	0	691011584	23	4782
2026-01-11 09:09:34.12	35.18	32.44	-31.0	-33.1	11.9	2.99e-04	0	42	0	697303040	22	4585
2026-01-11 09:09:37.15	34.12	32.24	-31.0	-33.2	11.9	5.10e-04	0	42	0	702545920	22	4625
2026-01-11 09:09:40.16	33.08	32.03	-31.3	-34.4	10.9	1.42e-03	0	42	0	708837376	22	5101
2026-01-11 09:09:43.18	32.06	31.81	-31.8	-35.5	9.8	1.04e-02	0	42	0	714080256	23	5499
2026-01-11 09:09:46.20	31.04	31.59	-31.3	-33.8	11.0	1.40e-03	0	42	0	719323136	23	4788
2026-01-11 09:09:49.23	30.04	31.35	-31.4	-34.0	10.7	1.74e-03	0	42	0	725614592	23	4874
2026-01-11 09:09:52.24	29.06	31.11	-31.1	-32.9	11.6	4.53e-04	0	42	0	730857472	23	4457
2026-01-11 09:09:55.25	28.10	30.86	-30.8	-32.2	12.1	3.22e-04	0	42	0	737148928	23	4225
2026-01-11 09:09:58.26	27.15	30.60	-30.7	-32.4	12.4	1.87e-04	0	42	0	742391808	22	4355
2026-01-11 09:10:01.28	26.21	30.34	-31.9	-35.9	9.4	7.39e-03	0	42	0	747634688	23	5665
2026-01-11 09:10:04.30	25.29	30.07	-31.4	-33.7	10.6	5.27e-03	0	42	0	753926144	24	4655
2026-01-11 09:10:07.32	24.38	29.80	-30.6	-32.1	12.5	7.78e-05	0	42	0	759169024	22	4268
2026-01-11 09:10:10.33	23.50	29.52	-31.7	-35.0	10.0	1.18e-02	0	42	0	765460480	23	5291
2026-01-11 09:10:13.35	22.62	29.23	-31.3	-33.9	10.7	4.16e-03	0	42	0	770703360	23	4846
2026-01-11 09:10:16.37	21.76	28.95	-31.3	-33.7	10.9	3.21e-03	0	42	0	775946240	23	4742
2026-01-11 09:10:19.39	20.92	28.65	-31.5	-34.3	10.6	2.31e-03	0	42	0	782237696	23	4978
2026-01-11 09:10:22.41	20.09	28.36	-31.2	-33.5	11.1	2.48e-03	0	42	0	787480576	23	4653
2026-01-11 09:10:25.43	19.28	28.06	-31.1	-33.0	11.6	9.66e-04	0	42	0	793772032	23	4461
2026-01-11 09:10:28.43	18.49	27.75	-30.9	-32.9	11.9	3.05e-04	0	42	0	799014912	22	4551
2026-01-11 09:10:31.46	17.70	27.45	-31.2	-33.9	11.2	1.48e-03	0	42	0	804257792	22	4916
2026-01-11 09:10:34.48	16.93	27.14	-30.5	-31.6	12.7	1.84e-04	0	42	0	810549248	22	4106
2026-01-11 09:10:37.49	16.18	26.83	-30.0	-31.3	13.6	2.20e-06	0	42	0	815792128	20	4194
2026-01-11 09:10:40.50	15.45	26.52	-30.2	-32.0	13.1	2.28e-05	0	42	0	822083584	20	4415
2026-01-11 09:10:43.51	14.73	26.21	-29.9	-31.2	13.7	1.50e-06	0	42	0	827326464	20	4173
2026-01-11 09:10:46.53	14.02	25.89	-29.6	-30.2	14.3	0.00e+00	0	42	0	832569344	20	3882
2026-01-11 09:10:49.56	13.32	25.57	-30.1	-31.7	13.4	9.90e-06	0	42	0	838860800	20	4306
2026-01-11 09:10:52.57	12.64	25.26	-30.1	-31.1	13.2	4.34e-05	0	42	0	844103680	21	4060
2026-01-11 09:10:55.59	11.98	24.94	-29.2	-29.7	14.9	0.00e+00	0	42	0	850395136	19	3819
2026-01-11 09:10:58.62	11.32	24.62	-29.4	-30.4	14.5	0.00e+00	0	42	0	855638016	19	4021
2026-01-11 09:11:01.62	10.69	24.31	-29.2	-29.7	14.9	7.00e-07	0	42	0	860880896	19	3843
2026-01-11 09:11:04.64	10.06	23.99	-29.3	-30.0	14.7	0.00e+00	0	42	0	867172352	19	3908
2026-01-11 09:11:07.66	9.44	23.67	-29.0	-29.2	15.2	0.00e+00	0	42	0	872415232	19	3706
2026-01-11 09:11:10.67	8.84	23.36	-29.3	-30.2	14.6	7.00e-07	0	42	0	878706688	19	3952
2026-01-11 09:11:13.69	8.25	23.04	-29.8	-31.3	13.9	4.50e-06	0	42	0	883949568	19	4283
2026-01-11 09:11:16.71	7.68	22.72	-29.4	-30.4	14.4	1.50e-06	0	42	0	889192448	19	4029
2026-01-11 09:11:19.74	7.11	22.41	-30.1	-31.6	13.3	1.22e-05	0	42	0	895483904	20	4297
2026-01-11 09:11:22.74	6.56	22.10	-30.3	-32.3	12.8	6.63e-05	0	42	0	900726784	20	4530
2026-01-11 09:11:25.76	6.02	21.78	-30.2	-31.4	13.1	8.77e-05	0	42	0	905969664	21	4145
2026-01-11 09:11:28.78	5.48	21.47	-30.7	-32.9	12.1	9.46e-05	0	42	0	912261120	21	4641
2026-01-11 09:11:31.80	4.96	21.16	-30.7	-32.9	12.0	4.78e-04	0	42	0	917504000	21	4667
2026-01-11 09:11:34.82	4.45	20.85	-30.1	-31.4	13.0	4.50e-05	0	42	0	923795456	21	4158
2026-01-11 09:11:37.85	3.95	20.54	-30.3	-31.8	12.7	6.86e-05	0	42	0	929038336	21	4297
2026-01-11 09:11:40.86	3.46	20.24	-29.9	-30.8	13.4	2.67e-05	0	42	0	934281216	21	3975
2026-01-11 09:11:43.87	2.98	19.93	-29.5	-30.2	14.1	4.50e-06	0	42	0	940572672	20	3895
2026-01-11 09:11:46.89	2.51	19.63	-29.8	-30.9	13.6	5.30e-06	0	42	0	945815552	20	4090
2026-01-11 09:11:49.92	2.05	19.33	-29.9	-31.4	13.3	1.29e-05	0	42	0	952107008	20	4237
2026-01-11 09:11:52.93	1.60	19.03	-29.7	-30.8	13.7	5.30e-06	0	42	0	957349888	20	4057
2026-01-11 09:11:55.95	1.16	18.73	-29.7	-30.6	13.8	2.20e-06	0	42	0	962592768	20	4021
2026-01-11 09:11:58.97	0.72	18.43	-29.6	-30.4	13.9	3.80e-06	0	42	0	968884224	20	3956
2026-01-11 09:12:01.98	0.30	18.14	-29.8	-31.0	13.5	6.10e-06	0	42	0	974127104	20	4138
2026-01-11 09:12:04.99	359.88	17.85	-30.6	-32.9	11.8	1.96e-04	0	42	0	980418560	21	4685
2026-01-11 09:12:08.00	359.47	17.56	-31.4	-34.7	10.2	4.88e-03	0	42	0	985661440	22	5306
2026-01-11 09:12:11.02	359.07	17.27	-31.1	-33.9	10.8	2.59e-03	0	42	0	990904320	22	4949
2026-01-11 09:12:14.04	358.68	16.98	-30.7	-32.6	11.8	5.10e-04	0	42	0	997195776	22	4464
2026-01-11 09:12:17.06	358.29	16.70	-30.5	-32.1	12.1	2.46e-04	0	42	0	1002438656	22	4294
2026-01-11 09:12:20.07	357.92	16.41	-30.7	-32.5	11.8	4.69e-04	0	42	0	1008730112	22	4435
2026-01-11 09:12:23.09	357.54	16.13	-31.2	-34.3	10.4	3.91e-03	0	42	0	1013972992	22	5147
2026-01-11 09:12:26.10	357.18	15.86	-30.4	-31.9	12.2	5.22e-04	0	42	0	1019215872	22	4253
2026-01-11 09:12:29.12	356.82	15.58	-30.1	-31.4	12.7	4.19e-05	0	42	0	1025507328	21	4200
2026-01-11 09:12:32.14	356.47	15.30	-30.3	-32.1	12.2	1.23e-04	0	42	0	1030750208	21	4421
2026-01-11 09:12:35.15	356.13	15.03	-30.2	-31.8	12.4	9.68e-05	0	42	0	1037041664	21	4331
2026-01-11 09:12:38.17	355.79	14.76	-30.2	-31.7	12.4	1.15e-04	0	42	0	1042284544	21	4296
2026-01-11 09:12:41.19	355.46	14.49	-30.3	-31.9	12.3	1.14e-04	0	42	0	1047527424	21	4365
2026-01-11 09:12:44.20	355.14	14.23	-30.3	-32.0	12.3	2.12e-04	0	42	0	1053818880	21	4392
2026-01-11 09:12:47.22	354.82	13.96	-30.2	-31.7	12.5	1.19e-04	0	42	0	1059061760	21	4296
2026-01-11 09:12:50.24	354.50	13.70	-30.1	-31.3	12.8	5.49e-05	0	42	0	1065353216	21	4167
2026-01-11 09:12:53.25	354.20	13.44	-29.7	-30.9	13.3	2.51e-05	0	42	0	1070596096	20	4126
2026-01-11 09:12:56.27	353.90	13.18	-30.0	-31.8	12.7	1.30e-04	0	42	0	1075838976	20	4429
2026-01-11 09:12:59.29	353.60	12.92	-30.5	-32.9	11.6	5.32e-04	0	42	0	1082130432	21	4705
2026-01-11 09:13:02.32	353.31	12.66	-31.2	-34.5	10.0	5.38e-03	0	42	0	1087373312	22	5277
2026-01-11 09:13:05.33	353.02	12.41	-31.4	-35.0	9.2	1.84e-02	0	42	0	1093664768	23	5392
2026-01-11 09:13:08.36	352.74	12.16	-31.2	-34.2	9.8	1.28e-02	0	42	0	1098907648	23	5071
2026-01-11 09:13:11.37	352.46	11.91	-30.9	-33.2	10.5	5.13e-03	0	42	0	1104150528	23	4671
2026-01-11 09:13:14.39	352.19	11.66	-30.7	-32.9	11.1	2.11e-03	0	42	0	1110441984	22	4625
2026-01-11 09:13:17.41	351.93	11.42	-30.6	-32.7	11.2	1.62e-03	0	42	0	1115684864	22	4557
2026-01-11 09:13:20.42	351.66	11.17	-30.4	-32.0	11.7	6.48e-04	0	42	0	1121976320	22	4328
2026-01-11 09:13:23.44	351.41	10.93	-30.3	-31.7	11.9	4.78e-04	0	42	0	1127219200	22	4218
2026-01-11 09:13:26.46	351.15	10.69	-30.2	-31.9	12.1	2.69e-04	0	42	0	1132462080	21	4375
2026-01-11 09:13:29.48	350.90	10.45	-30.3	-32.1	11.9	4.03e-04	0	42	0	1138753536	21	4466
2026-01-11 09:13:32.48	350.66	10.22	-30.4	-32.5	11.6	6.82e-04	0	42	0	1143996416	21	4597
2026-01-11 09:13:35.49	350.42	9.98	-30.6	-33.2	11.0	1.73e-03	0	42	0	1149239296	21	4868
2026-01-11 09:13:38.51	350.18	9.75	-30.8	-33.9	10.6	4.10e-03	0	42	0	1155530752	21	5141
2026-01-11 09:13:41.53	349.95	9.52	-31.2	-34.8	9.5	1.93e-02	0	42	0	1160773632	22	5448
2026-01-11 09:13:44.54	349.72	9.29	-31.1	-34.3	9.9	7.47e-03	0	42	0	1167065088	22	5235
2026-01-11 09:13:47.56	349.50	9.06	-31.4	-35.3	9.2	1.50e-02	0	42	0	1172307968	22	5657
2026-01-11 09:13:50.58	349.28	8.83	-31.4	-35.4	9.0	1.68e-02	0	42	0	1177550848	22	5731
2026-01-11 09:13:53.60	349.06	8.61	-31.5	-35.4	8.5	4.59e-02	0	42	0	1183842304	23	5665
2026-01-11 09:13:56.62	348.84	8.39	-31.6	-35.9	8.2	6.02e-02	0	42	0	1189085184	23	5906
2026-01-11 09:13:59.65	348.63	8.16	-31.9	-37.6	6.9	1.66e-01	0	42	0	1195376640	23	6902
2026-01-11 09:14:02.66	348.43	7.94	-31.5	-35.4	8.1	1.14e-01	0	42	0	1200619520	24	5605
2026-01-11 09:14:05.69	348.22	7.72	-31.4	-34.8	8.5	4.49e-02	0	42	0	1205862400	24	5334
2026-01-11 09:14:08.71	348.02	7.51	-31.2	-34.4	9.1	2.02e-02	0	42	0	1212153856	23	5241
2026-01-11 09:14:11.73	347.82	7.29	-31.1	-34.3	9.3	1.44e-02	0	42	0	1217396736	23	5170
2026-01-11 09:14:14.74	347.63	7.08	-32.9	-44.5	3.8	3.56e-01	0	42	104	1222639616	25	13767
2026-01-11 09:14:17.76	347.43	6.86	-33.6	-46.0	3.8	1.49e+00	0	42	104	1222639616	27	14962

#Closed at: 2026-01-11 09:14:18
#Recorded file [1222 MB]: D:/data/31010_260111_120321.dat