passes_logs/2026/01/11/R2M6_AANII_01/R2M6_AANII_01__20260111_110341_NOAA_20_JPSS-1_rec.log

#Pass ID: 20260111_110341_NOAA 20 (JPSS-1)
#Satellite: NOAA 20 (JPSS-1)
#Configuration: NOAA 20
#almurnet v.1.7.20240730
#Start time: 2026-01-11 11:03:42

#Version: 2.2.20231116
#Station: R2M6_AANII_01
#Location: 30.233357 lon 59.946436 lat
#TLE: 1 43013U 17073A   26009.69119415  .00000109  00000+0  72598-4 0  9996
#TLE: 2 43013  98.7631 310.6868 0001678  46.7442 313.3874 14.19534878421981

#Time	Az	El	Level	Level2	SNR	BER	BlckErr	Temp	State	Recorded	gain1	gain2
2026-01-11 11:03:42.61	183.59	7.05	-31.0	-36.1	5.3	1.22e+00	0	39	0	0	22	6513
2026-01-11 11:03:45.61	183.73	7.28	-31.4	-37.0	8.3	5.69e-02	0	40	0	1048576	23	6866
2026-01-11 11:03:48.61	183.87	7.50	-30.8	-34.7	10.1	9.81e-03	0	40	0	7340032	23	5652
2026-01-11 11:03:51.62	184.02	7.73	-30.6	-34.3	10.9	1.94e-03	0	40	0	12582912	22	5547
2026-01-11 11:03:54.62	184.16	7.96	-30.4	-33.8	11.3	1.28e-03	0	40	0	17825792	22	5310
2026-01-11 11:03:57.61	184.31	8.19	-30.5	-33.9	11.2	1.56e-03	0	40	0	24117248	22	5362
2026-01-11 11:04:00.62	184.46	8.43	-30.4	-34.2	11.4	1.17e-03	0	40	0	29360128	21	5595
2026-01-11 11:04:03.63	184.62	8.66	-30.5	-34.4	11.3	1.39e-03	0	40	0	35651584	21	5668
2026-01-11 11:04:06.65	184.77	8.90	-30.4	-34.3	11.4	8.98e-04	0	40	0	40894464	21	5625
2026-01-11 11:04:09.66	184.93	9.14	-30.2	-33.7	11.8	5.23e-04	0	41	0	46137344	21	5374
2026-01-11 11:04:12.65	185.09	9.39	-30.3	-33.9	11.7	4.02e-04	0	40	0	52428800	21	5443
2026-01-11 11:04:15.66	185.26	9.63	-30.3	-33.9	11.7	4.54e-04	0	41	0	57671680	21	5459
2026-01-11 11:04:18.67	185.42	9.88	-30.3	-33.9	11.8	5.86e-04	0	40	0	62914560	21	5435
2026-01-11 11:04:21.67	185.59	10.13	-30.2	-33.4	12.1	3.17e-04	0	41	0	69206016	21	5233
2026-01-11 11:04:24.69	185.76	10.38	-30.1	-33.2	12.3	2.03e-04	0	41	0	74448896	21	5127
2026-01-11 11:04:27.68	185.94	10.64	-30.0	-32.8	12.5	1.17e-04	0	41	0	80740352	21	5002
2026-01-11 11:04:30.69	186.12	10.89	-30.0	-32.9	12.5	1.45e-04	0	41	0	85983232	21	5039
2026-01-11 11:04:33.71	186.30	11.15	-30.0	-32.8	12.6	9.46e-05	0	41	0	91226112	21	4976
2026-01-11 11:04:36.72	186.48	11.42	-29.9	-32.7	12.7	7.55e-05	0	41	0	97517568	21	4943
2026-01-11 11:04:39.74	186.67	11.68	-30.0	-33.0	12.5	1.25e-04	0	41	0	102760448	21	5038
2026-01-11 11:04:42.72	186.86	11.95	-29.9	-32.7	12.7	1.41e-04	0	41	0	108003328	21	4941
2026-01-11 11:04:45.73	187.05	12.22	-29.8	-32.6	13.1	3.20e-05	0	41	0	114294784	20	5018
2026-01-11 11:04:48.73	187.24	12.49	-29.8	-32.8	13.0	3.66e-05	0	41	0	119537664	20	5072
2026-01-11 11:04:51.75	187.45	12.77	-29.8	-32.8	13.1	3.20e-05	0	41	0	125829120	20	5056
2026-01-11 11:04:54.76	187.65	13.04	-29.8	-32.6	13.2	2.36e-05	0	41	0	131072000	20	4987
2026-01-11 11:04:57.78	187.86	13.33	-29.7	-32.5	13.3	1.37e-05	0	41	0	136314880	20	4946
2026-01-11 11:05:00.80	188.07	13.61	-29.9	-32.9	13.1	2.13e-05	0	41	0	142606336	20	5092
2026-01-11 11:05:03.80	188.28	13.90	-30.0	-33.3	12.8	4.73e-05	0	41	0	147849216	20	5257
2026-01-11 11:05:06.80	188.50	14.19	-29.9	-32.9	13.1	2.74e-05	0	41	0	153092096	20	5113
2026-01-11 11:05:09.80	188.72	14.48	-29.6	-32.2	13.6	1.75e-05	0	41	0	159383552	20	4844
2026-01-11 11:05:12.81	188.95	14.78	-29.3	-31.8	14.3	7.00e-07	0	42	0	164626432	19	4799
2026-01-11 11:05:15.82	189.18	15.08	-29.3	-31.8	14.2	7.00e-07	0	41	0	170917888	19	4804
2026-01-11 11:05:18.82	189.42	15.38	-29.4	-31.9	14.2	7.00e-07	0	42	0	176160768	19	4837
2026-01-11 11:05:21.83	189.66	15.69	-29.3	-31.7	14.4	7.00e-07	0	41	0	181403648	19	4748
2026-01-11 11:05:24.84	189.91	16.00	-29.2	-31.6	14.5	7.00e-07	0	41	0	187695104	19	4707
2026-01-11 11:05:27.84	190.16	16.31	-29.2	-31.4	14.5	7.00e-07	0	41	0	192937984	19	4657
2026-01-11 11:05:30.85	190.41	16.63	-29.2	-31.3	14.7	1.50e-06	0	41	0	198180864	19	4614
2026-01-11 11:05:33.85	190.67	16.95	-29.4	-32.0	14.3	0.00e+00	0	41	0	204472320	19	4852
2026-01-11 11:05:36.86	190.94	17.27	-29.7	-32.7	13.8	1.50e-06	0	42	0	209715200	19	5096
2026-01-11 11:05:39.87	191.21	17.60	-29.6	-32.5	14.0	3.80e-06	0	41	0	216006656	19	5021
2026-01-11 11:05:42.88	191.49	17.94	-29.2	-31.5	14.6	0.00e+00	0	42	0	221249536	19	4688
2026-01-11 11:05:45.87	191.77	18.27	-29.2	-31.3	14.8	0.00e+00	0	41	0	226492416	19	4612
2026-01-11 11:05:48.88	192.06	18.61	-29.1	-31.1	14.9	0.00e+00	0	42	0	232783872	19	4538
2026-01-11 11:05:51.89	192.36	18.95	-29.3	-31.6	14.6	7.00e-07	0	42	0	238026752	19	4707
2026-01-11 11:05:54.91	192.66	19.30	-29.4	-31.8	14.5	0.00e+00	0	42	0	244318208	19	4770
2026-01-11 11:05:57.93	192.97	19.66	-29.7	-32.6	14.0	7.00e-07	0	42	0	249561088	19	5052
2026-01-11 11:06:00.95	193.29	20.02	-30.1	-33.2	13.2	5.30e-06	0	42	0	254803968	20	5180
2026-01-11 11:06:03.96	193.61	20.38	-29.3	-31.6	14.7	0.00e+00	0	42	0	261095424	19	4693
2026-01-11 11:06:06.97	193.95	20.74	-29.2	-31.4	14.9	1.50e-06	0	42	0	266338304	19	4617
2026-01-11 11:06:09.98	194.28	21.11	-29.2	-31.3	14.9	3.80e-06	0	42	0	272629760	19	4607
2026-01-11 11:06:12.99	194.63	21.49	-29.3	-31.7	14.7	2.20e-06	0	42	0	277872640	19	4716
2026-01-11 11:06:16.00	194.99	21.87	-29.2	-31.4	14.8	0.00e+00	0	42	0	283115520	19	4625
2026-01-11 11:06:18.98	195.35	22.25	-29.0	-31.0	15.1	0.00e+00	0	42	0	289406976	19	4501
2026-01-11 11:06:21.98	195.72	22.63	-29.1	-31.1	15.0	0.00e+00	0	42	0	294649856	19	4547
2026-01-11 11:06:24.99	196.10	23.03	-29.1	-31.0	15.1	0.00e+00	0	42	0	299892736	19	4499
2026-01-11 11:06:27.99	196.49	23.42	-29.3	-31.6	14.7	0.00e+00	0	42	0	306184192	19	4703
2026-01-11 11:06:31.00	196.89	23.83	-29.4	-31.9	14.5	7.00e-07	0	42	0	311427072	19	4793
2026-01-11 11:06:34.01	197.30	24.23	-29.2	-31.5	14.8	1.50e-06	0	42	0	316669952	19	4649
2026-01-11 11:06:37.01	197.72	24.65	-29.2	-31.4	14.9	0.00e+00	0	42	0	322961408	19	4628
2026-01-11 11:06:40.01	198.15	25.06	-29.5	-32.0	14.5	0.00e+00	0	42	0	328204288	19	4834
2026-01-11 11:06:43.01	198.60	25.48	-29.7	-32.6	14.2	1.50e-06	0	42	0	334495744	19	5047
2026-01-11 11:06:46.01	199.05	25.91	-29.5	-32.2	14.5	0.00e+00	0	42	0	339738624	19	4882
2026-01-11 11:06:49.01	199.52	26.34	-29.6	-32.3	14.4	7.00e-07	0	42	0	344981504	19	4935
2026-01-11 11:06:52.04	200.00	26.78	-29.9	-33.0	13.9	1.50e-06	0	42	0	351272960	19	5191
2026-01-11 11:06:55.04	200.49	27.22	-29.9	-32.6	13.8	4.50e-06	0	42	0	356515840	20	4928
2026-01-11 11:06:58.06	201.00	27.67	-30.0	-32.9	13.6	4.50e-06	0	42	0	361758720	20	5051
2026-01-11 11:07:01.08	201.52	28.12	-30.0	-32.9	13.7	6.80e-06	0	42	0	368050176	20	5021
2026-01-11 11:07:04.09	202.06	28.58	-30.2	-33.6	13.2	1.60e-05	0	42	0	373293056	20	5305
2026-01-11 11:07:07.11	202.61	29.05	-30.5	-34.2	12.8	5.34e-05	0	42	0	379584512	20	5545
2026-01-11 11:07:10.11	203.18	29.51	-30.9	-34.9	12.1	2.84e-04	0	42	0	384827392	21	5716
2026-01-11 11:07:13.13	203.76	29.98	-31.1	-34.9	11.7	5.16e-04	0	42	0	390070272	22	5617
2026-01-11 11:07:16.15	204.36	30.46	-31.2	-35.5	11.3	1.08e-03	0	42	0	396361728	22	5863
2026-01-11 11:07:19.16	204.98	30.94	-31.2	-35.4	11.3	8.93e-04	0	42	0	401604608	22	5837
2026-01-11 11:07:22.17	205.62	31.43	-31.4	-35.9	11.0	1.64e-03	0	42	0	407896064	22	6078
2026-01-11 11:07:25.19	206.27	31.92	-31.6	-36.1	10.5	3.87e-03	0	42	0	413138944	23	6045
2026-01-11 11:07:28.20	206.95	32.41	-30.8	-33.6	12.3	2.55e-04	0	42	0	418381824	23	4964
2026-01-11 11:07:31.21	207.64	32.91	-30.6	-33.6	12.7	9.30e-05	0	42	0	424673280	22	5074
2026-01-11 11:07:34.22	208.36	33.41	-30.3	-32.8	13.2	2.44e-05	0	42	0	429916160	22	4776
2026-01-11 11:07:37.24	209.10	33.92	-30.0	-32.3	13.8	3.80e-06	0	42	0	436207616	21	4698
2026-01-11 11:07:40.26	209.86	34.43	-29.9	-32.1	14.0	2.20e-06	0	42	0	441450496	21	4646
2026-01-11 11:07:43.26	210.65	34.93	-29.5	-31.6	14.6	7.00e-07	0	42	0	446693376	20	4558
2026-01-11 11:07:46.27	211.46	35.45	-29.3	-31.4	15.1	0.00e+00	0	42	0	452984832	19	4615
2026-01-11 11:07:49.29	212.29	35.96	-29.8	-32.9	14.3	7.00e-07	0	42	0	458227712	19	5094
2026-01-11 11:07:52.31	213.16	36.48	-29.9	-32.5	14.1	3.00e-06	0	42	0	463470592	20	4865
2026-01-11 11:07:55.32	214.05	36.99	-29.6	-31.7	14.6	1.50e-06	0	42	0	469762048	20	4585
2026-01-11 11:07:58.35	214.97	37.51	-29.1	-30.9	15.5	0.00e+00	0	42	0	475004928	19	4428
2026-01-11 11:08:01.34	215.91	38.03	-29.3	-31.4	15.2	0.00e+00	0	42	0	481296384	19	4585
2026-01-11 11:08:04.36	216.89	38.54	-29.6	-32.2	14.7	0.00e+00	0	42	0	486539264	19	4868
2026-01-11 11:08:07.38	217.90	39.06	-29.4	-31.7	15.0	0.00e+00	0	42	0	491782144	19	4693
2026-01-11 11:08:10.40	218.94	39.57	-29.5	-32.1	14.8	7.00e-07	0	42	0	498073600	19	4816
2026-01-11 11:08:13.40	220.00	40.08	-29.8	-32.7	14.4	0.00e+00	0	42	0	503316480	19	5023
2026-01-11 11:08:16.42	221.11	40.58	-30.1	-33.0	13.9	3.00e-06	0	42	0	509607936	20	5047
2026-01-11 11:08:19.43	222.25	41.08	-30.0	-32.9	13.9	4.50e-06	0	42	0	514850816	20	5001
2026-01-11 11:08:22.45	223.43	41.58	-30.3	-33.7	13.4	1.52e-05	0	42	0	520093696	20	5316
2026-01-11 11:08:25.46	224.64	42.06	-30.6	-33.9	12.9	3.89e-05	0	42	0	526385152	21	5267
2026-01-11 11:08:28.47	225.88	42.54	-30.7	-34.3	12.7	7.93e-05	0	42	0	531628032	21	5451
2026-01-11 11:08:31.49	227.17	43.01	-30.7	-34.2	12.8	6.02e-05	0	42	0	537919488	21	5402
2026-01-11 11:08:34.50	228.48	43.47	-30.3	-33.2	13.5	1.06e-05	0	42	0	543162368	21	4984
2026-01-11 11:08:37.53	229.85	43.91	-31.2	-35.0	11.9	3.58e-04	0	42	0	548405248	22	5627
2026-01-11 11:08:40.54	231.24	44.35	-30.7	-33.7	12.8	7.17e-05	0	42	0	554696704	22	5074
2026-01-11 11:08:43.55	232.67	44.77	-31.0	-34.6	12.3	6.17e-05	0	42	0	559939584	22	5426
2026-01-11 11:08:46.58	234.15	45.17	-31.6	-36.1	10.8	1.99e-03	0	42	0	566231040	23	5990
2026-01-11 11:08:49.59	235.66	45.56	-30.5	-33.0	13.3	5.72e-05	0	42	0	571473920	22	4795
2026-01-11 11:08:52.62	237.21	45.93	-31.1	-34.9	12.1	5.49e-05	0	42	0	576716800	22	5557
2026-01-11 11:08:55.64	238.79	46.28	-31.5	-35.5	11.2	2.67e-03	0	42	0	583008256	23	5734
2026-01-11 11:08:58.66	240.40	46.61	-30.8	-33.4	12.7	6.86e-05	0	42	0	588251136	23	4865
2026-01-11 11:09:01.68	242.05	46.91	-31.0	-34.6	12.2	1.37e-04	0	42	0	594542592	22	5430
2026-01-11 11:09:04.70	243.73	47.19	-30.9	-34.3	12.4	1.38e-04	0	42	0	599785472	22	5302
2026-01-11 11:09:07.72	245.43	47.45	-30.7	-33.7	12.9	1.03e-04	0	42	0	605028352	22	5056
2026-01-11 11:09:10.74	247.17	47.68	-30.4	-32.8	13.3	2.51e-05	0	42	0	611319808	22	4758
2026-01-11 11:09:13.76	248.92	47.88	-30.9	-34.2	12.5	9.53e-05	0	42	0	616562688	22	5250
2026-01-11 11:09:16.78	250.70	48.06	-30.7	-33.6	12.9	5.64e-05	0	42	0	622854144	22	5033
2026-01-11 11:09:19.78	252.49	48.21	-30.9	-34.0	12.6	5.11e-05	0	42	0	628097024	22	5188
2026-01-11 11:09:22.79	254.29	48.32	-30.7	-33.7	12.8	1.22e-04	0	42	0	633339904	22	5083
2026-01-11 11:09:25.81	256.12	48.41	-30.6	-33.4	13.0	4.11e-05	0	42	0	639631360	22	4958
2026-01-11 11:09:28.82	257.94	48.46	-30.3	-32.9	13.7	6.10e-06	0	42	0	644874240	21	4891
2026-01-11 11:09:31.83	259.77	48.49	-30.5	-33.6	13.3	7.60e-06	0	42	0	650117120	21	5140
2026-01-11 11:09:34.85	261.61	48.48	-30.2	-32.9	13.7	3.80e-06	0	42	0	656408576	21	4877
2026-01-11 11:09:37.87	263.44	48.45	-30.1	-32.6	13.9	3.80e-06	0	42	0	661651456	21	4765
2026-01-11 11:09:40.89	265.27	48.38	-30.2	-32.6	13.9	6.10e-06	0	42	0	667942912	21	4783
2026-01-11 11:09:43.90	267.08	48.28	-30.4	-33.4	13.4	1.60e-05	0	42	0	673185792	21	5060
2026-01-11 11:09:46.91	268.88	48.15	-30.2	-32.9	13.7	3.00e-06	0	42	0	678428672	21	4883
2026-01-11 11:09:49.93	270.67	48.00	-30.7	-34.1	12.9	5.11e-05	0	42	0	684720128	21	5351
2026-01-11 11:09:52.95	272.44	47.81	-30.7	-34.0	12.9	4.80e-05	0	42	0	689963008	21	5315
2026-01-11 11:09:55.96	274.18	47.60	-30.8	-33.9	12.7	1.25e-04	0	42	0	696254464	22	5162
2026-01-11 11:09:58.98	275.90	47.36	-31.0	-34.5	12.4	6.79e-05	0	42	0	701497344	22	5366
2026-01-11 11:10:01.99	277.59	47.09	-31.1	-34.4	12.0	5.49e-04	0	42	0	706740224	23	5234
2026-01-11 11:10:04.99	279.24	46.80	-31.5	-35.9	11.3	5.93e-04	0	42	0	713031680	22	6001
2026-01-11 11:10:08.01	280.87	46.49	-31.3	-35.0	11.7	8.51e-04	0	42	0	718274560	23	5481
2026-01-11 11:10:11.02	282.47	46.16	-31.6	-35.8	11.1	1.36e-03	0	42	0	724566016	23	5834
2026-01-11 11:10:14.03	284.03	45.80	-31.3	-34.9	11.7	6.45e-04	0	42	0	729808896	23	5443
2026-01-11 11:10:17.05	285.56	45.43	-32.3	-37.7	9.2	1.16e-02	0	42	0	735051776	24	6759
2026-01-11 11:10:20.07	287.05	45.03	-30.1	-32.5	13.9	1.14e-05	0	42	0	741343232	21	4748
2026-01-11 11:10:23.09	288.50	44.63	-30.2	-32.6	13.9	7.60e-06	0	42	0	746586112	21	4764
2026-01-11 11:10:26.10	289.92	44.20	-29.9	-32.5	14.2	7.00e-07	0	42	0	751828992	20	4848
2026-01-11 11:10:29.11	291.29	43.77	-29.9	-32.5	14.3	7.00e-07	0	42	0	758120448	20	4839
2026-01-11 11:10:32.12	292.63	43.32	-29.7	-31.8	14.7	0.00e+00	0	42	0	763363328	20	4627
2026-01-11 11:10:35.13	293.93	42.86	-29.3	-31.4	15.3	0.00e+00	0	42	0	769654784	19	4568
2026-01-11 11:10:38.14	295.20	42.39	-29.5	-31.8	15.1	0.00e+00	0	42	0	774897664	19	4713
2026-01-11 11:10:41.15	296.43	41.91	-29.6	-32.1	14.9	0.00e+00	0	42	0	780140544	19	4799
2026-01-11 11:10:44.16	297.62	41.43	-30.3	-33.6	13.5	6.80e-06	0	42	0	786432000	20	5269
2026-01-11 11:10:47.18	298.78	40.93	-30.4	-33.7	13.4	6.80e-06	0	42	0	791674880	20	5295
2026-01-11 11:10:50.19	299.91	40.43	-31.1	-35.0	11.9	2.23e-04	0	42	0	797966336	22	5581
2026-01-11 11:10:53.21	301.00	39.93	-29.8	-31.8	14.3	0.00e+00	0	42	0	803209216	21	4521
2026-01-11 11:10:56.23	302.06	39.42	-31.2	-35.2	11.8	2.17e-04	0	42	0	808452096	22	5706
2026-01-11 11:10:59.25	303.09	38.91	-29.8	-31.6	14.5	2.20e-06	0	42	0	814743552	21	4453
2026-01-11 11:11:02.26	304.08	38.40	-31.0	-34.7	12.2	9.30e-05	0	42	0	819986432	22	5478
2026-01-11 11:11:05.28	305.04	37.89	-29.7	-31.9	14.6	2.20e-06	0	42	0	826277888	20	4644
2026-01-11 11:11:08.29	305.98	37.37	-30.9	-34.9	12.4	5.41e-05	0	42	0	831520768	21	5656
2026-01-11 11:11:11.31	306.88	36.86	-30.6	-33.4	13.0	8.08e-05	0	42	0	836763648	22	4962
2026-01-11 11:11:14.32	307.76	36.34	-30.5	-33.5	13.2	1.83e-05	0	42	0	843055104	21	5128
2026-01-11 11:11:17.34	308.61	35.83	-31.8	-36.7	10.3	4.91e-03	0	42	0	848297984	23	6320
2026-01-11 11:11:20.35	309.44	35.32	-29.8	-32.1	14.5	1.50e-06	0	42	0	853540864	20	4716
2026-01-11 11:11:23.37	310.24	34.81	-30.9	-34.7	12.4	2.36e-05	0	42	0	859832320	21	5598
2026-01-11 11:11:26.38	311.01	34.31	-31.1	-34.4	11.9	9.83e-04	0	42	0	865075200	23	5251
2026-01-11 11:11:29.39	311.77	33.80	-31.0	-34.0	12.2	2.82e-04	0	42	0	871366656	23	5101
2026-01-11 11:11:32.41	312.50	33.30	-31.9	-36.9	10.1	3.49e-03	0	42	0	876609536	23	6413
2026-01-11 11:11:35.43	313.21	32.80	-31.8	-36.3	10.2	1.11e-02	0	42	0	881852416	24	5990
2026-01-11 11:11:38.45	313.90	32.31	-31.1	-34.4	11.9	3.19e-04	0	42	0	888143872	23	5243
2026-01-11 11:11:41.46	314.56	31.82	-32.2	-37.6	9.1	1.77e-02	0	42	0	893386752	24	6742
2026-01-11 11:11:44.46	315.21	31.34	-32.6	-39.1	7.6	1.28e-01	0	42	0	899678208	25	7561
2026-01-11 11:11:47.47	315.84	30.86	-30.5	-33.1	13.1	5.56e-05	0	42	0	904921088	22	4867
2026-01-11 11:11:50.48	316.45	30.38	-29.9	-32.1	14.1	2.20e-06	0	42	0	910163968	21	4619
2026-01-11 11:11:53.48	317.04	29.91	-31.3	-35.4	11.5	3.29e-04	0	42	0	916455424	22	5798
2026-01-11 11:11:56.49	317.61	29.44	-31.7	-36.3	10.5	3.58e-03	0	42	0	921698304	23	6108
2026-01-11 11:11:59.50	318.17	28.98	-31.3	-35.2	11.3	1.13e-03	0	42	0	926941184	23	5596
2026-01-11 11:12:02.50	318.72	28.52	-31.3	-34.9	11.5	7.23e-04	0	42	0	933232640	23	5481
2026-01-11 11:12:05.50	319.25	28.07	-31.2	-34.7	11.6	9.88e-04	0	42	0	938475520	23	5390
2026-01-11 11:12:08.51	319.76	27.62	-30.0	-32.4	13.8	1.22e-05	0	42	0	944766976	21	4713
2026-01-11 11:12:11.51	320.26	27.18	-29.5	-31.6	14.7	0.00e+00	0	42	0	950009856	20	4545
2026-01-11 11:12:14.52	320.75	26.74	-29.7	-31.9	14.5	1.50e-06	0	42	0	955252736	20	4650
2026-01-11 11:12:17.52	321.23	26.31	-30.3	-33.7	13.4	1.06e-05	0	42	0	961544192	20	5288
2026-01-11 11:12:20.51	321.69	25.89	-30.3	-33.2	13.3	1.37e-05	0	42	0	966787072	21	5004
2026-01-11 11:12:23.51	322.14	25.46	-30.2	-32.8	13.6	7.60e-06	0	42	0	972029952	21	4857
2026-01-11 11:12:26.53	322.58	25.04	-29.9	-32.0	14.1	1.50e-06	0	42	0	978321408	21	4573
2026-01-11 11:12:29.52	323.01	24.63	-29.8	-32.4	14.2	7.00e-07	0	42	0	983564288	20	4813
2026-01-11 11:12:32.53	323.42	24.22	-30.0	-32.7	13.9	3.00e-06	0	42	0	989855744	20	4938
2026-01-11 11:12:35.54	323.83	23.82	-30.4	-33.9	13.1	1.52e-05	0	42	0	995098624	20	5388
2026-01-11 11:12:38.56	324.23	23.42	-30.7	-34.3	12.5	1.40e-04	0	42	0	1000341504	21	5441
2026-01-11 11:12:41.58	324.62	23.02	-30.6	-33.9	12.8	4.88e-05	0	42	0	1006632960	21	5282
2026-01-11 11:12:44.59	325.00	22.64	-30.4	-33.6	12.9	6.56e-05	0	42	0	1011875840	21	5168
2026-01-11 11:12:47.60	325.37	22.25	-30.3	-33.1	13.2	2.21e-05	0	42	0	1017118720	21	4993
2026-01-11 11:12:50.60	325.73	21.87	-30.5	-33.9	12.7	4.57e-05	0	42	0	1023410176	21	5284
2026-01-11 11:12:53.60	326.08	21.50	-30.5	-33.8	12.7	1.43e-04	0	42	0	1028653056	21	5281
2026-01-11 11:12:56.58	326.43	21.13	-30.1	-32.6	13.5	6.80e-06	0	42	0	1034944512	21	4807
2026-01-11 11:12:59.59	326.76	20.76	-30.1	-32.6	13.5	9.10e-06	0	42	0	1040187392	21	4836
2026-01-11 11:13:02.59	327.09	20.40	-30.3	-33.2	13.1	3.66e-05	0	42	0	1045430272	21	5038
2026-01-11 11:13:05.60	327.41	20.04	-30.1	-32.7	13.4	1.52e-05	0	42	0	1051721728	21	4850
2026-01-11 11:13:08.60	327.73	19.69	-30.3	-33.2	13.1	2.67e-05	0	42	0	1056964608	21	5038
2026-01-11 11:13:11.60	328.04	19.34	-30.2	-33.0	13.2	1.98e-05	0	42	0	1062207488	21	4966
2026-01-11 11:13:14.60	328.34	19.00	-30.2	-33.1	13.1	3.50e-05	0	42	0	1068498944	21	5009
2026-01-11 11:13:17.60	328.63	18.66	-30.3	-33.2	12.9	5.26e-05	0	42	0	1073741824	21	5071
2026-01-11 11:13:20.62	328.92	18.32	-30.3	-33.3	12.9	5.18e-05	0	42	0	1080033280	21	5095
2026-01-11 11:13:23.62	329.20	17.99	-30.4	-33.7	12.6	9.53e-05	0	42	0	1085276160	21	5238
2026-01-11 11:13:26.63	329.48	17.66	-30.3	-33.4	12.8	5.41e-05	0	42	0	1090519040	21	5149
2026-01-11 11:13:29.65	329.75	17.33	-30.4	-33.7	12.6	6.17e-05	0	42	0	1096810496	21	5243
2026-01-11 11:13:32.65	330.02	17.01	-30.5	-34.0	12.4	1.04e-04	0	42	0	1102053376	21	5376
2026-01-11 11:13:35.65	330.28	16.69	-30.4	-33.7	12.6	9.30e-05	0	42	0	1107296256	21	5240
2026-01-11 11:13:38.66	330.54	16.38	-30.6	-34.2	12.2	2.70e-04	0	42	0	1113587712	21	5460
2026-01-11 11:13:41.66	330.79	16.07	-30.6	-34.2	12.2	1.81e-04	0	42	0	1118830592	21	5444
2026-01-11 11:13:44.67	331.03	15.76	-30.4	-33.8	12.5	1.70e-04	0	42	0	1125122048	21	5298
2026-01-11 11:13:47.67	331.27	15.46	-30.3	-33.3	12.7	8.23e-05	0	42	0	1130364928	21	5120
2026-01-11 11:13:50.66	331.51	15.16	-30.5	-33.9	12.3	1.07e-04	0	42	0	1135607808	21	5342
2026-01-11 11:13:53.68	331.74	14.86	-30.3	-33.5	12.6	7.78e-05	0	42	0	1141899264	21	5200
2026-01-11 11:13:56.70	331.97	14.56	-30.5	-33.9	12.3	1.45e-04	0	42	0	1147142144	21	5339
2026-01-11 11:13:59.70	332.19	14.27	-30.6	-34.4	11.9	3.78e-04	0	42	0	1152385024	21	5580
2026-01-11 11:14:02.70	332.41	13.99	-30.7	-34.8	11.7	6.13e-04	0	42	0	1158676480	21	5726
2026-01-11 11:14:05.71	332.63	13.70	-30.8	-34.9	11.6	6.42e-04	0	42	0	1163919360	21	5796
2026-01-11 11:14:08.71	332.84	13.42	-30.7	-34.6	11.7	6.79e-04	0	42	0	1169162240	21	5674
2026-01-11 11:14:11.70	333.05	13.14	-30.5	-34.2	12.1	3.46e-04	0	42	0	1175453696	21	5473
2026-01-11 11:14:14.72	333.25	12.87	-30.5	-34.1	12.1	3.72e-04	0	42	0	1180696576	21	5438
2026-01-11 11:14:17.74	333.45	12.59	-30.2	-33.2	12.6	1.18e-04	0	42	0	1186988032	21	5109
2026-01-11 11:14:20.75	333.65	12.32	-30.2	-33.2	12.6	1.31e-04	0	42	0	1192230912	21	5104
2026-01-11 11:14:23.77	333.85	12.05	-30.2	-33.3	12.6	8.23e-05	0	42	0	1197473792	21	5124
2026-01-11 11:14:26.80	334.04	11.78	-30.3	-33.5	12.4	1.26e-04	0	42	0	1203765248	21	5203
2026-01-11 11:14:29.82	334.23	11.52	-30.3	-33.5	12.4	1.46e-04	0	42	0	1209008128	21	5228
2026-01-11 11:14:32.84	334.41	11.26	-30.6	-34.6	11.6	6.64e-04	0	42	0	1215299584	21	5689
2026-01-11 11:14:35.85	334.59	11.00	-30.8	-35.0	11.3	9.68e-04	0	42	0	1220542464	21	5878
2026-01-11 11:14:38.86	334.77	10.75	-30.9	-35.4	10.9	2.41e-03	0	42	0	1225785344	21	6084
2026-01-11 11:14:41.87	334.95	10.49	-30.9	-35.0	10.9	2.55e-03	0	42	0	1232076800	22	5772
2026-01-11 11:14:44.88	335.12	10.24	-31.0	-35.2	10.7	3.00e-03	0	42	0	1237319680	22	5887
2026-01-11 11:14:47.89	335.29	9.99	-31.0	-35.2	10.6	3.59e-03	0	42	0	1243611136	22	5895
2026-01-11 11:14:50.90	335.46	9.75	-31.0	-35.2	10.6	2.65e-03	0	42	0	1248854016	22	5905
2026-01-11 11:14:53.91	335.63	9.50	-30.9	-35.1	10.7	2.54e-03	0	42	0	1254096896	22	5822
2026-01-11 11:14:56.92	335.79	9.26	-31.0	-35.3	10.5	2.46e-03	0	42	0	1260388352	22	5939
2026-01-11 11:14:59.93	335.95	9.02	-30.9	-35.2	10.6	2.89e-03	0	42	0	1265631232	22	5864
2026-01-11 11:15:02.94	336.11	8.79	-30.8	-34.7	10.9	2.29e-03	0	42	0	1270874112	22	5673
2026-01-11 11:15:05.96	336.26	8.55	-30.7	-34.6	10.9	2.22e-03	0	42	0	1277165568	22	5637
2026-01-11 11:15:08.97	336.42	8.32	-30.7	-34.5	11.0	1.84e-03	0	42	0	1282408448	22	5569
2026-01-11 11:15:11.98	336.57	8.09	-30.6	-34.4	11.0	1.97e-03	0	42	0	1288699904	22	5558
2026-01-11 11:15:15.00	336.72	7.86	-30.6	-34.4	10.9	2.27e-03	0	42	0	1293942784	22	5574
2026-01-11 11:15:18.01	336.87	7.63	-30.7	-34.5	10.9	1.84e-03	0	42	0	1299185664	22	5600
2026-01-11 11:15:21.02	337.01	7.40	-30.7	-34.6	10.7	2.79e-03	0	42	0	1305477120	22	5681
2026-01-11 11:15:24.03	337.15	7.18	-30.8	-35.1	10.4	5.31e-03	0	42	0	1310720000	22	5880
2026-01-11 11:15:27.05	337.30	6.96	-33.3	-47.7	3.8	1.49e+00	0	42	104	1313865728	26	18821

#Closed at: 2026-01-11 11:15:29
#Recorded file [1313 MB]: D:/data/31010_260111_140344.dat