passes_logs/2026/01/11/R2M6_AANII_01/R2M6_AANII_01__20260111_222148_NOAA_21_JPSS-2_rec.log

#Pass ID: 20260111_222148_NOAA 21 (JPSS-2)
#Satellite: NOAA 21 (JPSS-2)
#Configuration: NOAA 21
#almurnet v.1.7.20240730
#Start time: 2026-01-11 22:21:49

#Version: 2.2.20231116
#Station: R2M6_AANII_01
#Location: 30.233357 lon 59.946436 lat
#TLE: 1 54234U 22150A   26011.27699114  .00000090  00000+0  63771-4 0  9993
#TLE: 2 54234  98.7494 312.2218 0000765 314.9553  45.1561 14.19534106164285

#Time	Az	El	Level	Level2	SNR	BER	BlckErr	Temp	State	Recorded	gain1	gain2
2026-01-11 22:21:49.00	34.53	7.02	-30.6	-35.2	4.6	1.39e+00	0	39	0	0	22	6139
2026-01-11 22:21:52.01	34.87	7.18	-30.9	-35.4	7.6	9.54e-02	0	39	0	3145728	22	6091
2026-01-11 22:21:55.02	35.22	7.34	-30.5	-34.7	8.5	4.16e-02	0	39	0	12582912	21	5844
2026-01-11 22:21:58.05	35.58	7.51	-29.9	-33.2	10.0	1.06e-02	0	39	0	22020096	20	5254
2026-01-11 22:22:01.06	35.93	7.67	-29.0	-31.2	11.8	4.47e-04	0	39	0	31457280	19	4629
2026-01-11 22:22:04.07	36.29	7.84	-29.2	-31.6	11.6	5.95e-04	0	39	0	40894464	19	4744
2026-01-11 22:22:07.08	36.66	8.00	-28.5	-30.4	12.6	1.78e-04	0	40	0	49283072	18	4465
2026-01-11 22:22:10.08	37.03	8.17	-28.6	-30.5	12.7	1.22e-04	0	40	0	58720256	18	4478
2026-01-11 22:22:13.11	37.40	8.33	-28.9	-31.3	12.2	3.46e-04	0	40	0	69206016	18	4740
2026-01-11 22:22:16.12	37.78	8.50	-28.5	-30.4	12.8	1.33e-04	0	40	0	77594624	18	4439
2026-01-11 22:22:19.12	38.16	8.66	-28.3	-29.8	13.2	2.59e-04	0	40	0	87031808	18	4271
2026-01-11 22:22:22.13	38.54	8.82	-28.1	-29.9	13.4	1.74e-04	0	40	0	96468992	17	4393
2026-01-11 22:22:25.15	38.93	8.99	-28.1	-29.7	13.5	1.60e-05	0	40	0	105906176	17	4336
2026-01-11 22:22:28.16	39.32	9.15	-28.3	-30.3	13.2	2.28e-05	0	40	0	115343360	17	4513
2026-01-11 22:22:31.17	39.72	9.32	-28.6	-31.1	12.7	2.59e-04	0	40	0	124780544	17	4771
2026-01-11 22:22:34.20	40.12	9.48	-28.5	-30.7	13.0	4.34e-05	0	40	0	134217728	17	4641
2026-01-11 22:22:37.21	40.53	9.65	-28.4	-30.6	13.0	1.98e-05	0	40	0	143654912	17	4608
2026-01-11 22:22:40.23	40.94	9.81	-28.4	-30.4	13.1	2.67e-05	0	40	0	153092096	17	4554
2026-01-11 22:22:43.25	41.36	9.98	-28.2	-30.1	13.4	1.29e-05	0	40	0	162529280	17	4454
2026-01-11 22:22:46.28	41.78	10.14	-28.2	-30.4	13.5	1.29e-05	0	40	0	171966464	16	4672
2026-01-11 22:22:49.28	42.20	10.30	-27.8	-29.5	14.1	2.20e-06	0	40	0	181403648	16	4370
2026-01-11 22:22:52.30	42.63	10.47	-27.7	-29.3	14.2	4.50e-06	0	41	0	190840832	16	4332
2026-01-11 22:22:55.31	43.06	10.63	-27.9	-29.8	13.9	2.20e-06	0	41	0	200278016	16	4456
2026-01-11 22:22:58.33	43.50	10.79	-28.1	-30.3	13.6	9.90e-06	0	40	0	209715200	16	4627
2026-01-11 22:23:01.36	43.95	10.96	-28.1	-30.3	13.6	9.90e-06	0	41	0	219152384	16	4613
2026-01-11 22:23:04.37	44.40	11.12	-28.1	-30.3	13.7	5.30e-06	0	41	0	228589568	16	4606
2026-01-11 22:23:07.38	44.85	11.28	-27.9	-29.7	14.0	3.00e-06	0	41	0	238026752	16	4432
2026-01-11 22:23:10.41	45.31	11.44	-27.9	-29.8	14.0	6.10e-06	0	41	0	247463936	16	4457
2026-01-11 22:23:13.43	45.77	11.60	-27.7	-29.3	14.2	0.00e+00	0	41	0	256901120	16	4319
2026-01-11 22:23:16.45	46.24	11.76	-27.6	-29.0	14.5	1.50e-06	0	41	0	266338304	16	4220
2026-01-11 22:23:19.47	46.71	11.92	-27.7	-29.2	14.4	1.50e-06	0	41	0	275775488	16	4292
2026-01-11 22:23:22.48	47.19	12.08	-27.7	-29.3	14.3	2.20e-06	0	41	0	285212672	16	4319
2026-01-11 22:23:25.50	47.67	12.23	-27.7	-29.3	14.3	0.00e+00	0	41	0	294649856	16	4300
2026-01-11 22:23:28.52	48.16	12.39	-27.7	-29.2	14.4	1.50e-06	0	41	0	304087040	16	4290
2026-01-11 22:23:31.55	48.66	12.55	-27.7	-29.8	14.2	7.00e-07	0	41	0	313524224	15	4578
2026-01-11 22:23:34.57	49.16	12.70	-28.2	-30.3	13.8	3.80e-06	0	41	0	322961408	16	4610
2026-01-11 22:23:37.59	49.66	12.86	-28.2	-29.8	13.8	6.80e-06	0	41	0	332398592	17	4358
2026-01-11 22:23:40.60	50.17	13.01	-28.2	-29.8	13.8	3.80e-06	0	41	0	341835776	17	4359
2026-01-11 22:23:43.63	50.68	13.16	-28.3	-30.1	13.6	9.10e-06	0	41	0	351272960	17	4424
2026-01-11 22:23:46.64	51.20	13.31	-28.3	-30.2	13.6	1.14e-05	0	41	0	360710144	17	4453
2026-01-11 22:23:49.65	51.72	13.46	-28.0	-29.4	14.1	7.00e-07	0	41	0	370147328	17	4235
2026-01-11 22:23:52.66	52.25	13.61	-27.9	-29.7	14.2	7.00e-07	0	41	0	379584512	16	4413
2026-01-11 22:23:55.68	52.78	13.76	-27.6	-29.5	14.4	7.00e-07	0	41	0	389021696	15	4489
2026-01-11 22:23:58.70	53.32	13.90	-27.7	-29.7	14.4	2.20e-06	0	41	0	398458880	15	4539
2026-01-11 22:24:01.72	53.87	14.05	-27.7	-29.9	14.2	0.00e+00	0	41	0	407896064	15	4588
2026-01-11 22:24:04.73	54.42	14.19	-27.8	-30.1	14.1	2.20e-06	0	41	0	417333248	15	4669
2026-01-11 22:24:07.74	54.97	14.33	-27.7	-29.7	14.4	1.50e-06	0	41	0	426770432	15	4536
2026-01-11 22:24:10.75	55.53	14.47	-27.5	-29.3	14.6	7.00e-07	0	41	0	436207616	15	4420
2026-01-11 22:24:13.77	56.09	14.61	-27.7	-29.7	14.4	7.00e-07	0	41	0	445644800	15	4549
2026-01-11 22:24:16.78	56.66	14.74	-27.7	-29.8	14.3	2.20e-06	0	41	0	455081984	15	4575
2026-01-11 22:24:19.80	57.24	14.87	-27.6	-29.5	14.5	0.00e+00	0	41	0	464519168	15	4490
2026-01-11 22:24:22.82	57.82	15.01	-27.4	-29.5	14.8	7.00e-07	0	41	0	473956352	14	4582
2026-01-11 22:24:25.84	58.40	15.14	-27.4	-29.0	14.8	0.00e+00	0	41	0	483393536	15	4329
2026-01-11 22:24:28.86	58.99	15.26	-27.5	-29.3	14.6	7.00e-07	0	41	0	492830720	15	4423
2026-01-11 22:24:31.87	59.59	15.39	-27.5	-29.3	14.6	0.00e+00	0	41	0	502267904	15	4416
2026-01-11 22:24:34.88	60.19	15.51	-27.3	-28.9	14.9	7.00e-07	0	41	0	511705088	15	4294
2026-01-11 22:24:37.90	60.79	15.63	-27.2	-28.6	15.0	7.00e-07	0	41	0	521142272	15	4213
2026-01-11 22:24:40.93	61.40	15.75	-27.2	-28.6	15.0	0.00e+00	0	41	0	530579456	15	4231
2026-01-11 22:24:43.95	62.02	15.87	-27.3	-29.4	14.9	0.00e+00	0	41	0	540016640	14	4558
2026-01-11 22:24:46.96	62.63	15.98	-27.5	-29.6	14.8	7.00e-07	0	41	0	549453824	14	4626
2026-01-11 22:24:49.98	63.26	16.09	-27.2	-29.1	15.0	0.00e+00	0	41	0	558891008	14	4472
2026-01-11 22:24:52.99	63.88	16.20	-27.2	-29.0	15.1	0.00e+00	0	41	0	568328192	14	4429
2026-01-11 22:24:56.01	64.52	16.31	-27.2	-29.0	15.2	8.97e-04	0	41	0	577765376	14	4433
2026-01-11 22:24:59.03	65.15	16.41	-27.2	-29.0	15.1	0.00e+00	0	41	0	587202560	14	4438
2026-01-11 22:25:02.05	65.80	16.51	-27.3	-29.4	14.9	1.82e-04	0	41	0	596639744	14	4545
2026-01-11 22:25:05.07	66.44	16.60	-27.0	-28.6	15.4	1.89e-04	0	41	0	606076928	14	4313
2026-01-11 22:25:08.10	67.09	16.70	-26.9	-28.3	15.5	4.93e-04	0	41	0	615514112	14	4239
2026-01-11 22:25:11.12	67.75	16.79	-26.9	-29.0	15.4	0.00e+00	0	41	0	624951296	13	4541
2026-01-11 22:25:14.14	68.40	16.87	-27.1	-28.7	15.3	5.86e-04	0	41	0	634388480	14	4367
2026-01-11 22:25:17.16	69.06	16.96	-27.0	-28.5	15.4	0.00e+00	0	41	0	643825664	14	4293
2026-01-11 22:25:20.17	69.73	17.04	-27.0	-28.6	15.4	0.00e+00	0	42	0	653262848	14	4314
2026-01-11 22:25:23.19	70.39	17.11	-27.0	-28.5	15.4	1.44e-04	0	41	0	662700032	14	4293
2026-01-11 22:25:26.21	71.07	17.19	-26.9	-28.4	15.5	0.00e+00	0	41	0	672137216	14	4257
2026-01-11 22:25:29.23	71.74	17.26	-27.0	-28.5	15.5	0.00e+00	0	42	0	681574400	14	4298
2026-01-11 22:25:32.24	72.41	17.32	-27.3	-29.3	15.0	7.00e-07	0	41	0	691011584	14	4522
2026-01-11 22:25:35.27	73.10	17.39	-27.2	-29.0	15.2	0.00e+00	0	42	0	700448768	14	4447
2026-01-11 22:25:38.28	73.78	17.45	-27.0	-28.5	15.4	0.00e+00	0	42	0	709885952	14	4305
2026-01-11 22:25:41.31	74.47	17.50	-27.1	-28.9	15.3	0.00e+00	0	42	0	719323136	14	4396
2026-01-11 22:25:44.31	75.15	17.55	-26.9	-28.4	15.5	0.00e+00	0	41	0	728760320	14	4270
2026-01-11 22:25:47.33	75.84	17.60	-26.9	-28.3	15.6	0.00e+00	0	41	0	738197504	14	4249
2026-01-11 22:25:50.36	76.53	17.64	-27.1	-28.9	15.3	0.00e+00	0	42	0	747634688	14	4396
2026-01-11 22:25:53.36	77.22	17.68	-27.0	-28.7	15.4	0.00e+00	0	41	0	757071872	14	4350
2026-01-11 22:25:56.38	77.92	17.72	-27.0	-28.6	15.4	0.00e+00	0	42	0	766509056	14	4309
2026-01-11 22:25:59.41	78.62	17.75	-27.2	-29.0	15.2	0.00e+00	0	41	0	775946240	14	4431
2026-01-11 22:26:02.42	79.32	17.78	-26.8	-28.2	15.6	0.00e+00	0	41	0	785383424	14	4224
2026-01-11 22:26:05.44	80.02	17.80	-26.9	-28.4	15.5	0.00e+00	0	41	0	794820608	14	4260
2026-01-11 22:26:08.46	80.72	17.82	-26.9	-28.3	15.6	0.00e+00	0	41	0	804257792	14	4240
2026-01-11 22:26:11.48	81.42	17.83	-26.9	-28.4	15.5	3.66e-04	0	41	0	813694976	14	4264
2026-01-11 22:26:14.51	82.12	17.84	-27.2	-29.1	15.1	0.00e+00	0	42	0	823132160	14	4468
2026-01-11 22:26:17.54	82.83	17.85	-27.0	-28.6	15.4	3.50e-05	0	42	0	832569344	14	4317
2026-01-11 22:26:20.55	83.53	17.85	-27.2	-29.0	15.2	3.00e-06	0	42	0	842006528	14	4430
2026-01-11 22:26:23.58	84.23	17.85	-27.2	-29.1	15.1	7.78e-05	0	42	0	851443712	14	4452
2026-01-11 22:26:26.60	84.94	17.85	-27.1	-28.7	15.3	1.90e-05	0	42	0	860880896	14	4360
2026-01-11 22:26:29.62	85.64	17.84	-27.1	-28.9	15.2	0.00e+00	0	42	0	870318080	14	4399
2026-01-11 22:26:32.63	86.34	17.82	-27.1	-28.9	15.2	6.10e-06	0	42	0	879755264	14	4399
2026-01-11 22:26:35.66	87.04	17.81	-27.2	-29.0	15.2	0.00e+00	0	42	0	889192448	14	4432
2026-01-11 22:26:38.67	87.74	17.78	-27.1	-28.8	15.3	2.20e-06	0	41	0	898629632	14	4389
2026-01-11 22:26:41.70	88.45	17.76	-27.0	-28.5	15.4	0.00e+00	0	42	0	908066816	14	4304
2026-01-11 22:26:44.72	89.14	17.73	-27.4	-29.5	14.8	0.00e+00	0	42	0	917504000	14	4601
2026-01-11 22:26:47.74	89.84	17.69	-27.3	-29.3	15.0	0.00e+00	0	41	0	926941184	14	4518
2026-01-11 22:26:50.75	90.53	17.65	-26.8	-28.2	15.6	0.00e+00	0	42	0	936378368	14	4210
2026-01-11 22:26:53.77	91.23	17.61	-27.0	-28.6	15.4	0.00e+00	0	41	0	945815552	14	4329
2026-01-11 22:26:56.79	91.92	17.56	-26.7	-28.0	15.7	0.00e+00	0	42	0	955252736	14	4162
2026-01-11 22:26:59.81	92.61	17.51	-27.1	-28.9	15.2	0.00e+00	0	41	0	964689920	14	4408
2026-01-11 22:27:02.83	93.30	17.46	-26.8	-28.2	15.6	0.00e+00	0	42	0	974127104	14	4211
2026-01-11 22:27:05.85	93.98	17.40	-26.9	-28.3	15.5	0.00e+00	0	42	0	983564288	14	4235
2026-01-11 22:27:08.88	94.67	17.34	-26.7	-27.9	15.7	0.00e+00	0	41	0	993001472	14	4148
2026-01-11 22:27:11.90	95.35	17.27	-27.0	-28.6	15.4	0.00e+00	0	42	0	1002438656	14	4313
2026-01-11 22:27:14.91	96.02	17.21	-27.0	-28.6	15.3	0.00e+00	0	42	0	1011875840	14	4326
2026-01-11 22:27:17.91	96.69	17.13	-27.0	-28.6	15.4	0.00e+00	0	42	0	1021313024	14	4324
2026-01-11 22:27:20.93	97.36	17.06	-26.7	-27.9	15.7	0.00e+00	0	42	0	1030750208	14	4148
2026-01-11 22:27:23.94	98.03	16.98	-26.7	-28.0	15.7	0.00e+00	0	42	0	1040187392	14	4169
2026-01-11 22:27:26.96	98.69	16.89	-26.9	-28.4	15.4	0.00e+00	0	41	0	1049624576	14	4282
2026-01-11 22:27:29.98	99.35	16.81	-26.7	-28.0	15.7	0.00e+00	0	42	0	1059061760	14	4157
2026-01-11 22:27:32.99	100.00	16.72	-26.8	-28.0	15.6	0.00e+00	0	42	0	1068498944	14	4173
2026-01-11 22:27:36.01	100.66	16.63	-26.9	-28.3	15.5	0.00e+00	0	42	0	1077936128	14	4245
2026-01-11 22:27:39.01	101.30	16.53	-26.7	-28.4	15.7	0.00e+00	0	42	0	1087373312	13	4383
2026-01-11 22:27:42.02	101.94	16.43	-26.7	-28.5	15.6	0.00e+00	0	42	0	1096810496	13	4424
2026-01-11 22:27:45.05	102.59	16.33	-26.7	-28.3	15.7	7.00e-07	0	42	0	1106247680	13	4357
2026-01-11 22:27:48.06	103.22	16.22	-26.8	-28.7	15.5	0.00e+00	0	42	0	1115684864	13	4459
2026-01-11 22:27:51.06	103.85	16.12	-26.8	-28.6	15.5	0.00e+00	0	41	0	1125122048	13	4451
2026-01-11 22:27:54.07	104.47	16.01	-26.8	-28.7	15.5	0.00e+00	0	41	0	1134559232	13	4464
2026-01-11 22:27:57.08	105.09	15.89	-27.1	-28.9	15.1	0.00e+00	0	42	0	1143996416	14	4410
2026-01-11 22:28:00.10	105.71	15.78	-27.1	-28.8	15.1	0.00e+00	0	41	0	1153433600	14	4389
2026-01-11 22:28:03.12	106.33	15.66	-27.2	-29.0	15.0	0.00e+00	0	41	0	1162870784	14	4458
2026-01-11 22:28:06.14	106.94	15.54	-27.1	-28.8	15.2	0.00e+00	0	42	0	1172307968	14	4381
2026-01-11 22:28:09.16	107.54	15.41	-27.1	-28.9	15.1	0.00e+00	0	42	0	1181745152	14	4419
2026-01-11 22:28:12.17	108.14	15.29	-27.4	-29.4	14.8	0.00e+00	0	42	0	1191182336	14	4569
2026-01-11 22:28:15.19	108.73	15.16	-27.5	-29.3	14.6	7.00e-07	0	42	0	1200619520	15	4418
2026-01-11 22:28:18.21	109.32	15.03	-27.4	-29.0	14.8	0.00e+00	0	42	0	1210056704	15	4327
2026-01-11 22:28:21.22	109.90	14.90	-27.3	-28.9	14.8	0.00e+00	0	42	0	1219493888	15	4299
2026-01-11 22:28:24.25	110.48	14.76	-27.2	-28.6	14.9	0.00e+00	0	42	0	1227882496	15	4218
2026-01-11 22:28:27.26	111.06	14.63	-27.4	-29.1	14.6	2.20e-06	0	42	0	1238368256	15	4370
2026-01-11 22:28:30.29	111.63	14.49	-27.8	-30.1	14.1	3.80e-06	0	42	0	1247805440	15	4658
2026-01-11 22:28:33.30	112.19	14.35	-27.4	-29.0	14.7	1.50e-06	0	42	0	1257242624	15	4346
2026-01-11 22:28:36.33	112.75	14.21	-27.5	-29.2	14.6	0.00e+00	0	42	0	1266679808	15	4395
2026-01-11 22:28:39.35	113.31	14.06	-27.4	-29.1	14.6	0.00e+00	0	42	0	1275068416	15	4371
2026-01-11 22:28:42.37	113.85	13.92	-27.5	-29.4	14.4	7.00e-07	0	42	0	1285554176	15	4459
2026-01-11 22:28:45.39	114.40	13.77	-27.5	-29.3	14.5	1.50e-06	0	42	0	1294991360	15	4416
2026-01-11 22:28:48.40	114.93	13.63	-27.6	-29.4	14.4	7.00e-07	0	42	0	1304428544	15	4471
2026-01-11 22:28:51.42	115.47	13.48	-27.6	-29.5	14.3	0.00e+00	0	42	0	1313865728	15	4490
2026-01-11 22:28:54.44	115.99	13.33	-27.4	-29.5	14.6	7.00e-07	0	42	0	1322254336	14	4611
2026-01-11 22:28:57.46	116.52	13.17	-27.6	-29.6	14.2	0.00e+00	0	42	0	1332740096	15	4525
2026-01-11 22:29:00.47	117.03	13.02	-27.7	-29.7	14.2	1.50e-06	0	42	0	1342177280	15	4560
2026-01-11 22:29:03.48	117.54	12.87	-27.8	-30.0	14.0	6.33e-05	0	42	0	1350565888	15	4631
2026-01-11 22:29:06.50	118.05	12.71	-27.6	-29.6	14.2	7.00e-07	0	42	0	1361051648	15	4522
2026-01-11 22:29:09.52	118.55	12.56	-28.0	-29.9	13.9	4.80e-05	0	42	0	1369440256	16	4492
2026-01-11 22:29:12.54	119.05	12.40	-27.9	-29.7	14.0	6.63e-04	0	42	0	1378877440	16	4434
2026-01-11 22:29:15.56	119.54	12.24	-27.6	-29.6	14.2	7.57e-04	0	42	0	1389363200	15	4518
2026-01-11 22:29:18.57	120.03	12.08	-27.6	-29.6	14.2	3.84e-04	0	42	0	1397751808	15	4537
2026-01-11 22:29:21.60	120.51	11.92	-27.5	-29.4	14.2	0.00e+00	0	42	0	1407188992	15	4475
2026-01-11 22:29:24.61	120.98	11.76	-27.6	-29.5	14.2	2.20e-06	0	42	0	1416626176	15	4499
2026-01-11 22:29:27.62	121.45	11.60	-27.5	-29.3	14.3	2.20e-06	0	42	0	1426063360	15	4427
2026-01-11 22:29:30.65	121.92	11.44	-27.5	-29.2	14.3	7.00e-07	0	42	0	1435500544	15	4415
2026-01-11 22:29:33.67	122.38	11.28	-27.5	-29.2	14.3	0.00e+00	0	42	0	1444937728	15	4421
2026-01-11 22:29:36.69	122.84	11.11	-27.4	-29.1	14.4	7.60e-06	0	42	0	1454374912	15	4391
2026-01-11 22:29:39.71	123.29	10.95	-27.6	-29.5	14.2	2.20e-06	0	42	0	1463812096	15	4495
2026-01-11 22:29:42.73	123.74	10.78	-27.7	-29.8	14.0	1.14e-05	0	42	0	1473249280	15	4589
2026-01-11 22:29:45.76	124.18	10.62	-27.7	-29.9	13.9	1.06e-05	0	42	0	1483735040	15	4639
2026-01-11 22:29:48.78	124.62	10.45	-27.9	-30.2	13.7	1.60e-05	0	42	0	1492123648	15	4726
2026-01-11 22:29:51.79	125.05	10.29	-27.9	-30.4	13.6	1.22e-05	0	42	0	1501560832	15	4772
2026-01-11 22:29:54.81	125.48	10.12	-28.1	-30.4	13.4	1.37e-05	0	42	0	1510998016	16	4646
2026-01-11 22:29:57.82	125.90	9.96	-28.3	-30.9	13.1	3.28e-05	0	42	0	1520435200	16	4820
2026-01-11 22:30:00.84	126.32	9.79	-28.5	-30.8	12.9	4.95e-05	0	42	0	1529872384	17	4677
2026-01-11 22:30:03.86	126.73	9.63	-28.7	-31.4	12.5	1.10e-04	0	42	0	1539309568	17	4883
2026-01-11 22:30:06.89	127.14	9.46	-28.4	-31.0	12.7	4.19e-05	0	42	0	1548746752	16	4850
2026-01-11 22:30:09.90	127.55	9.29	-28.4	-30.9	13.0	2.97e-05	0	42	0	1558183936	16	4834
2026-01-11 22:30:12.93	127.95	9.13	-28.5	-31.2	12.8	1.42e-03	0	42	0	1567621120	16	4927
2026-01-11 22:30:15.95	128.35	8.96	-28.5	-31.2	12.8	5.56e-05	0	42	0	1577058304	16	4944
2026-01-11 22:30:18.96	128.74	8.79	-28.5	-30.9	12.7	3.71e-04	0	42	0	1586495488	17	4723
2026-01-11 22:30:21.97	129.12	8.63	-28.5	-30.9	12.7	6.33e-05	0	42	0	1595932672	17	4712
2026-01-11 22:30:24.99	129.51	8.46	-28.6	-31.0	12.5	1.20e-04	0	42	0	1605369856	17	4767
2026-01-11 22:30:28.02	129.89	8.29	-28.5	-30.8	12.7	7.85e-05	0	42	0	1614807040	17	4702
2026-01-11 22:30:31.03	130.26	8.13	-28.7	-31.4	12.3	4.92e-04	0	42	0	1624244224	17	4890
2026-01-11 22:30:34.04	130.63	7.96	-28.8	-31.7	12.0	5.05e-04	0	42	0	1633681408	17	5014
2026-01-11 22:30:37.06	131.00	7.80	-28.8	-31.7	12.0	3.99e-04	0	42	0	1643118592	17	5010
2026-01-11 22:30:40.07	131.36	7.63	-28.8	-31.6	12.0	2.59e-04	0	42	0	1652555776	17	4982
2026-01-11 22:30:43.09	131.72	7.46	-28.7	-31.5	12.0	2.85e-04	0	42	0	1661992960	17	4956
2026-01-11 22:30:46.10	132.07	7.30	-28.6	-31.2	12.2	3.91e-04	0	42	0	1671430144	17	4850
2026-01-11 22:30:49.12	132.42	7.13	-28.8	-31.6	11.9	2.74e-04	0	42	0	1680867328	17	4989
2026-01-11 22:30:52.13	132.77	6.97	-33.3	-45.4	3.8	1.49e+00	0	42	104	1685061632	26	14505

#Closed at: 2026-01-11 22:30:53
#Recorded file [1685 MB]: D:/data/31010_260112_012150.dat