passes_logs/2026/01/11/R2M6_AANII_01/R2M6_AANII_01__20260111_012855_AQUA_rec.log

#Pass ID: 20260111_012855_AQUA
#Satellite: AQUA
#Configuration: AQUA
#almurnet v.1.7.20240730
#Start time: 2026-01-11 01:28:56

#Version: 2.2.20231116
#Station: R2M6_AANII_01
#Location: 30.233357 lon 59.946436 lat
#TLE: 1 27424U 02022A   26009.89520876  .00001045  00000+0  21914-3 0  9996
#TLE: 2 27424  98.4076 336.2372 0002032  84.5955   1.0356 14.61811442260144

#Time	Az	El	Level	Level2	SNR	BER	BlckErr	Temp	State	Recorded	gain1	gain2
2026-01-11 01:28:56.49	21.73	7.05	-30.1	-36.6	5.1	7.10e-01	0	40	0	0	22	7650
2026-01-11 01:28:59.51	21.85	7.30	-31.2	-37.1	13.9	6.00e-01	0	40	0	1572864	23	7123
2026-01-11 01:29:02.52	21.98	7.54	-31.2	-37.1	13.9	6.02e-01	0	40	0	7340032	23	7126
2026-01-11 01:29:05.54	22.10	7.78	-30.7	-35.7	15.4	6.04e-01	0	40	0	13107200	22	6397
2026-01-11 01:29:08.56	22.23	8.03	-30.4	-35.3	16.1	6.02e-01	0	40	0	18874368	21	6269
2026-01-11 01:29:11.58	22.36	8.28	-30.4	-34.9	16.4	6.02e-01	0	40	0	24117248	21	6079
2026-01-11 01:29:14.60	22.50	8.54	-29.8	-33.7	17.5	6.02e-01	0	40	0	29884416	20	5652
2026-01-11 01:29:17.61	22.63	8.80	-29.8	-33.5	17.7	6.02e-01	0	40	0	35651584	20	5563
2026-01-11 01:29:20.63	22.77	9.05	-29.9	-33.8	17.6	6.03e-01	0	40	0	41418752	20	5674
2026-01-11 01:29:23.65	22.91	9.32	-29.5	-32.9	18.2	6.03e-01	0	40	0	47185920	20	5285
2026-01-11 01:29:26.66	23.05	9.58	-29.5	-32.8	18.2	6.03e-01	0	40	0	52428800	20	5262
2026-01-11 01:29:29.67	23.20	9.85	-29.5	-33.1	18.4	6.01e-01	0	40	0	58195968	19	5471
2026-01-11 01:29:32.69	23.35	10.12	-29.4	-33.0	18.5	6.03e-01	0	41	0	63963136	19	5416
2026-01-11 01:29:35.70	23.50	10.40	-29.4	-33.0	18.6	5.99e-01	0	40	0	69730304	19	5405
2026-01-11 01:29:38.72	23.65	10.67	-29.3	-32.7	18.7	6.01e-01	0	41	0	74973184	19	5304
2026-01-11 01:29:41.74	23.81	10.96	-29.4	-32.8	18.8	6.02e-01	0	41	0	80740352	19	5320
2026-01-11 01:29:44.76	23.97	11.24	-29.3	-32.6	18.8	6.03e-01	0	41	0	86507520	19	5254
2026-01-11 01:29:47.76	24.13	11.53	-29.3	-32.6	18.9	6.02e-01	0	41	0	92274688	19	5254
2026-01-11 01:29:50.78	24.30	11.82	-29.3	-32.7	18.9	6.01e-01	0	41	0	98041856	19	5273
2026-01-11 01:29:53.81	24.47	12.12	-29.3	-32.5	19.0	6.02e-01	0	41	0	103284736	19	5205
2026-01-11 01:29:56.82	24.64	12.42	-29.5	-33.0	18.7	6.02e-01	0	41	0	109051904	19	5388
2026-01-11 01:29:59.85	24.82	12.72	-29.3	-32.6	19.0	6.04e-01	0	41	0	114819072	19	5237
2026-01-11 01:30:02.87	25.00	13.03	-29.4	-32.9	18.8	6.02e-01	0	41	0	120586240	19	5358
2026-01-11 01:30:05.89	25.18	13.34	-29.2	-32.3	19.2	6.02e-01	0	41	0	126353408	19	5118
2026-01-11 01:30:08.91	25.37	13.66	-29.2	-32.1	19.3	6.01e-01	0	41	0	131596288	19	5058
2026-01-11 01:30:11.92	25.56	13.98	-29.3	-32.5	19.1	6.01e-01	0	41	0	137363456	19	5190
2026-01-11 01:30:14.95	25.76	14.31	-29.3	-32.4	18.9	6.02e-01	0	41	0	143130624	19	5159
2026-01-11 01:30:17.96	25.96	14.64	-29.2	-32.1	19.4	6.04e-01	0	41	0	148897792	19	5050
2026-01-11 01:30:20.99	26.16	14.97	-29.1	-32.0	19.4	6.03e-01	0	41	0	154664960	19	5028
2026-01-11 01:30:24.01	26.37	15.31	-29.0	-32.3	19.6	6.00e-01	0	41	0	159907840	18	5230
2026-01-11 01:30:27.03	26.59	15.66	-29.0	-32.1	19.7	6.03e-01	0	41	0	165675008	18	5143
2026-01-11 01:30:30.04	26.81	16.01	-28.9	-31.9	19.8	6.01e-01	0	42	0	171442176	18	5091
2026-01-11 01:30:33.05	27.03	16.36	-29.0	-32.0	19.8	6.00e-01	0	41	0	177209344	18	5119
2026-01-11 01:30:36.08	27.26	16.72	-29.0	-32.1	19.7	6.01e-01	0	41	0	182976512	18	5135
2026-01-11 01:30:39.09	27.50	17.09	-29.0	-32.0	19.7	6.02e-01	0	41	0	188219392	18	5127
2026-01-11 01:30:42.11	27.74	17.46	-29.2	-32.1	19.4	6.02e-01	0	42	0	193986560	19	5050
2026-01-11 01:30:45.12	27.99	17.84	-28.9	-32.0	19.9	6.02e-01	0	42	0	199753728	18	5103
2026-01-11 01:30:48.13	28.24	18.22	-28.9	-31.9	20.0	6.01e-01	0	41	0	205520896	18	5058
2026-01-11 01:30:51.14	28.50	18.61	-28.9	-31.8	20.0	6.01e-01	0	41	0	211288064	18	5049
2026-01-11 01:30:54.16	28.77	19.01	-29.3	-32.3	19.4	6.02e-01	0	41	0	216530944	19	5101
2026-01-11 01:30:57.18	29.04	19.41	-29.0	-32.1	19.8	6.02e-01	0	41	0	222298112	18	5141
2026-01-11 01:31:00.19	29.33	19.82	-28.9	-31.9	20.0	6.03e-01	0	41	0	228065280	18	5063
2026-01-11 01:31:03.21	29.62	20.24	-29.0	-32.0	19.9	6.03e-01	0	41	0	233832448	18	5102
2026-01-11 01:31:06.22	29.91	20.66	-29.2	-32.2	19.5	6.02e-01	0	42	0	239075328	19	5086
2026-01-11 01:31:09.25	30.22	21.09	-29.0	-32.1	19.9	6.02e-01	0	42	0	244842496	18	5145
2026-01-11 01:31:12.27	30.54	21.53	-29.3	-32.3	19.5	6.03e-01	0	42	0	250609664	19	5099
2026-01-11 01:31:15.28	30.86	21.97	-29.2	-32.2	19.6	6.01e-01	0	42	0	256376832	19	5034
2026-01-11 01:31:18.30	31.20	22.43	-29.5	-32.8	19.3	6.03e-01	0	42	0	262144000	19	5259
2026-01-11 01:31:21.32	31.54	22.89	-29.5	-32.5	19.1	6.02e-01	0	42	0	267386880	20	5048
2026-01-11 01:31:24.33	31.89	23.36	-29.5	-32.9	19.2	6.02e-01	0	42	0	273154048	19	5295
2026-01-11 01:31:27.35	32.26	23.84	-29.5	-32.3	19.2	6.02e-01	0	42	0	278921216	20	4994
2026-01-11 01:31:30.37	32.64	24.33	-29.4	-32.6	19.4	6.01e-01	0	41	0	284688384	19	5206
2026-01-11 01:31:33.39	33.03	24.82	-29.3	-32.2	19.6	6.01e-01	0	42	0	290455552	19	5046
2026-01-11 01:31:36.41	33.43	25.33	-29.2	-32.0	19.8	6.02e-01	0	42	0	295698432	19	4958
2026-01-11 01:31:39.43	33.85	25.84	-29.2	-32.1	19.8	6.03e-01	0	42	0	301465600	19	4988
2026-01-11 01:31:42.45	34.28	26.37	-28.9	-31.8	20.3	6.01e-01	0	42	0	307232768	18	4994
2026-01-11 01:31:45.46	34.72	26.90	-29.2	-31.9	19.9	6.03e-01	0	42	0	312999936	19	4923
2026-01-11 01:31:48.48	35.18	27.44	-28.8	-31.4	20.5	6.00e-01	0	42	0	318242816	18	4877
2026-01-11 01:31:51.50	35.66	27.99	-29.1	-31.7	20.0	6.01e-01	0	42	0	324009984	19	4868
2026-01-11 01:31:54.53	36.15	28.56	-28.8	-31.5	20.5	6.03e-01	0	42	0	329777152	18	4894
2026-01-11 01:31:57.55	36.66	29.13	-29.1	-32.2	20.1	6.02e-01	0	42	0	335544320	18	5140
2026-01-11 01:32:00.57	37.19	29.72	-29.0	-31.6	20.2	6.04e-01	0	42	0	341311488	19	4810
2026-01-11 01:32:03.58	37.74	30.31	-28.8	-31.5	20.6	6.00e-01	0	42	0	346554368	18	4889
2026-01-11 01:32:06.61	38.31	30.92	-28.9	-31.7	20.5	6.01e-01	0	42	0	352321536	18	4957
2026-01-11 01:32:09.62	38.90	31.53	-28.9	-31.1	20.4	6.02e-01	0	42	0	358088704	19	4661
2026-01-11 01:32:12.64	39.52	32.16	-29.1	-31.7	20.2	6.02e-01	0	42	0	363855872	19	4864
2026-01-11 01:32:15.66	40.16	32.79	-28.9	-31.6	20.5	6.01e-01	0	42	0	369623040	18	4943
2026-01-11 01:32:18.67	40.83	33.44	-29.2	-31.8	20.2	6.03e-01	0	42	0	374865920	19	4880
2026-01-11 01:32:21.69	41.52	34.10	-29.4	-32.5	19.7	6.03e-01	0	42	0	380633088	19	5144
2026-01-11 01:32:24.71	42.24	34.77	-29.4	-32.3	19.8	6.04e-01	0	42	0	386400256	19	5063
2026-01-11 01:32:27.72	43.00	35.45	-29.5	-32.3	19.5	6.01e-01	0	42	0	392167424	20	4935
2026-01-11 01:32:30.74	43.78	36.14	-29.6	-32.4	19.5	6.01e-01	0	42	0	397934592	20	4974
2026-01-11 01:32:33.76	44.61	36.84	-29.8	-32.9	19.2	6.01e-01	0	42	0	403177472	20	5158
2026-01-11 01:32:36.77	45.46	37.55	-29.8	-33.0	19.2	6.02e-01	0	42	0	408944640	20	5186
2026-01-11 01:32:39.79	46.36	38.26	-29.8	-32.9	19.2	6.02e-01	0	42	0	414711808	20	5147
2026-01-11 01:32:42.79	47.29	38.99	-29.9	-33.4	18.9	6.00e-01	0	42	0	420478976	20	5338
2026-01-11 01:32:45.81	48.27	39.72	-29.9	-33.2	19.0	6.05e-01	0	42	0	426246144	20	5276
2026-01-11 01:32:48.83	49.30	40.46	-29.7	-32.7	19.3	6.02e-01	0	42	0	431489024	20	5085
2026-01-11 01:32:51.84	50.37	41.21	-29.7	-32.6	19.4	6.00e-01	0	42	0	437256192	20	5038
2026-01-11 01:32:54.86	51.50	41.96	-29.2	-31.9	20.3	6.01e-01	0	42	0	443023360	19	4887
2026-01-11 01:32:57.87	52.68	42.72	-29.0	-31.3	20.5	6.03e-01	0	42	0	448790528	19	4715
2026-01-11 01:33:00.89	53.92	43.48	-29.1	-31.5	20.5	5.99e-01	0	42	0	454557696	19	4761
2026-01-11 01:33:03.91	55.22	44.24	-28.7	-31.0	21.0	6.01e-01	0	42	0	459800576	18	4716
2026-01-11 01:33:06.92	56.57	45.00	-28.8	-31.5	20.8	5.99e-01	0	42	0	465567744	18	4861
2026-01-11 01:33:09.94	58.01	45.75	-28.6	-30.8	21.2	6.03e-01	0	42	0	471334912	18	4635
2026-01-11 01:33:12.96	59.51	46.50	-29.0	-31.8	20.7	6.02e-01	0	42	0	477102080	18	4968
2026-01-11 01:33:15.98	61.08	47.25	-28.7	-31.0	21.0	6.01e-01	0	42	0	482344960	18	4720
2026-01-11 01:33:18.99	62.73	47.98	-28.6	-30.9	21.2	6.03e-01	0	42	0	488112128	18	4672
2026-01-11 01:33:22.00	64.45	48.70	-28.5	-30.6	21.2	6.02e-01	0	42	0	493879296	18	4592
2026-01-11 01:33:25.03	66.27	49.40	-28.7	-31.0	21.1	6.04e-01	0	42	0	499646464	18	4713
2026-01-11 01:33:28.04	68.16	50.09	-28.8	-31.4	20.9	6.03e-01	0	42	0	505413632	18	4846
2026-01-11 01:33:31.06	70.15	50.75	-29.0	-31.9	20.6	6.03e-01	0	42	0	510656512	18	4997
2026-01-11 01:33:34.07	72.21	51.38	-29.1	-31.6	20.5	6.00e-01	0	42	0	516423680	19	4778
2026-01-11 01:33:37.07	74.36	51.97	-29.2	-31.9	20.3	5.99e-01	0	42	0	522190848	19	4887
2026-01-11 01:33:40.09	76.60	52.54	-29.3	-32.1	20.2	6.01e-01	0	42	0	527958016	19	4959
2026-01-11 01:33:43.10	78.93	53.07	-29.7	-32.7	19.4	6.03e-01	0	42	0	533725184	20	5059
2026-01-11 01:33:46.12	81.34	53.55	-29.4	-31.9	20.0	6.01e-01	0	42	0	538968064	20	4787
2026-01-11 01:33:49.14	83.84	53.99	-29.5	-32.1	19.9	6.02e-01	0	42	0	544735232	20	4859
2026-01-11 01:33:52.16	86.40	54.37	-29.4	-31.8	20.1	6.01e-01	0	42	0	550502400	20	4737
2026-01-11 01:33:55.18	89.03	54.70	-29.4	-31.8	20.0	6.03e-01	0	42	0	556269568	20	4762
2026-01-11 01:33:58.19	91.71	54.97	-30.0	-33.2	19.2	6.02e-01	0	42	0	561512448	20	5256
2026-01-11 01:34:01.20	94.43	55.18	-29.9	-33.1	19.3	6.02e-01	0	42	0	567279616	20	5191
2026-01-11 01:34:04.21	97.19	55.33	-29.8	-32.9	19.5	6.02e-01	0	42	0	573046784	20	5129
2026-01-11 01:34:07.23	99.98	55.41	-29.9	-33.1	19.4	6.03e-01	0	42	0	578813952	20	5185
2026-01-11 01:34:10.25	102.78	55.43	-30.0	-33.0	19.1	6.02e-01	0	42	0	584581120	21	5039
2026-01-11 01:34:13.27	105.58	55.38	-29.9	-33.1	19.3	6.04e-01	0	42	0	589824000	20	5221
2026-01-11 01:34:16.29	108.36	55.26	-30.0	-33.4	19.1	5.99e-01	0	42	0	595591168	20	5342
2026-01-11 01:34:19.30	111.10	55.08	-29.9	-32.7	19.3	6.01e-01	0	42	0	601358336	21	4947
2026-01-11 01:34:22.31	113.81	54.84	-30.0	-32.8	19.2	6.00e-01	0	42	0	607125504	21	4967
2026-01-11 01:34:25.33	116.47	54.54	-29.7	-32.1	19.7	6.03e-01	0	42	0	612368384	21	4745
2026-01-11 01:34:28.35	119.07	54.18	-29.7	-32.1	19.6	6.02e-01	0	42	0	618135552	21	4740
2026-01-11 01:34:31.37	121.60	53.77	-30.0	-32.8	19.2	6.04e-01	0	42	0	623902720	21	4985
2026-01-11 01:34:34.38	124.05	53.31	-29.6	-32.4	19.7	6.04e-01	0	42	0	629669888	20	4965
2026-01-11 01:34:37.40	126.42	52.80	-29.6	-32.2	19.8	6.01e-01	0	42	0	635437056	20	4888
2026-01-11 01:34:40.41	128.71	52.25	-29.7	-32.7	19.6	6.01e-01	0	42	0	640679936	20	5067
2026-01-11 01:34:43.42	130.91	51.67	-29.8	-32.7	19.5	6.04e-01	0	42	0	646447104	20	5079
2026-01-11 01:34:46.44	133.02	51.05	-29.8	-32.8	19.5	6.02e-01	0	42	0	652214272	20	5106
2026-01-11 01:34:49.45	135.05	50.40	-30.1	-33.2	18.9	6.01e-01	0	42	0	657981440	21	5142
2026-01-11 01:34:52.47	136.99	49.72	-30.1	-33.3	18.9	6.01e-01	0	42	0	663748608	21	5151
2026-01-11 01:34:55.49	138.85	49.03	-30.4	-33.9	18.4	6.03e-01	0	42	0	668991488	21	5412
2026-01-11 01:34:58.50	140.62	48.31	-30.2	-33.5	18.7	6.01e-01	0	42	0	674758656	21	5235
2026-01-11 01:35:01.53	142.32	47.58	-30.2	-33.4	18.7	6.02e-01	0	42	0	680525824	21	5228
2026-01-11 01:35:04.54	143.93	46.84	-30.2	-32.8	18.8	6.03e-01	0	42	0	686292992	22	4887
2026-01-11 01:35:07.57	145.47	46.09	-30.1	-33.2	18.8	5.98e-01	0	42	0	692060160	21	5131
2026-01-11 01:35:10.59	146.94	45.33	-30.1	-33.3	18.6	6.02e-01	0	42	0	697303040	21	5164
2026-01-11 01:35:13.60	148.33	44.57	-30.2	-33.6	18.6	6.02e-01	0	42	0	703070208	21	5285
2026-01-11 01:35:16.63	149.67	43.80	-30.2	-33.4	18.7	6.02e-01	0	42	0	708837376	21	5220
2026-01-11 01:35:19.64	150.93	43.04	-30.1	-33.2	18.8	6.03e-01	0	42	0	714604544	21	5139
2026-01-11 01:35:22.66	152.14	42.28	-29.7	-32.7	19.5	6.02e-01	0	42	0	720371712	20	5057
2026-01-11 01:35:25.68	153.30	41.52	-29.8	-32.8	19.5	6.01e-01	0	42	0	725614592	20	5092
2026-01-11 01:35:28.69	154.40	40.77	-30.4	-33.9	18.4	6.01e-01	0	42	0	731381760	21	5426
2026-01-11 01:35:31.72	155.45	40.02	-30.0	-32.9	19.1	6.01e-01	0	42	0	737148928	21	5016
2026-01-11 01:35:34.73	156.45	39.28	-29.9	-32.7	19.1	5.99e-01	0	42	0	742916096	21	4960
2026-01-11 01:35:37.75	157.41	38.54	-29.9	-32.6	19.2	6.02e-01	0	42	0	748683264	21	4925
2026-01-11 01:35:40.76	158.33	37.82	-30.0	-33.5	18.9	6.04e-01	0	42	0	753926144	20	5376
2026-01-11 01:35:43.78	159.20	37.10	-30.4	-34.1	18.2	6.03e-01	0	42	0	759693312	21	5502
2026-01-11 01:35:46.80	160.04	36.39	-29.6	-32.3	19.6	6.03e-01	0	42	0	765460480	20	4945
2026-01-11 01:35:49.82	160.85	35.70	-29.6	-32.8	19.7	6.03e-01	0	42	0	771227648	19	5204
2026-01-11 01:35:52.84	161.62	35.01	-29.6	-32.8	19.7	6.01e-01	0	42	0	776994816	19	5209
2026-01-11 01:35:55.87	162.36	34.33	-29.1	-32.0	20.4	6.00e-01	0	42	0	782237696	18	5060
2026-01-11 01:35:58.89	163.07	33.66	-29.4	-32.5	19.9	6.03e-01	0	42	0	788004864	19	5109
2026-01-11 01:36:01.90	163.75	33.01	-28.7	-31.2	20.9	6.00e-01	0	42	0	793772032	18	4797
2026-01-11 01:36:04.91	164.40	32.36	-28.9	-31.6	20.6	6.03e-01	0	42	0	799539200	18	4929
2026-01-11 01:36:07.93	165.03	31.73	-28.7	-31.2	20.8	6.03e-01	0	42	0	804782080	18	4812
2026-01-11 01:36:10.95	165.63	31.10	-29.0	-32.0	20.4	6.02e-01	0	42	0	810549248	18	5067
2026-01-11 01:36:13.97	166.21	30.49	-28.6	-30.9	21.0	6.02e-01	0	42	0	816316416	18	4693
2026-01-11 01:36:16.99	166.77	29.89	-28.6	-31.3	21.0	6.01e-01	0	42	0	822083584	17	4959
2026-01-11 01:36:20.00	167.31	29.30	-28.8	-31.5	20.6	6.02e-01	0	42	0	827850752	18	4889
2026-01-11 01:36:23.02	167.83	28.72	-29.0	-31.9	20.4	6.02e-01	0	42	0	833093632	18	5022
2026-01-11 01:36:26.04	168.33	28.15	-29.0	-31.9	19.4	6.06e-01	0	42	0	838860800	18	5012
2026-01-11 01:36:29.06	168.81	27.59	-29.1	-31.7	18.7	6.01e-01	0	42	0	844627968	19	4836
2026-01-11 01:36:32.08	169.28	27.04	-29.0	-31.9	18.8	6.02e-01	0	42	0	850395136	18	5043
2026-01-11 01:36:35.09	169.73	26.50	-29.3	-32.3	19.8	6.03e-01	0	42	0	856162304	19	5041
2026-01-11 01:36:38.11	170.16	25.97	-29.1	-31.7	20.2	6.01e-01	0	42	0	861405184	19	4865
2026-01-11 01:36:41.13	170.59	25.44	-29.4	-32.3	19.7	6.05e-01	0	42	0	867172352	19	5073
2026-01-11 01:36:44.15	170.99	24.93	-29.5	-32.7	19.6	6.05e-01	0	42	0	872939520	19	5204
2026-01-11 01:36:47.17	171.39	24.43	-29.6	-32.9	19.4	6.03e-01	0	42	0	878706688	19	5297
2026-01-11 01:36:50.19	171.77	23.94	-29.7	-32.9	19.0	6.01e-01	0	42	0	883949568	20	5196
2026-01-11 01:36:53.21	172.14	23.45	-29.5	-32.6	19.6	6.00e-01	0	42	0	889716736	19	5169
2026-01-11 01:36:56.22	172.50	22.98	-29.5	-32.2	19.4	6.00e-01	0	42	0	895483904	20	4944
2026-01-11 01:36:59.24	172.85	22.51	-29.5	-32.6	19.5	6.01e-01	0	42	0	901251072	19	5181
2026-01-11 01:37:02.26	173.19	22.05	-29.2	-32.0	19.9	6.04e-01	0	42	0	907018240	19	4951
2026-01-11 01:37:05.28	173.51	21.60	-29.1	-31.9	19.9	6.01e-01	0	42	0	912261120	19	4982
2026-01-11 01:37:08.30	173.83	21.15	-29.2	-32.1	19.7	6.02e-01	0	42	0	918028288	19	4994
2026-01-11 01:37:11.32	174.14	20.72	-29.2	-32.0	19.9	6.01e-01	0	42	0	923795456	19	4965
2026-01-11 01:37:14.34	174.44	20.29	-29.4	-32.5	19.6	6.02e-01	0	42	0	929562624	19	5141
2026-01-11 01:37:17.37	174.74	19.87	-29.4	-32.5	19.6	6.04e-01	0	42	0	935329792	19	5132
2026-01-11 01:37:20.39	175.02	19.45	-29.3	-32.3	19.6	6.00e-01	0	42	0	940572672	19	5091
2026-01-11 01:37:23.40	175.30	19.04	-29.4	-32.5	19.5	6.01e-01	0	42	0	946339840	19	5170
2026-01-11 01:37:26.43	175.57	18.64	-29.2	-32.0	19.7	6.03e-01	0	42	0	952107008	19	4995
2026-01-11 01:37:29.43	175.83	18.25	-29.3	-32.4	19.5	6.00e-01	0	42	0	957874176	19	5132
2026-01-11 01:37:32.45	176.09	17.86	-29.2	-32.2	19.6	6.02e-01	0	42	0	963641344	19	5055
2026-01-11 01:37:35.46	176.34	17.48	-29.0	-32.2	19.9	6.04e-01	0	42	0	968884224	18	5200
2026-01-11 01:37:38.48	176.58	17.10	-28.9	-31.9	20.0	6.03e-01	0	42	0	974651392	18	5084
2026-01-11 01:37:41.49	176.82	16.73	-28.9	-31.8	20.1	6.03e-01	0	42	0	980418560	18	5042
2026-01-11 01:37:44.51	177.05	16.37	-29.0	-32.0	20.0	6.02e-01	0	42	0	986185728	18	5116
2026-01-11 01:37:47.53	177.27	16.01	-29.2	-32.1	19.6	6.00e-01	0	42	0	991952896	19	5023
2026-01-11 01:37:50.55	177.49	15.66	-29.3	-32.3	19.4	6.00e-01	0	42	0	997195776	19	5109
2026-01-11 01:37:53.57	177.71	15.31	-29.2	-32.2	19.5	6.01e-01	0	42	0	1002962944	19	5063
2026-01-11 01:37:56.58	177.92	14.97	-29.0	-31.7	19.8	6.03e-01	0	42	0	1008730112	19	4878
2026-01-11 01:37:59.61	178.12	14.63	-29.1	-32.3	19.7	6.01e-01	0	42	0	1014497280	18	5223
2026-01-11 01:38:02.63	178.33	14.29	-29.1	-31.9	19.6	6.02e-01	0	42	0	1020264448	19	4973
2026-01-11 01:38:05.64	178.52	13.96	-29.3	-32.4	19.4	6.03e-01	0	42	0	1025507328	19	5134
2026-01-11 01:38:08.67	178.71	13.64	-29.3	-32.3	19.4	6.02e-01	0	42	0	1031274496	19	5087
2026-01-11 01:38:11.68	178.90	13.32	-29.2	-32.1	19.5	6.01e-01	0	42	0	1037041664	19	5013
2026-01-11 01:38:14.70	179.08	13.00	-29.2	-32.1	19.4	6.02e-01	0	42	0	1042808832	19	5027
2026-01-11 01:38:17.71	179.26	12.69	-29.3	-32.3	19.3	6.01e-01	0	42	0	1048576000	19	5103
2026-01-11 01:38:20.73	179.44	12.39	-29.3	-32.3	19.3	6.01e-01	0	42	0	1053818880	19	5100
2026-01-11 01:38:23.74	179.61	12.09	-29.3	-32.3	19.3	6.01e-01	0	42	0	1059586048	19	5108
2026-01-11 01:38:26.76	179.78	11.79	-29.3	-32.5	19.2	6.02e-01	0	42	0	1065353216	19	5175
2026-01-11 01:38:29.77	179.95	11.49	-29.4	-32.8	18.8	6.01e-01	0	42	0	1071120384	19	5321
2026-01-11 01:38:32.78	180.11	11.20	-29.4	-32.6	18.8	6.01e-01	0	42	0	1076363264	19	5236
2026-01-11 01:38:35.79	180.27	10.91	-29.6	-33.2	18.7	6.01e-01	0	42	0	1082130432	19	5456
2026-01-11 01:38:38.80	180.42	10.63	-29.3	-32.6	19.0	6.04e-01	0	42	0	1087897600	19	5222
2026-01-11 01:38:41.82	180.58	10.35	-29.4	-32.7	18.9	6.03e-01	0	42	0	1093664768	19	5281
2026-01-11 01:38:44.84	180.73	10.07	-29.4	-32.8	18.8	6.00e-01	0	42	0	1099431936	19	5328
2026-01-11 01:38:47.85	180.87	9.80	-29.4	-32.8	18.8	6.02e-01	0	42	0	1104674816	19	5327
2026-01-11 01:38:50.87	181.02	9.53	-29.4	-32.8	18.8	6.02e-01	0	42	0	1110441984	19	5319
2026-01-11 01:38:53.89	181.16	9.26	-29.4	-32.9	18.7	6.02e-01	0	42	0	1116209152	19	5362
2026-01-11 01:38:56.91	181.30	8.99	-29.5	-33.1	18.6	6.00e-01	0	42	0	1121976320	19	5458
2026-01-11 01:38:59.92	181.43	8.73	-29.7	-33.2	18.1	6.02e-01	0	42	0	1127219200	20	5379
2026-01-11 01:39:02.93	181.57	8.47	-29.7	-33.3	18.0	6.02e-01	0	42	0	1132986368	20	5413
2026-01-11 01:39:05.94	181.70	8.22	-29.9	-33.8	17.7	6.02e-01	0	42	0	1138753536	20	5652
2026-01-11 01:39:08.96	181.83	7.97	-29.8	-33.7	17.7	6.02e-01	0	42	0	1144520704	20	5612
2026-01-11 01:39:11.97	181.96	7.72	-29.9	-33.8	17.6	6.02e-01	0	42	0	1150287872	20	5675
2026-01-11 01:39:14.99	182.08	7.47	-30.3	-34.5	16.8	6.01e-01	0	42	0	1155530752	21	5858
2026-01-11 01:39:18.01	182.21	7.22	-30.0	-34.3	17.3	6.00e-01	0	42	0	1161297920	20	5876
2026-01-11 01:39:21.03	182.33	6.98	-33.1	-52.5	3.8	7.46e-01	0	42	104	1163919360	27	33604

#Closed at: 2026-01-11 01:39:21
#Recorded file [1163 MB]: D:/data/31010_260111_042858.dat