passes_logs/2026/01/11/R2M6_AANII_01/R2M6_AANII_01__20260111_051541_FENGYUN_3E_rec.log

#Pass ID: 20260111_051541_FENGYUN 3E
#Satellite: FENGYUN 3E
#Configuration: FENGYUN 3E
#almurnet v.1.7.20240730
#Start time: 2026-01-11 05:18:53

#Version: 2.2.20231116
#Station: R2M6_AANII_01
#Location: 30.233357 lon 59.946436 lat
#TLE: 1 49008U 21062A   26010.00248113 -.00000186  00000+0 -66867-4 0  9993
#TLE: 2 49008  98.7487  15.1892 0001787 147.8079 212.3207 14.19883469234134

#Time	Az	El	Level	Level2	SNR	BER	BlckErr	Temp	State	Recorded	gain1	gain2
2026-01-11 05:18:53.18	2.66	28.00	-33.3	-44.7	3.8	8.47e-01	0	42	0	0	26	13353
2026-01-11 05:18:56.17	2.25	28.48	-33.9	-43.7	3.8	8.46e-01	0	42	104	0	27	11106
2026-01-11 05:18:59.19	1.83	28.98	-34.0	-43.8	3.8	8.45e-01	0	42	104	0	27	11180
2026-01-11 05:19:02.19	1.40	29.49	-34.0	-43.8	3.8	8.45e-01	0	42	104	0	27	11223
2026-01-11 05:19:05.20	0.96	30.00	-34.0	-43.8	3.8	8.47e-01	0	42	104	0	27	11207
2026-01-11 05:19:08.20	0.50	30.51	-33.9	-43.8	3.8	8.46e-01	0	42	104	0	27	11157
2026-01-11 05:19:11.20	0.02	31.04	-33.9	-43.8	3.8	8.46e-01	0	42	104	0	27	11187
2026-01-11 05:19:14.20	359.53	31.57	-34.0	-43.8	3.8	8.44e-01	0	42	104	0	27	11200
2026-01-11 05:19:17.21	359.02	32.11	-34.0	-43.8	3.8	8.46e-01	0	42	104	0	27	11173
2026-01-11 05:19:20.23	358.50	32.66	-33.9	-43.7	3.8	8.46e-01	0	42	104	0	27	11090
2026-01-11 05:19:23.25	357.95	33.22	-33.6	-42.0	3.8	8.46e-01	0	42	104	0	27	9430
2026-01-11 05:19:26.25	357.39	33.78	-33.7	-43.0	3.8	8.46e-01	0	42	104	0	27	10477
2026-01-11 05:19:29.26	356.80	34.35	-33.7	-43.1	3.8	8.46e-01	0	42	104	0	27	10525
2026-01-11 05:19:32.28	356.19	34.92	-33.6	-41.7	3.8	8.45e-01	0	42	104	0	27	9144
2026-01-11 05:19:35.28	355.57	35.51	-33.0	-38.6	4.5	8.28e-01	0	42	104	0	26	6892
2026-01-11 05:19:38.27	354.92	36.09	-32.5	-37.2	5.3	7.14e-01	0	42	0	0	25	6167
2026-01-11 05:19:41.27	354.24	36.69	-33.8	-43.3	3.8	8.46e-01	0	42	104	0	27	10828
2026-01-11 05:19:44.28	353.54	37.29	-28.1	-29.1	11.6	1.05e-04	0	42	0	2097152	16	4067
2026-01-11 05:19:47.28	352.81	37.90	-27.8	-29.0	13.2	2.17e-05	0	42	0	24117248	15	4152
2026-01-11 05:19:50.28	352.06	38.51	-27.7	-28.8	13.3	1.71e-05	0	42	0	46137344	15	4098
2026-01-11 05:19:53.28	351.27	39.13	-27.2	-28.2	14.0	1.57e-03	0	42	0	67108864	14	4033
2026-01-11 05:19:56.28	350.46	39.75	-24.8	-25.6	16.8	1.31e-03	0	42	0	89128960	9	3911
2026-01-11 05:19:59.27	349.61	40.37	-23.7	-24.2	18.0	0.00e+00	0	42	0	110100480	7	3808
2026-01-11 05:20:02.27	348.73	41.00	-24.1	-24.4	17.6	0.00e+00	0	42	0	132120576	8	3755
2026-01-11 05:20:05.27	347.81	41.64	-24.0	-24.3	17.7	0.00e+00	0	42	0	153092096	8	3733
2026-01-11 05:20:08.28	346.86	42.27	-23.3	-23.3	18.5	8.98e-04	0	42	0	175112192	7	3591
2026-01-11 05:20:11.28	345.86	42.91	-23.1	-23.5	18.6	9.60e-04	0	42	0	197132288	6	3749
2026-01-11 05:20:14.28	344.83	43.55	-22.9	-22.9	18.9	1.07e-03	0	42	0	218103808	6	3626
2026-01-11 05:20:17.28	343.75	44.19	-23.3	-23.7	18.5	1.42e-03	0	42	0	240123904	6	3799
2026-01-11 05:20:20.29	342.63	44.83	-24.0	-24.8	17.7	1.34e-03	0	42	0	262144000	7	3948
2026-01-11 05:20:23.28	341.46	45.46	-23.7	-24.2	18.0	1.14e-03	0	42	0	284164096	7	3810
2026-01-11 05:20:26.28	340.25	46.09	-23.3	-23.7	18.5	9.26e-04	0	42	0	305135616	6	3804
2026-01-11 05:20:29.28	338.98	46.71	-23.4	-23.4	18.4	9.01e-04	0	42	0	327155712	7	3631
2026-01-11 05:20:32.29	337.66	47.33	-24.8	-25.5	16.8	7.61e-04	0	42	0	349175808	9	3913
2026-01-11 05:20:35.28	336.30	47.94	-24.6	-25.2	17.0	0.00e+00	0	42	0	370147328	9	3815
2026-01-11 05:20:38.29	334.87	48.54	-24.1	-24.5	17.6	0.00e+00	0	42	0	392167424	8	3778
2026-01-11 05:20:41.30	333.38	49.13	-24.3	-24.9	17.4	0.00e+00	0	42	0	414187520	8	3869
2026-01-11 05:20:44.31	331.84	49.71	-23.9	-24.6	17.8	8.88e-04	0	42	0	435159040	7	3888
2026-01-11 05:20:47.31	330.24	50.27	-24.7	-25.3	17.0	8.71e-04	0	42	0	457179136	9	3841
2026-01-11 05:20:50.30	328.59	50.80	-24.8	-25.4	16.9	0.00e+00	0	42	0	479199232	9	3867
2026-01-11 05:20:53.29	326.88	51.32	-24.4	-24.5	17.4	0.00e+00	0	42	0	500170752	9	3675
2026-01-11 05:20:56.29	325.10	51.82	-23.9	-24.1	17.8	0.00e+00	0	42	0	522190848	8	3673
2026-01-11 05:20:59.30	323.26	52.29	-24.1	-24.5	17.5	0.00e+00	0	42	0	544210944	8	3755
2026-01-11 05:21:02.30	321.36	52.74	-23.4	-23.4	18.4	0.00e+00	0	42	0	565182464	7	3622
2026-01-11 05:21:05.31	319.40	53.16	-23.9	-24.5	17.8	0.00e+00	0	42	0	587202560	7	3855
2026-01-11 05:21:08.30	317.40	53.54	-23.7	-23.7	18.1	0.00e+00	0	42	0	609222656	8	3579
2026-01-11 05:21:11.30	315.34	53.89	-23.5	-23.7	18.3	0.00e+00	0	42	0	630194176	7	3676
2026-01-11 05:21:14.30	313.24	54.20	-23.6	-24.0	18.1	0.00e+00	0	42	0	652214272	7	3765
2026-01-11 05:21:17.31	311.08	54.48	-24.6	-25.5	17.2	0.00e+00	0	42	0	673185792	8	3993
2026-01-11 05:21:20.31	308.89	54.71	-24.0	-24.3	17.7	0.00e+00	0	42	0	695205888	8	3729
2026-01-11 05:21:23.31	306.67	54.91	-24.5	-25.4	17.2	1.10e-06	0	42	0	717225984	8	3969
2026-01-11 05:21:26.32	304.41	55.06	-24.2	-24.2	17.5	0.00e+00	0	42	0	738197504	9	3605
2026-01-11 05:21:29.32	302.14	55.17	-23.9	-24.0	17.9	0.00e+00	0	42	0	760217600	8	3666
2026-01-11 05:21:32.33	299.85	55.23	-24.8	-25.5	16.9	0.00e+00	0	42	0	782237696	9	3888
2026-01-11 05:21:35.33	297.55	55.24	-24.6	-25.1	17.1	0.00e+00	0	42	0	804257792	9	3802
2026-01-11 05:21:38.33	295.26	55.22	-24.5	-25.3	17.2	2.15e-04	0	42	0	825229312	8	3953
2026-01-11 05:21:41.33	292.98	55.14	-24.0	-24.3	17.7	0.00e+00	0	42	0	847249408	8	3714
2026-01-11 05:21:44.33	290.71	55.02	-23.9	-24.6	17.8	0.00e+00	0	42	0	869269504	7	3889
2026-01-11 05:21:47.35	288.45	54.86	-24.4	-25.2	17.2	0.00e+00	0	42	0	890241024	8	3927
2026-01-11 05:21:50.35	286.24	54.65	-24.1	-24.4	17.6	0.00e+00	0	42	0	912261120	8	3742
2026-01-11 05:21:53.35	284.05	54.41	-24.3	-24.9	17.3	0.00e+00	0	42	0	934281216	8	3854
2026-01-11 05:21:56.36	281.91	54.12	-24.2	-24.6	17.5	0.00e+00	0	42	0	955252736	8	3803
2026-01-11 05:21:59.36	279.81	53.79	-24.4	-25.1	17.2	0.00e+00	0	42	0	977272832	8	3912
2026-01-11 05:22:02.37	277.76	53.43	-23.8	-23.8	18.0	0.00e+00	0	42	0	999292928	8	3601
2026-01-11 05:22:05.37	275.76	53.04	-24.2	-24.7	17.5	0.00e+00	0	42	0	1020264448	8	3817
2026-01-11 05:22:08.39	273.81	52.61	-24.8	-25.6	16.7	0.00e+00	0	42	0	1042284544	9	3914
2026-01-11 05:22:11.38	271.94	52.16	-24.9	-25.7	16.5	0.00e+00	0	42	0	1064304640	9	3951
2026-01-11 05:22:14.38	270.11	51.68	-24.7	-25.4	16.9	0.00e+00	0	42	0	1085276160	9	3872
2026-01-11 05:22:17.38	268.35	51.17	-24.0	-24.3	17.6	1.10e-06	0	42	0	1107296256	8	3727
2026-01-11 05:22:20.39	266.64	50.64	-24.2	-24.7	17.4	3.33e-04	0	42	0	1129316352	8	3824
2026-01-11 05:22:23.41	264.99	50.09	-24.0	-24.2	17.7	3.48e-04	0	42	0	1151336448	8	3693
2026-01-11 05:22:26.41	263.40	49.53	-23.8	-24.4	17.8	8.20e-04	0	42	0	1172307968	7	3838
2026-01-11 05:22:29.41	261.88	48.95	-24.0	-24.9	17.6	1.35e-03	0	42	0	1194328064	7	3966
2026-01-11 05:22:32.40	260.41	48.35	-23.2	-23.7	18.4	1.29e-03	0	42	0	1216348160	6	3786
2026-01-11 05:22:35.40	259.00	47.75	-23.7	-24.2	17.9	1.28e-03	0	42	0	1237319680	7	3811
2026-01-11 05:22:38.40	257.64	47.14	-23.6	-24.0	18.0	1.33e-03	0	42	0	1259339776	7	3765
2026-01-11 05:22:41.41	256.33	46.51	-23.4	-23.5	18.2	1.20e-03	0	42	0	1280311296	7	3639
2026-01-11 05:22:44.43	255.07	45.88	-23.1	-23.4	18.5	0.00e+00	0	42	0	1302331392	6	3718
2026-01-11 05:22:47.44	253.86	45.24	-23.2	-23.6	18.4	0.00e+00	0	42	0	1324351488	6	3763
2026-01-11 05:22:50.46	252.70	44.60	-22.9	-23.1	18.7	0.00e+00	0	42	0	1346371584	6	3650
2026-01-11 05:22:53.48	251.58	43.96	-22.9	-23.1	18.7	5.37e-05	0	42	0	1368391680	6	3656
2026-01-11 05:22:56.50	250.51	43.31	-23.3	-23.8	18.3	0.00e+00	0	42	0	1389363200	6	3829
2026-01-11 05:22:59.52	249.48	42.67	-23.1	-23.5	18.5	0.00e+00	0	42	0	1411383296	6	3750
2026-01-11 05:23:02.54	248.49	42.02	-22.7	-23.2	18.8	0.00e+00	0	42	0	1433403392	5	3779
2026-01-11 05:23:05.55	247.54	41.38	-22.7	-23.1	18.9	0.00e+00	0	42	0	1455423488	5	3761
2026-01-11 05:23:08.56	246.63	40.75	-22.8	-23.3	18.7	0.00e+00	0	42	0	1476395008	5	3820
2026-01-11 05:23:11.56	245.76	40.12	-22.5	-22.7	19.0	0.00e+00	0	42	0	1498415104	5	3675
2026-01-11 05:23:14.59	244.91	39.48	-23.2	-23.6	18.4	0.00e+00	0	42	0	1520435200	6	3768
2026-01-11 05:23:17.61	244.10	38.85	-23.0	-23.2	18.6	0.00e+00	0	42	0	1542455296	6	3686
2026-01-11 05:23:20.63	243.32	38.23	-23.0	-23.7	18.5	0.00e+00	0	42	0	1563426816	5	3906
2026-01-11 05:23:23.64	242.57	37.62	-23.1	-23.5	18.4	0.00e+00	0	42	0	1585446912	6	3749
2026-01-11 05:23:26.67	241.84	37.00	-22.7	-22.6	18.6	0.00e+00	0	42	0	1607467008	6	3567
2026-01-11 05:23:29.70	241.14	36.40	-23.0	-23.3	18.5	0.00e+00	0	42	0	1629487104	6	3699
2026-01-11 05:23:32.72	240.47	35.80	-22.8	-22.8	18.7	0.00e+00	0	42	0	1651507200	6	3590
2026-01-11 05:23:35.73	239.83	35.21	-22.7	-23.0	18.8	0.00e+00	0	42	0	1673527296	5	3759
2026-01-11 05:23:38.75	239.20	34.62	-22.4	-22.4	19.1	0.00e+00	0	42	0	1694498816	5	3616
2026-01-11 05:23:41.77	238.60	34.04	-22.4	-22.5	19.1	0.00e+00	0	43	0	1716518912	5	3636
2026-01-11 05:23:44.78	238.02	33.48	-22.8	-23.2	18.7	0.00e+00	0	42	0	1738539008	5	3796
2026-01-11 05:23:47.80	237.46	32.91	-22.9	-23.4	18.6	0.00e+00	0	42	0	1760559104	5	3847
2026-01-11 05:23:50.82	236.92	32.36	-23.1	-23.5	18.3	0.00e+00	0	42	0	1781530624	6	3748
2026-01-11 05:23:53.83	236.40	31.81	-22.9	-23.4	18.6	0.00e+00	0	42	0	1803550720	5	3842
2026-01-11 05:23:56.84	235.89	31.27	-22.9	-23.6	18.5	0.00e+00	0	42	0	1825570816	5	3882
2026-01-11 05:23:59.86	235.40	30.73	-23.0	-23.7	18.4	0.00e+00	0	42	0	1847590912	5	3913
2026-01-11 05:24:02.88	234.93	30.21	-22.9	-23.5	18.5	0.00e+00	0	42	0	1869611008	5	3871
2026-01-11 05:24:05.90	234.47	29.69	-23.1	-23.5	18.3	0.00e+00	0	42	0	1890582528	6	3754
2026-01-11 05:24:08.92	234.03	29.18	-23.2	-23.5	18.2	0.00e+00	0	42	0	1912602624	6	3761
2026-01-11 05:24:11.94	233.60	28.67	-22.9	-23.1	18.5	0.00e+00	0	42	0	1934622720	6	3655
2026-01-11 05:24:14.97	233.18	28.17	-23.2	-23.6	18.2	0.00e+00	0	42	0	1955594240	6	3774
2026-01-11 05:24:17.99	232.78	27.68	-23.5	-24.3	17.8	0.00e+00	0	42	0	1977614336	6	3952
2026-01-11 05:24:21.01	232.39	27.20	-24.4	-25.3	16.9	0.00e+00	0	42	0	1999634432	8	3954
2026-01-11 05:24:24.03	232.01	26.72	-23.3	-23.4	18.0	0.00e+00	0	42	0	2021654528	7	3633
2026-01-11 05:24:27.05	231.64	26.25	-23.3	-23.8	18.0	0.00e+00	0	42	0	2043674624	6	3827
2026-01-11 05:24:30.07	231.29	25.79	-23.4	-24.0	18.0	0.00e+00	0	42	0	2064646144	6	3862
2026-01-11 05:24:33.09	230.94	25.33	-23.3	-23.8	18.0	0.00e+00	0	42	0	2086666240	6	3838
2026-01-11 05:24:36.10	230.61	24.88	-23.4	-24.1	17.9	0.00e+00	0	42	0	2108686336	6	3882
2026-01-11 05:24:39.12	230.28	24.44	-23.6	-23.9	17.7	0.00e+00	0	42	0	2130706432	7	3752
2026-01-11 05:24:42.13	229.96	24.01	-23.4	-23.5	17.9	0.00e+00	0	42	0	2151677952	7	3661
2026-01-11 05:24:45.14	229.65	23.58	-23.2	-23.7	18.0	0.00e+00	0	42	0	2173698048	6	3795
2026-01-11 05:24:48.16	229.35	23.15	-23.0	-23.3	18.2	0.00e+00	0	42	0	2195718144	6	3721
2026-01-11 05:24:51.18	229.06	22.73	-22.9	-23.5	18.4	0.00e+00	0	42	0	2217738240	5	3861
2026-01-11 05:24:54.20	228.78	22.32	-23.1	-23.9	18.2	0.00e+00	0	42	0	2239758336	5	3966
2026-01-11 05:24:57.22	228.50	21.92	-23.4	-24.1	17.8	0.00e+00	0	42	0	2260729856	6	3893
2026-01-11 05:25:00.24	228.23	21.52	-23.6	-24.0	12.2	0.00e+00	0	42	0	2282749952	7	3776
2026-01-11 05:25:03.26	227.97	21.12	-24.0	-24.4	17.2	0.00e+00	0	42	0	2304770048	8	3758
2026-01-11 05:25:06.28	227.72	20.73	-23.9	-24.7	17.2	1.90e-03	0	42	0	2326790144	7	3940
2026-01-11 05:25:09.30	227.47	20.35	-23.9	-24.7	17.2	1.68e-03	0	42	0	2348810240	7	3936
2026-01-11 05:25:12.32	227.22	19.97	-23.9	-24.2	17.2	1.78e-03	0	42	0	2369781760	8	3707
2026-01-11 05:25:15.34	226.99	19.59	-23.9	-24.7	17.2	0.00e+00	0	42	0	2391801856	7	3926
2026-01-11 05:25:18.37	226.76	19.22	-23.9	-24.1	17.3	1.50e-03	0	42	0	2413821952	8	3696
2026-01-11 05:25:21.39	226.53	18.86	-23.8	-24.4	17.3	1.46e-03	0	42	0	2435842048	7	3858
2026-01-11 05:25:24.41	226.31	18.50	-23.8	-24.4	17.3	1.28e-03	0	42	0	2457862144	7	3857
2026-01-11 05:25:27.43	226.10	18.14	-23.9	-24.6	17.2	0.00e+00	0	42	0	2479882240	7	3921
2026-01-11 05:25:30.45	225.89	17.79	-24.0	-24.9	17.0	0.00e+00	0	42	0	2500853760	7	3988
2026-01-11 05:25:33.47	225.69	17.45	-24.0	-24.9	17.0	0.00e+00	0	42	0	2522873856	7	3973
2026-01-11 05:25:36.49	225.49	17.11	-24.1	-24.6	16.9	0.00e+00	0	42	0	2544893952	8	3798
2026-01-11 05:25:39.50	225.29	16.77	-24.1	-24.6	16.9	0.00e+00	0	42	0	2566914048	8	3797
2026-01-11 05:25:42.51	225.10	16.44	-24.2	-24.9	16.7	0.00e+00	0	42	0	2587885568	8	3866
2026-01-11 05:25:45.54	224.92	16.11	-24.4	-25.2	16.6	0.00e+00	0	42	0	2609905664	8	3946
2026-01-11 05:25:48.55	224.73	15.79	-24.4	-25.3	16.5	0.00e+00	0	43	0	2631925760	8	3974
2026-01-11 05:25:51.57	224.56	15.47	-24.4	-25.2	16.5	0.00e+00	0	42	0	2652897280	8	3952
2026-01-11 05:25:54.57	224.38	15.16	-24.8	-25.5	16.1	0.00e+00	0	42	0	2674917376	9	3931
2026-01-11 05:25:57.58	224.21	14.84	-24.9	-25.7	16.0	0.00e+00	0	42	0	2696937472	9	3970
2026-01-11 05:26:00.60	224.05	14.53	-24.9	-25.8	15.9	0.00e+00	0	42	0	2718957568	9	4000
2026-01-11 05:26:03.61	223.89	14.23	-24.9	-25.9	15.8	0.00e+00	0	42	0	2739929088	9	4023
2026-01-11 05:26:06.62	223.73	13.93	-25.3	-26.2	15.4	0.00e+00	0	42	0	2761949184	10	3976
2026-01-11 05:26:09.65	223.57	13.63	-25.9	-26.9	14.7	0.00e+00	0	42	0	2783969280	11	4061
2026-01-11 05:26:12.65	223.42	13.34	-25.8	-26.7	14.8	0.00e+00	0	42	0	2805989376	11	3996
2026-01-11 05:26:15.66	223.27	13.05	-26.0	-26.7	14.4	1.10e-06	0	42	0	2826960896	12	3912
2026-01-11 05:26:18.67	223.12	12.76	-25.4	-25.9	15.2	0.00e+00	0	42	0	2848980992	11	3824
2026-01-11 05:26:21.70	222.98	12.47	-25.5	-26.5	15.1	1.50e-04	0	42	0	2871001088	10	4067
2026-01-11 05:26:24.71	222.84	12.19	-25.4	-26.0	15.1	6.29e-05	0	42	0	2893021184	11	3829
2026-01-11 05:26:27.73	222.70	11.91	-25.8	-26.8	14.6	7.66e-05	0	42	0	2915041280	11	4035
2026-01-11 05:26:30.75	222.57	11.64	-25.9	-27.0	14.5	1.57e-03	0	42	0	2936012800	11	4099
2026-01-11 05:26:33.77	222.43	11.37	-26.0	-27.2	14.4	5.37e-05	0	42	0	2958032896	11	4140
2026-01-11 05:26:36.80	222.30	11.09	-26.0	-27.2	14.4	8.01e-05	0	42	0	2980052992	11	4134
2026-01-11 05:26:39.82	222.17	10.83	-25.9	-27.0	14.5	1.58e-03	0	42	0	3002073088	11	4081
2026-01-11 05:26:42.83	222.05	10.56	-26.0	-27.2	14.3	1.50e-03	0	42	0	3023044608	11	4133
2026-01-11 05:26:45.84	221.93	10.30	-26.0	-27.3	14.3	1.34e-03	0	42	0	3045064704	11	4168
2026-01-11 05:26:48.85	221.81	10.04	-26.2	-27.1	14.0	1.36e-03	0	42	0	3067084800	12	4018
2026-01-11 05:26:51.88	221.69	9.79	-26.0	-26.8	14.2	0.00e+00	0	42	0	3089104896	12	3940
2026-01-11 05:26:54.89	221.57	9.53	-26.1	-27.0	14.0	1.04e-03	0	42	0	3111124992	12	3981
2026-01-11 05:26:57.91	221.46	9.28	-26.3	-27.5	13.7	1.17e-03	0	42	0	3132096512	12	4131
2026-01-11 05:27:00.93	221.35	9.03	-26.1	-27.0	14.0	0.00e+00	0	42	0	3154116608	12	4004
2026-01-11 05:27:03.96	221.24	8.78	-26.4	-27.6	13.6	1.37e-05	0	42	0	3176136704	12	4155
2026-01-11 05:27:06.98	221.13	8.54	-26.5	-28.0	13.4	8.00e-06	0	42	0	3198156800	12	4267
2026-01-11 05:27:09.98	221.03	8.30	-26.6	-27.7	13.2	2.40e-05	0	42	0	3220176896	13	4072
2026-01-11 05:27:13.00	220.92	8.06	-26.7	-27.8	13.2	1.71e-05	0	42	0	3241148416	13	4116
2026-01-11 05:27:16.02	220.82	7.82	-26.7	-27.9	13.1	2.28e-05	0	42	0	3263168512	13	4143
2026-01-11 05:27:19.03	220.72	7.58	-26.6	-27.7	13.2	2.05e-05	0	42	0	3285188608	13	4076
2026-01-11 05:27:22.04	220.62	7.35	-26.7	-27.9	13.0	2.63e-05	0	42	0	3306160128	13	4126
2026-01-11 05:27:25.06	220.52	7.12	-26.6	-27.8	13.1	3.89e-05	0	42	0	3328180224	13	4106
2026-01-11 05:27:28.08	220.43	6.89	-33.4	-43.1	3.8	8.45e-01	0	42	104	3331325952	26	11089

#Closed at: 2026-01-11 05:27:28
#Recorded file [3331 MB]: D:/data/31010_260111_081943.dat