passes_logs/2026/01/11/R2M6_AANII_01/R2M6_AANII_01__20260111_122533_SUOMI_NPP_rec.log

#Pass ID: 20260111_122533_SUOMI NPP
#Satellite: SUOMI NPP
#Configuration: NPP
#almurnet v.1.7.20240730
#Start time: 2026-01-11 12:25:33

#Version: 2.2.20231116
#Station: R2M6_AANII_01
#Location: 30.233357 lon 59.946436 lat
#TLE: 1 37849U 11061A   26009.81756760  .00000113  00000+0  74747-4 0  9994
#TLE: 2 37849  98.7806 311.9110 0002525  72.5604 287.5848 14.19524046735974

#Time	Az	El	Level	Level2	SNR	BER	BlckErr	Temp	State	Recorded	gain1	gain2
2026-01-11 12:25:33.60	228.95	6.99	-31.0	-34.4	5.2	1.17e+00	0	39	0	0	23	5277
2026-01-11 12:25:36.60	229.30	7.15	-31.4	-35.9	7.7	8.57e-02	0	40	0	1048576	23	6017
2026-01-11 12:25:39.60	229.66	7.31	-31.1	-34.6	8.7	4.64e-02	0	39	0	7340032	23	5360
2026-01-11 12:25:42.62	230.02	7.48	-31.0	-33.8	9.4	1.76e-02	0	40	0	12582912	23	4999
2026-01-11 12:25:45.64	230.39	7.64	-30.7	-33.4	10.1	1.01e-02	0	40	0	17825792	22	4916
2026-01-11 12:25:48.66	230.76	7.80	-30.3	-32.0	11.2	2.04e-03	0	40	0	24117248	22	4386
2026-01-11 12:25:51.67	231.13	7.97	-30.2	-32.3	11.4	1.21e-03	0	40	0	29360128	21	4550
2026-01-11 12:25:54.68	231.51	8.13	-30.2	-32.1	11.5	6.81e-04	0	40	0	35651584	21	4487
2026-01-11 12:25:57.69	231.89	8.29	-30.1	-32.0	11.6	6.48e-04	0	40	0	40894464	21	4440
2026-01-11 12:26:00.70	232.28	8.45	-30.1	-31.8	11.8	5.41e-04	0	40	0	46137344	21	4401
2026-01-11 12:26:03.70	232.67	8.61	-30.1	-31.8	11.8	6.03e-04	0	40	0	52428800	21	4374
2026-01-11 12:26:06.70	233.06	8.78	-30.2	-32.1	11.6	6.62e-04	0	40	0	57671680	21	4484
2026-01-11 12:26:09.70	233.46	8.94	-30.1	-31.8	11.8	6.51e-04	0	40	0	62914560	21	4392
2026-01-11 12:26:12.71	233.86	9.10	-29.9	-31.3	12.2	2.75e-04	0	41	0	69206016	21	4211
2026-01-11 12:26:15.72	234.27	9.26	-30.0	-31.4	12.1	2.53e-04	0	40	0	74448896	21	4256
2026-01-11 12:26:18.73	234.68	9.42	-29.9	-31.2	12.3	4.56e-04	0	40	0	80740352	21	4175
2026-01-11 12:26:21.74	235.10	9.58	-30.0	-31.6	12.0	2.94e-04	0	41	0	85983232	21	4288
2026-01-11 12:26:24.74	235.52	9.74	-30.0	-31.5	12.1	2.89e-04	0	41	0	91226112	21	4258
2026-01-11 12:26:27.74	235.94	9.90	-30.0	-31.6	12.1	2.24e-04	0	41	0	97517568	21	4299
2026-01-11 12:26:30.75	236.37	10.06	-30.1	-31.6	12.0	2.33e-04	0	41	0	102760448	21	4310
2026-01-11 12:26:33.77	236.81	10.22	-30.2	-32.0	11.8	4.91e-04	0	41	0	109051904	21	4439
2026-01-11 12:26:36.78	237.25	10.38	-30.1	-31.7	12.0	4.51e-04	0	41	0	114294784	21	4328
2026-01-11 12:26:39.80	237.69	10.54	-30.3	-32.3	11.6	5.41e-04	0	41	0	119537664	21	4535
2026-01-11 12:26:42.81	238.14	10.70	-30.2	-31.9	11.9	5.15e-04	0	41	0	125829120	21	4398
2026-01-11 12:26:45.82	238.59	10.86	-30.2	-32.0	11.8	3.69e-04	0	41	0	131072000	21	4425
2026-01-11 12:26:48.82	239.05	11.02	-30.0	-31.5	12.2	2.25e-04	0	41	0	136314880	21	4259
2026-01-11 12:26:51.84	239.51	11.17	-30.0	-31.3	12.4	1.39e-04	0	41	0	142606336	21	4189
2026-01-11 12:26:54.84	239.98	11.33	-30.0	-31.4	12.3	1.98e-04	0	41	0	147849216	21	4227
2026-01-11 12:26:57.85	240.45	11.48	-29.6	-30.7	13.1	3.50e-05	0	41	0	154140672	20	4084
2026-01-11 12:27:00.85	240.92	11.64	-29.6	-30.8	13.1	3.89e-05	0	41	0	159383552	20	4132
2026-01-11 12:27:03.86	241.41	11.79	-29.7	-30.9	13.0	4.73e-05	0	41	0	164626432	20	4160
2026-01-11 12:27:06.86	241.89	11.94	-29.7	-31.1	12.9	8.16e-05	0	41	0	170917888	20	4198
2026-01-11 12:27:09.85	242.38	12.09	-29.7	-30.9	13.0	3.96e-05	0	41	0	176160768	20	4130
2026-01-11 12:27:12.85	242.87	12.25	-29.6	-30.7	13.2	1.44e-05	0	41	0	181403648	20	4080
2026-01-11 12:27:15.85	243.37	12.39	-29.6	-30.7	13.2	1.90e-05	0	41	0	187695104	20	4070
2026-01-11 12:27:18.86	243.88	12.54	-29.5	-30.5	13.4	1.52e-05	0	41	0	192937984	20	4012
2026-01-11 12:27:21.87	244.39	12.69	-29.7	-31.0	13.1	3.28e-05	0	41	0	199229440	20	4160
2026-01-11 12:27:24.89	244.91	12.84	-29.7	-30.8	13.1	2.97e-05	0	41	0	204472320	20	4100
2026-01-11 12:27:27.90	245.43	12.98	-29.8	-31.3	12.9	3.66e-05	0	41	0	209715200	20	4253
2026-01-11 12:27:30.91	245.96	13.13	-29.7	-30.9	13.1	1.60e-05	0	41	0	216006656	20	4143
2026-01-11 12:27:33.92	246.49	13.27	-29.6	-30.7	13.2	2.05e-05	0	42	0	221249536	20	4082
2026-01-11 12:27:36.93	247.02	13.41	-29.8	-31.2	12.9	4.04e-05	0	42	0	226492416	20	4226
2026-01-11 12:27:39.94	247.56	13.55	-30.0	-31.7	12.7	1.01e-04	0	41	0	232783872	20	4380
2026-01-11 12:27:42.94	248.11	13.69	-30.0	-31.8	12.6	7.40e-05	0	41	0	238026752	20	4419
2026-01-11 12:27:45.95	248.66	13.82	-30.0	-31.6	12.8	7.17e-05	0	41	0	244318208	20	4341
2026-01-11 12:27:48.94	249.21	13.96	-30.2	-32.4	12.2	2.25e-04	0	41	0	249561088	20	4612
2026-01-11 12:27:51.87	249.76	14.09	-30.2	-32.2	12.3	1.24e-04	0	41	0	254803968	20	4554
2026-01-11 12:27:54.81	250.31	14.22	-30.2	-32.4	12.2	1.93e-04	0	42	0	261095424	20	4621
2026-01-11 12:27:57.75	250.86	14.34	-30.3	-32.6	12.1	2.62e-04	0	41	0	266338304	20	4681
2026-01-11 12:28:00.69	251.43	14.47	-30.4	-32.2	12.0	3.16e-04	0	42	0	271581184	21	4450
2026-01-11 12:28:03.64	251.99	14.59	-30.5	-32.5	11.8	5.04e-04	0	42	0	276824064	21	4569
2026-01-11 12:28:06.61	252.57	14.71	-30.5	-32.8	11.7	6.10e-04	0	42	0	283115520	21	4643
2026-01-11 12:28:09.58	253.15	14.83	-30.3	-31.9	12.3	2.72e-04	0	42	0	288358400	21	4348
2026-01-11 12:28:12.55	253.73	14.95	-30.5	-32.5	11.9	2.97e-04	0	42	0	293601280	21	4542
2026-01-11 12:28:15.51	254.32	15.06	-30.8	-33.5	11.1	9.44e-04	0	42	0	299892736	21	4915
2026-01-11 12:28:18.48	254.92	15.18	-30.7	-33.1	11.5	7.02e-04	0	42	0	305135616	21	4777
2026-01-11 12:28:21.44	255.51	15.29	-30.9	-33.9	10.9	2.11e-03	0	42	0	310378496	21	5085
2026-01-11 12:28:24.41	256.11	15.40	-30.7	-32.5	11.6	1.02e-03	0	42	0	315621376	22	4461
2026-01-11 12:28:27.38	256.72	15.50	-30.2	-31.7	12.5	1.05e-04	0	42	0	321912832	21	4285
2026-01-11 12:28:30.36	257.33	15.60	-30.4	-32.2	12.2	1.64e-04	0	42	0	327155712	21	4431
2026-01-11 12:28:33.33	257.95	15.70	-30.5	-32.4	12.0	3.37e-04	0	42	0	332398592	21	4520
2026-01-11 12:28:36.30	258.57	15.80	-30.1	-31.5	12.7	7.62e-05	0	42	0	338690048	21	4207
2026-01-11 12:28:39.27	259.19	15.90	-30.0	-31.1	12.9	3.73e-05	0	42	0	343932928	21	4101
2026-01-11 12:28:42.24	259.82	15.99	-29.8	-31.1	13.2	1.06e-05	0	42	0	349175808	20	4181
2026-01-11 12:28:45.21	260.45	16.08	-29.5	-30.3	13.7	9.10e-06	0	42	0	355467264	20	3946
2026-01-11 12:28:48.19	261.08	16.16	-29.7	-30.8	13.5	1.14e-05	0	42	0	360710144	20	4067
2026-01-11 12:28:51.17	261.72	16.25	-29.8	-30.9	13.4	1.90e-05	0	42	0	365953024	20	4120
2026-01-11 12:28:54.14	262.36	16.33	-29.8	-31.1	13.3	2.21e-05	0	42	0	372244480	20	4175
2026-01-11 12:28:57.11	263.01	16.40	-30.2	-32.3	12.5	1.18e-04	0	42	0	377487360	20	4547
2026-01-11 12:29:00.10	263.66	16.48	-30.3	-32.1	12.3	2.36e-04	0	42	0	382730240	21	4393
2026-01-11 12:29:03.07	264.31	16.55	-30.4	-32.1	12.2	1.62e-04	0	42	0	389021696	21	4412
2026-01-11 12:29:06.05	264.96	16.62	-30.3	-31.9	12.5	1.14e-04	0	42	0	394264576	21	4322
2026-01-11 12:29:09.03	265.62	16.68	-29.9	-30.8	13.1	4.34e-05	0	42	0	399507456	21	4001
2026-01-11 12:29:11.99	266.27	16.74	-30.2	-32.2	12.6	6.63e-05	0	42	0	404750336	20	4534
2026-01-11 12:29:14.96	266.94	16.80	-30.4	-32.2	12.2	2.51e-04	0	42	0	411041792	21	4441
2026-01-11 12:29:17.93	267.60	16.85	-30.3	-31.9	12.5	1.45e-04	0	42	0	416284672	21	4314
2026-01-11 12:29:20.90	268.26	16.90	-30.7	-33.1	11.7	4.35e-04	0	42	0	421527552	21	4728
2026-01-11 12:29:23.88	268.93	16.95	-29.7	-30.8	13.5	1.44e-05	0	42	0	427819008	20	4082
2026-01-11 12:29:26.86	269.60	16.99	-29.5	-30.2	13.9	2.20e-06	0	42	0	433061888	20	3895
2026-01-11 12:29:29.84	270.28	17.03	-29.9	-31.4	13.1	3.89e-05	0	42	0	438304768	20	4256
2026-01-11 12:29:32.86	270.96	17.06	-30.0	-31.6	13.0	1.44e-05	0	42	0	444596224	20	4333
2026-01-11 12:29:35.85	271.64	17.09	-29.8	-30.9	13.4	1.37e-05	0	42	0	449839104	20	4124
2026-01-11 12:29:38.86	272.32	17.12	-30.4	-32.8	12.2	1.94e-04	0	42	0	456130560	20	4719
2026-01-11 12:29:41.87	273.01	17.15	-30.5	-32.5	12.0	4.07e-04	0	42	0	461373440	21	4537
2026-01-11 12:29:44.88	273.69	17.17	-30.6	-32.9	11.8	5.10e-04	0	42	0	466616320	21	4661
2026-01-11 12:29:47.89	274.38	17.18	-30.5	-32.4	12.1	2.79e-04	0	42	0	472907776	21	4509
2026-01-11 12:29:50.92	275.07	17.19	-30.5	-32.5	12.1	2.60e-04	0	42	0	478150656	21	4520
2026-01-11 12:29:53.94	275.76	17.20	-30.4	-32.2	12.3	2.37e-04	0	42	0	483393536	21	4421
2026-01-11 12:29:56.94	276.45	17.21	-30.4	-32.3	12.2	1.65e-04	0	42	0	489684992	21	4469
2026-01-11 12:29:59.95	277.13	17.21	-30.4	-32.3	12.2	2.05e-04	0	42	0	494927872	21	4480
2026-01-11 12:30:02.95	277.82	17.20	-30.4	-32.4	12.1	2.34e-04	0	42	0	501219328	21	4497
2026-01-11 12:30:05.97	278.51	17.20	-30.3	-31.8	12.5	1.44e-04	0	42	0	506462208	21	4315
2026-01-11 12:30:08.99	279.20	17.18	-30.4	-32.2	12.2	2.30e-04	0	42	0	511705088	21	4421
2026-01-11 12:30:12.01	279.89	17.17	-29.8	-30.7	13.2	3.12e-05	0	42	0	517996544	21	3956
2026-01-11 12:30:15.02	280.57	17.15	-30.1	-31.3	12.8	6.40e-05	0	42	0	523239424	21	4141
2026-01-11 12:30:18.03	281.26	17.13	-30.5	-32.7	11.9	2.59e-04	0	42	0	529530880	21	4593
2026-01-11 12:30:21.05	281.94	17.10	-30.3	-31.8	12.5	1.20e-04	0	42	0	534773760	21	4295
2026-01-11 12:30:24.06	282.62	17.07	-30.8	-33.3	11.5	6.32e-04	0	42	0	540016640	21	4819
2026-01-11 12:30:27.04	283.30	17.03	-30.3	-32.0	12.4	1.91e-04	0	42	0	546308096	21	4358
2026-01-11 12:30:30.04	283.98	16.99	-30.4	-32.3	12.1	1.67e-04	0	42	0	551550976	21	4475
2026-01-11 12:30:33.03	284.65	16.95	-30.5	-32.6	11.9	4.23e-04	0	42	0	556793856	21	4578
2026-01-11 12:30:36.02	285.32	16.91	-30.5	-32.4	12.0	2.37e-04	0	42	0	563085312	21	4507
2026-01-11 12:30:38.98	285.98	16.86	-30.3	-31.9	12.5	1.35e-04	0	42	0	568328192	21	4318
2026-01-11 12:30:41.93	286.64	16.81	-29.7	-30.8	13.4	1.60e-05	0	42	0	573571072	20	4089
2026-01-11 12:30:44.91	287.30	16.75	-29.9	-31.4	13.1	3.12e-05	0	42	0	579862528	20	4266
2026-01-11 12:30:47.88	287.96	16.69	-30.3	-32.4	12.4	7.01e-05	0	42	0	585105408	20	4600
2026-01-11 12:30:50.84	288.61	16.63	-30.4	-32.8	12.1	1.28e-04	0	42	0	590348288	20	4730
2026-01-11 12:30:53.82	289.26	16.56	-30.4	-32.1	12.2	1.46e-04	0	42	0	596639744	21	4411
2026-01-11 12:30:56.81	289.92	16.49	-30.1	-31.3	12.8	6.86e-05	0	42	0	601882624	21	4139
2026-01-11 12:30:59.79	290.56	16.42	-30.0	-31.0	13.0	3.81e-05	0	42	0	607125504	21	4050
2026-01-11 12:31:02.77	291.21	16.34	-29.8	-31.0	13.4	2.67e-05	0	42	0	613416960	20	4134
2026-01-11 12:31:05.77	291.85	16.26	-29.5	-30.3	13.7	2.20e-06	0	42	0	618659840	20	3943
2026-01-11 12:31:08.73	292.49	16.18	-30.0	-31.6	13.0	2.82e-05	0	42	0	623902720	20	4344
2026-01-11 12:31:11.72	293.12	16.09	-30.2	-32.1	12.6	1.23e-04	0	42	0	630194176	20	4500
2026-01-11 12:31:14.71	293.76	16.01	-29.5	-30.2	13.8	1.22e-05	0	42	0	635437056	20	3915
2026-01-11 12:31:17.70	294.38	15.91	-29.7	-30.7	13.5	9.10e-06	0	42	0	640679936	20	4049
2026-01-11 12:31:20.68	295.01	15.82	-29.7	-30.9	13.4	1.37e-05	0	42	0	646971392	20	4104
2026-01-11 12:31:23.65	295.63	15.72	-29.4	-30.1	13.9	6.10e-06	0	42	0	652214272	20	3872
2026-01-11 12:31:26.65	296.24	15.62	-29.2	-30.0	14.3	0.00e+00	0	42	0	657457152	19	3928
2026-01-11 12:31:29.63	296.86	15.52	-29.4	-30.5	14.0	1.50e-06	0	42	0	663748608	19	4083
2026-01-11 12:31:32.61	297.46	15.42	-29.8	-31.4	13.4	2.44e-05	0	42	0	668991488	19	4364
2026-01-11 12:31:35.60	298.07	15.31	-29.6	-30.9	13.7	4.50e-06	0	42	0	674234368	19	4210
2026-01-11 12:31:38.58	298.67	15.20	-29.8	-31.7	13.2	4.50e-06	0	42	0	680525824	19	4436
2026-01-11 12:31:41.58	299.26	15.08	-29.8	-31.6	13.2	2.28e-05	0	42	0	685768704	19	4411
2026-01-11 12:31:44.55	299.85	14.97	-29.8	-31.4	13.4	1.37e-05	0	42	0	691011584	19	4363
2026-01-11 12:31:47.53	300.44	14.85	-29.7	-31.2	13.5	6.80e-06	0	42	0	697303040	19	4294
2026-01-11 12:31:50.49	301.01	14.73	-29.6	-30.9	13.7	2.20e-06	0	42	0	702545920	19	4189
2026-01-11 12:31:53.47	301.59	14.61	-29.6	-30.9	13.7	3.00e-06	0	42	0	707788800	19	4218
2026-01-11 12:31:56.45	302.16	14.49	-29.8	-31.7	13.2	1.83e-05	0	42	0	714080256	19	4447
2026-01-11 12:31:59.42	302.73	14.37	-29.8	-31.5	13.2	2.21e-05	0	42	0	719323136	19	4390
2026-01-11 12:32:02.40	303.29	14.24	-30.0	-31.8	12.7	8.08e-05	0	42	0	724566016	20	4411
2026-01-11 12:32:05.36	303.84	14.11	-30.5	-32.6	11.8	3.82e-04	0	42	0	730857472	21	4608
2026-01-11 12:32:08.36	304.40	13.98	-30.2	-31.7	12.4	1.66e-04	0	42	0	736100352	21	4300
2026-01-11 12:32:11.35	304.95	13.85	-30.1	-31.4	12.6	1.01e-04	0	42	0	741343232	21	4184
2026-01-11 12:32:14.34	305.49	13.71	-30.1	-31.6	12.4	1.52e-04	0	42	0	747634688	21	4267
2026-01-11 12:32:17.33	306.03	13.58	-30.6	-32.8	11.6	6.18e-04	0	42	0	752877568	21	4673
2026-01-11 12:32:20.30	306.56	13.44	-30.4	-32.5	11.8	4.61e-04	0	42	0	758120448	21	4564
2026-01-11 12:32:23.26	307.09	13.30	-30.4	-32.4	11.9	3.91e-04	0	42	0	764411904	21	4527
2026-01-11 12:32:26.22	307.61	13.16	-30.6	-33.0	11.5	9.28e-04	0	42	0	769654784	21	4742
2026-01-11 12:32:29.20	308.13	13.02	-30.6	-32.9	11.4	8.38e-04	0	42	0	774897664	21	4704
2026-01-11 12:32:32.17	308.64	12.88	-30.7	-33.4	11.1	1.89e-03	0	42	0	780140544	21	4909
2026-01-11 12:32:35.16	309.15	12.74	-31.0	-33.9	10.4	5.41e-03	0	42	0	786432000	22	4999
2026-01-11 12:32:38.14	309.66	12.59	-30.8	-33.1	11.0	3.50e-03	0	42	0	791674880	22	4693
2026-01-11 12:32:41.13	310.16	12.45	-30.6	-32.4	11.5	1.26e-03	0	42	0	796917760	22	4448
2026-01-11 12:32:44.12	310.65	12.30	-30.3	-32.2	12.0	2.28e-04	0	42	0	803209216	21	4446
2026-01-11 12:32:47.10	311.14	12.15	-30.5	-32.7	11.5	5.87e-04	0	42	0	808452096	21	4653
2026-01-11 12:32:50.10	311.63	12.00	-30.6	-32.9	11.5	9.40e-04	0	42	0	814743552	21	4707
2026-01-11 12:32:53.08	312.11	11.85	-30.7	-33.2	11.3	1.27e-03	0	42	0	819986432	21	4807
2026-01-11 12:32:56.06	312.59	11.70	-30.8	-33.6	10.9	2.65e-03	0	42	0	825229312	21	4990
2026-01-11 12:32:59.04	313.06	11.55	-30.9	-33.6	10.6	3.67e-03	0	42	0	831520768	22	4892
2026-01-11 12:33:02.03	313.53	11.40	-30.7	-32.9	11.1	1.76e-03	0	42	0	836763648	22	4638
2026-01-11 12:33:05.02	313.99	11.24	-30.6	-32.5	11.4	1.31e-03	0	42	0	842006528	22	4482
2026-01-11 12:33:08.00	314.45	11.09	-30.7	-32.9	11.1	1.64e-03	0	42	0	848297984	22	4630
2026-01-11 12:33:10.98	314.90	10.94	-30.4	-32.1	11.7	7.27e-04	0	42	0	853540864	22	4335
2026-01-11 12:33:13.96	315.35	10.78	-30.5	-32.3	11.5	1.09e-03	0	42	0	858783744	22	4416
2026-01-11 12:33:16.96	315.79	10.62	-30.3	-32.1	11.9	3.30e-04	0	42	0	865075200	21	4445
2026-01-11 12:33:19.96	316.23	10.47	-30.4	-32.6	11.6	7.46e-04	0	42	0	870318080	21	4615
2026-01-11 12:33:22.95	316.67	10.31	-30.1	-31.5	12.3	1.89e-04	0	42	0	875560960	21	4249
2026-01-11 12:33:25.94	317.10	10.15	-30.1	-31.5	12.3	1.71e-04	0	42	0	881852416	21	4234
2026-01-11 12:33:28.93	317.53	10.00	-30.2	-31.8	12.1	3.42e-04	0	42	0	887095296	21	4349
2026-01-11 12:33:31.92	317.95	9.84	-30.5	-32.6	11.5	5.84e-04	0	42	0	892338176	21	4635
2026-01-11 12:33:34.90	318.37	9.68	-30.1	-31.6	12.3	1.91e-04	0	42	0	898629632	21	4264
2026-01-11 12:33:37.90	318.78	9.52	-30.2	-31.8	12.1	2.39e-04	0	42	0	903872512	21	4342
2026-01-11 12:33:40.89	319.19	9.36	-29.9	-31.2	12.5	1.21e-04	0	42	0	909115392	21	4139
2026-01-11 12:33:43.89	319.60	9.21	-29.8	-31.3	12.7	8.54e-05	0	42	0	915406848	20	4274
2026-01-11 12:33:46.92	320.00	9.04	-29.9	-31.6	12.6	1.20e-04	0	42	0	920649728	20	4361
2026-01-11 12:33:49.92	320.40	8.88	-30.3	-32.7	11.8	3.28e-04	0	42	0	925892608	20	4739
2026-01-11 12:33:52.93	320.79	8.72	-30.2	-32.5	11.9	4.16e-04	0	42	0	932184064	20	4663
2026-01-11 12:33:55.95	321.18	8.56	-30.5	-33.0	11.2	7.19e-04	0	42	0	937426944	21	4776
2026-01-11 12:33:58.97	321.57	8.40	-30.4	-32.5	11.5	1.00e-03	0	42	0	943718400	21	4588
2026-01-11 12:34:01.98	321.95	8.24	-30.5	-32.9	11.2	1.19e-03	0	42	0	948961280	21	4733
2026-01-11 12:34:04.99	322.33	8.08	-30.0	-31.5	12.2	2.12e-04	0	42	0	954204160	21	4257
2026-01-11 12:34:07.99	322.71	7.92	-30.0	-31.3	12.3	2.61e-04	0	42	0	960495616	21	4193
2026-01-11 12:34:11.01	323.08	7.76	-30.2	-31.9	11.9	4.27e-04	0	42	0	965738496	21	4381
2026-01-11 12:34:14.01	323.44	7.60	-30.5	-32.9	11.2	9.39e-04	0	42	0	972029952	21	4735
2026-01-11 12:34:17.02	323.80	7.44	-30.6	-33.2	10.9	1.97e-03	0	42	0	977272832	21	4861
2026-01-11 12:34:20.01	324.16	7.28	-30.6	-33.3	10.7	3.23e-03	0	42	0	982515712	21	4913
2026-01-11 12:34:23.02	324.52	7.12	-30.8	-34.1	10.3	4.08e-03	0	42	0	988807168	21	5217

#Closed at: 2026-01-11 12:34:25
#Recorded file [990 MB]: D:/data/31010_260111_152535.dat