passes_logs/2026/01/11/R2M6_AANII_01/R2M6_AANII_01__20260111_115452_NOAA_21_JPSS-2_rec.log

#Pass ID: 20260111_115452_NOAA 21 (JPSS-2)
#Satellite: NOAA 21 (JPSS-2)
#Configuration: NOAA 21
#almurnet v.1.7.20240730
#Start time: 2026-01-11 11:54:52

#Version: 2.2.20231116
#Station: R2M6_AANII_01
#Location: 30.233357 lon 59.946436 lat
#TLE: 1 54234U 22150A   26009.79679979  .00000100  00000+0  68070-4 0  9993
#TLE: 2 54234  98.7494 310.7596 0000833 322.2782  37.8335 14.19533646164071

#Time	Az	El	Level	Level2	SNR	BER	BlckErr	Temp	State	Recorded	gain1	gain2
2026-01-11 11:54:52.02	212.38	6.97	-33.3	-45.3	3.9	1.49e+00	0	42	0	0	27	14396
2026-01-11 11:54:55.01	212.66	7.16	-33.9	-45.7	3.8	1.49e+00	0	42	104	0	28	14009
2026-01-11 11:54:57.99	212.95	7.35	-33.8	-45.5	3.8	1.49e+00	0	42	104	0	28	13799
2026-01-11 11:55:00.99	213.23	7.54	-33.8	-45.3	3.8	1.49e+00	0	42	104	0	28	13677
2026-01-11 11:55:03.99	213.53	7.73	-33.6	-45.1	3.8	1.49e+00	0	42	104	0	28	13472
2026-01-11 11:55:06.99	213.82	7.93	-33.3	-44.9	3.8	1.49e+00	0	42	104	0	27	13750
2026-01-11 11:55:09.99	214.12	8.12	-32.8	-43.7	3.8	1.49e+00	0	42	104	0	26	12704
2026-01-11 11:55:12.99	214.43	8.32	-32.8	-44.2	3.8	1.49e+00	0	42	104	0	26	13352
2026-01-11 11:55:15.98	214.74	8.51	-32.5	-41.7	3.9	1.49e+00	0	42	104	0	26	10396
2026-01-11 11:55:18.98	215.05	8.71	-31.3	-35.8	6.9	2.54e-01	0	42	0	1048576	24	6064
2026-01-11 11:55:21.97	215.36	8.91	-29.8	-32.4	10.3	6.69e-03	0	42	0	10485760	21	4824
2026-01-11 11:55:24.97	215.68	9.11	-29.2	-31.7	11.6	8.58e-04	0	42	0	19922944	19	4766
2026-01-11 11:55:27.96	216.01	9.31	-29.9	-33.5	10.4	3.40e-03	0	42	0	29360128	19	5441
2026-01-11 11:55:30.95	216.34	9.51	-29.9	-33.5	10.3	4.02e-03	0	42	0	38797312	19	5464
2026-01-11 11:55:33.94	216.67	9.71	-30.0	-33.4	10.0	8.51e-03	0	42	0	48234496	20	5318
2026-01-11 11:55:36.94	217.01	9.91	-30.0	-33.2	10.1	6.69e-03	0	42	0	56623104	20	5246
2026-01-11 11:55:39.94	217.35	10.11	-29.9	-33.4	10.5	1.92e-03	0	42	0	66060288	19	5383
2026-01-11 11:55:42.94	217.70	10.31	-28.3	-30.2	12.5	1.98e-04	0	42	0	75497472	18	4481
2026-01-11 11:55:45.93	218.05	10.52	-28.0	-29.6	13.6	9.90e-06	0	42	0	84934656	17	4304
2026-01-11 11:55:48.91	218.40	10.72	-28.2	-30.1	13.3	1.75e-05	0	42	0	94371840	17	4449
2026-01-11 11:55:51.89	218.76	10.93	-27.6	-29.0	14.3	7.00e-07	0	42	0	103809024	16	4239
2026-01-11 11:55:54.89	219.13	11.13	-27.7	-29.2	14.2	2.20e-06	0	42	0	113246208	16	4288
2026-01-11 11:55:57.88	219.50	11.34	-27.7	-29.3	14.1	2.20e-06	0	42	0	122683392	16	4343
2026-01-11 11:56:00.85	219.87	11.55	-27.5	-28.9	14.4	0.00e+00	0	42	0	132120576	16	4201
2026-01-11 11:56:03.83	220.25	11.75	-27.7	-29.2	14.2	0.00e+00	0	42	0	141557760	16	4303
2026-01-11 11:56:06.80	220.63	11.96	-27.3	-28.5	14.6	0.00e+00	0	42	0	149946368	16	4092
2026-01-11 11:56:09.79	221.02	12.17	-27.4	-28.6	14.6	0.00e+00	0	42	0	159383552	16	4119
2026-01-11 11:56:12.81	221.42	12.38	-27.1	-28.5	14.8	7.00e-07	0	42	0	168820736	15	4205
2026-01-11 11:56:15.79	221.82	12.59	-27.1	-28.4	14.8	0.00e+00	0	42	0	178257920	15	4189
2026-01-11 11:56:18.78	222.23	12.80	-27.2	-28.6	14.7	0.00e+00	0	42	0	187695104	15	4237
2026-01-11 11:56:21.78	222.64	13.01	-27.2	-28.6	14.8	0.00e+00	0	42	0	197132288	15	4228
2026-01-11 11:56:24.77	223.06	13.23	-27.1	-28.5	14.8	0.00e+00	0	42	0	206569472	15	4201
2026-01-11 11:56:27.75	223.48	13.44	-26.9	-27.9	15.1	0.00e+00	0	42	0	216006656	15	4058
2026-01-11 11:56:30.74	223.91	13.65	-27.1	-28.4	14.9	0.00e+00	0	42	0	225443840	15	4190
2026-01-11 11:56:33.73	224.35	13.86	-27.2	-28.6	14.8	0.00e+00	0	42	0	234881024	15	4228
2026-01-11 11:56:36.71	224.79	14.08	-27.0	-28.2	15.0	0.00e+00	0	42	0	244318208	15	4138
2026-01-11 11:56:39.72	225.24	14.29	-27.1	-28.3	15.0	0.00e+00	0	42	0	253755392	15	4151
2026-01-11 11:56:42.69	225.70	14.50	-27.2	-28.6	14.8	0.00e+00	0	42	0	262144000	15	4234
2026-01-11 11:56:45.67	226.15	14.72	-27.3	-28.8	14.8	0.00e+00	0	42	0	271581184	15	4281
2026-01-11 11:56:48.65	226.62	14.93	-27.2	-28.6	14.8	0.00e+00	0	42	0	281018368	15	4235
2026-01-11 11:56:51.65	227.10	15.15	-27.2	-28.6	14.9	0.00e+00	0	42	0	290455552	15	4233
2026-01-11 11:56:54.63	227.58	15.36	-27.2	-28.6	14.9	0.00e+00	0	42	0	299892736	15	4237
2026-01-11 11:56:57.61	228.06	15.57	-27.1	-28.5	15.0	0.00e+00	0	42	0	309329920	15	4191
2026-01-11 11:57:00.61	228.56	15.79	-27.2	-28.5	15.0	0.00e+00	0	42	0	318767104	15	4211
2026-01-11 11:57:03.59	229.06	16.00	-27.2	-28.6	14.9	0.00e+00	0	42	0	328204288	15	4226
2026-01-11 11:57:06.56	229.56	16.21	-27.2	-28.6	14.9	0.00e+00	0	42	0	337641472	15	4236
2026-01-11 11:57:09.55	230.08	16.43	-27.3	-28.8	14.8	0.00e+00	0	42	0	346030080	15	4290
2026-01-11 11:57:12.53	230.60	16.64	-27.4	-28.9	14.8	0.00e+00	0	42	0	355467264	15	4317
2026-01-11 11:57:15.51	231.13	16.85	-27.4	-29.0	14.8	0.00e+00	0	42	0	364904448	15	4324
2026-01-11 11:57:18.51	231.67	17.06	-27.4	-29.0	14.8	0.00e+00	0	42	0	374341632	15	4348
2026-01-11 11:57:21.48	232.21	17.28	-27.3	-28.7	14.9	0.00e+00	0	42	0	383778816	15	4262
2026-01-11 11:57:24.46	232.76	17.49	-27.3	-28.7	15.0	0.00e+00	0	42	0	393216000	15	4254
2026-01-11 11:57:27.46	233.32	17.70	-27.2	-28.5	15.0	0.00e+00	0	42	0	402653184	15	4206
2026-01-11 11:57:30.45	233.89	17.91	-27.1	-28.2	15.3	0.00e+00	0	42	0	412090368	15	4115
2026-01-11 11:57:33.43	234.46	18.11	-27.0	-28.2	15.3	0.00e+00	0	42	0	421527552	15	4107
2026-01-11 11:57:36.38	235.03	18.32	-27.0	-28.2	15.3	0.00e+00	0	42	0	429916160	15	4103
2026-01-11 11:57:39.36	235.62	18.52	-27.1	-28.3	15.3	0.00e+00	0	42	0	439353344	15	4139
2026-01-11 11:57:42.35	236.22	18.73	-27.0	-28.0	15.4	0.00e+00	0	42	0	448790528	15	4062
2026-01-11 11:57:45.35	236.83	18.93	-26.8	-27.7	15.6	0.00e+00	0	42	0	458227712	15	3973
2026-01-11 11:57:48.34	237.44	19.14	-26.9	-27.8	15.5	0.00e+00	0	42	0	467664896	15	3992
2026-01-11 11:57:51.31	238.06	19.33	-27.1	-28.3	15.3	0.00e+00	0	42	0	477102080	15	4136
2026-01-11 11:57:54.30	238.69	19.53	-27.4	-28.9	14.9	7.00e-07	0	42	0	486539264	15	4304
2026-01-11 11:57:57.30	239.33	19.73	-27.0	-28.1	15.4	0.00e+00	0	42	0	495976448	15	4090
2026-01-11 11:58:00.30	239.98	19.93	-27.0	-28.1	15.4	0.00e+00	0	42	0	505413632	15	4089
2026-01-11 11:58:03.29	240.63	20.12	-27.1	-28.4	15.2	0.00e+00	0	42	0	514850816	15	4163
2026-01-11 11:58:06.30	241.29	20.31	-27.2	-28.6	15.1	0.00e+00	0	42	0	524288000	15	4224
2026-01-11 11:58:09.31	241.97	20.50	-27.0	-28.0	15.5	0.00e+00	0	42	0	533725184	15	4063
2026-01-11 11:58:12.30	242.65	20.69	-27.0	-28.0	15.5	0.00e+00	0	42	0	542113792	15	4057
2026-01-11 11:58:15.31	243.34	20.87	-27.0	-28.0	15.5	0.00e+00	0	42	0	551550976	15	4056
2026-01-11 11:58:18.29	244.03	21.05	-27.1	-28.4	15.3	0.00e+00	0	42	0	560988160	15	4156
2026-01-11 11:58:21.28	244.73	21.23	-27.0	-28.2	15.4	0.00e+00	0	42	0	570425344	15	4093
2026-01-11 11:58:24.28	245.44	21.40	-26.7	-27.8	15.9	0.00e+00	0	42	0	579862528	14	4104
2026-01-11 11:58:27.27	246.16	21.57	-26.8	-28.0	15.8	0.00e+00	0	42	0	589299712	14	4162
2026-01-11 11:58:30.27	246.88	21.74	-26.8	-28.2	15.7	0.00e+00	0	42	0	598736896	14	4214
2026-01-11 11:58:33.26	247.61	21.90	-27.0	-28.5	15.5	0.00e+00	0	42	0	608174080	14	4292
2026-01-11 11:58:36.24	248.35	22.06	-26.6	-27.6	16.0	0.00e+00	0	42	0	617611264	14	4062
2026-01-11 11:58:39.21	249.09	22.22	-26.7	-27.8	15.9	0.00e+00	0	42	0	627048448	14	4108
2026-01-11 11:58:42.22	249.85	22.37	-26.8	-28.1	15.8	0.00e+00	0	42	0	636485632	14	4180
2026-01-11 11:58:45.22	250.62	22.52	-26.6	-27.7	16.0	0.00e+00	0	42	0	645922816	14	4065
2026-01-11 11:58:48.21	251.38	22.66	-26.7	-27.8	16.0	0.00e+00	0	42	0	654311424	14	4095
2026-01-11 11:58:51.20	252.16	22.80	-26.8	-28.2	15.8	0.00e+00	0	42	0	663748608	14	4205
2026-01-11 11:58:54.18	252.94	22.94	-26.6	-27.6	16.1	0.00e+00	0	42	0	673185792	14	4046
2026-01-11 11:58:57.17	253.73	23.07	-26.7	-27.9	15.9	1.50e-06	0	42	0	682622976	14	4118
2026-01-11 11:59:00.16	254.52	23.19	-27.0	-28.5	15.6	0.00e+00	0	42	0	692060160	14	4286
2026-01-11 11:59:03.15	255.32	23.31	-26.8	-28.0	15.9	0.00e+00	0	42	0	701497344	14	4157
2026-01-11 11:59:06.13	256.12	23.43	-26.8	-28.2	15.8	6.10e-06	0	42	0	710934528	14	4193
2026-01-11 11:59:09.13	256.94	23.53	-26.9	-28.4	15.6	0.00e+00	0	42	0	720371712	14	4265
2026-01-11 11:59:12.11	257.75	23.64	-26.7	-27.8	15.9	5.30e-06	0	42	0	729808896	14	4106
2026-01-11 11:59:15.09	258.57	23.74	-26.7	-27.8	16.0	4.50e-06	0	42	0	739246080	14	4095
2026-01-11 11:59:18.07	259.40	23.83	-26.7	-27.8	16.0	0.00e+00	0	42	0	748683264	14	4099
2026-01-11 11:59:21.06	260.23	23.91	-26.7	-28.0	15.9	4.50e-06	0	42	0	757071872	14	4144
2026-01-11 11:59:24.05	261.06	23.99	-26.7	-27.9	16.0	1.50e-06	0	42	0	766509056	14	4121
2026-01-11 11:59:27.03	261.90	24.07	-26.5	-27.4	16.2	3.00e-06	0	42	0	775946240	14	3994
2026-01-11 11:59:30.03	262.75	24.14	-26.5	-27.3	16.2	3.80e-06	0	42	0	785383424	14	3980
2026-01-11 11:59:33.02	263.59	24.20	-26.4	-27.2	16.4	0.00e+00	0	42	0	794820608	14	3931
2026-01-11 11:59:35.99	264.44	24.25	-26.4	-27.1	16.3	1.50e-06	0	42	0	804257792	14	3932
2026-01-11 11:59:38.95	265.28	24.30	-26.3	-27.1	16.4	3.80e-06	0	42	0	813694976	14	3910
2026-01-11 11:59:41.93	266.13	24.35	-26.2	-27.3	16.5	7.00e-07	0	42	0	823132160	13	4073
2026-01-11 11:59:44.93	266.99	24.38	-26.2	-27.3	16.5	6.10e-06	0	42	0	832569344	13	4079
2026-01-11 11:59:47.91	267.85	24.41	-26.2	-27.2	16.6	4.50e-06	0	42	0	840957952	13	4035
2026-01-11 11:59:50.90	268.71	24.44	-26.4	-27.7	16.2	0.00e+00	0	42	0	850395136	13	4194
2026-01-11 11:59:53.90	269.57	24.45	-26.5	-27.9	16.1	2.20e-06	0	42	0	859832320	13	4247
2026-01-11 11:59:56.87	270.43	24.46	-26.6	-28.1	16.0	0.00e+00	0	42	0	869269504	13	4297
2026-01-11 11:59:59.84	271.28	24.47	-26.5	-27.9	16.2	0.00e+00	0	42	0	878706688	13	4229
2026-01-11 12:00:02.82	272.14	24.46	-26.2	-27.3	16.5	8.30e-06	0	42	0	888143872	13	4070
2026-01-11 12:00:05.78	273.00	24.45	-26.3	-27.5	16.4	6.10e-06	0	42	0	897581056	13	4141
2026-01-11 12:00:08.79	273.86	24.43	-26.4	-27.7	16.3	1.50e-06	0	42	0	907018240	13	4176
2026-01-11 12:00:11.80	274.73	24.41	-26.6	-28.2	16.0	2.20e-06	0	42	0	916455424	13	4314
2026-01-11 12:00:14.80	275.59	24.38	-26.7	-28.4	15.9	0.00e+00	0	42	0	925892608	13	4373
2026-01-11 12:00:17.79	276.44	24.34	-26.6	-28.1	16.1	0.00e+00	0	42	0	934281216	13	4282
2026-01-11 12:00:20.79	277.30	24.30	-26.8	-28.6	15.8	0.00e+00	0	42	0	943718400	13	4418
2026-01-11 12:00:23.79	278.16	24.25	-26.2	-27.2	16.6	0.00e+00	0	42	0	953155584	13	4059
2026-01-11 12:00:26.79	279.01	24.20	-26.2	-27.3	16.5	2.20e-06	0	42	0	962592768	13	4075
2026-01-11 12:00:29.79	279.85	24.13	-26.2	-27.3	16.6	0.00e+00	0	42	0	972029952	13	4061
2026-01-11 12:00:32.79	280.70	24.06	-26.5	-27.9	16.2	0.00e+00	0	42	0	981467136	13	4229
2026-01-11 12:00:35.80	281.54	23.99	-26.6	-28.0	16.1	0.00e+00	0	42	0	990904320	13	4266
2026-01-11 12:00:38.79	282.38	23.91	-26.4	-27.6	16.3	0.00e+00	0	42	0	1000341504	13	4160
2026-01-11 12:00:41.80	283.21	23.82	-26.4	-27.7	16.3	0.00e+00	0	42	0	1009778688	13	4183
2026-01-11 12:00:44.81	284.04	23.73	-26.2	-27.4	16.5	0.00e+00	0	42	0	1019215872	13	4089
2026-01-11 12:00:47.82	284.87	23.63	-26.3	-27.5	16.4	0.00e+00	0	42	0	1028653056	13	4127
2026-01-11 12:00:50.81	285.68	23.53	-26.2	-27.3	16.5	0.00e+00	0	42	0	1038090240	13	4080
2026-01-11 12:00:53.81	286.49	23.42	-26.4	-27.6	16.3	0.00e+00	0	42	0	1047527424	13	4154
2026-01-11 12:00:56.81	287.30	23.30	-26.4	-27.6	16.3	0.00e+00	0	42	0	1056964608	13	4155
2026-01-11 12:00:59.82	288.10	23.18	-26.3	-27.4	16.5	0.00e+00	0	42	0	1066401792	13	4106
2026-01-11 12:01:02.84	288.90	23.05	-26.2	-27.2	16.6	0.00e+00	0	42	0	1075838976	13	4042
2026-01-11 12:01:05.83	289.68	22.92	-26.3	-27.5	16.4	0.00e+00	0	42	0	1085276160	13	4121
2026-01-11 12:01:08.84	290.47	22.79	-26.4	-27.8	16.3	0.00e+00	0	42	0	1094713344	13	4211
2026-01-11 12:01:11.85	291.24	22.65	-26.4	-27.7	16.3	0.00e+00	0	42	0	1104150528	13	4190
2026-01-11 12:01:14.86	292.01	22.51	-26.5	-27.9	16.2	0.00e+00	0	42	0	1113587712	13	4232
2026-01-11 12:01:17.87	292.78	22.36	-26.5	-28.0	16.1	0.00e+00	0	42	0	1123024896	13	4249
2026-01-11 12:01:20.87	293.53	22.20	-26.7	-28.4	15.9	0.00e+00	0	42	0	1132462080	13	4376
2026-01-11 12:01:23.88	294.28	22.05	-26.7	-28.4	15.9	0.00e+00	0	42	0	1140850688	13	4378
2026-01-11 12:01:26.88	295.01	21.89	-26.9	-28.8	15.7	0.00e+00	0	42	0	1150287872	13	4489
2026-01-11 12:01:29.87	295.74	21.72	-27.0	-28.5	15.6	0.00e+00	0	42	0	1159725056	14	4296
2026-01-11 12:01:32.88	296.47	21.56	-27.0	-28.6	15.5	0.00e+00	0	42	0	1169162240	14	4310
2026-01-11 12:01:35.89	297.18	21.38	-26.6	-27.7	16.0	0.00e+00	0	42	0	1178599424	14	4070
2026-01-11 12:01:38.88	297.89	21.21	-26.8	-28.1	15.8	0.00e+00	0	42	0	1188036608	14	4175
2026-01-11 12:01:41.89	298.59	21.03	-26.9	-28.4	15.7	0.00e+00	0	42	0	1197473792	14	4258
2026-01-11 12:01:44.88	299.28	20.85	-26.8	-28.1	15.8	0.00e+00	0	42	0	1206910976	14	4178
2026-01-11 12:01:47.88	299.96	20.67	-26.5	-27.5	16.1	0.00e+00	0	42	0	1216348160	14	4023
2026-01-11 12:01:50.88	300.64	20.49	-26.5	-27.5	16.1	0.00e+00	0	42	0	1225785344	14	4023
2026-01-11 12:01:53.89	301.31	20.30	-26.8	-28.1	15.8	0.00e+00	0	42	0	1235222528	14	4174
2026-01-11 12:01:56.90	301.97	20.11	-26.7	-28.0	15.9	0.00e+00	0	42	0	1244659712	14	4140
2026-01-11 12:01:59.91	302.62	19.91	-26.7	-27.9	15.9	0.00e+00	0	42	0	1254096896	14	4123
2026-01-11 12:02:02.90	303.26	19.72	-26.7	-27.9	15.9	0.00e+00	0	42	0	1263534080	14	4125
2026-01-11 12:02:05.90	303.90	19.52	-26.9	-28.2	15.7	0.00e+00	0	42	0	1272971264	14	4215
2026-01-11 12:02:08.89	304.52	19.33	-26.9	-28.3	15.6	0.00e+00	0	42	0	1282408448	14	4248
2026-01-11 12:02:11.89	305.14	19.13	-26.9	-28.2	15.6	7.00e-07	0	42	0	1291845632	14	4217
2026-01-11 12:02:14.90	305.76	18.92	-27.0	-28.6	15.5	0.00e+00	0	42	0	1300234240	14	4303
2026-01-11 12:02:17.90	306.36	18.72	-26.9	-28.3	15.6	0.00e+00	0	42	0	1309671424	14	4235
2026-01-11 12:02:20.90	306.96	18.52	-27.1	-28.7	15.4	0.00e+00	0	42	0	1319108608	14	4338
2026-01-11 12:02:23.90	307.54	18.31	-27.0	-28.7	15.4	0.00e+00	0	42	0	1328545792	14	4342
2026-01-11 12:02:26.91	308.13	18.11	-27.0	-28.6	15.4	0.00e+00	0	42	0	1337982976	14	4332
2026-01-11 12:02:29.91	308.70	17.90	-27.0	-28.6	15.4	0.00e+00	0	42	0	1347420160	14	4325
2026-01-11 12:02:32.90	309.26	17.69	-26.9	-28.2	15.6	0.00e+00	0	42	0	1356857344	14	4224
2026-01-11 12:02:35.90	309.82	17.48	-27.0	-28.7	15.3	0.00e+00	0	42	0	1366294528	14	4354
2026-01-11 12:02:38.89	310.37	17.27	-27.1	-28.9	15.2	0.00e+00	0	42	0	1375731712	14	4404
2026-01-11 12:02:41.90	310.91	17.06	-27.1	-28.7	15.3	0.00e+00	0	42	0	1385168896	14	4364
2026-01-11 12:02:44.90	311.45	16.85	-27.1	-28.8	15.2	0.00e+00	0	42	0	1394606080	14	4393
2026-01-11 12:02:47.92	311.98	16.64	-27.2	-29.0	15.1	0.00e+00	0	42	0	1404043264	14	4450
2026-01-11 12:02:50.92	312.50	16.42	-27.1	-28.8	15.3	0.00e+00	0	42	0	1413480448	14	4375
2026-01-11 12:02:53.93	313.01	16.21	-27.0	-28.7	15.3	0.00e+00	0	42	0	1422917632	14	4345
2026-01-11 12:02:56.93	313.52	16.00	-27.0	-28.6	15.3	0.00e+00	0	42	0	1432354816	14	4322
2026-01-11 12:02:59.93	314.02	15.78	-27.1	-28.7	15.3	0.00e+00	0	42	0	1441792000	14	4364
2026-01-11 12:03:02.94	314.51	15.57	-27.0	-28.6	15.3	0.00e+00	0	42	0	1451229184	14	4313
2026-01-11 12:03:05.94	315.00	15.36	-27.2	-29.0	15.1	0.00e+00	0	42	0	1460666368	14	4443
2026-01-11 12:03:08.93	315.47	15.15	-27.4	-29.5	14.8	0.00e+00	0	42	0	1470103552	14	4578
2026-01-11 12:03:11.93	315.95	14.93	-27.3	-29.4	14.8	0.00e+00	0	42	0	1478492160	14	4557
2026-01-11 12:03:14.95	316.42	14.72	-27.5	-29.7	14.7	7.00e-07	0	42	0	1487929344	14	4639
2026-01-11 12:03:17.97	316.88	14.50	-27.6	-29.6	14.4	0.00e+00	0	42	0	1498415104	15	4508
2026-01-11 12:03:20.98	317.33	14.29	-27.7	-29.8	14.3	7.00e-07	0	42	0	1506803712	15	4557
2026-01-11 12:03:24.00	317.78	14.08	-27.7	-29.8	14.3	7.00e-07	0	42	0	1516240896	15	4559
2026-01-11 12:03:27.02	318.23	13.86	-27.8	-30.0	14.2	7.00e-07	0	42	0	1525678080	15	4616
2026-01-11 12:03:30.03	318.66	13.65	-27.7	-29.8	14.3	2.20e-06	0	42	0	1535115264	15	4558
2026-01-11 12:03:33.04	319.09	13.44	-27.6	-29.5	14.4	0.00e+00	0	42	0	1544552448	15	4484
2026-01-11 12:03:36.05	319.52	13.23	-27.5	-29.3	14.5	0.00e+00	0	42	0	1553989632	15	4425
2026-01-11 12:03:39.04	319.93	13.02	-27.7	-29.7	14.3	1.50e-06	0	42	0	1563426816	15	4550
2026-01-11 12:03:42.03	320.34	12.81	-27.9	-30.2	14.0	7.00e-07	0	42	0	1572864000	15	4709
2026-01-11 12:03:45.03	320.75	12.60	-28.2	-30.3	13.8	1.50e-06	0	42	0	1582301184	16	4598
2026-01-11 12:03:48.02	321.15	12.39	-28.1	-30.2	13.9	7.00e-07	0	42	0	1591738368	16	4566
2026-01-11 12:03:51.02	321.54	12.18	-28.3	-30.6	13.6	6.80e-06	0	42	0	1601175552	16	4705
2026-01-11 12:03:54.02	321.93	11.98	-28.1	-30.0	13.9	2.20e-06	0	42	0	1610612736	16	4523
2026-01-11 12:03:57.02	322.31	11.77	-28.1	-30.1	13.8	4.50e-06	0	42	0	1620049920	16	4543
2026-01-11 12:04:00.02	322.69	11.56	-28.1	-30.2	13.8	5.30e-06	0	42	0	1629487104	16	4583
2026-01-11 12:04:03.03	323.07	11.36	-28.2	-30.5	13.6	9.90e-06	0	42	0	1638924288	16	4660
2026-01-11 12:04:06.03	323.44	11.15	-28.3	-30.7	13.5	1.29e-05	0	42	0	1648361472	16	4739
2026-01-11 12:04:09.03	323.80	10.95	-28.2	-30.4	13.6	9.10e-06	0	42	0	1657798656	16	4656
2026-01-11 12:04:12.03	324.16	10.74	-28.3	-30.5	13.6	8.30e-06	0	42	0	1667235840	16	4682
2026-01-11 12:04:15.03	324.51	10.54	-28.3	-30.6	13.5	2.28e-05	0	42	0	1676673024	16	4703
2026-01-11 12:04:18.03	324.86	10.34	-28.5	-31.1	13.1	2.74e-05	0	42	0	1685061632	16	4873
2026-01-11 12:04:21.05	325.21	10.14	-28.3	-30.8	13.3	9.10e-06	0	42	0	1694498816	16	4760
2026-01-11 12:04:24.05	325.55	9.94	-28.5	-30.7	13.1	2.89e-05	0	42	0	1703936000	17	4649
2026-01-11 12:04:27.04	325.89	9.74	-28.8	-31.3	12.7	4.42e-05	0	42	0	1713373184	17	4848
2026-01-11 12:04:30.04	326.22	9.54	-28.3	-30.3	13.3	1.67e-05	0	42	0	1722810368	17	4503
2026-01-11 12:04:33.03	326.54	9.34	-28.3	-30.2	13.4	2.36e-05	0	42	0	1732247552	17	4487
2026-01-11 12:04:36.03	326.87	9.14	-28.4	-30.4	13.3	1.67e-05	0	42	0	1741684736	17	4538
2026-01-11 12:04:39.03	327.19	8.95	-28.4	-30.5	13.2	3.73e-05	0	42	0	1751121920	17	4587
2026-01-11 12:04:42.03	327.50	8.75	-28.4	-30.4	13.2	1.83e-05	0	42	0	1760559104	17	4542
2026-01-11 12:04:45.03	327.81	8.55	-28.3	-30.1	13.3	1.14e-05	0	42	0	1769996288	17	4464
2026-01-11 12:04:48.04	328.12	8.36	-28.2	-30.0	13.4	1.44e-05	0	42	0	1779433472	17	4434
2026-01-11 12:04:51.03	328.42	8.17	-28.5	-30.6	13.0	2.44e-05	0	42	0	1788870656	17	4616
2026-01-11 12:04:54.02	328.72	7.98	-28.5	-30.7	13.0	4.34e-05	0	42	0	1798307840	17	4642
2026-01-11 12:04:57.03	329.02	7.78	-28.6	-30.9	12.8	4.19e-05	0	42	0	1807745024	17	4701
2026-01-11 12:05:00.04	329.31	7.59	-28.7	-31.2	12.6	1.04e-04	0	42	0	1817182208	17	4821
2026-01-11 12:05:03.04	329.60	7.40	-28.7	-31.2	12.6	9.99e-05	0	42	0	1826619392	17	4816
2026-01-11 12:05:06.05	329.89	7.21	-28.7	-31.4	12.4	1.48e-04	0	42	0	1836056576	17	4885
2026-01-11 12:05:09.04	330.17	7.02	-33.0	-44.6	3.8	1.49e+00	0	42	104	1843396608	26	13681

#Closed at: 2026-01-11 12:05:11
#Recorded file [1843 MB]: D:/data/31010_260111_145518.dat