passes_logs/2026/01/15/R2.0S_Moscow/R2.0S_Moscow__20260115_120414_FENGYUN_3D_rec.log

#Pass ID: 20260115_120414_FENGYUN 3D
#Satellite: FENGYUN 3D
#Configuration: FENGYUN 3D
#almurnet v.1.7.20251203
#Start time: 2026-01-15 12:09:57

#Version: 2.2.20231116
#Station: R2.0S_Moscow
#Location: 37.707566 lon 55.798166 lat
#TLE: 1 43010U 17072A   26014.22831475  .00000226  00000+0  12883-3 0  9994
#TLE: 2 43010  98.9934 346.0326 0002309 109.2304 250.9121 14.19696287423146

#Time	Az	El	Level	Level2	SNR	BER	BlckErr	Temp	State	Recorded	gain1	gain2
2026-01-15 12:09:57.04	171.97	49.98	-46.1	-64.7	3.8	7.45e-01	0	60	0	0	62	33270
2026-01-15 12:10:00.06	172.31	51.00	-45.2	-56.8	3.8	8.46e-01	0	61	104	0	62	13352
2026-01-15 12:10:03.09	172.66	52.05	-45.1	-56.8	3.8	8.46e-01	0	61	104	0	62	13397
2026-01-15 12:10:06.12	173.04	53.12	-45.1	-56.7	3.8	8.46e-01	0	61	104	0	61	14045
2026-01-15 12:10:09.16	173.46	54.21	-45.1	-56.8	3.8	8.46e-01	0	61	104	0	61	14125
2026-01-15 12:10:12.19	173.90	55.32	-45.1	-56.8	3.8	8.46e-01	0	61	104	0	61	14133
2026-01-15 12:10:15.22	174.38	56.46	-45.1	-56.8	3.8	8.46e-01	0	61	104	0	61	14137
2026-01-15 12:10:18.25	174.89	57.61	-45.1	-56.8	3.8	8.46e-01	0	61	104	0	61	14094
2026-01-15 12:10:21.28	175.46	58.79	-45.1	-56.7	3.8	8.46e-01	0	61	104	0	61	14014
2026-01-15 12:10:24.31	176.07	59.98	-45.1	-56.6	3.8	8.48e-01	0	61	104	0	61	13829
2026-01-15 12:10:27.35	176.75	61.21	-45.1	-56.7	3.8	8.46e-01	0	61	104	0	61	13889
2026-01-15 12:10:30.38	177.49	62.44	-45.1	-56.8	3.8	8.47e-01	0	61	104	0	61	14053
2026-01-15 12:10:33.41	178.32	63.70	-45.1	-56.7	3.8	8.46e-01	0	61	104	0	61	13949
2026-01-15 12:10:36.44	179.23	64.97	-45.0	-56.4	3.8	8.47e-01	0	61	104	0	61	13423
2026-01-15 12:10:39.47	180.26	66.26	-44.9	-54.9	3.8	8.45e-01	0	61	104	0	61	11298
2026-01-15 12:10:42.50	181.41	67.56	-44.8	-54.6	3.8	8.46e-01	0	61	104	0	61	10943
2026-01-15 12:10:45.53	182.72	68.87	-40.8	-43.5	11.7	1.91e-03	0	61	0	9437184	53	4862
2026-01-15 12:10:48.56	184.22	70.18	-43.7	-49.2	6.3	1.19e-01	0	61	0	26214400	57	7403
2026-01-15 12:10:51.59	185.94	71.50	-44.4	-49.8	4.7	4.82e-01	0	61	104	41943040	58	7542
2026-01-15 12:10:54.62	187.95	72.82	-39.5	-41.8	13.8	0.00e+00	0	61	0	49283072	49	4996
2026-01-15 12:10:57.65	190.30	74.13	-35.6	-37.0	17.9	0.00e+00	0	61	0	66060288	42	4307
2026-01-15 12:11:00.67	193.08	75.42	-34.5	-35.8	19.0	0.00e+00	0	61	0	82837504	41	3970
2026-01-15 12:11:03.70	196.42	76.69	-34.1	-35.4	19.4	0.00e+00	0	61	0	100663296	40	4027
2026-01-15 12:11:06.73	200.48	77.92	-33.8	-35.1	19.7	0.00e+00	0	61	0	117440512	39	4101
2026-01-15 12:11:09.76	205.44	79.08	-33.8	-35.1	19.7	0.00e+00	0	61	0	134217728	39	4107
2026-01-15 12:11:12.79	211.56	80.15	-33.3	-34.5	20.2	0.00e+00	0	61	0	152043520	38	4081
2026-01-15 12:11:15.82	219.08	81.08	-33.6	-34.9	19.8	0.00e+00	0	61	0	168820736	38	4274
2026-01-15 12:11:18.84	228.17	81.84	-33.8	-35.0	19.7	0.00e+00	0	61	0	185597952	38	4333
2026-01-15 12:11:21.87	238.83	82.36	-33.6	-34.9	19.8	0.00e+00	0	61	0	202375168	38	4270
2026-01-15 12:11:24.90	250.59	82.58	-33.6	-34.9	19.8	0.00e+00	0	61	0	219152384	38	4244
2026-01-15 12:11:27.94	262.59	82.48	-33.6	-34.9	19.8	0.00e+00	0	61	0	236978176	38	4280
2026-01-15 12:11:30.97	273.77	82.08	-33.4	-34.7	20.0	0.00e+00	0	61	0	253755392	38	4157
2026-01-15 12:11:34.00	283.54	81.41	-33.5	-34.8	19.9	0.00e+00	0	61	0	270532608	38	4218
2026-01-15 12:11:37.03	291.69	80.54	-33.6	-34.8	19.9	0.00e+00	0	61	0	287309824	38	4230
2026-01-15 12:11:40.06	298.34	79.52	-34.0	-35.3	19.4	0.00e+00	0	61	0	305135616	38	4482
2026-01-15 12:11:43.09	303.74	78.40	-34.0	-35.3	19.4	0.00e+00	0	61	0	321912832	38	4488
2026-01-15 12:11:46.12	308.13	77.20	-34.0	-35.2	19.5	0.00e+00	0	61	0	338690048	38	4437
2026-01-15 12:11:49.15	311.74	75.95	-34.6	-36.0	18.8	0.00e+00	0	61	0	356515840	39	4572
2026-01-15 12:11:52.18	314.74	74.66	-34.8	-36.2	18.6	0.00e+00	0	61	0	373293056	40	4437
2026-01-15 12:11:55.20	317.24	73.36	-34.8	-36.2	18.7	0.00e+00	0	61	0	390070272	40	4397
2026-01-15 12:11:58.23	319.38	72.05	-34.6	-35.9	18.9	0.00e+00	0	61	0	406847488	40	4280
2026-01-15 12:12:01.26	321.21	70.73	-34.9	-36.4	18.4	2.20e-06	0	61	0	423624704	40	4515
2026-01-15 12:12:04.29	322.79	69.41	-35.1	-36.6	18.3	0.00e+00	0	61	0	441450496	40	4605
2026-01-15 12:12:07.32	324.17	68.10	-34.9	-36.4	18.4	0.00e+00	0	61	0	458227712	40	4524
2026-01-15 12:12:10.35	325.38	66.80	-35.0	-36.4	18.5	0.00e+00	0	61	0	475004928	40	4529
2026-01-15 12:12:13.37	326.45	65.52	-35.0	-36.4	18.4	0.00e+00	0	61	0	491782144	41	4268
2026-01-15 12:12:16.40	327.41	64.24	-35.5	-37.0	18.0	0.00e+00	0	61	0	509607936	41	4551
2026-01-15 12:12:19.43	328.27	62.99	-35.7	-37.2	17.8	0.00e+00	0	61	0	526385152	42	4414
2026-01-15 12:12:22.46	329.05	61.74	-35.7	-37.1	17.9	0.00e+00	0	61	0	543162368	42	4379
2026-01-15 12:12:25.49	329.75	60.52	-35.7	-37.2	17.8	0.00e+00	0	61	0	560988160	42	4402
2026-01-15 12:12:28.52	330.39	59.32	-36.3	-37.9	17.1	0.00e+00	0	61	0	577765376	43	4511
2026-01-15 12:12:31.55	330.97	58.14	-37.1	-38.7	16.5	0.00e+00	0	61	0	594542592	44	4690
2026-01-15 12:12:34.58	331.51	56.98	-36.5	-38.0	17.1	0.00e+00	0	61	0	611319808	45	4081
2026-01-15 12:12:37.60	332.00	55.84	-37.2	-38.9	16.3	0.00e+00	0	61	0	628097024	45	4539
2026-01-15 12:12:40.63	332.46	54.72	-36.5	-38.0	17.1	0.00e+00	0	61	0	645922816	45	4096
2026-01-15 12:12:43.66	332.88	53.63	-37.1	-38.7	16.7	0.00e+00	0	61	0	662700032	44	4684
2026-01-15 12:12:46.69	333.28	52.55	-37.2	-38.7	16.7	0.00e+00	0	61	0	679477248	45	4429
2026-01-15 12:12:49.72	333.64	51.50	-37.1	-38.7	16.7	0.00e+00	0	61	0	696254464	45	4410
2026-01-15 12:12:52.75	333.99	50.47	-36.5	-37.9	17.4	0.00e+00	0	61	0	714080256	45	4043
2026-01-15 12:12:55.77	334.31	49.47	-36.1	-37.5	17.9	0.00e+00	0	61	0	730857472	44	4067
2026-01-15 12:12:58.80	334.61	48.48	-36.0	-37.4	18.0	0.00e+00	0	61	0	747634688	44	4005
2026-01-15 12:13:01.83	334.89	47.51	-36.2	-37.6	17.8	0.00e+00	0	61	0	764411904	44	4144
2026-01-15 12:13:04.85	335.16	46.57	-36.3	-37.7	17.6	0.00e+00	0	61	0	782237696	44	4185
2026-01-15 12:13:07.88	335.41	45.65	-36.2	-37.6	17.8	0.00e+00	0	61	0	799014912	44	4114
2026-01-15 12:13:10.90	335.65	44.75	-36.0	-37.3	18.0	0.00e+00	0	61	0	815792128	44	4004
2026-01-15 12:13:13.93	335.88	43.86	-35.6	-36.9	18.3	0.00e+00	0	61	0	832569344	43	4028
2026-01-15 12:13:16.96	336.10	43.00	-35.7	-37.0	18.2	0.00e+00	0	61	0	850395136	43	4086
2026-01-15 12:13:19.99	336.30	42.15	-35.8	-37.2	18.0	0.00e+00	0	61	0	867172352	43	4166
2026-01-15 12:13:23.01	336.49	41.32	-35.7	-37.0	18.1	0.00e+00	0	61	0	883949568	43	4086
2026-01-15 12:13:26.04	336.68	40.52	-35.6	-36.9	18.2	0.00e+00	0	61	0	900726784	43	4048
2026-01-15 12:13:29.06	336.86	39.73	-35.7	-37.0	18.1	0.00e+00	0	61	0	917504000	43	4082
2026-01-15 12:13:32.09	337.03	38.95	-35.5	-36.8	18.4	0.00e+00	0	61	0	935329792	43	3980
2026-01-15 12:13:35.11	337.19	38.20	-35.5	-36.8	18.4	0.00e+00	0	61	0	952107008	42	4204
2026-01-15 12:13:38.14	337.35	37.46	-35.5	-36.8	18.3	0.00e+00	0	61	0	968884224	42	4229
2026-01-15 12:13:41.17	337.50	36.73	-35.4	-36.8	18.3	0.00e+00	0	61	0	985661440	42	4196
2026-01-15 12:13:44.19	337.64	36.03	-35.6	-36.9	18.2	0.00e+00	0	61	0	1003487232	42	4270
2026-01-15 12:13:47.22	337.78	35.33	-35.9	-37.3	17.8	0.00e+00	0	61	0	1020264448	42	4485
2026-01-15 12:13:50.25	337.91	34.65	-36.0	-37.4	17.7	0.00e+00	0	61	0	1037041664	42	4540
2026-01-15 12:13:53.28	338.04	33.99	-35.9	-37.3	17.8	0.00e+00	0	61	0	1053818880	42	4475
2026-01-15 12:13:56.31	338.16	33.34	-35.8	-37.2	17.9	0.00e+00	0	61	0	1071644672	42	4419
2026-01-15 12:13:59.33	338.28	32.70	-35.8	-37.2	17.9	0.00e+00	0	61	0	1088421888	42	4407
2026-01-15 12:14:02.36	338.39	32.08	-36.0	-37.4	17.7	0.00e+00	0	61	0	1105199104	42	4517
2026-01-15 12:14:05.39	338.51	31.47	-36.1	-37.5	17.5	0.00e+00	0	61	0	1121976320	42	4595
2026-01-15 12:14:08.42	338.61	30.87	-36.2	-37.6	17.4	0.00e+00	0	61	0	1139802112	42	4632
2026-01-15 12:14:11.45	338.72	30.28	-36.1	-37.6	17.5	0.00e+00	0	61	0	1156579328	42	4606
2026-01-15 12:14:14.48	338.82	29.71	-36.1	-37.5	17.5	0.00e+00	0	61	0	1173356544	42	4564
2026-01-15 12:14:17.51	338.91	29.14	-36.0	-37.4	17.6	0.00e+00	0	61	0	1190133760	42	4510
2026-01-15 12:14:20.54	339.01	28.59	-35.9	-37.3	17.6	0.00e+00	0	61	0	1207959552	42	4488
2026-01-15 12:14:23.57	339.10	28.05	-35.9	-37.3	17.6	0.00e+00	0	61	0	1224736768	42	4490
2026-01-15 12:14:26.60	339.19	27.52	-35.9	-37.3	17.6	0.00e+00	0	61	0	1241513984	42	4483
2026-01-15 12:14:29.63	339.28	26.99	-35.8	-37.3	17.6	0.00e+00	0	61	0	1258291200	42	4449
2026-01-15 12:14:32.65	339.36	26.48	-35.8	-37.2	17.6	0.00e+00	0	61	0	1276116992	42	4422
2026-01-15 12:14:35.68	339.44	25.98	-35.8	-37.2	17.6	0.00e+00	0	61	0	1292894208	42	4402
2026-01-15 12:14:38.70	339.52	25.49	-35.9	-37.3	17.4	0.00e+00	0	61	0	1309671424	42	4454
2026-01-15 12:14:41.73	339.60	25.01	-36.0	-37.4	17.2	0.00e+00	0	61	0	1326448640	42	4537
2026-01-15 12:14:44.75	339.68	24.53	-36.2	-37.7	16.9	0.00e+00	0	61	0	1344274432	43	4395
2026-01-15 12:14:47.78	339.75	24.07	-36.4	-38.0	16.5	0.00e+00	0	61	0	1361051648	43	4552
2026-01-15 12:14:50.81	339.82	23.61	-36.6	-38.3	16.2	0.00e+00	0	61	0	1377828864	43	4718
2026-01-15 12:14:53.84	339.89	23.16	-37.0	-38.7	15.8	0.00e+00	0	61	0	1394606080	44	4657
2026-01-15 12:14:56.86	339.96	22.72	-37.0	-38.7	15.7	0.00e+00	0	61	0	1411383296	44	4669
2026-01-15 12:14:59.88	340.03	22.28	-36.5	-38.2	15.9	0.00e+00	0	61	0	1429209088	44	4398
2026-01-15 12:15:02.88	340.10	21.86	-36.9	-38.8	15.0	0.00e+00	0	61	0	1445986304	44	4709
2026-01-15 12:15:05.91	340.16	21.44	-36.4	-38.1	15.4	0.00e+00	0	61	0	1462763520	44	4365
2026-01-15 12:15:08.94	340.22	21.02	-36.4	-38.3	15.0	0.00e+00	0	61	0	1479540736	44	4446
2026-01-15 12:15:11.97	340.28	20.62	-38.0	-40.7	12.3	9.84e-05	0	61	0	1496317952	46	5225
2026-01-15 12:15:15.00	340.34	20.22	-40.4	-45.5	6.9	1.29e-01	0	61	0	1514143744	51	6862
2026-01-15 12:15:18.03	340.40	19.82	-41.3	-50.9	3.9	8.41e-01	0	61	104	1519386624	53	11320
2026-01-15 12:15:21.06	340.46	19.43	-41.4	-52.6	3.8	8.47e-01	0	61	104	1519386624	53	13842
2026-01-15 12:15:24.09	340.52	19.05	-41.4	-52.9	3.8	8.45e-01	0	61	104	1519386624	53	14212
2026-01-15 12:15:27.12	340.57	18.67	-41.3	-52.8	3.8	8.47e-01	0	61	104	1519386624	53	14085
2026-01-15 12:15:30.15	340.63	18.30	-41.4	-52.2	3.8	8.45e-01	0	61	104	1519386624	53	13248
2026-01-15 12:15:33.18	340.68	17.94	-41.1	-52.6	3.8	8.46e-01	0	61	104	1519386624	53	13878
2026-01-15 12:15:36.20	340.74	17.58	-40.6	-52.3	3.8	8.47e-01	0	61	104	1519386624	53	13327
2026-01-15 12:15:39.23	340.79	17.22	-40.6	-52.3	3.8	8.46e-01	0	61	104	1519386624	53	13386
2026-01-15 12:15:42.26	340.84	16.87	-40.5	-52.4	3.8	8.45e-01	0	61	104	1519386624	52	14292
2026-01-15 12:15:45.29	340.89	16.53	-41.0	-52.6	3.8	8.46e-01	0	61	104	1519386624	52	14690
2026-01-15 12:15:48.32	340.94	16.19	-40.7	-52.7	3.8	8.45e-01	0	61	104	1519386624	52	14735
2026-01-15 12:15:51.35	340.99	15.85	-40.5	-52.5	3.8	8.46e-01	0	61	104	1519386624	52	14486
2026-01-15 12:15:54.38	341.03	15.52	-40.5	-52.6	3.8	8.46e-01	0	61	104	1519386624	52	14585
2026-01-15 12:15:57.41	341.08	15.20	-40.5	-52.1	3.8	8.46e-01	0	61	104	1519386624	52	13862
2026-01-15 12:16:00.43	341.13	14.88	-40.6	-52.3	3.8	8.45e-01	0	61	104	1519386624	52	14133
2026-01-15 12:16:03.47	341.17	14.56	-40.5	-52.3	3.8	8.47e-01	0	61	104	1519386624	52	14050
2026-01-15 12:16:06.50	341.22	14.24	-40.6	-52.3	3.8	8.46e-01	0	61	104	1519386624	52	14201
2026-01-15 12:16:09.53	341.26	13.93	-40.7	-52.5	3.8	8.45e-01	0	61	104	1519386624	52	14417
2026-01-15 12:16:12.56	341.30	13.63	-40.5	-52.3	3.8	8.47e-01	0	61	104	1519386624	52	14060
2026-01-15 12:16:15.59	341.35	13.33	-40.4	-52.1	3.8	8.45e-01	0	61	104	1519386624	52	13820
2026-01-15 12:16:18.62	341.39	13.03	-40.3	-52.1	3.8	8.45e-01	0	61	104	1519386624	52	13797
2026-01-15 12:16:21.65	341.43	12.73	-40.4	-52.1	3.8	8.47e-01	0	61	104	1519386624	52	13798
2026-01-15 12:16:24.67	341.47	12.44	-40.4	-52.1	3.8	8.46e-01	0	61	104	1519386624	52	13851
2026-01-15 12:16:27.70	341.51	12.16	-40.6	-52.3	3.8	8.46e-01	0	62	104	1519386624	52	14103
2026-01-15 12:16:30.73	341.55	11.87	-40.4	-52.1	3.8	8.46e-01	0	61	104	1519386624	52	13805
2026-01-15 12:16:33.76	341.59	11.59	-40.5	-52.3	3.8	8.47e-01	0	61	104	1519386624	52	14149
2026-01-15 12:16:36.79	341.63	11.31	-40.5	-52.1	3.8	8.45e-01	0	61	104	1519386624	52	13857
2026-01-15 12:16:39.81	341.67	11.04	-40.2	-51.9	3.8	8.46e-01	0	61	104	1519386624	52	13569
2026-01-15 12:16:42.84	341.70	10.77	-40.4	-52.0	3.8	8.47e-01	0	61	104	1519386624	52	13724
2026-01-15 12:16:45.87	341.74	10.50	-40.3	-52.0	3.8	8.46e-01	0	61	104	1519386624	52	13620
2026-01-15 12:16:48.90	341.78	10.23	-40.2	-52.0	3.8	8.46e-01	0	61	104	1519386624	52	13656
2026-01-15 12:16:51.93	341.82	9.97	-40.5	-52.1	3.8	8.47e-01	0	61	104	1519386624	52	13861
2026-01-15 12:16:54.96	341.85	9.71	-40.2	-51.9	3.8	8.46e-01	0	61	104	1519386624	52	13544
2026-01-15 12:16:57.99	341.89	9.45	-40.5	-52.1	3.8	8.47e-01	0	61	104	1519386624	52	13765
2026-01-15 12:17:01.01	341.92	9.20	-40.5	-52.1	3.8	8.45e-01	0	61	104	1519386624	52	13861
2026-01-15 12:17:04.04	341.96	8.95	-40.3	-51.9	3.8	8.46e-01	0	61	104	1519386624	52	13557
2026-01-15 12:17:07.07	341.99	8.70	-40.5	-52.0	3.8	8.46e-01	0	61	104	1519386624	52	13657
2026-01-15 12:17:10.10	342.03	8.45	-40.3	-51.9	3.8	8.46e-01	0	61	104	1519386624	52	13568
2026-01-15 12:17:13.13	342.06	8.20	-40.3	-51.9	3.8	8.45e-01	0	61	104	1519386624	52	13513
2026-01-15 12:17:16.16	342.09	7.96	-40.4	-52.2	3.8	8.45e-01	0	61	104	1519386624	52	13937
2026-01-15 12:17:19.19	342.13	7.72	-44.8	-56.5	3.8	8.46e-01	0	61	104	1519386624	60	14512
2026-01-15 12:17:22.22	342.16	7.48	-45.2	-56.9	3.8	8.46e-01	0	61	104	1519386624	60	15112
2026-01-15 12:17:25.25	342.19	7.25	-45.2	-56.9	3.8	8.46e-01	0	61	104	1519386624	61	14293
2026-01-15 12:17:28.28	342.22	7.01	-45.1	-56.9	3.8	8.46e-01	0	61	104	1519386624	61	14240
2026-01-15 12:17:31.31	342.26	6.78	-45.1	-56.8	3.8	8.46e-01	0	61	104	1519386624	61	14058
2026-01-15 12:17:34.34	342.29	6.55	-45.1	-56.7	3.8	8.47e-01	0	61	104	1519386624	61	14030
2026-01-15 12:17:37.36	342.32	6.33	-45.1	-56.7	3.8	8.46e-01	0	61	104	1519386624	61	14039
2026-01-15 12:17:40.39	342.35	6.10	-45.1	-56.7	3.8	8.46e-01	0	61	104	1519386624	61	13939
2026-01-15 12:17:43.42	342.38	5.88	-45.1	-56.7	3.8	8.45e-01	0	61	104	1519386624	60	14864
2026-01-15 12:17:46.45	342.41	5.66	-45.0	-56.8	3.8	8.47e-01	0	61	104	1519386624	60	14887
2026-01-15 12:17:49.47	342.44	5.44	-45.1	-56.8	3.8	8.46e-01	0	61	104	1519386624	60	14913
2026-01-15 12:17:52.50	342.47	5.22	-45.1	-56.7	3.8	8.47e-01	0	61	104	1519386624	60	14858
2026-01-15 12:17:55.53	342.50	5.00	-45.1	-56.8	3.8	8.45e-01	0	61	104	1519386624	60	14882
2026-01-15 12:17:58.56	342.53	4.79	-45.1	-56.7	3.8	8.46e-01	0	61	104	1519386624	60	14855
2026-01-15 12:18:01.59	342.56	4.58	-45.0	-56.7	3.8	8.47e-01	0	61	104	1519386624	60	14826
2026-01-15 12:18:04.62	342.59	4.37	-45.1	-56.7	3.8	8.45e-01	0	61	104	1519386624	60	14841
2026-01-15 12:18:07.65	342.62	4.16	-45.1	-56.8	3.8	8.46e-01	0	61	104	1519386624	60	14882
2026-01-15 12:18:10.68	342.65	3.95	-45.1	-56.7	3.8	8.46e-01	0	61	104	1519386624	60	14773
2026-01-15 12:18:13.70	342.68	3.74	-45.1	-56.7	3.8	8.45e-01	0	61	104	1519386624	60	14879
2026-01-15 12:18:16.73	342.70	3.54	-45.1	-56.7	3.8	8.46e-01	0	61	104	1519386624	60	14793
2026-01-15 12:18:19.77	342.73	3.34	-45.1	-56.7	3.8	8.46e-01	0	61	104	1519386624	60	14836
2026-01-15 12:18:22.79	342.76	3.13	-45.1	-56.7	3.8	8.47e-01	0	61	104	1519386624	60	14766
2026-01-15 12:18:25.83	342.79	2.93	-45.1	-56.7	3.8	8.46e-01	0	61	104	1519386624	60	14823
2026-01-15 12:18:28.86	342.82	2.74	-45.1	-56.7	3.8	8.46e-01	0	61	104	1519386624	60	14859
2026-01-15 12:18:31.89	342.84	2.54	-45.1	-56.7	3.8	8.47e-01	0	61	104	1519386624	60	14868
2026-01-15 12:18:34.92	342.87	2.34	-45.1	-56.7	3.8	8.46e-01	0	61	104	1519386624	60	14870
2026-01-15 12:18:37.95	342.90	2.15	-45.1	-56.7	3.8	8.46e-01	0	61	104	1519386624	60	14871

#Closed at: 2026-01-15 12:18:40
#Recorded file [1519 MB]: D:/lorett/data/31039_260115_150956.dat