passes_logs/2026/01/15/R2.0S_Moscow/R2.0S_Moscow__20260115_035421_FENGYUN_3D_rec.log

#Pass ID: 20260115_035421_FENGYUN 3D
#Satellite: FENGYUN 3D
#Configuration: FENGYUN 3D
#almurnet v.1.7.20251203
#Start time: 2026-01-15 03:54:21

#Version: 2.2.20231116
#Station: R2.0S_Moscow
#Location: 37.707566 lon 55.798166 lat
#TLE: 1 43010U 17072A   26014.22831475  .00000226  00000+0  12883-3 0  9994
#TLE: 2 43010  98.9934 346.0326 0002309 109.2304 250.9121 14.19696287423146

#Time	Az	El	Level	Level2	SNR	BER	BlckErr	Temp	State	Recorded	gain1	gain2
2026-01-15 03:54:21.39	9.54	1.98	-39.3	-51.5	3.8	8.46e-01	0	48	0	0	50	14528
2026-01-15 03:54:24.40	9.29	2.14	-39.3	-51.5	3.8	8.45e-01	0	49	104	0	49	15335
2026-01-15 03:54:27.44	9.05	2.29	-39.3	-51.5	3.8	8.47e-01	0	49	104	0	49	15324
2026-01-15 03:54:30.47	8.80	2.45	-39.3	-51.5	3.8	8.47e-01	0	49	104	0	49	15317
2026-01-15 03:54:33.50	8.54	2.61	-39.3	-51.5	3.8	8.46e-01	0	49	104	0	49	15320
2026-01-15 03:54:36.53	8.29	2.76	-39.3	-51.5	3.8	8.47e-01	0	49	104	0	49	15360
2026-01-15 03:54:39.57	8.03	2.92	-39.3	-51.5	3.8	8.45e-01	0	50	104	0	49	15279
2026-01-15 03:54:42.60	7.76	3.08	-39.3	-51.5	3.8	8.45e-01	0	50	104	0	49	15288
2026-01-15 03:54:45.63	7.50	3.24	-39.3	-51.5	3.8	8.47e-01	0	50	104	0	49	15290
2026-01-15 03:54:48.66	7.23	3.40	-39.3	-51.5	3.8	8.47e-01	0	50	104	0	49	15336
2026-01-15 03:54:51.69	6.96	3.56	-39.3	-51.5	3.8	8.46e-01	0	50	104	0	49	15293
2026-01-15 03:54:54.73	6.69	3.72	-39.3	-51.5	3.8	8.45e-01	0	51	104	0	49	15281
2026-01-15 03:54:57.76	6.41	3.88	-39.3	-51.5	3.8	8.47e-01	0	51	104	0	49	15306
2026-01-15 03:55:00.79	6.13	4.04	-39.3	-51.5	3.8	8.46e-01	0	51	104	0	49	15295
2026-01-15 03:55:03.82	5.84	4.20	-39.3	-51.5	3.8	8.46e-01	0	51	104	0	49	15304
2026-01-15 03:55:06.85	5.56	4.36	-39.3	-51.5	3.8	8.46e-01	0	51	104	0	49	15319
2026-01-15 03:55:09.88	5.27	4.52	-39.3	-51.5	3.8	8.46e-01	0	52	104	0	49	15277
2026-01-15 03:55:12.91	4.97	4.68	-39.3	-51.5	3.8	8.46e-01	0	52	104	0	49	15292
2026-01-15 03:55:15.94	4.68	4.84	-39.3	-51.5	3.8	8.46e-01	0	52	104	0	49	15292
2026-01-15 03:55:18.96	4.38	5.01	-39.3	-51.5	3.8	8.46e-01	0	52	104	0	49	15320
2026-01-15 03:55:21.99	4.07	5.17	-39.3	-51.5	3.8	8.48e-01	0	52	104	0	49	15235
2026-01-15 03:55:25.02	3.77	5.33	-39.3	-51.5	3.8	8.45e-01	0	52	104	0	49	15304
2026-01-15 03:55:28.04	3.46	5.49	-39.3	-51.5	3.8	8.46e-01	0	52	104	0	49	15330
2026-01-15 03:55:31.07	3.14	5.65	-39.3	-51.5	3.8	8.46e-01	0	52	104	0	49	15333
2026-01-15 03:55:34.10	2.82	5.82	-39.3	-51.5	3.8	8.45e-01	0	53	104	0	49	15300
2026-01-15 03:55:37.13	2.50	5.98	-39.3	-51.5	3.8	8.46e-01	0	53	104	0	49	15293
2026-01-15 03:55:40.16	2.18	6.14	-39.3	-51.5	3.8	8.46e-01	0	53	104	0	49	15295
2026-01-15 03:55:43.19	1.85	6.31	-39.3	-51.5	3.8	8.47e-01	0	53	104	0	49	15308
2026-01-15 03:55:46.22	1.51	6.47	-39.3	-51.5	3.8	8.47e-01	0	53	104	0	49	15272
2026-01-15 03:55:49.25	1.18	6.63	-39.3	-51.5	3.8	8.47e-01	0	53	104	0	49	15329
2026-01-15 03:55:52.28	0.84	6.80	-39.3	-51.5	3.8	8.46e-01	0	53	104	0	49	15341
2026-01-15 03:55:55.31	0.49	6.96	-39.3	-51.5	3.8	8.47e-01	0	54	104	0	49	15274
2026-01-15 03:55:58.34	0.14	7.13	-39.3	-51.5	3.8	8.46e-01	0	53	104	0	49	15279
2026-01-15 03:56:01.37	359.79	7.29	-39.3	-51.5	3.8	8.46e-01	0	53	104	0	49	15364
2026-01-15 03:56:04.40	359.43	7.45	-39.3	-51.5	3.8	8.46e-01	0	54	104	0	49	15285
2026-01-15 03:56:07.43	359.07	7.62	-39.3	-51.5	3.8	8.46e-01	0	54	104	0	49	15307
2026-01-15 03:56:10.47	358.70	7.78	-39.3	-51.5	3.8	8.46e-01	0	54	104	0	49	15304
2026-01-15 03:56:13.50	358.33	7.94	-39.3	-51.5	3.8	8.46e-01	0	54	104	0	49	15281
2026-01-15 03:56:16.53	357.96	8.11	-39.5	-51.6	3.8	8.46e-01	0	54	104	0	49	15491
2026-01-15 03:56:19.56	357.58	8.27	-39.5	-51.7	3.8	8.46e-01	0	54	104	0	50	14738
2026-01-15 03:56:22.59	357.20	8.44	-39.7	-51.7	3.8	8.47e-01	0	54	104	0	50	14777
2026-01-15 03:56:25.62	356.81	8.60	-39.7	-51.6	3.8	8.46e-01	0	54	104	0	50	14685
2026-01-15 03:56:28.65	356.42	8.76	-39.6	-51.7	3.8	8.45e-01	0	54	104	0	50	14744
2026-01-15 03:56:31.68	356.02	8.92	-39.5	-51.7	3.8	8.46e-01	0	55	104	0	50	14724
2026-01-15 03:56:34.71	355.62	9.09	-39.9	-51.8	3.8	8.46e-01	0	54	104	0	50	14882
2026-01-15 03:56:37.74	355.22	9.25	-39.8	-51.7	3.8	8.45e-01	0	55	104	0	50	14806
2026-01-15 03:56:40.77	354.81	9.41	-40.1	-51.9	3.8	8.47e-01	0	55	104	0	50	15132
2026-01-15 03:56:43.79	354.39	9.57	-40.0	-51.8	3.8	8.47e-01	0	55	104	0	51	14139
2026-01-15 03:56:46.82	353.97	9.73	-40.3	-52.0	3.8	8.45e-01	0	55	104	0	51	14482
2026-01-15 03:56:49.85	353.55	9.89	-40.2	-51.9	3.8	8.47e-01	0	55	104	0	51	14331
2026-01-15 03:56:52.88	353.12	10.05	-40.4	-52.2	3.8	8.46e-01	0	55	104	0	51	14721
2026-01-15 03:56:55.90	352.69	10.21	-40.4	-52.2	3.8	8.46e-01	0	55	104	0	51	14768
2026-01-15 03:56:58.93	352.25	10.37	-40.4	-52.1	3.8	8.47e-01	0	55	104	0	51	14695
2026-01-15 03:57:01.96	351.80	10.53	-40.3	-52.1	3.8	8.46e-01	0	55	104	0	51	14666
2026-01-15 03:57:04.99	351.35	10.69	-40.6	-52.3	3.8	8.46e-01	0	55	104	0	52	14088
2026-01-15 03:57:08.02	350.90	10.84	-40.3	-52.1	3.8	8.47e-01	0	55	104	0	52	13760
2026-01-15 03:57:11.05	350.44	11.00	-40.7	-52.4	3.8	8.47e-01	0	55	104	0	52	14225
2026-01-15 03:57:14.08	349.98	11.15	-40.4	-52.2	3.8	8.45e-01	0	55	104	0	52	13908
2026-01-15 03:57:17.11	349.51	11.31	-40.9	-52.6	3.8	8.46e-01	0	56	104	0	52	14635
2026-01-15 03:57:20.13	349.04	11.46	-40.8	-52.5	3.8	8.45e-01	0	56	104	0	52	14494
2026-01-15 03:57:23.16	348.56	11.61	-40.9	-52.6	3.8	8.47e-01	0	56	104	0	52	14689
2026-01-15 03:57:26.19	348.07	11.77	-40.9	-52.6	3.8	8.46e-01	0	56	104	0	52	14620
2026-01-15 03:57:29.22	347.59	11.92	-41.0	-52.7	3.8	8.47e-01	0	56	104	0	52	14811
2026-01-15 03:57:32.25	347.09	12.07	-40.9	-52.7	3.8	8.45e-01	0	56	104	0	52	14749
2026-01-15 03:57:35.28	346.59	12.21	-41.2	-52.9	3.8	8.45e-01	0	56	104	0	52	15055
2026-01-15 03:57:38.30	346.09	12.36	-40.7	-52.4	3.8	8.47e-01	0	56	104	0	52	14289
2026-01-15 03:57:41.33	345.58	12.51	-40.6	-52.4	3.8	8.46e-01	0	56	104	0	52	14301
2026-01-15 03:57:44.36	345.06	12.65	-40.7	-52.3	3.8	8.46e-01	0	56	104	0	52	14183
2026-01-15 03:57:47.39	344.55	12.79	-40.6	-52.3	3.8	8.46e-01	0	56	104	0	52	14190
2026-01-15 03:57:50.42	344.02	12.93	-40.8	-52.5	3.8	8.46e-01	0	56	104	0	52	14433
2026-01-15 03:57:53.45	343.49	13.07	-40.7	-52.3	3.8	8.47e-01	0	56	104	0	52	14104
2026-01-15 03:57:56.47	342.96	13.21	-40.7	-52.3	3.8	8.47e-01	0	56	104	0	52	14063
2026-01-15 03:57:59.50	342.42	13.35	-40.5	-52.2	3.8	8.47e-01	0	56	104	0	52	13977
2026-01-15 03:58:02.53	341.87	13.48	-40.3	-52.1	3.8	8.47e-01	0	56	104	0	52	13820
2026-01-15 03:58:05.55	341.32	13.61	-40.4	-52.2	3.8	8.45e-01	0	56	104	0	52	14015
2026-01-15 03:58:08.58	340.77	13.74	-40.8	-52.5	3.8	8.47e-01	0	56	104	0	52	14454
2026-01-15 03:58:11.61	340.21	13.87	-41.0	-52.4	3.8	8.46e-01	0	57	104	0	53	13431
2026-01-15 03:58:14.64	339.64	14.00	-41.0	-48.4	4.7	8.22e-01	0	57	0	0	53	8539
2026-01-15 03:58:17.67	339.07	14.12	-39.8	-43.8	8.6	8.68e-02	0	57	0	10485760	51	5653
2026-01-15 03:58:20.70	338.50	14.24	-37.7	-40.1	12.6	2.08e-04	0	56	0	27262976	47	4650
2026-01-15 03:58:23.72	337.92	14.36	-38.2	-40.6	12.4	1.20e-04	0	57	0	44040192	47	4917
2026-01-15 03:58:26.75	337.33	14.48	-38.2	-40.5	13.1	8.35e-05	0	57	0	61865984	48	4555
2026-01-15 03:58:29.78	336.74	14.60	-38.4	-40.6	13.3	5.95e-05	0	57	0	78643200	48	4635
2026-01-15 03:58:32.81	336.15	14.71	-38.3	-40.4	13.8	9.10e-06	0	56	0	95420416	48	4505
2026-01-15 03:58:35.83	335.55	14.82	-37.8	-39.8	14.5	2.20e-06	0	57	0	112197632	47	4456
2026-01-15 03:58:38.86	334.95	14.92	-38.0	-40.0	14.4	1.10e-06	0	57	0	130023424	47	4562
2026-01-15 03:58:41.89	334.34	15.03	-38.0	-40.0	14.5	0.00e+00	0	57	0	146800640	47	4551
2026-01-15 03:58:44.91	333.73	15.13	-37.8	-39.7	14.8	0.00e+00	0	57	0	163577856	47	4406
2026-01-15 03:58:47.94	333.12	15.23	-38.0	-39.9	14.6	0.00e+00	0	57	0	180355072	47	4523
2026-01-15 03:58:50.97	332.50	15.32	-38.0	-39.9	14.6	2.20e-06	0	57	0	198180864	47	4526
2026-01-15 03:58:54.00	331.87	15.42	-37.9	-39.7	14.9	0.00e+00	0	57	0	214958080	47	4429
2026-01-15 03:58:57.03	331.25	15.51	-37.8	-39.6	15.0	1.10e-06	0	57	0	231735296	47	4368
2026-01-15 03:59:00.05	330.62	15.59	-37.9	-39.7	14.9	1.10e-06	0	57	0	248512512	47	4433
2026-01-15 03:59:03.08	329.98	15.68	-38.2	-40.1	14.6	1.10e-06	0	57	0	265289728	47	4617
2026-01-15 03:59:06.11	329.34	15.76	-38.3	-40.3	14.4	1.10e-06	0	57	0	283115520	47	4730
2026-01-15 03:59:09.14	328.70	15.83	-37.9	-39.8	14.9	0.00e+00	0	57	0	299892736	47	4444
2026-01-15 03:59:12.17	328.06	15.91	-37.7	-39.5	15.2	0.00e+00	0	57	0	316669952	47	4319
2026-01-15 03:59:15.20	327.41	15.98	-37.9	-39.7	15.0	0.00e+00	0	57	0	334495744	47	4434
2026-01-15 03:59:18.23	326.76	16.04	-38.0	-39.9	14.9	0.00e+00	0	57	0	351272960	47	4498
2026-01-15 03:59:21.26	326.10	16.10	-37.9	-39.7	15.0	0.00e+00	0	57	0	368050176	47	4427
2026-01-15 03:59:24.29	325.44	16.16	-37.9	-39.7	15.1	0.00e+00	0	57	0	384827392	47	4405
2026-01-15 03:59:27.32	324.78	16.22	-37.8	-39.6	15.1	0.00e+00	0	57	0	402653184	47	4388
2026-01-15 03:59:30.35	324.12	16.27	-37.9	-39.7	15.0	0.00e+00	0	57	0	419430400	47	4438
2026-01-15 03:59:33.39	323.46	16.32	-37.9	-39.7	15.1	0.00e+00	0	57	0	436207616	47	4404
2026-01-15 03:59:36.41	322.79	16.36	-37.6	-39.3	15.4	0.00e+00	0	57	0	452984832	47	4239
2026-01-15 03:59:39.44	322.12	16.40	-37.8	-39.5	15.3	0.00e+00	0	57	0	469762048	47	4340
2026-01-15 03:59:42.46	321.45	16.44	-37.6	-39.3	15.5	0.00e+00	0	57	0	487587840	47	4227
2026-01-15 03:59:45.48	320.78	16.47	-37.6	-39.3	15.5	0.00e+00	0	57	0	504365056	47	4236
2026-01-15 03:59:48.50	320.11	16.50	-37.7	-39.5	15.3	0.00e+00	0	57	0	521142272	47	4309
2026-01-15 03:59:51.52	319.44	16.52	-37.6	-39.3	15.5	0.00e+00	0	57	0	537919488	47	4242
2026-01-15 03:59:54.55	318.77	16.54	-37.7	-39.5	15.3	0.00e+00	0	57	0	555745280	47	4300
2026-01-15 03:59:57.59	318.09	16.56	-37.7	-39.4	15.4	0.00e+00	0	57	0	572522496	47	4283
2026-01-15 04:00:00.62	317.41	16.57	-37.5	-39.2	15.6	0.00e+00	0	57	0	589299712	47	4179
2026-01-15 04:00:03.65	316.73	16.58	-37.6	-39.3	15.5	0.00e+00	0	57	0	607125504	46	4468
2026-01-15 04:00:06.68	316.06	16.58	-37.4	-39.2	15.7	0.00e+00	0	57	0	623902720	46	4394
2026-01-15 04:00:09.70	315.38	16.58	-37.4	-39.1	15.8	0.00e+00	0	57	0	640679936	46	4348
2026-01-15 04:00:12.73	314.70	16.58	-37.4	-39.1	15.7	0.00e+00	0	57	0	657457152	46	4377
2026-01-15 04:00:15.76	314.02	16.57	-37.8	-39.5	15.3	0.00e+00	0	57	0	674234368	46	4587
2026-01-15 04:00:18.78	313.35	16.56	-37.7	-39.5	15.4	0.00e+00	0	57	0	692060160	46	4557
2026-01-15 04:00:21.81	312.67	16.54	-37.8	-39.6	15.3	0.00e+00	0	57	0	708837376	46	4604
2026-01-15 04:00:24.84	312.00	16.52	-37.9	-39.7	15.2	0.00e+00	0	57	0	725614592	46	4658
2026-01-15 04:00:27.86	311.32	16.50	-37.9	-39.7	15.1	0.00e+00	0	57	0	742391808	46	4662
2026-01-15 04:00:30.89	310.65	16.47	-37.7	-39.5	15.3	0.00e+00	0	57	0	759169024	46	4573
2026-01-15 04:00:33.92	309.98	16.43	-37.6	-39.3	15.5	0.00e+00	0	57	0	776994816	46	4474
2026-01-15 04:00:36.94	309.31	16.40	-37.7	-39.5	15.3	0.00e+00	0	57	0	793772032	46	4587
2026-01-15 04:00:39.97	308.64	16.36	-37.8	-39.6	15.2	0.00e+00	0	57	0	810549248	46	4612
2026-01-15 04:00:43.00	307.97	16.31	-37.8	-39.6	15.1	1.10e-06	0	57	0	828375040	46	4651
2026-01-15 04:00:46.02	307.31	16.27	-37.8	-39.6	15.2	0.00e+00	0	57	0	845152256	46	4600
2026-01-15 04:00:49.04	306.65	16.22	-37.8	-39.7	15.1	0.00e+00	0	57	0	861929472	46	4661
2026-01-15 04:00:52.07	305.99	16.16	-37.8	-39.6	15.2	0.00e+00	0	57	0	878706688	46	4612
2026-01-15 04:00:55.10	305.33	16.10	-37.7	-39.5	15.2	0.00e+00	0	57	0	895483904	46	4588
2026-01-15 04:00:58.12	304.68	16.04	-37.5	-39.2	15.5	0.00e+00	0	57	0	913309696	46	4434
2026-01-15 04:01:01.15	304.03	15.97	-37.7	-39.5	15.2	0.00e+00	0	57	0	930086912	46	4582
2026-01-15 04:01:04.17	303.38	15.90	-37.8	-39.6	15.1	0.00e+00	0	57	0	946864128	46	4646
2026-01-15 04:01:07.20	302.73	15.83	-37.7	-39.4	15.3	0.00e+00	0	57	0	963641344	46	4538
2026-01-15 04:01:10.23	302.09	15.75	-37.7	-39.5	15.2	0.00e+00	0	57	0	981467136	46	4591
2026-01-15 04:01:13.26	301.45	15.67	-37.8	-39.6	15.1	0.00e+00	0	57	0	998244352	46	4641
2026-01-15 04:01:16.29	300.81	15.59	-38.0	-39.8	14.9	0.00e+00	0	57	0	1015021568	46	4734
2026-01-15 04:01:19.32	300.18	15.50	-38.0	-39.8	14.9	0.00e+00	0	57	0	1031798784	46	4751
2026-01-15 04:01:22.35	299.55	15.41	-37.8	-39.7	15.1	0.00e+00	0	57	0	1049624576	46	4654
2026-01-15 04:01:25.38	298.92	15.32	-38.0	-39.9	14.8	0.00e+00	0	57	0	1066401792	46	4804
2026-01-15 04:01:28.41	298.30	15.22	-37.9	-39.7	15.0	0.00e+00	0	57	0	1083179008	46	4695
2026-01-15 04:01:31.44	297.69	15.12	-38.3	-40.3	14.4	0.00e+00	0	57	0	1099956224	47	4729
2026-01-15 04:01:34.46	297.07	15.02	-38.4	-40.4	14.3	1.10e-06	0	57	0	1117782016	47	4773
2026-01-15 04:01:37.49	296.47	14.92	-38.2	-40.2	14.4	1.10e-06	0	58	0	1134559232	47	4673
2026-01-15 04:01:40.52	295.86	14.81	-38.3	-40.4	14.2	1.10e-06	0	57	0	1151336448	47	4773
2026-01-15 04:01:43.55	295.26	14.70	-38.3	-40.3	14.2	3.40e-06	0	58	0	1168113664	47	4756
2026-01-15 04:01:46.57	294.67	14.59	-38.3	-40.3	14.1	1.10e-06	0	57	0	1184890880	47	4750
2026-01-15 04:01:49.60	294.08	14.47	-38.0	-39.9	14.6	2.20e-06	0	58	0	1202716672	47	4526
2026-01-15 04:01:52.63	293.49	14.35	-37.8	-39.7	14.5	0.00e+00	0	57	0	1219493888	47	4438
2026-01-15 04:01:55.66	292.91	14.23	-37.8	-39.7	14.6	1.10e-06	0	57	0	1236271104	47	4438
2026-01-15 04:01:58.69	292.33	14.11	-38.0	-40.0	14.3	1.10e-06	0	57	0	1253048320	47	4555
2026-01-15 04:02:01.71	291.76	13.99	-37.9	-39.9	14.2	1.10e-06	0	57	0	1270874112	47	4520
2026-01-15 04:02:04.74	291.19	13.86	-37.8	-39.8	14.2	4.50e-06	0	58	0	1287651328	47	4460
2026-01-15 04:02:07.77	290.63	13.73	-37.7	-39.7	14.2	3.40e-06	0	58	0	1304428544	47	4423
2026-01-15 04:02:10.80	290.07	13.60	-37.6	-39.6	14.2	0.00e+00	0	58	0	1322254336	47	4356
2026-01-15 04:02:13.83	289.52	13.47	-37.8	-40.0	13.7	1.25e-05	0	58	0	1339031552	47	4552
2026-01-15 04:02:16.86	288.97	13.33	-37.9	-40.0	13.6	1.14e-05	0	58	0	1355808768	47	4587
2026-01-15 04:02:19.88	288.43	13.20	-38.1	-40.3	13.2	3.20e-05	0	57	0	1372585984	47	4741
2026-01-15 04:02:22.91	287.90	13.06	-38.3	-40.8	12.6	1.51e-04	0	58	0	1389363200	47	5007
2026-01-15 04:02:25.94	287.36	12.92	-38.4	-40.7	12.7	1.28e-04	0	57	0	1407188992	47	4974
2026-01-15 04:02:28.96	286.84	12.78	-38.7	-41.3	12.0	3.73e-04	0	58	0	1423966208	47	5319
2026-01-15 04:02:32.00	286.31	12.63	-39.2	-42.1	11.2	1.71e-03	0	58	0	1440743424	48	5466
2026-01-15 04:02:35.02	285.80	12.49	-39.3	-42.2	11.1	2.06e-03	0	58	0	1457520640	49	5235
2026-01-15 04:02:38.05	285.29	12.34	-39.3	-42.2	11.0	2.62e-03	0	58	0	1475346432	49	5274
2026-01-15 04:02:41.08	284.78	12.20	-39.4	-42.5	10.7	3.97e-03	0	57	0	1492123648	49	5407
2026-01-15 04:02:44.11	284.28	12.05	-39.3	-42.3	10.9	3.09e-03	0	58	0	1508900864	49	5298
2026-01-15 04:02:47.14	283.78	11.90	-39.2	-42.1	11.1	2.34e-03	0	58	0	1526726656	49	5184
2026-01-15 04:02:50.17	283.29	11.75	-38.8	-41.4	11.8	6.90e-04	0	58	0	1543503872	49	4805
2026-01-15 04:02:53.20	282.80	11.60	-38.6	-41.1	12.4	2.59e-04	0	58	0	1560281088	49	4609
2026-01-15 04:02:56.22	282.33	11.44	-38.3	-40.7	12.6	1.53e-04	0	58	0	1577058304	48	4703
2026-01-15 04:02:59.25	281.85	11.29	-37.9	-40.0	13.6	1.83e-05	0	58	0	1593835520	47	4586
2026-01-15 04:03:02.27	281.38	11.13	-37.9	-40.1	13.5	1.94e-05	0	58	0	1611661312	47	4613
2026-01-15 04:03:05.30	280.91	10.98	-38.4	-40.8	12.7	9.49e-05	0	57	0	1628438528	47	5005
2026-01-15 04:03:08.34	280.45	10.82	-38.3	-40.7	12.7	1.05e-04	0	58	0	1645215744	47	4963
2026-01-15 04:03:11.36	280.00	10.66	-38.4	-40.9	12.5	1.74e-04	0	58	0	1661992960	47	5050
2026-01-15 04:03:14.40	279.54	10.51	-38.9	-41.5	11.9	5.12e-04	0	57	0	1679818752	48	5137
2026-01-15 04:03:17.43	279.10	10.35	-39.3	-42.2	11.0	2.23e-03	0	58	0	1696595968	49	5277
2026-01-15 04:03:20.46	278.66	10.19	-39.4	-42.7	10.3	6.67e-03	0	58	0	1713373184	49	5547
2026-01-15 04:03:23.49	278.22	10.03	-39.7	-43.4	9.3	1.85e-02	0	58	0	1730150400	49	6008
2026-01-15 04:03:26.52	277.79	9.87	-39.8	-43.9	8.7	4.03e-02	0	58	0	1747976192	50	6007
2026-01-15 04:03:29.55	277.36	9.71	-40.0	-44.4	8.0	7.21e-02	0	58	0	1764753408	50	6399
2026-01-15 04:03:32.58	276.94	9.54	-40.2	-45.3	7.0	1.59e-01	0	58	0	1781530624	50	7079
2026-01-15 04:03:35.61	276.52	9.38	-40.4	-46.5	5.8	4.08e-01	0	58	0	1798307840	51	7660
2026-01-15 04:03:38.64	276.11	9.22	-40.5	-47.5	5.0	7.67e-01	0	58	0	1804599296	51	8633
2026-01-15 04:03:41.67	275.70	9.06	-40.5	-48.3	4.5	8.18e-01	0	58	0	1805647872	51	9440
2026-01-15 04:03:44.69	275.30	8.90	-40.6	-49.3	4.1	8.38e-01	0	58	0	1805647872	51	10648
2026-01-15 04:03:47.72	274.90	8.73	-40.6	-50.6	3.8	8.45e-01	0	58	104	1805647872	51	12265
2026-01-15 04:03:50.74	274.51	8.57	-40.6	-50.9	3.8	8.45e-01	0	57	104	1805647872	51	12682
2026-01-15 04:03:53.76	274.12	8.41	-40.6	-51.2	3.8	8.46e-01	0	58	104	1805647872	51	13137
2026-01-15 04:03:56.79	273.73	8.24	-40.5	-51.5	3.8	8.46e-01	0	58	104	1805647872	51	13634
2026-01-15 04:03:59.82	273.35	8.08	-40.4	-51.6	3.8	8.46e-01	0	58	104	1805647872	51	13758
2026-01-15 04:04:02.85	272.97	7.91	-44.6	-56.1	3.8	8.46e-01	0	58	104	1805647872	59	14686
2026-01-15 04:04:05.88	272.60	7.75	-45.0	-56.8	3.8	8.47e-01	0	58	104	1805647872	60	14908
2026-01-15 04:04:08.90	272.23	7.59	-45.2	-56.9	3.8	8.46e-01	0	58	104	1805647872	60	15136
2026-01-15 04:04:11.94	271.87	7.42	-45.2	-56.8	3.8	8.46e-01	0	58	104	1805647872	61	14181
2026-01-15 04:04:14.97	271.51	7.26	-45.1	-56.8	3.8	8.47e-01	0	58	104	1805647872	61	14066
2026-01-15 04:04:18.00	271.15	7.09	-45.1	-56.8	3.8	8.46e-01	0	58	104	1805647872	61	14122
2026-01-15 04:04:21.03	270.80	6.93	-45.1	-56.7	3.8	8.46e-01	0	57	104	1805647872	61	13954
2026-01-15 04:04:24.06	270.45	6.77	-45.1	-56.7	3.8	8.46e-01	0	58	104	1805647872	61	13963
2026-01-15 04:04:27.09	270.11	6.60	-45.1	-56.7	3.8	8.47e-01	0	58	104	1805647872	61	13959
2026-01-15 04:04:30.13	269.77	6.44	-45.1	-56.7	3.8	8.46e-01	0	58	104	1805647872	61	13965
2026-01-15 04:04:33.16	269.43	6.27	-45.1	-56.8	3.8	8.46e-01	0	58	104	1805647872	61	14058
2026-01-15 04:04:36.19	269.10	6.11	-45.1	-56.7	3.8	8.45e-01	0	58	104	1805647872	61	14030
2026-01-15 04:04:39.22	268.77	5.95	-45.1	-56.7	3.8	8.45e-01	0	58	104	1805647872	61	14000
2026-01-15 04:04:42.25	268.45	5.78	-45.1	-56.7	3.8	8.45e-01	0	58	104	1805647872	61	13913
2026-01-15 04:04:45.28	268.13	5.62	-45.1	-56.7	3.8	8.46e-01	0	58	104	1805647872	61	14014
2026-01-15 04:04:48.30	267.81	5.46	-45.0	-56.7	3.8	8.47e-01	0	58	104	1805647872	61	13947
2026-01-15 04:04:51.33	267.50	5.29	-45.1	-56.7	3.8	8.45e-01	0	58	104	1805647872	61	14010
2026-01-15 04:04:54.36	267.19	5.13	-45.1	-56.7	3.8	8.48e-01	0	58	104	1805647872	61	13924
2026-01-15 04:04:57.40	266.88	4.97	-45.1	-56.6	3.8	8.47e-01	0	58	104	1805647872	61	13867
2026-01-15 04:05:00.43	266.58	4.80	-45.0	-56.7	3.8	8.46e-01	0	58	104	1805647872	61	13914
2026-01-15 04:05:03.46	266.28	4.64	-45.1	-56.7	3.8	8.45e-01	0	58	104	1805647872	61	13946
2026-01-15 04:05:06.49	265.98	4.48	-45.1	-56.6	3.8	8.45e-01	0	58	104	1805647872	61	13871
2026-01-15 04:05:09.51	265.69	4.32	-45.0	-56.7	3.8	8.46e-01	0	58	104	1805647872	61	13936
2026-01-15 04:05:12.54	265.40	4.16	-45.0	-56.7	3.8	8.45e-01	0	58	104	1805647872	61	13916
2026-01-15 04:05:15.57	265.11	4.00	-45.1	-56.7	3.8	8.47e-01	0	58	104	1805647872	61	13937
2026-01-15 04:05:18.59	264.83	3.84	-45.1	-56.7	3.8	8.47e-01	0	58	104	1805647872	61	13947
2026-01-15 04:05:21.62	264.55	3.68	-45.1	-56.7	3.8	8.46e-01	0	58	104	1805647872	61	13959
2026-01-15 04:05:24.65	264.27	3.52	-45.0	-56.7	3.8	8.45e-01	0	58	104	1805647872	61	13893
2026-01-15 04:05:27.68	264.00	3.36	-45.0	-56.7	3.8	8.46e-01	0	58	104	1805647872	61	13948
2026-01-15 04:05:30.72	263.73	3.20	-45.0	-56.7	3.8	8.46e-01	0	58	104	1805647872	61	13986
2026-01-15 04:05:33.75	263.46	3.04	-45.0	-56.7	3.8	8.46e-01	0	58	104	1805647872	61	13893
2026-01-15 04:05:36.78	263.19	2.88	-45.0	-56.7	3.8	8.47e-01	0	58	104	1805647872	61	13956
2026-01-15 04:05:39.81	262.93	2.72	-44.8	-56.5	3.8	8.47e-01	0	58	104	1805647872	61	13705
2026-01-15 04:05:42.84	262.67	2.56	-44.1	-56.3	3.8	8.46e-01	0	58	104	1805647872	60	14086
2026-01-15 04:05:45.86	262.42	2.41	-44.8	-56.6	3.8	8.46e-01	0	58	104	1805647872	60	14557
2026-01-15 04:05:48.89	262.16	2.25	-41.1	-54.7	3.8	8.46e-01	0	58	104	1805647872	54	16603
2026-01-15 04:05:51.92	261.91	2.09	-42.1	-54.9	3.8	8.45e-01	0	58	104	1805647872	54	16912
2026-01-15 04:05:54.96	261.66	1.94	-42.0	-54.9	3.8	8.46e-01	0	58	104	1805647872	55	15978

#Closed at: 2026-01-15 04:05:56
#Recorded file [1805 MB]: D:/lorett/data/31039_260115_065421.dat