passes_logs/2026/01/15/R2.0S_Moscow/R2.0S_Moscow__20260115_112713_NOAA_20_JPSS-1_rec.log

#Pass ID: 20260115_112713_NOAA 20 (JPSS-1)
#Satellite: NOAA 20 (JPSS-1)
#Configuration: NOAA 20
#almurnet v.1.7.20251203
#Start time: 2026-01-15 11:27:13

#Version: 2.2.20231116
#Station: R2.0S_Moscow
#Location: 37.707566 lon 55.798166 lat
#TLE: 1 43013U 17073A   26014.13176244  .00000049  00000+0  44136-4 0  9994
#TLE: 2 43013  98.7634 315.0803 0001538  40.6488 319.4803 14.19535812422619

#Time	Az	El	Level	Level2	SNR	BER	BlckErr	Temp	State	Recorded	gain1	gain2
2026-01-15 11:27:13.14	207.07	1.98	-43.9	-58.4	3.8	1.49e+00	0	52	0	0	59	19025
2026-01-15 11:27:17.17	207.35	2.21	-43.9	-58.4	3.8	1.49e+00	0	52	104	0	59	19023
2026-01-15 11:27:21.21	207.65	2.43	-43.9	-58.4	3.8	1.49e+00	0	52	104	0	59	18997
2026-01-15 11:27:25.26	207.95	2.66	-43.9	-58.4	3.8	1.49e+00	0	53	104	0	59	18973
2026-01-15 11:27:29.29	208.25	2.88	-43.9	-58.4	3.8	1.49e+00	0	53	104	0	59	18999
2026-01-15 11:27:33.33	208.55	3.11	-43.9	-58.4	3.8	1.49e+00	0	53	104	0	59	18987
2026-01-15 11:27:37.37	208.87	3.34	-43.9	-58.4	3.8	1.49e+00	0	54	104	0	59	19036
2026-01-15 11:27:41.42	209.18	3.57	-43.9	-58.3	3.8	1.49e+00	0	54	104	0	59	18928
2026-01-15 11:27:45.46	209.50	3.80	-43.9	-58.4	3.8	1.49e+00	0	54	104	0	59	18984
2026-01-15 11:27:49.50	209.83	4.04	-43.9	-58.4	3.8	1.49e+00	0	54	104	0	59	18964
2026-01-15 11:27:53.53	210.16	4.27	-43.8	-58.4	3.8	1.49e+00	0	54	104	0	59	19014
2026-01-15 11:27:57.57	210.50	4.51	-43.8	-58.4	3.8	1.49e+00	0	55	104	0	59	19000
2026-01-15 11:28:01.61	210.84	4.74	-43.9	-58.4	3.8	1.49e+00	0	55	104	0	59	18991
2026-01-15 11:28:05.64	211.18	4.98	-43.9	-58.4	3.8	1.49e+00	0	55	104	0	59	19061
2026-01-15 11:28:09.69	211.54	5.22	-43.9	-58.2	3.8	1.49e+00	0	55	104	0	59	18616
2026-01-15 11:28:13.73	211.89	5.46	-43.9	-58.0	3.8	1.49e+00	0	55	104	0	58	19309
2026-01-15 11:28:17.76	212.26	5.70	-43.9	-58.0	3.8	1.49e+00	0	56	104	0	58	19381
2026-01-15 11:28:21.80	212.63	5.95	-43.8	-57.7	3.8	1.49e+00	0	56	104	0	58	18634
2026-01-15 11:28:25.84	213.00	6.19	-43.8	-56.8	3.8	1.49e+00	0	56	104	0	58	16729
2026-01-15 11:28:29.88	213.38	6.44	-43.7	-55.0	4.1	1.42e+00	0	56	0	0	58	13660
2026-01-15 11:28:33.91	213.77	6.68	-43.6	-53.7	4.6	1.00e+00	0	56	0	4194304	58	11802
2026-01-15 11:28:37.95	214.16	6.93	-43.6	-53.5	4.7	9.10e-01	0	56	0	11534336	58	11516
2026-01-15 11:28:41.98	214.56	7.18	-43.7	-55.1	4.1	1.40e+00	0	57	0	16777216	58	13736
2026-01-15 11:28:46.02	214.97	7.43	-43.5	-53.5	4.6	1.03e+00	0	57	0	17825792	58	11538
2026-01-15 11:28:50.06	215.38	7.68	-42.8	-49.6	7.4	1.56e-01	0	57	0	26214400	57	7791
2026-01-15 11:28:54.09	215.80	7.94	-42.5	-48.4	8.6	3.86e-02	0	57	0	33554432	56	7170
2026-01-15 11:28:58.13	216.23	8.19	-43.6	-57.9	3.8	4.55e-01	0	57	104	39845888	57	20092
2026-01-15 11:29:02.17	216.67	8.45	-42.5	-48.1	9.2	4.15e-02	0	57	0	45088768	57	6559
2026-01-15 11:29:06.20	217.11	8.70	-42.4	-47.5	9.8	1.04e-02	0	58	0	53477376	56	6491
2026-01-15 11:29:10.23	217.56	8.96	-42.4	-47.6	9.9	8.84e-03	0	58	0	60817408	56	6502
2026-01-15 11:29:14.27	218.02	9.22	-42.5	-47.6	9.9	8.68e-03	0	58	0	68157440	56	6512
2026-01-15 11:29:18.30	218.48	9.48	-42.4	-47.4	10.1	7.41e-03	0	58	0	75497472	56	6407
2026-01-15 11:29:22.33	218.96	9.74	-42.5	-47.5	10.0	8.59e-03	0	58	0	82837504	56	6475
2026-01-15 11:29:26.36	219.44	10.00	-42.6	-47.5	10.0	7.35e-03	0	58	0	91226112	56	6473
2026-01-15 11:29:30.40	219.93	10.26	-42.5	-47.3	10.3	6.12e-03	0	58	0	98566144	56	6324
2026-01-15 11:29:34.44	220.43	10.53	-42.5	-47.2	10.5	4.16e-03	0	58	0	105906176	56	6223
2026-01-15 11:29:38.47	220.94	10.79	-42.4	-47.0	10.7	3.11e-03	0	58	0	113246208	56	6087
2026-01-15 11:29:42.51	221.45	11.06	-42.4	-46.9	10.9	2.49e-03	0	58	0	121634816	56	6016
2026-01-15 11:29:46.55	221.98	11.33	-42.3	-46.7	11.1	1.80e-03	0	58	0	128974848	56	5884
2026-01-15 11:29:50.59	222.52	11.59	-42.3	-46.7	11.1	1.69e-03	0	58	0	136314880	56	5901
2026-01-15 11:29:54.62	223.06	11.86	-42.3	-46.8	11.0	2.14e-03	0	58	0	143654912	56	5971
2026-01-15 11:29:58.66	223.62	12.13	-42.4	-46.8	11.0	1.86e-03	0	59	0	150994944	56	5965
2026-01-15 11:30:02.70	224.18	12.40	-42.3	-46.7	11.1	1.48e-03	0	59	0	159383552	56	5866
2026-01-15 11:30:06.74	224.76	12.67	-42.3	-46.7	11.2	1.31e-03	0	59	0	166723584	56	5875
2026-01-15 11:30:10.78	225.34	12.94	-42.3	-46.6	11.3	1.13e-03	0	59	0	174063616	56	5815
2026-01-15 11:30:14.82	225.94	13.21	-42.3	-46.6	11.3	1.13e-03	0	59	0	181403648	56	5834
2026-01-15 11:30:18.86	226.55	13.48	-42.4	-46.7	11.2	1.40e-03	0	59	0	189792256	56	5862
2026-01-15 11:30:22.90	227.16	13.75	-42.4	-46.7	11.2	1.25e-03	0	59	0	197132288	56	5863
2026-01-15 11:30:26.93	227.79	14.02	-42.3	-46.5	11.4	1.01e-03	0	59	0	204472320	56	5756
2026-01-15 11:30:30.96	228.43	14.29	-42.3	-46.5	11.5	7.41e-04	0	59	0	211812352	56	5751
2026-01-15 11:30:35.00	229.08	14.56	-42.3	-46.5	11.5	8.38e-04	0	59	0	219152384	56	5754
2026-01-15 11:30:39.04	229.75	14.83	-42.3	-46.6	11.4	1.01e-03	0	59	0	227540992	56	5796
2026-01-15 11:30:43.08	230.42	15.10	-42.3	-46.6	11.4	9.84e-04	0	59	0	234881024	56	5817
2026-01-15 11:30:47.11	231.11	15.37	-42.3	-46.5	11.5	8.12e-04	0	59	0	242221056	56	5764
2026-01-15 11:30:51.15	231.80	15.64	-42.3	-46.5	11.5	7.90e-04	0	59	0	249561088	56	5771
2026-01-15 11:30:55.19	232.52	15.90	-42.3	-46.4	11.6	6.89e-04	0	59	0	256901120	56	5693
2026-01-15 11:30:59.22	233.24	16.17	-42.3	-46.4	11.6	6.42e-04	0	59	0	265289728	56	5687
2026-01-15 11:31:03.26	233.97	16.43	-42.3	-46.4	11.6	7.72e-04	0	60	0	272629760	56	5711
2026-01-15 11:31:07.29	234.72	16.69	-42.1	-46.0	12.0	2.88e-04	0	59	0	279969792	56	5431
2026-01-15 11:31:11.33	235.48	16.95	-42.2	-46.1	12.0	3.43e-04	0	60	0	287309824	56	5499
2026-01-15 11:31:15.37	236.25	17.21	-42.2	-46.1	12.0	3.54e-04	0	59	0	295698432	56	5504
2026-01-15 11:31:19.40	237.04	17.46	-42.0	-45.7	12.3	1.75e-04	0	60	0	303038464	56	5263
2026-01-15 11:31:23.44	237.84	17.71	-41.7	-45.4	12.6	1.17e-04	0	60	0	310378496	55	5359
2026-01-15 11:31:27.47	238.65	17.96	-41.8	-45.4	12.5	1.05e-04	0	59	0	317718528	55	5380
2026-01-15 11:31:31.51	239.47	18.21	-41.7	-45.2	12.7	6.25e-05	0	60	0	325058560	55	5263
2026-01-15 11:31:35.55	240.31	18.45	-41.8	-45.4	12.5	1.08e-04	0	60	0	333447168	55	5365
2026-01-15 11:31:39.59	241.16	18.69	-41.8	-45.5	12.5	1.20e-04	0	60	0	340787200	55	5403
2026-01-15 11:31:43.63	242.03	18.93	-42.0	-45.8	12.1	1.97e-04	0	60	0	348127232	55	5647
2026-01-15 11:31:47.67	242.91	19.16	-42.3	-46.5	11.4	8.79e-04	0	60	0	355467264	55	6121
2026-01-15 11:31:51.70	243.80	19.38	-42.3	-46.5	11.4	1.02e-03	0	60	0	363855872	55	6100
2026-01-15 11:31:55.74	244.70	19.60	-42.5	-46.9	11.0	1.75e-03	0	60	0	371195904	55	6408
2026-01-15 11:31:59.77	245.61	19.82	-43.0	-48.0	10.0	7.32e-03	0	60	0	378535936	56	6850
2026-01-15 11:32:03.81	246.54	20.03	-43.0	-48.0	10.0	8.47e-03	0	60	0	385875968	56	6839
2026-01-15 11:32:07.85	247.48	20.24	-42.9	-47.7	10.4	4.52e-03	0	60	0	393216000	56	6571
2026-01-15 11:32:11.88	248.43	20.43	-42.9	-47.8	10.3	5.02e-03	0	60	0	401604608	56	6653
2026-01-15 11:32:15.92	249.40	20.63	-42.9	-47.6	10.5	4.13e-03	0	60	0	408944640	56	6501
2026-01-15 11:32:19.95	250.37	20.81	-42.5	-46.8	11.3	1.17e-03	0	60	0	416284672	56	5942
2026-01-15 11:32:23.99	251.36	20.99	-42.5	-46.8	11.3	1.09e-03	0	60	0	423624704	56	5949
2026-01-15 11:32:28.04	252.36	21.16	-42.8	-47.4	10.7	2.82e-03	0	60	0	430964736	56	6403
2026-01-15 11:32:32.08	253.37	21.33	-42.7	-47.2	10.9	2.59e-03	0	60	0	439353344	56	6272
2026-01-15 11:32:36.12	254.39	21.48	-42.6	-46.9	11.2	1.46e-03	0	60	0	446693376	56	6032
2026-01-15 11:32:40.16	255.42	21.63	-42.7	-47.2	10.9	2.03e-03	0	60	0	454033408	56	6219
2026-01-15 11:32:44.20	256.46	21.77	-42.6	-46.8	11.3	1.21e-03	0	60	0	461373440	56	5969
2026-01-15 11:32:48.24	257.50	21.90	-42.3	-46.2	11.9	4.86e-04	0	60	0	469762048	56	5586
2026-01-15 11:32:52.28	258.56	22.02	-42.3	-46.2	12.0	3.25e-04	0	60	0	477102080	56	5562
2026-01-15 11:32:56.31	259.62	22.13	-42.2	-46.1	12.0	3.02e-04	0	60	0	484442112	56	5519
2026-01-15 11:33:00.35	260.69	22.23	-42.4	-46.5	11.6	5.98e-04	0	60	0	491782144	56	5761
2026-01-15 11:33:04.39	261.76	22.32	-42.5	-46.6	11.5	7.13e-04	0	60	0	499122176	56	5808
2026-01-15 11:33:08.43	262.85	22.40	-42.6	-47.0	11.1	1.40e-03	0	60	0	507510784	56	6080
2026-01-15 11:33:12.46	263.93	22.48	-42.7	-47.2	10.9	2.24e-03	0	60	0	514850816	56	6246
2026-01-15 11:33:16.49	265.02	22.54	-42.6	-47.0	11.2	1.57e-03	0	60	0	522190848	56	6064
2026-01-15 11:33:20.53	266.12	22.59	-42.5	-46.7	11.5	8.83e-04	0	60	0	529530880	56	5868
2026-01-15 11:33:24.55	267.21	22.63	-42.5	-46.6	11.5	6.44e-04	0	60	0	537919488	56	5845
2026-01-15 11:33:28.59	268.31	22.66	-42.6	-46.9	11.2	1.36e-03	0	60	0	545259520	56	6000
2026-01-15 11:33:32.62	269.41	22.68	-42.4	-46.5	11.6	7.67e-04	0	60	0	552599552	56	5771
2026-01-15 11:33:36.66	270.51	22.69	-42.3	-46.3	11.9	3.78e-04	0	61	0	559939584	56	5615
2026-01-15 11:33:40.69	271.61	22.68	-42.6	-46.8	11.3	1.19e-03	0	60	0	567279616	56	5978
2026-01-15 11:33:44.73	272.72	22.67	-42.3	-46.4	11.8	6.70e-04	0	60	0	575668224	56	5664
2026-01-15 11:33:48.76	273.81	22.65	-42.2	-46.0	12.1	2.31e-04	0	61	0	583008256	56	5437
2026-01-15 11:33:52.80	274.91	22.61	-42.7	-47.1	11.0	1.68e-03	0	60	0	590348288	56	6132
2026-01-15 11:33:56.83	276.01	22.57	-42.7	-47.1	10.9	2.08e-03	0	60	0	597688320	56	6183
2026-01-15 11:34:00.87	277.10	22.51	-42.5	-46.7	11.4	1.29e-03	0	60	0	606076928	56	5884
2026-01-15 11:34:04.90	278.18	22.45	-42.3	-46.2	11.9	3.82e-04	0	61	0	613416960	56	5549
2026-01-15 11:34:08.94	279.27	22.37	-42.7	-47.2	10.9	1.96e-03	0	60	0	620756992	56	6211
2026-01-15 11:34:12.98	280.35	22.28	-42.5	-46.8	11.3	1.25e-03	0	60	0	628097024	56	5941
2026-01-15 11:34:17.02	281.42	22.19	-42.4	-46.4	11.6	7.01e-04	0	60	0	635437056	56	5713
2026-01-15 11:34:21.06	282.48	22.08	-42.2	-46.2	11.9	3.97e-04	0	60	0	643825664	56	5546
2026-01-15 11:34:25.10	283.54	21.97	-42.4	-46.5	11.6	6.34e-04	0	60	0	651165696	56	5726
2026-01-15 11:34:29.14	284.59	21.84	-42.2	-46.0	12.1	2.80e-04	0	60	0	658505728	56	5441
2026-01-15 11:34:33.17	285.63	21.71	-42.3	-46.3	11.8	4.24e-04	0	60	0	665845760	56	5606
2026-01-15 11:34:37.21	286.66	21.57	-42.2	-46.1	12.0	3.11e-04	0	60	0	674234368	56	5488
2026-01-15 11:34:41.25	287.68	21.42	-41.8	-45.4	12.6	1.01e-04	0	60	0	681574400	55	5354
2026-01-15 11:34:45.29	288.69	21.26	-41.3	-44.6	13.4	1.60e-05	0	60	0	688914432	54	5190
2026-01-15 11:34:49.33	289.69	21.09	-41.7	-45.3	12.6	6.63e-05	0	60	0	696254464	54	5632
2026-01-15 11:34:53.37	290.68	20.92	-41.7	-45.4	12.6	8.92e-05	0	60	0	703594496	54	5672
2026-01-15 11:34:57.40	291.66	20.74	-41.5	-45.0	13.0	3.81e-05	0	60	0	711983104	54	5417
2026-01-15 11:35:01.43	292.62	20.55	-41.1	-44.2	13.8	3.80e-06	0	61	0	719323136	54	4942
2026-01-15 11:35:05.47	293.58	20.36	-41.1	-44.2	13.7	5.30e-06	0	61	0	726663168	54	4977
2026-01-15 11:35:09.51	294.52	20.16	-41.3	-44.6	13.3	1.52e-05	0	61	0	734003200	54	5213
2026-01-15 11:35:13.54	295.45	19.95	-41.7	-45.4	12.5	9.91e-05	0	61	0	742391808	54	5672
2026-01-15 11:35:17.59	296.37	19.74	-41.7	-45.4	12.5	1.22e-04	0	60	0	749731840	54	5670
2026-01-15 11:35:21.62	297.28	19.53	-41.6	-45.1	12.8	6.63e-05	0	61	0	757071872	54	5490
2026-01-15 11:35:25.66	298.17	19.30	-41.6	-45.2	12.7	4.57e-05	0	61	0	764411904	54	5535
2026-01-15 11:35:29.69	299.05	19.08	-42.2	-46.3	11.5	6.98e-04	0	60	0	771751936	54	6317
2026-01-15 11:35:33.72	299.92	18.85	-42.3	-46.6	11.1	1.47e-03	0	61	0	780140544	55	6197
2026-01-15 11:35:37.76	300.77	18.61	-42.3	-46.7	11.1	1.68e-03	0	60	0	787480576	55	6232
2026-01-15 11:35:41.79	301.61	18.38	-42.1	-46.3	11.5	8.47e-04	0	61	0	794820608	55	5935
2026-01-15 11:35:45.82	302.44	18.13	-42.1	-46.2	11.6	7.24e-04	0	61	0	802160640	55	5882
2026-01-15 11:35:49.85	303.26	17.89	-42.3	-46.6	11.1	1.42e-03	0	61	0	809500672	55	6198
2026-01-15 11:35:53.90	304.06	17.64	-42.4	-46.8	10.9	1.77e-03	0	60	0	817889280	55	6342
2026-01-15 11:35:57.93	304.85	17.39	-42.1	-46.2	11.6	1.03e-03	0	60	0	825229312	55	5904
2026-01-15 11:36:01.96	305.63	17.14	-41.9	-45.9	11.9	3.91e-04	0	60	0	832569344	55	5662
2026-01-15 11:36:05.99	306.39	16.88	-42.0	-46.0	11.8	4.74e-04	0	61	0	839909376	55	5746
2026-01-15 11:36:10.03	307.14	16.62	-42.0	-46.0	11.7	5.52e-04	0	60	0	847249408	55	5762
2026-01-15 11:36:14.07	307.88	16.36	-42.4	-46.9	10.8	2.03e-03	0	61	0	855638016	55	6380
2026-01-15 11:36:18.10	308.61	16.10	-42.2	-46.5	11.2	1.43e-03	0	60	0	862978048	55	6120
2026-01-15 11:36:22.14	309.32	15.84	-42.1	-46.3	11.4	9.09e-04	0	61	0	870318080	55	5947
2026-01-15 11:36:26.18	310.03	15.58	-42.1	-46.3	11.3	1.07e-03	0	61	0	877658112	55	5986
2026-01-15 11:36:30.21	310.71	15.31	-41.9	-45.9	11.8	5.28e-04	0	61	0	886046720	55	5697
2026-01-15 11:36:34.25	311.39	15.05	-42.3	-46.7	11.0	1.43e-03	0	60	0	893386752	55	6220
2026-01-15 11:36:38.29	312.06	14.78	-42.0	-46.1	11.6	7.53e-04	0	61	0	900726784	55	5811
2026-01-15 11:36:42.32	312.72	14.51	-42.0	-46.1	11.6	6.17e-04	0	60	0	908066816	55	5813
2026-01-15 11:36:46.35	313.36	14.25	-42.3	-46.7	10.9	2.32e-03	0	60	0	915406848	55	6255
2026-01-15 11:36:50.38	313.99	13.98	-41.9	-45.9	11.7	7.32e-04	0	61	0	923795456	55	5693
2026-01-15 11:36:54.42	314.61	13.71	-42.0	-46.3	11.3	1.00e-03	0	61	0	931135488	55	5924
2026-01-15 11:36:58.47	315.23	13.44	-42.3	-46.9	10.6	3.28e-03	0	61	0	938475520	55	6406
2026-01-15 11:37:02.50	315.82	13.18	-42.2	-46.6	10.9	2.14e-03	0	61	0	945815552	55	6166
2026-01-15 11:37:06.54	316.42	12.91	-42.2	-46.8	10.8	2.52e-03	0	61	0	953155584	55	6304
2026-01-15 11:37:10.58	317.00	12.64	-42.3	-47.1	10.4	4.55e-03	0	61	0	961544192	55	6501
2026-01-15 11:37:14.62	317.57	12.37	-42.1	-46.4	11.1	1.62e-03	0	61	0	968884224	55	6030
2026-01-15 11:37:18.65	318.12	12.11	-42.1	-46.4	11.0	1.64e-03	0	61	0	976224256	55	6056
2026-01-15 11:37:22.69	318.67	11.84	-42.4	-47.3	10.1	5.98e-03	0	61	0	983564288	55	6716
2026-01-15 11:37:26.72	319.21	11.58	-42.3	-47.1	10.3	5.13e-03	0	61	0	991952896	55	6498
2026-01-15 11:37:30.76	319.75	11.31	-42.2	-46.9	10.5	3.96e-03	0	61	0	999292928	55	6415
2026-01-15 11:37:34.80	320.27	11.05	-42.4	-47.3	10.0	7.42e-03	0	60	0	1006632960	55	6695
2026-01-15 11:37:38.84	320.78	10.79	-42.4	-47.4	10.0	8.31e-03	0	61	0	1013972992	55	6743
2026-01-15 11:37:42.87	321.28	10.53	-42.3	-47.2	10.1	6.20e-03	0	61	0	1021313024	55	6644
2026-01-15 11:37:46.91	321.78	10.26	-42.6	-48.0	9.3	1.71e-02	0	61	0	1029701632	55	7230
2026-01-15 11:37:50.95	322.27	10.00	-42.6	-48.3	9.0	2.68e-02	0	61	0	1037041664	55	7466
2026-01-15 11:37:54.99	322.75	9.74	-42.5	-47.9	9.3	2.01e-02	0	61	0	1044381696	55	7152
2026-01-15 11:37:59.03	323.22	9.49	-42.3	-47.4	9.8	1.00e-02	0	61	0	1051721728	55	6762
2026-01-15 11:38:03.06	323.68	9.23	-42.3	-47.3	9.8	9.34e-03	0	61	0	1060110336	55	6707
2026-01-15 11:38:07.10	324.14	8.97	-42.4	-47.7	9.4	1.50e-02	0	61	0	1067450368	55	6996
2026-01-15 11:38:11.14	324.58	8.72	-42.4	-47.9	9.3	1.79e-02	0	61	0	1074790400	55	7124
2026-01-15 11:38:15.17	325.02	8.47	-42.5	-48.1	9.0	2.65e-02	0	61	0	1082130432	55	7315
2026-01-15 11:38:19.21	325.46	8.21	-42.6	-48.5	8.5	3.98e-02	0	61	0	1089470464	55	7692
2026-01-15 11:38:23.25	325.88	7.96	-44.4	-58.3	3.8	1.47e+00	0	61	104	1095761920	59	18881
2026-01-15 11:38:27.29	326.30	7.71	-45.1	-59.6	3.8	1.49e+00	0	61	104	1095761920	60	20710
2026-01-15 11:38:31.33	326.71	7.46	-44.5	-59.6	3.8	1.49e+00	0	61	104	1095761920	61	19441
2026-01-15 11:38:35.37	327.12	7.21	-45.2	-59.7	3.8	1.49e+00	0	60	104	1095761920	61	19682
2026-01-15 11:38:39.41	327.52	6.97	-45.2	-59.7	3.8	1.49e+00	0	61	104	1095761920	61	19695
2026-01-15 11:38:43.45	327.91	6.72	-45.2	-59.6	3.8	1.49e+00	0	61	104	1095761920	61	19583
2026-01-15 11:38:47.49	328.30	6.48	-45.1	-59.6	3.8	1.49e+00	0	61	104	1095761920	61	19522
2026-01-15 11:38:51.53	328.68	6.24	-45.1	-59.6	3.8	1.49e+00	0	61	104	1095761920	61	19541
2026-01-15 11:38:55.57	329.05	5.99	-45.1	-59.6	3.8	1.49e+00	0	61	104	1095761920	61	19572
2026-01-15 11:38:59.60	329.42	5.75	-45.1	-59.6	3.8	1.49e+00	0	61	104	1095761920	61	19543
2026-01-15 11:39:03.64	329.78	5.52	-45.1	-59.6	3.8	1.49e+00	0	61	104	1095761920	61	19535
2026-01-15 11:39:07.67	330.14	5.28	-45.1	-59.6	3.8	1.49e+00	0	61	104	1095761920	60	20693
2026-01-15 11:39:11.71	330.49	5.04	-45.1	-59.6	3.8	1.49e+00	0	61	104	1095761920	60	20713
2026-01-15 11:39:15.75	330.84	4.81	-45.1	-59.6	3.8	1.49e+00	0	61	104	1095761920	60	20748
2026-01-15 11:39:19.79	331.18	4.57	-45.1	-59.6	3.8	1.49e+00	0	61	104	1095761920	60	20688
2026-01-15 11:39:23.83	331.52	4.34	-45.1	-59.6	3.8	1.49e+00	0	61	104	1095761920	60	20676
2026-01-15 11:39:27.87	331.85	4.11	-45.1	-59.6	3.8	1.49e+00	0	61	104	1095761920	60	20635
2026-01-15 11:39:31.91	332.17	3.88	-45.1	-59.6	3.8	1.49e+00	0	61	104	1095761920	60	20658
2026-01-15 11:39:35.95	332.50	3.65	-45.1	-59.6	3.8	1.49e+00	0	61	104	1095761920	60	20743
2026-01-15 11:39:39.99	332.81	3.42	-45.1	-59.6	3.8	1.49e+00	0	61	104	1095761920	60	20612
2026-01-15 11:39:44.02	333.12	3.20	-45.1	-59.6	3.8	1.49e+00	0	61	104	1095761920	60	20596
2026-01-15 11:39:48.07	333.43	2.97	-45.1	-59.6	3.8	1.49e+00	0	61	104	1095761920	60	20634
2026-01-15 11:39:52.11	333.74	2.75	-45.1	-59.6	3.8	1.49e+00	0	61	104	1095761920	60	20633
2026-01-15 11:39:56.15	334.04	2.52	-45.1	-59.6	3.8	1.49e+00	0	61	104	1095761920	60	20658
2026-01-15 11:40:00.20	334.33	2.30	-45.1	-59.6	3.8	1.49e+00	0	61	104	1095761920	60	20589
2026-01-15 11:40:04.24	334.62	2.08	-44.9	-59.6	3.8	1.49e+00	0	61	104	1095761920	60	20609

#Closed at: 2026-01-15 11:40:06
#Recorded file [1095 MB]: D:/lorett/data/31039_260115_142712.dat