passes_logs/2026/01/15/R2.0S_Moscow/R2.0S_Moscow__20260115_022326_AQUA_rec.log

#Pass ID: 20260115_022326_AQUA
#Satellite: AQUA
#Configuration: AQUA
#almurnet v.1.7.20251203
#Start time: 2026-01-15 02:31:16

#Version: 2.2.20231116
#Station: R2.0S_Moscow
#Location: 37.707566 lon 55.798166 lat
#TLE: 1 27424U 02022A   26014.19338718  .00000717  00000+0  15340-3 0  9998
#TLE: 2 27424  98.4080 340.6072 0002047  79.4950 292.1093 14.61819636260772

#Time	Az	El	Level	Level2	SNR	BER	BlckErr	Temp	State	Recorded	gain1	gain2
2026-01-15 02:31:16.52	260.79	23.92	-45.6	-56.9	3.8	8.46e-01	0	58	0	0	61	13529
2026-01-15 02:31:18.53	260.27	23.70	-46.3	-65.0	3.8	7.43e-01	0	58	104	0	63	32220
2026-01-15 02:31:20.56	259.76	23.47	-46.3	-64.9	3.8	7.44e-01	0	58	104	0	63	31989
2026-01-15 02:31:22.58	259.26	23.25	-46.2	-64.8	3.8	7.44e-01	0	58	104	0	63	31581
2026-01-15 02:31:24.60	258.76	23.02	-46.0	-63.8	3.8	7.46e-01	0	58	104	0	63	28119
2026-01-15 02:31:26.62	258.27	22.80	-45.8	-64.4	3.8	7.47e-01	0	58	104	0	63	30049
2026-01-15 02:31:28.64	257.79	22.57	-45.8	-64.4	3.8	7.46e-01	0	58	104	0	63	30100
2026-01-15 02:31:30.66	257.32	22.35	-45.8	-64.1	3.8	7.44e-01	0	59	104	0	63	29240
2026-01-15 02:31:32.68	256.85	22.12	-45.8	-64.2	3.8	7.44e-01	0	58	104	0	63	29606
2026-01-15 02:31:34.70	256.40	21.90	-45.8	-64.4	3.8	7.47e-01	0	58	104	0	63	30130
2026-01-15 02:31:36.72	255.94	21.67	-45.8	-63.9	3.8	7.47e-01	0	58	104	0	63	28626
2026-01-15 02:31:38.75	255.50	21.45	-45.8	-63.4	3.8	7.46e-01	0	58	104	0	63	26791
2026-01-15 02:31:40.76	255.06	21.22	-45.8	-63.9	3.8	7.46e-01	0	58	104	0	63	28473
2026-01-15 02:31:42.78	254.63	21.00	-45.8	-63.1	3.8	7.45e-01	0	58	104	0	63	25973
2026-01-15 02:31:44.80	254.20	20.78	-45.7	-59.7	4.6	7.22e-01	0	58	104	0	63	17655
2026-01-15 02:31:46.82	253.78	20.56	-45.7	-60.7	4.3	7.28e-01	0	58	104	0	63	19640
2026-01-15 02:31:48.84	253.37	20.33	-45.8	-64.1	3.8	7.45e-01	0	58	104	0	63	29025
2026-01-15 02:31:50.86	252.97	20.11	-45.6	-58.7	5.1	7.06e-01	11	58	0	0	63	15685
2026-01-15 02:31:52.88	252.57	19.89	-45.4	-56.6	6.6	6.68e-01	92	58	0	2621440	62	13068
2026-01-15 02:31:54.90	252.17	19.67	-45.5	-57.1	6.2	6.80e-01	90	58	0	6291456	62	13733
2026-01-15 02:31:56.92	251.78	19.46	-45.7	-60.8	3.9	7.39e-01	0	58	104	7340032	62	21247
2026-01-15 02:31:58.94	251.40	19.24	-45.7	-60.1	4.0	7.34e-01	0	58	104	7340032	62	19587
2026-01-15 02:32:00.96	251.02	19.02	-44.9	-53.1	10.0	6.20e-01	0	58	0	9961472	61	9185
2026-01-15 02:32:02.98	250.65	18.80	-44.4	-50.7	12.6	6.07e-01	0	58	0	13631488	60	7425
2026-01-15 02:32:05.01	250.29	18.59	-44.8	-52.3	11.0	6.12e-01	0	58	0	17301504	60	8916
2026-01-15 02:32:07.03	249.93	18.37	-44.8	-52.5	10.7	6.16e-01	0	58	0	20971520	60	9118
2026-01-15 02:32:09.05	249.57	18.16	-43.8	-48.6	15.0	6.03e-01	0	58	0	25165824	59	6192
2026-01-15 02:32:11.06	249.23	17.95	-45.7	-64.2	3.8	7.44e-01	0	58	104	27787264	61	33242
2026-01-15 02:32:13.08	248.88	17.74	-43.4	-47.9	15.9	6.03e-01	0	58	0	29884416	57	6372
2026-01-15 02:32:15.10	248.54	17.53	-45.7	-62.7	3.9	7.42e-01	0	58	104	33554432	62	26340
2026-01-15 02:32:17.12	248.21	17.32	-42.5	-46.1	17.7	6.00e-01	0	58	0	35651584	56	5466
2026-01-15 02:32:19.14	247.88	17.11	-42.4	-45.9	17.8	6.03e-01	0	58	0	39321600	56	5364
2026-01-15 02:32:21.16	247.56	16.90	-42.4	-45.9	17.9	6.03e-01	0	58	0	43515904	56	5351
2026-01-15 02:32:23.18	247.24	16.70	-42.2	-45.5	18.2	6.01e-01	0	58	0	47185920	56	5149
2026-01-15 02:32:25.20	246.92	16.49	-42.2	-45.5	18.3	6.00e-01	0	58	0	50855936	56	5101
2026-01-15 02:32:27.22	246.61	16.29	-42.2	-45.6	18.1	6.01e-01	0	58	0	54525952	56	5190
2026-01-15 02:32:29.23	246.31	16.08	-42.2	-45.6	18.1	5.99e-01	0	58	0	58720256	56	5182
2026-01-15 02:32:31.25	246.01	15.88	-42.3	-45.7	18.0	6.04e-01	0	58	0	62390272	56	5279
2026-01-15 02:32:33.27	245.71	15.68	-42.4	-45.8	17.9	6.02e-01	0	58	0	66060288	56	5327
2026-01-15 02:32:35.29	245.42	15.48	-42.2	-45.6	18.1	6.00e-01	0	58	0	69730304	56	5199
2026-01-15 02:32:37.31	245.13	15.28	-42.1	-45.4	18.3	6.01e-01	0	58	0	73400320	56	5068
2026-01-15 02:32:39.33	244.85	15.08	-42.1	-45.5	18.2	6.01e-01	0	58	0	77594624	56	5115
2026-01-15 02:32:41.35	244.57	14.89	-42.2	-45.7	18.0	6.00e-01	0	58	0	81264640	56	5231
2026-01-15 02:32:43.37	244.29	14.69	-42.3	-45.8	17.9	6.03e-01	0	58	0	84934656	56	5298
2026-01-15 02:32:45.39	244.02	14.50	-42.3	-45.7	17.9	5.99e-01	0	58	0	88604672	56	5262
2026-01-15 02:32:47.41	243.75	14.30	-42.2	-45.6	18.1	6.00e-01	0	58	0	92274688	56	5177
2026-01-15 02:32:49.43	243.48	14.11	-42.2	-45.6	18.0	6.03e-01	0	58	0	96468992	56	5198
2026-01-15 02:32:51.45	243.22	13.92	-42.2	-45.7	18.0	6.00e-01	0	58	0	100139008	56	5229
2026-01-15 02:32:53.47	242.97	13.73	-42.3	-45.7	17.9	6.03e-01	0	58	0	103809024	56	5262
2026-01-15 02:32:55.49	242.71	13.54	-42.3	-45.8	17.8	6.02e-01	0	58	0	107479040	56	5302
2026-01-15 02:32:57.50	242.46	13.35	-42.3	-45.9	17.7	6.02e-01	0	58	0	111673344	56	5371
2026-01-15 02:32:59.52	242.22	13.17	-42.4	-45.9	17.6	5.99e-01	0	58	0	115343360	56	5391
2026-01-15 02:33:01.55	241.97	12.98	-42.3	-45.9	17.7	6.01e-01	0	58	0	119013376	56	5346
2026-01-15 02:33:03.57	241.73	12.80	-42.3	-45.9	17.6	6.00e-01	0	58	0	122683392	56	5366
2026-01-15 02:33:05.59	241.49	12.61	-42.3	-45.9	17.6	6.00e-01	0	58	0	126877696	56	5370
2026-01-15 02:33:07.61	241.26	12.43	-42.3	-45.8	17.7	6.02e-01	0	58	0	130547712	56	5338
2026-01-15 02:33:09.63	241.03	12.25	-42.3	-45.8	17.7	6.02e-01	0	58	0	134217728	56	5339
2026-01-15 02:33:11.65	240.80	12.07	-42.4	-46.0	17.5	6.01e-01	0	58	0	137887744	56	5427
2026-01-15 02:33:13.67	240.58	11.89	-42.5	-46.2	17.2	6.02e-01	0	58	0	141557760	56	5580
2026-01-15 02:33:15.69	240.35	11.71	-42.6	-46.5	16.9	6.02e-01	0	58	0	145752064	56	5766
2026-01-15 02:33:17.71	240.14	11.53	-42.6	-46.5	16.9	6.02e-01	0	58	0	149422080	56	5775
2026-01-15 02:33:19.73	239.92	11.36	-42.4	-46.2	17.3	6.03e-01	0	58	0	153092096	56	5530
2026-01-15 02:33:21.75	239.71	11.18	-42.3	-46.0	17.5	6.00e-01	0	58	0	156762112	56	5415
2026-01-15 02:33:23.77	239.50	11.01	-42.4	-46.1	17.3	5.98e-01	0	58	0	160956416	56	5490
2026-01-15 02:33:25.79	239.29	10.84	-42.5	-46.3	16.7	6.03e-01	0	58	0	164626432	56	5625
2026-01-15 02:33:27.81	239.09	10.66	-42.5	-46.4	17.0	6.00e-01	0	58	0	168296448	56	5698
2026-01-15 02:33:29.84	238.88	10.49	-42.5	-46.4	16.9	6.00e-01	0	58	0	171966464	56	5716
2026-01-15 02:33:31.85	238.68	10.32	-42.5	-46.4	17.0	6.01e-01	0	58	0	175636480	56	5706
2026-01-15 02:33:33.88	238.49	10.15	-42.6	-46.5	16.9	6.05e-01	0	58	0	179830784	56	5749
2026-01-15 02:33:35.90	238.29	9.99	-42.6	-46.6	16.8	6.01e-01	0	58	0	183500800	56	5793
2026-01-15 02:33:37.92	238.10	9.82	-42.7	-46.7	16.6	6.02e-01	0	58	0	187170816	56	5917
2026-01-15 02:33:39.93	237.91	9.65	-42.8	-47.0	16.3	6.04e-01	0	58	0	190840832	56	6072
2026-01-15 02:33:41.95	237.72	9.49	-42.9	-47.3	16.0	6.05e-01	0	58	0	195035136	56	6281
2026-01-15 02:33:43.97	237.54	9.32	-42.7	-46.8	16.4	6.02e-01	0	58	0	198705152	56	5989
2026-01-15 02:33:45.99	237.36	9.16	-42.6	-46.7	16.5	6.03e-01	0	58	0	202375168	56	5912
2026-01-15 02:33:48.01	237.17	9.00	-42.6	-46.6	16.6	6.02e-01	0	58	0	206045184	56	5833
2026-01-15 02:33:50.03	237.00	8.84	-42.6	-46.7	16.5	5.98e-01	0	58	0	210239488	56	5917
2026-01-15 02:33:52.05	236.82	8.68	-42.7	-46.9	16.4	6.01e-01	0	58	0	213909504	56	6018
2026-01-15 02:33:54.07	236.65	8.52	-42.8	-47.1	16.1	6.03e-01	0	58	0	217579520	56	6192
2026-01-15 02:33:56.09	236.47	8.36	-42.8	-47.3	15.9	5.98e-01	0	58	0	221249536	56	6282
2026-01-15 02:33:58.11	236.30	8.20	-42.9	-47.4	15.8	6.01e-01	0	58	0	224919552	56	6354
2026-01-15 02:34:00.13	236.14	8.04	-42.8	-47.3	16.0	6.01e-01	0	58	0	229113856	56	6316
2026-01-15 02:34:02.15	235.97	7.89	-45.8	-64.3	3.8	7.47e-01	0	58	104	230162432	62	31795
2026-01-15 02:34:04.17	235.81	7.73	-46.1	-64.8	3.8	7.46e-01	0	58	104	230162432	62	33330
2026-01-15 02:34:06.18	235.65	7.58	-46.3	-64.9	3.8	7.42e-01	0	58	104	230162432	63	32144
2026-01-15 02:34:08.21	235.49	7.42	-46.4	-65.0	3.8	7.46e-01	0	58	104	230162432	63	32532
2026-01-15 02:34:10.23	235.33	7.27	-46.4	-65.0	3.8	7.45e-01	0	58	104	230162432	63	32368
2026-01-15 02:34:12.25	235.17	7.12	-46.3	-64.9	3.8	7.44e-01	0	58	104	230162432	63	32119
2026-01-15 02:34:14.27	235.02	6.97	-46.3	-64.9	3.8	7.46e-01	0	58	104	230162432	63	32030
2026-01-15 02:34:16.29	234.86	6.82	-46.3	-64.9	3.8	7.43e-01	0	58	104	230162432	63	32120
2026-01-15 02:34:18.31	234.71	6.67	-46.3	-64.9	3.8	7.48e-01	0	58	104	230162432	63	31944
2026-01-15 02:34:20.33	234.56	6.52	-46.3	-64.9	3.8	7.43e-01	0	58	104	230162432	63	31983
2026-01-15 02:34:22.36	234.42	6.37	-46.3	-64.9	3.8	7.46e-01	0	58	104	230162432	63	31962
2026-01-15 02:34:24.37	234.27	6.22	-46.3	-64.9	3.8	7.44e-01	0	58	104	230162432	63	31940
2026-01-15 02:34:26.40	234.13	6.07	-46.3	-64.9	3.8	7.46e-01	0	58	104	230162432	63	31910
2026-01-15 02:34:28.42	233.98	5.93	-46.3	-64.9	3.8	7.44e-01	0	58	104	230162432	63	31926
2026-01-15 02:34:30.44	233.84	5.78	-46.3	-64.9	3.8	7.44e-01	0	58	104	230162432	63	31813
2026-01-15 02:34:32.46	233.70	5.64	-46.3	-64.9	3.8	7.48e-01	0	58	104	230162432	63	31818
2026-01-15 02:34:34.48	233.57	5.50	-46.3	-64.9	3.8	7.48e-01	0	58	104	230162432	63	31845
2026-01-15 02:34:36.50	233.43	5.35	-46.3	-64.9	3.8	7.43e-01	0	58	104	230162432	63	31821
2026-01-15 02:34:38.52	233.30	5.21	-46.3	-64.9	3.8	7.44e-01	0	58	104	230162432	63	31826
2026-01-15 02:34:40.54	233.16	5.07	-46.3	-64.9	3.8	7.45e-01	0	58	104	230162432	63	31815
2026-01-15 02:34:42.57	233.03	4.93	-46.3	-64.8	3.8	7.44e-01	0	59	104	230162432	63	31786
2026-01-15 02:34:44.59	232.90	4.79	-46.3	-64.8	3.8	7.46e-01	0	58	104	230162432	63	31810
2026-01-15 02:34:46.61	232.77	4.65	-46.3	-64.8	3.8	7.45e-01	0	59	104	230162432	63	31787
2026-01-15 02:34:48.63	232.64	4.51	-46.3	-64.8	3.8	7.47e-01	0	59	104	230162432	63	31711
2026-01-15 02:34:50.66	232.52	4.37	-46.3	-64.9	3.8	7.47e-01	0	58	104	230162432	63	31844
2026-01-15 02:34:52.68	232.39	4.24	-46.3	-64.8	3.8	7.45e-01	0	58	104	230162432	63	31763
2026-01-15 02:34:54.70	232.27	4.10	-46.2	-64.8	3.8	7.47e-01	0	58	104	230162432	63	31733
2026-01-15 02:34:56.71	232.15	3.96	-46.2	-64.8	3.8	7.45e-01	0	58	104	230162432	63	31763
2026-01-15 02:34:58.73	232.02	3.83	-46.2	-64.8	3.8	7.45e-01	0	58	104	230162432	63	31722
2026-01-15 02:35:00.75	231.90	3.69	-46.2	-64.8	3.8	7.48e-01	0	59	104	230162432	63	31779
2026-01-15 02:35:02.77	231.79	3.56	-46.2	-64.8	3.8	7.49e-01	0	59	104	230162432	63	31712
2026-01-15 02:35:04.80	231.67	3.43	-46.2	-64.8	3.8	7.45e-01	0	58	104	230162432	63	31752
2026-01-15 02:35:06.82	231.55	3.29	-46.2	-64.8	3.8	7.47e-01	0	58	104	230162432	63	31741
2026-01-15 02:35:08.84	231.44	3.16	-46.2	-64.8	3.8	7.45e-01	0	58	104	230162432	63	31714
2026-01-15 02:35:10.86	231.32	3.03	-46.2	-64.8	3.8	7.46e-01	0	58	104	230162432	63	31685
2026-01-15 02:35:12.88	231.21	2.90	-46.2	-64.8	3.8	7.41e-01	0	59	104	230162432	63	31678
2026-01-15 02:35:14.90	231.10	2.77	-46.2	-64.8	3.8	7.43e-01	0	59	104	230162432	63	31733
2026-01-15 02:35:16.92	230.99	2.64	-46.2	-64.8	3.8	7.47e-01	0	59	104	230162432	63	31668
2026-01-15 02:35:18.95	230.88	2.51	-46.2	-64.8	3.8	7.46e-01	0	59	104	230162432	63	31704
2026-01-15 02:35:20.97	230.77	2.38	-46.2	-64.8	3.8	7.45e-01	0	58	104	230162432	63	31609
2026-01-15 02:35:22.99	230.66	2.25	-46.2	-64.8	3.8	7.48e-01	0	59	104	230162432	63	31760
2026-01-15 02:35:25.01	230.56	2.12	-46.2	-64.8	3.8	7.42e-01	0	58	104	230162432	63	31664
2026-01-15 02:35:27.03	230.45	2.00	-46.2	-64.8	3.8	7.42e-01	0	59	104	230162432	63	31657
2026-01-15 02:35:29.06	230.35	1.87	-46.2	-64.8	3.8	7.46e-01	0	58	104	230162432	63	31647

#Closed at: 2026-01-15 02:35:29
#Recorded file [230 MB]: D:/lorett/data/31039_260115_053116.dat