passes_logs/2026/01/15/R2.0S_Moscow/R2.0S_Moscow__20260115_092509_SUOMI_NPP_rec.log

#Pass ID: 20260115_092509_SUOMI NPP
#Satellite: SUOMI NPP
#Configuration: NPP
#almurnet v.1.7.20251203
#Start time: 2026-01-15 09:25:09

#Version: 2.2.20231116
#Station: R2.0S_Moscow
#Location: 37.707566 lon 55.798166 lat
#TLE: 1 37849U 11061A   26014.11719687  .00000048  00000+0  43625-4 0  9998
#TLE: 2 37849  98.7809 316.1734 0002474  65.2440 294.8994 14.19525043736585

#Time	Az	El	Level	Level2	SNR	BER	BlckErr	Temp	State	Recorded	gain1	gain2
2026-01-15 09:25:09.80	143.85	2.02	-43.7	-58.1	3.8	1.49e+00	0	50	0	0	57	20758
2026-01-15 09:25:13.83	143.76	2.28	-43.4	-58.1	3.8	1.49e+00	0	51	104	0	57	20672
2026-01-15 09:25:17.88	143.67	2.54	-43.4	-57.7	3.8	1.49e+00	0	51	104	0	56	20924
2026-01-15 09:25:21.92	143.57	2.80	-43.1	-58.0	3.8	1.49e+00	0	51	104	0	57	20487
2026-01-15 09:25:25.96	143.47	3.07	-43.3	-58.0	3.8	1.49e+00	0	52	104	0	57	20333
2026-01-15 09:25:29.99	143.37	3.33	-43.4	-58.0	3.8	1.49e+00	0	52	104	0	57	20393
2026-01-15 09:25:34.03	143.27	3.60	-43.4	-57.9	3.8	1.49e+00	0	52	104	0	57	20287
2026-01-15 09:25:38.07	143.16	3.87	-43.4	-58.1	3.8	1.49e+00	0	53	104	0	57	20606
2026-01-15 09:25:42.11	143.05	4.15	-42.8	-57.9	3.8	1.49e+00	0	53	104	0	57	20090
2026-01-15 09:25:46.15	142.94	4.43	-43.3	-58.0	3.8	1.49e+00	0	53	104	0	57	20529
2026-01-15 09:25:50.18	142.83	4.71	-43.6	-58.1	3.8	1.49e+00	0	53	104	0	57	20606
2026-01-15 09:25:54.22	142.72	4.99	-42.7	-57.9	3.9	1.49e+00	0	54	104	0	57	20081
2026-01-15 09:25:58.26	142.60	5.28	-43.3	-57.8	3.8	1.49e+00	0	54	104	0	57	20024
2026-01-15 09:26:02.29	142.48	5.57	-43.1	-57.8	3.8	1.49e+00	0	54	104	0	57	19958
2026-01-15 09:26:06.33	142.36	5.86	-43.3	-56.8	3.8	1.49e+00	0	54	104	0	57	17758
2026-01-15 09:26:10.37	142.24	6.15	-43.3	-55.5	3.8	1.48e+00	0	54	104	0	57	15255
2026-01-15 09:26:14.41	142.11	6.45	-43.3	-54.0	4.3	1.35e+00	0	55	0	0	57	12958
2026-01-15 09:26:18.44	141.98	6.75	-43.0	-54.8	4.0	1.40e+00	0	55	0	2097152	57	14163
2026-01-15 09:26:22.48	141.85	7.06	-42.4	-57.3	3.8	1.49e+00	0	55	104	2097152	56	20011
2026-01-15 09:26:26.52	141.71	7.37	-43.0	-56.4	3.8	1.49e+00	0	55	104	2097152	57	16917
2026-01-15 09:26:30.56	141.57	7.68	-42.8	-51.3	5.8	5.66e-01	0	55	0	5242880	56	9961
2026-01-15 09:26:34.60	141.43	8.00	-41.6	-48.1	8.3	7.45e-02	0	55	0	12582912	54	7720
2026-01-15 09:26:38.64	141.29	8.32	-43.2	-52.5	5.1	9.55e-01	0	56	0	15728640	56	11514
2026-01-15 09:26:42.67	141.14	8.64	-41.6	-46.6	10.0	3.77e-02	0	56	0	23068672	53	6904
2026-01-15 09:26:46.71	140.98	8.97	-40.7	-46.9	8.9	3.50e-02	0	56	0	30408704	52	7575
2026-01-15 09:26:50.75	140.83	9.30	-41.2	-47.6	8.6	4.96e-02	0	56	0	38797312	53	7727
2026-01-15 09:26:54.78	140.67	9.64	-40.6	-47.9	7.7	9.59e-02	0	56	0	46137344	52	8472
2026-01-15 09:26:58.81	140.50	9.98	-39.8	-46.5	8.7	9.29e-02	0	56	0	53477376	52	7224
2026-01-15 09:27:02.85	140.34	10.33	-39.4	-45.3	9.6	1.07e-01	0	57	0	60817408	50	7056
2026-01-15 09:27:06.89	140.16	10.68	-39.5	-45.4	9.3	1.18e-01	0	57	0	68157440	51	6760
2026-01-15 09:27:10.92	139.99	11.03	-41.4	-47.7	7.8	1.88e-01	0	56	0	76546048	53	7857
2026-01-15 09:27:14.96	139.80	11.39	-38.1	-46.3	8.2	2.79e-01	0	57	0	83886080	51	7465
2026-01-15 09:27:19.00	139.62	11.76	-36.5	-44.0	9.1	1.24e-01	0	57	0	91226112	46	7670
2026-01-15 09:27:23.03	139.43	12.13	-37.4	-44.7	7.2	9.43e-02	0	57	0	98566144	45	8846
2026-01-15 09:27:27.06	139.23	12.50	-37.4	-46.0	6.1	3.20e-01	0	57	0	105906176	44	10875
2026-01-15 09:27:31.10	139.03	12.88	-41.5	-46.4	8.2	1.92e-01	0	57	0	114294784	51	7587
2026-01-15 09:27:35.14	138.82	13.27	-37.0	-43.7	7.3	1.57e-01	0	57	0	121634816	42	9346
2026-01-15 09:27:39.18	138.61	13.66	-41.2	-45.6	8.7	4.21e-01	0	57	0	128974848	49	7785
2026-01-15 09:27:43.22	138.39	14.06	-34.7	-45.2	5.9	5.03e-01	0	57	0	136314880	42	11049
2026-01-15 09:27:47.25	138.16	14.47	-36.8	-44.1	7.4	4.35e-01	0	57	0	143654912	43	9196
2026-01-15 09:27:51.29	137.93	14.88	-37.1	-44.4	7.8	2.39e-01	0	58	0	150994944	45	8466
2026-01-15 09:27:55.33	137.69	15.30	-36.6	-45.3	7.2	6.26e-01	0	58	0	158334976	46	8922
2026-01-15 09:27:59.37	137.44	15.72	-37.9	-45.0	7.9	3.73e-01	0	58	0	165675008	46	8634
2026-01-15 09:28:03.40	137.19	16.15	-39.2	-44.6	8.5	3.77e-01	0	58	0	174063616	48	7369
2026-01-15 09:28:07.43	136.93	16.59	-39.3	-45.2	7.5	2.45e-01	0	58	0	181403648	47	8301
2026-01-15 09:28:11.47	136.66	17.04	-40.0	-45.1	10.5	2.09e-01	0	58	0	188743680	49	7317
2026-01-15 09:28:15.51	136.38	17.49	-39.7	-45.4	9.6	1.06e-01	0	58	0	196083712	50	7141
2026-01-15 09:28:19.54	136.10	17.95	-40.8	-46.4	10.3	1.12e-01	0	58	0	203423744	54	6411
2026-01-15 09:28:23.58	135.80	18.42	-40.3	-45.2	10.4	3.31e-02	0	58	0	211812352	51	6603
2026-01-15 09:28:27.61	135.50	18.90	-41.5	-45.6	12.2	1.04e-02	0	58	0	219152384	53	6138
2026-01-15 09:28:31.64	135.18	19.38	-42.1	-46.4	11.3	5.41e-03	0	58	0	226492416	54	6373
2026-01-15 09:28:35.68	134.85	19.88	-41.7	-45.7	12.0	5.29e-03	0	58	0	233832448	54	5862
2026-01-15 09:28:39.71	134.52	20.38	-42.2	-46.7	10.7	2.86e-03	0	58	0	241172480	55	6255
2026-01-15 09:28:43.75	134.17	20.90	-42.1	-46.5	11.1	7.63e-03	0	58	0	249561088	55	6123
2026-01-15 09:28:47.79	133.80	21.42	-41.6	-45.9	11.5	1.35e-02	0	58	0	256901120	54	6045
2026-01-15 09:28:51.82	133.43	21.95	-41.8	-47.1	9.9	2.73e-02	0	58	0	264241152	54	6898
2026-01-15 09:28:55.86	133.04	22.50	-41.3	-46.2	10.7	2.28e-02	0	58	0	271581184	54	6232
2026-01-15 09:28:59.90	132.64	23.05	-42.1	-46.8	10.1	2.52e-02	0	59	0	279969792	54	6719
2026-01-15 09:29:03.94	132.22	23.61	-42.3	-46.6	11.1	1.30e-02	0	59	0	287309824	55	6198
2026-01-15 09:29:07.97	131.79	24.19	-41.9	-47.3	9.5	2.03e-02	0	59	0	294649856	55	6668
2026-01-15 09:29:12.00	131.34	24.77	-41.3	-46.5	10.3	2.07e-02	0	59	0	301989888	54	6427
2026-01-15 09:29:16.03	130.88	25.36	-41.1	-46.9	9.4	3.58e-02	0	58	0	309329920	53	7192
2026-01-15 09:29:20.07	130.39	25.97	-42.5	-47.3	10.3	6.29e-02	0	59	0	317718528	55	6678
2026-01-15 09:29:24.10	129.89	26.59	-42.7	-47.9	9.9	1.70e-02	0	59	0	325058560	56	6775
2026-01-15 09:29:28.14	129.36	27.22	-42.1	-46.7	11.1	4.43e-03	0	59	0	332398592	55	6230
2026-01-15 09:29:32.18	128.81	27.87	-42.5	-46.8	11.3	1.61e-03	0	59	0	339738624	55	6290
2026-01-15 09:29:36.21	128.24	28.52	-42.7	-47.1	11.2	1.66e-03	0	59	0	347078656	56	6174
2026-01-15 09:29:40.25	127.65	29.19	-42.8	-47.2	11.1	1.36e-03	0	59	0	355467264	56	6221
2026-01-15 09:29:44.29	127.03	29.87	-42.9	-47.4	10.9	1.98e-03	0	59	0	362807296	56	6409
2026-01-15 09:29:48.32	126.38	30.56	-43.3	-48.4	9.9	1.10e-02	0	59	0	370147328	57	6777
2026-01-15 09:29:52.36	125.70	31.27	-43.2	-48.3	10.1	8.19e-03	0	59	0	377487360	57	6654
2026-01-15 09:29:56.39	125.00	31.98	-43.8	-49.9	8.4	4.13e-02	0	59	0	385875968	58	7602
2026-01-15 09:30:00.43	124.26	32.71	-43.4	-49.1	9.1	2.60e-02	0	59	0	393216000	58	6954
2026-01-15 09:30:04.46	123.48	33.45	-43.8	-50.0	8.3	5.18e-02	0	59	0	400556032	58	7639
2026-01-15 09:30:08.50	122.67	34.21	-43.6	-49.1	9.2	3.87e-02	0	59	0	407896064	58	6882
2026-01-15 09:30:12.53	121.82	34.97	-43.5	-48.8	9.6	1.03e-02	0	59	0	415236096	58	6651
2026-01-15 09:30:16.56	120.93	35.75	-43.2	-48.0	10.4	9.17e-03	0	59	0	423624704	58	6081
2026-01-15 09:30:20.60	119.99	36.54	-43.5	-48.8	9.5	1.40e-02	0	59	0	430964736	58	6705
2026-01-15 09:30:24.64	119.01	37.34	-43.3	-48.2	10.2	5.84e-03	0	59	0	438304768	58	6254
2026-01-15 09:30:28.68	117.97	38.14	-43.5	-48.9	9.4	1.53e-02	0	59	0	445644800	58	6798
2026-01-15 09:30:32.72	116.88	38.96	-43.2	-47.9	10.5	5.38e-03	0	59	0	452984832	58	5998
2026-01-15 09:30:36.76	115.74	39.78	-43.8	-49.6	8.7	3.74e-02	0	59	0	461373440	58	7325
2026-01-15 09:30:40.81	114.53	40.61	-43.2	-48.1	10.3	7.77e-03	0	59	0	468713472	58	6168
2026-01-15 09:30:44.85	113.26	41.45	-42.8	-47.1	11.3	8.35e-04	0	59	0	476053504	57	5845
2026-01-15 09:30:48.88	111.93	42.28	-43.8	-49.9	8.5	2.91e-02	0	59	0	483393536	58	7559
2026-01-15 09:30:52.91	110.53	43.11	-43.7	-49.3	9.1	2.57e-02	0	59	0	491782144	58	7105
2026-01-15 09:30:56.95	109.04	43.95	-44.0	-50.3	8.1	5.65e-02	0	59	0	499122176	58	7966
2026-01-15 09:31:00.98	107.48	44.77	-43.9	-49.8	8.6	4.95e-02	0	60	0	506462208	58	7537
2026-01-15 09:31:05.01	105.84	45.59	-44.0	-50.2	8.1	8.28e-02	0	60	0	513802240	58	7897
2026-01-15 09:31:09.04	104.11	46.40	-44.0	-50.2	8.3	7.11e-02	0	60	0	521142272	58	7810
2026-01-15 09:31:13.07	102.29	47.19	-42.3	-45.8	12.7	8.39e-05	0	60	0	529530880	56	5318
2026-01-15 09:31:17.11	100.38	47.97	-42.6	-47.1	11.4	7.80e-04	0	60	0	536870912	56	6144
2026-01-15 09:31:21.13	98.37	48.71	-42.7	-47.2	11.3	7.71e-04	0	59	0	544210944	56	6240
2026-01-15 09:31:25.17	96.26	49.44	-42.4	-46.5	12.0	1.53e-03	0	60	0	551550976	56	5724
2026-01-15 09:31:29.20	94.05	50.13	-42.1	-45.9	12.6	1.51e-04	0	60	0	559939584	56	5365
2026-01-15 09:31:33.24	91.73	50.78	-41.9	-45.6	12.7	1.12e-04	0	60	0	567279616	55	5511
2026-01-15 09:31:37.28	89.32	51.39	-42.7	-47.7	10.5	2.09e-03	0	60	0	574619648	55	7018
2026-01-15 09:31:41.31	86.81	51.95	-42.8	-47.7	10.6	5.89e-03	0	60	0	581959680	57	6264
2026-01-15 09:31:45.35	84.21	52.46	-43.0	-48.5	10.0	6.16e-03	0	60	0	589299712	56	7216
2026-01-15 09:31:49.39	81.52	52.91	-42.4	-47.0	11.3	1.95e-03	0	60	0	597688320	56	6098
2026-01-15 09:31:53.43	78.75	53.30	-40.7	-43.8	14.5	7.00e-07	0	60	0	605028352	53	4991
2026-01-15 09:31:57.47	75.92	53.62	-40.3	-43.1	15.3	0.00e+00	0	60	0	612368384	52	4888
2026-01-15 09:32:01.50	73.03	53.87	-41.1	-44.6	13.8	3.00e-06	0	60	0	619708416	52	5797
2026-01-15 09:32:05.54	70.10	54.04	-40.4	-43.3	15.0	0.00e+00	0	60	0	627048448	52	4985
2026-01-15 09:32:09.58	67.14	54.14	-41.5	-45.2	13.1	1.21e-04	0	60	0	635437056	54	5563
2026-01-15 09:32:13.61	64.17	54.16	-41.2	-44.5	13.9	3.00e-06	0	60	0	642777088	54	5102
2026-01-15 09:32:17.64	61.21	54.11	-41.4	-44.9	13.4	7.60e-06	0	60	0	650117120	54	5401
2026-01-15 09:32:21.67	58.27	53.97	-41.2	-44.6	13.8	2.20e-06	0	60	0	657457152	53	5470
2026-01-15 09:32:25.71	55.35	53.76	-40.2	-42.9	15.4	0.00e+00	0	60	0	665845760	52	4765
2026-01-15 09:32:29.74	52.50	53.48	-39.8	-42.2	16.1	0.00e+00	0	60	0	673185792	51	4686
2026-01-15 09:32:33.78	49.69	53.13	-40.5	-43.3	15.2	0.00e+00	0	60	0	680525824	51	5297
2026-01-15 09:32:37.82	46.96	52.72	-41.0	-44.0	14.4	7.00e-07	0	60	0	687865856	53	5119
2026-01-15 09:32:41.86	44.32	52.24	-42.2	-46.3	12.1	2.08e-04	0	60	0	695205888	54	6314
2026-01-15 09:32:45.89	41.77	51.71	-42.2	-46.1	12.3	6.33e-05	0	60	0	703594496	55	5825
2026-01-15 09:32:49.93	39.30	51.12	-43.1	-48.1	10.4	3.39e-03	0	60	0	710934528	56	6920
2026-01-15 09:32:53.97	36.94	50.49	-42.2	-46.2	12.1	2.24e-04	0	60	0	718274560	55	5918
2026-01-15 09:32:58.01	34.67	49.82	-42.3	-46.6	11.6	1.24e-03	0	60	0	725614592	55	6175
2026-01-15 09:33:02.05	32.51	49.12	-42.2	-46.4	11.9	2.58e-04	0	60	0	734003200	55	6016
2026-01-15 09:33:06.08	30.45	48.39	-42.7	-47.2	11.1	1.34e-03	0	60	0	741343232	55	6622
2026-01-15 09:33:10.11	28.49	47.63	-42.8	-47.5	10.9	1.70e-03	0	60	0	748683264	56	6463
2026-01-15 09:33:14.14	26.63	46.85	-44.4	-52.9	5.7	4.29e-01	0	60	0	756023296	59	10141
2026-01-15 09:33:18.17	24.85	46.05	-43.9	-50.5	7.9	1.13e-01	0	60	0	763363328	59	7683
2026-01-15 09:33:22.21	23.16	45.24	-43.2	-48.3	9.9	1.59e-02	0	60	0	771751936	58	6340
2026-01-15 09:33:26.24	21.57	44.42	-42.7	-47.1	11.3	4.86e-04	0	60	0	779091968	56	6145
2026-01-15 09:33:30.27	20.05	43.60	-43.3	-49.1	9.4	2.29e-02	0	60	0	786432000	57	7296
2026-01-15 09:33:34.30	18.61	42.77	-44.0	-51.1	7.2	1.57e-01	0	60	0	793772032	58	8662
2026-01-15 09:33:38.33	17.24	41.94	-43.2	-48.4	9.7	1.42e-02	0	60	0	801112064	58	6385
2026-01-15 09:33:42.37	15.94	41.11	-43.4	-49.1	9.2	9.47e-03	0	60	0	809500672	57	7306
2026-01-15 09:33:46.39	14.71	40.28	-43.8	-50.6	7.7	1.03e-01	0	60	0	816840704	58	8198
2026-01-15 09:33:50.42	13.54	39.46	-43.5	-49.6	8.6	3.95e-02	0	60	0	824180736	58	7323
2026-01-15 09:33:54.46	12.42	38.64	-43.0	-48.4	9.8	5.89e-03	0	60	0	831520768	57	6787
2026-01-15 09:33:58.50	11.36	37.84	-43.4	-49.1	9.0	1.98e-02	0	60	0	838860800	57	7335
2026-01-15 09:34:02.53	10.36	37.04	-43.1	-48.6	9.5	9.79e-03	0	60	0	847249408	57	6920
2026-01-15 09:34:06.56	9.40	36.25	-43.5	-49.4	8.8	3.22e-02	0	60	0	854589440	57	7569
2026-01-15 09:34:10.60	8.49	35.47	-43.8	-50.2	8.0	6.84e-02	0	60	0	861929472	58	7899
2026-01-15 09:34:14.63	7.62	34.70	-42.9	-47.7	10.7	4.23e-03	0	60	0	869269504	57	6204
2026-01-15 09:34:18.67	6.79	33.94	-43.2	-48.5	9.6	1.73e-02	0	60	0	877658112	57	6875
2026-01-15 09:34:22.70	5.99	33.20	-43.2	-48.6	9.6	8.87e-03	0	60	0	884998144	57	6886
2026-01-15 09:34:26.73	5.24	32.47	-43.1	-48.1	10.1	9.63e-03	0	60	0	892338176	57	6565
2026-01-15 09:34:30.77	4.52	31.74	-43.3	-48.7	9.5	2.55e-02	0	60	0	899678208	57	7002
2026-01-15 09:34:34.81	3.83	31.03	-42.8	-47.6	10.5	2.52e-03	0	60	0	907018240	57	6163
2026-01-15 09:34:38.84	3.17	30.34	-43.1	-48.2	10.0	9.44e-03	0	60	0	915406848	57	6599
2026-01-15 09:34:42.88	2.53	29.65	-43.0	-48.1	10.2	3.53e-03	0	60	0	922746880	57	6499
2026-01-15 09:34:46.91	1.93	28.98	-42.3	-46.4	11.8	6.50e-04	0	60	0	930086912	56	5661
2026-01-15 09:34:50.95	1.35	28.32	-42.2	-46.3	11.7	2.63e-04	0	60	0	937426944	55	5974
2026-01-15 09:34:54.99	0.79	27.68	-42.9	-47.8	10.3	5.60e-03	0	60	0	945815552	56	6714
2026-01-15 09:34:59.03	0.25	27.04	-43.1	-48.4	9.7	1.24e-02	0	60	0	953155584	56	7158
2026-01-15 09:35:03.07	359.74	26.42	-42.8	-47.7	10.4	4.18e-03	0	60	0	960495616	56	6578
2026-01-15 09:35:07.10	359.25	25.81	-42.5	-47.0	11.0	1.16e-03	0	60	0	967835648	56	6124
2026-01-15 09:35:11.14	358.77	25.20	-43.2	-48.9	9.0	2.01e-02	0	60	0	975175680	56	7605
2026-01-15 09:35:15.17	358.32	24.62	-43.0	-48.5	9.3	1.65e-02	0	60	0	983564288	57	6839
2026-01-15 09:35:19.21	357.88	24.04	-43.0	-48.8	8.9	2.59e-02	0	60	0	990904320	57	7086
2026-01-15 09:35:23.24	357.46	23.47	-42.9	-48.4	9.2	1.98e-02	0	60	0	998244352	57	6783
2026-01-15 09:35:27.28	357.05	22.92	-42.7	-47.9	9.7	9.89e-03	0	60	0	1005584384	57	6384
2026-01-15 09:35:31.32	356.66	22.37	-42.8	-48.3	9.2	1.82e-02	0	60	0	1012924416	57	6677
2026-01-15 09:35:35.36	356.28	21.83	-42.1	-47.1	10.0	1.03e-02	0	60	0	1021313024	56	6178
2026-01-15 09:35:39.39	355.91	21.31	-41.4	-46.4	10.2	5.64e-03	0	60	0	1028653056	54	6387
2026-01-15 09:35:43.43	355.56	20.79	-41.8	-48.2	8.1	3.08e-02	0	60	0	1035993088	54	7835
2026-01-15 09:35:47.47	355.22	20.28	-42.2	-52.8	4.4	9.93e-01	0	60	0	1043333120	54	13346
2026-01-15 09:35:51.51	354.89	19.78	-41.8	-55.6	3.8	1.49e+00	0	60	104	1044381696	54	18387
2026-01-15 09:35:55.55	354.57	19.29	-41.8	-56.0	3.8	1.49e+00	0	60	104	1044381696	54	19212
2026-01-15 09:35:59.58	354.26	18.81	-41.3	-56.0	3.8	1.49e+00	0	60	104	1044381696	54	19332
2026-01-15 09:36:03.62	353.96	18.34	-40.9	-55.6	3.8	1.49e+00	0	60	104	1044381696	53	19522
2026-01-15 09:36:07.66	353.67	17.88	-40.4	-55.3	3.8	1.49e+00	0	60	104	1044381696	52	20051
2026-01-15 09:36:11.70	353.39	17.42	-40.7	-55.5	3.8	1.49e+00	0	60	104	1044381696	52	20312
2026-01-15 09:36:15.74	353.12	16.97	-40.2	-55.4	3.8	1.49e+00	0	60	104	1044381696	52	20094
2026-01-15 09:36:19.78	352.86	16.53	-40.7	-55.4	3.8	1.49e+00	0	60	104	1044381696	52	20217
2026-01-15 09:36:23.81	352.61	16.09	-40.5	-55.4	3.8	1.49e+00	0	60	104	1044381696	52	20256
2026-01-15 09:36:27.85	352.36	15.67	-40.3	-55.3	3.8	1.49e+00	0	60	104	1044381696	52	20046
2026-01-15 09:36:31.90	352.12	15.25	-40.3	-55.3	3.8	1.49e+00	0	60	104	1044381696	52	19973
2026-01-15 09:36:35.94	351.89	14.83	-40.1	-55.6	3.8	1.49e+00	0	60	104	1044381696	52	20544
2026-01-15 09:36:39.98	351.66	14.42	-40.8	-55.4	3.8	1.49e+00	0	60	104	1044381696	52	20297
2026-01-15 09:36:44.02	351.44	14.02	-40.5	-55.5	3.8	1.49e+00	0	60	104	1044381696	52	20368
2026-01-15 09:36:48.06	351.23	13.63	-40.9	-55.5	3.8	1.49e+00	0	60	104	1044381696	52	20366
2026-01-15 09:36:52.10	351.02	13.24	-40.8	-55.5	3.8	1.49e+00	0	60	104	1044381696	52	20380
2026-01-15 09:36:56.14	350.82	12.86	-40.7	-55.3	3.8	1.49e+00	0	60	104	1044381696	52	20026
2026-01-15 09:37:00.19	350.62	12.48	-40.8	-55.5	3.8	1.49e+00	0	60	104	1044381696	52	20318
2026-01-15 09:37:04.23	350.43	12.10	-40.8	-55.4	3.8	1.49e+00	0	60	104	1044381696	52	20253
2026-01-15 09:37:08.26	350.25	11.74	-40.7	-55.3	3.8	1.49e+00	0	60	104	1044381696	52	20033
2026-01-15 09:37:12.31	350.07	11.38	-40.6	-55.3	3.8	1.49e+00	0	60	104	1044381696	52	19948
2026-01-15 09:37:16.34	349.89	11.02	-40.8	-55.4	3.8	1.49e+00	0	60	104	1044381696	52	20263
2026-01-15 09:37:20.38	349.72	10.67	-40.6	-55.3	3.8	1.49e+00	0	60	104	1044381696	52	19930
2026-01-15 09:37:24.42	349.55	10.32	-40.7	-55.4	3.8	1.49e+00	0	60	104	1044381696	52	20198
2026-01-15 09:37:28.46	349.39	9.98	-40.7	-55.4	3.8	1.49e+00	0	60	104	1044381696	52	20212
2026-01-15 09:37:32.50	349.23	9.64	-40.8	-55.4	3.8	1.49e+00	0	60	104	1044381696	52	20270
2026-01-15 09:37:36.54	349.08	9.30	-41.0	-55.6	3.8	1.49e+00	0	60	104	1044381696	52	20590
2026-01-15 09:37:40.57	348.93	8.97	-41.0	-55.5	3.8	1.49e+00	0	60	104	1044381696	52	20479
2026-01-15 09:37:44.61	348.78	8.65	-41.0	-55.5	3.8	1.49e+00	0	60	104	1044381696	52	20521
2026-01-15 09:37:48.65	348.64	8.33	-40.9	-55.5	3.8	1.49e+00	0	61	104	1044381696	52	20407
2026-01-15 09:37:52.69	348.50	8.01	-41.0	-55.5	3.8	1.49e+00	0	60	104	1044381696	52	20388
2026-01-15 09:37:56.74	348.36	7.69	-44.8	-59.3	3.8	1.49e+00	0	60	104	1044381696	60	20050
2026-01-15 09:38:00.78	348.23	7.38	-45.2	-59.8	3.8	1.49e+00	0	60	104	1044381696	60	21093
2026-01-15 09:38:04.82	348.10	7.08	-45.8	-60.0	3.8	1.49e+00	0	60	104	1044381696	60	21598
2026-01-15 09:38:08.86	347.97	6.77	-45.1	-59.7	3.8	1.49e+00	0	60	104	1044381696	60	20778
2026-01-15 09:38:12.90	347.85	6.47	-45.1	-59.6	3.8	1.49e+00	0	60	104	1044381696	60	20615
2026-01-15 09:38:16.93	347.73	6.18	-45.1	-59.6	3.8	1.49e+00	0	60	104	1044381696	60	20657
2026-01-15 09:38:20.97	347.61	5.88	-45.1	-59.6	3.8	1.49e+00	0	60	104	1044381696	60	20689
2026-01-15 09:38:25.01	347.49	5.59	-45.1	-59.6	3.8	1.49e+00	0	61	104	1044381696	60	20693
2026-01-15 09:38:29.05	347.38	5.31	-45.1	-59.6	3.8	1.49e+00	0	60	104	1044381696	60	20725
2026-01-15 09:38:33.09	347.27	5.02	-45.0	-59.6	3.8	1.49e+00	0	60	104	1044381696	60	20735
2026-01-15 09:38:37.13	347.16	4.74	-45.1	-59.6	3.8	1.49e+00	0	60	104	1044381696	60	20610
2026-01-15 09:38:41.17	347.05	4.46	-45.1	-59.6	3.8	1.49e+00	0	60	104	1044381696	60	20592
2026-01-15 09:38:45.21	346.95	4.19	-45.1	-59.6	3.8	1.49e+00	0	61	104	1044381696	60	20668
2026-01-15 09:38:49.25	346.85	3.91	-45.1	-59.6	3.8	1.49e+00	0	60	104	1044381696	60	20674
2026-01-15 09:38:53.30	346.75	3.64	-45.1	-59.6	3.8	1.49e+00	0	60	104	1044381696	60	20603
2026-01-15 09:38:57.34	346.65	3.37	-45.1	-59.6	3.8	1.49e+00	0	60	104	1044381696	60	20634
2026-01-15 09:39:01.37	346.56	3.11	-45.1	-59.6	3.8	1.49e+00	0	60	104	1044381696	60	20561
2026-01-15 09:39:05.41	346.47	2.85	-45.0	-59.5	3.8	1.49e+00	0	60	104	1044381696	60	20532
2026-01-15 09:39:09.44	346.37	2.59	-45.1	-59.5	3.8	1.49e+00	0	60	104	1044381696	60	20506
2026-01-15 09:39:13.48	346.29	2.33	-45.1	-59.6	3.8	1.49e+00	0	61	104	1044381696	60	20640
2026-01-15 09:39:17.52	346.20	2.07	-45.1	-59.6	3.8	1.49e+00	0	61	104	1044381696	60	20639

#Closed at: 2026-01-15 09:39:18
#Recorded file [1044 MB]: D:/lorett/data/31039_260115_122509.dat