passes_logs/2026/01/15/R2.0S_Moscow/R2.0S_Moscow__20260115_080711_NOAA_20_JPSS-1_rec.log

#Pass ID: 20260115_080711_NOAA 20 (JPSS-1)
#Satellite: NOAA 20 (JPSS-1)
#Configuration: NOAA 20
#almurnet v.1.7.20251203
#Start time: 2026-01-15 08:07:10

#Version: 2.2.20231116
#Station: R2.0S_Moscow
#Location: 37.707566 lon 55.798166 lat
#TLE: 1 43013U 17073A   26014.13176244  .00000049  00000+0  44136-4 0  9994
#TLE: 2 43013  98.7634 315.0803 0001538  40.6488 319.4803 14.19535812422619

#Time	Az	El	Level	Level2	SNR	BER	BlckErr	Temp	State	Recorded	gain1	gain2
2026-01-15 08:07:10.89	107.62	1.99	-23.9	-39.3	3.6	1.50e+00	0	50	0	0	20	20019
2026-01-15 08:07:13.91	107.40	2.16	-25.0	-39.7	4.0	1.50e+00	0	50	104	0	23	17606
2026-01-15 08:07:16.94	107.18	2.33	-28.5	-41.4	4.1	1.50e+00	0	51	104	0	27	16893
2026-01-15 08:07:19.97	106.96	2.50	-26.1	-43.8	4.0	1.50e+00	0	51	104	0	29	19916
2026-01-15 08:07:23.00	106.73	2.66	-18.0	-35.2	3.6	1.50e+00	0	51	104	0	13	18664
2026-01-15 08:07:26.03	106.50	2.83	-20.9	-37.9	3.7	1.50e+00	0	52	104	0	15	22724
2026-01-15 08:07:29.06	106.27	3.00	-26.3	-40.1	4.1	1.50e+00	0	51	104	0	22	19526
2026-01-15 08:07:32.09	106.04	3.17	-18.7	-37.3	3.8	1.50e+00	0	52	104	0	14	22424
2026-01-15 08:07:35.12	105.80	3.34	-26.6	-40.0	3.8	1.50e+00	0	52	104	0	28	13612
2026-01-15 08:07:38.15	105.56	3.51	-21.8	-39.4	3.7	1.50e+00	0	52	104	0	18	22539
2026-01-15 08:07:41.19	105.32	3.69	-20.8	-37.6	3.7	1.50e+00	0	52	104	0	14	23084
2026-01-15 08:07:44.21	105.07	3.86	-33.7	-47.3	4.1	1.50e+00	0	52	104	0	34	22434
2026-01-15 08:07:47.24	104.82	4.03	-30.5	-46.7	4.2	1.50e+00	0	53	104	0	34	21000
2026-01-15 08:07:50.27	104.57	4.20	-31.0	-43.6	3.8	1.50e+00	0	53	104	0	26	23112
2026-01-15 08:07:53.31	104.31	4.38	-22.4	-39.7	3.9	1.50e+00	0	53	104	0	14	29625
2026-01-15 08:07:56.34	104.06	4.55	-22.6	-37.7	3.7	1.50e+00	0	53	104	0	16	20986
2026-01-15 08:07:59.37	103.80	4.73	-30.5	-41.2	4.1	1.50e+00	0	53	104	0	24	19777
2026-01-15 08:08:02.40	103.53	4.91	-25.0	-40.9	3.9	1.50e+00	0	53	104	0	25	17934
2026-01-15 08:08:05.43	103.26	5.08	-20.8	-36.9	3.3	1.50e+00	0	54	104	0	24	11975
2026-01-15 08:08:08.46	102.99	5.26	-24.9	-40.8	4.0	1.51e+00	0	54	0	0	19	25256
2026-01-15 08:08:11.49	102.72	5.44	-30.9	-44.7	4.4	1.50e+00	0	54	104	0	30	20977
2026-01-15 08:08:14.52	102.44	5.61	-27.3	-45.1	3.7	1.50e+00	0	54	104	0	26	27604
2026-01-15 08:08:17.55	102.16	5.79	-24.3	-41.0	3.7	1.50e+00	0	54	104	0	15	32197
2026-01-15 08:08:20.57	101.87	5.97	-34.3	-47.3	3.9	1.50e+00	0	54	104	0	30	28317
2026-01-15 08:08:23.60	101.59	6.15	-27.8	-41.7	4.1	1.50e+00	0	54	104	0	28	16572
2026-01-15 08:08:26.63	101.29	6.33	-23.1	-40.1	3.5	1.50e+00	0	54	104	0	20	21829
2026-01-15 08:08:29.66	101.00	6.51	-30.8	-43.3	3.7	1.50e+00	0	55	104	0	23	26577
2026-01-15 08:08:32.69	100.70	6.70	-30.9	-45.8	3.8	1.50e+00	0	55	104	0	33	19871
2026-01-15 08:08:35.72	100.39	6.88	-31.0	-45.1	3.9	1.50e+00	0	55	104	0	32	19563
2026-01-15 08:08:38.75	100.09	7.06	-26.7	-43.6	4.1	1.51e+00	0	55	104	0	37	12237
2026-01-15 08:08:41.78	99.77	7.24	-32.4	-46.7	4.1	1.50e+00	0	55	104	0	31	24859
2026-01-15 08:08:44.81	99.46	7.43	-32.9	-46.4	3.9	1.50e+00	0	55	104	0	31	24091
2026-01-15 08:08:47.83	99.14	7.61	-31.1	-45.0	3.9	1.50e+00	0	55	104	0	31	20387
2026-01-15 08:08:50.86	98.82	7.80	-25.2	-39.9	3.6	1.50e+00	0	56	104	0	25	16050
2026-01-15 08:08:53.89	98.49	7.98	-28.1	-41.5	3.8	1.50e+00	0	56	104	0	23	21543
2026-01-15 08:08:56.92	98.16	8.17	-27.1	-39.2	3.6	1.50e+00	0	56	104	0	19	20996
2026-01-15 08:08:59.95	97.82	8.35	-27.5	-40.4	4.0	1.50e+00	0	56	104	0	24	17970
2026-01-15 08:09:02.98	97.48	8.54	-21.3	-41.6	4.0	1.50e+00	0	56	104	0	29	15504
2026-01-15 08:09:06.01	97.13	8.73	-29.5	-46.6	4.1	1.50e+00	0	56	104	0	31	24500
2026-01-15 08:09:09.03	96.78	8.92	-27.5	-42.8	3.9	1.50e+00	0	56	104	0	29	17765
2026-01-15 08:09:12.06	96.43	9.10	-28.8	-41.5	3.7	1.50e+00	0	56	104	0	24	20348
2026-01-15 08:09:15.10	96.07	9.29	-26.5	-42.4	4.0	1.50e+00	0	56	104	0	24	22720
2026-01-15 08:09:18.13	95.70	9.48	-34.4	-50.9	3.9	1.50e+00	0	56	104	0	39	25301
2026-01-15 08:09:21.16	95.33	9.67	-26.7	-44.2	3.8	1.50e+00	0	56	104	0	26	24740
2026-01-15 08:09:24.18	94.96	9.86	-41.0	-54.8	3.9	1.50e+00	0	56	104	0	53	17810
2026-01-15 08:09:27.22	94.58	10.05	-40.4	-54.4	3.8	1.47e+00	0	57	104	0	52	17941
2026-01-15 08:09:30.25	94.20	10.24	-39.3	-54.0	3.8	1.49e+00	0	56	104	0	49	20497
2026-01-15 08:09:33.26	93.81	10.43	-40.3	-53.7	3.9	1.49e+00	0	56	104	0	52	16572
2026-01-15 08:09:36.29	93.42	10.62	-40.6	-53.2	3.8	1.36e+00	0	57	104	0	52	15594
2026-01-15 08:09:39.32	93.02	10.81	-40.9	-48.6	6.5	2.68e-01	0	57	0	3145728	52	9229
2026-01-15 08:09:42.35	92.61	11.00	-40.9	-48.8	6.3	2.96e-01	0	57	0	9437184	52	9436
2026-01-15 08:09:45.37	92.20	11.19	-41.0	-50.3	5.2	5.41e-01	0	57	0	14680064	52	11247
2026-01-15 08:09:48.40	91.79	11.38	-41.1	-49.5	5.8	4.17e-01	0	57	0	19922944	53	9623
2026-01-15 08:09:51.42	91.37	11.57	-41.1	-49.4	5.9	3.71e-01	0	57	0	26214400	53	9580
2026-01-15 08:09:54.45	90.94	11.76	-40.8	-48.1	7.2	1.19e-01	0	57	0	31457280	53	8199
2026-01-15 08:09:57.47	90.51	11.95	-41.1	-52.5	4.3	1.07e+00	0	57	0	36700160	53	13657
2026-01-15 08:10:00.50	90.07	12.14	-41.3	-55.8	3.8	1.49e+00	0	57	104	36700160	53	20022
2026-01-15 08:10:03.53	89.63	12.32	-41.3	-56.1	3.8	1.49e+00	0	57	104	36700160	53	20637
2026-01-15 08:10:06.55	89.18	12.51	-41.3	-56.0	3.8	1.49e+00	0	57	104	36700160	54	19376
2026-01-15 08:10:09.58	88.73	12.70	-41.1	-55.8	3.8	1.49e+00	0	57	104	36700160	52	21170
2026-01-15 08:10:12.61	88.27	12.89	-40.9	-55.6	3.8	1.49e+00	0	57	104	36700160	52	20616
2026-01-15 08:10:15.63	87.80	13.08	-40.9	-55.6	3.8	1.49e+00	0	57	104	36700160	52	20753
2026-01-15 08:10:18.66	87.33	13.27	-40.6	-55.4	3.8	1.49e+00	0	57	104	36700160	52	20301
2026-01-15 08:10:21.69	86.85	13.46	-41.2	-55.6	3.8	1.49e+00	0	57	104	36700160	53	19510
2026-01-15 08:10:24.72	86.36	13.64	-40.9	-55.2	3.8	1.49e+00	0	58	104	36700160	52	19633
2026-01-15 08:10:27.75	85.87	13.83	-41.0	-54.5	3.8	1.49e+00	0	58	104	36700160	52	18230
2026-01-15 08:10:30.77	85.38	14.01	-41.0	-53.2	4.0	1.47e+00	0	58	104	36700160	52	15742
2026-01-15 08:10:33.79	84.87	14.20	-41.0	-51.7	4.4	1.31e+00	85	58	0	36700160	52	13233
2026-01-15 08:10:36.82	84.36	14.38	-40.8	-49.9	5.3	6.43e-01	0	58	0	41943040	52	10675
2026-01-15 08:10:39.84	83.85	14.57	-40.7	-48.9	6.1	3.32e-01	0	58	0	48234496	52	9521
2026-01-15 08:10:42.87	83.32	14.75	-40.9	-49.6	5.5	4.16e-01	0	58	0	53477376	52	10343
2026-01-15 08:10:45.89	82.80	14.93	-41.0	-49.6	5.6	4.58e-01	0	58	0	59768832	52	10344
2026-01-15 08:10:48.92	82.26	15.11	-41.1	-49.0	6.2	3.01e-01	0	58	0	65011712	52	9689
2026-01-15 08:10:51.94	81.72	15.29	-41.1	-48.9	6.4	2.35e-01	0	58	0	70254592	52	9525
2026-01-15 08:10:54.97	81.17	15.46	-41.1	-49.4	6.0	3.19e-01	0	58	0	76546048	52	10105
2026-01-15 08:10:57.99	80.61	15.64	-41.1	-49.4	5.9	3.79e-01	0	58	0	81788928	52	10136
2026-01-15 08:11:01.02	80.05	15.81	-41.2	-49.1	6.2	2.93e-01	0	58	0	88080384	52	9814
2026-01-15 08:11:04.05	79.48	15.99	-41.3	-48.7	6.8	1.77e-01	0	58	0	93323264	53	8781
2026-01-15 08:11:07.07	78.91	16.16	-41.2	-48.3	7.1	1.51e-01	0	58	0	98566144	53	8373
2026-01-15 08:11:10.10	78.33	16.33	-41.0	-48.1	7.1	1.39e-01	0	58	0	104857600	53	8205
2026-01-15 08:11:13.12	77.74	16.49	-40.8	-48.1	7.0	1.58e-01	0	58	0	110100480	53	8209
2026-01-15 08:11:16.14	77.14	16.66	-41.0	-49.0	6.1	2.69e-01	0	58	0	116391936	53	9119
2026-01-15 08:11:19.17	76.54	16.82	-41.0	-48.5	6.6	2.39e-01	0	58	0	121634816	53	8612
2026-01-15 08:11:22.20	75.93	16.98	-40.9	-48.1	7.1	1.48e-01	0	58	0	127926272	53	8206
2026-01-15 08:11:25.23	75.32	17.14	-40.9	-48.4	6.8	1.81e-01	0	58	0	133169152	53	8489
2026-01-15 08:11:28.26	74.70	17.30	-41.1	-49.2	6.1	2.62e-01	0	58	0	138412032	53	9329
2026-01-15 08:11:31.29	74.07	17.45	-41.1	-49.4	6.0	3.47e-01	0	58	0	144703488	53	9539
2026-01-15 08:11:34.31	73.44	17.60	-41.0	-48.8	6.5	2.68e-01	0	58	0	149946368	53	8874
2026-01-15 08:11:37.33	72.80	17.75	-41.0	-48.3	7.0	1.57e-01	0	58	0	156237824	53	8407
2026-01-15 08:11:40.36	72.15	17.90	-41.1	-48.1	7.3	1.34e-01	0	58	0	161480704	53	8256
2026-01-15 08:11:43.39	71.49	18.04	-41.0	-47.8	7.8	8.32e-02	0	58	0	166723584	53	7922
2026-01-15 08:11:46.42	70.84	18.18	-41.2	-47.2	8.6	4.15e-02	0	58	0	173015040	53	7442
2026-01-15 08:11:49.44	70.17	18.32	-41.2	-46.9	9.2	2.49e-02	0	59	0	178257920	53	7151
2026-01-15 08:11:52.47	69.50	18.45	-41.3	-46.3	10.2	6.84e-03	0	58	0	184549376	53	6674
2026-01-15 08:11:55.49	68.82	18.58	-41.3	-45.7	11.0	2.20e-03	0	58	0	189792256	53	6268
2026-01-15 08:11:58.52	68.14	18.71	-41.2	-45.4	11.6	8.92e-04	0	58	0	195035136	53	6005
2026-01-15 08:12:01.55	67.45	18.83	-41.2	-45.0	12.1	2.77e-04	0	58	0	201326592	53	5773
2026-01-15 08:12:04.57	66.76	18.95	-41.4	-45.3	12.0	3.07e-04	0	59	0	206569472	53	5979
2026-01-15 08:12:07.60	66.06	19.07	-41.5	-45.5	12.0	2.68e-04	0	58	0	212860928	53	6083
2026-01-15 08:12:10.63	65.35	19.18	-41.5	-45.4	12.1	2.97e-04	0	59	0	218103808	53	6059
2026-01-15 08:12:13.65	64.65	19.28	-41.6	-45.5	12.1	2.39e-04	0	59	0	224395264	53	6114
2026-01-15 08:12:16.67	63.93	19.39	-41.6	-45.4	12.2	2.13e-04	0	59	0	229638144	53	6046
2026-01-15 08:12:19.70	63.21	19.49	-41.8	-45.7	11.9	3.13e-04	0	59	0	234881024	54	5915
2026-01-15 08:12:22.73	62.49	19.58	-41.9	-45.9	11.8	5.09e-04	0	59	0	241172480	54	6026
2026-01-15 08:12:25.76	61.76	19.67	-42.0	-46.2	11.5	8.06e-04	0	59	0	246415360	54	6265
2026-01-15 08:12:28.78	61.03	19.76	-42.1	-46.4	11.3	1.22e-03	0	58	0	252706816	54	6388
2026-01-15 08:12:31.81	60.29	19.84	-42.1	-46.4	11.3	1.08e-03	0	59	0	257949696	54	6357
2026-01-15 08:12:34.83	59.55	19.91	-42.2	-46.6	11.2	1.42e-03	0	59	0	263192576	54	6510
2026-01-15 08:12:37.87	58.81	19.99	-42.2	-46.7	11.1	1.58e-03	0	59	0	269484032	55	6205
2026-01-15 08:12:40.89	58.06	20.05	-42.3	-46.8	10.9	2.12e-03	0	59	0	274726912	55	6335
2026-01-15 08:12:43.92	57.31	20.11	-42.4	-47.2	10.5	3.45e-03	0	59	0	281018368	55	6627
2026-01-15 08:12:46.95	56.56	20.17	-42.3	-46.9	10.8	3.25e-03	0	59	0	286261248	55	6400
2026-01-15 08:12:49.97	55.80	20.22	-42.2	-46.6	11.1	1.62e-03	0	59	0	291504128	55	6175
2026-01-15 08:12:53.00	55.05	20.27	-42.3	-46.7	11.0	1.64e-03	0	59	0	297795584	55	6258
2026-01-15 08:12:56.03	54.29	20.31	-42.4	-47.0	10.7	2.96e-03	0	59	0	303038464	55	6480
2026-01-15 08:12:59.06	53.52	20.34	-42.3	-46.8	10.9	2.38e-03	0	59	0	309329920	55	6320
2026-01-15 08:13:02.09	52.76	20.37	-42.3	-46.9	10.9	2.13e-03	0	59	0	314572800	55	6384
2026-01-15 08:13:05.11	52.00	20.40	-42.3	-46.8	11.0	2.11e-03	0	59	0	320864256	55	6309
2026-01-15 08:13:08.14	51.23	20.42	-42.3	-46.8	11.0	1.77e-03	0	59	0	326107136	55	6291
2026-01-15 08:13:11.17	50.46	20.43	-42.3	-46.8	11.0	1.79e-03	0	59	0	331350016	55	6324
2026-01-15 08:13:14.19	49.70	20.44	-42.2	-46.6	11.2	1.45e-03	0	59	0	337641472	55	6137
2026-01-15 08:13:17.22	48.93	20.45	-42.0	-46.0	11.8	5.13e-04	0	59	0	342884352	55	5780
2026-01-15 08:13:20.25	48.16	20.44	-42.0	-46.1	11.7	5.36e-04	0	59	0	349175808	55	5834
2026-01-15 08:13:23.27	47.39	20.44	-41.9	-46.0	11.9	4.25e-04	0	59	0	354418688	55	5735
2026-01-15 08:13:26.29	46.63	20.42	-41.8	-45.7	12.2	2.76e-04	0	59	0	359661568	55	5566
2026-01-15 08:13:29.33	45.86	20.41	-41.7	-45.5	12.4	1.23e-04	0	59	0	365953024	55	5416
2026-01-15 08:13:32.35	45.10	20.38	-41.7	-45.4	12.5	1.16e-04	0	59	0	371195904	55	5389
2026-01-15 08:13:35.38	44.33	20.35	-41.6	-45.2	12.7	7.93e-05	0	59	0	377487360	55	5243
2026-01-15 08:13:38.41	43.57	20.32	-41.4	-44.9	13.0	3.89e-05	0	59	0	382730240	54	5342
2026-01-15 08:13:41.44	42.81	20.28	-41.4	-44.9	13.0	3.20e-05	0	59	0	389021696	54	5353
2026-01-15 08:13:44.47	42.05	20.24	-41.3	-44.7	13.2	3.05e-05	0	59	0	394264576	54	5250
2026-01-15 08:13:47.50	41.29	20.19	-41.3	-44.7	13.2	2.21e-05	0	59	0	399507456	54	5247
2026-01-15 08:13:50.52	40.54	20.13	-41.3	-44.6	13.3	9.10e-06	0	59	0	405798912	54	5209
2026-01-15 08:13:53.55	39.79	20.07	-41.4	-44.9	13.0	3.50e-05	0	59	0	411041792	54	5369
2026-01-15 08:13:56.58	39.05	20.01	-41.5	-45.0	12.9	3.58e-05	0	59	0	417333248	54	5423
2026-01-15 08:13:59.60	38.30	19.94	-41.4	-44.8	13.1	3.05e-05	0	59	0	422576128	54	5326
2026-01-15 08:14:02.63	37.56	19.86	-41.5	-45.1	12.8	5.64e-05	0	59	0	427819008	54	5526
2026-01-15 08:14:05.66	36.83	19.79	-41.8	-45.7	12.1	2.15e-04	0	59	0	434110464	54	5909
2026-01-15 08:14:08.69	36.09	19.70	-41.9	-45.7	12.2	2.35e-04	0	59	0	439353344	54	5919
2026-01-15 08:14:11.71	35.37	19.61	-41.9	-45.9	12.0	2.86e-04	0	59	0	445644800	54	6007
2026-01-15 08:14:14.74	34.64	19.52	-42.0	-46.1	11.8	5.55e-04	0	59	0	450887680	54	6185
2026-01-15 08:14:17.77	33.92	19.42	-42.1	-46.3	11.6	6.45e-04	0	59	0	456130560	54	6339
2026-01-15 08:14:20.79	33.21	19.32	-42.1	-46.4	11.5	9.39e-04	0	59	0	462422016	54	6377
2026-01-15 08:14:23.82	32.50	19.22	-42.2	-46.4	11.5	7.91e-04	0	59	0	467664896	54	6375
2026-01-15 08:14:26.84	31.80	19.11	-42.2	-46.5	11.3	1.15e-03	0	59	0	473956352	55	6118
2026-01-15 08:14:29.87	31.10	18.99	-42.2	-46.5	11.3	1.05e-03	0	59	0	479199232	55	6121
2026-01-15 08:14:32.90	30.40	18.88	-42.2	-46.6	11.2	1.27e-03	0	59	0	485490688	55	6165
2026-01-15 08:14:35.93	29.72	18.75	-42.3	-46.8	11.0	1.78e-03	0	59	0	490733568	55	6328
2026-01-15 08:14:38.96	29.03	18.63	-42.3	-46.8	11.0	1.84e-03	0	59	0	495976448	55	6316
2026-01-15 08:14:41.99	28.35	18.50	-42.1	-46.3	11.5	7.84e-04	0	59	0	502267904	55	5959
2026-01-15 08:14:45.01	27.69	18.37	-42.2	-46.6	11.2	1.35e-03	0	59	0	507510784	55	6175
2026-01-15 08:14:48.04	27.02	18.23	-42.3	-46.8	11.0	1.84e-03	0	59	0	513802240	55	6320
2026-01-15 08:14:51.07	26.36	18.09	-42.3	-46.8	11.0	1.87e-03	0	59	0	519045120	55	6306
2026-01-15 08:14:54.10	25.71	17.95	-42.3	-46.8	11.0	1.92e-03	0	59	0	524288000	55	6298
2026-01-15 08:14:57.12	25.06	17.81	-42.4	-47.1	10.7	2.75e-03	0	59	0	530579456	55	6520
2026-01-15 08:15:00.14	24.42	17.66	-42.4	-46.9	10.8	2.80e-03	0	59	0	535822336	55	6416
2026-01-15 08:15:03.16	23.79	17.51	-42.2	-46.7	11.1	1.60e-03	0	59	0	542113792	55	6231
2026-01-15 08:15:06.19	23.16	17.36	-42.3	-46.9	10.9	2.12e-03	0	59	0	547356672	55	6360
2026-01-15 08:15:09.21	22.54	17.20	-42.3	-46.8	10.9	2.06e-03	0	59	0	552599552	55	6326
2026-01-15 08:15:12.24	21.93	17.05	-42.3	-46.8	10.9	2.42e-03	0	59	0	558891008	55	6329
2026-01-15 08:15:15.27	21.32	16.89	-42.2	-46.8	10.9	2.33e-03	0	59	0	564133888	55	6302
2026-01-15 08:15:18.29	20.72	16.73	-42.2	-46.6	11.0	1.94e-03	0	59	0	570425344	55	6200
2026-01-15 08:15:21.32	20.13	16.56	-42.1	-46.5	11.2	1.44e-03	0	59	0	575668224	55	6094
2026-01-15 08:15:24.34	19.54	16.40	-42.2	-46.7	10.9	1.90e-03	0	59	0	581959680	55	6251
2026-01-15 08:15:27.36	18.96	16.23	-42.3	-47.0	10.6	3.28e-03	0	59	0	587202560	55	6455
2026-01-15 08:15:30.38	18.39	16.06	-42.3	-47.1	10.5	3.40e-03	0	59	0	592445440	55	6520
2026-01-15 08:15:33.41	17.82	15.89	-42.4	-47.3	10.3	5.18e-03	0	59	0	598736896	55	6689
2026-01-15 08:15:36.43	17.26	15.71	-42.4	-47.4	10.2	6.16e-03	0	59	0	603979776	55	6761
2026-01-15 08:15:39.46	16.70	15.54	-42.3	-47.2	10.3	5.26e-03	0	59	0	610271232	55	6604
2026-01-15 08:15:42.49	16.15	15.36	-42.4	-47.4	10.2	5.75e-03	0	59	0	615514112	55	6730
2026-01-15 08:15:45.51	15.61	15.19	-42.5	-47.6	9.9	8.11e-03	0	59	0	620756992	55	6893
2026-01-15 08:15:48.54	15.08	15.01	-42.4	-47.6	9.9	9.12e-03	0	59	0	627048448	55	6892
2026-01-15 08:15:51.56	14.55	14.83	-42.3	-47.2	10.2	6.28e-03	0	59	0	632291328	55	6580
2026-01-15 08:15:54.59	14.03	14.65	-42.2	-46.9	10.5	4.27e-03	0	59	0	638582784	55	6399
2026-01-15 08:15:57.61	13.51	14.46	-42.1	-46.8	10.5	3.87e-03	0	59	0	643825664	55	6311
2026-01-15 08:16:00.64	13.00	14.28	-42.0	-46.7	10.6	3.54e-03	0	59	0	649068544	55	6231
2026-01-15 08:16:03.67	12.50	14.10	-41.9	-46.6	10.5	3.84e-03	0	59	0	655360000	55	6190
2026-01-15 08:16:06.69	12.00	13.91	-41.8	-46.6	10.5	3.83e-03	0	59	0	660602880	55	6132
2026-01-15 08:16:09.72	11.51	13.73	-41.7	-46.3	10.7	3.13e-03	0	59	0	666894336	55	5975
2026-01-15 08:16:12.75	11.03	13.54	-41.5	-45.9	11.0	1.85e-03	0	59	0	672137216	55	5700
2026-01-15 08:16:15.77	10.55	13.36	-41.5	-46.1	10.7	3.09e-03	0	59	0	677380096	54	6182
2026-01-15 08:16:18.79	10.08	13.17	-41.1	-45.4	11.1	1.48e-03	0	59	0	683671552	54	5718
2026-01-15 08:16:21.82	9.61	12.98	-41.2	-45.9	10.5	3.91e-03	0	59	0	688914432	54	6032
2026-01-15 08:16:24.84	9.16	12.79	-41.1	-46.1	10.1	6.76e-03	0	59	0	695205888	54	6142
2026-01-15 08:16:27.88	8.70	12.61	-40.6	-45.3	10.6	4.89e-03	0	59	0	700448768	53	5955
2026-01-15 08:16:30.91	8.25	12.42	-40.6	-45.3	10.5	3.92e-03	0	59	0	706740224	53	5977
2026-01-15 08:16:33.94	7.81	12.23	-40.5	-45.4	10.3	5.03e-03	0	59	0	711983104	52	6381
2026-01-15 08:16:36.97	7.37	12.04	-40.6	-46.2	9.2	1.43e-02	0	60	0	717225984	52	7030
2026-01-15 08:16:40.00	6.94	11.85	-41.1	-49.1	6.2	2.52e-01	0	59	0	723517440	52	9811
2026-01-15 08:16:43.02	6.52	11.66	-41.2	-51.7	4.5	9.59e-01	12	59	0	728760320	52	13144
2026-01-15 08:16:46.05	6.10	11.47	-41.1	-54.0	3.8	1.48e+00	0	59	104	729808896	52	17242
2026-01-15 08:16:49.08	5.68	11.28	-40.9	-54.9	3.8	1.49e+00	0	59	104	729808896	52	18965
2026-01-15 08:16:52.11	5.28	11.09	-40.7	-55.0	3.8	1.49e+00	0	59	104	729808896	52	19262
2026-01-15 08:16:55.14	4.87	10.90	-41.1	-55.3	3.8	1.49e+00	0	59	104	729808896	52	19992
2026-01-15 08:16:58.17	4.47	10.71	-40.2	-54.9	3.8	1.49e+00	0	59	104	729808896	52	19100
2026-01-15 08:17:01.18	4.08	10.52	-40.0	-54.7	3.8	1.49e+00	0	59	104	729808896	52	18580
2026-01-15 08:17:04.21	3.70	10.34	-40.6	-55.3	3.8	1.49e+00	0	59	104	729808896	51	21224
2026-01-15 08:17:07.24	3.31	10.15	-40.1	-54.8	3.8	1.49e+00	0	59	104	729808896	51	19867
2026-01-15 08:17:10.27	2.94	9.96	-39.9	-54.6	3.8	1.49e+00	0	59	104	729808896	51	19584
2026-01-15 08:17:13.29	2.57	9.77	-40.2	-54.9	3.8	1.49e+00	0	59	104	729808896	51	20150
2026-01-15 08:17:16.33	2.20	9.58	-40.0	-54.7	3.8	1.49e+00	0	59	104	729808896	51	19716
2026-01-15 08:17:19.36	1.83	9.39	-40.0	-54.7	3.8	1.49e+00	0	59	104	729808896	51	19698
2026-01-15 08:17:22.39	1.48	9.21	-40.0	-54.7	3.8	1.49e+00	0	59	104	729808896	51	19782
2026-01-15 08:17:25.41	1.13	9.02	-39.8	-54.6	3.8	1.49e+00	0	59	104	729808896	51	19554
2026-01-15 08:17:28.44	0.78	8.83	-39.9	-54.7	3.8	1.49e+00	0	59	104	729808896	51	19710
2026-01-15 08:17:31.47	0.43	8.65	-39.8	-54.6	3.8	1.49e+00	0	59	104	729808896	51	19612
2026-01-15 08:17:34.50	0.09	8.46	-39.7	-54.6	3.8	1.49e+00	0	59	104	729808896	50	20773
2026-01-15 08:17:37.53	359.76	8.27	-39.6	-54.7	3.8	1.49e+00	0	59	104	729808896	50	20855
2026-01-15 08:17:40.56	359.43	8.09	-39.4	-54.6	3.8	1.49e+00	0	59	104	729808896	50	20727
2026-01-15 08:17:43.59	359.10	7.90	-42.2	-56.8	3.8	1.49e+00	0	59	104	729808896	54	21056
2026-01-15 08:17:46.62	358.78	7.72	-45.1	-59.8	3.8	1.49e+00	0	59	104	729808896	60	21060
2026-01-15 08:17:49.65	358.46	7.54	-45.3	-60.0	3.8	1.49e+00	0	59	104	729808896	61	20431
2026-01-15 08:17:52.68	358.15	7.35	-45.4	-60.0	3.8	1.49e+00	0	59	104	729808896	61	20358
2026-01-15 08:17:55.71	357.84	7.17	-45.3	-59.8	3.8	1.49e+00	0	59	104	729808896	61	20022
2026-01-15 08:17:58.74	357.53	6.99	-45.2	-59.7	3.8	1.49e+00	0	59	104	729808896	61	19778
2026-01-15 08:18:01.77	357.23	6.81	-45.2	-59.7	3.8	1.49e+00	0	59	104	729808896	61	19735
2026-01-15 08:18:04.79	356.93	6.62	-45.2	-59.7	3.8	1.49e+00	0	60	104	729808896	61	19799
2026-01-15 08:18:07.82	356.64	6.44	-45.2	-59.7	3.8	1.49e+00	0	60	104	729808896	61	19708
2026-01-15 08:18:10.85	356.35	6.26	-45.1	-59.7	3.8	1.49e+00	0	59	104	729808896	61	19752
2026-01-15 08:18:13.89	356.06	6.08	-45.2	-59.7	3.8	1.49e+00	0	59	104	729808896	61	19784
2026-01-15 08:18:16.92	355.78	5.90	-45.2	-59.7	3.8	1.49e+00	0	59	104	729808896	61	19743
2026-01-15 08:18:19.95	355.50	5.73	-45.2	-59.7	3.8	1.49e+00	0	59	104	729808896	61	19691
2026-01-15 08:18:22.98	355.22	5.55	-45.1	-59.7	3.8	1.49e+00	0	60	104	729808896	61	19702
2026-01-15 08:18:26.01	354.95	5.37	-45.2	-59.7	3.8	1.49e+00	0	60	104	729808896	61	19674
2026-01-15 08:18:29.04	354.68	5.19	-45.2	-59.7	3.8	1.49e+00	0	59	104	729808896	60	20894
2026-01-15 08:18:32.07	354.42	5.02	-45.2	-59.7	3.8	1.49e+00	0	59	104	729808896	60	20807
2026-01-15 08:18:35.10	354.15	4.84	-45.2	-59.7	3.8	1.49e+00	0	60	104	729808896	60	20881
2026-01-15 08:18:38.13	353.90	4.67	-45.2	-59.7	3.8	1.49e+00	0	60	104	729808896	60	20831
2026-01-15 08:18:41.16	353.64	4.49	-45.2	-59.7	3.8	1.49e+00	0	60	104	729808896	60	20843
2026-01-15 08:18:44.19	353.39	4.32	-45.1	-59.7	3.8	1.49e+00	0	59	104	729808896	60	20865
2026-01-15 08:18:47.22	353.14	4.14	-45.1	-59.7	3.8	1.49e+00	0	59	104	729808896	60	20819
2026-01-15 08:18:50.25	352.89	3.97	-45.2	-59.7	3.8	1.49e+00	0	59	104	729808896	60	20918
2026-01-15 08:18:53.28	352.65	3.80	-45.1	-59.7	3.8	1.49e+00	0	60	104	729808896	60	20784
2026-01-15 08:18:56.30	352.41	3.63	-45.1	-59.6	3.8	1.49e+00	0	59	104	729808896	60	20766
2026-01-15 08:18:59.33	352.17	3.46	-45.1	-59.7	3.8	1.49e+00	0	59	104	729808896	60	20816
2026-01-15 08:19:02.36	351.94	3.29	-45.2	-59.7	3.8	1.49e+00	0	60	104	729808896	60	20803
2026-01-15 08:19:05.39	351.70	3.12	-45.2	-59.7	3.8	1.49e+00	0	60	104	729808896	60	20802
2026-01-15 08:19:08.42	351.48	2.95	-45.2	-59.7	3.8	1.49e+00	0	59	104	729808896	60	20833
2026-01-15 08:19:11.45	351.25	2.78	-45.1	-59.6	3.8	1.49e+00	0	60	104	729808896	60	20769
2026-01-15 08:19:14.48	351.03	2.61	-45.1	-59.7	3.8	1.49e+00	0	59	104	729808896	60	20832
2026-01-15 08:19:17.51	350.80	2.44	-45.2	-59.7	3.8	1.49e+00	0	59	104	729808896	60	20815
2026-01-15 08:19:20.54	350.59	2.28	-45.2	-59.6	3.8	1.49e+00	0	60	104	729808896	60	20747
2026-01-15 08:19:23.57	350.37	2.11	-45.2	-59.6	3.8	1.49e+00	0	59	104	729808896	60	20738
2026-01-15 08:19:26.59	350.16	1.95	-45.1	-59.6	3.8	1.49e+00	0	59	104	729808896	60	20760

#Closed at: 2026-01-15 08:19:28
#Recorded file [729 MB]: D:/lorett/data/31039_260115_110710.dat