passes_logs/2026/01/15/R2.0S_Moscow/R2.0S_Moscow__20260115_074724_SUOMI_NPP_rec.log

#Pass ID: 20260115_074724_SUOMI NPP
#Satellite: SUOMI NPP
#Configuration: NPP
#almurnet v.1.7.20251203
#Start time: 2026-01-15 07:47:23

#Version: 2.2.20231116
#Station: R2.0S_Moscow
#Location: 37.707566 lon 55.798166 lat
#TLE: 1 37849U 11061A   26014.11719687  .00000048  00000+0  43625-4 0  9998
#TLE: 2 37849  98.7809 316.1734 0002474  65.2440 294.8994 14.19525043736585

#Time	Az	El	Level	Level2	SNR	BER	BlckErr	Temp	State	Recorded	gain1	gain2
2026-01-15 07:47:23.88	95.35	1.97	-40.0	-54.8	3.8	1.49e+00	0	50	0	0	50	21027
2026-01-15 07:47:26.90	95.09	2.13	-39.8	-54.6	3.8	1.49e+00	0	50	104	0	50	20647
2026-01-15 07:47:29.93	94.83	2.28	-38.8	-54.3	3.9	1.49e+00	0	50	104	0	49	21236
2026-01-15 07:47:32.96	94.57	2.43	-39.3	-54.4	3.8	1.49e+00	0	50	104	0	50	20158
2026-01-15 07:47:36.00	94.30	2.59	-39.6	-54.8	3.8	1.49e+00	0	51	104	0	50	21143
2026-01-15 07:47:39.03	94.03	2.74	-39.8	-54.6	3.9	1.49e+00	0	51	104	0	50	20544
2026-01-15 07:47:42.06	93.75	2.89	-39.8	-54.6	3.8	1.49e+00	0	51	104	0	50	20709
2026-01-15 07:47:45.09	93.48	3.05	-39.8	-54.7	3.8	1.49e+00	0	51	104	0	50	20905
2026-01-15 07:47:48.13	93.19	3.20	-39.9	-54.7	3.8	1.49e+00	0	52	104	0	50	20903
2026-01-15 07:47:51.15	92.91	3.36	-39.9	-54.7	3.8	1.49e+00	0	52	104	0	50	21010
2026-01-15 07:47:54.19	92.63	3.51	-39.7	-54.5	3.8	1.49e+00	0	52	104	0	50	20464
2026-01-15 07:47:57.22	92.34	3.67	-39.9	-54.7	3.8	1.49e+00	0	52	104	0	50	20842
2026-01-15 07:48:00.25	92.04	3.82	-39.9	-54.7	3.8	1.49e+00	0	52	104	0	50	20894
2026-01-15 07:48:03.28	91.75	3.98	-39.4	-54.4	3.8	1.49e+00	0	52	104	0	50	20161
2026-01-15 07:48:06.31	91.45	4.13	-39.4	-54.5	3.8	1.49e+00	0	52	104	0	50	20369
2026-01-15 07:48:09.35	91.15	4.29	-39.4	-54.5	3.9	1.49e+00	0	53	104	0	50	20318
2026-01-15 07:48:12.38	90.84	4.44	-39.8	-54.6	3.9	1.49e+00	0	53	104	0	50	20646
2026-01-15 07:48:15.41	90.53	4.60	-40.0	-54.7	3.8	1.49e+00	0	53	104	0	50	20956
2026-01-15 07:48:18.44	90.22	4.76	-38.3	-53.8	3.8	1.49e+00	0	53	104	0	48	21168
2026-01-15 07:48:21.47	89.91	4.91	-39.8	-54.8	3.8	1.49e+00	0	53	104	0	50	21055
2026-01-15 07:48:24.51	89.59	5.07	-39.9	-54.7	3.8	1.49e+00	0	54	104	0	50	20821
2026-01-15 07:48:27.53	89.26	5.22	-40.1	-54.8	3.8	1.49e+00	0	54	104	0	50	21141
2026-01-15 07:48:30.56	88.94	5.38	-40.1	-54.8	3.9	1.49e+00	0	54	104	0	50	21109
2026-01-15 07:48:33.59	88.61	5.54	-39.1	-54.4	3.8	1.49e+00	0	54	104	0	49	21266
2026-01-15 07:48:36.62	88.28	5.69	-40.1	-54.7	3.8	1.49e+00	0	54	104	0	50	20970
2026-01-15 07:48:39.65	87.94	5.85	-39.3	-54.5	3.8	1.49e+00	0	54	104	0	50	20315
2026-01-15 07:48:42.68	87.60	6.01	-38.7	-54.2	3.8	1.49e+00	0	54	104	0	49	20841
2026-01-15 07:48:45.71	87.25	6.16	-39.3	-54.6	3.8	1.49e+00	0	54	104	0	50	20551
2026-01-15 07:48:48.74	86.91	6.32	-39.5	-54.6	3.8	1.49e+00	0	54	104	0	50	20557
2026-01-15 07:48:51.77	86.55	6.48	-40.0	-54.8	3.8	1.49e+00	0	55	104	0	50	21039
2026-01-15 07:48:54.81	86.20	6.63	-39.5	-54.5	3.8	1.49e+00	0	55	104	0	50	20386
2026-01-15 07:48:57.84	85.84	6.79	-39.3	-54.5	3.8	1.49e+00	0	55	104	0	50	20509
2026-01-15 07:49:00.87	85.47	6.95	-39.4	-54.4	3.8	1.49e+00	0	55	104	0	49	21468
2026-01-15 07:49:03.89	85.11	7.10	-39.7	-54.7	3.8	1.49e+00	0	55	104	0	50	20812
2026-01-15 07:49:06.92	84.74	7.26	-39.4	-54.6	3.8	1.49e+00	0	55	104	0	50	20583
2026-01-15 07:49:09.95	84.36	7.41	-40.1	-54.8	3.8	1.49e+00	0	55	104	0	50	21035
2026-01-15 07:49:12.98	83.98	7.57	-39.6	-54.6	3.8	1.49e+00	0	55	104	0	50	20658
2026-01-15 07:49:16.01	83.60	7.72	-39.6	-54.6	3.8	1.49e+00	0	55	104	0	50	20623
2026-01-15 07:49:19.03	83.21	7.88	-39.3	-54.6	3.8	1.49e+00	0	56	104	0	50	20696
2026-01-15 07:49:22.06	82.82	8.03	-39.3	-54.4	3.8	1.49e+00	0	55	104	0	50	20135
2026-01-15 07:49:25.09	82.42	8.19	-39.8	-54.7	3.8	1.49e+00	0	56	104	0	50	20961
2026-01-15 07:49:28.11	82.02	8.34	-40.2	-54.9	3.8	1.49e+00	0	56	104	0	51	20128
2026-01-15 07:49:31.14	81.62	8.49	-40.1	-54.8	3.8	1.49e+00	0	56	104	0	50	21138
2026-01-15 07:49:34.17	81.21	8.65	-39.9	-54.8	3.8	1.49e+00	0	56	104	0	51	19879
2026-01-15 07:49:37.20	80.79	8.80	-40.3	-54.9	3.8	1.49e+00	0	56	104	0	51	20276
2026-01-15 07:49:40.23	80.37	8.95	-40.2	-55.0	3.8	1.49e+00	0	56	104	0	51	20455
2026-01-15 07:49:43.26	79.95	9.10	-40.3	-55.0	3.8	1.49e+00	0	56	104	0	51	20409
2026-01-15 07:49:46.29	79.52	9.26	-40.3	-55.1	3.8	1.49e+00	0	56	104	0	51	20608
2026-01-15 07:49:49.31	79.09	9.41	-39.9	-54.9	3.8	1.49e+00	0	56	104	0	51	20180
2026-01-15 07:49:52.34	78.66	9.56	-40.4	-55.2	3.8	1.49e+00	0	56	104	0	51	20864
2026-01-15 07:49:55.37	78.22	9.70	-40.5	-55.1	3.8	1.49e+00	0	56	104	0	52	19600
2026-01-15 07:49:58.40	77.77	9.85	-40.7	-55.3	3.8	1.49e+00	0	57	104	0	52	19992
2026-01-15 07:50:01.42	77.32	10.00	-40.8	-55.3	3.8	1.49e+00	0	56	104	0	52	20065
2026-01-15 07:50:04.46	76.87	10.15	-40.8	-55.4	3.8	1.49e+00	0	57	104	0	52	20206
2026-01-15 07:50:07.48	76.41	10.29	-40.8	-55.5	3.8	1.49e+00	0	56	104	0	52	20324
2026-01-15 07:50:10.51	75.95	10.44	-40.9	-55.5	3.8	1.49e+00	0	56	104	0	52	20465
2026-01-15 07:50:13.54	75.48	10.58	-40.9	-55.5	3.8	1.49e+00	0	57	104	0	52	20398
2026-01-15 07:50:16.56	75.01	10.72	-41.0	-55.7	3.8	1.49e+00	0	57	104	0	52	20836
2026-01-15 07:50:19.59	74.53	10.86	-41.1	-55.7	3.8	1.49e+00	0	57	104	0	52	20853
2026-01-15 07:50:22.62	74.05	11.01	-41.0	-55.6	3.8	1.49e+00	0	57	104	0	52	20775
2026-01-15 07:50:25.65	73.56	11.14	-40.9	-55.6	3.8	1.49e+00	0	57	104	0	52	20682
2026-01-15 07:50:28.68	73.07	11.28	-40.9	-55.6	3.8	1.49e+00	0	57	104	0	52	20683
2026-01-15 07:50:31.70	72.57	11.42	-41.0	-55.6	3.8	1.49e+00	0	57	104	0	52	20730
2026-01-15 07:50:34.73	72.07	11.56	-41.0	-55.7	3.8	1.49e+00	0	57	104	0	52	20819
2026-01-15 07:50:37.76	71.56	11.69	-41.1	-55.7	3.8	1.49e+00	0	57	104	0	52	20973
2026-01-15 07:50:40.79	71.05	11.82	-41.0	-55.8	3.8	1.49e+00	0	57	104	0	52	21028
2026-01-15 07:50:43.82	70.54	11.95	-41.0	-55.7	3.8	1.49e+00	0	57	104	0	52	20838
2026-01-15 07:50:46.85	70.02	12.08	-41.0	-55.8	3.8	1.49e+00	0	57	104	0	52	21060
2026-01-15 07:50:49.88	69.49	12.21	-41.2	-55.9	3.8	1.49e+00	0	57	104	0	53	20151
2026-01-15 07:50:52.91	68.97	12.34	-41.0	-55.7	3.8	1.49e+00	0	57	104	0	53	19754
2026-01-15 07:50:55.94	68.43	12.46	-41.4	-56.1	3.8	1.49e+00	0	57	104	0	53	20621
2026-01-15 07:50:58.97	67.89	12.58	-41.3	-55.9	3.8	1.49e+00	0	57	104	0	53	20199
2026-01-15 07:51:02.00	67.35	12.71	-41.6	-56.2	3.8	1.49e+00	0	57	104	0	53	20941
2026-01-15 07:51:05.04	66.80	12.82	-41.3	-55.9	3.8	1.49e+00	0	58	104	0	54	19084
2026-01-15 07:51:08.06	66.25	12.94	-41.6	-56.2	3.8	1.49e+00	0	57	104	0	54	19836
2026-01-15 07:51:11.10	65.70	13.06	-41.5	-56.2	3.8	1.49e+00	0	58	104	0	55	18584
2026-01-15 07:51:14.13	65.14	13.17	-41.7	-56.2	3.8	1.49e+00	0	58	104	0	55	18658
2026-01-15 07:51:17.16	64.57	13.28	-41.7	-56.4	3.8	1.49e+00	0	58	104	0	55	19118
2026-01-15 07:51:20.19	64.00	13.39	-42.0	-55.1	3.8	1.49e+00	0	58	104	0	55	16498
2026-01-15 07:51:23.22	63.43	13.49	-42.4	-52.7	4.6	1.28e+00	0	58	0	0	55	12430
2026-01-15 07:51:26.25	62.85	13.60	-42.5	-50.0	6.6	2.89e-01	0	58	0	6291456	55	9170
2026-01-15 07:51:29.27	62.27	13.70	-42.2	-48.1	8.7	2.84e-02	0	58	0	11534336	55	7362
2026-01-15 07:51:32.30	61.69	13.80	-41.8	-46.8	10.1	7.82e-03	0	58	0	16777216	55	6295
2026-01-15 07:51:35.33	61.10	13.89	-41.5	-45.9	11.2	1.19e-03	0	58	0	23068672	54	6033
2026-01-15 07:51:38.35	60.51	13.98	-41.7	-46.3	10.9	2.46e-03	0	58	0	28311552	54	6288
2026-01-15 07:51:41.38	59.91	14.07	-41.4	-45.4	11.8	9.79e-04	0	58	0	34603008	54	5706
2026-01-15 07:51:44.40	59.32	14.16	-41.4	-45.5	11.8	4.15e-04	0	58	0	39845888	54	5757
2026-01-15 07:51:47.43	58.71	14.25	-41.6	-46.0	11.3	1.17e-03	0	58	0	46137344	54	6127
2026-01-15 07:51:50.46	58.11	14.33	-41.9	-46.6	10.7	2.75e-03	0	58	0	51380224	54	6545
2026-01-15 07:51:53.49	57.50	14.41	-41.9	-46.6	10.7	3.41e-03	0	58	0	56623104	54	6539
2026-01-15 07:51:56.51	56.88	14.48	-41.9	-46.6	10.8	2.96e-03	0	58	0	62914560	54	6509
2026-01-15 07:51:59.54	56.27	14.56	-42.0	-46.7	10.6	2.95e-03	0	58	0	68157440	54	6633
2026-01-15 07:52:02.56	55.65	14.63	-41.9	-46.7	10.7	2.52e-03	0	58	0	74448896	54	6584
2026-01-15 07:52:05.58	55.03	14.69	-41.9	-46.6	10.8	2.92e-03	0	58	0	79691776	54	6514
2026-01-15 07:52:08.61	54.41	14.76	-41.7	-46.1	11.3	1.10e-03	0	58	0	84934656	54	6167
2026-01-15 07:52:11.63	53.78	14.82	-41.6	-45.9	11.5	8.80e-04	0	58	0	91226112	54	6004
2026-01-15 07:52:14.66	53.15	14.87	-41.7	-46.0	11.4	8.40e-04	0	58	0	96468992	54	6087
2026-01-15 07:52:17.68	52.52	14.93	-41.9	-46.5	10.9	2.07e-03	0	58	0	102760448	54	6443
2026-01-15 07:52:20.71	51.89	14.98	-41.7	-46.1	11.3	1.40e-03	0	58	0	108003328	54	6188
2026-01-15 07:52:23.74	51.25	15.02	-42.0	-46.7	10.7	2.05e-03	0	58	0	113246208	54	6598
2026-01-15 07:52:26.77	50.61	15.07	-41.9	-46.6	10.8	2.19e-03	0	58	0	119537664	54	6548
2026-01-15 07:52:29.80	49.97	15.11	-42.1	-47.0	10.4	3.62e-03	0	58	0	124780544	54	6846
2026-01-15 07:52:32.83	49.33	15.14	-42.1	-46.9	10.5	4.48e-03	0	58	0	131072000	54	6782
2026-01-15 07:52:35.86	48.69	15.18	-42.0	-46.7	10.8	2.69e-03	0	58	0	136314880	54	6602
2026-01-15 07:52:38.89	48.04	15.21	-41.9	-46.5	10.9	2.12e-03	0	58	0	142606336	54	6492
2026-01-15 07:52:41.91	47.40	15.23	-41.8	-46.3	11.1	1.65e-03	0	58	0	147849216	54	6345
2026-01-15 07:52:44.95	46.75	15.25	-41.7	-46.0	11.4	8.84e-04	0	58	0	153092096	54	6107
2026-01-15 07:52:47.97	46.11	15.27	-41.9	-46.5	11.0	1.34e-03	0	58	0	159383552	54	6434
2026-01-15 07:52:51.00	45.46	15.29	-41.9	-46.4	11.0	1.97e-03	0	59	0	164626432	54	6409
2026-01-15 07:52:54.03	44.81	15.30	-41.7	-46.0	11.5	8.21e-04	0	58	0	170917888	54	6085
2026-01-15 07:52:57.05	44.16	15.30	-41.6	-45.7	11.8	5.69e-04	0	59	0	176160768	54	5912
2026-01-15 07:53:00.08	43.51	15.31	-41.6	-45.8	11.6	6.54e-04	0	58	0	181403648	54	5990
2026-01-15 07:53:03.10	42.87	15.31	-41.8	-46.4	11.0	1.66e-03	0	58	0	187695104	54	6415
2026-01-15 07:53:06.13	42.22	15.30	-42.1	-47.0	10.5	2.98e-03	0	58	0	192937984	54	6820
2026-01-15 07:53:09.16	41.57	15.30	-42.1	-47.0	10.5	4.40e-03	0	58	0	199229440	54	6825
2026-01-15 07:53:12.19	40.92	15.29	-42.3	-47.8	9.7	9.18e-03	0	59	0	204472320	55	7043
2026-01-15 07:53:15.22	40.27	15.27	-42.1	-47.2	10.2	7.26e-03	0	59	0	209715200	55	6600
2026-01-15 07:53:18.25	39.62	15.25	-41.8	-46.4	11.0	2.30e-03	0	58	0	216006656	55	6036
2026-01-15 07:53:21.28	38.98	15.23	-41.9	-46.5	11.0	1.72e-03	0	59	0	221249536	55	6079
2026-01-15 07:53:24.31	38.33	15.20	-41.9	-46.7	10.8	2.27e-03	0	59	0	227540992	55	6204
2026-01-15 07:53:27.34	37.69	15.17	-42.0	-46.8	10.7	2.80e-03	0	59	0	232783872	55	6291
2026-01-15 07:53:30.37	37.05	15.14	-41.8	-46.1	11.3	7.92e-04	0	59	0	239075328	55	5847
2026-01-15 07:53:33.40	36.41	15.11	-41.5	-45.6	11.9	4.26e-04	0	59	0	244318208	55	5525
2026-01-15 07:53:36.43	35.77	15.07	-41.7	-45.9	11.6	6.35e-04	0	59	0	249561088	55	5695
2026-01-15 07:53:39.46	35.13	15.02	-41.8	-46.2	11.3	1.05e-03	0	59	0	255852544	55	5900
2026-01-15 07:53:42.49	34.49	14.97	-41.9	-46.4	11.1	1.74e-03	0	59	0	261095424	55	6055
2026-01-15 07:53:45.52	33.86	14.92	-41.9	-46.5	11.0	1.62e-03	0	59	0	267386880	55	6068
2026-01-15 07:53:48.55	33.23	14.87	-41.9	-46.5	10.9	2.15e-03	0	59	0	272629760	55	6115
2026-01-15 07:53:51.58	32.60	14.81	-41.9	-46.4	11.1	1.83e-03	0	59	0	278921216	55	5993
2026-01-15 07:53:54.61	31.97	14.75	-41.7	-45.9	11.7	8.62e-04	0	59	0	284164096	55	5660
2026-01-15 07:53:57.64	31.35	14.69	-41.7	-45.9	11.7	5.23e-04	0	59	0	289406976	55	5661
2026-01-15 07:54:00.67	30.73	14.62	-41.4	-45.3	12.2	3.88e-04	0	59	0	295698432	54	5612
2026-01-15 07:54:03.69	30.12	14.55	-41.5	-45.5	12.1	2.47e-04	0	59	0	300941312	54	5727
2026-01-15 07:54:06.72	29.50	14.48	-41.8	-46.1	11.4	1.07e-03	0	59	0	307232768	54	6166
2026-01-15 07:54:09.75	28.89	14.40	-41.9	-46.5	11.0	1.75e-03	0	59	0	312475648	54	6434
2026-01-15 07:54:12.77	28.28	14.32	-41.9	-46.5	10.9	1.97e-03	0	59	0	317718528	54	6479
2026-01-15 07:54:15.80	27.68	14.24	-42.1	-47.0	10.5	3.63e-03	0	59	0	324009984	54	6829
2026-01-15 07:54:18.83	27.08	14.16	-42.0	-46.8	10.6	3.33e-03	0	59	0	329252864	54	6708
2026-01-15 07:54:21.85	26.48	14.07	-41.9	-46.5	10.9	2.07e-03	0	59	0	335544320	54	6489
2026-01-15 07:54:24.88	25.89	13.98	-41.8	-46.2	11.3	1.04e-03	0	59	0	340787200	54	6211
2026-01-15 07:54:27.90	25.30	13.89	-41.7	-46.0	11.5	1.02e-03	0	59	0	346030080	54	6067
2026-01-15 07:54:30.93	24.71	13.79	-41.8	-46.1	11.3	1.07e-03	0	59	0	352321536	54	6186
2026-01-15 07:54:33.96	24.13	13.69	-41.5	-45.6	11.9	5.51e-04	0	59	0	357564416	54	5801
2026-01-15 07:54:36.99	23.55	13.59	-41.3	-45.2	12.2	3.01e-04	0	59	0	363855872	54	5570
2026-01-15 07:54:40.01	22.98	13.49	-41.7	-46.1	11.3	7.25e-04	0	59	0	369098752	54	6133
2026-01-15 07:54:43.04	22.41	13.38	-41.8	-46.3	11.1	1.76e-03	0	59	0	375390208	54	6288
2026-01-15 07:54:46.07	21.84	13.28	-42.0	-46.9	10.4	4.14e-03	0	59	0	380633088	54	6777
2026-01-15 07:54:49.09	21.28	13.17	-42.2	-47.5	9.8	1.01e-02	0	59	0	385875968	55	6853
2026-01-15 07:54:52.12	20.72	13.05	-42.2	-47.4	9.8	8.95e-03	0	59	0	392167424	55	6785
2026-01-15 07:54:55.14	20.17	12.94	-42.2	-47.3	10.0	7.85e-03	0	59	0	397410304	55	6694
2026-01-15 07:54:58.17	19.62	12.82	-42.1	-47.2	10.1	7.49e-03	0	59	0	403701760	55	6595
2026-01-15 07:55:01.20	19.08	12.70	-42.2	-47.4	9.8	8.12e-03	0	59	0	408944640	55	6780
2026-01-15 07:55:04.22	18.54	12.58	-42.0	-47.1	10.2	5.64e-03	0	59	0	414187520	55	6531
2026-01-15 07:55:07.25	18.00	12.46	-42.2	-47.5	9.7	9.77e-03	0	59	0	420478976	55	6829
2026-01-15 07:55:10.27	17.47	12.34	-42.0	-47.1	10.1	8.41e-03	0	59	0	425721856	55	6565
2026-01-15 07:55:13.30	16.95	12.21	-41.7	-46.4	10.7	3.03e-03	0	59	0	432013312	55	6048
2026-01-15 07:55:16.33	16.42	12.08	-41.7	-46.5	10.7	2.73e-03	0	59	0	437256192	55	6063
2026-01-15 07:55:19.36	15.91	11.95	-42.1	-47.5	9.6	8.41e-03	0	59	0	442499072	55	6813
2026-01-15 07:55:22.38	15.40	11.82	-42.1	-47.7	9.3	2.68e-02	0	59	0	448790528	55	6982
2026-01-15 07:55:25.41	14.89	11.69	-42.1	-47.8	9.1	2.02e-02	0	59	0	454033408	55	7073
2026-01-15 07:55:28.44	14.39	11.56	-41.9	-47.4	9.5	1.62e-02	0	59	0	460324864	55	6727
2026-01-15 07:55:31.46	13.89	11.42	-42.2	-48.4	8.4	3.16e-02	0	59	0	465567744	55	7548
2026-01-15 07:55:34.49	13.39	11.29	-42.6	-50.1	6.6	1.91e-01	0	59	0	471859200	55	9267
2026-01-15 07:55:37.52	12.91	11.15	-42.4	-50.5	6.1	3.46e-01	0	59	0	477102080	55	9710
2026-01-15 07:55:40.55	12.42	11.01	-42.1	-49.9	6.2	2.94e-01	0	59	0	482344960	55	9052
2026-01-15 07:55:43.58	11.94	10.87	-41.9	-50.0	6.2	2.43e-01	0	59	0	488636416	55	9091
2026-01-15 07:55:46.61	11.47	10.73	-41.5	-48.9	6.8	2.01e-01	0	59	0	493879296	55	8041
2026-01-15 07:55:49.64	11.00	10.58	-41.4	-50.8	5.1	5.58e-01	0	59	0	500170752	54	10613
2026-01-15 07:55:52.67	10.53	10.44	-41.3	-54.0	3.9	1.48e+00	0	59	104	502267904	54	15248
2026-01-15 07:55:55.69	10.07	10.30	-41.0	-55.3	3.8	1.49e+00	0	59	104	502267904	54	17845
2026-01-15 07:55:58.72	9.61	10.15	-40.9	-55.5	3.8	1.49e+00	0	59	104	502267904	53	19318
2026-01-15 07:56:01.75	9.16	10.01	-40.3	-54.9	3.8	1.49e+00	0	59	104	502267904	52	18950
2026-01-15 07:56:04.78	8.72	9.86	-40.4	-55.0	3.8	1.49e+00	0	59	104	502267904	52	19353
2026-01-15 07:56:07.80	8.27	9.71	-40.2	-54.8	3.8	1.49e+00	0	59	104	502267904	52	18874
2026-01-15 07:56:10.83	7.84	9.56	-40.3	-54.9	3.8	1.49e+00	0	59	104	502267904	52	19116
2026-01-15 07:56:13.86	7.40	9.41	-40.0	-54.6	3.8	1.49e+00	0	59	104	502267904	52	18411
2026-01-15 07:56:16.89	6.97	9.26	-40.5	-55.1	3.8	1.49e+00	0	59	104	502267904	51	20769
2026-01-15 07:56:19.91	6.55	9.11	-40.0	-54.7	3.8	1.49e+00	0	59	104	502267904	51	19636
2026-01-15 07:56:22.94	6.13	8.96	-40.0	-54.6	3.8	1.49e+00	0	59	104	502267904	51	19477
2026-01-15 07:56:25.97	5.72	8.81	-40.0	-54.6	3.8	1.49e+00	0	59	104	502267904	51	19614
2026-01-15 07:56:29.00	5.31	8.66	-40.0	-54.7	3.8	1.49e+00	0	59	104	502267904	51	19634
2026-01-15 07:56:32.03	4.90	8.51	-40.1	-54.8	3.8	1.49e+00	0	59	104	502267904	51	19935
2026-01-15 07:56:35.05	4.50	8.35	-40.0	-54.7	3.8	1.49e+00	0	59	104	502267904	51	19615
2026-01-15 07:56:38.08	4.10	8.20	-40.1	-54.8	3.8	1.49e+00	0	59	104	502267904	51	19864
2026-01-15 07:56:41.11	3.71	8.05	-39.9	-54.6	3.8	1.49e+00	0	59	104	502267904	51	19530
2026-01-15 07:56:44.14	3.32	7.89	-44.2	-58.6	3.8	1.49e+00	0	59	104	502267904	58	20570
2026-01-15 07:56:47.17	2.93	7.74	-45.2	-59.9	3.8	1.49e+00	0	59	104	502267904	61	20123
2026-01-15 07:56:50.20	2.55	7.58	-45.4	-60.1	3.8	1.49e+00	0	59	104	502267904	61	20596
2026-01-15 07:56:53.23	2.17	7.43	-45.4	-60.0	3.8	1.49e+00	0	59	104	502267904	61	20318
2026-01-15 07:56:56.26	1.80	7.27	-45.4	-59.8	3.8	1.49e+00	0	59	104	502267904	61	20013
2026-01-15 07:56:59.29	1.43	7.12	-45.3	-59.8	3.8	1.49e+00	0	59	104	502267904	61	19893
2026-01-15 07:57:02.32	1.07	6.96	-45.2	-59.7	3.8	1.49e+00	0	59	104	502267904	61	19795
2026-01-15 07:57:05.34	0.71	6.80	-45.2	-59.7	3.8	1.49e+00	0	59	104	502267904	61	19758
2026-01-15 07:57:08.38	0.35	6.65	-45.2	-59.7	3.8	1.49e+00	0	59	104	502267904	61	19776
2026-01-15 07:57:11.41	360.00	6.49	-45.2	-59.7	3.8	1.49e+00	0	59	104	502267904	61	19759
2026-01-15 07:57:14.44	359.65	6.34	-45.1	-59.7	3.8	1.49e+00	0	59	104	502267904	61	19748
2026-01-15 07:57:17.47	359.30	6.18	-45.2	-59.7	3.8	1.49e+00	0	59	104	502267904	61	19719
2026-01-15 07:57:20.50	358.96	6.02	-45.2	-59.7	3.8	1.49e+00	0	59	104	502267904	61	19732
2026-01-15 07:57:23.53	358.63	5.87	-45.2	-59.7	3.8	1.49e+00	0	59	104	502267904	61	19753
2026-01-15 07:57:26.56	358.29	5.71	-45.2	-59.7	3.8	1.49e+00	0	59	104	502267904	61	19703
2026-01-15 07:57:29.59	357.96	5.56	-45.2	-59.7	3.8	1.49e+00	0	59	104	502267904	61	19723
2026-01-15 07:57:32.62	357.64	5.40	-45.2	-59.7	3.8	1.49e+00	0	59	104	502267904	61	19681
2026-01-15 07:57:35.65	357.31	5.24	-45.2	-59.7	3.8	1.49e+00	0	59	104	502267904	61	19763
2026-01-15 07:57:38.68	356.99	5.09	-45.2	-59.7	3.8	1.49e+00	0	59	104	502267904	61	19735
2026-01-15 07:57:41.71	356.68	4.93	-45.2	-59.7	3.8	1.49e+00	0	59	104	502267904	60	20858
2026-01-15 07:57:44.73	356.37	4.78	-45.2	-59.7	3.8	1.49e+00	0	59	104	502267904	60	20899
2026-01-15 07:57:47.76	356.06	4.62	-45.2	-59.7	3.8	1.49e+00	0	59	104	502267904	60	20939
2026-01-15 07:57:50.79	355.75	4.47	-45.2	-59.7	3.8	1.49e+00	0	59	104	502267904	61	19647
2026-01-15 07:57:53.81	355.45	4.31	-45.2	-59.7	3.8	1.49e+00	0	59	104	502267904	61	19730
2026-01-15 07:57:56.85	355.15	4.15	-45.2	-59.7	3.8	1.49e+00	0	59	104	502267904	60	20902
2026-01-15 07:57:59.88	354.86	4.00	-45.2	-59.7	3.8	1.49e+00	0	59	104	502267904	60	20842
2026-01-15 07:58:02.91	354.56	3.84	-45.2	-59.7	3.8	1.49e+00	0	59	104	502267904	60	20848
2026-01-15 07:58:05.94	354.27	3.69	-45.2	-59.7	3.8	1.49e+00	0	59	104	502267904	60	20807
2026-01-15 07:58:08.97	353.99	3.54	-45.2	-59.7	3.8	1.49e+00	0	59	104	502267904	60	20804
2026-01-15 07:58:12.00	353.71	3.38	-45.2	-59.7	3.8	1.49e+00	0	59	104	502267904	60	20896
2026-01-15 07:58:15.03	353.43	3.23	-45.2	-59.7	3.8	1.49e+00	0	59	104	502267904	60	20861
2026-01-15 07:58:18.06	353.15	3.07	-45.2	-59.7	3.8	1.49e+00	0	59	104	502267904	60	20782
2026-01-15 07:58:21.10	352.87	2.92	-45.1	-59.7	3.8	1.49e+00	0	59	104	502267904	60	20845
2026-01-15 07:58:24.12	352.60	2.77	-45.2	-59.7	3.8	1.49e+00	0	59	104	502267904	60	20869
2026-01-15 07:58:27.16	352.34	2.61	-45.2	-59.7	3.8	1.49e+00	0	59	104	502267904	60	20817
2026-01-15 07:58:30.19	352.07	2.46	-45.2	-59.7	3.8	1.49e+00	0	60	104	502267904	60	20889
2026-01-15 07:58:33.22	351.81	2.31	-45.2	-59.7	3.8	1.49e+00	0	59	104	502267904	60	20824
2026-01-15 07:58:36.25	351.55	2.15	-45.2	-59.6	3.8	1.49e+00	0	59	104	502267904	60	20772
2026-01-15 07:58:39.28	351.29	2.00	-45.2	-59.7	3.8	1.49e+00	0	59	104	502267904	60	20860

#Closed at: 2026-01-15 07:58:41
#Recorded file [502 MB]: D:/lorett/data/31039_260115_104723.dat