passes_logs/2026/01/15/R2.0S_Moscow/R2.0S_Moscow__20260115_134626_FENGYUN_3D_rec.log

#Pass ID: 20260115_134626_FENGYUN 3D
#Satellite: FENGYUN 3D
#Configuration: FENGYUN 3D
#almurnet v.1.7.20251203
#Start time: 2026-01-15 13:46:27

#Version: 2.2.20231116
#Station: R2.0S_Moscow
#Location: 37.707566 lon 55.798166 lat
#TLE: 1 43010U 17072A   26014.65117763 -.00000217  00000+0 -80772-4 0  9993
#TLE: 2 43010  98.9933 346.4618 0002330 108.4699 251.6730 14.19694700423204

#Time	Az	El	Level	Level2	SNR	BER	BlckErr	Temp	State	Recorded	gain1	gain2
2026-01-15 13:46:27.29	216.20	2.06	-44.1	-55.7	3.8	8.44e-01	0	51	0	0	59	13924
2026-01-15 13:46:30.31	216.46	2.21	-44.1	-55.7	3.8	8.46e-01	0	52	104	0	59	13915
2026-01-15 13:46:33.35	216.72	2.37	-44.1	-55.7	3.8	8.45e-01	0	52	104	0	59	13907
2026-01-15 13:46:36.37	216.97	2.52	-44.1	-55.7	3.8	8.45e-01	0	52	104	0	59	14012
2026-01-15 13:46:39.40	217.24	2.68	-44.1	-55.7	3.8	8.46e-01	0	52	104	0	59	13939
2026-01-15 13:46:42.43	217.50	2.84	-44.1	-55.7	3.8	8.47e-01	0	52	104	0	59	14014
2026-01-15 13:46:45.46	217.77	3.00	-44.1	-55.7	3.8	8.46e-01	0	53	104	0	59	13976
2026-01-15 13:46:48.49	218.04	3.15	-44.1	-55.7	3.8	8.45e-01	0	53	104	0	59	13929
2026-01-15 13:46:51.52	218.32	3.31	-44.1	-55.7	3.8	8.46e-01	0	53	104	0	59	13974
2026-01-15 13:46:54.54	218.59	3.47	-44.1	-55.7	3.8	8.46e-01	0	53	104	0	59	13925
2026-01-15 13:46:57.57	218.87	3.63	-44.1	-55.7	3.8	8.46e-01	0	53	104	0	59	13934
2026-01-15 13:47:00.61	219.15	3.79	-44.1	-55.7	3.8	8.46e-01	0	54	104	0	59	13964
2026-01-15 13:47:03.64	219.44	3.95	-44.1	-55.7	3.8	8.46e-01	0	54	104	0	59	13942
2026-01-15 13:47:06.67	219.73	4.11	-44.1	-55.7	3.8	8.46e-01	0	54	104	0	59	13971
2026-01-15 13:47:09.70	220.02	4.27	-44.1	-55.7	3.8	8.45e-01	0	54	104	0	59	13905
2026-01-15 13:47:12.73	220.31	4.43	-44.1	-55.7	3.8	8.46e-01	0	54	104	0	59	13920
2026-01-15 13:47:15.76	220.61	4.59	-44.1	-55.7	3.8	8.46e-01	0	54	104	0	59	14021
2026-01-15 13:47:18.79	220.91	4.75	-44.1	-55.7	3.8	8.45e-01	0	54	104	0	59	13973
2026-01-15 13:47:21.82	221.22	4.92	-44.1	-55.7	3.8	8.47e-01	0	55	104	0	59	13905
2026-01-15 13:47:24.85	221.53	5.08	-44.1	-55.7	3.8	8.46e-01	0	55	104	0	59	13952
2026-01-15 13:47:27.88	221.84	5.24	-44.1	-55.7	3.8	8.46e-01	0	55	104	0	59	13985
2026-01-15 13:47:30.91	222.15	5.40	-44.1	-55.7	3.8	8.46e-01	0	55	104	0	59	13932
2026-01-15 13:47:33.95	222.47	5.57	-44.1	-55.7	3.8	8.45e-01	0	55	104	0	59	13888
2026-01-15 13:47:36.98	222.79	5.73	-44.1	-55.5	3.8	8.46e-01	0	55	104	0	59	13653
2026-01-15 13:47:40.01	223.11	5.89	-44.1	-55.2	3.8	8.45e-01	0	56	104	0	59	13202
2026-01-15 13:47:43.04	223.44	6.06	-44.0	-55.0	3.8	8.47e-01	0	56	104	0	59	12905
2026-01-15 13:47:46.07	223.77	6.22	-44.0	-54.8	3.8	8.46e-01	0	56	104	0	59	12584
2026-01-15 13:47:49.11	224.11	6.39	-43.9	-53.9	3.8	8.46e-01	0	56	104	0	59	11318
2026-01-15 13:47:52.14	224.45	6.55	-43.7	-52.0	4.2	8.37e-01	0	56	0	0	59	9121
2026-01-15 13:47:55.17	224.79	6.72	-43.2	-50.0	5.1	7.72e-01	0	56	0	0	58	7670
2026-01-15 13:47:58.20	225.14	6.88	-42.8	-48.6	6.0	3.79e-01	0	56	0	8388608	57	6906
2026-01-15 13:48:01.23	225.49	7.05	-42.6	-48.1	6.4	2.70e-01	0	56	0	25165824	56	6909
2026-01-15 13:48:04.26	225.84	7.21	-43.0	-49.2	5.5	6.21e-01	0	57	0	40894464	56	7898
2026-01-15 13:48:07.29	226.20	7.38	-43.4	-50.9	4.6	8.13e-01	0	56	0	42991616	57	9052
2026-01-15 13:48:10.31	226.56	7.54	-42.8	-48.5	6.1	4.03e-01	0	57	0	46137344	57	6821
2026-01-15 13:48:13.34	226.93	7.71	-41.0	-44.4	9.8	2.27e-02	0	57	0	63963136	54	5083
2026-01-15 13:48:16.37	227.30	7.87	-39.9	-42.6	11.8	6.93e-04	0	57	0	80740352	51	4875
2026-01-15 13:48:19.40	227.67	8.04	-39.7	-42.3	12.2	8.69e-04	0	57	0	97517568	51	4715
2026-01-15 13:48:22.43	228.05	8.21	-40.8	-43.9	10.4	2.48e-02	0	57	0	108003328	53	5098
2026-01-15 13:48:25.46	228.43	8.37	-40.0	-42.6	11.9	5.62e-04	0	57	0	124780544	51	4896
2026-01-15 13:48:28.49	228.82	8.54	-39.9	-42.5	12.1	3.86e-04	0	57	0	141557760	51	4847
2026-01-15 13:48:31.52	229.21	8.70	-39.6	-42.0	12.5	1.33e-04	0	57	0	158334976	51	4589
2026-01-15 13:48:34.55	229.61	8.87	-39.6	-42.0	12.5	1.45e-04	0	57	0	175112192	50	4865
2026-01-15 13:48:37.58	230.00	9.03	-39.5	-41.9	12.7	1.27e-04	0	57	0	192937984	50	4797
2026-01-15 13:48:40.61	230.41	9.20	-39.4	-41.8	12.8	1.06e-04	0	57	0	209715200	50	4746
2026-01-15 13:48:43.65	230.82	9.37	-39.4	-41.7	12.9	7.55e-05	0	57	0	226492416	50	4685
2026-01-15 13:48:46.68	231.23	9.53	-39.3	-41.6	13.1	4.69e-05	0	57	0	243269632	50	4620
2026-01-15 13:48:49.71	231.65	9.70	-39.2	-41.5	13.2	4.00e-05	0	58	0	261095424	50	4563
2026-01-15 13:48:52.73	232.07	9.86	-39.1	-41.2	13.5	1.83e-05	0	58	0	277872640	50	4434
2026-01-15 13:48:55.77	232.50	10.03	-39.0	-41.1	13.6	1.25e-05	0	58	0	294649856	49	4624
2026-01-15 13:48:58.79	232.93	10.19	-38.9	-41.0	13.7	1.60e-05	0	58	0	312475648	49	4565
2026-01-15 13:49:01.82	233.36	10.35	-39.1	-41.3	13.5	2.97e-05	0	58	0	329252864	49	4731
2026-01-15 13:49:04.85	233.81	10.52	-39.1	-41.3	13.4	2.28e-05	0	58	0	346030080	49	4745
2026-01-15 13:49:07.87	234.25	10.68	-39.1	-41.3	13.4	1.83e-05	0	58	0	362807296	49	4758
2026-01-15 13:49:10.91	234.70	10.84	-39.1	-41.3	13.5	1.60e-05	0	58	0	379584512	49	4742
2026-01-15 13:49:13.94	235.16	11.01	-39.2	-41.4	13.4	2.28e-05	0	58	0	397410304	49	4797
2026-01-15 13:49:16.97	235.62	11.17	-39.1	-41.2	13.6	1.48e-05	0	58	0	414187520	49	4695
2026-01-15 13:49:19.99	236.08	11.33	-39.1	-41.3	13.5	2.63e-05	0	58	0	430964736	49	4732
2026-01-15 13:49:23.02	236.55	11.49	-39.1	-41.2	13.6	1.71e-05	0	58	0	447741952	49	4700
2026-01-15 13:49:26.05	237.03	11.65	-38.9	-41.0	13.9	6.80e-06	0	58	0	465567744	49	4555
2026-01-15 13:49:29.07	237.51	11.81	-38.7	-40.7	14.1	6.80e-06	0	58	0	482344960	49	4429
2026-01-15 13:49:32.10	237.99	11.96	-38.7	-40.7	14.1	2.20e-06	0	58	0	499122176	49	4422
2026-01-15 13:49:35.13	238.48	12.12	-38.7	-40.7	14.1	4.50e-06	0	59	0	515899392	49	4431
2026-01-15 13:49:38.15	238.97	12.28	-38.7	-40.7	14.1	5.70e-06	0	58	0	533725184	49	4430
2026-01-15 13:49:41.18	239.48	12.43	-38.8	-40.9	14.0	5.70e-06	0	59	0	550502400	49	4512
2026-01-15 13:49:44.20	239.98	12.59	-38.7	-40.7	14.2	2.20e-06	0	58	0	567279616	49	4427
2026-01-15 13:49:47.23	240.49	12.74	-38.5	-40.5	14.4	1.10e-06	0	59	0	584056832	49	4292
2026-01-15 13:49:50.26	241.01	12.89	-38.6	-40.6	14.3	0.00e+00	0	59	0	601882624	49	4355
2026-01-15 13:49:53.28	241.53	13.04	-38.6	-40.6	14.4	2.20e-06	0	59	0	618659840	49	4344
2026-01-15 13:49:56.31	242.05	13.19	-38.5	-40.4	14.5	0.00e+00	0	59	0	635437056	49	4290
2026-01-15 13:49:59.34	242.58	13.34	-38.5	-40.4	14.5	2.20e-06	0	59	0	652214272	49	4268
2026-01-15 13:50:02.37	243.12	13.49	-38.5	-40.4	14.5	0.00e+00	0	59	0	668991488	48	4545
2026-01-15 13:50:05.40	243.66	13.63	-38.5	-40.4	14.6	1.10e-06	0	59	0	686817280	48	4523
2026-01-15 13:50:08.43	244.21	13.78	-38.4	-40.3	14.6	0.00e+00	0	59	0	703594496	48	4480
2026-01-15 13:50:11.46	244.76	13.92	-38.4	-40.4	14.6	0.00e+00	0	59	0	720371712	48	4498
2026-01-15 13:50:14.48	245.32	14.06	-38.5	-40.4	14.6	1.10e-06	0	59	0	738197504	48	4506
2026-01-15 13:50:17.51	245.88	14.20	-38.4	-40.3	14.6	1.10e-06	0	59	0	754974720	48	4487
2026-01-15 13:50:20.54	246.45	14.34	-38.4	-40.4	14.6	0.00e+00	0	59	0	771751936	48	4505
2026-01-15 13:50:23.56	247.02	14.47	-38.2	-40.1	14.9	0.00e+00	0	59	0	788529152	48	4352
2026-01-15 13:50:26.59	247.59	14.60	-38.1	-39.9	15.1	0.00e+00	0	59	0	806354944	48	4245
2026-01-15 13:50:29.62	248.18	14.74	-38.1	-39.9	15.1	0.00e+00	0	59	0	823132160	48	4269
2026-01-15 13:50:32.65	248.76	14.87	-38.2	-40.1	14.9	0.00e+00	0	59	0	839909376	48	4344
2026-01-15 13:50:35.68	249.36	14.99	-38.1	-39.9	15.1	0.00e+00	0	59	0	856686592	48	4285
2026-01-15 13:50:38.71	249.95	15.12	-38.1	-39.9	15.1	1.10e-06	0	59	0	873463808	48	4277
2026-01-15 13:50:41.74	250.56	15.24	-38.2	-40.0	15.0	0.00e+00	0	59	0	891289600	48	4318
2026-01-15 13:50:44.76	251.16	15.36	-38.3	-40.1	14.9	0.00e+00	0	59	0	908066816	48	4366
2026-01-15 13:50:47.79	251.77	15.48	-38.3	-40.1	14.9	0.00e+00	0	59	0	924844032	48	4382
2026-01-15 13:50:50.82	252.39	15.59	-38.0	-39.8	15.3	1.10e-06	0	59	0	941621248	48	4196
2026-01-15 13:50:53.84	253.01	15.71	-37.9	-39.7	15.3	0.00e+00	0	59	0	959447040	47	4401
2026-01-15 13:50:56.87	253.63	15.82	-38.0	-39.9	15.1	0.00e+00	0	59	0	976224256	47	4502
2026-01-15 13:50:59.89	254.26	15.92	-37.9	-39.7	15.2	0.00e+00	0	59	0	993001472	47	4414
2026-01-15 13:51:02.92	254.90	16.03	-37.8	-39.6	15.3	0.00e+00	0	59	0	1009778688	47	4375
2026-01-15 13:51:05.95	255.54	16.13	-37.8	-39.5	15.4	0.00e+00	0	59	0	1027604480	47	4333
2026-01-15 13:51:08.97	256.18	16.23	-37.5	-39.4	14.3	4.61e-03	0	59	0	1044381696	46	4530
2026-01-15 13:51:12.00	256.82	16.32	-37.4	-39.4	14.2	9.35e-03	0	59	0	1061158912	46	4518
2026-01-15 13:51:15.03	257.47	16.42	-37.8	-39.6	15.4	4.96e-03	0	59	0	1077936128	46	4620
2026-01-15 13:51:18.06	258.13	16.51	-37.7	-39.4	15.6	0.00e+00	0	59	0	1095761920	46	4524
2026-01-15 13:51:21.09	258.79	16.59	-37.8	-39.5	15.4	0.00e+00	0	60	0	1112539136	46	4598
2026-01-15 13:51:24.12	259.45	16.68	-37.9	-39.7	15.3	0.00e+00	0	60	0	1129316352	46	4661
2026-01-15 13:51:27.14	260.11	16.75	-37.9	-39.6	15.3	0.00e+00	0	60	0	1146093568	46	4649
2026-01-15 13:51:30.18	260.78	16.83	-37.7	-39.5	15.5	0.00e+00	0	59	0	1162870784	46	4570
2026-01-15 13:51:33.21	261.45	16.90	-37.8	-39.6	15.4	0.00e+00	0	59	0	1180696576	46	4626
2026-01-15 13:51:36.24	262.13	16.97	-37.9	-39.6	15.3	0.00e+00	0	59	0	1197473792	46	4649
2026-01-15 13:51:39.27	262.80	17.04	-37.8	-39.5	15.5	1.10e-06	0	60	0	1214251008	46	4585
2026-01-15 13:51:42.30	263.48	17.10	-37.6	-39.3	15.6	0.00e+00	0	59	0	1232076800	46	4492
2026-01-15 13:51:45.33	264.17	17.16	-37.6	-39.3	15.7	0.00e+00	0	60	0	1248854016	46	4451
2026-01-15 13:51:48.36	264.85	17.21	-37.8	-39.6	15.4	0.00e+00	0	60	0	1265631232	46	4615
2026-01-15 13:51:51.38	265.54	17.26	-37.7	-39.4	15.5	1.10e-06	0	60	0	1282408448	46	4521
2026-01-15 13:51:54.41	266.23	17.31	-37.6	-39.3	15.7	0.00e+00	0	60	0	1300234240	46	4451
2026-01-15 13:51:57.44	266.92	17.35	-37.6	-39.3	15.7	0.00e+00	0	60	0	1317011456	46	4444
2026-01-15 13:52:00.47	267.61	17.39	-37.5	-39.1	15.8	0.00e+00	0	60	0	1333788672	46	4376
2026-01-15 13:52:03.49	268.31	17.42	-37.5	-39.2	15.8	0.00e+00	0	60	0	1350565888	46	4396
2026-01-15 13:52:06.53	269.00	17.45	-37.5	-39.3	15.7	0.00e+00	0	60	0	1367343104	46	4444
2026-01-15 13:52:09.56	269.70	17.48	-37.5	-39.3	15.7	0.00e+00	0	60	0	1385168896	46	4443
2026-01-15 13:52:12.58	270.40	17.50	-37.4	-39.1	15.9	0.00e+00	0	60	0	1401946112	46	4342
2026-01-15 13:52:15.61	271.10	17.52	-37.5	-39.2	15.8	0.00e+00	0	60	0	1418723328	46	4396
2026-01-15 13:52:18.64	271.80	17.53	-37.5	-39.2	15.8	0.00e+00	0	60	0	1436549120	46	4399
2026-01-15 13:52:21.67	272.50	17.54	-37.6	-39.3	15.7	0.00e+00	0	60	0	1453326336	46	4475
2026-01-15 13:52:24.70	273.20	17.55	-37.6	-39.3	15.7	0.00e+00	0	60	0	1470103552	46	4446
2026-01-15 13:52:27.73	273.90	17.55	-37.6	-39.3	15.7	0.00e+00	0	60	0	1486880768	46	4460
2026-01-15 13:52:30.76	274.60	17.55	-37.6	-39.3	15.6	0.00e+00	0	60	0	1504706560	46	4474
2026-01-15 13:52:33.78	275.30	17.54	-37.6	-39.4	15.6	0.00e+00	0	60	0	1521483776	46	4505
2026-01-15 13:52:36.80	276.00	17.53	-37.6	-39.3	15.7	0.00e+00	0	60	0	1538260992	46	4451
2026-01-15 13:52:39.83	276.70	17.52	-37.6	-39.4	15.5	0.00e+00	0	60	0	1555038208	46	4513
2026-01-15 13:52:42.85	277.40	17.50	-37.8	-39.6	15.4	0.00e+00	0	60	0	1571815424	46	4607
2026-01-15 13:52:45.88	278.09	17.48	-37.7	-39.5	15.4	0.00e+00	0	60	0	1589641216	46	4546
2026-01-15 13:52:48.91	278.79	17.45	-37.7	-39.5	15.4	0.00e+00	0	60	0	1606418432	46	4558
2026-01-15 13:52:51.94	279.49	17.42	-37.7	-39.4	15.5	0.00e+00	0	60	0	1623195648	46	4518
2026-01-15 13:52:54.97	280.18	17.39	-37.5	-39.2	15.6	0.00e+00	0	60	0	1639972864	46	4430
2026-01-15 13:52:58.00	280.87	17.35	-37.6	-39.3	15.6	0.00e+00	0	60	0	1657798656	46	4485
2026-01-15 13:53:01.03	281.56	17.30	-37.6	-39.3	15.5	0.00e+00	0	60	0	1674575872	46	4487
2026-01-15 13:53:04.05	282.25	17.26	-37.6	-39.3	15.5	0.00e+00	0	60	0	1691353088	46	4489
2026-01-15 13:53:07.08	282.94	17.21	-37.7	-39.5	15.3	0.00e+00	0	60	0	1708130304	46	4572
2026-01-15 13:53:10.11	283.62	17.15	-37.8	-39.6	15.3	1.10e-06	0	60	0	1725956096	46	4621
2026-01-15 13:53:13.15	284.30	17.09	-37.7	-39.5	15.4	0.00e+00	0	60	0	1742733312	46	4571
2026-01-15 13:53:16.18	284.98	17.03	-37.9	-39.7	15.2	0.00e+00	0	60	0	1759510528	46	4665
2026-01-15 13:53:19.21	285.66	16.97	-38.1	-40.0	14.8	1.10e-06	0	60	0	1776287744	46	4852
2026-01-15 13:53:22.24	286.33	16.90	-37.9	-39.8	15.0	1.10e-06	0	60	0	1794113536	46	4730
2026-01-15 13:53:25.27	287.00	16.83	-37.8	-39.6	15.2	1.10e-06	0	60	0	1810890752	46	4633
2026-01-15 13:53:28.30	287.67	16.75	-37.8	-39.6	15.2	0.00e+00	0	60	0	1827667968	46	4615
2026-01-15 13:53:31.33	288.33	16.67	-37.8	-39.5	15.3	0.00e+00	0	60	0	1844445184	46	4591
2026-01-15 13:53:34.36	288.99	16.59	-37.9	-39.8	15.0	0.00e+00	0	60	0	1862270976	46	4728
2026-01-15 13:53:37.38	289.64	16.50	-38.1	-40.0	14.8	0.00e+00	0	60	0	1879048192	46	4836
2026-01-15 13:53:40.41	290.30	16.41	-38.0	-39.9	14.9	0.00e+00	0	60	0	1895825408	46	4786
2026-01-15 13:53:43.44	290.94	16.32	-38.1	-39.9	14.9	0.00e+00	0	60	0	1913651200	46	4802
2026-01-15 13:53:46.47	291.59	16.23	-38.0	-39.8	15.0	0.00e+00	0	60	0	1930428416	46	4735
2026-01-15 13:53:49.49	292.23	16.13	-38.0	-39.8	15.0	0.00e+00	0	60	0	1947205632	46	4721
2026-01-15 13:53:52.52	292.86	16.03	-38.0	-39.9	14.9	0.00e+00	0	60	0	1963982848	46	4781
2026-01-15 13:53:55.55	293.49	15.92	-38.0	-39.9	14.9	0.00e+00	0	60	0	1980760064	46	4760
2026-01-15 13:53:58.57	294.12	15.82	-38.1	-39.9	14.8	0.00e+00	0	60	0	1998585856	46	4808
2026-01-15 13:54:01.60	294.74	15.71	-38.0	-39.9	14.8	0.00e+00	0	60	0	2015363072	46	4799
2026-01-15 13:54:04.63	295.36	15.59	-38.0	-39.9	14.9	0.00e+00	0	60	0	2032140288	46	4780
2026-01-15 13:54:07.65	295.97	15.48	-38.1	-40.0	14.7	1.10e-06	0	60	0	2048917504	46	4861
2026-01-15 13:54:10.68	296.58	15.36	-38.2	-40.1	14.7	0.00e+00	0	60	0	2065694720	46	4889
2026-01-15 13:54:13.71	297.19	15.24	-38.3	-40.3	14.5	1.10e-06	0	60	0	2083520512	47	4707
2026-01-15 13:54:16.73	297.78	15.12	-38.3	-40.2	14.5	0.00e+00	0	60	0	2100297728	47	4679
2026-01-15 13:54:19.76	298.38	15.00	-38.2	-40.2	14.6	1.10e-06	0	60	0	2117074944	47	4663
2026-01-15 13:54:22.79	298.97	14.87	-38.3	-40.3	14.5	0.00e+00	0	60	0	2134900736	47	4721
2026-01-15 13:54:25.82	299.55	14.74	-38.4	-40.4	14.3	0.00e+00	0	60	0	2151677952	47	4797
2026-01-15 13:54:28.84	300.13	14.61	-38.4	-40.3	14.4	2.20e-06	0	60	0	2168455168	47	4759
2026-01-15 13:54:31.87	300.71	14.48	-38.4	-40.4	14.4	3.40e-06	0	60	0	2185232384	47	4768
2026-01-15 13:54:34.89	301.27	14.34	-38.3	-40.3	14.4	0.00e+00	0	60	0	2203058176	47	4726
2026-01-15 13:54:37.92	301.84	14.21	-38.3	-40.2	14.5	1.10e-06	0	60	0	2219835392	47	4705
2026-01-15 13:54:40.95	302.40	14.07	-38.3	-40.2	14.5	1.10e-06	0	60	0	2236612608	47	4688
2026-01-15 13:54:43.98	302.95	13.93	-38.5	-40.5	14.3	3.40e-06	0	60	0	2253389824	47	4815
2026-01-15 13:54:47.01	303.50	13.79	-38.5	-40.5	14.2	5.70e-06	0	60	0	2270167040	47	4846
2026-01-15 13:54:50.03	304.04	13.65	-38.5	-40.5	14.2	1.10e-06	0	60	0	2287992832	47	4830
2026-01-15 13:54:53.06	304.58	13.50	-38.6	-40.6	14.1	1.10e-06	0	60	0	2304770048	47	4887
2026-01-15 13:54:56.09	305.12	13.35	-38.6	-40.7	14.0	5.70e-06	0	60	0	2321547264	47	4946
2026-01-15 13:54:59.12	305.65	13.21	-38.7	-40.8	13.9	8.00e-06	0	60	0	2338324480	47	5008
2026-01-15 13:55:02.15	306.17	13.06	-38.9	-41.0	13.8	1.02e-05	0	60	0	2356150272	48	4830
2026-01-15 13:55:05.18	306.69	12.91	-38.8	-40.9	13.9	3.40e-06	0	60	0	2372927488	48	4788
2026-01-15 13:55:08.22	307.20	12.76	-38.9	-41.0	13.8	1.14e-05	0	60	0	2389704704	48	4825
2026-01-15 13:55:11.25	307.71	12.61	-39.0	-41.1	13.6	1.14e-05	0	60	0	2407530496	48	4902
2026-01-15 13:55:14.28	308.22	12.45	-39.0	-41.1	13.7	1.25e-05	0	60	0	2424307712	48	4897
2026-01-15 13:55:17.30	308.71	12.30	-39.1	-41.2	13.5	1.71e-05	0	60	0	2441084928	48	4953
2026-01-15 13:55:20.33	309.21	12.15	-39.1	-41.3	13.5	1.94e-05	0	60	0	2457862144	48	4987
2026-01-15 13:55:23.36	309.69	11.99	-39.1	-41.3	13.4	2.05e-05	0	60	0	2474639360	48	5023
2026-01-15 13:55:26.38	310.18	11.83	-39.0	-41.2	13.5	2.05e-05	0	61	0	2492465152	48	4971
2026-01-15 13:55:29.41	310.65	11.68	-39.0	-41.2	13.5	2.63e-05	0	60	0	2509242368	48	4943
2026-01-15 13:55:32.43	311.12	11.52	-39.0	-41.1	13.6	1.60e-05	0	61	0	2526019584	48	4909
2026-01-15 13:55:35.46	311.59	11.36	-39.0	-41.2	13.5	2.17e-05	0	60	0	2542796800	48	4961
2026-01-15 13:55:38.50	312.06	11.20	-39.1	-41.3	13.4	2.28e-05	0	60	0	2560622592	48	5013
2026-01-15 13:55:41.53	312.52	11.04	-39.1	-41.3	13.3	2.51e-05	0	60	0	2577399808	48	5020
2026-01-15 13:55:44.56	312.97	10.88	-39.1	-41.4	13.2	3.54e-05	0	60	0	2594177024	48	5080
2026-01-15 13:55:47.59	313.42	10.72	-39.3	-41.6	13.0	6.40e-05	0	61	0	2612002816	49	4889
2026-01-15 13:55:50.62	313.86	10.56	-39.2	-41.5	13.1	7.89e-05	0	60	0	2628780032	49	4846
2026-01-15 13:55:53.65	314.30	10.39	-39.3	-41.6	13.0	5.95e-05	0	60	0	2645557248	49	4891
2026-01-15 13:55:56.68	314.74	10.23	-39.4	-41.7	12.8	7.55e-05	0	60	0	2662334464	49	4972
2026-01-15 13:55:59.71	315.17	10.07	-39.4	-41.8	12.7	1.23e-04	0	60	0	2679111680	49	5031
2026-01-15 13:56:02.74	315.59	9.91	-39.4	-41.8	12.7	1.28e-04	0	60	0	2696937472	49	5006
2026-01-15 13:56:05.77	316.01	9.74	-39.4	-41.8	12.7	1.19e-04	0	60	0	2713714688	49	4994
2026-01-15 13:56:08.80	316.43	9.58	-39.4	-41.8	12.7	1.15e-04	0	61	0	2730491904	49	5010
2026-01-15 13:56:11.83	316.84	9.42	-39.4	-41.8	12.7	1.33e-04	0	60	0	2747269120	49	5037
2026-01-15 13:56:14.85	317.25	9.25	-39.5	-41.9	12.6	1.77e-04	0	60	0	2765094912	49	5066
2026-01-15 13:56:17.88	317.65	9.09	-39.6	-42.2	12.3	2.84e-04	0	60	0	2781872128	49	5219
2026-01-15 13:56:20.91	318.05	8.93	-39.6	-42.1	12.3	2.93e-04	0	61	0	2798649344	49	5205
2026-01-15 13:56:23.93	318.44	8.76	-39.8	-42.4	12.0	4.23e-04	0	60	0	2815426560	50	5075
2026-01-15 13:56:26.96	318.83	8.60	-39.6	-42.1	12.3	2.69e-04	0	60	0	2833252352	50	4905
2026-01-15 13:56:29.99	319.22	8.43	-39.7	-42.3	12.1	3.86e-04	0	61	0	2850029568	50	5012
2026-01-15 13:56:33.02	319.60	8.27	-39.7	-42.2	12.2	4.06e-04	0	60	0	2866806784	50	4974
2026-01-15 13:56:36.05	319.98	8.11	-39.8	-42.5	11.8	6.19e-04	0	61	0	2883584000	50	5127
2026-01-15 13:56:39.08	320.35	7.94	-44.3	-54.9	3.8	8.22e-01	0	61	104	2898264064	59	12794
2026-01-15 13:56:42.11	320.72	7.78	-44.9	-56.6	3.8	8.47e-01	0	61	104	2898264064	60	14637
2026-01-15 13:56:45.14	321.08	7.61	-45.2	-56.9	3.8	8.46e-01	0	61	104	2898264064	60	15099
2026-01-15 13:56:48.17	321.44	7.45	-45.2	-56.8	3.8	8.46e-01	0	61	104	2898264064	61	14207
2026-01-15 13:56:51.20	321.80	7.29	-45.2	-56.9	3.8	8.47e-01	0	61	104	2898264064	60	15071
2026-01-15 13:56:54.23	322.16	7.12	-45.0	-56.8	3.8	8.47e-01	0	61	104	2898264064	61	14124
2026-01-15 13:56:57.26	322.51	6.96	-45.1	-56.8	3.8	8.46e-01	0	60	104	2898264064	61	14127
2026-01-15 13:57:00.29	322.85	6.80	-45.2	-56.8	3.8	8.47e-01	0	61	104	2898264064	61	14176
2026-01-15 13:57:03.32	323.19	6.63	-45.1	-56.8	3.8	8.46e-01	0	61	104	2898264064	60	14956
2026-01-15 13:57:06.34	323.53	6.47	-45.2	-56.8	3.8	8.46e-01	0	61	104	2898264064	60	14965
2026-01-15 13:57:09.37	323.87	6.31	-45.2	-56.8	3.8	8.46e-01	0	61	104	2898264064	60	14944
2026-01-15 13:57:12.40	324.20	6.15	-45.1	-56.8	3.8	8.47e-01	0	61	104	2898264064	60	15020
2026-01-15 13:57:15.43	324.53	5.98	-45.1	-56.8	3.8	8.47e-01	0	60	104	2898264064	60	14941
2026-01-15 13:57:18.46	324.85	5.82	-44.9	-56.8	3.8	8.47e-01	0	60	104	2898264064	60	14910
2026-01-15 13:57:21.49	325.17	5.66	-45.1	-56.8	3.8	8.46e-01	0	61	104	2898264064	60	14884
2026-01-15 13:57:24.51	325.49	5.50	-45.1	-56.8	3.8	8.46e-01	0	61	104	2898264064	60	14940
2026-01-15 13:57:27.54	325.80	5.34	-45.1	-56.8	3.8	8.46e-01	0	61	104	2898264064	60	14976
2026-01-15 13:57:30.58	326.12	5.18	-44.0	-56.5	3.8	8.46e-01	0	61	104	2898264064	59	15391
2026-01-15 13:57:33.61	326.42	5.02	-45.1	-56.8	3.8	8.46e-01	0	61	104	2898264064	60	14923
2026-01-15 13:57:36.64	326.73	4.86	-45.1	-56.8	3.8	8.46e-01	0	61	104	2898264064	60	14919
2026-01-15 13:57:39.67	327.03	4.70	-45.1	-56.8	3.8	8.46e-01	0	61	104	2898264064	60	14890
2026-01-15 13:57:42.70	327.33	4.54	-44.1	-56.7	3.8	8.46e-01	0	61	104	2898264064	60	14840
2026-01-15 13:57:45.73	327.63	4.38	-45.1	-56.8	3.8	8.46e-01	0	61	104	2898264064	60	14892
2026-01-15 13:57:48.76	327.92	4.22	-45.1	-56.8	3.8	8.45e-01	0	61	104	2898264064	60	14886
2026-01-15 13:57:51.79	328.21	4.06	-45.1	-56.8	3.8	8.45e-01	0	61	104	2898264064	60	14883
2026-01-15 13:57:54.82	328.49	3.90	-45.1	-56.8	3.8	8.47e-01	0	61	104	2898264064	60	14922
2026-01-15 13:57:57.85	328.78	3.75	-44.4	-56.8	3.8	8.46e-01	0	61	104	2898264064	60	14898
2026-01-15 13:58:00.88	329.06	3.59	-45.1	-56.7	3.8	8.47e-01	0	61	104	2898264064	60	14879
2026-01-15 13:58:03.91	329.34	3.43	-45.1	-56.8	3.8	8.47e-01	0	61	104	2898264064	60	14953
2026-01-15 13:58:06.94	329.61	3.28	-45.1	-56.7	3.8	8.46e-01	0	61	104	2898264064	60	14855
2026-01-15 13:58:09.97	329.88	3.12	-44.8	-56.7	3.8	8.46e-01	0	61	104	2898264064	60	14868
2026-01-15 13:58:13.00	330.15	2.96	-45.1	-56.8	3.8	8.45e-01	0	61	104	2898264064	60	14896
2026-01-15 13:58:16.03	330.42	2.81	-45.1	-56.7	3.8	8.46e-01	0	61	104	2898264064	60	14816
2026-01-15 13:58:19.06	330.68	2.65	-45.1	-56.8	3.8	8.45e-01	0	61	104	2898264064	60	14912
2026-01-15 13:58:22.09	330.94	2.50	-45.1	-56.8	3.8	8.45e-01	0	61	104	2898264064	60	14917
2026-01-15 13:58:25.12	331.20	2.34	-45.0	-56.8	3.8	8.44e-01	0	61	104	2898264064	60	14910
2026-01-15 13:58:28.15	331.46	2.19	-45.1	-56.8	3.8	8.47e-01	0	61	104	2898264064	60	14892
2026-01-15 13:58:31.18	331.71	2.04	-44.8	-56.7	3.8	8.46e-01	0	61	104	2898264064	60	14842

#Closed at: 2026-01-15 13:58:32
#Recorded file [2898 MB]: D:/lorett/data/31039_260115_164627.dat