passes_logs/2026/01/15/R2.0S_Moscow/R2.0S_Moscow__20260115_094537_NOAA_20_JPSS-1_rec.log

#Pass ID: 20260115_094537_NOAA 20 (JPSS-1)
#Satellite: NOAA 20 (JPSS-1)
#Configuration: NOAA 20
#almurnet v.1.7.20251203
#Start time: 2026-01-15 09:45:38

#Version: 2.2.20231116
#Station: R2.0S_Moscow
#Location: 37.707566 lon 55.798166 lat
#TLE: 1 43013U 17073A   26014.13176244  .00000049  00000+0  44136-4 0  9994
#TLE: 2 43013  98.7634 315.0803 0001538  40.6488 319.4803 14.19535812422619

#Time	Az	El	Level	Level2	SNR	BER	BlckErr	Temp	State	Recorded	gain1	gain2
2026-01-15 09:45:38.25	155.90	2.07	-44.0	-58.4	3.8	1.49e+00	0	52	0	0	59	19142
2026-01-15 09:45:42.28	155.88	2.33	-44.0	-58.4	3.8	1.49e+00	0	52	104	0	59	19083
2026-01-15 09:45:46.32	155.86	2.60	-44.0	-58.4	3.8	1.49e+00	0	52	104	0	59	19112
2026-01-15 09:45:50.36	155.84	2.86	-44.0	-58.4	3.8	1.49e+00	0	53	104	0	59	19066
2026-01-15 09:45:54.40	155.82	3.13	-44.0	-58.4	3.8	1.49e+00	0	53	104	0	59	19101
2026-01-15 09:45:58.44	155.80	3.40	-44.0	-58.4	3.8	1.49e+00	0	53	104	0	59	19091
2026-01-15 09:46:02.48	155.78	3.68	-44.0	-58.4	3.8	1.49e+00	0	53	104	0	59	19026
2026-01-15 09:46:06.52	155.75	3.96	-44.0	-58.4	3.8	1.49e+00	0	54	104	0	59	19165
2026-01-15 09:46:10.56	155.73	4.24	-44.0	-58.4	3.8	1.49e+00	0	54	104	0	59	19054
2026-01-15 09:46:14.60	155.71	4.52	-44.0	-58.4	3.8	1.49e+00	0	54	104	0	59	19120
2026-01-15 09:46:18.64	155.68	4.81	-44.0	-58.4	3.8	1.49e+00	0	54	104	0	59	19038
2026-01-15 09:46:22.68	155.66	5.10	-44.0	-58.4	3.8	1.49e+00	0	55	104	0	59	18955
2026-01-15 09:46:26.72	155.63	5.39	-44.0	-58.3	3.8	1.49e+00	0	54	104	0	59	18940
2026-01-15 09:46:30.76	155.60	5.68	-44.0	-58.2	3.8	1.49e+00	0	55	104	0	59	18672
2026-01-15 09:46:34.80	155.57	5.98	-43.9	-57.4	3.8	1.49e+00	0	55	104	0	59	16961
2026-01-15 09:46:38.84	155.55	6.29	-43.8	-55.8	4.0	1.48e+00	0	55	104	0	59	14162
2026-01-15 09:46:42.88	155.52	6.59	-43.9	-56.4	3.8	1.49e+00	0	55	104	0	59	15199
2026-01-15 09:46:46.92	155.49	6.90	-43.9	-57.6	3.8	1.49e+00	0	56	104	0	59	17418
2026-01-15 09:46:50.96	155.45	7.22	-43.9	-57.5	3.8	1.49e+00	0	56	104	0	59	17244
2026-01-15 09:46:54.99	155.42	7.53	-43.6	-53.8	4.5	1.15e+00	0	56	0	1048576	59	11211
2026-01-15 09:46:59.03	155.39	7.85	-43.2	-50.7	6.5	2.57e-01	0	56	0	8388608	58	8290
2026-01-15 09:47:03.06	155.36	8.18	-43.9	-55.6	3.9	1.49e+00	0	56	104	12582912	58	14553
2026-01-15 09:47:07.10	155.32	8.51	-42.7	-48.8	8.3	7.36e-02	0	56	0	16777216	57	7056
2026-01-15 09:47:11.14	155.28	8.84	-42.6	-48.6	8.5	4.32e-02	0	57	0	24117248	57	6945
2026-01-15 09:47:15.18	155.25	9.18	-42.6	-48.4	8.9	2.63e-02	0	57	0	31457280	56	7135
2026-01-15 09:47:19.22	155.21	9.53	-42.6	-48.2	9.2	2.23e-02	0	57	0	38797312	56	6976
2026-01-15 09:47:23.26	155.17	9.88	-42.6	-48.1	9.3	1.77e-02	0	57	0	47185920	56	6939
2026-01-15 09:47:27.30	155.13	10.23	-42.6	-48.0	9.5	1.48e-02	0	57	0	54525952	56	6847
2026-01-15 09:47:31.33	155.09	10.59	-42.6	-47.9	9.6	1.19e-02	0	57	0	61865984	56	6743
2026-01-15 09:47:35.37	155.04	10.95	-42.6	-47.7	9.8	1.13e-02	0	57	0	69206016	56	6636
2026-01-15 09:47:39.40	155.00	11.32	-42.6	-47.7	9.9	8.77e-03	0	57	0	76546048	56	6615
2026-01-15 09:47:43.43	154.95	11.69	-42.5	-47.6	10.0	7.24e-03	0	57	0	84934656	56	6517
2026-01-15 09:47:47.47	154.91	12.07	-42.6	-47.6	10.1	6.35e-03	0	57	0	92274688	56	6512
2026-01-15 09:47:51.51	154.86	12.46	-42.5	-47.4	10.3	5.54e-03	0	58	0	99614720	56	6412
2026-01-15 09:47:55.55	154.81	12.85	-42.5	-47.4	10.4	4.89e-03	0	58	0	106954752	56	6367
2026-01-15 09:47:59.58	154.75	13.25	-42.5	-47.3	10.5	4.15e-03	0	58	0	114294784	56	6325
2026-01-15 09:48:03.62	154.70	13.66	-42.5	-47.1	10.7	3.36e-03	0	58	0	122683392	56	6201
2026-01-15 09:48:07.66	154.64	14.07	-42.5	-47.1	10.8	2.57e-03	0	58	0	130023424	56	6176
2026-01-15 09:48:11.70	154.59	14.49	-42.5	-47.0	11.0	2.11e-03	0	58	0	137363456	56	6062
2026-01-15 09:48:15.73	154.53	14.92	-42.5	-47.0	11.0	1.88e-03	0	58	0	144703488	56	6079
2026-01-15 09:48:19.77	154.46	15.35	-42.4	-46.8	11.3	1.36e-03	0	58	0	153092096	56	5930
2026-01-15 09:48:23.80	154.40	15.80	-42.3	-46.6	11.5	8.69e-04	0	58	0	160432128	56	5792
2026-01-15 09:48:27.84	154.33	16.25	-42.3	-46.4	11.8	5.52e-04	0	58	0	167772160	56	5661
2026-01-15 09:48:31.88	154.27	16.71	-42.2	-46.3	11.9	3.81e-04	0	58	0	175112192	56	5600
2026-01-15 09:48:35.91	154.20	17.17	-42.2	-46.3	11.9	3.97e-04	0	58	0	182452224	56	5598
2026-01-15 09:48:39.95	154.12	17.65	-42.1	-46.0	12.2	1.99e-04	0	58	0	190840832	56	5454
2026-01-15 09:48:43.98	154.05	18.14	-42.1	-45.9	12.4	1.55e-04	0	58	0	198180864	56	5364
2026-01-15 09:48:48.02	153.97	18.63	-42.1	-45.8	12.5	1.25e-04	0	59	0	205520896	56	5329
2026-01-15 09:48:52.06	153.88	19.14	-42.0	-45.7	12.6	9.23e-05	0	58	0	212860928	56	5261
2026-01-15 09:48:56.10	153.80	19.66	-41.8	-45.3	12.9	5.18e-05	0	59	0	220200960	55	5325
2026-01-15 09:49:00.14	153.71	20.19	-41.7	-45.2	13.0	3.73e-05	0	59	0	228589568	55	5270
2026-01-15 09:49:04.18	153.62	20.72	-41.7	-45.1	13.1	2.89e-05	0	59	0	235929600	55	5207
2026-01-15 09:49:08.21	153.52	21.27	-41.5	-44.9	13.3	1.75e-05	0	59	0	243269632	55	5079
2026-01-15 09:49:12.26	153.42	21.84	-41.5	-44.9	13.4	1.14e-05	0	59	0	250609664	55	5042
2026-01-15 09:49:16.29	153.32	22.41	-41.7	-45.1	13.1	2.51e-05	0	59	0	258998272	55	5185
2026-01-15 09:49:20.33	153.21	23.00	-41.7	-45.3	13.0	3.43e-05	0	59	0	266338304	55	5282
2026-01-15 09:49:24.36	153.09	23.61	-41.8	-45.4	12.9	4.42e-05	0	59	0	273678336	55	5367
2026-01-15 09:49:28.40	152.98	24.22	-41.9	-45.5	12.7	7.17e-05	0	59	0	281018368	55	5459
2026-01-15 09:49:32.43	152.85	24.85	-41.9	-45.5	12.8	7.40e-05	0	59	0	288358400	55	5436
2026-01-15 09:49:36.46	152.72	25.50	-41.9	-45.5	12.8	7.55e-05	0	59	0	296747008	55	5450
2026-01-15 09:49:40.49	152.59	26.16	-42.1	-45.8	12.5	1.19e-04	0	59	0	304087040	55	5655
2026-01-15 09:49:44.53	152.45	26.84	-42.4	-46.4	11.9	3.60e-04	0	59	0	311427072	55	6014
2026-01-15 09:49:48.58	152.30	27.54	-42.4	-46.4	11.9	4.03e-04	0	59	0	318767104	55	5997
2026-01-15 09:49:52.62	152.14	28.25	-42.5	-46.7	11.6	5.88e-04	0	59	0	327155712	55	6213
2026-01-15 09:49:56.66	151.98	28.99	-43.1	-47.7	10.7	2.94e-03	0	59	0	334495744	56	6637
2026-01-15 09:50:00.69	151.81	29.74	-43.2	-48.0	10.4	5.35e-03	0	59	0	341835776	57	6475
2026-01-15 09:50:04.74	151.63	30.51	-43.4	-48.6	9.8	8.42e-03	0	59	0	349175808	57	6918
2026-01-15 09:50:08.77	151.44	31.31	-43.6	-49.2	9.2	2.01e-02	0	59	0	356515840	57	7387
2026-01-15 09:50:12.81	151.24	32.12	-43.8	-49.6	8.8	2.80e-02	0	59	0	364904448	58	7315
2026-01-15 09:50:16.84	151.03	32.96	-43.9	-49.9	8.4	4.14e-02	0	59	0	372244480	58	7619
2026-01-15 09:50:20.88	150.81	33.82	-43.8	-49.6	8.7	3.62e-02	0	59	0	379584512	58	7350
2026-01-15 09:50:24.92	150.57	34.70	-43.6	-49.1	9.4	1.96e-02	0	59	0	386924544	58	6887
2026-01-15 09:50:28.96	150.32	35.62	-43.3	-48.2	10.2	6.98e-03	0	59	0	395313152	58	6243
2026-01-15 09:50:32.99	150.06	36.55	-42.8	-46.9	11.6	6.89e-04	0	60	0	402653184	57	5712
2026-01-15 09:50:37.03	149.78	37.51	-42.7	-46.8	11.7	7.00e-04	0	59	0	409993216	57	5638
2026-01-15 09:50:41.07	149.48	38.51	-42.7	-46.8	11.7	6.26e-04	0	59	0	417333248	57	5650
2026-01-15 09:50:45.11	149.16	39.53	-43.2	-47.9	10.6	3.07e-03	0	59	0	424673280	57	6365
2026-01-15 09:50:49.14	148.82	40.57	-43.3	-48.2	10.3	5.92e-03	0	59	0	433061888	57	6591
2026-01-15 09:50:53.18	148.46	41.65	-43.3	-48.1	10.3	5.39e-03	0	59	0	440401920	57	6563
2026-01-15 09:50:57.21	148.07	42.76	-43.5	-48.5	9.9	7.70e-03	0	60	0	447741952	57	6874
2026-01-15 09:51:01.25	147.65	43.90	-43.7	-49.1	9.3	1.80e-02	0	59	0	455081984	57	7352
2026-01-15 09:51:05.28	147.19	45.08	-43.6	-48.8	9.7	1.39e-02	0	59	0	463470592	58	6682
2026-01-15 09:51:09.31	146.71	46.28	-43.4	-48.3	10.1	6.56e-03	0	60	0	470810624	58	6337
2026-01-15 09:51:13.34	146.18	47.52	-43.9	-49.7	8.7	3.21e-02	0	59	0	478150656	58	7429
2026-01-15 09:51:17.38	145.60	48.80	-43.9	-49.7	8.7	3.82e-02	0	59	0	485490688	58	7413
2026-01-15 09:51:21.42	144.98	50.11	-43.2	-47.8	10.6	3.46e-03	0	60	0	492830720	58	5971
2026-01-15 09:51:25.45	144.29	51.46	-42.3	-45.9	12.7	8.85e-05	0	59	0	501219328	56	5353
2026-01-15 09:51:29.49	143.54	52.84	-41.5	-44.6	13.8	3.00e-06	0	60	0	508559360	55	4903
2026-01-15 09:51:33.53	142.71	54.25	-41.8	-45.2	13.2	2.44e-05	0	60	0	515899392	55	5221
2026-01-15 09:51:37.56	141.80	55.70	-42.4	-46.3	12.1	2.80e-04	0	60	0	523239424	55	5958
2026-01-15 09:51:41.59	140.79	57.17	-43.0	-47.3	11.2	1.26e-03	0	60	0	530579456	56	6280
2026-01-15 09:51:45.63	139.65	58.68	-43.3	-48.1	10.4	6.22e-03	0	60	0	538968064	57	6497
2026-01-15 09:51:49.67	138.38	60.21	-42.6	-46.4	12.1	3.76e-04	0	60	0	546308096	57	5379
2026-01-15 09:51:53.71	136.94	61.77	-41.7	-44.9	13.6	1.22e-05	0	60	0	553648128	55	5044
2026-01-15 09:51:57.74	135.30	63.34	-41.7	-45.0	13.3	1.90e-05	0	60	0	560988160	55	5151
2026-01-15 09:52:01.78	133.43	64.93	-41.9	-45.2	13.1	2.21e-05	0	60	0	569376768	55	5271
2026-01-15 09:52:05.82	131.27	66.52	-43.2	-47.8	10.5	1.87e-03	0	60	0	576716800	56	6692
2026-01-15 09:52:09.85	128.77	68.10	-43.3	-48.1	10.3	9.61e-03	0	60	0	584056832	57	6502
2026-01-15 09:52:13.89	125.83	69.67	-42.6	-46.7	11.7	5.70e-04	0	60	0	591396864	57	5534
2026-01-15 09:52:17.92	122.38	71.20	-41.8	-45.2	13.1	2.82e-05	0	60	0	598736896	55	5247
2026-01-15 09:52:21.96	118.28	72.69	-42.4	-46.2	12.0	2.09e-04	0	60	0	607125504	55	5923
2026-01-15 09:52:26.00	113.38	74.08	-43.0	-47.4	10.9	1.54e-03	0	60	0	614465536	57	6007
2026-01-15 09:52:30.04	107.55	75.36	-43.3	-48.2	10.0	9.76e-03	0	60	0	621805568	57	6587
2026-01-15 09:52:34.07	100.65	76.48	-43.4	-48.5	9.7	1.24e-02	0	60	0	629145600	57	6806
2026-01-15 09:52:38.11	92.59	77.37	-43.7	-49.2	8.9	2.82e-02	0	60	0	637534208	57	7451
2026-01-15 09:52:42.14	83.49	77.99	-44.1	-50.7	7.5	8.32e-02	0	59	0	644874240	58	8339
2026-01-15 09:52:46.18	73.62	78.29	-43.3	-48.2	10.0	1.18e-02	0	60	0	652214272	58	6267
2026-01-15 09:52:50.22	63.54	78.24	-43.2	-48.0	10.3	4.60e-03	0	60	0	659554304	57	6435
2026-01-15 09:52:54.25	53.88	77.84	-43.8	-49.6	8.6	1.42e-02	0	60	0	666894336	58	7355
2026-01-15 09:52:58.29	45.05	77.13	-43.8	-49.8	8.3	5.00e-02	0	60	0	675282944	58	7509
2026-01-15 09:53:02.32	37.35	76.17	-44.3	-51.6	6.7	1.73e-01	0	60	0	682622976	59	8751
2026-01-15 09:53:06.36	30.77	75.00	-43.8	-49.6	8.6	3.86e-02	0	60	0	689963008	59	6947
2026-01-15 09:53:10.39	25.25	73.69	-43.3	-48.2	10.1	1.46e-02	0	60	0	697303040	58	6247
2026-01-15 09:53:14.43	20.60	72.27	-42.4	-46.2	12.2	5.85e-04	0	60	0	704643072	56	5565
2026-01-15 09:53:18.47	16.71	70.77	-42.7	-46.8	11.6	8.44e-04	0	60	0	713031680	56	5991
2026-01-15 09:53:22.51	13.42	69.22	-43.4	-48.3	9.9	7.80e-03	0	60	0	720371712	57	6720
2026-01-15 09:53:26.54	10.63	67.65	-43.9	-50.0	8.4	2.77e-02	0	60	0	727711744	58	7634
2026-01-15 09:53:30.58	8.23	66.07	-43.0	-49.1	9.2	2.97e-02	0	60	0	735051776	57	7294
2026-01-15 09:53:34.61	6.17	64.48	-42.6	-46.5	12.0	5.88e-04	0	60	0	743440384	56	5741
2026-01-15 09:53:38.64	4.37	62.91	-41.6	-45.1	13.3	3.28e-05	0	60	0	750780416	54	5490
2026-01-15 09:53:42.68	2.80	61.34	-42.2	-45.8	12.5	7.40e-05	0	60	0	758120448	54	5952
2026-01-15 09:53:46.72	1.41	59.80	-43.3	-48.8	9.6	1.26e-02	0	60	0	765460480	57	7058
2026-01-15 09:53:50.75	0.18	58.28	-44.1	-50.4	7.9	5.30e-02	0	60	0	772800512	58	8021
2026-01-15 09:53:54.78	359.09	56.79	-43.5	-48.9	9.3	2.24e-02	0	60	0	781189120	57	7161
2026-01-15 09:53:58.82	358.11	55.33	-42.9	-47.1	11.4	1.43e-03	0	60	0	788529152	56	6182
2026-01-15 09:54:02.85	357.22	53.90	-41.9	-45.4	13.0	5.34e-05	0	60	0	795869184	55	5366
2026-01-15 09:54:06.88	356.42	52.50	-42.1	-45.7	12.6	1.39e-04	0	60	0	803209216	54	5885
2026-01-15 09:54:10.92	355.69	51.14	-42.5	-46.5	11.9	5.42e-04	0	60	0	810549248	55	6077
2026-01-15 09:54:14.96	355.02	49.80	-43.9	-50.0	8.4	4.61e-02	0	60	0	818937856	58	7635
2026-01-15 09:54:19.00	354.41	48.51	-44.0	-50.3	8.0	7.96e-02	0	60	0	826277888	58	7980
2026-01-15 09:54:23.04	353.85	47.24	-44.1	-50.5	7.8	8.36e-02	0	60	0	833617920	58	8119
2026-01-15 09:54:27.07	353.34	46.02	-43.6	-48.9	9.4	1.46e-02	0	60	0	840957952	58	6742
2026-01-15 09:54:31.11	352.86	44.82	-43.4	-48.5	9.9	9.00e-03	0	60	0	849346560	58	6438
2026-01-15 09:54:35.15	352.42	43.66	-43.8	-50.3	7.9	7.02e-02	0	60	0	856686592	58	7976
2026-01-15 09:54:39.18	352.01	42.53	-43.6	-49.0	9.3	1.86e-02	0	60	0	864026624	58	6877
2026-01-15 09:54:43.22	351.63	41.44	-43.8	-49.5	8.8	3.11e-02	0	60	0	871366656	58	7222
2026-01-15 09:54:47.25	351.28	40.37	-44.0	-50.2	8.0	6.40e-02	0	60	0	878706688	58	7876
2026-01-15 09:54:51.29	350.94	39.33	-43.7	-49.4	8.8	3.57e-02	0	60	0	887095296	58	7169
2026-01-15 09:54:55.32	350.63	38.33	-43.5	-48.8	9.4	1.58e-02	0	60	0	894435328	58	6717
2026-01-15 09:54:59.36	350.34	37.35	-43.6	-49.3	8.9	3.03e-02	0	60	0	901775360	58	7093
2026-01-15 09:55:03.40	350.07	36.40	-43.3	-48.3	10.0	8.72e-03	0	60	0	909115392	58	6342
2026-01-15 09:55:07.43	349.81	35.47	-43.3	-48.2	10.0	8.07e-03	0	60	0	917504000	58	6245
2026-01-15 09:55:11.47	349.57	34.57	-43.2	-48.0	10.2	6.47e-03	0	60	0	924844032	58	6123
2026-01-15 09:55:15.51	349.34	33.70	-43.2	-48.1	10.1	5.10e-03	0	60	0	932184064	58	6147
2026-01-15 09:55:19.55	349.12	32.85	-43.7	-49.8	8.4	4.04e-02	0	60	0	939524096	58	7484
2026-01-15 09:55:23.58	348.91	32.02	-43.8	-50.0	8.1	6.32e-02	0	60	0	946864128	58	7659
2026-01-15 09:55:27.62	348.72	31.21	-43.5	-49.1	9.0	2.86e-02	0	60	0	955252736	58	6907
2026-01-15 09:55:31.65	348.53	30.43	-43.3	-48.5	9.6	1.32e-02	0	60	0	962592768	58	6477
2026-01-15 09:55:35.69	348.36	29.67	-43.3	-48.5	9.5	1.31e-02	0	60	0	969932800	58	6451
2026-01-15 09:55:39.72	348.19	28.92	-43.3	-48.7	9.2	1.92e-02	0	60	0	977272832	58	6640
2026-01-15 09:55:43.76	348.03	28.20	-43.1	-48.3	9.6	1.33e-02	0	60	0	985661440	58	6346
2026-01-15 09:55:47.79	347.88	27.49	-43.0	-48.0	9.9	8.48e-03	0	60	0	993001472	57	6464
2026-01-15 09:55:51.83	347.74	26.80	-42.9	-47.9	10.0	7.47e-03	0	60	0	1000341504	57	6380
2026-01-15 09:55:55.88	347.60	26.13	-42.7	-47.6	10.2	5.85e-03	0	60	0	1007681536	57	6149
2026-01-15 09:55:59.91	347.47	25.47	-42.5	-47.3	10.3	6.17e-03	0	60	0	1015021568	57	5980
2026-01-15 09:56:03.94	347.35	24.83	-42.5	-47.3	10.3	5.66e-03	0	60	0	1023410176	56	6294
2026-01-15 09:56:07.98	347.23	24.21	-42.4	-47.3	10.1	7.28e-03	0	60	0	1030750208	56	6304
2026-01-15 09:56:12.01	347.11	23.60	-42.1	-47.0	10.2	5.95e-03	0	60	0	1038090240	56	6086
2026-01-15 09:56:16.05	347.01	23.00	-41.6	-46.7	9.9	8.82e-03	0	60	0	1045430272	55	6256
2026-01-15 09:56:20.08	346.90	22.42	-41.4	-46.7	9.4	1.71e-02	0	60	0	1052770304	54	6643
2026-01-15 09:56:24.11	346.80	21.85	-41.5	-47.7	8.2	3.90e-02	0	60	0	1061158912	54	7381
2026-01-15 09:56:28.14	346.70	21.29	-41.7	-51.1	5.0	5.84e-01	0	60	0	1068498944	54	10942
2026-01-15 09:56:32.18	346.61	20.75	-41.4	-54.9	3.8	1.49e+00	0	60	104	1070596096	54	17067
2026-01-15 09:56:36.21	346.52	20.21	-41.4	-55.8	3.8	1.49e+00	0	60	104	1070596096	54	18889
2026-01-15 09:56:40.25	346.44	19.69	-41.3	-56.0	3.8	1.49e+00	0	60	104	1070596096	54	19301
2026-01-15 09:56:44.29	346.36	19.18	-41.3	-56.0	3.8	1.49e+00	0	60	104	1070596096	53	20317
2026-01-15 09:56:48.33	346.28	18.67	-40.9	-55.6	3.8	1.49e+00	0	60	104	1070596096	53	19542
2026-01-15 09:56:52.38	346.20	18.18	-41.1	-55.7	3.8	1.49e+00	0	60	104	1070596096	53	19764
2026-01-15 09:56:56.42	346.13	17.70	-41.4	-55.9	3.8	1.49e+00	0	60	104	1070596096	53	20123
2026-01-15 09:57:00.45	346.06	17.22	-41.0	-55.6	3.8	1.49e+00	0	61	104	1070596096	53	19423
2026-01-15 09:57:04.49	345.99	16.76	-41.1	-55.7	3.8	1.49e+00	0	60	104	1070596096	53	19661
2026-01-15 09:57:08.53	345.93	16.30	-41.0	-55.6	3.8	1.49e+00	0	60	104	1070596096	53	19513
2026-01-15 09:57:12.57	345.87	15.86	-41.1	-55.7	3.8	1.49e+00	0	60	104	1070596096	53	19704
2026-01-15 09:57:16.62	345.81	15.42	-40.9	-55.5	3.8	1.49e+00	0	60	104	1070596096	53	19376
2026-01-15 09:57:20.66	345.75	14.98	-40.9	-55.5	3.8	1.49e+00	0	61	104	1070596096	53	19189
2026-01-15 09:57:24.69	345.69	14.56	-40.9	-55.7	3.8	1.49e+00	0	60	104	1070596096	53	19636
2026-01-15 09:57:28.73	345.64	14.14	-40.8	-55.5	3.8	1.49e+00	0	60	104	1070596096	53	19230
2026-01-15 09:57:32.76	345.59	13.73	-40.8	-55.4	3.8	1.49e+00	0	60	104	1070596096	53	19156
2026-01-15 09:57:36.81	345.54	13.33	-40.7	-55.4	3.8	1.49e+00	0	60	104	1070596096	53	18950
2026-01-15 09:57:40.84	345.49	12.93	-41.0	-55.6	3.8	1.49e+00	0	60	104	1070596096	53	19424
2026-01-15 09:57:44.88	345.44	12.54	-40.8	-55.4	3.8	1.49e+00	0	60	104	1070596096	53	19068
2026-01-15 09:57:48.92	345.40	12.16	-40.7	-55.3	3.8	1.49e+00	0	61	104	1070596096	53	18842
2026-01-15 09:57:52.97	345.35	11.78	-40.7	-55.3	3.8	1.49e+00	0	61	104	1070596096	53	18930
2026-01-15 09:57:57.01	345.31	11.41	-40.9	-55.5	3.8	1.49e+00	0	61	104	1070596096	53	19183
2026-01-15 09:58:01.05	345.27	11.04	-40.7	-55.3	3.8	1.49e+00	0	60	104	1070596096	53	18746
2026-01-15 09:58:05.09	345.23	10.68	-40.7	-55.3	3.8	1.49e+00	0	60	104	1070596096	53	18796
2026-01-15 09:58:09.14	345.20	10.32	-40.8	-55.4	3.8	1.49e+00	0	60	104	1070596096	53	19083
2026-01-15 09:58:13.18	345.16	9.97	-40.6	-55.2	3.8	1.49e+00	0	60	104	1070596096	53	18607
2026-01-15 09:58:17.22	345.12	9.63	-40.7	-55.3	3.8	1.49e+00	0	61	104	1070596096	53	18754
2026-01-15 09:58:21.26	345.09	9.28	-40.8	-55.4	3.8	1.49e+00	0	60	104	1070596096	53	19054
2026-01-15 09:58:25.29	345.06	8.95	-40.6	-55.2	3.8	1.49e+00	0	60	104	1070596096	53	18584
2026-01-15 09:58:29.33	345.03	8.62	-40.6	-55.2	3.8	1.49e+00	0	60	104	1070596096	53	18584
2026-01-15 09:58:33.36	345.00	8.29	-40.7	-55.3	3.8	1.49e+00	0	61	104	1070596096	53	18733
2026-01-15 09:58:37.40	344.97	7.96	-40.5	-55.3	3.8	1.49e+00	0	60	104	1070596096	53	18898
2026-01-15 09:58:41.45	344.94	7.64	-45.1	-59.6	3.8	1.49e+00	0	60	104	1070596096	60	20725
2026-01-15 09:58:45.49	344.91	7.33	-45.2	-59.8	3.8	1.49e+00	0	60	104	1070596096	61	19951
2026-01-15 09:58:49.53	344.89	7.02	-45.2	-59.7	3.8	1.49e+00	0	60	104	1070596096	61	19744
2026-01-15 09:58:53.57	344.86	6.71	-44.9	-59.6	3.8	1.49e+00	0	61	104	1070596096	61	19518
2026-01-15 09:58:57.61	344.83	6.40	-45.1	-59.6	3.8	1.49e+00	0	60	104	1070596096	61	19527
2026-01-15 09:59:01.65	344.81	6.10	-45.1	-59.6	3.8	1.49e+00	0	61	104	1070596096	60	20666
2026-01-15 09:59:05.68	344.79	5.81	-45.1	-59.6	3.8	1.49e+00	0	61	104	1070596096	60	20722
2026-01-15 09:59:09.72	344.77	5.51	-45.1	-59.6	3.8	1.49e+00	0	60	104	1070596096	60	20696
2026-01-15 09:59:13.76	344.75	5.22	-45.1	-59.6	3.8	1.49e+00	0	60	104	1070596096	60	20717
2026-01-15 09:59:17.80	344.72	4.93	-45.1	-59.6	3.8	1.49e+00	0	61	104	1070596096	60	20616
2026-01-15 09:59:21.85	344.70	4.65	-45.1	-59.6	3.8	1.49e+00	0	61	104	1070596096	60	20721
2026-01-15 09:59:25.89	344.69	4.37	-45.1	-59.6	3.8	1.49e+00	0	61	104	1070596096	60	20660
2026-01-15 09:59:29.93	344.67	4.09	-44.8	-59.6	3.8	1.49e+00	0	60	104	1070596096	60	20553
2026-01-15 09:59:33.97	344.65	3.81	-45.1	-59.6	3.8	1.49e+00	0	61	104	1070596096	60	20571
2026-01-15 09:59:38.01	344.63	3.54	-45.1	-59.6	3.8	1.49e+00	0	61	104	1070596096	60	20620
2026-01-15 09:59:42.05	344.62	3.27	-45.1	-59.6	3.8	1.49e+00	0	61	104	1070596096	60	20591
2026-01-15 09:59:46.09	344.60	3.00	-45.0	-59.5	3.8	1.49e+00	0	60	104	1070596096	60	20537
2026-01-15 09:59:50.13	344.59	2.73	-45.1	-59.6	3.8	1.49e+00	0	60	104	1070596096	60	20555
2026-01-15 09:59:54.17	344.57	2.47	-45.1	-59.6	3.8	1.49e+00	0	61	104	1070596096	60	20586
2026-01-15 09:59:58.21	344.56	2.21	-45.1	-59.5	3.8	1.49e+00	0	61	104	1070596096	60	20486
2026-01-15 10:00:02.25	344.54	1.95	-45.1	-59.6	3.8	1.49e+00	0	61	104	1070596096	60	20610

#Closed at: 2026-01-15 10:00:02
#Recorded file [1070 MB]: D:/lorett/data/31039_260115_124538.dat