passes_logs/2026/01/15/R2.0S_Moscow/R2.0S_Moscow__20260115_134909_FENGYUN_3E_rec.log

#Pass ID: 20260115_134909_FENGYUN 3E
#Satellite: FENGYUN 3E
#Configuration: FENGYUN 3E
#almurnet v.1.7.20251203
#Start time: 2026-01-15 13:58:39

#Version: 2.2.20231116
#Station: R2.0S_Moscow
#Location: 37.707566 lon 55.798166 lat
#TLE: 1 49008U 21062A   26014.58289545 -.00000120  00000+0 -35876-4 0  9998
#TLE: 2 49008  98.7488  19.7165 0002000 137.1107 223.0226 14.19884293234788

#Time	Az	El	Level	Level2	SNR	BER	BlckErr	Temp	State	Recorded	gain1	gain2
2026-01-15 13:58:39.51	357.90	33.07	-45.0	-56.7	3.8	8.45e-01	0	60	0	0	60	14847
2026-01-15 13:58:41.53	357.64	32.67	-45.7	-57.1	3.8	8.45e-01	0	60	104	0	61	13813
2026-01-15 13:58:43.55	357.40	32.27	-45.1	-56.4	3.8	8.46e-01	0	60	104	0	60	13514
2026-01-15 13:58:45.57	357.15	31.88	-45.6	-56.6	3.8	8.45e-01	0	60	104	0	60	13852
2026-01-15 13:58:47.59	356.92	31.49	-45.2	-55.3	3.8	8.47e-01	0	61	104	3145728	60	11833
2026-01-15 13:58:49.61	356.69	31.11	-44.7	-55.6	3.8	8.46e-01	0	61	104	3145728	60	12261
2026-01-15 13:58:51.63	356.46	30.73	-44.7	-56.0	3.8	8.47e-01	0	60	104	3145728	60	12821
2026-01-15 13:58:53.65	356.25	30.36	-44.7	-55.9	3.8	8.46e-01	0	61	104	3145728	60	12798
2026-01-15 13:58:55.67	356.03	29.99	-44.7	-55.8	3.8	8.48e-01	0	60	104	3145728	60	12529
2026-01-15 13:58:57.69	355.82	29.63	-44.6	-54.9	3.8	8.47e-01	0	61	104	3145728	60	11416
2026-01-15 13:58:59.71	355.62	29.27	-44.6	-53.7	3.9	8.46e-01	0	61	104	3145728	59	10470
2026-01-15 13:59:01.73	355.42	28.91	-44.6	-53.7	3.8	8.46e-01	0	60	104	3145728	59	10528
2026-01-15 13:59:03.75	355.23	28.56	-44.7	-54.4	3.8	8.45e-01	0	60	104	3145728	59	11309
2026-01-15 13:59:05.77	355.04	28.21	-44.7	-55.0	3.8	8.47e-01	0	61	104	3145728	59	12128
2026-01-15 13:59:07.79	354.85	27.87	-44.8	-55.1	3.8	8.47e-01	0	61	104	3145728	59	12319
2026-01-15 13:59:09.81	354.67	27.53	-44.7	-55.0	3.8	8.45e-01	0	61	104	3145728	59	12184
2026-01-15 13:59:11.84	354.49	27.19	-44.5	-53.3	4.0	8.44e-01	0	61	104	3145728	59	9984
2026-01-15 13:59:13.86	354.31	26.86	-43.8	-49.9	5.2	7.69e-01	0	61	0	3145728	58	7199
2026-01-15 13:59:15.87	354.14	26.53	-42.8	-47.0	7.5	1.33e-01	0	61	0	13631488	56	5768
2026-01-15 13:59:17.89	353.98	26.20	-41.8	-45.1	9.3	2.29e-02	0	61	0	27262976	54	5194
2026-01-15 13:59:19.91	353.81	25.88	-41.4	-44.4	10.0	8.28e-03	0	61	0	41943040	53	5081
2026-01-15 13:59:21.94	353.65	25.56	-41.7	-45.0	9.4	1.31e-02	0	61	0	56623104	53	5418
2026-01-15 13:59:23.96	353.50	25.25	-42.5	-46.5	7.8	6.44e-02	0	61	0	71303168	54	6125
2026-01-15 13:59:25.98	353.34	24.94	-42.9	-47.6	6.8	1.99e-01	0	61	0	85983232	55	6506
2026-01-15 13:59:28.00	353.19	24.63	-41.1	-44.0	10.4	8.19e-03	0	61	0	100663296	53	4818
2026-01-15 13:59:30.02	353.04	24.33	-38.2	-39.8	14.6	0.00e+00	0	61	0	115343360	47	4235
2026-01-15 13:59:32.04	352.90	24.03	-36.2	-37.6	16.8	0.00e+00	0	61	0	130023424	43	4111
2026-01-15 13:59:34.07	352.76	23.73	-38.0	-39.7	14.4	0.00e+00	0	61	0	144703488	45	4705
2026-01-15 13:59:36.09	352.62	23.43	-41.7	-45.5	8.4	1.40e-02	0	61	0	159383552	53	5751
2026-01-15 13:59:38.11	352.48	23.14	-42.0	-45.6	8.6	1.08e-02	0	61	0	174063616	55	5166
2026-01-15 13:59:40.13	352.35	22.85	-36.6	-38.0	15.8	0.00e+00	0	61	0	187695104	43	4337
2026-01-15 13:59:42.15	352.22	22.57	-36.1	-37.6	16.1	0.00e+00	0	61	0	202375168	43	4100
2026-01-15 13:59:44.16	352.09	22.29	-35.5	-36.9	16.4	0.00e+00	0	61	0	217055232	42	4014
2026-01-15 13:59:46.18	351.97	22.01	-35.5	-36.9	16.1	0.00e+00	0	61	0	231735296	41	4274
2026-01-15 13:59:48.20	351.84	21.73	-35.7	-37.2	15.7	0.00e+00	0	61	0	246415360	41	4399
2026-01-15 13:59:50.22	351.72	21.46	-36.7	-38.5	14.2	0.00e+00	0	61	0	261095424	42	4846
2026-01-15 13:59:52.24	351.60	21.19	-38.3	-40.8	11.7	3.54e-04	0	61	0	275775488	46	5023
2026-01-15 13:59:54.26	351.48	20.92	-40.0	-43.8	8.4	3.24e-02	0	61	0	290455552	49	5924
2026-01-15 13:59:56.28	351.37	20.65	-41.1	-46.7	5.5	5.42e-01	0	61	0	304087040	51	7457
2026-01-15 13:59:58.30	351.26	20.39	-41.5	-49.7	4.1	8.40e-01	0	61	0	305135616	52	9851
2026-01-15 14:00:00.32	351.15	20.13	-41.6	-51.6	3.8	8.45e-01	0	61	104	305135616	52	12247
2026-01-15 14:00:02.34	351.04	19.87	-41.7	-52.4	3.8	8.46e-01	0	61	104	305135616	52	13444
2026-01-15 14:00:04.36	350.93	19.62	-41.7	-52.6	3.8	8.47e-01	0	61	104	305135616	52	13750
2026-01-15 14:00:06.38	350.83	19.37	-41.4	-52.2	3.8	8.47e-01	0	61	104	305135616	53	12386
2026-01-15 14:00:08.40	350.72	19.12	-41.3	-52.1	3.8	8.46e-01	0	61	104	305135616	53	12258
2026-01-15 14:00:10.41	350.62	18.87	-41.5	-52.2	3.8	8.47e-01	0	61	104	305135616	53	12511
2026-01-15 14:00:12.43	350.52	18.63	-41.4	-52.1	3.8	8.46e-01	0	61	104	305135616	53	12306
2026-01-15 14:00:14.46	350.43	18.38	-41.4	-52.2	3.8	8.46e-01	0	61	104	305135616	53	12385
2026-01-15 14:00:16.47	350.33	18.14	-41.3	-52.3	3.8	8.46e-01	0	61	104	305135616	52	13316
2026-01-15 14:00:18.49	350.24	17.90	-41.4	-52.2	3.8	8.46e-01	0	61	104	305135616	52	13201
2026-01-15 14:00:20.51	350.14	17.67	-41.2	-52.3	3.8	8.46e-01	0	61	104	305135616	52	13372
2026-01-15 14:00:22.53	350.05	17.43	-41.0	-52.4	3.8	8.46e-01	0	61	104	305135616	51	14285
2026-01-15 14:00:24.56	349.96	17.20	-40.8	-52.3	3.8	8.46e-01	0	61	104	305135616	52	13373
2026-01-15 14:00:26.57	349.87	16.97	-40.6	-52.2	3.8	8.46e-01	0	61	104	305135616	52	13256
2026-01-15 14:00:28.59	349.79	16.74	-40.6	-52.2	3.8	8.47e-01	0	61	104	305135616	52	13162
2026-01-15 14:00:30.61	349.70	16.52	-40.8	-52.2	3.8	8.46e-01	0	61	104	305135616	52	13205
2026-01-15 14:00:32.63	349.62	16.30	-41.0	-52.2	3.8	8.46e-01	0	61	104	305135616	52	13120
2026-01-15 14:00:34.65	349.53	16.07	-41.2	-52.2	3.8	8.46e-01	0	61	104	305135616	52	13120
2026-01-15 14:00:36.67	349.45	15.85	-41.2	-52.3	3.8	8.46e-01	0	61	104	305135616	52	13286
2026-01-15 14:00:38.69	349.37	15.64	-41.2	-52.2	3.8	8.47e-01	0	61	104	305135616	52	13249
2026-01-15 14:00:40.71	349.29	15.42	-41.2	-52.2	3.8	8.46e-01	0	61	104	305135616	52	13230
2026-01-15 14:00:42.73	349.22	15.21	-41.1	-52.4	3.8	8.47e-01	0	61	104	305135616	52	13418
2026-01-15 14:00:44.75	349.14	14.99	-41.1	-52.4	3.8	8.46e-01	0	61	104	305135616	52	13415
2026-01-15 14:00:46.77	349.07	14.78	-41.2	-52.4	3.8	8.46e-01	0	61	104	305135616	52	13556
2026-01-15 14:00:48.79	348.99	14.58	-41.3	-52.5	3.8	8.47e-01	0	61	104	305135616	52	13675
2026-01-15 14:00:50.80	348.92	14.37	-41.2	-52.2	3.8	8.45e-01	0	61	104	305135616	53	12442
2026-01-15 14:00:52.82	348.85	14.16	-41.2	-52.1	3.8	8.47e-01	0	61	104	305135616	53	12364
2026-01-15 14:00:54.84	348.78	13.96	-41.3	-52.1	3.8	8.46e-01	0	61	104	305135616	53	12341
2026-01-15 14:00:56.86	348.71	13.76	-41.5	-52.5	3.8	8.45e-01	0	61	104	305135616	53	12903
2026-01-15 14:00:58.88	348.64	13.56	-41.4	-52.3	3.8	8.46e-01	0	61	104	305135616	53	12562
2026-01-15 14:01:00.91	348.57	13.36	-41.4	-52.3	3.8	8.46e-01	0	61	104	305135616	53	12589
2026-01-15 14:01:02.93	348.50	13.16	-41.5	-52.4	3.8	8.47e-01	0	61	104	305135616	53	12736
2026-01-15 14:01:04.95	348.44	12.97	-41.5	-52.4	3.8	8.45e-01	0	61	104	305135616	53	12742
2026-01-15 14:01:06.97	348.37	12.77	-41.3	-52.3	3.8	8.46e-01	0	61	104	305135616	53	12529
2026-01-15 14:01:08.98	348.31	12.58	-41.3	-52.3	3.8	8.47e-01	0	61	104	305135616	53	12530
2026-01-15 14:01:11.00	348.25	12.39	-41.6	-52.4	3.8	8.46e-01	0	61	104	305135616	53	12800
2026-01-15 14:01:13.02	348.19	12.20	-41.6	-52.5	3.8	8.47e-01	0	61	104	305135616	53	12861
2026-01-15 14:01:15.04	348.13	12.01	-41.3	-52.3	3.8	8.47e-01	0	61	104	305135616	53	12593
2026-01-15 14:01:17.06	348.07	11.82	-41.3	-52.3	3.8	8.47e-01	0	61	104	305135616	53	12549
2026-01-15 14:01:19.08	348.01	11.64	-41.5	-52.4	3.8	8.45e-01	0	61	104	305135616	53	12777
2026-01-15 14:01:21.10	347.95	11.45	-41.5	-52.4	3.8	8.45e-01	0	61	104	305135616	53	12727
2026-01-15 14:01:23.12	347.89	11.27	-41.3	-52.3	3.8	8.46e-01	0	61	104	305135616	53	12570
2026-01-15 14:01:25.14	347.83	11.09	-41.3	-52.3	3.8	8.47e-01	0	61	104	305135616	53	12619
2026-01-15 14:01:27.16	347.78	10.91	-41.3	-52.3	3.8	8.46e-01	0	61	104	305135616	53	12564
2026-01-15 14:01:29.17	347.72	10.73	-41.3	-52.3	3.8	8.47e-01	0	61	104	305135616	53	12631
2026-01-15 14:01:31.19	347.67	10.55	-41.4	-52.3	3.8	8.46e-01	0	61	104	305135616	53	12531
2026-01-15 14:01:33.21	347.61	10.38	-41.4	-52.3	3.8	8.45e-01	0	61	104	305135616	53	12613
2026-01-15 14:01:35.23	347.56	10.20	-41.4	-52.3	3.8	8.45e-01	0	61	104	305135616	53	12651
2026-01-15 14:01:37.25	347.51	10.03	-41.4	-52.3	3.8	8.47e-01	0	61	104	305135616	53	12627
2026-01-15 14:01:39.27	347.46	9.86	-41.4	-52.3	3.8	8.46e-01	0	61	104	305135616	53	12583
2026-01-15 14:01:41.29	347.41	9.68	-41.4	-52.3	3.8	8.46e-01	0	61	104	305135616	53	12557
2026-01-15 14:01:43.31	347.36	9.51	-41.4	-52.3	3.8	8.47e-01	0	61	104	305135616	53	12568
2026-01-15 14:01:45.32	347.31	9.35	-41.4	-52.3	3.8	8.46e-01	0	61	104	305135616	53	12563
2026-01-15 14:01:47.35	347.26	9.18	-41.4	-52.3	3.8	8.46e-01	0	61	104	305135616	53	12553
2026-01-15 14:01:49.36	347.21	9.01	-41.4	-52.2	3.8	8.47e-01	0	61	104	305135616	53	12495
2026-01-15 14:01:51.38	347.16	8.84	-41.5	-52.3	3.8	8.47e-01	0	61	104	305135616	53	12604
2026-01-15 14:01:53.40	347.12	8.68	-41.5	-52.3	3.8	8.46e-01	0	61	104	305135616	53	12628
2026-01-15 14:01:55.42	347.07	8.52	-41.3	-52.2	3.8	8.47e-01	0	61	104	305135616	53	12456
2026-01-15 14:01:57.44	347.03	8.35	-41.3	-52.2	3.8	8.47e-01	0	61	104	305135616	53	12428
2026-01-15 14:01:59.46	346.98	8.19	-41.3	-52.2	3.8	8.46e-01	0	61	104	305135616	53	12517
2026-01-15 14:02:01.48	346.94	8.03	-41.5	-52.3	3.8	8.47e-01	0	61	104	305135616	53	12636
2026-01-15 14:02:03.50	346.89	7.87	-41.7	-52.7	3.8	8.46e-01	0	61	104	305135616	53	13149
2026-01-15 14:02:05.52	346.85	7.71	-45.3	-56.6	3.8	8.45e-01	0	61	104	305135616	60	13814
2026-01-15 14:02:07.54	346.81	7.55	-45.5	-56.8	3.8	8.46e-01	0	61	104	305135616	60	14185
2026-01-15 14:02:09.56	346.76	7.40	-45.7	-57.0	3.8	8.46e-01	0	61	104	305135616	60	14417
2026-01-15 14:02:11.58	346.72	7.24	-45.7	-57.1	3.8	8.47e-01	0	61	104	305135616	60	14582
2026-01-15 14:02:13.60	346.68	7.09	-45.6	-57.0	3.8	8.46e-01	0	61	104	305135616	60	14395
2026-01-15 14:02:15.63	346.64	6.93	-45.6	-57.0	3.8	8.47e-01	0	62	104	305135616	60	14399
2026-01-15 14:02:17.65	346.60	6.78	-45.6	-56.9	3.8	8.46e-01	0	61	104	305135616	60	14353
2026-01-15 14:02:19.67	346.56	6.63	-45.6	-56.9	3.8	8.46e-01	0	61	104	305135616	60	14282
2026-01-15 14:02:21.69	346.52	6.47	-45.6	-56.9	3.8	8.45e-01	0	61	104	305135616	60	14364
2026-01-15 14:02:23.71	346.48	6.32	-45.6	-56.9	3.8	8.46e-01	0	62	104	305135616	60	14281
2026-01-15 14:02:25.73	346.45	6.17	-45.6	-56.9	3.8	8.46e-01	0	61	104	305135616	60	14305
2026-01-15 14:02:27.76	346.41	6.03	-45.6	-56.9	3.8	8.46e-01	0	62	104	305135616	60	14308
2026-01-15 14:02:29.78	346.37	5.88	-45.6	-56.9	3.8	8.45e-01	0	61	104	305135616	60	14265
2026-01-15 14:02:31.80	346.33	5.73	-45.6	-56.9	3.8	8.46e-01	0	62	104	305135616	60	14255
2026-01-15 14:02:33.82	346.30	5.58	-45.6	-56.9	3.8	8.46e-01	0	62	104	305135616	60	14269
2026-01-15 14:02:35.85	346.26	5.44	-45.6	-56.9	3.8	8.46e-01	0	62	104	305135616	60	14243
2026-01-15 14:02:37.87	346.23	5.29	-45.6	-56.9	3.8	8.47e-01	0	62	104	305135616	60	14332
2026-01-15 14:02:39.89	346.19	5.15	-45.5	-56.8	3.8	8.45e-01	0	62	104	305135616	60	14097
2026-01-15 14:02:41.91	346.16	5.01	-45.5	-56.8	3.8	8.45e-01	0	61	104	305135616	60	14186
2026-01-15 14:02:43.93	346.12	4.86	-45.6	-56.9	3.8	8.45e-01	0	62	104	305135616	60	14273
2026-01-15 14:02:45.95	346.09	4.72	-45.5	-56.9	3.8	8.45e-01	0	61	104	305135616	60	14270
2026-01-15 14:02:47.97	346.06	4.58	-45.6	-56.9	3.8	8.47e-01	0	61	104	305135616	60	14309
2026-01-15 14:02:49.99	346.02	4.44	-45.5	-56.9	3.8	8.46e-01	0	61	104	305135616	60	14268
2026-01-15 14:02:52.01	345.99	4.30	-45.5	-56.9	3.8	8.46e-01	0	61	104	305135616	60	14224
2026-01-15 14:02:54.04	345.96	4.16	-45.6	-56.9	3.8	8.45e-01	0	62	104	305135616	60	14224
2026-01-15 14:02:56.06	345.93	4.02	-45.6	-56.9	3.8	8.46e-01	0	61	104	305135616	60	14217
2026-01-15 14:02:58.08	345.90	3.89	-45.5	-56.9	3.8	8.47e-01	0	61	104	305135616	60	14266
2026-01-15 14:03:00.10	345.87	3.75	-45.5	-56.9	3.8	8.46e-01	0	62	104	305135616	60	14274
2026-01-15 14:03:02.12	345.84	3.61	-45.5	-56.9	3.8	8.47e-01	0	61	104	305135616	60	14289
2026-01-15 14:03:04.14	345.81	3.48	-45.6	-56.9	3.8	8.46e-01	0	62	104	305135616	60	14241
2026-01-15 14:03:06.16	345.78	3.34	-45.5	-56.9	3.8	8.46e-01	0	62	104	305135616	60	14262
2026-01-15 14:03:08.18	345.75	3.21	-45.5	-56.9	3.8	8.46e-01	0	62	104	305135616	60	14237
2026-01-15 14:03:10.20	345.72	3.07	-45.5	-56.8	3.8	8.46e-01	0	61	104	305135616	60	14196
2026-01-15 14:03:12.23	345.69	2.94	-45.5	-56.9	3.8	8.45e-01	0	61	104	305135616	60	14222
2026-01-15 14:03:14.25	345.66	2.81	-45.5	-56.9	3.8	8.47e-01	0	61	104	305135616	60	14214
2026-01-15 14:03:16.27	345.63	2.68	-45.3	-56.9	3.8	8.45e-01	0	61	104	305135616	60	14266
2026-01-15 14:03:18.29	345.60	2.55	-45.5	-56.8	3.8	8.46e-01	0	62	104	305135616	60	14204
2026-01-15 14:03:20.31	345.58	2.42	-45.5	-56.9	3.8	8.47e-01	0	62	104	305135616	60	14333
2026-01-15 14:03:22.33	345.55	2.29	-45.5	-56.9	3.8	8.46e-01	0	62	104	305135616	60	14299
2026-01-15 14:03:24.35	345.52	2.16	-45.5	-56.8	3.8	8.46e-01	0	62	104	305135616	60	14196
2026-01-15 14:03:26.37	345.50	2.03	-45.5	-56.8	3.8	8.46e-01	0	62	104	305135616	60	14190
2026-01-15 14:03:28.40	345.47	1.90	-45.5	-56.9	3.8	8.46e-01	0	62	104	305135616	60	14238

#Closed at: 2026-01-15 14:03:28
#Recorded file [305 MB]: D:/lorett/data/31039_260115_165839.dat