passes_logs/2026/01/15/R2.0S_Moscow/R2.0S_Moscow__20260115_102035_AQUA_rec.log

#Pass ID: 20260115_102035_AQUA
#Satellite: AQUA
#Configuration: AQUA
#almurnet v.1.7.20251203
#Start time: 2026-01-15 10:20:35

#Version: 2.2.20231116
#Station: R2.0S_Moscow
#Location: 37.707566 lon 55.798166 lat
#TLE: 1 27424U 02022A   26014.19338718  .00000717  00000+0  15340-3 0  9998
#TLE: 2 27424  98.4080 340.6072 0002047  79.4950 292.1093 14.61819636260772

#Time	Az	El	Level	Level2	SNR	BER	BlckErr	Temp	State	Recorded	gain1	gain2
2026-01-15 10:20:35.69	119.99	1.99	-15.6	-28.2	3.5	7.40e-01	0	51	0	0	2	15702
2026-01-15 10:20:38.73	119.79	2.17	-19.1	-34.2	3.6	7.57e-01	0	51	104	0	7	23498
2026-01-15 10:20:41.76	119.58	2.35	-16.5	-33.0	3.8	7.49e-01	0	51	104	0	9	18225
2026-01-15 10:20:44.79	119.37	2.54	-19.2	-31.9	3.7	7.38e-01	0	52	104	0	8	16974
2026-01-15 10:20:47.82	119.16	2.72	-15.8	-33.7	3.8	7.44e-01	0	52	104	0	8	20999
2026-01-15 10:20:50.85	118.94	2.91	-11.6	-32.9	3.7	7.27e-01	0	52	104	0	0	30258
2026-01-15 10:20:53.88	118.73	3.10	-18.4	-34.0	3.7	7.54e-01	0	52	104	0	6	24292
2026-01-15 10:20:56.91	118.51	3.29	-18.9	-35.8	3.8	7.52e-01	0	52	104	0	10	23674
2026-01-15 10:20:59.94	118.28	3.48	-18.2	-33.2	3.9	7.49e-01	0	52	104	0	7	20968
2026-01-15 10:21:02.96	118.05	3.67	-13.7	-29.1	3.4	7.36e-01	0	52	104	0	0	19538
2026-01-15 10:21:05.99	117.82	3.86	-19.1	-34.5	3.9	7.47e-01	0	53	104	0	8	22906
2026-01-15 10:21:09.02	117.59	4.05	-18.9	-34.8	3.8	7.54e-01	0	53	104	0	7	24990
2026-01-15 10:21:12.05	117.35	4.24	-17.2	-35.8	3.7	7.53e-01	0	53	104	0	9	25173
2026-01-15 10:21:15.08	117.11	4.44	-19.1	-35.8	3.8	7.51e-01	0	53	104	0	10	23747
2026-01-15 10:21:18.11	116.86	4.64	-17.3	-34.7	3.5	7.58e-01	0	53	104	0	6	26352
2026-01-15 10:21:21.14	116.62	4.83	-15.9	-31.9	3.8	7.49e-01	0	54	104	0	6	19035
2026-01-15 10:21:24.17	116.36	5.03	-17.7	-32.8	3.7	7.45e-01	0	54	104	0	6	21119
2026-01-15 10:21:27.21	116.10	5.23	-15.8	-32.7	3.7	7.52e-01	0	54	104	0	7	19641
2026-01-15 10:21:30.23	115.85	5.43	-16.1	-34.0	3.7	7.59e-01	0	54	104	0	8	21751
2026-01-15 10:21:33.26	115.58	5.64	-15.8	-32.1	3.7	7.44e-01	0	54	104	0	6	19464
2026-01-15 10:21:36.30	115.31	5.84	-18.1	-34.2	3.7	7.56e-01	0	54	104	0	7	23343
2026-01-15 10:21:39.33	115.04	6.04	-18.7	-34.5	3.9	7.50e-01	0	55	104	0	8	22876
2026-01-15 10:21:42.36	114.76	6.25	-18.0	-34.9	4.0	7.54e-01	0	55	104	0	10	21340
2026-01-15 10:21:45.39	114.48	6.46	-18.8	-35.6	3.8	7.46e-01	0	55	104	0	9	24494
2026-01-15 10:21:48.42	114.19	6.67	-17.0	-35.0	3.5	7.62e-01	0	55	104	0	9	22918
2026-01-15 10:21:51.45	113.90	6.87	-15.6	-31.8	3.6	7.38e-01	0	55	104	0	7	17872
2026-01-15 10:21:54.48	113.60	7.09	-17.8	-32.1	3.9	7.42e-01	0	55	104	0	5	20602
2026-01-15 10:21:57.51	113.30	7.30	-13.5	-30.1	3.7	7.40e-01	0	55	104	0	5	16386
2026-01-15 10:22:00.54	113.00	7.51	-13.2	-28.6	3.6	7.46e-01	0	55	104	0	4	14684
2026-01-15 10:22:03.57	112.69	7.73	-13.5	-28.4	3.5	7.47e-01	0	55	104	0	2	16000
2026-01-15 10:22:06.60	112.37	7.94	-12.0	-27.7	3.9	7.48e-01	0	56	104	0	0	16661
2026-01-15 10:22:09.64	112.05	8.16	-27.1	-44.0	3.6	7.50e-01	0	56	104	0	23	28880
2026-01-15 10:22:12.67	111.72	8.38	-18.4	-35.5	3.6	7.50e-01	0	56	104	0	10	22982
2026-01-15 10:22:15.70	111.39	8.60	-14.9	-30.1	3.7	7.43e-01	0	56	104	0	1	20621
2026-01-15 10:22:18.73	111.05	8.82	-26.3	-39.5	3.8	7.54e-01	0	56	104	0	18	22821
2026-01-15 10:22:21.76	110.71	9.04	-25.8	-40.5	3.9	7.55e-01	0	56	104	0	21	21709
2026-01-15 10:22:24.79	110.36	9.26	-29.1	-42.2	4.1	7.51e-01	0	56	104	0	28	17618
2026-01-15 10:22:27.82	110.01	9.49	-29.6	-50.2	3.7	7.54e-01	0	56	104	0	33	33049
2026-01-15 10:22:30.85	109.65	9.72	-29.0	-44.3	4.1	7.39e-01	0	57	104	0	32	17707
2026-01-15 10:22:33.88	109.28	9.94	-34.3	-52.4	4.6	7.45e-01	0	57	104	0	39	30377
2026-01-15 10:22:36.91	108.91	10.17	-28.0	-44.5	4.0	7.53e-01	0	56	104	0	25	27330
2026-01-15 10:22:39.94	108.53	10.40	-31.5	-47.1	4.1	7.43e-01	0	57	104	0	30	27553
2026-01-15 10:22:42.97	108.14	10.63	-29.2	-44.1	3.7	7.22e-01	0	57	104	0	25	26150
2026-01-15 10:22:46.00	107.75	10.86	-32.5	-49.0	3.8	7.53e-01	0	57	104	0	32	30545
2026-01-15 10:22:49.04	107.34	11.10	-24.9	-40.8	3.8	7.43e-01	0	57	104	0	16	30012
2026-01-15 10:22:52.07	106.94	11.33	-26.8	-48.3	4.0	7.51e-01	0	57	104	0	23	47536
2026-01-15 10:22:55.10	106.52	11.57	-35.0	-53.1	4.1	7.41e-01	0	57	104	0	37	36578
2026-01-15 10:22:58.13	106.10	11.81	-32.3	-54.4	3.9	7.49e-01	0	57	104	0	35	47688
2026-01-15 10:23:01.16	105.67	12.04	-30.6	-53.5	4.1	7.50e-01	0	57	104	0	35	43018
2026-01-15 10:23:04.19	105.23	12.28	-25.0	-43.9	3.9	7.40e-01	0	57	104	0	18	38213
2026-01-15 10:23:07.22	104.79	12.52	-22.7	-42.7	4.4	7.34e-01	0	58	104	0	19	31090
2026-01-15 10:23:10.26	104.33	12.77	-25.0	-42.6	5.6	7.12e-01	0	57	104	0	21	27652
2026-01-15 10:23:13.28	103.87	13.01	-24.5	-42.6	6.2	6.92e-01	6	58	0	0	26	20750
2026-01-15 10:23:16.31	103.40	13.25	-31.9	-42.8	7.8	6.62e-01	87	57	0	0	23	25024
2026-01-15 10:23:19.34	102.93	13.49	-36.7	-45.0	8.8	6.42e-01	64	58	0	5242880	38	13723
2026-01-15 10:23:22.37	102.44	13.74	-36.1	-44.1	11.4	6.19e-01	14	58	0	11010048	34	15458
2026-01-15 10:23:25.40	101.95	13.98	-38.7	-45.3	11.8	6.27e-01	33	58	0	16777216	43	10603
2026-01-15 10:23:28.43	101.44	14.23	-34.0	-44.8	12.2	6.12e-01	1	58	0	22020096	44	9435
2026-01-15 10:23:31.46	100.93	14.48	-36.9	-47.2	12.8	6.09e-01	1	58	0	27787264	51	8341
2026-01-15 10:23:34.49	100.40	14.73	-41.0	-46.3	14.9	6.09e-01	0	58	0	33554432	53	6723
2026-01-15 10:23:37.51	99.87	14.97	-37.9	-45.9	14.4	6.08e-01	0	58	0	39321600	51	7169
2026-01-15 10:23:40.53	99.33	15.22	-40.8	-45.7	14.3	6.10e-01	0	58	0	45088768	52	6585
2026-01-15 10:23:43.56	98.78	15.47	-40.3	-46.0	12.1	6.15e-01	0	58	0	50855936	52	6808
2026-01-15 10:23:46.58	98.22	15.72	-41.8	-45.6	16.9	6.07e-01	0	58	0	56098816	54	5805
2026-01-15 10:23:49.61	97.65	15.97	-41.9	-45.8	16.9	6.07e-01	0	58	0	61865984	54	5950
2026-01-15 10:23:52.64	97.07	16.21	-42.0	-45.7	17.3	6.07e-01	0	58	0	67633152	54	5869
2026-01-15 10:23:55.66	96.48	16.46	-41.2	-45.4	14.8	6.09e-01	0	58	0	73400320	52	6420
2026-01-15 10:23:58.69	95.88	16.71	-41.5	-45.7	15.8	6.07e-01	0	58	0	79167488	54	5916
2026-01-15 10:24:01.72	95.26	16.96	-41.5	-45.4	16.9	6.07e-01	0	58	0	84410368	53	5994
2026-01-15 10:24:04.75	94.64	17.21	-41.3	-45.1	17.5	6.08e-01	0	58	0	90177536	53	5834
2026-01-15 10:24:07.78	94.00	17.45	-41.5	-45.6	17.1	6.09e-01	0	58	0	95944704	53	6164
2026-01-15 10:24:10.80	93.36	17.70	-41.2	-45.4	17.2	6.07e-01	0	59	0	101711872	53	6058
2026-01-15 10:24:13.83	92.70	17.95	-41.3	-45.7	17.1	6.06e-01	0	59	0	107479040	53	6206
2026-01-15 10:24:16.85	92.03	18.19	-41.3	-45.7	16.9	6.07e-01	0	59	0	113246208	53	6204
2026-01-15 10:24:19.88	91.35	18.43	-41.4	-45.7	16.7	6.07e-01	0	59	0	118489088	53	6219
2026-01-15 10:24:22.90	90.66	18.67	-42.0	-46.2	16.3	6.06e-01	0	59	0	124256256	54	6274
2026-01-15 10:24:25.93	89.96	18.91	-41.9	-46.2	16.2	6.07e-01	0	58	0	130023424	54	6227
2026-01-15 10:24:28.96	89.24	19.15	-42.0	-46.6	15.6	6.07e-01	0	58	0	135790592	54	6550
2026-01-15 10:24:31.99	88.51	19.39	-42.0	-47.0	15.1	6.07e-01	0	58	0	141557760	54	6805
2026-01-15 10:24:35.01	87.78	19.62	-42.1	-47.5	14.5	6.06e-01	0	59	0	147324928	54	7210
2026-01-15 10:24:38.04	87.02	19.85	-42.1	-47.3	14.6	6.08e-01	0	59	0	152567808	54	7109
2026-01-15 10:24:41.06	86.26	20.08	-42.0	-47.0	15.1	6.08e-01	0	59	0	158334976	54	6806
2026-01-15 10:24:44.09	85.49	20.31	-42.0	-46.8	15.2	6.08e-01	0	59	0	164102144	54	6703
2026-01-15 10:24:47.12	84.70	20.53	-41.9	-46.5	15.6	6.08e-01	0	59	0	169869312	54	6478
2026-01-15 10:24:50.15	83.90	20.75	-42.0	-46.4	15.9	6.07e-01	0	59	0	175636480	54	6401
2026-01-15 10:24:53.17	83.09	20.96	-42.1	-46.3	16.2	6.08e-01	0	59	0	180879360	54	6335
2026-01-15 10:24:56.20	82.26	21.17	-42.1	-46.2	16.5	6.07e-01	0	59	0	186646528	54	6236
2026-01-15 10:24:59.23	81.43	21.38	-42.3	-46.6	16.1	6.07e-01	0	59	0	192413696	55	6189
2026-01-15 10:25:02.26	80.58	21.58	-42.3	-46.5	16.3	6.07e-01	0	59	0	198180864	55	6066
2026-01-15 10:25:05.28	79.72	21.78	-42.2	-46.3	16.5	6.08e-01	0	59	0	203948032	55	5969
2026-01-15 10:25:08.31	78.85	21.97	-42.2	-46.3	16.5	6.08e-01	0	59	0	209715200	55	5984
2026-01-15 10:25:11.33	77.98	22.16	-42.1	-46.0	16.9	6.05e-01	0	59	0	214958080	55	5776
2026-01-15 10:25:14.36	77.08	22.34	-42.5	-46.7	16.2	6.07e-01	0	59	0	220725248	55	6258
2026-01-15 10:25:17.39	76.18	22.52	-42.5	-46.5	16.5	6.07e-01	0	59	0	226492416	55	6112
2026-01-15 10:25:20.41	75.27	22.69	-42.4	-46.5	16.6	6.06e-01	0	59	0	232259584	55	6088
2026-01-15 10:25:23.45	74.34	22.85	-42.3	-46.3	16.8	6.06e-01	0	59	0	238026752	55	5947
2026-01-15 10:25:26.47	73.41	23.01	-42.3	-46.0	17.1	6.06e-01	0	59	0	243793920	55	5778
2026-01-15 10:25:29.50	72.46	23.16	-42.2	-46.0	17.2	6.08e-01	0	59	0	249036800	55	5734
2026-01-15 10:25:32.53	71.51	23.30	-42.3	-46.1	17.2	6.07e-01	0	59	0	254803968	55	5822
2026-01-15 10:25:35.55	70.55	23.44	-42.4	-46.2	17.2	6.07e-01	0	59	0	260571136	55	5858
2026-01-15 10:25:38.57	69.58	23.57	-42.4	-46.2	17.2	6.08e-01	0	59	0	266338304	55	5871
2026-01-15 10:25:41.60	68.60	23.69	-42.5	-46.2	17.1	6.07e-01	0	59	0	272105472	55	5901
2026-01-15 10:25:44.62	67.62	23.80	-42.4	-46.1	17.4	6.08e-01	0	59	0	277348352	55	5832
2026-01-15 10:25:47.65	66.63	23.90	-42.4	-46.0	17.5	6.07e-01	0	59	0	283115520	55	5780
2026-01-15 10:25:50.68	65.63	23.99	-42.3	-45.9	17.7	6.05e-01	0	59	0	288882688	55	5684
2026-01-15 10:25:53.71	64.62	24.08	-42.6	-46.3	17.3	6.05e-01	0	59	0	294649856	55	5939
2026-01-15 10:25:56.73	63.61	24.16	-42.4	-46.0	17.6	6.05e-01	0	59	0	300417024	55	5775
2026-01-15 10:25:59.75	62.60	24.22	-42.4	-46.1	17.5	6.07e-01	0	59	0	306184192	55	5803
2026-01-15 10:26:02.77	61.58	24.28	-42.5	-46.3	17.4	6.09e-01	0	59	0	311427072	55	5925
2026-01-15 10:26:05.80	60.56	24.33	-42.4	-46.1	17.5	6.08e-01	0	60	0	317194240	55	5826
2026-01-15 10:26:08.82	59.53	24.37	-42.7	-46.4	17.2	6.05e-01	0	60	0	322961408	55	6059
2026-01-15 10:26:11.85	58.50	24.40	-42.4	-46.0	17.6	6.09e-01	0	59	0	328728576	55	5765
2026-01-15 10:26:14.88	57.47	24.42	-42.5	-46.2	17.4	6.06e-01	0	59	0	334495744	55	5883
2026-01-15 10:26:17.90	56.44	24.43	-42.4	-46.0	17.6	6.07e-01	0	59	0	340262912	55	5741
2026-01-15 10:26:20.93	55.41	24.43	-42.5	-46.0	17.6	6.08e-01	0	59	0	345505792	55	5775
2026-01-15 10:26:23.96	54.38	24.42	-42.4	-46.0	17.6	6.07e-01	0	59	0	351272960	55	5763
2026-01-15 10:26:26.98	53.35	24.41	-42.5	-46.1	17.5	6.06e-01	0	59	0	357040128	55	5847
2026-01-15 10:26:30.02	52.32	24.38	-42.5	-46.2	17.4	6.06e-01	0	59	0	362807296	55	5915
2026-01-15 10:26:33.05	51.29	24.34	-42.8	-55.9	3.9	7.42e-01	0	59	104	364904448	56	16985
2026-01-15 10:26:36.08	50.27	24.29	-44.5	-59.7	3.8	7.48e-01	0	60	104	364904448	59	22101
2026-01-15 10:26:39.11	49.25	24.24	-45.6	-63.8	3.8	7.44e-01	0	60	104	364904448	61	31548
2026-01-15 10:26:42.14	48.23	24.17	-42.9	-55.8	3.9	7.39e-01	0	60	104	364904448	57	15882
2026-01-15 10:26:45.17	47.22	24.09	-44.4	-59.2	3.8	7.45e-01	0	60	104	364904448	59	20954
2026-01-15 10:26:48.19	46.22	24.01	-42.9	-55.9	4.1	7.32e-01	0	60	104	364904448	57	15951
2026-01-15 10:26:51.22	45.22	23.92	-44.6	-59.9	3.8	7.43e-01	0	59	104	364904448	60	21285
2026-01-15 10:26:54.25	44.23	23.82	-44.0	-58.3	3.9	7.41e-01	0	59	104	364904448	60	17712
2026-01-15 10:26:57.28	43.24	23.71	-43.0	-56.2	3.8	7.45e-01	0	60	104	364904448	58	15638
2026-01-15 10:27:00.30	42.26	23.59	-44.3	-59.0	3.9	7.39e-01	0	60	104	364904448	60	19348
2026-01-15 10:27:03.33	41.29	23.46	-45.2	-61.7	3.9	7.43e-01	0	60	104	364904448	61	24880
2026-01-15 10:27:06.36	40.33	23.33	-42.9	-55.9	3.8	7.46e-01	0	60	104	364904448	57	16101
2026-01-15 10:27:09.39	39.38	23.19	-44.7	-60.0	3.9	7.44e-01	0	60	104	364904448	61	20525
2026-01-15 10:27:12.42	38.44	23.04	-43.3	-56.7	3.8	7.45e-01	0	60	104	364904448	58	16610
2026-01-15 10:27:15.45	37.50	22.88	-43.2	-56.3	3.8	7.41e-01	0	60	104	364904448	58	15778
2026-01-15 10:27:18.48	36.58	22.72	-42.9	-56.0	3.9	7.46e-01	0	60	104	364904448	57	16129
2026-01-15 10:27:21.51	35.67	22.55	-42.9	-56.0	3.8	7.44e-01	0	60	104	364904448	57	16186
2026-01-15 10:27:24.54	34.76	22.38	-43.0	-56.1	3.8	7.46e-01	0	60	104	364904448	57	16438
2026-01-15 10:27:27.58	33.87	22.20	-44.5	-59.4	3.9	7.45e-01	0	60	104	364904448	61	19045
2026-01-15 10:27:30.60	32.99	22.01	-43.0	-56.2	3.8	7.45e-01	0	60	104	364904448	57	16534
2026-01-15 10:27:33.63	32.12	21.82	-44.1	-58.2	3.8	7.45e-01	0	60	104	364904448	59	18667
2026-01-15 10:27:36.67	31.26	21.62	-42.9	-56.0	3.8	7.44e-01	0	60	104	364904448	57	16129
2026-01-15 10:27:39.70	30.41	21.42	-44.4	-59.0	3.8	7.46e-01	0	60	104	364904448	59	20530
2026-01-15 10:27:42.73	29.58	21.22	-45.0	-60.9	3.7	7.47e-01	0	60	104	364904448	60	24062
2026-01-15 10:27:45.75	28.76	21.01	-43.2	-56.6	3.8	7.44e-01	0	60	104	364904448	58	16352
2026-01-15 10:27:48.78	27.95	20.79	-43.8	-57.9	3.8	7.45e-01	0	60	104	364904448	58	18993
2026-01-15 10:27:51.81	27.15	20.58	-43.1	-56.4	3.8	7.44e-01	0	60	104	364904448	58	16085
2026-01-15 10:27:54.83	26.37	20.36	-43.7	-57.6	3.8	7.42e-01	0	60	104	364904448	57	19574
2026-01-15 10:27:57.86	25.59	20.13	-44.5	-58.9	3.8	7.47e-01	0	60	104	364904448	59	20134
2026-01-15 10:28:00.89	24.83	19.90	-43.4	-56.8	3.8	7.45e-01	0	60	104	364904448	58	16816
2026-01-15 10:28:03.92	24.08	19.67	-45.1	-61.4	3.7	7.48e-01	0	60	104	364904448	60	25540
2026-01-15 10:28:06.95	23.34	19.44	-45.4	-62.8	3.8	7.45e-01	0	60	104	364904448	61	28212
2026-01-15 10:28:09.98	22.61	19.21	-42.7	-55.6	3.8	7.44e-01	0	60	104	364904448	57	15441
2026-01-15 10:28:13.01	21.90	18.97	-45.4	-63.4	3.8	7.48e-01	0	60	104	364904448	61	30084
2026-01-15 10:28:16.04	21.20	18.73	-43.9	-57.8	3.8	7.43e-01	0	60	104	364904448	59	17839
2026-01-15 10:28:19.07	20.51	18.49	-43.0	-56.4	3.8	7.46e-01	0	60	104	364904448	57	17035
2026-01-15 10:28:22.10	19.83	18.25	-44.0	-58.3	3.8	7.44e-01	0	60	104	364904448	59	18912
2026-01-15 10:28:25.13	19.16	18.01	-42.8	-56.0	3.8	7.46e-01	0	60	104	364904448	57	16196
2026-01-15 10:28:28.16	18.50	17.76	-44.1	-58.8	3.8	7.44e-01	0	60	104	364904448	59	20014
2026-01-15 10:28:31.19	17.86	17.52	-45.2	-63.1	3.8	7.47e-01	0	60	104	364904448	61	29178
2026-01-15 10:28:34.21	17.23	17.27	-42.5	-55.6	3.8	7.47e-01	0	60	104	364904448	57	15450
2026-01-15 10:28:37.24	16.60	17.03	-45.1	-62.9	3.8	7.46e-01	0	60	104	364904448	61	28365
2026-01-15 10:28:40.27	15.99	16.78	-43.1	-56.6	3.8	7.43e-01	0	60	104	364904448	58	16373
2026-01-15 10:28:43.30	15.39	16.53	-42.4	-55.4	3.8	7.41e-01	0	60	104	364904448	56	15967
2026-01-15 10:28:46.32	14.80	16.29	-43.3	-57.3	3.8	7.43e-01	0	60	104	364904448	58	17839
2026-01-15 10:28:49.35	14.22	16.04	-43.0	-56.5	3.8	7.45e-01	0	60	104	364904448	58	16260
2026-01-15 10:28:52.37	13.66	15.79	-43.9	-58.6	3.9	7.42e-01	0	60	104	364904448	59	19614
2026-01-15 10:28:55.41	13.09	15.54	-44.6	-61.5	3.8	7.42e-01	0	60	104	364904448	60	25850
2026-01-15 10:28:58.44	12.54	15.29	-42.6	-55.7	3.8	7.43e-01	0	60	104	364904448	56	16631
2026-01-15 10:29:01.46	12.01	15.05	-44.0	-60.0	3.9	7.40e-01	0	60	104	364904448	60	21508
2026-01-15 10:29:04.49	11.48	14.80	-42.7	-56.0	3.8	7.45e-01	0	60	104	364904448	57	16278
2026-01-15 10:29:07.52	10.96	14.56	-43.1	-57.0	3.8	7.44e-01	0	60	104	364904448	56	19209
2026-01-15 10:29:10.54	10.45	14.31	-42.9	-56.6	3.8	7.47e-01	0	60	104	364904448	56	18372
2026-01-15 10:29:13.57	9.94	14.07	-42.3	-55.6	3.8	7.44e-01	0	60	104	364904448	56	16333
2026-01-15 10:29:16.60	9.45	13.82	-42.8	-56.8	3.8	7.48e-01	0	60	104	364904448	57	17702
2026-01-15 10:29:19.63	8.97	13.58	-43.5	-58.8	3.9	7.40e-01	0	60	104	364904448	59	19906
2026-01-15 10:29:22.65	8.49	13.34	-43.4	-58.1	3.8	7.48e-01	0	60	104	364904448	57	20761
2026-01-15 10:29:25.69	8.02	13.09	-42.6	-57.0	3.8	7.45e-01	0	60	104	364904448	56	19384
2026-01-15 10:29:28.72	7.57	12.85	-41.7	-55.7	3.8	7.47e-01	0	60	104	364904448	55	17523
2026-01-15 10:29:31.74	7.12	12.61	-42.1	-57.6	3.8	7.44e-01	0	60	104	364904448	56	20725
2026-01-15 10:29:34.77	6.67	12.37	-42.6	-61.1	3.8	7.44e-01	0	60	104	364904448	56	31013
2026-01-15 10:29:37.81	6.24	12.13	-42.1	-58.3	3.8	7.44e-01	0	60	104	364904448	55	23703
2026-01-15 10:29:40.84	5.81	11.90	-41.8	-60.5	3.8	7.46e-01	0	60	104	364904448	55	30497
2026-01-15 10:29:43.87	5.39	11.66	-41.9	-60.3	3.8	7.44e-01	0	60	104	364904448	55	29846
2026-01-15 10:29:46.90	4.98	11.43	-41.5	-60.7	3.8	7.44e-01	0	60	104	364904448	55	31163
2026-01-15 10:29:49.93	4.57	11.19	-41.7	-61.1	3.8	7.46e-01	0	60	104	364904448	54	34537
2026-01-15 10:29:52.96	4.17	10.96	-41.0	-60.2	3.8	7.48e-01	0	60	104	364904448	54	31231
2026-01-15 10:29:55.98	3.78	10.73	-41.0	-60.2	3.8	7.44e-01	0	60	104	364904448	53	33159
2026-01-15 10:29:59.01	3.40	10.50	-41.2	-60.4	3.8	7.44e-01	0	60	104	364904448	53	33750
2026-01-15 10:30:02.04	3.02	10.27	-40.8	-60.1	3.8	7.42e-01	0	61	104	364904448	53	32685
2026-01-15 10:30:05.07	2.65	10.04	-41.2	-60.4	3.8	7.44e-01	0	60	104	364904448	53	33940
2026-01-15 10:30:08.10	2.29	9.81	-40.7	-60.1	3.8	7.48e-01	0	60	104	364904448	53	32747
2026-01-15 10:30:11.12	1.93	9.59	-40.8	-60.1	3.8	7.42e-01	0	60	104	364904448	53	32589
2026-01-15 10:30:14.15	1.58	9.37	-40.5	-60.0	3.8	7.44e-01	0	60	104	364904448	53	32469
2026-01-15 10:30:17.18	1.23	9.14	-40.6	-60.1	3.8	7.46e-01	0	60	104	364904448	52	34713
2026-01-15 10:30:20.21	0.89	8.92	-40.6	-60.1	3.8	7.49e-01	0	60	104	364904448	52	34633
2026-01-15 10:30:23.23	0.56	8.70	-40.5	-60.0	3.8	7.47e-01	0	60	104	364904448	52	34373
2026-01-15 10:30:26.26	0.23	8.48	-40.2	-60.1	3.8	7.43e-01	0	60	104	364904448	51	36792
2026-01-15 10:30:29.29	359.90	8.26	-40.2	-60.0	3.8	7.42e-01	0	61	104	364904448	51	36390
2026-01-15 10:30:32.32	359.58	8.05	-39.7	-60.0	3.8	7.45e-01	0	60	104	364904448	51	36324
2026-01-15 10:30:35.35	359.27	7.83	-45.8	-64.5	3.8	7.45e-01	0	60	104	364904448	62	32271
2026-01-15 10:30:38.38	358.96	7.62	-46.3	-64.9	3.8	7.48e-01	0	61	104	364904448	63	32148
2026-01-15 10:30:41.41	358.66	7.41	-46.5	-65.1	3.8	7.46e-01	0	60	104	364904448	63	32653
2026-01-15 10:30:44.45	358.36	7.19	-46.4	-65.0	3.8	7.43e-01	0	60	104	364904448	63	32230
2026-01-15 10:30:47.48	358.07	6.98	-46.3	-65.0	3.8	7.47e-01	0	60	104	364904448	63	32406
2026-01-15 10:30:50.51	357.78	6.78	-46.3	-64.9	3.8	7.45e-01	0	60	104	364904448	63	32138
2026-01-15 10:30:53.54	357.49	6.57	-46.0	-65.0	3.8	7.44e-01	0	60	104	364904448	63	32237
2026-01-15 10:30:56.57	357.22	6.36	-46.3	-64.9	3.8	7.45e-01	0	60	104	364904448	63	32148
2026-01-15 10:30:59.60	356.94	6.16	-45.6	-65.0	3.8	7.45e-01	0	61	104	364904448	63	32356
2026-01-15 10:31:02.63	356.67	5.95	-46.3	-64.9	3.8	7.41e-01	0	60	104	364904448	63	32149
2026-01-15 10:31:05.66	356.40	5.75	-46.3	-64.9	3.8	7.47e-01	0	61	104	364904448	63	32048
2026-01-15 10:31:08.69	356.14	5.55	-46.2	-64.9	3.8	7.44e-01	0	61	104	364904448	63	32041
2026-01-15 10:31:11.72	355.88	5.35	-46.3	-64.9	3.8	7.44e-01	0	61	104	364904448	63	32166
2026-01-15 10:31:14.75	355.63	5.15	-46.3	-64.9	3.8	7.47e-01	0	61	104	364904448	63	32068
2026-01-15 10:31:17.78	355.38	4.95	-46.2	-64.8	3.8	7.44e-01	0	61	104	364904448	63	31750
2026-01-15 10:31:20.82	355.13	4.75	-46.2	-64.9	3.8	7.48e-01	0	60	104	364904448	63	32042
2026-01-15 10:31:23.84	354.89	4.56	-46.2	-64.9	3.8	7.45e-01	0	60	104	364904448	63	32125
2026-01-15 10:31:26.87	354.65	4.36	-46.2	-64.9	3.8	7.44e-01	0	61	104	364904448	63	32059
2026-01-15 10:31:29.90	354.42	4.17	-46.0	-64.8	3.8	7.45e-01	0	61	104	364904448	63	31680
2026-01-15 10:31:32.93	354.19	3.97	-46.3	-64.9	3.8	7.48e-01	0	60	104	364904448	63	32082
2026-01-15 10:31:35.96	353.96	3.78	-46.3	-64.9	3.8	7.46e-01	0	61	104	364904448	63	32041
2026-01-15 10:31:38.99	353.73	3.59	-46.3	-64.9	3.8	7.45e-01	0	61	104	364904448	63	31971
2026-01-15 10:31:42.02	353.51	3.40	-46.1	-64.9	3.8	7.46e-01	0	61	104	364904448	63	32043
2026-01-15 10:31:45.05	353.29	3.22	-46.2	-64.9	3.8	7.44e-01	0	61	104	364904448	63	32015
2026-01-15 10:31:48.08	353.08	3.03	-46.2	-64.9	3.8	7.47e-01	0	61	104	364904448	63	31989
2026-01-15 10:31:51.12	352.87	2.84	-46.2	-64.9	3.8	7.46e-01	0	61	104	364904448	63	32019
2026-01-15 10:31:54.15	352.66	2.66	-46.2	-64.9	3.8	7.43e-01	0	60	104	364904448	63	31906
2026-01-15 10:31:57.18	352.45	2.47	-46.2	-64.9	3.8	7.45e-01	0	61	104	364904448	63	31989
2026-01-15 10:32:00.21	352.25	2.29	-46.2	-64.9	3.8	7.44e-01	0	61	104	364904448	63	31912
2026-01-15 10:32:03.24	352.05	2.11	-46.2	-64.9	3.9	7.44e-01	0	61	104	364904448	63	31953
2026-01-15 10:32:06.27	351.85	1.93	-45.6	-64.9	3.8	7.44e-01	0	60	104	364904448	63	32015

#Closed at: 2026-01-15 10:32:07
#Recorded file [364 MB]: D:/lorett/data/31039_260115_132035.dat