passes_logs/2026/01/15/R2.0S_Moscow/R2.0S_Moscow__20260115_224557_NOAA_21_JPSS-2_rec.log

#Pass ID: 20260115_224557_NOAA 21 (JPSS-2)
#Satellite: NOAA 21 (JPSS-2)
#Configuration: NOAA-21
#almurnet v.1.7.20251203
#Start time: 2026-01-15 22:45:57

#Version: 2.2.20231116
#Station: R2.0S_Moscow
#Location: 37.707566 lon 55.798166 lat
#TLE: 1 54234U 22150A   26015.43562254  .00000028  00000+0  34201-4 0  9996
#TLE: 2 54234  98.7498 316.3301 0000635 288.4972  71.6135 14.19534768164873

#Time	Az	El	Level	Level2	SNR	BER	BlckErr	Temp	State	Recorded	gain1	gain2
2026-01-15 22:45:57.98	20.90	2.05	-42.2	-54.9	3.8	1.49e+00	0	51	0	0	56	15081
2026-01-15 22:46:02.01	21.08	2.30	-42.1	-54.7	3.8	1.49e+00	0	51	104	0	55	15691
2026-01-15 22:46:06.06	21.27	2.55	-42.1	-54.7	3.8	1.49e+00	0	52	104	0	55	15666
2026-01-15 22:46:10.10	21.45	2.79	-42.1	-54.7	3.8	1.49e+00	0	52	104	0	55	15717
2026-01-15 22:46:14.14	21.64	3.04	-42.0	-54.7	3.8	1.49e+00	0	52	104	0	55	15628
2026-01-15 22:46:18.18	21.83	3.30	-42.1	-54.7	3.8	1.49e+00	0	53	104	0	55	15684
2026-01-15 22:46:22.23	22.03	3.55	-42.1	-54.7	3.8	1.49e+00	0	53	104	0	55	15598
2026-01-15 22:46:26.27	22.22	3.81	-42.1	-54.7	3.8	1.49e+00	0	53	104	0	55	15617
2026-01-15 22:46:30.31	22.43	4.07	-42.1	-54.7	3.8	1.49e+00	0	53	104	0	55	15655
2026-01-15 22:46:34.35	22.63	4.33	-42.1	-54.7	3.8	1.49e+00	0	53	104	0	55	15662
2026-01-15 22:46:38.39	22.84	4.59	-42.1	-54.7	3.8	1.49e+00	0	54	104	0	55	15683
2026-01-15 22:46:42.43	23.05	4.86	-42.1	-54.7	3.8	1.49e+00	0	54	104	0	55	15653
2026-01-15 22:46:46.47	23.26	5.13	-42.1	-54.7	3.8	1.49e+00	0	54	104	0	55	15584
2026-01-15 22:46:50.51	23.48	5.40	-42.1	-54.7	3.8	1.49e+00	0	54	104	0	55	15585
2026-01-15 22:46:54.55	23.70	5.67	-42.1	-54.7	3.8	1.49e+00	0	55	104	0	55	15594
2026-01-15 22:46:58.59	23.93	5.95	-42.0	-54.7	3.8	1.49e+00	0	55	104	0	55	15594
2026-01-15 22:47:02.63	24.16	6.23	-42.1	-54.7	3.8	1.49e+00	0	55	104	0	55	15590
2026-01-15 22:47:06.67	24.39	6.51	-42.0	-54.7	3.8	1.49e+00	0	55	104	0	55	15625
2026-01-15 22:47:10.71	24.63	6.79	-42.0	-54.7	3.8	1.49e+00	0	55	104	0	55	15620
2026-01-15 22:47:14.75	24.87	7.08	-42.0	-54.5	3.8	1.49e+00	0	55	104	0	55	15226
2026-01-15 22:47:18.80	25.12	7.37	-42.0	-53.7	3.8	1.49e+00	0	55	104	0	55	14041
2026-01-15 22:47:22.84	25.37	7.66	-41.5	-49.9	4.6	1.25e+00	2	55	104	0	55	9024
2026-01-15 22:47:26.89	25.63	7.96	-40.2	-45.1	8.2	7.47e-02	0	56	0	10485760	52	6186
2026-01-15 22:47:30.93	25.89	8.26	-41.1	-49.2	4.9	2.50e-01	0	56	0	20971520	52	9850
2026-01-15 22:47:34.97	26.16	8.56	-40.7	-44.7	9.5	1.39e-02	0	56	0	27262976	53	5555
2026-01-15 22:47:39.01	26.43	8.87	-40.5	-44.2	10.1	6.78e-03	0	56	0	39845888	52	5559
2026-01-15 22:47:43.04	26.70	9.17	-40.5	-44.1	10.2	6.16e-03	0	56	0	52428800	52	5526
2026-01-15 22:47:47.08	26.99	9.48	-40.4	-44.0	10.5	3.97e-03	0	56	0	65011712	52	5416
2026-01-15 22:47:51.13	27.28	9.80	-40.5	-44.0	10.6	3.42e-03	0	57	0	77594624	52	5429
2026-01-15 22:47:55.16	27.57	10.12	-40.5	-43.8	11.1	1.77e-03	0	57	0	90177536	52	5321
2026-01-15 22:47:59.20	27.87	10.44	-40.7	-44.0	10.9	2.08e-03	0	57	0	102760448	52	5451
2026-01-15 22:48:03.24	28.17	10.77	-40.6	-43.8	11.2	1.20e-03	0	57	0	115343360	52	5323
2026-01-15 22:48:07.28	28.49	11.09	-40.5	-43.5	11.6	7.35e-04	0	57	0	127926272	52	5155
2026-01-15 22:48:11.32	28.81	11.43	-40.4	-43.3	11.8	4.68e-04	0	57	0	140509184	52	5041
2026-01-15 22:48:15.36	29.13	11.76	-40.3	-43.2	12.0	3.04e-04	0	57	0	153092096	52	4947
2026-01-15 22:48:19.41	29.47	12.11	-40.4	-43.3	12.0	3.36e-04	0	57	0	165675008	52	4984
2026-01-15 22:48:23.44	29.81	12.45	-40.3	-43.2	12.1	2.66e-04	0	57	0	178257920	52	4946
2026-01-15 22:48:27.48	30.16	12.80	-40.3	-43.0	12.3	1.85e-04	0	57	0	190840832	52	4864
2026-01-15 22:48:31.52	30.51	13.15	-40.3	-43.0	12.4	1.46e-04	0	57	0	203423744	52	4851
2026-01-15 22:48:35.56	30.88	13.51	-40.3	-43.1	12.4	1.61e-04	0	58	0	216006656	52	4872
2026-01-15 22:48:39.60	31.25	13.87	-40.2	-42.9	12.5	1.17e-04	0	58	0	229638144	52	4804
2026-01-15 22:48:43.64	31.64	14.23	-40.2	-42.8	12.7	8.69e-05	0	58	0	242221056	52	4739
2026-01-15 22:48:47.67	32.03	14.60	-40.2	-42.8	12.8	7.47e-05	0	58	0	254803968	52	4712
2026-01-15 22:48:51.72	32.43	14.98	-40.2	-42.8	12.7	7.40e-05	0	58	0	267386880	52	4741
2026-01-15 22:48:55.76	32.84	15.36	-40.3	-42.9	12.7	9.61e-05	0	58	0	279969792	52	4791
2026-01-15 22:48:59.80	33.26	15.74	-40.3	-42.9	12.7	8.31e-05	0	58	0	292552704	52	4779
2026-01-15 22:49:03.83	33.69	16.13	-40.3	-43.0	12.6	8.01e-05	0	58	0	305135616	52	4852
2026-01-15 22:49:07.87	34.13	16.52	-40.4	-43.2	12.5	1.03e-04	0	58	0	317718528	52	4942
2026-01-15 22:49:11.90	34.59	16.92	-40.5	-43.3	12.3	1.93e-04	0	58	0	330301440	52	5029
2026-01-15 22:49:15.94	35.05	17.32	-40.6	-43.4	12.3	1.60e-04	0	58	0	342884352	52	5066
2026-01-15 22:49:19.98	35.53	17.73	-40.6	-43.4	12.3	2.00e-04	0	58	0	355467264	52	5083
2026-01-15 22:49:24.02	36.02	18.14	-40.6	-43.4	12.3	1.81e-04	0	58	0	368050176	52	5072
2026-01-15 22:49:28.05	36.52	18.56	-40.5	-43.3	12.5	1.37e-04	0	58	0	380633088	52	4984
2026-01-15 22:49:32.09	37.04	18.98	-40.4	-43.1	12.7	6.79e-05	0	59	0	393216000	52	4903
2026-01-15 22:49:36.13	37.57	19.41	-40.4	-42.9	12.8	4.34e-05	0	59	0	405798912	52	4813
2026-01-15 22:49:40.17	38.11	19.85	-40.3	-42.8	13.0	2.74e-05	0	58	0	418381824	52	4718
2026-01-15 22:49:44.21	38.68	20.28	-40.1	-42.6	13.2	2.97e-05	0	59	0	430964736	52	4625
2026-01-15 22:49:48.25	39.25	20.73	-40.0	-42.4	13.4	9.90e-06	0	59	0	443547648	52	4530
2026-01-15 22:49:52.29	39.85	21.18	-40.0	-42.4	13.5	1.37e-05	0	59	0	456130560	52	4516
2026-01-15 22:49:56.33	40.46	21.63	-40.0	-42.3	13.7	6.80e-06	0	59	0	468713472	51	4727
2026-01-15 22:50:00.37	41.08	22.09	-39.9	-42.1	13.8	4.50e-06	0	58	0	481296384	51	4646
2026-01-15 22:50:04.41	41.73	22.55	-39.7	-41.9	14.0	7.00e-07	0	59	0	493879296	51	4532
2026-01-15 22:50:08.45	42.40	23.02	-39.7	-41.9	14.1	1.50e-06	0	59	0	506462208	51	4494
2026-01-15 22:50:12.49	43.08	23.49	-39.7	-42.0	14.1	3.00e-06	0	59	0	519045120	51	4548
2026-01-15 22:50:16.53	43.79	23.97	-39.7	-41.8	14.2	1.50e-06	0	59	0	531628032	51	4484
2026-01-15 22:50:20.57	44.52	24.45	-39.8	-41.9	14.1	1.50e-06	0	59	0	545259520	51	4535
2026-01-15 22:50:24.61	45.26	24.94	-39.9	-42.2	13.9	2.20e-06	0	59	0	556793856	51	4666
2026-01-15 22:50:28.65	46.04	25.43	-39.8	-42.0	14.1	0.00e+00	0	59	0	570425344	51	4567
2026-01-15 22:50:32.69	46.83	25.92	-39.8	-42.0	14.1	1.50e-06	0	59	0	583008256	51	4565
2026-01-15 22:50:36.73	47.65	26.42	-40.0	-42.3	13.8	6.80e-06	0	59	0	595591168	51	4752
2026-01-15 22:50:40.77	48.50	26.92	-40.2	-42.6	13.5	9.10e-06	0	59	0	608174080	51	4899
2026-01-15 22:50:44.81	49.37	27.42	-40.3	-42.7	13.4	1.52e-05	0	59	0	620756992	51	4951
2026-01-15 22:50:48.84	50.27	27.93	-40.3	-42.8	13.4	1.60e-05	0	59	0	633339904	51	4984
2026-01-15 22:50:52.88	51.20	28.43	-40.1	-42.4	13.7	8.30e-06	0	59	0	645922816	51	4795
2026-01-15 22:50:56.92	52.16	28.94	-40.2	-42.5	13.6	9.90e-06	0	59	0	658505728	51	4836
2026-01-15 22:51:00.96	53.15	29.45	-39.9	-42.1	14.1	1.50e-06	0	59	0	671088640	51	4615
2026-01-15 22:51:05.00	54.17	29.95	-40.0	-42.3	13.9	3.00e-06	0	59	0	683671552	51	4741
2026-01-15 22:51:09.03	55.22	30.46	-40.1	-42.3	13.9	6.80e-06	0	59	0	696254464	51	4739
2026-01-15 22:51:13.07	56.30	30.96	-40.1	-42.4	13.8	6.10e-06	0	59	0	708837376	51	4799
2026-01-15 22:51:17.11	57.42	31.47	-40.2	-42.5	13.7	4.50e-06	0	59	0	721420288	51	4825
2026-01-15 22:51:21.14	58.57	31.97	-40.5	-42.9	13.3	1.22e-05	0	59	0	734003200	51	5061
2026-01-15 22:51:25.19	59.76	32.46	-40.5	-43.0	13.2	2.44e-05	0	59	0	746586112	51	5129
2026-01-15 22:51:29.23	60.99	32.95	-40.8	-43.3	12.8	5.87e-05	0	59	0	759169024	52	5039
2026-01-15 22:51:33.27	62.25	33.43	-41.1	-43.9	12.2	2.18e-04	0	59	0	771751936	52	5392
2026-01-15 22:51:37.31	63.55	33.91	-41.1	-43.8	12.4	1.72e-04	0	59	0	784334848	52	5312
2026-01-15 22:51:41.35	64.88	34.37	-41.2	-44.0	12.2	2.37e-04	0	59	0	796917760	53	5111
2026-01-15 22:51:45.39	66.26	34.82	-41.1	-43.8	12.3	2.03e-04	0	59	0	809500672	53	5016
2026-01-15 22:51:49.43	67.67	35.27	-41.2	-44.0	12.1	3.25e-04	0	59	0	822083584	53	5143
2026-01-15 22:51:53.47	69.12	35.70	-41.0	-43.6	12.5	1.38e-04	0	59	0	834666496	53	4926
2026-01-15 22:51:57.50	70.60	36.11	-41.1	-43.8	12.3	1.58e-04	0	59	0	847249408	53	5011
2026-01-15 22:52:01.54	72.12	36.50	-41.1	-43.9	12.3	1.99e-04	0	59	0	859832320	53	5045
2026-01-15 22:52:05.58	73.68	36.88	-41.0	-43.7	12.4	1.06e-04	0	60	0	872415232	53	4956
2026-01-15 22:52:09.62	75.28	37.24	-41.3	-44.1	12.1	3.48e-04	0	59	0	886046720	53	5183
2026-01-15 22:52:13.66	76.91	37.58	-41.3	-44.1	12.1	1.99e-04	0	59	0	897581056	53	5184
2026-01-15 22:52:17.70	78.57	37.90	-41.7	-44.9	11.4	1.05e-03	0	59	0	911212544	54	5351
2026-01-15 22:52:21.74	80.27	38.19	-41.7	-44.9	11.3	1.42e-03	0	59	0	923795456	54	5344
2026-01-15 22:52:25.78	81.99	38.45	-41.7	-44.8	11.4	1.09e-03	0	59	0	936378368	54	5292
2026-01-15 22:52:29.82	83.74	38.69	-41.5	-44.5	11.7	5.66e-04	0	59	0	948961280	54	5141
2026-01-15 22:52:33.86	85.51	38.90	-41.5	-44.5	11.7	5.74e-04	0	59	0	961544192	54	5126
2026-01-15 22:52:37.90	87.31	39.08	-41.6	-44.7	11.6	7.69e-04	0	60	0	974127104	54	5232
2026-01-15 22:52:41.94	89.12	39.23	-41.6	-44.5	11.7	6.63e-04	0	59	0	986710016	54	5153
2026-01-15 22:52:45.98	90.95	39.35	-41.6	-44.6	11.6	6.35e-04	0	60	0	999292928	54	5187
2026-01-15 22:52:50.01	92.78	39.43	-41.6	-44.6	11.6	8.03e-04	0	60	0	1011875840	54	5208
2026-01-15 22:52:54.04	94.63	39.49	-41.8	-45.0	11.2	1.83e-03	0	60	0	1024458752	54	5432
2026-01-15 22:52:58.08	96.48	39.51	-42.0	-45.4	10.8	2.44e-03	0	60	0	1037041664	54	5681
2026-01-15 22:53:02.12	98.33	39.50	-41.7	-44.8	11.4	8.85e-04	0	60	0	1049624576	54	5285
2026-01-15 22:53:06.16	100.18	39.45	-41.7	-44.8	11.4	9.37e-04	0	59	0	1062207488	54	5280
2026-01-15 22:53:10.20	102.03	39.37	-41.7	-44.8	11.4	8.41e-04	0	60	0	1074790400	54	5301
2026-01-15 22:53:14.24	103.86	39.26	-41.8	-45.1	11.1	1.49e-03	0	60	0	1087373312	54	5472
2026-01-15 22:53:18.28	105.68	39.12	-41.7	-44.7	11.5	1.02e-03	0	60	0	1099956224	54	5271
2026-01-15 22:53:22.33	107.49	38.95	-41.6	-44.7	11.6	8.34e-04	0	60	0	1112539136	54	5219
2026-01-15 22:53:26.37	109.27	38.75	-41.5	-44.4	11.9	4.96e-04	0	60	0	1125122048	54	5060
2026-01-15 22:53:30.41	111.03	38.51	-41.6	-44.6	11.7	4.89e-04	0	60	0	1137704960	54	5179
2026-01-15 22:53:34.45	112.76	38.26	-41.0	-43.7	12.5	1.11e-04	0	60	0	1150287872	53	4952
2026-01-15 22:53:38.49	114.47	37.97	-41.5	-44.6	11.7	4.61e-04	0	60	0	1162870784	53	5467
2026-01-15 22:53:42.53	116.14	37.66	-41.2	-44.0	12.2	3.85e-04	0	60	0	1175453696	54	4842
2026-01-15 22:53:46.57	117.78	37.33	-41.3	-44.2	12.2	2.33e-04	0	60	0	1188036608	54	4931
2026-01-15 22:53:50.62	119.40	36.97	-41.2	-43.9	12.3	1.87e-04	0	60	0	1200619520	54	4805
2026-01-15 22:53:54.65	120.97	36.60	-41.2	-44.0	12.3	1.75e-04	0	60	0	1213202432	53	5116
2026-01-15 22:53:58.69	122.50	36.20	-41.1	-43.9	12.4	1.77e-04	0	60	0	1226833920	53	5046
2026-01-15 22:54:02.73	124.01	35.79	-41.1	-43.8	12.5	9.61e-05	0	60	0	1239416832	53	5022
2026-01-15 22:54:06.77	125.47	35.36	-41.1	-43.8	12.5	1.19e-04	0	60	0	1251999744	53	5028
2026-01-15 22:54:10.81	126.89	34.92	-41.0	-43.6	12.7	7.55e-05	0	60	0	1264582656	53	4908
2026-01-15 22:54:14.85	128.28	34.47	-41.2	-44.0	12.3	1.72e-04	0	60	0	1277165568	53	5132
2026-01-15 22:54:18.89	129.63	34.00	-40.7	-43.2	13.0	3.66e-05	0	60	0	1289748480	53	4688
2026-01-15 22:54:22.93	130.94	33.53	-40.8	-43.3	13.0	3.05e-05	0	60	0	1302331392	53	4739
2026-01-15 22:54:26.97	132.22	33.04	-40.9	-43.6	12.7	8.31e-05	0	60	0	1314914304	53	4900
2026-01-15 22:54:31.00	133.45	32.55	-40.6	-43.1	13.2	2.21e-05	0	60	0	1327497216	53	4609
2026-01-15 22:54:35.04	134.65	32.06	-40.6	-43.1	13.2	2.89e-05	0	60	0	1340080128	53	4634
2026-01-15 22:54:39.08	135.82	31.56	-40.7	-43.2	13.0	3.43e-05	0	60	0	1352663040	53	4689
2026-01-15 22:54:43.12	136.95	31.05	-40.6	-43.0	13.2	1.83e-05	0	60	0	1365245952	53	4580
2026-01-15 22:54:47.16	138.05	30.54	-40.9	-43.6	12.6	7.55e-05	0	60	0	1377828864	53	4924
2026-01-15 22:54:51.20	139.11	30.03	-40.6	-43.2	13.1	2.28e-05	0	60	0	1390411776	53	4655
2026-01-15 22:54:55.25	140.14	29.52	-40.5	-43.0	13.3	1.75e-05	0	60	0	1402994688	53	4561
2026-01-15 22:54:59.29	141.14	29.01	-40.1	-42.4	13.9	6.80e-06	0	60	0	1415577600	52	4523
2026-01-15 22:55:03.33	142.11	28.50	-40.1	-42.3	13.9	2.20e-06	0	60	0	1428160512	52	4485
2026-01-15 22:55:07.36	143.05	27.99	-40.0	-42.3	14.0	3.00e-06	0	60	0	1440743424	51	4706
2026-01-15 22:55:11.40	143.96	27.48	-40.0	-42.2	14.1	1.50e-06	0	60	0	1453326336	51	4680
2026-01-15 22:55:15.44	144.84	26.97	-40.1	-42.3	14.0	3.00e-06	0	60	0	1465909248	51	4748
2026-01-15 22:55:19.48	145.69	26.47	-40.0	-42.2	14.1	4.50e-06	0	60	0	1478492160	51	4686
2026-01-15 22:55:23.52	146.52	25.97	-40.0	-42.2	14.1	7.00e-07	0	60	0	1491075072	51	4666
2026-01-15 22:55:27.56	147.33	25.47	-39.8	-42.0	14.3	1.50e-06	0	60	0	1503657984	51	4556
2026-01-15 22:55:31.60	148.11	24.98	-39.7	-41.8	14.4	0.00e+00	0	60	0	1516240896	51	4492
2026-01-15 22:55:35.63	148.86	24.49	-40.0	-42.2	14.0	2.20e-06	0	60	0	1528823808	51	4674
2026-01-15 22:55:39.67	149.60	24.00	-40.3	-42.6	13.6	5.30e-06	0	60	0	1541406720	51	4900
2026-01-15 22:55:43.70	150.31	23.52	-40.7	-43.2	13.0	3.58e-05	0	60	0	1553989632	51	5264
2026-01-15 22:55:47.74	151.00	23.04	-40.2	-42.6	13.6	4.50e-06	0	60	0	1567621120	51	4888
2026-01-15 22:55:51.78	151.67	22.57	-40.4	-42.8	13.3	2.21e-05	0	60	0	1580204032	51	5028
2026-01-15 22:55:55.82	152.32	22.10	-40.2	-42.5	13.7	7.60e-06	0	60	0	1592786944	51	4838
2026-01-15 22:55:59.86	152.95	21.64	-40.1	-42.5	13.7	8.30e-06	0	60	0	1605369856	51	4815
2026-01-15 22:56:03.90	153.57	21.18	-40.3	-42.6	13.5	1.29e-05	0	60	0	1617952768	51	4922
2026-01-15 22:56:07.94	154.17	20.73	-40.2	-42.6	13.5	9.90e-06	0	60	0	1630535680	51	4905
2026-01-15 22:56:11.98	154.75	20.28	-40.3	-42.6	13.5	1.37e-05	0	60	0	1643118592	51	4926
2026-01-15 22:56:16.02	155.31	19.83	-40.1	-42.4	13.7	5.30e-06	0	60	0	1655701504	51	4801
2026-01-15 22:56:20.06	155.86	19.40	-40.2	-42.5	13.5	1.37e-05	0	60	0	1668284416	51	4863
2026-01-15 22:56:24.10	156.40	18.96	-40.1	-42.5	13.6	9.90e-06	0	60	0	1680867328	51	4837
2026-01-15 22:56:28.13	156.91	18.54	-40.1	-42.4	13.7	5.30e-06	0	60	0	1693450240	51	4778
2026-01-15 22:56:32.17	157.42	18.12	-40.1	-42.5	13.5	1.06e-05	0	60	0	1706033152	51	4831
2026-01-15 22:56:36.21	157.91	17.70	-40.4	-42.9	13.1	2.74e-05	0	60	0	1718616064	51	5042
2026-01-15 22:56:40.24	158.39	17.29	-40.7	-43.5	12.4	1.36e-04	0	60	0	1731198976	52	5105
2026-01-15 22:56:44.28	158.86	16.88	-40.6	-43.4	12.5	1.21e-04	0	60	0	1743781888	52	5050
2026-01-15 22:56:48.33	159.31	16.48	-40.6	-43.3	12.5	1.19e-04	0	60	0	1756364800	52	5034
2026-01-15 22:56:52.37	159.76	16.08	-40.8	-43.5	12.3	1.71e-04	0	60	0	1768947712	52	5142
2026-01-15 22:56:56.41	160.19	15.69	-40.6	-43.2	12.6	1.07e-04	0	60	0	1781530624	52	4972
2026-01-15 22:57:00.45	160.61	15.30	-40.7	-43.4	12.3	1.52e-04	0	60	0	1794113536	52	5066
2026-01-15 22:57:04.49	161.02	14.92	-40.7	-43.6	12.2	2.59e-04	0	60	0	1806696448	52	5165
2026-01-15 22:57:08.53	161.43	14.54	-40.6	-43.3	12.5	1.24e-04	0	60	0	1819279360	52	4992
2026-01-15 22:57:12.57	161.82	14.16	-40.7	-43.4	12.3	1.94e-04	0	60	0	1831862272	52	5096
2026-01-15 22:57:16.61	162.20	13.79	-40.9	-43.8	11.9	4.21e-04	0	60	0	1844445184	52	5332
2026-01-15 22:57:20.65	162.57	13.43	-40.9	-43.9	11.7	6.00e-04	0	60	0	1857028096	52	5366
2026-01-15 22:57:24.69	162.94	13.07	-40.9	-44.0	11.6	7.17e-04	0	60	0	1869611008	52	5426
2026-01-15 22:57:28.72	163.29	12.71	-40.9	-44.0	11.5	8.16e-04	0	60	0	1883242496	52	5425
2026-01-15 22:57:32.76	163.64	12.36	-41.0	-44.1	11.3	1.12e-03	0	60	0	1894776832	52	5520
2026-01-15 22:57:36.80	163.98	12.01	-41.0	-44.1	11.3	1.32e-03	0	60	0	1908408320	52	5524
2026-01-15 22:57:40.84	164.32	11.67	-41.1	-44.4	11.0	2.00e-03	0	60	0	1920991232	52	5672
2026-01-15 22:57:44.88	164.64	11.33	-41.1	-44.3	11.0	1.84e-03	0	60	0	1933574144	52	5653
2026-01-15 22:57:48.91	164.96	11.00	-40.9	-44.0	11.3	1.15e-03	0	60	0	1946157056	52	5434
2026-01-15 22:57:52.95	165.27	10.66	-40.9	-44.0	11.3	1.13e-03	0	60	0	1958739968	52	5438
2026-01-15 22:57:56.99	165.58	10.33	-41.0	-44.2	11.0	1.61e-03	0	60	0	1971322880	52	5558
2026-01-15 22:58:01.02	165.87	10.01	-41.1	-44.6	10.5	3.26e-03	0	60	0	1983905792	52	5820
2026-01-15 22:58:05.06	166.17	9.69	-41.0	-44.4	10.6	3.69e-03	0	60	0	1996488704	53	5391
2026-01-15 22:58:09.10	166.45	9.37	-41.0	-44.5	10.5	4.20e-03	0	60	0	2009071616	53	5405
2026-01-15 22:58:13.14	166.73	9.06	-41.0	-44.5	10.4	4.72e-03	0	60	0	2021654528	53	5455
2026-01-15 22:58:17.18	167.01	8.75	-41.1	-44.6	10.2	5.53e-03	0	60	0	2034237440	53	5510
2026-01-15 22:58:21.22	167.28	8.44	-41.1	-44.7	10.0	7.07e-03	0	60	0	2046820352	53	5561
2026-01-15 22:58:25.26	167.54	8.13	-41.0	-44.6	10.1	6.93e-03	0	60	0	2059403264	53	5509
2026-01-15 22:58:29.30	167.80	7.83	-44.8	-57.2	3.8	1.49e+00	0	60	104	2066743296	60	15617
2026-01-15 22:58:33.33	168.05	7.54	-45.2	-57.6	3.8	1.49e+00	0	60	104	2066743296	60	16403
2026-01-15 22:58:37.37	168.30	7.24	-45.3	-57.6	3.8	1.49e+00	0	60	104	2066743296	61	15553
2026-01-15 22:58:41.41	168.55	6.95	-45.3	-57.6	3.8	1.49e+00	0	60	104	2066743296	61	15543
2026-01-15 22:58:45.45	168.79	6.66	-45.3	-57.6	3.8	1.49e+00	0	60	104	2066743296	61	15419
2026-01-15 22:58:49.49	169.02	6.37	-45.3	-57.6	3.8	1.49e+00	0	60	104	2066743296	61	15471
2026-01-15 22:58:53.53	169.25	6.09	-45.3	-57.6	3.8	1.49e+00	0	60	104	2066743296	61	15403
2026-01-15 22:58:57.57	169.48	5.81	-45.2	-57.5	3.8	1.49e+00	0	60	104	2066743296	61	15355
2026-01-15 22:59:01.61	169.70	5.53	-45.2	-57.5	3.8	1.49e+00	0	61	104	2066743296	61	15342
2026-01-15 22:59:05.65	169.92	5.25	-45.2	-57.5	3.8	1.49e+00	0	60	104	2066743296	61	15296
2026-01-15 22:59:09.68	170.14	4.98	-45.2	-57.5	3.8	1.49e+00	0	60	104	2066743296	61	15339
2026-01-15 22:59:13.73	170.35	4.71	-45.2	-57.5	3.8	1.49e+00	0	60	104	2066743296	61	15281
2026-01-15 22:59:17.77	170.55	4.44	-45.2	-57.4	3.8	1.49e+00	0	61	104	2066743296	61	15214
2026-01-15 22:59:21.81	170.76	4.18	-45.2	-57.5	3.8	1.49e+00	0	61	104	2066743296	61	15285
2026-01-15 22:59:25.84	170.96	3.91	-45.2	-57.5	3.8	1.49e+00	0	60	104	2066743296	61	15265
2026-01-15 22:59:29.88	171.15	3.65	-45.2	-57.5	3.8	1.49e+00	0	60	104	2066743296	61	15231
2026-01-15 22:59:33.92	171.35	3.39	-45.2	-57.4	3.8	1.49e+00	0	60	104	2066743296	61	15221
2026-01-15 22:59:37.96	171.54	3.13	-45.2	-57.5	3.8	1.49e+00	0	60	104	2066743296	61	15272
2026-01-15 22:59:42.00	171.73	2.88	-45.2	-57.5	3.8	1.49e+00	0	60	104	2066743296	61	15280
2026-01-15 22:59:46.03	171.91	2.63	-45.2	-57.4	3.8	1.49e+00	0	60	104	2066743296	61	15224
2026-01-15 22:59:50.07	172.09	2.38	-45.2	-57.5	3.8	1.49e+00	0	60	104	2066743296	61	15275
2026-01-15 22:59:54.11	172.27	2.13	-45.2	-57.5	3.8	1.49e+00	0	60	104	2066743296	61	15275

#Closed at: 2026-01-15 22:59:57
#Recorded file [2066 MB]: D:/lorett/data/31039_260116_014557.dat