passes_logs/2026/01/15/R2.0S_Moscow/R2.0S_Moscow__20260115_053910_FENGYUN_3E_rec.log

#Pass ID: 20260115_053910_FENGYUN 3E
#Satellite: FENGYUN 3E
#Configuration: FENGYUN 3E
#almurnet v.1.7.20251203
#Start time: 2026-01-15 05:39:11

#Version: 2.2.20231116
#Station: R2.0S_Moscow
#Location: 37.707566 lon 55.798166 lat
#TLE: 1 49008U 21062A   26014.30102361 -.00000015  00000+0  13743-4 0  9999
#TLE: 2 49008  98.7489  19.4380 0001989 137.7844 222.3486 14.19884630234745

#Time	Az	El	Level	Level2	SNR	BER	BlckErr	Temp	State	Recorded	gain1	gain2
2026-01-15 05:39:11.67	9.98	2.09	-40.2	-51.2	3.8	8.47e-01	0	48	0	0	51	12499
2026-01-15 05:39:14.69	9.78	2.26	-40.3	-51.2	3.8	8.46e-01	0	49	104	0	51	12516
2026-01-15 05:39:17.72	9.58	2.43	-40.3	-51.3	3.8	8.45e-01	0	49	104	0	51	12553
2026-01-15 05:39:20.75	9.37	2.61	-40.2	-51.3	3.8	8.47e-01	0	49	104	0	51	12545
2026-01-15 05:39:23.78	9.17	2.78	-40.2	-51.3	3.8	8.47e-01	0	50	104	0	51	12573
2026-01-15 05:39:26.81	8.96	2.95	-40.2	-51.2	3.8	8.47e-01	0	50	104	0	51	12510
2026-01-15 05:39:29.85	8.74	3.12	-40.2	-51.2	3.8	8.48e-01	0	50	104	0	51	12504
2026-01-15 05:39:32.86	8.53	3.30	-40.2	-51.3	3.8	8.46e-01	0	50	104	0	51	12530
2026-01-15 05:39:35.90	8.31	3.47	-40.2	-51.2	3.8	8.46e-01	0	50	104	0	51	12492
2026-01-15 05:39:38.93	8.08	3.65	-40.2	-51.2	3.8	8.48e-01	0	51	104	0	51	12518
2026-01-15 05:39:41.96	7.86	3.83	-40.2	-51.2	3.8	8.46e-01	0	51	104	0	51	12511
2026-01-15 05:39:44.99	7.63	4.00	-40.2	-51.2	3.8	8.46e-01	0	51	104	0	51	12494
2026-01-15 05:39:48.02	7.40	4.18	-40.2	-51.2	3.8	8.46e-01	0	51	104	0	51	12483
2026-01-15 05:39:51.05	7.17	4.36	-40.2	-51.2	3.8	8.46e-01	0	51	104	0	51	12505
2026-01-15 05:39:54.09	6.93	4.54	-40.2	-51.2	3.8	8.46e-01	0	52	104	0	51	12503
2026-01-15 05:39:57.12	6.69	4.72	-40.2	-51.3	3.8	8.46e-01	0	52	104	0	51	12550
2026-01-15 05:40:00.15	6.45	4.90	-40.2	-51.2	3.8	8.46e-01	0	52	104	0	51	12494
2026-01-15 05:40:03.18	6.20	5.08	-40.2	-51.3	3.8	8.45e-01	0	52	104	0	51	12526
2026-01-15 05:40:06.21	5.95	5.26	-40.2	-51.2	3.8	8.45e-01	0	52	104	0	51	12495
2026-01-15 05:40:09.25	5.70	5.45	-40.2	-51.3	3.8	8.47e-01	0	52	104	0	51	12525
2026-01-15 05:40:12.28	5.44	5.63	-40.2	-51.2	3.8	8.46e-01	0	52	104	0	51	12505
2026-01-15 05:40:15.31	5.19	5.82	-40.2	-51.3	3.8	8.46e-01	0	53	104	0	51	12523
2026-01-15 05:40:18.34	4.92	6.00	-40.2	-51.2	3.8	8.46e-01	0	53	104	0	51	12488
2026-01-15 05:40:21.37	4.66	6.19	-40.2	-51.3	3.8	8.46e-01	0	53	104	0	51	12572
2026-01-15 05:40:24.40	4.39	6.37	-40.2	-51.2	3.8	8.46e-01	0	53	104	0	51	12486
2026-01-15 05:40:27.43	4.11	6.56	-40.2	-51.2	3.8	8.46e-01	0	53	104	0	51	12490
2026-01-15 05:40:30.46	3.84	6.75	-40.2	-51.2	3.8	8.46e-01	0	53	104	0	51	12503
2026-01-15 05:40:33.49	3.56	6.94	-40.2	-51.2	3.8	8.47e-01	0	53	104	0	51	12514
2026-01-15 05:40:36.52	3.27	7.13	-40.2	-51.2	3.8	8.46e-01	0	53	104	0	51	12512
2026-01-15 05:40:39.55	2.98	7.32	-40.2	-51.2	3.8	8.46e-01	0	54	104	0	51	12512
2026-01-15 05:40:42.59	2.69	7.51	-40.2	-51.2	3.8	8.46e-01	0	54	104	0	51	12497
2026-01-15 05:40:45.62	2.39	7.70	-40.2	-51.3	3.8	8.46e-01	0	54	104	0	51	12543
2026-01-15 05:40:48.65	2.09	7.90	-40.2	-51.2	3.8	8.44e-01	0	54	104	0	51	12502
2026-01-15 05:40:51.68	1.79	8.09	-40.1	-51.2	3.8	8.46e-01	0	54	104	0	51	12474
2026-01-15 05:40:54.71	1.48	8.28	-40.5	-51.4	3.8	8.46e-01	0	54	104	0	51	12727
2026-01-15 05:40:57.74	1.16	8.48	-40.1	-51.2	3.8	8.47e-01	0	54	104	0	51	12441
2026-01-15 05:41:00.76	0.85	8.67	-40.2	-51.3	3.8	8.45e-01	0	54	104	0	51	12575
2026-01-15 05:41:03.79	0.53	8.87	-40.0	-51.2	3.8	8.46e-01	0	54	104	0	51	12477
2026-01-15 05:41:06.82	0.20	9.06	-39.7	-51.3	3.8	8.46e-01	0	54	104	0	50	13373
2026-01-15 05:41:09.85	359.87	9.26	-40.1	-51.3	3.8	8.46e-01	0	55	104	0	50	13266
2026-01-15 05:41:12.88	359.53	9.46	-40.1	-51.3	3.8	8.47e-01	0	55	104	0	50	13389
2026-01-15 05:41:15.90	359.19	9.66	-39.8	-51.3	3.8	8.46e-01	0	55	104	0	50	13299
2026-01-15 05:41:18.93	358.85	9.86	-40.1	-51.4	3.8	8.46e-01	0	55	104	0	50	13487
2026-01-15 05:41:21.96	358.50	10.06	-40.0	-51.2	3.8	8.46e-01	0	55	104	0	50	13159
2026-01-15 05:41:24.99	358.14	10.26	-40.3	-51.5	3.8	8.47e-01	0	55	104	0	50	13613
2026-01-15 05:41:28.02	357.78	10.46	-39.9	-51.2	3.8	8.46e-01	0	55	104	0	50	13202
2026-01-15 05:41:31.05	357.41	10.66	-40.6	-51.5	3.8	8.46e-01	0	55	104	0	50	13636
2026-01-15 05:41:34.08	357.04	10.86	-40.2	-51.4	3.8	8.46e-01	0	55	104	0	50	13489
2026-01-15 05:41:37.11	356.67	11.06	-40.1	-51.2	3.8	8.45e-01	0	56	104	0	50	13252
2026-01-15 05:41:40.14	356.29	11.26	-40.3	-51.3	3.8	8.45e-01	0	56	104	0	50	13297
2026-01-15 05:41:43.16	355.90	11.47	-41.1	-51.8	3.8	8.47e-01	0	56	104	0	52	12605
2026-01-15 05:41:46.20	355.51	11.67	-40.5	-51.5	3.8	8.45e-01	0	56	104	0	51	12921
2026-01-15 05:41:49.23	355.11	11.87	-40.6	-51.7	3.8	8.47e-01	0	56	104	0	51	13116
2026-01-15 05:41:52.26	354.70	12.08	-40.7	-51.7	3.8	8.47e-01	0	56	104	0	51	13120
2026-01-15 05:41:55.29	354.29	12.28	-40.9	-51.7	3.8	8.46e-01	0	56	104	0	51	13259
2026-01-15 05:41:58.32	353.88	12.49	-40.9	-51.9	3.8	8.46e-01	0	56	104	0	51	13450
2026-01-15 05:42:01.35	353.46	12.69	-40.9	-51.8	3.8	8.46e-01	0	56	104	0	51	13320
2026-01-15 05:42:04.38	353.03	12.90	-40.9	-51.8	3.8	8.46e-01	0	56	104	0	51	13320
2026-01-15 05:42:07.41	352.60	13.10	-41.0	-52.1	3.8	8.46e-01	0	56	104	0	51	13742
2026-01-15 05:42:10.44	352.16	13.31	-40.9	-51.9	3.8	8.46e-01	0	56	104	0	51	13507
2026-01-15 05:42:13.47	351.71	13.51	-41.1	-52.1	3.8	8.46e-01	0	56	104	0	51	13766
2026-01-15 05:42:16.50	351.26	13.72	-41.2	-52.1	3.8	8.46e-01	0	56	104	0	52	13033
2026-01-15 05:42:19.53	350.80	13.92	-41.1	-52.2	3.8	8.46e-01	0	56	104	0	52	13138
2026-01-15 05:42:22.56	350.33	14.13	-40.9	-52.1	3.8	8.45e-01	0	56	104	0	52	13004
2026-01-15 05:42:25.59	349.86	14.33	-41.0	-52.1	3.8	8.47e-01	0	56	104	0	52	12975
2026-01-15 05:42:28.61	349.38	14.54	-40.9	-52.0	3.8	8.46e-01	0	56	104	0	52	12914
2026-01-15 05:42:31.64	348.90	14.74	-41.0	-52.3	3.8	8.47e-01	0	57	104	0	52	13280
2026-01-15 05:42:34.67	348.40	14.94	-41.8	-52.8	3.8	8.47e-01	0	56	104	0	53	13317
2026-01-15 05:42:37.69	347.91	15.15	-41.8	-52.7	3.8	8.47e-01	0	56	104	0	53	13203
2026-01-15 05:42:40.72	347.40	15.35	-41.7	-52.6	3.8	8.47e-01	0	57	104	0	53	13105
2026-01-15 05:42:43.75	346.89	15.55	-41.8	-52.8	3.8	8.45e-01	0	57	104	0	53	13378
2026-01-15 05:42:46.78	346.37	15.75	-41.5	-52.5	3.8	8.46e-01	0	57	104	0	53	12842
2026-01-15 05:42:49.81	345.84	15.95	-41.2	-52.1	3.8	8.44e-01	0	57	104	0	53	12324
2026-01-15 05:42:52.83	345.30	16.15	-41.4	-52.3	3.8	8.47e-01	0	57	104	0	53	12635
2026-01-15 05:42:55.86	344.76	16.35	-41.2	-52.1	3.8	8.45e-01	0	57	104	0	52	13040
2026-01-15 05:42:58.89	344.21	16.55	-41.1	-52.2	3.8	8.46e-01	0	57	104	0	52	13256
2026-01-15 05:43:01.92	343.66	16.75	-41.0	-52.1	3.8	8.46e-01	0	57	104	0	51	13794
2026-01-15 05:43:04.94	343.09	16.94	-40.8	-52.1	3.8	8.47e-01	0	57	104	0	51	13764
2026-01-15 05:43:07.98	342.52	17.14	-41.0	-52.0	3.8	8.46e-01	0	57	104	0	51	13617
2026-01-15 05:43:11.01	341.94	17.33	-41.3	-52.1	3.8	8.46e-01	0	57	104	0	52	13015
2026-01-15 05:43:14.04	341.35	17.52	-40.6	-51.9	3.8	8.46e-01	0	57	104	0	52	12740
2026-01-15 05:43:17.07	340.76	17.71	-41.5	-52.3	3.8	8.46e-01	0	57	104	0	52	13407
2026-01-15 05:43:20.10	340.15	17.90	-41.0	-51.5	3.8	8.47e-01	0	57	104	0	52	12141
2026-01-15 05:43:23.13	339.54	18.08	-41.2	-50.2	3.8	8.45e-01	0	57	104	0	52	10443
2026-01-15 05:43:26.15	338.93	18.27	-41.7	-48.3	4.9	7.94e-01	0	57	0	0	53	7916
2026-01-15 05:43:29.18	338.30	18.45	-41.6	-46.6	6.3	2.81e-01	0	57	0	9437184	53	6515
2026-01-15 05:43:32.21	337.67	18.63	-41.2	-45.3	7.8	8.36e-02	0	57	0	31457280	53	5612
2026-01-15 05:43:35.24	337.03	18.80	-41.2	-44.8	8.7	3.72e-02	0	57	0	53477376	53	5323
2026-01-15 05:43:38.26	336.39	18.98	-41.4	-44.8	9.2	2.14e-02	0	57	0	75497472	53	5320
2026-01-15 05:43:41.28	335.73	19.15	-41.6	-45.1	9.1	2.56e-02	0	57	0	97517568	53	5480
2026-01-15 05:43:44.31	335.07	19.32	-41.7	-45.2	9.1	2.38e-02	0	57	0	118489088	53	5546
2026-01-15 05:43:47.33	334.40	19.48	-41.2	-44.2	10.2	7.24e-03	0	57	0	140509184	53	4959
2026-01-15 05:43:50.36	333.72	19.65	-40.6	-43.1	11.5	1.01e-03	0	57	0	162529280	52	4637
2026-01-15 05:43:53.39	333.04	19.81	-39.3	-41.2	13.7	8.00e-06	0	57	0	184549376	49	4414
2026-01-15 05:43:56.42	332.35	19.96	-37.8	-39.3	15.4	0.00e+00	0	57	0	206569472	46	4237
2026-01-15 05:43:59.45	331.65	20.12	-36.9	-38.3	16.5	0.00e+00	0	57	0	228589568	44	4228
2026-01-15 05:44:02.48	330.94	20.27	-36.8	-38.2	16.7	0.00e+00	0	57	0	250609664	44	4176
2026-01-15 05:44:05.51	330.23	20.41	-36.7	-38.0	16.9	0.00e+00	0	57	0	271581184	44	4085
2026-01-15 05:44:08.54	329.51	20.55	-36.7	-38.1	16.8	0.00e+00	0	57	0	293601280	44	4109
2026-01-15 05:44:11.57	328.78	20.69	-36.5	-37.8	17.1	0.00e+00	0	57	0	315621376	44	3999
2026-01-15 05:44:14.60	328.05	20.83	-36.3	-37.6	17.1	0.00e+00	0	58	0	337641472	43	4127
2026-01-15 05:44:17.63	327.31	20.96	-36.0	-37.3	17.5	0.00e+00	0	57	0	359661568	43	3970
2026-01-15 05:44:20.66	326.56	21.08	-36.0	-37.2	17.5	0.00e+00	0	57	0	381681664	42	4174
2026-01-15 05:44:23.69	325.81	21.20	-36.0	-37.3	17.5	0.00e+00	0	57	0	403701760	42	4196
2026-01-15 05:44:26.72	325.05	21.32	-36.0	-37.2	17.6	0.00e+00	0	57	0	425721856	42	4183
2026-01-15 05:44:29.75	324.29	21.43	-36.0	-37.3	17.5	0.00e+00	0	57	0	446693376	42	4206
2026-01-15 05:44:32.78	323.52	21.53	-36.0	-37.2	17.6	0.00e+00	0	58	0	468713472	42	4180
2026-01-15 05:44:35.81	322.74	21.63	-35.8	-37.0	17.8	0.00e+00	0	58	0	490733568	42	4081
2026-01-15 05:44:38.83	321.96	21.73	-35.7	-36.9	17.9	0.00e+00	0	57	0	512753664	42	4014
2026-01-15 05:44:41.86	321.18	21.82	-35.7	-36.9	17.9	0.00e+00	0	57	0	533725184	42	4017
2026-01-15 05:44:44.88	320.39	21.90	-35.7	-36.9	17.9	0.00e+00	0	57	0	555745280	42	4027
2026-01-15 05:44:47.90	319.60	21.98	-35.8	-37.1	17.7	0.00e+00	0	58	0	577765376	42	4119
2026-01-15 05:44:50.93	318.81	22.06	-35.8	-37.1	17.7	0.00e+00	0	58	0	599785472	42	4110
2026-01-15 05:44:53.95	318.01	22.12	-35.9	-37.2	17.6	0.00e+00	0	57	0	621805568	42	4156
2026-01-15 05:44:56.98	317.20	22.19	-35.9	-37.1	17.7	0.00e+00	0	58	0	643825664	42	4128
2026-01-15 05:45:00.01	316.40	22.24	-35.8	-37.0	17.8	0.00e+00	0	58	0	664797184	42	4093
2026-01-15 05:45:03.04	315.59	22.29	-35.9	-37.1	17.7	0.00e+00	0	58	0	686817280	42	4130
2026-01-15 05:45:06.07	314.77	22.34	-35.8	-37.0	17.8	0.00e+00	0	58	0	708837376	42	4054
2026-01-15 05:45:09.10	313.96	22.37	-35.8	-37.0	17.8	0.00e+00	0	58	0	730857472	42	4085
2026-01-15 05:45:12.12	313.14	22.41	-35.9	-37.1	17.7	0.00e+00	0	58	0	752877568	42	4133
2026-01-15 05:45:15.15	312.33	22.43	-35.8	-37.0	17.9	0.00e+00	0	58	0	774897664	42	4058
2026-01-15 05:45:18.17	311.51	22.45	-35.8	-37.0	17.8	0.00e+00	0	58	0	796917760	42	4077
2026-01-15 05:45:21.19	310.69	22.46	-35.9	-37.1	17.7	0.00e+00	0	57	0	817889280	42	4125
2026-01-15 05:45:24.22	309.87	22.47	-35.9	-37.1	17.8	0.00e+00	0	58	0	839909376	42	4119
2026-01-15 05:45:27.25	309.05	22.47	-35.7	-36.9	17.9	0.00e+00	0	58	0	861929472	42	4023
2026-01-15 05:45:30.28	308.23	22.47	-35.7	-36.9	17.9	0.00e+00	0	58	0	883949568	42	4028
2026-01-15 05:45:33.31	307.41	22.45	-35.6	-36.8	18.0	0.00e+00	0	58	0	905969664	42	3985
2026-01-15 05:45:36.34	306.59	22.44	-35.7	-36.9	18.0	0.00e+00	0	57	0	927989760	42	4018
2026-01-15 05:45:39.37	305.77	22.41	-35.8	-37.0	17.8	0.00e+00	0	58	0	950009856	42	4098
2026-01-15 05:45:42.39	304.95	22.38	-35.7	-36.9	18.0	0.00e+00	0	58	0	970981376	42	4010
2026-01-15 05:45:45.42	304.14	22.34	-35.8	-37.0	17.8	0.00e+00	0	58	0	993001472	42	4073
2026-01-15 05:45:48.45	303.32	22.30	-36.0	-37.3	17.6	0.00e+00	0	58	0	1015021568	42	4196
2026-01-15 05:45:51.47	302.51	22.25	-35.8	-37.0	17.9	0.00e+00	0	58	0	1037041664	42	4062
2026-01-15 05:45:54.50	301.70	22.20	-35.8	-37.1	17.7	0.00e+00	0	58	0	1059061760	42	4109
2026-01-15 05:45:57.53	300.90	22.14	-36.0	-37.2	17.6	0.00e+00	0	58	0	1081081856	42	4178
2026-01-15 05:46:00.56	300.10	22.07	-36.0	-37.3	17.6	0.00e+00	0	58	0	1102053376	42	4202
2026-01-15 05:46:03.59	299.30	22.00	-35.9	-37.2	17.7	0.00e+00	0	58	0	1124073472	42	4148
2026-01-15 05:46:06.61	298.50	21.92	-35.9	-37.2	17.7	0.00e+00	0	58	0	1146093568	42	4148
2026-01-15 05:46:09.64	297.71	21.84	-35.9	-37.1	17.7	0.00e+00	0	58	0	1168113664	42	4140
2026-01-15 05:46:12.67	296.93	21.75	-35.9	-37.2	17.6	0.00e+00	0	58	0	1190133760	42	4165
2026-01-15 05:46:15.70	296.14	21.65	-35.9	-37.2	17.6	0.00e+00	0	58	0	1212153856	42	4160
2026-01-15 05:46:18.73	295.37	21.55	-36.0	-37.2	17.6	0.00e+00	0	58	0	1234173952	42	4192
2026-01-15 05:46:21.75	294.60	21.45	-35.8	-37.1	17.8	0.00e+00	0	58	0	1255145472	42	4103
2026-01-15 05:46:24.78	293.83	21.34	-35.8	-37.0	17.8	0.00e+00	0	58	0	1277165568	42	4086
2026-01-15 05:46:27.80	293.07	21.22	-35.9	-37.2	17.7	0.00e+00	0	58	0	1299185664	42	4147
2026-01-15 05:46:30.83	292.32	21.10	-35.9	-37.1	17.7	0.00e+00	0	58	0	1321205760	42	4116
2026-01-15 05:46:33.86	291.57	20.98	-35.8	-37.1	17.7	0.00e+00	0	58	0	1343225856	42	4108
2026-01-15 05:46:36.89	290.82	20.85	-35.9	-37.1	17.7	0.00e+00	0	58	0	1365245952	42	4141
2026-01-15 05:46:39.92	290.09	20.72	-35.8	-37.0	17.8	0.00e+00	0	58	0	1387266048	42	4084
2026-01-15 05:46:42.94	289.36	20.58	-35.7	-36.9	17.9	0.00e+00	0	58	0	1408237568	42	4039
2026-01-15 05:46:45.98	288.63	20.44	-35.8	-37.0	17.8	0.00e+00	0	58	0	1430257664	42	4068
2026-01-15 05:46:49.00	287.92	20.29	-35.8	-37.0	17.8	0.00e+00	0	58	0	1452277760	42	4073
2026-01-15 05:46:52.03	287.20	20.14	-35.9	-37.2	17.6	0.00e+00	0	58	0	1474297856	42	4151
2026-01-15 05:46:55.05	286.50	19.99	-36.1	-37.4	17.4	0.00e+00	0	58	0	1495269376	42	4260
2026-01-15 05:46:58.07	285.81	19.84	-36.2	-37.4	17.3	0.00e+00	0	58	0	1517289472	42	4287
2026-01-15 05:47:01.10	285.12	19.68	-36.0	-37.3	17.5	0.00e+00	0	58	0	1539309568	42	4194
2026-01-15 05:47:04.12	284.44	19.51	-36.0	-37.3	17.4	0.00e+00	0	58	0	1561329664	42	4214
2026-01-15 05:47:07.15	283.77	19.35	-36.2	-37.5	17.2	0.00e+00	0	58	0	1583349760	42	4330
2026-01-15 05:47:10.18	283.10	19.18	-36.3	-37.6	17.2	0.00e+00	0	58	0	1605369856	42	4367
2026-01-15 05:47:13.21	282.44	19.01	-36.2	-37.5	17.3	0.00e+00	0	58	0	1626341376	42	4295
2026-01-15 05:47:16.24	281.79	18.83	-36.2	-37.5	17.2	0.00e+00	0	58	0	1648361472	42	4310
2026-01-15 05:47:19.27	281.14	18.65	-36.4	-37.7	17.0	0.00e+00	0	58	0	1670381568	42	4434
2026-01-15 05:47:22.29	280.51	18.48	-36.5	-37.9	16.9	0.00e+00	0	58	0	1692401664	42	4498
2026-01-15 05:47:25.32	279.88	18.29	-36.5	-37.8	16.9	0.00e+00	0	58	0	1714421760	42	4491
2026-01-15 05:47:28.35	279.25	18.11	-36.5	-37.9	16.8	0.00e+00	0	58	0	1736441856	42	4510
2026-01-15 05:47:31.37	278.64	17.92	-36.6	-37.9	16.7	0.00e+00	0	58	0	1758461952	42	4539
2026-01-15 05:47:34.39	278.04	17.74	-36.5	-37.9	16.8	0.00e+00	0	58	0	1779433472	42	4496
2026-01-15 05:47:37.42	277.44	17.55	-36.6	-37.9	16.7	0.00e+00	0	58	0	1801453568	42	4532
2026-01-15 05:47:40.46	276.84	17.35	-36.6	-38.0	16.7	0.00e+00	0	58	0	1823473664	42	4565
2026-01-15 05:47:43.48	276.26	17.16	-36.7	-38.1	16.6	0.00e+00	0	58	0	1845493760	43	4352
2026-01-15 05:47:46.52	275.68	16.97	-36.7	-38.1	16.6	0.00e+00	0	58	0	1867513856	43	4352
2026-01-15 05:47:49.55	275.11	16.77	-36.8	-38.2	16.5	0.00e+00	0	58	0	1889533952	43	4403
2026-01-15 05:47:52.57	274.55	16.57	-36.9	-38.3	16.3	0.00e+00	0	58	0	1911554048	43	4469
2026-01-15 05:47:55.60	274.00	16.38	-37.0	-38.4	16.2	0.00e+00	0	58	0	1932525568	43	4537
2026-01-15 05:47:58.63	273.45	16.18	-36.9	-38.3	16.3	0.00e+00	0	58	0	1954545664	43	4477
2026-01-15 05:48:01.65	272.91	15.98	-36.9	-38.3	16.3	0.00e+00	0	58	0	1976565760	43	4462
2026-01-15 05:48:04.68	272.38	15.77	-37.0	-38.4	16.2	0.00e+00	0	58	0	1998585856	43	4528
2026-01-15 05:48:07.71	271.86	15.57	-37.0	-38.5	16.1	0.00e+00	0	58	0	2020605952	43	4559
2026-01-15 05:48:10.74	271.34	15.37	-37.1	-38.5	16.0	0.00e+00	0	58	0	2042626048	43	4586
2026-01-15 05:48:13.77	270.83	15.17	-37.0	-38.5	16.1	0.00e+00	0	58	0	2064646144	43	4558
2026-01-15 05:48:16.80	270.32	14.96	-37.1	-38.6	16.0	0.00e+00	0	58	0	2085617664	43	4621
2026-01-15 05:48:19.83	269.82	14.76	-37.5	-39.0	15.7	0.00e+00	0	58	0	2107637760	44	4560
2026-01-15 05:48:22.86	269.33	14.55	-37.6	-39.1	15.5	0.00e+00	0	58	0	2129657856	44	4650
2026-01-15 05:48:25.89	268.85	14.35	-37.6	-39.1	15.6	0.00e+00	0	58	0	2151677952	44	4651
2026-01-15 05:48:28.91	268.38	14.14	-37.7	-39.2	15.4	0.00e+00	0	58	0	2173698048	44	4682
2026-01-15 05:48:31.94	267.90	13.94	-37.7	-39.3	15.3	0.00e+00	0	58	0	2195718144	45	4480
2026-01-15 05:48:34.97	267.44	13.73	-37.7	-39.3	15.4	0.00e+00	0	58	0	2217738240	45	4444
2026-01-15 05:48:37.98	266.99	13.53	-37.5	-39.1	15.6	0.00e+00	0	58	0	2238709760	45	4352
2026-01-15 05:48:41.01	266.54	13.32	-37.6	-39.2	15.4	0.00e+00	0	58	0	2260729856	45	4412
2026-01-15 05:48:44.03	266.09	13.11	-37.6	-39.2	15.4	0.00e+00	0	58	0	2282749952	45	4404
2026-01-15 05:48:47.06	265.65	12.91	-37.7	-39.2	15.3	0.00e+00	0	58	0	2303721472	45	4437
2026-01-15 05:48:50.08	265.22	12.70	-37.6	-39.2	15.4	0.00e+00	0	58	0	2325741568	45	4416
2026-01-15 05:48:53.11	264.80	12.50	-37.7	-39.3	15.2	0.00e+00	0	58	0	2347761664	45	4467
2026-01-15 05:48:56.13	264.38	12.29	-37.9	-39.5	15.0	0.00e+00	0	58	0	2369781760	45	4594
2026-01-15 05:48:59.16	263.96	12.09	-38.0	-39.7	14.8	0.00e+00	0	58	0	2391801856	45	4690
2026-01-15 05:49:02.19	263.56	11.88	-38.2	-39.9	14.6	0.00e+00	0	58	0	2413821952	45	4814
2026-01-15 05:49:05.21	263.16	11.68	-38.2	-39.9	14.5	0.00e+00	0	58	0	2435842048	46	4542
2026-01-15 05:49:08.24	262.76	11.47	-38.1	-39.8	14.7	1.10e-06	0	58	0	2456813568	46	4478
2026-01-15 05:49:11.26	262.37	11.27	-38.2	-39.9	14.5	2.20e-06	0	58	0	2478833664	46	4532
2026-01-15 05:49:14.29	261.98	11.07	-38.4	-40.2	14.2	2.20e-06	0	58	0	2500853760	46	4696
2026-01-15 05:49:17.31	261.60	10.87	-38.3	-40.0	14.4	1.10e-06	0	58	0	2522873856	46	4580
2026-01-15 05:49:20.34	261.23	10.66	-38.1	-39.8	14.6	0.00e+00	0	58	0	2544893952	46	4481
2026-01-15 05:49:23.37	260.86	10.46	-38.2	-39.9	14.5	1.10e-06	0	58	0	2566914048	46	4538
2026-01-15 05:49:26.39	260.49	10.26	-38.5	-40.3	14.1	1.10e-06	0	58	0	2587885568	46	4747
2026-01-15 05:49:29.42	260.13	10.06	-38.6	-40.5	13.9	2.20e-06	0	58	0	2609905664	46	4846
2026-01-15 05:49:32.44	259.78	9.86	-38.5	-40.4	13.9	5.70e-06	0	58	0	2631925760	46	4800
2026-01-15 05:49:35.47	259.43	9.66	-38.5	-40.3	14.0	8.00e-06	0	58	0	2653945856	46	4745
2026-01-15 05:49:38.49	259.09	9.46	-38.7	-40.5	13.8	4.50e-06	0	58	0	2675965952	46	4865
2026-01-15 05:49:41.52	258.75	9.26	-38.9	-40.9	13.4	1.48e-05	0	58	0	2697986048	47	4800
2026-01-15 05:49:44.54	258.41	9.06	-39.5	-41.6	12.9	5.26e-05	0	58	0	2718957568	48	4895
2026-01-15 05:49:47.57	258.08	8.87	-39.3	-41.4	13.1	2.97e-05	0	58	0	2740977664	48	4760
2026-01-15 05:49:50.60	257.75	8.67	-39.3	-41.3	13.1	3.20e-05	0	58	0	2762997760	48	4759
2026-01-15 05:49:53.63	257.43	8.47	-39.1	-41.2	13.3	2.63e-05	0	58	0	2785017856	48	4660
2026-01-15 05:49:56.66	257.11	8.28	-39.0	-41.0	13.5	8.00e-06	0	58	0	2807037952	48	4560
2026-01-15 05:49:59.69	256.80	8.08	-39.0	-41.0	13.4	9.10e-06	0	58	0	2829058048	48	4582
2026-01-15 05:50:02.71	256.49	7.89	-45.2	-56.5	3.8	8.46e-01	0	59	104	2835349504	60	13642
2026-01-15 05:50:05.74	256.19	7.70	-45.5	-56.9	3.8	8.46e-01	0	58	104	2835349504	60	14236
2026-01-15 05:50:08.76	255.89	7.50	-45.6	-57.0	3.8	8.47e-01	0	58	104	2835349504	60	14490
2026-01-15 05:50:11.79	255.59	7.31	-45.6	-56.9	3.8	8.46e-01	0	58	104	2835349504	60	14345
2026-01-15 05:50:14.81	255.30	7.12	-45.6	-56.9	3.8	8.46e-01	0	58	104	2835349504	60	14328
2026-01-15 05:50:17.85	255.01	6.93	-45.5	-56.9	3.8	8.47e-01	0	58	104	2835349504	60	14329
2026-01-15 05:50:20.87	254.72	6.74	-45.5	-56.9	3.8	8.47e-01	0	58	104	2835349504	60	14235
2026-01-15 05:50:23.90	254.44	6.55	-45.5	-56.9	3.8	8.46e-01	0	58	104	2835349504	60	14227
2026-01-15 05:50:26.93	254.17	6.36	-45.5	-56.8	3.8	8.47e-01	0	58	104	2835349504	60	14201
2026-01-15 05:50:29.96	253.89	6.18	-45.5	-56.8	3.8	8.45e-01	0	58	104	2835349504	60	14209
2026-01-15 05:50:32.99	253.62	5.99	-45.5	-56.8	3.8	8.46e-01	0	58	104	2835349504	60	14200
2026-01-15 05:50:36.02	253.35	5.80	-45.5	-56.8	3.8	8.46e-01	0	58	104	2835349504	60	14146
2026-01-15 05:50:39.05	253.09	5.62	-45.5	-56.8	3.8	8.46e-01	0	58	104	2835349504	60	14134
2026-01-15 05:50:42.08	252.83	5.43	-45.5	-56.8	3.8	8.47e-01	0	58	104	2835349504	60	14182
2026-01-15 05:50:45.11	252.57	5.25	-45.5	-56.9	3.8	8.46e-01	0	58	104	2835349504	60	14215
2026-01-15 05:50:48.13	252.32	5.07	-45.4	-56.8	3.8	8.45e-01	0	58	104	2835349504	60	14203
2026-01-15 05:50:51.16	252.07	4.88	-45.4	-56.8	3.8	8.46e-01	0	59	104	2835349504	60	14177
2026-01-15 05:50:54.20	251.82	4.70	-45.5	-56.8	3.8	8.47e-01	0	58	104	2835349504	60	14178
2026-01-15 05:50:57.23	251.58	4.52	-45.5	-56.9	3.8	8.46e-01	0	58	104	2835349504	60	14257
2026-01-15 05:51:00.26	251.34	4.34	-45.5	-56.8	3.8	8.47e-01	0	58	104	2835349504	60	14186
2026-01-15 05:51:03.29	251.10	4.16	-45.5	-56.8	3.8	8.44e-01	0	58	104	2835349504	60	14195
2026-01-15 05:51:06.32	250.87	3.98	-45.5	-56.8	3.8	8.46e-01	0	58	104	2835349504	60	14201
2026-01-15 05:51:09.35	250.63	3.81	-45.5	-56.8	3.8	8.47e-01	0	58	104	2835349504	60	14142
2026-01-15 05:51:12.38	250.41	3.63	-45.5	-56.8	3.8	8.46e-01	0	58	104	2835349504	60	14187
2026-01-15 05:51:15.40	250.18	3.45	-45.5	-56.8	3.8	8.46e-01	0	59	104	2835349504	60	14191
2026-01-15 05:51:18.43	249.96	3.28	-45.5	-56.9	3.8	8.46e-01	0	58	104	2835349504	60	14257
2026-01-15 05:51:21.46	249.74	3.10	-45.5	-56.9	3.8	8.46e-01	0	58	104	2835349504	60	14235
2026-01-15 05:51:24.49	249.52	2.93	-45.5	-56.8	3.8	8.46e-01	0	59	104	2835349504	60	14131
2026-01-15 05:51:27.52	249.30	2.75	-45.5	-56.8	3.8	8.46e-01	0	59	104	2835349504	60	14148
2026-01-15 05:51:30.55	249.09	2.58	-45.5	-56.9	3.8	8.45e-01	0	59	104	2835349504	60	14227
2026-01-15 05:51:33.57	248.88	2.41	-45.5	-56.8	3.8	8.45e-01	0	59	104	2835349504	60	14143
2026-01-15 05:51:36.60	248.67	2.24	-45.5	-56.8	3.8	8.46e-01	0	59	104	2835349504	60	14163
2026-01-15 05:51:39.63	248.47	2.07	-45.5	-56.8	3.8	8.46e-01	0	59	104	2835349504	60	14134

#Closed at: 2026-01-15 05:51:41
#Recorded file [2835 MB]: D:/lorett/data/31039_260115_083911.dat