passes_logs/2026/01/15/R2.0S_Moscow/R2.0S_Moscow__20260115_013538_NOAA_20_JPSS-1_rec.log

#Pass ID: 20260115_013538_NOAA 20 (JPSS-1)
#Satellite: NOAA 20 (JPSS-1)
#Configuration: NOAA 20
#almurnet v.1.7.20251203
#Start time: 2026-01-15 01:42:30

#Version: 2.2.20231116
#Station: R2.0S_Moscow
#Location: 37.707566 lon 55.798166 lat
#TLE: 1 43013U 17073A   26014.13176244  .00000049  00000+0  44136-4 0  9994
#TLE: 2 43013  98.7634 315.0803 0001538  40.6488 319.4803 14.19535812422619

#Time	Az	El	Level	Level2	SNR	BER	BlckErr	Temp	State	Recorded	gain1	gain2
2026-01-15 01:42:30.43	300.33	18.69	-45.2	-63.2	3.8	8.46e-01	0	57	0	0	61	29553
2026-01-15 01:42:32.44	299.86	18.64	-45.3	-59.8	3.8	1.49e+00	0	57	104	0	62	18761
2026-01-15 01:42:34.45	299.39	18.58	-45.2	-59.7	3.8	1.49e+00	0	57	104	0	62	18596
2026-01-15 01:42:36.47	298.93	18.53	-45.1	-59.7	3.8	1.49e+00	0	57	104	0	62	18551
2026-01-15 01:42:38.49	298.46	18.47	-45.0	-59.5	3.8	1.49e+00	0	57	104	0	62	18248
2026-01-15 01:42:40.51	297.99	18.41	-44.8	-59.1	3.8	1.49e+00	0	57	104	0	61	18382
2026-01-15 01:42:42.53	297.53	18.35	-44.5	-58.9	3.8	1.49e+00	0	57	104	0	61	17961
2026-01-15 01:42:44.55	297.07	18.28	-44.5	-58.9	3.8	1.49e+00	0	57	104	0	60	19157
2026-01-15 01:42:46.57	296.61	18.22	-44.5	-59.1	3.8	1.49e+00	0	57	104	0	60	19477
2026-01-15 01:42:48.58	296.15	18.15	-44.4	-59.0	3.8	1.49e+00	0	57	104	0	60	19284
2026-01-15 01:42:50.60	295.70	18.08	-44.4	-59.0	3.8	1.49e+00	0	57	104	0	60	19258
2026-01-15 01:42:52.62	295.24	18.01	-44.4	-59.1	3.8	1.49e+00	0	57	104	0	60	19443
2026-01-15 01:42:54.64	294.79	17.94	-44.4	-59.0	3.8	1.49e+00	0	57	104	0	60	19265
2026-01-15 01:42:56.66	294.34	17.86	-44.4	-58.3	3.8	1.49e+00	0	57	104	0	60	17847
2026-01-15 01:42:58.68	293.89	17.79	-44.3	-58.1	3.8	1.49e+00	0	57	104	0	60	17452
2026-01-15 01:43:00.70	293.45	17.71	-44.4	-58.7	3.8	1.49e+00	0	57	104	0	60	18724
2026-01-15 01:43:02.72	293.01	17.63	-44.4	-58.5	3.8	1.49e+00	0	57	104	0	60	18195
2026-01-15 01:43:04.74	292.57	17.55	-44.3	-57.4	3.8	1.49e+00	0	58	104	0	60	16072
2026-01-15 01:43:06.76	292.13	17.47	-44.3	-57.3	3.8	1.49e+00	0	57	104	0	60	15807
2026-01-15 01:43:08.78	291.69	17.39	-44.4	-58.5	3.8	1.49e+00	0	57	104	0	60	18280
2026-01-15 01:43:10.80	291.26	17.31	-44.4	-58.5	3.8	1.49e+00	0	57	104	0	60	18270
2026-01-15 01:43:12.83	290.83	17.22	-44.1	-54.0	4.8	1.31e+00	0	57	0	0	60	10875
2026-01-15 01:43:14.85	290.40	17.13	-43.7	-50.9	6.8	2.20e-01	0	57	0	4194304	59	8047
2026-01-15 01:43:16.87	289.97	17.04	-43.8	-51.3	6.5	1.62e-01	0	57	0	7340032	59	8373
2026-01-15 01:43:18.88	289.55	16.96	-44.3	-54.8	4.4	8.34e-01	69	57	0	11534336	59	12529
2026-01-15 01:43:20.90	289.13	16.86	-44.0	-52.9	5.3	7.45e-01	0	58	0	13631488	59	10105
2026-01-15 01:43:22.92	288.71	16.77	-43.0	-48.6	9.0	6.30e-02	0	58	0	17825792	58	6535
2026-01-15 01:43:24.94	288.30	16.68	-44.2	-54.8	4.4	3.19e-01	74	58	0	22020096	58	13273
2026-01-15 01:43:26.95	287.89	16.59	-44.3	-56.9	3.8	7.23e-01	0	57	104	25165824	59	16122
2026-01-15 01:43:28.98	287.47	16.49	-42.8	-47.9	9.9	5.96e-02	0	57	0	26214400	56	6794
2026-01-15 01:43:31.00	287.07	16.39	-42.4	-47.0	10.7	3.44e-03	0	57	0	30408704	56	6125
2026-01-15 01:43:33.01	286.66	16.30	-42.5	-47.1	10.6	3.73e-03	0	58	0	34603008	56	6197
2026-01-15 01:43:35.03	286.26	16.20	-42.6	-47.5	10.2	5.35e-03	0	58	0	37748736	56	6471
2026-01-15 01:43:37.05	285.86	16.10	-42.6	-47.4	10.3	5.40e-03	0	57	0	41943040	56	6378
2026-01-15 01:43:39.06	285.47	16.00	-42.5	-47.2	10.5	3.96e-03	0	58	0	46137344	56	6229
2026-01-15 01:43:41.08	285.07	15.90	-42.5	-47.2	10.4	4.14e-03	0	58	0	49283072	56	6261
2026-01-15 01:43:43.10	284.68	15.79	-42.4	-47.1	10.6	3.38e-03	0	57	0	53477376	56	6154
2026-01-15 01:43:45.11	284.29	15.69	-42.4	-46.9	10.8	2.62e-03	0	57	0	56623104	56	6021
2026-01-15 01:43:47.13	283.91	15.59	-42.4	-47.0	10.6	3.21e-03	0	58	0	60817408	56	6128
2026-01-15 01:43:49.14	283.52	15.48	-42.5	-47.4	10.3	4.79e-03	0	58	0	65011712	56	6370
2026-01-15 01:43:51.16	283.14	15.37	-42.6	-47.5	10.1	6.94e-03	0	58	0	68157440	56	6459
2026-01-15 01:43:53.18	282.76	15.27	-42.5	-47.3	10.3	5.70e-03	0	58	0	72351744	56	6346
2026-01-15 01:43:55.19	282.39	15.16	-42.5	-47.3	10.4	5.35e-03	0	58	0	75497472	56	6284
2026-01-15 01:43:57.21	282.02	15.05	-42.5	-47.3	10.3	4.87e-03	0	57	0	79691776	56	6294
2026-01-15 01:43:59.22	281.65	14.94	-42.5	-47.5	10.1	6.61e-03	0	57	0	83886080	56	6451
2026-01-15 01:44:01.24	281.28	14.83	-42.7	-47.8	9.7	9.93e-03	0	57	0	87031808	56	6711
2026-01-15 01:44:03.26	280.92	14.72	-42.7	-47.9	9.6	1.26e-02	0	58	0	91226112	56	6777
2026-01-15 01:44:05.28	280.56	14.61	-42.6	-47.7	9.8	1.05e-02	0	58	0	94371840	56	6632
2026-01-15 01:44:07.30	280.20	14.50	-42.5	-47.4	10.2	6.33e-03	0	58	0	98566144	56	6354
2026-01-15 01:44:09.32	279.84	14.39	-42.5	-47.3	10.3	4.90e-03	0	58	0	102760448	56	6275
2026-01-15 01:44:11.33	279.49	14.28	-42.5	-47.4	10.1	5.39e-03	0	58	0	105906176	56	6408
2026-01-15 01:44:13.35	279.14	14.16	-42.7	-48.0	9.5	1.26e-02	0	58	0	110100480	56	6836
2026-01-15 01:44:15.37	278.79	14.05	-42.9	-48.4	9.1	2.05e-02	0	58	0	113246208	56	7168
2026-01-15 01:44:17.38	278.45	13.93	-42.9	-48.4	9.1	2.33e-02	0	57	0	117440512	56	7156
2026-01-15 01:44:19.41	278.10	13.82	-42.8	-48.4	9.1	2.31e-02	0	57	0	121634816	56	7137
2026-01-15 01:44:21.42	277.76	13.70	-42.8	-48.3	9.2	1.95e-02	0	57	0	124780544	56	7066
2026-01-15 01:44:23.44	277.42	13.59	-42.9	-48.5	9.0	2.30e-02	0	57	0	128974848	56	7230
2026-01-15 01:44:25.46	277.09	13.47	-42.9	-48.7	8.8	3.01e-02	0	57	0	132120576	56	7406
2026-01-15 01:44:27.48	276.76	13.35	-42.9	-48.7	8.7	3.31e-02	0	58	0	136314880	56	7405
2026-01-15 01:44:29.50	276.43	13.24	-43.0	-48.8	8.5	3.96e-02	0	58	0	140509184	56	7537
2026-01-15 01:44:31.51	276.10	13.12	-42.8	-48.3	9.2	2.54e-02	0	58	0	143654912	56	7062
2026-01-15 01:44:33.53	275.78	13.00	-42.7	-48.1	9.4	1.63e-02	0	58	0	147849216	56	6891
2026-01-15 01:44:35.55	275.46	12.88	-42.7	-48.2	9.2	2.00e-02	0	57	0	152043520	56	6968
2026-01-15 01:44:37.57	275.14	12.77	-42.8	-48.5	8.9	2.80e-02	0	57	0	155189248	56	7207
2026-01-15 01:44:39.58	274.82	12.65	-42.7	-48.2	9.1	2.21e-02	0	58	0	159383552	56	7000
2026-01-15 01:44:41.61	274.51	12.53	-42.7	-48.1	9.3	2.12e-02	0	58	0	162529280	56	6893
2026-01-15 01:44:43.62	274.20	12.41	-42.6	-48.0	9.4	1.70e-02	0	58	0	166723584	56	6838
2026-01-15 01:44:45.64	273.89	12.29	-42.4	-47.5	9.8	1.08e-02	0	58	0	170917888	56	6471
2026-01-15 01:44:47.66	273.58	12.17	-42.3	-47.3	9.9	8.93e-03	0	58	0	174063616	56	6345
2026-01-15 01:44:49.67	273.28	12.05	-42.3	-47.2	10.0	7.42e-03	0	58	0	178257920	56	6254
2026-01-15 01:44:51.69	272.98	11.93	-42.2	-47.2	10.0	8.08e-03	0	58	0	181403648	56	6229
2026-01-15 01:44:53.71	272.68	11.81	-42.3	-47.3	9.9	8.97e-03	0	58	0	185597952	56	6320
2026-01-15 01:44:55.73	272.38	11.69	-42.2	-47.2	9.9	9.27e-03	0	58	0	189792256	56	6274
2026-01-15 01:44:57.75	272.09	11.57	-42.2	-47.3	9.8	1.02e-02	0	57	0	192937984	56	6301
2026-01-15 01:44:59.76	271.80	11.45	-42.1	-47.2	9.8	9.85e-03	0	58	0	197132288	56	6206
2026-01-15 01:45:01.78	271.51	11.33	-42.1	-47.1	9.8	9.43e-03	0	58	0	200278016	56	6195
2026-01-15 01:45:03.80	271.22	11.21	-41.8	-46.8	9.9	9.12e-03	0	58	0	204472320	55	6318
2026-01-15 01:45:05.82	270.94	11.09	-41.7	-46.7	9.9	9.30e-03	0	58	0	208666624	55	6231
2026-01-15 01:45:07.84	270.66	10.96	-41.6	-46.5	10.1	6.39e-03	0	58	0	211812352	55	6068
2026-01-15 01:45:09.86	270.38	10.84	-41.5	-46.4	10.0	7.23e-03	0	58	0	216006656	55	6058
2026-01-15 01:45:11.88	270.10	10.72	-41.5	-46.4	10.0	7.75e-03	0	58	0	219152384	54	6377
2026-01-15 01:45:13.90	269.82	10.60	-41.4	-46.1	10.3	5.93e-03	0	58	0	223346688	54	6196
2026-01-15 01:45:15.92	269.55	10.48	-41.3	-46.1	10.3	5.26e-03	0	58	0	227540992	54	6152
2026-01-15 01:45:17.94	269.28	10.36	-41.3	-46.1	10.2	5.63e-03	0	58	0	230686720	54	6133
2026-01-15 01:45:19.95	269.01	10.24	-41.3	-46.1	10.2	6.02e-03	0	58	0	234881024	54	6154
2026-01-15 01:45:21.98	268.75	10.12	-41.3	-46.1	10.2	6.42e-03	0	58	0	239075328	54	6170
2026-01-15 01:45:23.99	268.48	9.99	-41.3	-46.3	9.9	7.54e-03	0	58	0	242221056	54	6336
2026-01-15 01:45:26.01	268.22	9.87	-41.4	-46.6	9.6	1.14e-02	0	58	0	246415360	54	6531
2026-01-15 01:45:28.03	267.96	9.75	-41.5	-46.9	9.2	1.91e-02	0	58	0	249561088	54	6749
2026-01-15 01:45:30.05	267.71	9.63	-41.6	-47.1	8.9	2.62e-02	0	58	0	253755392	54	6957
2026-01-15 01:45:32.07	267.45	9.51	-41.6	-47.4	8.7	3.47e-02	0	58	0	257949696	54	7172
2026-01-15 01:45:34.09	267.20	9.39	-41.5	-47.5	8.4	4.58e-02	0	58	0	261095424	54	7227
2026-01-15 01:45:36.11	266.95	9.27	-41.5	-47.7	8.0	6.34e-02	0	58	0	265289728	54	7449
2026-01-15 01:45:38.12	266.70	9.15	-41.5	-47.8	8.0	7.11e-02	0	58	0	268435456	54	7509
2026-01-15 01:45:40.14	266.45	9.02	-41.6	-48.1	7.7	7.75e-02	0	58	0	272629760	54	7731
2026-01-15 01:45:42.16	266.21	8.90	-41.7	-48.4	7.3	1.08e-01	0	58	0	276824064	54	8037
2026-01-15 01:45:44.18	265.97	8.78	-41.7	-48.8	7.0	1.54e-01	0	58	0	279969792	54	8441
2026-01-15 01:45:46.20	265.73	8.66	-41.8	-49.2	6.6	2.02e-01	0	58	0	284164096	54	8837
2026-01-15 01:45:48.22	265.49	8.54	-41.9	-49.7	6.2	2.87e-01	0	58	0	287309824	54	9323
2026-01-15 01:45:50.24	265.25	8.42	-41.9	-49.9	6.0	3.35e-01	0	58	0	291504128	54	9591
2026-01-15 01:45:52.26	265.02	8.30	-41.9	-50.1	5.9	3.67e-01	0	58	0	295698432	54	9767
2026-01-15 01:45:54.27	264.79	8.18	-41.9	-50.2	5.8	4.05e-01	0	58	0	298844160	54	9920
2026-01-15 01:45:56.29	264.56	8.06	-41.9	-50.0	5.9	3.52e-01	0	58	0	303038464	54	9693
2026-01-15 01:45:58.31	264.33	7.94	-44.4	-58.8	3.8	1.49e+00	0	58	104	305135616	59	19869
2026-01-15 01:46:00.32	264.10	7.82	-44.9	-59.4	3.8	1.49e+00	0	58	104	305135616	60	20286
2026-01-15 01:46:02.34	263.88	7.70	-45.1	-59.7	3.8	1.49e+00	0	58	104	305135616	60	20801
2026-01-15 01:46:04.36	263.66	7.58	-45.2	-59.7	3.8	1.49e+00	0	58	104	305135616	60	20993
2026-01-15 01:46:06.38	263.43	7.46	-45.2	-59.7	3.8	1.49e+00	0	58	104	305135616	61	19742
2026-01-15 01:46:08.40	263.22	7.34	-45.2	-59.7	3.8	1.49e+00	0	58	104	305135616	61	19781
2026-01-15 01:46:10.42	263.00	7.22	-45.2	-59.7	3.8	1.49e+00	0	58	104	305135616	61	19726
2026-01-15 01:46:12.43	262.78	7.11	-45.2	-59.8	3.8	1.49e+00	0	58	104	305135616	61	19848
2026-01-15 01:46:14.46	262.57	6.99	-45.2	-59.7	3.8	1.49e+00	0	58	104	305135616	61	19779
2026-01-15 01:46:16.48	262.36	6.87	-45.2	-59.7	3.8	1.49e+00	0	58	104	305135616	61	19702
2026-01-15 01:46:18.50	262.15	6.75	-45.2	-59.7	3.8	1.49e+00	0	58	104	305135616	61	19660
2026-01-15 01:46:20.52	261.94	6.63	-45.2	-59.7	3.8	1.49e+00	0	58	104	305135616	61	19687
2026-01-15 01:46:22.54	261.73	6.51	-45.2	-59.6	3.8	1.49e+00	0	58	104	305135616	61	19594
2026-01-15 01:46:24.55	261.53	6.40	-45.1	-59.6	3.8	1.49e+00	0	58	104	305135616	61	19517
2026-01-15 01:46:26.58	261.32	6.28	-45.1	-59.6	3.8	1.49e+00	0	58	104	305135616	61	19591
2026-01-15 01:46:28.59	261.12	6.16	-45.2	-59.7	3.8	1.49e+00	0	58	104	305135616	61	19681
2026-01-15 01:46:30.61	260.92	6.04	-45.2	-59.7	3.8	1.49e+00	0	58	104	305135616	61	19631
2026-01-15 01:46:32.63	260.72	5.93	-45.2	-59.6	3.8	1.49e+00	0	58	104	305135616	61	19556
2026-01-15 01:46:34.65	260.53	5.81	-45.1	-59.6	3.8	1.49e+00	0	58	104	305135616	61	19545
2026-01-15 01:46:36.66	260.33	5.69	-45.1	-59.7	3.8	1.49e+00	0	58	104	305135616	61	19622
2026-01-15 01:46:38.68	260.14	5.58	-45.1	-59.6	3.8	1.49e+00	0	58	104	305135616	61	19549
2026-01-15 01:46:40.70	259.95	5.46	-45.1	-59.6	3.8	1.49e+00	0	58	104	305135616	61	19531
2026-01-15 01:46:42.73	259.76	5.34	-45.1	-59.6	3.8	1.49e+00	0	58	104	305135616	61	19555
2026-01-15 01:46:44.75	259.57	5.23	-45.1	-59.6	3.8	1.49e+00	0	58	104	305135616	61	19471
2026-01-15 01:46:46.77	259.38	5.11	-45.1	-59.6	3.8	1.49e+00	0	58	104	305135616	61	19470
2026-01-15 01:46:48.79	259.19	5.00	-45.1	-59.6	3.8	1.49e+00	0	58	104	305135616	61	19555
2026-01-15 01:46:50.81	259.01	4.88	-45.1	-59.6	3.8	1.49e+00	0	58	104	305135616	61	19566
2026-01-15 01:46:52.84	258.83	4.77	-45.1	-59.6	3.8	1.49e+00	0	58	104	305135616	61	19492
2026-01-15 01:46:54.86	258.64	4.65	-45.1	-59.6	3.8	1.49e+00	0	58	104	305135616	61	19488
2026-01-15 01:46:56.88	258.47	4.54	-45.1	-59.6	3.8	1.49e+00	0	58	104	305135616	61	19444
2026-01-15 01:46:58.90	258.29	4.42	-45.1	-59.6	3.8	1.49e+00	0	58	104	305135616	61	19460
2026-01-15 01:47:00.92	258.11	4.31	-45.1	-59.6	3.8	1.49e+00	0	58	104	305135616	61	19485
2026-01-15 01:47:02.94	257.93	4.20	-45.1	-59.6	3.8	1.49e+00	0	58	104	305135616	61	19522
2026-01-15 01:47:04.96	257.76	4.08	-45.1	-59.6	3.8	1.49e+00	0	58	104	305135616	61	19448
2026-01-15 01:47:06.98	257.59	3.97	-45.1	-59.6	3.8	1.49e+00	0	58	104	305135616	61	19487
2026-01-15 01:47:09.00	257.42	3.86	-45.1	-59.6	3.8	1.49e+00	0	58	104	305135616	61	19405
2026-01-15 01:47:11.02	257.24	3.74	-45.1	-59.6	3.8	1.49e+00	0	58	104	305135616	61	19467
2026-01-15 01:47:13.04	257.08	3.63	-45.1	-59.5	3.8	1.49e+00	0	58	104	305135616	61	19362
2026-01-15 01:47:15.06	256.91	3.52	-45.1	-59.6	3.8	1.49e+00	0	58	104	305135616	61	19471
2026-01-15 01:47:17.08	256.74	3.41	-45.1	-59.6	3.8	1.49e+00	0	58	104	305135616	61	19456
2026-01-15 01:47:19.10	256.58	3.29	-45.1	-59.6	3.8	1.49e+00	0	58	104	305135616	61	19461
2026-01-15 01:47:21.12	256.41	3.18	-45.1	-59.6	3.8	1.49e+00	0	58	104	305135616	61	19520
2026-01-15 01:47:23.14	256.25	3.07	-45.1	-59.6	3.8	1.49e+00	0	58	104	305135616	61	19477
2026-01-15 01:47:25.16	256.09	2.96	-45.1	-59.6	3.8	1.49e+00	0	58	104	305135616	61	19468
2026-01-15 01:47:27.18	255.93	2.85	-45.1	-59.6	3.8	1.49e+00	0	58	104	305135616	61	19456
2026-01-15 01:47:29.21	255.77	2.74	-45.1	-59.6	3.8	1.49e+00	0	58	104	305135616	61	19501
2026-01-15 01:47:31.23	255.61	2.63	-45.1	-59.6	3.8	1.49e+00	0	58	104	305135616	61	19431
2026-01-15 01:47:33.25	255.46	2.52	-45.1	-59.6	3.8	1.49e+00	0	58	104	305135616	61	19491
2026-01-15 01:47:35.26	255.30	2.41	-45.1	-59.6	3.8	1.49e+00	0	58	104	305135616	61	19490
2026-01-15 01:47:37.28	255.15	2.30	-45.1	-59.6	3.8	1.49e+00	0	58	104	305135616	61	19426
2026-01-15 01:47:39.30	255.00	2.19	-45.1	-59.6	3.8	1.49e+00	0	58	104	305135616	61	19433
2026-01-15 01:47:41.32	254.85	2.08	-45.1	-59.5	3.8	1.49e+00	0	58	104	305135616	61	19355
2026-01-15 01:47:43.34	254.69	1.97	-45.1	-59.6	3.8	1.49e+00	0	58	104	305135616	61	19482

#Closed at: 2026-01-15 01:47:44
#Recorded file [305 MB]: D:/lorett/data/31039_260115_044230.dat