passes_logs/2026/01/15/R2.0S_Moscow/R2.0S_Moscow__20260115_215617_NOAA_20_JPSS-1_rec.log

#Pass ID: 20260115_215617_NOAA 20 (JPSS-1)
#Satellite: NOAA 20 (JPSS-1)
#Configuration: NOAA 20
#almurnet v.1.7.20251203
#Start time: 2026-01-15 21:56:16

#Version: 2.2.20231116
#Station: R2.0S_Moscow
#Location: 37.707566 lon 55.798166 lat
#TLE: 1 43013U 17073A   26015.47098083  .00000029  00000+0  34851-4 0  9997
#TLE: 2 43013  98.7636 316.4053 0001479  38.6686 321.4595 14.19536048422808

#Time	Az	El	Level	Level2	SNR	BER	BlckErr	Temp	State	Recorded	gain1	gain2
2026-01-15 21:56:16.62	27.32	1.97	-42.3	-57.4	3.8	1.49e+00	0	50	0	0	56	20078
2026-01-15 21:56:19.66	27.57	2.13	-42.2	-57.2	3.8	1.49e+00	0	51	104	0	55	20899
2026-01-15 21:56:22.69	27.81	2.28	-42.1	-57.2	3.8	1.49e+00	0	51	104	0	55	20870
2026-01-15 21:56:25.73	28.07	2.44	-42.1	-57.2	3.8	1.49e+00	0	51	104	0	55	20918
2026-01-15 21:56:28.76	28.32	2.60	-42.1	-57.2	3.8	1.49e+00	0	52	104	0	55	20886
2026-01-15 21:56:31.79	28.58	2.75	-42.1	-57.2	3.8	1.49e+00	0	52	104	0	55	20861
2026-01-15 21:56:34.82	28.84	2.91	-42.1	-57.2	3.8	1.49e+00	0	52	104	0	55	20861
2026-01-15 21:56:37.86	29.10	3.07	-42.2	-57.2	3.8	1.49e+00	0	52	104	0	55	20856
2026-01-15 21:56:40.89	29.37	3.23	-42.1	-57.2	3.8	1.49e+00	0	53	104	0	55	20920
2026-01-15 21:56:43.92	29.63	3.39	-42.1	-57.2	3.8	1.49e+00	0	53	104	0	55	20899
2026-01-15 21:56:46.95	29.91	3.55	-42.1	-57.2	3.8	1.49e+00	0	53	104	0	55	20893
2026-01-15 21:56:49.99	30.18	3.71	-42.1	-57.2	3.8	1.49e+00	0	53	104	0	55	20870
2026-01-15 21:56:53.02	30.46	3.87	-42.1	-57.2	3.8	1.49e+00	0	53	104	0	55	20873
2026-01-15 21:56:56.06	30.74	4.03	-42.1	-57.2	3.8	1.49e+00	0	53	104	0	55	20891
2026-01-15 21:56:59.09	31.02	4.19	-42.1	-57.2	3.8	1.49e+00	0	54	104	0	55	20875
2026-01-15 21:57:02.12	31.30	4.35	-42.1	-57.2	3.8	1.49e+00	0	54	104	0	55	20864
2026-01-15 21:57:05.15	31.59	4.51	-42.1	-57.2	3.8	1.49e+00	0	54	104	0	55	20859
2026-01-15 21:57:08.19	31.88	4.67	-42.1	-57.2	3.8	1.49e+00	0	54	104	0	55	20881
2026-01-15 21:57:11.22	32.18	4.83	-42.1	-57.2	3.8	1.49e+00	0	54	104	0	55	20816
2026-01-15 21:57:14.25	32.47	5.00	-42.2	-57.2	3.8	1.49e+00	0	54	104	0	55	20849
2026-01-15 21:57:17.29	32.77	5.16	-42.2	-57.2	3.8	1.49e+00	0	55	104	0	55	20882
2026-01-15 21:57:20.32	33.08	5.32	-42.1	-57.2	3.8	1.49e+00	0	55	104	0	55	20836
2026-01-15 21:57:23.35	33.38	5.49	-42.2	-57.2	3.8	1.49e+00	0	55	104	0	55	20880
2026-01-15 21:57:26.39	33.70	5.65	-42.1	-57.2	3.8	1.49e+00	0	55	104	0	55	20917
2026-01-15 21:57:29.42	34.01	5.82	-42.1	-57.2	3.8	1.49e+00	0	55	104	0	55	20841
2026-01-15 21:57:32.45	34.33	5.98	-42.1	-57.2	3.8	1.49e+00	0	55	104	0	55	20832
2026-01-15 21:57:35.49	34.65	6.15	-42.1	-57.2	3.8	1.49e+00	0	55	104	0	55	20852
2026-01-15 21:57:38.52	34.97	6.31	-42.1	-57.2	3.8	1.49e+00	0	55	104	0	55	20902
2026-01-15 21:57:41.55	35.30	6.48	-42.1	-57.2	3.8	1.49e+00	0	55	104	0	55	20834
2026-01-15 21:57:44.58	35.63	6.65	-42.1	-57.2	3.8	1.49e+00	0	56	104	0	55	20870
2026-01-15 21:57:47.62	35.96	6.81	-42.1	-57.2	3.8	1.49e+00	0	56	104	0	55	20889
2026-01-15 21:57:50.65	36.30	6.98	-42.1	-57.1	3.8	1.49e+00	0	56	104	0	55	20733
2026-01-15 21:57:53.68	36.64	7.15	-42.1	-57.2	3.8	1.49e+00	0	56	104	0	55	20804
2026-01-15 21:57:56.72	36.99	7.31	-42.1	-57.1	3.8	1.49e+00	0	56	104	0	55	20587
2026-01-15 21:57:59.75	37.34	7.48	-42.1	-57.1	3.8	1.49e+00	0	56	104	0	55	20550
2026-01-15 21:58:02.78	37.69	7.65	-42.1	-56.8	3.8	1.49e+00	0	56	104	0	55	20007
2026-01-15 21:58:05.81	38.05	7.82	-41.7	-51.4	5.2	8.49e-01	0	57	0	1048576	55	10656
2026-01-15 21:58:08.84	38.41	7.98	-41.1	-47.9	7.9	7.61e-02	0	57	0	7340032	54	7598
2026-01-15 21:58:11.88	38.78	8.15	-41.5	-56.6	3.8	8.25e-01	0	57	104	12582912	54	20739
2026-01-15 21:58:14.91	39.15	8.32	-42.0	-50.0	6.6	5.03e-02	0	57	0	16777216	55	9105
2026-01-15 21:58:17.94	39.52	8.49	-41.9	-48.5	8.0	7.37e-02	0	57	0	22020096	55	7662
2026-01-15 21:58:20.97	39.90	8.66	-42.0	-48.5	8.0	6.22e-02	0	57	0	27262976	55	7710
2026-01-15 21:58:23.99	40.28	8.83	-42.0	-48.3	8.4	5.30e-02	0	57	0	33554432	55	7536
2026-01-15 21:58:27.02	40.67	9.00	-42.2	-48.1	8.8	3.19e-02	0	57	0	38797312	55	7320
2026-01-15 21:58:30.05	41.06	9.16	-42.3	-48.3	8.6	3.72e-02	0	57	0	45088768	55	7527
2026-01-15 21:58:33.08	41.45	9.33	-42.2	-48.2	8.7	3.45e-02	0	57	0	50331648	55	7397
2026-01-15 21:58:36.11	41.85	9.50	-42.2	-48.3	8.6	4.38e-02	0	57	0	55574528	55	7495
2026-01-15 21:58:39.14	42.26	9.67	-42.3	-48.2	8.9	3.10e-02	0	57	0	61865984	55	7379
2026-01-15 21:58:42.16	42.66	9.84	-42.2	-47.7	9.4	1.67e-02	0	57	0	67108864	55	7023
2026-01-15 21:58:45.19	43.08	10.01	-42.2	-47.7	9.5	1.41e-02	0	58	0	73400320	55	6988
2026-01-15 21:58:48.22	43.49	10.18	-42.3	-47.8	9.5	1.52e-02	0	57	0	78643200	55	7059
2026-01-15 21:58:51.25	43.92	10.34	-42.0	-47.1	10.2	6.31e-03	0	58	0	84934656	55	6498
2026-01-15 21:58:54.28	44.34	10.51	-41.9	-46.7	10.6	3.66e-03	0	57	0	90177536	55	6240
2026-01-15 21:58:57.30	44.77	10.68	-41.9	-46.6	10.7	2.74e-03	0	58	0	95420416	55	6187
2026-01-15 21:59:00.33	45.21	10.85	-41.9	-46.4	11.1	1.87e-03	0	57	0	101711872	55	6024
2026-01-15 21:59:03.36	45.65	11.01	-41.9	-46.3	11.2	1.41e-03	0	58	0	106954752	55	5954
2026-01-15 21:59:06.39	46.10	11.18	-41.8	-46.2	11.3	1.07e-03	0	58	0	113246208	55	5856
2026-01-15 21:59:09.42	46.55	11.35	-41.8	-46.0	11.5	8.14e-04	0	58	0	118489088	55	5772
2026-01-15 21:59:12.45	47.01	11.51	-41.8	-46.0	11.5	7.99e-04	0	58	0	123731968	55	5787
2026-01-15 21:59:15.48	47.47	11.68	-41.8	-46.2	11.3	1.07e-03	0	58	0	130023424	55	5890
2026-01-15 21:59:18.51	47.93	11.84	-41.8	-46.2	11.3	1.17e-03	0	58	0	135266304	55	5906
2026-01-15 21:59:21.53	48.40	12.01	-41.8	-46.1	11.5	8.98e-04	0	58	0	141557760	55	5800
2026-01-15 21:59:24.57	48.88	12.17	-41.8	-46.0	11.7	6.42e-04	0	58	0	146800640	55	5730
2026-01-15 21:59:27.59	49.36	12.33	-41.8	-46.1	11.5	7.82e-04	0	58	0	153092096	55	5836
2026-01-15 21:59:30.62	49.85	12.49	-41.9	-46.2	11.4	9.23e-04	0	58	0	158334976	55	5900
2026-01-15 21:59:33.65	50.34	12.66	-41.9	-46.1	11.5	8.06e-04	0	58	0	163577856	55	5838
2026-01-15 21:59:36.68	50.84	12.82	-41.9	-46.1	11.5	7.77e-04	0	58	0	169869312	55	5812
2026-01-15 21:59:39.71	51.34	12.98	-41.9	-46.2	11.5	8.67e-04	0	58	0	175112192	55	5861
2026-01-15 21:59:42.74	51.85	13.13	-42.0	-46.4	11.3	1.17e-03	0	59	0	181403648	55	6001
2026-01-15 21:59:45.77	52.36	13.29	-42.0	-46.4	11.2	1.40e-03	0	59	0	186646528	55	6026
2026-01-15 21:59:48.79	52.88	13.45	-42.1	-46.5	11.2	1.49e-03	0	59	0	191889408	55	6098
2026-01-15 21:59:51.82	53.41	13.60	-42.1	-46.6	11.1	1.69e-03	0	59	0	198180864	55	6170
2026-01-15 21:59:54.85	53.93	13.76	-42.2	-46.9	10.8	2.75e-03	0	59	0	203423744	55	6402
2026-01-15 21:59:57.87	54.47	13.91	-42.4	-47.2	10.5	3.85e-03	0	59	0	209715200	55	6590
2026-01-15 22:00:00.90	55.01	14.06	-42.5	-47.6	10.1	6.34e-03	0	59	0	214958080	55	6907
2026-01-15 22:00:03.93	55.55	14.21	-42.5	-47.6	10.1	6.33e-03	0	59	0	221249536	55	6901
2026-01-15 22:00:06.95	56.10	14.36	-42.5	-47.6	10.0	6.95e-03	0	59	0	226492416	55	6913
2026-01-15 22:00:09.98	56.66	14.51	-42.6	-47.9	9.8	1.03e-02	0	59	0	231735296	55	7135
2026-01-15 22:00:13.01	57.22	14.65	-42.7	-48.0	9.6	1.34e-02	0	59	0	238026752	55	7256
2026-01-15 22:00:16.04	57.79	14.80	-42.7	-48.0	9.5	1.33e-02	0	59	0	243269632	55	7278
2026-01-15 22:00:19.07	58.36	14.94	-42.9	-48.4	9.4	1.63e-02	0	59	0	249561088	56	7132
2026-01-15 22:00:22.10	58.94	15.08	-43.0	-48.7	9.1	2.21e-02	0	59	0	254803968	56	7402
2026-01-15 22:00:25.13	59.52	15.22	-43.0	-48.7	9.1	2.54e-02	0	59	0	260046848	56	7432
2026-01-15 22:00:28.16	60.11	15.35	-43.1	-48.9	8.8	2.85e-02	0	59	0	266338304	56	7587
2026-01-15 22:00:31.19	60.70	15.49	-43.2	-49.2	8.5	4.42e-02	0	59	0	271581184	56	7888
2026-01-15 22:00:34.22	61.30	15.62	-43.0	-48.9	8.8	3.15e-02	0	59	0	277872640	56	7555
2026-01-15 22:00:37.25	61.91	15.75	-42.8	-48.3	9.4	1.72e-02	0	59	0	283115520	56	7047
2026-01-15 22:00:40.28	62.52	15.88	-42.7	-48.0	9.7	1.12e-02	0	59	0	289406976	56	6819
2026-01-15 22:00:43.30	63.13	16.00	-42.6	-47.8	9.9	9.45e-03	0	59	0	294649856	56	6647
2026-01-15 22:00:46.33	63.75	16.12	-42.4	-47.3	10.3	6.26e-03	0	59	0	299892736	56	6328
2026-01-15 22:00:49.36	64.37	16.24	-42.4	-47.3	10.3	4.59e-03	0	59	0	306184192	56	6340
2026-01-15 22:00:52.39	65.00	16.36	-42.3	-47.0	10.6	3.87e-03	0	59	0	311427072	56	6100
2026-01-15 22:00:55.42	65.64	16.48	-42.1	-46.6	10.9	2.68e-03	0	59	0	317718528	56	5841
2026-01-15 22:00:58.44	66.27	16.59	-41.8	-46.5	10.7	3.19e-03	0	59	0	322961408	55	6111
2026-01-15 22:01:01.47	66.92	16.70	-41.8	-46.7	10.3	4.73e-03	0	59	0	328204288	55	6222
2026-01-15 22:01:04.50	67.56	16.80	-41.8	-47.1	9.7	9.71e-03	0	59	0	334495744	55	6517
2026-01-15 22:01:07.53	68.22	16.91	-41.8	-47.6	9.0	2.20e-02	0	59	0	339738624	55	6894
2026-01-15 22:01:10.56	68.87	17.01	-41.8	-47.8	8.5	3.70e-02	0	59	0	346030080	55	7114
2026-01-15 22:01:13.59	69.53	17.10	-41.7	-48.4	7.8	7.60e-02	0	59	0	351272960	55	7562
2026-01-15 22:01:16.62	70.20	17.20	-41.5	-48.7	7.2	1.24e-01	0	59	0	356515840	55	7845
2026-01-15 22:01:19.65	70.87	17.29	-41.5	-49.4	6.3	2.38e-01	0	59	0	362807296	55	8513
2026-01-15 22:01:22.68	71.54	17.37	-41.5	-49.7	6.0	3.31e-01	0	59	0	368050176	54	9388
2026-01-15 22:01:25.70	72.21	17.45	-41.5	-50.0	5.8	3.91e-01	0	59	0	374341632	54	9685
2026-01-15 22:01:28.74	72.90	17.53	-41.5	-49.9	5.8	3.86e-01	0	59	0	379584512	54	9590
2026-01-15 22:01:31.76	73.58	17.61	-41.4	-49.9	5.8	3.76e-01	0	59	0	385875968	54	9562
2026-01-15 22:01:34.79	74.26	17.68	-41.5	-50.1	5.7	4.12e-01	0	60	0	391118848	54	9820
2026-01-15 22:01:37.82	74.95	17.75	-41.5	-49.5	6.2	2.94e-01	0	59	0	396361728	54	9140
2026-01-15 22:01:40.85	75.65	17.82	-41.5	-49.3	6.4	2.58e-01	0	59	0	402653184	54	8894
2026-01-15 22:01:43.88	76.34	17.88	-41.3	-48.5	7.1	1.54e-01	0	60	0	407896064	54	8172
2026-01-15 22:01:46.91	77.04	17.93	-41.5	-49.0	6.7	2.04e-01	0	60	0	414187520	54	8596
2026-01-15 22:01:49.94	77.74	17.99	-41.6	-49.0	6.8	1.76e-01	0	59	0	419430400	54	8564
2026-01-15 22:01:52.96	78.45	18.03	-41.7	-49.3	6.6	2.08e-01	0	59	0	424673280	54	8940
2026-01-15 22:01:55.99	79.15	18.08	-41.8	-50.2	5.9	3.50e-01	0	59	0	430964736	54	9907
2026-01-15 22:01:59.02	79.86	18.12	-41.7	-49.4	6.5	2.33e-01	0	60	0	436207616	54	9041
2026-01-15 22:02:02.05	80.57	18.15	-41.8	-48.5	7.6	1.17e-01	0	60	0	442499072	54	8155
2026-01-15 22:02:05.07	81.28	18.19	-41.8	-48.1	8.2	5.30e-02	0	59	0	447741952	54	7747
2026-01-15 22:02:08.10	81.99	18.21	-42.0	-48.5	7.9	7.90e-02	0	60	0	454033408	54	8097
2026-01-15 22:02:11.13	82.70	18.24	-42.1	-48.4	8.1	6.51e-02	0	60	0	459276288	54	8014
2026-01-15 22:02:14.16	83.42	18.26	-42.2	-48.7	7.8	6.79e-02	0	60	0	464519168	54	8321
2026-01-15 22:02:17.19	84.13	18.27	-42.0	-48.5	7.9	7.25e-02	0	60	0	470810624	54	8123
2026-01-15 22:02:20.22	84.85	18.28	-41.8	-48.4	7.9	7.97e-02	0	60	0	476053504	54	8017
2026-01-15 22:02:23.24	85.56	18.29	-42.0	-48.7	7.7	8.33e-02	0	60	0	482344960	54	8305
2026-01-15 22:02:26.28	86.28	18.29	-42.0	-48.6	7.9	8.77e-02	0	60	0	487587840	54	8262
2026-01-15 22:02:29.31	87.00	18.29	-42.0	-48.5	7.9	7.42e-02	0	60	0	492830720	54	8151
2026-01-15 22:02:32.33	87.72	18.28	-42.1	-48.5	8.0	6.61e-02	0	60	0	499122176	54	8127
2026-01-15 22:02:35.36	88.43	18.27	-42.1	-47.9	8.9	3.39e-02	0	60	0	504365056	54	7597
2026-01-15 22:02:38.39	89.15	18.25	-42.0	-47.5	9.3	1.74e-02	0	60	0	510656512	54	7276
2026-01-15 22:02:41.41	89.86	18.23	-42.1	-47.9	8.9	2.83e-02	0	60	0	515899392	54	7547
2026-01-15 22:02:44.44	90.58	18.21	-42.1	-47.4	9.6	1.46e-02	0	60	0	522190848	54	7146
2026-01-15 22:02:47.47	91.29	18.18	-41.9	-46.6	10.7	3.24e-03	0	60	0	527433728	54	6543
2026-01-15 22:02:50.50	92.00	18.15	-41.9	-46.3	11.2	1.53e-03	0	60	0	532676608	54	6302
2026-01-15 22:02:53.53	92.71	18.11	-42.1	-46.7	10.9	2.09e-03	0	60	0	538968064	54	6582
2026-01-15 22:02:56.56	93.42	18.07	-42.1	-46.6	11.1	1.65e-03	0	60	0	544210944	54	6503
2026-01-15 22:02:59.59	94.13	18.03	-42.1	-46.4	11.4	1.20e-03	0	60	0	550502400	54	6369
2026-01-15 22:03:02.62	94.83	17.98	-42.0	-46.2	11.6	7.55e-04	0	60	0	555745280	54	6223
2026-01-15 22:03:05.65	95.53	17.92	-41.9	-45.9	12.0	3.78e-04	0	60	0	560988160	54	6009
2026-01-15 22:03:08.67	96.23	17.87	-41.9	-46.0	11.9	3.18e-04	0	60	0	567279616	54	6080
2026-01-15 22:03:11.70	96.93	17.81	-41.9	-45.9	12.0	3.04e-04	0	60	0	572522496	54	6000
2026-01-15 22:03:14.73	97.62	17.74	-42.0	-46.1	11.8	4.16e-04	0	60	0	578813952	54	6137
2026-01-15 22:03:17.76	98.31	17.67	-41.9	-46.0	11.9	4.23e-04	0	60	0	584056832	54	6079
2026-01-15 22:03:20.79	99.00	17.60	-41.9	-45.8	12.0	3.71e-04	0	60	0	590348288	54	5985
2026-01-15 22:03:23.81	99.68	17.52	-41.7	-45.6	12.3	2.84e-04	0	60	0	595591168	54	5828
2026-01-15 22:03:26.84	100.36	17.44	-41.5	-45.2	12.8	7.17e-05	0	60	0	600834048	54	5532
2026-01-15 22:03:29.87	101.04	17.36	-41.5	-45.1	12.8	4.73e-05	0	60	0	607125504	54	5518
2026-01-15 22:03:32.90	101.72	17.27	-41.6	-45.3	12.7	9.00e-05	0	60	0	612368384	54	5596
2026-01-15 22:03:35.92	102.38	17.18	-41.6	-45.3	12.6	7.78e-05	0	60	0	618659840	54	5629
2026-01-15 22:03:38.95	103.05	17.09	-41.4	-44.9	13.0	4.65e-05	0	60	0	623902720	54	5402
2026-01-15 22:03:41.98	103.71	16.99	-41.2	-44.6	13.3	2.28e-05	0	60	0	629145600	53	5485
2026-01-15 22:03:45.01	104.37	16.89	-41.2	-44.6	13.3	4.42e-05	0	60	0	635437056	53	5519
2026-01-15 22:03:48.04	105.03	16.78	-41.4	-44.9	13.0	3.73e-05	0	60	0	640679936	53	5707
2026-01-15 22:03:51.06	105.67	16.68	-41.5	-45.1	12.7	7.55e-05	0	60	0	646971392	53	5855
2026-01-15 22:03:54.09	106.32	16.57	-41.5	-45.2	12.7	5.95e-05	0	60	0	652214272	53	5867
2026-01-15 22:03:57.12	106.96	16.45	-41.6	-45.2	12.7	8.92e-05	0	60	0	657457152	53	5907
2026-01-15 22:04:00.15	107.59	16.34	-41.5	-45.1	12.8	8.01e-05	0	60	0	663748608	53	5819
2026-01-15 22:04:03.18	108.22	16.22	-41.8	-45.7	12.2	2.04e-04	0	60	0	668991488	54	5884
2026-01-15 22:04:06.21	108.85	16.10	-42.2	-46.5	11.3	9.03e-04	0	60	0	675282944	54	6461
2026-01-15 22:04:09.23	109.47	15.97	-42.4	-47.0	10.8	2.32e-03	0	60	0	680525824	55	6426
2026-01-15 22:04:12.26	110.08	15.85	-42.4	-47.0	10.8	2.55e-03	0	60	0	686817280	55	6472
2026-01-15 22:04:15.29	110.70	15.72	-42.4	-47.1	10.7	3.28e-03	0	60	0	692060160	55	6520
2026-01-15 22:04:18.32	111.30	15.59	-42.2	-46.6	11.2	1.43e-03	0	60	0	697303040	55	6181
2026-01-15 22:04:21.35	111.90	15.45	-42.2	-46.8	10.9	1.84e-03	0	60	0	703594496	55	6318
2026-01-15 22:04:24.38	112.50	15.32	-42.5	-47.5	10.3	5.29e-03	0	60	0	708837376	55	6803
2026-01-15 22:04:27.41	113.09	15.18	-42.6	-47.6	10.1	7.55e-03	0	60	0	715128832	55	6881
2026-01-15 22:04:30.44	113.67	15.04	-42.6	-47.6	10.1	5.93e-03	0	60	0	720371712	55	6903
2026-01-15 22:04:33.46	114.25	14.90	-42.5	-47.5	10.2	6.63e-03	0	60	0	725614592	55	6857
2026-01-15 22:04:36.49	114.82	14.76	-42.4	-47.2	10.6	4.81e-03	0	60	0	731906048	55	6607
2026-01-15 22:04:39.52	115.39	14.61	-42.4	-47.2	10.5	4.45e-03	0	60	0	737148928	55	6579
2026-01-15 22:04:42.55	115.96	14.46	-42.4	-47.2	10.4	4.91e-03	0	60	0	743440384	55	6635
2026-01-15 22:04:45.58	116.51	14.32	-42.2	-46.7	11.0	2.07e-03	0	60	0	748683264	54	6571
2026-01-15 22:04:48.61	117.07	14.16	-42.1	-46.6	11.1	1.71e-03	0	60	0	754974720	54	6497
2026-01-15 22:04:51.63	117.61	14.01	-39.6	-46.4	10.3	1.10e-01	0	60	0	760217600	54	6374
2026-01-15 22:04:54.66	118.15	13.86	-42.0	-46.6	11.0	5.36e-03	0	60	0	765460480	54	6498
2026-01-15 22:04:57.69	118.69	13.71	-39.1	-47.0	8.9	4.63e-01	0	60	0	771751936	50	8613
2026-01-15 22:05:00.72	119.22	13.55	-43.0	-48.2	8.6	1.95e-02	0	60	0	776994816	55	7393
2026-01-15 22:05:03.75	119.75	13.39	-41.7	-46.7	10.2	4.12e-02	0	60	0	783286272	54	6626
2026-01-15 22:05:06.78	120.27	13.23	-41.0	-45.9	11.0	1.77e-01	0	60	0	788529152	53	6412
2026-01-15 22:05:09.80	120.78	13.08	-41.2	-46.5	8.5	9.54e-02	14	60	0	793772032	47	9638
2026-01-15 22:05:12.83	121.29	12.92	-41.4	-46.4	10.2	2.94e-01	0	60	0	799014912	53	6752
2026-01-15 22:05:15.86	121.79	12.75	-38.8	-46.2	8.2	8.29e-02	1	60	0	804257792	47	9373
2026-01-15 22:05:18.89	122.29	12.59	-42.0	-47.2	8.8	1.34e+00	0	60	0	806354944	42	13925
2026-01-15 22:05:21.92	122.78	12.43	-31.6	-44.3	4.7	1.28e+00	2	60	0	807403520	32	17862
2026-01-15 22:05:24.94	123.27	12.27	-30.8	-42.9	5.8	3.79e-01	23	60	0	810549248	35	12685
2026-01-15 22:05:27.97	123.75	12.10	-33.5	-45.4	3.2	1.44e+00	0	60	104	811597824	31	21283
2026-01-15 22:05:31.01	124.23	11.94	-31.3	-43.0	6.9	1.24e-01	50	60	0	814743552	41	9130
2026-01-15 22:05:34.03	124.70	11.77	-40.3	-46.9	8.0	2.52e-01	13	60	0	817889280	49	8990
2026-01-15 22:05:37.06	125.17	11.60	-30.4	-42.6	6.1	5.59e-01	83	60	0	823132160	37	10991
2026-01-15 22:05:40.09	125.63	11.44	-36.0	-45.1	5.5	1.34e+00	0	60	104	824180736	37	14599
2026-01-15 22:05:43.11	126.09	11.27	-32.1	-43.3	5.0	1.46e+00	0	60	104	824180736	29	18794
2026-01-15 22:05:46.14	126.54	11.10	-25.5	-40.5	4.9	1.42e+00	0	60	104	824180736	23	19202
2026-01-15 22:05:49.17	126.99	10.93	-23.7	-38.6	4.8	1.42e+00	0	60	104	824180736	19	19506
2026-01-15 22:05:52.20	127.43	10.76	-22.7	-34.0	3.8	1.50e+00	0	60	104	824180736	8	21609
2026-01-15 22:05:55.22	127.87	10.59	-21.2	-34.3	3.8	1.49e+00	0	60	104	824180736	10	19933
2026-01-15 22:05:58.25	128.30	10.43	-26.0	-40.8	4.1	1.48e+00	0	60	104	824180736	21	22509
2026-01-15 22:06:01.28	128.73	10.26	-24.9	-34.7	3.3	1.49e+00	0	60	104	824180736	12	18646
2026-01-15 22:06:04.30	129.15	10.09	-23.6	-35.4	3.2	1.50e+00	0	60	104	824180736	10	22600
2026-01-15 22:06:07.33	129.56	9.92	-19.5	-33.6	3.0	1.47e+00	0	60	104	824180736	10	18515
2026-01-15 22:06:10.36	129.98	9.75	-21.1	-33.4	3.5	1.50e+00	0	60	104	824180736	13	15104
2026-01-15 22:06:13.39	130.39	9.58	-25.1	-38.0	3.2	1.47e+00	0	60	104	824180736	17	20367
2026-01-15 22:06:16.42	130.79	9.40	-16.2	-28.7	3.8	1.50e+00	0	61	104	824180736	1	17628
2026-01-15 22:06:19.45	131.19	9.23	-15.5	-31.3	3.3	1.48e+00	0	60	104	824180736	6	17885
2026-01-15 22:06:22.47	131.58	9.06	-21.2	-32.9	3.6	1.49e+00	0	60	104	824180736	3	25330
2026-01-15 22:06:25.50	131.97	8.89	-20.7	-34.4	3.5	1.48e+00	0	60	104	824180736	13	17030
2026-01-15 22:06:28.53	132.36	8.72	-24.2	-38.9	3.2	1.48e+00	0	60	104	824180736	14	26978
2026-01-15 22:06:31.56	132.74	8.55	-20.8	-35.9	3.6	1.50e+00	0	60	104	824180736	11	22522
2026-01-15 22:06:34.59	133.12	8.38	-22.7	-36.2	3.7	1.49e+00	0	60	104	824180736	1	41898
2026-01-15 22:06:37.62	133.49	8.21	-29.1	-45.7	4.0	1.51e+00	0	60	104	824180736	23	35006
2026-01-15 22:06:40.64	133.86	8.04	-15.2	-36.9	4.4	1.51e+00	0	60	104	824180736	10	27062
2026-01-15 22:06:43.67	134.23	7.87	-44.7	-59.5	3.8	1.50e+00	0	60	104	824180736	60	20355
2026-01-15 22:06:46.71	134.59	7.70	-45.4	-60.2	3.8	1.49e+00	0	61	104	824180736	61	20906
2026-01-15 22:06:49.73	134.94	7.53	-45.7	-60.5	3.8	1.49e+00	0	60	104	824180736	61	21538
2026-01-15 22:06:52.76	135.30	7.36	-45.6	-60.3	3.8	1.49e+00	0	60	104	824180736	62	19946
2026-01-15 22:06:55.79	135.65	7.19	-45.5	-60.0	3.8	1.49e+00	0	60	104	824180736	62	19340
2026-01-15 22:06:58.82	135.99	7.02	-45.4	-60.0	3.8	1.49e+00	0	60	104	824180736	62	19172
2026-01-15 22:07:01.85	136.33	6.86	-45.4	-59.9	3.8	1.49e+00	0	60	104	824180736	62	19096
2026-01-15 22:07:04.88	136.67	6.69	-45.4	-59.9	3.8	1.49e+00	0	61	104	824180736	62	19137
2026-01-15 22:07:07.91	137.00	6.52	-45.4	-59.9	3.8	1.49e+00	0	60	104	824180736	62	19064
2026-01-15 22:07:10.94	137.33	6.35	-45.4	-59.9	3.8	1.49e+00	0	60	104	824180736	62	19048
2026-01-15 22:07:13.97	137.66	6.18	-45.4	-59.9	3.8	1.49e+00	0	60	104	824180736	62	19044
2026-01-15 22:07:16.99	137.98	6.02	-45.4	-59.9	3.8	1.49e+00	0	60	104	824180736	62	19011
2026-01-15 22:07:20.02	138.30	5.85	-45.3	-59.9	3.8	1.49e+00	0	60	104	824180736	62	18974
2026-01-15 22:07:23.05	138.62	5.68	-45.3	-59.9	3.8	1.49e+00	0	60	104	824180736	62	19039
2026-01-15 22:07:26.08	138.93	5.52	-45.3	-59.9	3.8	1.49e+00	0	60	104	824180736	62	19020
2026-01-15 22:07:29.12	139.24	5.35	-45.3	-59.8	3.8	1.49e+00	0	61	104	824180736	62	18896
2026-01-15 22:07:32.14	139.54	5.19	-45.3	-59.9	3.8	1.49e+00	0	60	104	824180736	62	18959
2026-01-15 22:07:35.17	139.85	5.02	-45.3	-59.9	3.8	1.49e+00	0	60	104	824180736	62	18955
2026-01-15 22:07:38.20	140.15	4.86	-45.3	-59.8	3.8	1.49e+00	0	60	104	824180736	62	18933
2026-01-15 22:07:41.24	140.44	4.69	-45.3	-59.9	3.8	1.49e+00	0	61	104	824180736	62	18950
2026-01-15 22:07:44.27	140.73	4.53	-45.3	-59.8	3.8	1.49e+00	0	60	104	824180736	62	18929
2026-01-15 22:07:47.29	141.02	4.36	-45.3	-59.8	3.8	1.49e+00	0	60	104	824180736	62	18911
2026-01-15 22:07:50.32	141.31	4.20	-45.3	-59.8	3.8	1.49e+00	0	60	104	824180736	62	18917
2026-01-15 22:07:53.35	141.59	4.04	-45.3	-59.8	3.8	1.49e+00	0	60	104	824180736	62	18913
2026-01-15 22:07:56.38	141.87	3.87	-45.3	-59.8	3.8	1.49e+00	0	61	104	824180736	62	18885
2026-01-15 22:07:59.41	142.15	3.71	-45.3	-59.8	3.8	1.49e+00	0	60	104	824180736	62	18904
2026-01-15 22:08:02.44	142.42	3.55	-45.3	-59.8	3.8	1.49e+00	0	61	104	824180736	62	18892
2026-01-15 22:08:05.47	142.70	3.39	-45.3	-59.8	3.8	1.49e+00	0	60	104	824180736	62	18887
2026-01-15 22:08:08.51	142.97	3.23	-45.3	-59.8	3.8	1.49e+00	0	61	104	824180736	61	20019
2026-01-15 22:08:11.54	143.23	3.07	-45.3	-59.8	3.8	1.49e+00	0	61	104	824180736	61	20009
2026-01-15 22:08:14.56	143.49	2.91	-45.3	-59.8	3.8	1.49e+00	0	60	104	824180736	61	20003
2026-01-15 22:08:17.59	143.75	2.75	-45.3	-59.8	3.8	1.49e+00	0	61	104	824180736	61	19992
2026-01-15 22:08:20.62	144.01	2.59	-45.2	-59.8	3.8	1.49e+00	0	61	104	824180736	61	19920
2026-01-15 22:08:23.66	144.27	2.43	-45.3	-59.8	3.8	1.49e+00	0	60	104	824180736	61	19935
2026-01-15 22:08:26.69	144.52	2.27	-45.2	-59.8	3.8	1.49e+00	0	60	104	824180736	61	19934
2026-01-15 22:08:29.72	144.77	2.12	-45.3	-59.8	3.8	1.49e+00	0	61	104	824180736	61	19920
2026-01-15 22:08:32.74	145.02	1.96	-45.3	-59.8	3.8	1.49e+00	0	60	104	824180736	61	19963

#Closed at: 2026-01-15 22:08:33
#Recorded file [824 MB]: D:/lorett/data/31039_260116_005616.dat