passes_logs/2026/01/15/R2.0S_Moscow/R2.0S_Moscow__20260115_153015_FENGYUN_3E_rec.log

#Pass ID: 20260115_153015_FENGYUN 3E
#Satellite: FENGYUN 3E
#Configuration: FENGYUN 3E
#almurnet v.1.7.20251203
#Start time: 2026-01-15 15:30:16

#Version: 2.2.20231116
#Station: R2.0S_Moscow
#Location: 37.707566 lon 55.798166 lat
#TLE: 1 49008U 21062A   26014.58289545 -.00000120  00000+0 -35876-4 0  9998
#TLE: 2 49008  98.7488  19.7165 0002000 137.1107 223.0226 14.19884293234788

#Time	Az	El	Level	Level2	SNR	BER	BlckErr	Temp	State	Recorded	gain1	gain2
2026-01-15 15:30:16.16	199.79	2.07	-44.3	-55.4	3.8	8.46e-01	0	50	0	0	59	12749
2026-01-15 15:30:20.19	200.04	2.30	-44.3	-55.3	3.8	8.46e-01	0	51	104	0	59	12606
2026-01-15 15:30:24.23	200.29	2.54	-44.3	-55.3	3.8	8.46e-01	0	51	104	0	59	12633
2026-01-15 15:30:28.27	200.55	2.77	-44.3	-55.3	3.8	8.47e-01	0	52	104	0	59	12648
2026-01-15 15:30:32.31	200.81	3.01	-44.3	-55.3	3.8	8.45e-01	0	52	104	0	59	12586
2026-01-15 15:30:36.35	201.08	3.25	-44.4	-55.4	3.8	8.47e-01	0	52	104	0	59	12756
2026-01-15 15:30:40.39	201.35	3.50	-44.3	-55.4	3.8	8.45e-01	0	53	104	0	59	12685
2026-01-15 15:30:44.43	201.62	3.74	-44.3	-55.4	3.8	8.46e-01	0	53	104	0	59	12689
2026-01-15 15:30:48.47	201.90	3.98	-44.3	-55.4	3.8	8.46e-01	0	53	104	0	59	12703
2026-01-15 15:30:52.51	202.18	4.23	-44.3	-55.4	3.8	8.46e-01	0	53	104	0	59	12671
2026-01-15 15:30:56.54	202.47	4.48	-44.3	-55.4	3.8	8.47e-01	0	54	104	0	59	12700
2026-01-15 15:31:00.58	202.76	4.73	-44.3	-55.4	3.8	8.46e-01	0	54	104	0	59	12690
2026-01-15 15:31:04.62	203.06	4.98	-44.3	-55.3	3.8	8.46e-01	0	54	104	0	59	12591
2026-01-15 15:31:08.67	203.36	5.24	-44.3	-55.3	3.8	8.46e-01	0	54	104	0	59	12637
2026-01-15 15:31:12.71	203.67	5.49	-44.3	-54.8	3.8	8.46e-01	0	55	104	0	59	11939
2026-01-15 15:31:16.75	203.98	5.75	-44.0	-53.4	3.8	8.45e-01	0	55	104	0	59	10140
2026-01-15 15:31:20.79	204.30	6.01	-43.7	-51.4	4.3	8.35e-01	0	55	0	0	58	8534
2026-01-15 15:31:24.82	204.62	6.27	-43.3	-50.1	4.9	7.99e-01	0	55	0	0	57	7766
2026-01-15 15:31:28.86	204.95	6.54	-42.9	-48.6	5.9	3.92e-01	0	55	0	15728640	56	6889
2026-01-15 15:31:32.90	205.28	6.80	-43.1	-49.2	5.4	7.07e-01	0	56	0	41943040	56	7397
2026-01-15 15:31:36.93	205.62	7.07	-43.1	-49.0	5.5	7.24e-01	0	56	0	46137344	56	7242
2026-01-15 15:31:40.96	205.97	7.34	-41.6	-45.6	8.3	6.56e-02	0	56	0	71303168	54	5467
2026-01-15 15:31:44.99	206.32	7.61	-39.7	-42.4	11.6	7.79e-04	0	56	0	100663296	50	4814
2026-01-15 15:31:49.02	206.68	7.88	-38.9	-41.3	12.9	5.60e-05	0	56	0	130023424	48	4717
2026-01-15 15:31:53.05	207.04	8.15	-44.0	-54.3	3.8	7.64e-02	0	56	104	150994944	57	12556
2026-01-15 15:31:57.09	207.42	8.43	-38.9	-41.3	13.0	1.25e-04	0	57	0	176160768	48	4723
2026-01-15 15:32:01.12	207.79	8.71	-38.7	-41.1	13.3	2.17e-05	0	57	0	205520896	48	4605
2026-01-15 15:32:05.16	208.18	8.99	-38.6	-41.0	13.5	1.71e-05	0	57	0	233832448	48	4549
2026-01-15 15:32:09.20	208.57	9.28	-38.6	-41.0	13.5	1.48e-05	0	57	0	263192576	48	4549
2026-01-15 15:32:13.24	208.97	9.56	-38.5	-40.8	13.7	1.25e-05	0	57	0	292552704	48	4455
2026-01-15 15:32:17.28	209.38	9.85	-38.3	-40.6	13.7	6.80e-06	0	57	0	321912832	47	4602
2026-01-15 15:32:21.31	209.80	10.14	-38.1	-40.3	14.0	4.50e-06	0	57	0	350224384	47	4488
2026-01-15 15:32:25.35	210.22	10.43	-38.1	-40.4	13.9	3.40e-06	0	57	0	379584512	47	4510
2026-01-15 15:32:29.39	210.66	10.72	-38.0	-40.2	14.1	2.20e-06	0	57	0	408944640	46	4685
2026-01-15 15:32:33.43	211.10	11.02	-37.9	-40.2	14.2	3.40e-06	0	57	0	438304768	46	4666
2026-01-15 15:32:37.46	211.55	11.32	-38.0	-40.2	14.2	3.40e-06	0	58	0	466616320	46	4663
2026-01-15 15:32:41.50	212.01	11.62	-38.0	-40.2	14.1	0.00e+00	0	58	0	495976448	46	4701
2026-01-15 15:32:45.54	212.47	11.92	-38.1	-40.3	14.1	5.70e-06	0	58	0	525336576	46	4737
2026-01-15 15:32:49.57	212.95	12.22	-38.0	-40.1	14.3	1.10e-06	0	58	0	554696704	46	4636
2026-01-15 15:32:53.61	213.44	12.53	-37.8	-39.9	14.6	0.00e+00	0	58	0	584056832	46	4502
2026-01-15 15:32:57.64	213.93	12.84	-37.7	-39.8	14.7	0.00e+00	0	58	0	613416960	46	4463
2026-01-15 15:33:01.68	214.44	13.15	-37.7	-39.7	14.8	0.00e+00	0	58	0	641728512	46	4420
2026-01-15 15:33:05.72	214.96	13.46	-37.6	-39.6	15.0	0.00e+00	0	58	0	671088640	46	4366
2026-01-15 15:33:09.75	215.49	13.77	-37.6	-39.6	15.0	0.00e+00	0	58	0	700448768	46	4378
2026-01-15 15:33:13.79	216.03	14.09	-37.5	-39.6	14.9	0.00e+00	0	58	0	729808896	45	4612
2026-01-15 15:33:17.83	216.58	14.41	-37.4	-39.4	15.2	0.00e+00	0	58	0	759169024	45	4535
2026-01-15 15:33:21.87	217.14	14.73	-37.3	-39.4	15.3	0.00e+00	0	58	0	787480576	45	4496
2026-01-15 15:33:25.91	217.71	15.05	-37.3	-39.4	15.3	0.00e+00	0	59	0	816840704	45	4494
2026-01-15 15:33:29.95	218.30	15.37	-37.1	-39.0	15.6	0.00e+00	0	59	0	846200832	45	4336
2026-01-15 15:33:33.98	218.90	15.69	-36.9	-38.9	15.7	0.00e+00	0	59	0	875560960	44	4498
2026-01-15 15:33:38.02	219.51	16.02	-36.9	-38.9	15.7	0.00e+00	0	59	0	904921088	44	4502
2026-01-15 15:33:42.05	220.13	16.34	-37.0	-38.9	15.7	0.00e+00	0	59	0	933232640	44	4532
2026-01-15 15:33:46.09	220.77	16.67	-36.9	-38.8	15.8	0.00e+00	0	58	0	962592768	44	4463
2026-01-15 15:33:50.13	221.42	17.00	-36.7	-38.5	16.2	0.00e+00	0	59	0	991952896	44	4305
2026-01-15 15:33:54.17	222.09	17.33	-36.3	-38.1	16.5	0.00e+00	0	59	0	1021313024	43	4355
2026-01-15 15:33:58.21	222.77	17.66	-36.4	-38.1	16.4	0.00e+00	0	59	0	1049624576	43	4390
2026-01-15 15:34:02.26	223.47	17.99	-36.4	-38.2	16.4	0.00e+00	0	59	0	1078984704	43	4412
2026-01-15 15:34:06.29	224.17	18.32	-36.3	-38.0	16.5	0.00e+00	0	59	0	1108344832	43	4329
2026-01-15 15:34:10.33	224.90	18.65	-36.0	-37.8	16.8	0.00e+00	0	59	0	1137704960	43	4202
2026-01-15 15:34:14.37	225.64	18.98	-35.9	-37.7	16.9	0.00e+00	0	59	0	1167065088	42	4400
2026-01-15 15:34:18.40	226.39	19.31	-35.9	-37.7	16.8	0.00e+00	0	59	0	1195376640	42	4415
2026-01-15 15:34:22.43	227.16	19.64	-36.0	-37.8	16.7	0.00e+00	0	59	0	1224736768	42	4447
2026-01-15 15:34:26.46	227.95	19.97	-35.9	-37.7	16.8	0.00e+00	0	59	0	1254096896	42	4427
2026-01-15 15:34:30.49	228.75	20.30	-35.8	-37.5	17.0	0.00e+00	0	59	0	1283457024	42	4333
2026-01-15 15:34:34.52	229.57	20.62	-35.7	-37.4	17.2	0.00e+00	0	59	0	1312817152	42	4247
2026-01-15 15:34:38.56	230.41	20.95	-35.7	-37.3	17.3	0.00e+00	0	59	0	1341128704	42	4238
2026-01-15 15:34:42.59	231.27	21.27	-35.6	-37.2	17.3	0.00e+00	0	59	0	1370488832	42	4181
2026-01-15 15:34:46.63	232.14	21.59	-35.5	-37.2	17.4	0.00e+00	0	59	0	1399848960	42	4160
2026-01-15 15:34:50.67	233.03	21.91	-35.5	-37.2	17.3	0.00e+00	0	59	0	1429209088	42	4179
2026-01-15 15:34:54.70	233.94	22.22	-35.5	-37.2	17.4	0.00e+00	0	59	0	1457520640	41	4394
2026-01-15 15:34:58.74	234.87	22.53	-35.4	-37.1	17.5	0.00e+00	0	60	0	1486880768	41	4343
2026-01-15 15:35:02.78	235.81	22.84	-35.3	-36.9	17.6	0.00e+00	0	59	0	1516240896	41	4279
2026-01-15 15:35:06.82	236.78	23.14	-35.4	-37.1	17.5	0.00e+00	0	60	0	1545601024	41	4354
2026-01-15 15:35:10.86	237.76	23.44	-35.5	-37.2	17.4	0.00e+00	0	60	0	1574961152	41	4404
2026-01-15 15:35:14.90	238.76	23.73	-35.4	-37.0	17.5	0.00e+00	0	59	0	1603272704	41	4340
2026-01-15 15:35:18.93	239.78	24.02	-35.4	-37.1	17.5	0.00e+00	0	59	0	1632632832	41	4347
2026-01-15 15:35:22.97	240.81	24.30	-35.1	-36.7	17.9	0.00e+00	0	59	0	1661992960	41	4168
2026-01-15 15:35:27.02	241.87	24.57	-35.2	-36.8	17.7	0.00e+00	0	60	0	1691353088	41	4230
2026-01-15 15:35:31.06	242.94	24.83	-35.0	-36.6	17.9	0.00e+00	0	59	0	1720713216	41	4129
2026-01-15 15:35:35.10	244.03	25.09	-35.2	-36.9	17.7	0.00e+00	0	60	0	1749024768	41	4254
2026-01-15 15:35:39.14	245.14	25.34	-35.8	-37.0	18.0	0.00e+00	0	60	0	1778384896	41	4320
2026-01-15 15:35:43.18	246.26	25.58	-35.7	-36.9	18.1	0.00e+00	0	60	0	1807745024	41	4249
2026-01-15 15:35:47.21	247.40	25.81	-35.4	-36.6	18.4	0.00e+00	0	59	0	1837105152	41	4121
2026-01-15 15:35:51.25	248.56	26.03	-35.3	-36.5	18.5	0.00e+00	0	60	0	1866465280	41	4052
2026-01-15 15:35:55.28	249.73	26.24	-35.2	-36.3	18.7	0.00e+00	0	60	0	1895825408	41	3972
2026-01-15 15:35:59.32	250.91	26.44	-35.3	-36.5	18.5	0.00e+00	0	60	0	1924136960	41	4062
2026-01-15 15:36:03.35	252.11	26.62	-35.3	-36.4	18.6	0.00e+00	0	60	0	1953497088	41	4023
2026-01-15 15:36:07.39	253.33	26.80	-35.5	-36.7	18.3	0.00e+00	0	60	0	1982857216	41	4171
2026-01-15 15:36:11.44	254.56	26.96	-35.4	-36.6	18.4	0.00e+00	0	60	0	2012217344	41	4125
2026-01-15 15:36:15.48	255.79	27.11	-35.6	-36.8	18.3	0.00e+00	0	60	0	2041577472	41	4196
2026-01-15 15:36:19.51	257.04	27.24	-35.4	-36.6	18.5	0.00e+00	0	60	0	2069889024	41	4106
2026-01-15 15:36:23.54	258.30	27.36	-35.5	-36.7	18.3	0.00e+00	0	60	0	2099249152	41	4171
2026-01-15 15:36:27.58	259.56	27.47	-35.6	-36.7	18.3	0.00e+00	0	60	0	2128609280	41	4188
2026-01-15 15:36:31.62	260.84	27.56	-35.4	-36.6	18.4	0.00e+00	0	60	0	2157969408	41	4125
2026-01-15 15:36:35.66	262.12	27.64	-35.5	-36.7	18.3	0.00e+00	0	60	0	2186280960	41	4153
2026-01-15 15:36:39.70	263.41	27.70	-35.2	-36.4	18.7	0.00e+00	0	60	0	2215641088	41	4016
2026-01-15 15:36:43.74	264.70	27.75	-35.6	-36.8	18.3	0.00e+00	0	60	0	2245001216	41	4197
2026-01-15 15:36:47.78	265.99	27.78	-35.4	-36.5	18.5	0.00e+00	0	60	0	2274361344	41	4074
2026-01-15 15:36:51.82	267.29	27.80	-35.3	-36.4	18.6	0.00e+00	0	60	0	2303721472	41	4039
2026-01-15 15:36:55.86	268.59	27.80	-35.5	-36.7	18.4	0.00e+00	0	60	0	2332033024	41	4155
2026-01-15 15:36:59.90	269.88	27.79	-35.3	-36.4	18.6	0.00e+00	0	60	0	2361393152	41	4050
2026-01-15 15:37:03.93	271.17	27.76	-35.4	-36.5	18.5	0.00e+00	0	60	0	2390753280	41	4098
2026-01-15 15:37:07.96	272.46	27.71	-35.2	-36.3	18.7	0.00e+00	0	60	0	2420113408	41	3985
2026-01-15 15:37:11.99	273.75	27.65	-35.3	-36.5	18.5	0.00e+00	0	60	0	2449473536	41	4068
2026-01-15 15:37:16.03	275.03	27.58	-35.5	-36.7	18.4	0.00e+00	0	60	0	2477785088	41	4164
2026-01-15 15:37:20.06	276.30	27.48	-35.4	-36.6	18.5	0.00e+00	0	60	0	2507145216	41	4111
2026-01-15 15:37:24.10	277.57	27.38	-35.5	-36.7	18.3	0.00e+00	0	60	0	2536505344	41	4157
2026-01-15 15:37:28.13	278.82	27.26	-35.4	-36.6	18.4	0.00e+00	0	60	0	2565865472	41	4125
2026-01-15 15:37:32.16	280.07	27.13	-35.3	-36.5	18.5	0.00e+00	0	60	0	2594177024	41	4069
2026-01-15 15:37:36.20	281.30	26.98	-35.3	-36.5	18.5	0.00e+00	0	60	0	2623537152	41	4070
2026-01-15 15:37:40.24	282.53	26.82	-35.5	-36.7	18.3	0.00e+00	0	60	0	2652897280	41	4166
2026-01-15 15:37:44.27	283.74	26.65	-35.5	-36.7	18.3	0.00e+00	0	60	0	2682257408	41	4177
2026-01-15 15:37:48.31	284.94	26.47	-35.5	-36.8	18.2	0.00e+00	0	60	0	2710568960	41	4234
2026-01-15 15:37:52.34	286.12	26.27	-35.3	-36.7	18.3	0.00e+00	0	60	0	2739929088	41	4180
2026-01-15 15:37:56.38	287.29	26.06	-35.1	-36.4	18.5	0.00e+00	0	60	0	2769289216	41	4051
2026-01-15 15:38:00.42	288.45	25.85	-35.6	-36.8	18.1	0.00e+00	0	60	0	2798649344	41	4234
2026-01-15 15:38:04.46	289.59	25.62	-35.5	-36.9	18.0	0.00e+00	0	60	0	2828009472	41	4273
2026-01-15 15:38:08.50	290.71	25.38	-35.2	-37.1	17.8	0.00e+00	0	60	0	2856321024	41	4348
2026-01-15 15:38:12.54	291.81	25.13	-35.0	-36.6	18.3	0.00e+00	0	60	0	2885681152	40	4376
2026-01-15 15:38:16.59	292.91	24.88	-35.6	-36.9	18.1	0.00e+00	0	60	0	2915041280	40	4521
2026-01-15 15:38:20.62	293.98	24.62	-35.6	-37.1	17.8	0.00e+00	0	60	0	2944401408	41	4350
2026-01-15 15:38:24.66	295.03	24.35	-35.7	-37.1	17.8	0.00e+00	0	60	0	2973761536	41	4376
2026-01-15 15:38:28.70	296.06	24.07	-35.9	-37.2	17.7	0.00e+00	0	60	0	3003121664	41	4425
2026-01-15 15:38:32.73	297.08	23.79	-35.8	-37.0	17.9	0.00e+00	0	60	0	3031433216	41	4326
2026-01-15 15:38:36.76	298.08	23.50	-35.9	-37.1	17.8	0.00e+00	0	60	0	3060793344	41	4390
2026-01-15 15:38:40.79	299.06	23.20	-36.0	-37.3	17.6	0.00e+00	0	60	0	3090153472	41	4447
2026-01-15 15:38:44.82	300.02	22.91	-36.1	-37.3	17.6	0.00e+00	0	60	0	3119513600	41	4484
2026-01-15 15:38:48.86	300.96	22.60	-36.2	-37.5	17.4	0.00e+00	0	60	0	3147825152	41	4559
2026-01-15 15:38:52.89	301.89	22.29	-36.2	-37.5	17.3	0.00e+00	0	60	0	3177185280	42	4339
2026-01-15 15:38:56.92	302.79	21.98	-36.1	-37.3	17.5	0.00e+00	0	60	0	3206545408	42	4237
2026-01-15 15:39:00.95	303.68	21.67	-36.2	-37.5	17.4	0.00e+00	0	60	0	3235905536	42	4296
2026-01-15 15:39:04.98	304.55	21.35	-36.4	-37.8	17.1	0.00e+00	0	60	0	3264217088	42	4444
2026-01-15 15:39:09.01	305.41	21.03	-36.5	-37.8	17.1	0.00e+00	0	60	0	3293577216	42	4468
2026-01-15 15:39:13.05	306.25	20.71	-36.4	-37.8	17.1	0.00e+00	0	60	0	3322937344	42	4448
2026-01-15 15:39:17.08	307.07	20.39	-36.6	-37.9	16.9	0.00e+00	0	60	0	3352297472	42	4537
2026-01-15 15:39:21.12	307.87	20.06	-36.5	-37.9	17.0	0.00e+00	0	60	0	3381657600	42	4494
2026-01-15 15:39:25.16	308.66	19.74	-36.7	-38.1	16.8	0.00e+00	0	60	0	3409969152	42	4612
2026-01-15 15:39:29.19	309.43	19.41	-37.0	-38.4	16.4	0.00e+00	0	60	0	3439329280	43	4538
2026-01-15 15:39:33.22	310.19	19.08	-36.8	-38.1	16.7	0.00e+00	0	61	0	3468689408	43	4385
2026-01-15 15:39:37.26	310.93	18.76	-36.5	-37.8	17.0	0.00e+00	0	60	0	3497000960	43	4210
2026-01-15 15:39:41.30	311.65	18.43	-36.7	-38.0	16.7	0.00e+00	0	61	0	3526361088	43	4325
2026-01-15 15:39:45.34	312.36	18.10	-37.4	-38.8	16.1	0.00e+00	0	60	0	3555721216	44	4489
2026-01-15 15:39:49.38	313.06	17.77	-37.5	-39.0	15.9	0.00e+00	0	60	0	3585081344	44	4567
2026-01-15 15:39:53.41	313.74	17.44	-37.1	-38.5	16.4	0.00e+00	0	60	0	3614441472	44	4296
2026-01-15 15:39:57.45	314.40	17.12	-37.0	-38.3	16.5	0.00e+00	0	60	0	3643801600	44	4237
2026-01-15 15:40:01.48	315.05	16.79	-36.9	-38.3	16.5	0.00e+00	0	60	0	3672113152	44	4230
2026-01-15 15:40:05.52	315.69	16.47	-37.4	-38.9	16.0	0.00e+00	0	60	0	3701473280	44	4510
2026-01-15 15:40:09.56	316.32	16.14	-37.9	-39.4	15.4	0.00e+00	0	60	0	3730833408	45	4544
2026-01-15 15:40:13.59	316.93	15.82	-38.0	-39.6	15.2	0.00e+00	0	61	0	3760193536	45	4623
2026-01-15 15:40:17.63	317.53	15.50	-37.7	-39.2	15.6	0.00e+00	0	60	0	3789553664	45	4439
2026-01-15 15:40:21.66	318.12	15.18	-37.7	-39.2	15.6	0.00e+00	0	61	0	3817865216	45	4420
2026-01-15 15:40:25.70	318.69	14.86	-37.6	-39.2	15.6	0.00e+00	0	60	0	3847225344	45	4393
2026-01-15 15:40:29.74	319.26	14.55	-37.9	-39.6	15.2	0.00e+00	0	60	0	3876585472	45	4606
2026-01-15 15:40:33.78	319.81	14.23	-38.1	-39.8	14.9	1.10e-06	0	60	0	3905945600	46	4469
2026-01-15 15:40:37.82	320.35	13.92	-38.1	-39.8	14.9	0.00e+00	0	60	0	3935305728	46	4453
2026-01-15 15:40:41.86	320.88	13.61	-38.0	-39.7	15.0	0.00e+00	0	60	0	3963617280	46	4412
2026-01-15 15:40:45.89	321.40	13.30	-37.9	-39.5	15.2	0.00e+00	0	60	0	3992977408	46	4314
2026-01-15 15:40:49.93	321.91	12.99	-38.1	-39.7	14.9	0.00e+00	0	61	0	4022337536	46	4440
2026-01-15 15:40:53.96	322.41	12.68	-38.1	-39.8	14.9	0.00e+00	0	60	0	4051697664	46	4451
2026-01-15 15:40:58.00	322.89	12.38	-38.2	-39.8	14.8	0.00e+00	0	60	0	4080009216	46	4491
2026-01-15 15:41:02.03	323.37	12.08	-38.2	-39.9	14.7	0.00e+00	0	61	0	4109369344	46	4524
2026-01-15 15:41:06.07	323.84	11.78	-38.3	-40.0	14.5	1.10e-06	0	60	0	4138729472	46	4585
2026-01-15 15:41:10.10	324.30	11.48	-38.2	-40.0	14.5	0.00e+00	0	60	0	4168089600	46	4566
2026-01-15 15:41:14.14	324.76	11.19	-38.4	-40.3	14.2	2.20e-06	0	60	0	4197449728	46	4710
2026-01-15 15:41:18.18	325.20	10.89	-38.6	-40.5	14.0	3.40e-06	0	60	0	4225761280	46	4853
2026-01-15 15:41:22.20	325.63	10.60	-38.8	-40.7	13.8	8.00e-06	0	61	0	4255121408	47	4664
2026-01-15 15:41:26.24	326.06	10.31	-38.9	-40.9	13.5	1.02e-05	0	61	0	4284481536	47	4765
2026-01-15 15:41:30.28	326.48	10.02	-39.0	-41.0	13.4	1.48e-05	0	61	0	4313841664	47	4832
2026-01-15 15:41:34.32	326.89	9.74	-39.0	-41.1	13.2	1.60e-05	0	60	0	4343201792	47	4873
2026-01-15 15:41:38.36	327.30	9.45	-38.8	-40.8	13.4	1.48e-05	0	60	0	4371513344	47	4738
2026-01-15 15:41:42.40	327.69	9.17	-38.7	-40.6	13.6	1.02e-05	0	61	0	4400873472	47	4648
2026-01-15 15:41:46.44	328.08	8.89	-39.1	-41.2	13.0	4.80e-05	0	61	0	4430233600	47	4979
2026-01-15 15:41:50.49	328.47	8.62	-39.2	-41.3	13.1	3.20e-05	0	61	0	4459593728	48	4719
2026-01-15 15:41:54.52	328.84	8.34	-39.3	-41.4	12.8	5.37e-05	0	60	0	4488953856	48	4790
2026-01-15 15:41:58.56	329.21	8.07	-39.1	-41.3	13.0	2.74e-05	0	60	0	4518313984	48	4710
2026-01-15 15:42:02.59	329.57	7.80	-45.2	-56.6	3.8	8.46e-01	0	60	104	4524605440	60	13793
2026-01-15 15:42:06.63	329.93	7.53	-45.6	-57.0	3.8	8.46e-01	0	61	104	4524605440	60	14463
2026-01-15 15:42:10.66	330.28	7.26	-45.6	-57.0	3.8	8.46e-01	0	60	104	4524605440	60	14506
2026-01-15 15:42:14.70	330.62	6.99	-45.6	-56.9	3.8	8.46e-01	0	61	104	4524605440	60	14338
2026-01-15 15:42:18.74	330.96	6.73	-45.6	-56.9	3.8	8.47e-01	0	60	104	4524605440	60	14329
2026-01-15 15:42:22.78	331.29	6.47	-45.6	-56.9	3.8	8.46e-01	0	61	104	4524605440	60	14274
2026-01-15 15:42:26.82	331.62	6.21	-45.6	-56.9	3.8	8.47e-01	0	60	104	4524605440	60	14352
2026-01-15 15:42:30.87	331.94	5.95	-45.6	-56.9	3.8	8.47e-01	0	61	104	4524605440	60	14312
2026-01-15 15:42:34.91	332.25	5.70	-45.6	-56.9	3.8	8.46e-01	0	61	104	4524605440	60	14336
2026-01-15 15:42:38.94	332.56	5.44	-45.5	-56.9	3.8	8.46e-01	0	61	104	4524605440	60	14227
2026-01-15 15:42:42.98	332.87	5.19	-45.5	-56.9	3.8	8.45e-01	0	61	104	4524605440	60	14215
2026-01-15 15:42:47.02	333.17	4.94	-45.4	-56.9	3.8	8.46e-01	0	61	104	4524605440	60	14257
2026-01-15 15:42:51.06	333.47	4.69	-45.5	-56.9	3.8	8.46e-01	0	61	104	4524605440	60	14257
2026-01-15 15:42:55.10	333.76	4.44	-45.5	-56.9	3.8	8.45e-01	0	60	104	4524605440	60	14278
2026-01-15 15:42:59.14	334.05	4.20	-45.5	-56.9	3.8	8.46e-01	0	61	104	4524605440	60	14266
2026-01-15 15:43:03.18	334.33	3.95	-45.5	-56.8	3.8	8.46e-01	0	61	104	4524605440	60	14208
2026-01-15 15:43:07.22	334.61	3.71	-45.5	-56.9	3.8	8.46e-01	0	61	104	4524605440	60	14230
2026-01-15 15:43:11.26	334.88	3.47	-45.5	-56.9	3.8	8.46e-01	0	61	104	4524605440	60	14240
2026-01-15 15:43:15.30	335.15	3.23	-45.5	-56.9	3.8	8.46e-01	0	61	104	4524605440	60	14269
2026-01-15 15:43:19.34	335.42	2.99	-45.5	-56.9	3.8	8.46e-01	0	61	104	4524605440	60	14221
2026-01-15 15:43:23.38	335.68	2.76	-45.5	-56.9	3.8	8.47e-01	0	61	104	4524605440	60	14234
2026-01-15 15:43:27.42	335.94	2.52	-45.5	-56.9	3.8	8.45e-01	0	61	104	4524605440	60	14215
2026-01-15 15:43:31.46	336.19	2.29	-45.5	-56.9	3.8	8.46e-01	0	61	104	4524605440	60	14228
2026-01-15 15:43:35.50	336.44	2.06	-45.5	-56.9	3.8	8.47e-01	0	61	104	4524605440	60	14226

#Closed at: 2026-01-15 15:43:36
#Recorded file [4524 MB]: D:/lorett/data/31039_260115_183015.dat