passes_logs/2026/01/15/R2.0S_Moscow/R2.0S_Moscow__20260115_233612_NOAA_20_JPSS-1_rec.log

#Pass ID: 20260115_233612_NOAA 20 (JPSS-1)
#Satellite: NOAA 20 (JPSS-1)
#Configuration: NOAA 20
#almurnet v.1.7.20251203
#Start time: 2026-01-15 23:36:13

#Version: 2.2.20231116
#Station: R2.0S_Moscow
#Location: 37.707566 lon 55.798166 lat
#TLE: 1 43013U 17073A   26015.47098083  .00000029  00000+0  34851-4 0  9997
#TLE: 2 43013  98.7636 316.4053 0001479  38.6686 321.4595 14.19536048422808

#Time	Az	El	Level	Level2	SNR	BER	BlckErr	Temp	State	Recorded	gain1	gain2
2026-01-15 23:36:13.89	16.48	2.07	-42.1	-57.1	3.8	1.49e+00	0	51	0	0	56	19581
2026-01-15 23:36:17.93	16.51	2.33	-41.9	-57.0	3.8	1.49e+00	0	51	104	0	55	20317
2026-01-15 23:36:21.96	16.54	2.59	-42.0	-57.0	3.8	1.49e+00	0	52	104	0	55	20336
2026-01-15 23:36:26.01	16.57	2.86	-41.9	-56.9	3.8	1.49e+00	0	52	104	0	55	20240
2026-01-15 23:36:30.04	16.60	3.12	-42.0	-56.9	3.8	1.49e+00	0	52	104	0	55	20287
2026-01-15 23:36:34.08	16.62	3.39	-41.9	-57.0	3.8	1.49e+00	0	52	104	0	55	20347
2026-01-15 23:36:38.12	16.65	3.66	-42.0	-57.0	3.8	1.49e+00	0	53	104	0	55	20316
2026-01-15 23:36:42.16	16.68	3.94	-41.9	-56.9	3.8	1.49e+00	0	53	104	0	55	20287
2026-01-15 23:36:46.19	16.71	4.21	-41.9	-56.9	3.8	1.49e+00	0	53	104	0	55	20283
2026-01-15 23:36:50.23	16.74	4.49	-41.9	-57.0	3.8	1.49e+00	0	53	104	0	55	20346
2026-01-15 23:36:54.27	16.77	4.78	-41.9	-57.0	3.8	1.49e+00	0	54	104	0	55	20324
2026-01-15 23:36:58.30	16.80	5.06	-42.0	-56.9	3.8	1.49e+00	0	54	104	0	55	20273
2026-01-15 23:37:02.34	16.83	5.35	-42.0	-56.9	3.8	1.49e+00	0	54	104	0	55	20292
2026-01-15 23:37:06.37	16.86	5.64	-42.0	-56.9	3.8	1.49e+00	0	54	104	0	55	20265
2026-01-15 23:37:10.41	16.89	5.94	-42.0	-56.9	3.8	1.49e+00	0	54	104	0	55	20282
2026-01-15 23:37:14.45	16.92	6.24	-41.9	-56.9	3.8	1.49e+00	0	55	104	0	55	20274
2026-01-15 23:37:18.49	16.96	6.54	-41.9	-56.9	3.8	1.49e+00	0	55	104	0	55	20132
2026-01-15 23:37:22.53	16.99	6.84	-41.9	-56.7	3.8	1.49e+00	0	55	104	0	55	19768
2026-01-15 23:37:26.57	17.02	7.15	-41.9	-56.5	3.8	1.49e+00	0	55	104	0	55	19269
2026-01-15 23:37:30.60	17.05	7.47	-41.8	-54.0	3.9	1.47e+00	0	55	104	0	55	14490
2026-01-15 23:37:34.65	17.08	7.79	-41.3	-49.9	6.0	4.50e-01	0	55	0	4194304	54	9512
2026-01-15 23:37:38.69	17.12	8.11	-41.5	-48.8	7.1	8.22e-02	0	55	0	12582912	53	8957
2026-01-15 23:37:42.73	17.15	8.43	-42.0	-48.7	7.7	1.48e+00	0	56	0	15728640	55	7891
2026-01-15 23:37:46.77	17.18	8.76	-41.9	-48.0	8.5	4.00e-02	0	56	0	23068672	55	7264
2026-01-15 23:37:50.81	17.22	9.10	-41.9	-47.9	8.7	3.23e-02	0	56	0	30408704	55	7134
2026-01-15 23:37:54.84	17.25	9.44	-42.0	-47.7	9.0	3.14e-02	0	56	0	37748736	55	7033
2026-01-15 23:37:58.88	17.29	9.78	-42.0	-47.7	9.2	1.78e-02	0	56	0	46137344	55	6965
2026-01-15 23:38:02.92	17.32	10.13	-42.0	-47.5	9.5	1.25e-02	0	56	0	53477376	55	6811
2026-01-15 23:38:06.96	17.36	10.48	-42.1	-47.4	9.7	1.05e-02	0	57	0	60817408	55	6777
2026-01-15 23:38:11.00	17.40	10.84	-42.2	-47.4	9.8	8.61e-03	0	57	0	68157440	55	6768
2026-01-15 23:38:15.04	17.43	11.20	-42.1	-47.1	10.2	6.34e-03	0	57	0	76546048	55	6513
2026-01-15 23:38:19.08	17.47	11.57	-42.1	-47.0	10.3	4.80e-03	0	57	0	83886080	55	6468
2026-01-15 23:38:23.12	17.51	11.95	-42.1	-46.9	10.5	3.70e-03	0	57	0	91226112	55	6369
2026-01-15 23:38:27.16	17.55	12.33	-42.1	-46.7	10.7	2.93e-03	0	57	0	98566144	55	6270
2026-01-15 23:38:31.20	17.58	12.72	-42.0	-46.7	10.8	2.49e-03	0	57	0	106954752	55	6207
2026-01-15 23:38:35.23	17.62	13.11	-42.0	-46.6	10.9	2.34e-03	0	57	0	114294784	55	6145
2026-01-15 23:38:39.27	17.66	13.51	-42.0	-46.5	11.1	1.81e-03	0	57	0	121634816	55	6114
2026-01-15 23:38:43.30	17.70	13.91	-42.0	-46.5	11.1	1.51e-03	0	57	0	128974848	55	6068
2026-01-15 23:38:47.34	17.75	14.33	-42.0	-46.3	11.4	1.12e-03	0	57	0	136314880	55	5987
2026-01-15 23:38:51.38	17.79	14.75	-42.1	-46.4	11.3	1.29e-03	0	58	0	144703488	55	6028
2026-01-15 23:38:55.42	17.83	15.18	-42.0	-46.4	11.4	9.83e-04	0	58	0	152043520	55	6006
2026-01-15 23:38:59.45	17.87	15.61	-42.0	-46.4	11.4	1.09e-03	0	58	0	159383552	55	6009
2026-01-15 23:39:03.49	17.92	16.05	-42.0	-46.3	11.5	8.72e-04	0	58	0	166723584	55	5947
2026-01-15 23:39:07.53	17.96	16.51	-42.1	-46.3	11.5	7.90e-04	0	58	0	174063616	55	5971
2026-01-15 23:39:11.57	18.01	16.97	-42.1	-46.3	11.6	7.62e-04	0	58	0	182452224	55	5969
2026-01-15 23:39:15.61	18.06	17.43	-42.1	-46.4	11.5	8.78e-04	0	58	0	189792256	55	6019
2026-01-15 23:39:19.64	18.10	17.91	-42.2	-46.4	11.5	7.77e-04	0	58	0	197132288	55	6059
2026-01-15 23:39:23.68	18.15	18.40	-42.2	-46.5	11.5	8.77e-04	0	58	0	204472320	55	6099
2026-01-15 23:39:27.72	18.20	18.90	-42.2	-46.5	11.5	7.12e-04	0	58	0	212860928	55	6070
2026-01-15 23:39:31.76	18.26	19.41	-42.3	-46.5	11.6	7.54e-04	0	58	0	220200960	55	6075
2026-01-15 23:39:35.79	18.31	19.92	-42.3	-46.6	11.5	8.38e-04	0	58	0	227540992	55	6152
2026-01-15 23:39:39.83	18.36	20.45	-42.3	-46.6	11.5	8.21e-04	0	58	0	234881024	55	6154
2026-01-15 23:39:43.87	18.42	20.99	-42.4	-46.6	11.5	8.89e-04	0	58	0	242221056	55	6186
2026-01-15 23:39:47.91	18.47	21.55	-42.4	-46.7	11.4	9.47e-04	0	58	0	250609664	55	6252
2026-01-15 23:39:51.94	18.53	22.11	-42.5	-46.8	11.3	1.17e-03	0	59	0	257949696	55	6332
2026-01-15 23:39:55.98	18.59	22.69	-42.5	-46.9	11.3	1.20e-03	0	59	0	265289728	55	6355
2026-01-15 23:40:00.02	18.65	23.28	-42.5	-46.8	11.3	1.11e-03	0	58	0	272629760	55	6332
2026-01-15 23:40:04.06	18.71	23.89	-42.5	-46.7	11.5	9.62e-04	0	58	0	281018368	55	6255
2026-01-15 23:40:08.10	18.78	24.51	-42.5	-46.7	11.5	8.01e-04	0	58	0	288358400	55	6257
2026-01-15 23:40:12.13	18.84	25.14	-42.4	-46.6	11.6	8.15e-04	0	59	0	295698432	55	6162
2026-01-15 23:40:16.17	18.91	25.79	-42.6	-46.9	11.4	9.34e-04	0	59	0	303038464	55	6363
2026-01-15 23:40:20.21	18.98	26.46	-42.6	-46.9	11.3	1.14e-03	0	59	0	310378496	55	6380
2026-01-15 23:40:24.25	19.06	27.14	-42.7	-47.1	11.2	1.49e-03	0	59	0	318767104	55	6523
2026-01-15 23:40:28.28	19.13	27.84	-42.8	-47.2	11.2	1.46e-03	0	59	0	326107136	56	6248
2026-01-15 23:40:32.32	19.21	28.56	-43.0	-47.5	10.9	2.54e-03	0	59	0	333447168	56	6489
2026-01-15 23:40:36.36	19.29	29.30	-43.2	-48.0	10.4	4.15e-03	0	59	0	340787200	56	6853
2026-01-15 23:40:40.40	19.38	30.06	-43.4	-48.6	9.8	9.54e-03	0	59	0	349175808	57	6915
2026-01-15 23:40:44.43	19.47	30.84	-43.5	-48.8	9.6	1.15e-02	0	59	0	356515840	57	7065
2026-01-15 23:40:48.46	19.56	31.64	-43.6	-49.2	9.2	1.98e-02	0	59	0	363855872	57	7438
2026-01-15 23:40:52.50	19.65	32.46	-43.6	-49.2	9.2	1.95e-02	0	59	0	371195904	57	7453
2026-01-15 23:40:56.54	19.75	33.31	-43.6	-49.1	9.3	1.74e-02	0	59	0	378535936	57	7320
2026-01-15 23:41:00.58	19.86	34.18	-43.1	-47.8	10.7	3.56e-03	0	59	0	386924544	57	6307
2026-01-15 23:41:04.61	19.97	35.07	-42.8	-47.1	11.4	1.06e-03	0	59	0	394264576	57	5826
2026-01-15 23:41:08.65	20.08	36.00	-42.6	-46.7	11.9	4.72e-04	0	59	0	401604608	57	5533
2026-01-15 23:41:12.69	20.20	36.95	-42.3	-46.0	12.7	1.07e-04	0	59	0	408944640	56	5406
2026-01-15 23:41:16.72	20.33	37.92	-42.2	-45.7	12.9	5.72e-05	0	59	0	417333248	56	5262
2026-01-15 23:41:20.76	20.46	38.93	-42.2	-45.7	13.0	4.65e-05	0	59	0	424673280	56	5243
2026-01-15 23:41:24.80	20.61	39.97	-42.4	-46.2	12.5	1.20e-04	0	59	0	432013312	56	5530
2026-01-15 23:41:28.84	20.76	41.04	-42.7	-46.6	12.0	2.69e-04	0	59	0	439353344	56	5849
2026-01-15 23:41:32.88	20.91	42.14	-42.8	-46.9	11.8	6.32e-04	0	59	0	446693376	56	5996
2026-01-15 23:41:36.92	21.09	43.28	-42.8	-46.9	11.7	5.96e-04	0	59	0	455081984	56	6008
2026-01-15 23:41:40.96	21.27	44.45	-42.7	-46.8	11.9	4.23e-04	0	59	0	462422016	56	5960
2026-01-15 23:41:45.00	21.46	45.65	-43.1	-47.5	11.1	1.26e-03	0	59	0	469762048	56	6445
2026-01-15 23:41:49.03	21.67	46.90	-43.8	-49.3	9.3	1.37e-02	0	59	0	477102080	58	7089
2026-01-15 23:41:53.07	21.89	48.18	-43.8	-49.4	9.2	2.26e-02	0	59	0	485490688	58	7128
2026-01-15 23:41:57.11	22.14	49.50	-43.7	-49.0	9.6	1.30e-02	0	59	0	492830720	58	6822
2026-01-15 23:42:01.15	22.40	50.86	-43.1	-47.6	11.1	1.77e-03	0	59	0	500170752	58	5795
2026-01-15 23:42:05.19	22.69	52.26	-41.7	-44.9	13.6	7.60e-06	0	59	0	507510784	55	5076
2026-01-15 23:42:09.23	23.01	53.70	-41.7	-45.0	13.6	8.30e-06	0	59	0	514850816	55	5104
2026-01-15 23:42:13.26	23.36	55.18	-41.5	-44.5	14.1	1.50e-06	0	59	0	523239424	55	4830
2026-01-15 23:42:17.30	23.74	56.70	-42.0	-45.3	13.3	1.52e-05	0	59	0	530579456	54	5638
2026-01-15 23:42:21.34	24.17	58.27	-42.5	-46.4	12.1	2.30e-04	0	60	0	537919488	55	6039
2026-01-15 23:42:25.38	24.65	59.87	-41.9	-45.3	13.2	4.27e-05	0	60	0	545259520	55	5317
2026-01-15 23:42:29.42	25.20	61.52	-40.8	-43.5	15.1	0.00e+00	0	59	0	553648128	53	4817
2026-01-15 23:42:33.46	25.82	63.21	-41.3	-44.2	14.3	0.00e+00	0	59	0	560988160	53	5255
2026-01-15 23:42:37.50	26.54	64.93	-42.3	-45.9	12.6	4.88e-05	0	59	0	568328192	55	5699
2026-01-15 23:42:41.53	27.37	66.69	-43.3	-47.9	10.6	3.47e-03	0	60	0	575668224	57	6418
2026-01-15 23:42:45.57	28.35	68.48	-42.8	-46.9	11.7	6.53e-04	0	59	0	583008256	57	5705
2026-01-15 23:42:49.61	29.53	70.31	-42.5	-46.3	12.3	1.94e-04	0	60	0	591396864	57	5320
2026-01-15 23:42:53.64	30.96	72.15	-42.8	-46.8	11.7	4.90e-04	0	60	0	598736896	56	5962
2026-01-15 23:42:57.68	32.74	74.02	-43.4	-48.2	10.2	6.30e-03	0	60	0	606076928	57	6615
2026-01-15 23:43:01.72	35.02	75.90	-43.1	-47.6	10.9	1.88e-03	0	60	0	613416960	57	6132
2026-01-15 23:43:05.76	38.02	77.78	-43.0	-47.3	11.2	2.19e-03	0	60	0	621805568	57	5970
2026-01-15 23:43:09.80	42.13	79.63	-42.4	-46.2	12.3	2.49e-04	0	60	0	629145600	56	5554
2026-01-15 23:43:13.84	48.02	81.43	-43.8	-49.6	8.8	2.00e-02	0	60	0	636485632	58	7319
2026-01-15 23:43:17.87	56.92	83.10	-42.9	-47.1	11.3	1.91e-03	0	60	0	643825664	57	5842
2026-01-15 23:43:21.91	70.99	84.52	-41.1	-43.9	14.4	2.20e-06	0	60	0	651165696	54	4795
2026-01-15 23:43:25.95	92.52	85.42	-41.8	-45.1	13.2	1.52e-05	0	60	0	659554304	54	5499
2026-01-15 23:43:29.99	118.88	85.47	-42.4	-46.2	12.0	2.67e-04	0	60	0	666894336	55	5915
2026-01-15 23:43:34.03	141.21	84.64	-42.6	-46.7	11.6	6.17e-04	0	60	0	674234368	55	6237
2026-01-15 23:43:38.06	155.96	83.27	-43.9	-49.7	8.6	3.34e-02	0	60	0	681574400	58	7406
2026-01-15 23:43:42.11	165.34	81.61	-43.5	-48.7	9.6	2.30e-02	0	60	0	689963008	59	6212
2026-01-15 23:43:46.15	171.49	79.82	-42.5	-46.2	12.1	7.12e-04	0	60	0	697303040	56	5578
2026-01-15 23:43:50.19	175.74	77.96	-43.6	-49.1	9.2	1.42e-02	0	60	0	704643072	57	7294
2026-01-15 23:43:54.22	178.83	76.09	-44.4	-52.0	6.5	2.59e-01	0	60	0	711983104	60	8653
2026-01-15 23:43:58.26	181.17	74.21	-44.2	-51.1	7.2	2.16e-01	0	60	0	719323136	60	7798
2026-01-15 23:44:02.30	183.00	72.33	-42.6	-46.5	11.9	9.35e-04	0	60	0	727711744	57	5454
2026-01-15 23:44:06.34	184.47	70.48	-42.4	-46.2	12.1	1.65e-04	0	60	0	735051776	55	5893
2026-01-15 23:44:10.37	185.66	68.65	-43.4	-48.3	10.0	2.68e-03	0	60	0	742391808	57	6721
2026-01-15 23:44:14.41	186.66	66.85	-43.6	-48.8	9.6	1.43e-02	0	60	0	749731840	59	6297
2026-01-15 23:44:18.44	187.51	65.09	-43.3	-48.1	10.3	1.90e-02	0	60	0	758120448	58	6159
2026-01-15 23:44:22.48	188.23	63.35	-41.7	-45.0	13.4	4.88e-05	0	60	0	765460480	55	5107
2026-01-15 23:44:26.52	188.86	61.66	-41.0	-43.7	14.7	0.00e+00	0	60	0	772800512	53	4971
2026-01-15 23:44:30.56	189.42	60.00	-42.5	-46.3	12.1	4.48e-04	0	60	0	780140544	56	5655
2026-01-15 23:44:34.60	189.90	58.39	-43.6	-48.9	9.4	1.21e-02	0	60	0	787480576	57	7195
2026-01-15 23:44:38.64	190.34	56.81	-43.3	-48.0	10.4	7.36e-03	0	60	0	795869184	58	6117
2026-01-15 23:44:42.68	190.73	55.28	-42.0	-45.4	13.1	4.95e-05	0	60	0	803209216	56	5072
2026-01-15 23:44:46.72	191.08	53.79	-42.2	-45.9	12.5	1.70e-04	0	60	0	810549248	55	5660
2026-01-15 23:44:50.76	191.40	52.34	-42.5	-46.5	11.9	1.01e-04	0	60	0	817889280	55	6086
2026-01-15 23:44:54.80	191.69	50.93	-44.1	-50.5	7.9	7.00e-02	0	60	0	826277888	58	8115
2026-01-15 23:44:58.83	191.95	49.56	-43.6	-48.7	9.7	1.00e-02	0	60	0	833617920	58	6611
2026-01-15 23:45:02.87	192.20	48.23	-44.3	-51.7	6.7	4.36e-01	0	60	0	840957952	60	8307
2026-01-15 23:45:06.91	192.42	46.94	-42.6	-46.4	12.0	4.05e-04	0	60	0	848297984	57	5395
2026-01-15 23:45:10.95	192.63	45.69	-43.6	-48.9	9.5	1.11e-02	0	60	0	855638016	57	7144
2026-01-15 23:45:14.98	192.83	44.48	-42.0	-45.4	13.1	5.79e-05	0	60	0	864026624	56	5048
2026-01-15 23:45:19.02	193.01	43.30	-41.3	-44.2	14.2	0.00e+00	0	60	0	871366656	53	5236
2026-01-15 23:45:23.06	193.18	42.16	-43.4	-48.5	9.9	6.08e-03	0	60	0	878706688	57	6837
2026-01-15 23:45:27.10	193.34	41.05	-42.7	-46.8	11.7	1.18e-03	0	60	0	886046720	57	5599
2026-01-15 23:45:31.14	193.49	39.97	-42.6	-46.5	12.0	2.32e-04	0	60	0	894435328	56	5745
2026-01-15 23:45:35.17	193.63	38.93	-44.2	-50.9	7.5	7.62e-02	0	60	0	901775360	58	8518
2026-01-15 23:45:39.21	193.76	37.92	-44.4	-51.9	6.6	2.59e-01	0	60	0	909115392	59	8968
2026-01-15 23:45:43.25	193.89	36.93	-43.5	-48.9	9.4	2.28e-02	0	60	0	916455424	59	6368
2026-01-15 23:45:47.29	194.01	35.98	-43.7	-49.2	9.0	2.41e-02	0	60	0	923795456	59	6642
2026-01-15 23:45:51.33	194.12	35.05	-44.2	-51.1	7.2	1.12e-01	0	60	0	932184064	59	8214
2026-01-15 23:45:55.36	194.23	34.15	-44.6	-53.3	5.4	5.27e-01	0	60	0	939524096	59	10621
2026-01-15 23:45:59.40	194.33	33.27	-44.2	-51.3	6.9	2.02e-01	0	60	0	946864128	59	8401
2026-01-15 23:46:03.44	194.43	32.42	-43.8	-49.6	8.6	4.21e-02	0	60	0	954204160	59	6945
2026-01-15 23:46:07.48	194.52	31.59	-43.6	-49.1	9.1	2.24e-02	0	60	0	961544192	59	6549
2026-01-15 23:46:11.52	194.61	30.78	-44.0	-50.4	7.8	6.58e-02	0	60	0	969932800	59	7581
2026-01-15 23:46:15.56	194.70	30.00	-44.1	-50.9	7.3	1.25e-01	0	60	0	977272832	59	8050
2026-01-15 23:46:19.59	194.78	29.24	-43.9	-50.4	7.8	8.52e-02	0	60	0	984612864	59	7552
2026-01-15 23:46:23.63	194.86	28.49	-43.6	-49.1	9.0	2.71e-02	0	60	0	991952896	59	6567
2026-01-15 23:46:27.67	194.94	27.77	-43.1	-47.8	10.5	5.45e-03	0	60	0	1000341504	58	5924
2026-01-15 23:46:31.71	195.01	27.06	-42.6	-46.7	11.5	8.25e-04	0	60	0	1007681536	57	5570
2026-01-15 23:46:35.75	195.08	26.38	-42.4	-46.4	11.9	4.37e-04	0	60	0	1015021568	56	5675
2026-01-15 23:46:39.78	195.15	25.71	-42.4	-46.3	12.0	3.69e-04	0	60	0	1022361600	56	5650
2026-01-15 23:46:43.82	195.22	25.05	-42.4	-46.5	11.9	3.70e-04	0	60	0	1029701632	56	5723
2026-01-15 23:46:47.86	195.28	24.41	-42.3	-46.1	12.2	2.38e-04	0	60	0	1038090240	56	5518
2026-01-15 23:46:51.90	195.35	23.79	-42.0	-45.6	12.7	9.46e-05	0	60	0	1045430272	56	5183
2026-01-15 23:46:55.94	195.41	23.18	-41.7	-45.1	13.1	2.67e-05	0	60	0	1052770304	55	5167
2026-01-15 23:46:59.98	195.47	22.59	-41.6	-45.0	13.2	3.20e-05	0	60	0	1060110336	55	5113
2026-01-15 23:47:04.01	195.52	22.01	-41.7	-45.2	12.9	5.18e-05	0	60	0	1068498944	55	5262
2026-01-15 23:47:08.05	195.58	21.44	-41.8	-45.3	12.8	6.25e-05	0	60	0	1075838976	55	5319
2026-01-15 23:47:12.09	195.63	20.88	-41.9	-45.5	12.6	1.03e-04	0	60	0	1083179008	55	5455
2026-01-15 23:47:16.13	195.68	20.34	-42.0	-45.7	12.3	1.63e-04	0	60	0	1090519040	55	5578
2026-01-15 23:47:20.17	195.73	19.81	-42.0	-45.9	12.2	2.28e-04	0	60	0	1097859072	55	5659
2026-01-15 23:47:24.20	195.78	19.29	-42.1	-46.0	12.0	3.38e-04	0	60	0	1106247680	55	5745
2026-01-15 23:47:28.24	195.83	18.78	-42.1	-46.1	11.9	3.11e-04	0	60	0	1113587712	55	5822
2026-01-15 23:47:32.28	195.88	18.28	-42.1	-46.0	12.0	2.92e-04	0	60	0	1120927744	55	5771
2026-01-15 23:47:36.32	195.93	17.79	-42.1	-46.1	11.9	3.59e-04	0	60	0	1128267776	55	5819
2026-01-15 23:47:40.36	195.97	17.31	-42.1	-46.1	11.8	4.18e-04	0	60	0	1136656384	55	5854
2026-01-15 23:47:44.40	196.01	16.83	-42.2	-46.3	11.7	5.98e-04	0	60	0	1143996416	55	5944
2026-01-15 23:47:48.44	196.06	16.37	-42.2	-46.4	11.5	6.68e-04	0	60	0	1151336448	55	6028
2026-01-15 23:47:52.48	196.10	15.92	-42.2	-46.4	11.5	8.99e-04	0	60	0	1158676480	55	6008
2026-01-15 23:47:56.51	196.14	15.47	-42.3	-46.5	11.4	8.74e-04	0	60	0	1166016512	55	6113
2026-01-15 23:48:00.55	196.18	15.04	-42.2	-46.4	11.4	8.95e-04	0	60	0	1174405120	55	6023
2026-01-15 23:48:04.59	196.22	14.61	-42.2	-46.5	11.4	9.83e-04	0	60	0	1181745152	55	6079
2026-01-15 23:48:08.63	196.26	14.18	-42.2	-46.5	11.3	1.11e-03	0	60	0	1189085184	55	6126
2026-01-15 23:48:12.67	196.30	13.77	-42.3	-46.7	11.1	1.56e-03	0	60	0	1196425216	55	6229
2026-01-15 23:48:16.71	196.33	13.36	-42.4	-46.9	10.8	2.27e-03	0	60	0	1204813824	55	6380
2026-01-15 23:48:20.75	196.37	12.96	-42.5	-47.1	10.6	3.57e-03	0	60	0	1212153856	55	6569
2026-01-15 23:48:24.79	196.41	12.57	-42.6	-47.5	10.2	5.70e-03	0	60	0	1219493888	55	6840
2026-01-15 23:48:28.82	196.44	12.18	-42.6	-47.7	9.9	8.61e-03	0	60	0	1226833920	55	7023
2026-01-15 23:48:32.86	196.47	11.80	-42.9	-48.2	9.6	1.25e-02	0	60	0	1234173952	56	6969
2026-01-15 23:48:36.90	196.51	11.42	-42.9	-48.2	9.6	1.37e-02	0	60	0	1242562560	56	6996
2026-01-15 23:48:40.94	196.54	11.05	-42.9	-48.2	9.4	1.56e-02	0	60	0	1249902592	56	7040
2026-01-15 23:48:44.97	196.57	10.68	-42.9	-48.2	9.4	1.55e-02	0	60	0	1257242624	56	7032
2026-01-15 23:48:49.01	196.61	10.32	-42.9	-48.3	9.3	1.79e-02	0	60	0	1264582656	56	7078
2026-01-15 23:48:53.05	196.64	9.97	-42.8	-48.2	9.4	1.52e-02	0	60	0	1272971264	56	6963
2026-01-15 23:48:57.09	196.67	9.62	-42.7	-48.1	9.4	1.51e-02	0	60	0	1280311296	56	6934
2026-01-15 23:49:01.12	196.70	9.28	-42.7	-48.0	9.6	1.44e-02	0	60	0	1287651328	56	6805
2026-01-15 23:49:05.16	196.73	8.94	-42.7	-48.1	9.4	1.47e-02	0	60	0	1294991360	56	6884
2026-01-15 23:49:09.20	196.76	8.60	-42.6	-48.0	9.4	1.50e-02	0	60	0	1302331392	56	6817
2026-01-15 23:49:13.23	196.79	8.27	-42.5	-47.9	9.4	1.59e-02	0	60	0	1310720000	56	6732
2026-01-15 23:49:17.27	196.82	7.94	-44.6	-58.7	3.8	9.97e-01	0	60	104	1317011456	59	19828
2026-01-15 23:49:21.31	196.85	7.62	-45.2	-59.8	3.8	1.49e+00	0	60	104	1317011456	61	19989
2026-01-15 23:49:25.35	196.88	7.30	-45.4	-60.0	3.8	1.49e+00	0	60	104	1317011456	61	20352
2026-01-15 23:49:29.38	196.90	6.99	-45.3	-59.9	3.8	1.49e+00	0	60	104	1317011456	61	20094
2026-01-15 23:49:33.42	196.93	6.68	-45.3	-59.8	3.8	1.49e+00	0	60	104	1317011456	61	19911
2026-01-15 23:49:37.46	196.96	6.37	-45.3	-59.8	3.8	1.49e+00	0	60	104	1317011456	61	19851
2026-01-15 23:49:41.50	196.98	6.07	-45.3	-59.8	3.8	1.49e+00	0	60	104	1317011456	61	19907
2026-01-15 23:49:45.53	197.01	5.77	-45.3	-59.8	3.8	1.49e+00	0	60	104	1317011456	61	19892
2026-01-15 23:49:49.57	197.04	5.47	-45.3	-59.8	3.8	1.49e+00	0	60	104	1317011456	61	19864
2026-01-15 23:49:53.60	197.06	5.18	-45.3	-59.8	3.8	1.49e+00	0	60	104	1317011456	61	19873
2026-01-15 23:49:57.64	197.09	4.89	-45.3	-59.7	3.8	1.49e+00	0	60	104	1317011456	61	19841
2026-01-15 23:50:01.68	197.11	4.60	-45.3	-59.8	3.8	1.49e+00	0	60	104	1317011456	61	19851
2026-01-15 23:50:05.71	197.14	4.32	-45.2	-59.8	3.8	1.49e+00	0	60	104	1317011456	61	19855
2026-01-15 23:50:09.75	197.16	4.04	-45.2	-59.7	3.8	1.49e+00	0	60	104	1317011456	61	19799
2026-01-15 23:50:13.79	197.19	3.76	-45.2	-59.7	3.8	1.49e+00	0	60	104	1317011456	61	19746
2026-01-15 23:50:17.83	197.21	3.48	-45.2	-59.7	3.8	1.49e+00	0	60	104	1317011456	61	19757
2026-01-15 23:50:21.87	197.24	3.21	-45.2	-59.7	3.8	1.49e+00	0	60	104	1317011456	61	19778
2026-01-15 23:50:25.91	197.26	2.94	-45.2	-59.7	3.8	1.49e+00	0	60	104	1317011456	61	19767
2026-01-15 23:50:29.94	197.28	2.67	-45.2	-59.7	3.8	1.49e+00	0	60	104	1317011456	61	19716
2026-01-15 23:50:33.98	197.31	2.41	-45.2	-59.7	3.8	1.49e+00	0	60	104	1317011456	61	19711
2026-01-15 23:50:38.02	197.33	2.15	-45.2	-59.7	3.8	1.49e+00	0	60	104	1317011456	61	19761

#Closed at: 2026-01-15 23:50:41
#Recorded file [1317 MB]: D:/lorett/data/31039_260116_023613.dat