passes_logs/2026/01/15/R2.0S_Moscow/R2.0S_Moscow__20260115_003334_FENGYUN_3D_rec.log

#Pass ID: 20260115_003334_FENGYUN 3D
#Satellite: FENGYUN 3D
#Configuration: FENGYUN 3D
#almurnet v.1.7.20251203
#Start time: 2026-01-15 00:33:35

#Version: 2.2.20231116
#Station: R2.0S_Moscow
#Location: 37.707566 lon 55.798166 lat
#TLE: 1 43010U 17072A   26014.22831475  .00000226  00000+0  12883-3 0  9994
#TLE: 2 43010  98.9934 346.0326 0002309 109.2304 250.9121 14.19696287423146

#Time	Az	El	Level	Level2	SNR	BER	BlckErr	Temp	State	Recorded	gain1	gain2
2026-01-15 00:33:35.86	23.34	2.06	-42.2	-54.4	3.8	8.47e-01	0	49	0	0	56	14210
2026-01-15 00:33:39.89	23.57	2.29	-42.0	-54.2	3.8	8.46e-01	0	49	104	0	54	15599
2026-01-15 00:33:43.93	23.81	2.53	-42.0	-54.2	3.8	8.46e-01	0	49	104	0	54	15659
2026-01-15 00:33:47.97	24.05	2.77	-42.0	-54.2	3.8	8.46e-01	0	50	104	0	54	15583
2026-01-15 00:33:52.01	24.30	3.01	-42.0	-54.2	3.8	8.47e-01	0	50	104	0	54	15612
2026-01-15 00:33:56.06	24.55	3.25	-42.0	-54.2	3.8	8.47e-01	0	50	104	0	54	15616
2026-01-15 00:34:00.10	24.80	3.49	-42.0	-54.1	3.8	8.46e-01	0	51	104	0	54	15538
2026-01-15 00:34:04.13	25.06	3.74	-42.0	-54.2	3.8	8.46e-01	0	51	104	0	54	15630
2026-01-15 00:34:08.16	25.32	3.98	-42.0	-54.2	3.8	8.46e-01	0	51	104	0	54	15593
2026-01-15 00:34:12.20	25.58	4.23	-42.0	-54.1	3.8	8.46e-01	0	51	104	0	54	15574
2026-01-15 00:34:16.24	25.85	4.48	-42.0	-54.1	3.8	8.45e-01	0	52	104	0	54	15556
2026-01-15 00:34:20.28	26.13	4.74	-42.0	-54.1	3.8	8.47e-01	0	52	104	0	54	15575
2026-01-15 00:34:24.32	26.40	4.99	-42.0	-54.1	3.8	8.45e-01	0	52	104	0	54	15566
2026-01-15 00:34:28.36	26.69	5.25	-42.0	-54.2	3.8	8.45e-01	0	52	104	0	54	15632
2026-01-15 00:34:32.41	26.97	5.50	-42.0	-54.1	3.8	8.45e-01	0	52	104	0	54	15577
2026-01-15 00:34:36.45	27.27	5.76	-42.0	-54.1	3.8	8.45e-01	0	53	104	0	54	15421
2026-01-15 00:34:40.49	27.56	6.03	-42.0	-54.1	3.8	8.46e-01	0	53	104	0	54	15493
2026-01-15 00:34:44.53	27.86	6.29	-42.0	-53.9	3.8	8.46e-01	0	53	104	0	54	15202
2026-01-15 00:34:48.57	28.17	6.56	-41.7	-51.5	3.8	8.43e-01	0	53	104	0	54	11435
2026-01-15 00:34:52.61	28.48	6.83	-41.7	-51.5	4.0	8.44e-01	0	53	104	0	54	11473
2026-01-15 00:34:56.64	28.80	7.10	-41.9	-53.1	3.8	8.44e-01	0	53	104	0	54	13727
2026-01-15 00:35:00.67	29.12	7.37	-41.8	-52.6	3.8	8.45e-01	0	54	104	0	54	13031
2026-01-15 00:35:04.70	29.45	7.64	-40.0	-44.5	8.4	8.16e-02	0	54	0	10485760	51	6129
2026-01-15 00:35:08.74	29.79	7.92	-39.4	-43.2	9.8	1.21e-02	0	54	0	33554432	50	5556
2026-01-15 00:35:12.78	30.13	8.20	-39.9	-43.4	10.2	6.80e-01	0	54	104	50331648	50	5664
2026-01-15 00:35:16.82	30.48	8.48	-39.4	-42.7	10.8	3.64e-03	0	54	0	71303168	50	5235
2026-01-15 00:35:20.86	30.83	8.76	-39.3	-42.4	11.3	1.82e-03	0	54	0	94371840	50	5047
2026-01-15 00:35:24.90	31.19	9.05	-39.2	-42.0	11.8	7.93e-04	0	54	0	116391936	50	4852
2026-01-15 00:35:28.93	31.56	9.34	-39.4	-42.2	11.8	7.33e-04	0	54	0	139460608	50	4965
2026-01-15 00:35:32.97	31.93	9.63	-39.3	-42.0	12.1	5.15e-04	0	54	0	162529280	50	4847
2026-01-15 00:35:37.02	32.32	9.92	-39.2	-41.7	12.4	2.46e-04	0	55	0	185597952	50	4702
2026-01-15 00:35:41.05	32.70	10.22	-39.1	-41.6	12.6	1.53e-04	0	55	0	207618048	50	4633
2026-01-15 00:35:45.09	33.10	10.52	-39.0	-41.3	13.0	7.09e-05	0	55	0	230686720	50	4490
2026-01-15 00:35:49.13	33.51	10.82	-39.0	-41.3	13.1	5.14e-05	0	55	0	252706816	49	4724
2026-01-15 00:35:53.16	33.92	11.12	-39.0	-41.2	13.2	4.34e-05	0	55	0	275775488	49	4703
2026-01-15 00:35:57.20	34.34	11.43	-38.9	-41.1	13.4	2.86e-05	0	55	0	298844160	49	4638
2026-01-15 00:36:01.24	34.77	11.74	-38.8	-41.1	13.5	2.51e-05	0	55	0	320864256	49	4604
2026-01-15 00:36:05.27	35.21	12.05	-38.9	-41.1	13.5	1.83e-05	0	56	0	343932928	49	4646
2026-01-15 00:36:09.31	35.65	12.36	-38.9	-41.2	13.5	2.97e-05	0	55	0	367001600	49	4658
2026-01-15 00:36:13.35	36.11	12.68	-38.9	-41.0	13.6	1.25e-05	0	55	0	389021696	49	4595
2026-01-15 00:36:17.39	36.58	12.99	-38.9	-41.1	13.6	1.14e-05	0	56	0	412090368	49	4608
2026-01-15 00:36:21.43	37.05	13.32	-38.8	-41.0	13.8	1.25e-05	0	56	0	435159040	49	4569
2026-01-15 00:36:25.47	37.54	13.64	-38.4	-40.4	14.4	2.20e-06	0	56	0	457179136	48	4535
2026-01-15 00:36:29.51	38.03	13.97	-38.4	-40.4	14.4	1.10e-06	0	56	0	480247808	48	4512
2026-01-15 00:36:33.54	38.54	14.29	-38.6	-40.6	14.2	2.20e-06	0	56	0	503316480	48	4651
2026-01-15 00:36:37.58	39.06	14.62	-38.4	-40.4	14.5	0.00e+00	0	56	0	525336576	48	4537
2026-01-15 00:36:41.62	39.59	14.96	-38.4	-40.4	14.5	1.10e-06	0	56	0	548405248	48	4516
2026-01-15 00:36:45.67	40.13	15.30	-38.3	-40.3	14.6	0.00e+00	0	56	0	571473920	48	4462
2026-01-15 00:36:49.70	40.68	15.63	-38.2	-40.1	14.9	0.00e+00	0	56	0	593494016	48	4346
2026-01-15 00:36:53.74	41.25	15.97	-38.1	-39.9	15.0	0.00e+00	0	56	0	616562688	48	4288
2026-01-15 00:36:57.77	41.82	16.31	-38.1	-40.0	15.0	0.00e+00	0	56	0	639631360	48	4320
2026-01-15 00:37:01.81	42.42	16.66	-37.8	-39.6	15.3	0.00e+00	0	56	0	661651456	47	4370
2026-01-15 00:37:05.84	43.02	17.01	-37.8	-39.6	15.3	0.00e+00	0	56	0	684720128	47	4359
2026-01-15 00:37:09.88	43.64	17.35	-37.7	-39.5	15.4	0.00e+00	0	56	0	707788800	47	4312
2026-01-15 00:37:13.92	44.27	17.70	-37.8	-39.6	15.3	0.00e+00	0	56	0	729808896	47	4370
2026-01-15 00:37:17.96	44.91	18.06	-37.7	-39.5	15.4	0.00e+00	0	57	0	752877568	47	4330
2026-01-15 00:37:22.00	45.58	18.41	-37.6	-39.4	15.6	0.00e+00	0	56	0	775946240	47	4259
2026-01-15 00:37:26.04	46.25	18.77	-37.6	-39.3	15.7	0.00e+00	0	57	0	797966336	47	4215
2026-01-15 00:37:30.08	46.94	19.12	-37.5	-39.2	15.8	0.00e+00	0	56	0	821035008	46	4439
2026-01-15 00:37:34.12	47.65	19.48	-37.3	-39.0	16.0	0.00e+00	0	57	0	844103680	46	4319
2026-01-15 00:37:38.16	48.38	19.84	-37.4	-39.1	15.9	0.00e+00	0	57	0	866123776	46	4361
2026-01-15 00:37:42.19	49.12	20.20	-37.3	-38.9	16.1	0.00e+00	0	57	0	889192448	46	4286
2026-01-15 00:37:46.22	49.87	20.55	-37.2	-38.8	16.2	0.00e+00	0	56	0	912261120	46	4204
2026-01-15 00:37:50.26	50.65	20.91	-37.2	-38.8	16.2	0.00e+00	0	57	0	934281216	46	4233
2026-01-15 00:37:54.29	51.44	21.27	-37.1	-38.8	16.3	0.00e+00	0	57	0	957349888	46	4208
2026-01-15 00:37:58.33	52.25	21.63	-37.2	-38.8	16.2	0.00e+00	0	57	0	980418560	46	4240
2026-01-15 00:38:02.37	53.08	21.99	-37.0	-38.6	16.5	0.00e+00	0	57	0	1002438656	45	4355
2026-01-15 00:38:06.40	53.93	22.35	-37.1	-38.8	16.3	0.00e+00	0	57	0	1025507328	45	4455
2026-01-15 00:38:10.44	54.80	22.70	-37.0	-38.6	16.5	0.00e+00	0	57	0	1047527424	45	4354
2026-01-15 00:38:14.47	55.69	23.06	-36.8	-38.3	16.8	0.00e+00	0	57	0	1070596096	45	4221
2026-01-15 00:38:18.51	56.59	23.41	-36.7	-38.4	16.4	0.00e+00	0	57	0	1093664768	45	4282
2026-01-15 00:38:22.55	57.52	23.76	-36.4	-38.1	16.8	0.00e+00	0	57	0	1115684864	44	4367
2026-01-15 00:38:26.58	58.47	24.10	-36.7	-38.5	16.4	0.00e+00	0	57	0	1138753536	44	4549
2026-01-15 00:38:30.61	59.44	24.44	-36.3	-38.0	16.9	0.00e+00	0	57	0	1161822208	44	4297
2026-01-15 00:38:34.65	60.43	24.78	-36.5	-38.2	16.7	0.00e+00	0	57	0	1184890880	44	4402
2026-01-15 00:38:38.70	61.44	25.12	-36.3	-38.0	16.9	0.00e+00	0	57	0	1206910976	44	4300
2026-01-15 00:38:42.74	62.48	25.44	-36.2	-37.8	17.1	0.00e+00	0	57	0	1229979648	44	4209
2026-01-15 00:38:46.78	63.53	25.77	-35.8	-37.4	17.3	0.00e+00	0	57	0	1251999744	43	4259
2026-01-15 00:38:50.81	64.60	26.08	-35.9	-37.4	17.3	0.00e+00	0	57	0	1275068416	43	4282
2026-01-15 00:38:54.86	65.70	26.39	-36.0	-37.6	17.1	0.00e+00	0	57	0	1298137088	43	4388
2026-01-15 00:38:58.90	66.82	26.69	-35.9	-37.5	17.2	0.00e+00	0	57	0	1320157184	43	4310
2026-01-15 00:39:02.93	67.95	26.98	-35.9	-37.6	17.1	0.00e+00	0	57	0	1343225856	43	4344
2026-01-15 00:39:06.97	69.11	27.27	-36.0	-37.5	17.2	0.00e+00	0	57	0	1366294528	43	4340
2026-01-15 00:39:11.01	70.29	27.54	-35.8	-37.4	17.3	0.00e+00	0	57	0	1389363200	43	4279
2026-01-15 00:39:15.06	71.49	27.81	-35.8	-37.3	17.4	0.00e+00	0	57	0	1411383296	43	4238
2026-01-15 00:39:19.10	72.71	28.06	-35.6	-37.2	17.6	0.00e+00	0	57	0	1434451968	43	4147
2026-01-15 00:39:23.14	73.95	28.30	-35.9	-37.5	17.3	0.00e+00	0	57	0	1456472064	42	4559
2026-01-15 00:39:27.18	75.20	28.53	-35.9	-37.5	17.2	0.00e+00	0	57	0	1479540736	42	4584
2026-01-15 00:39:31.21	76.47	28.75	-35.8	-37.3	17.4	0.00e+00	0	57	0	1502609408	42	4493
2026-01-15 00:39:35.25	77.76	28.95	-35.7	-37.2	17.5	0.00e+00	0	57	0	1525678080	42	4437
2026-01-15 00:39:39.28	79.06	29.14	-35.7	-37.2	17.6	0.00e+00	0	57	0	1547698176	42	4420
2026-01-15 00:39:43.32	80.38	29.31	-35.8	-37.4	17.3	0.00e+00	0	57	0	1570766848	42	4537
2026-01-15 00:39:47.36	81.71	29.47	-35.8	-37.4	17.4	0.00e+00	0	57	0	1593835520	42	4503
2026-01-15 00:39:51.40	83.06	29.61	-36.0	-37.6	17.2	0.00e+00	0	57	0	1615855616	42	4631
2026-01-15 00:39:55.43	84.41	29.74	-35.7	-37.2	17.6	0.00e+00	0	57	0	1638924288	42	4418
2026-01-15 00:39:59.46	85.77	29.84	-35.8	-37.4	17.4	0.00e+00	0	57	0	1660944384	42	4501
2026-01-15 00:40:03.50	87.15	29.94	-35.7	-37.3	17.5	0.00e+00	0	57	0	1684013056	42	4461
2026-01-15 00:40:07.54	88.53	30.01	-35.8	-37.4	17.4	0.00e+00	0	57	0	1707081728	42	4513
2026-01-15 00:40:11.59	89.92	30.07	-35.6	-37.2	17.6	0.00e+00	0	57	0	1729101824	42	4405
2026-01-15 00:40:15.63	91.31	30.10	-35.7	-37.3	17.5	0.00e+00	0	57	0	1752170496	42	4470
2026-01-15 00:40:19.66	92.70	30.12	-35.7	-37.3	17.5	0.00e+00	0	58	0	1775239168	42	4451
2026-01-15 00:40:23.70	94.10	30.12	-36.0	-37.6	17.2	0.00e+00	0	57	0	1798307840	42	4626
2026-01-15 00:40:27.74	95.49	30.11	-35.8	-37.4	17.4	0.00e+00	0	57	0	1820327936	42	4506
2026-01-15 00:40:31.77	96.88	30.07	-35.9	-37.5	17.2	0.00e+00	0	57	0	1843396608	42	4593
2026-01-15 00:40:35.80	98.27	30.02	-35.9	-37.6	17.3	0.00e+00	0	58	0	1865416704	42	4599
2026-01-15 00:40:39.84	99.65	29.95	-35.8	-37.4	17.4	0.00e+00	0	57	0	1888485376	42	4529
2026-01-15 00:40:43.88	101.03	29.86	-35.9	-37.5	17.3	0.00e+00	0	58	0	1911554048	42	4550
2026-01-15 00:40:47.92	102.40	29.76	-35.8	-37.3	17.5	0.00e+00	0	58	0	1933574144	42	4487
2026-01-15 00:40:51.97	103.76	29.63	-35.8	-37.4	17.4	0.00e+00	0	58	0	1956642816	42	4515
2026-01-15 00:40:56.01	105.11	29.49	-35.5	-37.1	17.7	0.00e+00	0	58	0	1979711488	42	4344
2026-01-15 00:41:00.05	106.45	29.34	-35.8	-37.4	17.3	0.00e+00	0	57	0	2002780160	42	4542
2026-01-15 00:41:04.09	107.77	29.17	-36.1	-37.7	17.1	0.00e+00	0	57	0	2024800256	42	4692
2026-01-15 00:41:08.13	109.08	28.98	-36.0	-37.6	17.2	0.00e+00	0	57	0	2047868928	42	4624
2026-01-15 00:41:12.17	110.38	28.78	-35.9	-37.5	17.3	0.00e+00	0	57	0	2069889024	42	4580
2026-01-15 00:41:16.21	111.66	28.56	-36.0	-37.6	17.2	0.00e+00	0	58	0	2092957696	42	4622
2026-01-15 00:41:20.24	112.92	28.34	-36.0	-37.6	17.2	0.00e+00	0	58	0	2116026368	42	4615
2026-01-15 00:41:24.28	114.16	28.10	-35.9	-37.5	17.4	0.00e+00	0	58	0	2138046464	42	4549
2026-01-15 00:41:28.31	115.38	27.84	-36.0	-37.7	17.1	0.00e+00	0	58	0	2161115136	42	4654
2026-01-15 00:41:32.34	116.58	27.58	-36.0	-37.6	17.2	0.00e+00	0	57	0	2184183808	42	4642
2026-01-15 00:41:36.37	117.77	27.31	-36.1	-37.7	17.2	0.00e+00	0	58	0	2206203904	42	4657
2026-01-15 00:41:40.41	118.93	27.02	-36.1	-37.8	17.1	0.00e+00	0	58	0	2229272576	43	4448
2026-01-15 00:41:44.44	120.08	26.73	-36.2	-37.8	17.1	0.00e+00	0	58	0	2251292672	43	4454
2026-01-15 00:41:48.47	121.20	26.43	-36.1	-37.8	17.0	0.00e+00	0	57	0	2274361344	43	4458
2026-01-15 00:41:52.51	122.30	26.12	-36.3	-38.0	16.9	0.00e+00	0	58	0	2297430016	43	4548
2026-01-15 00:41:56.54	123.38	25.80	-36.3	-38.0	16.9	0.00e+00	0	58	0	2319450112	43	4549
2026-01-15 00:42:00.58	124.44	25.48	-36.3	-38.0	16.8	0.00e+00	0	57	0	2342518784	43	4589
2026-01-15 00:42:04.62	125.48	25.15	-36.4	-38.0	16.7	0.00e+00	0	57	0	2365587456	43	4594
2026-01-15 00:42:08.65	126.50	24.82	-36.4	-38.1	16.7	0.00e+00	0	58	0	2388656128	43	4606
2026-01-15 00:42:12.69	127.50	24.48	-36.2	-37.8	16.9	0.00e+00	0	58	0	2410676224	43	4489
2026-01-15 00:42:16.73	128.48	24.13	-36.4	-38.1	16.7	0.00e+00	0	58	0	2433744896	43	4608
2026-01-15 00:42:20.77	129.43	23.78	-36.6	-38.3	16.5	0.00e+00	0	58	0	2455764992	43	4729
2026-01-15 00:42:24.80	130.37	23.43	-36.6	-38.3	16.5	0.00e+00	0	58	0	2478833664	43	4742
2026-01-15 00:42:28.84	131.28	23.08	-36.6	-38.3	16.5	0.00e+00	0	58	0	2501902336	43	4712
2026-01-15 00:42:32.87	132.18	22.72	-36.7	-38.4	16.4	0.00e+00	0	58	0	2523922432	43	4793
2026-01-15 00:42:36.91	133.05	22.37	-36.6	-38.3	16.4	0.00e+00	0	58	0	2546991104	43	4741
2026-01-15 00:42:40.94	133.91	22.01	-36.9	-38.7	16.1	0.00e+00	0	58	0	2570059776	44	4657
2026-01-15 00:42:44.98	134.74	21.65	-37.2	-39.0	15.9	0.00e+00	0	58	0	2592079872	44	4852
2026-01-15 00:42:49.02	135.56	21.28	-37.2	-39.1	15.8	0.00e+00	0	58	0	2615148544	45	4605
2026-01-15 00:42:53.06	136.36	20.92	-37.1	-38.9	15.9	0.00e+00	0	58	0	2638217216	45	4538
2026-01-15 00:42:57.10	137.14	20.56	-37.6	-39.5	15.4	0.00e+00	0	58	0	2660237312	45	4854
2026-01-15 00:43:01.14	137.90	20.20	-37.6	-39.6	15.3	0.00e+00	0	58	0	2683305984	45	4878
2026-01-15 00:43:05.18	138.65	19.83	-37.5	-39.4	15.4	0.00e+00	0	58	0	2706374656	45	4785
2026-01-15 00:43:09.21	139.38	19.47	-37.5	-39.5	15.3	0.00e+00	0	58	0	2728394752	45	4833
2026-01-15 00:43:13.25	140.09	19.11	-37.4	-39.3	15.5	0.00e+00	0	58	0	2751463424	45	4742
2026-01-15 00:43:17.29	140.79	18.75	-37.6	-39.5	15.3	0.00e+00	0	58	0	2773483520	45	4855
2026-01-15 00:43:21.33	141.47	18.40	-37.7	-39.7	15.1	0.00e+00	0	58	0	2796552192	45	4950
2026-01-15 00:43:25.36	142.13	18.04	-37.8	-39.8	15.0	0.00e+00	0	58	0	2819620864	46	4747
2026-01-15 00:43:29.40	142.78	17.68	-38.0	-40.0	14.8	1.10e-06	0	58	0	2842689536	46	4854
2026-01-15 00:43:33.44	143.42	17.33	-38.1	-40.2	14.6	2.20e-06	0	58	0	2864709632	46	4930
2026-01-15 00:43:37.48	144.04	16.98	-38.0	-40.1	14.7	1.10e-06	0	58	0	2887778304	46	4885
2026-01-15 00:43:41.51	144.65	16.63	-38.1	-40.2	14.6	2.20e-06	0	58	0	2910846976	46	4931
2026-01-15 00:43:45.54	145.24	16.28	-38.2	-40.3	14.4	0.00e+00	0	58	0	2932867072	46	5038
2026-01-15 00:43:49.58	145.82	15.94	-38.2	-40.3	14.4	6.80e-06	0	58	0	2955935744	47	4732
2026-01-15 00:43:53.62	146.39	15.59	-38.2	-40.3	14.4	1.10e-06	0	58	0	2977955840	47	4722
2026-01-15 00:43:57.66	146.94	15.25	-38.3	-40.5	14.2	4.50e-06	0	58	0	3001024512	47	4821
2026-01-15 00:44:01.70	147.49	14.91	-38.4	-40.6	14.1	1.10e-06	0	58	0	3024093184	47	4879
2026-01-15 00:44:05.74	148.02	14.57	-38.3	-40.5	14.2	2.20e-06	0	58	0	3046113280	47	4824
2026-01-15 00:44:09.77	148.54	14.24	-38.2	-40.4	14.3	4.50e-06	0	58	0	3069181952	47	4774
2026-01-15 00:44:13.82	149.05	13.91	-38.4	-40.6	14.1	3.40e-06	0	58	0	3092250624	47	4876
2026-01-15 00:44:17.85	149.54	13.58	-38.5	-40.7	13.9	1.02e-05	0	58	0	3115319296	47	4975
2026-01-15 00:44:21.88	150.03	13.25	-38.6	-40.9	13.7	1.25e-05	0	58	0	3137339392	47	5051
2026-01-15 00:44:25.92	150.51	12.93	-38.7	-41.0	13.5	1.37e-05	0	58	0	3160408064	47	5152
2026-01-15 00:44:29.96	150.97	12.61	-38.9	-41.2	13.4	1.83e-05	0	58	0	3182428160	48	4973
2026-01-15 00:44:33.99	151.43	12.29	-38.9	-41.3	13.3	2.51e-05	0	58	0	3205496832	48	5032
2026-01-15 00:44:38.03	151.88	11.97	-38.9	-41.3	13.3	2.86e-05	0	58	0	3228565504	48	5023
2026-01-15 00:44:42.07	152.32	11.66	-39.0	-41.4	13.2	5.14e-05	0	58	0	3250585600	48	5086
2026-01-15 00:44:46.11	152.75	11.35	-39.2	-41.6	12.9	6.63e-05	0	58	0	3273654272	48	5204
2026-01-15 00:44:50.15	153.17	11.04	-39.2	-41.8	12.7	9.15e-05	0	58	0	3296722944	49	4990
2026-01-15 00:44:54.19	153.58	10.73	-39.3	-41.9	12.6	1.79e-04	0	58	0	3318743040	49	5072
2026-01-15 00:44:58.23	153.98	10.43	-39.3	-41.9	12.5	1.56e-04	0	58	0	3341811712	49	5083
2026-01-15 00:45:02.27	154.38	10.13	-39.3	-41.9	12.5	1.79e-04	0	58	0	3364880384	49	5054
2026-01-15 00:45:06.31	154.77	9.83	-39.4	-42.1	12.2	3.10e-04	0	58	0	3386900480	49	5193
2026-01-15 00:45:10.34	155.15	9.53	-39.6	-42.4	11.9	4.61e-04	0	58	0	3409969152	49	5345
2026-01-15 00:45:14.38	155.52	9.24	-39.5	-42.3	11.9	5.18e-04	0	58	0	3433037824	49	5292
2026-01-15 00:45:18.42	155.89	8.95	-39.5	-42.2	11.9	4.99e-04	0	58	0	3455057920	49	5263
2026-01-15 00:45:22.45	156.25	8.66	-39.5	-42.2	11.9	5.63e-04	0	58	0	3478126592	49	5277
2026-01-15 00:45:26.49	156.60	8.37	-39.5	-42.2	11.9	6.30e-04	0	58	0	3501195264	49	5271
2026-01-15 00:45:30.53	156.95	8.09	-39.5	-42.3	11.7	7.47e-04	0	58	0	3523215360	49	5336
2026-01-15 00:45:34.57	157.29	7.80	-45.0	-56.8	3.8	8.46e-01	0	58	104	3531603968	60	14950
2026-01-15 00:45:38.61	157.62	7.52	-45.4	-57.1	3.8	8.45e-01	0	58	104	3531603968	61	14636
2026-01-15 00:45:42.65	157.95	7.25	-45.3	-56.9	3.8	8.45e-01	0	58	104	3531603968	61	14370
2026-01-15 00:45:46.69	158.27	6.97	-45.2	-56.9	3.8	8.47e-01	0	58	104	3531603968	61	14226
2026-01-15 00:45:50.73	158.59	6.70	-45.1	-56.8	3.8	8.46e-01	0	58	104	3531603968	61	14125
2026-01-15 00:45:54.77	158.90	6.43	-45.1	-56.8	3.8	8.46e-01	0	58	104	3531603968	61	14069
2026-01-15 00:45:58.81	159.20	6.16	-45.1	-56.7	3.8	8.45e-01	0	58	104	3531603968	61	14012
2026-01-15 00:46:02.84	159.50	5.89	-45.1	-56.7	3.8	8.46e-01	0	58	104	3531603968	61	14017
2026-01-15 00:46:06.88	159.80	5.63	-45.1	-56.8	3.8	8.45e-01	0	58	104	3531603968	61	14057
2026-01-15 00:46:10.92	160.09	5.37	-45.1	-56.8	3.8	8.47e-01	0	58	104	3531603968	61	14080
2026-01-15 00:46:14.95	160.37	5.11	-45.1	-56.7	3.8	8.46e-01	0	58	104	3531603968	61	13962
2026-01-15 00:46:18.99	160.65	4.85	-45.1	-56.7	3.8	8.46e-01	0	58	104	3531603968	61	14036
2026-01-15 00:46:23.03	160.92	4.59	-45.1	-56.7	3.8	8.45e-01	0	58	104	3531603968	61	14038
2026-01-15 00:46:27.07	161.19	4.34	-45.1	-56.7	3.8	8.46e-01	0	58	104	3531603968	61	14038
2026-01-15 00:46:31.11	161.46	4.08	-45.1	-56.7	3.8	8.46e-01	0	58	104	3531603968	61	14016
2026-01-15 00:46:35.16	161.72	3.83	-45.1	-56.7	3.8	8.46e-01	0	58	104	3531603968	61	14023
2026-01-15 00:46:39.20	161.98	3.58	-45.1	-56.7	3.8	8.47e-01	0	58	104	3531603968	61	13964
2026-01-15 00:46:43.24	162.23	3.34	-45.1	-56.7	3.8	8.46e-01	0	58	104	3531603968	61	14023
2026-01-15 00:46:47.28	162.48	3.09	-45.1	-56.7	3.8	8.44e-01	0	58	104	3531603968	61	13933
2026-01-15 00:46:51.33	162.73	2.85	-45.1	-56.7	3.8	8.46e-01	0	58	104	3531603968	61	13976
2026-01-15 00:46:55.36	162.97	2.61	-45.1	-56.7	3.8	8.45e-01	0	58	104	3531603968	61	13974
2026-01-15 00:46:59.40	163.21	2.37	-45.1	-56.7	3.8	8.46e-01	0	58	104	3531603968	61	14021
2026-01-15 00:47:03.45	163.44	2.13	-45.1	-56.7	3.8	8.46e-01	0	58	104	3531603968	61	13966

#Closed at: 2026-01-15 00:47:05
#Recorded file [3531 MB]: D:/lorett/data/31039_260115_033335.dat