passes_logs/2026/01/15/R2.0S_Moscow/R2.0S_Moscow__20260115_004508_NOAA_21_JPSS-2_rec.log

#Pass ID: 20260115_004508_NOAA 21 (JPSS-2)
#Satellite: NOAA 21 (JPSS-2)
#Configuration: NOAA-21
#almurnet v.1.7.20251203
#Start time: 2026-01-15 00:47:12

#Version: 2.2.20231116
#Station: R2.0S_Moscow
#Location: 37.707566 lon 55.798166 lat
#TLE: 1 54234U 22150A   26014.16688770  .00000052  00000+0  45394-4 0  9999
#TLE: 2 54234  98.7497 315.0767 0000655 297.6997  62.4113 14.19534648164696

#Time	Az	El	Level	Level2	SNR	BER	BlckErr	Temp	State	Recorded	gain1	gain2
2026-01-15 00:47:12.88	4.85	10.64	-45.1	-56.7	3.8	8.47e-01	0	57	0	0	61	13913
2026-01-15 00:47:15.90	4.61	10.88	-45.4	-57.8	3.8	1.49e+00	0	58	104	0	62	14937
2026-01-15 00:47:18.93	4.37	11.13	-45.2	-57.6	3.8	1.49e+00	0	58	104	0	62	14664
2026-01-15 00:47:21.96	4.12	11.37	-44.8	-57.1	3.8	1.49e+00	0	58	104	0	61	14703
2026-01-15 00:47:24.99	3.87	11.62	-43.5	-55.7	3.8	1.49e+00	0	58	104	0	58	14726
2026-01-15 00:47:28.02	3.61	11.88	-43.4	-55.7	3.8	1.49e+00	0	58	104	0	58	14785
2026-01-15 00:47:31.05	3.35	12.13	-43.4	-55.7	3.8	1.49e+00	0	58	104	0	58	14760
2026-01-15 00:47:34.08	3.08	12.38	-43.4	-55.7	3.8	1.49e+00	0	58	104	0	58	14725
2026-01-15 00:47:37.11	2.81	12.64	-43.4	-55.7	3.8	1.49e+00	0	58	104	0	58	14738
2026-01-15 00:47:40.15	2.53	12.90	-43.4	-55.7	3.8	1.49e+00	0	58	104	0	58	14741
2026-01-15 00:47:43.18	2.25	13.16	-43.4	-55.7	3.8	1.49e+00	0	58	104	0	58	14710
2026-01-15 00:47:46.21	1.96	13.43	-43.4	-55.2	3.8	1.49e+00	0	58	104	0	58	14025
2026-01-15 00:47:49.24	1.67	13.69	-43.1	-53.1	3.9	1.48e+00	0	58	104	0	58	10974
2026-01-15 00:47:52.27	1.37	13.96	-42.8	-50.7	4.7	1.01e+00	0	58	104	0	57	8825
2026-01-15 00:47:55.31	1.06	14.23	-43.1	-53.2	3.9	1.47e+00	0	58	104	0	57	11688
2026-01-15 00:47:58.34	0.75	14.50	-42.9	-51.4	4.4	1.45e+00	0	58	104	0	57	9560
2026-01-15 00:48:01.37	0.44	14.78	-40.8	-44.9	9.3	3.07e-02	0	58	0	6291456	53	5667
2026-01-15 00:48:04.40	0.11	15.06	-40.1	-43.4	10.9	2.23e-03	0	58	0	15728640	52	5047
2026-01-15 00:48:07.43	359.78	15.33	-40.2	-43.3	11.1	1.29e-03	0	58	0	25165824	51	5331
2026-01-15 00:48:10.46	359.45	15.62	-42.2	-47.8	6.8	1.11e+00	0	58	104	33554432	56	6667
2026-01-15 00:48:13.48	359.11	15.90	-40.5	-43.9	10.5	6.12e-03	0	58	0	41943040	53	5097
2026-01-15 00:48:16.51	358.76	16.18	-40.3	-43.5	11.0	1.79e-03	0	58	0	51380224	52	5133
2026-01-15 00:48:19.54	358.41	16.47	-40.5	-43.9	10.5	4.03e-03	0	58	0	60817408	52	5370
2026-01-15 00:48:22.57	358.04	16.76	-40.3	-43.8	10.4	4.40e-03	0	58	0	70254592	52	5284
2026-01-15 00:48:25.60	357.67	17.05	-40.3	-43.8	10.2	6.59e-03	0	58	0	79691776	52	5330
2026-01-15 00:48:28.63	357.30	17.35	-39.8	-43.0	11.1	1.83e-03	0	58	0	90177536	51	5118
2026-01-15 00:48:31.66	356.91	17.65	-39.8	-43.0	11.0	1.88e-03	0	58	0	99614720	51	5137
2026-01-15 00:48:34.69	356.52	17.94	-40.4	-44.4	9.3	1.22e-02	0	58	0	109051904	51	6051
2026-01-15 00:48:37.72	356.12	18.25	-41.1	-47.2	6.3	2.28e-01	0	58	0	118489088	52	7821
2026-01-15 00:48:40.75	355.71	18.55	-41.5	-51.3	3.9	1.46e+00	0	58	104	122683392	53	11911
2026-01-15 00:48:43.78	355.29	18.85	-41.4	-53.2	3.8	1.49e+00	0	58	104	122683392	53	14808
2026-01-15 00:48:46.81	354.87	19.16	-41.2	-53.3	3.8	1.49e+00	0	58	104	122683392	54	14162
2026-01-15 00:48:49.84	354.43	19.47	-41.2	-53.6	3.8	1.49e+00	0	58	104	122683392	54	14650
2026-01-15 00:48:52.86	353.99	19.78	-41.6	-54.0	3.8	1.49e+00	0	58	104	122683392	54	15349
2026-01-15 00:48:55.89	353.54	20.10	-41.6	-52.4	3.8	1.49e+00	0	58	104	122683392	54	12715
2026-01-15 00:48:58.93	353.07	20.42	-43.1	-54.7	3.8	1.48e+00	0	58	104	122683392	56	14717
2026-01-15 00:49:01.96	352.60	20.73	-42.5	-51.9	3.9	1.20e+00	0	58	104	122683392	55	11381
2026-01-15 00:49:04.99	352.12	21.05	-41.1	-47.3	6.2	3.43e-01	0	58	0	125829120	54	7090
2026-01-15 00:49:08.02	351.62	21.38	-40.6	-45.3	8.3	6.73e-02	0	58	0	135266304	53	5941
2026-01-15 00:49:11.05	351.12	21.70	-39.9	-43.6	10.2	7.90e-03	0	58	0	144703488	51	5528
2026-01-15 00:49:14.08	350.60	22.03	-39.1	-42.1	11.8	6.46e-04	0	58	0	154140672	50	4883
2026-01-15 00:49:17.11	350.08	22.35	-39.0	-41.8	12.2	3.04e-04	0	58	0	163577856	50	4756
2026-01-15 00:49:20.13	349.54	22.68	-39.2	-42.0	12.3	2.07e-04	0	58	0	173015040	50	4855
2026-01-15 00:49:23.16	348.99	23.01	-39.5	-42.2	12.3	1.94e-04	0	58	0	182452224	50	4974
2026-01-15 00:49:26.19	348.43	23.34	-39.0	-41.3	13.4	1.22e-05	0	58	0	191889408	49	4753
2026-01-15 00:49:29.22	347.86	23.68	-39.6	-42.2	12.7	8.62e-05	0	58	0	201326592	49	5276
2026-01-15 00:49:32.24	347.27	24.01	-39.7	-42.2	12.9	5.41e-05	0	58	0	210763776	50	4935
2026-01-15 00:49:35.28	346.67	24.34	-39.8	-42.3	12.9	5.11e-05	0	58	0	220200960	50	5033
2026-01-15 00:49:38.30	346.06	24.68	-39.7	-42.1	13.2	3.05e-05	0	58	0	229638144	50	4905
2026-01-15 00:49:41.33	345.44	25.01	-39.8	-42.3	13.0	2.36e-05	0	59	0	239075328	50	4986
2026-01-15 00:49:44.36	344.80	25.35	-39.9	-42.4	13.0	3.89e-05	0	58	0	248512512	50	5042
2026-01-15 00:49:47.39	344.15	25.69	-39.7	-42.0	13.4	1.14e-05	0	58	0	257949696	50	4855
2026-01-15 00:49:50.42	343.48	26.03	-39.8	-42.2	13.3	1.98e-05	0	58	0	267386880	50	4931
2026-01-15 00:49:53.45	342.80	26.36	-39.8	-42.1	13.5	9.10e-06	0	58	0	276824064	50	4906
2026-01-15 00:49:56.48	342.10	26.70	-39.9	-42.2	13.4	1.29e-05	0	58	0	286261248	50	4983
2026-01-15 00:49:59.50	341.39	27.03	-40.0	-42.4	13.3	1.44e-05	0	58	0	295698432	50	5080
2026-01-15 00:50:02.53	340.66	27.37	-40.2	-42.8	12.9	6.10e-05	0	58	0	305135616	51	4988
2026-01-15 00:50:05.56	339.92	27.70	-40.2	-42.8	12.8	5.11e-05	0	58	0	314572800	51	5009
2026-01-15 00:50:08.59	339.16	28.04	-40.3	-43.0	12.4	1.14e-04	0	58	0	324009984	51	5155
2026-01-15 00:50:11.62	338.39	28.37	-39.8	-42.9	12.1	1.25e-04	0	58	0	333447168	51	5089
2026-01-15 00:50:14.65	337.60	28.70	-39.6	-42.9	11.8	3.68e-04	0	58	0	342884352	51	5065
2026-01-15 00:50:17.68	336.79	29.02	-39.7	-42.8	12.1	2.42e-04	0	58	0	352321536	51	5028
2026-01-15 00:50:20.71	335.97	29.34	-39.5	-42.7	12.2	1.99e-04	0	58	0	361758720	51	4933
2026-01-15 00:50:23.75	335.12	29.67	-39.5	-42.5	12.5	1.19e-04	0	58	0	371195904	51	4819
2026-01-15 00:50:26.77	334.27	29.98	-39.6	-42.3	13.0	4.65e-05	0	58	0	380633088	51	4721
2026-01-15 00:50:29.81	333.39	30.30	-39.7	-42.1	13.5	1.22e-05	0	58	0	390070272	51	4640
2026-01-15 00:50:32.83	332.50	30.60	-40.0	-42.4	13.3	1.44e-05	0	58	0	400556032	51	4806
2026-01-15 00:50:35.87	331.59	30.91	-40.1	-42.5	13.3	2.05e-05	0	58	0	409993216	51	4838
2026-01-15 00:50:38.90	330.66	31.21	-40.4	-42.9	13.0	3.43e-05	0	58	0	419430400	51	5056
2026-01-15 00:50:41.93	329.72	31.50	-40.3	-42.7	13.3	1.75e-05	0	58	0	428867584	51	4955
2026-01-15 00:50:44.96	328.75	31.79	-40.5	-43.0	12.9	4.11e-05	0	58	0	438304768	51	5104
2026-01-15 00:50:47.99	327.78	32.07	-40.6	-43.2	12.6	8.46e-05	0	58	0	447741952	51	5273
2026-01-15 00:50:51.02	326.78	32.34	-40.6	-43.1	12.7	9.84e-05	0	58	0	457179136	52	4911
2026-01-15 00:50:54.05	325.77	32.61	-40.6	-43.2	12.7	7.47e-05	0	58	0	466616320	52	4933
2026-01-15 00:50:57.08	324.74	32.87	-40.8	-43.5	12.4	1.40e-04	0	58	0	476053504	52	5107
2026-01-15 00:51:00.10	323.70	33.12	-40.9	-43.6	12.2	2.25e-04	0	58	0	485490688	52	5205
2026-01-15 00:51:03.13	322.64	33.36	-41.0	-43.7	12.2	2.26e-04	0	58	0	494927872	52	5253
2026-01-15 00:51:06.16	321.56	33.59	-40.7	-43.3	12.6	1.01e-04	0	58	0	504365056	52	4987
2026-01-15 00:51:09.19	320.47	33.81	-40.7	-43.3	12.6	7.93e-05	0	58	0	513802240	52	4990
2026-01-15 00:51:12.22	319.36	34.02	-40.7	-43.3	12.6	9.38e-05	0	58	0	523239424	52	5004
2026-01-15 00:51:15.25	318.24	34.22	-40.9	-43.7	12.1	2.01e-04	0	58	0	532676608	52	5238
2026-01-15 00:51:18.28	317.10	34.41	-41.1	-43.9	11.9	3.72e-04	0	58	0	542113792	52	5367
2026-01-15 00:51:21.30	315.96	34.58	-41.2	-44.0	11.8	5.68e-04	0	58	0	551550976	53	5138
2026-01-15 00:51:24.33	314.80	34.75	-41.2	-44.1	11.7	4.79e-04	0	58	0	560988160	53	5198
2026-01-15 00:51:27.36	313.63	34.90	-41.1	-43.9	11.9	4.23e-04	0	58	0	570425344	53	5076
2026-01-15 00:51:30.39	312.44	35.04	-40.7	-43.3	12.4	1.47e-04	0	58	0	579862528	53	4751
2026-01-15 00:51:33.42	311.25	35.16	-41.3	-44.2	11.6	8.89e-04	0	58	0	589299712	53	5275
2026-01-15 00:51:36.45	310.05	35.27	-41.2	-44.1	11.7	5.46e-04	0	58	0	598736896	53	5189
2026-01-15 00:51:39.47	308.85	35.37	-41.2	-44.1	11.8	5.20e-04	0	59	0	608174080	53	5169
2026-01-15 00:51:42.50	307.63	35.45	-41.1	-43.9	11.9	3.94e-04	0	58	0	617611264	53	5090
2026-01-15 00:51:45.54	306.41	35.52	-40.9	-43.6	12.3	2.17e-04	0	58	0	627048448	53	4878
2026-01-15 00:51:48.56	305.18	35.57	-41.0	-43.8	12.0	3.01e-04	0	58	0	636485632	53	4997
2026-01-15 00:51:51.59	303.96	35.61	-41.1	-43.9	11.9	3.87e-04	0	58	0	645922816	53	5093
2026-01-15 00:51:54.62	302.72	35.64	-41.3	-44.2	11.7	6.08e-04	0	58	0	655360000	53	5242
2026-01-15 00:51:57.65	301.49	35.64	-41.2	-44.1	11.7	5.65e-04	0	59	0	664797184	53	5209
2026-01-15 00:52:00.68	300.26	35.64	-41.0	-43.8	12.1	3.55e-04	0	58	0	674234368	53	4992
2026-01-15 00:52:03.70	299.03	35.62	-41.0	-43.7	12.1	2.81e-04	0	58	0	683671552	53	4975
2026-01-15 00:52:06.73	297.80	35.58	-40.7	-43.3	12.5	1.33e-04	0	58	0	693108736	53	4737
2026-01-15 00:52:09.76	296.57	35.53	-40.8	-43.4	12.5	1.11e-04	0	58	0	702545920	53	4768
2026-01-15 00:52:12.79	295.35	35.46	-40.9	-43.7	12.2	2.35e-04	0	59	0	711983104	53	4930
2026-01-15 00:52:15.82	294.13	35.38	-40.8	-43.5	12.3	1.55e-04	0	58	0	721420288	53	4834
2026-01-15 00:52:18.85	292.92	35.29	-40.8	-43.5	12.3	1.25e-04	0	58	0	730857472	53	4825
2026-01-15 00:52:21.88	291.72	35.18	-41.0	-43.8	12.0	3.34e-04	0	58	0	741343232	53	5028
2026-01-15 00:52:24.91	290.52	35.05	-41.1	-43.9	11.9	2.94e-04	0	59	0	750780416	53	5069
2026-01-15 00:52:27.94	289.34	34.92	-41.3	-44.3	11.5	7.79e-04	0	58	0	760217600	53	5325
2026-01-15 00:52:30.96	288.17	34.77	-41.1	-43.9	11.9	3.87e-04	0	59	0	769654784	53	5079
2026-01-15 00:52:34.00	287.00	34.60	-40.7	-43.3	12.6	1.12e-04	0	58	0	779091968	53	4718
2026-01-15 00:52:37.02	285.85	34.43	-40.4	-42.9	13.0	3.50e-05	0	58	0	788529152	52	4764
2026-01-15 00:52:40.05	284.71	34.24	-40.7	-43.2	12.6	8.23e-05	0	58	0	797966336	52	4969
2026-01-15 00:52:43.08	283.59	34.04	-40.8	-43.4	12.4	1.60e-04	0	58	0	807403520	52	5089
2026-01-15 00:52:46.10	282.48	33.83	-40.8	-43.5	12.3	1.43e-04	0	58	0	816840704	52	5109
2026-01-15 00:52:49.13	281.38	33.61	-40.9	-43.6	12.2	1.94e-04	0	58	0	826277888	52	5216
2026-01-15 00:52:52.16	280.30	33.38	-41.1	-43.9	12.0	3.74e-04	0	58	0	835715072	52	5359
2026-01-15 00:52:55.19	279.24	33.14	-40.7	-43.3	12.5	1.19e-04	0	58	0	845152256	52	5004
2026-01-15 00:52:58.22	278.19	32.89	-40.8	-43.5	12.4	1.43e-04	0	59	0	854589440	52	5104
2026-01-15 00:53:01.25	277.15	32.63	-40.9	-43.6	12.3	1.98e-04	0	58	0	864026624	52	5170
2026-01-15 00:53:04.27	276.14	32.37	-40.4	-42.8	13.0	3.28e-05	0	58	0	873463808	52	4752
2026-01-15 00:53:07.30	275.14	32.09	-40.6	-43.1	12.7	6.02e-05	0	58	0	882900992	52	4907
2026-01-15 00:53:10.33	274.15	31.81	-40.7	-43.4	12.5	1.28e-04	0	58	0	892338176	52	5073
2026-01-15 00:53:13.36	273.19	31.53	-40.4	-42.8	13.0	3.58e-05	0	58	0	901775360	52	4751
2026-01-15 00:53:16.39	272.24	31.23	-40.5	-43.0	12.8	4.19e-05	0	58	0	911212544	52	4852
2026-01-15 00:53:19.42	271.30	30.93	-40.6	-43.2	12.6	1.23e-04	0	59	0	920649728	52	4952
2026-01-15 00:53:22.45	270.39	30.63	-39.9	-42.2	13.7	4.50e-06	0	59	0	930086912	51	4664
2026-01-15 00:53:25.48	269.49	30.32	-40.4	-42.8	13.1	2.21e-05	0	58	0	939524096	51	5016
2026-01-15 00:53:28.51	268.61	30.01	-40.8	-43.4	12.3	1.62e-04	0	59	0	948961280	52	5100
2026-01-15 00:53:31.54	267.75	29.69	-40.4	-42.9	12.9	4.57e-05	0	59	0	958398464	52	4775
2026-01-15 00:53:34.57	266.90	29.37	-40.5	-43.0	12.8	4.11e-05	0	58	0	967835648	52	4830
2026-01-15 00:53:37.60	266.07	29.04	-40.5	-43.1	12.6	7.62e-05	0	59	0	977272832	52	4899
2026-01-15 00:53:40.63	265.26	28.71	-40.5	-43.0	12.7	9.46e-05	0	58	0	986710016	52	4867
2026-01-15 00:53:43.65	264.47	28.38	-40.3	-42.8	13.0	2.74e-05	0	59	0	996147200	52	4714
2026-01-15 00:53:46.68	263.69	28.05	-40.3	-42.8	13.0	4.73e-05	0	58	0	1005584384	52	4746
2026-01-15 00:53:49.71	262.92	27.72	-40.0	-42.3	13.4	1.60e-05	0	59	0	1015021568	52	4476
2026-01-15 00:53:52.74	262.17	27.38	-40.0	-42.2	13.6	6.80e-06	0	58	0	1024458752	51	4687
2026-01-15 00:53:55.77	261.44	27.05	-40.3	-42.8	13.1	2.89e-05	0	58	0	1033895936	51	4987
2026-01-15 00:53:58.80	260.72	26.71	-40.0	-42.2	13.6	9.10e-06	0	59	0	1043333120	51	4688
2026-01-15 00:54:01.83	260.02	26.37	-39.7	-41.8	14.1	3.00e-06	0	59	0	1052770304	51	4453
2026-01-15 00:54:04.86	259.34	26.03	-39.9	-42.2	13.7	4.50e-06	0	58	0	1062207488	51	4657
2026-01-15 00:54:07.89	258.66	25.69	-40.0	-42.3	13.6	6.80e-06	0	58	0	1071644672	51	4728
2026-01-15 00:54:10.92	258.01	25.36	-39.5	-41.6	14.2	0.00e+00	0	58	0	1081081856	51	4384
2026-01-15 00:54:13.95	257.36	25.02	-39.5	-41.6	14.2	3.00e-06	0	58	0	1090519040	50	4633
2026-01-15 00:54:16.98	256.73	24.68	-39.7	-41.8	14.0	3.00e-06	0	58	0	1101004800	50	4742
2026-01-15 00:54:20.01	256.12	24.34	-39.4	-41.4	14.4	0.00e+00	0	59	0	1110441984	50	4508
2026-01-15 00:54:23.04	255.51	24.01	-39.6	-41.8	14.0	7.00e-07	0	59	0	1119879168	50	4723
2026-01-15 00:54:26.07	254.92	23.67	-40.1	-42.5	13.3	2.13e-05	0	59	0	1129316352	50	5128
2026-01-15 00:54:29.10	254.34	23.34	-39.5	-41.6	14.2	1.50e-06	0	58	0	1138753536	50	4628
2026-01-15 00:54:32.13	253.78	23.00	-39.8	-42.1	13.6	7.60e-06	0	59	0	1148190720	50	4874
2026-01-15 00:54:35.16	253.22	22.67	-40.3	-42.8	13.0	4.50e-05	0	58	0	1157627904	51	4997
2026-01-15 00:54:38.19	252.68	22.34	-40.0	-42.3	13.5	1.44e-05	0	58	0	1167065088	51	4724
2026-01-15 00:54:41.22	252.15	22.01	-39.7	-41.9	13.8	9.10e-06	0	58	0	1176502272	51	4542
2026-01-15 00:54:44.25	251.63	21.68	-39.9	-42.2	13.6	5.30e-06	0	59	0	1185939456	51	4653
2026-01-15 00:54:47.28	251.12	21.36	-39.8	-42.0	13.7	5.30e-06	0	59	0	1195376640	51	4590
2026-01-15 00:54:50.31	250.63	21.03	-39.7	-41.9	13.9	3.80e-06	0	59	0	1204813824	51	4500
2026-01-15 00:54:53.34	250.14	20.71	-39.8	-42.1	13.7	5.30e-06	0	59	0	1214251008	51	4611
2026-01-15 00:54:56.37	249.66	20.39	-39.6	-41.8	14.0	2.20e-06	0	59	0	1223688192	51	4473
2026-01-15 00:54:59.40	249.19	20.07	-39.5	-41.7	14.1	7.00e-07	0	59	0	1233125376	51	4405
2026-01-15 00:55:02.43	248.74	19.76	-39.8	-42.1	13.7	2.20e-06	0	59	0	1242562560	51	4615
2026-01-15 00:55:05.46	248.29	19.44	-40.2	-42.7	13.0	3.50e-05	0	58	0	1251999744	51	4963
2026-01-15 00:55:08.49	247.85	19.13	-40.3	-42.8	12.9	4.19e-05	0	59	0	1261436928	51	4989
2026-01-15 00:55:11.52	247.42	18.82	-40.0	-42.4	13.3	1.67e-05	0	59	0	1270874112	51	4762
2026-01-15 00:55:14.55	247.00	18.52	-39.8	-42.0	13.6	6.80e-06	0	59	0	1280311296	51	4593
2026-01-15 00:55:17.58	246.58	18.21	-39.9	-42.2	13.4	5.30e-06	0	59	0	1289748480	51	4688
2026-01-15 00:55:20.61	246.18	17.91	-40.4	-42.9	12.7	5.18e-05	0	59	0	1299185664	51	5091
2026-01-15 00:55:23.64	245.78	17.61	-40.5	-43.2	12.4	1.56e-04	0	59	0	1308622848	51	5249
2026-01-15 00:55:26.67	245.40	17.31	-40.4	-42.9	12.7	8.01e-05	0	59	0	1318060032	51	5082
2026-01-15 00:55:29.69	245.02	17.01	-40.0	-42.4	13.2	2.89e-05	0	59	0	1327497216	51	4795
2026-01-15 00:55:32.72	244.64	16.72	-39.9	-42.2	13.4	1.52e-05	0	59	0	1336934400	51	4686
2026-01-15 00:55:35.75	244.28	16.43	-40.2	-42.6	13.0	2.59e-05	0	59	0	1346371584	51	4908
2026-01-15 00:55:38.78	243.92	16.14	-40.5	-43.2	12.4	1.15e-04	0	59	0	1355808768	51	5245
2026-01-15 00:55:41.81	243.57	15.85	-40.6	-43.3	12.3	1.75e-04	0	59	0	1365245952	51	5298
2026-01-15 00:55:44.84	243.22	15.57	-40.5	-43.1	12.5	1.39e-04	0	59	0	1374683136	51	5181
2026-01-15 00:55:47.87	242.88	15.28	-40.2	-42.8	12.8	5.95e-05	0	59	0	1384120320	51	4998
2026-01-15 00:55:50.90	242.55	15.00	-40.3	-42.8	12.8	5.18e-05	0	59	0	1393557504	51	5008
2026-01-15 00:55:53.93	242.22	14.73	-40.5	-43.1	12.5	1.26e-04	0	59	0	1404043264	51	5182
2026-01-15 00:55:56.96	241.90	14.45	-40.6	-43.3	12.3	1.93e-04	0	59	0	1412431872	51	5295
2026-01-15 00:55:59.99	241.59	14.18	-40.6	-43.4	12.1	2.71e-04	0	58	0	1422917632	51	5377
2026-01-15 00:56:03.01	241.28	13.91	-40.7	-43.6	11.9	3.95e-04	0	59	0	1431306240	52	5174
2026-01-15 00:56:06.04	240.98	13.64	-40.8	-43.8	11.6	6.52e-04	0	59	0	1441792000	52	5285
2026-01-15 00:56:09.07	240.68	13.37	-40.8	-43.7	11.6	6.06e-04	0	59	0	1451229184	52	5259
2026-01-15 00:56:12.11	240.39	13.10	-40.8	-43.7	11.6	6.96e-04	0	59	0	1460666368	52	5242
2026-01-15 00:56:15.13	240.11	12.84	-40.6	-43.4	11.9	3.95e-04	0	58	0	1470103552	52	5077
2026-01-15 00:56:18.16	239.83	12.58	-40.5	-43.4	11.9	3.80e-04	0	59	0	1479540736	52	5044
2026-01-15 00:56:21.19	239.55	12.32	-40.4	-43.2	12.1	2.87e-04	0	59	0	1488977920	52	4945
2026-01-15 00:56:24.22	239.28	12.07	-40.7	-43.6	11.7	5.29e-04	0	58	0	1498415104	52	5173
2026-01-15 00:56:27.25	239.01	11.81	-41.0	-44.1	11.1	1.52e-03	0	59	0	1507852288	52	5522
2026-01-15 00:56:30.28	238.75	11.56	-41.0	-44.1	11.1	1.44e-03	0	59	0	1517289472	52	5494
2026-01-15 00:56:33.31	238.49	11.31	-41.1	-44.4	10.8	2.60e-03	0	59	0	1526726656	52	5690
2026-01-15 00:56:36.34	238.24	11.06	-41.1	-44.3	10.9	2.39e-03	0	59	0	1536163840	52	5619
2026-01-15 00:56:39.37	237.99	10.81	-41.0	-44.3	10.9	2.16e-03	0	58	0	1545601024	52	5605
2026-01-15 00:56:42.40	237.75	10.57	-40.9	-44.0	11.1	1.39e-03	0	59	0	1555038208	52	5437
2026-01-15 00:56:45.43	237.51	10.33	-40.8	-43.9	11.3	1.01e-03	0	59	0	1564475392	52	5366
2026-01-15 00:56:48.45	237.28	10.09	-40.9	-44.0	11.2	1.39e-03	0	59	0	1573912576	52	5413
2026-01-15 00:56:51.48	237.04	9.85	-40.8	-44.0	11.2	1.33e-03	0	59	0	1583349760	52	5416
2026-01-15 00:56:54.51	236.82	9.61	-40.8	-44.0	11.1	1.50e-03	0	59	0	1592786944	52	5433
2026-01-15 00:56:57.54	236.59	9.37	-41.0	-44.2	10.9	2.23e-03	0	59	0	1602224128	52	5565
2026-01-15 00:57:00.57	236.37	9.14	-41.1	-44.5	10.6	3.23e-03	0	59	0	1611661312	52	5749
2026-01-15 00:57:03.60	236.15	8.91	-41.1	-44.5	10.5	3.57e-03	0	59	0	1621098496	52	5766
2026-01-15 00:57:06.63	235.94	8.68	-41.2	-44.7	10.2	5.85e-03	0	59	0	1630535680	53	5586
2026-01-15 00:57:09.65	235.73	8.45	-41.2	-44.6	10.3	4.79e-03	0	58	0	1639972864	53	5520
2026-01-15 00:57:12.68	235.52	8.22	-41.1	-44.6	10.3	5.09e-03	0	59	0	1649410048	53	5490
2026-01-15 00:57:15.71	235.32	8.00	-43.9	-53.0	3.9	4.29e-01	0	59	104	1658847232	58	10788
2026-01-15 00:57:18.75	235.12	7.78	-45.0	-57.4	3.8	1.49e+00	0	59	104	1658847232	60	15948
2026-01-15 00:57:21.78	234.92	7.55	-45.2	-57.5	3.8	1.49e+00	0	59	104	1658847232	61	15389
2026-01-15 00:57:24.81	234.73	7.33	-45.3	-57.6	3.8	1.49e+00	0	59	104	1658847232	61	15460
2026-01-15 00:57:27.84	234.54	7.11	-45.2	-57.5	3.8	1.49e+00	0	59	104	1658847232	61	15318
2026-01-15 00:57:30.87	234.35	6.90	-45.2	-57.5	3.8	1.49e+00	0	59	104	1658847232	61	15308
2026-01-15 00:57:33.90	234.16	6.68	-45.2	-57.5	3.8	1.49e+00	0	59	104	1658847232	61	15239
2026-01-15 00:57:36.94	233.98	6.47	-45.2	-57.4	3.8	1.49e+00	0	59	104	1658847232	61	15186
2026-01-15 00:57:39.97	233.80	6.26	-45.2	-57.4	3.8	1.49e+00	0	59	104	1658847232	61	15158
2026-01-15 00:57:43.00	233.63	6.04	-45.2	-57.4	3.8	1.49e+00	0	59	104	1658847232	61	15210
2026-01-15 00:57:46.03	233.45	5.83	-45.2	-57.4	3.8	1.49e+00	0	59	104	1658847232	61	15219
2026-01-15 00:57:49.06	233.28	5.63	-45.2	-57.4	3.8	1.49e+00	0	59	104	1658847232	61	15158
2026-01-15 00:57:52.09	233.11	5.42	-45.2	-57.4	3.8	1.49e+00	0	59	104	1658847232	61	15213
2026-01-15 00:57:55.12	232.94	5.21	-45.2	-57.4	3.8	1.49e+00	0	59	104	1658847232	61	15163
2026-01-15 00:57:58.16	232.78	5.01	-45.2	-57.4	3.8	1.49e+00	0	59	104	1658847232	61	15212
2026-01-15 00:58:01.18	232.62	4.81	-45.2	-57.4	3.8	1.49e+00	0	59	104	1658847232	61	15156
2026-01-15 00:58:04.21	232.46	4.61	-45.2	-57.4	3.8	1.49e+00	0	59	104	1658847232	61	15157
2026-01-15 00:58:07.24	232.30	4.41	-45.1	-57.4	3.8	1.49e+00	0	59	104	1658847232	61	15144
2026-01-15 00:58:10.27	232.15	4.21	-45.1	-57.4	3.8	1.49e+00	0	59	104	1658847232	61	15105
2026-01-15 00:58:13.30	231.99	4.01	-45.1	-57.4	3.8	1.49e+00	0	59	104	1658847232	61	15096
2026-01-15 00:58:16.33	231.84	3.81	-45.1	-57.4	3.8	1.49e+00	0	59	104	1658847232	61	15114
2026-01-15 00:58:19.36	231.69	3.62	-45.1	-57.4	3.8	1.49e+00	0	59	104	1658847232	61	15074
2026-01-15 00:58:22.38	231.55	3.43	-45.1	-57.4	3.8	1.49e+00	0	59	104	1658847232	61	15110
2026-01-15 00:58:25.41	231.40	3.23	-45.1	-57.4	3.8	1.49e+00	0	59	104	1658847232	61	15068
2026-01-15 00:58:28.45	231.26	3.04	-45.1	-57.4	3.8	1.49e+00	0	59	104	1658847232	61	15104
2026-01-15 00:58:31.47	231.12	2.85	-45.1	-57.4	3.8	1.49e+00	0	59	104	1658847232	61	15108
2026-01-15 00:58:34.50	230.98	2.66	-45.1	-57.4	3.8	1.49e+00	0	59	104	1658847232	61	15079
2026-01-15 00:58:37.53	230.84	2.47	-45.1	-57.4	3.8	1.49e+00	0	59	104	1658847232	61	15088
2026-01-15 00:58:40.56	230.71	2.29	-45.1	-57.4	3.8	1.49e+00	0	59	104	1658847232	61	15083
2026-01-15 00:58:43.60	230.57	2.10	-45.1	-57.4	3.8	1.49e+00	0	59	104	1658847232	61	15085

#Closed at: 2026-01-15 00:58:45
#Recorded file [1658 MB]: D:/lorett/data/31039_260115_034712.dat