passes_logs/2026/01/15/R2.0S_Moscow/R2.0S_Moscow__20260115_011452_SUOMI_NPP_rec.log

#Pass ID: 20260115_011452_SUOMI NPP
#Satellite: SUOMI NPP
#Configuration: NPP
#almurnet v.1.7.20251203
#Start time: 2026-01-15 01:14:52

#Version: 2.2.20231116
#Station: R2.0S_Moscow
#Location: 37.707566 lon 55.798166 lat
#TLE: 1 37849U 11061A   26014.11719687  .00000048  00000+0  43625-4 0  9998
#TLE: 2 37849  98.7809 316.1734 0002474  65.2440 294.8994 14.19525043736585

#Time	Az	El	Level	Level2	SNR	BER	BlckErr	Temp	State	Recorded	gain1	gain2
2026-01-15 01:14:52.44	10.76	2.00	-39.9	-54.6	3.8	1.49e+00	0	48	0	0	51	19558
2026-01-15 01:14:56.47	10.53	2.24	-39.9	-54.6	3.8	1.49e+00	0	49	104	0	51	19535
2026-01-15 01:15:00.49	10.29	2.47	-39.9	-54.6	3.8	1.49e+00	0	49	104	0	51	19507
2026-01-15 01:15:04.53	10.05	2.71	-39.9	-54.6	3.8	1.49e+00	0	49	104	0	51	19511
2026-01-15 01:15:08.56	9.80	2.95	-39.9	-54.6	3.8	1.49e+00	0	50	104	0	51	19552
2026-01-15 01:15:12.61	9.54	3.19	-39.9	-54.6	3.8	1.49e+00	0	50	104	0	51	19489
2026-01-15 01:15:16.65	9.29	3.43	-39.9	-54.6	3.8	1.49e+00	0	50	104	0	51	19531
2026-01-15 01:15:20.69	9.03	3.67	-39.9	-54.6	3.8	1.49e+00	0	50	104	0	51	19570
2026-01-15 01:15:24.73	8.76	3.92	-39.9	-54.6	3.8	1.49e+00	0	50	104	0	51	19532
2026-01-15 01:15:28.78	8.49	4.16	-39.9	-54.6	3.8	1.49e+00	0	51	104	0	51	19527
2026-01-15 01:15:32.82	8.21	4.41	-39.9	-54.6	3.8	1.49e+00	0	51	104	0	51	19482
2026-01-15 01:15:36.86	7.93	4.66	-39.9	-54.6	3.8	1.49e+00	0	51	104	0	51	19499
2026-01-15 01:15:40.90	7.64	4.91	-39.9	-54.6	3.8	1.49e+00	0	51	104	0	51	19490
2026-01-15 01:15:44.94	7.35	5.16	-39.9	-54.6	3.8	1.49e+00	0	52	104	0	51	19440
2026-01-15 01:15:48.98	7.05	5.42	-39.9	-54.6	3.8	1.49e+00	0	52	104	0	51	19544
2026-01-15 01:15:53.02	6.75	5.67	-39.9	-54.6	3.8	1.49e+00	0	52	104	0	51	19499
2026-01-15 01:15:57.06	6.44	5.93	-39.9	-54.6	3.8	1.49e+00	0	52	104	0	51	19514
2026-01-15 01:16:01.10	6.13	6.19	-39.9	-54.6	3.8	1.49e+00	0	52	104	0	51	19532
2026-01-15 01:16:05.14	5.81	6.45	-39.9	-54.6	3.8	1.49e+00	0	52	104	0	51	19465
2026-01-15 01:16:09.18	5.48	6.72	-39.9	-54.6	3.8	1.49e+00	0	53	104	0	51	19481
2026-01-15 01:16:13.22	5.15	6.98	-39.9	-54.6	3.8	1.49e+00	0	53	104	0	51	19536
2026-01-15 01:16:17.26	4.81	7.25	-39.9	-54.6	3.8	1.49e+00	0	53	104	0	51	19489
2026-01-15 01:16:21.30	4.47	7.52	-39.9	-54.6	3.8	1.49e+00	0	53	104	0	51	19494
2026-01-15 01:16:25.34	4.12	7.79	-39.9	-54.6	3.8	1.49e+00	0	53	104	0	51	19492
2026-01-15 01:16:29.38	3.76	8.06	-39.9	-54.6	3.8	1.49e+00	0	54	104	0	51	19535
2026-01-15 01:16:33.42	3.39	8.33	-40.0	-54.7	3.8	1.49e+00	0	54	104	0	51	19747
2026-01-15 01:16:37.46	3.02	8.61	-39.9	-54.7	3.8	1.49e+00	0	54	104	0	51	19624
2026-01-15 01:16:41.50	2.64	8.89	-39.9	-54.7	3.8	1.49e+00	0	54	104	0	51	19714
2026-01-15 01:16:45.54	2.25	9.17	-40.0	-54.7	3.8	1.49e+00	0	54	104	0	51	19801
2026-01-15 01:16:49.58	1.85	9.45	-40.0	-54.8	3.8	1.49e+00	0	54	104	0	51	19848
2026-01-15 01:16:53.62	1.45	9.73	-40.0	-54.8	3.8	1.49e+00	0	54	104	0	51	19854
2026-01-15 01:16:57.65	1.04	10.02	-39.9	-54.7	3.8	1.49e+00	0	54	104	0	51	19664
2026-01-15 01:17:01.69	0.62	10.30	-39.9	-54.8	3.8	1.49e+00	0	54	104	0	51	19888
2026-01-15 01:17:05.73	0.19	10.59	-39.8	-54.7	3.8	1.49e+00	0	54	104	0	51	19819
2026-01-15 01:17:09.76	359.75	10.88	-40.0	-54.8	3.8	1.49e+00	0	55	104	0	50	21236
2026-01-15 01:17:13.80	359.30	11.18	-39.7	-54.7	3.8	1.49e+00	0	55	104	0	51	19833
2026-01-15 01:17:17.84	358.85	11.47	-39.7	-54.7	3.8	1.49e+00	0	55	104	0	51	19676
2026-01-15 01:17:21.88	358.38	11.77	-39.8	-54.8	3.8	1.49e+00	0	55	104	0	51	19965
2026-01-15 01:17:25.92	357.90	12.06	-40.2	-55.2	3.8	1.49e+00	0	55	104	0	51	20869
2026-01-15 01:17:29.96	357.42	12.36	-40.0	-54.1	3.8	1.48e+00	0	55	104	0	52	17457
2026-01-15 01:17:34.00	356.92	12.66	-40.0	-47.9	6.6	2.75e-01	0	55	0	5242880	51	8971
2026-01-15 01:17:38.04	356.41	12.96	-40.7	-50.7	4.7	6.50e-01	0	55	0	12582912	52	11762
2026-01-15 01:17:42.08	355.90	13.27	-40.9	-54.4	3.8	1.49e+00	0	55	104	13631488	52	18019
2026-01-15 01:17:46.11	355.37	13.57	-41.5	-55.3	3.8	1.49e+00	0	55	104	13631488	53	18925
2026-01-15 01:17:50.15	354.83	13.88	-40.4	-55.2	3.8	1.49e+00	0	55	104	13631488	52	19773
2026-01-15 01:17:54.18	354.28	14.19	-40.9	-55.6	3.8	1.49e+00	0	55	104	13631488	52	20621
2026-01-15 01:17:58.22	353.72	14.50	-40.4	-55.2	3.8	1.49e+00	0	55	104	13631488	52	19703
2026-01-15 01:18:02.26	353.14	14.80	-40.5	-55.2	3.8	1.49e+00	0	56	104	13631488	52	19663
2026-01-15 01:18:06.30	352.55	15.12	-40.6	-55.3	3.8	1.49e+00	0	56	104	13631488	52	19892
2026-01-15 01:18:10.35	351.95	15.43	-40.5	-55.5	3.8	1.49e+00	0	56	104	13631488	51	21551
2026-01-15 01:18:14.38	351.34	15.74	-40.5	-55.7	3.8	1.49e+00	0	56	104	13631488	51	22019
2026-01-15 01:18:18.42	350.71	16.05	-39.9	-55.5	3.8	1.49e+00	0	56	104	13631488	51	21596
2026-01-15 01:18:22.46	350.07	16.37	-40.7	-55.6	3.8	1.49e+00	0	56	104	13631488	52	20599
2026-01-15 01:18:26.51	349.41	16.68	-40.5	-55.5	3.8	1.49e+00	0	56	104	13631488	52	20360
2026-01-15 01:18:30.55	348.74	17.00	-41.4	-55.9	3.8	1.49e+00	0	56	104	13631488	53	20204
2026-01-15 01:18:34.58	348.06	17.31	-41.2	-55.7	3.8	1.49e+00	0	56	104	13631488	53	19744
2026-01-15 01:18:38.62	347.37	17.62	-41.4	-55.9	3.8	1.49e+00	0	56	104	13631488	53	20124
2026-01-15 01:18:42.65	346.65	17.93	-40.8	-55.6	3.8	1.49e+00	0	56	104	13631488	53	19481
2026-01-15 01:18:46.69	345.93	18.25	-40.9	-55.5	3.8	1.49e+00	0	56	104	13631488	53	19324
2026-01-15 01:18:50.73	345.18	18.56	-41.1	-55.7	3.8	1.49e+00	0	56	104	13631488	53	19821
2026-01-15 01:18:54.77	344.43	18.87	-40.9	-55.6	3.8	1.49e+00	0	57	104	13631488	53	19431
2026-01-15 01:18:58.80	343.65	19.18	-41.2	-55.9	3.8	1.49e+00	0	56	104	13631488	53	20220
2026-01-15 01:19:02.84	342.86	19.48	-41.0	-55.9	3.8	1.49e+00	0	56	104	13631488	53	20225
2026-01-15 01:19:06.87	342.06	19.79	-41.6	-55.8	3.8	1.49e+00	0	56	104	13631488	53	20035
2026-01-15 01:19:10.91	341.24	20.09	-41.8	-55.3	3.8	1.49e+00	0	57	104	13631488	54	17887
2026-01-15 01:19:14.95	340.40	20.39	-41.6	-51.5	4.8	8.97e-01	0	56	0	15728640	54	11539
2026-01-15 01:19:18.98	339.54	20.69	-41.7	-48.6	7.4	1.73e-01	0	57	0	24117248	54	8182
2026-01-15 01:19:23.02	338.67	20.98	-41.2	-45.8	10.9	4.38e-03	0	57	0	31457280	54	5961
2026-01-15 01:19:27.05	337.78	21.27	-41.8	-46.7	10.3	4.60e-03	0	56	0	38797312	54	6634
2026-01-15 01:19:31.09	336.87	21.55	-41.6	-45.8	11.4	1.14e-03	0	56	0	46137344	54	5982
2026-01-15 01:19:35.13	335.95	21.83	-41.5	-45.6	11.9	4.06e-04	0	57	0	53477376	54	5809
2026-01-15 01:19:39.16	335.01	22.11	-41.5	-45.3	12.3	1.89e-04	0	57	0	61865984	54	5615
2026-01-15 01:19:43.20	334.05	22.38	-41.4	-45.1	12.5	1.16e-04	0	57	0	69206016	54	5506
2026-01-15 01:19:47.24	333.08	22.64	-41.3	-44.9	12.9	4.34e-05	0	57	0	76546048	54	5344
2026-01-15 01:19:51.28	332.09	22.90	-41.2	-44.7	13.1	3.96e-05	0	57	0	83886080	54	5260
2026-01-15 01:19:55.31	331.08	23.15	-41.5	-45.3	12.4	1.33e-04	0	57	0	92274688	54	5614
2026-01-15 01:19:59.35	330.06	23.39	-41.4	-44.9	12.9	5.56e-05	0	57	0	99614720	54	5362
2026-01-15 01:20:03.38	329.02	23.63	-41.7	-45.6	12.3	1.50e-04	0	57	0	106954752	54	5792
2026-01-15 01:20:07.41	327.97	23.86	-41.5	-45.1	12.7	6.71e-05	0	57	0	114294784	54	5478
2026-01-15 01:20:11.44	326.90	24.07	-41.3	-44.7	13.1	3.28e-05	0	57	0	121634816	54	5269
2026-01-15 01:20:15.48	325.81	24.28	-41.7	-45.5	12.5	1.27e-04	0	57	0	130023424	54	5730
2026-01-15 01:20:19.52	324.71	24.48	-41.2	-44.5	13.3	1.98e-05	0	57	0	137363456	54	5143
2026-01-15 01:20:23.56	323.60	24.67	-41.5	-45.0	12.8	3.20e-05	0	57	0	144703488	54	5441
2026-01-15 01:20:27.59	322.47	24.85	-41.1	-44.5	13.4	1.60e-05	0	57	0	152043520	54	5103
2026-01-15 01:20:31.62	321.34	25.02	-41.4	-44.8	13.1	2.51e-05	0	57	0	159383552	54	5335
2026-01-15 01:20:35.66	320.18	25.18	-41.2	-44.5	13.4	2.28e-05	0	57	0	167772160	54	5133
2026-01-15 01:20:39.69	319.02	25.32	-41.8	-45.5	12.3	1.94e-04	0	57	0	175112192	54	5771
2026-01-15 01:20:43.73	317.85	25.45	-42.6	-47.5	10.3	5.15e-03	0	57	0	182452224	55	6838
2026-01-15 01:20:47.77	316.67	25.57	-42.1	-46.3	11.5	1.14e-03	0	57	0	189792256	55	5934
2026-01-15 01:20:51.80	315.48	25.68	-42.3	-46.8	11.0	2.36e-03	0	57	0	198180864	55	6326
2026-01-15 01:20:55.85	314.28	25.77	-42.4	-47.0	10.8	2.18e-03	0	57	0	205520896	55	6445
2026-01-15 01:20:59.88	313.07	25.85	-42.1	-46.3	11.5	6.03e-04	0	57	0	212860928	55	5963
2026-01-15 01:21:03.92	311.86	25.92	-42.5	-47.4	10.4	6.97e-03	0	57	0	220200960	55	6752
2026-01-15 01:21:07.96	310.64	25.97	-42.0	-46.1	11.7	7.84e-04	0	57	0	227540992	55	5853
2026-01-15 01:21:12.00	309.42	26.01	-42.1	-46.5	11.3	1.00e-03	0	57	0	235929600	55	6120
2026-01-15 01:21:16.03	308.20	26.03	-42.6	-47.5	10.3	6.84e-03	0	57	0	243269632	55	6817
2026-01-15 01:21:20.07	306.98	26.04	-42.2	-46.6	11.2	2.40e-03	0	57	0	250609664	55	6146
2026-01-15 01:21:24.10	305.76	26.04	-41.9	-45.9	11.9	4.54e-04	0	57	0	257949696	55	5696
2026-01-15 01:21:28.13	304.54	26.02	-42.5	-47.3	10.4	3.69e-03	0	57	0	265289728	55	6694
2026-01-15 01:21:32.17	303.31	25.99	-42.4	-47.0	10.7	2.71e-03	0	57	0	273678336	55	6481
2026-01-15 01:21:36.20	302.10	25.94	-42.0	-46.2	11.6	7.99e-04	0	57	0	281018368	55	5894
2026-01-15 01:21:40.24	300.88	25.88	-41.7	-45.5	12.4	1.56e-04	0	57	0	288358400	55	5428
2026-01-15 01:21:44.28	299.67	25.80	-41.7	-45.4	12.4	1.39e-04	0	57	0	295698432	55	5383
2026-01-15 01:21:48.31	298.47	25.71	-40.8	-43.8	14.0	7.00e-07	0	57	0	304087040	53	5006
2026-01-15 01:21:52.35	297.28	25.61	-40.9	-44.0	13.9	1.50e-06	0	57	0	311427072	53	5118
2026-01-15 01:21:56.39	296.09	25.50	-41.1	-44.3	13.6	7.60e-06	0	57	0	318767104	53	5286
2026-01-15 01:22:00.43	294.91	25.37	-41.4	-45.0	12.9	4.95e-05	0	57	0	326107136	53	5724
2026-01-15 01:22:04.46	293.74	25.23	-41.4	-44.9	13.0	3.28e-05	0	57	0	333447168	53	5677
2026-01-15 01:22:08.49	292.59	25.07	-41.6	-45.3	12.6	7.09e-05	0	57	0	341835776	53	5938
2026-01-15 01:22:12.53	291.44	24.91	-42.0	-45.9	12.0	2.01e-04	0	57	0	349175808	54	6060
2026-01-15 01:22:16.57	290.31	24.73	-42.0	-45.9	11.9	3.83e-04	0	57	0	356515840	55	5708
2026-01-15 01:22:20.59	289.19	24.55	-42.1	-46.2	11.6	7.27e-04	0	57	0	363855872	55	5916
2026-01-15 01:22:24.62	288.09	24.35	-42.4	-47.0	10.9	1.65e-03	0	57	0	372244480	55	6434
2026-01-15 01:22:28.65	287.00	24.14	-42.4	-47.0	10.8	2.65e-03	0	57	0	379584512	55	6438
2026-01-15 01:22:32.68	285.92	23.93	-42.2	-46.6	11.1	1.86e-03	0	57	0	386924544	55	6199
2026-01-15 01:22:36.71	284.86	23.70	-42.1	-46.5	11.3	1.08e-03	0	57	0	394264576	55	6081
2026-01-15 01:22:40.75	283.81	23.47	-42.4	-47.1	10.7	3.03e-03	0	57	0	401604608	55	6496
2026-01-15 01:22:44.78	282.78	23.23	-42.1	-46.4	11.3	1.10e-03	0	57	0	409993216	55	6058
2026-01-15 01:22:48.82	281.76	22.98	-42.4	-47.1	10.6	2.89e-03	0	57	0	417333248	55	6508
2026-01-15 01:22:52.86	280.76	22.72	-42.5	-47.5	10.0	1.08e-02	0	57	0	424673280	55	6875
2026-01-15 01:22:56.90	279.78	22.46	-41.9	-46.1	11.7	5.78e-04	0	58	0	432013312	55	5804
2026-01-15 01:23:00.94	278.81	22.19	-42.3	-47.0	10.6	2.83e-03	0	57	0	439353344	55	6453
2026-01-15 01:23:04.97	277.87	21.92	-42.3	-47.1	10.7	4.60e-03	0	57	0	447741952	55	6504
2026-01-15 01:23:09.01	276.93	21.64	-41.7	-45.6	12.1	1.72e-04	0	57	0	455081984	55	5513
2026-01-15 01:23:13.04	276.02	21.35	-42.1	-46.5	11.2	1.11e-03	0	57	0	462422016	55	6081
2026-01-15 01:23:17.07	275.12	21.07	-42.1	-46.2	11.5	8.80e-04	0	58	0	469762048	55	5923
2026-01-15 01:23:21.11	274.24	20.77	-41.2	-44.5	13.4	2.67e-05	0	57	0	478150656	54	5125
2026-01-15 01:23:25.14	273.38	20.48	-41.4	-44.8	13.0	4.04e-05	0	57	0	485490688	54	5308
2026-01-15 01:23:29.18	272.53	20.18	-41.8	-45.6	12.2	1.98e-04	0	57	0	492830720	54	5802
2026-01-15 01:23:33.22	271.69	19.87	-42.0	-46.0	11.8	4.73e-04	0	57	0	500170752	54	6078
2026-01-15 01:23:37.25	270.88	19.57	-41.8	-45.7	12.1	2.75e-04	0	57	0	507510784	54	5894
2026-01-15 01:23:41.28	270.08	19.26	-41.8	-45.6	12.2	1.72e-04	0	57	0	515899392	54	5795
2026-01-15 01:23:45.32	269.30	18.95	-41.9	-45.9	11.8	3.49e-04	0	57	0	523239424	54	6040
2026-01-15 01:23:49.36	268.53	18.64	-41.8	-45.6	12.1	4.03e-04	0	57	0	530579456	54	5847
2026-01-15 01:23:53.39	267.78	18.33	-41.9	-45.7	12.0	2.24e-04	0	57	0	537919488	54	5917
2026-01-15 01:23:57.43	267.05	18.02	-41.9	-45.9	11.8	5.93e-04	0	57	0	545259520	54	6029
2026-01-15 01:24:01.48	266.32	17.70	-41.5	-45.2	12.6	1.11e-04	0	58	0	553648128	54	5529
2026-01-15 01:24:05.52	265.62	17.39	-41.3	-44.8	12.9	3.28e-05	0	57	0	560988160	54	5303
2026-01-15 01:24:09.55	264.93	17.08	-41.8	-45.8	11.9	2.78e-04	0	58	0	568328192	54	5935
2026-01-15 01:24:13.58	264.25	16.76	-41.5	-45.2	12.5	1.50e-04	0	58	0	575668224	54	5537
2026-01-15 01:24:17.62	263.59	16.45	-41.3	-44.7	13.0	3.50e-05	0	57	0	584056832	54	5263
2026-01-15 01:24:21.65	262.94	16.13	-41.5	-45.1	12.5	9.00e-05	0	57	0	591396864	54	5515
2026-01-15 01:24:25.68	262.31	15.82	-41.6	-45.4	12.3	1.62e-04	0	58	0	598736896	54	5663
2026-01-15 01:24:29.72	261.68	15.50	-41.4	-44.8	12.8	7.78e-05	0	57	0	606076928	54	5340
2026-01-15 01:24:33.75	261.08	15.19	-41.4	-44.9	12.7	7.70e-05	0	57	0	613416960	54	5398
2026-01-15 01:24:37.78	260.48	14.88	-42.0	-46.2	11.4	6.67e-04	0	57	0	621805568	54	6211
2026-01-15 01:24:41.82	259.90	14.57	-41.7	-45.7	11.9	4.32e-04	0	57	0	629145600	54	5875
2026-01-15 01:24:45.85	259.33	14.26	-41.6	-45.5	12.0	3.01e-04	0	57	0	636485632	54	5766
2026-01-15 01:24:49.89	258.77	13.95	-41.6	-45.4	12.2	1.99e-04	0	57	0	643825664	54	5673
2026-01-15 01:24:53.93	258.22	13.64	-41.8	-45.9	11.6	4.24e-04	0	57	0	651165696	54	6019
2026-01-15 01:24:57.97	257.68	13.34	-42.3	-47.0	10.4	3.93e-03	0	57	0	659554304	55	6478
2026-01-15 01:25:02.00	257.16	13.03	-42.0	-46.3	11.1	2.75e-03	0	58	0	666894336	55	5980
2026-01-15 01:25:06.04	256.64	12.73	-41.7	-45.7	11.7	4.84e-04	0	58	0	674234368	55	5581
2026-01-15 01:25:10.07	256.14	12.43	-41.7	-45.8	11.7	5.55e-04	0	58	0	681574400	55	5610
2026-01-15 01:25:14.10	255.65	12.13	-41.7	-45.7	11.6	5.95e-04	0	58	0	689963008	55	5592
2026-01-15 01:25:18.14	255.16	11.83	-41.8	-45.9	11.6	8.46e-04	0	58	0	697303040	55	5657
2026-01-15 01:25:22.19	254.69	11.53	-42.2	-46.9	10.4	3.11e-03	0	57	0	704643072	55	6375
2026-01-15 01:25:26.23	254.23	11.23	-42.3	-47.1	10.3	4.74e-03	0	57	0	711983104	55	6501
2026-01-15 01:25:30.27	253.77	10.94	-42.3	-47.2	10.1	7.30e-03	0	58	0	719323136	55	6616
2026-01-15 01:25:34.30	253.33	10.65	-42.5	-47.8	9.4	1.54e-02	0	58	0	727711744	55	7116
2026-01-15 01:25:38.34	252.89	10.36	-42.6	-48.0	9.3	1.81e-02	0	58	0	735051776	55	7241
2026-01-15 01:25:42.37	252.46	10.07	-42.3	-47.2	10.1	7.24e-03	0	58	0	742391808	55	6635
2026-01-15 01:25:46.41	252.04	9.78	-42.0	-46.6	10.7	3.25e-03	0	58	0	749731840	55	6166
2026-01-15 01:25:50.45	251.63	9.50	-42.3	-47.2	10.0	6.80e-03	0	58	0	758120448	55	6607
2026-01-15 01:25:54.48	251.23	9.22	-42.4	-47.5	9.7	1.02e-02	0	58	0	765460480	55	6860
2026-01-15 01:25:58.52	250.84	8.94	-42.3	-47.3	9.9	8.69e-03	0	57	0	772800512	55	6658
2026-01-15 01:26:02.56	250.45	8.66	-42.1	-47.0	10.2	6.40e-03	0	58	0	780140544	55	6452
2026-01-15 01:26:06.60	250.07	8.38	-42.2	-47.2	10.0	7.29e-03	0	58	0	787480576	55	6602
2026-01-15 01:26:10.64	249.70	8.10	-42.1	-47.1	10.0	9.46e-03	0	58	0	795869184	55	6537
2026-01-15 01:26:14.68	249.33	7.83	-44.8	-59.3	3.8	1.49e+00	0	57	104	799014912	60	19969
2026-01-15 01:26:18.71	248.97	7.56	-45.2	-59.7	3.8	1.49e+00	0	57	104	799014912	60	20902
2026-01-15 01:26:22.75	248.62	7.29	-45.2	-59.7	3.8	1.49e+00	0	57	104	799014912	61	19775
2026-01-15 01:26:26.79	248.28	7.02	-45.2	-59.6	3.8	1.49e+00	0	58	104	799014912	61	19551
2026-01-15 01:26:30.83	247.94	6.75	-45.1	-59.6	3.8	1.49e+00	0	58	104	799014912	61	19527
2026-01-15 01:26:34.88	247.60	6.49	-45.1	-59.6	3.8	1.49e+00	0	57	104	799014912	61	19512
2026-01-15 01:26:38.91	247.28	6.23	-45.1	-59.6	3.8	1.49e+00	0	58	104	799014912	61	19525
2026-01-15 01:26:42.95	246.96	5.97	-45.1	-59.6	3.8	1.49e+00	0	57	104	799014912	61	19543
2026-01-15 01:26:46.99	246.64	5.71	-45.1	-59.6	3.8	1.49e+00	0	58	104	799014912	61	19479
2026-01-15 01:26:51.03	246.34	5.45	-45.1	-59.6	3.8	1.49e+00	0	57	104	799014912	61	19528
2026-01-15 01:26:55.06	246.03	5.19	-45.1	-59.6	3.8	1.49e+00	0	58	104	799014912	61	19431
2026-01-15 01:26:59.10	245.74	4.94	-45.1	-59.6	3.8	1.49e+00	0	58	104	799014912	61	19484
2026-01-15 01:27:03.14	245.44	4.69	-45.1	-59.6	3.8	1.49e+00	0	58	104	799014912	61	19502
2026-01-15 01:27:07.19	245.15	4.44	-45.1	-59.6	3.8	1.49e+00	0	58	104	799014912	61	19434
2026-01-15 01:27:11.23	244.87	4.19	-45.1	-59.6	3.8	1.49e+00	0	58	104	799014912	61	19423
2026-01-15 01:27:15.27	244.59	3.94	-45.1	-59.6	3.8	1.49e+00	0	58	104	799014912	61	19452
2026-01-15 01:27:19.31	244.32	3.69	-45.1	-59.6	3.8	1.49e+00	0	58	104	799014912	61	19475
2026-01-15 01:27:23.35	244.05	3.45	-45.1	-59.6	3.8	1.49e+00	0	58	104	799014912	61	19464
2026-01-15 01:27:27.39	243.79	3.21	-45.1	-59.6	3.8	1.49e+00	0	57	104	799014912	61	19439
2026-01-15 01:27:31.44	243.53	2.97	-45.0	-59.5	3.8	1.49e+00	0	58	104	799014912	61	19341
2026-01-15 01:27:35.48	243.28	2.73	-45.0	-59.6	3.8	1.49e+00	0	58	104	799014912	61	19442
2026-01-15 01:27:39.52	243.03	2.49	-45.0	-59.5	3.8	1.49e+00	0	57	104	799014912	61	19341
2026-01-15 01:27:43.56	242.78	2.25	-45.0	-59.5	3.8	1.49e+00	0	58	104	799014912	61	19344
2026-01-15 01:27:47.61	242.54	2.02	-45.0	-59.5	3.8	1.49e+00	0	58	104	799014912	61	19328

#Closed at: 2026-01-15 01:27:49
#Recorded file [799 MB]: D:/lorett/data/31039_260115_041452.dat