passes_logs/2026/01/15/R2.0S_Moscow/R2.0S_Moscow__20260115_035836_FENGYUN_3E_rec.log

#Pass ID: 20260115_035836_FENGYUN 3E
#Satellite: FENGYUN 3E
#Configuration: FENGYUN 3E
#almurnet v.1.7.20251203
#Start time: 2026-01-15 04:06:03

#Version: 2.2.20231116
#Station: R2.0S_Moscow
#Location: 37.707566 lon 55.798166 lat
#TLE: 1 49008U 21062A   26014.30102361 -.00000015  00000+0  13743-4 0  9999
#TLE: 2 49008  98.7489  19.4380 0001989 137.7844 222.3486 14.19884630234745

#Time	Az	El	Level	Level2	SNR	BER	BlckErr	Temp	State	Recorded	gain1	gain2
2026-01-15 04:06:03.46	218.08	83.32	-44.4	-56.2	3.8	8.48e-01	0	57	0	0	59	14830
2026-01-15 04:06:05.47	215.45	82.34	-45.7	-57.0	3.8	8.45e-01	0	58	104	0	62	12874
2026-01-15 04:06:07.48	213.43	81.36	-45.7	-57.1	3.8	8.47e-01	0	58	104	0	62	12964
2026-01-15 04:06:09.50	211.82	80.37	-45.7	-57.0	3.8	8.46e-01	0	58	104	0	62	12854
2026-01-15 04:06:11.52	210.52	79.37	-45.6	-57.0	3.8	8.46e-01	0	58	104	0	62	12816
2026-01-15 04:06:13.54	209.45	78.38	-45.6	-57.0	3.8	8.47e-01	0	58	104	0	62	12848
2026-01-15 04:06:15.56	208.55	77.39	-45.6	-56.9	3.8	8.46e-01	0	58	104	0	62	12792
2026-01-15 04:06:17.59	207.78	76.40	-45.6	-57.0	3.8	8.45e-01	0	58	104	0	62	12822
2026-01-15 04:06:19.61	207.12	75.42	-45.6	-56.9	3.8	8.46e-01	0	58	104	0	62	12681
2026-01-15 04:06:21.63	206.55	74.44	-45.6	-57.0	3.8	8.47e-01	0	58	104	0	61	13578
2026-01-15 04:06:23.65	206.05	73.47	-45.6	-56.9	3.8	8.46e-01	0	58	104	0	61	13543
2026-01-15 04:06:25.67	205.60	72.51	-45.6	-57.0	3.8	8.46e-01	0	58	104	0	61	13606
2026-01-15 04:06:27.69	205.21	71.55	-45.6	-56.7	3.8	8.46e-01	0	58	104	0	61	13128
2026-01-15 04:06:29.72	204.86	70.60	-45.6	-56.8	3.8	8.47e-01	0	58	104	0	61	13410
2026-01-15 04:06:31.74	204.54	69.66	-45.6	-57.0	3.8	8.46e-01	0	58	104	0	61	13578
2026-01-15 04:06:33.76	204.26	68.73	-45.5	-56.5	3.8	8.46e-01	0	58	104	0	61	12887
2026-01-15 04:06:35.78	204.00	67.80	-45.6	-56.7	3.8	8.46e-01	0	58	104	0	61	13211
2026-01-15 04:06:37.80	203.76	66.89	-45.6	-56.8	3.8	8.46e-01	0	58	104	0	61	13294
2026-01-15 04:06:39.82	203.54	65.99	-45.5	-56.3	3.8	8.46e-01	0	58	104	0	61	12584
2026-01-15 04:06:41.84	203.34	65.09	-45.5	-56.1	3.8	8.46e-01	0	58	104	0	61	12267
2026-01-15 04:06:43.86	203.16	64.21	-45.3	-54.6	4.0	8.45e-01	0	58	104	0	61	10407
2026-01-15 04:06:45.88	202.99	63.34	-45.6	-56.8	3.8	8.47e-01	0	58	104	0	61	13358
2026-01-15 04:06:47.90	202.83	62.47	-44.6	-50.8	5.4	7.65e-01	0	58	0	0	60	7047
2026-01-15 04:06:49.92	202.69	61.62	-45.3	-54.5	4.0	8.30e-01	0	58	0	3145728	60	10858
2026-01-15 04:06:51.94	202.55	60.78	-43.1	-46.7	8.7	1.27e-01	0	58	0	6291456	57	5271
2026-01-15 04:06:53.97	202.42	59.94	-42.4	-45.6	9.8	4.04e-03	0	58	0	20971520	54	5504
2026-01-15 04:06:55.99	202.31	59.12	-40.6	-42.7	12.7	6.36e-04	0	58	0	35651584	52	4424
2026-01-15 04:06:58.01	202.20	58.31	-43.5	-47.6	7.9	8.30e-02	0	58	0	50331648	57	5820
2026-01-15 04:07:00.03	202.09	57.51	-45.4	-55.0	3.8	6.00e-01	0	58	104	63963136	60	11499
2026-01-15 04:07:02.05	201.99	56.72	-39.8	-41.7	13.9	1.10e-06	0	58	0	73400320	49	4672
2026-01-15 04:07:04.07	201.90	55.95	-37.6	-39.1	16.4	0.00e+00	0	58	0	89128960	46	4100
2026-01-15 04:07:06.09	201.82	55.18	-37.1	-38.4	17.0	0.00e+00	0	58	0	102760448	45	4032
2026-01-15 04:07:08.11	201.73	54.42	-36.9	-38.2	17.2	0.00e+00	0	58	0	117440512	44	4160
2026-01-15 04:07:10.13	201.66	53.68	-36.8	-38.0	17.4	0.00e+00	0	58	0	132120576	44	4094
2026-01-15 04:07:12.15	201.58	52.94	-36.8	-38.1	17.3	0.00e+00	0	58	0	146800640	44	4128
2026-01-15 04:07:14.17	201.52	52.22	-36.9	-38.2	17.1	0.00e+00	0	58	0	161480704	44	4175
2026-01-15 04:07:16.19	201.45	51.51	-37.1	-38.4	17.0	0.00e+00	0	58	0	176160768	44	4288
2026-01-15 04:07:18.21	201.39	50.80	-37.1	-38.4	17.0	0.00e+00	0	58	0	190840832	44	4254
2026-01-15 04:07:20.23	201.33	50.11	-37.0	-38.3	17.0	0.00e+00	0	58	0	205520896	44	4229
2026-01-15 04:07:22.25	201.27	49.43	-36.9	-38.1	17.2	0.00e+00	0	58	0	219152384	44	4136
2026-01-15 04:07:24.27	201.22	48.76	-36.5	-37.8	17.6	0.00e+00	0	58	0	234881024	44	3971
2026-01-15 04:07:26.29	201.17	48.09	-36.3	-37.5	17.6	0.00e+00	0	58	0	248512512	43	4083
2026-01-15 04:07:28.31	201.12	47.44	-36.4	-37.6	17.6	0.00e+00	0	58	0	263192576	43	4127
2026-01-15 04:07:30.33	201.07	46.80	-36.2	-37.4	17.8	0.00e+00	0	58	0	277872640	43	4026
2026-01-15 04:07:32.35	201.03	46.17	-35.7	-36.8	18.3	0.00e+00	0	58	0	292552704	42	3975
2026-01-15 04:07:34.37	200.99	45.54	-35.3	-36.4	18.8	0.00e+00	0	58	0	307232768	41	4010
2026-01-15 04:07:36.39	200.95	44.93	-35.3	-36.4	18.8	0.00e+00	0	58	0	321912832	41	4009
2026-01-15 04:07:38.41	200.91	44.33	-35.5	-36.7	18.4	0.00e+00	0	58	0	336592896	41	4154
2026-01-15 04:07:40.43	200.87	43.73	-35.5	-36.7	18.4	0.00e+00	0	58	0	351272960	41	4159
2026-01-15 04:07:42.45	200.83	43.15	-35.6	-36.8	18.4	0.00e+00	0	58	0	365953024	41	4204
2026-01-15 04:07:44.47	200.80	42.57	-35.7	-36.9	18.3	0.00e+00	0	58	0	380633088	41	4249
2026-01-15 04:07:46.49	200.77	42.00	-35.8	-37.0	18.0	0.00e+00	0	58	0	394264576	41	4334
2026-01-15 04:07:48.51	200.74	41.44	-35.7	-36.8	18.3	0.00e+00	0	58	0	409993216	41	4233
2026-01-15 04:07:50.53	200.71	40.89	-35.6	-36.7	18.4	0.00e+00	0	58	0	423624704	41	4179
2026-01-15 04:07:52.55	200.68	40.35	-35.4	-36.6	18.6	0.00e+00	0	58	0	438304768	41	4102
2026-01-15 04:07:54.57	200.65	39.81	-35.3	-36.5	18.7	0.00e+00	0	58	0	452984832	41	4053
2026-01-15 04:07:56.59	200.62	39.28	-35.4	-36.5	18.5	0.00e+00	0	58	0	467664896	41	4075
2026-01-15 04:07:58.61	200.60	38.77	-35.5	-36.6	18.5	0.00e+00	0	58	0	482344960	41	4122
2026-01-15 04:08:00.63	200.57	38.25	-35.4	-36.6	18.5	0.00e+00	0	58	0	497025024	41	4101
2026-01-15 04:08:02.65	200.55	37.75	-35.3	-36.4	18.7	0.00e+00	0	58	0	511705088	41	4022
2026-01-15 04:08:04.67	200.53	37.25	-35.0	-36.1	18.8	0.00e+00	0	58	0	526385152	41	3909
2026-01-15 04:08:06.69	200.51	36.77	-34.9	-35.9	19.1	0.00e+00	0	58	0	540016640	40	4045
2026-01-15 04:08:08.71	200.49	36.28	-34.9	-36.0	19.1	0.00e+00	0	58	0	554696704	40	4080
2026-01-15 04:08:10.73	200.47	35.81	-35.0	-36.1	18.9	0.00e+00	0	58	0	569376768	40	4138
2026-01-15 04:08:12.75	200.45	35.34	-35.2	-36.3	18.8	0.00e+00	0	58	0	584056832	40	4219
2026-01-15 04:08:14.77	200.43	34.88	-35.3	-36.4	18.6	0.00e+00	0	58	0	598736896	40	4285
2026-01-15 04:08:16.79	200.41	34.43	-35.3	-36.4	18.6	0.00e+00	0	58	0	613416960	40	4283
2026-01-15 04:08:18.80	200.39	33.98	-35.2	-36.4	18.7	0.00e+00	0	58	0	628097024	40	4245
2026-01-15 04:08:20.82	200.38	33.54	-35.1	-36.2	18.9	0.00e+00	0	58	0	642777088	40	4160
2026-01-15 04:08:22.84	200.36	33.11	-35.0	-36.1	19.0	0.00e+00	0	58	0	657457152	40	4111
2026-01-15 04:08:24.86	200.34	32.68	-35.0	-36.1	19.0	0.00e+00	0	58	0	672137216	40	4109
2026-01-15 04:08:26.88	200.33	32.25	-35.1	-36.2	18.5	0.00e+00	0	58	0	686817280	40	4166
2026-01-15 04:08:28.90	200.31	31.84	-35.1	-36.3	18.8	0.00e+00	0	58	0	700448768	40	4197
2026-01-15 04:08:30.92	200.30	31.43	-35.2	-36.4	18.6	0.00e+00	0	58	0	715128832	40	4250
2026-01-15 04:08:32.94	200.29	31.02	-35.3	-36.5	18.4	0.00e+00	0	58	0	729808896	40	4317
2026-01-15 04:08:34.96	200.27	30.62	-35.3	-36.5	18.5	0.00e+00	0	58	0	744488960	40	4313
2026-01-15 04:08:36.98	200.26	30.23	-35.4	-36.5	18.5	0.00e+00	0	58	0	759169024	40	4322
2026-01-15 04:08:39.00	200.25	29.84	-35.3	-36.5	18.5	0.00e+00	0	58	0	773849088	40	4306
2026-01-15 04:08:41.02	200.24	29.45	-35.3	-36.5	18.6	0.00e+00	0	58	0	788529152	40	4293
2026-01-15 04:08:43.04	200.23	29.07	-35.2	-36.4	18.6	0.00e+00	0	58	0	803209216	40	4261
2026-01-15 04:08:45.05	200.22	28.70	-35.2	-36.4	18.6	0.00e+00	0	58	0	816840704	40	4259
2026-01-15 04:08:47.08	200.21	28.33	-35.3	-36.4	18.6	0.00e+00	0	58	0	832569344	40	4268
2026-01-15 04:08:49.10	200.20	27.97	-35.3	-36.4	18.5	0.00e+00	0	58	0	846200832	40	4287
2026-01-15 04:08:51.12	200.19	27.61	-35.4	-36.5	18.4	0.00e+00	0	58	0	860880896	40	4319
2026-01-15 04:08:53.14	200.18	27.25	-35.4	-36.6	18.4	0.00e+00	0	58	0	875560960	40	4362
2026-01-15 04:08:55.16	200.17	26.90	-35.5	-36.7	18.3	0.00e+00	0	58	0	890241024	40	4404
2026-01-15 04:08:57.18	200.16	26.56	-35.6	-36.7	18.2	0.00e+00	0	58	0	904921088	40	4432
2026-01-15 04:08:59.20	200.15	26.22	-35.6	-36.7	18.2	0.00e+00	0	58	0	919601152	40	4433
2026-01-15 04:09:01.21	200.14	25.88	-35.6	-36.7	18.2	0.00e+00	0	58	0	934281216	40	4438
2026-01-15 04:09:03.23	200.13	25.55	-35.6	-36.8	18.2	0.00e+00	0	58	0	948961280	40	4462
2026-01-15 04:09:05.25	200.13	25.22	-35.6	-36.8	18.1	0.00e+00	0	58	0	963641344	40	4478
2026-01-15 04:09:07.27	200.12	24.90	-35.6	-36.7	18.2	0.00e+00	0	58	0	978321408	40	4440
2026-01-15 04:09:09.29	200.11	24.58	-35.6	-36.8	18.2	0.00e+00	0	58	0	991952896	40	4455
2026-01-15 04:09:11.31	200.11	24.26	-35.6	-36.8	18.2	0.00e+00	0	58	0	1007681536	40	4446
2026-01-15 04:09:13.33	200.10	23.95	-35.6	-36.7	18.2	0.00e+00	0	58	0	1021313024	40	4435
2026-01-15 04:09:15.34	200.09	23.64	-35.6	-36.7	18.2	0.00e+00	0	58	0	1035993088	40	4437
2026-01-15 04:09:17.36	200.09	23.33	-35.6	-36.8	18.1	0.00e+00	0	58	0	1050673152	40	4443
2026-01-15 04:09:19.38	200.08	23.03	-35.6	-36.8	18.1	0.00e+00	0	58	0	1065353216	40	4460
2026-01-15 04:09:21.40	200.08	22.73	-35.6	-36.8	18.1	0.00e+00	0	58	0	1080033280	40	4465
2026-01-15 04:09:23.42	200.07	22.44	-35.7	-36.9	18.0	0.00e+00	0	58	0	1094713344	40	4500
2026-01-15 04:09:25.44	200.07	22.15	-35.7	-36.9	18.0	0.00e+00	0	58	0	1109393408	41	4277
2026-01-15 04:09:27.46	200.06	21.86	-35.7	-37.0	17.9	0.00e+00	0	58	0	1123024896	41	4295
2026-01-15 04:09:29.48	200.06	21.57	-35.8	-37.0	17.8	0.00e+00	0	58	0	1137704960	41	4336
2026-01-15 04:09:31.48	200.05	21.29	-35.8	-37.0	17.8	0.00e+00	0	58	0	1152385024	41	4325
2026-01-15 04:09:33.50	200.05	21.01	-35.8	-37.1	17.7	0.00e+00	0	58	0	1167065088	41	4351
2026-01-15 04:09:35.52	200.04	20.74	-35.9	-37.1	17.7	0.00e+00	0	58	0	1181745152	41	4390
2026-01-15 04:09:37.54	200.04	20.47	-35.9	-37.2	17.7	0.00e+00	0	58	0	1196425216	41	4396
2026-01-15 04:09:39.56	200.04	20.20	-36.0	-37.2	17.6	0.00e+00	0	58	0	1211105280	41	4424
2026-01-15 04:09:41.58	200.03	19.93	-36.0	-37.2	17.6	0.00e+00	0	58	0	1225785344	41	4429
2026-01-15 04:09:43.60	200.03	19.66	-36.0	-37.2	17.6	0.00e+00	0	58	0	1240465408	41	4424
2026-01-15 04:09:45.62	200.03	19.40	-36.1	-37.3	17.5	0.00e+00	0	58	0	1255145472	41	4472
2026-01-15 04:09:47.64	200.02	19.14	-36.1	-37.3	17.5	0.00e+00	0	58	0	1268776960	41	4493
2026-01-15 04:09:49.66	200.02	18.89	-36.1	-37.4	17.4	0.00e+00	0	58	0	1284505600	41	4523
2026-01-15 04:09:51.68	200.02	18.64	-36.1	-37.4	17.3	0.00e+00	0	58	0	1298137088	41	4526
2026-01-15 04:09:53.70	200.01	18.38	-36.2	-37.5	17.3	0.00e+00	0	58	0	1312817152	42	4329
2026-01-15 04:09:55.72	200.01	18.14	-36.3	-37.6	17.3	0.00e+00	0	58	0	1327497216	42	4341
2026-01-15 04:09:57.74	200.01	17.89	-36.3	-37.6	17.2	0.00e+00	0	59	0	1342177280	42	4364
2026-01-15 04:09:59.75	200.01	17.65	-36.4	-37.7	17.1	0.00e+00	0	58	0	1356857344	42	4398
2026-01-15 04:10:01.77	200.00	17.41	-36.4	-37.7	17.0	0.00e+00	0	58	0	1371537408	42	4422
2026-01-15 04:10:03.79	200.00	17.17	-36.4	-37.8	17.0	0.00e+00	0	58	0	1386217472	42	4453
2026-01-15 04:10:05.81	200.00	16.93	-36.5	-37.9	16.9	0.00e+00	0	58	0	1400897536	42	4499
2026-01-15 04:10:07.83	200.00	16.70	-36.6	-37.9	16.8	0.00e+00	0	58	0	1414529024	42	4529
2026-01-15 04:10:09.84	200.00	16.47	-36.7	-38.1	16.7	0.00e+00	0	58	0	1429209088	43	4352
2026-01-15 04:10:11.87	200.00	16.24	-36.8	-38.2	16.6	0.00e+00	0	58	0	1443889152	43	4394
2026-01-15 04:10:13.89	199.99	16.01	-36.9	-38.3	16.4	0.00e+00	0	58	0	1458569216	43	4455
2026-01-15 04:10:15.91	199.99	15.79	-37.0	-38.3	16.4	0.00e+00	0	58	0	1473249280	43	4493
2026-01-15 04:10:17.93	199.99	15.56	-36.9	-38.3	16.5	0.00e+00	0	58	0	1487929344	43	4446
2026-01-15 04:10:19.95	199.99	15.34	-37.0	-38.4	16.2	0.00e+00	0	58	0	1502609408	43	4533
2026-01-15 04:10:21.97	199.99	15.12	-37.2	-38.7	16.0	0.00e+00	0	58	0	1517289472	43	4669
2026-01-15 04:10:23.99	199.99	14.90	-37.3	-38.8	16.0	0.00e+00	0	58	0	1531969536	44	4456
2026-01-15 04:10:26.00	199.99	14.69	-37.5	-38.9	15.9	0.00e+00	0	58	0	1546649600	44	4536
2026-01-15 04:10:28.02	199.99	14.48	-37.5	-39.0	15.8	0.00e+00	0	58	0	1561329664	44	4597
2026-01-15 04:10:30.04	199.99	14.27	-37.5	-39.0	15.9	0.00e+00	0	59	0	1574961152	44	4546
2026-01-15 04:10:32.06	199.98	14.06	-37.5	-39.0	15.7	0.00e+00	0	59	0	1589641216	44	4583
2026-01-15 04:10:34.07	199.98	13.85	-37.5	-39.0	15.8	0.00e+00	0	58	0	1604321280	44	4580
2026-01-15 04:10:36.09	199.98	13.64	-37.6	-39.1	15.7	0.00e+00	0	58	0	1619001344	44	4626
2026-01-15 04:10:38.11	199.98	13.44	-37.6	-39.2	15.6	0.00e+00	0	58	0	1633681408	44	4652
2026-01-15 04:10:40.13	199.98	13.24	-37.7	-39.2	15.5	0.00e+00	0	58	0	1648361472	44	4698
2026-01-15 04:10:42.16	199.98	13.03	-37.8	-39.3	15.4	0.00e+00	0	58	0	1663041536	45	4475
2026-01-15 04:10:44.17	199.98	12.84	-37.8	-39.3	15.4	0.00e+00	0	58	0	1677721600	45	4476
2026-01-15 04:10:46.19	199.98	12.64	-37.9	-39.5	15.2	0.00e+00	0	58	0	1691353088	45	4554
2026-01-15 04:10:48.21	199.98	12.44	-37.9	-39.5	15.2	0.00e+00	0	58	0	1707081728	45	4567
2026-01-15 04:10:50.24	199.98	12.25	-38.0	-39.6	15.0	0.00e+00	0	58	0	1720713216	45	4648
2026-01-15 04:10:52.26	199.98	12.05	-38.0	-39.6	15.1	0.00e+00	0	58	0	1735393280	45	4622
2026-01-15 04:10:54.27	199.98	11.86	-38.1	-39.7	14.9	1.10e-06	0	58	0	1750073344	45	4694
2026-01-15 04:10:56.29	199.98	11.67	-37.9	-39.5	15.1	0.00e+00	0	58	0	1764753408	45	4584
2026-01-15 04:10:58.31	199.98	11.48	-38.0	-39.6	15.0	0.00e+00	0	59	0	1779433472	45	4619
2026-01-15 04:11:00.33	199.98	11.30	-37.9	-39.5	15.1	0.00e+00	0	59	0	1794113536	45	4598
2026-01-15 04:11:02.35	199.99	11.11	-38.1	-39.7	14.8	0.00e+00	0	58	0	1808793600	45	4697
2026-01-15 04:11:04.37	199.99	10.93	-38.2	-39.9	14.7	0.00e+00	0	58	0	1823473664	45	4760
2026-01-15 04:11:06.39	199.99	10.74	-38.3	-40.1	14.5	2.20e-06	0	59	0	1838153728	46	4599
2026-01-15 04:11:08.40	199.99	10.56	-38.2	-39.9	14.6	1.10e-06	0	58	0	1852833792	46	4540
2026-01-15 04:11:10.42	199.99	10.38	-38.2	-39.9	14.6	0.00e+00	0	58	0	1866465280	46	4537
2026-01-15 04:11:12.44	199.99	10.20	-38.1	-39.8	14.8	2.20e-06	0	58	0	1881145344	46	4458
2026-01-15 04:11:14.46	199.99	10.03	-38.2	-39.9	14.6	0.00e+00	0	58	0	1895825408	46	4519
2026-01-15 04:11:16.48	199.99	9.85	-38.1	-39.8	14.7	0.00e+00	0	58	0	1910505472	46	4449
2026-01-15 04:11:18.51	199.99	9.67	-38.1	-39.8	14.6	0.00e+00	0	58	0	1925185536	46	4489
2026-01-15 04:11:20.53	199.99	9.50	-38.3	-40.1	14.4	1.10e-06	0	58	0	1939865600	46	4599
2026-01-15 04:11:22.54	199.99	9.33	-38.3	-40.1	14.3	3.40e-06	0	59	0	1954545664	46	4642
2026-01-15 04:11:24.56	199.99	9.16	-38.2	-40.0	14.4	0.00e+00	0	58	0	1969225728	46	4557
2026-01-15 04:11:26.58	200.00	8.99	-38.3	-40.1	14.3	1.10e-06	0	59	0	1983905792	46	4622
2026-01-15 04:11:28.59	200.00	8.82	-38.4	-40.2	14.1	3.40e-06	0	58	0	1997537280	46	4667
2026-01-15 04:11:30.61	200.00	8.65	-38.3	-40.1	14.2	3.40e-06	0	58	0	2012217344	46	4625
2026-01-15 04:11:32.63	200.00	8.48	-38.3	-40.2	14.1	1.10e-06	0	58	0	2026897408	46	4666
2026-01-15 04:11:34.64	200.00	8.32	-38.4	-40.2	14.0	1.10e-06	0	58	0	2041577472	46	4703
2026-01-15 04:11:36.66	200.00	8.15	-38.6	-40.5	13.7	4.50e-06	0	59	0	2056257536	46	4842
2026-01-15 04:11:38.67	200.00	7.99	-42.9	-47.9	6.6	8.00e-06	0	58	0	2070937600	55	6778
2026-01-15 04:11:40.69	200.01	7.83	-45.2	-56.6	3.8	8.46e-01	0	59	104	2071986176	60	13751
2026-01-15 04:11:42.71	200.01	7.67	-45.5	-56.8	3.8	8.47e-01	0	59	104	2071986176	60	14192
2026-01-15 04:11:44.73	200.01	7.51	-45.6	-57.0	3.8	8.45e-01	0	59	104	2071986176	60	14483
2026-01-15 04:11:46.75	200.01	7.35	-45.7	-57.1	3.8	8.46e-01	0	59	104	2071986176	60	14561
2026-01-15 04:11:48.77	200.01	7.19	-45.7	-57.0	3.8	8.46e-01	0	59	104	2071986176	60	14520
2026-01-15 04:11:50.78	200.01	7.03	-45.6	-57.0	3.8	8.46e-01	0	59	104	2071986176	60	14425
2026-01-15 04:11:52.80	200.02	6.88	-45.6	-57.0	3.8	8.46e-01	0	59	104	2071986176	60	14436
2026-01-15 04:11:54.82	200.02	6.72	-45.6	-57.0	3.8	8.47e-01	0	59	104	2071986176	60	14386
2026-01-15 04:11:56.84	200.02	6.57	-45.6	-56.9	3.8	8.47e-01	0	58	104	2071986176	60	14356
2026-01-15 04:11:58.86	200.02	6.41	-45.6	-57.0	3.8	8.47e-01	0	58	104	2071986176	60	14382
2026-01-15 04:12:00.88	200.02	6.26	-45.6	-56.9	3.8	8.46e-01	0	58	104	2071986176	60	14310
2026-01-15 04:12:02.89	200.02	6.11	-45.6	-56.9	3.8	8.46e-01	0	58	104	2071986176	60	14331
2026-01-15 04:12:04.92	200.03	5.96	-45.6	-56.9	3.8	8.46e-01	0	59	104	2071986176	60	14347
2026-01-15 04:12:06.94	200.03	5.81	-45.6	-56.9	3.8	8.47e-01	0	58	104	2071986176	60	14254
2026-01-15 04:12:08.96	200.03	5.66	-45.6	-56.9	3.8	8.45e-01	0	59	104	2071986176	60	14220
2026-01-15 04:12:10.98	200.03	5.51	-45.6	-56.9	3.8	8.46e-01	0	59	104	2071986176	60	14299
2026-01-15 04:12:13.00	200.03	5.36	-45.5	-56.9	3.8	8.47e-01	0	59	104	2071986176	60	14250
2026-01-15 04:12:15.02	200.04	5.21	-45.6	-56.9	3.8	8.45e-01	0	58	104	2071986176	60	14267
2026-01-15 04:12:17.04	200.04	5.07	-45.5	-56.9	3.8	8.46e-01	0	59	104	2071986176	60	14282
2026-01-15 04:12:19.06	200.04	4.92	-45.5	-56.9	3.8	8.46e-01	0	59	104	2071986176	60	14244
2026-01-15 04:12:21.08	200.04	4.78	-45.5	-56.9	3.8	8.45e-01	0	59	104	2071986176	60	14288
2026-01-15 04:12:23.10	200.04	4.63	-45.5	-56.9	3.8	8.47e-01	0	59	104	2071986176	60	14308
2026-01-15 04:12:25.12	200.05	4.49	-45.5	-56.9	3.8	8.46e-01	0	59	104	2071986176	60	14259
2026-01-15 04:12:27.14	200.05	4.35	-45.5	-56.9	3.8	8.46e-01	0	59	104	2071986176	60	14277
2026-01-15 04:12:29.16	200.05	4.21	-45.5	-56.9	3.8	8.46e-01	0	59	104	2071986176	60	14225
2026-01-15 04:12:31.18	200.05	4.07	-45.5	-56.9	3.8	8.44e-01	0	59	104	2071986176	60	14268
2026-01-15 04:12:33.19	200.06	3.93	-45.5	-56.8	3.8	8.47e-01	0	58	104	2071986176	60	14197
2026-01-15 04:12:35.21	200.06	3.79	-45.5	-56.9	3.8	8.46e-01	0	58	104	2071986176	60	14228
2026-01-15 04:12:37.23	200.06	3.65	-45.5	-56.9	3.8	8.46e-01	0	58	104	2071986176	60	14253
2026-01-15 04:12:39.25	200.06	3.51	-45.5	-56.9	3.8	8.46e-01	0	59	104	2071986176	60	14247
2026-01-15 04:12:41.27	200.07	3.38	-45.5	-56.9	3.8	8.46e-01	0	59	104	2071986176	60	14234
2026-01-15 04:12:43.28	200.07	3.24	-45.5	-56.8	3.8	8.47e-01	0	59	104	2071986176	60	14174
2026-01-15 04:12:45.30	200.07	3.11	-45.5	-56.9	3.8	8.46e-01	0	58	104	2071986176	60	14215
2026-01-15 04:12:47.32	200.07	2.97	-45.5	-56.9	3.8	8.46e-01	0	59	104	2071986176	60	14282
2026-01-15 04:12:49.34	200.08	2.84	-45.5	-56.9	3.8	8.46e-01	0	59	104	2071986176	60	14227
2026-01-15 04:12:51.36	200.08	2.70	-45.5	-56.9	3.8	8.45e-01	0	58	104	2071986176	60	14250
2026-01-15 04:12:53.38	200.08	2.57	-45.5	-56.9	3.8	8.46e-01	0	59	104	2071986176	60	14261
2026-01-15 04:12:55.40	200.08	2.44	-45.5	-56.9	3.8	8.45e-01	0	59	104	2071986176	60	14228
2026-01-15 04:12:57.42	200.09	2.30	-45.5	-56.9	3.8	8.46e-01	0	59	104	2071986176	60	14244
2026-01-15 04:12:59.43	200.09	2.17	-45.5	-56.9	3.8	8.47e-01	0	59	104	2071986176	60	14236
2026-01-15 04:13:01.45	200.09	2.04	-45.5	-56.9	3.8	8.46e-01	0	58	104	2071986176	60	14229

#Closed at: 2026-01-15 04:13:02
#Recorded file [2071 MB]: D:/lorett/data/31039_260115_070603.dat