passes_logs/2026/01/15/R2.0S_Moscow/R2.0S_Moscow__20260115_115700_AQUA_rec.log

#Pass ID: 20260115_115700_AQUA
#Satellite: AQUA
#Configuration: AQUA
#almurnet v.1.7.20251203
#Start time: 2026-01-15 11:57:02

#Version: 2.2.20231116
#Station: R2.0S_Moscow
#Location: 37.707566 lon 55.798166 lat
#TLE: 1 27424U 02022A   26014.19338718  .00000717  00000+0  15340-3 0  9998
#TLE: 2 27424  98.4080 340.6072 0002047  79.4950 292.1093 14.61819636260772

#Time	Az	El	Level	Level2	SNR	BER	BlckErr	Temp	State	Recorded	gain1	gain2
2026-01-15 11:57:02.15	170.13	2.11	-44.3	-62.9	3.8	7.48e-01	0	51	0	0	60	30161
2026-01-15 11:57:06.17	170.20	2.38	-44.6	-63.2	3.8	7.45e-01	0	52	104	0	59	33247
2026-01-15 11:57:10.22	170.27	2.65	-44.6	-63.3	3.8	7.42e-01	0	52	104	0	59	33314
2026-01-15 11:57:14.26	170.35	2.93	-44.6	-63.3	3.8	7.46e-01	0	52	104	0	59	33381
2026-01-15 11:57:18.30	170.42	3.21	-44.6	-63.3	3.8	7.44e-01	0	53	104	0	59	33316
2026-01-15 11:57:22.34	170.50	3.49	-44.6	-63.3	3.8	7.42e-01	0	53	104	0	59	33323
2026-01-15 11:57:26.38	170.58	3.77	-44.6	-63.2	3.8	7.47e-01	0	53	104	0	59	33203
2026-01-15 11:57:30.42	170.66	4.06	-44.6	-63.0	3.8	7.44e-01	0	53	104	0	59	32199
2026-01-15 11:57:34.46	170.75	4.36	-44.6	-62.6	3.8	7.48e-01	0	53	104	0	59	30813
2026-01-15 11:57:38.50	170.83	4.65	-44.5	-60.3	3.8	7.41e-01	0	54	104	0	59	23715
2026-01-15 11:57:42.54	170.92	4.95	-44.4	-57.6	5.1	7.08e-01	0	54	0	0	59	17327
2026-01-15 11:57:46.57	171.00	5.25	-44.3	-55.8	6.2	6.78e-01	90	54	0	2621440	59	14180
2026-01-15 11:57:50.61	171.09	5.56	-44.2	-54.9	7.0	6.63e-01	92	55	0	10485760	59	12722
2026-01-15 11:57:54.65	171.18	5.87	-44.1	-54.4	7.5	6.54e-01	90	55	0	17825792	59	12072
2026-01-15 11:57:58.69	171.28	6.19	-44.2	-54.8	7.2	6.63e-01	92	55	0	25165824	59	12632
2026-01-15 11:58:02.72	171.37	6.51	-44.3	-55.9	6.2	6.76e-01	93	55	0	33030144	59	14262
2026-01-15 11:58:06.76	171.47	6.83	-44.2	-55.3	6.7	6.70e-01	92	55	0	39845888	59	13331
2026-01-15 11:58:10.79	171.57	7.16	-43.6	-51.4	10.6	6.20e-01	0	56	0	47185920	59	8546
2026-01-15 11:58:14.83	171.67	7.49	-42.8	-48.3	13.8	6.07e-01	0	56	0	54525952	57	6708
2026-01-15 11:58:18.87	171.77	7.83	-42.2	-46.9	15.3	6.08e-01	0	56	0	62390272	56	6049
2026-01-15 11:58:22.90	171.88	8.17	-44.2	-52.4	10.1	6.27e-01	0	56	0	69730304	58	10136
2026-01-15 11:58:26.94	171.98	8.52	-42.4	-47.0	15.6	6.07e-01	0	56	0	76546048	56	6066
2026-01-15 11:58:30.97	172.10	8.88	-42.3	-46.5	16.2	6.08e-01	0	56	0	83886080	56	5765
2026-01-15 11:58:35.00	172.21	9.24	-42.3	-46.5	16.3	6.06e-01	0	56	0	91750400	56	5749
2026-01-15 11:58:39.04	172.33	9.60	-42.3	-46.4	16.5	6.08e-01	0	56	0	99090432	56	5698
2026-01-15 11:58:43.08	172.44	9.97	-42.2	-46.2	16.8	6.06e-01	0	57	0	106954752	56	5546
2026-01-15 11:58:47.12	172.57	10.35	-42.2	-46.1	16.9	6.05e-01	0	57	0	114294784	56	5496
2026-01-15 11:58:51.16	172.69	10.74	-42.2	-45.9	17.2	6.09e-01	0	57	0	122159104	56	5377
2026-01-15 11:58:55.19	172.82	11.13	-42.1	-45.7	17.4	6.08e-01	0	57	0	129499136	56	5252
2026-01-15 11:58:59.23	172.95	11.52	-42.0	-45.5	17.6	6.06e-01	0	57	0	136839168	56	5159
2026-01-15 11:59:03.26	173.09	11.93	-42.1	-45.6	17.6	6.07e-01	0	57	0	144703488	56	5211
2026-01-15 11:59:07.30	173.23	12.34	-42.1	-45.6	17.6	6.03e-01	0	57	0	152043520	56	5207
2026-01-15 11:59:11.34	173.37	12.76	-42.1	-45.7	17.6	6.04e-01	0	57	0	159907840	56	5250
2026-01-15 11:59:15.38	173.52	13.19	-42.1	-45.5	17.8	6.09e-01	0	57	0	167247872	56	5137
2026-01-15 11:59:19.42	173.67	13.63	-42.0	-45.4	18.0	6.06e-01	0	57	0	175112192	56	5056
2026-01-15 11:59:23.45	173.83	14.07	-41.8	-45.2	18.1	6.06e-01	0	58	0	182452224	55	5228
2026-01-15 11:59:27.49	173.99	14.53	-41.8	-45.2	18.2	6.05e-01	0	58	0	189792256	55	5224
2026-01-15 11:59:31.53	174.15	14.99	-41.9	-45.2	18.2	6.08e-01	0	58	0	197656576	55	5254
2026-01-15 11:59:35.57	174.33	15.47	-41.9	-45.2	18.2	6.07e-01	0	58	0	204996608	55	5261
2026-01-15 11:59:39.61	174.50	15.95	-41.9	-45.2	18.2	6.09e-01	0	58	0	212860928	55	5248
2026-01-15 11:59:43.65	174.69	16.45	-41.8	-45.1	18.3	6.07e-01	0	58	0	220200960	55	5185
2026-01-15 11:59:47.68	174.87	16.95	-41.8	-45.0	18.5	6.08e-01	0	58	0	228065280	55	5119
2026-01-15 11:59:51.72	175.07	17.47	-41.8	-45.1	18.4	6.07e-01	0	58	0	235405312	55	5163
2026-01-15 11:59:55.75	175.27	18.00	-41.8	-45.0	18.5	6.06e-01	0	58	0	243269632	55	5129
2026-01-15 11:59:59.79	175.48	18.54	-41.8	-45.0	18.5	6.06e-01	0	58	0	250609664	55	5152
2026-01-15 12:00:03.82	175.70	19.09	-41.9	-45.1	18.5	6.07e-01	0	58	0	257949696	55	5166
2026-01-15 12:00:07.87	175.92	19.67	-41.9	-45.2	18.4	6.06e-01	0	58	0	265814016	55	5231
2026-01-15 12:00:11.90	176.15	20.25	-42.0	-45.2	18.3	6.06e-01	0	59	0	273154048	55	5268
2026-01-15 12:00:15.94	176.40	20.85	-41.9	-45.1	18.5	6.07e-01	0	58	0	281018368	55	5209
2026-01-15 12:00:19.98	176.65	21.46	-42.0	-45.2	18.4	6.08e-01	0	58	0	288358400	55	5277
2026-01-15 12:00:24.02	176.91	22.09	-42.1	-45.4	18.2	6.05e-01	0	59	0	296222720	55	5369
2026-01-15 12:00:28.05	177.19	22.73	-42.1	-45.4	18.3	6.06e-01	0	58	0	303562752	55	5355
2026-01-15 12:00:32.09	177.47	23.40	-42.2	-45.5	18.2	6.10e-01	0	59	0	310902784	55	5443
2026-01-15 12:00:36.13	177.77	24.08	-42.2	-45.5	18.1	6.04e-01	0	59	0	318767104	55	5452
2026-01-15 12:00:40.17	178.08	24.78	-42.3	-45.6	18.0	6.07e-01	0	59	0	326107136	55	5521
2026-01-15 12:00:44.21	178.41	25.51	-42.2	-45.6	18.1	6.07e-01	0	59	0	333971456	55	5475
2026-01-15 12:00:48.25	178.75	26.25	-42.1	-45.4	18.3	6.06e-01	0	59	0	341311488	55	5363
2026-01-15 12:00:52.28	179.10	27.01	-42.1	-45.3	18.5	6.04e-01	0	59	0	349175808	55	5280
2026-01-15 12:00:56.32	179.48	27.80	-42.0	-45.2	18.5	6.07e-01	0	59	0	356515840	55	5269
2026-01-15 12:01:00.36	179.87	28.61	-41.9	-44.9	18.8	6.06e-01	0	59	0	364380160	55	5093
2026-01-15 12:01:04.40	180.29	29.45	-41.8	-44.9	19.0	6.08e-01	0	59	0	371720192	55	5042
2026-01-15 12:01:08.44	180.72	30.31	-41.8	-44.8	19.0	6.07e-01	0	59	0	379060224	55	5036
2026-01-15 12:01:12.48	181.19	31.20	-41.9	-45.0	18.8	6.06e-01	0	59	0	386924544	55	5145
2026-01-15 12:01:16.52	181.67	32.11	-42.1	-45.3	18.5	6.07e-01	0	59	0	394264576	55	5318
2026-01-15 12:01:20.56	182.19	33.06	-42.2	-45.4	18.5	6.05e-01	0	59	0	402128896	55	5341
2026-01-15 12:01:24.59	182.74	34.03	-42.6	-46.2	17.7	6.05e-01	0	59	0	409468928	55	5865
2026-01-15 12:01:28.63	183.32	35.03	-42.7	-46.3	17.6	6.07e-01	0	59	0	417333248	55	5927
2026-01-15 12:01:32.67	183.94	36.07	-43.1	-46.9	17.1	6.07e-01	0	59	0	424673280	56	5999
2026-01-15 12:01:36.71	184.60	37.14	-43.6	-47.9	16.1	6.06e-01	0	60	0	432537600	57	6350
2026-01-15 12:01:40.75	185.31	38.24	-43.5	-47.7	16.3	6.07e-01	0	59	0	439877632	57	6247
2026-01-15 12:01:44.78	186.06	39.38	-43.4	-47.5	16.4	6.07e-01	0	59	0	447217664	57	6114
2026-01-15 12:01:48.82	186.88	40.55	-43.1	-46.9	17.1	6.09e-01	0	59	0	455081984	57	5703
2026-01-15 12:01:52.86	187.75	41.76	-42.7	-46.2	17.8	6.07e-01	0	59	0	462422016	57	5246
2026-01-15 12:01:56.90	188.69	43.00	-42.4	-45.7	18.4	6.07e-01	0	60	0	470286336	56	5235
2026-01-15 12:02:00.93	189.71	44.27	-42.2	-45.4	18.7	6.06e-01	0	59	0	477626368	56	5053
2026-01-15 12:02:04.98	190.82	45.59	-41.9	-44.9	19.1	6.08e-01	0	60	0	485490688	55	5053
2026-01-15 12:02:09.01	192.02	46.93	-41.9	-44.9	19.1	6.04e-01	0	60	0	492830720	55	5051
2026-01-15 12:02:13.05	193.33	48.31	-42.0	-44.9	19.0	6.05e-01	0	60	0	500695040	55	5095
2026-01-15 12:02:17.09	194.77	49.72	-41.8	-44.7	19.3	6.06e-01	0	59	0	508035072	55	4965
2026-01-15 12:02:21.13	196.35	51.15	-41.9	-44.8	19.2	6.08e-01	0	59	0	515375104	55	5030
2026-01-15 12:02:25.16	198.08	52.60	-41.7	-44.5	19.4	6.05e-01	0	60	0	523239424	54	5158
2026-01-15 12:02:29.20	199.99	54.07	-41.9	-44.9	19.2	6.08e-01	0	59	0	530579456	54	5354
2026-01-15 12:02:33.23	202.11	55.55	-41.9	-44.9	19.1	6.08e-01	0	60	0	538443776	54	5382
2026-01-15 12:02:37.27	204.47	57.02	-42.5	-45.8	18.3	6.07e-01	0	60	0	545783808	55	5608
2026-01-15 12:02:41.31	207.10	58.49	-43.1	-47.0	17.1	6.06e-01	0	60	0	553648128	56	6080
2026-01-15 12:02:45.34	210.02	59.93	-43.5	-47.7	16.3	6.08e-01	0	60	0	560988160	57	6239
2026-01-15 12:02:49.38	213.29	61.34	-44.0	-48.6	15.5	6.04e-01	0	60	0	568328192	58	6539
2026-01-15 12:02:53.42	216.95	62.68	-43.9	-48.4	15.6	6.07e-01	0	60	0	576192512	58	6402
2026-01-15 12:02:57.46	221.02	63.94	-44.4	-49.8	14.2	6.07e-01	0	60	0	583532544	59	7113
2026-01-15 12:03:01.49	225.52	65.09	-44.7	-50.5	13.5	6.10e-01	0	60	0	591396864	59	7701
2026-01-15 12:03:05.53	230.50	66.11	-44.5	-50.0	14.0	6.07e-01	0	60	0	598736896	59	7260
2026-01-15 12:03:09.57	235.92	66.96	-44.4	-49.6	14.4	6.06e-01	0	60	0	606601216	59	6906
2026-01-15 12:03:13.61	241.75	67.62	-44.5	-50.1	13.9	6.11e-01	0	60	0	613941248	59	7289
2026-01-15 12:03:17.65	247.89	68.05	-44.3	-49.5	14.2	6.10e-01	0	60	0	621281280	58	7254
2026-01-15 12:03:21.67	254.19	68.25	-44.1	-49.0	14.4	6.08e-01	0	60	0	629145600	58	6851
2026-01-15 12:03:25.71	260.58	68.21	-44.4	-49.8	14.2	6.10e-01	0	60	0	636485632	59	7057
2026-01-15 12:03:29.75	266.86	67.92	-44.2	-49.2	14.8	6.07e-01	0	60	0	644349952	59	6596
2026-01-15 12:03:33.78	272.88	67.40	-44.0	-48.8	15.3	6.08e-01	0	60	0	651689984	59	6285
2026-01-15 12:03:37.82	278.55	66.67	-43.9	-48.6	15.5	6.07e-01	0	60	0	659554304	58	6550
2026-01-15 12:03:41.86	283.81	65.75	-43.7	-48.0	16.1	6.07e-01	0	60	0	666894336	58	6084
2026-01-15 12:03:45.90	288.61	64.69	-44.0	-48.6	15.5	6.06e-01	0	60	0	674234368	58	6523
2026-01-15 12:03:49.93	292.94	63.49	-43.5	-47.6	16.6	6.05e-01	0	60	0	682098688	58	5797
2026-01-15 12:03:53.97	296.85	62.20	-43.2	-47.0	17.1	6.08e-01	0	60	0	689438720	58	5451
2026-01-15 12:03:58.00	300.35	60.84	-43.2	-47.2	17.0	6.05e-01	0	60	0	697303040	58	5536
2026-01-15 12:04:02.04	303.48	59.43	-42.9	-47.3	16.8	6.07e-01	0	60	0	704643072	57	5938
2026-01-15 12:04:06.08	306.29	57.98	-42.3	-46.4	17.8	6.10e-01	0	60	0	712507392	56	5659
2026-01-15 12:04:10.11	308.81	56.51	-41.8	-45.8	18.3	6.07e-01	0	60	0	719847424	54	5959
2026-01-15 12:04:14.15	311.07	55.04	-42.0	-45.3	18.8	6.04e-01	0	60	0	727711744	54	5605
2026-01-15 12:04:18.19	313.12	53.56	-42.1	-45.2	19.0	6.06e-01	0	60	0	735051776	55	5219
2026-01-15 12:04:22.23	314.96	52.10	-42.3	-45.6	18.5	6.07e-01	0	60	0	742391808	55	5481
2026-01-15 12:04:26.27	316.63	50.66	-42.6	-45.9	18.2	6.07e-01	0	60	0	750256128	55	5709
2026-01-15 12:04:30.30	318.15	49.25	-42.8	-46.3	17.9	6.08e-01	0	60	0	757596160	56	5626
2026-01-15 12:04:34.33	319.54	47.86	-42.9	-46.5	17.7	6.05e-01	0	60	0	765460480	56	5739
2026-01-15 12:04:38.37	320.81	46.50	-42.7	-46.0	18.2	6.04e-01	0	60	0	772800512	56	5451
2026-01-15 12:04:42.40	321.97	45.18	-42.5	-45.8	18.4	6.06e-01	0	60	0	780664832	56	5291
2026-01-15 12:04:46.43	323.04	43.89	-42.7	-46.1	18.1	6.06e-01	0	60	0	788004864	56	5467
2026-01-15 12:04:50.46	324.03	42.63	-42.8	-46.4	17.8	6.07e-01	0	60	0	795869184	56	5662
2026-01-15 12:04:54.50	324.95	41.41	-42.8	-46.3	17.9	6.07e-01	0	60	0	803209216	56	5597
2026-01-15 12:04:58.53	325.80	40.22	-43.0	-46.6	17.6	6.08e-01	0	60	0	810549248	56	5818
2026-01-15 12:05:02.57	326.59	39.06	-43.2	-47.0	17.1	6.07e-01	0	60	0	818413568	56	6109
2026-01-15 12:05:06.60	327.33	37.95	-42.8	-46.3	17.8	6.08e-01	0	60	0	825753600	56	5646
2026-01-15 12:05:10.64	328.02	36.86	-42.7	-46.1	18.0	6.05e-01	0	60	0	833617920	56	5495
2026-01-15 12:05:14.67	328.66	35.81	-42.6	-45.9	18.2	6.06e-01	0	60	0	840957952	56	5392
2026-01-15 12:05:18.71	329.27	34.79	-42.3	-45.5	18.6	6.04e-01	0	60	0	848822272	56	5119
2026-01-15 12:05:22.74	329.84	33.80	-42.2	-45.3	18.8	6.06e-01	0	60	0	856162304	56	5018
2026-01-15 12:05:26.78	330.38	32.84	-41.9	-44.9	19.1	6.07e-01	0	60	0	863502336	55	5055
2026-01-15 12:05:30.81	330.88	31.91	-41.8	-44.7	19.3	6.05e-01	0	60	0	871366656	55	4949
2026-01-15 12:05:34.85	331.36	31.01	-41.5	-44.4	19.6	6.08e-01	0	60	0	878706688	55	4783
2026-01-15 12:05:38.89	331.82	30.14	-41.7	-44.5	19.5	6.07e-01	0	60	0	886571008	55	4864
2026-01-15 12:05:42.93	332.25	29.29	-41.8	-45.0	18.9	6.07e-01	0	60	0	893911040	55	5126
2026-01-15 12:05:46.96	332.65	28.47	-41.7	-45.1	18.7	6.08e-01	0	60	0	901775360	55	5214
2026-01-15 12:05:50.99	333.04	27.67	-42.0	-45.3	18.6	6.07e-01	0	60	0	909115392	55	5280
2026-01-15 12:05:55.02	333.41	26.89	-42.3	-45.7	18.2	6.06e-01	0	60	0	916455424	55	5529
2026-01-15 12:05:59.05	333.76	26.14	-42.2	-45.5	18.3	6.06e-01	0	60	0	924319744	55	5434
2026-01-15 12:06:03.09	334.10	25.41	-42.4	-45.9	17.9	6.07e-01	0	60	0	931659776	55	5692
2026-01-15 12:06:07.12	334.42	24.70	-42.5	-46.0	17.7	6.06e-01	0	60	0	939524096	55	5776
2026-01-15 12:06:11.15	334.73	24.01	-42.4	-46.0	17.7	6.08e-01	0	60	0	946864128	55	5779
2026-01-15 12:06:15.19	335.03	23.33	-42.3	-45.9	17.8	6.08e-01	0	60	0	954204160	55	5670
2026-01-15 12:06:19.23	335.31	22.68	-42.3	-45.8	17.8	6.08e-01	0	60	0	962068480	55	5647
2026-01-15 12:06:23.27	335.58	22.04	-42.2	-45.7	17.9	6.05e-01	0	60	0	969408512	55	5531
2026-01-15 12:06:27.31	335.84	21.42	-42.0	-45.5	17.9	6.07e-01	0	60	0	977272832	55	5432
2026-01-15 12:06:31.34	336.09	20.81	-42.1	-45.7	17.7	6.09e-01	0	60	0	984612864	55	5568
2026-01-15 12:06:35.37	336.34	20.22	-41.8	-45.4	17.8	6.07e-01	0	60	0	992477184	55	5349
2026-01-15 12:06:39.41	336.57	19.64	-41.8	-45.3	17.9	6.06e-01	0	60	0	999817216	55	5283
2026-01-15 12:06:43.44	336.79	19.08	-42.0	-45.8	17.2	6.06e-01	0	60	0	1007157248	55	5655
2026-01-15 12:06:47.47	337.01	18.53	-41.8	-45.5	17.5	6.07e-01	0	60	0	1015021568	55	5422
2026-01-15 12:06:51.51	337.22	18.00	-41.4	-45.0	17.9	6.06e-01	0	60	0	1022361600	54	5411
2026-01-15 12:06:55.55	337.42	17.47	-41.7	-45.6	17.1	6.08e-01	0	60	0	1030225920	54	5808
2026-01-15 12:06:59.59	337.62	16.96	-41.7	-45.8	16.7	6.01e-01	0	60	0	1037565952	54	5966
2026-01-15 12:07:03.63	337.81	16.46	-41.4	-45.2	17.2	6.03e-01	0	60	0	1045430272	54	5586
2026-01-15 12:07:07.66	337.99	15.97	-41.0	-44.8	17.6	6.05e-01	0	60	0	1052770304	54	5291
2026-01-15 12:07:11.70	338.17	15.49	-40.9	-44.7	17.4	6.05e-01	0	61	0	1060110336	53	5567
2026-01-15 12:07:15.74	338.34	15.02	-40.8	-45.0	17.0	6.04e-01	0	60	0	1067974656	53	5749
2026-01-15 12:07:19.77	338.51	14.56	-40.7	-44.8	17.1	6.05e-01	0	60	0	1075314688	53	5608
2026-01-15 12:07:23.81	338.67	14.11	-41.0	-45.5	16.3	6.04e-01	0	60	0	1083179008	53	6075
2026-01-15 12:07:27.85	338.83	13.67	-41.4	-46.5	15.1	6.05e-01	0	60	0	1090519040	53	6848
2026-01-15 12:07:31.88	338.98	13.24	-41.6	-47.7	13.7	6.05e-01	0	60	0	1098383360	53	7818
2026-01-15 12:07:35.92	339.13	12.82	-41.8	-48.9	12.3	6.08e-01	0	60	0	1105723392	54	8479
2026-01-15 12:07:39.96	339.28	12.40	-42.0	-50.3	10.5	6.17e-01	0	61	0	1113587712	54	10059
2026-01-15 12:07:44.00	339.42	11.99	-42.2	-52.1	8.6	6.38e-01	4	60	0	1120927744	55	11658
2026-01-15 12:07:48.03	339.55	11.59	-42.3	-53.8	6.7	6.70e-01	92	61	0	1128267776	55	14112
2026-01-15 12:07:52.07	339.69	11.19	-42.3	-55.5	5.3	7.01e-01	5	60	0	1134034944	55	17180
2026-01-15 12:07:56.11	339.82	10.81	-42.2	-57.1	4.3	7.25e-01	0	61	104	1134034944	55	20703
2026-01-15 12:08:00.15	339.95	10.42	-41.8	-61.0	3.8	7.43e-01	0	60	104	1134034944	55	32348
2026-01-15 12:08:04.19	340.07	10.05	-42.4	-58.9	4.0	7.37e-01	0	61	104	1134034944	55	25506
2026-01-15 12:08:08.23	340.20	9.68	-41.8	-60.8	3.8	7.45e-01	0	61	104	1134034944	55	31725
2026-01-15 12:08:12.27	340.31	9.32	-42.4	-59.3	3.9	7.40e-01	0	61	104	1134034944	55	26693
2026-01-15 12:08:16.31	340.43	8.96	-41.6	-60.7	3.8	7.46e-01	0	61	104	1134034944	55	31186
2026-01-15 12:08:20.35	340.55	8.61	-41.7	-60.9	3.8	7.49e-01	0	61	104	1134034944	55	32140
2026-01-15 12:08:24.39	340.66	8.26	-41.7	-60.6	3.8	7.43e-01	0	61	104	1134034944	55	30994
2026-01-15 12:08:28.43	340.77	7.92	-44.0	-62.9	3.9	7.47e-01	0	61	104	1134034944	58	33852
2026-01-15 12:08:32.46	340.87	7.59	-46.1	-64.8	3.8	7.47e-01	0	61	104	1134034944	62	33493
2026-01-15 12:08:36.51	340.98	7.26	-46.1	-65.0	3.8	7.47e-01	0	61	104	1134034944	63	32419
2026-01-15 12:08:40.55	341.08	6.93	-46.3	-64.9	3.8	7.46e-01	0	61	104	1134034944	63	31959
2026-01-15 12:08:44.58	341.18	6.61	-46.2	-64.8	3.8	7.41e-01	0	61	104	1134034944	63	31743
2026-01-15 12:08:48.62	341.28	6.29	-46.2	-64.8	3.8	7.46e-01	0	61	104	1134034944	63	31652
2026-01-15 12:08:52.66	341.37	5.98	-46.2	-64.8	3.8	7.49e-01	0	61	104	1134034944	63	31710
2026-01-15 12:08:56.70	341.47	5.67	-46.2	-64.8	3.8	7.47e-01	0	61	104	1134034944	63	31717
2026-01-15 12:09:00.74	341.56	5.36	-46.2	-64.8	3.8	7.45e-01	0	61	104	1134034944	63	31741
2026-01-15 12:09:04.78	341.65	5.06	-46.1	-64.8	3.8	7.43e-01	0	61	104	1134034944	62	33485
2026-01-15 12:09:08.82	341.74	4.77	-46.2	-64.8	3.8	7.43e-01	0	61	104	1134034944	62	33508
2026-01-15 12:09:12.86	341.83	4.47	-46.2	-64.8	3.8	7.47e-01	0	61	104	1134034944	62	33472
2026-01-15 12:09:16.89	341.92	4.18	-46.1	-64.8	3.8	7.43e-01	0	61	104	1134034944	62	33458
2026-01-15 12:09:20.93	342.00	3.89	-46.1	-64.8	3.8	7.45e-01	0	61	104	1134034944	62	33423
2026-01-15 12:09:24.96	342.09	3.61	-46.1	-64.8	3.8	7.45e-01	0	61	104	1134034944	62	33372
2026-01-15 12:09:28.99	342.17	3.33	-46.1	-64.7	3.8	7.45e-01	0	61	104	1134034944	62	33274
2026-01-15 12:09:33.03	342.25	3.05	-46.1	-64.7	3.8	7.44e-01	0	61	104	1134034944	62	33271
2026-01-15 12:09:37.07	342.33	2.78	-46.1	-64.7	3.8	7.44e-01	0	61	104	1134034944	62	33275
2026-01-15 12:09:41.12	342.41	2.51	-46.1	-64.7	3.8	7.46e-01	0	61	104	1134034944	62	33228
2026-01-15 12:09:45.16	342.49	2.24	-46.1	-64.7	3.8	7.42e-01	0	61	104	1134034944	62	33147
2026-01-15 12:09:49.19	342.56	1.97	-46.1	-64.8	3.8	7.46e-01	0	61	104	1134034944	62	33311

#Closed at: 2026-01-15 12:09:50
#Recorded file [1134 MB]: D:/lorett/data/31039_260115_145701.dat