passes_logs/2026/01/15/R2.0S_Moscow/R2.0S_Moscow__20260115_021345_FENGYUN_3D_rec.log

#Pass ID: 20260115_021345_FENGYUN 3D
#Satellite: FENGYUN 3D
#Configuration: FENGYUN 3D
#almurnet v.1.7.20251203
#Start time: 2026-01-15 02:13:46

#Version: 2.2.20231116
#Station: R2.0S_Moscow
#Location: 37.707566 lon 55.798166 lat
#TLE: 1 43010U 17072A   26014.22831475  .00000226  00000+0  12883-3 0  9994
#TLE: 2 43010  98.9934 346.0326 0002309 109.2304 250.9121 14.19696287423146

#Time	Az	El	Level	Level2	SNR	BER	BlckErr	Temp	State	Recorded	gain1	gain2
2026-01-15 02:13:46.84	14.61	2.06	-42.6	-54.2	3.8	8.46e-01	0	48	0	0	57	13111
2026-01-15 02:13:50.87	14.54	2.31	-42.6	-54.2	3.8	8.47e-01	0	49	104	0	57	13140
2026-01-15 02:13:54.92	14.47	2.57	-42.7	-54.1	3.8	8.47e-01	0	49	104	0	57	13089
2026-01-15 02:13:58.96	14.40	2.84	-42.6	-54.1	3.8	8.45e-01	0	49	104	0	57	13109
2026-01-15 02:14:03.00	14.33	3.10	-42.7	-54.2	3.8	8.44e-01	0	50	104	0	57	13116
2026-01-15 02:14:07.04	14.25	3.37	-42.6	-54.1	3.8	8.46e-01	0	50	104	0	57	13053
2026-01-15 02:14:11.08	14.18	3.64	-42.6	-53.9	3.8	8.46e-01	0	50	104	0	57	12770
2026-01-15 02:14:15.12	14.10	3.91	-42.6	-54.1	3.8	8.47e-01	0	50	104	0	57	12968
2026-01-15 02:14:19.16	14.02	4.18	-42.6	-54.0	3.8	8.46e-01	0	50	104	0	57	12893
2026-01-15 02:14:23.20	13.94	4.46	-42.6	-53.9	3.8	8.46e-01	0	51	104	0	57	12802
2026-01-15 02:14:27.25	13.85	4.74	-42.6	-54.1	3.8	8.46e-01	0	51	104	0	57	13057
2026-01-15 02:14:31.28	13.77	5.03	-42.6	-54.1	3.8	8.47e-01	0	51	104	0	57	13021
2026-01-15 02:14:35.32	13.68	5.31	-42.5	-53.2	3.8	8.46e-01	0	51	104	0	57	11762
2026-01-15 02:14:39.36	13.59	5.60	-42.4	-52.1	3.8	8.44e-01	0	52	104	0	56	10948
2026-01-15 02:14:43.40	13.50	5.89	-42.4	-51.9	3.8	8.45e-01	0	52	104	0	56	10681
2026-01-15 02:14:47.44	13.40	6.19	-42.3	-51.2	4.1	8.41e-01	0	52	0	0	56	9897
2026-01-15 02:14:51.47	13.31	6.49	-42.5	-52.4	3.8	8.45e-01	0	52	104	0	56	11411
2026-01-15 02:14:55.52	13.21	6.79	-42.2	-50.7	4.2	8.43e-01	0	52	104	0	56	9297
2026-01-15 02:14:59.55	13.10	7.10	-40.7	-45.6	7.2	1.98e-01	0	53	0	8388608	53	6135
2026-01-15 02:15:03.57	13.00	7.40	-39.7	-43.3	9.5	1.96e-02	0	53	0	30408704	51	5319
2026-01-15 02:15:07.60	12.89	7.72	-39.4	-42.8	10.1	8.43e-03	0	53	0	53477376	50	5282
2026-01-15 02:15:11.64	12.79	8.03	-39.9	-43.6	9.1	2.46e-02	0	53	0	76546048	50	5845
2026-01-15 02:15:15.68	12.67	8.35	-39.8	-43.7	9.0	2.04e-01	0	53	0	97517568	51	5538
2026-01-15 02:15:19.72	12.56	8.68	-39.5	-42.9	9.9	1.07e-02	0	53	0	114294784	50	5356
2026-01-15 02:15:23.76	12.44	9.01	-39.0	-42.1	10.7	3.99e-03	0	53	0	136314880	50	4873
2026-01-15 02:15:27.80	12.32	9.34	-39.0	-42.1	10.7	3.27e-03	0	54	0	159383552	49	5182
2026-01-15 02:15:31.84	12.19	9.68	-38.9	-41.9	10.9	3.01e-03	0	54	0	182452224	49	5054
2026-01-15 02:15:35.88	12.07	10.02	-38.7	-41.5	11.4	1.52e-03	0	54	0	204472320	49	4840
2026-01-15 02:15:39.91	11.94	10.37	-38.7	-41.5	11.4	1.31e-03	0	54	0	227540992	49	4864
2026-01-15 02:15:43.95	11.80	10.72	-38.8	-41.7	11.4	1.16e-03	0	54	0	250609664	49	4932
2026-01-15 02:15:47.99	11.66	11.08	-38.8	-41.6	11.5	1.20e-03	0	54	0	272629760	49	4897
2026-01-15 02:15:52.03	11.52	11.44	-38.6	-41.2	12.0	5.23e-04	0	54	0	295698432	49	4686
2026-01-15 02:15:56.06	11.38	11.80	-38.6	-41.2	12.1	3.96e-04	0	54	0	318767104	49	4698
2026-01-15 02:16:00.10	11.23	12.18	-38.5	-41.0	12.5	1.83e-04	0	55	0	340787200	49	4559
2026-01-15 02:16:04.14	11.07	12.55	-38.7	-41.2	12.5	1.98e-04	0	55	0	363855872	48	4934
2026-01-15 02:16:08.17	10.91	12.94	-38.7	-41.1	12.7	1.35e-04	0	55	0	386924544	48	4908
2026-01-15 02:16:12.20	10.75	13.33	-38.8	-41.1	13.0	7.55e-05	0	55	0	408944640	48	4915
2026-01-15 02:16:16.24	10.58	13.72	-38.7	-40.9	13.2	3.20e-05	0	55	0	432013312	48	4796
2026-01-15 02:16:20.28	10.41	14.12	-38.7	-40.9	13.3	3.31e-05	0	55	0	454033408	48	4813
2026-01-15 02:16:24.32	10.23	14.53	-38.7	-40.9	13.4	2.63e-05	0	55	0	477102080	48	4806
2026-01-15 02:16:28.36	10.04	14.95	-38.6	-40.8	13.7	1.02e-05	0	55	0	500170752	48	4728
2026-01-15 02:16:32.40	9.85	15.37	-38.5	-40.6	14.0	9.10e-06	0	55	0	523239424	48	4624
2026-01-15 02:16:36.43	9.66	15.80	-38.5	-40.5	14.1	2.20e-06	0	55	0	545259520	48	4578
2026-01-15 02:16:40.47	9.46	16.23	-38.5	-40.5	14.3	0.00e+00	0	56	0	568328192	48	4556
2026-01-15 02:16:44.50	9.25	16.67	-38.2	-40.1	14.7	0.00e+00	0	55	0	591396864	48	4368
2026-01-15 02:16:48.54	9.03	17.13	-38.0	-39.9	15.0	0.00e+00	0	56	0	613416960	48	4267
2026-01-15 02:16:52.57	8.81	17.58	-37.8	-39.6	15.2	0.00e+00	0	55	0	636485632	47	4348
2026-01-15 02:16:56.61	8.58	18.05	-37.7	-39.5	15.4	0.00e+00	0	56	0	658505728	47	4301
2026-01-15 02:17:00.65	8.34	18.53	-37.7	-39.4	15.5	0.00e+00	0	56	0	681574400	47	4280
2026-01-15 02:17:04.68	8.10	19.01	-37.6	-39.3	15.6	0.00e+00	0	56	0	704643072	47	4237
2026-01-15 02:17:08.72	7.85	19.51	-37.5	-39.3	15.7	0.00e+00	0	56	0	726663168	47	4196
2026-01-15 02:17:12.76	7.58	20.01	-37.5	-39.2	15.7	0.00e+00	0	56	0	749731840	47	4176
2026-01-15 02:17:16.79	7.31	20.52	-37.5	-39.3	15.7	0.00e+00	0	56	0	772800512	47	4205
2026-01-15 02:17:20.82	7.03	21.05	-37.6	-39.3	15.7	0.00e+00	0	56	0	794820608	47	4232
2026-01-15 02:17:24.86	6.74	21.58	-37.5	-39.2	15.9	0.00e+00	0	56	0	817889280	46	4401
2026-01-15 02:17:28.89	6.43	22.12	-37.2	-38.9	16.2	0.00e+00	0	56	0	839909376	46	4253
2026-01-15 02:17:32.92	6.12	22.68	-36.9	-38.5	16.6	0.00e+00	0	56	0	862978048	45	4311
2026-01-15 02:17:36.95	5.79	23.24	-36.8	-38.4	16.7	0.00e+00	0	56	0	886046720	45	4277
2026-01-15 02:17:40.99	5.45	23.82	-36.9	-38.5	16.6	0.00e+00	0	56	0	908066816	45	4306
2026-01-15 02:17:45.03	5.10	24.41	-36.9	-38.4	16.7	0.00e+00	0	56	0	931135488	45	4280
2026-01-15 02:17:49.08	4.73	25.02	-36.8	-38.3	16.8	0.00e+00	0	56	0	954204160	45	4239
2026-01-15 02:17:53.11	4.35	25.63	-36.6	-38.1	17.0	0.00e+00	0	56	0	977272832	45	4127
2026-01-15 02:17:57.15	3.95	26.26	-36.6	-38.1	17.0	0.00e+00	0	56	0	999292928	45	4121
2026-01-15 02:18:01.18	3.54	26.90	-36.7	-38.2	17.0	0.00e+00	0	56	0	1022361600	45	4185
2026-01-15 02:18:05.22	3.10	27.55	-36.7	-38.3	16.9	0.00e+00	0	56	0	1044381696	45	4206
2026-01-15 02:18:09.25	2.65	28.22	-36.6	-38.1	17.1	0.00e+00	0	56	0	1067450368	45	4110
2026-01-15 02:18:13.28	2.18	28.90	-36.6	-38.2	17.1	0.00e+00	0	57	0	1090519040	45	4150
2026-01-15 02:18:17.32	1.69	29.60	-36.8	-38.3	16.9	0.00e+00	0	56	0	1112539136	45	4236
2026-01-15 02:18:21.36	1.17	30.32	-36.8	-38.4	16.9	0.00e+00	0	57	0	1135607808	45	4246
2026-01-15 02:18:25.40	0.63	31.05	-36.5	-38.0	17.3	0.00e+00	0	57	0	1158676480	45	4063
2026-01-15 02:18:29.45	0.06	31.79	-36.6	-38.1	17.1	0.00e+00	0	56	0	1181745152	44	4377
2026-01-15 02:18:33.49	359.47	32.55	-36.4	-37.9	17.4	0.00e+00	0	57	0	1203765248	44	4269
2026-01-15 02:18:37.53	358.85	33.33	-36.1	-37.5	17.8	0.00e+00	0	57	0	1226833920	44	4097
2026-01-15 02:18:41.57	358.19	34.12	-36.3	-37.7	17.6	0.00e+00	0	56	0	1248854016	44	4190
2026-01-15 02:18:45.61	357.50	34.93	-36.4	-37.9	17.4	0.00e+00	0	57	0	1271922688	44	4267
2026-01-15 02:18:49.64	356.78	35.76	-36.2	-37.7	17.7	0.00e+00	0	57	0	1294991360	44	4149
2026-01-15 02:18:53.68	356.02	36.60	-36.1	-37.5	17.9	0.00e+00	0	57	0	1317011456	44	4056
2026-01-15 02:18:57.71	355.21	37.46	-36.3	-37.7	17.7	0.00e+00	0	57	0	1340080128	44	4175
2026-01-15 02:19:01.75	354.36	38.33	-36.1	-37.5	17.9	0.00e+00	0	57	0	1363148800	44	4073
2026-01-15 02:19:05.78	353.47	39.22	-36.4	-37.8	17.5	0.00e+00	0	57	0	1385168896	44	4230
2026-01-15 02:19:09.81	352.52	40.12	-36.6	-38.0	17.4	0.00e+00	0	57	0	1408237568	44	4333
2026-01-15 02:19:13.84	351.52	41.03	-36.5	-38.0	17.4	0.00e+00	0	57	0	1431306240	44	4322
2026-01-15 02:19:17.88	350.46	41.96	-36.5	-37.9	17.5	0.00e+00	0	57	0	1453326336	44	4279
2026-01-15 02:19:21.92	349.33	42.91	-36.6	-38.1	17.4	0.00e+00	0	57	0	1476395008	44	4348
2026-01-15 02:19:25.96	348.13	43.86	-36.7	-38.2	17.3	0.00e+00	0	57	0	1499463680	44	4393
2026-01-15 02:19:29.99	346.86	44.82	-36.5	-37.9	17.5	0.00e+00	0	57	0	1521483776	44	4291
2026-01-15 02:19:34.03	345.50	45.79	-36.4	-37.8	17.6	0.00e+00	0	57	0	1544552448	44	4231
2026-01-15 02:19:38.07	344.06	46.76	-37.1	-38.7	16.8	0.00e+00	0	57	0	1567621120	44	4682
2026-01-15 02:19:42.10	342.53	47.73	-36.7	-38.1	17.3	0.00e+00	0	57	0	1589641216	44	4375
2026-01-15 02:19:46.15	340.89	48.71	-37.0	-38.5	17.0	0.00e+00	0	57	0	1612709888	44	4563
2026-01-15 02:19:50.18	339.16	49.68	-37.4	-39.1	16.4	0.00e+00	0	57	0	1634729984	45	4609
2026-01-15 02:19:54.22	337.30	50.63	-37.1	-38.6	16.8	0.00e+00	0	57	0	1657798656	45	4371
2026-01-15 02:19:58.26	335.32	51.58	-37.3	-38.8	16.6	0.00e+00	0	57	0	1680867328	45	4481
2026-01-15 02:20:02.29	333.22	52.50	-37.0	-38.5	16.9	0.00e+00	0	57	0	1702887424	45	4332
2026-01-15 02:20:06.32	330.99	53.40	-37.3	-38.8	16.6	0.00e+00	0	57	0	1725956096	45	4478
2026-01-15 02:20:10.36	328.60	54.26	-37.0	-38.5	16.9	0.00e+00	0	57	0	1749024768	45	4307
2026-01-15 02:20:14.40	326.07	55.09	-36.9	-38.3	17.0	0.00e+00	0	57	0	1772093440	45	4234
2026-01-15 02:20:18.44	323.40	55.87	-36.8	-38.3	17.1	0.00e+00	0	57	0	1794113536	45	4207
2026-01-15 02:20:22.48	320.57	56.60	-36.7	-38.3	16.9	0.00e+00	0	57	0	1817182208	45	4233
2026-01-15 02:20:26.51	317.60	57.26	-36.5	-38.0	17.1	0.00e+00	0	57	0	1839202304	44	4321
2026-01-15 02:20:30.55	314.49	57.85	-36.7	-38.3	16.9	0.00e+00	0	57	0	1862270976	44	4473
2026-01-15 02:20:34.59	311.24	58.37	-37.0	-38.6	16.6	0.00e+00	0	57	0	1885339648	44	4632
2026-01-15 02:20:38.62	307.89	58.80	-36.8	-38.5	16.7	0.00e+00	0	57	0	1907359744	45	4301
2026-01-15 02:20:42.65	304.43	59.14	-36.6	-38.2	17.0	0.00e+00	0	57	0	1930428416	44	4419
2026-01-15 02:20:46.69	300.89	59.38	-36.9	-38.5	16.6	0.00e+00	0	57	0	1953497088	44	4598
2026-01-15 02:20:50.73	297.29	59.52	-36.6	-38.2	16.9	0.00e+00	0	57	0	1975517184	44	4405
2026-01-15 02:20:54.76	293.68	59.55	-36.5	-38.0	17.1	0.00e+00	0	57	0	1998585856	44	4327
2026-01-15 02:20:58.80	290.06	59.49	-36.7	-38.3	16.9	0.00e+00	0	57	0	2021654528	44	4459
2026-01-15 02:21:02.83	286.49	59.32	-36.7	-38.3	16.8	0.00e+00	0	57	0	2043674624	44	4476
2026-01-15 02:21:06.87	282.96	59.05	-36.0	-37.5	17.6	0.00e+00	0	57	0	2066743296	44	4085
2026-01-15 02:21:10.90	279.53	58.68	-36.6	-38.2	16.9	0.00e+00	0	57	0	2089811968	44	4421
2026-01-15 02:21:14.94	276.20	58.23	-36.7	-38.4	16.8	0.00e+00	0	57	0	2111832064	44	4494
2026-01-15 02:21:18.98	272.98	57.69	-36.5	-38.1	17.1	0.00e+00	0	57	0	2134900736	44	4364
2026-01-15 02:21:23.02	269.90	57.07	-36.4	-38.0	17.2	0.00e+00	0	57	0	2157969408	44	4295
2026-01-15 02:21:27.06	266.97	56.39	-36.3	-37.8	17.3	0.00e+00	0	57	0	2179989504	44	4232
2026-01-15 02:21:31.10	264.18	55.64	-36.2	-37.8	17.4	0.00e+00	0	57	0	2203058176	44	4197
2026-01-15 02:21:35.14	261.54	54.84	-36.7	-38.3	16.9	0.00e+00	0	57	0	2225078272	44	4442
2026-01-15 02:21:39.17	259.06	54.00	-36.8	-38.4	16.8	0.00e+00	0	57	0	2248146944	44	4509
2026-01-15 02:21:43.21	256.71	53.13	-36.3	-37.9	17.3	0.00e+00	0	57	0	2271215616	44	4245
2026-01-15 02:21:47.25	254.51	52.22	-36.8	-38.4	16.8	0.00e+00	0	57	0	2294284288	44	4515
2026-01-15 02:21:51.28	252.44	51.28	-36.3	-37.8	17.4	0.00e+00	0	57	0	2316304384	44	4222
2026-01-15 02:21:55.31	250.50	50.34	-36.4	-38.0	17.2	0.00e+00	0	57	0	2339373056	44	4293
2026-01-15 02:21:59.35	248.67	49.37	-36.1	-37.7	17.5	0.00e+00	0	58	0	2362441728	44	4147
2026-01-15 02:22:03.39	246.96	48.40	-36.0	-37.6	17.6	0.00e+00	0	57	0	2384461824	44	4103
2026-01-15 02:22:07.43	245.35	47.42	-36.2	-37.7	17.4	0.00e+00	0	58	0	2407530496	44	4177
2026-01-15 02:22:11.48	243.84	46.44	-35.8	-37.3	17.7	0.00e+00	0	58	0	2429550592	43	4201
2026-01-15 02:22:15.52	242.42	45.46	-35.6	-37.1	17.9	0.00e+00	0	57	0	2452619264	43	4117
2026-01-15 02:22:19.56	241.08	44.49	-35.5	-36.9	18.0	0.00e+00	0	57	0	2475687936	43	4045
2026-01-15 02:22:23.60	239.83	43.53	-35.6	-37.1	17.9	0.00e+00	0	58	0	2498756608	42	4350
2026-01-15 02:22:27.64	238.65	42.57	-35.4	-36.9	18.1	0.00e+00	0	57	0	2520776704	42	4246
2026-01-15 02:22:31.69	237.54	41.63	-35.6	-37.1	17.8	0.00e+00	0	57	0	2543845376	42	4365
2026-01-15 02:22:35.73	236.49	40.70	-35.9	-37.4	17.5	0.00e+00	0	57	0	2566914048	42	4529
2026-01-15 02:22:39.76	235.50	39.78	-35.4	-36.9	18.0	0.00e+00	0	57	0	2588934144	42	4271
2026-01-15 02:22:43.79	234.56	38.88	-35.4	-36.9	18.0	0.00e+00	0	57	0	2612002816	42	4256
2026-01-15 02:22:47.83	233.68	37.99	-35.5	-37.0	17.9	0.00e+00	0	57	0	2634022912	42	4296
2026-01-15 02:22:51.87	232.84	37.12	-35.2	-36.6	18.2	0.00e+00	0	58	0	2657091584	42	4138
2026-01-15 02:22:55.91	232.05	36.27	-35.4	-36.9	17.9	0.00e+00	0	57	0	2680160256	42	4276
2026-01-15 02:22:59.94	231.29	35.43	-35.4	-36.8	18.0	0.00e+00	0	58	0	2702180352	42	4232
2026-01-15 02:23:03.98	230.58	34.60	-35.3	-36.8	18.0	0.00e+00	0	57	0	2725249024	42	4216
2026-01-15 02:23:08.00	229.90	33.80	-35.3	-36.7	18.1	0.00e+00	0	58	0	2748317696	42	4172
2026-01-15 02:23:12.04	229.25	33.01	-35.5	-37.0	17.8	0.00e+00	0	57	0	2770337792	42	4330
2026-01-15 02:23:16.07	228.64	32.23	-35.5	-37.0	17.8	0.00e+00	0	57	0	2793406464	42	4327
2026-01-15 02:23:20.11	228.05	31.48	-35.5	-37.0	17.9	0.00e+00	0	58	0	2816475136	42	4298
2026-01-15 02:23:24.14	227.49	30.73	-35.7	-37.3	17.6	0.00e+00	0	58	0	2838495232	42	4446
2026-01-15 02:23:28.18	226.95	30.01	-35.9	-37.5	17.4	0.00e+00	0	57	0	2861563904	42	4558
2026-01-15 02:23:32.21	226.44	29.30	-36.0	-37.5	17.3	0.00e+00	0	57	0	2884632576	42	4585
2026-01-15 02:23:36.24	225.95	28.60	-36.0	-37.5	17.3	0.00e+00	0	58	0	2906652672	42	4592
2026-01-15 02:23:40.28	225.49	27.92	-36.0	-37.5	17.3	0.00e+00	0	57	0	2929721344	42	4595
2026-01-15 02:23:44.31	225.04	27.25	-36.0	-37.5	17.3	0.00e+00	0	57	0	2952790016	42	4587
2026-01-15 02:23:48.34	224.61	26.60	-35.9	-37.5	17.3	0.00e+00	0	57	0	2974810112	42	4561
2026-01-15 02:23:52.38	224.20	25.96	-36.0	-37.5	17.3	0.00e+00	0	57	0	2997878784	42	4593
2026-01-15 02:23:56.42	223.80	25.33	-36.0	-37.6	17.2	0.00e+00	0	57	0	3019898880	42	4636
2026-01-15 02:24:00.46	223.42	24.72	-36.1	-37.7	17.1	0.00e+00	0	57	0	3042967552	42	4688
2026-01-15 02:24:04.49	223.05	24.12	-36.1	-37.8	17.0	0.00e+00	0	57	0	3066036224	42	4718
2026-01-15 02:24:08.52	222.70	23.53	-36.1	-37.7	17.1	0.00e+00	0	58	0	3088056320	42	4670
2026-01-15 02:24:12.56	222.36	22.95	-36.0	-37.6	17.2	0.00e+00	0	57	0	3111124992	42	4633
2026-01-15 02:24:16.60	222.04	22.39	-36.1	-37.7	17.1	0.00e+00	0	57	0	3134193664	42	4661
2026-01-15 02:24:20.64	221.72	21.83	-36.2	-37.8	17.0	0.00e+00	0	57	0	3156213760	42	4721
2026-01-15 02:24:24.68	221.42	21.29	-36.3	-37.9	16.9	0.00e+00	0	58	0	3179282432	43	4518
2026-01-15 02:24:28.72	221.13	20.76	-36.5	-38.1	16.7	0.00e+00	0	58	0	3202351104	43	4620
2026-01-15 02:24:32.76	220.85	20.24	-36.7	-38.3	16.4	0.00e+00	0	57	0	3224371200	43	4758
2026-01-15 02:24:36.80	220.57	19.72	-37.1	-38.8	16.1	0.00e+00	0	58	0	3247439872	44	4733
2026-01-15 02:24:40.83	220.31	19.22	-37.2	-39.0	15.9	0.00e+00	0	57	0	3270508544	44	4824
2026-01-15 02:24:44.87	220.06	18.73	-37.2	-39.0	15.9	0.00e+00	0	58	0	3292528640	45	4575
2026-01-15 02:24:48.90	219.81	18.25	-37.2	-39.0	15.9	0.00e+00	0	58	0	3315597312	45	4556
2026-01-15 02:24:52.94	219.57	17.77	-37.3	-39.0	15.8	0.00e+00	0	58	0	3338665984	45	4595
2026-01-15 02:24:56.98	219.34	17.30	-37.4	-39.2	15.6	0.00e+00	0	58	0	3360686080	45	4691
2026-01-15 02:25:01.01	219.12	16.85	-37.6	-39.5	15.4	0.00e+00	0	57	0	3383754752	45	4834
2026-01-15 02:25:05.05	218.90	16.40	-37.8	-39.8	15.1	0.00e+00	0	57	0	3406823424	46	4713
2026-01-15 02:25:09.09	218.69	15.95	-37.9	-39.9	14.9	1.10e-06	0	58	0	3428843520	46	4802
2026-01-15 02:25:13.13	218.49	15.52	-38.0	-40.0	14.8	2.20e-06	0	57	0	3451912192	46	4859
2026-01-15 02:25:17.16	218.29	15.09	-38.0	-40.0	14.8	1.10e-06	0	58	0	3474980864	46	4865
2026-01-15 02:25:21.20	218.10	14.67	-38.1	-40.1	14.7	0.00e+00	0	58	0	3497000960	46	4881
2026-01-15 02:25:25.23	217.92	14.26	-38.1	-40.1	14.6	1.10e-06	0	58	0	3520069632	46	4908
2026-01-15 02:25:29.26	217.73	13.85	-38.2	-40.3	14.5	0.00e+00	0	58	0	3543138304	46	5004
2026-01-15 02:25:33.30	217.56	13.45	-38.3	-40.4	14.3	3.40e-06	0	58	0	3565158400	47	4782
2026-01-15 02:25:37.34	217.39	13.06	-38.4	-40.6	14.2	2.20e-06	0	57	0	3588227072	47	4873
2026-01-15 02:25:41.38	217.22	12.67	-38.5	-40.7	14.0	4.50e-06	0	58	0	3610247168	47	4945
2026-01-15 02:25:45.42	217.06	12.28	-38.6	-40.8	13.9	6.80e-06	0	58	0	3633315840	47	5008
2026-01-15 02:25:49.46	216.90	11.91	-38.6	-40.9	13.7	1.37e-05	0	58	0	3656384512	47	5060
2026-01-15 02:25:53.50	216.75	11.54	-38.9	-41.1	13.6	1.48e-05	0	58	0	3679453184	48	4896
2026-01-15 02:25:57.53	216.60	11.17	-39.0	-41.2	13.5	2.63e-05	0	58	0	3701473280	48	4978
2026-01-15 02:26:01.57	216.46	10.81	-39.1	-41.4	13.3	2.74e-05	0	58	0	3724541952	48	5064
2026-01-15 02:26:05.61	216.32	10.45	-39.1	-41.5	13.2	4.00e-05	0	58	0	3747610624	48	5104
2026-01-15 02:26:09.64	216.18	10.10	-39.2	-41.6	13.0	5.14e-05	0	58	0	3769630720	48	5165
2026-01-15 02:26:13.68	216.05	9.76	-39.3	-41.8	12.8	1.19e-04	0	58	0	3792699392	49	5021
2026-01-15 02:26:17.72	215.92	9.41	-39.3	-41.8	12.7	1.17e-04	0	58	0	3814719488	49	5024
2026-01-15 02:26:21.76	215.79	9.08	-39.5	-42.1	12.4	2.01e-04	0	58	0	3837788160	49	5201
2026-01-15 02:26:25.79	215.66	8.75	-39.5	-42.1	12.4	2.09e-04	0	58	0	3860856832	49	5187
2026-01-15 02:26:29.82	215.54	8.42	-39.5	-42.2	12.2	2.97e-04	0	58	0	3882876928	49	5226
2026-01-15 02:26:33.86	215.43	8.09	-39.7	-42.4	11.9	5.86e-04	0	58	0	3905945600	50	5063
2026-01-15 02:26:37.89	215.31	7.77	-44.9	-56.7	3.8	8.46e-01	0	58	104	3916431360	60	14726
2026-01-15 02:26:41.93	215.20	7.46	-45.3	-57.0	3.8	8.45e-01	0	58	104	3916431360	61	14384
2026-01-15 02:26:45.96	215.09	7.14	-45.2	-56.9	3.8	8.47e-01	0	58	104	3916431360	61	14350
2026-01-15 02:26:50.00	214.98	6.84	-45.2	-56.8	3.8	8.47e-01	0	58	104	3916431360	61	14174
2026-01-15 02:26:54.04	214.87	6.53	-45.2	-56.9	3.8	8.47e-01	0	58	104	3916431360	61	14216
2026-01-15 02:26:58.08	214.77	6.23	-45.2	-56.8	3.8	8.45e-01	0	58	104	3916431360	61	14176
2026-01-15 02:27:02.11	214.67	5.93	-45.2	-56.8	3.8	8.45e-01	0	58	104	3916431360	61	14193
2026-01-15 02:27:06.15	214.57	5.64	-45.2	-56.8	3.8	8.46e-01	0	58	104	3916431360	61	14158
2026-01-15 02:27:10.20	214.48	5.34	-45.2	-56.8	3.8	8.47e-01	0	58	104	3916431360	61	14164
2026-01-15 02:27:14.24	214.38	5.05	-45.2	-56.8	3.8	8.44e-01	0	58	104	3916431360	61	14154
2026-01-15 02:27:18.28	214.29	4.77	-45.2	-56.8	3.8	8.46e-01	0	58	104	3916431360	61	14108
2026-01-15 02:27:22.32	214.20	4.48	-45.1	-56.7	3.8	8.46e-01	0	58	104	3916431360	61	14035
2026-01-15 02:27:26.36	214.11	4.20	-45.1	-56.8	3.8	8.46e-01	0	58	104	3916431360	61	14101
2026-01-15 02:27:30.40	214.03	3.93	-45.1	-56.8	3.8	8.47e-01	0	58	104	3916431360	61	14095
2026-01-15 02:27:34.45	213.94	3.65	-45.2	-56.8	3.8	8.46e-01	0	58	104	3916431360	61	14126
2026-01-15 02:27:38.49	213.86	3.38	-45.1	-56.8	3.8	8.46e-01	0	58	104	3916431360	61	14119
2026-01-15 02:27:42.53	213.78	3.11	-45.1	-56.8	3.8	8.48e-01	0	58	104	3916431360	61	14090
2026-01-15 02:27:46.57	213.70	2.84	-45.1	-56.8	3.8	8.47e-01	0	58	104	3916431360	61	14077
2026-01-15 02:27:50.61	213.62	2.58	-45.1	-56.8	3.8	8.46e-01	0	58	104	3916431360	61	14123
2026-01-15 02:27:54.65	213.54	2.32	-45.1	-56.8	3.8	8.46e-01	0	58	104	3916431360	61	14080
2026-01-15 02:27:58.69	213.47	2.06	-45.1	-56.8	3.8	8.46e-01	0	58	104	3916431360	61	14066

#Closed at: 2026-01-15 02:28:01
#Recorded file [3916 MB]: D:/lorett/data/31039_260115_051346.dat