passes_logs/2026/01/15/R2.0S_Moscow/R2.0S_Moscow__20260115_230552_FENGYUN_3G_rec.log

#Pass ID: 20260115_230552_FENGYUN 3G
#Satellite: FENGYUN 3G
#Configuration: FENGYUN 3G
#almurnet v.1.7.20251203
#Start time: 2026-01-15 23:05:54

#Version: 2.2.20231116
#Station: R2.0S_Moscow
#Location: 37.707566 lon 55.798166 lat
#TLE: 1 56232U 23055A   26015.17772624  .00018907  00000+0  29824-3 0  9995
#TLE: 2 56232  49.9942  55.0157 0004230  27.8148 332.3045 15.53505157156222

#Time	Az	El	Level	Level2	SNR	BER	BlckErr	Temp	State	Recorded	gain1	gain2
2026-01-15 23:05:54.15	251.23	2.12	-44.3	-62.3	3.8	8.46e-01	0	51	0	0	60	28103
2026-01-15 23:05:57.17	251.04	2.32	-44.3	-62.3	3.8	8.45e-01	0	52	104	0	60	28202
2026-01-15 23:06:00.20	250.85	2.53	-44.3	-62.3	3.8	8.45e-01	0	52	104	0	60	28130
2026-01-15 23:06:03.23	250.65	2.73	-44.3	-62.2	3.8	8.46e-01	0	52	104	0	60	27941
2026-01-15 23:06:06.26	250.45	2.94	-44.3	-62.2	3.8	8.46e-01	0	52	104	0	60	27810
2026-01-15 23:06:09.29	250.25	3.15	-44.3	-62.2	3.8	8.46e-01	0	53	104	0	60	28024
2026-01-15 23:06:12.32	250.04	3.36	-44.3	-62.3	3.8	8.47e-01	0	53	104	0	60	28125
2026-01-15 23:06:15.35	249.83	3.57	-44.3	-62.3	3.8	8.46e-01	0	53	104	0	60	28162
2026-01-15 23:06:18.38	249.61	3.78	-44.3	-62.3	3.8	8.47e-01	0	53	104	0	60	28044
2026-01-15 23:06:21.41	249.39	4.00	-44.3	-62.2	3.8	8.46e-01	0	53	104	0	60	27707
2026-01-15 23:06:24.44	249.17	4.22	-44.2	-61.9	3.8	8.46e-01	0	54	104	0	60	27023
2026-01-15 23:06:27.47	248.93	4.44	-44.2	-61.7	3.8	8.46e-01	0	54	104	0	60	26437
2026-01-15 23:06:30.50	248.70	4.67	-44.2	-61.7	3.8	8.46e-01	0	54	104	0	60	26168
2026-01-15 23:06:33.53	248.46	4.90	-44.2	-61.5	3.8	8.46e-01	0	54	104	0	60	25709
2026-01-15 23:06:36.55	248.21	5.12	-44.2	-60.7	3.8	8.46e-01	0	54	104	0	60	23434
2026-01-15 23:06:39.59	247.95	5.36	-44.2	-59.9	3.8	8.44e-01	0	54	104	0	60	21445
2026-01-15 23:06:42.61	247.70	5.59	-44.2	-59.8	3.8	8.45e-01	0	54	104	0	60	21250
2026-01-15 23:06:45.64	247.43	5.83	-44.2	-59.4	3.9	8.44e-01	0	54	104	0	60	20193
2026-01-15 23:06:48.67	247.16	6.07	-44.0	-56.9	4.9	8.31e-01	0	54	0	0	60	15066
2026-01-15 23:06:51.71	246.88	6.32	-43.8	-53.2	7.7	3.30e-01	0	55	0	2097152	59	10531
2026-01-15 23:06:54.74	246.59	6.56	-43.3	-50.8	10.2	2.42e-02	0	55	0	5242880	58	8419
2026-01-15 23:06:57.77	246.30	6.81	-43.2	-50.3	10.9	2.56e-03	0	55	0	8912896	58	7904
2026-01-15 23:07:00.80	246.00	7.07	-43.8	-53.5	7.6	7.28e-03	0	55	0	12058624	58	11459
2026-01-15 23:07:03.83	245.69	7.32	-44.3	-61.9	3.8	6.32e-01	0	55	104	13107200	59	28525
2026-01-15 23:07:06.86	245.38	7.58	-43.2	-50.2	10.8	6.59e-01	0	55	0	14680064	58	7870
2026-01-15 23:07:09.89	245.06	7.85	-41.7	-46.2	14.8	3.16e-04	0	55	0	18350080	55	5910
2026-01-15 23:07:12.92	244.73	8.11	-41.2	-45.2	16.0	0.00e+00	0	56	0	21495808	54	5546
2026-01-15 23:07:15.95	244.39	8.38	-43.3	-50.4	11.1	3.38e-01	0	56	0	24117248	57	8556
2026-01-15 23:07:18.98	244.04	8.66	-41.2	-45.2	16.0	1.74e-02	0	56	0	27787264	54	5565
2026-01-15 23:07:22.01	243.68	8.93	-40.8	-44.4	16.8	0.00e+00	0	56	0	30932992	53	5383
2026-01-15 23:07:25.04	243.31	9.22	-40.7	-44.2	17.0	0.00e+00	0	56	0	34603008	53	5259
2026-01-15 23:07:28.07	242.93	9.50	-40.5	-43.8	17.4	0.00e+00	0	56	0	37748736	52	5340
2026-01-15 23:07:31.10	242.54	9.79	-40.3	-43.5	17.7	0.00e+00	0	56	0	41418752	52	5153
2026-01-15 23:07:34.13	242.15	10.08	-40.4	-43.6	17.6	0.00e+00	0	56	0	44564480	52	5218
2026-01-15 23:07:37.16	241.74	10.38	-40.5	-43.8	17.5	0.00e+00	0	56	0	48234496	52	5292
2026-01-15 23:07:40.18	241.32	10.68	-40.3	-43.4	17.9	0.00e+00	0	57	0	51380224	52	5069
2026-01-15 23:07:43.21	240.88	10.99	-40.1	-43.2	18.2	0.00e+00	0	56	0	55050240	52	4939
2026-01-15 23:07:46.24	240.44	11.30	-40.2	-43.2	18.2	0.00e+00	0	57	0	58195968	52	4960
2026-01-15 23:07:49.27	239.98	11.62	-40.1	-43.1	18.3	0.00e+00	0	57	0	61865984	52	4913
2026-01-15 23:07:52.30	239.50	11.94	-40.0	-43.0	18.4	0.00e+00	0	57	0	65011712	52	4850
2026-01-15 23:07:55.33	239.02	12.26	-39.9	-42.8	18.7	0.00e+00	0	57	0	68681728	51	5020
2026-01-15 23:07:58.36	238.52	12.59	-39.8	-42.6	18.9	0.00e+00	0	57	0	71827456	51	4889
2026-01-15 23:08:01.39	238.00	12.93	-39.8	-42.5	19.0	0.00e+00	0	57	0	75497472	51	4863
2026-01-15 23:08:04.42	237.47	13.27	-40.0	-42.9	18.7	0.00e+00	0	57	0	78643200	51	5062
2026-01-15 23:08:07.45	236.92	13.61	-39.7	-42.4	19.1	0.00e+00	0	57	0	82313216	51	4807
2026-01-15 23:08:10.48	236.35	13.96	-39.5	-42.1	19.5	0.00e+00	0	57	0	85458944	51	4646
2026-01-15 23:08:13.50	235.77	14.32	-39.4	-42.0	19.6	0.00e+00	0	57	0	89128960	50	4831
2026-01-15 23:08:16.53	235.17	14.68	-39.7	-42.3	19.3	0.00e+00	0	57	0	92274688	50	5022
2026-01-15 23:08:19.56	234.55	15.04	-39.6	-42.2	19.5	0.00e+00	0	57	0	95944704	50	4940
2026-01-15 23:08:22.59	233.91	15.41	-39.3	-41.8	19.8	0.00e+00	0	57	0	99090432	50	4752
2026-01-15 23:08:25.62	233.24	15.79	-39.3	-41.7	20.0	0.00e+00	0	57	0	102760448	50	4700
2026-01-15 23:08:28.64	232.56	16.17	-39.2	-41.7	20.1	0.00e+00	0	58	0	105906176	50	4655
2026-01-15 23:08:31.68	231.86	16.56	-39.1	-41.5	20.2	0.00e+00	0	57	0	109576192	50	4582
2026-01-15 23:08:34.70	231.13	16.95	-38.7	-40.9	20.8	0.00e+00	0	57	0	112721920	49	4537
2026-01-15 23:08:37.73	230.38	17.34	-38.8	-41.1	20.7	0.00e+00	0	58	0	116391936	49	4613
2026-01-15 23:08:40.76	229.60	17.74	-38.7	-41.0	20.8	0.00e+00	0	58	0	119537664	49	4569
2026-01-15 23:08:43.79	228.79	18.15	-38.8	-41.1	20.6	0.00e+00	0	58	0	123207680	49	4625
2026-01-15 23:08:46.81	227.96	18.56	-38.8	-41.1	20.7	0.00e+00	0	58	0	126353408	49	4622
2026-01-15 23:08:49.85	227.10	18.97	-38.4	-40.6	21.2	0.00e+00	0	58	0	130023424	48	4620
2026-01-15 23:08:52.87	226.21	19.39	-38.4	-40.6	21.2	0.00e+00	0	58	0	133169152	48	4616
2026-01-15 23:08:55.90	225.29	19.81	-38.5	-40.6	21.2	0.00e+00	0	58	0	136839168	48	4631
2026-01-15 23:08:58.94	224.34	20.24	-38.4	-40.6	21.3	0.00e+00	0	58	0	139984896	48	4604
2026-01-15 23:09:01.96	223.36	20.66	-37.8	-39.8	22.0	0.00e+00	0	58	0	143654912	47	4449
2026-01-15 23:09:04.99	222.34	21.09	-37.9	-40.0	21.8	0.00e+00	0	58	0	146800640	47	4564
2026-01-15 23:09:08.02	221.29	21.52	-38.2	-40.4	21.4	0.00e+00	0	58	0	150470656	47	4774
2026-01-15 23:09:11.05	220.20	21.96	-37.7	-39.7	22.1	0.00e+00	0	58	0	153616384	47	4418
2026-01-15 23:09:14.08	219.08	22.39	-37.6	-39.6	22.3	0.00e+00	0	58	0	157286400	47	4372
2026-01-15 23:09:17.10	217.92	22.82	-37.9	-40.0	21.9	0.00e+00	0	58	0	160432128	47	4556
2026-01-15 23:09:20.13	216.72	23.25	-37.8	-39.8	22.0	0.00e+00	0	58	0	164102144	47	4459
2026-01-15 23:09:23.16	215.48	23.67	-37.6	-39.6	22.3	0.00e+00	0	58	0	167247872	46	4612
2026-01-15 23:09:26.19	214.20	24.10	-37.4	-39.4	22.5	0.00e+00	0	58	0	170917888	46	4499
2026-01-15 23:09:29.21	212.89	24.51	-37.4	-39.3	22.6	0.00e+00	0	58	0	174063616	46	4483
2026-01-15 23:09:32.24	211.53	24.93	-37.6	-39.5	22.3	0.00e+00	0	58	0	177733632	46	4591
2026-01-15 23:09:35.27	210.13	25.33	-37.4	-39.3	22.6	0.00e+00	0	58	0	180879360	46	4471
2026-01-15 23:09:38.30	208.68	25.73	-37.5	-39.4	22.4	0.00e+00	0	58	0	184549376	46	4539
2026-01-15 23:09:41.33	207.20	26.11	-37.4	-39.3	22.5	0.00e+00	0	58	0	187695104	46	4487
2026-01-15 23:09:44.35	205.68	26.48	-37.1	-39.0	22.9	0.00e+00	0	58	0	191365120	46	4321
2026-01-15 23:09:47.38	204.11	26.84	-37.3	-39.2	22.7	0.00e+00	0	58	0	194510848	46	4409
2026-01-15 23:09:50.41	202.50	27.18	-37.1	-38.9	23.0	0.00e+00	0	58	0	198180864	46	4271
2026-01-15 23:09:53.44	200.86	27.51	-37.1	-38.9	23.0	0.00e+00	0	58	0	201326592	45	4529
2026-01-15 23:09:56.47	199.17	27.81	-36.8	-38.6	23.2	0.00e+00	0	58	0	204996608	45	4365
2026-01-15 23:09:59.50	197.45	28.10	-37.4	-39.3	22.6	0.00e+00	0	58	0	208142336	45	4728
2026-01-15 23:10:02.53	195.70	28.36	-37.0	-38.8	23.0	0.00e+00	0	58	0	211812352	45	4465
2026-01-15 23:10:05.55	193.92	28.60	-37.2	-39.1	22.7	0.00e+00	0	58	0	214958080	45	4629
2026-01-15 23:10:08.58	192.11	28.81	-37.3	-39.1	22.8	0.00e+00	0	58	0	218628096	45	4638
2026-01-15 23:10:11.61	190.28	29.00	-37.6	-39.6	22.3	0.00e+00	0	59	0	221773824	45	4873
2026-01-15 23:10:14.64	188.42	29.15	-37.9	-39.9	22.1	0.00e+00	0	58	0	225443840	46	4764
2026-01-15 23:10:17.67	186.54	29.28	-37.4	-39.3	22.5	0.00e+00	0	58	0	228589568	46	4487
2026-01-15 23:10:20.70	184.65	29.38	-37.1	-38.9	22.9	0.00e+00	0	58	0	232259584	46	4273
2026-01-15 23:10:23.72	182.75	29.44	-37.3	-39.2	22.7	0.00e+00	0	58	0	235405312	46	4421
2026-01-15 23:10:26.75	180.84	29.48	-37.2	-39.1	22.8	0.00e+00	0	59	0	239075328	46	4362
2026-01-15 23:10:29.78	178.93	29.48	-37.3	-39.1	22.8	0.00e+00	0	59	0	242221056	46	4386
2026-01-15 23:10:32.81	177.02	29.45	-37.3	-39.2	22.8	0.00e+00	0	58	0	245891072	46	4404
2026-01-15 23:10:35.84	175.11	29.38	-37.7	-39.6	22.4	0.00e+00	0	58	0	249036800	46	4630
2026-01-15 23:10:38.87	173.22	29.29	-37.5	-39.5	22.5	0.00e+00	0	59	0	252706816	46	4549
2026-01-15 23:10:41.90	171.34	29.17	-37.1	-38.9	22.9	0.00e+00	0	59	0	255852544	46	4288
2026-01-15 23:10:44.93	169.48	29.01	-37.2	-39.1	22.8	0.00e+00	0	59	0	259522560	44	4892
2026-01-15 23:10:47.94	167.66	28.83	-37.8	-39.7	22.2	0.00e+00	0	59	0	262668288	46	4705
2026-01-15 23:10:50.97	165.84	28.62	-37.1	-39.0	23.0	0.00e+00	0	59	0	266338304	46	4312
2026-01-15 23:10:54.00	164.06	28.38	-37.5	-39.4	22.6	0.00e+00	0	58	0	269484032	46	4527
2026-01-15 23:10:57.02	162.31	28.12	-37.2	-39.0	23.0	0.00e+00	0	58	0	273154048	46	4333
2026-01-15 23:11:00.06	160.58	27.84	-36.7	-38.5	23.5	0.00e+00	0	59	0	276299776	45	4297
2026-01-15 23:11:03.08	158.90	27.54	-37.1	-38.9	23.0	0.00e+00	0	59	0	279969792	45	4527
2026-01-15 23:11:06.11	157.26	27.21	-37.2	-39.1	22.8	0.00e+00	0	59	0	283115520	45	4648
2026-01-15 23:11:09.14	155.65	26.87	-36.8	-38.5	23.4	0.00e+00	0	59	0	286785536	45	4330
2026-01-15 23:11:12.17	154.08	26.52	-37.2	-39.1	22.9	0.00e+00	0	59	0	289931264	45	4604
2026-01-15 23:11:15.21	152.54	26.14	-37.8	-39.8	22.2	0.00e+00	0	59	0	293601280	46	4721
2026-01-15 23:11:18.23	151.06	25.76	-37.3	-39.2	22.8	0.00e+00	0	59	0	296747008	46	4436
2026-01-15 23:11:21.26	149.62	25.37	-37.5	-39.5	22.5	0.00e+00	0	59	0	300417024	46	4570
2026-01-15 23:11:24.28	148.22	24.97	-37.4	-39.4	22.7	0.00e+00	0	59	0	303562752	46	4496
2026-01-15 23:11:27.31	146.85	24.56	-37.5	-39.4	22.6	0.00e+00	0	59	0	307232768	46	4522
2026-01-15 23:11:30.34	145.53	24.14	-38.1	-40.1	21.9	0.00e+00	0	59	0	310378496	46	4924
2026-01-15 23:11:33.36	144.25	23.72	-37.8	-39.8	22.2	0.00e+00	0	59	0	314048512	46	4720
2026-01-15 23:11:36.39	143.01	23.29	-37.8	-39.8	22.1	0.00e+00	0	59	0	317194240	46	4757
2026-01-15 23:11:39.42	141.81	22.86	-37.9	-39.9	22.0	0.00e+00	0	59	0	320864256	46	4802
2026-01-15 23:11:42.44	140.65	22.44	-37.9	-40.0	21.9	0.00e+00	0	59	0	324009984	46	4855
2026-01-15 23:11:45.48	139.52	22.00	-38.0	-40.1	21.8	0.00e+00	0	59	0	327680000	46	4912
2026-01-15 23:11:48.50	138.44	21.57	-38.4	-40.6	21.4	0.00e+00	0	59	0	330825728	47	4889
2026-01-15 23:11:51.53	137.38	21.14	-38.2	-40.4	21.5	0.00e+00	0	59	0	334495744	47	4782
2026-01-15 23:11:54.56	136.36	20.71	-38.2	-40.4	21.5	0.00e+00	0	59	0	337641472	47	4793
2026-01-15 23:11:57.59	135.38	20.29	-38.3	-40.5	21.4	0.00e+00	0	59	0	341311488	47	4831
2026-01-15 23:12:00.62	134.43	19.86	-38.5	-40.8	21.1	0.00e+00	0	59	0	344457216	47	4996
2026-01-15 23:12:03.65	133.50	19.44	-38.5	-40.8	21.0	0.00e+00	0	59	0	348127232	47	5004
2026-01-15 23:12:06.68	132.61	19.02	-38.6	-40.9	21.0	0.00e+00	0	59	0	351272960	47	5043
2026-01-15 23:12:09.71	131.75	18.61	-38.8	-41.0	20.9	3.40e-06	0	59	0	354942976	48	4864
2026-01-15 23:12:12.74	130.92	18.20	-38.6	-41.0	20.8	9.10e-06	0	59	0	358088704	48	4853
2026-01-15 23:12:15.77	130.11	17.80	-38.7	-41.0	20.9	3.40e-06	0	59	0	361758720	48	4846
2026-01-15 23:12:18.80	129.33	17.39	-38.7	-41.0	20.8	0.00e+00	0	59	0	364904448	48	4837
2026-01-15 23:12:21.83	128.58	17.00	-39.0	-41.5	20.3	0.00e+00	0	59	0	368574464	48	5107
2026-01-15 23:12:24.86	127.85	16.61	-38.9	-41.3	20.4	2.17e-05	0	59	0	371720192	48	4994
2026-01-15 23:12:27.89	127.14	16.22	-39.0	-41.5	20.2	1.02e-05	0	59	0	375390208	48	5121
2026-01-15 23:12:30.92	126.46	15.84	-39.2	-41.8	19.8	0.00e+00	0	59	0	378535936	49	5017
2026-01-15 23:12:33.95	125.79	15.47	-39.5	-42.4	19.1	1.10e-06	0	59	0	382205952	49	5366
2026-01-15 23:12:36.98	125.15	15.09	-39.1	-42.3	19.1	2.28e-05	0	59	0	385351680	49	5293
2026-01-15 23:12:40.01	124.53	14.73	-28.3	-41.3	17.6	1.37e-02	0	59	0	389021696	30	14088
2026-01-15 23:12:43.04	123.93	14.37	-39.7	-42.8	18.4	1.93e-04	0	59	0	392167424	50	5291
2026-01-15 23:12:46.07	123.34	14.01	-39.5	-42.6	18.2	2.36e-04	0	59	0	395837440	49	5525
2026-01-15 23:12:49.10	122.77	13.66	-39.5	-42.5	18.4	2.52e-04	0	59	0	398983168	49	5429
2026-01-15 23:12:52.13	122.23	13.32	-39.5	-42.9	17.8	2.80e-04	0	60	0	402653184	50	5401
2026-01-15 23:12:55.16	121.69	12.98	-39.6	-42.9	17.1	1.06e-03	0	59	0	405798912	49	5709
2026-01-15 23:12:58.19	121.18	12.64	-38.5	-43.4	16.7	1.48e-03	0	59	0	408944640	50	5713
2026-01-15 23:13:01.21	120.67	12.32	-39.6	-43.4	16.7	3.90e-04	0	59	0	412614656	50	5699
2026-01-15 23:13:04.24	120.19	11.99	-39.7	-43.5	16.9	2.05e-03	0	59	0	415760384	50	5723
2026-01-15 23:13:07.27	119.71	11.67	-40.4	-44.1	16.4	4.23e-04	0	59	0	419430400	51	5790
2026-01-15 23:13:10.30	119.25	11.35	-40.0	-44.0	15.1	5.19e-04	0	59	0	422576128	49	6443
2026-01-15 23:13:13.33	118.81	11.04	-39.5	-43.5	14.6	1.66e-03	0	59	0	426246144	48	6449
2026-01-15 23:13:16.36	118.37	10.74	-37.6	-43.6	12.2	7.75e-03	0	59	0	429391872	42	9277
2026-01-15 23:13:19.39	117.95	10.43	-35.1	-43.8	11.5	1.52e-02	0	59	0	433061888	42	9475
2026-01-15 23:13:22.42	117.54	10.14	-32.9	-43.3	9.7	3.48e-02	0	59	0	436207616	36	12601
2026-01-15 23:13:25.45	117.14	9.84	-31.6	-43.2	8.0	9.57e-02	0	59	0	439877632	33	14795
2026-01-15 23:13:28.48	116.75	9.55	-32.8	-43.1	7.1	2.40e-01	0	59	0	442499072	32	15563
2026-01-15 23:13:31.51	116.37	9.27	-30.3	-42.9	7.0	4.13e-01	0	59	0	445120512	31	15974
2026-01-15 23:13:34.54	116.01	8.99	-28.2	-41.8	6.1	5.13e-01	0	59	0	447217664	29	15853
2026-01-15 23:13:37.57	115.65	8.71	-30.0	-42.2	5.8	5.77e-01	0	59	0	449314816	30	15687
2026-01-15 23:13:40.60	115.30	8.43	-31.2	-43.2	5.5	5.60e-01	0	59	0	450887680	29	18594
2026-01-15 23:13:43.63	114.96	8.16	-29.9	-42.7	5.2	6.54e-01	0	59	0	451936256	29	17616
2026-01-15 23:13:46.66	114.63	7.90	-44.6	-62.4	3.8	7.59e-01	0	59	104	452460544	59	30083
2026-01-15 23:13:49.69	114.30	7.63	-45.3	-63.3	3.8	8.47e-01	0	59	104	452460544	61	29997
2026-01-15 23:13:52.72	113.99	7.37	-45.8	-63.9	3.8	8.46e-01	0	59	104	452460544	62	30192
2026-01-15 23:13:55.75	113.68	7.12	-45.8	-63.9	3.8	8.46e-01	0	59	104	452460544	62	30247
2026-01-15 23:13:58.78	113.38	6.87	-45.6	-63.7	3.8	8.47e-01	0	59	104	452460544	62	29544
2026-01-15 23:14:01.81	113.09	6.62	-45.5	-63.6	3.8	8.46e-01	0	59	104	452460544	62	29073
2026-01-15 23:14:04.84	112.80	6.37	-45.4	-63.5	3.8	8.46e-01	0	59	104	452460544	62	28867
2026-01-15 23:14:07.86	112.52	6.13	-45.4	-63.5	3.8	8.45e-01	0	59	104	452460544	62	28752
2026-01-15 23:14:10.90	112.25	5.88	-45.4	-63.5	3.8	8.46e-01	0	59	104	452460544	62	28709
2026-01-15 23:14:13.93	111.98	5.65	-45.4	-63.4	3.8	8.46e-01	0	60	104	452460544	62	28675
2026-01-15 23:14:16.96	111.72	5.41	-45.4	-63.5	3.8	8.46e-01	0	59	104	452460544	62	28702
2026-01-15 23:14:19.99	111.47	5.18	-45.4	-63.4	3.8	8.46e-01	0	60	104	452460544	62	28606
2026-01-15 23:14:23.02	111.22	4.95	-45.4	-63.4	3.8	8.47e-01	0	60	104	452460544	62	28638
2026-01-15 23:14:26.05	110.98	4.72	-45.4	-63.5	3.8	8.46e-01	0	60	104	452460544	62	28692
2026-01-15 23:14:29.08	110.74	4.50	-45.3	-63.4	3.8	8.47e-01	0	60	104	452460544	62	28566
2026-01-15 23:14:32.11	110.51	4.27	-45.3	-63.4	3.8	8.45e-01	0	60	104	452460544	62	28559
2026-01-15 23:14:35.14	110.29	4.05	-45.3	-63.4	3.8	8.45e-01	0	60	104	452460544	62	28531
2026-01-15 23:14:38.17	110.06	3.84	-45.3	-63.4	3.8	8.47e-01	0	60	104	452460544	62	28616
2026-01-15 23:14:41.20	109.85	3.62	-45.3	-63.4	3.8	8.46e-01	0	59	104	452460544	62	28609
2026-01-15 23:14:44.23	109.63	3.41	-45.3	-63.4	3.8	8.45e-01	0	60	104	452460544	62	28530
2026-01-15 23:14:47.26	109.43	3.20	-45.3	-63.4	3.8	8.47e-01	0	59	104	452460544	62	28602
2026-01-15 23:14:50.30	109.22	2.99	-45.3	-63.4	3.8	8.47e-01	0	60	104	452460544	62	28459
2026-01-15 23:14:53.32	109.02	2.78	-45.3	-63.4	3.8	8.45e-01	0	59	104	452460544	62	28409
2026-01-15 23:14:56.35	108.83	2.58	-45.3	-63.4	3.8	8.47e-01	0	60	104	452460544	62	28414
2026-01-15 23:14:59.38	108.64	2.38	-45.3	-63.3	3.8	8.45e-01	0	60	104	452460544	62	28332
2026-01-15 23:15:02.40	108.45	2.18	-45.3	-63.3	3.8	8.48e-01	0	60	104	452460544	62	28300

#Closed at: 2026-01-15 23:15:05
#Recorded file [452 MB]: D:/lorett/data/31039_260116_020553.dat