passes_logs/2026/01/15/R2.0S_Moscow/R2.0S_Moscow__20260115_103547_NOAA_21_JPSS-2_rec.log

#Pass ID: 20260115_103547_NOAA 21 (JPSS-2)
#Satellite: NOAA 21 (JPSS-2)
#Configuration: NOAA-21
#almurnet v.1.7.20251203
#Start time: 2026-01-15 10:38:16

#Version: 2.2.20231116
#Station: R2.0S_Moscow
#Location: 37.707566 lon 55.798166 lat
#TLE: 1 54234U 22150A   26014.16688770  .00000052  00000+0  45394-4 0  9999
#TLE: 2 54234  98.7497 315.0767 0000655 297.6997  62.4113 14.19534648164696

#Time	Az	El	Level	Level2	SNR	BER	BlckErr	Temp	State	Recorded	gain1	gain2
2026-01-15 10:38:16.83	187.56	13.34	-45.2	-56.8	3.8	8.47e-01	0	60	0	0	60	14980
2026-01-15 10:38:19.85	187.77	13.62	-45.4	-57.7	3.8	1.49e+00	0	61	104	0	62	14765
2026-01-15 10:38:22.88	187.98	13.91	-45.2	-57.5	3.8	1.49e+00	0	61	104	0	62	14486
2026-01-15 10:38:25.92	188.20	14.21	-44.9	-57.0	3.8	1.49e+00	0	61	104	0	61	14501
2026-01-15 10:38:28.95	188.42	14.50	-44.9	-56.9	3.8	1.49e+00	0	61	104	0	61	14327
2026-01-15 10:38:31.98	188.64	14.80	-44.8	-56.7	3.8	1.49e+00	0	61	104	0	61	13903
2026-01-15 10:38:35.00	188.87	15.11	-44.8	-56.3	3.8	1.49e+00	0	61	104	0	61	13323
2026-01-15 10:38:38.04	189.10	15.41	-44.7	-56.0	3.8	1.49e+00	0	61	104	0	61	12859
2026-01-15 10:38:41.07	189.34	15.73	-44.7	-55.6	3.8	1.49e+00	0	61	104	0	61	12243
2026-01-15 10:38:44.10	189.58	16.04	-44.5	-53.9	4.1	1.46e+00	0	61	104	0	61	10149
2026-01-15 10:38:47.12	189.83	16.36	-44.2	-52.0	4.9	9.89e-01	0	61	104	0	60	8575
2026-01-15 10:38:50.15	190.08	16.68	-43.9	-50.2	5.9	3.93e-01	0	61	0	7340032	59	7391
2026-01-15 10:38:53.17	190.34	17.00	-43.7	-49.4	6.5	2.40e-01	0	61	0	16777216	59	6779
2026-01-15 10:38:56.20	190.60	17.33	-43.8	-49.7	6.3	2.52e-01	0	61	0	26214400	59	6978
2026-01-15 10:38:59.22	190.87	17.66	-44.2	-51.2	5.2	5.77e-01	0	61	0	35651584	59	8363
2026-01-15 10:39:02.25	191.14	18.00	-44.0	-50.8	5.5	5.15e-01	0	60	0	41943040	59	7908
2026-01-15 10:39:05.28	191.43	18.34	-42.5	-46.4	9.4	2.43e-02	0	61	0	51380224	57	5377
2026-01-15 10:39:08.30	191.71	18.68	-40.8	-43.6	12.2	2.57e-04	0	61	0	60817408	53	4889
2026-01-15 10:39:11.33	192.00	19.03	-40.5	-43.1	12.6	1.64e-04	0	61	0	70254592	53	4621
2026-01-15 10:39:14.36	192.30	19.39	-41.9	-45.5	10.2	1.65e-02	0	61	0	76546048	55	5414
2026-01-15 10:39:17.39	192.61	19.74	-40.5	-43.1	12.6	2.05e-04	0	61	0	83886080	53	4637
2026-01-15 10:39:20.41	192.92	20.10	-40.3	-42.8	13.0	4.04e-05	0	61	0	93323264	52	4709
2026-01-15 10:39:23.44	193.24	20.47	-40.3	-42.8	13.0	3.96e-05	0	61	0	102760448	52	4712
2026-01-15 10:39:26.47	193.57	20.84	-40.2	-42.6	13.2	2.67e-05	0	61	0	112197632	52	4612
2026-01-15 10:39:29.49	193.91	21.22	-40.1	-42.4	13.4	1.37e-05	0	61	0	121634816	52	4522
2026-01-15 10:39:32.52	194.25	21.60	-39.9	-42.1	13.7	2.20e-06	0	61	0	131072000	51	4645
2026-01-15 10:39:35.54	194.60	21.98	-39.9	-42.1	13.8	3.00e-06	0	61	0	140509184	51	4616
2026-01-15 10:39:38.56	194.96	22.37	-39.7	-41.9	14.1	7.00e-07	0	60	0	149946368	51	4500
2026-01-15 10:39:41.59	195.33	22.76	-39.7	-41.8	14.2	7.00e-07	0	61	0	159383552	51	4470
2026-01-15 10:39:44.62	195.71	23.16	-39.6	-41.7	14.3	1.50e-06	0	61	0	168820736	51	4406
2026-01-15 10:39:47.65	196.10	23.57	-39.6	-41.7	14.3	1.50e-06	0	61	0	178257920	51	4394
2026-01-15 10:39:50.67	196.49	23.98	-39.6	-41.7	14.3	7.00e-07	0	61	0	187695104	51	4402
2026-01-15 10:39:53.70	196.90	24.39	-39.6	-41.7	14.3	7.00e-07	0	61	0	197132288	51	4402
2026-01-15 10:39:56.72	197.32	24.81	-39.6	-41.8	14.2	7.00e-07	0	61	0	206569472	51	4449
2026-01-15 10:39:59.74	197.75	25.24	-39.6	-41.7	14.2	7.00e-07	0	61	0	216006656	51	4425
2026-01-15 10:40:02.77	198.19	25.67	-39.8	-41.9	14.1	0.00e+00	0	61	0	225443840	51	4519
2026-01-15 10:40:05.79	198.64	26.10	-39.9	-42.1	13.9	6.80e-06	0	61	0	234881024	51	4607
2026-01-15 10:40:08.82	199.11	26.54	-40.0	-42.3	13.7	5.30e-06	0	61	0	244318208	51	4733
2026-01-15 10:40:11.84	199.59	26.99	-40.2	-42.6	13.5	9.90e-06	0	61	0	253755392	51	4879
2026-01-15 10:40:14.87	200.08	27.44	-40.4	-42.8	13.2	2.28e-05	0	61	0	263192576	51	4990
2026-01-15 10:40:17.89	200.58	27.89	-40.5	-42.9	13.1	3.66e-05	0	61	0	272629760	51	5064
2026-01-15 10:40:20.91	201.10	28.35	-40.7	-43.2	12.8	5.79e-05	0	61	0	282066944	51	5239
2026-01-15 10:40:23.94	201.64	28.82	-40.6	-43.1	12.9	5.41e-05	0	60	0	291504128	52	4890
2026-01-15 10:40:26.96	202.18	29.29	-40.5	-43.0	13.0	3.43e-05	0	61	0	300941312	52	4829
2026-01-15 10:40:29.99	202.75	29.77	-40.6	-43.1	12.9	5.64e-05	0	61	0	310378496	52	4877
2026-01-15 10:40:33.02	203.33	30.25	-40.7	-43.2	12.8	6.02e-05	0	60	0	319815680	52	4966
2026-01-15 10:40:36.04	203.93	30.73	-40.5	-43.0	13.0	4.34e-05	0	61	0	329252864	52	4859
2026-01-15 10:40:39.06	204.55	31.23	-40.5	-43.0	13.1	3.96e-05	0	61	0	338690048	52	4827
2026-01-15 10:40:42.08	205.18	31.72	-40.3	-42.7	13.3	1.90e-05	0	60	0	348127232	52	4664
2026-01-15 10:40:45.10	205.84	32.22	-40.3	-42.6	13.4	1.75e-05	0	60	0	357564416	52	4639
2026-01-15 10:40:48.12	206.51	32.72	-40.4	-42.8	13.2	3.12e-05	0	61	0	367001600	52	4740
2026-01-15 10:40:51.14	207.21	33.23	-40.5	-43.0	13.0	4.27e-05	0	60	0	376438784	52	4842
2026-01-15 10:40:54.17	207.93	33.74	-40.6	-43.0	13.0	4.42e-05	0	61	0	385875968	52	4862
2026-01-15 10:40:57.19	208.67	34.26	-40.6	-43.1	13.0	4.80e-05	0	61	0	395313152	52	4882
2026-01-15 10:41:00.22	209.43	34.78	-40.9	-43.5	12.6	1.04e-04	0	61	0	405798912	52	5130
2026-01-15 10:41:03.25	210.22	35.30	-40.9	-43.6	12.4	1.52e-04	0	61	0	414187520	52	5183
2026-01-15 10:41:06.28	211.04	35.83	-41.1	-43.9	12.1	2.18e-04	0	60	0	424673280	52	5373
2026-01-15 10:41:09.31	211.88	36.36	-41.2	-44.0	12.0	3.36e-04	0	61	0	433061888	53	5147
2026-01-15 10:41:12.34	212.75	36.89	-41.4	-44.3	11.7	5.20e-04	0	61	0	443547648	53	5304
2026-01-15 10:41:15.37	213.64	37.42	-41.6	-44.8	11.2	1.48e-03	0	60	0	452984832	53	5610
2026-01-15 10:41:18.40	214.57	37.95	-41.7	-44.9	11.1	1.64e-03	0	61	0	462422016	54	5380
2026-01-15 10:41:21.43	215.53	38.48	-41.7	-44.8	11.2	1.29e-03	0	61	0	471859200	54	5322
2026-01-15 10:41:24.46	216.51	39.01	-41.7	-44.8	11.2	1.29e-03	0	61	0	481296384	54	5310
2026-01-15 10:41:27.49	217.53	39.54	-41.8	-45.0	11.0	1.77e-03	0	61	0	490733568	54	5439
2026-01-15 10:41:30.52	218.59	40.06	-41.8	-45.2	10.9	2.28e-03	0	61	0	500170752	54	5529
2026-01-15 10:41:33.55	219.67	40.58	-41.8	-45.0	11.0	2.24e-03	0	61	0	509607936	54	5464
2026-01-15 10:41:36.57	220.79	41.10	-41.9	-45.3	10.7	2.50e-03	0	61	0	519045120	54	5635
2026-01-15 10:41:39.60	221.95	41.62	-42.1	-45.6	10.4	4.98e-03	0	61	0	528482304	54	5834
2026-01-15 10:41:42.63	223.14	42.12	-42.3	-46.0	9.9	8.11e-03	0	60	0	537919488	55	5734
2026-01-15 10:41:45.65	224.37	42.62	-42.2	-45.7	10.2	5.26e-03	0	61	0	547356672	55	5532
2026-01-15 10:41:48.68	225.64	43.11	-42.0	-45.3	10.7	3.27e-03	0	60	0	556793856	55	5298
2026-01-15 10:41:51.70	226.94	43.59	-41.9	-45.2	10.9	2.24e-03	0	60	0	566231040	55	5226
2026-01-15 10:41:54.73	228.29	44.07	-42.2	-45.8	10.2	5.73e-03	0	60	0	575668224	55	5593
2026-01-15 10:41:57.75	229.67	44.52	-42.0	-45.3	10.7	3.19e-03	0	60	0	585105408	55	5293
2026-01-15 10:42:00.78	231.10	44.97	-42.1	-45.5	10.5	4.44e-03	0	61	0	594542592	55	5437
2026-01-15 10:42:03.80	232.56	45.40	-42.2	-45.7	10.2	5.94e-03	0	61	0	603979776	55	5567
2026-01-15 10:42:06.83	234.06	45.81	-41.8	-44.9	11.0	2.09e-03	0	61	0	613416960	55	5098
2026-01-15 10:42:09.85	235.60	46.21	-41.7	-44.7	11.3	1.39e-03	0	60	0	622854144	55	4954
2026-01-15 10:42:12.88	237.18	46.59	-41.6	-44.7	11.3	1.33e-03	0	61	0	632291328	54	5239
2026-01-15 10:42:15.90	238.79	46.94	-41.7	-44.8	11.1	1.71e-03	0	61	0	641728512	54	5336
2026-01-15 10:42:18.92	240.44	47.28	-41.7	-44.8	11.1	1.34e-03	0	61	0	651165696	54	5319
2026-01-15 10:42:21.95	242.13	47.59	-41.9	-45.2	10.8	2.73e-03	0	60	0	660602880	54	5571
2026-01-15 10:42:24.97	243.84	47.88	-42.0	-45.3	10.7	2.92e-03	0	61	0	670040064	54	5635
2026-01-15 10:42:27.99	245.59	48.14	-41.6	-44.6	11.5	7.59e-04	0	61	0	679477248	54	5172
2026-01-15 10:42:31.02	247.37	48.37	-41.7	-44.8	11.2	1.89e-03	0	61	0	688914432	54	5327
2026-01-15 10:42:34.05	249.17	48.57	-41.5	-44.5	11.5	5.44e-04	0	60	0	698351616	54	5122
2026-01-15 10:42:37.08	250.99	48.75	-41.7	-44.7	11.3	1.34e-03	0	61	0	707788800	54	5277
2026-01-15 10:42:40.11	252.84	48.89	-41.6	-44.6	11.4	1.05e-03	0	60	0	717225984	54	5180
2026-01-15 10:42:43.14	254.69	49.01	-41.6	-44.6	11.4	7.48e-04	0	61	0	726663168	54	5202
2026-01-15 10:42:46.17	256.56	49.09	-41.8	-44.9	11.1	2.14e-03	0	61	0	736100352	54	5380
2026-01-15 10:42:49.20	258.44	49.14	-41.6	-44.7	11.3	1.35e-03	0	61	0	745537536	54	5242
2026-01-15 10:42:52.23	260.32	49.16	-41.4	-44.3	11.6	5.47e-04	0	61	0	754974720	54	5031
2026-01-15 10:42:55.26	262.21	49.14	-41.6	-44.7	11.3	1.21e-03	0	61	0	764411904	54	5232
2026-01-15 10:42:58.28	264.08	49.10	-41.5	-44.4	11.6	7.49e-04	0	61	0	773849088	54	5095
2026-01-15 10:43:01.31	265.95	49.02	-41.4	-44.3	11.7	4.52e-04	0	61	0	783286272	54	5017
2026-01-15 10:43:04.33	267.80	48.91	-41.7	-44.7	11.3	1.24e-03	0	60	0	792723456	54	5256
2026-01-15 10:43:07.36	269.64	48.76	-41.6	-44.6	11.4	8.09e-04	0	60	0	802160640	54	5181
2026-01-15 10:43:10.39	271.47	48.59	-42.0	-45.3	10.6	3.81e-03	0	60	0	811597824	54	5628
2026-01-15 10:43:13.42	273.27	48.39	-41.8	-44.9	11.0	1.70e-03	0	60	0	821035008	54	5390
2026-01-15 10:43:16.44	275.04	48.16	-42.4	-46.1	9.9	8.00e-03	0	61	0	830472192	55	5832
2026-01-15 10:43:19.47	276.79	47.90	-42.1	-45.6	10.4	5.33e-03	0	61	0	839909376	55	5488
2026-01-15 10:43:22.49	278.51	47.62	-41.9	-45.1	10.9	2.41e-03	0	61	0	849346560	55	5192
2026-01-15 10:43:25.52	280.19	47.31	-41.8	-45.0	10.9	2.33e-03	0	61	0	859832320	55	5116
2026-01-15 10:43:28.55	281.85	46.98	-41.4	-44.4	11.6	7.35e-04	0	61	0	868220928	54	5053
2026-01-15 10:43:31.57	283.46	46.62	-41.9	-45.2	10.8	2.93e-03	0	61	0	878706688	54	5564
2026-01-15 10:43:34.60	285.04	46.25	-41.7	-44.8	11.2	1.83e-03	0	61	0	888143872	54	5304
2026-01-15 10:43:37.63	286.58	45.86	-41.3	-44.0	12.0	3.04e-04	0	61	0	897581056	54	4853
2026-01-15 10:43:40.65	288.08	45.45	-41.5	-44.4	11.6	6.51e-04	0	61	0	907018240	54	5079
2026-01-15 10:43:43.67	289.54	45.02	-41.2	-44.0	11.9	3.39e-04	0	61	0	916455424	54	4860
2026-01-15 10:43:46.70	290.97	44.58	-41.7	-44.8	11.1	1.35e-03	0	61	0	925892608	54	5307
2026-01-15 10:43:49.72	292.35	44.12	-41.8	-44.9	10.9	2.10e-03	0	61	0	935329792	54	5379
2026-01-15 10:43:52.74	293.69	43.65	-41.8	-45.0	10.8	2.35e-03	0	61	0	944766976	54	5445
2026-01-15 10:43:55.77	295.00	43.18	-42.3	-45.9	9.9	8.17e-03	0	61	0	954204160	55	5691
2026-01-15 10:43:58.80	296.27	42.69	-42.2	-45.8	10.0	8.18e-03	0	61	0	963641344	55	5639
2026-01-15 10:44:01.82	297.50	42.19	-41.9	-45.1	10.8	2.77e-03	0	61	0	973078528	55	5181
2026-01-15 10:44:04.84	298.69	41.69	-41.9	-45.1	10.7	2.74e-03	0	61	0	982515712	55	5212
2026-01-15 10:44:07.86	299.84	41.18	-41.6	-44.6	11.3	1.24e-03	0	61	0	991952896	55	4902
2026-01-15 10:44:10.89	300.96	40.66	-41.4	-44.2	11.7	6.01e-04	0	61	0	1001390080	54	4976
2026-01-15 10:44:13.91	302.05	40.15	-41.6	-44.7	11.1	1.25e-03	0	61	0	1010827264	54	5257
2026-01-15 10:44:16.95	303.10	39.62	-41.7	-44.7	11.1	1.58e-03	0	61	0	1020264448	54	5267
2026-01-15 10:44:19.98	304.12	39.10	-41.7	-44.8	11.1	1.30e-03	0	61	0	1029701632	54	5293
2026-01-15 10:44:23.00	305.11	38.57	-41.9	-45.2	10.7	2.85e-03	0	61	0	1039138816	54	5556
2026-01-15 10:44:26.04	306.07	38.04	-41.7	-44.8	11.2	1.50e-03	0	61	0	1048576000	54	5292
2026-01-15 10:44:29.06	306.99	37.52	-40.7	-43.2	12.6	1.06e-04	0	61	0	1058013184	53	4699
2026-01-15 10:44:32.09	307.89	36.99	-40.9	-43.5	12.4	1.37e-04	0	61	0	1067450368	53	4842
2026-01-15 10:44:35.12	308.76	36.46	-40.8	-43.4	12.5	1.10e-04	0	61	0	1076887552	53	4784
2026-01-15 10:44:38.15	309.60	35.94	-40.9	-43.6	12.3	1.75e-04	0	61	0	1086324736	53	4899
2026-01-15 10:44:41.17	310.41	35.42	-40.7	-43.2	12.7	7.40e-05	0	61	0	1095761920	53	4703
2026-01-15 10:44:44.20	311.20	34.90	-40.7	-43.3	12.6	8.46e-05	0	61	0	1105199104	53	4733
2026-01-15 10:44:47.23	311.97	34.38	-41.1	-43.8	12.0	2.88e-04	0	61	0	1114636288	53	5029
2026-01-15 10:44:50.26	312.71	33.87	-40.9	-43.6	12.2	2.10e-04	0	61	0	1124073472	53	4909
2026-01-15 10:44:53.29	313.43	33.36	-40.8	-43.5	12.4	1.46e-04	0	61	0	1133510656	53	4821
2026-01-15 10:44:56.31	314.13	32.85	-40.9	-43.7	12.2	2.32e-04	0	61	0	1142947840	53	4957
2026-01-15 10:44:59.34	314.81	32.35	-40.8	-43.4	12.5	1.23e-04	0	61	0	1152385024	53	4782
2026-01-15 10:45:02.36	315.46	31.85	-40.5	-43.0	12.9	4.95e-05	0	60	0	1161822208	53	4574
2026-01-15 10:45:05.38	316.10	31.36	-40.4	-42.9	13.0	4.04e-05	0	61	0	1171259392	52	4774
2026-01-15 10:45:08.41	316.72	30.87	-40.2	-42.5	13.3	2.13e-05	0	61	0	1180696576	52	4577
2026-01-15 10:45:11.43	317.32	30.39	-40.3	-42.7	13.1	3.20e-05	0	61	0	1190133760	52	4704
2026-01-15 10:45:14.46	317.90	29.91	-40.4	-42.8	13.0	2.74e-05	0	61	0	1199570944	52	4743
2026-01-15 10:45:17.49	318.47	29.43	-40.3	-42.8	13.1	2.89e-05	0	61	0	1209008128	52	4714
2026-01-15 10:45:20.52	319.02	28.96	-40.2	-42.5	13.3	1.83e-05	0	61	0	1218445312	52	4575
2026-01-15 10:45:23.54	319.56	28.50	-40.2	-42.6	13.2	3.05e-05	0	61	0	1227882496	52	4628
2026-01-15 10:45:26.57	320.08	28.04	-40.4	-42.8	13.0	5.34e-05	0	61	0	1237319680	52	4736
2026-01-15 10:45:29.60	320.58	27.59	-40.1	-42.4	13.4	1.37e-05	0	61	0	1246756864	52	4538
2026-01-15 10:45:32.63	321.08	27.14	-39.9	-42.2	13.8	3.00e-06	0	61	0	1256194048	51	4652
2026-01-15 10:45:35.65	321.56	26.70	-40.1	-42.4	13.4	1.14e-05	0	61	0	1265631232	51	4809
2026-01-15 10:45:38.67	322.02	26.26	-40.1	-42.5	13.4	8.30e-06	0	61	0	1275068416	51	4830
2026-01-15 10:45:41.69	322.47	25.83	-40.0	-42.3	13.6	9.10e-06	0	61	0	1284505600	51	4726
2026-01-15 10:45:44.72	322.92	25.40	-39.9	-42.2	13.7	3.80e-06	0	61	0	1293942784	51	4664
2026-01-15 10:45:47.75	323.35	24.98	-39.7	-41.8	14.0	4.50e-06	0	61	0	1303379968	51	4479
2026-01-15 10:45:50.77	323.77	24.56	-39.8	-42.0	13.7	5.30e-06	0	60	0	1312817152	51	4588
2026-01-15 10:45:53.80	324.18	24.15	-39.8	-42.0	13.8	9.10e-06	0	61	0	1322254336	51	4568
2026-01-15 10:45:56.83	324.58	23.74	-39.9	-42.1	13.7	7.60e-06	0	61	0	1331691520	51	4630
2026-01-15 10:45:59.86	324.97	23.34	-39.9	-42.2	13.6	1.06e-05	0	61	0	1341128704	51	4656
2026-01-15 10:46:02.89	325.35	22.94	-39.9	-42.1	13.6	9.10e-06	0	61	0	1350565888	51	4628
2026-01-15 10:46:05.92	325.72	22.54	-40.0	-42.4	13.3	1.44e-05	0	61	0	1360003072	51	4762
2026-01-15 10:46:08.95	326.08	22.16	-40.1	-42.4	13.2	1.44e-05	0	61	0	1370488832	51	4814
2026-01-15 10:46:11.98	326.44	21.77	-40.1	-42.5	13.2	1.67e-05	0	61	0	1379926016	51	4827
2026-01-15 10:46:15.01	326.78	21.40	-40.3	-42.7	13.0	2.67e-05	0	61	0	1389363200	51	4951
2026-01-15 10:46:18.04	327.12	21.02	-40.3	-42.8	12.9	4.42e-05	0	61	0	1398800384	51	5022
2026-01-15 10:46:21.07	327.45	20.65	-40.4	-42.9	12.8	5.56e-05	0	61	0	1408237568	51	5096
2026-01-15 10:46:24.10	327.77	20.29	-40.4	-42.9	12.8	6.48e-05	0	61	0	1417674752	51	5093
2026-01-15 10:46:27.13	328.09	19.93	-40.2	-42.6	13.1	2.97e-05	0	60	0	1427111936	51	4910
2026-01-15 10:46:30.16	328.40	19.57	-40.1	-42.5	13.1	2.97e-05	0	61	0	1436549120	51	4845
2026-01-15 10:46:33.19	328.70	19.22	-40.1	-42.6	13.1	2.67e-05	0	61	0	1445986304	51	4875
2026-01-15 10:46:36.22	328.99	18.87	-40.0	-42.4	13.1	3.89e-05	0	60	0	1455423488	51	4803
2026-01-15 10:46:39.25	329.28	18.53	-40.0	-42.4	13.1	1.75e-05	0	60	0	1464860672	51	4803
2026-01-15 10:46:42.28	329.56	18.19	-40.0	-42.4	13.2	1.83e-05	0	61	0	1474297856	51	4760
2026-01-15 10:46:45.31	329.84	17.85	-39.8	-42.1	13.4	1.44e-05	0	60	0	1483735040	51	4640
2026-01-15 10:46:48.34	330.11	17.52	-40.0	-42.4	13.2	2.51e-05	0	61	0	1493172224	51	4781
2026-01-15 10:46:51.37	330.38	17.20	-40.3	-42.8	12.7	6.56e-05	0	61	0	1502609408	51	5019
2026-01-15 10:46:54.40	330.64	16.87	-40.4	-43.0	12.5	1.26e-04	0	61	0	1512046592	51	5145
2026-01-15 10:46:57.43	330.89	16.55	-40.6	-43.3	12.2	2.59e-04	0	61	0	1521483776	51	5316
2026-01-15 10:47:00.46	331.14	16.24	-40.7	-43.5	12.0	3.64e-04	0	61	0	1530920960	51	5412
2026-01-15 10:47:03.49	331.38	15.92	-40.7	-43.5	11.8	5.03e-04	0	61	0	1540358144	52	5159
2026-01-15 10:47:06.52	331.62	15.61	-40.5	-43.3	12.0	3.62e-04	0	61	0	1549795328	52	5021
2026-01-15 10:47:09.55	331.86	15.31	-40.5	-43.4	11.9	4.60e-04	0	61	0	1559232512	52	5066
2026-01-15 10:47:12.58	332.09	15.01	-40.5	-43.3	11.9	3.85e-04	0	61	0	1568669696	52	5007
2026-01-15 10:47:15.61	332.32	14.71	-40.6	-43.5	11.7	6.35e-04	0	61	0	1578106880	52	5118
2026-01-15 10:47:18.64	332.54	14.41	-40.7	-43.6	11.5	7.35e-04	0	60	0	1587544064	52	5202
2026-01-15 10:47:21.66	332.76	14.12	-40.6	-43.5	11.7	5.80e-04	0	61	0	1596981248	52	5127
2026-01-15 10:47:24.69	332.97	13.83	-40.6	-43.6	11.6	6.11e-04	0	61	0	1606418432	52	5170
2026-01-15 10:47:27.71	333.18	13.55	-40.4	-43.2	12.0	3.55e-04	0	61	0	1615855616	52	4941
2026-01-15 10:47:30.74	333.39	13.26	-40.3	-43.2	11.9	4.13e-04	0	61	0	1625292800	52	4930
2026-01-15 10:47:33.77	333.59	12.98	-40.5	-43.5	11.6	6.72e-04	0	61	0	1634729984	52	5105
2026-01-15 10:47:36.80	333.79	12.71	-40.6	-43.6	11.4	9.15e-04	0	61	0	1644167168	52	5200
2026-01-15 10:47:39.82	333.99	12.43	-40.6	-43.7	11.3	1.31e-03	0	61	0	1653604352	52	5265
2026-01-15 10:47:42.85	334.18	12.16	-40.7	-43.9	11.1	1.67e-03	0	61	0	1663041536	52	5381
2026-01-15 10:47:45.88	334.37	11.89	-40.7	-43.9	11.0	1.78e-03	0	60	0	1672478720	52	5373
2026-01-15 10:47:48.91	334.55	11.63	-40.6	-43.7	11.1	1.56e-03	0	61	0	1681915904	52	5273
2026-01-15 10:47:51.94	334.74	11.36	-40.7	-43.9	11.0	1.88e-03	0	61	0	1691353088	52	5351
2026-01-15 10:47:54.97	334.92	11.10	-40.6	-43.7	11.1	1.61e-03	0	61	0	1700790272	52	5244
2026-01-15 10:47:58.00	335.09	10.84	-40.7	-44.0	10.7	3.17e-03	0	61	0	1711276032	52	5461
2026-01-15 10:48:01.03	335.27	10.59	-40.6	-43.9	10.7	2.79e-03	0	61	0	1720713216	52	5357
2026-01-15 10:48:04.06	335.44	10.33	-40.7	-44.1	10.5	4.14e-03	0	61	0	1730150400	52	5503
2026-01-15 10:48:07.08	335.61	10.08	-40.6	-44.0	10.5	4.18e-03	0	61	0	1739587584	52	5438
2026-01-15 10:48:10.11	335.78	9.83	-40.8	-44.3	10.1	6.87e-03	0	61	0	1749024768	52	5655
2026-01-15 10:48:13.13	335.94	9.59	-40.6	-44.1	10.3	6.03e-03	0	61	0	1758461952	52	5498
2026-01-15 10:48:16.16	336.10	9.34	-40.6	-44.1	10.2	5.90e-03	0	61	0	1767899136	52	5527
2026-01-15 10:48:19.19	336.26	9.10	-40.8	-44.4	9.8	9.56e-03	0	61	0	1777336320	52	5711
2026-01-15 10:48:22.22	336.41	8.86	-40.8	-44.6	9.5	1.40e-02	0	61	0	1786773504	52	5833
2026-01-15 10:48:25.25	336.57	8.62	-40.6	-44.2	9.9	8.63e-03	0	61	0	1796210688	52	5581
2026-01-15 10:48:28.28	336.72	8.39	-40.7	-44.5	9.6	1.21e-02	0	61	0	1805647872	52	5752
2026-01-15 10:48:31.31	336.87	8.15	-40.9	-44.8	9.1	2.13e-02	0	61	0	1815085056	52	5988
2026-01-15 10:48:34.33	337.02	7.92	-44.1	-55.2	3.8	1.49e+00	0	61	104	1821376512	58	13997
2026-01-15 10:48:37.36	337.16	7.69	-45.0	-57.3	3.8	1.49e+00	0	61	104	1821376512	60	15878
2026-01-15 10:48:40.39	337.31	7.47	-45.3	-57.6	3.8	1.49e+00	0	61	104	1821376512	61	15499
2026-01-15 10:48:43.42	337.45	7.24	-44.1	-57.4	3.8	1.49e+00	0	61	104	1821376512	60	16111
2026-01-15 10:48:46.45	337.59	7.02	-45.3	-57.6	3.8	1.49e+00	0	61	104	1821376512	61	15483
2026-01-15 10:48:49.48	337.72	6.79	-45.2	-57.5	3.8	1.49e+00	0	61	104	1821376512	61	15372
2026-01-15 10:48:52.51	337.86	6.57	-45.3	-57.6	3.8	1.49e+00	0	61	104	1821376512	61	15427
2026-01-15 10:48:55.54	337.99	6.36	-45.2	-57.5	3.8	1.49e+00	0	61	104	1821376512	61	15381
2026-01-15 10:48:58.57	338.13	6.14	-45.2	-57.5	3.8	1.49e+00	0	61	104	1821376512	61	15334
2026-01-15 10:49:01.60	338.26	5.92	-45.0	-57.5	3.8	1.49e+00	0	61	104	1821376512	61	15262
2026-01-15 10:49:04.63	338.38	5.71	-45.2	-57.5	3.8	1.49e+00	0	61	104	1821376512	61	15281
2026-01-15 10:49:07.66	338.51	5.50	-45.2	-57.5	3.8	1.49e+00	0	61	104	1821376512	61	15308
2026-01-15 10:49:10.69	338.64	5.29	-45.1	-57.5	3.8	1.49e+00	0	61	104	1821376512	60	16152
2026-01-15 10:49:13.72	338.76	5.08	-45.2	-57.5	3.8	1.49e+00	0	61	104	1821376512	60	16217
2026-01-15 10:49:16.75	338.88	4.87	-45.2	-57.5	3.8	1.49e+00	0	61	104	1821376512	61	15291
2026-01-15 10:49:19.77	339.00	4.67	-44.9	-57.5	3.8	1.49e+00	0	61	104	1821376512	61	15240
2026-01-15 10:49:22.81	339.12	4.46	-45.2	-57.5	3.8	1.49e+00	0	61	104	1821376512	61	15256
2026-01-15 10:49:25.83	339.24	4.26	-45.2	-57.5	3.8	1.49e+00	0	61	104	1821376512	60	16209
2026-01-15 10:49:28.87	339.36	4.06	-45.2	-57.5	3.8	1.49e+00	0	61	104	1821376512	60	16156
2026-01-15 10:49:31.90	339.47	3.86	-45.2	-57.5	3.8	1.49e+00	0	61	104	1821376512	60	16216
2026-01-15 10:49:34.93	339.58	3.66	-45.2	-57.5	3.8	1.49e+00	0	61	104	1821376512	60	16182
2026-01-15 10:49:37.96	339.70	3.46	-45.2	-57.4	3.8	1.49e+00	0	61	104	1821376512	60	16111
2026-01-15 10:49:40.99	339.81	3.27	-45.2	-57.4	3.8	1.49e+00	0	61	104	1821376512	60	16114
2026-01-15 10:49:44.02	339.92	3.07	-45.2	-57.5	3.8	1.49e+00	0	61	104	1821376512	60	16192
2026-01-15 10:49:47.04	340.02	2.88	-45.2	-57.4	3.8	1.49e+00	0	61	104	1821376512	60	16063
2026-01-15 10:49:50.07	340.13	2.69	-45.2	-57.4	3.8	1.49e+00	0	61	104	1821376512	60	16111
2026-01-15 10:49:53.10	340.24	2.50	-45.2	-57.5	3.8	1.49e+00	0	61	104	1821376512	60	16133
2026-01-15 10:49:56.13	340.34	2.31	-45.2	-57.4	3.8	1.49e+00	0	61	104	1821376512	60	16126
2026-01-15 10:49:59.15	340.45	2.12	-44.8	-57.5	3.8	1.49e+00	0	61	104	1821376512	60	16160

#Closed at: 2026-01-15 10:50:01
#Recorded file [1821 MB]: D:/lorett/data/31039_260115_133816.dat