passes_logs/2026/01/15/R2.0S_Moscow/R2.0S_Moscow__20260115_110552_SUOMI_NPP_rec.log

#Pass ID: 20260115_110552_SUOMI NPP
#Satellite: SUOMI NPP
#Configuration: NPP
#almurnet v.1.7.20251203
#Start time: 2026-01-15 11:05:52

#Version: 2.2.20231116
#Station: R2.0S_Moscow
#Location: 37.707566 lon 55.798166 lat
#TLE: 1 37849U 11061A   26014.11719687  .00000048  00000+0  43625-4 0  9998
#TLE: 2 37849  98.7809 316.1734 0002474  65.2440 294.8994 14.19525043736585

#Time	Az	El	Level	Level2	SNR	BER	BlckErr	Temp	State	Recorded	gain1	gain2
2026-01-15 11:05:52.93	193.49	2.00	-43.3	-57.6	3.8	1.49e+00	0	51	0	0	58	18345
2026-01-15 11:05:56.96	193.70	2.24	-43.3	-57.5	3.8	1.49e+00	0	51	104	0	58	18271
2026-01-15 11:06:01.00	193.92	2.48	-43.3	-57.5	3.8	1.49e+00	0	52	104	0	58	18240
2026-01-15 11:06:05.04	194.14	2.73	-43.3	-57.5	3.8	1.49e+00	0	52	104	0	58	18206
2026-01-15 11:06:09.08	194.36	2.98	-43.3	-57.5	3.8	1.49e+00	0	52	104	0	58	18168
2026-01-15 11:06:13.13	194.59	3.23	-43.3	-57.5	3.8	1.49e+00	0	52	104	0	58	18098
2026-01-15 11:06:17.17	194.82	3.48	-43.3	-57.5	3.8	1.49e+00	0	53	104	0	58	18160
2026-01-15 11:06:21.21	195.06	3.73	-43.2	-57.5	3.8	1.49e+00	0	53	104	0	58	18192
2026-01-15 11:06:25.24	195.29	3.98	-43.2	-57.5	3.8	1.49e+00	0	53	104	0	58	18112
2026-01-15 11:06:29.28	195.53	4.24	-43.2	-57.4	3.8	1.49e+00	0	53	104	0	58	18057
2026-01-15 11:06:33.32	195.78	4.50	-43.2	-57.4	3.8	1.49e+00	0	54	104	0	58	17968
2026-01-15 11:06:37.35	196.03	4.76	-43.2	-57.3	3.8	1.49e+00	0	54	104	0	58	17785
2026-01-15 11:06:41.40	196.29	5.02	-43.2	-57.2	3.8	1.49e+00	0	54	104	0	58	17683
2026-01-15 11:06:45.44	196.54	5.29	-43.2	-57.1	3.8	1.49e+00	0	55	104	0	58	17368
2026-01-15 11:06:49.48	196.81	5.56	-43.2	-56.7	3.8	1.49e+00	0	55	104	0	58	16528
2026-01-15 11:06:53.51	197.08	5.83	-43.1	-55.8	3.8	1.49e+00	0	55	104	0	58	15051
2026-01-15 11:06:57.55	197.35	6.10	-43.0	-54.7	4.0	1.47e+00	0	55	104	0	58	13203
2026-01-15 11:07:01.59	197.63	6.37	-42.9	-53.8	4.2	1.40e+00	0	55	0	0	57	12656
2026-01-15 11:07:05.62	197.91	6.65	-42.9	-54.1	4.1	1.42e+00	0	55	0	0	57	13105
2026-01-15 11:07:09.66	198.20	6.93	-43.0	-54.9	3.8	1.48e+00	0	56	104	0	57	14227
2026-01-15 11:07:13.70	198.49	7.21	-42.8	-52.6	4.6	1.08e+00	0	56	0	2097152	57	10923
2026-01-15 11:07:17.74	198.79	7.49	-42.3	-49.7	6.4	3.11e-01	0	56	0	9437184	56	8286
2026-01-15 11:07:21.78	199.10	7.78	-42.0	-48.6	7.4	1.22e-01	0	56	0	16777216	56	7303
2026-01-15 11:07:25.81	199.41	8.07	-43.0	-50.3	6.8	1.34e-01	0	56	0	24117248	56	8882
2026-01-15 11:07:29.85	199.72	8.36	-42.6	-52.9	4.6	1.12e-01	0	56	0	29360128	55	12718
2026-01-15 11:07:33.88	200.04	8.65	-41.4	-48.0	7.3	9.26e-02	0	56	0	34603008	54	7668
2026-01-15 11:07:37.92	200.37	8.95	-40.2	-47.7	6.2	2.57e-01	0	56	0	41943040	52	8357
2026-01-15 11:07:41.96	200.71	9.25	-40.7	-47.5	7.1	1.46e-01	0	57	0	50331648	52	8088
2026-01-15 11:07:45.99	201.05	9.55	-41.5	-47.4	8.4	5.29e-02	0	57	0	57671680	53	7588
2026-01-15 11:07:50.03	201.40	9.86	-40.6	-47.4	7.8	6.49e-02	0	57	0	65011712	53	7563
2026-01-15 11:07:54.07	201.76	10.17	-40.0	-46.9	8.1	6.65e-02	0	57	0	72351744	51	8030
2026-01-15 11:07:58.11	202.12	10.48	-40.3	-46.9	8.6	4.61e-02	0	57	0	80740352	51	8077
2026-01-15 11:08:02.14	202.49	10.79	-40.9	-47.1	8.9	2.27e-02	0	57	0	88080384	52	7802
2026-01-15 11:08:06.18	202.87	11.11	-40.5	-46.8	8.5	3.79e-02	0	57	0	95420416	52	7512
2026-01-15 11:08:10.21	203.25	11.43	-40.0	-46.8	7.5	1.07e-01	0	57	0	102760448	51	7926
2026-01-15 11:08:14.25	203.65	11.75	-39.8	-46.7	7.2	1.34e-01	0	57	0	110100480	51	7849
2026-01-15 11:08:18.29	204.05	12.08	-40.3	-46.6	7.9	8.60e-02	0	57	0	118489088	51	7808
2026-01-15 11:08:22.33	204.47	12.41	-41.2	-46.5	9.7	1.46e-02	0	58	0	125829120	53	6811
2026-01-15 11:08:26.37	204.89	12.74	-41.6	-46.0	11.1	1.88e-03	0	58	0	133169152	53	6477
2026-01-15 11:08:30.40	205.32	13.08	-41.8	-46.0	11.3	1.01e-03	0	58	0	140509184	54	6090
2026-01-15 11:08:34.44	205.76	13.42	-41.9	-46.0	11.5	7.81e-04	0	58	0	148897792	54	6123
2026-01-15 11:08:38.48	206.21	13.76	-42.2	-46.5	11.2	1.27e-03	0	58	0	156237824	55	6118
2026-01-15 11:08:42.52	206.67	14.11	-42.1	-46.4	11.3	1.19e-03	0	58	0	163577856	55	6018
2026-01-15 11:08:46.56	207.14	14.46	-42.1	-46.2	11.6	6.40e-04	0	58	0	170917888	55	5882
2026-01-15 11:08:50.60	207.62	14.81	-41.8	-45.6	12.2	2.00e-04	0	58	0	178257920	55	5512
2026-01-15 11:08:54.64	208.12	15.17	-41.8	-45.5	12.3	2.14e-04	0	58	0	186646528	55	5444
2026-01-15 11:08:58.67	208.62	15.52	-42.1	-46.3	11.5	5.19e-04	0	58	0	193986560	55	5940
2026-01-15 11:09:02.70	209.14	15.89	-42.2	-46.5	11.4	1.03e-03	0	58	0	201326592	55	6085
2026-01-15 11:09:06.73	209.67	16.25	-42.4	-46.9	11.0	1.39e-03	0	59	0	208666624	55	6356
2026-01-15 11:09:10.77	210.21	16.62	-42.3	-46.7	11.2	1.53e-03	0	59	0	216006656	55	6218
2026-01-15 11:09:14.81	210.76	16.99	-42.1	-46.2	11.7	9.64e-04	0	59	0	224395264	55	5873
2026-01-15 11:09:18.84	211.33	17.37	-42.3	-46.4	11.5	8.85e-04	0	59	0	231735296	55	6037
2026-01-15 11:09:22.88	211.91	17.74	-42.5	-47.1	10.8	1.74e-03	0	59	0	239075328	55	6532
2026-01-15 11:09:26.91	212.51	18.12	-42.4	-46.6	11.3	1.06e-03	0	59	0	246415360	55	6191
2026-01-15 11:09:30.95	213.12	18.51	-42.4	-46.6	11.4	1.25e-03	0	59	0	254803968	55	6150
2026-01-15 11:09:34.99	213.75	18.89	-42.5	-46.9	11.1	1.63e-03	0	59	0	262144000	55	6370
2026-01-15 11:09:39.03	214.39	19.28	-42.6	-47.1	10.8	1.93e-03	0	59	0	269484032	55	6551
2026-01-15 11:09:43.07	215.05	19.68	-42.7	-47.4	10.6	3.17e-03	0	59	0	276824064	55	6737
2026-01-15 11:09:47.11	215.72	20.07	-42.9	-47.6	10.6	4.12e-03	0	59	0	284164096	56	6526
2026-01-15 11:09:51.14	216.41	20.47	-42.6	-46.9	11.2	1.33e-03	0	59	0	292552704	56	6052
2026-01-15 11:09:55.18	217.12	20.86	-42.4	-46.4	11.7	4.94e-04	0	59	0	299892736	56	5717
2026-01-15 11:09:59.22	217.85	21.26	-42.3	-46.3	12.0	4.13e-04	0	59	0	307232768	56	5596
2026-01-15 11:10:03.26	218.60	21.67	-41.7	-45.2	12.9	6.10e-05	0	59	0	314572800	55	5221
2026-01-15 11:10:07.29	219.36	22.07	-41.4	-44.7	13.5	1.06e-05	0	59	0	322961408	54	5224
2026-01-15 11:10:11.32	220.15	22.47	-41.5	-44.8	13.3	1.98e-05	0	59	0	330301440	54	5339
2026-01-15 11:10:15.36	220.96	22.88	-41.7	-45.2	12.9	4.57e-05	0	59	0	337641472	54	5539
2026-01-15 11:10:19.40	221.78	23.29	-41.8	-45.3	12.8	6.33e-05	0	59	0	344981504	54	5642
2026-01-15 11:10:23.44	222.63	23.69	-41.7	-45.1	13.0	4.50e-05	0	59	0	352321536	54	5525
2026-01-15 11:10:27.48	223.50	24.10	-41.3	-44.4	13.6	1.14e-05	0	59	0	360710144	54	5098
2026-01-15 11:10:31.51	224.39	24.50	-41.3	-44.5	13.6	6.80e-06	0	59	0	368050176	54	5131
2026-01-15 11:10:35.55	225.31	24.91	-41.6	-45.1	13.1	2.05e-05	0	59	0	375390208	54	5471
2026-01-15 11:10:39.59	226.24	25.31	-41.5	-44.9	13.3	4.50e-05	0	60	0	382730240	54	5348
2026-01-15 11:10:43.62	227.20	25.71	-41.4	-44.6	13.5	9.10e-06	0	60	0	391118848	54	5214
2026-01-15 11:10:47.66	228.19	26.11	-41.7	-45.2	12.9	5.11e-05	0	59	0	398458880	54	5556
2026-01-15 11:10:51.70	229.20	26.50	-41.9	-45.4	12.7	5.56e-05	0	60	0	405798912	54	5715
2026-01-15 11:10:55.73	230.23	26.89	-42.4	-46.4	11.7	4.26e-04	0	60	0	413138944	55	6018
2026-01-15 11:10:59.77	231.29	27.28	-42.4	-46.5	11.6	7.22e-04	0	60	0	420478976	55	6115
2026-01-15 11:11:03.80	232.37	27.66	-42.9	-47.5	10.7	3.02e-03	0	60	0	428867584	56	6433
2026-01-15 11:11:07.83	233.48	28.04	-43.1	-48.1	10.2	7.37e-03	0	59	0	436207616	57	6496
2026-01-15 11:11:11.87	234.62	28.41	-43.3	-48.4	9.7	1.11e-02	0	60	0	443547648	57	6780
2026-01-15 11:11:15.91	235.78	28.77	-43.3	-48.4	9.8	9.53e-03	0	60	0	450887680	57	6787
2026-01-15 11:11:19.95	236.97	29.12	-43.5	-48.9	9.2	1.65e-02	0	60	0	459276288	57	7198
2026-01-15 11:11:23.99	238.18	29.47	-43.8	-50.0	8.2	5.19e-02	0	60	0	466616320	58	7659
2026-01-15 11:11:28.02	239.41	29.80	-43.5	-49.0	9.2	2.00e-02	0	60	0	473956352	58	6820
2026-01-15 11:11:32.05	240.67	30.12	-43.7	-49.5	8.7	2.65e-02	0	60	0	481296384	58	7260
2026-01-15 11:11:36.09	241.96	30.43	-44.0	-50.5	7.7	1.01e-01	0	60	0	488636416	58	8131
2026-01-15 11:11:40.13	243.27	30.73	-43.3	-48.4	9.8	8.38e-03	0	60	0	497025024	58	6383
2026-01-15 11:11:44.17	244.61	31.02	-43.7	-49.3	8.8	2.80e-02	0	60	0	504365056	58	7118
2026-01-15 11:11:48.21	245.97	31.29	-43.2	-48.1	10.2	8.75e-03	0	60	0	511705088	58	6157
2026-01-15 11:11:52.25	247.35	31.54	-43.6	-49.3	8.9	2.23e-02	0	60	0	519045120	57	7509
2026-01-15 11:11:56.29	248.75	31.78	-43.7	-49.5	8.7	3.14e-02	0	60	0	527433728	58	7278
2026-01-15 11:12:00.32	250.16	32.01	-42.7	-46.9	11.3	1.21e-03	0	60	0	534773760	57	5719
2026-01-15 11:12:04.36	251.60	32.21	-43.6	-49.1	9.0	1.99e-02	0	60	0	542113792	57	7371
2026-01-15 11:12:08.39	253.05	32.40	-43.3	-48.4	9.8	9.75e-03	0	60	0	549453824	57	6740
2026-01-15 11:12:12.42	254.52	32.56	-43.2	-48.0	10.3	4.68e-03	0	60	0	556793856	57	6448
2026-01-15 11:12:16.46	256.01	32.71	-44.1	-51.0	7.2	1.34e-01	0	60	0	565182464	58	8612
2026-01-15 11:12:20.49	257.50	32.83	-43.6	-49.1	9.0	2.90e-02	0	60	0	572522496	58	6953
2026-01-15 11:12:24.53	259.01	32.94	-43.4	-48.6	9.5	1.33e-02	0	60	0	579862528	58	6567
2026-01-15 11:12:28.57	260.52	33.02	-43.5	-48.8	9.4	1.94e-02	0	60	0	587202560	58	6680
2026-01-15 11:12:32.61	262.04	33.09	-43.0	-47.5	10.7	2.94e-03	0	60	0	594542592	57	6117
2026-01-15 11:12:36.65	263.57	33.13	-43.3	-48.2	10.0	7.89e-03	0	60	0	602931200	57	6616
2026-01-15 11:12:40.68	265.10	33.14	-43.4	-48.6	9.6	1.17e-02	0	60	0	610271232	57	6930
2026-01-15 11:12:44.73	266.63	33.14	-43.1	-47.7	10.5	4.01e-03	0	60	0	617611264	57	6260
2026-01-15 11:12:48.76	268.15	33.11	-43.0	-47.6	10.6	4.33e-03	0	60	0	624951296	57	6169
2026-01-15 11:12:52.80	269.68	33.06	-43.5	-48.8	9.4	1.66e-02	0	60	0	633339904	57	7110
2026-01-15 11:12:56.84	271.20	32.99	-43.1	-47.7	10.5	6.15e-03	0	60	0	640679936	57	6243
2026-01-15 11:13:00.88	272.71	32.90	-42.3	-46.0	12.3	1.40e-04	0	60	0	648019968	56	5459
2026-01-15 11:13:04.91	274.21	32.79	-43.1	-47.8	10.5	4.13e-03	0	60	0	655360000	56	6655
2026-01-15 11:13:08.94	275.69	32.65	-43.4	-48.6	9.7	1.00e-02	0	60	0	662700032	57	6894
2026-01-15 11:13:12.98	277.17	32.50	-42.9	-47.5	10.9	1.87e-03	0	60	0	671088640	57	6065
2026-01-15 11:13:17.01	278.63	32.33	-42.9	-47.3	11.0	2.94e-03	0	60	0	678428672	57	5987
2026-01-15 11:13:21.05	280.07	32.13	-42.7	-47.0	11.2	2.42e-03	0	60	0	685768704	57	5765
2026-01-15 11:13:25.09	281.50	31.92	-43.3	-48.4	9.8	6.53e-03	0	60	0	693108736	57	6732
2026-01-15 11:13:29.13	282.91	31.69	-43.0	-47.6	10.7	2.38e-03	0	60	0	701497344	57	6132
2026-01-15 11:13:33.17	284.30	31.45	-42.7	-46.9	11.3	1.48e-03	0	60	0	708837376	57	5707
2026-01-15 11:13:37.20	285.66	31.19	-42.7	-46.8	11.4	7.72e-04	0	60	0	716177408	56	5976
2026-01-15 11:13:41.24	287.01	30.91	-42.5	-46.4	11.8	4.20e-04	0	60	0	723517440	56	5695
2026-01-15 11:13:45.28	288.33	30.62	-42.8	-47.1	11.1	1.54e-03	0	60	0	730857472	56	6166
2026-01-15 11:13:49.32	289.63	30.32	-42.8	-47.2	11.0	1.20e-03	0	60	0	739246080	56	6265
2026-01-15 11:13:53.36	290.90	30.01	-43.0	-47.5	10.6	2.82e-03	0	60	0	746586112	56	6479
2026-01-15 11:13:57.39	292.15	29.68	-42.8	-47.2	11.0	1.49e-03	0	60	0	753926144	56	6244
2026-01-15 11:14:01.43	293.37	29.34	-42.8	-47.1	11.2	1.11e-03	0	60	0	761266176	56	6145
2026-01-15 11:14:05.46	294.57	29.00	-43.4	-48.7	9.4	1.20e-02	0	60	0	768606208	57	7032
2026-01-15 11:14:09.50	295.74	28.64	-43.2	-48.3	9.9	6.89e-03	0	60	0	776994816	57	6659
2026-01-15 11:14:13.53	296.89	28.28	-43.5	-48.9	9.2	1.11e-02	0	60	0	784334848	57	7183
2026-01-15 11:14:17.56	298.00	27.92	-43.7	-49.8	8.3	5.59e-02	0	60	0	791674880	58	7512
2026-01-15 11:14:21.60	299.10	27.54	-43.4	-48.6	9.5	1.28e-02	0	60	0	799014912	58	6531
2026-01-15 11:14:25.63	300.17	27.16	-43.7	-49.8	8.3	5.54e-02	0	60	0	807403520	58	7494
2026-01-15 11:14:29.67	301.22	26.77	-44.0	-50.8	7.3	8.46e-02	0	61	0	814743552	58	8370
2026-01-15 11:14:33.70	302.24	26.38	-43.2	-48.3	9.8	1.73e-02	0	60	0	822083584	58	6332
2026-01-15 11:14:37.74	303.23	25.99	-43.9	-50.6	7.5	8.37e-02	0	60	0	829423616	58	8217
2026-01-15 11:14:41.77	304.20	25.60	-43.4	-48.9	9.0	2.92e-02	0	61	0	836763648	58	6801
2026-01-15 11:14:45.81	305.15	25.20	-44.1	-51.2	6.9	1.99e-01	0	60	0	845152256	58	8822
2026-01-15 11:14:49.84	306.08	24.80	-43.2	-48.3	9.8	1.61e-02	0	60	0	852492288	58	6284
2026-01-15 11:14:53.88	306.98	24.40	-43.4	-49.0	9.0	1.42e-02	0	61	0	859832320	57	7279
2026-01-15 11:14:57.93	307.86	23.99	-43.0	-47.9	10.2	6.91e-03	0	61	0	867172352	57	6354
2026-01-15 11:15:01.95	308.72	23.59	-43.3	-48.7	9.4	1.47e-02	0	61	0	874512384	57	6998
2026-01-15 11:15:05.99	309.55	23.19	-42.8	-47.3	10.7	3.48e-03	0	60	0	882900992	57	5972
2026-01-15 11:15:10.03	310.37	22.78	-43.1	-48.3	9.7	7.42e-03	0	60	0	890241024	57	6658
2026-01-15 11:15:14.05	311.16	22.38	-43.0	-48.0	10.0	1.04e-02	0	60	0	897581056	57	6459
2026-01-15 11:15:18.08	311.94	21.98	-42.6	-46.9	11.1	1.67e-03	0	60	0	904921088	57	5706
2026-01-15 11:15:22.12	312.69	21.58	-42.6	-47.1	11.0	2.07e-03	0	60	0	913309696	57	5798
2026-01-15 11:15:26.15	313.43	21.19	-42.3	-46.4	11.7	4.81e-04	0	61	0	920649728	56	5664
2026-01-15 11:15:30.19	314.15	20.79	-42.7	-47.2	10.7	3.49e-03	0	60	0	927989760	56	6236
2026-01-15 11:15:34.22	314.85	20.40	-42.2	-46.0	12.0	3.43e-04	0	60	0	935329792	56	5455
2026-01-15 11:15:38.26	315.53	20.00	-41.7	-45.3	12.6	8.46e-05	0	61	0	942669824	55	5306
2026-01-15 11:15:42.30	316.20	19.61	-42.2	-46.2	11.6	5.38e-04	0	60	0	951058432	55	5916
2026-01-15 11:15:46.34	316.85	19.23	-42.0	-45.9	12.0	3.68e-04	0	61	0	958398464	55	5682
2026-01-15 11:15:50.38	317.49	18.84	-41.9	-45.7	12.1	2.88e-04	0	60	0	965738496	55	5574
2026-01-15 11:15:54.42	318.11	18.46	-41.9	-45.8	12.0	3.20e-04	0	61	0	973078528	55	5617
2026-01-15 11:15:58.46	318.72	18.08	-41.7	-45.4	12.4	1.82e-04	0	60	0	980418560	55	5354
2026-01-15 11:16:02.49	319.31	17.70	-41.7	-45.5	12.3	1.61e-04	0	60	0	988807168	55	5412
2026-01-15 11:16:06.53	319.88	17.33	-41.8	-45.7	12.1	2.61e-04	0	61	0	996147200	55	5552
2026-01-15 11:16:10.56	320.44	16.96	-41.8	-45.6	12.1	2.47e-04	0	60	0	1003487232	55	5483
2026-01-15 11:16:14.60	320.99	16.59	-41.3	-44.7	13.1	3.96e-05	0	61	0	1010827264	54	5233
2026-01-15 11:16:18.63	321.53	16.23	-41.8	-45.6	12.1	1.60e-04	0	61	0	1019215872	54	5853
2026-01-15 11:16:22.67	322.06	15.87	-42.5	-47.2	10.5	3.19e-03	0	61	0	1026555904	55	6616
2026-01-15 11:16:26.70	322.57	15.51	-42.5	-47.1	10.5	3.30e-03	0	61	0	1033895936	55	6527
2026-01-15 11:16:30.74	323.07	15.15	-42.0	-46.2	11.5	1.17e-03	0	60	0	1041235968	55	5871
2026-01-15 11:16:34.77	323.56	14.80	-42.2	-46.5	11.1	1.04e-03	0	60	0	1048576000	55	6108
2026-01-15 11:16:38.81	324.04	14.45	-42.4	-47.1	10.5	4.89e-03	0	60	0	1056964608	55	6513
2026-01-15 11:16:42.85	324.50	14.11	-42.7	-47.8	9.7	9.61e-03	0	60	0	1064304640	55	7096
2026-01-15 11:16:46.89	324.96	13.77	-42.8	-47.8	9.9	9.74e-03	0	61	0	1071644672	56	6682
2026-01-15 11:16:50.93	325.41	13.43	-43.0	-48.4	9.2	1.39e-02	0	61	0	1078984704	56	7176
2026-01-15 11:16:54.96	325.85	13.09	-42.7	-47.8	9.8	1.29e-02	0	60	0	1087373312	56	6686
2026-01-15 11:16:59.00	326.28	12.76	-42.6	-47.6	10.0	7.33e-03	0	61	0	1094713344	56	6500
2026-01-15 11:17:03.04	326.70	12.43	-42.4	-46.9	10.6	3.61e-03	0	61	0	1102053376	56	6061
2026-01-15 11:17:07.07	327.11	12.11	-42.2	-46.6	10.9	1.80e-03	0	61	0	1109393408	56	5835
2026-01-15 11:17:11.11	327.51	11.78	-42.2	-46.6	11.0	2.29e-03	0	61	0	1116733440	56	5824
2026-01-15 11:17:15.14	327.90	11.46	-42.5	-47.4	10.0	7.15e-03	0	61	0	1125122048	56	6413
2026-01-15 11:17:19.18	328.29	11.15	-42.6	-47.8	9.7	1.14e-02	0	61	0	1132462080	56	6655
2026-01-15 11:17:23.21	328.66	10.83	-42.7	-47.9	9.5	1.34e-02	0	61	0	1139802112	56	6801
2026-01-15 11:17:27.25	329.03	10.52	-42.5	-47.5	9.9	9.70e-03	0	61	0	1147142144	56	6450
2026-01-15 11:17:31.29	329.40	10.21	-42.5	-47.5	9.9	1.06e-02	0	61	0	1155530752	56	6454
2026-01-15 11:17:35.33	329.75	9.91	-42.4	-47.4	9.9	8.12e-03	0	61	0	1162870784	56	6381
2026-01-15 11:17:39.37	330.10	9.61	-42.5	-47.7	9.6	1.43e-02	0	61	0	1170210816	56	6600
2026-01-15 11:17:43.40	330.44	9.31	-42.4	-47.5	9.7	1.18e-02	0	61	0	1177550848	56	6472
2026-01-15 11:17:47.43	330.78	9.01	-42.3	-47.3	9.9	9.79e-03	0	61	0	1184890880	56	6284
2026-01-15 11:17:51.46	331.11	8.72	-42.1	-47.0	10.2	5.81e-03	0	61	0	1193279488	56	6084
2026-01-15 11:17:55.49	331.43	8.43	-41.8	-46.4	10.4	5.24e-03	0	61	0	1200619520	55	6043
2026-01-15 11:17:59.53	331.75	8.14	-41.9	-46.8	10.0	6.62e-03	0	60	0	1207959552	55	6347
2026-01-15 11:18:03.56	332.06	7.85	-44.7	-59.2	3.8	1.49e+00	0	61	104	1212153856	60	19677
2026-01-15 11:18:07.60	332.36	7.57	-45.3	-59.8	3.8	1.49e+00	0	61	104	1212153856	61	19897
2026-01-15 11:18:11.63	332.66	7.29	-45.3	-59.8	3.8	1.49e+00	0	61	104	1212153856	61	20004
2026-01-15 11:18:15.67	332.96	7.01	-45.3	-59.8	3.8	1.49e+00	0	60	104	1212153856	61	19943
2026-01-15 11:18:19.71	333.25	6.73	-45.2	-59.7	3.8	1.49e+00	0	61	104	1212153856	61	19743
2026-01-15 11:18:23.75	333.53	6.46	-45.2	-59.7	3.8	1.49e+00	0	61	104	1212153856	61	19790
2026-01-15 11:18:27.79	333.81	6.19	-44.8	-59.7	3.8	1.49e+00	0	61	104	1212153856	61	19740
2026-01-15 11:18:31.82	334.09	5.92	-45.1	-59.7	3.8	1.49e+00	0	61	104	1212153856	61	19742
2026-01-15 11:18:35.86	334.36	5.65	-45.2	-59.7	3.8	1.49e+00	0	61	104	1212153856	61	19704
2026-01-15 11:18:39.90	334.62	5.39	-45.2	-59.7	3.8	1.49e+00	0	60	104	1212153856	61	19738
2026-01-15 11:18:43.95	334.88	5.13	-45.2	-59.7	3.8	1.49e+00	0	61	104	1212153856	61	19666
2026-01-15 11:18:47.99	335.14	4.86	-45.2	-59.7	3.8	1.49e+00	0	60	104	1212153856	60	20932
2026-01-15 11:18:52.03	335.39	4.61	-45.2	-59.7	3.8	1.49e+00	0	61	104	1212153856	60	20955
2026-01-15 11:18:56.07	335.64	4.35	-45.2	-59.7	3.8	1.49e+00	0	61	104	1212153856	60	20894
2026-01-15 11:19:00.11	335.89	4.10	-45.2	-59.7	3.8	1.49e+00	0	61	104	1212153856	60	20926
2026-01-15 11:19:04.15	336.13	3.84	-45.2	-59.7	3.8	1.49e+00	0	61	104	1212153856	60	20922
2026-01-15 11:19:08.19	336.37	3.59	-45.2	-59.7	3.8	1.49e+00	0	60	104	1212153856	60	20795
2026-01-15 11:19:12.24	336.60	3.34	-45.2	-59.7	3.8	1.49e+00	0	61	104	1212153856	60	20819
2026-01-15 11:19:16.28	336.83	3.10	-45.1	-59.7	3.8	1.49e+00	0	61	104	1212153856	60	20878
2026-01-15 11:19:20.32	337.06	2.85	-45.1	-59.7	3.8	1.49e+00	0	60	104	1212153856	60	20818
2026-01-15 11:19:24.36	337.28	2.61	-45.2	-59.7	3.8	1.49e+00	0	61	104	1212153856	60	20807
2026-01-15 11:19:28.40	337.50	2.37	-45.2	-59.7	3.8	1.49e+00	0	61	104	1212153856	60	20787
2026-01-15 11:19:32.44	337.71	2.13	-45.2	-59.6	3.8	1.49e+00	0	61	104	1212153856	60	20716

#Closed at: 2026-01-15 11:19:35
#Recorded file [1212 MB]: D:/lorett/data/31039_260115_140552.dat