passes_logs/2026/01/15/R2.0S_Moscow/R2.0S_Moscow__20260115_213002_FENGYUN_3G_rec.log

#Pass ID: 20260115_213002_FENGYUN 3G
#Satellite: FENGYUN 3G
#Configuration: FENGYUN 3G
#almurnet v.1.7.20251203
#Start time: 2026-01-15 21:30:03

#Version: 2.2.20231116
#Station: R2.0S_Moscow
#Location: 37.707566 lon 55.798166 lat
#TLE: 1 56232U 23055A   26015.17772624  .00018907  00000+0  29824-3 0  9995
#TLE: 2 56232  49.9942  55.0157 0004230  27.8148 332.3045 15.53505157156222

#Time	Az	El	Level	Level2	SNR	BER	BlckErr	Temp	State	Recorded	gain1	gain2
2026-01-15 21:30:03.89	224.29	2.10	-44.0	-62.0	3.8	8.46e-01	0	51	0	0	60	27318
2026-01-15 21:30:06.93	224.02	2.29	-44.0	-62.0	3.8	8.46e-01	0	51	104	0	60	27295
2026-01-15 21:30:09.96	223.75	2.48	-44.0	-62.0	3.8	8.47e-01	0	51	104	0	60	27308
2026-01-15 21:30:12.99	223.47	2.68	-44.0	-62.0	3.8	8.46e-01	0	51	104	0	60	27306
2026-01-15 21:30:16.02	223.19	2.87	-44.0	-62.0	3.8	8.46e-01	0	52	104	0	60	27267
2026-01-15 21:30:19.06	222.90	3.07	-44.0	-62.0	3.8	8.46e-01	0	52	104	0	60	27290
2026-01-15 21:30:22.09	222.60	3.27	-44.0	-62.0	3.8	8.46e-01	0	52	104	0	60	27326
2026-01-15 21:30:25.12	222.30	3.46	-44.0	-62.0	3.8	8.48e-01	0	52	104	0	60	27283
2026-01-15 21:30:28.15	221.99	3.67	-44.0	-62.0	3.8	8.47e-01	0	52	104	0	60	27233
2026-01-15 21:30:31.18	221.68	3.87	-44.1	-62.0	3.8	8.46e-01	0	52	104	0	59	28944
2026-01-15 21:30:34.22	221.36	4.07	-44.1	-62.0	3.8	8.45e-01	0	53	104	0	59	28887
2026-01-15 21:30:37.25	221.03	4.28	-44.1	-62.0	3.8	8.45e-01	0	53	104	0	59	28844
2026-01-15 21:30:40.28	220.70	4.49	-44.1	-62.0	3.8	8.47e-01	0	53	104	0	59	28893
2026-01-15 21:30:43.31	220.36	4.69	-44.1	-62.0	3.8	8.46e-01	0	53	104	0	59	28803
2026-01-15 21:30:46.35	220.02	4.91	-44.1	-62.0	3.8	8.45e-01	0	54	104	0	59	28906
2026-01-15 21:30:49.38	219.66	5.12	-44.1	-62.0	3.8	8.45e-01	0	53	104	0	59	28748
2026-01-15 21:30:52.41	219.30	5.33	-44.1	-61.6	3.8	8.46e-01	0	54	104	0	59	27434
2026-01-15 21:30:55.45	218.93	5.55	-44.1	-61.4	3.8	8.46e-01	0	54	104	0	59	26782
2026-01-15 21:30:58.48	218.55	5.77	-44.0	-61.0	3.8	8.47e-01	0	54	104	0	59	25613
2026-01-15 21:31:01.51	218.17	5.99	-44.0	-60.6	3.8	8.47e-01	0	54	104	0	59	24456
2026-01-15 21:31:04.54	217.77	6.21	-44.0	-59.4	4.0	8.45e-01	0	54	104	0	59	21295
2026-01-15 21:31:07.57	217.37	6.44	-44.0	-59.5	3.9	8.45e-01	0	55	104	0	59	21630
2026-01-15 21:31:10.61	216.96	6.66	-43.9	-57.7	4.4	8.41e-01	0	55	0	0	59	17500
2026-01-15 21:31:13.64	216.54	6.89	-43.6	-53.8	6.9	6.84e-01	0	55	0	1572864	59	11192
2026-01-15 21:31:16.67	216.11	7.12	-43.2	-51.0	9.8	5.26e-02	0	55	0	4718592	58	8580
2026-01-15 21:31:19.70	215.67	7.35	-43.4	-52.4	8.5	1.80e-02	0	55	0	8388608	58	10111
2026-01-15 21:31:22.73	215.22	7.59	-44.1	-62.0	3.8	8.30e-01	0	55	104	9961472	58	30390
2026-01-15 21:31:25.76	214.76	7.82	-42.7	-49.3	11.4	7.75e-02	0	55	0	11534336	57	7537
2026-01-15 21:31:28.79	214.29	8.06	-41.5	-46.1	14.7	3.40e-06	0	55	0	15204352	54	6166
2026-01-15 21:31:31.82	213.81	8.30	-43.7	-56.3	6.0	4.92e-05	0	55	0	18350080	57	16719
2026-01-15 21:31:34.85	213.32	8.54	-41.5	-46.0	14.8	1.90e-02	0	55	0	20971520	55	5742
2026-01-15 21:31:37.88	212.82	8.79	-41.0	-44.9	16.2	0.00e+00	0	55	0	24641536	54	5358
2026-01-15 21:31:40.91	212.30	9.03	-41.0	-44.9	16.2	0.00e+00	0	56	0	27787264	53	5664
2026-01-15 21:31:43.94	211.77	9.28	-41.0	-44.9	16.3	0.00e+00	0	56	0	31457280	53	5682
2026-01-15 21:31:46.97	211.23	9.53	-40.9	-44.6	16.5	0.00e+00	0	56	0	34603008	53	5504
2026-01-15 21:31:50.00	210.68	9.78	-40.8	-44.4	16.8	0.00e+00	0	56	0	38273024	53	5402
2026-01-15 21:31:53.03	210.12	10.04	-40.7	-44.3	16.9	0.00e+00	0	56	0	41418752	53	5309
2026-01-15 21:31:56.05	209.54	10.29	-40.6	-44.0	17.3	0.00e+00	0	56	0	45088768	53	5113
2026-01-15 21:31:59.08	208.95	10.55	-40.5	-43.9	17.4	0.00e+00	0	56	0	48234496	53	5061
2026-01-15 21:32:02.11	208.34	10.81	-40.5	-43.9	17.4	0.00e+00	0	56	0	51904512	52	5385
2026-01-15 21:32:05.14	207.72	11.07	-40.6	-44.0	17.3	0.00e+00	0	56	0	55050240	52	5435
2026-01-15 21:32:08.17	207.08	11.33	-40.5	-43.8	17.5	0.00e+00	0	57	0	58720256	52	5331
2026-01-15 21:32:11.20	206.43	11.59	-40.0	-43.0	18.4	0.00e+00	0	56	0	61865984	52	4843
2026-01-15 21:32:14.22	205.76	11.86	-40.0	-42.9	18.6	0.00e+00	0	56	0	65536000	51	5072
2026-01-15 21:32:17.25	205.08	12.12	-40.3	-43.3	18.2	0.00e+00	0	56	0	68681728	51	5311
2026-01-15 21:32:20.28	204.38	12.39	-40.4	-43.5	18.0	0.00e+00	0	57	0	72351744	51	5447
2026-01-15 21:32:23.31	203.66	12.66	-40.1	-43.0	18.5	0.00e+00	0	57	0	75497472	51	5120
2026-01-15 21:32:26.34	202.93	12.92	-39.9	-42.8	18.8	0.00e+00	0	57	0	79167488	51	4988
2026-01-15 21:32:29.37	202.18	13.19	-40.0	-42.9	18.7	0.00e+00	0	57	0	82313216	51	5052
2026-01-15 21:32:32.40	201.41	13.46	-40.1	-43.0	18.6	0.00e+00	0	57	0	85983232	51	5113
2026-01-15 21:32:35.43	200.62	13.73	-39.7	-42.4	19.2	0.00e+00	0	57	0	89128960	51	4783
2026-01-15 21:32:38.45	199.81	14.00	-39.4	-42.0	19.6	0.00e+00	0	57	0	92798976	50	4839
2026-01-15 21:32:41.48	198.99	14.27	-39.6	-42.2	19.4	0.00e+00	0	57	0	95944704	50	4969
2026-01-15 21:32:44.51	198.14	14.54	-40.1	-42.9	18.7	0.00e+00	0	57	0	99614720	50	5393
2026-01-15 21:32:47.54	197.28	14.81	-39.8	-42.5	19.2	0.00e+00	0	57	0	102760448	50	5111
2026-01-15 21:32:50.57	196.39	15.07	-39.3	-41.8	19.8	0.00e+00	0	57	0	106430464	50	4726
2026-01-15 21:32:53.60	195.48	15.34	-39.2	-41.6	20.0	0.00e+00	0	57	0	109576192	50	4642
2026-01-15 21:32:56.63	194.56	15.60	-39.6	-42.2	19.5	0.00e+00	0	57	0	113246208	50	4938
2026-01-15 21:32:59.66	193.61	15.86	-39.9	-42.7	19.0	0.00e+00	0	57	0	116391936	50	5222
2026-01-15 21:33:02.69	192.64	16.12	-39.4	-42.0	19.7	0.00e+00	0	57	0	120061952	50	4834
2026-01-15 21:33:05.71	191.66	16.38	-38.8	-41.1	20.6	0.00e+00	0	57	0	123207680	49	4610
2026-01-15 21:33:08.74	190.65	16.63	-38.7	-41.0	20.7	0.00e+00	0	58	0	126877696	49	4580
2026-01-15 21:33:11.78	189.61	16.88	-38.9	-41.3	20.4	0.00e+00	0	57	0	130023424	49	4710
2026-01-15 21:33:14.80	188.56	17.12	-39.0	-41.3	20.4	0.00e+00	0	58	0	133693440	49	4750
2026-01-15 21:33:17.83	187.49	17.36	-39.1	-41.5	20.1	0.00e+00	0	58	0	136839168	49	4865
2026-01-15 21:33:20.86	186.39	17.59	-39.0	-41.4	20.3	0.00e+00	0	58	0	140509184	49	4795
2026-01-15 21:33:23.88	185.28	17.81	-38.6	-40.9	20.8	0.00e+00	0	58	0	143654912	49	4504
2026-01-15 21:33:26.91	184.15	18.03	-38.5	-40.8	21.0	0.00e+00	0	58	0	147324928	49	4442
2026-01-15 21:33:29.94	182.99	18.25	-38.6	-40.9	20.8	0.00e+00	0	58	0	150470656	48	4775
2026-01-15 21:33:32.97	181.82	18.45	-38.7	-41.0	20.7	0.00e+00	0	58	0	154140672	48	4844
2026-01-15 21:33:36.00	180.62	18.65	-39.0	-41.4	20.3	0.00e+00	0	58	0	157286400	48	5042
2026-01-15 21:33:39.03	179.41	18.84	-38.8	-41.1	20.5	0.00e+00	0	58	0	160956416	48	4920
2026-01-15 21:33:42.05	178.18	19.02	-38.5	-40.8	21.0	0.00e+00	0	58	0	164102144	48	4712
2026-01-15 21:33:45.08	176.93	19.18	-38.5	-40.6	21.1	0.00e+00	0	58	0	167772160	48	4651
2026-01-15 21:33:48.11	175.67	19.34	-38.5	-40.7	21.1	0.00e+00	0	58	0	170917888	48	4680
2026-01-15 21:33:51.14	174.39	19.49	-38.9	-41.2	20.8	0.00e+00	0	58	0	174587904	48	4936
2026-01-15 21:33:54.17	173.09	19.62	-38.3	-40.5	21.4	0.00e+00	0	58	0	177733632	48	4546
2026-01-15 21:33:57.19	171.79	19.75	-38.3	-40.4	21.4	0.00e+00	0	58	0	181403648	48	4539
2026-01-15 21:34:00.22	170.47	19.86	-38.6	-40.8	21.0	0.00e+00	0	58	0	184549376	48	4750
2026-01-15 21:34:03.25	169.14	19.96	-38.5	-40.7	21.2	0.00e+00	0	58	0	188219392	48	4682
2026-01-15 21:34:06.28	167.80	20.04	-38.8	-41.0	21.0	0.00e+00	0	58	0	191365120	48	4835
2026-01-15 21:34:09.31	166.45	20.11	-38.9	-41.1	20.8	0.00e+00	0	58	0	195035136	48	4911
2026-01-15 21:34:12.34	165.10	20.17	-38.6	-40.8	21.1	0.00e+00	0	58	0	198180864	48	4756
2026-01-15 21:34:15.37	163.74	20.21	-38.5	-40.6	21.3	0.00e+00	0	58	0	201850880	48	4621
2026-01-15 21:34:18.40	162.37	20.24	-38.5	-40.7	21.2	0.00e+00	0	58	0	204996608	48	4674
2026-01-15 21:34:21.43	161.01	20.25	-38.4	-40.5	21.4	0.00e+00	0	58	0	208666624	48	4565
2026-01-15 21:34:24.45	159.65	20.25	-38.2	-40.3	21.6	0.00e+00	0	58	0	211812352	47	4755
2026-01-15 21:34:27.48	158.28	20.24	-38.1	-40.2	21.7	0.00e+00	0	58	0	215482368	47	4677
2026-01-15 21:34:30.51	156.92	20.21	-38.2	-40.3	21.6	0.00e+00	0	58	0	218628096	47	4710
2026-01-15 21:34:33.54	155.56	20.16	-38.3	-40.4	21.5	0.00e+00	0	58	0	222298112	47	4806
2026-01-15 21:34:36.56	154.21	20.11	-38.8	-41.0	20.9	0.00e+00	0	58	0	225443840	48	4864
2026-01-15 21:34:39.59	152.86	20.04	-38.5	-40.7	21.2	0.00e+00	0	59	0	229113856	48	4675
2026-01-15 21:34:42.62	151.53	19.95	-38.5	-40.7	21.2	0.00e+00	0	58	0	232259584	48	4692
2026-01-15 21:34:45.65	150.20	19.85	-39.1	-41.5	20.4	0.00e+00	0	58	0	235929600	48	5143
2026-01-15 21:34:48.68	148.88	19.74	-38.9	-41.2	20.7	0.00e+00	0	58	0	239075328	49	4674
2026-01-15 21:34:51.71	147.58	19.62	-38.4	-40.5	21.4	0.00e+00	0	58	0	242745344	48	4589
2026-01-15 21:34:54.74	146.28	19.48	-38.6	-40.8	21.1	0.00e+00	0	59	0	245891072	48	4730
2026-01-15 21:34:57.77	145.01	19.33	-38.5	-40.7	21.2	0.00e+00	0	58	0	249561088	48	4654
2026-01-15 21:35:00.80	143.75	19.18	-38.5	-40.6	21.2	0.00e+00	0	59	0	252706816	48	4650
2026-01-15 21:35:03.83	142.50	19.01	-38.5	-40.7	21.1	0.00e+00	0	59	0	256376832	48	4681
2026-01-15 21:35:06.86	141.28	18.83	-38.5	-40.7	21.1	0.00e+00	0	59	0	259522560	48	4656
2026-01-15 21:35:09.88	140.07	18.64	-38.7	-41.1	20.6	0.00e+00	0	58	0	263192576	48	4915
2026-01-15 21:35:12.91	138.88	18.44	-38.7	-41.1	20.6	1.10e-06	0	59	0	266338304	48	4919
2026-01-15 21:35:15.94	137.71	18.24	-38.9	-41.2	20.6	0.00e+00	0	59	0	270008320	48	4961
2026-01-15 21:35:18.97	136.56	18.03	-38.7	-41.0	20.8	0.00e+00	0	58	0	273154048	48	4823
2026-01-15 21:35:22.00	135.43	17.81	-36.9	-40.6	17.7	3.40e-06	0	59	0	276824064	44	5820
2026-01-15 21:35:25.02	134.32	17.58	-38.9	-41.2	20.3	1.35e-04	0	59	0	279969792	48	4978
2026-01-15 21:35:28.05	133.23	17.35	-39.1	-41.5	20.1	3.18e-04	0	59	0	283639808	48	5150
2026-01-15 21:35:31.08	132.16	17.11	-38.8	-41.4	19.8	4.11e-05	0	59	0	286785536	48	5089
2026-01-15 21:35:34.11	131.11	16.87	-39.0	-41.8	18.3	5.83e-05	0	59	0	290455552	48	5283
2026-01-15 21:35:37.14	130.09	16.62	-39.1	-41.7	19.9	0.00e+00	0	59	0	293601280	48	5239
2026-01-15 21:35:40.17	129.08	16.37	-39.0	-41.7	19.9	1.10e-06	0	59	0	297271296	48	5223
2026-01-15 21:35:43.20	128.10	16.12	-39.2	-41.7	19.3	2.23e-04	0	59	0	300417024	48	5266
2026-01-15 21:35:46.23	127.13	15.86	-39.3	-42.3	19.2	3.89e-04	0	59	0	304087040	49	5292
2026-01-15 21:35:49.25	126.19	15.60	-39.0	-41.9	18.2	4.99e-03	0	59	0	307232768	47	5683
2026-01-15 21:35:52.28	125.27	15.34	-32.2	-41.6	10.4	3.90e-02	0	59	0	310902784	38	9262
2026-01-15 21:35:55.31	124.37	15.07	-39.4	-42.1	19.0	2.61e-03	0	59	0	314048512	49	5214
2026-01-15 21:35:58.35	123.49	14.81	-36.9	-42.5	8.3	7.86e-03	0	59	0	317718528	41	8635
2026-01-15 21:36:01.37	122.63	14.54	-33.1	-42.0	14.4	1.92e-02	0	59	0	320864256	44	6878
2026-01-15 21:36:04.40	121.79	14.27	-38.3	-42.6	10.2	2.59e-02	0	59	0	324534272	43	7793
2026-01-15 21:36:07.43	120.97	14.01	-39.5	-43.0	15.2	8.31e-03	0	59	0	327680000	49	5747
2026-01-15 21:36:10.46	120.16	13.74	-38.6	-42.6	17.0	3.29e-02	0	59	0	330825728	48	5855
2026-01-15 21:36:13.49	119.38	13.47	-38.0	-43.0	14.9	2.69e-02	0	59	0	334495744	46	6861
2026-01-15 21:36:16.52	118.61	13.20	-37.5	-43.3	14.4	1.20e-02	0	59	0	337641472	45	7502
2026-01-15 21:36:19.55	117.87	12.93	-38.4	-43.3	15.3	9.44e-03	0	59	0	341311488	47	6716
2026-01-15 21:36:22.57	117.14	12.67	-33.7	-42.9	15.3	1.62e-02	0	59	0	344457216	44	7589
2026-01-15 21:36:25.60	116.43	12.40	-33.3	-43.1	7.4	5.45e-02	0	59	0	348127232	35	13003
2026-01-15 21:36:28.63	115.73	12.14	-32.0	-41.8	8.1	1.74e-01	0	59	0	351272960	31	14206
2026-01-15 21:36:31.66	115.05	11.87	-32.0	-42.5	11.0	7.19e-02	0	59	0	354418688	38	10287
2026-01-15 21:36:34.69	114.39	11.61	-35.8	-43.3	11.8	7.50e-02	0	59	0	357564416	41	9391
2026-01-15 21:36:37.72	113.74	11.35	-35.5	-43.0	11.9	5.83e-02	0	59	0	361234432	42	8597
2026-01-15 21:36:40.75	113.11	11.09	-36.6	-43.3	12.1	9.02e-02	0	59	0	364380160	42	8902
2026-01-15 21:36:43.78	112.49	10.83	-34.6	-43.5	11.2	1.16e-01	0	59	0	368050176	41	9635
2026-01-15 21:36:46.80	111.89	10.57	-37.8	-43.5	13.6	5.61e-02	0	59	0	371195904	46	7226
2026-01-15 21:36:49.83	111.30	10.31	-36.7	-45.8	10.8	3.12e-02	0	59	0	374865920	44	10636
2026-01-15 21:36:52.86	110.72	10.06	-38.0	-44.3	13.9	3.24e-02	0	59	0	378011648	46	7907
2026-01-15 21:36:55.89	110.16	9.81	-36.1	-44.1	14.4	7.46e-03	0	59	0	381681664	46	7766
2026-01-15 21:36:58.92	109.61	9.56	-39.2	-44.6	14.6	3.59e-03	0	59	0	384827392	49	6954
2026-01-15 21:37:01.95	109.07	9.31	-39.7	-44.2	14.4	2.46e-03	0	59	0	388497408	49	6627
2026-01-15 21:37:04.98	108.55	9.06	-39.4	-44.7	14.3	3.93e-03	0	59	0	391643136	49	7002
2026-01-15 21:37:08.01	108.04	8.82	-39.5	-44.8	14.1	3.01e-03	0	59	0	395313152	47	7924
2026-01-15 21:37:11.04	107.54	8.57	-39.7	-45.3	13.8	3.18e-03	0	59	0	398458880	50	7086
2026-01-15 21:37:14.06	107.05	8.33	-37.9	-45.1	12.7	5.22e-03	0	59	0	402128896	49	7359
2026-01-15 21:37:17.09	106.57	8.09	-39.0	-45.1	12.5	7.08e-03	0	59	0	405274624	49	7306
2026-01-15 21:37:20.12	106.11	7.86	-44.6	-62.7	3.8	5.32e-01	0	59	104	406847488	59	31214
2026-01-15 21:37:23.15	105.65	7.62	-45.3	-63.4	3.8	8.47e-01	0	59	104	406847488	61	30351
2026-01-15 21:37:26.18	105.20	7.39	-45.8	-64.3	3.8	8.46e-01	0	59	104	406847488	62	31576
2026-01-15 21:37:29.21	104.77	7.16	-45.7	-63.9	3.8	8.46e-01	0	60	104	406847488	62	30225
2026-01-15 21:37:32.25	104.34	6.93	-45.6	-63.7	3.8	8.44e-01	0	59	104	406847488	62	29412
2026-01-15 21:37:35.28	103.92	6.70	-45.4	-63.5	3.8	8.46e-01	0	59	104	406847488	62	28827
2026-01-15 21:37:38.31	103.51	6.48	-45.4	-63.5	3.8	8.47e-01	0	59	104	406847488	62	28788
2026-01-15 21:37:41.35	103.11	6.25	-45.4	-63.5	3.8	8.46e-01	0	60	104	406847488	62	28721
2026-01-15 21:37:44.38	102.72	6.03	-45.4	-63.5	3.8	8.47e-01	0	59	104	406847488	62	28707
2026-01-15 21:37:47.41	102.34	5.81	-45.4	-63.4	3.8	8.46e-01	0	60	104	406847488	61	30273
2026-01-15 21:37:50.44	101.96	5.59	-45.4	-63.4	3.8	8.46e-01	0	59	104	406847488	61	30296
2026-01-15 21:37:53.48	101.60	5.38	-45.4	-63.4	3.8	8.46e-01	0	59	104	406847488	61	30248
2026-01-15 21:37:56.51	101.24	5.16	-45.3	-63.4	3.8	8.46e-01	0	59	104	406847488	61	30236
2026-01-15 21:37:59.54	100.89	4.95	-45.3	-63.4	3.8	8.46e-01	0	59	104	406847488	61	30280
2026-01-15 21:38:02.57	100.54	4.74	-45.3	-63.4	3.8	8.47e-01	0	60	104	406847488	61	30167
2026-01-15 21:38:05.61	100.20	4.53	-45.3	-63.4	3.8	8.46e-01	0	60	104	406847488	61	30207
2026-01-15 21:38:08.64	99.87	4.33	-45.3	-63.4	3.8	8.47e-01	0	60	104	406847488	61	30277
2026-01-15 21:38:11.67	99.55	4.12	-45.3	-63.4	3.8	8.46e-01	0	60	104	406847488	61	30277
2026-01-15 21:38:14.71	99.23	3.92	-45.3	-63.4	3.8	8.45e-01	0	59	104	406847488	61	30210
2026-01-15 21:38:17.74	98.92	3.72	-45.3	-63.4	3.8	8.47e-01	0	59	104	406847488	61	30228
2026-01-15 21:38:20.77	98.62	3.52	-45.3	-63.4	3.8	8.46e-01	0	59	104	406847488	61	30199
2026-01-15 21:38:23.81	98.32	3.32	-45.3	-63.4	3.8	8.46e-01	0	59	104	406847488	61	30157
2026-01-15 21:38:26.84	98.02	3.12	-45.3	-63.4	3.8	8.46e-01	0	59	104	406847488	61	30170
2026-01-15 21:38:29.87	97.74	2.92	-45.3	-63.4	3.8	8.46e-01	0	60	104	406847488	61	30115
2026-01-15 21:38:32.91	97.45	2.73	-45.3	-63.4	3.8	8.46e-01	0	59	104	406847488	61	30110
2026-01-15 21:38:35.94	97.18	2.54	-45.3	-63.4	3.8	8.46e-01	0	60	104	406847488	61	30072
2026-01-15 21:38:38.97	96.91	2.35	-45.3	-63.4	3.8	8.46e-01	0	60	104	406847488	61	30130
2026-01-15 21:38:42.00	96.64	2.16	-45.3	-63.4	3.8	8.46e-01	0	59	104	406847488	61	30094

#Closed at: 2026-01-15 21:38:44
#Recorded file [406 MB]: D:/lorett/data/31039_260116_003003.dat