passes_logs/2026/01/16/Regia/Regia__20260116_105150_AURA_rec.log

#Pass ID: 20260116_105150_AURA
#Satellite: AURA
#Configuration: AURA
#Start time: 2026-01-16 10:51:55.965350

#LorettStation: 1.0.0 05.05.2024
#Station: Regia
#Location: 37.494653 lon 55.929028 lat
#TLE: 1 28376U 04026A   26015.89670608  .00000669  00000+0  14619-3 0  9990
#TLE: 2 28376  98.3228 331.2921 0001621  75.3404 284.7976 14.61007636143975

#Time	Az	El	Level	SNR
2026-01-16 10:52:02.138157	156.0	15.7	-69.4	0.0
2026-01-16 10:52:03.251094	156.0	15.9	-69.6	0.0
2026-01-16 10:52:04.364651	156.0	16.0	-69.3	0.0
2026-01-16 10:52:05.477581	155.9	16.1	-69.5	0.0
2026-01-16 10:52:06.590388	155.9	16.3	-69.5	0.0
2026-01-16 10:52:07.703876	155.9	16.4	-69.5	0.0
2026-01-16 10:52:08.816992	155.9	16.6	-69.4	0.0
2026-01-16 10:52:09.929021	155.9	16.7	-69.4	0.0
2026-01-16 10:52:11.041738	155.8	16.8	-69.1	0.0
2026-01-16 10:52:12.153940	155.8	17.0	-69.5	0.0
2026-01-16 10:52:13.266883	155.8	17.1	-69.6	0.0
2026-01-16 10:52:14.379997	155.8	17.3	-69.5	0.0
2026-01-16 10:52:15.492785	155.8	17.4	-69.7	0.0
2026-01-16 10:52:16.605728	155.7	17.6	-69.2	0.0
2026-01-16 10:52:17.720439	155.7	17.7	-69.4	0.0
2026-01-16 10:52:18.833726	155.7	17.9	-69.6	0.0
2026-01-16 10:52:19.946305	155.7	18.0	-69.4	0.0
2026-01-16 10:52:21.059541	155.6	18.2	-69.5	0.0
2026-01-16 10:52:22.172323	155.6	18.3	-69.4	0.0
2026-01-16 10:52:23.285692	155.6	18.5	-69.6	0.0
2026-01-16 10:52:24.399113	155.6	18.6	-69.6	0.0
2026-01-16 10:52:25.511471	155.5	18.8	-69.5	0.0
2026-01-16 10:52:26.624380	155.5	18.9	-69.6	0.0
2026-01-16 10:52:27.737206	155.5	19.1	-69.4	0.0
2026-01-16 10:52:28.852935	155.5	19.2	-69.4	0.0
2026-01-16 10:52:29.967152	155.4	19.4	-69.5	0.0
2026-01-16 10:52:31.083239	155.4	19.6	-69.6	0.0
2026-01-16 10:52:32.195869	155.4	19.7	-69.6	0.0
2026-01-16 10:52:33.308627	155.4	19.9	-69.4	0.0
2026-01-16 10:52:34.421960	155.3	20.0	-69.5	0.0
2026-01-16 10:52:35.534646	155.3	20.2	-69.3	0.0
2026-01-16 10:52:36.647057	155.3	20.4	-69.6	0.0
2026-01-16 10:52:37.759814	155.3	20.5	-69.3	0.0
2026-01-16 10:52:38.872071	155.2	20.7	-69.5	0.0
2026-01-16 10:52:39.987531	155.2	20.9	-69.5	0.0
2026-01-16 10:52:41.100464	155.2	21.0	-69.6	0.0
2026-01-16 10:52:42.212557	155.1	21.2	-69.6	0.0
2026-01-16 10:52:43.324777	155.1	21.4	-69.6	0.0
2026-01-16 10:52:44.437341	155.1	21.6	-69.6	0.0
2026-01-16 10:52:45.550093	155.0	21.7	-69.6	0.0
2026-01-16 10:52:46.662834	155.0	21.9	-69.5	0.0
2026-01-16 10:52:47.774776	155.0	22.1	-69.3	0.0
2026-01-16 10:52:48.887422	154.9	22.3	-69.5	0.0
2026-01-16 10:52:50.000326	154.9	22.5	-69.6	0.0
2026-01-16 10:52:51.113004	154.9	22.6	-69.4	0.0
2026-01-16 10:52:52.225429	154.9	22.8	-69.6	0.0
2026-01-16 10:52:53.338294	154.8	23.0	-69.3	0.0
2026-01-16 10:52:54.451052	154.8	23.2	-69.5	0.0
2026-01-16 10:52:55.564557	154.7	23.4	-69.5	0.0
2026-01-16 10:52:56.677053	154.7	23.6	-69.7	0.0
2026-01-16 10:52:57.790072	154.7	23.8	-69.4	0.0
2026-01-16 10:52:58.902892	154.6	23.9	-69.6	0.0
2026-01-16 10:53:00.015775	154.6	24.1	-69.4	0.0
2026-01-16 10:53:01.128722	154.6	24.3	-69.6	0.0
2026-01-16 10:53:02.242049	154.5	24.5	-69.4	0.0
2026-01-16 10:53:03.354973	154.5	24.7	-69.6	0.0
2026-01-16 10:53:04.467995	154.5	24.9	-69.6	0.0
2026-01-16 10:53:05.580849	154.4	25.1	-69.6	0.0
2026-01-16 10:53:06.693880	154.4	25.3	-69.5	0.0
2026-01-16 10:53:07.807127	154.3	25.5	-69.6	0.0
2026-01-16 10:53:08.919921	154.3	25.7	-69.6	0.0
2026-01-16 10:53:10.033143	154.2	26.0	-69.6	0.0
2026-01-16 10:53:11.146388	154.2	26.2	-69.5	0.0
2026-01-16 10:53:12.259371	154.2	26.4	-69.5	0.0
2026-01-16 10:53:13.372313	154.1	26.6	-69.7	0.0
2026-01-16 10:53:14.484477	154.1	26.8	-69.5	0.0
2026-01-16 10:53:15.598650	154.0	27.0	-69.5	0.0
2026-01-16 10:53:16.711248	154.0	27.2	-69.6	0.0
2026-01-16 10:53:17.823530	153.9	27.5	-69.6	0.0
2026-01-16 10:53:18.937049	153.9	27.7	-69.2	0.0
2026-01-16 10:53:20.049678	153.8	27.9	-69.1	0.0
2026-01-16 10:53:21.162532	153.8	28.1	-69.6	0.0
2026-01-16 10:53:22.276060	153.7	28.4	-69.7	0.0
2026-01-16 10:53:23.388693	153.7	28.6	-69.5	0.0
2026-01-16 10:53:24.502357	153.6	28.8	-69.4	0.0
2026-01-16 10:53:25.615451	153.6	29.1	-69.6	0.0
2026-01-16 10:53:26.727836	153.5	29.3	-69.8	0.0
2026-01-16 10:53:27.840491	153.5	29.5	-69.5	0.0
2026-01-16 10:53:28.953607	153.4	29.8	-69.6	0.0
2026-01-16 10:53:30.066730	153.4	30.0	-69.5	0.0
2026-01-16 10:53:31.179879	153.3	30.3	-69.6	0.0
2026-01-16 10:53:32.293195	153.3	30.5	-69.6	0.0
2026-01-16 10:53:33.405817	153.2	30.8	-69.4	0.0
2026-01-16 10:53:34.518534	153.1	31.0	-69.6	0.0
2026-01-16 10:53:35.631359	153.1	31.3	-69.6	0.0
2026-01-16 10:53:36.744214	153.0	31.5	-69.8	0.0
2026-01-16 10:53:37.860597	153.0	31.8	-69.8	0.0
2026-01-16 10:53:38.973516	152.9	32.1	-69.7	0.0
2026-01-16 10:53:40.086152	152.8	32.3	-69.5	0.0
2026-01-16 10:53:41.199665	152.8	32.6	-69.6	0.0
2026-01-16 10:53:42.312271	152.7	32.9	-69.7	0.0
2026-01-16 10:53:43.425522	152.6	33.1	-69.6	0.0
2026-01-16 10:53:44.538519	152.6	33.4	-69.6	0.0
2026-01-16 10:53:45.651710	152.5	33.7	-69.6	0.0
2026-01-16 10:53:46.764077	152.4	34.0	-69.7	0.0
2026-01-16 10:53:47.877387	152.3	34.3	-69.5	0.0
2026-01-16 10:53:48.990467	152.3	34.5	-69.6	0.0
2026-01-16 10:53:50.103614	152.2	34.8	-69.7	0.0
2026-01-16 10:53:51.216696	152.1	35.1	-69.5	0.0
2026-01-16 10:53:52.329687	152.0	35.4	-69.2	0.0
2026-01-16 10:53:53.442568	152.0	35.7	-69.6	0.0
2026-01-16 10:53:54.555974	151.9	36.0	-69.6	0.0
2026-01-16 10:53:55.668962	151.8	36.3	-69.6	0.0
2026-01-16 10:53:56.781844	151.7	36.6	-69.7	0.0
2026-01-16 10:53:57.894714	151.6	36.9	-69.6	0.0
2026-01-16 10:53:59.007642	151.5	37.2	-69.7	0.0
2026-01-16 10:54:00.120826	151.4	37.6	-69.5	0.0
2026-01-16 10:54:01.234396	151.3	37.9	-69.7	0.0
2026-01-16 10:54:02.346138	151.2	38.2	-69.7	0.0
2026-01-16 10:54:03.459011	151.2	38.5	-69.6	0.0
2026-01-16 10:54:04.571500	151.1	38.8	-69.6	0.0
2026-01-16 10:54:05.683841	151.0	39.2	-69.5	0.0
2026-01-16 10:54:06.797489	150.9	39.5	-69.6	0.0
2026-01-16 10:54:07.909989	150.7	39.8	-69.8	0.0
2026-01-16 10:54:09.023096	150.6	40.2	-69.7	0.0
2026-01-16 10:54:10.135624	150.5	40.5	-69.6	0.0
2026-01-16 10:54:11.248741	150.4	40.9	-69.6	0.0
2026-01-16 10:54:12.365105	150.3	41.2	-69.7	0.0
2026-01-16 10:54:13.478528	150.2	41.6	-69.6	0.0
2026-01-16 10:54:14.591320	150.1	41.9	-69.7	0.0
2026-01-16 10:54:15.705316	149.9	42.3	-69.7	0.0
2026-01-16 10:54:16.818290	149.8	42.7	-69.7	0.0
2026-01-16 10:54:17.931508	149.7	43.0	-69.6	0.0
2026-01-16 10:54:19.043892	149.6	43.4	-69.7	0.0
2026-01-16 10:54:20.156075	149.4	43.8	-69.5	0.0
2026-01-16 10:54:21.268852	149.3	44.1	-69.8	0.0
2026-01-16 10:54:22.381387	149.1	44.5	-69.7	0.0
2026-01-16 10:54:23.497979	149.0	44.9	-69.7	0.0
2026-01-16 10:54:24.611136	148.8	45.3	-69.6	0.0
2026-01-16 10:54:25.723800	148.7	45.7	-69.5	0.0
2026-01-16 10:54:26.837024	148.5	46.1	-69.8	0.0
2026-01-16 10:54:27.950907	148.4	46.5	-69.6	0.0
2026-01-16 10:54:29.063916	148.2	46.9	-69.5	0.0
2026-01-16 10:54:30.176516	148.0	47.3	-69.6	0.0
2026-01-16 10:54:31.289154	147.9	47.7	-69.7	0.0
2026-01-16 10:54:32.401851	147.7	48.1	-69.6	0.0
2026-01-16 10:54:33.515299	147.5	48.6	-69.6	0.0
2026-01-16 10:54:34.631222	147.3	49.0	-69.7	0.0
2026-01-16 10:54:35.742934	147.1	49.4	-69.6	0.0
2026-01-16 10:54:36.855989	146.9	49.8	-69.6	0.0
2026-01-16 10:54:37.968090	146.7	50.3	-69.6	0.0
2026-01-16 10:54:39.081321	146.5	50.7	-69.9	0.0
2026-01-16 10:54:40.193435	146.3	51.2	-69.8	0.0
2026-01-16 10:54:41.306555	146.0	51.6	-69.6	0.0
2026-01-16 10:54:42.418687	145.8	52.1	-69.5	0.0
2026-01-16 10:54:43.531268	145.6	52.5	-69.7	0.0
2026-01-16 10:54:44.644312	145.3	53.0	-69.6	0.0
2026-01-16 10:54:45.757238	145.0	53.4	-69.6	0.0
2026-01-16 10:54:46.870252	144.8	53.9	-69.8	0.0
2026-01-16 10:54:47.984499	144.5	54.4	-69.6	0.0
2026-01-16 10:54:49.097641	144.2	54.9	-69.6	0.0
2026-01-16 10:54:50.210660	143.9	55.3	-69.7	0.0
2026-01-16 10:54:51.323789	143.6	55.8	-69.6	0.0
2026-01-16 10:54:52.435977	143.3	56.3	-69.7	0.0
2026-01-16 10:54:53.549329	143.0	56.8	-69.1	0.0
2026-01-16 10:54:54.662218	142.6	57.3	-69.8	0.0
2026-01-16 10:54:55.775288	142.3	57.8	-69.7	0.0
2026-01-16 10:54:56.887679	141.9	58.3	-69.4	0.0
2026-01-16 10:54:58.001370	141.5	58.8	-69.6	0.0
2026-01-16 10:54:59.114284	141.1	59.3	-70.0	0.0
2026-01-16 10:55:00.227676	140.7	59.8	-69.7	0.0
2026-01-16 10:55:01.340684	140.3	60.3	-69.7	0.0
2026-01-16 10:55:02.453229	139.9	60.8	-69.7	0.0
2026-01-16 10:55:03.565718	139.4	61.3	-69.6	0.0
2026-01-16 10:55:04.678723	138.9	61.9	-69.7	0.0
2026-01-16 10:55:05.791092	138.4	62.4	-69.7	0.0
2026-01-16 10:55:06.904313	137.9	62.9	-69.7	0.0
2026-01-16 10:55:08.019350	137.3	63.4	-69.6	0.0
2026-01-16 10:55:09.134552	136.7	64.0	-69.6	0.0
2026-01-16 10:55:10.247669	136.1	64.5	-69.6	0.0
2026-01-16 10:55:11.360390	135.5	65.0	-69.5	0.0
2026-01-16 10:55:12.473083	134.8	65.6	-69.6	0.0
2026-01-16 10:55:13.586222	134.1	66.1	-69.6	0.0
2026-01-16 10:55:14.698573	133.4	66.6	-69.6	0.0
2026-01-16 10:55:15.811909	132.6	67.2	-69.7	0.0
2026-01-16 10:55:16.924877	131.8	67.7	-69.5	0.0
2026-01-16 10:55:18.037183	131.0	68.2	-69.6	0.0
2026-01-16 10:55:19.153278	130.1	68.7	-69.6	0.0
2026-01-16 10:55:20.270520	129.1	69.3	-69.7	0.0
2026-01-16 10:55:21.383513	128.1	69.8	-69.6	0.0
2026-01-16 10:55:22.496198	127.1	70.3	-69.8	0.0
2026-01-16 10:55:23.609198	125.9	70.8	-69.5	0.0
2026-01-16 10:55:24.722308	124.7	71.4	-69.7	0.0
2026-01-16 10:55:25.835568	123.5	71.9	-69.5	0.0
2026-01-16 10:55:26.948424	122.1	72.4	-69.4	0.0
2026-01-16 10:55:28.061412	120.7	72.9	-69.7	0.0
2026-01-16 10:55:29.174444	119.2	73.3	-69.6	0.0
2026-01-16 10:55:30.287362	117.6	73.8	-69.6	0.0
2026-01-16 10:55:31.399954	115.9	74.3	-69.7	0.0
2026-01-16 10:55:32.513181	114.1	74.7	-69.7	0.0
2026-01-16 10:55:33.626025	112.2	75.2	-69.8	0.0
2026-01-16 10:55:34.738640	110.1	75.6	-69.6	0.0
2026-01-16 10:55:35.851409	107.9	76.0	-69.4	0.0
2026-01-16 10:55:36.964151	105.6	76.4	-69.5	0.0
2026-01-16 10:55:38.076859	103.2	76.7	-69.7	0.0
2026-01-16 10:55:39.190362	100.6	77.1	-69.7	0.0
2026-01-16 10:55:40.303284	97.9	77.4	-69.9	0.0
2026-01-16 10:55:41.416089	95.1	77.7	-69.5	0.0
2026-01-16 10:55:42.529468	92.1	77.9	-69.5	0.0
2026-01-16 10:55:43.641766	89.0	78.2	-69.6	0.0
2026-01-16 10:55:44.754666	85.8	78.3	-69.6	0.0
2026-01-16 10:55:45.867404	82.5	78.5	-69.7	0.0
2026-01-16 10:55:46.979771	79.1	78.6	-69.7	0.0
2026-01-16 10:55:48.092738	75.7	78.7	-69.6	0.0
2026-01-16 10:55:49.205597	72.2	78.7	-69.6	0.0
2026-01-16 10:55:50.318435	68.7	78.7	-69.7	0.0
2026-01-16 10:55:51.431436	65.3	78.6	-69.8	0.0
2026-01-16 10:55:52.544650	61.8	78.6	-69.8	0.0
2026-01-16 10:55:53.660016	58.5	78.4	-69.6	0.0
2026-01-16 10:55:54.773473	55.2	78.3	-69.9	0.0
2026-01-16 10:55:55.886607	52.1	78.1	-69.8	0.0
2026-01-16 10:55:57.000092	49.0	77.8	-69.8	0.0
2026-01-16 10:55:58.112952	46.1	77.6	-69.7	0.0
2026-01-16 10:55:59.225878	43.3	77.3	-69.5	0.0
2026-01-16 10:56:00.339459	40.7	76.9	-69.3	0.0
2026-01-16 10:56:01.452805	38.2	76.6	-69.7	0.0
2026-01-16 10:56:02.565145	35.8	76.2	-69.6	0.0
2026-01-16 10:56:03.678932	33.6	75.8	-69.8	0.0
2026-01-16 10:56:04.794760	31.4	75.4	-69.7	0.0
2026-01-16 10:56:05.908525	29.5	75.0	-69.8	0.0
2026-01-16 10:56:07.020866	27.6	74.5	-69.8	0.0
2026-01-16 10:56:08.134161	25.8	74.1	-69.8	0.0
2026-01-16 10:56:09.247398	24.2	73.6	-69.6	0.0
2026-01-16 10:56:10.360521	22.6	73.1	-69.8	0.0
2026-01-16 10:56:11.473617	21.1	72.6	-69.6	0.0
2026-01-16 10:56:12.586750	19.8	72.1	-69.7	0.0
2026-01-16 10:56:13.699681	18.5	71.6	-69.5	0.0
2026-01-16 10:56:14.811993	17.2	71.1	-69.5	0.0
2026-01-16 10:56:15.927908	16.1	70.6	-69.7	0.0
2026-01-16 10:56:17.040904	15.0	70.1	-69.7	0.0
2026-01-16 10:56:18.154063	13.9	69.6	-69.8	0.0
2026-01-16 10:56:19.266297	13.0	69.0	-69.5	0.0
2026-01-16 10:56:20.378175	12.0	68.5	-69.7	0.0
2026-01-16 10:56:21.490514	11.2	68.0	-69.8	0.0
2026-01-16 10:56:22.602839	10.3	67.5	-69.8	0.0
2026-01-16 10:56:23.715641	9.5	66.9	-69.5	0.0
2026-01-16 10:56:24.827985	8.8	66.4	-69.7	0.0
2026-01-16 10:56:25.940951	8.1	65.9	-69.7	0.0
2026-01-16 10:56:27.052396	7.4	65.3	-69.5	0.0
2026-01-16 10:56:28.167215	6.7	64.8	-69.3	0.0
2026-01-16 10:56:29.279981	6.1	64.3	-69.8	0.0
2026-01-16 10:56:30.393093	5.5	63.8	-69.8	0.0
2026-01-16 10:56:31.505741	4.9	63.2	-69.9	0.0
2026-01-16 10:56:32.619038	4.4	62.7	-69.7	0.0
2026-01-16 10:56:33.731404	3.9	62.2	-69.7	0.0
2026-01-16 10:56:34.844911	3.4	61.7	-69.6	0.0
2026-01-16 10:56:35.957897	2.9	61.1	-69.8	0.0
2026-01-16 10:56:37.070867	2.5	60.6	-69.7	0.0
2026-01-16 10:56:38.184308	2.0	60.1	-69.6	0.0
2026-01-16 10:56:39.297092	1.6	59.6	-69.7	0.0
2026-01-16 10:56:40.409741	1.2	59.1	-69.7	0.0
2026-01-16 10:56:41.522345	0.8	58.6	-69.9	0.0
2026-01-16 10:56:42.634561	0.4	58.1	-69.7	0.0
2026-01-16 10:56:43.747840	0.1	57.6	-69.4	0.0
2026-01-16 10:56:44.859934	359.7	57.1	-69.7	0.0
2026-01-16 10:56:45.972281	359.4	56.6	-69.7	0.0
2026-01-16 10:56:47.085405	359.1	56.1	-69.6	0.0
2026-01-16 10:56:48.198137	358.8	55.7	-69.5	0.0
2026-01-16 10:56:49.311211	358.5	55.2	-69.6	0.0
2026-01-16 10:56:50.423660	358.2	54.7	-69.8	0.0
2026-01-16 10:56:51.536821	357.9	54.2	-69.8	0.0
2026-01-16 10:56:52.649959	357.6	53.8	-69.6	0.0
2026-01-16 10:56:53.762819	357.4	53.3	-69.6	0.0
2026-01-16 10:56:54.876180	357.1	52.8	-69.8	0.0
2026-01-16 10:56:55.989306	356.9	52.4	-69.8	0.0
2026-01-16 10:56:57.101582	356.6	51.9	-69.8	0.0
2026-01-16 10:56:58.214340	356.4	51.5	-69.7	0.0
2026-01-16 10:56:59.326844	356.2	51.0	-69.9	0.0
2026-01-16 10:57:00.438852	356.0	50.6	-69.4	0.0
2026-01-16 10:57:01.552267	355.7	50.2	-69.2	0.0
2026-01-16 10:57:02.667468	355.5	49.7	-69.6	0.0
2026-01-16 10:57:03.780850	355.3	49.3	-69.7	0.0
2026-01-16 10:57:04.893813	355.2	48.9	-69.5	0.0
2026-01-16 10:57:06.006032	355.0	48.4	-69.7	0.0
2026-01-16 10:57:07.118906	354.8	48.0	-69.5	0.0
2026-01-16 10:57:08.231490	354.6	47.6	-69.6	0.0
2026-01-16 10:57:09.344893	354.4	47.2	-69.6	0.0
2026-01-16 10:57:10.457501	354.3	46.8	-69.6	0.0
2026-01-16 10:57:11.570522	354.1	46.4	-69.6	0.0
2026-01-16 10:57:12.683752	353.9	46.0	-69.6	0.0
2026-01-16 10:57:13.798626	353.8	45.6	-69.6	0.0
2026-01-16 10:57:14.911963	353.6	45.2	-69.4	0.0
2026-01-16 10:57:16.024436	353.5	44.8	-69.4	0.0
2026-01-16 10:57:17.137050	353.3	44.4	-69.6	0.0
2026-01-16 10:57:18.249829	353.2	44.1	-69.6	0.0
2026-01-16 10:57:19.363269	353.1	43.7	-69.4	0.0
2026-01-16 10:57:20.475784	352.9	43.3	-69.8	0.0
2026-01-16 10:57:21.588547	352.8	43.0	-69.6	0.0
2026-01-16 10:57:22.701168	352.7	42.6	-69.5	0.0
2026-01-16 10:57:23.813698	352.5	42.2	-69.5	0.0
2026-01-16 10:57:24.927689	352.4	41.9	-69.4	0.0
2026-01-16 10:57:26.040132	352.3	41.5	-69.7	0.0
2026-01-16 10:57:27.153763	352.2	41.2	-69.6	0.0
2026-01-16 10:57:28.266122	352.1	40.8	-69.6	0.0
2026-01-16 10:57:29.378977	352.0	40.5	-69.7	0.0
2026-01-16 10:57:30.492282	351.9	40.1	-69.5	0.0
2026-01-16 10:57:31.605156	351.8	39.8	-69.5	0.0
2026-01-16 10:57:32.718790	351.6	39.5	-69.6	0.0
2026-01-16 10:57:33.831849	351.5	39.1	-69.4	0.0
2026-01-16 10:57:34.944394	351.4	38.8	-69.6	0.0
2026-01-16 10:57:36.057778	351.3	38.5	-69.5	0.0
2026-01-16 10:57:37.169837	351.3	38.2	-69.1	0.0
2026-01-16 10:57:38.282679	351.2	37.8	-69.4	0.0
2026-01-16 10:57:39.395825	351.1	37.5	-69.7	0.0
2026-01-16 10:57:40.509309	351.0	37.2	-69.7	0.0
2026-01-16 10:57:41.622238	350.9	36.9	-69.6	0.0
2026-01-16 10:57:42.734863	350.8	36.6	-69.7	0.0
2026-01-16 10:57:43.846596	350.7	36.3	-69.5	0.0
2026-01-16 10:57:44.959652	350.6	36.0	-69.6	0.0
2026-01-16 10:57:46.072157	350.6	35.7	-69.6	0.0
2026-01-16 10:57:47.185418	350.5	35.4	-69.7	0.0
2026-01-16 10:57:48.298463	350.4	35.1	-69.5	0.0
2026-01-16 10:57:49.412355	350.3	34.8	-69.5	0.0
2026-01-16 10:57:50.525490	350.2	34.5	-69.6	0.0
2026-01-16 10:57:51.638568	350.2	34.3	-69.6	0.0
2026-01-16 10:57:52.751369	350.1	34.0	-69.6	0.0
2026-01-16 10:57:53.863299	350.0	33.7	-69.7	0.0
2026-01-16 10:57:54.976277	350.0	33.4	-69.7	0.0
2026-01-16 10:57:56.089046	349.9	33.2	-69.4	0.0
2026-01-16 10:57:57.201783	349.8	32.9	-69.6	0.0
2026-01-16 10:57:58.314622	349.8	32.6	-69.4	0.0
2026-01-16 10:57:59.428510	349.7	32.3	-69.7	0.0
2026-01-16 10:58:00.542070	349.6	32.1	-69.6	0.0
2026-01-16 10:58:01.654925	349.6	31.8	-69.1	0.0
2026-01-16 10:58:02.767936	349.5	31.6	-69.3	0.0
2026-01-16 10:58:03.881074	349.4	31.3	-69.6	0.0
2026-01-16 10:58:04.994077	349.4	31.1	-69.6	0.0
2026-01-16 10:58:06.106806	349.3	30.8	-69.4	0.0
2026-01-16 10:58:07.219389	349.3	30.6	-69.4	0.0
2026-01-16 10:58:08.332464	349.2	30.3	-69.1	0.0
2026-01-16 10:58:09.445775	349.2	30.1	-69.5	0.0
2026-01-16 10:58:10.559192	349.1	29.8	-69.8	0.0
2026-01-16 10:58:11.674763	349.1	29.6	-69.5	0.0
2026-01-16 10:58:12.786866	349.0	29.3	-69.5	0.0
2026-01-16 10:58:13.898849	348.9	29.1	-69.2	0.0
2026-01-16 10:58:15.011616	348.9	28.9	-69.7	0.0
2026-01-16 10:58:16.124614	348.8	28.6	-69.7	0.0
2026-01-16 10:58:17.237465	348.8	28.4	-69.3	0.0
2026-01-16 10:58:18.350590	348.8	28.2	-69.6	0.0
2026-01-16 10:58:19.463600	348.7	28.0	-69.5	0.0
2026-01-16 10:58:20.576783	348.7	27.7	-69.5	0.0
2026-01-16 10:58:21.689343	348.6	27.5	-69.9	0.0
2026-01-16 10:58:22.801778	348.6	27.3	-69.4	0.0
2026-01-16 10:58:23.914061	348.5	27.1	-69.6	0.0
2026-01-16 10:58:25.026554	348.5	26.9	-69.7	0.0
2026-01-16 10:58:26.140042	348.4	26.7	-69.6	0.0
2026-01-16 10:58:27.254576	348.4	26.4	-69.4	0.0
2026-01-16 10:58:28.367984	348.3	26.2	-69.5	0.0
2026-01-16 10:58:29.480730	348.3	26.0	-69.6	0.0
2026-01-16 10:58:30.593344	348.3	25.8	-69.7	0.0
2026-01-16 10:58:31.706329	348.2	25.6	-69.6	0.0
2026-01-16 10:58:32.819771	348.2	25.4	-69.3	0.0
2026-01-16 10:58:33.934355	348.1	25.2	-69.5	0.0
2026-01-16 10:58:35.047378	348.1	25.0	-68.9	0.0
2026-01-16 10:58:36.160072	348.1	24.8	-69.6	0.0
2026-01-16 10:58:37.272836	348.0	24.6	-69.6	0.0
2026-01-16 10:58:38.385361	348.0	24.4	-69.7	0.0
2026-01-16 10:58:39.498500	348.0	24.2	-69.5	0.0
2026-01-16 10:58:40.611740	347.9	24.0	-69.4	0.0
2026-01-16 10:58:41.724497	347.9	23.8	-69.5	0.0
2026-01-16 10:58:42.836938	347.8	23.6	-69.6	0.0
2026-01-16 10:58:43.950561	347.8	23.5	-69.4	0.0
2026-01-16 10:58:45.062632	347.8	23.3	-69.6	0.0
2026-01-16 10:58:46.175921	347.7	23.1	-69.5	0.0
2026-01-16 10:58:47.289065	347.7	22.9	-69.6	0.0
2026-01-16 10:58:48.401765	347.7	22.7	-69.8	0.0
2026-01-16 10:58:49.514882	347.6	22.5	-69.3	0.0
2026-01-16 10:58:50.627893	347.6	22.4	-69.5	0.0
2026-01-16 10:58:51.741249	347.6	22.2	-69.6	0.0
2026-01-16 10:58:52.854197	347.6	22.0	-69.6	0.0
2026-01-16 10:58:53.967323	347.5	21.8	-69.6	0.0
2026-01-16 10:58:55.079904	347.5	21.7	-69.4	0.0
2026-01-16 10:58:56.193494	347.5	21.5	-69.7	0.0
2026-01-16 10:58:57.307943	347.4	21.3	-69.5	0.0
2026-01-16 10:58:58.422103	347.4	21.1	-69.7	0.0
2026-01-16 10:58:59.534041	347.4	21.0	-69.6	0.0
2026-01-16 10:59:00.647284	347.4	20.8	-69.9	0.0
2026-01-16 10:59:01.760293	347.3	20.6	-69.8	0.0
2026-01-16 10:59:02.873684	347.3	20.5	-69.7	0.0
2026-01-16 10:59:03.986876	347.3	20.3	-69.7	0.0
2026-01-16 10:59:05.099754	347.2	20.1	-69.6	0.0
2026-01-16 10:59:06.213163	347.2	20.0	-69.7	0.0
2026-01-16 10:59:07.325842	347.2	19.8	-69.6	0.0
2026-01-16 10:59:08.441168	347.2	19.7	-69.7	0.0
2026-01-16 10:59:09.553154	347.1	19.5	-69.1	0.0
2026-01-16 10:59:10.666252	347.1	19.3	-69.6	0.0
2026-01-16 10:59:11.778351	347.1	19.2	-69.5	0.0
2026-01-16 10:59:12.891090	347.1	19.0	-69.5	0.0
2026-01-16 10:59:14.004666	347.0	18.9	-69.4	0.0
2026-01-16 10:59:15.117069	347.0	18.7	-69.6	0.0
2026-01-16 10:59:16.230178	347.0	18.6	-69.4	0.0
2026-01-16 10:59:17.343247	347.0	18.4	-69.6	0.0
2026-01-16 10:59:18.455823	346.9	18.3	-69.5	0.0
2026-01-16 10:59:19.568924	346.9	18.1	-69.7	0.0
2026-01-16 10:59:20.681864	346.9	18.0	-69.6	0.0
2026-01-16 10:59:21.794496	346.9	17.8	-69.6	0.0
2026-01-16 10:59:22.907610	346.9	17.7	-69.6	0.0
2026-01-16 10:59:24.020180	346.8	17.5	-69.7	0.0
2026-01-16 10:59:25.132845	346.8	17.4	-69.8	0.0
2026-01-16 10:59:26.245936	346.8	17.2	-69.3	0.0
2026-01-16 10:59:27.359195	346.8	17.1	-69.7	0.0
2026-01-16 10:59:28.472432	346.8	17.0	-69.6	0.0
2026-01-16 10:59:29.585332	346.7	16.8	-69.8	0.0
2026-01-16 10:59:30.698125	346.7	16.7	-69.8	0.0
2026-01-16 10:59:31.812539	346.7	16.5	-69.5	0.0
2026-01-16 10:59:32.924948	346.7	16.4	-69.7	0.0
2026-01-16 10:59:34.038012	346.7	16.3	-69.4	0.0
2026-01-16 10:59:35.151189	346.6	16.1	-69.5	0.0
2026-01-16 10:59:36.264183	346.6	16.0	-69.7	0.0
2026-01-16 10:59:37.376706	346.6	15.9	-69.7	0.0
2026-01-16 10:59:38.489975	346.6	15.7	-69.8	0.0
2026-01-16 10:59:39.602979	346.6	15.6	-69.9	0.0
2026-01-16 10:59:40.716263	346.5	15.5	-69.8	0.0
2026-01-16 10:59:41.828767	346.5	15.3	-69.7	0.0
2026-01-16 10:59:42.941936	346.5	15.2	-69.2	0.0
2026-01-16 10:59:44.054669	346.5	15.1	-69.5	0.0
#Closed at: 2026-01-16 10:51:50.966464