passes_logs/2026/01/13/R2M6_AANII_01/R2M6_AANII_01__20260113_025207_FENGYUN_3D_rec.log

#Pass ID: 20260113_025207_FENGYUN 3D
#Satellite: FENGYUN 3D
#Configuration: FENGYUN 3D
#almurnet v.1.7.20240730
#Start time: 2026-01-13 02:55:26

#Version: 2.2.20231116
#Station: R2M6_AANII_01
#Location: 30.233357 lon 59.946436 lat
#TLE: 1 43010U 17072A   26012.32543542  .00000598  00000+0  30457-3 0  9997
#TLE: 2 43010  98.9935 344.1005 0002233 112.6136 247.5276 14.19696644422876

#Time	Az	El	Level	Level2	SNR	BER	BlckErr	Temp	State	Recorded	gain1	gain2
2026-01-13 02:55:26.09	7.23	29.95	-33.8	-53.1	3.8	7.47e-01	0	42	0	0	28	33340
2026-01-13 02:55:29.07	6.91	30.50	-34.0	-44.5	3.8	8.47e-01	0	42	104	0	29	12064
2026-01-13 02:55:32.07	6.59	31.05	-34.0	-44.5	3.8	8.47e-01	0	42	104	0	29	12043
2026-01-13 02:55:35.09	6.25	31.63	-34.0	-44.5	3.8	8.46e-01	0	42	104	0	29	12069
2026-01-13 02:55:38.10	5.89	32.21	-33.9	-44.4	3.8	8.46e-01	0	42	104	0	29	12011
2026-01-13 02:55:41.08	5.53	32.79	-33.9	-44.4	3.8	8.46e-01	0	42	104	0	29	12041
2026-01-13 02:55:44.09	5.15	33.39	-34.0	-44.5	3.8	8.45e-01	0	42	104	0	29	12098
2026-01-13 02:55:47.10	4.76	34.00	-34.0	-44.6	3.8	8.47e-01	0	42	104	0	29	12156
2026-01-13 02:55:50.11	4.35	34.63	-34.0	-44.5	3.8	8.45e-01	0	42	104	0	29	12089
2026-01-13 02:55:53.11	3.92	35.26	-33.9	-44.2	3.8	8.46e-01	0	42	104	0	29	11746
2026-01-13 02:55:56.10	3.48	35.90	-33.6	-42.4	3.8	8.46e-01	0	42	104	0	28	9914
2026-01-13 02:55:59.11	3.02	36.55	-33.6	-42.7	3.9	8.44e-01	0	42	104	0	28	10203
2026-01-13 02:56:02.11	2.54	37.21	-33.6	-42.9	3.8	8.45e-01	0	42	104	0	28	10420
2026-01-13 02:56:05.12	2.03	37.89	-33.5	-41.4	4.1	8.41e-01	0	42	0	0	28	8967
2026-01-13 02:56:08.14	1.51	38.58	-33.1	-39.1	5.0	8.02e-01	0	42	0	0	27	7184
2026-01-13 02:56:11.14	0.96	39.28	-31.7	-35.4	8.0	9.96e-02	0	42	0	12582912	24	5506
2026-01-13 02:56:14.16	0.39	39.99	-33.4	-41.7	4.2	8.16e-01	0	42	0	26214400	26	9327
2026-01-13 02:56:17.17	359.79	40.72	-28.3	-29.4	13.8	5.14e-05	0	42	0	36700160	18	4100
2026-01-13 02:56:20.17	359.16	41.45	-27.2	-29.0	15.0	0.00e+00	0	42	0	53477376	14	4411
2026-01-13 02:56:23.18	358.51	42.19	-26.9	-28.3	15.4	0.00e+00	0	42	0	70254592	14	4205
2026-01-13 02:56:26.20	357.81	42.95	-26.0	-26.9	16.5	0.00e+00	0	42	0	88080384	13	3959
2026-01-13 02:56:29.20	357.09	43.71	-26.7	-28.3	15.7	0.00e+00	0	42	0	104857600	13	4321
2026-01-13 02:56:32.19	356.34	44.48	-24.8	-25.2	17.9	0.00e+00	0	42	0	121634816	11	3770
2026-01-13 02:56:35.21	355.54	45.27	-24.9	-26.0	17.8	0.00e+00	0	42	0	138412032	10	4065
2026-01-13 02:56:38.22	354.70	46.06	-24.5	-25.1	18.2	0.00e+00	0	42	0	155189248	10	3854
2026-01-13 02:56:41.21	353.82	46.86	-23.9	-24.3	18.9	0.00e+00	0	42	0	171966464	9	3774
2026-01-13 02:56:44.20	352.90	47.67	-23.8	-24.7	19.0	0.00e+00	0	42	0	188743680	8	3967
2026-01-13 02:56:47.22	351.92	48.49	-23.6	-24.2	19.2	0.00e+00	0	42	0	205520896	8	3849
2026-01-13 02:56:50.22	350.88	49.31	-23.7	-24.5	19.1	0.00e+00	0	42	0	222298112	8	3917
2026-01-13 02:56:53.22	349.80	50.13	-23.7	-24.4	19.1	0.00e+00	0	42	0	240123904	8	3893
2026-01-13 02:56:56.21	348.65	50.95	-24.1	-25.3	18.6	0.00e+00	0	42	0	256901120	8	4120
2026-01-13 02:56:59.22	347.43	51.79	-24.2	-25.4	18.6	0.00e+00	0	42	0	273678336	8	4141
2026-01-13 02:57:02.22	346.14	52.62	-23.8	-24.6	19.0	0.00e+00	0	42	0	290455552	8	3929
2026-01-13 02:57:05.25	344.77	53.45	-24.3	-25.6	18.5	0.00e+00	0	42	0	307232768	8	4193
2026-01-13 02:57:08.27	343.31	54.28	-24.6	-25.7	18.2	0.00e+00	0	42	0	324009984	9	4111
2026-01-13 02:57:11.28	341.78	55.10	-23.8	-24.5	19.0	0.00e+00	0	42	0	340787200	8	3922
2026-01-13 02:57:14.29	340.15	55.91	-23.8	-24.5	19.1	0.00e+00	0	42	0	358612992	8	3924
2026-01-13 02:57:17.31	338.42	56.71	-23.7	-24.4	19.1	0.00e+00	0	42	0	375390208	8	3906
2026-01-13 02:57:20.32	336.60	57.50	-23.6	-24.1	19.3	0.00e+00	0	42	0	392167424	8	3830
2026-01-13 02:57:23.33	334.66	58.26	-23.6	-24.1	19.3	0.00e+00	0	42	0	408944640	8	3825
2026-01-13 02:57:26.36	332.60	59.01	-23.7	-24.4	19.1	0.00e+00	0	42	0	425721856	8	3895
2026-01-13 02:57:29.38	330.43	59.72	-23.5	-23.9	19.3	0.00e+00	0	42	0	443547648	8	3787
2026-01-13 02:57:32.38	328.15	60.41	-23.3	-24.1	19.5	0.00e+00	0	42	0	460324864	7	3934
2026-01-13 02:57:35.40	325.74	61.05	-23.3	-24.0	19.6	0.00e+00	0	42	0	477102080	7	3916
2026-01-13 02:57:38.42	323.19	61.66	-23.3	-24.0	19.6	0.00e+00	0	42	0	493879296	7	3906
2026-01-13 02:57:41.44	320.53	62.22	-23.4	-24.2	19.4	0.00e+00	0	42	0	510656512	7	3964
2026-01-13 02:57:44.45	317.75	62.73	-23.2	-23.9	19.6	0.00e+00	0	42	0	528482304	7	3879
2026-01-13 02:57:47.47	314.85	63.19	-22.7	-23.3	20.1	0.00e+00	0	42	0	545259520	6	3851
2026-01-13 02:57:50.48	311.85	63.58	-22.7	-23.3	20.1	0.00e+00	0	42	0	562036736	6	3864
2026-01-13 02:57:53.50	308.75	63.91	-22.5	-22.8	20.3	0.00e+00	0	42	0	578813952	6	3758
2026-01-13 02:57:56.52	305.57	64.17	-22.3	-22.5	20.6	0.00e+00	0	42	0	595591168	6	3672
2026-01-13 02:57:59.54	302.33	64.36	-22.4	-23.1	20.5	0.00e+00	0	42	0	613416960	5	3915
2026-01-13 02:58:02.56	299.04	64.47	-21.9	-22.1	21.0	0.00e+00	0	42	0	630194176	5	3681
2026-01-13 02:58:05.58	295.73	64.51	-22.2	-22.8	20.6	0.00e+00	0	42	0	646971392	5	3842
2026-01-13 02:58:08.60	292.42	64.47	-21.6	-22.1	21.2	0.00e+00	0	42	0	663748608	4	3795
2026-01-13 02:58:11.61	289.14	64.35	-21.8	-22.4	21.0	0.00e+00	0	42	0	680525824	4	3868
2026-01-13 02:58:14.63	285.90	64.16	-21.7	-22.3	21.0	0.00e+00	0	42	0	697303040	4	3842
2026-01-13 02:58:17.65	282.72	63.90	-21.9	-22.6	20.9	0.00e+00	0	42	0	715128832	4	3919
2026-01-13 02:58:20.68	279.61	63.57	-22.0	-22.7	20.9	0.00e+00	0	42	0	731906048	4	3944
2026-01-13 02:58:23.69	276.61	63.17	-22.7	-23.8	20.1	0.00e+00	0	42	0	748683264	5	4086
2026-01-13 02:58:26.69	273.73	62.72	-22.6	-23.6	20.1	0.00e+00	0	42	0	765460480	5	4042
2026-01-13 02:58:29.70	270.95	62.21	-22.7	-23.7	20.1	0.00e+00	0	42	0	782237696	5	4063
2026-01-13 02:58:32.72	268.29	61.64	-22.4	-23.2	20.3	0.00e+00	0	42	0	799014912	5	3946
2026-01-13 02:58:35.74	265.74	61.03	-22.6	-23.6	20.1	0.00e+00	0	42	0	815792128	5	4033
2026-01-13 02:58:38.76	263.33	60.38	-23.1	-24.1	19.7	0.00e+00	0	42	0	833617920	6	4043
2026-01-13 02:58:41.77	261.04	59.70	-22.9	-23.7	19.8	0.00e+00	0	42	0	850395136	6	3961
2026-01-13 02:58:44.78	258.88	58.98	-23.0	-24.0	19.7	0.00e+00	0	42	0	867172352	6	4012
2026-01-13 02:58:47.79	256.83	58.23	-23.5	-24.5	19.2	0.00e+00	0	42	0	883949568	7	4028
2026-01-13 02:58:50.81	254.89	57.47	-22.9	-23.7	19.8	0.00e+00	0	42	0	900726784	6	3948
2026-01-13 02:58:53.83	253.06	56.68	-23.0	-23.9	19.7	0.00e+00	0	42	0	918552576	6	3987
2026-01-13 02:58:56.84	251.33	55.88	-23.0	-24.0	19.7	0.00e+00	0	42	0	935329792	6	4018
2026-01-13 02:58:59.86	249.70	55.06	-23.2	-24.3	19.5	0.00e+00	0	42	0	952107008	6	4100
2026-01-13 02:59:02.87	248.17	54.24	-23.3	-24.5	19.4	0.00e+00	0	42	0	968884224	6	4148
2026-01-13 02:59:05.89	246.71	53.40	-23.5	-24.5	19.1	0.00e+00	0	42	0	985661440	7	4031
2026-01-13 02:59:08.90	245.35	52.57	-23.4	-24.2	19.3	0.00e+00	0	42	0	1003487232	7	3970
2026-01-13 02:59:11.91	244.06	51.74	-23.8	-25.1	18.8	0.00e+00	0	42	0	1020264448	7	4172
2026-01-13 02:59:14.92	242.84	50.90	-23.3	-24.1	19.3	0.00e+00	0	42	0	1037041664	7	3929
2026-01-13 02:59:17.94	241.68	50.07	-23.0	-23.4	19.6	0.00e+00	0	42	0	1053818880	7	3776
2026-01-13 02:59:20.96	240.58	49.23	-22.9	-23.2	19.7	0.00e+00	0	42	0	1070596096	7	3741
2026-01-13 02:59:23.98	239.54	48.40	-22.8	-23.0	19.8	0.00e+00	0	42	0	1087373312	7	3679
2026-01-13 02:59:26.99	238.56	47.59	-22.8	-23.4	19.9	0.00e+00	0	42	0	1105199104	6	3891
2026-01-13 02:59:30.02	237.63	46.77	-22.2	-22.8	20.4	0.00e+00	0	42	0	1121976320	5	3860
2026-01-13 02:59:33.04	236.74	45.96	-22.5	-23.3	20.1	0.00e+00	0	42	0	1138753536	5	3979
2026-01-13 02:59:36.05	235.91	45.16	-22.4	-23.1	20.2	0.00e+00	0	42	0	1155530752	5	3915
2026-01-13 02:59:39.06	235.11	44.38	-22.5	-23.4	20.0	0.00e+00	0	42	0	1172307968	5	4000
2026-01-13 02:59:42.07	234.35	43.60	-22.8	-24.0	19.8	0.00e+00	0	42	0	1189085184	5	4129
2026-01-13 02:59:45.09	233.63	42.83	-22.0	-22.4	20.5	0.00e+00	0	42	0	1206910976	5	3761
2026-01-13 02:59:48.11	232.94	42.07	-22.3	-22.9	20.3	0.00e+00	0	42	0	1223688192	5	3882
2026-01-13 02:59:51.12	232.28	41.32	-22.2	-22.8	20.4	0.00e+00	0	42	0	1240465408	5	3844
2026-01-13 02:59:54.13	231.65	40.59	-22.2	-22.8	20.4	0.00e+00	0	42	0	1257242624	5	3841
2026-01-13 02:59:57.15	231.05	39.86	-22.2	-22.7	20.4	0.00e+00	0	42	0	1274019840	5	3829
2026-01-13 03:00:00.18	230.48	39.14	-22.5	-23.4	20.1	0.00e+00	0	42	0	1290797056	5	3987
2026-01-13 03:00:03.19	229.93	38.44	-22.4	-23.2	20.1	0.00e+00	0	42	0	1308622848	5	3947
2026-01-13 03:00:06.21	229.40	37.75	-22.2	-22.8	20.3	0.00e+00	0	42	0	1325400064	5	3851
2026-01-13 03:00:09.23	228.90	37.07	-22.6	-23.6	19.9	0.00e+00	0	42	0	1342177280	5	4036
2026-01-13 03:00:12.24	228.42	36.40	-22.5	-23.3	20.1	0.00e+00	0	42	0	1358954496	5	3973
2026-01-13 03:00:15.26	227.95	35.74	-22.5	-23.4	20.0	0.00e+00	0	42	0	1375731712	5	3986
2026-01-13 03:00:18.28	227.51	35.10	-22.4	-23.3	20.1	0.00e+00	0	42	0	1393557504	5	3962
2026-01-13 03:00:21.29	227.08	34.46	-22.1	-22.6	20.4	0.00e+00	0	42	0	1410334720	5	3805
2026-01-13 03:00:24.30	226.67	33.84	-22.4	-23.3	20.0	0.00e+00	0	42	0	1427111936	5	3961
2026-01-13 03:00:27.33	226.28	33.22	-22.9	-24.3	19.5	0.00e+00	0	42	0	1443889152	5	4219
2026-01-13 03:00:30.34	225.90	32.62	-22.8	-24.0	19.6	0.00e+00	0	42	0	1460666368	5	4140
2026-01-13 03:00:33.35	225.53	32.03	-22.6	-23.7	19.8	0.00e+00	0	42	0	1478492160	5	4063
2026-01-13 03:00:36.37	225.18	31.45	-22.5	-23.5	19.9	0.00e+00	0	42	0	1495269376	5	4012
2026-01-13 03:00:39.38	224.84	30.88	-22.6	-23.6	19.8	0.00e+00	0	42	0	1512046592	5	4040
2026-01-13 03:00:42.39	224.51	30.32	-22.8	-24.0	19.6	0.00e+00	0	42	0	1528823808	5	4144
2026-01-13 03:00:45.41	224.19	29.76	-22.7	-23.8	19.7	0.00e+00	0	42	0	1545601024	5	4100
2026-01-13 03:00:48.41	223.89	29.22	-22.7	-23.8	19.7	0.00e+00	0	42	0	1562378240	5	4100
2026-01-13 03:00:51.43	223.59	28.69	-22.7	-23.8	19.7	0.00e+00	0	42	0	1579155456	5	4103
2026-01-13 03:00:54.45	223.30	28.16	-22.7	-23.9	19.6	0.00e+00	0	42	0	1596981248	5	4116
2026-01-13 03:00:57.47	223.03	27.65	-22.7	-23.8	19.7	0.00e+00	0	42	0	1613758464	5	4090
2026-01-13 03:01:00.48	222.76	27.14	-22.8	-24.0	19.6	0.00e+00	0	42	0	1630535680	5	4130
2026-01-13 03:01:03.50	222.50	26.64	-22.8	-24.0	19.6	0.00e+00	0	42	0	1647312896	5	4133
2026-01-13 03:01:06.52	222.25	26.15	-22.9	-24.2	19.4	0.00e+00	0	42	0	1664090112	5	4197
2026-01-13 03:01:09.54	222.01	25.67	-23.2	-24.3	19.1	0.00e+00	0	42	0	1681915904	6	4104
2026-01-13 03:01:12.56	221.77	25.20	-23.1	-24.2	19.2	0.00e+00	0	42	0	1698693120	6	4080
2026-01-13 03:01:15.58	221.54	24.73	-23.3	-24.5	19.0	0.00e+00	0	42	0	1715470336	6	4159
2026-01-13 03:01:18.60	221.32	24.27	-23.1	-24.1	19.2	0.00e+00	0	42	0	1732247552	6	4056
2026-01-13 03:01:21.62	221.10	23.82	-23.2	-24.4	19.0	0.00e+00	0	42	0	1749024768	6	4137
2026-01-13 03:01:24.64	220.90	23.38	-23.3	-24.6	18.9	0.00e+00	0	42	0	1765801984	6	4178
2026-01-13 03:01:27.65	220.69	22.94	-23.3	-24.7	18.9	0.00e+00	0	42	0	1783627776	6	4205
2026-01-13 03:01:30.68	220.50	22.51	-23.3	-24.6	18.9	0.00e+00	0	42	0	1800404992	6	4171
2026-01-13 03:01:33.70	220.30	22.09	-23.3	-24.7	18.9	0.00e+00	0	42	0	1817182208	6	4203
2026-01-13 03:01:36.47	220.13	21.70	-23.4	-24.8	18.8	0.00e+00	0	43	0	1833959424	6	4221
2026-01-13 03:01:39.77	219.93	21.25	-23.4	-24.7	18.8	0.00e+00	0	42	0	1852833792	6	4212
2026-01-13 03:01:42.50	219.78	20.89	-23.5	-24.5	18.6	0.00e+00	0	42	0	1868562432	7	4047
2026-01-13 03:01:45.81	219.59	20.45	-23.7	-25.0	18.4	0.00e+00	0	42	0	1887436800	7	4170
2026-01-13 03:01:48.54	219.44	20.10	-23.8	-25.1	18.3	0.00e+00	0	42	0	1902116864	7	4204
2026-01-13 03:01:51.86	219.26	19.67	-23.9	-25.5	18.1	0.00e+00	0	42	0	1920991232	7	4299
2026-01-13 03:01:54.59	219.11	19.33	-24.2	-25.6	17.8	0.00e+00	0	42	0	1935671296	8	4225
2026-01-13 03:01:57.90	218.94	18.92	-24.2	-25.5	17.8	0.00e+00	0	42	0	1954545664	8	4198
2026-01-13 03:02:00.63	218.81	18.58	-24.3	-25.6	17.8	0.00e+00	0	42	0	1970274304	8	4219
2026-01-13 03:02:03.92	218.65	18.19	-24.0	-25.1	18.0	0.00e+00	0	42	0	1989148672	8	4072
2026-01-13 03:02:06.66	218.52	17.86	-24.1	-25.3	17.9	0.00e+00	0	42	0	2003828736	8	4136
2026-01-13 03:02:09.97	218.37	17.47	-24.0	-25.1	18.0	0.00e+00	0	42	0	2022703104	8	4079
2026-01-13 03:02:12.70	218.24	17.16	-24.2	-25.4	17.8	0.00e+00	0	42	0	2038431744	8	4157
2026-01-13 03:02:16.01	218.10	16.78	-24.2	-25.5	17.8	0.00e+00	0	42	0	2057306112	8	4183
2026-01-13 03:02:18.74	217.98	16.47	-24.3	-25.6	17.7	0.00e+00	0	42	0	2071986176	8	4214
2026-01-13 03:02:22.07	217.84	16.10	-24.5	-26.1	17.4	0.00e+00	0	42	0	2090860544	8	4329
2026-01-13 03:02:24.80	217.73	15.80	-24.9	-26.4	17.0	0.00e+00	0	42	0	2106589184	9	4305
2026-01-13 03:02:28.10	217.60	15.44	-25.0	-26.3	16.8	0.00e+00	0	42	0	2124414976	10	4165
2026-01-13 03:02:30.84	217.49	15.15	-25.1	-26.6	16.6	0.00e+00	0	42	0	2140143616	10	4236
2026-01-13 03:02:34.14	217.36	14.80	-25.1	-26.5	16.6	0.00e+00	0	42	0	2159017984	10	4229
2026-01-13 03:02:36.88	217.26	14.52	-25.3	-26.8	16.4	0.00e+00	0	42	0	2173698048	10	4308
2026-01-13 03:02:40.19	217.14	14.18	-25.3	-26.9	16.4	0.00e+00	0	42	0	2192572416	10	4322
2026-01-13 03:02:42.92	217.04	13.90	-25.3	-26.9	16.4	0.00e+00	0	42	0	2208301056	10	4318
2026-01-13 03:02:46.22	216.93	13.57	-25.4	-27.1	16.2	0.00e+00	0	42	0	2227175424	10	4393
2026-01-13 03:02:48.95	216.84	13.30	-25.6	-27.0	16.0	0.00e+00	0	42	0	2241855488	11	4246
2026-01-13 03:02:52.26	216.72	12.97	-25.5	-26.9	16.0	0.00e+00	0	42	0	2260729856	11	4224
2026-01-13 03:02:54.99	216.64	12.71	-25.7	-27.2	15.8	0.00e+00	0	42	0	2276458496	11	4302
2026-01-13 03:02:58.30	216.53	12.39	-25.6	-27.0	15.9	0.00e+00	0	42	0	2294284288	11	4259
2026-01-13 03:03:01.04	216.44	12.13	-25.8	-27.5	15.6	0.00e+00	0	42	0	2310012928	11	4382
2026-01-13 03:03:04.34	216.34	11.82	-26.1	-27.8	15.1	0.00e+00	0	42	0	2328887296	12	4356
2026-01-13 03:03:07.07	216.26	11.57	-26.0	-27.5	15.2	0.00e+00	0	42	0	2343567360	12	4280
2026-01-13 03:03:10.38	216.16	11.27	-26.0	-27.6	15.2	0.00e+00	0	42	0	2362441728	12	4315
2026-01-13 03:03:13.10	216.09	11.02	-26.1	-27.7	15.1	0.00e+00	0	42	0	2378170368	12	4332
2026-01-13 03:03:16.41	215.99	10.73	-25.9	-27.3	15.3	0.00e+00	0	42	0	2397044736	12	4220
2026-01-13 03:03:19.14	215.92	10.49	-25.9	-27.4	15.2	0.00e+00	0	42	0	2411724800	12	4254
2026-01-13 03:03:22.45	215.83	10.20	-26.0	-27.6	15.1	0.00e+00	0	42	0	2430599168	12	4317
2026-01-13 03:03:25.17	215.75	9.96	-26.0	-27.5	15.2	1.10e-06	0	42	0	2445279232	12	4275
2026-01-13 03:03:28.48	215.67	9.68	-26.1	-27.7	15.0	0.00e+00	0	42	0	2464153600	12	4332
2026-01-13 03:03:31.20	215.60	9.44	-26.1	-27.7	15.0	0.00e+00	0	42	0	2479882240	12	4327
2026-01-13 03:03:34.50	215.52	9.17	-26.3	-28.2	14.7	0.00e+00	0	42	0	2498756608	12	4471
2026-01-13 03:03:37.23	215.45	8.94	-26.3	-28.2	14.6	0.00e+00	0	42	0	2513436672	12	4488
2026-01-13 03:03:40.53	215.37	8.67	-26.5	-28.3	14.3	0.00e+00	0	42	0	2532311040	13	4394
2026-01-13 03:03:43.26	215.30	8.44	-26.5	-28.3	14.2	3.40e-06	0	42	0	2548039680	13	4390
2026-01-13 03:03:46.57	215.23	8.18	-26.3	-27.7	14.6	0.00e+00	0	42	0	2565865472	13	4240
2026-01-13 03:03:49.30	215.17	7.96	-26.5	-28.1	14.3	1.10e-06	0	42	0	2581594112	13	4359
2026-01-13 03:03:52.60	215.09	7.70	-26.5	-28.2	14.2	3.40e-06	0	42	0	2600468480	13	4382
2026-01-13 03:03:55.33	215.03	7.48	-26.6	-28.3	14.1	5.70e-06	0	42	0	2615148544	13	4415
2026-01-13 03:03:58.64	214.96	7.22	-26.6	-28.4	14.0	2.20e-06	0	42	0	2634022912	13	4451
2026-01-13 03:04:01.38	214.90	7.01	-32.9	-44.3	3.8	8.46e-01	0	42	104	2643460096	25	13467

#Closed at: 2026-01-13 03:04:03
#Recorded file [2643 MB]: D:/data/31010_260113_055604.dat