passes_logs/2026/01/13/R2M6_AANII_01/R2M6_AANII_01__20260113_142750_FENGYUN_3D_rec.log

#Pass ID: 20260113_142750_FENGYUN 3D
#Satellite: FENGYUN 3D
#Configuration: FENGYUN 3D
#almurnet v.1.7.20240730
#Start time: 2026-01-13 14:27:50

#Version: 2.2.20231116
#Station: R2M6_AANII_01
#Location: 30.233357 lon 59.946436 lat
#TLE: 1 43010U 17072A   26012.88925189  .00000165  00000+0  10002-3 0  9993
#TLE: 2 43010  98.9935 344.6729 0002259 112.6958 247.4456 14.19695590422951

#Time	Az	El	Level	Level2	SNR	BER	BlckErr	Temp	State	Recorded	gain1	gain2
2026-01-13 14:27:50.02	231.72	7.00	-34.0	-44.5	3.8	8.47e-01	0	40	0	0	29	12134
2026-01-13 14:27:52.04	231.96	7.10	-34.0	-44.5	3.8	8.47e-01	0	40	104	0	29	12117
2026-01-13 14:27:54.04	232.21	7.21	-34.0	-44.6	3.8	8.46e-01	0	40	104	0	29	12154
2026-01-13 14:27:56.06	232.46	7.31	-34.0	-44.5	3.8	8.45e-01	0	40	104	0	29	12122
2026-01-13 14:27:58.07	232.71	7.41	-34.0	-44.5	3.8	8.47e-01	0	40	104	0	29	12134
2026-01-13 14:28:00.08	232.96	7.52	-34.0	-44.5	3.8	8.46e-01	0	41	104	0	29	12126
2026-01-13 14:28:02.09	233.21	7.62	-34.0	-44.5	3.8	8.45e-01	0	40	104	0	29	12098
2026-01-13 14:28:04.11	233.47	7.73	-34.0	-44.6	3.8	8.46e-01	0	41	104	0	29	12157
2026-01-13 14:28:06.12	233.72	7.83	-34.0	-44.5	3.8	8.46e-01	0	41	104	0	29	12120
2026-01-13 14:28:08.13	233.98	7.93	-34.0	-44.5	3.8	8.47e-01	0	41	104	0	29	12122
2026-01-13 14:28:10.15	234.24	8.04	-34.0	-44.5	3.8	8.46e-01	0	41	104	0	29	12132
2026-01-13 14:28:12.16	234.51	8.14	-34.0	-44.5	3.8	8.46e-01	0	41	104	0	29	12123
2026-01-13 14:28:14.17	234.77	8.24	-34.0	-44.5	3.8	8.46e-01	0	41	104	0	29	12116
2026-01-13 14:28:16.19	235.04	8.35	-34.0	-44.6	3.8	8.46e-01	0	41	104	0	29	12160
2026-01-13 14:28:18.20	235.30	8.45	-34.0	-44.6	3.8	8.47e-01	0	41	104	0	29	12162
2026-01-13 14:28:20.21	235.57	8.55	-34.0	-44.5	3.8	8.46e-01	0	41	104	0	29	12082
2026-01-13 14:28:22.22	235.84	8.66	-34.0	-44.6	3.8	8.45e-01	0	41	104	0	29	12147
2026-01-13 14:28:24.24	236.12	8.76	-34.0	-44.6	3.8	8.46e-01	0	41	104	0	29	12142
2026-01-13 14:28:26.26	236.39	8.86	-34.0	-44.5	3.8	8.47e-01	0	41	104	0	29	12114
2026-01-13 14:28:28.27	236.67	8.97	-34.0	-44.6	3.8	8.48e-01	0	41	104	0	29	12161
2026-01-13 14:28:30.28	236.95	9.07	-34.0	-44.5	3.8	8.46e-01	0	41	104	0	29	12142
2026-01-13 14:28:32.29	237.23	9.17	-34.0	-44.5	3.8	8.46e-01	0	41	104	0	29	12109
2026-01-13 14:28:34.30	237.51	9.27	-34.0	-44.5	3.8	8.46e-01	0	41	104	0	29	12147
2026-01-13 14:28:36.32	237.80	9.37	-34.0	-44.6	3.8	8.45e-01	0	41	104	0	29	12146
2026-01-13 14:28:38.33	238.08	9.48	-34.0	-44.6	3.8	8.47e-01	0	42	104	0	29	12157
2026-01-13 14:28:40.35	238.37	9.58	-34.0	-44.5	3.8	8.47e-01	0	42	104	0	29	12132
2026-01-13 14:28:42.36	238.66	9.68	-34.0	-44.6	3.8	8.47e-01	0	41	104	0	29	12148
2026-01-13 14:28:44.37	238.95	9.78	-34.0	-44.5	3.8	8.45e-01	0	41	104	0	29	12138
2026-01-13 14:28:46.38	239.25	9.88	-34.0	-44.5	3.8	8.46e-01	0	42	104	0	29	12135
2026-01-13 14:28:48.40	239.54	9.98	-34.0	-44.6	3.8	8.46e-01	0	42	104	0	29	12182
2026-01-13 14:28:50.42	239.84	10.08	-34.0	-44.6	3.8	8.46e-01	0	42	104	0	29	12159
2026-01-13 14:28:52.44	240.15	10.18	-34.0	-44.5	3.8	8.46e-01	0	42	104	0	29	12126
2026-01-13 14:28:54.45	240.45	10.28	-34.0	-44.6	3.8	8.47e-01	0	42	104	0	29	12164
2026-01-13 14:28:56.47	240.75	10.38	-34.0	-44.5	3.8	8.46e-01	0	42	104	0	29	12130
2026-01-13 14:28:58.48	241.06	10.48	-34.0	-44.6	3.8	8.46e-01	0	42	104	0	29	12171
2026-01-13 14:29:00.50	241.37	10.58	-34.0	-44.6	3.8	8.46e-01	0	42	104	0	29	12146
2026-01-13 14:29:02.51	241.68	10.68	-34.0	-44.6	3.8	8.47e-01	0	42	104	0	29	12171
2026-01-13 14:29:04.53	241.99	10.78	-34.0	-44.6	3.8	8.47e-01	0	42	104	0	29	12166
2026-01-13 14:29:06.55	242.31	10.87	-34.0	-44.5	3.8	8.45e-01	0	42	104	0	29	12147
2026-01-13 14:29:08.56	242.62	10.97	-34.0	-44.6	3.8	8.46e-01	0	42	104	0	29	12163
2026-01-13 14:29:10.57	242.94	11.07	-34.0	-44.5	3.8	8.46e-01	0	42	104	0	29	12122
2026-01-13 14:29:12.59	243.26	11.17	-34.0	-44.6	3.8	8.47e-01	0	42	104	0	29	12147
2026-01-13 14:29:14.60	243.58	11.26	-34.0	-44.6	3.8	8.46e-01	0	42	104	0	29	12146
2026-01-13 14:29:16.61	243.91	11.36	-34.0	-44.5	3.8	8.46e-01	0	42	104	0	29	12130
2026-01-13 14:29:18.62	244.23	11.45	-34.0	-44.5	3.8	8.46e-01	0	42	104	0	29	12128
2026-01-13 14:29:20.64	244.56	11.55	-34.0	-44.6	3.8	8.46e-01	0	42	104	0	29	12136
2026-01-13 14:29:22.65	244.89	11.64	-34.0	-44.5	3.8	8.46e-01	0	42	104	0	29	12128
2026-01-13 14:29:24.66	245.23	11.73	-34.0	-44.5	3.8	8.45e-01	0	42	104	0	29	12105
2026-01-13 14:29:26.67	245.56	11.83	-34.0	-44.5	3.8	8.46e-01	0	42	104	0	29	12123
2026-01-13 14:29:28.68	245.90	11.92	-34.0	-44.6	3.8	8.46e-01	0	42	104	0	29	12202
2026-01-13 14:29:30.68	246.23	12.01	-34.0	-44.5	3.8	8.46e-01	0	42	104	0	29	12119
2026-01-13 14:29:32.70	246.57	12.10	-34.0	-44.6	3.8	8.46e-01	0	42	104	0	29	12137
2026-01-13 14:29:34.70	246.92	12.19	-34.0	-44.5	3.8	8.45e-01	0	42	104	0	29	12135
2026-01-13 14:29:36.72	247.26	12.29	-34.0	-44.6	3.8	8.47e-01	0	42	104	0	29	12166
2026-01-13 14:29:38.73	247.61	12.37	-34.0	-44.5	3.8	8.46e-01	0	42	104	0	29	12134
2026-01-13 14:29:40.75	247.96	12.46	-34.0	-44.6	3.8	8.46e-01	0	42	104	0	29	12167
2026-01-13 14:29:42.76	248.31	12.55	-34.0	-44.5	3.8	8.47e-01	0	42	104	0	29	12148
2026-01-13 14:29:44.77	248.66	12.64	-34.0	-44.5	3.8	8.45e-01	0	42	104	0	29	12128
2026-01-13 14:29:46.79	249.02	12.73	-34.0	-44.5	3.8	8.47e-01	0	42	104	0	29	12128
2026-01-13 14:29:48.80	249.37	12.81	-34.0	-44.5	3.8	8.45e-01	0	42	104	0	29	12121
2026-01-13 14:29:50.82	249.74	12.90	-34.0	-44.5	3.8	8.47e-01	0	42	104	0	29	12134
2026-01-13 14:29:52.83	250.10	12.99	-34.0	-44.6	3.8	8.46e-01	0	42	104	0	29	12180
2026-01-13 14:29:54.83	250.46	13.07	-34.0	-44.6	3.8	8.47e-01	0	42	104	0	29	12136
2026-01-13 14:29:56.85	250.82	13.15	-34.0	-44.5	3.8	8.47e-01	0	42	104	0	29	12122
2026-01-13 14:29:58.86	251.19	13.24	-34.0	-44.5	3.8	8.46e-01	0	42	104	0	29	12110
2026-01-13 14:30:00.87	251.56	13.32	-34.0	-44.5	3.8	8.46e-01	0	42	104	0	29	12108
2026-01-13 14:30:02.87	251.93	13.40	-34.0	-44.5	3.8	8.45e-01	0	42	104	0	29	12121
2026-01-13 14:30:04.88	252.30	13.48	-34.0	-44.6	3.8	8.45e-01	0	42	104	0	29	12171
2026-01-13 14:30:06.89	252.68	13.56	-34.0	-44.6	3.8	8.47e-01	0	43	104	0	29	12147
2026-01-13 14:30:08.91	253.05	13.64	-34.0	-44.5	3.8	8.45e-01	0	42	104	0	29	12117
2026-01-13 14:30:10.92	253.43	13.72	-34.0	-44.6	3.8	8.47e-01	0	42	104	0	29	12157
2026-01-13 14:30:12.93	253.81	13.79	-34.0	-44.5	3.8	8.46e-01	0	42	104	0	29	12104
2026-01-13 14:30:14.94	254.20	13.87	-34.0	-44.6	3.8	8.46e-01	0	42	104	0	29	12140
2026-01-13 14:30:16.96	254.58	13.94	-34.0	-44.5	3.8	8.47e-01	0	43	104	0	29	12146
2026-01-13 14:30:18.96	254.97	14.02	-34.0	-44.5	3.8	8.45e-01	0	43	104	0	29	12141
2026-01-13 14:30:20.98	255.36	14.09	-34.0	-44.5	3.8	8.46e-01	0	42	104	0	29	12125
2026-01-13 14:30:22.99	255.75	14.16	-34.0	-44.5	3.8	8.46e-01	0	42	104	0	29	12133
2026-01-13 14:30:25.00	256.14	14.23	-34.0	-44.5	3.8	8.45e-01	0	42	104	0	29	12135
2026-01-13 14:30:27.02	256.53	14.30	-34.0	-44.6	3.8	8.46e-01	0	42	104	0	29	12157
2026-01-13 14:30:29.03	256.93	14.37	-34.0	-44.6	3.8	8.46e-01	0	43	104	0	29	12160
2026-01-13 14:30:31.05	257.33	14.44	-34.0	-44.6	3.8	8.46e-01	0	43	104	0	29	12155
2026-01-13 14:30:33.06	257.73	14.51	-34.0	-44.6	3.8	8.46e-01	0	42	104	0	29	12151
2026-01-13 14:30:35.06	258.12	14.57	-34.0	-44.5	3.8	8.46e-01	0	43	104	0	29	12149
2026-01-13 14:30:37.07	258.53	14.64	-34.0	-44.5	3.8	8.45e-01	0	42	104	0	29	12123
2026-01-13 14:30:39.08	258.93	14.70	-34.0	-44.5	3.8	8.47e-01	0	43	104	0	29	12108
2026-01-13 14:30:41.10	259.34	14.76	-34.0	-44.5	3.8	8.46e-01	0	43	104	0	29	12100
2026-01-13 14:30:43.11	259.74	14.82	-34.0	-44.5	3.8	8.45e-01	0	43	104	0	29	12135
2026-01-13 14:30:45.12	260.15	14.88	-34.0	-44.6	3.8	8.47e-01	0	43	104	0	29	12162
2026-01-13 14:30:47.13	260.56	14.94	-34.0	-44.5	3.8	8.46e-01	0	42	104	0	29	12104
2026-01-13 14:30:49.14	260.97	15.00	-34.0	-44.5	3.8	8.47e-01	0	43	104	0	29	12130
2026-01-13 14:30:51.16	261.39	15.05	-34.0	-44.5	3.8	8.45e-01	0	43	104	0	29	12122
2026-01-13 14:30:53.17	261.80	15.11	-34.0	-44.5	3.8	8.45e-01	0	43	104	0	29	12083
2026-01-13 14:30:55.19	262.22	15.16	-34.0	-44.5	3.8	8.45e-01	0	43	104	0	29	12139
2026-01-13 14:30:57.20	262.64	15.22	-34.0	-44.5	3.8	8.47e-01	0	43	104	0	29	12089
2026-01-13 14:30:59.22	263.06	15.27	-34.0	-44.5	3.8	8.46e-01	0	43	104	0	29	12117
2026-01-13 14:31:01.23	263.48	15.32	-34.0	-44.6	3.8	8.47e-01	0	43	104	0	29	12160
2026-01-13 14:31:03.25	263.91	15.36	-34.0	-44.5	3.8	8.46e-01	0	43	104	0	29	12099
2026-01-13 14:31:05.26	264.33	15.41	-34.0	-44.6	3.8	8.47e-01	0	43	104	0	29	12159
2026-01-13 14:31:07.28	264.76	15.46	-34.0	-44.5	3.8	8.46e-01	0	43	104	0	29	12124
2026-01-13 14:31:09.29	265.18	15.50	-34.0	-44.5	3.8	8.46e-01	0	43	104	0	29	12135
2026-01-13 14:31:11.30	265.61	15.54	-34.0	-44.5	3.8	8.46e-01	0	43	104	0	29	12125
2026-01-13 14:31:13.31	266.04	15.58	-34.0	-44.5	3.8	8.46e-01	0	42	104	0	29	12129
2026-01-13 14:31:15.32	266.46	15.62	-34.0	-44.5	3.8	8.46e-01	0	43	104	0	29	12115
2026-01-13 14:31:17.34	266.90	15.66	-34.0	-44.5	3.8	8.47e-01	0	43	104	0	29	12125
2026-01-13 14:31:19.35	267.33	15.70	-34.0	-44.6	3.8	8.46e-01	0	43	104	0	29	12173
2026-01-13 14:31:21.37	267.76	15.73	-34.0	-44.5	3.8	8.44e-01	0	43	104	0	29	12137
2026-01-13 14:31:23.38	268.20	15.77	-34.0	-44.5	3.8	8.47e-01	0	43	104	0	29	12109
2026-01-13 14:31:25.38	268.63	15.80	-34.0	-44.6	3.8	8.47e-01	0	43	104	0	29	12141
2026-01-13 14:31:27.40	269.06	15.83	-34.0	-44.5	3.8	8.45e-01	0	43	104	0	29	12124
2026-01-13 14:31:29.41	269.50	15.86	-34.0	-44.5	3.8	8.46e-01	0	43	104	0	29	12159
2026-01-13 14:31:31.43	269.94	15.89	-34.0	-44.5	3.8	8.46e-01	0	43	104	0	29	12135
2026-01-13 14:31:33.44	270.38	15.92	-34.0	-44.5	3.8	8.46e-01	0	43	104	0	29	12139
2026-01-13 14:31:35.44	270.81	15.94	-34.0	-44.5	3.8	8.46e-01	0	43	104	0	29	12128
2026-01-13 14:31:37.46	271.25	15.96	-34.0	-44.5	3.8	8.46e-01	0	43	104	0	29	12107
2026-01-13 14:31:39.47	271.69	15.98	-34.0	-44.5	3.8	8.45e-01	0	43	104	0	29	12114
2026-01-13 14:31:41.48	272.13	16.00	-34.0	-44.5	3.8	8.46e-01	0	43	104	0	29	12113
2026-01-13 14:31:43.49	272.57	16.02	-34.0	-44.5	3.8	8.46e-01	0	43	104	0	29	12145
2026-01-13 14:31:45.49	273.01	16.04	-34.0	-44.5	3.8	8.45e-01	0	43	104	0	29	12104
2026-01-13 14:31:47.51	273.45	16.05	-34.0	-44.5	3.8	8.47e-01	0	43	104	0	29	12118
2026-01-13 14:31:49.52	273.90	16.07	-34.0	-44.5	3.8	8.47e-01	0	43	104	0	29	12122
2026-01-13 14:31:51.53	274.34	16.08	-34.0	-44.5	3.8	8.45e-01	0	43	104	0	29	12093
2026-01-13 14:31:53.53	274.78	16.09	-34.0	-44.5	3.8	8.46e-01	0	43	104	0	29	12134
2026-01-13 14:31:55.55	275.22	16.10	-34.0	-44.5	3.8	8.46e-01	0	43	104	0	29	12097
2026-01-13 14:31:57.55	275.66	16.11	-34.0	-44.5	3.8	8.45e-01	0	43	104	0	29	12106
2026-01-13 14:31:59.56	276.11	16.11	-34.0	-44.5	3.8	8.47e-01	0	43	104	0	29	12092
2026-01-13 14:32:01.57	276.55	16.12	-34.0	-44.5	3.8	8.45e-01	0	43	104	0	29	12107
2026-01-13 14:32:03.59	276.99	16.12	-34.0	-44.5	3.8	8.45e-01	0	43	104	0	29	12117
2026-01-13 14:32:05.60	277.44	16.12	-34.0	-44.5	3.8	8.46e-01	0	43	104	0	29	12142
2026-01-13 14:32:07.62	277.88	16.12	-34.0	-44.5	3.8	8.46e-01	0	43	104	0	29	12145
2026-01-13 14:32:09.63	278.33	16.12	-34.0	-44.5	3.8	8.46e-01	0	43	104	0	29	12132
2026-01-13 14:32:11.64	278.77	16.11	-34.0	-44.5	3.8	8.47e-01	0	43	104	0	29	12119
2026-01-13 14:32:13.66	279.21	16.11	-34.0	-44.5	3.8	8.46e-01	0	43	104	0	29	12121
2026-01-13 14:32:15.67	279.66	16.10	-34.0	-44.5	3.8	8.47e-01	0	43	104	0	29	12121
2026-01-13 14:32:17.68	280.10	16.09	-34.0	-44.6	3.8	8.45e-01	0	43	104	0	29	12174
2026-01-13 14:32:19.70	280.54	16.08	-34.0	-44.5	3.8	8.45e-01	0	43	104	0	29	12098
2026-01-13 14:32:21.70	280.98	16.07	-34.0	-44.5	3.8	8.46e-01	0	43	104	0	29	12077
2026-01-13 14:32:23.71	281.42	16.05	-34.0	-44.5	3.8	8.46e-01	0	43	104	0	29	12110
2026-01-13 14:32:25.71	281.86	16.04	-34.0	-44.5	3.8	8.46e-01	0	43	104	0	29	12110
2026-01-13 14:32:27.72	282.30	16.02	-34.0	-44.5	3.8	8.47e-01	0	43	104	0	29	12132
2026-01-13 14:32:29.73	282.74	16.00	-34.0	-44.5	3.8	8.47e-01	0	43	104	0	29	12128
2026-01-13 14:32:31.75	283.18	15.98	-34.0	-44.5	3.8	8.46e-01	0	43	104	0	29	12122
2026-01-13 14:32:33.76	283.62	15.96	-34.0	-44.5	3.8	8.47e-01	0	43	104	0	29	12121
2026-01-13 14:32:35.76	284.06	15.94	-34.0	-44.5	3.8	8.46e-01	0	43	104	0	29	12101
2026-01-13 14:32:37.78	284.50	15.91	-34.0	-44.5	3.8	8.46e-01	0	43	104	0	29	12080
2026-01-13 14:32:39.79	284.93	15.89	-34.0	-44.5	3.8	8.45e-01	0	43	104	0	29	12120
2026-01-13 14:32:41.81	285.37	15.86	-34.0	-44.5	3.8	8.46e-01	0	43	104	0	29	12136
2026-01-13 14:32:43.81	285.80	15.83	-34.0	-44.5	3.8	8.47e-01	0	43	104	0	29	12092
2026-01-13 14:32:45.83	286.24	15.80	-34.0	-44.5	3.8	8.46e-01	0	43	104	0	29	12122
2026-01-13 14:32:47.85	286.68	15.77	-34.0	-44.5	3.8	8.45e-01	0	43	104	0	29	12130
2026-01-13 14:32:49.86	287.11	15.73	-34.0	-44.5	3.8	8.47e-01	0	43	104	0	29	12129
2026-01-13 14:32:51.87	287.54	15.70	-34.0	-44.5	3.8	8.45e-01	0	43	104	0	29	12105
2026-01-13 14:32:53.89	287.97	15.66	-34.0	-44.5	3.8	8.46e-01	0	43	104	0	29	12119
2026-01-13 14:32:55.90	288.40	15.62	-34.0	-44.5	3.8	8.47e-01	0	43	104	0	29	12108
2026-01-13 14:32:57.91	288.83	15.58	-34.0	-44.5	3.8	8.47e-01	0	43	104	0	29	12138
2026-01-13 14:32:59.92	289.26	15.54	-34.0	-44.5	3.8	8.46e-01	0	43	104	0	29	12105
2026-01-13 14:33:01.94	289.68	15.50	-34.0	-44.5	3.8	8.46e-01	0	43	104	0	29	12088
2026-01-13 14:33:03.95	290.11	15.45	-34.0	-44.5	3.8	8.45e-01	0	43	104	0	29	12148
2026-01-13 14:33:05.96	290.53	15.41	-34.0	-44.5	3.8	8.46e-01	0	43	104	0	29	12137
2026-01-13 14:33:07.97	290.95	15.36	-34.0	-44.5	3.8	8.46e-01	0	43	104	0	29	12082
2026-01-13 14:33:09.99	291.38	15.31	-34.0	-44.5	3.8	8.47e-01	0	43	104	0	29	12137
2026-01-13 14:33:12.00	291.79	15.26	-34.0	-44.5	3.8	8.45e-01	0	43	104	0	29	12106
2026-01-13 14:33:14.01	292.21	15.21	-34.0	-44.5	3.8	8.45e-01	0	43	104	0	29	12114
2026-01-13 14:33:16.03	292.63	15.16	-34.0	-44.5	3.8	8.45e-01	0	43	104	0	29	12142
2026-01-13 14:33:18.05	293.05	15.11	-34.0	-44.5	3.8	8.46e-01	0	43	104	0	29	12103
2026-01-13 14:33:20.06	293.46	15.05	-34.0	-44.5	3.8	8.46e-01	0	43	104	0	29	12108
2026-01-13 14:33:22.08	293.88	15.00	-34.0	-44.5	3.8	8.45e-01	0	43	104	0	29	12110
2026-01-13 14:33:24.10	294.29	14.94	-34.0	-44.5	3.8	8.46e-01	0	43	104	0	29	12125
2026-01-13 14:33:26.10	294.69	14.88	-34.0	-44.5	3.8	8.45e-01	0	43	104	0	29	12109
2026-01-13 14:33:28.11	295.10	14.82	-34.0	-44.5	3.8	8.47e-01	0	43	104	0	29	12132
2026-01-13 14:33:30.13	295.51	14.76	-34.0	-44.5	3.8	8.46e-01	0	43	104	0	29	12130
2026-01-13 14:33:32.14	295.91	14.70	-34.0	-44.5	3.8	8.46e-01	0	43	104	0	29	12124
2026-01-13 14:33:34.15	296.32	14.64	-34.0	-44.5	3.8	8.47e-01	0	43	104	0	29	12114
2026-01-13 14:33:36.17	296.72	14.57	-34.0	-44.6	3.8	8.46e-01	0	43	104	0	29	12153
2026-01-13 14:33:38.18	297.12	14.51	-34.0	-44.5	3.8	8.46e-01	0	43	104	0	29	12102
2026-01-13 14:33:40.19	297.51	14.44	-34.0	-44.5	3.8	8.47e-01	0	43	104	0	29	12121
2026-01-13 14:33:42.21	297.91	14.37	-34.0	-44.5	3.8	8.46e-01	0	43	104	0	29	12140
2026-01-13 14:33:44.22	298.31	14.30	-34.0	-44.5	3.8	8.45e-01	0	43	104	0	29	12128
2026-01-13 14:33:46.22	298.70	14.23	-34.0	-44.5	3.8	8.47e-01	0	43	104	0	29	12112
2026-01-13 14:33:48.23	299.09	14.16	-34.0	-44.5	3.8	8.46e-01	0	43	104	0	29	12124
2026-01-13 14:33:50.24	299.47	14.09	-34.0	-44.5	3.8	8.46e-01	0	43	104	0	29	12123
2026-01-13 14:33:52.25	299.86	14.02	-34.0	-44.5	3.8	8.46e-01	0	43	104	0	29	12115
2026-01-13 14:33:54.26	300.24	13.95	-34.0	-44.5	3.8	8.45e-01	0	43	104	0	29	12105
2026-01-13 14:33:56.27	300.63	13.87	-34.0	-44.6	3.8	8.46e-01	0	43	104	0	29	12159
2026-01-13 14:33:58.28	301.01	13.80	-34.0	-44.5	3.8	8.47e-01	0	43	104	0	29	12115
2026-01-13 14:34:00.30	301.39	13.72	-34.0	-44.5	3.8	8.46e-01	0	43	104	0	29	12114
2026-01-13 14:34:02.31	301.77	13.64	-34.0	-44.5	3.8	8.46e-01	0	43	104	0	29	12110
2026-01-13 14:34:04.31	302.14	13.56	-34.0	-44.5	3.8	8.46e-01	0	43	104	0	29	12107
2026-01-13 14:34:06.32	302.51	13.48	-34.0	-44.5	3.8	8.45e-01	0	43	104	0	29	12107
2026-01-13 14:34:08.33	302.88	13.40	-34.0	-44.5	3.8	8.45e-01	0	43	104	0	29	12108
2026-01-13 14:34:10.34	303.25	13.32	-34.0	-44.5	3.8	8.46e-01	0	43	104	0	29	12103
2026-01-13 14:34:12.36	303.62	13.24	-34.0	-44.5	3.8	8.47e-01	0	43	104	0	29	12130
2026-01-13 14:34:14.38	303.99	13.16	-34.0	-44.5	3.8	8.46e-01	0	43	104	0	29	12112
2026-01-13 14:34:16.40	304.35	13.08	-34.0	-44.5	3.8	8.45e-01	0	43	104	0	29	12133
2026-01-13 14:34:18.41	304.71	12.99	-34.0	-44.5	3.8	8.46e-01	0	43	104	0	29	12093
2026-01-13 14:34:20.42	305.07	12.91	-34.0	-44.5	3.8	8.46e-01	0	43	104	0	29	12126
2026-01-13 14:34:22.42	305.43	12.82	-34.0	-44.5	3.8	8.46e-01	0	43	104	0	29	12130
2026-01-13 14:34:24.44	305.79	12.74	-34.0	-44.5	3.8	8.46e-01	0	43	104	0	29	12098
2026-01-13 14:34:26.45	306.14	12.65	-34.0	-44.5	3.8	8.47e-01	0	43	104	0	29	12091
2026-01-13 14:34:28.46	306.49	12.56	-34.0	-44.5	3.8	8.46e-01	0	43	104	0	29	12121
2026-01-13 14:34:30.46	306.84	12.48	-34.0	-44.6	3.8	8.45e-01	0	43	104	0	29	12140
2026-01-13 14:34:32.47	307.18	12.39	-34.0	-44.5	3.8	8.47e-01	0	43	104	0	29	12129
2026-01-13 14:34:34.49	307.53	12.30	-34.0	-44.5	3.8	8.47e-01	0	43	104	0	29	12113
2026-01-13 14:34:36.51	307.88	12.21	-34.0	-44.5	3.8	8.46e-01	0	43	104	0	29	12141
2026-01-13 14:34:38.52	308.22	12.12	-34.0	-44.5	3.8	8.47e-01	0	43	104	0	29	12117
2026-01-13 14:34:40.54	308.56	12.03	-34.0	-44.5	3.8	8.46e-01	0	43	104	0	29	12121
2026-01-13 14:34:42.56	308.90	11.94	-34.0	-44.6	3.8	8.47e-01	0	43	104	0	29	12157
2026-01-13 14:34:44.58	309.23	11.84	-34.0	-44.6	3.8	8.45e-01	0	43	104	0	29	12160
2026-01-13 14:34:46.60	309.57	11.75	-34.0	-44.5	3.8	8.47e-01	0	43	104	0	29	12143
2026-01-13 14:34:48.61	309.90	11.66	-34.0	-44.5	3.8	8.47e-01	0	43	104	0	29	12120
2026-01-13 14:34:50.62	310.23	11.56	-34.0	-44.5	3.8	8.46e-01	0	43	104	0	29	12098
2026-01-13 14:34:52.63	310.55	11.47	-34.0	-44.5	3.8	8.46e-01	0	43	104	0	29	12123
2026-01-13 14:34:54.65	310.88	11.38	-34.0	-44.5	3.8	8.46e-01	0	43	104	0	29	12107
2026-01-13 14:34:56.66	311.20	11.28	-34.0	-44.5	3.8	8.45e-01	0	43	104	0	29	12129
2026-01-13 14:34:58.67	311.52	11.19	-34.0	-44.5	3.8	8.47e-01	0	43	104	0	29	12108
2026-01-13 14:35:00.68	311.84	11.09	-34.0	-44.5	3.8	8.46e-01	0	43	104	0	29	12133
2026-01-13 14:35:02.69	312.16	10.99	-34.0	-44.6	3.8	8.46e-01	0	43	104	0	29	12139
2026-01-13 14:35:04.70	312.47	10.90	-34.0	-44.6	3.8	8.47e-01	0	43	104	0	29	12181
2026-01-13 14:35:06.71	312.78	10.80	-34.0	-44.5	3.8	8.46e-01	0	43	104	0	29	12123
2026-01-13 14:35:08.73	313.10	10.70	-34.0	-44.6	3.8	8.46e-01	0	43	104	0	29	12188
2026-01-13 14:35:10.74	313.40	10.61	-34.0	-44.5	3.8	8.45e-01	0	43	104	0	29	12127
2026-01-13 14:35:12.74	313.71	10.51	-34.0	-44.5	3.8	8.48e-01	0	43	104	0	29	12134
2026-01-13 14:35:14.76	314.01	10.41	-34.0	-44.5	3.8	8.47e-01	0	43	104	0	29	12134
2026-01-13 14:35:16.77	314.32	10.31	-34.0	-44.5	3.8	8.47e-01	0	43	104	0	29	12125
2026-01-13 14:35:18.78	314.62	10.21	-34.0	-44.6	3.8	8.45e-01	0	43	104	0	29	12166
2026-01-13 14:35:20.79	314.92	10.11	-34.0	-44.6	3.8	8.48e-01	0	43	104	0	29	12188
2026-01-13 14:35:22.80	315.21	10.01	-34.0	-44.5	3.8	8.45e-01	0	43	104	0	29	12125
2026-01-13 14:35:24.81	315.51	9.92	-34.0	-44.5	3.8	8.45e-01	0	43	104	0	29	12131
2026-01-13 14:35:26.83	315.80	9.82	-34.0	-44.5	3.8	8.45e-01	0	43	104	0	29	12131
2026-01-13 14:35:28.84	316.09	9.72	-34.0	-44.5	3.8	8.46e-01	0	43	104	0	29	12135
2026-01-13 14:35:30.86	316.38	9.61	-34.0	-44.5	3.8	8.46e-01	0	43	104	0	29	12145
2026-01-13 14:35:32.86	316.67	9.51	-34.0	-44.5	3.8	8.46e-01	0	43	104	0	29	12143
2026-01-13 14:35:34.88	316.95	9.41	-34.0	-44.5	3.8	8.46e-01	0	43	104	0	29	12120
2026-01-13 14:35:36.90	317.24	9.31	-34.0	-44.5	3.8	8.45e-01	0	43	104	0	29	12088
2026-01-13 14:35:38.91	317.52	9.21	-34.0	-44.5	3.8	8.46e-01	0	43	104	0	29	12087
2026-01-13 14:35:40.92	317.80	9.11	-33.9	-44.5	3.8	8.46e-01	0	43	104	0	29	12110
2026-01-13 14:35:42.94	318.08	9.01	-34.0	-44.5	3.8	8.46e-01	0	43	104	0	29	12146
2026-01-13 14:35:44.96	318.36	8.91	-34.0	-44.5	3.8	8.45e-01	0	43	104	0	29	12108
2026-01-13 14:35:46.96	318.63	8.81	-34.0	-44.5	3.8	8.45e-01	0	43	104	0	29	12122
2026-01-13 14:35:48.97	318.90	8.70	-34.0	-44.5	3.8	8.46e-01	0	43	104	0	29	12121
2026-01-13 14:35:50.99	319.17	8.60	-34.0	-44.5	3.8	8.46e-01	0	43	104	0	29	12101
2026-01-13 14:35:53.00	319.44	8.50	-33.7	-44.7	3.8	8.47e-01	0	43	104	0	28	12683
2026-01-13 14:35:55.02	319.71	8.40	-33.8	-44.8	3.8	8.46e-01	0	43	104	0	28	12732
2026-01-13 14:35:57.03	319.97	8.29	-33.8	-44.7	3.8	8.46e-01	0	43	104	0	28	12746
2026-01-13 14:35:59.04	320.24	8.19	-33.6	-44.4	3.8	8.47e-01	0	43	104	0	28	12569
2026-01-13 14:36:01.05	320.50	8.09	-33.9	-44.8	3.8	8.47e-01	0	43	104	0	28	12734
2026-01-13 14:36:03.06	320.76	7.99	-33.9	-44.8	3.8	8.46e-01	0	43	104	0	28	12748
2026-01-13 14:36:05.07	321.01	7.88	-33.8	-44.8	3.8	8.45e-01	0	43	104	0	28	12729
2026-01-13 14:36:07.08	321.27	7.78	-33.7	-44.6	3.8	8.46e-01	0	43	104	0	28	12662
2026-01-13 14:36:09.10	321.53	7.68	-33.8	-44.8	3.8	8.46e-01	0	43	104	0	28	12779
2026-01-13 14:36:11.11	321.78	7.58	-33.8	-44.8	3.8	8.46e-01	0	43	104	0	28	12763
2026-01-13 14:36:13.13	322.03	7.47	-33.8	-44.9	3.8	8.47e-01	0	43	104	0	28	12826
2026-01-13 14:36:15.13	322.28	7.37	-33.9	-45.0	3.8	8.45e-01	0	43	104	0	28	12845
2026-01-13 14:36:17.15	322.53	7.27	-34.0	-45.0	3.8	8.45e-01	0	43	104	0	28	12865
2026-01-13 14:36:19.16	322.77	7.16	-34.0	-45.0	3.8	8.46e-01	0	43	104	0	28	12847
2026-01-13 14:36:21.17	323.02	7.06	-34.0	-45.0	3.8	8.46e-01	0	43	104	0	28	12815
2026-01-13 14:36:23.18	323.26	6.96	-34.0	-45.1	3.8	8.45e-01	0	43	104	0	28	12908

#Closed at: 2026-01-13 14:36:24
#Recorded file [0 MB]: D:/data/31010_260113_172750.dat