passes_logs/2026/01/13/R2M6_AANII_01/R2M6_AANII_01__20260113_084642_NOAA_20_JPSS-1_rec.log

#Pass ID: 20260113_084642_NOAA 20 (JPSS-1)
#Satellite: NOAA 20 (JPSS-1)
#Configuration: NOAA 20
#almurnet v.1.7.20240730
#Start time: 2026-01-13 08:46:44

#Version: 2.2.20231116
#Station: R2M6_AANII_01
#Location: 30.233357 lon 59.946436 lat
#TLE: 1 43013U 17073A   26012.29914746  .00000087  00000+0  62270-4 0  9997
#TLE: 2 43013  98.7632 313.2670 0001616  43.2193 316.9110 14.19535514422351

#Time	Az	El	Level	Level2	SNR	BER	BlckErr	Temp	State	Recorded	gain1	gain2
2026-01-13 08:46:44.21	112.41	7.12	-34.0	-47.5	3.8	1.49e+00	0	39	0	0	29	17087
2026-01-13 08:46:47.23	112.18	7.33	-34.0	-47.5	3.8	1.49e+00	0	40	104	0	29	17137
2026-01-13 08:46:50.25	111.94	7.54	-33.9	-47.5	3.8	1.49e+00	0	40	104	0	29	17049
2026-01-13 08:46:53.26	111.71	7.75	-34.0	-47.5	3.8	1.49e+00	0	40	104	0	29	17092
2026-01-13 08:46:56.28	111.47	7.96	-34.0	-47.5	3.8	1.49e+00	0	40	104	0	29	17109
2026-01-13 08:46:59.29	111.23	8.18	-34.0	-47.5	3.8	1.49e+00	0	40	104	0	29	17069
2026-01-13 08:47:02.31	110.98	8.39	-34.0	-47.5	3.8	1.49e+00	0	40	104	0	29	17103
2026-01-13 08:47:05.32	110.73	8.61	-34.0	-47.5	3.8	1.49e+00	0	40	104	0	29	17081
2026-01-13 08:47:08.33	110.48	8.82	-34.0	-47.5	3.8	1.49e+00	0	40	104	0	29	17112
2026-01-13 08:47:11.35	110.22	9.04	-34.0	-47.5	3.8	1.49e+00	0	40	104	0	29	17108
2026-01-13 08:47:14.36	109.96	9.26	-34.0	-47.5	3.8	1.49e+00	0	40	104	0	29	17124
2026-01-13 08:47:17.37	109.69	9.49	-34.0	-47.5	3.8	1.49e+00	0	41	104	0	29	17105
2026-01-13 08:47:20.39	109.42	9.71	-34.0	-47.5	3.8	1.49e+00	0	41	104	0	29	17123
2026-01-13 08:47:23.41	109.14	9.93	-34.0	-47.5	3.8	1.49e+00	0	41	104	0	29	17093
2026-01-13 08:47:26.43	108.87	10.16	-34.0	-47.5	3.8	1.49e+00	0	41	104	0	29	17142
2026-01-13 08:47:29.46	108.58	10.39	-34.0	-47.5	3.8	1.49e+00	0	41	104	0	29	17150
2026-01-13 08:47:32.48	108.29	10.62	-34.0	-47.5	3.8	1.49e+00	0	41	104	0	29	17106
2026-01-13 08:47:35.50	108.00	10.85	-34.0	-47.5	3.8	1.49e+00	0	41	104	0	29	17121
2026-01-13 08:47:38.50	107.70	11.08	-34.0	-47.5	3.8	1.49e+00	0	41	104	0	29	17119
2026-01-13 08:47:41.52	107.40	11.31	-34.0	-47.5	3.8	1.49e+00	0	41	104	0	29	17118
2026-01-13 08:47:44.54	107.09	11.55	-34.0	-47.5	3.8	1.49e+00	0	41	104	0	29	17121
2026-01-13 08:47:47.55	106.78	11.78	-34.0	-47.5	3.8	1.49e+00	0	41	104	0	29	17130
2026-01-13 08:47:50.57	106.46	12.02	-34.0	-47.5	3.8	1.49e+00	0	41	104	0	29	17105
2026-01-13 08:47:53.59	106.14	12.26	-34.0	-47.5	3.8	1.49e+00	0	41	104	0	29	17144
2026-01-13 08:47:56.62	105.81	12.50	-34.0	-47.5	3.8	1.49e+00	0	41	104	0	29	17185
2026-01-13 08:47:59.64	105.47	12.75	-34.0	-47.5	3.8	1.49e+00	0	41	104	0	29	17079
2026-01-13 08:48:02.66	105.13	12.99	-34.0	-47.5	3.8	1.49e+00	0	41	104	0	29	17133
2026-01-13 08:48:05.68	104.79	13.23	-34.0	-47.5	3.8	1.49e+00	0	41	104	0	29	17144
2026-01-13 08:48:08.70	104.43	13.48	-34.0	-47.5	3.8	1.49e+00	0	42	104	0	29	17135
2026-01-13 08:48:11.71	104.08	13.73	-34.0	-47.5	3.8	1.49e+00	0	41	104	0	29	17161
2026-01-13 08:48:14.73	103.71	13.98	-34.0	-47.5	3.8	1.49e+00	0	41	104	0	29	17118
2026-01-13 08:48:17.74	103.34	14.23	-34.0	-47.5	3.8	1.49e+00	0	41	104	0	29	17118
2026-01-13 08:48:20.75	102.97	14.48	-34.0	-47.5	3.8	1.49e+00	0	41	104	0	29	17109
2026-01-13 08:48:23.77	102.58	14.73	-34.0	-47.5	3.8	1.49e+00	0	42	104	0	29	17125
2026-01-13 08:48:26.79	102.19	14.99	-34.0	-47.5	3.8	1.49e+00	0	41	104	0	29	17101
2026-01-13 08:48:29.80	101.80	15.24	-34.0	-47.5	3.8	1.49e+00	0	42	104	0	29	17099
2026-01-13 08:48:32.82	101.39	15.50	-34.0	-47.5	3.8	1.49e+00	0	42	104	0	29	17117
2026-01-13 08:48:35.84	100.98	15.76	-34.0	-47.5	3.8	1.49e+00	0	42	104	0	29	17128
2026-01-13 08:48:38.84	100.57	16.01	-34.0	-47.5	3.8	1.49e+00	0	42	104	0	29	17141
2026-01-13 08:48:41.87	100.14	16.28	-34.0	-47.5	3.8	1.49e+00	0	42	104	0	29	17077
2026-01-13 08:48:44.89	99.71	16.54	-34.0	-47.5	3.8	1.49e+00	0	42	104	0	29	17113
2026-01-13 08:48:47.92	99.26	16.80	-34.0	-47.5	3.8	1.49e+00	0	42	104	0	29	17119
2026-01-13 08:48:50.95	98.81	17.07	-34.0	-47.5	3.8	1.49e+00	0	42	104	0	29	17115
2026-01-13 08:48:53.97	98.35	17.33	-34.0	-47.5	3.8	1.49e+00	0	42	104	0	29	17091
2026-01-13 08:48:56.99	97.89	17.60	-34.0	-47.5	3.8	1.49e+00	0	42	104	0	29	17097
2026-01-13 08:49:00.01	97.42	17.87	-34.0	-47.5	3.8	1.49e+00	0	42	104	0	29	17115
2026-01-13 08:49:03.03	96.93	18.13	-34.0	-47.5	3.8	1.49e+00	0	42	104	0	29	17149
2026-01-13 08:49:06.05	96.44	18.40	-34.0	-47.5	3.8	1.49e+00	0	42	104	0	29	17102
2026-01-13 08:49:09.08	95.94	18.67	-34.0	-47.5	3.8	1.49e+00	0	42	104	0	29	17113
2026-01-13 08:49:12.10	95.43	18.94	-34.0	-47.5	3.8	1.49e+00	0	42	104	0	29	17155
2026-01-13 08:49:15.11	94.91	19.21	-34.0	-47.5	3.8	1.49e+00	0	42	104	0	29	17104
2026-01-13 08:49:18.13	94.39	19.48	-34.0	-47.5	3.8	1.49e+00	0	42	104	0	29	17112
2026-01-13 08:49:21.15	93.85	19.75	-34.0	-47.5	3.8	1.49e+00	0	42	104	0	29	17126
2026-01-13 08:49:24.17	93.30	20.03	-34.0	-47.5	3.8	1.49e+00	0	42	104	0	29	17076
2026-01-13 08:49:27.19	92.75	20.30	-34.0	-47.5	3.8	1.49e+00	0	42	104	0	29	17092
2026-01-13 08:49:30.21	92.18	20.57	-34.0	-47.5	3.8	1.49e+00	0	42	104	0	29	17136
2026-01-13 08:49:33.22	91.60	20.84	-34.0	-47.5	3.8	1.49e+00	0	42	104	0	29	17126
2026-01-13 08:49:36.25	91.01	21.11	-34.0	-47.5	3.8	1.49e+00	0	42	104	0	29	17068
2026-01-13 08:49:39.27	90.42	21.38	-34.0	-47.5	3.8	1.49e+00	0	42	104	0	29	17113
2026-01-13 08:49:42.29	89.81	21.65	-34.0	-47.5	3.8	1.49e+00	0	42	104	0	29	17084
2026-01-13 08:49:45.30	89.19	21.92	-34.0	-47.5	3.8	1.49e+00	0	42	104	0	29	17115
2026-01-13 08:49:48.33	88.56	22.19	-34.0	-47.5	3.8	1.49e+00	0	42	104	0	29	17086
2026-01-13 08:49:51.35	87.92	22.46	-34.0	-47.5	3.8	1.49e+00	0	42	104	0	29	17137
2026-01-13 08:49:54.38	87.26	22.73	-34.0	-47.5	3.8	1.49e+00	0	42	104	0	29	17115
2026-01-13 08:49:57.40	86.60	22.99	-34.0	-47.5	3.8	1.49e+00	0	42	104	0	29	17108
2026-01-13 08:50:00.42	85.92	23.26	-34.0	-47.6	3.8	1.49e+00	0	42	104	0	29	17172
2026-01-13 08:50:03.44	85.24	23.52	-34.0	-47.5	3.8	1.49e+00	0	42	104	0	29	17124
2026-01-13 08:50:06.47	84.54	23.78	-34.0	-47.5	3.8	1.49e+00	0	42	104	0	29	17148
2026-01-13 08:50:09.49	83.83	24.04	-34.0	-47.5	3.8	1.49e+00	0	42	104	0	29	17154
2026-01-13 08:50:12.50	83.11	24.30	-34.0	-47.5	3.8	1.49e+00	0	42	104	0	29	17134
2026-01-13 08:50:15.50	82.38	24.55	-34.0	-47.5	3.8	1.49e+00	0	42	104	0	29	17168
2026-01-13 08:50:18.52	81.63	24.80	-33.9	-47.4	3.8	1.49e+00	0	42	104	0	29	17126
2026-01-13 08:50:21.54	80.87	25.05	-33.9	-47.4	3.8	1.49e+00	0	42	104	0	29	17156
2026-01-13 08:50:24.56	80.10	25.29	-33.9	-47.9	3.8	1.49e+00	0	42	104	0	28	18145
2026-01-13 08:50:27.58	79.32	25.53	-33.8	-47.9	3.8	1.49e+00	0	42	104	0	28	18140
2026-01-13 08:50:30.59	78.53	25.77	-33.9	-47.9	3.8	1.49e+00	0	42	104	0	28	18144
2026-01-13 08:50:33.61	77.73	26.00	-33.9	-47.9	3.8	1.49e+00	0	42	104	0	28	18161
2026-01-13 08:50:36.63	76.91	26.23	-33.9	-47.9	3.8	1.49e+00	0	42	104	0	28	18174
2026-01-13 08:50:39.65	76.08	26.46	-33.8	-47.8	3.8	1.49e+00	0	42	104	0	28	18133
2026-01-13 08:50:42.68	75.24	26.68	-34.0	-48.0	3.8	1.49e+00	0	42	104	0	28	18142
2026-01-13 08:50:45.71	74.38	26.89	-34.0	-48.1	3.8	1.49e+00	0	42	104	0	28	18224
2026-01-13 08:50:48.72	73.52	27.10	-34.0	-48.1	3.8	1.49e+00	0	42	104	0	28	18198
2026-01-13 08:50:51.74	72.64	27.30	-34.0	-48.0	3.8	1.49e+00	0	42	104	0	28	18171
2026-01-13 08:50:54.76	71.76	27.50	-34.0	-48.0	3.8	1.49e+00	0	42	104	0	28	18105
2026-01-13 08:50:57.78	70.86	27.69	-33.9	-47.9	3.8	1.49e+00	0	42	104	0	28	18206
2026-01-13 08:51:00.80	69.95	27.87	-33.9	-48.0	3.8	1.49e+00	0	42	104	0	28	18182
2026-01-13 08:51:03.82	69.04	28.05	-34.0	-48.0	3.8	1.49e+00	0	42	104	0	28	18168
2026-01-13 08:51:06.83	68.11	28.22	-34.0	-48.0	3.8	1.49e+00	0	42	104	0	28	18151
2026-01-13 08:51:09.86	67.17	28.38	-34.0	-48.0	3.8	1.49e+00	0	42	104	0	28	18157
2026-01-13 08:51:12.87	66.23	28.54	-34.0	-48.0	3.8	1.49e+00	0	42	104	0	28	18162
2026-01-13 08:51:15.89	65.27	28.69	-34.0	-48.0	3.8	1.49e+00	0	42	104	0	28	18164
2026-01-13 08:51:18.91	64.31	28.82	-34.0	-48.0	3.8	1.49e+00	0	42	104	0	28	18140
2026-01-13 08:51:21.93	63.33	28.95	-34.0	-48.1	3.8	1.49e+00	0	42	104	0	28	18207
2026-01-13 08:51:24.95	62.35	29.07	-34.0	-48.0	3.8	1.49e+00	0	42	104	0	28	18179
2026-01-13 08:51:27.98	61.36	29.19	-34.0	-48.1	3.8	1.49e+00	0	42	104	0	28	18182
2026-01-13 08:51:31.00	60.37	29.29	-34.0	-48.0	3.8	1.49e+00	0	42	104	0	28	18138
2026-01-13 08:51:34.03	59.37	29.38	-34.0	-48.0	3.8	1.49e+00	0	42	104	0	28	18173
2026-01-13 08:51:37.05	58.36	29.47	-34.0	-48.0	3.8	1.49e+00	0	42	104	0	28	18175
2026-01-13 08:51:40.07	57.35	29.54	-34.0	-48.0	3.8	1.49e+00	0	42	104	0	28	18148
2026-01-13 08:51:43.09	56.34	29.61	-34.0	-48.0	3.8	1.49e+00	0	42	104	0	28	18184
2026-01-13 08:51:46.11	55.32	29.66	-34.0	-48.1	3.8	1.49e+00	0	42	104	0	28	18210
2026-01-13 08:51:49.14	54.29	29.71	-34.0	-48.0	3.8	1.49e+00	0	42	104	0	28	18159
2026-01-13 08:51:52.16	53.27	29.74	-34.0	-48.0	3.8	1.49e+00	0	42	104	0	28	18164
2026-01-13 08:51:55.18	52.24	29.77	-34.0	-48.0	3.8	1.49e+00	0	42	104	0	28	18135
2026-01-13 08:51:58.20	51.22	29.78	-34.0	-48.0	3.8	1.49e+00	0	42	104	0	28	18163
2026-01-13 08:52:01.22	50.19	29.78	-34.0	-48.0	3.8	1.49e+00	0	42	104	0	28	18174
2026-01-13 08:52:04.23	49.16	29.78	-34.0	-48.0	3.8	1.49e+00	0	42	104	0	28	18159
2026-01-13 08:52:07.26	48.13	29.76	-34.0	-48.0	3.8	1.49e+00	0	42	104	0	28	18175
2026-01-13 08:52:10.27	47.11	29.73	-34.0	-48.0	3.8	1.49e+00	0	42	104	0	28	18120
2026-01-13 08:52:13.29	46.09	29.69	-34.0	-48.0	3.8	1.49e+00	0	42	104	0	28	18147
2026-01-13 08:52:16.31	45.07	29.65	-34.0	-48.0	3.8	1.49e+00	0	42	104	0	28	18131
2026-01-13 08:52:19.34	44.05	29.59	-34.0	-48.0	3.8	1.49e+00	0	42	104	0	28	18149
2026-01-13 08:52:22.37	43.03	29.52	-34.0	-48.0	3.8	1.49e+00	0	42	104	0	28	18154
2026-01-13 08:52:25.38	42.03	29.44	-34.0	-48.1	3.8	1.49e+00	0	42	104	0	28	18231
2026-01-13 08:52:28.40	41.03	29.36	-34.0	-48.0	3.8	1.49e+00	0	42	104	0	28	18191
2026-01-13 08:52:31.43	40.03	29.26	-34.0	-48.0	3.8	1.49e+00	0	42	104	0	28	18155
2026-01-13 08:52:34.45	39.04	29.15	-34.0	-48.0	3.8	1.49e+00	0	42	104	0	28	18178
2026-01-13 08:52:37.47	38.05	29.04	-34.0	-48.0	3.8	1.49e+00	0	42	104	0	28	18176
2026-01-13 08:52:40.48	37.08	28.92	-34.0	-48.0	3.8	1.49e+00	0	42	104	0	28	18103
2026-01-13 08:52:43.49	36.12	28.78	-34.0	-48.0	3.8	1.49e+00	0	42	104	0	28	18119
2026-01-13 08:52:46.52	35.15	28.64	-34.0	-48.0	3.8	1.49e+00	0	42	104	0	28	18117
2026-01-13 08:52:49.52	34.21	28.49	-34.0	-48.0	3.8	1.49e+00	0	42	104	0	28	18108
2026-01-13 08:52:52.55	33.26	28.34	-34.0	-48.0	3.8	1.49e+00	0	42	104	0	28	18151
2026-01-13 08:52:55.56	32.33	28.17	-34.0	-48.0	3.8	1.49e+00	0	42	104	0	28	18112
2026-01-13 08:52:58.58	31.41	28.00	-34.0	-48.0	3.8	1.49e+00	0	42	104	0	28	18171
2026-01-13 08:53:01.59	30.50	27.82	-34.0	-48.0	3.8	1.49e+00	0	42	104	0	28	18163
2026-01-13 08:53:04.61	29.60	27.64	-34.0	-48.0	3.8	1.49e+00	0	42	104	0	28	18110
2026-01-13 08:53:07.63	28.71	27.45	-34.0	-48.0	3.8	1.49e+00	0	42	104	0	28	18127
2026-01-13 08:53:10.66	27.82	27.25	-34.0	-48.0	3.8	1.49e+00	0	42	104	0	28	18175
2026-01-13 08:53:13.68	26.95	27.04	-34.0	-48.0	3.8	1.49e+00	0	42	104	0	28	18169
2026-01-13 08:53:16.69	26.10	26.83	-34.0	-48.0	3.8	1.49e+00	0	42	104	0	28	18121
2026-01-13 08:53:19.72	25.25	26.62	-34.0	-48.0	3.8	1.49e+00	0	42	104	0	28	18111
2026-01-13 08:53:22.75	24.41	26.40	-34.0	-48.0	3.8	1.49e+00	0	42	104	0	28	18116
2026-01-13 08:53:25.77	23.59	26.17	-34.0	-48.0	3.8	1.49e+00	0	42	104	0	28	18113
2026-01-13 08:53:28.79	22.78	25.94	-34.0	-48.0	3.8	1.49e+00	0	42	104	0	28	18117
2026-01-13 08:53:31.82	21.98	25.71	-34.0	-48.0	3.8	1.49e+00	0	42	104	0	28	18148
2026-01-13 08:53:34.84	21.19	25.47	-34.0	-48.0	3.8	1.49e+00	0	42	104	0	28	18124
2026-01-13 08:53:37.86	20.42	25.23	-34.0	-48.0	3.8	1.49e+00	0	42	104	0	28	18151
2026-01-13 08:53:40.88	19.65	24.98	-34.0	-48.0	3.8	1.49e+00	0	42	104	0	28	18163
2026-01-13 08:53:43.90	18.90	24.74	-34.0	-48.0	3.8	1.49e+00	0	42	104	0	28	18131
2026-01-13 08:53:46.92	18.16	24.49	-34.0	-48.0	3.8	1.49e+00	0	42	104	0	28	18146
2026-01-13 08:53:49.95	17.43	24.23	-34.0	-48.0	3.8	1.49e+00	0	42	104	0	28	18157
2026-01-13 08:53:52.97	16.72	23.98	-34.0	-48.0	3.8	1.49e+00	0	42	104	0	28	18130
2026-01-13 08:53:55.99	16.01	23.72	-34.0	-48.0	3.8	1.49e+00	0	42	104	0	28	18132
2026-01-13 08:53:59.01	15.32	23.46	-34.0	-48.0	3.8	1.49e+00	0	42	104	0	28	18136
2026-01-13 08:54:02.03	14.64	23.20	-34.0	-48.0	3.8	1.49e+00	0	42	104	0	28	18141
2026-01-13 08:54:05.04	13.97	22.93	-34.0	-48.0	3.8	1.49e+00	0	42	104	0	28	18150
2026-01-13 08:54:08.06	13.32	22.67	-34.0	-48.0	3.8	1.49e+00	0	42	104	0	28	18173
2026-01-13 08:54:11.08	12.67	22.40	-34.0	-48.0	3.8	1.49e+00	0	42	104	0	28	18160
2026-01-13 08:54:14.10	12.04	22.13	-34.0	-48.1	3.8	1.49e+00	0	42	104	0	28	18200
2026-01-13 08:54:17.12	11.41	21.87	-34.0	-48.0	3.8	1.49e+00	0	42	104	0	28	18176
2026-01-13 08:54:20.14	10.80	21.60	-34.0	-48.1	3.8	1.49e+00	0	42	104	0	28	18221
2026-01-13 08:54:23.16	10.20	21.33	-34.0	-48.0	3.8	1.49e+00	0	42	104	0	28	18172
2026-01-13 08:54:26.17	9.61	21.06	-34.0	-48.0	3.8	1.49e+00	0	42	104	0	28	18145
2026-01-13 08:54:29.19	9.03	20.79	-34.0	-48.1	3.8	1.49e+00	0	42	104	0	28	18198
2026-01-13 08:54:32.21	8.46	20.52	-34.0	-48.0	3.8	1.49e+00	0	42	104	0	28	18154
2026-01-13 08:54:35.23	7.89	20.25	-34.0	-48.0	3.8	1.49e+00	0	42	104	0	28	18187
2026-01-13 08:54:38.25	7.34	19.98	-34.0	-48.0	3.8	1.49e+00	0	42	104	0	28	18160
2026-01-13 08:54:41.26	6.80	19.71	-34.0	-48.0	3.8	1.49e+00	0	42	104	0	28	18170
2026-01-13 08:54:44.29	6.27	19.44	-34.0	-48.0	3.8	1.49e+00	0	42	104	0	28	18183
2026-01-13 08:54:47.29	5.75	19.17	-34.0	-48.0	3.8	1.49e+00	0	42	104	0	28	18171
2026-01-13 08:54:50.31	5.24	18.90	-34.0	-48.0	3.8	1.49e+00	0	42	104	0	28	18130
2026-01-13 08:54:53.33	4.74	18.63	-34.0	-48.0	3.8	1.49e+00	0	42	104	0	28	18200
2026-01-13 08:54:56.36	4.24	18.36	-34.0	-48.0	3.8	1.49e+00	0	42	104	0	28	18145
2026-01-13 08:54:59.38	3.75	18.09	-34.0	-48.0	3.8	1.49e+00	0	42	104	0	28	18142
2026-01-13 08:55:02.39	3.28	17.83	-34.0	-48.0	3.8	1.49e+00	0	42	104	0	28	18133
2026-01-13 08:55:05.41	2.81	17.56	-34.0	-48.0	3.8	1.49e+00	0	42	104	0	28	18119
2026-01-13 08:55:08.43	2.35	17.30	-34.0	-48.0	3.8	1.49e+00	0	42	104	0	28	18190
2026-01-13 08:55:11.45	1.90	17.03	-34.0	-48.0	3.8	1.49e+00	0	42	104	0	28	18161
2026-01-13 08:55:14.46	1.46	16.77	-34.0	-48.0	3.8	1.49e+00	0	42	104	0	28	18140
2026-01-13 08:55:17.49	1.02	16.51	-34.0	-48.0	3.8	1.49e+00	0	42	104	0	28	18181
2026-01-13 08:55:20.50	0.59	16.25	-34.0	-48.0	3.8	1.49e+00	0	42	104	0	28	18147
2026-01-13 08:55:23.52	0.17	15.99	-34.0	-48.0	3.8	1.49e+00	0	42	104	0	28	18164
2026-01-13 08:55:26.55	359.75	15.73	-34.0	-48.1	3.8	1.49e+00	0	42	104	0	28	18192
2026-01-13 08:55:29.56	359.35	15.48	-34.0	-48.0	3.8	1.49e+00	0	42	104	0	28	18150
2026-01-13 08:55:32.57	358.95	15.22	-34.0	-48.0	3.8	1.49e+00	0	42	104	0	28	18141
2026-01-13 08:55:35.59	358.56	14.97	-34.0	-48.1	3.8	1.49e+00	0	42	104	0	28	18205
2026-01-13 08:55:38.62	358.17	14.71	-34.0	-48.0	3.8	1.49e+00	0	42	104	0	28	18127
2026-01-13 08:55:41.63	357.80	14.46	-34.0	-48.0	3.8	1.49e+00	0	42	104	0	28	18157
2026-01-13 08:55:44.65	357.42	14.21	-34.0	-48.0	3.8	1.49e+00	0	42	104	0	28	18154
2026-01-13 08:55:47.67	357.06	13.96	-34.0	-48.0	3.8	1.49e+00	0	42	104	0	28	18130
2026-01-13 08:55:50.69	356.70	13.71	-34.0	-48.0	3.8	1.49e+00	0	42	104	0	28	18180
2026-01-13 08:55:53.71	356.34	13.47	-34.0	-48.0	3.8	1.49e+00	0	42	104	0	28	18182
2026-01-13 08:55:56.72	356.00	13.22	-34.0	-48.0	3.8	1.49e+00	0	42	104	0	28	18151
2026-01-13 08:55:59.74	355.66	12.98	-34.0	-48.0	3.8	1.49e+00	0	42	104	0	28	18158
2026-01-13 08:56:02.75	355.32	12.74	-34.0	-48.0	3.8	1.49e+00	0	42	104	0	28	18131
2026-01-13 08:56:05.77	354.99	12.50	-34.0	-48.0	3.8	1.49e+00	0	42	104	0	28	18172
2026-01-13 08:56:08.79	354.67	12.26	-34.0	-48.0	3.8	1.49e+00	0	42	104	0	28	18160
2026-01-13 08:56:11.81	354.35	12.02	-34.0	-48.0	3.8	1.49e+00	0	42	104	0	28	18182
2026-01-13 08:56:14.83	354.03	11.78	-34.0	-48.0	3.8	1.49e+00	0	42	104	0	28	18127
2026-01-13 08:56:17.84	353.72	11.55	-34.0	-48.0	3.8	1.49e+00	0	42	104	0	28	18152
2026-01-13 08:56:20.86	353.42	11.31	-34.0	-48.0	3.8	1.49e+00	0	42	104	0	28	18154
2026-01-13 08:56:23.88	353.12	11.08	-34.0	-48.0	3.8	1.49e+00	0	42	104	0	28	18150
2026-01-13 08:56:26.91	352.83	10.85	-34.0	-48.0	3.8	1.49e+00	0	42	104	0	28	18137
2026-01-13 08:56:29.93	352.54	10.62	-34.0	-48.0	3.8	1.49e+00	0	42	104	0	28	18131
2026-01-13 08:56:32.95	352.25	10.39	-34.0	-48.0	3.8	1.49e+00	0	42	104	0	28	18079
2026-01-13 08:56:35.97	351.97	10.17	-34.0	-48.0	3.8	1.49e+00	0	42	104	0	28	18160
2026-01-13 08:56:38.99	351.70	9.94	-34.0	-48.0	3.8	1.49e+00	0	42	104	0	28	18101
2026-01-13 08:56:42.01	351.43	9.72	-34.0	-48.0	3.8	1.49e+00	0	42	104	0	28	18107
2026-01-13 08:56:45.02	351.16	9.50	-34.0	-48.0	3.8	1.49e+00	0	42	104	0	28	18202
2026-01-13 08:56:48.04	350.90	9.27	-34.0	-48.0	3.8	1.49e+00	0	42	104	0	28	18150
2026-01-13 08:56:51.06	350.64	9.06	-34.0	-48.0	3.8	1.49e+00	0	42	104	0	28	18178
2026-01-13 08:56:54.09	350.38	8.84	-34.0	-48.0	3.8	1.49e+00	0	42	104	0	28	18099
2026-01-13 08:56:57.11	350.13	8.62	-34.0	-48.0	3.8	1.49e+00	0	42	104	0	28	18121
2026-01-13 08:57:00.12	349.89	8.40	-34.0	-48.0	3.8	1.49e+00	0	42	104	0	28	18123
2026-01-13 08:57:03.14	349.64	8.19	-34.0	-48.0	3.8	1.49e+00	0	42	104	0	28	18151
2026-01-13 08:57:06.15	349.40	7.98	-34.0	-48.0	3.8	1.49e+00	0	42	104	0	28	18148
2026-01-13 08:57:09.17	349.17	7.77	-34.0	-48.0	3.8	1.49e+00	0	42	104	0	28	18071
2026-01-13 08:57:12.19	348.94	7.55	-34.0	-48.0	3.8	1.49e+00	0	42	104	0	28	18172
2026-01-13 08:57:15.21	348.71	7.35	-34.0	-48.0	3.8	1.49e+00	0	42	104	0	28	18122
2026-01-13 08:57:18.23	348.48	7.14	-34.0	-48.0	3.8	1.49e+00	0	42	104	0	28	18160
2026-01-13 08:57:21.24	348.26	6.93	-34.0	-48.0	3.8	1.49e+00	0	42	104	0	28	18105

#Closed at: 2026-01-13 08:57:21
#Recorded file [0 MB]: D:/data/31010_260113_114644.dat