passes_logs/2026/01/13/R2M6_AANII_01/R2M6_AANII_01__20260113_161143_FENGYUN_3E_rec.log

#Pass ID: 20260113_161143_FENGYUN 3E
#Satellite: FENGYUN 3E
#Configuration: FENGYUN 3E
#almurnet v.1.7.20240730
#Start time: 2026-01-13 16:11:43

#Version: 2.2.20231116
#Station: R2M6_AANII_01
#Location: 30.233357 lon 59.946436 lat
#TLE: 1 49008U 21062A   26012.89166517 -.00000229  00000+0 -86979-4 0  9993
#TLE: 2 49008  98.7492  18.0449 0001954 141.1957 218.9360 14.19884302234542

#Time	Az	El	Level	Level2	SNR	BER	BlckErr	Temp	State	Recorded	gain1	gain2
2026-01-13 16:11:43.50	212.40	7.00	-33.9	-42.8	3.8	8.47e-01	0	40	0	0	29	9978
2026-01-13 16:11:46.51	212.69	7.19	-33.9	-42.8	3.8	8.45e-01	0	40	104	0	29	9960
2026-01-13 16:11:49.53	212.98	7.39	-33.9	-42.8	3.8	8.46e-01	0	40	104	0	29	10001
2026-01-13 16:11:52.56	213.27	7.58	-34.0	-42.8	3.8	8.47e-01	0	40	104	0	29	9933
2026-01-13 16:11:55.58	213.56	7.78	-34.0	-42.8	3.8	8.47e-01	0	40	104	0	29	9959
2026-01-13 16:11:58.60	213.86	7.97	-33.9	-42.8	3.8	8.45e-01	0	40	104	0	29	10001
2026-01-13 16:12:01.62	214.17	8.17	-33.9	-42.8	3.8	8.46e-01	0	40	104	0	29	9961
2026-01-13 16:12:04.63	214.47	8.36	-33.9	-42.8	3.8	8.46e-01	0	40	104	0	29	9997
2026-01-13 16:12:07.65	214.79	8.56	-33.9	-42.8	3.8	8.45e-01	0	41	104	0	29	9933
2026-01-13 16:12:10.66	215.10	8.76	-33.9	-42.8	3.8	8.46e-01	0	41	104	0	29	9963
2026-01-13 16:12:13.67	215.42	8.96	-34.0	-42.8	3.8	8.46e-01	0	41	104	0	29	9957
2026-01-13 16:12:16.69	215.74	9.16	-34.0	-42.8	3.8	8.47e-01	0	41	104	0	29	9990
2026-01-13 16:12:19.71	216.07	9.36	-34.0	-42.8	3.8	8.48e-01	0	41	104	0	29	9981
2026-01-13 16:12:22.72	216.40	9.56	-34.0	-42.8	3.8	8.46e-01	0	41	104	0	29	9993
2026-01-13 16:12:25.73	216.74	9.76	-34.0	-42.8	3.8	8.46e-01	0	41	104	0	29	9982
2026-01-13 16:12:28.75	217.08	9.97	-34.0	-42.8	3.8	8.45e-01	0	41	104	0	29	9941
2026-01-13 16:12:31.77	217.43	10.17	-34.0	-42.8	3.8	8.47e-01	0	41	104	0	29	9974
2026-01-13 16:12:34.79	217.78	10.38	-34.0	-42.8	3.8	8.47e-01	0	41	104	0	29	9987
2026-01-13 16:12:37.80	218.13	10.58	-33.9	-42.8	3.8	8.46e-01	0	41	104	0	29	9964
2026-01-13 16:12:40.81	218.49	10.79	-34.0	-42.8	3.8	8.45e-01	0	41	104	0	29	9971
2026-01-13 16:12:43.83	218.86	11.00	-34.0	-42.8	3.8	8.46e-01	0	41	104	0	29	9992
2026-01-13 16:12:46.85	219.23	11.20	-34.0	-42.8	3.8	8.45e-01	0	41	104	0	29	9978
2026-01-13 16:12:49.86	219.60	11.41	-34.0	-42.8	3.8	8.45e-01	0	41	104	0	29	9964
2026-01-13 16:12:52.88	219.98	11.62	-34.0	-42.9	3.8	8.46e-01	0	41	104	0	29	10037
2026-01-13 16:12:55.90	220.37	11.83	-34.0	-42.9	3.8	8.46e-01	0	42	104	0	29	10024
2026-01-13 16:12:58.92	220.76	12.04	-34.0	-42.8	3.8	8.47e-01	0	42	104	0	29	10008
2026-01-13 16:13:01.93	221.16	12.25	-34.0	-42.8	3.8	8.46e-01	0	42	104	0	29	10001
2026-01-13 16:13:04.94	221.56	12.47	-34.0	-42.8	3.8	8.46e-01	0	42	104	0	29	9968
2026-01-13 16:13:07.95	221.96	12.68	-34.0	-42.8	3.8	8.45e-01	0	42	104	0	29	9973
2026-01-13 16:13:10.99	222.38	12.89	-34.0	-42.8	3.8	8.45e-01	0	42	104	0	29	9935
2026-01-13 16:13:14.00	222.80	13.10	-34.0	-42.8	3.8	8.45e-01	0	42	104	0	29	9999
2026-01-13 16:13:17.02	223.23	13.32	-34.0	-42.8	3.8	8.46e-01	0	42	104	0	29	10007
2026-01-13 16:13:20.05	223.66	13.53	-34.0	-42.8	3.8	8.46e-01	0	42	104	0	29	10012
2026-01-13 16:13:23.06	224.10	13.75	-34.0	-42.8	3.8	8.47e-01	0	42	104	0	29	9991
2026-01-13 16:13:26.09	224.54	13.96	-34.0	-42.8	3.8	8.46e-01	0	42	104	0	29	9945
2026-01-13 16:13:29.10	224.99	14.18	-34.0	-42.8	3.8	8.46e-01	0	42	104	0	29	9998
2026-01-13 16:13:32.12	225.45	14.40	-34.0	-42.8	3.8	8.45e-01	0	42	104	0	29	10007
2026-01-13 16:13:35.14	225.91	14.61	-34.0	-42.8	3.8	8.47e-01	0	42	104	0	29	9940
2026-01-13 16:13:38.17	226.38	14.83	-34.0	-42.8	3.8	8.45e-01	0	42	104	0	29	10005
2026-01-13 16:13:41.18	226.86	15.04	-34.0	-42.8	3.8	8.46e-01	0	42	104	0	29	9968
2026-01-13 16:13:44.19	227.34	15.26	-34.0	-42.8	3.8	8.47e-01	0	42	104	0	29	9965
2026-01-13 16:13:47.21	227.83	15.48	-34.0	-42.8	3.8	8.47e-01	0	42	104	0	29	9982
2026-01-13 16:13:50.24	228.33	15.69	-34.0	-42.8	3.8	8.46e-01	0	42	104	0	29	10006
2026-01-13 16:13:53.26	228.83	15.91	-34.0	-42.8	3.8	8.45e-01	0	42	104	0	29	9983
2026-01-13 16:13:56.29	229.34	16.13	-34.0	-42.8	3.8	8.45e-01	0	42	104	0	29	9961
2026-01-13 16:13:59.31	229.86	16.34	-34.0	-42.8	3.8	8.46e-01	0	42	104	0	29	10002
2026-01-13 16:14:02.33	230.39	16.56	-34.0	-42.8	3.8	8.46e-01	0	42	104	0	29	9991
2026-01-13 16:14:05.34	230.92	16.77	-34.0	-42.8	3.8	8.46e-01	0	42	104	0	29	9961
2026-01-13 16:14:08.36	231.46	16.99	-34.0	-42.8	3.8	8.46e-01	0	42	104	0	29	9994
2026-01-13 16:14:11.37	232.01	17.20	-34.0	-42.8	3.8	8.47e-01	0	42	104	0	29	9996
2026-01-13 16:14:14.39	232.56	17.41	-34.0	-42.8	3.8	8.45e-01	0	42	104	0	29	10001
2026-01-13 16:14:17.40	233.12	17.63	-34.0	-42.8	3.8	8.46e-01	0	42	104	0	29	9969
2026-01-13 16:14:20.43	233.70	17.84	-34.0	-42.8	3.8	8.46e-01	0	42	104	0	29	9992
2026-01-13 16:14:23.45	234.28	18.05	-34.0	-42.8	3.8	8.45e-01	0	42	104	0	29	10004
2026-01-13 16:14:26.47	234.86	18.26	-34.0	-42.8	3.8	8.46e-01	0	42	104	0	29	9958
2026-01-13 16:14:29.49	235.46	18.47	-34.0	-42.8	3.8	8.46e-01	0	42	104	0	29	9992
2026-01-13 16:14:32.51	236.06	18.68	-34.0	-42.8	3.8	8.46e-01	0	42	104	0	29	9995
2026-01-13 16:14:35.53	236.67	18.88	-34.0	-42.8	3.8	8.45e-01	0	42	104	0	29	9993
2026-01-13 16:14:38.55	237.29	19.09	-34.0	-42.8	3.8	8.47e-01	0	42	104	0	29	9961
2026-01-13 16:14:41.57	237.92	19.29	-34.0	-42.8	3.8	8.46e-01	0	42	104	0	29	9994
2026-01-13 16:14:44.58	238.55	19.49	-34.0	-42.8	3.8	8.46e-01	0	42	104	0	29	9994
2026-01-13 16:14:47.59	239.19	19.69	-34.0	-42.8	3.8	8.47e-01	0	42	104	0	29	9988
2026-01-13 16:14:50.60	239.84	19.89	-34.0	-42.8	3.8	8.47e-01	0	42	104	0	29	9957
2026-01-13 16:14:53.62	240.50	20.08	-34.0	-42.8	3.8	8.46e-01	0	42	104	0	29	9985
2026-01-13 16:14:56.64	241.17	20.27	-34.0	-42.8	3.8	8.46e-01	0	42	104	0	29	9989
2026-01-13 16:14:59.66	241.84	20.46	-34.0	-42.8	3.8	8.46e-01	0	42	104	0	29	9988
2026-01-13 16:15:02.67	242.52	20.65	-34.0	-42.8	3.8	8.45e-01	0	42	104	0	29	9986
2026-01-13 16:15:05.69	243.21	20.84	-34.0	-42.8	3.8	8.46e-01	0	42	104	0	29	9993
2026-01-13 16:15:08.71	243.91	21.02	-34.0	-42.9	3.8	8.46e-01	0	42	104	0	29	10010
2026-01-13 16:15:11.73	244.62	21.20	-34.0	-42.8	3.8	8.45e-01	0	42	104	0	29	9973
2026-01-13 16:15:14.75	245.34	21.37	-34.0	-42.9	3.8	8.46e-01	0	42	104	0	29	10039
2026-01-13 16:15:17.77	246.06	21.55	-34.0	-42.8	3.8	8.46e-01	0	42	104	0	29	9964
2026-01-13 16:15:20.79	246.79	21.72	-34.0	-42.8	3.8	8.45e-01	0	42	104	0	29	10004
2026-01-13 16:15:23.82	247.54	21.88	-34.0	-42.9	3.8	8.47e-01	0	42	104	0	29	10020
2026-01-13 16:15:26.84	248.28	22.04	-34.0	-42.8	3.8	8.47e-01	0	42	104	0	29	9989
2026-01-13 16:15:29.86	249.04	22.20	-34.0	-42.9	3.8	8.47e-01	0	43	104	0	29	10023
2026-01-13 16:15:32.87	249.80	22.36	-34.0	-42.9	3.8	8.46e-01	0	42	104	0	29	10002
2026-01-13 16:15:35.89	250.57	22.51	-34.0	-42.9	3.8	8.46e-01	0	42	104	0	29	10006
2026-01-13 16:15:38.91	251.34	22.65	-34.0	-42.9	3.8	8.46e-01	0	43	104	0	29	10054
2026-01-13 16:15:41.93	252.13	22.79	-34.0	-42.9	3.8	8.46e-01	0	42	104	0	29	10015
2026-01-13 16:15:44.94	252.91	22.93	-34.0	-42.9	3.8	8.45e-01	0	42	104	0	29	10019
2026-01-13 16:15:47.95	253.71	23.06	-34.0	-42.8	3.8	8.46e-01	0	42	104	0	29	9958
2026-01-13 16:15:50.96	254.51	23.18	-34.0	-42.9	3.8	8.46e-01	0	42	104	0	29	10019
2026-01-13 16:15:53.99	255.32	23.30	-34.0	-42.9	3.8	8.45e-01	0	43	104	0	29	9995
2026-01-13 16:15:57.01	256.14	23.42	-34.0	-42.8	3.8	8.46e-01	0	42	104	0	29	9986
2026-01-13 16:16:00.03	256.96	23.53	-34.0	-42.9	3.8	8.46e-01	0	42	104	0	29	10013
2026-01-13 16:16:03.05	257.78	23.63	-34.0	-42.9	3.8	8.46e-01	0	43	104	0	29	10018
2026-01-13 16:16:06.06	258.61	23.73	-34.0	-42.9	3.8	8.45e-01	0	43	104	0	29	10043
2026-01-13 16:16:09.09	259.45	23.82	-34.0	-42.9	3.8	8.48e-01	0	43	104	0	29	10016
2026-01-13 16:16:12.11	260.29	23.91	-34.0	-42.9	3.8	8.46e-01	0	42	104	0	29	10042
2026-01-13 16:16:15.13	261.14	23.99	-34.0	-42.9	3.8	8.47e-01	0	42	104	0	29	9995
2026-01-13 16:16:18.16	261.99	24.07	-34.0	-42.9	3.8	8.46e-01	0	42	104	0	29	10013
2026-01-13 16:16:21.17	262.84	24.13	-34.0	-42.9	3.8	8.45e-01	0	42	104	0	29	10031
2026-01-13 16:16:24.19	263.70	24.20	-34.0	-42.9	3.8	8.46e-01	0	43	104	0	29	10021
2026-01-13 16:16:27.21	264.56	24.25	-34.0	-42.9	3.8	8.46e-01	0	43	104	0	29	10008
2026-01-13 16:16:30.23	265.42	24.30	-34.0	-42.9	3.8	8.45e-01	0	43	104	0	29	10010
2026-01-13 16:16:33.24	266.28	24.34	-34.0	-42.9	3.8	8.47e-01	0	43	104	0	29	10026
2026-01-13 16:16:36.26	267.15	24.38	-34.0	-42.9	3.8	8.46e-01	0	43	104	0	29	10049
2026-01-13 16:16:39.28	268.02	24.40	-34.0	-42.9	3.8	8.47e-01	0	43	104	0	29	10046
2026-01-13 16:16:42.31	268.89	24.43	-34.0	-42.9	3.8	8.45e-01	0	43	104	0	29	10021
2026-01-13 16:16:45.33	269.76	24.44	-34.0	-42.8	3.8	8.45e-01	0	43	104	0	29	9982
2026-01-13 16:16:48.35	270.63	24.45	-34.0	-42.8	3.8	8.46e-01	0	43	104	0	29	9988
2026-01-13 16:16:51.37	271.51	24.45	-34.0	-42.8	3.8	8.49e-01	0	43	104	0	29	9987
2026-01-13 16:16:54.39	272.38	24.44	-34.0	-42.9	3.8	8.46e-01	0	43	104	0	29	9990
2026-01-13 16:16:57.41	273.25	24.43	-34.0	-42.8	3.8	8.45e-01	0	43	104	0	29	9965
2026-01-13 16:17:00.42	274.12	24.41	-34.0	-42.9	3.8	8.46e-01	0	43	104	0	29	10033
2026-01-13 16:17:03.44	274.98	24.39	-34.0	-42.8	3.8	8.47e-01	0	43	104	0	29	9963
2026-01-13 16:17:06.45	275.85	24.35	-34.0	-42.9	3.8	8.46e-01	0	43	104	0	29	10048
2026-01-13 16:17:09.48	276.72	24.32	-34.0	-42.9	3.8	8.47e-01	0	43	104	0	29	10015
2026-01-13 16:17:12.50	277.58	24.27	-34.0	-42.9	3.8	8.46e-01	0	43	104	0	29	10019
2026-01-13 16:17:15.52	278.44	24.22	-34.0	-42.9	3.8	8.46e-01	0	43	104	0	29	10000
2026-01-13 16:17:18.54	279.30	24.16	-34.0	-42.9	3.8	8.46e-01	0	42	104	0	29	10002
2026-01-13 16:17:21.55	280.15	24.09	-34.0	-42.9	3.8	8.45e-01	0	42	104	0	29	10027
2026-01-13 16:17:24.57	281.00	24.02	-34.0	-42.9	3.8	8.46e-01	0	43	104	0	29	10024
2026-01-13 16:17:27.59	281.84	23.94	-34.0	-42.9	3.8	8.47e-01	0	43	104	0	29	10032
2026-01-13 16:17:30.61	282.68	23.86	-34.0	-42.9	3.8	8.45e-01	0	43	104	0	29	10024
2026-01-13 16:17:33.63	283.52	23.77	-34.0	-42.9	3.8	8.46e-01	0	42	104	0	29	10025
2026-01-13 16:17:36.66	284.36	23.67	-34.0	-42.9	3.8	8.46e-01	0	43	104	0	29	10020
2026-01-13 16:17:39.65	285.17	23.57	-34.0	-42.9	3.8	8.45e-01	0	43	104	0	29	10019
2026-01-13 16:17:42.67	286.00	23.46	-34.0	-42.9	3.8	8.46e-01	0	43	104	0	29	10013
2026-01-13 16:17:45.68	286.81	23.35	-34.0	-42.8	3.8	8.45e-01	0	42	104	0	29	9970
2026-01-13 16:17:48.70	287.62	23.23	-34.0	-42.8	3.8	8.46e-01	0	43	104	0	29	9956
2026-01-13 16:17:51.72	288.42	23.11	-34.0	-42.9	3.8	8.45e-01	0	42	104	0	29	10025
2026-01-13 16:17:54.73	289.22	22.98	-34.0	-42.9	3.8	8.45e-01	0	42	104	0	29	10023
2026-01-13 16:17:57.76	290.01	22.85	-34.0	-42.9	3.8	8.47e-01	0	43	104	0	29	10019
2026-01-13 16:18:00.77	290.79	22.71	-34.0	-42.8	3.8	8.47e-01	0	43	104	0	29	9964
2026-01-13 16:18:03.79	291.57	22.57	-34.0	-42.9	3.8	8.47e-01	0	43	104	0	29	10006
2026-01-13 16:18:06.81	292.34	22.42	-34.0	-42.9	3.8	8.47e-01	0	43	104	0	29	10023
2026-01-13 16:18:09.83	293.10	22.27	-34.0	-42.9	3.8	8.45e-01	0	43	104	0	29	10019
2026-01-13 16:18:12.85	293.86	22.11	-34.0	-42.9	3.8	8.46e-01	0	43	104	0	29	10029
2026-01-13 16:18:15.87	294.60	21.96	-34.0	-42.9	3.8	8.46e-01	0	43	104	0	29	10020
2026-01-13 16:18:18.89	295.34	21.79	-34.0	-42.9	3.8	8.47e-01	0	43	104	0	29	10002
2026-01-13 16:18:21.90	296.07	21.63	-34.0	-42.8	3.8	8.46e-01	0	43	104	0	29	9979
2026-01-13 16:18:24.92	296.80	21.46	-34.0	-42.9	3.8	8.46e-01	0	43	104	0	29	10030
2026-01-13 16:18:27.93	297.51	21.28	-34.0	-42.9	3.8	8.46e-01	0	42	104	0	29	10036
2026-01-13 16:18:30.94	298.22	21.11	-34.0	-42.8	3.8	8.47e-01	0	42	104	0	29	9958
2026-01-13 16:18:33.96	298.92	20.93	-34.0	-42.9	3.8	8.46e-01	0	43	104	0	29	10001
2026-01-13 16:18:36.97	299.61	20.74	-34.0	-42.9	3.8	8.46e-01	0	43	104	0	29	10015
2026-01-13 16:18:39.99	300.29	20.56	-34.0	-42.9	3.8	8.46e-01	0	43	104	0	29	10024
2026-01-13 16:18:43.01	300.97	20.37	-34.0	-42.9	3.8	8.46e-01	0	43	104	0	29	10025
2026-01-13 16:18:46.02	301.64	20.18	-34.0	-42.9	3.8	8.46e-01	0	43	104	0	29	9996
2026-01-13 16:18:49.04	302.30	19.99	-34.0	-42.9	3.8	8.46e-01	0	43	104	0	29	10031
2026-01-13 16:18:52.06	302.95	19.79	-34.0	-42.9	3.8	8.46e-01	0	43	104	0	29	10042
2026-01-13 16:18:55.08	303.59	19.59	-34.0	-42.9	3.8	8.46e-01	0	43	104	0	29	10014
2026-01-13 16:18:58.10	304.23	19.40	-34.0	-42.9	3.8	8.47e-01	0	43	104	0	29	10021
2026-01-13 16:19:01.12	304.86	19.20	-34.0	-42.9	3.8	8.46e-01	0	43	104	0	29	10066
2026-01-13 16:19:04.15	305.48	18.99	-34.0	-42.9	3.8	8.47e-01	0	43	104	0	29	9991
2026-01-13 16:19:07.16	306.09	18.79	-34.0	-42.9	3.8	8.46e-01	0	43	104	0	29	10038
2026-01-13 16:19:10.18	306.69	18.58	-34.0	-42.9	3.8	8.45e-01	0	43	104	0	29	10023
2026-01-13 16:19:13.21	307.29	18.38	-34.0	-42.9	3.8	8.46e-01	0	43	104	0	29	9990
2026-01-13 16:19:16.23	307.88	18.17	-34.0	-42.9	3.8	8.47e-01	0	43	104	0	29	9992
2026-01-13 16:19:19.25	308.46	17.96	-34.0	-42.9	3.8	8.45e-01	0	43	104	0	29	10028
2026-01-13 16:19:22.27	309.03	17.75	-34.0	-42.9	3.8	8.46e-01	0	43	104	0	29	10046
2026-01-13 16:19:25.29	309.59	17.54	-34.0	-42.9	3.8	8.47e-01	0	43	104	0	29	10053
2026-01-13 16:19:28.31	310.15	17.33	-34.0	-42.9	3.8	8.45e-01	0	43	104	0	29	10060
2026-01-13 16:19:31.33	310.70	17.12	-34.0	-42.8	3.8	8.45e-01	0	43	104	0	29	9971
2026-01-13 16:19:34.34	311.24	16.90	-34.0	-42.9	3.8	8.47e-01	0	42	104	0	29	10024
2026-01-13 16:19:37.36	311.78	16.69	-34.0	-42.9	3.8	8.45e-01	0	43	104	0	29	10082
2026-01-13 16:19:40.37	312.30	16.48	-34.0	-42.9	3.8	8.45e-01	0	43	104	0	29	10043
2026-01-13 16:19:43.40	312.82	16.26	-34.0	-42.9	3.8	8.46e-01	0	43	104	0	29	10083
2026-01-13 16:19:46.42	313.33	16.05	-34.0	-42.9	3.8	8.46e-01	0	43	104	0	29	10009
2026-01-13 16:19:49.44	313.84	15.83	-34.0	-42.8	3.8	8.46e-01	0	43	104	0	29	9983
2026-01-13 16:19:52.46	314.34	15.62	-34.0	-42.9	3.8	8.46e-01	0	43	104	0	29	10046
2026-01-13 16:19:55.48	314.83	15.40	-34.0	-42.9	3.8	8.46e-01	0	43	104	0	29	10064
2026-01-13 16:19:58.50	315.32	15.19	-34.0	-42.9	3.8	8.46e-01	0	43	104	0	29	10002
2026-01-13 16:20:01.49	315.79	14.98	-34.0	-42.9	3.8	8.45e-01	0	43	104	0	29	10017
2026-01-13 16:20:04.51	316.26	14.76	-34.0	-42.9	3.8	8.47e-01	0	43	104	0	29	10050
2026-01-13 16:20:07.53	316.73	14.55	-34.0	-42.9	3.8	8.46e-01	0	42	104	0	29	9981
2026-01-13 16:20:10.55	317.18	14.33	-34.0	-42.9	3.8	8.46e-01	0	42	104	0	29	10087
2026-01-13 16:20:13.57	317.64	14.12	-34.0	-42.9	3.8	8.46e-01	0	43	104	0	29	10049
2026-01-13 16:20:16.59	318.08	13.91	-34.0	-42.9	3.8	8.47e-01	0	43	104	0	29	10044
2026-01-13 16:20:19.61	318.52	13.69	-34.0	-42.9	3.8	8.48e-01	0	43	104	0	29	10061
2026-01-13 16:20:22.63	318.96	13.48	-34.0	-42.9	3.8	8.47e-01	0	43	104	0	29	10070
2026-01-13 16:20:25.64	319.38	13.27	-34.0	-42.9	3.8	8.45e-01	0	43	104	0	29	10044
2026-01-13 16:20:28.67	319.80	13.06	-34.0	-42.9	3.8	8.47e-01	0	43	104	0	29	10032
2026-01-13 16:20:31.69	320.22	12.84	-34.0	-42.9	3.8	8.46e-01	0	43	104	0	29	10012
2026-01-13 16:20:34.71	320.63	12.63	-34.0	-42.9	3.8	8.47e-01	0	43	104	0	29	10054
2026-01-13 16:20:37.73	321.04	12.42	-34.0	-42.9	3.8	8.46e-01	0	43	104	0	29	10022
2026-01-13 16:20:40.75	321.43	12.21	-34.0	-42.9	3.8	8.45e-01	0	43	104	0	29	10040
2026-01-13 16:20:43.76	321.83	12.00	-34.0	-42.9	3.8	8.46e-01	0	43	104	0	29	10009
2026-01-13 16:20:46.79	322.22	11.79	-34.0	-42.9	3.8	8.46e-01	0	43	104	0	29	10047
2026-01-13 16:20:49.80	322.60	11.59	-34.0	-42.9	3.8	8.46e-01	0	43	104	0	29	10052
2026-01-13 16:20:52.82	322.98	11.38	-34.0	-42.9	3.8	8.46e-01	0	43	104	0	29	10011
2026-01-13 16:20:55.84	323.35	11.17	-34.0	-42.9	3.8	8.47e-01	0	42	104	0	29	10011
2026-01-13 16:20:58.86	323.72	10.97	-34.0	-42.9	3.8	8.46e-01	0	43	104	0	29	10007
2026-01-13 16:21:01.88	324.08	10.76	-34.0	-42.9	3.8	8.47e-01	0	42	104	0	29	10054
2026-01-13 16:21:04.90	324.44	10.56	-34.0	-42.9	3.8	8.47e-01	0	43	104	0	29	10012
2026-01-13 16:21:07.91	324.79	10.35	-34.0	-42.9	3.8	8.46e-01	0	43	104	0	29	10014
2026-01-13 16:21:10.94	325.14	10.15	-34.0	-42.9	3.8	8.46e-01	0	43	104	0	29	10036
2026-01-13 16:21:13.96	325.48	9.95	-34.0	-42.9	3.8	8.46e-01	0	43	104	0	29	10021
2026-01-13 16:21:16.98	325.82	9.75	-34.0	-42.9	3.8	8.47e-01	0	43	104	0	29	10046
2026-01-13 16:21:20.00	326.16	9.55	-34.0	-42.9	3.8	8.47e-01	0	43	104	0	29	10022
2026-01-13 16:21:23.02	326.49	9.35	-34.0	-42.9	3.8	8.46e-01	0	43	104	0	29	10013
2026-01-13 16:21:26.03	326.81	9.15	-34.0	-42.9	3.8	8.47e-01	0	43	104	0	29	10032
2026-01-13 16:21:29.04	327.13	8.95	-34.0	-42.9	3.8	8.45e-01	0	43	104	0	29	10019
2026-01-13 16:21:32.06	327.45	8.75	-34.0	-42.9	3.8	8.46e-01	0	43	104	0	29	10009
2026-01-13 16:21:35.08	327.77	8.56	-34.0	-42.9	3.8	8.46e-01	0	43	104	0	29	10014
2026-01-13 16:21:38.10	328.08	8.36	-34.0	-42.9	3.8	8.46e-01	0	43	104	0	29	10034
2026-01-13 16:21:41.11	328.38	8.17	-34.0	-42.9	3.8	8.46e-01	0	43	104	0	29	10053
2026-01-13 16:21:44.13	328.68	7.97	-34.0	-42.9	3.8	8.47e-01	0	43	104	0	29	10018
2026-01-13 16:21:47.15	328.98	7.78	-34.0	-42.9	3.8	8.46e-01	0	43	104	0	29	10015
2026-01-13 16:21:50.17	329.27	7.59	-34.0	-42.9	3.8	8.46e-01	0	43	104	0	29	9985
2026-01-13 16:21:53.19	329.57	7.40	-34.0	-42.9	3.8	8.46e-01	0	43	104	0	29	10036
2026-01-13 16:21:56.21	329.85	7.20	-34.0	-42.9	3.8	8.47e-01	0	43	104	0	29	10024
2026-01-13 16:21:59.23	330.14	7.02	-34.0	-42.9	3.8	8.46e-01	0	43	104	0	29	10028

#Closed at: 2026-01-13 16:21:59
#Recorded file [0 MB]: D:/data/31010_260113_191143.dat