passes_logs/2026/01/13/R2M6_AANII_01/R2M6_AANII_01__20260113_110518_FENGYUN_3D_rec.log

#Pass ID: 20260113_110518_FENGYUN 3D
#Satellite: FENGYUN 3D
#Configuration: FENGYUN 3D
#almurnet v.1.7.20240730
#Start time: 2026-01-13 11:05:19

#Version: 2.2.20231116
#Station: R2M6_AANII_01
#Location: 30.233357 lon 59.946436 lat
#TLE: 1 43010U 17072A   26012.32543542  .00000598  00000+0  30457-3 0  9997
#TLE: 2 43010  98.9935 344.1005 0002233 112.6136 247.5276 14.19696644422876

#Time	Az	El	Level	Level2	SNR	BER	BlckErr	Temp	State	Recorded	gain1	gain2
2026-01-13 11:05:19.60	120.85	7.08	-34.0	-44.5	3.8	8.46e-01	0	40	0	0	29	12127
2026-01-13 11:05:22.60	120.66	7.29	-34.0	-44.5	3.8	8.46e-01	0	40	104	0	29	12126
2026-01-13 11:05:25.63	120.47	7.51	-34.0	-44.5	3.8	8.45e-01	0	40	104	0	29	12106
2026-01-13 11:05:28.65	120.28	7.74	-34.0	-44.5	3.8	8.46e-01	0	40	104	0	29	12088
2026-01-13 11:05:31.67	120.08	7.96	-34.0	-44.6	3.8	8.46e-01	0	40	104	0	29	12155
2026-01-13 11:05:34.70	119.88	8.18	-34.0	-44.5	3.8	8.46e-01	0	41	104	0	29	12072
2026-01-13 11:05:37.72	119.68	8.41	-34.0	-44.5	3.8	8.46e-01	0	41	104	0	29	12117
2026-01-13 11:05:40.74	119.48	8.64	-34.0	-44.5	3.8	8.47e-01	0	41	104	0	29	12084
2026-01-13 11:05:43.76	119.27	8.87	-34.0	-44.5	3.8	8.47e-01	0	41	104	0	29	12089
2026-01-13 11:05:46.78	119.05	9.10	-34.0	-44.5	3.8	8.47e-01	0	41	104	0	29	12142
2026-01-13 11:05:49.81	118.84	9.33	-34.0	-44.5	3.8	8.46e-01	0	41	104	0	29	12054
2026-01-13 11:05:52.82	118.62	9.57	-34.0	-44.5	3.8	8.47e-01	0	41	104	0	29	12090
2026-01-13 11:05:55.84	118.40	9.80	-34.0	-44.5	3.8	8.46e-01	0	41	104	0	29	12115
2026-01-13 11:05:58.86	118.17	10.04	-34.0	-44.5	3.8	8.46e-01	0	41	104	0	29	12112
2026-01-13 11:06:01.88	117.94	10.28	-34.0	-44.6	3.8	8.46e-01	0	41	104	0	29	12158
2026-01-13 11:06:04.91	117.70	10.53	-34.0	-44.6	3.8	8.47e-01	0	41	104	0	29	12146
2026-01-13 11:06:07.93	117.46	10.77	-34.0	-44.5	3.8	8.47e-01	0	41	104	0	29	12131
2026-01-13 11:06:10.95	117.22	11.02	-34.0	-44.6	3.8	8.46e-01	0	42	104	0	29	12150
2026-01-13 11:06:13.97	116.97	11.26	-34.0	-44.6	3.8	8.46e-01	0	41	104	0	29	12164
2026-01-13 11:06:17.00	116.72	11.52	-34.0	-44.5	3.8	8.46e-01	0	42	104	0	29	12101
2026-01-13 11:06:20.02	116.46	11.77	-34.0	-44.5	3.8	8.45e-01	0	42	104	0	29	12141
2026-01-13 11:06:23.04	116.20	12.02	-34.0	-44.5	3.8	8.46e-01	0	42	104	0	29	12096
2026-01-13 11:06:26.05	115.94	12.28	-34.0	-44.5	3.8	8.46e-01	0	42	104	0	29	12096
2026-01-13 11:06:29.07	115.67	12.54	-34.0	-44.5	3.8	8.45e-01	0	42	104	0	29	12118
2026-01-13 11:06:32.10	115.39	12.80	-34.0	-44.6	3.8	8.45e-01	0	42	104	0	29	12150
2026-01-13 11:06:35.12	115.11	13.06	-34.0	-44.6	3.8	8.46e-01	0	42	104	0	29	12154
2026-01-13 11:06:38.14	114.82	13.32	-34.0	-44.6	3.8	8.47e-01	0	42	104	0	29	12148
2026-01-13 11:06:41.15	114.53	13.59	-34.0	-44.5	3.8	8.45e-01	0	42	104	0	29	12088
2026-01-13 11:06:44.18	114.24	13.86	-34.0	-44.6	3.8	8.47e-01	0	42	104	0	29	12145
2026-01-13 11:06:47.19	113.93	14.13	-34.0	-44.5	3.8	8.45e-01	0	42	104	0	29	12137
2026-01-13 11:06:50.22	113.63	14.40	-34.0	-44.5	3.8	8.45e-01	0	42	104	0	29	12110
2026-01-13 11:06:53.24	113.31	14.68	-34.0	-44.6	3.8	8.46e-01	0	42	104	0	29	12182
2026-01-13 11:06:56.25	112.99	14.96	-34.0	-44.6	3.8	8.46e-01	0	42	104	0	29	12129
2026-01-13 11:06:59.27	112.67	15.24	-34.0	-44.6	3.8	8.45e-01	0	42	104	0	29	12138
2026-01-13 11:07:02.29	112.34	15.52	-34.0	-44.6	3.8	8.46e-01	0	42	104	0	29	12163
2026-01-13 11:07:05.30	112.00	15.80	-34.0	-44.6	3.8	8.46e-01	0	42	104	0	29	12168
2026-01-13 11:07:08.32	111.65	16.09	-34.0	-44.6	3.8	8.46e-01	0	42	104	0	29	12165
2026-01-13 11:07:11.33	111.30	16.38	-34.0	-44.6	3.8	8.47e-01	0	42	104	0	29	12168
2026-01-13 11:07:14.35	110.94	16.67	-34.0	-44.6	3.8	8.45e-01	0	42	104	0	29	12180
2026-01-13 11:07:17.37	110.58	16.97	-34.0	-44.5	3.8	8.46e-01	0	42	104	0	29	12128
2026-01-13 11:07:20.39	110.20	17.26	-34.0	-44.6	3.8	8.46e-01	0	42	104	0	29	12147
2026-01-13 11:07:23.41	109.82	17.56	-34.0	-44.6	3.8	8.46e-01	0	42	104	0	29	12158
2026-01-13 11:07:26.44	109.43	17.86	-34.0	-44.6	3.8	8.45e-01	0	42	104	0	29	12168
2026-01-13 11:07:29.46	109.03	18.17	-34.0	-44.5	3.8	8.46e-01	0	42	104	0	29	12107
2026-01-13 11:07:32.48	108.63	18.47	-34.0	-44.5	3.8	8.45e-01	0	42	104	0	29	12132
2026-01-13 11:07:35.50	108.21	18.78	-34.0	-44.6	3.8	8.46e-01	0	42	104	0	29	12146
2026-01-13 11:07:38.52	107.79	19.09	-34.0	-44.6	3.8	8.47e-01	0	42	104	0	29	12146
2026-01-13 11:07:41.54	107.36	19.40	-34.0	-44.6	3.8	8.45e-01	0	42	104	0	29	12210
2026-01-13 11:07:44.56	106.92	19.72	-34.0	-44.6	3.8	8.46e-01	0	42	104	0	29	12171
2026-01-13 11:07:47.58	106.47	20.04	-34.0	-44.6	3.8	8.47e-01	0	42	104	0	29	12144
2026-01-13 11:07:50.60	106.01	20.36	-34.0	-44.6	3.8	8.45e-01	0	42	104	0	29	12169
2026-01-13 11:07:53.62	105.54	20.68	-34.0	-44.6	3.8	8.46e-01	0	43	104	0	29	12169
2026-01-13 11:07:56.64	105.06	21.00	-34.0	-44.6	3.8	8.47e-01	0	42	104	0	29	12146
2026-01-13 11:07:59.66	104.57	21.32	-34.0	-44.6	3.8	8.47e-01	0	43	104	0	29	12172
2026-01-13 11:08:02.67	104.07	21.65	-34.0	-44.6	3.8	8.46e-01	0	43	104	0	29	12148
2026-01-13 11:08:05.69	103.56	21.98	-34.0	-44.6	3.8	8.46e-01	0	43	104	0	29	12165
2026-01-13 11:08:08.70	103.04	22.31	-34.0	-44.6	3.8	8.46e-01	0	42	104	0	29	12145
2026-01-13 11:08:11.71	102.51	22.64	-34.0	-44.5	3.8	8.46e-01	0	42	104	0	29	12084
2026-01-13 11:08:14.73	101.97	22.97	-34.0	-44.5	3.8	8.47e-01	0	43	104	0	29	12110
2026-01-13 11:08:17.75	101.41	23.31	-34.0	-44.5	3.8	8.46e-01	0	43	104	0	29	12111
2026-01-13 11:08:20.77	100.84	23.65	-34.0	-44.6	3.8	8.46e-01	0	43	104	0	29	12168
2026-01-13 11:08:23.79	100.26	23.99	-34.0	-44.6	3.8	8.46e-01	0	43	104	0	29	12138
2026-01-13 11:08:26.81	99.67	24.32	-34.0	-44.6	3.8	8.46e-01	0	42	104	0	29	12148
2026-01-13 11:08:29.83	99.06	24.66	-34.0	-44.5	3.8	8.46e-01	0	43	104	0	29	12106
2026-01-13 11:08:32.85	98.44	25.01	-34.0	-44.5	3.8	8.46e-01	0	42	104	0	29	12113
2026-01-13 11:08:35.87	97.80	25.35	-34.0	-44.6	3.8	8.46e-01	0	42	104	0	29	12161
2026-01-13 11:08:38.89	97.15	25.69	-34.0	-44.6	3.8	8.46e-01	0	43	104	0	29	12152
2026-01-13 11:08:41.90	96.49	26.03	-34.0	-44.6	3.8	8.46e-01	0	43	104	0	29	12172
2026-01-13 11:08:44.92	95.82	26.37	-34.0	-44.6	3.8	8.48e-01	0	42	104	0	29	12166
2026-01-13 11:08:47.94	95.12	26.72	-34.0	-44.6	3.8	8.46e-01	0	42	104	0	29	12160
2026-01-13 11:08:50.95	94.42	27.06	-34.0	-44.5	3.8	8.46e-01	0	43	104	0	29	12140
2026-01-13 11:08:53.97	93.70	27.40	-34.0	-44.6	3.8	8.47e-01	0	42	104	0	29	12136
2026-01-13 11:08:56.98	92.96	27.74	-34.0	-44.6	3.8	8.48e-01	0	43	104	0	29	12148
2026-01-13 11:09:00.01	92.20	28.08	-34.0	-44.5	3.8	8.46e-01	0	43	104	0	29	12121
2026-01-13 11:09:03.02	91.43	28.41	-34.0	-44.6	3.8	8.45e-01	0	43	104	0	29	12170
2026-01-13 11:09:06.04	90.65	28.75	-34.0	-44.6	3.8	8.45e-01	0	43	104	0	29	12152
2026-01-13 11:09:09.06	89.84	29.08	-34.0	-44.5	3.8	8.45e-01	0	43	104	0	29	12139
2026-01-13 11:09:12.06	89.03	29.41	-34.0	-44.6	3.8	8.46e-01	0	43	104	0	29	12186
2026-01-13 11:09:15.08	88.19	29.74	-34.0	-44.6	3.8	8.46e-01	0	43	104	0	29	12181
2026-01-13 11:09:18.10	87.34	30.06	-34.0	-44.5	3.8	8.47e-01	0	43	104	0	29	12124
2026-01-13 11:09:21.12	86.46	30.38	-34.0	-44.5	3.8	8.46e-01	0	43	104	0	29	12118
2026-01-13 11:09:24.14	85.57	30.70	-34.0	-44.6	3.8	8.46e-01	0	43	104	0	29	12164
2026-01-13 11:09:27.16	84.67	31.01	-34.0	-44.5	3.8	8.46e-01	0	43	104	0	29	12100
2026-01-13 11:09:30.18	83.74	31.32	-34.0	-44.6	3.8	8.45e-01	0	43	104	0	29	12176
2026-01-13 11:09:33.19	82.80	31.62	-34.0	-44.5	3.8	8.46e-01	0	43	104	0	29	12125
2026-01-13 11:09:36.22	81.84	31.92	-34.0	-44.5	3.8	8.47e-01	0	43	104	0	29	12105
2026-01-13 11:09:39.23	80.87	32.21	-34.0	-44.5	3.8	8.46e-01	0	43	104	0	29	12101
2026-01-13 11:09:42.25	79.87	32.49	-34.0	-44.5	3.8	8.46e-01	0	42	104	0	29	12115
2026-01-13 11:09:45.28	78.86	32.76	-34.0	-44.6	3.8	8.47e-01	0	43	104	0	29	12146
2026-01-13 11:09:48.29	77.83	33.03	-34.0	-44.6	3.8	8.46e-01	0	43	104	0	29	12171
2026-01-13 11:09:51.30	76.79	33.29	-34.0	-44.6	3.8	8.46e-01	0	43	104	0	29	12149
2026-01-13 11:09:54.32	75.73	33.54	-34.0	-44.6	3.8	8.46e-01	0	43	104	0	29	12148
2026-01-13 11:09:57.34	74.65	33.78	-34.0	-44.6	3.8	8.46e-01	0	43	104	0	29	12169
2026-01-13 11:10:00.36	73.55	34.01	-34.0	-44.5	3.8	8.47e-01	0	43	104	0	29	12117
2026-01-13 11:10:03.37	72.45	34.23	-34.0	-44.5	3.8	8.47e-01	0	43	104	0	29	12138
2026-01-13 11:10:06.39	71.32	34.44	-34.0	-44.5	3.8	8.46e-01	0	43	104	0	29	12149
2026-01-13 11:10:09.41	70.18	34.64	-34.0	-44.5	3.8	8.46e-01	0	43	104	0	29	12137
2026-01-13 11:10:12.44	69.03	34.83	-34.0	-44.6	3.8	8.45e-01	0	43	104	0	29	12152
2026-01-13 11:10:15.46	67.86	35.00	-34.0	-44.6	3.8	8.46e-01	0	43	104	0	29	12134
2026-01-13 11:10:18.47	66.69	35.16	-34.0	-44.5	3.8	8.47e-01	0	43	104	0	29	12132
2026-01-13 11:10:21.50	65.50	35.31	-34.0	-44.6	3.8	8.45e-01	0	43	104	0	29	12129
2026-01-13 11:10:24.51	64.30	35.44	-34.0	-44.5	3.8	8.46e-01	0	43	104	0	29	12143
2026-01-13 11:10:27.53	63.09	35.56	-34.0	-44.5	3.8	8.46e-01	0	43	104	0	29	12126
2026-01-13 11:10:30.54	61.88	35.67	-34.0	-44.5	3.8	8.46e-01	0	43	104	0	29	12123
2026-01-13 11:10:33.55	60.66	35.76	-34.0	-44.6	3.8	8.47e-01	0	43	104	0	29	12162
2026-01-13 11:10:36.57	59.43	35.84	-34.0	-44.5	3.8	8.46e-01	0	43	104	0	29	12072
2026-01-13 11:10:39.57	58.20	35.90	-34.0	-44.6	3.8	8.46e-01	0	43	104	0	29	12129
2026-01-13 11:10:42.58	56.97	35.95	-34.0	-44.5	3.8	8.47e-01	0	43	104	0	29	12118
2026-01-13 11:10:45.61	55.72	35.98	-34.0	-44.5	3.8	8.46e-01	0	43	104	0	29	12142
2026-01-13 11:10:48.63	54.48	36.00	-34.0	-44.5	3.8	8.46e-01	0	43	104	0	29	12122
2026-01-13 11:10:51.65	53.23	36.00	-34.0	-44.6	3.8	8.46e-01	0	43	104	0	29	12138
2026-01-13 11:10:54.67	51.99	35.98	-34.0	-44.5	3.8	8.47e-01	0	43	104	0	29	12117
2026-01-13 11:10:57.68	50.75	35.96	-34.0	-44.6	3.8	8.46e-01	0	43	104	0	29	12154
2026-01-13 11:11:00.71	49.51	35.91	-34.0	-44.6	3.8	8.47e-01	0	43	104	0	29	12141
2026-01-13 11:11:03.72	48.28	35.85	-34.0	-44.6	3.8	8.46e-01	0	43	104	0	29	12144
2026-01-13 11:11:06.75	47.04	35.78	-34.0	-44.6	3.8	8.47e-01	0	43	104	0	29	12150
2026-01-13 11:11:09.77	45.82	35.69	-34.0	-44.5	3.8	8.46e-01	0	43	104	0	29	12118
2026-01-13 11:11:12.79	44.60	35.58	-34.0	-44.6	3.8	8.45e-01	0	43	104	0	29	12168
2026-01-13 11:11:15.81	43.39	35.46	-34.0	-44.6	3.8	8.46e-01	0	43	104	0	29	12173
2026-01-13 11:11:18.83	42.19	35.33	-34.0	-44.5	3.8	8.46e-01	0	43	104	0	29	12102
2026-01-13 11:11:21.85	41.00	35.19	-34.0	-44.5	3.8	8.46e-01	0	43	104	0	29	12117
2026-01-13 11:11:24.88	39.82	35.03	-34.0	-44.6	3.8	8.46e-01	0	43	104	0	29	12165
2026-01-13 11:11:27.91	38.65	34.85	-34.0	-44.6	3.8	8.45e-01	0	43	104	0	29	12134
2026-01-13 11:11:30.94	37.50	34.67	-34.0	-44.5	3.8	8.47e-01	0	43	104	0	29	12090
2026-01-13 11:11:33.95	36.36	34.47	-34.0	-44.6	3.8	8.46e-01	0	43	104	0	29	12147
2026-01-13 11:11:36.98	35.23	34.27	-34.0	-44.6	3.8	8.47e-01	0	43	104	0	29	12158
2026-01-13 11:11:40.00	34.12	34.05	-34.0	-44.6	3.8	8.47e-01	0	43	104	0	29	12143
2026-01-13 11:11:43.01	33.03	33.82	-34.0	-44.5	3.8	8.46e-01	0	43	104	0	29	12112
2026-01-13 11:11:46.03	31.95	33.58	-34.0	-44.6	3.8	8.45e-01	0	43	104	0	29	12161
2026-01-13 11:11:49.06	30.89	33.33	-34.0	-44.6	3.8	8.46e-01	0	43	104	0	29	12154
2026-01-13 11:11:52.08	29.84	33.07	-34.0	-44.5	3.8	8.46e-01	0	43	104	0	29	12112
2026-01-13 11:11:55.09	28.82	32.81	-34.0	-44.5	3.8	8.45e-01	0	43	104	0	29	12103
2026-01-13 11:11:58.11	27.80	32.54	-34.0	-44.6	3.8	8.46e-01	0	43	104	0	29	12164
2026-01-13 11:12:01.13	26.81	32.26	-34.0	-44.6	3.8	8.46e-01	0	43	104	0	29	12160
2026-01-13 11:12:04.14	25.83	31.97	-34.0	-44.6	3.8	8.46e-01	0	42	104	0	29	12141
2026-01-13 11:12:07.15	24.88	31.68	-34.0	-44.5	3.8	8.46e-01	0	43	104	0	29	12138
2026-01-13 11:12:10.17	23.93	31.38	-34.0	-44.6	3.8	8.47e-01	0	43	104	0	29	12169
2026-01-13 11:12:13.18	23.01	31.07	-34.0	-44.5	3.8	8.46e-01	0	43	104	0	29	12117
2026-01-13 11:12:16.20	22.11	30.76	-34.0	-44.6	3.8	8.45e-01	0	43	104	0	29	12147
2026-01-13 11:12:19.22	21.22	30.45	-34.0	-44.6	3.8	8.47e-01	0	43	104	0	29	12156
2026-01-13 11:12:22.24	20.34	30.13	-34.0	-44.6	3.8	8.47e-01	0	43	104	0	29	12172
2026-01-13 11:12:25.26	19.49	29.80	-34.0	-44.5	3.8	8.46e-01	0	43	104	0	29	12131
2026-01-13 11:12:28.28	18.65	29.48	-34.0	-44.5	3.8	8.45e-01	0	43	104	0	29	12140
2026-01-13 11:12:31.29	17.83	29.15	-34.0	-44.5	3.8	8.44e-01	0	43	104	0	29	12128
2026-01-13 11:12:34.31	17.03	28.82	-34.0	-44.6	3.8	8.46e-01	0	43	104	0	29	12129
2026-01-13 11:12:37.34	16.24	28.48	-34.0	-44.6	3.8	8.46e-01	0	43	104	0	29	12138
2026-01-13 11:12:40.35	15.47	28.15	-34.0	-44.6	3.8	8.46e-01	0	43	104	0	29	12143
2026-01-13 11:12:43.37	14.72	27.81	-34.0	-44.6	3.8	8.46e-01	0	43	104	0	29	12175
2026-01-13 11:12:46.38	13.98	27.47	-34.0	-44.5	3.8	8.47e-01	0	43	104	0	29	12128
2026-01-13 11:12:49.41	13.26	27.13	-34.0	-44.5	3.8	8.46e-01	0	43	104	0	29	12126
2026-01-13 11:12:52.43	12.55	26.79	-34.0	-44.5	3.8	8.46e-01	0	43	104	0	29	12114
2026-01-13 11:12:55.45	11.86	26.45	-34.0	-44.5	3.8	8.46e-01	0	43	104	0	29	12139
2026-01-13 11:12:58.47	11.18	26.11	-34.0	-44.5	3.8	8.46e-01	0	43	104	0	29	12112
2026-01-13 11:13:01.49	10.52	25.77	-34.0	-44.6	3.8	8.46e-01	0	43	104	0	29	12160
2026-01-13 11:13:04.51	9.87	25.43	-34.0	-44.5	3.8	8.45e-01	0	43	104	0	29	12108
2026-01-13 11:13:07.54	9.24	25.09	-34.0	-44.6	3.8	8.47e-01	0	43	104	0	29	12154
2026-01-13 11:13:10.56	8.62	24.75	-34.0	-44.5	3.8	8.46e-01	0	43	104	0	29	12121
2026-01-13 11:13:13.58	8.01	24.41	-34.0	-44.5	3.8	8.45e-01	0	43	104	0	29	12118
2026-01-13 11:13:16.60	7.42	24.07	-34.0	-44.5	3.8	8.45e-01	0	43	104	0	29	12122
2026-01-13 11:13:19.62	6.83	23.73	-34.0	-44.6	3.8	8.46e-01	0	43	104	0	29	12142
2026-01-13 11:13:22.64	6.27	23.40	-34.0	-44.6	3.8	8.46e-01	0	43	104	0	29	12154
2026-01-13 11:13:25.66	5.71	23.06	-34.0	-44.6	3.8	8.47e-01	0	43	104	0	29	12155
2026-01-13 11:13:28.69	5.16	22.73	-34.0	-44.6	3.8	8.46e-01	0	43	104	0	29	12160
2026-01-13 11:13:31.70	4.63	22.40	-34.0	-44.5	3.8	8.46e-01	0	43	104	0	29	12120
2026-01-13 11:13:34.72	4.11	22.07	-34.0	-44.6	3.8	8.44e-01	0	43	104	0	29	12141
2026-01-13 11:13:37.74	3.60	21.74	-34.0	-44.5	3.8	8.47e-01	0	43	104	0	29	12136
2026-01-13 11:13:40.76	3.10	21.41	-34.0	-44.5	3.8	8.46e-01	0	43	104	0	29	12109
2026-01-13 11:13:43.79	2.61	21.09	-34.0	-44.5	3.8	8.47e-01	0	43	104	0	29	12131
2026-01-13 11:13:46.81	2.14	20.76	-34.0	-44.5	3.8	8.46e-01	0	43	104	0	29	12127
2026-01-13 11:13:49.83	1.67	20.44	-34.0	-44.5	3.8	8.46e-01	0	43	104	0	29	12110
2026-01-13 11:13:52.86	1.21	20.13	-34.0	-44.5	3.8	8.47e-01	0	43	104	0	29	12120
2026-01-13 11:13:55.87	0.76	19.81	-34.0	-44.5	3.8	8.47e-01	0	43	104	0	29	12120
2026-01-13 11:13:58.88	0.32	19.50	-34.0	-44.6	3.8	8.46e-01	0	43	104	0	29	12145
2026-01-13 11:14:01.89	359.90	19.19	-34.0	-44.6	3.8	8.45e-01	0	43	104	0	29	12160
2026-01-13 11:14:04.91	359.47	18.88	-34.0	-44.6	3.8	8.46e-01	0	43	104	0	29	12135
2026-01-13 11:14:07.93	359.06	18.57	-34.0	-44.6	3.8	8.45e-01	0	43	104	0	29	12149
2026-01-13 11:14:10.95	358.66	18.27	-34.0	-44.6	3.8	8.46e-01	0	43	104	0	29	12166
2026-01-13 11:14:13.97	358.26	17.96	-34.0	-44.6	3.8	8.46e-01	0	43	104	0	29	12155
2026-01-13 11:14:16.99	357.87	17.66	-34.0	-44.5	3.8	8.46e-01	0	43	104	0	29	12128
2026-01-13 11:14:20.01	357.49	17.36	-34.0	-44.6	3.8	8.45e-01	0	43	104	0	29	12169
2026-01-13 11:14:23.03	357.12	17.07	-34.0	-44.6	3.8	8.46e-01	0	43	104	0	29	12171
2026-01-13 11:14:26.04	356.76	16.78	-34.0	-44.6	3.8	8.46e-01	0	43	104	0	29	12162
2026-01-13 11:14:29.05	356.40	16.49	-34.0	-44.6	3.8	8.47e-01	0	43	104	0	29	12137
2026-01-13 11:14:32.08	356.05	16.20	-34.0	-44.6	3.8	8.46e-01	0	43	104	0	29	12124
2026-01-13 11:14:35.10	355.70	15.91	-34.0	-44.5	3.8	8.46e-01	0	43	104	0	29	12119
2026-01-13 11:14:38.11	355.37	15.63	-34.0	-44.6	3.8	8.46e-01	0	43	104	0	29	12171
2026-01-13 11:14:41.13	355.04	15.34	-34.0	-44.6	3.8	8.45e-01	0	43	104	0	29	12144
2026-01-13 11:14:44.15	354.71	15.06	-34.0	-44.6	3.8	8.47e-01	0	43	104	0	29	12184
2026-01-13 11:14:47.16	354.40	14.79	-34.0	-44.6	3.8	8.45e-01	0	43	104	0	29	12136
2026-01-13 11:14:50.18	354.08	14.51	-34.0	-44.5	3.8	8.46e-01	0	43	104	0	29	12120
2026-01-13 11:14:53.21	353.78	14.24	-34.0	-44.6	3.8	8.46e-01	0	43	104	0	29	12134
2026-01-13 11:14:56.23	353.48	13.97	-34.0	-44.6	3.8	8.45e-01	0	43	104	0	29	12168
2026-01-13 11:14:59.25	353.18	13.70	-34.0	-44.6	3.8	8.46e-01	0	43	104	0	29	12174
2026-01-13 11:15:02.26	352.89	13.43	-34.0	-44.6	3.8	8.46e-01	0	43	104	0	29	12164
2026-01-13 11:15:05.28	352.61	13.17	-34.0	-44.6	3.8	8.47e-01	0	43	104	0	29	12148
2026-01-13 11:15:08.31	352.33	12.91	-34.0	-44.6	3.8	8.45e-01	0	43	104	0	29	12203
2026-01-13 11:15:11.33	352.06	12.65	-34.0	-44.6	3.8	8.46e-01	0	43	104	0	29	12150
2026-01-13 11:15:14.34	351.79	12.39	-34.0	-44.6	3.8	8.46e-01	0	43	104	0	29	12176
2026-01-13 11:15:17.37	351.52	12.13	-34.0	-44.6	3.8	8.45e-01	0	43	104	0	29	12126
2026-01-13 11:15:20.39	351.26	11.88	-34.0	-44.6	3.8	8.46e-01	0	43	104	0	29	12148
2026-01-13 11:15:23.41	351.01	11.63	-34.0	-44.6	3.8	8.47e-01	0	43	104	0	29	12134
2026-01-13 11:15:26.43	350.76	11.38	-34.0	-44.6	3.8	8.46e-01	0	43	104	0	29	12148
2026-01-13 11:15:29.45	350.51	11.13	-34.0	-44.6	3.8	8.46e-01	0	43	104	0	29	12175
2026-01-13 11:15:32.47	350.27	10.88	-34.0	-44.6	3.8	8.46e-01	0	43	104	0	29	12149
2026-01-13 11:15:35.49	350.04	10.64	-34.0	-44.5	3.8	8.46e-01	0	43	104	0	29	12103
2026-01-13 11:15:38.51	349.80	10.40	-34.0	-44.6	3.8	8.46e-01	0	43	104	0	29	12178
2026-01-13 11:15:41.53	349.57	10.16	-34.0	-44.6	3.8	8.47e-01	0	43	104	0	29	12135
2026-01-13 11:15:44.55	349.35	9.92	-34.0	-44.6	3.8	8.46e-01	0	43	104	0	29	12169
2026-01-13 11:15:47.58	349.13	9.68	-34.0	-44.6	3.8	8.46e-01	0	43	104	0	29	12185
2026-01-13 11:15:50.60	348.91	9.45	-34.0	-44.6	3.8	8.46e-01	0	43	104	0	29	12155
2026-01-13 11:15:53.62	348.69	9.21	-34.0	-44.6	3.8	8.45e-01	0	43	104	0	29	12126
2026-01-13 11:15:56.64	348.48	8.98	-34.0	-44.6	3.8	8.46e-01	0	43	104	0	29	12139
2026-01-13 11:15:59.66	348.28	8.75	-34.0	-44.6	3.8	8.46e-01	0	43	104	0	29	12174
2026-01-13 11:16:02.67	348.07	8.53	-34.0	-44.6	3.8	8.46e-01	0	43	104	0	29	12162
2026-01-13 11:16:05.70	347.87	8.30	-34.0	-44.6	3.8	8.46e-01	0	43	104	0	29	12142
2026-01-13 11:16:08.71	347.68	8.08	-34.0	-44.6	3.8	8.46e-01	0	43	104	0	29	12168
2026-01-13 11:16:11.74	347.48	7.85	-34.0	-44.6	3.8	8.46e-01	0	43	104	0	29	12172
2026-01-13 11:16:14.75	347.29	7.63	-34.0	-44.5	3.8	8.47e-01	0	43	104	0	29	12116
2026-01-13 11:16:17.77	347.10	7.41	-34.0	-44.6	3.8	8.46e-01	0	43	104	0	29	12131
2026-01-13 11:16:20.79	346.92	7.20	-34.0	-44.6	3.8	8.46e-01	0	43	104	0	29	12190
2026-01-13 11:16:23.81	346.74	6.98	-34.0	-44.6	3.8	8.46e-01	0	43	104	0	29	12126

#Closed at: 2026-01-13 11:16:24
#Recorded file [0 MB]: D:/data/31010_260113_140519.dat