passes_logs/2026/01/13/R2M6_AANII_01/R2M6_AANII_01__20260113_021340_NOAA_20_JPSS-1_rec.log

#Pass ID: 20260113_021340_NOAA 20 (JPSS-1)
#Satellite: NOAA 20 (JPSS-1)
#Configuration: NOAA 20
#almurnet v.1.7.20240730
#Start time: 2026-01-13 02:13:39

#Version: 2.2.20231116
#Station: R2M6_AANII_01
#Location: 30.233357 lon 59.946436 lat
#TLE: 1 43013U 17073A   26012.29914746  .00000087  00000+0  62270-4 0  9997
#TLE: 2 43013  98.7632 313.2670 0001616  43.2193 316.9110 14.19535514422351

#Time	Az	El	Level	Level2	SNR	BER	BlckErr	Temp	State	Recorded	gain1	gain2
2026-01-13 02:13:39.64	10.58	6.94	-32.3	-42.9	4.0	1.46e+00	0	40	0	0	24	12062
2026-01-13 02:13:42.65	10.31	7.14	-32.2	-41.5	5.0	7.01e-01	0	40	0	1048576	24	10405
2026-01-13 02:13:45.67	10.04	7.33	-32.3	-41.5	5.0	7.49e-01	0	40	0	7340032	24	10431
2026-01-13 02:13:48.68	9.76	7.53	-32.3	-41.2	5.2	5.95e-01	0	40	0	12582912	24	10033
2026-01-13 02:13:51.70	9.48	7.72	-32.3	-41.3	5.2	7.32e-01	0	40	0	18874368	24	10170
2026-01-13 02:13:54.72	9.20	7.92	-31.9	-38.9	7.1	1.87e-01	0	40	0	24117248	23	8084
2026-01-13 02:13:57.73	8.91	8.12	-31.3	-36.6	9.3	2.59e-02	0	40	0	29360128	22	6655
2026-01-13 02:14:00.75	8.62	8.32	-31.0	-35.6	10.2	5.47e-03	0	40	0	35651584	22	6114
2026-01-13 02:14:03.77	8.33	8.52	-30.9	-35.8	10.4	4.72e-03	0	40	0	40894464	21	6331
2026-01-13 02:14:06.78	8.03	8.72	-30.9	-35.8	10.3	5.37e-03	0	40	0	46137344	21	6331
2026-01-13 02:14:09.79	7.72	8.92	-31.1	-36.1	9.8	8.83e-03	0	40	0	52428800	22	6347
2026-01-13 02:14:12.79	7.42	9.12	-31.1	-35.8	10.1	6.86e-03	0	41	0	57671680	22	6205
2026-01-13 02:14:15.80	7.11	9.32	-31.2	-36.2	9.8	8.38e-03	0	41	0	63963136	22	6419
2026-01-13 02:14:18.82	6.79	9.53	-31.0	-35.5	10.4	5.13e-03	0	41	0	69206016	22	6059
2026-01-13 02:14:21.83	6.47	9.73	-31.0	-35.5	10.4	4.73e-03	0	41	0	74448896	22	6041
2026-01-13 02:14:24.84	6.14	9.94	-30.8	-34.9	10.9	2.35e-03	0	41	0	80740352	22	5726
2026-01-13 02:14:27.86	5.81	10.14	-30.8	-35.2	11.0	1.88e-03	0	41	0	85983232	21	5998
2026-01-13 02:14:30.88	5.47	10.35	-30.8	-35.3	10.9	2.03e-03	0	41	0	92274688	21	6024
2026-01-13 02:14:33.89	5.13	10.56	-30.7	-35.1	11.1	1.93e-03	0	41	0	97517568	21	5927
2026-01-13 02:14:36.90	4.79	10.77	-30.7	-34.9	11.3	1.63e-03	0	41	0	102760448	21	5833
2026-01-13 02:14:39.91	4.44	10.98	-30.8	-35.3	10.9	1.67e-03	0	41	0	109051904	21	6020
2026-01-13 02:14:42.93	4.08	11.19	-30.8	-35.1	10.3	4.53e-03	0	41	0	114294784	21	5925
2026-01-13 02:14:45.95	3.72	11.40	-30.8	-35.2	11.1	4.58e-03	0	41	0	120586240	21	5967
2026-01-13 02:14:48.95	3.35	11.61	-30.7	-34.9	11.4	9.19e-04	0	41	0	125829120	21	5814
2026-01-13 02:14:51.98	2.98	11.82	-30.6	-34.6	11.6	7.82e-04	0	41	0	131072000	21	5692
2026-01-13 02:14:54.99	2.60	12.03	-30.6	-34.5	11.8	5.64e-04	0	41	0	137363456	21	5621
2026-01-13 02:14:58.00	2.22	12.25	-30.6	-34.5	11.7	4.23e-04	0	41	0	142606336	21	5628
2026-01-13 02:15:01.02	1.83	12.46	-30.5	-34.2	11.9	3.13e-03	0	41	0	147849216	21	5518
2026-01-13 02:15:04.03	1.43	12.67	-30.6	-34.4	11.8	3.15e-03	0	41	0	154140672	21	5571
2026-01-13 02:15:07.05	1.03	12.89	-30.6	-34.5	11.7	2.95e-03	0	41	0	159383552	21	5624
2026-01-13 02:15:10.06	0.62	13.10	-30.4	-34.4	12.2	2.98e-03	0	41	0	165675008	20	5703
2026-01-13 02:15:13.07	0.21	13.32	-30.5	-34.1	12.1	2.95e-03	0	41	0	170917888	21	5447
2026-01-13 02:15:16.09	359.79	13.54	-30.6	-34.4	11.9	2.77e-03	0	42	0	176160768	21	5570
2026-01-13 02:15:19.11	359.36	13.75	-30.6	-34.4	11.9	3.23e-03	0	41	0	182452224	21	5589
2026-01-13 02:15:22.13	358.93	13.97	-30.7	-34.7	11.7	3.47e-03	0	41	0	187695104	21	5722
2026-01-13 02:15:25.14	358.49	14.19	-30.7	-34.8	11.6	3.31e-03	0	42	0	193986560	21	5736
2026-01-13 02:15:28.14	358.05	14.40	-30.6	-34.4	11.9	3.09e-03	0	42	0	199229440	21	5566
2026-01-13 02:15:31.15	357.60	14.62	-30.5	-33.9	12.3	2.84e-03	0	42	0	204472320	21	5371
2026-01-13 02:15:34.16	357.14	14.84	-30.3	-33.9	12.6	9.84e-05	0	42	0	210763776	20	5465
2026-01-13 02:15:37.17	356.67	15.05	-30.4	-34.3	12.4	1.17e-04	0	42	0	216006656	20	5610
2026-01-13 02:15:40.18	356.20	15.27	-30.5	-34.0	12.3	1.88e-04	0	42	0	221249536	21	5386
2026-01-13 02:15:43.20	355.72	15.49	-30.5	-33.9	12.3	1.70e-04	0	42	0	227540992	21	5362
2026-01-13 02:15:46.22	355.23	15.71	-30.5	-34.1	12.2	2.57e-03	0	42	0	232783872	21	5453
2026-01-13 02:15:49.23	354.74	15.92	-30.5	-34.0	12.3	1.21e-03	0	42	0	239075328	21	5405
2026-01-13 02:15:52.24	354.24	16.14	-30.6	-34.3	12.1	2.35e-04	0	42	0	244318208	21	5495
2026-01-13 02:15:55.26	353.73	16.36	-30.7	-34.7	11.8	5.35e-04	0	42	0	249561088	21	5693
2026-01-13 02:15:58.28	353.21	16.57	-30.7	-34.4	12.0	2.85e-04	0	42	0	255852544	21	5566
2026-01-13 02:16:01.29	352.69	16.79	-30.8	-34.8	11.8	5.36e-04	0	42	0	261095424	21	5735
2026-01-13 02:16:04.31	352.15	17.00	-30.8	-34.8	11.8	4.64e-04	0	42	0	267386880	21	5703
2026-01-13 02:16:07.33	351.61	17.22	-30.8	-34.9	11.2	6.58e-04	0	42	0	272629760	21	5780
2026-01-13 02:16:10.35	351.06	17.43	-30.7	-34.6	12.0	1.41e-03	0	42	0	277872640	21	5614
2026-01-13 02:16:13.36	350.51	17.64	-30.7	-34.6	12.0	2.35e-03	0	42	0	284164096	21	5616
2026-01-13 02:16:16.38	349.94	17.86	-30.5	-34.1	12.4	2.13e-04	0	42	0	289406976	21	5415
2026-01-13 02:16:19.40	349.37	18.07	-30.6	-34.3	12.2	1.64e-04	0	42	0	295698432	21	5497
2026-01-13 02:16:22.40	348.79	18.27	-30.5	-33.9	12.5	1.18e-04	0	42	0	300941312	21	5328
2026-01-13 02:16:25.41	348.21	18.48	-30.4	-34.2	12.7	1.01e-04	0	42	0	306184192	20	5547
2026-01-13 02:16:28.44	347.61	18.69	-30.4	-33.8	12.6	1.43e-04	0	42	0	312475648	21	5295
2026-01-13 02:16:31.46	347.00	18.89	-30.3	-33.4	12.9	8.69e-05	0	42	0	317718528	21	5123
2026-01-13 02:16:34.48	346.39	19.10	-30.0	-33.0	13.5	1.39e-03	0	42	0	324009984	20	5090
2026-01-13 02:16:37.50	345.77	19.30	-29.7	-32.5	14.1	2.27e-03	0	42	0	329252864	19	5015
2026-01-13 02:16:40.51	345.14	19.50	-29.7	-32.7	14.0	2.28e-03	0	42	0	334495744	19	5084
2026-01-13 02:16:43.52	344.50	19.70	-29.5	-32.2	14.4	2.16e-03	0	42	0	340787200	19	4895
2026-01-13 02:16:46.54	343.85	19.89	-29.7	-32.6	14.2	7.00e-07	0	42	0	346030080	19	5031
2026-01-13 02:16:49.56	343.20	20.08	-29.3	-32.1	14.8	2.48e-03	0	42	0	352321536	18	4954
2026-01-13 02:16:52.58	342.54	20.27	-29.4	-32.3	14.7	2.23e-03	0	42	0	357564416	18	5020
2026-01-13 02:16:55.60	341.86	20.46	-29.2	-31.9	15.0	2.58e-03	0	42	0	362807296	18	4875
2026-01-13 02:16:58.61	341.18	20.65	-29.1	-31.6	15.1	2.47e-03	0	42	0	369098752	18	4786
2026-01-13 02:17:01.63	340.50	20.83	-28.9	-31.6	15.4	5.44e-04	0	42	0	374341632	17	4914
2026-01-13 02:17:04.65	339.80	21.01	-29.2	-31.8	15.0	0.00e+00	0	42	0	380633088	18	4855
2026-01-13 02:17:07.67	339.09	21.18	-29.3	-31.9	15.0	0.00e+00	0	42	0	385875968	18	4894
2026-01-13 02:17:10.67	338.39	21.35	-29.2	-31.9	15.0	0.00e+00	0	42	0	391118848	18	4874
2026-01-13 02:17:13.69	337.66	21.52	-29.4	-31.9	14.6	0.00e+00	0	42	0	397410304	19	4776
2026-01-13 02:17:16.71	336.93	21.69	-29.2	-31.9	15.0	0.00e+00	0	42	0	402653184	18	4876
2026-01-13 02:17:19.72	336.20	21.85	-29.4	-31.9	14.7	0.00e+00	0	42	0	408944640	19	4782
2026-01-13 02:17:22.74	335.46	22.00	-29.3	-32.1	14.9	0.00e+00	0	42	0	414187520	18	4947
2026-01-13 02:17:25.77	334.70	22.16	-29.1	-31.5	15.2	0.00e+00	0	42	0	419430400	18	4764
2026-01-13 02:17:28.79	333.94	22.30	-29.1	-31.6	15.2	0.00e+00	0	42	0	425721856	18	4769
2026-01-13 02:17:31.81	333.17	22.45	-29.1	-31.5	15.3	0.00e+00	0	42	0	430964736	18	4744
2026-01-13 02:17:34.83	332.40	22.59	-28.8	-31.2	15.7	0.00e+00	0	42	0	437256192	17	4772
2026-01-13 02:17:37.85	331.62	22.72	-28.6	-30.9	15.9	0.00e+00	0	42	0	442499072	17	4657
2026-01-13 02:17:40.86	330.83	22.85	-28.6	-30.9	15.9	0.00e+00	0	42	0	447741952	17	4654
2026-01-13 02:17:43.89	330.04	22.97	-28.6	-30.7	16.0	9.23e-05	0	42	0	454033408	17	4610
2026-01-13 02:17:46.89	329.24	23.09	-28.9	-31.5	15.6	2.36e-05	0	42	0	459276288	17	4852
2026-01-13 02:17:49.91	328.44	23.20	-28.9	-31.6	15.5	1.53e-04	0	42	0	465567744	17	4890
2026-01-13 02:17:52.93	327.62	23.31	-28.8	-31.3	15.6	0.00e+00	0	42	0	470810624	17	4808
2026-01-13 02:17:55.95	326.81	23.41	-29.1	-31.4	15.3	0.00e+00	0	42	0	476053504	18	4717
2026-01-13 02:17:58.96	325.99	23.50	-29.3	-32.1	15.0	1.95e-04	0	42	0	482344960	18	4932
2026-01-13 02:18:01.97	325.16	23.59	-29.9	-33.0	14.1	3.90e-04	0	42	0	487587840	19	5156
2026-01-13 02:18:04.99	324.33	23.67	-29.9	-33.1	13.9	3.87e-04	0	42	0	492830720	19	5190
2026-01-13 02:18:08.00	323.50	23.75	-29.9	-33.1	13.9	4.94e-04	0	42	0	499122176	19	5214
2026-01-13 02:18:11.02	322.66	23.82	-30.0	-32.9	13.7	6.00e-04	0	42	0	504365056	20	5028
2026-01-13 02:18:14.03	321.82	23.88	-30.0	-32.9	13.7	5.62e-04	0	42	0	510656512	20	5008
2026-01-13 02:18:17.04	320.97	23.94	-30.0	-32.8	13.7	5.30e-06	0	42	0	515899392	20	4985
2026-01-13 02:18:20.06	320.12	23.99	-30.0	-33.0	13.7	7.60e-06	0	42	0	521142272	20	5047
2026-01-13 02:18:23.09	319.26	24.03	-30.3	-33.7	13.1	1.14e-03	0	42	0	527433728	20	5347
2026-01-13 02:18:26.10	318.41	24.07	-30.3	-33.8	13.1	1.09e-03	0	42	0	532676608	20	5369
2026-01-13 02:18:29.12	317.56	24.10	-30.1	-33.0	13.6	6.64e-04	0	42	0	538968064	20	5070
2026-01-13 02:18:32.14	316.70	24.12	-30.4	-34.1	12.9	9.23e-04	0	42	0	544210944	20	5488
2026-01-13 02:18:35.16	315.84	24.13	-30.6	-34.1	12.6	8.46e-05	0	42	0	549453824	21	5387
2026-01-13 02:18:38.18	314.98	24.14	-30.4	-34.1	13.0	4.42e-05	0	42	0	555745280	20	5471
2026-01-13 02:18:41.18	314.12	24.14	-29.9	-32.6	13.8	3.80e-06	0	42	0	560988160	20	4929
2026-01-13 02:18:44.19	313.27	24.14	-30.2	-33.4	13.4	8.30e-06	0	42	0	567279616	20	5194
2026-01-13 02:18:47.21	312.41	24.13	-30.2	-33.4	13.3	1.52e-05	0	42	0	572522496	20	5222
2026-01-13 02:18:50.23	311.55	24.11	-29.9	-32.5	13.9	2.20e-06	0	42	0	577765376	20	4891
2026-01-13 02:18:53.25	310.69	24.08	-29.1	-32.1	13.2	4.50e-06	0	42	0	584056832	20	5069
2026-01-13 02:18:56.27	309.83	24.05	-29.6	-32.3	12.7	0.00e+00	0	42	0	589299712	19	4900
2026-01-13 02:18:59.28	308.98	24.01	-29.7	-32.4	14.2	0.00e+00	0	42	0	595591168	19	4950
2026-01-13 02:19:02.30	308.13	23.96	-29.2	-31.7	15.1	0.00e+00	0	42	0	600834048	18	4805
2026-01-13 02:19:05.32	307.28	23.91	-28.8	-31.2	15.7	0.00e+00	0	42	0	606076928	17	4772
2026-01-13 02:19:08.34	306.43	23.85	-28.7	-31.1	15.7	0.00e+00	0	42	0	612368384	17	4747
2026-01-13 02:19:11.35	305.59	23.78	-28.5	-30.6	16.0	2.25e-03	0	42	0	617611264	17	4570
2026-01-13 02:19:14.37	304.75	23.71	-28.6	-30.8	15.9	2.48e-03	0	42	0	623902720	17	4634
2026-01-13 02:19:17.39	303.92	23.63	-28.3	-30.5	16.4	2.29e-03	0	42	0	629145600	16	4669
2026-01-13 02:19:20.40	303.09	23.54	-28.4	-30.9	16.1	2.84e-03	0	42	0	634388480	16	4783
2026-01-13 02:19:23.42	302.26	23.45	-28.5	-30.6	16.0	2.74e-03	0	42	0	640679936	17	4568
2026-01-13 02:19:26.44	301.44	23.35	-28.5	-30.7	15.9	2.41e-03	0	42	0	645922816	17	4616
2026-01-13 02:19:29.45	300.63	23.25	-28.4	-31.0	16.1	2.73e-03	0	42	0	652214272	16	4807
2026-01-13 02:19:32.47	299.82	23.14	-28.8	-31.3	15.6	2.67e-03	0	42	0	657457152	17	4793
2026-01-13 02:19:35.48	299.02	23.02	-29.0	-31.8	15.2	2.50e-03	0	42	0	662700032	17	4965
2026-01-13 02:19:38.49	298.22	22.90	-29.2	-31.8	15.0	2.56e-03	0	42	0	668991488	18	4856
2026-01-13 02:19:41.50	297.43	22.78	-29.3	-32.0	14.8	2.46e-03	0	42	0	674234368	18	4942
2026-01-13 02:19:44.52	296.65	22.64	-29.2	-31.9	14.9	2.37e-03	0	42	0	679477248	18	4899
2026-01-13 02:19:47.53	295.87	22.51	-29.5	-32.5	14.5	0.00e+00	0	42	0	685768704	18	5112
2026-01-13 02:19:50.55	295.10	22.37	-29.9	-33.3	13.6	2.20e-06	0	42	0	691011584	19	5295
2026-01-13 02:19:53.57	294.34	22.22	-29.7	-32.5	14.2	7.00e-07	0	42	0	697303040	19	5001
2026-01-13 02:19:56.58	293.58	22.07	-29.6	-32.4	14.2	1.72e-04	0	42	0	702545920	19	4977
2026-01-13 02:19:59.59	292.83	21.92	-30.0	-33.3	13.6	6.30e-04	0	42	0	707788800	19	5304
2026-01-13 02:20:02.59	292.10	21.76	-30.2	-33.6	13.0	6.40e-05	0	42	0	714080256	20	5328
2026-01-13 02:20:05.60	291.36	21.60	-29.8	-32.5	13.7	6.10e-06	0	42	0	719323136	20	4918
2026-01-13 02:20:08.61	290.64	21.43	-29.9	-33.1	13.7	6.80e-06	0	42	0	725614592	19	5241
2026-01-13 02:20:11.62	289.92	21.26	-30.3	-33.7	12.9	5.56e-05	0	42	0	730857472	20	5358
2026-01-13 02:20:14.63	289.21	21.09	-30.6	-34.2	12.2	1.80e-04	0	42	0	736100352	21	5471
2026-01-13 02:20:17.63	288.51	20.91	-30.6	-34.2	12.2	1.92e-04	0	42	0	742391808	21	5476
2026-01-13 02:20:20.64	287.82	20.73	-30.0	-33.1	13.3	2.67e-05	0	42	0	747634688	20	5126
2026-01-13 02:20:23.66	287.14	20.54	-30.0	-33.1	13.3	1.67e-05	0	42	0	752877568	20	5119
2026-01-13 02:20:26.68	286.46	20.36	-29.8	-32.4	13.7	5.30e-06	0	42	0	759169024	20	4884
2026-01-13 02:20:29.69	285.79	20.17	-29.6	-31.9	14.1	4.50e-06	0	42	0	764411904	20	4709
2026-01-13 02:20:32.72	285.13	19.98	-29.7	-32.1	13.9	2.20e-06	0	42	0	770703360	20	4776
2026-01-13 02:20:35.72	284.48	19.78	-29.9	-33.1	13.7	3.00e-06	0	42	0	775946240	19	5238
2026-01-13 02:20:38.73	283.83	19.59	-29.7	-32.8	13.9	3.80e-06	0	42	0	781189120	19	5108
2026-01-13 02:20:41.75	283.20	19.39	-29.6	-32.5	14.0	3.10e-04	0	42	0	787480576	19	5000
2026-01-13 02:20:44.76	282.57	19.19	-29.8	-32.9	13.8	1.63e-03	0	42	0	792723456	19	5148
2026-01-13 02:20:47.79	281.95	18.98	-29.7	-32.7	13.8	1.93e-03	0	42	0	799014912	19	5100
2026-01-13 02:20:50.81	281.34	18.78	-29.9	-33.2	13.5	1.22e-05	0	42	0	804257792	19	5290
2026-01-13 02:20:53.83	280.73	18.57	-30.0	-33.4	13.4	1.98e-05	0	42	0	809500672	19	5368
2026-01-13 02:20:56.84	280.14	18.36	-30.1	-33.4	12.9	2.45e-03	0	42	0	815792128	20	5279
2026-01-13 02:20:59.86	279.55	18.15	-30.0	-33.1	13.2	3.49e-04	0	42	0	821035008	20	5129
2026-01-13 02:21:02.87	278.98	17.94	-29.8	-32.9	13.7	1.14e-03	0	42	0	827326464	19	5161
2026-01-13 02:21:05.88	278.41	17.73	-29.6	-32.5	13.9	2.35e-03	0	42	0	832569344	19	5035
2026-01-13 02:21:08.89	277.85	17.52	-29.8	-33.0	13.7	2.38e-03	0	42	0	837812224	19	5203
2026-01-13 02:21:11.90	277.29	17.31	-29.8	-33.1	13.6	2.54e-03	0	42	0	844103680	19	5239
2026-01-13 02:21:14.92	276.75	17.09	-29.6	-32.5	13.9	2.20e-06	0	42	0	849346560	19	5040
2026-01-13 02:21:17.94	276.21	16.88	-29.5	-32.4	14.0	3.00e-06	0	42	0	855638016	19	4990
2026-01-13 02:21:20.96	275.67	16.66	-29.6	-32.4	14.0	2.20e-06	0	42	0	860880896	19	4979
2026-01-13 02:21:23.97	275.15	16.44	-29.4	-31.9	14.3	2.46e-03	0	42	0	866123776	19	4823
2026-01-13 02:21:26.99	274.64	16.23	-29.5	-32.2	14.1	2.95e-04	0	42	0	872415232	19	4940
2026-01-13 02:21:30.01	274.13	16.01	-29.6	-32.4	13.9	4.50e-06	0	42	0	877658112	19	5012
2026-01-13 02:21:33.03	273.63	15.79	-29.6	-32.6	13.8	9.90e-06	0	42	0	882900992	19	5069
2026-01-13 02:21:36.04	273.13	15.57	-29.4	-32.5	14.1	7.60e-06	0	42	0	889192448	18	5148
2026-01-13 02:21:39.06	272.65	15.35	-29.1	-31.9	14.6	5.30e-06	0	42	0	894435328	18	4915
2026-01-13 02:21:42.07	272.17	15.14	-29.2	-31.9	14.5	3.00e-06	0	42	0	900726784	18	4922
2026-01-13 02:21:45.09	271.70	14.92	-29.4	-32.6	13.8	5.30e-06	0	42	0	905969664	18	5192
2026-01-13 02:21:48.11	271.23	14.70	-29.4	-32.5	13.5	2.20e-06	0	42	0	911212544	18	5158
2026-01-13 02:21:51.12	270.77	14.48	-29.7	-32.7	13.5	8.30e-06	0	42	0	917504000	19	5136
2026-01-13 02:21:54.14	270.32	14.26	-29.5	-32.3	13.8	1.58e-03	0	42	0	922746880	19	4991
2026-01-13 02:21:57.15	269.88	14.05	-29.6	-32.6	13.6	9.90e-06	0	42	0	929038336	19	5069
2026-01-13 02:22:00.18	269.44	13.83	-29.4	-32.0	14.0	6.10e-06	0	42	0	934281216	19	4866
2026-01-13 02:22:03.20	269.01	13.61	-29.3	-32.3	14.1	2.20e-06	0	42	0	939524096	18	5100
2026-01-13 02:22:06.21	268.58	13.39	-29.4	-32.7	13.8	3.80e-06	0	42	0	945815552	18	5246
2026-01-13 02:22:09.23	268.16	13.18	-29.9	-33.5	13.0	3.20e-05	0	42	0	951058432	19	5450
2026-01-13 02:22:12.25	267.75	12.96	-29.8	-32.7	13.1	3.28e-05	0	42	0	957349888	20	5055
2026-01-13 02:22:15.27	267.34	12.74	-29.7	-32.9	13.4	1.75e-05	0	42	0	962592768	19	5221
2026-01-13 02:22:18.29	266.94	12.53	-29.6	-32.6	13.5	4.95e-05	0	42	0	967835648	19	5104
2026-01-13 02:22:21.30	266.55	12.31	-29.6	-32.6	13.5	1.51e-04	0	42	0	974127104	19	5112
2026-01-13 02:22:24.32	266.16	12.10	-29.8	-33.3	13.1	1.17e-04	0	42	0	979369984	19	5372
2026-01-13 02:22:27.34	265.77	11.89	-29.8	-33.1	13.2	2.05e-05	0	42	0	985661440	19	5303
2026-01-13 02:22:30.35	265.40	11.67	-29.8	-33.2	13.1	3.97e-04	0	42	0	990904320	19	5339
2026-01-13 02:22:33.37	265.02	11.46	-30.0	-33.7	12.7	7.12e-04	0	42	0	996147200	19	5553
2026-01-13 02:22:36.38	264.66	11.25	-30.0	-33.4	12.5	1.79e-03	0	42	0	1002438656	20	5310
2026-01-13 02:22:39.40	264.30	11.04	-30.0	-33.6	12.3	2.32e-03	0	42	0	1007681536	20	5414
2026-01-13 02:22:42.40	263.94	10.83	-30.1	-33.7	12.2	2.68e-04	0	42	0	1013972992	20	5475
2026-01-13 02:22:45.43	263.59	10.62	-30.1	-33.7	12.2	1.91e-04	0	42	0	1019215872	20	5469
2026-01-13 02:22:48.44	263.24	10.41	-30.2	-34.0	11.9	4.37e-04	0	42	0	1024458752	20	5602
2026-01-13 02:22:51.45	262.90	10.20	-30.2	-34.0	11.9	4.64e-04	0	42	0	1030750208	20	5603
2026-01-13 02:22:54.47	262.57	9.99	-30.1	-33.9	12.0	3.27e-04	0	42	0	1035993088	20	5563
2026-01-13 02:22:57.49	262.24	9.79	-30.2	-34.0	11.8	9.02e-04	0	42	0	1041235968	20	5628
2026-01-13 02:23:00.51	261.91	9.58	-30.1	-33.8	12.0	4.53e-04	0	42	0	1047527424	20	5504
2026-01-13 02:23:03.53	261.59	9.38	-30.0	-33.6	12.1	2.35e-04	0	42	0	1052770304	20	5436
2026-01-13 02:23:06.55	261.27	9.17	-29.9	-33.6	12.0	3.75e-04	0	42	0	1059061760	20	5498
2026-01-13 02:23:09.57	260.96	8.97	-29.2	-33.3	11.6	5.58e-04	0	42	0	1064304640	20	5717
2026-01-13 02:23:12.58	260.65	8.77	-30.3	-34.5	10.5	1.16e-03	0	42	0	1069547520	20	5856
2026-01-13 02:23:15.60	260.35	8.57	-30.3	-34.7	11.1	1.48e-03	0	42	0	1075838976	20	5971
2026-01-13 02:23:18.62	260.04	8.36	-30.6	-35.3	10.2	4.34e-03	0	42	0	1081081856	21	6177
2026-01-13 02:23:21.64	259.75	8.16	-30.4	-35.0	10.8	1.09e-02	0	42	0	1087373312	20	6142
2026-01-13 02:23:24.65	259.46	7.97	-30.4	-35.1	10.8	9.63e-03	0	42	0	1092616192	20	6187
2026-01-13 02:23:27.68	259.17	7.77	-30.6	-35.5	10.1	1.24e-02	0	42	0	1097859072	21	6263
2026-01-13 02:23:30.70	258.89	7.57	-30.8	-36.0	9.7	1.70e-02	0	42	0	1104150528	21	6531
2026-01-13 02:23:33.71	258.61	7.37	-30.6	-35.3	10.2	7.03e-03	0	42	0	1109393408	21	6196
2026-01-13 02:23:36.72	258.33	7.18	-30.7	-35.5	10.0	6.12e-03	0	42	0	1115684864	21	6266
2026-01-13 02:23:39.75	258.06	6.98	-33.0	-47.1	3.8	1.49e+00	0	42	104	1118830592	26	18239

#Closed at: 2026-01-13 02:23:40
#Recorded file [1118 MB]: D:/data/31010_260113_051341.dat