passes_logs/2026/01/13/R2M6_AANII_01/R2M6_AANII_01__20260113_082642_SUOMI_NPP_rec.log

#Pass ID: 20260113_082642_SUOMI NPP
#Satellite: SUOMI NPP
#Configuration: NPP
#almurnet v.1.7.20240730
#Start time: 2026-01-13 08:26:43

#Version: 2.2.20231116
#Station: R2M6_AANII_01
#Location: 30.233357 lon 59.946436 lat
#TLE: 1 37849U 11061A   26012.28456845  .00000093  00000+0  65163-4 0  9999
#TLE: 2 37849  98.7807 314.3566 0002508  68.3553 291.7890 14.19524725736322

#Time	Az	El	Level	Level2	SNR	BER	BlckErr	Temp	State	Recorded	gain1	gain2
2026-01-13 08:26:43.64	99.77	7.04	-33.9	-45.6	3.7	1.50e+00	0	40	0	0	29	13801
2026-01-13 08:26:46.65	99.49	7.24	-33.9	-45.6	3.8	1.49e+00	0	40	104	0	29	13812
2026-01-13 08:26:49.68	99.20	7.43	-33.9	-45.6	3.8	1.49e+00	0	40	104	0	29	13794
2026-01-13 08:26:52.69	98.92	7.62	-33.9	-45.6	3.8	1.49e+00	0	40	104	0	29	13767
2026-01-13 08:26:55.70	98.62	7.82	-33.9	-45.6	3.8	1.49e+00	0	40	104	0	29	13827
2026-01-13 08:26:58.72	98.32	8.01	-33.9	-45.6	3.8	1.49e+00	0	40	104	0	29	13784
2026-01-13 08:27:01.74	98.02	8.21	-33.9	-45.6	3.8	1.49e+00	0	40	104	0	29	13812
2026-01-13 08:27:04.76	97.72	8.41	-33.9	-45.6	3.8	1.49e+00	0	40	104	0	29	13805
2026-01-13 08:27:07.78	97.40	8.61	-33.9	-45.6	3.8	1.49e+00	0	40	104	0	29	13816
2026-01-13 08:27:10.81	97.09	8.81	-33.9	-45.6	3.8	1.49e+00	0	40	104	0	29	13788
2026-01-13 08:27:13.82	96.77	9.00	-33.9	-45.6	3.8	1.49e+00	0	40	104	0	29	13791
2026-01-13 08:27:16.84	96.45	9.20	-33.9	-45.6	3.8	1.49e+00	0	41	104	0	29	13795
2026-01-13 08:27:19.86	96.12	9.41	-33.9	-45.6	3.8	1.49e+00	0	41	104	0	29	13807
2026-01-13 08:27:22.88	95.78	9.61	-33.9	-45.6	3.8	1.49e+00	0	41	104	0	29	13774
2026-01-13 08:27:25.90	95.45	9.81	-33.9	-45.6	3.8	1.49e+00	0	41	104	0	29	13801
2026-01-13 08:27:28.92	95.10	10.01	-33.9	-45.6	3.8	1.49e+00	0	41	104	0	29	13814
2026-01-13 08:27:31.93	94.76	10.22	-33.9	-45.6	3.8	1.49e+00	0	41	104	0	29	13807
2026-01-13 08:27:34.95	94.40	10.42	-34.0	-45.6	3.8	1.49e+00	0	41	104	0	29	13765
2026-01-13 08:27:37.97	94.05	10.62	-33.9	-45.6	3.8	1.49e+00	0	41	104	0	29	13846
2026-01-13 08:27:40.99	93.68	10.83	-33.9	-45.6	3.8	1.49e+00	0	41	104	0	29	13803
2026-01-13 08:27:44.02	93.31	11.04	-33.9	-45.6	3.8	1.49e+00	0	41	104	0	29	13785
2026-01-13 08:27:47.03	92.94	11.24	-34.0	-45.6	3.8	1.49e+00	0	41	104	0	29	13823
2026-01-13 08:27:50.05	92.56	11.45	-33.9	-45.6	3.8	1.49e+00	0	41	104	0	29	13798
2026-01-13 08:27:53.06	92.18	11.66	-33.9	-45.6	3.8	1.49e+00	0	41	104	0	29	13802
2026-01-13 08:27:56.08	91.79	11.87	-33.9	-45.6	3.8	1.49e+00	0	41	104	0	29	13826
2026-01-13 08:27:59.10	91.39	12.07	-33.9	-45.6	3.8	1.49e+00	0	41	104	0	29	13795
2026-01-13 08:28:02.12	90.99	12.28	-33.9	-45.6	3.8	1.49e+00	0	41	104	0	29	13807
2026-01-13 08:28:05.14	90.59	12.49	-33.9	-45.6	3.8	1.49e+00	0	41	104	0	29	13825
2026-01-13 08:28:08.17	90.17	12.70	-34.0	-45.7	3.8	1.49e+00	0	41	104	0	29	13842
2026-01-13 08:28:11.18	89.75	12.91	-33.9	-45.6	3.8	1.49e+00	0	41	104	0	29	13803
2026-01-13 08:28:14.20	89.33	13.12	-33.9	-45.6	3.8	1.49e+00	0	42	104	0	29	13826
2026-01-13 08:28:17.22	88.90	13.33	-33.9	-45.6	3.8	1.49e+00	0	42	104	0	29	13809
2026-01-13 08:28:20.24	88.46	13.55	-33.9	-45.6	3.8	1.49e+00	0	41	104	0	29	13811
2026-01-13 08:28:23.26	88.01	13.76	-33.9	-45.6	3.8	1.49e+00	0	41	104	0	29	13764
2026-01-13 08:28:26.29	87.56	13.97	-33.9	-45.6	3.8	1.49e+00	0	41	104	0	29	13819
2026-01-13 08:28:29.32	87.10	14.18	-33.9	-45.6	3.8	1.49e+00	0	41	104	0	29	13839
2026-01-13 08:28:32.33	86.64	14.39	-34.0	-45.6	3.8	1.49e+00	0	41	104	0	29	13779
2026-01-13 08:28:35.35	86.17	14.60	-34.0	-45.6	3.8	1.49e+00	0	42	104	0	29	13814
2026-01-13 08:28:38.37	85.69	14.81	-33.9	-45.6	3.8	1.49e+00	0	42	104	0	29	13830
2026-01-13 08:28:41.40	85.21	15.02	-34.0	-45.6	3.8	1.49e+00	0	42	104	0	29	13824
2026-01-13 08:28:44.43	84.71	15.23	-34.0	-45.6	3.8	1.49e+00	0	42	104	0	29	13799
2026-01-13 08:28:47.46	84.21	15.45	-33.9	-45.6	3.8	1.49e+00	0	42	104	0	29	13868
2026-01-13 08:28:50.48	83.71	15.66	-33.9	-45.7	3.8	1.49e+00	0	42	104	0	29	13859
2026-01-13 08:28:53.50	83.20	15.86	-34.0	-45.6	3.8	1.49e+00	0	42	104	0	29	13753
2026-01-13 08:28:56.51	82.68	16.07	-33.9	-45.6	3.8	1.49e+00	0	42	104	0	29	13823
2026-01-13 08:28:59.53	82.15	16.28	-33.9	-45.6	3.8	1.49e+00	0	42	104	0	29	13806
2026-01-13 08:29:02.54	81.62	16.49	-33.9	-45.6	3.8	1.49e+00	0	42	104	0	29	13783
2026-01-13 08:29:05.56	81.08	16.69	-33.9	-45.6	3.8	1.49e+00	0	42	104	0	29	13816
2026-01-13 08:29:08.58	80.53	16.90	-33.9	-45.6	3.8	1.49e+00	0	42	104	0	29	13781
2026-01-13 08:29:11.59	79.97	17.10	-34.0	-45.6	3.8	1.49e+00	0	42	104	0	29	13792
2026-01-13 08:29:14.60	79.41	17.31	-33.9	-45.6	3.8	1.49e+00	0	42	104	0	29	13829
2026-01-13 08:29:17.62	78.84	17.51	-34.0	-45.6	3.8	1.49e+00	0	42	104	0	29	13832
2026-01-13 08:29:20.64	78.25	17.71	-34.0	-45.6	3.8	1.49e+00	0	42	104	0	29	13796
2026-01-13 08:29:23.66	77.67	17.91	-34.0	-45.6	3.8	1.49e+00	0	42	104	0	29	13816
2026-01-13 08:29:26.68	77.07	18.11	-34.0	-45.6	3.8	1.49e+00	0	42	104	0	29	13789
2026-01-13 08:29:29.70	76.47	18.30	-34.0	-45.6	3.8	1.49e+00	0	42	104	0	29	13831
2026-01-13 08:29:32.72	75.85	18.50	-33.9	-45.6	3.8	1.49e+00	0	42	104	0	29	13812
2026-01-13 08:29:35.74	75.24	18.69	-34.0	-45.6	3.8	1.49e+00	0	42	104	0	29	13827
2026-01-13 08:29:38.76	74.61	18.88	-33.9	-45.6	3.8	1.49e+00	0	42	104	0	29	13757
2026-01-13 08:29:41.78	73.97	19.07	-34.0	-45.6	3.8	1.49e+00	0	42	104	0	29	13820
2026-01-13 08:29:44.81	73.33	19.25	-34.0	-45.6	3.8	1.49e+00	0	42	104	0	29	13833
2026-01-13 08:29:47.82	72.68	19.44	-33.9	-45.6	3.8	1.49e+00	0	42	104	0	29	13824
2026-01-13 08:29:50.83	72.02	19.62	-34.0	-45.6	3.8	1.49e+00	0	42	104	0	29	13814
2026-01-13 08:29:53.85	71.35	19.79	-34.0	-45.7	3.8	1.49e+00	0	42	104	0	29	13867
2026-01-13 08:29:56.88	70.68	19.97	-34.0	-45.6	3.8	1.49e+00	0	42	104	0	29	13832
2026-01-13 08:29:59.91	69.99	20.14	-34.0	-45.7	3.8	1.49e+00	0	42	104	0	29	13837
2026-01-13 08:30:02.91	69.31	20.31	-33.9	-45.7	3.8	1.49e+00	0	42	104	0	29	13848
2026-01-13 08:30:05.92	68.61	20.48	-34.0	-45.6	3.8	1.49e+00	0	42	104	0	29	13803
2026-01-13 08:30:08.94	67.91	20.64	-34.0	-45.7	3.8	1.49e+00	0	42	104	0	29	13824
2026-01-13 08:30:11.97	67.19	20.80	-34.0	-45.7	3.8	1.49e+00	0	42	104	0	29	13846
2026-01-13 08:30:14.98	66.47	20.95	-34.0	-45.6	3.8	1.49e+00	0	42	104	0	29	13808
2026-01-13 08:30:18.00	65.75	21.10	-34.0	-45.6	3.8	1.49e+00	0	42	104	0	29	13781
2026-01-13 08:30:21.03	65.01	21.25	-34.0	-45.6	3.8	1.49e+00	0	42	104	0	29	13787
2026-01-13 08:30:24.04	64.27	21.39	-34.0	-45.7	3.8	1.49e+00	0	42	104	0	29	13832
2026-01-13 08:30:27.07	63.52	21.53	-34.0	-45.7	3.8	1.49e+00	0	42	104	0	29	13850
2026-01-13 08:30:30.09	62.77	21.66	-34.0	-45.7	3.8	1.49e+00	0	42	104	0	29	13841
2026-01-13 08:30:33.10	62.01	21.79	-34.0	-45.7	3.8	1.49e+00	0	42	104	0	29	13851
2026-01-13 08:30:36.11	61.24	21.92	-34.0	-45.7	3.8	1.49e+00	0	42	104	0	29	13810
2026-01-13 08:30:39.13	60.47	22.04	-34.0	-45.7	3.8	1.49e+00	0	42	104	0	29	13868
2026-01-13 08:30:42.15	59.69	22.15	-34.0	-45.7	3.8	1.49e+00	0	42	104	0	29	13845
2026-01-13 08:30:45.17	58.91	22.26	-34.0	-45.7	3.8	1.49e+00	0	42	104	0	29	13851
2026-01-13 08:30:48.20	58.11	22.36	-34.0	-45.6	3.8	1.49e+00	0	42	104	0	29	13781
2026-01-13 08:30:51.22	57.32	22.46	-34.0	-45.6	3.8	1.49e+00	0	42	104	0	29	13798
2026-01-13 08:30:54.23	56.52	22.56	-34.0	-45.7	3.8	1.49e+00	0	42	104	0	29	13817
2026-01-13 08:30:57.25	55.72	22.64	-34.0	-45.7	3.8	1.49e+00	0	42	104	0	29	13822
2026-01-13 08:31:00.27	54.91	22.72	-34.0	-45.7	3.8	1.49e+00	0	42	104	0	29	13858
2026-01-13 08:31:03.29	54.09	22.80	-34.0	-45.7	3.8	1.49e+00	0	42	104	0	29	13849
2026-01-13 08:31:06.31	53.28	22.87	-34.0	-45.7	3.8	1.49e+00	0	42	104	0	29	13841
2026-01-13 08:31:09.33	52.46	22.93	-34.0	-45.7	3.8	1.49e+00	0	42	104	0	29	13850
2026-01-13 08:31:12.35	51.63	22.99	-34.0	-45.7	3.8	1.49e+00	0	42	104	0	29	13855
2026-01-13 08:31:15.38	50.80	23.04	-34.0	-45.7	3.8	1.49e+00	0	42	104	0	29	13863
2026-01-13 08:31:18.39	49.98	23.08	-34.0	-45.7	3.8	1.49e+00	0	42	104	0	29	13834
2026-01-13 08:31:21.40	49.15	23.12	-34.0	-45.7	3.8	1.49e+00	0	42	104	0	29	13832
2026-01-13 08:31:24.43	48.31	23.15	-34.0	-45.6	3.8	1.49e+00	0	42	104	0	29	13823
2026-01-13 08:31:27.45	47.48	23.18	-34.0	-45.7	3.8	1.49e+00	0	42	104	0	29	13845
2026-01-13 08:31:30.48	46.64	23.20	-34.0	-45.7	3.8	1.49e+00	0	42	104	0	29	13824
2026-01-13 08:31:33.50	45.81	23.21	-34.0	-45.7	3.8	1.49e+00	0	42	104	0	29	13854
2026-01-13 08:31:36.48	44.98	23.22	-34.0	-45.6	3.8	1.49e+00	0	42	104	0	29	13806
2026-01-13 08:31:39.50	44.14	23.21	-34.0	-45.7	3.8	1.49e+00	0	42	104	0	29	13870
2026-01-13 08:31:42.52	43.31	23.21	-34.0	-45.7	3.8	1.49e+00	0	42	104	0	29	13831
2026-01-13 08:31:45.54	42.47	23.19	-34.0	-45.7	3.8	1.49e+00	0	42	104	0	29	13849
2026-01-13 08:31:48.56	41.64	23.17	-34.0	-45.7	3.8	1.49e+00	0	42	104	0	29	13825
2026-01-13 08:31:51.57	40.80	23.14	-34.0	-45.7	3.8	1.49e+00	0	42	104	0	29	13830
2026-01-13 08:31:54.58	39.98	23.11	-34.0	-45.7	3.8	1.49e+00	0	42	104	0	29	13821
2026-01-13 08:31:57.60	39.15	23.07	-34.0	-45.7	3.8	1.49e+00	0	42	104	0	29	13850
2026-01-13 08:32:00.62	38.32	23.02	-34.0	-45.7	3.8	1.49e+00	0	42	104	0	29	13866
2026-01-13 08:32:03.64	37.49	22.97	-34.0	-45.7	3.8	1.49e+00	0	42	104	0	29	13863
2026-01-13 08:32:06.67	36.67	22.91	-34.0	-45.7	3.8	1.49e+00	0	42	104	0	29	13882
2026-01-13 08:32:09.68	35.85	22.85	-34.0	-45.7	3.8	1.49e+00	0	42	104	0	29	13848
2026-01-13 08:32:12.70	35.04	22.78	-34.0	-45.7	3.8	1.49e+00	0	42	104	0	29	13834
2026-01-13 08:32:15.72	34.23	22.70	-34.0	-45.7	3.8	1.49e+00	0	42	104	0	29	13830
2026-01-13 08:32:18.73	33.42	22.62	-34.0	-45.7	3.8	1.49e+00	0	42	104	0	29	13829
2026-01-13 08:32:21.75	32.62	22.53	-34.0	-45.7	3.8	1.49e+00	0	42	104	0	29	13842
2026-01-13 08:32:24.77	31.82	22.43	-34.0	-45.7	3.8	1.49e+00	0	42	104	0	29	13865
2026-01-13 08:32:27.79	31.03	22.33	-34.0	-45.6	3.8	1.49e+00	0	42	104	0	29	13818
2026-01-13 08:32:30.81	30.24	22.23	-34.0	-45.7	3.8	1.49e+00	0	42	104	0	29	13873
2026-01-13 08:32:33.82	29.47	22.12	-34.0	-45.7	3.8	1.49e+00	0	42	104	0	29	13827
2026-01-13 08:32:36.83	28.69	22.00	-34.0	-45.7	3.8	1.49e+00	0	42	104	0	29	13842
2026-01-13 08:32:39.85	27.92	21.88	-34.0	-45.7	3.8	1.49e+00	0	42	104	0	29	13870
2026-01-13 08:32:42.86	27.16	21.76	-34.0	-45.7	3.8	1.49e+00	0	42	104	0	29	13834
2026-01-13 08:32:45.89	26.40	21.62	-34.0	-45.7	3.8	1.49e+00	0	42	104	0	29	13851
2026-01-13 08:32:48.90	25.65	21.49	-34.0	-45.7	3.8	1.49e+00	0	42	104	0	29	13895
2026-01-13 08:32:51.93	24.91	21.35	-34.0	-45.7	3.8	1.49e+00	0	42	104	0	29	13849
2026-01-13 08:32:54.94	24.17	21.21	-34.0	-45.7	3.8	1.49e+00	0	42	104	0	29	13824
2026-01-13 08:32:57.97	23.44	21.06	-34.0	-45.7	3.8	1.49e+00	0	42	104	0	29	13881
2026-01-13 08:33:00.98	22.72	20.91	-34.0	-45.6	3.8	1.49e+00	0	42	104	0	29	13789
2026-01-13 08:33:04.01	22.00	20.75	-34.0	-45.7	3.8	1.49e+00	0	42	104	0	29	13827
2026-01-13 08:33:07.03	21.30	20.59	-34.0	-45.7	3.8	1.49e+00	0	42	104	0	29	13864
2026-01-13 08:33:10.06	20.59	20.43	-34.0	-45.7	3.8	1.49e+00	0	42	104	0	29	13871
2026-01-13 08:33:13.09	19.90	20.26	-34.0	-45.7	3.8	1.49e+00	0	42	104	0	29	13838
2026-01-13 08:33:16.11	19.21	20.09	-34.0	-45.7	3.8	1.49e+00	0	42	104	0	29	13869
2026-01-13 08:33:19.13	18.53	19.92	-34.0	-45.7	3.8	1.49e+00	0	42	104	0	29	13823
2026-01-13 08:33:22.16	17.86	19.74	-34.0	-45.7	3.8	1.49e+00	0	42	104	0	29	13841
2026-01-13 08:33:25.19	17.20	19.56	-34.0	-45.7	3.8	1.49e+00	0	42	104	0	29	13858
2026-01-13 08:33:28.20	16.55	19.38	-34.0	-45.6	3.8	1.49e+00	0	42	104	0	29	13813
2026-01-13 08:33:31.21	15.90	19.20	-34.0	-45.7	3.8	1.49e+00	0	42	104	0	29	13856
2026-01-13 08:33:34.24	15.26	19.01	-34.0	-45.7	3.8	1.49e+00	0	42	104	0	29	13829
2026-01-13 08:33:37.26	14.63	18.83	-34.0	-45.6	3.8	1.49e+00	0	42	104	0	29	13820
2026-01-13 08:33:40.27	14.01	18.64	-34.0	-45.7	3.8	1.49e+00	0	42	104	0	29	13838
2026-01-13 08:33:43.29	13.40	18.44	-34.0	-45.7	3.8	1.49e+00	0	42	104	0	29	13844
2026-01-13 08:33:46.31	12.79	18.25	-34.0	-45.7	3.8	1.49e+00	0	42	104	0	29	13871
2026-01-13 08:33:49.34	12.19	18.05	-34.0	-45.7	3.8	1.49e+00	0	42	104	0	29	13830
2026-01-13 08:33:52.36	11.60	17.86	-34.0	-45.7	3.8	1.49e+00	0	42	104	0	29	13844
2026-01-13 08:33:55.37	11.02	17.66	-34.0	-45.7	3.8	1.49e+00	0	42	104	0	29	13822
2026-01-13 08:33:58.40	10.44	17.46	-34.0	-45.7	3.8	1.49e+00	0	42	104	0	29	13835
2026-01-13 08:34:01.41	9.87	17.25	-34.0	-45.7	3.8	1.49e+00	0	42	104	0	29	13868
2026-01-13 08:34:04.44	9.31	17.05	-34.0	-45.7	3.8	1.49e+00	0	42	104	0	29	13864
2026-01-13 08:34:07.45	8.76	16.85	-34.0	-45.7	3.8	1.49e+00	0	42	104	0	29	13832
2026-01-13 08:34:10.48	8.22	16.64	-34.0	-45.7	3.8	1.49e+00	0	43	104	0	29	13861
2026-01-13 08:34:13.49	7.68	16.44	-34.0	-45.7	3.8	1.49e+00	0	42	104	0	29	13825
2026-01-13 08:34:16.52	7.15	16.23	-34.0	-45.7	3.8	1.49e+00	0	42	104	0	29	13821
2026-01-13 08:34:19.55	6.63	16.02	-34.0	-45.7	3.8	1.49e+00	0	42	104	0	29	13828
2026-01-13 08:34:22.56	6.11	15.81	-34.0	-45.7	3.8	1.49e+00	0	42	104	0	29	13842
2026-01-13 08:34:25.58	5.61	15.61	-34.0	-45.6	3.8	1.49e+00	0	42	104	0	29	13793
2026-01-13 08:34:28.60	5.10	15.40	-34.0	-45.7	3.8	1.49e+00	0	42	104	0	29	13835
2026-01-13 08:34:31.62	4.61	15.19	-34.0	-45.7	3.8	1.49e+00	0	42	104	0	29	13860
2026-01-13 08:34:34.63	4.13	14.98	-34.0	-45.7	3.8	1.49e+00	0	42	104	0	29	13852
2026-01-13 08:34:37.66	3.65	14.77	-34.0	-45.7	3.8	1.49e+00	0	42	104	0	29	13851
2026-01-13 08:34:40.68	3.17	14.56	-34.0	-45.7	3.8	1.49e+00	0	42	104	0	29	13839
2026-01-13 08:34:43.69	2.71	14.35	-34.0	-45.7	3.8	1.49e+00	0	42	104	0	29	13831
2026-01-13 08:34:46.71	2.25	14.14	-34.0	-45.7	3.8	1.49e+00	0	42	104	0	29	13859
2026-01-13 08:34:49.73	1.80	13.93	-34.0	-45.7	3.8	1.49e+00	0	42	104	0	29	13839
2026-01-13 08:34:52.75	1.35	13.72	-34.0	-45.7	3.8	1.49e+00	0	42	104	0	29	13853
2026-01-13 08:34:55.75	0.92	13.51	-34.0	-45.7	3.8	1.49e+00	0	42	104	0	29	13828
2026-01-13 08:34:58.77	0.48	13.30	-34.0	-45.7	3.8	1.49e+00	0	42	104	0	29	13827
2026-01-13 08:35:01.79	0.06	13.09	-34.0	-45.7	3.8	1.49e+00	0	42	104	0	29	13896
2026-01-13 08:35:04.81	359.63	12.88	-34.0	-45.7	3.8	1.49e+00	0	42	104	0	29	13839
2026-01-13 08:35:07.84	359.22	12.67	-34.0	-45.6	3.8	1.49e+00	0	43	104	0	29	13820
2026-01-13 08:35:10.86	358.81	12.46	-34.0	-45.7	3.8	1.49e+00	0	42	104	0	29	13845
2026-01-13 08:35:13.86	358.41	12.25	-34.0	-45.7	3.8	1.49e+00	0	42	104	0	29	13826
2026-01-13 08:35:16.88	358.01	12.04	-34.0	-45.7	3.8	1.49e+00	0	42	104	0	29	13858
2026-01-13 08:35:19.90	357.62	11.84	-34.0	-45.6	3.8	1.49e+00	0	42	104	0	29	13797
2026-01-13 08:35:22.92	357.24	11.63	-34.0	-45.7	3.8	1.49e+00	0	42	104	0	29	13850
2026-01-13 08:35:25.92	356.86	11.42	-34.0	-45.7	3.8	1.49e+00	0	43	104	0	29	13826
2026-01-13 08:35:28.95	356.48	11.22	-34.0	-45.6	3.8	1.49e+00	0	42	104	0	29	13811
2026-01-13 08:35:31.97	356.11	11.01	-34.0	-45.7	3.8	1.49e+00	0	42	104	0	29	13859
2026-01-13 08:35:34.99	355.75	10.80	-34.0	-45.7	3.8	1.49e+00	0	42	104	0	29	13845
2026-01-13 08:35:38.00	355.39	10.60	-34.0	-45.7	3.8	1.49e+00	0	42	104	0	29	13837
2026-01-13 08:35:41.03	355.04	10.40	-34.0	-45.6	3.7	1.49e+00	0	42	104	0	29	13816
2026-01-13 08:35:44.06	354.69	10.19	-34.0	-45.6	3.8	1.49e+00	0	42	104	0	29	13803
2026-01-13 08:35:47.08	354.34	9.99	-34.0	-45.7	3.8	1.49e+00	0	42	104	0	29	13839
2026-01-13 08:35:50.10	354.01	9.79	-34.0	-45.7	3.8	1.49e+00	0	42	104	0	29	13849
2026-01-13 08:35:53.13	353.67	9.58	-34.0	-45.7	3.8	1.49e+00	0	42	104	0	29	13843
2026-01-13 08:35:56.13	353.34	9.38	-34.0	-45.7	3.8	1.49e+00	0	42	104	0	29	13893
2026-01-13 08:35:59.16	353.02	9.18	-34.0	-45.7	3.8	1.49e+00	0	42	104	0	29	13824
2026-01-13 08:36:02.18	352.70	8.98	-34.0	-45.7	3.8	1.49e+00	0	43	104	0	29	13849
2026-01-13 08:36:05.19	352.38	8.79	-34.0	-45.7	3.8	1.49e+00	0	42	104	0	29	13835
2026-01-13 08:36:08.20	352.07	8.59	-34.0	-45.7	3.8	1.49e+00	0	42	104	0	29	13837
2026-01-13 08:36:11.22	351.77	8.39	-34.0	-45.7	3.8	1.49e+00	0	42	104	0	29	13849
2026-01-13 08:36:14.24	351.47	8.20	-34.0	-45.7	3.8	1.49e+00	0	42	104	0	29	13874
2026-01-13 08:36:17.25	351.17	8.00	-34.0	-45.7	3.8	1.49e+00	0	42	104	0	29	13839
2026-01-13 08:36:20.28	350.87	7.81	-34.0	-45.7	3.8	1.49e+00	0	42	104	0	29	13884
2026-01-13 08:36:23.30	350.58	7.61	-34.0	-45.7	3.8	1.49e+00	0	43	104	0	29	13884
2026-01-13 08:36:26.32	350.30	7.42	-34.0	-45.7	3.8	1.49e+00	0	42	104	0	29	13816
2026-01-13 08:36:29.34	350.01	7.23	-34.0	-45.7	3.8	1.49e+00	0	42	104	0	29	13829
2026-01-13 08:36:32.37	349.74	7.03	-34.0	-45.7	3.8	1.49e+00	0	42	104	0	29	13888

#Closed at: 2026-01-13 08:36:33
#Recorded file [0 MB]: D:/data/31010_260113_112643.dat