passes_logs/2026/01/13/R2M6_AANII_01/R2M6_AANII_01__20260113_011157_FENGYUN_3D_rec.log

#Pass ID: 20260113_011157_FENGYUN 3D
#Satellite: FENGYUN 3D
#Configuration: FENGYUN 3D
#almurnet v.1.7.20240730
#Start time: 2026-01-13 01:17:50

#Version: 2.2.20231116
#Station: R2M6_AANII_01
#Location: 30.233357 lon 59.946436 lat
#TLE: 1 43010U 17072A   26012.32543542  .00000598  00000+0  30457-3 0  9997
#TLE: 2 43010  98.9935 344.1005 0002233 112.6136 247.5276 14.19696644422876

#Time	Az	El	Level	Level2	SNR	BER	BlckErr	Temp	State	Recorded	gain1	gain2
2026-01-13 01:17:50.21	101.32	32.86	-33.6	-52.6	3.8	7.45e-01	0	42	0	0	28	32335
2026-01-13 01:17:52.21	102.06	32.80	-33.7	-45.0	3.8	8.45e-01	0	42	104	0	27	13256
2026-01-13 01:17:54.21	102.80	32.74	-33.9	-45.2	3.8	8.45e-01	0	42	104	0	27	13351
2026-01-13 01:17:56.22	103.54	32.68	-33.9	-45.4	3.8	8.47e-01	0	42	104	0	27	13498
2026-01-13 01:17:58.21	104.28	32.61	-34.0	-45.5	3.8	8.46e-01	0	42	104	0	27	13550
2026-01-13 01:18:00.22	105.01	32.54	-33.9	-45.4	3.8	8.47e-01	0	42	104	0	27	13491
2026-01-13 01:18:02.21	105.74	32.46	-33.9	-45.4	3.8	8.46e-01	0	42	104	0	27	13529
2026-01-13 01:18:04.22	106.47	32.38	-33.9	-45.4	3.8	8.46e-01	0	42	104	0	27	13532
2026-01-13 01:18:06.23	107.19	32.29	-33.9	-45.4	3.8	8.45e-01	0	42	104	0	27	13537
2026-01-13 01:18:08.24	107.92	32.19	-33.9	-45.4	3.8	8.46e-01	0	42	104	0	27	13488
2026-01-13 01:18:10.26	108.64	32.10	-34.0	-45.5	3.8	8.47e-01	0	42	104	0	27	13590
2026-01-13 01:18:12.25	109.34	31.99	-33.9	-44.9	3.8	8.46e-01	0	42	104	0	28	12726
2026-01-13 01:18:14.27	110.06	31.89	-33.9	-45.4	3.8	8.46e-01	0	42	104	0	27	13490
2026-01-13 01:18:16.27	110.76	31.78	-33.9	-44.9	3.8	8.47e-01	0	42	104	0	28	12797
2026-01-13 01:18:18.27	111.45	31.66	-33.9	-44.8	3.8	8.48e-01	0	42	104	0	28	12664
2026-01-13 01:18:20.28	112.15	31.54	-33.8	-44.6	3.8	8.46e-01	0	42	104	0	28	12466
2026-01-13 01:18:22.27	112.83	31.42	-33.6	-43.7	3.8	8.46e-01	0	42	104	0	28	11505
2026-01-13 01:18:24.27	113.51	31.29	-33.5	-43.2	3.8	8.46e-01	0	42	104	0	28	10973
2026-01-13 01:18:26.28	114.19	31.16	-33.5	-42.7	3.8	8.46e-01	0	43	104	0	28	10440
2026-01-13 01:18:28.29	114.86	31.03	-33.5	-43.2	3.8	8.45e-01	0	42	104	0	28	11019
2026-01-13 01:18:30.28	115.53	30.89	-33.6	-44.3	3.8	8.47e-01	0	42	104	0	28	12314
2026-01-13 01:18:32.27	116.18	30.75	-33.5	-42.9	3.8	8.45e-01	0	42	104	0	28	10635
2026-01-13 01:18:34.26	116.83	30.60	-33.1	-40.0	4.0	8.33e-01	0	42	104	0	27	8047
2026-01-13 01:18:36.26	117.48	30.46	-32.7	-38.6	5.2	7.53e-01	0	42	0	0	26	7098
2026-01-13 01:18:38.26	118.12	30.31	-32.5	-37.7	5.6	7.12e-01	0	42	0	0	26	6549
2026-01-13 01:18:40.26	118.76	30.15	-28.9	-30.4	12.4	6.40e-04	0	42	0	10485760	19	4294
2026-01-13 01:18:42.25	119.38	30.00	-24.7	-25.7	17.6	0.00e+00	0	42	0	22020096	10	4005
2026-01-13 01:18:44.26	120.01	29.83	-25.1	-26.4	17.2	0.00e+00	0	42	0	32505856	10	4178
2026-01-13 01:18:46.27	120.63	29.67	-24.9	-26.1	17.3	5.70e-06	0	42	0	44040192	10	4134
2026-01-13 01:18:48.27	121.24	29.51	-24.8	-25.8	17.5	0.00e+00	0	42	0	55574528	10	4044
2026-01-13 01:18:50.28	121.85	29.34	-24.3	-24.7	18.1	0.00e+00	0	42	0	67108864	10	3774
2026-01-13 01:18:52.27	122.45	29.17	-24.5	-25.1	17.8	1.02e-05	0	42	0	77594624	10	3879
2026-01-13 01:18:54.28	123.05	29.00	-24.0	-24.6	18.3	0.00e+00	0	43	0	89128960	9	3874
2026-01-13 01:18:56.27	123.63	28.82	-23.0	-23.5	19.3	0.00e+00	0	42	0	100663296	7	3822
2026-01-13 01:18:58.27	124.21	28.65	-22.6	-23.2	19.7	0.00e+00	0	42	0	112197632	6	3856
2026-01-13 01:19:00.27	124.79	28.47	-22.9	-23.9	19.4	0.00e+00	0	43	0	122683392	6	4015
2026-01-13 01:19:02.27	125.35	28.29	-22.9	-23.8	19.4	0.00e+00	0	43	0	134217728	6	4011
2026-01-13 01:19:04.26	125.91	28.11	-22.7	-23.4	19.6	0.00e+00	0	42	0	145752064	6	3905
2026-01-13 01:19:06.26	126.47	27.92	-22.7	-23.4	19.6	0.00e+00	0	42	0	157286400	6	3894
2026-01-13 01:19:08.27	127.02	27.74	-22.9	-23.9	19.3	4.57e-05	0	43	0	167772160	6	4020
2026-01-13 01:19:10.29	127.57	27.55	-23.0	-24.1	19.2	1.03e-04	0	43	0	179306496	6	4074
2026-01-13 01:19:12.28	128.10	27.36	-23.1	-24.2	19.2	0.00e+00	0	42	0	190840832	6	4089
2026-01-13 01:19:14.29	128.64	27.17	-23.3	-24.7	18.9	8.81e-05	0	42	0	201326592	6	4215
2026-01-13 01:19:16.29	129.16	26.98	-22.9	-23.9	19.3	1.98e-04	0	42	0	212860928	6	4024
2026-01-13 01:19:18.29	129.68	26.79	-22.9	-23.9	19.3	0.00e+00	0	43	0	224395264	6	4019
2026-01-13 01:19:20.29	130.19	26.59	-23.1	-24.2	19.1	2.35e-04	0	42	0	235929600	6	4097
2026-01-13 01:19:22.28	130.70	26.40	-23.1	-24.2	19.1	2.15e-04	0	42	0	246415360	6	4094
2026-01-13 01:19:24.29	131.20	26.20	-22.9	-23.8	19.3	0.00e+00	0	42	0	257949696	6	4001
2026-01-13 01:19:26.30	131.70	26.01	-22.9	-23.8	19.3	2.63e-04	0	42	0	269484032	6	3996
2026-01-13 01:19:28.32	132.19	25.81	-23.0	-24.0	19.2	0.00e+00	0	43	0	281018368	6	4052
2026-01-13 01:19:30.33	132.68	25.61	-23.3	-24.7	18.8	0.00e+00	0	42	0	292552704	6	4226
2026-01-13 01:19:32.35	133.16	25.41	-23.5	-24.6	18.7	1.53e-04	0	42	0	303038464	7	4088
2026-01-13 01:19:34.36	133.63	25.21	-23.3	-24.3	18.8	1.50e-04	0	42	0	314572800	7	4001
2026-01-13 01:19:36.37	134.10	25.01	-23.5	-24.7	18.6	0.00e+00	0	42	0	326107136	7	4099
2026-01-13 01:19:38.38	134.56	24.81	-23.3	-24.1	18.9	0.00e+00	0	42	0	337641472	7	3967
2026-01-13 01:19:40.39	135.01	24.61	-23.3	-24.3	18.8	0.00e+00	0	42	0	348127232	7	4014
2026-01-13 01:19:42.40	135.47	24.41	-23.2	-24.0	18.9	0.00e+00	0	43	0	359661568	7	3933
2026-01-13 01:19:44.42	135.91	24.21	-23.1	-23.8	19.0	0.00e+00	0	42	0	371195904	7	3888
2026-01-13 01:19:46.44	136.35	24.01	-23.2	-24.4	18.9	0.00e+00	0	42	0	382730240	6	4148
2026-01-13 01:19:48.45	136.79	23.80	-23.2	-24.5	18.9	0.00e+00	0	42	0	394264576	6	4164
2026-01-13 01:19:50.46	137.21	23.60	-23.3	-24.6	18.8	0.00e+00	0	43	0	405798912	6	4198
2026-01-13 01:19:52.47	137.64	23.40	-23.3	-24.8	18.7	0.00e+00	0	42	0	416284672	6	4239
2026-01-13 01:19:54.48	138.06	23.20	-23.5	-25.1	18.6	1.10e-06	0	42	0	427819008	6	4317
2026-01-13 01:19:56.50	138.47	23.00	-23.8	-25.1	18.3	0.00e+00	0	43	0	439353344	7	4226
2026-01-13 01:19:58.51	138.88	22.79	-23.7	-25.0	18.4	0.00e+00	0	42	0	450887680	7	4183
2026-01-13 01:20:00.52	139.28	22.59	-23.7	-24.9	18.3	0.00e+00	0	42	0	462422016	7	4168
2026-01-13 01:20:02.54	139.68	22.39	-23.8	-25.3	18.2	0.00e+00	0	42	0	472907776	7	4267
2026-01-13 01:20:04.55	140.07	22.19	-24.0	-25.6	18.0	0.00e+00	0	42	0	484442112	7	4352
2026-01-13 01:20:06.57	140.46	21.99	-24.0	-25.2	18.0	0.00e+00	0	43	0	495976448	8	4127
2026-01-13 01:20:08.58	140.84	21.79	-24.0	-25.2	17.9	0.00e+00	0	42	0	507510784	8	4126
2026-01-13 01:20:10.60	141.22	21.59	-23.9	-25.0	18.1	0.00e+00	0	42	0	517996544	8	4072
2026-01-13 01:20:12.60	141.59	21.39	-24.0	-25.1	18.0	0.00e+00	0	42	0	529530880	8	4086
2026-01-13 01:20:14.62	141.96	21.19	-23.8	-24.7	18.2	0.00e+00	0	42	0	541065216	8	3988
2026-01-13 01:20:16.63	142.32	20.99	-23.7	-25.0	14.4	0.00e+00	0	42	0	552599552	7	4189
2026-01-13 01:20:18.64	142.68	20.79	-23.8	-25.2	18.0	0.00e+00	0	42	0	564133888	7	4244
2026-01-13 01:20:20.66	143.04	20.59	-23.9	-25.5	18.0	0.00e+00	0	42	0	574619648	7	4325
2026-01-13 01:20:22.67	143.39	20.39	-24.3	-25.8	17.6	0.00e+00	0	42	0	586153984	8	4270
2026-01-13 01:20:24.68	143.74	20.20	-24.3	-25.9	17.5	0.00e+00	0	42	0	597688320	8	4304
2026-01-13 01:20:26.70	144.08	20.00	-24.5	-26.1	17.4	0.00e+00	0	42	0	609222656	8	4362
2026-01-13 01:20:28.71	144.42	19.80	-24.7	-26.1	17.1	9.33e-04	0	42	0	620756992	9	4251
2026-01-13 01:20:30.72	144.75	19.61	-24.7	-26.0	17.1	9.04e-04	0	42	0	632291328	9	4228
2026-01-13 01:20:32.74	145.08	19.41	-24.8	-26.3	17.0	0.00e+00	0	42	0	642777088	9	4297
2026-01-13 01:20:34.74	145.40	19.22	-24.7	-26.1	17.0	0.00e+00	0	42	0	654311424	9	4242
2026-01-13 01:20:36.75	145.72	19.03	-24.8	-26.4	16.9	0.00e+00	0	42	0	665845760	9	4316
2026-01-13 01:20:38.77	146.04	18.83	-25.0	-26.4	16.6	0.00e+00	0	42	0	677380096	10	4215
2026-01-13 01:20:40.78	146.35	18.64	-25.2	-26.9	16.4	1.08e-03	0	42	0	687865856	10	4341
2026-01-13 01:20:42.79	146.66	18.45	-24.9	-26.2	16.7	1.04e-03	0	42	0	699400192	10	4159
2026-01-13 01:20:44.80	146.97	18.26	-25.0	-26.3	16.7	3.40e-06	0	42	0	710934528	10	4177
2026-01-13 01:20:46.81	147.27	18.07	-25.0	-26.4	16.6	1.21e-03	0	42	0	722468864	10	4208
2026-01-13 01:20:48.82	147.57	17.88	-24.9	-26.2	16.7	0.00e+00	0	42	0	734003200	10	4155
2026-01-13 01:20:50.84	147.87	17.69	-25.1	-26.6	16.4	1.10e-06	0	42	0	744488960	10	4266
2026-01-13 01:20:52.85	148.16	17.50	-25.1	-26.6	16.4	0.00e+00	0	42	0	756023296	10	4280
2026-01-13 01:20:54.85	148.44	17.31	-25.1	-26.6	16.4	1.27e-03	0	42	0	767557632	10	4269
2026-01-13 01:20:56.86	148.73	17.13	-25.0	-26.3	16.6	0.00e+00	0	42	0	779091968	10	4189
2026-01-13 01:20:58.88	149.01	16.94	-25.0	-26.3	16.6	1.19e-03	0	42	0	790626304	10	4197
2026-01-13 01:21:00.89	149.29	16.76	-25.0	-26.3	16.6	0.00e+00	0	42	0	801112064	10	4197
2026-01-13 01:21:02.91	149.56	16.57	-24.9	-26.7	16.6	2.20e-06	0	42	0	812646400	9	4419
2026-01-13 01:21:04.92	149.83	16.39	-25.6	-27.1	15.8	0.00e+00	0	42	0	824180736	11	4291
2026-01-13 01:21:06.94	150.10	16.20	-25.6	-27.3	15.7	0.00e+00	0	42	0	835715072	11	4336
2026-01-13 01:21:08.95	150.37	16.02	-25.6	-27.2	15.7	0.00e+00	0	42	0	846200832	11	4316
2026-01-13 01:21:10.96	150.63	15.84	-25.7	-27.3	15.7	0.00e+00	0	42	0	857735168	11	4345
2026-01-13 01:21:12.98	150.89	15.66	-26.1	-27.9	15.0	0.00e+00	0	42	0	869269504	12	4415
2026-01-13 01:21:14.99	151.14	15.48	-26.2	-28.1	14.8	1.10e-06	0	42	0	880803840	12	4476
2026-01-13 01:21:17.00	151.40	15.30	-25.9	-27.4	15.2	0.00e+00	0	42	0	892338176	12	4275
2026-01-13 01:21:19.01	151.65	15.13	-25.9	-27.4	15.2	0.00e+00	0	42	0	902823936	12	4267
2026-01-13 01:21:21.01	151.89	14.95	-25.7	-27.5	15.5	0.00e+00	0	42	0	914358272	11	4401
2026-01-13 01:21:23.02	152.13	14.77	-25.7	-26.9	15.4	0.00e+00	0	42	0	925892608	12	4151
2026-01-13 01:21:25.03	152.38	14.60	-25.4	-26.8	15.8	0.00e+00	0	43	0	937426944	11	4230
2026-01-13 01:21:27.05	152.62	14.42	-25.6	-27.1	15.7	0.00e+00	0	42	0	948961280	11	4315
2026-01-13 01:21:29.06	152.85	14.25	-25.4	-27.3	15.8	0.00e+00	0	42	0	960495616	10	4479
2026-01-13 01:21:31.07	153.08	14.08	-25.5	-27.0	15.7	0.00e+00	0	42	0	970981376	11	4267
2026-01-13 01:21:33.09	153.32	13.90	-25.5	-27.1	15.7	0.00e+00	0	42	0	982515712	11	4294
2026-01-13 01:21:35.10	153.54	13.73	-25.8	-27.7	15.3	0.00e+00	0	42	0	994050048	11	4475
2026-01-13 01:21:37.11	153.77	13.56	-25.5	-27.0	15.5	0.00e+00	0	42	0	1004535808	11	4276
2026-01-13 01:21:39.12	153.99	13.39	-25.7	-27.5	15.5	1.55e-03	0	42	0	1016070144	11	4403
2026-01-13 01:21:41.13	154.21	13.22	-25.7	-27.5	15.4	0.00e+00	0	42	0	1027604480	11	4415
2026-01-13 01:21:43.15	154.43	13.05	-25.9	-27.9	15.2	0.00e+00	0	42	0	1039138816	11	4527
2026-01-13 01:21:45.17	154.65	12.88	-25.8	-27.7	15.3	0.00e+00	0	42	0	1050673152	11	4479
2026-01-13 01:21:47.17	154.86	12.72	-25.9	-28.0	15.1	0.00e+00	0	42	0	1062207488	11	4555
2026-01-13 01:21:49.19	155.07	12.55	-25.9	-28.0	15.2	1.59e-03	0	42	0	1072693248	11	4547
2026-01-13 01:21:51.20	155.28	12.39	-26.0	-27.6	15.0	1.53e-03	0	42	0	1084227584	12	4330
2026-01-13 01:21:53.21	155.49	12.22	-26.1	-27.8	14.9	1.15e-04	0	42	0	1095761920	12	4385
2026-01-13 01:21:55.23	155.69	12.06	-26.1	-27.8	14.9	1.41e-03	0	42	0	1107296256	12	4394
2026-01-13 01:21:57.23	155.90	11.90	-26.1	-27.9	14.9	1.39e-03	0	42	0	1118830592	12	4411
2026-01-13 01:21:59.24	156.10	11.74	-26.2	-28.1	14.7	1.48e-04	0	42	0	1129316352	12	4481
2026-01-13 01:22:01.25	156.29	11.57	-26.1	-27.9	14.8	1.32e-03	0	43	0	1140850688	12	4434
2026-01-13 01:22:03.27	156.49	11.41	-26.1	-28.0	14.8	1.35e-03	0	42	0	1152385024	12	4438
2026-01-13 01:22:05.28	156.68	11.25	-26.1	-27.9	14.8	1.71e-05	0	42	0	1163919360	12	4430
2026-01-13 01:22:07.29	156.88	11.09	-26.2	-28.0	14.7	1.33e-03	0	42	0	1174405120	12	4443
2026-01-13 01:22:09.30	157.07	10.94	-26.1	-27.8	14.8	1.33e-03	0	42	0	1185939456	12	4388
2026-01-13 01:22:11.32	157.26	10.78	-26.2	-28.2	14.7	0.00e+00	0	42	0	1197473792	12	4493
2026-01-13 01:22:13.33	157.44	10.62	-26.2	-28.0	14.7	1.10e-06	0	43	0	1209008128	12	4453
2026-01-13 01:22:15.34	157.63	10.47	-26.2	-28.0	14.7	0.00e+00	0	42	0	1220542464	12	4430
2026-01-13 01:22:17.35	157.81	10.31	-26.2	-28.1	14.7	0.00e+00	0	42	0	1231028224	12	4476
2026-01-13 01:22:19.36	157.99	10.16	-26.3	-28.4	14.4	1.10e-06	0	42	0	1242562560	12	4560
2026-01-13 01:22:21.36	158.17	10.00	-26.6	-28.4	14.1	0.00e+00	0	42	0	1254096896	13	4462
2026-01-13 01:22:23.38	158.34	9.85	-26.6	-28.4	14.1	1.10e-06	0	42	0	1265631232	13	4466
2026-01-13 01:22:25.38	158.52	9.70	-26.6	-28.5	14.1	4.50e-06	0	42	0	1277165568	13	4479
2026-01-13 01:22:27.40	158.69	9.55	-26.6	-28.7	13.9	8.00e-06	0	43	0	1287651328	13	4545
2026-01-13 01:22:29.41	158.86	9.40	-26.3	-27.9	14.4	2.20e-06	0	42	0	1299185664	13	4326
2026-01-13 01:22:31.42	159.03	9.25	-26.2	-28.2	14.5	0.00e+00	0	42	0	1310720000	12	4520
2026-01-13 01:22:33.44	159.20	9.10	-26.3	-28.4	14.4	1.10e-06	0	42	0	1322254336	12	4581
2026-01-13 01:22:35.45	159.37	8.95	-26.3	-28.5	14.3	1.10e-06	0	42	0	1332740096	12	4598
2026-01-13 01:22:37.46	159.53	8.80	-26.3	-28.4	14.3	0.00e+00	0	42	0	1344274432	12	4585
2026-01-13 01:22:39.47	159.70	8.65	-26.4	-28.6	14.2	4.50e-06	0	42	0	1355808768	12	4636
2026-01-13 01:22:41.49	159.86	8.50	-26.4	-28.6	14.2	2.20e-06	0	43	0	1367343104	12	4640
2026-01-13 01:22:43.50	160.02	8.36	-26.6	-28.6	13.9	1.60e-05	0	42	0	1378877440	13	4527
2026-01-13 01:22:45.51	160.18	8.21	-26.6	-28.6	13.9	8.00e-06	0	42	0	1390411776	13	4522
2026-01-13 01:22:47.52	160.34	8.07	-26.6	-28.6	13.8	9.10e-06	0	43	0	1400897536	13	4538
2026-01-13 01:22:49.52	160.49	7.92	-26.7	-28.8	13.7	1.14e-05	0	43	0	1412431872	13	4581
2026-01-13 01:22:51.54	160.65	7.78	-26.8	-29.0	13.6	1.60e-05	0	42	0	1423966208	13	4641
2026-01-13 01:22:53.55	160.80	7.64	-26.7	-28.9	13.7	9.10e-06	0	42	0	1435500544	13	4599
2026-01-13 01:22:55.56	160.95	7.49	-26.9	-29.1	13.5	2.05e-05	0	42	0	1447034880	13	4684
2026-01-13 01:22:57.57	161.10	7.35	-26.8	-29.1	13.3	1.25e-05	0	42	0	1457520640	13	4677
2026-01-13 01:22:59.59	161.25	7.21	-27.0	-29.4	13.3	2.28e-05	0	42	0	1469054976	13	4775
2026-01-13 01:23:01.60	161.40	7.07	-32.3	-42.9	3.8	6.38e-01	0	42	104	1478492160	24	12141
2026-01-13 01:23:03.62	161.54	6.93	-33.2	-44.5	3.8	8.46e-01	0	42	104	1478492160	26	13305

#Closed at: 2026-01-13 01:23:04
#Recorded file [1478 MB]: D:/data/31010_260113_041835.dat