passes_logs/2026/01/13/R2M6_AANII_01/R2M6_AANII_01__20260113_223422_NOAA_20_JPSS-1_rec.log

#Pass ID: 20260113_223422_NOAA 20 (JPSS-1)
#Satellite: NOAA 20 (JPSS-1)
#Configuration: NOAA 20
#almurnet v.1.7.20240730
#Start time: 2026-01-13 22:34:23

#Version: 2.2.20231116
#Station: R2M6_AANII_01
#Location: 30.233357 lon 59.946436 lat
#TLE: 1 43013U 17073A   26013.21545503  .00000073  00000+0  55630-4 0  9998
#TLE: 2 43013  98.7633 314.1737 0001580  41.9966 318.1331 14.19535680422486

#Time	Az	El	Level	Level2	SNR	BER	BlckErr	Temp	State	Recorded	gain1	gain2
2026-01-13 22:34:23.42	31.97	7.08	-31.7	-38.1	5.0	1.21e+00	0	40	0	0	23	7497
2026-01-13 22:34:26.41	32.28	7.26	-32.3	-40.2	6.1	3.22e-01	0	40	0	1048576	24	8988
2026-01-13 22:34:29.42	32.60	7.44	-32.3	-40.0	6.3	2.63e-01	0	40	0	7340032	24	8792
2026-01-13 22:34:32.41	32.92	7.62	-32.0	-38.5	7.4	1.46e-01	0	41	0	12582912	24	7585
2026-01-13 22:34:35.42	33.24	7.80	-31.8	-38.1	8.2	4.60e-02	0	40	0	17825792	23	7378
2026-01-13 22:34:38.43	33.57	7.98	-31.8	-37.4	8.3	6.47e-02	0	41	0	24117248	24	6875
2026-01-13 22:34:41.43	33.90	8.16	-31.3	-35.9	9.9	9.99e-03	0	41	0	29360128	23	6108
2026-01-13 22:34:44.43	34.23	8.34	-31.2	-36.0	10.2	6.41e-03	0	41	0	35651584	22	6261
2026-01-13 22:34:47.44	34.57	8.52	-31.2	-35.8	10.4	4.24e-03	0	41	0	40894464	22	6161
2026-01-13 22:34:50.43	34.91	8.70	-31.2	-36.0	10.3	5.77e-03	0	41	0	46137344	22	6253
2026-01-13 22:34:53.45	35.26	8.89	-31.2	-35.7	10.6	4.63e-03	0	41	0	52428800	22	6070
2026-01-13 22:34:56.46	35.61	9.07	-31.3	-36.1	10.3	6.19e-03	0	41	0	57671680	22	6278
2026-01-13 22:34:59.46	35.97	9.25	-31.1	-35.5	10.7	2.89e-03	0	41	0	62914560	22	5993
2026-01-13 22:35:02.47	36.33	9.44	-31.0	-35.2	11.0	2.33e-03	0	41	0	69206016	22	5824
2026-01-13 22:35:05.47	36.69	9.62	-30.6	-33.9	12.0	4.20e-04	0	41	0	74448896	22	5262
2026-01-13 22:35:08.47	37.06	9.81	-30.6	-33.8	12.1	2.66e-04	0	41	0	79691776	22	5195
2026-01-13 22:35:11.47	37.44	9.99	-30.6	-33.9	12.0	3.22e-04	0	41	0	85983232	22	5231
2026-01-13 22:35:14.47	37.81	10.18	-30.5	-33.5	12.3	1.94e-04	0	41	0	91226112	22	5104
2026-01-13 22:35:17.47	38.20	10.36	-30.6	-33.7	12.2	1.95e-04	0	42	0	97517568	22	5153
2026-01-13 22:35:20.47	38.58	10.55	-30.7	-34.1	11.9	3.45e-04	0	42	0	102760448	22	5325
2026-01-13 22:35:23.49	38.98	10.74	-30.8	-34.3	11.8	4.19e-04	0	41	0	108003328	22	5401
2026-01-13 22:35:26.49	39.37	10.92	-30.6	-33.7	12.2	2.35e-04	0	42	0	114294784	22	5156
2026-01-13 22:35:29.49	39.77	11.11	-30.6	-33.7	12.2	2.75e-04	0	42	0	119537664	22	5162
2026-01-13 22:35:32.49	40.18	11.30	-30.6	-33.7	12.2	2.12e-04	0	42	0	124780544	22	5172
2026-01-13 22:35:35.48	40.59	11.48	-30.8	-34.8	11.8	5.07e-04	0	42	0	131072000	21	5714
2026-01-13 22:35:38.49	41.01	11.67	-30.7	-34.6	11.9	3.65e-04	0	42	0	136314880	21	5649
2026-01-13 22:35:41.50	41.43	11.86	-30.7	-34.6	12.0	3.87e-04	0	42	0	142606336	21	5607
2026-01-13 22:35:44.50	41.86	12.05	-30.6	-34.2	12.4	1.80e-04	0	42	0	147849216	21	5429
2026-01-13 22:35:47.49	42.29	12.23	-30.6	-34.2	12.3	1.47e-04	0	42	0	153092096	21	5472
2026-01-13 22:35:50.49	42.73	12.42	-30.5	-33.9	12.5	1.26e-04	0	42	0	159383552	21	5335
2026-01-13 22:35:53.49	43.17	12.61	-30.7	-34.6	12.1	2.90e-04	0	42	0	164626432	21	5624
2026-01-13 22:35:56.49	43.62	12.79	-30.7	-34.6	12.1	3.21e-04	0	42	0	169869312	21	5604
2026-01-13 22:35:59.50	44.07	12.98	-30.5	-34.0	12.5	1.13e-04	0	42	0	176160768	21	5359
2026-01-13 22:36:02.51	44.53	13.17	-30.7	-34.6	12.1	3.44e-04	0	42	0	181403648	21	5626
2026-01-13 22:36:05.52	45.00	13.36	-30.7	-34.5	12.2	2.87e-04	0	42	0	186646528	21	5558
2026-01-13 22:36:08.53	45.47	13.54	-30.5	-33.9	12.7	8.92e-05	0	42	0	192937984	21	5310
2026-01-13 22:36:11.53	45.95	13.73	-30.5	-33.8	12.7	8.62e-05	0	42	0	198180864	21	5267
2026-01-13 22:36:14.54	46.43	13.92	-30.4	-34.1	12.9	4.04e-05	0	42	0	204472320	20	5493
2026-01-13 22:36:17.55	46.92	14.10	-30.4	-34.1	12.9	4.34e-05	0	42	0	209715200	20	5479
2026-01-13 22:36:20.56	47.42	14.29	-30.6	-34.2	12.5	1.86e-04	0	42	0	214958080	21	5428
2026-01-13 22:36:23.57	47.92	14.47	-30.1	-32.6	13.6	1.06e-05	0	42	0	221249536	21	4823
2026-01-13 22:36:26.58	48.43	14.66	-30.0	-32.9	13.7	3.80e-06	0	42	0	226492416	20	5040
2026-01-13 22:36:29.59	48.95	14.84	-29.9	-32.7	13.8	5.30e-06	0	42	0	232783872	20	4951
2026-01-13 22:36:32.61	49.47	15.02	-29.8	-32.3	14.1	3.00e-06	0	42	0	238026752	20	4798
2026-01-13 22:36:35.61	49.99	15.20	-29.8	-32.4	14.1	4.50e-06	0	42	0	243269632	20	4827
2026-01-13 22:36:38.62	50.53	15.38	-29.9	-33.1	14.0	3.80e-06	0	42	0	249561088	19	5202
2026-01-13 22:36:41.63	51.07	15.56	-29.9	-33.1	14.0	3.00e-06	0	42	0	254803968	19	5192
2026-01-13 22:36:44.65	51.61	15.74	-30.0	-32.8	13.8	6.80e-06	0	42	0	261095424	20	4985
2026-01-13 22:36:47.66	52.17	15.92	-30.0	-32.8	13.9	3.00e-06	0	42	0	266338304	20	4986
2026-01-13 22:36:50.67	52.73	16.10	-30.2	-33.4	13.5	6.10e-06	0	42	0	271581184	20	5180
2026-01-13 22:36:53.68	53.29	16.27	-30.4	-33.8	13.2	2.21e-05	0	42	0	277872640	20	5374
2026-01-13 22:36:56.67	53.86	16.45	-30.0	-32.9	13.8	3.80e-06	0	42	0	283115520	20	5019
2026-01-13 22:36:59.68	54.44	16.62	-30.0	-32.9	13.9	3.00e-06	0	42	0	288358400	20	4996
2026-01-13 22:37:02.69	55.02	16.79	-30.1	-33.0	13.7	6.80e-06	0	42	0	294649856	20	5063
2026-01-13 22:37:05.71	55.61	16.96	-30.2	-33.5	13.5	6.10e-06	0	42	0	299892736	20	5219
2026-01-13 22:37:08.72	56.21	17.13	-30.3	-33.7	13.4	2.36e-05	0	42	0	306184192	20	5285
2026-01-13 22:37:11.72	56.81	17.29	-30.3	-33.6	13.5	1.14e-05	0	42	0	311427072	20	5256
2026-01-13 22:37:14.73	57.42	17.46	-30.4	-34.0	13.2	2.51e-05	0	42	0	316669952	20	5405
2026-01-13 22:37:17.74	58.04	17.62	-30.5	-33.7	13.0	3.58e-05	0	42	0	322961408	21	5213
2026-01-13 22:37:20.73	58.66	17.78	-30.7	-34.1	12.8	5.87e-05	0	43	0	328204288	21	5351
2026-01-13 22:37:23.73	59.29	17.93	-30.9	-34.7	12.4	1.11e-04	0	42	0	333447168	21	5579
2026-01-13 22:37:26.73	59.92	18.09	-30.9	-34.9	12.3	2.26e-04	0	43	0	339738624	21	5691
2026-01-13 22:37:29.74	60.56	18.24	-31.1	-34.9	11.9	3.44e-04	0	42	0	344981504	22	5562
2026-01-13 22:37:32.75	61.21	18.39	-31.0	-34.4	12.3	2.27e-04	0	42	0	351272960	22	5362
2026-01-13 22:37:35.75	61.86	18.53	-31.0	-34.5	12.2	2.43e-04	0	43	0	356515840	22	5392
2026-01-13 22:37:38.75	62.52	18.68	-31.1	-35.0	12.0	2.85e-04	0	42	0	361758720	22	5591
2026-01-13 22:37:41.76	63.19	18.82	-30.9	-34.2	12.5	1.14e-04	0	43	0	368050176	22	5250
2026-01-13 22:37:44.77	63.86	18.96	-30.8	-34.4	12.7	6.63e-05	0	42	0	373293056	21	5470
2026-01-13 22:37:47.78	64.54	19.09	-30.7	-34.1	12.9	6.33e-05	0	43	0	378535936	21	5321
2026-01-13 22:37:50.80	65.23	19.23	-30.6	-34.0	13.0	4.42e-05	0	42	0	384827392	21	5293
2026-01-13 22:37:53.81	65.92	19.36	-30.7	-34.2	12.8	4.57e-05	0	42	0	390070272	21	5368
2026-01-13 22:37:56.82	66.62	19.48	-30.6	-33.8	13.1	3.05e-05	0	43	0	396361728	21	5208
2026-01-13 22:37:59.82	67.32	19.60	-30.7	-34.1	12.9	4.27e-05	0	42	0	401604608	21	5329
2026-01-13 22:38:02.81	68.02	19.72	-30.5	-33.6	13.2	2.21e-05	0	43	0	406847488	21	5148
2026-01-13 22:38:05.82	68.73	19.83	-30.3	-33.5	13.6	3.80e-06	0	42	0	413138944	20	5230
2026-01-13 22:38:08.83	69.45	19.94	-30.5	-33.6	13.2	1.44e-05	0	43	0	418381824	21	5150
2026-01-13 22:38:11.82	70.17	20.05	-30.7	-34.1	12.9	3.66e-05	0	42	0	423624704	21	5339
2026-01-13 22:38:14.83	70.90	20.15	-30.6	-34.0	13.0	3.73e-05	0	42	0	429916160	21	5298
2026-01-13 22:38:17.84	71.63	20.25	-30.4	-33.3	13.4	1.29e-05	0	43	0	435159040	21	5029
2026-01-13 22:38:20.85	72.37	20.34	-30.1	-32.5	13.9	2.20e-06	0	43	0	441450496	21	4751
2026-01-13 22:38:23.86	73.11	20.43	-30.1	-32.6	13.9	6.80e-06	0	43	0	446693376	21	4772
2026-01-13 22:38:26.87	73.86	20.52	-30.2	-32.9	13.7	6.80e-06	0	43	0	451936256	21	4875
2026-01-13 22:38:29.87	74.60	20.60	-30.1	-32.5	14.0	4.50e-06	0	43	0	458227712	21	4732
2026-01-13 22:38:32.88	75.36	20.68	-30.3	-33.0	13.7	7.60e-06	0	42	0	463470592	21	4897
2026-01-13 22:38:35.89	76.12	20.75	-30.7	-34.1	13.0	3.12e-05	0	43	0	468713472	21	5331
2026-01-13 22:38:38.89	76.87	20.81	-30.8	-34.3	12.8	7.40e-05	0	42	0	475004928	21	5403
2026-01-13 22:38:41.89	77.63	20.87	-30.6	-33.8	13.2	2.74e-05	0	43	0	480247808	21	5200
2026-01-13 22:38:44.90	78.40	20.93	-30.6	-33.9	13.1	3.50e-05	0	43	0	486539264	21	5230
2026-01-13 22:38:47.91	79.17	20.98	-30.8	-34.5	12.8	4.65e-05	0	42	0	491782144	21	5470
2026-01-13 22:38:50.92	79.94	21.03	-31.3	-35.3	11.8	3.44e-04	0	43	0	497025024	22	5714
2026-01-13 22:38:53.93	80.72	21.07	-31.1	-34.2	12.2	4.63e-04	0	43	0	503316480	23	5174
2026-01-13 22:38:56.93	81.49	21.11	-31.0	-34.6	12.3	3.22e-04	0	43	0	508559360	22	5433
2026-01-13 22:38:59.93	82.26	21.14	-31.2	-35.0	12.1	3.38e-04	0	43	0	513802240	22	5587
2026-01-13 22:39:02.95	83.05	21.16	-30.9	-34.2	12.6	1.24e-04	0	43	0	520093696	22	5262
2026-01-13 22:39:05.95	83.82	21.18	-30.8	-33.8	12.9	8.85e-05	0	43	0	525336576	22	5090
2026-01-13 22:39:08.96	84.61	21.20	-30.3	-32.6	13.7	3.50e-05	0	43	0	531628032	22	4661
2026-01-13 22:39:11.96	85.38	21.21	-30.1	-32.3	14.1	1.50e-06	0	43	0	536870912	21	4680
2026-01-13 22:39:14.97	86.17	21.21	-30.4	-33.2	13.5	3.00e-06	0	43	0	542113792	21	4995
2026-01-13 22:39:17.98	86.95	21.21	-30.5	-33.7	13.3	1.14e-05	0	43	0	548405248	21	5160
2026-01-13 22:39:20.99	87.73	21.21	-30.7	-34.2	12.9	4.95e-05	0	43	0	553648128	21	5360
2026-01-13 22:39:24.00	88.51	21.20	-30.6	-34.0	13.1	3.05e-05	0	43	0	558891008	21	5286
2026-01-13 22:39:27.01	89.30	21.18	-30.7	-34.0	13.0	1.51e-04	0	43	0	565182464	21	5295
2026-01-13 22:39:30.02	90.08	21.16	-30.6	-33.7	13.2	6.25e-05	0	43	0	570425344	21	5190
2026-01-13 22:39:33.04	90.86	21.13	-30.7	-34.2	12.8	1.19e-04	0	42	0	576716800	21	5381
2026-01-13 22:39:36.04	91.63	21.10	-30.5	-33.7	13.2	2.67e-05	0	43	0	581959680	21	5160
2026-01-13 22:39:39.06	92.41	21.06	-30.4	-33.2	13.6	9.90e-06	0	43	0	587202560	21	4982
2026-01-13 22:39:42.05	93.18	21.02	-30.4	-33.3	13.5	1.37e-05	0	43	0	593494016	21	5020
2026-01-13 22:39:45.06	93.95	20.97	-30.4	-33.3	13.4	1.67e-05	0	43	0	598736896	21	5036
2026-01-13 22:39:48.07	94.72	20.92	-30.1	-32.5	14.0	1.52e-05	0	43	0	603979776	21	4760
2026-01-13 22:39:51.07	95.49	20.86	-30.0	-32.2	14.2	1.50e-06	0	43	0	610271232	21	4634
2026-01-13 22:39:54.07	96.25	20.80	-29.8	-32.1	14.6	1.50e-06	0	43	0	615514112	20	4698
2026-01-13 22:39:57.08	97.01	20.73	-30.1	-33.0	14.0	2.20e-06	0	43	0	621805568	20	5034
2026-01-13 22:40:00.08	97.76	20.66	-30.3	-33.5	13.6	6.80e-06	0	42	0	627048448	20	5203
2026-01-13 22:40:03.09	98.52	20.58	-30.0	-32.7	14.2	1.50e-06	0	43	0	632291328	20	4906
2026-01-13 22:40:06.10	99.27	20.50	-29.9	-32.4	14.3	1.50e-06	0	43	0	638582784	20	4822
2026-01-13 22:40:09.10	100.01	20.41	-29.5	-31.4	14.9	0.00e+00	0	43	0	643825664	20	4499
2026-01-13 22:40:12.11	100.76	20.32	-29.6	-31.7	14.8	1.50e-06	0	43	0	649068544	20	4592
2026-01-13 22:40:15.11	101.49	20.22	-30.2	-33.3	13.8	1.14e-04	0	42	0	655360000	20	5144
2026-01-13 22:40:18.13	102.23	20.12	-30.0	-32.7	14.1	3.00e-06	0	43	0	660602880	20	4909
2026-01-13 22:40:21.14	102.96	20.02	-29.7	-32.1	14.5	1.50e-06	0	43	0	666894336	20	4719
2026-01-13 22:40:24.14	103.68	19.91	-29.4	-31.6	15.1	0.00e+00	0	43	0	672137216	19	4672
2026-01-13 22:40:27.15	104.40	19.80	-29.0	-30.7	15.7	0.00e+00	0	43	0	677380096	19	4373
2026-01-13 22:40:30.15	105.11	19.68	-29.4	-31.6	15.2	1.07e-04	0	43	0	683671552	19	4648
2026-01-13 22:40:33.16	105.82	19.56	-29.3	-31.4	15.2	6.79e-05	0	43	0	688914432	19	4592
2026-01-13 22:40:36.17	106.52	19.44	-29.5	-31.9	15.0	4.42e-05	0	43	0	694157312	19	4745
2026-01-13 22:40:39.18	107.22	19.31	-29.9	-33.1	14.2	4.42e-05	0	43	0	700448768	19	5161
2026-01-13 22:40:42.19	107.91	19.18	-29.6	-32.3	14.7	9.90e-06	0	42	0	705691648	19	4879
2026-01-13 22:40:45.19	108.59	19.05	-29.6	-32.2	14.7	0.00e+00	0	42	0	711983104	19	4841
2026-01-13 22:40:48.19	109.27	18.91	-29.5	-32.0	14.9	1.89e-04	0	43	0	717225984	19	4792
2026-01-13 22:40:51.20	109.94	18.77	-29.9	-33.1	14.2	1.41e-04	0	43	0	722468864	19	5164
2026-01-13 22:40:54.22	110.61	18.63	-30.3	-33.8	13.3	2.90e-04	0	43	0	728760320	20	5332
2026-01-13 22:40:57.22	111.27	18.48	-30.6	-33.9	12.9	2.10e-04	0	43	0	734003200	21	5278
2026-01-13 22:41:00.22	111.93	18.34	-30.5	-33.7	13.1	1.57e-04	0	43	0	739246080	21	5182
2026-01-13 22:41:03.22	112.57	18.18	-30.4	-33.4	13.2	1.75e-05	0	43	0	745537536	21	5091
2026-01-13 22:41:06.22	113.21	18.03	-30.3	-33.1	13.4	2.21e-05	0	43	0	750780416	21	4988
2026-01-13 22:41:09.22	113.85	17.87	-30.3	-33.1	13.4	1.75e-05	0	43	0	757071872	21	4982
2026-01-13 22:41:12.23	114.48	17.72	-30.4	-33.5	13.1	1.83e-05	0	43	0	762314752	21	5136
2026-01-13 22:41:15.24	115.10	17.55	-30.6	-34.0	12.8	6.56e-05	0	43	0	767557632	21	5335
2026-01-13 22:41:18.24	115.72	17.39	-30.7	-34.3	12.6	1.12e-04	0	43	0	773849088	21	5440
2026-01-13 22:41:21.24	116.33	17.23	-30.5	-33.9	12.8	5.56e-05	0	43	0	779091968	21	5305
2026-01-13 22:41:24.24	116.93	17.06	-30.2	-32.9	13.4	1.44e-05	0	43	0	784334848	21	4921
2026-01-13 22:41:27.24	117.53	16.89	-30.2	-33.0	13.3	1.60e-05	0	43	0	790626304	21	4974
2026-01-13 22:41:30.24	118.12	16.72	-30.1	-32.8	13.5	8.30e-06	0	43	0	795869184	21	4863
2026-01-13 22:41:33.25	118.70	16.55	-30.3	-33.3	13.2	8.69e-05	0	42	0	802160640	21	5061
2026-01-13 22:41:36.25	119.28	16.37	-30.8	-34.5	12.3	2.33e-04	0	43	0	807403520	21	5562
2026-01-13 22:41:39.26	119.85	16.20	-30.6	-34.1	12.6	1.29e-04	0	43	0	812646400	21	5366
2026-01-13 22:41:42.27	120.41	16.02	-30.4	-33.5	13.0	4.34e-05	0	43	0	818937856	21	5159
2026-01-13 22:41:45.27	120.97	15.84	-30.4	-33.5	13.0	3.73e-05	0	43	0	824180736	21	5159
2026-01-13 22:41:48.28	121.52	15.67	-30.3	-33.1	13.3	1.75e-05	0	43	0	829423616	21	4975
2026-01-13 22:41:51.28	122.07	15.48	-30.3	-33.0	13.3	1.90e-05	0	42	0	835715072	21	4967
2026-01-13 22:41:54.28	122.61	15.30	-30.5	-33.8	12.8	4.80e-05	0	43	0	840957952	21	5276
2026-01-13 22:41:57.30	123.14	15.12	-30.5	-33.6	12.9	4.88e-05	0	43	0	847249408	21	5201
2026-01-13 22:42:00.30	123.67	14.94	-30.1	-33.3	13.5	1.60e-05	0	43	0	852492288	20	5163
2026-01-13 22:42:03.31	124.19	14.75	-30.1	-33.3	13.4	4.50e-06	0	43	0	857735168	20	5172
2026-01-13 22:42:06.30	124.70	14.57	-30.4	-33.9	12.9	4.80e-05	0	42	0	864026624	20	5420
2026-01-13 22:42:09.30	125.21	14.38	-30.1	-33.2	13.4	5.30e-06	0	43	0	869269504	20	5138
2026-01-13 22:42:12.30	125.71	14.20	-30.2	-33.5	13.2	2.67e-05	0	43	0	874512384	20	5283
2026-01-13 22:42:15.31	126.20	14.01	-30.4	-34.0	12.9	9.30e-05	0	43	0	880803840	20	5456
2026-01-13 22:42:18.32	126.69	13.82	-30.7	-34.4	12.3	2.28e-04	0	43	0	886046720	21	5504
2026-01-13 22:42:21.32	127.18	13.64	-30.5	-33.9	12.6	9.84e-05	0	43	0	891289600	21	5321
2026-01-13 22:42:24.33	127.66	13.45	-30.6	-34.3	12.3	1.39e-04	0	43	0	897581056	21	5490
2026-01-13 22:42:27.33	128.13	13.26	-30.9	-35.3	11.5	6.50e-04	0	42	0	902823936	21	5945
2026-01-13 22:42:30.34	128.59	13.07	-30.7	-34.6	12.0	5.50e-04	0	42	0	909115392	21	5620
2026-01-13 22:42:33.33	129.05	12.88	-30.3	-33.2	12.9	4.88e-05	0	43	0	914358272	21	5066
2026-01-13 22:42:36.33	129.50	12.69	-30.4	-33.5	12.7	8.62e-05	0	43	0	919601152	21	5195
2026-01-13 22:42:39.34	129.95	12.50	-30.7	-34.5	12.0	2.75e-04	0	43	0	925892608	21	5605
2026-01-13 22:42:42.33	130.40	12.32	-30.7	-34.5	12.0	3.20e-04	0	42	0	931135488	21	5625
2026-01-13 22:42:45.33	130.83	12.13	-30.6	-34.3	12.1	3.33e-04	0	43	0	936378368	21	5495
2026-01-13 22:42:48.33	131.27	11.94	-30.7	-34.6	11.9	3.36e-04	0	43	0	942669824	21	5632
2026-01-13 22:42:51.33	131.69	11.75	-30.7	-34.8	11.7	6.08e-04	0	43	0	947912704	21	5761
2026-01-13 22:42:54.33	132.11	11.56	-30.5	-34.2	12.1	3.73e-04	0	43	0	954204160	21	5487
2026-01-13 22:42:57.34	132.53	11.37	-30.5	-34.2	12.1	2.37e-04	0	43	0	959447040	21	5485
2026-01-13 22:43:00.34	132.94	11.18	-30.9	-35.2	11.4	7.04e-04	0	43	0	964689920	21	5917
2026-01-13 22:43:03.34	133.35	10.99	-31.2	-36.1	10.3	4.79e-03	0	43	0	970981376	22	6302
2026-01-13 22:43:06.35	133.75	10.80	-31.2	-36.2	10.2	6.21e-03	0	43	0	976224256	22	6368
2026-01-13 22:43:09.35	134.14	10.61	-31.3	-36.4	9.9	7.32e-03	0	43	0	981467136	22	6508
2026-01-13 22:43:12.36	134.54	10.43	-31.1	-35.7	10.5	4.84e-03	0	43	0	987758592	22	6139
2026-01-13 22:43:15.37	134.92	10.24	-31.2	-36.0	10.2	4.41e-03	0	43	0	993001472	22	6264
2026-01-13 22:43:18.37	135.31	10.05	-31.0	-35.5	10.6	3.76e-03	0	43	0	998244352	22	6015
2026-01-13 22:43:21.38	135.68	9.86	-31.2	-35.9	10.3	6.24e-03	0	43	0	1004535808	22	6247
2026-01-13 22:43:24.38	136.06	9.68	-31.2	-35.8	10.3	5.85e-03	0	43	0	1009778688	22	6177
2026-01-13 22:43:27.39	136.42	9.49	-31.1	-35.8	10.3	5.89e-03	0	43	0	1016070144	22	6173
2026-01-13 22:43:30.40	136.79	9.30	-31.2	-36.1	10.0	7.58e-03	0	43	0	1021313024	22	6369
2026-01-13 22:43:33.41	137.15	9.12	-31.0	-35.8	10.2	7.09e-03	0	43	0	1026555904	22	6199
2026-01-13 22:43:36.41	137.50	8.93	-31.0	-35.4	10.5	3.86e-03	0	43	0	1032847360	22	5976
2026-01-13 22:43:39.39	137.85	8.75	-31.0	-35.4	10.4	3.72e-03	0	43	0	1038090240	22	6011
2026-01-13 22:43:42.40	138.20	8.56	-31.1	-36.0	10.0	7.38e-03	0	43	0	1044381696	22	6317
2026-01-13 22:43:45.41	138.54	8.38	-31.3	-36.8	9.3	1.76e-02	0	43	0	1049624576	22	6755
2026-01-13 22:43:48.41	138.88	8.20	-31.5	-37.4	8.8	3.22e-02	0	43	0	1054867456	22	7156
2026-01-13 22:43:51.40	139.21	8.01	-31.4	-37.3	8.9	3.08e-02	0	43	0	1061158912	22	7052
2026-01-13 22:43:54.41	139.54	7.83	-31.6	-37.3	8.5	4.22e-02	0	43	0	1066401792	23	6988
2026-01-13 22:43:57.40	139.86	7.65	-31.3	-36.6	8.9	2.69e-02	0	43	0	1071644672	23	6616
2026-01-13 22:44:00.39	140.18	7.47	-31.3	-36.8	8.6	3.89e-02	0	43	0	1077936128	23	6809
2026-01-13 22:44:03.38	140.50	7.29	-31.2	-37.5	8.4	3.63e-02	0	43	0	1083179008	22	7411
2026-01-13 22:44:06.39	140.82	7.11	-31.3	-37.9	8.0	4.86e-02	0	43	0	1088421888	22	7697
2026-01-13 22:44:09.38	141.13	6.93	-33.8	-48.1	3.8	1.49e+00	0	43	104	1090519040	27	18819

#Closed at: 2026-01-13 22:44:09
#Recorded file [1090 MB]: D:/data/31010_260114_013425.dat