passes_logs/2026/01/13/R2M6_AANII_01/R2M6_AANII_01__20260113_015253_SUOMI_NPP_rec.log

#Pass ID: 20260113_015253_SUOMI NPP
#Satellite: SUOMI NPP
#Configuration: NPP
#almurnet v.1.7.20240730
#Start time: 2026-01-13 01:52:53

#Version: 2.2.20231116
#Station: R2M6_AANII_01
#Location: 30.233357 lon 59.946436 lat
#TLE: 1 37849U 11061A   26012.28456845  .00000093  00000+0  65163-4 0  9999
#TLE: 2 37849  98.7807 314.3566 0002508  68.3553 291.7890 14.19524725736322

#Time	Az	El	Level	Level2	SNR	BER	BlckErr	Temp	State	Recorded	gain1	gain2
2026-01-13 01:52:53.11	11.95	6.99	-32.0	-39.0	4.3	1.41e+00	0	39	0	0	24	8057
2026-01-13 01:52:56.13	11.74	7.20	-32.1	-39.1	5.3	5.58e-01	0	40	0	1048576	24	8040
2026-01-13 01:52:59.16	11.52	7.42	-32.0	-38.6	5.6	4.79e-01	0	40	0	7340032	24	7618
2026-01-13 01:53:02.17	11.30	7.63	-32.0	-38.1	5.9	3.72e-01	0	40	0	12582912	24	7282
2026-01-13 01:53:05.19	11.08	7.84	-31.4	-35.8	8.3	7.55e-02	0	40	0	18874368	22	6022
2026-01-13 01:53:08.21	10.85	8.06	-30.8	-34.2	10.0	9.76e-03	0	40	0	24117248	21	5334
2026-01-13 01:53:11.23	10.62	8.27	-30.9	-34.6	9.8	8.25e-03	0	40	0	29360128	21	5475
2026-01-13 01:53:14.25	10.38	8.49	-30.9	-34.6	9.7	9.54e-03	0	40	0	35651584	21	5480
2026-01-13 01:53:17.26	10.15	8.71	-31.1	-34.6	9.4	1.70e-02	0	40	0	40894464	22	5403
2026-01-13 01:53:20.27	9.91	8.93	-30.5	-33.2	10.8	3.21e-03	0	40	0	47185920	21	4892
2026-01-13 01:53:23.29	9.66	9.15	-30.3	-33.0	11.4	1.34e-03	0	41	0	52428800	20	4908
2026-01-13 01:53:26.30	9.41	9.37	-30.3	-32.8	11.6	8.95e-04	0	40	0	57671680	20	4816
2026-01-13 01:53:29.32	9.16	9.60	-30.3	-32.9	11.4	1.04e-03	0	41	0	63963136	20	4870
2026-01-13 01:53:32.34	8.90	9.82	-30.4	-32.6	11.4	1.25e-03	0	41	0	69206016	21	4638
2026-01-13 01:53:35.36	8.64	10.05	-30.3	-32.8	11.6	6.64e-04	0	41	0	74448896	20	4831
2026-01-13 01:53:38.37	8.37	10.28	-30.5	-33.4	11.2	1.01e-03	0	41	0	80740352	20	5042
2026-01-13 01:53:41.39	8.10	10.51	-30.3	-32.4	11.5	1.43e-03	0	41	0	85983232	21	4580
2026-01-13 01:53:44.42	7.83	10.75	-30.3	-33.0	11.5	1.17e-03	0	41	0	92274688	20	4865
2026-01-13 01:53:47.44	7.55	10.98	-30.3	-32.7	11.8	7.11e-04	0	41	0	97517568	20	4757
2026-01-13 01:53:50.45	7.26	11.21	-30.4	-33.2	11.4	1.21e-03	0	41	0	102760448	20	4967
2026-01-13 01:53:53.47	6.98	11.45	-30.3	-32.3	11.7	7.35e-04	0	41	0	109051904	21	4541
2026-01-13 01:53:56.48	6.68	11.69	-30.3	-32.7	11.8	6.16e-04	0	41	0	114294784	20	4774
2026-01-13 01:53:59.50	6.38	11.93	-30.2	-32.4	12.0	4.12e-04	0	41	0	120586240	20	4658
2026-01-13 01:54:02.52	6.08	12.17	-30.1	-32.1	12.3	1.75e-04	0	41	0	125829120	20	4537
2026-01-13 01:54:05.52	5.77	12.41	-30.2	-32.6	12.0	5.30e-04	0	41	0	131072000	20	4706
2026-01-13 01:54:08.54	5.46	12.66	-30.1	-32.0	12.4	4.90e-04	0	41	0	137363456	20	4504
2026-01-13 01:54:11.56	5.14	12.90	-30.1	-32.1	12.4	1.48e-04	0	41	0	142606336	20	4525
2026-01-13 01:54:14.56	4.81	13.15	-30.0	-31.8	12.6	7.55e-05	0	41	0	148897792	20	4426
2026-01-13 01:54:17.58	4.48	13.40	-29.9	-31.5	12.8	6.86e-05	0	41	0	154140672	20	4320
2026-01-13 01:54:20.59	4.15	13.65	-29.9	-31.9	12.9	3.89e-05	0	41	0	159383552	19	4524
2026-01-13 01:54:23.60	3.80	13.90	-29.9	-31.9	13.0	3.66e-05	0	41	0	165675008	19	4530
2026-01-13 01:54:26.62	3.46	14.16	-30.0	-31.8	12.6	6.48e-05	0	42	0	170917888	20	4430
2026-01-13 01:54:29.65	3.10	14.42	-28.6	-30.8	12.4	1.08e-04	0	41	0	177209344	19	4634
2026-01-13 01:54:32.66	2.74	14.67	-30.0	-31.8	11.4	6.40e-05	0	41	0	182452224	20	4425
2026-01-13 01:54:35.68	2.37	14.93	-29.9	-31.6	12.7	4.95e-05	0	42	0	187695104	20	4366
2026-01-13 01:54:38.70	1.99	15.19	-30.1	-32.2	12.4	9.07e-05	0	41	0	193986560	20	4546
2026-01-13 01:54:41.72	1.61	15.45	-30.2	-32.4	12.2	1.72e-04	0	42	0	199229440	20	4646
2026-01-13 01:54:44.73	1.22	15.72	-30.3	-32.5	12.1	1.95e-04	0	42	0	205520896	20	4673
2026-01-13 01:54:47.75	0.83	15.98	-29.8	-31.6	13.2	6.40e-05	0	41	0	210763776	19	4434
2026-01-13 01:54:50.77	0.43	16.25	-29.8	-31.5	13.4	2.43e-03	0	42	0	216006656	19	4379
2026-01-13 01:54:53.79	0.01	16.52	-29.8	-31.7	13.3	2.80e-03	0	42	0	222298112	19	4448
2026-01-13 01:54:56.80	359.60	16.79	-30.1	-32.0	12.7	2.84e-03	0	42	0	227540992	20	4466
2026-01-13 01:54:59.82	359.17	17.06	-30.5	-32.6	11.9	2.90e-03	0	42	0	233832448	21	4605
2026-01-13 01:55:02.83	358.74	17.33	-30.4	-32.8	12.1	3.43e-03	0	42	0	239075328	20	4762
2026-01-13 01:55:05.85	358.30	17.60	-30.6	-33.0	11.7	5.33e-04	0	41	0	244318208	21	4728
2026-01-13 01:55:08.88	357.85	17.88	-30.4	-32.4	12.0	3.01e-03	0	42	0	250609664	21	4515
2026-01-13 01:55:11.89	357.39	18.15	-30.4	-32.3	12.2	3.58e-03	0	42	0	255852544	21	4467
2026-01-13 01:55:14.91	356.92	18.43	-30.1	-31.9	12.7	2.90e-03	0	42	0	261095424	20	4447
2026-01-13 01:55:17.93	356.44	18.71	-30.0	-31.6	13.0	2.67e-03	0	42	0	267386880	20	4344
2026-01-13 01:55:20.95	355.96	18.99	-30.2	-32.3	12.6	2.90e-03	0	42	0	272629760	20	4574
2026-01-13 01:55:23.97	355.46	19.27	-30.3	-32.4	12.5	1.12e-03	0	42	0	278921216	20	4598
2026-01-13 01:55:26.98	354.96	19.55	-30.1	-32.0	12.8	4.80e-04	0	42	0	284164096	20	4448
2026-01-13 01:55:29.99	354.45	19.83	-30.0	-31.5	13.1	3.28e-05	0	42	0	289406976	20	4310
2026-01-13 01:55:33.01	353.93	20.11	-30.3	-32.4	12.5	9.07e-05	0	42	0	295698432	20	4591
2026-01-13 01:55:36.02	353.40	20.40	-30.5	-32.5	12.1	1.75e-04	0	42	0	300941312	21	4543
2026-01-13 01:55:39.03	352.85	20.68	-30.3	-32.5	12.5	2.42e-03	0	42	0	307232768	20	4623
2026-01-13 01:55:42.04	352.30	20.96	-30.0	-31.6	13.0	2.50e-04	0	42	0	312475648	20	4336
2026-01-13 01:55:45.05	351.74	21.25	-29.8	-31.6	13.4	1.88e-04	0	42	0	317718528	19	4427
2026-01-13 01:55:48.08	351.16	21.53	-30.2	-32.2	12.6	7.78e-05	0	42	0	324009984	20	4536
2026-01-13 01:55:51.10	350.58	21.82	-29.8	-31.6	13.5	1.44e-05	0	42	0	329252864	19	4400
2026-01-13 01:55:54.12	349.98	22.10	-29.8	-31.6	12.8	1.14e-05	0	42	0	335544320	19	4393
2026-01-13 01:55:57.14	349.38	22.39	-30.2	-32.0	12.2	3.81e-05	0	42	0	340787200	20	4429
2026-01-13 01:56:00.15	348.76	22.67	-30.1	-31.8	12.9	4.27e-05	0	42	0	346030080	20	4394
2026-01-13 01:56:03.16	348.13	22.95	-29.8	-31.3	13.7	9.85e-04	0	42	0	352321536	19	4312
2026-01-13 01:56:06.18	347.49	23.24	-30.1	-31.7	13.0	1.36e-04	0	42	0	357564416	20	4358
2026-01-13 01:56:09.19	346.84	23.52	-30.3	-32.0	12.6	1.52e-04	0	42	0	363855872	21	4342
2026-01-13 01:56:12.20	346.17	23.80	-30.2	-32.1	12.7	6.71e-05	0	42	0	369098752	20	4496
2026-01-13 01:56:15.21	345.50	24.08	-29.9	-31.3	13.3	1.37e-05	0	42	0	374341632	20	4208
2026-01-13 01:56:18.22	344.81	24.35	-30.4	-32.7	12.5	7.40e-05	0	42	0	380633088	20	4670
2026-01-13 01:56:21.23	344.11	24.63	-30.3	-32.3	12.7	2.62e-03	0	42	0	385875968	20	4554
2026-01-13 01:56:24.25	343.39	24.90	-30.0	-31.6	13.2	2.54e-03	0	42	0	391118848	20	4300
2026-01-13 01:56:27.27	342.66	25.18	-29.9	-31.3	13.4	2.48e-03	0	42	0	397410304	20	4223
2026-01-13 01:56:30.28	341.92	25.45	-29.9	-31.8	13.5	2.65e-03	0	42	0	402653184	19	4449
2026-01-13 01:56:33.29	341.17	25.71	-29.2	-30.4	14.7	2.70e-03	0	42	0	408944640	18	4134
2026-01-13 01:56:36.30	340.41	25.98	-29.2	-30.5	14.6	1.87e-03	0	42	0	414187520	18	4160
2026-01-13 01:56:39.32	339.63	26.24	-29.8	-31.6	13.5	2.38e-03	0	42	0	419430400	19	4419
2026-01-13 01:56:42.34	338.84	26.50	-30.0	-31.5	13.2	3.59e-03	0	42	0	425721856	20	4306
2026-01-13 01:56:45.36	338.03	26.75	-29.8	-31.5	13.6	3.47e-03	0	42	0	430964736	19	4384
2026-01-13 01:56:48.37	337.21	27.00	-30.1	-31.7	13.0	3.65e-03	0	42	0	437256192	20	4362
2026-01-13 01:56:51.39	336.38	27.25	-29.9	-31.4	13.3	3.02e-03	0	42	0	442499072	20	4250
2026-01-13 01:56:54.41	335.54	27.49	-29.9	-31.6	13.6	1.13e-03	0	42	0	447741952	19	4404
2026-01-13 01:56:57.43	334.68	27.73	-30.0	-31.6	13.1	1.15e-03	0	42	0	454033408	20	4327
2026-01-13 01:57:00.43	333.81	27.96	-30.1	-31.9	13.0	3.66e-05	0	42	0	459276288	20	4427
2026-01-13 01:57:03.43	332.94	28.18	-30.6	-32.9	12.0	1.86e-04	0	42	0	465567744	21	4668
2026-01-13 01:57:06.45	332.04	28.40	-31.4	-34.7	10.4	3.23e-03	0	42	0	470810624	22	5277
2026-01-13 01:57:09.47	331.13	28.61	-30.7	-33.0	12.0	3.78e-04	0	42	0	476053504	21	4696
2026-01-13 01:57:12.49	330.21	28.82	-30.2	-32.0	13.0	6.48e-05	0	42	0	482344960	20	4438
2026-01-13 01:57:15.49	329.29	29.02	-30.7	-33.1	11.9	3.18e-04	0	42	0	487587840	21	4723
2026-01-13 01:57:18.51	328.34	29.21	-30.4	-32.2	12.5	1.81e-04	0	42	0	493879296	21	4419
2026-01-13 01:57:21.53	327.39	29.40	-30.4	-32.1	12.5	1.90e-04	0	42	0	499122176	21	4412
2026-01-13 01:57:24.54	326.43	29.58	-30.6	-32.8	11.7	3.50e-04	0	42	0	504365056	21	4654
2026-01-13 01:57:27.55	325.45	29.75	-30.1	-31.9	12.8	3.35e-05	0	42	0	510656512	20	4426
2026-01-13 01:57:30.57	324.47	29.91	-29.8	-31.6	13.6	4.50e-06	0	42	0	515899392	19	4394
2026-01-13 01:57:33.59	323.47	30.06	-30.2	-32.1	12.9	2.85e-04	0	42	0	522190848	20	4465
2026-01-13 01:57:36.61	322.47	30.20	-29.7	-30.8	13.7	1.67e-05	0	42	0	527433728	20	4096
2026-01-13 01:57:39.61	321.46	30.34	-29.4	-30.5	14.3	0.00e+00	0	42	0	532676608	19	4062
2026-01-13 01:57:42.63	320.43	30.46	-29.6	-31.0	13.9	9.10e-06	0	42	0	538968064	19	4231
2026-01-13 01:57:45.64	319.41	30.58	-29.9	-31.8	13.5	6.10e-06	0	42	0	544210944	19	4445
2026-01-13 01:57:48.66	318.37	30.68	-30.8	-33.5	11.6	4.38e-04	0	42	0	549453824	21	4899
2026-01-13 01:57:51.67	317.33	30.77	-31.6	-35.0	9.7	1.25e-02	0	42	0	555745280	23	5359
2026-01-13 01:57:54.69	316.28	30.86	-31.0	-33.5	11.3	1.67e-03	0	42	0	560988160	22	4779
2026-01-13 01:57:57.72	315.22	30.93	-31.0	-33.4	11.4	1.94e-03	0	42	0	567279616	22	4738
2026-01-13 01:58:00.73	314.17	30.99	-30.2	-32.2	12.8	2.91e-04	0	42	0	572522496	20	4514
2026-01-13 01:58:03.75	313.10	31.05	-30.0	-31.6	13.2	1.96e-04	0	42	0	577765376	20	4327
2026-01-13 01:58:06.78	312.03	31.09	-30.6	-32.6	12.2	1.79e-04	0	42	0	584056832	21	4568
2026-01-13 01:58:09.79	310.97	31.11	-30.6	-32.9	12.0	3.74e-04	0	42	0	589299712	21	4666
2026-01-13 01:58:12.81	309.90	31.13	-30.8	-33.5	11.5	1.36e-03	0	42	0	595591168	21	4905
2026-01-13 01:58:15.81	308.83	31.14	-29.9	-31.4	13.3	3.46e-04	0	42	0	600834048	20	4242
2026-01-13 01:58:18.83	307.76	31.13	-30.3	-32.4	12.7	3.24e-04	0	42	0	606076928	20	4567
2026-01-13 01:58:21.85	306.69	31.12	-30.9	-33.6	11.4	1.11e-03	0	42	0	612368384	21	4943
2026-01-13 01:58:24.85	305.63	31.09	-30.4	-32.1	12.6	2.27e-04	0	42	0	617611264	21	4369
2026-01-13 01:58:27.88	304.56	31.05	-29.7	-30.7	13.8	2.20e-06	0	42	0	623902720	20	4047
2026-01-13 01:58:30.90	303.49	31.00	-30.1	-31.8	13.2	1.29e-05	0	42	0	629145600	20	4370
2026-01-13 01:58:33.92	302.43	30.94	-30.9	-33.6	11.6	7.54e-04	0	42	0	634388480	21	4905
2026-01-13 01:58:36.93	301.38	30.87	-30.8	-33.4	11.7	1.64e-04	0	42	0	640679936	21	4808
2026-01-13 01:58:39.95	300.33	30.79	-30.6	-32.6	12.3	1.91e-04	0	42	0	645922816	21	4551
2026-01-13 01:58:42.97	299.28	30.70	-30.5	-32.5	12.3	1.59e-04	0	42	0	652214272	21	4502
2026-01-13 01:58:45.99	298.24	30.60	-30.3	-32.4	12.7	8.69e-05	0	42	0	657457152	20	4586
2026-01-13 01:58:49.01	297.21	30.48	-30.6	-32.9	11.9	3.85e-04	0	42	0	662700032	21	4683
2026-01-13 01:58:52.04	296.18	30.36	-29.7	-31.2	13.8	7.60e-06	0	42	0	668991488	19	4265
2026-01-13 01:58:55.06	295.16	30.23	-29.5	-31.1	14.2	0.00e+00	0	42	0	674234368	18	4345
2026-01-13 01:58:58.08	294.15	30.09	-29.8	-31.6	13.5	1.29e-05	0	42	0	680525824	19	4386
2026-01-13 01:59:01.08	293.16	29.94	-30.2	-32.0	12.9	3.58e-05	0	42	0	685768704	20	4452
2026-01-13 01:59:04.09	292.17	29.78	-30.1	-31.9	12.9	2.25e-03	0	42	0	691011584	20	4429
2026-01-13 01:59:07.12	291.19	29.61	-30.3	-32.3	12.7	2.73e-03	0	42	0	697303040	20	4545
2026-01-13 01:59:10.13	290.22	29.43	-30.1	-31.9	12.9	2.69e-03	0	42	0	702545920	20	4407
2026-01-13 01:59:13.14	289.27	29.25	-30.2	-32.0	12.9	2.68e-03	0	42	0	708837376	20	4447
2026-01-13 01:59:16.15	288.32	29.06	-30.5	-32.6	12.3	1.14e-04	0	42	0	714080256	21	4535
2026-01-13 01:59:19.16	287.39	28.86	-30.4	-32.6	12.5	2.67e-03	0	42	0	719323136	20	4644
2026-01-13 01:59:22.18	286.46	28.65	-31.1	-33.8	11.0	3.32e-03	0	42	0	725614592	22	4891
2026-01-13 01:59:25.20	285.55	28.44	-31.3	-34.4	10.6	5.91e-03	0	42	0	730857472	22	5182
2026-01-13 01:59:28.22	284.65	28.22	-31.5	-34.7	9.9	1.21e-02	0	42	0	737148928	23	5187
2026-01-13 01:59:31.23	283.77	27.99	-31.4	-34.9	10.1	8.71e-03	0	42	0	742391808	22	5365
2026-01-13 01:59:34.24	282.89	27.76	-30.9	-33.4	11.1	2.63e-03	0	42	0	747634688	22	4802
2026-01-13 01:59:37.27	282.03	27.53	-29.9	-30.9	13.2	2.74e-05	0	42	0	753926144	21	4022
2026-01-13 01:59:40.28	281.18	27.28	-29.8	-30.9	13.5	1.06e-05	0	42	0	759169024	20	4112
2026-01-13 01:59:43.30	280.35	27.04	-29.8	-31.5	13.5	6.80e-06	0	42	0	764411904	19	4378
2026-01-13 01:59:46.31	279.52	26.79	-30.3	-32.6	12.5	2.55e-03	0	42	0	770703360	20	4642
2026-01-13 01:59:49.33	278.71	26.53	-30.8	-33.6	11.3	4.99e-03	0	42	0	775946240	21	4955
2026-01-13 01:59:52.35	277.92	26.28	-30.3	-32.4	12.5	3.20e-03	0	42	0	782237696	20	4614
2026-01-13 01:59:55.37	277.13	26.01	-31.1	-33.8	10.9	3.17e-03	0	42	0	787480576	22	4937
2026-01-13 01:59:58.38	276.36	25.75	-30.9	-33.3	11.2	2.77e-03	0	42	0	792723456	22	4750
2026-01-13 02:00:01.39	275.61	25.48	-29.9	-31.2	13.3	3.20e-05	0	42	0	799014912	20	4197
2026-01-13 02:00:04.41	274.86	25.21	-29.9	-31.3	13.3	2.36e-05	0	42	0	804257792	20	4225
2026-01-13 02:00:07.42	274.13	24.94	-29.0	-30.0	14.7	1.50e-06	0	42	0	810549248	18	4016
2026-01-13 02:00:10.43	273.41	24.67	-29.1	-30.1	14.8	7.00e-07	0	42	0	815792128	18	4040
2026-01-13 02:00:13.44	272.71	24.39	-29.0	-29.9	14.8	0.00e+00	0	42	0	821035008	18	4004
2026-01-13 02:00:16.45	272.01	24.11	-28.2	-28.6	15.8	0.00e+00	0	42	0	827326464	17	3750
2026-01-13 02:00:19.48	271.33	23.83	-28.4	-29.1	15.5	0.00e+00	0	42	0	832569344	17	3868
2026-01-13 02:00:22.50	270.66	23.55	-29.1	-30.1	14.6	7.00e-07	0	42	0	838860800	18	4074
2026-01-13 02:00:25.52	270.00	23.26	-29.1	-30.3	14.2	7.00e-07	0	42	0	844103680	18	4115
2026-01-13 02:00:28.53	269.35	22.98	-29.2	-30.4	14.3	1.50e-06	0	42	0	849346560	18	4137
2026-01-13 02:00:31.55	268.72	22.70	-29.2	-30.6	14.3	7.00e-07	0	42	0	855638016	18	4196
2026-01-13 02:00:34.56	268.10	22.41	-28.5	-29.4	15.3	2.27e-03	0	42	0	860880896	17	3950
2026-01-13 02:00:37.57	267.49	22.13	-27.8	-28.7	16.2	3.09e-03	0	42	0	867172352	15	3957
2026-01-13 02:00:40.58	266.89	21.84	-28.2	-28.9	15.9	3.64e-03	0	42	0	872415232	16	3923
2026-01-13 02:00:43.60	266.30	21.56	-28.7	-29.6	15.1	4.09e-03	0	42	0	877658112	17	4025
2026-01-13 02:00:46.60	265.72	21.27	-28.5	-29.3	15.4	0.00e+00	0	42	0	883949568	17	3932
2026-01-13 02:00:49.62	265.15	20.99	-28.7	-29.8	15.0	2.85e-03	0	42	0	889192448	17	4075
2026-01-13 02:00:52.64	264.60	20.70	-28.6	-29.5	15.2	2.59e-03	0	42	0	894435328	17	4000
2026-01-13 02:00:55.64	264.05	20.42	-28.8	-30.0	14.9	2.22e-03	0	42	0	900726784	17	4120
2026-01-13 02:00:58.66	263.52	20.13	-28.6	-29.5	15.2	2.94e-04	0	42	0	905969664	17	3975
2026-01-13 02:01:01.68	262.99	19.85	-28.5	-29.3	15.3	2.16e-03	0	42	0	912261120	17	3924
2026-01-13 02:01:04.70	262.47	19.57	-28.4	-29.6	15.4	2.02e-03	0	42	0	917504000	16	4109
2026-01-13 02:01:07.70	261.97	19.29	-29.3	-30.8	14.1	3.44e-04	0	42	0	922746880	18	4271
2026-01-13 02:01:10.72	261.47	19.01	-29.5	-30.8	13.7	3.37e-04	0	42	0	929038336	19	4178
2026-01-13 02:01:13.74	260.98	18.72	-28.9	-30.2	14.7	0.00e+00	0	42	0	934281216	17	4188
2026-01-13 02:01:16.75	260.50	18.45	-28.5	-29.2	15.3	2.22e-03	0	42	0	940572672	17	3917
2026-01-13 02:01:19.78	260.03	18.17	-28.6	-29.6	15.1	2.44e-03	0	42	0	945815552	17	4029
2026-01-13 02:01:22.79	259.57	17.89	-29.5	-30.8	13.7	2.21e-03	0	42	0	951058432	19	4202
2026-01-13 02:01:25.81	259.11	17.61	-29.9	-31.4	12.9	6.63e-05	0	42	0	957349888	20	4304
2026-01-13 02:01:28.83	258.66	17.34	-29.9	-32.0	12.9	3.87e-04	0	42	0	962592768	19	4560
2026-01-13 02:01:31.84	258.23	17.07	-30.0	-31.7	12.7	5.11e-05	0	42	0	968884224	20	4401
2026-01-13 02:01:34.85	257.80	16.80	-29.7	-31.5	13.3	1.67e-05	0	42	0	974127104	19	4396
2026-01-13 02:01:37.87	257.38	16.52	-30.1	-32.2	12.4	1.41e-04	0	42	0	979369984	20	4552
2026-01-13 02:01:40.89	256.96	16.26	-30.3	-32.7	11.9	3.39e-04	0	42	0	985661440	20	4752
2026-01-13 02:01:43.92	256.55	15.99	-30.1	-32.1	12.4	1.45e-04	0	42	0	990904320	20	4524
2026-01-13 02:01:46.94	256.15	15.72	-30.0	-31.9	12.5	3.49e-04	0	42	0	997195776	20	4446
2026-01-13 02:01:49.96	255.76	15.45	-29.7	-31.5	13.1	7.56e-04	0	42	0	1002438656	19	4407
2026-01-13 02:01:52.98	255.38	15.19	-30.0	-31.9	12.5	9.07e-05	0	42	0	1007681536	20	4449
2026-01-13 02:01:55.99	255.00	14.93	-30.4	-33.1	11.6	3.41e-04	0	42	0	1013972992	20	4899
2026-01-13 02:01:59.01	254.63	14.67	-30.1	-32.3	12.1	2.17e-04	0	42	0	1019215872	20	4598
2026-01-13 02:02:02.03	254.26	14.41	-30.1	-32.2	12.2	7.39e-04	0	42	0	1025507328	20	4575
2026-01-13 02:02:05.05	253.90	14.15	-29.7	-31.6	13.0	8.47e-04	0	42	0	1030750208	19	4437
2026-01-13 02:02:08.08	253.55	13.90	-29.9	-31.9	12.9	6.27e-04	0	42	0	1035993088	19	4538
2026-01-13 02:02:11.09	253.20	13.64	-30.3	-32.8	11.8	1.60e-03	0	42	0	1042284544	20	4782
2026-01-13 02:02:14.11	252.86	13.39	-30.8	-33.7	10.7	4.16e-03	0	42	0	1047527424	21	5028
2026-01-13 02:02:17.12	252.53	13.14	-30.5	-32.7	11.4	2.81e-03	0	42	0	1053818880	21	4667
2026-01-13 02:02:20.13	252.20	12.89	-29.8	-31.7	12.9	4.65e-05	0	43	0	1059061760	19	4483
2026-01-13 02:02:23.15	251.88	12.65	-29.7	-31.4	13.1	9.86e-04	0	42	0	1064304640	19	4388
2026-01-13 02:02:26.17	251.56	12.40	-29.6	-31.2	13.2	2.61e-04	0	42	0	1070596096	19	4331
2026-01-13 02:02:29.19	251.25	12.16	-30.2	-32.4	12.0	3.07e-04	0	42	0	1075838976	20	4631
2026-01-13 02:02:32.20	250.94	11.91	-30.8	-33.8	10.5	3.13e-03	0	42	0	1081081856	21	5106
2026-01-13 02:02:35.22	250.64	11.67	-31.0	-34.0	10.0	9.34e-03	0	42	0	1087373312	22	5096
2026-01-13 02:02:38.24	250.34	11.43	-31.0	-34.0	10.0	6.60e-03	0	42	0	1092616192	22	5097
2026-01-13 02:02:41.25	250.05	11.20	-30.7	-33.5	10.7	3.18e-03	0	42	0	1098907648	21	4989
2026-01-13 02:02:44.27	249.76	10.96	-30.5	-33.1	11.0	2.05e-03	0	42	0	1104150528	21	4834
2026-01-13 02:02:47.29	249.48	10.72	-30.4	-32.8	11.2	1.44e-03	0	42	0	1109393408	21	4717
2026-01-13 02:02:50.31	249.20	10.49	-30.5	-32.9	11.1	1.90e-03	0	42	0	1115684864	21	4767
2026-01-13 02:02:53.31	248.93	10.26	-30.6	-33.5	10.6	2.33e-03	0	42	0	1120927744	21	5001
2026-01-13 02:02:56.33	248.66	10.03	-30.8	-34.0	10.2	5.18e-03	0	42	0	1127219200	21	5224
2026-01-13 02:02:59.34	248.39	9.80	-30.9	-34.3	10.0	9.21e-03	0	42	0	1132462080	21	5337
2026-01-13 02:03:02.36	248.13	9.57	-30.6	-33.3	10.7	3.26e-03	0	42	0	1137704960	21	4930
2026-01-13 02:03:05.37	247.88	9.35	-29.2	-31.8	11.2	1.11e-03	0	42	0	1143996416	20	4852
2026-01-13 02:03:08.40	247.62	9.12	-29.9	-32.2	11.1	2.32e-04	0	42	0	1149239296	19	4702
2026-01-13 02:03:11.41	247.38	8.90	-29.7	-31.6	12.6	9.15e-05	0	42	0	1155530752	19	4491
2026-01-13 02:03:14.44	247.13	8.68	-29.8	-32.0	12.3	1.38e-04	0	42	0	1160773632	19	4629
2026-01-13 02:03:17.45	246.89	8.46	-29.9	-32.3	12.1	2.66e-03	0	42	0	1166016512	19	4741
2026-01-13 02:03:20.46	246.65	8.24	-30.2	-32.9	11.2	2.74e-03	0	42	0	1172307968	20	4870
2026-01-13 02:03:23.47	246.42	8.03	-30.4	-33.6	10.6	5.68e-03	0	42	0	1177550848	20	5161
2026-01-13 02:03:26.48	246.19	7.81	-30.7	-33.9	10.0	7.26e-03	0	42	0	1183842304	21	5224
2026-01-13 02:03:29.50	245.96	7.60	-30.8	-34.3	9.7	9.11e-03	0	42	0	1189085184	21	5418
2026-01-13 02:03:32.52	245.74	7.38	-30.9	-34.8	9.2	2.02e-02	0	42	0	1194328064	21	5656
2026-01-13 02:03:35.54	245.52	7.17	-30.8	-34.4	9.5	1.11e-02	0	42	0	1200619520	21	5451
2026-01-13 02:03:38.56	245.30	6.96	-33.0	-45.3	3.9	1.49e+00	0	42	104	1203765248	26	14731

#Closed at: 2026-01-13 02:03:39
#Recorded file [1203 MB]: D:/data/31010_260113_045255.dat