passes_logs/2026/01/13/R2M6_AANII_01/R2M6_AANII_01__20260113_125111_FENGYUN_3E_rec.log

#Pass ID: 20260113_125111_FENGYUN 3E
#Satellite: FENGYUN 3E
#Configuration: FENGYUN 3E
#almurnet v.1.7.20240730
#Start time: 2026-01-13 12:56:58

#Version: 2.2.20231116
#Station: R2M6_AANII_01
#Location: 30.233357 lon 59.946436 lat
#TLE: 1 49008U 21062A   26012.89166517 -.00000229  00000+0 -86979-4 0  9993
#TLE: 2 49008  98.7492  18.0449 0001954 141.1957 218.9360 14.19884302234542

#Time	Az	El	Level	Level2	SNR	BER	BlckErr	Temp	State	Recorded	gain1	gain2
2026-01-13 12:56:58.31	35.75	25.48	-34.0	-44.6	3.8	8.46e-01	0	43	0	0	29	12168
2026-01-13 12:56:59.31	35.46	25.44	-34.0	-42.9	3.8	8.47e-01	0	43	104	0	29	10057
2026-01-13 12:57:00.32	35.17	25.41	-34.0	-42.9	3.8	8.47e-01	0	43	104	0	29	10071
2026-01-13 12:57:01.32	34.88	25.37	-34.0	-42.9	3.8	8.46e-01	0	43	104	0	29	10039
2026-01-13 12:57:02.33	34.59	25.34	-34.0	-42.9	3.8	8.47e-01	0	43	104	0	29	10023
2026-01-13 12:57:03.34	34.30	25.30	-34.0	-43.0	3.8	8.47e-01	0	43	104	0	29	10084
2026-01-13 12:57:04.35	34.01	25.26	-34.0	-42.9	3.8	8.46e-01	0	43	104	0	29	10039
2026-01-13 12:57:05.35	33.72	25.22	-34.0	-42.9	3.8	8.46e-01	0	43	104	0	29	10013
2026-01-13 12:57:06.35	33.43	25.19	-34.0	-42.9	3.8	8.46e-01	0	43	104	0	29	10033
2026-01-13 12:57:07.36	33.15	25.15	-34.0	-42.9	3.8	8.47e-01	0	43	104	0	29	10058
2026-01-13 12:57:08.37	32.86	25.11	-34.0	-42.9	3.8	8.47e-01	0	43	104	0	29	9987
2026-01-13 12:57:09.38	32.57	25.06	-34.0	-43.0	3.8	8.46e-01	0	43	104	0	29	10076
2026-01-13 12:57:10.38	32.29	25.02	-34.0	-42.9	3.8	8.47e-01	0	43	104	0	29	9985
2026-01-13 12:57:11.38	32.01	24.98	-34.0	-42.9	3.8	8.48e-01	0	43	104	0	29	10029
2026-01-13 12:57:12.39	31.72	24.94	-34.0	-42.9	3.8	8.45e-01	0	43	104	0	29	10033
2026-01-13 12:57:13.40	31.44	24.89	-34.0	-42.9	3.8	8.47e-01	0	43	104	0	29	10033
2026-01-13 12:57:14.41	31.16	24.85	-34.0	-42.9	3.8	8.46e-01	0	43	104	0	29	10049
2026-01-13 12:57:15.42	30.87	24.80	-34.0	-43.0	3.8	8.46e-01	0	43	104	0	29	10109
2026-01-13 12:57:16.42	30.60	24.76	-34.0	-42.9	3.8	8.46e-01	0	43	104	0	29	10060
2026-01-13 12:57:17.43	30.31	24.71	-34.0	-42.9	3.8	8.47e-01	0	43	104	0	29	10043
2026-01-13 12:57:18.44	30.04	24.66	-34.0	-42.9	3.8	8.46e-01	0	43	104	0	29	10028
2026-01-13 12:57:19.44	29.76	24.61	-34.0	-42.9	3.8	8.46e-01	0	43	104	0	29	10057
2026-01-13 12:57:20.45	29.48	24.56	-34.0	-42.9	3.8	8.46e-01	0	43	104	0	29	10033
2026-01-13 12:57:21.45	29.21	24.51	-34.0	-42.9	3.8	8.46e-01	0	43	104	0	29	10009
2026-01-13 12:57:22.46	28.93	24.46	-34.0	-42.9	3.8	8.46e-01	0	43	104	0	29	9985
2026-01-13 12:57:23.47	28.66	24.41	-34.0	-42.9	3.8	8.46e-01	0	43	104	0	29	10049
2026-01-13 12:57:24.48	28.38	24.36	-34.0	-42.9	3.8	8.45e-01	0	43	104	0	29	10058
2026-01-13 12:57:25.48	28.11	24.31	-34.0	-43.0	3.8	8.45e-01	0	43	104	0	29	10070
2026-01-13 12:57:26.48	27.84	24.26	-34.0	-42.9	3.8	8.46e-01	0	43	104	0	29	10039
2026-01-13 12:57:27.49	27.57	24.21	-34.0	-42.9	3.8	8.47e-01	0	43	104	0	29	9997
2026-01-13 12:57:28.49	27.30	24.15	-34.0	-42.9	3.8	8.46e-01	0	43	104	0	29	10072
2026-01-13 12:57:29.51	27.03	24.10	-34.0	-42.9	3.8	8.45e-01	0	43	104	0	29	9983
2026-01-13 12:57:30.51	26.77	24.04	-34.0	-42.9	3.8	8.46e-01	0	43	104	0	29	10061
2026-01-13 12:57:31.51	26.50	23.99	-34.0	-42.9	3.8	8.45e-01	0	43	104	0	29	10012
2026-01-13 12:57:32.52	26.23	23.93	-34.0	-42.9	3.8	8.46e-01	0	43	104	0	29	10029
2026-01-13 12:57:33.53	25.97	23.88	-34.0	-42.9	3.8	8.45e-01	0	43	104	0	29	10013
2026-01-13 12:57:34.54	25.70	23.82	-34.0	-43.0	3.8	8.46e-01	0	43	104	0	29	10076
2026-01-13 12:57:35.54	25.44	23.76	-34.0	-42.9	3.8	8.46e-01	0	43	104	0	29	10048
2026-01-13 12:57:36.54	25.18	23.70	-34.0	-42.9	3.8	8.46e-01	0	43	104	0	29	10046
2026-01-13 12:57:37.55	24.92	23.64	-34.0	-42.9	3.8	8.46e-01	0	43	104	0	29	10062
2026-01-13 12:57:38.56	24.66	23.59	-34.0	-42.9	3.8	8.46e-01	0	43	104	0	29	10021
2026-01-13 12:57:39.56	24.40	23.53	-34.0	-42.9	3.8	8.46e-01	0	43	104	0	29	10044
2026-01-13 12:57:40.57	24.14	23.47	-34.0	-42.9	3.8	8.47e-01	0	43	104	0	29	10038
2026-01-13 12:57:41.57	23.89	23.41	-34.0	-42.9	3.8	8.46e-01	0	43	104	0	29	10040
2026-01-13 12:57:42.58	23.63	23.34	-34.0	-42.9	3.8	8.46e-01	0	43	104	0	29	10029
2026-01-13 12:57:43.59	23.38	23.28	-34.0	-42.9	3.8	8.46e-01	0	43	104	0	29	10026
2026-01-13 12:57:44.59	23.12	23.22	-34.0	-42.9	3.8	8.46e-01	0	43	104	0	29	10053
2026-01-13 12:57:45.60	22.87	23.16	-34.0	-42.9	3.8	8.47e-01	0	43	104	0	29	10027
2026-01-13 12:57:46.61	22.62	23.10	-34.0	-42.9	3.8	8.45e-01	0	43	104	0	29	10016
2026-01-13 12:57:47.62	22.37	23.03	-34.0	-42.9	3.8	8.46e-01	0	43	104	0	29	10053
2026-01-13 12:57:48.63	22.12	22.97	-34.0	-42.9	3.8	8.45e-01	0	43	104	0	29	10038
2026-01-13 12:57:49.63	21.87	22.91	-34.0	-42.9	3.8	8.48e-01	0	43	104	0	29	10012
2026-01-13 12:57:50.63	21.62	22.84	-34.0	-42.9	3.8	8.46e-01	0	43	104	0	29	9968
2026-01-13 12:57:51.63	21.38	22.78	-34.0	-42.9	3.8	8.45e-01	0	43	104	0	29	10054
2026-01-13 12:57:52.64	21.13	22.71	-34.0	-42.9	3.8	8.46e-01	0	43	104	0	29	10048
2026-01-13 12:57:53.64	20.89	22.65	-34.0	-42.9	3.8	8.47e-01	0	43	104	0	29	10049
2026-01-13 12:57:54.65	20.64	22.58	-34.0	-42.9	3.8	8.46e-01	0	43	104	0	29	10049
2026-01-13 12:57:55.66	20.40	22.51	-34.0	-42.9	3.8	8.45e-01	0	43	104	0	29	10018
2026-01-13 12:57:56.66	20.16	22.45	-34.0	-43.0	3.8	8.47e-01	0	43	104	0	29	10081
2026-01-13 12:57:57.67	19.92	22.38	-34.0	-42.9	3.8	8.45e-01	0	43	104	0	29	10052
2026-01-13 12:57:58.68	19.68	22.31	-34.0	-43.0	3.8	8.45e-01	0	43	104	0	29	10070
2026-01-13 12:57:59.69	19.44	22.24	-34.0	-43.0	3.8	8.46e-01	0	43	104	0	29	10104
2026-01-13 12:58:00.70	19.20	22.17	-34.0	-42.9	3.8	8.46e-01	0	43	104	0	29	10060
2026-01-13 12:58:01.70	18.97	22.11	-34.0	-42.9	3.8	8.46e-01	0	43	104	0	29	10032
2026-01-13 12:58:02.70	18.74	22.04	-34.0	-42.9	3.8	8.47e-01	0	43	104	0	29	10029
2026-01-13 12:58:03.71	18.50	21.97	-34.0	-42.9	3.8	8.45e-01	0	43	104	0	29	10014
2026-01-13 12:58:04.72	18.27	21.90	-34.0	-42.9	3.8	8.47e-01	0	43	104	0	29	10068
2026-01-13 12:58:05.72	18.04	21.83	-34.0	-42.9	3.8	8.46e-01	0	43	104	0	29	10057
2026-01-13 12:58:06.73	17.80	21.76	-34.0	-42.9	3.8	8.46e-01	0	43	104	0	29	10045
2026-01-13 12:58:07.74	17.57	21.69	-34.0	-42.9	3.8	8.46e-01	0	43	104	0	29	9984
2026-01-13 12:58:08.74	17.35	21.62	-34.0	-42.9	3.8	8.46e-01	0	43	104	0	29	10015
2026-01-13 12:58:09.75	17.12	21.55	-34.0	-43.0	3.8	8.46e-01	0	43	104	0	29	10073
2026-01-13 12:58:10.76	16.89	21.47	-34.0	-42.9	3.8	8.47e-01	0	43	104	0	29	10026
2026-01-13 12:58:11.77	16.66	21.40	-34.0	-42.9	3.8	8.47e-01	0	43	104	0	29	10013
2026-01-13 12:58:12.77	16.44	21.33	-34.0	-43.0	3.8	8.47e-01	0	43	104	0	29	10071
2026-01-13 12:58:13.78	16.22	21.26	-34.0	-42.9	3.8	8.47e-01	0	43	104	0	29	10044
2026-01-13 12:58:14.79	15.99	21.19	-34.0	-42.9	3.8	8.47e-01	0	43	104	0	29	10035
2026-01-13 12:58:15.80	15.77	21.11	-34.0	-42.9	3.8	8.46e-01	0	43	104	0	29	10044
2026-01-13 12:58:16.81	15.55	21.04	-34.0	-43.0	3.8	8.47e-01	0	43	104	0	29	10076
2026-01-13 12:58:17.81	15.33	20.97	-34.0	-42.9	3.8	8.46e-01	0	43	104	0	29	10025
2026-01-13 12:58:18.82	15.12	20.89	-34.0	-42.9	3.8	8.46e-01	0	43	104	0	29	10043
2026-01-13 12:58:19.82	14.90	20.82	-34.0	-42.9	3.8	8.46e-01	0	43	104	0	29	10055
2026-01-13 12:58:20.83	14.68	20.75	-34.0	-42.9	3.8	8.46e-01	0	43	104	0	29	10012
2026-01-13 12:58:21.84	14.47	20.67	-34.0	-42.9	3.8	8.46e-01	0	43	104	0	29	10049
2026-01-13 12:58:22.85	14.25	20.60	-34.0	-42.9	3.8	8.45e-01	0	43	104	0	29	10048
2026-01-13 12:58:23.86	14.04	20.52	-34.0	-42.9	3.8	8.45e-01	0	43	104	0	29	10024
2026-01-13 12:58:24.87	13.83	20.45	-34.0	-42.9	3.8	8.46e-01	0	43	104	0	29	10020
2026-01-13 12:58:25.87	13.62	20.37	-34.0	-42.9	3.8	8.46e-01	0	43	104	0	29	10054
2026-01-13 12:58:26.88	13.41	20.30	-34.0	-42.9	3.8	8.47e-01	0	43	104	0	29	10010
2026-01-13 12:58:27.89	13.20	20.22	-34.0	-42.9	3.8	8.48e-01	0	43	104	0	29	10059
2026-01-13 12:58:28.90	12.99	20.15	-34.0	-42.9	3.8	8.46e-01	0	43	104	0	29	10060
2026-01-13 12:58:29.91	12.78	20.07	-34.0	-42.9	3.8	8.46e-01	0	43	104	0	29	10022
2026-01-13 12:58:30.92	12.58	19.99	-34.0	-42.9	3.8	8.45e-01	0	43	104	0	29	9966
2026-01-13 12:58:31.92	12.37	19.92	-34.0	-42.9	3.8	8.46e-01	0	43	104	0	29	10032
2026-01-13 12:58:32.93	12.17	19.84	-34.0	-42.9	3.8	8.45e-01	0	43	104	0	29	10037
2026-01-13 12:58:33.94	11.97	19.77	-34.0	-42.9	3.8	8.47e-01	0	43	104	0	29	10042
2026-01-13 12:58:34.95	11.76	19.69	-34.0	-42.9	3.8	8.47e-01	0	43	104	0	29	10020
2026-01-13 12:58:35.96	11.56	19.61	-34.0	-42.9	3.8	8.45e-01	0	43	104	0	29	10052
2026-01-13 12:58:36.96	11.36	19.54	-34.0	-42.9	3.8	8.46e-01	0	43	104	0	29	10057
2026-01-13 12:58:37.97	11.16	19.46	-34.0	-42.9	3.8	8.45e-01	0	43	104	0	29	10043
2026-01-13 12:58:38.97	10.97	19.38	-34.0	-42.9	3.8	8.47e-01	0	44	104	0	29	10063
2026-01-13 12:58:39.99	10.77	19.31	-34.0	-42.9	3.8	8.47e-01	0	43	104	0	29	9999
2026-01-13 12:58:40.99	10.58	19.23	-34.0	-42.9	3.8	8.46e-01	0	43	104	0	29	10000
2026-01-13 12:58:41.99	10.38	19.15	-34.0	-42.9	3.8	8.47e-01	0	43	104	0	29	10041
2026-01-13 12:58:43.00	10.19	19.08	-34.0	-42.9	3.8	8.46e-01	0	43	104	0	29	10012
2026-01-13 12:58:44.01	10.00	19.00	-34.0	-42.9	3.8	8.47e-01	0	43	104	0	29	10055
2026-01-13 12:58:45.01	9.81	18.92	-34.0	-42.9	3.8	8.46e-01	0	44	104	0	29	10042
2026-01-13 12:58:46.02	9.61	18.84	-34.0	-42.9	3.8	8.47e-01	0	44	104	0	29	10020
2026-01-13 12:58:47.02	9.43	18.77	-34.0	-42.9	3.8	8.46e-01	0	43	104	0	29	10037
2026-01-13 12:58:48.02	9.24	18.69	-34.0	-42.9	3.8	8.47e-01	0	43	104	0	29	10047
2026-01-13 12:58:49.03	9.05	18.61	-34.0	-42.9	3.8	8.46e-01	0	43	104	0	29	10041
2026-01-13 12:58:50.03	8.87	18.53	-34.0	-42.9	3.8	8.47e-01	0	43	104	0	29	10033
2026-01-13 12:58:51.04	8.68	18.45	-34.0	-43.0	3.8	8.46e-01	0	43	104	0	29	10082
2026-01-13 12:58:52.04	8.50	18.38	-34.0	-42.9	3.8	8.46e-01	0	43	104	0	29	10017
2026-01-13 12:58:53.04	8.31	18.30	-34.0	-43.0	3.8	8.46e-01	0	43	104	0	29	10080
2026-01-13 12:58:54.05	8.13	18.22	-34.0	-42.9	3.8	8.46e-01	0	43	104	0	29	10049
2026-01-13 12:58:55.05	7.95	18.14	-34.0	-42.9	3.8	8.47e-01	0	43	104	0	29	10021
2026-01-13 12:58:56.06	7.77	18.07	-34.0	-42.9	3.8	8.47e-01	0	43	104	0	29	10039
2026-01-13 12:58:57.06	7.59	17.99	-34.0	-42.9	3.8	8.46e-01	0	43	104	0	29	10045
2026-01-13 12:58:58.07	7.41	17.91	-34.0	-43.0	3.8	8.46e-01	0	43	104	0	29	10080
2026-01-13 12:58:59.07	7.23	17.83	-34.0	-42.9	3.8	8.45e-01	0	44	104	0	29	10048
2026-01-13 12:59:00.08	7.06	17.75	-34.0	-42.9	3.8	8.46e-01	0	43	104	0	29	10062
2026-01-13 12:59:01.08	6.88	17.67	-34.0	-42.9	3.8	8.46e-01	0	44	104	0	29	10056
2026-01-13 12:59:02.08	6.71	17.60	-34.0	-42.8	3.8	8.45e-01	0	44	104	0	29	9958
2026-01-13 12:59:03.08	6.53	17.52	-34.0	-42.8	3.8	8.46e-01	0	43	104	0	29	9953
2026-01-13 12:59:04.09	6.36	17.44	-34.0	-42.9	3.8	8.46e-01	0	43	104	0	29	9993
2026-01-13 12:59:05.09	6.19	17.36	-34.0	-42.9	3.8	8.46e-01	0	44	104	0	29	9969
2026-01-13 12:59:06.10	6.02	17.28	-34.0	-42.9	3.8	8.46e-01	0	43	104	0	29	10015
2026-01-13 12:59:07.11	5.85	17.20	-34.0	-42.8	3.8	8.46e-01	0	44	104	0	29	9935
2026-01-13 12:59:08.11	5.68	17.13	-34.0	-42.9	3.8	8.45e-01	0	43	104	0	29	9991
2026-01-13 12:59:09.12	5.51	17.05	-34.0	-42.8	3.8	8.47e-01	0	43	104	0	29	9957
2026-01-13 12:59:10.13	5.34	16.97	-34.0	-42.8	3.8	8.46e-01	0	43	104	0	29	9951
2026-01-13 12:59:11.14	5.17	16.89	-34.0	-42.9	3.8	8.47e-01	0	43	104	0	29	9959
2026-01-13 12:59:12.14	5.01	16.81	-34.0	-42.8	3.8	8.46e-01	0	43	104	0	29	9919
2026-01-13 12:59:13.15	4.84	16.73	-34.0	-42.9	3.8	8.45e-01	0	43	104	0	29	9967
2026-01-13 12:59:14.15	4.68	16.66	-34.0	-42.8	3.8	8.46e-01	0	43	104	0	29	9938
2026-01-13 12:59:15.16	4.51	16.58	-34.0	-42.8	3.8	8.46e-01	0	43	104	0	29	9950
2026-01-13 12:59:16.17	4.35	16.50	-34.0	-42.8	3.8	8.45e-01	0	43	104	0	29	9964
2026-01-13 12:59:17.18	4.19	16.42	-34.0	-42.9	3.8	8.47e-01	0	43	104	0	29	9961
2026-01-13 12:59:18.18	4.03	16.34	-34.0	-42.9	3.8	8.45e-01	0	43	104	0	29	9964
2026-01-13 12:59:19.19	3.87	16.26	-34.0	-42.9	3.8	8.47e-01	0	43	104	0	29	9970
2026-01-13 12:59:20.20	3.71	16.18	-34.0	-42.8	3.8	8.46e-01	0	43	104	0	29	9970
2026-01-13 12:59:21.20	3.55	16.11	-34.0	-42.8	3.8	8.45e-01	0	43	104	0	29	9955
2026-01-13 12:59:22.20	3.39	16.03	-34.0	-42.8	3.8	8.47e-01	0	43	104	0	29	9954
2026-01-13 12:59:23.21	3.24	15.95	-34.0	-42.9	3.8	8.47e-01	0	43	104	0	29	10016
2026-01-13 12:59:24.22	3.08	15.87	-34.0	-42.8	3.8	8.47e-01	0	43	104	0	29	9943
2026-01-13 12:59:25.21	2.93	15.79	-34.0	-42.8	3.8	8.45e-01	0	43	104	0	29	9954
2026-01-13 12:59:26.22	2.77	15.71	-34.0	-42.8	3.8	8.47e-01	0	43	104	0	29	9956
2026-01-13 12:59:27.23	2.62	15.64	-34.0	-42.8	3.8	8.46e-01	0	43	104	0	29	9943
2026-01-13 12:59:28.23	2.47	15.56	-34.0	-42.8	3.8	8.47e-01	0	43	104	0	29	9970
2026-01-13 12:59:29.24	2.32	15.48	-34.0	-42.8	3.8	8.46e-01	0	43	104	0	29	9962
2026-01-13 12:59:30.24	2.17	15.40	-34.0	-42.8	3.8	8.47e-01	0	43	104	0	29	9938
2026-01-13 12:59:31.25	2.02	15.32	-34.0	-42.9	3.8	8.46e-01	0	43	104	0	29	9993
2026-01-13 12:59:32.26	1.87	15.25	-34.0	-42.9	3.8	8.46e-01	0	43	104	0	29	9977
2026-01-13 12:59:33.26	1.72	15.17	-34.0	-42.8	3.8	8.47e-01	0	43	104	0	29	9969
2026-01-13 12:59:34.27	1.57	15.09	-34.0	-42.8	3.8	8.46e-01	0	43	104	0	29	9973
2026-01-13 12:59:35.28	1.42	15.01	-34.0	-42.9	3.8	8.45e-01	0	43	104	0	29	9993
2026-01-13 12:59:36.29	1.28	14.93	-34.0	-42.8	3.8	8.48e-01	0	43	104	0	29	9967
2026-01-13 12:59:37.29	1.13	14.86	-34.0	-42.9	3.8	8.45e-01	0	43	104	0	29	9971
2026-01-13 12:59:38.29	0.99	14.78	-34.0	-42.8	3.8	8.45e-01	0	43	104	0	29	9965
2026-01-13 12:59:39.30	0.84	14.70	-34.0	-42.9	3.8	8.46e-01	0	43	104	0	29	9959
2026-01-13 12:59:40.31	0.70	14.63	-34.0	-42.9	3.8	8.45e-01	0	43	104	0	29	9977
2026-01-13 12:59:41.32	0.56	14.55	-34.0	-42.9	3.8	8.47e-01	0	43	104	0	29	9979
2026-01-13 12:59:42.33	0.42	14.47	-34.0	-42.9	3.8	8.45e-01	0	44	104	0	29	9979
2026-01-13 12:59:43.33	0.28	14.39	-34.0	-42.9	3.8	8.45e-01	0	43	104	0	29	9973
2026-01-13 12:59:44.34	0.14	14.32	-34.0	-42.9	3.8	8.46e-01	0	43	104	0	29	9986
2026-01-13 12:59:45.34	360.00	14.24	-34.0	-42.8	3.8	8.47e-01	0	43	104	0	29	9957
2026-01-13 12:59:46.35	359.86	14.16	-34.0	-42.8	3.8	8.46e-01	0	43	104	0	29	9939
2026-01-13 12:59:47.36	359.72	14.08	-34.0	-42.8	3.8	8.47e-01	0	43	104	0	29	9955
2026-01-13 12:59:48.36	359.58	14.01	-34.0	-42.9	3.8	8.47e-01	0	43	104	0	29	9966
2026-01-13 12:59:49.36	359.45	13.93	-34.0	-42.9	3.8	8.46e-01	0	43	104	0	29	9982
2026-01-13 12:59:50.37	359.31	13.85	-34.0	-42.9	3.8	8.46e-01	0	43	104	0	29	10016
2026-01-13 12:59:51.38	359.18	13.78	-34.0	-42.8	3.8	8.46e-01	0	43	104	0	29	9918
2026-01-13 12:59:52.38	359.04	13.70	-34.0	-42.9	3.8	8.47e-01	0	43	104	0	29	9974
2026-01-13 12:59:53.38	358.91	13.63	-34.0	-42.8	3.8	8.45e-01	0	43	104	0	29	9946
2026-01-13 12:59:54.39	358.78	13.55	-34.0	-42.8	3.8	8.46e-01	0	44	104	0	29	9961
2026-01-13 12:59:55.40	358.65	13.47	-34.0	-42.9	3.8	8.45e-01	0	43	104	0	29	9969
2026-01-13 12:59:56.41	358.51	13.40	-34.0	-42.8	3.8	8.45e-01	0	43	104	0	29	9932
2026-01-13 12:59:57.41	358.38	13.32	-34.0	-42.8	3.8	8.46e-01	0	43	104	0	29	9954
2026-01-13 12:59:58.41	358.25	13.24	-34.0	-42.8	3.8	8.46e-01	0	43	104	0	29	9920
2026-01-13 12:59:59.42	358.13	13.17	-34.0	-42.9	3.8	8.46e-01	0	43	104	0	29	9996
2026-01-13 13:00:00.43	358.00	13.09	-34.0	-42.8	3.8	8.46e-01	0	43	104	0	29	9964
2026-01-13 13:00:01.44	357.87	13.02	-34.0	-42.9	3.8	8.46e-01	0	43	104	0	29	9961
2026-01-13 13:00:02.44	357.74	12.94	-34.0	-42.8	3.8	8.45e-01	0	43	104	0	29	9960
2026-01-13 13:00:03.44	357.62	12.87	-34.0	-42.9	3.8	8.47e-01	0	43	104	0	29	9980
2026-01-13 13:00:04.45	357.49	12.79	-34.0	-42.9	3.8	8.46e-01	0	43	104	0	29	9964
2026-01-13 13:00:05.46	357.36	12.71	-34.0	-42.8	3.8	8.46e-01	0	43	104	0	29	9920
2026-01-13 13:00:06.47	357.24	12.64	-34.0	-42.8	3.8	8.47e-01	0	43	104	0	29	9962
2026-01-13 13:00:07.48	357.11	12.56	-34.0	-42.8	3.8	8.46e-01	0	44	104	0	29	9960
2026-01-13 13:00:08.48	356.99	12.49	-34.0	-42.8	3.8	8.46e-01	0	43	104	0	29	9960
2026-01-13 13:00:09.49	356.87	12.41	-34.0	-42.9	3.8	8.46e-01	0	43	104	0	29	10001
2026-01-13 13:00:10.50	356.75	12.34	-34.0	-42.8	3.8	8.46e-01	0	43	104	0	29	9929
2026-01-13 13:00:11.51	356.62	12.26	-34.0	-42.8	3.8	8.46e-01	0	43	104	0	29	9962
2026-01-13 13:00:12.51	356.50	12.19	-34.0	-42.8	3.8	8.45e-01	0	43	104	0	29	9940
2026-01-13 13:00:13.51	356.38	12.11	-34.0	-42.8	3.8	8.45e-01	0	43	104	0	29	9951
2026-01-13 13:00:14.51	356.27	12.04	-34.0	-42.8	3.8	8.46e-01	0	44	104	0	29	9962
2026-01-13 13:00:15.52	356.15	11.97	-34.0	-42.9	3.8	8.45e-01	0	43	104	0	29	9990
2026-01-13 13:00:16.52	356.03	11.89	-34.0	-42.8	3.8	8.45e-01	0	43	104	0	29	9960
2026-01-13 13:00:17.53	355.91	11.82	-34.0	-42.9	3.8	8.46e-01	0	43	104	0	29	9973
2026-01-13 13:00:18.54	355.79	11.74	-34.0	-42.9	3.8	8.46e-01	0	44	104	0	29	9973
2026-01-13 13:00:19.54	355.68	11.67	-34.0	-42.8	3.8	8.47e-01	0	43	104	0	29	9950
2026-01-13 13:00:20.55	355.56	11.60	-34.0	-42.9	3.8	8.46e-01	0	43	104	0	29	10014
2026-01-13 13:00:21.56	355.45	11.52	-34.0	-42.9	3.8	8.46e-01	0	43	104	0	29	9974
2026-01-13 13:00:22.56	355.33	11.45	-34.0	-42.9	3.8	8.47e-01	0	43	104	0	29	9981
2026-01-13 13:00:23.57	355.22	11.37	-34.0	-42.8	3.8	8.48e-01	0	43	104	0	29	9944
2026-01-13 13:00:24.57	355.10	11.30	-34.0	-42.8	3.8	8.45e-01	0	43	104	0	29	9960
2026-01-13 13:00:25.58	354.99	11.23	-34.0	-42.9	3.8	8.46e-01	0	43	104	0	29	9995
2026-01-13 13:00:26.59	354.88	11.15	-34.0	-42.8	3.8	8.46e-01	0	43	104	0	29	9967
2026-01-13 13:00:27.59	354.77	11.08	-34.0	-42.9	3.8	8.46e-01	0	43	104	0	29	9978
2026-01-13 13:00:28.60	354.66	11.01	-34.0	-42.9	3.8	8.47e-01	0	43	104	0	29	9995
2026-01-13 13:00:29.60	354.55	10.94	-34.0	-42.8	3.8	8.46e-01	0	43	104	0	29	9910
2026-01-13 13:00:30.61	354.44	10.86	-34.0	-42.9	3.8	8.46e-01	0	43	104	0	29	9982
2026-01-13 13:00:31.62	354.33	10.79	-34.0	-42.8	3.8	8.46e-01	0	43	104	0	29	9930
2026-01-13 13:00:32.63	354.22	10.72	-34.0	-42.9	3.8	8.46e-01	0	43	104	0	29	9973
2026-01-13 13:00:33.64	354.11	10.64	-34.0	-42.8	3.8	8.47e-01	0	43	104	0	29	9946
2026-01-13 13:00:34.65	354.00	10.57	-34.0	-42.8	3.8	8.46e-01	0	43	104	0	29	9956
2026-01-13 13:00:35.66	353.89	10.50	-34.0	-42.9	3.8	8.46e-01	0	43	104	0	29	9988
2026-01-13 13:00:36.66	353.79	10.43	-34.0	-42.8	3.8	8.47e-01	0	43	104	0	29	9943
2026-01-13 13:00:37.67	353.68	10.36	-34.0	-42.9	3.8	8.46e-01	0	43	104	0	29	10000
2026-01-13 13:00:38.68	353.57	10.28	-34.0	-42.8	3.8	8.46e-01	0	44	104	0	29	9968
2026-01-13 13:00:39.68	353.47	10.21	-34.0	-42.8	3.8	8.46e-01	0	43	104	0	29	9951
2026-01-13 13:00:40.69	353.36	10.14	-34.0	-42.9	3.8	8.45e-01	0	44	104	0	29	9980
2026-01-13 13:00:41.70	353.26	10.07	-34.0	-42.8	3.8	8.45e-01	0	43	104	0	29	9940
2026-01-13 13:00:42.70	353.16	10.00	-34.0	-42.9	3.8	8.47e-01	0	44	104	0	29	9980
2026-01-13 13:00:43.70	353.06	9.93	-34.0	-42.9	3.8	8.46e-01	0	43	104	0	29	9995
2026-01-13 13:00:44.71	352.95	9.85	-34.0	-42.9	3.8	8.45e-01	0	43	104	0	29	9975
2026-01-13 13:00:45.72	352.85	9.78	-34.0	-42.9	3.8	8.45e-01	0	43	104	0	29	10006
2026-01-13 13:00:46.73	352.75	9.71	-34.0	-42.9	3.8	8.47e-01	0	43	104	0	29	9979
2026-01-13 13:00:47.74	352.65	9.64	-34.0	-42.8	3.8	8.46e-01	0	43	104	0	29	9962
2026-01-13 13:00:48.75	352.55	9.57	-34.0	-42.9	3.8	8.46e-01	0	43	104	0	29	9973
2026-01-13 13:00:49.76	352.45	9.50	-34.0	-42.8	3.8	8.47e-01	0	43	104	0	29	9953
2026-01-13 13:00:50.77	352.35	9.43	-34.0	-42.9	3.8	8.45e-01	0	43	104	0	29	10011
2026-01-13 13:00:51.78	352.25	9.36	-34.0	-42.9	3.8	8.46e-01	0	43	104	0	29	9955
2026-01-13 13:00:52.78	352.15	9.29	-34.0	-42.8	3.8	8.46e-01	0	43	104	0	29	9952
2026-01-13 13:00:53.79	352.05	9.22	-34.0	-42.9	3.8	8.46e-01	0	43	104	0	29	9985
2026-01-13 13:00:54.79	351.95	9.15	-34.0	-42.9	3.8	8.46e-01	0	43	104	0	29	9977
2026-01-13 13:00:55.80	351.86	9.08	-34.0	-42.8	3.8	8.46e-01	0	43	104	0	29	9950
2026-01-13 13:00:56.81	351.76	9.01	-34.0	-42.9	3.8	8.46e-01	0	43	104	0	29	9980
2026-01-13 13:00:57.82	351.66	8.94	-34.0	-42.8	3.8	8.46e-01	0	43	104	0	29	9947
2026-01-13 13:00:58.82	351.57	8.87	-34.0	-42.8	3.8	8.46e-01	0	43	104	0	29	9955
2026-01-13 13:00:59.83	351.47	8.80	-34.0	-42.8	3.8	8.46e-01	0	43	104	0	29	9973
2026-01-13 13:01:00.84	351.38	8.73	-34.0	-42.9	3.8	8.46e-01	0	43	104	0	29	9977
2026-01-13 13:01:01.84	351.29	8.66	-34.0	-42.9	3.8	8.46e-01	0	43	104	0	29	9974
2026-01-13 13:01:02.85	351.19	8.59	-34.0	-42.8	3.8	8.45e-01	0	43	104	0	29	9974
2026-01-13 13:01:03.86	351.10	8.52	-34.0	-42.9	3.8	8.46e-01	0	43	104	0	29	9976
2026-01-13 13:01:04.86	351.01	8.45	-34.0	-42.9	3.8	8.46e-01	0	43	104	0	29	9982
2026-01-13 13:01:05.87	350.91	8.38	-34.0	-42.9	3.8	8.47e-01	0	43	104	0	29	9974
2026-01-13 13:01:06.88	350.82	8.32	-34.0	-42.8	3.8	8.47e-01	0	43	104	0	29	9932
2026-01-13 13:01:07.88	350.73	8.25	-34.0	-42.9	3.8	8.46e-01	0	43	104	0	29	9993
2026-01-13 13:01:08.88	350.64	8.18	-34.0	-42.9	3.8	8.46e-01	0	43	104	0	29	9989
2026-01-13 13:01:09.89	350.55	8.11	-34.0	-42.8	3.8	8.46e-01	0	43	104	0	29	9950
2026-01-13 13:01:10.90	350.46	8.04	-34.0	-42.9	3.8	8.45e-01	0	43	104	0	29	9980
2026-01-13 13:01:11.91	350.37	7.97	-34.0	-42.8	3.8	8.46e-01	0	43	104	0	29	9924
2026-01-13 13:01:12.92	350.28	7.91	-34.0	-42.9	3.8	8.46e-01	0	43	104	0	29	9989
2026-01-13 13:01:13.92	350.19	7.84	-34.0	-42.8	3.8	8.46e-01	0	43	104	0	29	9948
2026-01-13 13:01:14.92	350.10	7.77	-34.0	-42.9	3.8	8.47e-01	0	43	104	0	29	9982
2026-01-13 13:01:15.93	350.02	7.70	-34.0	-42.9	3.8	8.46e-01	0	43	104	0	29	9988
2026-01-13 13:01:16.94	349.93	7.63	-34.0	-42.9	3.8	8.47e-01	0	43	104	0	29	9979
2026-01-13 13:01:17.95	349.84	7.57	-34.0	-42.9	3.8	8.45e-01	0	43	104	0	29	9986
2026-01-13 13:01:18.95	349.75	7.50	-34.0	-42.8	3.8	8.46e-01	0	43	104	0	29	9940
2026-01-13 13:01:19.96	349.67	7.43	-34.0	-42.9	3.8	8.45e-01	0	43	104	0	29	10009
2026-01-13 13:01:20.96	349.58	7.37	-34.0	-42.9	3.8	8.46e-01	0	43	104	0	29	10003
2026-01-13 13:01:21.96	349.50	7.30	-34.0	-42.9	3.8	8.45e-01	0	43	104	0	29	9991
2026-01-13 13:01:22.97	349.41	7.23	-34.0	-42.9	3.8	8.46e-01	0	43	104	0	29	9986
2026-01-13 13:01:23.98	349.33	7.17	-34.0	-42.9	3.8	8.46e-01	0	43	104	0	29	10004
2026-01-13 13:01:24.98	349.24	7.10	-34.0	-42.9	3.8	8.46e-01	0	43	104	0	29	9964
2026-01-13 13:01:25.99	349.16	7.03	-34.0	-42.9	3.8	8.46e-01	0	43	104	0	29	9969
2026-01-13 13:01:27.00	349.08	6.97	-34.0	-42.9	3.8	8.48e-01	0	43	104	0	29	9997
2026-01-13 13:01:28.00	348.99	6.90	-34.0	-42.9	3.8	8.46e-01	0	43	104	0	29	10020
2026-01-13 13:01:29.01	348.91	6.83	-34.0	-42.8	3.8	8.47e-01	0	43	104	0	29	9936

#Closed at: 2026-01-13 13:01:29
#Recorded file [0 MB]: D:/data/31010_260113_155658.dat