passes_logs/2026/01/13/R2M6_AANII_01/R2M6_AANII_01__20260113_122054_AQUA_rec.log

#Pass ID: 20260113_122054_AQUA
#Satellite: AQUA
#Configuration: AQUA
#almurnet v.1.7.20240730
#Start time: 2026-01-13 12:20:54

#Version: 2.2.20231116
#Station: R2M6_AANII_01
#Location: 30.233357 lon 59.946436 lat
#TLE: 1 27424U 02022A   26012.29577270  .00001027  00000+0  21555-3 0  9995
#TLE: 2 27424  98.4078 338.6778 0002034  81.5885  29.6294 14.61817302260499

#Time	Az	El	Level	Level2	SNR	BER	BlckErr	Temp	State	Recorded	gain1	gain2
2026-01-13 12:20:54.59	170.38	7.02	-34.4	-53.4	3.8	7.48e-01	0	40	0	0	30	32034
2026-01-13 12:20:57.60	170.45	7.27	-34.4	-53.4	3.8	7.46e-01	0	40	104	0	30	32047
2026-01-13 12:21:00.62	170.53	7.52	-34.4	-53.4	3.8	7.46e-01	0	41	104	0	30	32060
2026-01-13 12:21:03.64	170.60	7.77	-34.4	-53.4	3.8	7.45e-01	0	41	104	0	30	32073
2026-01-13 12:21:06.67	170.68	8.03	-34.4	-53.4	3.8	7.45e-01	0	41	104	0	30	32056
2026-01-13 12:21:09.69	170.76	8.28	-34.4	-53.4	3.8	7.43e-01	0	40	104	0	30	32054
2026-01-13 12:21:12.71	170.84	8.54	-34.4	-53.4	3.8	7.47e-01	0	41	104	0	30	32058
2026-01-13 12:21:15.73	170.93	8.81	-34.4	-53.4	3.8	7.47e-01	0	41	104	0	30	32055
2026-01-13 12:21:18.75	171.01	9.08	-34.4	-53.4	3.8	7.46e-01	0	41	104	0	30	31987
2026-01-13 12:21:21.77	171.10	9.35	-34.4	-53.4	3.8	7.41e-01	0	41	104	0	30	32074
2026-01-13 12:21:24.80	171.19	9.62	-34.4	-53.4	3.8	7.41e-01	0	41	104	0	30	32067
2026-01-13 12:21:27.82	171.27	9.90	-34.4	-53.4	3.8	7.46e-01	0	41	104	0	30	32067
2026-01-13 12:21:30.84	171.37	10.18	-34.4	-53.4	3.8	7.42e-01	0	41	104	0	30	32065
2026-01-13 12:21:33.86	171.46	10.46	-34.4	-53.4	3.8	7.43e-01	0	41	104	0	30	32040
2026-01-13 12:21:36.87	171.55	10.75	-34.4	-53.4	3.8	7.44e-01	0	41	104	0	30	32051
2026-01-13 12:21:39.90	171.65	11.04	-34.4	-53.4	3.8	7.45e-01	0	41	104	0	30	32101
2026-01-13 12:21:42.91	171.75	11.34	-34.4	-53.4	3.8	7.47e-01	0	41	104	0	30	32010
2026-01-13 12:21:45.93	171.85	11.64	-34.4	-53.4	3.8	7.45e-01	0	41	104	0	30	32085
2026-01-13 12:21:48.95	171.95	11.94	-34.4	-53.4	3.8	7.45e-01	0	42	104	0	30	32089
2026-01-13 12:21:51.97	172.05	12.25	-34.4	-53.4	3.8	7.47e-01	0	42	104	0	30	32104
2026-01-13 12:21:54.99	172.16	12.56	-34.4	-53.4	3.8	7.49e-01	0	41	104	0	30	32077
2026-01-13 12:21:58.01	172.27	12.88	-34.4	-53.4	3.8	7.42e-01	0	42	104	0	30	32111
2026-01-13 12:22:01.02	172.38	13.20	-34.4	-53.4	3.8	7.45e-01	0	42	104	0	30	32121
2026-01-13 12:22:04.05	172.49	13.53	-34.4	-53.4	3.8	7.45e-01	0	42	104	0	30	32098
2026-01-13 12:22:07.07	172.60	13.86	-34.4	-53.4	3.8	7.43e-01	0	42	104	0	30	32078
2026-01-13 12:22:10.08	172.72	14.19	-34.4	-53.4	3.8	7.45e-01	0	42	104	0	30	32038
2026-01-13 12:22:13.10	172.84	14.53	-34.4	-53.4	3.8	7.44e-01	0	42	104	0	30	32029
2026-01-13 12:22:16.12	172.97	14.88	-34.4	-53.4	3.8	7.44e-01	0	42	104	0	30	32086
2026-01-13 12:22:19.13	173.09	15.23	-34.4	-53.4	3.8	7.42e-01	0	42	104	0	30	32074
2026-01-13 12:22:22.14	173.22	15.58	-34.4	-53.4	3.8	7.43e-01	0	42	104	0	30	32021
2026-01-13 12:22:25.15	173.35	15.94	-34.4	-53.4	3.8	7.42e-01	0	42	104	0	30	32080
2026-01-13 12:22:28.17	173.49	16.31	-34.4	-53.4	3.8	7.44e-01	0	42	104	0	30	32038
2026-01-13 12:22:31.19	173.63	16.69	-34.4	-53.4	3.8	7.43e-01	0	42	104	0	30	32079
2026-01-13 12:22:34.21	173.77	17.07	-34.4	-53.4	3.8	7.45e-01	0	42	104	0	30	32049
2026-01-13 12:22:37.23	173.92	17.46	-34.4	-53.4	3.8	7.44e-01	0	42	104	0	30	32060
2026-01-13 12:22:40.26	174.07	17.85	-34.4	-53.4	3.8	7.44e-01	0	42	104	0	30	32026
2026-01-13 12:22:43.27	174.22	18.25	-34.4	-53.4	3.8	7.52e-01	0	42	104	0	30	32041
2026-01-13 12:22:46.30	174.38	18.66	-34.4	-53.4	3.8	7.42e-01	0	42	104	0	30	32037
2026-01-13 12:22:49.32	174.54	19.08	-34.4	-53.4	3.8	7.47e-01	0	42	104	0	30	32060
2026-01-13 12:22:52.34	174.71	19.50	-34.4	-53.5	3.8	7.47e-01	0	42	104	0	30	32158
2026-01-13 12:22:55.37	174.88	19.93	-34.4	-53.4	3.8	7.43e-01	0	42	104	0	30	31995
2026-01-13 12:22:58.40	175.06	20.37	-34.4	-53.4	3.8	7.45e-01	0	42	104	0	30	32042
2026-01-13 12:23:01.42	175.24	20.82	-34.4	-53.4	3.8	7.46e-01	0	42	104	0	30	32060
2026-01-13 12:23:04.42	175.42	21.28	-34.4	-53.4	3.8	7.43e-01	0	42	104	0	30	32093
2026-01-13 12:23:07.42	175.61	21.74	-34.4	-53.4	3.8	7.48e-01	0	42	104	0	30	32093
2026-01-13 12:23:10.45	175.81	22.21	-34.4	-53.4	3.8	7.43e-01	0	42	104	0	30	32090
2026-01-13 12:23:13.47	176.02	22.70	-34.4	-53.4	3.8	7.47e-01	0	42	104	0	30	32105
2026-01-13 12:23:16.48	176.23	23.19	-34.4	-53.4	3.8	7.47e-01	0	42	104	0	30	32025
2026-01-13 12:23:19.50	176.44	23.69	-34.4	-53.4	3.8	7.48e-01	0	42	104	0	30	32046
2026-01-13 12:23:22.53	176.67	24.21	-34.4	-53.4	3.8	7.44e-01	0	42	104	0	30	32076
2026-01-13 12:23:25.55	176.90	24.73	-34.4	-53.5	3.8	7.48e-01	0	42	104	0	30	32146
2026-01-13 12:23:28.57	177.14	25.27	-34.4	-53.5	3.8	7.48e-01	0	42	104	0	30	32152
2026-01-13 12:23:31.58	177.39	25.82	-34.4	-53.4	3.8	7.45e-01	0	42	104	0	30	32039
2026-01-13 12:23:34.60	177.65	26.38	-34.4	-53.5	3.8	7.43e-01	0	42	104	0	30	32126
2026-01-13 12:23:37.62	177.91	26.95	-34.4	-53.4	3.8	7.46e-01	0	42	104	0	30	32064
2026-01-13 12:23:40.64	178.19	27.53	-34.4	-53.4	3.8	7.45e-01	0	42	104	0	30	32133
2026-01-13 12:23:43.67	178.47	28.13	-34.4	-53.4	3.8	7.44e-01	0	42	104	0	30	32095
2026-01-13 12:23:46.69	178.77	28.74	-34.4	-53.5	3.8	7.47e-01	0	42	104	0	30	32116
2026-01-13 12:23:49.71	179.08	29.37	-34.4	-53.4	3.8	7.43e-01	0	42	104	0	30	32039
2026-01-13 12:23:52.72	179.40	30.00	-34.4	-53.4	3.8	7.40e-01	0	42	104	0	30	31911
2026-01-13 12:23:55.74	179.74	30.66	-34.5	-53.5	3.8	7.45e-01	0	42	104	0	30	32127
2026-01-13 12:23:58.75	180.08	31.32	-34.4	-53.5	3.8	7.47e-01	0	43	104	0	30	32179
2026-01-13 12:24:01.77	180.45	32.01	-34.4	-53.5	3.8	7.45e-01	0	42	104	0	30	32130
2026-01-13 12:24:04.78	180.82	32.71	-34.4	-53.4	3.8	7.47e-01	0	42	104	0	30	32040
2026-01-13 12:24:07.81	181.22	33.43	-34.5	-53.5	3.8	7.44e-01	0	42	104	0	30	32184
2026-01-13 12:24:10.83	181.63	34.16	-34.5	-53.5	3.8	7.46e-01	0	42	104	0	30	32168
2026-01-13 12:24:13.85	182.07	34.91	-34.4	-53.5	3.8	7.47e-01	0	42	104	0	30	32143
2026-01-13 12:24:16.87	182.52	35.68	-34.4	-53.4	3.8	7.42e-01	0	42	104	0	30	32066
2026-01-13 12:24:19.90	183.00	36.47	-34.5	-53.5	3.8	7.46e-01	0	42	104	0	30	32146
2026-01-13 12:24:22.92	183.49	37.27	-34.5	-53.5	3.8	7.45e-01	0	42	104	0	30	32124
2026-01-13 12:24:25.95	184.02	38.10	-34.5	-53.5	3.8	7.49e-01	0	42	104	0	30	32159
2026-01-13 12:24:28.96	184.57	38.94	-34.4	-53.5	3.8	7.44e-01	0	42	104	0	30	32132
2026-01-13 12:24:31.97	185.15	39.80	-34.5	-53.5	3.8	7.46e-01	0	42	104	0	30	32118
2026-01-13 12:24:34.99	185.76	40.68	-34.5	-53.5	3.8	7.45e-01	0	42	104	0	30	32090
2026-01-13 12:24:38.01	186.41	41.58	-34.4	-53.5	3.8	7.45e-01	0	43	104	0	30	32132
2026-01-13 12:24:41.04	187.10	42.51	-34.5	-53.5	3.8	7.42e-01	0	42	104	0	30	32173
2026-01-13 12:24:44.05	187.83	43.44	-34.4	-53.4	3.8	7.46e-01	0	42	104	0	30	32079
2026-01-13 12:24:47.07	188.60	44.40	-34.5	-53.5	3.8	7.42e-01	0	43	104	0	30	32109
2026-01-13 12:24:50.08	189.41	45.38	-34.5	-53.4	3.8	7.48e-01	0	42	104	0	30	32040
2026-01-13 12:24:53.10	190.28	46.38	-34.4	-53.5	3.8	7.45e-01	0	43	104	0	30	32146
2026-01-13 12:24:56.13	191.22	47.40	-34.4	-53.4	3.8	7.45e-01	0	42	104	0	30	32023
2026-01-13 12:24:59.15	192.21	48.44	-34.5	-53.4	3.8	7.42e-01	0	42	104	0	30	32066
2026-01-13 12:25:02.17	193.27	49.49	-34.5	-53.4	3.8	7.46e-01	0	42	104	0	30	32028
2026-01-13 12:25:05.19	194.41	50.55	-34.5	-53.4	3.8	7.43e-01	0	42	104	0	30	31910
2026-01-13 12:25:08.21	195.63	51.63	-34.5	-53.4	3.8	7.45e-01	0	42	104	0	30	31981
2026-01-13 12:25:11.23	196.95	52.72	-34.4	-53.4	3.8	7.44e-01	0	42	104	0	30	31768
2026-01-13 12:25:14.25	198.36	53.82	-34.5	-53.4	3.8	7.46e-01	0	43	104	0	30	32011
2026-01-13 12:25:17.27	199.89	54.93	-34.5	-53.5	3.8	7.46e-01	0	43	104	0	30	32095
2026-01-13 12:25:20.29	201.54	56.04	-34.5	-53.5	3.8	7.43e-01	0	42	104	0	30	32090
2026-01-13 12:25:23.32	203.34	57.15	-34.5	-53.5	3.8	7.47e-01	0	42	104	0	30	32176
2026-01-13 12:25:26.35	205.28	58.25	-34.5	-53.5	3.8	7.43e-01	0	42	104	0	30	32224
2026-01-13 12:25:29.37	207.39	59.34	-34.5	-53.5	3.8	7.46e-01	0	42	104	0	30	32098
2026-01-13 12:25:32.41	209.69	60.42	-34.5	-53.5	3.8	7.45e-01	0	43	104	0	30	32275
2026-01-13 12:25:35.43	212.18	61.47	-34.5	-53.5	3.8	7.43e-01	0	43	104	0	30	32170
2026-01-13 12:25:38.44	214.87	62.48	-34.5	-53.5	3.8	7.47e-01	0	43	104	0	30	32104
2026-01-13 12:25:41.46	217.80	63.45	-34.5	-53.5	3.8	7.47e-01	0	42	104	0	30	32183
2026-01-13 12:25:44.48	220.98	64.37	-34.5	-53.5	3.8	7.46e-01	0	42	104	0	30	32202
2026-01-13 12:25:47.50	224.41	65.22	-34.5	-53.5	3.8	7.48e-01	0	43	104	0	30	32062
2026-01-13 12:25:50.51	228.09	65.99	-34.5	-53.4	3.8	7.45e-01	0	42	104	0	30	32035
2026-01-13 12:25:53.54	232.05	66.68	-34.5	-53.5	3.8	7.47e-01	0	43	104	0	30	32151
2026-01-13 12:25:56.55	236.22	67.27	-34.5	-53.5	3.8	7.45e-01	0	42	104	0	30	32208
2026-01-13 12:25:59.57	240.63	67.74	-34.5	-53.5	3.8	7.45e-01	0	42	104	0	30	32152
2026-01-13 12:26:02.60	245.23	68.09	-34.5	-53.5	3.8	7.44e-01	0	42	104	0	30	32256
2026-01-13 12:26:05.61	249.93	68.31	-34.5	-53.5	3.8	7.46e-01	0	42	104	0	30	32114
2026-01-13 12:26:08.62	254.71	68.39	-34.5	-53.5	3.8	7.47e-01	0	43	104	0	30	32161
2026-01-13 12:26:11.64	259.50	68.33	-34.5	-53.5	3.8	7.42e-01	0	42	104	0	30	32194
2026-01-13 12:26:14.65	264.22	68.14	-34.5	-53.5	3.8	7.45e-01	0	42	104	0	30	32250
2026-01-13 12:26:17.68	268.85	67.82	-34.5	-53.5	3.8	7.45e-01	0	42	104	0	30	32138
2026-01-13 12:26:20.70	273.29	67.36	-34.5	-53.5	3.8	7.48e-01	0	42	104	0	30	32202
2026-01-13 12:26:23.71	277.51	66.80	-34.5	-53.5	3.8	7.42e-01	0	42	104	0	30	32215
2026-01-13 12:26:26.75	281.52	66.13	-34.5	-53.5	3.8	7.44e-01	0	42	104	0	30	32104
2026-01-13 12:26:29.76	285.24	65.37	-34.5	-53.5	3.8	7.48e-01	0	42	104	0	30	32112
2026-01-13 12:26:32.79	288.73	64.53	-34.5	-53.4	3.8	7.46e-01	0	42	104	0	30	31903
2026-01-13 12:26:35.81	291.94	63.63	-34.5	-53.4	3.8	7.45e-01	0	42	104	0	30	31958
2026-01-13 12:26:38.84	294.92	62.66	-34.5	-53.5	3.8	7.48e-01	0	42	104	0	30	32206
2026-01-13 12:26:41.85	297.65	61.66	-34.5	-53.5	3.8	7.47e-01	0	43	104	0	30	32103
2026-01-13 12:26:44.87	300.17	60.63	-34.5	-53.5	3.8	7.45e-01	0	42	104	0	30	32166
2026-01-13 12:26:47.89	302.49	59.56	-34.5	-53.5	3.8	7.44e-01	0	42	104	0	30	32232
2026-01-13 12:26:50.91	304.63	58.48	-34.5	-53.5	3.8	7.46e-01	0	42	104	0	30	32145
2026-01-13 12:26:53.93	306.60	57.38	-34.5	-53.5	3.8	7.45e-01	0	42	104	0	30	32168
2026-01-13 12:26:56.95	308.41	56.28	-34.5	-53.5	3.8	7.46e-01	0	42	104	0	30	32230
2026-01-13 12:26:59.97	310.09	55.17	-34.5	-53.5	3.8	7.47e-01	0	43	104	0	30	32215
2026-01-13 12:27:02.98	311.63	54.07	-34.5	-53.5	3.8	7.43e-01	0	42	104	0	30	32156
2026-01-13 12:27:06.00	313.07	52.98	-34.5	-53.5	3.8	7.45e-01	0	42	104	0	30	32169
2026-01-13 12:27:09.02	314.40	51.89	-34.5	-53.5	3.8	7.46e-01	0	42	104	0	30	32130
2026-01-13 12:27:12.04	315.64	50.81	-34.5	-53.5	3.8	7.48e-01	0	42	104	0	30	32137
2026-01-13 12:27:15.05	316.79	49.75	-34.5	-53.5	3.8	7.46e-01	0	42	104	0	30	32112
2026-01-13 12:27:18.06	317.86	48.70	-34.5	-53.5	3.8	7.45e-01	0	43	104	0	30	32129
2026-01-13 12:27:21.08	318.86	47.67	-34.5	-53.5	3.8	7.43e-01	0	43	104	0	30	32099
2026-01-13 12:27:24.09	319.80	46.65	-34.5	-53.5	3.8	7.46e-01	0	43	104	0	30	32130
2026-01-13 12:27:27.10	320.68	45.66	-34.5	-53.4	3.8	7.45e-01	0	43	104	0	30	32075
2026-01-13 12:27:30.12	321.51	44.68	-34.5	-53.4	3.8	7.47e-01	0	42	104	0	30	32040
2026-01-13 12:27:33.13	322.29	43.72	-34.5	-53.5	3.8	7.41e-01	0	42	104	0	30	32120
2026-01-13 12:27:36.15	323.03	42.78	-34.5	-53.5	3.8	7.46e-01	0	43	104	0	30	32063
2026-01-13 12:27:39.17	323.72	41.86	-34.5	-53.5	3.8	7.45e-01	0	43	104	0	30	32121
2026-01-13 12:27:42.19	324.38	40.96	-34.5	-53.5	3.8	7.45e-01	0	42	104	0	30	32184
2026-01-13 12:27:45.20	324.99	40.08	-34.5	-53.5	3.8	7.48e-01	0	43	104	0	30	32149
2026-01-13 12:27:48.23	325.59	39.21	-34.5	-53.5	3.8	7.47e-01	0	43	104	0	30	32240
2026-01-13 12:27:51.25	326.14	38.37	-34.5	-53.4	3.8	7.44e-01	0	43	104	0	30	32080
2026-01-13 12:27:54.27	326.67	37.54	-34.5	-53.5	3.8	7.48e-01	0	43	104	0	30	32157
2026-01-13 12:27:57.29	327.18	36.74	-34.5	-53.5	3.8	7.42e-01	0	42	104	0	30	32145
2026-01-13 12:28:00.30	327.66	35.95	-34.4	-53.5	3.8	7.41e-01	0	42	104	0	30	32122
2026-01-13 12:28:03.31	328.12	35.19	-34.5	-53.5	3.8	7.41e-01	0	42	104	0	30	32188
2026-01-13 12:28:06.32	328.55	34.44	-34.5	-53.4	3.8	7.46e-01	0	43	104	0	30	32037
2026-01-13 12:28:09.35	328.97	33.70	-34.5	-53.5	3.8	7.47e-01	0	43	104	0	30	32092
2026-01-13 12:28:12.38	329.37	32.98	-34.4	-53.4	3.8	7.46e-01	0	43	104	0	30	32078
2026-01-13 12:28:15.40	329.76	32.28	-34.4	-53.4	3.8	7.46e-01	0	42	104	0	30	32037
2026-01-13 12:28:18.41	330.12	31.60	-34.5	-53.5	3.8	7.44e-01	0	43	104	0	30	32129
2026-01-13 12:28:21.43	330.47	30.93	-34.4	-53.4	3.8	7.45e-01	0	43	104	0	30	31953
2026-01-13 12:28:24.45	330.81	30.27	-34.5	-53.4	3.8	7.46e-01	0	42	104	0	30	31973
2026-01-13 12:28:27.48	331.14	29.63	-34.4	-53.4	3.8	7.44e-01	0	43	104	0	30	32074
2026-01-13 12:28:30.51	331.45	29.00	-34.4	-53.4	3.8	7.44e-01	0	43	104	0	30	31995
2026-01-13 12:28:33.54	331.75	28.39	-34.4	-53.5	3.8	7.46e-01	0	42	104	0	30	32113
2026-01-13 12:28:36.56	332.04	27.79	-34.4	-53.4	3.8	7.42e-01	0	42	104	0	30	32076
2026-01-13 12:28:39.58	332.32	27.21	-34.4	-53.4	3.8	7.43e-01	0	42	104	0	30	32094
2026-01-13 12:28:42.60	332.59	26.63	-34.4	-53.4	3.8	7.47e-01	0	42	104	0	30	31998
2026-01-13 12:28:45.62	332.85	26.07	-34.4	-53.5	3.8	7.47e-01	0	43	104	0	30	32176
2026-01-13 12:28:48.64	333.10	25.53	-34.4	-53.4	3.8	7.47e-01	0	42	104	0	30	32093
2026-01-13 12:28:51.66	333.34	24.99	-34.4	-53.4	3.8	7.45e-01	0	43	104	0	30	32094
2026-01-13 12:28:54.68	333.58	24.46	-34.4	-53.4	3.8	7.45e-01	0	43	104	0	30	32023
2026-01-13 12:28:57.70	333.81	23.95	-34.5	-53.4	3.8	7.46e-01	0	43	104	0	30	31973
2026-01-13 12:29:00.72	334.03	23.45	-34.4	-53.4	3.8	7.42e-01	0	43	104	0	30	31974
2026-01-13 12:29:03.74	334.24	22.95	-34.4	-53.4	3.8	7.46e-01	0	42	104	0	30	32062
2026-01-13 12:29:06.76	334.45	22.47	-34.4	-53.4	3.8	7.45e-01	0	43	104	0	30	32084
2026-01-13 12:29:09.78	334.65	21.99	-34.4	-53.4	3.8	7.47e-01	0	42	104	0	30	32056
2026-01-13 12:29:12.80	334.84	21.53	-34.4	-53.4	3.8	7.47e-01	0	43	104	0	30	32082
2026-01-13 12:29:15.81	335.03	21.07	-34.4	-53.4	3.8	7.43e-01	0	43	104	0	30	32049
2026-01-13 12:29:18.83	335.22	20.62	-34.4	-53.4	3.8	7.43e-01	0	43	104	0	30	32122
2026-01-13 12:29:21.86	335.39	20.18	-34.4	-53.4	3.8	7.44e-01	0	42	104	0	30	31972
2026-01-13 12:29:24.88	335.57	19.75	-34.4	-53.4	3.8	7.47e-01	0	42	104	0	30	32074
2026-01-13 12:29:27.90	335.74	19.33	-34.4	-53.4	3.8	7.46e-01	0	43	104	0	30	32074
2026-01-13 12:29:30.92	335.90	18.91	-34.4	-53.5	3.8	7.45e-01	0	43	104	0	30	32135
2026-01-13 12:29:33.94	336.06	18.50	-34.4	-53.4	3.8	7.50e-01	0	42	104	0	30	32043
2026-01-13 12:29:36.96	336.22	18.10	-34.4	-53.4	3.8	7.43e-01	0	43	104	0	30	32018
2026-01-13 12:29:39.97	336.37	17.71	-34.4	-53.4	3.8	7.48e-01	0	43	104	0	30	32003
2026-01-13 12:29:42.99	336.52	17.32	-34.4	-53.4	3.8	7.49e-01	0	43	104	0	30	31975
2026-01-13 12:29:46.00	336.66	16.94	-34.4	-53.4	3.8	7.43e-01	0	43	104	0	30	31988
2026-01-13 12:29:49.03	336.81	16.56	-34.4	-53.4	3.8	7.45e-01	0	43	104	0	30	32044
2026-01-13 12:29:52.05	336.94	16.19	-34.4	-53.4	3.8	7.45e-01	0	42	104	0	30	32010
2026-01-13 12:29:55.07	337.08	15.83	-34.4	-53.4	3.8	7.45e-01	0	43	104	0	30	32030
2026-01-13 12:29:58.09	337.21	15.47	-34.4	-53.4	3.8	7.49e-01	0	43	104	0	30	31955
2026-01-13 12:30:01.11	337.34	15.12	-34.4	-53.4	3.8	7.42e-01	0	42	104	0	30	32059
2026-01-13 12:30:04.12	337.47	14.78	-34.4	-53.4	3.8	7.47e-01	0	42	104	0	30	32021
2026-01-13 12:30:07.14	337.59	14.44	-34.4	-53.4	3.8	7.45e-01	0	42	104	0	30	32089
2026-01-13 12:30:10.16	337.71	14.10	-34.4	-53.4	3.8	7.42e-01	0	43	104	0	30	32095
2026-01-13 12:30:13.17	337.83	13.77	-34.4	-53.4	3.8	7.47e-01	0	43	104	0	30	31968
2026-01-13 12:30:16.19	337.94	13.45	-34.4	-53.4	3.8	7.45e-01	0	43	104	0	30	32006
2026-01-13 12:30:19.22	338.06	13.12	-34.4	-53.4	3.8	7.48e-01	0	43	104	0	30	32078
2026-01-13 12:30:22.23	338.17	12.81	-34.4	-53.4	3.8	7.47e-01	0	42	104	0	30	32007
2026-01-13 12:30:25.25	338.28	12.50	-34.4	-53.4	3.8	7.44e-01	0	43	104	0	30	32162
2026-01-13 12:30:28.27	338.38	12.19	-34.4	-53.5	3.8	7.46e-01	0	43	104	0	30	32119
2026-01-13 12:30:31.28	338.49	11.89	-34.4	-53.4	3.8	7.47e-01	0	43	104	0	30	32092
2026-01-13 12:30:34.31	338.59	11.59	-34.4	-53.4	3.8	7.46e-01	0	43	104	0	30	32102
2026-01-13 12:30:37.34	338.69	11.29	-34.4	-53.5	3.8	7.45e-01	0	43	104	0	30	32143
2026-01-13 12:30:40.35	338.79	11.00	-34.4	-53.4	3.8	7.46e-01	0	42	104	0	30	32114
2026-01-13 12:30:43.38	338.89	10.71	-34.4	-53.5	3.8	7.43e-01	0	43	104	0	30	32157
2026-01-13 12:30:46.40	338.98	10.43	-34.4	-53.5	3.8	7.44e-01	0	43	104	0	30	32146
2026-01-13 12:30:49.42	339.07	10.14	-34.5	-53.5	3.8	7.45e-01	0	42	104	0	30	32125
2026-01-13 12:30:52.44	339.17	9.87	-34.4	-53.5	3.8	7.48e-01	0	43	104	0	30	32231
2026-01-13 12:30:55.47	339.26	9.59	-34.4	-53.5	3.8	7.42e-01	0	43	104	0	30	32160
2026-01-13 12:30:58.49	339.35	9.32	-34.5	-53.5	3.8	7.46e-01	0	43	104	0	30	32238
2026-01-13 12:31:01.51	339.43	9.05	-34.4	-53.5	3.8	7.48e-01	0	43	104	0	30	32123
2026-01-13 12:31:04.53	339.52	8.79	-34.4	-53.5	3.8	7.48e-01	0	42	104	0	30	32247
2026-01-13 12:31:07.56	339.60	8.53	-34.4	-53.5	3.8	7.46e-01	0	42	104	0	30	32153
2026-01-13 12:31:10.58	339.69	8.27	-34.4	-53.4	3.8	7.46e-01	0	43	104	0	30	32084
2026-01-13 12:31:13.60	339.77	8.01	-34.4	-53.5	3.8	7.45e-01	0	42	104	0	30	32172
2026-01-13 12:31:16.61	339.85	7.76	-34.4	-53.5	3.8	7.48e-01	0	42	104	0	30	32162
2026-01-13 12:31:19.62	339.93	7.51	-34.4	-53.5	3.8	7.45e-01	0	43	104	0	30	32130
2026-01-13 12:31:22.65	340.01	7.27	-34.4	-53.5	3.8	7.46e-01	0	43	104	0	30	32125
2026-01-13 12:31:25.68	340.08	7.02	-34.4	-53.5	3.8	7.46e-01	0	43	104	0	30	32131

#Closed at: 2026-01-13 12:31:26
#Recorded file [0 MB]: D:/data/31010_260113_152054.dat