passes_logs/2026/01/13/R2M6_AANII_01/R2M6_AANII_01__20260113_120805_NOAA_20_JPSS-1_rec.log

#Pass ID: 20260113_120805_NOAA 20 (JPSS-1)
#Satellite: NOAA 20 (JPSS-1)
#Configuration: NOAA 20
#almurnet v.1.7.20240730
#Start time: 2026-01-13 12:08:06

#Version: 2.2.20231116
#Station: R2M6_AANII_01
#Location: 30.233357 lon 59.946436 lat
#TLE: 1 43013U 17073A   26012.29914746  .00000087  00000+0  62270-4 0  9997
#TLE: 2 43013  98.7632 313.2670 0001616  43.2193 316.9110 14.19535514422351

#Time	Az	El	Level	Level2	SNR	BER	BlckErr	Temp	State	Recorded	gain1	gain2
2026-01-13 12:08:06.99	220.59	7.06	-34.0	-47.7	3.8	1.49e+00	0	40	0	0	29	17302
2026-01-13 12:08:10.01	220.91	7.24	-34.0	-47.7	3.8	1.49e+00	0	40	104	0	29	17309
2026-01-13 12:08:13.03	221.24	7.42	-34.0	-47.7	3.8	1.49e+00	0	40	104	0	29	17291
2026-01-13 12:08:16.04	221.57	7.60	-34.0	-47.6	3.8	1.49e+00	0	41	104	0	29	17240
2026-01-13 12:08:19.06	221.90	7.78	-34.1	-47.7	3.8	1.49e+00	0	40	104	0	29	17262
2026-01-13 12:08:22.09	222.24	7.96	-34.1	-47.7	3.8	1.49e+00	0	41	104	0	29	17287
2026-01-13 12:08:25.10	222.58	8.14	-34.0	-47.7	3.8	1.49e+00	0	41	104	0	29	17328
2026-01-13 12:08:28.12	222.92	8.33	-34.0	-47.7	3.8	1.49e+00	0	41	104	0	29	17272
2026-01-13 12:08:31.15	223.28	8.51	-34.1	-47.7	3.8	1.49e+00	0	41	104	0	29	17343
2026-01-13 12:08:34.17	223.63	8.69	-34.1	-47.7	3.8	1.49e+00	0	41	104	0	29	17278
2026-01-13 12:08:37.19	223.99	8.87	-34.1	-47.7	3.8	1.49e+00	0	41	104	0	29	17309
2026-01-13 12:08:40.19	224.35	9.05	-34.1	-47.7	3.8	1.49e+00	0	41	104	0	29	17269
2026-01-13 12:08:43.21	224.72	9.24	-34.0	-47.7	3.8	1.49e+00	0	41	104	0	29	17288
2026-01-13 12:08:46.21	225.09	9.42	-34.1	-47.7	3.8	1.49e+00	0	41	104	0	29	17311
2026-01-13 12:08:49.23	225.46	9.60	-34.1	-47.7	3.8	1.49e+00	0	41	104	0	29	17326
2026-01-13 12:08:52.24	225.84	9.79	-34.1	-47.7	3.8	1.49e+00	0	41	104	0	29	17269
2026-01-13 12:08:55.27	226.23	9.97	-34.1	-47.7	3.8	1.49e+00	0	41	104	0	29	17313
2026-01-13 12:08:58.29	226.62	10.16	-34.1	-47.7	3.8	1.49e+00	0	41	104	0	29	17293
2026-01-13 12:09:01.31	227.01	10.34	-34.1	-47.7	3.8	1.49e+00	0	41	104	0	29	17268
2026-01-13 12:09:04.33	227.41	10.53	-34.1	-47.7	3.8	1.49e+00	0	41	104	0	29	17292
2026-01-13 12:09:07.35	227.82	10.71	-34.1	-47.7	3.8	1.49e+00	0	42	104	0	29	17304
2026-01-13 12:09:10.37	228.23	10.90	-34.1	-47.7	3.8	1.49e+00	0	41	104	0	29	17314
2026-01-13 12:09:13.39	228.64	11.09	-34.1	-47.7	3.8	1.49e+00	0	42	104	0	29	17305
2026-01-13 12:09:16.42	229.06	11.27	-34.1	-47.7	3.8	1.49e+00	0	42	104	0	29	17277
2026-01-13 12:09:19.43	229.49	11.46	-34.1	-47.7	3.8	1.49e+00	0	42	104	0	29	17339
2026-01-13 12:09:22.45	229.92	11.64	-34.1	-47.7	3.8	1.49e+00	0	42	104	0	29	17332
2026-01-13 12:09:25.47	230.35	11.83	-34.1	-47.7	3.8	1.49e+00	0	42	104	0	29	17346
2026-01-13 12:09:28.50	230.80	12.01	-34.1	-47.7	3.8	1.49e+00	0	42	104	0	29	17287
2026-01-13 12:09:31.51	231.24	12.20	-34.1	-47.7	3.8	1.49e+00	0	42	104	0	29	17275
2026-01-13 12:09:34.53	231.69	12.38	-34.1	-47.7	3.8	1.49e+00	0	42	104	0	29	17324
2026-01-13 12:09:37.54	232.15	12.57	-34.1	-47.7	3.8	1.49e+00	0	42	104	0	29	17333
2026-01-13 12:09:40.57	232.61	12.75	-34.1	-47.7	3.8	1.49e+00	0	42	104	0	29	17331
2026-01-13 12:09:43.58	233.08	12.94	-34.1	-47.7	3.8	1.49e+00	0	42	104	0	29	17276
2026-01-13 12:09:46.60	233.56	13.12	-34.1	-47.7	3.8	1.49e+00	0	42	104	0	29	17241
2026-01-13 12:09:49.62	234.04	13.31	-34.1	-47.7	3.8	1.49e+00	0	42	104	0	29	17283
2026-01-13 12:09:52.64	234.52	13.49	-34.1	-47.7	3.8	1.49e+00	0	42	104	0	29	17313
2026-01-13 12:09:55.67	235.02	13.67	-34.1	-47.7	3.8	1.49e+00	0	42	104	0	29	17288
2026-01-13 12:09:58.70	235.51	13.85	-34.1	-47.7	3.8	1.49e+00	0	42	104	0	29	17301
2026-01-13 12:10:01.71	236.02	14.04	-34.1	-47.7	3.8	1.49e+00	0	42	104	0	29	17327
2026-01-13 12:10:04.72	236.52	14.22	-34.1	-47.7	3.8	1.49e+00	0	42	104	0	29	17366
2026-01-13 12:10:07.74	237.04	14.40	-34.1	-47.7	3.8	1.49e+00	0	42	104	0	29	17318
2026-01-13 12:10:10.76	237.56	14.58	-34.1	-47.7	3.8	1.49e+00	0	42	104	0	29	17332
2026-01-13 12:10:13.78	238.09	14.75	-34.1	-47.7	3.8	1.49e+00	0	42	104	0	29	17330
2026-01-13 12:10:16.80	238.62	14.93	-34.1	-47.7	3.8	1.49e+00	0	42	104	0	29	17336
2026-01-13 12:10:19.81	239.16	15.11	-34.1	-47.7	3.8	1.49e+00	0	42	104	0	29	17332
2026-01-13 12:10:22.84	239.71	15.28	-34.1	-47.7	3.8	1.49e+00	0	42	104	0	29	17318
2026-01-13 12:10:25.85	240.26	15.46	-34.1	-47.7	3.8	1.49e+00	0	42	104	0	29	17337
2026-01-13 12:10:28.87	240.82	15.63	-34.1	-47.8	3.8	1.49e+00	0	42	104	0	29	17375
2026-01-13 12:10:31.89	241.38	15.80	-34.1	-47.7	3.8	1.49e+00	0	42	104	0	29	17380
2026-01-13 12:10:34.91	241.96	15.97	-34.1	-47.7	3.8	1.49e+00	0	42	104	0	29	17317
2026-01-13 12:10:37.93	242.53	16.14	-34.1	-47.7	3.8	1.49e+00	0	42	104	0	29	17342
2026-01-13 12:10:40.96	243.12	16.30	-34.1	-47.7	3.8	1.49e+00	0	42	104	0	29	17310
2026-01-13 12:10:43.97	243.71	16.47	-34.1	-47.7	3.8	1.49e+00	0	42	104	0	29	17325
2026-01-13 12:10:46.99	244.30	16.63	-34.1	-47.7	3.8	1.49e+00	0	42	104	0	29	17318
2026-01-13 12:10:50.02	244.91	16.79	-34.1	-47.7	3.8	1.49e+00	0	42	104	0	29	17358
2026-01-13 12:10:53.04	245.52	16.95	-34.1	-47.8	3.8	1.49e+00	0	42	104	0	29	17388
2026-01-13 12:10:56.06	246.13	17.11	-34.1	-47.7	3.8	1.49e+00	0	43	104	0	29	17329
2026-01-13 12:10:59.09	246.76	17.27	-34.1	-47.7	3.8	1.49e+00	0	43	104	0	29	17335
2026-01-13 12:11:02.11	247.38	17.42	-34.1	-47.7	3.8	1.49e+00	0	43	104	0	29	17320
2026-01-13 12:11:05.13	248.02	17.57	-34.1	-47.7	3.8	1.49e+00	0	42	104	0	29	17314
2026-01-13 12:11:08.15	248.66	17.72	-34.1	-47.7	3.8	1.49e+00	0	42	104	0	29	17294
2026-01-13 12:11:11.16	249.30	17.86	-34.1	-47.7	3.8	1.49e+00	0	42	104	0	29	17343
2026-01-13 12:11:14.18	249.95	18.00	-34.1	-47.7	3.8	1.49e+00	0	42	104	0	29	17354
2026-01-13 12:11:17.21	250.61	18.14	-34.1	-47.7	3.8	1.49e+00	0	42	104	0	29	17359
2026-01-13 12:11:20.23	251.28	18.28	-34.1	-47.7	3.8	1.49e+00	0	42	104	0	29	17284
2026-01-13 12:11:23.25	251.95	18.41	-34.1	-47.7	3.8	1.49e+00	0	42	104	0	29	17315
2026-01-13 12:11:26.27	252.62	18.54	-34.1	-47.7	3.8	1.49e+00	0	42	104	0	29	17296
2026-01-13 12:11:29.29	253.30	18.67	-34.1	-47.7	3.8	1.49e+00	0	42	104	0	29	17340
2026-01-13 12:11:32.30	253.99	18.79	-34.1	-47.7	3.8	1.49e+00	0	43	104	0	29	17302
2026-01-13 12:11:35.30	254.67	18.91	-34.1	-47.7	3.8	1.49e+00	0	42	104	0	29	17343
2026-01-13 12:11:38.32	255.37	19.03	-34.1	-47.7	3.8	1.49e+00	0	43	104	0	29	17321
2026-01-13 12:11:41.33	256.07	19.14	-34.1	-47.7	3.8	1.49e+00	0	43	104	0	29	17330
2026-01-13 12:11:44.35	256.78	19.25	-34.1	-47.8	3.8	1.49e+00	0	42	104	0	29	17358
2026-01-13 12:11:47.38	257.49	19.36	-34.1	-47.7	3.8	1.49e+00	0	42	104	0	29	17340
2026-01-13 12:11:50.40	258.21	19.46	-34.1	-47.7	3.8	1.49e+00	0	42	104	0	29	17305
2026-01-13 12:11:53.42	258.93	19.56	-34.1	-47.7	3.8	1.49e+00	0	42	104	0	29	17303
2026-01-13 12:11:56.44	259.65	19.65	-34.1	-47.7	3.8	1.49e+00	0	43	104	0	29	17330
2026-01-13 12:11:59.46	260.38	19.74	-34.1	-47.7	3.8	1.49e+00	0	43	104	0	29	17368
2026-01-13 12:12:02.48	261.12	19.83	-34.1	-47.7	3.8	1.49e+00	0	42	104	0	29	17319
2026-01-13 12:12:05.50	261.85	19.91	-34.1	-47.7	3.8	1.49e+00	0	43	104	0	29	17346
2026-01-13 12:12:08.52	262.59	19.99	-34.1	-47.7	3.8	1.49e+00	0	43	104	0	29	17285
2026-01-13 12:12:11.54	263.34	20.06	-34.1	-47.7	3.8	1.49e+00	0	43	104	0	29	17292
2026-01-13 12:12:14.55	264.08	20.13	-34.1	-47.7	3.8	1.49e+00	0	42	104	0	29	17324
2026-01-13 12:12:17.57	264.84	20.19	-34.1	-47.7	3.8	1.49e+00	0	43	104	0	29	17335
2026-01-13 12:12:20.58	265.59	20.25	-34.1	-47.7	3.8	1.49e+00	0	42	104	0	29	17293
2026-01-13 12:12:23.59	266.34	20.30	-34.1	-47.7	3.8	1.49e+00	0	42	104	0	29	17325
2026-01-13 12:12:26.61	267.10	20.35	-34.1	-47.7	3.8	1.49e+00	0	43	104	0	29	17331
2026-01-13 12:12:29.62	267.86	20.39	-34.1	-47.7	3.8	1.49e+00	0	43	104	0	29	17266
2026-01-13 12:12:32.64	268.62	20.43	-34.1	-47.7	3.8	1.49e+00	0	42	104	0	29	17363
2026-01-13 12:12:35.67	269.39	20.46	-34.1	-47.7	3.8	1.49e+00	0	42	104	0	29	17264
2026-01-13 12:12:38.69	270.15	20.49	-34.1	-47.7	3.8	1.49e+00	0	42	104	0	29	17327
2026-01-13 12:12:41.71	270.92	20.51	-34.1	-47.7	3.8	1.49e+00	0	43	104	0	29	17343
2026-01-13 12:12:44.73	271.69	20.53	-34.1	-47.7	3.8	1.49e+00	0	43	104	0	29	17274
2026-01-13 12:12:47.75	272.46	20.55	-34.1	-47.7	3.8	1.49e+00	0	43	104	0	29	17289
2026-01-13 12:12:50.77	273.23	20.55	-34.1	-47.7	3.8	1.49e+00	0	42	104	0	29	17332
2026-01-13 12:12:53.78	273.99	20.56	-34.1	-47.7	3.8	1.49e+00	0	43	104	0	29	17382
2026-01-13 12:12:56.80	274.76	20.55	-34.1	-47.7	3.8	1.49e+00	0	43	104	0	29	17345
2026-01-13 12:12:59.82	275.53	20.55	-34.1	-47.7	3.8	1.49e+00	0	43	104	0	29	17335
2026-01-13 12:13:02.84	276.30	20.54	-34.1	-47.7	3.8	1.49e+00	0	43	104	0	29	17340
2026-01-13 12:13:05.86	277.07	20.52	-34.1	-47.7	3.8	1.49e+00	0	43	104	0	29	17280
2026-01-13 12:13:08.88	277.83	20.50	-34.1	-47.7	3.8	1.49e+00	0	43	104	0	29	17312
2026-01-13 12:13:11.90	278.60	20.47	-34.1	-47.7	3.8	1.49e+00	0	43	104	0	29	17261
2026-01-13 12:13:14.92	279.36	20.43	-34.1	-47.7	3.8	1.49e+00	0	43	104	0	29	17341
2026-01-13 12:13:17.94	280.13	20.40	-34.1	-47.7	3.8	1.49e+00	0	43	104	0	29	17305
2026-01-13 12:13:20.96	280.89	20.35	-34.1	-47.7	3.8	1.49e+00	0	42	104	0	29	17349
2026-01-13 12:13:23.99	281.65	20.31	-34.1	-47.7	3.8	1.49e+00	0	42	104	0	29	17309
2026-01-13 12:13:27.01	282.40	20.25	-34.1	-47.7	3.8	1.49e+00	0	43	104	0	29	17348
2026-01-13 12:13:30.03	283.15	20.20	-34.1	-47.7	3.8	1.49e+00	0	43	104	0	29	17279
2026-01-13 12:13:33.05	283.90	20.14	-34.1	-47.7	3.8	1.49e+00	0	43	104	0	29	17315
2026-01-13 12:13:36.08	284.65	20.07	-34.1	-47.7	3.8	1.49e+00	0	42	104	0	29	17335
2026-01-13 12:13:39.10	285.40	20.00	-34.1	-47.7	3.8	1.49e+00	0	42	104	0	29	17322
2026-01-13 12:13:42.12	286.14	19.92	-34.1	-47.7	3.8	1.49e+00	0	42	104	0	29	17367
2026-01-13 12:13:45.15	286.88	19.84	-34.1	-47.7	3.8	1.49e+00	0	43	104	0	29	17341
2026-01-13 12:13:48.17	287.61	19.76	-34.1	-47.8	3.8	1.49e+00	0	43	104	0	29	17379
2026-01-13 12:13:51.19	288.34	19.67	-34.1	-47.7	3.8	1.49e+00	0	43	104	0	29	17328
2026-01-13 12:13:54.21	289.06	19.58	-34.1	-47.7	3.8	1.49e+00	0	43	104	0	29	17304
2026-01-13 12:13:57.24	289.78	19.48	-34.1	-47.7	3.8	1.49e+00	0	43	104	0	29	17324
2026-01-13 12:14:00.25	290.49	19.38	-34.1	-47.7	3.8	1.49e+00	0	43	104	0	29	17254
2026-01-13 12:14:03.26	291.20	19.27	-34.1	-47.7	3.8	1.49e+00	0	43	104	0	29	17354
2026-01-13 12:14:06.28	291.91	19.17	-34.1	-47.7	3.8	1.49e+00	0	43	104	0	29	17306
2026-01-13 12:14:09.30	292.61	19.05	-34.1	-47.7	3.8	1.49e+00	0	43	104	0	29	17357
2026-01-13 12:14:12.32	293.30	18.94	-34.1	-47.8	3.8	1.49e+00	0	43	104	0	29	17366
2026-01-13 12:14:15.33	293.99	18.82	-34.1	-47.8	3.8	1.49e+00	0	43	104	0	29	17391
2026-01-13 12:14:18.35	294.67	18.70	-34.1	-47.7	3.8	1.49e+00	0	43	104	0	29	17299
2026-01-13 12:14:21.36	295.35	18.57	-34.1	-47.7	3.8	1.49e+00	0	43	104	0	29	17327
2026-01-13 12:14:24.39	296.03	18.44	-34.1	-47.7	3.8	1.49e+00	0	43	104	0	29	17362
2026-01-13 12:14:27.40	296.69	18.31	-34.1	-47.7	3.8	1.49e+00	0	42	104	0	29	17328
2026-01-13 12:14:30.42	297.35	18.17	-34.1	-47.7	3.8	1.49e+00	0	43	104	0	29	17336
2026-01-13 12:14:33.43	298.01	18.04	-34.1	-47.7	3.8	1.49e+00	0	43	104	0	29	17343
2026-01-13 12:14:36.46	298.66	17.89	-34.1	-47.7	3.8	1.49e+00	0	42	104	0	29	17313
2026-01-13 12:14:39.47	299.30	17.75	-34.1	-47.7	3.8	1.49e+00	0	43	104	0	29	17349
2026-01-13 12:14:42.49	299.94	17.60	-34.1	-47.7	3.8	1.49e+00	0	43	104	0	29	17373
2026-01-13 12:14:45.52	300.57	17.46	-34.1	-47.7	3.8	1.49e+00	0	43	104	0	29	17316
2026-01-13 12:14:48.52	301.20	17.31	-34.1	-47.8	3.8	1.49e+00	0	43	104	0	29	17384
2026-01-13 12:14:51.55	301.82	17.15	-34.1	-47.8	3.8	1.49e+00	0	43	104	0	29	17365
2026-01-13 12:14:54.56	302.43	17.00	-34.1	-47.7	3.8	1.49e+00	0	43	104	0	29	17310
2026-01-13 12:14:57.57	303.03	16.84	-34.1	-47.7	3.8	1.49e+00	0	43	104	0	29	17318
2026-01-13 12:15:00.58	303.63	16.68	-34.1	-47.7	3.8	1.49e+00	0	43	104	0	29	17373
2026-01-13 12:15:03.61	304.23	16.52	-34.1	-47.8	3.8	1.49e+00	0	43	104	0	29	17372
2026-01-13 12:15:06.62	304.82	16.36	-34.1	-47.7	3.8	1.49e+00	0	43	104	0	29	17346
2026-01-13 12:15:09.64	305.40	16.19	-34.1	-47.7	3.8	1.49e+00	0	43	104	0	29	17347
2026-01-13 12:15:12.65	305.97	16.02	-34.1	-47.7	3.8	1.49e+00	0	43	104	0	29	17346
2026-01-13 12:15:15.67	306.54	15.86	-34.1	-47.7	3.8	1.49e+00	0	43	104	0	29	17363
2026-01-13 12:15:18.68	307.10	15.69	-34.1	-47.7	3.8	1.49e+00	0	43	104	0	29	17325
2026-01-13 12:15:21.70	307.66	15.52	-34.1	-47.7	3.8	1.49e+00	0	42	104	0	29	17351
2026-01-13 12:15:24.72	308.21	15.35	-34.1	-47.7	3.8	1.49e+00	0	43	104	0	29	17304
2026-01-13 12:15:27.74	308.76	15.17	-34.1	-47.7	3.8	1.49e+00	0	43	104	0	29	17341
2026-01-13 12:15:30.76	309.30	15.00	-34.1	-47.7	3.8	1.49e+00	0	43	104	0	29	17367
2026-01-13 12:15:33.78	309.83	14.82	-34.1	-47.7	3.8	1.49e+00	0	43	104	0	29	17342
2026-01-13 12:15:36.80	310.36	14.65	-34.1	-47.7	3.8	1.49e+00	0	43	104	0	29	17376
2026-01-13 12:15:39.82	310.88	14.47	-34.1	-47.7	3.8	1.49e+00	0	42	104	0	29	17343
2026-01-13 12:15:42.84	311.39	14.29	-34.1	-47.7	3.8	1.49e+00	0	43	104	0	29	17338
2026-01-13 12:15:45.86	311.90	14.11	-34.1	-47.7	3.8	1.49e+00	0	42	104	0	29	17339
2026-01-13 12:15:48.87	312.40	13.93	-34.1	-47.7	3.8	1.49e+00	0	43	104	0	29	17315
2026-01-13 12:15:51.89	312.90	13.75	-34.1	-47.7	3.8	1.49e+00	0	43	104	0	29	17316
2026-01-13 12:15:54.89	313.39	13.57	-34.1	-47.7	3.8	1.49e+00	0	43	104	0	29	17324
2026-01-13 12:15:57.92	313.87	13.39	-34.1	-47.7	3.8	1.49e+00	0	43	104	0	29	17324
2026-01-13 12:16:00.94	314.35	13.21	-34.1	-47.7	3.8	1.49e+00	0	43	104	0	29	17310
2026-01-13 12:16:03.95	314.82	13.03	-34.1	-47.7	3.8	1.49e+00	0	43	104	0	29	17320
2026-01-13 12:16:06.97	315.29	12.84	-34.1	-47.7	3.8	1.49e+00	0	43	104	0	29	17323
2026-01-13 12:16:09.99	315.75	12.66	-34.1	-47.7	3.8	1.49e+00	0	43	104	0	29	17290
2026-01-13 12:16:13.01	316.21	12.48	-34.1	-47.8	3.8	1.49e+00	0	43	104	0	29	17373
2026-01-13 12:16:16.03	316.66	12.29	-34.1	-47.7	3.8	1.49e+00	0	42	104	0	29	17338
2026-01-13 12:16:19.05	317.11	12.11	-34.1	-47.7	3.8	1.49e+00	0	42	104	0	29	17326
2026-01-13 12:16:22.06	317.55	11.93	-34.1	-47.7	3.8	1.49e+00	0	43	104	0	29	17362
2026-01-13 12:16:25.08	317.98	11.74	-34.1	-47.7	3.8	1.49e+00	0	43	104	0	29	17389
2026-01-13 12:16:28.10	318.41	11.56	-34.1	-47.7	3.8	1.49e+00	0	43	104	0	29	17349
2026-01-13 12:16:31.12	318.84	11.38	-34.1	-47.7	3.8	1.49e+00	0	43	104	0	29	17341
2026-01-13 12:16:34.14	319.26	11.19	-34.1	-47.7	3.8	1.49e+00	0	43	104	0	29	17301
2026-01-13 12:16:37.16	319.67	11.01	-34.1	-47.7	3.8	1.49e+00	0	42	104	0	29	17337
2026-01-13 12:16:40.17	320.08	10.83	-34.1	-47.7	3.8	1.49e+00	0	43	104	0	29	17327
2026-01-13 12:16:43.17	320.48	10.64	-34.1	-47.7	3.8	1.49e+00	0	43	104	0	29	17360
2026-01-13 12:16:46.19	320.88	10.46	-34.1	-47.7	3.8	1.49e+00	0	43	104	0	29	17340
2026-01-13 12:16:49.20	321.28	10.28	-34.1	-47.8	3.8	1.49e+00	0	43	104	0	29	17380
2026-01-13 12:16:52.22	321.67	10.10	-34.1	-47.7	3.8	1.49e+00	0	43	104	0	29	17341
2026-01-13 12:16:55.24	322.05	9.91	-34.1	-47.7	3.8	1.49e+00	0	43	104	0	29	17314
2026-01-13 12:16:58.25	322.43	9.73	-34.1	-47.7	3.8	1.49e+00	0	42	104	0	29	17361
2026-01-13 12:17:01.28	322.81	9.55	-34.1	-47.7	3.8	1.49e+00	0	43	104	0	29	17324
2026-01-13 12:17:04.29	323.18	9.37	-34.1	-47.7	3.8	1.49e+00	0	43	104	0	29	17342
2026-01-13 12:17:07.31	323.55	9.18	-34.1	-47.7	3.8	1.49e+00	0	43	104	0	29	17378
2026-01-13 12:17:10.33	323.91	9.00	-34.1	-47.7	3.8	1.49e+00	0	43	104	0	29	17321
2026-01-13 12:17:13.35	324.27	8.82	-34.1	-47.7	3.8	1.49e+00	0	43	104	0	29	17343
2026-01-13 12:17:16.37	324.63	8.64	-34.1	-47.7	3.8	1.49e+00	0	43	104	0	29	17345
2026-01-13 12:17:19.39	324.98	8.46	-34.1	-47.7	3.8	1.49e+00	0	43	104	0	29	17323
2026-01-13 12:17:22.40	325.32	8.28	-34.1	-47.7	3.8	1.49e+00	0	42	104	0	29	17338
2026-01-13 12:17:25.42	325.66	8.10	-34.1	-47.7	3.8	1.49e+00	0	43	104	0	29	17327
2026-01-13 12:17:28.44	326.00	7.92	-34.1	-47.7	3.8	1.49e+00	0	43	104	0	29	17387
2026-01-13 12:17:31.46	326.34	7.75	-34.1	-47.7	3.8	1.49e+00	0	43	104	0	29	17312
2026-01-13 12:17:34.48	326.67	7.57	-34.1	-47.7	3.8	1.49e+00	0	43	104	0	29	17313
2026-01-13 12:17:37.51	327.00	7.39	-34.1	-47.7	3.8	1.49e+00	0	43	104	0	29	17313
2026-01-13 12:17:40.53	327.32	7.21	-34.1	-47.7	3.8	1.49e+00	0	43	104	0	29	17387
2026-01-13 12:17:43.55	327.64	7.04	-34.1	-47.7	3.8	1.49e+00	0	43	104	0	29	17295

#Closed at: 2026-01-13 12:17:44
#Recorded file [0 MB]: D:/data/31010_260113_150806.dat