passes_logs/2026/01/13/R2M6_AANII_01/R2M6_AANII_01__20260113_010738_AQUA_rec.log

#Pass ID: 20260113_010738_AQUA
#Satellite: AQUA
#Configuration: AQUA
#almurnet v.1.7.20240730
#Start time: 2026-01-13 01:07:39

#Version: 2.2.20231116
#Station: R2M6_AANII_01
#Location: 30.233357 lon 59.946436 lat
#TLE: 1 27424U 02022A   26012.29577270  .00001027  00000+0  21555-3 0  9995
#TLE: 2 27424  98.4078 338.6778 0002034  81.5885  29.6294 14.61817302260499

#Time	Az	El	Level	Level2	SNR	BER	BlckErr	Temp	State	Recorded	gain1	gain2
2026-01-13 01:07:39.00	25.07	7.03	-30.7	-36.6	5.2	7.07e-01	0	39	0	0	22	7100
2026-01-13 01:07:42.00	25.27	7.25	-31.1	-37.2	14.1	6.03e-01	0	39	0	1572864	22	7320
2026-01-13 01:07:45.01	25.47	7.49	-30.8	-36.2	15.0	6.02e-01	0	40	0	7340032	22	6676
2026-01-13 01:07:48.02	25.67	7.72	-30.6	-35.3	15.7	6.03e-01	0	40	0	13107200	22	6182
2026-01-13 01:07:51.03	25.88	7.96	-30.0	-33.9	16.9	6.03e-01	0	40	0	18350080	21	5646
2026-01-13 01:07:54.04	26.10	8.19	-29.9	-34.1	17.2	6.05e-01	0	40	0	24117248	20	5818
2026-01-13 01:07:57.06	26.31	8.44	-30.0	-34.3	17.0	6.03e-01	0	40	0	29884416	20	5906
2026-01-13 01:08:00.07	26.53	8.68	-29.8	-33.7	17.4	6.03e-01	0	40	0	35651584	20	5655
2026-01-13 01:08:03.08	26.76	8.92	-29.9	-34.1	17.2	6.05e-01	0	40	0	41418752	20	5829
2026-01-13 01:08:06.10	26.99	9.17	-30.0	-34.4	17.1	6.02e-01	0	40	0	46661632	20	5942
2026-01-13 01:08:09.11	27.22	9.42	-29.9	-33.5	17.3	6.05e-01	0	40	0	52428800	21	5454
2026-01-13 01:08:12.13	27.46	9.67	-30.0	-34.4	17.2	6.04e-01	0	40	0	58195968	20	5920
2026-01-13 01:08:15.15	27.70	9.93	-30.2	-34.2	17.0	6.05e-01	0	40	0	63963136	21	5716
2026-01-13 01:08:18.16	27.94	10.19	-29.8	-33.7	17.6	6.00e-01	0	40	0	69730304	20	5638
2026-01-13 01:08:21.18	28.19	10.45	-29.6	-33.0	18.1	6.03e-01	0	40	0	74973184	20	5314
2026-01-13 01:08:24.19	28.44	10.71	-29.3	-32.1	18.7	6.03e-01	0	40	0	80740352	20	4996
2026-01-13 01:08:27.20	28.70	10.97	-29.4	-33.0	18.5	6.03e-01	0	40	0	86507520	19	5418
2026-01-13 01:08:30.21	28.97	11.24	-29.4	-32.8	18.7	6.02e-01	0	41	0	92274688	19	5364
2026-01-13 01:08:33.22	29.23	11.51	-29.3	-32.5	18.9	6.03e-01	0	41	0	97517568	19	5237
2026-01-13 01:08:36.24	29.51	11.79	-29.4	-33.0	18.2	6.05e-01	0	41	0	103284736	19	5433
2026-01-13 01:08:39.26	29.79	12.07	-29.1	-32.2	18.7	6.05e-01	0	41	0	109051904	19	5144
2026-01-13 01:08:42.28	30.07	12.35	-29.3	-32.6	18.7	6.03e-01	0	41	0	114819072	19	5269
2026-01-13 01:08:45.28	30.36	12.63	-29.4	-33.1	18.3	6.03e-01	0	41	0	120061952	19	5468
2026-01-13 01:08:48.30	30.66	12.91	-29.0	-32.5	18.7	6.03e-01	0	41	0	125829120	18	5391
2026-01-13 01:08:51.32	30.96	13.20	-29.2	-32.4	18.9	6.05e-01	0	41	0	131596288	19	5192
2026-01-13 01:08:54.34	31.27	13.50	-29.3	-32.8	18.4	6.03e-01	0	41	0	137363456	19	5369
2026-01-13 01:08:57.34	31.58	13.79	-29.1	-32.2	18.9	6.01e-01	0	41	0	143130624	19	5134
2026-01-13 01:09:00.36	31.90	14.09	-28.9	-32.4	18.9	6.03e-01	0	41	0	148373504	18	5348
2026-01-13 01:09:03.38	32.23	14.39	-29.2	-32.4	18.9	6.02e-01	0	41	0	154140672	19	5173
2026-01-13 01:09:06.40	32.56	14.70	-29.2	-32.2	19.3	6.02e-01	0	41	0	159907840	19	5092
2026-01-13 01:09:09.41	32.91	15.01	-29.2	-32.3	19.1	6.03e-01	0	41	0	165675008	19	5142
2026-01-13 01:09:12.43	33.26	15.32	-29.0	-32.2	19.5	6.03e-01	0	41	0	171442176	18	5198
2026-01-13 01:09:15.45	33.61	15.64	-28.9	-32.0	19.7	6.01e-01	0	41	0	176685056	18	5142
2026-01-13 01:09:18.46	33.98	15.96	-28.8	-31.8	19.9	6.01e-01	0	41	0	182452224	18	5044
2026-01-13 01:09:21.47	34.35	16.28	-28.8	-31.7	19.8	6.01e-01	0	41	0	188219392	18	5018
2026-01-13 01:09:24.49	34.73	16.61	-28.9	-32.0	19.4	6.02e-01	0	41	0	193986560	18	5127
2026-01-13 01:09:27.51	35.12	16.94	-29.0	-32.2	19.7	6.04e-01	0	41	0	199753728	18	5194
2026-01-13 01:09:30.52	35.52	17.28	-28.9	-32.0	19.8	6.05e-01	0	41	0	204996608	18	5115
2026-01-13 01:09:33.54	35.93	17.62	-29.0	-31.6	19.8	6.02e-01	0	41	0	210763776	19	4853
2026-01-13 01:09:36.55	36.34	17.96	-28.9	-31.9	19.9	6.03e-01	0	41	0	216530944	18	5089
2026-01-13 01:09:39.56	36.77	18.30	-29.1	-32.3	19.7	6.02e-01	0	41	0	222298112	18	5204
2026-01-13 01:09:42.58	37.21	18.65	-28.9	-31.4	19.9	6.03e-01	0	41	0	227540992	19	4794
2026-01-13 01:09:45.59	37.66	19.01	-28.9	-31.3	20.0	6.04e-01	0	41	0	233308160	19	4759
2026-01-13 01:09:48.61	38.12	19.37	-29.0	-31.6	19.9	6.03e-01	0	41	0	239075328	19	4844
2026-01-13 01:09:51.62	38.59	19.73	-29.0	-31.6	19.9	6.03e-01	0	41	0	244842496	19	4843
2026-01-13 01:09:54.63	39.07	20.10	-28.9	-31.2	20.1	6.05e-01	0	41	0	250085376	19	4721
2026-01-13 01:09:57.65	39.56	20.47	-28.9	-31.4	20.1	6.03e-01	0	41	0	255852544	19	4774
2026-01-13 01:10:00.66	40.07	20.84	-29.0	-32.0	20.0	6.03e-01	0	41	0	261619712	18	5101
2026-01-13 01:10:03.68	40.59	21.22	-29.1	-32.3	19.8	6.02e-01	0	41	0	267386880	18	5191
2026-01-13 01:10:06.69	41.12	21.60	-29.1	-31.7	19.8	6.03e-01	0	41	0	273154048	19	4879
2026-01-13 01:10:09.70	41.66	21.99	-28.8	-31.7	20.2	6.02e-01	0	41	0	278396928	18	4981
2026-01-13 01:10:12.70	42.22	22.38	-28.9	-31.9	20.1	6.04e-01	0	41	0	284164096	18	5048
2026-01-13 01:10:15.72	42.80	22.77	-29.0	-31.9	20.1	6.03e-01	0	41	0	289931264	18	5064
2026-01-13 01:10:18.74	43.39	23.17	-28.9	-31.8	20.2	6.03e-01	0	41	0	295698432	18	5027
2026-01-13 01:10:21.76	44.00	23.58	-29.0	-31.6	20.0	6.04e-01	0	41	0	301465600	19	4846
2026-01-13 01:10:24.77	44.62	23.98	-28.9	-31.9	20.1	6.01e-01	0	42	0	306708480	18	5040
2026-01-13 01:10:27.79	45.26	24.39	-29.1	-32.1	20.1	6.01e-01	0	41	0	312475648	18	5130
2026-01-13 01:10:30.79	45.91	24.80	-29.1	-32.1	20.1	6.03e-01	0	42	0	318242816	18	5134
2026-01-13 01:10:33.81	46.58	25.22	-29.1	-31.8	20.0	6.04e-01	0	42	0	324009984	19	4886
2026-01-13 01:10:36.82	47.28	25.64	-29.0	-32.1	20.0	6.03e-01	0	42	0	329252864	18	5125
2026-01-13 01:10:39.84	47.99	26.06	-29.1	-31.8	20.0	6.02e-01	0	42	0	335020032	19	4889
2026-01-13 01:10:42.86	48.72	26.49	-29.4	-32.4	19.7	6.06e-01	0	42	0	340787200	19	5108
2026-01-13 01:10:45.87	49.47	26.92	-29.2	-31.9	19.9	6.02e-01	0	42	0	346554368	19	4936
2026-01-13 01:10:48.89	50.24	27.35	-29.1	-31.7	20.0	6.02e-01	0	42	0	351797248	19	4865
2026-01-13 01:10:51.91	51.04	27.78	-29.3	-32.3	19.8	6.02e-01	0	42	0	357564416	19	5049
2026-01-13 01:10:54.93	51.86	28.21	-29.1	-32.2	20.1	6.04e-01	0	41	0	363331584	18	5145
2026-01-13 01:10:57.95	52.70	28.65	-29.0	-31.5	20.3	6.04e-01	0	42	0	369098752	19	4793
2026-01-13 01:11:00.97	53.56	29.08	-29.0	-31.4	20.3	6.01e-01	0	42	0	374865920	19	4749
2026-01-13 01:11:03.99	54.45	29.52	-28.8	-31.1	20.5	6.02e-01	0	42	0	380108800	19	4643
2026-01-13 01:11:06.99	55.36	29.95	-29.1	-32.1	20.3	6.03e-01	0	42	0	385875968	18	5099
2026-01-13 01:11:10.02	56.30	30.39	-29.0	-31.8	20.3	6.02e-01	0	42	0	391643136	18	5000
2026-01-13 01:11:13.03	57.26	30.82	-29.0	-31.5	20.3	6.02e-01	0	42	0	397410304	19	4771
2026-01-13 01:11:16.04	58.25	31.25	-29.2	-32.0	20.0	6.03e-01	0	42	0	403177472	19	4952
2026-01-13 01:11:19.05	59.27	31.68	-29.2	-32.0	20.0	6.03e-01	0	42	0	408420352	19	4935
2026-01-13 01:11:22.06	60.31	32.11	-29.0	-32.0	20.3	6.03e-01	0	42	0	414187520	18	5069
2026-01-13 01:11:25.07	61.38	32.53	-29.0	-31.9	20.4	6.06e-01	0	41	0	419954688	18	5021
2026-01-13 01:11:28.09	62.48	32.95	-29.1	-31.8	20.2	6.02e-01	0	42	0	425721856	19	4870
2026-01-13 01:11:31.09	63.61	33.36	-29.1	-31.6	20.3	6.04e-01	0	41	0	430964736	19	4798
2026-01-13 01:11:34.10	64.76	33.76	-29.0	-31.3	20.4	6.03e-01	0	42	0	436731904	19	4701
2026-01-13 01:11:37.12	65.96	34.16	-29.2	-31.9	20.2	6.02e-01	0	42	0	442499072	19	4905
2026-01-13 01:11:40.14	67.18	34.56	-29.4	-32.3	19.9	6.00e-01	0	42	0	448266240	19	5041
2026-01-13 01:11:43.16	68.43	34.94	-29.3	-32.1	20.0	6.03e-01	0	42	0	454033408	19	4988
2026-01-13 01:11:46.18	69.71	35.31	-29.7	-32.6	19.4	6.03e-01	0	42	0	459276288	20	5042
2026-01-13 01:11:49.20	71.02	35.67	-29.4	-31.9	19.8	6.02e-01	0	42	0	465043456	20	4813
2026-01-13 01:11:52.22	72.36	36.02	-29.1	-31.1	20.4	6.03e-01	0	42	0	470810624	20	4529
2026-01-13 01:11:55.23	73.72	36.35	-29.4	-31.8	19.8	6.04e-01	0	42	0	476577792	20	4780
2026-01-13 01:11:58.25	75.12	36.67	-29.2	-31.5	20.1	6.02e-01	0	42	0	482344960	20	4659
2026-01-13 01:12:01.27	76.54	36.98	-29.0	-30.9	20.4	6.02e-01	0	42	0	487587840	20	4473
2026-01-13 01:12:04.28	77.99	37.27	-29.1	-31.2	20.2	6.05e-01	0	42	0	493355008	20	4586
2026-01-13 01:12:07.29	79.46	37.53	-29.2	-31.9	20.2	6.02e-01	0	42	0	499122176	19	4909
2026-01-13 01:12:10.31	80.96	37.79	-29.2	-31.8	20.3	6.00e-01	0	42	0	504889344	19	4866
2026-01-13 01:12:13.32	82.47	38.02	-29.2	-31.9	20.2	6.01e-01	0	42	0	510656512	19	4901
2026-01-13 01:12:16.33	84.01	38.23	-29.2	-31.8	20.3	6.01e-01	0	42	0	515899392	19	4850
2026-01-13 01:12:19.35	85.58	38.42	-29.3	-32.0	20.1	6.02e-01	0	42	0	521666560	19	4949
2026-01-13 01:12:22.37	87.16	38.59	-29.2	-31.9	20.3	6.04e-01	0	42	0	527433728	19	4884
2026-01-13 01:12:25.39	88.75	38.73	-29.2	-31.8	20.3	6.04e-01	0	42	0	533200896	19	4879
2026-01-13 01:12:28.40	90.36	38.85	-29.2	-31.8	20.3	6.03e-01	0	42	0	538968064	19	4880
2026-01-13 01:12:31.42	91.98	38.95	-29.1	-31.6	20.5	6.02e-01	0	42	0	544210944	19	4810
2026-01-13 01:12:34.44	93.61	39.02	-29.3	-32.1	20.1	6.04e-01	0	42	0	549978112	19	4956
2026-01-13 01:12:37.44	95.23	39.06	-29.3	-32.2	20.1	6.05e-01	0	42	0	555745280	19	5013
2026-01-13 01:12:40.46	96.87	39.09	-29.4	-32.4	20.0	6.03e-01	0	42	0	561512448	19	5062
2026-01-13 01:12:43.47	98.51	39.08	-29.4	-32.5	19.9	6.03e-01	0	42	0	566755328	19	5106
2026-01-13 01:12:46.49	100.15	39.05	-29.5	-32.6	19.8	6.03e-01	0	42	0	572522496	19	5145
2026-01-13 01:12:49.50	101.78	39.00	-29.3	-32.1	20.1	6.04e-01	0	42	0	578289664	19	4981
2026-01-13 01:12:52.52	103.40	38.92	-29.5	-32.7	19.7	6.05e-01	0	42	0	584056832	19	5201
2026-01-13 01:12:55.54	105.02	38.81	-29.4	-31.9	19.9	6.02e-01	0	42	0	589299712	20	4793
2026-01-13 01:12:58.55	106.62	38.68	-29.3	-31.6	20.1	6.03e-01	0	42	0	595066880	20	4704
2026-01-13 01:13:01.57	108.22	38.53	-29.4	-31.9	19.9	6.03e-01	0	42	0	600834048	20	4784
2026-01-13 01:13:04.59	109.79	38.35	-29.3	-32.2	20.1	6.04e-01	0	42	0	606601216	19	5005
2026-01-13 01:13:07.60	111.35	38.16	-29.3	-31.9	20.3	6.02e-01	0	42	0	612368384	19	4912
2026-01-13 01:13:10.62	112.89	37.94	-29.3	-32.0	20.2	6.03e-01	0	42	0	617611264	19	4940
2026-01-13 01:13:13.65	114.41	37.69	-29.3	-32.0	20.2	6.03e-01	0	42	0	623378432	19	4941
2026-01-13 01:13:16.66	115.90	37.44	-29.6	-32.8	19.7	6.00e-01	0	42	0	629145600	19	5225
2026-01-13 01:13:19.68	117.37	37.16	-29.3	-31.7	20.0	6.04e-01	0	42	0	634912768	20	4735
2026-01-13 01:13:22.69	118.81	36.86	-29.5	-32.0	19.8	6.03e-01	0	42	0	640679936	20	4831
2026-01-13 01:13:25.71	120.23	36.55	-29.2	-31.5	20.1	6.02e-01	0	42	0	645922816	20	4651
2026-01-13 01:13:28.74	121.62	36.22	-29.0	-30.9	20.5	6.05e-01	0	42	0	651689984	20	4480
2026-01-13 01:13:31.75	122.98	35.88	-29.1	-31.5	20.5	6.03e-01	0	42	0	657457152	19	4775
2026-01-13 01:13:34.77	124.31	35.53	-29.1	-31.7	20.4	6.03e-01	0	42	0	663224320	19	4831
2026-01-13 01:13:37.79	125.61	35.16	-28.9	-31.2	20.7	6.03e-01	0	42	0	668991488	19	4657
2026-01-13 01:13:40.82	126.89	34.78	-28.7	-30.6	20.9	6.04e-01	0	42	0	674234368	19	4496
2026-01-13 01:13:43.84	128.13	34.40	-28.8	-30.7	20.9	6.04e-01	0	42	0	680001536	19	4517
2026-01-13 01:13:46.86	129.34	34.00	-28.8	-30.8	20.8	6.03e-01	0	42	0	685768704	19	4532
2026-01-13 01:13:49.88	130.53	33.59	-28.8	-30.9	20.8	6.02e-01	0	42	0	691535872	19	4570
2026-01-13 01:13:52.89	131.68	33.18	-29.0	-31.5	20.5	6.01e-01	0	42	0	697303040	19	4767
2026-01-13 01:13:55.91	132.80	32.77	-28.6	-30.5	20.9	6.03e-01	0	42	0	702545920	19	4496
2026-01-13 01:13:58.92	133.89	32.35	-28.4	-30.5	21.2	6.03e-01	0	42	0	708313088	18	4589
2026-01-13 01:14:01.94	134.96	31.92	-28.4	-30.5	21.2	6.03e-01	0	42	0	714080256	18	4567
2026-01-13 01:14:04.95	136.00	31.49	-28.4	-30.5	21.2	6.06e-01	0	42	0	719847424	18	4574
2026-01-13 01:14:07.97	137.01	31.06	-28.5	-30.6	21.2	6.02e-01	0	42	0	725614592	18	4591
2026-01-13 01:14:11.00	138.00	30.62	-28.6	-30.9	20.9	6.00e-01	0	42	0	730857472	18	4693
2026-01-13 01:14:14.01	138.95	30.18	-28.5	-31.3	21.1	6.04e-01	0	42	0	736624640	17	4933
2026-01-13 01:14:17.03	139.88	29.74	-28.9	-31.7	20.6	6.03e-01	0	42	0	742391808	18	4956
2026-01-13 01:14:20.04	140.78	29.31	-29.0	-31.9	20.4	6.01e-01	0	42	0	748158976	18	5020
2026-01-13 01:14:23.07	141.67	28.87	-29.0	-31.5	20.3	6.03e-01	0	42	0	753926144	19	4789
2026-01-13 01:14:26.09	142.53	28.43	-28.7	-31.3	20.7	6.03e-01	0	42	0	759169024	18	4837
2026-01-13 01:14:29.11	143.36	27.99	-29.1	-32.1	20.2	6.01e-01	0	42	0	764936192	18	5108
2026-01-13 01:14:32.13	144.17	27.55	-29.1	-32.2	20.2	6.02e-01	0	42	0	770703360	18	5130
2026-01-13 01:14:35.15	144.96	27.12	-28.9	-31.8	20.4	6.04e-01	0	42	0	776470528	18	4989
2026-01-13 01:14:38.17	145.73	26.69	-29.1	-31.7	20.1	6.02e-01	0	42	0	782237696	19	4856
2026-01-13 01:14:41.18	146.47	26.26	-29.4	-32.3	19.8	6.01e-01	0	42	0	787480576	19	5076
2026-01-13 01:14:44.19	147.20	25.83	-29.3	-32.2	19.8	6.03e-01	0	42	0	793247744	19	5017
2026-01-13 01:14:47.20	147.90	25.41	-29.3	-32.1	19.9	6.03e-01	0	42	0	799014912	19	5013
2026-01-13 01:14:50.22	148.59	24.99	-29.3	-32.2	19.8	6.04e-01	0	42	0	804782080	19	5044
2026-01-13 01:14:53.23	149.25	24.57	-29.3	-32.2	19.8	6.03e-01	0	42	0	810024960	19	5037
2026-01-13 01:14:56.25	149.91	24.15	-29.1	-31.8	20.0	6.03e-01	0	42	0	815792128	19	4888
2026-01-13 01:14:59.27	150.54	23.74	-29.2	-32.0	19.9	6.04e-01	0	42	0	821559296	19	4962
2026-01-13 01:15:02.28	151.16	23.34	-29.1	-31.9	19.9	6.02e-01	0	42	0	827326464	19	4936
2026-01-13 01:15:05.29	151.76	22.93	-29.3	-32.3	19.7	6.02e-01	0	42	0	832569344	19	5068
2026-01-13 01:15:08.31	152.34	22.53	-29.3	-32.3	19.5	6.04e-01	0	42	0	838336512	19	5107
2026-01-13 01:15:11.33	152.91	22.14	-29.1	-31.9	19.8	6.02e-01	0	42	0	844103680	19	4951
2026-01-13 01:15:14.34	153.47	21.75	-29.4	-32.6	19.4	6.04e-01	0	42	0	849870848	19	5190
2026-01-13 01:15:17.35	154.01	21.36	-29.3	-32.2	19.6	6.03e-01	0	42	0	855638016	19	5072
2026-01-13 01:15:20.37	154.54	20.97	-29.1	-32.0	19.7	6.04e-01	0	42	0	860880896	19	5005
2026-01-13 01:15:23.39	155.05	20.59	-29.0	-32.2	19.9	6.01e-01	0	42	0	866648064	18	5203
2026-01-13 01:15:26.40	155.55	20.22	-29.0	-32.1	19.9	6.04e-01	0	42	0	872415232	18	5141
2026-01-13 01:15:29.41	156.04	19.85	-29.1	-31.9	19.8	6.02e-01	0	42	0	878182400	19	4957
2026-01-13 01:15:32.43	156.52	19.48	-29.0	-31.7	20.0	6.04e-01	0	42	0	883949568	19	4865
2026-01-13 01:15:35.45	156.98	19.12	-29.2	-32.4	19.7	6.07e-01	0	42	0	889192448	18	5209
2026-01-13 01:15:38.46	157.44	18.76	-29.2	-32.0	17.5	6.08e-01	0	42	0	894959616	19	4997
2026-01-13 01:15:41.48	157.88	18.40	-29.3	-32.4	18.0	6.04e-01	0	42	0	900726784	19	5134
2026-01-13 01:15:44.49	158.32	18.05	-29.1	-32.3	19.8	6.02e-01	0	42	0	906493952	18	5200
2026-01-13 01:15:47.52	158.74	17.70	-29.2	-32.1	19.6	6.03e-01	0	42	0	912261120	19	5024
2026-01-13 01:15:50.53	159.15	17.36	-29.0	-32.1	19.8	6.02e-01	0	42	0	917504000	18	5157
2026-01-13 01:15:53.55	159.56	17.02	-29.1	-31.9	19.6	6.03e-01	0	42	0	923271168	19	4950
2026-01-13 01:15:56.58	159.95	16.68	-29.2	-32.0	19.6	6.03e-01	0	42	0	929038336	19	5011
2026-01-13 01:15:59.60	160.34	16.35	-29.1	-31.9	19.6	6.05e-01	0	42	0	934805504	19	4985
2026-01-13 01:16:02.62	160.72	16.02	-29.1	-31.9	19.6	6.03e-01	0	42	0	940572672	19	4978
2026-01-13 01:16:05.64	161.09	15.70	-28.9	-31.9	19.8	6.04e-01	0	42	0	945815552	18	5096
2026-01-13 01:16:08.65	161.45	15.38	-28.8	-31.9	19.9	6.04e-01	0	42	0	951582720	18	5114
2026-01-13 01:16:11.67	161.80	15.06	-28.8	-31.9	19.8	6.05e-01	0	42	0	957349888	18	5141
2026-01-13 01:16:14.68	162.15	14.75	-28.8	-32.0	19.7	6.04e-01	0	42	0	963117056	18	5197
2026-01-13 01:16:17.70	162.48	14.44	-28.9	-32.2	19.5	6.04e-01	0	42	0	968359936	18	5256
2026-01-13 01:16:20.71	162.81	14.13	-29.1	-32.1	19.2	6.03e-01	0	42	0	974127104	19	5067
2026-01-13 01:16:23.72	163.14	13.83	-29.1	-32.0	19.3	6.04e-01	0	42	0	979894272	19	5001
2026-01-13 01:16:26.75	163.46	13.53	-29.1	-32.5	19.2	6.04e-01	0	42	0	985661440	18	5308
2026-01-13 01:16:29.76	163.77	13.23	-29.0	-32.3	19.5	6.04e-01	0	42	0	991428608	18	5266
2026-01-13 01:16:32.78	164.07	12.94	-29.0	-32.3	19.5	6.02e-01	0	42	0	996671488	18	5263
2026-01-13 01:16:35.80	164.37	12.65	-29.2	-32.3	19.2	6.04e-01	0	42	0	1002438656	19	5154
2026-01-13 01:16:38.81	164.66	12.36	-29.1	-32.1	19.3	6.06e-01	0	42	0	1008205824	19	5075
2026-01-13 01:16:41.83	164.95	12.08	-29.2	-32.3	19.2	6.02e-01	0	42	0	1013972992	19	5161
2026-01-13 01:16:44.84	165.23	11.80	-29.1	-32.2	19.3	6.00e-01	0	42	0	1019215872	19	5100
2026-01-13 01:16:47.85	165.50	11.52	-29.2	-32.4	19.1	6.04e-01	0	42	0	1024983040	19	5202
2026-01-13 01:16:50.86	165.77	11.25	-29.2	-32.4	19.1	6.01e-01	0	42	0	1030750208	19	5208
2026-01-13 01:16:53.89	166.04	10.98	-29.3	-32.6	19.0	6.04e-01	0	42	0	1036517376	19	5269
2026-01-13 01:16:56.91	166.30	10.71	-29.3	-32.7	18.8	6.03e-01	0	42	0	1042284544	19	5331
2026-01-13 01:16:59.93	166.55	10.44	-29.5	-33.2	18.5	6.03e-01	0	42	0	1047527424	19	5506
2026-01-13 01:17:02.93	166.80	10.18	-29.4	-33.1	17.8	6.09e-01	0	42	0	1053294592	19	5494
2026-01-13 01:17:05.95	167.05	9.92	-29.5	-33.2	16.7	6.06e-01	0	42	0	1059061760	19	5503
2026-01-13 01:17:08.97	167.29	9.66	-29.6	-33.1	18.1	6.03e-01	0	42	0	1064828928	20	5362
2026-01-13 01:17:11.98	167.53	9.41	-29.6	-33.0	18.1	6.02e-01	0	42	0	1070596096	20	5358
2026-01-13 01:17:14.99	167.76	9.15	-29.8	-33.7	17.7	6.01e-01	0	42	0	1075838976	20	5634
2026-01-13 01:17:18.02	167.99	8.90	-29.8	-33.8	17.7	6.03e-01	0	42	0	1081606144	20	5662
2026-01-13 01:17:21.03	168.21	8.65	-29.9	-33.8	17.6	6.02e-01	0	42	0	1087373312	20	5701
2026-01-13 01:17:24.05	168.43	8.41	-29.6	-33.3	17.9	6.02e-01	0	42	0	1093140480	20	5486
2026-01-13 01:17:27.07	168.65	8.16	-29.6	-33.3	17.9	6.03e-01	0	42	0	1098907648	20	5491
2026-01-13 01:17:30.10	168.87	7.92	-29.6	-33.2	17.9	6.02e-01	0	42	0	1104150528	20	5464
2026-01-13 01:17:33.12	169.08	7.68	-29.7	-33.6	17.6	6.04e-01	0	42	0	1109917696	20	5627
2026-01-13 01:17:36.12	169.28	7.45	-29.7	-33.5	17.7	6.02e-01	0	42	0	1115684864	20	5587
2026-01-13 01:17:39.15	169.48	7.21	-29.7	-33.5	17.7	6.00e-01	0	42	0	1121452032	20	5565
2026-01-13 01:17:42.16	169.68	6.98	-33.1	-51.8	3.8	7.45e-01	0	42	104	1124073472	27	30958

#Closed at: 2026-01-13 01:17:43
#Recorded file [1124 MB]: D:/data/31010_260113_040740.dat