passes_logs/2026/01/13/R2M6_AANII_01/R2M6_AANII_01__20260113_104419_AQUA_rec.log

#Pass ID: 20260113_104419_AQUA
#Satellite: AQUA
#Configuration: AQUA
#almurnet v.1.7.20240730
#Start time: 2026-01-13 10:44:21

#Version: 2.2.20231116
#Station: R2M6_AANII_01
#Location: 30.233357 lon 59.946436 lat
#TLE: 1 27424U 02022A   26012.29577270  .00001027  00000+0  21555-3 0  9995
#TLE: 2 27424  98.4078 338.6778 0002034  81.5885  29.6294 14.61817302260499

#Time	Az	El	Level	Level2	SNR	BER	BlckErr	Temp	State	Recorded	gain1	gain2
2026-01-13 10:44:21.79	116.60	7.13	-34.4	-53.4	3.8	7.46e-01	0	40	0	0	30	31955
2026-01-13 10:44:24.81	116.35	7.36	-34.4	-53.4	3.8	7.46e-01	0	40	104	0	30	31957
2026-01-13 10:44:27.84	116.08	7.58	-34.4	-53.4	3.8	7.48e-01	0	40	104	0	30	31976
2026-01-13 10:44:30.87	115.82	7.81	-34.4	-53.4	3.8	7.46e-01	0	40	104	0	30	32005
2026-01-13 10:44:33.89	115.55	8.04	-34.4	-53.4	3.8	7.45e-01	0	40	104	0	30	31989
2026-01-13 10:44:36.91	115.28	8.27	-34.4	-53.4	3.8	7.48e-01	0	40	104	0	30	31967
2026-01-13 10:44:39.93	115.00	8.50	-34.4	-53.3	3.8	7.47e-01	0	40	104	0	30	31949
2026-01-13 10:44:42.93	114.72	8.73	-34.4	-53.4	3.8	7.47e-01	0	41	104	0	30	32007
2026-01-13 10:44:45.95	114.43	8.97	-34.4	-53.3	3.8	7.43e-01	0	41	104	0	30	31872
2026-01-13 10:44:48.97	114.13	9.20	-34.4	-53.4	3.8	7.46e-01	0	41	104	0	30	32016
2026-01-13 10:44:51.99	113.84	9.44	-34.4	-53.3	3.8	7.49e-01	0	41	104	0	30	31945
2026-01-13 10:44:55.00	113.53	9.68	-34.4	-53.4	3.8	7.43e-01	0	41	104	0	30	31985
2026-01-13 10:44:58.02	113.22	9.92	-34.4	-53.4	3.8	7.48e-01	0	41	104	0	30	31939
2026-01-13 10:45:01.04	112.91	10.17	-34.4	-53.4	3.8	7.46e-01	0	41	104	0	30	31924
2026-01-13 10:45:04.06	112.58	10.41	-34.4	-53.4	3.8	7.43e-01	0	41	104	0	30	32054
2026-01-13 10:45:07.08	112.26	10.66	-34.4	-53.4	3.8	7.47e-01	0	41	104	0	30	32032
2026-01-13 10:45:10.09	111.92	10.91	-34.4	-53.4	3.8	7.47e-01	0	41	104	0	30	32037
2026-01-13 10:45:13.11	111.58	11.16	-34.4	-53.4	3.8	7.44e-01	0	41	104	0	30	31962
2026-01-13 10:45:16.12	111.24	11.42	-34.4	-53.4	3.8	7.45e-01	0	41	104	0	30	32042
2026-01-13 10:45:19.15	110.88	11.67	-34.4	-53.4	3.8	7.43e-01	0	41	104	0	30	31949
2026-01-13 10:45:22.17	110.52	11.93	-34.4	-53.4	3.8	7.45e-01	0	41	104	0	30	31970
2026-01-13 10:45:25.19	110.15	12.19	-34.4	-53.4	3.8	7.47e-01	0	41	104	0	30	32083
2026-01-13 10:45:28.21	109.78	12.45	-34.4	-53.4	3.8	7.45e-01	0	41	104	0	30	32020
2026-01-13 10:45:31.24	109.39	12.72	-34.4	-53.4	3.8	7.43e-01	0	42	104	0	30	32052
2026-01-13 10:45:34.25	109.01	12.98	-34.4	-53.4	3.8	7.47e-01	0	41	104	0	30	31987
2026-01-13 10:45:37.26	108.61	13.25	-34.4	-53.4	3.8	7.45e-01	0	42	104	0	30	32048
2026-01-13 10:45:40.28	108.20	13.52	-34.4	-53.4	3.8	7.44e-01	0	42	104	0	30	31963
2026-01-13 10:45:43.30	107.79	13.79	-34.4	-53.4	3.8	7.48e-01	0	42	104	0	30	32030
2026-01-13 10:45:46.32	107.37	14.06	-34.4	-53.4	3.8	7.45e-01	0	42	104	0	30	31997
2026-01-13 10:45:49.34	106.94	14.34	-34.4	-53.4	3.8	7.47e-01	0	42	104	0	30	31942
2026-01-13 10:45:52.36	106.50	14.62	-34.4	-53.4	3.8	7.46e-01	0	42	104	0	30	31981
2026-01-13 10:45:55.38	106.05	14.90	-34.4	-53.4	3.8	7.43e-01	0	42	104	0	30	32040
2026-01-13 10:45:58.40	105.59	15.18	-34.4	-53.4	3.8	7.45e-01	0	42	104	0	30	32010
2026-01-13 10:46:01.41	105.13	15.46	-34.4	-53.4	3.8	7.47e-01	0	42	104	0	30	32010
2026-01-13 10:46:04.43	104.65	15.74	-34.4	-53.4	3.8	7.45e-01	0	42	104	0	30	32004
2026-01-13 10:46:07.45	104.16	16.03	-34.4	-53.4	3.8	7.44e-01	0	42	104	0	30	31989
2026-01-13 10:46:10.46	103.67	16.32	-34.4	-53.4	3.8	7.44e-01	0	42	104	0	30	32115
2026-01-13 10:46:13.48	103.16	16.61	-34.4	-53.4	3.8	7.47e-01	0	42	104	0	30	32099
2026-01-13 10:46:16.49	102.65	16.90	-34.4	-53.4	3.8	7.45e-01	0	42	104	0	30	32013
2026-01-13 10:46:19.51	102.12	17.19	-34.4	-53.4	3.8	7.48e-01	0	42	104	0	30	32024
2026-01-13 10:46:22.53	101.58	17.48	-34.4	-53.4	3.8	7.47e-01	0	42	104	0	30	32008
2026-01-13 10:46:25.54	101.03	17.78	-34.4	-53.4	3.8	7.41e-01	0	42	104	0	30	32131
2026-01-13 10:46:28.55	100.47	18.07	-34.4	-53.4	3.8	7.45e-01	0	42	104	0	30	32108
2026-01-13 10:46:31.57	99.89	18.37	-34.4	-53.4	3.8	7.47e-01	0	42	104	0	30	31944
2026-01-13 10:46:34.60	99.30	18.67	-34.4	-53.4	3.8	7.43e-01	0	42	104	0	30	32058
2026-01-13 10:46:37.62	98.70	18.97	-34.4	-53.4	3.8	7.47e-01	0	42	104	0	30	31989
2026-01-13 10:46:40.63	98.09	19.27	-34.4	-53.4	3.8	7.44e-01	0	42	104	0	30	32034
2026-01-13 10:46:43.65	97.47	19.57	-34.4	-53.4	3.8	7.46e-01	0	42	104	0	30	31993
2026-01-13 10:46:46.67	96.83	19.88	-34.4	-53.4	3.8	7.46e-01	0	42	104	0	30	32044
2026-01-13 10:46:49.68	96.18	20.18	-34.4	-53.4	3.8	7.45e-01	0	42	104	0	30	32005
2026-01-13 10:46:52.69	95.52	20.48	-34.4	-53.4	3.8	7.46e-01	0	42	104	0	30	32048
2026-01-13 10:46:55.71	94.84	20.78	-34.4	-53.4	3.8	7.44e-01	0	42	104	0	30	32019
2026-01-13 10:46:58.74	94.14	21.08	-34.4	-53.4	3.8	7.46e-01	0	42	104	0	30	31886
2026-01-13 10:47:01.74	93.44	21.38	-34.4	-53.4	3.8	7.43e-01	0	42	104	0	30	31933
2026-01-13 10:47:04.76	92.71	21.68	-34.4	-53.4	3.8	7.44e-01	0	42	104	0	30	32092
2026-01-13 10:47:07.79	91.97	21.99	-34.4	-53.4	3.8	7.47e-01	0	42	104	0	30	31955
2026-01-13 10:47:10.81	91.22	22.28	-34.4	-53.4	3.8	7.41e-01	0	42	104	0	30	31961
2026-01-13 10:47:13.83	90.45	22.58	-34.4	-53.4	3.8	7.45e-01	0	42	104	0	30	31889
2026-01-13 10:47:16.85	89.67	22.88	-34.4	-53.4	3.8	7.45e-01	0	42	104	0	30	31927
2026-01-13 10:47:19.87	88.87	23.17	-34.4	-53.4	3.8	7.45e-01	0	42	104	0	30	32017
2026-01-13 10:47:22.90	88.05	23.47	-34.4	-53.4	3.8	7.45e-01	0	42	104	0	30	32017
2026-01-13 10:47:25.92	87.22	23.75	-34.4	-53.4	3.8	7.47e-01	0	42	104	0	30	32038
2026-01-13 10:47:28.95	86.37	24.04	-34.4	-53.4	3.8	7.47e-01	0	42	104	0	30	31923
2026-01-13 10:47:31.97	85.50	24.32	-34.4	-53.4	3.8	7.48e-01	0	42	104	0	30	31977
2026-01-13 10:47:34.99	84.62	24.60	-34.4	-53.4	3.8	7.47e-01	0	42	104	0	30	31954
2026-01-13 10:47:38.02	83.72	24.88	-34.4	-53.4	3.8	7.44e-01	0	42	104	0	30	32007
2026-01-13 10:47:41.04	82.81	25.15	-34.4	-53.4	3.8	7.48e-01	0	42	104	0	30	32020
2026-01-13 10:47:44.06	81.88	25.41	-34.4	-53.4	3.8	7.44e-01	0	42	104	0	30	31950
2026-01-13 10:47:47.08	80.93	25.67	-34.4	-53.4	3.8	7.49e-01	0	42	104	0	30	31996
2026-01-13 10:47:50.10	79.97	25.93	-34.4	-53.3	3.8	7.43e-01	0	42	104	0	30	31848
2026-01-13 10:47:53.13	78.99	26.18	-34.4	-53.4	3.8	7.47e-01	0	42	104	0	30	31978
2026-01-13 10:47:56.15	77.99	26.42	-34.4	-53.4	3.8	7.46e-01	0	42	104	0	30	31986
2026-01-13 10:47:59.17	76.98	26.65	-34.4	-53.4	3.8	7.44e-01	0	42	104	0	30	31969
2026-01-13 10:48:02.19	75.96	26.88	-34.4	-53.4	3.8	7.45e-01	0	42	104	0	30	32021
2026-01-13 10:48:05.20	74.92	27.10	-34.4	-53.4	3.8	7.46e-01	0	42	104	0	30	32051
2026-01-13 10:48:08.23	73.86	27.31	-34.4	-53.4	3.8	7.44e-01	0	42	104	0	30	32058
2026-01-13 10:48:11.24	72.80	27.51	-34.4	-53.4	3.8	7.47e-01	0	42	104	0	30	32027
2026-01-13 10:48:14.26	71.71	27.70	-34.4	-53.4	3.8	7.45e-01	0	42	104	0	30	32052
2026-01-13 10:48:17.28	70.62	27.89	-34.4	-53.4	3.8	7.47e-01	0	42	104	0	30	32102
2026-01-13 10:48:20.28	69.52	28.06	-34.4	-53.4	3.8	7.43e-01	0	42	104	0	30	32046
2026-01-13 10:48:23.30	68.39	28.22	-34.4	-53.4	3.8	7.47e-01	0	42	104	0	30	32058
2026-01-13 10:48:26.33	67.26	28.37	-34.4	-53.4	3.8	7.45e-01	0	42	104	0	30	32050
2026-01-13 10:48:29.36	66.11	28.51	-34.4	-53.4	3.8	7.44e-01	0	42	104	0	30	32010
2026-01-13 10:48:32.38	64.96	28.64	-34.4	-53.4	3.8	7.42e-01	0	42	104	0	30	31990
2026-01-13 10:48:35.40	63.80	28.76	-34.4	-53.4	3.8	7.42e-01	0	42	104	0	30	32082
2026-01-13 10:48:38.41	62.63	28.86	-34.4	-53.4	3.8	7.42e-01	0	42	104	0	30	32088
2026-01-13 10:48:41.43	61.45	28.95	-34.4	-53.4	3.8	7.44e-01	0	42	104	0	30	32000
2026-01-13 10:48:44.45	60.27	29.03	-34.4	-53.4	3.8	7.43e-01	0	42	104	0	30	31963
2026-01-13 10:48:47.48	59.08	29.09	-34.4	-53.4	3.8	7.47e-01	0	42	104	0	30	31977
2026-01-13 10:48:50.49	57.89	29.14	-34.4	-53.4	3.8	7.43e-01	0	42	104	0	30	31997
2026-01-13 10:48:53.52	56.69	29.18	-34.4	-53.4	3.8	7.44e-01	0	42	104	0	30	32052
2026-01-13 10:48:56.54	55.49	29.20	-34.4	-53.4	3.8	7.44e-01	0	42	104	0	30	32012
2026-01-13 10:48:59.57	54.28	29.22	-34.4	-53.4	3.8	7.45e-01	0	42	104	0	30	31934
2026-01-13 10:49:02.59	53.08	29.21	-34.4	-53.4	3.8	7.47e-01	0	42	104	0	30	31968
2026-01-13 10:49:05.61	51.88	29.20	-34.4	-53.4	3.8	7.46e-01	0	42	104	0	30	31970
2026-01-13 10:49:08.63	50.69	29.17	-34.4	-53.4	3.8	7.43e-01	0	42	104	0	30	32048
2026-01-13 10:49:11.65	49.49	29.12	-34.4	-53.4	3.8	7.43e-01	0	42	104	0	30	32017
2026-01-13 10:49:14.66	48.30	29.07	-34.4	-53.4	3.8	7.43e-01	0	42	104	0	30	32080
2026-01-13 10:49:17.69	47.11	28.99	-34.4	-53.4	3.8	7.44e-01	0	42	104	0	30	32019
2026-01-13 10:49:20.70	45.94	28.91	-34.4	-53.4	3.8	7.49e-01	0	42	104	0	30	32031
2026-01-13 10:49:23.73	44.76	28.82	-34.4	-53.4	3.8	7.45e-01	0	42	104	0	30	31949
2026-01-13 10:49:26.75	43.60	28.71	-34.4	-53.4	3.8	7.46e-01	0	42	104	0	30	32025
2026-01-13 10:49:29.77	42.44	28.59	-34.4	-53.4	3.8	7.44e-01	0	42	104	0	30	32007
2026-01-13 10:49:32.79	41.29	28.45	-34.4	-53.4	3.8	7.49e-01	0	42	104	0	30	32026
2026-01-13 10:49:35.81	40.16	28.31	-34.4	-53.4	3.8	7.47e-01	0	42	104	0	30	31995
2026-01-13 10:49:38.82	39.04	28.15	-34.4	-53.4	3.8	7.44e-01	0	42	104	0	30	31988
2026-01-13 10:49:41.84	37.92	27.99	-34.4	-53.4	3.8	7.45e-01	0	42	104	0	30	32039
2026-01-13 10:49:44.86	36.82	27.81	-34.4	-53.4	3.8	7.43e-01	0	42	104	0	30	32114
2026-01-13 10:49:47.88	35.73	27.63	-34.4	-53.4	3.8	7.42e-01	0	42	104	0	30	31959
2026-01-13 10:49:50.89	34.66	27.43	-34.4	-53.4	3.8	7.43e-01	0	42	104	0	30	32044
2026-01-13 10:49:53.90	33.61	27.23	-34.4	-53.4	3.8	7.44e-01	0	42	104	0	30	32019
2026-01-13 10:49:56.93	32.56	27.01	-34.4	-53.4	3.8	7.42e-01	0	42	104	0	30	32026
2026-01-13 10:49:59.94	31.53	26.79	-34.4	-53.4	3.8	7.48e-01	0	42	104	0	30	32064
2026-01-13 10:50:02.96	30.51	26.56	-34.4	-53.4	3.8	7.48e-01	0	42	104	0	30	32066
2026-01-13 10:50:05.97	29.52	26.32	-34.4	-53.4	3.8	7.47e-01	0	42	104	0	30	32100
2026-01-13 10:50:08.99	28.53	26.08	-34.4	-53.4	3.8	7.49e-01	0	43	104	0	30	32072
2026-01-13 10:50:12.01	27.56	25.83	-34.4	-53.4	3.8	7.46e-01	0	42	104	0	30	32048
2026-01-13 10:50:15.03	26.61	25.58	-34.4	-53.4	3.8	7.46e-01	0	42	104	0	30	32075
2026-01-13 10:50:18.05	25.67	25.31	-34.4	-53.4	3.8	7.44e-01	0	42	104	0	30	32085
2026-01-13 10:50:21.07	24.75	25.05	-34.4	-53.4	3.8	7.48e-01	0	42	104	0	30	32065
2026-01-13 10:50:24.10	23.85	24.77	-34.4	-53.4	3.8	7.48e-01	0	42	104	0	30	32151
2026-01-13 10:50:27.11	22.96	24.50	-34.4	-53.4	3.8	7.45e-01	0	42	104	0	30	32040
2026-01-13 10:50:30.12	22.10	24.22	-34.4	-53.4	3.8	7.48e-01	0	42	104	0	30	32066
2026-01-13 10:50:33.14	21.24	23.94	-34.4	-53.4	3.8	7.47e-01	0	42	104	0	30	32065
2026-01-13 10:50:36.15	20.41	23.65	-34.4	-53.4	3.8	7.47e-01	0	43	104	0	30	32023
2026-01-13 10:50:39.16	19.59	23.37	-34.4	-53.4	3.8	7.49e-01	0	42	104	0	30	32085
2026-01-13 10:50:42.18	18.78	23.07	-34.4	-53.4	3.8	7.46e-01	0	42	104	0	30	32076
2026-01-13 10:50:45.19	17.99	22.78	-34.4	-53.4	3.8	7.44e-01	0	42	104	0	30	32019
2026-01-13 10:50:48.22	17.22	22.49	-34.4	-53.4	3.8	7.46e-01	0	42	104	0	30	32042
2026-01-13 10:50:51.25	16.45	22.19	-34.4	-53.4	3.8	7.43e-01	0	42	104	0	30	32065
2026-01-13 10:50:54.27	15.71	21.89	-34.4	-53.4	3.8	7.44e-01	0	42	104	0	30	32011
2026-01-13 10:50:57.29	14.98	21.59	-34.4	-53.4	3.8	7.46e-01	0	42	104	0	30	32051
2026-01-13 10:51:00.30	14.27	21.29	-34.4	-53.4	3.8	7.45e-01	0	42	104	0	30	31979
2026-01-13 10:51:03.31	13.57	20.99	-34.4	-53.4	3.8	7.48e-01	0	42	104	0	30	31965
2026-01-13 10:51:06.32	12.89	20.69	-34.4	-53.4	3.8	7.45e-01	0	42	104	0	30	32080
2026-01-13 10:51:09.35	12.22	20.39	-34.4	-53.4	3.8	7.45e-01	0	42	104	0	30	32128
2026-01-13 10:51:12.36	11.56	20.09	-34.4	-53.4	3.8	7.45e-01	0	42	104	0	30	32123
2026-01-13 10:51:15.39	10.92	19.79	-34.4	-53.4	3.8	7.44e-01	0	42	104	0	30	31984
2026-01-13 10:51:18.41	10.29	19.49	-34.4	-53.4	3.8	7.47e-01	0	42	104	0	30	32127
2026-01-13 10:51:21.43	9.67	19.19	-34.4	-53.4	3.8	7.46e-01	0	42	104	0	30	32074
2026-01-13 10:51:24.44	9.07	18.89	-34.4	-53.4	3.8	7.48e-01	0	42	104	0	30	32102
2026-01-13 10:51:27.46	8.48	18.59	-34.4	-53.4	3.8	7.45e-01	0	42	104	0	30	32016
2026-01-13 10:51:30.49	7.90	18.29	-34.4	-53.4	3.8	7.44e-01	0	42	104	0	30	32037
2026-01-13 10:51:33.51	7.33	18.00	-34.4	-53.4	3.8	7.44e-01	0	42	104	0	30	32061
2026-01-13 10:51:36.53	6.78	17.70	-34.4	-53.4	3.8	7.46e-01	0	42	104	0	30	32053
2026-01-13 10:51:39.54	6.23	17.41	-34.4	-53.4	3.8	7.46e-01	0	42	104	0	30	32087
2026-01-13 10:51:42.55	5.70	17.12	-34.4	-53.5	3.8	7.44e-01	0	42	104	0	30	32187
2026-01-13 10:51:45.56	5.18	16.83	-34.4	-53.4	3.8	7.44e-01	0	42	104	0	30	32089
2026-01-13 10:51:48.57	4.68	16.54	-34.4	-53.4	3.8	7.45e-01	0	42	104	0	30	32119
2026-01-13 10:51:51.59	4.18	16.25	-34.4	-53.4	3.8	7.46e-01	0	42	104	0	30	32029
2026-01-13 10:51:54.61	3.69	15.97	-34.4	-53.4	3.8	7.47e-01	0	42	104	0	30	32014
2026-01-13 10:51:57.64	3.20	15.68	-34.4	-53.4	3.8	7.47e-01	0	42	104	0	30	32103
2026-01-13 10:52:00.67	2.73	15.40	-34.4	-53.4	3.8	7.46e-01	0	42	104	0	30	32098
2026-01-13 10:52:03.68	2.27	15.12	-34.4	-53.4	3.8	7.46e-01	0	42	104	0	30	32015
2026-01-13 10:52:06.70	1.82	14.84	-34.4	-53.4	3.8	7.43e-01	0	42	104	0	30	32115
2026-01-13 10:52:09.72	1.38	14.56	-34.4	-53.4	3.8	7.43e-01	0	42	104	0	30	32055
2026-01-13 10:52:12.74	0.95	14.29	-34.4	-53.4	3.8	7.46e-01	0	42	104	0	30	32095
2026-01-13 10:52:15.77	0.52	14.01	-34.4	-53.4	3.8	7.46e-01	0	42	104	0	30	32120
2026-01-13 10:52:18.79	0.11	13.74	-34.4	-53.4	3.8	7.43e-01	0	42	104	0	30	32114
2026-01-13 10:52:21.81	359.70	13.47	-34.4	-53.4	3.8	7.45e-01	0	43	104	0	30	32109
2026-01-13 10:52:24.84	359.30	13.20	-34.4	-53.4	3.8	7.47e-01	0	42	104	0	30	32107
2026-01-13 10:52:27.85	358.91	12.94	-34.4	-53.4	3.8	7.47e-01	0	42	104	0	30	32079
2026-01-13 10:52:30.87	358.53	12.67	-34.4	-53.4	3.8	7.46e-01	0	42	104	0	30	32127
2026-01-13 10:52:33.89	358.15	12.41	-34.4	-53.4	3.8	7.48e-01	0	42	104	0	30	32102
2026-01-13 10:52:36.91	357.78	12.15	-34.4	-53.4	3.8	7.46e-01	0	42	104	0	30	32093
2026-01-13 10:52:39.93	357.42	11.89	-34.4	-53.4	3.8	7.45e-01	0	42	104	0	30	32063
2026-01-13 10:52:42.94	357.06	11.64	-34.4	-53.4	3.8	7.45e-01	0	42	104	0	30	32063
2026-01-13 10:52:45.96	356.72	11.38	-34.4	-53.4	3.8	7.44e-01	0	42	104	0	30	32077
2026-01-13 10:52:48.98	356.37	11.13	-34.4	-53.4	3.8	7.45e-01	0	42	104	0	30	32089
2026-01-13 10:52:52.00	356.04	10.88	-34.4	-53.4	3.8	7.46e-01	0	42	104	0	30	32110
2026-01-13 10:52:55.02	355.71	10.63	-34.4	-53.4	3.8	7.43e-01	0	42	104	0	30	32140
2026-01-13 10:52:58.04	355.39	10.39	-34.4	-53.4	3.8	7.48e-01	0	42	104	0	30	32084
2026-01-13 10:53:01.05	355.07	10.14	-34.4	-53.4	3.8	7.47e-01	0	42	104	0	30	32072
2026-01-13 10:53:04.06	354.76	9.90	-34.4	-53.4	3.8	7.43e-01	0	42	104	0	30	32062
2026-01-13 10:53:07.09	354.46	9.66	-34.4	-53.4	3.8	7.45e-01	0	42	104	0	30	32062
2026-01-13 10:53:10.11	354.16	9.42	-34.4	-53.4	3.8	7.43e-01	0	42	104	0	30	32093
2026-01-13 10:53:13.13	353.86	9.18	-34.4	-53.4	3.8	7.45e-01	0	42	104	0	30	32051
2026-01-13 10:53:16.15	353.57	8.95	-34.4	-53.4	3.8	7.44e-01	0	42	104	0	30	32046
2026-01-13 10:53:19.17	353.29	8.71	-34.4	-53.4	3.8	7.44e-01	0	42	104	0	30	32043
2026-01-13 10:53:22.17	353.01	8.48	-34.4	-53.4	3.8	7.47e-01	0	42	104	0	30	32041
2026-01-13 10:53:25.20	352.74	8.25	-34.4	-53.4	3.8	7.45e-01	0	42	104	0	30	32088
2026-01-13 10:53:28.22	352.47	8.03	-34.4	-53.4	3.8	7.44e-01	0	42	104	0	30	32002
2026-01-13 10:53:31.24	352.21	7.80	-34.4	-53.4	3.8	7.42e-01	0	42	104	0	30	32135
2026-01-13 10:53:34.26	351.95	7.57	-34.4	-53.4	3.8	7.46e-01	0	43	104	0	30	32102
2026-01-13 10:53:37.27	351.69	7.35	-34.4	-53.4	3.8	7.44e-01	0	42	104	0	30	32046
2026-01-13 10:53:40.28	351.44	7.13	-34.4	-53.4	3.8	7.44e-01	0	42	104	0	30	32098
2026-01-13 10:53:43.31	351.19	6.91	-34.4	-53.4	3.8	7.46e-01	0	43	104	0	30	32076

#Closed at: 2026-01-13 10:53:44
#Recorded file [0 MB]: D:/data/31010_260113_134421.dat