passes_logs/2026/01/13/R2M6_AANII_01/R2M6_AANII_01__20260113_003303_NOAA_20_JPSS-1_rec.log

#Pass ID: 20260113_003303_NOAA 20 (JPSS-1)
#Satellite: NOAA 20 (JPSS-1)
#Configuration: NOAA 20
#almurnet v.1.7.20240730
#Start time: 2026-01-13 00:33:05

#Version: 2.2.20231116
#Station: R2M6_AANII_01
#Location: 30.233357 lon 59.946436 lat
#TLE: 1 43013U 17073A   26012.29914746  .00000087  00000+0  62270-4 0  9997
#TLE: 2 43013  98.7632 313.2670 0001616  43.2193 316.9110 14.19535514422351

#Time	Az	El	Level	Level2	SNR	BER	BlckErr	Temp	State	Recorded	gain1	gain2
2026-01-13 00:33:05.56	17.07	7.15	-32.1	-41.3	4.2	1.44e+00	0	40	0	0	24	10453
2026-01-13 00:33:08.57	17.05	7.38	-32.1	-41.0	5.1	6.80e-01	0	40	0	1048576	24	10021
2026-01-13 00:33:11.58	17.02	7.62	-31.9	-39.5	6.4	2.45e-01	0	40	0	7340032	23	8669
2026-01-13 00:33:14.60	17.00	7.85	-31.7	-38.4	7.3	1.50e-01	0	40	0	12582912	23	7821
2026-01-13 00:33:17.62	16.98	8.10	-31.6	-38.0	7.7	1.14e-01	0	40	0	18874368	23	7459
2026-01-13 00:33:20.64	16.95	8.34	-31.4	-37.3	8.6	3.35e-02	0	40	0	24117248	22	7131
2026-01-13 00:33:23.66	16.93	8.58	-31.1	-36.3	9.5	1.85e-02	0	40	0	29360128	22	6536
2026-01-13 00:33:26.67	16.90	8.83	-31.0	-35.9	9.8	1.19e-02	0	40	0	35651584	22	6309
2026-01-13 00:33:29.68	16.87	9.08	-31.1	-36.2	9.5	1.56e-02	0	40	0	40894464	22	6468
2026-01-13 00:33:32.70	16.84	9.33	-31.0	-36.1	10.1	8.14e-03	0	40	0	46137344	21	6474
2026-01-13 00:33:35.72	16.81	9.59	-31.0	-35.7	10.0	7.94e-03	0	40	0	52428800	22	6191
2026-01-13 00:33:38.73	16.79	9.84	-31.0	-35.6	10.1	8.34e-03	0	40	0	57671680	22	6132
2026-01-13 00:33:41.73	16.76	10.10	-30.9	-35.7	10.4	5.07e-03	0	41	0	63963136	21	6295
2026-01-13 00:33:44.74	16.73	10.37	-30.8	-35.6	10.6	3.68e-03	0	41	0	69206016	21	6201
2026-01-13 00:33:47.76	16.69	10.63	-30.8	-35.5	10.7	4.40e-03	0	41	0	74448896	21	6159
2026-01-13 00:33:50.78	16.66	10.90	-31.0	-36.0	10.2	5.08e-03	0	41	0	80740352	21	6442
2026-01-13 00:33:53.80	16.63	11.17	-30.8	-35.3	10.8	2.63e-03	0	41	0	85983232	21	6053
2026-01-13 00:33:56.82	16.59	11.45	-30.7	-35.0	11.1	2.14e-03	0	41	0	92274688	21	5883
2026-01-13 00:33:59.84	16.56	11.73	-30.8	-35.4	10.8	2.46e-03	0	41	0	97517568	21	6081
2026-01-13 00:34:02.86	16.52	12.01	-30.7	-35.0	11.1	1.71e-03	0	41	0	102760448	21	5892
2026-01-13 00:34:05.88	16.49	12.29	-30.7	-35.0	11.1	1.60e-03	0	41	0	109051904	21	5907
2026-01-13 00:34:08.90	16.45	12.58	-30.9	-35.5	10.8	2.26e-03	0	41	0	114294784	21	6112
2026-01-13 00:34:11.92	16.41	12.87	-30.8	-35.1	11.1	1.92e-03	0	41	0	120586240	21	5959
2026-01-13 00:34:14.94	16.37	13.17	-30.8	-35.3	11.0	2.15e-03	0	41	0	125829120	21	6017
2026-01-13 00:34:17.96	16.33	13.47	-30.7	-34.8	11.3	1.83e-03	0	41	0	131072000	21	5797
2026-01-13 00:34:20.98	16.29	13.77	-30.5	-34.3	11.8	9.63e-04	0	41	0	137363456	21	5558
2026-01-13 00:34:23.99	16.24	14.07	-30.5	-34.2	11.8	7.33e-04	0	41	0	142606336	21	5512
2026-01-13 00:34:27.01	16.20	14.38	-30.6	-34.5	11.6	5.16e-04	0	41	0	148897792	21	5654
2026-01-13 00:34:30.03	16.15	14.70	-30.6	-34.6	11.6	1.01e-03	0	41	0	154140672	21	5705
2026-01-13 00:34:33.04	16.11	15.01	-30.6	-34.6	11.6	1.31e-03	0	41	0	159383552	21	5687
2026-01-13 00:34:36.06	16.06	15.34	-30.5	-34.3	11.8	7.91e-04	0	41	0	165675008	21	5566
2026-01-13 00:34:39.07	16.01	15.66	-30.5	-34.5	12.0	6.77e-04	0	41	0	170917888	20	5757
2026-01-13 00:34:42.08	15.96	15.99	-30.0	-33.4	12.9	4.26e-04	0	42	0	177209344	20	5289
2026-01-13 00:34:45.10	15.91	16.33	-30.0	-33.1	12.1	2.79e-03	0	41	0	182452224	20	5150
2026-01-13 00:34:48.11	15.85	16.67	-30.1	-33.4	12.9	4.62e-04	0	41	0	187695104	20	5260
2026-01-13 00:34:51.12	15.80	17.01	-30.1	-33.4	12.9	4.39e-04	0	41	0	193986560	20	5286
2026-01-13 00:34:54.13	15.74	17.36	-30.0	-33.0	13.2	4.45e-04	0	41	0	199229440	20	5118
2026-01-13 00:34:57.15	15.68	17.71	-30.0	-33.1	13.1	5.05e-04	0	41	0	204472320	20	5160
2026-01-13 00:35:00.17	15.62	18.07	-30.0	-33.2	13.1	5.41e-04	0	42	0	210763776	20	5166
2026-01-13 00:35:03.18	15.56	18.44	-29.8	-33.0	13.7	2.65e-03	0	42	0	216006656	19	5183
2026-01-13 00:35:06.19	15.50	18.81	-29.7	-32.6	13.9	2.38e-03	0	41	0	222298112	19	5051
2026-01-13 00:35:09.21	15.43	19.18	-29.7	-32.8	13.9	2.76e-03	0	42	0	227540992	19	5109
2026-01-13 00:35:12.22	15.36	19.56	-29.7	-32.7	13.9	2.65e-03	0	42	0	232783872	19	5067
2026-01-13 00:35:15.24	15.29	19.95	-29.8	-33.0	13.7	2.41e-03	0	42	0	239075328	19	5199
2026-01-13 00:35:18.26	15.22	20.35	-30.0	-33.0	13.3	1.83e-03	0	42	0	244318208	20	5100
2026-01-13 00:35:21.28	15.15	20.75	-29.8	-32.9	13.8	2.55e-03	0	42	0	250609664	19	5139
2026-01-13 00:35:24.30	15.07	21.15	-29.9	-33.2	13.7	2.26e-03	0	42	0	255852544	19	5250
2026-01-13 00:35:27.31	15.00	21.56	-30.2	-33.5	13.1	2.63e-03	0	42	0	261095424	20	5264
2026-01-13 00:35:30.32	14.91	21.98	-30.0	-33.4	13.5	2.40e-03	0	42	0	267386880	19	5334
2026-01-13 00:35:33.35	14.83	22.41	-29.9	-32.7	13.6	2.17e-03	0	42	0	272629760	20	4960
2026-01-13 00:35:36.36	14.75	22.84	-30.1	-33.4	13.2	1.60e-05	0	42	0	278921216	20	5223
2026-01-13 00:35:39.38	14.66	23.29	-30.4	-34.1	12.7	3.96e-05	0	42	0	284164096	20	5525
2026-01-13 00:35:42.40	14.56	23.74	-30.0	-32.9	13.5	1.67e-05	0	42	0	289406976	20	5047
2026-01-13 00:35:45.42	14.47	24.19	-29.7	-32.7	14.1	1.50e-06	0	42	0	295698432	19	5065
2026-01-13 00:35:48.44	14.37	24.66	-30.3	-33.7	13.0	4.19e-05	0	42	0	300941312	20	5334
2026-01-13 00:35:51.46	14.27	25.13	-29.8	-33.0	13.9	2.09e-03	0	42	0	307232768	19	5168
2026-01-13 00:35:54.47	14.17	25.61	-30.0	-32.9	13.6	3.80e-06	0	42	0	312475648	20	5023
2026-01-13 00:35:57.49	14.06	26.10	-30.0	-32.9	13.6	6.10e-06	0	42	0	317718528	20	5025
2026-01-13 00:36:00.50	13.95	26.60	-30.0	-32.9	13.7	5.30e-06	0	42	0	324009984	20	5021
2026-01-13 00:36:03.51	13.83	27.11	-30.3	-33.7	13.1	3.20e-05	0	42	0	329252864	20	5334
2026-01-13 00:36:06.52	13.71	27.63	-30.1	-33.3	13.4	1.90e-05	0	42	0	335544320	20	5169
2026-01-13 00:36:09.54	13.59	28.15	-30.3	-33.8	12.2	3.35e-05	0	42	0	340787200	20	5372
2026-01-13 00:36:12.56	13.46	28.69	-30.8	-34.8	12.1	2.74e-04	0	42	0	346030080	21	5657
2026-01-13 00:36:15.57	13.32	29.24	-30.9	-34.8	12.0	1.96e-03	0	42	0	352321536	21	5683
2026-01-13 00:36:18.59	13.18	29.80	-30.9	-35.1	11.9	2.15e-03	0	42	0	357564416	21	5781
2026-01-13 00:36:21.62	13.04	30.37	-31.2	-35.3	11.5	2.53e-03	0	42	0	363855872	22	5765
2026-01-13 00:36:24.63	12.89	30.95	-31.3	-35.5	11.3	1.29e-03	0	42	0	369098752	22	5880
2026-01-13 00:36:27.65	12.73	31.55	-31.4	-36.1	10.8	1.93e-03	0	42	0	374341632	22	6173
2026-01-13 00:36:30.67	12.57	32.15	-31.5	-35.9	10.6	2.36e-03	0	42	0	380633088	23	5952
2026-01-13 00:36:33.68	12.40	32.77	-31.5	-35.8	10.7	4.01e-03	0	42	0	385875968	23	5888
2026-01-13 00:36:36.69	12.22	33.40	-31.2	-34.8	11.4	1.08e-03	0	42	0	392167424	23	5468
2026-01-13 00:36:39.70	12.04	34.04	-31.1	-35.0	11.7	8.81e-04	0	42	0	397410304	22	5629
2026-01-13 00:36:42.71	11.85	34.69	-30.9	-34.7	12.3	6.53e-04	0	42	0	402653184	21	5631
2026-01-13 00:36:45.73	11.65	35.36	-30.7	-34.3	12.5	6.29e-04	0	42	0	408944640	21	5431
2026-01-13 00:36:48.74	11.44	36.05	-30.0	-32.7	14.0	2.20e-06	0	42	0	414187520	20	4933
2026-01-13 00:36:51.77	11.22	36.75	-30.0	-32.8	13.9	2.20e-06	0	42	0	420478976	20	4994
2026-01-13 00:36:54.80	10.99	37.46	-29.7	-32.5	14.5	1.07e-04	0	42	0	425721856	19	4949
2026-01-13 00:36:57.81	10.75	38.19	-30.0	-33.2	14.1	4.50e-06	0	42	0	430964736	19	5206
2026-01-13 00:37:00.83	10.50	38.93	-29.7	-32.6	14.4	1.50e-06	0	42	0	437256192	19	4997
2026-01-13 00:37:03.85	10.24	39.69	-30.0	-32.7	14.0	1.50e-06	0	42	0	442499072	20	4948
2026-01-13 00:37:06.87	9.96	40.47	-30.5	-34.2	13.0	1.75e-05	0	42	0	448790528	20	5513
2026-01-13 00:37:09.88	9.67	41.26	-30.6	-34.0	12.9	4.73e-05	0	42	0	454033408	21	5301
2026-01-13 00:37:12.90	9.36	42.07	-30.7	-34.4	12.6	1.20e-04	0	42	0	459276288	21	5460
2026-01-13 00:37:15.91	9.04	42.89	-31.1	-34.9	11.9	5.16e-04	0	42	0	465567744	22	5571
2026-01-13 00:37:18.92	8.70	43.74	-31.2	-35.3	11.6	7.98e-04	0	42	0	470810624	22	5732
2026-01-13 00:37:21.94	8.34	44.60	-31.1	-34.9	12.0	5.36e-04	0	42	0	476053504	22	5571
2026-01-13 00:37:24.95	7.96	45.48	-31.0	-34.5	12.2	3.04e-04	0	42	0	482344960	22	5394
2026-01-13 00:37:27.96	7.56	46.37	-30.9	-34.3	12.4	1.02e-04	0	42	0	487587840	22	5297
2026-01-13 00:37:30.98	7.13	47.29	-31.3	-35.6	11.4	9.89e-04	0	42	0	493879296	22	5870
2026-01-13 00:37:33.99	6.68	48.22	-32.0	-37.2	9.9	8.53e-03	0	42	0	499122176	23	6565
2026-01-13 00:37:37.00	6.20	49.17	-31.5	-35.5	11.2	1.83e-03	0	42	0	504365056	23	5713
2026-01-13 00:37:40.01	5.68	50.14	-31.1	-34.3	12.0	1.23e-03	0	42	0	510656512	23	5200
2026-01-13 00:37:43.03	5.13	51.13	-29.3	-31.4	15.2	1.28e-04	0	42	0	515899392	19	4606
2026-01-13 00:37:46.04	4.54	52.13	-28.8	-31.2	15.9	6.80e-06	0	42	0	522190848	17	4747
2026-01-13 00:37:49.06	3.91	53.16	-29.0	-31.1	15.7	0.00e+00	0	42	0	527433728	18	4607
2026-01-13 00:37:52.08	3.23	54.20	-28.7	-30.9	16.2	0.00e+00	0	42	0	532676608	17	4664
2026-01-13 00:37:55.10	2.49	55.26	-29.0	-31.1	15.7	0.00e+00	0	42	0	538968064	18	4606
2026-01-13 00:37:58.11	1.71	56.33	-30.0	-32.8	14.1	7.00e-07	0	42	0	544210944	20	4948
2026-01-13 00:38:01.13	0.85	57.42	-30.7	-34.1	12.8	4.95e-05	0	42	0	550502400	21	5349
2026-01-13 00:38:04.15	359.92	58.53	-31.4	-35.8	11.4	9.38e-04	0	42	0	555745280	22	5951
2026-01-13 00:38:07.17	358.91	59.65	-30.5	-33.5	13.2	3.73e-05	0	42	0	560988160	21	5096
2026-01-13 00:38:10.17	357.81	60.77	-29.7	-32.4	14.7	0.00e+00	0	42	0	567279616	19	4908
2026-01-13 00:38:13.18	356.61	61.91	-29.2	-31.6	15.5	0.00e+00	0	42	0	572522496	18	4748
2026-01-13 00:38:16.18	355.29	63.05	-29.6	-32.1	14.8	0.00e+00	0	42	0	577765376	19	4822
2026-01-13 00:38:19.20	353.83	64.20	-29.6	-32.1	14.9	0.00e+00	0	42	0	584056832	19	4813
2026-01-13 00:38:22.22	352.21	65.36	-29.2	-31.6	15.5	0.00e+00	0	42	0	589299712	18	4752
2026-01-13 00:38:25.24	350.41	66.51	-30.1	-33.0	13.9	7.00e-07	0	42	0	595591168	20	5006
2026-01-13 00:38:28.25	348.42	67.65	-30.8	-34.5	12.6	5.26e-05	0	42	0	600834048	21	5492
2026-01-13 00:38:31.26	346.19	68.78	-30.3	-33.4	13.6	3.00e-06	0	42	0	606076928	20	5178
2026-01-13 00:38:34.28	343.68	69.89	-29.8	-32.2	14.5	0.00e+00	0	42	0	612368384	20	4740
2026-01-13 00:38:37.29	340.87	70.97	-28.7	-30.4	16.2	0.00e+00	0	42	0	617611264	18	4385
2026-01-13 00:38:40.30	337.70	72.01	-29.1	-31.4	15.6	0.00e+00	0	42	0	623902720	18	4688
2026-01-13 00:38:43.31	334.14	73.00	-30.4	-33.8	13.4	9.90e-06	0	42	0	629145600	20	5322
2026-01-13 00:38:46.33	330.10	73.93	-29.9	-32.5	14.3	7.00e-07	0	42	0	634388480	20	4852
2026-01-13 00:38:49.35	325.57	74.78	-31.0	-34.6	12.3	1.93e-04	0	42	0	640679936	22	5409
2026-01-13 00:38:52.37	320.51	75.54	-31.4	-35.3	11.5	1.33e-03	0	42	0	645922816	23	5620
2026-01-13 00:38:55.39	314.92	76.17	-31.4	-35.8	11.6	4.21e-04	0	42	0	652214272	22	5929
2026-01-13 00:38:58.41	308.83	76.67	-31.5	-35.6	11.3	3.25e-03	0	42	0	657457152	23	5726
2026-01-13 00:39:01.43	302.33	77.02	-31.5	-37.5	8.7	1.37e-02	0	42	0	662700032	24	7202
2026-01-13 00:39:04.45	295.55	77.19	-31.7	-36.0	10.4	2.74e-03	0	42	0	668991488	23	5943
2026-01-13 00:39:07.46	288.71	77.19	-31.4	-35.6	11.6	1.80e-03	0	42	0	674234368	22	5834
2026-01-13 00:39:10.48	281.95	77.01	-31.3	-35.5	11.7	1.24e-03	0	42	0	680525824	22	5807
2026-01-13 00:39:13.49	275.48	76.66	-31.3	-35.3	11.8	6.39e-04	0	42	0	685768704	22	5712
2026-01-13 00:39:16.51	269.41	76.15	-32.0	-36.7	10.1	8.36e-03	0	42	0	691011584	24	6164
2026-01-13 00:39:19.52	263.85	75.51	-32.1	-37.0	9.8	1.42e-02	0	42	0	697303040	24	6347
2026-01-13 00:39:22.54	258.81	74.75	-31.7	-36.1	10.8	4.92e-03	0	42	0	702545920	23	6000
2026-01-13 00:39:25.56	254.29	73.89	-31.2	-34.6	12.0	9.66e-04	0	42	0	708837376	23	5291
2026-01-13 00:39:28.59	250.26	72.96	-30.7	-34.2	12.9	3.89e-05	0	42	0	714080256	21	5365
2026-01-13 00:39:31.60	246.71	71.96	-30.6	-33.9	13.1	5.30e-06	0	42	0	719323136	21	5254
2026-01-13 00:39:34.63	243.53	70.91	-30.5	-33.6	13.3	2.17e-03	0	42	0	725614592	21	5134
2026-01-13 00:39:37.64	240.74	69.83	-30.8	-34.5	12.7	2.46e-03	0	42	0	730857472	21	5510
2026-01-13 00:39:40.66	238.24	68.71	-31.3	-35.5	11.6	2.49e-03	0	42	0	736100352	22	5821
2026-01-13 00:39:43.68	236.02	67.58	-31.2	-35.2	11.8	2.40e-03	0	42	0	742391808	22	5678
2026-01-13 00:39:46.70	234.03	66.43	-29.9	-32.4	14.3	1.66e-03	0	42	0	747634688	20	4816
2026-01-13 00:39:49.71	232.24	65.28	-29.5	-31.9	15.0	0.00e+00	0	42	0	753926144	19	4743
2026-01-13 00:39:52.73	230.63	64.12	-28.5	-29.9	16.4	0.00e+00	0	42	0	759169024	18	4246
2026-01-13 00:39:55.74	229.18	62.97	-27.8	-29.5	17.3	0.00e+00	0	42	0	764411904	16	4332
2026-01-13 00:39:58.75	227.86	61.83	-28.9	-31.4	15.9	1.15e-03	0	42	0	770703360	17	4809
2026-01-13 00:40:01.76	226.66	60.69	-30.1	-33.0	13.8	1.48e-03	0	42	0	775946240	20	5056
2026-01-13 00:40:04.76	225.57	59.56	-31.8	-36.5	10.4	3.78e-03	0	42	0	782237696	23	6227
2026-01-13 00:40:07.79	224.56	58.44	-31.7	-36.2	10.7	5.71e-03	0	42	0	787480576	23	6052
2026-01-13 00:40:10.80	223.64	57.33	-31.9	-36.9	10.2	5.66e-03	0	42	0	792723456	23	6411
2026-01-13 00:40:13.81	222.78	56.24	-30.8	-34.1	12.4	2.51e-04	0	42	0	799014912	22	5249
2026-01-13 00:40:16.82	222.00	55.16	-29.5	-32.0	14.8	0.00e+00	0	42	0	804257792	19	4801
2026-01-13 00:40:19.85	221.26	54.10	-29.3	-31.8	15.2	7.00e-07	0	42	0	810549248	18	4849
2026-01-13 00:40:22.87	220.59	53.05	-29.2	-31.6	15.4	0.00e+00	0	42	0	815792128	18	4769
2026-01-13 00:40:25.89	219.95	52.03	-29.2	-31.6	15.4	0.00e+00	0	42	0	821035008	18	4770
2026-01-13 00:40:28.90	219.37	51.02	-29.9	-33.0	14.2	7.00e-07	0	42	0	827326464	19	5131
2026-01-13 00:40:31.92	218.82	50.03	-30.9	-34.9	11.7	7.93e-05	0	42	0	832569344	21	5679
2026-01-13 00:40:34.94	218.30	49.05	-31.1	-34.9	11.7	5.06e-04	0	42	0	838860800	22	5593
2026-01-13 00:40:37.96	217.82	48.10	-30.9	-34.8	12.3	9.46e-05	0	42	0	844103680	21	5630
2026-01-13 00:40:40.98	217.36	47.16	-30.8	-34.5	12.4	1.93e-04	0	42	0	849346560	21	5548
2026-01-13 00:40:43.99	216.94	46.25	-31.1	-35.1	11.7	4.97e-04	0	42	0	855638016	22	5682
2026-01-13 00:40:47.01	216.53	45.35	-31.3	-35.5	11.3	1.47e-03	0	42	0	860880896	22	5886
2026-01-13 00:40:50.03	216.15	44.47	-31.3	-35.8	11.1	2.38e-03	0	42	0	867172352	22	5982
2026-01-13 00:40:53.05	215.79	43.60	-31.7	-36.5	10.2	7.90e-03	0	42	0	872415232	23	6252
2026-01-13 00:40:56.07	215.45	42.76	-32.1	-37.5	9.1	2.12e-02	0	42	0	877658112	24	6709
2026-01-13 00:40:59.08	215.13	41.93	-31.9	-37.1	9.7	1.50e-02	0	42	0	883949568	23	6586
2026-01-13 00:41:02.09	214.82	41.12	-31.3	-35.7	11.2	2.45e-03	0	42	0	889192448	22	5952
2026-01-13 00:41:05.10	214.53	40.33	-31.2	-35.4	11.4	3.12e-03	0	42	0	894435328	22	5807
2026-01-13 00:41:08.13	214.26	39.55	-31.4	-35.6	10.9	5.78e-03	0	42	0	900726784	23	5806
2026-01-13 00:41:11.14	213.99	38.79	-31.3	-35.7	11.2	3.39e-03	0	42	0	905969664	22	5963
2026-01-13 00:41:14.16	213.74	38.05	-31.0	-34.6	11.9	2.99e-03	0	42	0	912261120	22	5496
2026-01-13 00:41:17.18	213.50	37.32	-30.5	-33.9	12.8	2.35e-03	0	42	0	917504000	21	5275
2026-01-13 00:41:20.20	213.27	36.60	-30.7	-34.3	12.4	1.94e-03	0	42	0	922746880	21	5476
2026-01-13 00:41:23.22	213.05	35.90	-30.9	-35.1	12.0	3.08e-04	0	42	0	929038336	21	5782
2026-01-13 00:41:26.24	212.84	35.22	-31.1	-35.1	11.6	7.87e-04	0	42	0	934281216	22	5686
2026-01-13 00:41:29.26	212.64	34.54	-31.4	-36.1	10.8	1.94e-03	0	42	0	940572672	22	6161
2026-01-13 00:41:32.27	212.45	33.89	-31.1	-35.1	11.6	6.89e-04	0	42	0	945815552	22	5705
2026-01-13 00:41:35.28	212.27	33.25	-31.1	-35.0	11.6	2.23e-03	0	42	0	951058432	22	5673
2026-01-13 00:41:38.29	212.09	32.62	-31.0	-34.9	11.6	7.17e-04	0	42	0	957349888	22	5642
2026-01-13 00:41:41.31	211.92	32.00	-31.2	-35.3	11.3	1.26e-03	0	42	0	962592768	22	5807
2026-01-13 00:41:44.32	211.76	31.39	-31.0	-35.8	10.7	2.54e-03	0	42	0	968884224	22	6207
2026-01-13 00:41:47.34	211.60	30.80	-31.7	-36.5	10.0	6.71e-03	0	42	0	974127104	23	6304
2026-01-13 00:41:50.36	211.45	30.22	-31.7	-36.9	9.8	1.17e-02	0	42	0	979369984	23	6487
2026-01-13 00:41:53.39	211.30	29.64	-31.6	-36.5	10.0	7.62e-03	0	42	0	985661440	23	6295
2026-01-13 00:41:56.40	211.16	29.08	-31.5	-36.4	10.4	4.58e-03	0	42	0	990904320	22	6366
2026-01-13 00:41:59.43	211.03	28.53	-31.2	-35.6	11.1	2.41e-03	0	42	0	997195776	22	5927
2026-01-13 00:42:02.44	210.90	27.99	-31.1	-35.1	11.3	1.88e-03	0	42	0	1002438656	22	5745
2026-01-13 00:42:05.45	210.77	27.47	-30.8	-34.7	12.0	3.55e-04	0	42	0	1007681536	21	5666
2026-01-13 00:42:08.47	210.65	26.95	-30.7	-34.4	12.2	2.65e-04	0	42	0	1013972992	21	5546
2026-01-13 00:42:11.49	210.53	26.44	-30.8	-34.7	12.0	3.83e-04	0	42	0	1019215872	21	5670
2026-01-13 00:42:14.49	210.42	25.94	-30.8	-34.9	11.8	8.98e-04	0	42	0	1025507328	21	5759
2026-01-13 00:42:17.50	210.31	25.45	-30.8	-34.8	11.9	1.22e-03	0	42	0	1030750208	21	5713
2026-01-13 00:42:20.51	210.20	24.97	-30.5	-34.0	12.4	6.75e-04	0	42	0	1035993088	21	5386
2026-01-13 00:42:23.53	210.10	24.50	-30.4	-34.3	12.6	3.94e-04	0	42	0	1042284544	20	5599
2026-01-13 00:42:26.55	210.00	24.03	-30.1	-33.3	13.2	2.47e-04	0	42	0	1047527424	20	5217
2026-01-13 00:42:29.55	209.91	23.57	-30.1	-33.2	13.2	2.27e-04	0	42	0	1052770304	20	5182
2026-01-13 00:42:32.57	209.81	23.12	-29.8	-33.1	13.8	5.30e-06	0	42	0	1059061760	19	5216
2026-01-13 00:42:35.59	209.72	22.68	-29.8	-33.0	13.7	1.51e-04	0	42	0	1064304640	19	5205
2026-01-13 00:42:38.60	209.63	22.25	-30.0	-33.4	13.5	1.17e-04	0	42	0	1070596096	19	5370
2026-01-13 00:42:41.61	209.55	21.82	-30.0	-33.2	13.2	7.78e-05	0	42	0	1075838976	20	5171
2026-01-13 00:42:44.63	209.47	21.40	-30.1	-33.3	13.2	3.81e-05	0	42	0	1081081856	20	5215
2026-01-13 00:42:47.64	209.39	20.99	-30.2	-33.7	12.8	4.95e-05	0	42	0	1087373312	20	5388
2026-01-13 00:42:50.66	209.31	20.58	-30.2	-33.8	12.7	7.78e-05	0	42	0	1092616192	20	5423
2026-01-13 00:42:53.68	209.23	20.18	-30.4	-34.2	12.4	1.70e-04	0	42	0	1098907648	20	5614
2026-01-13 00:42:56.70	209.16	19.79	-30.6	-34.3	12.0	2.83e-04	0	42	0	1104150528	21	5548
2026-01-13 00:42:59.72	209.09	19.40	-30.4	-33.8	12.4	1.90e-04	0	42	0	1109393408	21	5313
2026-01-13 00:43:02.74	209.02	19.02	-30.5	-34.6	12.2	1.77e-04	0	42	0	1115684864	20	5754
2026-01-13 00:43:05.74	208.95	18.64	-30.4	-33.9	12.2	3.46e-04	0	42	0	1120927744	21	5378
2026-01-13 00:43:08.77	208.89	18.27	-30.4	-34.4	12.2	2.24e-04	0	42	0	1127219200	20	5668
2026-01-13 00:43:11.78	208.82	17.90	-30.6	-34.3	11.9	3.95e-04	0	42	0	1132462080	21	5550
2026-01-13 00:43:14.79	208.76	17.54	-30.5	-34.3	11.9	4.44e-04	0	42	0	1137704960	21	5535
2026-01-13 00:43:17.81	208.70	17.19	-30.6	-34.6	11.6	5.20e-04	0	42	0	1143996416	21	5721
2026-01-13 00:43:20.82	208.64	16.84	-30.6	-34.4	11.3	4.73e-04	0	42	0	1149239296	21	5591
2026-01-13 00:43:23.83	208.59	16.50	-30.5	-34.3	11.7	4.90e-04	0	42	0	1155530752	21	5557
2026-01-13 00:43:26.85	208.53	16.16	-30.5	-34.7	11.9	3.56e-04	0	42	0	1160773632	20	5827
2026-01-13 00:43:29.87	208.48	15.82	-30.7	-34.8	11.5	2.68e-03	0	42	0	1166016512	21	5792
2026-01-13 00:43:32.89	208.42	15.49	-30.5	-34.3	11.8	2.42e-03	0	42	0	1172307968	21	5541
2026-01-13 00:43:35.90	208.37	15.16	-30.6	-34.7	11.5	8.62e-04	0	42	0	1177550848	21	5734
2026-01-13 00:43:38.91	208.32	14.84	-30.6	-34.6	11.5	9.08e-04	0	42	0	1183842304	21	5692
2026-01-13 00:43:41.93	208.27	14.52	-30.7	-34.8	11.4	1.32e-03	0	42	0	1189085184	21	5790
2026-01-13 00:43:44.96	208.23	14.21	-30.7	-34.8	11.4	1.06e-03	0	42	0	1194328064	21	5797
2026-01-13 00:43:47.98	208.18	13.90	-30.7	-34.9	11.3	3.18e-03	0	42	0	1200619520	21	5828
2026-01-13 00:43:50.99	208.13	13.59	-30.6	-34.8	11.3	2.98e-03	0	42	0	1205862400	21	5796
2026-01-13 00:43:54.02	208.09	13.29	-30.7	-35.1	11.0	3.23e-03	0	42	0	1212153856	21	5972
2026-01-13 00:43:57.04	208.05	12.99	-30.6	-34.8	11.3	3.00e-03	0	42	0	1217396736	21	5811
2026-01-13 00:44:00.06	208.00	12.69	-30.7	-35.2	10.9	4.03e-03	0	42	0	1222639616	21	6005
2026-01-13 00:44:03.08	207.96	12.40	-30.9	-35.9	10.4	6.07e-03	0	42	0	1228931072	21	6362
2026-01-13 00:44:06.08	207.92	12.12	-30.7	-35.0	11.0	2.01e-03	0	42	0	1234173952	21	5947
2026-01-13 00:44:09.10	207.88	11.83	-30.6	-34.9	11.1	3.57e-03	0	42	0	1239416832	21	5866
2026-01-13 00:44:12.11	207.84	11.55	-30.5	-34.4	11.4	3.52e-03	0	42	0	1245708288	21	5656
2026-01-13 00:44:15.13	207.81	11.27	-30.6	-34.7	11.2	3.19e-03	0	42	0	1250951168	21	5788
2026-01-13 00:44:18.14	207.77	11.00	-30.7	-35.3	10.7	5.11e-03	0	42	0	1257242624	21	6063
2026-01-13 00:44:21.16	207.73	10.72	-30.7	-35.3	10.6	3.13e-03	0	42	0	1262485504	21	6091
2026-01-13 00:44:24.18	207.70	10.45	-30.7	-35.2	10.7	3.75e-03	0	42	0	1267728384	21	6022
2026-01-13 00:44:27.19	207.67	10.19	-30.5	-34.5	11.2	1.34e-03	0	42	0	1274019840	21	5731
2026-01-13 00:44:30.21	207.63	9.92	-30.6	-35.0	10.8	2.24e-03	0	42	0	1279262720	21	5962
2026-01-13 00:44:33.22	207.60	9.66	-30.6	-35.0	10.8	2.31e-03	0	42	0	1285554176	21	5960
2026-01-13 00:44:36.23	207.57	9.41	-30.5	-34.8	10.9	2.39e-03	0	42	0	1290797056	21	5862
2026-01-13 00:44:39.25	207.54	9.15	-30.6	-35.0	10.7	2.74e-03	0	42	0	1296039936	21	5974
2026-01-13 00:44:42.26	207.51	8.90	-30.8	-35.6	10.3	3.81e-03	0	42	0	1302331392	21	6251
2026-01-13 00:44:45.26	207.48	8.65	-30.8	-35.7	10.1	4.98e-03	0	42	0	1307574272	21	6354
2026-01-13 00:44:48.27	207.45	8.40	-30.9	-36.0	9.9	9.61e-03	0	42	0	1313865728	21	6526
2026-01-13 00:44:51.28	207.42	8.16	-30.9	-36.1	9.3	1.11e-02	0	42	0	1319108608	21	6570
2026-01-13 00:44:54.29	207.39	7.92	-30.9	-36.2	9.6	1.12e-02	0	42	0	1324351488	21	6631
2026-01-13 00:44:57.31	207.36	7.68	-31.0	-36.2	9.3	1.61e-02	0	42	0	1330642944	22	6525
2026-01-13 00:45:00.32	207.34	7.44	-31.1	-36.5	9.1	2.41e-02	0	42	0	1335885824	22	6677
2026-01-13 00:45:03.33	207.31	7.20	-31.2	-36.9	8.7	3.55e-02	0	42	0	1341128704	22	6948
2026-01-13 00:45:06.34	207.28	6.97	-33.2	-47.5	3.8	1.49e+00	0	42	104	1343225856	26	18607

#Closed at: 2026-01-13 00:45:07
#Recorded file [1343 MB]: D:/data/31010_260113_033307.dat