passes_logs/2026/01/13/R2M6_AANII_01/R2M6_AANII_01__20260113_235334_SUOMI_NPP_rec.log

#Pass ID: 20260113_235334_SUOMI NPP
#Satellite: SUOMI NPP
#Configuration: NPP
#almurnet v.1.7.20240730
#Start time: 2026-01-13 23:53:34

#Version: 2.2.20231116
#Station: R2M6_AANII_01
#Location: 30.233357 lon 59.946436 lat
#TLE: 1 37849U 11061A   26013.27136842  .00000065  00000+0  51889-4 0  9990
#TLE: 2 37849  98.7808 315.3349 0002489  66.6776 293.4661 14.19524902736466

#Time	Az	El	Level	Level2	SNR	BER	BlckErr	Temp	State	Recorded	gain1	gain2
2026-01-13 23:53:34.31	21.16	6.97	-31.1	-34.8	5.2	1.25e+00	0	40	0	0	22	5521
2026-01-13 23:53:37.33	21.26	7.20	-31.5	-36.0	7.9	7.01e-02	0	41	0	1048576	23	6002
2026-01-13 23:53:40.33	21.36	7.43	-31.5	-36.2	8.2	5.66e-02	0	40	0	7340032	22	6178
2026-01-13 23:53:43.34	21.46	7.66	-31.5	-35.9	8.0	9.02e-02	0	40	0	12582912	23	5972
2026-01-13 23:53:46.33	21.57	7.89	-31.5	-35.7	8.2	5.18e-02	0	41	0	17825792	23	5849
2026-01-13 23:53:49.34	21.67	8.13	-31.5	-35.7	8.2	8.80e-02	0	41	0	24117248	23	5849
2026-01-13 23:53:52.35	21.78	8.37	-31.3	-35.2	9.1	2.38e-02	0	41	0	29360128	22	5639
2026-01-13 23:53:55.36	21.89	8.61	-31.2	-34.8	9.4	1.49e-02	0	41	0	35651584	22	5462
2026-01-13 23:53:58.37	22.00	8.85	-31.0	-34.0	10.0	8.65e-03	0	41	0	40894464	22	5099
2026-01-13 23:54:01.38	22.11	9.09	-31.1	-34.5	9.7	1.18e-02	0	41	0	46137344	22	5284
2026-01-13 23:54:04.39	22.22	9.34	-31.1	-34.2	9.9	9.39e-03	0	41	0	52428800	22	5178
2026-01-13 23:54:07.40	22.34	9.59	-31.3	-35.1	9.3	1.50e-02	0	41	0	57671680	22	5583
2026-01-13 23:54:10.42	22.46	9.84	-30.7	-33.6	10.8	3.69e-03	0	41	0	63963136	21	5001
2026-01-13 23:54:13.43	22.58	10.09	-30.6	-33.1	11.1	1.98e-03	0	41	0	69206016	21	4829
2026-01-13 23:54:16.44	22.70	10.35	-30.2	-31.8	12.1	4.06e-04	0	42	0	74448896	21	4355
2026-01-13 23:54:19.45	22.82	10.61	-30.4	-32.9	11.7	4.56e-04	0	41	0	80740352	20	4816
2026-01-13 23:54:22.45	22.94	10.87	-30.3	-32.8	11.8	5.83e-04	0	42	0	85983232	20	4763
2026-01-13 23:54:25.46	23.07	11.13	-30.2	-32.3	12.2	2.29e-04	0	42	0	91226112	20	4598
2026-01-13 23:54:28.47	23.20	11.40	-30.2	-32.3	12.2	1.81e-04	0	42	0	97517568	20	4587
2026-01-13 23:54:31.48	23.33	11.67	-30.2	-32.2	12.3	9.47e-04	0	42	0	102760448	20	4542
2026-01-13 23:54:34.48	23.46	11.94	-30.1	-32.1	12.3	1.50e-04	0	42	0	109051904	20	4515
2026-01-13 23:54:37.49	23.60	12.22	-30.3	-32.6	12.0	2.07e-04	0	42	0	114294784	20	4695
2026-01-13 23:54:40.49	23.73	12.49	-30.0	-31.7	12.7	8.77e-05	0	42	0	119537664	20	4379
2026-01-13 23:54:43.50	23.87	12.78	-29.9	-32.0	12.9	5.64e-05	0	42	0	125829120	19	4562
2026-01-13 23:54:46.52	24.02	13.06	-30.0	-31.8	12.6	1.42e-03	0	42	0	131072000	20	4417
2026-01-13 23:54:49.53	24.16	13.35	-30.1	-32.0	12.6	1.68e-03	0	42	0	136314880	20	4470
2026-01-13 23:54:52.54	24.31	13.64	-29.9	-31.9	13.1	1.98e-03	0	42	0	142606336	19	4511
2026-01-13 23:54:55.54	24.46	13.94	-30.1	-31.9	12.7	2.15e-03	0	42	0	147849216	20	4439
2026-01-13 23:54:58.56	24.61	14.24	-29.9	-31.4	13.0	3.28e-05	0	42	0	154140672	20	4278
2026-01-13 23:55:01.57	24.77	14.54	-29.8	-31.6	13.3	3.50e-05	0	42	0	159383552	19	4414
2026-01-13 23:55:04.57	24.93	14.84	-29.9	-31.9	13.1	7.09e-04	0	42	0	164626432	19	4500
2026-01-13 23:55:07.55	25.09	15.15	-30.0	-31.6	12.9	9.52e-04	0	42	0	170917888	20	4345
2026-01-13 23:55:10.55	25.25	15.46	-29.9	-31.4	13.0	6.38e-04	0	42	0	176160768	20	4278
2026-01-13 23:55:13.55	25.42	15.78	-29.8	-31.1	13.2	3.88e-04	0	42	0	181403648	20	4182
2026-01-13 23:55:16.55	25.59	16.10	-29.8	-31.5	13.4	4.14e-04	0	42	0	187695104	19	4377
2026-01-13 23:55:19.56	25.76	16.42	-29.7	-31.2	13.6	5.68e-04	0	42	0	192937984	19	4268
2026-01-13 23:55:22.57	25.94	16.75	-29.6	-31.0	13.8	7.38e-04	0	42	0	199229440	19	4224
2026-01-13 23:55:25.58	26.12	17.08	-29.8	-31.5	13.5	2.16e-03	0	42	0	204472320	19	4372
2026-01-13 23:55:28.58	26.31	17.42	-29.6	-30.8	13.9	2.57e-03	0	42	0	209715200	19	4163
2026-01-13 23:55:31.60	26.50	17.76	-29.6	-30.9	13.9	2.68e-03	0	42	0	216006656	19	4176
2026-01-13 23:55:34.61	26.69	18.11	-29.4	-31.0	14.2	2.35e-03	0	42	0	221249536	18	4302
2026-01-13 23:55:37.61	26.89	18.46	-29.3	-30.8	14.3	8.16e-04	0	42	0	226492416	18	4230
2026-01-13 23:55:40.61	27.09	18.82	-29.3	-30.6	14.4	7.00e-07	0	42	0	232783872	18	4190
2026-01-13 23:55:43.61	27.30	19.18	-29.2	-30.3	14.7	0.00e+00	0	42	0	238026752	18	4089
2026-01-13 23:55:46.61	27.51	19.54	-28.8	-29.8	15.2	6.01e-04	0	42	0	243269632	17	4060
2026-01-13 23:55:49.62	27.73	19.91	-28.6	-29.3	15.5	3.93e-04	0	42	0	249561088	17	3910
2026-01-13 23:55:52.62	27.95	20.29	-28.6	-29.4	15.5	3.46e-04	0	42	0	254803968	17	3926
2026-01-13 23:55:55.62	28.17	20.67	-28.6	-29.4	15.5	3.35e-04	0	42	0	261095424	17	3939
2026-01-13 23:55:58.62	28.40	21.06	-28.8	-29.8	15.3	0.00e+00	0	43	0	266338304	17	4051
2026-01-13 23:56:01.63	28.64	21.45	-28.9	-29.5	15.2	0.00e+00	0	42	0	271581184	18	3858
2026-01-13 23:56:04.62	28.88	21.84	-28.8	-29.8	15.3	0.00e+00	0	42	0	277872640	17	4052
2026-01-13 23:56:07.61	29.13	22.25	-28.7	-29.7	15.4	0.00e+00	0	42	0	283115520	17	4006
2026-01-13 23:56:10.63	29.39	22.66	-28.8	-29.8	15.3	3.89e-04	0	43	0	289406976	17	4048
2026-01-13 23:56:13.64	29.65	23.08	-28.6	-29.4	15.6	4.00e-04	0	42	0	294649856	17	3942
2026-01-13 23:56:16.64	29.92	23.50	-28.8	-29.8	15.3	0.00e+00	0	43	0	299892736	17	4052
2026-01-13 23:56:19.64	30.19	23.93	-28.7	-29.6	15.5	0.00e+00	0	43	0	306184192	17	3985
2026-01-13 23:56:22.64	30.48	24.36	-28.6	-29.4	15.6	0.00e+00	0	42	0	311427072	17	3938
2026-01-13 23:56:25.66	30.77	24.80	-28.5	-29.4	15.9	0.00e+00	0	43	0	316669952	16	4029
2026-01-13 23:56:28.66	31.07	25.25	-28.2	-28.9	16.2	0.00e+00	0	43	0	322961408	16	3929
2026-01-13 23:56:31.66	31.37	25.71	-28.3	-29.1	15.8	4.57e-05	0	43	0	328204288	16	3935
2026-01-13 23:56:34.67	31.69	26.17	-28.5	-28.9	15.9	7.09e-05	0	43	0	334495744	17	3806
2026-01-13 23:56:37.67	32.01	26.64	-28.4	-28.8	16.0	0.00e+00	0	43	0	339738624	17	3781
2026-01-13 23:56:40.68	32.35	27.12	-28.5	-29.1	15.9	0.00e+00	0	43	0	344981504	17	3847
2026-01-13 23:56:43.68	32.69	27.60	-28.9	-30.1	15.3	0.00e+00	0	43	0	351272960	17	4114
2026-01-13 23:56:46.69	33.04	28.10	-29.4	-30.3	14.6	7.00e-07	0	42	0	356515840	19	3973
2026-01-13 23:56:49.69	33.41	28.60	-29.5	-30.5	14.5	7.00e-07	0	43	0	361758720	19	4028
2026-01-13 23:56:52.69	33.78	29.10	-29.7	-31.0	14.2	1.50e-06	0	43	0	368050176	19	4192
2026-01-13 23:56:55.70	34.17	29.62	-30.1	-31.7	13.4	7.60e-06	0	42	0	373293056	20	4301
2026-01-13 23:56:58.70	34.57	30.15	-30.5	-32.0	12.8	5.26e-05	0	43	0	378535936	21	4322
2026-01-13 23:57:01.71	34.98	30.68	-30.8	-32.9	12.3	1.72e-04	0	43	0	384827392	21	4625
2026-01-13 23:57:04.72	35.41	31.22	-31.2	-33.8	11.4	5.96e-04	0	43	0	390070272	22	4835
2026-01-13 23:57:07.72	35.85	31.77	-30.8	-32.4	12.3	4.68e-04	0	43	0	396361728	22	4361
2026-01-13 23:57:10.71	36.30	32.33	-30.6	-32.5	12.6	3.00e-04	0	42	0	401604608	21	4479
2026-01-13 23:57:13.71	36.77	32.89	-30.7	-32.6	12.5	4.92e-04	0	43	0	406847488	21	4510
2026-01-13 23:57:16.73	37.26	33.47	-30.6	-32.4	12.7	4.84e-04	0	43	0	413138944	21	4444
2026-01-13 23:57:19.73	37.77	34.06	-30.6	-32.5	12.7	4.24e-04	0	43	0	418381824	21	4451
2026-01-13 23:57:22.73	38.29	34.65	-30.5	-32.1	12.9	1.95e-04	0	43	0	423624704	21	4337
2026-01-13 23:57:25.74	38.83	35.25	-30.5	-32.1	12.9	6.33e-05	0	43	0	429916160	21	4347
2026-01-13 23:57:28.74	39.39	35.86	-30.5	-32.1	12.8	9.53e-05	0	43	0	435159040	21	4327
2026-01-13 23:57:31.73	39.97	36.48	-30.5	-32.0	13.0	7.93e-05	0	42	0	441450496	21	4295
2026-01-13 23:57:34.74	40.58	37.11	-30.6	-32.4	12.7	8.69e-05	0	43	0	446693376	21	4422
2026-01-13 23:57:37.74	41.21	37.75	-30.7	-32.8	12.5	3.04e-04	0	43	0	451936256	21	4575
2026-01-13 23:57:40.75	41.86	38.39	-31.7	-34.5	10.6	1.99e-03	0	43	0	458227712	23	5021
2026-01-13 23:57:43.76	42.54	39.05	-31.5	-34.2	10.7	1.76e-03	0	43	0	463470592	23	4903
2026-01-13 23:57:46.76	43.25	39.71	-30.6	-32.5	12.7	6.25e-05	0	43	0	468713472	21	4448
2026-01-13 23:57:49.76	43.98	40.38	-29.9	-31.1	14.0	1.42e-04	0	43	0	475004928	20	4093
2026-01-13 23:57:52.76	44.75	41.06	-30.1	-31.5	13.7	4.57e-05	0	43	0	480247808	20	4222
2026-01-13 23:57:55.78	45.55	41.75	-31.1	-33.3	11.9	2.58e-04	0	43	0	486539264	22	4623
2026-01-13 23:57:58.78	46.39	42.44	-30.1	-31.0	13.8	1.37e-05	0	43	0	491782144	21	3982
2026-01-13 23:58:01.79	47.26	43.14	-29.7	-30.5	14.4	2.20e-06	0	43	0	497025024	20	3935
2026-01-13 23:58:04.78	48.16	43.84	-30.3	-32.1	13.4	1.83e-05	0	43	0	503316480	20	4406
2026-01-13 23:58:07.79	49.11	44.55	-30.4	-31.7	13.3	9.10e-06	0	43	0	508559360	21	4197
2026-01-13 23:58:10.80	50.10	45.26	-30.9	-33.2	12.3	4.95e-05	0	43	0	513802240	21	4674
2026-01-13 23:58:13.80	51.14	45.97	-31.2	-33.4	11.9	2.61e-04	0	43	0	520093696	22	4651
2026-01-13 23:58:16.81	52.23	46.69	-31.0	-32.8	12.3	9.68e-05	0	43	0	525336576	22	4443
2026-01-13 23:58:19.82	53.36	47.41	-31.9	-35.1	10.2	3.15e-03	0	43	0	531628032	23	5253
2026-01-13 23:58:22.82	54.55	48.13	-32.5	-36.5	8.5	2.91e-02	0	43	0	536870912	25	5705
2026-01-13 23:58:25.83	55.79	48.85	-31.9	-34.0	10.4	5.70e-03	0	43	0	542113792	25	4634
2026-01-13 23:58:28.83	57.09	49.56	-31.7	-34.0	11.0	1.70e-03	0	43	0	548405248	24	4687
2026-01-13 23:58:31.83	58.45	50.27	-31.3	-32.9	11.7	1.20e-03	0	43	0	553648128	24	4303
2026-01-13 23:58:34.84	59.89	50.97	-30.8	-32.3	12.7	7.70e-05	0	43	0	558891008	22	4288
2026-01-13 23:58:37.83	61.37	51.66	-31.0	-32.8	12.4	1.72e-04	0	43	0	565182464	22	4437
2026-01-13 23:58:40.84	62.94	52.35	-30.2	-31.3	13.7	3.80e-06	0	43	0	570425344	21	4049
2026-01-13 23:58:43.85	64.58	53.02	-30.7	-32.5	12.9	2.82e-05	0	43	0	575668224	21	4438
2026-01-13 23:58:46.86	66.30	53.67	-29.9	-30.4	14.3	3.00e-06	0	43	0	581959680	21	3798
2026-01-13 23:58:49.86	68.09	54.31	-30.3	-32.0	13.6	1.50e-06	0	43	0	587202560	20	4354
2026-01-13 23:58:52.86	69.96	54.92	-30.7	-32.5	13.0	2.82e-05	0	43	0	593494016	21	4440
2026-01-13 23:58:55.86	71.91	55.51	-30.5	-32.0	13.3	2.36e-05	0	43	0	598736896	21	4267
2026-01-13 23:58:58.88	73.95	56.08	-30.7	-31.9	13.2	4.95e-05	0	43	0	603979776	22	4129
2026-01-13 23:59:01.88	76.06	56.61	-30.6	-32.2	13.3	1.22e-05	0	43	0	610271232	21	4326
2026-01-13 23:59:04.87	78.24	57.10	-30.5	-31.9	13.4	3.00e-06	0	43	0	615514112	21	4220
2026-01-13 23:59:07.87	80.51	57.57	-32.5	-36.5	9.1	1.13e-02	0	43	0	620756992	24	5756
2026-01-13 23:59:10.87	82.86	57.99	-31.4	-33.1	11.6	1.55e-03	0	43	0	627048448	24	4351
2026-01-13 23:59:13.87	85.27	58.37	-31.4	-33.4	11.9	4.51e-04	0	43	0	632291328	23	4526
2026-01-13 23:59:16.87	87.75	58.70	-32.5	-36.2	8.8	1.97e-02	0	43	0	638582784	25	5528
2026-01-13 23:59:19.88	90.29	58.98	-31.7	-33.9	10.9	1.80e-03	0	43	0	643825664	24	4638
2026-01-13 23:59:22.88	92.88	59.22	-31.6	-34.0	11.4	1.05e-03	0	43	0	649068544	23	4739
2026-01-13 23:59:25.88	95.51	59.40	-31.7	-33.8	11.2	3.17e-03	0	43	0	655360000	24	4579
2026-01-13 23:59:28.88	98.17	59.52	-31.3	-33.3	11.9	5.43e-04	0	43	0	660602880	23	4486
2026-01-13 23:59:31.88	100.85	59.59	-31.8	-34.6	10.9	7.07e-04	0	43	0	665845760	23	4990
2026-01-13 23:59:34.89	103.55	59.61	-30.4	-31.2	13.7	1.52e-05	0	43	0	672137216	22	3915
2026-01-13 23:59:37.89	106.24	59.56	-30.3	-31.7	13.9	7.60e-06	0	43	0	677380096	20	4264
2026-01-13 23:59:40.90	108.92	59.46	-30.3	-31.8	13.8	1.50e-06	0	43	0	682622976	20	4281
2026-01-13 23:59:43.90	111.57	59.31	-31.0	-32.8	12.7	5.79e-05	0	43	0	688914432	22	4398
2026-01-13 23:59:46.91	114.18	59.10	-30.7	-31.8	13.4	1.17e-04	0	43	0	694157312	22	4087
2026-01-13 23:59:49.92	116.76	58.84	-31.5	-33.5	11.8	3.16e-04	0	43	0	700448768	23	4567
2026-01-13 23:59:52.92	119.27	58.53	-31.7	-34.2	11.3	6.62e-04	0	43	0	705691648	23	4803
2026-01-13 23:59:55.91	121.71	58.17	-30.6	-31.7	13.3	2.08e-04	0	43	0	710934528	22	4074
2026-01-13 23:59:58.93	124.10	57.77	-30.6	-32.2	13.2	1.14e-05	0	43	0	717225984	21	4323
2026-01-14 00:00:01.93	126.41	57.32	-29.9	-30.8	14.5	7.00e-07	0	43	0	722468864	20	3990
2026-01-14 00:00:04.94	128.65	56.84	-29.8	-30.5	14.7	1.50e-06	0	43	0	727711744	20	3895
2026-01-14 00:00:07.94	130.80	56.32	-29.0	-29.1	15.9	0.00e+00	0	43	0	734003200	19	3637
2026-01-14 00:00:10.94	132.87	55.77	-28.4	-28.1	16.7	0.00e+00	0	43	0	739246080	18	3475
2026-01-14 00:00:13.94	134.86	55.19	-30.0	-30.9	14.4	0.00e+00	0	43	0	745537536	20	4032
2026-01-14 00:00:16.94	136.77	54.59	-27.7	-27.6	17.5	0.00e+00	0	43	0	750780416	16	3545
2026-01-14 00:00:19.93	138.59	53.96	-28.4	-28.3	16.6	0.00e+00	0	43	0	756023296	18	3521
2026-01-14 00:00:22.92	140.33	53.32	-29.7	-30.8	14.8	0.00e+00	0	43	0	762314752	19	4084
2026-01-14 00:00:25.92	142.01	52.66	-28.0	-27.7	17.2	0.00e+00	0	43	0	767557632	17	3483
2026-01-14 00:00:28.91	143.60	51.98	-28.5	-29.4	16.6	0.00e+00	0	43	0	772800512	16	3983
2026-01-14 00:00:31.91	145.13	51.29	-29.6	-30.5	15.1	0.00e+00	0	43	0	779091968	19	3990
2026-01-14 00:00:34.91	146.59	50.59	-29.4	-30.0	15.3	0.00e+00	0	43	0	784334848	19	3875
2026-01-14 00:00:37.91	147.99	49.88	-30.3	-31.9	13.8	1.50e-06	0	43	0	789577728	20	4323
2026-01-14 00:00:40.93	149.33	49.16	-33.1	-38.6	6.8	7.18e-02	0	43	0	795869184	26	6749
2026-01-14 00:00:43.94	150.60	48.44	-32.2	-35.1	9.8	2.02e-02	0	43	0	801112064	25	5037
2026-01-14 00:00:46.95	151.82	47.72	-32.2	-35.2	9.7	1.71e-02	0	43	0	807403520	25	5065
2026-01-14 00:00:49.95	152.98	47.00	-31.6	-33.5	11.4	1.58e-03	0	43	0	812646400	24	4486
2026-01-14 00:00:52.94	154.08	46.28	-31.0	-33.4	11.9	3.09e-04	0	43	0	817889280	22	4743
2026-01-14 00:00:55.95	155.15	45.56	-29.5	-29.8	15.0	9.91e-05	0	43	0	824180736	20	3724
2026-01-14 00:00:58.95	156.16	44.85	-31.3	-33.7	12.0	3.81e-05	0	43	0	829423616	22	4744
2026-01-14 00:01:01.95	157.13	44.13	-29.9	-30.4	14.4	3.00e-06	0	43	0	834666496	21	3794
2026-01-14 00:01:04.95	158.05	43.43	-30.0	-31.5	14.3	7.00e-07	0	43	0	840957952	19	4306
2026-01-14 00:01:07.96	158.94	42.72	-30.3	-31.9	13.7	7.60e-06	0	43	0	846200832	20	4323
2026-01-14 00:01:10.97	159.80	42.02	-29.7	-30.9	14.7	0.00e+00	0	43	0	852492288	19	4107
2026-01-14 00:01:13.97	160.61	41.33	-30.2	-31.8	13.6	9.18e-04	0	43	0	857735168	20	4317
2026-01-14 00:01:16.97	161.39	40.65	-29.4	-30.6	15.2	1.39e-03	0	43	0	862978048	18	4134
2026-01-14 00:01:19.97	162.14	39.97	-30.4	-31.9	13.3	1.51e-03	0	43	0	869269504	21	4235
2026-01-14 00:01:22.97	162.86	39.31	-29.1	-30.1	15.4	0.00e+00	0	43	0	874512384	18	4029
2026-01-14 00:01:25.96	163.55	38.65	-29.5	-30.3	14.8	0.00e+00	0	43	0	879755264	19	3963
2026-01-14 00:01:28.97	164.22	37.99	-29.7	-31.0	14.5	6.99e-04	0	43	0	886046720	19	4166
2026-01-14 00:01:31.98	164.86	37.35	-30.1	-31.4	13.9	1.42e-03	0	43	0	891289600	20	4203
2026-01-14 00:01:34.97	165.48	36.71	-29.8	-31.0	14.6	8.10e-04	0	43	0	896532480	19	4160
2026-01-14 00:01:37.97	166.07	36.09	-31.0	-33.4	12.3	6.51e-04	0	43	0	902823936	21	4758
2026-01-14 00:01:40.97	166.64	35.47	-31.7	-34.7	10.6	5.03e-03	0	43	0	908066816	23	5088
2026-01-14 00:01:43.97	167.19	34.86	-30.9	-32.7	12.4	2.35e-04	0	43	0	914358272	22	4441
2026-01-14 00:01:46.96	167.72	34.26	-31.0	-33.8	11.9	1.84e-03	0	43	0	919601152	21	4956
2026-01-14 00:01:49.96	168.23	33.67	-31.3	-34.1	11.3	3.22e-03	0	43	0	924844032	22	4962
2026-01-14 00:01:52.96	168.73	33.09	-31.9	-35.5	10.0	5.67e-03	0	43	0	931135488	23	5421
2026-01-14 00:01:55.96	169.21	32.52	-31.4	-34.2	11.3	2.51e-03	0	43	0	936378368	22	4959
2026-01-14 00:01:58.96	169.67	31.95	-31.8	-35.3	10.0	6.91e-03	0	43	0	941621248	23	5385
2026-01-14 00:02:01.96	170.11	31.40	-31.5	-34.4	10.7	4.90e-03	0	43	0	947912704	23	4996
2026-01-14 00:02:04.97	170.55	30.85	-31.9	-35.7	9.8	1.10e-02	0	43	0	953155584	23	5536
2026-01-14 00:02:07.96	170.96	30.31	-31.7	-34.6	10.6	4.03e-03	0	43	0	958398464	23	5042
2026-01-14 00:02:10.96	171.37	29.78	-32.0	-35.1	9.9	1.39e-02	0	43	0	964689920	24	5169
2026-01-14 00:02:13.96	171.76	29.26	-31.3	-33.8	11.5	2.53e-03	0	43	0	969932800	22	4833
2026-01-14 00:02:16.97	172.14	28.74	-31.0	-33.0	12.0	1.92e-03	0	43	0	976224256	22	4516
2026-01-14 00:02:19.96	172.51	28.24	-31.0	-33.0	12.1	2.81e-04	0	43	0	981467136	22	4539
2026-01-14 00:02:22.96	172.87	27.74	-31.1	-33.3	11.9	4.01e-04	0	43	0	986710016	22	4628
2026-01-14 00:02:25.96	173.22	27.25	-30.9	-32.7	12.2	8.89e-04	0	43	0	993001472	22	4440
2026-01-14 00:02:28.96	173.55	26.77	-30.2	-31.3	13.4	7.36e-04	0	43	0	998244352	21	4112
2026-01-14 00:02:31.96	173.88	26.29	-29.8	-31.1	14.4	4.51e-04	0	43	0	1003487232	19	4194
2026-01-14 00:02:34.98	174.20	25.82	-29.6	-30.7	14.6	4.49e-04	0	43	0	1009778688	19	4081
2026-01-14 00:02:37.98	174.51	25.36	-29.3	-30.0	15.0	1.61e-04	0	43	0	1015021568	19	3886
2026-01-14 00:02:40.99	174.81	24.91	-29.5	-30.5	14.6	1.46e-04	0	43	0	1020264448	19	4029
2026-01-14 00:02:43.99	175.11	24.46	-30.0	-31.2	13.8	1.91e-04	0	43	0	1026555904	20	4149
2026-01-14 00:02:47.00	175.39	24.02	-30.1	-31.7	13.5	2.15e-04	0	43	0	1031798784	20	4295
2026-01-14 00:02:50.00	175.67	23.59	-29.8	-30.7	14.1	1.50e-06	0	43	0	1038090240	20	4009
2026-01-14 00:02:52.99	175.94	23.16	-29.0	-29.2	15.3	2.56e-04	0	43	0	1043333120	19	3682
2026-01-14 00:02:55.99	176.20	22.74	-28.3	-28.6	16.3	2.28e-04	0	43	0	1048576000	17	3702
2026-01-14 00:02:58.98	176.46	22.33	-27.6	-27.9	17.0	2.72e-04	0	43	0	1054867456	15	3737
2026-01-14 00:03:01.97	176.71	21.92	-27.9	-28.7	16.6	3.75e-04	0	43	0	1060110336	15	3930
2026-01-14 00:03:04.98	176.95	21.52	-28.5	-29.1	16.0	0.00e+00	0	43	0	1065353216	17	3843
2026-01-14 00:03:07.98	177.19	21.12	-28.8	-29.7	15.6	0.00e+00	0	43	0	1071644672	17	4013
2026-01-14 00:03:10.97	177.42	20.73	-28.7	-29.6	15.6	0.00e+00	0	43	0	1076887552	17	3976
2026-01-14 00:03:13.98	177.65	20.35	-28.8	-29.6	15.6	2.50e-04	0	43	0	1083179008	17	3991
2026-01-14 00:03:16.98	177.87	19.97	-28.5	-29.0	15.9	2.25e-04	0	43	0	1088421888	17	3829
2026-01-14 00:03:19.98	178.09	19.59	-27.9	-28.7	15.6	2.60e-04	0	43	0	1093664768	17	3934
2026-01-14 00:03:22.98	178.30	19.22	-28.7	-29.7	14.5	0.00e+00	0	43	0	1099956224	17	4002
2026-01-14 00:03:25.98	178.51	18.86	-28.7	-29.6	15.5	0.00e+00	0	43	0	1105199104	17	3987
2026-01-14 00:03:28.98	178.71	18.50	-29.1	-30.2	15.0	0.00e+00	0	43	0	1110441984	18	4046
2026-01-14 00:03:31.92	178.90	18.15	-29.3	-30.6	14.6	4.63e-04	0	43	0	1116733440	18	4174
2026-01-14 00:03:34.91	179.10	17.80	-28.8	-30.4	13.9	5.01e-04	0	43	0	1121976320	19	4333
2026-01-14 00:03:37.91	179.29	17.46	-29.9	-31.7	12.7	5.84e-04	0	43	0	1127219200	19	4412
2026-01-14 00:03:40.92	179.47	17.12	-29.9	-31.1	13.5	1.29e-05	0	43	0	1133510656	20	4153
2026-01-14 00:03:43.92	179.65	16.78	-29.8	-31.4	13.8	7.60e-06	0	43	0	1138753536	19	4331
2026-01-14 00:03:46.92	179.83	16.45	-30.1	-31.6	13.2	3.81e-05	0	43	0	1143996416	20	4306
2026-01-14 00:03:49.93	180.01	16.12	-29.9	-31.6	13.7	1.41e-03	0	43	0	1150287872	19	4380
2026-01-14 00:03:52.94	180.18	15.80	-29.9	-31.3	13.5	3.57e-04	0	43	0	1155530752	20	4198
2026-01-14 00:03:55.94	180.35	15.48	-29.6	-30.8	14.1	3.98e-04	0	43	0	1160773632	19	4148
2026-01-14 00:03:58.95	180.51	15.16	-29.3	-30.5	14.6	0.00e+00	0	43	0	1167065088	18	4160
2026-01-14 00:04:01.96	180.67	14.85	-29.5	-30.6	14.2	0.00e+00	0	43	0	1172307968	19	4083
2026-01-14 00:04:04.97	180.83	14.54	-29.7	-31.1	13.8	4.36e-04	0	43	0	1178599424	19	4248
2026-01-14 00:04:07.97	180.98	14.24	-29.7	-31.1	13.8	2.25e-04	0	43	0	1183842304	19	4239
2026-01-14 00:04:10.99	181.14	13.93	-29.6	-30.8	13.9	1.13e-04	0	43	0	1189085184	19	4163
2026-01-14 00:04:13.99	181.29	13.64	-29.6	-30.9	13.9	1.99e-04	0	43	0	1195376640	19	4172
2026-01-14 00:04:16.98	181.43	13.35	-29.8	-31.5	13.5	1.20e-04	0	43	0	1200619520	19	4372
2026-01-14 00:04:19.97	181.58	13.06	-29.9	-31.6	13.4	5.30e-06	0	43	0	1205862400	19	4406
2026-01-14 00:04:22.97	181.72	12.77	-29.9	-31.6	13.4	1.03e-04	0	43	0	1212153856	19	4402
2026-01-14 00:04:25.95	181.85	12.49	-29.9	-31.4	13.1	1.09e-04	0	43	0	1217396736	20	4254
2026-01-14 00:04:28.95	181.99	12.21	-30.1	-31.8	12.8	1.44e-04	0	43	0	1223688192	20	4373
2026-01-14 00:04:31.95	182.12	11.93	-30.2	-32.2	12.6	2.00e-04	0	43	0	1228931072	20	4511
2026-01-14 00:04:34.95	182.25	11.66	-30.3	-32.6	12.3	2.11e-04	0	43	0	1234173952	20	4644
2026-01-14 00:04:37.95	182.38	11.38	-30.5	-32.5	12.0	4.11e-04	0	43	0	1240465408	21	4533
2026-01-14 00:04:40.94	182.51	11.12	-30.5	-32.7	11.8	5.68e-04	0	43	0	1245708288	21	4593
2026-01-14 00:04:43.95	182.64	10.85	-30.6	-32.8	11.7	6.78e-04	0	43	0	1250951168	21	4662
2026-01-14 00:04:46.96	182.76	10.59	-30.5	-32.6	11.8	9.51e-04	0	43	0	1257242624	21	4590
2026-01-14 00:04:49.96	182.88	10.32	-30.2	-32.1	12.5	3.64e-04	0	43	0	1262485504	20	4499
2026-01-14 00:04:52.96	183.00	10.07	-30.0	-31.7	12.7	3.45e-04	0	43	0	1267728384	20	4376
2026-01-14 00:04:55.96	183.12	9.81	-30.1	-32.1	12.5	8.54e-05	0	43	0	1274019840	20	4500
2026-01-14 00:04:58.96	183.23	9.56	-30.1	-31.9	12.5	1.24e-04	0	43	0	1279262720	20	4434
2026-01-14 00:05:01.96	183.34	9.31	-30.2	-32.4	12.2	1.40e-04	0	43	0	1285554176	20	4616
2026-01-14 00:05:04.97	183.46	9.06	-30.2	-32.3	12.2	8.70e-04	0	43	0	1290797056	20	4605
2026-01-14 00:05:07.98	183.57	8.81	-30.2	-32.4	12.1	1.16e-03	0	43	0	1296039936	20	4642
2026-01-14 00:05:10.98	183.67	8.57	-30.3	-32.7	11.9	1.44e-03	0	43	0	1302331392	20	4737
2026-01-14 00:05:13.99	183.78	8.33	-30.5	-32.9	11.4	8.88e-04	0	43	0	1307574272	21	4718
2026-01-14 00:05:16.99	183.89	8.09	-30.8	-33.7	10.8	1.96e-03	0	43	0	1312817152	21	5017
2026-01-14 00:05:19.99	183.99	7.85	-30.8	-33.8	10.7	3.27e-03	0	43	0	1319108608	21	5069
2026-01-14 00:05:23.00	184.09	7.62	-30.6	-33.3	11.0	2.16e-03	0	43	0	1324351488	21	4892
2026-01-14 00:05:26.00	184.19	7.39	-30.8	-33.8	10.6	3.63e-03	0	43	0	1330642944	21	5105
2026-01-14 00:05:29.01	184.29	7.16	-30.9	-33.7	10.3	6.96e-03	0	43	0	1335885824	22	4955
2026-01-14 00:05:32.00	184.39	6.93	-33.3	-45.9	3.8	1.49e+00	0	43	104	1337982976	26	15391

#Closed at: 2026-01-14 00:05:33
#Recorded file [1337 MB]: D:/data/31010_260114_025336.dat