passes_logs/2026/01/13/R2M6_AANII_01/R2M6_AANII_01__20260113_093545_NOAA_21_JPSS-2_rec.log

#Pass ID: 20260113_093545_NOAA 21 (JPSS-2)
#Satellite: NOAA 21 (JPSS-2)
#Configuration: NOAA 21
#almurnet v.1.7.20240730
#Start time: 2026-01-13 09:35:45

#Version: 2.2.20231116
#Station: R2M6_AANII_01
#Location: 30.233357 lon 59.946436 lat
#TLE: 1 54234U 22150A   26012.26378519  .00000063  00000+0  50547-4 0  9993
#TLE: 2 54234  98.7495 313.1967 0000726 309.1075  51.0036 14.19534275164425

#Time	Az	El	Level	Level2	SNR	BER	BlckErr	Temp	State	Recorded	gain1	gain2
2026-01-13 09:35:45.80	137.84	7.03	-34.0	-45.3	3.8	1.49e+00	0	40	0	0	29	13230
2026-01-13 09:35:48.81	137.74	7.26	-34.0	-45.3	3.8	1.49e+00	0	40	104	0	29	13282
2026-01-13 09:35:51.83	137.63	7.49	-34.0	-45.3	3.8	1.49e+00	0	40	104	0	29	13216
2026-01-13 09:35:54.85	137.52	7.73	-34.0	-45.3	3.8	1.49e+00	0	40	104	0	29	13239
2026-01-13 09:35:57.87	137.41	7.96	-34.0	-45.3	3.8	1.49e+00	0	40	104	0	29	13247
2026-01-13 09:36:00.89	137.30	8.20	-34.0	-45.3	3.8	1.49e+00	0	40	104	0	29	13212
2026-01-13 09:36:03.89	137.19	8.44	-34.0	-45.3	3.8	1.49e+00	0	40	104	0	29	13240
2026-01-13 09:36:06.92	137.07	8.68	-34.0	-45.3	3.8	1.49e+00	0	40	104	0	29	13268
2026-01-13 09:36:09.95	136.95	8.93	-34.0	-45.3	3.8	1.49e+00	0	40	104	0	29	13233
2026-01-13 09:36:12.97	136.83	9.18	-34.0	-45.3	3.8	1.49e+00	0	41	104	0	29	13220
2026-01-13 09:36:15.98	136.71	9.42	-34.0	-45.3	3.8	1.49e+00	0	41	104	0	29	13257
2026-01-13 09:36:19.00	136.58	9.68	-34.0	-45.3	3.8	1.49e+00	0	41	104	0	29	13215
2026-01-13 09:36:22.03	136.46	9.93	-34.0	-45.2	3.8	1.49e+00	0	41	104	0	29	13207
2026-01-13 09:36:25.05	136.33	10.19	-34.0	-45.3	3.8	1.49e+00	0	41	104	0	29	13234
2026-01-13 09:36:28.07	136.19	10.45	-33.9	-45.2	3.8	1.49e+00	0	41	104	0	29	13205
2026-01-13 09:36:31.09	136.06	10.71	-34.0	-45.2	3.8	1.49e+00	0	41	104	0	29	13201
2026-01-13 09:36:34.11	135.92	10.97	-34.0	-45.2	3.8	1.49e+00	0	41	104	0	29	13180
2026-01-13 09:36:37.13	135.78	11.24	-34.0	-45.3	3.8	1.49e+00	0	41	104	0	29	13233
2026-01-13 09:36:40.15	135.64	11.51	-34.0	-45.3	3.8	1.49e+00	0	41	104	0	29	13252
2026-01-13 09:36:43.17	135.50	11.78	-34.0	-45.3	3.8	1.49e+00	0	41	104	0	29	13217
2026-01-13 09:36:46.18	135.35	12.06	-34.0	-45.3	3.8	1.49e+00	0	41	104	0	29	13243
2026-01-13 09:36:49.20	135.20	12.34	-34.0	-45.3	3.8	1.49e+00	0	41	104	0	29	13251
2026-01-13 09:36:52.23	135.04	12.62	-34.0	-45.3	3.8	1.49e+00	0	41	104	0	29	13250
2026-01-13 09:36:55.24	134.89	12.90	-34.0	-45.3	3.8	1.49e+00	0	41	104	0	29	13272
2026-01-13 09:36:58.27	134.73	13.19	-34.0	-45.2	3.8	1.49e+00	0	41	104	0	29	13191
2026-01-13 09:37:01.28	134.56	13.48	-34.0	-45.3	3.8	1.49e+00	0	41	104	0	29	13249
2026-01-13 09:37:04.29	134.40	13.77	-34.0	-45.3	3.8	1.49e+00	0	41	104	0	29	13259
2026-01-13 09:37:07.32	134.22	14.07	-34.0	-45.3	3.8	1.49e+00	0	41	104	0	29	13274
2026-01-13 09:37:10.33	134.05	14.37	-34.0	-45.3	3.8	1.49e+00	0	42	104	0	29	13252
2026-01-13 09:37:13.36	133.87	14.68	-34.0	-45.3	3.8	1.49e+00	0	42	104	0	29	13262
2026-01-13 09:37:16.38	133.69	14.99	-34.0	-45.3	3.8	1.49e+00	0	42	104	0	29	13265
2026-01-13 09:37:19.40	133.50	15.30	-34.0	-45.3	3.8	1.49e+00	0	42	104	0	29	13212
2026-01-13 09:37:22.42	133.31	15.61	-34.0	-45.3	3.8	1.49e+00	0	42	104	0	29	13227
2026-01-13 09:37:25.44	133.12	15.93	-34.0	-45.3	3.8	1.49e+00	0	42	104	0	29	13256
2026-01-13 09:37:28.46	132.92	16.26	-34.0	-45.3	3.8	1.49e+00	0	42	104	0	29	13235
2026-01-13 09:37:31.49	132.72	16.58	-34.0	-45.3	3.8	1.49e+00	0	42	104	0	29	13247
2026-01-13 09:37:34.50	132.51	16.91	-34.0	-45.3	3.8	1.49e+00	0	42	104	0	29	13232
2026-01-13 09:37:37.53	132.30	17.25	-34.0	-45.3	3.8	1.49e+00	0	42	104	0	29	13266
2026-01-13 09:37:40.54	132.08	17.59	-34.0	-45.3	3.8	1.49e+00	0	42	104	0	29	13208
2026-01-13 09:37:43.56	131.86	17.93	-34.0	-45.3	3.8	1.49e+00	0	42	104	0	29	13217
2026-01-13 09:37:46.57	131.63	18.28	-34.0	-45.3	3.8	1.49e+00	0	42	104	0	29	13213
2026-01-13 09:37:49.58	131.39	18.63	-34.0	-45.3	3.8	1.49e+00	0	42	104	0	29	13246
2026-01-13 09:37:52.61	131.15	18.99	-34.0	-45.3	3.8	1.49e+00	0	42	104	0	29	13267
2026-01-13 09:37:55.63	130.91	19.35	-34.0	-45.3	3.8	1.49e+00	0	42	104	0	29	13253
2026-01-13 09:37:58.65	130.66	19.72	-34.0	-45.3	3.8	1.49e+00	0	42	104	0	29	13232
2026-01-13 09:38:01.67	130.40	20.09	-34.0	-45.3	3.8	1.49e+00	0	42	104	0	29	13262
2026-01-13 09:38:04.69	130.14	20.46	-34.0	-45.3	3.8	1.49e+00	0	42	104	0	29	13247
2026-01-13 09:38:07.71	129.87	20.85	-34.0	-45.3	3.8	1.49e+00	0	42	104	0	29	13265
2026-01-13 09:38:10.73	129.59	21.23	-34.0	-45.3	3.8	1.49e+00	0	42	104	0	29	13267
2026-01-13 09:38:13.75	129.30	21.62	-34.0	-45.3	3.8	1.49e+00	0	42	104	0	29	13227
2026-01-13 09:38:16.77	129.01	22.02	-34.0	-45.3	3.8	1.49e+00	0	42	104	0	29	13264
2026-01-13 09:38:19.79	128.71	22.42	-34.0	-45.3	3.8	1.49e+00	0	42	104	0	29	13267
2026-01-13 09:38:22.80	128.40	22.83	-33.9	-45.2	3.8	1.49e+00	0	42	104	0	29	13231
2026-01-13 09:38:25.82	128.08	23.24	-33.9	-45.8	3.8	1.49e+00	0	42	104	0	28	14056
2026-01-13 09:38:28.85	127.76	23.66	-33.9	-45.8	3.8	1.49e+00	0	42	104	0	28	14049
2026-01-13 09:38:31.86	127.42	24.09	-33.9	-45.8	3.8	1.49e+00	0	42	104	0	28	14012
2026-01-13 09:38:34.88	127.08	24.52	-34.0	-45.8	3.8	1.49e+00	0	42	104	0	28	14023
2026-01-13 09:38:37.90	126.72	24.95	-34.0	-45.8	3.8	1.49e+00	0	42	104	0	28	14022
2026-01-13 09:38:40.91	126.36	25.40	-34.0	-45.8	3.8	1.49e+00	0	42	104	0	28	14025
2026-01-13 09:38:43.94	125.98	25.85	-34.0	-45.8	3.8	1.49e+00	0	42	104	0	28	14059
2026-01-13 09:38:46.95	125.60	26.30	-34.0	-45.7	3.8	1.49e+00	0	42	104	0	28	13998
2026-01-13 09:38:49.97	125.20	26.76	-34.0	-45.8	3.8	1.49e+00	0	42	104	0	28	14030
2026-01-13 09:38:52.99	124.79	27.23	-34.0	-45.8	3.8	1.49e+00	0	42	104	0	28	14020
2026-01-13 09:38:56.01	124.37	27.70	-34.0	-45.8	3.8	1.49e+00	0	42	104	0	28	14046
2026-01-13 09:38:59.03	123.93	28.18	-34.0	-45.8	3.8	1.49e+00	0	42	104	0	28	14033
2026-01-13 09:39:02.05	123.49	28.67	-34.0	-45.7	3.8	1.49e+00	0	42	104	0	28	13974
2026-01-13 09:39:05.07	123.02	29.17	-34.0	-45.8	3.8	1.49e+00	0	42	104	0	28	14004
2026-01-13 09:39:08.09	122.54	29.67	-34.0	-45.8	3.8	1.49e+00	0	42	104	0	28	14011
2026-01-13 09:39:11.11	122.05	30.17	-34.0	-45.8	3.8	1.49e+00	0	42	104	0	28	14004
2026-01-13 09:39:14.12	121.54	30.69	-34.0	-45.8	3.8	1.49e+00	0	42	104	0	28	14039
2026-01-13 09:39:17.14	121.02	31.21	-34.0	-45.8	3.8	1.49e+00	0	42	104	0	28	14017
2026-01-13 09:39:20.15	120.48	31.73	-34.0	-45.8	3.8	1.49e+00	0	42	104	0	28	14028
2026-01-13 09:39:23.18	119.91	32.26	-34.0	-45.8	3.8	1.49e+00	0	42	104	0	28	14005
2026-01-13 09:39:26.19	119.33	32.80	-34.0	-45.8	3.8	1.49e+00	0	42	104	0	28	14046
2026-01-13 09:39:29.20	118.74	33.35	-34.0	-45.8	3.8	1.49e+00	0	42	104	0	28	14023
2026-01-13 09:39:32.22	118.12	33.90	-34.0	-45.8	3.8	1.49e+00	0	42	104	0	28	14015
2026-01-13 09:39:35.25	117.47	34.46	-34.0	-45.8	3.8	1.49e+00	0	42	104	0	28	14040
2026-01-13 09:39:38.26	116.81	35.02	-34.0	-45.8	3.8	1.49e+00	0	42	104	0	28	14059
2026-01-13 09:39:41.28	116.12	35.59	-34.0	-45.8	3.8	1.49e+00	0	42	104	0	28	14052
2026-01-13 09:39:44.30	115.40	36.16	-34.0	-45.8	3.8	1.49e+00	0	42	104	0	28	14053
2026-01-13 09:39:47.32	114.66	36.74	-34.0	-45.8	3.8	1.49e+00	0	42	104	0	28	14010
2026-01-13 09:39:50.34	113.90	37.32	-34.0	-45.8	3.8	1.49e+00	0	42	104	0	28	14034
2026-01-13 09:39:53.36	113.10	37.91	-34.0	-45.8	3.8	1.49e+00	0	42	104	0	28	14028
2026-01-13 09:39:56.38	112.28	38.50	-34.0	-45.8	3.8	1.49e+00	0	42	104	0	28	14056
2026-01-13 09:39:59.41	111.42	39.10	-34.0	-45.8	3.8	1.49e+00	0	42	104	0	28	14035
2026-01-13 09:40:02.43	110.53	39.70	-34.0	-45.8	3.8	1.49e+00	0	42	104	0	28	14020
2026-01-13 09:40:05.44	109.61	40.30	-34.0	-45.8	3.8	1.49e+00	0	42	104	0	28	14038
2026-01-13 09:40:08.47	108.65	40.90	-34.0	-45.8	3.8	1.49e+00	0	42	104	0	28	14011
2026-01-13 09:40:11.49	107.66	41.50	-34.0	-45.8	3.8	1.49e+00	0	42	104	0	28	14063
2026-01-13 09:40:14.51	106.63	42.10	-34.0	-45.8	3.8	1.49e+00	0	42	104	0	28	14044
2026-01-13 09:40:17.52	105.56	42.70	-34.0	-45.8	3.8	1.49e+00	0	42	104	0	28	14003
2026-01-13 09:40:20.53	104.45	43.30	-34.0	-45.8	3.8	1.49e+00	0	42	104	0	28	14057
2026-01-13 09:40:23.53	103.31	43.89	-34.0	-45.8	3.8	1.49e+00	0	42	104	0	28	14049
2026-01-13 09:40:26.56	102.11	44.48	-34.0	-45.8	3.8	1.49e+00	0	42	104	0	28	14047
2026-01-13 09:40:29.58	100.86	45.06	-34.0	-45.8	3.8	1.49e+00	0	42	104	0	28	14014
2026-01-13 09:40:32.61	99.57	45.64	-34.0	-45.8	3.8	1.49e+00	0	42	104	0	28	14053
2026-01-13 09:40:35.61	98.24	46.21	-34.0	-45.8	3.8	1.49e+00	0	42	104	0	28	14030
2026-01-13 09:40:38.63	96.86	46.76	-34.0	-45.8	3.8	1.49e+00	0	42	104	0	28	13998
2026-01-13 09:40:41.65	95.43	47.31	-34.0	-45.8	3.8	1.49e+00	0	42	104	0	28	14080
2026-01-13 09:40:44.66	93.95	47.84	-34.0	-45.8	3.8	1.49e+00	0	42	104	0	28	14071
2026-01-13 09:40:47.67	92.41	48.36	-34.0	-45.8	3.8	1.49e+00	0	42	104	0	28	14056
2026-01-13 09:40:50.70	90.82	48.86	-34.0	-45.8	3.8	1.49e+00	0	42	104	0	28	14041
2026-01-13 09:40:53.71	89.19	49.34	-34.0	-45.8	3.8	1.49e+00	0	42	104	0	28	14016
2026-01-13 09:40:56.73	87.50	49.80	-34.0	-45.8	3.8	1.49e+00	0	42	104	0	28	14050
2026-01-13 09:40:59.75	85.75	50.24	-34.0	-45.8	3.8	1.49e+00	0	42	104	0	28	14038
2026-01-13 09:41:02.77	83.96	50.65	-34.0	-45.8	3.8	1.49e+00	0	42	104	0	28	14070
2026-01-13 09:41:05.78	82.13	51.04	-34.0	-45.8	3.8	1.49e+00	0	42	104	0	28	14046
2026-01-13 09:41:08.80	80.24	51.39	-34.0	-45.8	3.8	1.49e+00	0	42	104	0	28	14030
2026-01-13 09:41:11.83	78.31	51.72	-34.0	-45.8	3.8	1.49e+00	0	42	104	0	28	14059
2026-01-13 09:41:14.85	76.34	52.01	-34.0	-45.8	3.8	1.49e+00	0	42	104	0	28	14046
2026-01-13 09:41:17.87	74.33	52.27	-34.0	-45.8	3.8	1.49e+00	0	42	104	0	28	14003
2026-01-13 09:41:20.89	72.29	52.49	-34.0	-45.8	3.8	1.49e+00	0	42	104	0	28	14025
2026-01-13 09:41:23.90	70.23	52.68	-34.0	-45.8	3.8	1.49e+00	0	42	104	0	28	14017
2026-01-13 09:41:26.93	68.13	52.83	-34.0	-45.8	3.8	1.49e+00	0	42	104	0	28	14023
2026-01-13 09:41:29.94	66.03	52.93	-34.0	-45.8	3.8	1.49e+00	0	42	104	0	28	14052
2026-01-13 09:41:32.96	63.91	53.00	-34.0	-45.8	3.8	1.49e+00	0	42	104	0	28	14077
2026-01-13 09:41:35.97	61.79	53.03	-34.0	-45.8	3.8	1.49e+00	0	42	104	0	28	14077
2026-01-13 09:41:38.98	59.67	53.02	-34.0	-45.8	3.8	1.49e+00	0	42	104	0	28	14053
2026-01-13 09:41:42.01	57.54	52.96	-34.0	-45.8	3.8	1.49e+00	0	42	104	0	28	13997
2026-01-13 09:41:45.04	55.41	52.87	-34.0	-45.8	3.8	1.49e+00	0	42	104	0	28	13979
2026-01-13 09:41:48.05	53.32	52.74	-34.0	-45.8	3.8	1.49e+00	0	42	104	0	28	14023
2026-01-13 09:41:51.07	51.25	52.56	-34.0	-45.8	3.8	1.49e+00	0	42	104	0	28	14054
2026-01-13 09:41:54.09	49.20	52.35	-34.0	-45.8	3.8	1.49e+00	0	42	104	0	28	14047
2026-01-13 09:41:57.11	47.19	52.11	-34.0	-45.8	3.8	1.49e+00	0	42	104	0	28	14039
2026-01-13 09:42:00.14	45.20	51.83	-34.0	-45.8	3.8	1.49e+00	0	42	104	0	28	13989
2026-01-13 09:42:03.14	43.27	51.52	-34.0	-45.8	3.8	1.49e+00	0	42	104	0	28	14002
2026-01-13 09:42:06.16	41.37	51.17	-34.0	-45.8	3.8	1.49e+00	0	43	104	0	28	14064
2026-01-13 09:42:09.17	39.52	50.80	-34.0	-45.8	3.8	1.49e+00	0	42	104	0	28	14041
2026-01-13 09:42:12.19	37.72	50.40	-34.0	-45.8	3.8	1.49e+00	0	42	104	0	28	14041
2026-01-13 09:42:15.21	35.96	49.97	-34.0	-45.8	3.8	1.49e+00	0	42	104	0	28	14044
2026-01-13 09:42:18.22	34.26	49.52	-34.0	-45.8	3.8	1.49e+00	0	42	104	0	28	14085
2026-01-13 09:42:21.23	32.61	49.05	-34.0	-45.8	3.8	1.49e+00	0	42	104	0	28	14045
2026-01-13 09:42:24.25	31.01	48.56	-34.0	-45.8	3.8	1.49e+00	0	42	104	0	28	14011
2026-01-13 09:42:27.27	29.45	48.04	-34.0	-45.8	3.8	1.49e+00	0	42	104	0	28	14056
2026-01-13 09:42:30.28	27.96	47.52	-34.0	-45.8	3.8	1.49e+00	0	43	104	0	28	14028
2026-01-13 09:42:33.29	26.51	46.98	-34.0	-45.8	3.8	1.49e+00	0	42	104	0	28	14058
2026-01-13 09:42:36.31	25.11	46.43	-34.0	-45.8	3.8	1.49e+00	0	42	104	0	28	14077
2026-01-13 09:42:39.32	23.77	45.87	-34.0	-45.8	3.8	1.49e+00	0	43	104	0	28	14042
2026-01-13 09:42:42.34	22.46	45.30	-34.0	-45.8	3.8	1.49e+00	0	42	104	0	28	14048
2026-01-13 09:42:45.36	21.21	44.72	-34.0	-45.8	3.8	1.49e+00	0	42	104	0	28	14036
2026-01-13 09:42:48.37	20.00	44.13	-34.0	-45.8	3.8	1.49e+00	0	42	104	0	28	14028
2026-01-13 09:42:51.39	18.84	43.54	-34.0	-45.8	3.8	1.49e+00	0	42	104	0	28	14065
2026-01-13 09:42:54.41	17.71	42.95	-34.0	-45.8	3.8	1.49e+00	0	43	104	0	28	14052
2026-01-13 09:42:57.43	16.63	42.35	-34.0	-45.8	3.8	1.49e+00	0	42	104	0	28	14024
2026-01-13 09:43:00.45	15.59	41.75	-34.0	-45.8	3.8	1.49e+00	0	42	104	0	28	14036
2026-01-13 09:43:03.47	14.59	41.15	-34.0	-45.8	3.8	1.49e+00	0	42	104	0	28	14084
2026-01-13 09:43:06.49	13.62	40.55	-34.0	-45.8	3.8	1.49e+00	0	43	104	0	28	14041
2026-01-13 09:43:09.51	12.69	39.96	-34.0	-45.8	3.8	1.49e+00	0	42	104	0	28	14050
2026-01-13 09:43:12.53	11.79	39.36	-34.0	-45.8	3.8	1.49e+00	0	42	104	0	28	14027
2026-01-13 09:43:15.55	10.92	38.77	-34.0	-45.8	3.8	1.49e+00	0	43	104	0	28	14023
2026-01-13 09:43:18.57	10.09	38.18	-34.0	-45.8	3.8	1.49e+00	0	42	104	0	28	14054
2026-01-13 09:43:21.59	9.29	37.59	-34.0	-45.8	3.8	1.49e+00	0	42	104	0	28	14045
2026-01-13 09:43:24.61	8.51	37.01	-34.0	-45.8	3.8	1.49e+00	0	42	104	0	28	14084
2026-01-13 09:43:27.63	7.76	36.43	-34.0	-45.8	3.8	1.49e+00	0	42	104	0	28	14037
2026-01-13 09:43:30.65	7.04	35.86	-34.0	-45.8	3.8	1.49e+00	0	42	104	0	28	14068
2026-01-13 09:43:33.67	6.35	35.29	-34.0	-45.9	3.8	1.49e+00	0	42	104	0	28	14085
2026-01-13 09:43:36.69	5.68	34.72	-34.0	-45.8	3.8	1.49e+00	0	42	104	0	28	14076
2026-01-13 09:43:39.71	5.03	34.17	-34.0	-45.8	3.8	1.49e+00	0	42	104	0	28	14044
2026-01-13 09:43:42.73	4.40	33.62	-34.0	-45.8	3.8	1.49e+00	0	42	104	0	28	14073
2026-01-13 09:43:45.75	3.79	33.07	-34.0	-45.8	3.8	1.49e+00	0	42	104	0	28	14053
2026-01-13 09:43:48.76	3.21	32.53	-34.0	-45.8	3.8	1.49e+00	0	42	104	0	28	14026
2026-01-13 09:43:51.78	2.64	32.00	-34.0	-45.8	3.8	1.49e+00	0	42	104	0	28	14053
2026-01-13 09:43:54.80	2.10	31.47	-34.0	-45.8	3.8	1.49e+00	0	42	104	0	28	14017
2026-01-13 09:43:57.84	1.56	30.95	-34.0	-45.8	3.8	1.49e+00	0	42	104	0	28	14018
2026-01-13 09:44:00.86	1.05	30.44	-34.0	-45.8	3.8	1.49e+00	0	42	104	0	28	14046
2026-01-13 09:44:03.87	0.56	29.93	-34.0	-45.8	3.8	1.49e+00	0	42	104	0	28	14061
2026-01-13 09:44:06.90	0.07	29.43	-34.0	-45.8	3.8	1.49e+00	0	43	104	0	28	14052
2026-01-13 09:44:09.92	359.61	28.93	-34.0	-45.8	3.8	1.49e+00	0	42	104	0	28	14032
2026-01-13 09:44:12.94	359.16	28.45	-34.0	-45.8	3.8	1.49e+00	0	42	104	0	28	14025
2026-01-13 09:44:15.96	358.72	27.96	-34.0	-45.8	3.8	1.49e+00	0	42	104	0	28	14056
2026-01-13 09:44:18.98	358.29	27.49	-34.0	-45.8	3.8	1.49e+00	0	42	104	0	28	14066
2026-01-13 09:44:22.00	357.88	27.02	-34.0	-45.8	3.8	1.49e+00	0	42	104	0	28	14032
2026-01-13 09:44:25.02	357.48	26.56	-34.0	-45.8	3.8	1.49e+00	0	42	104	0	28	14041
2026-01-13 09:44:28.04	357.09	26.10	-34.0	-45.8	3.8	1.49e+00	0	43	104	0	28	14086
2026-01-13 09:44:31.07	356.71	25.65	-34.0	-45.8	3.8	1.49e+00	0	42	104	0	28	14076
2026-01-13 09:44:34.08	356.35	25.21	-34.0	-45.9	3.8	1.49e+00	0	42	104	0	28	14091
2026-01-13 09:44:37.10	355.99	24.77	-34.0	-45.8	3.8	1.49e+00	0	43	104	0	28	14064
2026-01-13 09:44:40.11	355.65	24.34	-34.0	-45.8	3.8	1.49e+00	0	42	104	0	28	14082
2026-01-13 09:44:43.11	355.31	23.92	-34.0	-45.8	3.8	1.49e+00	0	42	104	0	28	14074
2026-01-13 09:44:46.13	354.99	23.50	-34.0	-45.8	3.8	1.49e+00	0	42	104	0	28	14023
2026-01-13 09:44:49.15	354.67	23.09	-34.0	-45.8	3.8	1.49e+00	0	42	104	0	28	14065
2026-01-13 09:44:52.16	354.36	22.68	-34.0	-45.8	3.8	1.49e+00	0	43	104	0	28	14090
2026-01-13 09:44:55.18	354.06	22.28	-34.0	-45.8	3.8	1.49e+00	0	43	104	0	28	14062
2026-01-13 09:44:58.19	353.76	21.88	-34.0	-45.8	3.8	1.49e+00	0	43	104	0	28	14046
2026-01-13 09:45:01.21	353.48	21.49	-34.0	-45.8	3.8	1.49e+00	0	42	104	0	28	14053
2026-01-13 09:45:04.22	353.20	21.10	-34.0	-45.8	3.8	1.49e+00	0	42	104	0	28	14032
2026-01-13 09:45:07.24	352.93	20.72	-34.0	-45.8	3.8	1.49e+00	0	42	104	0	28	14082
2026-01-13 09:45:10.26	352.67	20.35	-34.0	-45.8	3.8	1.49e+00	0	42	104	0	28	14062
2026-01-13 09:45:13.28	352.41	19.97	-34.0	-45.8	3.8	1.49e+00	0	43	104	0	28	14047
2026-01-13 09:45:16.31	352.15	19.61	-34.0	-45.8	3.8	1.49e+00	0	42	104	0	28	14052
2026-01-13 09:45:19.32	351.91	19.24	-34.0	-45.8	3.8	1.49e+00	0	42	104	0	28	14029
2026-01-13 09:45:22.34	351.67	18.89	-34.0	-45.8	3.8	1.49e+00	0	42	104	0	28	14033
2026-01-13 09:45:25.37	351.44	18.53	-34.0	-45.8	3.8	1.49e+00	0	42	104	0	28	14049
2026-01-13 09:45:28.39	351.21	18.18	-34.0	-45.8	3.8	1.49e+00	0	42	104	0	28	14077
2026-01-13 09:45:31.41	350.99	17.84	-34.0	-45.8	3.8	1.49e+00	0	42	104	0	28	14088
2026-01-13 09:45:34.43	350.77	17.50	-34.0	-45.8	3.8	1.49e+00	0	42	104	0	28	14069
2026-01-13 09:45:37.45	350.56	17.17	-34.0	-45.8	3.8	1.49e+00	0	42	104	0	28	14066
2026-01-13 09:45:40.47	350.35	16.83	-34.0	-45.8	3.8	1.49e+00	0	42	104	0	28	14073
2026-01-13 09:45:43.49	350.15	16.51	-34.0	-45.8	3.8	1.49e+00	0	42	104	0	28	14025
2026-01-13 09:45:46.51	349.95	16.18	-34.0	-45.8	3.8	1.49e+00	0	42	104	0	28	14082
2026-01-13 09:45:49.53	349.75	15.86	-34.0	-45.8	3.8	1.49e+00	0	43	104	0	28	14110
2026-01-13 09:45:52.55	349.56	15.55	-34.0	-45.8	3.8	1.49e+00	0	42	104	0	28	14087
2026-01-13 09:45:55.57	349.38	15.24	-34.0	-45.8	3.8	1.49e+00	0	43	104	0	28	14069
2026-01-13 09:45:58.60	349.20	14.93	-34.0	-45.8	3.8	1.49e+00	0	43	104	0	28	14066
2026-01-13 09:46:01.62	349.02	14.62	-34.0	-45.8	3.8	1.49e+00	0	42	104	0	28	14086
2026-01-13 09:46:04.65	348.85	14.32	-34.0	-45.8	3.8	1.49e+00	0	42	104	0	28	14084
2026-01-13 09:46:07.66	348.68	14.02	-34.0	-45.8	3.8	1.49e+00	0	42	104	0	28	14050
2026-01-13 09:46:10.68	348.51	13.73	-34.0	-45.8	3.8	1.49e+00	0	42	104	0	28	14059
2026-01-13 09:46:13.70	348.35	13.44	-34.0	-45.8	3.8	1.49e+00	0	43	104	0	28	14081
2026-01-13 09:46:16.72	348.19	13.15	-34.0	-45.8	3.8	1.49e+00	0	42	104	0	28	14039
2026-01-13 09:46:19.74	348.03	12.86	-34.0	-45.8	3.8	1.49e+00	0	42	104	0	28	14048
2026-01-13 09:46:22.76	347.88	12.58	-34.0	-45.8	3.8	1.49e+00	0	43	104	0	28	14085
2026-01-13 09:46:25.78	347.73	12.30	-34.0	-45.8	3.8	1.49e+00	0	42	104	0	28	14094
2026-01-13 09:46:28.81	347.58	12.03	-34.0	-45.8	3.8	1.49e+00	0	43	104	0	28	14086
2026-01-13 09:46:31.83	347.44	11.75	-34.0	-45.8	3.8	1.49e+00	0	43	104	0	28	14024
2026-01-13 09:46:34.85	347.30	11.48	-34.0	-45.8	3.8	1.49e+00	0	42	104	0	28	14064
2026-01-13 09:46:37.86	347.16	11.22	-34.0	-45.8	3.8	1.49e+00	0	43	104	0	28	14075
2026-01-13 09:46:40.89	347.02	10.95	-34.0	-45.8	3.8	1.49e+00	0	42	104	0	28	14040
2026-01-13 09:46:43.91	346.89	10.69	-34.0	-45.8	3.8	1.49e+00	0	43	104	0	28	14084
2026-01-13 09:46:46.93	346.76	10.43	-34.0	-45.8	3.8	1.49e+00	0	42	104	0	28	14048
2026-01-13 09:46:49.95	346.63	10.17	-34.0	-45.8	3.8	1.49e+00	0	43	104	0	28	14056
2026-01-13 09:46:52.97	346.51	9.92	-34.0	-45.8	3.8	1.49e+00	0	42	104	0	28	14003
2026-01-13 09:46:55.99	346.38	9.67	-34.0	-45.8	3.8	1.49e+00	0	42	104	0	28	14041
2026-01-13 09:46:59.01	346.26	9.42	-34.0	-45.8	3.8	1.49e+00	0	43	104	0	28	14022
2026-01-13 09:47:02.03	346.15	9.17	-33.9	-45.8	3.8	1.49e+00	0	43	104	0	28	14035
2026-01-13 09:47:05.05	346.03	8.92	-33.9	-45.8	3.8	1.49e+00	0	43	104	0	28	14050
2026-01-13 09:47:08.07	345.92	8.68	-33.9	-45.8	3.8	1.49e+00	0	42	104	0	28	14084
2026-01-13 09:47:11.09	345.80	8.44	-33.9	-45.7	3.8	1.49e+00	0	43	104	0	28	14051
2026-01-13 09:47:14.12	345.69	8.20	-33.9	-45.8	3.8	1.49e+00	0	43	104	0	28	14086
2026-01-13 09:47:17.14	345.58	7.97	-33.9	-45.8	3.8	1.49e+00	0	42	104	0	28	14028
2026-01-13 09:47:20.16	345.48	7.73	-33.9	-45.7	3.8	1.49e+00	0	43	104	0	28	14034
2026-01-13 09:47:23.19	345.37	7.50	-34.0	-45.8	3.8	1.49e+00	0	42	104	0	28	14068
2026-01-13 09:47:26.21	345.27	7.27	-34.0	-45.8	3.8	1.49e+00	0	42	104	0	28	14062
2026-01-13 09:47:29.23	345.17	7.04	-34.0	-45.8	3.8	1.49e+00	0	43	104	0	28	14050
2026-01-13 09:47:32.25	345.07	6.81	-34.0	-45.8	3.8	1.49e+00	0	42	104	0	28	14054

#Closed at: 2026-01-13 09:47:32
#Recorded file [0 MB]: D:/data/31010_260113_123545.dat