passes_logs/2026/01/13/R2M6_AANII_01/R2M6_AANII_01__20260113_114632_SUOMI_NPP_rec.log

#Pass ID: 20260113_114632_SUOMI NPP
#Satellite: SUOMI NPP
#Configuration: NPP
#almurnet v.1.7.20240730
#Start time: 2026-01-13 11:46:33

#Version: 2.2.20231116
#Station: R2M6_AANII_01
#Location: 30.233357 lon 59.946436 lat
#TLE: 1 37849U 11061A   26012.28456845  .00000093  00000+0  65163-4 0  9999
#TLE: 2 37849  98.7807 314.3566 0002508  68.3553 291.7890 14.19524725736322

#Time	Az	El	Level	Level2	SNR	BER	BlckErr	Temp	State	Recorded	gain1	gain2
2026-01-13 11:46:33.04	205.00	7.06	-34.0	-45.7	3.7	1.50e+00	0	40	0	0	29	13909
2026-01-13 11:46:36.06	205.25	7.26	-34.0	-45.7	3.8	1.49e+00	0	40	104	0	29	13905
2026-01-13 11:46:39.07	205.50	7.46	-34.0	-45.7	3.8	1.49e+00	0	40	104	0	29	13914
2026-01-13 11:46:42.09	205.76	7.67	-34.0	-45.8	3.8	1.49e+00	0	40	104	0	29	13924
2026-01-13 11:46:45.12	206.02	7.88	-34.0	-45.7	3.8	1.49e+00	0	40	104	0	29	13902
2026-01-13 11:46:48.14	206.29	8.09	-34.0	-45.8	3.8	1.49e+00	0	40	104	0	29	13953
2026-01-13 11:46:51.16	206.55	8.29	-34.0	-45.8	3.8	1.49e+00	0	41	104	0	29	13935
2026-01-13 11:46:54.17	206.83	8.50	-34.0	-45.8	3.8	1.49e+00	0	41	104	0	29	13973
2026-01-13 11:46:57.20	207.10	8.72	-34.0	-45.8	3.8	1.49e+00	0	41	104	0	29	13957
2026-01-13 11:47:00.22	207.38	8.93	-34.0	-45.8	3.8	1.49e+00	0	41	104	0	29	13938
2026-01-13 11:47:03.24	207.67	9.14	-34.0	-45.8	3.8	1.49e+00	0	41	104	0	29	13934
2026-01-13 11:47:06.26	207.95	9.36	-34.0	-45.8	3.8	1.49e+00	0	41	104	0	29	13923
2026-01-13 11:47:09.29	208.25	9.58	-34.0	-45.7	3.8	1.49e+00	0	41	104	0	29	13921
2026-01-13 11:47:12.29	208.54	9.79	-34.0	-45.8	3.8	1.49e+00	0	41	104	0	29	13930
2026-01-13 11:47:15.30	208.84	10.01	-34.0	-45.8	3.8	1.49e+00	0	41	104	0	29	13956
2026-01-13 11:47:18.33	209.15	10.23	-34.0	-45.8	3.8	1.49e+00	0	41	104	0	29	13937
2026-01-13 11:47:21.35	209.46	10.45	-34.0	-45.7	3.8	1.49e+00	0	41	104	0	29	13911
2026-01-13 11:47:24.38	209.77	10.68	-34.0	-45.8	3.8	1.49e+00	0	41	104	0	29	13913
2026-01-13 11:47:27.39	210.09	10.90	-34.0	-45.7	3.8	1.49e+00	0	41	104	0	29	13876
2026-01-13 11:47:30.40	210.41	11.12	-34.0	-45.8	3.8	1.49e+00	0	41	104	0	29	13927
2026-01-13 11:47:33.42	210.74	11.35	-34.0	-45.8	3.8	1.49e+00	0	41	104	0	29	13901
2026-01-13 11:47:36.45	211.07	11.58	-34.0	-45.8	3.8	1.49e+00	0	41	104	0	29	13921
2026-01-13 11:47:39.47	211.41	11.81	-34.0	-45.8	3.8	1.49e+00	0	41	104	0	29	13920
2026-01-13 11:47:42.48	211.75	12.04	-34.0	-45.8	3.8	1.49e+00	0	42	104	0	29	13940
2026-01-13 11:47:45.49	212.10	12.27	-34.0	-45.8	3.8	1.49e+00	0	42	104	0	29	13928
2026-01-13 11:47:48.51	212.45	12.50	-34.0	-45.8	3.8	1.49e+00	0	42	104	0	29	13914
2026-01-13 11:47:51.53	212.81	12.74	-34.0	-45.8	3.8	1.49e+00	0	42	104	0	29	13917
2026-01-13 11:47:54.54	213.18	12.97	-34.0	-45.8	3.8	1.49e+00	0	42	104	0	29	13918
2026-01-13 11:47:57.57	213.55	13.21	-34.0	-45.8	3.8	1.49e+00	0	42	104	0	29	13896
2026-01-13 11:48:00.59	213.93	13.45	-34.0	-45.8	3.8	1.49e+00	0	42	104	0	29	13917
2026-01-13 11:48:03.61	214.31	13.69	-34.0	-45.8	3.8	1.49e+00	0	42	104	0	29	13972
2026-01-13 11:48:06.63	214.70	13.93	-34.0	-45.8	3.8	1.49e+00	0	42	104	0	29	13900
2026-01-13 11:48:09.65	215.09	14.17	-34.0	-45.8	3.8	1.49e+00	0	42	104	0	29	13937
2026-01-13 11:48:12.67	215.49	14.41	-34.0	-45.7	3.8	1.49e+00	0	42	104	0	29	13866
2026-01-13 11:48:15.68	215.90	14.65	-34.0	-45.8	3.8	1.49e+00	0	42	104	0	29	13925
2026-01-13 11:48:18.71	216.31	14.90	-34.0	-45.8	3.8	1.49e+00	0	42	104	0	29	13932
2026-01-13 11:48:21.72	216.73	15.14	-34.0	-45.8	3.8	1.49e+00	0	42	104	0	29	13938
2026-01-13 11:48:24.74	217.16	15.39	-34.0	-45.8	3.8	1.49e+00	0	42	104	0	29	13938
2026-01-13 11:48:27.75	217.59	15.64	-34.0	-45.8	3.8	1.49e+00	0	42	104	0	29	13950
2026-01-13 11:48:30.77	218.03	15.89	-34.0	-45.8	3.8	1.49e+00	0	42	104	0	29	13986
2026-01-13 11:48:33.80	218.48	16.14	-34.0	-45.8	3.8	1.49e+00	0	42	104	0	29	13949
2026-01-13 11:48:36.83	218.94	16.39	-34.0	-45.8	3.8	1.49e+00	0	42	104	0	29	13986
2026-01-13 11:48:39.85	219.40	16.64	-34.0	-45.8	3.8	1.49e+00	0	42	104	0	29	13930
2026-01-13 11:48:42.88	219.87	16.90	-34.0	-45.8	3.8	1.49e+00	0	42	104	0	29	13905
2026-01-13 11:48:45.89	220.35	17.15	-34.0	-45.8	3.8	1.49e+00	0	42	104	0	29	13924
2026-01-13 11:48:48.91	220.83	17.40	-34.0	-45.8	3.8	1.49e+00	0	42	104	0	29	13991
2026-01-13 11:48:51.92	221.33	17.66	-34.0	-45.8	3.8	1.49e+00	0	42	104	0	29	13972
2026-01-13 11:48:54.94	221.83	17.91	-34.0	-45.8	3.8	1.49e+00	0	42	104	0	29	13917
2026-01-13 11:48:57.97	222.34	18.17	-34.0	-45.8	3.8	1.49e+00	0	42	104	0	29	13932
2026-01-13 11:49:00.99	222.86	18.43	-34.0	-45.8	3.8	1.49e+00	0	42	104	0	29	13912
2026-01-13 11:49:04.01	223.39	18.68	-34.0	-45.8	3.8	1.49e+00	0	42	104	0	29	13940
2026-01-13 11:49:07.04	223.93	18.94	-34.0	-45.8	3.8	1.49e+00	0	42	104	0	29	13945
2026-01-13 11:49:10.05	224.47	19.20	-34.0	-45.8	3.8	1.49e+00	0	42	104	0	29	13961
2026-01-13 11:49:13.07	225.02	19.45	-34.0	-45.8	3.8	1.49e+00	0	42	104	0	29	13909
2026-01-13 11:49:16.08	225.59	19.71	-34.0	-45.8	3.8	1.49e+00	0	42	104	0	29	13948
2026-01-13 11:49:19.11	226.16	19.97	-34.0	-45.8	3.8	1.49e+00	0	42	104	0	29	13958
2026-01-13 11:49:22.13	226.74	20.23	-34.0	-45.8	3.8	1.49e+00	0	42	104	0	29	13916
2026-01-13 11:49:25.15	227.33	20.48	-34.0	-45.7	3.8	1.49e+00	0	42	104	0	29	13889
2026-01-13 11:49:28.18	227.94	20.74	-34.0	-45.8	3.7	1.49e+00	0	42	104	0	29	13927
2026-01-13 11:49:31.19	228.55	20.99	-34.0	-45.8	3.8	1.49e+00	0	42	104	0	29	13936
2026-01-13 11:49:34.22	229.17	21.25	-34.0	-45.8	3.8	1.49e+00	0	42	104	0	29	13932
2026-01-13 11:49:37.23	229.80	21.50	-34.0	-45.7	3.8	1.49e+00	0	42	104	0	29	13867
2026-01-13 11:49:40.24	230.44	21.76	-34.0	-45.8	3.8	1.49e+00	0	42	104	0	29	13934
2026-01-13 11:49:43.27	231.09	22.01	-34.0	-45.8	3.8	1.49e+00	0	42	104	0	29	13920
2026-01-13 11:49:46.29	231.75	22.26	-34.0	-45.8	3.8	1.49e+00	0	42	104	0	29	13930
2026-01-13 11:49:49.31	232.43	22.51	-34.0	-45.8	3.8	1.49e+00	0	42	104	0	29	13934
2026-01-13 11:49:52.34	233.11	22.76	-34.0	-45.8	3.8	1.49e+00	0	42	104	0	29	13940
2026-01-13 11:49:55.36	233.80	23.00	-34.0	-45.8	3.8	1.49e+00	0	42	104	0	29	13941
2026-01-13 11:49:58.38	234.51	23.25	-34.0	-45.8	3.8	1.49e+00	0	42	104	0	29	13956
2026-01-13 11:50:01.40	235.22	23.49	-34.0	-45.7	3.8	1.49e+00	0	42	104	0	29	13875
2026-01-13 11:50:04.42	235.95	23.73	-34.0	-45.8	3.8	1.49e+00	0	43	104	0	29	13916
2026-01-13 11:50:07.44	236.69	23.96	-34.0	-45.8	3.8	1.49e+00	0	43	104	0	29	13927
2026-01-13 11:50:10.46	237.43	24.20	-34.0	-45.8	3.8	1.49e+00	0	42	104	0	29	13926
2026-01-13 11:50:13.48	238.19	24.43	-34.0	-45.8	3.8	1.49e+00	0	42	104	0	29	13925
2026-01-13 11:50:16.50	238.96	24.66	-34.0	-45.7	3.8	1.49e+00	0	42	104	0	29	13880
2026-01-13 11:50:19.52	239.74	24.88	-34.0	-45.8	3.8	1.49e+00	0	42	104	0	29	13934
2026-01-13 11:50:22.53	240.53	25.10	-34.0	-45.8	3.8	1.49e+00	0	42	104	0	29	13950
2026-01-13 11:50:25.55	241.33	25.32	-34.0	-45.8	3.8	1.49e+00	0	42	104	0	29	13934
2026-01-13 11:50:28.57	242.14	25.53	-34.0	-45.8	3.8	1.49e+00	0	42	104	0	29	13963
2026-01-13 11:50:31.59	242.97	25.74	-34.0	-45.8	3.8	1.49e+00	0	42	104	0	29	13951
2026-01-13 11:50:34.62	243.80	25.94	-34.0	-45.8	3.8	1.49e+00	0	42	104	0	29	13909
2026-01-13 11:50:37.64	244.65	26.14	-34.0	-45.7	3.8	1.49e+00	0	43	104	0	29	13884
2026-01-13 11:50:40.67	245.50	26.33	-34.0	-45.8	3.8	1.49e+00	0	42	104	0	29	13941
2026-01-13 11:50:43.68	246.37	26.52	-34.0	-45.8	3.8	1.49e+00	0	42	104	0	29	13892
2026-01-13 11:50:46.71	247.24	26.70	-34.0	-45.8	3.8	1.49e+00	0	42	104	0	29	13927
2026-01-13 11:50:49.73	248.13	26.88	-34.0	-45.8	3.8	1.49e+00	0	42	104	0	29	13925
2026-01-13 11:50:52.74	249.02	27.05	-34.0	-45.8	3.8	1.49e+00	0	42	104	0	29	13900
2026-01-13 11:50:55.76	249.92	27.21	-34.0	-45.8	3.8	1.49e+00	0	43	104	0	29	13960
2026-01-13 11:50:58.76	250.82	27.37	-34.0	-45.8	3.8	1.49e+00	0	42	104	0	29	13925
2026-01-13 11:51:01.78	251.74	27.52	-34.0	-45.8	3.8	1.49e+00	0	43	104	0	29	13890
2026-01-13 11:51:04.80	252.67	27.66	-34.0	-45.8	3.8	1.49e+00	0	43	104	0	29	13924
2026-01-13 11:51:07.83	253.61	27.80	-34.0	-45.8	3.8	1.49e+00	0	42	104	0	29	13951
2026-01-13 11:51:10.85	254.56	27.93	-34.0	-45.8	3.8	1.49e+00	0	42	104	0	29	13952
2026-01-13 11:51:13.85	255.50	28.05	-34.0	-45.8	3.8	1.49e+00	0	43	104	0	29	13940
2026-01-13 11:51:16.87	256.46	28.16	-34.0	-45.8	3.8	1.49e+00	0	42	104	0	29	13968
2026-01-13 11:51:19.89	257.42	28.26	-34.0	-45.8	3.8	1.49e+00	0	42	104	0	29	13951
2026-01-13 11:51:22.91	258.39	28.36	-34.0	-45.7	3.8	1.49e+00	0	42	104	0	29	13899
2026-01-13 11:51:25.93	259.37	28.45	-34.0	-45.7	3.8	1.49e+00	0	43	104	0	29	13885
2026-01-13 11:51:28.95	260.35	28.53	-34.0	-45.8	3.8	1.49e+00	0	42	104	0	29	13938
2026-01-13 11:51:31.97	261.33	28.60	-34.0	-45.8	3.8	1.49e+00	0	43	104	0	29	13893
2026-01-13 11:51:34.98	262.32	28.66	-34.0	-45.8	3.8	1.49e+00	0	42	104	0	29	13925
2026-01-13 11:51:38.00	263.31	28.71	-34.0	-45.8	3.8	1.49e+00	0	43	104	0	29	13914
2026-01-13 11:51:41.02	264.30	28.76	-34.0	-45.8	3.8	1.49e+00	0	42	104	0	29	13918
2026-01-13 11:51:44.04	265.30	28.79	-34.0	-45.8	3.8	1.49e+00	0	43	104	0	29	13936
2026-01-13 11:51:47.06	266.30	28.81	-34.0	-45.8	3.8	1.49e+00	0	42	104	0	29	13914
2026-01-13 11:51:50.09	267.30	28.83	-34.0	-45.8	3.8	1.49e+00	0	42	104	0	29	13937
2026-01-13 11:51:53.11	268.30	28.84	-34.0	-45.8	3.8	1.49e+00	0	43	104	0	29	13899
2026-01-13 11:51:56.13	269.30	28.83	-34.0	-45.8	3.8	1.49e+00	0	42	104	0	29	13902
2026-01-13 11:51:59.14	270.30	28.82	-34.0	-45.8	3.8	1.49e+00	0	43	104	0	29	13944
2026-01-13 11:52:02.15	271.29	28.80	-34.0	-45.8	3.8	1.49e+00	0	42	104	0	29	13908
2026-01-13 11:52:05.17	272.29	28.77	-34.0	-45.8	3.8	1.49e+00	0	43	104	0	29	13903
2026-01-13 11:52:08.19	273.28	28.73	-34.0	-45.8	3.8	1.49e+00	0	43	104	0	29	13937
2026-01-13 11:52:11.20	274.27	28.68	-34.0	-45.8	3.8	1.49e+00	0	42	104	0	29	13952
2026-01-13 11:52:14.23	275.27	28.62	-34.0	-45.7	3.8	1.49e+00	0	43	104	0	29	13883
2026-01-13 11:52:17.26	276.25	28.56	-34.0	-45.8	3.8	1.49e+00	0	43	104	0	29	13971
2026-01-13 11:52:20.29	277.24	28.48	-34.0	-45.8	3.8	1.49e+00	0	43	104	0	29	13968
2026-01-13 11:52:23.32	278.22	28.40	-34.0	-45.8	3.8	1.49e+00	0	43	104	0	29	13935
2026-01-13 11:52:26.33	279.18	28.30	-34.0	-45.8	3.8	1.49e+00	0	43	104	0	29	13904
2026-01-13 11:52:29.35	280.15	28.20	-34.0	-45.8	3.8	1.49e+00	0	42	104	0	29	13918
2026-01-13 11:52:32.37	281.11	28.09	-34.0	-45.8	3.8	1.49e+00	0	43	104	0	29	13941
2026-01-13 11:52:35.39	282.06	27.98	-34.0	-45.8	3.8	1.49e+00	0	43	104	0	29	13937
2026-01-13 11:52:38.42	283.00	27.85	-34.0	-45.8	3.8	1.49e+00	0	43	104	0	29	13926
2026-01-13 11:52:41.43	283.94	27.72	-34.0	-45.8	3.8	1.49e+00	0	43	104	0	29	13911
2026-01-13 11:52:44.45	284.87	27.58	-34.0	-45.8	3.8	1.49e+00	0	43	104	0	29	13905
2026-01-13 11:52:47.48	285.79	27.43	-34.0	-45.8	3.8	1.49e+00	0	43	104	0	29	13921
2026-01-13 11:52:50.50	286.70	27.28	-34.0	-45.8	3.8	1.49e+00	0	43	104	0	29	13901
2026-01-13 11:52:53.52	287.61	27.12	-34.0	-45.8	3.8	1.49e+00	0	42	104	0	29	13943
2026-01-13 11:52:56.54	288.50	26.95	-34.0	-45.8	3.8	1.49e+00	0	43	104	0	29	13892
2026-01-13 11:52:59.56	289.38	26.78	-34.0	-45.8	3.8	1.49e+00	0	43	104	0	29	13940
2026-01-13 11:53:02.58	290.26	26.60	-34.0	-45.8	3.8	1.49e+00	0	43	104	0	29	13938
2026-01-13 11:53:05.60	291.12	26.41	-34.0	-45.8	3.8	1.49e+00	0	43	104	0	29	13942
2026-01-13 11:53:08.62	291.98	26.22	-34.0	-45.8	3.8	1.49e+00	0	42	104	0	29	13939
2026-01-13 11:53:11.63	292.82	26.03	-34.0	-45.8	3.8	1.49e+00	0	42	104	0	29	13932
2026-01-13 11:53:14.65	293.66	25.83	-34.0	-45.8	3.8	1.49e+00	0	42	104	0	29	13933
2026-01-13 11:53:17.68	294.48	25.62	-34.0	-45.8	3.8	1.49e+00	0	43	104	0	29	13936
2026-01-13 11:53:20.70	295.30	25.41	-34.0	-45.8	3.8	1.49e+00	0	43	104	0	29	13943
2026-01-13 11:53:23.72	296.10	25.20	-34.0	-45.8	3.8	1.49e+00	0	43	104	0	29	13951
2026-01-13 11:53:26.74	296.89	24.98	-34.0	-45.8	3.8	1.49e+00	0	42	104	0	29	13962
2026-01-13 11:53:29.76	297.67	24.76	-34.0	-45.8	3.8	1.49e+00	0	43	104	0	29	13955
2026-01-13 11:53:32.77	298.44	24.53	-34.0	-45.8	3.8	1.49e+00	0	43	104	0	29	13952
2026-01-13 11:53:35.78	299.20	24.31	-34.0	-45.8	3.8	1.49e+00	0	43	104	0	29	13885
2026-01-13 11:53:38.81	299.95	24.08	-34.0	-45.8	3.8	1.49e+00	0	43	104	0	29	13905
2026-01-13 11:53:41.82	300.69	23.84	-34.0	-45.8	3.8	1.49e+00	0	43	104	0	29	13932
2026-01-13 11:53:44.84	301.41	23.61	-34.0	-45.8	3.8	1.49e+00	0	43	104	0	29	13957
2026-01-13 11:53:47.85	302.13	23.37	-34.0	-45.8	3.8	1.49e+00	0	43	104	0	29	13925
2026-01-13 11:53:50.88	302.83	23.13	-34.0	-45.8	3.8	1.49e+00	0	43	104	0	29	13921
2026-01-13 11:53:53.89	303.53	22.88	-34.0	-45.8	3.8	1.49e+00	0	43	104	0	29	13937
2026-01-13 11:53:56.90	304.21	22.64	-34.0	-45.8	3.8	1.49e+00	0	43	104	0	29	13920
2026-01-13 11:53:59.93	304.89	22.39	-34.0	-45.8	3.8	1.49e+00	0	43	104	0	29	13988
2026-01-13 11:54:02.95	305.55	22.14	-34.0	-45.8	3.8	1.49e+00	0	43	104	0	29	13966
2026-01-13 11:54:05.97	306.20	21.89	-34.0	-45.8	3.8	1.49e+00	0	42	104	0	29	13932
2026-01-13 11:54:08.99	306.85	21.64	-34.0	-45.8	3.8	1.49e+00	0	42	104	0	29	13950
2026-01-13 11:54:12.01	307.48	21.39	-34.0	-45.8	3.8	1.49e+00	0	43	104	0	29	13894
2026-01-13 11:54:15.03	308.10	21.14	-34.0	-45.8	3.8	1.49e+00	0	42	104	0	29	13934
2026-01-13 11:54:18.03	308.71	20.89	-34.0	-45.8	3.8	1.49e+00	0	43	104	0	29	13967
2026-01-13 11:54:21.05	309.31	20.63	-34.0	-45.8	3.8	1.49e+00	0	43	104	0	29	13997
2026-01-13 11:54:24.07	309.91	20.38	-34.0	-45.8	3.8	1.49e+00	0	43	104	0	29	13926
2026-01-13 11:54:27.09	310.49	20.12	-34.0	-45.8	3.8	1.49e+00	0	43	104	0	29	13919
2026-01-13 11:54:30.11	311.07	19.87	-34.0	-45.8	3.8	1.49e+00	0	43	104	0	29	13970
2026-01-13 11:54:33.13	311.63	19.61	-34.0	-45.8	3.8	1.49e+00	0	43	104	0	29	13980
2026-01-13 11:54:36.15	312.19	19.36	-34.0	-45.8	3.8	1.49e+00	0	43	104	0	29	13942
2026-01-13 11:54:39.18	312.74	19.10	-34.0	-45.8	3.8	1.49e+00	0	43	104	0	29	13949
2026-01-13 11:54:42.20	313.27	18.85	-34.0	-45.8	3.8	1.49e+00	0	42	104	0	29	13959
2026-01-13 11:54:45.23	313.81	18.59	-34.0	-45.8	3.8	1.49e+00	0	42	104	0	29	13939
2026-01-13 11:54:48.24	314.32	18.34	-34.0	-45.8	3.8	1.49e+00	0	43	104	0	29	13952
2026-01-13 11:54:51.26	314.84	18.08	-34.0	-45.8	3.8	1.49e+00	0	43	104	0	29	13945
2026-01-13 11:54:54.29	315.34	17.83	-34.0	-45.8	3.8	1.49e+00	0	43	104	0	29	13972
2026-01-13 11:54:57.31	315.84	17.58	-34.0	-45.8	3.8	1.49e+00	0	43	104	0	29	13927
2026-01-13 11:55:00.33	316.33	17.32	-34.0	-45.8	3.8	1.49e+00	0	43	104	0	29	13975
2026-01-13 11:55:03.34	316.81	17.07	-34.0	-45.8	3.8	1.49e+00	0	43	104	0	29	13991
2026-01-13 11:55:06.36	317.28	16.82	-34.0	-45.8	3.8	1.49e+00	0	43	104	0	29	13981
2026-01-13 11:55:09.38	317.74	16.57	-34.0	-45.8	3.8	1.49e+00	0	43	104	0	29	13966
2026-01-13 11:55:12.40	318.20	16.32	-34.0	-45.8	3.8	1.49e+00	0	43	104	0	29	13992
2026-01-13 11:55:15.42	318.65	16.07	-34.0	-45.8	3.8	1.49e+00	0	43	104	0	29	13966
2026-01-13 11:55:18.45	319.10	15.83	-34.1	-45.8	3.8	1.49e+00	0	43	104	0	29	13934
2026-01-13 11:55:21.47	319.53	15.58	-34.1	-45.8	3.8	1.49e+00	0	43	104	0	29	13964
2026-01-13 11:55:24.50	319.96	15.33	-34.0	-45.8	3.8	1.49e+00	0	43	104	0	29	13977
2026-01-13 11:55:27.52	320.38	15.09	-34.1	-45.8	3.8	1.49e+00	0	43	104	0	29	13946
2026-01-13 11:55:30.54	320.80	14.85	-34.0	-45.8	3.8	1.49e+00	0	43	104	0	29	13986
2026-01-13 11:55:33.55	321.21	14.60	-34.1	-45.8	3.8	1.49e+00	0	43	104	0	29	13928
2026-01-13 11:55:36.57	321.61	14.36	-34.0	-45.8	3.8	1.49e+00	0	42	104	0	29	13980
2026-01-13 11:55:39.59	322.01	14.12	-34.1	-45.8	3.8	1.49e+00	0	42	104	0	29	13994
2026-01-13 11:55:42.61	322.40	13.88	-34.0	-45.8	3.8	1.49e+00	0	43	104	0	29	13977
2026-01-13 11:55:45.64	322.78	13.65	-34.0	-45.8	3.8	1.49e+00	0	42	104	0	29	13945
2026-01-13 11:55:48.66	323.16	13.41	-34.1	-45.8	3.8	1.49e+00	0	43	104	0	29	13970
2026-01-13 11:55:51.67	323.53	13.17	-34.0	-45.8	3.8	1.49e+00	0	43	104	0	29	13969
2026-01-13 11:55:54.70	323.90	12.94	-34.1	-45.8	3.8	1.49e+00	0	43	104	0	29	13918
2026-01-13 11:55:57.72	324.26	12.71	-34.0	-45.8	3.8	1.49e+00	0	43	104	0	29	13948
2026-01-13 11:56:00.73	324.62	12.48	-34.1	-45.8	3.8	1.49e+00	0	43	104	0	29	13974
2026-01-13 11:56:03.75	324.97	12.25	-34.0	-45.8	3.8	1.49e+00	0	43	104	0	29	13977
2026-01-13 11:56:06.77	325.32	12.02	-34.0	-45.8	3.8	1.49e+00	0	43	104	0	29	13952
2026-01-13 11:56:09.80	325.66	11.79	-34.1	-45.8	3.8	1.49e+00	0	42	104	0	29	13980
2026-01-13 11:56:12.82	325.99	11.56	-34.1	-45.8	3.8	1.49e+00	0	43	104	0	29	13971
2026-01-13 11:56:15.83	326.32	11.34	-34.1	-45.8	3.8	1.49e+00	0	43	104	0	29	13959
2026-01-13 11:56:18.85	326.65	11.11	-34.1	-45.8	3.8	1.49e+00	0	43	104	0	29	13957
2026-01-13 11:56:21.87	326.97	10.89	-34.1	-45.8	3.8	1.49e+00	0	43	104	0	29	13957
2026-01-13 11:56:24.89	327.29	10.67	-34.1	-45.9	3.8	1.49e+00	0	43	104	0	29	14004
2026-01-13 11:56:27.91	327.60	10.45	-34.1	-45.9	3.8	1.49e+00	0	43	104	0	29	14004
2026-01-13 11:56:30.93	327.91	10.23	-34.1	-45.8	3.8	1.49e+00	0	43	104	0	29	13936
2026-01-13 11:56:33.94	328.21	10.01	-34.1	-45.8	3.8	1.49e+00	0	42	104	0	29	13993
2026-01-13 11:56:36.96	328.51	9.80	-34.0	-45.8	3.8	1.49e+00	0	42	104	0	29	13945
2026-01-13 11:56:39.98	328.80	9.58	-34.0	-45.8	3.8	1.49e+00	0	43	104	0	29	13971
2026-01-13 11:56:43.00	329.09	9.37	-34.1	-45.9	3.8	1.49e+00	0	43	104	0	29	13996
2026-01-13 11:56:46.02	329.38	9.15	-34.1	-45.9	3.8	1.49e+00	0	43	104	0	29	14023
2026-01-13 11:56:49.03	329.66	8.94	-34.1	-45.8	3.8	1.49e+00	0	43	104	0	29	13976
2026-01-13 11:56:52.05	329.94	8.73	-34.1	-45.8	3.8	1.49e+00	0	43	104	0	29	13984
2026-01-13 11:56:55.07	330.21	8.52	-34.0	-45.8	3.8	1.49e+00	0	42	104	0	29	13964
2026-01-13 11:56:58.10	330.49	8.32	-34.1	-45.9	3.8	1.49e+00	0	42	104	0	29	13992
2026-01-13 11:57:01.12	330.75	8.11	-34.1	-45.9	3.8	1.49e+00	0	43	104	0	29	14003
2026-01-13 11:57:04.14	331.02	7.90	-34.1	-45.8	3.8	1.49e+00	0	43	104	0	29	13955
2026-01-13 11:57:07.16	331.28	7.70	-34.1	-45.8	3.8	1.49e+00	0	42	104	0	29	13965
2026-01-13 11:57:10.19	331.54	7.49	-34.1	-45.9	3.8	1.49e+00	0	43	104	0	29	14015
2026-01-13 11:57:13.20	331.79	7.29	-34.1	-45.8	3.8	1.49e+00	0	42	104	0	29	13955
2026-01-13 11:57:16.22	332.04	7.09	-34.1	-45.9	3.8	1.49e+00	0	43	104	0	29	13986
2026-01-13 11:57:19.25	332.29	6.89	-34.1	-45.8	3.8	1.49e+00	0	43	104	0	29	13951

#Closed at: 2026-01-13 11:57:19
#Recorded file [0 MB]: D:/data/31010_260113_144633.dat