passes_logs/2026/01/13/R2M6_AANII_01/R2M6_AANII_01__20260113_232359_NOAA_21_JPSS-2_rec.log

#Pass ID: 20260113_232359_NOAA 21 (JPSS-2)
#Satellite: NOAA 21 (JPSS-2)
#Configuration: NOAA 21
#almurnet v.1.7.20240730
#Start time: 2026-01-13 23:23:58

#Version: 2.2.20231116
#Station: R2M6_AANII_01
#Location: 30.233357 lon 59.946436 lat
#TLE: 1 54234U 22150A   26013.18009385  .00000056  00000+0  47387-4 0  9997
#TLE: 2 54234  98.7496 314.1019 0000691 303.8246  56.2864 14.19534466164559

#Time	Az	El	Level	Level2	SNR	BER	BlckErr	Temp	State	Recorded	gain1	gain2
2026-01-13 23:23:58.68	23.87	6.94	-29.5	-33.2	4.9	1.34e+00	0	40	0	0	19	5526
2026-01-13 23:24:01.69	24.04	7.16	-30.0	-33.4	9.9	9.74e-03	0	40	0	3145728	20	5323
2026-01-13 23:24:04.70	24.21	7.38	-30.3	-34.3	9.4	2.40e-02	0	40	0	12582912	20	5699
2026-01-13 23:24:07.70	24.38	7.60	-29.8	-33.2	10.5	4.19e-03	0	41	0	22020096	19	5346
2026-01-13 23:24:10.69	24.56	7.82	-30.1	-33.5	10.0	1.01e-02	0	41	0	30408704	20	5329
2026-01-13 23:24:13.71	24.74	8.04	-29.4	-32.5	11.4	1.05e-03	0	41	0	39845888	18	5178
2026-01-13 23:24:16.72	24.92	8.27	-29.8	-33.2	10.7	2.36e-03	0	41	0	49283072	19	5313
2026-01-13 23:24:19.72	25.10	8.49	-29.1	-31.8	11.9	4.70e-04	0	41	0	58720256	18	4925
2026-01-13 23:24:22.73	25.29	8.72	-28.8	-31.5	12.5	1.10e-04	0	41	0	68157440	17	4924
2026-01-13 23:24:25.74	25.48	8.95	-28.8	-31.5	12.5	1.71e-04	0	41	0	77594624	17	4900
2026-01-13 23:24:28.74	25.67	9.19	-28.4	-30.9	13.2	3.05e-05	0	41	0	87031808	16	4822
2026-01-13 23:24:31.75	25.87	9.42	-28.5	-30.7	13.0	2.89e-05	0	41	0	96468992	17	4640
2026-01-13 23:24:34.76	26.06	9.66	-28.4	-30.9	13.2	1.98e-05	0	41	0	105906176	16	4809
2026-01-13 23:24:37.75	26.26	9.90	-28.5	-30.8	13.0	3.50e-05	0	41	0	115343360	17	4666
2026-01-13 23:24:40.75	26.47	10.14	-28.3	-30.2	13.3	1.98e-05	0	41	0	124780544	17	4488
2026-01-13 23:24:43.76	26.68	10.38	-28.2	-30.5	13.5	9.10e-06	0	41	0	134217728	16	4671
2026-01-13 23:24:46.77	26.89	10.62	-27.8	-29.9	14.0	1.50e-06	0	41	0	143654912	15	4630
2026-01-13 23:24:49.78	27.10	10.87	-28.2	-30.4	13.6	5.30e-06	0	42	0	153092096	16	4642
2026-01-13 23:24:52.79	27.32	11.12	-27.9	-30.3	13.8	1.50e-06	0	42	0	162529280	15	4742
2026-01-13 23:24:55.79	27.54	11.37	-27.8	-29.9	14.0	2.20e-06	0	41	0	171966464	15	4626
2026-01-13 23:24:58.80	27.76	11.62	-27.6	-29.5	14.3	1.50e-06	0	42	0	181403648	15	4500
2026-01-13 23:25:01.81	27.99	11.88	-27.5	-29.3	13.5	1.50e-06	0	42	0	190840832	15	4435
2026-01-13 23:25:04.81	28.22	12.14	-27.5	-29.7	14.5	0.00e+00	0	42	0	200278016	14	4666
2026-01-13 23:25:07.82	28.46	12.40	-27.7	-29.8	14.2	0.00e+00	0	42	0	209715200	15	4572
2026-01-13 23:25:10.83	28.70	12.66	-27.9	-30.3	13.9	1.41e-03	0	42	0	219152384	15	4737
2026-01-13 23:25:13.84	28.94	12.93	-27.7	-29.8	14.3	7.00e-07	0	42	0	228589568	15	4564
2026-01-13 23:25:16.85	29.19	13.19	-27.4	-29.5	14.7	1.84e-03	0	42	0	238026752	14	4609
2026-01-13 23:25:19.85	29.44	13.46	-27.4	-29.0	14.7	1.71e-03	0	42	0	247463936	15	4354
2026-01-13 23:25:22.86	29.70	13.74	-27.2	-29.0	15.0	1.11e-03	0	42	0	255852544	14	4460
2026-01-13 23:25:25.87	29.96	14.01	-27.2	-29.1	15.0	1.20e-03	0	42	0	265289728	14	4464
2026-01-13 23:25:28.87	30.23	14.29	-27.1	-29.0	15.0	7.00e-07	0	42	0	274726912	14	4434
2026-01-13 23:25:31.89	30.50	14.57	-26.9	-28.5	15.3	8.66e-04	0	42	0	284164096	14	4301
2026-01-13 23:25:34.89	30.78	14.85	-27.1	-28.8	15.2	8.22e-04	0	42	0	293601280	14	4387
2026-01-13 23:25:37.90	31.06	15.14	-27.1	-28.9	15.1	8.48e-04	0	42	0	303038464	14	4417
2026-01-13 23:25:40.92	31.34	15.43	-27.2	-29.0	15.1	1.05e-03	0	42	0	312475648	14	4453
2026-01-13 23:25:43.92	31.63	15.72	-27.1	-28.9	15.1	7.00e-07	0	42	0	321912832	14	4412
2026-01-13 23:25:46.93	31.93	16.02	-27.2	-29.0	15.1	8.18e-04	0	42	0	331350016	14	4445
2026-01-13 23:25:49.93	32.23	16.31	-27.2	-29.1	15.1	0.00e+00	0	42	0	340787200	14	4459
2026-01-13 23:25:52.95	32.54	16.62	-27.3	-29.3	14.9	4.02e-04	0	42	0	350224384	14	4541
2026-01-13 23:25:55.95	32.86	16.92	-27.3	-29.3	15.0	0.00e+00	0	42	0	359661568	14	4521
2026-01-13 23:25:58.96	33.18	17.23	-27.4	-29.5	14.9	0.00e+00	0	42	0	369098752	14	4585
2026-01-13 23:26:01.97	33.50	17.54	-27.6	-29.4	14.7	7.00e-07	0	42	0	378535936	15	4445
2026-01-13 23:26:04.98	33.84	17.85	-27.8	-29.8	14.4	7.00e-07	0	42	0	387973120	15	4572
2026-01-13 23:26:07.98	34.18	18.16	-27.7	-29.6	14.6	7.00e-07	0	42	0	397410304	15	4492
2026-01-13 23:26:10.99	34.52	18.48	-27.5	-29.7	14.8	0.00e+00	0	42	0	406847488	14	4631
2026-01-13 23:26:14.00	34.88	18.81	-27.6	-29.5	14.6	0.00e+00	0	42	0	416284672	15	4467
2026-01-13 23:26:17.01	35.24	19.13	-27.7	-29.7	14.6	7.00e-07	0	42	0	425721856	15	4516
2026-01-13 23:26:20.01	35.61	19.46	-27.9	-30.1	14.3	1.50e-06	0	43	0	435159040	15	4654
2026-01-13 23:26:23.01	35.98	19.79	-27.4	-29.1	14.9	0.00e+00	0	42	0	444596224	15	4344
2026-01-13 23:26:26.03	36.37	20.13	-27.5	-29.2	14.9	7.00e-07	0	42	0	454033408	15	4389
2026-01-13 23:26:29.04	36.76	20.46	-27.3	-28.8	15.1	0.00e+00	0	42	0	463470592	15	4275
2026-01-13 23:26:32.05	37.17	20.81	-27.2	-29.1	15.2	0.00e+00	0	42	0	472907776	14	4467
2026-01-13 23:26:35.07	37.58	21.15	-27.0	-28.6	15.5	0.00e+00	0	42	0	482344960	14	4322
2026-01-13 23:26:38.08	38.00	21.50	-27.2	-29.1	15.2	0.00e+00	0	42	0	491782144	14	4470
2026-01-13 23:26:41.08	38.42	21.85	-27.2	-29.0	15.3	0.00e+00	0	43	0	501219328	14	4445
2026-01-13 23:26:44.07	38.86	22.21	-27.1	-28.9	15.3	0.00e+00	0	42	0	509607936	14	4398
2026-01-13 23:26:47.09	39.31	22.57	-27.2	-28.4	15.4	0.00e+00	0	42	0	520093696	15	4154
2026-01-13 23:26:50.10	39.77	22.93	-26.8	-28.2	15.8	0.00e+00	0	43	0	529530880	14	4205
2026-01-13 23:26:53.10	40.24	23.29	-26.7	-27.8	16.0	0.00e+00	0	43	0	537919488	14	4107
2026-01-13 23:26:56.10	40.71	23.66	-26.7	-27.8	16.0	0.00e+00	0	43	0	547356672	14	4103
2026-01-13 23:26:59.11	41.20	24.03	-26.5	-27.4	16.2	0.00e+00	0	43	0	556793856	14	3998
2026-01-13 23:27:02.13	41.71	24.41	-26.5	-27.4	16.2	0.00e+00	0	43	0	566231040	14	3997
2026-01-13 23:27:05.12	42.22	24.78	-26.2	-27.3	16.5	0.00e+00	0	43	0	575668224	13	4077
2026-01-13 23:27:08.13	42.74	25.17	-26.4	-27.7	16.4	0.00e+00	0	42	0	585105408	13	4174
2026-01-13 23:27:11.13	43.28	25.55	-26.5	-28.0	16.2	0.00e+00	0	43	0	594542592	13	4249
2026-01-13 23:27:14.13	43.83	25.93	-26.8	-28.7	15.9	0.00e+00	0	42	0	603979776	13	4442
2026-01-13 23:27:17.14	44.40	26.32	-27.3	-29.2	15.3	1.02e-04	0	43	0	613416960	14	4484
2026-01-13 23:27:20.15	44.98	26.72	-27.1	-28.6	15.7	0.00e+00	0	43	0	622854144	14	4318
2026-01-13 23:27:23.14	45.56	27.11	-27.4	-29.3	15.3	0.00e+00	0	43	0	632291328	14	4518
2026-01-13 23:27:26.14	46.17	27.51	-27.5	-29.2	15.0	1.68e-03	0	43	0	641728512	15	4379
2026-01-13 23:27:29.14	46.79	27.91	-27.6	-29.4	15.0	0.00e+00	0	43	0	651165696	15	4430
2026-01-13 23:27:32.15	47.43	28.31	-27.5	-29.1	15.1	7.00e-07	0	43	0	660602880	15	4337
2026-01-13 23:27:35.16	48.08	28.71	-27.6	-29.5	15.0	0.00e+00	0	43	0	670040064	15	4441
2026-01-13 23:27:38.17	48.75	29.12	-27.5	-29.1	15.1	3.94e-04	0	43	0	679477248	15	4335
2026-01-13 23:27:41.17	49.44	29.53	-27.4	-29.4	15.3	6.61e-04	0	43	0	688914432	14	4526
2026-01-13 23:27:44.19	50.14	29.94	-27.1	-28.8	15.6	4.89e-04	0	43	0	698351616	14	4364
2026-01-13 23:27:47.19	50.86	30.35	-27.3	-29.2	15.4	0.00e+00	0	43	0	707788800	14	4486
2026-01-13 23:27:50.20	51.60	30.76	-27.0	-28.5	15.8	0.00e+00	0	43	0	717225984	14	4286
2026-01-13 23:27:53.21	52.36	31.18	-27.1	-28.7	15.7	9.10e-06	0	43	0	726663168	14	4340
2026-01-13 23:27:56.21	53.14	31.59	-27.4	-29.4	15.3	0.00e+00	0	43	0	736100352	14	4544
2026-01-13 23:27:59.21	53.94	32.00	-27.7	-29.6	15.0	1.75e-05	0	43	0	744488960	15	4469
2026-01-13 23:28:02.22	54.75	32.41	-27.8	-29.7	14.9	0.00e+00	0	43	0	753926144	15	4512
2026-01-13 23:28:05.23	55.59	32.82	-27.8	-29.8	14.9	0.00e+00	0	43	0	763363328	15	4544
2026-01-13 23:28:08.24	56.45	33.23	-27.7	-29.6	15.0	1.27e-04	0	43	0	772800512	15	4475
2026-01-13 23:28:11.25	57.34	33.64	-27.7	-29.6	15.0	0.00e+00	0	43	0	782237696	15	4472
2026-01-13 23:28:14.25	58.24	34.05	-28.0	-30.3	14.7	7.00e-07	0	43	0	791674880	15	4674
2026-01-13 23:28:17.26	59.16	34.45	-28.3	-30.4	14.5	1.50e-06	0	43	0	801112064	16	4590
2026-01-13 23:28:20.26	60.11	34.85	-28.6	-30.5	14.1	7.00e-07	0	43	0	810549248	17	4516
2026-01-13 23:28:23.26	61.08	35.25	-28.8	-31.2	13.7	9.10e-06	0	43	0	819986432	17	4730
2026-01-13 23:28:26.28	62.08	35.65	-29.1	-31.3	13.4	1.44e-05	0	43	0	829423616	18	4633
2026-01-13 23:28:29.30	63.10	36.04	-29.3	-31.7	13.2	3.81e-05	0	43	0	838860800	18	4758
2026-01-13 23:28:32.31	64.15	36.42	-28.5	-29.8	14.2	6.10e-06	0	43	0	848297984	18	4199
2026-01-13 23:28:35.31	65.21	36.79	-28.8	-30.5	13.9	0.00e+00	0	43	0	857735168	18	4405
2026-01-13 23:28:38.31	66.30	37.16	-28.9	-30.7	13.7	1.75e-05	0	43	0	867172352	18	4455
2026-01-13 23:28:41.31	67.42	37.53	-28.7	-30.2	14.1	7.00e-07	0	43	0	876609536	18	4307
2026-01-13 23:28:44.32	68.56	37.88	-28.9	-30.8	13.7	6.10e-06	0	43	0	886046720	18	4484
2026-01-13 23:28:47.32	69.72	38.22	-29.1	-31.4	13.4	2.21e-05	0	43	0	895483904	18	4661
2026-01-13 23:28:50.33	70.91	38.56	-29.1	-31.3	13.4	1.83e-05	0	43	0	904921088	18	4634
2026-01-13 23:28:53.34	72.13	38.88	-29.0	-31.0	13.6	4.50e-06	0	43	0	914358272	18	4551
2026-01-13 23:28:56.34	73.36	39.20	-29.3	-31.6	13.3	1.90e-05	0	43	0	923795456	18	4741
2026-01-13 23:28:59.35	74.63	39.50	-29.6	-32.1	12.7	6.56e-05	0	43	0	933232640	19	4794
2026-01-13 23:29:02.36	75.91	39.78	-29.3	-31.3	13.1	3.05e-05	0	43	0	942669824	19	4533
2026-01-13 23:29:05.37	77.22	40.06	-29.4	-31.4	13.1	4.34e-05	0	43	0	952107008	19	4565
2026-01-13 23:29:08.37	78.54	40.32	-29.4	-31.5	13.0	4.73e-05	0	43	0	961544192	19	4579
2026-01-13 23:29:11.38	79.89	40.56	-29.1	-30.8	13.5	8.30e-06	0	43	0	970981376	19	4379
2026-01-13 23:29:14.40	81.27	40.79	-29.5	-31.6	12.8	4.19e-05	0	43	0	980418560	19	4629
2026-01-13 23:29:17.40	82.65	41.00	-29.4	-31.5	13.1	3.73e-05	0	43	0	989855744	19	4586
2026-01-13 23:29:20.41	84.06	41.19	-29.5	-31.7	12.9	4.95e-05	0	43	0	998244352	19	4668
2026-01-13 23:29:23.40	85.47	41.37	-29.2	-31.0	13.3	1.14e-05	0	43	0	1007681536	19	4437
2026-01-13 23:29:26.41	86.91	41.52	-29.6	-31.9	12.8	1.26e-04	0	43	0	1017118720	19	4710
2026-01-13 23:29:29.42	88.36	41.66	-29.8	-32.4	12.5	1.77e-04	0	43	0	1026555904	19	4892
2026-01-13 23:29:32.43	89.82	41.78	-29.6	-31.9	12.8	4.73e-05	0	43	0	1035993088	19	4711
2026-01-13 23:29:35.42	91.28	41.88	-29.5	-31.8	12.9	8.92e-05	0	43	0	1045430272	19	4681
2026-01-13 23:29:38.43	92.76	41.95	-29.5	-31.8	12.8	4.27e-05	0	43	0	1054867456	19	4688
2026-01-13 23:29:41.43	94.24	42.01	-29.5	-31.6	13.0	1.16e-04	0	43	0	1064304640	19	4626
2026-01-13 23:29:44.43	95.72	42.04	-29.8	-32.7	12.4	1.39e-04	0	43	0	1073741824	19	4975
2026-01-13 23:29:47.43	97.21	42.06	-29.7	-32.2	12.7	6.63e-05	0	43	0	1083179008	19	4827
2026-01-13 23:29:50.43	98.69	42.05	-29.9	-32.8	12.2	2.19e-04	0	43	0	1092616192	19	5025
2026-01-13 23:29:53.42	100.17	42.02	-30.0	-32.9	12.2	2.03e-04	0	43	0	1102053376	19	5055
2026-01-13 23:29:56.41	101.65	41.97	-29.4	-31.1	12.9	6.86e-05	0	43	0	1111490560	20	4367
2026-01-13 23:29:59.42	103.13	41.90	-29.4	-31.5	13.1	2.97e-05	0	43	0	1120927744	19	4584
2026-01-13 23:30:02.42	104.60	41.81	-29.3	-31.3	13.3	3.05e-05	0	43	0	1130364928	19	4515
2026-01-13 23:30:05.43	106.07	41.70	-29.3	-31.1	13.3	1.29e-05	0	43	0	1139802112	19	4459
2026-01-13 23:30:08.43	107.51	41.57	-29.8	-32.5	12.5	8.85e-05	0	43	0	1149239296	19	4898
2026-01-13 23:30:11.43	108.95	41.42	-29.3	-31.2	13.3	1.29e-05	0	43	0	1157627904	19	4472
2026-01-13 23:30:14.43	110.38	41.25	-29.8	-32.5	12.4	1.54e-04	0	43	0	1167065088	19	4928
2026-01-13 23:30:17.43	111.78	41.06	-29.8	-32.5	12.5	1.51e-04	0	43	0	1176502272	19	4924
2026-01-13 23:30:20.42	113.17	40.85	-29.7	-32.3	12.7	9.46e-05	0	43	0	1185939456	19	4827
2026-01-13 23:30:23.42	114.54	40.63	-30.0	-32.7	12.1	2.30e-04	0	43	0	1195376640	20	4861
2026-01-13 23:30:26.43	115.90	40.39	-29.5	-31.2	12.9	8.69e-05	0	43	0	1204813824	20	4398
2026-01-13 23:30:29.43	117.24	40.14	-28.8	-30.0	14.0	2.20e-06	0	43	0	1214251008	19	4145
2026-01-13 23:30:32.43	118.55	39.87	-29.7	-32.2	12.7	8.08e-05	0	43	0	1223688192	19	4818
2026-01-13 23:30:35.45	119.85	39.58	-28.8	-30.1	14.0	1.50e-06	0	43	0	1233125376	19	4168
2026-01-13 23:30:38.46	121.12	39.28	-29.2	-31.4	13.5	1.37e-05	0	43	0	1242562560	18	4661
2026-01-13 23:30:41.45	122.36	38.97	-29.9	-32.8	12.3	2.10e-04	0	43	0	1251999744	19	5015
2026-01-13 23:30:44.45	123.58	38.65	-28.8	-30.0	14.0	4.50e-06	0	43	0	1261436928	19	4139
2026-01-13 23:30:47.44	124.78	38.32	-29.0	-31.0	13.7	6.80e-06	0	43	0	1270874112	18	4531
2026-01-13 23:30:50.45	125.96	37.98	-29.0	-31.1	13.7	6.80e-06	0	43	0	1280311296	18	4559
2026-01-13 23:30:53.45	127.11	37.63	-29.3	-31.8	13.2	1.67e-05	0	43	0	1289748480	18	4781
2026-01-13 23:30:56.46	128.23	37.26	-29.5	-32.3	12.9	2.13e-05	0	43	0	1299185664	18	4943
2026-01-13 23:30:59.46	129.34	36.90	-29.5	-31.8	12.9	6.33e-05	0	43	0	1308622848	19	4671
2026-01-13 23:31:02.45	130.41	36.52	-28.9	-30.2	13.8	6.10e-06	0	43	0	1318060032	19	4205
2026-01-13 23:31:05.45	131.46	36.14	-28.9	-30.7	13.9	2.20e-06	0	43	0	1327497216	18	4447
2026-01-13 23:31:08.45	132.49	35.75	-29.3	-31.7	13.2	2.21e-05	0	43	0	1335885824	18	4773
2026-01-13 23:31:11.46	133.49	35.36	-29.3	-31.9	13.1	2.36e-05	0	43	0	1345323008	18	4817
2026-01-13 23:31:14.45	134.47	34.96	-29.7	-32.4	12.5	1.38e-04	0	43	0	1354760192	19	4880
2026-01-13 23:31:17.46	135.43	34.56	-28.9	-30.4	13.8	4.50e-06	0	43	0	1364197376	19	4247
2026-01-13 23:31:20.45	136.36	34.15	-28.5	-29.9	14.3	0.00e+00	0	43	0	1373634560	18	4206
2026-01-13 23:31:23.43	137.27	33.75	-28.6	-30.0	14.3	7.00e-07	0	43	0	1383071744	18	4227
2026-01-13 23:31:26.43	138.16	33.34	-28.2	-29.5	14.8	0.00e+00	0	43	0	1392508928	17	4223
2026-01-13 23:31:29.43	139.02	32.93	-28.1	-29.3	14.9	0.00e+00	0	43	0	1401946112	17	4168
2026-01-13 23:31:32.43	139.87	32.52	-27.9	-29.3	15.1	0.00e+00	0	43	0	1411383296	16	4272
2026-01-13 23:31:35.44	140.70	32.10	-27.5	-29.0	15.5	0.00e+00	0	43	0	1420820480	15	4287
2026-01-13 23:31:38.43	141.50	31.69	-27.4	-29.5	15.5	0.00e+00	0	43	0	1430257664	14	4543
2026-01-13 23:31:41.42	142.28	31.27	-27.5	-29.1	15.3	7.00e-07	0	43	0	1439694848	15	4332
2026-01-13 23:31:44.43	143.05	30.86	-27.2	-28.9	15.7	0.00e+00	0	43	0	1449132032	14	4371
2026-01-13 23:31:47.44	143.80	30.44	-27.2	-28.9	15.7	3.00e-06	0	43	0	1458569216	14	4396
2026-01-13 23:31:50.44	144.53	30.03	-27.3	-29.2	15.6	0.00e+00	0	43	0	1468006400	14	4458
2026-01-13 23:31:53.44	145.24	29.62	-27.3	-28.6	15.6	0.00e+00	0	43	0	1477443584	15	4199
2026-01-13 23:31:56.45	145.93	29.21	-27.3	-29.2	15.5	0.00e+00	0	43	0	1486880768	14	4460
2026-01-13 23:31:59.45	146.61	28.80	-27.2	-28.9	15.7	0.00e+00	0	43	0	1495269376	14	4382
2026-01-13 23:32:02.47	147.27	28.39	-27.2	-28.9	15.7	0.00e+00	0	43	0	1504706560	14	4371
2026-01-13 23:32:05.47	147.92	27.98	-27.3	-29.1	15.5	0.00e+00	0	43	0	1514143744	14	4447
2026-01-13 23:32:08.48	148.55	27.58	-27.3	-29.3	15.5	0.00e+00	0	43	0	1523580928	14	4488
2026-01-13 23:32:11.49	149.16	27.18	-27.3	-29.1	15.5	0.00e+00	0	43	0	1533018112	14	4453
2026-01-13 23:32:14.49	149.76	26.78	-26.9	-28.8	15.9	0.00e+00	0	43	0	1542455296	13	4477
2026-01-13 23:32:17.50	150.34	26.38	-27.1	-28.8	15.6	0.00e+00	0	43	0	1551892480	14	4358
2026-01-13 23:32:20.50	150.91	25.99	-27.0	-28.4	15.9	0.00e+00	0	43	0	1561329664	14	4243
2026-01-13 23:32:23.51	151.47	25.60	-27.2	-28.9	15.5	0.00e+00	0	43	0	1570766848	14	4406
2026-01-13 23:32:26.49	152.01	25.22	-27.1	-28.8	15.6	0.00e+00	0	43	0	1580204032	14	4362
2026-01-13 23:32:29.49	152.54	24.83	-27.0	-28.6	15.8	0.00e+00	0	43	0	1589641216	14	4299
2026-01-13 23:32:32.49	153.05	24.45	-26.9	-28.8	15.9	0.00e+00	0	43	0	1599078400	13	4480
2026-01-13 23:32:35.50	153.56	24.07	-27.3	-29.2	15.4	0.00e+00	0	43	0	1608515584	14	4467
2026-01-13 23:32:38.48	154.05	23.70	-27.1	-28.7	15.6	0.00e+00	0	43	0	1617952768	14	4330
2026-01-13 23:32:41.49	154.53	23.33	-27.2	-29.0	15.5	0.00e+00	0	43	0	1627389952	14	4412
2026-01-13 23:32:44.49	155.01	22.96	-27.4	-29.3	15.2	7.00e-07	0	43	0	1636827136	14	4519
2026-01-13 23:32:47.50	155.47	22.59	-27.2	-29.1	15.4	0.00e+00	0	43	0	1646264320	14	4439
2026-01-13 23:32:50.50	155.92	22.23	-27.1	-28.8	15.5	0.00e+00	0	43	0	1655701504	14	4376
2026-01-13 23:32:53.51	156.36	21.87	-27.1	-28.7	15.6	0.00e+00	0	43	0	1665138688	14	4327
2026-01-13 23:32:56.51	156.79	21.52	-27.0	-28.4	15.7	0.00e+00	0	43	0	1673527296	14	4269
2026-01-13 23:32:59.51	157.21	21.17	-27.0	-28.5	15.7	0.00e+00	0	43	0	1682964480	14	4302
2026-01-13 23:33:02.53	157.63	20.82	-27.0	-28.5	15.7	0.00e+00	0	43	0	1692401664	14	4292
2026-01-13 23:33:05.52	158.03	20.48	-26.9	-28.8	15.8	0.00e+00	0	43	0	1701838848	13	4482
2026-01-13 23:33:08.53	158.43	20.13	-27.3	-29.1	15.3	0.00e+00	0	43	0	1711276032	14	4459
2026-01-13 23:33:11.53	158.81	19.80	-26.8	-28.2	15.8	0.00e+00	0	43	0	1720713216	14	4204
2026-01-13 23:33:14.52	159.19	19.46	-26.8	-28.6	15.8	0.00e+00	0	43	0	1730150400	13	4430
2026-01-13 23:33:17.51	159.56	19.13	-27.0	-28.9	15.6	0.00e+00	0	43	0	1739587584	13	4531
2026-01-13 23:33:20.51	159.92	18.80	-27.4	-29.4	15.1	0.00e+00	0	43	0	1749024768	14	4536
2026-01-13 23:33:23.51	160.28	18.48	-27.4	-29.5	15.1	0.00e+00	0	43	0	1758461952	14	4564
2026-01-13 23:33:26.51	160.62	18.16	-27.3	-29.3	15.2	0.00e+00	0	43	0	1767899136	14	4511
2026-01-13 23:33:29.52	160.97	17.84	-27.4	-29.6	15.0	0.00e+00	0	43	0	1777336320	14	4594
2026-01-13 23:33:32.51	161.30	17.53	-27.5	-29.2	14.9	0.00e+00	0	43	0	1786773504	15	4386
2026-01-13 23:33:35.52	161.63	17.21	-27.6	-29.4	14.8	7.00e-07	0	43	0	1796210688	15	4422
2026-01-13 23:33:38.54	161.95	16.90	-27.4	-29.0	15.0	0.00e+00	0	43	0	1805647872	15	4332
2026-01-13 23:33:41.54	162.27	16.60	-27.5	-29.1	14.9	7.00e-07	0	43	0	1815085056	15	4361
2026-01-13 23:33:44.55	162.58	16.29	-27.5	-29.7	14.8	0.00e+00	0	43	0	1824522240	14	4655
2026-01-13 23:33:47.55	162.88	15.99	-27.6	-29.5	14.7	0.00e+00	0	43	0	1833959424	15	4478
2026-01-13 23:33:50.55	163.18	15.69	-27.8	-30.1	14.3	1.50e-06	0	43	0	1843396608	15	4658
2026-01-13 23:33:53.55	163.47	15.40	-28.3	-30.5	13.9	3.00e-06	0	43	0	1851785216	16	4669
2026-01-13 23:33:56.55	163.76	15.11	-28.3	-30.7	13.8	3.80e-06	0	43	0	1861222400	16	4714
2026-01-13 23:33:59.56	164.04	14.82	-28.4	-30.9	13.6	7.60e-06	0	43	0	1870659584	16	4798
2026-01-13 23:34:02.56	164.31	14.53	-28.3	-30.6	13.8	3.00e-06	0	43	0	1880096768	16	4694
2026-01-13 23:34:05.56	164.58	14.25	-28.3	-30.6	13.8	4.50e-06	0	43	0	1889533952	16	4695
2026-01-13 23:34:08.56	164.85	13.97	-28.3	-30.7	13.8	3.80e-06	0	43	0	1898971136	16	4720
2026-01-13 23:34:11.55	165.11	13.70	-28.4	-30.4	13.6	6.10e-06	0	43	0	1908408320	17	4522
2026-01-13 23:34:14.54	165.37	13.42	-28.2	-30.4	13.9	2.20e-06	0	43	0	1917845504	16	4621
2026-01-13 23:34:17.54	165.62	13.15	-28.3	-30.5	13.8	4.50e-06	0	43	0	1927282688	16	4667
2026-01-13 23:34:20.54	165.87	12.88	-28.1	-30.2	14.0	3.99e-04	0	43	0	1936719872	16	4556
2026-01-13 23:34:23.54	166.11	12.61	-28.2	-30.3	13.9	3.80e-06	0	43	0	1946157056	16	4616
2026-01-13 23:34:26.54	166.35	12.35	-28.2	-30.5	13.8	6.24e-04	0	43	0	1955594240	16	4659
2026-01-13 23:34:29.55	166.58	12.08	-28.2	-30.5	13.8	1.50e-06	0	43	0	1965031424	16	4657
2026-01-13 23:34:32.56	166.82	11.82	-28.3	-30.7	13.7	4.50e-06	0	43	0	1974468608	16	4724
2026-01-13 23:34:35.56	167.04	11.57	-28.6	-30.9	13.2	5.28e-04	0	43	0	1983905792	17	4690
2026-01-13 23:34:38.56	167.27	11.31	-27.7	-30.2	13.0	2.89e-05	0	43	0	1993342976	17	4797
2026-01-13 23:34:41.56	167.49	11.06	-28.6	-30.8	12.6	5.92e-04	0	43	0	2002780160	17	4639
2026-01-13 23:34:44.58	167.71	10.80	-28.5	-31.1	13.4	6.83e-04	0	43	0	2012217344	16	4855
2026-01-13 23:34:47.58	167.92	10.56	-28.6	-31.0	13.1	4.66e-03	0	43	0	2021654528	17	4711
2026-01-13 23:34:50.59	168.13	10.31	-28.7	-31.1	13.0	6.54e-04	0	43	0	2031091712	17	4763
2026-01-13 23:34:53.59	168.34	10.06	-28.7	-31.2	12.9	4.03e-03	0	43	0	2039480320	17	4785
2026-01-13 23:34:56.60	168.54	9.82	-28.7	-31.1	13.0	5.23e-04	0	43	0	2048917504	17	4755
2026-01-13 23:34:59.61	168.74	9.58	-28.6	-31.0	13.0	3.84e-03	0	43	0	2058354688	17	4728
2026-01-13 23:35:02.62	168.94	9.34	-28.7	-31.3	12.8	4.09e-03	0	43	0	2067791872	17	4816
2026-01-13 23:35:05.62	169.13	9.11	-28.7	-31.3	12.8	4.09e-03	0	43	0	2077229056	17	4831
2026-01-13 23:35:08.62	169.32	8.87	-28.8	-31.4	12.6	3.96e-03	0	43	0	2086666240	17	4886
2026-01-13 23:35:11.63	169.51	8.64	-28.8	-31.6	12.6	1.26e-04	0	43	0	2096103424	17	4941
2026-01-13 23:35:14.64	169.70	8.41	-29.0	-32.0	12.3	4.22e-03	0	43	0	2105540608	17	5076
2026-01-13 23:35:17.64	169.88	8.18	-28.9	-31.8	12.4	4.84e-03	0	43	0	2114977792	17	5003
2026-01-13 23:35:20.63	170.06	7.95	-29.1	-31.7	12.1	3.79e-03	0	43	0	2124414976	18	4852
2026-01-13 23:35:23.63	170.24	7.73	-29.2	-32.1	11.8	4.35e-03	0	43	0	2133852160	18	5005
2026-01-13 23:35:26.62	170.41	7.51	-29.2	-32.0	11.8	5.16e-04	0	43	0	2143289344	18	4977
2026-01-13 23:35:29.62	170.58	7.28	-29.3	-32.4	11.6	4.11e-03	0	43	0	2152726528	18	5107
2026-01-13 23:35:32.62	170.75	7.06	-32.8	-44.3	3.8	8.66e-01	0	43	104	2161115136	25	13520
2026-01-13 23:35:35.62	170.92	6.85	-33.6	-45.6	3.8	1.49e+00	0	43	104	2161115136	27	14384

#Closed at: 2026-01-13 23:35:36
#Recorded file [2161 MB]: D:/data/31010_260114_022400.dat