passes_logs/2026/01/13/R2M6_AANII_01/R2M6_AANII_01__20260113_124451_FENGYUN_3D_rec.log

#Pass ID: 20260113_124451_FENGYUN 3D
#Satellite: FENGYUN 3D
#Configuration: FENGYUN 3D
#almurnet v.1.7.20240730
#Start time: 2026-01-13 12:44:52

#Version: 2.2.20231116
#Station: R2M6_AANII_01
#Location: 30.233357 lon 59.946436 lat
#TLE: 1 43010U 17072A   26012.32543542  .00000598  00000+0  30457-3 0  9997
#TLE: 2 43010  98.9935 344.1005 0002233 112.6136 247.5276 14.19696644422876

#Time	Az	El	Level	Level2	SNR	BER	BlckErr	Temp	State	Recorded	gain1	gain2
2026-01-13 12:44:52.90	172.19	7.14	-34.0	-44.5	3.8	8.45e-01	0	40	0	0	29	12117
2026-01-13 12:44:55.91	172.27	7.37	-34.0	-44.5	3.8	8.46e-01	0	40	104	0	29	12156
2026-01-13 12:44:58.94	172.36	7.61	-34.0	-44.6	3.8	8.46e-01	0	40	104	0	29	12138
2026-01-13 12:45:01.96	172.44	7.84	-34.0	-44.5	3.8	8.47e-01	0	40	104	0	29	12141
2026-01-13 12:45:04.96	172.53	8.08	-34.0	-44.5	3.8	8.47e-01	0	41	104	0	29	12145
2026-01-13 12:45:07.98	172.61	8.32	-34.0	-44.5	3.8	8.46e-01	0	41	104	0	29	12134
2026-01-13 12:45:10.99	172.70	8.57	-34.0	-44.5	3.8	8.47e-01	0	41	104	0	29	12086
2026-01-13 12:45:14.02	172.79	8.82	-34.0	-44.5	3.8	8.46e-01	0	41	104	0	29	12138
2026-01-13 12:45:17.03	172.89	9.06	-34.0	-44.5	3.8	8.46e-01	0	41	104	0	29	12151
2026-01-13 12:45:20.05	172.98	9.32	-34.0	-44.6	3.8	8.46e-01	0	41	104	0	29	12154
2026-01-13 12:45:23.06	173.07	9.57	-34.0	-44.5	3.8	8.47e-01	0	41	104	0	29	12148
2026-01-13 12:45:26.09	173.17	9.83	-34.0	-44.5	3.8	8.45e-01	0	41	104	0	29	12142
2026-01-13 12:45:29.12	173.27	10.09	-34.0	-44.6	3.8	8.45e-01	0	41	104	0	29	12138
2026-01-13 12:45:32.13	173.37	10.35	-34.0	-44.5	3.8	8.47e-01	0	41	104	0	29	12151
2026-01-13 12:45:35.15	173.47	10.61	-34.0	-44.5	3.8	8.46e-01	0	41	104	0	29	12131
2026-01-13 12:45:38.17	173.57	10.88	-34.0	-44.6	3.8	8.45e-01	0	41	104	0	29	12165
2026-01-13 12:45:41.19	173.67	11.15	-34.0	-44.5	3.8	8.47e-01	0	41	104	0	29	12158
2026-01-13 12:45:44.22	173.78	11.42	-34.0	-44.6	3.8	8.45e-01	0	42	104	0	29	12154
2026-01-13 12:45:47.25	173.89	11.70	-34.0	-44.6	3.8	8.45e-01	0	42	104	0	29	12142
2026-01-13 12:45:50.28	174.00	11.98	-34.0	-44.5	3.8	8.45e-01	0	42	104	0	29	12132
2026-01-13 12:45:53.30	174.11	12.26	-34.0	-44.5	3.8	8.47e-01	0	42	104	0	29	12121
2026-01-13 12:45:56.32	174.22	12.55	-34.0	-44.6	3.8	8.46e-01	0	42	104	0	29	12170
2026-01-13 12:45:59.34	174.34	12.84	-34.0	-44.5	3.8	8.46e-01	0	42	104	0	29	12146
2026-01-13 12:46:02.37	174.46	13.13	-34.0	-44.5	3.8	8.47e-01	0	42	104	0	29	12136
2026-01-13 12:46:05.39	174.58	13.43	-34.0	-44.6	3.8	8.46e-01	0	42	104	0	29	12159
2026-01-13 12:46:08.41	174.70	13.73	-34.0	-44.5	3.8	8.46e-01	0	42	104	0	29	12142
2026-01-13 12:46:11.42	174.82	14.03	-34.0	-44.5	3.8	8.46e-01	0	42	104	0	29	12139
2026-01-13 12:46:14.45	174.95	14.34	-34.0	-44.5	3.8	8.46e-01	0	42	104	0	29	12141
2026-01-13 12:46:17.46	175.08	14.65	-34.0	-44.5	3.8	8.46e-01	0	42	104	0	29	12131
2026-01-13 12:46:20.48	175.21	14.96	-34.0	-44.5	3.8	8.46e-01	0	42	104	0	29	12115
2026-01-13 12:46:23.50	175.35	15.28	-34.0	-44.5	3.8	8.46e-01	0	42	104	0	29	12122
2026-01-13 12:46:26.52	175.49	15.60	-34.0	-44.5	3.8	8.46e-01	0	42	104	0	29	12121
2026-01-13 12:46:29.55	175.63	15.93	-34.0	-44.5	3.8	8.46e-01	0	42	104	0	29	12118
2026-01-13 12:46:32.56	175.77	16.26	-34.0	-44.6	3.8	8.47e-01	0	42	104	0	29	12177
2026-01-13 12:46:35.58	175.91	16.60	-34.0	-44.5	3.8	8.46e-01	0	42	104	0	29	12134
2026-01-13 12:46:38.60	176.06	16.94	-34.0	-44.5	3.8	8.46e-01	0	42	104	0	29	12142
2026-01-13 12:46:41.63	176.22	17.28	-34.0	-44.5	3.8	8.46e-01	0	42	104	0	29	12125
2026-01-13 12:46:44.65	176.37	17.63	-34.0	-44.5	3.8	8.46e-01	0	42	104	0	29	12129
2026-01-13 12:46:47.67	176.53	17.99	-34.0	-44.5	3.8	8.46e-01	0	42	104	0	29	12133
2026-01-13 12:46:50.69	176.69	18.35	-34.0	-44.5	3.8	8.45e-01	0	42	104	0	29	12101
2026-01-13 12:46:53.71	176.86	18.71	-34.0	-44.6	3.8	8.46e-01	0	42	104	0	29	12162
2026-01-13 12:46:56.73	177.03	19.08	-34.0	-44.5	3.8	8.46e-01	0	42	104	0	29	12137
2026-01-13 12:46:59.76	177.20	19.46	-34.0	-44.5	3.8	8.46e-01	0	42	104	0	29	12106
2026-01-13 12:47:02.76	177.38	19.83	-34.0	-44.5	3.8	8.46e-01	0	43	104	0	29	12119
2026-01-13 12:47:05.79	177.56	20.22	-34.0	-44.5	3.8	8.47e-01	0	42	104	0	29	12144
2026-01-13 12:47:08.81	177.75	20.61	-34.0	-44.5	3.8	8.46e-01	0	42	104	0	29	12102
2026-01-13 12:47:11.83	177.94	21.01	-34.0	-44.5	3.8	8.46e-01	0	42	104	0	29	12116
2026-01-13 12:47:14.85	178.14	21.42	-34.0	-44.5	3.8	8.47e-01	0	43	104	0	29	12151
2026-01-13 12:47:17.87	178.34	21.83	-34.0	-44.5	3.8	8.47e-01	0	42	104	0	29	12126
2026-01-13 12:47:20.89	178.54	22.24	-34.0	-44.5	3.8	8.46e-01	0	42	104	0	29	12119
2026-01-13 12:47:23.91	178.76	22.67	-34.0	-44.6	3.8	8.47e-01	0	42	104	0	29	12152
2026-01-13 12:47:26.93	178.97	23.10	-34.0	-44.5	3.8	8.45e-01	0	42	104	0	29	12105
2026-01-13 12:47:29.95	179.20	23.53	-34.0	-44.5	3.8	8.46e-01	0	43	104	0	29	12155
2026-01-13 12:47:32.97	179.42	23.98	-34.0	-44.5	3.8	8.47e-01	0	42	104	0	29	12129
2026-01-13 12:47:36.00	179.66	24.43	-34.0	-44.5	3.8	8.47e-01	0	42	104	0	29	12095
2026-01-13 12:47:39.01	179.90	24.89	-34.0	-44.5	3.8	8.46e-01	0	43	104	0	29	12102
2026-01-13 12:47:42.02	180.15	25.35	-34.0	-44.5	3.8	8.47e-01	0	42	104	0	29	12111
2026-01-13 12:47:45.04	180.40	25.83	-34.0	-44.5	3.8	8.46e-01	0	42	104	0	29	12126
2026-01-13 12:47:48.06	180.67	26.31	-34.0	-44.5	3.8	8.46e-01	0	42	104	0	29	12119
2026-01-13 12:47:51.09	180.94	26.80	-34.0	-44.5	3.8	8.46e-01	0	42	104	0	29	12125
2026-01-13 12:47:54.11	181.22	27.30	-34.0	-44.5	3.8	8.48e-01	0	42	104	0	29	12101
2026-01-13 12:47:57.13	181.51	27.81	-34.0	-44.5	3.8	8.45e-01	0	43	104	0	29	12134
2026-01-13 12:48:00.14	181.80	28.32	-34.0	-44.5	3.8	8.46e-01	0	43	104	0	29	12124
2026-01-13 12:48:03.15	182.11	28.84	-34.0	-44.5	3.8	8.46e-01	0	43	104	0	29	12135
2026-01-13 12:48:06.18	182.42	29.38	-34.0	-44.5	3.8	8.46e-01	0	43	104	0	29	12145
2026-01-13 12:48:09.20	182.75	29.92	-34.0	-44.5	3.8	8.47e-01	0	43	104	0	29	12122
2026-01-13 12:48:12.24	183.09	30.48	-34.0	-44.5	3.8	8.46e-01	0	43	104	0	29	12140
2026-01-13 12:48:15.26	183.44	31.04	-34.0	-44.5	3.8	8.47e-01	0	43	104	0	29	12092
2026-01-13 12:48:18.29	183.80	31.62	-34.0	-44.5	3.8	8.46e-01	0	43	104	0	29	12074
2026-01-13 12:48:21.31	184.17	32.20	-34.0	-44.5	3.8	8.46e-01	0	43	104	0	29	12104
2026-01-13 12:48:24.33	184.56	32.79	-34.0	-44.5	3.8	8.47e-01	0	43	104	0	29	12105
2026-01-13 12:48:27.34	184.96	33.39	-34.0	-44.5	3.8	8.45e-01	0	43	104	0	29	12096
2026-01-13 12:48:30.37	185.38	34.01	-34.0	-44.5	3.8	8.46e-01	0	43	104	0	29	12088
2026-01-13 12:48:33.39	185.81	34.63	-34.0	-44.5	3.8	8.46e-01	0	43	104	0	29	12105
2026-01-13 12:48:36.42	186.26	35.27	-34.0	-44.5	3.8	8.46e-01	0	43	104	0	29	12073
2026-01-13 12:48:39.44	186.72	35.92	-34.0	-44.5	3.8	8.46e-01	0	43	104	0	29	12073
2026-01-13 12:48:42.45	187.20	36.57	-34.0	-44.5	3.8	8.45e-01	0	43	104	0	29	12068
2026-01-13 12:48:45.46	187.70	37.24	-34.0	-44.5	3.8	8.46e-01	0	43	104	0	29	12061
2026-01-13 12:48:48.48	188.23	37.92	-34.0	-44.4	3.8	8.47e-01	0	43	104	0	29	12007
2026-01-13 12:48:51.49	188.77	38.61	-34.0	-44.5	3.8	8.48e-01	0	43	104	0	29	12043
2026-01-13 12:48:54.51	189.34	39.31	-34.0	-44.5	3.8	8.46e-01	0	43	104	0	29	12151
2026-01-13 12:48:57.54	189.94	40.03	-34.0	-44.5	3.8	8.44e-01	0	43	104	0	29	12074
2026-01-13 12:49:00.56	190.56	40.75	-34.0	-44.5	3.8	8.46e-01	0	43	104	0	29	12095
2026-01-13 12:49:03.57	191.20	41.49	-34.0	-44.5	3.8	8.46e-01	0	43	104	0	29	12069
2026-01-13 12:49:06.59	191.88	42.24	-34.0	-44.5	3.8	8.46e-01	0	43	104	0	29	12051
2026-01-13 12:49:09.61	192.59	42.99	-34.0	-44.5	3.8	8.46e-01	0	43	104	0	29	12056
2026-01-13 12:49:12.62	193.33	43.76	-34.0	-44.5	3.8	8.46e-01	0	43	104	0	29	12066
2026-01-13 12:49:15.64	194.11	44.54	-34.0	-44.5	3.8	8.46e-01	0	43	104	0	29	12096
2026-01-13 12:49:18.65	194.93	45.32	-34.0	-44.5	3.8	8.45e-01	0	43	104	0	29	12138
2026-01-13 12:49:21.66	195.78	46.12	-34.0	-44.5	3.8	8.46e-01	0	43	104	0	29	12108
2026-01-13 12:49:24.69	196.69	46.93	-34.0	-44.5	3.8	8.46e-01	0	43	104	0	29	12080
2026-01-13 12:49:27.71	197.64	47.74	-34.0	-44.5	3.8	8.47e-01	0	43	104	0	29	12110
2026-01-13 12:49:30.73	198.64	48.56	-34.0	-44.5	3.8	8.46e-01	0	43	104	0	29	12092
2026-01-13 12:49:33.75	199.70	49.39	-34.0	-44.5	3.8	8.47e-01	0	43	104	0	29	12122
2026-01-13 12:49:36.78	200.82	50.22	-34.0	-44.5	3.8	8.46e-01	0	43	104	0	29	12149
2026-01-13 12:49:39.79	201.99	51.05	-34.0	-44.5	3.8	8.47e-01	0	43	104	0	29	12127
2026-01-13 12:49:42.80	203.23	51.88	-34.0	-44.5	3.8	8.46e-01	0	43	104	0	29	12098
2026-01-13 12:49:45.82	204.54	52.72	-34.0	-44.5	3.8	8.46e-01	0	43	104	0	29	12152
2026-01-13 12:49:48.85	205.94	53.56	-34.0	-44.5	3.8	8.45e-01	0	43	104	0	29	12108
2026-01-13 12:49:51.87	207.41	54.38	-34.0	-44.5	3.8	8.47e-01	0	43	104	0	29	12077
2026-01-13 12:49:54.89	208.97	55.21	-34.0	-44.5	3.8	8.46e-01	0	43	104	0	29	12065
2026-01-13 12:49:57.91	210.62	56.02	-34.0	-44.5	3.8	8.46e-01	0	43	104	0	29	12092
2026-01-13 12:50:00.92	212.36	56.82	-34.0	-44.5	3.8	8.46e-01	0	43	104	0	29	12128
2026-01-13 12:50:03.94	214.21	57.61	-34.0	-44.5	3.8	8.45e-01	0	43	104	0	29	12143
2026-01-13 12:50:06.95	216.16	58.37	-34.0	-44.5	3.8	8.45e-01	0	43	104	0	29	12132
2026-01-13 12:50:09.98	218.24	59.12	-34.0	-44.6	3.8	8.48e-01	0	43	104	0	29	12153
2026-01-13 12:50:12.99	220.42	59.83	-34.0	-44.6	3.8	8.46e-01	0	43	104	0	29	12148
2026-01-13 12:50:16.02	222.74	60.52	-34.0	-44.5	3.8	8.46e-01	0	43	104	0	29	12084
2026-01-13 12:50:19.03	225.16	61.17	-34.0	-44.5	3.8	8.47e-01	0	43	104	0	29	12060
2026-01-13 12:50:22.06	227.73	61.78	-34.0	-44.4	3.8	8.46e-01	0	43	104	0	29	11969
2026-01-13 12:50:25.08	230.41	62.34	-34.0	-44.5	3.8	8.46e-01	0	43	104	0	29	12053
2026-01-13 12:50:28.10	233.21	62.85	-34.0	-44.5	3.8	8.46e-01	0	43	104	0	29	12122
2026-01-13 12:50:31.12	236.13	63.31	-34.0	-44.5	3.8	8.47e-01	0	43	104	0	29	12141
2026-01-13 12:50:34.15	239.17	63.71	-34.0	-44.5	3.8	8.47e-01	0	43	104	0	29	12116
2026-01-13 12:50:37.16	242.28	64.04	-34.0	-44.6	3.8	8.46e-01	0	43	104	0	29	12189
2026-01-13 12:50:40.19	245.49	64.30	-34.0	-44.6	3.8	8.47e-01	0	43	104	0	29	12150
2026-01-13 12:50:43.21	248.75	64.49	-34.0	-44.6	3.8	8.46e-01	0	43	104	0	29	12143
2026-01-13 12:50:46.23	252.06	64.61	-34.0	-44.6	3.8	8.46e-01	0	43	104	0	29	12169
2026-01-13 12:50:49.25	255.39	64.65	-34.0	-44.6	3.8	8.45e-01	0	43	104	0	29	12158
2026-01-13 12:50:52.27	258.72	64.61	-34.0	-44.6	3.8	8.44e-01	0	43	104	0	29	12177
2026-01-13 12:50:55.29	262.03	64.50	-34.0	-44.5	3.8	8.46e-01	0	43	104	0	29	12106
2026-01-13 12:50:58.31	265.29	64.31	-34.0	-44.5	3.8	8.46e-01	0	43	104	0	29	12137
2026-01-13 12:51:01.32	268.48	64.06	-34.0	-44.5	3.8	8.47e-01	0	43	104	0	29	12108
2026-01-13 12:51:04.35	271.62	63.73	-34.0	-44.5	3.8	8.46e-01	0	43	104	0	29	12103
2026-01-13 12:51:07.37	274.64	63.34	-34.0	-44.5	3.8	8.46e-01	0	43	104	0	29	12102
2026-01-13 12:51:10.39	277.57	62.89	-34.0	-44.6	3.8	8.45e-01	0	43	104	0	29	12174
2026-01-13 12:51:13.41	280.37	62.38	-34.0	-44.5	3.8	8.45e-01	0	43	104	0	29	12111
2026-01-13 12:51:16.44	283.07	61.82	-34.0	-44.5	3.8	8.46e-01	0	43	104	0	29	12129
2026-01-13 12:51:19.46	285.63	61.21	-34.0	-44.6	3.8	8.46e-01	0	43	104	0	29	12175
2026-01-13 12:51:22.48	288.07	60.57	-34.0	-44.4	3.8	8.46e-01	0	43	104	0	29	12011
2026-01-13 12:51:25.50	290.39	59.88	-34.0	-44.3	3.8	8.46e-01	0	43	104	0	29	11822
2026-01-13 12:51:28.52	292.58	59.17	-34.0	-44.5	3.8	8.45e-01	0	43	104	0	29	12029
2026-01-13 12:51:31.54	294.66	58.43	-34.0	-44.5	3.8	8.46e-01	0	43	104	0	29	12138
2026-01-13 12:51:34.56	296.62	57.67	-34.0	-44.5	3.8	8.46e-01	0	43	104	0	29	12127
2026-01-13 12:51:37.58	298.47	56.88	-34.0	-44.5	3.8	8.45e-01	0	43	104	0	29	12106
2026-01-13 12:51:40.59	300.22	56.09	-34.0	-44.5	3.8	8.47e-01	0	43	104	0	29	12127
2026-01-13 12:51:43.61	301.87	55.28	-34.0	-44.5	3.8	8.46e-01	0	43	104	0	29	12115
2026-01-13 12:51:46.63	303.43	54.46	-34.0	-44.5	3.8	8.47e-01	0	43	104	0	29	12108
2026-01-13 12:51:49.65	304.90	53.63	-34.0	-44.5	3.8	8.47e-01	0	43	104	0	29	12150
2026-01-13 12:51:52.67	306.30	52.80	-34.0	-44.5	3.8	8.45e-01	0	43	104	0	29	12143
2026-01-13 12:51:55.69	307.61	51.97	-34.0	-44.5	3.8	8.47e-01	0	43	104	0	29	12127
2026-01-13 12:51:58.71	308.86	51.13	-34.0	-44.5	3.8	8.47e-01	0	43	104	0	29	12119
2026-01-13 12:52:01.74	310.04	50.30	-34.0	-44.5	3.8	8.47e-01	0	43	104	0	29	12102
2026-01-13 12:52:04.76	311.16	49.47	-34.0	-44.5	3.8	8.47e-01	0	43	104	0	29	12120
2026-01-13 12:52:07.78	312.22	48.65	-34.0	-44.6	3.8	8.46e-01	0	43	104	0	29	12172
2026-01-13 12:52:10.80	313.22	47.83	-34.0	-44.5	3.8	8.46e-01	0	43	104	0	29	12144
2026-01-13 12:52:13.82	314.17	47.02	-34.0	-44.5	3.8	8.46e-01	0	43	104	0	29	12107
2026-01-13 12:52:16.82	315.07	46.22	-34.0	-44.5	3.8	8.47e-01	0	43	104	0	29	12146
2026-01-13 12:52:19.84	315.94	45.43	-34.0	-44.5	3.8	8.45e-01	0	43	104	0	29	12118
2026-01-13 12:52:22.85	316.75	44.65	-34.0	-44.5	3.8	8.47e-01	0	43	104	0	29	12141
2026-01-13 12:52:25.86	317.53	43.87	-34.0	-44.5	3.8	8.46e-01	0	43	104	0	29	12140
2026-01-13 12:52:28.88	318.28	43.11	-34.0	-44.6	3.8	8.46e-01	0	43	104	0	29	12146
2026-01-13 12:52:31.90	318.99	42.35	-34.0	-44.5	3.8	8.46e-01	0	43	104	0	29	12120
2026-01-13 12:52:34.93	319.67	41.60	-34.0	-44.6	3.8	8.47e-01	0	43	104	0	29	12159
2026-01-13 12:52:37.95	320.32	40.87	-34.0	-44.5	3.8	8.45e-01	0	43	104	0	29	12099
2026-01-13 12:52:40.97	320.95	40.15	-34.0	-44.5	3.8	8.46e-01	0	43	104	0	29	12063
2026-01-13 12:52:44.00	321.54	39.43	-34.0	-44.5	3.8	8.46e-01	0	43	104	0	29	12131
2026-01-13 12:52:47.02	322.11	38.73	-34.0	-44.5	3.8	8.46e-01	0	43	104	0	29	12110
2026-01-13 12:52:50.04	322.66	38.04	-34.0	-44.6	3.8	8.46e-01	0	43	104	0	29	12172
2026-01-13 12:52:53.05	323.18	37.37	-34.0	-44.5	3.8	8.48e-01	0	43	104	0	29	12128
2026-01-13 12:52:56.06	323.69	36.70	-34.0	-44.5	3.8	8.45e-01	0	43	104	0	29	12111
2026-01-13 12:52:59.08	324.17	36.05	-34.0	-44.5	3.8	8.46e-01	0	43	104	0	29	12098
2026-01-13 12:53:02.11	324.64	35.40	-34.0	-44.5	3.8	8.46e-01	0	43	104	0	29	12115
2026-01-13 12:53:05.13	325.09	34.77	-34.0	-44.6	3.8	8.45e-01	0	43	104	0	29	12138
2026-01-13 12:53:08.14	325.52	34.14	-34.0	-44.6	3.8	8.45e-01	0	43	104	0	29	12158
2026-01-13 12:53:11.16	325.94	33.53	-34.0	-44.6	3.8	8.46e-01	0	43	104	0	29	12153
2026-01-13 12:53:14.17	326.34	32.93	-34.0	-44.5	3.8	8.47e-01	0	43	104	0	29	12133
2026-01-13 12:53:17.18	326.73	32.34	-34.0	-44.5	3.8	8.47e-01	0	43	104	0	29	12108
2026-01-13 12:53:20.20	327.10	31.76	-34.0	-44.6	3.8	8.46e-01	0	43	104	0	29	12169
2026-01-13 12:53:23.22	327.46	31.19	-34.0	-44.6	3.8	8.46e-01	0	43	104	0	29	12153
2026-01-13 12:53:26.25	327.82	30.63	-34.0	-44.5	3.8	8.45e-01	0	43	104	0	29	12134
2026-01-13 12:53:29.27	328.15	30.08	-34.0	-44.5	3.8	8.46e-01	0	43	104	0	29	12103
2026-01-13 12:53:32.29	328.48	29.54	-34.0	-44.5	3.8	8.45e-01	0	43	104	0	29	12111
2026-01-13 12:53:35.31	328.80	29.00	-34.0	-44.5	3.8	8.45e-01	0	43	104	0	29	12099
2026-01-13 12:53:38.33	329.11	28.48	-34.0	-44.6	3.8	8.47e-01	0	43	104	0	29	12142
2026-01-13 12:53:41.35	329.41	27.96	-34.0	-44.5	3.8	8.47e-01	0	43	104	0	29	12109
2026-01-13 12:53:44.38	329.70	27.46	-34.0	-44.6	3.8	8.46e-01	0	43	104	0	29	12137
2026-01-13 12:53:47.40	329.98	26.96	-34.0	-44.5	3.8	8.46e-01	0	43	104	0	29	12103
2026-01-13 12:53:50.42	330.25	26.47	-34.0	-44.5	3.8	8.46e-01	0	43	104	0	29	12120
2026-01-13 12:53:53.44	330.52	25.99	-34.0	-44.6	3.8	8.46e-01	0	43	104	0	29	12142
2026-01-13 12:53:56.46	330.77	25.52	-34.0	-44.6	3.8	8.46e-01	0	43	104	0	29	12181
2026-01-13 12:53:59.46	331.02	25.06	-34.0	-44.6	3.8	8.46e-01	0	43	104	0	29	12159
2026-01-13 12:54:02.47	331.26	24.60	-34.0	-44.6	3.8	8.45e-01	0	43	104	0	29	12147
2026-01-13 12:54:05.49	331.50	24.15	-34.0	-44.6	3.8	8.45e-01	0	43	104	0	29	12171
2026-01-13 12:54:08.51	331.73	23.71	-34.0	-44.6	3.8	8.46e-01	0	43	104	0	29	12151
2026-01-13 12:54:11.52	331.96	23.27	-34.0	-44.6	3.8	8.46e-01	0	43	104	0	29	12189
2026-01-13 12:54:14.54	332.18	22.84	-34.0	-44.6	3.8	8.46e-01	0	43	104	0	29	12181
2026-01-13 12:54:17.57	332.39	22.42	-34.0	-44.6	3.8	8.46e-01	0	43	104	0	29	12164
2026-01-13 12:54:20.59	332.60	22.00	-34.0	-44.6	3.8	8.46e-01	0	43	104	0	29	12156
2026-01-13 12:54:23.61	332.80	21.59	-34.0	-44.6	3.8	8.46e-01	0	43	104	0	29	12187
2026-01-13 12:54:26.62	333.00	21.19	-34.0	-44.6	3.8	8.47e-01	0	43	104	0	29	12178
2026-01-13 12:54:29.64	333.19	20.79	-34.0	-44.6	3.8	8.46e-01	0	43	104	0	29	12150
2026-01-13 12:54:32.66	333.38	20.40	-34.0	-44.6	3.8	8.46e-01	0	43	104	0	29	12174
2026-01-13 12:54:35.68	333.56	20.02	-34.0	-44.6	3.8	8.47e-01	0	43	104	0	29	12156
2026-01-13 12:54:38.70	333.74	19.64	-34.0	-44.6	3.8	8.47e-01	0	43	104	0	29	12164
2026-01-13 12:54:41.72	333.92	19.26	-34.0	-44.6	3.8	8.47e-01	0	43	104	0	29	12143
2026-01-13 12:54:44.73	334.09	18.90	-34.0	-44.6	3.8	8.46e-01	0	43	104	0	29	12159
2026-01-13 12:54:47.76	334.26	18.53	-34.0	-44.6	3.8	8.46e-01	0	43	104	0	29	12169
2026-01-13 12:54:50.78	334.43	18.17	-34.0	-44.6	3.8	8.47e-01	0	43	104	0	29	12164
2026-01-13 12:54:53.80	334.59	17.82	-34.0	-44.5	3.8	8.45e-01	0	43	104	0	29	12120
2026-01-13 12:54:56.83	334.74	17.47	-34.0	-44.6	3.8	8.46e-01	0	43	104	0	29	12164
2026-01-13 12:54:59.85	334.90	17.12	-34.0	-44.6	3.8	8.47e-01	0	43	104	0	29	12162
2026-01-13 12:55:02.87	335.05	16.79	-34.0	-44.6	3.8	8.48e-01	0	43	104	0	29	12187
2026-01-13 12:55:05.88	335.20	16.45	-34.0	-44.6	3.8	8.46e-01	0	43	104	0	29	12182
2026-01-13 12:55:08.89	335.34	16.12	-34.0	-44.6	3.8	8.46e-01	0	43	104	0	29	12182
2026-01-13 12:55:11.91	335.49	15.80	-34.0	-44.6	3.8	8.46e-01	0	43	104	0	29	12160
2026-01-13 12:55:14.93	335.63	15.47	-34.0	-44.6	3.8	8.46e-01	0	43	104	0	29	12142
2026-01-13 12:55:17.94	335.76	15.16	-34.0	-44.6	3.8	8.46e-01	0	43	104	0	29	12176
2026-01-13 12:55:20.97	335.90	14.84	-34.0	-44.6	3.8	8.46e-01	0	43	104	0	29	12136
2026-01-13 12:55:24.00	336.03	14.53	-34.0	-44.6	3.8	8.45e-01	0	43	104	0	29	12130
2026-01-13 12:55:27.01	336.16	14.23	-34.0	-44.6	3.8	8.45e-01	0	43	104	0	29	12143
2026-01-13 12:55:30.03	336.29	13.92	-34.0	-44.6	3.8	8.46e-01	0	43	104	0	29	12178
2026-01-13 12:55:33.04	336.41	13.63	-34.0	-44.6	3.8	8.46e-01	0	43	104	0	29	12144
2026-01-13 12:55:36.07	336.53	13.33	-34.0	-44.6	3.8	8.47e-01	0	43	104	0	29	12141
2026-01-13 12:55:39.09	336.65	13.04	-34.0	-44.6	3.8	8.46e-01	0	43	104	0	29	12151
2026-01-13 12:55:42.11	336.77	12.75	-34.0	-44.6	3.8	8.46e-01	0	43	104	0	29	12143
2026-01-13 12:55:45.14	336.89	12.46	-34.0	-44.6	3.8	8.46e-01	0	43	104	0	29	12193
2026-01-13 12:55:48.16	337.00	12.18	-34.0	-44.6	3.8	8.45e-01	0	43	104	0	29	12173
2026-01-13 12:55:51.17	337.12	11.90	-34.0	-44.6	3.8	8.46e-01	0	43	104	0	29	12188
2026-01-13 12:55:54.20	337.23	11.63	-34.0	-44.6	3.8	8.47e-01	0	43	104	0	29	12172
2026-01-13 12:55:57.21	337.33	11.35	-34.0	-44.6	3.8	8.44e-01	0	43	104	0	29	12164
2026-01-13 12:56:00.23	337.44	11.08	-34.0	-44.6	3.8	8.47e-01	0	43	104	0	29	12151
2026-01-13 12:56:03.25	337.55	10.82	-34.0	-44.6	3.8	8.46e-01	0	43	104	0	29	12216
2026-01-13 12:56:06.26	337.65	10.55	-34.0	-44.6	3.8	8.47e-01	0	43	104	0	29	12147
2026-01-13 12:56:09.28	337.75	10.29	-34.0	-44.6	3.8	8.47e-01	0	43	104	0	29	12172
2026-01-13 12:56:12.30	337.85	10.03	-34.0	-44.6	3.8	8.47e-01	0	43	104	0	29	12216
2026-01-13 12:56:15.32	337.95	9.78	-34.0	-44.6	3.8	8.46e-01	0	43	104	0	29	12178
2026-01-13 12:56:18.32	338.05	9.53	-34.0	-44.6	3.8	8.45e-01	0	43	104	0	29	12178
2026-01-13 12:56:21.35	338.15	9.27	-34.0	-44.6	3.8	8.46e-01	0	43	104	0	29	12165
2026-01-13 12:56:24.38	338.24	9.02	-34.0	-44.6	3.8	8.47e-01	0	43	104	0	29	12159
2026-01-13 12:56:27.40	338.33	8.78	-34.0	-44.6	3.8	8.47e-01	0	43	104	0	29	12192
2026-01-13 12:56:30.42	338.43	8.53	-34.0	-44.6	3.8	8.46e-01	0	43	104	0	29	12192
2026-01-13 12:56:33.44	338.52	8.29	-34.0	-44.6	3.8	8.46e-01	0	43	104	0	29	12171
2026-01-13 12:56:36.46	338.61	8.05	-34.0	-44.6	3.8	8.47e-01	0	43	104	0	29	12141
2026-01-13 12:56:39.49	338.69	7.82	-34.0	-44.6	3.8	8.45e-01	0	43	104	0	29	12167
2026-01-13 12:56:42.50	338.78	7.58	-34.0	-44.6	3.8	8.46e-01	0	43	104	0	29	12159
2026-01-13 12:56:45.52	338.87	7.35	-34.0	-44.6	3.8	8.46e-01	0	43	104	0	29	12192
2026-01-13 12:56:48.54	338.95	7.12	-34.0	-44.6	3.8	8.45e-01	0	43	104	0	29	12130

#Closed at: 2026-01-13 12:56:51
#Recorded file [0 MB]: D:/data/31010_260113_154452.dat