passes_logs/2026/01/13/R2M6_AANII_01/R2M6_AANII_01__20260113_012310_NOAA_21_JPSS-2_rec.log

#Pass ID: 20260113_012310_NOAA 21 (JPSS-2)
#Satellite: NOAA 21 (JPSS-2)
#Configuration: NOAA 21
#almurnet v.1.7.20240730
#Start time: 2026-01-13 01:23:14

#Version: 2.2.20231116
#Station: R2M6_AANII_01
#Location: 30.233357 lon 59.946436 lat
#TLE: 1 54234U 22150A   26012.26378519  .00000063  00000+0  50547-4 0  9993
#TLE: 2 54234  98.7495 313.1967 0000726 309.1075  51.0036 14.19534275164425

#Time	Az	El	Level	Level2	SNR	BER	BlckErr	Temp	State	Recorded	gain1	gain2
2026-01-13 01:23:14.82	13.19	7.34	-34.0	-46.2	3.8	1.49e+00	0	42	0	0	27	14809
2026-01-13 01:23:17.83	13.03	7.57	-33.9	-45.7	3.8	1.49e+00	0	42	104	0	28	13988
2026-01-13 01:23:20.84	12.87	7.79	-33.9	-45.6	3.8	1.49e+00	0	42	104	0	28	13923
2026-01-13 01:23:23.86	12.71	8.02	-34.0	-46.3	3.8	1.49e+00	0	42	104	0	27	14851
2026-01-13 01:23:26.87	12.55	8.25	-34.0	-46.3	3.8	1.49e+00	0	42	104	0	27	14828
2026-01-13 01:23:29.90	12.38	8.48	-33.9	-45.7	3.8	1.49e+00	0	42	104	0	28	13972
2026-01-13 01:23:32.92	12.21	8.71	-34.0	-45.9	3.8	1.49e+00	0	42	104	0	28	14105
2026-01-13 01:23:35.94	12.03	8.95	-34.0	-45.8	3.8	1.49e+00	0	42	104	0	28	14109
2026-01-13 01:23:38.94	11.85	9.18	-33.9	-45.7	3.8	1.49e+00	0	42	104	0	28	13982
2026-01-13 01:23:41.97	11.67	9.42	-33.8	-45.5	3.8	1.49e+00	0	42	104	0	28	13766
2026-01-13 01:23:44.99	11.49	9.66	-33.7	-45.7	3.8	1.49e+00	0	42	104	0	27	14324
2026-01-13 01:23:48.01	11.30	9.90	-32.9	-42.8	4.0	1.47e+00	0	42	104	0	25	11310
2026-01-13 01:23:51.02	11.11	10.15	-33.1	-44.8	3.8	1.49e+00	0	42	104	0	26	13744
2026-01-13 01:23:54.04	10.92	10.39	-32.9	-43.0	3.9	1.49e+00	0	42	104	0	26	11428
2026-01-13 01:23:57.07	10.72	10.64	-32.0	-38.0	6.0	3.96e-01	0	42	0	0	24	7131
2026-01-13 01:24:00.09	10.52	10.89	-31.0	-34.9	8.7	4.70e-02	0	42	0	9437184	22	5683
2026-01-13 01:24:03.11	10.32	11.15	-30.3	-33.9	10.0	7.96e-03	0	42	0	18874368	20	5471
2026-01-13 01:24:06.13	10.11	11.40	-30.2	-33.6	10.3	7.36e-03	0	42	0	28311552	20	5336
2026-01-13 01:24:09.13	9.90	11.66	-30.2	-33.7	10.3	1.01e-02	0	42	0	37748736	20	5365
2026-01-13 01:24:12.15	9.68	11.92	-29.8	-32.9	11.2	1.26e-03	0	42	0	47185920	19	5158
2026-01-13 01:24:15.17	9.46	12.18	-29.8	-32.8	11.3	5.63e-03	0	42	0	56623104	19	5125
2026-01-13 01:24:18.20	9.24	12.45	-28.4	-30.9	13.5	4.41e-03	0	42	0	66060288	16	4775
2026-01-13 01:24:21.21	9.01	12.71	-27.4	-29.6	14.7	4.18e-03	0	42	0	74448896	14	4617
2026-01-13 01:24:24.24	8.78	12.99	-27.5	-29.7	14.6	3.73e-03	0	42	0	84934656	14	4659
2026-01-13 01:24:27.25	8.54	13.26	-27.6	-29.5	14.5	4.41e-03	0	42	0	94371840	15	4469
2026-01-13 01:24:30.27	8.30	13.53	-27.5	-29.7	14.6	4.34e-03	0	42	0	102760448	14	4648
2026-01-13 01:24:33.28	8.05	13.81	-27.3	-29.2	15.0	0.00e+00	0	42	0	113246208	14	4491
2026-01-13 01:24:36.30	7.80	14.09	-27.2	-29.1	15.0	4.36e-03	0	42	0	121634816	14	4479
2026-01-13 01:24:39.32	7.54	14.37	-27.1	-28.9	15.1	0.00e+00	0	42	0	132120576	14	4415
2026-01-13 01:24:42.33	7.28	14.66	-27.1	-28.9	15.2	0.00e+00	0	42	0	141557760	14	4393
2026-01-13 01:24:45.35	7.02	14.94	-27.3	-29.3	14.9	0.00e+00	0	42	0	149946368	14	4510
2026-01-13 01:24:48.36	6.74	15.23	-27.3	-29.2	15.0	0.00e+00	0	42	0	159383552	14	4496
2026-01-13 01:24:51.37	6.47	15.53	-27.3	-29.3	14.9	0.00e+00	0	42	0	168820736	14	4539
2026-01-13 01:24:54.39	6.18	15.82	-27.4	-29.5	14.9	0.00e+00	0	42	0	178257920	14	4576
2026-01-13 01:24:57.41	5.89	16.12	-27.4	-29.6	14.8	0.00e+00	0	42	0	187695104	14	4607
2026-01-13 01:25:00.43	5.60	16.43	-27.5	-29.3	14.7	7.00e-07	0	42	0	197132288	15	4403
2026-01-13 01:25:03.45	5.30	16.73	-27.6	-29.4	14.7	7.00e-07	0	42	0	206569472	15	4440
2026-01-13 01:25:06.46	4.99	17.04	-27.5	-29.3	14.8	7.00e-07	0	42	0	216006656	15	4398
2026-01-13 01:25:09.47	4.67	17.35	-27.6	-29.5	14.7	2.20e-04	0	42	0	225443840	15	4457
2026-01-13 01:25:12.49	4.35	17.66	-27.6	-29.5	14.6	0.00e+00	0	42	0	234881024	15	4483
2026-01-13 01:25:15.49	4.02	17.98	-27.6	-29.4	14.7	0.00e+00	0	42	0	244318208	15	4438
2026-01-13 01:25:18.51	3.69	18.30	-27.6	-29.4	14.7	0.00e+00	0	42	0	253755392	15	4445
2026-01-13 01:25:21.53	3.34	18.62	-27.6	-29.5	14.7	0.00e+00	0	42	0	263192576	15	4457
2026-01-13 01:25:24.55	2.99	18.95	-27.3	-29.3	15.1	0.00e+00	0	42	0	272629760	14	4525
2026-01-13 01:25:27.57	2.63	19.28	-27.5	-29.1	14.9	0.00e+00	0	42	0	282066944	15	4351
2026-01-13 01:25:30.60	2.26	19.61	-27.4	-29.0	15.0	0.00e+00	0	42	0	291504128	15	4327
2026-01-13 01:25:33.62	1.89	19.95	-27.3	-29.3	15.2	2.48e-04	0	42	0	300941312	14	4502
2026-01-13 01:25:36.64	1.50	20.29	-27.0	-28.5	15.6	0.00e+00	0	42	0	310378496	14	4284
2026-01-13 01:25:39.66	1.11	20.63	-26.6	-28.2	16.1	1.80e-04	0	42	0	319815680	13	4309
2026-01-13 01:25:42.67	0.71	20.98	-26.3	-28.0	16.4	2.63e-04	0	42	0	329252864	12	4376
2026-01-13 01:25:45.70	0.30	21.33	-26.3	-27.9	16.5	3.00e-04	0	42	0	338690048	12	4341
2026-01-13 01:25:48.72	359.87	21.68	-26.1	-27.5	16.7	0.00e+00	0	42	0	348127232	12	4244
2026-01-13 01:25:51.74	359.44	22.04	-26.2	-27.8	16.6	2.97e-04	0	42	0	357564416	12	4319
2026-01-13 01:25:54.75	359.00	22.40	-26.1	-27.6	16.7	0.00e+00	0	42	0	367001600	12	4270
2026-01-13 01:25:57.77	358.55	22.76	-26.2	-27.8	16.5	0.00e+00	0	42	0	376438784	12	4319
2026-01-13 01:26:00.79	358.09	23.12	-26.4	-27.6	16.4	0.00e+00	0	42	0	385875968	13	4154
2026-01-13 01:26:03.80	357.61	23.49	-26.1	-27.6	16.7	0.00e+00	0	42	0	395313152	12	4260
2026-01-13 01:26:06.82	357.13	23.86	-26.1	-27.4	16.8	3.80e-06	0	42	0	404750336	12	4209
2026-01-13 01:26:09.83	356.63	24.24	-26.2	-27.7	16.6	0.00e+00	0	42	0	414187520	12	4295
2026-01-13 01:26:12.83	356.12	24.61	-26.2	-27.7	16.6	0.00e+00	0	42	0	423624704	12	4292
2026-01-13 01:26:15.84	355.60	24.99	-26.3	-27.9	16.6	0.00e+00	0	42	0	433061888	12	4329
2026-01-13 01:26:18.86	355.07	25.38	-26.4	-28.2	16.4	0.00e+00	0	42	0	442499072	12	4420
2026-01-13 01:26:21.87	354.52	25.76	-26.8	-28.5	16.0	0.00e+00	0	42	0	451936256	13	4386
2026-01-13 01:26:24.89	353.96	26.15	-27.1	-28.8	15.6	0.00e+00	0	42	0	461373440	14	4379
2026-01-13 01:26:27.90	353.38	26.54	-27.2	-28.9	15.5	0.00e+00	0	42	0	470810624	14	4388
2026-01-13 01:26:30.92	352.79	26.93	-27.1	-28.7	15.7	0.00e+00	0	42	0	480247808	14	4323
2026-01-13 01:26:33.93	352.18	27.33	-27.5	-29.2	15.1	0.00e+00	0	42	0	489684992	15	4364
2026-01-13 01:26:36.95	351.56	27.73	-27.5	-29.1	15.1	0.00e+00	0	42	0	499122176	15	4344
2026-01-13 01:26:39.97	350.92	28.13	-27.1	-28.8	15.6	0.00e+00	0	42	0	508559360	14	4365
2026-01-13 01:26:42.98	350.27	28.53	-26.9	-28.2	16.0	0.00e+00	0	42	0	517996544	14	4193
2026-01-13 01:26:45.99	349.60	28.93	-26.9	-28.8	15.9	0.00e+00	0	42	0	527433728	13	4493
2026-01-13 01:26:49.01	348.91	29.33	-26.4	-27.9	15.9	0.00e+00	0	42	0	536870912	14	4251
2026-01-13 01:26:52.03	348.20	29.74	-26.7	-28.3	16.1	0.00e+00	0	42	0	546308096	13	4335
2026-01-13 01:26:55.04	347.48	30.14	-26.8	-28.5	16.0	5.12e-04	0	42	0	555745280	13	4388
2026-01-13 01:26:58.06	346.73	30.55	-26.7	-28.3	16.1	0.00e+00	0	42	0	565182464	13	4342
2026-01-13 01:27:01.08	345.97	30.96	-26.9	-28.7	16.0	8.69e-05	0	42	0	574619648	13	4434
2026-01-13 01:27:04.10	345.19	31.36	-27.2	-29.0	15.5	2.43e-03	0	42	0	584056832	14	4407
2026-01-13 01:27:07.11	344.39	31.77	-27.5	-29.2	15.1	3.11e-03	0	42	0	593494016	15	4367
2026-01-13 01:27:10.14	343.56	32.18	-27.3	-29.1	15.5	3.21e-03	0	42	0	602931200	14	4442
2026-01-13 01:27:13.15	342.72	32.58	-27.5	-29.2	15.2	0.00e+00	0	42	0	612368384	15	4362
2026-01-13 01:27:16.16	341.85	32.98	-27.7	-29.5	15.0	2.95e-03	0	42	0	621805568	15	4446
2026-01-13 01:27:19.19	340.96	33.38	-27.8	-29.9	14.8	0.00e+00	0	42	0	631242752	15	4550
2026-01-13 01:27:22.20	340.05	33.77	-27.9	-29.9	14.7	3.18e-03	0	42	0	640679936	15	4570
2026-01-13 01:27:25.22	339.12	34.17	-28.6	-30.6	14.0	7.00e-07	0	42	0	650117120	17	4553
2026-01-13 01:27:28.23	338.17	34.56	-28.7	-30.9	13.8	2.20e-06	0	42	0	659554304	17	4626
2026-01-13 01:27:31.25	337.19	34.94	-28.8	-31.1	13.7	3.80e-06	0	42	0	668991488	17	4694
2026-01-13 01:27:34.28	336.18	35.32	-28.5	-30.5	14.0	1.50e-06	0	42	0	678428672	17	4503
2026-01-13 01:27:37.29	335.16	35.69	-28.7	-30.9	13.8	1.50e-06	0	42	0	687865856	17	4614
2026-01-13 01:27:40.31	334.11	36.06	-28.5	-30.4	14.1	1.50e-06	0	42	0	697303040	17	4461
2026-01-13 01:27:43.32	333.04	36.42	-28.2	-30.3	14.5	0.00e+00	0	42	0	706740224	16	4544
2026-01-13 01:27:46.34	331.94	36.77	-28.5	-30.5	14.1	6.10e-06	0	42	0	716177408	17	4494
2026-01-13 01:27:49.36	330.82	37.12	-28.5	-30.4	14.1	7.00e-07	0	42	0	725614592	17	4481
2026-01-13 01:27:52.38	329.68	37.45	-28.3	-30.4	14.4	0.00e+00	0	42	0	735051776	16	4582
2026-01-13 01:27:55.40	328.51	37.78	-28.0	-29.8	14.7	1.50e-06	0	42	0	744488960	16	4398
2026-01-13 01:27:58.42	327.31	38.09	-28.4	-30.7	14.2	3.00e-06	0	42	0	753926144	16	4670
2026-01-13 01:28:01.43	326.10	38.39	-28.6	-30.7	14.0	2.20e-06	0	42	0	763363328	17	4568
2026-01-13 01:28:04.46	324.86	38.68	-28.5	-30.4	14.1	7.00e-07	0	42	0	772800512	17	4461
2026-01-13 01:28:07.48	323.60	38.96	-28.8	-31.2	12.1	5.30e-06	0	42	0	782237696	17	4717
2026-01-13 01:28:10.50	322.32	39.22	-29.0	-31.6	13.2	9.10e-06	0	42	0	791674880	17	4842
2026-01-13 01:28:13.52	321.02	39.47	-29.0	-31.2	13.4	1.98e-05	0	42	0	801112064	18	4612
2026-01-13 01:28:16.54	319.70	39.70	-28.7	-30.8	13.9	5.30e-06	0	42	0	810549248	17	4585
2026-01-13 01:28:19.56	318.36	39.92	-28.8	-31.0	13.7	1.46e-03	0	42	0	819986432	17	4667
2026-01-13 01:28:22.57	317.00	40.12	-29.2	-31.6	13.2	1.48e-03	0	42	0	829423616	18	4725
2026-01-13 01:28:25.59	315.63	40.30	-29.0	-31.0	13.5	1.53e-03	0	42	0	838860800	18	4550
2026-01-13 01:28:28.61	314.24	40.46	-28.8	-31.0	13.7	3.03e-03	0	42	0	848297984	17	4662
2026-01-13 01:28:31.62	312.84	40.61	-28.6	-30.6	14.0	4.08e-03	0	42	0	857735168	17	4540
2026-01-13 01:28:34.64	311.43	40.73	-28.4	-30.7	14.2	3.71e-03	0	42	0	867172352	16	4685
2026-01-13 01:28:37.66	310.01	40.84	-28.8	-31.2	13.6	4.43e-03	0	42	0	876609536	17	4721
2026-01-13 01:28:40.69	308.57	40.93	-29.2	-31.6	13.1	2.28e-05	0	42	0	886046720	18	4747
2026-01-13 01:28:43.70	307.13	40.99	-29.4	-32.1	12.8	2.77e-04	0	42	0	895483904	18	4909
2026-01-13 01:28:46.72	305.69	41.04	-29.5	-31.9	12.7	7.78e-05	0	42	0	904921088	19	4715
2026-01-13 01:28:49.72	304.25	41.07	-29.7	-32.4	12.2	1.91e-04	0	42	0	914358272	19	4912
2026-01-13 01:28:52.74	302.80	41.07	-29.7	-32.3	12.4	1.78e-04	0	42	0	923795456	19	4879
2026-01-13 01:28:55.76	301.35	41.05	-29.6	-32.1	12.5	1.13e-04	0	42	0	933232640	19	4786
2026-01-13 01:28:58.78	299.90	41.02	-29.4	-32.1	12.8	5.72e-05	0	42	0	942669824	18	4928
2026-01-13 01:29:01.80	298.46	40.96	-29.2	-31.5	13.2	2.28e-05	0	42	0	952107008	18	4715
2026-01-13 01:29:04.82	297.02	40.88	-29.9	-32.8	12.0	2.89e-04	0	42	0	961544192	19	5038
2026-01-13 01:29:07.82	295.60	40.79	-29.4	-32.0	12.8	6.63e-05	0	42	0	970981376	18	4883
2026-01-13 01:29:10.84	294.18	40.67	-29.3	-31.7	13.0	2.82e-05	0	42	0	980418560	18	4790
2026-01-13 01:29:13.86	292.77	40.53	-29.2	-31.5	13.2	3.35e-05	0	42	0	989855744	18	4696
2026-01-13 01:29:16.87	291.38	40.38	-28.7	-30.7	13.9	7.60e-06	0	42	0	999292928	17	4576
2026-01-13 01:29:19.87	290.01	40.20	-29.6	-32.1	12.5	9.76e-05	0	42	0	1008730112	19	4811
2026-01-13 01:29:22.89	288.64	40.01	-29.0	-31.0	13.4	2.21e-05	0	42	0	1018167296	18	4537
2026-01-13 01:29:25.91	287.29	39.80	-28.9	-31.2	13.6	4.50e-06	0	42	0	1027604480	17	4735
2026-01-13 01:29:28.93	285.96	39.58	-29.7	-32.5	12.3	2.26e-04	0	42	0	1037041664	19	4924
2026-01-13 01:29:31.95	284.65	39.34	-29.3	-31.3	12.9	6.40e-05	0	42	0	1046478848	19	4556
2026-01-13 01:29:34.97	283.35	39.08	-28.9	-31.4	13.5	6.80e-06	0	42	0	1055916032	17	4779
2026-01-13 01:29:37.98	282.08	38.81	-29.7	-32.4	12.2	1.84e-04	0	42	0	1065353216	19	4893
2026-01-13 01:29:40.99	280.84	38.53	-28.2	-29.6	14.5	2.26e-04	0	42	0	1074790400	17	4256
2026-01-13 01:29:44.00	279.61	38.23	-28.3	-30.5	14.3	1.50e-06	0	42	0	1084227584	16	4610
2026-01-13 01:29:47.01	278.41	37.92	-28.2	-30.2	14.4	1.50e-06	0	42	0	1092616192	16	4531
2026-01-13 01:29:50.02	277.23	37.60	-28.5	-30.8	14.0	7.00e-07	0	42	0	1103101952	16	4727
2026-01-13 01:29:53.04	276.07	37.27	-29.5	-32.0	12.5	1.30e-04	0	42	0	1111490560	19	4762
2026-01-13 01:29:56.06	274.93	36.93	-27.5	-28.7	15.2	0.00e+00	0	42	0	1120927744	16	4105
2026-01-13 01:29:59.08	273.82	36.58	-28.3	-30.5	14.2	7.00e-07	0	42	0	1131413504	16	4636
2026-01-13 01:30:02.10	272.73	36.23	-29.7	-32.4	12.2	2.33e-04	0	42	0	1139802112	19	4909
2026-01-13 01:30:05.12	271.67	35.86	-28.2	-29.7	14.4	0.00e+00	0	42	0	1150287872	17	4268
2026-01-13 01:30:08.14	270.63	35.49	-28.7	-30.9	13.7	3.00e-06	0	42	0	1158676480	17	4625
2026-01-13 01:30:11.17	269.61	35.11	-29.0	-31.1	13.3	2.24e-04	0	42	0	1168113664	18	4591
2026-01-13 01:30:14.18	268.62	34.73	-27.8	-29.3	14.9	2.94e-04	0	42	0	1178599424	16	4292
2026-01-13 01:30:17.20	267.65	34.34	-29.1	-31.3	13.2	6.61e-04	0	42	0	1186988032	18	4660
2026-01-13 01:30:20.22	266.70	33.95	-28.0	-29.8	14.6	6.32e-04	0	42	0	1197473792	16	4425
2026-01-13 01:30:23.25	265.77	33.55	-27.3	-29.2	15.3	2.79e-04	0	42	0	1205862400	14	4483
2026-01-13 01:30:26.26	264.87	33.15	-28.3	-30.4	14.2	3.00e-06	0	42	0	1215299584	16	4617
2026-01-13 01:30:29.28	263.99	32.75	-28.0	-29.7	14.7	0.00e+00	0	42	0	1225785344	16	4392
2026-01-13 01:30:32.30	263.13	32.34	-27.6	-29.3	15.0	6.03e-04	0	42	0	1234173952	15	4384
2026-01-13 01:30:35.31	262.30	31.94	-27.6	-29.4	14.9	7.00e-07	0	42	0	1243611136	15	4437
2026-01-13 01:30:38.33	261.48	31.53	-28.2	-30.2	14.4	2.58e-03	0	42	0	1253048320	16	4533
2026-01-13 01:30:41.36	260.69	31.12	-26.9	-28.3	15.7	0.00e+00	0	42	0	1262485504	14	4239
2026-01-13 01:30:44.37	259.91	30.71	-27.3	-29.2	15.3	0.00e+00	0	42	0	1272971264	14	4493
2026-01-13 01:30:47.38	259.16	30.31	-27.3	-29.1	15.3	0.00e+00	0	42	0	1281359872	14	4463
2026-01-13 01:30:50.41	258.42	29.90	-27.2	-29.0	15.4	0.00e+00	0	42	0	1290797056	14	4422
2026-01-13 01:30:53.42	257.70	29.49	-27.0	-28.9	13.8	8.30e-06	0	42	0	1300234240	13	4518
2026-01-13 01:30:56.45	257.00	29.08	-27.2	-28.9	15.4	0.00e+00	0	42	0	1309671424	14	4392
2026-01-13 01:30:59.47	256.32	28.68	-27.1	-28.7	15.6	6.80e-06	0	42	0	1319108608	14	4324
2026-01-13 01:31:02.49	255.65	28.27	-26.4	-28.1	16.4	8.30e-06	0	42	0	1328545792	12	4399
2026-01-13 01:31:05.50	255.00	27.87	-26.6	-28.2	16.0	2.96e-03	0	42	0	1337982976	13	4322
2026-01-13 01:31:08.52	254.37	27.47	-27.0	-28.5	15.5	5.30e-06	0	42	0	1347420160	14	4290
2026-01-13 01:31:11.54	253.75	27.07	-26.7	-28.3	15.9	2.61e-03	0	42	0	1356857344	13	4343
2026-01-13 01:31:14.56	253.15	26.68	-26.2	-27.7	16.6	2.04e-04	0	42	0	1366294528	12	4275
2026-01-13 01:31:17.58	252.56	26.28	-26.5	-28.0	16.1	3.55e-03	0	42	0	1375731712	13	4260
2026-01-13 01:31:20.59	251.99	25.89	-27.2	-29.1	15.2	0.00e+00	0	42	0	1385168896	14	4451
2026-01-13 01:31:23.60	251.44	25.50	-26.8	-28.7	15.6	2.30e-03	0	42	0	1394606080	13	4453
2026-01-13 01:31:26.61	250.89	25.12	-26.7	-28.5	15.8	1.83e-05	0	42	0	1404043264	13	4405
2026-01-13 01:31:29.63	250.36	24.73	-26.9	-28.9	15.5	0.00e+00	0	42	0	1413480448	13	4536
2026-01-13 01:31:32.65	249.84	24.35	-26.6	-28.3	15.9	4.47e-03	0	42	0	1422917632	13	4337
2026-01-13 01:31:35.61	249.35	23.98	-26.5	-28.4	16.1	0.00e+00	0	42	0	1432354816	12	4485
2026-01-13 01:31:38.75	248.83	23.59	-26.5	-28.0	16.0	0.00e+00	0	42	0	1441792000	13	4272
2026-01-13 01:31:41.63	248.37	23.24	-26.5	-27.9	16.1	5.34e-03	0	42	0	1451229184	13	4237
2026-01-13 01:31:44.79	247.88	22.85	-26.4	-28.2	16.1	0.00e+00	0	42	0	1460666368	12	4436
2026-01-13 01:31:47.68	247.44	22.50	-26.8	-28.6	15.6	0.00e+00	0	42	0	1470103552	13	4434
2026-01-13 01:31:50.84	246.97	22.12	-27.0	-28.6	15.4	0.00e+00	0	42	0	1479540736	14	4331
2026-01-13 01:31:53.71	246.55	21.78	-26.7	-28.5	15.6	0.00e+00	0	42	0	1488977920	13	4413
2026-01-13 01:31:56.88	246.10	21.41	-27.4	-29.5	14.9	0.00e+00	0	42	0	1498415104	14	4578
2026-01-13 01:31:59.74	245.71	21.08	-27.1	-28.8	15.2	0.00e+00	0	42	0	1507852288	14	4371
2026-01-13 01:32:02.91	245.28	20.71	-27.0	-28.6	15.3	0.00e+00	0	42	0	1517289472	14	4326
2026-01-13 01:32:05.79	244.90	20.38	-26.9	-28.8	15.5	0.00e+00	0	42	0	1526726656	13	4505
2026-01-13 01:32:08.95	244.49	20.02	-27.0	-29.1	15.3	0.00e+00	0	42	0	1536163840	13	4578
2026-01-13 01:32:11.83	244.12	19.70	-27.0	-28.7	15.2	0.00e+00	0	42	0	1545601024	14	4356
2026-01-13 01:32:14.99	243.73	19.35	-27.3	-29.3	14.9	7.00e-07	0	42	0	1555038208	14	4528
2026-01-13 01:32:17.86	243.38	19.03	-27.2	-29.1	15.0	0.00e+00	0	42	0	1564475392	14	4461
2026-01-13 01:32:21.03	243.01	18.68	-27.1	-28.9	15.1	2.06e-04	0	42	0	1573912576	14	4424
2026-01-13 01:32:23.89	242.68	18.37	-27.1	-28.9	15.1	0.00e+00	0	42	0	1583349760	14	4419
2026-01-13 01:32:27.06	242.32	18.03	-27.4	-29.6	14.7	1.66e-03	0	42	0	1592786944	14	4611
2026-01-13 01:32:29.94	242.00	17.73	-27.4	-29.7	14.6	0.00e+00	0	42	0	1602224128	14	4644
2026-01-13 01:32:33.10	241.66	17.40	-27.5	-29.2	14.6	3.85e-03	0	42	0	1611661312	15	4411
2026-01-13 01:32:35.97	241.35	17.10	-27.1	-28.9	15.0	2.42e-03	0	42	0	1621098496	14	4430
2026-01-13 01:32:39.14	241.02	16.77	-27.3	-29.2	14.8	4.56e-03	0	42	0	1630535680	14	4520
2026-01-13 01:32:42.01	240.73	16.48	-27.6	-29.5	14.3	5.40e-03	0	42	0	1639972864	15	4480
2026-01-13 01:32:45.17	240.41	16.16	-27.5	-29.4	14.3	2.20e-06	0	42	0	1649410048	15	4473
2026-01-13 01:32:48.04	240.13	15.87	-27.6	-29.5	14.3	6.20e-03	0	42	0	1658847232	15	4480
2026-01-13 01:32:51.20	239.83	15.56	-27.5	-29.8	14.4	0.00e+00	0	42	0	1668284416	14	4689
2026-01-13 01:32:54.07	239.56	15.28	-27.6	-29.4	14.2	4.18e-03	0	42	0	1677721600	15	4474
2026-01-13 01:32:57.22	239.27	14.97	-27.2	-29.1	14.8	7.00e-07	0	42	0	1687158784	14	4469
2026-01-13 01:33:00.10	239.01	14.70	-27.1	-28.9	14.8	0.00e+00	0	42	0	1696595968	14	4437
2026-01-13 01:33:03.26	238.73	14.40	-27.1	-29.0	14.8	0.00e+00	0	42	0	1706033152	14	4454
2026-01-13 01:33:06.13	238.49	14.13	-27.2	-29.2	14.6	0.00e+00	0	42	0	1715470336	14	4529
2026-01-13 01:33:09.29	238.22	13.83	-27.3	-29.4	14.5	7.00e-07	0	42	0	1724907520	14	4593
2026-01-13 01:33:12.17	237.98	13.56	-27.5	-29.4	14.2	0.00e+00	0	42	0	1734344704	15	4463
2026-01-13 01:33:15.33	237.72	13.27	-27.6	-29.6	14.1	1.50e-06	0	42	0	1743781888	15	4539
2026-01-13 01:33:18.21	237.49	13.01	-27.6	-29.5	14.1	2.20e-06	0	42	0	1753219072	15	4513
2026-01-13 01:33:21.37	237.24	12.73	-27.5	-29.5	14.1	3.00e-06	0	42	0	1762656256	15	4492
2026-01-13 01:33:24.24	237.02	12.47	-27.5	-29.8	14.2	2.20e-06	0	42	0	1772093440	14	4712
2026-01-13 01:33:27.41	236.78	12.19	-27.5	-29.9	14.1	7.00e-07	0	42	0	1781530624	14	4734
2026-01-13 01:33:30.28	236.57	11.94	-27.5	-29.3	14.2	7.00e-07	0	42	0	1790967808	15	4448
2026-01-13 01:33:33.44	236.34	11.67	-27.7	-29.8	13.8	3.80e-06	0	42	0	1800404992	15	4612
2026-01-13 01:33:36.31	236.13	11.42	-27.5	-29.5	14.1	3.00e-06	0	42	0	1809842176	15	4500
2026-01-13 01:33:39.47	235.91	11.15	-27.6	-29.6	13.9	3.80e-06	0	42	0	1819279360	15	4540
2026-01-13 01:33:42.34	235.71	10.91	-27.9	-30.3	13.6	9.10e-06	0	42	0	1828716544	15	4749
2026-01-13 01:33:45.50	235.50	10.64	-28.2	-30.5	13.3	1.67e-05	0	42	0	1838153728	16	4688
2026-01-13 01:33:48.37	235.30	10.41	-28.3	-30.8	13.1	3.43e-05	0	42	0	1847590912	16	4796
2026-01-13 01:33:51.54	235.10	10.14	-28.2	-30.5	13.2	3.57e-04	0	42	0	1857028096	16	4705
2026-01-13 01:33:54.42	234.91	9.91	-28.2	-30.6	13.1	2.49e-04	0	42	0	1866465280	16	4750
2026-01-13 01:33:57.59	234.71	9.65	-28.3	-30.9	12.9	6.00e-04	0	42	0	1875902464	16	4828
2026-01-13 01:34:00.46	234.53	9.42	-28.5	-31.2	12.7	5.41e-05	0	42	0	1885339648	16	4949
2026-01-13 01:34:03.63	234.34	9.17	-28.4	-31.0	12.8	5.89e-04	0	42	0	1894776832	16	4862
2026-01-13 01:34:06.50	234.17	8.95	-28.5	-30.9	12.6	4.94e-04	0	42	0	1904214016	17	4729
2026-01-13 01:34:09.66	233.98	8.70	-28.6	-31.2	12.3	5.82e-04	0	42	0	1913651200	17	4833
2026-01-13 01:34:12.53	233.81	8.48	-28.8	-31.6	12.0	7.34e-04	0	42	0	1923088384	17	4971
2026-01-13 01:34:15.70	233.63	8.23	-28.9	-31.9	11.8	4.16e-04	0	42	0	1932525568	17	5074
2026-01-13 01:34:18.57	233.47	8.01	-29.1	-31.8	11.5	1.26e-03	0	42	0	1941962752	18	4957
2026-01-13 01:34:21.73	233.30	7.77	-28.9	-31.4	11.8	5.68e-04	0	42	0	1951399936	18	4803
2026-01-13 01:34:24.60	233.14	7.56	-29.0	-32.2	11.6	5.91e-04	0	42	0	1960837120	17	5195
2026-01-13 01:34:27.77	232.97	7.32	-29.0	-31.8	11.5	7.73e-04	0	42	0	1970274304	18	4961
2026-01-13 01:34:30.65	232.82	7.11	-28.9	-31.6	11.6	8.13e-04	0	42	0	1979711488	18	4866
2026-01-13 01:34:33.82	232.66	6.88	-33.3	-45.5	3.8	1.49e+00	0	42	104	1981808640	26	14624

#Closed at: 2026-01-13 01:34:34
#Recorded file [1981 MB]: D:/data/31010_260113_042356.dat