passes_logs/2026/01/13/R2M6_AANII_01/R2M6_AANII_01__20260113_111617_NOAA_21_JPSS-2_rec.log

#Pass ID: 20260113_111617_NOAA 21 (JPSS-2)
#Satellite: NOAA 21 (JPSS-2)
#Configuration: NOAA 21
#almurnet v.1.7.20240730
#Start time: 2026-01-13 11:16:30

#Version: 2.2.20231116
#Station: R2M6_AANII_01
#Location: 30.233357 lon 59.946436 lat
#TLE: 1 54234U 22150A   26012.26378519  .00000063  00000+0  50547-4 0  9993
#TLE: 2 54234  98.7495 313.1967 0000726 309.1075  51.0036 14.19534275164425

#Time	Az	El	Level	Level2	SNR	BER	BlckErr	Temp	State	Recorded	gain1	gain2
2026-01-13 11:16:30.76	191.20	7.96	-34.0	-44.6	3.8	8.46e-01	0	42	0	0	29	12186
2026-01-13 11:16:33.78	191.39	8.19	-34.0	-45.4	3.8	1.49e+00	0	42	104	0	29	13355
2026-01-13 11:16:36.80	191.58	8.42	-34.0	-45.4	3.8	1.49e+00	0	42	104	0	29	13346
2026-01-13 11:16:39.83	191.78	8.65	-34.0	-45.4	3.8	1.49e+00	0	42	104	0	29	13354
2026-01-13 11:16:42.84	191.97	8.88	-34.0	-45.4	3.8	1.49e+00	0	42	104	0	29	13311
2026-01-13 11:16:45.87	192.17	9.12	-34.0	-45.4	3.8	1.49e+00	0	43	104	0	29	13301
2026-01-13 11:16:48.90	192.38	9.35	-34.0	-45.4	3.8	1.49e+00	0	42	104	0	29	13328
2026-01-13 11:16:51.91	192.58	9.59	-34.0	-45.4	3.8	1.49e+00	0	42	104	0	29	13322
2026-01-13 11:16:54.92	192.79	9.83	-34.0	-45.4	3.8	1.49e+00	0	43	104	0	29	13335
2026-01-13 11:16:57.94	193.00	10.07	-34.0	-45.4	3.8	1.49e+00	0	42	104	0	29	13323
2026-01-13 11:17:00.95	193.22	10.32	-34.0	-45.4	3.8	1.49e+00	0	43	104	0	29	13321
2026-01-13 11:17:03.96	193.43	10.56	-34.0	-45.4	3.8	1.49e+00	0	42	104	0	29	13339
2026-01-13 11:17:06.98	193.66	10.81	-34.0	-45.4	3.8	1.49e+00	0	43	104	0	29	13345
2026-01-13 11:17:10.00	193.88	11.06	-34.0	-45.4	3.8	1.49e+00	0	43	104	0	29	13381
2026-01-13 11:17:13.02	194.11	11.32	-34.0	-45.4	3.8	1.49e+00	0	43	104	0	29	13369
2026-01-13 11:17:16.04	194.35	11.57	-34.0	-45.4	3.8	1.49e+00	0	43	104	0	29	13294
2026-01-13 11:17:19.06	194.59	11.83	-34.0	-45.4	3.8	1.49e+00	0	43	104	0	29	13306
2026-01-13 11:17:22.08	194.83	12.09	-34.0	-45.4	3.8	1.49e+00	0	42	104	0	29	13354
2026-01-13 11:17:25.10	195.07	12.35	-34.0	-45.4	3.8	1.49e+00	0	43	104	0	29	13382
2026-01-13 11:17:28.12	195.32	12.61	-34.0	-45.4	3.8	1.49e+00	0	43	104	0	29	13345
2026-01-13 11:17:31.13	195.58	12.88	-34.0	-45.4	3.8	1.49e+00	0	43	104	0	29	13327
2026-01-13 11:17:34.16	195.84	13.15	-34.0	-45.4	3.8	1.49e+00	0	42	104	0	29	13364
2026-01-13 11:17:37.19	196.10	13.42	-34.0	-45.4	3.8	1.49e+00	0	43	104	0	29	13335
2026-01-13 11:17:40.21	196.37	13.70	-34.0	-45.5	3.8	1.49e+00	0	43	104	0	29	13395
2026-01-13 11:17:43.23	196.64	13.98	-34.0	-45.4	3.8	1.49e+00	0	43	104	0	29	13326
2026-01-13 11:17:46.25	196.92	14.26	-34.0	-45.4	3.8	1.49e+00	0	43	104	0	29	13333
2026-01-13 11:17:49.26	197.20	14.54	-34.0	-45.4	3.8	1.49e+00	0	42	104	0	29	13391
2026-01-13 11:17:52.28	197.49	14.82	-34.0	-45.4	3.8	1.49e+00	0	43	104	0	29	13380
2026-01-13 11:17:55.28	197.78	15.11	-34.0	-45.4	3.8	1.49e+00	0	43	104	0	29	13371
2026-01-13 11:17:58.29	198.08	15.40	-34.0	-45.4	3.8	1.49e+00	0	42	104	0	29	13329
2026-01-13 11:18:01.31	198.39	15.69	-34.0	-45.4	3.8	1.49e+00	0	42	104	0	29	13368
2026-01-13 11:18:04.34	198.70	15.99	-34.0	-45.4	3.8	1.49e+00	0	43	104	0	29	13346
2026-01-13 11:18:07.35	199.01	16.28	-34.0	-45.4	3.8	1.49e+00	0	43	104	0	29	13375
2026-01-13 11:18:10.38	199.34	16.59	-34.0	-45.4	3.8	1.49e+00	0	43	104	0	29	13347
2026-01-13 11:18:13.40	199.67	16.89	-34.0	-45.4	3.8	1.49e+00	0	43	104	0	29	13346
2026-01-13 11:18:16.41	200.00	17.20	-34.0	-45.4	3.8	1.49e+00	0	43	104	0	29	13294
2026-01-13 11:18:19.42	200.34	17.51	-34.0	-45.4	3.8	1.49e+00	0	43	104	0	29	13330
2026-01-13 11:18:22.44	200.69	17.82	-34.0	-45.4	3.8	1.49e+00	0	43	104	0	29	13380
2026-01-13 11:18:25.46	201.05	18.14	-34.0	-45.4	3.8	1.49e+00	0	43	104	0	29	13338
2026-01-13 11:18:28.48	201.41	18.46	-34.0	-45.4	3.8	1.49e+00	0	43	104	0	29	13350
2026-01-13 11:18:31.50	201.78	18.78	-34.0	-45.4	3.8	1.49e+00	0	43	104	0	29	13301
2026-01-13 11:18:34.53	202.16	19.11	-34.0	-45.4	3.8	1.49e+00	0	43	104	0	29	13286
2026-01-13 11:18:37.55	202.55	19.44	-34.0	-45.4	3.8	1.49e+00	0	42	104	0	29	13319
2026-01-13 11:18:40.57	202.95	19.77	-34.0	-45.4	3.8	1.49e+00	0	43	104	0	29	13296
2026-01-13 11:18:43.59	203.35	20.10	-34.0	-45.4	3.8	1.49e+00	0	42	104	0	29	13327
2026-01-13 11:18:46.61	203.76	20.44	-34.0	-45.4	3.8	1.49e+00	0	43	104	0	29	13339
2026-01-13 11:18:49.62	204.18	20.78	-34.0	-45.4	3.8	1.49e+00	0	43	104	0	29	13369
2026-01-13 11:18:52.64	204.61	21.12	-34.0	-45.4	3.8	1.49e+00	0	42	104	0	29	13331
2026-01-13 11:18:55.66	205.05	21.47	-34.0	-45.4	3.8	1.49e+00	0	43	104	0	29	13320
2026-01-13 11:18:58.68	205.50	21.82	-34.0	-45.4	3.8	1.49e+00	0	43	104	0	29	13325
2026-01-13 11:19:01.69	205.96	22.17	-34.0	-45.4	3.8	1.49e+00	0	43	104	0	29	13326
2026-01-13 11:19:04.70	206.42	22.53	-34.0	-45.4	3.8	1.49e+00	0	43	104	0	29	13343
2026-01-13 11:19:07.72	206.90	22.89	-34.0	-45.4	3.8	1.49e+00	0	42	104	0	29	13313
2026-01-13 11:19:10.73	207.39	23.25	-34.0	-45.4	3.8	1.49e+00	0	43	104	0	29	13313
2026-01-13 11:19:13.75	207.90	23.62	-34.0	-45.4	3.8	1.49e+00	0	43	104	0	29	13321
2026-01-13 11:19:16.77	208.41	23.99	-34.0	-45.4	3.8	1.49e+00	0	43	104	0	29	13312
2026-01-13 11:19:19.79	208.93	24.36	-34.0	-45.4	3.8	1.49e+00	0	43	104	0	29	13300
2026-01-13 11:19:22.81	209.47	24.73	-34.0	-45.4	3.8	1.49e+00	0	42	104	0	29	13321
2026-01-13 11:19:25.82	210.02	25.11	-34.0	-45.4	3.8	1.49e+00	0	43	104	0	29	13400
2026-01-13 11:19:28.85	210.59	25.49	-34.0	-45.4	3.8	1.49e+00	0	43	104	0	29	13317
2026-01-13 11:19:31.86	211.16	25.87	-34.0	-45.4	3.8	1.49e+00	0	42	104	0	29	13361
2026-01-13 11:19:34.88	211.75	26.25	-34.0	-45.4	3.8	1.49e+00	0	43	104	0	29	13329
2026-01-13 11:19:37.88	212.35	26.64	-34.0	-45.4	3.8	1.49e+00	0	43	104	0	29	13290
2026-01-13 11:19:40.90	212.97	27.03	-34.0	-45.4	3.8	1.49e+00	0	43	104	0	29	13283
2026-01-13 11:19:43.91	213.60	27.42	-34.0	-45.4	3.8	1.49e+00	0	43	104	0	29	13344
2026-01-13 11:19:46.94	214.26	27.81	-34.0	-45.4	3.8	1.49e+00	0	43	104	0	29	13296
2026-01-13 11:19:49.96	214.92	28.21	-34.0	-45.4	3.8	1.49e+00	0	43	104	0	29	13343
2026-01-13 11:19:52.98	215.60	28.60	-34.0	-45.4	3.8	1.49e+00	0	42	104	0	29	13343
2026-01-13 11:19:56.00	216.30	29.00	-34.0	-45.4	3.8	1.49e+00	0	43	104	0	29	13295
2026-01-13 11:19:59.02	217.02	29.40	-34.0	-45.4	3.8	1.49e+00	0	43	104	0	29	13291
2026-01-13 11:20:02.03	217.75	29.80	-34.0	-45.4	3.8	1.49e+00	0	42	104	0	29	13287
2026-01-13 11:20:05.04	218.49	30.19	-34.0	-45.3	3.8	1.49e+00	0	42	104	0	29	13272
2026-01-13 11:20:08.06	219.26	30.59	-34.0	-45.4	3.8	1.49e+00	0	42	104	0	29	13339
2026-01-13 11:20:11.08	220.05	30.99	-34.0	-45.4	3.8	1.49e+00	0	43	104	0	29	13320
2026-01-13 11:20:14.10	220.86	31.39	-34.0	-45.4	3.8	1.49e+00	0	43	104	0	29	13326
2026-01-13 11:20:17.12	221.69	31.79	-34.0	-45.4	3.8	1.49e+00	0	43	104	0	29	13387
2026-01-13 11:20:20.14	222.53	32.19	-34.0	-45.4	3.8	1.49e+00	0	43	104	0	29	13319
2026-01-13 11:20:23.16	223.40	32.58	-34.0	-45.4	3.8	1.49e+00	0	43	104	0	29	13320
2026-01-13 11:20:26.19	224.29	32.97	-34.0	-45.4	3.8	1.49e+00	0	43	104	0	29	13322
2026-01-13 11:20:29.21	225.20	33.37	-34.0	-45.4	3.8	1.49e+00	0	42	104	0	29	13290
2026-01-13 11:20:32.22	226.13	33.75	-34.0	-45.4	3.8	1.49e+00	0	43	104	0	29	13337
2026-01-13 11:20:35.25	227.09	34.14	-34.0	-45.4	3.8	1.49e+00	0	42	104	0	29	13311
2026-01-13 11:20:38.28	228.06	34.52	-34.0	-45.4	3.8	1.49e+00	0	43	104	0	29	13300
2026-01-13 11:20:41.30	229.06	34.89	-34.0	-45.4	3.8	1.49e+00	0	43	104	0	29	13291
2026-01-13 11:20:44.32	230.08	35.26	-34.0	-45.4	3.8	1.49e+00	0	43	104	0	29	13290
2026-01-13 11:20:47.33	231.12	35.62	-34.0	-45.4	3.8	1.49e+00	0	43	104	0	29	13295
2026-01-13 11:20:50.36	232.19	35.98	-34.0	-45.4	3.8	1.49e+00	0	43	104	0	29	13332
2026-01-13 11:20:53.37	233.28	36.33	-34.0	-45.3	3.8	1.49e+00	0	43	104	0	29	13275
2026-01-13 11:20:56.40	234.39	36.67	-34.0	-45.4	3.8	1.49e+00	0	42	104	0	29	13345
2026-01-13 11:20:59.40	235.52	37.00	-34.0	-45.3	3.8	1.49e+00	0	43	104	0	29	13244
2026-01-13 11:21:02.42	236.68	37.33	-34.0	-45.4	3.8	1.49e+00	0	43	104	0	29	13343
2026-01-13 11:21:05.45	237.86	37.64	-34.0	-45.4	3.8	1.49e+00	0	43	104	0	29	13348
2026-01-13 11:21:08.47	239.06	37.94	-34.0	-45.4	3.8	1.49e+00	0	43	104	0	29	13294
2026-01-13 11:21:11.49	240.29	38.23	-34.0	-45.4	3.8	1.49e+00	0	43	104	0	29	13317
2026-01-13 11:21:14.51	241.53	38.51	-34.0	-45.4	3.8	1.49e+00	0	43	104	0	29	13300
2026-01-13 11:21:17.52	242.79	38.78	-34.0	-45.4	3.8	1.49e+00	0	43	104	0	29	13287
2026-01-13 11:21:20.54	244.08	39.03	-34.0	-45.4	3.8	1.49e+00	0	43	104	0	29	13288
2026-01-13 11:21:23.56	245.38	39.27	-34.0	-45.4	3.8	1.49e+00	0	43	104	0	29	13300
2026-01-13 11:21:26.58	246.70	39.49	-34.0	-45.3	3.8	1.49e+00	0	43	104	0	29	13241
2026-01-13 11:21:29.60	248.04	39.70	-34.0	-45.4	3.8	1.49e+00	0	43	104	0	29	13297
2026-01-13 11:21:32.61	249.40	39.89	-34.0	-45.3	3.8	1.49e+00	0	43	104	0	29	13247
2026-01-13 11:21:35.64	250.77	40.06	-34.0	-45.4	3.8	1.49e+00	0	43	104	0	29	13283
2026-01-13 11:21:38.66	252.16	40.22	-34.0	-45.4	3.8	1.49e+00	0	43	104	0	29	13320
2026-01-13 11:21:41.67	253.55	40.36	-34.0	-45.4	3.8	1.49e+00	0	43	104	0	29	13307
2026-01-13 11:21:44.70	254.96	40.48	-34.0	-45.3	3.8	1.49e+00	0	43	104	0	29	13273
2026-01-13 11:21:47.71	256.38	40.58	-34.0	-45.4	3.8	1.49e+00	0	42	104	0	29	13298
2026-01-13 11:21:50.74	257.81	40.66	-34.0	-45.4	3.8	1.49e+00	0	43	104	0	29	13300
2026-01-13 11:21:53.76	259.24	40.72	-34.0	-45.4	3.8	1.49e+00	0	43	104	0	29	13289
2026-01-13 11:21:56.78	260.67	40.76	-34.0	-45.4	3.8	1.49e+00	0	43	104	0	29	13319
2026-01-13 11:21:59.81	262.12	40.79	-34.0	-45.4	3.8	1.49e+00	0	43	104	0	29	13294
2026-01-13 11:22:02.84	263.56	40.79	-34.0	-45.4	3.8	1.49e+00	0	43	104	0	29	13287
2026-01-13 11:22:05.86	265.00	40.77	-34.0	-45.4	3.8	1.49e+00	0	43	104	0	29	13308
2026-01-13 11:22:08.88	266.44	40.74	-34.0	-45.4	3.8	1.49e+00	0	43	104	0	29	13301
2026-01-13 11:22:11.91	267.88	40.68	-34.0	-45.4	3.8	1.49e+00	0	43	104	0	29	13293
2026-01-13 11:22:14.93	269.30	40.60	-34.0	-45.4	3.8	1.49e+00	0	43	104	0	29	13301
2026-01-13 11:22:17.95	270.72	40.51	-34.0	-45.4	3.8	1.49e+00	0	43	104	0	29	13316
2026-01-13 11:22:20.98	272.14	40.39	-34.0	-45.4	3.8	1.49e+00	0	43	104	0	29	13292
2026-01-13 11:22:24.00	273.53	40.26	-34.0	-45.4	3.8	1.49e+00	0	43	104	0	29	13323
2026-01-13 11:22:27.02	274.92	40.11	-34.0	-45.3	3.8	1.49e+00	0	43	104	0	29	13262
2026-01-13 11:22:30.04	276.29	39.94	-34.0	-45.4	3.8	1.49e+00	0	43	104	0	29	13327
2026-01-13 11:22:33.05	277.65	39.76	-34.0	-45.4	3.8	1.49e+00	0	43	104	0	29	13309
2026-01-13 11:22:36.07	278.99	39.56	-34.0	-45.3	3.8	1.49e+00	0	43	104	0	29	13265
2026-01-13 11:22:39.09	280.32	39.34	-34.0	-45.4	3.8	1.49e+00	0	43	104	0	29	13296
2026-01-13 11:22:42.11	281.62	39.11	-34.0	-45.4	3.8	1.49e+00	0	43	104	0	29	13338
2026-01-13 11:22:45.13	282.91	38.86	-34.0	-45.4	3.8	1.49e+00	0	43	104	0	29	13290
2026-01-13 11:22:48.14	284.18	38.60	-34.0	-45.4	3.8	1.49e+00	0	43	104	0	29	13347
2026-01-13 11:22:51.16	285.42	38.32	-34.0	-45.4	3.8	1.49e+00	0	43	104	0	29	13349
2026-01-13 11:22:54.19	286.66	38.04	-34.0	-45.4	3.8	1.49e+00	0	43	104	0	29	13330
2026-01-13 11:22:57.21	287.86	37.74	-34.0	-45.4	3.8	1.49e+00	0	43	104	0	29	13311
2026-01-13 11:23:00.22	289.04	37.43	-34.0	-45.4	3.8	1.49e+00	0	43	104	0	29	13293
2026-01-13 11:23:03.23	290.20	37.11	-34.0	-45.4	3.8	1.49e+00	0	43	104	0	29	13309
2026-01-13 11:23:06.25	291.33	36.79	-34.0	-45.4	3.8	1.49e+00	0	43	104	0	29	13331
2026-01-13 11:23:09.28	292.45	36.45	-34.0	-45.4	3.8	1.49e+00	0	43	104	0	29	13324
2026-01-13 11:23:12.29	293.54	36.10	-34.0	-45.4	3.8	1.49e+00	0	43	104	0	29	13326
2026-01-13 11:23:15.31	294.61	35.75	-34.0	-45.4	3.8	1.49e+00	0	43	104	0	29	13339
2026-01-13 11:23:18.33	295.66	35.39	-34.0	-45.4	3.8	1.49e+00	0	43	104	0	29	13328
2026-01-13 11:23:21.34	296.68	35.03	-34.0	-45.4	3.8	1.49e+00	0	43	104	0	29	13349
2026-01-13 11:23:24.37	297.68	34.65	-34.0	-45.4	3.8	1.49e+00	0	43	104	0	29	13314
2026-01-13 11:23:27.39	298.66	34.28	-34.0	-45.4	3.8	1.49e+00	0	42	104	0	29	13324
2026-01-13 11:23:30.41	299.62	33.90	-34.0	-45.4	3.8	1.49e+00	0	43	104	0	29	13320
2026-01-13 11:23:33.43	300.56	33.52	-34.0	-45.4	3.8	1.49e+00	0	43	104	0	29	13340
2026-01-13 11:23:36.45	301.47	33.13	-34.0	-45.4	3.8	1.49e+00	0	43	104	0	29	13273
2026-01-13 11:23:39.48	302.36	32.74	-34.0	-45.4	3.8	1.49e+00	0	43	104	0	29	13303
2026-01-13 11:23:42.50	303.24	32.35	-34.0	-45.4	3.8	1.49e+00	0	43	104	0	29	13327
2026-01-13 11:23:45.52	304.09	31.95	-34.0	-45.4	3.8	1.49e+00	0	43	104	0	29	13339
2026-01-13 11:23:48.54	304.92	31.56	-34.0	-45.4	3.8	1.49e+00	0	43	104	0	29	13322
2026-01-13 11:23:51.56	305.73	31.16	-34.0	-45.4	3.8	1.49e+00	0	43	104	0	29	13309
2026-01-13 11:23:54.58	306.52	30.76	-34.0	-45.4	3.8	1.49e+00	0	42	104	0	29	13337
2026-01-13 11:23:57.60	307.29	30.37	-34.0	-45.4	3.8	1.49e+00	0	43	104	0	29	13282
2026-01-13 11:24:00.60	308.04	29.97	-34.0	-45.4	3.8	1.49e+00	0	43	104	0	29	13336
2026-01-13 11:24:03.60	308.77	29.58	-34.0	-45.4	3.8	1.49e+00	0	43	104	0	29	13352
2026-01-13 11:24:06.62	309.49	29.18	-34.0	-45.4	3.8	1.49e+00	0	43	104	0	29	13305
2026-01-13 11:24:09.64	310.19	28.79	-34.0	-45.4	3.8	1.49e+00	0	43	104	0	29	13323
2026-01-13 11:24:12.66	310.88	28.40	-34.0	-45.4	3.8	1.49e+00	0	43	104	0	29	13348
2026-01-13 11:24:15.68	311.55	28.00	-34.0	-45.4	3.8	1.49e+00	0	43	104	0	29	13340
2026-01-13 11:24:18.69	312.20	27.61	-34.0	-45.4	3.8	1.49e+00	0	43	104	0	29	13324
2026-01-13 11:24:21.72	312.84	27.22	-34.0	-45.4	3.8	1.49e+00	0	43	104	0	29	13339
2026-01-13 11:24:24.75	313.46	26.84	-34.0	-45.4	3.8	1.49e+00	0	43	104	0	29	13315
2026-01-13 11:24:27.77	314.07	26.45	-34.0	-45.4	3.8	1.49e+00	0	42	104	0	29	13320
2026-01-13 11:24:30.79	314.66	26.07	-34.0	-45.4	3.8	1.49e+00	0	43	104	0	29	13299
2026-01-13 11:24:33.81	315.24	25.69	-34.0	-45.4	3.8	1.49e+00	0	43	104	0	29	13327
2026-01-13 11:24:36.83	315.81	25.31	-34.0	-45.4	3.8	1.49e+00	0	43	104	0	29	13332
2026-01-13 11:24:39.85	316.36	24.93	-34.0	-45.4	3.8	1.49e+00	0	43	104	0	29	13325
2026-01-13 11:24:42.87	316.90	24.56	-34.0	-45.4	3.8	1.49e+00	0	43	104	0	29	13294
2026-01-13 11:24:45.90	317.43	24.19	-34.0	-45.4	3.8	1.49e+00	0	42	104	0	29	13322
2026-01-13 11:24:48.93	317.95	23.82	-34.0	-45.4	3.8	1.49e+00	0	43	104	0	29	13354
2026-01-13 11:24:51.96	318.46	23.46	-34.0	-45.4	3.8	1.49e+00	0	43	104	0	29	13343
2026-01-13 11:24:54.98	318.95	23.10	-34.0	-45.4	3.8	1.49e+00	0	43	104	0	29	13301
2026-01-13 11:24:57.99	319.43	22.74	-34.0	-45.4	3.8	1.49e+00	0	43	104	0	29	13373
2026-01-13 11:25:01.01	319.91	22.38	-34.0	-45.4	3.8	1.49e+00	0	43	104	0	29	13318
2026-01-13 11:25:04.03	320.37	22.03	-34.0	-45.4	3.8	1.49e+00	0	43	104	0	29	13336
2026-01-13 11:25:07.05	320.82	21.68	-34.0	-45.4	3.8	1.49e+00	0	43	104	0	29	13370
2026-01-13 11:25:10.08	321.26	21.34	-34.0	-45.4	3.8	1.49e+00	0	43	104	0	29	13343
2026-01-13 11:25:13.11	321.70	20.99	-34.0	-45.4	3.8	1.49e+00	0	43	104	0	29	13351
2026-01-13 11:25:16.12	322.12	20.65	-34.1	-45.4	3.8	1.49e+00	0	43	104	0	29	13364
2026-01-13 11:25:19.14	322.53	20.32	-34.0	-45.4	3.8	1.49e+00	0	42	104	0	29	13318
2026-01-13 11:25:22.16	322.94	19.98	-34.0	-45.4	3.8	1.49e+00	0	43	104	0	29	13328
2026-01-13 11:25:25.18	323.34	19.65	-34.0	-45.5	3.8	1.49e+00	0	43	104	0	29	13396
2026-01-13 11:25:28.20	323.73	19.33	-34.0	-45.4	3.8	1.49e+00	0	43	104	0	29	13328
2026-01-13 11:25:31.22	324.11	19.00	-34.0	-45.4	3.8	1.49e+00	0	43	104	0	29	13353
2026-01-13 11:25:34.24	324.48	18.68	-34.0	-45.4	3.8	1.49e+00	0	43	104	0	29	13315
2026-01-13 11:25:37.26	324.85	18.36	-34.0	-45.4	3.8	1.49e+00	0	43	104	0	29	13334
2026-01-13 11:25:40.29	325.21	18.04	-34.0	-45.4	3.8	1.49e+00	0	43	104	0	29	13347
2026-01-13 11:25:43.31	325.56	17.73	-34.0	-45.4	3.8	1.49e+00	0	43	104	0	29	13314
2026-01-13 11:25:46.32	325.91	17.42	-34.0	-45.4	3.8	1.49e+00	0	43	104	0	29	13342
2026-01-13 11:25:49.34	326.24	17.12	-34.0	-45.4	3.8	1.49e+00	0	43	104	0	29	13324
2026-01-13 11:25:52.38	326.58	16.81	-34.0	-45.4	3.8	1.49e+00	0	43	104	0	29	13290
2026-01-13 11:25:55.40	326.90	16.51	-34.0	-45.4	3.8	1.49e+00	0	43	104	0	29	13351
2026-01-13 11:25:58.42	327.22	16.21	-34.0	-45.4	3.8	1.49e+00	0	43	104	0	29	13348
2026-01-13 11:26:01.44	327.54	15.92	-34.0	-45.4	3.8	1.49e+00	0	43	104	0	29	13344
2026-01-13 11:26:04.45	327.84	15.63	-34.0	-45.4	3.8	1.49e+00	0	43	104	0	29	13336
2026-01-13 11:26:07.46	328.14	15.34	-34.0	-45.4	3.8	1.49e+00	0	43	104	0	29	13332
2026-01-13 11:26:10.49	328.44	15.05	-34.0	-45.4	3.8	1.49e+00	0	42	104	0	29	13338
2026-01-13 11:26:13.52	328.73	14.77	-34.0	-45.4	3.8	1.49e+00	0	43	104	0	29	13331
2026-01-13 11:26:16.54	329.02	14.49	-34.0	-45.4	3.8	1.49e+00	0	43	104	0	29	13384
2026-01-13 11:26:19.56	329.30	14.21	-34.0	-45.4	3.8	1.49e+00	0	43	104	0	29	13339
2026-01-13 11:26:22.58	329.58	13.93	-34.0	-45.4	3.8	1.49e+00	0	43	104	0	29	13370
2026-01-13 11:26:25.60	329.85	13.66	-34.0	-45.4	3.8	1.49e+00	0	43	104	0	29	13352
2026-01-13 11:26:28.63	330.11	13.39	-34.0	-45.4	3.8	1.49e+00	0	43	104	0	29	13318
2026-01-13 11:26:31.65	330.38	13.12	-34.0	-45.4	3.8	1.49e+00	0	43	104	0	29	13347
2026-01-13 11:26:34.66	330.63	12.85	-34.1	-45.4	3.8	1.49e+00	0	43	104	0	29	13332
2026-01-13 11:26:37.69	330.89	12.59	-34.0	-45.4	3.8	1.49e+00	0	43	104	0	29	13340
2026-01-13 11:26:40.71	331.13	12.33	-34.0	-45.4	3.8	1.49e+00	0	43	104	0	29	13316
2026-01-13 11:26:43.73	331.38	12.07	-34.0	-45.4	3.8	1.49e+00	0	43	104	0	29	13355
2026-01-13 11:26:46.74	331.62	11.81	-34.0	-45.5	3.8	1.49e+00	0	43	104	0	29	13385
2026-01-13 11:26:49.76	331.86	11.56	-34.0	-45.4	3.8	1.49e+00	0	43	104	0	29	13356
2026-01-13 11:26:52.78	332.09	11.31	-34.0	-45.4	3.8	1.49e+00	0	43	104	0	29	13341
2026-01-13 11:26:55.80	332.32	11.06	-34.1	-45.4	3.8	1.49e+00	0	42	104	0	29	13353
2026-01-13 11:26:58.82	332.54	10.81	-34.0	-45.4	3.8	1.49e+00	0	43	104	0	29	13309
2026-01-13 11:27:01.85	332.77	10.56	-34.0	-45.4	3.8	1.49e+00	0	43	104	0	29	13308
2026-01-13 11:27:04.87	332.99	10.32	-34.0	-45.4	3.8	1.49e+00	0	42	104	0	29	13362
2026-01-13 11:27:07.89	333.20	10.08	-34.0	-45.4	3.8	1.49e+00	0	43	104	0	29	13349
2026-01-13 11:27:10.91	333.41	9.84	-34.0	-45.4	3.8	1.49e+00	0	43	104	0	29	13385
2026-01-13 11:27:13.94	333.62	9.60	-34.0	-45.4	3.8	1.49e+00	0	43	104	0	29	13372
2026-01-13 11:27:16.94	333.83	9.37	-34.0	-45.4	3.8	1.49e+00	0	43	104	0	29	13372
2026-01-13 11:27:19.95	334.03	9.13	-34.0	-45.4	3.8	1.49e+00	0	43	104	0	29	13354
2026-01-13 11:27:22.97	334.23	8.90	-34.0	-45.4	3.8	1.49e+00	0	43	104	0	29	13364
2026-01-13 11:27:25.99	334.42	8.67	-34.0	-45.5	3.8	1.49e+00	0	43	104	0	29	13403
2026-01-13 11:27:29.01	334.62	8.44	-34.0	-45.4	3.8	1.49e+00	0	43	104	0	29	13359
2026-01-13 11:27:32.02	334.81	8.22	-34.0	-45.5	3.8	1.49e+00	0	42	104	0	29	13383
2026-01-13 11:27:35.04	335.00	7.99	-34.0	-45.4	3.8	1.49e+00	0	43	104	0	29	13371
2026-01-13 11:27:38.06	335.18	7.77	-34.0	-45.4	3.8	1.49e+00	0	43	104	0	29	13320
2026-01-13 11:27:41.07	335.37	7.55	-34.0	-45.4	3.8	1.49e+00	0	43	104	0	29	13371
2026-01-13 11:27:44.10	335.55	7.33	-34.0	-45.4	3.8	1.49e+00	0	43	104	0	29	13329
2026-01-13 11:27:47.13	335.73	7.11	-34.0	-45.4	3.8	1.49e+00	0	43	104	0	29	13304
2026-01-13 11:27:50.14	335.90	6.90	-34.0	-45.4	3.8	1.49e+00	0	43	104	0	29	13353

#Closed at: 2026-01-13 11:27:50
#Recorded file [0 MB]: D:/data/31010_260113_141630.dat