passes_logs/2026/01/13/R2M6_AANII_01/R2M6_AANII_01__20260113_001221_SUOMI_NPP_rec.log

#Pass ID: 20260113_001221_SUOMI NPP
#Satellite: SUOMI NPP
#Configuration: NPP
#almurnet v.1.7.20240730
#Start time: 2026-01-13 00:12:22

#Version: 2.2.20231116
#Station: R2M6_AANII_01
#Location: 30.233357 lon 59.946436 lat
#TLE: 1 37849U 11061A   26012.28456845  .00000093  00000+0  65163-4 0  9999
#TLE: 2 37849  98.7807 314.3566 0002508  68.3553 291.7890 14.19524725736322

#Time	Az	El	Level	Level2	SNR	BER	BlckErr	Temp	State	Recorded	gain1	gain2
2026-01-13 00:12:22.41	19.34	7.10	-31.5	-37.3	4.6	1.36e+00	0	39	0	0	23	6998
2026-01-13 00:12:25.42	19.38	7.33	-31.6	-37.4	6.3	2.93e-01	0	40	0	1048576	23	7023
2026-01-13 00:12:28.42	19.43	7.56	-31.5	-36.8	6.8	1.80e-01	0	40	0	7340032	23	6611
2026-01-13 00:12:31.44	19.48	7.80	-31.6	-37.5	6.3	2.71e-01	0	40	0	12582912	23	7086
2026-01-13 00:12:34.45	19.53	8.04	-30.9	-34.9	8.9	4.06e-02	0	40	0	17825792	21	5752
2026-01-13 00:12:37.47	19.58	8.28	-30.3	-33.3	10.5	4.89e-03	0	40	0	24117248	20	5099
2026-01-13 00:12:40.47	19.63	8.52	-29.9	-32.1	11.5	9.24e-04	0	40	0	29360128	20	4622
2026-01-13 00:12:43.49	19.68	8.77	-29.9	-32.0	11.6	7.03e-04	0	40	0	35651584	20	4599
2026-01-13 00:12:46.51	19.73	9.02	-29.9	-32.6	11.6	6.60e-04	0	40	0	40894464	19	4895
2026-01-13 00:12:49.53	19.78	9.27	-30.1	-32.6	11.2	1.31e-03	0	40	0	46137344	20	4789
2026-01-13 00:12:52.54	19.84	9.52	-30.2	-32.9	11.0	2.40e-03	0	40	0	52428800	20	4920
2026-01-13 00:12:55.56	19.89	9.78	-29.3	-31.9	11.1	1.74e-03	0	40	0	57671680	20	4849
2026-01-13 00:12:58.58	19.95	10.04	-30.1	-32.7	11.3	1.25e-03	0	40	0	63963136	20	4824
2026-01-13 00:13:01.59	20.00	10.30	-29.9	-32.0	11.7	4.52e-04	0	41	0	69206016	20	4584
2026-01-13 00:13:04.61	20.06	10.56	-29.8	-31.7	12.0	5.38e-04	0	41	0	74448896	20	4452
2026-01-13 00:13:07.62	20.11	10.83	-29.7	-31.8	12.3	1.46e-04	0	41	0	80740352	19	4581
2026-01-13 00:13:10.64	20.17	11.10	-29.6	-31.3	12.6	9.07e-05	0	41	0	85983232	19	4416
2026-01-13 00:13:13.66	20.23	11.37	-29.7	-31.7	12.4	2.62e-04	0	41	0	92274688	19	4539
2026-01-13 00:13:16.68	20.29	11.65	-29.6	-31.5	12.6	2.72e-04	0	41	0	97517568	19	4458
2026-01-13 00:13:19.69	20.35	11.93	-29.3	-31.1	13.2	6.17e-05	0	41	0	102760448	18	4414
2026-01-13 00:13:22.71	20.41	12.21	-29.3	-31.2	13.2	6.10e-05	0	41	0	109051904	18	4454
2026-01-13 00:13:25.72	20.47	12.50	-29.2	-30.8	13.5	1.60e-05	0	41	0	114294784	18	4322
2026-01-13 00:13:28.73	20.54	12.78	-29.3	-31.0	13.4	1.98e-05	0	41	0	120586240	18	4375
2026-01-13 00:13:31.75	20.60	13.08	-29.1	-30.5	13.6	2.51e-05	0	41	0	125829120	18	4247
2026-01-13 00:13:34.77	20.67	13.37	-29.3	-31.0	13.4	6.48e-05	0	41	0	131072000	18	4369
2026-01-13 00:13:37.78	20.73	13.67	-29.1	-30.6	13.7	2.51e-05	0	41	0	137363456	18	4246
2026-01-13 00:13:40.80	20.80	13.98	-29.2	-30.8	13.6	5.64e-05	0	41	0	142606336	18	4312
2026-01-13 00:13:43.82	20.87	14.28	-29.0	-30.6	13.9	4.50e-05	0	41	0	148897792	17	4362
2026-01-13 00:13:46.82	20.94	14.59	-29.0	-30.3	13.9	9.90e-06	0	41	0	154140672	18	4146
2026-01-13 00:13:49.85	21.01	14.91	-29.1	-30.5	13.8	2.20e-06	0	41	0	159383552	18	4209
2026-01-13 00:13:52.87	21.08	15.23	-29.1	-30.5	13.8	1.50e-06	0	41	0	165675008	18	4225
2026-01-13 00:13:55.89	21.15	15.55	-29.2	-30.7	13.7	4.50e-06	0	41	0	170917888	18	4266
2026-01-13 00:13:58.90	21.23	15.88	-29.1	-30.4	13.8	1.50e-06	0	41	0	176160768	18	4199
2026-01-13 00:14:01.91	21.30	16.21	-29.2	-30.8	13.7	4.50e-06	0	41	0	182452224	18	4298
2026-01-13 00:14:04.94	21.38	16.55	-29.4	-31.2	13.4	1.98e-05	0	41	0	187695104	18	4434
2026-01-13 00:14:07.95	21.46	16.89	-29.7	-31.4	12.9	3.20e-05	0	41	0	193986560	19	4416
2026-01-13 00:14:10.97	21.54	17.24	-29.7	-31.5	12.9	3.35e-05	0	41	0	199229440	19	4418
2026-01-13 00:14:13.98	21.62	17.59	-29.7	-31.5	12.9	5.26e-05	0	42	0	204472320	19	4444
2026-01-13 00:14:17.00	21.71	17.95	-29.9	-31.9	11.8	7.78e-05	0	42	0	210763776	19	4572
2026-01-13 00:14:20.01	21.79	18.31	-29.8	-31.8	12.7	5.49e-05	0	41	0	216006656	19	4541
2026-01-13 00:14:23.02	21.88	18.68	-29.9	-32.0	12.7	1.01e-04	0	41	0	222298112	19	4584
2026-01-13 00:14:26.04	21.97	19.05	-30.1	-32.3	12.0	2.45e-03	0	42	0	227540992	20	4594
2026-01-13 00:14:29.06	22.06	19.43	-30.1	-32.2	12.1	2.29e-03	0	42	0	232783872	20	4573
2026-01-13 00:14:32.06	22.15	19.81	-30.3	-32.7	11.8	3.47e-04	0	42	0	239075328	20	4759
2026-01-13 00:14:35.06	22.24	20.20	-30.2	-32.3	12.1	4.03e-04	0	41	0	244318208	20	4599
2026-01-13 00:14:38.09	22.34	20.60	-29.9	-32.0	12.7	8.31e-05	0	42	0	250609664	19	4575
2026-01-13 00:14:41.10	22.44	21.00	-29.9	-31.6	12.6	9.71e-04	0	42	0	255852544	20	4377
2026-01-13 00:14:44.12	22.54	21.41	-29.9	-32.0	12.7	2.02e-03	0	42	0	261095424	19	4588
2026-01-13 00:14:47.13	22.65	21.82	-30.0	-31.8	12.5	2.01e-03	0	42	0	267386880	20	4430
2026-01-13 00:14:50.13	22.75	22.24	-30.1	-32.0	12.4	2.11e-03	0	42	0	272629760	20	4508
2026-01-13 00:14:53.14	22.86	22.67	-29.9	-31.6	12.7	2.42e-03	0	42	0	277872640	20	4349
2026-01-13 00:14:56.15	22.97	23.11	-29.9	-31.6	12.7	2.73e-03	0	42	0	284164096	20	4345
2026-01-13 00:14:59.17	23.09	23.55	-30.0	-32.2	12.7	2.49e-04	0	42	0	289406976	19	4629
2026-01-13 00:15:02.18	23.20	24.01	-30.1	-32.1	12.3	2.52e-03	0	42	0	295698432	20	4519
2026-01-13 00:15:05.19	23.32	24.46	-29.9	-32.0	12.9	2.45e-03	0	42	0	300941312	19	4554
2026-01-13 00:15:08.20	23.45	24.93	-29.9	-31.4	12.8	2.23e-03	0	42	0	306184192	20	4286
2026-01-13 00:15:11.22	23.57	25.41	-30.0	-31.7	12.7	2.64e-03	0	42	0	312475648	20	4375
2026-01-13 00:15:14.23	23.70	25.89	-30.2	-32.3	12.4	2.66e-03	0	42	0	317718528	20	4574
2026-01-13 00:15:17.25	23.84	26.39	-29.7	-31.2	13.4	4.19e-05	0	42	0	324009984	19	4309
2026-01-13 00:15:20.26	23.98	26.89	-29.6	-31.2	13.4	8.30e-06	0	42	0	329252864	19	4296
2026-01-13 00:15:23.28	24.12	27.40	-29.6	-31.2	13.5	1.98e-05	0	42	0	334495744	19	4284
2026-01-13 00:15:26.30	24.27	27.93	-29.7	-31.4	13.4	1.60e-05	0	42	0	340787200	19	4366
2026-01-13 00:15:29.31	24.42	28.46	-29.9	-31.3	13.0	1.94e-03	0	42	0	346030080	20	4239
2026-01-13 00:15:32.33	24.57	29.00	-29.5	-30.7	13.8	1.50e-03	0	42	0	352321536	19	4151
2026-01-13 00:15:35.35	24.73	29.55	-29.7	-31.4	13.4	8.30e-06	0	42	0	357564416	19	4350
2026-01-13 00:15:38.36	24.90	30.12	-30.0	-31.7	12.8	3.89e-05	0	42	0	362807296	20	4374
2026-01-13 00:15:41.37	25.07	30.69	-29.9	-31.4	13.0	6.02e-05	0	42	0	369098752	20	4254
2026-01-13 00:15:44.38	25.25	31.27	-30.0	-31.5	13.0	3.66e-05	0	42	0	374341632	20	4296
2026-01-13 00:15:47.40	25.43	31.87	-30.5	-33.0	12.0	1.28e-04	0	42	0	379584512	20	4798
2026-01-13 00:15:50.41	25.62	32.48	-29.6	-32.0	11.6	4.31e-04	0	42	0	385875968	21	4733
2026-01-13 00:15:53.43	25.82	33.10	-30.5	-32.6	11.9	3.96e-04	0	42	0	391118848	21	4584
2026-01-13 00:15:56.45	26.02	33.74	-30.6	-32.9	11.7	1.35e-03	0	42	0	397410304	21	4690
2026-01-13 00:15:59.46	26.23	34.39	-31.0	-33.4	11.1	1.44e-03	0	42	0	402653184	22	4787
2026-01-13 00:16:02.47	26.45	35.05	-31.0	-33.6	10.9	1.49e-03	0	42	0	407896064	22	4853
2026-01-13 00:16:05.50	26.68	35.73	-30.6	-32.3	11.8	3.90e-04	0	42	0	414187520	22	4386
2026-01-13 00:16:08.52	26.92	36.42	-30.7	-33.1	11.6	1.71e-04	0	42	0	419430400	21	4734
2026-01-13 00:16:11.53	27.17	37.12	-30.1	-31.5	12.8	4.73e-05	0	42	0	425721856	21	4186
2026-01-13 00:16:14.55	27.43	37.84	-29.9	-31.4	13.1	1.67e-05	0	42	0	430964736	20	4255
2026-01-13 00:16:17.56	27.70	38.57	-30.1	-31.7	12.9	7.70e-05	0	42	0	436207616	20	4353
2026-01-13 00:16:20.57	27.98	39.32	-30.5	-32.5	12.1	5.42e-04	0	42	0	442499072	21	4515
2026-01-13 00:16:23.60	28.27	40.09	-31.3	-34.6	10.1	5.66e-03	0	42	0	447741952	22	5253
2026-01-13 00:16:26.62	28.58	40.87	-31.5	-34.7	9.8	6.15e-03	0	42	0	454033408	23	5209
2026-01-13 00:16:29.64	28.91	41.67	-31.2	-34.2	10.6	3.62e-03	0	42	0	459276288	22	5059
2026-01-13 00:16:32.65	29.25	42.48	-30.2	-31.6	12.7	4.89e-04	0	42	0	464519168	21	4239
2026-01-13 00:16:35.67	29.60	43.32	-30.3	-32.2	12.7	3.78e-04	0	42	0	470810624	20	4515
2026-01-13 00:16:38.69	29.98	44.17	-30.6	-32.8	12.0	4.53e-04	0	42	0	476053504	21	4619
2026-01-13 00:16:41.71	30.37	45.04	-31.0	-33.3	11.2	1.33e-03	0	42	0	482344960	22	4698
2026-01-13 00:16:44.73	30.79	45.92	-31.3	-34.5	10.5	4.08e-03	0	42	0	487587840	22	5173
2026-01-13 00:16:47.73	31.23	46.82	-30.9	-33.7	11.3	7.54e-04	0	42	0	492830720	21	4937
2026-01-13 00:16:50.74	31.69	47.74	-31.3	-34.3	10.6	4.24e-03	0	42	0	499122176	22	5107
2026-01-13 00:16:53.75	32.19	48.68	-31.2	-33.7	10.6	3.56e-03	0	42	0	504365056	23	4782
2026-01-13 00:16:56.77	32.71	49.64	-30.6	-32.7	12.1	2.95e-04	0	42	0	510656512	21	4572
2026-01-13 00:16:59.78	33.27	50.61	-29.6	-30.4	13.9	5.03e-05	0	42	0	515899392	20	3955
2026-01-13 00:17:02.77	33.86	51.60	-29.0	-29.9	15.0	1.44e-03	0	42	0	521142272	18	3980
2026-01-13 00:17:05.79	34.49	52.61	-29.1	-30.0	14.9	7.00e-07	0	42	0	527433728	18	3996
2026-01-13 00:17:08.80	35.17	53.64	-27.8	-28.0	16.7	1.75e-05	0	42	0	532676608	16	3669
2026-01-13 00:17:11.82	35.90	54.69	-27.0	-27.2	17.5	0.00e+00	0	42	0	538968064	14	3681
2026-01-13 00:17:14.83	36.69	55.75	-26.6	-26.3	18.0	0.00e+00	0	42	0	544210944	14	3465
2026-01-13 00:17:17.84	37.53	56.83	-27.2	-27.5	17.1	0.00e+00	0	42	0	549453824	14	3740
2026-01-13 00:17:20.85	38.44	57.92	-27.0	-27.1	17.6	0.00e+00	0	42	0	555745280	14	3646
2026-01-13 00:17:23.86	39.43	59.03	-27.8	-28.3	16.7	0.00e+00	0	42	0	560988160	15	3856
2026-01-13 00:17:26.88	40.51	60.15	-28.5	-28.6	15.9	7.00e-07	0	42	0	566231040	18	3634
2026-01-13 00:17:29.89	41.69	61.27	-27.0	-27.0	17.7	0.00e+00	0	42	0	572522496	14	3626
2026-01-13 00:17:32.90	42.97	62.41	-27.1	-27.5	17.5	0.00e+00	0	42	0	577765376	14	3733
2026-01-13 00:17:35.91	44.38	63.55	-26.4	-26.4	18.2	1.50e-06	0	42	0	584056832	13	3562
2026-01-13 00:17:38.92	45.94	64.70	-26.5	-26.4	18.3	2.20e-06	0	42	0	589299712	13	3571
2026-01-13 00:17:41.93	47.65	65.84	-27.2	-27.5	17.5	3.80e-06	0	42	0	594542592	14	3739
2026-01-13 00:17:44.95	49.56	66.98	-28.9	-30.0	15.3	3.00e-06	0	42	0	600834048	17	4091
2026-01-13 00:17:47.97	51.69	68.12	-29.4	-30.1	14.7	7.00e-07	0	42	0	606076928	19	3916
2026-01-13 00:17:50.99	54.07	69.23	-30.1	-31.6	13.4	9.10e-06	0	42	0	612368384	20	4282
2026-01-13 00:17:54.00	56.73	70.32	-30.9	-32.9	11.8	3.37e-04	0	42	0	617611264	22	4517
2026-01-13 00:17:57.02	59.73	71.38	-31.5	-34.3	10.6	4.89e-03	0	42	0	622854144	23	4968
2026-01-13 00:18:00.04	63.10	72.40	-31.0	-33.0	12.0	8.57e-04	0	42	0	629145600	22	4538
2026-01-13 00:18:03.06	66.89	73.36	-30.5	-32.3	12.8	8.69e-05	0	42	0	634388480	21	4408
2026-01-13 00:18:06.07	71.14	74.25	-29.8	-30.6	14.2	7.00e-07	0	42	0	640679936	20	3984
2026-01-13 00:18:09.08	75.89	75.05	-30.5	-31.5	13.0	1.28e-04	0	42	0	645922816	22	4070
2026-01-13 00:18:12.10	81.18	75.75	-30.8	-33.1	12.2	1.60e-04	0	42	0	651165696	21	4676
2026-01-13 00:18:15.11	86.96	76.32	-30.7	-32.3	12.5	1.05e-04	0	42	0	657457152	22	4298
2026-01-13 00:18:18.13	93.22	76.75	-31.0	-33.0	12.2	2.51e-04	0	42	0	662700032	22	4538
2026-01-13 00:18:21.15	99.82	77.02	-31.9	-35.3	10.1	1.82e-03	0	42	0	667942912	23	5349
2026-01-13 00:18:24.17	106.61	77.11	-31.6	-34.3	10.8	1.68e-03	0	42	0	674234368	23	4907
2026-01-13 00:18:27.19	113.42	77.03	-30.6	-31.9	12.8	8.92e-05	0	42	0	679477248	22	4152
2026-01-13 00:18:30.21	120.04	76.78	-32.0	-35.3	9.6	2.21e-02	0	42	0	685768704	24	5254
2026-01-13 00:18:33.22	126.31	76.36	-31.8	-35.0	10.2	3.55e-03	0	42	0	691011584	23	5206
2026-01-13 00:18:36.24	132.15	75.80	-31.9	-34.8	10.0	1.25e-02	0	42	0	696254464	24	5061
2026-01-13 00:18:39.26	137.49	75.11	-32.3	-36.7	8.6	2.59e-02	0	42	0	702545920	24	5926
2026-01-13 00:18:42.27	142.28	74.32	-31.8	-34.8	9.8	9.64e-03	0	42	0	707788800	24	5069
2026-01-13 00:18:45.29	146.59	73.43	-31.3	-33.4	11.2	3.55e-03	0	42	0	714080256	23	4603
2026-01-13 00:18:48.31	150.42	72.47	-31.9	-35.3	9.9	9.91e-03	0	42	0	719323136	23	5365
2026-01-13 00:18:51.33	153.82	71.46	-33.0	-39.1	6.4	1.75e-01	0	42	0	724566016	25	7310
2026-01-13 00:18:54.35	156.85	70.40	-31.9	-35.1	9.6	1.96e-02	0	42	0	730857472	24	5199
2026-01-13 00:18:57.37	159.54	69.31	-31.9	-35.6	9.8	1.55e-02	0	42	0	736100352	23	5480
2026-01-13 00:19:00.39	161.94	68.19	-30.8	-32.6	12.2	5.83e-04	0	42	0	742391808	22	4410
2026-01-13 00:19:03.39	164.07	67.06	-30.1	-31.6	13.6	5.30e-06	0	42	0	747634688	20	4270
2026-01-13 00:19:06.41	166.00	65.92	-29.5	-30.0	14.5	4.50e-06	0	42	0	752877568	20	3816
2026-01-13 00:19:09.42	167.73	64.77	-29.2	-29.7	15.1	0.00e+00	0	42	0	759169024	19	3799
2026-01-13 00:19:12.43	169.30	63.62	-28.3	-28.1	16.3	0.00e+00	0	42	0	764411904	18	3501
2026-01-13 00:19:15.45	170.73	62.47	-28.9	-30.1	15.5	0.00e+00	0	42	0	770703360	17	4098
2026-01-13 00:19:18.48	172.03	61.33	-28.9	-29.4	15.6	0.00e+00	0	42	0	775946240	18	3817
2026-01-13 00:19:21.49	173.21	60.19	-30.0	-31.3	13.6	1.29e-05	0	42	0	781189120	20	4170
2026-01-13 00:19:24.52	174.30	59.06	-30.3	-31.5	13.2	1.07e-04	0	42	0	787480576	21	4152
2026-01-13 00:19:27.54	175.30	57.95	-30.1	-31.5	13.4	5.87e-05	0	42	0	792723456	20	4239
2026-01-13 00:19:30.56	176.22	56.85	-28.9	-29.5	15.4	0.00e+00	0	42	0	799014912	18	3866
2026-01-13 00:19:33.57	177.07	55.77	-28.0	-28.4	16.6	0.00e+00	0	42	0	804257792	16	3762
2026-01-13 00:19:36.58	177.85	54.71	-29.6	-30.3	14.2	1.15e-03	0	42	0	809500672	20	3911
2026-01-13 00:19:39.60	178.59	53.65	-29.7	-31.0	14.2	1.50e-03	0	42	0	815792128	19	4191
2026-01-13 00:19:42.61	179.27	52.62	-29.9	-31.2	13.6	1.20e-03	0	42	0	821035008	20	4155
2026-01-13 00:19:45.62	179.90	51.61	-31.6	-34.6	10.4	4.56e-03	0	42	0	827326464	23	5078
2026-01-13 00:19:48.63	180.50	50.61	-30.8	-32.4	12.3	3.29e-04	0	42	0	832569344	22	4366
2026-01-13 00:19:51.64	181.06	49.63	-30.3	-32.2	13.0	4.73e-05	0	42	0	837812224	20	4470
2026-01-13 00:19:54.66	181.59	48.67	-31.4	-33.9	10.8	3.10e-03	0	42	0	844103680	23	4826
2026-01-13 00:19:57.67	182.08	47.73	-30.1	-31.1	13.3	4.11e-05	0	42	0	849346560	21	4032
2026-01-13 00:20:00.68	182.55	46.80	-31.9	-35.9	9.2	7.01e-03	0	42	0	854589440	23	5653
2026-01-13 00:20:03.69	182.99	45.90	-32.8	-38.9	6.2	3.44e-01	0	42	0	860880896	25	7273
2026-01-13 00:20:06.71	183.40	45.01	-32.2	-36.6	8.3	3.86e-02	0	42	0	866123776	24	5967
2026-01-13 00:20:09.72	183.80	44.14	-30.9	-32.8	11.8	6.49e-04	0	42	0	872415232	22	4501
2026-01-13 00:20:12.74	184.17	43.28	-32.0	-36.1	9.1	1.14e-02	0	42	0	877658112	23	5791
2026-01-13 00:20:15.76	184.53	42.45	-31.0	-32.8	11.5	6.74e-03	0	42	0	882900992	23	4417
2026-01-13 00:20:18.77	184.87	41.63	-29.2	-30.2	14.9	4.04e-05	0	42	0	889192448	18	4045
2026-01-13 00:20:21.78	185.19	40.83	-30.1	-31.8	13.2	4.57e-05	0	42	0	894435328	20	4350
2026-01-13 00:20:24.79	185.50	40.04	-30.3	-32.1	12.9	7.93e-05	0	42	0	900726784	20	4459
2026-01-13 00:20:27.81	185.79	39.27	-29.4	-30.9	14.3	4.16e-04	0	42	0	905969664	18	4258
2026-01-13 00:20:30.82	186.07	38.52	-30.8	-33.3	11.7	7.09e-04	0	42	0	911212544	21	4780
2026-01-13 00:20:33.85	186.34	37.78	-31.2	-33.9	11.0	1.45e-03	0	42	0	917504000	22	4919
2026-01-13 00:20:36.86	186.60	37.06	-31.1	-33.9	10.8	1.50e-03	0	42	0	922746880	22	4918
2026-01-13 00:20:39.88	186.85	36.35	-30.9	-33.6	11.4	2.23e-03	0	42	0	929038336	21	4928
2026-01-13 00:20:42.89	187.09	35.66	-30.6	-32.6	12.1	9.83e-04	0	42	0	934281216	21	4542
2026-01-13 00:20:45.90	187.32	34.98	-29.8	-31.3	13.7	9.44e-04	0	42	0	939524096	19	4291
2026-01-13 00:20:48.92	187.53	34.32	-30.0	-31.8	13.5	5.49e-04	0	42	0	945815552	19	4472
2026-01-13 00:20:51.94	187.75	33.67	-31.7	-35.4	9.4	7.33e-03	0	42	0	951058432	23	5503
2026-01-13 00:20:54.96	187.95	33.03	-32.3	-37.2	7.6	8.71e-02	0	42	0	957349888	24	6359
2026-01-13 00:20:57.97	188.15	32.40	-31.8	-35.8	9.1	1.85e-02	0	42	0	962592768	23	5687
2026-01-13 00:21:00.98	188.33	31.79	-31.6	-34.9	9.7	1.32e-02	0	42	0	967835648	23	5281
2026-01-13 00:21:04.00	188.52	31.19	-30.9	-33.0	11.5	2.80e-03	0	42	0	974127104	22	4606
2026-01-13 00:21:07.01	188.69	30.60	-30.4	-32.2	12.3	2.45e-03	0	42	0	979369984	21	4426
2026-01-13 00:21:10.03	188.86	30.03	-29.9	-31.3	13.3	2.16e-03	0	42	0	984612864	20	4214
2026-01-13 00:21:13.06	189.03	29.46	-30.6	-32.7	12.0	2.17e-03	0	42	0	990904320	21	4578
2026-01-13 00:21:16.08	189.19	28.90	-31.0	-33.5	11.2	3.30e-03	0	42	0	996147200	22	4780
2026-01-13 00:21:19.10	189.34	28.36	-31.7	-35.5	9.2	1.67e-02	0	42	0	1002438656	23	5552
2026-01-13 00:21:22.11	189.49	27.82	-31.6	-35.0	9.6	2.24e-02	0	42	0	1007681536	23	5340
2026-01-13 00:21:25.13	189.64	27.30	-30.3	-32.0	12.4	4.08e-04	0	42	0	1012924416	21	4346
2026-01-13 00:21:28.13	189.78	26.79	-29.7	-30.8	13.5	1.54e-04	0	42	0	1019215872	20	4078
2026-01-13 00:21:31.15	189.92	26.28	-29.3	-30.3	14.3	1.65e-04	0	42	0	1024458752	19	4002
2026-01-13 00:21:34.17	190.05	25.78	-29.3	-30.5	14.4	1.49e-04	0	42	0	1030750208	18	4180
2026-01-13 00:21:37.19	190.18	25.30	-29.2	-30.4	14.4	7.00e-07	0	42	0	1035993088	18	4143
2026-01-13 00:21:40.20	190.31	24.82	-29.0	-30.0	14.6	0.00e+00	0	42	0	1041235968	18	4035
2026-01-13 00:21:43.21	190.43	24.35	-28.5	-29.3	15.4	0.00e+00	0	42	0	1047527424	17	3930
2026-01-13 00:21:46.23	190.55	23.89	-28.0	-28.4	16.1	5.03e-05	0	42	0	1052770304	16	3793
2026-01-13 00:21:49.22	190.66	23.44	-28.1	-28.6	16.0	1.37e-05	0	42	0	1059061760	16	3847
2026-01-13 00:21:52.23	190.77	22.99	-28.4	-29.5	15.5	9.90e-06	0	42	0	1064304640	16	4065
2026-01-13 00:21:55.25	190.89	22.55	-29.0	-29.9	14.7	6.40e-05	0	42	0	1069547520	18	3995
2026-01-13 00:21:58.26	190.99	22.12	-29.3	-30.7	14.2	2.97e-04	0	42	0	1075838976	18	4235
2026-01-13 00:22:01.27	191.10	21.70	-29.1	-30.2	14.5	2.37e-04	0	42	0	1081081856	18	4077
2026-01-13 00:22:04.29	191.20	21.28	-29.0	-30.1	14.5	2.30e-04	0	42	0	1086324736	18	4058
2026-01-13 00:22:07.30	191.30	20.87	-29.0	-30.1	14.5	2.20e-06	0	42	0	1092616192	18	4058
2026-01-13 00:22:10.32	191.40	20.47	-29.3	-30.7	14.1	6.80e-06	0	42	0	1097859072	18	4255
2026-01-13 00:22:13.34	191.49	20.07	-29.3	-30.9	14.0	2.39e-04	0	42	0	1104150528	18	4297
2026-01-13 00:22:16.35	191.58	19.68	-29.7	-31.3	13.3	2.10e-04	0	42	0	1109393408	19	4340
2026-01-13 00:22:19.36	191.67	19.29	-29.2	-30.0	14.2	1.62e-04	0	42	0	1114636288	19	3941
2026-01-13 00:22:22.37	191.76	18.91	-29.0	-29.9	14.5	1.35e-04	0	42	0	1120927744	18	4028
2026-01-13 00:22:25.38	191.85	18.54	-29.2	-30.5	14.1	1.27e-04	0	42	0	1126170624	18	4202
2026-01-13 00:22:28.40	191.94	18.17	-28.9	-29.7	14.6	1.30e-04	0	42	0	1132462080	18	3959
2026-01-13 00:22:31.42	192.02	17.81	-28.9	-30.3	14.5	0.00e+00	0	42	0	1137704960	17	4235
2026-01-13 00:22:34.44	192.10	17.45	-28.8	-30.2	14.6	0.00e+00	0	42	0	1142947840	17	4186
2026-01-13 00:22:37.45	192.18	17.10	-29.1	-30.3	14.2	1.11e-04	0	42	0	1149239296	18	4136
2026-01-13 00:22:40.47	192.26	16.75	-29.1	-30.3	14.2	5.41e-05	0	42	0	1154482176	18	4131
2026-01-13 00:22:43.48	192.34	16.41	-29.1	-30.4	14.1	4.95e-05	0	42	0	1160773632	18	4165
2026-01-13 00:22:46.49	192.41	16.07	-29.3	-30.8	13.8	3.80e-06	0	42	0	1166016512	18	4295
2026-01-13 00:22:49.51	192.48	15.74	-29.3	-31.0	13.7	3.80e-06	0	42	0	1171259392	18	4346
2026-01-13 00:22:52.52	192.56	15.41	-29.3	-31.0	13.7	7.60e-06	0	42	0	1177550848	18	4343
2026-01-13 00:22:55.53	192.63	15.08	-29.5	-30.9	13.5	1.44e-05	0	42	0	1182793728	19	4235
2026-01-13 00:22:58.55	192.70	14.76	-29.6	-31.2	13.2	2.05e-05	0	42	0	1188036608	19	4338
2026-01-13 00:23:01.57	192.77	14.45	-29.7	-31.5	13.0	4.27e-05	0	42	0	1194328064	19	4412
2026-01-13 00:23:04.59	192.83	14.13	-29.7	-31.6	12.9	5.49e-05	0	42	0	1199570944	19	4466
2026-01-13 00:23:07.61	192.90	13.83	-29.9	-32.0	12.6	7.09e-05	0	42	0	1205862400	19	4591
2026-01-13 00:23:10.62	192.96	13.52	-30.0	-32.0	11.7	1.43e-04	0	42	0	1211105280	20	4519
2026-01-13 00:23:13.64	193.03	13.22	-30.1	-32.2	11.8	5.61e-04	0	42	0	1216348160	20	4610
2026-01-13 00:23:16.67	193.09	12.92	-29.9	-32.2	12.4	1.85e-04	0	42	0	1222639616	19	4683
2026-01-13 00:23:19.69	193.15	12.63	-29.6	-31.4	13.0	4.19e-05	0	42	0	1227882496	19	4391
2026-01-13 00:23:22.70	193.21	12.34	-29.6	-31.2	13.0	4.11e-05	0	42	0	1234173952	19	4354
2026-01-13 00:23:25.72	193.27	12.05	-29.6	-31.2	13.0	1.34e-03	0	42	0	1239416832	19	4327
2026-01-13 00:23:28.74	193.33	11.77	-29.6	-31.3	12.9	1.66e-03	0	42	0	1244659712	19	4379
2026-01-13 00:23:31.76	193.39	11.49	-29.6	-31.4	12.9	1.80e-03	0	42	0	1250951168	19	4415
2026-01-13 00:23:34.79	193.45	11.21	-29.6	-31.3	12.9	1.81e-03	0	42	0	1256194048	19	4368
2026-01-13 00:23:37.79	193.50	10.94	-29.8	-31.8	12.5	1.83e-03	0	42	0	1262485504	19	4558
2026-01-13 00:23:40.81	193.56	10.67	-29.8	-31.9	12.5	1.78e-04	0	42	0	1267728384	19	4590
2026-01-13 00:23:43.83	193.61	10.40	-29.9	-32.1	12.3	2.01e-03	0	42	0	1272971264	19	4655
2026-01-13 00:23:46.84	193.67	10.13	-29.8	-31.9	12.4	2.15e-03	0	42	0	1279262720	19	4590
2026-01-13 00:23:49.87	193.72	9.87	-29.8	-32.0	12.3	2.14e-03	0	42	0	1284505600	19	4635
2026-01-13 00:23:52.88	193.77	9.61	-29.8	-32.0	12.3	2.10e-03	0	42	0	1290797056	19	4639
2026-01-13 00:23:55.90	193.82	9.35	-29.9	-32.2	12.2	2.29e-03	0	42	0	1296039936	19	4694
2026-01-13 00:23:58.91	193.87	9.10	-30.0	-32.6	11.8	3.58e-04	0	42	0	1301282816	19	4852
2026-01-13 00:24:01.94	193.92	8.85	-29.9	-32.4	11.9	3.62e-04	0	42	0	1307574272	19	4802
2026-01-13 00:24:04.95	193.97	8.60	-30.0	-32.1	11.7	3.97e-04	0	42	0	1312817152	20	4612
2026-01-13 00:24:07.96	194.02	8.35	-30.0	-32.1	11.7	5.24e-04	0	42	0	1319108608	20	4595
2026-01-13 00:24:10.97	194.07	8.11	-29.9	-32.0	11.7	2.91e-03	0	42	0	1324351488	20	4572
2026-01-13 00:24:13.97	194.11	7.87	-30.0	-32.3	11.5	2.60e-03	0	42	0	1329594368	20	4672
2026-01-13 00:24:16.99	194.16	7.63	-29.9	-32.1	11.6	1.10e-03	0	42	0	1335885824	20	4619
2026-01-13 00:24:20.01	194.20	7.39	-30.2	-32.9	10.9	1.65e-03	0	42	0	1341128704	20	4930
2026-01-13 00:24:23.03	194.25	7.15	-30.1	-32.8	11.0	1.66e-03	0	42	0	1347420160	20	4876
2026-01-13 00:24:26.04	194.29	6.92	-32.9	-45.5	3.8	1.49e+00	0	42	104	1349517312	25	15460

#Closed at: 2026-01-13 00:24:27
#Recorded file [1349 MB]: D:/data/31010_260113_031224.dat