passes_logs/2026/01/13/R2M6_AANII_01/R2M6_AANII_01__20260113_100510_SUOMI_NPP_rec.log

#Pass ID: 20260113_100510_SUOMI NPP
#Satellite: SUOMI NPP
#Configuration: NPP
#almurnet v.1.7.20240730
#Start time: 2026-01-13 10:05:11

#Version: 2.2.20231116
#Station: R2M6_AANII_01
#Location: 30.233357 lon 59.946436 lat
#TLE: 1 37849U 11061A   26012.28456845  .00000093  00000+0  65163-4 0  9999
#TLE: 2 37849  98.7807 314.3566 0002508  68.3553 291.7890 14.19524725736322

#Time	Az	El	Level	Level2	SNR	BER	BlckErr	Temp	State	Recorded	gain1	gain2
2026-01-13 10:05:11.85	150.63	7.10	-34.0	-45.7	3.7	1.50e+00	0	40	0	0	29	13831
2026-01-13 10:05:14.85	150.59	7.34	-34.0	-45.7	3.8	1.49e+00	0	40	104	0	29	13827
2026-01-13 10:05:17.87	150.56	7.57	-34.0	-45.7	3.8	1.49e+00	0	40	104	0	29	13857
2026-01-13 10:05:20.89	150.52	7.81	-34.0	-45.7	3.8	1.49e+00	0	40	104	0	29	13879
2026-01-13 10:05:23.90	150.48	8.05	-34.0	-45.7	3.8	1.49e+00	0	40	104	0	29	13863
2026-01-13 10:05:26.91	150.44	8.30	-34.0	-45.7	3.8	1.49e+00	0	41	104	0	29	13883
2026-01-13 10:05:29.93	150.40	8.54	-34.0	-45.7	3.8	1.49e+00	0	41	104	0	29	13872
2026-01-13 10:05:32.95	150.35	8.79	-34.0	-45.7	3.8	1.49e+00	0	41	104	0	29	13884
2026-01-13 10:05:35.96	150.31	9.04	-34.0	-45.7	3.8	1.49e+00	0	41	104	0	29	13878
2026-01-13 10:05:38.98	150.27	9.30	-34.0	-45.7	3.8	1.49e+00	0	41	104	0	29	13900
2026-01-13 10:05:41.98	150.22	9.55	-34.0	-45.7	3.8	1.49e+00	0	41	104	0	29	13865
2026-01-13 10:05:45.01	150.18	9.81	-34.0	-45.7	3.8	1.49e+00	0	41	104	0	29	13834
2026-01-13 10:05:48.03	150.13	10.08	-34.0	-45.7	3.8	1.49e+00	0	41	104	0	29	13863
2026-01-13 10:05:51.05	150.08	10.34	-34.0	-45.7	3.8	1.49e+00	0	41	104	0	29	13857
2026-01-13 10:05:54.06	150.04	10.61	-34.0	-45.7	3.8	1.49e+00	0	41	104	0	29	13908
2026-01-13 10:05:57.06	149.99	10.88	-34.0	-45.7	3.8	1.49e+00	0	41	104	0	29	13871
2026-01-13 10:06:00.07	149.94	11.15	-34.0	-45.7	3.8	1.49e+00	0	41	104	0	29	13828
2026-01-13 10:06:03.08	149.88	11.43	-34.0	-45.7	3.8	1.49e+00	0	41	104	0	29	13885
2026-01-13 10:06:06.10	149.83	11.71	-34.0	-45.7	3.8	1.49e+00	0	41	104	0	29	13825
2026-01-13 10:06:09.10	149.78	11.99	-34.0	-45.7	3.8	1.49e+00	0	41	104	0	29	13885
2026-01-13 10:06:12.12	149.72	12.28	-34.0	-45.7	3.8	1.49e+00	0	41	104	0	29	13932
2026-01-13 10:06:15.13	149.67	12.57	-34.0	-45.7	3.8	1.49e+00	0	41	104	0	29	13865
2026-01-13 10:06:18.15	149.61	12.86	-34.0	-45.7	3.8	1.49e+00	0	42	104	0	29	13914
2026-01-13 10:06:21.17	149.55	13.16	-34.0	-45.7	3.8	1.49e+00	0	41	104	0	29	13864
2026-01-13 10:06:24.20	149.49	13.46	-34.0	-45.7	3.8	1.49e+00	0	42	104	0	29	13831
2026-01-13 10:06:27.22	149.43	13.76	-34.0	-45.7	3.8	1.49e+00	0	42	104	0	29	13873
2026-01-13 10:06:30.24	149.36	14.07	-34.0	-45.7	3.8	1.49e+00	0	42	104	0	29	13874
2026-01-13 10:06:33.26	149.30	14.38	-34.0	-45.7	3.8	1.49e+00	0	42	104	0	29	13893
2026-01-13 10:06:36.28	149.23	14.70	-34.0	-45.7	3.8	1.49e+00	0	42	104	0	29	13826
2026-01-13 10:06:39.29	149.16	15.02	-34.0	-45.7	3.8	1.49e+00	0	42	104	0	29	13864
2026-01-13 10:06:42.31	149.09	15.34	-34.0	-45.7	3.8	1.49e+00	0	42	104	0	29	13870
2026-01-13 10:06:45.33	149.02	15.67	-34.0	-45.7	3.8	1.49e+00	0	42	104	0	29	13906
2026-01-13 10:06:48.34	148.95	16.00	-34.0	-45.7	3.8	1.49e+00	0	42	104	0	29	13881
2026-01-13 10:06:51.36	148.87	16.34	-34.0	-45.7	3.8	1.49e+00	0	42	104	0	29	13873
2026-01-13 10:06:54.37	148.79	16.68	-34.0	-45.7	3.8	1.49e+00	0	42	104	0	29	13853
2026-01-13 10:06:57.40	148.72	17.03	-34.0	-45.7	3.8	1.49e+00	0	42	104	0	29	13884
2026-01-13 10:07:00.41	148.63	17.38	-34.0	-45.7	3.8	1.49e+00	0	42	104	0	29	13917
2026-01-13 10:07:03.42	148.55	17.74	-34.0	-45.7	3.8	1.49e+00	0	42	104	0	29	13887
2026-01-13 10:07:06.45	148.46	18.10	-34.0	-45.7	3.8	1.49e+00	0	42	104	0	29	13866
2026-01-13 10:07:09.46	148.38	18.47	-34.0	-45.8	3.8	1.49e+00	0	42	104	0	29	13935
2026-01-13 10:07:12.48	148.29	18.84	-34.0	-45.7	3.8	1.49e+00	0	42	104	0	29	13891
2026-01-13 10:07:15.50	148.19	19.22	-34.0	-45.7	3.8	1.49e+00	0	42	104	0	29	13863
2026-01-13 10:07:18.51	148.10	19.60	-34.0	-45.7	3.8	1.49e+00	0	42	104	0	29	13847
2026-01-13 10:07:21.53	148.00	20.00	-34.0	-45.7	3.8	1.49e+00	0	42	104	0	29	13844
2026-01-13 10:07:24.55	147.90	20.39	-34.0	-45.7	3.8	1.49e+00	0	42	104	0	29	13858
2026-01-13 10:07:27.55	147.80	20.79	-34.0	-45.7	3.8	1.49e+00	0	42	104	0	29	13886
2026-01-13 10:07:30.56	147.69	21.20	-34.0	-45.7	3.8	1.49e+00	0	42	104	0	29	13911
2026-01-13 10:07:33.57	147.58	21.62	-34.0	-45.7	3.8	1.49e+00	0	42	104	0	29	13864
2026-01-13 10:07:36.60	147.47	22.04	-34.0	-45.7	3.8	1.49e+00	0	42	104	0	29	13865
2026-01-13 10:07:39.61	147.35	22.47	-34.0	-45.7	3.8	1.49e+00	0	42	104	0	29	13884
2026-01-13 10:07:42.62	147.23	22.90	-34.0	-45.7	3.8	1.49e+00	0	42	104	0	29	13917
2026-01-13 10:07:45.64	147.11	23.35	-34.0	-45.7	3.8	1.49e+00	0	42	104	0	29	13887
2026-01-13 10:07:48.64	146.98	23.80	-34.0	-45.7	3.8	1.49e+00	0	42	104	0	29	13887
2026-01-13 10:07:51.65	146.85	24.26	-34.0	-45.8	3.8	1.49e+00	0	42	104	0	29	13953
2026-01-13 10:07:54.67	146.71	24.73	-34.0	-45.7	3.8	1.49e+00	0	42	104	0	29	13880
2026-01-13 10:07:57.67	146.57	25.20	-34.0	-45.7	3.8	1.49e+00	0	42	104	0	29	13913
2026-01-13 10:08:00.69	146.43	25.68	-34.0	-45.7	3.8	1.49e+00	0	42	104	0	29	13891
2026-01-13 10:08:03.70	146.28	26.18	-34.0	-45.8	3.8	1.49e+00	0	42	104	0	29	13923
2026-01-13 10:08:06.71	146.13	26.68	-34.0	-45.7	3.8	1.49e+00	0	42	104	0	29	13897
2026-01-13 10:08:09.71	145.97	27.18	-34.0	-45.7	3.8	1.49e+00	0	42	104	0	29	13868
2026-01-13 10:08:12.71	145.80	27.70	-34.0	-45.7	3.8	1.49e+00	0	42	104	0	29	13916
2026-01-13 10:08:15.72	145.63	28.23	-34.0	-45.7	3.8	1.49e+00	0	42	104	0	29	13896
2026-01-13 10:08:18.73	145.46	28.77	-34.0	-45.7	3.8	1.49e+00	0	42	104	0	29	13890
2026-01-13 10:08:21.74	145.27	29.32	-34.0	-45.7	3.8	1.49e+00	0	42	104	0	29	13904
2026-01-13 10:08:24.76	145.08	29.88	-34.0	-45.8	3.8	1.49e+00	0	42	104	0	29	13939
2026-01-13 10:08:27.76	144.89	30.45	-34.0	-45.7	3.8	1.49e+00	0	42	104	0	29	13886
2026-01-13 10:08:30.77	144.68	31.03	-34.0	-45.7	3.8	1.49e+00	0	42	104	0	29	13901
2026-01-13 10:08:33.79	144.47	31.63	-34.0	-45.7	3.8	1.49e+00	0	42	104	0	29	13911
2026-01-13 10:08:36.80	144.25	32.23	-34.0	-45.8	3.8	1.49e+00	0	42	104	0	29	13945
2026-01-13 10:08:39.81	144.02	32.85	-34.0	-45.7	3.8	1.49e+00	0	42	104	0	29	13916
2026-01-13 10:08:42.82	143.78	33.48	-34.0	-45.7	3.8	1.49e+00	0	42	104	0	29	13879
2026-01-13 10:08:45.83	143.53	34.12	-34.0	-45.6	3.8	1.49e+00	0	42	104	0	29	13795
2026-01-13 10:08:48.83	143.27	34.77	-34.0	-45.8	3.8	1.49e+00	0	42	104	0	29	13899
2026-01-13 10:08:51.85	143.00	35.44	-34.0	-45.8	3.8	1.49e+00	0	43	104	0	29	13932
2026-01-13 10:08:54.87	142.72	36.13	-34.0	-45.8	3.8	1.49e+00	0	42	104	0	29	13916
2026-01-13 10:08:57.87	142.43	36.82	-34.0	-45.6	3.8	1.49e+00	0	42	104	0	29	13716
2026-01-13 10:09:00.89	142.12	37.53	-34.0	-45.6	3.8	1.49e+00	0	42	104	0	29	13736
2026-01-13 10:09:03.91	141.80	38.26	-33.9	-45.6	3.8	1.49e+00	0	42	104	0	29	13745
2026-01-13 10:09:06.90	141.46	38.99	-33.9	-45.5	3.8	1.49e+00	0	42	104	0	29	13706
2026-01-13 10:09:09.90	141.11	39.74	-34.0	-45.7	3.8	1.49e+00	0	42	104	0	29	13895
2026-01-13 10:09:12.90	140.74	40.51	-34.0	-45.7	3.8	1.49e+00	0	42	104	0	29	13901
2026-01-13 10:09:15.90	140.35	41.29	-34.0	-45.7	3.8	1.49e+00	0	42	104	0	29	13885
2026-01-13 10:09:18.91	139.94	42.09	-34.0	-45.7	3.8	1.49e+00	0	43	104	0	29	13838
2026-01-13 10:09:21.92	139.51	42.90	-34.0	-45.7	3.8	1.49e+00	0	42	104	0	29	13905
2026-01-13 10:09:24.94	139.06	43.74	-34.0	-45.7	3.8	1.49e+00	0	42	104	0	29	13861
2026-01-13 10:09:27.96	138.58	44.59	-34.0	-45.7	3.8	1.49e+00	0	42	104	0	29	13843
2026-01-13 10:09:30.98	138.07	45.45	-34.0	-45.7	3.8	1.49e+00	0	42	104	0	29	13912
2026-01-13 10:09:34.00	137.53	46.34	-34.0	-45.8	3.8	1.49e+00	0	42	104	0	29	13924
2026-01-13 10:09:37.03	136.96	47.24	-34.0	-45.8	3.8	1.49e+00	0	42	104	0	29	13922
2026-01-13 10:09:40.04	136.36	48.15	-34.0	-45.7	3.8	1.49e+00	0	43	104	0	29	13866
2026-01-13 10:09:43.05	135.73	49.08	-34.0	-45.7	3.8	1.49e+00	0	42	104	0	29	13907
2026-01-13 10:09:46.06	135.05	50.02	-34.0	-45.7	3.8	1.49e+00	0	42	104	0	29	13872
2026-01-13 10:09:49.06	134.33	50.98	-34.0	-45.7	3.8	1.49e+00	0	43	104	0	29	13890
2026-01-13 10:09:52.08	133.55	51.95	-34.0	-45.8	3.8	1.49e+00	0	42	104	0	29	13912
2026-01-13 10:09:55.09	132.73	52.94	-34.0	-45.7	3.8	1.49e+00	0	42	104	0	29	13895
2026-01-13 10:09:58.10	131.84	53.94	-34.0	-45.7	3.8	1.49e+00	0	42	104	0	29	13880
2026-01-13 10:10:01.12	130.89	54.96	-34.0	-45.8	3.8	1.49e+00	0	43	104	0	29	13922
2026-01-13 10:10:04.12	129.88	55.98	-34.0	-45.8	3.8	1.49e+00	0	42	104	0	29	13928
2026-01-13 10:10:07.13	128.78	57.01	-34.0	-45.7	3.8	1.49e+00	0	43	104	0	29	13869
2026-01-13 10:10:10.13	127.60	58.05	-33.9	-45.6	3.8	1.49e+00	0	42	104	0	29	13799
2026-01-13 10:10:13.14	126.32	59.09	-34.0	-45.6	3.8	1.49e+00	0	42	104	0	29	13826
2026-01-13 10:10:16.16	124.93	60.15	-34.0	-45.7	3.8	1.49e+00	0	43	104	0	29	13941
2026-01-13 10:10:19.15	123.43	61.19	-34.0	-45.7	3.8	1.49e+00	0	42	104	0	29	13887
2026-01-13 10:10:22.15	121.79	62.24	-34.0	-45.8	3.8	1.49e+00	0	42	104	0	29	13955
2026-01-13 10:10:25.15	120.01	63.28	-34.0	-45.7	3.8	1.49e+00	0	42	104	0	29	13891
2026-01-13 10:10:28.16	118.06	64.31	-34.0	-45.7	3.8	1.49e+00	0	42	104	0	29	13814
2026-01-13 10:10:31.17	115.93	65.33	-34.0	-45.7	3.8	1.49e+00	0	42	104	0	29	13864
2026-01-13 10:10:34.17	113.60	66.32	-34.0	-45.8	3.8	1.49e+00	0	42	104	0	29	13913
2026-01-13 10:10:37.19	111.03	67.30	-34.0	-45.7	3.8	1.49e+00	0	42	104	0	29	13903
2026-01-13 10:10:40.22	108.20	68.24	-33.7	-45.8	3.8	1.49e+00	0	43	104	0	28	14559
2026-01-13 10:10:43.24	105.11	69.13	-33.7	-45.8	3.8	1.49e+00	0	42	104	0	28	14556
2026-01-13 10:10:46.25	101.74	69.96	-33.6	-45.8	3.8	1.49e+00	0	42	104	0	28	14565
2026-01-13 10:10:49.27	98.06	70.74	-33.6	-45.7	3.8	1.49e+00	0	42	104	0	28	14478
2026-01-13 10:10:52.28	94.08	71.43	-33.6	-45.6	3.8	1.49e+00	0	42	104	0	28	14370
2026-01-13 10:10:55.27	89.82	72.04	-33.6	-45.7	3.9	1.49e+00	0	43	104	0	28	14389
2026-01-13 10:10:58.29	85.23	72.55	-33.7	-45.7	3.8	1.49e+00	0	42	104	0	28	14402
2026-01-13 10:11:01.29	80.40	72.95	-33.7	-45.7	3.9	1.49e+00	0	42	104	0	28	14351
2026-01-13 10:11:04.30	75.36	73.22	-33.7	-45.7	3.8	1.49e+00	0	42	104	0	28	14347
2026-01-13 10:11:07.32	70.17	73.38	-34.0	-46.2	3.8	1.49e+00	0	42	104	0	28	14719
2026-01-13 10:11:10.33	64.93	73.39	-34.0	-46.2	3.8	1.49e+00	0	42	104	0	28	14730
2026-01-13 10:11:13.34	59.73	73.28	-30.2	-46.1	3.8	1.50e+00	0	42	104	0	20	22314
2026-01-13 10:11:16.35	54.64	73.04	-30.7	-46.0	3.8	1.50e+00	0	42	104	0	21	21139
2026-01-13 10:11:19.37	49.73	72.67	-31.0	-45.9	3.8	1.50e+00	0	42	104	0	22	19987
2026-01-13 10:11:22.39	45.06	72.19	-31.3	-46.2	3.8	1.50e+00	0	42	104	0	22	20096
2026-01-13 10:11:25.40	40.70	71.61	-31.5	-45.9	3.9	1.50e+00	0	42	104	0	23	19019
2026-01-13 10:11:28.42	36.62	70.93	-31.6	-45.6	3.9	1.50e+00	0	42	104	0	24	18057
2026-01-13 10:11:31.42	32.89	70.18	-31.6	-45.6	3.9	1.50e+00	0	42	104	0	24	17980
2026-01-13 10:11:34.43	29.44	69.36	-31.6	-45.6	3.8	1.50e+00	0	42	104	0	24	17921
2026-01-13 10:11:37.42	26.31	68.50	-31.8	-45.3	3.8	1.50e+00	0	42	104	0	25	16926
2026-01-13 10:11:40.42	23.44	67.58	-32.1	-45.5	3.8	1.50e+00	0	42	104	0	25	16840
2026-01-13 10:11:43.45	20.79	66.61	-34.0	-46.2	3.8	1.50e+00	0	42	104	0	28	14654
2026-01-13 10:11:46.46	18.40	65.63	-34.0	-46.2	3.8	1.49e+00	0	42	104	0	28	14657
2026-01-13 10:11:49.47	16.21	64.62	-34.0	-46.2	3.8	1.49e+00	0	42	104	0	28	14707
2026-01-13 10:11:52.47	14.21	63.59	-34.0	-46.2	3.8	1.49e+00	0	42	104	0	28	14717
2026-01-13 10:11:55.48	12.38	62.56	-34.0	-46.2	3.8	1.49e+00	0	42	104	0	28	14707
2026-01-13 10:11:58.49	10.71	61.51	-34.0	-46.2	3.8	1.49e+00	0	42	104	0	28	14668
2026-01-13 10:12:01.50	9.16	60.46	-34.0	-46.2	3.7	1.49e+00	0	42	104	0	28	14706
2026-01-13 10:12:04.51	7.75	59.41	-34.0	-46.2	3.8	1.49e+00	0	42	104	0	28	14680
2026-01-13 10:12:07.50	6.45	58.38	-34.0	-46.2	3.8	1.49e+00	0	42	104	0	28	14741
2026-01-13 10:12:10.52	5.23	57.33	-34.0	-46.2	3.8	1.49e+00	0	42	104	0	28	14666
2026-01-13 10:12:13.52	4.12	56.30	-34.0	-46.2	3.8	1.49e+00	0	42	104	0	28	14709
2026-01-13 10:12:16.52	3.08	55.28	-34.0	-46.3	3.8	1.49e+00	0	42	104	0	28	14744
2026-01-13 10:12:19.54	2.11	54.27	-34.0	-46.2	3.8	1.49e+00	0	42	104	0	28	14711
2026-01-13 10:12:22.53	1.22	53.27	-34.0	-46.2	3.8	1.49e+00	0	42	104	0	28	14748
2026-01-13 10:12:25.54	0.38	52.29	-34.0	-46.3	3.8	1.49e+00	0	42	104	0	28	14747
2026-01-13 10:12:28.52	359.60	51.32	-34.0	-46.2	3.8	1.49e+00	0	42	104	0	28	14685
2026-01-13 10:12:31.50	358.87	50.37	-34.0	-46.2	3.8	1.49e+00	0	42	104	0	28	14735
2026-01-13 10:12:34.50	358.18	49.43	-34.0	-46.2	3.8	1.49e+00	0	42	104	0	28	14704
2026-01-13 10:12:37.49	357.54	48.51	-34.0	-46.2	3.8	1.49e+00	0	42	104	0	28	14670
2026-01-13 10:12:40.49	356.93	47.59	-34.0	-46.2	3.8	1.49e+00	0	42	104	0	28	14709
2026-01-13 10:12:43.49	356.35	46.70	-34.0	-46.2	3.8	1.49e+00	0	42	104	0	28	14735
2026-01-13 10:12:46.49	355.81	45.82	-34.0	-46.2	3.8	1.49e+00	0	42	104	0	28	14723
2026-01-13 10:12:49.49	355.30	44.96	-34.0	-46.2	3.8	1.49e+00	0	42	104	0	28	14715
2026-01-13 10:12:52.49	354.82	44.11	-34.0	-46.2	3.8	1.49e+00	0	42	104	0	28	14726
2026-01-13 10:12:55.50	354.35	43.28	-34.0	-46.2	3.8	1.49e+00	0	42	104	0	28	14665
2026-01-13 10:12:58.51	353.92	42.46	-34.0	-46.2	3.8	1.49e+00	0	42	104	0	28	14721
2026-01-13 10:13:01.51	353.50	41.66	-34.0	-46.2	3.8	1.49e+00	0	43	104	0	28	14677
2026-01-13 10:13:04.52	353.11	40.87	-34.0	-46.2	3.8	1.49e+00	0	42	104	0	28	14726
2026-01-13 10:13:07.51	352.74	40.11	-34.0	-46.2	3.8	1.49e+00	0	42	104	0	28	14726
2026-01-13 10:13:10.51	352.38	39.35	-34.0	-46.2	3.8	1.49e+00	0	42	104	0	28	14701
2026-01-13 10:13:13.50	352.04	38.62	-34.0	-46.2	3.8	1.49e+00	0	42	104	0	28	14732
2026-01-13 10:13:16.50	351.71	37.89	-34.0	-46.2	3.8	1.49e+00	0	42	104	0	28	14726
2026-01-13 10:13:19.49	351.41	37.18	-34.0	-46.2	3.8	1.49e+00	0	42	104	0	28	14687
2026-01-13 10:13:22.50	351.11	36.49	-34.0	-46.2	3.8	1.49e+00	0	42	104	0	28	14702
2026-01-13 10:13:25.49	350.82	35.81	-34.0	-46.2	3.8	1.49e+00	0	42	104	0	28	14689
2026-01-13 10:13:28.48	350.55	35.14	-34.0	-46.2	3.8	1.49e+00	0	42	104	0	28	14727
2026-01-13 10:13:31.47	350.29	34.49	-34.0	-46.2	3.8	1.49e+00	0	42	104	0	28	14693
2026-01-13 10:13:34.47	350.04	33.84	-34.0	-46.2	3.8	1.49e+00	0	42	104	0	28	14717
2026-01-13 10:13:37.47	349.80	33.21	-34.0	-46.2	3.8	1.49e+00	0	42	104	0	28	14718
2026-01-13 10:13:40.49	349.57	32.59	-34.0	-46.2	3.8	1.49e+00	0	42	104	0	28	14701
2026-01-13 10:13:43.51	349.35	31.98	-34.0	-46.2	3.8	1.49e+00	0	42	104	0	28	14733
2026-01-13 10:13:46.52	349.13	31.39	-34.0	-46.2	3.8	1.49e+00	0	42	104	0	28	14710
2026-01-13 10:13:49.52	348.93	30.80	-34.0	-46.2	3.8	1.49e+00	0	42	104	0	28	14730
2026-01-13 10:13:52.54	348.73	30.23	-34.0	-46.2	3.8	1.49e+00	0	42	104	0	28	14676
2026-01-13 10:13:55.56	348.54	29.67	-34.0	-46.2	3.8	1.49e+00	0	42	104	0	28	14705
2026-01-13 10:13:58.58	348.35	29.11	-34.0	-46.2	3.8	1.49e+00	0	42	104	0	28	14700
2026-01-13 10:14:01.59	348.17	28.57	-34.0	-46.2	3.8	1.49e+00	0	43	104	0	28	14742
2026-01-13 10:14:04.61	348.00	28.04	-34.0	-46.2	3.8	1.49e+00	0	43	104	0	28	14714
2026-01-13 10:14:07.63	347.83	27.51	-34.0	-46.3	3.8	1.49e+00	0	43	104	0	28	14734
2026-01-13 10:14:10.65	347.67	27.00	-34.0	-46.3	3.8	1.49e+00	0	43	104	0	28	14776
2026-01-13 10:14:13.67	347.52	26.50	-34.0	-46.2	3.8	1.49e+00	0	43	104	0	28	14710
2026-01-13 10:14:16.69	347.37	26.00	-34.0	-46.2	3.8	1.49e+00	0	43	104	0	28	14713
2026-01-13 10:14:19.70	347.22	25.52	-34.0	-46.2	3.7	1.49e+00	0	43	104	0	28	14699
2026-01-13 10:14:22.73	347.08	25.04	-34.0	-46.3	3.8	1.49e+00	0	43	104	0	28	14744
2026-01-13 10:14:25.73	346.95	24.57	-34.0	-46.2	3.8	1.49e+00	0	43	104	0	28	14731
2026-01-13 10:14:28.73	346.82	24.11	-34.0	-46.2	3.8	1.49e+00	0	43	104	0	28	14685
2026-01-13 10:14:31.75	346.69	23.66	-34.0	-46.3	3.8	1.49e+00	0	43	104	0	28	14759
2026-01-13 10:14:34.77	346.57	23.21	-34.0	-46.3	3.8	1.49e+00	0	43	104	0	28	14732
2026-01-13 10:14:37.80	346.45	22.77	-34.0	-46.3	3.8	1.49e+00	0	43	104	0	28	14744
2026-01-13 10:14:40.82	346.33	22.34	-34.0	-46.3	3.8	1.49e+00	0	43	104	0	28	14764
2026-01-13 10:14:43.82	346.22	21.92	-34.0	-46.3	3.8	1.49e+00	0	43	104	0	28	14762
2026-01-13 10:14:46.83	346.11	21.50	-34.0	-46.2	3.8	1.49e+00	0	43	104	0	28	14726
2026-01-13 10:14:49.84	346.01	21.09	-34.0	-46.2	3.8	1.49e+00	0	43	104	0	28	14727
2026-01-13 10:14:52.86	345.90	20.69	-34.0	-46.2	3.8	1.49e+00	0	43	104	0	28	14708
2026-01-13 10:14:55.89	345.80	20.29	-34.0	-46.3	3.8	1.49e+00	0	43	104	0	28	14738
2026-01-13 10:14:58.90	345.70	19.90	-34.0	-46.3	3.8	1.49e+00	0	43	104	0	28	14770
2026-01-13 10:15:01.92	345.61	19.51	-34.0	-46.2	3.8	1.49e+00	0	43	104	0	28	14699
2026-01-13 10:15:04.94	345.52	19.13	-34.0	-46.3	3.8	1.49e+00	0	43	104	0	28	14743
2026-01-13 10:15:07.96	345.43	18.76	-34.0	-46.3	3.8	1.49e+00	0	43	104	0	28	14746
2026-01-13 10:15:10.97	345.34	18.39	-34.0	-46.2	3.8	1.49e+00	0	43	104	0	28	14728
2026-01-13 10:15:13.98	345.26	18.03	-34.0	-46.3	3.8	1.49e+00	0	43	104	0	28	14778
2026-01-13 10:15:17.00	345.18	17.67	-34.0	-46.2	3.8	1.49e+00	0	43	104	0	28	14710
2026-01-13 10:15:20.02	345.10	17.31	-34.0	-46.2	3.8	1.49e+00	0	43	104	0	28	14734
2026-01-13 10:15:23.05	345.02	16.97	-34.0	-46.2	3.8	1.49e+00	0	43	104	0	28	14711
2026-01-13 10:15:26.07	344.94	16.62	-34.0	-46.2	3.8	1.49e+00	0	43	104	0	28	14736
2026-01-13 10:15:29.09	344.87	16.28	-34.0	-46.3	3.8	1.49e+00	0	43	104	0	28	14744
2026-01-13 10:15:32.12	344.80	15.95	-34.0	-46.3	3.8	1.49e+00	0	43	104	0	28	14758
2026-01-13 10:15:35.14	344.73	15.62	-34.0	-46.2	3.8	1.49e+00	0	43	104	0	28	14718
2026-01-13 10:15:38.16	344.66	15.29	-34.0	-46.2	3.8	1.49e+00	0	43	104	0	28	14680
2026-01-13 10:15:41.18	344.59	14.97	-34.0	-46.2	3.8	1.49e+00	0	43	104	0	28	14741
2026-01-13 10:15:44.20	344.53	14.66	-34.0	-46.2	3.8	1.49e+00	0	43	104	0	28	14710
2026-01-13 10:15:47.22	344.46	14.34	-34.0	-46.3	3.8	1.49e+00	0	43	104	0	28	14755
2026-01-13 10:15:50.24	344.40	14.03	-34.0	-46.2	3.8	1.49e+00	0	43	104	0	28	14682
2026-01-13 10:15:53.26	344.34	13.73	-34.0	-46.2	3.8	1.49e+00	0	43	104	0	28	14692
2026-01-13 10:15:56.28	344.28	13.43	-34.0	-46.2	3.8	1.49e+00	0	43	104	0	28	14702
2026-01-13 10:15:59.30	344.22	13.13	-34.0	-46.3	3.8	1.49e+00	0	43	104	0	28	14750
2026-01-13 10:16:02.31	344.17	12.84	-34.0	-46.2	3.8	1.49e+00	0	43	104	0	28	14694
2026-01-13 10:16:05.33	344.11	12.55	-34.0	-46.2	3.8	1.49e+00	0	43	104	0	28	14719
2026-01-13 10:16:08.36	344.06	12.26	-34.0	-46.2	3.8	1.49e+00	0	43	104	0	28	14708
2026-01-13 10:16:11.38	344.01	11.97	-34.0	-46.2	3.8	1.49e+00	0	43	104	0	28	14719
2026-01-13 10:16:14.40	343.96	11.69	-34.0	-46.2	3.8	1.49e+00	0	43	104	0	28	14721
2026-01-13 10:16:17.41	343.91	11.42	-34.0	-46.2	3.8	1.49e+00	0	43	104	0	28	14721
2026-01-13 10:16:20.42	343.86	11.14	-34.0	-46.2	3.8	1.49e+00	0	43	104	0	28	14716
2026-01-13 10:16:23.44	343.81	10.87	-34.0	-46.2	3.8	1.49e+00	0	43	104	0	28	14699
2026-01-13 10:16:26.46	343.77	10.60	-34.0	-46.2	3.8	1.49e+00	0	43	104	0	28	14728
2026-01-13 10:16:29.48	343.72	10.34	-34.0	-46.2	3.8	1.49e+00	0	43	104	0	28	14683
2026-01-13 10:16:32.49	343.68	10.08	-34.0	-46.2	3.8	1.49e+00	0	43	104	0	28	14710
2026-01-13 10:16:35.51	343.63	9.82	-34.0	-46.2	3.8	1.49e+00	0	43	104	0	28	14738
2026-01-13 10:16:38.53	343.59	9.56	-34.0	-46.2	3.8	1.49e+00	0	43	104	0	28	14675
2026-01-13 10:16:41.55	343.55	9.31	-34.0	-46.2	3.8	1.49e+00	0	43	104	0	28	14655
2026-01-13 10:16:44.58	343.51	9.05	-34.0	-46.2	3.8	1.49e+00	0	43	104	0	28	14709
2026-01-13 10:16:47.59	343.47	8.80	-34.0	-46.2	3.8	1.49e+00	0	43	104	0	28	14665
2026-01-13 10:16:50.61	343.43	8.56	-34.0	-46.2	3.8	1.49e+00	0	43	104	0	28	14687
2026-01-13 10:16:53.63	343.39	8.31	-34.0	-46.2	3.8	1.49e+00	0	43	104	0	28	14688
2026-01-13 10:16:56.65	343.36	8.07	-34.0	-46.2	3.8	1.49e+00	0	43	104	0	28	14667
2026-01-13 10:16:59.67	343.32	7.83	-34.0	-46.2	3.8	1.49e+00	0	43	104	0	28	14665
2026-01-13 10:17:02.69	343.29	7.59	-34.0	-46.2	3.8	1.49e+00	0	43	104	0	28	14684
2026-01-13 10:17:05.71	343.25	7.36	-34.0	-46.2	3.8	1.49e+00	0	43	104	0	28	14662
2026-01-13 10:17:08.73	343.22	7.12	-34.0	-46.2	3.8	1.49e+00	0	43	104	0	28	14712

#Closed at: 2026-01-13 10:17:10
#Recorded file [0 MB]: D:/data/31010_260113_130511.dat