passes_logs/2026/01/13/R2M6_AANII_01/R2M6_AANII_01__20260113_043243_FENGYUN_3D_rec.log

#Pass ID: 20260113_043243_FENGYUN 3D
#Satellite: FENGYUN 3D
#Configuration: FENGYUN 3D
#almurnet v.1.7.20240730
#Start time: 2026-01-13 04:32:43

#Version: 2.2.20231116
#Station: R2M6_AANII_01
#Location: 30.233357 lon 59.946436 lat
#TLE: 1 43010U 17072A   26012.32543542  .00000598  00000+0  30457-3 0  9997
#TLE: 2 43010  98.9935 344.1005 0002233 112.6136 247.5276 14.19696644422876

#Time	Az	El	Level	Level2	SNR	BER	BlckErr	Temp	State	Recorded	gain1	gain2
2026-01-13 04:32:43.02	10.46	6.97	-31.9	-38.2	4.2	8.36e-01	0	40	0	0	24	7513
2026-01-13 04:32:46.04	10.17	7.16	-31.3	-36.6	6.3	3.02e-01	0	39	0	5242880	22	6612
2026-01-13 04:32:49.06	9.87	7.35	-31.3	-36.5	6.4	2.81e-01	0	40	0	22020096	22	6554
2026-01-13 04:32:52.07	9.56	7.53	-31.0	-35.5	7.2	1.36e-01	0	40	0	38797312	22	6006
2026-01-13 04:32:55.09	9.25	7.72	-29.7	-32.9	10.1	7.65e-03	0	40	0	56623104	19	5201
2026-01-13 04:32:58.12	8.94	7.91	-28.3	-30.2	12.5	1.15e-04	0	40	0	73400320	17	4487
2026-01-13 04:33:01.14	8.62	8.09	-27.3	-28.8	13.8	3.40e-06	0	40	0	90177536	15	4306
2026-01-13 04:33:04.16	8.30	8.28	-27.2	-29.2	13.8	2.20e-06	0	40	0	106954752	14	4534
2026-01-13 04:33:07.18	7.98	8.47	-27.2	-29.3	13.8	2.20e-06	0	40	0	124780544	14	4551
2026-01-13 04:33:10.18	7.65	8.66	-27.2	-29.1	13.9	3.40e-06	0	40	0	141557760	14	4503
2026-01-13 04:33:13.20	7.32	8.85	-26.9	-28.5	14.3	0.00e+00	0	40	0	158334976	14	4333
2026-01-13 04:33:16.21	6.98	9.04	-26.8	-28.3	14.5	0.00e+00	0	40	0	175112192	14	4260
2026-01-13 04:33:19.22	6.64	9.23	-27.1	-28.9	14.1	0.00e+00	0	40	0	191889408	14	4447
2026-01-13 04:33:22.24	6.29	9.42	-27.0	-28.7	14.2	0.00e+00	0	41	0	208666624	14	4391
2026-01-13 04:33:25.26	5.94	9.61	-26.9	-28.5	14.4	0.00e+00	0	41	0	225443840	14	4331
2026-01-13 04:33:28.28	5.58	9.81	-26.9	-28.9	14.4	0.00e+00	0	41	0	243269632	13	4539
2026-01-13 04:33:31.30	5.22	10.00	-26.8	-28.7	14.6	0.00e+00	0	41	0	260046848	13	4477
2026-01-13 04:33:34.32	4.85	10.19	-26.5	-28.5	15.0	0.00e+00	0	41	0	276824064	12	4537
2026-01-13 04:33:37.34	4.48	10.39	-26.4	-28.3	15.1	0.00e+00	0	41	0	293601280	12	4490
2026-01-13 04:33:40.36	4.10	10.58	-26.4	-28.4	15.1	1.10e-06	0	41	0	310378496	12	4508
2026-01-13 04:33:43.37	3.72	10.77	-26.5	-28.1	15.0	1.67e-03	0	41	0	328204288	13	4311
2026-01-13 04:33:46.39	3.33	10.97	-26.4	-28.4	15.1	0.00e+00	0	41	0	344981504	12	4505
2026-01-13 04:33:49.40	2.94	11.16	-26.4	-28.2	15.2	1.74e-03	0	41	0	361758720	12	4468
2026-01-13 04:33:52.42	2.54	11.36	-26.6	-28.3	14.9	1.73e-03	0	41	0	378535936	13	4376
2026-01-13 04:33:55.44	2.14	11.55	-26.5	-28.0	15.0	1.57e-03	0	41	0	395313152	13	4287
2026-01-13 04:33:58.46	1.73	11.75	-26.5	-28.1	15.0	1.72e-03	0	41	0	412090368	13	4325
2026-01-13 04:34:01.48	1.31	11.94	-26.3	-28.0	15.4	1.60e-03	0	41	0	429916160	12	4402
2026-01-13 04:34:04.50	0.89	12.14	-26.4	-28.2	15.2	1.46e-03	0	41	0	446693376	12	4456
2026-01-13 04:34:07.52	0.46	12.33	-26.4	-28.2	15.2	0.00e+00	0	41	0	463470592	12	4464
2026-01-13 04:34:10.54	0.03	12.53	-26.4	-28.3	15.2	0.00e+00	0	41	0	480247808	12	4471
2026-01-13 04:34:13.56	359.59	12.72	-26.6	-28.2	15.0	1.50e-03	0	41	0	497025024	13	4329
2026-01-13 04:34:16.58	359.15	12.92	-26.5	-28.0	15.1	0.00e+00	0	41	0	514850816	13	4280
2026-01-13 04:34:19.59	358.70	13.11	-26.4	-28.4	15.2	0.00e+00	0	41	0	531628032	12	4498
2026-01-13 04:34:22.62	358.24	13.31	-25.8	-26.9	16.0	0.00e+00	0	41	0	548405248	12	4094
2026-01-13 04:34:25.63	357.78	13.50	-25.9	-27.3	15.8	0.00e+00	0	42	0	565182464	12	4190
2026-01-13 04:34:28.65	357.31	13.69	-25.6	-27.0	16.3	0.00e+00	0	41	0	581959680	11	4243
2026-01-13 04:34:31.66	356.84	13.89	-25.7	-27.2	16.2	0.00e+00	0	42	0	599785472	11	4297
2026-01-13 04:34:34.66	356.36	14.08	-25.7	-27.2	16.2	0.00e+00	0	41	0	616562688	11	4281
2026-01-13 04:34:37.68	355.87	14.27	-25.9	-27.6	16.0	0.00e+00	0	42	0	633339904	11	4406
2026-01-13 04:34:40.70	355.38	14.46	-25.7	-27.2	16.2	0.00e+00	0	42	0	650117120	11	4288
2026-01-13 04:34:43.71	354.88	14.65	-25.8	-27.5	16.1	0.00e+00	0	42	0	666894336	11	4352
2026-01-13 04:34:46.73	354.37	14.84	-25.8	-27.4	16.2	0.00e+00	0	42	0	684720128	11	4329
2026-01-13 04:34:49.75	353.86	15.03	-25.6	-27.1	16.3	0.00e+00	0	42	0	701497344	11	4249
2026-01-13 04:34:52.76	353.34	15.22	-25.4	-26.6	16.6	0.00e+00	0	42	0	718274560	11	4123
2026-01-13 04:34:55.79	352.81	15.41	-25.2	-26.6	13.9	0.00e+00	0	42	0	735051776	10	4242
2026-01-13 04:34:58.80	352.27	15.60	-25.5	-27.2	16.6	0.00e+00	0	42	0	751828992	10	4390
2026-01-13 04:35:01.82	351.73	15.78	-25.6	-27.0	16.4	0.00e+00	0	42	0	769654784	11	4230
2026-01-13 04:35:04.84	351.19	15.97	-25.7	-27.2	16.3	7.72e-04	0	42	0	786432000	11	4270
2026-01-13 04:35:07.86	350.63	16.15	-25.4	-26.5	16.7	8.64e-04	0	42	0	803209216	11	4090
2026-01-13 04:35:10.88	350.07	16.33	-25.2	-26.6	16.9	0.00e+00	0	42	0	819986432	10	4238
2026-01-13 04:35:13.89	349.50	16.51	-25.1	-26.3	17.1	1.04e-03	0	42	0	836763648	10	4155
2026-01-13 04:35:16.90	348.93	16.69	-25.0	-26.2	17.1	8.47e-04	0	42	0	853540864	10	4134
2026-01-13 04:35:19.92	348.34	16.87	-25.1	-26.3	17.1	3.47e-04	0	42	0	870318080	10	4152
2026-01-13 04:35:22.93	347.76	17.04	-25.1	-26.5	17.0	3.00e-04	0	42	0	888143872	10	4196
2026-01-13 04:35:25.95	347.16	17.21	-25.0	-26.1	17.2	2.32e-04	0	42	0	904921088	10	4118
2026-01-13 04:35:28.97	346.56	17.38	-24.8	-26.2	17.4	3.51e-04	0	42	0	921698304	9	4236
2026-01-13 04:35:31.98	345.95	17.55	-24.8	-26.2	17.4	0.00e+00	0	42	0	938475520	9	4254
2026-01-13 04:35:34.99	345.33	17.72	-25.0	-26.2	17.2	1.22e-03	0	42	0	955252736	10	4125
2026-01-13 04:35:38.02	344.71	17.88	-24.7	-26.0	17.6	1.34e-03	0	42	0	973078528	9	4188
2026-01-13 04:35:41.03	344.08	18.05	-24.6	-25.9	17.6	0.00e+00	0	42	0	989855744	9	4166
2026-01-13 04:35:44.04	343.44	18.20	-24.9	-26.4	17.3	0.00e+00	0	42	0	1006632960	9	4298
2026-01-13 04:35:47.06	342.80	18.36	-24.3	-25.6	18.0	3.73e-04	0	41	0	1023410176	8	4215
2026-01-13 04:35:50.07	342.15	18.51	-24.3	-25.6	18.0	0.00e+00	0	42	0	1040187392	8	4204
2026-01-13 04:35:53.08	341.49	18.66	-24.9	-26.5	17.3	0.00e+00	0	42	0	1058013184	9	4314
2026-01-13 04:35:56.10	340.82	18.81	-24.2	-25.5	18.1	0.00e+00	0	42	0	1074790400	8	4166
2026-01-13 04:35:59.12	340.15	18.96	-24.7	-26.1	17.5	0.00e+00	0	42	0	1091567616	9	4207
2026-01-13 04:36:02.15	339.47	19.10	-24.2	-24.9	18.2	0.00e+00	0	42	0	1108344832	9	3905
2026-01-13 04:36:05.16	338.79	19.24	-24.2	-25.4	18.1	0.00e+00	0	42	0	1125122048	8	4151
2026-01-13 04:36:08.19	338.10	19.37	-24.0	-25.0	18.3	0.00e+00	0	42	0	1142947840	8	4047
2026-01-13 04:36:11.22	337.40	19.50	-24.0	-25.2	18.3	0.00e+00	0	42	0	1159725056	8	4089
2026-01-13 04:36:14.23	336.70	19.63	-24.2	-25.6	18.1	0.00e+00	0	42	0	1176502272	8	4195
2026-01-13 04:36:17.24	335.99	19.75	-24.3	-25.8	17.9	0.00e+00	0	42	0	1193279488	8	4245
2026-01-13 04:36:20.25	335.28	19.87	-24.2	-25.5	18.1	0.00e+00	0	42	0	1210056704	8	4173
2026-01-13 04:36:23.27	334.56	19.99	-24.2	-25.4	18.2	0.00e+00	0	42	0	1227882496	8	4140
2026-01-13 04:36:26.29	333.84	20.10	-24.1	-25.2	18.2	0.00e+00	0	42	0	1244659712	8	4098
2026-01-13 04:36:29.31	333.11	20.20	-23.8	-24.7	18.5	0.00e+00	0	42	0	1261436928	8	3974
2026-01-13 04:36:32.33	332.37	20.30	-23.7	-24.8	18.7	0.00e+00	0	42	0	1278214144	7	4116
2026-01-13 04:36:35.34	331.63	20.40	-23.7	-24.9	18.7	0.00e+00	0	42	0	1294991360	7	4123
2026-01-13 04:36:38.36	330.89	20.49	-23.6	-24.7	18.7	0.00e+00	0	42	0	1311768576	7	4098
2026-01-13 04:36:41.38	330.14	20.58	-23.4	-24.2	19.0	0.00e+00	0	42	0	1329594368	7	3961
2026-01-13 04:36:44.39	329.39	20.66	-23.3	-24.1	19.0	0.00e+00	0	42	0	1346371584	7	3944
2026-01-13 04:36:47.41	328.63	20.74	-23.4	-24.2	19.0	0.00e+00	0	42	0	1363148800	7	3959
2026-01-13 04:36:50.43	327.87	20.81	-23.5	-24.5	18.8	0.00e+00	0	42	0	1379926016	7	4035
2026-01-13 04:36:53.45	327.10	20.88	-23.5	-24.5	18.8	0.00e+00	0	42	0	1396703232	7	4044
2026-01-13 04:36:56.48	326.33	20.94	-23.8	-25.1	18.6	0.00e+00	0	42	0	1414529024	7	4182
2026-01-13 04:36:59.48	325.57	21.00	-23.7	-24.9	18.7	4.57e-05	0	42	0	1431306240	7	4129
2026-01-13 04:37:02.51	324.79	21.05	-23.6	-24.7	18.8	1.33e-04	0	42	0	1448083456	7	4088
2026-01-13 04:37:05.53	324.01	21.10	-23.6	-24.7	18.8	0.00e+00	0	42	0	1464860672	7	4090
2026-01-13 04:37:08.55	323.23	21.14	-23.5	-24.5	18.9	0.00e+00	0	42	0	1481637888	7	4033
2026-01-13 04:37:11.56	322.46	21.17	-23.4	-24.3	19.0	0.00e+00	0	42	0	1498415104	7	3978
2026-01-13 04:37:14.58	321.67	21.20	-23.3	-24.6	19.0	0.00e+00	0	42	0	1516240896	6	4185
2026-01-13 04:37:17.58	320.89	21.22	-23.4	-24.9	18.9	0.00e+00	0	42	0	1533018112	6	4247
2026-01-13 04:37:20.60	320.11	21.24	-23.7	-25.0	18.6	0.00e+00	0	42	0	1549795328	7	4152
2026-01-13 04:37:23.63	319.32	21.26	-23.8	-25.1	18.6	0.00e+00	0	42	0	1566572544	7	4178
2026-01-13 04:37:26.66	318.53	21.26	-23.7	-24.9	18.7	0.00e+00	0	42	0	1583349760	7	4136
2026-01-13 04:37:29.68	317.75	21.26	-23.4	-24.3	19.0	0.00e+00	0	42	0	1601175552	7	3988
2026-01-13 04:37:32.69	316.96	21.26	-23.4	-24.7	19.1	0.00e+00	0	42	0	1617952768	6	4193
2026-01-13 04:37:35.71	316.18	21.25	-23.4	-24.7	19.0	0.00e+00	0	42	0	1634729984	6	4191
2026-01-13 04:37:38.72	315.39	21.23	-23.5	-24.6	18.9	0.00e+00	0	42	0	1651507200	7	4055
2026-01-13 04:37:41.74	314.61	21.21	-23.0	-24.0	15.9	0.00e+00	0	42	0	1668284416	7	4022
2026-01-13 04:37:44.76	313.83	21.18	-23.8	-25.1	18.1	1.47e-03	0	42	0	1685061632	7	4183
2026-01-13 04:37:47.78	313.04	21.15	-24.1	-25.4	18.2	0.00e+00	0	42	0	1702887424	8	4137
2026-01-13 04:37:50.80	312.26	21.11	-23.8	-24.6	18.6	0.00e+00	0	42	0	1719664640	8	3952
2026-01-13 04:37:53.82	311.49	21.07	-23.7	-24.8	18.7	1.41e-03	0	42	0	1736441856	7	4121
2026-01-13 04:37:56.84	310.71	21.02	-23.6	-24.7	18.8	1.33e-03	0	42	0	1753219072	7	4090
2026-01-13 04:37:59.85	309.94	20.96	-23.7	-24.8	18.7	0.00e+00	0	42	0	1769996288	7	4116
2026-01-13 04:38:02.88	309.17	20.90	-23.6	-24.6	18.8	1.22e-03	0	42	0	1787822080	7	4064
2026-01-13 04:38:05.88	308.41	20.83	-23.6	-24.7	18.8	8.88e-04	0	42	0	1804599296	7	4074
2026-01-13 04:38:08.90	307.64	20.76	-23.4	-24.3	19.0	1.39e-03	0	42	0	1821376512	7	3986
2026-01-13 04:38:11.91	306.88	20.69	-23.7	-24.9	18.7	1.20e-03	0	42	0	1838153728	7	4137
2026-01-13 04:38:14.91	306.13	20.61	-23.4	-24.2	19.0	7.47e-04	0	42	0	1854930944	7	3973
2026-01-13 04:38:17.92	305.38	20.52	-23.5	-24.4	18.9	7.09e-04	0	42	0	1871708160	7	4011
2026-01-13 04:38:20.94	304.64	20.43	-23.7	-24.8	18.7	0.00e+00	0	42	0	1889533952	7	4111
2026-01-13 04:38:23.94	303.90	20.33	-23.8	-25.1	18.6	0.00e+00	0	42	0	1906311168	7	4177
2026-01-13 04:38:26.96	303.16	20.23	-23.3	-24.0	19.1	7.45e-04	0	42	0	1923088384	7	3909
2026-01-13 04:38:29.98	302.43	20.13	-23.5	-24.5	18.8	0.00e+00	0	42	0	1939865600	7	4031
2026-01-13 04:38:32.99	301.70	20.02	-23.6	-24.6	18.8	0.00e+00	0	42	0	1956642816	7	4060
2026-01-13 04:38:36.01	300.98	19.91	-23.9	-25.2	18.5	0.00e+00	0	42	0	1973420032	7	4223
2026-01-13 04:38:39.02	300.26	19.79	-24.2	-25.4	18.1	0.00e+00	0	42	0	1991245824	8	4157
2026-01-13 04:38:42.05	299.55	19.67	-24.1	-25.2	18.2	0.00e+00	0	42	0	2008023040	8	4084
2026-01-13 04:38:45.06	298.84	19.54	-23.7	-24.4	18.6	0.00e+00	0	42	0	2024800256	8	3906
2026-01-13 04:38:48.06	298.15	19.41	-23.7	-24.9	18.6	0.00e+00	0	42	0	2041577472	7	4131
2026-01-13 04:38:51.07	297.46	19.28	-23.8	-25.1	18.5	0.00e+00	0	42	0	2058354688	7	4183
2026-01-13 04:38:54.09	296.77	19.14	-23.9	-25.3	18.4	0.00e+00	0	42	0	2075131904	7	4229
2026-01-13 04:38:57.10	296.09	19.00	-24.5	-25.7	17.7	0.00e+00	0	42	0	2092957696	9	4121
2026-01-13 04:39:00.12	295.41	18.86	-24.0	-25.0	18.3	0.00e+00	0	42	0	2109734912	8	4040
2026-01-13 04:39:03.13	294.75	18.71	-24.1	-25.4	18.1	0.00e+00	0	42	0	2126512128	8	4142
2026-01-13 04:39:06.15	294.08	18.56	-24.1	-25.4	18.1	0.00e+00	0	42	0	2143289344	8	4140
2026-01-13 04:39:09.18	293.42	18.41	-24.2	-25.5	18.0	0.00e+00	0	42	0	2160066560	8	4184
2026-01-13 04:39:12.20	292.77	18.25	-24.1	-25.3	18.1	0.00e+00	0	42	0	2177892352	8	4134
2026-01-13 04:39:15.22	292.13	18.09	-24.4	-25.8	17.8	0.00e+00	0	42	0	2194669568	8	4259
2026-01-13 04:39:18.24	291.50	17.93	-24.7	-26.1	17.4	1.28e-03	0	42	0	2211446784	9	4226
2026-01-13 04:39:21.26	290.87	17.77	-24.7	-25.9	17.5	1.48e-03	0	42	0	2228224000	9	4179
2026-01-13 04:39:24.27	290.25	17.60	-24.7	-26.0	17.4	6.60e-04	0	42	0	2245001216	9	4199
2026-01-13 04:39:27.28	289.63	17.43	-24.6	-25.9	17.5	1.64e-03	0	42	0	2262827008	9	4176
2026-01-13 04:39:30.30	289.03	17.26	-24.5	-25.5	17.6	1.59e-03	0	42	0	2279604224	9	4076
2026-01-13 04:39:33.33	288.42	17.09	-24.3	-25.3	17.8	1.45e-03	0	42	0	2296381440	9	4005
2026-01-13 04:39:36.34	287.83	16.91	-24.5	-26.1	17.6	0.00e+00	0	42	0	2313158656	8	4329
2026-01-13 04:39:39.35	287.24	16.74	-24.5	-25.7	17.6	1.53e-03	0	42	0	2329935872	9	4116
2026-01-13 04:39:42.37	286.66	16.56	-24.5	-25.7	17.5	1.58e-03	0	42	0	2346713088	9	4126
2026-01-13 04:39:45.39	286.09	16.38	-24.5	-25.6	17.6	0.00e+00	0	42	0	2364538880	9	4095
2026-01-13 04:39:48.41	285.52	16.20	-24.7	-26.0	17.4	0.00e+00	0	42	0	2381316096	9	4183
2026-01-13 04:39:51.43	284.96	16.01	-24.7	-26.1	17.3	0.00e+00	0	42	0	2398093312	9	4225
2026-01-13 04:39:54.45	284.41	15.83	-24.6	-25.7	17.5	0.00e+00	0	42	0	2414870528	9	4128
2026-01-13 04:39:57.47	283.87	15.64	-24.8	-26.3	17.2	0.00e+00	0	42	0	2432696320	9	4271
2026-01-13 04:40:00.49	283.33	15.46	-24.8	-26.3	17.2	0.00e+00	0	42	0	2449473536	9	4267
2026-01-13 04:40:03.51	282.79	15.27	-24.6	-25.9	17.4	0.00e+00	0	42	0	2466250752	9	4161
2026-01-13 04:40:06.54	282.27	15.08	-24.8	-26.4	17.1	0.00e+00	0	42	0	2483027968	9	4307
2026-01-13 04:40:09.55	281.75	14.89	-24.7	-26.1	17.3	0.00e+00	0	42	0	2499805184	9	4217
2026-01-13 04:40:12.55	281.24	14.70	-24.9	-26.5	17.0	0.00e+00	0	42	0	2516582400	9	4331
2026-01-13 04:40:15.57	280.74	14.51	-25.2	-26.6	16.7	0.00e+00	0	42	0	2533359616	10	4233
2026-01-13 04:40:18.59	280.24	14.31	-25.2	-26.6	16.7	0.00e+00	0	42	0	2551185408	10	4242
2026-01-13 04:40:21.60	279.75	14.12	-25.1	-26.5	16.7	0.00e+00	0	42	0	2567962624	10	4213
2026-01-13 04:40:24.62	279.26	13.93	-25.2	-26.7	16.6	0.00e+00	0	42	0	2584739840	10	4275
2026-01-13 04:40:27.64	278.78	13.73	-25.1	-26.5	16.7	0.00e+00	0	42	0	2601517056	10	4214
2026-01-13 04:40:30.65	278.31	13.54	-25.3	-26.8	16.5	0.00e+00	0	42	0	2618294272	10	4311
2026-01-13 04:40:33.67	277.84	13.35	-25.8	-27.4	15.4	0.00e+00	0	42	0	2635071488	11	4340
2026-01-13 04:40:36.69	277.38	13.15	-25.3	-26.9	16.5	0.00e+00	0	42	0	2652897280	10	4326
2026-01-13 04:40:39.71	276.93	12.96	-25.7	-27.2	16.0	0.00e+00	0	42	0	2669674496	11	4289
2026-01-13 04:40:42.73	276.48	12.76	-25.7	-27.2	16.0	3.50e-04	0	42	0	2686451712	11	4279
2026-01-13 04:40:45.76	276.03	12.56	-25.6	-27.1	16.0	1.25e-05	0	42	0	2703228928	11	4274
2026-01-13 04:40:48.78	275.60	12.37	-25.6	-27.0	16.1	0.00e+00	0	42	0	2721054720	11	4231
2026-01-13 04:40:51.80	275.16	12.17	-25.6	-27.0	16.1	2.76e-04	0	42	0	2737831936	11	4245
2026-01-13 04:40:54.81	274.74	11.98	-25.6	-27.0	16.1	3.11e-04	0	42	0	2754609152	11	4233
2026-01-13 04:40:57.83	274.32	11.78	-25.7	-27.2	16.0	1.50e-04	0	42	0	2771386368	11	4285
2026-01-13 04:41:00.85	273.91	11.59	-25.9	-27.7	15.7	0.00e+00	0	42	0	2788163584	11	4426
2026-01-13 04:41:03.87	273.50	11.39	-26.0	-27.9	15.5	6.63e-05	0	42	0	2805989376	11	4496
2026-01-13 04:41:06.89	273.10	11.19	-25.9	-27.3	15.5	0.00e+00	0	42	0	2822766592	12	4220
2026-01-13 04:41:09.89	272.70	11.00	-26.0	-27.9	15.5	0.00e+00	0	42	0	2839543808	11	4489
2026-01-13 04:41:12.91	272.31	10.81	-26.1	-27.7	15.3	0.00e+00	0	42	0	2856321024	12	4310
2026-01-13 04:41:15.93	271.92	10.61	-26.0	-27.4	15.4	0.00e+00	0	42	0	2873098240	12	4254
2026-01-13 04:41:18.95	271.54	10.42	-26.0	-27.4	15.4	0.00e+00	0	42	0	2889875456	12	4259
2026-01-13 04:41:21.97	271.17	10.22	-26.0	-27.5	15.4	0.00e+00	0	42	0	2907701248	12	4265
2026-01-13 04:41:24.99	270.79	10.03	-26.0	-27.5	15.3	1.10e-06	0	42	0	2924478464	12	4285
2026-01-13 04:41:28.00	270.43	9.84	-26.3	-28.0	15.0	0.00e+00	0	42	0	2941255680	12	4422
2026-01-13 04:41:31.02	270.07	9.64	-26.2	-27.9	15.0	0.00e+00	0	42	0	2958032896	12	4387
2026-01-13 04:41:34.04	269.71	9.45	-26.3	-28.1	14.9	1.10e-06	0	42	0	2974810112	12	4439
2026-01-13 04:41:37.06	269.36	9.26	-26.4	-28.4	14.8	0.00e+00	0	42	0	2992635904	12	4516
2026-01-13 04:41:40.07	269.01	9.07	-26.5	-28.2	14.5	0.00e+00	0	42	0	3009413120	13	4362
2026-01-13 04:41:43.09	268.67	8.87	-26.7	-28.7	14.2	4.50e-06	0	42	0	3026190336	13	4503
2026-01-13 04:41:46.11	268.33	8.68	-26.6	-28.3	14.4	3.40e-06	0	42	0	3042967552	13	4387
2026-01-13 04:41:49.12	268.00	8.49	-26.1	-27.7	13.5	0.00e+00	0	42	0	3059744768	13	4320
2026-01-13 04:41:52.14	267.67	8.30	-26.6	-28.9	11.4	1.10e-06	0	42	0	3077570560	12	4706
2026-01-13 04:41:55.16	267.35	8.12	-26.6	-28.5	14.1	0.00e+00	0	42	0	3094347776	13	4448
2026-01-13 04:41:58.17	267.03	7.93	-26.6	-28.5	14.3	3.07e-03	0	42	0	3111124992	13	4448
2026-01-13 04:42:01.20	266.71	7.74	-26.6	-28.4	14.3	0.00e+00	0	42	0	3127902208	13	4412
2026-01-13 04:42:04.22	266.40	7.55	-26.7	-28.7	14.1	0.00e+00	0	42	0	3144679424	13	4513
2026-01-13 04:42:07.24	266.09	7.36	-27.0	-28.8	13.7	1.32e-03	0	42	0	3162505216	14	4437
2026-01-13 04:42:10.26	265.78	7.18	-26.8	-28.9	13.9	2.03e-03	0	42	0	3179282432	13	4578
2026-01-13 04:42:13.27	265.49	6.99	-33.0	-44.5	3.8	8.47e-01	0	42	104	3190816768	25	13572

#Closed at: 2026-01-13 04:42:14
#Recorded file [3190 MB]: D:/data/31010_260113_073244.dat