passes_logs/2026/01/13/R2M6_AANII_01/R2M6_AANII_01__20260113_024508_AQUA_rec.log

#Pass ID: 20260113_024508_AQUA
#Satellite: AQUA
#Configuration: AQUA
#almurnet v.1.7.20240730
#Start time: 2026-01-13 02:45:08

#Version: 2.2.20231116
#Station: R2M6_AANII_01
#Location: 30.233357 lon 59.946436 lat
#TLE: 1 27424U 02022A   26012.29577270  .00001027  00000+0  21555-3 0  9995
#TLE: 2 27424  98.4078 338.6778 0002034  81.5885  29.6294 14.61817302260499

#Time	Az	El	Level	Level2	SNR	BER	BlckErr	Temp	State	Recorded	gain1	gain2
2026-01-13 02:45:08.93	12.36	7.05	-32.1	-40.1	4.8	7.15e-01	0	39	0	0	26	9042
2026-01-13 02:45:11.94	12.22	7.28	-32.2	-39.9	10.7	6.16e-01	0	40	0	1572864	26	8741
2026-01-13 02:45:14.97	12.07	7.53	-32.0	-38.5	12.0	6.10e-01	0	40	0	7340032	26	7614
2026-01-13 02:45:17.98	11.93	7.77	-32.0	-38.5	12.1	6.09e-01	0	40	0	13107200	26	7571
2026-01-13 02:45:21.00	11.78	8.02	-32.0	-38.4	12.2	6.07e-01	0	40	0	18874368	26	7501
2026-01-13 02:45:24.01	11.63	8.26	-31.2	-35.7	15.1	6.03e-01	0	40	0	24117248	24	6090
2026-01-13 02:45:27.02	11.47	8.52	-30.3	-33.7	17.2	6.02e-01	0	40	0	29884416	22	5363
2026-01-13 02:45:30.04	11.31	8.77	-30.4	-34.0	17.1	6.03e-01	0	40	0	35651584	22	5464
2026-01-13 02:45:33.07	11.15	9.03	-30.4	-34.0	17.2	6.05e-01	0	40	0	41418752	22	5474
2026-01-13 02:45:36.08	10.99	9.29	-30.6	-34.6	16.7	6.04e-01	0	40	0	47185920	22	5732
2026-01-13 02:45:39.10	10.82	9.55	-30.0	-32.7	18.1	6.05e-01	0	40	0	52428800	22	4945
2026-01-13 02:45:42.11	10.65	9.81	-29.9	-33.1	18.2	6.04e-01	0	41	0	58195968	21	5188
2026-01-13 02:45:45.14	10.47	10.08	-30.0	-33.3	18.1	6.01e-01	0	40	0	63963136	21	5257
2026-01-13 02:45:48.16	10.29	10.35	-30.1	-33.5	18.0	6.03e-01	0	41	0	69730304	21	5333
2026-01-13 02:45:51.18	10.11	10.63	-29.8	-32.6	18.6	6.01e-01	0	41	0	74973184	21	5007
2026-01-13 02:45:54.20	9.92	10.90	-29.8	-32.7	18.5	6.03e-01	0	41	0	80740352	21	5045
2026-01-13 02:45:57.22	9.73	11.18	-29.8	-32.7	18.5	6.03e-01	0	41	0	86507520	21	5044
2026-01-13 02:46:00.23	9.54	11.47	-29.6	-32.2	18.8	6.04e-01	0	41	0	92274688	21	4857
2026-01-13 02:46:03.25	9.34	11.76	-29.5	-31.8	19.1	6.05e-01	0	41	0	98041856	21	4714
2026-01-13 02:46:06.26	9.14	12.04	-29.4	-31.7	19.2	6.03e-01	0	41	0	103284736	21	4684
2026-01-13 02:46:09.27	8.93	12.34	-29.3	-32.0	19.4	6.02e-01	0	41	0	109051904	20	4861
2026-01-13 02:46:12.28	8.71	12.63	-29.2	-31.6	19.6	6.02e-01	0	41	0	114819072	20	4749
2026-01-13 02:46:15.29	8.50	12.94	-29.2	-31.7	19.6	6.02e-01	0	41	0	120586240	20	4758
2026-01-13 02:46:18.30	8.27	13.24	-29.3	-31.7	19.6	6.01e-01	0	41	0	126353408	20	4766
2026-01-13 02:46:21.33	8.04	13.55	-29.2	-31.6	19.7	6.05e-01	0	41	0	131596288	20	4735
2026-01-13 02:46:24.34	7.81	13.86	-29.3	-31.8	19.5	6.05e-01	0	41	0	137363456	20	4801
2026-01-13 02:46:27.34	7.57	14.18	-29.3	-31.9	19.5	6.04e-01	0	41	0	143130624	20	4827
2026-01-13 02:46:30.37	7.33	14.50	-29.4	-32.1	19.4	6.03e-01	0	41	0	148897792	20	4900
2026-01-13 02:46:33.39	7.07	14.82	-29.2	-31.6	19.8	6.02e-01	0	41	0	154664960	20	4729
2026-01-13 02:46:36.41	6.81	15.15	-29.2	-31.4	19.9	6.03e-01	0	41	0	159907840	20	4670
2026-01-13 02:46:39.42	6.55	15.49	-29.2	-31.6	19.8	6.03e-01	0	41	0	165675008	20	4713
2026-01-13 02:46:42.43	6.28	15.83	-29.2	-31.5	19.8	6.02e-01	0	42	0	171442176	20	4703
2026-01-13 02:46:45.46	6.00	16.17	-29.2	-31.5	19.9	6.03e-01	0	41	0	177209344	20	4693
2026-01-13 02:46:48.48	5.72	16.52	-29.3	-31.7	19.8	6.03e-01	0	41	0	182976512	20	4738
2026-01-13 02:46:51.50	5.42	16.87	-29.3	-31.6	19.8	6.04e-01	0	41	0	188219392	20	4729
2026-01-13 02:46:54.51	5.12	17.23	-29.3	-31.7	19.8	6.03e-01	0	41	0	193986560	20	4749
2026-01-13 02:46:57.52	4.81	17.59	-29.3	-31.7	19.8	6.01e-01	0	42	0	199753728	20	4737
2026-01-13 02:47:00.54	4.50	17.96	-29.3	-31.6	19.9	6.01e-01	0	41	0	205520896	20	4703
2026-01-13 02:47:03.56	4.17	18.33	-29.2	-31.5	19.9	6.02e-01	0	41	0	210763776	20	4688
2026-01-13 02:47:06.58	3.84	18.71	-29.3	-31.6	19.9	6.03e-01	0	42	0	216530944	20	4720
2026-01-13 02:47:09.59	3.49	19.09	-29.2	-31.4	20.0	6.04e-01	0	41	0	222298112	20	4652
2026-01-13 02:47:12.60	3.14	19.48	-29.2	-31.5	20.0	6.07e-01	0	41	0	228065280	20	4670
2026-01-13 02:47:15.62	2.78	19.87	-29.2	-31.5	20.0	6.06e-01	0	42	0	233308160	20	4679
2026-01-13 02:47:18.63	2.41	20.27	-29.3	-31.7	19.9	6.02e-01	0	41	0	239075328	20	4732
2026-01-13 02:47:21.65	2.02	20.68	-29.3	-31.7	19.9	5.99e-01	0	42	0	244842496	20	4723
2026-01-13 02:47:24.67	1.63	21.09	-29.3	-31.7	19.9	6.03e-01	0	42	0	250609664	20	4741
2026-01-13 02:47:27.67	1.22	21.51	-29.4	-32.0	19.8	6.02e-01	0	42	0	256376832	20	4824
2026-01-13 02:47:30.69	0.80	21.93	-29.5	-32.2	19.7	6.03e-01	0	41	0	261619712	20	4891
2026-01-13 02:47:33.71	0.37	22.36	-29.5	-32.3	19.6	6.00e-01	0	42	0	267386880	20	4928
2026-01-13 02:47:36.73	359.92	22.80	-29.8	-33.0	19.1	6.03e-01	0	42	0	273154048	20	5204
2026-01-13 02:47:39.74	359.47	23.24	-29.8	-32.9	19.2	6.02e-01	0	42	0	278921216	20	5140
2026-01-13 02:47:42.75	359.00	23.69	-29.9	-33.2	19.1	6.03e-01	0	42	0	284688384	20	5260
2026-01-13 02:47:45.76	358.51	24.15	-29.5	-32.2	19.7	6.04e-01	0	42	0	289931264	20	4877
2026-01-13 02:47:48.78	358.01	24.61	-29.7	-32.7	19.4	6.04e-01	0	42	0	295698432	20	5057
2026-01-13 02:47:51.79	357.49	25.08	-29.6	-32.3	19.6	6.04e-01	0	42	0	301465600	20	4937
2026-01-13 02:47:54.80	356.95	25.55	-29.4	-31.8	20.0	6.03e-01	0	42	0	307232768	20	4748
2026-01-13 02:47:57.81	356.40	26.03	-29.5	-32.2	19.8	6.05e-01	0	41	0	312475648	20	4874
2026-01-13 02:48:00.81	355.83	26.52	-29.2	-31.4	20.2	6.03e-01	0	42	0	318242816	20	4634
2026-01-13 02:48:03.83	355.24	27.02	-29.4	-31.8	20.0	6.00e-01	0	42	0	324009984	20	4739
2026-01-13 02:48:06.85	354.63	27.52	-29.3	-31.7	20.1	6.03e-01	0	42	0	329777152	20	4701
2026-01-13 02:48:09.86	354.00	28.02	-29.1	-31.1	20.5	6.03e-01	0	42	0	335020032	20	4524
2026-01-13 02:48:12.88	353.35	28.54	-29.1	-31.0	20.5	6.02e-01	0	42	0	340787200	20	4499
2026-01-13 02:48:15.91	352.67	29.06	-29.0	-30.8	20.5	6.02e-01	0	42	0	346554368	20	4443
2026-01-13 02:48:18.93	351.97	29.59	-29.0	-30.7	20.7	6.03e-01	0	42	0	352321536	20	4404
2026-01-13 02:48:21.96	351.25	30.12	-29.2	-31.2	20.4	6.01e-01	0	42	0	358088704	20	4566
2026-01-13 02:48:24.97	350.50	30.66	-28.9	-31.0	21.0	6.02e-01	0	42	0	363331584	19	4579
2026-01-13 02:48:27.97	349.73	31.20	-29.0	-31.1	20.8	6.02e-01	0	42	0	369098752	19	4635
2026-01-13 02:48:30.99	348.93	31.75	-29.2	-31.9	20.5	6.04e-01	0	42	0	374865920	19	4862
2026-01-13 02:48:34.01	348.09	32.30	-29.2	-31.7	20.6	6.03e-01	0	42	0	380633088	19	4818
2026-01-13 02:48:37.03	347.23	32.86	-29.0	-31.2	20.8	6.02e-01	0	42	0	386400256	19	4637
2026-01-13 02:48:40.05	346.34	33.42	-29.3	-31.9	20.4	6.02e-01	0	42	0	391643136	19	4882
2026-01-13 02:48:43.07	345.41	33.98	-29.3	-32.1	20.4	6.01e-01	0	42	0	397410304	19	4940
2026-01-13 02:48:46.08	344.45	34.54	-29.4	-32.2	20.3	6.03e-01	0	42	0	403177472	19	4974
2026-01-13 02:48:49.10	343.46	35.11	-29.7	-32.5	19.7	6.05e-01	0	42	0	408944640	20	4992
2026-01-13 02:48:52.11	342.43	35.68	-29.8	-32.7	19.6	6.04e-01	0	42	0	414711808	20	5054
2026-01-13 02:48:55.12	341.36	36.25	-30.3	-33.6	18.8	6.03e-01	0	42	0	419954688	21	5262
2026-01-13 02:48:58.13	340.26	36.81	-30.3	-33.6	18.8	5.99e-01	0	42	0	425721856	21	5271
2026-01-13 02:49:01.14	339.11	37.37	-30.6	-34.4	18.3	6.04e-01	0	42	0	431489024	21	5573
2026-01-13 02:49:04.16	337.92	37.94	-30.5	-33.5	18.6	6.02e-01	0	42	0	437256192	22	5121
2026-01-13 02:49:07.18	336.68	38.49	-30.6	-33.9	18.4	6.04e-01	0	42	0	442499072	22	5257
2026-01-13 02:49:10.19	335.41	39.04	-30.5	-33.7	18.5	6.04e-01	0	42	0	448266240	22	5178
2026-01-13 02:49:13.22	334.08	39.59	-30.8	-34.4	18.0	6.03e-01	0	42	0	454033408	22	5478
2026-01-13 02:49:16.23	332.72	40.12	-30.4	-33.3	18.6	6.02e-01	0	42	0	459800576	22	5045
2026-01-13 02:49:19.26	331.30	40.65	-30.3	-32.9	19.0	6.04e-01	0	42	0	465567744	22	4891
2026-01-13 02:49:22.27	329.84	41.16	-30.1	-32.6	19.1	6.03e-01	0	42	0	470810624	22	4783
2026-01-13 02:49:25.28	328.33	41.66	-30.2	-32.7	19.1	6.03e-01	0	42	0	476577792	22	4825
2026-01-13 02:49:28.29	326.78	42.14	-30.0	-32.3	19.4	6.00e-01	0	42	0	482344960	22	4665
2026-01-13 02:49:31.31	325.17	42.60	-30.2	-32.8	19.1	6.03e-01	0	42	0	488112128	22	4862
2026-01-13 02:49:34.33	323.52	43.05	-30.0	-32.3	19.4	6.01e-01	0	42	0	493879296	22	4673
2026-01-13 02:49:37.34	321.83	43.47	-30.1	-32.4	19.3	6.01e-01	0	42	0	499122176	22	4701
2026-01-13 02:49:40.35	320.09	43.87	-29.9	-31.9	19.6	6.02e-01	0	42	0	504889344	22	4554
2026-01-13 02:49:43.36	318.31	44.24	-30.0	-32.2	19.4	6.02e-01	0	42	0	510656512	22	4660
2026-01-13 02:49:46.38	316.48	44.59	-30.1	-32.5	19.3	6.02e-01	0	42	0	516423680	22	4735
2026-01-13 02:49:49.41	314.60	44.90	-30.0	-32.1	19.5	6.02e-01	0	42	0	522190848	22	4626
2026-01-13 02:49:52.42	312.70	45.19	-30.0	-32.7	19.4	6.03e-01	0	42	0	527433728	21	4929
2026-01-13 02:49:55.43	310.77	45.44	-29.9	-32.6	19.5	6.00e-01	0	42	0	533200896	21	4869
2026-01-13 02:49:58.44	308.81	45.65	-29.9	-32.4	19.6	6.03e-01	0	42	0	538968064	21	4814
2026-01-13 02:50:01.46	306.81	45.83	-29.7	-31.8	19.9	6.01e-01	0	42	0	544735232	21	4631
2026-01-13 02:50:04.48	304.80	45.97	-29.9	-32.4	19.6	6.04e-01	0	42	0	550502400	21	4813
2026-01-13 02:50:07.50	302.77	46.07	-30.1	-33.0	19.3	6.01e-01	0	42	0	555745280	21	5015
2026-01-13 02:50:10.52	300.73	46.14	-29.7	-32.0	19.9	6.02e-01	0	42	0	561512448	21	4684
2026-01-13 02:50:13.54	298.68	46.16	-29.6	-31.7	19.9	6.03e-01	0	42	0	567279616	21	4574
2026-01-13 02:50:16.56	296.63	46.14	-29.6	-31.8	19.8	6.04e-01	0	42	0	573046784	21	4630
2026-01-13 02:50:19.56	294.60	46.09	-29.7	-32.5	19.7	6.01e-01	0	42	0	578289664	20	4951
2026-01-13 02:50:22.57	292.57	46.00	-29.5	-31.9	20.1	6.02e-01	0	42	0	584056832	20	4746
2026-01-13 02:50:25.59	290.55	45.86	-29.9	-33.0	19.5	6.01e-01	0	42	0	589824000	20	5167
2026-01-13 02:50:28.61	288.55	45.69	-29.1	-31.5	20.8	6.02e-01	0	42	0	595591168	19	4719
2026-01-13 02:50:31.63	286.58	45.48	-30.4	-33.2	18.5	6.02e-01	0	42	0	601358336	22	4986
2026-01-13 02:50:34.65	284.63	45.24	-30.2	-33.2	19.2	6.03e-01	0	42	0	606601216	21	5122
2026-01-13 02:50:37.67	282.71	44.96	-30.1	-33.1	18.9	6.05e-01	0	42	0	612368384	21	5066
2026-01-13 02:50:40.69	280.83	44.65	-29.6	-31.7	20.0	6.02e-01	0	42	0	618135552	21	4586
2026-01-13 02:50:43.70	279.00	44.31	-29.3	-31.9	20.5	6.02e-01	0	42	0	623902720	19	4854
2026-01-13 02:50:46.72	277.20	43.94	-30.0	-32.9	19.3	6.02e-01	0	42	0	629145600	21	4987
2026-01-13 02:50:49.74	275.44	43.55	-29.9	-32.5	19.5	6.05e-01	0	42	0	634912768	21	4852
2026-01-13 02:50:52.75	273.73	43.13	-29.8	-32.2	19.6	6.00e-01	0	42	0	640679936	21	4745
2026-01-13 02:50:55.77	272.07	42.69	-30.5	-34.3	18.3	6.04e-01	0	42	0	646447104	21	5535
2026-01-13 02:50:58.80	270.44	42.22	-29.9	-32.5	19.5	6.02e-01	0	42	0	652214272	21	4849
2026-01-13 02:51:01.81	268.88	41.74	-30.0	-32.8	19.2	6.03e-01	0	42	0	657457152	21	4983
2026-01-13 02:51:04.82	267.36	41.25	-30.3	-33.0	18.9	6.03e-01	0	42	0	663224320	22	4926
2026-01-13 02:51:07.84	265.88	40.74	-31.0	-35.1	17.5	6.02e-01	0	42	0	668991488	22	5771
2026-01-13 02:51:10.86	264.46	40.21	-30.1	-32.5	19.0	6.03e-01	0	42	0	674758656	22	4776
2026-01-13 02:51:13.88	263.07	39.68	-29.8	-32.4	19.5	6.03e-01	0	42	0	680525824	21	4838
2026-01-13 02:51:16.88	261.75	39.14	-29.6	-31.8	19.8	6.03e-01	0	42	0	685768704	21	4631
2026-01-13 02:51:19.91	260.45	38.58	-29.9	-32.5	19.4	6.04e-01	0	42	0	691535872	21	4875
2026-01-13 02:51:22.93	259.21	38.02	-29.7	-32.0	19.7	6.01e-01	0	42	0	697303040	21	4710
2026-01-13 02:51:25.95	258.00	37.46	-30.0	-32.9	19.2	6.01e-01	0	42	0	703070208	21	5002
2026-01-13 02:51:28.97	256.84	36.89	-29.6	-31.7	19.9	6.03e-01	0	42	0	708837376	21	4599
2026-01-13 02:51:31.99	255.72	36.32	-30.1	-33.1	19.0	6.03e-01	0	42	0	714080256	21	5088
2026-01-13 02:51:35.00	254.64	35.76	-29.7	-31.9	19.7	6.00e-01	0	42	0	719847424	21	4682
2026-01-13 02:51:38.01	253.61	35.19	-30.0	-33.0	19.1	6.02e-01	0	42	0	725614592	21	5041
2026-01-13 02:51:41.02	252.60	34.62	-29.5	-31.5	19.9	6.03e-01	0	42	0	731381760	21	4553
2026-01-13 02:51:44.04	251.63	34.05	-29.5	-31.5	20.0	6.04e-01	0	42	0	737148928	21	4547
2026-01-13 02:51:47.05	250.70	33.49	-29.7	-32.1	19.5	6.01e-01	0	42	0	742391808	21	4746
2026-01-13 02:51:50.06	249.80	32.92	-29.5	-32.0	19.9	6.01e-01	0	42	0	748158976	20	4837
2026-01-13 02:51:53.08	248.93	32.36	-29.1	-31.0	20.5	6.02e-01	0	42	0	753926144	20	4507
2026-01-13 02:51:56.10	248.09	31.81	-29.2	-31.2	20.4	6.00e-01	0	42	0	759693312	20	4554
2026-01-13 02:51:59.12	247.28	31.26	-29.8	-32.9	19.2	6.03e-01	0	42	0	764936192	20	5155
2026-01-13 02:52:02.12	246.50	30.71	-29.0	-31.3	20.6	6.03e-01	0	42	0	770703360	19	4711
2026-01-13 02:52:05.14	245.74	30.17	-29.0	-31.3	20.6	6.05e-01	0	42	0	776470528	19	4686
2026-01-13 02:52:08.16	245.01	29.64	-29.2	-31.8	20.3	6.01e-01	0	42	0	782237696	19	4869
2026-01-13 02:52:11.17	244.30	29.11	-29.1	-31.5	20.5	6.02e-01	0	42	0	787480576	19	4761
2026-01-13 02:52:14.19	243.62	28.58	-29.1	-31.5	20.5	6.03e-01	0	42	0	793247744	19	4776
2026-01-13 02:52:17.21	242.96	28.06	-29.4	-32.3	20.0	6.03e-01	0	42	0	799014912	19	5038
2026-01-13 02:52:20.22	242.33	27.55	-29.5	-32.2	19.7	6.02e-01	0	42	0	804782080	20	4883
2026-01-13 02:52:23.24	241.71	27.05	-29.7	-32.6	19.4	6.04e-01	0	42	0	810549248	20	5057
2026-01-13 02:52:26.25	241.11	26.55	-29.0	-30.9	20.4	5.99e-01	0	42	0	815792128	20	4488
2026-01-13 02:52:29.26	240.54	26.06	-29.1	-31.1	20.3	6.04e-01	0	42	0	821559296	20	4533
2026-01-13 02:52:32.28	239.98	25.58	-29.2	-31.3	20.2	6.02e-01	0	42	0	827326464	20	4608
2026-01-13 02:52:35.30	239.44	25.10	-29.4	-32.0	19.7	6.03e-01	0	42	0	833093632	20	4835
2026-01-13 02:52:38.32	238.91	24.62	-29.2	-31.3	20.2	6.04e-01	0	42	0	838860800	20	4592
2026-01-13 02:52:41.34	238.40	24.16	-29.5	-32.1	19.6	6.04e-01	0	42	0	844103680	20	4891
2026-01-13 02:52:44.36	237.91	23.70	-29.5	-32.1	19.6	6.03e-01	0	42	0	849870848	20	4888
2026-01-13 02:52:47.38	237.43	23.24	-29.5	-32.2	19.6	6.02e-01	0	42	0	855638016	20	4914
2026-01-13 02:52:50.40	236.97	22.80	-29.5	-32.2	19.6	6.04e-01	0	42	0	861405184	20	4903
2026-01-13 02:52:53.42	236.52	22.36	-29.5	-32.2	19.5	6.03e-01	0	42	0	867172352	20	4924
2026-01-13 02:52:56.43	236.08	21.93	-29.6	-32.4	19.4	6.02e-01	0	42	0	872415232	20	4971
2026-01-13 02:52:59.45	235.66	21.50	-29.6	-32.5	19.3	6.06e-01	0	42	0	878182400	20	5024
2026-01-13 02:53:02.46	235.25	21.08	-29.5	-32.3	19.4	6.04e-01	0	42	0	883949568	20	4949
2026-01-13 02:53:05.47	234.85	20.66	-29.3	-31.7	19.8	6.03e-01	0	42	0	889716736	20	4741
2026-01-13 02:53:08.48	234.46	20.26	-29.2	-31.4	19.9	6.04e-01	0	42	0	894959616	20	4669
2026-01-13 02:53:11.49	234.09	19.85	-29.3	-31.8	19.7	6.04e-01	0	42	0	900726784	20	4788
2026-01-13 02:53:14.49	233.72	19.46	-29.2	-31.6	19.8	6.03e-01	0	42	0	906493952	20	4708
2026-01-13 02:53:17.51	233.36	19.07	-29.3	-31.6	19.7	6.04e-01	0	42	0	912261120	20	4741
2026-01-13 02:53:20.53	233.02	18.68	-29.5	-32.2	19.4	6.04e-01	0	42	0	917504000	20	4956
2026-01-13 02:53:23.55	232.68	18.30	-29.5	-32.2	19.3	6.03e-01	0	42	0	923271168	20	4956
2026-01-13 02:53:26.58	232.35	17.92	-29.3	-31.9	19.5	6.01e-01	0	42	0	929038336	20	4846
2026-01-13 02:53:29.58	232.03	17.56	-29.3	-31.9	19.5	6.03e-01	0	42	0	934805504	20	4840
2026-01-13 02:53:32.60	231.72	17.19	-29.4	-32.2	19.3	6.05e-01	0	42	0	940572672	20	4939
2026-01-13 02:53:35.61	231.41	16.83	-29.3	-31.8	19.5	6.01e-01	0	42	0	945815552	20	4819
2026-01-13 02:53:38.63	231.12	16.48	-29.2	-31.7	19.6	6.04e-01	0	42	0	951582720	20	4759
2026-01-13 02:53:41.65	230.83	16.13	-29.2	-31.7	19.6	6.03e-01	0	42	0	957349888	20	4759
2026-01-13 02:53:44.66	230.55	15.78	-29.4	-32.2	19.3	6.01e-01	0	42	0	963117056	20	4933
2026-01-13 02:53:47.67	230.27	15.44	-29.5	-32.4	19.1	6.05e-01	0	42	0	968884224	20	5035
2026-01-13 02:53:50.68	230.00	15.11	-29.6	-32.8	18.8	6.02e-01	0	42	0	974127104	20	5182
2026-01-13 02:53:53.70	229.74	14.78	-29.4	-32.1	19.2	6.03e-01	0	42	0	979894272	20	4906
2026-01-13 02:53:56.72	229.49	14.45	-29.3	-31.9	19.4	6.02e-01	0	42	0	985661440	20	4863
2026-01-13 02:53:59.74	229.24	14.13	-29.5	-32.5	19.0	6.01e-01	0	42	0	991428608	20	5049
2026-01-13 02:54:02.76	228.99	13.81	-29.3	-31.9	19.3	6.02e-01	0	42	0	997195776	20	4872
2026-01-13 02:54:05.77	228.76	13.49	-29.5	-32.5	18.9	6.02e-01	0	42	0	1002438656	20	5078
2026-01-13 02:54:08.79	228.52	13.18	-29.6	-32.8	18.7	6.01e-01	0	42	0	1008205824	20	5205
2026-01-13 02:54:11.81	228.30	12.88	-29.6	-32.7	18.7	6.05e-01	0	42	0	1013972992	20	5159
2026-01-13 02:54:14.82	228.08	12.57	-29.5	-32.5	18.9	6.01e-01	0	42	0	1019740160	20	5084
2026-01-13 02:54:17.83	227.86	12.28	-29.5	-32.4	18.9	6.01e-01	0	42	0	1024983040	20	5055
2026-01-13 02:54:20.83	227.65	11.98	-29.5	-32.4	18.9	6.03e-01	0	42	0	1030750208	20	5052
2026-01-13 02:54:23.85	227.44	11.69	-29.6	-32.8	18.6	6.03e-01	0	42	0	1036517376	20	5206
2026-01-13 02:54:26.87	227.24	11.40	-29.7	-33.0	18.5	6.04e-01	0	42	0	1042284544	20	5273
2026-01-13 02:54:29.89	227.04	11.12	-29.6	-32.8	18.5	6.02e-01	0	42	0	1048051712	20	5202
2026-01-13 02:54:32.90	226.85	10.83	-29.5	-32.7	18.6	6.03e-01	0	42	0	1053294592	20	5158
2026-01-13 02:54:35.91	226.66	10.56	-29.8	-33.5	18.0	6.02e-01	0	42	0	1059061760	20	5494
2026-01-13 02:54:38.92	226.47	10.28	-29.6	-32.8	18.5	6.06e-01	0	42	0	1064828928	20	5215
2026-01-13 02:54:41.93	226.29	10.01	-29.6	-33.0	18.4	6.04e-01	0	42	0	1070596096	20	5285
2026-01-13 02:54:44.94	226.11	9.74	-29.6	-33.0	18.3	6.02e-01	0	42	0	1075838976	20	5299
2026-01-13 02:54:47.96	225.94	9.48	-29.7	-33.1	18.2	6.04e-01	0	42	0	1081606144	20	5333
2026-01-13 02:54:50.98	225.77	9.21	-29.8	-33.6	17.9	6.05e-01	0	42	0	1087373312	20	5559
2026-01-13 02:54:53.99	225.60	8.95	-29.7	-33.3	18.1	6.03e-01	0	42	0	1093140480	20	5413
2026-01-13 02:54:57.01	225.44	8.69	-29.8	-33.4	17.9	6.03e-01	0	42	0	1098907648	20	5494
2026-01-13 02:55:00.02	225.27	8.44	-29.7	-33.2	18.1	6.02e-01	0	42	0	1104150528	20	5382
2026-01-13 02:55:03.05	225.12	8.19	-29.6	-33.1	18.1	6.01e-01	0	42	0	1109917696	20	5384
2026-01-13 02:55:06.06	224.96	7.94	-29.7	-33.3	17.9	6.02e-01	0	42	0	1115684864	20	5466
2026-01-13 02:55:09.08	224.81	7.69	-29.9	-33.8	17.6	6.04e-01	0	42	0	1121452032	20	5662
2026-01-13 02:55:12.10	224.66	7.44	-29.8	-33.5	17.7	6.04e-01	0	42	0	1127219200	20	5569
2026-01-13 02:55:15.11	224.51	7.20	-29.9	-33.9	17.3	6.02e-01	0	42	0	1132462080	20	5747
2026-01-13 02:55:18.13	224.37	6.96	-33.5	-53.0	3.8	7.45e-01	0	42	104	1135083520	27	33993

#Closed at: 2026-01-13 02:55:19
#Recorded file [1135 MB]: D:/data/31010_260113_054510.dat