passes_logs/2026/01/13/R2M6_AANII_01/R2M6_AANII_01__20260113_102548_NOAA_20_JPSS-1_rec.log

#Pass ID: 20260113_102548_NOAA 20 (JPSS-1)
#Satellite: NOAA 20 (JPSS-1)
#Configuration: NOAA 20
#almurnet v.1.7.20240730
#Start time: 2026-01-13 10:25:48

#Version: 2.2.20231116
#Station: R2M6_AANII_01
#Location: 30.233357 lon 59.946436 lat
#TLE: 1 43013U 17073A   26012.29914746  .00000087  00000+0  62270-4 0  9997
#TLE: 2 43013  98.7632 313.2670 0001616  43.2193 316.9110 14.19535514422351

#Time	Az	El	Level	Level2	SNR	BER	BlckErr	Temp	State	Recorded	gain1	gain2
2026-01-13 10:25:48.40	163.55	6.97	-34.0	-47.5	3.8	1.49e+00	0	40	0	0	29	17121
2026-01-13 10:25:51.42	163.59	7.21	-34.0	-47.5	3.8	1.49e+00	0	40	104	0	29	17124
2026-01-13 10:25:54.43	163.62	7.44	-34.0	-47.5	3.8	1.49e+00	0	40	104	0	29	17155
2026-01-13 10:25:57.45	163.65	7.68	-34.0	-47.5	3.8	1.49e+00	0	40	104	0	29	17152
2026-01-13 10:26:00.47	163.69	7.92	-34.0	-47.5	3.8	1.49e+00	0	41	104	0	29	17126
2026-01-13 10:26:03.49	163.72	8.16	-34.0	-47.5	3.8	1.49e+00	0	40	104	0	29	17098
2026-01-13 10:26:06.51	163.76	8.41	-34.0	-47.5	3.8	1.49e+00	0	41	104	0	29	17172
2026-01-13 10:26:09.52	163.79	8.66	-34.0	-47.5	3.8	1.49e+00	0	41	104	0	29	17134
2026-01-13 10:26:12.54	163.83	8.91	-34.0	-47.5	3.8	1.49e+00	0	41	104	0	29	17148
2026-01-13 10:26:15.56	163.86	9.16	-34.0	-47.5	3.8	1.49e+00	0	41	104	0	29	17147
2026-01-13 10:26:18.58	163.90	9.42	-34.0	-47.5	3.8	1.49e+00	0	41	104	0	29	17151
2026-01-13 10:26:21.61	163.94	9.68	-34.0	-47.5	3.8	1.49e+00	0	41	104	0	29	17149
2026-01-13 10:26:24.63	163.97	9.94	-34.0	-47.5	3.8	1.49e+00	0	41	104	0	29	17181
2026-01-13 10:26:27.64	164.01	10.20	-34.0	-47.5	3.8	1.49e+00	0	41	104	0	29	17116
2026-01-13 10:26:30.66	164.05	10.47	-34.0	-47.5	3.8	1.49e+00	0	41	104	0	29	17145
2026-01-13 10:26:33.67	164.09	10.74	-34.0	-47.5	3.8	1.49e+00	0	41	104	0	29	17081
2026-01-13 10:26:36.70	164.13	11.01	-34.0	-47.6	3.8	1.49e+00	0	41	104	0	29	17164
2026-01-13 10:26:39.72	164.17	11.29	-34.0	-47.5	3.8	1.49e+00	0	41	104	0	29	17155
2026-01-13 10:26:42.74	164.21	11.57	-34.0	-47.5	3.8	1.49e+00	0	41	104	0	29	17110
2026-01-13 10:26:45.76	164.25	11.85	-34.0	-47.5	3.8	1.49e+00	0	42	104	0	29	17117
2026-01-13 10:26:48.78	164.30	12.13	-34.0	-47.5	3.8	1.49e+00	0	41	104	0	29	17116
2026-01-13 10:26:51.80	164.34	12.42	-34.0	-47.5	3.8	1.49e+00	0	42	104	0	29	17113
2026-01-13 10:26:54.82	164.38	12.71	-34.0	-47.6	3.8	1.49e+00	0	41	104	0	29	17207
2026-01-13 10:26:57.84	164.43	13.01	-34.0	-47.5	3.8	1.49e+00	0	41	104	0	29	17100
2026-01-13 10:27:00.86	164.47	13.31	-34.0	-47.5	3.8	1.49e+00	0	42	104	0	29	17155
2026-01-13 10:27:03.88	164.52	13.61	-34.0	-47.5	3.8	1.49e+00	0	42	104	0	29	17154
2026-01-13 10:27:06.91	164.57	13.92	-34.0	-47.5	3.8	1.49e+00	0	42	104	0	29	17127
2026-01-13 10:27:09.92	164.61	14.23	-34.0	-47.5	3.8	1.49e+00	0	42	104	0	29	17143
2026-01-13 10:27:12.95	164.66	14.55	-34.0	-47.6	3.8	1.49e+00	0	42	104	0	29	17176
2026-01-13 10:27:15.97	164.71	14.87	-34.0	-47.5	3.8	1.49e+00	0	42	104	0	29	17134
2026-01-13 10:27:18.99	164.76	15.19	-34.0	-47.5	3.8	1.49e+00	0	42	104	0	29	17103
2026-01-13 10:27:22.02	164.81	15.52	-34.0	-47.5	3.8	1.49e+00	0	42	104	0	29	17131
2026-01-13 10:27:25.04	164.86	15.85	-34.0	-47.5	3.8	1.49e+00	0	42	104	0	29	17139
2026-01-13 10:27:28.04	164.91	16.19	-34.0	-47.5	3.8	1.49e+00	0	42	104	0	29	17161
2026-01-13 10:27:31.07	164.97	16.53	-34.0	-47.5	3.8	1.49e+00	0	42	104	0	29	17151
2026-01-13 10:27:34.09	165.02	16.88	-34.0	-47.6	3.8	1.49e+00	0	42	104	0	29	17187
2026-01-13 10:27:37.10	165.08	17.23	-34.0	-47.6	3.8	1.49e+00	0	42	104	0	29	17188
2026-01-13 10:27:40.12	165.14	17.58	-34.0	-47.5	3.8	1.49e+00	0	42	104	0	29	17135
2026-01-13 10:27:43.13	165.19	17.94	-34.0	-47.5	3.8	1.49e+00	0	42	104	0	29	17143
2026-01-13 10:27:46.15	165.25	18.31	-34.0	-47.6	3.8	1.49e+00	0	42	104	0	29	17191
2026-01-13 10:27:49.17	165.31	18.68	-34.0	-47.6	3.8	1.49e+00	0	42	104	0	29	17220
2026-01-13 10:27:52.19	165.37	19.06	-34.0	-47.5	3.8	1.49e+00	0	42	104	0	29	17108
2026-01-13 10:27:55.21	165.44	19.45	-34.0	-47.6	3.8	1.49e+00	0	42	104	0	29	17182
2026-01-13 10:27:58.23	165.50	19.84	-34.0	-47.6	3.8	1.49e+00	0	42	104	0	29	17173
2026-01-13 10:28:01.24	165.57	20.23	-34.0	-47.6	3.8	1.49e+00	0	42	104	0	29	17176
2026-01-13 10:28:04.27	165.63	20.63	-34.0	-47.5	3.8	1.49e+00	0	42	104	0	29	17130
2026-01-13 10:28:07.27	165.70	21.04	-34.0	-47.5	3.8	1.49e+00	0	42	104	0	29	17147
2026-01-13 10:28:10.29	165.77	21.46	-34.0	-47.5	3.8	1.49e+00	0	42	104	0	29	17137
2026-01-13 10:28:13.32	165.84	21.88	-34.0	-47.5	3.8	1.49e+00	0	42	104	0	29	17146
2026-01-13 10:28:16.33	165.92	22.31	-34.0	-47.6	3.8	1.49e+00	0	42	104	0	29	17178
2026-01-13 10:28:19.35	165.99	22.75	-34.0	-47.6	3.8	1.49e+00	0	42	104	0	29	17173
2026-01-13 10:28:22.37	166.07	23.19	-34.0	-47.6	3.8	1.49e+00	0	42	104	0	29	17177
2026-01-13 10:28:25.37	166.15	23.64	-34.0	-47.6	3.8	1.49e+00	0	42	104	0	29	17214
2026-01-13 10:28:28.39	166.23	24.10	-34.0	-47.6	3.8	1.49e+00	0	42	104	0	29	17195
2026-01-13 10:28:31.42	166.31	24.57	-34.0	-47.6	3.8	1.49e+00	0	42	104	0	29	17157
2026-01-13 10:28:34.44	166.40	25.05	-34.0	-47.6	3.8	1.49e+00	0	42	104	0	29	17203
2026-01-13 10:28:37.45	166.49	25.53	-34.0	-47.6	3.8	1.49e+00	0	42	104	0	29	17171
2026-01-13 10:28:40.46	166.58	26.03	-34.0	-47.6	3.8	1.49e+00	0	42	104	0	29	17196
2026-01-13 10:28:43.48	166.67	26.53	-34.0	-47.6	3.8	1.49e+00	0	42	104	0	29	17165
2026-01-13 10:28:46.50	166.77	27.05	-34.0	-47.6	3.8	1.49e+00	0	42	104	0	29	17158
2026-01-13 10:28:49.52	166.87	27.57	-34.0	-47.6	3.8	1.49e+00	0	42	104	0	29	17191
2026-01-13 10:28:52.54	166.97	28.10	-34.0	-47.6	3.8	1.49e+00	0	42	104	0	29	17180
2026-01-13 10:28:55.56	167.07	28.65	-34.0	-47.6	3.8	1.49e+00	0	42	104	0	29	17164
2026-01-13 10:28:58.58	167.18	29.20	-34.0	-47.5	3.8	1.49e+00	0	42	104	0	29	17116
2026-01-13 10:29:01.60	167.29	29.77	-34.0	-47.6	3.8	1.49e+00	0	42	104	0	29	17203
2026-01-13 10:29:04.62	167.41	30.35	-34.0	-47.6	3.8	1.49e+00	0	42	104	0	29	17142
2026-01-13 10:29:07.63	167.52	30.93	-34.0	-47.6	3.8	1.49e+00	0	42	104	0	29	17234
2026-01-13 10:29:10.65	167.65	31.53	-34.0	-47.6	3.8	1.49e+00	0	42	104	0	29	17150
2026-01-13 10:29:13.67	167.77	32.15	-34.0	-47.6	3.8	1.49e+00	0	42	104	0	29	17167
2026-01-13 10:29:16.69	167.91	32.77	-34.0	-47.6	3.8	1.49e+00	0	42	104	0	29	17145
2026-01-13 10:29:19.70	168.04	33.41	-34.0	-47.5	3.8	1.49e+00	0	42	104	0	29	17141
2026-01-13 10:29:22.72	168.18	34.06	-34.0	-47.6	3.8	1.49e+00	0	42	104	0	29	17174
2026-01-13 10:29:25.74	168.33	34.73	-34.0	-47.6	3.8	1.49e+00	0	42	104	0	29	17189
2026-01-13 10:29:28.75	168.48	35.41	-34.0	-47.6	3.8	1.49e+00	0	42	104	0	29	17156
2026-01-13 10:29:31.77	168.64	36.11	-34.0	-47.6	3.8	1.49e+00	0	42	104	0	29	17162
2026-01-13 10:29:34.79	168.81	36.82	-34.0	-47.6	3.8	1.49e+00	0	42	104	0	29	17147
2026-01-13 10:29:37.81	168.98	37.54	-34.0	-47.6	3.8	1.49e+00	0	42	104	0	29	17173
2026-01-13 10:29:40.81	169.16	38.28	-34.0	-47.6	3.8	1.49e+00	0	42	104	0	29	17210
2026-01-13 10:29:43.83	169.34	39.04	-34.0	-47.6	3.8	1.49e+00	0	42	104	0	29	17218
2026-01-13 10:29:46.85	169.54	39.81	-34.0	-47.5	3.8	1.49e+00	0	42	104	0	29	17132
2026-01-13 10:29:49.87	169.75	40.61	-34.0	-47.6	3.8	1.49e+00	0	42	104	0	29	17186
2026-01-13 10:29:52.89	169.96	41.41	-34.0	-47.6	3.8	1.49e+00	0	42	104	0	29	17215
2026-01-13 10:29:55.91	170.19	42.24	-34.0	-47.6	3.8	1.49e+00	0	42	104	0	29	17165
2026-01-13 10:29:58.93	170.42	43.09	-34.0	-47.6	3.8	1.49e+00	0	42	104	0	29	17178
2026-01-13 10:30:01.95	170.67	43.95	-34.0	-47.6	3.8	1.49e+00	0	42	104	0	29	17187
2026-01-13 10:30:04.96	170.94	44.83	-34.0	-47.6	3.8	1.49e+00	0	42	104	0	29	17202
2026-01-13 10:30:07.98	171.21	45.74	-34.0	-47.6	3.8	1.49e+00	0	42	104	0	29	17200
2026-01-13 10:30:11.00	171.51	46.66	-34.0	-47.6	3.8	1.49e+00	0	43	104	0	29	17180
2026-01-13 10:30:14.01	171.82	47.60	-34.0	-47.6	3.8	1.49e+00	0	42	104	0	29	17196
2026-01-13 10:30:17.02	172.15	48.56	-34.0	-47.6	3.8	1.49e+00	0	42	104	0	29	17174
2026-01-13 10:30:20.05	172.50	49.55	-34.0	-47.6	3.8	1.49e+00	0	42	104	0	29	17208
2026-01-13 10:30:23.05	172.87	50.55	-34.0	-47.6	3.8	1.49e+00	0	42	104	0	29	17165
2026-01-13 10:30:26.07	173.27	51.57	-34.0	-47.6	3.8	1.49e+00	0	42	104	0	29	17192
2026-01-13 10:30:29.08	173.69	52.62	-34.0	-47.6	3.8	1.49e+00	0	42	104	0	29	17191
2026-01-13 10:30:32.10	174.15	53.69	-34.0	-47.6	3.8	1.49e+00	0	42	104	0	29	17243
2026-01-13 10:30:35.12	174.64	54.77	-34.0	-47.6	3.8	1.49e+00	0	42	104	0	29	17181
2026-01-13 10:30:38.13	175.17	55.88	-34.0	-47.6	3.8	1.49e+00	0	42	104	0	29	17242
2026-01-13 10:30:41.15	175.74	57.01	-34.0	-47.6	3.8	1.49e+00	0	42	104	0	29	17218
2026-01-13 10:30:44.18	176.36	58.16	-34.0	-47.6	3.8	1.49e+00	0	42	104	0	29	17188
2026-01-13 10:30:47.20	177.04	59.33	-34.0	-47.5	3.8	1.49e+00	0	42	104	0	29	17128
2026-01-13 10:30:50.22	177.78	60.52	-34.0	-47.6	3.8	1.49e+00	0	43	104	0	29	17161
2026-01-13 10:30:53.24	178.59	61.73	-34.0	-47.6	3.8	1.49e+00	0	42	104	0	29	17149
2026-01-13 10:30:56.26	179.49	62.95	-34.0	-47.6	3.8	1.49e+00	0	42	104	0	29	17208
2026-01-13 10:30:59.29	180.48	64.19	-34.0	-47.6	3.8	1.49e+00	0	42	104	0	29	17155
2026-01-13 10:31:02.29	181.58	65.43	-34.0	-47.6	3.8	1.49e+00	0	42	104	0	29	17160
2026-01-13 10:31:05.32	182.81	66.70	-34.0	-47.6	3.8	1.49e+00	0	42	104	0	29	17177
2026-01-13 10:31:08.35	184.21	67.98	-34.0	-47.6	3.8	1.49e+00	0	42	104	0	29	17187
2026-01-13 10:31:11.36	185.77	69.25	-34.0	-47.6	3.8	1.49e+00	0	42	104	0	29	17221
2026-01-13 10:31:14.38	187.57	70.53	-34.0	-47.5	3.8	1.49e+00	0	43	104	0	29	17150
2026-01-13 10:31:17.40	189.63	71.80	-34.0	-47.6	3.8	1.49e+00	0	42	104	0	29	17244
2026-01-13 10:31:20.42	192.02	73.06	-34.0	-47.6	3.8	1.49e+00	0	43	104	0	29	17168
2026-01-13 10:31:23.44	194.80	74.31	-34.0	-47.6	3.8	1.49e+00	0	42	104	0	29	17172
2026-01-13 10:31:26.46	198.08	75.52	-34.0	-47.6	3.8	1.49e+00	0	42	104	0	29	17160
2026-01-13 10:31:29.48	201.97	76.69	-34.0	-47.6	3.8	1.49e+00	0	42	104	0	29	17178
2026-01-13 10:31:32.50	206.61	77.80	-34.0	-47.6	3.8	1.49e+00	0	43	104	0	29	17168
2026-01-13 10:31:35.52	212.16	78.82	-34.0	-47.6	3.8	1.49e+00	0	42	104	0	29	17205
2026-01-13 10:31:38.53	218.75	79.72	-34.0	-47.6	3.8	1.49e+00	0	43	104	0	29	17203
2026-01-13 10:31:41.52	226.45	80.47	-34.0	-47.6	3.8	1.49e+00	0	43	104	0	29	17173
2026-01-13 10:31:44.54	235.39	81.02	-34.0	-47.6	3.8	1.49e+00	0	42	104	0	29	17184
2026-01-13 10:31:47.56	245.24	81.34	-34.0	-47.6	3.8	1.49e+00	0	42	104	0	29	17160
2026-01-13 10:31:50.58	255.52	81.39	-34.0	-47.5	3.8	1.49e+00	0	43	104	0	29	17096
2026-01-13 10:31:53.59	265.56	81.17	-34.0	-47.6	3.8	1.49e+00	0	43	104	0	29	17197
2026-01-13 10:31:56.61	274.87	80.70	-34.0	-47.6	3.8	1.49e+00	0	42	104	0	29	17162
2026-01-13 10:31:59.63	283.08	80.01	-34.0	-47.6	3.8	1.49e+00	0	42	104	0	29	17184
2026-01-13 10:32:02.64	290.08	79.16	-34.0	-47.6	3.8	1.49e+00	0	43	104	0	29	17142
2026-01-13 10:32:05.67	296.01	78.18	-34.0	-47.6	3.8	1.49e+00	0	43	104	0	29	17146
2026-01-13 10:32:08.68	300.93	77.10	-34.0	-47.6	3.8	1.49e+00	0	43	104	0	29	17235
2026-01-13 10:32:11.70	305.07	75.95	-34.0	-47.6	3.8	1.49e+00	0	43	104	0	29	17235
2026-01-13 10:32:14.73	308.56	74.75	-34.0	-47.6	3.8	1.49e+00	0	43	104	0	29	17202
2026-01-13 10:32:17.74	311.50	73.52	-34.0	-47.6	3.8	1.49e+00	0	43	104	0	29	17221
2026-01-13 10:32:20.76	314.02	72.26	-34.0	-47.6	3.8	1.49e+00	0	42	104	0	29	17175
2026-01-13 10:32:23.78	316.19	71.00	-34.0	-47.6	3.8	1.49e+00	0	43	104	0	29	17231
2026-01-13 10:32:26.78	318.06	69.73	-34.0	-47.6	3.8	1.49e+00	0	43	104	0	29	17202
2026-01-13 10:32:29.80	319.71	68.46	-34.0	-47.6	3.8	1.49e+00	0	43	104	0	29	17202
2026-01-13 10:32:32.82	321.16	67.19	-34.0	-47.6	3.8	1.49e+00	0	43	104	0	29	17171
2026-01-13 10:32:35.83	322.44	65.93	-34.0	-47.6	3.8	1.49e+00	0	43	104	0	29	17202
2026-01-13 10:32:38.86	323.60	64.67	-34.0	-47.6	3.8	1.49e+00	0	43	104	0	29	17183
2026-01-13 10:32:41.87	324.62	63.44	-34.0	-47.6	3.8	1.49e+00	0	43	104	0	29	17182
2026-01-13 10:32:44.88	325.55	62.22	-34.0	-47.6	3.8	1.49e+00	0	43	104	0	29	17260
2026-01-13 10:32:47.90	326.39	61.01	-34.0	-47.6	3.8	1.49e+00	0	42	104	0	29	17213
2026-01-13 10:32:50.93	327.16	59.81	-34.0	-47.6	3.8	1.49e+00	0	43	104	0	29	17189
2026-01-13 10:32:53.95	327.86	58.64	-34.0	-47.6	3.8	1.49e+00	0	43	104	0	29	17188
2026-01-13 10:32:56.96	328.50	57.49	-34.0	-47.6	3.8	1.49e+00	0	43	104	0	29	17173
2026-01-13 10:32:59.98	329.09	56.36	-34.0	-47.6	3.8	1.49e+00	0	43	104	0	29	17208
2026-01-13 10:33:03.00	329.63	55.24	-34.0	-47.6	3.8	1.49e+00	0	42	104	0	29	17206
2026-01-13 10:33:06.02	330.14	54.15	-34.0	-47.6	3.8	1.49e+00	0	43	104	0	29	17240
2026-01-13 10:33:09.04	330.61	53.08	-34.0	-47.6	3.8	1.49e+00	0	43	104	0	29	17218
2026-01-13 10:33:12.06	331.05	52.03	-34.0	-47.6	3.8	1.49e+00	0	43	104	0	29	17224
2026-01-13 10:33:15.08	331.45	51.00	-34.0	-47.6	3.8	1.49e+00	0	43	104	0	29	17185
2026-01-13 10:33:18.11	331.84	49.98	-34.0	-47.6	3.8	1.49e+00	0	42	104	0	29	17190
2026-01-13 10:33:21.12	332.20	49.00	-34.0	-47.6	3.8	1.49e+00	0	42	104	0	29	17190
2026-01-13 10:33:24.15	332.53	48.03	-34.0	-47.6	3.8	1.49e+00	0	42	104	0	29	17180
2026-01-13 10:33:27.16	332.85	47.08	-34.0	-47.6	3.8	1.49e+00	0	42	104	0	29	17226
2026-01-13 10:33:30.18	333.15	46.16	-34.0	-47.6	3.8	1.49e+00	0	42	104	0	29	17211
2026-01-13 10:33:33.20	333.44	45.25	-34.0	-47.6	3.8	1.49e+00	0	42	104	0	29	17200
2026-01-13 10:33:36.22	333.70	44.36	-34.0	-47.6	3.8	1.49e+00	0	43	104	0	29	17190
2026-01-13 10:33:39.23	333.96	43.50	-34.0	-47.6	3.8	1.49e+00	0	42	104	0	29	17189
2026-01-13 10:33:42.24	334.20	42.65	-34.0	-47.6	3.8	1.49e+00	0	43	104	0	29	17255
2026-01-13 10:33:45.25	334.43	41.82	-34.0	-47.6	3.8	1.49e+00	0	43	104	0	29	17202
2026-01-13 10:33:48.26	334.65	41.01	-34.0	-47.6	3.8	1.49e+00	0	42	104	0	29	17194
2026-01-13 10:33:51.29	334.86	40.21	-34.0	-47.6	3.8	1.49e+00	0	42	104	0	29	17166
2026-01-13 10:33:54.31	335.06	39.43	-34.0	-47.6	3.8	1.49e+00	0	42	104	0	29	17136
2026-01-13 10:33:57.33	335.25	38.67	-34.0	-47.6	3.8	1.49e+00	0	42	104	0	29	17201
2026-01-13 10:34:00.34	335.44	37.93	-34.0	-47.6	3.8	1.49e+00	0	43	104	0	29	17216
2026-01-13 10:34:03.35	335.61	37.20	-34.0	-47.6	3.8	1.49e+00	0	43	104	0	29	17185
2026-01-13 10:34:06.37	335.78	36.49	-34.0	-47.6	3.8	1.49e+00	0	43	104	0	29	17199
2026-01-13 10:34:09.39	335.94	35.79	-34.0	-47.6	3.8	1.49e+00	0	43	104	0	29	17179
2026-01-13 10:34:12.41	336.10	35.11	-34.0	-47.6	3.8	1.49e+00	0	42	104	0	29	17224
2026-01-13 10:34:15.43	336.25	34.44	-34.0	-47.6	3.8	1.49e+00	0	42	104	0	29	17223
2026-01-13 10:34:18.44	336.39	33.78	-34.0	-47.6	3.8	1.49e+00	0	43	104	0	29	17205
2026-01-13 10:34:21.46	336.53	33.14	-34.0	-47.6	3.8	1.49e+00	0	43	104	0	29	17184
2026-01-13 10:34:24.48	336.67	32.51	-34.0	-47.6	3.8	1.49e+00	0	43	104	0	29	17251
2026-01-13 10:34:27.51	336.80	31.90	-34.0	-47.6	3.8	1.49e+00	0	43	104	0	29	17195
2026-01-13 10:34:30.52	336.92	31.29	-34.0	-47.6	3.8	1.49e+00	0	43	104	0	29	17222
2026-01-13 10:34:33.54	337.04	30.70	-34.0	-47.6	3.8	1.49e+00	0	43	104	0	29	17251
2026-01-13 10:34:36.57	337.16	30.12	-34.0	-47.7	3.8	1.49e+00	0	43	104	0	29	17299
2026-01-13 10:34:39.57	337.28	29.56	-34.0	-47.6	3.8	1.49e+00	0	43	104	0	29	17239
2026-01-13 10:34:42.59	337.39	29.00	-34.0	-47.6	3.8	1.49e+00	0	42	104	0	29	17226
2026-01-13 10:34:45.61	337.49	28.45	-34.0	-47.6	3.8	1.49e+00	0	43	104	0	29	17199
2026-01-13 10:34:48.63	337.60	27.92	-34.0	-47.6	3.8	1.49e+00	0	43	104	0	29	17188
2026-01-13 10:34:51.66	337.70	27.39	-34.0	-47.6	3.8	1.49e+00	0	43	104	0	29	17213
2026-01-13 10:34:54.67	337.80	26.88	-34.0	-47.6	3.8	1.49e+00	0	43	104	0	29	17221
2026-01-13 10:34:57.69	337.89	26.37	-34.0	-47.6	3.8	1.49e+00	0	43	104	0	29	17216
2026-01-13 10:35:00.72	337.98	25.87	-34.0	-47.6	3.8	1.49e+00	0	43	104	0	29	17247
2026-01-13 10:35:03.74	338.08	25.38	-34.0	-47.6	3.8	1.49e+00	0	43	104	0	29	17224
2026-01-13 10:35:06.75	338.16	24.91	-34.0	-47.6	3.8	1.49e+00	0	43	104	0	29	17214
2026-01-13 10:35:09.77	338.25	24.44	-34.0	-47.6	3.8	1.49e+00	0	43	104	0	29	17222
2026-01-13 10:35:12.78	338.33	23.98	-34.0	-47.6	3.8	1.49e+00	0	42	104	0	29	17235
2026-01-13 10:35:15.81	338.41	23.52	-34.0	-47.6	3.8	1.49e+00	0	43	104	0	29	17239
2026-01-13 10:35:18.83	338.49	23.07	-34.0	-47.6	3.8	1.49e+00	0	42	104	0	29	17197
2026-01-13 10:35:21.86	338.57	22.63	-34.0	-47.6	3.8	1.49e+00	0	43	104	0	29	17214
2026-01-13 10:35:24.88	338.65	22.20	-34.0	-47.6	3.8	1.49e+00	0	43	104	0	29	17220
2026-01-13 10:35:27.90	338.72	21.78	-34.0	-47.6	3.8	1.49e+00	0	43	104	0	29	17238
2026-01-13 10:35:30.93	338.80	21.36	-34.0	-47.6	3.8	1.49e+00	0	43	104	0	29	17224
2026-01-13 10:35:33.95	338.87	20.95	-34.0	-47.6	3.8	1.49e+00	0	43	104	0	29	17220
2026-01-13 10:35:36.97	338.94	20.55	-34.0	-47.6	3.8	1.49e+00	0	43	104	0	29	17260
2026-01-13 10:35:39.98	339.00	20.15	-34.0	-47.6	3.8	1.49e+00	0	42	104	0	29	17197
2026-01-13 10:35:42.99	339.07	19.76	-34.0	-47.6	3.8	1.49e+00	0	43	104	0	29	17196
2026-01-13 10:35:46.01	339.14	19.37	-34.0	-47.6	3.8	1.49e+00	0	42	104	0	29	17214
2026-01-13 10:35:49.03	339.20	19.00	-34.0	-47.6	3.8	1.49e+00	0	42	104	0	29	17200
2026-01-13 10:35:52.06	339.26	18.62	-34.0	-47.7	3.8	1.49e+00	0	43	104	0	29	17278
2026-01-13 10:35:55.09	339.32	18.25	-34.0	-47.6	3.8	1.49e+00	0	43	104	0	29	17215
2026-01-13 10:35:58.11	339.38	17.89	-34.0	-47.6	3.8	1.49e+00	0	43	104	0	29	17254
2026-01-13 10:36:01.13	339.44	17.53	-34.0	-47.6	3.8	1.49e+00	0	43	104	0	29	17234
2026-01-13 10:36:04.15	339.50	17.18	-34.0	-47.6	3.8	1.49e+00	0	42	104	0	29	17180
2026-01-13 10:36:07.17	339.56	16.83	-34.0	-47.6	3.8	1.49e+00	0	43	104	0	29	17209
2026-01-13 10:36:10.19	339.62	16.49	-34.0	-47.6	3.8	1.49e+00	0	43	104	0	29	17246
2026-01-13 10:36:13.21	339.67	16.15	-34.0	-47.6	3.8	1.49e+00	0	43	104	0	29	17185
2026-01-13 10:36:16.23	339.72	15.82	-34.0	-47.6	3.8	1.49e+00	0	43	104	0	29	17212
2026-01-13 10:36:19.25	339.78	15.49	-34.0	-47.6	3.8	1.49e+00	0	43	104	0	29	17252
2026-01-13 10:36:22.27	339.83	15.17	-34.0	-47.6	3.8	1.49e+00	0	43	104	0	29	17207
2026-01-13 10:36:25.29	339.88	14.85	-34.0	-47.6	3.8	1.49e+00	0	42	104	0	29	17279
2026-01-13 10:36:28.31	339.93	14.53	-34.0	-47.6	3.8	1.49e+00	0	43	104	0	29	17221
2026-01-13 10:36:31.33	339.98	14.22	-34.0	-47.6	3.8	1.49e+00	0	43	104	0	29	17184
2026-01-13 10:36:34.34	340.03	13.91	-34.0	-47.6	3.8	1.49e+00	0	42	104	0	29	17188
2026-01-13 10:36:37.37	340.08	13.61	-34.0	-47.6	3.8	1.49e+00	0	43	104	0	29	17263
2026-01-13 10:36:40.39	340.13	13.31	-34.0	-47.6	3.8	1.49e+00	0	43	104	0	29	17252
2026-01-13 10:36:43.39	340.18	13.01	-34.0	-47.6	3.8	1.49e+00	0	42	104	0	29	17240
2026-01-13 10:36:46.41	340.22	12.72	-34.0	-47.6	3.8	1.49e+00	0	43	104	0	29	17225
2026-01-13 10:36:49.43	340.27	12.43	-34.0	-47.6	3.8	1.49e+00	0	43	104	0	29	17224
2026-01-13 10:36:52.45	340.31	12.15	-34.0	-47.6	3.8	1.49e+00	0	43	104	0	29	17237
2026-01-13 10:36:55.46	340.36	11.86	-34.0	-47.6	3.8	1.49e+00	0	43	104	0	29	17225
2026-01-13 10:36:58.48	340.40	11.58	-34.0	-47.6	3.8	1.49e+00	0	43	104	0	29	17211
2026-01-13 10:37:01.50	340.44	11.31	-34.0	-47.5	3.8	1.49e+00	0	43	104	0	29	17197
2026-01-13 10:37:04.53	340.49	11.03	-34.0	-47.6	3.8	1.49e+00	0	43	104	0	29	17222
2026-01-13 10:37:07.56	340.53	10.76	-34.0	-47.6	3.8	1.49e+00	0	43	104	0	29	17207
2026-01-13 10:37:10.58	340.57	10.50	-34.0	-47.6	3.8	1.49e+00	0	43	104	0	29	17294
2026-01-13 10:37:13.60	340.61	10.23	-34.0	-47.6	3.8	1.49e+00	0	43	104	0	29	17198
2026-01-13 10:37:16.63	340.65	9.97	-34.0	-47.5	3.8	1.49e+00	0	43	104	0	29	17165
2026-01-13 10:37:19.66	340.69	9.71	-34.0	-47.6	3.8	1.49e+00	0	43	104	0	29	17210
2026-01-13 10:37:22.69	340.73	9.45	-34.0	-47.6	3.8	1.49e+00	0	43	104	0	29	17179
2026-01-13 10:37:25.71	340.77	9.20	-34.0	-47.6	3.8	1.49e+00	0	43	104	0	29	17194
2026-01-13 10:37:28.73	340.81	8.95	-34.0	-47.6	3.8	1.49e+00	0	42	104	0	29	17218
2026-01-13 10:37:31.74	340.85	8.70	-33.9	-47.5	3.8	1.49e+00	0	43	104	0	29	17192
2026-01-13 10:37:34.76	340.89	8.45	-34.0	-47.5	3.8	1.49e+00	0	43	104	0	29	17160
2026-01-13 10:37:37.79	340.92	8.21	-34.0	-47.6	3.8	1.49e+00	0	43	104	0	29	17248
2026-01-13 10:37:40.82	340.96	7.97	-34.0	-47.6	3.8	1.49e+00	0	42	104	0	29	17173
2026-01-13 10:37:43.84	341.00	7.73	-34.0	-47.6	3.8	1.49e+00	0	43	104	0	29	17218
2026-01-13 10:37:46.87	341.04	7.49	-34.0	-47.6	3.8	1.49e+00	0	42	104	0	29	17232
2026-01-13 10:37:49.89	341.07	7.26	-34.0	-47.6	3.8	1.49e+00	0	43	104	0	29	17190
2026-01-13 10:37:52.91	341.11	7.02	-34.0	-47.6	3.8	1.49e+00	0	43	104	0	29	17163
2026-01-13 10:37:55.94	341.14	6.79	-34.0	-47.6	3.8	1.49e+00	0	42	104	0	29	17185

#Closed at: 2026-01-13 10:37:56
#Recorded file [0 MB]: D:/data/31010_260113_132548.dat