passes_logs/2026/01/13/R2M6_AANII_01/R2M6_AANII_01__20260113_061753_FENGYUN_3E_rec.log

#Pass ID: 20260113_061753_FENGYUN 3E
#Satellite: FENGYUN 3E
#Configuration: FENGYUN 3E
#almurnet v.1.7.20240730
#Start time: 2026-01-13 06:17:55

#Version: 2.2.20231116
#Station: R2M6_AANII_01
#Location: 30.233357 lon 59.946436 lat
#TLE: 1 49008U 21062A   26012.25745337  .00000274  00000+0  14981-3 0  9997
#TLE: 2 49008  98.7491  17.4183 0001913 142.8235 217.3074 14.19885845234459

#Time	Az	El	Level	Level2	SNR	BER	BlckErr	Temp	State	Recorded	gain1	gain2
2026-01-13 06:17:55.21	10.96	7.12	-33.9	-43.7	3.8	8.46e-01	0	40	0	0	27	11095
2026-01-13 06:17:58.22	10.72	7.32	-33.9	-43.7	3.8	8.48e-01	0	40	104	0	27	11119
2026-01-13 06:18:01.23	10.47	7.52	-33.9	-43.7	3.8	8.46e-01	0	40	104	0	27	11129
2026-01-13 06:18:04.25	10.22	7.73	-33.9	-43.7	3.8	8.46e-01	0	40	104	0	27	11126
2026-01-13 06:18:07.26	9.96	7.94	-33.9	-43.7	3.8	8.46e-01	0	40	104	0	27	11120
2026-01-13 06:18:10.28	9.70	8.14	-33.9	-43.7	3.8	8.46e-01	0	40	104	0	27	11143
2026-01-13 06:18:13.29	9.44	8.35	-33.9	-43.7	3.8	8.46e-01	0	41	104	0	27	11115
2026-01-13 06:18:16.32	9.17	8.56	-33.9	-43.7	3.8	8.45e-01	0	40	104	0	27	11134
2026-01-13 06:18:19.34	8.90	8.77	-33.9	-43.7	3.8	8.46e-01	0	41	104	0	27	11127
2026-01-13 06:18:22.36	8.63	8.98	-33.9	-43.7	3.8	8.46e-01	0	41	104	0	27	11139
2026-01-13 06:18:25.38	8.35	9.20	-33.9	-43.7	3.8	8.45e-01	0	41	104	0	27	11124
2026-01-13 06:18:28.40	8.06	9.41	-33.9	-43.7	3.8	8.46e-01	0	41	104	0	27	11173
2026-01-13 06:18:31.42	7.77	9.62	-33.9	-43.7	3.8	8.48e-01	0	41	104	0	27	11093
2026-01-13 06:18:34.43	7.48	9.84	-33.9	-43.7	3.8	8.46e-01	0	41	104	0	27	11159
2026-01-13 06:18:37.45	7.18	10.06	-33.9	-43.7	3.8	8.46e-01	0	41	104	0	27	11117
2026-01-13 06:18:40.47	6.88	10.28	-33.9	-43.7	3.8	8.45e-01	0	41	104	0	27	11106
2026-01-13 06:18:43.49	6.57	10.50	-33.9	-43.7	3.8	8.46e-01	0	41	104	0	27	11079
2026-01-13 06:18:46.50	6.26	10.72	-33.9	-43.7	3.8	8.46e-01	0	41	104	0	27	11152
2026-01-13 06:18:49.51	5.95	10.94	-33.9	-43.7	3.8	8.45e-01	0	41	104	0	27	11095
2026-01-13 06:18:52.53	5.62	11.16	-33.9	-43.7	3.8	8.46e-01	0	41	104	0	27	11144
2026-01-13 06:18:55.54	5.30	11.38	-33.9	-43.7	3.8	8.46e-01	0	41	104	0	27	11150
2026-01-13 06:18:58.56	4.97	11.61	-33.9	-43.8	3.8	8.46e-01	0	41	104	0	27	11161
2026-01-13 06:19:01.56	4.63	11.83	-33.9	-43.7	3.8	8.45e-01	0	41	104	0	27	11127
2026-01-13 06:19:04.58	4.29	12.06	-33.9	-43.7	3.8	8.45e-01	0	42	104	0	27	11111
2026-01-13 06:19:07.60	3.94	12.29	-33.9	-43.7	3.8	8.46e-01	0	42	104	0	27	11139
2026-01-13 06:19:10.62	3.58	12.52	-33.9	-43.7	3.8	8.46e-01	0	42	104	0	27	11142
2026-01-13 06:19:13.64	3.23	12.75	-33.9	-43.7	3.8	8.46e-01	0	42	104	0	27	11171
2026-01-13 06:19:16.66	2.86	12.98	-33.9	-43.7	3.8	8.46e-01	0	42	104	0	27	11158
2026-01-13 06:19:19.68	2.49	13.22	-33.9	-43.7	3.8	8.45e-01	0	42	104	0	27	11123
2026-01-13 06:19:22.70	2.11	13.45	-33.9	-43.8	3.8	8.45e-01	0	42	104	0	27	11163
2026-01-13 06:19:25.72	1.73	13.69	-33.9	-43.7	3.8	8.47e-01	0	42	104	0	27	11145
2026-01-13 06:19:28.74	1.34	13.92	-33.9	-43.7	3.8	8.45e-01	0	42	104	0	27	11145
2026-01-13 06:19:31.76	0.94	14.16	-33.9	-43.8	3.8	8.46e-01	0	42	104	0	27	11169
2026-01-13 06:19:34.78	0.53	14.40	-33.9	-43.7	3.8	8.45e-01	0	42	104	0	27	11107
2026-01-13 06:19:37.80	0.12	14.63	-33.9	-43.7	3.8	8.45e-01	0	42	104	0	27	11104
2026-01-13 06:19:40.82	359.71	14.87	-33.9	-43.7	3.8	8.46e-01	0	42	104	0	27	11150
2026-01-13 06:19:43.84	359.28	15.11	-33.9	-43.7	3.8	8.46e-01	0	42	104	0	27	11163
2026-01-13 06:19:46.86	358.85	15.36	-33.9	-43.7	3.8	8.46e-01	0	42	104	0	27	11160
2026-01-13 06:19:49.88	358.42	15.60	-33.9	-43.7	3.8	8.46e-01	0	42	104	0	27	11105
2026-01-13 06:19:52.89	357.97	15.84	-33.9	-43.7	3.8	8.46e-01	0	42	104	0	27	11155
2026-01-13 06:19:55.91	357.52	16.08	-33.9	-43.7	3.8	8.46e-01	0	42	104	0	27	11114
2026-01-13 06:19:58.93	357.06	16.32	-33.9	-43.7	3.8	8.45e-01	0	42	104	0	27	11098
2026-01-13 06:20:01.95	356.59	16.57	-33.9	-43.7	3.8	8.47e-01	0	42	104	0	27	11142
2026-01-13 06:20:04.96	356.12	16.81	-33.9	-43.8	3.8	8.47e-01	0	42	104	0	27	11156
2026-01-13 06:20:07.99	355.63	17.06	-33.9	-43.7	3.8	8.46e-01	0	42	104	0	27	11125
2026-01-13 06:20:11.01	355.14	17.30	-33.9	-43.7	3.8	8.47e-01	0	42	104	0	27	11131
2026-01-13 06:20:14.03	354.64	17.55	-33.9	-43.7	3.8	8.47e-01	0	42	104	0	27	11142
2026-01-13 06:20:17.05	354.13	17.79	-33.9	-43.8	3.8	8.46e-01	0	42	104	0	27	11174
2026-01-13 06:20:20.06	353.61	18.04	-33.9	-43.7	3.8	8.46e-01	0	42	104	0	27	11103
2026-01-13 06:20:23.08	353.09	18.28	-33.9	-43.8	3.8	8.46e-01	0	42	104	0	27	11178
2026-01-13 06:20:26.10	352.55	18.53	-33.9	-43.8	3.8	8.46e-01	0	42	104	0	27	11183
2026-01-13 06:20:29.11	352.01	18.77	-33.9	-43.8	3.8	8.46e-01	0	42	104	0	27	11171
2026-01-13 06:20:32.13	351.46	19.02	-33.9	-43.8	3.8	8.47e-01	0	42	104	0	27	11158
2026-01-13 06:20:35.15	350.90	19.26	-33.9	-43.8	3.8	8.46e-01	0	42	104	0	27	11154
2026-01-13 06:20:38.18	350.32	19.51	-33.9	-43.7	3.8	8.46e-01	0	42	104	0	27	11108
2026-01-13 06:20:41.19	349.75	19.75	-33.9	-43.7	3.8	8.45e-01	0	42	104	0	27	11145
2026-01-13 06:20:44.21	349.16	19.99	-33.9	-43.8	3.8	8.47e-01	0	42	104	0	27	11198
2026-01-13 06:20:47.23	348.56	20.24	-33.9	-43.8	3.8	8.45e-01	0	42	104	0	27	11179
2026-01-13 06:20:50.25	347.95	20.48	-33.9	-43.7	3.8	8.47e-01	0	42	104	0	27	11132
2026-01-13 06:20:53.27	347.33	20.72	-33.9	-43.7	3.8	8.46e-01	0	42	104	0	27	11133
2026-01-13 06:20:56.29	346.70	20.95	-33.9	-43.7	3.8	8.46e-01	0	42	104	0	27	11134
2026-01-13 06:20:59.30	346.07	21.19	-33.9	-43.7	3.8	8.46e-01	0	42	104	0	27	11137
2026-01-13 06:21:02.32	345.42	21.43	-33.9	-43.8	3.8	8.46e-01	0	42	104	0	27	11165
2026-01-13 06:21:05.33	344.76	21.66	-34.0	-43.8	3.8	8.46e-01	0	42	104	0	27	11191
2026-01-13 06:21:08.36	344.09	21.89	-33.9	-43.8	3.8	8.45e-01	0	42	104	0	27	11205
2026-01-13 06:21:11.38	343.41	22.12	-33.9	-43.8	3.8	8.45e-01	0	42	104	0	27	11136
2026-01-13 06:21:14.40	342.72	22.35	-33.9	-43.8	3.8	8.47e-01	0	42	104	0	27	11191
2026-01-13 06:21:17.42	342.03	22.57	-33.9	-43.8	3.8	8.47e-01	0	42	104	0	27	11173
2026-01-13 06:21:20.44	341.32	22.79	-33.9	-43.8	3.8	8.46e-01	0	42	104	0	27	11167
2026-01-13 06:21:23.46	340.60	23.01	-33.9	-43.7	3.8	8.46e-01	0	42	104	0	27	11124
2026-01-13 06:21:26.48	339.87	23.23	-34.0	-43.8	3.8	8.48e-01	0	42	104	0	27	11137
2026-01-13 06:21:29.51	339.13	23.44	-33.9	-43.8	3.8	8.45e-01	0	42	104	0	27	11187
2026-01-13 06:21:32.53	338.38	23.65	-33.9	-43.8	3.8	8.46e-01	0	42	104	0	27	11190
2026-01-13 06:21:35.55	337.61	23.85	-33.9	-43.8	3.8	8.46e-01	0	42	104	0	27	11153
2026-01-13 06:21:38.57	336.84	24.06	-34.0	-43.8	3.8	8.46e-01	0	42	104	0	27	11166
2026-01-13 06:21:41.59	336.06	24.25	-33.9	-43.8	3.8	8.47e-01	0	42	104	0	27	11166
2026-01-13 06:21:44.61	335.27	24.44	-33.9	-43.7	3.8	8.47e-01	0	42	104	0	27	11123
2026-01-13 06:21:47.63	334.47	24.63	-34.0	-43.7	3.8	8.46e-01	0	42	104	0	27	11106
2026-01-13 06:21:50.65	333.67	24.82	-32.9	-42.7	3.8	8.47e-01	0	42	104	0	27	11118
2026-01-13 06:21:53.67	332.85	24.99	-33.9	-43.8	3.8	8.47e-01	0	42	104	0	27	11174
2026-01-13 06:21:56.68	332.02	25.17	-33.9	-43.8	3.8	8.46e-01	0	42	104	0	27	11211
2026-01-13 06:21:59.69	331.19	25.33	-33.9	-43.8	3.8	8.45e-01	0	42	104	0	27	11187
2026-01-13 06:22:02.70	330.34	25.49	-33.9	-43.8	3.8	8.45e-01	0	42	104	0	27	11175
2026-01-13 06:22:05.73	329.49	25.65	-33.9	-43.8	3.8	8.46e-01	0	42	104	0	27	11183
2026-01-13 06:22:08.74	328.63	25.80	-33.9	-43.8	3.8	8.46e-01	0	42	104	0	27	11170
2026-01-13 06:22:11.76	327.75	25.94	-33.9	-43.8	3.8	8.46e-01	0	42	104	0	27	11176
2026-01-13 06:22:14.78	326.87	26.08	-34.0	-43.8	3.8	8.46e-01	0	43	104	0	27	11182
2026-01-13 06:22:17.80	325.99	26.21	-33.9	-43.8	3.8	8.46e-01	0	42	104	0	27	11151
2026-01-13 06:22:20.81	325.10	26.33	-33.9	-43.8	3.8	8.46e-01	0	43	104	0	27	11186
2026-01-13 06:22:23.85	324.19	26.45	-33.9	-43.8	3.8	8.46e-01	0	43	104	0	27	11180
2026-01-13 06:22:26.86	323.29	26.55	-33.9	-43.8	3.8	8.46e-01	0	43	104	0	27	11144
2026-01-13 06:22:29.88	322.37	26.65	-34.0	-43.8	3.8	8.46e-01	0	42	104	0	27	11210
2026-01-13 06:22:32.90	321.45	26.75	-34.0	-43.8	3.8	8.46e-01	0	43	104	0	27	11164
2026-01-13 06:22:35.91	320.53	26.83	-34.0	-43.8	3.8	8.46e-01	0	42	104	0	27	11178
2026-01-13 06:22:38.94	319.60	26.91	-34.0	-43.8	3.8	8.47e-01	0	43	104	0	27	11187
2026-01-13 06:22:41.96	318.67	26.98	-34.0	-43.8	3.8	8.46e-01	0	42	104	0	27	11198
2026-01-13 06:22:44.98	317.73	27.04	-34.0	-43.8	3.8	8.47e-01	0	42	104	0	27	11193
2026-01-13 06:22:48.01	316.79	27.09	-34.0	-43.9	3.8	8.47e-01	0	42	104	0	27	11243
2026-01-13 06:22:51.02	315.85	27.13	-34.0	-43.8	3.8	8.46e-01	0	42	104	0	27	11208
2026-01-13 06:22:54.04	314.90	27.17	-34.0	-43.9	3.8	8.46e-01	0	42	104	0	27	11256
2026-01-13 06:22:57.05	313.96	27.19	-33.9	-43.8	3.8	8.46e-01	0	43	104	0	27	11201
2026-01-13 06:23:00.07	313.01	27.21	-34.0	-43.8	3.8	8.47e-01	0	42	104	0	27	11124
2026-01-13 06:23:03.09	312.06	27.22	-34.0	-43.8	3.8	8.47e-01	0	43	104	0	27	11163
2026-01-13 06:23:06.10	311.11	27.22	-34.0	-43.8	3.8	8.46e-01	0	43	104	0	27	11189
2026-01-13 06:23:09.12	310.16	27.21	-34.0	-43.8	3.8	8.46e-01	0	42	104	0	27	11196
2026-01-13 06:23:12.14	309.21	27.20	-34.0	-43.8	3.8	8.46e-01	0	43	104	0	27	11235
2026-01-13 06:23:15.17	308.26	27.17	-34.0	-43.8	3.8	8.46e-01	0	42	104	0	27	11179
2026-01-13 06:23:18.19	307.31	27.14	-34.0	-43.8	3.8	8.46e-01	0	43	104	0	27	11204
2026-01-13 06:23:21.21	306.37	27.09	-34.0	-43.8	3.8	8.47e-01	0	43	104	0	27	11212
2026-01-13 06:23:24.22	305.43	27.04	-34.0	-43.9	3.8	8.46e-01	0	42	104	0	27	11229
2026-01-13 06:23:27.25	304.49	26.98	-34.0	-43.8	3.8	8.46e-01	0	42	104	0	27	11195
2026-01-13 06:23:30.28	303.55	26.91	-34.0	-43.8	3.8	8.45e-01	0	43	104	0	27	11204
2026-01-13 06:23:33.30	302.62	26.84	-34.0	-43.9	3.8	8.45e-01	0	42	104	0	27	11254
2026-01-13 06:23:36.31	301.70	26.75	-34.0	-43.8	3.8	8.45e-01	0	43	104	0	27	11213
2026-01-13 06:23:39.34	300.78	26.66	-34.0	-43.8	3.8	8.45e-01	0	42	104	0	27	11192
2026-01-13 06:23:42.36	299.86	26.56	-34.0	-43.8	3.8	8.46e-01	0	43	104	0	27	11185
2026-01-13 06:23:45.38	298.95	26.45	-34.0	-43.8	3.8	8.46e-01	0	43	104	0	27	11204
2026-01-13 06:23:48.40	298.05	26.34	-34.0	-43.8	3.8	8.46e-01	0	43	104	0	27	11190
2026-01-13 06:23:51.42	297.15	26.21	-34.0	-43.8	3.8	8.46e-01	0	43	104	0	27	11203
2026-01-13 06:23:54.44	296.27	26.09	-34.0	-43.8	3.8	8.45e-01	0	43	104	0	27	11224
2026-01-13 06:23:57.46	295.38	25.95	-34.0	-43.8	3.8	8.46e-01	0	43	104	0	27	11204
2026-01-13 06:24:00.47	294.51	25.81	-34.0	-43.8	3.8	8.46e-01	0	43	104	0	27	11221
2026-01-13 06:24:03.49	293.65	25.66	-34.0	-43.9	3.8	8.46e-01	0	42	104	0	27	11248
2026-01-13 06:24:06.50	292.79	25.50	-34.0	-43.8	3.8	8.47e-01	0	43	104	0	27	11202
2026-01-13 06:24:09.51	291.95	25.34	-34.0	-43.8	3.8	8.45e-01	0	43	104	0	27	11185
2026-01-13 06:24:12.53	291.11	25.17	-34.0	-43.8	3.8	8.46e-01	0	43	104	0	27	11224
2026-01-13 06:24:15.54	290.28	25.00	-34.0	-43.9	3.8	8.46e-01	0	43	104	0	27	11253
2026-01-13 06:24:18.56	289.46	24.82	-34.0	-43.8	3.8	8.47e-01	0	43	104	0	27	11192
2026-01-13 06:24:21.58	288.64	24.64	-34.0	-43.8	3.8	8.45e-01	0	43	104	0	27	11206
2026-01-13 06:24:24.60	287.84	24.45	-34.0	-43.8	3.8	8.47e-01	0	43	104	0	27	11203
2026-01-13 06:24:27.62	287.05	24.26	-34.0	-43.8	3.8	8.46e-01	0	42	104	0	27	11165
2026-01-13 06:24:30.64	286.26	24.06	-32.9	-42.7	3.8	8.47e-01	0	43	104	0	27	11137
2026-01-13 06:24:33.65	285.49	23.86	-34.0	-43.8	3.8	8.47e-01	0	42	104	0	27	11179
2026-01-13 06:24:36.68	284.73	23.65	-34.0	-43.8	3.8	8.46e-01	0	43	104	0	27	11170
2026-01-13 06:24:39.69	283.98	23.45	-34.0	-43.8	3.8	8.46e-01	0	42	104	0	27	11187
2026-01-13 06:24:42.71	283.23	23.23	-34.0	-43.8	3.8	8.46e-01	0	43	104	0	27	11205
2026-01-13 06:24:45.73	282.50	23.02	-34.0	-43.8	3.8	8.46e-01	0	43	104	0	27	11215
2026-01-13 06:24:48.76	281.77	22.80	-34.0	-43.8	3.8	8.47e-01	0	43	104	0	27	11218
2026-01-13 06:24:51.77	281.06	22.57	-34.0	-43.8	3.8	8.46e-01	0	42	104	0	27	11115
2026-01-13 06:24:54.79	280.36	22.35	-34.0	-43.8	3.8	8.45e-01	0	43	104	0	27	11205
2026-01-13 06:24:57.81	279.67	22.12	-34.0	-43.8	3.8	8.46e-01	0	43	104	0	27	11170
2026-01-13 06:25:00.83	278.99	21.89	-34.0	-43.8	3.8	8.46e-01	0	43	104	0	27	11164
2026-01-13 06:25:03.85	278.32	21.66	-34.0	-43.8	3.8	8.46e-01	0	42	104	0	27	11206
2026-01-13 06:25:06.87	277.65	21.43	-34.0	-43.8	3.8	8.46e-01	0	43	104	0	27	11167
2026-01-13 06:25:09.88	277.00	21.19	-34.0	-43.8	3.8	8.46e-01	0	43	104	0	27	11195
2026-01-13 06:25:12.89	276.36	20.95	-34.0	-43.8	3.8	8.45e-01	0	42	104	0	27	11201
2026-01-13 06:25:15.91	275.73	20.72	-34.0	-43.8	3.8	8.45e-01	0	42	104	0	27	11182
2026-01-13 06:25:18.93	275.11	20.47	-34.0	-43.8	3.8	8.47e-01	0	43	104	0	27	11172
2026-01-13 06:25:21.94	274.50	20.23	-34.0	-43.8	3.8	8.46e-01	0	42	104	0	27	11219
2026-01-13 06:25:24.96	273.90	19.99	-34.0	-43.9	3.8	8.46e-01	0	43	104	0	27	11254
2026-01-13 06:25:27.98	273.30	19.75	-34.0	-43.8	3.8	8.47e-01	0	42	104	0	27	11218
2026-01-13 06:25:31.01	272.72	19.50	-34.0	-43.8	3.8	8.46e-01	0	43	104	0	27	11189
2026-01-13 06:25:34.02	272.15	19.26	-34.0	-43.8	3.8	8.46e-01	0	42	104	0	27	11197
2026-01-13 06:25:37.05	271.58	19.01	-34.0	-43.8	3.8	8.46e-01	0	42	104	0	27	11213
2026-01-13 06:25:40.07	271.02	18.77	-34.0	-43.9	3.8	8.46e-01	0	42	104	0	27	11251
2026-01-13 06:25:43.09	270.48	18.52	-33.9	-43.8	3.8	8.46e-01	0	43	104	0	27	11203
2026-01-13 06:25:46.11	269.94	18.27	-34.0	-43.8	3.8	8.47e-01	0	43	104	0	27	11189
2026-01-13 06:25:49.11	269.41	18.03	-34.0	-43.8	3.8	8.46e-01	0	43	104	0	27	11112
2026-01-13 06:25:52.14	268.89	17.78	-34.0	-43.8	3.9	8.46e-01	0	42	104	0	27	11173
2026-01-13 06:25:55.15	268.38	17.53	-34.0	-43.8	3.8	8.46e-01	0	43	104	0	27	11197
2026-01-13 06:25:58.17	267.88	17.29	-34.0	-43.8	3.8	8.46e-01	0	42	104	0	27	11230
2026-01-13 06:26:01.19	267.38	17.04	-34.0	-43.8	3.8	8.46e-01	0	42	104	0	27	11160
2026-01-13 06:26:04.21	266.89	16.80	-34.0	-43.8	3.8	8.47e-01	0	42	104	0	27	11186
2026-01-13 06:26:07.23	266.41	16.55	-34.0	-43.8	3.8	8.46e-01	0	42	104	0	27	11202
2026-01-13 06:26:10.25	265.94	16.30	-34.0	-43.8	3.8	8.46e-01	0	42	104	0	27	11207
2026-01-13 06:26:13.27	265.48	16.06	-34.0	-43.8	3.8	8.46e-01	0	42	104	0	27	11190
2026-01-13 06:26:16.29	265.02	15.82	-33.9	-43.8	3.8	8.45e-01	0	43	104	0	27	11175
2026-01-13 06:26:19.31	264.57	15.57	-34.0	-43.8	3.8	8.47e-01	0	42	104	0	27	11210
2026-01-13 06:26:22.33	264.13	15.33	-33.9	-43.8	3.8	8.47e-01	0	42	104	0	27	11215
2026-01-13 06:26:25.36	263.70	15.09	-33.9	-43.8	3.8	8.45e-01	0	42	104	0	27	11200
2026-01-13 06:26:28.38	263.27	14.85	-33.9	-43.8	3.8	8.47e-01	0	42	104	0	27	11166
2026-01-13 06:26:31.40	262.85	14.61	-33.9	-43.8	3.8	8.46e-01	0	42	104	0	27	11188
2026-01-13 06:26:34.41	262.44	14.37	-33.9	-43.8	3.8	8.46e-01	0	43	104	0	27	11221
2026-01-13 06:26:37.42	262.03	14.13	-33.9	-43.8	3.8	8.46e-01	0	42	104	0	27	11217
2026-01-13 06:26:40.44	261.63	13.89	-33.9	-43.8	3.8	8.47e-01	0	42	104	0	27	11174
2026-01-13 06:26:43.46	261.24	13.65	-33.9	-43.8	3.8	8.46e-01	0	42	104	0	27	11173
2026-01-13 06:26:46.47	260.85	13.42	-33.9	-43.8	3.8	8.46e-01	0	42	104	0	27	11174
2026-01-13 06:26:49.50	260.47	13.18	-34.0	-43.8	3.8	8.47e-01	0	42	104	0	27	11193
2026-01-13 06:26:52.51	260.10	12.95	-33.9	-43.8	3.8	8.46e-01	0	42	104	0	27	11172
2026-01-13 06:26:55.52	259.73	12.72	-33.9	-43.8	3.8	8.46e-01	0	43	104	0	27	11166
2026-01-13 06:26:58.55	259.36	12.49	-33.9	-43.8	3.8	8.46e-01	0	43	104	0	27	11172
2026-01-13 06:27:01.57	259.01	12.25	-33.9	-43.8	3.8	8.46e-01	0	42	104	0	27	11200
2026-01-13 06:27:04.58	258.66	12.03	-33.9	-43.8	3.8	8.46e-01	0	42	104	0	27	11201
2026-01-13 06:27:07.60	258.31	11.80	-33.9	-43.7	3.8	8.45e-01	0	42	104	0	27	11135
2026-01-13 06:27:10.61	257.97	11.57	-33.9	-43.8	3.8	8.47e-01	0	42	104	0	27	11157
2026-01-13 06:27:13.64	257.63	11.34	-33.9	-43.7	3.8	8.47e-01	0	42	104	0	27	11140
2026-01-13 06:27:16.66	257.30	11.12	-33.9	-43.8	3.8	8.47e-01	0	42	104	0	27	11170
2026-01-13 06:27:19.67	256.98	10.89	-33.9	-43.8	3.8	8.46e-01	0	42	104	0	27	11159
2026-01-13 06:27:22.69	256.66	10.67	-33.9	-43.8	3.8	8.46e-01	0	42	104	0	27	11153
2026-01-13 06:27:25.71	256.34	10.45	-33.9	-43.8	3.8	8.46e-01	0	42	104	0	27	11165
2026-01-13 06:27:28.72	256.03	10.23	-33.9	-43.8	3.8	8.45e-01	0	42	104	0	27	11167
2026-01-13 06:27:31.73	255.73	10.01	-33.9	-43.7	3.8	8.46e-01	0	43	104	0	27	11112
2026-01-13 06:27:34.74	255.43	9.79	-33.9	-43.8	3.8	8.46e-01	0	42	104	0	27	11174
2026-01-13 06:27:37.75	255.13	9.58	-33.9	-43.8	3.8	8.46e-01	0	42	104	0	27	11201
2026-01-13 06:27:40.78	254.84	9.36	-33.9	-43.8	3.8	8.45e-01	0	42	104	0	27	11177
2026-01-13 06:27:43.79	254.56	9.15	-33.9	-43.8	3.8	8.46e-01	0	42	104	0	27	11164
2026-01-13 06:27:46.82	254.27	8.93	-33.9	-43.8	3.8	8.48e-01	0	42	104	0	27	11185
2026-01-13 06:27:49.83	253.99	8.72	-33.9	-43.8	3.8	8.46e-01	0	43	104	0	27	11199
2026-01-13 06:27:52.85	253.72	8.51	-33.9	-43.8	3.8	8.45e-01	0	42	104	0	27	11160
2026-01-13 06:27:55.87	253.45	8.30	-33.9	-43.8	3.8	8.46e-01	0	42	104	0	27	11178
2026-01-13 06:27:58.89	253.18	8.09	-33.9	-43.8	3.8	8.47e-01	0	42	104	0	27	11172
2026-01-13 06:28:01.91	252.92	7.88	-33.9	-43.8	3.8	8.46e-01	0	42	104	0	27	11171
2026-01-13 06:28:04.93	252.66	7.67	-33.9	-43.8	3.8	8.47e-01	0	43	104	0	27	11153
2026-01-13 06:28:07.95	252.40	7.47	-33.9	-43.8	3.8	8.46e-01	0	43	104	0	27	11172
2026-01-13 06:28:10.97	252.15	7.26	-33.9	-43.7	3.8	8.45e-01	0	42	104	0	27	11110
2026-01-13 06:28:13.99	251.90	7.06	-33.9	-43.8	3.8	8.45e-01	0	42	104	0	27	11179
2026-01-13 06:28:17.00	251.66	6.86	-33.9	-43.8	3.8	8.45e-01	0	42	104	0	27	11175

#Closed at: 2026-01-13 06:28:17
#Recorded file [0 MB]: D:/data/31010_260113_091755.dat