passes_logs/2026/01/13/R2M6_AANII_01/R2M6_AANII_01__20260113_075754_NOAA_21_JPSS-2_rec.log

#Pass ID: 20260113_075754_NOAA 21 (JPSS-2)
#Satellite: NOAA 21 (JPSS-2)
#Configuration: NOAA 21
#almurnet v.1.7.20240730
#Start time: 2026-01-13 07:57:54

#Version: 2.2.20231116
#Station: R2M6_AANII_01
#Location: 30.233357 lon 59.946436 lat
#TLE: 1 54234U 22150A   26012.26378519  .00000063  00000+0  50547-4 0  9993
#TLE: 2 54234  98.7495 313.1967 0000726 309.1075  51.0036 14.19534275164425

#Time	Az	El	Level	Level2	SNR	BER	BlckErr	Temp	State	Recorded	gain1	gain2
2026-01-13 07:57:54.01	87.07	6.99	-34.0	-45.3	3.8	1.49e+00	0	39	0	0	29	13224
2026-01-13 07:57:56.02	86.85	7.10	-34.0	-45.3	3.8	1.49e+00	0	40	104	0	29	13242
2026-01-13 07:57:58.03	86.63	7.22	-34.0	-45.3	3.8	1.49e+00	0	39	104	0	29	13289
2026-01-13 07:58:00.04	86.40	7.33	-34.0	-45.3	3.8	1.49e+00	0	40	104	0	29	13246
2026-01-13 07:58:02.05	86.18	7.45	-34.0	-45.3	3.8	1.49e+00	0	40	104	0	29	13202
2026-01-13 07:58:04.06	85.95	7.56	-33.9	-45.3	3.8	1.49e+00	0	40	104	0	29	13229
2026-01-13 07:58:06.07	85.73	7.68	-34.0	-45.3	3.8	1.49e+00	0	40	104	0	29	13244
2026-01-13 07:58:08.09	85.50	7.80	-34.0	-45.3	3.8	1.49e+00	0	40	104	0	29	13241
2026-01-13 07:58:10.10	85.26	7.91	-34.0	-45.3	3.8	1.49e+00	0	40	104	0	29	13208
2026-01-13 07:58:12.11	85.03	8.03	-34.0	-45.3	3.8	1.49e+00	0	40	104	0	29	13264
2026-01-13 07:58:14.12	84.80	8.14	-34.0	-45.3	3.8	1.49e+00	0	40	104	0	29	13237
2026-01-13 07:58:16.14	84.56	8.26	-34.0	-45.3	3.8	1.49e+00	0	40	104	0	29	13268
2026-01-13 07:58:18.15	84.32	8.38	-34.0	-45.3	3.8	1.49e+00	0	40	104	0	29	13228
2026-01-13 07:58:20.17	84.08	8.49	-34.0	-45.3	3.8	1.49e+00	0	40	104	0	29	13230
2026-01-13 07:58:22.18	83.83	8.61	-34.0	-45.3	3.8	1.49e+00	0	40	104	0	29	13225
2026-01-13 07:58:24.19	83.59	8.73	-34.0	-45.3	3.8	1.49e+00	0	40	104	0	29	13253
2026-01-13 07:58:26.20	83.34	8.84	-34.0	-45.3	3.8	1.49e+00	0	40	104	0	29	13231
2026-01-13 07:58:28.21	83.09	8.96	-34.0	-45.3	3.8	1.49e+00	0	40	104	0	29	13239
2026-01-13 07:58:30.22	82.84	9.08	-34.0	-45.3	3.8	1.49e+00	0	40	104	0	29	13247
2026-01-13 07:58:32.24	82.59	9.20	-34.0	-45.3	3.8	1.49e+00	0	40	104	0	29	13230
2026-01-13 07:58:34.24	82.33	9.31	-34.0	-45.3	3.8	1.49e+00	0	41	104	0	29	13252
2026-01-13 07:58:36.25	82.07	9.43	-34.0	-45.3	3.8	1.49e+00	0	41	104	0	29	13214
2026-01-13 07:58:38.27	81.81	9.55	-34.0	-45.3	3.8	1.49e+00	0	41	104	0	29	13208
2026-01-13 07:58:40.27	81.55	9.66	-34.0	-45.3	3.8	1.49e+00	0	41	104	0	29	13268
2026-01-13 07:58:42.29	81.29	9.78	-34.0	-45.3	3.8	1.49e+00	0	41	104	0	29	13211
2026-01-13 07:58:44.30	81.02	9.89	-34.0	-45.3	3.8	1.49e+00	0	41	104	0	29	13207
2026-01-13 07:58:46.31	80.75	10.01	-34.0	-45.3	3.8	1.49e+00	0	41	104	0	29	13285
2026-01-13 07:58:48.33	80.48	10.13	-34.0	-45.3	3.8	1.49e+00	0	41	104	0	29	13206
2026-01-13 07:58:50.34	80.21	10.24	-34.0	-45.3	3.8	1.49e+00	0	41	104	0	29	13243
2026-01-13 07:58:52.36	79.93	10.36	-34.0	-45.3	3.8	1.49e+00	0	41	104	0	29	13243
2026-01-13 07:58:54.37	79.66	10.48	-34.0	-45.3	3.8	1.49e+00	0	41	104	0	29	13256
2026-01-13 07:58:56.38	79.38	10.59	-34.0	-45.3	3.8	1.49e+00	0	41	104	0	29	13248
2026-01-13 07:58:58.39	79.10	10.71	-34.0	-45.3	3.8	1.49e+00	0	41	104	0	29	13279
2026-01-13 07:59:00.40	78.81	10.83	-34.0	-45.3	3.8	1.49e+00	0	41	104	0	29	13275
2026-01-13 07:59:02.41	78.53	10.94	-34.0	-45.3	3.8	1.49e+00	0	41	104	0	29	13241
2026-01-13 07:59:04.42	78.24	11.06	-34.0	-45.3	3.8	1.49e+00	0	41	104	0	29	13257
2026-01-13 07:59:06.43	77.95	11.17	-34.0	-45.3	3.8	1.49e+00	0	41	104	0	29	13267
2026-01-13 07:59:08.45	77.65	11.29	-34.0	-45.3	3.8	1.49e+00	0	41	104	0	29	13253
2026-01-13 07:59:10.46	77.36	11.40	-34.0	-45.3	3.8	1.49e+00	0	41	104	0	29	13269
2026-01-13 07:59:12.47	77.06	11.52	-34.0	-45.3	3.8	1.49e+00	0	41	104	0	29	13225
2026-01-13 07:59:14.48	76.76	11.63	-34.0	-45.3	3.8	1.49e+00	0	41	104	0	29	13248
2026-01-13 07:59:16.50	76.46	11.75	-34.0	-45.3	3.8	1.49e+00	0	41	104	0	29	13276
2026-01-13 07:59:18.50	76.15	11.86	-34.0	-45.3	3.8	1.49e+00	0	41	104	0	29	13299
2026-01-13 07:59:20.52	75.85	11.97	-34.0	-45.3	3.8	1.49e+00	0	41	104	0	29	13272
2026-01-13 07:59:22.52	75.54	12.09	-34.0	-45.3	3.8	1.49e+00	0	41	104	0	29	13247
2026-01-13 07:59:24.53	75.23	12.20	-34.0	-45.3	3.8	1.49e+00	0	41	104	0	29	13255
2026-01-13 07:59:26.54	74.91	12.31	-34.0	-45.3	3.8	1.49e+00	0	41	104	0	29	13243
2026-01-13 07:59:28.56	74.59	12.43	-34.0	-45.3	3.8	1.49e+00	0	41	104	0	29	13247
2026-01-13 07:59:30.57	74.27	12.54	-34.0	-45.3	3.8	1.49e+00	0	41	104	0	29	13299
2026-01-13 07:59:32.59	73.95	12.65	-34.0	-45.3	3.8	1.49e+00	0	41	104	0	29	13240
2026-01-13 07:59:34.60	73.63	12.76	-34.0	-45.3	3.8	1.49e+00	0	41	104	0	29	13226
2026-01-13 07:59:36.61	73.30	12.87	-34.0	-45.3	3.8	1.49e+00	0	41	104	0	29	13246
2026-01-13 07:59:38.62	72.97	12.98	-34.0	-45.3	3.8	1.49e+00	0	41	104	0	29	13239
2026-01-13 07:59:40.64	72.64	13.09	-34.0	-45.3	3.8	1.49e+00	0	42	104	0	29	13243
2026-01-13 07:59:42.65	72.30	13.20	-34.0	-45.3	3.8	1.49e+00	0	41	104	0	29	13226
2026-01-13 07:59:44.66	71.97	13.31	-34.0	-45.3	3.8	1.49e+00	0	41	104	0	29	13294
2026-01-13 07:59:46.68	71.63	13.42	-34.0	-45.2	3.8	1.49e+00	0	41	104	0	29	13206
2026-01-13 07:59:48.70	71.28	13.53	-34.0	-45.3	3.8	1.49e+00	0	42	104	0	29	13248
2026-01-13 07:59:50.72	70.94	13.64	-34.0	-45.3	3.8	1.49e+00	0	41	104	0	29	13242
2026-01-13 07:59:52.73	70.59	13.75	-34.0	-45.3	3.8	1.49e+00	0	41	104	0	29	13233
2026-01-13 07:59:54.75	70.24	13.85	-34.0	-45.3	3.8	1.49e+00	0	41	104	0	29	13214
2026-01-13 07:59:56.77	69.89	13.96	-34.0	-45.3	3.8	1.49e+00	0	41	104	0	29	13251
2026-01-13 07:59:58.78	69.53	14.06	-34.0	-45.3	3.8	1.49e+00	0	42	104	0	29	13228
2026-01-13 08:00:00.79	69.17	14.17	-34.0	-45.3	3.8	1.49e+00	0	42	104	0	29	13214
2026-01-13 08:00:02.80	68.82	14.27	-34.0	-45.3	3.8	1.49e+00	0	42	104	0	29	13236
2026-01-13 08:00:04.82	68.45	14.38	-34.0	-45.3	3.8	1.49e+00	0	42	104	0	29	13264
2026-01-13 08:00:06.83	68.09	14.48	-34.0	-45.3	3.8	1.49e+00	0	42	104	0	29	13246
2026-01-13 08:00:08.84	67.72	14.58	-34.0	-45.3	3.8	1.49e+00	0	41	104	0	29	13219
2026-01-13 08:00:10.86	67.35	14.68	-34.0	-45.3	3.8	1.49e+00	0	42	104	0	29	13255
2026-01-13 08:00:12.87	66.98	14.78	-34.0	-45.3	3.8	1.49e+00	0	42	104	0	29	13226
2026-01-13 08:00:14.88	66.60	14.88	-34.0	-45.3	3.8	1.49e+00	0	42	104	0	29	13255
2026-01-13 08:00:16.89	66.22	14.98	-34.0	-45.3	3.8	1.49e+00	0	41	104	0	29	13238
2026-01-13 08:00:18.90	65.85	15.08	-34.0	-45.3	3.8	1.49e+00	0	42	104	0	29	13233
2026-01-13 08:00:20.91	65.46	15.18	-34.0	-45.3	3.8	1.49e+00	0	42	104	0	29	13270
2026-01-13 08:00:22.93	65.08	15.27	-34.0	-45.3	3.8	1.49e+00	0	42	104	0	29	13221
2026-01-13 08:00:24.94	64.69	15.37	-34.0	-45.3	3.8	1.49e+00	0	42	104	0	29	13254
2026-01-13 08:00:26.96	64.30	15.46	-34.0	-45.3	3.8	1.49e+00	0	42	104	0	29	13226
2026-01-13 08:00:28.96	63.91	15.55	-34.0	-45.3	3.8	1.49e+00	0	42	104	0	29	13208
2026-01-13 08:00:30.97	63.51	15.65	-34.0	-45.3	3.8	1.49e+00	0	42	104	0	29	13238
2026-01-13 08:00:32.98	63.12	15.74	-34.0	-45.3	3.8	1.49e+00	0	42	104	0	29	13239
2026-01-13 08:00:35.00	62.71	15.83	-34.0	-45.3	3.8	1.49e+00	0	42	104	0	29	13257
2026-01-13 08:00:37.01	62.31	15.92	-34.0	-45.3	3.8	1.49e+00	0	42	104	0	29	13266
2026-01-13 08:00:39.03	61.91	16.00	-34.0	-45.3	3.8	1.49e+00	0	42	104	0	29	13276
2026-01-13 08:00:41.04	61.50	16.09	-34.0	-45.3	3.8	1.49e+00	0	42	104	0	29	13249
2026-01-13 08:00:43.06	61.09	16.18	-34.0	-45.3	3.8	1.49e+00	0	42	104	0	29	13238
2026-01-13 08:00:45.07	60.68	16.26	-34.0	-45.3	3.8	1.49e+00	0	42	104	0	29	13205
2026-01-13 08:00:47.08	60.26	16.34	-34.0	-45.3	3.8	1.49e+00	0	42	104	0	29	13265
2026-01-13 08:00:49.10	59.85	16.42	-34.0	-45.3	3.8	1.49e+00	0	42	104	0	29	13225
2026-01-13 08:00:51.11	59.43	16.51	-34.0	-45.3	3.8	1.49e+00	0	42	104	0	29	13242
2026-01-13 08:00:53.12	59.01	16.58	-34.0	-45.3	3.8	1.49e+00	0	42	104	0	29	13229
2026-01-13 08:00:55.13	58.59	16.66	-34.0	-45.3	3.8	1.49e+00	0	42	104	0	29	13240
2026-01-13 08:00:57.14	58.16	16.74	-34.0	-45.3	3.8	1.49e+00	0	42	104	0	29	13245
2026-01-13 08:00:59.15	57.73	16.81	-34.0	-45.3	3.8	1.49e+00	0	42	104	0	29	13218
2026-01-13 08:01:01.16	57.30	16.89	-34.0	-45.3	3.8	1.49e+00	0	42	104	0	29	13277
2026-01-13 08:01:03.18	56.87	16.96	-34.0	-45.3	3.8	1.49e+00	0	42	104	0	29	13256
2026-01-13 08:01:05.19	56.44	17.03	-34.0	-45.3	3.8	1.49e+00	0	42	104	0	29	13287
2026-01-13 08:01:07.21	56.00	17.10	-34.0	-45.3	3.8	1.49e+00	0	42	104	0	29	13213
2026-01-13 08:01:09.21	55.57	17.17	-34.0	-45.3	3.8	1.49e+00	0	42	104	0	29	13247
2026-01-13 08:01:11.22	55.13	17.23	-34.0	-45.3	3.8	1.49e+00	0	42	104	0	29	13238
2026-01-13 08:01:13.24	54.68	17.30	-34.0	-45.3	3.8	1.49e+00	0	42	104	0	29	13241
2026-01-13 08:01:15.24	54.24	17.36	-34.0	-45.3	3.8	1.49e+00	0	42	104	0	29	13254
2026-01-13 08:01:17.24	53.80	17.42	-34.0	-45.3	3.8	1.49e+00	0	42	104	0	29	13238
2026-01-13 08:01:19.26	53.35	17.48	-34.0	-45.3	3.8	1.49e+00	0	42	104	0	29	13229
2026-01-13 08:01:21.27	52.90	17.54	-34.0	-45.3	3.8	1.49e+00	0	42	104	0	29	13221
2026-01-13 08:01:23.29	52.45	17.60	-34.0	-45.3	3.8	1.49e+00	0	42	104	0	29	13241
2026-01-13 08:01:25.30	52.00	17.65	-34.0	-45.3	3.8	1.49e+00	0	42	104	0	29	13231
2026-01-13 08:01:27.32	51.54	17.70	-34.0	-45.3	3.8	1.49e+00	0	42	104	0	29	13242
2026-01-13 08:01:29.33	51.09	17.76	-34.0	-45.3	3.8	1.49e+00	0	42	104	0	29	13214
2026-01-13 08:01:31.35	50.63	17.81	-34.0	-45.3	3.8	1.49e+00	0	42	104	0	29	13245
2026-01-13 08:01:33.37	50.17	17.85	-34.0	-45.3	3.8	1.49e+00	0	42	104	0	29	13230
2026-01-13 08:01:35.37	49.71	17.90	-34.0	-45.3	3.8	1.49e+00	0	42	104	0	29	13248
2026-01-13 08:01:37.38	49.25	17.94	-34.0	-45.3	3.8	1.49e+00	0	42	104	0	29	13257
2026-01-13 08:01:39.40	48.79	17.99	-34.0	-45.3	3.8	1.49e+00	0	42	104	0	29	13284
2026-01-13 08:01:41.41	48.33	18.03	-34.0	-45.3	3.8	1.49e+00	0	42	104	0	29	13209
2026-01-13 08:01:43.43	47.86	18.06	-34.0	-45.3	3.8	1.49e+00	0	42	104	0	29	13207
2026-01-13 08:01:45.44	47.39	18.10	-34.0	-45.3	3.8	1.49e+00	0	42	104	0	29	13236
2026-01-13 08:01:47.46	46.92	18.14	-34.0	-45.3	3.8	1.49e+00	0	42	104	0	29	13262
2026-01-13 08:01:49.47	46.46	18.17	-34.0	-45.3	3.8	1.49e+00	0	42	104	0	29	13255
2026-01-13 08:01:51.48	45.99	18.20	-34.0	-45.3	3.8	1.49e+00	0	42	104	0	29	13260
2026-01-13 08:01:53.49	45.52	18.23	-34.0	-45.3	3.8	1.49e+00	0	42	104	0	29	13260
2026-01-13 08:01:55.51	45.05	18.26	-34.0	-45.3	3.8	1.49e+00	0	42	104	0	29	13293
2026-01-13 08:01:57.52	44.57	18.28	-34.0	-45.3	3.8	1.49e+00	0	42	104	0	29	13270
2026-01-13 08:01:59.53	44.10	18.30	-34.0	-45.3	3.8	1.49e+00	0	42	104	0	29	13218
2026-01-13 08:02:01.55	43.63	18.32	-34.0	-45.3	3.8	1.49e+00	0	42	104	0	29	13219
2026-01-13 08:02:03.55	43.16	18.34	-34.0	-45.3	3.8	1.49e+00	0	42	104	0	29	13237
2026-01-13 08:02:05.57	42.68	18.36	-34.0	-45.3	3.8	1.49e+00	0	42	104	0	29	13226
2026-01-13 08:02:07.58	42.21	18.38	-34.0	-45.3	3.8	1.49e+00	0	42	104	0	29	13239
2026-01-13 08:02:09.59	41.73	18.39	-34.0	-45.3	3.8	1.49e+00	0	42	104	0	29	13289
2026-01-13 08:02:11.61	41.25	18.40	-34.0	-45.3	3.8	1.49e+00	0	42	104	0	29	13244
2026-01-13 08:02:13.61	40.78	18.41	-34.0	-45.3	3.8	1.49e+00	0	42	104	0	29	13239
2026-01-13 08:02:15.63	40.30	18.42	-34.0	-45.3	3.8	1.49e+00	0	42	104	0	29	13242
2026-01-13 08:02:17.64	39.83	18.42	-34.0	-45.3	3.8	1.49e+00	0	42	104	0	29	13235
2026-01-13 08:02:19.65	39.35	18.42	-34.0	-45.3	3.8	1.49e+00	0	42	104	0	29	13219
2026-01-13 08:02:21.67	38.87	18.42	-34.0	-45.3	3.8	1.49e+00	0	42	104	0	29	13231
2026-01-13 08:02:23.68	38.40	18.42	-34.0	-45.3	3.8	1.49e+00	0	42	104	0	29	13246
2026-01-13 08:02:25.69	37.92	18.42	-34.0	-45.3	3.8	1.49e+00	0	42	104	0	29	13264
2026-01-13 08:02:27.70	37.45	18.41	-34.0	-45.3	3.8	1.49e+00	0	42	104	0	29	13274
2026-01-13 08:02:29.71	36.97	18.41	-34.0	-45.3	3.8	1.49e+00	0	42	104	0	29	13239
2026-01-13 08:02:31.73	36.49	18.40	-34.0	-45.3	3.8	1.49e+00	0	42	104	0	29	13288
2026-01-13 08:02:33.74	36.02	18.38	-34.0	-45.3	3.8	1.49e+00	0	42	104	0	29	13256
2026-01-13 08:02:35.75	35.54	18.37	-34.0	-45.3	3.8	1.49e+00	0	42	104	0	29	13227
2026-01-13 08:02:37.76	35.07	18.35	-34.0	-45.3	3.8	1.49e+00	0	42	104	0	29	13289
2026-01-13 08:02:39.77	34.60	18.34	-34.0	-45.3	3.8	1.49e+00	0	42	104	0	29	13259
2026-01-13 08:02:41.78	34.12	18.32	-34.0	-45.3	3.8	1.49e+00	0	42	104	0	29	13237
2026-01-13 08:02:43.80	33.65	18.30	-34.0	-45.3	3.8	1.49e+00	0	42	104	0	29	13229
2026-01-13 08:02:45.81	33.18	18.27	-34.0	-45.3	3.8	1.49e+00	0	42	104	0	29	13241
2026-01-13 08:02:47.82	32.71	18.25	-34.0	-45.3	3.8	1.49e+00	0	42	104	0	29	13227
2026-01-13 08:02:49.84	32.24	18.22	-34.0	-45.3	3.8	1.49e+00	0	42	104	0	29	13209
2026-01-13 08:02:51.86	31.77	18.19	-34.0	-45.3	3.8	1.49e+00	0	42	104	0	29	13287
2026-01-13 08:02:53.87	31.30	18.16	-34.0	-45.3	3.8	1.49e+00	0	42	104	0	29	13251
2026-01-13 08:02:55.87	30.83	18.12	-34.0	-45.3	3.8	1.49e+00	0	42	104	0	29	13246
2026-01-13 08:02:57.88	30.37	18.09	-34.0	-45.3	3.8	1.49e+00	0	42	104	0	29	13254
2026-01-13 08:02:59.89	29.90	18.05	-34.0	-45.3	3.8	1.49e+00	0	42	104	0	29	13224
2026-01-13 08:03:01.91	29.44	18.01	-34.0	-45.3	3.8	1.49e+00	0	42	104	0	29	13245
2026-01-13 08:03:03.92	28.98	17.97	-34.0	-45.3	3.8	1.49e+00	0	42	104	0	29	13282
2026-01-13 08:03:05.93	28.51	17.93	-34.0	-45.3	3.8	1.49e+00	0	42	104	0	29	13275
2026-01-13 08:03:07.94	28.05	17.88	-34.0	-45.3	3.8	1.49e+00	0	42	104	0	29	13298
2026-01-13 08:03:09.96	27.59	17.84	-34.0	-45.3	3.8	1.49e+00	0	42	104	0	29	13242
2026-01-13 08:03:11.97	27.14	17.79	-34.0	-45.3	3.8	1.49e+00	0	42	104	0	29	13252
2026-01-13 08:03:13.99	26.68	17.74	-34.0	-45.3	3.8	1.49e+00	0	42	104	0	29	13211
2026-01-13 08:03:16.01	26.22	17.69	-34.0	-45.3	3.8	1.49e+00	0	42	104	0	29	13299
2026-01-13 08:03:18.02	25.77	17.63	-34.0	-45.3	3.8	1.49e+00	0	42	104	0	29	13273
2026-01-13 08:03:20.04	25.32	17.58	-34.0	-45.3	3.8	1.49e+00	0	42	104	0	29	13246
2026-01-13 08:03:22.05	24.87	17.52	-34.0	-45.3	3.8	1.49e+00	0	42	104	0	29	13263
2026-01-13 08:03:24.06	24.43	17.46	-34.0	-45.3	3.8	1.49e+00	0	42	104	0	29	13285
2026-01-13 08:03:26.08	23.98	17.40	-34.0	-45.3	3.8	1.49e+00	0	42	104	0	29	13243
2026-01-13 08:03:28.09	23.54	17.34	-34.0	-45.3	3.8	1.49e+00	0	42	104	0	29	13275
2026-01-13 08:03:30.11	23.09	17.28	-34.0	-45.3	3.8	1.49e+00	0	42	104	0	29	13265
2026-01-13 08:03:32.12	22.65	17.21	-34.0	-45.3	3.8	1.49e+00	0	42	104	0	29	13248
2026-01-13 08:03:34.14	22.21	17.14	-34.0	-45.3	3.8	1.49e+00	0	42	104	0	29	13229
2026-01-13 08:03:36.15	21.78	17.08	-34.0	-45.3	3.8	1.49e+00	0	42	104	0	29	13235
2026-01-13 08:03:38.16	21.34	17.01	-34.0	-45.3	3.8	1.49e+00	0	42	104	0	29	13260
2026-01-13 08:03:40.17	20.91	16.93	-34.0	-45.3	3.8	1.49e+00	0	42	104	0	29	13266
2026-01-13 08:03:42.19	20.48	16.86	-34.0	-45.3	3.8	1.49e+00	0	42	104	0	29	13223
2026-01-13 08:03:44.20	20.05	16.79	-34.0	-45.3	3.8	1.49e+00	0	42	104	0	29	13245
2026-01-13 08:03:46.22	19.63	16.71	-34.0	-45.3	3.8	1.49e+00	0	42	104	0	29	13248
2026-01-13 08:03:48.23	19.20	16.64	-34.0	-45.3	3.8	1.49e+00	0	42	104	0	29	13244
2026-01-13 08:03:50.25	18.78	16.56	-34.0	-45.3	3.8	1.49e+00	0	42	104	0	29	13277
2026-01-13 08:03:52.25	18.37	16.48	-34.0	-45.3	3.8	1.49e+00	0	42	104	0	29	13236
2026-01-13 08:03:54.27	17.95	16.40	-34.0	-45.3	3.8	1.49e+00	0	42	104	0	29	13256
2026-01-13 08:03:56.28	17.53	16.32	-34.0	-45.3	3.8	1.49e+00	0	42	104	0	29	13267
2026-01-13 08:03:58.29	17.12	16.23	-34.0	-45.3	3.8	1.49e+00	0	42	104	0	29	13236
2026-01-13 08:04:00.31	16.71	16.15	-34.0	-45.3	3.8	1.49e+00	0	42	104	0	29	13234
2026-01-13 08:04:02.32	16.30	16.06	-34.0	-45.3	3.8	1.49e+00	0	42	104	0	29	13226
2026-01-13 08:04:04.34	15.90	15.97	-34.0	-45.3	3.8	1.49e+00	0	42	104	0	29	13275
2026-01-13 08:04:06.36	15.49	15.89	-34.0	-45.3	3.8	1.49e+00	0	42	104	0	29	13192
2026-01-13 08:04:08.37	15.09	15.80	-34.0	-45.3	3.8	1.49e+00	0	42	104	0	29	13258
2026-01-13 08:04:10.39	14.69	15.71	-34.0	-45.3	3.8	1.49e+00	0	42	104	0	29	13257
2026-01-13 08:04:12.40	14.30	15.62	-34.0	-45.3	3.8	1.49e+00	0	42	104	0	29	13241
2026-01-13 08:04:14.40	13.91	15.52	-34.0	-45.3	3.8	1.49e+00	0	42	104	0	29	13248
2026-01-13 08:04:16.42	13.52	15.43	-34.0	-45.3	3.8	1.49e+00	0	42	104	0	29	13249
2026-01-13 08:04:18.43	13.13	15.34	-34.0	-45.3	3.8	1.49e+00	0	42	104	0	29	13266
2026-01-13 08:04:20.45	12.74	15.24	-34.0	-45.3	3.8	1.49e+00	0	42	104	0	29	13225
2026-01-13 08:04:22.46	12.36	15.14	-34.0	-45.3	3.8	1.49e+00	0	42	104	0	29	13276
2026-01-13 08:04:24.47	11.98	15.05	-34.0	-45.3	3.8	1.49e+00	0	42	104	0	29	13266
2026-01-13 08:04:26.49	11.60	14.95	-34.0	-45.3	3.8	1.49e+00	0	42	104	0	29	13248
2026-01-13 08:04:28.50	11.23	14.85	-34.0	-45.3	3.8	1.49e+00	0	42	104	0	29	13204
2026-01-13 08:04:30.50	10.86	14.75	-34.0	-45.3	3.8	1.49e+00	0	42	104	0	29	13250
2026-01-13 08:04:32.52	10.49	14.65	-34.0	-45.3	3.8	1.49e+00	0	42	104	0	29	13234
2026-01-13 08:04:34.53	10.12	14.55	-34.0	-45.3	3.8	1.49e+00	0	42	104	0	29	13298
2026-01-13 08:04:36.55	9.75	14.45	-34.0	-45.3	3.8	1.49e+00	0	42	104	0	29	13261
2026-01-13 08:04:38.56	9.39	14.35	-34.0	-45.3	3.8	1.49e+00	0	42	104	0	29	13272
2026-01-13 08:04:40.58	9.03	14.24	-34.0	-45.3	3.8	1.49e+00	0	42	104	0	29	13247
2026-01-13 08:04:42.59	8.67	14.14	-34.0	-45.3	3.8	1.49e+00	0	42	104	0	29	13269
2026-01-13 08:04:44.60	8.32	14.03	-34.0	-45.3	3.8	1.49e+00	0	42	104	0	29	13282
2026-01-13 08:04:46.61	7.97	13.93	-34.0	-45.3	3.8	1.49e+00	0	42	104	0	29	13263
2026-01-13 08:04:48.62	7.62	13.82	-34.0	-45.3	3.8	1.49e+00	0	42	104	0	29	13243
2026-01-13 08:04:50.63	7.27	13.72	-34.0	-45.3	3.8	1.49e+00	0	42	104	0	29	13275
2026-01-13 08:04:52.64	6.93	13.61	-34.0	-45.3	3.8	1.49e+00	0	42	104	0	29	13259
2026-01-13 08:04:54.65	6.58	13.50	-34.0	-45.3	3.8	1.49e+00	0	42	104	0	29	13279
2026-01-13 08:04:56.66	6.24	13.39	-34.0	-45.3	3.8	1.49e+00	0	42	104	0	29	13222
2026-01-13 08:04:58.67	5.91	13.29	-34.0	-45.3	3.8	1.49e+00	0	42	104	0	29	13272
2026-01-13 08:05:00.68	5.57	13.18	-34.0	-45.3	3.8	1.49e+00	0	42	104	0	29	13284
2026-01-13 08:05:02.70	5.24	13.07	-34.0	-45.3	3.8	1.49e+00	0	42	104	0	29	13250
2026-01-13 08:05:04.71	4.91	12.96	-34.0	-45.3	3.8	1.49e+00	0	42	104	0	29	13269
2026-01-13 08:05:06.72	4.58	12.85	-34.0	-45.3	3.8	1.49e+00	0	42	104	0	29	13195
2026-01-13 08:05:08.73	4.26	12.74	-34.0	-45.3	3.8	1.49e+00	0	42	104	0	29	13243
2026-01-13 08:05:10.75	3.94	12.62	-34.0	-45.3	3.8	1.49e+00	0	42	104	0	29	13259
2026-01-13 08:05:12.75	3.62	12.51	-34.0	-45.3	3.8	1.49e+00	0	42	104	0	29	13268
2026-01-13 08:05:14.77	3.30	12.40	-34.0	-45.3	3.8	1.49e+00	0	42	104	0	29	13234
2026-01-13 08:05:16.78	2.99	12.29	-34.0	-45.3	3.8	1.49e+00	0	42	104	0	29	13203
2026-01-13 08:05:18.79	2.67	12.18	-34.0	-45.3	3.8	1.49e+00	0	42	104	0	29	13257
2026-01-13 08:05:20.81	2.36	12.06	-34.0	-45.3	3.8	1.49e+00	0	42	104	0	29	13273
2026-01-13 08:05:22.83	2.06	11.95	-34.0	-45.3	3.8	1.49e+00	0	42	104	0	29	13261
2026-01-13 08:05:24.84	1.75	11.83	-34.0	-45.3	3.8	1.49e+00	0	42	104	0	29	13239
2026-01-13 08:05:26.85	1.45	11.72	-34.0	-45.3	3.8	1.49e+00	0	42	104	0	29	13274
2026-01-13 08:05:28.87	1.15	11.61	-34.0	-45.3	3.8	1.49e+00	0	42	104	0	29	13245
2026-01-13 08:05:30.89	0.85	11.49	-34.0	-45.3	3.8	1.49e+00	0	42	104	0	29	13293
2026-01-13 08:05:32.90	0.55	11.38	-34.0	-45.3	3.8	1.49e+00	0	42	104	0	29	13261
2026-01-13 08:05:34.92	0.26	11.26	-34.0	-45.3	3.8	1.49e+00	0	42	104	0	29	13231
2026-01-13 08:05:36.92	359.97	11.15	-34.0	-45.3	3.8	1.49e+00	0	42	104	0	29	13283
2026-01-13 08:05:38.94	359.68	11.03	-34.0	-45.3	3.8	1.49e+00	0	42	104	0	29	13239
2026-01-13 08:05:40.95	359.40	10.92	-34.0	-45.3	3.8	1.49e+00	0	42	104	0	29	13282
2026-01-13 08:05:42.97	359.11	10.80	-34.0	-45.3	3.8	1.49e+00	0	42	104	0	29	13277
2026-01-13 08:05:44.99	358.83	10.69	-34.0	-45.3	3.8	1.49e+00	0	42	104	0	29	13258
2026-01-13 08:05:47.00	358.55	10.57	-34.0	-45.3	3.8	1.49e+00	0	42	104	0	29	13246
2026-01-13 08:05:49.01	358.27	10.45	-34.0	-45.3	3.8	1.49e+00	0	42	104	0	29	13243
2026-01-13 08:05:51.02	358.00	10.34	-34.0	-45.3	3.8	1.49e+00	0	42	104	0	29	13273
2026-01-13 08:05:53.04	357.72	10.22	-34.0	-45.3	3.8	1.49e+00	0	42	104	0	29	13265
2026-01-13 08:05:55.05	357.45	10.11	-34.0	-45.3	3.8	1.49e+00	0	42	104	0	29	13260
2026-01-13 08:05:57.06	357.19	9.99	-34.0	-45.3	3.8	1.49e+00	0	42	104	0	29	13266
2026-01-13 08:05:59.07	356.92	9.87	-34.0	-45.3	3.8	1.49e+00	0	42	104	0	29	13230
2026-01-13 08:06:01.09	356.66	9.76	-34.0	-45.3	3.8	1.49e+00	0	42	104	0	29	13244
2026-01-13 08:06:03.10	356.40	9.64	-34.0	-45.3	3.8	1.49e+00	0	42	104	0	29	13246
2026-01-13 08:06:05.11	356.14	9.52	-34.0	-45.3	3.8	1.49e+00	0	42	104	0	29	13259
2026-01-13 08:06:07.13	355.88	9.41	-34.0	-45.3	3.8	1.49e+00	0	42	104	0	29	13253
2026-01-13 08:06:09.14	355.62	9.29	-34.0	-45.3	3.8	1.49e+00	0	42	104	0	29	13230
2026-01-13 08:06:11.16	355.37	9.17	-34.0	-45.3	3.8	1.49e+00	0	42	104	0	29	13261
2026-01-13 08:06:13.16	355.12	9.06	-34.0	-45.3	3.8	1.49e+00	0	42	104	0	29	13230
2026-01-13 08:06:15.18	354.87	8.94	-34.0	-45.3	3.8	1.49e+00	0	42	104	0	29	13213
2026-01-13 08:06:17.19	354.62	8.82	-34.0	-45.3	3.8	1.49e+00	0	42	104	0	29	13269
2026-01-13 08:06:19.21	354.38	8.71	-34.0	-45.3	3.8	1.49e+00	0	42	104	0	29	13228
2026-01-13 08:06:21.23	354.13	8.59	-34.0	-45.3	3.8	1.49e+00	0	42	104	0	29	13230
2026-01-13 08:06:23.24	353.89	8.48	-34.0	-45.3	3.8	1.49e+00	0	42	104	0	29	13294
2026-01-13 08:06:25.25	353.65	8.36	-34.0	-45.3	3.8	1.49e+00	0	42	104	0	29	13235
2026-01-13 08:06:27.27	353.42	8.24	-34.0	-45.3	3.8	1.49e+00	0	42	104	0	29	13252
2026-01-13 08:06:29.28	353.18	8.13	-34.0	-45.3	3.8	1.49e+00	0	42	104	0	29	13235
2026-01-13 08:06:31.30	352.95	8.01	-34.0	-45.3	3.8	1.49e+00	0	42	104	0	29	13245
2026-01-13 08:06:33.31	352.72	7.89	-34.0	-45.3	3.8	1.49e+00	0	42	104	0	29	13258
2026-01-13 08:06:35.32	352.49	7.78	-34.0	-45.3	3.8	1.49e+00	0	42	104	0	29	13203
2026-01-13 08:06:37.32	352.26	7.66	-34.0	-45.3	3.8	1.49e+00	0	42	104	0	29	13252
2026-01-13 08:06:39.33	352.04	7.55	-34.0	-45.3	3.8	1.49e+00	0	42	104	0	29	13239
2026-01-13 08:06:41.34	351.81	7.43	-34.0	-45.3	3.8	1.49e+00	0	42	104	0	29	13217
2026-01-13 08:06:43.36	351.59	7.32	-34.0	-45.3	3.8	1.49e+00	0	42	104	0	29	13237
2026-01-13 08:06:45.37	351.37	7.20	-34.0	-45.3	3.8	1.49e+00	0	42	104	0	29	13237
2026-01-13 08:06:47.39	351.15	7.09	-34.0	-45.3	3.8	1.49e+00	0	42	104	0	29	13286

#Closed at: 2026-01-13 08:06:49
#Recorded file [0 MB]: D:/data/31010_260113_105753.dat