passes_logs/2025/01/17/LEX_Murmansk/LEX_Murmansk__20250117_140311_NOAA_18_rec.log

#Pass ID: 20250117_140311_NOAA 18
#Satellite: NOAA 18
#Configuration: NOAA 18
#Start time: 2025-01-17 14:03:06.801903

#LorettStation: 1.0.0 05.05.2024
#Station: LEX_Murmansk
#Location: 33.156738 lon 68.926811 lat
#TLE: 1 28654U 05018A   25017.14480960  .00000361  00000+0  21486-3 0  9999
#TLE: 2 28654  98.8562  98.1779 0014463 173.1209 187.0164 14.13488310 13483

#Time	Az	El	Level	SNR
2025-01-17 14:03:19.024924	34.8	15.9	-90.8	6.6
2025-01-17 14:03:20.185777	34.6	16.0	-90.3	6.1
2025-01-17 14:03:21.335580	34.5	16.0	-90.9	6.7
2025-01-17 14:03:22.484097	34.3	16.1	-90.6	5.3
2025-01-17 14:03:23.644604	34.1	16.2	-90.6	5.8
2025-01-17 14:03:24.791787	33.9	16.3	-90.6	5.3
2025-01-17 14:03:25.945231	33.7	16.4	-90.6	5.9
2025-01-17 14:03:27.092080	33.5	16.5	-90.5	6.7
2025-01-17 14:03:28.247578	33.3	16.5	-90.4	6.4
2025-01-17 14:03:29.399744	33.1	16.6	-90.2	9.6
2025-01-17 14:03:30.550610	32.9	16.7	-90.7	6.0
2025-01-17 14:03:31.697733	32.7	16.8	-90.9	7.2
2025-01-17 14:03:32.855890	32.5	16.9	-90.9	7.8
2025-01-17 14:03:34.008655	32.3	17.0	-90.9	6.2
2025-01-17 14:03:35.158013	32.2	17.0	-90.8	5.2
2025-01-17 14:03:36.307265	32.0	17.1	-90.9	5.0
2025-01-17 14:03:37.462379	31.8	17.2	-90.9	8.3
2025-01-17 14:03:38.610246	31.6	17.3	-90.8	5.7
2025-01-17 14:03:39.746949	31.4	17.4	-90.5	5.6
2025-01-17 14:03:40.897351	31.1	17.5	-91.0	8.0
2025-01-17 14:03:42.049649	30.9	17.5	-90.9	5.8
2025-01-17 14:03:43.196329	30.7	17.6	-90.6	6.3
2025-01-17 14:03:44.355638	30.5	17.7	-90.7	5.0
2025-01-17 14:03:45.503805	30.3	17.8	-90.8	6.2
2025-01-17 14:03:46.653456	30.1	17.9	-91.0	6.4
2025-01-17 14:03:47.801133	29.9	17.9	-91.1	7.5
2025-01-17 14:03:48.948875	29.7	18.0	-90.9	7.0
2025-01-17 14:03:50.104782	29.5	18.1	-90.6	11.3
2025-01-17 14:03:51.250025	29.3	18.2	-90.9	9.1
2025-01-17 14:03:52.395337	29.1	18.3	-91.0	6.6
2025-01-17 14:03:53.543388	28.8	18.3	-90.8	4.0
2025-01-17 14:03:54.691148	28.6	18.4	-90.9	8.9
2025-01-17 14:03:55.846960	28.4	18.5	-90.6	7.5
2025-01-17 14:03:57.003651	28.2	18.6	-90.7	8.2
2025-01-17 14:03:58.156027	28.0	18.7	-90.4	9.1
2025-01-17 14:03:59.299571	27.7	18.7	-90.5	7.6
2025-01-17 14:04:00.452262	27.5	18.8	-90.8	6.1
2025-01-17 14:04:01.608870	27.3	18.9	-90.7	8.5
2025-01-17 14:04:02.762327	27.1	19.0	-91.0	8.6
2025-01-17 14:04:03.914671	26.8	19.1	-91.2	5.9
2025-01-17 14:04:05.062266	26.6	19.1	-90.5	4.7
2025-01-17 14:04:06.215455	26.4	19.2	-90.8	6.4
2025-01-17 14:04:07.366014	26.2	19.3	-91.0	10.4
2025-01-17 14:04:08.518742	25.9	19.4	-91.0	6.2
2025-01-17 14:04:09.668394	25.7	19.5	-90.8	9.2
2025-01-17 14:04:10.820056	25.5	19.5	-91.0	9.6
2025-01-17 14:04:11.970066	25.2	19.6	-91.0	7.7
2025-01-17 14:04:13.122526	25.0	19.7	-90.8	6.0
2025-01-17 14:04:14.276716	24.8	19.8	-90.8	8.8
2025-01-17 14:04:15.424522	24.5	19.8	-90.9	8.0
2025-01-17 14:04:16.579537	24.3	19.9	-90.7	6.2
2025-01-17 14:04:17.734409	24.0	20.0	-90.7	9.9
2025-01-17 14:04:18.878501	23.8	20.1	-91.0	11.7
2025-01-17 14:04:20.031343	23.6	20.1	-91.0	6.7
2025-01-17 14:04:21.180171	23.3	20.2	-91.0	12.9
2025-01-17 14:04:22.324422	23.1	20.3	-90.7	6.8
2025-01-17 14:04:23.475981	22.8	20.4	-90.8	11.3
2025-01-17 14:04:24.625528	22.6	20.4	-91.0	12.4
2025-01-17 14:04:25.771569	22.3	20.5	-90.9	6.5
2025-01-17 14:04:26.926400	22.1	20.6	-90.6	5.9
2025-01-17 14:04:28.074812	21.8	20.7	-90.8	6.9
2025-01-17 14:04:29.228564	21.6	20.7	-91.2	5.4
2025-01-17 14:04:30.383131	21.3	20.8	-91.0	7.4
2025-01-17 14:04:31.533539	21.1	20.9	-90.6	2.0
2025-01-17 14:04:32.687268	20.8	20.9	-90.8	8.5
2025-01-17 14:04:33.850975	20.5	21.0	-90.7	5.7
2025-01-17 14:04:35.004129	20.3	21.1	-90.9	5.5
2025-01-17 14:04:36.162038	20.0	21.2	-90.6	6.0
2025-01-17 14:04:37.315217	19.8	21.2	-90.5	9.9
2025-01-17 14:04:38.463793	19.5	21.3	-90.9	9.4
2025-01-17 14:04:39.614135	19.2	21.4	-90.8	10.3
2025-01-17 14:04:40.762345	19.0	21.4	-90.7	10.9
2025-01-17 14:04:41.918500	18.7	21.5	-90.9	9.6
2025-01-17 14:04:43.072497	18.4	21.6	-91.1	8.2
2025-01-17 14:04:44.222809	18.2	21.6	-90.9	8.0
2025-01-17 14:04:45.371829	17.9	21.7	-90.7	10.0
2025-01-17 14:04:46.517619	17.6	21.8	-90.9	8.4
2025-01-17 14:04:47.675516	17.4	21.8	-90.8	4.6
2025-01-17 14:04:48.826259	17.1	21.9	-90.9	10.1
2025-01-17 14:04:49.975056	16.8	21.9	-91.1	5.5
2025-01-17 14:04:51.123207	16.5	22.0	-89.9	8.0
2025-01-17 14:04:52.274761	16.3	22.1	-90.0	6.3
2025-01-17 14:04:53.424660	16.0	22.1	-90.4	8.8
2025-01-17 14:04:54.577567	15.7	22.2	-90.4	5.2
2025-01-17 14:04:55.725795	15.4	22.3	-90.1	7.9
2025-01-17 14:04:56.876474	15.2	22.3	-90.3	4.7
2025-01-17 14:04:58.028488	14.9	22.4	-90.1	6.7
2025-01-17 14:04:59.176516	14.6	22.4	-89.8	8.8
2025-01-17 14:05:00.326783	14.3	22.5	-89.8	7.1
2025-01-17 14:05:01.476388	14.0	22.6	-89.9	6.2
2025-01-17 14:05:02.628886	13.7	22.6	-90.7	8.5
2025-01-17 14:05:03.786062	13.5	22.7	-90.6	8.9
2025-01-17 14:05:04.934872	13.2	22.7	-91.1	10.2
2025-01-17 14:05:06.080527	12.9	22.8	-90.5	9.7
2025-01-17 14:05:07.232564	12.6	22.8	-90.6	16.0
2025-01-17 14:05:08.387116	12.3	22.9	-90.8	13.6
2025-01-17 14:05:09.536562	12.0	22.9	-90.9	12.6
2025-01-17 14:05:10.693591	11.7	23.0	-91.1	14.8
2025-01-17 14:05:11.834824	11.4	23.0	-91.1	15.0
2025-01-17 14:05:12.988084	11.1	23.1	-90.9	11.7
2025-01-17 14:05:14.132588	10.8	23.1	-90.7	12.9
2025-01-17 14:05:15.279146	10.5	23.2	-90.9	12.8
2025-01-17 14:05:16.438451	10.2	23.2	-90.2	11.7
2025-01-17 14:05:17.594398	9.9	23.3	-90.6	10.2
2025-01-17 14:05:18.745720	9.6	23.3	-90.8	17.1
2025-01-17 14:05:19.900551	9.3	23.4	-90.9	10.0
2025-01-17 14:05:21.057472	9.0	23.4	-90.9	11.4
2025-01-17 14:05:22.212860	8.7	23.5	-90.7	10.4
2025-01-17 14:05:23.364587	8.4	23.5	-91.3	13.9
2025-01-17 14:05:24.518207	8.1	23.6	-90.9	9.2
2025-01-17 14:05:25.665326	7.8	23.6	-90.8	15.6
2025-01-17 14:05:26.817023	7.5	23.6	-90.9	14.0
2025-01-17 14:05:27.974135	7.2	23.7	-90.9	13.4
2025-01-17 14:05:29.122502	6.9	23.7	-90.7	15.8
2025-01-17 14:05:30.269810	6.6	23.8	-90.8	10.1
2025-01-17 14:05:31.422832	6.3	23.8	-90.7	11.0
2025-01-17 14:05:32.570569	6.0	23.8	-91.1	13.2
2025-01-17 14:05:33.723427	5.7	23.9	-91.0	12.3
2025-01-17 14:05:34.874420	5.4	23.9	-91.1	10.5
2025-01-17 14:05:36.026412	5.0	24.0	-90.7	8.7
2025-01-17 14:05:37.185523	4.7	24.0	-90.7	8.9
2025-01-17 14:05:38.337933	4.4	24.0	-90.8	13.4
2025-01-17 14:05:39.489992	4.1	24.1	-91.0	8.8
2025-01-17 14:05:40.638158	3.8	24.1	-91.0	8.4
2025-01-17 14:05:41.787938	3.5	24.1	-91.0	11.7
2025-01-17 14:05:42.946618	3.2	24.1	-90.6	9.3
2025-01-17 14:05:44.099066	2.8	24.2	-90.5	8.4
2025-01-17 14:05:45.248459	2.5	24.2	-90.7	11.9
2025-01-17 14:05:46.405138	2.2	24.2	-90.9	14.5
2025-01-17 14:05:47.555558	1.9	24.3	-91.1	12.0
2025-01-17 14:05:48.709881	1.6	24.3	-91.1	12.8
2025-01-17 14:05:49.868522	1.2	24.3	-90.9	15.3
2025-01-17 14:05:51.016740	0.9	24.3	-90.6	13.8
2025-01-17 14:05:52.173998	0.6	24.3	-90.5	14.2
2025-01-17 14:05:53.326776	0.3	24.4	-90.7	16.0
2025-01-17 14:05:54.481217	360.0	24.4	-91.1	10.4
2025-01-17 14:05:55.636577	359.6	24.4	-91.2	11.2
2025-01-17 14:05:56.790437	359.3	24.4	-90.9	10.5
2025-01-17 14:05:57.944196	359.0	24.4	-91.3	11.9
2025-01-17 14:05:59.098570	358.7	24.5	-90.8	11.8
2025-01-17 14:06:00.245022	358.3	24.5	-90.8	14.0
2025-01-17 14:06:01.394419	358.0	24.5	-91.2	13.9
2025-01-17 14:06:02.546145	357.7	24.5	-90.7	10.1
2025-01-17 14:06:03.693441	357.4	24.5	-90.9	14.6
2025-01-17 14:06:04.846516	357.1	24.5	-90.9	17.0
2025-01-17 14:06:05.997286	356.7	24.5	-91.1	10.0
2025-01-17 14:06:07.147548	356.4	24.5	-90.7	12.8
2025-01-17 14:06:08.301609	356.1	24.6	-90.9	15.8
2025-01-17 14:06:09.452282	355.8	24.6	-90.8	9.7
2025-01-17 14:06:10.597430	355.4	24.6	-90.9	12.5
2025-01-17 14:06:11.751284	355.1	24.6	-91.3	11.2
2025-01-17 14:06:12.910219	354.8	24.6	-91.1	10.3
2025-01-17 14:06:14.065738	354.5	24.6	-91.0	12.3
2025-01-17 14:06:15.218332	354.1	24.6	-90.6	13.2
2025-01-17 14:06:16.368666	353.8	24.6	-91.0	12.4
2025-01-17 14:06:17.524075	353.5	24.6	-90.6	8.8
2025-01-17 14:06:18.674549	353.2	24.6	-90.9	14.8
2025-01-17 14:06:19.829285	352.8	24.6	-91.0	14.5
2025-01-17 14:06:20.979866	352.5	24.6	-91.0	16.1
2025-01-17 14:06:22.129758	352.2	24.6	-90.6	13.0
2025-01-17 14:06:23.281922	351.9	24.6	-90.7	15.4
2025-01-17 14:06:24.443172	351.5	24.6	-90.4	15.7
2025-01-17 14:06:25.592708	351.2	24.6	-91.1	14.4
2025-01-17 14:06:26.743598	350.9	24.5	-90.9	14.0
2025-01-17 14:06:27.896579	350.5	24.5	-90.8	14.5
2025-01-17 14:06:29.042513	350.2	24.5	-90.8	11.4
2025-01-17 14:06:30.197038	349.9	24.5	-90.6	14.3
2025-01-17 14:06:31.346166	349.6	24.5	-91.0	13.6
2025-01-17 14:06:32.496187	349.3	24.5	-91.0	10.1
2025-01-17 14:06:33.649984	348.9	24.5	-91.1	10.5
2025-01-17 14:06:34.802737	348.6	24.5	-90.8	10.6
2025-01-17 14:06:35.953702	348.3	24.4	-90.8	10.3
2025-01-17 14:06:37.102205	348.0	24.4	-90.8	10.8
2025-01-17 14:06:38.259404	347.6	24.4	-91.0	13.0
2025-01-17 14:06:39.409785	347.3	24.4	-91.2	8.5
2025-01-17 14:06:40.562331	347.0	24.4	-90.8	10.1
2025-01-17 14:06:41.720659	346.7	24.4	-91.2	14.9
2025-01-17 14:06:42.877454	346.4	24.3	-90.8	12.2
2025-01-17 14:06:44.023450	346.0	24.3	-90.9	7.1
2025-01-17 14:06:45.176715	345.7	24.3	-90.4	10.8
2025-01-17 14:06:46.329677	345.4	24.3	-90.3	12.5
2025-01-17 14:06:47.480062	345.1	24.2	-90.9	10.5
2025-01-17 14:06:48.628851	344.8	24.2	-90.8	11.1
2025-01-17 14:06:49.780962	344.4	24.2	-90.8	12.1
2025-01-17 14:06:50.942460	344.1	24.2	-91.0	10.4
2025-01-17 14:06:52.090837	343.8	24.1	-90.8	7.7
2025-01-17 14:06:53.247787	343.5	24.1	-90.9	12.1
2025-01-17 14:06:54.399334	343.2	24.1	-90.8	8.3
2025-01-17 14:06:55.544224	342.9	24.0	-91.2	9.3
2025-01-17 14:06:56.702140	342.5	24.0	-91.1	11.8
2025-01-17 14:06:57.856063	342.2	24.0	-90.8	7.8
2025-01-17 14:06:59.009640	341.9	23.9	-91.3	8.7
2025-01-17 14:07:00.155361	341.6	23.9	-91.0	11.2
2025-01-17 14:07:01.305188	341.3	23.9	-90.9	6.6
2025-01-17 14:07:02.448523	341.0	23.8	-91.0	7.6
2025-01-17 14:07:03.605180	340.7	23.8	-91.3	7.9
2025-01-17 14:07:04.758287	340.4	23.7	-91.1	12.9
2025-01-17 14:07:05.915155	340.1	23.7	-90.8	7.2
2025-01-17 14:07:07.075696	339.7	23.7	-91.0	6.4
2025-01-17 14:07:08.229118	339.4	23.6	-91.2	12.7
2025-01-17 14:07:09.386040	339.1	23.6	-91.0	13.7
2025-01-17 14:07:10.541272	338.8	23.5	-90.7	8.4
2025-01-17 14:07:11.696460	338.5	23.5	-91.0	10.4
2025-01-17 14:07:12.854117	338.2	23.4	-90.9	8.8
2025-01-17 14:07:14.002159	337.9	23.4	-91.1	9.7
2025-01-17 14:07:15.157214	337.6	23.4	-90.8	10.8
2025-01-17 14:07:16.287772	337.3	23.3	-90.9	11.8
2025-01-17 14:07:17.408096	337.0	23.3	-91.0	7.4
2025-01-17 14:07:18.527937	336.7	23.2	-91.0	9.0
2025-01-17 14:07:19.648594	336.4	23.2	-90.6	9.8
2025-01-17 14:07:20.769417	336.2	23.1	-91.0	10.5
2025-01-17 14:07:21.888905	335.9	23.1	-91.1	13.3
2025-01-17 14:07:23.010776	335.6	23.0	-90.8	8.6
2025-01-17 14:07:24.130670	335.3	23.0	-90.8	7.2
2025-01-17 14:07:25.251234	335.0	22.9	-91.0	12.4
2025-01-17 14:07:26.397312	334.7	22.9	-91.1	10.1
2025-01-17 14:07:27.542764	334.4	22.8	-90.9	10.4
2025-01-17 14:07:28.690579	334.1	22.8	-91.0	12.3
2025-01-17 14:07:29.838355	333.8	22.7	-90.8	12.4
2025-01-17 14:07:30.985738	333.6	22.6	-91.0	6.2
2025-01-17 14:07:32.137087	333.3	22.6	-90.8	10.4
2025-01-17 14:07:33.288076	333.0	22.5	-90.9	13.1
2025-01-17 14:07:34.438684	332.7	22.5	-91.4	6.2
2025-01-17 14:07:35.590497	332.4	22.4	-91.3	5.6
2025-01-17 14:07:36.737904	332.1	22.3	-90.8	12.8
2025-01-17 14:07:37.894882	331.9	22.3	-91.1	11.6
2025-01-17 14:07:39.042010	331.6	22.2	-91.3	9.0
2025-01-17 14:07:40.191717	331.3	22.2	-90.8	10.2
2025-01-17 14:07:41.339979	331.0	22.1	-91.0	10.5
2025-01-17 14:07:42.491908	330.7	22.0	-91.0	7.9
2025-01-17 14:07:43.644910	330.5	22.0	-91.1	7.7
2025-01-17 14:07:44.795446	330.2	21.9	-91.3	12.9
2025-01-17 14:07:45.946201	329.9	21.9	-91.0	10.1
2025-01-17 14:07:47.099771	329.6	21.8	-90.8	8.5
2025-01-17 14:07:48.254706	329.4	21.7	-91.0	13.1
2025-01-17 14:07:49.410346	329.1	21.7	-90.9	9.3
2025-01-17 14:07:50.564959	328.8	21.6	-90.7	7.7
2025-01-17 14:07:51.717526	328.6	21.5	-91.1	11.2
2025-01-17 14:07:52.875056	328.3	21.5	-91.1	10.8
2025-01-17 14:07:54.027591	328.0	21.4	-91.1	10.6
2025-01-17 14:07:55.173993	327.8	21.3	-90.5	11.4
2025-01-17 14:07:56.327597	327.5	21.2	-89.9	13.9
2025-01-17 14:07:57.476130	327.2	21.2	-90.4	9.8
2025-01-17 14:07:58.627328	327.0	21.1	-90.5	9.0
2025-01-17 14:07:59.781043	326.7	21.0	-90.4	8.3
2025-01-17 14:08:00.931509	326.5	21.0	-90.4	8.3
2025-01-17 14:08:02.077674	326.2	20.9	-90.3	9.8
2025-01-17 14:08:03.235184	325.9	20.8	-90.1	10.2
2025-01-17 14:08:04.388078	325.7	20.8	-90.5	9.6
2025-01-17 14:08:05.538291	325.4	20.7	-90.8	9.7
2025-01-17 14:08:06.692258	325.2	20.6	-91.2	7.3
2025-01-17 14:08:07.846019	324.9	20.5	-91.2	7.7
2025-01-17 14:08:08.994468	324.7	20.5	-91.2	6.3
2025-01-17 14:08:10.145354	324.4	20.4	-90.8	3.4
2025-01-17 14:08:11.296279	324.2	20.3	-91.2	5.5
2025-01-17 14:08:12.454368	323.9	20.2	-91.1	7.3
2025-01-17 14:08:13.613295	323.7	20.2	-91.0	7.1
2025-01-17 14:08:14.770986	323.4	20.1	-91.1	7.0
2025-01-17 14:08:15.921603	323.2	20.0	-91.0	5.8
2025-01-17 14:08:17.074165	322.9	19.9	-91.2	8.1
2025-01-17 14:08:18.224486	322.7	19.9	-90.9	6.6
2025-01-17 14:08:19.379841	322.5	19.8	-90.9	8.8
2025-01-17 14:08:20.533817	322.2	19.7	-91.4	8.0
2025-01-17 14:08:21.682865	322.0	19.6	-90.9	4.0
2025-01-17 14:08:22.836715	321.8	19.6	-91.0	7.7
2025-01-17 14:08:23.984711	321.5	19.5	-91.6	6.8
2025-01-17 14:08:25.141708	321.3	19.4	-90.9	7.3
2025-01-17 14:08:26.296401	321.0	19.3	-91.2	5.2
2025-01-17 14:08:27.449418	320.8	19.2	-91.3	8.4
2025-01-17 14:08:28.603971	320.6	19.2	-90.9	7.1
2025-01-17 14:08:29.761937	320.4	19.1	-91.2	7.2
2025-01-17 14:08:30.912571	320.1	19.0	-91.2	8.0
2025-01-17 14:08:32.064292	319.9	18.9	-91.1	6.1
2025-01-17 14:08:33.218669	319.7	18.8	-90.7	7.1
2025-01-17 14:08:34.372611	319.5	18.8	-91.5	7.6
2025-01-17 14:08:35.524267	319.2	18.7	-91.2	5.6
2025-01-17 14:08:36.673681	319.0	18.6	-91.0	5.5
2025-01-17 14:08:37.822427	318.8	18.5	-90.9	6.0
2025-01-17 14:08:38.972654	318.6	18.4	-91.1	5.5
2025-01-17 14:08:40.129842	318.3	18.4	-90.6	5.8
2025-01-17 14:08:41.285404	318.1	18.3	-90.5	7.4
2025-01-17 14:08:42.441456	317.9	18.2	-90.5	6.1
2025-01-17 14:08:43.595912	317.7	18.1	-90.3	7.0
2025-01-17 14:08:44.750232	317.5	18.0	-90.5	7.8
2025-01-17 14:08:45.907009	317.3	18.0	-90.5	8.7
2025-01-17 14:08:47.059855	317.1	17.9	-90.9	5.2
2025-01-17 14:08:48.213300	316.8	17.8	-90.8	6.5
2025-01-17 14:08:49.368459	316.6	17.7	-91.1	5.8
2025-01-17 14:08:50.521982	316.4	17.6	-90.8	6.7
2025-01-17 14:08:51.675403	316.2	17.5	-90.5	8.6
2025-01-17 14:08:52.833763	316.0	17.5	-90.0	7.0
2025-01-17 14:08:53.989118	315.8	17.4	-90.7	5.1
2025-01-17 14:08:55.132463	315.6	17.3	-90.7	7.1
2025-01-17 14:08:56.286722	315.4	17.2	-90.2	6.7
2025-01-17 14:08:57.437369	315.2	17.1	-90.6	6.5
2025-01-17 14:08:58.593869	315.0	17.0	-90.6	5.4
2025-01-17 14:08:59.748542	314.8	17.0	-90.3	7.5
2025-01-17 14:09:00.900655	314.6	16.9	-90.4	8.0
2025-01-17 14:09:02.053883	314.4	16.8	-91.1	5.9
2025-01-17 14:09:03.205096	314.2	16.7	-90.9	8.1
2025-01-17 14:09:04.361780	314.0	16.6	-91.2	5.6
2025-01-17 14:09:05.515564	313.8	16.5	-91.2	7.1
2025-01-17 14:09:06.666734	313.6	16.5	-90.8	8.8
2025-01-17 14:09:07.822402	313.4	16.4	-90.7	9.6
2025-01-17 14:09:08.982577	313.2	16.3	-91.0	7.1
2025-01-17 14:09:10.131379	313.1	16.2	-90.5	8.6
2025-01-17 14:09:11.286953	312.9	16.1	-91.0	8.4
2025-01-17 14:09:12.439122	312.7	16.0	-90.9	9.2
2025-01-17 14:09:13.596337	312.5	16.0	-91.2	8.6
2025-01-17 14:09:14.745805	312.3	15.9	-90.3	9.6
2025-01-17 14:09:15.903204	312.1	15.8	-90.4	7.9
2025-01-17 14:09:17.050738	311.9	15.7	-90.3	6.2
2025-01-17 14:09:18.201377	311.8	15.6	-90.4	6.1
2025-01-17 14:09:19.351496	311.6	15.5	-90.3	7.3
2025-01-17 14:09:20.506497	311.4	15.5	-90.8	9.2
2025-01-17 14:09:21.658306	311.2	15.4	-90.9	8.3
2025-01-17 14:09:22.810883	311.0	15.3	-90.8	11.3
2025-01-17 14:09:23.960923	310.9	15.2	-91.0	4.6
2025-01-17 14:09:25.116358	310.7	15.1	-91.0	8.1
2025-01-17 14:09:26.270249	310.5	15.0	-91.2	6.9
2025-01-17 14:09:27.417521	310.3	15.0	-91.0	7.7
2025-01-17 14:09:28.579694	310.2	14.9	-91.2	9.3
2025-01-17 14:09:29.731400	310.0	14.8	-91.0	6.9
2025-01-17 14:09:30.877943	309.8	14.7	-90.8	7.7
2025-01-17 14:09:32.029415	309.6	14.6	-91.3	8.2
#Closed at: 2025-01-17 14:03:11.831595