passes_logs/2025/01/17/LEX_Murmansk/LEX_Murmansk__20250117_154220_NOAA_18_rec.log

#Pass ID: 20250117_154220_NOAA 18
#Satellite: NOAA 18
#Configuration: NOAA 18
#Start time: 2025-01-17 15:42:16.057038

#LorettStation: 1.0.0 05.05.2024
#Station: LEX_Murmansk
#Location: 33.156738 lon 68.926811 lat
#TLE: 1 28654U 05018A   25017.14480960  .00000361  00000+0  21486-3 0  9999
#TLE: 2 28654  98.8562  98.1779 0014463 173.1209 187.0164 14.13488310 13483

#Time	Az	El	Level	SNR
2025-01-17 15:42:28.152973	63.8	15.9	-90.6	8.0
2025-01-17 15:42:29.306911	63.6	16.0	-90.7	4.8
2025-01-17 15:42:30.458862	63.4	16.1	-90.4	5.9
2025-01-17 15:42:31.608111	63.2	16.2	-90.4	6.3
2025-01-17 15:42:32.765513	63.1	16.3	-90.4	11.2
2025-01-17 15:42:33.916019	62.9	16.4	-90.6	8.5
2025-01-17 15:42:35.067421	62.7	16.5	-90.6	6.9
2025-01-17 15:42:36.219799	62.5	16.6	-90.6	5.5
2025-01-17 15:42:37.375063	62.4	16.7	-90.4	5.3
2025-01-17 15:42:38.520259	62.2	16.8	-90.8	7.2
2025-01-17 15:42:39.670617	62.0	16.9	-91.2	11.4
2025-01-17 15:42:40.823655	61.8	16.9	-91.2	9.9
2025-01-17 15:42:41.973700	61.6	17.0	-90.8	5.5
2025-01-17 15:42:43.121414	61.5	17.1	-90.9	10.8
2025-01-17 15:42:44.272336	61.3	17.2	-90.7	14.4
2025-01-17 15:42:45.430169	61.1	17.3	-90.9	8.0
2025-01-17 15:42:46.576543	60.9	17.4	-90.6	12.8
2025-01-17 15:42:47.728111	60.7	17.5	-91.0	10.2
2025-01-17 15:42:48.878893	60.5	17.6	-90.9	11.0
2025-01-17 15:42:50.035930	60.3	17.7	-90.9	9.1
2025-01-17 15:42:51.179677	60.1	17.8	-90.7	10.9
2025-01-17 15:42:52.331854	59.9	17.9	-90.4	7.7
2025-01-17 15:42:53.482382	59.7	18.0	-90.5	8.4
2025-01-17 15:42:54.631168	59.6	18.0	-90.6	11.5
2025-01-17 15:42:55.782568	59.4	18.1	-90.9	12.9
2025-01-17 15:42:56.942291	59.2	18.2	-91.1	7.7
2025-01-17 15:42:58.093937	59.0	18.3	-90.7	10.9
2025-01-17 15:42:59.242494	58.8	18.4	-90.8	15.1
2025-01-17 15:43:00.390833	58.6	18.5	-91.2	10.0
2025-01-17 15:43:01.545196	58.4	18.6	-91.4	6.2
2025-01-17 15:43:02.700543	58.2	18.7	-91.1	10.6
2025-01-17 15:43:03.852264	57.9	18.8	-90.0	12.0
2025-01-17 15:43:05.000219	57.7	18.9	-89.9	8.7
2025-01-17 15:43:06.155424	57.5	19.0	-89.6	13.2
2025-01-17 15:43:07.301596	57.3	19.0	-90.2	8.6
2025-01-17 15:43:08.453666	57.1	19.1	-90.3	14.3
2025-01-17 15:43:09.604183	56.9	19.2	-90.3	11.4
2025-01-17 15:43:10.750549	56.7	19.3	-90.4	10.5
2025-01-17 15:43:11.895604	56.5	19.4	-90.4	11.8
2025-01-17 15:43:13.042533	56.3	19.5	-90.0	10.2
2025-01-17 15:43:14.190143	56.1	19.6	-89.9	12.8
2025-01-17 15:43:15.338160	55.8	19.7	-89.7	9.3
2025-01-17 15:43:16.488098	55.6	19.8	-90.3	12.6
2025-01-17 15:43:17.641797	55.4	19.9	-90.0	7.8
2025-01-17 15:43:18.788094	55.2	20.0	-90.2	9.9
2025-01-17 15:43:19.938626	55.0	20.0	-91.2	9.5
2025-01-17 15:43:21.090899	54.7	20.1	-90.6	10.6
2025-01-17 15:43:22.237709	54.5	20.2	-90.7	11.2
2025-01-17 15:43:23.388228	54.3	20.3	-90.7	8.7
2025-01-17 15:43:24.540547	54.1	20.4	-90.8	9.7
2025-01-17 15:43:25.709269	53.8	20.5	-90.8	13.2
2025-01-17 15:43:26.854002	53.6	20.6	-90.9	10.7
2025-01-17 15:43:28.006419	53.4	20.7	-91.4	12.8
2025-01-17 15:43:29.153518	53.1	20.8	-90.8	12.3
2025-01-17 15:43:30.302829	52.9	20.8	-90.4	11.9
2025-01-17 15:43:31.456019	52.7	20.9	-90.6	16.5
2025-01-17 15:43:32.608487	52.4	21.0	-90.4	11.0
2025-01-17 15:43:33.755477	52.2	21.1	-91.2	14.7
2025-01-17 15:43:34.882940	51.9	21.2	-90.6	9.7
2025-01-17 15:43:36.003833	51.7	21.3	-90.9	8.7
2025-01-17 15:43:37.124036	51.5	21.4	-90.9	8.2
2025-01-17 15:43:38.245466	51.2	21.4	-90.9	15.2
2025-01-17 15:43:39.366327	51.0	21.5	-90.9	8.2
2025-01-17 15:43:40.485549	50.8	21.6	-90.5	8.0
2025-01-17 15:43:41.605092	50.5	21.7	-90.9	16.4
2025-01-17 15:43:42.729376	50.3	21.8	-90.6	11.0
2025-01-17 15:43:43.853159	50.0	21.9	-90.6	14.4
2025-01-17 15:43:45.006945	49.8	21.9	-90.9	6.1
2025-01-17 15:43:46.152421	49.5	22.0	-90.4	11.9
2025-01-17 15:43:47.300422	49.3	22.1	-91.0	7.5
2025-01-17 15:43:48.433190	49.0	22.2	-90.6	2.7
2025-01-17 15:43:49.584793	48.8	22.3	-90.9	6.9
2025-01-17 15:43:50.738814	48.5	22.4	-91.3	16.4
2025-01-17 15:43:51.893038	48.2	22.4	-91.0	9.0
2025-01-17 15:43:53.050724	48.0	22.5	-91.3	10.9
2025-01-17 15:43:54.199790	47.7	22.6	-90.8	13.1
2025-01-17 15:43:55.350329	47.5	22.7	-90.8	9.8
2025-01-17 15:43:56.495494	47.2	22.8	-91.3	8.9
2025-01-17 15:43:57.643530	46.9	22.9	-91.0	12.7
2025-01-17 15:43:58.789988	46.7	22.9	-91.0	13.1
2025-01-17 15:43:59.938222	46.4	23.0	-90.7	6.8
2025-01-17 15:44:01.084326	46.1	23.1	-90.9	9.0
2025-01-17 15:44:02.240474	45.8	23.2	-90.8	6.2
2025-01-17 15:44:03.395316	45.6	23.3	-90.9	14.4
2025-01-17 15:44:04.539944	45.3	23.3	-91.3	6.7
2025-01-17 15:44:05.696502	45.0	23.4	-90.9	10.5
2025-01-17 15:44:06.845267	44.7	23.5	-91.4	14.6
2025-01-17 15:44:07.995724	44.5	23.6	-90.8	12.0
2025-01-17 15:44:09.141699	44.2	23.6	-90.7	13.1
2025-01-17 15:44:10.289615	43.9	23.7	-91.0	15.0
2025-01-17 15:44:11.435539	43.6	23.8	-91.0	9.3
2025-01-17 15:44:12.585307	43.3	23.9	-91.3	7.5
2025-01-17 15:44:13.735892	43.0	23.9	-91.3	2.2
2025-01-17 15:44:14.886705	42.8	24.0	-91.4	9.2
2025-01-17 15:44:16.039226	42.5	24.1	-90.8	8.4
2025-01-17 15:44:17.189658	42.2	24.2	-90.9	9.4
2025-01-17 15:44:18.336585	41.9	24.2	-90.7	8.5
2025-01-17 15:44:19.479140	41.6	24.3	-90.9	6.0
2025-01-17 15:44:20.625318	41.3	24.4	-91.1	8.8
2025-01-17 15:44:21.771490	41.0	24.4	-91.1	6.9
2025-01-17 15:44:22.920350	40.7	24.5	-91.1	12.2
2025-01-17 15:44:24.069534	40.4	24.6	-90.7	13.2
2025-01-17 15:44:25.222408	40.1	24.6	-90.7	7.4
2025-01-17 15:44:26.377572	39.8	24.7	-91.0	13.7
2025-01-17 15:44:27.527358	39.5	24.8	-91.2	11.2
2025-01-17 15:44:28.670931	39.2	24.8	-91.1	12.7
2025-01-17 15:44:29.823409	38.9	24.9	-91.1	16.7
2025-01-17 15:44:30.976160	38.6	25.0	-90.8	9.8
2025-01-17 15:44:32.129524	38.3	25.0	-90.8	6.1
2025-01-17 15:44:33.285810	38.0	25.1	-90.6	13.7
2025-01-17 15:44:34.439967	37.7	25.2	-91.0	11.5
2025-01-17 15:44:35.589774	37.3	25.2	-91.3	10.9
2025-01-17 15:44:36.735035	37.0	25.3	-91.0	17.9
2025-01-17 15:44:37.887571	36.7	25.3	-90.8	12.9
2025-01-17 15:44:39.037524	36.4	25.4	-91.3	15.8
2025-01-17 15:44:40.184383	36.1	25.5	-90.5	7.2
2025-01-17 15:44:41.337349	35.8	25.5	-90.8	11.9
2025-01-17 15:44:42.480760	35.5	25.6	-91.0	5.0
2025-01-17 15:44:43.634747	35.1	25.6	-91.4	9.0
2025-01-17 15:44:44.782131	34.8	25.7	-91.9	9.9
2025-01-17 15:44:45.939760	34.5	25.7	-91.1	6.8
2025-01-17 15:44:47.091178	34.2	25.8	-90.9	5.7
2025-01-17 15:44:48.246523	33.8	25.8	-90.9	13.5
2025-01-17 15:44:49.396601	33.5	25.9	-90.9	9.0
2025-01-17 15:44:50.551646	33.2	25.9	-91.3	6.8
2025-01-17 15:44:51.699147	32.9	26.0	-91.2	9.7
2025-01-17 15:44:52.845457	32.5	26.0	-91.4	5.2
2025-01-17 15:44:53.998605	32.2	26.1	-91.5	7.8
2025-01-17 15:44:55.154338	31.9	26.1	-91.1	6.9
2025-01-17 15:44:56.304985	31.6	26.2	-91.4	8.3
2025-01-17 15:44:57.453543	31.2	26.2	-91.1	11.0
2025-01-17 15:44:58.611132	30.9	26.3	-91.0	13.6
2025-01-17 15:44:59.760733	30.6	26.3	-91.3	12.2
2025-01-17 15:45:00.904749	30.2	26.3	-91.4	11.2
2025-01-17 15:45:02.052642	29.9	26.4	-91.3	13.2
2025-01-17 15:45:03.204746	29.6	26.4	-91.1	9.0
2025-01-17 15:45:04.353915	29.2	26.4	-90.2	10.9
2025-01-17 15:45:05.502102	28.9	26.5	-90.5	11.4
2025-01-17 15:45:06.656495	28.5	26.5	-90.5	10.0
2025-01-17 15:45:07.807374	28.2	26.6	-90.4	11.3
2025-01-17 15:45:08.950914	27.9	26.6	-90.5	4.7
2025-01-17 15:45:10.099498	27.5	26.6	-90.6	7.5
2025-01-17 15:45:11.255772	27.2	26.7	-89.7	11.5
2025-01-17 15:45:12.405737	26.8	26.7	-90.3	10.8
2025-01-17 15:45:13.559067	26.5	26.7	-90.9	11.0
2025-01-17 15:45:14.708853	26.2	26.7	-91.2	14.2
2025-01-17 15:45:15.854746	25.8	26.8	-91.2	12.6
2025-01-17 15:45:17.001726	25.5	26.8	-91.0	15.4
2025-01-17 15:45:18.148268	25.1	26.8	-91.2	13.7
2025-01-17 15:45:19.292710	24.8	26.8	-91.1	12.4
2025-01-17 15:45:20.439398	24.4	26.9	-90.9	12.4
2025-01-17 15:45:21.588340	24.1	26.9	-91.3	14.2
2025-01-17 15:45:22.738117	23.7	26.9	-91.4	13.7
2025-01-17 15:45:23.893292	23.4	26.9	-91.2	10.0
2025-01-17 15:45:25.036841	23.0	26.9	-91.1	9.8
2025-01-17 15:45:26.188651	22.7	27.0	-90.9	15.9
2025-01-17 15:45:27.336418	22.4	27.0	-90.9	13.6
2025-01-17 15:45:28.488101	22.0	27.0	-90.6	11.0
2025-01-17 15:45:29.638325	21.7	27.0	-90.8	11.7
2025-01-17 15:45:30.789804	21.3	27.0	-91.3	13.0
2025-01-17 15:45:31.942154	21.0	27.0	-91.5	11.0
2025-01-17 15:45:33.088860	20.6	27.0	-91.0	9.8
2025-01-17 15:45:34.249839	20.3	27.0	-91.0	11.7
2025-01-17 15:45:35.396991	19.9	27.0	-91.2	9.0
2025-01-17 15:45:36.549069	19.6	27.1	-91.5	11.3
2025-01-17 15:45:37.701437	19.2	27.1	-91.8	13.7
2025-01-17 15:45:38.846883	18.9	27.1	-91.2	14.6
2025-01-17 15:45:39.996094	18.5	27.1	-91.1	11.9
2025-01-17 15:45:41.141936	18.2	27.1	-91.2	11.8
2025-01-17 15:45:42.297697	17.8	27.1	-91.1	12.7
2025-01-17 15:45:43.451626	17.4	27.1	-91.1	10.8
2025-01-17 15:45:44.605825	17.1	27.1	-91.7	13.3
2025-01-17 15:45:45.761313	16.7	27.1	-91.3	15.1
2025-01-17 15:45:46.915310	16.4	27.1	-91.3	13.1
2025-01-17 15:45:48.070343	16.0	27.0	-91.4	12.2
2025-01-17 15:45:49.217167	15.7	27.0	-91.6	9.3
2025-01-17 15:45:50.356772	15.3	27.0	-91.1	14.1
2025-01-17 15:45:51.477114	15.0	27.0	-91.4	8.6
2025-01-17 15:45:52.598276	14.7	27.0	-91.6	13.0
2025-01-17 15:45:53.719078	14.3	27.0	-91.5	9.5
2025-01-17 15:45:54.839945	14.0	27.0	-91.6	10.7
2025-01-17 15:45:55.961738	13.6	27.0	-91.2	10.2
2025-01-17 15:45:57.082310	13.3	27.0	-90.9	10.6
2025-01-17 15:45:58.203363	13.0	26.9	-91.0	12.7
2025-01-17 15:45:59.327294	12.6	26.9	-90.9	11.6
2025-01-17 15:46:00.465092	12.3	26.9	-91.3	12.4
2025-01-17 15:46:01.613128	11.9	26.9	-91.7	11.6
2025-01-17 15:46:02.768161	11.6	26.9	-91.4	10.8
2025-01-17 15:46:03.909656	11.2	26.8	-90.9	9.3
2025-01-17 15:46:05.052841	10.9	26.8	-91.4	11.8
2025-01-17 15:46:06.204567	10.6	26.8	-91.3	10.7
2025-01-17 15:46:07.358479	10.2	26.8	-90.7	14.3
2025-01-17 15:46:08.510289	9.9	26.7	-90.5	11.7
2025-01-17 15:46:09.656021	9.5	26.7	-90.9	14.2
2025-01-17 15:46:10.803931	9.2	26.7	-91.1	12.2
2025-01-17 15:46:11.956223	8.8	26.7	-90.9	8.4
2025-01-17 15:46:13.110550	8.5	26.6	-89.1	10.7
2025-01-17 15:46:14.258457	8.2	26.6	-89.6	10.8
2025-01-17 15:46:15.413416	7.8	26.6	-90.2	11.9
2025-01-17 15:46:16.568876	7.5	26.5	-90.8	7.9
2025-01-17 15:46:17.721581	7.1	26.5	-90.9	12.2
2025-01-17 15:46:18.875997	6.8	26.5	-91.0	9.1
2025-01-17 15:46:20.020990	6.5	26.4	-91.5	9.9
2025-01-17 15:46:21.158129	6.1	26.4	-91.2	11.0
2025-01-17 15:46:22.307266	5.8	26.3	-91.1	12.4
2025-01-17 15:46:23.459117	5.5	26.3	-90.9	12.9
2025-01-17 15:46:24.611817	5.1	26.3	-91.2	11.8
2025-01-17 15:46:25.763882	4.8	26.2	-91.5	13.4
2025-01-17 15:46:26.914245	4.5	26.2	-90.8	10.5
2025-01-17 15:46:28.061972	4.1	26.1	-90.8	12.2
2025-01-17 15:46:29.205565	3.8	26.1	-91.0	16.7
2025-01-17 15:46:30.352643	3.5	26.0	-90.5	11.3
2025-01-17 15:46:31.500163	3.1	26.0	-90.8	10.7
2025-01-17 15:46:32.648179	2.8	25.9	-91.2	11.7
2025-01-17 15:46:33.803683	2.5	25.9	-91.0	13.3
2025-01-17 15:46:34.953813	2.2	25.8	-90.6	8.1
2025-01-17 15:46:36.111326	1.8	25.8	-90.3	10.3
2025-01-17 15:46:37.271690	1.5	25.7	-89.9	15.8
2025-01-17 15:46:38.417926	1.2	25.7	-90.1	10.8
2025-01-17 15:46:39.569774	0.9	25.6	-90.4	9.8
2025-01-17 15:46:40.727591	0.5	25.6	-90.7	13.0
2025-01-17 15:46:41.885719	0.2	25.5	-90.4	9.2
2025-01-17 15:46:43.042601	359.9	25.5	-90.3	10.4
2025-01-17 15:46:44.196836	359.6	25.4	-90.3	11.7
2025-01-17 15:46:45.353086	359.3	25.3	-90.5	8.3
2025-01-17 15:46:46.500701	359.0	25.3	-90.6	8.6
2025-01-17 15:46:47.656392	358.6	25.2	-89.9	12.8
2025-01-17 15:46:48.810252	358.3	25.2	-89.4	12.1
2025-01-17 15:46:49.954284	358.0	25.1	-90.3	11.1
2025-01-17 15:46:51.105495	357.7	25.0	-90.8	13.5
2025-01-17 15:46:52.253459	357.4	25.0	-89.6	17.0
2025-01-17 15:46:53.404613	357.1	24.9	-90.5	9.2
2025-01-17 15:46:54.555515	356.8	24.9	-90.2	11.1
2025-01-17 15:46:55.714125	356.5	24.8	-90.5	11.0
2025-01-17 15:46:56.870957	356.2	24.7	-90.1	13.1
2025-01-17 15:46:58.024069	355.9	24.7	-90.6	9.8
2025-01-17 15:46:59.170274	355.6	24.6	-90.2	11.5
2025-01-17 15:47:00.319117	355.3	24.5	-90.2	11.6
2025-01-17 15:47:01.466275	355.0	24.4	-90.5	12.9
2025-01-17 15:47:02.624261	354.7	24.4	-90.8	11.9
2025-01-17 15:47:03.772245	354.4	24.3	-90.2	17.4
2025-01-17 15:47:04.924620	354.1	24.2	-90.7	11.8
2025-01-17 15:47:06.072621	353.8	24.2	-91.3	15.2
2025-01-17 15:47:07.227021	353.5	24.1	-91.2	16.9
2025-01-17 15:47:08.387589	353.2	24.0	-91.0	16.2
2025-01-17 15:47:09.532159	352.9	23.9	-90.8	16.5
2025-01-17 15:47:10.683375	352.6	23.9	-90.8	19.0
2025-01-17 15:47:11.832808	352.4	23.8	-90.8	14.7
2025-01-17 15:47:12.982789	352.1	23.7	-91.2	11.2
2025-01-17 15:47:14.135471	351.8	23.6	-90.5	15.1
2025-01-17 15:47:15.293336	351.5	23.6	-91.1	11.4
2025-01-17 15:47:16.447182	351.2	23.5	-90.7	14.3
2025-01-17 15:47:17.595425	350.9	23.4	-91.1	15.4
2025-01-17 15:47:18.748566	350.7	23.3	-91.4	10.4
2025-01-17 15:47:19.896179	350.4	23.3	-91.3	14.7
2025-01-17 15:47:21.047989	350.1	23.2	-90.8	9.5
2025-01-17 15:47:22.195461	349.8	23.1	-90.9	15.5
2025-01-17 15:47:23.342075	349.6	23.0	-90.9	14.7
2025-01-17 15:47:24.495046	349.3	22.9	-91.0	13.8
2025-01-17 15:47:25.642858	349.0	22.9	-90.8	15.0
2025-01-17 15:47:26.797745	348.8	22.8	-90.6	12.7
2025-01-17 15:47:27.948204	348.5	22.7	-91.1	13.2
2025-01-17 15:47:29.104401	348.2	22.6	-91.2	8.1
2025-01-17 15:47:30.254286	348.0	22.5	-91.3	11.5
2025-01-17 15:47:31.405603	347.7	22.5	-90.3	6.9
2025-01-17 15:47:32.557684	347.4	22.4	-90.4	6.1
2025-01-17 15:47:33.713198	347.2	22.3	-90.5	13.1
2025-01-17 15:47:34.859292	346.9	22.2	-90.8	15.5
2025-01-17 15:47:36.014543	346.7	22.1	-90.7	8.9
2025-01-17 15:47:37.165722	346.4	22.0	-91.1	13.2
2025-01-17 15:47:38.323162	346.1	21.9	-91.0	10.4
2025-01-17 15:47:39.474632	345.9	21.9	-91.1	8.3
2025-01-17 15:47:40.628273	345.6	21.8	-91.3	9.6
2025-01-17 15:47:41.781468	345.4	21.7	-91.0	10.2
2025-01-17 15:47:42.936033	345.1	21.6	-91.1	9.5
2025-01-17 15:47:44.097604	344.9	21.5	-91.0	9.5
2025-01-17 15:47:45.243436	344.6	21.4	-91.1	13.8
2025-01-17 15:47:46.394346	344.4	21.3	-90.8	11.7
2025-01-17 15:47:47.540877	344.2	21.3	-91.3	9.2
2025-01-17 15:47:48.695522	343.9	21.2	-91.0	7.6
2025-01-17 15:47:49.845837	343.7	21.1	-91.1	9.4
2025-01-17 15:47:50.994225	343.4	21.0	-90.3	7.5
2025-01-17 15:47:52.150978	343.2	20.9	-90.3	9.1
2025-01-17 15:47:53.296426	343.0	20.8	-90.2	9.4
2025-01-17 15:47:54.446298	342.7	20.7	-89.9	10.3
2025-01-17 15:47:55.599491	342.5	20.6	-90.3	10.6
2025-01-17 15:47:56.750003	342.3	20.6	-90.2	6.4
2025-01-17 15:47:57.900813	342.0	20.5	-90.2	8.1
2025-01-17 15:47:59.049532	341.8	20.4	-90.4	4.9
2025-01-17 15:48:00.196921	341.6	20.3	-90.3	5.6
2025-01-17 15:48:01.340640	341.4	20.2	-90.4	4.6
2025-01-17 15:48:02.487044	341.1	20.1	-90.1	6.4
2025-01-17 15:48:03.636336	340.9	20.0	-90.5	6.9
2025-01-17 15:48:04.782726	340.7	19.9	-90.4	9.7
2025-01-17 15:48:05.940751	340.5	19.8	-89.5	9.2
2025-01-17 15:48:07.085416	340.2	19.7	-89.5	6.0
2025-01-17 15:48:08.239088	340.0	19.7	-89.9	8.7
2025-01-17 15:48:09.396102	339.8	19.6	-90.0	7.0
2025-01-17 15:48:10.545416	339.6	19.5	-90.2	7.0
2025-01-17 15:48:11.694135	339.4	19.4	-90.1	7.5
2025-01-17 15:48:12.846045	339.2	19.3	-90.7	8.2
2025-01-17 15:48:13.994609	338.9	19.2	-90.3	5.1
2025-01-17 15:48:15.152680	338.7	19.1	-90.3	4.0
2025-01-17 15:48:16.307130	338.5	19.0	-89.7	5.1
2025-01-17 15:48:17.464659	338.3	18.9	-90.1	4.8
2025-01-17 15:48:18.614076	338.1	18.8	-90.3	7.0
2025-01-17 15:48:19.761936	337.9	18.7	-90.4	9.1
2025-01-17 15:48:20.920455	337.7	18.7	-90.7	4.9
2025-01-17 15:48:22.065860	337.5	18.6	-89.9	7.9
2025-01-17 15:48:23.215374	337.3	18.5	-90.2	8.3
2025-01-17 15:48:24.362494	337.1	18.4	-90.3	5.8
2025-01-17 15:48:25.510056	336.9	18.3	-89.6	8.4
2025-01-17 15:48:26.664495	336.7	18.2	-89.7	9.2
2025-01-17 15:48:27.819576	336.5	18.1	-90.1	7.9
2025-01-17 15:48:28.969496	336.3	18.0	-89.9	6.3
2025-01-17 15:48:30.115896	336.1	17.9	-90.2	9.4
2025-01-17 15:48:31.265321	335.9	17.8	-90.0	7.9
2025-01-17 15:48:32.391639	335.7	17.7	-90.7	5.2
2025-01-17 15:48:33.512742	335.5	17.6	-90.6	5.7
2025-01-17 15:48:34.632850	335.3	17.6	-90.4	5.5
2025-01-17 15:48:35.753852	335.2	17.5	-91.2	8.2
2025-01-17 15:48:36.874477	335.0	17.4	-90.8	7.6
2025-01-17 15:48:37.994865	334.8	17.3	-91.2	8.4
2025-01-17 15:48:39.115757	334.6	17.2	-90.4	4.7
2025-01-17 15:48:40.239678	334.4	17.1	-90.8	5.5
2025-01-17 15:48:41.364704	334.2	17.0	-90.3	3.3
2025-01-17 15:48:42.513738	334.1	16.9	-90.7	4.1
2025-01-17 15:48:43.653637	333.9	16.8	-91.3	3.8
2025-01-17 15:48:44.805667	333.7	16.7	-90.8	6.1
2025-01-17 15:48:45.955029	333.5	16.7	-90.6	6.2
2025-01-17 15:48:47.105057	333.3	16.6	-90.6	6.9
2025-01-17 15:48:48.260571	333.2	16.5	-90.8	5.6
2025-01-17 15:48:49.409014	333.0	16.4	-89.7	6.0
2025-01-17 15:48:50.559003	332.8	16.3	-90.1	5.2
2025-01-17 15:48:51.710357	332.6	16.2	-90.1	5.1
2025-01-17 15:48:52.832169	332.5	16.1	-90.3	7.5
2025-01-17 15:48:53.976814	332.3	16.0	-90.2	8.1
2025-01-17 15:48:55.121602	332.1	15.9	-89.5	3.3
2025-01-17 15:48:56.268901	332.0	15.8	-90.6	5.1
2025-01-17 15:48:57.423672	331.8	15.7	-91.1	4.2
2025-01-17 15:48:58.569371	331.6	15.7	-91.5	9.5
2025-01-17 15:48:59.716512	331.5	15.6	-91.2	5.3
2025-01-17 15:49:00.870713	331.3	15.5	-90.7	4.1
2025-01-17 15:49:02.026507	331.1	15.4	-90.5	4.9
2025-01-17 15:49:03.177714	331.0	15.3	-90.1	7.1
2025-01-17 15:49:04.326082	330.8	15.2	-90.7	8.0
2025-01-17 15:49:05.476750	330.6	15.1	-91.0	8.6
2025-01-17 15:49:06.632072	330.5	15.0	-90.3	4.9
2025-01-17 15:49:07.786348	330.3	14.9	-90.1	5.8
2025-01-17 15:49:08.939914	330.2	14.8	-90.3	5.7
2025-01-17 15:49:10.090256	330.0	14.8	-90.0	5.6
2025-01-17 15:49:11.233365	329.8	14.7	-89.7	7.8
#Closed at: 2025-01-17 15:42:20.983127