passes_logs/2025/01/17/LEX_Murmansk/LEX_Murmansk__20250117_204323_NOAA_18_rec.log

#Pass ID: 20250117_204323_NOAA 18
#Satellite: NOAA 18
#Configuration: NOAA 18
#Start time: 2025-01-17 20:43:18.693337

#LorettStation: 1.0.0 05.05.2024
#Station: LEX_Murmansk
#Location: 33.156738 lon 68.926811 lat
#TLE: 1 28654U 05018A   25017.14480960  .00000361  00000+0  21486-3 0  9999
#TLE: 2 28654  98.8562  98.1779 0014463 173.1209 187.0164 14.13488310 13483

#Time	Az	El	Level	SNR
2025-01-17 20:43:30.872362	213.4	16.0	-90.5	6.0
2025-01-17 20:43:32.037426	213.6	16.1	-90.6	6.1
2025-01-17 20:43:33.203033	213.7	16.3	-90.1	5.3
2025-01-17 20:43:34.372348	213.9	16.4	-90.2	6.0
2025-01-17 20:43:35.532098	214.0	16.5	-89.8	4.4
2025-01-17 20:43:36.700154	214.2	16.6	-90.0	7.6
2025-01-17 20:43:37.861824	214.3	16.7	-89.7	5.7
2025-01-17 20:43:39.025080	214.5	16.8	-89.7	5.0
2025-01-17 20:43:40.184058	214.7	16.9	-89.9	4.5
2025-01-17 20:43:41.344021	214.8	17.0	-90.0	4.8
2025-01-17 20:43:42.503678	215.0	17.1	-89.5	6.4
2025-01-17 20:43:43.665202	215.1	17.2	-90.2	5.5
2025-01-17 20:43:44.831200	215.3	17.3	-90.0	8.3
2025-01-17 20:43:45.992693	215.5	17.4	-90.7	4.9
2025-01-17 20:43:47.153146	215.6	17.5	-90.4	8.5
2025-01-17 20:43:48.314819	215.8	17.6	-90.5	10.7
2025-01-17 20:43:49.475498	216.0	17.7	-90.6	10.1
2025-01-17 20:43:50.640900	216.1	17.8	-90.4	9.9
2025-01-17 20:43:51.798103	216.3	17.9	-90.4	9.9
2025-01-17 20:43:52.964028	216.5	18.0	-90.4	9.7
2025-01-17 20:43:54.124345	216.6	18.1	-90.3	7.5
2025-01-17 20:43:55.285644	216.8	18.2	-90.5	9.0
2025-01-17 20:43:56.450890	217.0	18.3	-90.7	7.2
2025-01-17 20:43:57.630468	217.2	18.4	-90.4	9.0
2025-01-17 20:43:58.794173	217.4	18.5	-90.2	8.3
2025-01-17 20:43:59.954615	217.5	18.6	-90.3	7.3
2025-01-17 20:44:01.129303	217.7	18.8	-90.4	7.5
2025-01-17 20:44:02.283525	217.9	18.9	-90.4	11.3
2025-01-17 20:44:03.454250	218.1	19.0	-90.8	6.6
2025-01-17 20:44:04.618263	218.3	19.1	-90.6	7.1
2025-01-17 20:44:05.786435	218.4	19.2	-90.2	8.6
2025-01-17 20:44:06.951449	218.6	19.3	-90.5	4.5
2025-01-17 20:44:08.115630	218.8	19.4	-90.4	8.3
2025-01-17 20:44:09.275880	219.0	19.5	-90.2	9.6
2025-01-17 20:44:10.440816	219.2	19.6	-90.9	7.1
2025-01-17 20:44:11.606585	219.4	19.7	-90.8	10.8
2025-01-17 20:44:12.770086	219.6	19.8	-90.8	5.5
2025-01-17 20:44:13.945445	219.8	19.9	-90.6	7.7
2025-01-17 20:44:15.110725	220.0	20.1	-90.6	10.4
2025-01-17 20:44:16.274051	220.2	20.2	-90.6	13.8
2025-01-17 20:44:17.430153	220.4	20.3	-90.4	10.0
2025-01-17 20:44:18.591568	220.6	20.4	-90.4	12.1
2025-01-17 20:44:19.756110	220.8	20.5	-90.5	11.3
2025-01-17 20:44:20.917802	221.0	20.6	-90.3	10.3
2025-01-17 20:44:22.078336	221.2	20.7	-90.6	9.0
2025-01-17 20:44:23.244396	221.4	20.8	-89.8	9.7
2025-01-17 20:44:24.404728	221.6	20.9	-89.9	5.7
2025-01-17 20:44:25.566690	221.8	21.0	-90.2	6.7
2025-01-17 20:44:26.728231	222.0	21.1	-90.5	11.4
2025-01-17 20:44:27.896249	222.2	21.3	-90.7	9.3
2025-01-17 20:44:29.060911	222.4	21.4	-90.6	9.2
2025-01-17 20:44:30.229060	222.6	21.5	-90.6	11.0
2025-01-17 20:44:31.392765	222.8	21.6	-90.7	9.3
2025-01-17 20:44:32.550274	223.1	21.7	-91.0	12.4
2025-01-17 20:44:33.719857	223.3	21.8	-90.8	14.3
2025-01-17 20:44:34.882163	223.5	21.9	-90.6	10.7
2025-01-17 20:44:36.047566	223.7	22.0	-90.5	9.2
2025-01-17 20:44:37.212550	223.9	22.1	-90.5	13.9
2025-01-17 20:44:38.376091	224.2	22.2	-90.9	10.2
2025-01-17 20:44:39.527486	224.4	22.4	-90.4	11.1
2025-01-17 20:44:40.694413	224.6	22.5	-89.8	14.2
2025-01-17 20:44:41.854685	224.8	22.6	-90.6	13.2
2025-01-17 20:44:43.012779	225.1	22.7	-90.5	9.3
2025-01-17 20:44:44.177911	225.3	22.8	-90.2	11.4
2025-01-17 20:44:45.344930	225.5	22.9	-90.8	13.1
2025-01-17 20:44:46.509711	225.8	23.0	-90.8	8.3
2025-01-17 20:44:47.673948	226.0	23.1	-90.7	9.9
2025-01-17 20:44:48.842331	226.2	23.2	-90.4	7.0
2025-01-17 20:44:50.006284	226.5	23.3	-90.3	4.4
2025-01-17 20:44:51.175116	226.7	23.5	-90.6	8.1
2025-01-17 20:44:52.339391	227.0	23.6	-90.5	13.0
2025-01-17 20:44:53.506927	227.2	23.7	-90.6	9.7
2025-01-17 20:44:54.671126	227.5	23.8	-90.5	6.1
2025-01-17 20:44:55.834079	227.7	23.9	-90.3	7.2
2025-01-17 20:44:57.001404	228.0	24.0	-90.4	9.1
2025-01-17 20:44:58.166382	228.2	24.1	-90.7	8.7
2025-01-17 20:44:59.333502	228.5	24.2	-90.4	11.3
2025-01-17 20:45:00.509881	228.7	24.3	-90.9	7.7
2025-01-17 20:45:01.670231	229.0	24.5	-90.5	7.4
2025-01-17 20:45:02.828870	229.2	24.6	-90.4	6.5
2025-01-17 20:45:03.989121	229.5	24.7	-90.3	6.7
2025-01-17 20:45:05.156975	229.7	24.8	-90.2	9.4
2025-01-17 20:45:06.320367	230.0	24.9	-90.3	6.4
2025-01-17 20:45:07.489217	230.3	25.0	-90.0	5.2
2025-01-17 20:45:08.657285	230.5	25.1	-90.0	6.3
2025-01-17 20:45:09.815473	230.8	25.2	-89.5	8.5
2025-01-17 20:45:10.982592	231.1	25.3	-89.8	8.8
2025-01-17 20:45:12.139358	231.4	25.4	-89.6	4.8
2025-01-17 20:45:13.303240	231.6	25.5	-89.5	5.9
2025-01-17 20:45:14.467066	231.9	25.6	-89.7	5.4
2025-01-17 20:45:15.634829	232.2	25.8	-90.1	5.3
2025-01-17 20:45:16.792075	232.5	25.9	-90.0	6.9
2025-01-17 20:45:17.951731	232.7	26.0	-90.3	6.9
2025-01-17 20:45:19.124712	233.0	26.1	-90.1	7.4
2025-01-17 20:45:20.282992	233.3	26.2	-90.6	7.1
2025-01-17 20:45:21.449180	233.6	26.3	-90.4	4.2
2025-01-17 20:45:22.607628	233.9	26.4	-90.2	5.8
2025-01-17 20:45:23.779669	234.2	26.5	-90.4	8.1
2025-01-17 20:45:24.944386	234.5	26.6	-90.7	6.5
2025-01-17 20:45:26.111109	234.8	26.7	-90.5	7.0
2025-01-17 20:45:27.262699	235.1	26.8	-90.3	7.1
2025-01-17 20:45:28.431635	235.4	26.9	-90.6	5.1
2025-01-17 20:45:29.596979	235.7	27.0	-90.5	7.7
2025-01-17 20:45:30.761709	236.0	27.1	-90.2	8.4
2025-01-17 20:45:31.924888	236.3	27.2	-90.2	8.3
2025-01-17 20:45:33.087187	236.6	27.3	-90.4	5.8
2025-01-17 20:45:34.252810	236.9	27.4	-91.0	11.4
2025-01-17 20:45:35.417034	237.2	27.5	-90.6	7.3
2025-01-17 20:45:36.584477	237.5	27.6	-90.5	10.8
2025-01-17 20:45:37.748852	237.8	27.7	-91.0	15.3
2025-01-17 20:45:38.915913	238.1	27.8	-90.7	9.6
2025-01-17 20:45:40.074681	238.4	27.9	-90.8	13.1
2025-01-17 20:45:41.238421	238.8	28.0	-90.7	11.3
2025-01-17 20:45:42.399748	239.1	28.1	-90.6	17.8
2025-01-17 20:45:43.559520	239.4	28.2	-90.4	16.0
2025-01-17 20:45:44.725916	239.7	28.3	-90.0	13.0
2025-01-17 20:45:45.888760	240.1	28.4	-90.8	14.4
2025-01-17 20:45:47.052441	240.4	28.5	-90.8	13.6
2025-01-17 20:45:48.220241	240.7	28.6	-89.9	17.2
2025-01-17 20:45:49.381692	241.1	28.7	-90.8	10.4
2025-01-17 20:45:50.544664	241.4	28.8	-90.5	10.6
2025-01-17 20:45:51.707751	241.7	28.9	-90.6	18.9
2025-01-17 20:45:52.865643	242.1	29.0	-90.5	11.6
2025-01-17 20:45:54.027597	242.4	29.0	-89.8	21.6
2025-01-17 20:45:55.186802	242.7	29.1	-90.4	16.2
2025-01-17 20:45:56.352287	243.1	29.2	-90.8	7.5
2025-01-17 20:45:57.525820	243.4	29.3	-90.5	13.4
2025-01-17 20:45:58.691349	243.8	29.4	-90.4	12.7
2025-01-17 20:45:59.854958	244.1	29.5	-90.2	13.7
2025-01-17 20:46:01.020069	244.5	29.6	-89.6	12.1
2025-01-17 20:46:02.183118	244.8	29.7	-89.7	9.4
2025-01-17 20:46:03.346863	245.2	29.7	-89.4	14.8
2025-01-17 20:46:04.510876	245.5	29.8	-89.9	8.0
2025-01-17 20:46:05.677420	245.9	29.9	-90.0	21.6
2025-01-17 20:46:06.842366	246.3	30.0	-90.0	13.8
2025-01-17 20:46:08.006639	246.6	30.1	-90.4	11.6
2025-01-17 20:46:09.167215	247.0	30.1	-90.2	14.7
2025-01-17 20:46:10.331594	247.3	30.2	-90.2	13.2
2025-01-17 20:46:11.497073	247.7	30.3	-90.3	22.4
2025-01-17 20:46:12.655582	248.1	30.4	-90.6	14.9
2025-01-17 20:46:13.818341	248.4	30.4	-91.0	23.3
2025-01-17 20:46:14.980044	248.8	30.5	-89.9	16.3
2025-01-17 20:46:16.135665	249.2	30.6	-89.4	16.2
2025-01-17 20:46:17.302745	249.6	30.7	-90.4	20.4
2025-01-17 20:46:18.466517	249.9	30.7	-90.8	21.0
2025-01-17 20:46:19.633280	250.3	30.8	-90.9	10.9
2025-01-17 20:46:20.785342	250.7	30.9	-90.9	24.9
2025-01-17 20:46:21.906028	251.1	30.9	-90.1	13.1
2025-01-17 20:46:23.026022	251.4	31.0	-89.5	12.1
2025-01-17 20:46:24.145344	251.8	31.0	-89.5	17.4
2025-01-17 20:46:25.267406	252.2	31.1	-90.5	22.3
2025-01-17 20:46:26.387221	252.5	31.2	-91.1	16.4
2025-01-17 20:46:27.506959	252.9	31.2	-90.7	20.1
2025-01-17 20:46:28.628122	253.3	31.3	-90.6	14.1
2025-01-17 20:46:29.760923	253.7	31.3	-90.6	17.0
2025-01-17 20:46:30.937245	254.1	31.4	-90.8	19.9
2025-01-17 20:46:32.102885	254.5	31.4	-90.6	15.3
2025-01-17 20:46:33.261939	254.9	31.5	-90.0	11.0
2025-01-17 20:46:34.425632	255.3	31.6	-90.4	23.2
2025-01-17 20:46:35.588225	255.7	31.6	-90.3	11.2
2025-01-17 20:46:36.757064	256.1	31.7	-90.2	17.4
2025-01-17 20:46:37.917384	256.4	31.7	-90.6	10.0
2025-01-17 20:46:39.093918	256.9	31.7	-90.4	9.3
2025-01-17 20:46:40.253667	257.3	31.8	-90.4	14.8
2025-01-17 20:46:41.417279	257.7	31.8	-90.9	11.4
2025-01-17 20:46:42.579115	258.1	31.9	-90.9	8.0
2025-01-17 20:46:43.743502	258.5	31.9	-90.8	16.4
2025-01-17 20:46:44.908972	258.9	32.0	-91.1	9.2
2025-01-17 20:46:46.077806	259.3	32.0	-90.4	10.6
2025-01-17 20:46:47.239005	259.7	32.0	-90.7	17.1
2025-01-17 20:46:48.402829	260.1	32.1	-90.7	14.7
2025-01-17 20:46:49.565794	260.5	32.1	-90.5	8.7
2025-01-17 20:46:50.730845	260.9	32.1	-90.0	13.6
2025-01-17 20:46:51.895203	261.3	32.2	-90.5	13.2
2025-01-17 20:46:53.058566	261.7	32.2	-90.4	15.2
2025-01-17 20:46:54.220594	262.1	32.2	-90.3	14.0
2025-01-17 20:46:55.385784	262.6	32.2	-90.8	15.7
2025-01-17 20:46:56.557490	263.0	32.3	-90.0	17.4
2025-01-17 20:46:57.719146	263.4	32.3	-90.4	15.1
2025-01-17 20:46:58.882880	263.8	32.3	-90.6	11.6
2025-01-17 20:47:00.041945	264.2	32.3	-90.7	10.3
2025-01-17 20:47:01.201601	264.6	32.3	-90.5	12.3
2025-01-17 20:47:02.359130	265.0	32.4	-90.5	8.9
2025-01-17 20:47:03.522375	265.5	32.4	-90.7	9.9
2025-01-17 20:47:04.683142	265.9	32.4	-90.8	16.8
2025-01-17 20:47:05.847556	266.3	32.4	-90.6	7.8
2025-01-17 20:47:07.017001	266.7	32.4	-90.4	11.3
2025-01-17 20:47:08.175385	267.1	32.4	-90.5	11.9
2025-01-17 20:47:09.336159	267.5	32.4	-90.5	15.4
2025-01-17 20:47:10.498303	268.0	32.4	-90.5	11.0
2025-01-17 20:47:11.664693	268.4	32.4	-90.8	9.7
2025-01-17 20:47:12.824965	268.8	32.4	-90.5	12.2
2025-01-17 20:47:13.992839	269.2	32.4	-90.8	9.4
2025-01-17 20:47:15.149697	269.6	32.4	-90.4	14.5
2025-01-17 20:47:16.317218	270.1	32.4	-90.9	11.2
2025-01-17 20:47:17.480413	270.5	32.4	-90.2	10.6
2025-01-17 20:47:18.642919	270.9	32.4	-90.9	12.1
2025-01-17 20:47:19.809123	271.3	32.4	-90.3	10.7
2025-01-17 20:47:20.973154	271.7	32.4	-90.8	16.1
2025-01-17 20:47:22.140051	272.1	32.4	-90.8	10.0
2025-01-17 20:47:23.300143	272.6	32.3	-90.4	12.4
2025-01-17 20:47:24.463430	273.0	32.3	-90.6	8.3
2025-01-17 20:47:25.623031	273.4	32.3	-90.8	4.8
2025-01-17 20:47:26.781572	273.8	32.3	-91.0	8.4
2025-01-17 20:47:27.948503	274.2	32.3	-91.0	8.9
2025-01-17 20:47:29.111989	274.6	32.2	-90.6	6.7
2025-01-17 20:47:30.274206	275.0	32.2	-89.9	6.5
2025-01-17 20:47:31.434789	275.4	32.2	-89.9	4.5
2025-01-17 20:47:32.587656	275.9	32.2	-90.4	4.6
2025-01-17 20:47:33.750259	276.3	32.1	-90.7	10.4
2025-01-17 20:47:34.916220	276.7	32.1	-90.6	9.3
2025-01-17 20:47:36.080176	277.1	32.1	-90.3	6.5
2025-01-17 20:47:37.247572	277.5	32.0	-90.8	8.1
2025-01-17 20:47:38.411893	277.9	32.0	-90.8	5.3
2025-01-17 20:47:39.579105	278.3	32.0	-90.4	7.8
2025-01-17 20:47:40.741623	278.7	31.9	-90.4	6.4
2025-01-17 20:47:41.910170	279.1	31.9	-90.3	11.4
2025-01-17 20:47:43.070852	279.5	31.8	-90.4	7.0
2025-01-17 20:47:44.226702	279.9	31.8	-90.5	8.0
2025-01-17 20:47:45.375656	280.3	31.8	-90.8	6.5
2025-01-17 20:47:46.538782	280.7	31.7	-90.3	7.0
2025-01-17 20:47:47.699526	281.1	31.7	-88.8	10.3
2025-01-17 20:47:48.863445	281.5	31.6	-89.5	8.6
2025-01-17 20:47:50.022313	281.9	31.6	-90.7	4.9
2025-01-17 20:47:51.187029	282.3	31.5	-90.6	7.3
2025-01-17 20:47:52.349852	282.7	31.5	-90.6	5.1
2025-01-17 20:47:53.510073	283.1	31.4	-91.0	9.2
2025-01-17 20:47:54.675535	283.5	31.4	-91.0	8.4
2025-01-17 20:47:55.838167	283.9	31.3	-90.8	9.3
2025-01-17 20:47:56.998943	284.3	31.2	-91.0	4.2
2025-01-17 20:47:58.165616	284.7	31.2	-90.8	4.3
2025-01-17 20:47:59.326395	285.1	31.1	-90.5	9.5
2025-01-17 20:48:00.486824	285.4	31.1	-90.9	8.8
2025-01-17 20:48:01.644362	285.8	31.0	-90.4	8.6
2025-01-17 20:48:02.801051	286.2	30.9	-90.7	10.8
2025-01-17 20:48:03.962439	286.6	30.9	-90.4	10.8
2025-01-17 20:48:05.136678	287.0	30.8	-90.1	13.9
2025-01-17 20:48:06.304894	287.3	30.7	-90.4	13.1
2025-01-17 20:48:07.467652	287.7	30.7	-90.4	9.6
2025-01-17 20:48:08.634303	288.1	30.6	-90.1	8.2
2025-01-17 20:48:09.799809	288.5	30.5	-90.2	8.1
2025-01-17 20:48:10.958957	288.8	30.4	-90.0	9.6
2025-01-17 20:48:12.127902	289.2	30.4	-89.7	8.3
2025-01-17 20:48:13.287128	289.6	30.3	-89.5	7.0
2025-01-17 20:48:14.442547	289.9	30.2	-90.6	11.6
2025-01-17 20:48:15.577353	290.3	30.1	-90.8	7.8
2025-01-17 20:48:16.699319	290.6	30.1	-90.8	17.3
2025-01-17 20:48:17.819907	291.0	30.0	-90.6	12.5
2025-01-17 20:48:18.939925	291.3	29.9	-90.8	11.2
2025-01-17 20:48:20.060125	291.7	29.8	-90.7	12.6
2025-01-17 20:48:21.180620	292.0	29.8	-91.2	11.4
2025-01-17 20:48:22.301429	292.4	29.7	-90.7	14.2
2025-01-17 20:48:23.422325	292.7	29.6	-90.7	11.5
2025-01-17 20:48:24.543431	293.1	29.5	-91.0	9.8
2025-01-17 20:48:25.698082	293.4	29.4	-90.8	16.7
2025-01-17 20:48:26.861710	293.7	29.3	-90.3	14.8
2025-01-17 20:48:28.020899	294.1	29.3	-90.4	15.2
2025-01-17 20:48:29.175360	294.4	29.2	-90.4	13.5
2025-01-17 20:48:30.333311	294.8	29.1	-89.9	13.6
2025-01-17 20:48:31.490341	295.1	29.0	-90.4	15.7
2025-01-17 20:48:32.650762	295.4	28.9	-90.5	15.1
2025-01-17 20:48:33.812967	295.8	28.8	-90.3	14.7
2025-01-17 20:48:34.976405	296.1	28.7	-90.1	9.2
2025-01-17 20:48:36.135408	296.5	28.6	-90.1	10.4
2025-01-17 20:48:37.296858	296.8	28.5	-90.3	7.1
2025-01-17 20:48:38.457060	297.1	28.4	-90.5	11.1
2025-01-17 20:48:39.624737	297.4	28.3	-90.4	9.1
2025-01-17 20:48:40.788214	297.8	28.2	-90.7	11.2
2025-01-17 20:48:41.952975	298.1	28.2	-90.9	7.4
2025-01-17 20:48:43.110019	298.4	28.1	-90.5	9.2
2025-01-17 20:48:44.264155	298.7	28.0	-90.9	8.3
2025-01-17 20:48:45.412772	299.0	27.9	-90.6	10.0
2025-01-17 20:48:46.573390	299.4	27.8	-91.2	9.0
2025-01-17 20:48:47.736129	299.7	27.7	-91.0	11.3
2025-01-17 20:48:48.889667	300.0	27.6	-91.2	11.6
2025-01-17 20:48:50.046818	300.3	27.5	-90.7	10.0
2025-01-17 20:48:51.205715	300.6	27.4	-90.9	11.9
2025-01-17 20:48:52.372266	300.9	27.3	-91.0	10.9
2025-01-17 20:48:53.531461	301.2	27.2	-91.0	6.3
2025-01-17 20:48:54.694204	301.5	27.1	-90.8	10.9
2025-01-17 20:48:55.874567	301.8	27.0	-90.8	7.1
2025-01-17 20:48:57.043440	302.1	26.9	-90.2	7.8
2025-01-17 20:48:58.203051	302.4	26.8	-90.6	10.9
2025-01-17 20:48:59.359296	302.7	26.6	-90.3	7.7
2025-01-17 20:49:00.533742	303.0	26.5	-90.0	6.4
2025-01-17 20:49:01.685934	303.3	26.4	-90.1	10.1
2025-01-17 20:49:02.840097	303.6	26.3	-90.4	10.6
2025-01-17 20:49:03.999331	303.9	26.2	-90.8	8.7
2025-01-17 20:49:05.162712	304.1	26.1	-90.3	11.0
2025-01-17 20:49:06.321353	304.4	26.0	-90.5	11.9
2025-01-17 20:49:07.484720	304.7	25.9	-90.6	11.8
2025-01-17 20:49:08.645885	305.0	25.8	-91.0	9.0
2025-01-17 20:49:09.809454	305.3	25.7	-90.6	7.8
2025-01-17 20:49:10.974128	305.5	25.6	-90.5	7.0
2025-01-17 20:49:12.141050	305.8	25.5	-90.2	12.2
2025-01-17 20:49:13.294419	306.1	25.4	-90.5	14.0
2025-01-17 20:49:14.459938	306.4	25.3	-90.0	10.7
2025-01-17 20:49:15.624547	306.6	25.2	-90.6	11.2
2025-01-17 20:49:16.789865	306.9	25.1	-90.9	19.0
2025-01-17 20:49:17.955503	307.2	24.9	-90.5	14.0
2025-01-17 20:49:19.117759	307.4	24.8	-90.4	7.8
2025-01-17 20:49:20.285283	307.7	24.7	-90.5	12.7
2025-01-17 20:49:21.449708	308.0	24.6	-91.1	10.0
2025-01-17 20:49:22.615193	308.2	24.5	-90.6	11.6
2025-01-17 20:49:23.771479	308.5	24.4	-90.6	16.5
2025-01-17 20:49:24.942007	308.7	24.3	-90.8	7.1
2025-01-17 20:49:26.103614	309.0	24.2	-90.7	10.7
2025-01-17 20:49:27.271506	309.2	24.1	-90.3	13.3
2025-01-17 20:49:28.448294	309.5	24.0	-89.6	9.0
2025-01-17 20:49:29.612684	309.7	23.8	-90.1	9.6
2025-01-17 20:49:30.779987	310.0	23.7	-90.0	11.7
2025-01-17 20:49:31.947063	310.2	23.6	-90.8	8.4
2025-01-17 20:49:33.110727	310.5	23.5	-90.9	10.1
2025-01-17 20:49:34.263122	310.7	23.4	-90.6	10.3
2025-01-17 20:49:35.426730	311.0	23.3	-90.5	8.9
2025-01-17 20:49:36.595025	311.2	23.2	-90.2	8.8
2025-01-17 20:49:37.757172	311.4	23.1	-90.8	9.9
2025-01-17 20:49:38.920468	311.7	23.0	-90.6	9.0
2025-01-17 20:49:40.085499	311.9	22.9	-90.8	7.9
2025-01-17 20:49:41.252982	312.1	22.7	-90.6	7.0
2025-01-17 20:49:42.405580	312.4	22.6	-90.9	8.0
2025-01-17 20:49:43.562418	312.6	22.5	-90.7	5.8
2025-01-17 20:49:44.732812	312.8	22.4	-89.8	10.4
2025-01-17 20:49:45.892632	313.0	22.3	-90.6	7.1
2025-01-17 20:49:47.060036	313.3	22.2	-90.8	5.4
2025-01-17 20:49:48.224918	313.5	22.1	-90.2	7.6
2025-01-17 20:49:49.392639	313.7	22.0	-90.5	9.3
2025-01-17 20:49:50.552671	313.9	21.9	-90.3	7.8
2025-01-17 20:49:51.715105	314.2	21.8	-89.6	10.7
2025-01-17 20:49:52.883941	314.4	21.6	-90.4	8.4
2025-01-17 20:49:54.034750	314.6	21.5	-89.7	6.4
2025-01-17 20:49:55.200480	314.8	21.4	-90.7	8.3
2025-01-17 20:49:56.360325	315.0	21.3	-90.9	6.9
2025-01-17 20:49:57.520389	315.2	21.2	-90.7	4.6
2025-01-17 20:49:58.683878	315.4	21.1	-91.2	12.7
2025-01-17 20:49:59.849980	315.6	21.0	-91.0	8.4
2025-01-17 20:50:01.010434	315.8	20.9	-90.7	6.8
2025-01-17 20:50:02.176299	316.1	20.8	-90.2	6.5
2025-01-17 20:50:03.335645	316.3	20.7	-90.4	4.5
2025-01-17 20:50:04.499025	316.5	20.5	-90.9	8.1
2025-01-17 20:50:05.663534	316.7	20.4	-90.8	12.0
2025-01-17 20:50:06.822724	316.9	20.3	-90.5	7.3
2025-01-17 20:50:07.990668	317.1	20.2	-90.9	4.5
2025-01-17 20:50:09.155222	317.3	20.1	-90.8	6.3
2025-01-17 20:50:10.321509	317.5	20.0	-90.5	4.9
2025-01-17 20:50:11.484151	317.6	19.9	-90.4	3.4
2025-01-17 20:50:12.645981	317.8	19.8	-90.2	7.1
2025-01-17 20:50:13.805616	318.0	19.7	-90.8	6.5
2025-01-17 20:50:14.969141	318.2	19.6	-90.7	6.3
2025-01-17 20:50:16.133184	318.4	19.5	-90.5	5.5
2025-01-17 20:50:17.298246	318.6	19.4	-90.4	8.9
2025-01-17 20:50:18.465292	318.8	19.2	-90.8	3.0
2025-01-17 20:50:19.624971	319.0	19.1	-90.8	8.0
2025-01-17 20:50:20.785723	319.2	19.0	-90.3	6.4
2025-01-17 20:50:21.948996	319.3	18.9	-89.5	4.8
2025-01-17 20:50:23.119573	319.5	18.8	-90.5	5.4
2025-01-17 20:50:24.274020	319.7	18.7	-90.8	7.4
2025-01-17 20:50:25.436626	319.9	18.6	-90.4	4.8
2025-01-17 20:50:26.600722	320.1	18.5	-90.6	6.6
2025-01-17 20:50:27.751902	320.2	18.4	-90.6	5.4
2025-01-17 20:50:28.915725	320.4	18.3	-90.3	5.4
2025-01-17 20:50:30.079652	320.6	18.2	-89.9	5.0
2025-01-17 20:50:31.247185	320.8	18.1	-90.2	4.5
2025-01-17 20:50:32.400328	320.9	18.0	-90.6	6.4
2025-01-17 20:50:33.558519	321.1	17.9	-90.6	4.9
2025-01-17 20:50:34.721855	321.3	17.8	-90.7	5.5
2025-01-17 20:50:35.882853	321.4	17.7	-90.6	6.5
2025-01-17 20:50:37.041267	321.6	17.6	-90.6	3.0
2025-01-17 20:50:38.204702	321.8	17.4	-90.8	6.0
2025-01-17 20:50:39.366780	321.9	17.3	-90.8	7.6
2025-01-17 20:50:40.505636	322.1	17.2	-90.5	6.1
2025-01-17 20:50:41.631125	322.3	17.1	-89.4	4.3
2025-01-17 20:50:42.751230	322.4	17.0	-90.7	7.6
2025-01-17 20:50:43.871179	322.6	16.9	-90.7	3.5
2025-01-17 20:50:44.993234	322.7	16.8	-90.7	6.6
2025-01-17 20:50:46.115129	322.9	16.7	-89.8	6.6
2025-01-17 20:50:47.234813	323.0	16.6	-90.5	7.8
2025-01-17 20:50:48.355432	323.2	16.5	-90.4	8.5
2025-01-17 20:50:49.482756	323.3	16.4	-90.6	4.7
2025-01-17 20:50:50.636893	323.5	16.3	-90.3	6.2
2025-01-17 20:50:51.812124	323.6	16.2	-91.0	8.8
2025-01-17 20:50:52.984025	323.8	16.1	-90.6	6.2
2025-01-17 20:50:54.140381	324.0	16.0	-90.7	5.6
2025-01-17 20:50:55.302223	324.1	15.9	-90.7	9.4
2025-01-17 20:50:56.465191	324.3	15.8	-90.6	6.2
2025-01-17 20:50:57.632545	324.4	15.7	-90.8	6.6
2025-01-17 20:50:58.801655	324.6	15.6	-90.8	12.7
2025-01-17 20:50:59.959287	324.7	15.5	-90.6	5.0
2025-01-17 20:51:01.119298	324.8	15.4	-90.6	5.7
2025-01-17 20:51:02.279037	325.0	15.3	-90.6	4.5
2025-01-17 20:51:03.435874	325.1	15.2	-90.7	7.4
2025-01-17 20:51:04.590529	325.3	15.1	-90.4	3.7
2025-01-17 20:51:05.756264	325.4	15.0	-90.0	6.8
2025-01-17 20:51:06.915950	325.6	14.9	-90.5	8.8
2025-01-17 20:51:08.080995	325.7	14.8	-90.1	5.9
2025-01-17 20:51:09.247215	325.8	14.7	-90.1	7.1
2025-01-17 20:51:10.413438	326.0	14.7	-90.0	7.5
2025-01-17 20:51:11.559098	326.1	14.6	-90.2	4.6
#Closed at: 2025-01-17 20:43:23.662532