passes_logs/2025/01/17/LEX_Murmansk/LEX_Murmansk__20250117_104211_NOAA_18_rec.log

#Pass ID: 20250117_104211_NOAA 18
#Satellite: NOAA 18
#Configuration: NOAA 18
#Start time: 2025-01-17 10:42:07.060396

#LorettStation: 1.0.0 05.05.2024
#Station: LEX_Murmansk
#Location: 33.156738 lon 68.926811 lat
#TLE: 1 28654U 05018A   25016.15379782  .00000321  00000+0  19399-3 0  9994
#TLE: 2 28654  98.8565  97.1968 0014416 175.9109 184.2183 14.13487365 13346

#Time	Az	El	Level	SNR
2025-01-17 10:42:19.206381	23.8	16.3	-89.7	7.4
2025-01-17 10:42:21.523742	23.7	16.5	-90.0	7.5
2025-01-17 10:42:23.851838	23.6	16.8	-90.6	5.7
2025-01-17 10:42:26.169358	23.5	17.1	-90.4	7.3
2025-01-17 10:42:28.503531	23.4	17.3	-90.4	8.4
2025-01-17 10:42:30.830505	23.3	17.6	-90.7	12.3
2025-01-17 10:42:33.157536	23.2	17.9	-90.4	9.2
2025-01-17 10:42:35.479209	23.1	18.1	-90.6	12.7
2025-01-17 10:42:37.805860	23.0	18.4	-90.3	9.5
2025-01-17 10:42:40.137780	22.9	18.7	-90.3	8.8
2025-01-17 10:42:42.467254	22.8	18.9	-90.4	7.8
2025-01-17 10:42:44.794653	22.7	19.2	-90.3	12.4
2025-01-17 10:42:47.124721	22.6	19.5	-90.0	5.5
2025-01-17 10:42:49.445059	22.5	19.8	-90.8	6.0
2025-01-17 10:42:51.774717	22.4	20.1	-90.7	7.4
2025-01-17 10:42:54.106412	22.2	20.4	-90.3	6.0
2025-01-17 10:42:56.427507	22.1	20.7	-90.4	4.9
2025-01-17 10:42:58.757507	22.0	21.0	-90.5	10.3
2025-01-17 10:43:01.083625	21.9	21.3	-90.4	10.0
2025-01-17 10:43:03.408266	21.7	21.6	-90.7	10.5
2025-01-17 10:43:05.735129	21.6	21.9	-90.8	8.9
2025-01-17 10:43:08.063600	21.5	22.2	-90.5	11.9
2025-01-17 10:43:10.381987	21.3	22.6	-90.7	12.0
2025-01-17 10:43:12.708734	21.2	22.9	-90.8	14.3
2025-01-17 10:43:15.033257	21.1	23.2	-90.6	7.2
2025-01-17 10:43:17.354206	20.9	23.5	-91.0	10.4
2025-01-17 10:43:19.674098	20.8	23.9	-90.9	13.4
2025-01-17 10:43:22.004191	20.6	24.2	-90.9	7.7
2025-01-17 10:43:24.329213	20.5	24.6	-90.7	13.8
2025-01-17 10:43:26.655362	20.3	24.9	-90.9	13.7
2025-01-17 10:43:28.984372	20.1	25.3	-91.1	5.7
2025-01-17 10:43:31.317283	20.0	25.6	-90.6	9.3
2025-01-17 10:43:33.652460	19.8	26.0	-91.0	9.7
2025-01-17 10:43:35.968803	19.6	26.3	-90.8	10.3
2025-01-17 10:43:38.310865	19.5	26.7	-90.8	12.9
2025-01-17 10:43:40.637566	19.3	27.1	-90.8	12.0
2025-01-17 10:43:42.961036	19.1	27.5	-90.6	8.7
2025-01-17 10:43:45.285511	18.9	27.9	-90.6	8.0
2025-01-17 10:43:47.605356	18.7	28.2	-90.6	5.8
2025-01-17 10:43:49.932576	18.5	28.6	-90.8	6.9
2025-01-17 10:43:52.262117	18.3	29.0	-91.1	9.0
2025-01-17 10:43:54.589166	18.1	29.4	-90.7	7.9
2025-01-17 10:43:56.910948	17.9	29.9	-90.8	6.7
2025-01-17 10:43:59.239730	17.6	30.3	-90.4	5.6
2025-01-17 10:44:01.568646	17.4	30.7	-90.9	8.1
2025-01-17 10:44:03.899527	17.2	31.1	-90.9	6.6
2025-01-17 10:44:06.218766	16.9	31.6	-90.8	11.9
2025-01-17 10:44:08.550677	16.7	32.0	-91.1	13.5
2025-01-17 10:44:10.871559	16.4	32.4	-90.6	12.4
2025-01-17 10:44:13.200479	16.1	32.9	-90.9	11.3
2025-01-17 10:44:15.540349	15.9	33.4	-90.6	11.5
2025-01-17 10:44:17.869206	15.6	33.8	-90.8	12.6
2025-01-17 10:44:20.197059	15.3	34.3	-90.5	12.4
2025-01-17 10:44:22.528706	15.0	34.8	-90.4	6.6
2025-01-17 10:44:24.855957	14.7	35.2	-91.0	12.0
2025-01-17 10:44:27.181644	14.4	35.7	-90.7	14.4
2025-01-17 10:44:29.505337	14.0	36.2	-90.8	12.5
2025-01-17 10:44:31.831326	13.7	36.7	-90.7	13.8
2025-01-17 10:44:34.160475	13.4	37.2	-90.5	14.4
2025-01-17 10:44:36.486833	13.0	37.8	-90.9	14.9
2025-01-17 10:44:38.811771	12.6	38.3	-91.1	11.9
2025-01-17 10:44:41.149044	12.2	38.8	-90.7	12.2
2025-01-17 10:44:43.477632	11.8	39.3	-90.9	9.5
2025-01-17 10:44:45.796136	11.4	39.9	-90.6	13.6
2025-01-17 10:44:48.130374	11.0	40.4	-90.8	15.5
2025-01-17 10:44:50.456845	10.6	41.0	-90.5	13.9
2025-01-17 10:44:52.789290	10.1	41.6	-90.7	18.5
2025-01-17 10:44:55.113662	9.6	42.1	-90.7	18.3
2025-01-17 10:44:57.434174	9.1	42.7	-90.6	16.8
2025-01-17 10:44:59.763424	8.6	43.3	-90.1	15.5
2025-01-17 10:45:02.089943	8.1	43.9	-90.1	7.4
2025-01-17 10:45:04.397488	7.6	44.5	-90.1	12.4
2025-01-17 10:45:06.718599	7.0	45.1	-90.9	17.3
2025-01-17 10:45:09.045009	6.4	45.7	-90.4	20.6
2025-01-17 10:45:11.379068	5.8	46.3	-90.3	15.8
2025-01-17 10:45:13.705501	5.1	46.9	-91.0	14.1
2025-01-17 10:45:16.029441	4.5	47.5	-91.0	15.2
2025-01-17 10:45:18.357762	3.8	48.1	-90.5	11.9
2025-01-17 10:45:20.686252	3.1	48.8	-90.9	13.3
2025-01-17 10:45:23.016853	2.3	49.4	-91.0	7.7
2025-01-17 10:45:25.335878	1.5	50.0	-90.8	12.0
2025-01-17 10:45:27.649997	0.7	50.7	-90.9	10.2
2025-01-17 10:45:29.977349	359.9	51.3	-91.0	11.5
2025-01-17 10:45:32.327970	358.9	52.0	-90.9	14.0
2025-01-17 10:45:34.660776	358.0	52.6	-91.1	17.0
2025-01-17 10:45:36.981850	357.0	53.3	-91.1	13.2
2025-01-17 10:45:39.309504	356.0	53.9	-90.4	12.0
2025-01-17 10:45:41.639361	354.9	54.5	-90.6	7.9
2025-01-17 10:45:43.968757	353.8	55.2	-90.6	11.7
2025-01-17 10:45:46.289618	352.7	55.8	-90.8	15.9
2025-01-17 10:45:48.611670	351.4	56.5	-90.8	12.9
2025-01-17 10:45:50.928955	350.2	57.1	-91.0	6.1
2025-01-17 10:45:53.261411	348.8	57.7	-89.8	6.9
2025-01-17 10:45:55.588519	347.4	58.3	-90.7	15.3
2025-01-17 10:45:57.917241	345.9	58.9	-90.7	18.9
2025-01-17 10:46:00.240657	344.4	59.5	-90.3	13.4
2025-01-17 10:46:02.531812	342.8	60.1	-90.8	11.5
2025-01-17 10:46:04.866329	341.1	60.6	-90.8	14.9
2025-01-17 10:46:07.187717	339.4	61.2	-90.5	17.0
2025-01-17 10:46:09.531786	337.5	61.7	-90.4	13.8
2025-01-17 10:46:11.852360	335.6	62.2	-90.6	17.8
2025-01-17 10:46:14.176842	333.7	62.6	-90.4	15.5
2025-01-17 10:46:16.499853	331.6	63.1	-90.8	12.7
2025-01-17 10:46:18.834624	329.4	63.5	-90.7	17.3
2025-01-17 10:46:21.139093	327.3	63.9	-90.6	15.0
2025-01-17 10:46:23.379529	325.1	64.2	-90.6	11.1
2025-01-17 10:46:25.620959	322.8	64.5	-90.8	14.4
2025-01-17 10:46:27.862480	320.5	64.8	-90.8	11.9
2025-01-17 10:46:30.130045	318.1	65.0	-90.6	10.0
2025-01-17 10:46:32.447896	315.6	65.2	-91.0	9.0
2025-01-17 10:46:34.769880	313.0	65.3	-90.6	10.2
2025-01-17 10:46:37.090986	310.5	65.5	-91.0	12.8
2025-01-17 10:46:39.416629	307.9	65.5	-91.0	16.2
2025-01-17 10:46:41.740014	305.3	65.5	-91.0	13.4
2025-01-17 10:46:44.069866	302.7	65.5	-90.5	5.3
2025-01-17 10:46:46.392391	300.1	65.4	-90.9	10.7
2025-01-17 10:46:48.711732	297.5	65.3	-90.9	7.5
2025-01-17 10:46:51.037682	295.0	65.1	-91.0	11.7
2025-01-17 10:46:53.368639	292.5	64.9	-90.9	12.8
2025-01-17 10:46:55.690348	290.0	64.7	-90.8	15.6
2025-01-17 10:46:58.012349	287.7	64.4	-90.7	7.1
2025-01-17 10:47:00.323522	285.4	64.1	-91.1	14.1
2025-01-17 10:47:02.655999	283.1	63.7	-90.7	9.5
2025-01-17 10:47:04.984353	280.9	63.3	-91.0	6.4
2025-01-17 10:47:07.302125	278.8	62.9	-90.6	14.2
2025-01-17 10:47:09.624689	276.8	62.4	-90.9	10.4
2025-01-17 10:47:11.926010	274.8	62.0	-90.7	13.1
2025-01-17 10:47:14.232988	273.0	61.5	-91.0	16.4
2025-01-17 10:47:16.560320	271.1	60.9	-91.0	11.1
2025-01-17 10:47:18.887379	269.4	60.4	-90.4	12.0
2025-01-17 10:47:21.216684	267.8	59.8	-90.9	13.3
2025-01-17 10:47:23.543007	266.2	59.3	-91.4	10.5
2025-01-17 10:47:25.863404	264.7	58.7	-91.0	15.1
2025-01-17 10:47:28.189222	263.2	58.1	-85.5	7.9
2025-01-17 10:47:30.515982	261.8	57.4	-90.8	7.0
2025-01-17 10:47:32.839995	260.5	56.8	-90.7	7.2
2025-01-17 10:47:35.174002	259.2	56.2	-90.9	7.1
2025-01-17 10:47:37.493007	258.0	55.5	-86.0	4.6
2025-01-17 10:47:39.823695	256.9	54.9	-90.8	9.0
2025-01-17 10:47:42.161528	255.8	54.3	-90.5	14.8
2025-01-17 10:47:44.487242	254.7	53.6	-89.4	13.6
2025-01-17 10:47:46.807618	253.7	53.0	-90.8	17.1
2025-01-17 10:47:49.123962	252.8	52.3	-89.6	17.2
2025-01-17 10:47:51.446448	251.9	51.7	-90.3	17.0
2025-01-17 10:47:53.773008	251.0	51.0	-90.0	20.1
2025-01-17 10:47:56.107947	250.1	50.4	-90.2	14.5
2025-01-17 10:47:58.427710	249.3	49.7	-90.1	11.0
2025-01-17 10:48:00.742937	248.5	49.1	-90.8	17.8
2025-01-17 10:48:03.056475	247.8	48.5	-90.5	11.7
2025-01-17 10:48:05.380717	247.1	47.8	-91.0	14.4
2025-01-17 10:48:07.709882	246.4	47.2	-91.2	18.7
2025-01-17 10:48:10.041049	245.8	46.6	-90.8	14.1
2025-01-17 10:48:12.368211	245.1	46.0	-90.8	16.4
2025-01-17 10:48:14.699797	244.5	45.3	-90.3	19.0
2025-01-17 10:48:17.025384	243.9	44.7	-90.7	20.1
2025-01-17 10:48:19.352923	243.4	44.1	-89.9	20.2
2025-01-17 10:48:21.684221	242.8	43.5	-89.7	17.0
2025-01-17 10:48:24.009291	242.3	43.0	-89.8	13.3
2025-01-17 10:48:26.322057	241.8	42.4	-89.4	16.6
2025-01-17 10:48:28.641695	241.3	41.8	-89.8	16.1
2025-01-17 10:48:30.969607	240.8	41.2	-90.3	13.2
2025-01-17 10:48:33.287469	240.4	40.7	-90.7	17.9
2025-01-17 10:48:35.588235	240.0	40.1	-90.9	18.3
2025-01-17 10:48:37.909727	239.5	39.6	-90.6	17.6
2025-01-17 10:48:40.236666	239.1	39.0	-90.4	15.6
2025-01-17 10:48:42.576014	238.7	38.5	-90.8	15.5
2025-01-17 10:48:44.905732	238.4	38.0	-90.6	12.9
2025-01-17 10:48:47.226034	238.0	37.4	-90.5	17.3
2025-01-17 10:48:49.569199	237.6	36.9	-91.1	11.8
2025-01-17 10:48:51.889864	237.3	36.4	-90.9	12.6
2025-01-17 10:48:54.223251	237.0	35.9	-90.9	13.9
2025-01-17 10:48:56.552164	236.6	35.4	-91.2	15.0
2025-01-17 10:48:58.876639	236.3	34.9	-91.0	15.1
2025-01-17 10:49:01.199923	236.0	34.4	-90.7	15.5
2025-01-17 10:49:03.523902	235.7	34.0	-90.8	9.6
2025-01-17 10:49:05.844890	235.4	33.5	-90.7	13.4
2025-01-17 10:49:08.161306	235.1	33.0	-90.9	14.1
2025-01-17 10:49:10.487785	234.9	32.6	-91.0	14.0
2025-01-17 10:49:12.825892	234.6	32.1	-91.3	17.0
2025-01-17 10:49:15.155388	234.3	31.7	-91.0	15.2
2025-01-17 10:49:17.478205	234.1	31.2	-91.0	12.6
2025-01-17 10:49:19.796250	233.9	30.8	-91.0	10.9
2025-01-17 10:49:22.123134	233.6	30.4	-91.0	9.9
2025-01-17 10:49:24.453696	233.4	30.0	-91.0	7.5
2025-01-17 10:49:26.786907	233.2	29.5	-91.4	8.0
2025-01-17 10:49:29.106427	233.0	29.1	-90.6	6.7
2025-01-17 10:49:31.429296	232.7	28.7	-90.8	10.0
2025-01-17 10:49:33.756090	232.5	28.3	-91.0	6.2
2025-01-17 10:49:36.086194	232.3	27.9	-91.1	7.2
2025-01-17 10:49:38.388909	232.1	27.5	-90.7	5.9
2025-01-17 10:49:40.695230	231.9	27.2	-91.2	9.3
2025-01-17 10:49:43.022178	231.8	26.8	-90.9	7.5
2025-01-17 10:49:45.341712	231.6	26.4	-90.8	9.6
2025-01-17 10:49:47.668701	231.4	26.0	-91.2	6.7
2025-01-17 10:49:49.996333	231.2	25.7	-91.1	8.6
2025-01-17 10:49:52.318095	231.1	25.3	-90.9	11.2
2025-01-17 10:49:54.642693	230.9	24.9	-91.1	9.5
2025-01-17 10:49:56.959997	230.7	24.6	-91.0	12.2
2025-01-17 10:49:59.282182	230.6	24.2	-90.9	12.5
2025-01-17 10:50:01.603794	230.4	23.9	-91.0	10.2
2025-01-17 10:50:03.934654	230.3	23.6	-91.4	9.8
2025-01-17 10:50:06.263039	230.1	23.2	-90.7	10.6
2025-01-17 10:50:08.584989	230.0	22.9	-90.8	9.2
2025-01-17 10:50:10.909758	229.8	22.6	-91.0	11.0
2025-01-17 10:50:13.244240	229.7	22.2	-90.3	11.7
2025-01-17 10:50:15.573469	229.6	21.9	-90.6	12.3
2025-01-17 10:50:17.898649	229.4	21.6	-91.0	12.8
2025-01-17 10:50:20.235077	229.3	21.3	-90.8	12.8
2025-01-17 10:50:22.565350	229.2	21.0	-91.3	9.9
2025-01-17 10:50:24.888891	229.0	20.7	-90.9	13.4
2025-01-17 10:50:27.223378	228.9	20.4	-90.4	8.0
2025-01-17 10:50:29.541746	228.8	20.1	-90.7	14.3
2025-01-17 10:50:31.872590	228.7	19.8	-90.9	10.7
2025-01-17 10:50:34.208629	228.6	19.5	-90.8	8.7
2025-01-17 10:50:36.535399	228.4	19.2	-90.8	8.8
2025-01-17 10:50:38.860402	228.3	18.9	-90.6	11.4
2025-01-17 10:50:41.192058	228.2	18.6	-90.6	11.0
2025-01-17 10:50:43.517204	228.1	18.3	-91.1	11.6
2025-01-17 10:50:45.834157	228.0	18.1	-90.8	12.5
2025-01-17 10:50:48.148159	227.9	17.8	-90.5	10.3
2025-01-17 10:50:50.474863	227.8	17.5	-90.9	9.7
2025-01-17 10:50:52.798073	227.7	17.3	-90.2	9.3
2025-01-17 10:50:55.128317	227.6	17.0	-89.9	13.4
2025-01-17 10:50:57.448776	227.5	16.7	-90.1	10.6
2025-01-17 10:50:59.776747	227.4	16.5	-90.0	10.5
2025-01-17 10:51:02.098545	227.3	16.2	-90.6	7.4
2025-01-17 10:51:04.424382	227.3	16.0	-91.2	6.4
2025-01-17 10:51:06.749810	227.2	15.7	-91.4	7.7
2025-01-17 10:51:09.074220	227.1	15.5	-91.1	8.2
2025-01-17 10:51:11.405892	227.0	15.2	-91.1	7.4
2025-01-17 10:51:13.732361	226.9	15.0	-91.1	9.8
2025-01-17 10:51:16.066723	226.8	14.7	-90.8	6.2
2025-01-17 10:51:18.384149	226.8	14.5	-90.9	6.0
#Closed at: 2025-01-17 10:42:11.995163