passes_logs/2025/01/17/LEX_Murmansk/LEX_Murmansk__20250117_172115_NOAA_18_rec.log

#Pass ID: 20250117_172115_NOAA 18
#Satellite: NOAA 18
#Configuration: NOAA 18
#Start time: 2025-01-17 17:21:10.427142

#LorettStation: 1.0.0 05.05.2024
#Station: LEX_Murmansk
#Location: 33.156738 lon 68.926811 lat
#TLE: 1 28654U 05018A   25017.14480960  .00000361  00000+0  21486-3 0  9999
#TLE: 2 28654  98.8562  98.1779 0014463 173.1209 187.0164 14.13488310 13483

#Time	Az	El	Level	SNR
2025-01-17 17:21:22.526937	106.8	16.2	-91.1	7.0
2025-01-17 17:21:23.659710	106.7	16.3	-91.4	12.4
2025-01-17 17:21:24.804534	106.6	16.4	-91.2	12.5
2025-01-17 17:21:25.947051	106.5	16.5	-91.7	10.6
2025-01-17 17:21:27.091331	106.4	16.7	-91.1	8.3
2025-01-17 17:21:28.234457	106.3	16.8	-91.4	14.8
2025-01-17 17:21:29.376026	106.2	16.9	-91.4	11.1
2025-01-17 17:21:30.527713	106.1	17.0	-91.1	12.2
2025-01-17 17:21:31.678288	106.0	17.1	-91.4	14.5
2025-01-17 17:21:32.827732	105.9	17.2	-91.4	16.4
2025-01-17 17:21:33.976968	105.7	17.4	-91.7	13.0
2025-01-17 17:21:35.119704	105.6	17.5	-91.0	14.8
2025-01-17 17:21:36.275822	105.5	17.6	-91.2	12.9
2025-01-17 17:21:37.435911	105.4	17.7	-91.3	10.1
2025-01-17 17:21:38.584220	105.3	17.9	-91.6	7.0
2025-01-17 17:21:39.734799	105.2	18.0	-91.4	12.5
2025-01-17 17:21:40.880312	105.1	18.1	-91.3	8.6
2025-01-17 17:21:42.036456	105.0	18.2	-91.3	10.0
2025-01-17 17:21:43.182266	104.8	18.3	-91.6	12.5
2025-01-17 17:21:44.330455	104.7	18.5	-90.9	12.4
2025-01-17 17:21:45.481681	104.6	18.6	-91.6	9.8
2025-01-17 17:21:46.631899	104.5	18.7	-91.7	14.1
2025-01-17 17:21:47.784059	104.4	18.8	-91.6	12.1
2025-01-17 17:21:48.930910	104.2	19.0	-91.4	11.0
2025-01-17 17:21:50.079881	104.1	19.1	-91.4	14.0
2025-01-17 17:21:51.231721	104.0	19.2	-90.9	14.5
2025-01-17 17:21:52.378268	103.9	19.4	-91.1	15.2
2025-01-17 17:21:53.518288	103.8	19.5	-91.3	13.5
2025-01-17 17:21:54.669208	103.6	19.6	-91.7	15.0
2025-01-17 17:21:55.816794	103.5	19.7	-91.6	13.8
2025-01-17 17:21:56.968092	103.4	19.9	-91.2	8.5
2025-01-17 17:21:58.120646	103.2	20.0	-91.0	9.7
2025-01-17 17:21:59.268107	103.1	20.1	-91.4	14.3
2025-01-17 17:22:00.410204	103.0	20.3	-91.7	12.1
2025-01-17 17:22:01.556259	102.8	20.4	-91.4	14.4
2025-01-17 17:22:02.706313	102.7	20.5	-91.9	17.0
2025-01-17 17:22:03.861913	102.6	20.7	-91.6	15.3
2025-01-17 17:22:05.008653	102.4	20.8	-91.6	13.5
2025-01-17 17:22:06.158059	102.3	20.9	-91.4	18.7
2025-01-17 17:22:07.316480	102.2	21.1	-91.4	12.8
2025-01-17 17:22:08.463329	102.0	21.2	-91.6	12.2
2025-01-17 17:22:09.610436	101.9	21.3	-91.8	14.8
2025-01-17 17:22:10.757603	101.7	21.5	-91.6	13.6
2025-01-17 17:22:11.910340	101.6	21.6	-91.5	13.3
2025-01-17 17:22:13.052642	101.4	21.7	-91.6	8.8
2025-01-17 17:22:14.202990	101.3	21.9	-91.6	7.4
2025-01-17 17:22:15.350027	101.2	22.0	-91.4	13.4
2025-01-17 17:22:16.492067	101.0	22.2	-91.9	7.6
2025-01-17 17:22:17.639598	100.9	22.3	-91.8	8.2
2025-01-17 17:22:18.784636	100.7	22.4	-91.6	8.6
2025-01-17 17:22:19.933855	100.5	22.6	-91.5	8.1
2025-01-17 17:22:21.087757	100.4	22.7	-91.0	8.6
2025-01-17 17:22:22.234894	100.2	22.9	-91.5	14.3
2025-01-17 17:22:23.385187	100.1	23.0	-91.6	7.9
2025-01-17 17:22:24.532747	99.9	23.1	-91.5	6.8
2025-01-17 17:22:25.683071	99.8	23.3	-91.7	6.1
2025-01-17 17:22:26.827221	99.6	23.4	-91.5	7.2
2025-01-17 17:22:27.975435	99.4	23.6	-91.9	6.5
2025-01-17 17:22:29.125165	99.3	23.7	-91.3	7.4
2025-01-17 17:22:30.270834	99.1	23.9	-90.8	6.1
2025-01-17 17:22:31.419526	98.9	24.0	-91.3	4.8
2025-01-17 17:22:32.568912	98.8	24.1	-91.8	4.6
2025-01-17 17:22:33.713821	98.6	24.3	-92.0	8.5
2025-01-17 17:22:34.860626	98.4	24.4	-91.7	4.2
2025-01-17 17:22:36.007103	98.2	24.6	-91.8	4.5
2025-01-17 17:22:37.154930	98.1	24.7	-91.8	5.2
2025-01-17 17:22:38.305051	97.9	24.9	-91.6	4.6
2025-01-17 17:22:39.468343	97.7	25.0	-91.9	6.2
2025-01-17 17:22:40.619167	97.5	25.2	-91.5	10.8
2025-01-17 17:22:41.768644	97.3	25.3	-91.9	6.4
2025-01-17 17:22:42.924186	97.1	25.5	-91.8	4.4
2025-01-17 17:22:44.072906	97.0	25.6	-91.7	6.9
2025-01-17 17:22:45.217813	96.8	25.8	-91.1	10.5
2025-01-17 17:22:46.365872	96.6	25.9	-91.5	10.5
2025-01-17 17:22:47.515155	96.4	26.1	-91.9	10.2
2025-01-17 17:22:48.658881	96.2	26.2	-91.4	14.4
2025-01-17 17:22:49.806260	96.0	26.4	-91.4	10.7
2025-01-17 17:22:50.956761	95.8	26.6	-91.7	7.0
2025-01-17 17:22:52.104117	95.6	26.7	-91.5	6.7
2025-01-17 17:22:53.255243	95.4	26.9	-91.5	9.0
2025-01-17 17:22:54.408869	95.2	27.0	-91.5	11.1
2025-01-17 17:22:55.577823	95.0	27.2	-91.4	12.3
2025-01-17 17:22:56.720936	94.8	27.3	-91.6	11.9
2025-01-17 17:22:57.878678	94.6	27.5	-92.3	12.4
2025-01-17 17:22:59.025048	94.4	27.7	-91.5	9.9
2025-01-17 17:23:00.167992	94.1	27.8	-91.5	11.5
2025-01-17 17:23:01.316968	93.9	28.0	-91.7	8.0
2025-01-17 17:23:02.466814	93.7	28.1	-91.7	9.4
2025-01-17 17:23:03.618231	93.5	28.3	-91.8	13.7
2025-01-17 17:23:04.762178	93.3	28.4	-91.3	15.3
2025-01-17 17:23:05.908545	93.0	28.6	-91.5	13.7
2025-01-17 17:23:07.050596	92.8	28.8	-91.5	9.9
2025-01-17 17:23:08.200192	92.6	28.9	-91.6	15.6
2025-01-17 17:23:09.352415	92.3	29.1	-91.8	12.6
2025-01-17 17:23:10.496726	92.1	29.2	-91.7	10.6
2025-01-17 17:23:11.643254	91.9	29.4	-91.3	11.1
2025-01-17 17:23:12.771204	91.6	29.6	-91.7	10.0
2025-01-17 17:23:13.893054	91.4	29.7	-91.4	12.2
2025-01-17 17:23:15.014574	91.2	29.9	-91.7	11.1
2025-01-17 17:23:16.134478	90.9	30.0	-91.7	12.9
2025-01-17 17:23:17.254619	90.7	30.2	-91.1	16.2
2025-01-17 17:23:18.374785	90.4	30.4	-91.5	15.2
2025-01-17 17:23:19.495365	90.2	30.5	-91.5	19.2
2025-01-17 17:23:20.621428	89.9	30.7	-91.8	15.2
2025-01-17 17:23:21.754888	89.7	30.8	-91.3	16.4
2025-01-17 17:23:22.898412	89.4	31.0	-92.0	16.5
2025-01-17 17:23:24.040823	89.1	31.2	-91.8	13.8
2025-01-17 17:23:25.190635	88.9	31.3	-91.4	16.2
2025-01-17 17:23:26.333318	88.6	31.5	-91.3	17.9
2025-01-17 17:23:27.480457	88.3	31.7	-91.7	12.4
2025-01-17 17:23:28.631101	88.1	31.8	-91.7	15.5
2025-01-17 17:23:29.781002	87.8	32.0	-91.9	16.1
2025-01-17 17:23:30.922253	87.5	32.2	-91.9	9.9
2025-01-17 17:23:32.072627	87.2	32.3	-91.8	12.6
2025-01-17 17:23:33.222509	86.9	32.5	-91.6	17.7
2025-01-17 17:23:34.377135	86.6	32.7	-91.4	16.0
2025-01-17 17:23:35.524735	86.3	32.8	-92.0	11.3
2025-01-17 17:23:36.669934	86.0	33.0	-92.0	15.1
2025-01-17 17:23:37.822072	85.7	33.2	-91.6	11.7
2025-01-17 17:23:38.968087	85.4	33.3	-91.4	16.3
2025-01-17 17:23:40.122930	85.1	33.5	-91.4	13.4
2025-01-17 17:23:41.267069	84.8	33.7	-91.4	16.3
2025-01-17 17:23:42.423290	84.5	33.8	-91.8	16.8
2025-01-17 17:23:43.572783	84.2	34.0	-91.5	17.2
2025-01-17 17:23:44.720028	83.9	34.2	-91.6	17.2
2025-01-17 17:23:45.871312	83.5	34.3	-91.5	19.1
2025-01-17 17:23:47.015628	83.2	34.5	-92.0	14.6
2025-01-17 17:23:48.165444	82.9	34.7	-91.0	15.0
2025-01-17 17:23:49.308995	82.6	34.8	-91.5	15.5
2025-01-17 17:23:50.458332	82.2	35.0	-91.8	14.5
2025-01-17 17:23:51.610700	81.9	35.2	-91.5	14.7
2025-01-17 17:23:52.757378	81.5	35.3	-91.6	18.6
2025-01-17 17:23:53.904556	81.2	35.5	-91.8	14.1
2025-01-17 17:23:55.059886	80.8	35.7	-91.3	11.0
2025-01-17 17:23:56.209023	80.5	35.8	-91.5	17.9
2025-01-17 17:23:57.356904	80.1	36.0	-91.5	16.4
2025-01-17 17:23:58.505491	79.8	36.1	-91.5	11.2
2025-01-17 17:23:59.659818	79.4	36.3	-91.4	13.2
2025-01-17 17:24:00.800640	79.0	36.5	-91.2	18.0
2025-01-17 17:24:01.953477	78.7	36.6	-91.7	17.6
2025-01-17 17:24:03.097677	78.3	36.8	-91.6	19.0
2025-01-17 17:24:04.247728	77.9	36.9	-91.2	20.6
2025-01-17 17:24:05.393297	77.5	37.1	-91.5	16.8
2025-01-17 17:24:06.545641	77.1	37.3	-91.3	18.8
2025-01-17 17:24:07.701212	76.8	37.4	-92.0	20.1
2025-01-17 17:24:08.855352	76.4	37.6	-91.8	12.6
2025-01-17 17:24:10.005680	76.0	37.7	-91.6	15.3
2025-01-17 17:24:11.150503	75.6	37.9	-91.2	18.4
2025-01-17 17:24:12.301074	75.2	38.0	-91.6	17.4
2025-01-17 17:24:13.445204	74.7	38.2	-92.3	14.2
2025-01-17 17:24:14.596120	74.3	38.4	-91.5	18.1
2025-01-17 17:24:15.761389	73.9	38.5	-91.4	16.2
2025-01-17 17:24:16.908014	73.5	38.7	-91.7	15.8
2025-01-17 17:24:18.057195	73.1	38.8	-91.6	14.3
2025-01-17 17:24:19.199042	72.6	38.9	-91.4	14.1
2025-01-17 17:24:20.351113	72.2	39.1	-91.5	19.2
2025-01-17 17:24:21.495712	71.8	39.2	-91.9	13.3
2025-01-17 17:24:22.640964	71.3	39.4	-91.7	11.2
2025-01-17 17:24:23.790694	70.9	39.5	-91.5	17.3
2025-01-17 17:24:24.944258	70.4	39.7	-91.7	10.8
2025-01-17 17:24:26.090713	70.0	39.8	-91.3	13.2
2025-01-17 17:24:27.236957	69.5	39.9	-91.3	19.4
2025-01-17 17:24:28.385051	69.1	40.1	-91.3	14.8
2025-01-17 17:24:29.530724	68.6	40.2	-91.6	19.7
2025-01-17 17:24:30.674299	68.1	40.3	-91.6	17.1
2025-01-17 17:24:31.826655	67.7	40.5	-91.5	21.5
2025-01-17 17:24:32.974017	67.2	40.6	-91.5	14.4
2025-01-17 17:24:34.130681	66.7	40.7	-91.8	15.4
2025-01-17 17:24:35.275072	66.2	40.9	-91.4	19.8
2025-01-17 17:24:36.424171	65.7	41.0	-91.5	17.5
2025-01-17 17:24:37.573146	65.2	41.1	-91.6	16.2
2025-01-17 17:24:38.723100	64.8	41.2	-91.4	17.4
2025-01-17 17:24:39.873832	64.3	41.3	-91.6	18.8
2025-01-17 17:24:41.022901	63.7	41.5	-91.7	12.9
2025-01-17 17:24:42.174176	63.2	41.6	-91.5	16.2
2025-01-17 17:24:43.320651	62.7	41.7	-91.9	17.0
2025-01-17 17:24:44.468969	62.2	41.8	-91.6	16.6
2025-01-17 17:24:45.618436	61.7	41.9	-91.9	19.4
2025-01-17 17:24:46.766795	61.2	42.0	-91.7	18.2
2025-01-17 17:24:47.920738	60.7	42.1	-91.8	18.4
2025-01-17 17:24:49.068502	60.1	42.2	-91.2	16.6
2025-01-17 17:24:50.216603	59.6	42.3	-91.4	17.5
2025-01-17 17:24:51.366258	59.1	42.4	-91.7	18.1
2025-01-17 17:24:52.520627	58.5	42.5	-91.9	14.2
2025-01-17 17:24:53.669866	58.0	42.6	-91.7	16.4
2025-01-17 17:24:54.819523	57.5	42.7	-91.3	17.0
2025-01-17 17:24:55.968238	56.9	42.8	-91.6	12.4
2025-01-17 17:24:57.118188	56.4	42.8	-91.0	10.5
2025-01-17 17:24:58.265523	55.8	42.9	-91.2	18.0
2025-01-17 17:24:59.417853	55.3	43.0	-91.2	11.1
2025-01-17 17:25:00.571491	54.7	43.1	-91.5	9.3
2025-01-17 17:25:01.720217	54.1	43.1	-91.9	18.5
2025-01-17 17:25:02.865623	53.6	43.2	-91.4	14.4
2025-01-17 17:25:04.014038	53.0	43.3	-91.7	11.4
2025-01-17 17:25:05.157191	52.5	43.3	-91.7	13.9
2025-01-17 17:25:06.308762	51.9	43.4	-91.2	15.9
2025-01-17 17:25:07.452686	51.3	43.4	-91.7	16.4
2025-01-17 17:25:08.599845	50.8	43.5	-91.6	15.8
2025-01-17 17:25:09.753261	50.2	43.5	-91.4	13.9
2025-01-17 17:25:10.902573	49.6	43.6	-91.6	15.8
2025-01-17 17:25:12.052055	49.0	43.6	-91.0	15.4
2025-01-17 17:25:13.203980	48.5	43.7	-91.2	16.5
2025-01-17 17:25:14.349745	47.9	43.7	-91.5	17.1
2025-01-17 17:25:15.501699	47.3	43.7	-91.1	16.1
2025-01-17 17:25:16.646830	46.7	43.8	-91.5	18.3
2025-01-17 17:25:17.793431	46.1	43.8	-91.5	17.5
2025-01-17 17:25:18.937644	45.6	43.8	-90.9	13.9
2025-01-17 17:25:20.083553	45.0	43.8	-91.0	12.8
2025-01-17 17:25:21.231673	44.4	43.8	-91.3	19.2
2025-01-17 17:25:22.386105	43.8	43.9	-91.0	14.6
2025-01-17 17:25:23.540576	43.2	43.9	-90.9	9.4
2025-01-17 17:25:24.685455	42.6	43.9	-90.8	18.3
2025-01-17 17:25:25.838183	42.0	43.9	-91.3	18.6
2025-01-17 17:25:26.988221	41.5	43.9	-91.2	12.1
2025-01-17 17:25:28.148362	40.9	43.9	-91.3	13.2
2025-01-17 17:25:29.300571	40.3	43.9	-91.0	16.8
2025-01-17 17:25:30.445219	39.7	43.9	-91.4	12.7
2025-01-17 17:25:31.591661	39.1	43.8	-91.3	12.7
2025-01-17 17:25:32.739698	38.5	43.8	-91.3	18.7
2025-01-17 17:25:33.881185	38.0	43.8	-91.6	18.5
2025-01-17 17:25:35.027923	37.4	43.8	-91.7	14.6
2025-01-17 17:25:36.175922	36.8	43.7	-91.0	17.4
2025-01-17 17:25:37.329012	36.2	43.7	-90.8	19.4
2025-01-17 17:25:38.474780	35.6	43.7	-91.6	13.9
2025-01-17 17:25:39.624910	35.1	43.6	-91.7	16.2
2025-01-17 17:25:40.771777	34.5	43.6	-91.5	18.7
2025-01-17 17:25:41.923643	33.9	43.6	-91.5	14.8
2025-01-17 17:25:43.072460	33.3	43.5	-91.5	17.9
2025-01-17 17:25:44.218992	32.8	43.5	-91.4	19.1
2025-01-17 17:25:45.378156	32.2	43.4	-91.5	18.8
2025-01-17 17:25:46.524535	31.6	43.4	-91.2	19.5
2025-01-17 17:25:47.673278	31.0	43.3	-91.4	21.4
2025-01-17 17:25:48.827564	30.5	43.2	-91.7	20.8
2025-01-17 17:25:49.987139	29.9	43.2	-91.6	21.6
2025-01-17 17:25:51.139769	29.4	43.1	-91.2	18.6
2025-01-17 17:25:52.289975	28.8	43.0	-91.5	21.4
2025-01-17 17:25:53.439775	28.2	42.9	-90.9	18.6
2025-01-17 17:25:54.582972	27.7	42.9	-91.3	18.9
2025-01-17 17:25:55.729967	27.1	42.8	-91.5	21.8
2025-01-17 17:25:56.879225	26.6	42.7	-91.1	18.1
2025-01-17 17:25:58.029676	26.1	42.6	-91.4	20.2
2025-01-17 17:25:59.179347	25.5	42.5	-91.5	17.8
2025-01-17 17:26:00.334064	25.0	42.4	-91.5	19.7
2025-01-17 17:26:01.488925	24.4	42.3	-91.2	17.8
2025-01-17 17:26:02.635588	23.9	42.3	-91.6	19.5
2025-01-17 17:26:03.789642	23.4	42.2	-91.5	20.3
2025-01-17 17:26:04.933583	22.9	42.1	-91.6	20.0
2025-01-17 17:26:06.084371	22.3	41.9	-91.3	21.1
2025-01-17 17:26:07.238003	21.8	41.8	-91.2	17.3
2025-01-17 17:26:08.402419	21.3	41.7	-91.2	20.9
2025-01-17 17:26:09.551527	20.8	41.6	-91.4	19.6
2025-01-17 17:26:10.702522	20.3	41.5	-91.8	18.7
2025-01-17 17:26:11.851514	19.8	41.4	-91.7	18.5
2025-01-17 17:26:13.000946	19.3	41.3	-91.3	20.6
2025-01-17 17:26:14.146914	18.8	41.2	-90.5	21.2
2025-01-17 17:26:15.296099	18.3	41.0	-91.2	19.4
2025-01-17 17:26:16.451314	17.8	40.9	-91.6	18.5
2025-01-17 17:26:17.600043	17.3	40.8	-91.5	17.3
2025-01-17 17:26:18.751508	16.8	40.7	-91.2	18.3
2025-01-17 17:26:19.902135	16.3	40.5	-91.7	20.7
2025-01-17 17:26:21.053935	15.9	40.4	-92.0	20.4
2025-01-17 17:26:22.208285	15.4	40.3	-91.8	23.0
2025-01-17 17:26:23.352150	14.9	40.1	-91.6	18.2
2025-01-17 17:26:24.503935	14.5	40.0	-91.5	19.7
2025-01-17 17:26:25.656799	14.0	39.9	-91.8	19.8
2025-01-17 17:26:26.808643	13.6	39.7	-91.7	18.9
2025-01-17 17:26:27.955990	13.1	39.6	-91.5	18.5
2025-01-17 17:26:29.116773	12.7	39.4	-91.3	15.9
2025-01-17 17:26:30.267797	12.2	39.3	-91.6	17.3
2025-01-17 17:26:31.411594	11.8	39.1	-91.9	14.8
2025-01-17 17:26:32.559768	11.3	39.0	-91.4	11.9
2025-01-17 17:26:33.704453	10.9	38.9	-91.5	16.8
2025-01-17 17:26:34.854466	10.5	38.7	-91.6	18.1
2025-01-17 17:26:36.002813	10.1	38.6	-91.4	15.8
2025-01-17 17:26:37.156413	9.6	38.4	-91.5	15.0
2025-01-17 17:26:38.300478	9.2	38.3	-91.5	16.4
2025-01-17 17:26:39.444796	8.8	38.1	-91.8	14.2
2025-01-17 17:26:40.604855	8.4	37.9	-91.8	15.4
2025-01-17 17:26:41.758256	8.0	37.8	-91.9	18.0
2025-01-17 17:26:42.902203	7.6	37.6	-91.1	13.4
2025-01-17 17:26:44.054084	7.2	37.5	-91.7	11.0
2025-01-17 17:26:45.210305	6.8	37.3	-90.7	14.3
2025-01-17 17:26:46.367653	6.4	37.2	-91.3	16.2
2025-01-17 17:26:47.516597	6.0	37.0	-91.9	13.1
2025-01-17 17:26:48.674342	5.6	36.8	-92.0	16.2
2025-01-17 17:26:49.823056	5.3	36.7	-91.5	14.5
2025-01-17 17:26:50.973975	4.9	36.5	-91.5	14.3
2025-01-17 17:26:52.120442	4.5	36.4	-91.5	15.1
2025-01-17 17:26:53.270019	4.2	36.2	-91.6	14.8
2025-01-17 17:26:54.420498	3.8	36.0	-91.4	13.7
2025-01-17 17:26:55.570681	3.4	35.9	-91.1	12.8
2025-01-17 17:26:56.719499	3.1	35.7	-91.8	14.9
2025-01-17 17:26:57.868462	2.7	35.5	-91.8	17.3
2025-01-17 17:26:59.023136	2.4	35.4	-91.6	15.6
2025-01-17 17:27:00.167968	2.0	35.2	-91.4	15.3
2025-01-17 17:27:01.318248	1.7	35.0	-91.4	16.3
2025-01-17 17:27:02.470608	1.4	34.9	-91.6	17.6
2025-01-17 17:27:03.621782	1.0	34.7	-91.1	16.6
2025-01-17 17:27:04.771852	0.7	34.6	-91.0	16.0
2025-01-17 17:27:05.918814	0.4	34.4	-91.1	15.0
2025-01-17 17:27:07.070241	0.0	34.2	-91.3	14.5
2025-01-17 17:27:08.223557	359.7	34.1	-91.0	15.1
2025-01-17 17:27:09.370030	359.4	33.9	-91.2	16.7
2025-01-17 17:27:10.516523	359.1	33.7	-91.6	14.7
2025-01-17 17:27:11.663636	358.8	33.6	-91.3	17.0
2025-01-17 17:27:12.812341	358.5	33.4	-91.1	13.1
2025-01-17 17:27:13.957156	358.2	33.2	-91.4	14.5
2025-01-17 17:27:15.101769	357.9	33.1	-91.2	12.2
2025-01-17 17:27:16.252969	357.6	32.9	-91.2	14.8
2025-01-17 17:27:17.401134	357.3	32.7	-91.8	12.9
2025-01-17 17:27:18.551228	357.0	32.6	-91.8	10.4
2025-01-17 17:27:19.698572	356.7	32.4	-92.0	13.1
2025-01-17 17:27:20.859587	356.4	32.2	-91.5	15.1
2025-01-17 17:27:22.008464	356.1	32.1	-91.7	7.4
2025-01-17 17:27:23.158843	355.8	31.9	-91.5	9.2
2025-01-17 17:27:24.301612	355.6	31.7	-91.7	12.1
2025-01-17 17:27:25.454940	355.3	31.6	-91.8	10.1
2025-01-17 17:27:26.606710	355.0	31.4	-91.8	8.3
2025-01-17 17:27:27.751105	354.7	31.2	-92.0	12.8
2025-01-17 17:27:28.900944	354.5	31.1	-91.9	11.7
2025-01-17 17:27:30.047349	354.2	30.9	-91.7	13.1
2025-01-17 17:27:31.196319	354.0	30.7	-91.5	13.9
2025-01-17 17:27:32.355253	353.7	30.6	-91.4	11.4
2025-01-17 17:27:33.509426	353.4	30.4	-91.6	9.4
2025-01-17 17:27:34.656435	353.2	30.2	-91.5	11.6
2025-01-17 17:27:35.803656	352.9	30.1	-91.4	11.7
2025-01-17 17:27:36.955422	352.7	29.9	-91.5	11.4
2025-01-17 17:27:38.102086	352.4	29.7	-91.7	12.1
2025-01-17 17:27:39.256062	352.2	29.6	-91.3	9.8
2025-01-17 17:27:40.415511	352.0	29.4	-91.6	11.2
2025-01-17 17:27:41.561332	351.7	29.2	-91.6	8.2
2025-01-17 17:27:42.708153	351.5	29.1	-91.8	15.2
2025-01-17 17:27:43.857247	351.2	28.9	-91.7	14.4
2025-01-17 17:27:45.001292	351.0	28.8	-91.3	11.0
2025-01-17 17:27:46.151956	350.8	28.6	-91.2	8.9
2025-01-17 17:27:47.299499	350.6	28.4	-91.4	11.2
2025-01-17 17:27:48.458206	350.3	28.3	-91.7	10.9
2025-01-17 17:27:49.608844	350.1	28.1	-91.8	10.9
2025-01-17 17:27:50.756414	349.9	28.0	-91.7	11.2
2025-01-17 17:27:51.908101	349.7	27.8	-91.5	9.3
2025-01-17 17:27:53.059401	349.5	27.6	-91.3	12.2
2025-01-17 17:27:54.197559	349.3	27.5	-91.3	11.5
2025-01-17 17:27:55.344777	349.0	27.3	-91.4	10.6
2025-01-17 17:27:56.490581	348.8	27.2	-91.4	10.1
2025-01-17 17:27:57.641423	348.6	27.0	-91.6	9.8
2025-01-17 17:27:58.790957	348.4	26.9	-91.2	8.1
2025-01-17 17:27:59.938959	348.2	26.7	-91.5	9.9
2025-01-17 17:28:01.086982	348.0	26.6	-91.6	10.0
2025-01-17 17:28:02.232631	347.8	26.4	-91.2	9.6
2025-01-17 17:28:03.383699	347.6	26.2	-91.3	9.6
2025-01-17 17:28:04.535982	347.4	26.1	-91.8	6.9
2025-01-17 17:28:05.690353	347.2	25.9	-91.8	10.1
2025-01-17 17:28:06.842689	347.0	25.8	-91.8	8.0
2025-01-17 17:28:07.990078	346.9	25.6	-91.5	10.1
2025-01-17 17:28:09.145647	346.7	25.5	-91.2	7.1
2025-01-17 17:28:10.291602	346.5	25.3	-91.4	5.5
2025-01-17 17:28:11.445211	346.3	25.2	-91.8	9.0
2025-01-17 17:28:12.598417	346.1	25.0	-91.5	9.8
2025-01-17 17:28:13.745757	345.9	24.9	-91.3	9.0
2025-01-17 17:28:14.894519	345.8	24.7	-91.5	12.8
2025-01-17 17:28:16.049099	345.6	24.6	-91.6	9.8
2025-01-17 17:28:17.204888	345.4	24.4	-91.3	10.9
2025-01-17 17:28:18.348189	345.2	24.3	-91.4	4.0
2025-01-17 17:28:19.499971	345.1	24.1	-91.6	6.7
2025-01-17 17:28:20.659464	344.9	24.0	-91.8	8.8
2025-01-17 17:28:21.810944	344.7	23.8	-91.7	12.3
2025-01-17 17:28:22.961497	344.5	23.7	-91.8	7.3
2025-01-17 17:28:24.107772	344.4	23.6	-91.0	7.8
2025-01-17 17:28:25.258899	344.2	23.4	-91.6	7.9
2025-01-17 17:28:26.413271	344.1	23.3	-91.6	9.6
2025-01-17 17:28:27.565706	343.9	23.1	-91.7	9.5
2025-01-17 17:28:28.709616	343.7	23.0	-91.4	7.9
2025-01-17 17:28:29.869086	343.6	22.8	-91.2	11.7
2025-01-17 17:28:31.017796	343.4	22.7	-91.3	11.9
2025-01-17 17:28:32.170049	343.3	22.6	-91.4	10.8
2025-01-17 17:28:33.319718	343.1	22.4	-91.3	12.0
2025-01-17 17:28:34.467793	343.0	22.3	-91.5	11.8
2025-01-17 17:28:35.626477	342.8	22.1	-91.3	10.3
2025-01-17 17:28:36.771133	342.7	22.0	-91.5	11.8
2025-01-17 17:28:37.923066	342.5	21.9	-91.5	10.6
2025-01-17 17:28:39.075608	342.4	21.7	-91.2	12.2
2025-01-17 17:28:40.229319	342.2	21.6	-91.5	13.7
2025-01-17 17:28:41.381773	342.1	21.4	-91.3	14.4
2025-01-17 17:28:42.528838	341.9	21.3	-91.6	9.8
2025-01-17 17:28:43.680577	341.8	21.2	-91.9	12.2
2025-01-17 17:28:44.828970	341.6	21.0	-91.5	12.4
2025-01-17 17:28:45.974272	341.5	20.9	-91.8	10.0
2025-01-17 17:28:47.117701	341.4	20.8	-91.6	9.7
2025-01-17 17:28:48.278597	341.2	20.6	-91.6	11.4
2025-01-17 17:28:49.426467	341.1	20.5	-91.7	10.5
2025-01-17 17:28:50.589286	341.0	20.4	-91.7	7.3
2025-01-17 17:28:51.737854	340.8	20.2	-91.5	8.0
2025-01-17 17:28:52.895308	340.7	20.1	-91.6	8.0
2025-01-17 17:28:54.046822	340.6	20.0	-91.6	8.3
2025-01-17 17:28:55.196847	340.4	19.8	-91.7	11.4
2025-01-17 17:28:56.344489	340.3	19.7	-91.1	7.0
2025-01-17 17:28:57.496848	340.2	19.6	-91.7	6.9
2025-01-17 17:28:58.653388	340.0	19.4	-91.5	11.0
2025-01-17 17:28:59.802304	339.9	19.3	-91.7	9.7
2025-01-17 17:29:00.950609	339.8	19.2	-91.7	8.3
2025-01-17 17:29:02.101978	339.7	19.1	-91.7	8.8
2025-01-17 17:29:03.253090	339.6	18.9	-91.3	6.8
2025-01-17 17:29:04.395714	339.4	18.8	-91.6	4.8
2025-01-17 17:29:05.543318	339.3	18.7	-91.9	9.3
2025-01-17 17:29:06.696363	339.2	18.6	-91.6	6.1
2025-01-17 17:29:07.849910	339.1	18.4	-91.8	10.2
2025-01-17 17:29:08.999477	339.0	18.3	-91.8	8.0
2025-01-17 17:29:10.146945	338.8	18.2	-91.6	9.8
2025-01-17 17:29:11.305573	338.7	18.1	-91.5	9.5
2025-01-17 17:29:12.449160	338.6	17.9	-91.6	7.9
2025-01-17 17:29:13.598412	338.5	17.8	-91.7	10.3
2025-01-17 17:29:14.742340	338.4	17.7	-92.0	8.6
2025-01-17 17:29:15.895807	338.3	17.6	-91.7	10.1
2025-01-17 17:29:17.046116	338.2	17.4	-91.5	7.3
2025-01-17 17:29:18.189312	338.1	17.3	-91.3	5.5
2025-01-17 17:29:19.345978	337.9	17.2	-90.8	7.1
2025-01-17 17:29:20.497868	337.8	17.1	-91.5	4.3
2025-01-17 17:29:21.645655	337.7	17.0	-91.4	4.8
2025-01-17 17:29:22.794003	337.6	16.8	-91.6	5.4
2025-01-17 17:29:23.942431	337.5	16.7	-91.5	8.6
2025-01-17 17:29:25.096286	337.4	16.6	-91.6	6.8
2025-01-17 17:29:26.249622	337.3	16.5	-91.6	8.9
2025-01-17 17:29:27.400910	337.2	16.4	-91.4	6.6
2025-01-17 17:29:28.552287	337.1	16.3	-91.9	7.9
2025-01-17 17:29:29.704926	337.0	16.1	-92.1	7.2
2025-01-17 17:29:30.857789	336.9	16.0	-91.7	5.6
2025-01-17 17:29:32.005517	336.8	15.9	-91.6	6.4
2025-01-17 17:29:33.159417	336.7	15.8	-91.5	8.3
2025-01-17 17:29:34.306058	336.6	15.7	-91.7	3.4
2025-01-17 17:29:35.453589	336.5	15.6	-91.6	7.0
2025-01-17 17:29:36.601343	336.4	15.5	-91.8	5.6
2025-01-17 17:29:37.750233	336.3	15.3	-92.0	9.5
2025-01-17 17:29:38.899330	336.2	15.2	-91.8	5.4
2025-01-17 17:29:40.049668	336.1	15.1	-91.7	3.0
2025-01-17 17:29:41.197686	336.0	15.0	-91.2	7.8
2025-01-17 17:29:42.343055	335.9	14.9	-91.4	5.9
2025-01-17 17:29:43.494219	335.9	14.8	-91.7	5.2
2025-01-17 17:29:44.640411	335.8	14.7	-91.2	6.8
2025-01-17 17:29:45.866086	335.7	14.6	-91.6	3.8
#Closed at: 2025-01-17 17:21:15.354163