passes_logs/2025/01/17/LEX_Murmansk/LEX_Murmansk__20250117_151651_NOAA_19_rec.log

#Pass ID: 20250117_151651_NOAA 19
#Satellite: NOAA 19
#Configuration: NOAA 19
#Start time: 2025-01-17 15:16:46.521339

#LorettStation: 1.0.0 05.05.2024
#Station: LEX_Murmansk
#Location: 33.156738 lon 68.926811 lat
#TLE: 1 33591U 09005A   25017.12803845  .00000314  00000+0  19161-3 0  9999
#TLE: 2 33591  99.0192  80.9069 0014403  51.8715 308.3753 14.13261185821848

#Time	Az	El	Level	SNR
2025-01-17 15:16:58.766639	81.8	16.1	-90.5	7.8
2025-01-17 15:16:59.920534	81.6	16.2	-90.9	3.4
2025-01-17 15:17:01.074464	81.5	16.3	-90.1	2.9
2025-01-17 15:17:02.228963	81.3	16.4	-90.4	3.5
2025-01-17 15:17:03.382132	81.2	16.5	-90.0	3.2
2025-01-17 15:17:04.531656	81.0	16.6	-90.7	5.3
2025-01-17 15:17:05.682247	80.9	16.7	-90.3	9.4
2025-01-17 15:17:06.829142	80.7	16.8	-89.9	5.9
2025-01-17 15:17:07.978772	80.6	16.9	-90.5	6.9
2025-01-17 15:17:09.127497	80.4	17.0	-90.6	8.6
2025-01-17 15:17:10.282545	80.2	17.1	-90.4	5.2
2025-01-17 15:17:11.434564	80.1	17.2	-90.0	4.8
2025-01-17 15:17:12.589316	79.9	17.3	-90.4	7.3
2025-01-17 15:17:13.738673	79.8	17.4	-90.3	3.0
2025-01-17 15:17:14.894223	79.6	17.6	-90.3	10.5
2025-01-17 15:17:16.044474	79.4	17.7	-90.5	7.8
2025-01-17 15:17:17.195824	79.3	17.8	-90.6	11.9
2025-01-17 15:17:18.356172	79.1	17.9	-90.6	10.4
2025-01-17 15:17:19.506721	78.9	18.0	-90.5	7.2
2025-01-17 15:17:20.657921	78.8	18.1	-90.6	2.5
2025-01-17 15:17:21.809245	78.6	18.2	-90.2	1.2
2025-01-17 15:17:22.963638	78.4	18.3	-90.8	4.1
2025-01-17 15:17:24.113958	78.3	18.4	-87.7	4.4
2025-01-17 15:17:25.260014	78.1	18.5	-88.5	3.7
2025-01-17 15:17:26.411786	77.9	18.6	-90.8	10.4
2025-01-17 15:17:27.560565	77.7	18.7	-90.8	11.4
2025-01-17 15:17:28.714603	77.6	18.8	-90.9	8.3
2025-01-17 15:17:29.869988	77.4	19.0	-90.1	3.0
2025-01-17 15:17:31.017828	77.2	19.1	-90.4	4.1
2025-01-17 15:17:32.162416	77.0	19.2	-90.8	2.6
2025-01-17 15:17:33.320468	76.8	19.3	-90.5	5.9
2025-01-17 15:17:34.468515	76.7	19.4	-90.9	8.2
2025-01-17 15:17:35.628523	76.5	19.5	-85.6	5.1
2025-01-17 15:17:36.786111	76.3	19.6	-85.5	4.8
2025-01-17 15:17:37.937949	76.1	19.7	-90.4	1.0
2025-01-17 15:17:39.086492	75.9	19.8	-90.6	5.8
2025-01-17 15:17:40.243071	75.7	19.9	-90.2	4.3
2025-01-17 15:17:41.392308	75.5	20.1	-90.7	0.9
2025-01-17 15:17:42.539393	75.3	20.2	-90.9	5.4
2025-01-17 15:17:43.693115	75.2	20.3	-90.6	2.5
2025-01-17 15:17:44.846266	75.0	20.4	-90.6	7.0
2025-01-17 15:17:46.000118	74.8	20.5	-90.7	2.6
2025-01-17 15:17:47.150711	74.6	20.6	-90.6	12.0
2025-01-17 15:17:48.307664	74.4	20.7	-90.6	9.3
2025-01-17 15:17:49.460019	74.2	20.8	-90.8	10.0
2025-01-17 15:17:50.610402	74.0	20.9	-91.0	9.2
2025-01-17 15:17:51.768486	73.7	21.1	-90.6	5.2
2025-01-17 15:17:52.918405	73.5	21.2	-90.9	8.4
2025-01-17 15:17:54.069343	73.3	21.3	-90.7	4.6
2025-01-17 15:17:55.219013	73.1	21.4	-90.5	11.9
2025-01-17 15:17:56.367576	72.9	21.5	-90.4	10.8
2025-01-17 15:17:57.516948	72.7	21.6	-91.0	8.2
2025-01-17 15:17:58.671731	72.5	21.7	-90.9	7.5
2025-01-17 15:17:59.818685	72.3	21.8	-90.7	3.3
2025-01-17 15:18:00.966702	72.1	21.9	-86.8	1.0
2025-01-17 15:18:02.117354	71.8	22.1	-85.1	2.0
2025-01-17 15:18:03.269818	71.6	22.2	-90.9	2.2
2025-01-17 15:18:04.424286	71.4	22.3	-91.2	4.7
2025-01-17 15:18:05.574677	71.2	22.4	-91.1	3.6
2025-01-17 15:18:06.730047	71.0	22.5	-90.7	7.3
2025-01-17 15:18:07.880563	70.7	22.6	-91.1	6.9
2025-01-17 15:18:09.029813	70.5	22.7	-91.1	7.3
2025-01-17 15:18:10.181930	70.3	22.8	-90.9	6.6
2025-01-17 15:18:11.331387	70.0	23.0	-90.9	2.6
2025-01-17 15:18:12.482912	69.8	23.1	-90.6	9.8
2025-01-17 15:18:13.636359	69.6	23.2	-90.8	6.2
2025-01-17 15:18:14.789450	69.3	23.3	-90.7	7.1
2025-01-17 15:18:15.925161	69.1	23.4	-90.6	6.0
2025-01-17 15:18:17.071426	68.9	23.5	-90.7	12.0
2025-01-17 15:18:18.218408	68.6	23.6	-90.6	13.1
2025-01-17 15:18:19.370694	68.4	23.7	-90.5	7.5
2025-01-17 15:18:20.529768	68.1	23.9	-90.3	6.8
2025-01-17 15:18:21.687546	67.9	24.0	-89.9	3.6
2025-01-17 15:18:22.839526	67.6	24.1	-90.4	3.5
2025-01-17 15:18:23.992078	67.4	24.2	-90.1	0.7
2025-01-17 15:18:25.148234	67.1	24.3	-90.5	2.1
2025-01-17 15:18:26.299401	66.9	24.4	-90.8	1.9
2025-01-17 15:18:27.452118	66.6	24.5	-90.5	7.6
2025-01-17 15:18:28.610059	66.4	24.6	-90.8	8.7
2025-01-17 15:18:29.761620	66.1	24.7	-90.2	6.9
2025-01-17 15:18:30.901476	65.8	24.9	-89.6	11.0
2025-01-17 15:18:32.044997	65.6	25.0	-89.5	7.5
2025-01-17 15:18:33.192511	65.3	25.1	-89.3	9.9
2025-01-17 15:18:34.339915	65.1	25.2	-90.2	4.0
2025-01-17 15:18:35.495256	64.8	25.3	-90.3	7.6
2025-01-17 15:18:36.645967	64.5	25.4	-90.4	4.5
2025-01-17 15:18:37.799416	64.2	25.5	-89.9	6.0
2025-01-17 15:18:38.950036	64.0	25.6	-90.2	6.4
2025-01-17 15:18:40.101440	63.7	25.7	-90.1	7.0
2025-01-17 15:18:41.252783	63.4	25.8	-90.3	6.2
2025-01-17 15:18:42.387215	63.1	25.9	-89.9	3.8
2025-01-17 15:18:43.541330	62.9	26.1	-90.6	2.7
2025-01-17 15:18:44.694165	62.6	26.2	-90.8	2.9
2025-01-17 15:18:45.842721	62.3	26.3	-90.5	1.7
2025-01-17 15:18:46.993215	62.0	26.4	-91.0	1.8
2025-01-17 15:18:48.148407	61.7	26.5	-90.4	3.3
2025-01-17 15:18:49.301592	61.4	26.6	-90.4	1.6
2025-01-17 15:18:50.448532	61.1	26.7	-90.9	3.3
2025-01-17 15:18:51.601839	60.8	26.8	-91.2	1.9
2025-01-17 15:18:52.755569	60.5	26.9	-90.3	3.5
2025-01-17 15:18:53.908639	60.2	27.0	-89.8	2.5
2025-01-17 15:18:55.060342	59.9	27.1	-89.9	2.1
2025-01-17 15:18:56.214868	59.6	27.2	-90.1	6.2
2025-01-17 15:18:57.369342	59.3	27.3	-90.3	1.3
2025-01-17 15:18:58.511727	59.0	27.4	-90.5	1.5
2025-01-17 15:18:59.667461	58.7	27.5	-89.7	2.9
2025-01-17 15:19:00.812435	58.4	27.6	-89.9	1.4
2025-01-17 15:19:01.965637	58.1	27.7	-89.8	3.3
2025-01-17 15:19:03.112905	57.8	27.8	-90.1	3.7
2025-01-17 15:19:04.264925	57.5	27.9	-89.9	5.2
2025-01-17 15:19:05.422206	57.1	28.0	-90.0	3.0
2025-01-17 15:19:06.568400	56.8	28.1	-90.6	4.8
2025-01-17 15:19:07.727184	56.5	28.2	-90.4	8.8
2025-01-17 15:19:08.874519	56.2	28.3	-90.8	2.8
2025-01-17 15:19:10.028122	55.8	28.4	-90.7	1.3
2025-01-17 15:19:11.177780	55.5	28.5	-90.5	3.0
2025-01-17 15:19:12.336626	55.2	28.6	-90.4	1.1
2025-01-17 15:19:13.483913	54.8	28.7	-90.6	2.0
2025-01-17 15:19:14.633342	54.5	28.8	-90.6	2.7
2025-01-17 15:19:15.781447	54.2	28.9	-90.1	1.0
2025-01-17 15:19:16.934808	53.8	29.0	-89.0	1.3
2025-01-17 15:19:18.091928	53.5	29.1	-90.0	3.3
2025-01-17 15:19:19.245140	53.1	29.1	-90.8	4.9
2025-01-17 15:19:20.401115	52.8	29.2	-91.0	7.3
2025-01-17 15:19:21.551036	52.5	29.3	-90.5	7.3
2025-01-17 15:19:22.695414	52.1	29.4	-89.9	7.7
2025-01-17 15:19:23.844963	51.8	29.5	-89.9	4.6
2025-01-17 15:19:24.997361	51.4	29.6	-90.1	3.3
2025-01-17 15:19:26.148275	51.1	29.7	-89.9	1.0
2025-01-17 15:19:27.299292	50.7	29.7	-90.3	1.8
2025-01-17 15:19:28.455220	50.3	29.8	-89.9	5.1
2025-01-17 15:19:29.609313	50.0	29.9	-90.5	5.4
2025-01-17 15:19:30.760169	49.6	30.0	-90.3	1.5
2025-01-17 15:19:31.918545	49.3	30.1	-90.4	3.5
2025-01-17 15:19:33.074223	48.9	30.1	-90.5	5.3
2025-01-17 15:19:34.228070	48.5	30.2	-89.8	4.3
2025-01-17 15:19:35.383063	48.2	30.3	-90.5	9.0
2025-01-17 15:19:36.538593	47.8	30.4	-90.6	4.9
2025-01-17 15:19:37.690040	47.4	30.4	-90.3	8.5
2025-01-17 15:19:38.844179	47.0	30.5	-90.9	8.0
2025-01-17 15:19:39.993320	46.7	30.6	-91.1	6.7
2025-01-17 15:19:41.143547	46.3	30.7	-91.1	6.5
2025-01-17 15:19:42.287352	45.9	30.7	-90.9	4.1
2025-01-17 15:19:43.440700	45.5	30.8	-90.6	4.7
2025-01-17 15:19:44.594120	45.2	30.9	-91.1	4.6
2025-01-17 15:19:45.751971	44.8	30.9	-90.9	2.2
2025-01-17 15:19:46.909973	44.4	31.0	-90.8	3.8
2025-01-17 15:19:48.074607	44.0	31.0	-90.3	4.3
2025-01-17 15:19:49.225175	43.6	31.1	-91.1	1.7
2025-01-17 15:19:50.375091	43.2	31.2	-91.0	2.6
2025-01-17 15:19:51.525405	42.8	31.2	-90.7	5.4
2025-01-17 15:19:52.671529	42.4	31.3	-90.9	5.0
2025-01-17 15:19:53.820733	42.1	31.3	-91.1	8.0
2025-01-17 15:19:54.978541	41.7	31.4	-91.3	10.4
2025-01-17 15:19:56.129122	41.3	31.4	-90.8	9.8
2025-01-17 15:19:57.275466	40.9	31.5	-90.8	11.0
2025-01-17 15:19:58.428162	40.5	31.5	-90.6	10.2
2025-01-17 15:19:59.577682	40.1	31.6	-90.9	12.5
2025-01-17 15:20:00.718746	39.7	31.6	-91.0	9.9
2025-01-17 15:20:01.871561	39.3	31.7	-90.9	8.5
2025-01-17 15:20:03.026655	38.9	31.7	-91.0	10.2
2025-01-17 15:20:04.179720	38.5	31.8	-90.8	7.2
2025-01-17 15:20:05.334831	38.1	31.8	-90.8	7.1
2025-01-17 15:20:06.489067	37.7	31.8	-91.0	9.2
2025-01-17 15:20:07.632627	37.3	31.9	-90.9	11.5
2025-01-17 15:20:08.779024	36.8	31.9	-91.0	7.7
2025-01-17 15:20:09.933002	36.4	31.9	-91.0	9.0
2025-01-17 15:20:11.093811	36.0	32.0	-90.8	6.4
2025-01-17 15:20:12.247189	35.6	32.0	-91.0	4.7
2025-01-17 15:20:13.398686	35.2	32.0	-90.4	1.9
2025-01-17 15:20:14.550667	34.8	32.1	-90.3	6.0
2025-01-17 15:20:15.699838	34.4	32.1	-90.7	3.0
2025-01-17 15:20:16.854182	34.0	32.1	-91.2	6.0
2025-01-17 15:20:18.008264	33.6	32.1	-91.2	8.0
2025-01-17 15:20:19.163043	33.1	32.2	-90.8	7.6
2025-01-17 15:20:20.321421	32.7	32.2	-90.9	11.3
2025-01-17 15:20:21.475074	32.3	32.2	-90.8	17.0
2025-01-17 15:20:22.628575	31.9	32.2	-90.7	13.5
2025-01-17 15:20:23.773600	31.5	32.2	-90.7	12.6
2025-01-17 15:20:24.930704	31.1	32.2	-91.2	15.1
2025-01-17 15:20:26.064343	30.7	32.2	-90.4	11.6
2025-01-17 15:20:27.212737	30.2	32.2	-90.8	8.5
2025-01-17 15:20:28.366845	29.8	32.3	-90.5	7.5
2025-01-17 15:20:29.526466	29.4	32.3	-91.2	7.2
2025-01-17 15:20:30.680464	29.0	32.3	-91.0	9.4
2025-01-17 15:20:31.832625	28.6	32.3	-90.8	6.9
2025-01-17 15:20:32.978052	28.2	32.3	-91.0	7.3
2025-01-17 15:20:34.125134	27.8	32.3	-90.8	7.8
2025-01-17 15:20:35.275134	27.3	32.3	-90.8	5.8
2025-01-17 15:20:36.428796	26.9	32.3	-90.8	3.8
2025-01-17 15:20:37.593204	26.5	32.2	-91.0	3.5
2025-01-17 15:20:38.750917	26.1	32.2	-90.8	2.9
2025-01-17 15:20:39.903867	25.7	32.2	-90.2	2.6
2025-01-17 15:20:41.059289	25.3	32.2	-90.4	4.2
2025-01-17 15:20:42.209286	24.8	32.2	-90.8	3.1
2025-01-17 15:20:43.358312	24.4	32.2	-90.6	3.1
2025-01-17 15:20:44.506350	24.0	32.2	-91.2	7.0
2025-01-17 15:20:45.656783	23.6	32.1	-91.1	3.9
2025-01-17 15:20:46.803527	23.2	32.1	-91.1	3.5
2025-01-17 15:20:47.955840	22.8	32.1	-91.2	5.0
2025-01-17 15:20:49.104073	22.4	32.1	-91.1	4.6
2025-01-17 15:20:50.262527	22.0	32.1	-90.3	3.1
2025-01-17 15:20:51.415380	21.5	32.0	-90.7	5.2
2025-01-17 15:20:52.578378	21.1	32.0	-91.1	5.5
2025-01-17 15:20:53.734367	20.7	32.0	-90.6	2.6
2025-01-17 15:20:54.890278	20.3	31.9	-90.8	4.6
2025-01-17 15:20:56.040367	19.9	31.9	-90.7	7.9
2025-01-17 15:20:57.194335	19.5	31.9	-90.6	3.0
2025-01-17 15:20:58.343737	19.1	31.8	-91.2	5.6
2025-01-17 15:20:59.495243	18.7	31.8	-90.7	5.0
2025-01-17 15:21:00.648787	18.3	31.8	-90.5	6.8
2025-01-17 15:21:01.798979	17.9	31.7	-91.3	6.5
2025-01-17 15:21:02.952058	17.5	31.7	-91.1	9.5
2025-01-17 15:21:04.107873	17.1	31.6	-90.9	8.3
2025-01-17 15:21:05.258595	16.7	31.6	-91.0	7.2
2025-01-17 15:21:06.416754	16.3	31.5	-90.6	9.1
2025-01-17 15:21:07.566865	15.9	31.5	-90.6	8.3
2025-01-17 15:21:08.723208	15.5	31.4	-90.6	5.6
2025-01-17 15:21:09.875859	15.1	31.4	-90.9	8.3
2025-01-17 15:21:11.029840	14.7	31.3	-91.0	8.5
2025-01-17 15:21:12.183639	14.3	31.3	-90.8	6.7
2025-01-17 15:21:13.334680	13.9	31.2	-90.9	5.9
2025-01-17 15:21:14.487476	13.5	31.2	-90.8	8.8
2025-01-17 15:21:15.638268	13.1	31.1	-90.8	7.9
2025-01-17 15:21:16.789550	12.8	31.0	-91.1	7.4
2025-01-17 15:21:17.948222	12.4	31.0	-90.8	7.9
2025-01-17 15:21:19.104567	12.0	30.9	-90.6	7.9
2025-01-17 15:21:20.257389	11.6	30.8	-90.5	8.6
2025-01-17 15:21:21.413779	11.2	30.8	-90.7	4.6
2025-01-17 15:21:22.564782	10.8	30.7	-90.7	6.8
2025-01-17 15:21:23.718474	10.5	30.6	-90.6	8.4
2025-01-17 15:21:24.868747	10.1	30.6	-90.8	6.5
2025-01-17 15:21:26.020036	9.7	30.5	-90.6	5.3
2025-01-17 15:21:27.164324	9.3	30.4	-90.7	4.6
2025-01-17 15:21:28.314435	9.0	30.4	-90.0	6.2
2025-01-17 15:21:29.467407	8.6	30.3	-90.3	8.0
2025-01-17 15:21:30.622097	8.2	30.2	-90.7	6.3
2025-01-17 15:21:31.778267	7.9	30.1	-90.9	4.5
2025-01-17 15:21:32.930535	7.5	30.1	-90.4	6.1
2025-01-17 15:21:34.082765	7.1	30.0	-90.1	5.8
2025-01-17 15:21:35.236885	6.8	29.9	-90.3	1.3
2025-01-17 15:21:36.384315	6.4	29.8	-90.6	3.6
2025-01-17 15:21:37.542683	6.1	29.7	-91.0	3.2
2025-01-17 15:21:38.700084	5.7	29.6	-90.9	5.2
2025-01-17 15:21:39.852263	5.4	29.6	-90.7	3.0
2025-01-17 15:21:41.007918	5.0	29.5	-90.7	3.8
2025-01-17 15:21:42.164158	4.7	29.4	-90.5	3.4
2025-01-17 15:21:43.313113	4.3	29.3	-90.7	2.6
2025-01-17 15:21:44.466133	4.0	29.2	-91.1	3.6
2025-01-17 15:21:45.614422	3.6	29.1	-91.0	3.5
2025-01-17 15:21:46.765947	3.3	29.0	-90.7	2.3
2025-01-17 15:21:47.912871	3.0	29.0	-90.0	1.9
2025-01-17 15:21:49.065803	2.6	28.9	-90.7	2.7
2025-01-17 15:21:50.224301	2.3	28.8	-90.1	3.2
2025-01-17 15:21:51.375911	1.9	28.7	-90.3	2.1
2025-01-17 15:21:52.528429	1.6	28.6	-90.4	4.5
2025-01-17 15:21:53.672060	1.3	28.5	-90.2	1.9
2025-01-17 15:21:54.820416	1.0	28.4	-90.1	1.2
2025-01-17 15:21:55.972116	0.6	28.3	-90.4	1.7
2025-01-17 15:21:57.128214	0.3	28.2	-90.7	2.8
2025-01-17 15:21:58.283313	360.0	28.1	-91.0	3.4
2025-01-17 15:21:59.429469	359.7	28.0	-90.6	3.5
2025-01-17 15:22:00.583124	359.4	27.9	-91.0	5.3
2025-01-17 15:22:01.738193	359.0	27.8	-90.9	2.7
2025-01-17 15:22:02.902956	358.7	27.7	-90.9	3.9
2025-01-17 15:22:04.057591	358.4	27.6	-91.1	3.2
2025-01-17 15:22:05.214918	358.1	27.5	-90.6	5.7
2025-01-17 15:22:06.365337	357.8	27.4	-90.6	4.9
2025-01-17 15:22:07.526100	357.5	27.3	-90.8	5.1
2025-01-17 15:22:08.676769	357.2	27.2	-90.4	6.5
2025-01-17 15:22:09.831225	356.9	27.1	-90.0	10.5
2025-01-17 15:22:10.981282	356.6	27.0	-89.8	6.2
2025-01-17 15:22:12.136574	356.3	26.9	-90.2	5.2
2025-01-17 15:22:13.282783	356.0	26.8	-90.7	8.1
2025-01-17 15:22:14.438192	355.7	26.7	-91.0	7.7
2025-01-17 15:22:15.597789	355.4	26.6	-90.9	12.7
2025-01-17 15:22:16.746344	355.1	26.5	-90.5	8.3
2025-01-17 15:22:17.896087	354.8	26.4	-90.6	14.7
2025-01-17 15:22:19.050428	354.5	26.3	-90.6	4.8
2025-01-17 15:22:20.206764	354.2	26.2	-90.7	8.5
2025-01-17 15:22:21.358661	354.0	26.0	-91.3	9.6
2025-01-17 15:22:22.509823	353.7	25.9	-91.2	14.2
2025-01-17 15:22:23.658515	353.4	25.8	-91.4	7.6
2025-01-17 15:22:24.816158	353.1	25.7	-90.4	5.8
2025-01-17 15:22:25.961213	352.9	25.6	-90.3	5.5
2025-01-17 15:22:27.107278	352.6	25.5	-90.5	4.6
2025-01-17 15:22:28.256294	352.3	25.4	-90.5	1.5
2025-01-17 15:22:29.404309	352.0	25.3	-90.9	3.1
2025-01-17 15:22:30.561117	351.8	25.2	-90.8	3.8
2025-01-17 15:22:31.708201	351.5	25.1	-90.4	2.9
2025-01-17 15:22:32.860269	351.2	25.0	-91.0	4.3
2025-01-17 15:22:34.011892	351.0	24.9	-91.0	5.6
2025-01-17 15:22:35.164365	350.7	24.7	-90.8	5.5
2025-01-17 15:22:36.313129	350.5	24.6	-90.8	3.6
2025-01-17 15:22:37.460491	350.2	24.5	-90.6	4.4
2025-01-17 15:22:38.614003	350.0	24.4	-90.4	3.8
2025-01-17 15:22:39.769307	349.7	24.3	-90.7	6.2
2025-01-17 15:22:40.919044	349.5	24.2	-90.6	5.8
2025-01-17 15:22:42.073498	349.2	24.1	-91.1	9.5
2025-01-17 15:22:43.224029	349.0	24.0	-91.0	5.5
2025-01-17 15:22:44.372655	348.7	23.9	-90.9	12.0
2025-01-17 15:22:45.520114	348.5	23.7	-91.1	11.3
2025-01-17 15:22:46.678742	348.2	23.6	-90.9	10.4
2025-01-17 15:22:47.823963	348.0	23.5	-90.7	12.5
2025-01-17 15:22:48.976560	347.7	23.4	-91.0	4.3
2025-01-17 15:22:50.131582	347.5	23.3	-90.4	11.0
2025-01-17 15:22:51.281555	347.3	23.2	-90.5	10.4
2025-01-17 15:22:52.428358	347.0	23.1	-90.5	7.0
2025-01-17 15:22:53.581244	346.8	23.0	-90.7	7.1
2025-01-17 15:22:54.739214	346.6	22.9	-90.6	5.6
2025-01-17 15:22:55.895963	346.4	22.7	-91.0	4.6
2025-01-17 15:22:57.050416	346.1	22.6	-91.1	4.1
2025-01-17 15:22:58.200787	345.9	22.5	-90.5	4.7
2025-01-17 15:22:59.352993	345.7	22.4	-91.2	1.2
2025-01-17 15:23:00.499605	345.5	22.3	-90.9	5.8
2025-01-17 15:23:01.659481	345.2	22.2	-90.7	3.2
2025-01-17 15:23:02.815862	345.0	22.1	-90.7	3.3
2025-01-17 15:23:03.964754	344.8	22.0	-91.0	6.5
2025-01-17 15:23:05.111604	344.6	21.8	-90.5	4.3
2025-01-17 15:23:06.260820	344.4	21.7	-90.9	7.1
2025-01-17 15:23:07.418352	344.2	21.6	-91.1	6.6
2025-01-17 15:23:08.564859	344.0	21.5	-90.9	8.1
2025-01-17 15:23:09.714942	343.7	21.4	-90.3	7.9
2025-01-17 15:23:10.862115	343.5	21.3	-90.9	11.6
2025-01-17 15:23:12.011285	343.3	21.2	-91.0	9.3
2025-01-17 15:23:13.156051	343.1	21.1	-90.4	7.2
2025-01-17 15:23:14.308250	342.9	21.0	-90.4	3.4
2025-01-17 15:23:15.460744	342.7	20.8	-90.7	2.0
2025-01-17 15:23:16.613288	342.5	20.7	-90.7	3.2
2025-01-17 15:23:17.768450	342.3	20.6	-90.9	3.4
2025-01-17 15:23:18.926346	342.1	20.5	-91.0	1.6
2025-01-17 15:23:20.080005	341.9	20.4	-90.6	3.0
2025-01-17 15:23:21.238998	341.7	20.3	-90.7	2.1
2025-01-17 15:23:22.398238	341.5	20.2	-90.7	2.5
2025-01-17 15:23:23.542486	341.3	20.1	-90.8	0.5
2025-01-17 15:23:24.701139	341.2	20.0	-91.0	1.9
2025-01-17 15:23:25.858537	341.0	19.8	-90.8	2.0
2025-01-17 15:23:27.013679	340.8	19.7	-91.0	3.1
2025-01-17 15:23:28.170729	340.6	19.6	-90.7	2.7
2025-01-17 15:23:29.325179	340.4	19.5	-90.6	3.4
2025-01-17 15:23:30.478676	340.2	19.4	-91.2	2.4
2025-01-17 15:23:31.639751	340.0	19.3	-91.1	3.2
2025-01-17 15:23:32.789471	339.9	19.2	-90.7	3.1
2025-01-17 15:23:33.937463	339.7	19.1	-91.0	3.7
2025-01-17 15:23:35.097082	339.5	19.0	-91.2	1.3
2025-01-17 15:23:36.246169	339.3	18.9	-90.9	3.9
2025-01-17 15:23:37.395717	339.1	18.8	-90.8	4.0
2025-01-17 15:23:38.548433	339.0	18.6	-91.4	3.0
2025-01-17 15:23:39.704929	338.8	18.5	-90.2	1.8
2025-01-17 15:23:40.859775	338.6	18.4	-89.9	3.0
2025-01-17 15:23:42.016138	338.5	18.3	-90.3	1.5
2025-01-17 15:23:43.164205	338.3	18.2	-90.5	2.6
2025-01-17 15:23:44.316318	338.1	18.1	-90.6	2.5
2025-01-17 15:23:45.466648	338.0	18.0	-90.8	1.8
2025-01-17 15:23:46.616137	337.8	17.9	-90.9	3.3
2025-01-17 15:23:47.769355	337.6	17.8	-90.8	4.3
2025-01-17 15:23:48.925211	337.5	17.7	-90.8	2.0
2025-01-17 15:23:50.079067	337.3	17.6	-91.2	1.9
2025-01-17 15:23:51.228571	337.1	17.5	-91.0	4.4
2025-01-17 15:23:52.382229	337.0	17.4	-90.8	3.0
2025-01-17 15:23:53.540023	336.8	17.3	-91.1	2.2
2025-01-17 15:23:54.684631	336.7	17.2	-90.9	3.1
2025-01-17 15:23:55.833212	336.5	17.0	-91.0	4.4
2025-01-17 15:23:56.992813	336.3	16.9	-91.1	3.3
2025-01-17 15:23:58.138049	336.2	16.8	-90.3	2.7
2025-01-17 15:23:59.288307	336.0	16.7	-90.5	2.6
2025-01-17 15:24:00.439730	335.9	16.6	-90.7	2.9
2025-01-17 15:24:01.587607	335.7	16.5	-90.9	2.8
2025-01-17 15:24:02.749380	335.6	16.4	-90.5	4.0
2025-01-17 15:24:03.900839	335.4	16.3	-91.0	3.5
2025-01-17 15:24:05.065051	335.3	16.2	-91.1	1.0
2025-01-17 15:24:06.217608	335.1	16.1	-90.8	3.8
2025-01-17 15:24:07.375048	335.0	16.0	-90.8	2.3
2025-01-17 15:24:08.524156	334.9	15.9	-90.7	1.9
2025-01-17 15:24:09.673472	334.7	15.8	-90.8	3.4
2025-01-17 15:24:10.825741	334.6	15.7	-91.2	3.0
2025-01-17 15:24:11.975079	334.4	15.6	-91.1	3.1
2025-01-17 15:24:13.129307	334.3	15.5	-90.8	3.2
2025-01-17 15:24:14.275426	334.1	15.4	-91.0	4.3
2025-01-17 15:24:15.426651	334.0	15.3	-91.3	5.1
2025-01-17 15:24:16.581943	333.9	15.2	-91.1	4.7
2025-01-17 15:24:17.737362	333.7	15.1	-90.8	3.5
2025-01-17 15:24:18.887957	333.6	15.0	-90.8	2.7
2025-01-17 15:24:20.039825	333.5	14.9	-90.9	3.7
2025-01-17 15:24:21.195171	333.3	14.8	-90.5	3.2
2025-01-17 15:24:22.341060	333.2	14.7	-90.7	4.1
2025-01-17 15:24:23.491756	333.1	14.6	-91.0	5.0
#Closed at: 2025-01-17 15:16:51.565588