passes_logs/2025/01/17/LEX_Murmansk/LEX_Murmansk__20250117_115809_NOAA_19_rec.log

#Pass ID: 20250117_115809_NOAA 19
#Satellite: NOAA 19
#Configuration: NOAA 19
#Start time: 2025-01-17 11:58:04.832384

#LorettStation: 1.0.0 05.05.2024
#Station: LEX_Murmansk
#Location: 33.156738 lon 68.926811 lat
#TLE: 1 33591U 09005A   25016.13687281  .00000278  00000+0  17226-3 0  9992
#TLE: 2 33591  99.0193  79.9081 0014432  54.5182 305.7334 14.13260212821702

#Time	Az	El	Level	SNR
2025-01-17 11:58:19.231647	27.1	16.2	-89.1	2.7
2025-01-17 11:58:20.388715	26.9	16.3	-88.7	2.2
2025-01-17 11:58:21.604123	26.7	16.4	-88.9	2.9
2025-01-17 11:58:22.758631	26.6	16.5	-89.5	3.2
2025-01-17 11:58:23.904995	26.4	16.6	-89.3	2.9
2025-01-17 11:58:25.055691	26.2	16.7	-89.6	2.9
2025-01-17 11:58:26.213486	26.0	16.7	-89.4	2.4
2025-01-17 11:58:27.358090	25.9	16.8	-89.1	3.2
2025-01-17 11:58:28.503437	25.7	16.9	-89.2	1.7
2025-01-17 11:58:29.659297	25.5	17.0	-89.5	11.0
2025-01-17 11:58:30.807381	25.3	17.1	-89.3	5.3
2025-01-17 11:58:31.968423	25.1	17.2	-89.2	2.8
2025-01-17 11:58:33.120622	25.0	17.3	-89.2	1.5
2025-01-17 11:58:34.266829	24.8	17.4	-88.2	1.8
2025-01-17 11:58:35.413391	24.6	17.5	-89.4	0.7
2025-01-17 11:58:36.565229	24.4	17.6	-89.4	3.8
2025-01-17 11:58:37.718806	24.2	17.7	-89.2	0.7
2025-01-17 11:58:38.869331	24.0	17.8	-89.3	1.9
2025-01-17 11:58:40.022626	23.9	17.9	-89.8	4.4
2025-01-17 11:58:41.171210	23.7	18.0	-89.7	1.5
2025-01-17 11:58:42.320816	23.5	18.1	-89.9	3.6
2025-01-17 11:58:43.468699	23.3	18.2	-89.6	2.8
2025-01-17 11:58:44.616700	23.1	18.3	-89.4	1.0
2025-01-17 11:58:45.762768	22.9	18.4	-89.8	2.7
2025-01-17 11:58:46.910689	22.7	18.5	-89.9	4.1
2025-01-17 11:58:48.062241	22.5	18.6	-89.2	3.1
2025-01-17 11:58:49.209275	22.3	18.7	-89.4	6.1
2025-01-17 11:58:50.353892	22.1	18.8	-89.3	7.8
2025-01-17 11:58:51.504275	21.9	18.9	-89.2	8.0
2025-01-17 11:58:52.663759	21.7	18.9	-89.6	9.8
2025-01-17 11:58:53.809664	21.5	19.0	-89.3	3.3
2025-01-17 11:58:54.960627	21.3	19.1	-89.9	4.0
2025-01-17 11:58:56.115214	21.1	19.2	-89.9	5.7
2025-01-17 11:58:57.263537	20.9	19.3	-90.1	4.3
2025-01-17 11:58:58.414638	20.7	19.4	-89.7	7.4
2025-01-17 11:58:59.556987	20.5	19.5	-90.2	9.3
2025-01-17 11:59:00.702671	20.3	19.6	-90.3	4.4
2025-01-17 11:59:01.849407	20.1	19.7	-90.1	5.4
2025-01-17 11:59:03.000752	19.8	19.8	-90.2	4.8
2025-01-17 11:59:04.158592	19.6	19.9	-90.1	3.7
2025-01-17 11:59:05.305073	19.4	20.0	-90.2	3.7
2025-01-17 11:59:06.452834	19.2	20.1	-90.0	2.7
2025-01-17 11:59:07.600759	19.0	20.2	-90.1	4.8
2025-01-17 11:59:08.753330	18.8	20.3	-90.5	3.4
2025-01-17 11:59:09.905146	18.5	20.4	-90.3	5.0
2025-01-17 11:59:11.054249	18.3	20.5	-89.8	8.3
2025-01-17 11:59:12.215040	18.1	20.6	-89.7	7.5
2025-01-17 11:59:13.366112	17.9	20.7	-89.9	6.0
2025-01-17 11:59:14.523321	17.6	20.8	-90.4	7.1
2025-01-17 11:59:15.667693	17.4	20.9	-90.6	6.1
2025-01-17 11:59:16.819878	17.2	21.0	-90.2	3.2
2025-01-17 11:59:17.966605	16.9	21.1	-90.4	4.9
2025-01-17 11:59:19.115171	16.7	21.1	-90.4	4.9
2025-01-17 11:59:20.270672	16.5	21.2	-90.5	5.3
2025-01-17 11:59:21.419520	16.2	21.3	-90.3	7.9
2025-01-17 11:59:22.577973	16.0	21.4	-90.7	7.0
2025-01-17 11:59:23.724036	15.8	21.5	-90.0	6.4
2025-01-17 11:59:24.874717	15.5	21.6	-90.3	4.8
2025-01-17 11:59:26.020163	15.3	21.7	-90.5	3.5
2025-01-17 11:59:27.170234	15.0	21.8	-90.2	3.8
2025-01-17 11:59:28.319396	14.8	21.9	-90.1	3.1
2025-01-17 11:59:29.467175	14.5	22.0	-90.1	2.2
2025-01-17 11:59:30.619079	14.3	22.1	-90.6	2.4
2025-01-17 11:59:31.764715	14.1	22.2	-90.7	1.6
2025-01-17 11:59:32.914602	13.8	22.3	-90.5	4.1
2025-01-17 11:59:34.061297	13.6	22.4	-90.5	3.5
2025-01-17 11:59:35.208816	13.3	22.4	-90.6	7.9
2025-01-17 11:59:36.373179	13.0	22.5	-90.5	9.8
2025-01-17 11:59:37.523737	12.8	22.6	-90.1	10.7
2025-01-17 11:59:38.679184	12.5	22.7	-90.5	7.4
2025-01-17 11:59:39.824264	12.3	22.8	-90.2	4.7
2025-01-17 11:59:40.972468	12.0	22.9	-90.0	7.0
2025-01-17 11:59:42.128684	11.7	23.0	-90.0	9.8
2025-01-17 11:59:43.280486	11.5	23.1	-90.0	7.0
2025-01-17 11:59:44.426164	11.2	23.2	-90.1	8.9
2025-01-17 11:59:45.573815	10.9	23.3	-90.3	13.9
2025-01-17 11:59:46.719762	10.7	23.3	-90.3	11.0
2025-01-17 11:59:47.864246	10.4	23.4	-89.8	13.9
2025-01-17 11:59:49.015673	10.1	23.5	-90.8	9.1
2025-01-17 11:59:50.162196	9.9	23.6	-90.0	4.1
2025-01-17 11:59:51.310901	9.6	23.7	-90.0	2.5
2025-01-17 11:59:52.467440	9.3	23.8	-90.5	4.5
2025-01-17 11:59:53.633970	9.0	23.9	-90.1	5.4
2025-01-17 11:59:54.778703	8.8	23.9	-90.3	4.2
2025-01-17 11:59:55.931555	8.5	24.0	-90.3	3.5
2025-01-17 11:59:57.090231	8.2	24.1	-90.4	5.6
2025-01-17 11:59:58.236581	7.9	24.2	-89.8	4.3
2025-01-17 11:59:59.386173	7.6	24.3	-90.2	6.9
2025-01-17 12:00:00.535053	7.3	24.4	-90.2	10.7
2025-01-17 12:00:01.687460	7.1	24.4	-90.1	9.0
2025-01-17 12:00:02.839152	6.8	24.5	-90.2	9.3
2025-01-17 12:00:03.981812	6.5	24.6	-90.1	7.8
2025-01-17 12:00:05.139897	6.2	24.7	-90.1	6.4
2025-01-17 12:00:06.289667	5.9	24.8	-90.2	3.3
2025-01-17 12:00:07.438868	5.6	24.8	-89.7	5.6
2025-01-17 12:00:08.593224	5.3	24.9	-89.7	5.5
2025-01-17 12:00:09.748531	5.0	25.0	-89.4	2.3
2025-01-17 12:00:10.914157	4.7	25.1	-90.0	4.1
2025-01-17 12:00:12.064075	4.4	25.2	-89.8	4.4
2025-01-17 12:00:13.212638	4.1	25.2	-90.4	8.0
2025-01-17 12:00:14.363805	3.8	25.3	-90.4	8.0
2025-01-17 12:00:15.513943	3.5	25.4	-90.8	8.5
2025-01-17 12:00:16.663553	3.2	25.5	-90.3	6.3
2025-01-17 12:00:17.812316	2.9	25.5	-90.4	4.6
2025-01-17 12:00:18.969049	2.5	25.6	-90.2	5.1
2025-01-17 12:00:20.115010	2.2	25.7	-90.3	6.7
2025-01-17 12:00:21.268794	1.9	25.7	-90.4	2.6
2025-01-17 12:00:22.420899	1.6	25.8	-90.2	2.8
2025-01-17 12:00:23.573684	1.3	25.9	-89.9	2.3
2025-01-17 12:00:24.727788	1.0	26.0	-90.3	1.9
2025-01-17 12:00:25.885203	0.6	26.0	-89.8	5.0
2025-01-17 12:00:27.034234	0.3	26.1	-90.6	4.9
2025-01-17 12:00:28.178267	0.0	26.2	-90.1	5.6
2025-01-17 12:00:29.326212	359.7	26.2	-89.9	6.6
2025-01-17 12:00:30.476195	359.4	26.3	-90.3	8.5
2025-01-17 12:00:31.621285	359.0	26.3	-90.2	4.7
2025-01-17 12:00:32.770057	358.7	26.4	-89.8	6.5
2025-01-17 12:00:33.919226	358.4	26.5	-90.0	8.6
2025-01-17 12:00:35.072621	358.1	26.5	-90.0	8.2
2025-01-17 12:00:36.223235	357.7	26.6	-90.0	7.0
2025-01-17 12:00:37.370356	357.4	26.6	-89.8	5.0
2025-01-17 12:00:38.523931	357.1	26.7	-90.0	7.2
2025-01-17 12:00:39.676848	356.7	26.8	-90.6	5.7
2025-01-17 12:00:40.827468	356.4	26.8	-90.5	3.5
2025-01-17 12:00:41.981107	356.1	26.9	-90.3	4.9
2025-01-17 12:00:43.138861	355.7	26.9	-90.5	7.4
2025-01-17 12:00:44.284153	355.4	27.0	-90.1	3.2
2025-01-17 12:00:45.431545	355.0	27.0	-90.0	7.1
2025-01-17 12:00:46.580782	354.7	27.1	-90.1	7.3
2025-01-17 12:00:47.730284	354.4	27.1	-90.0	6.7
2025-01-17 12:00:48.878261	354.0	27.2	-90.3	10.2
2025-01-17 12:00:50.037865	353.7	27.2	-90.5	9.3
2025-01-17 12:00:51.188130	353.3	27.3	-90.4	9.3
2025-01-17 12:00:52.340954	353.0	27.3	-90.2	5.1
2025-01-17 12:00:53.488970	352.6	27.4	-90.2	3.4
2025-01-17 12:00:54.646174	352.3	27.4	-89.7	4.7
2025-01-17 12:00:55.802095	351.9	27.5	-89.4	3.5
2025-01-17 12:00:56.956105	351.6	27.5	-89.7	4.6
2025-01-17 12:00:58.103280	351.2	27.5	-89.5	3.4
2025-01-17 12:00:59.260600	350.9	27.6	-90.0	0.6
2025-01-17 12:01:00.405721	350.5	27.6	-90.0	3.0
2025-01-17 12:01:01.561073	350.2	27.7	-89.6	2.6
2025-01-17 12:01:02.710629	349.8	27.7	-89.6	1.9
2025-01-17 12:01:03.858130	349.5	27.7	-89.6	3.2
2025-01-17 12:01:05.012301	349.1	27.8	-90.1	3.4
2025-01-17 12:01:06.168833	348.7	27.8	-89.8	5.1
2025-01-17 12:01:07.330838	348.4	27.8	-90.0	2.4
2025-01-17 12:01:08.484526	348.0	27.8	-90.4	1.1
2025-01-17 12:01:09.633184	347.7	27.9	-90.3	5.8
2025-01-17 12:01:10.785087	347.3	27.9	-90.5	4.9
2025-01-17 12:01:11.937895	346.9	27.9	-90.1	5.6
2025-01-17 12:01:13.092742	346.6	28.0	-89.7	7.1
2025-01-17 12:01:14.246499	346.2	28.0	-90.2	2.1
2025-01-17 12:01:15.394890	345.9	28.0	-90.1	5.3
2025-01-17 12:01:16.552900	345.5	28.0	-90.6	4.8
2025-01-17 12:01:17.698620	345.1	28.0	-90.6	4.6
2025-01-17 12:01:18.845851	344.8	28.1	-90.3	3.3
2025-01-17 12:01:19.992096	344.4	28.1	-90.1	4.8
2025-01-17 12:01:21.141113	344.1	28.1	-90.2	4.8
2025-01-17 12:01:22.288528	343.7	28.1	-90.1	2.3
2025-01-17 12:01:23.443794	343.3	28.1	-90.6	4.4
2025-01-17 12:01:24.591842	343.0	28.1	-89.9	4.4
2025-01-17 12:01:25.743664	342.6	28.1	-90.3	4.7
2025-01-17 12:01:26.901478	342.2	28.1	-90.0	4.7
2025-01-17 12:01:28.059008	341.9	28.2	-90.4	6.6
2025-01-17 12:01:29.206550	341.5	28.2	-90.2	3.2
2025-01-17 12:01:30.367315	341.1	28.2	-90.1	4.4
2025-01-17 12:01:31.512423	340.8	28.2	-90.1	5.8
2025-01-17 12:01:32.671498	340.4	28.2	-90.3	5.0
2025-01-17 12:01:33.819924	340.0	28.2	-90.5	3.8
2025-01-17 12:01:34.966477	339.7	28.2	-90.1	4.1
2025-01-17 12:01:36.112635	339.3	28.2	-89.7	7.4
2025-01-17 12:01:37.259664	338.9	28.2	-90.1	3.7
2025-01-17 12:01:38.406578	338.6	28.2	-90.1	7.3
2025-01-17 12:01:39.558859	338.2	28.2	-90.0	6.2
2025-01-17 12:01:40.705337	337.8	28.2	-90.0	5.1
2025-01-17 12:01:41.859886	337.5	28.2	-90.1	4.4
2025-01-17 12:01:43.012028	337.1	28.1	-90.1	2.7
2025-01-17 12:01:44.163689	336.7	28.1	-89.8	6.3
2025-01-17 12:01:45.315751	336.4	28.1	-90.1	5.3
2025-01-17 12:01:46.463278	336.0	28.1	-90.2	2.9
2025-01-17 12:01:47.615838	335.7	28.1	-90.3	7.4
2025-01-17 12:01:48.762713	335.3	28.1	-90.5	4.6
2025-01-17 12:01:49.912709	334.9	28.1	-90.1	6.8
2025-01-17 12:01:51.058234	334.6	28.0	-90.0	8.5
2025-01-17 12:01:52.207321	334.2	28.0	-90.1	6.4
2025-01-17 12:01:53.360904	333.8	28.0	-89.6	5.5
2025-01-17 12:01:54.519148	333.5	28.0	-90.2	8.2
2025-01-17 12:01:55.665749	333.1	28.0	-89.8	6.1
2025-01-17 12:01:56.814114	332.8	27.9	-89.8	6.0
2025-01-17 12:01:57.967017	332.4	27.9	-89.8	6.9
2025-01-17 12:01:59.119653	332.0	27.9	-90.1	4.7
2025-01-17 12:02:00.269902	331.7	27.9	-89.9	6.5
2025-01-17 12:02:01.423683	331.3	27.8	-89.8	4.9
2025-01-17 12:02:02.573455	331.0	27.8	-89.8	7.0
2025-01-17 12:02:03.720681	330.6	27.8	-90.1	4.6
2025-01-17 12:02:04.874234	330.3	27.7	-90.2	7.3
2025-01-17 12:02:06.021221	329.9	27.7	-90.0	5.7
2025-01-17 12:02:07.169047	329.5	27.7	-89.8	7.7
2025-01-17 12:02:08.323554	329.2	27.6	-89.7	3.3
2025-01-17 12:02:09.470438	328.8	27.6	-90.2	3.6
2025-01-17 12:02:10.618457	328.5	27.6	-89.8	4.6
2025-01-17 12:02:11.765767	328.1	27.5	-90.2	3.7
2025-01-17 12:02:12.913269	327.8	27.5	-90.3	4.5
2025-01-17 12:02:14.062770	327.4	27.4	-90.2	2.7
2025-01-17 12:02:15.215206	327.1	27.4	-90.3	3.8
2025-01-17 12:02:16.373138	326.7	27.3	-90.2	5.0
2025-01-17 12:02:17.518244	326.4	27.3	-90.1	7.5
2025-01-17 12:02:18.670007	326.1	27.3	-90.2	3.8
2025-01-17 12:02:19.818289	325.7	27.2	-90.0	3.6
2025-01-17 12:02:20.972388	325.4	27.2	-89.8	6.1
2025-01-17 12:02:22.125660	325.0	27.1	-90.1	4.6
2025-01-17 12:02:23.276932	324.7	27.1	-89.8	3.1
2025-01-17 12:02:24.431653	324.3	27.0	-90.0	5.7
2025-01-17 12:02:25.578100	324.0	26.9	-89.9	4.5
2025-01-17 12:02:26.730387	323.7	26.9	-90.3	5.4
2025-01-17 12:02:27.878036	323.3	26.8	-90.3	3.4
2025-01-17 12:02:29.023770	323.0	26.8	-90.3	8.0
2025-01-17 12:02:30.170499	322.7	26.7	-90.1	4.6
2025-01-17 12:02:31.315907	322.3	26.7	-90.2	4.1
2025-01-17 12:02:32.470906	322.0	26.6	-90.4	4.9
2025-01-17 12:02:33.627608	321.7	26.6	-90.7	3.9
2025-01-17 12:02:34.781797	321.3	26.5	-90.8	4.9
2025-01-17 12:02:35.935226	321.0	26.4	-90.0	5.0
2025-01-17 12:02:37.086214	320.7	26.4	-89.9	6.4
2025-01-17 12:02:38.236786	320.4	26.3	-89.9	5.2
2025-01-17 12:02:39.395887	320.0	26.2	-89.6	5.1
2025-01-17 12:02:40.546865	319.7	26.2	-90.3	4.8
2025-01-17 12:02:41.697757	319.4	26.1	-90.2	4.6
2025-01-17 12:02:42.851244	319.1	26.0	-90.1	5.7
2025-01-17 12:02:43.998901	318.7	26.0	-90.1	7.4
2025-01-17 12:02:45.143458	318.4	25.9	-89.8	3.0
2025-01-17 12:02:46.296017	318.1	25.8	-90.0	2.7
2025-01-17 12:02:47.444686	317.8	25.8	-90.2	7.0
2025-01-17 12:02:48.591445	317.5	25.7	-90.1	9.4
2025-01-17 12:02:49.738620	317.2	25.6	-90.5	9.0
2025-01-17 12:02:50.895964	316.9	25.6	-90.4	8.7
2025-01-17 12:02:52.046094	316.5	25.5	-90.3	5.9
2025-01-17 12:02:53.191976	316.2	25.4	-89.9	9.3
2025-01-17 12:02:54.339287	315.9	25.3	-89.9	11.5
2025-01-17 12:02:55.487349	315.6	25.3	-90.1	9.7
2025-01-17 12:02:56.637784	315.3	25.2	-89.7	8.2
2025-01-17 12:02:57.789604	315.0	25.1	-90.2	10.0
2025-01-17 12:02:58.944219	314.7	25.0	-90.2	5.6
2025-01-17 12:03:00.101085	314.4	25.0	-90.1	10.2
2025-01-17 12:03:01.244402	314.1	24.9	-90.0	10.9
2025-01-17 12:03:02.400821	313.8	24.8	-90.6	7.9
2025-01-17 12:03:03.552651	313.5	24.7	-90.4	9.7
2025-01-17 12:03:04.704599	313.2	24.6	-90.3	7.4
2025-01-17 12:03:05.861030	313.0	24.6	-90.6	12.4
2025-01-17 12:03:07.009615	312.7	24.5	-90.5	7.7
2025-01-17 12:03:08.150030	312.4	24.4	-90.0	8.2
2025-01-17 12:03:09.297206	312.1	24.3	-90.1	7.4
2025-01-17 12:03:10.446110	311.8	24.2	-90.5	6.9
2025-01-17 12:03:11.598557	311.5	24.2	-90.4	5.9
2025-01-17 12:03:12.746075	311.2	24.1	-90.4	4.7
2025-01-17 12:03:13.897791	311.0	24.0	-90.8	7.9
2025-01-17 12:03:15.042932	310.7	23.9	-90.4	7.1
2025-01-17 12:03:16.191485	310.4	23.8	-90.3	4.3
2025-01-17 12:03:17.343777	310.1	23.7	-90.4	1.8
2025-01-17 12:03:18.488923	309.9	23.6	-90.6	1.2
2025-01-17 12:03:19.638150	309.6	23.6	-90.4	3.5
2025-01-17 12:03:20.782968	309.3	23.5	-90.6	3.1
2025-01-17 12:03:21.939535	309.0	23.4	-90.4	3.2
2025-01-17 12:03:23.096384	308.8	23.3	-90.5	4.7
2025-01-17 12:03:24.249156	308.5	23.2	-90.5	2.7
2025-01-17 12:03:25.396596	308.2	23.1	-90.3	2.4
2025-01-17 12:03:26.547149	308.0	23.0	-90.6	2.8
2025-01-17 12:03:27.700838	307.7	22.9	-90.2	2.0
2025-01-17 12:03:28.845256	307.4	22.9	-90.1	2.1
2025-01-17 12:03:29.994928	307.2	22.8	-90.4	1.2
2025-01-17 12:03:31.147855	306.9	22.7	-90.2	4.0
2025-01-17 12:03:32.296261	306.7	22.6	-90.6	0.9
2025-01-17 12:03:33.442636	306.4	22.5	-90.1	3.7
2025-01-17 12:03:34.601817	306.2	22.4	-90.3	4.0
2025-01-17 12:03:35.755856	305.9	22.3	-90.4	3.1
2025-01-17 12:03:36.892180	305.7	22.2	-90.2	5.2
2025-01-17 12:03:38.049092	305.4	22.1	-90.2	7.2
2025-01-17 12:03:39.207556	305.2	22.0	-90.1	11.6
2025-01-17 12:03:40.363683	304.9	21.9	-90.4	3.3
2025-01-17 12:03:41.507485	304.7	21.8	-90.4	8.3
2025-01-17 12:03:42.661910	304.4	21.8	-90.1	3.2
2025-01-17 12:03:43.813691	304.2	21.7	-90.6	6.8
2025-01-17 12:03:44.968608	303.9	21.6	-90.6	4.9
2025-01-17 12:03:46.119263	303.7	21.5	-90.2	4.4
2025-01-17 12:03:47.272020	303.5	21.4	-89.9	1.4
2025-01-17 12:03:48.421466	303.2	21.3	-89.9	8.5
2025-01-17 12:03:49.568385	303.0	21.2	-90.0	5.2
2025-01-17 12:03:50.718635	302.8	21.1	-90.0	3.2
2025-01-17 12:03:51.864773	302.5	21.0	-90.2	4.3
2025-01-17 12:03:53.016647	302.3	20.9	-89.9	3.8
2025-01-17 12:03:54.165541	302.1	20.8	-89.9	3.1
2025-01-17 12:03:55.311676	301.8	20.7	-90.2	0.5
2025-01-17 12:03:56.466227	301.6	20.6	-90.5	1.8
2025-01-17 12:03:57.613482	301.4	20.5	-90.1	4.7
2025-01-17 12:03:58.767043	301.2	20.4	-90.2	3.2
2025-01-17 12:03:59.914459	301.0	20.3	-90.4	4.0
2025-01-17 12:04:01.062522	300.7	20.2	-90.3	2.3
2025-01-17 12:04:02.209392	300.5	20.2	-89.9	0.6
2025-01-17 12:04:03.363194	300.3	20.1	-90.1	3.1
2025-01-17 12:04:04.512449	300.1	20.0	-90.2	3.4
2025-01-17 12:04:05.659373	299.9	19.9	-90.4	2.9
2025-01-17 12:04:06.810936	299.7	19.8	-90.2	4.1
2025-01-17 12:04:07.955005	299.4	19.7	-90.1	5.6
2025-01-17 12:04:09.102389	299.2	19.6	-90.5	5.4
2025-01-17 12:04:10.257442	299.0	19.5	-90.0	2.7
2025-01-17 12:04:11.403503	298.8	19.4	-90.3	3.9
2025-01-17 12:04:12.557431	298.6	19.3	-90.4	5.9
2025-01-17 12:04:13.699665	298.4	19.2	-90.2	5.4
2025-01-17 12:04:14.851075	298.2	19.1	-90.3	4.6
2025-01-17 12:04:15.996232	298.0	19.0	-90.3	6.2
2025-01-17 12:04:17.149107	297.8	18.9	-90.1	6.1
2025-01-17 12:04:18.307376	297.6	18.8	-90.1	2.8
2025-01-17 12:04:19.458198	297.4	18.7	-90.4	3.4
2025-01-17 12:04:20.610151	297.2	18.6	-89.9	4.5
2025-01-17 12:04:21.751228	297.0	18.5	-90.2	3.1
2025-01-17 12:04:22.905351	296.8	18.4	-90.2	4.1
2025-01-17 12:04:24.052817	296.6	18.3	-89.7	4.9
2025-01-17 12:04:25.200768	296.4	18.2	-90.4	4.4
2025-01-17 12:04:26.352424	296.2	18.1	-90.2	4.1
2025-01-17 12:04:27.494647	296.0	18.1	-89.8	1.6
2025-01-17 12:04:28.645420	295.8	18.0	-90.3	5.9
2025-01-17 12:04:29.792260	295.7	17.9	-90.2	7.7
2025-01-17 12:04:30.942856	295.5	17.8	-90.1	8.4
2025-01-17 12:04:32.095515	295.3	17.7	-90.3	5.9
2025-01-17 12:04:33.241639	295.1	17.6	-90.4	6.3
2025-01-17 12:04:34.392168	294.9	17.5	-90.5	6.7
2025-01-17 12:04:35.533570	294.7	17.4	-90.5	3.4
2025-01-17 12:04:36.691439	294.6	17.3	-90.4	4.9
2025-01-17 12:04:37.844721	294.4	17.2	-90.1	3.5
2025-01-17 12:04:38.987977	294.2	17.1	-90.0	4.6
2025-01-17 12:04:40.145516	294.0	17.0	-90.4	4.1
2025-01-17 12:04:41.292382	293.8	16.9	-90.1	2.7
2025-01-17 12:04:42.446994	293.7	16.8	-90.4	2.6
2025-01-17 12:04:43.596155	293.5	16.7	-90.4	2.1
2025-01-17 12:04:44.745192	293.3	16.6	-90.7	1.8
2025-01-17 12:04:45.889523	293.1	16.5	-90.7	3.8
2025-01-17 12:04:47.041358	293.0	16.4	-90.6	3.9
2025-01-17 12:04:48.195926	292.8	16.3	-90.2	3.3
2025-01-17 12:04:49.341309	292.6	16.2	-90.4	4.9
2025-01-17 12:04:50.488009	292.5	16.2	-90.7	5.1
2025-01-17 12:04:51.634324	292.3	16.1	-90.2	2.6
2025-01-17 12:04:52.782222	292.1	16.0	-89.9	1.9
2025-01-17 12:04:53.926438	292.0	15.9	-90.7	2.6
2025-01-17 12:04:55.077478	291.8	15.8	-90.3	3.4
2025-01-17 12:04:56.222020	291.6	15.7	-90.0	2.7
2025-01-17 12:04:57.371574	291.5	15.6	-90.5	2.7
2025-01-17 12:04:58.526692	291.3	15.5	-89.7	3.3
2025-01-17 12:04:59.690266	291.2	15.4	-90.1	3.7
2025-01-17 12:05:00.840406	291.0	15.3	-90.0	3.7
2025-01-17 12:05:01.986237	290.9	15.2	-90.1	1.8
2025-01-17 12:05:03.133754	290.7	15.1	-90.3	4.1
2025-01-17 12:05:04.285015	290.5	15.0	-90.1	4.0
2025-01-17 12:05:05.433683	290.4	14.9	-89.7	1.6
2025-01-17 12:05:06.569326	290.2	14.8	-90.0	3.8
2025-01-17 12:05:07.721959	290.1	14.8	-89.6	2.7
2025-01-17 12:05:08.863945	289.9	14.7	-89.4	1.2
#Closed at: 2025-01-17 11:58:09.908931