passes_logs/2025/01/17/LEX_Murmansk/LEX_Murmansk__20250117_122258_NOAA_18_rec.log

#Pass ID: 20250117_122258_NOAA 18
#Satellite: NOAA 18
#Configuration: NOAA 18
#Start time: 2025-01-17 12:22:53.873967

#LorettStation: 1.0.0 05.05.2024
#Station: LEX_Murmansk
#Location: 33.156738 lon 68.926811 lat
#TLE: 1 28654U 05018A   25016.15379782  .00000321  00000+0  19399-3 0  9994
#TLE: 2 28654  98.8565  97.1968 0014416 175.9109 184.2183 14.13487365 13346

#Time	Az	El	Level	SNR
2025-01-17 12:23:06.054326	24.0	16.1	-89.9	4.2
2025-01-17 12:23:07.202145	23.8	16.2	-90.2	2.2
2025-01-17 12:23:08.348378	23.7	16.3	-90.3	4.2
2025-01-17 12:23:09.491567	23.5	16.4	-90.0	4.0
2025-01-17 12:23:10.642980	23.4	16.5	-90.1	4.6
2025-01-17 12:23:11.789365	23.2	16.6	-90.2	3.6
2025-01-17 12:23:12.938026	23.1	16.7	-90.3	2.8
2025-01-17 12:23:14.086470	23.0	16.8	-90.0	6.0
2025-01-17 12:23:15.234206	22.8	16.9	-89.9	1.8
2025-01-17 12:23:16.383190	22.7	17.0	-89.9	4.8
2025-01-17 12:23:17.530856	22.5	17.1	-90.6	4.3
2025-01-17 12:23:18.680474	22.4	17.2	-90.0	3.5
2025-01-17 12:23:19.826671	22.2	17.3	-90.5	3.4
2025-01-17 12:23:20.975985	22.1	17.5	-90.3	4.4
2025-01-17 12:23:22.123181	21.9	17.6	-89.9	3.6
2025-01-17 12:23:23.273230	21.7	17.7	-90.0	4.5
2025-01-17 12:23:24.425359	21.6	17.8	-89.2	4.7
2025-01-17 12:23:25.572175	21.4	17.9	-89.6	4.4
2025-01-17 12:23:26.722498	21.3	18.0	-89.5	5.0
2025-01-17 12:23:27.868534	21.1	18.1	-88.9	8.0
2025-01-17 12:23:29.015408	21.0	18.2	-89.4	7.2
2025-01-17 12:23:30.161330	20.8	18.3	-89.3	10.3
2025-01-17 12:23:31.306097	20.6	18.4	-90.2	10.8
2025-01-17 12:23:32.454454	20.5	18.5	-90.3	8.6
2025-01-17 12:23:33.602122	20.3	18.6	-90.5	7.6
2025-01-17 12:23:34.754598	20.1	18.8	-90.2	6.6
2025-01-17 12:23:35.906724	20.0	18.9	-90.2	7.9
2025-01-17 12:23:37.054862	19.8	19.0	-90.0	9.6
2025-01-17 12:23:38.204616	19.6	19.1	-90.2	10.3
2025-01-17 12:23:39.354050	19.5	19.2	-90.4	8.2
2025-01-17 12:23:40.497410	19.3	19.3	-90.2	5.2
2025-01-17 12:23:41.647947	19.1	19.4	-90.0	9.6
2025-01-17 12:23:42.797833	18.9	19.5	-89.8	11.0
2025-01-17 12:23:43.949897	18.8	19.6	-89.8	6.6
2025-01-17 12:23:45.095016	18.6	19.7	-89.7	7.8
2025-01-17 12:23:46.242287	18.4	19.9	-90.1	11.2
2025-01-17 12:23:47.386730	18.2	20.0	-90.0	11.6
2025-01-17 12:23:48.533786	18.0	20.1	-90.1	7.7
2025-01-17 12:23:49.684957	17.9	20.2	-89.9	9.3
2025-01-17 12:23:50.828848	17.7	20.3	-89.8	9.0
2025-01-17 12:23:51.976575	17.5	20.4	-90.3	7.2
2025-01-17 12:23:53.130227	17.3	20.5	-89.8	8.8
2025-01-17 12:23:54.277844	17.1	20.6	-89.6	9.9
2025-01-17 12:23:55.431424	16.9	20.8	-89.8	9.1
2025-01-17 12:23:56.572005	16.7	20.9	-89.9	6.5
2025-01-17 12:23:57.720485	16.5	21.0	-90.2	7.7
2025-01-17 12:23:58.868634	16.3	21.1	-90.0	6.8
2025-01-17 12:24:00.011301	16.1	21.2	-90.3	5.0
2025-01-17 12:24:01.160183	15.9	21.3	-90.2	5.5
2025-01-17 12:24:02.306332	15.7	21.4	-90.1	7.3
2025-01-17 12:24:03.455551	15.5	21.6	-90.3	6.5
2025-01-17 12:24:04.600450	15.3	21.7	-90.1	6.7
2025-01-17 12:24:05.751743	15.1	21.8	-90.0	8.2
2025-01-17 12:24:06.901878	14.9	21.9	-90.2	7.9
2025-01-17 12:24:08.046997	14.7	22.0	-90.2	9.0
2025-01-17 12:24:09.195613	14.5	22.1	-89.7	8.6
2025-01-17 12:24:10.340254	14.3	22.2	-90.1	9.6
2025-01-17 12:24:11.488109	14.1	22.4	-90.1	8.5
2025-01-17 12:24:12.636224	13.9	22.5	-90.1	7.7
2025-01-17 12:24:13.785384	13.7	22.6	-90.3	10.5
2025-01-17 12:24:14.935424	13.4	22.7	-89.4	12.5
2025-01-17 12:24:16.083092	13.2	22.8	-89.2	11.9
2025-01-17 12:24:17.234020	13.0	22.9	-89.5	9.2
2025-01-17 12:24:18.384108	12.8	23.0	-89.3	10.2
2025-01-17 12:24:19.534183	12.6	23.2	-89.4	8.1
2025-01-17 12:24:20.681379	12.3	23.3	-89.6	9.3
2025-01-17 12:24:21.830869	12.1	23.4	-89.2	13.1
2025-01-17 12:24:22.973686	11.9	23.5	-90.2	5.6
2025-01-17 12:24:24.116152	11.7	23.6	-90.2	8.5
2025-01-17 12:24:25.264885	11.4	23.7	-90.1	10.7
2025-01-17 12:24:26.409738	11.2	23.9	-90.3	10.3
2025-01-17 12:24:27.554734	11.0	24.0	-90.4	9.2
2025-01-17 12:24:28.696703	10.7	24.1	-90.6	7.5
2025-01-17 12:24:29.844193	10.5	24.2	-90.6	9.0
2025-01-17 12:24:30.990960	10.3	24.3	-90.3	6.3
2025-01-17 12:24:32.139097	10.0	24.4	-89.8	9.3
2025-01-17 12:24:33.289810	9.8	24.5	-90.2	9.0
2025-01-17 12:24:34.439851	9.5	24.7	-90.4	7.1
2025-01-17 12:24:35.587137	9.3	24.8	-90.5	10.9
2025-01-17 12:24:36.729108	9.0	24.9	-90.4	11.2
2025-01-17 12:24:37.873784	8.8	25.0	-90.5	10.7
2025-01-17 12:24:39.021956	8.5	25.1	-90.6	8.2
2025-01-17 12:24:40.168708	8.3	25.2	-90.1	11.4
2025-01-17 12:24:41.319085	8.0	25.3	-90.3	10.4
2025-01-17 12:24:42.473279	7.8	25.5	-90.2	6.1
2025-01-17 12:24:43.617922	7.5	25.6	-90.1	7.9
2025-01-17 12:24:44.766153	7.2	25.7	-89.8	9.4
2025-01-17 12:24:45.909395	7.0	25.8	-90.4	8.5
2025-01-17 12:24:47.065231	6.7	25.9	-89.8	6.8
2025-01-17 12:24:48.215653	6.4	26.0	-89.8	9.0
2025-01-17 12:24:49.361496	6.2	26.1	-90.4	9.0
2025-01-17 12:24:50.510297	5.9	26.3	-90.4	10.1
2025-01-17 12:24:51.655851	5.6	26.4	-90.2	11.8
2025-01-17 12:24:52.797272	5.3	26.5	-90.4	11.1
2025-01-17 12:24:53.946462	5.1	26.6	-90.5	10.0
2025-01-17 12:24:55.093177	4.8	26.7	-90.2	8.0
2025-01-17 12:24:56.238468	4.5	26.8	-90.5	9.7
2025-01-17 12:24:57.385107	4.2	26.9	-90.6	9.6
2025-01-17 12:24:58.532205	3.9	27.0	-90.3	7.4
2025-01-17 12:24:59.682542	3.6	27.1	-90.4	8.5
2025-01-17 12:25:00.827765	3.4	27.3	-90.7	8.7
2025-01-17 12:25:01.981963	3.1	27.4	-90.6	9.8
2025-01-17 12:25:03.124924	2.8	27.5	-90.2	6.2
2025-01-17 12:25:04.272732	2.5	27.6	-90.5	8.4
2025-01-17 12:25:05.422437	2.2	27.7	-90.9	6.7
2025-01-17 12:25:06.563661	1.9	27.8	-90.5	7.7
2025-01-17 12:25:07.699008	1.6	27.9	-90.7	8.0
2025-01-17 12:25:08.850777	1.3	28.0	-90.3	8.9
2025-01-17 12:25:09.995249	1.0	28.1	-90.8	7.9
2025-01-17 12:25:11.137838	0.7	28.2	-90.5	7.0
2025-01-17 12:25:12.296684	0.4	28.3	-90.4	9.1
2025-01-17 12:25:13.444911	0.0	28.4	-90.6	8.2
2025-01-17 12:25:14.593194	359.7	28.5	-90.6	8.4
2025-01-17 12:25:15.735885	359.4	28.6	-90.3	9.0
2025-01-17 12:25:16.883201	359.1	28.7	-90.2	9.8
2025-01-17 12:25:18.027208	358.8	28.9	-90.5	10.3
2025-01-17 12:25:19.172800	358.5	29.0	-90.2	7.0
2025-01-17 12:25:20.314985	358.1	29.1	-90.6	11.3
2025-01-17 12:25:21.465959	357.8	29.2	-90.6	9.3
2025-01-17 12:25:22.623117	357.5	29.3	-90.1	11.5
2025-01-17 12:25:23.769007	357.1	29.4	-90.1	13.6
2025-01-17 12:25:24.915836	356.8	29.5	-89.8	10.3
2025-01-17 12:25:26.066197	356.5	29.5	-90.5	13.8
2025-01-17 12:25:27.216339	356.1	29.6	-90.5	13.2
2025-01-17 12:25:28.364515	355.8	29.7	-90.4	14.4
2025-01-17 12:25:29.512101	355.5	29.8	-90.5	13.1
2025-01-17 12:25:30.660347	355.1	29.9	-90.7	11.1
2025-01-17 12:25:31.807123	354.8	30.0	-90.4	13.9
2025-01-17 12:25:32.956405	354.4	30.1	-90.6	7.7
2025-01-17 12:25:34.111023	354.1	30.2	-90.1	6.6
2025-01-17 12:25:35.260815	353.7	30.3	-90.6	11.8
2025-01-17 12:25:36.407330	353.4	30.4	-90.8	5.9
2025-01-17 12:25:37.554630	353.0	30.5	-90.5	6.8
2025-01-17 12:25:38.703717	352.7	30.6	-90.5	10.1
2025-01-17 12:25:39.848776	352.3	30.7	-90.9	13.6
2025-01-17 12:25:40.993822	351.9	30.7	-90.8	10.4
2025-01-17 12:25:42.138553	351.6	30.8	-90.7	13.4
2025-01-17 12:25:43.283527	351.2	30.9	-90.8	13.2
2025-01-17 12:25:44.432041	350.8	31.0	-90.5	11.0
2025-01-17 12:25:45.581987	350.5	31.1	-90.5	11.2
2025-01-17 12:25:46.730096	350.1	31.2	-90.4	13.5
2025-01-17 12:25:47.879372	349.7	31.2	-90.1	12.7
2025-01-17 12:25:49.029335	349.4	31.3	-90.7	11.1
2025-01-17 12:25:50.177924	349.0	31.4	-90.6	11.7
2025-01-17 12:25:51.326035	348.6	31.5	-90.7	11.5
2025-01-17 12:25:52.471819	348.2	31.5	-90.3	7.0
2025-01-17 12:25:53.615259	347.8	31.6	-90.6	9.1
2025-01-17 12:25:54.762467	347.5	31.7	-89.7	12.6
2025-01-17 12:25:55.917051	347.1	31.8	-90.6	9.5
2025-01-17 12:25:57.064191	346.7	31.8	-90.3	12.2
2025-01-17 12:25:58.211758	346.3	31.9	-90.5	14.7
2025-01-17 12:25:59.363150	345.9	32.0	-90.8	13.5
2025-01-17 12:26:00.516406	345.5	32.0	-90.7	13.2
2025-01-17 12:26:01.663272	345.1	32.1	-90.5	13.3
2025-01-17 12:26:02.810815	344.7	32.2	-90.7	14.0
2025-01-17 12:26:03.956925	344.3	32.2	-90.7	13.3
2025-01-17 12:26:05.102433	343.9	32.3	-90.6	12.7
2025-01-17 12:26:06.250068	343.5	32.3	-90.9	12.8
2025-01-17 12:26:07.398522	343.1	32.4	-91.1	7.6
2025-01-17 12:26:08.543043	342.7	32.4	-90.6	7.3
2025-01-17 12:26:09.694206	342.3	32.5	-90.3	12.7
2025-01-17 12:26:10.843471	341.9	32.5	-90.2	12.8
2025-01-17 12:26:11.996812	341.5	32.6	-90.5	8.3
2025-01-17 12:26:13.152687	341.1	32.7	-90.5	11.8
2025-01-17 12:26:14.300083	340.7	32.7	-90.4	12.7
2025-01-17 12:26:15.443339	340.3	32.7	-90.7	9.4
2025-01-17 12:26:16.592939	339.9	32.8	-90.8	7.1
2025-01-17 12:26:17.740650	339.5	32.8	-90.5	15.2
2025-01-17 12:26:18.898408	339.1	32.9	-90.9	13.6
2025-01-17 12:26:20.052007	338.6	32.9	-90.2	12.0
2025-01-17 12:26:21.192930	338.2	32.9	-90.2	13.8
2025-01-17 12:26:22.339874	337.8	33.0	-89.9	15.2
2025-01-17 12:26:23.490016	337.4	33.0	-90.5	13.4
2025-01-17 12:26:24.634908	337.0	33.1	-90.7	13.6
2025-01-17 12:26:25.784733	336.6	33.1	-90.0	11.5
2025-01-17 12:26:26.931601	336.1	33.1	-90.3	13.0
2025-01-17 12:26:28.082086	335.7	33.1	-90.5	13.2
2025-01-17 12:26:29.239919	335.3	33.2	-90.9	13.5
2025-01-17 12:26:30.385522	334.9	33.2	-90.9	12.7
2025-01-17 12:26:31.528960	334.5	33.2	-91.0	10.4
2025-01-17 12:26:32.677721	334.0	33.2	-90.7	15.4
2025-01-17 12:26:33.824169	333.6	33.3	-90.9	14.3
2025-01-17 12:26:34.970895	333.2	33.3	-90.4	8.6
2025-01-17 12:26:36.113430	332.8	33.3	-90.3	9.2
2025-01-17 12:26:37.262525	332.3	33.3	-90.4	12.7
2025-01-17 12:26:38.415446	331.9	33.3	-90.7	9.4
2025-01-17 12:26:39.560945	331.5	33.3	-90.8	8.8
2025-01-17 12:26:40.708885	331.1	33.3	-91.0	11.7
2025-01-17 12:26:41.854882	330.6	33.3	-90.6	11.8
2025-01-17 12:26:43.002095	330.2	33.3	-90.6	10.6
2025-01-17 12:26:44.154556	329.8	33.3	-90.4	14.1
2025-01-17 12:26:45.308268	329.4	33.3	-90.2	15.4
2025-01-17 12:26:46.458572	328.9	33.3	-90.3	11.3
2025-01-17 12:26:47.607059	328.5	33.3	-90.4	11.5
2025-01-17 12:26:48.752901	328.1	33.3	-90.7	12.8
2025-01-17 12:26:49.901443	327.6	33.3	-90.7	13.9
2025-01-17 12:26:51.047032	327.2	33.3	-90.2	14.2
2025-01-17 12:26:52.200334	326.8	33.3	-90.7	11.2
2025-01-17 12:26:53.348075	326.4	33.3	-90.9	13.1
2025-01-17 12:26:54.496638	325.9	33.3	-90.2	9.6
2025-01-17 12:26:55.645087	325.5	33.3	-90.1	15.0
2025-01-17 12:26:56.805712	325.1	33.3	-90.2	12.9
2025-01-17 12:26:57.957735	324.7	33.2	-90.2	10.5
2025-01-17 12:26:59.107859	324.2	33.2	-89.8	12.4
2025-01-17 12:27:00.257806	323.8	33.2	-89.8	17.2
2025-01-17 12:27:01.402584	323.4	33.2	-90.1	13.1
2025-01-17 12:27:02.548393	323.0	33.1	-89.9	13.5
2025-01-17 12:27:03.693571	322.6	33.1	-90.2	15.5
2025-01-17 12:27:04.845908	322.1	33.1	-90.2	12.8
2025-01-17 12:27:05.995756	321.7	33.1	-90.7	14.5
2025-01-17 12:27:07.145676	321.3	33.0	-90.8	11.5
2025-01-17 12:27:08.295430	320.9	33.0	-90.2	16.2
2025-01-17 12:27:09.450688	320.5	33.0	-90.3	11.9
2025-01-17 12:27:10.598273	320.0	32.9	-90.6	12.3
2025-01-17 12:27:11.744694	319.6	32.9	-89.6	15.2
2025-01-17 12:27:12.891138	319.2	32.8	-89.5	13.4
2025-01-17 12:27:14.042866	318.8	32.8	-89.7	12.2
2025-01-17 12:27:15.192390	318.4	32.7	-89.5	13.2
2025-01-17 12:27:16.339341	318.0	32.7	-89.8	16.4
2025-01-17 12:27:17.486959	317.6	32.7	-89.5	11.8
2025-01-17 12:27:18.636368	317.2	32.6	-89.7	12.1
2025-01-17 12:27:19.783894	316.8	32.6	-89.7	16.9
2025-01-17 12:27:20.930755	316.4	32.5	-89.9	11.5
2025-01-17 12:27:22.077343	316.0	32.4	-89.6	9.2
2025-01-17 12:27:23.227515	315.5	32.4	-90.3	14.1
2025-01-17 12:27:24.376547	315.1	32.3	-90.6	13.1
2025-01-17 12:27:25.527463	314.7	32.3	-90.3	10.5
2025-01-17 12:27:26.678260	314.3	32.2	-90.6	11.2
2025-01-17 12:27:27.819144	314.0	32.2	-90.9	9.7
2025-01-17 12:27:28.969490	313.6	32.1	-90.5	9.6
2025-01-17 12:27:30.118809	313.2	32.0	-90.7	8.8
2025-01-17 12:27:31.264526	312.8	32.0	-90.9	14.0
2025-01-17 12:27:32.410799	312.4	31.9	-89.6	10.1
2025-01-17 12:27:33.556227	312.0	31.8	-90.2	9.3
2025-01-17 12:27:34.705178	311.6	31.8	-90.2	12.2
2025-01-17 12:27:35.858898	311.2	31.7	-90.3	12.2
2025-01-17 12:27:37.006442	310.8	31.6	-90.4	7.3
2025-01-17 12:27:38.157064	310.4	31.5	-89.4	13.0
2025-01-17 12:27:39.305502	310.1	31.5	-89.9	11.0
2025-01-17 12:27:40.457623	309.7	31.4	-90.4	8.9
2025-01-17 12:27:41.602156	309.3	31.3	-89.9	9.2
2025-01-17 12:27:42.750270	308.9	31.2	-89.9	12.8
2025-01-17 12:27:43.894169	308.6	31.2	-90.6	11.6
2025-01-17 12:27:45.041632	308.2	31.1	-90.5	9.4
2025-01-17 12:27:46.190901	307.8	31.0	-90.7	9.9
2025-01-17 12:27:47.334603	307.5	30.9	-90.4	13.6
2025-01-17 12:27:48.478408	307.1	30.8	-90.2	9.6
2025-01-17 12:27:49.630729	306.7	30.7	-90.0	10.2
2025-01-17 12:27:50.775195	306.4	30.7	-90.0	12.9
2025-01-17 12:27:51.922121	306.0	30.6	-89.8	9.6
2025-01-17 12:27:53.077847	305.6	30.5	-90.4	11.9
2025-01-17 12:27:54.227785	305.3	30.4	-90.4	14.8
2025-01-17 12:27:55.373528	304.9	30.3	-90.7	13.3
2025-01-17 12:27:56.521713	304.6	30.2	-90.5	10.6
2025-01-17 12:27:57.676633	304.2	30.1	-90.7	12.7
2025-01-17 12:27:58.821262	303.9	30.0	-90.6	12.0
2025-01-17 12:27:59.967470	303.5	29.9	-91.0	16.7
2025-01-17 12:28:01.115797	303.2	29.8	-90.1	17.4
2025-01-17 12:28:02.260696	302.8	29.7	-90.6	15.5
2025-01-17 12:28:03.405293	302.5	29.6	-90.9	18.0
2025-01-17 12:28:04.563052	302.2	29.5	-90.8	11.8
2025-01-17 12:28:05.708679	301.8	29.4	-90.5	15.4
2025-01-17 12:28:06.854967	301.5	29.3	-90.6	16.4
2025-01-17 12:28:08.000884	301.2	29.2	-90.3	15.5
2025-01-17 12:28:09.144800	300.8	29.1	-90.6	14.7
2025-01-17 12:28:10.296098	300.5	29.0	-90.6	16.4
2025-01-17 12:28:11.443656	300.2	28.9	-90.5	9.6
2025-01-17 12:28:12.590178	299.9	28.8	-90.3	8.8
2025-01-17 12:28:13.744661	299.5	28.7	-90.2	14.5
2025-01-17 12:28:14.888180	299.2	28.6	-90.3	10.2
2025-01-17 12:28:16.035205	298.9	28.5	-90.3	8.3
2025-01-17 12:28:17.176427	298.6	28.4	-90.6	9.7
2025-01-17 12:28:18.319942	298.3	28.3	-90.1	12.7
2025-01-17 12:28:19.470515	298.0	28.2	-90.7	11.2
2025-01-17 12:28:20.616749	297.6	28.1	-90.5	7.4
2025-01-17 12:28:21.760682	297.3	28.0	-90.7	9.0
2025-01-17 12:28:22.912424	297.0	27.9	-90.9	7.5
2025-01-17 12:28:24.059296	296.7	27.8	-90.6	6.3
2025-01-17 12:28:25.200808	296.4	27.7	-90.7	11.5
2025-01-17 12:28:26.352150	296.1	27.6	-90.7	9.6
2025-01-17 12:28:27.494516	295.8	27.5	-90.7	8.7
2025-01-17 12:28:28.638619	295.5	27.3	-90.9	7.8
2025-01-17 12:28:29.782717	295.2	27.2	-90.4	6.4
2025-01-17 12:28:30.926626	295.0	27.1	-90.4	6.7
2025-01-17 12:28:32.074929	294.7	27.0	-90.3	7.3
2025-01-17 12:28:33.219672	294.4	26.9	-89.9	8.8
2025-01-17 12:28:34.370603	294.1	26.8	-90.5	8.8
2025-01-17 12:28:35.517255	293.8	26.7	-90.5	7.0
2025-01-17 12:28:36.668491	293.5	26.6	-90.7	10.4
2025-01-17 12:28:37.820906	293.2	26.5	-90.8	11.8
2025-01-17 12:28:38.968674	293.0	26.3	-90.7	5.4
2025-01-17 12:28:40.118142	292.7	26.2	-90.6	8.9
2025-01-17 12:28:41.260790	292.4	26.1	-90.5	10.5
2025-01-17 12:28:42.406010	292.2	26.0	-91.1	11.6
2025-01-17 12:28:43.548344	291.9	25.9	-90.4	11.5
2025-01-17 12:28:44.695520	291.6	25.8	-90.5	11.5
2025-01-17 12:28:45.846451	291.4	25.7	-90.5	11.7
2025-01-17 12:28:46.998098	291.1	25.5	-90.6	12.2
2025-01-17 12:28:48.140853	290.8	25.4	-90.4	15.2
2025-01-17 12:28:49.294862	290.6	25.3	-90.1	13.1
2025-01-17 12:28:50.441342	290.3	25.2	-90.3	17.3
2025-01-17 12:28:51.588258	290.1	25.1	-90.8	10.1
2025-01-17 12:28:52.730735	289.8	25.0	-90.3	10.9
2025-01-17 12:28:53.878471	289.5	24.9	-90.6	9.2
2025-01-17 12:28:55.028123	289.3	24.7	-90.7	11.4
2025-01-17 12:28:56.170920	289.0	24.6	-90.1	12.8
2025-01-17 12:28:57.319177	288.8	24.5	-90.8	7.6
2025-01-17 12:28:58.467789	288.6	24.4	-90.7	9.6
2025-01-17 12:28:59.616766	288.3	24.3	-90.3	8.5
2025-01-17 12:29:00.766410	288.1	24.2	-90.6	12.8
2025-01-17 12:29:01.908779	287.8	24.0	-90.7	9.1
2025-01-17 12:29:03.065915	287.6	23.9	-90.0	6.9
2025-01-17 12:29:04.214328	287.4	23.8	-90.4	9.4
2025-01-17 12:29:05.367202	287.1	23.7	-90.3	8.2
2025-01-17 12:29:06.514650	286.9	23.6	-90.6	9.0
2025-01-17 12:29:07.665930	286.7	23.5	-90.4	6.9
2025-01-17 12:29:08.814566	286.4	23.3	-90.5	9.3
2025-01-17 12:29:09.961191	286.2	23.2	-90.7	7.3
2025-01-17 12:29:11.111201	286.0	23.1	-90.7	7.4
2025-01-17 12:29:12.262641	285.7	23.0	-91.0	10.3
2025-01-17 12:29:13.412168	285.5	22.9	-90.6	8.5
2025-01-17 12:29:14.559188	285.3	22.8	-90.5	10.7
2025-01-17 12:29:15.707333	285.1	22.6	-91.0	9.2
2025-01-17 12:29:16.858846	284.9	22.5	-90.6	9.7
2025-01-17 12:29:18.002965	284.7	22.4	-90.7	9.1
2025-01-17 12:29:19.156021	284.4	22.3	-91.0	8.5
2025-01-17 12:29:20.305145	284.2	22.2	-90.7	6.4
2025-01-17 12:29:21.453011	284.0	22.1	-91.0	6.7
2025-01-17 12:29:22.594773	283.8	22.0	-90.8	6.5
2025-01-17 12:29:23.746999	283.6	21.8	-90.7	7.3
2025-01-17 12:29:24.896817	283.4	21.7	-90.8	11.2
2025-01-17 12:29:26.045450	283.2	21.6	-90.2	7.0
2025-01-17 12:29:27.191864	283.0	21.5	-90.7	8.7
2025-01-17 12:29:28.344939	282.8	21.4	-90.8	13.6
2025-01-17 12:29:29.493939	282.6	21.3	-90.7	8.8
2025-01-17 12:29:30.648454	282.4	21.1	-90.4	8.0
2025-01-17 12:29:31.793480	282.2	21.0	-90.4	9.2
2025-01-17 12:29:32.942802	282.0	20.9	-90.7	9.2
2025-01-17 12:29:34.089096	281.8	20.8	-90.1	8.7
2025-01-17 12:29:35.233467	281.6	20.7	-90.6	7.7
2025-01-17 12:29:36.380925	281.4	20.6	-90.7	11.4
2025-01-17 12:29:37.528499	281.2	20.5	-90.6	12.3
2025-01-17 12:29:38.675467	281.0	20.3	-90.5	6.6
2025-01-17 12:29:39.822783	280.8	20.2	-90.4	5.9
2025-01-17 12:29:40.968851	280.7	20.1	-90.6	7.5
2025-01-17 12:29:42.111995	280.5	20.0	-90.3	6.7
2025-01-17 12:29:43.258973	280.3	19.9	-90.5	9.2
2025-01-17 12:29:44.409641	280.1	19.8	-90.6	10.0
2025-01-17 12:29:45.562909	279.9	19.7	-90.4	8.8
2025-01-17 12:29:46.708690	279.7	19.6	-90.6	5.9
2025-01-17 12:29:47.853768	279.6	19.4	-90.6	9.5
2025-01-17 12:29:49.002323	279.4	19.3	-90.6	7.0
2025-01-17 12:29:50.155828	279.2	19.2	-90.4	6.8
2025-01-17 12:29:51.299951	279.0	19.1	-90.9	9.3
2025-01-17 12:29:52.457662	278.9	19.0	-90.7	13.0
2025-01-17 12:29:53.605864	278.7	18.9	-90.7	6.2
2025-01-17 12:29:54.748658	278.5	18.8	-90.5	13.6
2025-01-17 12:29:55.899557	278.4	18.7	-90.5	9.0
2025-01-17 12:29:57.046383	278.2	18.6	-90.7	6.5
2025-01-17 12:29:58.193457	278.0	18.4	-90.4	7.5
2025-01-17 12:29:59.337517	277.9	18.3	-91.0	5.6
2025-01-17 12:30:00.479989	277.7	18.2	-90.9	6.7
2025-01-17 12:30:01.628262	277.5	18.1	-90.6	6.1
2025-01-17 12:30:02.772234	277.4	18.0	-90.8	8.8
2025-01-17 12:30:03.921047	277.2	17.9	-90.9	4.2
2025-01-17 12:30:05.066113	277.1	17.8	-90.5	6.8
2025-01-17 12:30:06.215095	276.9	17.7	-90.3	8.5
2025-01-17 12:30:07.361451	276.7	17.6	-91.0	6.9
2025-01-17 12:30:08.512163	276.6	17.5	-90.7	6.4
2025-01-17 12:30:09.661581	276.4	17.4	-90.7	6.2
2025-01-17 12:30:10.810435	276.3	17.3	-91.0	6.3
2025-01-17 12:30:11.957464	276.1	17.1	-90.2	8.6
2025-01-17 12:30:13.104377	276.0	17.0	-90.4	7.9
2025-01-17 12:30:14.250291	275.8	16.9	-90.7	6.5
2025-01-17 12:30:15.406592	275.7	16.8	-90.7	8.4
2025-01-17 12:30:16.553363	275.5	16.7	-90.5	6.7
2025-01-17 12:30:17.697306	275.4	16.6	-89.8	6.5
2025-01-17 12:30:18.843381	275.2	16.5	-89.5	8.1
2025-01-17 12:30:20.005424	275.1	16.4	-90.0	7.8
2025-01-17 12:30:21.151818	274.9	16.3	-89.4	5.6
2025-01-17 12:30:22.294656	274.8	16.2	-89.9	8.8
2025-01-17 12:30:23.445919	274.6	16.1	-90.2	8.2
2025-01-17 12:30:24.594454	274.5	16.0	-90.6	6.1
2025-01-17 12:30:25.741898	274.4	15.9	-90.3	11.1
2025-01-17 12:30:26.884690	274.2	15.8	-89.8	7.4
2025-01-17 12:30:28.033423	274.1	15.7	-89.6	10.0
2025-01-17 12:30:29.182903	274.0	15.6	-89.5	10.2
2025-01-17 12:30:30.324729	273.8	15.5	-90.4	9.3
2025-01-17 12:30:31.470765	273.7	15.4	-89.8	10.4
2025-01-17 12:30:32.623270	273.5	15.3	-89.9	10.0
2025-01-17 12:30:33.775446	273.4	15.2	-90.0	10.3
2025-01-17 12:30:34.922543	273.3	15.1	-90.9	8.9
2025-01-17 12:30:36.066755	273.2	15.0	-90.6	4.6
2025-01-17 12:30:37.218247	273.0	14.9	-90.5	4.6
2025-01-17 12:30:38.363288	272.9	14.8	-89.9	8.0
2025-01-17 12:30:39.508668	272.8	14.7	-90.1	8.6
2025-01-17 12:30:40.662772	272.6	14.5	-89.8	4.6
#Closed at: 2025-01-17 12:22:58.855510