passes_logs/2025/01/17/LEX_Murmansk/LEX_Murmansk__20250117_065613_NOAA_19_rec.log

#Pass ID: 20250117_065613_NOAA 19
#Satellite: NOAA 19
#Configuration: NOAA 19
#Start time: 2025-01-17 06:56:08.400178

#LorettStation: 1.0.0 05.05.2024
#Station: LEX_Murmansk
#Location: 33.156738 lon 68.926811 lat
#TLE: 1 33591U 09005A   25016.13687281  .00000278  00000+0  17226-3 0  9992
#TLE: 2 33591  99.0193  79.9081 0014432  54.5182 305.7334 14.13260212821702

#Time	Az	El	Level	SNR
2025-01-17 06:56:20.531260	38.7	16.0	-90.9	3.4
2025-01-17 06:56:21.698566	38.9	16.1	-91.0	2.9
2025-01-17 06:56:22.852241	39.0	16.2	-90.9	2.0
2025-01-17 06:56:24.006218	39.2	16.3	-91.1	3.4
2025-01-17 06:56:25.162834	39.4	16.4	-90.9	2.6
2025-01-17 06:56:26.320266	39.5	16.4	-90.9	3.5
2025-01-17 06:56:27.474933	39.7	16.5	-91.2	4.8
2025-01-17 06:56:28.625983	39.9	16.6	-91.1	3.2
2025-01-17 06:56:29.773852	40.1	16.7	-90.8	1.2
2025-01-17 06:56:30.924919	40.2	16.8	-91.2	2.3
2025-01-17 06:56:32.078504	40.4	16.9	-90.8	1.2
2025-01-17 06:56:33.231125	40.6	17.0	-91.2	2.4
2025-01-17 06:56:34.385046	40.8	17.1	-91.3	2.1
2025-01-17 06:56:35.536187	40.9	17.2	-90.8	1.0
2025-01-17 06:56:36.685065	41.1	17.3	-91.1	3.9
2025-01-17 06:56:37.834865	41.3	17.4	-91.1	1.3
2025-01-17 06:56:38.983145	41.5	17.5	-91.1	4.2
2025-01-17 06:56:40.132728	41.7	17.6	-91.2	6.4
2025-01-17 06:56:41.284681	41.9	17.7	-90.8	3.5
2025-01-17 06:56:42.438754	42.0	17.8	-91.1	2.7
2025-01-17 06:56:43.593520	42.2	17.9	-91.4	2.2
2025-01-17 06:56:44.745194	42.4	18.0	-91.4	1.2
2025-01-17 06:56:45.893895	42.6	18.1	-90.9	2.4
2025-01-17 06:56:47.049304	42.8	18.2	-90.6	2.8
2025-01-17 06:56:48.206462	43.0	18.3	-90.1	1.4
2025-01-17 06:56:49.357057	43.2	18.4	-91.1	6.0
2025-01-17 06:56:50.507804	43.4	18.4	-91.1	6.2
2025-01-17 06:56:51.662625	43.6	18.5	-91.6	4.3
2025-01-17 06:56:52.809834	43.8	18.6	-90.9	4.1
2025-01-17 06:56:53.964115	44.0	18.7	-91.4	5.1
2025-01-17 06:56:55.119251	44.2	18.8	-91.3	8.1
2025-01-17 06:56:56.279027	44.4	18.9	-91.2	3.4
2025-01-17 06:56:57.435851	44.6	19.0	-91.2	7.4
2025-01-17 06:56:58.585529	44.8	19.1	-91.2	7.3
2025-01-17 06:56:59.743501	45.0	19.2	-91.5	11.4
2025-01-17 06:57:00.893781	45.2	19.3	-91.6	11.0
2025-01-17 06:57:02.046541	45.4	19.4	-91.2	7.2
2025-01-17 06:57:03.203315	45.6	19.5	-91.3	3.1
2025-01-17 06:57:04.354009	45.8	19.6	-91.2	3.6
2025-01-17 06:57:05.510516	46.0	19.7	-91.3	2.7
2025-01-17 06:57:06.663137	46.3	19.8	-91.3	2.1
2025-01-17 06:57:07.812066	46.5	19.9	-91.5	2.6
2025-01-17 06:57:08.940090	46.7	20.0	-91.2	5.7
2025-01-17 06:57:10.060039	46.9	20.1	-91.5	8.6
2025-01-17 06:57:11.183579	47.1	20.2	-91.4	8.6
2025-01-17 06:57:12.303702	47.3	20.3	-91.3	11.4
2025-01-17 06:57:13.424386	47.5	20.4	-91.5	9.2
2025-01-17 06:57:14.544991	47.7	20.5	-91.1	9.1
2025-01-17 06:57:15.665144	48.0	20.5	-91.4	8.6
2025-01-17 06:57:16.789463	48.2	20.6	-90.7	2.9
2025-01-17 06:57:17.919520	48.4	20.7	-90.4	6.3
2025-01-17 06:57:19.063202	48.6	20.8	-90.6	4.5
2025-01-17 06:57:20.219266	48.8	20.9	-91.0	8.3
2025-01-17 06:57:21.373860	49.1	21.0	-91.2	7.7
2025-01-17 06:57:22.526827	49.3	21.1	-91.3	11.1
2025-01-17 06:57:23.679555	49.5	21.2	-91.1	11.2
2025-01-17 06:57:24.836967	49.8	21.3	-90.9	7.0
2025-01-17 06:57:25.984634	50.0	21.4	-91.1	6.9
2025-01-17 06:57:27.142923	50.2	21.5	-91.1	1.4
2025-01-17 06:57:28.301677	50.5	21.6	-91.3	3.4
2025-01-17 06:57:29.453147	50.7	21.7	-91.5	3.1
2025-01-17 06:57:30.614164	51.0	21.8	-91.4	6.7
2025-01-17 06:57:31.768084	51.2	21.9	-91.3	3.0
2025-01-17 06:57:32.912691	51.4	22.0	-91.2	6.4
2025-01-17 06:57:34.065305	51.7	22.1	-90.9	6.9
2025-01-17 06:57:35.220616	51.9	22.2	-90.7	11.9
2025-01-17 06:57:36.375693	52.2	22.3	-90.6	10.6
2025-01-17 06:57:37.529996	52.4	22.4	-90.8	9.0
2025-01-17 06:57:38.680962	52.7	22.4	-91.2	7.3
2025-01-17 06:57:39.833985	52.9	22.5	-91.2	5.5
2025-01-17 06:57:40.983332	53.2	22.6	-91.4	8.4
2025-01-17 06:57:42.131376	53.4	22.7	-91.5	7.7
2025-01-17 06:57:43.285140	53.7	22.8	-91.5	7.7
2025-01-17 06:57:44.433200	54.0	22.9	-91.2	11.2
2025-01-17 06:57:45.585187	54.2	23.0	-91.6	13.0
2025-01-17 06:57:46.743733	54.5	23.1	-91.0	7.4
2025-01-17 06:57:47.896817	54.7	23.2	-91.2	5.9
2025-01-17 06:57:49.044786	55.0	23.3	-90.9	11.0
2025-01-17 06:57:50.199146	55.3	23.4	-90.8	4.6
2025-01-17 06:57:51.350832	55.5	23.5	-90.4	2.4
2025-01-17 06:57:52.509590	55.8	23.5	-90.7	3.5
2025-01-17 06:57:53.662296	56.1	23.6	-90.9	2.8
2025-01-17 06:57:54.819609	56.4	23.7	-90.8	4.0
2025-01-17 06:57:55.974248	56.6	23.8	-91.2	4.6
2025-01-17 06:57:57.130431	56.9	23.9	-91.1	7.1
2025-01-17 06:57:58.283870	57.2	24.0	-91.3	7.5
2025-01-17 06:57:59.436249	57.5	24.1	-91.7	11.0
2025-01-17 06:58:00.590075	57.7	24.2	-91.3	9.7
2025-01-17 06:58:01.736323	58.0	24.3	-91.3	15.9
2025-01-17 06:58:02.888465	58.3	24.3	-91.7	9.1
2025-01-17 06:58:04.044774	58.6	24.4	-91.5	8.6
2025-01-17 06:58:05.198302	58.9	24.5	-91.5	7.3
2025-01-17 06:58:06.348824	59.2	24.6	-91.4	5.7
2025-01-17 06:58:07.502334	59.4	24.7	-91.4	7.1
2025-01-17 06:58:08.658340	59.7	24.8	-91.4	4.2
2025-01-17 06:58:09.811930	60.0	24.9	-91.3	7.9
2025-01-17 06:58:10.960468	60.3	24.9	-91.7	8.9
2025-01-17 06:58:12.118288	60.6	25.0	-91.5	12.4
2025-01-17 06:58:13.273470	60.9	25.1	-91.3	13.0
2025-01-17 06:58:14.430648	61.2	25.2	-91.6	13.1
2025-01-17 06:58:15.583020	61.5	25.3	-91.3	9.3
2025-01-17 06:58:16.731746	61.8	25.4	-91.3	6.1
2025-01-17 06:58:17.888017	62.1	25.4	-91.4	5.6
2025-01-17 06:58:19.035534	62.4	25.5	-91.5	3.2
2025-01-17 06:58:20.192132	62.7	25.6	-91.6	2.9
2025-01-17 06:58:21.340610	63.0	25.7	-91.5	0.9
2025-01-17 06:58:22.498000	63.3	25.7	-91.4	2.1
2025-01-17 06:58:23.645285	63.6	25.8	-91.6	3.3
2025-01-17 06:58:24.799718	63.9	25.9	-91.6	2.8
2025-01-17 06:58:25.959092	64.3	26.0	-91.6	2.8
2025-01-17 06:58:27.103004	64.6	26.1	-91.5	4.2
2025-01-17 06:58:28.256579	64.9	26.1	-91.7	2.6
2025-01-17 06:58:29.403251	65.2	26.2	-90.9	8.0
2025-01-17 06:58:30.561698	65.5	26.3	-91.5	8.9
2025-01-17 06:58:31.714030	65.8	26.3	-91.3	3.8
2025-01-17 06:58:32.871855	66.2	26.4	-91.5	5.5
2025-01-17 06:58:34.023916	66.5	26.5	-90.8	5.9
2025-01-17 06:58:35.178685	66.8	26.6	-90.9	2.2
2025-01-17 06:58:36.333375	67.1	26.6	-91.1	1.9
2025-01-17 06:58:37.491716	67.5	26.7	-90.8	2.7
2025-01-17 06:58:38.636825	67.8	26.8	-90.8	2.6
2025-01-17 06:58:39.785216	68.1	26.8	-91.1	1.6
2025-01-17 06:58:40.942445	68.4	26.9	-91.8	3.1
2025-01-17 06:58:42.092322	68.8	27.0	-91.2	3.0
2025-01-17 06:58:43.242130	69.1	27.0	-91.7	4.6
2025-01-17 06:58:44.402241	69.4	27.1	-91.6	3.3
2025-01-17 06:58:45.561002	69.8	27.2	-90.9	4.5
2025-01-17 06:58:46.720868	70.1	27.2	-90.7	4.6
2025-01-17 06:58:47.872855	70.5	27.3	-91.0	3.4
2025-01-17 06:58:49.031373	70.8	27.3	-91.1	3.8
2025-01-17 06:58:50.186243	71.1	27.4	-91.2	1.5
2025-01-17 06:58:51.343339	71.5	27.5	-91.2	1.2
2025-01-17 06:58:52.500418	71.8	27.5	-91.6	2.5
2025-01-17 06:58:53.651254	72.2	27.6	-91.4	0.9
2025-01-17 06:58:54.803930	72.5	27.6	-90.9	3.0
2025-01-17 06:58:55.961659	72.9	27.7	-90.8	1.9
2025-01-17 06:58:57.121869	73.2	27.7	-90.9	3.6
2025-01-17 06:58:58.282372	73.6	27.8	-90.7	2.1
2025-01-17 06:58:59.436529	73.9	27.8	-91.3	2.6
2025-01-17 06:59:00.580830	74.3	27.9	-90.7	2.8
2025-01-17 06:59:01.730086	74.6	27.9	-91.0	4.4
2025-01-17 06:59:02.879311	75.0	28.0	-90.7	5.3
2025-01-17 06:59:04.032793	75.3	28.0	-90.9	6.6
2025-01-17 06:59:05.184178	75.7	28.1	-90.8	10.4
2025-01-17 06:59:06.332073	76.0	28.1	-91.1	7.3
2025-01-17 06:59:07.484829	76.4	28.2	-91.2	12.5
2025-01-17 06:59:08.634252	76.8	28.2	-90.8	9.1
2025-01-17 06:59:09.781586	77.1	28.2	-91.1	10.1
2025-01-17 06:59:10.933351	77.5	28.3	-91.2	7.6
2025-01-17 06:59:12.084749	77.8	28.3	-91.2	9.1
2025-01-17 06:59:13.237581	78.2	28.4	-91.0	5.7
2025-01-17 06:59:14.388186	78.6	28.4	-90.8	8.1
2025-01-17 06:59:15.558294	78.9	28.4	-91.0	6.0
2025-01-17 06:59:16.707415	79.3	28.5	-90.6	3.8
2025-01-17 06:59:17.866674	79.7	28.5	-90.8	6.0
2025-01-17 06:59:19.023498	80.0	28.5	-90.7	7.6
2025-01-17 06:59:20.176139	80.4	28.6	-90.4	7.4
2025-01-17 06:59:21.324699	80.8	28.6	-91.4	6.6
2025-01-17 06:59:22.481243	81.1	28.6	-91.3	9.7
2025-01-17 06:59:23.642721	81.5	28.6	-91.1	11.3
2025-01-17 06:59:24.798819	81.9	28.7	-91.3	11.3
2025-01-17 06:59:25.954651	82.2	28.7	-91.1	15.7
2025-01-17 06:59:27.114523	82.6	28.7	-91.4	14.6
2025-01-17 06:59:28.272644	83.0	28.7	-91.1	16.6
2025-01-17 06:59:29.444016	83.4	28.8	-91.6	16.5
2025-01-17 06:59:30.592216	83.7	28.8	-90.6	12.2
2025-01-17 06:59:31.743739	84.1	28.8	-90.9	13.7
2025-01-17 06:59:32.899157	84.5	28.8	-91.0	11.7
2025-01-17 06:59:34.060843	84.8	28.8	-90.8	12.9
2025-01-17 06:59:35.220229	85.2	28.9	-90.6	8.9
2025-01-17 06:59:36.378282	85.6	28.9	-90.8	10.1
2025-01-17 06:59:37.525603	86.0	28.9	-91.3	7.5
2025-01-17 06:59:38.686337	86.3	28.9	-91.6	7.1
2025-01-17 06:59:39.833139	86.7	28.9	-91.5	5.7
2025-01-17 06:59:40.997814	87.1	28.9	-91.7	5.8
2025-01-17 06:59:42.148837	87.5	28.9	-91.4	4.4
2025-01-17 06:59:43.296664	87.8	28.9	-91.1	4.1
2025-01-17 06:59:44.446548	88.2	28.9	-91.3	5.0
2025-01-17 06:59:45.598307	88.6	28.9	-91.7	5.1
2025-01-17 06:59:46.761607	89.0	28.9	-91.5	4.5
2025-01-17 06:59:47.909778	89.3	28.9	-91.5	5.1
2025-01-17 06:59:49.060895	89.7	28.9	-91.5	4.5
2025-01-17 06:59:50.217227	90.1	28.9	-91.0	3.7
2025-01-17 06:59:51.370240	90.5	28.9	-91.3	6.3
2025-01-17 06:59:52.530107	90.8	28.9	-91.1	7.5
2025-01-17 06:59:53.679892	91.2	28.9	-91.3	6.4
2025-01-17 06:59:54.832114	91.6	28.9	-91.3	5.7
2025-01-17 06:59:55.990240	92.0	28.9	-91.6	8.8
2025-01-17 06:59:57.142006	92.3	28.9	-91.5	7.4
2025-01-17 06:59:58.302543	92.7	28.9	-91.3	7.2
2025-01-17 06:59:59.454829	93.1	28.9	-91.5	10.5
2025-01-17 07:00:00.608676	93.5	28.8	-90.9	8.8
2025-01-17 07:00:01.762087	93.8	28.8	-90.8	8.3
2025-01-17 07:00:02.917546	94.2	28.8	-91.0	11.0
2025-01-17 07:00:04.067329	94.6	28.8	-90.6	10.1
2025-01-17 07:00:05.212455	94.9	28.8	-90.5	7.9
2025-01-17 07:00:06.370334	95.3	28.7	-90.7	7.6
2025-01-17 07:00:07.524110	95.7	28.7	-90.8	11.2
2025-01-17 07:00:08.686364	96.1	28.7	-90.6	12.6
2025-01-17 07:00:09.837013	96.4	28.7	-90.6	10.8
2025-01-17 07:00:10.996849	96.8	28.6	-90.7	10.3
2025-01-17 07:00:12.147149	97.2	28.6	-90.9	8.4
2025-01-17 07:00:13.300147	97.5	28.6	-91.0	9.6
2025-01-17 07:00:14.446110	97.9	28.6	-90.9	7.7
2025-01-17 07:00:15.593291	98.3	28.5	-90.5	7.8
2025-01-17 07:00:16.743121	98.6	28.5	-91.2	10.6
2025-01-17 07:00:17.900049	99.0	28.5	-91.0	11.6
2025-01-17 07:00:19.057888	99.4	28.4	-91.2	9.2
2025-01-17 07:00:20.204135	99.7	28.4	-90.5	8.9
2025-01-17 07:00:21.368663	100.1	28.4	-90.6	7.1
2025-01-17 07:00:22.524647	100.5	28.3	-90.7	6.9
2025-01-17 07:00:23.689040	100.8	28.3	-90.7	9.2
2025-01-17 07:00:24.844015	101.2	28.2	-90.0	7.0
2025-01-17 07:00:25.993133	101.5	28.2	-90.8	8.2
2025-01-17 07:00:27.153614	101.9	28.2	-90.6	4.2
2025-01-17 07:00:28.304184	102.3	28.1	-90.5	3.8
2025-01-17 07:00:29.453831	102.6	28.1	-90.7	5.2
2025-01-17 07:00:30.605354	103.0	28.0	-91.4	6.6
2025-01-17 07:00:31.765842	103.3	28.0	-91.6	9.7
2025-01-17 07:00:32.921989	103.7	27.9	-91.2	4.8
2025-01-17 07:00:34.067707	104.0	27.9	-91.2	6.7
2025-01-17 07:00:35.218318	104.4	27.8	-91.2	6.2
2025-01-17 07:00:36.371675	104.7	27.8	-90.8	9.0
2025-01-17 07:00:37.518732	105.1	27.7	-90.8	9.1
2025-01-17 07:00:38.676793	105.4	27.7	-91.0	9.1
2025-01-17 07:00:39.830455	105.8	27.6	-90.5	7.1
2025-01-17 07:00:40.983338	106.1	27.6	-90.6	6.4
2025-01-17 07:00:42.141991	106.5	27.5	-90.9	6.6
2025-01-17 07:00:43.297239	106.8	27.5	-91.4	3.8
2025-01-17 07:00:44.451710	107.1	27.4	-91.8	4.6
2025-01-17 07:00:45.608820	107.5	27.3	-91.7	5.7
2025-01-17 07:00:46.759050	107.8	27.3	-91.9	9.7
2025-01-17 07:00:47.911861	108.2	27.2	-91.7	8.9
2025-01-17 07:00:49.061148	108.5	27.2	-91.4	8.1
2025-01-17 07:00:50.207705	108.8	27.1	-91.4	5.5
2025-01-17 07:00:51.363019	109.2	27.0	-91.7	4.5
2025-01-17 07:00:52.510641	109.5	27.0	-91.6	4.5
2025-01-17 07:00:53.664251	109.8	26.9	-91.9	7.2
2025-01-17 07:00:54.817470	110.2	26.8	-91.6	8.3
2025-01-17 07:00:55.975834	110.5	26.8	-91.5	5.5
2025-01-17 07:00:57.127162	110.8	26.7	-91.7	3.0
2025-01-17 07:00:58.279613	111.1	26.6	-91.0	4.2
2025-01-17 07:00:59.434634	111.5	26.6	-91.1	3.4
2025-01-17 07:01:00.580358	111.8	26.5	-91.0	3.6
2025-01-17 07:01:01.841255	112.1	26.4	-90.9	2.8
2025-01-17 07:01:02.991975	112.5	26.3	-91.1	2.0
2025-01-17 07:01:04.141693	112.8	26.3	-91.0	3.9
2025-01-17 07:01:05.295553	113.1	26.2	-91.2	1.4
2025-01-17 07:01:06.455271	113.4	26.1	-90.8	3.2
2025-01-17 07:01:07.607965	113.7	26.0	-90.9	1.5
2025-01-17 07:01:08.766550	114.1	26.0	-90.6	5.4
2025-01-17 07:01:09.921629	114.4	25.9	-90.8	9.3
2025-01-17 07:01:11.070477	114.7	25.8	-90.7	9.0
2025-01-17 07:01:12.225504	115.0	25.7	-90.6	9.0
2025-01-17 07:01:13.382965	115.3	25.7	-91.4	9.4
2025-01-17 07:01:14.528898	115.6	25.6	-91.4	10.0
2025-01-17 07:01:15.673864	115.9	25.5	-91.4	10.2
2025-01-17 07:01:16.828409	116.2	25.4	-91.7	11.1
2025-01-17 07:01:17.973788	116.5	25.3	-91.3	6.4
2025-01-17 07:01:19.124166	116.8	25.3	-91.2	6.5
2025-01-17 07:01:20.284572	117.1	25.2	-91.4	10.4
2025-01-17 07:01:21.448296	117.4	25.1	-90.9	6.7
2025-01-17 07:01:22.600679	117.7	25.0	-90.8	5.7
2025-01-17 07:01:23.756818	118.0	24.9	-91.0	8.4
2025-01-17 07:01:24.910138	118.3	24.8	-91.1	6.2
2025-01-17 07:01:26.064059	118.6	24.8	-91.4	6.0
2025-01-17 07:01:27.215902	118.9	24.7	-91.0	8.3
2025-01-17 07:01:28.378142	119.2	24.6	-91.5	5.4
2025-01-17 07:01:29.533097	119.4	24.5	-91.7	5.3
2025-01-17 07:01:30.691607	119.7	24.4	-91.5	7.0
2025-01-17 07:01:31.843198	120.0	24.3	-91.3	10.4
2025-01-17 07:01:32.990350	120.3	24.2	-91.5	6.7
2025-01-17 07:01:34.143439	120.6	24.2	-91.8	8.1
2025-01-17 07:01:35.298105	120.9	24.1	-91.6	10.1
2025-01-17 07:01:36.457162	121.1	24.0	-91.6	6.1
2025-01-17 07:01:37.620113	121.4	23.9	-91.3	6.7
2025-01-17 07:01:38.777021	121.7	23.8	-91.4	10.1
2025-01-17 07:01:39.929346	122.0	23.7	-90.9	6.9
2025-01-17 07:01:41.090258	122.2	23.6	-91.2	6.9
2025-01-17 07:01:42.248838	122.5	23.5	-91.1	11.6
2025-01-17 07:01:43.402681	122.8	23.4	-90.9	7.7
2025-01-17 07:01:44.555133	123.0	23.4	-91.0	7.9
2025-01-17 07:01:45.718967	123.3	23.3	-91.4	10.2
2025-01-17 07:01:46.867865	123.6	23.2	-91.4	6.9
2025-01-17 07:01:48.022293	123.8	23.1	-91.7	6.9
2025-01-17 07:01:49.176082	124.1	23.0	-91.5	10.4
2025-01-17 07:01:50.323073	124.4	22.9	-91.5	12.0
2025-01-17 07:01:51.473896	124.6	22.8	-91.5	12.9
2025-01-17 07:01:52.622319	124.9	22.7	-91.5	11.2
2025-01-17 07:01:53.774822	125.1	22.6	-91.6	14.5
2025-01-17 07:01:54.929027	125.4	22.5	-91.5	12.5
2025-01-17 07:01:56.082936	125.6	22.4	-91.6	13.7
2025-01-17 07:01:57.233420	125.9	22.3	-91.7	12.3
2025-01-17 07:01:58.389662	126.1	22.2	-91.4	10.8
2025-01-17 07:01:59.549099	126.4	22.1	-91.5	9.7
2025-01-17 07:02:00.700848	126.6	22.1	-91.6	11.0
2025-01-17 07:02:01.853282	126.9	22.0	-91.6	10.8
2025-01-17 07:02:03.005457	127.1	21.9	-91.7	7.4
2025-01-17 07:02:04.162789	127.4	21.8	-91.4	11.4
2025-01-17 07:02:05.314177	127.6	21.7	-91.7	12.2
2025-01-17 07:02:06.470116	127.8	21.6	-91.1	6.9
2025-01-17 07:02:07.631442	128.1	21.5	-91.5	8.6
2025-01-17 07:02:08.781823	128.3	21.4	-91.4	11.4
2025-01-17 07:02:09.935258	128.5	21.3	-91.6	7.6
2025-01-17 07:02:11.089508	128.8	21.2	-91.6	6.6
2025-01-17 07:02:12.248106	129.0	21.1	-91.6	14.9
2025-01-17 07:02:13.416196	129.2	21.0	-91.3	9.5
2025-01-17 07:02:14.573888	129.5	20.9	-91.2	8.4
2025-01-17 07:02:15.729942	129.7	20.8	-91.3	12.4
2025-01-17 07:02:16.878692	129.9	20.7	-91.3	9.1
2025-01-17 07:02:18.032184	130.2	20.6	-91.6	10.8
2025-01-17 07:02:19.188832	130.4	20.5	-91.3	11.7
2025-01-17 07:02:20.347216	130.6	20.4	-91.3	12.3
2025-01-17 07:02:21.508004	130.8	20.3	-91.8	12.0
2025-01-17 07:02:22.658114	131.0	20.2	-91.2	12.1
2025-01-17 07:02:23.819207	131.3	20.1	-91.2	11.3
2025-01-17 07:02:24.973087	131.5	20.0	-91.4	11.0
2025-01-17 07:02:26.136990	131.7	19.9	-91.4	10.7
2025-01-17 07:02:27.295668	131.9	19.8	-91.1	10.8
2025-01-17 07:02:28.451801	132.1	19.7	-91.1	10.0
2025-01-17 07:02:29.607244	132.3	19.6	-91.6	7.7
2025-01-17 07:02:30.765210	132.5	19.6	-91.5	12.1
2025-01-17 07:02:31.915498	132.8	19.5	-91.7	7.3
2025-01-17 07:02:33.064891	133.0	19.4	-91.5	8.1
2025-01-17 07:02:34.215423	133.2	19.3	-91.9	12.4
2025-01-17 07:02:35.376281	133.4	19.2	-91.6	7.3
2025-01-17 07:02:36.533567	133.6	19.1	-91.2	6.6
2025-01-17 07:02:37.678042	133.8	19.0	-91.4	9.8
2025-01-17 07:02:38.847058	134.0	18.9	-91.4	8.7
2025-01-17 07:02:39.995074	134.2	18.8	-91.3	7.7
2025-01-17 07:02:41.147627	134.4	18.7	-91.3	8.9
2025-01-17 07:02:42.302644	134.6	18.6	-91.5	9.9
2025-01-17 07:02:43.455555	134.8	18.5	-91.5	8.7
2025-01-17 07:02:44.609511	135.0	18.4	-91.4	7.6
2025-01-17 07:02:45.764765	135.2	18.3	-91.5	8.9
2025-01-17 07:02:46.917020	135.4	18.2	-91.3	9.3
2025-01-17 07:02:48.079145	135.6	18.1	-91.0	7.2
2025-01-17 07:02:49.224679	135.7	18.0	-91.2	7.3
2025-01-17 07:02:50.375890	135.9	17.9	-91.3	7.8
2025-01-17 07:02:51.534937	136.1	17.8	-91.4	7.7
2025-01-17 07:02:52.690122	136.3	17.7	-91.3	8.7
2025-01-17 07:02:53.849484	136.5	17.6	-91.5	5.4
2025-01-17 07:02:55.006805	136.7	17.5	-91.6	4.5
2025-01-17 07:02:56.163280	136.9	17.4	-91.2	5.0
2025-01-17 07:02:57.315411	137.1	17.3	-91.4	5.5
2025-01-17 07:02:58.473202	137.2	17.2	-91.5	2.8
2025-01-17 07:02:59.628283	137.4	17.1	-91.5	4.6
2025-01-17 07:03:00.777663	137.6	17.1	-91.5	6.4
2025-01-17 07:03:01.931313	137.8	17.0	-91.6	4.6
2025-01-17 07:03:03.082648	137.9	16.9	-91.6	2.5
2025-01-17 07:03:04.222909	138.1	16.8	-91.4	5.1
2025-01-17 07:03:05.348632	138.3	16.7	-91.2	5.1
2025-01-17 07:03:06.469553	138.5	16.6	-91.5	3.3
2025-01-17 07:03:07.591914	138.6	16.5	-91.2	1.5
2025-01-17 07:03:08.712050	138.8	16.4	-91.2	3.4
2025-01-17 07:03:09.833772	139.0	16.3	-91.0	1.5
2025-01-17 07:03:10.954218	139.1	16.2	-91.2	1.8
2025-01-17 07:03:12.075205	139.3	16.1	-91.3	2.9
2025-01-17 07:03:13.199780	139.5	16.0	-91.0	3.0
2025-01-17 07:03:14.332227	139.6	15.9	-91.5	1.9
2025-01-17 07:03:15.484581	139.8	15.8	-91.6	4.2
2025-01-17 07:03:16.635984	140.0	15.8	-91.2	2.9
2025-01-17 07:03:17.798779	140.1	15.7	-90.9	2.4
2025-01-17 07:03:18.950649	140.3	15.6	-91.0	1.8
2025-01-17 07:03:20.103866	140.4	15.5	-90.6	0.8
2025-01-17 07:03:21.260808	140.6	15.4	-91.0	1.1
2025-01-17 07:03:22.416960	140.8	15.3	-90.7	1.6
2025-01-17 07:03:23.573551	140.9	15.2	-90.8	2.8
2025-01-17 07:03:24.731969	141.1	15.1	-91.6	3.8
2025-01-17 07:03:25.884491	141.2	15.0	-90.6	5.0
2025-01-17 07:03:27.041084	141.4	14.9	-90.6	5.7
2025-01-17 07:03:28.195495	141.6	14.8	-90.5	4.3
2025-01-17 07:03:29.347933	141.7	14.7	-90.7	5.7
2025-01-17 07:03:30.488576	141.9	14.6	-91.0	5.0
#Closed at: 2025-01-17 06:56:13.314010