passes_logs/2025/01/17/LEX_Murmansk/LEX_Murmansk__20250117_183700_NOAA_19_rec.log

#Pass ID: 20250117_183700_NOAA 19
#Satellite: NOAA 19
#Configuration: NOAA 19
#Start time: 2025-01-17 18:36:55.861067

#LorettStation: 1.0.0 05.05.2024
#Station: LEX_Murmansk
#Location: 33.156738 lon 68.926811 lat
#TLE: 1 33591U 09005A   25017.12803845  .00000314  00000+0  19161-3 0  9999
#TLE: 2 33591  99.0192  80.9069 0014403  51.8715 308.3753 14.13261185821848

#Time	Az	El	Level	SNR
2025-01-17 18:37:07.995039	181.0	16.3	-91.0	2.8
2025-01-17 18:37:10.320592	181.2	16.5	-90.9	2.0
2025-01-17 18:37:12.629281	181.4	16.8	-91.7	3.4
2025-01-17 18:37:14.951197	181.5	17.0	-91.2	4.5
2025-01-17 18:37:17.391066	181.7	17.3	-90.9	0.3
2025-01-17 18:37:19.720720	181.9	17.5	-91.4	1.7
2025-01-17 18:37:22.050796	182.0	17.8	-91.3	2.0
2025-01-17 18:37:24.394574	182.2	18.1	-91.3	2.8
2025-01-17 18:37:26.720219	182.4	18.3	-91.6	4.2
2025-01-17 18:37:29.054260	182.6	18.6	-91.2	5.6
2025-01-17 18:37:31.381404	182.8	18.9	-90.9	5.5
2025-01-17 18:37:33.713285	183.0	19.2	-91.6	2.3
2025-01-17 18:37:36.039893	183.1	19.4	-91.0	2.0
2025-01-17 18:37:38.370754	183.3	19.7	-91.2	2.9
2025-01-17 18:37:40.700982	183.5	20.0	-91.0	8.6
2025-01-17 18:37:43.024011	183.7	20.3	-91.4	7.6
2025-01-17 18:37:45.356213	183.9	20.6	-91.1	5.8
2025-01-17 18:37:47.682193	184.2	20.9	-91.1	7.3
2025-01-17 18:37:50.013734	184.4	21.2	-90.6	5.3
2025-01-17 18:37:52.335611	184.6	21.5	-90.8	1.4
2025-01-17 18:37:54.663274	184.8	21.8	-91.0	2.2
2025-01-17 18:37:56.977364	185.0	22.1	-91.1	9.2
2025-01-17 18:37:59.307754	185.3	22.4	-89.6	5.1
2025-01-17 18:38:01.621752	185.5	22.7	-91.6	8.7
2025-01-17 18:38:03.944429	185.7	23.0	-91.5	11.4
2025-01-17 18:38:06.266975	186.0	23.3	-91.2	6.5
2025-01-17 18:38:08.592785	186.2	23.6	-91.2	2.1
2025-01-17 18:38:10.922310	186.5	23.9	-91.2	4.2
2025-01-17 18:38:13.249065	186.7	24.3	-90.9	6.2
2025-01-17 18:38:15.578645	187.0	24.6	-91.3	9.8
2025-01-17 18:38:17.888256	187.2	24.9	-91.6	7.1
2025-01-17 18:38:20.217584	187.5	25.3	-91.2	7.0
2025-01-17 18:38:22.534228	187.8	25.6	-91.5	6.2
2025-01-17 18:38:24.858863	188.1	26.0	-91.0	2.0
2025-01-17 18:38:27.179316	188.4	26.3	-90.8	5.1
2025-01-17 18:38:29.503329	188.7	26.7	-91.2	3.9
2025-01-17 18:38:31.824966	189.0	27.0	-91.5	6.0
2025-01-17 18:38:34.152657	189.3	27.4	-91.2	7.1
2025-01-17 18:38:36.478350	189.6	27.7	-91.4	5.5
2025-01-17 18:38:38.805564	189.9	28.1	-91.2	4.2
2025-01-17 18:38:41.130855	190.2	28.5	-90.7	4.4
2025-01-17 18:38:43.457561	190.6	28.9	-90.8	4.2
2025-01-17 18:38:45.785226	190.9	29.2	-91.6	2.6
2025-01-17 18:38:48.115747	191.3	29.6	-91.3	7.0
2025-01-17 18:38:50.442409	191.6	30.0	-91.3	8.5
2025-01-17 18:38:52.767450	192.0	30.4	-91.5	5.3
2025-01-17 18:38:55.106381	192.4	30.8	-91.3	5.2
2025-01-17 18:38:57.429243	192.8	31.2	-90.9	4.9
2025-01-17 18:38:59.756630	193.2	31.6	-91.0	5.4
2025-01-17 18:39:02.077678	193.6	32.0	-90.8	4.0
2025-01-17 18:39:04.397912	194.0	32.4	-91.0	1.7
2025-01-17 18:39:06.726675	194.4	32.9	-91.5	6.4
2025-01-17 18:39:09.019328	194.9	33.3	-91.1	11.8
2025-01-17 18:39:11.261117	195.3	33.7	-91.3	7.1
2025-01-17 18:39:13.504436	195.8	34.1	-91.6	7.1
2025-01-17 18:39:15.745164	196.2	34.5	-90.7	4.3
2025-01-17 18:39:17.993625	196.7	34.9	-90.9	8.1
2025-01-17 18:39:20.312714	197.2	35.4	-91.2	2.0
2025-01-17 18:39:22.610360	197.7	35.8	-91.4	4.1
2025-01-17 18:39:24.928895	198.2	36.3	-91.4	2.3
2025-01-17 18:39:27.248709	198.7	36.7	-90.9	4.5
2025-01-17 18:39:29.576428	199.3	37.2	-91.5	12.2
2025-01-17 18:39:31.909011	199.9	37.6	-90.8	8.1
2025-01-17 18:39:34.240359	200.5	38.1	-91.3	4.8
2025-01-17 18:39:36.572021	201.1	38.5	-91.6	7.9
2025-01-17 18:39:38.900892	201.7	39.0	-91.4	12.2
2025-01-17 18:39:41.229442	202.3	39.5	-91.0	5.7
2025-01-17 18:39:43.554152	203.0	40.0	-91.7	6.2
2025-01-17 18:39:45.885288	203.6	40.4	-91.3	3.4
2025-01-17 18:39:48.216120	204.3	40.9	-91.2	9.3
2025-01-17 18:39:50.547503	205.1	41.4	-91.3	13.7
2025-01-17 18:39:52.845891	205.8	41.9	-91.2	14.0
2025-01-17 18:39:55.167892	206.5	42.3	-91.3	9.5
2025-01-17 18:39:57.493880	207.3	42.8	-91.3	9.3
2025-01-17 18:39:59.814803	208.1	43.3	-90.5	12.0
2025-01-17 18:40:02.133431	208.9	43.8	-90.6	14.3
2025-01-17 18:40:04.466886	209.8	44.2	-90.6	9.1
2025-01-17 18:40:06.799651	210.7	44.7	-91.2	5.0
2025-01-17 18:40:09.125045	211.6	45.2	-90.0	5.6
2025-01-17 18:40:11.434902	212.5	45.7	-90.5	5.4
2025-01-17 18:40:13.688415	213.4	46.1	-90.6	8.9
2025-01-17 18:40:15.929781	214.4	46.6	-90.9	11.2
2025-01-17 18:40:18.171195	215.3	47.0	-91.5	10.6
2025-01-17 18:40:20.413751	216.3	47.5	-91.4	9.5
2025-01-17 18:40:22.690698	217.4	47.9	-91.5	6.3
2025-01-17 18:40:25.024405	218.5	48.4	-91.8	11.8
2025-01-17 18:40:27.330694	219.6	48.8	-90.7	11.5
2025-01-17 18:40:29.598297	220.8	49.2	-91.0	13.2
2025-01-17 18:40:31.893240	221.9	49.6	-91.8	11.3
2025-01-17 18:40:34.209058	223.2	50.1	-90.9	6.8
2025-01-17 18:40:36.529308	224.4	50.5	-91.8	7.9
2025-01-17 18:40:38.844848	225.7	50.8	-91.4	3.2
2025-01-17 18:40:41.163908	227.0	51.2	-91.5	9.0
2025-01-17 18:40:43.495567	228.4	51.6	-91.5	14.8
2025-01-17 18:40:45.818490	229.8	51.9	-91.5	18.5
2025-01-17 18:40:48.150919	231.2	52.3	-91.2	16.6
2025-01-17 18:40:50.485363	232.7	52.6	-91.4	12.3
2025-01-17 18:40:52.810513	234.2	52.9	-91.6	5.9
2025-01-17 18:40:55.139815	235.7	53.2	-91.1	8.4
2025-01-17 18:40:57.456876	237.2	53.5	-91.4	8.5
2025-01-17 18:40:59.786661	238.8	53.7	-91.2	5.2
2025-01-17 18:41:02.101376	240.4	53.9	-91.6	9.2
2025-01-17 18:41:04.434828	242.0	54.1	-91.3	12.4
2025-01-17 18:41:06.753916	243.7	54.3	-91.2	12.3
2025-01-17 18:41:09.091843	245.4	54.5	-91.2	15.0
2025-01-17 18:41:11.416405	247.0	54.6	-90.9	9.9
2025-01-17 18:41:13.739281	248.7	54.7	-91.4	4.4
2025-01-17 18:41:16.058001	250.5	54.8	-91.2	4.3
2025-01-17 18:41:18.364389	252.2	54.9	-91.4	3.4
2025-01-17 18:41:20.689762	253.9	54.9	-91.5	1.8
2025-01-17 18:41:23.021872	255.6	54.9	-91.3	6.4
2025-01-17 18:41:25.352346	257.3	54.9	-90.8	2.8
2025-01-17 18:41:27.679601	259.1	54.9	-91.3	3.9
2025-01-17 18:41:29.999802	260.8	54.8	-91.3	7.6
2025-01-17 18:41:32.326464	262.5	54.7	-91.1	2.3
2025-01-17 18:41:34.656598	264.2	54.6	-91.8	8.3
2025-01-17 18:41:36.987453	265.9	54.5	-91.2	12.6
2025-01-17 18:41:39.317182	267.5	54.3	-91.1	11.6
2025-01-17 18:41:41.641122	269.2	54.1	-91.3	13.2
2025-01-17 18:41:43.964398	270.8	53.9	-91.0	16.9
2025-01-17 18:41:46.288630	272.4	53.7	-91.1	13.5
2025-01-17 18:41:48.616201	274.0	53.4	-91.2	18.8
2025-01-17 18:41:50.948390	275.5	53.2	-91.3	18.3
2025-01-17 18:41:53.284246	277.0	52.9	-90.6	15.8
2025-01-17 18:41:55.607734	278.5	52.6	-90.9	18.3
2025-01-17 18:41:57.932664	280.0	52.3	-91.1	11.9
2025-01-17 18:42:00.257381	281.4	51.9	-90.7	16.8
2025-01-17 18:42:02.579558	282.8	51.6	-90.9	15.6
2025-01-17 18:42:04.907199	284.1	51.2	-91.0	16.4
2025-01-17 18:42:07.234479	285.5	50.8	-91.0	13.9
2025-01-17 18:42:09.555153	286.7	50.4	-91.6	17.0
2025-01-17 18:42:11.883557	288.0	50.0	-90.4	8.4
2025-01-17 18:42:14.220061	289.2	49.6	-91.0	11.3
2025-01-17 18:42:16.565442	290.4	49.2	-91.5	9.2
2025-01-17 18:42:18.896188	291.6	48.7	-91.4	8.4
2025-01-17 18:42:21.216722	292.7	48.3	-91.6	6.4
2025-01-17 18:42:23.537922	293.8	47.9	-91.8	5.9
2025-01-17 18:42:25.856343	294.9	47.4	-91.5	5.1
2025-01-17 18:42:28.187317	295.9	46.9	-91.1	4.7
2025-01-17 18:42:30.516956	296.9	46.5	-91.3	6.9
2025-01-17 18:42:32.842325	297.9	46.0	-91.4	6.0
2025-01-17 18:42:35.169131	298.8	45.5	-91.0	7.3
2025-01-17 18:42:37.503610	299.7	45.1	-90.8	7.3
2025-01-17 18:42:39.826226	300.6	44.6	-90.6	5.6
2025-01-17 18:42:42.155146	301.5	44.1	-90.5	9.0
2025-01-17 18:42:44.471626	302.3	43.6	-90.6	8.7
2025-01-17 18:42:46.761556	303.1	43.2	-91.4	11.5
2025-01-17 18:42:49.003521	303.9	42.7	-90.6	12.6
2025-01-17 18:42:51.243821	304.6	42.3	-91.1	17.2
2025-01-17 18:42:53.484900	305.4	41.8	-91.2	15.1
2025-01-17 18:42:55.741484	306.1	41.3	-91.1	13.1
2025-01-17 18:42:58.041211	306.8	40.9	-90.9	12.2
2025-01-17 18:43:00.349298	307.4	40.4	-91.0	7.5
2025-01-17 18:43:02.652423	308.1	39.9	-91.3	8.8
2025-01-17 18:43:04.969943	308.8	39.5	-90.7	6.0
2025-01-17 18:43:07.300043	309.4	39.0	-90.3	2.0
2025-01-17 18:43:10.184802	310.2	38.4	-89.9	5.7
2025-01-17 18:43:12.506295	310.7	38.0	-90.2	6.8
2025-01-17 18:43:14.845329	311.3	37.5	-89.8	8.4
2025-01-17 18:43:17.154870	311.9	37.1	-91.1	11.1
2025-01-17 18:43:19.429559	312.4	36.6	-91.2	13.3
2025-01-17 18:43:21.725449	312.9	36.2	-91.3	8.7
2025-01-17 18:43:24.037563	313.5	35.7	-90.5	5.1
2025-01-17 18:43:26.355109	314.0	35.3	-91.0	4.7
2025-01-17 18:43:28.663483	314.5	34.9	-91.0	4.0
2025-01-17 18:43:30.991888	314.9	34.4	-91.3	5.5
2025-01-17 18:43:33.307437	315.4	34.0	-91.1	6.6
2025-01-17 18:43:35.630761	315.9	33.6	-91.3	10.6
2025-01-17 18:43:37.953748	316.3	33.2	-91.0	13.0
2025-01-17 18:43:40.281405	316.7	32.7	-90.6	12.4
2025-01-17 18:43:42.597601	317.2	32.3	-91.1	8.3
2025-01-17 18:43:44.923857	317.6	31.9	-91.1	8.3
2025-01-17 18:43:47.267842	318.0	31.5	-90.9	2.4
2025-01-17 18:43:49.593337	318.4	31.1	-91.2	5.5
2025-01-17 18:43:51.914820	318.8	30.7	-91.1	6.9
2025-01-17 18:43:54.231977	319.1	30.3	-91.1	4.5
2025-01-17 18:43:56.564210	319.5	29.9	-90.7	12.8
2025-01-17 18:43:58.894988	319.9	29.5	-90.9	11.8
2025-01-17 18:44:01.219194	320.2	29.2	-90.9	10.6
2025-01-17 18:44:03.532933	320.5	28.8	-91.1	6.5
2025-01-17 18:44:05.862309	320.9	28.4	-91.2	5.9
2025-01-17 18:44:08.193672	321.2	28.0	-90.6	3.8
2025-01-17 18:44:10.521212	321.5	27.7	-90.9	8.0
2025-01-17 18:44:12.844698	321.8	27.3	-90.8	8.7
2025-01-17 18:44:15.176111	322.1	27.0	-90.8	11.5
2025-01-17 18:44:17.513380	322.4	26.6	-90.5	6.0
2025-01-17 18:44:19.837927	322.7	26.3	-90.6	3.6
2025-01-17 18:44:22.168974	323.0	25.9	-90.6	4.2
2025-01-17 18:44:24.490927	323.3	25.6	-90.7	5.6
2025-01-17 18:44:26.821002	323.6	25.2	-90.9	1.0
2025-01-17 18:44:29.143926	323.8	24.9	-90.1	5.1
2025-01-17 18:44:31.462871	324.1	24.6	-90.3	8.1
2025-01-17 18:44:33.779405	324.4	24.2	-90.2	11.5
2025-01-17 18:44:36.103574	324.6	23.9	-89.9	8.8
2025-01-17 18:44:38.431733	324.9	23.6	-90.5	2.6
2025-01-17 18:44:40.754479	325.1	23.3	-90.6	4.8
2025-01-17 18:44:43.080586	325.4	23.0	-90.0	2.9
2025-01-17 18:44:45.399942	325.6	22.7	-90.7	2.8
2025-01-17 18:44:47.722530	325.8	22.4	-90.9	10.3
2025-01-17 18:44:50.050816	326.1	22.0	-90.3	8.6
2025-01-17 18:44:52.389193	326.3	21.7	-90.7	3.3
2025-01-17 18:44:54.727630	326.5	21.4	-90.8	3.2
2025-01-17 18:44:57.052729	326.7	21.2	-90.9	1.3
2025-01-17 18:44:59.377314	326.9	20.9	-90.6	2.2
2025-01-17 18:45:01.700081	327.1	20.6	-91.4	3.5
2025-01-17 18:45:04.022433	327.3	20.3	-91.1	2.7
2025-01-17 18:45:06.348935	327.5	20.0	-90.2	4.2
2025-01-17 18:45:08.683063	327.7	19.7	-90.9	2.5
2025-01-17 18:45:11.003813	327.9	19.4	-91.0	3.7
2025-01-17 18:45:13.319185	328.1	19.2	-91.1	2.7
2025-01-17 18:45:15.644402	328.3	18.9	-91.1	5.7
2025-01-17 18:45:17.968419	328.5	18.6	-91.7	4.3
2025-01-17 18:45:20.298118	328.7	18.4	-91.2	2.8
2025-01-17 18:45:22.604493	328.8	18.1	-91.7	3.7
2025-01-17 18:45:24.884424	329.0	17.8	-91.7	2.8
2025-01-17 18:45:27.127271	329.2	17.6	-91.5	3.3
2025-01-17 18:45:29.368252	329.3	17.4	-91.3	2.1
2025-01-17 18:45:31.609272	329.5	17.1	-91.2	2.9
2025-01-17 18:45:33.859533	329.7	16.9	-91.3	2.7
2025-01-17 18:45:36.192402	329.8	16.6	-91.0	0.3
2025-01-17 18:45:38.503245	330.0	16.4	-91.3	3.2
2025-01-17 18:45:40.819389	330.1	16.1	-90.7	1.8
2025-01-17 18:45:43.124379	330.3	15.9	-90.5	3.8
2025-01-17 18:45:45.446194	330.4	15.6	-91.4	3.7
2025-01-17 18:45:47.773440	330.6	15.4	-91.3	3.9
2025-01-17 18:45:50.100371	330.7	15.2	-90.3	2.2
2025-01-17 18:45:52.431518	330.9	14.9	-90.9	3.9
2025-01-17 18:45:54.743980	331.0	14.7	-90.8	3.9
#Closed at: 2025-01-17 18:37:00.781865