passes_logs/2025/01/17/LEX_Murmansk/LEX_Murmansk__20250117_190115_NOAA_18_rec.log

#Pass ID: 20250117_190115_NOAA 18
#Satellite: NOAA 18
#Configuration: NOAA 18
#Start time: 2025-01-17 19:01:11.037244

#LorettStation: 1.0.0 05.05.2024
#Station: LEX_Murmansk
#Location: 33.156738 lon 68.926811 lat
#TLE: 1 28654U 05018A   25017.14480960  .00000361  00000+0  21486-3 0  9999
#TLE: 2 28654  98.8562  98.1779 0014463 173.1209 187.0164 14.13488310 13483

#Time	Az	El	Level	SNR
2025-01-17 19:01:23.143076	156.5	16.3	-91.0	8.3
2025-01-17 19:01:25.456965	156.6	16.6	-91.5	6.2
2025-01-17 19:01:27.749546	156.6	16.8	-91.4	7.6
2025-01-17 19:01:30.047540	156.6	17.1	-91.1	6.0
2025-01-17 19:01:32.349878	156.7	17.3	-91.1	5.9
2025-01-17 19:01:34.643016	156.7	17.6	-90.9	6.0
2025-01-17 19:01:36.933023	156.7	17.9	-91.5	5.9
2025-01-17 19:01:39.235826	156.7	18.2	-90.8	7.1
2025-01-17 19:01:41.541941	156.8	18.4	-91.2	5.6
2025-01-17 19:01:43.841329	156.8	18.7	-91.0	8.1
2025-01-17 19:01:46.150000	156.8	19.0	-90.9	8.3
2025-01-17 19:01:48.445940	156.9	19.3	-90.8	8.7
2025-01-17 19:01:50.748496	156.9	19.6	-91.4	8.3
2025-01-17 19:01:53.055061	156.9	19.9	-91.7	7.2
2025-01-17 19:01:55.349815	157.0	20.1	-90.9	9.1
2025-01-17 19:01:57.650853	157.0	20.4	-91.0	7.5
2025-01-17 19:01:59.954746	157.0	20.8	-91.2	8.9
2025-01-17 19:02:02.252501	157.1	21.1	-91.0	6.7
2025-01-17 19:02:04.548190	157.1	21.4	-91.2	9.6
2025-01-17 19:02:06.812718	157.2	21.7	-91.4	12.1
2025-01-17 19:02:09.095580	157.2	22.0	-91.3	12.9
2025-01-17 19:02:11.408392	157.2	22.3	-91.3	9.1
2025-01-17 19:02:13.700290	157.3	22.6	-91.2	10.9
2025-01-17 19:02:15.995141	157.3	23.0	-90.9	9.3
2025-01-17 19:02:18.288279	157.4	23.3	-90.9	6.8
2025-01-17 19:02:20.587241	157.4	23.6	-90.9	8.6
2025-01-17 19:02:22.889103	157.4	24.0	-91.2	8.6
2025-01-17 19:02:25.184469	157.5	24.3	-90.7	6.4
2025-01-17 19:02:27.487649	157.5	24.7	-91.6	8.5
2025-01-17 19:02:29.791598	157.6	25.0	-90.9	9.7
2025-01-17 19:02:32.092128	157.6	25.4	-90.9	7.5
2025-01-17 19:02:34.396183	157.7	25.8	-91.3	11.4
2025-01-17 19:02:36.697402	157.7	26.1	-91.0	8.8
2025-01-17 19:02:38.999644	157.7	26.5	-91.2	10.4
2025-01-17 19:02:41.296763	157.8	26.9	-90.7	9.8
2025-01-17 19:02:43.601189	157.8	27.3	-91.4	9.7
2025-01-17 19:02:45.905072	157.9	27.7	-91.5	11.0
2025-01-17 19:02:48.204673	157.9	28.1	-91.1	8.1
2025-01-17 19:02:50.507450	158.0	28.5	-91.6	12.0
2025-01-17 19:02:52.808356	158.0	28.9	-91.5	10.8
2025-01-17 19:02:55.108031	158.1	29.3	-91.2	11.6
2025-01-17 19:02:57.410119	158.2	29.7	-90.8	9.6
2025-01-17 19:02:59.717578	158.2	30.1	-91.3	11.6
2025-01-17 19:03:02.025031	158.3	30.6	-91.0	8.0
2025-01-17 19:03:04.327585	158.3	31.0	-91.1	11.1
2025-01-17 19:03:06.624062	158.4	31.5	-90.9	10.7
2025-01-17 19:03:08.918543	158.5	31.9	-91.1	11.9
2025-01-17 19:03:11.220335	158.5	32.4	-91.3	9.4
2025-01-17 19:03:13.531782	158.6	32.8	-91.2	11.9
2025-01-17 19:03:15.829569	158.7	33.3	-91.5	11.5
2025-01-17 19:03:18.124888	158.7	33.8	-90.8	10.4
2025-01-17 19:03:20.425698	158.8	34.3	-91.3	8.6
2025-01-17 19:03:22.720001	158.9	34.8	-91.1	10.8
2025-01-17 19:03:25.023181	158.9	35.3	-91.1	11.0
2025-01-17 19:03:27.321021	159.0	35.8	-91.0	11.8
2025-01-17 19:03:29.623064	159.1	36.3	-91.1	11.9
2025-01-17 19:03:31.930876	159.2	36.8	-90.4	10.0
2025-01-17 19:03:34.236418	159.3	37.4	-91.1	9.5
2025-01-17 19:03:36.546752	159.3	37.9	-91.5	7.1
2025-01-17 19:03:38.847908	159.4	38.5	-91.4	7.8
2025-01-17 19:03:41.146604	159.5	39.1	-91.2	9.1
2025-01-17 19:03:43.444170	159.6	39.6	-91.5	9.6
2025-01-17 19:03:45.749000	159.7	40.2	-90.9	13.1
2025-01-17 19:03:48.032242	159.8	40.8	-90.9	9.5
2025-01-17 19:03:50.334123	159.9	41.4	-91.5	13.6
2025-01-17 19:03:52.637337	160.0	42.0	-91.4	11.5
2025-01-17 19:03:54.937919	160.1	42.6	-91.4	11.1
2025-01-17 19:03:57.237629	160.3	43.3	-91.4	14.4
2025-01-17 19:03:59.540716	160.4	43.9	-91.7	7.9
2025-01-17 19:04:01.847460	160.5	44.6	-91.4	15.9
2025-01-17 19:04:04.149705	160.6	45.3	-91.1	15.8
2025-01-17 19:04:06.448808	160.8	45.9	-91.2	11.3
2025-01-17 19:04:08.752826	160.9	46.6	-91.3	14.9
2025-01-17 19:04:11.063992	161.1	47.3	-91.4	15.6
2025-01-17 19:04:13.360948	161.2	48.0	-91.4	9.0
2025-01-17 19:04:15.656474	161.4	48.8	-90.9	9.4
2025-01-17 19:04:17.959815	161.5	49.5	-91.3	7.5
2025-01-17 19:04:20.261352	161.7	50.2	-91.0	14.6
2025-01-17 19:04:22.564560	161.9	51.0	-91.0	12.1
2025-01-17 19:04:24.867505	162.1	51.8	-91.1	13.8
2025-01-17 19:04:27.165106	162.3	52.6	-91.0	16.0
2025-01-17 19:04:29.467704	162.5	53.4	-91.9	11.6
2025-01-17 19:04:31.773301	162.7	54.2	-91.2	14.4
2025-01-17 19:04:34.076586	163.0	55.0	-91.4	16.4
2025-01-17 19:04:36.384619	163.2	55.8	-91.2	13.3
2025-01-17 19:04:38.686704	163.5	56.7	-91.1	15.5
2025-01-17 19:04:40.991152	163.8	57.5	-91.7	9.8
2025-01-17 19:04:43.295228	164.1	58.4	-91.0	9.7
2025-01-17 19:04:45.588547	164.4	59.3	-91.7	13.4
2025-01-17 19:04:47.895768	164.7	60.2	-91.7	12.9
2025-01-17 19:04:50.202757	165.1	61.1	-90.8	16.8
2025-01-17 19:04:52.497473	165.5	62.0	-91.2	12.9
2025-01-17 19:04:54.803364	165.9	62.9	-91.1	17.0
2025-01-17 19:04:57.100208	166.4	63.9	-90.9	16.7
2025-01-17 19:04:59.397401	166.9	64.8	-90.6	14.9
2025-01-17 19:05:01.693567	167.4	65.8	-91.6	13.4
2025-01-17 19:05:04.016265	168.0	66.7	-91.5	10.0
2025-01-17 19:05:06.331683	168.6	67.7	-91.3	12.8
2025-01-17 19:05:08.632622	169.4	68.7	-90.8	11.2
2025-01-17 19:05:10.935403	170.1	69.7	-91.6	11.9
2025-01-17 19:05:13.247348	171.0	70.7	-91.1	17.7
2025-01-17 19:05:15.548403	172.0	71.7	-91.4	16.4
2025-01-17 19:05:17.856153	173.1	72.7	-91.5	16.3
2025-01-17 19:05:20.158492	174.3	73.8	-90.7	14.5
2025-01-17 19:05:22.463175	175.7	74.8	-91.4	14.6
2025-01-17 19:05:24.755740	177.3	75.8	-91.3	21.9
2025-01-17 19:05:27.056388	179.2	76.8	-91.3	11.2
2025-01-17 19:05:29.358113	181.3	77.8	-90.6	15.1
2025-01-17 19:05:31.672803	183.9	78.8	-91.5	17.5
2025-01-17 19:05:33.974441	187.0	79.7	-91.3	18.2
2025-01-17 19:05:36.281518	190.7	80.7	-91.3	19.7
2025-01-17 19:05:38.547333	195.1	81.6	-90.6	16.7
2025-01-17 19:05:40.787725	200.5	82.4	-90.8	19.7
2025-01-17 19:05:43.029752	207.1	83.1	-90.5	11.9
2025-01-17 19:05:45.270617	215.2	83.7	-90.8	19.8
2025-01-17 19:05:47.526391	224.9	84.2	-90.8	14.0
2025-01-17 19:05:49.830976	236.2	84.5	-91.4	21.5
2025-01-17 19:05:52.112445	248.1	84.6	-90.9	18.0
2025-01-17 19:05:54.412359	259.8	84.4	-91.2	20.3
2025-01-17 19:05:56.717802	270.5	84.0	-90.4	25.7
2025-01-17 19:05:59.017271	279.6	83.4	-90.3	22.7
2025-01-17 19:06:01.312749	287.1	82.7	-91.0	24.5
2025-01-17 19:06:03.607128	293.1	81.9	-91.4	23.7
2025-01-17 19:06:05.902578	298.0	81.1	-90.7	23.7
2025-01-17 19:06:08.204132	302.1	80.2	-91.1	24.6
2025-01-17 19:06:10.497614	305.4	79.2	-90.5	23.9
2025-01-17 19:06:12.800759	308.2	78.2	-91.3	25.3
2025-01-17 19:06:15.103362	310.5	77.2	-91.0	22.6
2025-01-17 19:06:17.395319	312.5	76.2	-91.3	21.1
2025-01-17 19:06:19.693272	314.2	75.2	-91.1	22.2
2025-01-17 19:06:21.994613	315.7	74.2	-90.8	21.0
2025-01-17 19:06:24.291892	317.0	73.2	-91.1	16.1
2025-01-17 19:06:26.581678	318.1	72.2	-90.6	9.9
2025-01-17 19:06:28.875660	319.1	71.2	-91.3	14.2
2025-01-17 19:06:31.178566	320.0	70.2	-91.0	12.0
2025-01-17 19:06:33.475038	320.9	69.2	-91.4	10.4
2025-01-17 19:06:35.776431	321.6	68.2	-91.0	11.5
2025-01-17 19:06:38.084380	322.3	67.2	-90.9	12.5
2025-01-17 19:06:40.375075	322.9	66.2	-90.5	14.9
2025-01-17 19:06:42.676345	323.4	65.3	-91.2	14.8
2025-01-17 19:06:44.984121	324.0	64.3	-91.0	18.0
2025-01-17 19:06:47.301225	324.4	63.3	-90.7	19.7
2025-01-17 19:06:49.592147	324.9	62.4	-90.9	17.3
2025-01-17 19:06:51.888320	325.3	61.5	-91.2	19.5
2025-01-17 19:06:54.191194	325.7	60.6	-90.7	21.7
2025-01-17 19:06:56.499313	326.0	59.7	-91.1	16.7
2025-01-17 19:06:58.796423	326.3	58.8	-90.0	22.9
2025-01-17 19:07:01.091626	326.6	57.9	-90.3	14.8
2025-01-17 19:07:03.396752	326.9	57.1	-90.2	15.0
2025-01-17 19:07:05.708716	327.2	56.2	-91.0	16.9
2025-01-17 19:07:08.013741	327.5	55.4	-90.7	14.2
2025-01-17 19:07:10.308222	327.7	54.5	-91.0	19.6
2025-01-17 19:07:12.610845	327.9	53.7	-91.1	17.3
2025-01-17 19:07:14.922138	328.2	52.9	-90.7	13.9
2025-01-17 19:07:17.236904	328.4	52.1	-90.4	10.3
2025-01-17 19:07:19.544099	328.6	51.3	-91.0	9.6
2025-01-17 19:07:21.837405	328.8	50.6	-91.0	10.0
2025-01-17 19:07:24.138695	328.9	49.8	-90.1	11.8
2025-01-17 19:07:26.435074	329.1	49.1	-90.9	12.0
2025-01-17 19:07:28.739265	329.3	48.4	-90.6	17.0
2025-01-17 19:07:31.044987	329.4	47.6	-90.6	11.2
2025-01-17 19:07:33.362597	329.6	46.9	-90.7	15.6
2025-01-17 19:07:35.662264	329.7	46.2	-90.9	18.5
2025-01-17 19:07:37.967078	329.9	45.6	-91.0	16.3
2025-01-17 19:07:40.265203	330.0	44.9	-90.9	20.6
2025-01-17 19:07:42.565950	330.1	44.2	-90.6	18.0
2025-01-17 19:07:44.869445	330.3	43.6	-90.4	19.2
2025-01-17 19:07:47.173592	330.4	42.9	-90.6	15.6
2025-01-17 19:07:49.475170	330.5	42.3	-90.7	12.6
2025-01-17 19:07:51.771589	330.6	41.7	-90.3	19.9
2025-01-17 19:07:54.071171	330.7	41.1	-90.3	16.0
2025-01-17 19:07:56.378895	330.8	40.5	-90.0	18.3
2025-01-17 19:07:58.682030	330.9	39.9	-91.2	18.0
2025-01-17 19:08:00.981816	331.0	39.3	-91.4	10.6
2025-01-17 19:08:03.281764	331.1	38.7	-90.8	6.1
2025-01-17 19:08:05.580604	331.2	38.2	-90.4	7.2
2025-01-17 19:08:07.878836	331.3	37.6	-90.1	8.1
2025-01-17 19:08:10.182302	331.4	37.1	-90.2	9.9
2025-01-17 19:08:12.473768	331.4	36.5	-91.4	13.1
2025-01-17 19:08:14.784684	331.5	36.0	-90.8	10.3
2025-01-17 19:08:17.091761	331.6	35.5	-90.6	15.2
2025-01-17 19:08:19.406252	331.7	35.0	-90.4	12.5
2025-01-17 19:08:21.711137	331.8	34.5	-91.5	5.1
2025-01-17 19:08:24.004191	331.8	34.0	-91.2	7.5
2025-01-17 19:08:26.310343	331.9	33.5	-90.9	11.5
2025-01-17 19:08:28.608298	332.0	33.0	-90.9	13.6
2025-01-17 19:08:30.923194	332.0	32.6	-91.0	16.6
2025-01-17 19:08:33.230917	332.1	32.1	-91.1	7.7
2025-01-17 19:08:35.542042	332.2	31.6	-91.0	14.2
2025-01-17 19:08:37.837039	332.2	31.2	-91.1	14.9
2025-01-17 19:08:40.142734	332.3	30.7	-90.5	12.0
2025-01-17 19:08:42.435315	332.3	30.3	-90.6	7.1
2025-01-17 19:08:44.732503	332.4	29.9	-91.1	9.0
2025-01-17 19:08:47.039704	332.5	29.5	-90.7	18.2
2025-01-17 19:08:49.337307	332.5	29.0	-90.9	16.7
2025-01-17 19:08:51.638675	332.6	28.6	-90.5	11.7
2025-01-17 19:08:53.892987	332.6	28.2	-90.8	9.0
2025-01-17 19:08:56.135819	332.7	27.8	-90.9	7.8
2025-01-17 19:08:58.377005	332.7	27.5	-90.8	7.9
2025-01-17 19:09:00.621341	332.8	27.1	-90.8	11.1
2025-01-17 19:09:02.881659	332.8	26.7	-91.2	11.5
2025-01-17 19:09:05.174036	332.9	26.3	-91.2	8.9
2025-01-17 19:09:07.466742	332.9	25.9	-90.9	8.9
2025-01-17 19:09:09.752028	333.0	25.6	-90.8	6.8
2025-01-17 19:09:12.062369	333.0	25.2	-90.9	7.5
2025-01-17 19:09:14.360721	333.1	24.9	-91.1	11.9
2025-01-17 19:09:16.657792	333.1	24.5	-90.5	7.2
2025-01-17 19:09:18.953387	333.1	24.2	-90.9	11.0
2025-01-17 19:09:21.250528	333.2	23.8	-90.2	8.3
2025-01-17 19:09:23.569947	333.2	23.5	-90.2	10.0
2025-01-17 19:09:25.874132	333.3	23.1	-91.3	9.1
2025-01-17 19:09:28.187662	333.3	22.8	-90.9	14.8
2025-01-17 19:09:30.485496	333.3	22.5	-90.7	16.0
2025-01-17 19:09:32.782939	333.4	22.2	-91.1	16.2
2025-01-17 19:09:35.082858	333.4	21.8	-91.2	8.6
2025-01-17 19:09:37.386637	333.5	21.5	-90.7	6.9
2025-01-17 19:09:39.679816	333.5	21.2	-91.5	9.6
2025-01-17 19:09:41.969327	333.5	20.9	-91.4	10.4
2025-01-17 19:09:44.251612	333.6	20.6	-90.8	7.8
2025-01-17 19:09:46.550311	333.6	20.3	-91.6	6.8
2025-01-17 19:09:48.851838	333.6	20.0	-90.8	9.0
2025-01-17 19:09:51.149695	333.7	19.7	-91.0	6.7
2025-01-17 19:09:53.458874	333.7	19.4	-91.0	6.8
2025-01-17 19:09:55.760432	333.8	19.1	-90.7	6.0
2025-01-17 19:09:58.070503	333.8	18.8	-90.9	10.7
2025-01-17 19:10:00.362030	333.8	18.6	-90.7	7.0
2025-01-17 19:10:02.665040	333.9	18.3	-91.2	9.2
2025-01-17 19:10:04.963821	333.9	18.0	-91.0	5.5
2025-01-17 19:10:07.262241	333.9	17.7	-90.8	10.6
2025-01-17 19:10:09.556806	333.9	17.5	-91.3	7.1
2025-01-17 19:10:11.855331	334.0	17.2	-91.3	3.7
2025-01-17 19:10:14.153049	334.0	16.9	-90.7	4.7
2025-01-17 19:10:16.446480	334.0	16.7	-91.1	4.5
2025-01-17 19:10:18.744417	334.1	16.4	-90.9	4.0
2025-01-17 19:10:21.040192	334.1	16.2	-90.5	3.5
2025-01-17 19:10:23.346863	334.1	15.9	-90.7	2.8
2025-01-17 19:10:25.645680	334.2	15.7	-91.1	9.0
2025-01-17 19:10:27.947293	334.2	15.4	-91.2	3.4
2025-01-17 19:10:30.254707	334.2	15.2	-90.6	6.6
2025-01-17 19:10:32.551431	334.2	14.9	-90.6	5.0
2025-01-17 19:10:34.854522	334.3	14.7	-91.1	8.5
2025-01-17 19:10:37.153824	334.3	14.5	-91.0	4.0
#Closed at: 2025-01-17 19:01:15.939705