passes_logs/2025/01/17/LEX_Murmansk/LEX_Murmansk__20250117_101732_NOAA_19_rec.log

#Pass ID: 20250117_101732_NOAA 19
#Satellite: NOAA 19
#Configuration: NOAA 19
#Start time: 2025-01-17 10:17:27.426986

#LorettStation: 1.0.0 05.05.2024
#Station: LEX_Murmansk
#Location: 33.156738 lon 68.926811 lat
#TLE: 1 33591U 09005A   25016.13687281  .00000278  00000+0  17226-3 0  9992
#TLE: 2 33591  99.0193  79.9081 0014432  54.5182 305.7334 14.13260212821702

#Time	Az	El	Level	SNR
2025-01-17 10:17:39.821585	23.5	16.3	-90.5	0.7
2025-01-17 10:17:40.973049	23.4	16.4	-90.4	5.6
2025-01-17 10:17:42.120784	23.3	16.5	-89.8	2.1
2025-01-17 10:17:43.270855	23.2	16.6	-89.7	3.0
2025-01-17 10:17:44.428177	23.1	16.7	-90.1	4.4
2025-01-17 10:17:45.579517	23.0	16.9	-90.3	3.9
2025-01-17 10:17:46.744911	22.9	17.0	-90.5	5.0
2025-01-17 10:17:47.906000	22.8	17.1	-90.4	2.3
2025-01-17 10:17:49.061433	22.7	17.2	-90.3	7.8
2025-01-17 10:17:50.212427	22.6	17.4	-90.1	6.3
2025-01-17 10:17:51.365386	22.5	17.5	-90.5	4.0
2025-01-17 10:17:52.522968	22.4	17.6	-90.3	4.2
2025-01-17 10:17:53.679911	22.3	17.7	-90.4	3.3
2025-01-17 10:17:54.831045	22.2	17.9	-90.4	2.4
2025-01-17 10:17:55.985961	22.1	18.0	-90.3	3.5
2025-01-17 10:17:57.145758	22.0	18.1	-90.2	6.6
2025-01-17 10:17:58.299955	21.9	18.2	-90.1	5.8
2025-01-17 10:17:59.456729	21.8	18.4	-90.3	6.8
2025-01-17 10:18:00.616473	21.7	18.5	-90.4	5.5
2025-01-17 10:18:01.767755	21.6	18.6	-90.7	5.1
2025-01-17 10:18:02.930410	21.5	18.8	-90.3	5.2
2025-01-17 10:18:04.080057	21.4	18.9	-90.1	4.0
2025-01-17 10:18:05.231676	21.3	19.0	-90.2	6.1
2025-01-17 10:18:06.387901	21.2	19.1	-90.1	4.7
2025-01-17 10:18:07.553358	21.0	19.3	-90.2	5.7
2025-01-17 10:18:08.703633	20.9	19.4	-90.4	3.7
2025-01-17 10:18:09.860287	20.8	19.5	-90.4	1.3
2025-01-17 10:18:11.012930	20.7	19.7	-90.5	3.4
2025-01-17 10:18:12.169262	20.6	19.8	-90.0	4.1
2025-01-17 10:18:13.319463	20.5	20.0	-90.3	2.5
2025-01-17 10:18:14.483712	20.4	20.1	-90.6	5.1
2025-01-17 10:18:15.607850	20.2	20.2	-90.4	6.3
2025-01-17 10:18:16.755755	20.1	20.4	-89.9	5.6
2025-01-17 10:18:17.910099	20.0	20.5	-89.5	5.3
2025-01-17 10:18:19.063029	19.9	20.6	-89.6	5.0
2025-01-17 10:18:20.219952	19.8	20.8	-90.0	2.4
2025-01-17 10:18:21.372441	19.6	20.9	-89.6	8.1
2025-01-17 10:18:22.530570	19.5	21.1	-89.9	9.4
2025-01-17 10:18:23.683880	19.4	21.2	-90.0	4.7
2025-01-17 10:18:24.842491	19.2	21.3	-90.2	5.8
2025-01-17 10:18:25.987100	19.1	21.5	-90.1	2.0
2025-01-17 10:18:27.137352	19.0	21.6	-90.2	4.8
2025-01-17 10:18:28.289926	18.9	21.8	-90.2	3.2
2025-01-17 10:18:29.441831	18.7	21.9	-90.4	3.4
2025-01-17 10:18:30.602192	18.6	22.1	-90.4	4.2
2025-01-17 10:18:31.755627	18.5	22.2	-90.3	6.7
2025-01-17 10:18:32.913350	18.3	22.3	-90.5	6.7
2025-01-17 10:18:34.056331	18.2	22.5	-90.1	9.2
2025-01-17 10:18:35.212056	18.0	22.6	-90.3	7.8
2025-01-17 10:18:36.367978	17.9	22.8	-90.2	7.2
2025-01-17 10:18:37.527501	17.8	22.9	-90.4	6.8
2025-01-17 10:18:38.681238	17.6	23.1	-90.7	6.8
2025-01-17 10:18:39.838129	17.5	23.2	-90.3	9.9
2025-01-17 10:18:40.993747	17.3	23.4	-90.6	8.6
2025-01-17 10:18:42.149833	17.2	23.5	-90.2	7.9
2025-01-17 10:18:43.300849	17.0	23.7	-90.4	5.4
2025-01-17 10:18:44.451208	16.9	23.8	-89.8	4.3
2025-01-17 10:18:45.604477	16.7	24.0	-90.5	3.8
2025-01-17 10:18:46.757351	16.6	24.1	-90.1	1.3
2025-01-17 10:18:47.907093	16.4	24.3	-90.3	4.1
2025-01-17 10:18:49.058073	16.3	24.5	-89.8	7.3
2025-01-17 10:18:50.212695	16.1	24.6	-90.0	9.2
2025-01-17 10:18:51.368365	16.0	24.8	-90.6	5.7
2025-01-17 10:18:52.516717	15.8	24.9	-90.0	6.9
2025-01-17 10:18:53.675822	15.6	25.1	-90.5	7.4
2025-01-17 10:18:54.829045	15.5	25.2	-90.4	3.6
2025-01-17 10:18:55.983050	15.3	25.4	-90.2	7.6
2025-01-17 10:18:57.140668	15.1	25.6	-90.4	11.3
2025-01-17 10:18:58.297309	15.0	25.7	-90.2	9.5
2025-01-17 10:18:59.451270	14.8	25.9	-90.4	7.3
2025-01-17 10:19:00.602857	14.6	26.0	-90.3	7.8
2025-01-17 10:19:01.754020	14.4	26.2	-90.3	3.2
2025-01-17 10:19:02.907385	14.3	26.4	-90.4	3.0
2025-01-17 10:19:04.060808	14.1	26.5	-90.1	3.2
2025-01-17 10:19:05.212338	13.9	26.7	-90.3	2.6
2025-01-17 10:19:06.367993	13.7	26.9	-90.4	3.9
2025-01-17 10:19:07.520462	13.5	27.0	-90.5	4.8
2025-01-17 10:19:08.668706	13.4	27.2	-90.6	5.2
2025-01-17 10:19:09.822115	13.2	27.4	-90.4	5.8
2025-01-17 10:19:10.974796	13.0	27.5	-90.5	5.1
2025-01-17 10:19:12.135037	12.8	27.7	-90.1	5.7
2025-01-17 10:19:13.290920	12.6	27.9	-90.4	3.4
2025-01-17 10:19:14.444277	12.4	28.0	-90.3	3.4
2025-01-17 10:19:15.595992	12.2	28.2	-90.7	7.7
2025-01-17 10:19:16.754806	12.0	28.4	-90.4	5.0
2025-01-17 10:19:17.908262	11.8	28.6	-90.4	8.1
2025-01-17 10:19:19.062447	11.6	28.7	-90.4	3.8
2025-01-17 10:19:20.225269	11.4	28.9	-90.0	2.8
2025-01-17 10:19:21.381030	11.2	29.1	-90.7	3.5
2025-01-17 10:19:22.540554	10.9	29.2	-90.8	3.6
2025-01-17 10:19:23.696741	10.7	29.4	-90.5	3.4
2025-01-17 10:19:24.848900	10.5	29.6	-90.7	1.9
2025-01-17 10:19:26.004196	10.3	29.8	-90.8	4.1
2025-01-17 10:19:27.157390	10.1	30.0	-90.6	9.7
2025-01-17 10:19:28.315004	9.9	30.1	-90.4	11.3
2025-01-17 10:19:29.462510	9.6	30.3	-90.7	10.8
2025-01-17 10:19:30.614677	9.4	30.5	-90.4	9.7
2025-01-17 10:19:31.769451	9.2	30.7	-91.0	7.9
2025-01-17 10:19:32.918393	8.9	30.8	-90.4	6.6
2025-01-17 10:19:34.084710	8.7	31.0	-90.2	8.1
2025-01-17 10:19:35.242886	8.4	31.2	-90.2	9.7
2025-01-17 10:19:36.401188	8.2	31.4	-90.2	9.0
2025-01-17 10:19:37.553527	8.0	31.6	-90.2	13.4
2025-01-17 10:19:38.706001	7.7	31.8	-90.4	7.7
2025-01-17 10:19:39.858372	7.5	31.9	-90.4	6.2
2025-01-17 10:19:41.015008	7.2	32.1	-90.4	4.9
2025-01-17 10:19:42.163088	7.0	32.3	-90.2	5.9
2025-01-17 10:19:43.318453	6.7	32.5	-90.5	4.0
2025-01-17 10:19:44.479232	6.4	32.7	-90.4	5.3
2025-01-17 10:19:45.638088	6.2	32.9	-90.4	4.7
2025-01-17 10:19:46.796034	5.9	33.0	-90.6	10.5
2025-01-17 10:19:47.945829	5.6	33.2	-90.4	8.8
2025-01-17 10:19:49.097717	5.3	33.4	-90.5	10.0
2025-01-17 10:19:50.257366	5.1	33.6	-90.5	11.6
2025-01-17 10:19:51.406051	4.8	33.8	-90.4	6.5
2025-01-17 10:19:52.561303	4.5	34.0	-90.6	9.9
2025-01-17 10:19:53.721414	4.2	34.2	-90.7	5.4
2025-01-17 10:19:54.880200	3.9	34.4	-90.3	6.4
2025-01-17 10:19:56.029760	3.6	34.5	-90.2	7.2
2025-01-17 10:19:57.181888	3.3	34.7	-90.1	7.2
2025-01-17 10:19:58.342771	3.0	34.9	-90.5	9.8
2025-01-17 10:19:59.501188	2.7	35.1	-90.7	7.1
2025-01-17 10:20:00.652402	2.4	35.3	-90.2	9.7
2025-01-17 10:20:01.815465	2.1	35.5	-90.2	4.5
2025-01-17 10:20:02.964455	1.8	35.7	-90.4	4.1
2025-01-17 10:20:04.116700	1.5	35.9	-90.4	3.0
2025-01-17 10:20:05.275907	1.1	36.1	-90.4	3.8
2025-01-17 10:20:06.428700	0.8	36.2	-90.1	2.6
2025-01-17 10:20:07.585707	0.5	36.4	-90.6	6.9
2025-01-17 10:20:08.738517	0.1	36.6	-90.4	4.6
2025-01-17 10:20:09.893774	359.8	36.8	-90.4	5.8
2025-01-17 10:20:11.049193	359.5	37.0	-90.3	11.8
2025-01-17 10:20:12.207633	359.1	37.2	-90.3	9.2
2025-01-17 10:20:13.357396	358.8	37.4	-90.5	9.7
2025-01-17 10:20:14.512400	358.4	37.6	-90.4	5.9
2025-01-17 10:20:15.675797	358.0	37.8	-90.2	6.2
2025-01-17 10:20:16.832271	357.7	37.9	-90.4	6.5
2025-01-17 10:20:17.985795	357.3	38.1	-90.6	6.6
2025-01-17 10:20:19.137549	356.9	38.3	-90.3	12.9
2025-01-17 10:20:20.293989	356.6	38.5	-90.3	12.1
2025-01-17 10:20:21.445595	356.2	38.7	-90.3	19.4
2025-01-17 10:20:22.596893	355.8	38.9	-90.4	14.3
2025-01-17 10:20:23.753284	355.4	39.1	-90.2	13.1
2025-01-17 10:20:24.902650	355.0	39.3	-90.5	8.6
2025-01-17 10:20:26.057330	354.6	39.4	-90.2	7.2
2025-01-17 10:20:27.211896	354.2	39.6	-90.1	4.8
2025-01-17 10:20:28.363433	353.8	39.8	-89.9	3.6
2025-01-17 10:20:29.524135	353.4	40.0	-90.1	3.6
2025-01-17 10:20:30.677876	353.0	40.2	-89.8	5.6
2025-01-17 10:20:31.831151	352.5	40.4	-90.1	5.3
2025-01-17 10:20:32.994607	352.1	40.5	-90.2	10.0
2025-01-17 10:20:34.152507	351.7	40.7	-90.4	10.5
2025-01-17 10:20:35.301181	351.2	40.9	-90.2	7.0
2025-01-17 10:20:36.455020	350.8	41.1	-90.7	9.2
2025-01-17 10:20:37.614430	350.3	41.2	-90.7	14.5
2025-01-17 10:20:38.764522	349.9	41.4	-90.4	14.1
2025-01-17 10:20:39.913560	349.4	41.6	-90.3	10.3
2025-01-17 10:20:41.062900	349.0	41.8	-90.4	10.0
2025-01-17 10:20:42.218050	348.5	41.9	-90.3	6.9
2025-01-17 10:20:43.370099	348.0	42.1	-90.2	9.2
2025-01-17 10:20:44.523314	347.6	42.3	-90.6	10.1
2025-01-17 10:20:45.673012	347.1	42.4	-90.3	9.5
2025-01-17 10:20:46.830803	346.6	42.6	-90.3	15.3
2025-01-17 10:20:47.985613	346.1	42.8	-90.2	16.9
2025-01-17 10:20:49.135956	345.6	42.9	-90.3	15.3
2025-01-17 10:20:50.291301	345.1	43.1	-90.0	16.6
2025-01-17 10:20:51.448376	344.6	43.3	-90.3	12.4
2025-01-17 10:20:52.610057	344.1	43.4	-90.2	13.8
2025-01-17 10:20:53.760098	343.6	43.6	-90.2	9.5
2025-01-17 10:20:54.925230	343.0	43.7	-90.3	10.4
2025-01-17 10:20:56.076575	342.5	43.9	-90.6	10.2
2025-01-17 10:20:57.234216	342.0	44.0	-90.4	3.9
2025-01-17 10:20:58.386046	341.4	44.2	-90.4	3.4
2025-01-17 10:20:59.543607	340.9	44.3	-90.2	8.3
2025-01-17 10:21:00.694246	340.4	44.4	-90.5	5.8
2025-01-17 10:21:01.849072	339.8	44.6	-90.4	5.6
2025-01-17 10:21:02.996458	339.3	44.7	-90.6	8.6
2025-01-17 10:21:04.152736	338.7	44.9	-90.1	9.2
2025-01-17 10:21:05.310718	338.1	45.0	-89.7	11.2
2025-01-17 10:21:06.465034	337.6	45.1	-90.2	15.1
2025-01-17 10:21:07.621901	337.0	45.2	-90.1	15.6
2025-01-17 10:21:08.773208	336.4	45.4	-90.3	17.6
2025-01-17 10:21:09.922694	335.8	45.5	-90.5	14.6
2025-01-17 10:21:11.082745	335.2	45.6	-90.6	11.3
2025-01-17 10:21:12.240035	334.6	45.7	-90.5	7.5
2025-01-17 10:21:13.397939	334.0	45.8	-90.3	6.8
2025-01-17 10:21:14.552980	333.4	45.9	-90.6	10.0
2025-01-17 10:21:15.711720	332.8	46.0	-90.5	7.3
2025-01-17 10:21:16.866456	332.2	46.1	-90.1	11.1
2025-01-17 10:21:18.018462	331.6	46.2	-89.6	9.4
2025-01-17 10:21:19.167245	331.0	46.3	-89.9	5.5
2025-01-17 10:21:20.326219	330.4	46.4	-89.7	6.5
2025-01-17 10:21:21.480747	329.7	46.5	-89.9	11.6
2025-01-17 10:21:22.640609	329.1	46.6	-89.8	12.7
2025-01-17 10:21:23.804928	328.5	46.7	-90.2	9.8
2025-01-17 10:21:24.966642	327.8	46.7	-90.2	14.7
2025-01-17 10:21:26.123160	327.2	46.8	-90.0	13.6
2025-01-17 10:21:27.271692	326.6	46.9	-90.0	3.8
2025-01-17 10:21:28.429076	325.9	46.9	-90.6	10.6
2025-01-17 10:21:29.575386	325.3	47.0	-90.4	5.6
2025-01-17 10:21:30.728580	324.6	47.1	-90.0	4.4
2025-01-17 10:21:31.878333	324.0	47.1	-90.1	7.0
2025-01-17 10:21:33.036909	323.3	47.2	-90.1	9.7
2025-01-17 10:21:34.193535	322.7	47.2	-90.2	7.4
2025-01-17 10:21:35.348243	322.0	47.3	-90.1	9.6
2025-01-17 10:21:36.500417	321.4	47.3	-90.3	9.0
2025-01-17 10:21:37.652364	320.7	47.3	-90.0	6.2
2025-01-17 10:21:38.815346	320.1	47.3	-89.8	4.1
2025-01-17 10:21:39.975040	319.4	47.4	-90.0	6.8
2025-01-17 10:21:41.130463	318.7	47.4	-89.9	4.9
2025-01-17 10:21:42.285310	318.1	47.4	-89.7	1.6
2025-01-17 10:21:43.443288	317.4	47.4	-89.7	5.1
2025-01-17 10:21:44.598645	316.7	47.4	-90.1	4.7
2025-01-17 10:21:45.753429	316.1	47.4	-89.9	2.9
2025-01-17 10:21:46.914371	315.4	47.4	-90.1	6.0
2025-01-17 10:21:48.063923	314.7	47.4	-90.1	3.7
2025-01-17 10:21:49.216157	314.1	47.4	-90.2	4.4
2025-01-17 10:21:50.371188	313.4	47.4	-90.1	5.1
2025-01-17 10:21:51.525459	312.8	47.4	-90.1	8.4
2025-01-17 10:21:52.684322	312.1	47.4	-90.2	5.0
2025-01-17 10:21:53.835445	311.4	47.3	-90.4	6.2
2025-01-17 10:21:54.985338	310.8	47.3	-90.2	7.7
2025-01-17 10:21:56.141714	310.1	47.3	-90.1	4.5
2025-01-17 10:21:57.302223	309.5	47.2	-90.4	6.4
2025-01-17 10:21:58.455016	308.8	47.2	-90.3	9.6
2025-01-17 10:21:59.603927	308.2	47.1	-90.2	9.9
2025-01-17 10:22:00.762002	307.5	47.1	-90.3	9.1
2025-01-17 10:22:01.910373	306.9	47.0	-90.0	9.9
2025-01-17 10:22:03.061963	306.2	47.0	-89.9	9.1
2025-01-17 10:22:04.219184	305.6	46.9	-89.9	11.0
2025-01-17 10:22:05.369037	304.9	46.8	-89.8	7.2
2025-01-17 10:22:06.523873	304.3	46.8	-90.4	8.2
2025-01-17 10:22:07.682074	303.7	46.7	-89.8	8.2
2025-01-17 10:22:08.829945	303.0	46.6	-90.5	7.7
2025-01-17 10:22:09.984661	302.4	46.5	-90.1	11.7
2025-01-17 10:22:11.139177	301.8	46.5	-90.1	12.0
2025-01-17 10:22:12.302067	301.1	46.4	-90.0	8.9
2025-01-17 10:22:13.463144	300.5	46.3	-90.3	8.7
2025-01-17 10:22:14.621086	299.9	46.2	-89.9	9.7
2025-01-17 10:22:15.773466	299.3	46.1	-89.9	8.7
2025-01-17 10:22:16.922970	298.7	46.0	-90.2	10.5
2025-01-17 10:22:18.074994	298.1	45.9	-90.2	10.7
2025-01-17 10:22:19.240099	297.5	45.8	-90.2	12.4
2025-01-17 10:22:20.392592	296.9	45.7	-90.3	9.8
2025-01-17 10:22:21.557372	296.3	45.5	-90.4	7.8
2025-01-17 10:22:22.712881	295.7	45.4	-90.5	7.8
2025-01-17 10:22:23.865321	295.1	45.3	-90.2	15.1
2025-01-17 10:22:25.021693	294.6	45.2	-90.3	11.4
2025-01-17 10:22:26.174076	294.0	45.1	-89.9	15.0
2025-01-17 10:22:27.334621	293.4	44.9	-90.0	8.0
2025-01-17 10:22:28.495755	292.8	44.8	-90.0	12.4
2025-01-17 10:22:29.646325	292.3	44.7	-90.4	14.1
2025-01-17 10:22:30.799025	291.7	44.5	-90.7	14.2
2025-01-17 10:22:31.953326	291.2	44.4	-90.7	15.0
2025-01-17 10:22:33.104158	290.6	44.2	-90.2	10.1
2025-01-17 10:22:34.265250	290.1	44.1	-90.5	18.4
2025-01-17 10:22:35.421122	289.6	43.9	-89.9	19.6
2025-01-17 10:22:36.574384	289.0	43.8	-90.5	20.1
2025-01-17 10:22:37.733779	288.5	43.6	-90.1	15.1
2025-01-17 10:22:38.893729	288.0	43.5	-90.2	15.4
2025-01-17 10:22:40.046532	287.5	43.3	-90.0	17.7
2025-01-17 10:22:41.201700	287.0	43.2	-90.2	9.5
2025-01-17 10:22:42.358969	286.5	43.0	-90.4	6.9
2025-01-17 10:22:43.508051	286.0	42.9	-90.3	8.3
2025-01-17 10:22:44.660380	285.5	42.7	-90.6	7.3
2025-01-17 10:22:45.817377	285.0	42.5	-90.5	11.0
2025-01-17 10:22:46.963681	284.5	42.4	-90.2	12.3
2025-01-17 10:22:48.122887	284.0	42.2	-90.3	11.8
2025-01-17 10:22:49.282582	283.5	42.0	-89.8	11.6
2025-01-17 10:22:50.442473	283.1	41.9	-90.0	8.9
2025-01-17 10:22:51.596552	282.6	41.7	-89.5	11.3
2025-01-17 10:22:52.752247	282.1	41.5	-89.8	8.8
2025-01-17 10:22:53.908651	281.7	41.3	-89.8	9.5
2025-01-17 10:22:55.061390	281.2	41.2	-89.6	12.6
2025-01-17 10:22:56.222083	280.8	41.0	-90.0	5.7
2025-01-17 10:22:57.381918	280.4	40.8	-90.3	10.5
2025-01-17 10:22:58.536126	279.9	40.6	-90.1	8.9
2025-01-17 10:22:59.696439	279.5	40.4	-90.3	4.8
2025-01-17 10:23:00.850265	279.1	40.3	-89.9	5.1
2025-01-17 10:23:02.008236	278.6	40.1	-90.2	6.0
2025-01-17 10:23:03.162038	278.2	39.9	-90.2	6.6
2025-01-17 10:23:04.317388	277.8	39.7	-90.2	4.1
2025-01-17 10:23:05.471253	277.4	39.5	-90.1	8.2
2025-01-17 10:23:06.627667	277.0	39.3	-90.4	10.0
2025-01-17 10:23:07.784190	276.6	39.2	-90.5	4.6
2025-01-17 10:23:08.936332	276.2	39.0	-90.4	9.3
2025-01-17 10:23:10.086403	275.8	38.8	-90.3	10.5
2025-01-17 10:23:11.238004	275.4	38.6	-90.0	6.2
2025-01-17 10:23:12.393382	275.1	38.4	-90.0	12.2
2025-01-17 10:23:13.551522	274.7	38.2	-90.2	9.0
2025-01-17 10:23:14.705622	274.3	38.0	-90.2	13.8
2025-01-17 10:23:15.852416	274.0	37.9	-90.2	11.7
2025-01-17 10:23:17.006808	273.6	37.7	-90.2	11.0
2025-01-17 10:23:18.157360	273.2	37.5	-90.5	14.7
2025-01-17 10:23:19.312867	272.9	37.3	-90.1	15.1
2025-01-17 10:23:20.460727	272.5	37.1	-90.5	13.4
2025-01-17 10:23:21.616179	272.2	36.9	-90.6	10.1
2025-01-17 10:23:22.774314	271.8	36.7	-90.5	9.7
2025-01-17 10:23:23.929012	271.5	36.5	-89.8	8.8
2025-01-17 10:23:25.078202	271.2	36.3	-90.1	10.1
2025-01-17 10:23:26.233514	270.8	36.2	-89.4	7.2
2025-01-17 10:23:27.380707	270.5	36.0	-90.2	6.5
2025-01-17 10:23:28.548279	270.2	35.8	-90.2	5.4
2025-01-17 10:23:29.694078	269.9	35.6	-90.1	2.5
2025-01-17 10:23:30.846107	269.6	35.4	-90.4	3.3
2025-01-17 10:23:32.000153	269.3	35.2	-90.5	6.3
2025-01-17 10:23:33.156080	269.0	35.0	-90.5	6.5
2025-01-17 10:23:34.310884	268.6	34.8	-90.3	4.6
2025-01-17 10:23:35.468302	268.3	34.6	-89.9	6.0
2025-01-17 10:23:36.622804	268.0	34.5	-90.3	7.7
2025-01-17 10:23:37.777847	267.8	34.3	-90.0	5.6
2025-01-17 10:23:38.936239	267.5	34.1	-90.2	7.1
2025-01-17 10:23:40.083362	267.2	33.9	-90.0	9.0
2025-01-17 10:23:41.233540	266.9	33.7	-90.6	6.5
2025-01-17 10:23:42.387131	266.6	33.5	-90.3	9.0
2025-01-17 10:23:43.549451	266.3	33.3	-90.2	11.1
2025-01-17 10:23:44.704107	266.1	33.1	-90.0	11.0
2025-01-17 10:23:45.861869	265.8	33.0	-90.4	10.8
2025-01-17 10:23:47.018398	265.5	32.8	-90.2	11.4
2025-01-17 10:23:48.179432	265.3	32.6	-90.0	11.3
2025-01-17 10:23:49.339963	265.0	32.4	-90.0	10.0
2025-01-17 10:23:50.483766	264.7	32.2	-90.0	9.7
2025-01-17 10:23:51.632115	264.5	32.0	-90.4	11.9
2025-01-17 10:23:52.792042	264.2	31.9	-90.0	11.3
2025-01-17 10:23:53.953299	264.0	31.7	-90.0	7.3
2025-01-17 10:23:55.108732	263.7	31.5	-90.0	6.8
2025-01-17 10:23:56.267146	263.5	31.3	-90.0	11.2
2025-01-17 10:23:57.420320	263.2	31.1	-90.0	8.0
2025-01-17 10:23:58.567878	263.0	30.9	-90.2	7.6
2025-01-17 10:23:59.724269	262.8	30.8	-90.2	10.4
2025-01-17 10:24:00.877919	262.5	30.6	-90.7	11.5
2025-01-17 10:24:02.031196	262.3	30.4	-90.5	8.5
2025-01-17 10:24:03.182220	262.1	30.2	-90.5	13.0
2025-01-17 10:24:04.332209	261.9	30.1	-90.0	12.7
2025-01-17 10:24:05.487350	261.6	29.9	-90.4	10.7
2025-01-17 10:24:06.637507	261.4	29.7	-90.3	14.7
2025-01-17 10:24:07.790210	261.2	29.5	-90.2	9.5
2025-01-17 10:24:08.946518	261.0	29.3	-90.4	7.6
2025-01-17 10:24:10.102900	260.8	29.2	-90.4	9.1
2025-01-17 10:24:11.261310	260.6	29.0	-90.1	10.6
2025-01-17 10:24:12.420087	260.3	28.8	-90.4	8.3
2025-01-17 10:24:13.570251	260.1	28.7	-90.6	6.2
2025-01-17 10:24:14.731732	259.9	28.5	-90.1	8.9
2025-01-17 10:24:15.886785	259.7	28.3	-90.2	5.8
2025-01-17 10:24:17.049228	259.5	28.1	-89.9	2.0
2025-01-17 10:24:18.199725	259.3	28.0	-89.6	7.8
2025-01-17 10:24:19.350043	259.1	27.8	-89.7	7.3
2025-01-17 10:24:20.511343	258.9	27.6	-89.8	7.1
2025-01-17 10:24:21.666196	258.8	27.5	-89.6	6.9
2025-01-17 10:24:22.816075	258.6	27.3	-90.1	8.9
2025-01-17 10:24:23.969628	258.4	27.1	-90.5	8.3
2025-01-17 10:24:25.119280	258.2	27.0	-90.1	8.1
2025-01-17 10:24:26.273699	258.0	26.8	-90.1	6.0
2025-01-17 10:24:27.432099	257.8	26.6	-90.3	6.6
2025-01-17 10:24:28.588531	257.6	26.5	-90.1	5.1
2025-01-17 10:24:29.740542	257.5	26.3	-90.3	7.6
2025-01-17 10:24:30.898131	257.3	26.1	-90.4	4.7
2025-01-17 10:24:32.049501	257.1	26.0	-90.0	4.0
2025-01-17 10:24:33.201079	256.9	25.8	-89.9	5.3
2025-01-17 10:24:34.364022	256.8	25.7	-90.5	7.2
2025-01-17 10:24:35.516268	256.6	25.5	-90.4	5.8
2025-01-17 10:24:36.668826	256.4	25.3	-89.9	5.0
2025-01-17 10:24:37.822507	256.3	25.2	-90.5	7.3
2025-01-17 10:24:38.977160	256.1	25.0	-90.4	5.7
2025-01-17 10:24:40.130714	255.9	24.9	-90.2	5.8
2025-01-17 10:24:41.285486	255.8	24.7	-90.1	6.6
2025-01-17 10:24:42.434888	255.6	24.5	-90.2	3.9
2025-01-17 10:24:43.583975	255.5	24.4	-90.2	4.5
2025-01-17 10:24:44.739772	255.3	24.2	-90.5	4.2
2025-01-17 10:24:45.891359	255.2	24.1	-90.4	3.9
2025-01-17 10:24:47.051157	255.0	23.9	-90.3	3.6
2025-01-17 10:24:48.201395	254.9	23.8	-90.4	3.3
2025-01-17 10:24:49.352519	254.7	23.6	-90.4	4.1
2025-01-17 10:24:50.503985	254.6	23.5	-90.4	2.2
2025-01-17 10:24:51.657084	254.4	23.3	-90.7	1.8
2025-01-17 10:24:52.813701	254.3	23.2	-90.6	2.3
2025-01-17 10:24:53.964759	254.1	23.0	-90.7	2.5
2025-01-17 10:24:55.125715	254.0	22.9	-90.6	1.6
2025-01-17 10:24:56.275016	253.8	22.7	-90.4	0.4
2025-01-17 10:24:57.437348	253.7	22.6	-90.5	2.3
2025-01-17 10:24:58.586554	253.6	22.4	-90.4	4.5
2025-01-17 10:24:59.742110	253.4	22.3	-90.1	2.5
2025-01-17 10:25:00.888975	253.3	22.1	-90.7	2.9
2025-01-17 10:25:02.042222	253.2	22.0	-90.7	4.4
2025-01-17 10:25:03.184344	253.0	21.9	-90.4	4.5
2025-01-17 10:25:04.332491	252.9	21.7	-90.4	3.5
2025-01-17 10:25:05.489833	252.8	21.6	-90.4	2.8
2025-01-17 10:25:06.640498	252.6	21.4	-90.5	3.5
2025-01-17 10:25:07.797382	252.5	21.3	-90.5	4.4
2025-01-17 10:25:08.950296	252.4	21.1	-90.8	2.7
2025-01-17 10:25:10.098261	252.2	21.0	-90.1	1.9
2025-01-17 10:25:11.245927	252.1	20.9	-90.4	4.0
2025-01-17 10:25:12.401229	252.0	20.7	-90.6	3.8
2025-01-17 10:25:13.553786	251.9	20.6	-90.6	2.9
2025-01-17 10:25:14.712879	251.8	20.5	-90.7	1.2
2025-01-17 10:25:15.871314	251.6	20.3	-90.4	3.2
2025-01-17 10:25:17.025923	251.5	20.2	-90.9	2.3
2025-01-17 10:25:18.175628	251.4	20.0	-90.3	2.9
2025-01-17 10:25:19.339970	251.3	19.9	-90.6	2.7
2025-01-17 10:25:20.488055	251.2	19.8	-90.3	2.8
2025-01-17 10:25:21.641061	251.0	19.6	-90.6	2.8
2025-01-17 10:25:22.795122	250.9	19.5	-90.4	2.1
2025-01-17 10:25:23.946117	250.8	19.4	-90.6	2.1
2025-01-17 10:25:25.095812	250.7	19.2	-90.3	2.3
2025-01-17 10:25:26.246829	250.6	19.1	-89.9	7.0
2025-01-17 10:25:27.400958	250.5	19.0	-90.2	3.8
2025-01-17 10:25:28.559424	250.4	18.8	-90.2	5.3
2025-01-17 10:25:29.717178	250.3	18.7	-90.3	4.3
2025-01-17 10:25:30.865188	250.2	18.6	-90.3	5.9
2025-01-17 10:25:32.015825	250.1	18.5	-90.5	6.6
2025-01-17 10:25:33.174283	250.0	18.3	-90.2	7.2
2025-01-17 10:25:34.334096	249.8	18.2	-90.4	7.8
2025-01-17 10:25:35.479787	249.7	18.1	-90.6	6.5
2025-01-17 10:25:36.635681	249.6	17.9	-90.3	6.4
2025-01-17 10:25:37.788823	249.5	17.8	-90.7	5.5
2025-01-17 10:25:38.946050	249.4	17.7	-90.6	5.1
2025-01-17 10:25:40.099462	249.3	17.6	-90.6	4.8
2025-01-17 10:25:41.248898	249.2	17.4	-90.4	6.6
2025-01-17 10:25:42.402801	249.1	17.3	-90.5	5.2
2025-01-17 10:25:43.556920	249.0	17.2	-90.6	4.0
2025-01-17 10:25:44.714602	248.9	17.1	-90.7	4.1
2025-01-17 10:25:45.863809	248.9	16.9	-90.5	4.4
2025-01-17 10:25:47.022450	248.8	16.8	-90.6	5.0
2025-01-17 10:25:48.169048	248.7	16.7	-90.7	7.9
2025-01-17 10:25:49.322587	248.6	16.6	-90.3	4.3
2025-01-17 10:25:50.472670	248.5	16.5	-90.6	3.7
2025-01-17 10:25:51.626702	248.4	16.3	-90.4	4.2
2025-01-17 10:25:52.799275	248.3	16.2	-90.4	7.4
2025-01-17 10:25:53.952885	248.2	16.1	-90.2	2.2
2025-01-17 10:25:55.107187	248.1	16.0	-90.5	4.0
2025-01-17 10:25:56.266274	248.0	15.9	-90.5	8.8
2025-01-17 10:25:57.413825	247.9	15.7	-90.5	8.1
2025-01-17 10:25:58.567672	247.8	15.6	-90.4	7.3
2025-01-17 10:25:59.719015	247.8	15.5	-90.7	9.7
2025-01-17 10:26:00.870785	247.7	15.4	-90.4	11.3
2025-01-17 10:26:02.033961	247.6	15.3	-90.2	11.2
2025-01-17 10:26:03.185008	247.5	15.2	-90.4	11.2
2025-01-17 10:26:04.334802	247.4	15.1	-90.2	11.5
2025-01-17 10:26:05.490048	247.3	14.9	-90.6	7.3
2025-01-17 10:26:06.643529	247.3	14.8	-90.5	10.0
2025-01-17 10:26:07.798760	247.2	14.7	-90.6	11.9
2025-01-17 10:26:08.955393	247.1	14.6	-90.3	5.5
2025-01-17 10:26:10.111860	247.0	14.5	-89.8	7.4
#Closed at: 2025-01-17 10:17:32.514560