passes_logs/2025/01/17/LEX_Murmansk/LEX_Murmansk__20250117_133756_NOAA_19_rec.log

#Pass ID: 20250117_133756_NOAA 19
#Satellite: NOAA 19
#Configuration: NOAA 19
#Start time: 2025-01-17 13:37:51.857454

#LorettStation: 1.0.0 05.05.2024
#Station: LEX_Murmansk
#Location: 33.156738 lon 68.926811 lat
#TLE: 1 33591U 09005A   25017.12803845  .00000314  00000+0  19161-3 0  9999
#TLE: 2 33591  99.0192  80.9069 0014403  51.8715 308.3753 14.13261185821848

#Time	Az	El	Level	SNR
2025-01-17 13:38:06.054306	45.2	16.0	-89.1	4.2
2025-01-17 13:38:07.209057	45.0	16.1	-89.1	2.5
2025-01-17 13:38:08.363273	44.8	16.2	-89.4	2.9
2025-01-17 13:38:09.526241	44.7	16.3	-88.7	1.5
2025-01-17 13:38:10.680241	44.5	16.4	-89.3	2.6
2025-01-17 13:38:11.839590	44.3	16.5	-89.6	2.1
2025-01-17 13:38:13.002592	44.1	16.5	-89.6	2.6
2025-01-17 13:38:14.168007	43.9	16.6	-89.4	2.2
2025-01-17 13:38:15.330521	43.7	16.7	-89.8	3.0
2025-01-17 13:38:16.493554	43.5	16.8	-89.5	1.8
2025-01-17 13:38:17.648850	43.3	16.9	-89.6	3.7
2025-01-17 13:38:18.810790	43.1	17.0	-89.8	1.5
2025-01-17 13:38:19.964218	42.9	17.0	-89.7	3.9
2025-01-17 13:38:21.128257	42.7	17.1	-89.5	2.4
2025-01-17 13:38:22.292071	42.5	17.2	-89.6	2.5
2025-01-17 13:38:23.450886	42.3	17.3	-89.8	2.9
2025-01-17 13:38:24.613505	42.1	17.4	-90.0	2.0
2025-01-17 13:38:25.772228	41.9	17.5	-89.9	3.4
2025-01-17 13:38:26.934771	41.7	17.6	-90.0	3.6
2025-01-17 13:38:28.086705	41.4	17.6	-90.1	2.5
2025-01-17 13:38:29.247174	41.2	17.7	-90.1	6.2
2025-01-17 13:38:30.409331	41.0	17.8	-90.2	2.5
2025-01-17 13:38:31.566683	40.8	17.9	-89.7	3.6
2025-01-17 13:38:32.724333	40.6	18.0	-90.1	2.2
2025-01-17 13:38:33.883122	40.4	18.1	-90.1	3.1
2025-01-17 13:38:35.050353	40.2	18.1	-90.1	5.4
2025-01-17 13:38:36.210350	40.0	18.2	-90.3	2.9
2025-01-17 13:38:37.375172	39.7	18.3	-90.0	7.5
2025-01-17 13:38:38.538991	39.5	18.4	-89.8	6.2
2025-01-17 13:38:39.702538	39.3	18.5	-89.8	3.5
2025-01-17 13:38:40.866930	39.1	18.5	-90.1	5.4
2025-01-17 13:38:42.024331	38.8	18.6	-89.9	4.5
2025-01-17 13:38:43.175681	38.6	18.7	-90.2	4.6
2025-01-17 13:38:44.337085	38.4	18.8	-90.1	2.1
2025-01-17 13:38:45.490846	38.2	18.9	-90.1	2.9
2025-01-17 13:38:46.654948	37.9	18.9	-90.1	4.3
2025-01-17 13:38:47.817730	37.7	19.0	-90.2	3.5
2025-01-17 13:38:48.979229	37.5	19.1	-90.0	5.5
2025-01-17 13:38:50.136195	37.2	19.2	-89.6	2.7
2025-01-17 13:38:51.270186	37.0	19.3	-89.9	6.5
2025-01-17 13:38:52.404077	36.8	19.3	-90.1	6.8
2025-01-17 13:38:53.563503	36.6	19.4	-90.1	7.9
2025-01-17 13:38:54.730337	36.3	19.5	-90.1	5.4
2025-01-17 13:38:55.892345	36.1	19.6	-89.9	3.5
2025-01-17 13:38:57.057466	35.8	19.7	-89.9	3.3
2025-01-17 13:38:58.205815	35.6	19.7	-90.0	2.1
2025-01-17 13:38:59.372984	35.4	19.8	-89.7	3.1
2025-01-17 13:39:00.537185	35.1	19.9	-89.9	3.6
2025-01-17 13:39:01.710632	34.9	20.0	-90.2	6.0
2025-01-17 13:39:02.873691	34.6	20.1	-90.1	5.7
2025-01-17 13:39:04.041678	34.4	20.1	-89.9	4.5
2025-01-17 13:39:05.205009	34.1	20.2	-90.1	5.6
2025-01-17 13:39:06.363595	33.9	20.3	-90.0	6.1
2025-01-17 13:39:07.520824	33.6	20.4	-90.2	5.1
2025-01-17 13:39:08.678761	33.4	20.4	-90.0	2.6
2025-01-17 13:39:09.841620	33.1	20.5	-89.6	4.5
2025-01-17 13:39:10.999169	32.9	20.6	-89.9	2.5
2025-01-17 13:39:12.158753	32.6	20.7	-89.9	4.5
2025-01-17 13:39:13.326051	32.4	20.7	-90.0	3.4
2025-01-17 13:39:14.487953	32.1	20.8	-89.7	4.8
2025-01-17 13:39:15.650753	31.8	20.9	-89.8	7.1
2025-01-17 13:39:16.810491	31.6	20.9	-89.7	6.7
2025-01-17 13:39:17.969316	31.3	21.0	-90.1	5.5
2025-01-17 13:39:19.124172	31.1	21.1	-89.9	8.1
2025-01-17 13:39:20.287384	30.8	21.2	-89.6	5.0
2025-01-17 13:39:21.446638	30.5	21.2	-89.6	7.1
2025-01-17 13:39:22.606489	30.3	21.3	-90.1	7.0
2025-01-17 13:39:23.765115	30.0	21.4	-89.7	4.4
2025-01-17 13:39:24.925937	29.7	21.4	-89.3	6.5
2025-01-17 13:39:26.090157	29.4	21.5	-89.7	7.3
2025-01-17 13:39:27.253637	29.2	21.6	-90.0	6.6
2025-01-17 13:39:28.407387	28.9	21.6	-90.1	8.3
2025-01-17 13:39:29.569634	28.6	21.7	-90.1	9.5
2025-01-17 13:39:30.732925	28.4	21.8	-89.9	10.8
2025-01-17 13:39:31.898727	28.1	21.8	-90.0	9.1
2025-01-17 13:39:33.055593	27.8	21.9	-89.8	7.9
2025-01-17 13:39:34.214912	27.5	22.0	-90.1	4.3
2025-01-17 13:39:35.378150	27.2	22.0	-89.9	3.6
2025-01-17 13:39:36.540606	27.0	22.1	-89.5	4.2
2025-01-17 13:39:37.703980	26.7	22.2	-89.8	3.7
2025-01-17 13:39:38.864801	26.4	22.2	-89.9	4.1
2025-01-17 13:39:40.022487	26.1	22.3	-89.9	5.0
2025-01-17 13:39:41.185522	25.8	22.4	-89.8	3.6
2025-01-17 13:39:42.350385	25.5	22.4	-89.7	1.8
2025-01-17 13:39:43.500015	25.3	22.5	-90.1	6.1
2025-01-17 13:39:44.681070	25.0	22.5	-89.6	5.2
2025-01-17 13:39:45.839219	24.7	22.6	-89.7	7.2
2025-01-17 13:39:46.994545	24.4	22.7	-89.8	10.2
2025-01-17 13:39:48.152467	24.1	22.7	-90.0	11.2
2025-01-17 13:39:49.315053	23.8	22.8	-89.8	12.5
2025-01-17 13:39:50.475239	23.5	22.8	-90.0	11.0
2025-01-17 13:39:51.633143	23.2	22.9	-90.2	8.4
2025-01-17 13:39:52.790535	22.9	22.9	-90.0	6.9
2025-01-17 13:39:53.956768	22.6	23.0	-89.9	7.6
2025-01-17 13:39:55.116416	22.3	23.0	-89.7	5.3
2025-01-17 13:39:56.282051	22.0	23.1	-89.9	4.2
2025-01-17 13:39:57.440699	21.7	23.2	-90.2	4.6
2025-01-17 13:39:58.595006	21.4	23.2	-89.5	7.8
2025-01-17 13:39:59.760428	21.1	23.3	-89.7	6.0
2025-01-17 13:40:00.918333	20.8	23.3	-89.8	10.0
2025-01-17 13:40:02.074204	20.5	23.4	-89.9	11.3
2025-01-17 13:40:03.230831	20.2	23.4	-89.9	8.0
2025-01-17 13:40:04.386684	19.9	23.4	-90.0	8.5
2025-01-17 13:40:05.551022	19.6	23.5	-89.8	9.5
2025-01-17 13:40:06.708976	19.3	23.5	-90.0	5.5
2025-01-17 13:40:07.867511	19.0	23.6	-89.9	6.9
2025-01-17 13:40:09.031106	18.7	23.6	-90.0	7.9
2025-01-17 13:40:10.194558	18.4	23.7	-90.1	6.3
2025-01-17 13:40:11.356063	18.0	23.7	-90.2	4.1
2025-01-17 13:40:12.515155	17.7	23.8	-90.2	3.4
2025-01-17 13:40:13.685193	17.4	23.8	-90.1	3.5
2025-01-17 13:40:14.847314	17.1	23.8	-90.2	3.2
2025-01-17 13:40:16.019110	16.8	23.9	-89.7	1.5
2025-01-17 13:40:17.177078	16.5	23.9	-89.8	3.9
2025-01-17 13:40:18.338672	16.2	24.0	-89.8	3.5
2025-01-17 13:40:19.497593	15.8	24.0	-89.7	5.2
2025-01-17 13:40:20.652032	15.5	24.0	-89.4	3.4
2025-01-17 13:40:21.808798	15.2	24.1	-89.4	5.2
2025-01-17 13:40:22.966251	14.9	24.1	-89.7	8.1
2025-01-17 13:40:24.124376	14.6	24.1	-89.8	9.0
2025-01-17 13:40:25.287972	14.2	24.2	-89.9	4.7
2025-01-17 13:40:26.444358	13.9	24.2	-89.8	10.6
2025-01-17 13:40:27.599511	13.6	24.2	-89.7	6.6
2025-01-17 13:40:28.755402	13.3	24.2	-89.9	7.4
2025-01-17 13:40:29.911471	13.0	24.3	-90.1	7.0
2025-01-17 13:40:31.071704	12.6	24.3	-90.1	4.3
2025-01-17 13:40:32.235578	12.3	24.3	-90.1	4.6
2025-01-17 13:40:33.401809	12.0	24.3	-89.9	7.0
2025-01-17 13:40:34.561410	11.7	24.4	-90.1	5.4
2025-01-17 13:40:35.726528	11.3	24.4	-90.2	3.8
2025-01-17 13:40:36.886823	11.0	24.4	-89.6	1.3
2025-01-17 13:40:38.047035	10.7	24.4	-90.1	3.3
2025-01-17 13:40:39.204577	10.4	24.5	-90.0	1.7
2025-01-17 13:40:40.366641	10.0	24.5	-90.1	2.7
2025-01-17 13:40:41.523493	9.7	24.5	-90.1	3.5
2025-01-17 13:40:42.678421	9.4	24.5	-90.0	2.2
2025-01-17 13:40:43.833582	9.1	24.5	-89.9	3.4
2025-01-17 13:40:44.996334	8.7	24.5	-89.9	4.8
2025-01-17 13:40:46.151240	8.4	24.6	-90.1	5.4
2025-01-17 13:40:47.318485	8.1	24.6	-89.9	4.3
2025-01-17 13:40:48.477345	7.7	24.6	-89.8	7.6
2025-01-17 13:40:49.632502	7.4	24.6	-89.9	11.1
2025-01-17 13:40:50.787399	7.1	24.6	-89.9	5.7
2025-01-17 13:40:51.947137	6.8	24.6	-90.3	9.1
2025-01-17 13:40:53.100509	6.4	24.6	-89.9	10.4
2025-01-17 13:40:54.268134	6.1	24.6	-90.2	8.1
2025-01-17 13:40:55.425631	5.8	24.6	-90.0	6.1
2025-01-17 13:40:56.594080	5.4	24.6	-89.6	7.5
2025-01-17 13:40:57.757235	5.1	24.6	-89.5	9.3
2025-01-17 13:40:58.914133	4.8	24.6	-90.2	6.5
2025-01-17 13:41:00.071705	4.4	24.6	-90.2	6.8
2025-01-17 13:41:01.229264	4.1	24.6	-89.9	9.4
2025-01-17 13:41:02.389254	3.8	24.6	-90.0	4.1
2025-01-17 13:41:03.544137	3.4	24.6	-89.9	5.3
2025-01-17 13:41:04.707090	3.1	24.6	-89.9	5.9
2025-01-17 13:41:05.868698	2.8	24.6	-90.1	4.1
2025-01-17 13:41:07.034070	2.5	24.6	-89.9	5.5
2025-01-17 13:41:08.192163	2.1	24.6	-90.0	3.8
2025-01-17 13:41:09.356299	1.8	24.6	-90.2	3.5
2025-01-17 13:41:10.516080	1.5	24.6	-90.4	4.6
2025-01-17 13:41:11.675884	1.1	24.6	-90.4	2.2
2025-01-17 13:41:12.835712	0.8	24.6	-90.1	2.5
2025-01-17 13:41:14.003330	0.5	24.6	-90.3	4.0
2025-01-17 13:41:15.157431	0.1	24.6	-90.4	4.5
2025-01-17 13:41:16.320863	359.8	24.6	-90.3	4.2
2025-01-17 13:41:17.479836	359.5	24.5	-90.3	6.0
2025-01-17 13:41:18.632835	359.2	24.5	-90.1	8.3
2025-01-17 13:41:19.793773	358.8	24.5	-90.2	3.1
2025-01-17 13:41:20.959820	358.5	24.5	-90.5	6.2
2025-01-17 13:41:22.114705	358.2	24.5	-90.1	4.4
2025-01-17 13:41:23.278561	357.9	24.5	-90.4	3.6
2025-01-17 13:41:24.441912	357.5	24.4	-90.3	3.7
2025-01-17 13:41:25.601675	357.2	24.4	-90.1	5.4
2025-01-17 13:41:26.763643	356.9	24.4	-89.9	4.0
2025-01-17 13:41:27.926812	356.5	24.4	-89.8	4.9
2025-01-17 13:41:29.083181	356.2	24.3	-90.1	4.5
2025-01-17 13:41:30.241170	355.9	24.3	-90.6	4.4
2025-01-17 13:41:31.405019	355.6	24.3	-90.6	5.7
2025-01-17 13:41:32.563438	355.3	24.3	-90.2	4.8
2025-01-17 13:41:33.726605	354.9	24.2	-90.1	4.4
2025-01-17 13:41:34.898370	354.6	24.2	-90.0	9.9
2025-01-17 13:41:36.048467	354.3	24.2	-90.1	6.8
2025-01-17 13:41:37.207794	354.0	24.1	-90.2	10.5
2025-01-17 13:41:38.365319	353.7	24.1	-90.5	8.1
2025-01-17 13:41:39.520016	353.3	24.1	-90.3	11.0
2025-01-17 13:41:40.684164	353.0	24.0	-90.6	9.7
2025-01-17 13:41:41.850230	352.7	24.0	-90.4	11.2
2025-01-17 13:41:43.012579	352.4	24.0	-90.1	11.1
2025-01-17 13:41:44.165963	352.1	23.9	-90.6	11.0
2025-01-17 13:41:45.321657	351.7	23.9	-90.5	6.9
2025-01-17 13:41:46.478143	351.4	23.9	-90.7	6.2
2025-01-17 13:41:47.632898	351.1	23.8	-90.6	8.4
2025-01-17 13:41:48.795330	350.8	23.8	-90.6	7.8
2025-01-17 13:41:49.949033	350.5	23.7	-90.3	10.4
2025-01-17 13:41:51.106660	350.2	23.7	-90.4	8.0
2025-01-17 13:41:52.263554	349.9	23.7	-90.2	8.2
2025-01-17 13:41:53.388300	349.6	23.6	-90.6	10.5
2025-01-17 13:41:54.510828	349.3	23.6	-90.1	13.0
2025-01-17 13:41:55.645057	349.0	23.5	-90.2	12.6
2025-01-17 13:41:56.781442	348.7	23.5	-90.0	11.1
2025-01-17 13:41:57.937987	348.4	23.4	-90.6	9.5
2025-01-17 13:41:59.081372	348.1	23.4	-90.2	10.7
2025-01-17 13:42:00.219964	347.8	23.3	-90.6	10.0
2025-01-17 13:42:01.341414	347.5	23.3	-89.9	10.7
2025-01-17 13:42:02.496744	347.2	23.3	-90.6	10.2
2025-01-17 13:42:03.658152	346.9	23.2	-90.4	7.7
2025-01-17 13:42:04.819060	346.6	23.2	-90.7	9.5
2025-01-17 13:42:05.986538	346.3	23.1	-90.7	8.3
2025-01-17 13:42:07.140870	346.0	23.0	-90.7	11.0
2025-01-17 13:42:08.303960	345.7	23.0	-90.4	7.6
2025-01-17 13:42:09.456438	345.4	22.9	-90.7	8.8
2025-01-17 13:42:10.623036	345.1	22.9	-90.6	9.4
2025-01-17 13:42:11.784638	344.8	22.8	-90.5	9.0
2025-01-17 13:42:12.944519	344.5	22.8	-90.5	5.4
2025-01-17 13:42:14.103848	344.2	22.7	-90.5	10.1
2025-01-17 13:42:15.264915	343.9	22.7	-90.5	5.0
2025-01-17 13:42:16.427590	343.6	22.6	-90.2	8.2
2025-01-17 13:42:17.581621	343.3	22.5	-90.5	7.8
2025-01-17 13:42:18.748694	343.0	22.5	-90.4	6.4
2025-01-17 13:42:19.911613	342.8	22.4	-90.7	7.8
2025-01-17 13:42:21.074985	342.5	22.4	-90.3	7.6
2025-01-17 13:42:22.237427	342.2	22.3	-90.5	3.8
2025-01-17 13:42:23.399286	341.9	22.2	-90.2	8.9
2025-01-17 13:42:24.545534	341.6	22.2	-90.4	9.0
2025-01-17 13:42:25.704253	341.3	22.1	-90.3	3.7
2025-01-17 13:42:26.860142	341.1	22.0	-90.3	5.0
2025-01-17 13:42:28.026574	340.8	22.0	-90.2	6.5
2025-01-17 13:42:29.181106	340.5	21.9	-90.1	6.7
2025-01-17 13:42:30.328628	340.2	21.9	-90.7	5.2
2025-01-17 13:42:31.485051	340.0	21.8	-90.7	5.8
2025-01-17 13:42:32.639127	339.7	21.7	-90.8	6.3
2025-01-17 13:42:33.795605	339.4	21.7	-90.8	2.1
2025-01-17 13:42:34.954272	339.1	21.6	-90.9	4.2
2025-01-17 13:42:36.131480	338.9	21.5	-90.4	4.9
2025-01-17 13:42:37.295808	338.6	21.4	-90.7	2.8
2025-01-17 13:42:38.459619	338.3	21.4	-90.7	3.5
2025-01-17 13:42:39.613927	338.1	21.3	-90.2	2.7
2025-01-17 13:42:40.766626	337.8	21.2	-90.7	2.4
2025-01-17 13:42:41.925821	337.5	21.2	-90.4	5.4
2025-01-17 13:42:43.084843	337.3	21.1	-90.6	3.3
2025-01-17 13:42:44.251175	337.0	21.0	-90.2	2.8
2025-01-17 13:42:45.414237	336.7	21.0	-90.5	3.6
2025-01-17 13:42:46.576573	336.5	20.9	-90.9	4.6
2025-01-17 13:42:47.736503	336.2	20.8	-91.1	3.3
2025-01-17 13:42:48.897008	336.0	20.7	-90.8	3.3
2025-01-17 13:42:50.048349	335.7	20.7	-90.4	5.1
2025-01-17 13:42:51.206763	335.5	20.6	-90.4	3.1
2025-01-17 13:42:52.359234	335.2	20.5	-90.8	1.5
2025-01-17 13:42:53.502079	335.0	20.4	-90.8	4.7
2025-01-17 13:42:54.624262	334.7	20.4	-90.8	5.0
2025-01-17 13:42:55.744383	334.5	20.3	-90.7	3.2
2025-01-17 13:42:56.864755	334.2	20.2	-90.8	3.1
2025-01-17 13:42:57.984725	334.0	20.2	-91.0	7.7
2025-01-17 13:42:59.105333	333.8	20.1	-90.6	5.7
2025-01-17 13:43:00.225870	333.5	20.0	-90.0	7.3
2025-01-17 13:43:01.346962	333.3	19.9	-90.4	4.5
2025-01-17 13:43:02.474290	333.1	19.9	-90.3	5.2
2025-01-17 13:43:03.599967	332.8	19.8	-90.5	3.5
2025-01-17 13:43:04.760923	332.6	19.7	-90.5	3.9
2025-01-17 13:43:05.917342	332.3	19.6	-90.7	7.8
2025-01-17 13:43:07.075446	332.1	19.5	-90.7	7.3
2025-01-17 13:43:08.233376	331.9	19.5	-90.6	3.8
2025-01-17 13:43:09.395543	331.6	19.4	-90.7	3.8
2025-01-17 13:43:10.547741	331.4	19.3	-90.6	4.4
2025-01-17 13:43:11.711072	331.2	19.2	-91.0	3.0
2025-01-17 13:43:12.870152	330.9	19.1	-90.7	3.9
2025-01-17 13:43:14.038312	330.7	19.1	-90.7	3.6
2025-01-17 13:43:15.200536	330.5	19.0	-90.5	3.2
2025-01-17 13:43:16.360428	330.2	18.9	-90.2	1.9
2025-01-17 13:43:17.518979	330.0	18.8	-90.5	4.3
2025-01-17 13:43:18.677170	329.8	18.7	-90.6	3.0
2025-01-17 13:43:19.830369	329.6	18.7	-90.0	1.5
2025-01-17 13:43:20.987020	329.3	18.6	-90.9	3.3
2025-01-17 13:43:22.145005	329.1	18.5	-90.7	1.2
2025-01-17 13:43:23.311024	328.9	18.4	-90.3	0.7
2025-01-17 13:43:24.462452	328.7	18.3	-90.3	2.8
2025-01-17 13:43:25.622049	328.5	18.3	-90.1	2.2
2025-01-17 13:43:26.775128	328.3	18.2	-90.3	2.2
2025-01-17 13:43:27.934085	328.0	18.1	-90.8	2.1
2025-01-17 13:43:29.092867	327.8	18.0	-90.4	3.4
2025-01-17 13:43:30.249712	327.6	17.9	-90.4	4.0
2025-01-17 13:43:31.407785	327.4	17.8	-90.2	2.2
2025-01-17 13:43:32.561367	327.2	17.8	-90.4	1.9
2025-01-17 13:43:33.722621	327.0	17.7	-90.2	1.9
2025-01-17 13:43:34.882682	326.8	17.6	-90.9	3.8
2025-01-17 13:43:36.041848	326.6	17.5	-90.2	3.9
2025-01-17 13:43:37.203553	326.4	17.4	-90.6	2.0
2025-01-17 13:43:38.357389	326.2	17.3	-90.0	3.8
2025-01-17 13:43:39.517724	325.9	17.3	-90.1	2.3
2025-01-17 13:43:40.669007	325.7	17.2	-90.7	1.8
2025-01-17 13:43:41.833100	325.5	17.1	-90.8	2.6
2025-01-17 13:43:42.993037	325.3	17.0	-90.6	1.4
2025-01-17 13:43:44.153623	325.1	16.9	-90.3	3.8
2025-01-17 13:43:45.315247	324.9	16.8	-90.8	3.3
2025-01-17 13:43:46.482468	324.7	16.8	-90.9	1.7
2025-01-17 13:43:47.643212	324.5	16.7	-90.5	2.4
2025-01-17 13:43:48.799911	324.4	16.6	-90.6	2.8
2025-01-17 13:43:49.952170	324.2	16.5	-90.4	1.8
2025-01-17 13:43:51.109553	324.0	16.4	-90.7	1.8
2025-01-17 13:43:52.266154	323.8	16.3	-90.1	2.0
2025-01-17 13:43:53.425215	323.6	16.3	-90.3	2.8
2025-01-17 13:43:54.592170	323.4	16.2	-90.6	5.4
2025-01-17 13:43:55.747135	323.2	16.1	-90.8	6.1
2025-01-17 13:43:56.909196	323.0	16.0	-90.8	3.1
2025-01-17 13:43:58.072358	322.8	15.9	-90.5	5.5
2025-01-17 13:43:59.229318	322.6	15.8	-90.3	6.5
2025-01-17 13:44:00.379862	322.5	15.8	-90.8	3.5
2025-01-17 13:44:01.539912	322.3	15.7	-90.3	4.3
2025-01-17 13:44:02.698251	322.1	15.6	-90.1	1.4
2025-01-17 13:44:03.863108	321.9	15.5	-90.6	1.8
2025-01-17 13:44:05.014873	321.7	15.4	-90.7	5.6
2025-01-17 13:44:06.177061	321.6	15.3	-90.2	4.7
2025-01-17 13:44:07.328697	321.4	15.2	-90.5	2.7
2025-01-17 13:44:08.496133	321.2	15.2	-90.8	3.1
2025-01-17 13:44:09.659237	321.0	15.1	-91.1	2.2
2025-01-17 13:44:10.820316	320.8	15.0	-91.2	4.2
2025-01-17 13:44:11.977077	320.7	14.9	-90.4	0.4
2025-01-17 13:44:13.135247	320.5	14.8	-90.7	1.6
2025-01-17 13:44:14.293907	320.3	14.7	-90.8	3.3
2025-01-17 13:44:15.448489	320.2	14.7	-90.5	1.5
#Closed at: 2025-01-17 13:37:56.850169