passes_logs/2025/01/17/LEX_Murmansk/LEX_Murmansk__20250117_202039_NOAA_19_rec.log

#Pass ID: 20250117_202039_NOAA 19
#Satellite: NOAA 19
#Configuration: NOAA 19
#Start time: 2025-01-17 20:20:34.311305

#LorettStation: 1.0.0 05.05.2024
#Station: LEX_Murmansk
#Location: 33.156738 lon 68.926811 lat
#TLE: 1 33591U 09005A   25017.12803845  .00000314  00000+0  19161-3 0  9999
#TLE: 2 33591  99.0192  80.9069 0014403  51.8715 308.3753 14.13261185821848

#Time	Az	El	Level	SNR
2025-01-17 20:20:46.493954	246.2	15.7	-90.2	7.2
2025-01-17 20:20:47.649102	246.4	15.8	-90.2	8.8
2025-01-17 20:20:48.796273	246.6	15.8	-89.8	10.5
2025-01-17 20:20:49.954422	246.8	15.9	-90.0	5.4
2025-01-17 20:20:51.106901	247.0	16.0	-90.3	6.5
2025-01-17 20:20:52.259354	247.3	16.0	-90.2	7.3
2025-01-17 20:20:53.436505	247.5	16.1	-90.4	7.6
2025-01-17 20:20:54.595948	247.7	16.1	-89.9	5.5
2025-01-17 20:20:55.748212	247.9	16.2	-89.8	4.3
2025-01-17 20:20:56.890060	248.1	16.3	-89.8	3.7
2025-01-17 20:20:58.046309	248.4	16.3	-90.7	6.0
2025-01-17 20:20:59.199893	248.6	16.4	-90.1	4.3
2025-01-17 20:21:00.350157	248.8	16.5	-90.4	5.7
2025-01-17 20:21:01.502409	249.0	16.5	-90.7	8.9
2025-01-17 20:21:02.663513	249.2	16.6	-90.2	7.2
2025-01-17 20:21:03.817560	249.5	16.6	-90.5	9.5
2025-01-17 20:21:04.970761	249.7	16.7	-90.4	7.6
2025-01-17 20:21:06.129988	249.9	16.8	-90.3	5.0
2025-01-17 20:21:07.274499	250.2	16.8	-90.2	3.9
2025-01-17 20:21:08.436079	250.4	16.9	-90.2	2.6
2025-01-17 20:21:09.593087	250.6	16.9	-90.6	2.0
2025-01-17 20:21:10.744178	250.8	17.0	-90.3	2.9
2025-01-17 20:21:11.900960	251.1	17.1	-90.3	3.9
2025-01-17 20:21:13.052746	251.3	17.1	-90.4	4.2
2025-01-17 20:21:14.206183	251.5	17.2	-90.7	9.0
2025-01-17 20:21:15.357456	251.8	17.2	-90.5	4.5
2025-01-17 20:21:16.505388	252.0	17.3	-90.8	4.7
2025-01-17 20:21:17.659717	252.2	17.4	-90.4	12.7
2025-01-17 20:21:18.811107	252.5	17.4	-90.5	10.8
2025-01-17 20:21:19.965528	252.7	17.5	-90.5	6.6
2025-01-17 20:21:21.119259	253.0	17.5	-90.9	9.4
2025-01-17 20:21:22.274559	253.2	17.6	-90.5	1.9
2025-01-17 20:21:23.430417	253.4	17.6	-90.2	2.6
2025-01-17 20:21:24.588317	253.7	17.7	-90.6	3.9
2025-01-17 20:21:25.747200	253.9	17.8	-90.8	2.3
2025-01-17 20:21:26.901496	254.2	17.8	-90.4	3.8
2025-01-17 20:21:28.058099	254.4	17.9	-90.1	8.5
2025-01-17 20:21:29.218231	254.7	17.9	-90.2	2.9
2025-01-17 20:21:30.366770	254.9	18.0	-90.3	9.8
2025-01-17 20:21:31.519134	255.2	18.0	-90.3	5.3
2025-01-17 20:21:32.650945	255.4	18.1	-90.4	9.5
2025-01-17 20:21:33.771416	255.6	18.1	-90.0	5.0
2025-01-17 20:21:34.891722	255.9	18.2	-90.0	2.3
2025-01-17 20:21:36.011593	256.1	18.2	-89.5	3.8
2025-01-17 20:21:37.132675	256.4	18.3	-89.4	1.9
2025-01-17 20:21:38.253922	256.6	18.3	-89.1	2.3
2025-01-17 20:21:39.375711	256.9	18.4	-89.2	2.4
2025-01-17 20:21:40.500483	257.1	18.4	-89.4	3.0
2025-01-17 20:21:41.621851	257.3	18.5	-89.8	1.6
2025-01-17 20:21:42.765064	257.6	18.5	-89.5	2.6
2025-01-17 20:21:43.925640	257.9	18.6	-89.8	4.0
2025-01-17 20:21:45.080392	258.1	18.6	-89.5	5.1
2025-01-17 20:21:46.234775	258.4	18.7	-89.6	4.9
2025-01-17 20:21:47.385098	258.6	18.7	-89.7	3.3
2025-01-17 20:21:48.535389	258.9	18.8	-89.8	2.8
2025-01-17 20:21:49.688518	259.1	18.8	-90.1	4.7
2025-01-17 20:21:50.850292	259.4	18.9	-90.2	6.4
2025-01-17 20:21:52.008940	259.7	18.9	-90.6	4.1
2025-01-17 20:21:53.165863	259.9	19.0	-90.4	2.3
2025-01-17 20:21:54.308808	260.2	19.0	-90.5	2.6
2025-01-17 20:21:55.459266	260.5	19.0	-90.1	3.5
2025-01-17 20:21:56.605839	260.7	19.1	-90.5	3.4
2025-01-17 20:21:57.751670	261.0	19.1	-90.5	2.7
2025-01-17 20:21:58.881523	261.2	19.2	-88.9	3.9
2025-01-17 20:22:00.032127	261.5	19.2	-89.2	5.8
2025-01-17 20:22:01.165921	261.8	19.3	-90.0	3.3
2025-01-17 20:22:02.312771	262.0	19.3	-90.7	2.3
2025-01-17 20:22:03.468213	262.3	19.3	-90.8	4.3
2025-01-17 20:22:04.615952	262.6	19.4	-90.4	5.0
2025-01-17 20:22:05.766459	262.8	19.4	-90.7	2.3
2025-01-17 20:22:06.926216	263.1	19.5	-90.2	3.2
2025-01-17 20:22:08.077415	263.4	19.5	-90.6	8.4
2025-01-17 20:22:09.229009	263.6	19.5	-90.5	2.8
2025-01-17 20:22:10.382298	263.9	19.6	-90.3	4.2
2025-01-17 20:22:11.536644	264.2	19.6	-90.4	3.8
2025-01-17 20:22:12.690459	264.5	19.6	-90.4	2.3
2025-01-17 20:22:13.841484	264.7	19.7	-90.0	2.5
2025-01-17 20:22:14.994841	265.0	19.7	-90.7	6.0
2025-01-17 20:22:16.148641	265.3	19.7	-90.2	4.9
2025-01-17 20:22:17.309965	265.6	19.8	-89.9	3.4
2025-01-17 20:22:18.468741	265.8	19.8	-90.4	2.7
2025-01-17 20:22:19.621023	266.1	19.8	-90.2	5.7
2025-01-17 20:22:20.778000	266.4	19.9	-89.5	5.4
2025-01-17 20:22:21.934253	266.7	19.9	-90.6	4.0
2025-01-17 20:22:23.085176	267.0	19.9	-90.3	5.7
2025-01-17 20:22:24.246021	267.2	20.0	-90.4	3.3
2025-01-17 20:22:25.394330	267.5	20.0	-90.4	4.1
2025-01-17 20:22:26.529995	267.8	20.0	-90.5	10.0
2025-01-17 20:22:27.664561	268.1	20.0	-90.5	3.1
2025-01-17 20:22:28.811809	268.3	20.1	-90.5	3.0
2025-01-17 20:22:29.956296	268.6	20.1	-90.5	4.5
2025-01-17 20:22:31.104897	268.9	20.1	-90.2	4.3
2025-01-17 20:22:32.250732	269.2	20.2	-90.4	3.5
2025-01-17 20:22:33.400938	269.5	20.2	-90.2	6.3
2025-01-17 20:22:34.552572	269.7	20.2	-90.3	3.8
2025-01-17 20:22:35.710259	270.0	20.2	-89.9	1.1
2025-01-17 20:22:36.857216	270.3	20.2	-90.7	2.0
2025-01-17 20:22:38.017559	270.6	20.3	-90.2	1.7
2025-01-17 20:22:39.169974	270.9	20.3	-90.5	2.3
2025-01-17 20:22:40.320650	271.2	20.3	-90.3	3.8
2025-01-17 20:22:41.469446	271.4	20.3	-90.5	3.5
2025-01-17 20:22:42.622114	271.7	20.3	-90.5	4.2
2025-01-17 20:22:43.768084	272.0	20.4	-90.6	5.9
2025-01-17 20:22:44.923546	272.3	20.4	-90.4	0.3
2025-01-17 20:22:46.075402	272.6	20.4	-90.5	6.9
2025-01-17 20:22:47.226472	272.9	20.4	-90.2	2.6
2025-01-17 20:22:48.381269	273.2	20.4	-90.1	3.3
2025-01-17 20:22:49.532046	273.5	20.4	-89.9	3.2
2025-01-17 20:22:50.685001	273.7	20.5	-90.3	7.4
2025-01-17 20:22:51.841246	274.0	20.5	-90.3	6.1
2025-01-17 20:22:52.998343	274.3	20.5	-90.4	3.0
2025-01-17 20:22:54.154648	274.6	20.5	-90.6	2.7
2025-01-17 20:22:55.309511	274.9	20.5	-90.6	4.0
2025-01-17 20:22:56.454410	275.2	20.5	-90.7	4.2
2025-01-17 20:22:57.603648	275.5	20.5	-90.3	0.9
2025-01-17 20:22:58.731688	275.8	20.5	-91.1	2.6
2025-01-17 20:22:59.881896	276.0	20.6	-91.0	3.0
2025-01-17 20:23:01.022048	276.3	20.6	-90.7	1.9
2025-01-17 20:23:02.170588	276.6	20.6	-91.0	2.9
2025-01-17 20:23:03.318916	276.9	20.6	-90.9	1.0
2025-01-17 20:23:04.473580	277.2	20.6	-90.4	6.7
2025-01-17 20:23:05.626582	277.5	20.6	-90.4	4.4
2025-01-17 20:23:06.802432	277.8	20.6	-90.4	2.8
2025-01-17 20:23:07.952210	278.1	20.6	-90.5	3.8
2025-01-17 20:23:09.103397	278.4	20.6	-90.4	4.3
2025-01-17 20:23:10.260044	278.6	20.6	-90.5	3.5
2025-01-17 20:23:11.409861	278.9	20.6	-90.4	2.9
2025-01-17 20:23:12.564342	279.2	20.6	-90.2	5.3
2025-01-17 20:23:13.714112	279.5	20.6	-90.3	3.4
2025-01-17 20:23:14.868755	279.8	20.6	-90.3	3.0
2025-01-17 20:23:16.018381	280.1	20.6	-90.6	5.7
2025-01-17 20:23:17.168160	280.4	20.6	-90.2	4.9
2025-01-17 20:23:18.325987	280.7	20.6	-90.7	1.5
2025-01-17 20:23:19.487170	281.0	20.6	-90.8	2.6
2025-01-17 20:23:20.643351	281.3	20.6	-90.7	5.3
2025-01-17 20:23:21.801815	281.6	20.6	-90.7	8.2
2025-01-17 20:23:22.946648	281.8	20.6	-90.2	6.3
2025-01-17 20:23:24.095116	282.1	20.6	-90.4	8.2
2025-01-17 20:23:25.251075	282.4	20.6	-90.2	11.4
2025-01-17 20:23:26.401200	282.7	20.5	-90.8	11.1
2025-01-17 20:23:27.549455	283.0	20.5	-91.0	8.1
2025-01-17 20:23:28.706465	283.3	20.5	-90.5	10.3
2025-01-17 20:23:29.862452	283.6	20.5	-90.2	6.0
2025-01-17 20:23:31.010862	283.9	20.5	-90.5	11.1
2025-01-17 20:23:32.164140	284.1	20.5	-90.2	7.7
2025-01-17 20:23:33.310945	284.4	20.5	-89.7	5.3
2025-01-17 20:23:34.467340	284.7	20.5	-90.0	6.0
2025-01-17 20:23:35.618616	285.0	20.5	-90.3	8.7
2025-01-17 20:23:36.773165	285.3	20.4	-90.2	5.4
2025-01-17 20:23:37.923884	285.6	20.4	-90.4	5.0
2025-01-17 20:23:39.079176	285.9	20.4	-90.1	5.6
2025-01-17 20:23:40.227040	286.2	20.4	-90.3	6.5
2025-01-17 20:23:41.384566	286.4	20.4	-89.8	4.1
2025-01-17 20:23:42.537040	286.7	20.4	-90.4	6.0
2025-01-17 20:23:43.697245	287.0	20.3	-90.4	7.8
2025-01-17 20:23:44.864417	287.3	20.3	-90.0	9.3
2025-01-17 20:23:46.014555	287.6	20.3	-90.0	7.3
2025-01-17 20:23:47.168396	287.9	20.3	-90.0	3.3
2025-01-17 20:23:48.321861	288.2	20.3	-89.5	4.4
2025-01-17 20:23:49.477640	288.4	20.2	-90.2	9.0
2025-01-17 20:23:50.632847	288.7	20.2	-90.4	5.1
2025-01-17 20:23:51.794856	289.0	20.2	-90.4	3.1
2025-01-17 20:23:52.950984	289.3	20.2	-90.2	3.4
2025-01-17 20:23:54.100234	289.6	20.1	-90.2	4.6
2025-01-17 20:23:55.245249	289.9	20.1	-89.7	2.9
2025-01-17 20:23:56.403208	290.1	20.1	-89.9	4.3
2025-01-17 20:23:57.548214	290.4	20.1	-89.7	1.8
2025-01-17 20:23:58.701329	290.7	20.0	-89.8	3.3
2025-01-17 20:23:59.851377	291.0	20.0	-89.7	2.3
2025-01-17 20:24:01.006708	291.2	20.0	-90.2	4.8
2025-01-17 20:24:02.162385	291.5	20.0	-89.5	3.6
2025-01-17 20:24:03.308319	291.8	19.9	-90.4	3.6
2025-01-17 20:24:04.467522	292.1	19.9	-89.9	5.0
2025-01-17 20:24:05.623432	292.4	19.9	-89.8	4.8
2025-01-17 20:24:06.780189	292.6	19.8	-89.9	5.0
2025-01-17 20:24:07.941046	292.9	19.8	-89.4	2.3
2025-01-17 20:24:09.107936	293.2	19.8	-89.9	5.3
2025-01-17 20:24:10.262131	293.5	19.7	-89.8	2.9
2025-01-17 20:24:11.411651	293.7	19.7	-90.0	1.7
2025-01-17 20:24:12.561039	294.0	19.7	-90.2	0.8
2025-01-17 20:24:13.722976	294.3	19.6	-90.1	3.4
2025-01-17 20:24:14.876729	294.6	19.6	-89.9	4.7
2025-01-17 20:24:16.029699	294.8	19.6	-90.1	1.1
2025-01-17 20:24:17.185901	295.1	19.5	-90.2	1.9
2025-01-17 20:24:18.332225	295.4	19.5	-90.5	1.7
2025-01-17 20:24:19.495277	295.6	19.4	-90.8	2.5
2025-01-17 20:24:20.654264	295.9	19.4	-90.4	2.0
2025-01-17 20:24:21.811904	296.2	19.4	-89.9	3.1
2025-01-17 20:24:22.963573	296.4	19.3	-90.0	2.6
2025-01-17 20:24:24.111993	296.7	19.3	-89.4	2.0
2025-01-17 20:24:25.267197	297.0	19.2	-89.8	3.8
2025-01-17 20:24:26.422245	297.2	19.2	-89.6	2.2
2025-01-17 20:24:27.576277	297.5	19.2	-90.1	4.0
2025-01-17 20:24:28.726191	297.8	19.1	-90.1	2.0
2025-01-17 20:24:29.880035	298.0	19.1	-90.2	3.2
2025-01-17 20:24:31.035256	298.3	19.0	-90.0	3.7
2025-01-17 20:24:32.185344	298.6	19.0	-90.1	3.3
2025-01-17 20:24:33.340374	298.8	18.9	-90.5	2.0
2025-01-17 20:24:34.488381	299.1	18.9	-90.1	3.5
2025-01-17 20:24:35.644625	299.3	18.8	-90.4	4.1
2025-01-17 20:24:36.801913	299.6	18.8	-89.5	2.5
2025-01-17 20:24:38.067833	299.9	18.7	-90.3	3.6
2025-01-17 20:24:39.223024	300.1	18.7	-89.6	1.8
2025-01-17 20:24:40.377716	300.4	18.7	-89.9	3.2
2025-01-17 20:24:41.532865	300.7	18.6	-90.0	2.3
2025-01-17 20:24:42.694274	300.9	18.6	-90.5	4.1
2025-01-17 20:24:43.821020	301.2	18.5	-89.8	2.7
2025-01-17 20:24:44.941231	301.4	18.5	-90.2	2.7
2025-01-17 20:24:46.062178	301.6	18.4	-89.3	4.0
2025-01-17 20:24:47.182517	301.9	18.4	-89.8	3.2
2025-01-17 20:24:48.305437	302.1	18.3	-90.3	1.7
2025-01-17 20:24:49.425396	302.4	18.3	-90.2	2.7
2025-01-17 20:24:50.546331	302.6	18.2	-90.4	1.7
2025-01-17 20:24:51.669279	302.9	18.2	-90.4	3.5
2025-01-17 20:24:52.796081	303.1	18.1	-90.6	3.3
2025-01-17 20:24:53.949539	303.3	18.1	-90.2	3.0
2025-01-17 20:24:55.103669	303.6	18.0	-90.4	3.6
2025-01-17 20:24:56.245401	303.8	18.0	-90.3	3.4
2025-01-17 20:24:57.387470	304.1	17.9	-90.5	2.7
2025-01-17 20:24:58.543852	304.3	17.8	-89.8	5.0
2025-01-17 20:24:59.701673	304.6	17.8	-90.2	0.9
2025-01-17 20:25:00.854913	304.8	17.7	-90.0	4.7
2025-01-17 20:25:02.007376	305.0	17.7	-90.3	4.2
2025-01-17 20:25:03.165272	305.3	17.6	-90.4	4.6
2025-01-17 20:25:04.320299	305.5	17.6	-90.1	5.5
2025-01-17 20:25:05.470924	305.8	17.5	-90.5	5.2
2025-01-17 20:25:06.620383	306.0	17.5	-90.8	3.3
2025-01-17 20:25:07.772128	306.2	17.4	-90.2	4.2
2025-01-17 20:25:08.930703	306.5	17.3	-90.1	5.2
2025-01-17 20:25:10.086329	306.7	17.3	-89.9	3.2
2025-01-17 20:25:11.240449	306.9	17.2	-89.8	3.9
2025-01-17 20:25:12.379000	307.2	17.2	-88.8	5.1
2025-01-17 20:25:13.514351	307.4	17.1	-89.6	3.2
2025-01-17 20:25:14.664892	307.6	17.1	-90.2	2.9
2025-01-17 20:25:15.811083	307.9	17.0	-89.5	4.7
2025-01-17 20:25:16.953965	308.1	16.9	-90.4	0.5
2025-01-17 20:25:18.092379	308.3	16.9	-89.6	3.0
2025-01-17 20:25:19.245505	308.5	16.8	-89.7	4.4
2025-01-17 20:25:20.387596	308.8	16.8	-90.0	3.8
2025-01-17 20:25:21.515417	309.0	16.7	-89.5	3.2
2025-01-17 20:25:22.656129	309.2	16.6	-89.8	2.1
2025-01-17 20:25:23.800235	309.4	16.6	-90.6	2.0
2025-01-17 20:25:24.941117	309.7	16.5	-91.0	4.3
2025-01-17 20:25:26.073598	309.9	16.5	-90.5	5.5
2025-01-17 20:25:27.223585	310.1	16.4	-90.1	4.2
2025-01-17 20:25:28.374191	310.3	16.3	-90.2	6.5
2025-01-17 20:25:29.530526	310.5	16.3	-90.1	3.7
2025-01-17 20:25:30.691952	310.8	16.2	-90.0	4.1
2025-01-17 20:25:31.846305	311.0	16.1	-90.3	3.4
2025-01-17 20:25:33.005764	311.2	16.1	-90.0	1.8
2025-01-17 20:25:34.157412	311.4	16.0	-89.6	3.1
2025-01-17 20:25:35.313546	311.6	16.0	-89.3	2.8
2025-01-17 20:25:36.464489	311.8	15.9	-89.7	4.5
2025-01-17 20:25:37.615175	312.0	15.8	-89.7	3.1
2025-01-17 20:25:38.876951	312.3	15.8	-89.9	2.5
2025-01-17 20:25:40.029201	312.5	15.7	-90.3	4.3
2025-01-17 20:25:41.196002	312.7	15.6	-90.3	2.9
2025-01-17 20:25:42.347382	312.9	15.6	-90.1	3.4
2025-01-17 20:25:43.498629	313.1	15.5	-90.3	4.5
2025-01-17 20:25:44.651254	313.3	15.4	-90.2	4.1
2025-01-17 20:25:45.806009	313.5	15.4	-89.8	2.7
2025-01-17 20:25:46.964193	313.7	15.3	-90.1	2.9
2025-01-17 20:25:48.110346	314.0	15.2	-90.1	6.5
2025-01-17 20:25:49.267037	314.2	15.2	-90.8	6.0
2025-01-17 20:25:50.423946	314.4	15.1	-90.5	2.6
2025-01-17 20:25:51.586560	314.6	15.0	-89.6	5.7
2025-01-17 20:25:52.746353	314.8	15.0	-89.9	3.6
2025-01-17 20:25:53.892332	315.0	14.9	-90.4	4.2
2025-01-17 20:25:55.050420	315.2	14.8	-90.0	5.4
2025-01-17 20:25:56.209855	315.4	14.8	-90.2	4.3
#Closed at: 2025-01-17 20:20:39.314906