passes_logs/2025/01/22/X_MFTI_01/X_MFTI_01__20250122_000435_NOAA_20_rec.log

#Pass ID: 20250122_000435_NOAA 20
#Satellite: NOAA 20
#Configuration: NOAA 20
#Start time: 2025-01-22 00:04:32

#Version: 1.5.20200625
#Station: X_MFTI_01
#Location: 37.5186 lon 55.9291 lat
#TLE: 1 43013U 17073A   23362.44808611  .00000160  00000+0  96626-4 0  9996
#TLE: 2 43013  98.7331 297.9536 0000783  57.5916 302.5335 14.19555620316533

#Time	Az	El	Level	Level2	SNR	BER	Gain	Gain2
2025-01-22 00:04:34.29	312.41	69.89	
2025-01-22 00:04:34.49	312.15	69.93	
2025-01-22 00:04:34.69	311.88	69.96	
2025-01-22 00:04:34.91	311.59	69.99	
2025-01-22 00:04:35.11	311.32	70.03	
2025-01-22 00:04:35.31	311.05	70.06	
2025-01-22 00:04:35.52	310.77	70.09	
2025-01-22 00:04:35.72	310.49	70.12	
2025-01-22 00:04:35.92	310.22	70.15	
2025-01-22 00:04:36.12	309.95	70.18	
2025-01-22 00:04:36.33	309.66	70.21	
2025-01-22 00:04:36.54	309.38	70.25	
2025-01-22 00:04:36.76	309.07	70.28	
2025-01-22 00:04:36.96	308.80	70.31	
2025-01-22 00:04:37.16	308.52	70.33	
2025-01-22 00:04:37.37	308.23	70.36	
2025-01-22 00:04:37.59	307.92	70.39	
2025-01-22 00:04:37.79	307.64	70.42	
2025-01-22 00:04:38.00	307.35	70.45	
2025-01-22 00:04:38.20	307.06	70.47	
2025-01-22 00:04:38.40	306.78	70.50	
2025-01-22 00:04:38.62	306.47	70.52	
2025-01-22 00:04:38.82	306.19	70.55	
2025-01-22 00:04:39.04	305.87	70.58	
2025-01-22 00:04:39.24	305.59	70.60	
2025-01-22 00:04:39.44	305.30	70.62	
2025-01-22 00:04:39.65	305.00	70.65	
2025-01-22 00:04:39.86	304.70	70.67	
2025-01-22 00:04:40.06	304.41	70.69	
2025-01-22 00:04:40.26	304.12	70.71	
2025-01-22 00:04:40.47	303.82	70.73	
2025-01-22 00:04:40.67	303.53	70.75	
2025-01-22 00:04:40.88	303.22	70.77	
2025-01-22 00:04:41.08	302.93	70.79	
2025-01-22 00:04:41.29	302.62	70.81	
2025-01-22 00:04:41.49	302.33	70.83	
2025-01-22 00:04:41.70	302.02	70.85	
2025-01-22 00:04:41.91	301.71	70.87	
2025-01-22 00:04:42.12	301.40	70.89	
2025-01-22 00:04:42.33	301.09	70.90	
2025-01-22 00:04:42.53	300.80	70.92	
2025-01-22 00:04:42.74	300.49	70.93	
2025-01-22 00:04:42.95	300.18	70.95	
2025-01-22 00:04:43.16	299.86	70.96	
2025-01-22 00:04:43.37	299.55	70.98	
2025-01-22 00:04:43.58	299.24	70.99	
2025-01-22 00:04:43.79	298.92	71.01	
2025-01-22 00:04:43.99	298.63	71.02	
2025-01-22 00:04:44.19	298.33	71.03	
2025-01-22 00:04:44.40	298.01	71.04	
2025-01-22 00:04:44.61	297.70	71.05	
2025-01-22 00:04:44.82	297.38	71.06	
2025-01-22 00:04:45.02	297.08	71.07	
2025-01-22 00:04:45.23	296.76	71.08	
2025-01-22 00:04:45.45	296.43	71.09	
2025-01-22 00:04:45.65	296.13	71.10	
2025-01-22 00:04:45.85	295.83	71.11	
2025-01-22 00:04:46.06	295.51	71.12	
2025-01-22 00:04:46.26	295.20	71.12	
2025-01-22 00:04:46.47	294.89	71.13	
2025-01-22 00:04:46.67	294.58	71.14	
2025-01-22 00:04:46.87	294.28	71.14	
2025-01-22 00:04:47.08	293.96	71.15	
2025-01-22 00:04:47.28	293.66	71.15	
2025-01-22 00:04:47.49	293.34	71.15	
2025-01-22 00:04:47.69	293.03	71.16	
2025-01-22 00:04:47.90	292.71	71.16	
2025-01-22 00:04:48.11	292.39	71.16	
2025-01-22 00:04:48.32	292.08	71.16	
2025-01-22 00:04:48.52	291.77	71.16	
2025-01-22 00:04:48.72	291.47	71.16	
2025-01-22 00:04:48.93	291.15	71.16	
2025-01-22 00:04:49.14	290.83	71.16	
2025-01-22 00:04:49.35	290.51	71.16	
2025-01-22 00:04:49.55	290.20	71.16	
2025-01-22 00:04:49.76	289.88	71.16	
2025-01-22 00:04:49.96	289.58	71.16	
2025-01-22 00:04:50.16	289.28	71.15	
2025-01-22 00:04:50.37	288.96	71.15	
2025-01-22 00:04:50.57	288.65	71.15	
2025-01-22 00:04:50.77	288.35	71.14	
2025-01-22 00:04:50.98	288.03	71.14	
2025-01-22 00:04:51.18	287.73	71.13	
2025-01-22 00:04:51.38	287.42	71.12	
2025-01-22 00:04:51.59	287.11	71.12	
2025-01-22 00:04:51.80	286.79	71.11	
2025-01-22 00:04:52.00	286.48	71.10	
2025-01-22 00:04:52.21	286.17	71.09	
2025-01-22 00:04:52.42	285.85	71.08	
2025-01-22 00:04:52.63	285.53	71.07	
2025-01-22 00:04:52.83	285.23	71.06	
2025-01-22 00:04:53.04	284.92	71.05	
2025-01-22 00:04:53.25	284.60	71.04	
2025-01-22 00:04:53.45	284.30	71.03	
2025-01-22 00:04:53.67	283.97	71.02	
2025-01-22 00:04:53.87	283.67	71.01	
2025-01-22 00:04:54.08	283.36	70.99	
2025-01-22 00:04:54.29	283.05	70.98	
2025-01-22 00:04:54.50	282.73	70.96	
2025-01-22 00:04:54.70	282.44	70.95	
2025-01-22 00:04:54.91	282.12	70.93	
2025-01-22 00:04:55.11	281.83	70.92	
2025-01-22 00:04:55.32	281.52	70.90	
2025-01-22 00:04:55.53	281.21	70.89	
2025-01-22 00:04:55.73	280.91	70.87	
2025-01-22 00:04:55.94	280.60	70.85	
2025-01-22 00:04:56.14	280.31	70.83	
2025-01-22 00:04:56.34	280.02	70.81	
2025-01-22 00:04:56.54	279.72	70.80	
2025-01-22 00:04:56.75	279.42	70.78	
2025-01-22 00:04:56.96	279.11	70.75	
2025-01-22 00:04:57.16	278.82	70.73	
2025-01-22 00:04:57.36	278.53	70.71	
2025-01-22 00:04:57.57	278.23	70.69	
2025-01-22 00:04:57.77	277.94	70.67	
2025-01-22 00:04:57.98	277.64	70.65	
2025-01-22 00:04:58.18	277.35	70.63	
2025-01-22 00:04:58.39	277.05	70.60	
2025-01-22 00:04:58.60	276.75	70.58	
2025-01-22 00:04:58.80	276.46	70.55	
2025-01-22 00:04:59.01	276.17	70.53	
2025-01-22 00:04:59.21	275.88	70.50	
2025-01-22 00:04:59.42	275.59	70.48	
2025-01-22 00:04:59.63	275.29	70.45	
2025-01-22 00:04:59.83	275.01	70.42	
2025-01-22 00:05:00.03	274.73	70.40	
2025-01-22 00:05:00.24	274.44	70.37	
2025-01-22 00:05:00.45	274.14	70.34	
2025-01-22 00:05:00.65	273.87	70.31	
2025-01-22 00:05:00.85	273.59	70.28	
2025-01-22 00:05:01.06	273.30	70.25	
2025-01-22 00:05:01.26	273.03	70.22	
2025-01-22 00:05:01.47	272.74	70.19	
2025-01-22 00:05:01.67	272.46	70.16	
2025-01-22 00:05:01.88	272.18	70.13	
2025-01-22 00:05:02.09	271.89	70.10	
2025-01-22 00:05:02.29	271.62	70.07	

#Closed at: 2025-01-22 00:05:02