passes_logs/2025/01/22/X_MFTI_01/X_MFTI_01__20250122_234512_NOAA_20_rec.log

#Pass ID: 20250122_234512_NOAA 20
#Satellite: NOAA 20
#Configuration: NOAA 20
#Start time: 2025-01-22 23:45:07

#Version: 1.5.20200625
#Station: X_MFTI_01
#Location: 37.5186 lon 55.9291 lat
#TLE: 1 43013U 17073A   23362.44808611  .00000160  00000+0  96626-4 0  9996
#TLE: 2 43013  98.7331 297.9536 0000783  57.5916 302.5335 14.19555620316533

#Time	Az	El	Level	Level2	SNR	BER	Gain	Gain2
2025-01-22 23:45:09.27	23.77	68.73	
2025-01-22 23:45:09.48	23.80	68.83	
2025-01-22 23:45:09.68	23.83	68.92	
2025-01-22 23:45:09.88	23.87	69.01	
2025-01-22 23:45:10.08	23.90	69.10	
2025-01-22 23:45:10.29	23.93	69.20	
2025-01-22 23:45:10.49	23.97	69.29	
2025-01-22 23:45:10.69	24.00	69.38	
2025-01-22 23:45:10.90	24.03	69.48	
2025-01-22 23:45:11.10	24.07	69.57	
2025-01-22 23:45:11.31	24.10	69.66	
2025-01-22 23:45:11.51	24.14	69.76	
2025-01-22 23:45:11.72	24.17	69.85	
2025-01-22 23:45:11.92	24.21	69.95	
2025-01-22 23:45:12.12	24.24	70.04	
2025-01-22 23:45:12.33	24.28	70.13	
2025-01-22 23:45:12.54	24.32	70.23	
2025-01-22 23:45:12.74	24.36	70.32	
2025-01-22 23:45:12.95	24.39	70.42	
2025-01-22 23:45:13.16	24.43	70.52	
2025-01-22 23:45:13.36	24.47	70.61	
2025-01-22 23:45:13.57	24.51	70.71	
2025-01-22 23:45:13.77	24.55	70.80	
2025-01-22 23:45:13.97	24.59	70.90	
2025-01-22 23:45:14.17	24.63	70.99	
2025-01-22 23:45:14.38	24.67	71.09	
2025-01-22 23:45:14.58	24.71	71.18	
2025-01-22 23:45:14.79	24.75	71.28	
2025-01-22 23:45:14.99	24.79	71.37	
2025-01-22 23:45:15.20	24.84	71.47	
2025-01-22 23:45:15.40	24.88	71.56	
2025-01-22 23:45:15.61	24.92	71.66	
2025-01-22 23:45:15.81	24.96	71.75	
2025-01-22 23:45:16.01	25.01	71.85	
2025-01-22 23:45:16.22	25.05	71.95	
2025-01-22 23:45:16.43	25.10	72.05	
2025-01-22 23:45:16.63	25.14	72.14	
2025-01-22 23:45:16.84	25.19	72.24	
2025-01-22 23:45:17.05	25.24	72.34	
2025-01-22 23:45:17.25	25.29	72.43	
2025-01-22 23:45:17.45	25.33	72.53	
2025-01-22 23:45:17.66	25.38	72.62	
2025-01-22 23:45:17.87	25.43	72.72	
2025-01-22 23:45:18.07	25.48	72.82	
2025-01-22 23:45:18.28	25.53	72.92	
2025-01-22 23:45:18.48	25.58	73.01	
2025-01-22 23:45:18.68	25.63	73.11	
2025-01-22 23:45:18.88	25.68	73.20	
2025-01-22 23:45:19.09	25.74	73.30	
2025-01-22 23:45:19.29	25.79	73.40	
2025-01-22 23:45:19.49	25.84	73.49	
2025-01-22 23:45:19.71	25.90	73.60	
2025-01-22 23:45:19.92	25.96	73.70	
2025-01-22 23:45:20.13	26.01	73.80	
2025-01-22 23:45:20.33	26.07	73.89	
2025-01-22 23:45:20.53	26.12	73.99	
2025-01-22 23:45:20.75	26.19	74.09	
2025-01-22 23:45:20.95	26.24	74.19	
2025-01-22 23:45:21.15	26.30	74.28	
2025-01-22 23:45:21.35	26.36	74.38	
2025-01-22 23:45:21.56	26.42	74.48	
2025-01-22 23:45:21.76	26.48	74.57	
2025-01-22 23:45:21.96	26.54	74.67	
2025-01-22 23:45:22.17	26.61	74.77	
2025-01-22 23:45:22.37	26.67	74.87	
2025-01-22 23:45:22.57	26.74	74.96	
2025-01-22 23:45:22.78	26.80	75.06	
2025-01-22 23:45:22.98	26.87	75.16	
2025-01-22 23:45:23.19	26.94	75.26	
2025-01-22 23:45:23.39	27.00	75.36	
2025-01-22 23:45:23.59	27.07	75.45	
2025-01-22 23:45:23.80	27.15	75.55	
2025-01-22 23:45:24.00	27.22	75.65	
2025-01-22 23:45:24.22	27.29	75.76	
2025-01-22 23:45:24.42	27.37	75.85	
2025-01-22 23:45:24.63	27.44	75.95	
2025-01-22 23:45:24.83	27.52	76.05	
2025-01-22 23:45:25.03	27.59	76.15	
2025-01-22 23:45:25.23	27.67	76.24	
2025-01-22 23:45:25.44	27.75	76.34	
2025-01-22 23:45:25.65	27.83	76.45	
2025-01-22 23:45:25.86	27.92	76.55	
2025-01-22 23:45:26.06	28.00	76.64	
2025-01-22 23:45:26.27	28.08	76.75	
2025-01-22 23:45:26.47	28.17	76.84	
2025-01-22 23:45:26.67	28.25	76.94	
2025-01-22 23:45:26.88	28.34	77.04	
2025-01-22 23:45:27.08	28.43	77.14	
2025-01-22 23:45:27.29	28.52	77.24	
2025-01-22 23:45:27.49	28.61	77.34	
2025-01-22 23:45:27.70	28.71	77.44	
2025-01-22 23:45:27.90	28.80	77.54	
2025-01-22 23:45:28.10	28.90	77.63	
2025-01-22 23:45:28.31	29.00	77.74	
2025-01-22 23:45:28.51	29.10	77.83	
2025-01-22 23:45:28.72	29.20	77.93	
2025-01-22 23:45:28.93	29.31	78.04	
2025-01-22 23:45:29.13	29.41	78.13	
2025-01-22 23:45:29.34	29.52	78.24	
2025-01-22 23:45:29.54	29.63	78.33	
2025-01-22 23:45:29.74	29.73	78.43	
2025-01-22 23:45:29.95	29.85	78.53	
2025-01-22 23:45:30.15	29.96	78.63	
2025-01-22 23:45:30.36	30.08	78.73	
2025-01-22 23:45:30.56	30.20	78.83	
2025-01-22 23:45:30.76	30.32	78.93	
2025-01-22 23:45:30.97	30.44	79.03	
2025-01-22 23:45:31.17	30.57	79.13	
2025-01-22 23:45:31.37	30.69	79.22	
2025-01-22 23:45:31.57	30.82	79.32	
2025-01-22 23:45:31.78	30.96	79.42	
2025-01-22 23:45:31.98	31.09	79.52	
2025-01-22 23:45:32.18	31.22	79.62	
2025-01-22 23:45:32.39	31.37	79.72	
2025-01-22 23:45:32.59	31.51	79.82	
2025-01-22 23:45:32.80	31.66	79.92	
2025-01-22 23:45:33.00	31.80	80.02	
2025-01-22 23:45:33.20	31.95	80.11	
2025-01-22 23:45:33.41	32.11	80.22	
2025-01-22 23:45:33.61	32.27	80.31	
2025-01-22 23:45:33.81	32.43	80.41	
2025-01-22 23:45:34.01	32.59	80.51	
2025-01-22 23:45:34.22	32.76	80.61	
2025-01-22 23:45:34.42	32.93	80.71	
2025-01-22 23:45:34.62	33.10	80.80	
2025-01-22 23:45:34.83	33.29	80.91	
2025-01-22 23:45:35.03	33.47	81.00	
2025-01-22 23:45:35.24	33.66	81.11	
2025-01-22 23:45:35.44	33.85	81.20	
2025-01-22 23:45:35.64	34.04	81.30	
2025-01-22 23:45:35.84	34.24	81.40	
2025-01-22 23:45:36.05	34.45	81.50	
2025-01-22 23:45:36.25	34.66	81.59	
2025-01-22 23:45:36.46	34.88	81.70	
2025-01-22 23:45:36.66	35.10	81.79	
2025-01-22 23:45:36.86	35.32	81.89	
2025-01-22 23:45:37.07	35.56	81.99	
2025-01-22 23:45:37.28	35.80	82.09	
2025-01-22 23:45:37.48	36.04	82.19	
2025-01-22 23:45:37.68	36.28	82.28	
2025-01-22 23:45:37.89	36.55	82.38	
2025-01-22 23:45:38.10	36.82	82.49	
2025-01-22 23:45:38.30	37.08	82.58	
2025-01-22 23:45:38.50	37.36	82.68	
2025-01-22 23:45:38.71	37.65	82.78	
2025-01-22 23:45:38.91	37.94	82.87	
2025-01-22 23:45:39.13	38.26	82.98	
2025-01-22 23:45:39.33	38.57	83.07	
2025-01-22 23:45:39.53	38.88	83.17	
2025-01-22 23:45:39.74	39.22	83.27	
2025-01-22 23:45:39.94	39.55	83.36	
2025-01-22 23:45:40.14	39.89	83.45	
2025-01-22 23:45:40.35	40.26	83.55	
2025-01-22 23:45:40.55	40.62	83.65	
2025-01-22 23:45:40.76	41.01	83.75	
2025-01-22 23:45:40.96	41.39	83.84	
2025-01-22 23:45:41.16	41.79	83.93	
2025-01-22 23:45:41.37	42.22	84.03	
2025-01-22 23:45:41.58	42.66	84.13	
2025-01-22 23:45:41.78	43.10	84.22	
2025-01-22 23:45:41.98	43.55	84.31	
2025-01-22 23:45:42.19	44.04	84.41	
2025-01-22 23:45:42.39	44.52	84.50	
2025-01-22 23:45:42.59	45.02	84.59	
2025-01-22 23:45:42.80	45.56	84.68	
2025-01-22 23:45:43.00	46.09	84.77	
2025-01-22 23:45:43.20	46.65	84.86	
2025-01-22 23:45:43.41	47.25	84.96	
2025-01-22 23:45:43.61	47.84	85.05	
2025-01-22 23:45:43.81	48.46	85.13	
2025-01-22 23:45:44.03	49.16	85.23	
2025-01-22 23:45:44.23	49.83	85.32	
2025-01-22 23:45:44.44	50.55	85.41	
2025-01-22 23:45:44.65	51.30	85.50	
2025-01-22 23:45:44.85	52.05	85.58	
2025-01-22 23:45:45.06	52.87	85.67	
2025-01-22 23:45:45.28	53.76	85.76	
2025-01-22 23:45:45.48	54.60	85.84	
2025-01-22 23:45:45.69	55.52	85.93	
2025-01-22 23:45:45.90	56.48	86.01	
2025-01-22 23:45:46.11	57.48	86.10	
2025-01-22 23:45:46.31	58.48	86.17	
2025-01-22 23:45:46.51	59.52	86.25	
2025-01-22 23:45:46.73	60.71	86.33	
2025-01-22 23:45:46.93	61.83	86.41	
2025-01-22 23:45:47.14	63.07	86.48	
2025-01-22 23:45:47.34	64.30	86.56	
2025-01-22 23:45:47.54	65.58	86.63	
2025-01-22 23:45:47.75	66.98	86.70	
2025-01-22 23:45:47.95	68.36	86.76	
2025-01-22 23:45:48.15	69.81	86.83	
2025-01-22 23:45:48.36	71.39	86.89	
2025-01-22 23:45:48.56	72.96	86.95	
2025-01-22 23:45:48.76	74.59	87.01	
2025-01-22 23:45:48.97	76.36	87.06	
2025-01-22 23:45:49.18	78.21	87.12	
2025-01-22 23:45:49.38	80.03	87.17	
2025-01-22 23:45:49.58	81.91	87.21	
2025-01-22 23:45:49.78	83.86	87.25	
2025-01-22 23:45:49.99	85.96	87.30	
2025-01-22 23:45:50.19	88.02	87.33	
2025-01-22 23:45:50.40	90.24	87.37	
2025-01-22 23:45:50.60	92.41	87.39	
2025-01-22 23:45:50.80	94.62	87.42	
2025-01-22 23:45:51.01	96.99	87.44	
2025-01-22 23:45:51.21	99.28	87.46	
2025-01-22 23:45:51.41	101.59	87.47	
2025-01-22 23:45:51.62	104.04	87.48	
2025-01-22 23:45:51.82	106.38	87.48	
2025-01-22 23:45:52.02	108.73	87.48	
2025-01-22 23:45:52.22	111.07	87.48	
2025-01-22 23:45:52.43	113.52	87.47	
2025-01-22 23:45:52.63	115.82	87.46	
2025-01-22 23:45:52.83	118.11	87.44	
2025-01-22 23:45:53.04	120.47	87.42	
2025-01-22 23:45:53.24	122.67	87.39	
2025-01-22 23:45:53.44	124.83	87.36	
2025-01-22 23:45:53.65	127.05	87.33	
2025-01-22 23:45:53.85	129.10	87.29	
2025-01-22 23:45:54.05	131.10	87.25	
2025-01-22 23:45:54.26	133.13	87.21	
2025-01-22 23:45:54.46	135.01	87.16	
2025-01-22 23:45:54.66	136.82	87.11	
2025-01-22 23:45:54.86	138.57	87.06	
2025-01-22 23:45:55.07	140.34	87.00	
2025-01-22 23:45:55.27	141.96	86.94	
2025-01-22 23:45:55.47	143.52	86.88	
2025-01-22 23:45:55.68	145.10	86.82	
2025-01-22 23:45:55.88	146.54	86.76	
2025-01-22 23:45:56.08	147.92	86.69	
2025-01-22 23:45:56.29	149.32	86.62	
2025-01-22 23:45:56.49	150.59	86.55	
2025-01-22 23:45:56.69	151.82	86.48	
2025-01-22 23:45:56.90	153.05	86.40	
2025-01-22 23:45:57.10	154.17	86.33	
2025-01-22 23:45:57.31	155.30	86.25	
2025-01-22 23:45:57.51	156.34	86.17	
2025-01-22 23:45:57.71	157.33	86.09	
2025-01-22 23:45:57.91	158.29	86.01	
2025-01-22 23:45:58.12	159.25	85.93	
2025-01-22 23:45:58.32	160.13	85.85	
2025-01-22 23:45:58.52	160.97	85.77	
2025-01-22 23:45:58.73	161.82	85.68	
2025-01-22 23:45:58.93	162.60	85.59	
2025-01-22 23:45:59.13	163.36	85.51	
2025-01-22 23:45:59.34	164.11	85.42	
2025-01-22 23:45:59.54	164.81	85.33	
2025-01-22 23:45:59.74	165.48	85.25	
2025-01-22 23:45:59.95	166.16	85.16	
2025-01-22 23:46:00.15	166.78	85.07	
2025-01-22 23:46:00.35	167.38	84.98	
2025-01-22 23:46:00.55	167.96	84.89	
2025-01-22 23:46:00.76	168.54	84.80	
2025-01-22 23:46:00.96	169.08	84.71	
2025-01-22 23:46:01.17	169.63	84.61	
2025-01-22 23:46:01.38	170.15	84.52	
2025-01-22 23:46:01.58	170.64	84.43	
2025-01-22 23:46:01.79	171.13	84.33	
2025-01-22 23:46:01.99	171.58	84.24	
2025-01-22 23:46:02.20	172.05	84.14	
2025-01-22 23:46:02.40	172.47	84.05	
2025-01-22 23:46:02.60	172.88	83.95	
2025-01-22 23:46:02.80	173.28	83.86	
2025-01-22 23:46:03.01	173.69	83.76	
2025-01-22 23:46:03.22	174.08	83.67	
2025-01-22 23:46:03.42	174.45	83.57	
2025-01-22 23:46:03.62	174.80	83.48	
2025-01-22 23:46:03.83	175.16	83.38	
2025-01-22 23:46:04.04	175.51	83.28	
2025-01-22 23:46:04.24	175.83	83.18	
2025-01-22 23:46:04.44	176.15	83.09	
2025-01-22 23:46:04.65	176.47	82.99	
2025-01-22 23:46:04.85	176.76	82.89	
2025-01-22 23:46:05.05	177.05	82.80	
2025-01-22 23:46:05.25	177.34	82.70	
2025-01-22 23:46:05.46	177.62	82.60	
2025-01-22 23:46:05.66	177.89	82.51	
2025-01-22 23:46:05.86	178.15	82.41	
2025-01-22 23:46:06.07	178.42	82.31	
2025-01-22 23:46:06.27	178.66	82.21	
2025-01-22 23:46:06.47	178.90	82.12	
2025-01-22 23:46:06.68	179.15	82.02	
2025-01-22 23:46:06.88	179.38	81.92	
2025-01-22 23:46:07.08	179.60	81.82	
2025-01-22 23:46:07.29	179.83	81.72	
2025-01-22 23:46:07.49	180.04	81.63	
2025-01-22 23:46:07.69	180.25	81.53	
2025-01-22 23:46:07.90	180.47	81.43	
2025-01-22 23:46:08.10	180.66	81.33	
2025-01-22 23:46:08.31	180.87	81.23	
2025-01-22 23:46:08.51	181.06	81.13	
2025-01-22 23:46:08.71	181.24	81.03	
2025-01-22 23:46:08.92	181.43	80.93	
2025-01-22 23:46:09.12	181.61	80.84	
2025-01-22 23:46:09.32	181.79	80.74	
2025-01-22 23:46:09.52	181.96	80.64	
2025-01-22 23:46:09.73	182.13	80.54	
2025-01-22 23:46:09.93	182.29	80.44	
2025-01-22 23:46:10.14	182.46	80.34	
2025-01-22 23:46:10.34	182.62	80.24	
2025-01-22 23:46:10.54	182.77	80.14	
2025-01-22 23:46:10.75	182.93	80.04	
2025-01-22 23:46:10.95	183.07	79.94	
2025-01-22 23:46:11.16	183.22	79.84	
2025-01-22 23:46:11.36	183.37	79.74	
2025-01-22 23:46:11.57	183.51	79.64	
2025-01-22 23:46:11.77	183.65	79.54	
2025-01-22 23:46:11.98	183.79	79.44	
2025-01-22 23:46:12.18	183.92	79.35	
2025-01-22 23:46:12.38	184.05	79.25	
2025-01-22 23:46:12.59	184.18	79.15	
2025-01-22 23:46:12.79	184.30	79.05	
2025-01-22 23:46:12.99	184.42	78.95	
2025-01-22 23:46:13.20	184.55	78.85	
2025-01-22 23:46:13.41	184.67	78.75	
2025-01-22 23:46:13.61	184.78	78.65	
2025-01-22 23:46:13.81	184.90	78.55	
2025-01-22 23:46:14.02	185.01	78.45	
2025-01-22 23:46:14.22	185.12	78.35	
2025-01-22 23:46:14.43	185.24	78.25	
2025-01-22 23:46:14.63	185.34	78.15	
2025-01-22 23:46:14.83	185.44	78.05	
2025-01-22 23:46:15.03	185.55	77.96	
2025-01-22 23:46:15.24	185.65	77.85	
2025-01-22 23:46:15.44	185.75	77.76	
2025-01-22 23:46:15.65	185.85	77.65	
2025-01-22 23:46:15.85	185.95	77.56	
2025-01-22 23:46:16.05	186.04	77.46	
2025-01-22 23:46:16.26	186.14	77.36	
2025-01-22 23:46:16.46	186.23	77.26	
2025-01-22 23:46:16.66	186.32	77.16	
2025-01-22 23:46:16.86	186.40	77.07	
2025-01-22 23:46:17.07	186.50	76.97	
2025-01-22 23:46:17.27	186.58	76.87	
2025-01-22 23:46:17.47	186.66	76.77	
2025-01-22 23:46:17.68	186.75	76.67	
2025-01-22 23:46:17.88	186.83	76.57	
2025-01-22 23:46:18.08	186.91	76.48	
2025-01-22 23:46:18.29	187.00	76.37	
2025-01-22 23:46:18.49	187.07	76.28	
2025-01-22 23:46:18.69	187.15	76.18	
2025-01-22 23:46:18.90	187.23	76.08	
2025-01-22 23:46:19.10	187.30	75.98	
2025-01-22 23:46:19.31	187.38	75.88	
2025-01-22 23:46:19.51	187.45	75.78	
2025-01-22 23:46:19.71	187.53	75.69	
2025-01-22 23:46:19.92	187.60	75.59	
2025-01-22 23:46:20.12	187.67	75.49	
2025-01-22 23:46:20.32	187.74	75.39	
2025-01-22 23:46:20.53	187.81	75.29	
2025-01-22 23:46:20.73	187.87	75.20	
2025-01-22 23:46:20.93	187.94	75.10	
2025-01-22 23:46:21.14	188.01	75.00	
2025-01-22 23:46:21.34	188.07	74.90	
2025-01-22 23:46:21.54	188.14	74.81	
2025-01-22 23:46:21.74	188.20	74.71	
2025-01-22 23:46:21.95	188.26	74.61	
2025-01-22 23:46:22.15	188.32	74.51	
2025-01-22 23:46:22.36	188.39	74.41	
2025-01-22 23:46:22.56	188.45	74.32	
2025-01-22 23:46:22.77	188.51	74.22	
2025-01-22 23:46:22.97	188.56	74.12	
2025-01-22 23:46:23.17	188.62	74.03	
2025-01-22 23:46:23.38	188.68	73.93	
2025-01-22 23:46:23.58	188.74	73.83	
2025-01-22 23:46:23.79	188.79	73.73	
2025-01-22 23:46:23.99	188.85	73.63	
2025-01-22 23:46:24.19	188.90	73.54	
2025-01-22 23:46:24.40	188.96	73.44	
2025-01-22 23:46:24.61	189.01	73.34	
2025-01-22 23:46:24.82	189.07	73.24	
2025-01-22 23:46:25.03	189.12	73.14	
2025-01-22 23:46:25.23	189.17	73.04	
2025-01-22 23:46:25.44	189.22	72.95	
2025-01-22 23:46:25.64	189.27	72.85	
2025-01-22 23:46:25.84	189.32	72.76	
2025-01-22 23:46:26.04	189.37	72.66	
2025-01-22 23:46:26.25	189.42	72.56	
2025-01-22 23:46:26.45	189.46	72.47	
2025-01-22 23:46:26.66	189.51	72.37	
2025-01-22 23:46:26.86	189.56	72.27	
2025-01-22 23:46:27.07	189.61	72.17	
2025-01-22 23:46:27.27	189.65	72.08	
2025-01-22 23:46:27.48	189.70	71.98	
2025-01-22 23:46:27.68	189.74	71.89	
2025-01-22 23:46:27.89	189.79	71.79	
2025-01-22 23:46:28.09	189.83	71.69	
2025-01-22 23:46:28.29	189.87	71.60	
2025-01-22 23:46:28.51	189.92	71.50	
2025-01-22 23:46:28.71	189.96	71.40	
2025-01-22 23:46:28.91	190.00	71.31	
2025-01-22 23:46:29.12	190.04	71.21	
2025-01-22 23:46:29.32	190.08	71.12	
2025-01-22 23:46:29.52	190.12	71.02	
2025-01-22 23:46:29.73	190.17	70.93	
2025-01-22 23:46:29.93	190.20	70.83	
2025-01-22 23:46:30.13	190.24	70.74	
2025-01-22 23:46:30.33	190.28	70.65	
2025-01-22 23:46:30.54	190.32	70.55	
2025-01-22 23:46:30.74	190.36	70.46	
2025-01-22 23:46:30.94	190.40	70.36	
2025-01-22 23:46:31.15	190.43	70.27	

#Closed at: 2025-01-22 23:46:31