passes_logs/2025/01/22/X_MFTI_01/X_MFTI_01__20250122_095445_NOAA_20_rec.log

#Pass ID: 20250122_095445_NOAA 20
#Satellite: NOAA 20
#Configuration: NOAA 20
#Start time: 2025-01-22 09:54:40

#Version: 1.5.20200625
#Station: X_MFTI_01
#Location: 37.5186 lon 55.9291 lat
#TLE: 1 43013U 17073A   23362.44808611  .00000160  00000+0  96626-4 0  9996
#TLE: 2 43013  98.7331 297.9536 0000783  57.5916 302.5335 14.19555620316533

#Time	Az	El	Level	Level2	SNR	BER	Gain	Gain2
2025-01-22 09:54:43.01	134.68	68.83	
2025-01-22 09:54:43.22	134.56	68.91	
2025-01-22 09:54:43.42	134.44	69.00	
2025-01-22 09:54:43.63	134.32	69.09	
2025-01-22 09:54:43.83	134.20	69.17	
2025-01-22 09:54:44.04	134.07	69.26	
2025-01-22 09:54:44.25	133.94	69.34	
2025-01-22 09:54:44.45	133.82	69.43	
2025-01-22 09:54:44.65	133.70	69.51	
2025-01-22 09:54:44.85	133.57	69.59	
2025-01-22 09:54:45.06	133.44	69.68	
2025-01-22 09:54:45.27	133.31	69.77	
2025-01-22 09:54:45.47	133.18	69.85	
2025-01-22 09:54:45.67	133.05	69.93	
2025-01-22 09:54:45.88	132.91	70.02	
2025-01-22 09:54:46.08	132.78	70.10	
2025-01-22 09:54:46.28	132.64	70.18	
2025-01-22 09:54:46.48	132.51	70.27	
2025-01-22 09:54:46.69	132.37	70.35	
2025-01-22 09:54:46.90	132.22	70.44	
2025-01-22 09:54:47.10	132.09	70.52	
2025-01-22 09:54:47.31	131.94	70.61	
2025-01-22 09:54:47.51	131.80	70.69	
2025-01-22 09:54:47.71	131.66	70.78	
2025-01-22 09:54:47.91	131.51	70.86	
2025-01-22 09:54:48.12	131.36	70.94	
2025-01-22 09:54:48.32	131.21	71.03	
2025-01-22 09:54:48.53	131.06	71.11	
2025-01-22 09:54:48.73	130.91	71.20	
2025-01-22 09:54:48.93	130.76	71.28	
2025-01-22 09:54:49.15	130.59	71.37	
2025-01-22 09:54:49.35	130.44	71.45	
2025-01-22 09:54:49.57	130.27	71.54	
2025-01-22 09:54:49.77	130.11	71.62	
2025-01-22 09:54:49.98	129.94	71.71	
2025-01-22 09:54:50.18	129.78	71.79	
2025-01-22 09:54:50.39	129.62	71.88	
2025-01-22 09:54:50.59	129.45	71.96	
2025-01-22 09:54:50.79	129.29	72.04	
2025-01-22 09:54:50.99	129.12	72.12	
2025-01-22 09:54:51.20	128.95	72.21	
2025-01-22 09:54:51.41	128.77	72.29	
2025-01-22 09:54:51.61	128.60	72.37	
2025-01-22 09:54:51.82	128.42	72.46	
2025-01-22 09:54:52.02	128.24	72.54	
2025-01-22 09:54:52.23	128.06	72.63	
2025-01-22 09:54:52.43	127.88	72.71	
2025-01-22 09:54:52.64	127.69	72.79	
2025-01-22 09:54:52.84	127.51	72.87	
2025-01-22 09:54:53.05	127.32	72.96	
2025-01-22 09:54:53.26	127.12	73.04	
2025-01-22 09:54:53.46	126.93	73.12	
2025-01-22 09:54:53.66	126.74	73.20	
2025-01-22 09:54:53.86	126.55	73.28	
2025-01-22 09:54:54.06	126.36	73.36	
2025-01-22 09:54:54.27	126.15	73.44	
2025-01-22 09:54:54.48	125.95	73.53	
2025-01-22 09:54:54.69	125.74	73.61	
2025-01-22 09:54:54.89	125.54	73.69	
2025-01-22 09:54:55.11	125.31	73.78	
2025-01-22 09:54:55.31	125.11	73.86	
2025-01-22 09:54:55.52	124.89	73.94	
2025-01-22 09:54:55.73	124.67	74.02	
2025-01-22 09:54:55.93	124.46	74.10	
2025-01-22 09:54:56.14	124.23	74.18	
2025-01-22 09:54:56.34	124.01	74.26	
2025-01-22 09:54:56.54	123.79	74.34	
2025-01-22 09:54:56.75	123.56	74.42	
2025-01-22 09:54:56.95	123.34	74.50	
2025-01-22 09:54:57.15	123.11	74.58	
2025-01-22 09:54:57.35	122.88	74.65	
2025-01-22 09:54:57.56	122.64	74.74	
2025-01-22 09:54:57.77	122.39	74.82	
2025-01-22 09:54:57.97	122.16	74.89	
2025-01-22 09:54:58.17	121.92	74.97	
2025-01-22 09:54:58.38	121.67	75.05	
2025-01-22 09:54:58.59	121.41	75.13	
2025-01-22 09:54:58.80	121.15	75.21	
2025-01-22 09:54:59.00	120.90	75.29	
2025-01-22 09:54:59.21	120.64	75.36	
2025-01-22 09:54:59.41	120.38	75.44	
2025-01-22 09:54:59.62	120.11	75.52	
2025-01-22 09:54:59.82	119.85	75.59	
2025-01-22 09:55:00.03	119.57	75.67	
2025-01-22 09:55:00.23	119.31	75.74	
2025-01-22 09:55:00.44	119.02	75.82	
2025-01-22 09:55:00.64	118.75	75.90	
2025-01-22 09:55:00.85	118.46	75.97	
2025-01-22 09:55:01.05	118.18	76.05	
2025-01-22 09:55:01.27	117.87	76.13	
2025-01-22 09:55:01.47	117.59	76.20	
2025-01-22 09:55:01.67	117.30	76.27	
2025-01-22 09:55:01.89	116.98	76.35	
2025-01-22 09:55:02.09	116.68	76.42	
2025-01-22 09:55:02.30	116.37	76.50	
2025-01-22 09:55:02.50	116.07	76.57	
2025-01-22 09:55:02.70	115.76	76.64	
2025-01-22 09:55:02.91	115.44	76.71	
2025-01-22 09:55:03.12	115.11	76.78	
2025-01-22 09:55:03.32	114.80	76.85	
2025-01-22 09:55:03.53	114.46	76.93	
2025-01-22 09:55:03.73	114.14	76.99	
2025-01-22 09:55:03.93	113.82	77.06	
2025-01-22 09:55:04.14	113.47	77.13	
2025-01-22 09:55:04.35	113.12	77.20	
2025-01-22 09:55:04.56	112.77	77.28	
2025-01-22 09:55:04.76	112.43	77.34	
2025-01-22 09:55:04.97	112.06	77.41	
2025-01-22 09:55:05.17	111.72	77.48	
2025-01-22 09:55:05.39	111.33	77.55	
2025-01-22 09:55:05.60	110.96	77.62	
2025-01-22 09:55:05.81	110.58	77.68	
2025-01-22 09:55:06.02	110.19	77.75	
2025-01-22 09:55:06.22	109.83	77.82	
2025-01-22 09:55:06.42	109.45	77.88	
2025-01-22 09:55:06.64	109.04	77.95	
2025-01-22 09:55:06.85	108.64	78.01	
2025-01-22 09:55:07.05	108.25	78.07	
2025-01-22 09:55:07.26	107.85	78.14	
2025-01-22 09:55:07.46	107.45	78.20	
2025-01-22 09:55:07.67	107.03	78.26	
2025-01-22 09:55:07.88	106.61	78.32	
2025-01-22 09:55:08.08	106.21	78.38	
2025-01-22 09:55:08.30	105.75	78.45	
2025-01-22 09:55:08.51	105.32	78.51	
2025-01-22 09:55:08.72	104.88	78.57	
2025-01-22 09:55:08.92	104.45	78.62	
2025-01-22 09:55:09.13	104.00	78.68	
2025-01-22 09:55:09.33	103.57	78.73	
2025-01-22 09:55:09.53	103.13	78.79	
2025-01-22 09:55:09.74	102.67	78.85	
2025-01-22 09:55:09.94	102.22	78.90	
2025-01-22 09:55:10.15	101.75	78.95	
2025-01-22 09:55:10.36	101.27	79.01	
2025-01-22 09:55:10.57	100.79	79.06	
2025-01-22 09:55:10.77	100.33	79.11	
2025-01-22 09:55:10.97	99.86	79.16	
2025-01-22 09:55:11.18	99.36	79.21	
2025-01-22 09:55:11.38	98.88	79.26	
2025-01-22 09:55:11.59	98.38	79.31	
2025-01-22 09:55:11.79	97.89	79.36	
2025-01-22 09:55:12.00	97.37	79.41	
2025-01-22 09:55:12.21	96.85	79.45	
2025-01-22 09:55:12.42	96.33	79.50	
2025-01-22 09:55:12.62	95.83	79.54	
2025-01-22 09:55:12.82	95.32	79.59	
2025-01-22 09:55:13.03	94.78	79.63	
2025-01-22 09:55:13.24	94.24	79.67	
2025-01-22 09:55:13.44	93.71	79.71	
2025-01-22 09:55:13.65	93.16	79.75	
2025-01-22 09:55:13.85	92.63	79.79	
2025-01-22 09:55:14.05	92.10	79.83	
2025-01-22 09:55:14.26	91.53	79.87	
2025-01-22 09:55:14.46	90.99	79.90	
2025-01-22 09:55:14.67	90.42	79.94	
2025-01-22 09:55:14.88	89.84	79.98	
2025-01-22 09:55:15.09	89.26	80.01	
2025-01-22 09:55:15.29	88.70	80.04	
2025-01-22 09:55:15.50	88.11	80.08	
2025-01-22 09:55:15.70	87.54	80.11	
2025-01-22 09:55:15.90	86.98	80.14	
2025-01-22 09:55:16.11	86.38	80.16	
2025-01-22 09:55:16.31	85.80	80.19	
2025-01-22 09:55:16.52	85.19	80.22	
2025-01-22 09:55:16.73	84.58	80.25	
2025-01-22 09:55:16.93	84.00	80.27	
2025-01-22 09:55:17.14	83.38	80.29	
2025-01-22 09:55:17.34	82.79	80.32	
2025-01-22 09:55:17.54	82.19	80.34	
2025-01-22 09:55:17.74	81.60	80.36	
2025-01-22 09:55:17.95	80.97	80.38	
2025-01-22 09:55:18.15	80.37	80.40	
2025-01-22 09:55:18.35	79.77	80.41	
2025-01-22 09:55:18.56	79.13	80.43	
2025-01-22 09:55:18.76	78.52	80.44	
2025-01-22 09:55:18.97	77.88	80.46	
2025-01-22 09:55:19.18	77.24	80.47	
2025-01-22 09:55:19.38	76.63	80.48	
2025-01-22 09:55:19.59	75.98	80.49	
2025-01-22 09:55:19.79	75.37	80.50	
2025-01-22 09:55:20.00	74.72	80.51	
2025-01-22 09:55:20.21	74.07	80.52	
2025-01-22 09:55:20.41	73.46	80.52	
2025-01-22 09:55:20.61	72.84	80.53	
2025-01-22 09:55:20.82	72.19	80.53	
2025-01-22 09:55:21.03	71.53	80.53	
2025-01-22 09:55:21.23	70.91	80.54	
2025-01-22 09:55:21.43	70.29	80.54	
2025-01-22 09:55:21.64	69.64	80.54	
2025-01-22 09:55:21.84	69.02	80.53	
2025-01-22 09:55:22.04	68.40	80.53	
2025-01-22 09:55:22.25	67.75	80.53	
2025-01-22 09:55:22.46	67.10	80.52	
2025-01-22 09:55:22.67	66.45	80.51	
2025-01-22 09:55:22.87	65.84	80.51	
2025-01-22 09:55:23.08	65.19	80.50	
2025-01-22 09:55:23.29	64.55	80.49	
2025-01-22 09:55:23.51	63.87	80.47	
2025-01-22 09:55:23.71	63.26	80.46	
2025-01-22 09:55:23.92	62.62	80.45	
2025-01-22 09:55:24.12	62.01	80.43	
2025-01-22 09:55:24.33	61.38	80.42	
2025-01-22 09:55:24.54	60.74	80.40	
2025-01-22 09:55:24.75	60.11	80.38	
2025-01-22 09:55:24.95	59.51	80.36	
2025-01-22 09:55:25.16	58.89	80.34	
2025-01-22 09:55:25.36	58.29	80.32	
2025-01-22 09:55:25.57	57.67	80.30	
2025-01-22 09:55:25.77	57.08	80.28	
2025-01-22 09:55:25.98	56.47	80.25	
2025-01-22 09:55:26.19	55.86	80.22	
2025-01-22 09:55:26.39	55.28	80.20	
2025-01-22 09:55:26.60	54.67	80.17	
2025-01-22 09:55:26.81	54.07	80.14	
2025-01-22 09:55:27.02	53.47	80.11	
2025-01-22 09:55:27.22	52.91	80.08	
2025-01-22 09:55:27.43	52.32	80.05	
2025-01-22 09:55:27.63	51.76	80.02	
2025-01-22 09:55:27.83	51.21	79.98	
2025-01-22 09:55:28.03	50.66	79.95	
2025-01-22 09:55:28.24	50.08	79.91	
2025-01-22 09:55:28.44	49.54	79.88	
2025-01-22 09:55:28.65	48.97	79.84	
2025-01-22 09:55:28.86	48.41	79.80	
2025-01-22 09:55:29.06	47.88	79.76	
2025-01-22 09:55:29.26	47.36	79.72	
2025-01-22 09:55:29.47	46.81	79.68	
2025-01-22 09:55:29.68	46.26	79.64	
2025-01-22 09:55:29.88	45.75	79.60	
2025-01-22 09:55:30.09	45.22	79.55	
2025-01-22 09:55:30.29	44.71	79.51	
2025-01-22 09:55:30.50	44.19	79.46	
2025-01-22 09:55:30.71	43.67	79.41	
2025-01-22 09:55:30.91	43.17	79.37	
2025-01-22 09:55:31.12	42.66	79.32	
2025-01-22 09:55:31.32	42.18	79.27	
2025-01-22 09:55:31.53	41.68	79.22	
2025-01-22 09:55:31.74	41.18	79.17	
2025-01-22 09:55:31.94	40.71	79.12	
2025-01-22 09:55:32.14	40.25	79.07	
2025-01-22 09:55:32.35	39.76	79.02	
2025-01-22 09:55:32.55	39.31	78.97	
2025-01-22 09:55:32.75	38.86	78.91	
2025-01-22 09:55:32.96	38.39	78.86	
2025-01-22 09:55:33.16	37.94	78.80	
2025-01-22 09:55:33.37	37.48	78.75	
2025-01-22 09:55:33.58	37.03	78.69	
2025-01-22 09:55:33.79	36.58	78.63	
2025-01-22 09:55:34.00	36.13	78.57	
2025-01-22 09:55:34.20	35.71	78.52	
2025-01-22 09:55:34.42	35.26	78.45	
2025-01-22 09:55:34.63	34.82	78.39	
2025-01-22 09:55:34.83	34.42	78.33	
2025-01-22 09:55:35.04	34.00	78.27	
2025-01-22 09:55:35.25	33.58	78.21	
2025-01-22 09:55:35.45	33.18	78.15	
2025-01-22 09:55:35.66	32.77	78.09	
2025-01-22 09:55:35.86	32.39	78.02	
2025-01-22 09:55:36.06	32.01	77.96	
2025-01-22 09:55:36.27	31.61	77.90	
2025-01-22 09:55:36.48	31.22	77.83	
2025-01-22 09:55:36.69	30.83	77.76	
2025-01-22 09:55:36.90	30.45	77.70	
2025-01-22 09:55:37.10	30.09	77.63	
2025-01-22 09:55:37.31	29.71	77.57	
2025-01-22 09:55:37.52	29.34	77.50	
2025-01-22 09:55:37.74	28.96	77.42	
2025-01-22 09:55:37.95	28.60	77.36	
2025-01-22 09:55:38.15	28.26	77.29	
2025-01-22 09:55:38.37	27.89	77.22	
2025-01-22 09:55:38.57	27.55	77.15	
2025-01-22 09:55:38.79	27.19	77.07	
2025-01-22 09:55:38.99	26.86	77.01	
2025-01-22 09:55:39.20	26.52	76.93	
2025-01-22 09:55:39.40	26.21	76.86	
2025-01-22 09:55:39.60	25.89	76.80	
2025-01-22 09:55:39.81	25.56	76.72	
2025-01-22 09:55:40.01	25.26	76.65	
2025-01-22 09:55:40.23	24.92	76.57	
2025-01-22 09:55:40.43	24.62	76.50	
2025-01-22 09:55:40.64	24.31	76.43	
2025-01-22 09:55:40.85	24.00	76.35	
2025-01-22 09:55:41.06	23.69	76.28	
2025-01-22 09:55:41.27	23.39	76.20	
2025-01-22 09:55:41.47	23.10	76.13	
2025-01-22 09:55:41.67	22.82	76.06	
2025-01-22 09:55:41.88	22.53	75.98	
2025-01-22 09:55:42.09	22.24	75.91	
2025-01-22 09:55:42.30	21.95	75.83	
2025-01-22 09:55:42.50	21.68	75.75	
2025-01-22 09:55:42.71	21.40	75.68	
2025-01-22 09:55:42.92	21.13	75.60	
2025-01-22 09:55:43.14	20.84	75.52	
2025-01-22 09:55:43.34	20.58	75.44	
2025-01-22 09:55:43.55	20.32	75.36	
2025-01-22 09:55:43.76	20.05	75.28	
2025-01-22 09:55:43.97	19.79	75.21	
2025-01-22 09:55:44.17	19.54	75.13	
2025-01-22 09:55:44.38	19.29	75.05	
2025-01-22 09:55:44.58	19.05	74.97	
2025-01-22 09:55:44.79	18.80	74.89	
2025-01-22 09:55:44.99	18.56	74.82	
2025-01-22 09:55:45.20	18.31	74.74	
2025-01-22 09:55:45.40	18.08	74.66	
2025-01-22 09:55:45.61	17.84	74.58	
2025-01-22 09:55:45.82	17.61	74.50	
2025-01-22 09:55:46.02	17.38	74.42	
2025-01-22 09:55:46.22	17.16	74.34	
2025-01-22 09:55:46.43	16.93	74.26	
2025-01-22 09:55:46.63	16.72	74.18	
2025-01-22 09:55:46.83	16.50	74.10	
2025-01-22 09:55:47.04	16.28	74.02	
2025-01-22 09:55:47.24	16.07	73.94	
2025-01-22 09:55:47.44	15.86	73.86	
2025-01-22 09:55:47.65	15.65	73.78	
2025-01-22 09:55:47.85	15.44	73.70	
2025-01-22 09:55:48.06	15.23	73.62	
2025-01-22 09:55:48.26	15.03	73.54	
2025-01-22 09:55:48.48	14.81	73.45	
2025-01-22 09:55:48.68	14.62	73.37	
2025-01-22 09:55:48.88	14.43	73.29	
2025-01-22 09:55:49.09	14.23	73.21	
2025-01-22 09:55:49.31	14.02	73.12	
2025-01-22 09:55:49.51	13.83	73.04	
2025-01-22 09:55:49.72	13.64	72.96	
2025-01-22 09:55:49.92	13.45	72.87	
2025-01-22 09:55:50.13	13.26	72.79	
2025-01-22 09:55:50.33	13.08	72.71	
2025-01-22 09:55:50.54	12.90	72.62	
2025-01-22 09:55:50.75	12.71	72.54	
2025-01-22 09:55:50.95	12.54	72.46	
2025-01-22 09:55:51.16	12.36	72.37	
2025-01-22 09:55:51.37	12.18	72.29	
2025-01-22 09:55:51.57	12.01	72.21	
2025-01-22 09:55:51.78	11.83	72.12	
2025-01-22 09:55:51.98	11.67	72.04	
2025-01-22 09:55:52.19	11.50	71.96	
2025-01-22 09:55:52.39	11.33	71.87	
2025-01-22 09:55:52.59	11.17	71.79	
2025-01-22 09:55:52.80	11.00	71.71	
2025-01-22 09:55:53.01	10.84	71.62	
2025-01-22 09:55:53.21	10.68	71.54	
2025-01-22 09:55:53.41	10.53	71.46	
2025-01-22 09:55:53.62	10.37	71.37	
2025-01-22 09:55:53.83	10.21	71.28	
2025-01-22 09:55:54.03	10.06	71.20	
2025-01-22 09:55:54.24	9.90	71.12	
2025-01-22 09:55:54.44	9.75	71.03	
2025-01-22 09:55:54.64	9.61	70.95	
2025-01-22 09:55:54.85	9.46	70.87	
2025-01-22 09:55:55.05	9.31	70.78	
2025-01-22 09:55:55.26	9.16	70.70	
2025-01-22 09:55:55.46	9.02	70.61	
2025-01-22 09:55:55.67	8.88	70.53	
2025-01-22 09:55:55.87	8.74	70.45	
2025-01-22 09:55:56.07	8.60	70.36	
2025-01-22 09:55:56.27	8.47	70.28	
2025-01-22 09:55:56.48	8.32	70.19	
2025-01-22 09:55:56.68	8.19	70.11	

#Closed at: 2025-01-22 09:55:56