passes_logs/2026/01/18/R2M6_AANII_01/R2M6_AANII_01__20260118_010300_AQUA_rec.log

#Pass ID: 20260118_010300_AQUA
#Satellite: AQUA
#Configuration: AQUA
#almurnet v.1.7.20240730
#Start time: 2026-01-18 01:03:00

#Version: 2.2.20231116
#Station: R2M6_AANII_01
#Location: 30.233357 lon 59.946436 lat
#TLE: 1 27424U 02022A   26017.29152041  .00000842  00000+0  17841-3 0  9992
#TLE: 2 27424  98.4085 343.7574 0002011  75.4099  30.6811 14.61825797261228

#Time	Az	El	Level	Level2	SNR	BER	BlckErr	Temp	State	Recorded	gain1	gain2
2026-01-18 01:03:00.88	26.00	7.06	-31.4	-37.3	5.2	7.11e-01	0	41	0	0	23	7144
2026-01-18 01:03:03.88	26.21	7.28	-32.3	-39.5	12.2	6.07e-01	0	41	0	1572864	25	8250
2026-01-18 01:03:06.88	26.44	7.51	-31.7	-37.0	14.7	6.02e-01	0	42	0	7340032	24	6635
2026-01-18 01:03:09.88	26.66	7.74	-31.1	-35.6	16.2	6.03e-01	0	42	0	13107200	23	6016
2026-01-18 01:03:12.88	26.89	7.97	-31.0	-35.6	16.6	6.01e-01	0	42	0	18350080	22	6101
2026-01-18 01:03:15.88	27.12	8.20	-30.7	-34.6	17.3	6.01e-01	0	42	0	24117248	22	5622
2026-01-18 01:03:18.89	27.36	8.44	-30.8	-34.8	17.1	5.99e-01	0	42	0	29884416	22	5735
2026-01-18 01:03:21.91	27.60	8.68	-30.6	-34.4	17.2	5.99e-01	0	42	0	35651584	22	5586
2026-01-18 01:03:24.91	27.85	8.92	-30.8	-34.9	17.2	6.02e-01	0	42	0	40894464	22	5764
2026-01-18 01:03:27.91	28.09	9.16	-30.7	-34.4	17.6	6.00e-01	0	42	0	46661632	22	5551
2026-01-18 01:03:30.91	28.35	9.41	-30.5	-34.0	17.8	6.03e-01	0	42	0	52428800	22	5368
2026-01-18 01:03:33.92	28.61	9.65	-30.5	-34.4	17.9	6.01e-01	0	42	0	58195968	21	5633
2026-01-18 01:03:36.94	28.87	9.90	-30.6	-34.6	17.8	6.02e-01	0	42	0	63438848	21	5740
2026-01-18 01:03:39.94	29.14	10.15	-30.4	-34.3	18.1	6.02e-01	0	42	0	69206016	21	5583
2026-01-18 01:03:42.95	29.41	10.41	-30.3	-33.8	18.4	6.02e-01	0	42	0	74973184	21	5370
2026-01-18 01:03:45.95	29.68	10.66	-30.3	-33.9	18.4	6.01e-01	0	43	0	80740352	21	5412
2026-01-18 01:03:48.95	29.97	10.92	-30.2	-33.5	18.6	6.01e-01	0	42	0	85983232	21	5257
2026-01-18 01:03:51.96	30.25	11.19	-30.3	-33.8	18.4	6.02e-01	0	42	0	91750400	21	5376
2026-01-18 01:03:54.98	30.55	11.45	-30.2	-33.6	18.4	6.01e-01	0	42	0	97517568	21	5287
2026-01-18 01:03:57.99	30.84	11.72	-30.2	-33.4	18.6	6.03e-01	0	42	0	103284736	21	5202
2026-01-18 01:04:01.00	31.15	11.99	-30.1	-33.3	18.8	6.01e-01	0	43	0	108527616	21	5179
2026-01-18 01:04:04.01	31.46	12.26	-30.0	-33.5	19.0	6.00e-01	0	43	0	114294784	20	5362
2026-01-18 01:04:07.02	31.77	12.53	-30.3	-33.7	18.6	6.01e-01	0	43	0	120061952	21	5313
2026-01-18 01:04:10.02	32.10	12.81	-30.2	-33.6	18.7	6.01e-01	0	43	0	125829120	21	5280
2026-01-18 01:04:13.03	32.42	13.09	-30.2	-33.4	18.8	6.00e-01	0	43	0	131596288	21	5215
2026-01-18 01:04:16.03	32.76	13.38	-30.1	-33.6	19.0	5.99e-01	0	43	0	136839168	20	5387
2026-01-18 01:04:19.04	33.10	13.66	-30.1	-33.1	19.0	6.01e-01	0	43	0	142606336	21	5102
2026-01-18 01:04:22.06	33.45	13.95	-30.0	-33.3	19.2	6.00e-01	0	43	0	148373504	20	5291
2026-01-18 01:04:25.07	33.80	14.24	-30.7	-34.2	18.1	5.98e-01	0	43	0	153616384	22	5389
2026-01-18 01:04:28.07	34.16	14.54	-30.2	-33.4	18.9	6.00e-01	0	43	0	159383552	21	5186
2026-01-18 01:04:31.07	34.53	14.84	-30.2	-33.4	18.8	5.98e-01	0	43	0	165150720	21	5216
2026-01-18 01:04:34.07	34.91	15.14	-29.9	-33.1	19.4	6.02e-01	0	43	0	170917888	20	5192
2026-01-18 01:04:37.07	35.29	15.44	-29.8	-32.8	19.6	6.01e-01	0	43	0	176160768	20	5081
2026-01-18 01:04:40.07	35.69	15.75	-29.9	-33.1	19.4	6.02e-01	0	43	0	181927936	20	5179
2026-01-18 01:04:43.09	36.09	16.06	-29.8	-32.7	19.7	6.00e-01	0	43	0	187695104	20	5054
2026-01-18 01:04:46.10	36.50	16.37	-29.7	-32.6	19.7	6.00e-01	0	43	0	193462272	20	5022
2026-01-18 01:04:49.11	36.92	16.69	-29.9	-32.9	19.6	6.02e-01	0	43	0	198705152	20	5128
2026-01-18 01:04:52.11	37.35	17.01	-29.9	-33.1	19.5	6.00e-01	0	43	0	204472320	20	5186
2026-01-18 01:04:55.12	37.79	17.33	-29.7	-32.6	19.8	5.98e-01	0	43	0	210239488	20	5008
2026-01-18 01:04:58.14	38.24	17.66	-29.8	-32.8	19.7	6.03e-01	0	43	0	216006656	20	5073
2026-01-18 01:05:01.15	38.70	17.99	-29.7	-32.6	19.8	6.01e-01	0	43	0	221773824	20	5010
2026-01-18 01:05:04.16	39.17	18.32	-29.7	-32.6	19.8	6.01e-01	0	43	0	227016704	20	5001
2026-01-18 01:05:07.17	39.65	18.66	-30.0	-33.3	19.6	6.00e-01	0	43	0	232783872	20	5236
2026-01-18 01:05:10.17	40.14	19.00	-30.2	-33.2	19.3	6.02e-01	0	43	0	238551040	21	5100
2026-01-18 01:05:13.16	40.64	19.34	-29.9	-32.3	19.9	6.00e-01	0	43	0	243793920	21	4777
2026-01-18 01:05:16.18	41.15	19.68	-30.0	-32.7	19.7	6.01e-01	0	43	0	249561088	21	4908
2026-01-18 01:05:19.19	41.68	20.03	-30.1	-32.8	19.6	6.02e-01	0	43	0	255328256	21	4948
2026-01-18 01:05:22.20	42.22	20.39	-30.1	-33.3	19.7	6.01e-01	0	43	0	261095424	20	5218
2026-01-18 01:05:25.20	42.77	20.74	-30.0	-33.0	19.8	6.02e-01	0	43	0	266862592	20	5126
2026-01-18 01:05:28.22	43.34	21.10	-30.0	-33.1	19.8	6.01e-01	0	43	0	272105472	20	5152
2026-01-18 01:05:31.23	43.92	21.46	-29.9	-32.7	20.0	6.00e-01	0	43	0	277872640	20	5014
2026-01-18 01:05:34.24	44.51	21.82	-30.0	-33.0	19.8	6.02e-01	0	43	0	283639808	20	5105
2026-01-18 01:05:37.24	45.11	22.19	-29.8	-32.7	20.1	6.02e-01	0	43	0	289406976	20	4980
2026-01-18 01:05:40.25	45.74	22.56	-30.0	-33.0	19.9	6.02e-01	0	43	0	294649856	20	5121
2026-01-18 01:05:43.26	46.37	22.93	-29.9	-32.9	20.0	6.00e-01	0	43	0	300417024	20	5070
2026-01-18 01:05:46.27	47.03	23.30	-30.0	-33.0	19.9	6.02e-01	0	43	0	306184192	20	5117
2026-01-18 01:05:49.28	47.70	23.68	-30.3	-33.2	19.5	5.99e-01	0	43	0	311951360	21	5072
2026-01-18 01:05:52.29	48.39	24.06	-29.9	-32.4	20.0	6.01e-01	0	43	0	317718528	21	4787
2026-01-18 01:05:55.30	49.09	24.44	-30.1	-32.7	19.9	6.00e-01	0	43	0	322961408	21	4885
2026-01-18 01:05:58.30	49.81	24.82	-30.1	-32.9	19.8	6.03e-01	0	43	0	328728576	21	4958
2026-01-18 01:06:01.30	50.55	25.20	-30.1	-32.7	19.8	6.00e-01	0	43	0	334495744	21	4896
2026-01-18 01:06:04.31	51.30	25.59	-30.3	-33.2	19.6	6.03e-01	0	44	0	340262912	21	5070
2026-01-18 01:06:07.32	52.08	25.97	-30.1	-32.9	19.8	6.02e-01	0	43	0	345505792	21	4931
2026-01-18 01:06:10.33	52.88	26.36	-30.1	-32.7	19.9	6.02e-01	0	43	0	351272960	21	4891
2026-01-18 01:06:13.33	53.69	26.74	-30.3	-33.4	19.5	6.03e-01	0	43	0	357040128	21	5109
2026-01-18 01:06:16.34	54.53	27.13	-30.3	-33.3	19.6	6.01e-01	0	43	0	362807296	21	5080
2026-01-18 01:06:19.34	55.39	27.51	-30.4	-33.5	19.4	6.01e-01	0	43	0	368050176	21	5164
2026-01-18 01:06:22.36	56.27	27.90	-30.6	-33.6	19.1	6.02e-01	0	43	0	373817344	22	5091
2026-01-18 01:06:25.37	57.17	28.28	-30.0	-32.0	20.1	6.02e-01	0	43	0	379584512	22	4543
2026-01-18 01:06:28.38	58.10	28.67	-30.2	-32.4	19.9	6.01e-01	0	43	0	385351680	22	4663
2026-01-18 01:06:31.39	59.04	29.05	-30.1	-32.3	20.0	6.00e-01	0	44	0	390594560	22	4613
2026-01-18 01:06:34.40	60.01	29.42	-29.9	-32.8	20.3	6.01e-01	0	43	0	396361728	20	5019
2026-01-18 01:06:37.40	61.00	29.79	-30.0	-33.0	20.1	6.02e-01	0	43	0	402128896	20	5079
2026-01-18 01:06:40.42	62.02	30.16	-30.2	-32.9	19.9	5.99e-01	0	44	0	407896064	21	4930
2026-01-18 01:06:43.43	63.07	30.53	-30.3	-33.3	19.7	5.98e-01	0	44	0	413138944	21	5063
2026-01-18 01:06:46.44	64.13	30.89	-29.8	-32.1	20.4	6.00e-01	0	44	0	418906112	21	4664
2026-01-18 01:06:49.44	65.22	31.24	-30.1	-33.2	20.0	5.98e-01	0	43	0	424673280	20	5157
2026-01-18 01:06:52.45	66.33	31.59	-30.1	-32.7	20.1	6.01e-01	0	44	0	430440448	21	4854
2026-01-18 01:06:55.45	67.46	31.93	-30.1	-32.9	20.0	6.00e-01	0	43	0	435683328	21	4920
2026-01-18 01:06:58.46	68.63	32.26	-30.0	-32.5	20.2	6.01e-01	0	43	0	441450496	21	4803
2026-01-18 01:07:01.47	69.81	32.58	-29.9	-32.3	20.3	6.03e-01	0	44	0	447217664	21	4721
2026-01-18 01:07:04.48	71.02	32.89	-30.0	-32.4	20.3	6.02e-01	0	44	0	452984832	21	4774
2026-01-18 01:07:07.48	72.25	33.19	-29.9	-32.7	20.4	6.00e-01	0	43	0	458227712	20	4963
2026-01-18 01:07:10.47	73.50	33.48	-29.9	-32.6	20.4	6.01e-01	0	44	0	463994880	20	4946
2026-01-18 01:07:13.48	74.78	33.76	-29.8	-31.9	20.5	6.01e-01	0	43	0	469762048	21	4594
2026-01-18 01:07:16.49	76.08	34.03	-30.0	-32.4	20.2	6.04e-01	0	44	0	475529216	21	4764
2026-01-18 01:07:19.49	77.40	34.28	-29.9	-32.3	20.4	6.00e-01	0	44	0	480772096	21	4730
2026-01-18 01:07:22.49	78.73	34.51	-29.9	-32.7	20.4	6.00e-01	0	44	0	486539264	20	4963
2026-01-18 01:07:25.50	80.10	34.74	-30.1	-32.7	20.1	6.02e-01	0	44	0	492306432	21	4846
2026-01-18 01:07:28.51	81.48	34.94	-30.1	-32.7	20.0	6.01e-01	0	44	0	498073600	21	4872
2026-01-18 01:07:31.52	82.87	35.13	-30.1	-32.7	20.1	6.00e-01	0	43	0	503316480	21	4859
2026-01-18 01:07:34.53	84.29	35.30	-30.3	-33.1	19.8	6.02e-01	0	43	0	509083648	21	4999
2026-01-18 01:07:37.54	85.72	35.46	-29.9	-32.1	20.5	6.02e-01	0	44	0	514850816	21	4662
2026-01-18 01:07:40.55	87.16	35.59	-29.9	-32.8	20.3	5.98e-01	0	44	0	520617984	20	5007
2026-01-18 01:07:43.55	88.60	35.71	-29.9	-32.7	20.5	6.02e-01	0	43	0	525860864	20	4964
2026-01-18 01:07:46.56	90.07	35.80	-29.8	-32.4	20.6	6.00e-01	0	44	0	531628032	20	4854
2026-01-18 01:07:49.58	91.54	35.88	-29.8	-32.3	20.7	6.01e-01	0	44	0	537395200	20	4837
2026-01-18 01:07:52.58	93.01	35.93	-29.8	-32.6	20.5	5.99e-01	0	43	0	543162368	20	4921
2026-01-18 01:07:55.60	94.50	35.97	-29.8	-32.3	20.7	6.03e-01	0	43	0	548405248	20	4840
2026-01-18 01:07:58.61	95.98	35.98	-29.9	-32.3	20.3	5.99e-01	0	44	0	554172416	21	4714
2026-01-18 01:08:01.62	97.46	35.98	-29.9	-32.1	20.6	6.03e-01	0	44	0	559939584	21	4651
2026-01-18 01:08:04.63	98.95	35.95	-29.8	-31.9	20.6	6.02e-01	0	44	0	565706752	21	4601
2026-01-18 01:08:07.64	100.42	35.90	-29.9	-32.2	20.4	6.02e-01	0	44	0	571473920	21	4701
2026-01-18 01:08:10.64	101.89	35.83	-29.9	-32.3	20.3	6.01e-01	0	43	0	576716800	21	4721
2026-01-18 01:08:13.66	103.36	35.74	-29.7	-31.8	20.7	6.01e-01	0	43	0	582483968	21	4551
2026-01-18 01:08:16.67	104.82	35.63	-29.8	-32.1	20.4	5.99e-01	0	44	0	588251136	21	4651
2026-01-18 01:08:19.67	106.26	35.51	-29.9	-32.1	20.5	6.02e-01	0	44	0	594018304	21	4665
2026-01-18 01:08:22.68	107.70	35.36	-29.7	-31.7	20.7	6.02e-01	0	43	0	599261184	21	4547
2026-01-18 01:08:25.69	109.12	35.20	-29.9	-32.2	20.4	6.00e-01	0	43	0	605028352	21	4699
2026-01-18 01:08:28.70	110.53	35.01	-30.1	-32.6	20.1	6.01e-01	0	43	0	610795520	21	4835
2026-01-18 01:08:31.71	111.92	34.81	-30.0	-32.6	20.2	6.00e-01	0	43	0	616562688	21	4805
2026-01-18 01:08:34.72	113.29	34.60	-30.2	-33.1	19.9	6.04e-01	0	43	0	621805568	21	4991
2026-01-18 01:08:37.73	114.64	34.36	-29.6	-31.6	20.8	5.99e-01	0	43	0	627572736	21	4497
2026-01-18 01:08:40.74	115.97	34.12	-29.6	-31.4	20.8	6.00e-01	0	44	0	633339904	21	4436
2026-01-18 01:08:43.74	117.28	33.85	-29.8	-32.1	20.5	5.99e-01	0	44	0	639107072	21	4661
2026-01-18 01:08:46.75	118.57	33.58	-29.6	-31.4	20.8	6.01e-01	0	44	0	644349952	21	4449
2026-01-18 01:08:49.76	119.84	33.29	-29.4	-31.5	21.0	6.01e-01	0	44	0	650117120	20	4590
2026-01-18 01:08:52.77	121.08	32.99	-29.3	-31.3	21.2	6.03e-01	0	44	0	655884288	20	4514
2026-01-18 01:08:55.78	122.31	32.68	-29.6	-32.0	20.7	6.01e-01	0	44	0	661651456	20	4742
2026-01-18 01:08:58.79	123.50	32.36	-29.6	-32.0	20.7	6.02e-01	0	44	0	666894336	20	4740
2026-01-18 01:09:01.79	124.67	32.03	-29.7	-32.4	20.4	6.00e-01	0	44	0	672661504	20	4871
2026-01-18 01:09:04.80	125.82	31.70	-30.0	-32.4	20.2	6.01e-01	0	44	0	678428672	21	4774
2026-01-18 01:09:07.80	126.95	31.35	-29.3	-31.3	21.1	6.01e-01	0	44	0	684195840	20	4523
2026-01-18 01:09:10.82	128.05	31.00	-29.4	-31.6	20.9	6.00e-01	0	44	0	689963008	20	4629
2026-01-18 01:09:13.82	129.12	30.64	-29.4	-31.6	20.9	6.03e-01	0	44	0	695205888	20	4636
2026-01-18 01:09:16.84	130.18	30.27	-29.2	-31.1	21.2	6.04e-01	0	44	0	700973056	20	4477
2026-01-18 01:09:19.85	131.21	29.90	-29.4	-31.6	20.9	6.00e-01	0	44	0	706740224	20	4639
2026-01-18 01:09:22.86	132.21	29.53	-29.4	-31.6	20.9	6.00e-01	0	44	0	711983104	20	4614
2026-01-18 01:09:25.86	133.19	29.15	-29.3	-31.5	20.9	6.02e-01	0	44	0	717750272	20	4597
2026-01-18 01:09:28.87	134.15	28.77	-29.6	-32.2	20.4	6.00e-01	0	44	0	723517440	20	4858
2026-01-18 01:09:31.90	135.09	28.38	-29.5	-31.8	20.7	5.99e-01	0	44	0	729284608	20	4700
2026-01-18 01:09:34.90	136.00	28.00	-29.6	-32.1	20.5	5.99e-01	0	44	0	735051776	20	4799
2026-01-18 01:09:37.92	136.90	27.61	-29.6	-32.2	19.8	6.01e-01	0	44	0	740294656	20	4855
2026-01-18 01:09:40.93	137.77	27.22	-29.8	-32.7	20.1	6.02e-01	0	43	0	746061824	20	5006
2026-01-18 01:09:43.92	138.61	26.84	-29.8	-32.6	20.1	6.03e-01	0	44	0	751828992	20	4973
2026-01-18 01:09:46.93	139.43	26.45	-30.0	-33.0	19.9	6.01e-01	0	44	0	757596160	20	5135
2026-01-18 01:09:49.94	140.24	26.06	-30.1	-33.0	19.5	6.02e-01	0	44	0	762839040	21	5012
2026-01-18 01:09:52.94	141.03	25.67	-29.7	-32.5	20.1	6.01e-01	0	44	0	768606208	20	4949
2026-01-18 01:09:55.94	141.79	25.29	-30.2	-33.2	19.4	5.99e-01	0	44	0	774373376	21	5088
2026-01-18 01:09:58.95	142.54	24.90	-30.1	-33.3	19.7	6.00e-01	0	44	0	780140544	20	5232
2026-01-18 01:10:01.95	143.27	24.52	-29.9	-33.0	19.9	6.02e-01	0	44	0	785383424	20	5113
2026-01-18 01:10:04.96	143.98	24.13	-30.2	-33.1	19.4	6.02e-01	0	44	0	791150592	21	5049
2026-01-18 01:10:07.96	144.67	23.75	-30.1	-32.9	19.4	6.02e-01	0	44	0	796917760	21	4969
2026-01-18 01:10:10.96	145.35	23.38	-30.1	-33.4	19.5	6.03e-01	0	44	0	802684928	20	5300
2026-01-18 01:10:13.97	146.01	23.00	-30.1	-33.1	19.4	5.99e-01	0	44	0	807927808	21	5079
2026-01-18 01:10:16.99	146.66	22.62	-30.0	-33.3	19.6	6.00e-01	0	44	0	813694976	20	5254
2026-01-18 01:10:20.00	147.28	22.25	-29.9	-33.1	19.6	6.01e-01	0	44	0	819462144	20	5184
2026-01-18 01:10:23.00	147.90	21.88	-30.0	-33.2	19.5	6.00e-01	0	44	0	825229312	20	5222
2026-01-18 01:10:26.00	148.49	21.51	-30.1	-33.0	19.4	5.99e-01	0	44	0	830472192	21	5015
2026-01-18 01:10:29.00	149.08	21.15	-29.9	-33.0	19.7	6.03e-01	0	44	0	836239360	20	5151
2026-01-18 01:10:32.01	149.65	20.79	-29.9	-33.0	19.7	6.00e-01	0	44	0	842006528	20	5139
2026-01-18 01:10:35.03	150.21	20.43	-29.9	-33.0	19.6	6.04e-01	0	44	0	847773696	20	5154
2026-01-18 01:10:38.04	150.75	20.07	-29.9	-32.9	19.6	6.00e-01	0	44	0	853016576	20	5124
2026-01-18 01:10:41.04	151.28	19.72	-29.7	-32.6	19.9	6.00e-01	0	44	0	858783744	20	5011
2026-01-18 01:10:44.04	151.80	19.37	-30.0	-33.3	19.4	6.00e-01	0	44	0	864550912	20	5250
2026-01-18 01:10:47.05	152.31	19.03	-30.2	-33.4	19.0	6.02e-01	0	43	0	870318080	21	5180
2026-01-18 01:10:50.06	152.80	18.68	-30.5	-34.2	18.4	6.00e-01	0	44	0	875560960	21	5503
2026-01-18 01:10:53.07	153.29	18.34	-30.1	-33.1	19.1	6.02e-01	0	44	0	881328128	21	5100
2026-01-18 01:10:56.08	153.76	18.01	-29.8	-32.8	19.5	5.99e-01	0	44	0	887095296	20	5098
2026-01-18 01:10:59.07	154.22	17.68	-29.5	-32.2	19.9	6.00e-01	0	44	0	892862464	20	4919
2026-01-18 01:11:02.08	154.67	17.35	-29.5	-32.2	19.9	6.01e-01	0	43	0	898105344	20	4911
2026-01-18 01:11:05.08	155.12	17.02	-29.6	-32.4	19.7	6.00e-01	0	44	0	903872512	20	4978
2026-01-18 01:11:08.07	155.55	16.70	-29.8	-33.1	19.3	6.01e-01	0	44	0	909639680	20	5237
2026-01-18 01:11:11.07	155.97	16.38	-29.7	-32.7	19.5	6.03e-01	0	44	0	915406848	20	5073
2026-01-18 01:11:14.08	156.38	16.06	-29.7	-32.8	19.5	6.03e-01	0	44	0	920649728	20	5098
2026-01-18 01:11:17.10	156.79	15.75	-29.9	-33.1	19.3	6.01e-01	0	44	0	926416896	20	5195
2026-01-18 01:11:20.10	157.18	15.44	-29.8	-33.0	19.4	6.02e-01	0	44	0	932184064	20	5150
2026-01-18 01:11:23.11	157.57	15.13	-29.9	-33.1	19.3	6.02e-01	0	44	0	937951232	20	5202
2026-01-18 01:11:26.12	157.95	14.83	-29.8	-33.0	19.3	6.02e-01	0	44	0	943194112	20	5201
2026-01-18 01:11:29.13	158.33	14.53	-29.8	-33.1	19.2	6.01e-01	0	44	0	948961280	20	5234
2026-01-18 01:11:32.13	158.69	14.23	-29.8	-32.9	19.3	6.02e-01	0	44	0	954728448	20	5190
2026-01-18 01:11:35.15	159.05	13.93	-29.9	-33.4	19.0	6.01e-01	0	44	0	960495616	20	5377
2026-01-18 01:11:38.17	159.40	13.64	-29.7	-32.8	19.3	5.99e-01	0	44	0	966262784	20	5142
2026-01-18 01:11:41.18	159.74	13.35	-29.5	-32.4	19.5	6.02e-01	0	43	0	971505664	20	4997
2026-01-18 01:11:44.18	160.08	13.06	-29.7	-32.8	19.2	6.00e-01	0	44	0	977272832	20	5185
2026-01-18 01:11:47.19	160.41	12.78	-29.7	-32.8	19.2	6.02e-01	0	44	0	983040000	20	5149
2026-01-18 01:11:50.20	160.73	12.50	-29.7	-32.8	19.2	6.02e-01	0	44	0	988282880	20	5143
2026-01-18 01:11:53.21	161.05	12.22	-29.9	-33.3	18.9	6.01e-01	0	43	0	994050048	20	5344
2026-01-18 01:11:56.22	161.36	11.95	-29.8	-33.2	19.0	6.01e-01	0	43	0	999817216	20	5284
2026-01-18 01:11:59.23	161.66	11.68	-29.8	-33.0	19.0	6.01e-01	0	44	0	1005584384	20	5255
2026-01-18 01:12:02.24	161.96	11.41	-29.7	-33.0	19.0	6.01e-01	0	44	0	1011351552	20	5249
2026-01-18 01:12:05.24	162.25	11.14	-29.6	-32.9	19.0	6.02e-01	0	44	0	1016594432	20	5237
2026-01-18 01:12:08.23	162.54	10.88	-29.7	-33.2	18.7	6.01e-01	0	44	0	1022361600	20	5413
2026-01-18 01:12:11.24	162.82	10.62	-29.6	-33.2	18.7	6.02e-01	0	44	0	1028128768	20	5418
2026-01-18 01:12:14.24	163.10	10.36	-29.7	-33.5	18.5	6.00e-01	0	44	0	1033371648	20	5532
2026-01-18 01:12:17.27	163.37	10.10	-29.8	-33.6	18.4	5.99e-01	0	44	0	1039138816	20	5602
2026-01-18 01:12:20.27	163.64	9.85	-29.8	-33.7	18.3	6.01e-01	0	44	0	1044905984	20	5629
2026-01-18 01:12:23.28	163.90	9.59	-29.9	-34.0	18.2	6.00e-01	0	44	0	1050673152	20	5727
2026-01-18 01:12:26.29	164.16	9.34	-30.0	-33.6	18.2	6.02e-01	0	44	0	1056440320	21	5409
2026-01-18 01:12:29.30	164.42	9.10	-30.2	-34.0	17.9	6.03e-01	0	44	0	1061683200	21	5585
2026-01-18 01:12:32.30	164.67	8.85	-30.1	-33.6	18.1	6.01e-01	0	44	0	1067450368	21	5395
2026-01-18 01:12:35.31	164.91	8.61	-30.3	-34.0	17.9	6.01e-01	0	44	0	1073217536	21	5534
2026-01-18 01:12:38.31	165.15	8.37	-30.2	-33.8	18.0	6.01e-01	0	44	0	1078984704	21	5478
2026-01-18 01:12:41.32	165.39	8.13	-30.3	-34.2	17.7	6.00e-01	0	44	0	1084227584	21	5658
2026-01-18 01:12:44.32	165.62	7.90	-30.3	-34.3	17.5	6.03e-01	0	44	0	1089994752	21	5696
2026-01-18 01:12:47.34	165.85	7.66	-30.5	-34.7	17.3	6.03e-01	0	44	0	1095761920	21	5870
2026-01-18 01:12:50.34	166.07	7.43	-30.6	-34.6	17.0	6.00e-01	0	44	0	1101529088	22	5711
2026-01-18 01:12:53.35	166.30	7.20	-30.4	-34.0	17.5	6.00e-01	0	44	0	1106771968	22	5438

#Closed at: 2026-01-18 01:12:56
#Recorded file [1108 MB]: D:/data/31010_260118_040302.dat