passes_logs/2026/01/18/R2M6_AANII_01/R2M6_AANII_01__20260118_044155_FENGYUN_3E_rec.log

#Pass ID: 20260118_044155_FENGYUN 3E
#Satellite: FENGYUN 3E
#Configuration: FENGYUN 3E
#almurnet v.1.7.20240730
#Start time: 2026-01-18 04:47:42

#Version: 2.2.20231116
#Station: R2M6_AANII_01
#Location: 30.233357 lon 59.946436 lat
#TLE: 1 49008U 21062A   26017.26067429  .00000278  00000+0  15192-3 0  9991
#TLE: 2 49008  98.7484  22.3628 0002125 132.6872 227.4483 14.19886454235162

#Time	Az	El	Level	Level2	SNR	BER	BlckErr	Temp	State	Recorded	gain1	gain2
2026-01-18 04:47:42.19	349.14	80.50	-34.0	-45.0	3.8	8.46e-01	0	43	0	0	28	12821
2026-01-18 04:47:44.19	345.61	81.35	-34.5	-43.5	3.8	8.47e-01	0	43	104	0	30	10063
2026-01-18 04:47:46.20	341.28	82.17	-34.5	-43.4	3.8	8.47e-01	0	43	104	0	30	10029
2026-01-18 04:47:48.21	335.98	82.93	-34.4	-42.7	3.8	8.47e-01	0	43	104	0	30	9352
2026-01-18 04:47:50.21	329.48	83.62	-34.0	-41.1	3.9	8.45e-01	0	43	104	0	28	8163
2026-01-18 04:47:52.20	321.57	84.20	-34.2	-42.5	3.8	8.46e-01	0	43	104	0	28	9348
2026-01-18 04:47:54.21	312.00	84.66	-34.2	-42.5	3.8	8.47e-01	0	43	104	0	28	9323
2026-01-18 04:47:56.22	301.00	84.95	-34.3	-43.1	3.8	8.45e-01	0	43	104	0	28	9945
2026-01-18 04:47:58.23	289.17	85.03	-33.8	-40.0	3.9	8.47e-01	0	43	104	0	28	7324
2026-01-18 04:48:00.24	277.45	84.90	-34.4	-44.0	3.8	8.47e-01	0	43	104	0	28	10839
2026-01-18 04:48:02.25	266.74	84.57	-34.3	-44.1	3.8	8.46e-01	0	43	104	0	28	11087
2026-01-18 04:48:04.25	257.58	84.08	-34.2	-43.7	3.8	8.46e-01	0	43	104	0	28	10739
2026-01-18 04:48:06.27	249.92	83.46	-34.2	-43.8	3.8	8.47e-01	0	43	104	0	28	10788
2026-01-18 04:48:08.27	243.74	82.75	-34.2	-43.8	3.8	8.46e-01	0	43	104	0	28	10832
2026-01-18 04:48:10.28	238.70	81.97	-34.2	-43.7	3.8	8.45e-01	0	43	104	0	28	10765
2026-01-18 04:48:12.29	234.58	81.14	-34.2	-43.7	3.8	8.46e-01	0	43	104	0	28	10749
2026-01-18 04:48:14.30	231.18	80.28	-34.2	-43.8	3.8	8.47e-01	0	43	104	0	28	10877
2026-01-18 04:48:16.32	228.34	79.40	-34.2	-43.5	3.8	8.46e-01	0	43	104	0	28	10553
2026-01-18 04:48:18.33	225.97	78.49	-34.2	-43.8	3.8	8.46e-01	0	43	104	0	28	10844
2026-01-18 04:48:20.34	223.95	77.58	-34.2	-43.7	3.8	8.45e-01	0	43	104	0	28	10737
2026-01-18 04:48:22.34	222.22	76.66	-34.1	-43.0	3.8	8.46e-01	0	43	104	0	28	10029
2026-01-18 04:48:24.34	220.73	75.74	-34.2	-43.8	3.8	8.45e-01	0	43	104	0	28	10903
2026-01-18 04:48:26.36	219.41	74.81	-33.9	-41.6	3.8	8.46e-01	0	43	104	0	28	8721
2026-01-18 04:48:28.37	218.25	73.88	-34.0	-42.3	3.8	8.46e-01	0	43	104	0	28	9362
2026-01-18 04:48:30.38	217.23	72.95	-34.1	-43.4	3.8	8.46e-01	0	43	104	0	28	10445
2026-01-18 04:48:32.40	216.31	72.02	-33.5	-39.2	4.3	8.44e-01	0	43	104	0	28	6937
2026-01-18 04:48:34.40	215.50	71.11	-29.8	-31.0	11.3	6.87e-03	0	43	0	8388608	20	4158
2026-01-18 04:48:36.40	214.76	70.20	-23.2	-23.1	19.1	0.00e+00	0	43	0	23068672	7	3552
2026-01-18 04:48:38.40	214.10	69.29	-23.6	-23.9	18.7	0.00e+00	0	43	0	37748736	7	3725
2026-01-18 04:48:40.41	213.49	68.39	-23.5	-23.6	18.8	0.00e+00	0	43	0	51380224	7	3666
2026-01-18 04:48:42.42	212.94	67.49	-23.2	-23.1	19.0	0.00e+00	0	43	0	66060288	7	3545
2026-01-18 04:48:44.43	212.43	66.60	-23.1	-22.8	19.1	0.00e+00	0	43	0	80740352	7	3480
2026-01-18 04:48:46.43	211.96	65.73	-23.5	-23.7	18.7	0.00e+00	0	43	0	95420416	7	3682
2026-01-18 04:48:48.45	211.53	64.85	-23.8	-24.3	18.5	0.00e+00	0	43	0	110100480	7	3812
2026-01-18 04:48:50.46	211.13	63.98	-23.8	-24.2	18.5	0.00e+00	0	43	0	124780544	7	3797
2026-01-18 04:48:52.45	210.77	63.14	-24.2	-24.6	18.0	0.00e+00	0	43	0	138412032	8	3782
2026-01-18 04:48:54.45	210.43	62.30	-24.6	-25.0	17.6	0.00e+00	0	43	0	153092096	9	3765
2026-01-18 04:48:56.47	210.10	61.46	-24.8	-25.5	17.3	0.00e+00	0	43	0	167772160	9	3883
2026-01-18 04:48:58.48	209.81	60.63	-24.7	-25.2	17.5	0.00e+00	0	43	0	182452224	9	3820
2026-01-18 04:49:00.50	209.52	59.81	-24.8	-25.5	17.3	0.00e+00	0	43	0	197132288	9	3886
2026-01-18 04:49:02.49	209.26	59.01	-25.3	-26.0	16.8	0.00e+00	0	43	0	211812352	10	3894
2026-01-18 04:49:04.50	209.02	58.21	-24.8	-25.0	17.3	0.00e+00	0	43	0	225443840	10	3657
2026-01-18 04:49:06.49	208.79	57.43	-24.5	-24.3	17.6	0.00e+00	0	43	0	240123904	10	3513
2026-01-18 04:49:08.50	208.57	56.66	-24.7	-24.7	17.4	0.00e+00	0	43	0	254803968	10	3612
2026-01-18 04:49:10.49	208.37	55.90	-24.8	-24.8	17.4	0.00e+00	0	43	0	268435456	10	3637
2026-01-18 04:49:12.49	208.17	55.14	-24.7	-24.7	17.3	0.00e+00	0	43	0	283115520	10	3613
2026-01-18 04:49:14.50	207.99	54.40	-24.5	-24.9	17.4	0.00e+00	0	43	0	297795584	9	3736
2026-01-18 04:49:16.52	207.81	53.66	-24.4	-24.6	17.7	0.00e+00	0	43	0	312475648	9	3685
2026-01-18 04:49:18.52	207.64	52.94	-24.6	-24.9	17.6	0.00e+00	0	43	0	327155712	9	3763
2026-01-18 04:49:20.51	207.49	52.23	-24.7	-25.3	17.4	0.00e+00	0	43	0	340787200	9	3841
2026-01-18 04:49:22.52	207.34	51.52	-24.6	-25.1	17.5	0.00e+00	0	43	0	355467264	9	3786
2026-01-18 04:49:24.53	207.19	50.83	-24.7	-25.2	17.4	0.00e+00	0	43	0	370147328	9	3822
2026-01-18 04:49:26.53	207.06	50.14	-24.9	-25.6	17.2	0.00e+00	0	43	0	384827392	9	3902
2026-01-18 04:49:28.54	206.93	49.47	-25.1	-26.0	17.0	0.00e+00	0	43	0	399507456	9	4016
2026-01-18 04:49:30.54	206.81	48.81	-24.7	-25.3	17.3	0.00e+00	0	43	0	413138944	9	3840
2026-01-18 04:49:32.53	206.69	48.16	-24.7	-25.1	17.4	0.00e+00	0	43	0	427819008	9	3805
2026-01-18 04:49:34.53	206.57	47.51	-24.2	-24.1	18.0	0.00e+00	0	43	0	442499072	9	3568
2026-01-18 04:49:36.54	206.47	46.88	-23.9	-24.0	18.2	0.00e+00	0	43	0	457179136	8	3663
2026-01-18 04:49:38.54	206.36	46.25	-23.6	-23.4	18.5	0.00e+00	0	43	0	470810624	8	3509
2026-01-18 04:49:40.55	206.26	45.63	-23.7	-23.5	18.3	0.00e+00	0	43	0	485490688	8	3550
2026-01-18 04:49:42.55	206.17	45.03	-23.1	-22.8	19.1	0.00e+00	0	43	0	500170752	7	3492
2026-01-18 04:49:44.56	206.07	44.43	-23.1	-22.9	19.0	0.00e+00	0	43	0	514850816	7	3507
2026-01-18 04:49:46.56	205.99	43.84	-23.3	-23.3	18.7	5.03e-05	0	43	0	529530880	7	3590
2026-01-18 04:49:48.57	205.90	43.26	-23.3	-23.3	18.8	0.00e+00	0	43	0	544210944	7	3602
2026-01-18 04:49:50.58	205.82	42.68	-23.1	-23.4	19.0	0.00e+00	0	43	0	557842432	6	3729
2026-01-18 04:49:52.59	205.74	42.12	-23.2	-23.5	18.9	0.00e+00	0	43	0	572522496	6	3735
2026-01-18 04:49:54.59	205.66	41.56	-23.3	-23.7	18.8	0.00e+00	0	43	0	587202560	6	3789
2026-01-18 04:49:56.60	205.59	41.01	-23.5	-24.3	18.4	2.51e-05	0	43	0	601882624	6	3922
2026-01-18 04:49:58.62	205.52	40.47	-23.8	-24.4	18.2	2.20e-06	0	43	0	616562688	7	3842
2026-01-18 04:50:00.62	205.45	39.94	-23.9	-24.5	18.2	0.00e+00	0	43	0	631242752	7	3865
2026-01-18 04:50:02.62	205.39	39.42	-24.0	-24.8	18.0	0.00e+00	0	43	0	644874240	7	3932
2026-01-18 04:50:04.62	205.32	38.90	-23.9	-24.6	18.1	0.00e+00	0	43	0	659554304	7	3893
2026-01-18 04:50:06.63	205.26	38.40	-24.0	-24.8	18.0	0.00e+00	0	43	0	674234368	7	3934
2026-01-18 04:50:08.64	205.20	37.89	-24.1	-24.5	17.9	0.00e+00	0	43	0	688914432	8	3763
2026-01-18 04:50:10.65	205.15	37.40	-23.8	-23.9	18.2	0.00e+00	0	43	0	703594496	8	3640
2026-01-18 04:50:12.66	205.09	36.91	-23.7	-23.6	18.3	0.00e+00	0	43	0	717225984	8	3570
2026-01-18 04:50:14.67	205.04	36.43	-23.7	-23.6	18.4	0.00e+00	0	43	0	731906048	8	3575
2026-01-18 04:50:16.68	204.99	35.96	-23.9	-24.2	18.0	0.00e+00	0	43	0	746586112	8	3686
2026-01-18 04:50:18.68	204.94	35.50	-23.1	-23.0	18.9	0.00e+00	0	43	0	761266176	7	3527
2026-01-18 04:50:20.68	204.89	35.04	-23.1	-22.9	19.0	0.00e+00	0	43	0	775946240	7	3506
2026-01-18 04:50:22.68	204.84	34.59	-22.9	-22.9	19.2	0.00e+00	0	43	0	789577728	6	3620
2026-01-18 04:50:24.69	204.80	34.14	-22.9	-23.0	19.1	0.00e+00	0	43	0	804257792	6	3644
2026-01-18 04:50:26.70	204.75	33.70	-22.9	-22.9	19.1	0.00e+00	0	43	0	818937856	6	3618
2026-01-18 04:50:28.71	204.71	33.27	-22.9	-22.9	19.1	5.26e-05	0	43	0	833617920	6	3608
2026-01-18 04:50:30.72	204.67	32.84	-23.0	-23.2	19.0	0.00e+00	0	43	0	848297984	6	3672
2026-01-18 04:50:32.73	204.63	32.42	-23.1	-23.5	18.9	0.00e+00	0	43	0	862978048	6	3740
2026-01-18 04:50:34.74	204.59	32.00	-23.3	-23.7	18.8	0.00e+00	0	43	0	876609536	6	3792
2026-01-18 04:50:36.74	204.55	31.59	-23.3	-23.9	18.7	0.00e+00	0	43	0	891289600	6	3833
2026-01-18 04:50:38.74	204.51	31.19	-23.5	-24.2	18.5	2.64e-04	0	43	0	905969664	6	3899
2026-01-18 04:50:40.74	204.48	30.79	-23.6	-23.9	18.4	0.00e+00	0	43	0	920649728	7	3738
2026-01-18 04:50:42.76	204.44	30.40	-23.7	-24.1	18.3	0.00e+00	0	43	0	935329792	7	3770
2026-01-18 04:50:44.75	204.41	30.01	-23.7	-24.1	18.3	0.00e+00	0	43	0	948961280	7	3773
2026-01-18 04:50:46.77	204.38	29.63	-23.5	-24.3	18.4	0.00e+00	0	43	0	963641344	6	3940
2026-01-18 04:50:48.78	204.34	29.25	-23.7	-24.1	18.2	0.00e+00	0	43	0	978321408	7	3789
2026-01-18 04:50:50.78	204.31	28.88	-23.7	-24.1	18.3	0.00e+00	0	43	0	993001472	7	3779
2026-01-18 04:50:52.77	204.28	28.51	-23.9	-24.6	18.0	0.00e+00	0	43	0	1007681536	7	3905
2026-01-18 04:50:54.77	204.25	28.15	-23.6	-23.9	18.3	0.00e+00	0	43	0	1021313024	7	3747
2026-01-18 04:50:56.78	204.23	27.79	-23.5	-24.2	18.4	0.00e+00	0	43	0	1035993088	6	3916
2026-01-18 04:50:58.78	204.20	27.44	-23.5	-23.7	18.4	0.00e+00	0	43	0	1050673152	7	3681
2026-01-18 04:51:00.79	204.17	27.09	-23.5	-23.8	18.4	0.00e+00	0	43	0	1065353216	7	3716
2026-01-18 04:51:02.80	204.14	26.74	-23.6	-23.9	18.3	0.00e+00	0	43	0	1080033280	7	3731
2026-01-18 04:51:04.81	204.12	26.40	-23.7	-24.1	18.2	0.00e+00	0	43	0	1093664768	7	3777
2026-01-18 04:51:06.82	204.09	26.06	-23.7	-24.2	18.1	1.10e-06	0	43	0	1108344832	7	3811
2026-01-18 04:51:08.82	204.07	25.73	-23.8	-24.4	18.0	0.00e+00	0	43	0	1123024896	7	3851
2026-01-18 04:51:10.83	204.05	25.40	-24.0	-24.8	17.8	0.00e+00	0	43	0	1137704960	7	3958
2026-01-18 04:51:12.83	204.02	25.08	-23.9	-24.6	17.9	0.00e+00	0	43	0	1152385024	7	3889
2026-01-18 04:51:14.84	204.00	24.76	-24.1	-24.9	17.7	0.00e+00	0	43	0	1166016512	7	3973
2026-01-18 04:51:16.85	203.98	24.44	-23.9	-24.7	17.9	0.00e+00	0	43	0	1180696576	7	3915
2026-01-18 04:51:18.86	203.96	24.13	-24.1	-24.9	17.7	0.00e+00	0	43	0	1195376640	7	3974
2026-01-18 04:51:20.87	203.94	23.82	-23.9	-24.5	18.0	0.00e+00	0	43	0	1210056704	7	3873
2026-01-18 04:51:22.88	203.92	23.52	-24.0	-24.9	17.8	0.00e+00	0	43	0	1224736768	7	3961
2026-01-18 04:51:24.88	203.90	23.22	-23.8	-24.4	18.0	0.00e+00	0	43	0	1239416832	7	3854
2026-01-18 04:51:26.90	203.88	22.92	-23.8	-24.3	18.0	0.00e+00	0	43	0	1254096896	7	3834
2026-01-18 04:51:28.90	203.86	22.62	-24.0	-24.8	17.7	0.00e+00	0	43	0	1267728384	7	3950
2026-01-18 04:51:30.91	203.84	22.33	-24.0	-24.3	17.8	0.00e+00	0	43	0	1282408448	8	3721
2026-01-18 04:51:32.91	203.82	22.04	-24.1	-24.5	17.7	0.00e+00	0	43	0	1297088512	8	3768
2026-01-18 04:51:34.92	203.80	21.76	-24.2	-24.6	17.6	0.00e+00	0	43	0	1311768576	8	3795
2026-01-18 04:51:36.93	203.79	21.48	-24.0	-24.3	17.7	0.00e+00	0	43	0	1325400064	8	3731
2026-01-18 04:51:38.95	203.77	21.19	-24.1	-24.9	17.7	0.00e+00	0	43	0	1341128704	7	3972
2026-01-18 04:51:40.95	203.75	20.92	-24.1	-24.4	17.6	0.00e+00	0	43	0	1354760192	8	3756
2026-01-18 04:51:42.95	203.74	20.65	-24.1	-24.5	17.6	0.00e+00	0	43	0	1369440256	8	3758
2026-01-18 04:51:44.96	203.72	20.38	-24.3	-24.8	17.4	0.00e+00	0	43	0	1384120320	8	3845
2026-01-18 04:51:46.96	203.71	20.11	-24.3	-24.8	17.4	0.00e+00	0	43	0	1398800384	8	3852
2026-01-18 04:51:48.97	203.69	19.85	-24.2	-24.7	17.5	0.00e+00	0	43	0	1412431872	8	3816
2026-01-18 04:51:50.97	203.68	19.59	-24.3	-24.9	17.4	0.00e+00	0	43	0	1427111936	8	3867
2026-01-18 04:51:52.98	203.66	19.33	-24.3	-24.9	17.3	0.00e+00	0	43	0	1441792000	8	3868
2026-01-18 04:51:54.98	203.65	19.07	-24.4	-25.1	17.3	0.00e+00	0	43	0	1456472064	8	3898
2026-01-18 04:51:56.99	203.64	18.82	-24.3	-25.0	17.3	0.00e+00	0	43	0	1470103552	8	3879
2026-01-18 04:51:59.00	203.62	18.57	-24.4	-25.1	16.7	0.00e+00	0	43	0	1485832192	8	3916
2026-01-18 04:52:01.00	203.61	18.32	-24.4	-25.2	16.9	0.00e+00	0	43	0	1499463680	8	3936
2026-01-18 04:52:03.01	203.60	18.08	-24.4	-25.1	17.2	2.20e-06	0	43	0	1514143744	8	3899
2026-01-18 04:52:05.01	203.59	17.83	-24.4	-24.7	17.1	2.74e-05	0	43	0	1528823808	9	3723
2026-01-18 04:52:07.01	203.58	17.59	-24.6	-25.0	17.0	0.00e+00	0	43	0	1543503872	9	3784
2026-01-18 04:52:09.03	203.56	17.35	-24.7	-25.3	16.8	3.40e-06	0	43	0	1557135360	9	3855
2026-01-18 04:52:11.03	203.55	17.12	-24.9	-25.8	16.5	0.00e+00	0	43	0	1571815424	9	3979
2026-01-18 04:52:13.02	203.54	16.89	-24.9	-25.8	16.5	0.00e+00	0	43	0	1586495488	9	3972
2026-01-18 04:52:15.03	203.53	16.65	-24.8	-25.5	16.7	0.00e+00	0	43	0	1601175552	9	3902
2026-01-18 04:52:17.04	203.52	16.42	-24.9	-25.6	16.6	0.00e+00	0	43	0	1615855616	9	3937
2026-01-18 04:52:19.04	203.51	16.20	-24.7	-25.3	16.7	0.00e+00	0	43	0	1629487104	9	3863
2026-01-18 04:52:21.05	203.50	15.97	-24.8	-25.4	16.7	5.70e-06	0	43	0	1644167168	9	3888
2026-01-18 04:52:23.06	203.49	15.75	-24.9	-25.8	16.5	0.00e+00	0	43	0	1658847232	9	3963
2026-01-18 04:52:25.06	203.48	15.53	-25.0	-26.0	16.4	0.00e+00	0	43	0	1673527296	9	4014
2026-01-18 04:52:27.08	203.47	15.31	-25.2	-25.7	16.2	0.00e+00	0	43	0	1688207360	10	3851
2026-01-18 04:52:29.08	203.46	15.09	-25.1	-25.7	16.2	0.00e+00	0	43	0	1701838848	10	3853
2026-01-18 04:52:31.08	203.45	14.88	-25.2	-25.9	16.1	0.00e+00	0	43	0	1716518912	10	3900
2026-01-18 04:52:33.09	203.45	14.66	-25.3	-26.0	16.1	0.00e+00	0	43	0	1731198976	10	3919
2026-01-18 04:52:35.10	203.44	14.45	-25.6	-26.2	15.7	0.00e+00	0	43	0	1745879040	11	3868
2026-01-18 04:52:37.10	203.43	14.24	-25.5	-25.9	15.8	0.00e+00	0	43	0	1760559104	11	3791
2026-01-18 04:52:39.11	203.42	14.03	-25.6	-26.2	15.7	0.00e+00	0	43	0	1775239168	11	3850
2026-01-18 04:52:41.12	203.41	13.83	-25.6	-26.2	15.7	0.00e+00	0	43	0	1788870656	11	3862
2026-01-18 04:52:43.13	203.41	13.62	-25.6	-26.1	15.7	0.00e+00	0	43	0	1803550720	11	3845
2026-01-18 04:52:45.13	203.40	13.42	-25.8	-26.6	15.4	0.00e+00	0	43	0	1818230784	11	3966
2026-01-18 04:52:47.14	203.39	13.22	-25.6	-26.3	15.5	0.00e+00	0	43	0	1832910848	11	3897
2026-01-18 04:52:49.15	203.38	13.02	-25.8	-26.6	15.3	0.00e+00	0	43	0	1847590912	11	3970
2026-01-18 04:52:51.16	203.38	12.82	-25.8	-26.7	15.3	0.00e+00	0	43	0	1862270976	11	3979
2026-01-18 04:52:53.16	203.37	12.63	-25.7	-26.5	15.4	0.00e+00	0	43	0	1875902464	11	3930
2026-01-18 04:52:55.16	203.36	12.43	-26.0	-27.0	15.1	0.00e+00	0	43	0	1890582528	11	4071
2026-01-18 04:52:57.18	203.36	12.24	-25.9	-26.8	15.3	0.00e+00	0	43	0	1905262592	11	4015
2026-01-18 04:52:59.18	203.35	12.05	-25.8	-26.7	15.3	0.00e+00	0	43	0	1919942656	11	3999
2026-01-18 04:53:01.18	203.34	11.86	-25.8	-26.7	15.3	0.00e+00	0	43	0	1933574144	11	3988
2026-01-18 04:53:03.18	203.34	11.67	-26.0	-27.2	15.0	0.00e+00	0	43	0	1948254208	11	4101
2026-01-18 04:53:05.18	203.33	11.48	-26.1	-26.9	14.8	0.00e+00	0	43	0	1962934272	12	3930
2026-01-18 04:53:07.19	203.33	11.30	-26.1	-26.8	14.9	0.00e+00	0	43	0	1977614336	12	3912
2026-01-18 04:53:09.20	203.32	11.11	-26.3	-27.3	14.6	0.00e+00	0	43	0	1992294400	12	4028
2026-01-18 04:53:11.21	203.32	10.93	-26.4	-27.5	14.4	0.00e+00	0	43	0	2006974464	12	4086
2026-01-18 04:53:13.22	203.31	10.75	-26.5	-27.7	14.3	0.00e+00	0	43	0	2020605952	12	4150
2026-01-18 04:53:15.24	203.31	10.57	-26.2	-27.1	14.6	0.00e+00	0	43	0	2035286016	12	3984
2026-01-18 04:53:17.24	203.30	10.39	-26.3	-27.3	14.5	5.70e-06	0	43	0	2049966080	12	4038
2026-01-18 04:53:19.25	203.30	10.21	-26.4	-27.6	14.4	0.00e+00	0	43	0	2064646144	12	4111
2026-01-18 04:53:21.25	203.29	10.03	-26.3	-27.3	14.5	0.00e+00	0	43	0	2079326208	12	4042
2026-01-18 04:53:23.26	203.29	9.86	-26.4	-27.5	14.3	1.02e-05	0	43	0	2094006272	12	4110
2026-01-18 04:53:25.26	203.28	9.69	-26.3	-27.3	14.4	1.10e-06	0	43	0	2107637760	12	4052
2026-01-18 04:53:27.27	203.28	9.51	-26.6	-27.4	14.1	1.10e-06	0	43	0	2122317824	13	3968
2026-01-18 04:53:29.27	203.27	9.34	-26.9	-28.1	13.7	4.50e-06	0	43	0	2136997888	13	4156
2026-01-18 04:53:31.29	203.27	9.17	-27.0	-28.3	13.5	1.60e-05	0	43	0	2151677952	13	4211
2026-01-18 04:53:33.29	203.27	9.00	-27.6	-29.3	12.7	7.55e-05	0	43	0	2165309440	14	4372
2026-01-18 04:53:35.30	203.26	8.83	-26.8	-27.4	13.8	1.14e-05	0	43	0	2181038080	14	3857
2026-01-18 04:53:37.29	203.26	8.67	-26.6	-27.0	14.0	5.70e-06	0	43	0	2194669568	14	3768
2026-01-18 04:53:39.30	203.25	8.50	-26.7	-27.1	13.9	1.10e-06	0	43	0	2209349632	14	3800
2026-01-18 04:53:41.30	203.25	8.34	-26.7	-27.3	13.7	5.70e-06	0	43	0	2224029696	14	3852
2026-01-18 04:53:43.31	203.25	8.17	-26.9	-27.7	13.6	1.02e-05	0	43	0	2238709760	14	3945
2026-01-18 04:53:45.31	203.24	8.01	-26.7	-27.3	13.7	8.00e-06	0	43	0	2252341248	14	3854
2026-01-18 04:53:47.32	203.24	7.85	-27.4	-28.8	12.8	7.20e-05	0	43	0	2267021312	14	4247
2026-01-18 04:53:49.33	203.24	7.69	-27.0	-28.0	13.3	1.83e-05	0	43	0	2281701376	14	4029
2026-01-18 04:53:51.34	203.24	7.53	-27.1	-28.2	13.2	3.08e-05	0	43	0	2296381440	14	4068
2026-01-18 04:53:53.35	203.23	7.37	-27.0	-28.0	13.3	1.83e-05	0	43	0	2311061504	14	4031
2026-01-18 04:53:55.35	203.23	7.21	-26.9	-27.7	13.4	2.05e-05	0	43	0	2325741568	14	3963
2026-01-18 04:53:57.36	203.23	7.06	-30.8	-34.4	7.6	4.52e-03	0	43	0	2339373056	21	5417

#Closed at: 2026-01-18 04:53:58
#Recorded file [2340 MB]: D:/data/31010_260118_074833.dat