passes_logs/2026/01/18/R2M6_AANII_01/R2M6_AANII_01__20260118_101131_SUOMI_NPP_rec.log

#Pass ID: 20260118_101131_SUOMI NPP
#Satellite: SUOMI NPP
#Configuration: NPP
#almurnet v.1.7.20240730
#Start time: 2026-01-18 10:11:33

#Version: 2.2.20231116
#Station: R2M6_AANII_01
#Location: 30.233357 lon 59.946436 lat
#TLE: 1 37849U 11061A   26017.28905266  .00000074  00000+0  55894-4 0  9999
#TLE: 2 37849  98.7814 319.3179 0002408  59.7048 300.4366 14.19525847737038

#Time	Az	El	Level	Level2	SNR	BER	BlckErr	Temp	State	Recorded	gain1	gain2
2026-01-18 10:11:33.13	153.85	7.11	-31.1	-35.0	5.1	1.28e+00	0	41	0	0	23	5611
2026-01-18 10:11:36.13	153.83	7.34	-31.4	-35.2	8.2	6.26e-02	0	41	0	1048576	24	5549
2026-01-18 10:11:39.14	153.81	7.58	-31.3	-35.3	8.4	5.00e-02	0	41	0	7340032	23	5743
2026-01-18 10:11:42.15	153.79	7.82	-31.2	-35.2	8.5	6.34e-02	0	41	0	12582912	23	5725
2026-01-18 10:11:45.17	153.77	8.06	-31.0	-34.2	9.3	2.24e-02	0	41	0	17825792	23	5208
2026-01-18 10:11:48.16	153.74	8.31	-31.0	-33.6	10.0	8.44e-03	0	41	0	24117248	23	4860
2026-01-18 10:11:51.17	153.72	8.55	-30.9	-33.4	10.3	8.20e-03	0	41	0	29360128	23	4757
2026-01-18 10:11:54.17	153.70	8.80	-30.7	-33.1	10.8	3.10e-03	0	41	0	35651584	22	4756
2026-01-18 10:11:57.19	153.68	9.05	-30.5	-32.9	10.8	2.13e-03	0	42	0	40894464	22	4761
2026-01-18 10:12:00.19	153.65	9.31	-30.3	-33.1	10.9	2.54e-03	0	41	0	46137344	21	5013
2026-01-18 10:12:03.19	153.63	9.56	-30.4	-33.5	10.6	3.07e-03	0	42	0	52428800	21	5163
2026-01-18 10:12:06.19	153.60	9.82	-30.2	-33.0	10.9	2.83e-03	0	42	0	57671680	21	4980
2026-01-18 10:12:09.20	153.58	10.09	-30.3	-33.0	11.2	2.25e-03	0	42	0	62914560	21	4882
2026-01-18 10:12:12.21	153.55	10.35	-30.4	-33.1	11.2	1.24e-03	0	42	0	69206016	21	4884
2026-01-18 10:12:15.22	153.53	10.62	-30.6	-33.4	11.0	1.47e-03	0	42	0	74448896	21	4969
2026-01-18 10:12:18.23	153.50	10.89	-30.7	-33.3	11.3	1.41e-03	0	42	0	80740352	21	4869
2026-01-18 10:12:21.22	153.47	11.16	-30.6	-33.0	11.5	8.43e-04	0	42	0	85983232	21	4740
2026-01-18 10:12:24.23	153.44	11.44	-30.6	-33.2	11.3	1.49e-03	0	42	0	91226112	21	4820
2026-01-18 10:12:27.24	153.41	11.72	-30.6	-33.2	11.4	8.06e-04	0	42	0	97517568	21	4825
2026-01-18 10:12:30.24	153.38	12.00	-30.4	-32.4	11.9	4.39e-04	0	42	0	102760448	21	4555
2026-01-18 10:12:33.25	153.35	12.29	-30.3	-32.1	12.2	2.47e-04	0	42	0	108003328	21	4443
2026-01-18 10:12:36.26	153.32	12.58	-30.3	-32.1	12.2	2.51e-04	0	42	0	114294784	21	4464
2026-01-18 10:12:39.27	153.29	12.87	-30.2	-32.0	12.3	1.85e-04	0	42	0	119537664	21	4405
2026-01-18 10:12:42.27	153.25	13.17	-30.3	-32.0	12.4	2.33e-04	0	42	0	125829120	21	4387
2026-01-18 10:12:45.27	153.22	13.47	-30.4	-32.5	12.1	2.20e-04	0	42	0	131072000	21	4552
2026-01-18 10:12:48.29	153.18	13.77	-30.4	-32.3	12.2	2.07e-04	0	42	0	136314880	21	4496
2026-01-18 10:12:51.28	153.15	14.08	-30.3	-32.1	12.4	1.35e-04	0	42	0	142606336	21	4409
2026-01-18 10:12:54.29	153.11	14.39	-30.3	-31.9	12.5	1.36e-04	0	43	0	147849216	21	4360
2026-01-18 10:12:57.29	153.07	14.71	-30.4	-32.3	12.3	1.50e-04	0	42	0	153092096	21	4468
2026-01-18 10:13:00.30	153.03	15.03	-30.5	-32.6	12.1	2.63e-04	0	42	0	159383552	21	4578
2026-01-18 10:13:03.31	152.99	15.35	-30.6	-32.6	12.2	2.87e-04	0	43	0	164626432	21	4565
2026-01-18 10:13:06.32	152.95	15.68	-30.7	-32.9	11.9	3.54e-04	0	43	0	170917888	21	4674
2026-01-18 10:13:09.33	152.91	16.02	-30.4	-32.3	12.4	9.23e-05	0	43	0	176160768	21	4449
2026-01-18 10:13:12.33	152.87	16.35	-30.4	-32.1	12.6	7.24e-05	0	43	0	181403648	21	4365
2026-01-18 10:13:15.34	152.82	16.70	-30.1	-31.1	13.3	1.75e-05	0	43	0	187695104	21	4069
2026-01-18 10:13:18.35	152.78	17.04	-30.2	-31.4	13.2	1.98e-05	0	43	0	192937984	21	4130
2026-01-18 10:13:21.36	152.73	17.40	-30.2	-31.4	13.2	1.98e-05	0	43	0	198180864	21	4157
2026-01-18 10:13:24.36	152.68	17.75	-30.4	-32.0	12.8	3.43e-05	0	43	0	204472320	21	4336
2026-01-18 10:13:27.36	152.63	18.12	-30.5	-32.0	12.9	4.88e-05	0	43	0	209715200	21	4323
2026-01-18 10:13:30.36	152.58	18.48	-30.5	-32.0	12.9	2.82e-05	0	43	0	216006656	21	4318
2026-01-18 10:13:33.37	152.53	18.86	-30.3	-31.5	13.3	2.21e-05	0	43	0	221249536	21	4140
2026-01-18 10:13:36.39	152.47	19.24	-30.1	-31.1	13.5	1.37e-05	0	43	0	226492416	21	4024
2026-01-18 10:13:39.40	152.42	19.63	-30.1	-30.9	13.7	4.50e-06	0	43	0	232783872	21	3975
2026-01-18 10:13:42.40	152.36	20.02	-30.2	-31.2	13.6	1.06e-05	0	43	0	238026752	21	4049
2026-01-18 10:13:45.40	152.30	20.41	-30.1	-31.0	13.7	6.10e-06	0	43	0	243269632	21	3987
2026-01-18 10:13:48.42	152.24	20.82	-30.1	-31.0	13.7	3.80e-06	0	43	0	249561088	21	3983
2026-01-18 10:13:51.44	152.18	21.23	-30.1	-30.9	13.8	6.80e-06	0	43	0	254803968	21	3962
2026-01-18 10:13:54.44	152.11	21.65	-30.0	-30.8	13.9	6.80e-06	0	43	0	261095424	21	3926
2026-01-18 10:13:57.46	152.04	22.08	-30.0	-30.7	14.0	1.50e-06	0	43	0	266338304	21	3898
2026-01-18 10:14:00.45	151.98	22.50	-29.8	-30.6	14.4	3.00e-06	0	43	0	271581184	20	3967
2026-01-18 10:14:03.47	151.90	22.95	-29.5	-29.9	14.9	3.00e-06	0	43	0	277872640	20	3766
2026-01-18 10:14:06.47	151.83	23.39	-29.5	-29.8	15.0	1.50e-06	0	43	0	283115520	20	3718
2026-01-18 10:14:09.48	151.75	23.85	-29.4	-30.1	15.2	0.00e+00	0	43	0	289406976	19	3892
2026-01-18 10:14:12.47	151.68	24.31	-29.4	-30.0	15.3	0.00e+00	0	43	0	294649856	19	3858
2026-01-18 10:14:15.49	151.59	24.78	-29.6	-30.4	14.9	0.00e+00	0	43	0	299892736	19	3977
2026-01-18 10:14:18.49	151.51	25.26	-29.7	-30.7	14.8	0.00e+00	0	43	0	306184192	19	4063
2026-01-18 10:14:21.50	151.42	25.75	-29.7	-30.8	14.8	0.00e+00	0	43	0	311427072	19	4070
2026-01-18 10:14:24.50	151.33	26.24	-29.5	-30.2	15.2	0.00e+00	0	43	0	316669952	19	3916
2026-01-18 10:14:27.52	151.24	26.75	-29.7	-30.7	14.9	0.00e+00	0	43	0	322961408	19	4047
2026-01-18 10:14:30.54	151.14	27.27	-30.3	-31.7	13.9	1.50e-06	0	43	0	328204288	20	4259
2026-01-18 10:14:33.54	151.04	27.79	-30.5	-31.7	13.6	4.50e-06	0	43	0	334495744	21	4167
2026-01-18 10:14:36.54	150.94	28.33	-30.5	-31.9	13.5	6.80e-06	0	43	0	339738624	21	4213
2026-01-18 10:14:39.54	150.83	28.87	-30.5	-31.7	13.6	9.10e-06	0	43	0	344981504	21	4163
2026-01-18 10:14:42.54	150.72	29.43	-30.5	-32.0	13.5	6.10e-05	0	43	0	351272960	21	4235
2026-01-18 10:14:45.55	150.61	30.00	-31.4	-34.0	12.0	1.82e-04	0	43	0	356515840	22	4832
2026-01-18 10:14:48.57	150.49	30.58	-31.7	-34.2	11.4	4.67e-04	0	43	0	361758720	23	4788
2026-01-18 10:14:51.57	150.36	31.17	-31.2	-32.8	12.4	3.14e-04	0	43	0	368050176	23	4325
2026-01-18 10:14:54.57	150.23	31.77	-31.5	-33.6	11.9	5.53e-04	0	43	0	373293056	23	4565
2026-01-18 10:14:57.58	150.10	32.39	-31.9	-34.7	11.1	1.94e-03	0	43	0	379584512	23	4971
2026-01-18 10:15:00.57	149.96	33.01	-31.7	-34.2	11.5	1.32e-03	0	43	0	384827392	23	4786
2026-01-18 10:15:03.58	149.81	33.65	-31.9	-34.1	11.2	1.12e-03	0	43	0	390070272	24	4672
2026-01-18 10:15:06.59	149.66	34.31	-32.3	-35.6	10.1	8.00e-03	0	43	0	396361728	24	5268
2026-01-18 10:15:09.61	149.49	34.98	-32.1	-34.8	10.6	5.81e-03	0	43	0	401604608	24	4956
2026-01-18 10:15:12.61	149.33	35.66	-31.8	-33.9	11.3	1.21e-03	0	43	0	406847488	24	4618
2026-01-18 10:15:15.62	149.15	36.36	-31.3	-33.1	12.4	1.22e-04	0	43	0	413138944	23	4402
2026-01-18 10:15:18.63	148.97	37.07	-31.3	-32.9	12.4	1.81e-04	0	43	0	418381824	23	4349
2026-01-18 10:15:21.63	148.78	37.79	-30.7	-31.8	13.5	1.67e-05	0	43	0	424673280	22	4091
2026-01-18 10:15:24.63	148.58	38.54	-30.6	-31.4	13.8	4.50e-06	0	43	0	429916160	22	3963
2026-01-18 10:15:27.64	148.37	39.30	-30.9	-32.4	13.2	4.04e-05	0	43	0	435159040	22	4257
2026-01-18 10:15:30.65	148.15	40.07	-31.3	-32.9	12.5	1.60e-04	0	43	0	441450496	23	4327
2026-01-18 10:15:33.66	147.91	40.87	-32.0	-34.4	11.1	1.32e-03	0	43	0	446693376	24	4775
2026-01-18 10:15:36.68	147.67	41.68	-32.2	-35.0	10.7	1.55e-03	0	43	0	452984832	24	4999
2026-01-18 10:15:39.68	147.41	42.50	-32.5	-35.7	9.8	1.28e-02	0	43	0	458227712	25	5193
2026-01-18 10:15:42.70	147.13	43.35	-32.6	-36.1	9.5	1.61e-02	0	43	0	463470592	25	5398
2026-01-18 10:15:45.69	146.85	44.21	-32.5	-35.6	9.9	9.37e-03	0	43	0	469762048	25	5153
2026-01-18 10:15:48.71	146.54	45.10	-32.1	-34.1	11.0	4.60e-03	0	43	0	475004928	25	4578
2026-01-18 10:15:51.71	146.22	46.00	-31.2	-32.7	12.7	1.29e-04	0	43	0	480247808	23	4257
2026-01-18 10:15:54.72	145.88	46.92	-31.3	-33.4	12.6	2.74e-05	0	43	0	486539264	22	4568
2026-01-18 10:15:57.72	145.51	47.86	-31.2	-32.6	12.8	8.08e-05	0	43	0	491782144	23	4211
2026-01-18 10:16:00.73	145.12	48.82	-30.9	-32.3	13.4	3.00e-06	0	43	0	498073600	22	4211
2026-01-18 10:16:03.74	144.71	49.80	-30.7	-31.7	13.7	1.29e-05	0	43	0	503316480	22	4039
2026-01-18 10:16:06.75	144.27	50.80	-29.9	-30.6	15.0	0.00e+00	0	43	0	508559360	20	3903
2026-01-18 10:16:09.76	143.79	51.82	-30.0	-30.9	14.8	0.00e+00	0	43	0	514850816	20	3999
2026-01-18 10:16:12.76	143.29	52.85	-30.1	-31.2	14.5	7.00e-07	0	43	0	520093696	20	4088
2026-01-18 10:16:15.76	142.74	53.91	-29.9	-30.6	15.0	0.00e+00	0	43	0	525336576	20	3902
2026-01-18 10:16:18.77	142.15	54.99	-29.5	-30.2	15.6	0.00e+00	0	43	0	531628032	19	3882
2026-01-18 10:16:21.79	141.51	56.09	-30.5	-31.6	14.1	0.00e+00	0	43	0	536870912	21	4100
2026-01-18 10:16:24.80	140.82	57.20	-30.5	-31.7	14.1	7.00e-07	0	43	0	543162368	21	4137
2026-01-18 10:16:27.81	140.07	58.34	-30.6	-31.3	14.0	8.30e-06	0	43	0	548405248	22	3920
2026-01-18 10:16:30.82	139.25	59.49	-30.4	-30.8	14.3	3.00e-06	0	43	0	553648128	22	3788
2026-01-18 10:16:33.83	138.36	60.65	-30.0	-30.8	14.9	0.00e+00	0	43	0	559939584	20	3973
2026-01-18 10:16:36.84	137.37	61.83	-29.9	-30.5	15.3	0.00e+00	0	43	0	565182464	20	3881
2026-01-18 10:16:39.85	136.29	63.03	-30.9	-32.3	13.4	1.06e-05	0	43	0	570425344	22	4194
2026-01-18 10:16:42.86	135.09	64.23	-30.5	-31.0	14.2	2.20e-06	0	43	0	576716800	22	3839
2026-01-18 10:16:45.87	133.75	65.44	-29.9	-30.0	15.2	0.00e+00	0	43	0	581959680	21	3659
2026-01-18 10:16:48.89	132.26	66.67	-31.2	-32.8	13.1	3.43e-05	0	43	0	588251136	22	4359
2026-01-18 10:16:51.89	130.59	67.88	-30.4	-31.4	14.3	0.00e+00	0	43	0	593494016	21	4036
2026-01-18 10:16:54.90	128.71	69.10	-30.8	-32.3	13.8	0.00e+00	0	43	0	598736896	21	4300
2026-01-18 10:16:57.91	126.57	70.30	-31.0	-32.0	13.3	4.73e-05	0	43	0	605028352	23	4021
2026-01-18 10:17:00.91	124.14	71.49	-30.8	-31.8	13.8	6.80e-06	0	43	0	610271232	22	4068
2026-01-18 10:17:03.93	121.34	72.67	-30.8	-32.0	13.7	2.20e-06	0	43	0	616562688	22	4102
2026-01-18 10:17:06.92	118.15	73.80	-31.5	-32.8	12.4	1.87e-04	0	43	0	621805568	24	4168
2026-01-18 10:17:09.94	114.42	74.89	-30.8	-32.3	13.8	7.00e-07	0	43	0	627048448	21	4299
2026-01-18 10:17:12.94	110.15	75.91	-31.3	-32.7	12.9	4.41e-04	0	43	0	633339904	23	4225
2026-01-18 10:17:15.93	105.22	76.85	-31.5	-33.1	12.7	3.58e-05	0	43	0	638582784	23	4374
2026-01-18 10:17:18.94	99.51	77.70	-32.1	-34.6	11.3	4.97e-04	0	43	0	643825664	24	4794
2026-01-18 10:17:21.95	93.02	78.40	-33.0	-36.6	9.2	1.68e-02	0	43	0	650117120	26	5451
2026-01-18 10:17:24.96	85.77	78.95	-33.2	-36.9	8.5	8.67e-02	0	43	0	655360000	27	5490
2026-01-18 10:17:27.97	77.88	79.31	-33.3	-37.2	8.4	4.69e-02	0	43	0	660602880	27	5615
2026-01-18 10:17:30.99	69.58	79.46	-33.5	-38.2	7.5	5.71e-02	0	43	0	666894336	27	6146
2026-01-18 10:17:34.00	61.25	79.38	-32.5	-34.5	10.8	6.28e-03	0	43	0	672137216	26	4578
2026-01-18 10:17:37.00	53.23	79.10	-32.2	-34.3	11.3	2.16e-03	0	43	0	678428672	25	4585
2026-01-18 10:17:40.00	45.77	78.61	-31.9	-33.3	11.9	9.13e-03	0	43	0	683671552	25	4249
2026-01-18 10:17:43.01	39.01	77.96	-32.6	-35.6	10.3	5.06e-03	0	43	0	688914432	25	5079
2026-01-18 10:17:46.02	33.03	77.16	-32.6	-35.5	10.4	1.59e-03	0	43	0	695205888	25	5046
2026-01-18 10:17:49.02	27.84	76.25	-33.2	-37.6	8.4	3.36e-02	0	43	0	700448768	26	5950
2026-01-18 10:17:52.02	23.35	75.25	-31.7	-33.9	12.2	1.31e-04	0	43	0	705691648	23	4608
2026-01-18 10:17:55.03	19.45	74.19	-30.3	-30.9	14.6	0.00e+00	0	43	0	711983104	21	3894
2026-01-18 10:17:58.04	16.08	73.07	-29.3	-29.7	16.1	0.00e+00	0	43	0	717225984	19	3731
2026-01-18 10:18:01.04	13.16	71.91	-30.7	-32.0	14.0	3.00e-06	0	43	0	723517440	21	4203
2026-01-18 10:18:04.05	10.61	70.73	-29.0	-28.8	16.6	0.00e+00	0	43	0	728760320	19	3534
2026-01-18 10:18:07.05	8.38	69.53	-30.0	-30.8	15.0	0.00e+00	0	43	0	734003200	20	3948
2026-01-18 10:18:10.06	6.42	68.32	-31.8	-34.0	12.0	7.32e-05	0	43	0	740294656	23	4678
2026-01-18 10:18:13.06	4.68	67.11	-29.8	-30.3	15.3	0.00e+00	0	43	0	745537536	20	3817
2026-01-18 10:18:16.06	3.13	65.90	-30.5	-31.0	14.2	1.37e-05	0	43	0	750780416	22	3836
2026-01-18 10:18:19.06	1.75	64.69	-30.2	-30.8	14.8	0.00e+00	0	43	0	757071872	21	3854
2026-01-18 10:18:22.08	0.50	63.48	-30.8	-32.0	13.5	1.14e-05	0	43	0	762314752	22	4102
2026-01-18 10:18:25.10	359.38	62.28	-30.2	-30.9	14.6	3.80e-06	0	43	0	768606208	21	3891
2026-01-18 10:18:28.11	358.36	61.10	-29.6	-29.7	15.6	0.00e+00	0	43	0	773849088	20	3674
2026-01-18 10:18:31.13	357.43	59.93	-30.1	-31.1	14.9	0.00e+00	0	43	0	779091968	20	4022
2026-01-18 10:18:34.14	356.59	58.78	-32.0	-34.3	11.2	2.39e-04	0	43	0	785383424	24	4702
2026-01-18 10:18:37.15	355.82	57.64	-30.5	-31.5	14.2	2.20e-06	0	43	0	790626304	21	4056
2026-01-18 10:18:40.16	355.11	56.52	-31.4	-33.1	12.5	1.35e-04	0	43	0	796917760	23	4373
2026-01-18 10:18:43.16	354.46	55.43	-30.2	-30.7	14.6	5.30e-06	0	43	0	802160640	21	3850
2026-01-18 10:18:46.17	353.85	54.34	-29.5	-30.1	15.6	0.00e+00	0	43	0	807403520	19	3863
2026-01-18 10:18:49.17	353.29	53.28	-28.6	-28.9	17.0	0.00e+00	0	43	0	813694976	17	3736
2026-01-18 10:18:52.18	352.77	52.24	-29.7	-30.6	15.4	0.00e+00	0	43	0	818937856	19	3985
2026-01-18 10:18:55.20	352.29	51.21	-31.2	-32.4	12.9	4.07e-04	0	43	0	824180736	23	4139
2026-01-18 10:18:58.21	351.83	50.21	-30.9	-32.2	13.5	6.80e-06	0	43	0	830472192	22	4188
2026-01-18 10:19:01.21	351.41	49.23	-31.2	-32.5	12.9	9.30e-05	0	43	0	835715072	23	4188
2026-01-18 10:19:04.22	351.02	48.27	-32.2	-35.1	10.9	1.41e-03	0	43	0	842006528	24	5028
2026-01-18 10:19:07.22	350.64	47.33	-31.2	-33.1	12.7	1.04e-04	0	43	0	847249408	22	4479
2026-01-18 10:19:10.24	350.29	46.40	-31.6	-33.6	12.1	2.55e-04	0	43	0	852492288	23	4548
2026-01-18 10:19:13.24	349.97	45.49	-31.4	-33.2	12.3	1.20e-04	0	43	0	858783744	23	4421
2026-01-18 10:19:16.24	349.66	44.61	-33.3	-38.2	7.6	5.53e-02	0	43	0	864026624	26	6323
2026-01-18 10:19:19.25	349.36	43.74	-34.0	-42.2	4.6	7.68e-01	0	43	0	869269504	27	9304
2026-01-18 10:19:22.26	349.09	42.89	-32.9	-36.0	8.7	2.47e-01	0	43	0	874512384	27	5153
2026-01-18 10:19:25.26	348.82	42.06	-31.4	-33.7	12.4	2.59e-05	0	43	0	880803840	22	4675
2026-01-18 10:19:28.27	348.58	41.25	-32.1	-34.7	10.9	1.08e-03	0	43	0	886046720	24	4869
2026-01-18 10:19:31.29	348.34	40.45	-33.1	-37.4	8.2	2.46e-02	0	43	0	891289600	26	5909
2026-01-18 10:19:34.29	348.11	39.67	-30.5	-31.2	13.9	3.66e-05	0	43	0	897581056	22	3885
2026-01-18 10:19:37.29	347.90	38.91	-30.4	-31.5	14.0	3.00e-06	0	43	0	902823936	21	4063
2026-01-18 10:19:40.30	347.70	38.17	-32.2	-35.0	10.6	2.28e-03	0	43	0	908066816	24	4999
2026-01-18 10:19:43.30	347.50	37.44	-32.3	-35.6	10.2	7.52e-03	0	43	0	914358272	24	5236
2026-01-18 10:19:46.32	347.32	36.72	-31.3	-32.5	12.3	3.11e-04	0	43	0	919601152	24	4124
2026-01-18 10:19:49.32	347.14	36.02	-32.1	-34.9	10.6	1.27e-03	0	43	0	925892608	24	4973
2026-01-18 10:19:52.33	346.97	35.33	-32.0	-34.3	11.1	2.17e-03	0	43	0	931135488	24	4738
2026-01-18 10:19:55.34	346.81	34.66	-30.7	-31.6	13.7	9.90e-06	0	43	0	936378368	22	4008
2026-01-18 10:19:58.35	346.66	34.00	-31.2	-33.1	12.6	3.50e-05	0	43	0	942669824	22	4471
2026-01-18 10:20:01.36	346.51	33.36	-32.6	-36.3	9.4	1.37e-02	0	43	0	947912704	25	5470
2026-01-18 10:20:04.37	346.37	32.73	-32.7	-36.0	9.1	4.10e-02	0	43	0	953155584	26	5250
2026-01-18 10:20:07.37	346.23	32.11	-31.7	-33.5	11.6	6.74e-04	0	43	0	959447040	24	4443
2026-01-18 10:20:10.38	346.10	31.51	-31.7	-33.8	11.5	6.96e-04	0	43	0	964689920	24	4537
2026-01-18 10:20:13.38	345.98	30.91	-31.7	-33.6	11.6	6.41e-04	0	43	0	970981376	24	4476
2026-01-18 10:20:16.39	345.86	30.33	-31.9	-34.4	11.0	6.10e-04	0	43	0	976224256	24	4778
2026-01-18 10:20:19.40	345.74	29.76	-32.0	-34.5	10.9	1.78e-03	0	43	0	981467136	24	4808
2026-01-18 10:20:22.41	345.63	29.20	-32.1	-35.0	10.6	3.69e-03	0	43	0	987758592	24	5010
2026-01-18 10:20:25.42	345.52	28.65	-32.5	-36.2	9.7	9.33e-03	0	43	0	993001472	24	5544
2026-01-18 10:20:28.42	345.42	28.12	-32.2	-34.9	10.2	7.88e-03	0	43	0	998244352	25	4902
2026-01-18 10:20:31.43	345.32	27.59	-31.5	-33.1	11.9	4.98e-04	0	43	0	1004535808	24	4330
2026-01-18 10:20:34.42	345.22	27.07	-30.5	-31.3	13.7	3.80e-06	0	43	0	1009778688	22	3928
2026-01-18 10:20:37.43	345.13	26.57	-29.8	-30.0	14.8	7.00e-07	0	43	0	1016070144	21	3665
2026-01-18 10:20:40.44	345.04	26.07	-30.0	-31.0	14.5	7.00e-07	0	44	0	1021313024	20	4030
2026-01-18 10:20:43.44	344.95	25.58	-31.0	-33.1	12.8	2.13e-05	0	43	0	1026555904	21	4585
2026-01-18 10:20:46.45	344.87	25.10	-31.7	-34.3	11.3	7.40e-04	0	43	0	1032847360	23	4861
2026-01-18 10:20:49.47	344.79	24.62	-31.4	-33.4	11.8	3.13e-04	0	43	0	1038090240	23	4513
2026-01-18 10:20:52.49	344.71	24.16	-30.8	-31.6	13.1	3.89e-05	0	43	0	1044381696	23	3939
2026-01-18 10:20:55.49	344.64	23.70	-30.5	-31.4	13.5	1.22e-05	0	43	0	1049624576	22	3990
2026-01-18 10:20:58.50	344.56	23.25	-30.4	-31.1	13.7	2.20e-06	0	43	0	1054867456	22	3899
2026-01-18 10:21:01.52	344.49	22.81	-30.8	-32.2	13.1	3.20e-05	0	44	0	1061158912	22	4208
2026-01-18 10:21:04.52	344.42	22.38	-30.8	-32.1	13.1	6.33e-05	0	43	0	1066401792	22	4189
2026-01-18 10:21:07.54	344.36	21.95	-30.4	-31.1	13.7	9.10e-06	0	43	0	1071644672	22	3885
2026-01-18 10:21:10.54	344.29	21.53	-30.3	-31.4	13.8	8.30e-06	0	43	0	1077936128	21	4075
2026-01-18 10:21:13.53	344.23	21.12	-30.0	-30.6	14.2	2.20e-06	0	43	0	1083179008	21	3851
2026-01-18 10:21:16.54	344.17	20.72	-30.3	-31.4	13.7	2.20e-06	0	44	0	1089470464	21	4094
2026-01-18 10:21:19.55	344.11	20.32	-30.3	-31.5	13.7	4.50e-06	0	43	0	1094713344	21	4112
2026-01-18 10:21:22.56	344.06	19.92	-30.4	-31.5	13.6	1.37e-05	0	43	0	1099956224	21	4127
2026-01-18 10:21:25.57	344.00	19.54	-30.6	-32.3	13.1	2.44e-05	0	43	0	1106247680	21	4353
2026-01-18 10:21:28.56	343.95	19.16	-30.9	-32.9	12.6	7.70e-05	0	43	0	1111490560	21	4580
2026-01-18 10:21:31.57	343.90	18.78	-31.0	-32.7	12.5	1.52e-04	0	43	0	1116733440	22	4416
2026-01-18 10:21:34.58	343.85	18.41	-31.3	-33.8	11.8	4.13e-04	0	43	0	1123024896	22	4787
2026-01-18 10:21:37.59	343.80	18.05	-31.6	-34.2	11.0	1.22e-03	0	43	0	1128267776	23	4863
2026-01-18 10:21:40.61	343.75	17.69	-31.8	-35.0	10.4	4.26e-03	0	43	0	1134559232	23	5171
2026-01-18 10:21:43.62	343.71	17.33	-31.8	-34.7	10.6	3.89e-03	0	43	0	1139802112	23	5058
2026-01-18 10:21:46.62	343.67	16.99	-31.8	-34.7	10.6	3.22e-03	0	43	0	1145044992	23	5068
2026-01-18 10:21:49.63	343.62	16.64	-31.3	-33.2	11.7	7.62e-04	0	43	0	1151336448	23	4496
2026-01-18 10:21:52.63	343.58	16.31	-31.2	-33.1	11.7	4.38e-04	0	43	0	1156579328	23	4460
2026-01-18 10:21:55.65	343.54	15.97	-31.0	-32.3	12.2	1.63e-04	0	43	0	1161822208	23	4206
2026-01-18 10:21:58.66	343.50	15.64	-30.9	-32.7	12.3	1.46e-04	0	43	0	1168113664	22	4409
2026-01-18 10:22:01.67	343.46	15.31	-30.9	-32.8	12.3	1.85e-04	0	43	0	1173356544	22	4441
2026-01-18 10:22:04.68	343.43	14.99	-31.1	-33.2	11.9	3.03e-04	0	43	0	1179648000	22	4602
2026-01-18 10:22:07.69	343.39	14.68	-31.2	-33.6	11.6	5.08e-04	0	43	0	1184890880	22	4746
2026-01-18 10:22:10.70	343.35	14.36	-31.3	-33.8	11.4	9.27e-04	0	43	0	1190133760	22	4830
2026-01-18 10:22:13.70	343.32	14.05	-31.4	-34.1	11.2	1.32e-03	0	43	0	1196425216	22	4941
2026-01-18 10:22:16.71	343.29	13.75	-31.4	-34.1	11.2	1.44e-03	0	43	0	1201668096	22	4950
2026-01-18 10:22:19.72	343.25	13.45	-31.4	-33.7	11.1	2.01e-03	0	43	0	1207959552	23	4713
2026-01-18 10:22:22.73	343.22	13.15	-31.3	-33.5	11.2	1.58e-03	0	43	0	1213202432	23	4642
2026-01-18 10:22:25.74	343.19	12.86	-31.3	-33.6	11.1	2.22e-03	0	44	0	1218445312	23	4680
2026-01-18 10:22:28.75	343.16	12.57	-31.1	-32.8	11.6	8.99e-04	0	43	0	1224736768	23	4408
2026-01-18 10:22:31.76	343.13	12.28	-31.1	-33.0	11.5	7.68e-04	0	43	0	1229979648	23	4486
2026-01-18 10:22:34.76	343.11	12.00	-31.2	-33.1	11.4	7.16e-04	0	43	0	1235222528	23	4516
2026-01-18 10:22:37.77	343.08	11.71	-31.2	-33.3	11.2	9.17e-04	0	43	0	1241513984	23	4578
2026-01-18 10:22:40.78	343.05	11.44	-31.2	-33.2	11.3	8.84e-04	0	43	0	1246756864	23	4527
2026-01-18 10:22:43.79	343.03	11.16	-31.2	-33.1	11.3	1.07e-03	0	44	0	1253048320	23	4520
2026-01-18 10:22:46.80	343.00	10.89	-31.0	-32.5	11.7	6.73e-04	0	43	0	1258291200	23	4326
2026-01-18 10:22:49.80	342.98	10.62	-31.0	-32.6	11.6	7.42e-04	0	43	0	1263534080	23	4345
2026-01-18 10:22:52.81	342.95	10.36	-31.0	-32.6	11.6	4.68e-04	0	43	0	1269825536	23	4349
2026-01-18 10:22:55.81	342.93	10.10	-30.9	-32.5	11.6	7.88e-04	0	43	0	1275068416	23	4334
2026-01-18 10:22:58.82	342.91	9.84	-30.8	-32.6	12.0	5.52e-04	0	43	0	1280311296	22	4424
2026-01-18 10:23:01.83	342.89	9.58	-30.9	-33.1	11.5	4.81e-04	0	43	0	1286602752	22	4606
2026-01-18 10:23:04.84	342.87	9.32	-31.2	-33.9	10.9	1.30e-03	0	44	0	1291845632	22	4934
2026-01-18 10:23:07.85	342.85	9.07	-31.1	-33.6	11.2	1.23e-03	0	43	0	1298137088	22	4792
2026-01-18 10:23:10.86	342.83	8.82	-31.0	-33.3	11.4	9.61e-04	0	44	0	1303379968	22	4681
2026-01-18 10:23:13.87	342.81	8.58	-31.1	-33.7	11.0	1.29e-03	0	43	0	1308622848	22	4833
2026-01-18 10:23:16.88	342.79	8.33	-31.2	-33.9	10.8	2.60e-03	0	43	0	1314914304	22	4947
2026-01-18 10:23:19.89	342.77	8.09	-31.1	-33.8	10.9	2.18e-03	0	43	0	1320157184	22	4918
2026-01-18 10:23:22.91	342.75	7.85	-31.1	-33.9	10.7	2.47e-03	0	43	0	1326448640	22	4951
2026-01-18 10:23:25.92	342.73	7.61	-31.1	-33.8	10.8	1.86e-03	0	43	0	1331691520	22	4920
2026-01-18 10:23:28.93	342.72	7.38	-31.1	-33.8	10.8	2.55e-03	0	43	0	1336934400	22	4910
2026-01-18 10:23:31.94	342.70	7.14	-31.0	-33.5	10.9	1.87e-03	0	44	0	1343225856	22	4823

#Closed at: 2026-01-18 10:23:34
#Recorded file [1344 MB]: D:/data/31010_260118_131135.dat