passes_logs/2026/01/18/R2M6_AANII_01/R2M6_AANII_01__20260118_003924_NOAA_20_JPSS-1_rec.log

#Pass ID: 20260118_003924_NOAA 20 (JPSS-1)
#Satellite: NOAA 20 (JPSS-1)
#Configuration: NOAA 20
#almurnet v.1.7.20240730
#Start time: 2026-01-18 00:39:23

#Version: 2.2.20231116
#Station: R2M6_AANII_01
#Location: 30.233357 lon 59.946436 lat
#TLE: 1 43013U 17073A   26017.30359522  .00000067  00000+0  52526-4 0  9990
#TLE: 2 43013  98.7639 318.2187 0001419  36.2087 323.9184 14.19536557423067

#Time	Az	El	Level	Level2	SNR	BER	BlckErr	Temp	State	Recorded	gain1	gain2
2026-01-18 00:39:23.20	16.60	6.94	-32.2	-39.4	4.8	1.32e+00	0	41	0	0	24	8236
2026-01-18 00:39:26.19	16.56	7.16	-32.5	-40.4	5.8	4.09e-01	0	41	0	1048576	25	8927
2026-01-18 00:39:29.21	16.52	7.40	-32.6	-41.1	5.4	4.94e-01	0	42	0	7340032	25	9605
2026-01-18 00:39:32.22	16.48	7.63	-32.3	-39.2	7.1	1.78e-01	0	42	0	12582912	24	7970
2026-01-18 00:39:35.23	16.44	7.87	-32.1	-38.1	8.1	5.33e-02	0	42	0	17825792	24	7190
2026-01-18 00:39:38.25	16.39	8.11	-32.0	-37.7	8.4	3.77e-02	0	42	0	24117248	24	6961
2026-01-18 00:39:41.26	16.35	8.35	-31.8	-36.9	9.0	4.01e-02	0	42	0	29360128	24	6470
2026-01-18 00:39:44.26	16.31	8.60	-31.9	-37.3	8.7	3.75e-02	0	42	0	35651584	24	6706
2026-01-18 00:39:47.26	16.26	8.84	-31.8	-37.3	9.2	2.80e-02	0	42	0	40894464	23	6765
2026-01-18 00:39:50.28	16.22	9.09	-31.7	-37.0	9.5	1.50e-02	0	42	0	46137344	23	6593
2026-01-18 00:39:53.28	16.17	9.34	-31.6	-36.5	9.8	1.01e-02	0	42	0	52428800	23	6312
2026-01-18 00:39:56.29	16.12	9.60	-31.4	-36.3	10.5	4.09e-03	0	42	0	57671680	22	6295
2026-01-18 00:39:59.30	16.07	9.85	-31.4	-36.3	10.5	3.95e-03	0	42	0	62914560	22	6284
2026-01-18 00:40:02.31	16.02	10.11	-31.5	-36.2	10.2	5.80e-03	0	43	0	69206016	23	6126
2026-01-18 00:40:05.33	15.97	10.37	-31.7	-36.6	9.5	8.49e-03	0	43	0	74448896	23	6342
2026-01-18 00:40:08.34	15.91	10.64	-31.5	-36.1	9.9	4.11e-03	0	42	0	80740352	23	6101
2026-01-18 00:40:11.35	15.86	10.91	-31.5	-36.1	10.3	7.62e-03	0	43	0	85983232	23	6068
2026-01-18 00:40:14.37	15.81	11.18	-31.5	-36.3	10.6	3.33e-03	0	42	0	91226112	22	6287
2026-01-18 00:40:17.38	15.75	11.45	-31.4	-36.0	10.8	5.60e-03	0	43	0	97517568	22	6106
2026-01-18 00:40:20.39	15.69	11.73	-31.4	-36.1	10.7	6.40e-03	0	43	0	102760448	22	6192
2026-01-18 00:40:23.40	15.63	12.01	-31.1	-35.1	11.5	8.76e-04	0	43	0	109051904	22	5682
2026-01-18 00:40:26.40	15.57	12.29	-31.0	-34.7	11.8	7.49e-04	0	43	0	114294784	22	5519
2026-01-18 00:40:29.40	15.51	12.57	-31.0	-34.8	11.8	4.48e-04	0	43	0	119537664	22	5552
2026-01-18 00:40:32.40	15.45	12.86	-31.0	-34.8	11.8	5.75e-04	0	43	0	125829120	22	5529
2026-01-18 00:40:35.41	15.38	13.15	-31.2	-35.1	11.6	3.67e-03	0	43	0	131072000	22	5673
2026-01-18 00:40:38.41	15.31	13.45	-31.0	-35.1	12.0	3.25e-03	0	43	0	136314880	21	5777
2026-01-18 00:40:41.42	15.25	13.75	-31.0	-34.7	12.0	3.24e-03	0	43	0	142606336	22	5479
2026-01-18 00:40:44.42	15.18	14.05	-30.7	-34.3	12.6	2.99e-03	0	43	0	147849216	21	5451
2026-01-18 00:40:47.42	15.11	14.36	-30.7	-34.3	12.6	7.01e-05	0	43	0	154140672	21	5448
2026-01-18 00:40:50.43	15.03	14.67	-30.7	-34.1	12.8	2.25e-03	0	43	0	159383552	21	5331
2026-01-18 00:40:53.44	14.96	14.98	-30.7	-34.1	12.8	2.83e-03	0	43	0	164626432	21	5347
2026-01-18 00:40:56.45	14.88	15.30	-30.6	-33.9	12.9	2.82e-03	0	43	0	170917888	21	5268
2026-01-18 00:40:59.45	14.80	15.63	-30.5	-33.6	13.1	2.58e-03	0	43	0	176160768	21	5147
2026-01-18 00:41:02.45	14.72	15.95	-30.5	-33.6	13.2	2.87e-03	0	43	0	181403648	21	5150
2026-01-18 00:41:05.47	14.64	16.29	-30.4	-34.0	13.3	2.65e-03	0	43	0	187695104	20	5391
2026-01-18 00:41:08.48	14.55	16.62	-30.5	-34.0	13.3	2.13e-05	0	43	0	192937984	20	5403
2026-01-18 00:41:11.48	14.47	16.96	-30.4	-33.2	13.5	7.60e-06	0	43	0	199229440	21	5003
2026-01-18 00:41:14.49	14.38	17.31	-30.4	-33.7	13.5	2.57e-03	0	43	0	204472320	20	5287
2026-01-18 00:41:17.48	14.29	17.66	-30.1	-33.0	14.0	2.36e-03	0	43	0	209715200	20	5021
2026-01-18 00:41:20.49	14.19	18.01	-30.1	-32.9	14.1	2.55e-03	0	43	0	216006656	20	4966
2026-01-18 00:41:23.50	14.09	18.37	-30.0	-32.6	14.2	2.48e-03	0	43	0	221249536	20	4883
2026-01-18 00:41:26.51	13.99	18.74	-30.2	-33.2	13.9	3.00e-06	0	43	0	226492416	20	5070
2026-01-18 00:41:29.52	13.89	19.11	-30.1	-32.8	14.1	3.80e-06	0	43	0	232783872	20	4958
2026-01-18 00:41:32.53	13.79	19.49	-30.1	-32.9	14.1	7.00e-07	0	43	0	238026752	20	4980
2026-01-18 00:41:35.54	13.68	19.87	-29.9	-32.3	14.5	7.00e-07	0	43	0	244318208	20	4769
2026-01-18 00:41:38.55	13.57	20.26	-29.8	-32.5	14.7	0.00e+00	0	43	0	249561088	19	4949
2026-01-18 00:41:41.56	13.45	20.65	-29.8	-32.5	14.8	2.42e-03	0	44	0	254803968	19	4918
2026-01-18 00:41:44.58	13.34	21.06	-29.6	-32.0	15.1	0.00e+00	0	44	0	261095424	19	4773
2026-01-18 00:41:47.58	13.22	21.46	-29.6	-32.0	15.2	0.00e+00	0	43	0	266338304	19	4753
2026-01-18 00:41:50.60	13.09	21.88	-29.5	-31.7	15.3	0.00e+00	0	44	0	272629760	19	4675
2026-01-18 00:41:53.61	12.96	22.30	-29.5	-31.9	15.2	7.00e-07	0	43	0	277872640	19	4714
2026-01-18 00:41:56.62	12.83	22.73	-29.5	-31.9	15.3	0.00e+00	0	43	0	283115520	19	4723
2026-01-18 00:41:59.63	12.69	23.16	-29.6	-32.0	15.2	0.00e+00	0	43	0	289406976	19	4771
2026-01-18 00:42:02.64	12.55	23.60	-29.7	-32.2	15.1	0.00e+00	0	43	0	294649856	19	4823
2026-01-18 00:42:05.64	12.41	24.05	-29.7	-32.3	15.0	7.00e-07	0	43	0	299892736	19	4865
2026-01-18 00:42:08.66	12.26	24.51	-29.9	-32.8	14.8	0.00e+00	0	43	0	306184192	19	5016
2026-01-18 00:42:11.66	12.11	24.97	-29.8	-32.6	14.9	0.00e+00	0	43	0	311427072	19	4960
2026-01-18 00:42:14.67	11.95	25.45	-30.0	-32.9	14.7	0.00e+00	0	43	0	317718528	19	5058
2026-01-18 00:42:17.68	11.78	25.93	-30.2	-33.0	14.3	2.20e-06	0	43	0	322961408	20	4985
2026-01-18 00:42:20.69	11.61	26.42	-30.1	-32.8	14.4	1.50e-06	0	44	0	328204288	20	4918
2026-01-18 00:42:23.70	11.44	26.91	-30.3	-33.3	14.1	1.90e-03	0	44	0	334495744	20	5104
2026-01-18 00:42:26.70	11.26	27.42	-30.5	-33.8	13.8	1.78e-03	0	44	0	339738624	20	5291
2026-01-18 00:42:29.70	11.07	27.94	-30.9	-34.4	12.9	1.89e-03	0	44	0	346030080	21	5383
2026-01-18 00:42:32.70	10.88	28.46	-31.3	-35.0	12.2	6.79e-05	0	44	0	351272960	22	5539
2026-01-18 00:42:35.72	10.67	29.00	-31.5	-35.1	12.0	2.63e-04	0	44	0	356515840	23	5463
2026-01-18 00:42:38.74	10.46	29.55	-31.7	-35.8	11.5	9.01e-04	0	44	0	362807296	23	5771
2026-01-18 00:42:41.75	10.25	30.10	-31.9	-36.4	11.1	2.11e-03	0	43	0	368050176	23	6033
2026-01-18 00:42:44.75	10.02	30.67	-31.9	-36.5	11.0	2.10e-03	0	44	0	373293056	23	6104
2026-01-18 00:42:47.77	9.79	31.25	-32.2	-37.0	10.3	5.75e-03	0	44	0	379584512	24	6224
2026-01-18 00:42:50.77	9.55	31.83	-32.2	-37.1	10.3	6.66e-03	0	44	0	384827392	24	6271
2026-01-18 00:42:53.78	9.30	32.43	-32.2	-36.8	10.4	5.34e-03	0	44	0	391118848	24	6154
2026-01-18 00:42:56.79	9.04	33.04	-32.2	-36.9	10.4	6.78e-03	0	44	0	396361728	24	6151
2026-01-18 00:42:59.79	8.77	33.67	-32.1	-36.6	10.6	4.59e-03	0	44	0	401604608	24	6025
2026-01-18 00:43:02.80	8.49	34.30	-31.9	-36.4	11.1	2.93e-03	0	44	0	407896064	23	6030
2026-01-18 00:43:05.81	8.19	34.95	-31.8	-35.8	11.5	2.04e-03	0	44	0	413138944	23	5763
2026-01-18 00:43:08.84	7.88	35.61	-31.6	-35.3	12.0	1.41e-03	0	44	0	418381824	23	5520
2026-01-18 00:43:11.85	7.56	36.29	-31.4	-35.2	12.4	1.60e-03	0	44	0	424673280	22	5589
2026-01-18 00:43:14.85	7.23	36.97	-31.4	-35.4	12.2	1.81e-03	0	43	0	429916160	22	5692
2026-01-18 00:43:17.86	6.88	37.67	-31.4	-34.7	12.4	4.69e-04	0	44	0	436207616	23	5281
2026-01-18 00:43:20.87	6.51	38.39	-31.3	-35.1	12.5	4.02e-04	0	44	0	441450496	22	5532
2026-01-18 00:43:23.88	6.13	39.12	-31.7	-35.6	11.8	8.67e-04	0	43	0	446693376	23	5654
2026-01-18 00:43:26.89	5.73	39.86	-31.6	-35.3	12.0	2.03e-03	0	44	0	452984832	23	5530
2026-01-18 00:43:29.90	5.31	40.61	-31.6	-35.3	11.9	2.22e-03	0	44	0	458227712	23	5538
2026-01-18 00:43:32.92	4.87	41.39	-31.7	-35.5	11.9	2.58e-03	0	44	0	464519168	23	5622
2026-01-18 00:43:35.93	4.40	42.17	-31.8	-35.9	11.7	6.66e-04	0	44	0	469762048	23	5761
2026-01-18 00:43:38.94	3.92	42.97	-31.6	-35.3	12.0	3.35e-04	0	44	0	475004928	23	5521
2026-01-18 00:43:41.95	3.40	43.79	-31.7	-35.8	11.7	6.34e-04	0	44	0	481296384	23	5714
2026-01-18 00:43:44.96	2.86	44.62	-31.4	-34.8	12.4	1.88e-04	0	44	0	486539264	23	5293
2026-01-18 00:43:47.95	2.30	45.46	-31.2	-34.5	12.8	4.19e-05	0	44	0	491782144	22	5314
2026-01-18 00:43:50.95	1.70	46.32	-31.0	-34.1	13.2	1.75e-05	0	44	0	498073600	22	5142
2026-01-18 00:43:53.96	1.06	47.19	-31.0	-34.0	13.2	2.59e-05	0	44	0	503316480	22	5111
2026-01-18 00:43:56.97	0.39	48.08	-31.1	-34.2	13.1	1.83e-05	0	44	0	509607936	22	5184
2026-01-18 00:43:59.98	359.67	48.98	-31.2	-34.5	12.9	4.65e-05	0	44	0	514850816	22	5289
2026-01-18 00:44:02.96	358.92	49.89	-30.8	-34.1	13.5	6.80e-06	0	44	0	520093696	21	5249
2026-01-18 00:44:05.97	358.11	50.82	-30.6	-33.4	13.9	4.50e-06	0	44	0	526385152	21	5003
2026-01-18 00:44:08.97	357.26	51.75	-29.6	-31.4	15.3	7.00e-07	0	44	0	531628032	20	4438
2026-01-18 00:44:11.99	356.34	52.71	-29.6	-31.8	15.7	0.00e+00	0	44	0	536870912	19	4662
2026-01-18 00:44:14.99	355.36	53.67	-30.1	-32.6	14.8	1.08e-04	0	44	0	543162368	20	4833
2026-01-18 00:44:18.00	354.31	54.64	-30.0	-32.3	15.0	0.00e+00	0	43	0	548405248	20	4729
2026-01-18 00:44:21.01	353.19	55.62	-30.4	-33.4	14.4	1.50e-06	0	44	0	554696704	20	5098
2026-01-18 00:44:24.03	351.98	56.61	-31.3	-35.0	12.7	2.59e-05	0	44	0	559939584	22	5477
2026-01-18 00:44:27.04	350.68	57.60	-32.0	-36.2	11.0	1.68e-03	0	44	0	565182464	24	5786
2026-01-18 00:44:30.05	349.29	58.59	-31.9	-36.1	11.5	6.19e-04	0	44	0	571473920	23	5878
2026-01-18 00:44:33.05	347.79	59.58	-31.7	-35.7	11.9	3.94e-04	0	44	0	576716800	23	5656
2026-01-18 00:44:36.07	346.16	60.57	-31.3	-34.5	12.6	1.60e-04	0	44	0	581959680	23	5174
2026-01-18 00:44:39.08	344.41	61.56	-31.2	-34.5	13.0	4.34e-05	0	44	0	588251136	22	5285
2026-01-18 00:44:42.07	342.52	62.52	-30.3	-32.6	14.5	0.00e+00	0	44	0	593494016	21	4715
2026-01-18 00:44:45.08	340.46	63.47	-29.6	-32.0	15.6	0.00e+00	0	44	0	599785472	19	4733
2026-01-18 00:44:48.08	338.23	64.40	-30.3	-33.2	14.5	0.00e+00	0	44	0	605028352	20	5018
2026-01-18 00:44:51.08	335.82	65.31	-30.4	-33.4	14.2	7.00e-07	0	44	0	610271232	20	5109
2026-01-18 00:44:54.08	333.21	66.18	-31.3	-34.8	12.8	4.50e-05	0	44	0	616562688	22	5433
2026-01-18 00:44:57.10	330.36	67.02	-32.1	-36.3	11.1	1.89e-03	0	44	0	621805568	24	5880
2026-01-18 00:45:00.10	327.31	67.80	-32.2	-36.6	10.7	2.62e-03	0	44	0	627048448	24	6013
2026-01-18 00:45:03.11	324.00	68.53	-32.0	-35.9	11.3	8.11e-04	0	44	0	633339904	24	5681
2026-01-18 00:45:06.11	320.47	69.20	-31.3	-34.4	12.8	9.15e-05	0	44	0	638582784	23	5131
2026-01-18 00:45:09.12	316.69	69.78	-30.1	-32.2	14.8	2.20e-06	0	44	0	644874240	21	4575
2026-01-18 00:45:12.13	312.68	70.29	-30.2	-32.8	14.8	0.00e+00	0	44	0	650117120	20	4901
2026-01-18 00:45:15.13	308.48	70.70	-30.3	-32.6	14.5	2.20e-06	0	44	0	655360000	21	4703
2026-01-18 00:45:18.14	304.09	71.01	-30.9	-34.1	13.5	8.30e-06	0	44	0	661651456	21	5257
2026-01-18 00:45:21.16	299.56	71.21	-30.7	-33.8	13.9	1.27e-04	0	44	0	666894336	21	5133
2026-01-18 00:45:24.16	294.99	71.30	-31.7	-35.5	12.0	4.37e-04	0	44	0	672137216	23	5585
2026-01-18 00:45:27.16	290.40	71.28	-31.5	-34.9	12.4	1.59e-04	0	44	0	678428672	23	5339
2026-01-18 00:45:30.16	285.84	71.14	-30.3	-32.6	14.5	0.00e+00	0	43	0	683671552	21	4710
2026-01-18 00:45:33.18	281.36	70.90	-30.3	-33.1	14.4	3.73e-05	0	44	0	689963008	20	4998
2026-01-18 00:45:36.19	277.04	70.54	-30.4	-33.4	14.3	1.69e-04	0	44	0	695205888	20	5090
2026-01-18 00:45:39.21	272.89	70.09	-30.2	-33.0	14.6	2.59e-04	0	44	0	700448768	20	4953
2026-01-18 00:45:42.22	268.97	69.55	-31.2	-34.7	12.9	2.68e-04	0	44	0	706740224	22	5368
2026-01-18 00:45:45.22	265.29	68.93	-31.6	-35.3	12.2	3.81e-04	0	44	0	711983104	23	5499
2026-01-18 00:45:48.22	261.86	68.24	-31.7	-35.5	11.9	4.95e-04	0	44	0	717225984	23	5599
2026-01-18 00:45:51.23	258.65	67.48	-31.8	-36.0	11.6	6.42e-04	0	44	0	723517440	23	5806
2026-01-18 00:45:54.24	255.67	66.67	-31.7	-35.5	11.8	3.94e-04	0	44	0	728760320	23	5581
2026-01-18 00:45:57.24	252.93	65.82	-31.2	-34.6	12.9	4.11e-05	0	44	0	735051776	22	5342
2026-01-18 00:46:00.24	250.40	64.93	-31.3	-35.0	12.7	3.46e-04	0	43	0	740294656	22	5481
2026-01-18 00:46:03.23	248.08	64.02	-30.3	-33.3	14.4	3.44e-04	0	44	0	745537536	20	5048
2026-01-18 00:46:06.23	245.92	63.08	-29.1	-31.3	14.8	2.12e-04	0	44	0	751828992	20	4662
2026-01-18 00:46:09.23	243.93	62.11	-29.4	-32.0	14.1	0.00e+00	0	44	0	757071872	18	4825
2026-01-18 00:46:12.24	242.09	61.14	-30.0	-32.9	14.7	0.00e+00	0	44	0	762314752	19	5046
2026-01-18 00:46:15.25	240.39	60.15	-30.4	-33.5	14.2	2.20e-06	0	44	0	768606208	20	5135
2026-01-18 00:46:18.26	238.81	59.16	-31.0	-34.6	13.2	1.43e-03	0	44	0	773849088	21	5443
2026-01-18 00:46:21.27	237.35	58.16	-32.0	-36.2	11.0	2.68e-03	0	44	0	780140544	24	5846
2026-01-18 00:46:24.27	236.00	57.17	-31.5	-34.9	12.3	5.26e-04	0	44	0	785383424	23	5378
2026-01-18 00:46:27.28	234.74	56.18	-30.3	-33.3	14.3	1.50e-06	0	44	0	790626304	20	5069
2026-01-18 00:46:30.29	233.57	55.19	-29.8	-32.1	15.0	1.50e-06	0	44	0	796917760	20	4647
2026-01-18 00:46:33.30	232.48	54.21	-29.2	-31.4	16.1	0.00e+00	0	44	0	802160640	18	4669
2026-01-18 00:46:36.31	231.46	53.24	-28.9	-31.4	16.3	1.40e-03	0	44	0	807403520	17	4759
2026-01-18 00:46:39.30	230.51	52.28	-29.5	-31.8	15.5	1.27e-03	0	44	0	813694976	19	4677
2026-01-18 00:46:42.31	229.61	51.33	-29.9	-32.8	14.9	1.52e-03	0	44	0	818937856	19	5018
2026-01-18 00:46:45.32	228.77	50.39	-30.0	-32.4	14.8	7.04e-04	0	44	0	825229312	20	4786
2026-01-18 00:46:48.33	227.99	49.47	-31.1	-34.5	12.8	6.12e-04	0	44	0	830472192	22	5326
2026-01-18 00:46:51.33	227.25	48.56	-30.7	-33.5	13.4	5.26e-05	0	44	0	835715072	22	4928
2026-01-18 00:46:54.34	226.55	47.66	-30.5	-33.4	13.8	3.25e-04	0	44	0	842006528	21	5026
2026-01-18 00:46:57.35	225.89	46.77	-31.3	-35.2	12.4	8.41e-04	0	44	0	847249408	22	5606
2026-01-18 00:47:00.35	225.26	45.91	-31.3	-35.0	12.4	4.67e-04	0	44	0	852492288	22	5528
2026-01-18 00:47:03.35	224.68	45.05	-31.1	-34.6	12.7	1.07e-04	0	44	0	858783744	22	5383
2026-01-18 00:47:06.36	224.12	44.21	-31.3	-35.0	12.4	2.60e-04	0	44	0	864026624	22	5552
2026-01-18 00:47:09.35	223.59	43.39	-31.6	-35.6	11.6	7.08e-04	0	44	0	870318080	23	5677
2026-01-18 00:47:12.36	223.09	42.58	-31.9	-36.6	10.9	1.75e-03	0	44	0	875560960	23	6155
2026-01-18 00:47:15.37	222.61	41.78	-32.1	-36.7	10.4	6.19e-03	0	44	0	880803840	24	6089
2026-01-18 00:47:18.38	222.15	41.00	-32.4	-37.8	9.6	1.07e-02	0	44	0	887095296	24	6711
2026-01-18 00:47:21.38	221.72	40.23	-32.0	-36.2	10.9	3.29e-03	0	44	0	892338176	24	5839
2026-01-18 00:47:24.39	221.31	39.48	-32.1	-36.6	10.5	2.54e-03	0	44	0	897581056	24	6052
2026-01-18 00:47:27.39	220.92	38.74	-31.6	-35.2	11.5	1.08e-03	0	44	0	903872512	24	5419
2026-01-18 00:47:30.39	220.54	38.02	-31.3	-34.6	12.3	2.08e-04	0	44	0	909115392	23	5266
2026-01-18 00:47:33.39	220.18	37.31	-31.5	-35.2	11.9	4.32e-04	0	44	0	914358272	23	5521
2026-01-18 00:47:36.39	219.84	36.62	-31.2	-34.5	12.4	2.68e-04	0	44	0	920649728	23	5236
2026-01-18 00:47:39.41	219.51	35.93	-31.2	-34.9	12.4	6.06e-04	0	44	0	925892608	22	5514
2026-01-18 00:47:42.40	219.19	35.26	-31.0	-34.3	12.7	5.08e-04	0	44	0	932184064	22	5265
2026-01-18 00:47:45.41	218.89	34.61	-30.9	-34.6	12.9	1.98e-05	0	44	0	937426944	21	5492
2026-01-18 00:47:48.43	218.60	33.96	-31.3	-35.3	12.1	2.82e-04	0	44	0	942669824	22	5665
2026-01-18 00:47:51.44	218.32	33.33	-31.6	-35.6	11.6	5.45e-04	0	44	0	948961280	23	5679
2026-01-18 00:47:54.46	218.05	32.70	-31.9	-36.6	10.8	1.79e-03	0	44	0	954204160	23	6172
2026-01-18 00:47:57.46	217.79	32.10	-32.2	-37.3	9.9	7.16e-03	0	44	0	960495616	24	6423
2026-01-18 00:48:00.46	217.54	31.50	-32.3	-37.6	9.6	1.02e-02	0	44	0	965738496	24	6585
2026-01-18 00:48:03.48	217.30	30.91	-32.4	-37.8	9.5	1.47e-02	0	44	0	970981376	24	6728
2026-01-18 00:48:06.48	217.07	30.34	-32.3	-37.4	9.8	1.08e-02	0	44	0	977272832	24	6481
2026-01-18 00:48:09.48	216.85	29.78	-32.3	-37.5	9.7	9.61e-03	0	44	0	982515712	24	6544
2026-01-18 00:48:12.49	216.64	29.22	-32.5	-38.2	9.1	1.46e-02	0	44	0	987758592	24	6967
2026-01-18 00:48:15.50	216.43	28.68	-31.5	-37.0	9.3	1.66e-02	0	44	0	994050048	24	6819
2026-01-18 00:48:18.50	216.23	28.15	-32.2	-37.1	9.9	8.94e-03	0	44	0	999292928	24	6371
2026-01-18 00:48:21.50	216.04	27.63	-32.2	-37.2	9.6	7.82e-03	0	44	0	1004535808	24	6407
2026-01-18 00:48:24.51	215.85	27.11	-32.0	-36.6	10.3	8.43e-03	0	44	0	1010827264	24	6092
2026-01-18 00:48:27.52	215.67	26.61	-31.8	-36.5	10.7	6.03e-03	0	44	0	1016070144	23	6175
2026-01-18 00:48:30.53	215.49	26.11	-31.7	-36.1	11.0	2.51e-03	0	44	0	1022361600	23	5969
2026-01-18 00:48:33.53	215.32	25.62	-31.4	-35.6	11.7	6.88e-04	0	44	0	1027604480	22	5846
2026-01-18 00:48:36.54	215.16	25.14	-31.2	-35.0	12.1	2.82e-04	0	44	0	1032847360	22	5589
2026-01-18 00:48:39.55	215.00	24.67	-31.0	-34.4	12.5	2.19e-04	0	44	0	1039138816	22	5349
2026-01-18 00:48:42.57	214.85	24.21	-30.8	-34.4	12.8	1.85e-03	0	44	0	1044381696	21	5454
2026-01-18 00:48:45.56	214.70	23.75	-30.9	-34.6	12.6	1.91e-03	0	44	0	1050673152	21	5539
2026-01-18 00:48:48.57	214.55	23.31	-30.7	-34.3	12.9	1.58e-03	0	44	0	1055916032	21	5404
2026-01-18 00:48:51.58	214.41	22.87	-30.8	-34.4	12.8	1.31e-03	0	44	0	1061158912	21	5441
2026-01-18 00:48:54.59	214.28	22.43	-31.0	-34.9	12.3	1.08e-04	0	44	0	1067450368	21	5691
2026-01-18 00:48:57.60	214.15	22.01	-31.3	-35.4	11.7	5.67e-04	0	44	0	1072693248	22	5783
2026-01-18 00:49:00.60	214.02	21.59	-31.2	-35.0	11.9	2.23e-03	0	44	0	1077936128	22	5635
2026-01-18 00:49:03.62	213.89	21.18	-30.5	-34.2	12.0	1.86e-03	0	44	0	1084227584	22	5541
2026-01-18 00:49:06.63	213.77	20.77	-31.1	-34.9	11.9	2.08e-03	0	44	0	1089470464	22	5578
2026-01-18 00:49:09.64	213.65	20.37	-30.5	-33.7	13.0	1.67e-03	0	44	0	1095761920	21	5215
2026-01-18 00:49:12.64	213.54	19.98	-30.5	-33.7	13.1	1.87e-03	0	44	0	1101004800	21	5217
2026-01-18 00:49:15.64	213.43	19.59	-30.6	-33.9	12.9	1.81e-03	0	44	0	1106247680	21	5275
2026-01-18 00:49:18.64	213.32	19.21	-30.7	-34.3	12.7	2.08e-04	0	44	0	1112539136	21	5441
2026-01-18 00:49:21.65	213.21	18.84	-30.9	-34.9	12.2	1.85e-03	0	44	0	1117782016	21	5712
2026-01-18 00:49:24.66	213.11	18.47	-30.7	-34.3	12.6	1.71e-03	0	44	0	1124073472	21	5444
2026-01-18 00:49:27.65	213.01	18.10	-30.7	-34.2	12.6	1.56e-03	0	44	0	1129316352	21	5432
2026-01-18 00:49:30.66	212.91	17.74	-30.8	-34.7	12.3	9.01e-04	0	44	0	1134559232	21	5638
2026-01-18 00:49:33.68	212.81	17.39	-31.0	-35.2	11.9	1.15e-03	0	44	0	1140850688	21	5837
2026-01-18 00:49:36.68	212.72	17.04	-30.9	-34.8	12.2	2.11e-04	0	44	0	1146093568	21	5656
2026-01-18 00:49:39.70	212.63	16.69	-31.0	-34.8	11.8	3.94e-04	0	44	0	1151336448	22	5552
2026-01-18 00:49:42.70	212.54	16.35	-30.8	-34.7	12.2	1.94e-04	0	44	0	1157627904	21	5639
2026-01-18 00:49:45.70	212.46	16.02	-30.8	-34.8	12.1	1.54e-03	0	44	0	1162870784	21	5683
2026-01-18 00:49:48.71	212.37	15.69	-30.7	-34.5	12.3	1.46e-03	0	44	0	1169162240	21	5564
2026-01-18 00:49:51.73	212.29	15.36	-30.8	-34.6	12.2	2.30e-04	0	44	0	1174405120	21	5612
2026-01-18 00:49:54.73	212.21	15.04	-30.8	-34.8	12.1	2.65e-04	0	44	0	1179648000	21	5680
2026-01-18 00:49:57.74	212.13	14.72	-30.8	-34.9	12.0	4.10e-04	0	44	0	1185939456	21	5741
2026-01-18 00:50:00.74	212.05	14.41	-31.0	-35.3	11.7	5.44e-04	0	44	0	1191182336	21	5910
2026-01-18 00:50:03.76	211.98	14.09	-30.9	-34.6	11.7	7.36e-04	0	44	0	1196425216	22	5518
2026-01-18 00:50:06.77	211.91	13.79	-30.9	-35.1	11.7	5.17e-04	0	44	0	1202716672	21	5846
2026-01-18 00:50:09.78	211.84	13.48	-30.9	-35.2	11.6	5.90e-04	0	44	0	1207959552	21	5911
2026-01-18 00:50:12.78	211.77	13.19	-31.0	-34.9	11.5	8.64e-04	0	44	0	1214251008	22	5665
2026-01-18 00:50:15.79	211.70	12.89	-31.0	-35.4	11.4	8.43e-04	0	44	0	1219493888	21	6008
2026-01-18 00:50:18.80	211.63	12.60	-31.2	-35.5	11.1	1.06e-03	0	44	0	1224736768	22	5920
2026-01-18 00:50:21.80	211.57	12.31	-31.0	-35.1	11.3	7.46e-04	0	44	0	1231028224	22	5738
2026-01-18 00:50:24.81	211.50	12.03	-31.0	-35.1	11.3	8.80e-04	0	44	0	1236271104	22	5764
2026-01-18 00:50:27.82	211.44	11.74	-31.1	-35.2	11.2	1.21e-03	0	44	0	1241513984	22	5785
2026-01-18 00:50:30.83	211.38	11.46	-31.0	-35.0	11.3	1.35e-03	0	44	0	1247805440	22	5709
2026-01-18 00:50:33.84	211.32	11.19	-31.1	-35.2	11.2	1.56e-03	0	44	0	1253048320	22	5815
2026-01-18 00:50:36.85	211.26	10.92	-31.1	-35.3	11.1	1.58e-03	0	44	0	1259339776	22	5857
2026-01-18 00:50:39.86	211.20	10.65	-31.1	-35.5	10.9	1.98e-03	0	44	0	1264582656	22	5972
2026-01-18 00:50:42.87	211.15	10.38	-31.1	-35.4	10.9	2.91e-03	0	44	0	1269825536	22	5899
2026-01-18 00:50:45.87	211.09	10.12	-31.1	-35.4	10.9	2.88e-03	0	44	0	1276116992	22	5910
2026-01-18 00:50:48.89	211.04	9.85	-31.2	-35.7	10.6	3.66e-03	0	44	0	1281359872	22	6076
2026-01-18 00:50:51.90	210.98	9.60	-31.2	-35.9	10.5	3.98e-03	0	44	0	1286602752	22	6173
2026-01-18 00:50:54.91	210.93	9.34	-31.3	-36.1	10.3	4.51e-03	0	44	0	1292894208	22	6268
2026-01-18 00:50:57.92	210.88	9.09	-31.2	-35.8	10.5	4.33e-03	0	44	0	1298137088	22	6140
2026-01-18 00:51:00.94	210.83	8.84	-31.1	-35.6	10.7	3.79e-03	0	44	0	1304428544	22	6012
2026-01-18 00:51:03.94	210.78	8.59	-31.2	-35.8	10.5	4.11e-03	0	44	0	1309671424	22	6118
2026-01-18 00:51:06.94	210.74	8.34	-31.1	-35.8	10.4	6.47e-03	0	44	0	1314914304	22	6132
2026-01-18 00:51:09.95	210.69	8.10	-31.3	-36.3	10.0	5.67e-03	0	44	0	1321205760	22	6401
2026-01-18 00:51:12.97	210.64	7.86	-31.2	-36.0	10.2	7.98e-03	0	44	0	1326448640	22	6262
2026-01-18 00:51:15.97	210.60	7.62	-31.2	-36.2	10.0	8.61e-03	0	44	0	1332740096	22	6398
2026-01-18 00:51:18.98	210.55	7.38	-31.3	-36.7	9.6	1.06e-02	0	44	0	1337982976	22	6654
2026-01-18 00:51:22.00	210.51	7.15	-31.4	-36.8	9.4	1.77e-02	0	44	0	1343225856	22	6705

#Closed at: 2026-01-18 00:51:25
#Recorded file [1344 MB]: D:/data/31010_260118_033925.dat