passes_logs/2026/01/18/R2M6_AANII_01/R2M6_AANII_01__20260118_015917_SUOMI_NPP_rec.log

#Pass ID: 20260118_015917_SUOMI NPP
#Satellite: SUOMI NPP
#Configuration: NPP
#almurnet v.1.7.20240730
#Start time: 2026-01-18 01:59:18

#Version: 2.2.20231116
#Station: R2M6_AANII_01
#Location: 30.233357 lon 59.946436 lat
#TLE: 1 37849U 11061A   26017.28905266  .00000074  00000+0  55894-4 0  9999
#TLE: 2 37849  98.7814 319.3179 0002408  59.7048 300.4366 14.19525847737038

#Time	Az	El	Level	Level2	SNR	BER	BlckErr	Temp	State	Recorded	gain1	gain2
2026-01-18 01:59:18.94	11.47	7.10	-32.5	-38.9	4.4	1.41e+00	0	41	0	0	25	7570
2026-01-18 01:59:21.94	11.25	7.31	-32.3	-38.3	6.3	3.05e-01	0	41	0	1048576	24	7173
2026-01-18 01:59:24.95	11.01	7.51	-32.6	-39.5	5.3	3.36e-01	0	41	0	7340032	25	7942
2026-01-18 01:59:27.96	10.78	7.72	-32.7	-40.1	5.0	5.60e-01	0	42	0	12582912	25	8420
2026-01-18 01:59:30.98	10.54	7.93	-32.3	-37.8	6.8	2.69e-01	0	42	0	17825792	24	6782
2026-01-18 01:59:33.99	10.30	8.14	-31.6	-35.3	9.1	2.82e-02	0	42	0	24117248	23	5524
2026-01-18 01:59:37.01	10.05	8.36	-31.7	-35.5	9.0	1.98e-02	0	42	0	29360128	23	5594
2026-01-18 01:59:40.02	9.80	8.57	-31.5	-34.9	9.5	1.63e-02	0	42	0	35651584	23	5329
2026-01-18 01:59:43.02	9.55	8.78	-31.6	-35.3	9.2	2.10e-02	0	42	0	40894464	23	5512
2026-01-18 01:59:46.03	9.29	9.00	-31.2	-34.4	10.3	7.63e-03	0	42	0	46137344	22	5176
2026-01-18 01:59:49.03	9.03	9.22	-31.3	-34.6	10.2	9.01e-03	0	42	0	52428800	22	5252
2026-01-18 01:59:52.03	8.76	9.43	-31.1	-34.0	10.6	2.23e-03	0	42	0	57671680	22	5014
2026-01-18 01:59:55.04	8.49	9.65	-31.1	-34.0	10.6	3.88e-03	0	42	0	62914560	22	5010
2026-01-18 01:59:58.05	8.22	9.88	-31.2	-34.2	10.5	5.73e-03	0	42	0	69206016	22	5078
2026-01-18 02:00:01.07	7.94	10.10	-31.1	-33.8	10.9	5.07e-03	0	42	0	74448896	22	4908
2026-01-18 02:00:04.08	7.65	10.32	-31.1	-33.8	10.9	4.63e-03	0	42	0	80740352	22	4933
2026-01-18 02:00:07.08	7.36	10.55	-31.0	-33.6	11.0	3.88e-03	0	42	0	85983232	22	4855
2026-01-18 02:00:10.09	7.07	10.77	-31.2	-34.0	10.8	4.26e-03	0	43	0	91226112	22	4979
2026-01-18 02:00:13.10	6.77	11.00	-31.0	-33.3	11.3	3.96e-03	0	43	0	97517568	22	4702
2026-01-18 02:00:16.11	6.47	11.23	-31.0	-33.3	11.3	1.06e-03	0	43	0	102760448	22	4715
2026-01-18 02:00:19.12	6.16	11.46	-30.9	-33.2	11.4	3.65e-03	0	43	0	109051904	22	4682
2026-01-18 02:00:22.13	5.85	11.69	-30.9	-33.1	11.5	4.03e-03	0	43	0	114294784	22	4638
2026-01-18 02:00:25.13	5.54	11.93	-30.6	-32.8	12.2	3.28e-03	0	43	0	119537664	21	4594
2026-01-18 02:00:28.13	5.21	12.16	-30.8	-33.2	11.9	3.29e-03	0	43	0	125829120	21	4735
2026-01-18 02:00:31.14	4.89	12.40	-30.9	-33.5	11.6	3.24e-03	0	43	0	131072000	21	4859
2026-01-18 02:00:34.15	4.55	12.63	-30.9	-33.6	11.6	5.40e-04	0	43	0	136314880	21	4915
2026-01-18 02:00:37.17	4.21	12.87	-30.9	-33.4	11.8	5.59e-04	0	43	0	142606336	21	4822
2026-01-18 02:00:40.18	3.87	13.11	-31.1	-33.6	11.2	9.42e-04	0	43	0	147849216	22	4800
2026-01-18 02:00:43.18	3.52	13.35	-31.1	-33.7	11.3	3.74e-03	0	43	0	154140672	22	4829
2026-01-18 02:00:46.19	3.16	13.60	-31.1	-33.7	11.2	4.30e-03	0	43	0	159383552	22	4855
2026-01-18 02:00:49.20	2.80	13.84	-31.1	-33.8	11.2	1.21e-03	0	43	0	164626432	22	4867
2026-01-18 02:00:52.22	2.43	14.09	-30.9	-33.0	11.7	7.13e-04	0	43	0	170917888	22	4577
2026-01-18 02:00:55.22	2.05	14.33	-30.9	-33.4	11.8	2.79e-04	0	43	0	176160768	21	4811
2026-01-18 02:00:58.23	1.67	14.58	-30.8	-33.1	12.0	3.71e-04	0	43	0	181403648	21	4706
2026-01-18 02:01:01.24	1.28	14.83	-30.7	-32.7	12.3	2.07e-04	0	43	0	187695104	21	4554
2026-01-18 02:01:04.24	0.89	15.08	-30.8	-33.0	12.2	1.75e-04	0	43	0	192937984	21	4655
2026-01-18 02:01:07.26	0.48	15.33	-30.5	-32.4	12.5	3.01e-04	0	43	0	199229440	21	4456
2026-01-18 02:01:10.27	0.08	15.58	-31.0	-33.1	11.7	4.01e-04	0	43	0	204472320	22	4616
2026-01-18 02:01:13.27	359.66	15.83	-30.6	-33.5	11.0	1.71e-03	0	43	0	209715200	22	5017
2026-01-18 02:01:16.27	359.24	16.09	-31.3	-34.2	10.6	2.29e-03	0	43	0	216006656	22	5037
2026-01-18 02:01:19.29	358.81	16.34	-31.2	-33.8	10.6	1.51e-03	0	43	0	221249536	22	4857
2026-01-18 02:01:22.30	358.37	16.60	-30.7	-32.7	12.4	5.02e-04	0	43	0	227540992	21	4535
2026-01-18 02:01:25.32	357.92	16.86	-30.8	-33.0	12.2	5.13e-04	0	43	0	232783872	21	4660
2026-01-18 02:01:28.33	357.47	17.12	-30.6	-32.6	12.4	6.28e-04	0	43	0	238026752	21	4529
2026-01-18 02:01:31.32	357.01	17.38	-30.6	-32.5	12.5	3.06e-03	0	43	0	244318208	21	4477
2026-01-18 02:01:34.33	356.54	17.64	-30.3	-32.0	13.3	2.71e-03	0	43	0	249561088	20	4403
2026-01-18 02:01:37.34	356.06	17.90	-30.7	-32.6	12.6	8.69e-05	0	43	0	254803968	21	4511
2026-01-18 02:01:40.35	355.57	18.16	-30.7	-32.8	12.5	1.01e-04	0	43	0	261095424	21	4566
2026-01-18 02:01:43.36	355.07	18.42	-30.8	-32.9	12.4	8.32e-04	0	44	0	266338304	21	4601
2026-01-18 02:01:46.37	354.57	18.68	-30.3	-31.7	13.2	1.12e-03	0	43	0	272629760	21	4201
2026-01-18 02:01:49.38	354.06	18.94	-30.9	-33.4	12.0	2.61e-03	0	43	0	277872640	21	4804
2026-01-18 02:01:52.39	353.53	19.21	-30.6	-32.5	12.6	2.36e-03	0	44	0	283115520	21	4467
2026-01-18 02:01:55.41	353.00	19.47	-30.1	-31.6	13.6	1.99e-03	0	44	0	289406976	20	4264
2026-01-18 02:01:58.42	352.46	19.74	-30.3	-32.1	13.3	1.86e-03	0	43	0	294649856	20	4432
2026-01-18 02:02:01.44	351.90	20.00	-30.4	-32.3	13.2	1.14e-03	0	43	0	299892736	20	4501
2026-01-18 02:02:04.44	351.35	20.26	-30.6	-32.5	12.7	1.65e-03	0	44	0	306184192	21	4451
2026-01-18 02:02:07.44	350.78	20.53	-30.8	-33.0	12.4	2.08e-03	0	43	0	311427072	21	4631
2026-01-18 02:02:10.44	350.20	20.79	-31.0	-33.0	12.1	2.97e-03	0	43	0	317718528	22	4525
2026-01-18 02:02:13.46	349.61	21.05	-30.7	-32.7	12.6	2.22e-03	0	44	0	322961408	21	4531
2026-01-18 02:02:16.48	349.00	21.31	-30.7	-32.7	12.7	1.73e-03	0	44	0	328204288	21	4516
2026-01-18 02:02:19.48	348.39	21.57	-31.3	-33.8	11.6	1.13e-03	0	43	0	334495744	22	4830
2026-01-18 02:02:22.49	347.77	21.84	-31.4	-33.5	11.5	8.00e-04	0	44	0	339738624	23	4626
2026-01-18 02:02:25.50	347.14	22.09	-30.9	-32.2	12.4	1.38e-04	0	44	0	346030080	23	4165
2026-01-18 02:02:28.50	346.50	22.35	-30.9	-32.8	12.4	9.30e-05	0	43	0	351272960	22	4442
2026-01-18 02:02:31.51	345.84	22.61	-30.9	-32.8	12.2	1.76e-03	0	44	0	356515840	22	4451
2026-01-18 02:02:34.52	345.18	22.86	-30.7	-32.4	12.9	2.44e-03	0	44	0	362807296	21	4425
2026-01-18 02:02:37.52	344.50	23.12	-30.6	-32.3	13.0	2.33e-03	0	44	0	368050176	21	4371
2026-01-18 02:02:40.53	343.81	23.37	-30.3	-31.6	13.4	3.05e-05	0	44	0	373293056	21	4150
2026-01-18 02:02:43.53	343.12	23.62	-29.5	-30.5	14.8	0.00e+00	0	44	0	379584512	19	4002
2026-01-18 02:02:46.54	342.41	23.87	-29.4	-30.7	15.0	0.00e+00	0	44	0	384827392	18	4161
2026-01-18 02:02:49.56	341.68	24.11	-30.0	-31.4	13.9	2.20e-06	0	44	0	391118848	20	4199
2026-01-18 02:02:52.56	340.95	24.35	-29.9	-30.9	14.2	1.50e-06	0	44	0	396361728	20	4043
2026-01-18 02:02:55.56	340.21	24.59	-30.1	-31.6	13.7	2.20e-06	0	44	0	401604608	20	4252
2026-01-18 02:02:58.55	339.46	24.82	-30.4	-32.2	13.4	1.06e-05	0	43	0	407896064	20	4462
2026-01-18 02:03:01.56	338.69	25.06	-29.9	-31.0	14.2	7.00e-07	0	44	0	413138944	20	4068
2026-01-18 02:03:04.57	337.91	25.29	-30.2	-31.6	13.8	5.30e-06	0	44	0	418381824	20	4266
2026-01-18 02:03:07.58	337.12	25.51	-29.3	-30.9	14.0	3.80e-06	0	44	0	424673280	19	4357
2026-01-18 02:03:10.60	336.32	25.73	-30.1	-31.4	13.9	5.30e-06	0	44	0	429916160	20	4203
2026-01-18 02:03:13.61	335.50	25.95	-29.9	-31.3	14.2	7.00e-07	0	44	0	436207616	19	4247
2026-01-18 02:03:16.63	334.68	26.16	-30.5	-32.2	13.0	1.64e-03	0	44	0	441450496	21	4349
2026-01-18 02:03:19.64	333.84	26.37	-30.0	-31.2	14.1	1.67e-03	0	44	0	446693376	20	4127
2026-01-18 02:03:22.65	333.00	26.57	-30.3	-31.9	13.7	1.81e-03	0	44	0	452984832	20	4327
2026-01-18 02:03:25.66	332.14	26.76	-30.1	-31.3	13.9	1.22e-05	0	44	0	458227712	20	4168
2026-01-18 02:03:28.66	331.27	26.95	-30.2	-31.6	13.8	3.80e-06	0	44	0	464519168	20	4259
2026-01-18 02:03:31.67	330.40	27.14	-30.2	-31.8	13.7	6.10e-06	0	44	0	469762048	20	4314
2026-01-18 02:03:34.67	329.51	27.31	-30.0	-31.2	14.1	6.80e-06	0	44	0	475004928	20	4118
2026-01-18 02:03:37.68	328.61	27.48	-30.1	-31.5	13.8	6.98e-04	0	44	0	481296384	20	4222
2026-01-18 02:03:40.69	327.71	27.65	-30.8	-32.8	12.6	1.63e-03	0	44	0	486539264	21	4565
2026-01-18 02:03:43.70	326.79	27.81	-30.0	-31.7	14.2	2.32e-03	0	44	0	491782144	19	4361
2026-01-18 02:03:46.70	325.87	27.95	-29.9	-31.4	14.3	1.55e-03	0	44	0	498073600	19	4291
2026-01-18 02:03:49.71	324.93	28.10	-30.1	-31.5	13.8	3.80e-06	0	44	0	503316480	20	4231
2026-01-18 02:03:52.72	323.99	28.23	-29.9	-31.1	14.1	4.59e-04	0	44	0	509607936	20	4100
2026-01-18 02:03:55.73	323.04	28.36	-29.9	-31.5	14.3	1.37e-03	0	44	0	514850816	19	4308
2026-01-18 02:03:58.74	322.08	28.47	-30.3	-31.9	13.6	1.25e-03	0	44	0	520093696	20	4356
2026-01-18 02:04:01.76	321.12	28.58	-29.9	-31.4	14.3	8.41e-04	0	44	0	526385152	19	4275
2026-01-18 02:04:04.76	320.15	28.68	-31.0	-33.0	12.2	8.31e-04	0	44	0	531628032	22	4536
2026-01-18 02:04:07.78	319.17	28.78	-31.5	-33.8	11.3	1.93e-03	0	44	0	536870912	23	4737
2026-01-18 02:04:10.78	318.19	28.86	-31.0	-32.9	12.3	2.46e-04	0	44	0	543162368	22	4495
2026-01-18 02:04:13.79	317.20	28.93	-31.6	-34.3	10.9	1.44e-03	0	44	0	548405248	23	4916
2026-01-18 02:04:16.80	316.21	29.00	-31.4	-34.2	11.5	1.68e-03	0	44	0	554696704	22	4945
2026-01-18 02:04:19.81	315.22	29.05	-30.6	-32.4	12.9	5.11e-04	0	44	0	559939584	21	4430
2026-01-18 02:04:22.81	314.22	29.09	-31.6	-34.3	11.0	1.22e-03	0	44	0	565182464	23	4907
2026-01-18 02:04:25.83	313.22	29.13	-31.6	-34.3	10.9	3.59e-03	0	44	0	571473920	23	4933
2026-01-18 02:04:28.84	312.21	29.15	-31.4	-33.7	11.1	1.76e-03	0	44	0	576716800	23	4708
2026-01-18 02:04:31.85	311.21	29.17	-31.6	-34.4	10.8	3.42e-03	0	44	0	583008256	23	4984
2026-01-18 02:04:34.86	310.21	29.18	-31.1	-33.2	12.2	2.92e-04	0	44	0	588251136	22	4573
2026-01-18 02:04:37.86	309.20	29.17	-30.7	-32.4	12.9	4.65e-05	0	44	0	593494016	21	4420
2026-01-18 02:04:40.87	308.20	29.16	-30.8	-32.8	12.7	8.08e-05	0	44	0	599785472	21	4551
2026-01-18 02:04:43.88	307.20	29.13	-31.8	-34.9	10.7	1.76e-03	0	44	0	605028352	23	5119
2026-01-18 02:04:46.89	306.20	29.10	-31.7	-34.6	10.9	2.01e-03	0	44	0	610271232	23	4988
2026-01-18 02:04:49.90	305.20	29.06	-30.8	-32.9	12.6	7.62e-05	0	44	0	616562688	21	4585
2026-01-18 02:04:52.90	304.20	29.01	-31.4	-34.0	11.6	6.02e-04	0	44	0	621805568	22	4883
2026-01-18 02:04:55.89	303.22	28.94	-31.2	-33.5	11.9	3.64e-04	0	44	0	628097024	22	4694
2026-01-18 02:04:58.89	302.23	28.87	-31.3	-33.9	11.7	8.06e-04	0	44	0	633339904	22	4823
2026-01-18 02:05:01.90	301.25	28.79	-30.4	-31.7	13.4	1.14e-05	0	44	0	638582784	21	4188
2026-01-18 02:05:04.90	300.27	28.70	-30.2	-31.7	13.7	1.14e-05	0	44	0	644874240	20	4297
2026-01-18 02:05:07.90	299.30	28.60	-29.6	-30.7	14.7	1.50e-06	0	44	0	650117120	19	4089
2026-01-18 02:05:10.91	298.34	28.49	-29.8	-31.0	14.5	7.00e-07	0	44	0	655360000	19	4173
2026-01-18 02:05:13.92	297.38	28.38	-30.0	-31.3	14.0	2.20e-06	0	44	0	661651456	20	4148
2026-01-18 02:05:16.94	296.42	28.25	-29.9	-31.0	14.1	2.20e-06	0	44	0	666894336	20	4074
2026-01-18 02:05:19.95	295.48	28.12	-30.2	-31.8	13.7	3.00e-06	0	44	0	673185792	20	4317
2026-01-18 02:05:22.96	294.54	27.98	-30.1	-31.5	13.9	2.20e-06	0	44	0	678428672	20	4205
2026-01-18 02:05:25.96	293.61	27.83	-29.9	-30.9	14.2	0.00e+00	0	44	0	683671552	20	4041
2026-01-18 02:05:28.96	292.70	27.68	-30.5	-32.5	13.3	1.44e-05	0	44	0	689963008	20	4524
2026-01-18 02:05:31.97	291.78	27.51	-29.9	-30.9	14.2	5.30e-06	0	44	0	695205888	20	4040
2026-01-18 02:05:34.97	290.89	27.34	-30.0	-31.3	14.0	3.00e-06	0	44	0	700448768	20	4159
2026-01-18 02:05:37.98	289.99	27.17	-30.1	-31.5	13.8	8.30e-06	0	44	0	706740224	20	4223
2026-01-18 02:05:40.98	289.12	26.99	-30.5	-32.0	13.2	9.90e-06	0	44	0	711983104	21	4279
2026-01-18 02:05:43.99	288.24	26.80	-31.1	-33.2	12.1	1.99e-04	0	44	0	718274560	22	4612
2026-01-18 02:05:46.99	287.39	26.60	-31.4	-34.2	11.3	7.57e-04	0	44	0	723517440	22	4983
2026-01-18 02:05:50.01	286.53	26.40	-31.4	-33.7	11.2	2.17e-03	0	44	0	728760320	23	4696
2026-01-18 02:05:53.03	285.69	26.19	-31.2	-33.3	11.5	8.52e-04	0	44	0	735051776	23	4554
2026-01-18 02:05:56.04	284.86	25.98	-30.8	-32.4	12.5	1.32e-04	0	44	0	740294656	22	4330
2026-01-18 02:05:59.03	284.05	25.77	-30.2	-31.5	13.3	1.90e-05	0	44	0	745537536	21	4151
2026-01-18 02:06:02.04	283.24	25.55	-29.4	-30.1	14.9	0.00e+00	0	44	0	751828992	19	3935
2026-01-18 02:06:05.05	282.45	25.32	-29.9	-31.1	13.9	3.00e-06	0	44	0	757071872	20	4131
2026-01-18 02:06:08.06	281.67	25.09	-30.6	-32.4	12.7	5.34e-05	0	44	0	763363328	21	4448
2026-01-18 02:06:11.08	280.89	24.86	-30.9	-33.0	12.0	3.71e-04	0	44	0	768606208	22	4559
2026-01-18 02:06:14.08	280.13	24.63	-30.9	-33.0	12.0	4.58e-04	0	44	0	773849088	22	4579
2026-01-18 02:06:17.08	279.39	24.39	-30.9	-32.9	12.0	3.13e-04	0	44	0	780140544	22	4535
2026-01-18 02:06:20.08	278.65	24.15	-30.9	-32.8	12.1	3.04e-04	0	44	0	785383424	22	4500
2026-01-18 02:06:23.10	277.92	23.90	-30.4	-31.4	13.1	2.89e-05	0	44	0	790626304	22	4051
2026-01-18 02:06:26.11	277.21	23.65	-29.9	-31.1	14.0	6.10e-06	0	44	0	796917760	20	4114
2026-01-18 02:06:29.11	276.51	23.40	-29.7	-31.0	14.3	7.00e-07	0	44	0	802160640	19	4190
2026-01-18 02:06:32.11	275.82	23.15	-29.7	-31.0	14.3	0.00e+00	0	44	0	808452096	19	4175
2026-01-18 02:06:35.11	275.14	22.90	-29.4	-30.1	14.9	0.00e+00	0	44	0	813694976	19	3938
2026-01-18 02:06:38.12	274.47	22.64	-29.0	-29.1	15.4	0.00e+00	0	44	0	818937856	19	3670
2026-01-18 02:06:41.13	273.81	22.39	-28.7	-29.0	15.8	0.00e+00	0	44	0	825229312	18	3726
2026-01-18 02:06:44.13	273.16	22.13	-29.1	-29.9	15.2	0.00e+00	0	44	0	830472192	18	3971
2026-01-18 02:06:47.13	272.53	21.87	-29.8	-31.2	14.1	1.50e-06	0	44	0	835715072	19	4258
2026-01-18 02:06:50.14	271.90	21.61	-29.9	-31.1	13.7	1.50e-06	0	44	0	842006528	20	4133
2026-01-18 02:06:53.16	271.28	21.34	-29.7	-30.5	14.2	5.30e-06	0	44	0	847249408	20	3968
2026-01-18 02:06:56.17	270.68	21.08	-29.9	-31.6	13.8	3.80e-06	0	44	0	853540864	19	4375
2026-01-18 02:06:59.18	270.08	20.82	-29.9	-31.0	13.8	3.00e-06	0	44	0	858783744	20	4101
2026-01-18 02:07:02.19	269.50	20.55	-28.9	-29.1	15.5	0.00e+00	0	44	0	864026624	19	3655
2026-01-18 02:07:05.19	268.92	20.29	-28.8	-29.7	15.6	0.00e+00	0	44	0	870318080	17	3990
2026-01-18 02:07:08.21	268.36	20.03	-28.9	-30.0	15.4	0.00e+00	0	44	0	875560960	17	4080
2026-01-18 02:07:11.22	267.80	19.76	-29.3	-30.6	14.8	0.00e+00	0	44	0	880803840	18	4155
2026-01-18 02:07:14.22	267.26	19.50	-29.1	-29.9	15.2	0.00e+00	0	44	0	887095296	18	3961
2026-01-18 02:07:17.23	266.72	19.23	-29.1	-30.1	15.1	0.00e+00	0	44	0	892338176	18	4016
2026-01-18 02:07:20.25	266.19	18.97	-29.5	-30.6	13.4	7.00e-07	0	44	0	898629632	19	4061
2026-01-18 02:07:23.25	265.67	18.71	-29.7	-31.0	14.1	1.50e-06	0	44	0	903872512	19	4180
2026-01-18 02:07:26.25	265.17	18.44	-29.6	-30.7	14.4	0.00e+00	0	44	0	909115392	19	4104
2026-01-18 02:07:29.26	264.67	18.18	-29.0	-29.7	15.2	0.00e+00	0	44	0	915406848	18	3925
2026-01-18 02:07:32.27	264.18	17.92	-29.3	-30.6	14.6	7.00e-07	0	44	0	920649728	18	4183
2026-01-18 02:07:35.29	263.69	17.65	-30.1	-31.8	13.2	1.55e-04	0	44	0	926941184	20	4353
2026-01-18 02:07:38.30	263.22	17.39	-30.3	-32.4	12.8	1.62e-04	0	44	0	932184064	20	4555
2026-01-18 02:07:41.31	262.75	17.13	-30.4	-31.9	12.7	5.72e-04	0	44	0	937426944	21	4315
2026-01-18 02:07:44.32	262.29	16.87	-30.1	-31.6	13.3	2.05e-05	0	44	0	943718400	20	4315
2026-01-18 02:07:47.33	261.84	16.62	-30.1	-31.6	13.3	3.50e-05	0	44	0	948961280	20	4302
2026-01-18 02:07:50.33	261.40	16.36	-30.0	-31.4	13.4	1.44e-05	0	44	0	954204160	20	4240
2026-01-18 02:07:53.33	260.97	16.10	-30.4	-32.5	12.7	1.23e-03	0	44	0	960495616	20	4587
2026-01-18 02:07:56.33	260.54	15.85	-30.3	-32.2	12.8	6.69e-04	0	44	0	965738496	20	4508
2026-01-18 02:07:59.33	260.12	15.59	-29.9	-31.2	13.5	1.52e-05	0	44	0	970981376	20	4196
2026-01-18 02:08:02.33	259.71	15.34	-29.7	-31.2	13.9	2.84e-04	0	44	0	977272832	19	4262
2026-01-18 02:08:05.35	259.30	15.09	-30.2	-32.1	12.9	1.71e-03	0	44	0	982515712	20	4461
2026-01-18 02:08:08.36	258.90	14.84	-30.4	-32.1	12.5	9.00e-05	0	44	0	988807168	21	4389
2026-01-18 02:08:11.37	258.51	14.59	-30.0	-31.6	13.2	4.57e-05	0	44	0	994050048	20	4317
2026-01-18 02:08:14.39	258.13	14.34	-30.0	-31.5	13.2	1.90e-03	0	44	0	999292928	20	4269
2026-01-18 02:08:17.39	257.75	14.09	-29.8	-31.4	13.6	1.42e-03	0	44	0	1005584384	19	4345
2026-01-18 02:08:20.40	257.37	13.85	-29.7	-31.3	13.7	8.64e-04	0	44	0	1010827264	19	4312
2026-01-18 02:08:23.40	257.01	13.60	-30.0	-31.5	13.2	7.12e-04	0	44	0	1017118720	20	4295
2026-01-18 02:08:26.40	256.65	13.36	-30.2	-32.3	12.6	6.98e-04	0	44	0	1022361600	20	4537
2026-01-18 02:08:29.41	256.30	13.12	-30.5	-32.4	12.2	9.39e-04	0	44	0	1027604480	21	4487
2026-01-18 02:08:32.42	255.95	12.88	-30.3	-32.3	12.7	1.29e-03	0	44	0	1033895936	20	4539
2026-01-18 02:08:35.42	255.61	12.64	-30.3	-32.2	12.7	1.09e-03	0	44	0	1039138816	20	4499
2026-01-18 02:08:38.44	255.27	12.40	-30.3	-32.3	12.6	4.73e-04	0	44	0	1044381696	20	4538
2026-01-18 02:08:41.44	254.94	12.16	-30.8	-33.2	11.7	6.17e-04	0	44	0	1050673152	21	4750
2026-01-18 02:08:44.45	254.61	11.93	-31.0	-33.5	11.1	1.72e-03	0	44	0	1055916032	22	4807
2026-01-18 02:08:47.45	254.29	11.69	-31.0	-33.6	11.0	1.49e-03	0	44	0	1062207488	22	4824
2026-01-18 02:08:50.46	253.97	11.46	-30.4	-32.3	12.2	2.83e-04	0	44	0	1067450368	21	4446
2026-01-18 02:08:53.47	253.66	11.23	-30.1	-31.9	12.8	8.16e-05	0	44	0	1072693248	20	4427
2026-01-18 02:08:56.49	253.36	11.00	-30.2	-32.0	12.7	4.27e-05	0	44	0	1078984704	20	4452
2026-01-18 02:08:59.50	253.06	10.77	-30.5	-32.6	11.9	3.60e-04	0	44	0	1084227584	21	4556
2026-01-18 02:09:02.50	252.76	10.54	-30.7	-33.0	11.6	1.16e-03	0	44	0	1089470464	21	4726
2026-01-18 02:09:05.52	252.47	10.31	-31.0	-33.7	10.8	2.01e-03	0	44	0	1095761920	22	4872
2026-01-18 02:09:08.53	252.18	10.09	-31.2	-34.2	10.4	3.86e-03	0	44	0	1101004800	22	5111
2026-01-18 02:09:11.54	251.90	9.87	-31.4	-34.9	9.9	7.66e-03	0	44	0	1107296256	22	5404
2026-01-18 02:09:14.56	251.62	9.64	-31.2	-34.5	10.1	8.83e-03	0	44	0	1112539136	22	5218
2026-01-18 02:09:17.56	251.35	9.42	-31.2	-34.4	10.1	5.00e-03	0	44	0	1117782016	22	5211
2026-01-18 02:09:20.57	251.08	9.20	-31.1	-34.0	10.4	3.76e-03	0	44	0	1124073472	22	5013
2026-01-18 02:09:23.58	250.81	8.99	-31.1	-34.1	10.3	4.46e-03	0	44	0	1129316352	22	5092
2026-01-18 02:09:26.58	250.55	8.77	-31.3	-34.6	9.9	4.90e-03	0	44	0	1134559232	22	5309
2026-01-18 02:09:29.59	250.29	8.55	-31.4	-35.3	9.3	1.81e-02	0	44	0	1140850688	22	5599
2026-01-18 02:09:32.60	250.04	8.34	-31.5	-35.6	9.0	2.75e-02	0	44	0	1146093568	22	5750
2026-01-18 02:09:35.62	249.79	8.13	-31.2	-34.5	9.7	1.24e-02	0	44	0	1152385024	22	5262
2026-01-18 02:09:38.62	249.54	7.91	-30.9	-34.2	10.3	6.44e-03	0	44	0	1157627904	21	5238
2026-01-18 02:09:41.63	249.30	7.70	-30.5	-32.7	11.4	1.26e-03	0	44	0	1162870784	21	4666
2026-01-18 02:09:44.63	249.06	7.50	-30.4	-33.1	11.5	7.90e-04	0	44	0	1169162240	20	4904
2026-01-18 02:09:47.65	248.83	7.29	-30.4	-32.4	11.6	1.51e-03	0	44	0	1174405120	21	4566
2026-01-18 02:09:50.66	248.59	7.08	-33.1	-45.2	3.8	7.29e-01	0	44	104	1179648000	26	14541

#Closed at: 2026-01-18 02:09:53
#Recorded file [1179 MB]: D:/data/31010_260118_045920.dat