passes_logs/2026/01/18/R2M6_AANII_01/R2M6_AANII_01__20260118_112245_NOAA_21_JPSS-2_rec.log

#Pass ID: 20260118_112245_NOAA 21 (JPSS-2)
#Satellite: NOAA 21 (JPSS-2)
#Configuration: NOAA 21
#almurnet v.1.7.20240730
#Start time: 2026-01-18 11:22:45

#Version: 2.2.20231116
#Station: R2M6_AANII_01
#Location: 30.233357 lon 59.946436 lat
#TLE: 1 54234U 22150A   26017.26823908  .00000042  00000+0  40962-4 0  9992
#TLE: 2 54234  98.7501 318.1405 0000613 274.2947  85.8159 14.19535194165131

#Time	Az	El	Level	Level2	SNR	BER	BlckErr	Temp	State	Recorded	gain1	gain2
2026-01-18 11:22:45.39	193.95	6.99	-31.9	-37.9	4.2	1.45e+00	0	43	0	0	25	7202
2026-01-18 11:22:48.40	194.14	7.21	-29.5	-31.8	11.2	1.61e-03	0	43	0	3145728	20	4697
2026-01-18 11:22:51.40	194.34	7.43	-28.9	-30.7	12.4	2.17e-04	0	43	0	12582912	19	4428
2026-01-18 11:22:54.42	194.54	7.64	-29.5	-32.2	11.4	9.50e-04	0	43	0	22020096	19	4933
2026-01-18 11:22:57.44	194.74	7.87	-30.2	-33.9	9.8	9.47e-03	0	43	0	30408704	20	5472
2026-01-18 11:23:00.44	194.95	8.09	-30.2	-33.7	9.9	9.35e-03	0	43	0	39845888	20	5410
2026-01-18 11:23:03.45	195.16	8.31	-29.3	-31.8	11.6	6.07e-04	0	43	0	49283072	19	4784
2026-01-18 11:23:06.46	195.37	8.53	-28.7	-30.8	12.5	1.13e-04	0	43	0	58720256	18	4577
2026-01-18 11:23:09.48	195.58	8.76	-28.7	-30.8	12.4	1.56e-04	0	43	0	68157440	18	4567
2026-01-18 11:23:12.49	195.80	8.99	-28.4	-30.3	12.3	2.23e-04	0	43	0	77594624	18	4455
2026-01-18 11:23:15.48	196.02	9.22	-28.4	-30.4	11.9	3.80e-04	0	43	0	87031808	18	4534
2026-01-18 11:23:18.50	196.24	9.45	-28.2	-30.4	11.9	4.69e-04	0	43	0	96468992	17	4678
2026-01-18 11:23:21.51	196.47	9.69	-28.1	-30.3	12.2	2.68e-04	0	43	0	105906176	17	4602
2026-01-18 11:23:24.52	196.70	9.92	-28.3	-30.2	12.9	7.78e-05	0	43	0	115343360	17	4522
2026-01-18 11:23:27.52	196.94	10.16	-28.3	-30.1	13.5	1.06e-05	0	43	0	124780544	17	4446
2026-01-18 11:23:30.53	197.18	10.40	-28.1	-29.7	13.7	5.30e-06	0	43	0	134217728	17	4335
2026-01-18 11:23:33.56	197.42	10.64	-28.1	-29.8	13.5	7.60e-06	0	43	0	143654912	17	4352
2026-01-18 11:23:36.58	197.67	10.88	-28.0	-29.5	13.9	2.20e-06	0	43	0	153092096	17	4258
2026-01-18 11:23:39.57	197.92	11.13	-28.2	-29.8	13.9	3.80e-06	0	43	0	162529280	17	4334
2026-01-18 11:23:42.59	198.17	11.38	-28.0	-29.3	14.3	1.50e-06	0	43	0	171966464	17	4186
2026-01-18 11:23:45.59	198.43	11.62	-28.0	-29.4	14.3	0.00e+00	0	43	0	181403648	17	4208
2026-01-18 11:23:48.60	198.69	11.88	-28.1	-29.6	14.1	1.50e-06	0	43	0	190840832	17	4284
2026-01-18 11:23:51.60	198.96	12.13	-28.1	-29.6	14.2	3.80e-06	0	43	0	200278016	17	4282
2026-01-18 11:23:54.61	199.23	12.38	-28.2	-29.7	14.1	3.00e-06	0	43	0	209715200	17	4297
2026-01-18 11:23:57.62	199.50	12.64	-27.8	-29.3	14.6	0.00e+00	0	43	0	219152384	16	4287
2026-01-18 11:24:00.62	199.78	12.90	-27.6	-29.0	14.7	0.00e+00	0	43	0	228589568	16	4199
2026-01-18 11:24:03.64	200.07	13.16	-27.7	-29.1	14.7	0.00e+00	0	43	0	238026752	16	4229
2026-01-18 11:24:06.66	200.36	13.43	-27.7	-29.1	14.7	0.00e+00	0	43	0	247463936	16	4236
2026-01-18 11:24:09.67	200.66	13.69	-27.6	-29.0	14.8	0.00e+00	0	43	0	256901120	16	4194
2026-01-18 11:24:12.68	200.96	13.96	-27.5	-28.8	15.0	0.00e+00	0	43	0	266338304	16	4140
2026-01-18 11:24:15.70	201.26	14.23	-27.7	-29.0	14.8	0.00e+00	0	43	0	275775488	16	4219
2026-01-18 11:24:18.71	201.58	14.51	-27.6	-29.0	14.9	7.00e-07	0	43	0	285212672	16	4203
2026-01-18 11:24:21.72	201.89	14.78	-27.7	-29.2	14.8	0.00e+00	0	43	0	294649856	16	4266
2026-01-18 11:24:24.73	202.21	15.06	-27.7	-29.0	15.0	0.00e+00	0	43	0	304087040	16	4215
2026-01-18 11:24:27.75	202.54	15.34	-27.7	-29.1	15.0	0.00e+00	0	43	0	313524224	16	4221
2026-01-18 11:24:30.76	202.88	15.62	-27.7	-29.1	15.0	0.00e+00	0	43	0	322961408	16	4230
2026-01-18 11:24:33.77	203.22	15.91	-27.7	-29.0	15.1	7.00e-07	0	43	0	332398592	16	4183
2026-01-18 11:24:36.78	203.57	16.20	-27.6	-28.9	15.1	0.00e+00	0	43	0	341835776	16	4167
2026-01-18 11:24:39.78	203.92	16.48	-27.6	-28.9	15.1	0.00e+00	0	43	0	350224384	16	4174
2026-01-18 11:24:42.80	204.28	16.78	-27.7	-29.0	15.1	0.00e+00	0	43	0	360710144	16	4208
2026-01-18 11:24:45.81	204.65	17.07	-27.8	-29.4	14.9	0.00e+00	0	43	0	370147328	16	4297
2026-01-18 11:24:48.81	205.02	17.37	-27.7	-29.2	15.0	0.00e+00	0	43	0	378535936	16	4240
2026-01-18 11:24:51.81	205.40	17.67	-27.8	-29.3	15.0	0.00e+00	0	43	0	387973120	16	4270
2026-01-18 11:24:54.82	205.79	17.97	-28.0	-29.6	14.8	0.00e+00	0	43	0	397410304	16	4373
2026-01-18 11:24:57.82	206.18	18.27	-28.0	-29.7	14.8	0.00e+00	0	43	0	406847488	16	4398
2026-01-18 11:25:00.84	206.59	18.58	-28.2	-30.1	14.6	0.00e+00	0	43	0	416284672	16	4502
2026-01-18 11:25:03.85	207.00	18.89	-28.1	-29.9	14.7	0.00e+00	0	43	0	425721856	16	4453
2026-01-18 11:25:06.87	207.42	19.20	-28.0	-29.7	14.8	0.00e+00	0	43	0	435159040	16	4381
2026-01-18 11:25:09.88	207.85	19.52	-28.0	-29.8	14.8	0.00e+00	0	43	0	444596224	16	4409
2026-01-18 11:25:12.90	208.29	19.83	-27.9	-29.4	15.0	0.00e+00	0	43	0	454033408	16	4302
2026-01-18 11:25:15.90	208.73	20.15	-27.8	-29.2	15.2	0.00e+00	0	43	0	463470592	16	4229
2026-01-18 11:25:18.90	209.19	20.47	-27.7	-29.0	15.3	0.00e+00	0	43	0	472907776	16	4196
2026-01-18 11:25:21.89	209.65	20.79	-27.7	-29.0	15.2	0.00e+00	0	43	0	482344960	16	4203
2026-01-18 11:25:24.90	210.12	21.12	-27.6	-28.9	15.3	0.00e+00	0	43	0	491782144	16	4158
2026-01-18 11:25:27.92	210.61	21.45	-27.6	-28.8	15.4	0.00e+00	0	43	0	501219328	16	4143
2026-01-18 11:25:30.93	211.10	21.78	-27.5	-28.5	15.6	0.00e+00	0	43	0	510656512	16	4043
2026-01-18 11:25:33.95	211.61	22.11	-27.4	-28.3	15.7	3.00e-06	0	43	0	520093696	16	4009
2026-01-18 11:25:36.95	212.12	22.45	-27.0	-27.9	16.0	7.00e-07	0	43	0	529530880	15	4017
2026-01-18 11:25:39.96	212.65	22.78	-26.9	-27.7	16.2	0.00e+00	0	43	0	538968064	15	3950
2026-01-18 11:25:42.98	213.18	23.12	-27.0	-28.0	16.0	0.00e+00	0	43	0	548405248	15	4037
2026-01-18 11:25:45.98	213.73	23.46	-26.9	-27.7	16.2	0.00e+00	0	43	0	557842432	15	3948
2026-01-18 11:25:49.00	214.29	23.81	-27.1	-28.2	15.9	0.00e+00	0	43	0	567279616	15	4084
2026-01-18 11:25:51.99	214.86	24.15	-26.9	-27.7	16.2	7.00e-07	0	43	0	576716800	15	3943
2026-01-18 11:25:54.99	215.45	24.49	-27.0	-27.8	16.1	0.00e+00	0	43	0	586153984	15	3984
2026-01-18 11:25:57.99	216.04	24.84	-27.0	-28.0	16.1	0.00e+00	0	43	0	595591168	15	4032
2026-01-18 11:26:00.99	216.65	25.19	-27.1	-28.1	16.0	0.00e+00	0	43	0	605028352	15	4055
2026-01-18 11:26:04.00	217.27	25.54	-27.3	-28.6	15.8	0.00e+00	0	43	0	614465536	15	4186
2026-01-18 11:26:07.02	217.91	25.89	-27.1	-28.2	16.0	0.00e+00	0	43	0	623902720	15	4091
2026-01-18 11:26:10.02	218.56	26.24	-27.0	-27.9	16.2	0.00e+00	0	43	0	632291328	15	3997
2026-01-18 11:26:13.01	219.22	26.59	-27.1	-28.2	16.0	0.00e+00	0	43	0	641728512	15	4071
2026-01-18 11:26:16.01	219.90	26.94	-27.3	-28.7	15.7	0.00e+00	0	43	0	651165696	15	4208
2026-01-18 11:26:19.03	220.60	27.29	-27.5	-29.0	15.6	0.00e+00	0	43	0	660602880	15	4304
2026-01-18 11:26:22.03	221.30	27.65	-27.6	-29.4	15.4	0.00e+00	0	43	0	670040064	15	4398
2026-01-18 11:26:25.04	222.03	28.00	-27.4	-28.9	15.6	0.00e+00	0	43	0	679477248	15	4273
2026-01-18 11:26:28.04	222.77	28.35	-27.4	-28.9	15.7	0.00e+00	0	43	0	688914432	15	4252
2026-01-18 11:26:31.05	223.53	28.70	-27.4	-28.8	15.7	0.00e+00	0	43	0	698351616	15	4236
2026-01-18 11:26:34.06	224.30	29.05	-27.3	-28.7	15.8	0.00e+00	0	43	0	707788800	15	4204
2026-01-18 11:26:37.07	225.09	29.40	-27.4	-28.7	15.8	0.00e+00	0	43	0	717225984	15	4214
2026-01-18 11:26:40.08	225.90	29.75	-27.2	-28.4	16.0	0.00e+00	0	43	0	726663168	15	4118
2026-01-18 11:26:43.09	226.72	30.09	-27.3	-28.5	15.9	0.00e+00	0	43	0	736100352	15	4166
2026-01-18 11:26:46.09	227.56	30.44	-27.1	-28.2	16.1	0.00e+00	0	43	0	745537536	15	4077
2026-01-18 11:26:49.10	228.42	30.78	-27.3	-28.7	15.8	0.00e+00	0	43	0	754974720	15	4190
2026-01-18 11:26:52.11	229.30	31.11	-27.6	-29.2	15.6	0.00e+00	0	43	0	764411904	15	4334
2026-01-18 11:26:55.13	230.19	31.45	-27.6	-29.3	15.5	0.00e+00	0	43	0	773849088	15	4365
2026-01-18 11:26:58.14	231.11	31.78	-27.5	-29.0	15.7	0.00e+00	0	43	0	783286272	15	4288
2026-01-18 11:27:01.14	232.04	32.10	-27.9	-30.0	15.1	0.00e+00	0	43	0	792723456	15	4584
2026-01-18 11:27:04.15	232.99	32.42	-28.2	-30.2	14.9	0.00e+00	0	43	0	802160640	16	4502
2026-01-18 11:27:07.17	233.96	32.74	-28.6	-30.6	14.5	7.00e-07	0	43	0	811597824	17	4511
2026-01-18 11:27:10.19	234.95	33.05	-28.5	-30.4	14.5	0.00e+00	0	43	0	821035008	17	4447
2026-01-18 11:27:13.19	235.95	33.35	-28.6	-30.4	14.5	7.00e-07	0	43	0	830472192	17	4457
2026-01-18 11:27:16.19	236.97	33.65	-28.8	-31.1	14.2	0.00e+00	0	43	0	839909376	17	4646
2026-01-18 11:27:19.21	238.01	33.94	-28.7	-30.8	14.4	7.00e-07	0	43	0	849346560	17	4570
2026-01-18 11:27:22.22	239.07	34.22	-28.8	-31.1	14.2	0.00e+00	0	43	0	858783744	17	4652
2026-01-18 11:27:25.24	240.15	34.49	-28.8	-30.8	14.4	7.00e-07	0	43	0	868220928	17	4574
2026-01-18 11:27:28.24	241.25	34.75	-28.8	-31.0	14.2	7.00e-07	0	43	0	877658112	17	4632
2026-01-18 11:27:31.26	242.36	35.01	-28.9	-31.3	14.1	3.00e-06	0	43	0	887095296	17	4716
2026-01-18 11:27:34.26	243.49	35.25	-28.7	-30.7	14.4	0.00e+00	0	43	0	896532480	17	4526
2026-01-18 11:27:37.26	244.63	35.48	-29.4	-31.8	13.5	9.90e-06	0	43	0	904921088	18	4778
2026-01-18 11:27:40.27	245.79	35.70	-28.6	-30.1	14.5	0.00e+00	0	43	0	914358272	18	4245
2026-01-18 11:27:43.28	246.96	35.91	-28.9	-30.7	14.2	1.50e-06	0	43	0	923795456	18	4414
2026-01-18 11:27:46.29	248.16	36.11	-28.7	-30.2	14.5	7.00e-07	0	43	0	933232640	18	4274
2026-01-18 11:27:49.30	249.36	36.30	-28.7	-30.3	14.4	0.00e+00	0	43	0	942669824	18	4308
2026-01-18 11:27:52.31	250.58	36.47	-28.9	-30.8	14.1	1.50e-06	0	43	0	952107008	18	4442
2026-01-18 11:27:55.31	251.80	36.63	-29.0	-31.0	14.0	1.50e-06	0	43	0	961544192	18	4498
2026-01-18 11:27:58.33	253.05	36.78	-29.2	-31.3	13.9	5.30e-06	0	43	0	970981376	18	4606
2026-01-18 11:28:01.33	254.29	36.91	-29.5	-31.6	13.4	1.52e-05	0	43	0	980418560	19	4580
2026-01-18 11:28:04.34	255.55	37.02	-29.4	-31.4	13.5	1.06e-05	0	43	0	989855744	19	4541
2026-01-18 11:28:07.35	256.82	37.12	-29.2	-30.8	13.8	4.50e-06	0	43	0	999292928	19	4349
2026-01-18 11:28:10.35	258.09	37.21	-29.2	-30.8	13.9	3.00e-06	0	43	0	1008730112	19	4339
2026-01-18 11:28:13.36	259.38	37.28	-28.9	-30.2	14.2	0.00e+00	0	43	0	1018167296	19	4158
2026-01-18 11:28:16.36	260.66	37.33	-28.9	-30.0	14.3	7.00e-07	0	43	0	1027604480	19	4120
2026-01-18 11:28:19.36	261.94	37.37	-28.9	-30.1	14.3	1.50e-06	0	43	0	1037041664	19	4141
2026-01-18 11:28:22.36	263.23	37.39	-28.8	-30.5	14.4	7.00e-07	0	43	0	1046478848	18	4357
2026-01-18 11:28:25.37	264.53	37.40	-28.9	-30.5	14.4	1.50e-06	0	43	0	1055916032	18	4370
2026-01-18 11:28:28.39	265.82	37.39	-29.1	-31.1	14.1	2.20e-06	0	43	0	1065353216	18	4529
2026-01-18 11:28:31.39	267.11	37.37	-28.8	-30.5	14.4	0.00e+00	0	43	0	1074790400	18	4344
2026-01-18 11:28:34.40	268.40	37.32	-28.9	-30.6	14.4	0.00e+00	0	43	0	1084227584	18	4387
2026-01-18 11:28:37.41	269.68	37.27	-29.0	-30.8	14.2	7.00e-07	0	43	0	1093664768	18	4443
2026-01-18 11:28:40.42	270.96	37.19	-29.1	-31.2	14.0	3.00e-06	0	43	0	1103101952	18	4580
2026-01-18 11:28:43.43	272.24	37.11	-29.1	-31.1	14.0	7.00e-07	0	43	0	1112539136	18	4534
2026-01-18 11:28:46.45	273.51	37.00	-29.2	-31.3	13.9	3.80e-06	0	43	0	1121976320	18	4587
2026-01-18 11:28:49.45	274.76	36.88	-29.1	-31.0	14.1	2.20e-06	0	43	0	1131413504	18	4517
2026-01-18 11:28:52.47	276.01	36.75	-29.1	-31.2	13.9	6.80e-06	0	43	0	1140850688	18	4567
2026-01-18 11:28:55.48	277.25	36.60	-29.4	-31.8	13.6	9.10e-06	0	43	0	1150287872	18	4762
2026-01-18 11:28:58.48	278.47	36.44	-29.4	-31.4	13.6	8.30e-06	0	43	0	1158676480	19	4521
2026-01-18 11:29:01.50	279.69	36.27	-29.0	-30.4	14.2	1.50e-06	0	43	0	1169162240	19	4216
2026-01-18 11:29:04.50	280.88	36.08	-29.4	-31.3	13.6	5.30e-06	0	43	0	1178599424	19	4503
2026-01-18 11:29:07.52	282.07	35.88	-29.2	-30.9	13.8	6.80e-06	0	43	0	1186988032	19	4361
2026-01-18 11:29:10.51	283.23	35.67	-28.9	-30.2	14.3	7.00e-07	0	43	0	1196425216	19	4179
2026-01-18 11:29:13.51	284.38	35.45	-29.2	-30.8	13.9	1.50e-06	0	43	0	1205862400	19	4344
2026-01-18 11:29:16.51	285.52	35.21	-29.0	-30.4	14.2	2.20e-06	0	43	0	1215299584	19	4210
2026-01-18 11:29:19.52	286.64	34.97	-28.8	-30.3	14.5	1.50e-06	0	43	0	1224736768	18	4305
2026-01-18 11:29:22.53	287.75	34.71	-28.5	-29.7	14.8	7.00e-07	0	43	0	1234173952	18	4133
2026-01-18 11:29:25.54	288.84	34.45	-28.9	-30.6	14.3	0.00e+00	0	43	0	1243611136	18	4384
2026-01-18 11:29:28.55	289.91	34.18	-28.6	-29.8	14.8	0.00e+00	0	43	0	1253048320	18	4176
2026-01-18 11:29:31.55	290.96	33.90	-28.6	-29.9	14.7	0.00e+00	0	43	0	1262485504	18	4196
2026-01-18 11:29:34.56	291.99	33.61	-28.5	-29.7	14.8	0.00e+00	0	43	0	1271922688	18	4148
2026-01-18 11:29:37.56	293.01	33.32	-28.1	-29.2	15.4	0.00e+00	0	43	0	1281359872	17	4105
2026-01-18 11:29:40.56	294.00	33.01	-28.3	-29.7	15.1	0.00e+00	0	43	0	1290797056	17	4235
2026-01-18 11:29:43.56	294.98	32.71	-28.3	-29.8	15.1	0.00e+00	0	43	0	1300234240	17	4270
2026-01-18 11:29:46.56	295.94	32.39	-28.2	-29.4	15.3	0.00e+00	0	43	0	1309671424	17	4159
2026-01-18 11:29:49.58	296.89	32.07	-28.1	-29.3	15.4	0.00e+00	0	43	0	1319108608	17	4130
2026-01-18 11:29:52.59	297.81	31.75	-28.3	-29.7	15.1	0.00e+00	0	43	0	1328545792	17	4235
2026-01-18 11:29:55.60	298.72	31.42	-28.0	-29.1	15.4	0.00e+00	0	43	0	1337982976	17	4095
2026-01-18 11:29:58.61	299.61	31.09	-27.9	-28.8	15.6	0.00e+00	0	43	0	1347420160	17	4007
2026-01-18 11:30:01.62	300.48	30.75	-27.8	-29.0	15.7	0.00e+00	0	43	0	1356857344	16	4164
2026-01-18 11:30:04.62	301.33	30.42	-28.1	-29.7	15.3	0.00e+00	0	43	0	1366294528	16	4357
2026-01-18 11:30:07.63	302.17	30.07	-28.0	-29.6	15.4	0.00e+00	0	43	0	1375731712	16	4328
2026-01-18 11:30:10.64	302.99	29.73	-27.7	-28.9	15.8	0.00e+00	0	43	0	1385168896	16	4129
2026-01-18 11:30:13.65	303.79	29.39	-27.5	-28.5	16.0	0.00e+00	0	43	0	1394606080	16	4020
2026-01-18 11:30:16.65	304.57	29.04	-27.5	-28.4	16.1	0.00e+00	0	43	0	1404043264	16	3993
2026-01-18 11:30:19.67	305.34	28.69	-27.4	-28.2	16.1	0.00e+00	0	43	0	1412431872	16	3959
2026-01-18 11:30:22.68	306.09	28.34	-27.8	-29.1	15.7	0.00e+00	0	43	0	1421869056	16	4179
2026-01-18 11:30:25.70	306.83	27.99	-27.6	-28.6	15.9	0.00e+00	0	43	0	1432354816	16	4066
2026-01-18 11:30:28.71	307.55	27.64	-27.5	-28.5	16.0	0.00e+00	0	43	0	1440743424	16	4023
2026-01-18 11:30:31.72	308.26	27.29	-27.3	-27.9	16.3	0.00e+00	0	43	0	1450180608	16	3873
2026-01-18 11:30:34.73	308.95	26.94	-27.3	-28.4	16.2	0.00e+00	0	43	0	1459617792	15	4124
2026-01-18 11:30:37.74	309.63	26.59	-27.2	-28.4	16.1	0.00e+00	0	43	0	1469054976	15	4108
2026-01-18 11:30:40.75	310.29	26.24	-27.4	-28.7	16.0	0.00e+00	0	43	0	1478492160	15	4183
2026-01-18 11:30:43.76	310.93	25.89	-27.4	-28.8	15.9	0.00e+00	0	43	0	1487929344	15	4219
2026-01-18 11:30:46.76	311.56	25.54	-27.5	-29.0	15.8	0.00e+00	0	43	0	1497366528	15	4272
2026-01-18 11:30:49.78	312.19	25.20	-27.4	-28.8	15.9	0.00e+00	0	43	0	1506803712	15	4213
2026-01-18 11:30:52.79	312.79	24.85	-27.2	-28.3	16.2	0.00e+00	0	43	0	1516240896	15	4083
2026-01-18 11:30:55.80	313.39	24.51	-27.2	-28.3	16.2	0.00e+00	0	43	0	1525678080	15	4082
2026-01-18 11:30:58.82	313.97	24.16	-27.4	-28.6	16.0	0.00e+00	0	43	0	1535115264	15	4177
2026-01-18 11:31:01.83	314.54	23.82	-27.4	-28.7	15.9	0.00e+00	0	43	0	1544552448	15	4186
2026-01-18 11:31:04.85	315.10	23.48	-27.5	-28.9	15.8	0.00e+00	0	43	0	1553989632	15	4246
2026-01-18 11:31:07.86	315.64	23.14	-27.3	-28.7	15.9	0.00e+00	0	43	0	1563426816	15	4184
2026-01-18 11:31:10.87	316.18	22.81	-27.4	-28.9	15.8	0.00e+00	0	43	0	1572864000	15	4240
2026-01-18 11:31:13.87	316.70	22.47	-27.5	-29.1	15.6	0.00e+00	0	43	0	1582301184	15	4303
2026-01-18 11:31:16.88	317.21	22.14	-27.7	-29.5	15.4	0.00e+00	0	44	0	1591738368	15	4421
2026-01-18 11:31:19.88	317.71	21.81	-27.8	-29.6	15.3	0.00e+00	0	43	0	1601175552	15	4469
2026-01-18 11:31:22.89	318.20	21.48	-27.9	-29.9	15.1	0.00e+00	0	43	0	1610612736	15	4547
2026-01-18 11:31:25.90	318.68	21.16	-28.0	-29.6	15.2	0.00e+00	0	43	0	1620049920	16	4320
2026-01-18 11:31:28.90	319.15	20.84	-27.8	-29.1	15.5	0.00e+00	0	43	0	1629487104	16	4191
2026-01-18 11:31:31.92	319.62	20.51	-27.8	-29.1	15.4	0.00e+00	0	43	0	1638924288	16	4208
2026-01-18 11:31:34.93	320.07	20.20	-27.7	-28.9	15.6	0.00e+00	0	43	0	1648361472	16	4154
2026-01-18 11:31:37.94	320.52	19.88	-27.6	-28.8	15.6	0.00e+00	0	43	0	1657798656	16	4125
2026-01-18 11:31:40.95	320.95	19.57	-27.5	-28.5	15.7	0.00e+00	0	43	0	1667235840	16	4051
2026-01-18 11:31:43.94	321.38	19.26	-27.8	-29.1	15.4	0.00e+00	0	43	0	1676673024	16	4212
2026-01-18 11:31:46.96	321.80	18.95	-27.7	-29.0	15.5	0.00e+00	0	43	0	1686110208	16	4174
2026-01-18 11:31:49.97	322.21	18.64	-27.7	-28.8	15.6	0.00e+00	0	43	0	1695547392	16	4133
2026-01-18 11:31:52.97	322.61	18.34	-27.6	-28.7	15.6	0.00e+00	0	43	0	1704984576	16	4088
2026-01-18 11:31:55.99	323.00	18.03	-27.6	-28.7	15.6	0.00e+00	0	43	0	1713373184	16	4087
2026-01-18 11:31:58.98	323.39	17.74	-27.7	-28.9	15.5	0.00e+00	0	43	0	1722810368	16	4146
2026-01-18 11:32:02.00	323.77	17.44	-27.7	-29.0	15.4	0.00e+00	0	43	0	1732247552	16	4172
2026-01-18 11:32:05.01	324.14	17.14	-27.9	-29.4	15.2	0.00e+00	0	43	0	1741684736	16	4297
2026-01-18 11:32:08.02	324.51	16.85	-28.1	-29.9	14.9	0.00e+00	0	43	0	1751121920	16	4419
2026-01-18 11:32:11.03	324.87	16.56	-28.3	-30.4	14.6	2.20e-06	0	43	0	1760559104	16	4573
2026-01-18 11:32:14.04	325.22	16.27	-28.4	-30.6	14.5	0.00e+00	0	43	0	1769996288	16	4628
2026-01-18 11:32:17.04	325.57	15.99	-28.3	-30.4	14.6	7.00e-07	0	43	0	1779433472	16	4565
2026-01-18 11:32:20.04	325.90	15.71	-28.3	-30.4	14.6	0.00e+00	0	43	0	1788870656	16	4577
2026-01-18 11:32:23.05	326.24	15.43	-28.8	-31.2	13.8	4.50e-06	0	43	0	1798307840	17	4710
2026-01-18 11:32:26.07	326.57	15.15	-28.5	-30.4	14.2	7.00e-07	0	43	0	1807745024	17	4479
2026-01-18 11:32:29.08	326.89	14.87	-28.6	-30.6	14.1	3.00e-06	0	43	0	1817182208	17	4535
2026-01-18 11:32:32.09	327.21	14.60	-28.4	-30.2	14.3	0.00e+00	0	43	0	1826619392	17	4417
2026-01-18 11:32:35.10	327.52	14.33	-28.4	-30.1	14.3	1.50e-06	0	43	0	1836056576	17	4393
2026-01-18 11:32:38.11	327.82	14.06	-28.6	-30.6	14.1	2.20e-06	0	43	0	1845493760	17	4524
2026-01-18 11:32:41.12	328.13	13.80	-28.6	-30.5	14.1	3.80e-06	0	43	0	1854930944	17	4516
2026-01-18 11:32:44.13	328.42	13.53	-28.6	-30.6	14.0	7.00e-07	0	43	0	1864368128	17	4531
2026-01-18 11:32:47.14	328.71	13.27	-28.6	-30.5	14.0	1.50e-06	0	43	0	1873805312	17	4514
2026-01-18 11:32:50.14	329.00	13.01	-28.6	-30.7	13.9	7.00e-07	0	43	0	1883242496	17	4562
2026-01-18 11:32:53.14	329.28	12.75	-28.7	-31.0	13.8	3.80e-06	0	43	0	1892679680	17	4650
2026-01-18 11:32:56.15	329.55	12.50	-28.6	-30.6	14.0	2.20e-06	0	43	0	1902116864	17	4531
2026-01-18 11:32:59.15	329.82	12.25	-28.5	-30.4	14.0	3.80e-06	0	43	0	1911554048	17	4486
2026-01-18 11:33:02.16	330.09	11.99	-28.5	-30.3	14.1	0.00e+00	0	43	0	1920991232	17	4453
2026-01-18 11:33:05.17	330.36	11.75	-28.4	-30.3	14.1	0.00e+00	0	43	0	1930428416	17	4435
2026-01-18 11:33:08.18	330.62	11.50	-28.6	-30.6	13.9	3.00e-06	0	43	0	1939865600	17	4538
2026-01-18 11:33:11.20	330.87	11.25	-28.7	-30.9	13.7	7.60e-06	0	43	0	1949302784	17	4619
2026-01-18 11:33:14.20	331.12	11.01	-28.8	-31.1	13.5	1.06e-05	0	43	0	1958739968	17	4712
2026-01-18 11:33:17.22	331.37	10.77	-28.8	-31.2	13.4	1.37e-05	0	43	0	1968177152	17	4743
2026-01-18 11:33:20.23	331.61	10.53	-28.9	-30.9	13.4	1.52e-05	0	43	0	1977614336	18	4544
2026-01-18 11:33:23.23	331.85	10.29	-28.9	-31.0	13.3	1.60e-05	0	43	0	1986002944	18	4557
2026-01-18 11:33:26.24	332.09	10.06	-28.9	-30.9	13.3	2.36e-05	0	43	0	1995440128	18	4522
2026-01-18 11:33:29.24	332.32	9.82	-28.9	-30.9	13.3	1.98e-05	0	43	0	2005925888	18	4534
2026-01-18 11:33:32.25	332.55	9.59	-29.0	-31.1	13.2	1.98e-05	0	43	0	2014314496	18	4582
2026-01-18 11:33:35.27	332.78	9.36	-28.9	-31.0	13.2	2.28e-05	0	43	0	2023751680	18	4552
2026-01-18 11:33:38.27	333.00	9.13	-29.0	-31.1	13.1	2.44e-05	0	43	0	2033188864	18	4584
2026-01-18 11:33:41.28	333.22	8.91	-29.0	-31.3	13.0	2.97e-05	0	43	0	2042626048	18	4652
2026-01-18 11:33:44.27	333.43	8.68	-29.1	-31.4	12.9	5.26e-05	0	43	0	2052063232	18	4697
2026-01-18 11:33:47.28	333.64	8.46	-29.3	-31.9	12.5	1.12e-04	0	43	0	2061500416	18	4874
2026-01-18 11:33:50.29	333.85	8.24	-29.4	-32.2	12.3	1.69e-04	0	43	0	2070937600	18	4962
2026-01-18 11:33:53.31	334.06	8.02	-29.7	-32.4	11.8	4.26e-04	0	43	0	2080374784	19	4952
2026-01-18 11:33:56.32	334.27	7.80	-29.7	-32.4	11.8	3.76e-04	0	43	0	2089811968	19	4947
2026-01-18 11:33:59.34	334.47	7.58	-29.6	-32.2	11.9	3.51e-04	0	43	0	2099249152	19	4868
2026-01-18 11:34:02.34	334.67	7.37	-29.7	-32.7	11.6	6.19e-04	0	43	0	2108686336	19	5039
2026-01-18 11:34:05.35	334.86	7.15	-29.8	-33.0	11.4	6.87e-04	0	43	0	2118123520	19	5164

#Closed at: 2026-01-18 11:34:08
#Recorded file [2121 MB]: D:/data/31010_260118_142247.dat