passes_logs/2026/01/18/R2M6_AANII_01/R2M6_AANII_01__20260118_012931_NOAA_21_JPSS-2_rec.log

#Pass ID: 20260118_012931_NOAA 21 (JPSS-2)
#Satellite: NOAA 21 (JPSS-2)
#Configuration: NOAA 21
#almurnet v.1.7.20240730
#Start time: 2026-01-18 01:29:31

#Version: 2.2.20231116
#Station: R2M6_AANII_01
#Location: 30.233357 lon 59.946436 lat
#TLE: 1 54234U 22150A   26017.26823908  .00000042  00000+0  40962-4 0  9992
#TLE: 2 54234  98.7501 318.1405 0000613 274.2947  85.8159 14.19535194165131

#Time	Az	El	Level	Level2	SNR	BER	BlckErr	Temp	State	Recorded	gain1	gain2
2026-01-18 01:29:31.36	13.05	6.97	-33.2	-44.3	3.8	1.49e+00	0	44	0	0	26	12944
2026-01-18 01:29:34.38	12.88	7.19	-31.8	-36.9	6.7	2.05e-01	0	44	0	3145728	24	6472
2026-01-18 01:29:37.40	12.71	7.41	-31.2	-35.6	8.4	6.90e-02	0	44	0	12582912	22	5962
2026-01-18 01:29:40.41	12.54	7.63	-30.9	-34.7	9.0	2.70e-02	0	44	0	22020096	22	5537
2026-01-18 01:29:43.42	12.36	7.85	-31.3	-36.1	8.0	6.93e-02	0	44	0	31457280	22	6204
2026-01-18 01:29:46.43	12.18	8.08	-31.3	-35.8	8.3	5.22e-02	0	44	0	40894464	22	6070
2026-01-18 01:29:49.44	12.00	8.30	-31.1	-35.2	8.7	2.66e-02	0	44	0	49283072	22	5778
2026-01-18 01:29:52.44	11.81	8.53	-31.2	-34.9	8.7	4.64e-02	0	44	0	58720256	23	5501
2026-01-18 01:29:55.45	11.63	8.76	-29.9	-32.6	11.3	2.17e-03	0	44	0	68157440	20	4925
2026-01-18 01:29:58.47	11.43	8.99	-29.4	-32.1	12.4	9.15e-05	0	44	0	77594624	18	4958
2026-01-18 01:30:01.48	11.24	9.22	-29.4	-31.7	12.4	1.85e-04	0	44	0	87031808	19	4688
2026-01-18 01:30:04.49	11.04	9.46	-29.3	-32.1	12.4	1.96e-04	0	44	0	96468992	18	4934
2026-01-18 01:30:07.50	10.84	9.70	-29.3	-32.0	12.5	1.32e-04	0	44	0	105906176	18	4918
2026-01-18 01:30:10.51	10.63	9.93	-28.9	-30.9	13.2	2.13e-05	0	44	0	115343360	18	4548
2026-01-18 01:30:13.52	10.42	10.17	-28.6	-30.7	13.6	9.90e-06	0	44	0	124780544	17	4594
2026-01-18 01:30:16.52	10.21	10.42	-28.6	-30.6	13.7	6.27e-04	0	44	0	134217728	17	4562
2026-01-18 01:30:19.54	10.00	10.66	-28.5	-30.5	13.8	6.80e-06	0	44	0	143654912	17	4526
2026-01-18 01:30:22.53	9.78	10.91	-28.6	-30.7	13.7	5.93e-04	0	44	0	153092096	17	4588
2026-01-18 01:30:25.53	9.55	11.15	-28.5	-30.6	13.8	1.50e-06	0	44	0	162529280	17	4542
2026-01-18 01:30:28.54	9.33	11.40	-28.5	-30.5	13.9	3.80e-04	0	44	0	171966464	17	4523
2026-01-18 01:30:31.55	9.09	11.66	-28.3	-30.5	14.2	4.98e-04	0	44	0	181403648	16	4615
2026-01-18 01:30:34.57	8.86	11.91	-28.1	-29.9	14.6	7.16e-04	0	44	0	190840832	16	4447
2026-01-18 01:30:37.59	8.62	12.17	-27.9	-30.2	14.6	4.67e-04	0	44	0	200278016	15	4646
2026-01-18 01:30:40.59	8.37	12.43	-28.2	-30.2	14.4	2.28e-04	0	44	0	209715200	16	4539
2026-01-18 01:30:43.61	8.12	12.69	-28.3	-30.5	14.3	4.73e-04	0	44	0	219152384	16	4613
2026-01-18 01:30:46.62	7.87	12.95	-27.9	-30.1	14.6	2.36e-04	0	44	0	228589568	15	4615
2026-01-18 01:30:49.63	7.61	13.22	-27.7	-29.7	14.9	3.58e-04	0	44	0	238026752	15	4496
2026-01-18 01:30:52.64	7.34	13.49	-27.7	-29.6	14.9	3.41e-04	0	44	0	247463936	15	4472
2026-01-18 01:30:55.65	7.07	13.76	-27.7	-29.6	15.0	2.38e-04	0	44	0	256901120	15	4476
2026-01-18 01:30:58.66	6.80	14.03	-27.6	-29.4	15.1	2.02e-04	0	44	0	266338304	15	4421
2026-01-18 01:31:01.68	6.52	14.31	-27.7	-29.6	15.0	8.30e-06	0	44	0	275775488	15	4483
2026-01-18 01:31:04.69	6.23	14.59	-27.7	-29.5	15.1	1.51e-04	0	44	0	285212672	15	4453
2026-01-18 01:31:07.71	5.94	14.87	-27.7	-29.6	15.1	3.58e-04	0	44	0	294649856	15	4471
2026-01-18 01:31:10.72	5.65	15.15	-27.8	-29.8	14.9	0.00e+00	0	44	0	304087040	15	4523
2026-01-18 01:31:13.72	5.35	15.43	-27.8	-29.7	15.0	2.82e-04	0	44	0	313524224	15	4502
2026-01-18 01:31:16.72	5.04	15.72	-27.9	-30.0	14.9	2.85e-04	0	44	0	322961408	15	4573
2026-01-18 01:31:19.74	4.72	16.01	-28.1	-30.0	14.7	0.00e+00	0	44	0	332398592	16	4455
2026-01-18 01:31:22.75	4.40	16.30	-28.1	-30.0	14.8	3.81e-05	0	44	0	341835776	16	4452
2026-01-18 01:31:25.77	4.07	16.60	-28.2	-30.0	14.8	0.00e+00	0	44	0	351272960	16	4468
2026-01-18 01:31:28.78	3.74	16.90	-28.1	-29.9	14.9	0.00e+00	0	44	0	360710144	16	4418
2026-01-18 01:31:31.80	3.40	17.20	-28.1	-29.9	14.9	0.00e+00	0	44	0	370147328	16	4430
2026-01-18 01:31:34.80	3.05	17.50	-28.2	-30.0	14.8	0.00e+00	0	44	0	378535936	16	4462
2026-01-18 01:31:37.81	2.69	17.81	-27.9	-30.0	14.9	0.00e+00	0	44	0	387973120	15	4573
2026-01-18 01:31:40.81	2.33	18.12	-28.1	-29.9	14.9	0.00e+00	0	44	0	397410304	16	4421
2026-01-18 01:31:43.82	1.96	18.43	-28.0	-30.2	14.9	0.00e+00	0	44	0	406847488	15	4626
2026-01-18 01:31:46.82	1.58	18.74	-28.6	-30.5	14.3	0.00e+00	0	44	0	416284672	17	4489
2026-01-18 01:31:49.82	1.20	19.05	-28.3	-30.4	14.7	7.00e-07	0	44	0	425721856	16	4567
2026-01-18 01:31:52.81	0.80	19.37	-28.3	-30.2	14.8	0.00e+00	0	44	0	435159040	16	4523
2026-01-18 01:31:55.81	0.40	19.69	-27.6	-29.3	15.4	0.00e+00	0	44	0	444596224	15	4366
2026-01-18 01:31:58.82	359.99	20.02	-27.5	-29.1	13.1	0.00e+00	0	44	0	454033408	15	4312
2026-01-18 01:32:01.83	359.57	20.34	-27.4	-29.3	15.6	0.00e+00	0	44	0	463470592	14	4494
2026-01-18 01:32:04.83	359.14	20.67	-27.6	-29.3	15.5	0.00e+00	0	44	0	472907776	15	4360
2026-01-18 01:32:07.84	358.70	21.00	-27.6	-29.4	15.4	0.00e+00	0	44	0	482344960	15	4385
2026-01-18 01:32:10.84	358.25	21.34	-27.3	-29.1	15.8	2.75e-03	0	44	0	491782144	14	4438
2026-01-18 01:32:13.86	357.79	21.68	-27.1	-28.6	16.1	0.00e+00	0	44	0	501219328	14	4277
2026-01-18 01:32:16.88	357.31	22.02	-27.4	-29.3	15.7	3.67e-03	0	44	0	510656512	14	4494
2026-01-18 01:32:19.88	356.83	22.36	-27.0	-28.5	16.2	0.00e+00	0	44	0	520093696	14	4249
2026-01-18 01:32:22.90	356.34	22.70	-26.8	-28.5	16.4	3.73e-03	0	44	0	529530880	13	4372
2026-01-18 01:32:25.90	355.84	23.05	-27.0	-28.4	16.3	3.38e-03	0	44	0	538968064	14	4241
2026-01-18 01:32:28.92	355.32	23.40	-26.9	-28.8	16.3	3.95e-03	0	44	0	548405248	13	4441
2026-01-18 01:32:31.93	354.79	23.75	-27.1	-28.5	16.2	3.38e-03	0	44	0	557842432	14	4265
2026-01-18 01:32:34.95	354.25	24.11	-27.0	-28.3	16.4	0.00e+00	0	44	0	567279616	14	4202
2026-01-18 01:32:37.96	353.70	24.46	-27.2	-28.7	16.1	2.97e-03	0	44	0	576716800	14	4310
2026-01-18 01:32:40.97	353.13	24.82	-27.2	-28.9	16.0	0.00e+00	0	44	0	586153984	14	4372
2026-01-18 01:32:43.98	352.56	25.18	-27.5	-29.4	15.8	2.57e-03	0	44	0	595591168	14	4514
2026-01-18 01:32:46.99	351.96	25.54	-27.8	-29.6	15.4	0.00e+00	0	44	0	605028352	15	4463
2026-01-18 01:32:50.01	351.36	25.90	-27.4	-28.7	15.9	0.00e+00	0	44	0	614465536	15	4206
2026-01-18 01:32:53.02	350.74	26.26	-27.2	-28.8	16.1	0.00e+00	0	44	0	623902720	14	4321
2026-01-18 01:32:56.03	350.10	26.63	-27.6	-29.2	15.6	0.00e+00	0	44	0	633339904	15	4334
2026-01-18 01:32:59.04	349.45	26.99	-27.6	-29.3	15.6	0.00e+00	0	44	0	642777088	15	4371
2026-01-18 01:33:02.05	348.79	27.36	-27.5	-29.5	15.8	0.00e+00	0	44	0	651165696	14	4525
2026-01-18 01:33:05.07	348.10	27.73	-27.7	-29.4	15.5	0.00e+00	0	44	0	661651456	15	4394
2026-01-18 01:33:08.09	347.41	28.09	-27.9	-29.9	15.3	6.10e-06	0	44	0	671088640	15	4526
2026-01-18 01:33:11.08	346.70	28.46	-27.9	-29.8	15.4	0.00e+00	0	44	0	679477248	15	4510
2026-01-18 01:33:14.09	345.97	28.82	-28.2	-30.1	15.0	1.11e-03	0	44	0	688914432	16	4483
2026-01-18 01:33:17.09	345.22	29.19	-28.5	-30.7	14.7	0.00e+00	0	44	0	698351616	16	4660
2026-01-18 01:33:20.09	344.46	29.55	-28.6	-30.5	14.5	6.63e-04	0	44	0	707788800	17	4475
2026-01-18 01:33:23.11	343.68	29.92	-28.1	-29.9	15.2	7.35e-04	0	44	0	717225984	16	4398
2026-01-18 01:33:26.11	342.88	30.28	-28.0	-30.0	15.2	0.00e+00	0	44	0	726663168	15	4573
2026-01-18 01:33:29.12	342.06	30.64	-28.1	-29.8	15.2	0.00e+00	0	44	0	736100352	16	4380
2026-01-18 01:33:32.11	341.23	31.00	-28.2	-30.1	15.0	0.00e+00	0	44	0	745537536	16	4473
2026-01-18 01:33:35.11	340.38	31.35	-28.2	-30.0	15.1	0.00e+00	0	44	0	754974720	16	4434
2026-01-18 01:33:38.11	339.51	31.70	-28.3	-30.2	15.0	0.00e+00	0	44	0	764411904	16	4509
2026-01-18 01:33:41.13	338.61	32.05	-27.9	-29.8	15.3	0.00e+00	0	44	0	773849088	15	4513
2026-01-18 01:33:44.13	337.70	32.39	-27.7	-29.6	15.4	0.00e+00	0	44	0	783286272	15	4432
2026-01-18 01:33:47.13	336.77	32.73	-27.4	-29.1	15.5	0.00e+00	0	44	0	792723456	15	4353
2026-01-18 01:33:50.14	335.82	33.07	-27.8	-29.8	14.2	0.00e+00	0	44	0	802160640	15	4496
2026-01-18 01:33:53.15	334.85	33.40	-28.5	-30.2	14.7	7.00e-07	0	44	0	811597824	17	4375
2026-01-18 01:33:56.16	333.85	33.72	-28.4	-30.5	14.8	0.00e+00	0	44	0	821035008	16	4591
2026-01-18 01:33:59.17	332.84	34.04	-28.5	-30.3	14.7	0.00e+00	0	44	0	830472192	17	4402
2026-01-18 01:34:02.18	331.81	34.35	-28.7	-30.7	14.5	3.35e-03	0	44	0	839909376	17	4519
2026-01-18 01:34:05.19	330.76	34.65	-28.5	-30.3	14.7	2.01e-03	0	44	0	849346560	17	4427
2026-01-18 01:34:08.20	329.69	34.95	-28.6	-30.5	14.6	0.00e+00	0	44	0	858783744	17	4468
2026-01-18 01:34:11.20	328.60	35.23	-28.6	-30.5	14.5	2.22e-03	0	44	0	868220928	17	4485
2026-01-18 01:34:14.22	327.49	35.51	-28.7	-30.6	14.4	2.71e-03	0	44	0	877658112	17	4522
2026-01-18 01:34:17.24	326.35	35.77	-28.3	-30.4	14.9	3.76e-03	0	44	0	887095296	16	4554
2026-01-18 01:34:20.24	325.21	36.02	-28.7	-30.8	14.4	3.46e-03	0	44	0	896532480	17	4564
2026-01-18 01:34:23.25	324.04	36.27	-28.7	-30.7	14.4	4.02e-03	0	44	0	904921088	17	4536
2026-01-18 01:34:26.25	322.87	36.50	-29.1	-31.2	13.8	3.86e-03	0	44	0	914358272	18	4591
2026-01-18 01:34:29.27	321.66	36.72	-28.8	-31.0	14.2	3.00e-06	0	44	0	924844032	17	4628
2026-01-18 01:34:32.29	320.44	36.92	-29.1	-31.3	13.8	3.85e-03	0	44	0	933232640	18	4593
2026-01-18 01:34:35.29	319.22	37.11	-28.5	-30.3	14.6	0.00e+00	0	44	0	942669824	17	4412
2026-01-18 01:34:38.30	317.98	37.29	-28.6	-30.5	14.5	2.47e-03	0	44	0	952107008	17	4456
2026-01-18 01:34:41.32	316.71	37.45	-28.7	-30.6	14.5	7.00e-07	0	44	0	961544192	17	4500
2026-01-18 01:34:44.32	315.45	37.60	-29.4	-31.9	13.5	5.30e-06	0	44	0	970981376	18	4795
2026-01-18 01:34:47.32	314.17	37.73	-29.0	-30.9	14.0	1.50e-06	0	44	0	980418560	18	4481
2026-01-18 01:34:50.33	312.88	37.85	-28.8	-30.9	14.3	7.00e-07	0	44	0	989855744	17	4586
2026-01-18 01:34:53.35	311.58	37.95	-29.0	-31.0	14.0	3.00e-06	0	44	0	999292928	18	4512
2026-01-18 01:34:56.34	310.28	38.03	-29.0	-30.9	14.0	7.00e-07	0	44	0	1008730112	18	4482
2026-01-18 01:34:59.36	308.97	38.10	-29.4	-31.9	13.5	4.50e-06	0	44	0	1018167296	18	4791
2026-01-18 01:35:02.36	307.65	38.15	-29.1	-31.3	13.8	3.00e-06	0	44	0	1027604480	18	4592
2026-01-18 01:35:05.37	306.33	38.18	-28.8	-30.9	14.2	1.50e-06	0	44	0	1037041664	17	4609
2026-01-18 01:35:08.40	305.00	38.19	-28.4	-30.6	14.8	0.00e+00	0	44	0	1046478848	16	4601
2026-01-18 01:35:11.41	303.68	38.19	-29.1	-31.1	13.9	4.50e-06	0	44	0	1055916032	18	4532
2026-01-18 01:35:14.42	302.36	38.17	-29.0	-31.0	14.0	0.00e+00	0	44	0	1065353216	18	4498
2026-01-18 01:35:17.43	301.04	38.13	-28.7	-30.7	14.4	0.00e+00	0	44	0	1074790400	17	4523
2026-01-18 01:35:20.44	299.72	38.08	-29.2	-31.3	13.7	3.80e-06	0	44	0	1084227584	18	4618
2026-01-18 01:35:23.45	298.41	38.00	-28.6	-30.0	14.6	0.00e+00	0	44	0	1093664768	18	4212
2026-01-18 01:35:26.45	297.11	37.92	-28.7	-30.7	14.4	2.20e-06	0	44	0	1103101952	17	4528
2026-01-18 01:35:29.46	295.81	37.81	-29.0	-30.8	14.1	3.80e-06	0	44	0	1112539136	18	4459
2026-01-18 01:35:32.48	294.52	37.69	-28.8	-30.4	14.3	7.00e-07	0	44	0	1121976320	18	4319
2026-01-18 01:35:35.49	293.24	37.55	-28.4	-30.0	14.8	7.00e-07	0	44	0	1131413504	17	4337
2026-01-18 01:35:38.49	291.98	37.40	-29.0	-30.8	13.6	7.00e-07	0	44	0	1140850688	18	4459
2026-01-18 01:35:41.50	290.73	37.23	-28.8	-31.0	14.3	2.20e-06	0	44	0	1150287872	17	4621
2026-01-18 01:35:44.49	289.49	37.05	-28.8	-30.9	14.3	7.00e-07	0	44	0	1159725056	17	4587
2026-01-18 01:35:47.51	288.26	36.85	-28.8	-31.0	14.2	1.50e-06	0	44	0	1169162240	17	4624
2026-01-18 01:35:50.53	287.05	36.64	-28.3	-29.9	14.9	1.75e-05	0	44	0	1178599424	17	4288
2026-01-18 01:35:53.54	285.85	36.42	-28.2	-30.1	14.9	7.00e-07	0	44	0	1188036608	16	4478
2026-01-18 01:35:56.54	284.68	36.18	-28.9	-31.2	14.1	2.20e-06	0	44	0	1197473792	17	4684
2026-01-18 01:35:59.54	283.52	35.94	-28.8	-31.0	14.1	0.00e+00	0	44	0	1205862400	17	4647
2026-01-18 01:36:02.56	282.37	35.68	-28.5	-30.2	14.6	7.00e-07	0	44	0	1216348160	17	4401
2026-01-18 01:36:05.57	281.25	35.41	-28.3	-29.7	14.9	3.59e-04	0	44	0	1225785344	17	4248
2026-01-18 01:36:08.58	280.14	35.13	-27.8	-29.8	15.2	1.74e-04	0	44	0	1234173952	15	4496
2026-01-18 01:36:11.59	279.05	34.84	-28.6	-30.5	14.5	7.00e-07	0	44	0	1243611136	17	4483
2026-01-18 01:36:14.59	277.99	34.54	-28.6	-30.4	14.5	7.00e-07	0	44	0	1253048320	17	4457
2026-01-18 01:36:17.59	276.94	34.24	-28.7	-30.7	14.3	7.00e-07	0	44	0	1262485504	17	4531
2026-01-18 01:36:20.61	275.91	33.92	-29.5	-32.1	13.2	1.83e-05	0	44	0	1271922688	18	4883
2026-01-18 01:36:23.62	274.90	33.60	-29.0	-30.5	13.8	6.80e-06	0	44	0	1281359872	19	4254
2026-01-18 01:36:26.64	273.91	33.28	-28.7	-30.6	14.3	0.00e+00	0	44	0	1290797056	17	4517
2026-01-18 01:36:29.66	272.94	32.94	-28.4	-30.0	14.7	7.00e-07	0	44	0	1300234240	17	4325
2026-01-18 01:36:32.67	271.99	32.60	-28.3	-30.3	14.8	0.00e+00	0	44	0	1309671424	16	4544
2026-01-18 01:36:35.68	271.06	32.26	-28.7	-30.7	14.2	2.20e-06	0	44	0	1319108608	17	4541
2026-01-18 01:36:38.68	270.16	31.91	-28.3	-29.8	14.7	0.00e+00	0	44	0	1328545792	17	4293
2026-01-18 01:36:41.69	269.27	31.56	-27.8	-29.1	15.4	0.00e+00	0	44	0	1337982976	16	4203
2026-01-18 01:36:44.71	268.39	31.21	-28.5	-30.3	14.5	7.00e-07	0	44	0	1347420160	17	4417
2026-01-18 01:36:47.72	267.54	30.85	-28.9	-31.2	13.4	1.50e-06	0	44	0	1356857344	17	4693
2026-01-18 01:36:50.74	266.71	30.49	-27.9	-29.5	15.0	2.47e-04	0	44	0	1366294528	16	4310
2026-01-18 01:36:53.75	265.89	30.12	-27.7	-29.5	15.3	0.00e+00	0	44	0	1375731712	15	4421
2026-01-18 01:36:56.76	265.10	29.76	-27.8	-29.7	15.2	0.00e+00	0	44	0	1385168896	15	4479
2026-01-18 01:36:59.77	264.32	29.39	-27.1	-28.5	16.1	0.00e+00	0	44	0	1394606080	14	4265
2026-01-18 01:37:02.78	263.56	29.03	-27.2	-28.9	15.9	2.87e-03	0	44	0	1404043264	14	4355
2026-01-18 01:37:05.79	262.81	28.66	-27.2	-28.9	15.9	3.03e-03	0	44	0	1413480448	14	4369
2026-01-18 01:37:08.80	262.09	28.29	-27.1	-28.6	16.1	0.00e+00	0	44	0	1422917632	14	4284
2026-01-18 01:37:11.81	261.38	27.92	-27.1	-28.8	15.9	2.64e-03	0	44	0	1432354816	14	4338
2026-01-18 01:37:14.81	260.69	27.55	-27.2	-28.8	15.9	0.00e+00	0	44	0	1441792000	14	4338
2026-01-18 01:37:17.82	260.01	27.19	-26.9	-28.2	16.2	8.01e-05	0	44	0	1451229184	14	4173
2026-01-18 01:37:20.83	259.35	26.82	-27.3	-29.2	15.7	2.22e-04	0	44	0	1460666368	14	4466
2026-01-18 01:37:23.85	258.70	26.45	-27.5	-29.2	15.4	0.00e+00	0	44	0	1470103552	15	4345
2026-01-18 01:37:26.85	258.07	26.09	-27.6	-29.4	15.3	0.00e+00	0	44	0	1479540736	15	4395
2026-01-18 01:37:29.86	257.45	25.72	-27.1	-28.7	15.9	0.00e+00	0	44	0	1488977920	14	4330
2026-01-18 01:37:32.86	256.85	25.36	-27.1	-28.7	15.9	0.00e+00	0	44	0	1498415104	14	4334
2026-01-18 01:37:35.87	256.26	25.00	-27.4	-29.5	15.5	1.41e-03	0	44	0	1507852288	14	4537
2026-01-18 01:37:38.89	255.68	24.64	-27.2	-28.9	15.8	3.18e-04	0	44	0	1517289472	14	4378
2026-01-18 01:37:41.89	255.12	24.28	-26.8	-28.5	16.2	3.46e-03	0	44	0	1526726656	13	4384
2026-01-18 01:37:44.89	254.57	23.93	-26.7	-28.3	16.4	0.00e+00	0	44	0	1535115264	13	4308
2026-01-18 01:37:47.90	254.03	23.57	-26.6	-28.1	16.5	3.60e-03	0	44	0	1544552448	13	4257
2026-01-18 01:37:50.92	253.51	23.22	-27.1	-28.6	15.9	4.05e-03	0	44	0	1553989632	14	4285
2026-01-18 01:37:53.93	252.99	22.87	-27.3	-29.2	15.6	4.30e-03	0	44	0	1563426816	14	4452
2026-01-18 01:37:56.94	252.49	22.52	-26.8	-28.4	16.2	4.09e-03	0	44	0	1572864000	13	4360
2026-01-18 01:37:59.95	252.00	22.18	-26.9	-28.8	16.0	4.30e-03	0	44	0	1582301184	13	4463
2026-01-18 01:38:02.97	251.52	21.83	-27.0	-29.0	15.9	4.37e-03	0	44	0	1591738368	13	4518
2026-01-18 01:38:05.98	251.05	21.49	-27.2	-29.0	15.6	0.00e+00	0	44	0	1601175552	14	4425
2026-01-18 01:38:08.98	250.59	21.16	-27.1	-28.6	15.8	5.00e-03	0	44	0	1610612736	14	4308
2026-01-18 01:38:11.99	250.14	20.82	-27.2	-29.0	15.6	5.07e-03	0	44	0	1620049920	14	4429
2026-01-18 01:38:14.99	249.70	20.49	-27.4	-29.4	15.4	0.00e+00	0	44	0	1629487104	14	4522
2026-01-18 01:38:18.00	249.27	20.16	-27.3	-29.1	15.5	4.81e-03	0	44	0	1638924288	14	4428
2026-01-18 01:38:21.01	248.85	19.83	-27.1	-28.8	15.7	4.50e-06	0	44	0	1648361472	14	4355
2026-01-18 01:38:24.03	248.44	19.51	-26.8	-28.4	16.1	3.53e-03	0	44	0	1657798656	13	4364
2026-01-18 01:38:27.05	248.03	19.18	-26.9	-28.7	15.9	2.20e-06	0	44	0	1667235840	13	4450
2026-01-18 01:38:30.06	247.64	18.86	-26.6	-28.1	16.2	0.00e+00	0	44	0	1676673024	13	4283
2026-01-18 01:38:33.07	247.25	18.55	-26.9	-28.7	15.9	1.50e-06	0	44	0	1686110208	13	4439
2026-01-18 01:38:36.08	246.87	18.23	-26.9	-28.3	15.9	1.50e-06	0	44	0	1695547392	14	4229
2026-01-18 01:38:39.10	246.50	17.92	-27.0	-28.5	15.8	0.00e+00	0	44	0	1704984576	14	4284
2026-01-18 01:38:42.10	246.14	17.61	-27.0	-28.5	15.8	0.00e+00	0	44	0	1714421760	14	4267
2026-01-18 01:38:45.09	245.79	17.31	-27.4	-29.3	15.3	0.00e+00	0	44	0	1723858944	14	4506
2026-01-18 01:38:48.10	245.44	17.01	-27.7	-29.6	14.8	0.00e+00	0	44	0	1733296128	15	4475
2026-01-18 01:38:51.10	245.10	16.71	-27.6	-29.5	14.9	0.00e+00	0	44	0	1742733312	15	4453
2026-01-18 01:38:54.12	244.76	16.41	-27.7	-29.6	14.8	0.00e+00	0	44	0	1752170496	15	4481
2026-01-18 01:38:57.14	244.43	16.11	-27.7	-29.7	14.7	0.00e+00	0	44	0	1761607680	15	4506
2026-01-18 01:39:00.13	244.12	15.82	-27.9	-30.0	14.5	0.00e+00	0	44	0	1771044864	15	4600
2026-01-18 01:39:03.15	243.80	15.53	-27.8	-29.9	14.6	9.86e-04	0	44	0	1780482048	15	4583
2026-01-18 01:39:06.16	243.49	15.24	-27.7	-29.7	14.7	0.00e+00	0	44	0	1789919232	15	4517
2026-01-18 01:39:09.16	243.19	14.96	-27.6	-29.4	14.8	9.03e-04	0	44	0	1799356416	15	4419
2026-01-18 01:39:12.18	242.89	14.67	-27.6	-29.4	14.8	8.19e-04	0	44	0	1808793600	15	4446
2026-01-18 01:39:15.18	242.60	14.39	-27.8	-30.0	14.4	7.25e-04	0	44	0	1818230784	15	4605
2026-01-18 01:39:18.19	242.32	14.11	-28.0	-30.3	14.2	6.43e-04	0	44	0	1826619392	15	4700
2026-01-18 01:39:21.19	242.04	13.84	-28.3	-30.5	12.8	2.20e-06	0	44	0	1836056576	16	4640
2026-01-18 01:39:24.20	241.76	13.57	-28.3	-30.6	13.9	4.81e-04	0	44	0	1845493760	16	4663
2026-01-18 01:39:27.21	241.49	13.30	-28.1	-30.1	14.2	4.78e-04	0	44	0	1854930944	16	4515
2026-01-18 01:39:30.22	241.23	13.03	-27.7	-29.7	14.5	3.42e-04	0	44	0	1864368128	15	4527
2026-01-18 01:39:33.23	240.97	12.76	-27.8	-29.9	14.4	2.49e-04	0	44	0	1873805312	15	4585
2026-01-18 01:39:36.24	240.71	12.50	-27.6	-29.5	14.6	4.30e-03	0	44	0	1883242496	15	4479
2026-01-18 01:39:39.24	240.46	12.24	-27.7	-29.7	14.5	1.50e-04	0	44	0	1892679680	15	4517
2026-01-18 01:39:42.26	240.22	11.98	-28.1	-30.1	14.1	4.86e-03	0	44	0	1902116864	16	4539
2026-01-18 01:39:45.27	239.97	11.72	-28.2	-30.4	13.9	5.23e-03	0	44	0	1911554048	16	4617
2026-01-18 01:39:48.28	239.74	11.47	-28.4	-30.8	13.7	4.33e-03	0	44	0	1920991232	16	4739
2026-01-18 01:39:51.28	239.50	11.21	-28.4	-30.9	13.6	3.39e-03	0	44	0	1930428416	16	4784
2026-01-18 01:39:54.29	239.28	10.96	-28.6	-30.8	13.3	2.68e-03	0	44	0	1939865600	17	4647
2026-01-18 01:39:57.31	239.05	10.72	-28.5	-30.5	13.5	5.34e-04	0	44	0	1949302784	17	4553
2026-01-18 01:40:00.32	238.83	10.47	-28.6	-30.9	13.2	2.82e-05	0	44	0	1958739968	17	4674
2026-01-18 01:40:03.33	238.61	10.22	-28.7	-31.0	13.1	3.98e-03	0	44	0	1968177152	17	4707
2026-01-18 01:40:06.33	238.40	9.98	-28.7	-31.1	13.0	1.98e-05	0	44	0	1977614336	17	4749
2026-01-18 01:40:09.34	238.19	9.74	-28.5	-30.6	13.3	2.28e-05	0	44	0	1987051520	17	4590
2026-01-18 01:40:12.35	237.98	9.50	-28.5	-30.7	13.3	1.06e-05	0	44	0	1996488704	17	4606
2026-01-18 01:40:15.35	237.78	9.27	-28.6	-30.9	13.1	3.05e-05	0	44	0	2005925888	17	4692
2026-01-18 01:40:18.36	237.58	9.03	-28.5	-30.6	13.3	2.97e-05	0	44	0	2015363072	17	4572
2026-01-18 01:40:21.38	237.38	8.80	-28.6	-30.9	13.1	2.05e-05	0	44	0	2024800256	17	4686
2026-01-18 01:40:24.39	237.19	8.57	-28.6	-31.0	13.0	3.96e-05	0	44	0	2034237440	17	4714
2026-01-18 01:40:27.39	237.00	8.34	-28.8	-31.5	12.7	7.55e-05	0	44	0	2043674624	17	4888
2026-01-18 01:40:30.40	236.81	8.11	-28.7	-31.2	12.8	8.77e-05	0	44	0	2053111808	17	4788
2026-01-18 01:40:33.41	236.63	7.89	-28.9	-31.3	12.5	2.04e-04	0	44	0	2062548992	18	4710
2026-01-18 01:40:36.44	236.45	7.66	-29.0	-31.5	12.3	1.65e-04	0	44	0	2071986176	18	4782
2026-01-18 01:40:39.44	236.27	7.44	-29.0	-31.4	12.3	3.25e-04	0	44	0	2081423360	18	4755
2026-01-18 01:40:42.45	236.09	7.22	-29.1	-31.7	12.1	1.65e-04	0	44	0	2090860544	18	4872
2026-01-18 01:40:45.46	235.92	7.00	-33.4	-45.6	3.8	1.49e+00	0	44	104	2097152000	26	14644

#Closed at: 2026-01-18 01:40:47
#Recorded file [2097 MB]: D:/data/31010_260118_042933.dat