passes_logs/2026/01/18/R2M6_AANII_01/R2M6_AANII_01__20260118_111043_FENGYUN_3D_rec.log

#Pass ID: 20260118_111043_FENGYUN 3D
#Satellite: FENGYUN 3D
#Configuration: FENGYUN 3D
#almurnet v.1.7.20240730
#Start time: 2026-01-18 11:10:45

#Version: 2.2.20231116
#Station: R2M6_AANII_01
#Location: 30.233357 lon 59.946436 lat
#TLE: 1 43010U 17072A   26017.25882587  .00000461  00000+0  23963-3 0  9992
#TLE: 2 43010  98.9934 349.1096 0002357 104.0487 256.0951 14.19697152423579

#Time	Az	El	Level	Level2	SNR	BER	BlckErr	Temp	State	Recorded	gain1	gain2
2026-01-18 11:10:45.26	123.27	7.15	-30.4	-33.3	5.2	7.92e-01	0	41	0	0	22	5046
2026-01-18 11:10:48.27	123.09	7.37	-30.3	-33.3	9.5	9.09e-03	0	41	0	5242880	21	5108
2026-01-18 11:10:51.28	122.91	7.59	-30.7	-34.4	8.7	3.18e-02	0	41	0	22020096	21	5529
2026-01-18 11:10:54.29	122.73	7.81	-29.3	-31.5	11.5	6.46e-04	0	41	0	38797312	19	4661
2026-01-18 11:10:57.30	122.55	8.04	-28.2	-30.0	13.1	2.63e-05	0	41	0	55574528	17	4398
2026-01-18 11:11:00.30	122.36	8.27	-27.9	-29.3	13.5	1.25e-05	0	41	0	73400320	17	4196
2026-01-18 11:11:03.32	122.17	8.50	-27.9	-29.1	13.6	6.80e-06	0	41	0	90177536	17	4146
2026-01-18 11:11:06.32	121.98	8.73	-27.8	-29.5	13.7	3.40e-06	0	42	0	106954752	16	4365
2026-01-18 11:11:09.33	121.78	8.96	-27.4	-28.6	14.3	3.40e-06	0	41	0	123731968	16	4116
2026-01-18 11:11:12.33	121.58	9.19	-27.6	-28.9	14.1	0.00e+00	0	42	0	140509184	16	4183
2026-01-18 11:11:15.34	121.38	9.43	-27.6	-28.9	14.2	2.20e-06	0	42	0	157286400	16	4188
2026-01-18 11:11:18.34	121.17	9.66	-27.5	-28.8	14.3	1.10e-06	0	42	0	174063616	16	4155
2026-01-18 11:11:21.35	120.96	9.90	-27.9	-29.5	13.8	2.20e-06	0	42	0	190840832	16	4372
2026-01-18 11:11:24.36	120.75	10.15	-27.5	-28.7	14.3	1.10e-06	0	42	0	208666624	16	4131
2026-01-18 11:11:27.36	120.53	10.39	-27.5	-28.7	14.4	0.00e+00	0	42	0	225443840	16	4124
2026-01-18 11:11:30.37	120.31	10.63	-27.3	-28.3	14.6	0.00e+00	0	42	0	242221056	16	4037
2026-01-18 11:11:33.38	120.09	10.88	-27.4	-28.4	14.6	0.00e+00	0	42	0	258998272	16	4050
2026-01-18 11:11:36.39	119.86	11.13	-27.5	-28.8	14.3	0.00e+00	0	42	0	275775488	16	4169
2026-01-18 11:11:39.41	119.62	11.38	-27.5	-28.6	14.5	0.00e+00	0	42	0	292552704	16	4119
2026-01-18 11:11:42.41	119.39	11.64	-27.4	-28.5	14.5	0.00e+00	0	42	0	309329920	16	4089
2026-01-18 11:11:45.40	119.15	11.89	-27.6	-28.9	14.3	0.00e+00	0	42	0	326107136	16	4194
2026-01-18 11:11:48.41	118.90	12.15	-27.0	-28.2	14.9	0.00e+00	0	42	0	343932928	15	4103
2026-01-18 11:11:51.42	118.65	12.41	-27.4	-28.9	14.5	0.00e+00	0	42	0	360710144	15	4314
2026-01-18 11:11:54.44	118.39	12.67	-27.2	-28.4	14.7	0.00e+00	0	42	0	377487360	15	4176
2026-01-18 11:11:57.44	118.13	12.94	-27.2	-28.5	14.7	0.00e+00	0	42	0	394264576	15	4197
2026-01-18 11:12:00.45	117.87	13.21	-27.1	-28.4	14.8	0.00e+00	0	42	0	411041792	15	4161
2026-01-18 11:12:03.46	117.60	13.48	-26.6	-27.6	15.5	0.00e+00	0	43	0	428867584	14	4063
2026-01-18 11:12:06.48	117.32	13.75	-26.5	-27.5	15.6	0.00e+00	0	42	0	445644800	14	4024
2026-01-18 11:12:09.49	117.04	14.02	-26.6	-27.7	15.5	0.00e+00	0	42	0	462422016	14	4078
2026-01-18 11:12:12.49	116.76	14.30	-26.6	-27.6	15.5	0.00e+00	0	42	0	479199232	14	4071
2026-01-18 11:12:15.50	116.47	14.58	-26.5	-27.4	15.6	0.00e+00	0	42	0	495976448	14	4018
2026-01-18 11:12:18.50	116.17	14.86	-26.5	-27.5	15.6	0.00e+00	0	43	0	512753664	14	4026
2026-01-18 11:12:21.50	115.87	15.14	-26.4	-27.2	15.8	0.00e+00	0	43	0	529530880	14	3968
2026-01-18 11:12:24.49	115.56	15.43	-26.6	-27.6	15.6	0.00e+00	0	43	0	546308096	14	4061
2026-01-18 11:12:27.50	115.25	15.72	-26.1	-27.0	16.2	0.00e+00	0	43	0	563085312	13	4023
2026-01-18 11:12:30.52	114.93	16.01	-25.9	-26.8	16.3	0.00e+00	0	43	0	580911104	13	3952
2026-01-18 11:12:33.53	114.60	16.31	-26.1	-27.0	16.2	0.00e+00	0	43	0	597688320	13	4008
2026-01-18 11:12:36.53	114.26	16.60	-26.1	-27.1	16.2	0.00e+00	0	43	0	614465536	13	4048
2026-01-18 11:12:39.54	113.92	16.90	-26.1	-27.1	16.2	0.00e+00	0	43	0	631242752	13	4029
2026-01-18 11:12:42.55	113.58	17.20	-25.9	-26.7	16.5	0.00e+00	0	43	0	648019968	13	3931
2026-01-18 11:12:45.56	113.22	17.51	-25.9	-27.1	16.5	0.00e+00	0	43	0	664797184	12	4148
2026-01-18 11:12:48.58	112.86	17.82	-25.9	-27.1	16.5	0.00e+00	0	43	0	681574400	12	4153
2026-01-18 11:12:51.58	112.49	18.13	-25.6	-26.5	16.9	0.00e+00	0	43	0	699400192	12	3988
2026-01-18 11:12:54.57	112.11	18.44	-25.5	-26.3	17.0	0.00e+00	0	43	0	716177408	12	3933
2026-01-18 11:12:57.58	111.73	18.75	-25.5	-26.2	17.1	0.00e+00	0	43	0	732954624	12	3909
2026-01-18 11:13:00.60	111.33	19.07	-25.4	-26.1	17.1	0.00e+00	0	43	0	749731840	12	3882
2026-01-18 11:13:03.61	110.93	19.39	-25.4	-26.5	17.3	0.00e+00	0	43	0	766509056	11	4091
2026-01-18 11:13:06.61	110.52	19.72	-25.3	-26.3	17.4	0.00e+00	0	43	0	783286272	11	4041
2026-01-18 11:13:09.61	110.10	20.04	-25.1	-26.0	17.5	0.00e+00	0	43	0	800063488	11	3962
2026-01-18 11:13:12.62	109.67	20.37	-25.2	-26.0	17.5	0.00e+00	0	43	0	817889280	11	3977
2026-01-18 11:13:15.63	109.23	20.70	-25.2	-26.1	17.5	0.00e+00	0	43	0	834666496	11	3997
2026-01-18 11:13:18.64	108.78	21.04	-25.0	-25.7	17.7	0.00e+00	0	43	0	851443712	11	3897
2026-01-18 11:13:21.65	108.32	21.37	-25.0	-25.7	17.7	0.00e+00	0	43	0	868220928	11	3889
2026-01-18 11:13:24.66	107.85	21.71	-24.7	-25.5	18.1	0.00e+00	0	43	0	884998144	10	3959
2026-01-18 11:13:27.66	107.37	22.05	-24.5	-25.2	18.2	0.00e+00	0	43	0	901775360	10	3879
2026-01-18 11:13:30.67	106.88	22.40	-24.6	-25.3	18.2	0.00e+00	0	43	0	918552576	10	3906
2026-01-18 11:13:33.68	106.38	22.74	-24.8	-25.8	18.0	0.00e+00	0	43	0	935329792	10	4034
2026-01-18 11:13:36.69	105.86	23.09	-24.8	-25.7	18.0	0.00e+00	0	43	0	953155584	10	4008
2026-01-18 11:13:39.69	105.34	23.44	-24.6	-25.2	18.3	0.00e+00	0	43	0	969932800	10	3890
2026-01-18 11:13:42.70	104.80	23.79	-24.6	-25.3	18.3	0.00e+00	0	43	0	986710016	10	3907
2026-01-18 11:13:45.71	104.25	24.15	-24.7	-25.5	18.1	0.00e+00	0	43	0	1003487232	10	3952
2026-01-18 11:13:48.72	103.69	24.51	-24.6	-25.4	18.2	0.00e+00	0	43	0	1020264448	10	3944
2026-01-18 11:13:51.73	103.12	24.86	-24.8	-25.8	18.0	0.00e+00	0	43	0	1037041664	10	4038
2026-01-18 11:13:54.73	102.53	25.22	-24.2	-25.0	18.7	0.00e+00	0	43	0	1053818880	9	3947
2026-01-18 11:13:57.74	101.93	25.59	-24.1	-24.8	18.7	0.00e+00	0	43	0	1070596096	9	3908
2026-01-18 11:14:00.75	101.31	25.95	-24.0	-24.5	18.9	0.00e+00	0	43	0	1088421888	9	3822
2026-01-18 11:14:03.76	100.68	26.31	-24.0	-24.7	18.8	0.00e+00	0	43	0	1105199104	9	3862
2026-01-18 11:14:06.77	100.03	26.68	-24.1	-24.8	18.8	0.00e+00	0	43	0	1121976320	9	3890
2026-01-18 11:14:09.78	99.37	27.04	-24.0	-24.6	18.9	0.00e+00	0	43	0	1138753536	9	3841
2026-01-18 11:14:12.79	98.70	27.41	-23.9	-24.3	19.1	0.00e+00	0	43	0	1155530752	9	3787
2026-01-18 11:14:15.79	98.01	27.78	-23.9	-24.4	19.0	0.00e+00	0	43	0	1172307968	9	3809
2026-01-18 11:14:18.79	97.30	28.14	-23.9	-24.3	19.1	0.00e+00	0	43	0	1189085184	9	3770
2026-01-18 11:14:21.79	96.58	28.51	-23.8	-24.5	19.2	0.00e+00	0	43	0	1205862400	8	3939
2026-01-18 11:14:24.80	95.84	28.87	-24.0	-25.0	19.0	0.00e+00	0	43	0	1223688192	8	4046
2026-01-18 11:14:27.82	95.07	29.24	-24.0	-25.0	19.0	0.00e+00	0	43	0	1240465408	8	4042
2026-01-18 11:14:30.83	94.30	29.61	-24.0	-25.0	19.0	0.00e+00	0	43	0	1257242624	8	4053
2026-01-18 11:14:33.84	93.50	29.97	-23.8	-24.7	19.2	0.00e+00	0	43	0	1274019840	8	3971
2026-01-18 11:14:36.85	92.69	30.33	-23.7	-24.5	19.3	0.00e+00	0	43	0	1290797056	8	3919
2026-01-18 11:14:39.87	91.86	30.69	-23.7	-24.5	19.3	0.00e+00	0	43	0	1308622848	8	3920
2026-01-18 11:14:42.88	91.01	31.05	-23.8	-24.6	19.2	0.00e+00	0	43	0	1325400064	8	3948
2026-01-18 11:14:45.88	90.14	31.40	-23.6	-24.2	19.5	0.00e+00	0	43	0	1342177280	8	3847
2026-01-18 11:14:48.89	89.25	31.75	-23.7	-24.4	19.3	0.00e+00	0	43	0	1358954496	8	3914
2026-01-18 11:14:51.91	88.34	32.10	-23.4	-23.8	19.6	0.00e+00	0	43	0	1375731712	8	3775
2026-01-18 11:14:54.91	87.42	32.44	-23.3	-24.2	19.7	0.00e+00	0	43	0	1392508928	7	3948
2026-01-18 11:14:57.93	86.47	32.78	-23.4	-24.2	19.7	0.00e+00	0	43	0	1409286144	7	3976
2026-01-18 11:15:00.94	85.50	33.11	-23.3	-24.0	19.7	0.00e+00	0	43	0	1426063360	7	3930
2026-01-18 11:15:03.95	84.52	33.44	-23.4	-24.2	19.7	0.00e+00	0	43	0	1443889152	7	3968
2026-01-18 11:15:06.96	83.51	33.76	-23.5	-24.6	19.5	0.00e+00	0	43	0	1460666368	7	4057
2026-01-18 11:15:09.97	82.48	34.07	-23.3	-24.1	19.8	0.00e+00	0	43	0	1477443584	7	3950
2026-01-18 11:15:12.97	81.44	34.37	-23.3	-24.0	19.8	0.00e+00	0	43	0	1494220800	7	3918
2026-01-18 11:15:15.99	80.37	34.67	-23.5	-24.4	19.6	0.00e+00	0	43	0	1510998016	7	4022
2026-01-18 11:15:19.01	79.28	34.96	-23.3	-24.0	19.8	0.00e+00	0	43	0	1528823808	7	3903
2026-01-18 11:15:22.02	78.18	35.24	-23.4	-24.2	19.7	0.00e+00	0	43	0	1545601024	7	3964
2026-01-18 11:15:25.03	77.06	35.51	-23.6	-24.7	19.5	0.00e+00	0	43	0	1562378240	7	4093
2026-01-18 11:15:28.04	75.92	35.77	-23.4	-24.4	19.6	0.00e+00	0	43	0	1579155456	7	4011
2026-01-18 11:15:31.04	74.76	36.01	-23.1	-23.7	20.0	0.00e+00	0	43	0	1595932672	7	3852
2026-01-18 11:15:34.05	73.59	36.25	-23.2	-23.8	19.9	0.00e+00	0	43	0	1612709888	7	3860
2026-01-18 11:15:37.05	72.40	36.47	-23.3	-24.0	19.8	0.00e+00	0	43	0	1629487104	7	3919
2026-01-18 11:15:40.07	71.19	36.68	-23.0	-23.4	20.1	0.00e+00	0	43	0	1647312896	7	3785
2026-01-18 11:15:43.08	69.96	36.88	-23.2	-24.0	19.9	0.00e+00	0	43	0	1664090112	7	3906
2026-01-18 11:15:46.08	68.73	37.06	-23.2	-23.8	20.0	0.00e+00	0	43	0	1680867328	7	3866
2026-01-18 11:15:49.08	67.48	37.23	-23.1	-23.7	20.0	0.00e+00	0	43	0	1697644544	7	3855
2026-01-18 11:15:52.09	66.22	37.38	-23.2	-23.8	20.2	0.00e+00	0	43	0	1714421760	7	3851
2026-01-18 11:15:55.09	64.95	37.52	-23.6	-24.6	19.8	0.00e+00	0	43	0	1731198976	7	4040
2026-01-18 11:15:58.11	63.66	37.64	-23.5	-24.4	19.8	0.00e+00	0	43	0	1747976192	7	3994
2026-01-18 11:16:01.13	62.36	37.75	-23.6	-24.7	19.7	0.00e+00	0	43	0	1764753408	7	4065
2026-01-18 11:16:04.15	61.05	37.84	-23.5	-24.5	19.9	0.00e+00	0	43	0	1782579200	7	4011
2026-01-18 11:16:07.15	59.75	37.91	-23.3	-24.1	20.1	0.00e+00	0	43	0	1799356416	7	3917
2026-01-18 11:16:10.15	58.44	37.96	-23.2	-23.7	20.2	0.00e+00	0	43	0	1816133632	7	3826
2026-01-18 11:16:13.16	57.12	38.00	-23.5	-24.5	19.8	0.00e+00	0	43	0	1832910848	7	4017
2026-01-18 11:16:16.16	55.81	38.02	-23.6	-24.6	19.8	0.00e+00	0	43	0	1849688064	7	4037
2026-01-18 11:16:19.18	54.48	38.03	-23.7	-24.8	19.7	0.00e+00	0	43	0	1866465280	7	4089
2026-01-18 11:16:22.20	53.16	38.02	-23.2	-23.7	20.2	0.00e+00	0	43	0	1883242496	7	3829
2026-01-18 11:16:25.21	51.84	37.99	-23.3	-24.0	20.1	0.00e+00	0	43	0	1900019712	7	3895
2026-01-18 11:16:28.22	50.52	37.94	-23.3	-24.0	20.1	0.00e+00	0	43	0	1917845504	7	3909
2026-01-18 11:16:31.23	49.21	37.87	-23.5	-24.3	19.9	0.00e+00	0	43	0	1934622720	7	3971
2026-01-18 11:16:34.25	47.90	37.79	-23.7	-24.8	19.7	0.00e+00	0	43	0	1951399936	7	4096
2026-01-18 11:16:37.27	46.60	37.69	-23.3	-24.0	20.1	0.00e+00	0	43	0	1968177152	7	3909
2026-01-18 11:16:40.28	45.31	37.58	-23.3	-24.0	20.1	0.00e+00	0	44	0	1984954368	7	3897
2026-01-18 11:16:43.28	44.04	37.45	-22.9	-23.1	20.5	0.00e+00	0	43	0	2002780160	7	3703
2026-01-18 11:16:46.29	42.77	37.30	-22.7	-23.3	20.7	0.00e+00	0	43	0	2019557376	6	3847
2026-01-18 11:16:49.31	41.51	37.14	-22.9	-23.6	20.5	0.00e+00	0	43	0	2036334592	6	3923
2026-01-18 11:16:52.31	40.27	36.96	-23.2	-24.3	20.2	0.00e+00	0	43	0	2053111808	6	4089
2026-01-18 11:16:55.31	39.05	36.77	-23.2	-24.2	20.2	0.00e+00	0	43	0	2069889024	6	4057
2026-01-18 11:16:58.33	37.83	36.57	-23.0	-23.9	20.3	0.00e+00	0	43	0	2086666240	6	3986
2026-01-18 11:17:01.34	36.63	36.35	-23.0	-23.8	20.4	0.00e+00	0	43	0	2103443456	6	3964
2026-01-18 11:17:04.35	35.45	36.12	-23.0	-23.9	20.3	0.00e+00	0	43	0	2120220672	6	3995
2026-01-18 11:17:07.36	34.29	35.88	-23.3	-24.6	20.0	0.00e+00	0	43	0	2138046464	6	4151
2026-01-18 11:17:10.37	33.14	35.63	-23.2	-24.4	20.1	0.00e+00	0	43	0	2154823680	6	4096
2026-01-18 11:17:13.38	32.01	35.37	-23.2	-24.2	20.2	0.00e+00	0	43	0	2171600896	6	4063
2026-01-18 11:17:16.38	30.91	35.09	-23.1	-24.0	20.3	0.00e+00	0	43	0	2188378112	6	4020
2026-01-18 11:17:19.38	29.82	34.81	-22.9	-23.7	20.5	0.00e+00	0	43	0	2205155328	6	3933
2026-01-18 11:17:22.40	28.74	34.52	-23.0	-24.0	20.3	0.00e+00	0	43	0	2221932544	6	4007
2026-01-18 11:17:25.42	27.69	34.22	-23.0	-24.0	20.3	0.00e+00	0	43	0	2239758336	6	4000
2026-01-18 11:17:28.43	26.66	33.91	-23.0	-23.8	20.3	0.00e+00	0	43	0	2256535552	6	3968
2026-01-18 11:17:31.44	25.64	33.59	-23.3	-24.5	20.0	0.00e+00	0	43	0	2273312768	6	4131
2026-01-18 11:17:34.45	24.65	33.27	-23.2	-24.3	20.1	0.00e+00	0	43	0	2290089984	6	4075
2026-01-18 11:17:37.46	23.68	32.94	-23.1	-24.1	20.2	0.00e+00	0	43	0	2306867200	6	4032
2026-01-18 11:17:40.46	22.73	32.61	-23.3	-24.5	19.9	0.00e+00	0	43	0	2323644416	6	4132
2026-01-18 11:17:43.47	21.80	32.27	-23.5	-24.5	19.7	0.00e+00	0	43	0	2340421632	7	4015
2026-01-18 11:17:46.48	20.88	31.93	-23.7	-24.9	19.5	0.00e+00	0	43	0	2358247424	7	4108
2026-01-18 11:17:49.49	19.99	31.58	-23.2	-23.8	20.1	0.00e+00	0	43	0	2375024640	7	3844
2026-01-18 11:17:52.50	19.11	31.23	-23.4	-24.3	19.8	0.00e+00	0	43	0	2391801856	7	3972
2026-01-18 11:17:55.51	18.26	30.87	-23.2	-23.7	20.1	0.00e+00	0	43	0	2408579072	7	3831
2026-01-18 11:17:58.52	17.42	30.52	-23.4	-24.3	19.8	0.00e+00	0	43	0	2425356288	7	3966
2026-01-18 11:18:01.54	16.60	30.16	-23.3	-24.0	19.9	0.00e+00	0	43	0	2442133504	7	3893
2026-01-18 11:18:04.55	15.80	29.80	-23.5	-24.3	19.7	0.00e+00	0	43	0	2458910720	7	3987
2026-01-18 11:18:07.56	15.02	29.43	-23.5	-24.4	19.7	0.00e+00	0	43	0	2475687936	7	3997
2026-01-18 11:18:10.57	14.25	29.07	-23.6	-24.6	19.6	0.00e+00	0	43	0	2493513728	7	4045
2026-01-18 11:18:13.58	13.50	28.70	-23.4	-24.3	19.7	0.00e+00	0	43	0	2510290944	7	3963
2026-01-18 11:18:16.59	12.77	28.34	-23.5	-24.4	19.7	0.00e+00	0	43	0	2527068160	7	3993
2026-01-18 11:18:19.60	12.06	27.97	-23.5	-24.4	19.6	0.00e+00	0	43	0	2543845376	7	3997
2026-01-18 11:18:22.60	11.37	27.61	-23.6	-24.6	19.5	0.00e+00	0	43	0	2560622592	7	4061
2026-01-18 11:18:25.62	10.68	27.24	-23.7	-24.8	19.4	0.00e+00	0	43	0	2578448384	7	4081
2026-01-18 11:18:28.63	10.02	26.88	-23.8	-24.6	19.2	0.00e+00	0	43	0	2595225600	8	3946
2026-01-18 11:18:31.64	9.37	26.51	-24.1	-25.1	19.0	0.00e+00	0	43	0	2612002816	8	4063
2026-01-18 11:18:34.65	8.73	26.15	-23.9	-24.8	19.2	0.00e+00	0	43	0	2628780032	8	3981
2026-01-18 11:18:37.65	8.11	25.79	-24.0	-25.1	19.0	0.00e+00	0	43	0	2645557248	8	4052
2026-01-18 11:18:40.66	7.51	25.43	-24.0	-25.0	19.0	0.00e+00	0	43	0	2662334464	8	4033
2026-01-18 11:18:43.66	6.92	25.07	-24.3	-25.6	18.7	0.00e+00	0	43	0	2679111680	8	4178
2026-01-18 11:18:46.67	6.34	24.71	-23.8	-24.6	19.2	0.00e+00	0	43	0	2695888896	8	3946
2026-01-18 11:18:49.68	5.77	24.36	-23.9	-24.7	19.2	0.00e+00	0	43	0	2713714688	8	3958
2026-01-18 11:18:52.68	5.22	24.00	-24.0	-24.9	19.0	0.00e+00	0	43	0	2730491904	8	4019
2026-01-18 11:18:55.70	4.68	23.65	-24.0	-25.0	19.0	0.00e+00	0	43	0	2747269120	8	4038
2026-01-18 11:18:58.70	4.15	23.30	-24.2	-25.3	18.8	0.00e+00	0	43	0	2764046336	8	4121
2026-01-18 11:19:01.71	3.63	22.95	-24.2	-25.4	18.7	0.00e+00	0	43	0	2780823552	8	4135
2026-01-18 11:19:04.72	3.13	22.61	-24.3	-25.6	18.6	0.00e+00	0	43	0	2797600768	8	4192
2026-01-18 11:19:07.74	2.63	22.26	-24.4	-25.9	18.5	0.00e+00	0	43	0	2814377984	8	4259
2026-01-18 11:19:10.74	2.15	21.92	-24.6	-25.7	18.3	0.00e+00	0	43	0	2832203776	9	4087
2026-01-18 11:19:13.74	1.68	21.58	-24.5	-25.0	18.4	0.00e+00	0	43	0	2848980992	10	3814
2026-01-18 11:19:16.74	1.22	21.25	-24.3	-25.2	18.5	0.00e+00	0	43	0	2865758208	9	3980
2026-01-18 11:19:19.75	0.77	20.91	-24.6	-25.7	18.3	0.00e+00	0	43	0	2882535424	9	4105
2026-01-18 11:19:22.77	0.33	20.58	-24.6	-25.8	18.2	0.00e+00	0	43	0	2899312640	9	4124
2026-01-18 11:19:25.78	359.90	20.25	-24.6	-25.7	18.3	0.00e+00	0	43	0	2916089856	9	4091
2026-01-18 11:19:28.78	359.48	19.93	-24.5	-25.6	18.3	0.00e+00	0	43	0	2932867072	9	4067
2026-01-18 11:19:31.79	359.06	19.60	-24.5	-25.6	18.3	0.00e+00	0	43	0	2949644288	9	4084
2026-01-18 11:19:34.78	358.66	19.28	-24.9	-26.3	17.9	0.00e+00	0	43	0	2967470080	9	4263
2026-01-18 11:19:37.80	358.26	18.96	-25.0	-26.2	17.7	0.00e+00	0	43	0	2984247296	10	4109
2026-01-18 11:19:40.80	357.88	18.65	-25.1	-26.3	17.7	0.00e+00	0	43	0	3001024512	10	4143
2026-01-18 11:19:43.80	357.50	18.34	-25.3	-26.7	17.4	0.00e+00	0	43	0	3017801728	10	4253
2026-01-18 11:19:46.81	357.13	18.03	-24.9	-25.8	17.9	0.00e+00	0	43	0	3034578944	10	4019
2026-01-18 11:19:49.83	356.76	17.72	-24.9	-26.0	17.8	0.00e+00	0	43	0	3051356160	10	4054
2026-01-18 11:19:52.83	356.41	17.41	-25.1	-26.3	17.6	0.00e+00	0	43	0	3068133376	10	4148
2026-01-18 11:19:55.85	356.06	17.11	-25.4	-27.1	17.2	0.00e+00	0	43	0	3084910592	10	4357
2026-01-18 11:19:58.86	355.71	16.81	-25.5	-27.1	17.1	0.00e+00	0	43	0	3102736384	10	4351
2026-01-18 11:20:01.87	355.38	16.51	-25.5	-26.7	17.1	0.00e+00	0	43	0	3119513600	11	4124
2026-01-18 11:20:04.87	355.05	16.22	-25.5	-26.7	17.0	0.00e+00	0	43	0	3136290816	11	4140
2026-01-18 11:20:07.87	354.73	15.93	-25.6	-26.9	17.0	0.00e+00	0	43	0	3153068032	11	4185
2026-01-18 11:20:10.89	354.41	15.64	-25.7	-27.1	16.8	0.00e+00	0	43	0	3169845248	11	4246
2026-01-18 11:20:13.90	354.11	15.35	-25.8	-27.3	16.7	0.00e+00	0	43	0	3186622464	11	4279
2026-01-18 11:20:16.90	353.80	15.07	-25.8	-27.3	16.7	0.00e+00	0	43	0	3203399680	11	4301
2026-01-18 11:20:19.90	353.51	14.78	-26.0	-27.7	16.5	0.00e+00	0	43	0	3220176896	11	4412
2026-01-18 11:20:22.91	353.22	14.50	-25.9	-27.2	16.4	0.00e+00	0	43	0	3238002688	12	4156
2026-01-18 11:20:25.92	352.93	14.23	-26.0	-27.3	16.3	0.00e+00	0	43	0	3254779904	12	4178
2026-01-18 11:20:28.93	352.65	13.95	-26.0	-27.3	16.3	0.00e+00	0	43	0	3271557120	12	4180
2026-01-18 11:20:31.95	352.37	13.68	-26.2	-27.6	16.1	0.00e+00	0	43	0	3288334336	12	4273
2026-01-18 11:20:34.96	352.10	13.41	-26.1	-27.6	16.1	0.00e+00	0	43	0	3305111552	12	4270
2026-01-18 11:20:37.97	351.84	13.14	-26.2	-27.6	16.0	0.00e+00	0	43	0	3322937344	12	4271
2026-01-18 11:20:40.98	351.58	12.88	-26.1	-27.6	16.1	0.00e+00	0	43	0	3339714560	12	4262
2026-01-18 11:20:43.98	351.33	12.61	-26.3	-27.9	15.9	0.00e+00	0	43	0	3356491776	12	4335
2026-01-18 11:20:47.01	351.07	12.35	-26.4	-28.3	15.7	0.00e+00	0	43	0	3373268992	12	4442
2026-01-18 11:20:50.01	350.83	12.09	-26.9	-28.7	15.1	0.00e+00	0	43	0	3390046208	13	4460
2026-01-18 11:20:53.01	350.59	11.84	-26.4	-27.8	15.6	0.00e+00	0	43	0	3406823424	13	4200
2026-01-18 11:20:56.03	350.35	11.58	-26.4	-27.7	15.7	0.00e+00	0	43	0	3423600640	13	4170
2026-01-18 11:20:59.03	350.12	11.33	-26.4	-27.7	15.6	0.00e+00	0	43	0	3440377856	13	4187
2026-01-18 11:21:02.05	349.89	11.08	-26.6	-28.1	15.4	0.00e+00	0	43	0	3458203648	13	4277
2026-01-18 11:21:05.07	349.66	10.83	-26.5	-28.0	15.4	0.00e+00	0	43	0	3474980864	13	4277
2026-01-18 11:21:08.07	349.44	10.59	-26.7	-28.4	15.2	0.00e+00	0	43	0	3491758080	13	4373
2026-01-18 11:21:11.08	349.23	10.34	-26.7	-28.4	15.2	0.00e+00	0	43	0	3508535296	13	4379
2026-01-18 11:21:14.08	349.02	10.10	-26.8	-28.7	15.0	0.00e+00	0	43	0	3525312512	13	4450
2026-01-18 11:21:17.09	348.81	9.86	-26.8	-28.6	15.0	0.00e+00	0	43	0	3542089728	13	4448
2026-01-18 11:21:20.10	348.60	9.62	-27.2	-29.1	14.5	1.10e-06	0	43	0	3558866944	14	4464
2026-01-18 11:21:23.12	348.40	9.39	-27.1	-28.8	14.6	0.00e+00	0	43	0	3576692736	14	4367
2026-01-18 11:21:26.14	348.20	9.15	-27.2	-29.1	14.4	0.00e+00	0	43	0	3593469952	14	4482
2026-01-18 11:21:29.14	348.00	8.92	-27.5	-29.3	14.0	0.00e+00	0	43	0	3610247168	15	4426
2026-01-18 11:21:32.14	347.81	8.69	-27.2	-28.5	14.4	0.00e+00	0	43	0	3627024384	15	4198
2026-01-18 11:21:35.15	347.62	8.46	-27.3	-28.8	14.2	0.00e+00	0	43	0	3643801600	15	4278
2026-01-18 11:21:38.18	347.44	8.23	-27.2	-28.5	14.4	0.00e+00	0	43	0	3660578816	15	4205
2026-01-18 11:21:41.19	347.25	8.01	-27.3	-28.9	14.1	0.00e+00	0	43	0	3678404608	15	4301
2026-01-18 11:21:44.21	347.07	7.78	-27.4	-28.9	14.1	2.20e-06	0	43	0	3695181824	15	4312
2026-01-18 11:21:47.21	346.90	7.56	-27.5	-29.2	13.9	0.00e+00	0	43	0	3711959040	15	4385
2026-01-18 11:21:50.21	346.72	7.34	-27.7	-29.8	13.5	4.50e-06	0	43	0	3728736256	15	4569
2026-01-18 11:21:53.21	346.55	7.12	-29.0	-31.8	12.1	5.70e-06	0	43	0	3745513472	17	4966

#Closed at: 2026-01-18 11:21:56
#Recorded file [3746 MB]: D:/data/31010_260118_141047.dat