passes_logs/2026/01/18/R2M6_AANII_01/R2M6_AANII_01__20260118_041830_AQUA_rec.log

#Pass ID: 20260118_041830_AQUA
#Satellite: AQUA
#Configuration: AQUA
#almurnet v.1.7.20240730
#Start time: 2026-01-18 04:18:30

#Version: 2.2.20231116
#Station: R2M6_AANII_01
#Location: 30.233357 lon 59.946436 lat
#TLE: 1 27424U 02022A   26017.29152041  .00000842  00000+0  17841-3 0  9992
#TLE: 2 27424  98.4085 343.7574 0002011  75.4099  30.6811 14.61825797261228

#Time	Az	El	Level	Level2	SNR	BER	BlckErr	Temp	State	Recorded	gain1	gain2
2026-01-18 04:18:30.17	2.37	6.98	-33.4	-52.1	3.8	7.43e-01	0	40	0	0	27	30962
2026-01-18 04:18:32.17	2.10	7.09	-32.7	-48.8	3.8	7.44e-01	0	40	104	0	26	22772
2026-01-18 04:18:34.18	1.83	7.21	-32.9	-49.4	3.8	7.44e-01	0	40	104	0	26	24144
2026-01-18 04:18:36.19	1.56	7.32	-33.2	-50.1	3.8	7.43e-01	0	40	104	0	27	25413
2026-01-18 04:18:38.19	1.28	7.43	-33.2	-50.2	3.8	7.48e-01	0	40	104	0	27	25442
2026-01-18 04:18:40.20	1.00	7.54	-33.1	-49.4	3.8	7.48e-01	0	40	104	0	27	23701
2026-01-18 04:18:42.20	0.72	7.65	-32.7	-48.3	3.8	7.44e-01	0	40	104	0	26	21717
2026-01-18 04:18:44.21	0.44	7.76	-32.9	-48.8	3.8	7.46e-01	0	40	104	0	26	22613
2026-01-18 04:18:46.20	0.16	7.88	-32.3	-46.6	3.8	7.48e-01	0	40	104	0	26	18656
2026-01-18 04:18:48.21	359.87	7.99	-32.0	-46.0	3.8	7.42e-01	0	40	104	0	25	18133
2026-01-18 04:18:50.21	359.58	8.10	-31.6	-45.3	3.8	7.46e-01	0	41	104	0	24	17461
2026-01-18 04:18:52.23	359.29	8.21	-32.0	-46.5	3.8	7.45e-01	0	41	104	0	24	19215
2026-01-18 04:18:54.24	358.99	8.32	-32.4	-47.4	3.8	7.42e-01	0	41	104	0	25	20391
2026-01-18 04:18:56.24	358.70	8.43	-32.8	-48.5	3.8	7.43e-01	0	41	104	0	26	21997
2026-01-18 04:18:58.25	358.40	8.54	-32.6	-47.8	3.8	7.44e-01	0	41	104	0	26	20735
2026-01-18 04:19:00.26	358.10	8.66	-32.6	-47.7	3.8	7.45e-01	0	41	104	0	26	20584
2026-01-18 04:19:02.27	357.79	8.77	-32.6	-47.9	3.8	7.43e-01	0	41	104	0	26	20986
2026-01-18 04:19:04.27	357.48	8.88	-33.0	-49.7	3.8	7.47e-01	0	41	104	0	26	24516
2026-01-18 04:19:06.29	357.17	8.99	-33.3	-50.4	3.8	7.47e-01	0	41	104	0	27	25908
2026-01-18 04:19:08.30	356.86	9.10	-33.4	-51.1	3.8	7.44e-01	0	41	104	0	27	27777
2026-01-18 04:19:10.30	356.54	9.21	-33.3	-50.6	3.8	7.46e-01	0	41	104	0	27	26442
2026-01-18 04:19:12.31	356.23	9.32	-33.3	-50.5	3.8	7.47e-01	0	41	104	0	27	26097
2026-01-18 04:19:14.30	355.91	9.42	-33.3	-50.5	3.8	7.45e-01	0	41	104	0	27	26094
2026-01-18 04:19:16.31	355.59	9.53	-33.3	-50.3	3.8	7.44e-01	0	41	104	0	27	25495
2026-01-18 04:19:18.33	355.26	9.64	-33.2	-49.9	3.8	7.47e-01	0	41	104	0	27	24617
2026-01-18 04:19:20.32	354.93	9.75	-33.0	-48.7	3.8	7.43e-01	0	41	104	0	27	22051
2026-01-18 04:19:22.33	354.60	9.86	-33.1	-48.9	3.8	7.45e-01	0	41	104	0	27	22394
2026-01-18 04:19:24.34	354.27	9.97	-33.3	-50.3	3.8	7.44e-01	0	41	104	0	27	25480
2026-01-18 04:19:26.36	353.93	10.07	-33.5	-51.3	3.8	7.47e-01	0	41	104	0	27	27994
2026-01-18 04:19:28.36	353.59	10.18	-33.4	-50.3	3.8	7.49e-01	0	41	104	0	27	25418
2026-01-18 04:19:30.36	353.25	10.29	-33.2	-49.4	3.8	7.45e-01	0	41	104	0	27	23355
2026-01-18 04:19:32.37	352.90	10.39	-33.2	-49.2	3.8	7.44e-01	0	41	104	0	27	22709
2026-01-18 04:19:34.37	352.56	10.50	-32.6	-47.5	3.8	7.48e-01	0	41	104	0	26	19907
2026-01-18 04:19:36.38	352.21	10.60	-32.1	-46.2	3.8	7.49e-01	0	41	104	0	25	18221
2026-01-18 04:19:38.40	351.85	10.71	-31.4	-44.5	3.8	7.44e-01	0	42	104	0	24	16263
2026-01-18 04:19:40.41	351.49	10.81	-31.0	-44.0	3.8	7.43e-01	0	41	104	0	23	15958
2026-01-18 04:19:42.41	351.14	10.92	-31.4	-45.1	3.8	7.42e-01	0	42	104	0	23	17408
2026-01-18 04:19:44.42	350.77	11.02	-32.1	-46.6	3.8	7.44e-01	0	42	104	0	24	19218
2026-01-18 04:19:46.43	350.41	11.12	-32.5	-47.5	3.8	7.44e-01	0	42	104	0	25	20284
2026-01-18 04:19:48.44	350.04	11.22	-32.4	-47.1	3.8	7.45e-01	0	42	104	0	25	19565
2026-01-18 04:19:50.44	349.67	11.33	-32.3	-47.0	3.8	7.48e-01	0	41	104	0	25	19458
2026-01-18 04:19:52.46	349.30	11.43	-32.5	-47.5	3.8	7.46e-01	0	42	104	0	25	20203
2026-01-18 04:19:54.47	348.92	11.53	-33.0	-48.9	3.8	7.43e-01	0	42	104	0	26	22469
2026-01-18 04:19:56.48	348.54	11.63	-33.3	-50.0	3.8	7.47e-01	0	42	104	0	27	24476
2026-01-18 04:19:58.49	348.16	11.73	-33.5	-50.7	3.8	7.46e-01	0	42	104	0	27	26273
2026-01-18 04:20:00.50	347.78	11.82	-33.4	-50.5	3.8	7.43e-01	0	42	104	0	27	25720
2026-01-18 04:20:02.51	347.39	11.92	-33.4	-50.3	3.8	7.45e-01	0	42	104	0	27	25103
2026-01-18 04:20:04.51	347.00	12.02	-33.4	-50.4	3.8	7.42e-01	0	42	104	0	27	25457
2026-01-18 04:20:06.52	346.61	12.11	-33.5	-50.6	3.8	7.44e-01	0	42	104	0	27	25820
2026-01-18 04:20:08.53	346.21	12.21	-33.4	-50.3	3.8	7.46e-01	0	42	104	0	27	25086
2026-01-18 04:20:10.55	345.81	12.30	-33.2	-49.0	3.8	7.42e-01	0	42	104	0	27	22371
2026-01-18 04:20:12.55	345.41	12.39	-33.3	-49.8	3.8	7.46e-01	0	42	104	0	27	24096
2026-01-18 04:20:14.56	345.01	12.49	-33.4	-50.1	3.8	7.46e-01	0	42	104	0	28	24624
2026-01-18 04:20:16.57	344.60	12.58	-33.2	-49.0	3.8	7.44e-01	0	42	104	0	27	22292
2026-01-18 04:20:18.57	344.19	12.67	-32.7	-47.8	3.8	7.46e-01	0	42	104	0	26	20393
2026-01-18 04:20:20.57	343.78	12.75	-32.3	-46.9	3.8	7.42e-01	0	42	104	0	25	19249
2026-01-18 04:20:22.58	343.37	12.84	-32.2	-46.4	3.8	7.49e-01	0	42	104	0	25	18482
2026-01-18 04:20:24.59	342.95	12.93	-31.7	-44.7	3.8	7.46e-01	0	42	104	0	25	16114
2026-01-18 04:20:26.59	342.53	13.02	-31.1	-44.1	3.8	7.45e-01	0	42	104	0	23	16091
2026-01-18 04:20:28.60	342.11	13.10	-30.8	-43.6	3.8	7.46e-01	0	42	104	0	22	15819
2026-01-18 04:20:30.62	341.68	13.18	-30.7	-43.4	3.8	7.48e-01	0	42	104	0	22	15590
2026-01-18 04:20:32.62	341.26	13.27	-31.0	-44.4	3.8	7.42e-01	0	42	104	0	22	16746
2026-01-18 04:20:34.62	340.83	13.35	-31.7	-45.2	3.8	7.47e-01	0	42	104	0	24	17049
2026-01-18 04:20:36.62	340.40	13.43	-32.0	-37.5	15.1	6.04e-01	0	42	0	0	24	6735
2026-01-18 04:20:38.63	339.96	13.51	-32.0	-37.2	15.3	6.01e-01	0	42	0	4194304	24	6550
2026-01-18 04:20:40.63	339.52	13.58	-32.0	-37.2	15.3	6.03e-01	0	42	0	7864320	24	6581
2026-01-18 04:20:42.64	339.08	13.66	-32.0	-37.5	15.1	6.01e-01	0	42	0	11534336	24	6730
2026-01-18 04:20:44.65	338.64	13.73	-31.5	-35.6	16.4	6.00e-01	0	42	0	15204352	24	5773
2026-01-18 04:20:46.66	338.19	13.81	-31.0	-34.4	17.5	6.00e-01	0	42	0	18874368	23	5372
2026-01-18 04:20:48.66	337.75	13.88	-30.9	-34.3	17.6	6.00e-01	0	42	0	22544384	23	5338
2026-01-18 04:20:50.66	337.30	13.95	-31.1	-34.7	17.4	6.00e-01	0	42	0	26214400	23	5494
2026-01-18 04:20:52.67	336.85	14.02	-30.7	-34.1	18.1	6.00e-01	0	42	0	30408704	22	5364
2026-01-18 04:20:54.67	336.39	14.09	-30.8	-34.5	17.9	5.99e-01	0	42	0	34078720	22	5519
2026-01-18 04:20:56.69	335.94	14.15	-30.6	-34.4	18.2	6.00e-01	0	42	0	37748736	21	5599
2026-01-18 04:20:58.70	335.48	14.22	-30.8	-34.6	17.7	6.00e-01	0	42	0	41418752	22	5573
2026-01-18 04:21:00.71	335.01	14.28	-30.5	-33.7	18.4	6.01e-01	0	42	0	45088768	22	5181
2026-01-18 04:21:02.71	334.55	14.34	-30.3	-33.6	18.7	6.01e-01	0	42	0	49283072	21	5279
2026-01-18 04:21:04.71	334.09	14.40	-30.5	-34.1	18.4	5.99e-01	0	42	0	52953088	21	5475
2026-01-18 04:21:06.72	333.62	14.46	-30.5	-34.2	18.3	6.01e-01	0	42	0	56623104	21	5487
2026-01-18 04:21:08.71	333.16	14.52	-30.3	-33.6	18.7	6.00e-01	0	42	0	60293120	21	5267
2026-01-18 04:21:10.71	332.69	14.57	-30.2	-33.4	18.9	6.00e-01	0	42	0	63963136	21	5203
2026-01-18 04:21:12.71	332.21	14.62	-30.3	-33.6	18.8	6.01e-01	0	42	0	67633152	21	5269
2026-01-18 04:21:14.71	331.74	14.68	-30.4	-33.8	18.6	6.03e-01	0	42	0	71303168	21	5332
2026-01-18 04:21:16.72	331.26	14.73	-30.3	-33.6	18.7	6.02e-01	0	42	0	75497472	21	5272
2026-01-18 04:21:18.72	330.79	14.77	-30.2	-33.4	18.9	6.00e-01	0	42	0	79167488	21	5189
2026-01-18 04:21:20.73	330.31	14.82	-30.3	-33.7	18.7	6.03e-01	0	42	0	82837504	21	5304
2026-01-18 04:21:22.74	329.82	14.86	-30.2	-33.3	18.9	6.02e-01	0	42	0	86507520	21	5162
2026-01-18 04:21:24.73	329.35	14.91	-30.3	-33.6	18.8	6.03e-01	0	42	0	90177536	21	5274
2026-01-18 04:21:26.74	328.86	14.95	-30.3	-33.6	18.7	5.99e-01	0	42	0	94371840	21	5283
2026-01-18 04:21:28.74	328.38	14.99	-30.3	-33.5	18.8	6.01e-01	0	42	0	98041856	21	5229
2026-01-18 04:21:30.74	327.89	15.02	-30.3	-33.6	18.8	6.01e-01	0	42	0	101711872	21	5257
2026-01-18 04:21:32.74	327.40	15.06	-30.3	-33.5	18.9	5.98e-01	0	42	0	105381888	21	5232
2026-01-18 04:21:34.75	326.91	15.09	-30.3	-33.6	18.8	5.99e-01	0	42	0	109051904	21	5255
2026-01-18 04:21:36.76	326.42	15.12	-30.3	-33.6	18.8	6.00e-01	0	42	0	112721920	21	5250
2026-01-18 04:21:38.77	325.93	15.15	-30.4	-33.9	18.5	6.01e-01	0	42	0	116916224	21	5394
2026-01-18 04:21:40.77	325.44	15.18	-30.4	-33.9	18.6	6.02e-01	0	42	0	120586240	21	5372
2026-01-18 04:21:42.78	324.94	15.20	-30.3	-33.7	18.7	6.01e-01	0	42	0	124256256	21	5302
2026-01-18 04:21:44.78	324.45	15.23	-30.3	-33.6	18.8	6.01e-01	0	42	0	127926272	21	5251
2026-01-18 04:21:46.79	323.95	15.25	-30.6	-33.8	18.3	6.00e-01	0	42	0	131596288	22	5223
2026-01-18 04:21:48.79	323.46	15.27	-30.5	-34.1	18.4	5.98e-01	0	42	0	135266304	21	5460
2026-01-18 04:21:50.78	322.97	15.28	-30.9	-34.7	17.8	5.99e-01	0	42	0	139460608	22	5578
2026-01-18 04:21:52.79	322.47	15.30	-30.9	-34.7	17.8	6.00e-01	0	42	0	143130624	22	5575
2026-01-18 04:21:54.79	321.97	15.31	-31.0	-35.0	17.6	6.02e-01	0	42	0	146800640	22	5710
2026-01-18 04:21:56.79	321.48	15.32	-31.0	-34.7	17.4	6.02e-01	0	42	0	150470656	23	5460
2026-01-18 04:21:58.79	320.98	15.33	-31.1	-34.9	17.3	5.99e-01	0	42	0	154140672	23	5555
2026-01-18 04:22:00.80	320.48	15.34	-30.9	-34.8	17.8	6.02e-01	0	42	0	157810688	22	5630
2026-01-18 04:22:02.81	319.98	15.34	-31.2	-35.0	17.2	6.02e-01	0	42	0	161480704	23	5617
2026-01-18 04:22:04.81	319.48	15.35	-31.1	-34.9	17.4	6.01e-01	0	42	0	165675008	23	5560
2026-01-18 04:22:06.81	318.98	15.35	-31.0	-34.5	17.6	6.00e-01	0	42	0	169345024	23	5407
2026-01-18 04:22:08.82	318.48	15.34	-31.2	-35.1	17.2	6.01e-01	0	42	0	173015040	23	5643
2026-01-18 04:22:10.83	317.98	15.34	-31.0	-34.7	17.5	6.01e-01	0	42	0	176685056	23	5467
2026-01-18 04:22:12.85	317.48	15.34	-31.5	-36.0	16.6	6.02e-01	0	42	0	180355072	23	6073
2026-01-18 04:22:14.85	316.98	15.33	-30.9	-34.2	17.7	6.04e-01	0	42	0	184549376	23	5281
2026-01-18 04:22:16.85	316.48	15.32	-31.4	-35.7	16.7	6.02e-01	0	42	0	188219392	23	5908
2026-01-18 04:22:18.85	315.99	15.31	-31.0	-34.7	17.4	6.02e-01	0	42	0	191889408	23	5463
2026-01-18 04:22:20.86	315.49	15.29	-30.9	-34.2	17.7	6.00e-01	0	42	0	195559424	23	5270
2026-01-18 04:22:22.87	314.99	15.28	-30.8	-34.3	18.0	5.99e-01	0	42	0	199229440	22	5430
2026-01-18 04:22:24.87	314.49	15.26	-30.9	-34.2	17.8	5.99e-01	0	42	0	203423744	23	5275
2026-01-18 04:22:26.88	314.00	15.24	-30.9	-34.7	17.8	6.00e-01	0	42	0	207093760	22	5602
2026-01-18 04:22:28.88	313.50	15.22	-31.0	-34.7	17.5	6.01e-01	0	42	0	210763776	23	5455
2026-01-18 04:22:30.89	313.01	15.19	-31.0	-35.0	17.6	6.00e-01	0	42	0	214433792	22	5711
2026-01-18 04:22:32.89	312.52	15.17	-31.3	-35.4	17.0	6.00e-01	0	42	0	218103808	23	5803
2026-01-18 04:22:34.90	312.02	15.14	-31.4	-35.9	16.6	5.99e-01	0	42	0	221773824	23	6042
2026-01-18 04:22:36.90	311.53	15.11	-31.1	-34.8	17.3	6.02e-01	0	42	0	225443840	23	5527
2026-01-18 04:22:38.91	311.04	15.08	-31.5	-36.2	16.5	6.00e-01	0	42	0	229638144	23	6165
2026-01-18 04:22:40.92	310.55	15.04	-31.0	-35.0	17.5	6.01e-01	0	42	0	233308160	22	5734
2026-01-18 04:22:42.94	310.06	15.01	-31.4	-35.8	16.7	6.03e-01	0	42	0	236978176	23	5947
2026-01-18 04:22:44.96	309.57	14.97	-30.7	-33.7	18.0	6.01e-01	0	42	0	240648192	23	5098
2026-01-18 04:22:46.96	309.08	14.93	-30.8	-34.5	17.9	6.02e-01	0	42	0	244318208	22	5495
2026-01-18 04:22:48.96	308.60	14.89	-31.1	-35.3	17.4	5.99e-01	0	42	0	248512512	22	5846
2026-01-18 04:22:50.95	308.12	14.84	-31.0	-35.1	17.4	6.01e-01	0	42	0	252182528	22	5774
2026-01-18 04:22:52.96	307.64	14.80	-30.7	-34.3	18.0	6.00e-01	0	43	0	255852544	22	5432
2026-01-18 04:22:54.97	307.16	14.75	-30.8	-34.4	17.9	6.01e-01	0	43	0	259522560	22	5476
2026-01-18 04:22:56.96	306.68	14.70	-30.8	-33.9	17.9	6.01e-01	0	42	0	263192576	23	5178
2026-01-18 04:22:58.97	306.21	14.65	-30.8	-34.4	17.9	6.00e-01	0	42	0	266862592	22	5464
2026-01-18 04:23:00.98	305.73	14.60	-30.3	-33.3	18.5	6.02e-01	0	42	0	271056896	22	5037
2026-01-18 04:23:02.98	305.26	14.55	-30.2	-33.5	18.7	6.01e-01	0	43	0	274726912	21	5238
2026-01-18 04:23:04.99	304.79	14.49	-30.6	-34.1	18.0	6.02e-01	0	42	0	278396928	22	5356
2026-01-18 04:23:06.99	304.32	14.43	-30.6	-34.2	18.1	6.03e-01	0	43	0	282066944	22	5443
2026-01-18 04:23:09.00	303.85	14.37	-30.3	-33.6	18.7	6.01e-01	0	43	0	285736960	21	5276
2026-01-18 04:23:11.01	303.39	14.31	-29.7	-32.1	19.6	6.03e-01	0	43	0	289406976	21	4727
2026-01-18 04:23:13.02	302.92	14.25	-29.8	-32.4	19.3	6.01e-01	0	42	0	293601280	21	4836
2026-01-18 04:23:15.03	302.46	14.19	-30.2	-33.5	18.5	6.04e-01	0	42	0	297271296	21	5260
2026-01-18 04:23:17.03	302.00	14.12	-30.3	-33.7	18.6	6.01e-01	0	42	0	300941312	21	5329
2026-01-18 04:23:19.04	301.55	14.05	-29.9	-33.1	19.3	6.00e-01	0	42	0	304611328	20	5203
2026-01-18 04:23:21.04	301.09	13.99	-29.8	-32.2	19.3	5.99e-01	0	42	0	308281344	21	4769
2026-01-18 04:23:23.04	300.64	13.92	-30.5	-33.9	18.0	6.02e-01	0	42	0	311951360	22	5278
2026-01-18 04:23:25.05	300.19	13.84	-30.6	-34.1	17.9	6.03e-01	0	42	0	316145664	22	5390
2026-01-18 04:23:27.06	299.74	13.77	-30.2	-33.3	18.8	6.02e-01	0	43	0	319815680	21	5191
2026-01-18 04:23:29.06	299.30	13.70	-30.0	-33.0	18.9	6.00e-01	0	42	0	323485696	21	5060
2026-01-18 04:23:31.07	298.86	13.62	-30.7	-34.4	17.7	6.01e-01	0	42	0	327155712	22	5490
2026-01-18 04:23:33.08	298.42	13.54	-30.4	-34.1	18.2	6.04e-01	0	42	0	330825728	21	5519
2026-01-18 04:23:35.10	297.98	13.47	-30.4	-34.0	18.3	6.02e-01	0	42	0	335020032	21	5464
2026-01-18 04:23:37.10	297.54	13.39	-30.2	-33.3	18.7	6.01e-01	0	42	0	338690048	21	5197
2026-01-18 04:23:39.10	297.11	13.31	-30.2	-33.4	18.7	6.01e-01	0	42	0	342360064	21	5200
2026-01-18 04:23:41.10	296.68	13.22	-30.3	-33.1	18.5	6.01e-01	0	43	0	346030080	22	4993
2026-01-18 04:23:43.11	296.25	13.14	-30.2	-33.4	18.7	6.02e-01	0	42	0	349700096	21	5222
2026-01-18 04:23:45.12	295.83	13.06	-30.1	-33.3	18.7	6.00e-01	0	42	0	353370112	21	5184
2026-01-18 04:23:47.12	295.41	12.97	-30.2	-33.4	18.6	6.02e-01	0	43	0	357564416	21	5227
2026-01-18 04:23:49.13	294.99	12.88	-30.6	-34.6	17.9	6.02e-01	0	43	0	361234432	21	5682
2026-01-18 04:23:51.13	294.57	12.80	-30.0	-33.0	18.9	6.02e-01	0	43	0	364904448	21	5079
2026-01-18 04:23:53.14	294.16	12.71	-30.2	-33.5	18.6	6.01e-01	0	42	0	368574464	21	5262
2026-01-18 04:23:55.14	293.75	12.62	-30.0	-33.0	18.9	6.00e-01	0	42	0	372244480	21	5054
2026-01-18 04:23:57.14	293.34	12.53	-30.4	-34.2	18.1	6.00e-01	0	42	0	375914496	21	5538
2026-01-18 04:23:59.15	292.93	12.44	-30.5	-34.3	18.0	6.01e-01	0	42	0	380108800	21	5601
2026-01-18 04:24:01.16	292.53	12.34	-30.2	-33.5	18.5	6.01e-01	0	42	0	383778816	21	5268
2026-01-18 04:24:03.16	292.13	12.25	-30.5	-34.4	17.9	6.00e-01	0	43	0	387448832	21	5641
2026-01-18 04:24:05.17	291.73	12.16	-30.7	-34.3	17.8	6.03e-01	0	42	0	391118848	22	5467
2026-01-18 04:24:07.18	291.33	12.06	-30.4	-33.4	18.3	6.02e-01	0	42	0	394788864	22	5113
2026-01-18 04:24:09.19	290.94	11.96	-31.0	-35.2	17.1	5.99e-01	0	42	0	398983168	22	5881
2026-01-18 04:24:11.20	290.55	11.87	-30.3	-33.2	18.3	6.03e-01	0	43	0	402653184	22	5050
2026-01-18 04:24:13.20	290.16	11.77	-30.7	-34.5	17.4	6.01e-01	0	43	0	406323200	22	5586
2026-01-18 04:24:15.21	289.78	11.67	-30.1	-32.8	18.6	6.02e-01	0	43	0	409993216	22	4901
2026-01-18 04:24:17.22	289.40	11.57	-30.5	-33.9	17.8	5.99e-01	0	42	0	413663232	22	5321
2026-01-18 04:24:19.22	289.02	11.47	-30.3	-33.9	18.2	6.00e-01	0	43	0	417333248	21	5426
2026-01-18 04:24:21.23	288.64	11.37	-30.0	-32.9	18.8	6.01e-01	0	42	0	421527552	21	5027
2026-01-18 04:24:23.24	288.27	11.27	-30.5	-34.4	17.9	6.00e-01	0	43	0	425197568	21	5655
2026-01-18 04:24:25.26	287.90	11.17	-30.0	-33.0	18.7	6.01e-01	0	43	0	428867584	21	5077
2026-01-18 04:24:27.26	287.53	11.07	-30.2	-33.7	18.3	6.00e-01	0	42	0	432537600	21	5360
2026-01-18 04:24:29.27	287.17	10.96	-30.1	-33.2	18.6	6.02e-01	0	42	0	436207616	21	5175
2026-01-18 04:24:31.28	286.80	10.86	-30.3	-33.9	18.2	6.00e-01	0	42	0	440401920	21	5437
2026-01-18 04:24:33.28	286.45	10.76	-30.2	-33.5	18.4	6.00e-01	0	43	0	444071936	21	5277
2026-01-18 04:24:35.28	286.09	10.65	-30.2	-33.5	18.4	6.01e-01	0	43	0	447741952	21	5305
2026-01-18 04:24:37.30	285.74	10.55	-30.3	-34.0	18.0	6.01e-01	0	42	0	451411968	21	5484
2026-01-18 04:24:39.30	285.39	10.44	-30.1	-33.4	18.4	6.01e-01	0	43	0	455081984	21	5255
2026-01-18 04:24:41.30	285.04	10.33	-30.3	-33.8	18.1	6.00e-01	0	43	0	458752000	21	5409
2026-01-18 04:24:43.31	284.69	10.23	-30.3	-33.8	18.1	6.02e-01	0	43	0	462422016	21	5406
2026-01-18 04:24:45.32	284.35	10.12	-30.2	-33.6	18.2	6.01e-01	0	43	0	466616320	21	5346
2026-01-18 04:24:47.32	284.01	10.01	-30.4	-34.2	17.8	6.02e-01	0	43	0	470286336	21	5576
2026-01-18 04:24:49.33	283.67	9.91	-30.2	-33.7	18.1	5.99e-01	0	42	0	473956352	21	5390
2026-01-18 04:24:51.34	283.34	9.80	-29.2	-32.9	18.1	6.03e-01	0	42	0	477626368	21	5480
2026-01-18 04:24:53.34	283.01	9.69	-30.3	-34.0	17.9	6.02e-01	0	42	0	481296384	21	5519
2026-01-18 04:24:55.34	282.68	9.58	-30.3	-34.4	17.7	6.02e-01	0	42	0	485490688	20	5759
2026-01-18 04:24:57.35	282.35	9.47	-30.3	-34.1	17.1	6.06e-01	0	42	0	489160704	21	5571
2026-01-18 04:24:59.36	282.03	9.36	-30.4	-34.3	17.7	6.00e-01	0	43	0	492830720	21	5654
2026-01-18 04:25:01.36	281.71	9.25	-30.3	-34.0	17.0	6.04e-01	0	43	0	496500736	21	5514
2026-01-18 04:25:03.37	281.39	9.14	-30.2	-33.6	17.5	6.05e-01	0	43	0	500170752	21	5344
2026-01-18 04:25:05.37	281.08	9.03	-30.3	-34.0	17.9	6.00e-01	0	43	0	504365056	21	5534
2026-01-18 04:25:07.37	280.77	8.92	-30.5	-34.6	17.4	6.02e-01	0	42	0	508035072	21	5751
2026-01-18 04:25:09.38	280.45	8.81	-30.5	-34.6	17.3	6.02e-01	0	42	0	511705088	21	5796
2026-01-18 04:25:11.39	280.15	8.70	-30.6	-34.8	17.3	6.01e-01	0	43	0	515375104	21	5878
2026-01-18 04:25:13.40	279.84	8.59	-31.0	-35.7	16.3	6.00e-01	0	43	0	519045120	22	6165
2026-01-18 04:25:15.41	279.54	8.48	-30.7	-34.8	17.0	6.00e-01	0	42	0	522715136	22	5751
2026-01-18 04:25:17.42	279.24	8.37	-30.8	-35.0	16.8	5.99e-01	0	42	0	526385152	22	5826
2026-01-18 04:25:19.43	278.94	8.25	-30.8	-35.0	16.8	6.02e-01	0	43	0	530579456	22	5847
2026-01-18 04:25:21.43	278.64	8.14	-30.7	-34.6	17.1	6.00e-01	0	42	0	534249472	22	5688
2026-01-18 04:25:23.44	278.35	8.03	-30.4	-33.9	17.5	5.99e-01	0	43	0	537919488	22	5381
2026-01-18 04:25:25.44	278.06	7.92	-30.5	-34.7	17.3	6.04e-01	0	43	0	541589504	21	5814
2026-01-18 04:25:27.45	277.77	7.81	-30.4	-34.4	17.4	5.99e-01	0	42	0	545259520	21	5723
2026-01-18 04:25:29.46	277.49	7.70	-30.5	-34.8	17.2	6.02e-01	0	43	0	549453824	21	5891
2026-01-18 04:25:31.47	277.20	7.58	-30.4	-34.5	17.3	5.98e-01	0	42	0	553123840	21	5760
2026-01-18 04:25:33.48	276.92	7.47	-30.4	-34.5	17.3	6.02e-01	0	43	0	556793856	21	5754
2026-01-18 04:25:35.49	276.65	7.36	-30.6	-34.5	17.0	6.03e-01	0	43	0	560463872	22	5630
2026-01-18 04:25:37.49	276.37	7.25	-30.6	-34.4	17.0	6.00e-01	0	43	0	564133888	22	5602
2026-01-18 04:25:39.50	276.10	7.13	-30.5	-34.2	17.1	6.01e-01	0	43	0	567803904	22	5507
2026-01-18 04:25:41.50	275.83	7.02	-33.7	-53.0	3.8	7.44e-01	0	43	104	569901056	28	33104

#Closed at: 2026-01-18 04:25:43
#Recorded file [569 MB]: D:/data/31010_260118_072036.dat