passes_logs/2026/01/18/R2M6_AANII_01/R2M6_AANII_01__20260118_085253_NOAA_20_JPSS-1_rec.log

#Pass ID: 20260118_085253_NOAA 20 (JPSS-1)
#Satellite: NOAA 20 (JPSS-1)
#Configuration: NOAA 20
#almurnet v.1.7.20240730
#Start time: 2026-01-18 08:52:55

#Version: 2.2.20231116
#Station: R2M6_AANII_01
#Location: 30.233357 lon 59.946436 lat
#TLE: 1 43013U 17073A   26017.30359522  .00000067  00000+0  52526-4 0  9990
#TLE: 2 43013  98.7639 318.2187 0001419  36.2087 323.9184 14.19536557423067

#Time	Az	El	Level	Level2	SNR	BER	BlckErr	Temp	State	Recorded	gain1	gain2
2026-01-18 08:52:55.14	115.57	7.13	-32.3	-38.8	4.7	1.32e+00	0	40	0	0	26	7635
2026-01-18 08:52:58.14	115.35	7.35	-32.2	-38.8	7.0	1.57e-01	0	40	0	1048576	25	7625
2026-01-18 08:53:01.15	115.14	7.56	-32.1	-37.9	7.8	9.85e-02	0	40	0	7340032	25	7025
2026-01-18 08:53:04.16	114.92	7.77	-32.2	-38.5	7.3	1.55e-01	0	40	0	12582912	25	7404
2026-01-18 08:53:07.17	114.69	7.99	-31.8	-36.6	9.1	3.60e-02	0	40	0	17825792	24	6251
2026-01-18 08:53:10.18	114.46	8.21	-31.4	-35.5	10.2	7.77e-03	0	40	0	24117248	24	5726
2026-01-18 08:53:13.19	114.23	8.43	-31.3	-35.0	10.5	4.27e-03	0	41	0	29360128	24	5531
2026-01-18 08:53:16.19	114.00	8.65	-31.3	-35.3	10.7	3.58e-03	0	40	0	35651584	23	5740
2026-01-18 08:53:19.20	113.76	8.87	-31.2	-35.1	10.9	2.82e-03	0	41	0	40894464	23	5654
2026-01-18 08:53:22.21	113.52	9.09	-31.2	-35.0	11.0	2.13e-03	0	41	0	46137344	23	5600
2026-01-18 08:53:25.21	113.27	9.32	-31.3	-35.3	10.8	2.50e-03	0	41	0	52428800	23	5730
2026-01-18 08:53:28.22	113.02	9.54	-31.4	-35.7	10.6	3.68e-03	0	41	0	57671680	23	5890
2026-01-18 08:53:31.23	112.77	9.77	-31.3	-35.5	10.7	2.46e-03	0	41	0	62914560	23	5785
2026-01-18 08:53:34.24	112.51	10.00	-31.0	-34.4	11.6	6.14e-04	0	41	0	69206016	23	5329
2026-01-18 08:53:37.25	112.25	10.23	-31.0	-34.3	11.6	9.56e-04	0	41	0	74448896	23	5286
2026-01-18 08:53:40.27	111.98	10.46	-30.9	-34.1	11.9	6.21e-04	0	41	0	80740352	23	5162
2026-01-18 08:53:43.27	111.71	10.70	-31.1	-34.4	11.6	5.27e-04	0	41	0	85983232	23	5301
2026-01-18 08:53:46.28	111.44	10.93	-31.0	-34.3	11.8	5.22e-04	0	41	0	91226112	23	5237
2026-01-18 08:53:49.28	111.16	11.17	-31.1	-34.4	11.8	5.04e-04	0	41	0	97517568	23	5265
2026-01-18 08:53:52.29	110.87	11.41	-31.1	-34.5	11.7	5.21e-04	0	41	0	102760448	23	5317
2026-01-18 08:53:55.30	110.58	11.65	-31.0	-34.1	12.0	4.33e-04	0	41	0	109051904	23	5160
2026-01-18 08:53:58.30	110.29	11.89	-30.9	-34.0	12.1	3.22e-04	0	41	0	114294784	23	5110
2026-01-18 08:54:01.31	109.99	12.14	-31.1	-34.6	11.7	4.56e-04	0	41	0	119537664	23	5349
2026-01-18 08:54:04.31	109.68	12.38	-31.1	-34.4	11.8	4.97e-04	0	41	0	125829120	23	5294
2026-01-18 08:54:07.33	109.37	12.63	-31.1	-34.4	11.8	4.53e-04	0	41	0	131072000	23	5258
2026-01-18 08:54:10.34	109.06	12.88	-31.1	-34.4	11.9	5.04e-04	0	41	0	136314880	23	5254
2026-01-18 08:54:13.36	108.74	13.13	-31.1	-34.4	11.9	4.06e-04	0	41	0	142606336	23	5271
2026-01-18 08:54:16.37	108.41	13.38	-31.1	-34.6	11.8	6.16e-04	0	41	0	147849216	23	5327
2026-01-18 08:54:19.37	108.08	13.63	-31.1	-34.5	11.8	4.97e-04	0	42	0	154140672	23	5306
2026-01-18 08:54:22.37	107.74	13.89	-31.1	-34.4	11.9	5.02e-04	0	42	0	159383552	23	5276
2026-01-18 08:54:25.38	107.40	14.15	-31.1	-34.5	11.9	4.56e-04	0	42	0	164626432	23	5289
2026-01-18 08:54:28.39	107.05	14.41	-31.2	-34.6	11.8	4.02e-04	0	42	0	170917888	23	5326
2026-01-18 08:54:31.39	106.69	14.67	-31.0	-34.2	12.1	2.53e-04	0	42	0	176160768	23	5169
2026-01-18 08:54:34.41	106.33	14.93	-31.1	-34.2	12.1	3.81e-04	0	42	0	181403648	23	5176
2026-01-18 08:54:37.41	105.96	15.19	-31.0	-34.2	12.1	2.27e-04	0	42	0	187695104	23	5182
2026-01-18 08:54:40.41	105.58	15.46	-31.1	-34.4	12.0	4.12e-04	0	42	0	192937984	23	5262
2026-01-18 08:54:43.43	105.20	15.73	-31.1	-34.3	12.1	2.58e-04	0	42	0	199229440	23	5215
2026-01-18 08:54:46.44	104.81	15.99	-31.0	-34.0	12.3	1.92e-04	0	42	0	204472320	23	5099
2026-01-18 08:54:49.46	104.41	16.27	-31.1	-34.2	12.3	1.54e-04	0	42	0	209715200	23	5151
2026-01-18 08:54:52.46	104.01	16.54	-30.8	-33.5	12.7	7.93e-05	0	42	0	216006656	23	4890
2026-01-18 08:54:55.46	103.59	16.81	-30.8	-34.0	12.8	6.86e-05	0	42	0	221249536	22	5160
2026-01-18 08:54:58.47	103.17	17.09	-30.7	-33.6	13.0	4.65e-05	0	42	0	226492416	22	5037
2026-01-18 08:55:01.47	102.75	17.36	-30.7	-33.6	13.0	4.27e-05	0	42	0	232783872	22	5031
2026-01-18 08:55:04.48	102.31	17.64	-30.7	-33.7	13.0	4.42e-05	0	42	0	238026752	22	5047
2026-01-18 08:55:07.49	101.87	17.92	-30.8	-33.7	13.1	2.67e-05	0	42	0	244318208	22	5047
2026-01-18 08:55:10.50	101.41	18.20	-30.7	-33.6	13.2	2.51e-05	0	42	0	249561088	22	4994
2026-01-18 08:55:13.51	100.95	18.48	-30.7	-33.6	13.2	2.05e-05	0	42	0	254803968	22	5012
2026-01-18 08:55:16.51	100.49	18.76	-30.8	-33.7	13.1	3.35e-05	0	42	0	261095424	22	5050
2026-01-18 08:55:19.52	100.01	19.05	-30.7	-33.4	13.3	2.05e-05	0	42	0	266338304	22	4951
2026-01-18 08:55:22.53	99.52	19.33	-30.6	-33.3	13.4	1.83e-05	0	42	0	272629760	22	4895
2026-01-18 08:55:25.52	99.02	19.62	-30.8	-33.6	13.2	2.28e-05	0	42	0	277872640	22	5013
2026-01-18 08:55:28.53	98.52	19.91	-30.9	-34.1	13.0	5.95e-05	0	42	0	283115520	22	5171
2026-01-18 08:55:31.53	98.00	20.20	-31.0	-34.4	12.8	6.17e-05	0	42	0	289406976	22	5289
2026-01-18 08:55:34.54	97.48	20.49	-31.0	-34.3	12.8	7.17e-05	0	42	0	294649856	22	5271
2026-01-18 08:55:37.56	96.94	20.78	-31.2	-34.8	12.5	1.01e-04	0	42	0	299892736	22	5458
2026-01-18 08:55:40.57	96.39	21.07	-31.2	-34.7	12.6	9.23e-05	0	42	0	306184192	22	5412
2026-01-18 08:55:43.57	95.83	21.36	-31.1	-34.7	12.6	9.46e-05	0	42	0	311427072	22	5396
2026-01-18 08:55:46.58	95.27	21.65	-31.1	-34.7	12.6	1.28e-04	0	42	0	317718528	22	5405
2026-01-18 08:55:49.59	94.69	21.94	-30.9	-33.9	13.1	3.43e-05	0	42	0	322961408	22	5108
2026-01-18 08:55:52.60	94.10	22.23	-30.9	-34.0	13.0	4.50e-05	0	42	0	328204288	22	5153
2026-01-18 08:55:55.61	93.49	22.53	-30.8	-33.7	13.3	1.75e-05	0	42	0	334495744	22	5014
2026-01-18 08:55:58.61	92.88	22.82	-30.7	-33.3	13.5	9.10e-06	0	42	0	339738624	22	4886
2026-01-18 08:56:01.62	92.26	23.11	-30.7	-33.4	13.5	9.10e-06	0	42	0	344981504	22	4902
2026-01-18 08:56:04.62	91.62	23.40	-30.4	-32.6	14.0	0.00e+00	0	42	0	351272960	22	4622
2026-01-18 08:56:07.63	90.98	23.69	-30.3	-32.8	14.2	3.80e-06	0	42	0	356515840	21	4816
2026-01-18 08:56:10.64	90.31	23.98	-30.4	-33.1	14.1	1.50e-06	0	42	0	362807296	21	4889
2026-01-18 08:56:13.65	89.64	24.27	-30.4	-33.1	14.0	2.20e-06	0	42	0	368050176	21	4916
2026-01-18 08:56:16.66	88.96	24.56	-30.4	-32.9	14.2	1.50e-06	0	42	0	373293056	21	4842
2026-01-18 08:56:19.67	88.26	24.84	-30.4	-32.9	14.2	1.50e-06	0	42	0	379584512	21	4834
2026-01-18 08:56:22.67	87.55	25.13	-30.3	-32.7	14.4	0.00e+00	0	42	0	384827392	21	4748
2026-01-18 08:56:25.68	86.82	25.41	-30.4	-32.9	14.3	0.00e+00	0	42	0	390070272	21	4816
2026-01-18 08:56:28.70	86.08	25.69	-30.3	-32.7	14.3	1.50e-06	0	42	0	396361728	21	4764
2026-01-18 08:56:31.70	85.34	25.97	-30.7	-33.8	13.6	3.80e-06	0	42	0	401604608	21	5168
2026-01-18 08:56:34.71	84.57	26.25	-30.9	-34.3	13.3	1.67e-05	0	42	0	407896064	21	5339
2026-01-18 08:56:37.73	83.79	26.52	-30.8	-34.1	13.5	7.60e-06	0	42	0	413138944	21	5260
2026-01-18 08:56:40.73	83.00	26.79	-30.8	-34.1	13.5	8.30e-06	0	42	0	418381824	21	5279
2026-01-18 08:56:43.74	82.20	27.05	-31.2	-34.8	12.7	9.76e-05	0	42	0	424673280	22	5420
2026-01-18 08:56:46.75	81.38	27.32	-31.1	-34.4	13.1	2.82e-05	0	42	0	429916160	22	5254
2026-01-18 08:56:49.75	80.55	27.57	-31.2	-34.6	12.9	4.19e-05	0	42	0	436207616	22	5320
2026-01-18 08:56:52.77	79.71	27.83	-31.2	-34.6	12.9	3.20e-05	0	42	0	441450496	22	5336
2026-01-18 08:56:55.78	78.85	28.08	-31.3	-35.0	12.6	6.40e-05	0	42	0	446693376	22	5498
2026-01-18 08:56:58.78	77.98	28.32	-31.5	-35.0	12.3	1.46e-04	0	42	0	452984832	23	5390
2026-01-18 08:57:01.80	77.09	28.56	-31.5	-35.0	12.3	1.75e-04	0	42	0	458227712	23	5378
2026-01-18 08:57:04.81	76.19	28.79	-31.7	-35.5	12.0	2.71e-04	0	42	0	463470592	23	5572
2026-01-18 08:57:07.82	75.28	29.02	-31.4	-34.5	12.6	1.09e-04	0	42	0	469762048	23	5192
2026-01-18 08:57:10.82	74.36	29.24	-31.5	-35.1	12.2	2.43e-04	0	42	0	475004928	23	5424
2026-01-18 08:57:13.83	73.43	29.45	-31.4	-34.6	12.7	7.85e-05	0	42	0	481296384	23	5240
2026-01-18 08:57:16.84	72.48	29.66	-31.5	-35.0	12.4	7.93e-05	0	42	0	486539264	23	5377
2026-01-18 08:57:19.84	71.52	29.86	-31.3	-34.4	12.8	6.25e-05	0	42	0	491782144	23	5136
2026-01-18 08:57:22.85	70.55	30.05	-31.5	-34.8	12.4	9.38e-05	0	42	0	498073600	23	5295
2026-01-18 08:57:25.86	69.57	30.23	-31.7	-35.5	12.0	2.84e-04	0	42	0	503316480	23	5599
2026-01-18 08:57:28.86	68.58	30.40	-31.9	-36.2	11.5	6.78e-04	0	42	0	508559360	23	5895
2026-01-18 08:57:31.87	67.57	30.57	-31.8	-35.8	11.9	4.19e-04	0	42	0	514850816	23	5710
2026-01-18 08:57:34.88	66.56	30.73	-31.6	-35.2	12.3	2.07e-04	0	42	0	520093696	23	5461
2026-01-18 08:57:37.88	65.54	30.87	-31.5	-35.1	12.4	1.74e-04	0	42	0	526385152	23	5395
2026-01-18 08:57:40.88	64.51	31.01	-31.5	-35.1	12.4	1.83e-04	0	42	0	531628032	23	5398
2026-01-18 08:57:43.89	63.46	31.14	-31.6	-35.1	12.3	1.33e-04	0	43	0	536870912	23	5411
2026-01-18 08:57:46.90	62.41	31.25	-31.5	-35.0	12.4	1.27e-04	0	42	0	543162368	23	5376
2026-01-18 08:57:49.91	61.36	31.36	-31.8	-35.7	11.9	3.70e-04	0	42	0	548405248	23	5669
2026-01-18 08:57:52.92	60.29	31.46	-31.7	-35.6	12.0	1.59e-04	0	42	0	553648128	23	5609
2026-01-18 08:57:55.93	59.23	31.54	-31.7	-35.4	12.1	2.46e-04	0	42	0	559939584	23	5529
2026-01-18 08:57:58.94	58.15	31.62	-31.9	-36.0	11.8	3.77e-04	0	42	0	565182464	23	5768
2026-01-18 08:58:01.94	57.08	31.68	-32.2	-36.4	11.1	1.48e-03	0	42	0	571473920	24	5867
2026-01-18 08:58:04.95	55.99	31.73	-32.1	-36.1	11.3	8.93e-04	0	42	0	576716800	24	5727
2026-01-18 08:58:07.96	54.91	31.77	-32.1	-36.1	11.3	1.28e-03	0	42	0	581959680	24	5713
2026-01-18 08:58:10.97	53.82	31.80	-32.1	-36.4	11.1	1.45e-03	0	42	0	588251136	24	5854
2026-01-18 08:58:13.98	52.73	31.81	-31.9	-35.7	11.7	8.08e-04	0	42	0	593494016	24	5526
2026-01-18 08:58:16.98	51.64	31.82	-31.8	-35.1	12.0	3.61e-04	0	42	0	598736896	24	5306
2026-01-18 08:58:19.99	50.55	31.81	-31.7	-35.0	12.1	3.15e-04	0	42	0	605028352	24	5274
2026-01-18 08:58:23.00	49.46	31.79	-31.8	-35.4	11.9	4.47e-04	0	42	0	610271232	24	5408
2026-01-18 08:58:26.02	48.37	31.76	-31.9	-35.6	11.7	6.20e-04	0	42	0	616562688	24	5503
2026-01-18 08:58:29.02	47.29	31.72	-32.0	-35.7	11.6	6.13e-04	0	43	0	621805568	24	5558
2026-01-18 08:58:32.03	46.21	31.67	-32.0	-35.9	11.5	7.99e-04	0	43	0	627048448	24	5657
2026-01-18 08:58:35.04	45.13	31.60	-32.1	-36.3	11.2	1.04e-03	0	42	0	633339904	24	5804
2026-01-18 08:58:38.04	44.06	31.53	-31.8	-35.4	11.9	6.03e-04	0	42	0	638582784	24	5416
2026-01-18 08:58:41.06	42.99	31.44	-31.6	-34.7	12.3	1.22e-04	0	42	0	644874240	24	5146
2026-01-18 08:58:44.06	41.94	31.34	-31.8	-35.4	11.8	5.13e-04	0	42	0	650117120	24	5426
2026-01-18 08:58:47.06	40.89	31.23	-31.8	-35.3	11.8	7.12e-04	0	42	0	655360000	24	5399
2026-01-18 08:58:50.07	39.84	31.11	-31.7	-35.0	12.0	2.37e-04	0	42	0	661651456	24	5271
2026-01-18 08:58:53.09	38.80	30.98	-32.0	-36.0	11.3	9.43e-04	0	42	0	666894336	24	5693
2026-01-18 08:58:56.10	37.77	30.85	-32.0	-35.9	11.4	1.17e-03	0	43	0	672137216	24	5656
2026-01-18 08:58:59.12	36.74	30.70	-31.9	-35.6	11.6	6.00e-04	0	42	0	678428672	24	5525
2026-01-18 08:59:02.14	35.73	30.54	-32.1	-36.2	11.2	1.31e-03	0	42	0	683671552	24	5802
2026-01-18 08:59:05.14	34.73	30.37	-32.1	-36.3	11.1	1.67e-03	0	42	0	689963008	24	5819
2026-01-18 08:59:08.15	33.74	30.20	-32.0	-36.0	11.3	1.62e-03	0	43	0	695205888	24	5720
2026-01-18 08:59:11.15	32.77	30.01	-32.1	-36.3	11.1	1.30e-03	0	42	0	700448768	24	5850
2026-01-18 08:59:14.17	31.80	29.82	-32.0	-36.0	11.3	1.05e-03	0	43	0	706740224	24	5726
2026-01-18 08:59:17.18	30.84	29.62	-32.0	-36.1	11.2	1.86e-03	0	42	0	711983104	24	5737
2026-01-18 08:59:20.18	29.90	29.41	-31.8	-35.5	11.6	5.87e-04	0	42	0	717225984	24	5474
2026-01-18 08:59:23.18	28.97	29.20	-31.8	-35.3	11.7	4.70e-04	0	42	0	723517440	24	5409
2026-01-18 08:59:26.19	28.05	28.98	-31.6	-34.9	12.0	3.44e-04	0	43	0	728760320	24	5238
2026-01-18 08:59:29.21	27.15	28.75	-31.7	-34.9	12.0	2.78e-04	0	43	0	735051776	24	5255
2026-01-18 08:59:32.21	26.26	28.52	-31.9	-35.6	11.5	8.29e-04	0	42	0	740294656	24	5526
2026-01-18 08:59:35.20	25.38	28.28	-32.0	-35.9	11.3	1.40e-03	0	43	0	745537536	24	5677
2026-01-18 08:59:38.21	24.52	28.04	-31.9	-35.6	11.5	7.33e-04	0	42	0	751828992	24	5552
2026-01-18 08:59:41.22	23.66	27.79	-31.8	-35.5	11.6	1.09e-03	0	43	0	757071872	24	5495
2026-01-18 08:59:44.22	22.83	27.54	-31.3	-33.9	12.6	1.07e-04	0	43	0	762314752	24	4871
2026-01-18 08:59:47.23	22.00	27.28	-31.4	-34.8	12.4	1.60e-04	0	42	0	768606208	23	5306
2026-01-18 08:59:50.23	21.19	27.02	-31.3	-34.4	12.7	1.04e-04	0	42	0	773849088	23	5140
2026-01-18 08:59:53.24	20.39	26.75	-31.2	-34.0	12.9	3.28e-05	0	42	0	780140544	23	5014
2026-01-18 08:59:56.24	19.61	26.48	-31.1	-33.8	13.1	4.27e-05	0	42	0	785383424	23	4918
2026-01-18 08:59:59.25	18.84	26.21	-30.8	-33.5	13.6	1.22e-05	0	42	0	790626304	22	4914
2026-01-18 09:00:02.26	18.08	25.94	-30.5	-32.7	14.0	3.00e-06	0	42	0	796917760	22	4660
2026-01-18 09:00:05.28	17.33	25.66	-30.5	-32.8	13.9	5.30e-06	0	42	0	802160640	22	4678
2026-01-18 09:00:08.29	16.60	25.38	-29.9	-31.8	14.9	0.00e+00	0	43	0	807403520	21	4462
2026-01-18 09:00:11.29	15.89	25.10	-29.7	-31.8	15.2	0.00e+00	0	42	0	813694976	20	4570
2026-01-18 09:00:14.30	15.18	24.81	-29.6	-31.5	15.3	0.00e+00	0	42	0	818937856	20	4479
2026-01-18 09:00:17.31	14.49	24.53	-29.4	-31.0	15.6	0.00e+00	0	42	0	825229312	20	4333
2026-01-18 09:00:20.32	13.81	24.24	-29.5	-31.3	15.5	0.00e+00	0	43	0	830472192	20	4406
2026-01-18 09:00:23.33	13.14	23.95	-29.2	-30.9	16.0	0.00e+00	0	43	0	835715072	19	4395
2026-01-18 09:00:26.34	12.48	23.66	-29.2	-30.9	16.0	0.00e+00	0	42	0	842006528	19	4396
2026-01-18 09:00:29.32	11.85	23.38	-29.2	-31.0	15.9	0.00e+00	0	42	0	847249408	19	4434
2026-01-18 09:00:32.34	11.21	23.09	-29.4	-31.5	15.6	0.00e+00	0	42	0	852492288	19	4589
2026-01-18 09:00:35.34	10.59	22.80	-29.3	-31.2	15.8	0.00e+00	0	43	0	858783744	19	4493
2026-01-18 09:00:38.35	9.99	22.51	-29.4	-31.6	15.6	0.00e+00	0	43	0	864026624	19	4626
2026-01-18 09:00:41.37	9.39	22.21	-29.7	-32.2	15.2	0.00e+00	0	42	0	870318080	19	4802
2026-01-18 09:00:44.38	8.80	21.92	-29.7	-32.1	15.2	0.00e+00	0	42	0	875560960	19	4791
2026-01-18 09:00:47.39	8.23	21.63	-29.7	-32.3	15.1	0.00e+00	0	43	0	880803840	19	4830
2026-01-18 09:00:50.39	7.67	21.34	-29.8	-32.5	15.0	0.00e+00	0	42	0	887095296	19	4909
2026-01-18 09:00:53.39	7.12	21.05	-29.9	-32.7	14.8	0.00e+00	0	42	0	892338176	19	4994
2026-01-18 09:00:56.38	6.58	20.76	-30.1	-32.9	14.3	7.00e-07	0	42	0	897581056	20	4958
2026-01-18 09:00:59.37	6.05	20.48	-30.1	-32.7	14.4	1.50e-06	0	42	0	903872512	20	4896
2026-01-18 09:01:02.36	5.53	20.19	-30.1	-32.9	14.3	1.50e-06	0	43	0	909115392	20	4963
2026-01-18 09:01:05.36	5.02	19.91	-30.2	-33.1	14.2	7.00e-07	0	42	0	915406848	20	5012
2026-01-18 09:01:08.38	4.51	19.62	-30.1	-32.8	14.3	0.00e+00	0	42	0	920649728	20	4922
2026-01-18 09:01:11.39	4.02	19.33	-30.2	-33.1	14.1	2.20e-06	0	42	0	925892608	20	5045
2026-01-18 09:01:14.39	3.54	19.05	-30.4	-33.6	13.8	3.00e-06	0	42	0	932184064	20	5213
2026-01-18 09:01:17.39	3.07	18.77	-30.6	-33.7	13.4	1.29e-05	0	42	0	937426944	21	5132
2026-01-18 09:01:20.40	2.60	18.48	-30.7	-33.9	13.2	1.83e-05	0	42	0	942669824	21	5241
2026-01-18 09:01:23.41	2.14	18.20	-30.8	-34.2	13.0	3.66e-05	0	43	0	948961280	21	5364
2026-01-18 09:01:26.43	1.69	17.92	-30.8	-34.3	13.0	5.79e-05	0	42	0	954204160	21	5377
2026-01-18 09:01:29.43	1.25	17.65	-30.8	-34.3	13.0	5.64e-05	0	42	0	960495616	21	5374
2026-01-18 09:01:32.43	0.82	17.37	-30.9	-34.7	12.7	6.94e-05	0	42	0	965738496	21	5535
2026-01-18 09:01:35.44	0.40	17.10	-31.0	-34.3	12.6	1.02e-04	0	43	0	970981376	22	5295
2026-01-18 09:01:38.44	359.99	16.82	-31.0	-34.5	12.5	1.49e-04	0	42	0	977272832	22	5351
2026-01-18 09:01:41.45	359.58	16.55	-31.0	-34.3	12.6	1.33e-04	0	43	0	982515712	22	5301
2026-01-18 09:01:44.46	359.18	16.28	-31.2	-35.0	12.0	2.91e-04	0	43	0	987758592	22	5596
2026-01-18 09:01:47.48	358.78	16.01	-31.2	-35.1	12.0	3.75e-04	0	42	0	994050048	22	5604
2026-01-18 09:01:50.48	358.40	15.74	-31.2	-35.1	12.0	2.29e-04	0	43	0	999292928	22	5601
2026-01-18 09:01:53.49	358.02	15.48	-31.0	-34.4	12.5	1.14e-04	0	43	0	1005584384	22	5317
2026-01-18 09:01:56.49	357.65	15.21	-31.0	-34.5	12.4	1.44e-04	0	42	0	1010827264	22	5373
2026-01-18 09:01:59.50	357.28	14.95	-31.0	-34.6	12.3	1.65e-04	0	42	0	1016070144	22	5405
2026-01-18 09:02:02.51	356.92	14.69	-31.1	-34.7	12.2	2.32e-04	0	43	0	1022361600	22	5446
2026-01-18 09:02:05.51	356.57	14.43	-31.0	-34.6	12.2	1.86e-04	0	43	0	1027604480	22	5436
2026-01-18 09:02:08.53	356.22	14.17	-31.1	-34.9	12.0	3.13e-04	0	43	0	1032847360	22	5539
2026-01-18 09:02:11.54	355.88	13.92	-31.3	-35.3	11.7	6.26e-04	0	43	0	1039138816	22	5735
2026-01-18 09:02:14.54	355.55	13.66	-31.3	-35.4	11.6	6.35e-04	0	43	0	1044381696	22	5794
2026-01-18 09:02:17.55	355.22	13.41	-31.3	-35.0	11.5	8.92e-04	0	42	0	1050673152	23	5493
2026-01-18 09:02:20.56	354.89	13.16	-31.3	-34.9	11.5	7.15e-04	0	43	0	1055916032	23	5484
2026-01-18 09:02:23.57	354.58	12.91	-31.2	-34.7	11.7	7.06e-04	0	43	0	1061158912	23	5368
2026-01-18 09:02:26.57	354.27	12.66	-31.0	-34.1	12.1	3.12e-04	0	43	0	1067450368	23	5142
2026-01-18 09:02:29.58	353.96	12.42	-31.1	-34.4	11.8	3.48e-04	0	43	0	1072693248	23	5258
2026-01-18 09:02:32.59	353.66	12.17	-31.1	-34.6	11.7	7.29e-04	0	43	0	1077936128	23	5333
2026-01-18 09:02:35.61	353.36	11.93	-31.1	-34.3	11.9	4.87e-04	0	43	0	1084227584	23	5231
2026-01-18 09:02:38.62	353.07	11.69	-31.1	-34.5	11.7	6.18e-04	0	43	0	1089470464	23	5331
2026-01-18 09:02:41.62	352.79	11.45	-31.3	-35.0	11.3	1.46e-03	0	43	0	1095761920	23	5547
2026-01-18 09:02:44.62	352.50	11.21	-31.3	-35.2	11.2	1.37e-03	0	43	0	1101004800	23	5605
2026-01-18 09:02:47.62	352.23	10.98	-31.4	-35.4	11.0	1.86e-03	0	43	0	1106247680	23	5736
2026-01-18 09:02:50.63	351.96	10.74	-31.5	-35.7	10.8	2.89e-03	0	43	0	1112539136	23	5840
2026-01-18 09:02:53.64	351.69	10.51	-31.4	-35.5	10.9	2.32e-03	0	43	0	1117782016	23	5751
2026-01-18 09:02:56.65	351.43	10.28	-31.3	-35.3	11.0	2.31e-03	0	43	0	1124073472	23	5690
2026-01-18 09:02:59.66	351.17	10.05	-31.3	-35.4	10.9	2.18e-03	0	43	0	1129316352	23	5729
2026-01-18 09:03:02.67	350.91	9.82	-31.4	-35.5	10.8	2.59e-03	0	43	0	1134559232	23	5774
2026-01-18 09:03:05.67	350.66	9.59	-31.5	-35.9	10.5	3.69e-03	0	42	0	1140850688	23	5973
2026-01-18 09:03:08.67	350.42	9.37	-31.5	-35.9	10.5	4.87e-03	0	43	0	1146093568	23	5972
2026-01-18 09:03:11.68	350.17	9.14	-31.6	-36.3	10.1	6.29e-03	0	43	0	1151336448	23	6189
2026-01-18 09:03:14.68	349.94	8.92	-31.6	-36.3	10.2	7.28e-03	0	43	0	1157627904	23	6173
2026-01-18 09:03:17.69	349.70	8.70	-31.7	-36.6	9.9	8.68e-03	0	43	0	1162870784	23	6330
2026-01-18 09:03:20.69	349.47	8.48	-31.7	-36.8	9.6	1.19e-02	0	43	0	1169162240	23	6455
2026-01-18 09:03:23.71	349.24	8.26	-31.8	-37.1	9.4	1.84e-02	0	43	0	1174405120	23	6629
2026-01-18 09:03:26.72	349.02	8.05	-31.9	-37.6	9.0	2.12e-02	0	43	0	1179648000	23	6948
2026-01-18 09:03:29.72	348.80	7.83	-31.9	-37.1	8.9	3.09e-02	0	43	0	1185939456	24	6594
2026-01-18 09:03:32.74	348.58	7.62	-32.0	-37.5	8.6	2.98e-02	0	43	0	1191182336	24	6796
2026-01-18 09:03:35.76	348.36	7.40	-31.9	-37.3	8.7	4.30e-02	0	43	0	1197473792	24	6697
2026-01-18 09:03:38.76	348.15	7.19	-31.8	-36.8	9.1	2.20e-02	0	43	0	1202716672	24	6401

#Closed at: 2026-01-18 09:03:41
#Recorded file [1205 MB]: D:/data/31010_260118_115257.dat