passes_logs/2026/01/18/R2M6_AANII_01/R2M6_AANII_01__20260118_083254_SUOMI_NPP_rec.log

#Pass ID: 20260118_083254_SUOMI NPP
#Satellite: SUOMI NPP
#Configuration: NPP
#almurnet v.1.7.20240730
#Start time: 2026-01-18 08:32:54

#Version: 2.2.20231116
#Station: R2M6_AANII_01
#Location: 30.233357 lon 59.946436 lat
#TLE: 1 37849U 11061A   26017.28905266  .00000074  00000+0  55894-4 0  9999
#TLE: 2 37849  98.7814 319.3179 0002408  59.7048 300.4366 14.19525847737038

#Time	Az	El	Level	Level2	SNR	BER	BlckErr	Temp	State	Recorded	gain1	gain2
2026-01-18 08:32:54.20	103.06	6.97	-32.7	-40.5	4.0	1.46e+00	0	40	0	0	26	8777
2026-01-18 08:32:57.21	102.79	7.17	-32.5	-38.2	5.7	4.30e-01	0	40	0	1048576	26	6954
2026-01-18 08:33:00.23	102.52	7.36	-32.2	-37.4	6.6	2.90e-01	0	40	0	7340032	25	6521
2026-01-18 08:33:03.24	102.25	7.56	-31.9	-35.5	8.0	7.62e-02	0	40	0	12582912	25	5480
2026-01-18 08:33:06.24	101.97	7.76	-31.9	-36.0	8.1	5.59e-02	0	40	0	17825792	24	5793
2026-01-18 08:33:09.25	101.69	7.96	-31.8	-35.7	8.2	6.65e-02	0	40	0	24117248	24	5685
2026-01-18 08:33:12.25	101.40	8.16	-31.6	-35.1	8.7	2.97e-02	0	40	0	29360128	24	5364
2026-01-18 08:33:15.26	101.11	8.36	-31.5	-34.9	8.8	2.43e-02	0	40	0	35651584	24	5296
2026-01-18 08:33:18.27	100.82	8.56	-31.2	-33.9	9.9	1.32e-02	0	41	0	40894464	23	4933
2026-01-18 08:33:21.28	100.52	8.77	-30.9	-33.1	10.6	3.87e-03	0	41	0	46137344	23	4606
2026-01-18 08:33:24.29	100.22	8.97	-31.2	-33.9	10.1	6.23e-03	0	40	0	52428800	23	4927
2026-01-18 08:33:27.30	99.91	9.18	-31.3	-34.1	10.0	6.21e-03	0	41	0	57671680	23	4984
2026-01-18 08:33:30.31	99.60	9.38	-31.4	-34.4	9.8	8.41e-03	0	41	0	63963136	23	5111
2026-01-18 08:33:33.32	99.28	9.59	-31.3	-34.2	9.9	1.00e-02	0	41	0	69206016	23	5034
2026-01-18 08:33:36.33	98.96	9.80	-31.5	-34.9	9.5	1.52e-02	0	41	0	74448896	23	5326
2026-01-18 08:33:39.34	98.64	10.00	-31.7	-35.4	9.0	2.00e-02	0	41	0	80740352	23	5575
2026-01-18 08:33:42.34	98.31	10.21	-31.5	-35.0	9.4	1.73e-02	0	41	0	85983232	23	5349
2026-01-18 08:33:45.36	97.97	10.42	-31.1	-33.5	10.7	3.49e-03	0	41	0	91226112	23	4699
2026-01-18 08:33:48.36	97.63	10.63	-31.2	-33.6	10.7	3.62e-03	0	41	0	97517568	23	4753
2026-01-18 08:33:51.38	97.28	10.85	-31.3	-33.9	10.5	4.23e-03	0	41	0	102760448	23	4838
2026-01-18 08:33:54.39	96.93	11.06	-31.3	-34.0	10.6	2.68e-03	0	41	0	109051904	23	4871
2026-01-18 08:33:57.40	96.58	11.27	-31.2	-33.5	10.8	3.33e-03	0	41	0	114294784	23	4699
2026-01-18 08:34:00.42	96.22	11.49	-31.1	-33.2	11.1	1.91e-03	0	41	0	119537664	23	4556
2026-01-18 08:34:03.42	95.85	11.70	-31.0	-32.8	11.4	9.28e-04	0	41	0	125829120	23	4429
2026-01-18 08:34:06.43	95.48	11.92	-31.2	-33.3	11.2	1.92e-03	0	41	0	131072000	23	4582
2026-01-18 08:34:09.45	95.10	12.13	-30.7	-32.5	12.0	3.68e-04	0	41	0	136314880	22	4398
2026-01-18 08:34:12.45	94.72	12.35	-30.9	-32.9	11.9	4.71e-04	0	42	0	142606336	22	4517
2026-01-18 08:34:15.47	94.33	12.57	-30.9	-32.8	11.9	3.55e-04	0	42	0	147849216	22	4499
2026-01-18 08:34:18.48	93.93	12.79	-30.8	-32.7	12.0	3.34e-04	0	41	0	154140672	22	4444
2026-01-18 08:34:21.48	93.53	13.01	-30.9	-32.9	11.9	5.32e-04	0	42	0	159383552	22	4505
2026-01-18 08:34:24.50	93.13	13.23	-30.9	-32.7	12.1	5.99e-04	0	42	0	164626432	22	4452
2026-01-18 08:34:27.51	92.71	13.45	-30.8	-32.5	12.3	9.07e-05	0	42	0	170917888	22	4372
2026-01-18 08:34:30.52	92.29	13.67	-31.0	-33.1	11.9	3.58e-04	0	42	0	176160768	22	4588
2026-01-18 08:34:33.53	91.87	13.89	-31.1	-33.4	11.8	4.18e-04	0	42	0	182452224	22	4663
2026-01-18 08:34:36.53	91.44	14.11	-31.0	-33.1	11.9	2.46e-04	0	42	0	187695104	22	4581
2026-01-18 08:34:39.53	91.00	14.33	-31.3	-33.8	11.3	1.21e-03	0	42	0	192937984	22	4821
2026-01-18 08:34:42.55	90.55	14.55	-31.0	-33.3	11.7	7.72e-04	0	42	0	199229440	22	4704
2026-01-18 08:34:45.55	90.10	14.77	-31.2	-33.9	11.3	1.05e-03	0	42	0	204472320	22	4929
2026-01-18 08:34:48.56	89.64	14.99	-31.2	-34.0	11.3	1.53e-03	0	42	0	209715200	22	4938
2026-01-18 08:34:51.57	89.18	15.22	-31.3	-33.5	11.3	1.70e-03	0	42	0	216006656	23	4638
2026-01-18 08:34:54.57	88.70	15.44	-31.4	-33.8	11.1	1.84e-03	0	42	0	221249536	23	4764
2026-01-18 08:34:57.57	88.22	15.66	-31.6	-34.7	10.5	3.84e-03	0	42	0	227540992	23	5127
2026-01-18 08:35:00.58	87.74	15.88	-31.4	-34.1	10.9	3.57e-03	0	42	0	232783872	23	4886
2026-01-18 08:35:03.59	87.24	16.11	-31.1	-33.1	11.6	6.70e-04	0	42	0	238026752	23	4503
2026-01-18 08:35:06.60	86.74	16.33	-31.1	-33.1	11.7	6.62e-04	0	42	0	244318208	23	4505
2026-01-18 08:35:09.60	86.23	16.55	-31.0	-32.5	12.0	3.83e-04	0	42	0	249561088	23	4321
2026-01-18 08:35:12.61	85.71	16.77	-31.2	-33.2	11.6	5.75e-04	0	42	0	254803968	23	4545
2026-01-18 08:35:15.62	85.19	16.99	-31.1	-32.9	11.8	2.73e-04	0	42	0	261095424	23	4444
2026-01-18 08:35:18.63	84.65	17.21	-31.3	-33.5	11.4	8.41e-04	0	42	0	266338304	23	4646
2026-01-18 08:35:21.64	84.11	17.43	-31.5	-34.1	11.0	1.15e-03	0	42	0	272629760	23	4860
2026-01-18 08:35:24.64	83.56	17.65	-31.7	-34.7	10.6	5.29e-03	0	42	0	277872640	23	5103
2026-01-18 08:35:27.64	83.01	17.87	-31.2	-33.1	11.7	4.65e-04	0	42	0	283115520	23	4495
2026-01-18 08:35:30.65	82.44	18.09	-31.1	-32.8	12.0	3.00e-04	0	42	0	289406976	23	4394
2026-01-18 08:35:33.67	81.87	18.30	-30.8	-32.6	12.5	1.44e-04	0	42	0	294649856	22	4421
2026-01-18 08:35:36.68	81.28	18.52	-30.6	-32.0	12.8	6.40e-05	0	42	0	299892736	22	4230
2026-01-18 08:35:39.68	80.70	18.73	-30.8	-32.6	12.4	9.07e-05	0	42	0	306184192	22	4434
2026-01-18 08:35:42.68	80.10	18.95	-30.3	-31.6	13.4	1.60e-05	0	42	0	311427072	21	4196
2026-01-18 08:35:45.68	79.49	19.16	-30.3	-31.6	13.5	1.52e-05	0	42	0	317718528	21	4181
2026-01-18 08:35:48.68	78.88	19.37	-30.2	-31.2	13.7	4.50e-06	0	42	0	322961408	21	4078
2026-01-18 08:35:51.69	78.25	19.57	-30.4	-32.0	13.2	1.22e-05	0	42	0	328204288	21	4304
2026-01-18 08:35:54.70	77.62	19.78	-29.9	-30.6	14.1	4.50e-06	0	42	0	334495744	21	3896
2026-01-18 08:35:57.70	76.98	19.98	-29.9	-30.7	14.1	3.80e-06	0	42	0	339738624	21	3911
2026-01-18 08:36:00.70	76.33	20.19	-29.9	-31.0	14.2	1.50e-06	0	42	0	346030080	20	4093
2026-01-18 08:36:03.70	75.68	20.38	-30.1	-31.5	13.9	3.00e-06	0	42	0	351272960	20	4235
2026-01-18 08:36:06.70	75.01	20.58	-30.4	-32.4	13.4	1.60e-05	0	42	0	356515840	20	4513
2026-01-18 08:36:09.71	74.34	20.78	-30.2	-31.8	13.8	1.06e-05	0	42	0	362807296	20	4328
2026-01-18 08:36:12.72	73.65	20.97	-30.2	-31.8	13.7	6.10e-06	0	42	0	368050176	20	4330
2026-01-18 08:36:15.71	72.96	21.15	-30.1	-31.5	13.9	9.10e-06	0	42	0	373293056	20	4222
2026-01-18 08:36:18.71	72.26	21.34	-29.5	-29.9	15.0	1.50e-06	0	42	0	379584512	20	3765
2026-01-18 08:36:21.72	71.55	21.52	-29.3	-29.4	15.3	0.00e+00	0	42	0	384827392	20	3648
2026-01-18 08:36:24.74	70.83	21.70	-29.3	-30.0	15.3	0.00e+00	0	42	0	390070272	19	3866
2026-01-18 08:36:27.75	70.11	21.88	-29.3	-29.9	15.4	0.00e+00	0	42	0	396361728	19	3858
2026-01-18 08:36:30.75	69.37	22.05	-29.4	-30.1	15.2	0.00e+00	0	42	0	401604608	19	3909
2026-01-18 08:36:33.77	68.63	22.22	-29.9	-31.4	14.6	0.00e+00	0	42	0	407896064	19	4259
2026-01-18 08:36:36.77	67.88	22.38	-29.9	-31.5	14.5	0.00e+00	0	42	0	413138944	19	4292
2026-01-18 08:36:39.77	67.12	22.54	-30.1	-31.3	14.2	7.00e-07	0	42	0	418381824	20	4146
2026-01-18 08:36:42.78	66.36	22.69	-30.0	-31.1	14.3	7.00e-07	0	42	0	424673280	20	4086
2026-01-18 08:36:45.79	65.58	22.84	-29.5	-29.9	15.0	7.00e-07	0	42	0	429916160	20	3768
2026-01-18 08:36:48.80	64.80	22.99	-29.3	-29.9	15.5	0.00e+00	0	42	0	436207616	19	3836
2026-01-18 08:36:51.80	64.02	23.13	-29.2	-29.5	15.7	0.00e+00	0	42	0	441450496	19	3736
2026-01-18 08:36:54.80	63.22	23.26	-29.1	-29.2	15.8	0.00e+00	0	42	0	446693376	19	3673
2026-01-18 08:36:57.80	62.42	23.39	-29.5	-30.4	15.2	0.00e+00	0	42	0	452984832	19	3963
2026-01-18 08:37:00.82	61.61	23.52	-29.9	-31.3	14.7	0.00e+00	0	42	0	458227712	19	4244
2026-01-18 08:37:03.83	60.80	23.64	-30.8	-32.7	13.1	2.05e-05	0	42	0	463470592	21	4482
2026-01-18 08:37:06.83	59.98	23.75	-30.8	-32.7	13.0	2.59e-05	0	42	0	469762048	21	4506
2026-01-18 08:37:09.84	59.15	23.86	-30.6	-32.2	13.3	1.44e-05	0	42	0	475004928	21	4346
2026-01-18 08:37:12.85	58.32	23.96	-30.3	-31.5	13.8	3.80e-06	0	42	0	481296384	21	4131
2026-01-18 08:37:15.87	57.48	24.05	-30.2	-31.2	14.0	7.00e-07	0	42	0	486539264	21	4042
2026-01-18 08:37:18.87	56.64	24.14	-30.3	-31.5	13.8	3.00e-06	0	42	0	491782144	21	4113
2026-01-18 08:37:21.88	55.79	24.22	-30.4	-31.9	13.5	6.10e-06	0	42	0	498073600	21	4251
2026-01-18 08:37:24.88	54.94	24.30	-30.7	-32.6	13.1	1.14e-05	0	42	0	503316480	21	4463
2026-01-18 08:37:27.88	54.09	24.36	-31.0	-33.0	12.5	1.34e-04	0	42	0	508559360	22	4508
2026-01-18 08:37:30.89	53.23	24.43	-31.1	-33.2	12.3	1.84e-04	0	42	0	514850816	22	4592
2026-01-18 08:37:33.91	52.37	24.48	-31.2	-33.2	12.4	1.56e-04	0	42	0	520093696	22	4582
2026-01-18 08:37:36.92	51.50	24.53	-31.6	-34.2	11.4	8.58e-04	0	42	0	526385152	23	4837
2026-01-18 08:37:39.93	50.64	24.57	-31.9	-34.9	10.9	2.15e-03	0	42	0	531628032	23	5115
2026-01-18 08:37:42.93	49.77	24.60	-31.5	-33.7	11.7	7.53e-04	0	42	0	536870912	23	4649
2026-01-18 08:37:45.93	48.90	24.63	-30.4	-31.3	13.6	1.44e-05	0	42	0	543162368	22	3961
2026-01-18 08:37:48.93	48.03	24.65	-30.7	-31.9	13.3	1.90e-05	0	42	0	548405248	22	4150
2026-01-18 08:37:51.95	47.16	24.66	-31.0	-33.0	12.5	1.37e-04	0	42	0	553648128	22	4511
2026-01-18 08:37:54.96	46.28	24.67	-30.8	-32.3	12.9	7.78e-05	0	42	0	559939584	22	4290
2026-01-18 08:37:57.96	45.41	24.67	-30.9	-32.5	12.8	4.27e-05	0	42	0	565182464	22	4342
2026-01-18 08:38:00.97	44.54	24.66	-30.3	-31.3	13.9	7.60e-06	0	42	0	571473920	21	4079
2026-01-18 08:38:03.99	43.67	24.64	-30.0	-30.5	14.4	7.00e-07	0	42	0	576716800	21	3850
2026-01-18 08:38:06.98	42.80	24.62	-30.0	-30.5	14.4	7.00e-07	0	42	0	581959680	21	3837
2026-01-18 08:38:09.99	41.93	24.58	-30.1	-30.9	14.1	2.20e-06	0	42	0	588251136	21	3933
2026-01-18 08:38:13.01	41.06	24.55	-29.3	-29.8	15.5	0.00e+00	0	42	0	593494016	19	3802
2026-01-18 08:38:16.02	40.20	24.50	-29.2	-29.5	15.7	0.00e+00	0	42	0	598736896	19	3723
2026-01-18 08:38:19.02	39.34	24.45	-29.0	-29.4	16.1	0.00e+00	0	42	0	605028352	18	3802
2026-01-18 08:38:22.03	38.48	24.39	-29.1	-29.9	15.8	0.00e+00	0	42	0	610271232	18	3930
2026-01-18 08:38:25.04	37.62	24.32	-29.1	-29.7	15.8	0.00e+00	0	42	0	616562688	18	3872
2026-01-18 08:38:28.06	36.77	24.25	-29.6	-30.6	15.1	0.00e+00	0	42	0	621805568	19	4015
2026-01-18 08:38:31.07	35.92	24.17	-29.6	-30.4	15.2	0.00e+00	0	42	0	627048448	19	3968
2026-01-18 08:38:34.08	35.08	24.09	-29.5	-30.2	15.3	0.00e+00	0	42	0	633339904	19	3915
2026-01-18 08:38:37.08	34.24	23.99	-30.2	-31.7	14.0	7.00e-07	0	42	0	638582784	20	4243
2026-01-18 08:38:40.09	33.41	23.90	-30.3	-31.8	13.9	6.10e-06	0	42	0	643825664	20	4290
2026-01-18 08:38:43.09	32.58	23.79	-30.4	-31.7	13.7	3.00e-06	0	42	0	650117120	21	4167
2026-01-18 08:38:46.09	31.76	23.68	-30.7	-32.4	13.3	3.73e-05	0	42	0	655360000	21	4373
2026-01-18 08:38:49.11	30.94	23.57	-30.9	-32.5	12.8	8.54e-05	0	42	0	661651456	22	4331
2026-01-18 08:38:52.12	30.13	23.44	-30.8	-32.4	12.9	3.43e-05	0	42	0	666894336	22	4290
2026-01-18 08:38:55.13	29.33	23.32	-30.9	-32.6	12.6	9.68e-05	0	42	0	672137216	22	4393
2026-01-18 08:38:58.14	28.54	23.18	-30.7	-32.0	13.0	4.50e-05	0	42	0	678428672	22	4182
2026-01-18 08:39:01.14	27.75	23.05	-30.6	-31.8	13.2	2.36e-05	0	42	0	683671552	22	4116
2026-01-18 08:39:04.14	26.97	22.90	-31.1	-33.1	12.4	6.17e-05	0	42	0	689963008	22	4541
2026-01-18 08:39:07.15	26.19	22.76	-30.9	-32.6	12.6	1.50e-04	0	42	0	695205888	22	4379
2026-01-18 08:39:10.16	25.43	22.60	-30.9	-32.6	12.6	4.95e-05	0	42	0	700448768	22	4393
2026-01-18 08:39:13.17	24.67	22.45	-30.6	-31.7	13.2	2.89e-05	0	42	0	706740224	22	4102
2026-01-18 08:39:16.18	23.92	22.28	-31.2	-33.5	11.9	3.20e-04	0	42	0	711983104	22	4708
2026-01-18 08:39:19.18	23.17	22.12	-31.0	-32.9	12.4	1.75e-04	0	42	0	717225984	22	4495
2026-01-18 08:39:22.19	22.44	21.95	-30.8	-32.4	12.8	5.34e-05	0	42	0	723517440	22	4326
2026-01-18 08:39:25.20	21.71	21.78	-31.5	-34.5	11.3	5.98e-04	0	42	0	728760320	22	5061
2026-01-18 08:39:28.21	20.99	21.60	-31.8	-35.0	10.5	4.64e-03	0	42	0	735051776	23	5168
2026-01-18 08:39:31.23	20.28	21.42	-30.4	-31.3	13.4	4.19e-05	0	42	0	740294656	22	3975
2026-01-18 08:39:34.24	19.58	21.23	-30.2	-31.3	13.7	6.80e-06	0	42	0	745537536	21	4068
2026-01-18 08:39:37.25	18.88	21.05	-30.6	-32.3	13.0	3.12e-05	0	42	0	751828992	21	4397
2026-01-18 08:39:40.26	18.20	20.86	-30.2	-31.3	13.6	1.98e-05	0	42	0	757071872	21	4083
2026-01-18 08:39:43.26	17.52	20.67	-29.7	-30.3	14.6	2.20e-06	0	42	0	762314752	20	3889
2026-01-18 08:39:46.28	16.85	20.47	-29.0	-29.3	15.5	0.00e+00	0	43	0	768606208	19	3697
2026-01-18 08:39:49.29	16.19	20.27	-29.7	-30.9	14.6	7.00e-07	0	42	0	773849088	19	4127
2026-01-18 08:39:52.30	15.54	20.07	-30.3	-32.1	13.4	1.29e-05	0	43	0	780140544	20	4426
2026-01-18 08:39:55.31	14.90	19.87	-30.6	-32.5	12.9	4.88e-05	0	43	0	785383424	21	4447
2026-01-18 08:39:58.32	14.27	19.66	-30.6	-32.3	13.0	5.64e-05	0	42	0	790626304	21	4383
2026-01-18 08:40:01.32	13.64	19.46	-30.0	-30.8	13.9	2.20e-06	0	42	0	796917760	21	3935
2026-01-18 08:40:04.32	13.03	19.25	-29.7	-30.4	14.4	7.00e-07	0	43	0	802160640	20	3930
2026-01-18 08:40:07.34	12.42	19.04	-29.7	-30.4	14.5	3.00e-06	0	42	0	807403520	20	3913
2026-01-18 08:40:10.34	11.82	18.83	-30.1	-31.6	13.7	3.00e-06	0	42	0	813694976	20	4289
2026-01-18 08:40:13.35	11.23	18.61	-29.8	-30.8	14.2	7.00e-07	0	42	0	818937856	20	4039
2026-01-18 08:40:16.36	10.65	18.40	-30.2	-31.8	13.6	7.60e-06	0	43	0	825229312	20	4331
2026-01-18 08:40:19.37	10.07	18.18	-30.2	-31.8	13.5	1.37e-05	0	42	0	830472192	20	4341
2026-01-18 08:40:22.38	9.51	17.97	-29.9	-31.1	14.0	2.20e-06	0	42	0	835715072	20	4098
2026-01-18 08:40:25.38	8.95	17.75	-29.8	-30.6	14.3	7.00e-07	0	42	0	842006528	20	3969
2026-01-18 08:40:28.39	8.40	17.53	-29.7	-30.4	14.5	1.50e-06	0	42	0	847249408	20	3903
2026-01-18 08:40:31.40	7.86	17.31	-30.1	-31.4	13.9	3.80e-06	0	43	0	853540864	20	4207
2026-01-18 08:40:34.41	7.33	17.09	-30.1	-31.5	13.7	6.80e-06	0	42	0	858783744	20	4233
2026-01-18 08:40:37.42	6.80	16.87	-29.4	-30.1	15.1	0.00e+00	0	42	0	864026624	19	3898
2026-01-18 08:40:40.43	6.28	16.65	-29.4	-30.2	14.9	0.00e+00	0	42	0	870318080	19	3928
2026-01-18 08:40:43.45	5.77	16.43	-29.8	-31.3	14.2	7.00e-07	0	42	0	875560960	19	4246
2026-01-18 08:40:46.46	5.27	16.21	-29.9	-31.0	14.1	7.00e-07	0	42	0	880803840	20	4083
2026-01-18 08:40:49.46	4.77	15.99	-29.8	-30.6	14.3	3.80e-06	0	42	0	887095296	20	3965
2026-01-18 08:40:52.46	4.29	15.77	-29.2	-29.8	15.1	0.00e+00	0	43	0	892338176	19	3829
2026-01-18 08:40:55.45	3.81	15.55	-29.5	-30.5	14.7	0.00e+00	0	42	0	898629632	19	4035
2026-01-18 08:40:58.46	3.34	15.33	-30.1	-31.4	13.7	5.30e-06	0	42	0	903872512	20	4203
2026-01-18 08:41:01.47	2.87	15.11	-30.4	-32.3	13.1	2.82e-05	0	42	0	909115392	20	4504
2026-01-18 08:41:04.48	2.41	14.88	-30.3	-32.1	13.2	3.35e-05	0	42	0	915406848	20	4429
2026-01-18 08:41:07.49	1.96	14.66	-29.9	-31.0	14.0	3.80e-06	0	42	0	920649728	20	4086
2026-01-18 08:41:10.49	1.52	14.44	-29.9	-30.9	14.0	1.50e-06	0	43	0	925892608	20	4072
2026-01-18 08:41:13.49	1.08	14.22	-30.0	-31.4	13.7	3.80e-06	0	42	0	932184064	20	4207
2026-01-18 08:41:16.50	0.65	14.00	-30.6	-32.5	12.7	6.63e-05	0	43	0	937426944	21	4462
2026-01-18 08:41:19.52	0.22	13.78	-30.7	-32.8	12.4	1.52e-04	0	43	0	943718400	21	4580
2026-01-18 08:41:22.54	359.80	13.56	-30.3	-31.6	13.2	2.13e-05	0	43	0	948961280	21	4178
2026-01-18 08:41:25.55	359.39	13.34	-29.9	-30.5	13.8	1.06e-05	0	42	0	954204160	21	3877
2026-01-18 08:41:28.57	358.98	13.12	-29.9	-31.2	13.7	5.30e-06	0	42	0	960495616	20	4155
2026-01-18 08:41:31.57	358.58	12.90	-30.0	-31.5	13.5	1.14e-05	0	43	0	965738496	20	4250
2026-01-18 08:41:34.57	358.19	12.69	-30.1	-31.5	13.5	9.90e-06	0	42	0	970981376	20	4246
2026-01-18 08:41:37.59	357.80	12.47	-30.2	-31.8	13.3	1.29e-05	0	42	0	977272832	20	4340
2026-01-18 08:41:40.59	357.42	12.25	-30.4	-32.5	12.8	4.80e-05	0	42	0	982515712	20	4595
2026-01-18 08:41:43.60	357.04	12.04	-30.4	-32.0	12.8	6.17e-05	0	42	0	988807168	21	4331
2026-01-18 08:41:46.61	356.67	11.82	-30.4	-31.9	12.8	8.31e-05	0	42	0	994050048	21	4292
2026-01-18 08:41:49.61	356.30	11.61	-30.7	-32.8	12.2	1.41e-04	0	43	0	999292928	21	4589
2026-01-18 08:41:52.62	355.94	11.40	-30.8	-33.3	11.9	4.81e-04	0	43	0	1005584384	21	4764
2026-01-18 08:41:55.62	355.59	11.18	-30.8	-33.2	11.9	4.32e-04	0	43	0	1010827264	21	4738
2026-01-18 08:41:58.62	355.24	10.97	-30.6	-32.6	12.3	1.90e-04	0	42	0	1016070144	21	4536
2026-01-18 08:42:01.63	354.90	10.76	-30.5	-32.3	12.5	1.24e-04	0	42	0	1022361600	21	4436
2026-01-18 08:42:04.63	354.56	10.55	-30.5	-32.4	12.4	1.61e-04	0	43	0	1027604480	21	4455
2026-01-18 08:42:07.63	354.23	10.34	-31.0	-33.7	11.5	6.19e-04	0	43	0	1033895936	21	4957
2026-01-18 08:42:10.64	353.90	10.13	-31.1	-33.8	11.1	1.53e-03	0	42	0	1039138816	22	4873
2026-01-18 08:42:13.64	353.57	9.93	-31.0	-33.3	11.4	1.30e-03	0	42	0	1044381696	22	4713
2026-01-18 08:42:16.64	353.25	9.72	-31.1	-33.5	11.2	1.62e-03	0	43	0	1050673152	22	4789
2026-01-18 08:42:19.65	352.94	9.51	-30.6	-32.1	12.2	2.87e-04	0	42	0	1055916032	22	4302
2026-01-18 08:42:22.65	352.63	9.31	-30.8	-32.6	11.8	3.80e-04	0	42	0	1061158912	22	4469
2026-01-18 08:42:25.65	352.32	9.10	-30.9	-33.1	11.4	8.03e-04	0	42	0	1067450368	22	4647
2026-01-18 08:42:28.66	352.02	8.90	-31.3	-34.2	10.6	2.59e-03	0	43	0	1072693248	22	5070
2026-01-18 08:42:31.68	351.72	8.70	-31.4	-34.9	10.1	5.67e-03	0	42	0	1078984704	22	5351
2026-01-18 08:42:34.69	351.43	8.49	-31.5	-34.7	9.8	6.72e-03	0	43	0	1084227584	23	5192
2026-01-18 08:42:37.70	351.14	8.29	-31.4	-34.4	10.1	9.86e-03	0	43	0	1089470464	23	5056
2026-01-18 08:42:40.70	350.86	8.09	-31.3	-34.0	10.3	5.94e-03	0	42	0	1095761920	23	4925
2026-01-18 08:42:43.71	350.57	7.89	-31.3	-33.8	10.4	4.88e-03	0	42	0	1101004800	23	4849
2026-01-18 08:42:46.71	350.30	7.70	-31.2	-33.8	10.5	5.68e-03	0	42	0	1106247680	23	4821
2026-01-18 08:42:49.73	350.02	7.50	-31.4	-34.4	10.0	7.18e-03	0	43	0	1112539136	23	5096
2026-01-18 08:42:52.73	349.76	7.30	-31.6	-35.0	9.4	1.56e-02	0	42	0	1117782016	23	5355
2026-01-18 08:42:55.73	349.49	7.11	-31.6	-35.1	9.3	2.13e-02	0	42	0	1124073472	23	5385

#Closed at: 2026-01-18 08:42:58
#Recorded file [1125 MB]: D:/data/31010_260118_113256.dat