passes_logs/2026/01/18/R2M6_AANII_01/R2M6_AANII_01__20260118_125024_FENGYUN_3D_rec.log

#Pass ID: 20260118_125024_FENGYUN 3D
#Satellite: FENGYUN 3D
#Configuration: FENGYUN 3D
#almurnet v.1.7.20240730
#Start time: 2026-01-18 12:50:23

#Version: 2.2.20231116
#Station: R2M6_AANII_01
#Location: 30.233357 lon 59.946436 lat
#TLE: 1 43010U 17072A   26017.61121112  .00000213  00000+0  12257-3 0  9991
#TLE: 2 43010  98.9934 349.4672 0002374 103.9362 256.2078 14.19696413423628

#Time	Az	El	Level	Level2	SNR	BER	BlckErr	Temp	State	Recorded	gain1	gain2
2026-01-18 12:50:23.83	174.74	6.98	-27.7	-29.4	5.8	7.70e-01	0	40	0	0	16	4365
2026-01-18 12:50:26.83	174.84	7.21	-28.8	-31.1	11.6	1.37e-03	0	40	0	5242880	18	4670
2026-01-18 12:50:29.84	174.93	7.44	-28.5	-30.3	12.1	6.93e-04	0	41	0	22020096	18	4412
2026-01-18 12:50:32.85	175.03	7.67	-27.4	-28.7	13.8	2.05e-05	0	41	0	38797312	16	4165
2026-01-18 12:50:35.86	175.13	7.91	-27.0	-28.3	14.1	2.20e-06	0	41	0	55574528	15	4182
2026-01-18 12:50:38.88	175.23	8.15	-26.9	-28.1	14.3	2.20e-06	0	41	0	73400320	15	4115
2026-01-18 12:50:41.88	175.34	8.39	-27.2	-28.6	14.0	6.80e-06	0	41	0	90177536	15	4264
2026-01-18 12:50:44.89	175.44	8.63	-26.9	-28.0	14.4	0.00e+00	0	41	0	106954752	15	4089
2026-01-18 12:50:47.91	175.55	8.87	-26.8	-27.8	14.5	2.20e-06	0	41	0	123731968	15	4021
2026-01-18 12:50:50.91	175.66	9.12	-26.9	-28.6	14.4	0.00e+00	0	41	0	140509184	14	4342
2026-01-18 12:50:53.92	175.77	9.37	-26.5	-27.5	15.0	0.00e+00	0	41	0	157286400	14	4062
2026-01-18 12:50:56.93	175.88	9.62	-26.7	-28.0	14.7	0.00e+00	0	41	0	174063616	14	4188
2026-01-18 12:50:59.92	175.99	9.87	-26.5	-27.7	15.0	1.10e-06	0	41	0	190840832	14	4098
2026-01-18 12:51:02.93	176.10	10.13	-26.7	-28.0	14.8	0.00e+00	0	41	0	208666624	14	4187
2026-01-18 12:51:05.93	176.22	10.39	-26.6	-27.9	14.9	0.00e+00	0	41	0	225443840	14	4158
2026-01-18 12:51:08.94	176.34	10.65	-26.7	-28.0	14.8	0.00e+00	0	41	0	242221056	14	4203
2026-01-18 12:51:11.94	176.46	10.92	-26.7	-28.0	14.8	0.00e+00	0	41	0	258998272	14	4176
2026-01-18 12:51:14.95	176.58	11.19	-26.6	-27.9	14.9	1.10e-06	0	42	0	275775488	14	4147
2026-01-18 12:51:17.96	176.71	11.46	-26.6	-27.9	14.9	0.00e+00	0	42	0	292552704	14	4151
2026-01-18 12:51:20.98	176.83	11.73	-26.6	-27.7	15.0	1.10e-06	0	41	0	310378496	14	4105
2026-01-18 12:51:23.98	176.96	12.01	-26.7	-28.0	14.9	0.00e+00	0	42	0	327155712	14	4170
2026-01-18 12:51:26.99	177.09	12.29	-26.4	-27.4	15.2	0.00e+00	0	42	0	343932928	14	4038
2026-01-18 12:51:30.00	177.23	12.57	-26.7	-28.0	14.9	0.00e+00	0	42	0	360710144	14	4183
2026-01-18 12:51:33.00	177.36	12.86	-26.8	-28.2	14.8	0.00e+00	0	42	0	377487360	14	4246
2026-01-18 12:51:36.01	177.50	13.15	-26.5	-27.6	15.2	0.00e+00	0	42	0	394264576	14	4072
2026-01-18 12:51:39.02	177.64	13.44	-26.7	-27.9	15.0	0.00e+00	0	42	0	411041792	14	4160
2026-01-18 12:51:42.02	177.79	13.73	-26.0	-27.0	15.8	0.00e+00	0	42	0	427819008	13	4013
2026-01-18 12:51:45.04	177.93	14.03	-26.0	-26.9	15.9	0.00e+00	0	42	0	445644800	13	3993
2026-01-18 12:51:48.04	178.08	14.34	-26.0	-27.0	15.8	0.00e+00	0	42	0	462422016	13	4021
2026-01-18 12:51:51.04	178.23	14.64	-25.7	-26.8	16.2	0.00e+00	0	42	0	479199232	12	4089
2026-01-18 12:51:54.05	178.39	14.95	-25.8	-27.0	16.1	0.00e+00	0	42	0	495976448	12	4140
2026-01-18 12:51:57.05	178.55	15.27	-25.5	-26.4	16.5	0.00e+00	0	42	0	512753664	12	3974
2026-01-18 12:52:00.05	178.71	15.58	-25.5	-26.3	16.5	0.00e+00	0	42	0	529530880	12	3953
2026-01-18 12:52:03.07	178.87	15.91	-25.3	-26.0	16.7	0.00e+00	0	42	0	546308096	12	3882
2026-01-18 12:52:06.08	179.04	16.23	-25.4	-26.7	16.7	0.00e+00	0	42	0	564133888	11	4161
2026-01-18 12:52:09.10	179.21	16.57	-25.2	-26.2	16.9	0.00e+00	0	42	0	580911104	11	4030
2026-01-18 12:52:12.11	179.39	16.90	-25.3	-26.3	16.9	0.00e+00	0	42	0	597688320	11	4066
2026-01-18 12:52:15.11	179.57	17.24	-25.5	-26.8	16.7	0.00e+00	0	42	0	614465536	11	4189
2026-01-18 12:52:18.13	179.75	17.59	-25.1	-25.9	17.1	0.00e+00	0	42	0	631242752	11	3969
2026-01-18 12:52:21.14	179.94	17.93	-25.4	-26.6	16.8	0.00e+00	0	42	0	648019968	11	4125
2026-01-18 12:52:24.15	180.13	18.29	-24.9	-25.5	17.4	0.00e+00	0	42	0	664797184	11	3854
2026-01-18 12:52:27.16	180.32	18.65	-24.7	-25.7	17.5	0.00e+00	0	42	0	681574400	10	4024
2026-01-18 12:52:30.17	180.52	19.01	-24.7	-25.6	17.6	0.00e+00	0	42	0	699400192	10	3996
2026-01-18 12:52:33.17	180.73	19.38	-24.6	-25.4	17.7	1.10e-06	0	42	0	716177408	10	3936
2026-01-18 12:52:36.19	180.94	19.75	-24.6	-25.5	17.7	2.20e-06	0	42	0	732954624	10	3966
2026-01-18 12:52:39.19	181.15	20.13	-24.3	-24.9	18.0	0.00e+00	0	42	0	749731840	10	3816
2026-01-18 12:52:42.21	181.37	20.52	-24.2	-25.1	18.1	2.20e-06	0	42	0	766509056	9	3981
2026-01-18 12:52:45.21	181.59	20.90	-24.2	-25.1	18.2	0.00e+00	0	42	0	783286272	9	3981
2026-01-18 12:52:48.22	181.82	21.30	-24.5	-25.6	18.0	0.00e+00	0	42	0	800063488	9	4091
2026-01-18 12:52:51.23	182.06	21.70	-24.4	-25.4	18.1	0.00e+00	0	42	0	817889280	9	4053
2026-01-18 12:52:54.22	182.30	22.11	-24.2	-25.1	18.2	0.00e+00	0	43	0	834666496	9	3978
2026-01-18 12:52:57.23	182.55	22.52	-24.3	-25.2	18.2	2.20e-06	0	42	0	851443712	9	3992
2026-01-18 12:53:00.25	182.80	22.94	-23.9	-24.4	18.6	0.00e+00	0	42	0	868220928	9	3814
2026-01-18 12:53:03.26	183.06	23.37	-24.0	-24.5	18.6	0.00e+00	0	42	0	884998144	9	3833
2026-01-18 12:53:06.26	183.33	23.80	-24.0	-24.5	18.5	0.00e+00	0	42	0	901775360	9	3833
2026-01-18 12:53:09.27	183.60	24.24	-24.0	-24.5	18.6	0.00e+00	0	42	0	918552576	9	3835
2026-01-18 12:53:12.27	183.88	24.69	-24.1	-24.8	18.5	0.00e+00	0	43	0	935329792	9	3887
2026-01-18 12:53:15.29	184.18	25.14	-23.8	-24.7	18.7	0.00e+00	0	42	0	953155584	8	3982
2026-01-18 12:53:18.29	184.47	25.60	-23.9	-24.9	18.6	0.00e+00	0	43	0	969932800	8	4038
2026-01-18 12:53:21.30	184.78	26.07	-23.7	-24.4	18.9	0.00e+00	0	43	0	986710016	8	3918
2026-01-18 12:53:24.31	185.10	26.54	-23.4	-23.8	19.2	0.00e+00	0	43	0	1003487232	8	3774
2026-01-18 12:53:27.32	185.42	27.03	-23.5	-23.9	19.2	0.00e+00	0	43	0	1020264448	8	3802
2026-01-18 12:53:30.34	185.76	27.52	-23.7	-24.4	18.9	0.00e+00	0	43	0	1038090240	8	3918
2026-01-18 12:53:33.35	186.10	28.02	-23.8	-24.6	18.9	0.00e+00	0	42	0	1054867456	8	3965
2026-01-18 12:53:36.37	186.46	28.53	-23.6	-24.2	19.1	0.00e+00	0	42	0	1071644672	8	3852
2026-01-18 12:53:39.38	186.83	29.04	-23.7	-24.5	19.0	0.00e+00	0	42	0	1088421888	8	3927
2026-01-18 12:53:42.37	187.20	29.56	-23.8	-24.8	18.8	0.00e+00	0	42	0	1105199104	8	3997
2026-01-18 12:53:45.38	187.59	30.09	-23.9	-24.8	18.8	0.00e+00	0	42	0	1121976320	8	3998
2026-01-18 12:53:48.40	188.00	30.64	-23.7	-24.4	19.0	0.00e+00	0	42	0	1138753536	8	3903
2026-01-18 12:53:51.41	188.41	31.19	-23.7	-24.5	18.9	0.00e+00	0	43	0	1155530752	8	3947
2026-01-18 12:53:54.41	188.84	31.74	-23.5	-24.0	19.2	0.00e+00	0	42	0	1173356544	8	3826
2026-01-18 12:53:57.41	189.29	32.31	-23.5	-24.1	19.2	0.00e+00	0	42	0	1190133760	8	3834
2026-01-18 12:54:00.43	189.75	32.88	-23.6	-24.1	19.1	0.00e+00	0	43	0	1206910976	8	3854
2026-01-18 12:54:03.44	190.23	33.47	-23.7	-24.4	19.1	0.00e+00	0	43	0	1223688192	8	3901
2026-01-18 12:54:06.45	190.72	34.06	-23.6	-24.3	19.1	0.00e+00	0	42	0	1240465408	8	3885
2026-01-18 12:54:09.46	191.24	34.67	-23.6	-24.2	19.2	0.00e+00	0	42	0	1257242624	8	3861
2026-01-18 12:54:12.47	191.77	35.28	-23.9	-24.8	18.9	0.00e+00	0	42	0	1274019840	8	4008
2026-01-18 12:54:15.47	192.32	35.90	-23.3	-23.6	19.5	0.00e+00	0	43	0	1290797056	8	3720
2026-01-18 12:54:18.47	192.89	36.53	-23.1	-23.7	19.7	0.00e+00	0	43	0	1308622848	7	3854
2026-01-18 12:54:21.49	193.49	37.17	-23.0	-23.5	19.8	0.00e+00	0	43	0	1325400064	7	3800
2026-01-18 12:54:24.50	194.10	37.82	-22.9	-23.3	19.9	0.00e+00	0	43	0	1342177280	7	3756
2026-01-18 12:54:27.52	194.75	38.48	-23.1	-23.6	19.8	0.00e+00	0	43	0	1358954496	7	3820
2026-01-18 12:54:30.53	195.42	39.15	-23.1	-23.6	19.8	0.00e+00	0	43	0	1375731712	7	3832
2026-01-18 12:54:33.53	196.11	39.82	-23.1	-23.7	19.7	0.00e+00	0	43	0	1393557504	7	3842
2026-01-18 12:54:36.55	196.84	40.51	-23.2	-23.8	19.7	0.00e+00	0	43	0	1410334720	7	3871
2026-01-18 12:54:39.56	197.60	41.20	-23.2	-23.9	19.6	0.00e+00	0	43	0	1427111936	7	3888
2026-01-18 12:54:42.57	198.39	41.90	-23.3	-24.1	19.5	0.00e+00	0	43	0	1443889152	7	3943
2026-01-18 12:54:45.58	199.22	42.61	-23.4	-24.2	19.5	0.00e+00	0	43	0	1460666368	7	3971
2026-01-18 12:54:48.59	200.08	43.32	-23.2	-23.8	19.7	0.00e+00	0	43	0	1477443584	7	3864
2026-01-18 12:54:51.59	200.97	44.04	-23.6	-24.8	19.2	0.00e+00	0	43	0	1494220800	7	4116
2026-01-18 12:54:54.61	201.92	44.77	-23.4	-24.3	19.5	0.00e+00	0	43	0	1510998016	7	3985
2026-01-18 12:54:57.61	202.90	45.50	-23.4	-24.3	19.5	0.00e+00	0	43	0	1528823808	7	3984
2026-01-18 12:55:00.62	203.93	46.23	-23.3	-24.2	19.6	0.00e+00	0	43	0	1545601024	7	3956
2026-01-18 12:55:03.63	205.01	46.97	-23.2	-23.8	19.8	0.00e+00	0	43	0	1562378240	7	3859
2026-01-18 12:55:06.65	206.15	47.71	-23.5	-24.5	19.5	0.00e+00	0	43	0	1579155456	7	4024
2026-01-18 12:55:09.65	207.33	48.45	-23.8	-25.1	19.1	0.00e+00	0	43	0	1595932672	7	4185
2026-01-18 12:55:12.66	208.57	49.19	-23.9	-25.4	19.0	0.00e+00	0	43	0	1612709888	7	4255
2026-01-18 12:55:15.67	209.87	49.92	-23.9	-24.8	19.1	0.00e+00	0	43	0	1629487104	8	4001
2026-01-18 12:55:18.69	211.25	50.66	-24.1	-25.2	18.9	0.00e+00	0	43	0	1647312896	8	4090
2026-01-18 12:55:21.68	212.67	51.38	-23.6	-24.1	19.6	0.00e+00	0	43	0	1664090112	8	3818
2026-01-18 12:55:24.69	214.17	52.09	-24.2	-25.3	19.0	0.00e+00	0	43	0	1680867328	8	4116
2026-01-18 12:55:27.71	215.76	52.80	-23.6	-24.2	19.6	0.00e+00	0	43	0	1697644544	8	3841
2026-01-18 12:55:30.71	217.40	53.49	-24.2	-25.4	18.9	0.00e+00	0	43	0	1714421760	8	4142
2026-01-18 12:55:33.73	219.14	54.17	-24.2	-25.4	19.0	0.00e+00	0	43	0	1732247552	8	4131
2026-01-18 12:55:36.74	220.96	54.83	-24.7	-25.9	18.5	0.00e+00	0	43	0	1749024768	9	4154
2026-01-18 12:55:39.74	222.85	55.47	-24.4	-25.4	18.8	0.00e+00	0	43	0	1765801984	9	4003
2026-01-18 12:55:42.76	224.84	56.08	-24.8	-25.7	18.3	0.00e+00	0	43	0	1782579200	10	3994
2026-01-18 12:55:45.77	226.91	56.67	-24.0	-24.4	19.2	0.00e+00	0	43	0	1799356416	9	3788
2026-01-18 12:55:48.78	229.07	57.22	-24.3	-25.1	18.9	0.00e+00	0	43	0	1816133632	9	3958
2026-01-18 12:55:51.79	231.31	57.74	-24.1	-24.6	19.2	0.00e+00	0	43	0	1832910848	9	3819
2026-01-18 12:55:54.80	233.64	58.22	-23.9	-24.4	19.3	0.00e+00	0	43	0	1849688064	9	3772
2026-01-18 12:55:57.82	236.05	58.66	-23.8	-24.1	19.4	0.00e+00	0	43	0	1867513856	9	3708
2026-01-18 12:56:00.84	238.54	59.06	-23.8	-24.6	19.4	0.00e+00	0	43	0	1884291072	8	3933
2026-01-18 12:56:03.86	241.11	59.40	-23.9	-24.8	19.3	0.00e+00	0	43	0	1901068288	8	3985
2026-01-18 12:56:06.85	243.71	59.70	-23.5	-23.9	19.8	0.00e+00	0	43	0	1917845504	8	3770
2026-01-18 12:56:09.86	246.38	59.94	-23.6	-24.2	19.6	0.00e+00	0	43	0	1934622720	8	3840
2026-01-18 12:56:12.87	249.10	60.13	-24.3	-25.6	18.9	0.00e+00	0	43	0	1951399936	8	4195
2026-01-18 12:56:15.86	251.83	60.26	-23.9	-24.7	19.4	0.00e+00	0	43	0	1968177152	8	3952
2026-01-18 12:56:18.87	254.60	60.33	-23.9	-24.8	19.3	0.00e+00	0	43	0	1984954368	8	3998
2026-01-18 12:56:21.87	257.37	60.34	-23.4	-23.7	19.9	0.00e+00	0	43	0	2002780160	8	3726
2026-01-18 12:56:24.88	260.15	60.29	-23.6	-24.1	19.7	0.00e+00	0	43	0	2019557376	8	3828
2026-01-18 12:56:27.89	262.91	60.18	-23.9	-24.7	19.4	0.00e+00	0	43	0	2036334592	8	3967
2026-01-18 12:56:30.89	265.63	60.02	-24.0	-25.1	19.2	0.00e+00	0	43	0	2053111808	8	4046
2026-01-18 12:56:33.90	268.32	59.80	-23.6	-24.1	19.7	0.00e+00	0	43	0	2069889024	8	3819
2026-01-18 12:56:36.90	270.95	59.53	-24.1	-25.1	19.2	0.00e+00	0	43	0	2086666240	8	4050
2026-01-18 12:56:39.91	273.53	59.20	-24.0	-25.0	19.3	0.00e+00	0	43	0	2103443456	8	4038
2026-01-18 12:56:42.93	276.04	58.82	-23.7	-24.4	19.6	0.00e+00	0	43	0	2121269248	8	3876
2026-01-18 12:56:45.93	278.47	58.40	-24.2	-25.3	19.1	0.00e+00	0	43	0	2138046464	8	4108
2026-01-18 12:56:48.95	280.84	57.94	-25.1	-26.3	18.1	0.00e+00	0	43	0	2154823680	10	4137
2026-01-18 12:56:51.94	283.10	57.44	-24.9	-25.9	18.4	0.00e+00	0	43	0	2171600896	10	4015
2026-01-18 12:56:54.94	285.28	56.90	-25.2	-26.6	18.0	0.00e+00	0	43	0	2188378112	10	4199
2026-01-18 12:56:57.95	287.38	56.33	-25.4	-26.5	17.8	0.00e+00	0	43	0	2205155328	11	4073
2026-01-18 12:57:00.95	289.39	55.73	-24.5	-25.0	18.8	0.00e+00	0	43	0	2221932544	10	3813
2026-01-18 12:57:03.97	291.33	55.10	-24.1	-24.6	19.2	0.00e+00	0	43	0	2238709760	9	3822
2026-01-18 12:57:06.98	293.17	54.46	-24.5	-25.5	18.8	0.00e+00	0	43	0	2255486976	9	4057
2026-01-18 12:57:09.98	294.93	53.79	-24.7	-25.9	18.6	0.00e+00	0	43	0	2273312768	9	4122
2026-01-18 12:57:12.99	296.61	53.11	-24.4	-25.3	18.9	0.00e+00	0	43	0	2290089984	9	4009
2026-01-18 12:57:15.98	298.21	52.41	-24.5	-25.4	18.8	0.00e+00	0	43	0	2306867200	9	4015
2026-01-18 12:57:18.98	299.74	51.70	-24.7	-25.9	18.6	0.00e+00	0	43	0	2323644416	9	4138
2026-01-18 12:57:21.99	301.20	50.99	-24.8	-26.1	18.5	0.00e+00	0	43	0	2340421632	9	4196
2026-01-18 12:57:25.01	302.60	50.26	-24.3	-25.0	19.0	0.00e+00	0	43	0	2357198848	9	3923
2026-01-18 12:57:28.02	303.92	49.53	-24.0	-24.4	19.3	0.00e+00	0	43	0	2373976064	9	3787
2026-01-18 12:57:31.02	305.19	48.79	-23.8	-24.6	19.5	0.00e+00	0	43	0	2390753280	8	3949
2026-01-18 12:57:34.03	306.39	48.06	-23.7	-24.3	19.6	0.00e+00	0	43	0	2408579072	8	3867
2026-01-18 12:57:37.02	307.54	47.33	-23.6	-24.1	19.8	0.00e+00	0	43	0	2425356288	8	3807
2026-01-18 12:57:40.03	308.64	46.59	-23.4	-23.7	19.9	0.00e+00	0	43	0	2442133504	8	3734
2026-01-18 12:57:43.05	309.69	45.86	-23.7	-24.4	19.6	0.00e+00	0	43	0	2458910720	8	3886
2026-01-18 12:57:46.05	310.69	45.13	-23.6	-24.2	19.6	0.00e+00	0	43	0	2475687936	8	3839
2026-01-18 12:57:49.06	311.65	44.40	-23.8	-24.5	19.5	0.00e+00	0	43	0	2492465152	8	3916
2026-01-18 12:57:52.07	312.57	43.68	-23.6	-24.0	19.7	0.00e+00	0	43	0	2509242368	8	3799
2026-01-18 12:57:55.09	313.45	42.97	-23.7	-24.3	19.6	0.00e+00	0	43	0	2527068160	8	3874
2026-01-18 12:57:58.09	314.28	42.26	-23.9	-24.9	19.3	0.00e+00	0	43	0	2543845376	8	4001
2026-01-18 12:58:01.10	315.09	41.56	-23.7	-24.2	19.7	0.00e+00	0	43	0	2560622592	8	3841
2026-01-18 12:58:04.11	315.86	40.87	-23.5	-23.9	19.8	0.00e+00	0	43	0	2577399808	8	3769
2026-01-18 12:58:07.12	316.60	40.19	-23.4	-23.7	19.9	0.00e+00	0	43	0	2594177024	8	3728
2026-01-18 12:58:10.13	317.31	39.51	-23.2	-23.7	20.1	0.00e+00	0	43	0	2612002816	7	3839
2026-01-18 12:58:13.14	317.99	38.84	-23.3	-23.9	20.0	0.00e+00	0	43	0	2628780032	7	3892
2026-01-18 12:58:16.15	318.64	38.18	-23.3	-24.1	19.9	0.00e+00	0	43	0	2645557248	7	3927
2026-01-18 12:58:19.15	319.27	37.53	-23.2	-23.7	20.1	0.00e+00	0	43	0	2662334464	7	3831
2026-01-18 12:58:22.16	319.88	36.89	-23.2	-23.8	20.0	0.00e+00	0	43	0	2679111680	7	3848
2026-01-18 12:58:25.16	320.46	36.26	-23.2	-23.9	20.0	0.00e+00	0	43	0	2695888896	7	3878
2026-01-18 12:58:28.17	321.02	35.64	-23.4	-24.1	19.9	0.00e+00	0	43	0	2712666112	7	3935
2026-01-18 12:58:31.18	321.56	35.02	-23.4	-24.2	19.8	0.00e+00	0	43	0	2729443328	7	3953
2026-01-18 12:58:34.19	322.08	34.42	-23.5	-24.4	19.7	0.00e+00	0	43	0	2747269120	7	3996
2026-01-18 12:58:37.20	322.58	33.82	-23.5	-24.5	19.7	0.00e+00	0	43	0	2764046336	7	4029
2026-01-18 12:58:40.19	323.06	33.24	-23.4	-24.2	19.8	0.00e+00	0	43	0	2780823552	7	3950
2026-01-18 12:58:43.20	323.53	32.66	-23.2	-23.9	20.0	0.00e+00	0	43	0	2797600768	7	3870
2026-01-18 12:58:46.21	323.99	32.09	-23.3	-24.0	19.9	0.00e+00	0	43	0	2814377984	7	3903
2026-01-18 12:58:49.22	324.42	31.53	-23.4	-24.1	19.8	0.00e+00	0	43	0	2831155200	7	3935
2026-01-18 12:58:52.22	324.85	30.98	-23.6	-24.7	19.5	0.00e+00	0	43	0	2847932416	7	4059
2026-01-18 12:58:55.23	325.26	30.44	-23.7	-24.9	19.4	0.00e+00	0	43	0	2864709632	7	4119
2026-01-18 12:58:58.24	325.65	29.91	-23.8	-25.1	19.3	0.00e+00	0	43	0	2882535424	7	4160
2026-01-18 12:59:01.24	326.04	29.39	-23.6	-24.7	19.5	0.00e+00	0	43	0	2899312640	7	4078
2026-01-18 12:59:04.26	326.41	28.87	-23.8	-25.1	19.3	0.00e+00	0	43	0	2916089856	7	4166
2026-01-18 12:59:07.27	326.77	28.36	-23.8	-25.0	19.3	0.00e+00	0	43	0	2932867072	7	4151
2026-01-18 12:59:10.28	327.12	27.86	-23.7	-24.8	19.4	0.00e+00	0	43	0	2949644288	7	4103
2026-01-18 12:59:13.27	327.46	27.37	-23.6	-24.6	19.5	0.00e+00	0	43	0	2966421504	7	4046
2026-01-18 12:59:16.27	327.79	26.89	-23.7	-24.9	19.3	0.00e+00	0	43	0	2983198720	7	4121
2026-01-18 12:59:19.28	328.11	26.41	-23.8	-25.1	19.2	0.00e+00	0	43	0	2999975936	7	4165
2026-01-18 12:59:22.30	328.43	25.94	-24.0	-25.5	19.0	0.00e+00	0	43	0	3017801728	7	4270
2026-01-18 12:59:25.30	328.73	25.48	-24.0	-25.0	19.0	0.00e+00	0	43	0	3034578944	8	4032
2026-01-18 12:59:28.31	329.02	25.02	-24.0	-24.9	19.1	0.00e+00	0	43	0	3051356160	8	4002
2026-01-18 12:59:31.31	329.31	24.58	-23.9	-24.9	19.1	0.00e+00	0	43	0	3068133376	8	3996
2026-01-18 12:59:34.32	329.59	24.14	-24.1	-25.2	18.9	0.00e+00	0	43	0	3084910592	8	4088
2026-01-18 12:59:37.33	329.86	23.70	-24.3	-25.7	18.6	0.00e+00	0	43	0	3101687808	8	4211
2026-01-18 12:59:40.32	330.12	23.28	-24.4	-25.9	18.5	0.00e+00	0	43	0	3118465024	8	4267
2026-01-18 12:59:43.32	330.38	22.86	-24.5	-25.5	18.5	0.00e+00	0	43	0	3135242240	9	4051
2026-01-18 12:59:46.32	330.63	22.44	-24.6	-25.7	18.3	0.00e+00	0	43	0	3152019456	9	4111
2026-01-18 12:59:49.33	330.88	22.03	-24.4	-25.4	18.5	0.00e+00	0	43	0	3169845248	9	4025
2026-01-18 12:59:52.35	331.12	21.63	-24.5	-25.5	18.5	0.00e+00	0	43	0	3186622464	9	4040
2026-01-18 12:59:55.37	331.35	21.23	-24.5	-25.6	18.3	0.00e+00	0	43	0	3203399680	9	4088
2026-01-18 12:59:58.38	331.58	20.84	-24.7	-25.9	18.2	0.00e+00	0	43	0	3220176896	9	4151
2026-01-18 13:00:01.38	331.81	20.45	-24.8	-26.1	18.1	0.00e+00	0	43	0	3236954112	9	4212
2026-01-18 13:00:04.38	332.02	20.08	-24.8	-26.3	18.0	0.00e+00	0	43	0	3253731328	9	4240
2026-01-18 13:00:07.39	332.24	19.70	-25.3	-26.8	17.5	0.00e+00	0	43	0	3270508544	10	4269
2026-01-18 13:00:10.41	332.44	19.33	-25.0	-26.2	17.8	0.00e+00	0	43	0	3288334336	10	4112
2026-01-18 13:00:13.42	332.65	18.97	-25.1	-26.4	17.6	0.00e+00	0	43	0	3305111552	10	4153
2026-01-18 13:00:16.42	332.85	18.61	-25.2	-26.5	17.6	0.00e+00	0	43	0	3321888768	10	4186
2026-01-18 13:00:19.43	333.04	18.25	-25.3	-26.8	17.4	0.00e+00	0	43	0	3338665984	10	4263
2026-01-18 13:00:22.44	333.23	17.90	-25.5	-27.1	17.2	0.00e+00	0	43	0	3355443200	10	4339
2026-01-18 13:00:25.45	333.42	17.56	-25.6	-26.9	17.1	0.00e+00	0	43	0	3372220416	11	4168
2026-01-18 13:00:28.46	333.60	17.22	-25.7	-27.1	16.9	1.10e-06	0	43	0	3388997632	11	4243
2026-01-18 13:00:31.45	333.78	16.88	-25.9	-27.5	16.7	0.00e+00	0	43	0	3405774848	11	4332
2026-01-18 13:00:34.46	333.95	16.55	-25.9	-27.5	16.7	0.00e+00	0	43	0	3423600640	11	4359
2026-01-18 13:00:37.47	334.13	16.22	-25.9	-27.1	16.6	0.00e+00	0	43	0	3440377856	12	4124
2026-01-18 13:00:40.49	334.29	15.90	-25.9	-27.1	16.5	0.00e+00	0	43	0	3457155072	12	4142
2026-01-18 13:00:43.50	334.46	15.58	-26.1	-27.5	16.3	0.00e+00	0	43	0	3473932288	12	4244
2026-01-18 13:00:46.50	334.62	15.27	-26.1	-27.6	16.2	0.00e+00	0	43	0	3490709504	12	4261
2026-01-18 13:00:49.51	334.78	14.95	-26.3	-27.9	16.0	0.00e+00	0	43	0	3507486720	12	4351
2026-01-18 13:00:52.52	334.94	14.65	-26.4	-27.8	15.8	0.00e+00	0	43	0	3524263936	13	4192
2026-01-18 13:00:55.53	335.09	14.34	-26.0	-26.8	16.3	0.00e+00	0	43	0	3542089728	13	3957
2026-01-18 13:00:58.54	335.24	14.04	-26.2	-27.2	16.1	0.00e+00	0	43	0	3558866944	13	4042
2026-01-18 13:01:01.55	335.39	13.75	-26.2	-27.2	16.1	0.00e+00	0	43	0	3575644160	13	4048
2026-01-18 13:01:04.55	335.53	13.45	-26.3	-27.5	15.9	0.00e+00	0	43	0	3592421376	13	4133
2026-01-18 13:01:07.57	335.67	13.16	-26.5	-27.8	15.7	0.00e+00	0	43	0	3609198592	13	4216
2026-01-18 13:01:10.57	335.81	12.88	-26.6	-28.2	15.5	0.00e+00	0	43	0	3625975808	13	4318
2026-01-18 13:01:13.59	335.95	12.59	-26.6	-28.1	15.6	0.00e+00	0	43	0	3643801600	13	4280
2026-01-18 13:01:16.60	336.08	12.31	-26.7	-28.3	15.4	0.00e+00	0	43	0	3660578816	13	4352
2026-01-18 13:01:19.62	336.22	12.03	-26.7	-28.4	15.3	0.00e+00	0	43	0	3677356032	13	4381
2026-01-18 13:01:22.64	336.35	11.76	-26.7	-28.5	15.3	0.00e+00	0	43	0	3694133248	13	4388
2026-01-18 13:01:25.65	336.48	11.49	-26.8	-28.6	15.2	1.10e-06	0	43	0	3710910464	13	4420
2026-01-18 13:01:28.66	336.60	11.22	-26.9	-28.9	15.0	0.00e+00	0	43	0	3727687680	13	4528
2026-01-18 13:01:31.67	336.73	10.95	-26.9	-28.4	15.0	0.00e+00	0	43	0	3744464896	14	4263
2026-01-18 13:01:34.68	336.85	10.69	-27.0	-28.5	14.9	0.00e+00	0	43	0	3762290688	14	4305
2026-01-18 13:01:37.70	336.97	10.43	-27.1	-28.8	14.7	0.00e+00	0	43	0	3779067904	14	4370
2026-01-18 13:01:40.71	337.09	10.17	-27.1	-28.9	14.7	1.10e-06	0	43	0	3795845120	14	4388
2026-01-18 13:01:43.72	337.20	9.92	-27.2	-28.9	14.6	0.00e+00	0	43	0	3812622336	14	4416
2026-01-18 13:01:46.73	337.32	9.66	-27.1	-28.9	14.6	1.10e-06	0	43	0	3829399552	14	4411
2026-01-18 13:01:49.74	337.43	9.41	-27.3	-29.2	14.5	2.20e-06	0	43	0	3847225344	14	4489
2026-01-18 13:01:52.74	337.54	9.17	-27.4	-29.4	14.3	2.20e-06	0	43	0	3864002560	14	4564
2026-01-18 13:01:55.75	337.65	8.92	-27.5	-29.2	14.1	4.50e-06	0	43	0	3880779776	15	4375
2026-01-18 13:01:58.76	337.76	8.68	-27.6	-29.4	13.9	2.20e-06	0	43	0	3897556992	15	4444
2026-01-18 13:02:01.77	337.87	8.44	-27.5	-29.2	14.0	1.02e-05	0	43	0	3914334208	15	4381
2026-01-18 13:02:04.78	337.97	8.20	-27.4	-29.1	14.1	4.50e-06	0	43	0	3931111424	15	4347
2026-01-18 13:02:07.79	338.08	7.96	-27.6	-29.6	13.8	1.14e-05	0	43	0	3947888640	15	4492
2026-01-18 13:02:10.80	338.18	7.73	-27.7	-29.6	13.7	1.02e-05	0	43	0	3964665856	15	4505
2026-01-18 13:02:13.80	338.28	7.50	-27.6	-29.6	13.7	5.70e-06	0	43	0	3982491648	15	4502
2026-01-18 13:02:16.80	338.38	7.27	-27.6	-29.4	13.8	4.50e-06	0	43	0	3999268864	15	4446
2026-01-18 13:02:19.81	338.48	7.04	-33.4	-44.0	3.8	8.46e-01	0	43	104	4013948928	26	12225

#Closed at: 2026-01-18 13:02:22
#Recorded file [4013 MB]: D:/data/31010_260118_155025.dat