passes_logs/2026/01/18/R2M6_AANII_01/R2M6_AANII_01__20260118_161628_FENGYUN_3E_rec.log

#Pass ID: 20260118_161628_FENGYUN 3E
#Satellite: FENGYUN 3E
#Configuration: FENGYUN 3E
#almurnet v.1.7.20240730
#Start time: 2026-01-18 16:16:27

#Version: 2.2.20231116
#Station: R2M6_AANII_01
#Location: 30.233357 lon 59.946436 lat
#TLE: 1 49008U 21062A   26017.61301378  .00000104  00000+0  69808-4 0  9996
#TLE: 2 49008  98.7484  22.7108 0002130 132.1860 227.9498 14.19886007235218

#Time	Az	El	Level	Level2	SNR	BER	BlckErr	Temp	State	Recorded	gain1	gain2
2026-01-18 16:16:27.73	215.19	6.97	-27.8	-28.7	5.7	7.41e-01	0	41	0	0	16	4012
2026-01-18 16:16:30.74	215.49	7.16	-29.4	-31.3	9.9	9.51e-03	0	41	0	7340032	19	4450
2026-01-18 16:16:33.75	215.79	7.35	-28.8	-30.1	11.0	2.46e-03	0	41	0	28311552	18	4213
2026-01-18 16:16:36.75	216.09	7.53	-27.9	-28.5	12.3	1.52e-04	0	41	0	50331648	17	3856
2026-01-18 16:16:39.75	216.39	7.72	-27.5	-27.9	13.0	3.54e-05	0	42	0	72351744	16	3804
2026-01-18 16:16:42.77	216.71	7.91	-27.6	-28.8	12.6	4.92e-05	0	42	0	93323264	15	4141
2026-01-18 16:16:45.78	217.02	8.10	-27.5	-28.7	12.7	1.45e-04	0	42	0	115343360	15	4102
2026-01-18 16:16:48.78	217.34	8.29	-27.5	-28.7	12.7	8.23e-05	0	42	0	137363456	15	4104
2026-01-18 16:16:51.79	217.66	8.48	-26.9	-27.2	13.6	8.00e-06	0	42	0	159383552	15	3731
2026-01-18 16:16:54.80	217.99	8.68	-26.9	-27.8	13.6	6.80e-06	0	42	0	180355072	14	3960
2026-01-18 16:16:57.80	218.32	8.87	-26.8	-27.3	13.9	4.50e-06	0	42	0	202375168	14	3853
2026-01-18 16:17:00.82	218.66	9.06	-27.1	-28.2	13.5	8.00e-06	0	42	0	224395264	14	4058
2026-01-18 16:17:03.82	218.99	9.26	-26.9	-27.8	13.7	4.50e-06	0	42	0	245366784	14	3969
2026-01-18 16:17:06.83	219.34	9.45	-26.9	-27.7	13.7	6.80e-06	0	42	0	267386880	14	3953
2026-01-18 16:17:09.84	219.69	9.65	-27.0	-27.8	13.7	8.00e-06	0	42	0	289406976	14	3966
2026-01-18 16:17:12.85	220.04	9.84	-26.6	-27.0	14.1	2.20e-06	0	42	0	311427072	14	3767
2026-01-18 16:17:15.86	220.40	10.04	-26.7	-27.2	14.1	3.40e-06	0	42	0	332398592	14	3799
2026-01-18 16:17:18.88	220.76	10.24	-26.9	-27.6	13.8	9.10e-06	0	42	0	354418688	14	3918
2026-01-18 16:17:21.89	221.13	10.44	-27.2	-28.3	13.5	6.80e-06	0	43	0	376438784	14	4105
2026-01-18 16:17:24.89	221.50	10.63	-26.8	-27.4	14.0	1.10e-06	0	43	0	398458880	14	3854
2026-01-18 16:17:27.90	221.88	10.83	-26.8	-27.5	13.9	2.20e-06	0	43	0	419430400	14	3894
2026-01-18 16:17:30.90	222.26	11.03	-26.8	-27.4	14.0	1.10e-06	0	43	0	441450496	14	3863
2026-01-18 16:17:33.92	222.65	11.23	-26.7	-27.1	14.2	0.00e+00	0	43	0	462422016	14	3797
2026-01-18 16:17:36.92	223.04	11.43	-26.5	-26.8	14.4	0.00e+00	0	43	0	484442112	14	3726
2026-01-18 16:17:39.94	223.44	11.64	-26.4	-27.1	14.5	0.00e+00	0	43	0	506462208	13	3876
2026-01-18 16:17:42.95	223.84	11.84	-26.6	-27.4	14.3	1.10e-06	0	43	0	528482304	13	3960
2026-01-18 16:17:45.96	224.25	12.04	-26.4	-27.1	14.5	0.00e+00	0	43	0	549453824	13	3877
2026-01-18 16:17:48.97	224.66	12.24	-26.3	-26.9	14.7	0.00e+00	0	43	0	571473920	13	3836
2026-01-18 16:17:51.97	225.08	12.44	-26.4	-27.0	14.6	0.00e+00	0	43	0	593494016	13	3852
2026-01-18 16:17:54.96	225.50	12.64	-26.3	-26.8	14.7	0.00e+00	0	43	0	614465536	13	3814
2026-01-18 16:17:57.97	225.93	12.85	-26.4	-27.1	14.6	0.00e+00	0	43	0	636485632	13	3877
2026-01-18 16:18:00.98	226.37	13.05	-26.6	-27.5	14.4	0.00e+00	0	43	0	658505728	13	3973
2026-01-18 16:18:04.00	226.81	13.25	-26.2	-26.4	14.9	0.00e+00	0	43	0	680525824	13	3723
2026-01-18 16:18:07.00	227.26	13.46	-25.9	-26.3	15.3	0.00e+00	0	43	0	701497344	12	3792
2026-01-18 16:18:10.01	227.71	13.66	-25.7	-26.1	15.5	0.00e+00	0	43	0	723517440	12	3730
2026-01-18 16:18:13.01	228.17	13.86	-25.7	-25.9	15.6	0.00e+00	0	43	0	745537536	12	3687
2026-01-18 16:18:16.00	228.64	14.07	-25.6	-25.8	15.6	0.00e+00	0	43	0	766509056	12	3676
2026-01-18 16:18:19.01	229.11	14.27	-25.5	-25.5	15.8	0.00e+00	0	43	0	788529152	12	3588
2026-01-18 16:18:22.02	229.59	14.47	-25.6	-26.3	15.7	0.00e+00	0	43	0	810549248	11	3879
2026-01-18 16:18:25.03	230.07	14.68	-25.8	-26.6	15.6	0.00e+00	0	43	0	832569344	11	3957
2026-01-18 16:18:28.04	230.56	14.88	-25.7	-26.4	15.7	0.00e+00	0	43	0	853540864	11	3906
2026-01-18 16:18:31.04	231.06	15.08	-25.5	-26.1	15.9	0.00e+00	0	43	0	875560960	11	3843
2026-01-18 16:18:34.05	231.57	15.29	-25.5	-26.0	15.9	0.00e+00	0	43	0	897581056	11	3813
2026-01-18 16:18:37.05	232.07	15.49	-25.4	-25.8	16.0	0.00e+00	0	43	0	918552576	11	3776
2026-01-18 16:18:40.06	232.59	15.69	-25.4	-25.7	16.1	0.00e+00	0	43	0	940572672	11	3735
2026-01-18 16:18:43.08	233.12	15.89	-25.3	-25.6	16.2	0.00e+00	0	43	0	962592768	11	3720
2026-01-18 16:18:46.09	233.65	16.09	-25.3	-25.6	16.2	0.00e+00	0	43	0	984612864	11	3719
2026-01-18 16:18:49.10	234.19	16.29	-25.2	-25.3	16.4	0.00e+00	0	43	0	1005584384	11	3646
2026-01-18 16:18:52.10	234.74	16.49	-25.1	-25.1	16.5	0.00e+00	0	43	0	1027604480	11	3604
2026-01-18 16:18:55.12	235.29	16.69	-25.3	-25.6	16.2	0.00e+00	0	43	0	1048576000	11	3711
2026-01-18 16:18:58.13	235.85	16.88	-25.3	-25.6	16.3	0.00e+00	0	43	0	1070596096	11	3709
2026-01-18 16:19:01.14	236.42	17.08	-25.2	-25.4	16.4	0.00e+00	0	43	0	1092616192	11	3672
2026-01-18 16:19:04.15	236.99	17.28	-25.0	-24.9	16.7	0.00e+00	0	43	0	1114636288	11	3551
2026-01-18 16:19:07.16	237.57	17.47	-25.1	-25.1	16.5	0.00e+00	0	43	0	1135607808	11	3598
2026-01-18 16:19:10.17	238.16	17.66	-24.9	-25.1	16.8	0.00e+00	0	44	0	1157627904	10	3697
2026-01-18 16:19:13.17	238.76	17.85	-24.8	-25.0	16.9	0.00e+00	0	43	0	1179648000	10	3678
2026-01-18 16:19:16.18	239.36	18.04	-24.9	-25.1	16.8	0.00e+00	0	43	0	1201668096	10	3695
2026-01-18 16:19:19.19	239.97	18.23	-24.9	-25.3	16.7	0.00e+00	0	43	0	1222639616	10	3736
2026-01-18 16:19:22.19	240.59	18.41	-25.0	-25.4	16.7	0.00e+00	0	43	0	1244659712	10	3764
2026-01-18 16:19:25.20	241.21	18.60	-25.0	-25.4	16.7	0.00e+00	0	43	0	1266679808	10	3764
2026-01-18 16:19:28.20	241.84	18.78	-24.8	-24.9	16.9	0.00e+00	0	44	0	1287651328	10	3659
2026-01-18 16:19:31.20	242.48	18.96	-24.6	-24.6	17.1	0.00e+00	0	44	0	1309671424	10	3598
2026-01-18 16:19:34.21	243.13	19.14	-24.7	-24.7	17.1	0.00e+00	0	43	0	1331691520	10	3613
2026-01-18 16:19:37.21	243.78	19.31	-24.6	-24.5	17.2	0.00e+00	0	44	0	1352663040	10	3558
2026-01-18 16:19:40.21	244.44	19.48	-24.6	-24.5	17.2	0.00e+00	0	44	0	1374683136	10	3571
2026-01-18 16:19:43.22	245.11	19.65	-24.9	-25.1	16.8	0.00e+00	0	44	0	1396703232	10	3709
2026-01-18 16:19:46.25	245.79	19.82	-24.8	-24.9	17.0	0.00e+00	0	44	0	1418723328	10	3649
2026-01-18 16:19:49.24	246.47	19.99	-24.8	-24.9	17.0	0.00e+00	0	44	0	1439694848	10	3657
2026-01-18 16:19:52.23	247.16	20.15	-24.7	-24.9	17.0	0.00e+00	0	43	0	1461714944	10	3650
2026-01-18 16:19:55.24	247.86	20.31	-24.6	-24.6	17.2	0.00e+00	0	44	0	1483735040	10	3586
2026-01-18 16:19:58.25	248.56	20.46	-24.3	-24.3	17.6	0.00e+00	0	44	0	1504706560	9	3620
2026-01-18 16:20:01.26	249.27	20.61	-24.3	-24.4	17.5	0.00e+00	0	43	0	1526726656	9	3644
2026-01-18 16:20:04.27	249.99	20.76	-24.5	-24.7	17.4	0.00e+00	0	44	0	1548746752	9	3713
2026-01-18 16:20:07.29	250.72	20.91	-24.4	-24.6	17.4	0.00e+00	0	44	0	1570766848	9	3679
2026-01-18 16:20:10.29	251.45	21.05	-24.9	-25.6	17.0	0.00e+00	0	44	0	1591738368	9	3914
2026-01-18 16:20:13.30	252.19	21.18	-24.5	-24.9	17.3	0.00e+00	0	43	0	1613758464	9	3756
2026-01-18 16:20:16.32	252.94	21.32	-24.6	-25.0	17.2	0.00e+00	0	44	0	1634729984	9	3787
2026-01-18 16:20:19.32	253.68	21.45	-24.5	-24.7	17.4	0.00e+00	0	44	0	1656750080	9	3718
2026-01-18 16:20:22.32	254.44	21.57	-24.5	-24.8	17.4	0.00e+00	0	44	0	1678770176	9	3729
2026-01-18 16:20:25.32	255.20	21.69	-24.6	-25.1	17.2	0.00e+00	0	44	0	1699741696	9	3801
2026-01-18 16:20:28.34	255.97	21.81	-24.5	-24.7	17.4	0.00e+00	0	43	0	1721761792	9	3719
2026-01-18 16:20:31.36	256.75	21.92	-24.5	-24.8	17.4	0.00e+00	0	43	0	1743781888	9	3736
2026-01-18 16:20:34.37	257.53	22.02	-24.2	-24.2	17.7	0.00e+00	0	44	0	1765801984	9	3605
2026-01-18 16:20:37.38	258.31	22.12	-24.0	-23.8	17.9	0.00e+00	0	43	0	1786773504	9	3512
2026-01-18 16:20:40.38	259.10	22.22	-24.0	-23.7	18.0	0.00e+00	0	44	0	1808793600	9	3476
2026-01-18 16:20:43.39	259.89	22.31	-24.0	-23.8	17.9	0.00e+00	0	44	0	1830813696	9	3500
2026-01-18 16:20:46.39	260.68	22.39	-23.8	-23.8	18.2	0.00e+00	0	44	0	1852833792	8	3607
2026-01-18 16:20:49.40	261.49	22.47	-23.9	-24.0	18.1	0.00e+00	0	44	0	1873805312	8	3655
2026-01-18 16:20:52.42	262.29	22.55	-24.2	-24.7	17.7	0.00e+00	0	44	0	1895825408	8	3803
2026-01-18 16:20:55.42	263.10	22.62	-24.1	-24.5	17.8	0.00e+00	0	43	0	1917845504	8	3757
2026-01-18 16:20:58.44	263.92	22.68	-24.1	-24.5	17.8	0.00e+00	0	44	0	1939865600	8	3755
2026-01-18 16:21:01.45	264.73	22.74	-24.2	-24.7	17.7	0.00e+00	0	44	0	1960837120	8	3803
2026-01-18 16:21:04.46	265.55	22.79	-24.2	-24.6	17.8	0.00e+00	0	44	0	1982857216	8	3794
2026-01-18 16:21:07.47	266.37	22.84	-24.2	-24.6	17.8	0.00e+00	0	44	0	2004877312	8	3798
2026-01-18 16:21:10.48	267.20	22.88	-24.0	-24.3	18.0	0.00e+00	0	44	0	2025848832	8	3720
2026-01-18 16:21:13.50	268.02	22.91	-24.3	-24.9	17.6	0.00e+00	0	44	0	2047868928	8	3854
2026-01-18 16:21:16.51	268.85	22.94	-24.3	-24.9	17.6	0.00e+00	0	44	0	2069889024	8	3849
2026-01-18 16:21:19.53	269.68	22.96	-24.2	-24.8	17.7	0.00e+00	0	44	0	2091909120	8	3822
2026-01-18 16:21:22.53	270.51	22.97	-24.0	-24.2	18.0	0.00e+00	0	44	0	2112880640	8	3685
2026-01-18 16:21:25.53	271.33	22.98	-24.0	-24.3	17.9	0.00e+00	0	44	0	2134900736	8	3720
2026-01-18 16:21:28.54	272.16	22.99	-24.1	-24.4	17.9	0.00e+00	0	44	0	2156920832	8	3732
2026-01-18 16:21:31.55	272.99	22.99	-24.1	-24.4	17.9	0.00e+00	0	44	0	2178940928	8	3727
2026-01-18 16:21:34.56	273.82	22.98	-24.2	-24.6	17.8	0.00e+00	0	43	0	2199912448	8	3793
2026-01-18 16:21:37.57	274.65	22.96	-24.3	-24.9	17.6	0.00e+00	0	44	0	2221932544	8	3859
2026-01-18 16:21:40.57	275.47	22.94	-24.4	-25.1	17.5	0.00e+00	0	44	0	2242904064	8	3910
2026-01-18 16:21:43.59	276.30	22.91	-24.3	-24.8	17.7	0.00e+00	0	44	0	2264924160	8	3827
2026-01-18 16:21:46.59	277.13	22.88	-24.4	-25.1	17.6	0.00e+00	0	44	0	2286944256	8	3896
2026-01-18 16:21:49.60	277.95	22.84	-24.0	-24.2	18.0	0.00e+00	0	44	0	2308964352	8	3703
2026-01-18 16:21:52.61	278.77	22.80	-24.2	-24.7	17.7	0.00e+00	0	44	0	2329935872	8	3810
2026-01-18 16:21:55.62	279.59	22.75	-24.3	-24.8	17.7	0.00e+00	0	44	0	2351955968	8	3833
2026-01-18 16:21:58.63	280.40	22.69	-24.1	-24.5	17.8	0.00e+00	0	44	0	2373976064	8	3765
2026-01-18 16:22:01.64	281.21	22.63	-24.3	-24.9	17.6	0.00e+00	0	44	0	2395996160	8	3851
2026-01-18 16:22:04.65	282.02	22.56	-24.3	-24.9	17.6	0.00e+00	0	44	0	2416967680	8	3852
2026-01-18 16:22:07.64	282.82	22.49	-24.2	-24.8	17.7	0.00e+00	0	44	0	2438987776	8	3820
2026-01-18 16:22:10.64	283.62	22.41	-24.4	-25.1	17.6	0.00e+00	0	44	0	2461007872	8	3897
2026-01-18 16:22:13.64	284.42	22.33	-24.3	-24.9	17.6	0.00e+00	0	44	0	2481979392	8	3853
2026-01-18 16:22:16.66	285.21	22.24	-24.2	-24.7	17.8	0.00e+00	0	44	0	2503999488	8	3796
2026-01-18 16:22:19.66	286.00	22.14	-24.3	-24.8	17.7	0.00e+00	0	44	0	2526019584	8	3816
2026-01-18 16:22:22.66	286.78	22.04	-24.5	-24.8	17.4	0.00e+00	0	44	0	2546991104	9	3722
2026-01-18 16:22:25.67	287.56	21.94	-24.4	-24.7	17.5	0.00e+00	0	44	0	2569011200	9	3704
2026-01-18 16:22:28.67	288.33	21.83	-24.3	-24.5	17.6	0.00e+00	0	44	0	2591031296	9	3649
2026-01-18 16:22:31.68	289.09	21.72	-24.6	-24.9	17.4	0.00e+00	0	44	0	2612002816	9	3756
2026-01-18 16:22:34.69	289.86	21.60	-24.6	-25.0	17.3	0.00e+00	0	44	0	2634022912	9	3783
2026-01-18 16:22:37.70	290.61	21.48	-24.8	-25.4	17.1	0.00e+00	0	44	0	2656043008	9	3862
2026-01-18 16:22:40.71	291.36	21.35	-24.6	-25.0	17.3	0.00e+00	0	44	0	2678063104	9	3779
2026-01-18 16:22:43.73	292.11	21.22	-24.6	-25.0	17.3	0.00e+00	0	44	0	2699034624	9	3765
2026-01-18 16:22:46.74	292.85	21.08	-24.6	-25.1	17.2	0.00e+00	0	44	0	2721054720	9	3792
2026-01-18 16:22:49.75	293.58	20.94	-24.7	-25.2	17.2	0.00e+00	0	44	0	2743074816	9	3819
2026-01-18 16:22:52.77	294.30	20.80	-24.9	-25.7	16.9	0.00e+00	0	44	0	2765094912	9	3946
2026-01-18 16:22:55.78	295.02	20.65	-25.3	-26.0	16.6	0.00e+00	0	44	0	2786066432	10	3891
2026-01-18 16:22:58.79	295.73	20.50	-25.1	-25.6	16.8	0.00e+00	0	44	0	2808086528	10	3801
2026-01-18 16:23:01.79	296.43	20.35	-25.1	-25.5	16.8	0.00e+00	0	44	0	2830106624	10	3790
2026-01-18 16:23:04.80	297.13	20.19	-25.1	-25.6	16.7	0.00e+00	0	44	0	2851078144	10	3809
2026-01-18 16:23:07.82	297.82	20.03	-24.6	-24.6	17.2	0.00e+00	0	44	0	2873098240	10	3587
2026-01-18 16:23:10.82	298.50	19.87	-24.8	-25.0	17.1	0.00e+00	0	44	0	2895118336	10	3667
2026-01-18 16:23:13.82	299.18	19.70	-25.2	-25.8	16.7	0.00e+00	0	44	0	2916089856	10	3845
2026-01-18 16:23:16.84	299.85	19.53	-25.4	-26.1	16.4	0.00e+00	0	44	0	2938109952	10	3934
2026-01-18 16:23:19.85	300.51	19.36	-25.5	-26.4	16.3	1.10e-06	0	44	0	2960130048	10	3999
2026-01-18 16:23:22.86	301.16	19.19	-25.1	-25.6	16.7	0.00e+00	0	44	0	2982150144	10	3813
2026-01-18 16:23:25.87	301.81	19.01	-25.1	-25.6	16.7	0.00e+00	0	44	0	3003121664	10	3801
2026-01-18 16:23:28.88	302.45	18.83	-25.1	-25.5	16.7	0.00e+00	0	44	0	3025141760	10	3792
2026-01-18 16:23:31.89	303.08	18.65	-25.1	-25.5	16.8	0.00e+00	0	44	0	3047161856	10	3792
2026-01-18 16:23:34.89	303.70	18.47	-25.1	-25.6	16.7	0.00e+00	0	44	0	3069181952	10	3808
2026-01-18 16:23:37.91	304.32	18.29	-25.3	-26.0	16.5	0.00e+00	0	44	0	3090153472	10	3905
2026-01-18 16:23:40.92	304.93	18.10	-25.3	-26.1	16.4	0.00e+00	0	44	0	3112173568	10	3934
2026-01-18 16:23:43.93	305.54	17.91	-25.5	-26.3	16.3	0.00e+00	0	44	0	3134193664	10	3986
2026-01-18 16:23:46.95	306.13	17.72	-26.0	-26.9	15.7	0.00e+00	0	44	0	3156213760	11	4026
2026-01-18 16:23:49.96	306.72	17.53	-25.4	-25.8	16.3	0.00e+00	0	44	0	3177185280	11	3750
2026-01-18 16:23:52.96	307.30	17.34	-25.4	-25.7	16.3	0.00e+00	0	44	0	3199205376	11	3733
2026-01-18 16:23:55.97	307.87	17.15	-25.4	-25.6	16.4	0.00e+00	0	44	0	3221225472	11	3713
2026-01-18 16:23:58.99	308.44	16.95	-25.5	-26.0	16.2	0.00e+00	0	44	0	3243245568	11	3805
2026-01-18 16:24:02.00	309.00	16.76	-25.7	-26.4	16.0	0.00e+00	0	44	0	3264217088	11	3907
2026-01-18 16:24:05.01	309.55	16.56	-25.8	-26.6	15.9	0.00e+00	0	44	0	3286237184	11	3938
2026-01-18 16:24:08.02	310.10	16.36	-25.9	-26.7	15.8	0.00e+00	0	44	0	3308257280	11	3967
2026-01-18 16:24:11.03	310.64	16.17	-25.8	-26.5	15.9	0.00e+00	0	44	0	3329228800	11	3930
2026-01-18 16:24:14.04	311.17	15.97	-25.8	-26.5	15.9	0.00e+00	0	44	0	3351248896	11	3920
2026-01-18 16:24:17.06	311.70	15.77	-25.8	-26.6	15.8	0.00e+00	0	44	0	3373268992	11	3938
2026-01-18 16:24:20.08	312.22	15.57	-25.8	-26.7	15.8	0.00e+00	0	44	0	3395289088	11	3963
2026-01-18 16:24:23.09	312.73	15.37	-26.0	-27.1	15.5	0.00e+00	0	44	0	3417309184	11	4076
2026-01-18 16:24:26.09	313.23	15.17	-26.2	-27.1	15.2	0.00e+00	0	44	0	3438280704	12	3962
2026-01-18 16:24:29.11	313.73	14.96	-26.4	-27.4	15.0	0.00e+00	0	44	0	3460300800	12	4043
2026-01-18 16:24:32.12	314.22	14.76	-26.4	-27.4	15.0	0.00e+00	0	44	0	3481272320	12	4054
2026-01-18 16:24:35.12	314.70	14.56	-25.9	-26.3	15.6	0.00e+00	0	44	0	3503292416	12	3774
2026-01-18 16:24:38.12	315.18	14.36	-25.7	-26.0	15.8	0.00e+00	0	44	0	3525312512	12	3696
2026-01-18 16:24:41.14	315.65	14.16	-25.9	-26.2	15.6	0.00e+00	0	44	0	3547332608	12	3764
2026-01-18 16:24:44.15	316.12	13.96	-26.0	-26.6	15.4	0.00e+00	0	44	0	3568304128	12	3841
2026-01-18 16:24:47.17	316.58	13.75	-26.1	-26.8	15.3	0.00e+00	0	44	0	3590324224	12	3893
2026-01-18 16:24:50.18	317.04	13.55	-26.3	-27.3	15.0	1.10e-06	0	44	0	3612344320	12	4028
2026-01-18 16:24:53.17	317.48	13.35	-26.5	-27.7	14.7	0.00e+00	0	44	0	3633315840	12	4119
2026-01-18 16:24:56.19	317.93	13.15	-26.7	-27.5	14.6	0.00e+00	0	44	0	3655335936	13	3970
2026-01-18 16:24:59.19	318.36	12.95	-26.2	-26.4	15.1	0.00e+00	0	44	0	3677356032	13	3710
2026-01-18 16:25:02.21	318.79	12.75	-26.1	-26.3	15.2	0.00e+00	0	44	0	3699376128	13	3686
2026-01-18 16:25:05.23	319.22	12.54	-26.1	-26.3	15.2	0.00e+00	0	44	0	3720347648	13	3680
2026-01-18 16:25:08.23	319.64	12.34	-26.1	-26.4	15.2	0.00e+00	0	44	0	3742367744	13	3691
2026-01-18 16:25:11.24	320.05	12.14	-26.4	-26.9	14.9	1.10e-06	0	44	0	3764387840	13	3811
2026-01-18 16:25:14.24	320.46	11.94	-26.6	-27.5	14.5	0.00e+00	0	44	0	3786407936	13	3961
2026-01-18 16:25:17.25	320.86	11.74	-26.8	-27.9	14.2	1.10e-06	0	44	0	3807379456	13	4088
2026-01-18 16:25:20.26	321.26	11.54	-26.8	-27.9	14.2	2.20e-06	0	44	0	3829399552	13	4075
2026-01-18 16:25:23.27	321.65	11.35	-26.6	-27.5	14.5	0.00e+00	0	44	0	3851419648	13	3962
2026-01-18 16:25:26.28	322.04	11.15	-26.7	-27.5	14.4	0.00e+00	0	44	0	3872391168	13	3985
2026-01-18 16:25:29.28	322.42	10.95	-26.5	-27.3	14.5	1.10e-06	0	44	0	3894411264	13	3916
2026-01-18 16:25:32.29	322.80	10.75	-26.6	-27.4	14.4	0.00e+00	0	44	0	3916431360	13	3951
2026-01-18 16:25:35.31	323.17	10.55	-26.5	-27.1	14.6	1.10e-06	0	44	0	3938451456	13	3876
2026-01-18 16:25:38.33	323.54	10.36	-26.6	-27.4	14.4	0.00e+00	0	44	0	3959422976	13	3956
2026-01-18 16:25:41.32	323.90	10.16	-26.5	-27.3	14.5	0.00e+00	0	44	0	3981443072	13	3916
2026-01-18 16:25:44.33	324.26	9.97	-26.7	-27.6	14.3	1.10e-06	0	44	0	4003463168	13	4013
2026-01-18 16:25:47.33	324.61	9.77	-26.9	-28.1	14.0	0.00e+00	0	44	0	4024434688	13	4128
2026-01-18 16:25:50.33	324.96	9.58	-27.2	-28.3	13.6	1.02e-05	0	44	0	4046454784	14	4074
2026-01-18 16:25:53.34	325.31	9.39	-27.3	-28.6	13.4	1.02e-05	0	44	0	4068474880	14	4158
2026-01-18 16:25:56.35	325.65	9.19	-27.6	-29.1	13.1	2.05e-05	0	44	0	4089446400	14	4302
2026-01-18 16:25:59.36	325.99	9.00	-27.1	-28.1	13.7	5.70e-06	0	44	0	4111466496	14	4030
2026-01-18 16:26:02.35	326.32	8.81	-27.2	-28.2	13.6	5.70e-06	0	44	0	4133486592	14	4051
2026-01-18 16:26:05.36	326.64	8.62	-27.2	-28.2	13.6	5.70e-06	0	44	0	4154458112	14	4058
2026-01-18 16:26:08.37	326.97	8.43	-27.2	-28.3	13.5	8.00e-06	0	44	0	4176478208	14	4085
2026-01-18 16:26:11.37	327.29	8.24	-27.1	-28.1	13.6	2.20e-06	0	44	0	4198498304	14	4023
2026-01-18 16:26:14.38	327.60	8.05	-27.2	-28.2	13.5	5.70e-06	0	44	0	4220518400	14	4072
2026-01-18 16:26:17.40	327.92	7.87	-27.4	-28.7	13.2	1.71e-05	0	44	0	4241489920	14	4184
2026-01-18 16:26:20.42	328.23	7.68	-28.1	-29.3	12.9	2.40e-05	0	44	0	4263510016	15	4108
2026-01-18 16:26:23.42	328.53	7.49	-27.6	-28.6	12.9	3.89e-05	0	44	0	4285530112	15	4060
2026-01-18 16:26:26.43	328.83	7.31	-27.6	-28.8	12.8	5.37e-05	0	44	0	4306501632	15	4117
2026-01-18 16:26:29.45	329.13	7.12	-27.7	-29.0	12.7	4.92e-05	0	44	0	4328521728	15	4168

#Closed at: 2026-01-18 16:26:32
#Recorded file [4335 MB]: D:/data/31010_260118_191629.dat