passes_logs/2026/01/18/R2M6_AANII_01/R2M6_AANII_01__20260118_103947_AQUA_rec.log

#Pass ID: 20260118_103947_AQUA
#Satellite: AQUA
#Configuration: AQUA
#almurnet v.1.7.20240730
#Start time: 2026-01-18 10:44:21

#Version: 2.2.20231116
#Station: R2M6_AANII_01
#Location: 30.233357 lon 59.946436 lat
#TLE: 1 27424U 02022A   26017.29152041  .00000842  00000+0  17841-3 0  9992
#TLE: 2 27424  98.4085 343.7574 0002011  75.4099  30.6811 14.61825797261228

#Time	Az	El	Level	Level2	SNR	BER	BlckErr	Temp	State	Recorded	gain1	gain2
2026-01-18 10:44:21.86	53.24	27.40	-33.9	-48.4	3.8	1.49e+00	0	43	0	0	27	19076
2026-01-18 10:44:23.86	52.49	27.41	-34.5	-53.3	3.8	7.44e-01	0	43	104	0	31	31086
2026-01-18 10:44:25.86	51.74	27.40	-34.7	-53.5	3.8	7.47e-01	0	43	104	0	31	31371
2026-01-18 10:44:27.86	50.99	27.39	-34.8	-53.6	3.8	7.47e-01	0	43	104	0	31	31495
2026-01-18 10:44:29.85	50.25	27.38	-34.9	-53.9	3.8	7.43e-01	0	43	104	0	31	31778
2026-01-18 10:44:31.84	49.50	27.36	-34.9	-53.9	3.8	7.47e-01	0	43	104	0	31	31943
2026-01-18 10:44:33.83	48.76	27.33	-34.9	-53.8	3.8	7.43e-01	0	43	104	0	31	31444
2026-01-18 10:44:35.81	48.02	27.30	-34.9	-53.8	3.8	7.48e-01	0	43	104	0	31	31723
2026-01-18 10:44:37.80	47.28	27.26	-35.0	-54.0	3.8	7.44e-01	0	43	104	0	31	32019
2026-01-18 10:44:39.79	46.54	27.22	-35.1	-54.3	3.8	7.43e-01	0	43	104	0	31	32612
2026-01-18 10:44:41.80	45.80	27.18	-35.0	-54.1	3.8	7.48e-01	0	43	104	0	31	32152
2026-01-18 10:44:43.79	45.07	27.13	-35.1	-54.0	3.8	7.45e-01	0	43	104	0	31	31898
2026-01-18 10:44:45.78	44.34	27.07	-35.0	-53.9	3.8	7.45e-01	0	43	104	0	31	31814
2026-01-18 10:44:47.78	43.60	27.01	-35.0	-53.7	3.8	7.45e-01	0	43	104	0	31	31213
2026-01-18 10:44:49.77	42.88	26.95	-34.8	-53.1	3.8	7.44e-01	0	43	104	0	31	29532
2026-01-18 10:44:51.76	42.16	26.88	-34.6	-53.0	3.8	7.45e-01	0	43	104	0	31	29799
2026-01-18 10:44:53.76	41.43	26.80	-34.6	-53.1	3.8	7.46e-01	0	43	104	0	31	30286
2026-01-18 10:44:55.75	40.72	26.72	-34.6	-53.1	3.8	7.43e-01	0	43	104	0	31	30099
2026-01-18 10:44:57.76	40.00	26.64	-34.6	-53.0	3.8	7.45e-01	0	43	104	0	31	29929
2026-01-18 10:44:59.76	39.29	26.55	-34.6	-53.1	3.8	7.47e-01	0	43	104	0	31	30222
2026-01-18 10:45:01.75	38.59	26.46	-34.6	-53.1	3.8	7.45e-01	0	43	104	0	31	30175
2026-01-18 10:45:03.75	37.89	26.36	-34.5	-52.5	3.8	7.46e-01	0	43	104	0	31	28658
2026-01-18 10:45:05.73	37.20	26.26	-34.5	-52.5	3.8	7.46e-01	0	43	104	0	31	28641
2026-01-18 10:45:07.73	36.50	26.16	-34.6	-52.9	3.8	7.44e-01	0	43	104	0	31	29628
2026-01-18 10:45:09.73	35.82	26.05	-34.6	-53.1	3.8	7.45e-01	0	43	104	0	31	30460
2026-01-18 10:45:11.73	35.13	25.93	-34.5	-52.6	3.8	7.44e-01	0	43	104	0	31	28780
2026-01-18 10:45:13.73	34.46	25.82	-34.3	-52.0	3.8	7.45e-01	0	43	104	0	30	27575
2026-01-18 10:45:15.73	33.78	25.70	-32.8	-46.6	3.8	7.45e-01	0	43	104	0	27	17526
2026-01-18 10:45:17.74	33.11	25.57	-32.7	-46.8	3.8	7.46e-01	0	43	104	0	26	18332
2026-01-18 10:45:19.73	32.46	25.45	-33.3	-48.4	3.8	7.43e-01	0	43	104	0	27	20348
2026-01-18 10:45:21.71	31.81	25.32	-33.7	-49.7	3.8	7.43e-01	0	43	104	0	28	22650
2026-01-18 10:45:23.72	31.15	25.18	-33.6	-49.4	3.8	7.47e-01	0	43	104	0	28	22052
2026-01-18 10:45:25.71	30.51	25.05	-33.7	-49.4	3.8	7.46e-01	0	43	104	0	28	22021
2026-01-18 10:45:27.70	29.88	24.91	-33.7	-49.6	3.8	7.46e-01	0	43	104	0	28	22466
2026-01-18 10:45:29.70	29.25	24.77	-33.9	-50.4	3.8	7.46e-01	0	43	104	0	28	23944
2026-01-18 10:45:31.70	28.62	24.62	-33.4	-48.4	3.8	7.46e-01	0	43	104	0	28	20138
2026-01-18 10:45:33.70	28.00	24.47	-32.7	-45.9	3.8	7.47e-01	0	43	104	0	27	16601
2026-01-18 10:45:35.69	27.39	24.32	-32.1	-44.9	3.8	7.46e-01	0	43	104	0	26	15691
2026-01-18 10:45:37.68	26.78	24.17	-32.3	-45.4	3.8	7.45e-01	0	43	104	0	26	16192
2026-01-18 10:45:39.69	26.18	24.01	-32.7	-46.6	3.8	7.47e-01	0	43	104	0	26	17897
2026-01-18 10:45:41.68	25.59	23.86	-32.9	-47.5	3.8	7.42e-01	0	43	104	0	26	19303
2026-01-18 10:45:43.67	25.00	23.70	-32.5	-46.1	3.8	7.44e-01	0	43	104	0	26	17159
2026-01-18 10:45:45.66	24.42	23.54	-32.2	-45.2	3.8	7.46e-01	0	43	104	0	26	16181
2026-01-18 10:45:47.66	23.85	23.37	-32.2	-45.3	3.8	7.47e-01	0	43	104	0	26	16148
2026-01-18 10:45:49.65	23.28	23.21	-33.1	-47.9	3.8	7.43e-01	0	43	104	0	27	19633
2026-01-18 10:45:51.64	22.72	23.04	-33.7	-49.5	3.8	7.47e-01	0	43	104	0	28	22344
2026-01-18 10:45:53.62	22.17	22.87	-33.3	-48.2	3.8	7.46e-01	0	43	104	0	28	19966
2026-01-18 10:45:55.61	21.62	22.70	-33.1	-47.1	3.8	7.42e-01	0	43	104	0	28	18153
2026-01-18 10:45:57.60	21.08	22.53	-33.2	-47.7	3.8	7.42e-01	0	43	104	0	28	19196
2026-01-18 10:45:59.59	20.55	22.36	-33.3	-48.0	3.8	7.49e-01	0	43	104	0	28	19513
2026-01-18 10:46:01.57	20.02	22.19	-33.0	-47.0	3.8	7.45e-01	0	43	104	0	28	18183
2026-01-18 10:46:03.55	19.50	22.01	-32.5	-45.6	3.8	7.44e-01	0	43	104	0	27	16324
2026-01-18 10:46:05.54	18.98	21.84	-31.9	-44.3	3.8	7.46e-01	0	43	104	0	26	15014
2026-01-18 10:46:07.54	18.47	21.66	-32.3	-46.1	3.8	7.43e-01	0	43	104	0	25	17745
2026-01-18 10:46:09.53	17.97	21.48	-33.0	-47.7	3.8	7.44e-01	0	43	104	0	26	19589
2026-01-18 10:46:11.52	17.47	21.30	-33.5	-49.4	3.8	7.46e-01	0	43	104	0	27	22364
2026-01-18 10:46:13.51	16.98	21.12	-33.5	-49.0	3.8	7.44e-01	0	43	104	0	28	21451
2026-01-18 10:46:15.51	16.49	20.94	-33.7	-49.7	3.8	7.43e-01	0	43	104	0	28	22835
2026-01-18 10:46:17.50	16.01	20.76	-33.5	-49.1	3.8	7.48e-01	0	44	104	0	28	21681
2026-01-18 10:46:19.50	15.53	20.58	-33.7	-50.0	3.8	7.44e-01	0	43	104	0	28	23403
2026-01-18 10:46:21.50	15.06	20.40	-33.5	-49.2	3.8	7.47e-01	0	43	104	0	28	21794
2026-01-18 10:46:23.52	14.59	20.21	-32.9	-46.9	3.8	7.43e-01	0	43	104	0	27	18134
2026-01-18 10:46:25.54	14.13	20.03	-32.4	-45.8	3.8	7.42e-01	0	43	104	0	26	16916
2026-01-18 10:46:27.54	13.68	19.84	-32.7	-46.7	3.8	7.44e-01	0	43	104	0	26	18076
2026-01-18 10:46:29.55	13.23	19.66	-33.0	-48.2	3.8	7.46e-01	0	43	104	0	26	20530
2026-01-18 10:46:31.55	12.79	19.47	-33.2	-48.5	3.8	7.45e-01	0	43	104	0	27	20939
2026-01-18 10:46:33.56	12.35	19.29	-32.9	-47.3	3.8	7.45e-01	0	43	104	0	27	18837
2026-01-18 10:46:35.56	11.92	19.10	-32.7	-46.4	3.8	7.42e-01	0	43	104	0	27	17570
2026-01-18 10:46:37.56	11.50	18.92	-32.7	-46.3	3.8	7.44e-01	0	43	104	0	27	17354
2026-01-18 10:46:39.57	11.08	18.73	-33.4	-49.0	3.8	7.46e-01	0	43	104	0	27	21642
2026-01-18 10:46:41.58	10.67	18.54	-33.0	-47.8	3.8	7.46e-01	0	43	104	0	27	19634
2026-01-18 10:46:43.58	10.26	18.36	-32.3	-45.8	3.8	7.46e-01	0	43	104	0	26	16957
2026-01-18 10:46:45.59	9.85	18.17	-32.1	-45.0	3.8	7.45e-01	0	43	104	0	26	15902
2026-01-18 10:46:47.60	9.46	17.99	-32.3	-45.6	3.8	7.45e-01	0	43	104	0	26	16712
2026-01-18 10:46:49.61	9.06	17.80	-32.6	-46.7	3.8	7.44e-01	0	43	104	0	26	18317
2026-01-18 10:46:51.63	8.67	17.62	-32.2	-45.5	3.8	7.46e-01	0	43	104	0	26	16537
2026-01-18 10:46:53.64	8.29	17.43	-31.7	-44.5	3.8	7.45e-01	0	43	104	0	25	15635
2026-01-18 10:46:55.64	7.91	17.25	-31.4	-43.6	3.8	7.47e-01	0	43	104	0	25	14608
2026-01-18 10:46:57.65	7.54	17.06	-32.0	-45.5	3.8	7.43e-01	0	43	104	0	25	16965
2026-01-18 10:46:59.66	7.17	16.88	-32.8	-47.3	3.8	7.45e-01	0	43	104	0	26	19089
2026-01-18 10:47:01.67	6.81	16.70	-33.5	-49.5	3.8	7.50e-01	0	43	104	0	27	22663
2026-01-18 10:47:03.67	6.45	16.51	-33.5	-49.5	3.8	7.43e-01	0	43	104	0	28	22544
2026-01-18 10:47:05.67	6.10	16.33	-33.5	-49.4	3.8	7.46e-01	0	43	104	0	28	22371
2026-01-18 10:47:07.68	5.75	16.15	-33.5	-49.4	3.8	7.43e-01	0	43	104	0	28	22398
2026-01-18 10:47:09.68	5.41	15.97	-33.6	-50.0	3.8	7.47e-01	0	43	104	0	28	23868
2026-01-18 10:47:11.70	5.06	15.79	-33.3	-48.7	3.8	7.46e-01	0	43	104	0	28	21188
2026-01-18 10:47:13.70	4.73	15.61	-32.9	-47.4	3.8	7.45e-01	0	43	104	0	27	19081
2026-01-18 10:47:15.70	4.40	15.43	-32.6	-46.4	3.8	7.45e-01	0	43	104	0	27	17537
2026-01-18 10:47:17.71	4.07	15.25	-33.0	-47.8	3.8	7.46e-01	0	43	104	0	27	19748
2026-01-18 10:47:19.72	3.75	15.07	-33.3	-49.3	3.8	7.45e-01	0	43	104	0	27	22516
2026-01-18 10:47:21.72	3.43	14.89	-33.4	-49.8	3.8	7.45e-01	0	43	104	0	27	23688
2026-01-18 10:47:23.72	3.12	14.71	-33.3	-49.0	3.8	7.43e-01	0	43	104	0	27	21961
2026-01-18 10:47:25.72	2.81	14.54	-33.1	-48.1	3.8	7.45e-01	0	43	104	0	27	20382
2026-01-18 10:47:27.73	2.50	14.36	-33.2	-48.6	3.8	7.43e-01	0	43	104	0	27	21384
2026-01-18 10:47:29.74	2.20	14.18	-32.8	-47.2	3.8	7.47e-01	0	43	104	0	27	18894
2026-01-18 10:47:31.75	1.90	14.01	-32.0	-45.2	3.8	7.44e-01	0	43	104	0	26	16349
2026-01-18 10:47:33.76	1.61	13.83	-31.4	-43.7	3.8	7.47e-01	0	43	104	0	25	14829
2026-01-18 10:47:35.76	1.32	13.66	-31.2	-43.6	3.8	7.44e-01	0	43	104	0	24	15025
2026-01-18 10:47:37.76	1.03	13.49	-31.6	-44.8	3.8	7.43e-01	0	43	104	0	24	16426
2026-01-18 10:47:39.77	0.75	13.31	-32.1	-46.3	3.8	7.42e-01	0	43	104	0	24	18529
2026-01-18 10:47:41.79	0.47	13.14	-31.8	-45.2	3.8	7.43e-01	0	43	104	0	25	16712
2026-01-18 10:47:43.79	0.19	12.97	-31.6	-44.5	3.8	7.47e-01	0	43	104	0	25	15855
2026-01-18 10:47:45.80	359.92	12.80	-31.7	-44.6	3.8	7.44e-01	0	43	104	0	25	15934
2026-01-18 10:47:47.80	359.65	12.63	-32.3	-46.4	3.8	7.43e-01	0	43	104	0	25	18356
2026-01-18 10:47:49.81	359.38	12.46	-33.0	-48.4	3.8	7.43e-01	0	43	104	0	26	21211
2026-01-18 10:47:51.82	359.12	12.29	-33.5	-50.3	3.8	7.45e-01	0	43	104	0	27	24936
2026-01-18 10:47:53.82	358.86	12.13	-33.5	-50.4	3.8	7.46e-01	0	43	104	0	27	25060
2026-01-18 10:47:55.83	358.60	11.96	-33.5	-50.2	3.8	7.48e-01	0	43	104	0	27	24561
2026-01-18 10:47:57.84	358.35	11.79	-33.5	-50.1	3.8	7.45e-01	0	43	104	0	27	24517
2026-01-18 10:47:59.85	358.10	11.63	-33.5	-50.5	3.8	7.44e-01	0	43	104	0	27	25367
2026-01-18 10:48:01.85	357.86	11.46	-33.4	-49.9	3.8	7.42e-01	0	43	104	0	27	24114
2026-01-18 10:48:03.86	357.61	11.30	-33.1	-48.8	3.8	7.48e-01	0	43	104	0	27	21956
2026-01-18 10:48:05.86	357.37	11.14	-33.1	-48.4	3.8	7.44e-01	0	43	104	0	27	21097
2026-01-18 10:48:07.87	357.13	10.97	-33.3	-49.5	3.8	7.47e-01	0	43	104	0	27	23344
2026-01-18 10:48:09.87	356.90	10.81	-33.5	-50.6	3.8	7.46e-01	0	43	104	0	27	25894
2026-01-18 10:48:11.88	356.67	10.65	-33.4	-50.2	3.8	7.46e-01	0	43	104	0	27	24894
2026-01-18 10:48:13.88	356.44	10.49	-33.2	-49.5	3.8	7.46e-01	0	43	104	0	27	23483
2026-01-18 10:48:15.88	356.21	10.33	-33.1	-48.6	3.8	7.46e-01	0	43	104	0	27	21621
2026-01-18 10:48:17.89	355.99	10.17	-32.7	-47.2	3.8	7.46e-01	0	43	104	0	27	19063
2026-01-18 10:48:19.90	355.77	10.02	-32.1	-45.7	3.8	7.46e-01	0	43	104	0	26	17062
2026-01-18 10:48:21.91	355.55	9.86	-31.6	-44.4	3.8	7.43e-01	0	43	104	0	25	15759
2026-01-18 10:48:23.92	355.33	9.70	-31.2	-43.8	3.8	7.43e-01	0	43	104	0	24	15457
2026-01-18 10:48:25.92	355.12	9.55	-31.2	-44.0	3.8	7.45e-01	0	43	104	0	24	15764
2026-01-18 10:48:27.92	354.91	9.39	-31.6	-45.1	3.8	7.44e-01	0	43	104	0	24	16998
2026-01-18 10:48:29.93	354.70	9.24	-32.1	-46.6	3.8	7.45e-01	0	43	104	0	24	19169
2026-01-18 10:48:31.94	354.50	9.08	-32.0	-45.7	3.8	7.47e-01	0	43	104	0	25	17574
2026-01-18 10:48:33.95	354.29	8.93	-31.9	-45.5	3.8	7.44e-01	0	43	104	0	25	17281
2026-01-18 10:48:35.96	354.09	8.78	-31.9	-45.6	3.8	7.46e-01	0	43	104	0	25	17480
2026-01-18 10:48:37.97	353.90	8.63	-32.5	-47.6	3.8	7.47e-01	0	43	104	0	25	20591
2026-01-18 10:48:39.98	353.70	8.47	-33.0	-49.1	3.8	7.45e-01	0	43	104	0	26	23054
2026-01-18 10:48:41.98	353.51	8.32	-33.4	-50.6	3.8	7.43e-01	0	43	104	0	27	26085
2026-01-18 10:48:43.98	353.31	8.18	-33.3	-50.4	3.8	7.42e-01	0	43	104	0	27	25803
2026-01-18 10:48:45.99	353.12	8.03	-33.3	-50.3	3.8	7.46e-01	0	43	104	0	27	25546
2026-01-18 10:48:47.99	352.94	7.88	-33.3	-50.5	3.8	7.46e-01	0	43	104	0	27	26080
2026-01-18 10:48:50.00	352.75	7.73	-33.3	-50.6	3.8	7.44e-01	0	43	104	0	27	26412
2026-01-18 10:48:52.01	352.57	7.58	-33.2	-50.5	3.8	7.45e-01	0	43	104	0	27	26137
2026-01-18 10:48:54.02	352.39	7.44	-33.2	-50.0	3.8	7.42e-01	0	43	104	0	27	25089
2026-01-18 10:48:56.03	352.21	7.29	-33.1	-49.9	3.8	7.46e-01	0	43	104	0	27	24770
2026-01-18 10:48:58.05	352.03	7.15	-33.3	-50.9	3.8	7.44e-01	0	43	104	0	27	27551
2026-01-18 10:49:00.05	351.86	7.00	-33.7	-53.0	3.8	7.46e-01	0	43	104	0	28	32900
2026-01-18 10:49:02.05	351.68	6.86	-34.3	-53.5	3.8	7.47e-01	0	43	104	0	29	33016

#Closed at: 2026-01-18 10:49:02
#Recorded file [0 MB]: D:/data/31010_260118_134421.dat