passes_logs/2026/01/18/R2M6_AANII_01/R2M6_AANII_01__20260118_235957_SUOMI_NPP_rec.log

#Pass ID: 20260118_235957_SUOMI NPP
#Satellite: SUOMI NPP
#Configuration: NPP
#almurnet v.1.7.20240730
#Start time: 2026-01-18 23:59:58

#Version: 2.2.20231116
#Station: R2M6_AANII_01
#Location: 30.233357 lon 59.946436 lat
#TLE: 1 37849U 11061A   26017.92342359  .00000077  00000+0  57567-4 0  9990
#TLE: 2 37849  98.7814 319.9468 0002389  58.5705 301.5704 14.19525998737125

#Time	Az	El	Level	Level2	SNR	BER	BlckErr	Temp	State	Recorded	gain1	gain2
2026-01-18 23:59:58.24	20.56	7.09	-31.3	-35.6	5.2	1.27e+00	0	42	0	0	22	5858
2026-01-19 00:00:01.25	20.64	7.32	-31.8	-36.9	7.3	1.15e-01	0	42	0	1048576	23	6460
2026-01-19 00:00:04.27	20.73	7.55	-31.8	-36.6	7.6	9.29e-02	0	42	0	7340032	23	6324
2026-01-19 00:00:07.28	20.81	7.78	-31.5	-35.6	8.4	5.14e-02	0	42	0	12582912	23	5771
2026-01-19 00:00:10.29	20.90	8.02	-31.3	-35.2	9.2	3.16e-02	0	42	0	17825792	22	5610
2026-01-19 00:00:13.30	20.99	8.26	-30.7	-33.6	10.7	4.03e-03	0	42	0	24117248	21	5015
2026-01-19 00:00:16.31	21.07	8.50	-30.8	-34.0	10.5	5.02e-03	0	42	0	29360128	21	5167
2026-01-19 00:00:19.34	21.17	8.74	-30.9	-34.3	10.3	5.36e-03	0	42	0	35651584	21	5288
2026-01-19 00:00:22.35	21.26	8.99	-31.0	-33.8	10.3	6.16e-03	0	42	0	40894464	22	5000
2026-01-19 00:00:25.36	21.35	9.23	-31.1	-34.1	10.2	6.59e-03	0	42	0	46137344	22	5101
2026-01-19 00:00:28.36	21.44	9.48	-31.0	-34.3	10.4	3.51e-03	0	43	0	52428800	21	5275
2026-01-19 00:00:31.37	21.54	9.74	-30.8	-33.8	10.8	2.61e-03	0	43	0	57671680	21	5060
2026-01-19 00:00:34.38	21.63	9.99	-30.8	-33.8	10.8	2.44e-03	0	43	0	63963136	21	5069
2026-01-19 00:00:37.40	21.73	10.25	-31.0	-33.8	10.4	3.96e-03	0	43	0	69206016	22	4958
2026-01-19 00:00:40.41	21.83	10.51	-30.6	-32.9	11.4	1.23e-03	0	43	0	74448896	21	4730
2026-01-19 00:00:43.42	21.93	10.77	-30.6	-33.1	11.3	1.60e-03	0	43	0	80740352	21	4768
2026-01-19 00:00:46.42	22.04	11.04	-30.5	-32.6	11.7	5.32e-04	0	43	0	85983232	21	4614
2026-01-19 00:00:49.43	22.14	11.30	-30.6	-32.9	11.5	7.39e-04	0	43	0	91226112	21	4703
2026-01-19 00:00:52.44	22.25	11.58	-30.6	-33.1	11.4	8.94e-04	0	43	0	97517568	21	4754
2026-01-19 00:00:55.44	22.36	11.85	-30.5	-32.6	11.8	5.97e-04	0	43	0	102760448	21	4574
2026-01-19 00:00:58.43	22.46	12.12	-30.3	-32.6	12.2	2.17e-04	0	43	0	109051904	20	4687
2026-01-19 00:01:01.44	22.58	12.41	-30.2	-32.1	12.5	1.34e-04	0	43	0	114294784	20	4510
2026-01-19 00:01:04.45	22.69	12.69	-29.9	-31.4	13.0	5.18e-05	0	43	0	119537664	20	4276
2026-01-19 00:01:07.44	22.80	12.97	-29.9	-31.5	12.9	7.09e-05	0	43	0	125829120	20	4303
2026-01-19 00:01:10.45	22.92	13.26	-30.1	-31.8	12.8	6.40e-05	0	43	0	131072000	20	4405
2026-01-19 00:01:13.45	23.04	13.56	-30.2	-32.1	12.6	6.33e-05	0	43	0	136314880	20	4489
2026-01-19 00:01:16.45	23.16	13.85	-29.9	-31.3	13.2	4.57e-05	0	43	0	142606336	20	4231
2026-01-19 00:01:19.46	23.29	14.15	-29.9	-31.7	13.3	1.60e-05	0	43	0	147849216	19	4439
2026-01-19 00:01:22.46	23.41	14.46	-29.9	-31.7	13.4	1.29e-05	0	43	0	154140672	19	4427
2026-01-19 00:01:25.48	23.54	14.77	-29.6	-31.0	13.8	1.06e-05	0	43	0	159383552	19	4215
2026-01-19 00:01:28.47	23.67	15.08	-29.7	-31.2	13.7	6.10e-06	0	43	0	164626432	19	4289
2026-01-19 00:01:31.49	23.80	15.39	-29.7	-31.2	13.7	4.50e-06	0	43	0	170917888	19	4270
2026-01-19 00:01:34.49	23.94	15.71	-29.9	-31.7	12.9	1.44e-05	0	43	0	176160768	19	4418
2026-01-19 00:01:37.50	24.08	16.04	-29.9	-31.6	13.4	1.44e-05	0	44	0	181403648	19	4401
2026-01-19 00:01:40.51	24.22	16.36	-29.9	-31.7	13.4	9.90e-06	0	43	0	187695104	19	4441
2026-01-19 00:01:43.52	24.37	16.70	-29.9	-31.3	13.3	2.05e-05	0	44	0	192937984	20	4227
2026-01-19 00:01:46.53	24.51	17.03	-29.9	-31.7	13.4	3.47e-04	0	44	0	199229440	19	4429
2026-01-19 00:01:49.55	24.66	17.38	-30.3	-32.4	12.5	4.06e-04	0	44	0	204472320	20	4568
2026-01-19 00:01:52.55	24.82	17.72	-29.9	-31.2	13.5	2.05e-05	0	43	0	209715200	20	4172
2026-01-19 00:01:55.55	24.97	18.07	-29.9	-31.7	13.5	7.60e-06	0	44	0	216006656	19	4410
2026-01-19 00:01:58.56	25.13	18.43	-30.4	-32.5	12.6	8.62e-05	0	44	0	221249536	20	4584
2026-01-19 00:02:01.57	25.30	18.79	-30.0	-31.4	13.3	1.67e-05	0	44	0	226492416	20	4241
2026-01-19 00:02:04.57	25.46	19.15	-30.1	-31.7	13.2	3.99e-04	0	44	0	232783872	20	4335
2026-01-19 00:02:07.58	25.63	19.53	-29.9	-31.2	13.5	3.34e-04	0	44	0	238026752	20	4189
2026-01-19 00:02:10.58	25.81	19.90	-30.0	-31.5	13.3	4.32e-04	0	44	0	244318208	20	4271
2026-01-19 00:02:13.58	25.99	20.28	-30.1	-31.7	13.2	1.90e-05	0	44	0	249561088	20	4331
2026-01-19 00:02:16.59	26.17	20.67	-30.2	-32.1	12.9	5.64e-05	0	44	0	254803968	20	4464
2026-01-19 00:02:19.60	26.36	21.06	-30.2	-32.1	13.0	2.82e-05	0	44	0	261095424	20	4451
2026-01-19 00:02:22.60	26.55	21.46	-30.2	-31.8	13.2	4.11e-04	0	44	0	266338304	20	4372
2026-01-19 00:02:25.60	26.75	21.87	-29.6	-30.9	14.1	3.57e-04	0	44	0	271581184	19	4169
2026-01-19 00:02:28.61	26.95	22.28	-29.5	-30.5	14.3	3.43e-04	0	44	0	277872640	19	4051
2026-01-19 00:02:31.62	27.15	22.70	-29.4	-30.7	14.7	2.17e-04	0	44	0	283115520	18	4182
2026-01-19 00:02:34.62	27.37	23.12	-29.1	-30.0	15.0	2.01e-04	0	44	0	289406976	18	4006
2026-01-19 00:02:37.63	27.58	23.56	-28.9	-29.6	15.3	0.00e+00	0	44	0	294649856	18	3888
2026-01-19 00:02:40.63	27.81	23.99	-28.8	-29.7	15.5	1.50e-04	0	44	0	299892736	17	4006
2026-01-19 00:02:43.63	28.03	24.44	-28.8	-29.7	15.5	1.78e-04	0	44	0	306184192	17	4017
2026-01-19 00:02:46.63	28.27	24.89	-28.7	-29.5	15.2	1.69e-04	0	44	0	311427072	18	3924
2026-01-19 00:02:49.64	28.51	25.35	-28.8	-29.2	15.6	1.70e-04	0	44	0	317718528	18	3777
2026-01-19 00:02:52.64	28.76	25.82	-28.9	-29.4	15.4	1.48e-04	0	44	0	322961408	18	3828
2026-01-19 00:02:55.66	29.02	26.30	-29.1	-29.9	15.1	1.61e-04	0	44	0	328204288	18	3974
2026-01-19 00:02:58.66	29.28	26.78	-29.2	-30.3	15.0	4.27e-05	0	44	0	334495744	18	4077
2026-01-19 00:03:01.67	29.55	27.27	-29.2	-29.7	15.0	7.00e-07	0	44	0	339738624	19	3820
2026-01-19 00:03:04.68	29.83	27.78	-29.1	-29.4	15.1	8.92e-05	0	44	0	344981504	19	3726
2026-01-19 00:03:07.69	30.12	28.29	-29.0	-29.3	15.3	1.68e-04	0	44	0	351272960	19	3704
2026-01-19 00:03:10.70	30.42	28.80	-29.2	-30.1	15.1	1.83e-04	0	44	0	356515840	18	4002
2026-01-19 00:03:13.70	30.72	29.33	-29.5	-30.8	14.7	1.97e-04	0	44	0	362807296	18	4221
2026-01-19 00:03:16.71	31.04	29.87	-29.8	-31.1	14.2	1.98e-04	0	44	0	368050176	19	4210
2026-01-19 00:03:19.70	31.37	30.41	-30.0	-31.3	13.7	2.44e-05	0	44	0	373293056	20	4190
2026-01-19 00:03:22.72	31.70	30.97	-30.4	-31.9	13.0	4.04e-05	0	44	0	379584512	21	4251
2026-01-19 00:03:25.74	32.05	31.54	-31.0	-33.1	12.0	3.70e-04	0	44	0	384827392	22	4562
2026-01-19 00:03:28.74	32.42	32.11	-31.5	-34.1	10.8	2.64e-03	0	44	0	390070272	23	4867
2026-01-19 00:03:31.73	32.79	32.69	-31.7	-34.8	10.2	7.80e-03	0	44	0	396361728	23	5148
2026-01-19 00:03:34.73	33.17	33.29	-31.5	-34.1	10.9	3.52e-03	0	44	0	401604608	23	4859
2026-01-19 00:03:37.73	33.57	33.89	-31.0	-33.0	12.1	3.81e-04	0	44	0	406847488	22	4524
2026-01-19 00:03:40.74	33.99	34.51	-30.5	-32.1	12.9	7.78e-05	0	44	0	413138944	21	4333
2026-01-19 00:03:43.75	34.42	35.14	-30.7	-32.5	12.7	9.61e-05	0	44	0	418381824	21	4450
2026-01-19 00:03:46.77	34.87	35.78	-30.8	-32.9	12.5	9.68e-05	0	44	0	424673280	21	4576
2026-01-19 00:03:49.77	35.34	36.43	-31.4	-34.0	11.4	9.86e-04	0	44	0	429916160	22	4897
2026-01-19 00:03:52.77	35.82	37.09	-31.3	-33.5	11.5	1.74e-03	0	44	0	435159040	23	4602
2026-01-19 00:03:55.78	36.32	37.76	-31.1	-32.7	12.0	6.83e-04	0	44	0	441450496	23	4345
2026-01-19 00:03:58.80	36.85	38.44	-31.6	-34.4	10.7	1.48e-03	0	44	0	446693376	23	4962
2026-01-19 00:04:01.80	37.40	39.14	-32.2	-35.9	9.3	2.20e-02	0	44	0	452984832	24	5490
2026-01-19 00:04:04.80	37.97	39.84	-31.7	-34.2	10.4	2.67e-03	0	44	0	458227712	24	4798
2026-01-19 00:04:07.81	38.56	40.56	-31.4	-33.2	11.4	8.33e-04	0	44	0	463470592	24	4403
2026-01-19 00:04:10.82	39.19	41.29	-31.1	-32.8	11.9	3.83e-04	0	44	0	469762048	23	4371
2026-01-19 00:04:13.83	39.84	42.03	-31.2	-32.9	11.9	3.88e-04	0	44	0	475004928	23	4377
2026-01-19 00:04:16.85	40.52	42.78	-30.9	-32.1	12.5	2.26e-04	0	44	0	480247808	23	4117
2026-01-19 00:04:19.85	41.23	43.54	-31.2	-33.0	11.9	3.85e-04	0	44	0	486539264	23	4421
2026-01-19 00:04:22.86	41.98	44.32	-31.3	-33.3	11.6	8.29e-04	0	44	0	491782144	23	4530
2026-01-19 00:04:25.87	42.77	45.10	-31.4	-33.4	11.7	1.06e-03	0	44	0	498073600	23	4575
2026-01-19 00:04:28.88	43.59	45.89	-31.8	-34.9	10.5	1.87e-03	0	44	0	503316480	23	5145
2026-01-19 00:04:31.89	44.46	46.69	-30.2	-31.2	13.7	3.12e-05	0	44	0	508559360	21	4037
2026-01-19 00:04:34.90	45.37	47.50	-30.3	-31.3	13.7	4.50e-06	0	44	0	514850816	21	4070
2026-01-19 00:04:37.90	46.33	48.32	-30.4	-31.8	13.4	3.00e-06	0	44	0	520093696	21	4215
2026-01-19 00:04:40.90	47.34	49.14	-30.5	-32.0	13.3	4.73e-05	0	44	0	525336576	21	4278
2026-01-19 00:04:43.91	48.40	49.97	-30.7	-32.4	13.0	2.97e-05	0	44	0	531628032	21	4406
2026-01-19 00:04:46.93	49.53	50.81	-30.6	-32.3	13.2	7.85e-05	0	44	0	536870912	21	4354
2026-01-19 00:04:49.93	50.72	51.64	-30.4	-31.6	13.6	1.50e-06	0	44	0	543162368	21	4146
2026-01-19 00:04:52.93	51.97	52.48	-29.5	-29.7	15.0	1.50e-06	0	44	0	548405248	20	3711
2026-01-19 00:04:55.94	53.30	53.32	-28.6	-29.2	16.3	0.00e+00	0	44	0	553648128	17	3848
2026-01-19 00:04:58.95	54.71	54.15	-29.5	-30.2	15.1	0.00e+00	0	44	0	559939584	19	3934
2026-01-19 00:05:01.95	56.20	54.98	-29.5	-30.3	15.1	0.00e+00	0	44	0	565182464	19	3947
2026-01-19 00:05:04.98	57.79	55.81	-29.1	-29.3	15.7	1.37e-05	0	44	0	570425344	19	3693
2026-01-19 00:05:07.97	59.46	56.62	-29.6	-30.6	15.0	4.95e-05	0	44	0	576716800	19	4016
2026-01-19 00:05:10.97	61.23	57.42	-30.2	-31.7	13.9	7.00e-07	0	44	0	581959680	20	4256
2026-01-19 00:05:13.98	63.11	58.21	-31.1	-33.0	12.4	2.22e-04	0	44	0	588251136	22	4492
2026-01-19 00:05:16.99	65.11	58.97	-29.5	-29.8	15.1	8.62e-05	0	44	0	593494016	20	3723
2026-01-19 00:05:19.99	67.21	59.71	-30.5	-31.8	13.5	6.10e-06	0	44	0	598736896	21	4198
2026-01-19 00:05:22.99	69.43	60.42	-29.8	-30.9	14.9	6.00e-04	0	44	0	605028352	19	4102
2026-01-19 00:05:26.01	71.80	61.11	-30.5	-32.3	13.6	6.35e-04	0	44	0	610271232	20	4435
2026-01-19 00:05:29.01	74.28	61.75	-29.6	-30.0	15.1	4.36e-04	0	44	0	615514112	20	3775
2026-01-19 00:05:32.02	76.89	62.35	-29.2	-30.1	15.7	5.40e-04	0	44	0	621805568	18	3971
2026-01-19 00:05:35.03	79.63	62.91	-28.8	-29.5	16.3	1.26e-04	0	44	0	627048448	17	3920
2026-01-19 00:05:38.04	82.50	63.41	-28.9	-29.2	16.2	0.00e+00	0	44	0	633339904	18	3746
2026-01-19 00:05:41.04	85.47	63.85	-30.3	-31.9	13.9	3.68e-04	0	44	0	638582784	20	4325
2026-01-19 00:05:44.05	88.56	64.23	-29.5	-30.3	15.3	1.49e-03	0	44	0	643825664	19	3943
2026-01-19 00:05:47.06	91.74	64.55	-30.9	-32.8	13.0	1.75e-03	0	44	0	650117120	21	4517
2026-01-19 00:05:50.07	95.00	64.80	-30.4	-31.4	13.9	1.56e-03	0	44	0	655360000	21	4063
2026-01-19 00:05:53.09	98.34	64.97	-29.3	-29.8	15.6	7.98e-04	0	44	0	660602880	19	3805
2026-01-19 00:05:56.08	101.68	65.06	-29.9	-31.3	14.8	0.00e+00	0	44	0	666894336	19	4203
2026-01-19 00:05:59.10	105.07	65.08	-29.5	-30.6	15.4	0.00e+00	0	44	0	672137216	18	4112
2026-01-19 00:06:02.10	108.44	65.02	-29.9	-30.7	14.7	1.50e-06	0	44	0	678428672	20	3945
2026-01-19 00:06:05.11	111.78	64.89	-29.2	-29.5	15.8	6.62e-04	0	44	0	683671552	19	3719
2026-01-19 00:06:08.12	115.08	64.68	-29.1	-29.6	16.1	3.48e-04	0	44	0	688914432	18	3840
2026-01-19 00:06:11.13	118.30	64.40	-29.8	-30.9	15.0	1.84e-04	0	44	0	695205888	19	4083
2026-01-19 00:06:14.13	121.43	64.05	-29.5	-29.8	15.2	0.00e+00	0	44	0	700448768	20	3716
2026-01-19 00:06:17.13	124.46	63.63	-28.3	-28.3	17.0	0.00e+00	0	44	0	705691648	17	3606
2026-01-19 00:06:20.13	127.38	63.16	-29.9	-30.8	14.7	0.00e+00	0	44	0	711983104	20	3970
2026-01-19 00:06:23.14	130.18	62.63	-30.3	-31.8	14.1	7.00e-07	0	44	0	717225984	20	4272
2026-01-19 00:06:26.13	132.84	62.05	-29.4	-30.1	15.6	0.00e+00	0	44	0	723517440	19	3864
2026-01-19 00:06:29.13	135.39	61.43	-28.6	-28.5	16.7	8.96e-04	0	44	0	728760320	18	3567
2026-01-19 00:06:32.14	137.81	60.76	-29.4	-30.5	15.5	0.00e+00	0	44	0	734003200	18	4072
2026-01-19 00:06:35.14	140.10	60.07	-28.4	-28.0	17.0	0.00e+00	0	44	0	740294656	18	3460
2026-01-19 00:06:38.14	142.27	59.34	-28.1	-28.4	17.2	0.00e+00	0	44	0	745537536	16	3727
2026-01-19 00:06:41.15	144.32	58.58	-27.8	-27.6	17.6	0.00e+00	0	44	0	750780416	16	3546
2026-01-19 00:06:44.15	146.26	57.80	-28.8	-29.6	16.2	0.00e+00	0	44	0	757071872	17	3952
2026-01-19 00:06:47.17	148.09	57.00	-28.1	-28.5	17.2	0.00e+00	0	44	0	762314752	16	3758
2026-01-19 00:06:50.18	149.82	56.19	-28.0	-27.8	17.3	0.00e+00	0	44	0	768606208	17	3503
2026-01-19 00:06:53.19	151.45	55.37	-27.7	-27.5	17.7	0.00e+00	0	44	0	773849088	16	3514
2026-01-19 00:06:56.20	152.99	54.54	-28.8	-29.5	16.3	0.00e+00	0	44	0	779091968	17	3913
2026-01-19 00:06:59.21	154.44	53.70	-29.1	-29.8	15.9	0.00e+00	0	44	0	785383424	18	3886
2026-01-19 00:07:02.22	155.81	52.86	-31.2	-33.2	12.5	6.79e-05	0	44	0	790626304	22	4545
2026-01-19 00:07:05.22	157.10	52.02	-30.7	-32.5	13.3	6.10e-06	0	44	0	795869184	21	4392
2026-01-19 00:07:08.23	158.32	51.18	-31.0	-32.6	13.0	5.11e-05	0	44	0	802160640	22	4344
2026-01-19 00:07:11.24	159.48	50.34	-31.1	-33.0	12.6	1.21e-04	0	44	0	807403520	22	4469
2026-01-19 00:07:14.24	160.58	49.51	-32.0	-34.7	10.5	2.69e-03	0	44	0	813694976	24	4938
2026-01-19 00:07:17.25	161.61	48.68	-30.1	-30.9	14.2	2.20e-06	0	44	0	818937856	21	3920
2026-01-19 00:07:20.25	162.60	47.86	-31.3	-33.2	12.0	6.35e-04	0	44	0	824180736	23	4452
2026-01-19 00:07:23.27	163.54	47.04	-28.9	-28.8	16.1	0.00e+00	0	44	0	830472192	19	3564
2026-01-19 00:07:26.28	164.42	46.23	-31.3	-33.9	11.8	9.68e-05	0	44	0	835715072	22	4812
2026-01-19 00:07:29.29	165.27	45.43	-28.8	-28.7	16.1	0.00e+00	0	44	0	842006528	19	3546
2026-01-19 00:07:32.30	166.07	44.64	-31.2	-33.3	12.3	1.90e-05	0	44	0	847249408	22	4592
2026-01-19 00:07:35.30	166.84	43.86	-32.7	-36.5	8.3	1.24e-01	0	44	0	852492288	26	5578
2026-01-19 00:07:38.31	167.57	43.09	-30.8	-32.2	13.0	3.81e-05	0	44	0	858783744	22	4235
2026-01-19 00:07:41.31	168.26	42.33	-31.9	-34.7	10.5	5.78e-03	0	44	0	864026624	24	4970
2026-01-19 00:07:44.31	168.93	41.59	-29.9	-30.3	14.4	4.27e-05	0	44	0	869269504	21	3779
2026-01-19 00:07:47.32	169.56	40.85	-29.7	-30.7	14.9	0.00e+00	0	44	0	875560960	19	4063
2026-01-19 00:07:50.32	170.17	40.12	-32.3	-36.1	9.4	4.45e-03	0	44	0	880803840	24	5554
2026-01-19 00:07:53.32	170.75	39.41	-32.3	-35.6	9.3	4.58e-02	0	44	0	886046720	25	5249
2026-01-19 00:07:56.32	171.31	38.71	-30.5	-31.3	13.4	7.78e-05	0	44	0	892338176	22	3975
2026-01-19 00:07:59.33	171.85	38.02	-31.0	-32.8	12.5	1.23e-04	0	44	0	897581056	22	4439
2026-01-19 00:08:02.34	172.36	37.34	-32.4	-36.5	9.0	2.64e-02	0	44	0	903872512	24	5778
2026-01-19 00:08:05.35	172.86	36.67	-31.2	-33.0	12.0	1.02e-03	0	44	0	909115392	23	4400
2026-01-19 00:08:08.36	173.33	36.01	-30.0	-30.6	14.1	5.30e-06	0	44	0	914358272	21	3851
2026-01-19 00:08:11.37	173.79	35.36	-30.7	-32.6	12.9	6.17e-05	0	44	0	920649728	21	4453
2026-01-19 00:08:14.36	174.22	34.73	-30.0	-30.6	14.1	6.10e-06	0	44	0	925892608	21	3869
2026-01-19 00:08:17.38	174.65	34.10	-31.5	-34.2	11.4	5.45e-04	0	44	0	931135488	22	4965
2026-01-19 00:08:20.40	175.06	33.49	-32.3	-36.1	9.2	1.45e-02	0	44	0	937426944	24	5605
2026-01-19 00:08:23.41	175.45	32.88	-32.3	-36.1	9.2	2.79e-02	0	44	0	942669824	24	5615
2026-01-19 00:08:26.42	175.83	32.29	-32.2	-35.9	9.4	1.47e-02	0	44	0	948961280	24	5487
2026-01-19 00:08:29.42	176.20	31.71	-32.0	-35.1	10.0	9.70e-03	0	44	0	954204160	24	5124
2026-01-19 00:08:32.43	176.55	31.13	-32.3	-36.1	9.2	2.09e-02	0	44	0	959447040	24	5613
2026-01-19 00:08:35.44	176.89	30.57	-32.5	-36.6	8.4	5.12e-02	0	44	0	965738496	25	5762
2026-01-19 00:08:38.46	177.23	30.02	-32.4	-36.3	8.7	7.64e-02	0	44	0	970981376	25	5595
2026-01-19 00:08:41.47	177.55	29.47	-32.2	-35.9	9.3	1.02e-02	0	44	0	977272832	24	5512
2026-01-19 00:08:44.48	177.86	28.94	-32.2	-36.0	9.2	1.61e-02	0	44	0	982515712	24	5541
2026-01-19 00:08:47.49	178.16	28.41	-31.9	-34.9	10.0	9.19e-03	0	44	0	987758592	24	5055
2026-01-19 00:08:50.49	178.45	27.90	-31.1	-33.3	11.5	9.25e-04	0	44	0	994050048	22	4633
2026-01-19 00:08:53.50	178.73	27.39	-30.3	-32.0	13.1	1.60e-05	0	44	0	999292928	20	4374
2026-01-19 00:08:56.51	179.01	26.89	-29.3	-30.4	14.8	0.00e+00	0	44	0	1004535808	18	4093
2026-01-19 00:08:59.53	179.27	26.40	-29.5	-30.9	14.5	1.91e-03	0	44	0	1010827264	18	4234
2026-01-19 00:09:02.53	179.53	25.92	-29.4	-30.7	14.9	1.84e-03	0	44	0	1016070144	18	4187
2026-01-19 00:09:05.52	179.78	25.45	-29.6	-30.6	14.7	0.00e+00	0	44	0	1022361600	19	4045
2026-01-19 00:09:08.53	180.02	24.98	-29.9	-31.1	14.0	3.00e-06	0	44	0	1027604480	20	4099
2026-01-19 00:09:11.54	180.26	24.52	-30.0	-31.3	13.8	5.30e-06	0	44	0	1032847360	20	4179
2026-01-19 00:09:14.56	180.49	24.07	-30.0	-31.3	13.8	2.20e-06	0	44	0	1039138816	20	4172
2026-01-19 00:09:17.58	180.72	23.63	-29.9	-31.6	14.0	1.40e-03	0	44	0	1044381696	19	4342
2026-01-19 00:09:20.58	180.94	23.19	-29.8	-31.2	14.1	1.37e-03	0	44	0	1050673152	19	4242
2026-01-19 00:09:23.59	181.15	22.76	-29.5	-30.6	14.6	1.46e-03	0	44	0	1055916032	19	4050
2026-01-19 00:09:26.60	181.36	22.34	-29.3	-30.5	14.8	1.75e-03	0	44	0	1061158912	18	4143
2026-01-19 00:09:29.61	181.56	21.92	-29.1	-30.0	15.0	2.20e-06	0	44	0	1067450368	18	3996
2026-01-19 00:09:32.62	181.76	21.51	-29.3	-30.4	14.7	3.00e-06	0	44	0	1072693248	18	4125
2026-01-19 00:09:35.63	181.95	21.10	-29.9	-31.0	13.8	1.93e-03	0	44	0	1077936128	20	4116
2026-01-19 00:09:38.64	182.14	20.71	-30.1	-31.7	13.4	1.83e-03	0	44	0	1084227584	20	4310
2026-01-19 00:09:41.65	182.32	20.31	-30.2	-31.8	13.2	1.93e-03	0	44	0	1089470464	20	4369
2026-01-19 00:09:44.66	182.50	19.93	-29.8	-30.8	13.9	1.81e-03	0	44	0	1095761920	20	4038
2026-01-19 00:09:47.68	182.68	19.55	-28.9	-29.5	15.4	1.50e-03	0	44	0	1101004800	18	3875
2026-01-19 00:09:50.69	182.85	19.17	-28.9	-30.1	15.3	1.16e-03	0	44	0	1106247680	17	4114
2026-01-19 00:09:53.69	183.01	18.80	-28.9	-30.0	15.3	1.54e-04	0	44	0	1112539136	17	4101
2026-01-19 00:09:56.69	183.18	18.44	-29.0	-29.7	15.3	0.00e+00	0	44	0	1117782016	18	3908
2026-01-19 00:09:59.70	183.34	18.08	-29.1	-30.0	15.1	6.45e-04	0	44	0	1123024896	18	3989
2026-01-19 00:10:02.71	183.49	17.73	-29.2	-30.2	14.9	7.24e-04	0	44	0	1129316352	18	4044
2026-01-19 00:10:05.72	183.65	17.38	-29.3	-30.5	14.7	7.48e-04	0	44	0	1134559232	18	4136
2026-01-19 00:10:08.72	183.80	17.03	-29.3	-30.6	14.6	6.20e-04	0	44	0	1140850688	18	4173
2026-01-19 00:10:11.74	183.94	16.69	-29.3	-30.5	14.7	1.44e-04	0	44	0	1146093568	18	4141
2026-01-19 00:10:14.74	184.09	16.36	-29.5	-30.5	14.3	1.50e-06	0	44	0	1151336448	19	4059
2026-01-19 00:10:17.75	184.23	16.02	-29.7	-31.0	14.0	3.00e-06	0	44	0	1157627904	19	4200
2026-01-19 00:10:20.76	184.36	15.70	-29.7	-31.0	14.0	7.00e-07	0	44	0	1162870784	19	4212
2026-01-19 00:10:23.77	184.50	15.37	-29.9	-31.7	13.6	2.88e-04	0	44	0	1168113664	19	4423
2026-01-19 00:10:26.77	184.63	15.06	-30.1	-31.7	13.2	2.23e-04	0	44	0	1174405120	20	4336
2026-01-19 00:10:29.78	184.76	14.74	-30.4	-32.7	12.4	2.86e-04	0	44	0	1179648000	20	4682
2026-01-19 00:10:32.77	184.89	14.43	-30.7	-33.0	11.9	5.13e-04	0	44	0	1185939456	21	4693
2026-01-19 00:10:35.79	185.01	14.13	-30.9	-33.8	11.2	9.99e-04	0	44	0	1191182336	21	5014
2026-01-19 00:10:38.80	185.14	13.82	-31.2	-34.3	10.6	3.03e-03	0	44	0	1196425216	22	5100
2026-01-19 00:10:41.79	185.26	13.53	-31.4	-34.7	10.2	6.87e-03	0	44	0	1202716672	22	5290
2026-01-19 00:10:44.80	185.37	13.23	-31.6	-35.0	9.6	1.17e-02	0	44	0	1207959552	23	5343
2026-01-19 00:10:47.81	185.49	12.94	-31.4	-34.5	10.0	9.99e-03	0	44	0	1213202432	23	5100
2026-01-19 00:10:50.82	185.60	12.65	-31.4	-34.9	10.1	6.63e-03	0	44	0	1219493888	22	5362
2026-01-19 00:10:53.83	185.72	12.36	-31.7	-35.2	9.3	2.17e-02	0	44	0	1224736768	23	5437
2026-01-19 00:10:56.82	185.82	12.08	-31.7	-35.8	9.2	2.83e-02	0	44	0	1231028224	22	5775
2026-01-19 00:10:59.83	185.93	11.80	-31.7	-35.4	9.2	2.98e-02	0	44	0	1236271104	23	5523
2026-01-19 00:11:02.83	186.04	11.53	-31.4	-34.7	10.1	6.46e-03	0	44	0	1241513984	22	5286
2026-01-19 00:11:05.85	186.14	11.25	-31.4	-34.9	10.1	9.73e-03	0	44	0	1247805440	22	5375
2026-01-19 00:11:08.86	186.25	10.98	-30.8	-33.6	11.2	1.48e-03	0	44	0	1253048320	21	4925
2026-01-19 00:11:11.86	186.35	10.71	-30.7	-33.1	11.6	1.09e-03	0	44	0	1258291200	21	4748
2026-01-19 00:11:14.85	186.45	10.45	-31.0	-33.8	10.8	1.26e-03	0	44	0	1264582656	22	4920
2026-01-19 00:11:17.87	186.54	10.19	-30.4	-32.2	12.1	3.39e-04	0	44	0	1269825536	21	4460
2026-01-19 00:11:20.88	186.64	9.93	-30.3	-32.4	12.3	2.69e-04	0	44	0	1276116992	20	4601
2026-01-19 00:11:23.88	186.73	9.67	-30.5	-32.7	11.7	1.66e-03	0	44	0	1281359872	21	4618
2026-01-19 00:11:26.90	186.83	9.42	-30.7	-33.2	11.4	2.26e-03	0	44	0	1286602752	21	4799
2026-01-19 00:11:29.90	186.92	9.17	-30.5	-32.8	11.6	2.27e-03	0	44	0	1292894208	21	4666
2026-01-19 00:11:32.91	187.01	8.92	-30.3	-32.6	12.1	1.70e-03	0	44	0	1298137088	20	4687
2026-01-19 00:11:35.92	187.10	8.67	-30.5	-32.9	11.6	2.25e-03	0	44	0	1303379968	21	4693
2026-01-19 00:11:38.93	187.19	8.43	-30.2	-32.3	12.2	2.12e-04	0	44	0	1309671424	20	4597
2026-01-19 00:11:41.93	187.27	8.19	-30.2	-32.4	12.1	1.76e-03	0	44	0	1314914304	20	4637
2026-01-19 00:11:44.95	187.36	7.95	-30.4	-32.8	11.8	1.94e-03	0	44	0	1321205760	20	4787
2026-01-19 00:11:47.97	187.44	7.71	-30.1	-32.2	12.2	1.55e-03	0	44	0	1326448640	20	4555
2026-01-19 00:11:50.97	187.52	7.47	-30.2	-32.5	11.9	1.84e-03	0	44	0	1331691520	20	4675
2026-01-19 00:11:53.98	187.61	7.24	-30.3	-32.8	11.7	2.21e-03	0	44	0	1337982976	20	4808
2026-01-19 00:11:56.98	187.69	7.01	-33.2	-45.6	3.8	1.49e+00	0	44	104	1342177280	26	15022

#Closed at: 2026-01-19 00:11:59
#Recorded file [1342 MB]: D:/data/31010_260119_030000.dat