passes_logs/2026/01/18/R2M6_AANII_01/R2M6_AANII_01__20260118_222022_SUOMI_NPP_rec.log

#Pass ID: 20260118_222022_SUOMI NPP
#Satellite: SUOMI NPP
#Configuration: NPP
#almurnet v.1.7.20240730
#Start time: 2026-01-18 22:20:22

#Version: 2.2.20231116
#Station: R2M6_AANII_01
#Location: 30.233357 lon 59.946436 lat
#TLE: 1 37849U 11061A   26017.92342359  .00000077  00000+0  57567-4 0  9990
#TLE: 2 37849  98.7814 319.9468 0002389  58.5705 301.5704 14.19525998737125

#Time	Az	El	Level	Level2	SNR	BER	BlckErr	Temp	State	Recorded	gain1	gain2
2026-01-18 22:20:22.80	36.34	7.03	-32.0	-36.8	5.0	1.20e+00	0	41	0	0	24	6231
2026-01-18 22:20:25.81	36.70	7.19	-32.9	-41.8	4.0	1.45e+00	0	42	104	0	25	10079
2026-01-18 22:20:28.83	37.07	7.34	-32.7	-39.5	5.5	6.25e-01	0	42	0	0	25	7881
2026-01-18 22:20:31.84	37.44	7.50	-32.2	-36.5	7.5	1.55e-01	0	42	0	5242880	25	5958
2026-01-18 22:20:34.84	37.81	7.65	-31.6	-34.7	9.3	2.20e-02	0	42	0	11534336	24	5157
2026-01-18 22:20:37.86	38.19	7.81	-31.2	-33.9	10.4	5.94e-03	0	42	0	16777216	23	4872
2026-01-18 22:20:40.88	38.58	7.96	-31.2	-33.6	10.6	3.58e-03	0	42	0	22020096	23	4744
2026-01-18 22:20:43.89	38.96	8.12	-31.2	-33.6	10.7	2.15e-03	0	42	0	28311552	23	4750
2026-01-18 22:20:46.89	39.35	8.27	-31.1	-33.3	10.8	1.30e-03	0	42	0	33554432	23	4642
2026-01-18 22:20:49.90	39.75	8.42	-30.9	-32.6	11.4	1.18e-03	0	42	0	39845888	23	4383
2026-01-18 22:20:52.91	40.15	8.58	-30.9	-33.3	11.3	1.43e-03	0	42	0	45088768	22	4715
2026-01-18 22:20:55.93	40.55	8.73	-30.5	-31.9	12.4	1.48e-04	0	42	0	50331648	22	4210
2026-01-18 22:20:58.92	40.95	8.88	-30.5	-32.0	12.3	2.49e-04	0	42	0	56623104	22	4238
2026-01-18 22:21:01.94	41.37	9.04	-30.1	-31.2	13.1	5.49e-05	0	43	0	61865984	21	4106
2026-01-18 22:21:04.95	41.78	9.19	-30.0	-31.1	13.2	1.29e-05	0	43	0	68157440	21	4071
2026-01-18 22:21:07.96	42.20	9.34	-30.4	-32.1	12.5	8.23e-05	0	43	0	73400320	21	4383
2026-01-18 22:21:10.96	42.62	9.49	-30.8	-33.3	11.7	4.43e-04	0	43	0	78643200	21	4812
2026-01-18 22:21:13.98	43.05	9.64	-30.8	-33.3	11.7	5.66e-04	0	43	0	84934656	21	4799
2026-01-18 22:21:16.98	43.48	9.79	-30.8	-33.4	11.7	4.42e-04	0	43	0	90177536	21	4815
2026-01-18 22:21:19.99	43.92	9.94	-30.5	-32.4	12.4	1.46e-04	0	43	0	95420416	21	4469
2026-01-18 22:21:23.01	44.36	10.09	-30.7	-32.9	12.1	2.95e-04	0	43	0	101711872	21	4632
2026-01-18 22:21:26.01	44.81	10.24	-31.1	-33.5	11.4	5.08e-04	0	43	0	106954752	22	4748
2026-01-18 22:21:29.02	45.26	10.39	-30.9	-33.0	11.7	7.21e-04	0	43	0	113246208	22	4569
2026-01-18 22:21:32.02	45.71	10.54	-31.0	-33.1	11.7	7.97e-04	0	43	0	118489088	22	4597
2026-01-18 22:21:35.03	46.17	10.69	-30.5	-31.8	12.6	1.20e-04	0	43	0	123731968	22	4188
2026-01-18 22:21:38.03	46.63	10.83	-30.7	-32.3	12.3	1.50e-04	0	43	0	130023424	22	4331
2026-01-18 22:21:41.03	47.09	10.98	-30.4	-31.4	12.9	6.25e-05	0	43	0	135266304	22	4053
2026-01-18 22:21:44.04	47.57	11.12	-30.4	-31.6	12.8	9.91e-05	0	43	0	140509184	22	4087
2026-01-18 22:21:47.06	48.04	11.27	-30.9	-32.9	11.9	4.00e-04	0	43	0	146800640	22	4521
2026-01-18 22:21:50.07	48.53	11.41	-30.7	-32.9	12.1	2.75e-04	0	43	0	152043520	21	4622
2026-01-18 22:21:53.08	49.01	11.55	-30.6	-32.6	12.5	1.44e-04	0	43	0	158334976	21	4502
2026-01-18 22:21:56.09	49.50	11.69	-30.6	-32.6	12.5	1.07e-04	0	43	0	163577856	21	4500
2026-01-18 22:21:59.10	50.00	11.83	-30.9	-33.3	12.0	2.69e-04	0	43	0	168820736	21	4753
2026-01-18 22:22:02.10	50.49	11.97	-30.8	-33.0	12.2	2.12e-04	0	44	0	175112192	21	4632
2026-01-18 22:22:05.10	51.00	12.11	-30.7	-32.7	12.4	1.40e-04	0	43	0	180355072	21	4544
2026-01-18 22:22:08.12	51.51	12.25	-30.8	-33.1	12.1	3.33e-04	0	44	0	186646528	21	4687
2026-01-18 22:22:11.12	52.02	12.38	-30.8	-33.1	12.1	3.74e-04	0	44	0	191889408	21	4680
2026-01-18 22:22:14.13	52.54	12.51	-31.0	-33.5	11.8	3.64e-04	0	43	0	197132288	21	4843
2026-01-18 22:22:17.14	53.06	12.65	-31.2	-33.7	11.3	1.06e-03	0	43	0	203423744	22	4818
2026-01-18 22:22:20.13	53.58	12.78	-31.2	-33.7	11.4	1.01e-03	0	43	0	208666624	22	4812
2026-01-18 22:22:23.15	54.12	12.91	-31.2	-33.7	11.5	9.53e-04	0	43	0	213909504	22	4791
2026-01-18 22:22:26.16	54.65	13.04	-31.3	-34.0	11.3	1.36e-03	0	43	0	220200960	22	4910
2026-01-18 22:22:29.15	55.19	13.16	-31.4	-34.4	10.9	2.32e-03	0	44	0	225443840	22	5082
2026-01-18 22:22:32.16	55.73	13.29	-31.4	-34.0	10.9	3.04e-03	0	44	0	231735296	23	4821
2026-01-18 22:22:35.15	56.28	13.41	-31.5	-34.2	10.8	3.17e-03	0	44	0	236978176	23	4919
2026-01-18 22:22:38.16	56.83	13.53	-31.6	-34.6	10.5	4.15e-03	0	43	0	242221056	23	5059
2026-01-18 22:22:41.16	57.39	13.65	-31.5	-34.1	10.9	2.63e-03	0	44	0	248512512	23	4837
2026-01-18 22:22:44.17	57.95	13.77	-31.3	-33.8	11.4	1.31e-03	0	44	0	253755392	22	4836
2026-01-18 22:22:47.16	58.52	13.88	-31.5	-34.0	10.9	2.61e-03	0	44	0	258998272	23	4834
2026-01-18 22:22:50.17	59.09	13.99	-31.5	-33.9	11.0	2.49e-03	0	44	0	265289728	23	4794
2026-01-18 22:22:53.19	59.67	14.11	-31.3	-33.4	11.3	1.22e-03	0	44	0	270532608	23	4591
2026-01-18 22:22:56.19	60.24	14.22	-31.3	-33.3	11.5	1.23e-03	0	44	0	275775488	23	4559
2026-01-18 22:22:59.19	60.83	14.32	-31.1	-33.2	11.8	4.74e-04	0	44	0	282066944	22	4622
2026-01-18 22:23:02.20	61.41	14.43	-30.6	-32.4	12.7	4.13e-04	0	44	0	287309824	21	4424
2026-01-18 22:23:05.20	62.00	14.53	-30.4	-31.9	13.1	7.24e-05	0	44	0	293601280	21	4251
2026-01-18 22:23:08.21	62.60	14.63	-30.4	-31.7	13.2	2.22e-04	0	44	0	298844160	21	4208
2026-01-18 22:23:11.22	63.20	14.73	-30.4	-32.3	13.1	1.54e-03	0	44	0	304087040	20	4496
2026-01-18 22:23:14.23	63.80	14.82	-30.7	-32.6	12.7	7.93e-05	0	44	0	310378496	21	4488
2026-01-18 22:23:17.24	64.41	14.91	-30.7	-32.6	12.6	8.39e-05	0	44	0	315621376	21	4491
2026-01-18 22:23:20.24	65.02	15.00	-30.8	-32.8	12.5	9.00e-05	0	44	0	320864256	21	4546
2026-01-18 22:23:23.25	65.64	15.09	-30.9	-32.7	12.3	2.43e-04	0	44	0	327155712	22	4421
2026-01-18 22:23:26.26	66.25	15.17	-30.6	-32.3	12.9	6.40e-05	0	44	0	332398592	21	4384
2026-01-18 22:23:29.27	66.88	15.26	-30.4	-32.4	13.1	6.72e-04	0	44	0	338690048	20	4508
2026-01-18 22:23:32.28	67.50	15.33	-30.8	-32.9	12.5	9.61e-05	0	44	0	343932928	21	4591
2026-01-18 22:23:35.29	68.13	15.41	-30.8	-32.9	12.5	1.88e-04	0	44	0	349175808	21	4604
2026-01-18 22:23:38.30	68.76	15.48	-31.0	-33.1	12.0	2.91e-04	0	44	0	355467264	22	4567
2026-01-18 22:23:41.31	69.39	15.55	-31.4	-34.3	11.2	1.45e-03	0	44	0	360710144	22	4990
2026-01-18 22:23:44.32	70.03	15.62	-31.1	-32.9	11.9	4.75e-04	0	44	0	367001600	23	4397
2026-01-18 22:23:47.32	70.67	15.68	-31.4	-34.3	11.2	1.58e-03	0	44	0	372244480	22	4995
2026-01-18 22:23:50.33	71.31	15.74	-31.9	-35.2	10.1	5.15e-03	0	44	0	377487360	23	5309
2026-01-18 22:23:53.33	71.95	15.80	-31.5	-34.1	10.9	2.20e-03	0	44	0	383778816	23	4855
2026-01-18 22:23:56.34	72.60	15.85	-31.5	-34.0	11.1	1.27e-03	0	44	0	389021696	23	4790
2026-01-18 22:23:59.34	73.25	15.90	-31.1	-32.9	11.8	5.81e-04	0	44	0	394264576	23	4402
2026-01-18 22:24:02.35	73.90	15.95	-30.5	-31.5	13.1	3.81e-05	0	44	0	400556032	22	4056
2026-01-18 22:24:05.36	74.55	15.99	-30.8	-32.3	12.6	5.26e-05	0	44	0	405798912	22	4293
2026-01-18 22:24:08.37	75.21	16.03	-31.0	-33.0	12.1	2.05e-04	0	44	0	412090368	22	4523
2026-01-18 22:24:11.38	75.87	16.07	-31.0	-33.0	12.1	2.36e-04	0	44	0	417333248	22	4528
2026-01-18 22:24:14.38	76.52	16.10	-31.5	-34.4	11.1	1.21e-03	0	44	0	422576128	22	5050
2026-01-18 22:24:17.40	77.18	16.13	-31.5	-34.1	11.0	2.30e-03	0	44	0	428867584	23	4823
2026-01-18 22:24:20.40	77.84	16.16	-31.2	-33.0	11.8	6.02e-04	0	44	0	434110464	23	4438
2026-01-18 22:24:23.41	78.50	16.18	-31.0	-32.8	12.3	2.37e-04	0	44	0	439353344	22	4467
2026-01-18 22:24:26.42	79.17	16.20	-30.7	-32.2	12.6	1.07e-04	0	44	0	445644800	22	4268
2026-01-18 22:24:29.42	79.83	16.21	-30.8	-32.9	12.5	9.23e-05	0	44	0	450887680	21	4575
2026-01-18 22:24:32.43	80.49	16.22	-30.7	-32.6	12.7	8.62e-05	0	44	0	457179136	21	4488
2026-01-18 22:24:35.44	81.16	16.23	-30.5	-32.0	13.2	3.66e-05	0	44	0	462422016	21	4272
2026-01-18 22:24:38.45	81.82	16.23	-30.4	-31.7	13.4	1.90e-05	0	44	0	467664896	21	4192
2026-01-18 22:24:41.45	82.49	16.23	-30.6	-32.2	12.9	2.74e-05	0	44	0	473956352	21	4353
2026-01-18 22:24:44.46	83.15	16.23	-30.3	-31.5	13.4	1.22e-05	0	44	0	479199232	21	4145
2026-01-18 22:24:47.46	83.82	16.22	-30.7	-32.7	12.7	6.86e-05	0	44	0	484442112	21	4510
2026-01-18 22:24:50.48	84.48	16.21	-30.8	-32.9	12.5	1.29e-04	0	44	0	490733568	21	4580
2026-01-18 22:24:53.48	85.15	16.20	-30.6	-32.5	12.8	8.16e-05	0	44	0	495976448	21	4442
2026-01-18 22:24:56.49	85.81	16.18	-31.0	-33.0	12.0	1.74e-04	0	44	0	502267904	22	4547
2026-01-18 22:24:59.49	86.47	16.16	-31.3	-34.0	11.4	7.57e-04	0	44	0	507510784	22	4891
2026-01-18 22:25:02.49	87.13	16.14	-30.7	-32.3	12.6	1.36e-04	0	44	0	512753664	22	4284
2026-01-18 22:25:05.48	87.79	16.11	-30.5	-31.6	13.1	2.13e-05	0	44	0	519045120	22	4066
2026-01-18 22:25:08.49	88.45	16.08	-30.6	-31.9	12.8	6.10e-05	0	44	0	524288000	22	4162
2026-01-18 22:25:11.49	89.10	16.04	-30.7	-32.2	12.5	9.76e-05	0	44	0	529530880	22	4279
2026-01-18 22:25:14.49	89.76	16.00	-30.9	-32.8	12.2	1.99e-04	0	44	0	535822336	22	4462
2026-01-18 22:25:17.48	90.41	15.96	-30.8	-32.5	12.4	1.52e-04	0	44	0	541065216	22	4367
2026-01-18 22:25:20.48	91.06	15.91	-30.4	-31.8	13.1	4.73e-05	0	44	0	546308096	21	4248
2026-01-18 22:25:23.49	91.71	15.86	-30.1	-30.9	13.7	4.50e-06	0	44	0	552599552	21	3979
2026-01-18 22:25:26.49	92.36	15.81	-30.1	-31.0	13.6	7.60e-06	0	44	0	557842432	21	3989
2026-01-18 22:25:29.51	93.00	15.76	-30.2	-31.2	13.5	6.80e-06	0	44	0	564133888	21	4055
2026-01-18 22:25:32.51	93.65	15.70	-30.1	-31.7	13.6	8.30e-06	0	44	0	569376768	20	4284
2026-01-18 22:25:35.51	94.29	15.63	-30.5	-32.1	12.9	4.80e-05	0	44	0	574619648	21	4332
2026-01-18 22:25:38.51	94.92	15.57	-30.4	-31.9	13.1	3.35e-05	0	44	0	580911104	21	4257
2026-01-18 22:25:41.53	95.56	15.50	-30.3	-32.1	13.3	1.52e-05	0	44	0	586153984	20	4407
2026-01-18 22:25:44.54	96.20	15.43	-30.4	-32.2	13.2	3.66e-05	0	44	0	591396864	20	4474
2026-01-18 22:25:47.55	96.83	15.35	-29.9	-31.1	13.8	8.30e-06	0	44	0	597688320	20	4122
2026-01-18 22:25:50.54	97.45	15.28	-30.0	-31.2	13.8	5.30e-06	0	44	0	602931200	20	4145
2026-01-18 22:25:53.55	98.07	15.19	-29.7	-30.5	14.2	2.20e-06	0	44	0	609222656	20	3949
2026-01-18 22:25:56.56	98.69	15.11	-30.2	-31.7	13.5	1.22e-05	0	44	0	614465536	20	4300
2026-01-18 22:25:59.56	99.31	15.02	-30.1	-31.6	13.6	3.00e-06	0	44	0	619708416	20	4260
2026-01-18 22:26:02.55	99.92	14.94	-30.0	-31.2	13.8	9.90e-06	0	44	0	625999872	20	4166
2026-01-18 22:26:05.55	100.53	14.84	-30.3	-32.2	13.1	2.13e-05	0	44	0	631242752	20	4456
2026-01-18 22:26:08.55	101.13	14.75	-30.1	-31.7	13.5	1.60e-05	0	44	0	636485632	20	4290
2026-01-18 22:26:11.56	101.74	14.65	-30.1	-31.6	13.5	6.10e-06	0	44	0	642777088	20	4267
2026-01-18 22:26:14.57	102.34	14.55	-29.7	-30.6	14.1	1.50e-06	0	44	0	648019968	20	3980
2026-01-18 22:26:17.58	102.93	14.45	-29.8	-30.7	14.1	7.00e-07	0	44	0	654311424	20	4001
2026-01-18 22:26:20.58	103.52	14.35	-30.0	-31.4	13.6	9.90e-06	0	44	0	659554304	20	4221
2026-01-18 22:26:23.59	104.11	14.24	-30.1	-31.5	13.6	7.60e-06	0	44	0	664797184	20	4245
2026-01-18 22:26:26.60	104.69	14.13	-30.5	-32.3	12.7	5.79e-05	0	44	0	671088640	21	4423
2026-01-18 22:26:29.62	105.27	14.02	-30.8	-33.1	12.1	2.45e-04	0	44	0	676331520	21	4699
2026-01-18 22:26:32.63	105.85	13.90	-30.7	-32.6	12.4	1.79e-04	0	44	0	681574400	21	4529
2026-01-18 22:26:35.63	106.41	13.79	-30.6	-32.5	12.6	6.10e-05	0	44	0	687865856	21	4463
2026-01-18 22:26:38.64	106.98	13.67	-30.8	-33.0	12.2	1.88e-04	0	44	0	693108736	21	4653
2026-01-18 22:26:41.64	107.54	13.55	-31.1	-33.4	11.6	6.44e-04	0	44	0	699400192	22	4699
2026-01-18 22:26:44.64	108.10	13.43	-30.9	-32.8	12.0	5.75e-04	0	44	0	704643072	22	4491
2026-01-18 22:26:47.65	108.65	13.31	-30.9	-32.8	12.0	3.44e-04	0	44	0	709885952	22	4475
2026-01-18 22:26:50.66	109.20	13.18	-31.1	-33.6	11.4	6.37e-04	0	44	0	716177408	22	4776
2026-01-18 22:26:53.67	109.74	13.05	-31.4	-34.4	10.8	1.75e-03	0	44	0	721420288	22	5104
2026-01-18 22:26:56.69	110.28	12.92	-31.6	-34.6	10.3	5.55e-03	0	44	0	726663168	23	5088
2026-01-18 22:26:59.69	110.82	12.79	-31.7	-35.1	9.9	9.65e-03	0	44	0	732954624	23	5289
2026-01-18 22:27:02.70	111.35	12.66	-31.4	-34.0	10.7	4.72e-03	0	44	0	738197504	23	4828
2026-01-18 22:27:05.72	111.87	12.53	-30.8	-32.6	12.0	3.02e-04	0	44	0	744488960	22	4434
2026-01-18 22:27:08.72	112.39	12.40	-31.0	-33.2	11.6	7.14e-04	0	44	0	749731840	22	4629
2026-01-18 22:27:11.74	112.91	12.26	-31.1	-33.7	11.2	1.11e-03	0	44	0	754974720	22	4819
2026-01-18 22:27:14.74	113.42	12.12	-31.2	-33.8	11.1	1.34e-03	0	44	0	761266176	22	4889
2026-01-18 22:27:17.75	113.93	11.98	-31.2	-33.8	11.1	1.72e-03	0	44	0	766509056	22	4879
2026-01-18 22:27:20.76	114.43	11.84	-31.2	-33.8	11.1	2.02e-03	0	44	0	772800512	22	4883
2026-01-18 22:27:23.77	114.93	11.70	-31.4	-34.5	10.6	2.39e-03	0	44	0	778043392	22	5144
2026-01-18 22:27:26.78	115.42	11.56	-31.5	-34.4	10.3	5.05e-03	0	44	0	783286272	23	5023
2026-01-18 22:27:29.79	115.91	11.42	-31.4	-34.1	10.5	4.45e-03	0	44	0	789577728	23	4917
2026-01-18 22:27:32.79	116.39	11.27	-31.3	-33.6	10.9	2.48e-03	0	44	0	794820608	23	4712
2026-01-18 22:27:35.80	116.87	11.13	-31.1	-33.0	11.3	1.17e-03	0	44	0	800063488	23	4494
2026-01-18 22:27:38.82	117.35	10.98	-31.0	-33.2	11.5	9.83e-04	0	44	0	806354944	22	4661
2026-01-18 22:27:41.83	117.82	10.83	-31.0	-33.4	11.3	1.59e-03	0	44	0	811597824	22	4727
2026-01-18 22:27:44.83	118.28	10.69	-30.7	-32.4	12.0	2.74e-04	0	44	0	817889280	22	4387
2026-01-18 22:27:47.84	118.74	10.54	-30.8	-32.7	11.8	7.38e-04	0	44	0	823132160	22	4486
2026-01-18 22:27:50.84	119.20	10.39	-30.8	-32.9	11.7	5.38e-04	0	44	0	828375040	22	4548
2026-01-18 22:27:53.86	119.65	10.24	-31.0	-33.4	11.3	8.83e-04	0	44	0	834666496	22	4745
2026-01-18 22:27:56.86	120.10	10.09	-30.4	-31.6	12.5	1.33e-04	0	44	0	839909376	22	4115
2026-01-18 22:27:59.85	120.54	9.94	-30.3	-31.7	12.8	8.54e-05	0	44	0	845152256	21	4253
2026-01-18 22:28:02.86	120.98	9.79	-30.3	-32.2	12.8	6.33e-05	0	44	0	851443712	20	4477
2026-01-18 22:28:05.87	121.41	9.64	-30.4	-32.6	12.5	1.25e-04	0	44	0	856686592	20	4623
2026-01-18 22:28:08.88	121.84	9.48	-30.5	-32.4	12.3	1.98e-04	0	44	0	862978048	21	4467
2026-01-18 22:28:11.88	122.27	9.33	-30.7	-33.1	11.8	3.52e-04	0	44	0	868220928	21	4718
2026-01-18 22:28:14.88	122.69	9.18	-30.8	-33.4	11.5	8.16e-04	0	44	0	873463808	21	4867
2026-01-18 22:28:17.89	123.11	9.02	-30.9	-33.6	11.3	9.35e-04	0	44	0	879755264	21	4921
2026-01-18 22:28:20.90	123.52	8.87	-30.6	-32.7	12.0	4.23e-04	0	44	0	884998144	21	4583
2026-01-18 22:28:23.91	123.93	8.72	-30.5	-32.5	12.1	3.99e-04	0	44	0	890241024	21	4534
2026-01-18 22:28:26.93	124.33	8.56	-30.6	-32.9	11.8	4.47e-04	0	44	0	896532480	21	4664
2026-01-18 22:28:29.95	124.74	8.41	-30.8	-33.4	11.4	1.07e-03	0	44	0	901775360	21	4854
2026-01-18 22:28:32.96	125.13	8.25	-31.0	-33.8	10.8	2.31e-03	0	44	0	908066816	22	4922
2026-01-18 22:28:35.96	125.52	8.10	-31.0	-33.5	10.9	2.45e-03	0	44	0	913309696	22	4821
2026-01-18 22:28:38.97	125.91	7.94	-31.0	-33.6	10.9	2.53e-03	0	44	0	918552576	22	4844
2026-01-18 22:28:41.98	126.30	7.78	-31.4	-35.0	9.8	7.03e-03	0	44	0	924844032	22	5471
2026-01-18 22:28:44.99	126.68	7.63	-31.7	-35.7	8.8	2.51e-02	0	44	0	930086912	23	5684
2026-01-18 22:28:48.00	127.05	7.47	-31.6	-35.2	9.2	2.35e-02	0	44	0	936378368	23	5445
2026-01-18 22:28:51.00	127.42	7.32	-31.4	-34.4	9.8	1.05e-02	0	44	0	941621248	23	5122
2026-01-18 22:28:54.00	127.79	7.16	-31.7	-35.7	8.8	1.99e-02	0	44	0	946864128	23	5719
2026-01-18 22:28:57.01	128.16	7.00	-33.4	-46.1	3.8	1.49e+00	0	44	104	951058432	26	15419
2026-01-18 22:29:00.02	128.52	6.85	-34.2	-46.6	3.8	1.49e+00	0	44	104	951058432	28	15100

#Closed at: 2026-01-18 22:29:00
#Recorded file [951 MB]: D:/data/31010_260119_012028.dat