passes_logs/2026/01/18/R2M6_AANII_01/R2M6_AANII_01__20260118_001844_SUOMI_NPP_rec.log

#Pass ID: 20260118_001844_SUOMI NPP
#Satellite: SUOMI NPP
#Configuration: NPP
#almurnet v.1.7.20240730
#Start time: 2026-01-18 00:18:45

#Version: 2.2.20231116
#Station: R2M6_AANII_01
#Location: 30.233357 lon 59.946436 lat
#TLE: 1 37849U 11061A   26017.28905266  .00000074  00000+0  55894-4 0  9999
#TLE: 2 37849  98.7814 319.3179 0002408  59.7048 300.4366 14.19525847737038

#Time	Az	El	Level	Level2	SNR	BER	BlckErr	Temp	State	Recorded	gain1	gain2
2026-01-18 00:18:45.74	18.76	7.12	-31.4	-35.8	5.1	1.28e+00	0	41	0	0	22	6006
2026-01-18 00:18:48.75	18.79	7.36	-31.6	-36.3	7.7	8.78e-02	0	41	0	1048576	23	6143
2026-01-18 00:18:51.75	18.82	7.59	-31.6	-36.1	7.9	5.73e-02	0	42	0	7340032	23	6056
2026-01-18 00:18:54.75	18.85	7.83	-31.1	-36.4	7.1	1.56e-01	0	42	0	12582912	23	6635
2026-01-18 00:18:57.76	18.88	8.07	-31.5	-35.6	8.2	8.93e-02	0	42	0	17825792	23	5777
2026-01-18 00:19:00.75	18.91	8.31	-30.9	-34.3	10.0	8.50e-03	0	42	0	24117248	21	5325
2026-01-18 00:19:03.77	18.94	8.55	-31.2	-34.8	9.4	2.10e-02	0	42	0	29360128	22	5457
2026-01-18 00:19:06.77	18.97	8.80	-31.1	-34.6	9.6	1.40e-02	0	42	0	35651584	22	5351
2026-01-18 00:19:09.78	19.01	9.05	-31.1	-34.3	9.8	1.46e-02	0	42	0	40894464	22	5229
2026-01-18 00:19:12.78	19.04	9.30	-30.8	-33.9	10.5	8.46e-03	0	42	0	46137344	21	5140
2026-01-18 00:19:15.80	19.07	9.55	-30.2	-32.5	11.9	3.97e-03	0	42	0	52428800	20	4684
2026-01-18 00:19:18.81	19.10	9.81	-30.1	-32.3	12.0	2.93e-03	0	42	0	57671680	20	4609
2026-01-18 00:19:21.82	19.14	10.07	-30.0	-32.2	12.6	2.48e-03	0	42	0	62914560	19	4656
2026-01-18 00:19:24.82	19.17	10.33	-29.9	-32.1	12.6	2.81e-03	0	43	0	69206016	19	4615
2026-01-18 00:19:27.83	19.21	10.59	-29.8	-31.8	12.9	2.51e-03	0	42	0	74448896	19	4495
2026-01-18 00:19:30.82	19.24	10.86	-29.8	-31.6	13.0	3.00e-03	0	43	0	80740352	19	4437
2026-01-18 00:19:33.83	19.27	11.13	-29.7	-31.4	13.1	3.16e-03	0	43	0	85983232	19	4390
2026-01-18 00:19:36.84	19.31	11.41	-29.9	-31.8	12.9	5.24e-04	0	43	0	91226112	19	4510
2026-01-18 00:19:39.85	19.35	11.68	-29.7	-31.5	13.1	5.07e-04	0	43	0	97517568	19	4396
2026-01-18 00:19:42.86	19.38	11.96	-29.6	-31.2	13.3	2.48e-03	0	43	0	102760448	19	4314
2026-01-18 00:19:45.86	19.42	12.24	-29.6	-31.1	13.4	2.49e-03	0	43	0	108003328	19	4267
2026-01-18 00:19:48.88	19.46	12.53	-29.5	-30.8	13.6	2.68e-03	0	43	0	114294784	19	4168
2026-01-18 00:19:51.89	19.49	12.82	-29.4	-30.5	13.8	2.87e-03	0	43	0	119537664	19	4093
2026-01-18 00:19:54.89	19.53	13.12	-29.5	-30.7	13.8	3.62e-04	0	43	0	125829120	19	4139
2026-01-18 00:19:57.91	19.57	13.41	-29.3	-30.9	14.0	3.84e-04	0	43	0	131072000	18	4296
2026-01-18 00:20:00.92	19.61	13.71	-29.4	-31.1	13.8	3.47e-04	0	43	0	136314880	18	4371
2026-01-18 00:20:03.93	19.65	14.02	-29.5	-30.7	13.7	3.49e-04	0	43	0	142606336	19	4156
2026-01-18 00:20:06.94	19.69	14.33	-29.5	-30.8	13.8	2.55e-03	0	43	0	147849216	19	4161
2026-01-18 00:20:09.93	19.73	14.64	-29.4	-30.6	13.8	2.75e-03	0	43	0	153092096	19	4105
2026-01-18 00:20:12.93	19.77	14.95	-29.7	-31.2	13.5	3.76e-04	0	43	0	159383552	19	4290
2026-01-18 00:20:15.94	19.81	15.27	-29.5	-30.7	13.8	3.71e-04	0	43	0	164626432	19	4152
2026-01-18 00:20:18.95	19.85	15.60	-29.5	-30.7	13.9	3.58e-04	0	43	0	170917888	19	4121
2026-01-18 00:20:21.96	19.90	15.93	-29.6	-30.9	13.8	3.41e-04	0	43	0	176160768	19	4185
2026-01-18 00:20:24.96	19.94	16.26	-29.4	-30.5	14.0	3.80e-06	0	43	0	181403648	19	4086
2026-01-18 00:20:27.98	19.99	16.60	-29.2	-30.5	14.3	0.00e+00	0	43	0	187695104	18	4155
2026-01-18 00:20:30.98	20.03	16.94	-29.3	-30.6	14.3	7.00e-07	0	43	0	192937984	18	4200
2026-01-18 00:20:33.99	20.08	17.29	-29.5	-30.7	13.9	3.92e-04	0	43	0	198180864	19	4131
2026-01-18 00:20:37.00	20.13	17.64	-29.5	-30.7	13.9	4.70e-04	0	43	0	204472320	19	4124
2026-01-18 00:20:40.01	20.17	18.00	-29.9	-31.7	13.3	5.32e-04	0	43	0	209715200	19	4446
2026-01-18 00:20:43.02	20.22	18.37	-29.8	-31.5	13.4	1.06e-05	0	43	0	216006656	19	4378
2026-01-18 00:20:46.01	20.27	18.73	-29.9	-31.7	13.3	2.21e-05	0	43	0	221249536	19	4417
2026-01-18 00:20:49.02	20.32	19.11	-30.1	-32.0	12.8	4.80e-05	0	43	0	226492416	20	4441
2026-01-18 00:20:52.03	20.37	19.49	-30.2	-32.2	12.6	2.53e-03	0	43	0	232783872	20	4526
2026-01-18 00:20:55.04	20.42	19.87	-30.5	-32.5	12.1	2.72e-03	0	43	0	238026752	21	4523
2026-01-18 00:20:58.06	20.48	20.27	-30.7	-33.1	11.7	3.02e-03	0	43	0	244318208	21	4721
2026-01-18 00:21:01.07	20.53	20.67	-31.1	-33.8	10.9	1.75e-03	0	43	0	249561088	22	4915
2026-01-18 00:21:04.08	20.59	21.07	-30.8	-33.4	11.5	8.09e-04	0	43	0	254803968	21	4849
2026-01-18 00:21:07.08	20.64	21.48	-30.6	-32.9	11.9	5.06e-04	0	43	0	261095424	21	4651
2026-01-18 00:21:10.10	20.70	21.90	-30.5	-32.3	12.3	2.88e-03	0	43	0	266338304	21	4460
2026-01-18 00:21:13.11	20.76	22.33	-30.5	-32.6	12.2	2.73e-03	0	43	0	271581184	21	4534
2026-01-18 00:21:16.12	20.82	22.76	-30.7	-32.9	11.9	2.70e-03	0	43	0	277872640	21	4639
2026-01-18 00:21:19.13	20.88	23.20	-30.7	-33.0	11.7	2.88e-03	0	43	0	283115520	21	4695
2026-01-18 00:21:22.14	20.95	23.65	-30.7	-32.9	12.0	2.83e-03	0	43	0	289406976	21	4645
2026-01-18 00:21:25.15	21.01	24.11	-30.6	-32.7	12.1	2.94e-03	0	43	0	294649856	21	4580
2026-01-18 00:21:28.17	21.08	24.57	-30.4	-32.0	12.6	2.50e-03	0	43	0	299892736	21	4336
2026-01-18 00:21:31.19	21.15	25.05	-30.8	-33.1	11.9	2.70e-03	0	43	0	306184192	21	4711
2026-01-18 00:21:34.20	21.22	25.53	-30.5	-32.2	12.5	2.19e-03	0	44	0	311427072	21	4412
2026-01-18 00:21:37.21	21.29	26.02	-30.3	-32.3	12.8	2.48e-03	0	44	0	317718528	20	4517
2026-01-18 00:21:40.21	21.36	26.51	-30.2	-32.0	13.0	2.46e-03	0	44	0	322961408	20	4422
2026-01-18 00:21:43.22	21.44	27.02	-30.3	-32.4	12.8	2.27e-03	0	44	0	328204288	20	4540
2026-01-18 00:21:46.23	21.51	27.54	-30.1	-31.8	13.1	2.05e-04	0	44	0	334495744	20	4351
2026-01-18 00:21:49.25	21.59	28.07	-29.9	-31.2	13.6	1.55e-04	0	43	0	339738624	20	4162
2026-01-18 00:21:52.26	21.68	28.61	-29.9	-31.5	13.8	1.17e-04	0	44	0	346030080	19	4350
2026-01-18 00:21:55.28	21.76	29.16	-30.0	-31.8	13.7	2.35e-03	0	44	0	351272960	19	4422
2026-01-18 00:21:58.28	21.85	29.72	-30.2	-31.8	13.2	2.31e-03	0	44	0	356515840	20	4343
2026-01-18 00:22:01.30	21.94	30.29	-30.3	-32.1	13.0	2.19e-03	0	44	0	362807296	20	4431
2026-01-18 00:22:04.31	22.03	30.87	-30.4	-32.5	12.9	1.03e-04	0	44	0	368050176	20	4561
2026-01-18 00:22:07.31	22.12	31.47	-30.9	-33.5	11.8	2.54e-04	0	44	0	373293056	21	4816
2026-01-18 00:22:10.32	22.22	32.07	-31.6	-34.7	10.3	2.58e-03	0	44	0	379584512	23	5110
2026-01-18 00:22:13.33	22.32	32.69	-31.8	-35.4	9.8	6.77e-03	0	44	0	384827392	23	5409
2026-01-18 00:22:16.34	22.43	33.32	-31.7	-34.9	10.1	6.60e-03	0	44	0	391118848	23	5204
2026-01-18 00:22:19.35	22.54	33.97	-31.5	-34.1	10.7	4.35e-03	0	43	0	396361728	23	4863
2026-01-18 00:22:22.36	22.65	34.63	-31.0	-33.1	11.7	5.46e-04	0	43	0	401604608	22	4608
2026-01-18 00:22:25.37	22.77	35.30	-30.4	-31.8	13.0	1.81e-04	0	44	0	407896064	21	4251
2026-01-18 00:22:28.38	22.89	35.99	-30.2	-32.0	13.2	8.16e-05	0	44	0	413138944	20	4389
2026-01-18 00:22:31.38	23.01	36.69	-29.9	-31.1	13.9	6.94e-05	0	44	0	418381824	20	4111
2026-01-18 00:22:34.39	23.15	37.41	-29.7	-30.4	14.2	2.20e-06	0	44	0	424673280	20	3933
2026-01-18 00:22:37.40	23.28	38.15	-30.1	-31.6	13.6	3.80e-06	0	44	0	429916160	20	4261
2026-01-18 00:22:40.40	23.42	38.89	-29.8	-31.1	14.2	7.00e-07	0	44	0	436207616	19	4195
2026-01-18 00:22:43.40	23.57	39.66	-29.4	-30.2	14.8	0.00e+00	0	44	0	441450496	19	3936
2026-01-18 00:22:46.40	23.73	40.44	-29.8	-31.3	14.1	7.00e-07	0	44	0	446693376	19	4259
2026-01-18 00:22:49.40	23.89	41.24	-30.0	-31.2	13.8	1.50e-06	0	44	0	452984832	20	4148
2026-01-18 00:22:52.42	24.06	42.06	-30.5	-32.0	13.0	3.43e-05	0	44	0	458227712	21	4311
2026-01-18 00:22:55.43	24.24	42.90	-29.8	-30.3	14.1	7.00e-07	0	44	0	463470592	21	3790
2026-01-18 00:22:58.42	24.43	43.75	-29.6	-30.1	14.6	1.50e-06	0	44	0	469762048	20	3826
2026-01-18 00:23:01.43	24.62	44.63	-30.2	-31.6	13.7	6.10e-06	0	44	0	475004928	20	4266
2026-01-18 00:23:04.44	24.83	45.52	-31.1	-33.3	11.9	4.10e-04	0	44	0	481296384	22	4624
2026-01-18 00:23:07.44	25.05	46.44	-32.1	-35.5	9.6	1.19e-02	0	43	0	486539264	24	5337
2026-01-18 00:23:10.45	25.28	47.37	-31.7	-34.1	10.7	4.65e-03	0	44	0	491782144	24	4769
2026-01-18 00:23:13.46	25.53	48.33	-31.3	-33.2	11.6	1.86e-03	0	44	0	498073600	23	4506
2026-01-18 00:23:16.46	25.79	49.31	-30.3	-31.4	13.6	4.73e-05	0	44	0	503316480	21	4093
2026-01-18 00:23:19.48	26.07	50.31	-29.1	-30.0	15.3	0.00e+00	0	44	0	508559360	18	3953
2026-01-18 00:23:22.49	26.37	51.33	-29.9	-31.3	14.4	0.00e+00	0	44	0	514850816	19	4231
2026-01-18 00:23:25.50	26.68	52.37	-29.4	-30.1	15.2	1.50e-06	0	44	0	520093696	19	3914
2026-01-18 00:23:28.52	27.02	53.44	-29.3	-29.8	15.2	0.00e+00	0	44	0	526385152	19	3825
2026-01-18 00:23:31.53	27.39	54.53	-29.2	-29.6	15.4	0.00e+00	0	44	0	531628032	19	3772
2026-01-18 00:23:34.54	27.78	55.64	-28.4	-28.2	16.5	0.00e+00	0	44	0	536870912	18	3525
2026-01-18 00:23:37.55	28.21	56.77	-27.4	-27.0	17.7	0.00e+00	0	44	0	543162368	16	3406
2026-01-18 00:23:40.56	28.67	57.92	-28.6	-29.1	16.3	0.00e+00	0	44	0	548405248	17	3823
2026-01-18 00:23:43.55	29.17	59.09	-27.9	-28.0	17.3	0.00e+00	0	44	0	554696704	16	3630
2026-01-18 00:23:46.56	29.71	60.28	-28.9	-29.9	15.8	0.00e+00	0	44	0	559939584	17	4017
2026-01-18 00:23:49.55	30.31	61.49	-28.4	-28.6	16.6	0.00e+00	0	44	0	565182464	17	3689
2026-01-18 00:23:52.56	30.97	62.72	-27.9	-27.6	17.1	0.00e+00	0	44	0	571473920	17	3454
2026-01-18 00:23:55.56	31.70	63.97	-29.0	-29.7	15.8	0.00e+00	0	44	0	576716800	18	3874
2026-01-18 00:23:58.58	32.52	65.25	-29.8	-30.7	14.4	1.50e-06	0	44	0	581959680	20	3964
2026-01-18 00:24:01.59	33.43	66.54	-29.5	-30.3	15.1	0.00e+00	0	44	0	588251136	19	3952
2026-01-18 00:24:04.59	34.46	67.84	-30.9	-33.1	12.7	2.74e-05	0	44	0	593494016	21	4610
2026-01-18 00:24:07.61	35.63	69.16	-31.1	-32.7	12.3	5.03e-04	0	44	0	599785472	23	4298
2026-01-18 00:24:10.60	36.96	70.47	-30.6	-31.6	13.3	1.79e-04	0	44	0	605028352	22	4054
2026-01-18 00:24:13.60	38.50	71.80	-30.6	-32.1	13.3	3.66e-05	0	44	0	610271232	21	4296
2026-01-18 00:24:16.62	40.31	73.14	-31.0	-32.8	12.6	4.95e-05	0	43	0	616562688	22	4441
2026-01-18 00:24:19.62	42.43	74.47	-31.8	-34.8	10.8	3.00e-04	0	44	0	621805568	23	5070
2026-01-18 00:24:22.62	44.96	75.79	-31.4	-33.0	11.8	1.05e-03	0	44	0	627048448	24	4306
2026-01-18 00:24:25.63	48.03	77.09	-32.5	-36.2	9.1	2.19e-02	0	44	0	633339904	25	5481
2026-01-18 00:24:28.64	51.80	78.36	-32.4	-35.5	9.4	1.73e-02	0	44	0	638582784	25	5188
2026-01-18 00:24:31.64	56.47	79.57	-31.8	-34.6	10.7	2.01e-03	0	44	0	644874240	23	4977
2026-01-18 00:24:34.65	62.38	80.71	-32.1	-35.0	10.5	8.81e-03	0	44	0	650117120	24	5022
2026-01-18 00:24:37.66	69.85	81.73	-31.3	-32.9	12.5	9.15e-05	0	44	0	655360000	23	4334
2026-01-18 00:24:40.66	79.21	82.58	-30.8	-32.4	13.3	1.29e-05	0	44	0	661651456	21	4373
2026-01-18 00:24:43.66	90.61	83.18	-30.3	-31.8	14.0	1.50e-06	0	44	0	666894336	20	4260
2026-01-18 00:24:46.67	103.68	83.48	-29.7	-30.1	15.2	0.00e+00	0	44	0	672137216	20	3787
2026-01-18 00:24:49.68	117.22	83.42	-28.8	-29.1	16.4	5.70e-04	0	44	0	678428672	18	3701
2026-01-18 00:24:52.70	129.88	83.01	-31.2	-33.3	12.6	4.13e-04	0	44	0	683671552	22	4555
2026-01-18 00:24:55.71	140.65	82.31	-32.1	-34.9	10.7	2.11e-03	0	44	0	689963008	24	4972
2026-01-18 00:24:58.71	149.34	81.40	-32.9	-37.2	8.5	1.73e-02	0	43	0	695205888	25	5920
2026-01-18 00:25:01.73	156.26	80.33	-32.8	-36.5	8.7	5.35e-02	0	44	0	700448768	26	5464
2026-01-18 00:25:04.74	161.72	79.16	-32.9	-36.8	8.4	7.24e-02	0	44	0	706740224	26	5641
2026-01-18 00:25:07.75	166.07	77.92	-31.9	-34.3	11.1	3.06e-03	0	44	0	711983104	24	4732
2026-01-18 00:25:10.76	169.58	76.64	-34.0	-42.5	4.5	7.34e-01	0	44	0	717225984	27	9590
2026-01-18 00:25:13.76	172.44	75.33	-33.5	-39.0	6.0	4.59e-01	0	43	0	721420288	28	6788
2026-01-18 00:25:16.76	174.82	74.01	-33.6	-39.9	5.8	3.33e-01	0	44	0	727711744	27	7463
2026-01-18 00:25:19.77	176.83	72.67	-33.3	-38.1	7.0	2.14e-01	0	44	0	732954624	27	6277
2026-01-18 00:25:22.77	178.53	71.34	-33.9	-42.2	4.6	5.65e-01	0	44	0	738197504	27	9360
2026-01-18 00:25:25.77	180.00	70.01	-33.9	-41.9	4.7	6.09e-01	0	44	0	744488960	27	9092
2026-01-18 00:25:28.78	181.27	68.69	-33.0	-37.3	8.0	1.62e-01	0	44	0	749731840	26	5884
2026-01-18 00:25:31.77	182.39	67.38	-31.1	-32.4	12.7	1.12e-04	0	44	0	754974720	23	4191
2026-01-18 00:25:34.77	183.37	66.08	-29.3	-29.6	15.7	5.11e-05	0	44	0	761266176	19	3752
2026-01-18 00:25:37.77	184.25	64.80	-29.4	-30.5	15.5	7.32e-05	0	44	0	766509056	18	4087
2026-01-18 00:25:40.77	185.03	63.54	-30.9	-32.9	12.9	2.13e-05	0	44	0	771751936	21	4542
2026-01-18 00:25:43.77	185.73	62.29	-30.0	-30.5	14.5	3.52e-04	0	43	0	778043392	21	3803
2026-01-18 00:25:46.76	186.37	61.07	-31.2	-33.1	12.4	3.96e-04	0	44	0	783286272	22	4525
2026-01-18 00:25:49.76	186.95	59.86	-30.2	-31.0	14.1	3.31e-04	0	44	0	789577728	21	3940
2026-01-18 00:25:52.76	187.48	58.67	-30.7	-32.5	13.2	3.38e-04	0	43	0	794820608	21	4410
2026-01-18 00:25:55.76	187.97	57.50	-29.4	-29.5	15.3	3.41e-04	0	43	0	800063488	20	3636
2026-01-18 00:25:58.77	188.41	56.36	-31.1	-33.0	12.5	3.35e-05	0	43	0	806354944	22	4480
2026-01-18 00:26:01.78	188.83	55.23	-30.8	-32.6	13.1	2.82e-05	0	44	0	811597824	21	4461
2026-01-18 00:26:04.79	189.21	54.12	-31.3	-33.7	12.1	1.13e-04	0	44	0	816840704	22	4737
2026-01-18 00:26:07.80	189.57	53.04	-31.6	-33.4	11.5	1.25e-03	0	44	0	823132160	24	4460
2026-01-18 00:26:10.82	189.90	51.98	-31.9	-35.2	10.6	1.23e-03	0	44	0	828375040	23	5224
2026-01-18 00:26:13.82	190.21	50.94	-32.1	-35.1	10.2	1.28e-02	0	44	0	834666496	24	5101
2026-01-18 00:26:16.84	190.50	49.92	-30.3	-31.4	13.7	1.38e-04	0	44	0	839909376	21	4091
2026-01-18 00:26:19.85	190.77	48.92	-30.8	-32.8	12.9	1.01e-04	0	44	0	845152256	21	4520
2026-01-18 00:26:22.85	191.03	47.95	-32.0	-34.7	9.9	2.53e-02	0	44	0	851443712	25	4901
2026-01-18 00:26:25.87	191.27	47.00	-31.1	-33.1	12.3	1.29e-04	0	44	0	856686592	22	4545
2026-01-18 00:26:28.88	191.49	46.06	-31.4	-34.0	11.7	3.43e-04	0	44	0	861929472	22	4867
2026-01-18 00:26:31.90	191.71	45.15	-31.7	-34.3	11.0	1.94e-03	0	44	0	868220928	23	4895
2026-01-18 00:26:34.90	191.91	44.26	-30.5	-31.4	13.3	2.67e-05	0	44	0	873463808	22	3992
2026-01-18 00:26:37.91	192.11	43.39	-28.4	-28.2	16.5	0.00e+00	0	44	0	879755264	18	3515
2026-01-18 00:26:40.92	192.29	42.53	-30.3	-31.9	13.4	4.50e-06	0	44	0	884998144	20	4329
2026-01-18 00:26:43.92	192.47	41.70	-31.2	-33.6	11.4	1.61e-03	0	44	0	890241024	22	4730
2026-01-18 00:26:46.93	192.63	40.89	-30.5	-32.0	13.2	1.83e-05	0	44	0	896532480	21	4280
2026-01-18 00:26:49.94	192.79	40.09	-30.7	-32.6	12.9	3.89e-05	0	44	0	901775360	21	4446
2026-01-18 00:26:52.95	192.94	39.31	-31.6	-34.3	11.1	4.49e-04	0	44	0	908066816	23	4886
2026-01-18 00:26:55.95	193.09	38.54	-33.0	-38.3	6.7	1.64e-01	0	44	0	913309696	26	6658
2026-01-18 00:26:58.95	193.23	37.80	-32.7	-37.6	7.7	9.00e-02	0	44	0	918552576	25	6302
2026-01-18 00:27:01.97	193.36	37.07	-31.8	-34.9	10.5	9.37e-03	0	44	0	924844032	23	5145
2026-01-18 00:27:04.97	193.49	36.35	-32.3	-36.2	9.2	1.40e-02	0	44	0	930086912	24	5646
2026-01-18 00:27:07.97	193.61	35.65	-32.4	-36.4	9.0	3.11e-02	0	44	0	935329792	24	5753
2026-01-18 00:27:10.96	193.73	34.97	-32.7	-37.2	7.9	8.35e-02	0	44	0	941621248	25	6098
2026-01-18 00:27:13.98	193.85	34.30	-33.1	-39.2	6.1	2.83e-01	0	44	0	946864128	26	7228
2026-01-18 00:27:16.98	193.96	33.64	-33.3	-40.5	5.3	3.68e-01	0	44	0	953155584	26	8211
2026-01-18 00:27:19.99	194.06	33.00	-32.9	-38.5	7.0	1.73e-01	0	44	0	958398464	25	6806
2026-01-18 00:27:23.00	194.17	32.37	-32.7	-37.4	7.8	8.86e-02	0	44	0	963641344	25	6155
2026-01-18 00:27:26.00	194.27	31.76	-32.1	-35.5	9.6	1.55e-02	0	44	0	969932800	24	5332
2026-01-18 00:27:29.01	194.36	31.15	-30.9	-32.7	12.2	3.87e-04	0	44	0	975175680	22	4423
2026-01-18 00:27:32.01	194.45	30.56	-31.2	-33.6	11.8	2.92e-03	0	44	0	980418560	22	4731
2026-01-18 00:27:35.02	194.54	29.98	-32.4	-36.5	8.7	2.07e-02	0	44	0	986710016	24	5822
2026-01-18 00:27:38.04	194.63	29.41	-33.1	-39.4	5.9	2.56e-01	0	44	0	991952896	26	7370
2026-01-18 00:27:41.06	194.72	28.85	-32.9	-38.5	6.8	2.17e-01	0	44	0	998244352	25	6893
2026-01-18 00:27:44.06	194.80	28.31	-32.1	-35.5	9.5	2.16e-02	0	44	0	1003487232	24	5370
2026-01-18 00:27:47.07	194.88	27.77	-31.4	-33.7	11.2	5.70e-03	0	44	0	1008730112	23	4696
2026-01-18 00:27:50.08	194.95	27.24	-31.2	-33.6	11.7	9.09e-04	0	44	0	1015021568	22	4735
2026-01-18 00:27:53.09	195.03	26.73	-31.1	-33.4	11.8	4.56e-04	0	44	0	1020264448	22	4661
2026-01-18 00:27:56.11	195.10	26.22	-30.1	-31.6	13.5	2.50e-03	0	44	0	1026555904	20	4277
2026-01-18 00:27:59.12	195.17	25.72	-29.2	-30.3	15.1	2.24e-03	0	44	0	1031798784	18	4052
2026-01-18 00:28:02.12	195.24	25.23	-29.2	-30.1	15.1	2.38e-03	0	44	0	1037041664	18	4015
2026-01-18 00:28:05.12	195.31	24.76	-29.4	-30.3	14.7	2.35e-03	0	44	0	1043333120	19	3978
2026-01-18 00:28:08.13	195.38	24.28	-29.6	-30.6	14.5	1.50e-06	0	44	0	1048576000	19	4068
2026-01-18 00:28:11.13	195.44	23.82	-29.6	-30.7	14.4	7.00e-07	0	44	0	1053818880	19	4096
2026-01-18 00:28:14.13	195.50	23.37	-29.3	-30.5	14.9	0.00e+00	0	44	0	1060110336	18	4115
2026-01-18 00:28:17.13	195.56	22.92	-28.9	-29.5	15.5	1.97e-03	0	44	0	1065353216	18	3861
2026-01-18 00:28:20.13	195.62	22.49	-28.6	-29.1	16.0	2.22e-03	0	44	0	1070596096	17	3849
2026-01-18 00:28:23.14	195.68	22.06	-28.4	-29.3	16.1	2.13e-03	0	44	0	1076887552	16	3984
2026-01-18 00:28:26.15	195.74	21.63	-28.5	-29.1	15.9	0.00e+00	0	44	0	1082130432	17	3852
2026-01-18 00:28:29.16	195.79	21.21	-29.0	-30.2	15.3	0.00e+00	0	44	0	1088421888	17	4146
2026-01-18 00:28:32.16	195.85	20.80	-29.5	-30.9	14.6	0.00e+00	0	44	0	1093664768	18	4237
2026-01-18 00:28:35.17	195.90	20.40	-30.0	-31.4	13.5	1.37e-05	0	44	0	1098907648	20	4213
2026-01-18 00:28:38.18	195.95	20.00	-30.2	-32.0	13.1	2.74e-04	0	44	0	1105199104	20	4400
2026-01-18 00:28:41.20	196.00	19.61	-30.3	-32.3	12.9	2.15e-04	0	44	0	1110441984	20	4498
2026-01-18 00:28:44.20	196.05	19.22	-30.4	-32.4	12.9	4.57e-05	0	44	0	1116733440	20	4547
2026-01-18 00:28:47.21	196.10	18.84	-30.4	-32.4	12.9	2.08e-04	0	44	0	1121976320	20	4554
2026-01-18 00:28:50.21	196.15	18.47	-30.3	-31.8	12.8	1.71e-04	0	44	0	1127219200	21	4248
2026-01-18 00:28:53.22	196.20	18.10	-30.4	-32.5	12.8	1.52e-04	0	44	0	1133510656	20	4563
2026-01-18 00:28:56.23	196.25	17.74	-30.6	-32.6	12.2	1.56e-04	0	44	0	1138753536	21	4511
2026-01-18 00:28:59.25	196.29	17.38	-30.7	-33.0	12.1	3.16e-04	0	44	0	1143996416	21	4649
2026-01-18 00:29:02.26	196.34	17.03	-31.0	-33.3	11.5	7.64e-04	0	44	0	1150287872	22	4689
2026-01-18 00:29:05.26	196.38	16.68	-31.3	-34.2	10.8	2.50e-03	0	44	0	1155530752	22	5017
2026-01-18 00:29:08.27	196.42	16.34	-30.9	-32.9	11.8	7.32e-04	0	44	0	1161822208	22	4551
2026-01-18 00:29:11.28	196.46	16.00	-30.9	-33.4	11.7	5.38e-04	0	44	0	1167065088	21	4809
2026-01-18 00:29:14.29	196.51	15.67	-30.8	-33.1	11.8	3.52e-04	0	44	0	1172307968	21	4716
2026-01-18 00:29:17.30	196.55	15.34	-30.9	-33.5	11.6	7.29e-04	0	44	0	1178599424	21	4851
2026-01-18 00:29:20.30	196.59	15.02	-30.9	-32.9	11.7	1.06e-03	0	44	0	1183842304	22	4553
2026-01-18 00:29:23.31	196.63	14.70	-31.1	-33.8	11.0	1.43e-03	0	44	0	1189085184	22	4892
2026-01-18 00:29:26.31	196.67	14.38	-31.0	-33.4	11.2	1.58e-03	0	44	0	1195376640	22	4759
2026-01-18 00:29:29.32	196.70	14.07	-31.0	-33.5	11.2	1.56e-03	0	44	0	1200619520	22	4773
2026-01-18 00:29:32.32	196.74	13.76	-30.9	-33.2	11.4	1.02e-03	0	44	0	1206910976	22	4662
2026-01-18 00:29:35.33	196.78	13.46	-30.8	-33.4	11.5	7.63e-04	0	44	0	1212153856	21	4834
2026-01-18 00:29:38.34	196.81	13.16	-30.8	-33.4	11.5	5.67e-04	0	44	0	1217396736	21	4871
2026-01-18 00:29:41.35	196.85	12.86	-30.8	-33.5	11.4	8.68e-04	0	44	0	1223688192	21	4912
2026-01-18 00:29:44.36	196.89	12.57	-30.9	-33.6	11.3	1.02e-03	0	44	0	1228931072	21	4954
2026-01-18 00:29:47.37	196.92	12.28	-30.8	-33.4	11.5	9.12e-04	0	44	0	1234173952	21	4846
2026-01-18 00:29:50.37	196.96	11.99	-30.7	-33.1	11.7	6.16e-04	0	44	0	1240465408	21	4736
2026-01-18 00:29:53.39	196.99	11.71	-30.5	-32.6	11.9	3.76e-04	0	44	0	1245708288	21	4583
2026-01-18 00:29:56.39	197.02	11.43	-30.4	-32.2	12.2	2.65e-04	0	44	0	1251999744	21	4441
2026-01-18 00:29:59.40	197.06	11.15	-30.3	-32.6	12.3	1.60e-04	0	44	0	1257242624	20	4668
2026-01-18 00:30:02.41	197.09	10.88	-30.2	-32.0	12.6	2.49e-04	0	44	0	1262485504	20	4471
2026-01-18 00:30:05.43	197.12	10.61	-30.2	-32.3	12.4	4.05e-04	0	44	0	1268776960	20	4569
2026-01-18 00:30:08.44	197.15	10.34	-30.4	-32.7	12.1	3.87e-04	0	44	0	1274019840	20	4721
2026-01-18 00:30:11.43	197.18	10.08	-30.3	-32.4	12.3	3.42e-04	0	44	0	1279262720	20	4597
2026-01-18 00:30:14.43	197.21	9.82	-30.2	-32.3	12.4	1.53e-04	0	44	0	1285554176	20	4556
2026-01-18 00:30:17.44	197.24	9.56	-30.1	-32.0	12.5	1.04e-04	0	44	0	1290797056	20	4478
2026-01-18 00:30:20.45	197.27	9.30	-30.1	-31.9	12.6	8.23e-05	0	44	0	1297088512	20	4433
2026-01-18 00:30:23.46	197.30	9.05	-30.2	-32.2	12.4	1.02e-04	0	44	0	1302331392	20	4534
2026-01-18 00:30:26.47	197.33	8.80	-30.1	-32.0	12.5	1.65e-04	0	44	0	1307574272	20	4468
2026-01-18 00:30:29.48	197.36	8.55	-30.3	-32.7	12.0	4.86e-04	0	44	0	1313865728	20	4713
2026-01-18 00:30:32.48	197.39	8.30	-30.3	-32.7	11.9	4.96e-04	0	44	0	1319108608	20	4745
2026-01-18 00:30:35.49	197.42	8.06	-30.6	-33.0	11.4	7.37e-04	0	44	0	1324351488	21	4760
2026-01-18 00:30:38.51	197.45	7.82	-30.4	-32.6	11.6	7.64e-04	0	44	0	1330642944	21	4596
2026-01-18 00:30:41.52	197.48	7.58	-30.7	-33.4	11.0	1.22e-03	0	44	0	1335885824	21	4915
2026-01-18 00:30:44.52	197.50	7.34	-30.8	-33.9	10.6	2.62e-03	0	44	0	1342177280	21	5142
2026-01-18 00:30:47.53	197.53	7.11	-33.1	-45.0	3.8	4.23e-01	0	44	104	1347420160	26	14257
2026-01-18 00:30:50.55	197.56	6.87	-33.5	-45.9	3.8	1.49e+00	0	44	104	1347420160	27	14948

#Closed at: 2026-01-18 00:30:50
#Recorded file [1347 MB]: D:/data/31010_260118_031847.dat