passes_logs/2026/01/18/R2M6_AANII_01/R2M6_AANII_01__20260118_224037_NOAA_20_JPSS-1_rec.log

#Pass ID: 20260118_224037_NOAA 20 (JPSS-1)
#Satellite: NOAA 20 (JPSS-1)
#Configuration: NOAA 20
#almurnet v.1.7.20240730
#Start time: 2026-01-18 22:40:38

#Version: 2.2.20231116
#Station: R2M6_AANII_01
#Location: 30.233357 lon 59.946436 lat
#TLE: 1 43013U 17073A   26017.93796159  .00000077  00000+0  57252-4 0  9992
#TLE: 2 43013  98.7639 318.8464 0001390  34.9771 325.1496 14.19536703423157

#Time	Az	El	Level	Level2	SNR	BER	BlckErr	Temp	State	Recorded	gain1	gain2
2026-01-18 22:40:38.92	30.75	7.09	-31.9	-38.4	5.1	1.19e+00	0	41	0	0	23	7533
2026-01-18 22:40:41.92	31.05	7.27	-32.3	-39.4	7.0	1.97e-01	0	41	0	1048576	24	8132
2026-01-18 22:40:44.93	31.35	7.46	-31.8	-37.7	8.7	6.33e-02	0	42	0	7340032	23	7050
2026-01-18 22:40:47.94	31.65	7.65	-31.7	-37.0	9.3	2.21e-02	0	42	0	12582912	23	6639
2026-01-18 22:40:50.95	31.96	7.83	-31.6	-36.4	9.9	8.22e-03	0	42	0	17825792	23	6298
2026-01-18 22:40:53.96	32.27	8.02	-31.5	-36.5	10.2	5.45e-03	0	42	0	24117248	22	6445
2026-01-18 22:40:56.96	32.58	8.21	-31.5	-36.5	10.3	5.42e-03	0	42	0	29360128	22	6409
2026-01-18 22:40:59.96	32.90	8.40	-31.7	-36.8	9.7	1.29e-02	0	42	0	35651584	23	6467
2026-01-18 22:41:02.97	33.22	8.59	-31.7	-36.9	9.7	9.57e-03	0	42	0	40894464	23	6522
2026-01-18 22:41:05.98	33.54	8.78	-31.5	-36.2	10.3	8.33e-03	0	42	0	46137344	23	6145
2026-01-18 22:41:08.99	33.87	8.97	-31.7	-36.9	9.7	1.17e-02	0	43	0	52428800	23	6516
2026-01-18 22:41:11.99	34.21	9.16	-31.2	-35.3	11.2	1.61e-03	0	42	0	57671680	22	5821
2026-01-18 22:41:15.01	34.55	9.36	-31.3	-35.8	10.9	3.87e-03	0	43	0	62914560	22	6051
2026-01-18 22:41:18.01	34.89	9.55	-31.4	-36.1	10.8	1.83e-03	0	43	0	69206016	22	6160
2026-01-18 22:41:21.03	35.24	9.74	-31.3	-35.6	11.1	2.31e-03	0	43	0	74448896	22	5955
2026-01-18 22:41:24.04	35.59	9.94	-31.1	-34.9	11.6	7.76e-04	0	43	0	80740352	22	5634
2026-01-18 22:41:27.05	35.95	10.13	-31.0	-34.7	11.8	7.71e-04	0	43	0	85983232	22	5519
2026-01-18 22:41:30.05	36.30	10.33	-31.2	-35.2	11.4	9.36e-04	0	43	0	91226112	22	5763
2026-01-18 22:41:33.06	36.67	10.53	-31.3	-35.7	11.2	1.09e-03	0	43	0	97517568	22	5961
2026-01-18 22:41:36.06	37.04	10.72	-31.1	-34.4	11.7	1.53e-03	0	43	0	102760448	23	5300
2026-01-18 22:41:39.06	37.41	10.92	-31.1	-34.6	11.6	3.07e-04	0	43	0	108003328	23	5356
2026-01-18 22:41:42.05	37.79	11.12	-31.1	-34.5	11.7	7.35e-04	0	43	0	114294784	23	5309
2026-01-18 22:41:45.07	38.18	11.32	-31.1	-34.6	11.6	5.68e-04	0	43	0	119537664	23	5386
2026-01-18 22:41:48.08	38.57	11.52	-30.9	-33.8	12.2	3.29e-04	0	43	0	125829120	23	5035
2026-01-18 22:41:51.08	38.96	11.71	-30.8	-34.1	12.4	1.65e-04	0	43	0	131072000	22	5266
2026-01-18 22:41:54.09	39.36	11.91	-30.8	-34.0	12.5	1.47e-04	0	43	0	136314880	22	5207
2026-01-18 22:41:57.11	39.77	12.12	-30.9	-34.3	12.3	1.43e-04	0	43	0	142606336	22	5344
2026-01-18 22:42:00.11	40.18	12.32	-30.7	-33.6	12.8	1.31e-04	0	43	0	147849216	22	5068
2026-01-18 22:42:03.13	40.60	12.52	-30.7	-33.8	12.7	6.86e-05	0	43	0	154140672	22	5134
2026-01-18 22:42:06.14	41.02	12.72	-30.7	-33.7	12.8	5.11e-05	0	43	0	159383552	22	5067
2026-01-18 22:42:09.14	41.44	12.92	-30.6	-33.3	13.1	6.25e-05	0	43	0	164626432	22	4945
2026-01-18 22:42:12.14	41.88	13.12	-30.6	-33.5	12.9	3.58e-05	0	43	0	170917888	22	5007
2026-01-18 22:42:15.15	42.32	13.32	-30.9	-34.1	12.5	9.46e-05	0	43	0	176160768	22	5252
2026-01-18 22:42:18.16	42.76	13.53	-30.7	-33.7	12.8	7.85e-05	0	44	0	181403648	22	5090
2026-01-18 22:42:21.16	43.21	13.73	-30.8	-33.8	12.7	7.09e-05	0	44	0	187695104	22	5128
2026-01-18 22:42:24.17	43.67	13.93	-30.6	-33.9	13.1	2.82e-05	0	43	0	192937984	21	5246
2026-01-18 22:42:27.17	44.13	14.13	-30.6	-33.9	13.1	2.36e-05	0	43	0	199229440	21	5245
2026-01-18 22:42:30.17	44.60	14.34	-30.8	-34.4	12.7	6.10e-05	0	43	0	204472320	21	5448
2026-01-18 22:42:33.18	45.07	14.54	-30.7	-34.1	12.9	8.77e-05	0	43	0	209715200	21	5339
2026-01-18 22:42:36.19	45.55	14.74	-30.7	-34.1	12.9	7.32e-05	0	44	0	216006656	21	5334
2026-01-18 22:42:39.21	46.04	14.94	-30.8	-34.4	12.8	7.55e-05	0	44	0	221249536	21	5461
2026-01-18 22:42:42.21	46.54	15.14	-30.8	-34.3	12.8	7.78e-05	0	43	0	226492416	21	5421
2026-01-18 22:42:45.21	47.04	15.35	-30.7	-34.2	12.9	6.17e-05	0	43	0	232783872	21	5367
2026-01-18 22:42:48.22	47.54	15.55	-30.6	-33.8	13.2	1.67e-05	0	43	0	238026752	21	5216
2026-01-18 22:42:51.24	48.06	15.75	-30.8	-34.4	12.9	4.34e-05	0	44	0	244318208	21	5437
2026-01-18 22:42:54.25	48.58	15.95	-30.6	-33.7	13.3	2.36e-05	0	44	0	249561088	21	5168
2026-01-18 22:42:57.26	49.11	16.15	-30.4	-33.2	13.6	7.60e-06	0	44	0	254803968	21	4983
2026-01-18 22:43:00.25	49.64	16.35	-30.4	-33.2	13.7	1.06e-05	0	44	0	261095424	21	4951
2026-01-18 22:43:03.25	50.18	16.54	-30.3	-32.9	13.9	3.80e-06	0	44	0	266338304	21	4866
2026-01-18 22:43:06.26	50.73	16.74	-30.1	-32.9	14.2	3.80e-06	0	44	0	271581184	20	4968
2026-01-18 22:43:09.28	51.29	16.94	-30.3	-33.5	13.8	4.50e-06	0	44	0	277872640	20	5191
2026-01-18 22:43:12.29	51.85	17.13	-30.2	-33.1	14.0	7.00e-07	0	44	0	283115520	20	5025
2026-01-18 22:43:15.29	52.42	17.33	-30.3	-33.3	14.0	7.00e-07	0	44	0	289406976	20	5101
2026-01-18 22:43:18.29	52.99	17.52	-30.1	-32.8	14.2	7.00e-07	0	43	0	294649856	20	4936
2026-01-18 22:43:21.29	53.58	17.71	-30.0	-32.7	14.4	0.00e+00	0	44	0	299892736	20	4893
2026-01-18 22:43:24.30	54.17	17.90	-30.2	-33.0	14.2	1.50e-06	0	44	0	306184192	20	5016
2026-01-18 22:43:27.32	54.77	18.09	-30.3	-33.4	13.9	2.20e-06	0	44	0	311427072	20	5159
2026-01-18 22:43:30.32	55.37	18.28	-30.5	-33.6	13.5	9.10e-06	0	44	0	317718528	21	5107
2026-01-18 22:43:33.31	55.98	18.47	-30.6	-33.8	13.3	1.98e-05	0	44	0	322961408	21	5181
2026-01-18 22:43:36.32	56.60	18.65	-30.7	-33.9	13.3	1.22e-05	0	44	0	328204288	21	5206
2026-01-18 22:43:39.33	57.23	18.83	-30.8	-34.4	13.0	3.28e-05	0	44	0	334495744	21	5429
2026-01-18 22:43:42.35	57.87	19.01	-31.1	-34.7	12.5	1.29e-04	0	44	0	339738624	22	5405
2026-01-18 22:43:45.36	58.51	19.19	-31.4	-35.3	12.0	2.84e-04	0	44	0	344981504	22	5692
2026-01-18 22:43:48.36	59.16	19.37	-31.4	-35.0	11.9	3.98e-04	0	44	0	351272960	23	5448
2026-01-18 22:43:51.37	59.82	19.54	-31.5	-35.3	11.8	4.12e-04	0	44	0	356515840	23	5548
2026-01-18 22:43:54.38	60.49	19.71	-31.5	-35.3	11.7	5.39e-04	0	44	0	362807296	23	5578
2026-01-18 22:43:57.39	61.16	19.88	-31.5	-35.1	11.9	3.80e-04	0	44	0	368050176	23	5479
2026-01-18 22:44:00.40	61.84	20.04	-31.5	-35.2	11.8	3.86e-04	0	44	0	373293056	23	5504
2026-01-18 22:44:03.41	62.52	20.21	-31.4	-34.9	12.0	5.63e-04	0	44	0	379584512	23	5397
2026-01-18 22:44:06.41	63.22	20.37	-31.3	-35.2	12.2	7.01e-04	0	44	0	384827392	22	5626
2026-01-18 22:44:09.41	63.92	20.52	-31.2	-34.9	12.4	1.09e-04	0	44	0	390070272	22	5484
2026-01-18 22:44:12.42	64.62	20.67	-31.7	-35.7	11.5	8.20e-04	0	44	0	396361728	23	5765
2026-01-18 22:44:15.42	65.34	20.82	-31.5	-35.1	11.9	5.97e-04	0	44	0	401604608	23	5467
2026-01-18 22:44:18.44	66.06	20.97	-31.3	-35.0	12.3	1.27e-04	0	44	0	407896064	22	5552
2026-01-18 22:44:21.45	66.79	21.11	-31.4	-35.3	12.2	6.51e-04	0	44	0	413138944	22	5678
2026-01-18 22:44:24.45	67.52	21.25	-31.1	-34.4	12.8	5.72e-04	0	44	0	418381824	22	5305
2026-01-18 22:44:27.46	68.26	21.38	-31.3	-35.0	12.4	1.50e-04	0	44	0	424673280	22	5546
2026-01-18 22:44:30.47	69.01	21.51	-31.1	-34.4	12.8	1.02e-04	0	44	0	429916160	22	5305
2026-01-18 22:44:33.48	69.76	21.64	-30.8	-33.7	13.3	3.05e-05	0	44	0	435159040	22	5023
2026-01-18 22:44:36.49	70.52	21.76	-30.6	-33.0	13.7	3.80e-06	0	44	0	441450496	22	4787
2026-01-18 22:44:39.50	71.29	21.88	-30.5	-32.8	13.9	5.79e-05	0	44	0	446693376	22	4686
2026-01-18 22:44:42.49	72.05	21.99	-30.5	-33.3	13.9	6.10e-05	0	44	0	452984832	21	4967
2026-01-18 22:44:45.50	72.83	22.10	-30.5	-33.2	13.9	6.40e-05	0	44	0	458227712	21	4961
2026-01-18 22:44:48.51	73.61	22.20	-30.6	-33.7	13.6	4.73e-05	0	44	0	463470592	21	5132
2026-01-18 22:44:51.52	74.40	22.30	-30.8	-34.1	13.3	4.88e-05	0	44	0	469762048	21	5268
2026-01-18 22:44:54.52	75.19	22.39	-31.0	-34.6	12.9	5.11e-05	0	44	0	475004928	21	5491
2026-01-18 22:44:57.53	75.98	22.48	-31.1	-34.4	12.8	6.56e-05	0	44	0	480247808	22	5282
2026-01-18 22:45:00.54	76.78	22.56	-31.1	-34.5	12.8	1.67e-04	0	44	0	486539264	22	5338
2026-01-18 22:45:03.54	77.59	22.64	-31.0	-34.1	13.0	2.31e-04	0	44	0	491782144	22	5160
2026-01-18 22:45:06.56	78.40	22.71	-30.9	-34.1	13.1	1.25e-04	0	44	0	498073600	22	5151
2026-01-18 22:45:09.56	79.21	22.77	-30.7	-33.5	13.4	3.12e-04	0	44	0	503316480	22	4945
2026-01-18 22:45:12.57	80.02	22.83	-30.6	-33.5	13.7	6.10e-06	0	44	0	508559360	21	5071
2026-01-18 22:45:15.58	80.84	22.89	-30.7	-33.9	13.5	1.44e-05	0	44	0	514850816	21	5196
2026-01-18 22:45:18.59	81.66	22.94	-30.8	-34.3	13.2	1.83e-05	0	44	0	520093696	21	5368
2026-01-18 22:45:21.61	82.49	22.98	-30.4	-33.2	13.9	3.00e-06	0	44	0	525336576	21	4960
2026-01-18 22:45:24.63	83.31	23.02	-30.3	-32.9	14.0	4.50e-06	0	44	0	531628032	21	4860
2026-01-18 22:45:27.64	84.14	23.05	-30.7	-33.9	13.5	1.14e-05	0	44	0	536870912	21	5193
2026-01-18 22:45:30.64	84.97	23.07	-30.6	-33.6	13.6	8.30e-06	0	44	0	543162368	21	5092
2026-01-18 22:45:33.64	85.79	23.09	-30.5	-33.3	13.8	1.50e-06	0	44	0	548405248	21	4981
2026-01-18 22:45:36.66	86.63	23.10	-30.6	-33.6	13.6	1.14e-05	0	44	0	553648128	21	5094
2026-01-18 22:45:39.68	87.46	23.11	-30.9	-34.6	13.0	4.42e-05	0	44	0	559939584	21	5482
2026-01-18 22:45:42.69	88.29	23.11	-31.1	-34.4	12.8	1.23e-04	0	44	0	565182464	22	5289
2026-01-18 22:45:45.69	89.12	23.10	-30.8	-33.8	13.2	1.37e-05	0	44	0	571473920	22	5047
2026-01-18 22:45:48.71	89.95	23.09	-30.7	-33.5	13.4	9.10e-06	0	44	0	576716800	22	4942
2026-01-18 22:45:51.73	90.79	23.07	-30.5	-32.9	13.8	6.10e-06	0	44	0	581959680	22	4732
2026-01-18 22:45:54.74	91.62	23.04	-30.6	-33.7	13.6	1.53e-04	0	44	0	588251136	21	5117
2026-01-18 22:45:57.74	92.44	23.01	-31.0	-34.7	13.0	4.57e-05	0	44	0	593494016	21	5514
2026-01-18 22:46:00.74	93.26	22.98	-30.9	-34.4	13.1	2.67e-05	0	44	0	598736896	21	5412
2026-01-18 22:46:03.75	94.09	22.93	-31.1	-34.5	12.7	8.54e-05	0	44	0	605028352	22	5331
2026-01-18 22:46:06.76	94.91	22.88	-30.7	-33.5	13.3	1.22e-05	0	44	0	610271232	22	4962
2026-01-18 22:46:09.76	95.73	22.83	-30.9	-34.0	13.0	4.80e-05	0	44	0	616562688	22	5157
2026-01-18 22:46:12.77	96.54	22.77	-30.6	-33.2	13.6	1.06e-05	0	44	0	621805568	22	4856
2026-01-18 22:46:15.78	97.35	22.70	-30.4	-32.6	13.9	5.30e-06	0	44	0	627048448	22	4630
2026-01-18 22:46:18.79	98.16	22.63	-30.4	-32.7	13.9	3.00e-06	0	44	0	633339904	22	4686
2026-01-18 22:46:21.79	98.97	22.56	-30.5	-32.9	13.8	3.80e-06	0	44	0	638582784	22	4742
2026-01-18 22:46:24.80	99.77	22.47	-30.2	-32.6	14.2	7.00e-07	0	44	0	643825664	21	4742
2026-01-18 22:46:27.80	100.56	22.38	-29.9	-31.9	14.7	0.00e+00	0	44	0	650117120	21	4516
2026-01-18 22:46:30.82	101.36	22.29	-29.8	-31.9	14.9	0.00e+00	0	44	0	655360000	20	4633
2026-01-18 22:46:33.82	102.14	22.19	-29.7	-31.9	14.9	0.00e+00	0	44	0	661651456	20	4623
2026-01-18 22:46:36.83	102.93	22.09	-30.0	-32.6	14.5	7.00e-07	0	44	0	666894336	20	4865
2026-01-18 22:46:39.83	103.70	21.98	-29.8	-32.2	14.8	0.00e+00	0	44	0	672137216	20	4722
2026-01-18 22:46:42.84	104.48	21.87	-29.6	-31.6	15.1	1.51e-04	0	44	0	678428672	20	4530
2026-01-18 22:46:45.86	105.24	21.75	-29.5	-31.9	15.3	0.00e+00	0	44	0	683671552	19	4725
2026-01-18 22:46:48.88	106.01	21.63	-29.4	-31.4	15.6	6.10e-06	0	44	0	689963008	19	4568
2026-01-18 22:46:51.89	106.76	21.50	-29.4	-31.6	15.5	3.35e-05	0	44	0	695205888	19	4631
2026-01-18 22:46:54.89	107.51	21.37	-29.7	-32.2	15.1	1.06e-05	0	44	0	700448768	19	4835
2026-01-18 22:46:57.90	108.25	21.23	-29.9	-32.5	14.5	7.55e-05	0	44	0	706740224	20	4825
2026-01-18 22:47:00.89	108.99	21.10	-29.8	-32.2	14.7	1.15e-04	0	44	0	711983104	20	4719
2026-01-18 22:47:03.91	109.72	20.95	-29.7	-32.3	15.0	7.00e-07	0	44	0	717225984	19	4868
2026-01-18 22:47:06.92	110.44	20.80	-29.6	-32.0	15.1	0.00e+00	0	44	0	723517440	19	4779
2026-01-18 22:47:09.92	111.16	20.65	-29.8	-32.6	14.8	0.00e+00	0	44	0	728760320	19	4981
2026-01-18 22:47:12.93	111.87	20.50	-30.6	-33.8	13.3	1.52e-05	0	44	0	735051776	21	5201
2026-01-18 22:47:15.94	112.57	20.34	-30.7	-34.2	13.0	6.40e-05	0	44	0	740294656	21	5362
2026-01-18 22:47:18.95	113.27	20.18	-30.7	-34.2	13.0	5.18e-05	0	44	0	745537536	21	5377
2026-01-18 22:47:21.96	113.95	20.02	-30.6	-33.9	13.2	4.42e-05	0	44	0	751828992	21	5251
2026-01-18 22:47:24.97	114.64	19.85	-30.2	-32.7	14.0	3.00e-06	0	44	0	757071872	21	4803
2026-01-18 22:47:27.97	115.31	19.68	-30.3	-33.1	13.7	3.80e-06	0	44	0	762314752	21	4934
2026-01-18 22:47:30.97	115.97	19.51	-30.6	-33.9	13.2	2.28e-05	0	44	0	768606208	21	5242
2026-01-18 22:47:33.99	116.64	19.33	-30.8	-34.4	12.8	5.95e-05	0	44	0	773849088	21	5443
2026-01-18 22:47:37.00	117.29	19.16	-30.7	-34.3	12.9	6.25e-05	0	44	0	780140544	21	5421
2026-01-18 22:47:40.00	117.93	18.98	-30.7	-34.1	13.0	3.81e-05	0	44	0	785383424	21	5333
2026-01-18 22:47:43.01	118.57	18.80	-30.4	-33.4	13.4	1.29e-05	0	44	0	790626304	21	5080
2026-01-18 22:47:46.02	119.20	18.61	-30.7	-34.2	12.9	3.73e-05	0	44	0	796917760	21	5375
2026-01-18 22:47:49.03	119.82	18.43	-30.4	-33.3	13.5	1.44e-05	0	44	0	802160640	21	5043
2026-01-18 22:47:52.04	120.44	18.24	-30.4	-33.3	13.5	8.30e-06	0	44	0	807403520	21	5052
2026-01-18 22:47:55.06	121.05	18.05	-30.5	-33.5	13.3	1.14e-05	0	44	0	813694976	21	5112
2026-01-18 22:47:58.05	121.64	17.86	-30.5	-33.7	13.2	1.75e-05	0	44	0	818937856	21	5194
2026-01-18 22:48:01.03	122.23	17.67	-31.0	-35.0	12.3	1.55e-04	0	44	0	825229312	21	5730
2026-01-18 22:48:04.04	122.82	17.48	-30.4	-32.8	13.4	2.13e-05	0	44	0	830472192	22	4756
2026-01-18 22:48:07.05	123.40	17.28	-30.0	-32.5	13.9	7.00e-07	0	44	0	835715072	21	4754
2026-01-18 22:48:10.07	123.97	17.08	-30.7	-34.1	12.8	2.05e-05	0	44	0	842006528	21	5358
2026-01-18 22:48:13.08	124.53	16.89	-30.7	-34.3	12.7	7.40e-05	0	44	0	847249408	21	5431
2026-01-18 22:48:16.08	125.09	16.69	-30.5	-33.8	13.0	2.21e-05	0	44	0	852492288	21	5238
2026-01-18 22:48:19.09	125.64	16.49	-30.5	-33.7	13.1	2.67e-05	0	44	0	858783744	21	5196
2026-01-18 22:48:22.09	126.18	16.29	-30.6	-34.0	12.8	9.23e-05	0	44	0	864026624	21	5344
2026-01-18 22:48:25.10	126.72	16.09	-30.4	-33.4	13.2	4.57e-05	0	44	0	870318080	21	5110
2026-01-18 22:48:28.12	127.25	15.89	-30.7	-34.3	12.6	8.31e-05	0	44	0	875560960	21	5438
2026-01-18 22:48:31.13	127.77	15.68	-30.9	-34.8	12.2	1.98e-04	0	44	0	880803840	21	5693
2026-01-18 22:48:34.13	128.29	15.48	-30.5	-34.2	12.5	1.98e-04	0	44	0	887095296	21	5488
2026-01-18 22:48:37.13	128.79	15.28	-30.6	-34.2	12.5	9.00e-05	0	44	0	892338176	21	5455
2026-01-18 22:48:40.14	129.29	15.08	-31.0	-34.9	11.8	3.98e-04	0	44	0	897581056	22	5603
2026-01-18 22:48:43.16	129.79	14.87	-30.8	-34.2	12.3	2.16e-04	0	44	0	903872512	22	5323
2026-01-18 22:48:46.16	130.28	14.67	-30.4	-33.7	12.9	6.48e-05	0	44	0	909115392	21	5243
2026-01-18 22:48:49.16	130.76	14.47	-30.6	-34.2	12.5	1.07e-04	0	44	0	915406848	21	5434
2026-01-18 22:48:52.17	131.24	14.26	-30.9	-35.1	11.9	3.45e-04	0	44	0	920649728	21	5825
2026-01-18 22:48:55.17	131.70	14.06	-30.7	-33.8	12.4	1.95e-04	0	44	0	925892608	22	5194
2026-01-18 22:48:58.18	132.17	13.85	-30.5	-34.2	12.3	1.15e-04	0	44	0	932184064	21	5527
2026-01-18 22:49:01.18	132.62	13.65	-30.8	-35.1	11.7	4.24e-04	0	44	0	937426944	21	5891
2026-01-18 22:49:04.19	133.08	13.44	-31.2	-35.4	11.2	1.29e-03	0	44	0	942669824	22	5864
2026-01-18 22:49:07.20	133.52	13.24	-31.0	-35.0	11.5	1.34e-03	0	44	0	948961280	22	5704
2026-01-18 22:49:10.20	133.96	13.04	-30.7	-34.6	12.0	3.37e-04	0	44	0	954204160	21	5697
2026-01-18 22:49:13.21	134.39	12.83	-31.1	-35.4	11.1	1.64e-03	0	44	0	960495616	22	5942
2026-01-18 22:49:16.22	134.82	12.63	-31.3	-36.0	10.7	2.85e-03	0	44	0	965738496	22	6184
2026-01-18 22:49:19.23	135.24	12.43	-31.2	-36.0	10.6	3.51e-03	0	44	0	970981376	22	6192
2026-01-18 22:49:22.23	135.66	12.22	-30.6	-34.1	11.9	4.27e-04	0	44	0	977272832	22	5366
2026-01-18 22:49:25.24	136.07	12.02	-30.6	-33.9	12.1	2.59e-04	0	44	0	982515712	22	5258
2026-01-18 22:49:28.25	136.48	11.82	-30.6	-34.2	11.8	4.81e-04	0	44	0	987758592	22	5418
2026-01-18 22:49:31.26	136.88	11.62	-30.5	-34.6	11.7	5.61e-04	0	44	0	994050048	21	5753
2026-01-18 22:49:34.27	137.27	11.41	-30.6	-34.7	11.6	7.09e-04	0	44	0	999292928	21	5806
2026-01-18 22:49:37.28	137.66	11.21	-30.9	-35.4	11.2	1.10e-03	0	44	0	1005584384	21	6097
2026-01-18 22:49:40.29	138.05	11.01	-31.0	-35.7	11.0	1.97e-03	0	44	0	1010827264	21	6235
2026-01-18 22:49:43.29	138.42	10.81	-31.1	-35.8	10.5	3.84e-03	0	44	0	1016070144	22	6178
2026-01-18 22:49:46.31	138.80	10.61	-31.1	-35.7	10.6	4.10e-03	0	44	0	1022361600	22	6114
2026-01-18 22:49:49.32	139.17	10.41	-30.8	-34.7	11.3	1.41e-03	0	44	0	1027604480	22	5647
2026-01-18 22:49:52.32	139.53	10.22	-30.8	-35.0	10.7	1.63e-03	0	44	0	1033895936	22	5839
2026-01-18 22:49:55.33	139.90	10.02	-31.0	-36.0	10.5	3.39e-03	0	44	0	1039138816	21	6427
2026-01-18 22:49:58.33	140.25	9.82	-31.1	-35.8	10.3	5.49e-03	0	44	0	1044381696	22	6228
2026-01-18 22:50:01.32	140.60	9.63	-31.2	-36.3	10.0	7.50e-03	0	44	0	1050673152	22	6434
2026-01-18 22:50:04.34	140.95	9.43	-31.4	-37.0	9.3	1.79e-02	0	44	0	1055916032	22	6855
2026-01-18 22:50:07.34	141.29	9.24	-31.4	-37.2	9.1	2.29e-02	0	44	0	1061158912	22	6985
2026-01-18 22:50:10.35	141.63	9.04	-31.3	-36.9	9.2	2.25e-02	0	44	0	1067450368	22	6878
2026-01-18 22:50:13.36	141.96	8.85	-31.2	-36.7	9.3	1.76e-02	0	44	0	1072693248	22	6751
2026-01-18 22:50:16.37	142.29	8.65	-31.2	-36.7	9.3	1.80e-02	0	44	0	1078984704	22	6739
2026-01-18 22:50:19.37	142.61	8.46	-31.2	-36.8	9.1	1.95e-02	0	44	0	1084227584	22	6829
2026-01-18 22:50:22.37	142.93	8.27	-31.2	-36.6	9.2	2.20e-02	0	44	0	1089470464	22	6738
2026-01-18 22:50:25.38	143.25	8.08	-31.0	-36.0	9.7	1.32e-02	0	44	0	1095761920	22	6349
2026-01-18 22:50:28.38	143.56	7.89	-31.2	-36.6	9.2	2.11e-02	0	44	0	1101004800	22	6735
2026-01-18 22:50:31.39	143.87	7.70	-31.2	-36.7	9.1	2.34e-02	0	44	0	1106247680	22	6759
2026-01-18 22:50:34.39	144.18	7.51	-31.3	-37.2	8.7	3.58e-02	0	44	0	1112539136	22	7036
2026-01-18 22:50:37.40	144.48	7.32	-31.4	-37.4	8.6	4.27e-02	0	44	0	1117782016	22	7175
2026-01-18 22:50:40.42	144.78	7.14	-31.4	-37.6	8.3	4.90e-02	0	44	0	1124073472	22	7377

#Closed at: 2026-01-18 22:50:43
#Recorded file [1125 MB]: D:/data/31010_260119_014040.dat