passes_logs/2026/01/18/R2M6_AANII_01/R2M6_AANII_01__20260118_062229_FENGYUN_3E_rec.log

#Pass ID: 20260118_062229_FENGYUN 3E
#Satellite: FENGYUN 3E
#Configuration: FENGYUN 3E
#almurnet v.1.7.20240730
#Start time: 2026-01-18 06:22:30

#Version: 2.2.20231116
#Station: R2M6_AANII_01
#Location: 30.233357 lon 59.946436 lat
#TLE: 1 49008U 21062A   26017.26067429  .00000278  00000+0  15192-3 0  9991
#TLE: 2 49008  98.7484  22.3628 0002125 132.6872 227.4483 14.19886454235162

#Time	Az	El	Level	Level2	SNR	BER	BlckErr	Temp	State	Recorded	gain1	gain2
2026-01-18 06:22:30.29	10.78	7.05	-30.0	-32.6	5.3	7.72e-01	0	40	0	0	19	4881
2026-01-18 06:22:33.29	10.53	7.25	-29.9	-32.3	9.6	1.37e-02	0	40	0	6291456	19	4746
2026-01-18 06:22:36.31	10.27	7.45	-29.5	-31.3	10.2	6.91e-03	0	40	0	28311552	19	4439
2026-01-18 06:22:39.33	10.01	7.65	-27.9	-28.9	12.7	5.40e-04	0	40	0	50331648	16	4039
2026-01-18 06:22:42.34	9.75	7.85	-27.5	-28.5	13.1	3.31e-05	0	40	0	72351744	15	4035
2026-01-18 06:22:45.35	9.48	8.06	-27.7	-29.0	12.8	4.46e-05	0	40	0	94371840	15	4179
2026-01-18 06:22:48.36	9.21	8.26	-27.5	-28.6	13.0	2.51e-04	0	40	0	115343360	15	4064
2026-01-18 06:22:51.37	8.93	8.46	-27.4	-28.7	13.3	2.22e-04	0	40	0	137363456	14	4191
2026-01-18 06:22:54.38	8.65	8.67	-27.0	-27.8	13.8	8.00e-06	0	40	0	159383552	14	3952
2026-01-18 06:22:57.40	8.36	8.88	-26.9	-27.7	13.9	3.40e-06	0	41	0	181403648	14	3929
2026-01-18 06:23:00.40	8.08	9.09	-26.7	-27.7	14.2	1.10e-06	0	41	0	202375168	13	4025
2026-01-18 06:23:03.41	7.78	9.29	-26.7	-27.6	14.2	1.10e-06	0	41	0	224395264	13	4011
2026-01-18 06:23:06.41	7.49	9.50	-27.0	-28.2	13.9	2.20e-06	0	41	0	246415360	13	4171
2026-01-18 06:23:09.42	7.19	9.72	-26.8	-27.4	14.1	1.10e-06	0	41	0	267386880	14	3843
2026-01-18 06:23:12.44	6.88	9.93	-26.8	-27.4	14.1	0.00e+00	0	41	0	289406976	14	3865
2026-01-18 06:23:15.45	6.57	10.14	-26.9	-27.7	14.0	2.20e-06	0	41	0	311427072	14	3915
2026-01-18 06:23:18.44	6.25	10.35	-26.7	-27.1	14.3	2.20e-06	0	41	0	332398592	14	3786
2026-01-18 06:23:21.45	5.93	10.57	-26.9	-27.6	14.1	1.10e-06	0	41	0	354418688	14	3911
2026-01-18 06:23:24.46	5.61	10.79	-26.5	-27.2	14.6	0.00e+00	0	41	0	376438784	13	3908
2026-01-18 06:23:27.46	5.28	11.00	-26.4	-26.9	14.7	0.00e+00	0	41	0	398458880	13	3827
2026-01-18 06:23:30.46	4.94	11.22	-26.3	-26.8	14.8	0.00e+00	0	41	0	419430400	13	3808
2026-01-18 06:23:33.47	4.60	11.44	-26.5	-27.3	14.5	1.10e-06	0	42	0	441450496	13	3913
2026-01-18 06:23:36.48	4.26	11.66	-26.4	-26.9	14.7	0.00e+00	0	41	0	462422016	13	3833
2026-01-18 06:23:39.49	3.91	11.88	-26.4	-27.0	14.7	0.00e+00	0	41	0	484442112	13	3846
2026-01-18 06:23:42.51	3.55	12.10	-26.4	-26.9	14.8	1.10e-06	0	42	0	506462208	13	3828
2026-01-18 06:23:45.53	3.18	12.33	-26.3	-26.7	14.9	0.00e+00	0	41	0	528482304	13	3783
2026-01-18 06:23:48.54	2.82	12.55	-26.3	-26.8	14.9	0.00e+00	0	41	0	549453824	13	3795
2026-01-18 06:23:51.55	2.44	12.77	-26.3	-26.8	14.9	0.00e+00	0	42	0	571473920	13	3803
2026-01-18 06:23:54.56	2.06	13.00	-26.1	-26.2	15.2	0.00e+00	0	42	0	593494016	13	3667
2026-01-18 06:23:57.57	1.68	13.23	-25.8	-26.2	15.5	0.00e+00	0	42	0	615514112	12	3751
2026-01-18 06:24:00.59	1.28	13.45	-26.0	-26.5	15.3	0.00e+00	0	42	0	636485632	12	3839
2026-01-18 06:24:03.61	0.88	13.68	-25.8	-26.2	15.5	0.00e+00	0	42	0	658505728	12	3765
2026-01-18 06:24:06.61	0.48	13.91	-25.9	-26.9	15.5	0.00e+00	0	42	0	680525824	11	4026
2026-01-18 06:24:09.62	0.07	14.14	-25.8	-26.1	15.7	0.00e+00	0	42	0	702545920	12	3728
2026-01-18 06:24:12.63	359.65	14.37	-25.8	-26.7	15.7	0.00e+00	0	42	0	723517440	11	3974
2026-01-18 06:24:15.63	359.23	14.60	-25.9	-26.9	15.6	0.00e+00	0	42	0	745537536	11	4014
2026-01-18 06:24:18.65	358.80	14.83	-25.9	-26.7	15.6	0.00e+00	0	42	0	767557632	11	3984
2026-01-18 06:24:21.66	358.36	15.06	-25.6	-26.1	16.0	0.00e+00	0	42	0	789577728	11	3835
2026-01-18 06:24:24.67	357.91	15.29	-25.2	-25.9	16.4	0.00e+00	0	42	0	810549248	10	3884
2026-01-18 06:24:27.68	357.46	15.53	-25.2	-25.9	16.4	0.00e+00	0	42	0	832569344	10	3893
2026-01-18 06:24:30.68	357.00	15.76	-25.2	-25.7	16.5	0.00e+00	0	42	0	854589440	10	3840
2026-01-18 06:24:33.69	356.53	15.99	-25.4	-26.2	16.3	0.00e+00	0	42	0	875560960	10	3943
2026-01-18 06:24:36.70	356.06	16.22	-25.3	-26.0	16.4	0.00e+00	0	42	0	897581056	10	3901
2026-01-18 06:24:39.71	355.58	16.46	-25.2	-25.8	16.5	0.00e+00	0	42	0	919601152	10	3855
2026-01-18 06:24:42.72	355.09	16.69	-25.2	-25.8	16.5	0.00e+00	0	42	0	941621248	10	3865
2026-01-18 06:24:45.73	354.59	16.92	-25.2	-25.9	16.4	0.00e+00	0	42	0	962592768	10	3880
2026-01-18 06:24:48.75	354.08	17.16	-25.2	-25.7	16.6	0.00e+00	0	42	0	984612864	10	3847
2026-01-18 06:24:51.76	353.57	17.39	-25.5	-26.4	16.2	0.00e+00	0	42	0	1006632960	10	4009
2026-01-18 06:24:54.76	353.05	17.62	-25.1	-25.5	16.7	0.00e+00	0	42	0	1028653056	10	3801
2026-01-18 06:24:57.78	352.52	17.86	-25.0	-25.8	16.8	0.00e+00	0	42	0	1049624576	9	3971
2026-01-18 06:25:00.78	351.98	18.09	-24.8	-25.4	17.0	0.00e+00	0	42	0	1071644672	9	3861
2026-01-18 06:25:03.80	351.43	18.32	-24.6	-25.1	17.2	0.00e+00	0	42	0	1093664768	9	3795
2026-01-18 06:25:06.81	350.88	18.56	-24.6	-25.0	17.2	0.00e+00	0	42	0	1114636288	9	3780
2026-01-18 06:25:09.81	350.31	18.79	-24.7	-25.2	17.2	0.00e+00	0	42	0	1136656384	9	3808
2026-01-18 06:25:12.82	349.74	19.02	-24.9	-25.7	16.9	0.00e+00	0	42	0	1158676480	9	3932
2026-01-18 06:25:15.82	349.16	19.24	-25.1	-25.6	16.7	0.00e+00	0	42	0	1179648000	10	3800
2026-01-18 06:25:18.83	348.57	19.47	-25.2	-25.8	16.6	0.00e+00	0	42	0	1201668096	10	3851
2026-01-18 06:25:21.85	347.97	19.70	-24.8	-24.9	17.1	0.00e+00	0	42	0	1223688192	10	3649
2026-01-18 06:25:24.86	347.36	19.93	-24.7	-24.8	17.2	0.00e+00	0	42	0	1245708288	10	3627
2026-01-18 06:25:27.86	346.74	20.15	-24.8	-25.0	17.1	0.00e+00	0	42	0	1266679808	10	3670
2026-01-18 06:25:30.86	346.12	20.37	-24.9	-25.2	16.9	0.00e+00	0	42	0	1288699904	10	3718
2026-01-18 06:25:33.88	345.48	20.59	-24.8	-25.0	17.1	0.00e+00	0	42	0	1310720000	10	3667
2026-01-18 06:25:36.88	344.84	20.81	-24.7	-24.8	17.2	0.00e+00	0	42	0	1331691520	10	3619
2026-01-18 06:25:39.88	344.18	21.03	-24.6	-24.5	17.3	0.00e+00	0	42	0	1353711616	10	3570
2026-01-18 06:25:42.89	343.52	21.24	-24.7	-24.7	17.3	0.00e+00	0	42	0	1375731712	10	3596
2026-01-18 06:25:45.90	342.84	21.46	-24.4	-24.6	17.6	0.00e+00	0	42	0	1397751808	9	3679
2026-01-18 06:25:48.90	342.16	21.67	-24.4	-24.5	17.6	0.00e+00	0	42	0	1418723328	9	3667
2026-01-18 06:25:51.90	341.47	21.87	-24.5	-24.7	17.5	0.00e+00	0	42	0	1440743424	9	3707
2026-01-18 06:25:54.90	340.77	22.08	-24.5	-24.8	17.4	0.00e+00	0	42	0	1462763520	9	3732
2026-01-18 06:25:57.91	340.06	22.28	-24.4	-24.6	17.5	0.00e+00	0	42	0	1483735040	9	3687
2026-01-18 06:26:00.93	339.34	22.48	-24.2	-24.2	17.7	0.00e+00	0	42	0	1505755136	9	3607
2026-01-18 06:26:03.92	338.61	22.67	-23.9	-23.6	18.1	0.00e+00	0	42	0	1527775232	9	3466
2026-01-18 06:26:06.93	337.87	22.86	-23.8	-23.9	18.2	0.00e+00	0	42	0	1548746752	8	3625
2026-01-18 06:26:09.94	337.12	23.05	-23.9	-24.4	18.1	0.00e+00	0	42	0	1570766848	7	3850
2026-01-18 06:26:12.96	336.36	23.23	-24.2	-24.7	17.8	0.00e+00	0	42	0	1592786944	8	3814
2026-01-18 06:26:15.97	335.60	23.41	-24.4	-25.2	17.5	0.00e+00	0	42	0	1614807040	8	3921
2026-01-18 06:26:18.96	334.83	23.59	-24.2	-24.7	17.8	0.00e+00	0	42	0	1635778560	8	3810
2026-01-18 06:26:21.97	334.04	23.76	-24.2	-24.6	17.8	0.00e+00	0	42	0	1657798656	8	3793
2026-01-18 06:26:24.97	333.25	23.92	-24.2	-24.7	17.8	0.00e+00	0	42	0	1678770176	8	3802
2026-01-18 06:26:27.99	332.45	24.08	-24.0	-24.8	18.0	0.00e+00	0	42	0	1700790272	7	3926
2026-01-18 06:26:31.00	331.64	24.24	-24.0	-24.2	18.0	0.00e+00	0	42	0	1722810368	8	3705
2026-01-18 06:26:34.01	330.82	24.39	-24.0	-24.7	18.0	0.00e+00	0	42	0	1744830464	7	3918
2026-01-18 06:26:37.03	329.99	24.53	-24.0	-24.2	18.0	0.00e+00	0	42	0	1765801984	8	3695
2026-01-18 06:26:40.02	329.17	24.67	-23.8	-24.3	18.2	0.00e+00	0	42	0	1787822080	7	3822
2026-01-18 06:26:43.03	328.33	24.81	-24.1	-24.9	17.9	0.00e+00	0	43	0	1809842176	7	3964
2026-01-18 06:26:46.04	327.48	24.93	-24.1	-24.5	17.9	0.00e+00	0	42	0	1830813696	8	3768
2026-01-18 06:26:49.05	326.62	25.05	-24.0	-24.2	18.0	0.00e+00	0	42	0	1852833792	8	3704
2026-01-18 06:26:52.06	325.76	25.17	-24.1	-24.4	18.0	0.00e+00	0	42	0	1874853888	8	3733
2026-01-18 06:26:55.07	324.90	25.27	-23.9	-24.5	18.1	0.00e+00	0	42	0	1896873984	7	3870
2026-01-18 06:26:58.08	324.02	25.37	-24.0	-24.7	18.0	0.00e+00	0	42	0	1917845504	7	3913
2026-01-18 06:27:01.09	323.15	25.47	-23.9	-24.6	18.1	7.66e-04	0	42	0	1939865600	7	3889
2026-01-18 06:27:04.11	322.26	25.55	-23.9	-24.6	18.1	0.00e+00	0	42	0	1961885696	7	3894
2026-01-18 06:27:07.12	321.37	25.63	-23.9	-24.5	18.1	0.00e+00	0	42	0	1983905792	7	3866
2026-01-18 06:27:10.13	320.48	25.71	-23.7	-24.1	18.3	0.00e+00	0	42	0	2004877312	7	3782
2026-01-18 06:27:13.13	319.59	25.77	-23.8	-24.3	18.2	6.61e-04	0	42	0	2026897408	7	3828
2026-01-18 06:27:16.13	318.69	25.83	-23.8	-24.3	18.2	3.17e-04	0	43	0	2048917504	7	3830
2026-01-18 06:27:19.15	317.79	25.88	-23.7	-24.1	18.3	1.59e-04	0	42	0	2070937600	7	3775
2026-01-18 06:27:22.16	316.88	25.92	-23.7	-24.0	18.4	1.60e-04	0	42	0	2091909120	7	3756
2026-01-18 06:27:25.17	315.97	25.95	-23.6	-24.0	18.4	0.00e+00	0	42	0	2113929216	7	3755
2026-01-18 06:27:28.17	315.07	25.98	-23.6	-23.9	18.4	1.80e-04	0	43	0	2135949312	7	3740
2026-01-18 06:27:31.17	314.16	25.99	-23.6	-23.8	18.5	2.44e-04	0	42	0	2156920832	7	3710
2026-01-18 06:27:34.18	313.25	26.00	-23.6	-24.0	18.4	1.84e-04	0	42	0	2178940928	7	3745
2026-01-18 06:27:37.19	312.34	26.01	-23.6	-23.9	18.4	1.71e-05	0	42	0	2200961024	7	3727
2026-01-18 06:27:40.19	311.43	26.00	-23.6	-24.0	18.4	0.00e+00	0	42	0	2221932544	7	3753
2026-01-18 06:27:43.21	310.51	25.99	-23.8	-24.2	18.3	0.00e+00	0	42	0	2243952640	7	3805
2026-01-18 06:27:46.22	309.60	25.96	-23.7	-24.2	18.3	0.00e+00	0	42	0	2265972736	7	3801
2026-01-18 06:27:49.23	308.69	25.93	-23.9	-24.5	18.2	0.00e+00	0	42	0	2286944256	7	3860
2026-01-18 06:27:52.24	307.79	25.90	-23.8	-24.4	18.2	0.00e+00	0	42	0	2308964352	7	3838
2026-01-18 06:27:55.25	306.88	25.85	-23.7	-24.0	18.4	0.00e+00	0	42	0	2330984448	7	3760
2026-01-18 06:27:58.27	305.98	25.80	-23.4	-23.6	18.6	0.00e+00	0	42	0	2353004544	7	3662
2026-01-18 06:28:01.26	305.08	25.74	-23.5	-24.2	18.6	0.00e+00	0	42	0	2373976064	6	3899
2026-01-18 06:28:04.26	304.19	25.67	-23.7	-24.1	18.3	0.00e+00	0	43	0	2395996160	7	3783
2026-01-18 06:28:07.27	303.30	25.59	-23.5	-24.1	18.6	0.00e+00	0	42	0	2418016256	6	3879
2026-01-18 06:28:10.29	302.41	25.51	-23.6	-24.3	18.5	0.00e+00	0	43	0	2438987776	6	3928
2026-01-18 06:28:13.31	301.53	25.42	-23.7	-24.2	18.3	0.00e+00	0	42	0	2461007872	7	3792
2026-01-18 06:28:16.32	300.65	25.32	-23.9	-24.5	18.1	0.00e+00	0	42	0	2483027968	7	3860
2026-01-18 06:28:19.32	299.78	25.22	-23.7	-24.0	18.3	0.00e+00	0	42	0	2505048064	7	3757
2026-01-18 06:28:22.33	298.92	25.11	-23.8	-24.3	18.2	0.00e+00	0	42	0	2526019584	7	3809
2026-01-18 06:28:25.34	298.06	24.99	-24.0	-24.4	17.9	0.00e+00	0	42	0	2548039680	8	3732
2026-01-18 06:28:28.35	297.21	24.87	-23.8	-23.9	18.2	0.00e+00	0	42	0	2570059776	8	3626
2026-01-18 06:28:31.35	296.36	24.74	-23.8	-23.7	18.3	0.00e+00	0	42	0	2592079872	8	3595
2026-01-18 06:28:34.36	295.52	24.60	-23.8	-23.9	18.2	0.00e+00	0	43	0	2613051392	8	3632
2026-01-18 06:28:37.36	294.70	24.46	-23.8	-23.9	18.2	0.00e+00	0	42	0	2635071488	8	3625
2026-01-18 06:28:40.37	293.87	24.31	-23.7	-24.1	18.3	0.00e+00	0	42	0	2657091584	7	3765
2026-01-18 06:28:43.38	293.06	24.16	-23.8	-24.2	18.2	0.00e+00	0	43	0	2678063104	7	3804
2026-01-18 06:28:46.40	292.25	24.00	-23.8	-24.2	18.2	0.00e+00	0	42	0	2700083200	7	3804
2026-01-18 06:28:49.40	291.45	23.84	-23.6	-23.9	18.3	0.00e+00	0	42	0	2722103296	7	3735
2026-01-18 06:28:52.39	290.66	23.67	-23.7	-24.2	18.2	0.00e+00	0	42	0	2743074816	7	3788
2026-01-18 06:28:55.40	289.88	23.49	-23.8	-24.3	18.1	0.00e+00	0	43	0	2765094912	7	3829
2026-01-18 06:28:58.41	289.11	23.32	-23.6	-23.9	18.3	0.00e+00	0	42	0	2787115008	7	3722
2026-01-18 06:29:01.42	288.34	23.14	-23.6	-23.9	18.3	0.00e+00	0	42	0	2809135104	7	3739
2026-01-18 06:29:04.43	287.59	22.95	-23.8	-24.4	18.1	0.00e+00	0	42	0	2830106624	7	3843
2026-01-18 06:29:07.44	286.84	22.76	-23.8	-24.4	18.1	0.00e+00	0	42	0	2852126720	7	3844
2026-01-18 06:29:10.45	286.10	22.56	-23.7	-24.2	18.1	0.00e+00	0	43	0	2874146816	7	3804
2026-01-18 06:29:13.45	285.38	22.37	-23.7	-24.1	18.2	0.00e+00	0	43	0	2895118336	7	3767
2026-01-18 06:29:16.46	284.66	22.17	-23.9	-24.5	18.0	0.00e+00	0	42	0	2917138432	7	3868
2026-01-18 06:29:19.48	283.95	21.96	-23.9	-24.6	17.9	0.00e+00	0	43	0	2939158528	7	3900
2026-01-18 06:29:22.50	283.25	21.76	-23.8	-24.4	15.0	0.00e+00	0	42	0	2961178624	7	3854
2026-01-18 06:29:25.52	282.55	21.54	-23.9	-24.6	17.9	0.00e+00	0	42	0	2982150144	7	3884
2026-01-18 06:29:28.53	281.87	21.33	-24.0	-24.7	17.9	0.00e+00	0	43	0	3004170240	7	3916
2026-01-18 06:29:31.53	281.20	21.12	-24.2	-24.7	17.6	0.00e+00	0	43	0	3026190336	8	3802
2026-01-18 06:29:34.55	280.54	20.90	-24.1	-24.5	17.8	8.28e-04	0	43	0	3048210432	8	3752
2026-01-18 06:29:37.57	279.88	20.68	-24.2	-24.8	17.6	0.00e+00	0	43	0	3069181952	8	3837
2026-01-18 06:29:40.59	279.24	20.46	-24.2	-24.6	17.7	0.00e+00	0	42	0	3091202048	8	3786
2026-01-18 06:29:43.59	278.60	20.24	-24.2	-24.6	17.6	0.00e+00	0	43	0	3113222144	8	3794
2026-01-18 06:29:46.60	277.98	20.01	-24.1	-24.4	17.7	0.00e+00	0	42	0	3135242240	8	3749
2026-01-18 06:29:49.61	277.36	19.79	-24.3	-24.8	17.5	3.77e-05	0	43	0	3156213760	8	3839
2026-01-18 06:29:52.63	276.75	19.56	-24.4	-25.1	17.4	0.00e+00	0	42	0	3178233856	8	3899
2026-01-18 06:29:55.64	276.16	19.33	-24.4	-25.1	17.3	0.00e+00	0	43	0	3200253952	8	3900
2026-01-18 06:29:58.65	275.57	19.10	-24.4	-25.2	17.3	3.32e-04	0	43	0	3222274048	8	3928
2026-01-18 06:30:01.66	274.99	18.87	-24.8	-25.4	16.9	5.15e-04	0	42	0	3243245568	9	3865
2026-01-18 06:30:04.67	274.42	18.64	-24.7	-25.2	17.0	0.00e+00	0	42	0	3265265664	9	3815
2026-01-18 06:30:07.68	273.85	18.41	-25.0	-26.0	16.6	0.00e+00	0	43	0	3287285760	9	4019
2026-01-18 06:30:10.71	273.30	18.17	-24.8	-25.0	16.8	0.00e+00	0	43	0	3309305856	10	3672
2026-01-18 06:30:13.72	272.75	17.94	-24.7	-24.8	16.9	0.00e+00	0	43	0	3330277376	10	3630
2026-01-18 06:30:16.72	272.22	17.70	-24.8	-24.9	16.9	0.00e+00	0	43	0	3352297472	10	3660
2026-01-18 06:30:19.74	271.69	17.47	-25.0	-25.5	16.6	0.00e+00	0	42	0	3374317568	10	3783
2026-01-18 06:30:22.74	271.17	17.24	-25.1	-25.7	16.4	1.10e-06	0	43	0	3395289088	10	3843
2026-01-18 06:30:25.74	270.66	17.00	-25.2	-25.8	16.4	0.00e+00	0	43	0	3417309184	10	3865
2026-01-18 06:30:28.75	270.15	16.77	-25.4	-26.2	16.2	0.00e+00	0	43	0	3439329280	10	3948
2026-01-18 06:30:31.76	269.66	16.53	-26.1	-27.2	15.3	0.00e+00	0	43	0	3461349376	11	4112
2026-01-18 06:30:34.76	269.17	16.30	-25.6	-26.2	15.8	0.00e+00	0	43	0	3482320896	11	3864
2026-01-18 06:30:37.78	268.69	16.06	-25.5	-26.0	15.9	0.00e+00	0	43	0	3504340992	11	3814
2026-01-18 06:30:40.79	268.22	15.83	-25.7	-26.3	15.8	0.00e+00	0	43	0	3525312512	11	3881
2026-01-18 06:30:43.81	267.75	15.59	-25.5	-26.4	16.0	0.00e+00	0	43	0	3547332608	10	4007
2026-01-18 06:30:46.81	267.29	15.36	-25.6	-26.3	15.8	0.00e+00	0	43	0	3569352704	11	3880
2026-01-18 06:30:49.83	266.84	15.13	-25.6	-26.2	15.7	0.00e+00	0	43	0	3591372800	11	3856
2026-01-18 06:30:52.84	266.39	14.90	-25.7	-26.4	15.7	0.00e+00	0	43	0	3612344320	11	3907
2026-01-18 06:30:55.85	265.96	14.66	-25.7	-26.4	15.6	0.00e+00	0	43	0	3634364416	11	3904
2026-01-18 06:30:58.87	265.53	14.43	-25.8	-26.6	15.5	0.00e+00	0	43	0	3656384512	11	3959
2026-01-18 06:31:01.89	265.10	14.20	-25.8	-26.8	15.4	0.00e+00	0	43	0	3678404608	11	3998
2026-01-18 06:31:04.90	264.68	13.97	-26.1	-26.9	15.0	0.00e+00	0	43	0	3700424704	12	3923
2026-01-18 06:31:07.90	264.28	13.74	-26.3	-27.2	14.8	1.10e-06	0	43	0	3721396224	12	4002
2026-01-18 06:31:10.89	263.87	13.51	-26.4	-27.6	14.6	1.10e-06	0	43	0	3743416320	12	4108
2026-01-18 06:31:13.90	263.48	13.28	-26.2	-27.0	14.9	0.00e+00	0	43	0	3765436416	12	3952
2026-01-18 06:31:16.91	263.08	13.06	-26.1	-26.8	15.0	0.00e+00	0	43	0	3786407936	12	3901
2026-01-18 06:31:19.91	262.70	12.83	-26.0	-26.7	15.0	0.00e+00	0	43	0	3808428032	12	3873
2026-01-18 06:31:22.92	262.32	12.61	-26.5	-27.6	14.4	1.10e-06	0	43	0	3830448128	12	4128
2026-01-18 06:31:25.93	261.95	12.38	-27.1	-28.5	13.7	3.40e-06	0	43	0	3851419648	13	4251
2026-01-18 06:31:28.95	261.58	12.16	-26.4	-27.4	14.5	0.00e+00	0	42	0	3873439744	12	4077
2026-01-18 06:31:31.95	261.22	11.93	-26.3	-27.2	14.7	0.00e+00	0	42	0	3895459840	12	4010
2026-01-18 06:31:34.96	260.86	11.71	-26.4	-27.6	14.4	0.00e+00	0	43	0	3917479936	12	4110
2026-01-18 06:31:37.96	260.51	11.49	-26.2	-27.1	14.7	0.00e+00	0	42	0	3938451456	12	3994
2026-01-18 06:31:40.98	260.16	11.27	-26.3	-27.3	14.6	0.00e+00	0	43	0	3960471552	12	4037
2026-01-18 06:31:43.99	259.82	11.05	-26.3	-27.2	14.6	0.00e+00	0	43	0	3982491648	12	4017
2026-01-18 06:31:47.00	259.49	10.83	-26.4	-27.4	14.5	0.00e+00	0	43	0	4004511744	12	4074
2026-01-18 06:31:50.01	259.16	10.61	-26.4	-27.5	14.4	1.10e-06	0	43	0	4025483264	12	4082
2026-01-18 06:31:53.02	258.83	10.40	-26.6	-27.6	14.1	3.40e-06	0	43	0	4047503360	13	4016
2026-01-18 06:31:56.03	258.51	10.18	-26.9	-28.1	13.8	2.20e-06	0	43	0	4069523456	13	4143
2026-01-18 06:31:59.02	258.20	9.97	-26.9	-27.8	13.7	8.00e-06	0	43	0	4090494976	14	3954
2026-01-18 06:32:02.03	257.89	9.76	-27.0	-28.0	13.6	3.40e-06	0	43	0	4112515072	14	4014
2026-01-18 06:32:05.04	257.58	9.54	-26.8	-27.3	13.9	2.20e-06	0	43	0	4133486592	14	3848
2026-01-18 06:32:08.06	257.28	9.33	-27.1	-28.0	13.4	6.80e-06	0	43	0	4155506688	14	4032
2026-01-18 06:32:11.06	256.98	9.12	-26.9	-27.6	13.7	9.10e-06	0	43	0	4177526784	14	3926
2026-01-18 06:32:14.07	256.69	8.91	-26.7	-27.8	13.8	3.40e-06	0	43	0	4199546880	13	4082
2026-01-18 06:32:17.07	256.40	8.71	-26.5	-27.2	14.2	0.00e+00	0	43	0	4220518400	13	3912
2026-01-18 06:32:20.08	256.11	8.50	-26.9	-28.1	13.6	4.50e-06	0	43	0	4242538496	13	4160
2026-01-18 06:32:23.10	255.83	8.29	-27.0	-28.3	13.5	3.40e-06	0	42	0	4264558592	13	4217
2026-01-18 06:32:26.11	255.56	8.09	-27.4	-28.9	12.8	4.57e-05	0	43	0	4286578688	14	4273
2026-01-18 06:32:29.12	255.28	7.88	-27.5	-28.7	12.6	4.57e-05	0	43	0	4307550208	15	4098
2026-01-18 06:32:32.13	255.01	7.68	-27.4	-28.4	12.8	5.37e-05	0	43	0	4329570304	15	4023
2026-01-18 06:32:35.14	254.75	7.48	-27.6	-28.8	12.5	7.32e-05	0	43	0	4351590400	15	4135
2026-01-18 06:32:38.13	254.49	7.28	-28.0	-29.7	11.9	2.99e-04	0	43	0	4372561920	15	4400
2026-01-18 06:32:41.15	254.23	7.08	-27.9	-29.5	12.1	1.13e-04	0	43	0	4394582016	15	4348

#Closed at: 2026-01-18 06:32:43
#Recorded file [4396 MB]: D:/data/31010_260118_092232.dat