passes_logs/2026/01/18/R2M6_AANII_01/R2M6_AANII_01__20260118_022001_NOAA_20_JPSS-1_rec.log

#Pass ID: 20260118_022001_NOAA 20 (JPSS-1)
#Satellite: NOAA 20 (JPSS-1)
#Configuration: NOAA 20
#almurnet v.1.7.20240730
#Start time: 2026-01-18 02:20:02

#Version: 2.2.20231116
#Station: R2M6_AANII_01
#Location: 30.233357 lon 59.946436 lat
#TLE: 1 43013U 17073A   26017.30359522  .00000067  00000+0  52526-4 0  9990
#TLE: 2 43013  98.7639 318.2187 0001419  36.2087 323.9184 14.19536557423067

#Time	Az	El	Level	Level2	SNR	BER	BlckErr	Temp	State	Recorded	gain1	gain2
2026-01-18 02:20:02.27	10.14	7.02	-32.7	-41.8	4.2	1.43e+00	0	41	0	0	25	10300
2026-01-18 02:20:05.27	9.86	7.21	-32.5	-40.6	6.1	3.05e-01	0	41	0	1048576	24	9107
2026-01-18 02:20:08.28	9.57	7.40	-32.5	-40.2	6.0	3.41e-01	0	42	0	7340032	25	8754
2026-01-18 02:20:11.28	9.28	7.59	-32.3	-38.7	7.1	2.12e-01	0	42	0	12582912	25	7573
2026-01-18 02:20:14.29	8.99	7.79	-32.2	-38.7	7.5	1.34e-01	0	42	0	17825792	24	7618
2026-01-18 02:20:17.29	8.69	7.98	-32.2	-38.7	7.6	1.02e-01	0	42	0	24117248	24	7611
2026-01-18 02:20:20.31	8.39	8.17	-32.2	-38.8	7.6	9.53e-02	0	42	0	29360128	24	7638
2026-01-18 02:20:23.31	8.09	8.37	-32.1	-38.1	8.1	8.50e-02	0	42	0	35651584	24	7210
2026-01-18 02:20:26.31	7.78	8.56	-31.6	-36.1	9.8	1.20e-02	0	42	0	40894464	24	6008
2026-01-18 02:20:29.31	7.47	8.75	-31.5	-35.5	10.2	6.09e-03	0	42	0	46137344	24	5732
2026-01-18 02:20:32.33	7.15	8.95	-31.4	-35.6	10.5	3.90e-03	0	42	0	52428800	23	5872
2026-01-18 02:20:35.35	6.82	9.15	-31.5	-36.2	10.1	5.89e-03	0	42	0	57671680	23	6158
2026-01-18 02:20:38.35	6.50	9.34	-31.5	-36.0	10.3	9.75e-03	0	42	0	62914560	23	6056
2026-01-18 02:20:41.36	6.16	9.54	-31.4	-35.8	10.4	3.67e-03	0	42	0	69206016	23	5977
2026-01-18 02:20:44.36	5.83	9.74	-31.4	-35.6	10.5	3.90e-03	0	42	0	74448896	23	5891
2026-01-18 02:20:47.37	5.49	9.94	-31.4	-35.6	10.6	4.40e-03	0	42	0	80740352	23	5882
2026-01-18 02:20:50.39	5.14	10.14	-31.4	-36.3	10.4	4.07e-03	0	42	0	85983232	22	6311
2026-01-18 02:20:53.39	4.79	10.34	-31.4	-36.1	10.6	3.49e-03	0	43	0	91226112	22	6187
2026-01-18 02:20:56.40	4.43	10.54	-31.4	-36.2	10.5	3.02e-03	0	43	0	97517568	22	6231
2026-01-18 02:20:59.40	4.07	10.74	-31.3	-35.8	10.8	2.58e-03	0	43	0	102760448	22	6043
2026-01-18 02:21:02.41	3.71	10.94	-31.3	-35.9	10.8	2.49e-03	0	43	0	108003328	22	6102
2026-01-18 02:21:05.42	3.33	11.14	-31.2	-35.3	11.2	1.60e-03	0	43	0	114294784	22	5830
2026-01-18 02:21:08.44	2.96	11.35	-31.4	-35.6	10.6	4.44e-03	0	43	0	119537664	23	5864
2026-01-18 02:21:11.44	2.58	11.55	-31.4	-35.5	10.8	2.90e-03	0	43	0	125829120	23	5782
2026-01-18 02:21:14.45	2.19	11.75	-31.4	-35.6	10.7	2.52e-03	0	43	0	131072000	23	5852
2026-01-18 02:21:17.46	1.79	11.96	-31.3	-35.2	11.0	1.37e-03	0	43	0	136314880	23	5625
2026-01-18 02:21:20.45	1.40	12.16	-31.4	-35.7	10.6	3.57e-03	0	43	0	142606336	23	5892
2026-01-18 02:21:23.46	0.99	12.37	-31.1	-34.7	11.4	1.37e-03	0	43	0	147849216	23	5416
2026-01-18 02:21:26.47	0.58	12.57	-31.3	-35.8	10.9	2.19e-03	0	43	0	154140672	22	6034
2026-01-18 02:21:29.48	0.17	12.78	-31.1	-35.1	11.5	1.46e-03	0	43	0	159383552	22	5711
2026-01-18 02:21:32.48	359.74	12.98	-31.2	-35.5	11.2	1.02e-03	0	43	0	164626432	22	5873
2026-01-18 02:21:35.49	359.32	13.19	-30.8	-34.2	12.2	3.43e-04	0	43	0	170917888	22	5315
2026-01-18 02:21:38.50	358.88	13.39	-30.8	-34.7	12.2	4.15e-04	0	43	0	176160768	21	5601
2026-01-18 02:21:41.51	358.44	13.60	-30.8	-34.8	12.1	5.52e-04	0	43	0	181403648	21	5654
2026-01-18 02:21:44.52	357.99	13.80	-30.8	-34.6	12.2	5.11e-04	0	43	0	187695104	21	5598
2026-01-18 02:21:47.53	357.54	14.01	-30.9	-34.8	12.2	5.91e-04	0	43	0	192937984	21	5658
2026-01-18 02:21:50.54	357.08	14.22	-30.9	-34.7	12.2	4.55e-04	0	43	0	199229440	21	5627
2026-01-18 02:21:53.54	356.61	14.42	-31.2	-35.3	11.5	1.02e-03	0	43	0	204472320	22	5757
2026-01-18 02:21:56.55	356.14	14.63	-31.2	-35.3	11.5	1.76e-03	0	43	0	209715200	22	5765
2026-01-18 02:21:59.56	355.66	14.83	-31.5	-36.2	10.9	2.05e-03	0	43	0	216006656	22	6181
2026-01-18 02:22:02.56	355.18	15.03	-31.4	-35.5	11.0	3.79e-03	0	43	0	221249536	23	5757
2026-01-18 02:22:05.57	354.68	15.24	-31.3	-35.5	11.4	1.13e-03	0	43	0	226492416	22	5853
2026-01-18 02:22:08.58	354.18	15.44	-31.2	-35.2	11.7	1.13e-03	0	43	0	232783872	22	5684
2026-01-18 02:22:11.59	353.67	15.65	-31.2	-35.2	11.7	1.01e-03	0	43	0	238026752	22	5682
2026-01-18 02:22:14.60	353.16	15.85	-31.2	-35.2	11.7	6.11e-04	0	43	0	244318208	22	5708
2026-01-18 02:22:17.60	352.64	16.05	-31.3	-35.5	11.5	1.07e-03	0	43	0	249561088	22	5822
2026-01-18 02:22:20.60	352.11	16.25	-31.2	-35.3	11.7	1.08e-03	0	43	0	254803968	22	5724
2026-01-18 02:22:23.60	351.58	16.45	-31.2	-35.2	11.7	8.91e-04	0	43	0	261095424	22	5705
2026-01-18 02:22:26.60	351.04	16.65	-31.3	-35.4	11.6	8.30e-04	0	44	0	266338304	22	5773
2026-01-18 02:22:29.60	350.49	16.84	-31.3	-35.4	11.5	9.32e-04	0	43	0	271581184	22	5793
2026-01-18 02:22:32.61	349.93	17.04	-31.3	-35.3	11.7	7.39e-04	0	43	0	277872640	22	5751
2026-01-18 02:22:35.62	349.36	17.24	-31.3	-35.5	11.6	7.92e-04	0	43	0	283115520	22	5820
2026-01-18 02:22:38.62	348.79	17.43	-31.2	-35.2	11.8	5.40e-04	0	43	0	289406976	22	5669
2026-01-18 02:22:41.63	348.21	17.62	-30.9	-34.3	12.4	2.91e-04	0	44	0	294649856	22	5316
2026-01-18 02:22:44.63	347.63	17.82	-30.8	-33.8	12.8	8.85e-05	0	43	0	299892736	22	5105
2026-01-18 02:22:47.64	347.03	18.00	-30.9	-34.2	12.5	1.12e-04	0	44	0	306184192	22	5255
2026-01-18 02:22:50.63	346.43	18.19	-30.4	-32.9	13.4	3.50e-05	0	44	0	311427072	22	4763
2026-01-18 02:22:53.64	345.82	18.38	-30.4	-32.7	13.5	1.14e-05	0	44	0	316669952	22	4704
2026-01-18 02:22:56.64	345.21	18.56	-30.3	-33.0	13.6	1.14e-05	0	43	0	322961408	21	4902
2026-01-18 02:22:59.66	344.58	18.74	-30.0	-32.1	14.2	7.00e-07	0	43	0	328204288	21	4613
2026-01-18 02:23:02.66	343.95	18.92	-30.0	-32.2	14.1	2.20e-06	0	44	0	334495744	21	4648
2026-01-18 02:23:05.66	343.31	19.10	-29.7	-32.0	14.6	0.00e+00	0	43	0	339738624	20	4695
2026-01-18 02:23:08.67	342.66	19.27	-29.6	-31.8	14.8	7.00e-07	0	44	0	344981504	20	4597
2026-01-18 02:23:11.68	342.00	19.44	-29.7	-32.0	14.6	0.00e+00	0	43	0	351272960	20	4673
2026-01-18 02:23:14.69	341.34	19.61	-29.7	-31.8	14.7	0.00e+00	0	44	0	356515840	20	4613
2026-01-18 02:23:17.70	340.67	19.78	-29.5	-31.4	15.0	0.00e+00	0	44	0	361758720	20	4493
2026-01-18 02:23:20.71	339.99	19.94	-29.8	-32.3	14.5	0.00e+00	0	43	0	368050176	20	4774
2026-01-18 02:23:23.71	339.31	20.10	-29.8	-32.1	14.5	1.50e-06	0	44	0	373293056	20	4709
2026-01-18 02:23:26.72	338.61	20.26	-29.8	-32.1	14.6	0.00e+00	0	44	0	379584512	20	4718
2026-01-18 02:23:29.72	337.92	20.41	-29.9	-32.5	14.3	0.00e+00	0	44	0	384827392	20	4832
2026-01-18 02:23:32.73	337.21	20.56	-29.8	-32.5	14.7	7.00e-07	0	44	0	390070272	19	4961
2026-01-18 02:23:35.74	336.50	20.71	-29.7	-32.5	14.7	0.00e+00	0	44	0	396361728	19	4933
2026-01-18 02:23:38.74	335.78	20.85	-29.5	-31.8	15.1	0.00e+00	0	44	0	401604608	19	4710
2026-01-18 02:23:41.74	335.05	20.98	-29.3	-31.3	15.4	0.00e+00	0	44	0	406847488	19	4558
2026-01-18 02:23:44.74	334.32	21.12	-29.5	-31.9	15.1	0.00e+00	0	44	0	413138944	19	4723
2026-01-18 02:23:47.75	333.58	21.25	-29.4	-31.7	15.3	0.00e+00	0	43	0	418381824	19	4667
2026-01-18 02:23:50.76	332.84	21.37	-29.2	-31.5	15.7	0.00e+00	0	43	0	424673280	18	4707
2026-01-18 02:23:53.77	332.08	21.49	-29.4	-32.0	15.4	0.00e+00	0	44	0	429916160	18	4880
2026-01-18 02:23:56.78	331.32	21.61	-29.2	-31.7	15.5	0.00e+00	0	44	0	435159040	18	4778
2026-01-18 02:23:59.79	330.56	21.72	-29.3	-31.8	15.4	0.00e+00	0	44	0	441450496	18	4819
2026-01-18 02:24:02.78	329.80	21.82	-29.5	-31.7	15.2	0.00e+00	0	44	0	446693376	19	4682
2026-01-18 02:24:05.80	329.02	21.92	-29.3	-31.9	15.4	0.00e+00	0	44	0	451936256	18	4855
2026-01-18 02:24:08.80	328.24	22.02	-29.3	-31.9	15.5	0.00e+00	0	44	0	458227712	18	4835
2026-01-18 02:24:11.81	327.46	22.11	-29.8	-32.6	14.7	0.00e+00	0	44	0	463470592	19	4976
2026-01-18 02:24:14.82	326.67	22.19	-30.1	-33.0	14.0	1.50e-06	0	44	0	469762048	20	5026
2026-01-18 02:24:17.82	325.88	22.27	-30.3	-33.4	13.9	3.00e-06	0	44	0	475004928	20	5160
2026-01-18 02:24:20.83	325.08	22.34	-30.5	-33.5	13.4	1.60e-05	0	44	0	480247808	21	5093
2026-01-18 02:24:23.84	324.28	22.41	-30.5	-33.4	13.5	2.13e-05	0	44	0	486539264	21	5050
2026-01-18 02:24:26.85	323.48	22.47	-30.3	-33.0	13.8	3.80e-06	0	44	0	491782144	21	4916
2026-01-18 02:24:29.85	322.68	22.52	-30.7	-34.0	13.1	2.97e-05	0	44	0	497025024	21	5277
2026-01-18 02:24:32.85	321.87	22.57	-30.8	-34.3	12.9	4.11e-05	0	44	0	503316480	21	5384
2026-01-18 02:24:35.86	321.06	22.62	-30.6	-33.6	13.4	2.59e-05	0	44	0	508559360	21	5130
2026-01-18 02:24:38.86	320.25	22.65	-30.7	-33.9	13.2	1.90e-05	0	43	0	514850816	21	5230
2026-01-18 02:24:41.87	319.43	22.68	-30.7	-34.0	13.1	2.21e-05	0	44	0	520093696	21	5265
2026-01-18 02:24:44.88	318.61	22.71	-30.7	-34.0	13.1	2.97e-05	0	43	0	525336576	21	5266
2026-01-18 02:24:47.88	317.80	22.73	-30.8	-34.3	12.9	3.35e-05	0	44	0	531628032	21	5373
2026-01-18 02:24:50.87	316.98	22.74	-30.8	-34.3	12.9	3.89e-05	0	44	0	536870912	21	5393
2026-01-18 02:24:53.88	316.16	22.75	-30.9	-34.7	12.7	6.48e-05	0	44	0	542113792	21	5542
2026-01-18 02:24:56.89	315.34	22.75	-30.8	-34.3	12.9	3.12e-05	0	44	0	548405248	21	5384
2026-01-18 02:24:59.89	314.53	22.74	-30.7	-34.2	13.0	3.28e-05	0	44	0	553648128	21	5348
2026-01-18 02:25:02.90	313.71	22.73	-30.7	-34.0	13.1	5.03e-05	0	44	0	559939584	21	5265
2026-01-18 02:25:05.91	312.89	22.71	-30.2	-32.8	13.9	7.60e-06	0	44	0	565182464	21	4840
2026-01-18 02:25:08.92	312.07	22.68	-30.1	-32.4	14.1	4.50e-06	0	44	0	570425344	21	4709
2026-01-18 02:25:11.93	311.25	22.65	-29.9	-31.9	14.4	0.00e+00	0	44	0	576716800	21	4547
2026-01-18 02:25:14.94	310.44	22.61	-30.0	-32.2	14.2	7.00e-07	0	44	0	581959680	21	4637
2026-01-18 02:25:17.96	309.62	22.57	-29.8	-32.2	14.5	0.00e+00	0	44	0	587202560	20	4734
2026-01-18 02:25:20.97	308.81	22.52	-29.7	-31.8	14.8	0.00e+00	0	44	0	593494016	20	4613
2026-01-18 02:25:23.97	308.01	22.46	-29.4	-31.6	15.3	0.00e+00	0	44	0	598736896	19	4634
2026-01-18 02:25:26.96	307.21	22.40	-29.4	-31.5	15.3	0.00e+00	0	44	0	605028352	19	4619
2026-01-18 02:25:29.97	306.41	22.34	-29.2	-31.1	15.6	0.00e+00	0	44	0	610271232	19	4478
2026-01-18 02:25:32.97	305.62	22.26	-29.1	-30.8	15.7	0.00e+00	0	44	0	615514112	19	4389
2026-01-18 02:25:35.98	304.82	22.18	-28.9	-30.4	16.0	0.00e+00	0	44	0	621805568	19	4271
2026-01-18 02:25:39.00	304.03	22.10	-28.9	-30.8	16.0	0.00e+00	0	44	0	627048448	18	4506
2026-01-18 02:25:42.00	303.25	22.01	-29.2	-31.8	15.4	0.00e+00	0	44	0	632291328	18	4812
2026-01-18 02:25:45.01	302.47	21.91	-29.3	-32.0	15.3	0.00e+00	0	44	0	638582784	18	4874
2026-01-18 02:25:48.00	301.70	21.81	-29.0	-31.2	15.7	0.00e+00	0	44	0	643825664	18	4630
2026-01-18 02:25:51.02	300.93	21.71	-29.3	-31.9	15.3	0.00e+00	0	44	0	650117120	18	4852
2026-01-18 02:25:54.02	300.16	21.60	-29.5	-32.0	14.9	0.00e+00	0	44	0	655360000	19	4789
2026-01-18 02:25:57.02	299.41	21.48	-29.9	-33.0	14.3	7.00e-07	0	44	0	660602880	19	5146
2026-01-18 02:26:00.02	298.66	21.36	-29.9	-32.4	14.3	0.00e+00	0	44	0	666894336	20	4823
2026-01-18 02:26:03.03	297.91	21.24	-29.7	-32.5	14.6	7.00e-07	0	44	0	672137216	19	4940
2026-01-18 02:26:06.04	297.17	21.11	-30.0	-32.7	14.1	2.20e-06	0	44	0	677380096	20	4911
2026-01-18 02:26:09.05	296.43	20.97	-30.3	-33.4	13.6	9.10e-06	0	44	0	683671552	20	5192
2026-01-18 02:26:12.06	295.70	20.83	-30.2	-33.2	13.7	5.30e-06	0	44	0	688914432	20	5110
2026-01-18 02:26:15.07	294.98	20.69	-30.2	-33.3	13.7	5.30e-06	0	44	0	695205888	20	5138
2026-01-18 02:26:18.08	294.27	20.55	-30.3	-33.5	13.5	5.30e-06	0	44	0	700448768	20	5237
2026-01-18 02:26:21.10	293.56	20.40	-30.4	-33.5	13.2	1.83e-05	0	44	0	705691648	21	5096
2026-01-18 02:26:24.11	292.86	20.24	-30.5	-33.5	13.2	5.61e-04	0	44	0	711983104	21	5100
2026-01-18 02:26:27.13	292.16	20.08	-30.1	-33.0	13.8	1.28e-03	0	44	0	717225984	20	5035
2026-01-18 02:26:30.14	291.47	19.92	-30.3	-33.7	13.4	7.60e-06	0	44	0	723517440	20	5287
2026-01-18 02:26:33.15	290.79	19.76	-30.7	-34.2	12.7	4.73e-05	0	44	0	728760320	21	5378
2026-01-18 02:26:36.16	290.12	19.59	-30.5	-34.1	13.1	3.20e-05	0	44	0	734003200	20	5450
2026-01-18 02:26:39.17	289.46	19.42	-30.2	-33.2	13.7	6.10e-06	0	44	0	740294656	20	5110
2026-01-18 02:26:42.18	288.80	19.25	-30.2	-33.3	13.6	7.40e-05	0	44	0	745537536	20	5137
2026-01-18 02:26:45.18	288.15	19.08	-30.6	-33.8	12.9	1.93e-04	0	44	0	750780416	21	5241
2026-01-18 02:26:48.19	287.51	18.90	-30.4	-33.3	13.2	2.37e-04	0	44	0	757071872	21	5038
2026-01-18 02:26:51.19	286.88	18.72	-30.4	-33.3	13.2	1.60e-05	0	44	0	762314752	21	5056
2026-01-18 02:26:54.20	286.25	18.54	-30.4	-33.3	13.2	1.74e-04	0	44	0	768606208	21	5070
2026-01-18 02:26:57.21	285.63	18.35	-30.5	-34.2	13.0	2.51e-05	0	44	0	773849088	20	5499
2026-01-18 02:27:00.22	285.02	18.17	-30.3	-33.1	13.4	6.22e-04	0	44	0	779091968	21	4962
2026-01-18 02:27:03.23	284.41	17.98	-30.2	-33.4	13.4	6.06e-04	0	44	0	785383424	20	5199
2026-01-18 02:27:06.22	283.82	17.79	-30.2	-33.2	13.6	6.16e-04	0	44	0	790626304	20	5141
2026-01-18 02:27:09.21	283.23	17.60	-30.3	-33.7	13.2	1.48e-03	0	44	0	795869184	20	5331
2026-01-18 02:27:12.21	282.65	17.40	-30.2	-33.5	13.4	1.80e-03	0	44	0	802160640	20	5235
2026-01-18 02:27:15.22	282.08	17.21	-30.4	-34.1	13.0	1.45e-03	0	44	0	807403520	20	5474
2026-01-18 02:27:18.22	281.51	17.01	-30.5	-33.7	12.9	5.56e-05	0	44	0	813694976	21	5213
2026-01-18 02:27:21.22	280.95	16.82	-30.7	-34.2	12.5	1.05e-04	0	44	0	818937856	21	5434
2026-01-18 02:27:24.22	280.40	16.62	-30.4	-33.5	13.0	1.46e-04	0	44	0	824180736	21	5120
2026-01-18 02:27:27.22	279.86	16.42	-30.4	-34.0	13.0	7.39e-04	0	44	0	830472192	20	5445
2026-01-18 02:27:30.22	279.32	16.22	-30.7	-34.3	12.4	1.41e-03	0	44	0	835715072	21	5451
2026-01-18 02:27:33.24	278.79	16.02	-30.7	-34.4	12.3	3.04e-04	0	44	0	840957952	21	5502
2026-01-18 02:27:36.23	278.27	15.82	-30.6	-34.0	12.6	1.30e-04	0	44	0	847249408	21	5330
2026-01-18 02:27:39.24	277.76	15.61	-30.5	-33.9	12.6	4.50e-05	0	44	0	852492288	21	5299
2026-01-18 02:27:42.25	277.25	15.41	-30.2	-33.5	13.2	1.52e-05	0	44	0	857735168	20	5248
2026-01-18 02:27:45.26	276.74	15.20	-30.1	-33.2	13.3	6.40e-05	0	44	0	864026624	20	5166
2026-01-18 02:27:48.26	276.25	15.00	-30.0	-32.9	13.6	9.10e-06	0	44	0	869269504	20	5025
2026-01-18 02:27:51.27	275.76	14.79	-30.0	-33.0	13.5	9.55e-04	0	44	0	875560960	20	5070
2026-01-18 02:27:54.27	275.28	14.59	-30.1	-33.4	13.2	1.83e-05	0	44	0	880803840	20	5241
2026-01-18 02:27:57.28	274.81	14.38	-29.9	-32.8	13.6	1.14e-05	0	44	0	886046720	20	5003
2026-01-18 02:28:00.29	274.34	14.18	-29.8	-33.0	13.8	5.30e-06	0	44	0	892338176	19	5190
2026-01-18 02:28:03.30	273.88	13.97	-29.8	-32.8	14.0	3.00e-06	0	44	0	897581056	19	5094
2026-01-18 02:28:06.30	273.42	13.77	-29.9	-33.2	13.7	2.20e-06	0	44	0	902823936	19	5248
2026-01-18 02:28:09.32	272.97	13.56	-30.0	-33.1	13.3	5.41e-04	0	44	0	909115392	20	5112
2026-01-18 02:28:12.31	272.53	13.35	-29.9	-33.3	13.5	1.14e-05	0	44	0	914358272	19	5325
2026-01-18 02:28:15.32	272.10	13.15	-29.9	-32.8	13.4	9.10e-06	0	44	0	920649728	20	5023
2026-01-18 02:28:18.33	271.67	12.94	-30.0	-33.0	13.3	2.59e-05	0	44	0	925892608	20	5107
2026-01-18 02:28:21.34	271.24	12.73	-30.0	-33.0	13.3	3.28e-05	0	44	0	931135488	20	5088
2026-01-18 02:28:24.34	270.82	12.53	-29.8	-33.1	13.6	8.30e-06	0	44	0	937426944	19	5243
2026-01-18 02:28:27.34	270.41	12.32	-29.7	-32.3	13.7	9.90e-06	0	44	0	942669824	20	4856
2026-01-18 02:28:30.35	270.01	12.12	-29.9	-33.3	13.2	7.60e-06	0	44	0	947912704	19	5309
2026-01-18 02:28:33.36	269.61	11.91	-30.2	-33.7	12.1	5.18e-05	0	44	0	954204160	20	5362
2026-01-18 02:28:36.37	269.21	11.71	-30.2	-33.8	12.6	8.01e-05	0	44	0	959447040	20	5417
2026-01-18 02:28:39.38	268.82	11.51	-30.1	-33.4	12.9	5.72e-05	0	44	0	965738496	20	5274
2026-01-18 02:28:42.37	268.44	11.30	-30.0	-33.5	13.3	2.44e-05	0	44	0	970981376	19	5406
2026-01-18 02:28:45.37	268.06	11.10	-30.2	-33.8	12.6	4.88e-05	0	44	0	976224256	20	5433
2026-01-18 02:28:48.38	267.69	10.90	-30.3	-33.9	12.5	9.38e-05	0	44	0	982515712	20	5483
2026-01-18 02:28:51.39	267.32	10.70	-30.5	-34.5	12.1	6.71e-04	0	44	0	987758592	20	5736
2026-01-18 02:28:54.40	266.96	10.49	-30.8	-35.1	11.3	1.45e-03	0	44	0	993001472	21	5905
2026-01-18 02:28:57.41	266.60	10.29	-30.9	-35.5	11.0	3.31e-03	0	44	0	999292928	21	6091
2026-01-18 02:29:00.42	266.24	10.09	-30.8	-35.1	11.2	1.23e-03	0	44	0	1004535808	21	5914
2026-01-18 02:29:03.42	265.90	9.89	-30.8	-35.2	11.2	2.23e-03	0	44	0	1010827264	21	5942
2026-01-18 02:29:06.44	265.55	9.69	-30.9	-35.4	10.9	2.05e-03	0	44	0	1016070144	21	6080
2026-01-18 02:29:09.45	265.21	9.49	-30.5	-34.4	11.7	2.73e-03	0	44	0	1021313024	21	5609
2026-01-18 02:29:12.46	264.88	9.29	-30.6	-34.6	11.5	2.95e-03	0	44	0	1027604480	21	5686
2026-01-18 02:29:15.47	264.55	9.10	-30.4	-34.1	11.8	2.85e-03	0	44	0	1032847360	21	5475
2026-01-18 02:29:18.47	264.22	8.90	-30.7	-35.1	11.1	3.65e-03	0	44	0	1039138816	21	5924
2026-01-18 02:29:21.47	263.91	8.70	-30.7	-35.1	11.0	4.67e-03	0	44	0	1044381696	21	5946
2026-01-18 02:29:24.48	263.59	8.51	-30.7	-35.1	11.0	4.03e-03	0	44	0	1049624576	21	5970
2026-01-18 02:29:27.49	263.28	8.31	-30.8	-35.2	10.8	3.24e-03	0	44	0	1055916032	21	6037
2026-01-18 02:29:30.51	262.97	8.12	-30.6	-34.9	11.0	5.96e-03	0	44	0	1061158912	21	5883
2026-01-18 02:29:33.50	262.67	7.93	-30.7	-35.3	10.7	2.40e-03	0	44	0	1066401792	21	6083
2026-01-18 02:29:36.51	262.37	7.73	-31.0	-35.6	10.1	8.20e-03	0	44	0	1072693248	22	6119
2026-01-18 02:29:39.52	262.07	7.54	-30.9	-35.3	10.3	6.79e-03	0	44	0	1077936128	22	5974
2026-01-18 02:29:42.52	261.78	7.35	-31.0	-35.7	9.9	8.61e-03	0	44	0	1084227584	22	6212
2026-01-18 02:29:45.53	261.49	7.16	-30.9	-35.3	10.2	7.43e-03	0	44	0	1089470464	22	6020
2026-01-18 02:29:48.54	261.21	6.97	-33.3	-47.6	3.8	1.49e+00	0	44	104	1092616192	26	18732

#Closed at: 2026-01-18 02:29:48
#Recorded file [1092 MB]: D:/data/31010_260118_052004.dat