passes_logs/2026/01/18/R2M6_AANII_01/R2M6_AANII_01__20260118_024027_AQUA_rec.log

#Pass ID: 20260118_024027_AQUA
#Satellite: AQUA
#Configuration: AQUA
#almurnet v.1.7.20240730
#Start time: 2026-01-18 02:40:27

#Version: 2.2.20231116
#Station: R2M6_AANII_01
#Location: 30.233357 lon 59.946436 lat
#TLE: 1 27424U 02022A   26017.29152041  .00000842  00000+0  17841-3 0  9992
#TLE: 2 27424  98.4085 343.7574 0002011  75.4099  30.6811 14.61825797261228

#Time	Az	El	Level	Level2	SNR	BER	BlckErr	Temp	State	Recorded	gain1	gain2
2026-01-18 02:40:27.24	12.96	7.01	-32.4	-40.2	5.0	7.10e-01	0	41	0	0	25	8874
2026-01-18 02:40:30.24	12.84	7.24	-32.4	-39.3	12.7	6.07e-01	0	41	0	1572864	25	7959
2026-01-18 02:40:33.24	12.72	7.49	-32.3	-38.8	13.2	6.03e-01	0	41	0	7340032	25	7574
2026-01-18 02:40:36.25	12.59	7.73	-32.0	-37.8	14.4	6.00e-01	0	41	0	13107200	24	7050
2026-01-18 02:40:39.26	12.46	7.98	-31.3	-35.9	16.2	6.00e-01	0	42	0	18350080	23	6084
2026-01-18 02:40:42.27	12.33	8.23	-31.1	-35.6	16.8	5.99e-01	0	42	0	24117248	22	6055
2026-01-18 02:40:45.27	12.19	8.48	-31.1	-35.6	16.8	5.99e-01	0	42	0	29884416	22	6049
2026-01-18 02:40:48.28	12.06	8.73	-31.3	-35.6	16.4	6.01e-01	0	42	0	35651584	23	5971
2026-01-18 02:40:51.29	11.92	8.99	-31.0	-35.3	17.0	6.01e-01	0	42	0	40894464	22	5930
2026-01-18 02:40:54.29	11.77	9.25	-31.3	-35.8	16.4	6.02e-01	0	42	0	46661632	23	6038
2026-01-18 02:40:57.30	11.63	9.52	-31.1	-34.9	17.0	6.01e-01	0	42	0	52428800	23	5605
2026-01-18 02:41:00.32	11.48	9.78	-31.0	-35.2	17.2	6.02e-01	0	42	0	58195968	22	5843
2026-01-18 02:41:03.32	11.32	10.05	-30.8	-34.5	17.7	6.04e-01	0	42	0	63438848	22	5543
2026-01-18 02:41:06.33	11.17	10.32	-30.5	-34.2	18.2	6.02e-01	0	42	0	69206016	21	5527
2026-01-18 02:41:09.34	11.01	10.60	-30.5	-34.2	18.2	6.03e-01	0	42	0	74973184	21	5511
2026-01-18 02:41:12.35	10.84	10.88	-30.6	-33.9	18.1	6.00e-01	0	42	0	80740352	22	5301
2026-01-18 02:41:15.35	10.68	11.16	-30.4	-33.5	18.4	6.02e-01	0	42	0	86507520	22	5130
2026-01-18 02:41:18.36	10.51	11.45	-30.3	-33.7	18.6	6.01e-01	0	42	0	91750400	21	5335
2026-01-18 02:41:21.38	10.33	11.74	-30.1	-33.2	19.0	5.98e-01	0	43	0	97517568	21	5143
2026-01-18 02:41:24.38	10.15	12.03	-30.0	-33.0	19.1	6.00e-01	0	43	0	103284736	21	5041
2026-01-18 02:41:27.40	9.97	12.33	-29.9	-33.0	19.4	6.02e-01	0	43	0	109051904	20	5176
2026-01-18 02:41:30.40	9.78	12.63	-29.9	-33.0	19.4	6.00e-01	0	43	0	114294784	20	5155
2026-01-18 02:41:33.40	9.59	12.93	-29.9	-33.1	19.4	6.04e-01	0	43	0	120061952	20	5179
2026-01-18 02:41:36.41	9.40	13.24	-29.9	-32.9	19.5	6.01e-01	0	43	0	125829120	20	5133
2026-01-18 02:41:39.43	9.20	13.55	-29.9	-32.9	19.6	6.00e-01	0	43	0	131596288	20	5133
2026-01-18 02:41:42.44	8.99	13.87	-30.2	-33.4	19.0	6.00e-01	0	43	0	136839168	21	5174
2026-01-18 02:41:45.44	8.78	14.19	-30.2	-33.3	19.1	5.99e-01	0	43	0	142606336	21	5127
2026-01-18 02:41:48.44	8.57	14.51	-30.5	-34.0	18.5	6.01e-01	0	43	0	148373504	21	5420
2026-01-18 02:41:51.45	8.34	14.84	-30.0	-32.8	19.4	6.02e-01	0	43	0	154140672	21	4952
2026-01-18 02:41:54.46	8.12	15.17	-30.0	-33.2	19.4	6.00e-01	0	43	0	159383552	20	5212
2026-01-18 02:41:57.48	7.88	15.51	-30.2	-33.3	19.0	6.00e-01	0	43	0	165150720	21	5125
2026-01-18 02:42:00.49	7.65	15.86	-29.9	-32.8	19.7	5.99e-01	0	43	0	170917888	20	5081
2026-01-18 02:42:03.49	7.40	16.20	-29.9	-32.9	19.6	6.00e-01	0	43	0	176685056	20	5098
2026-01-18 02:42:06.51	7.15	16.56	-29.9	-33.0	19.6	6.00e-01	0	43	0	181927936	20	5150
2026-01-18 02:42:09.51	6.89	16.92	-30.3	-33.5	19.1	6.03e-01	0	43	0	187695104	21	5194
2026-01-18 02:42:12.52	6.63	17.28	-29.9	-32.5	19.7	6.03e-01	0	43	0	193462272	21	4845
2026-01-18 02:42:15.52	6.36	17.65	-30.0	-33.1	19.6	6.04e-01	0	43	0	199229440	20	5175
2026-01-18 02:42:18.52	6.08	18.02	-30.1	-33.3	19.5	6.00e-01	0	43	0	204472320	20	5246
2026-01-18 02:42:21.52	5.79	18.40	-30.3	-33.5	19.1	6.03e-01	0	43	0	210239488	21	5208
2026-01-18 02:42:24.53	5.50	18.79	-30.0	-32.7	19.6	6.02e-01	0	43	0	216006656	21	4922
2026-01-18 02:42:27.52	5.19	19.18	-30.0	-33.1	19.7	6.00e-01	0	43	0	221773824	20	5160
2026-01-18 02:42:30.53	4.88	19.58	-29.9	-32.9	19.8	6.00e-01	0	43	0	227016704	20	5091
2026-01-18 02:42:33.53	4.56	19.98	-29.8	-32.8	19.9	5.99e-01	0	43	0	232783872	20	5031
2026-01-18 02:42:36.53	4.23	20.39	-30.0	-33.0	19.8	6.01e-01	0	43	0	238551040	20	5129
2026-01-18 02:42:39.54	3.89	20.81	-30.1	-32.9	19.5	5.98e-01	0	43	0	243793920	21	4963
2026-01-18 02:42:42.55	3.54	21.23	-30.2	-33.1	19.5	6.00e-01	0	43	0	249561088	21	5033
2026-01-18 02:42:45.55	3.18	21.66	-30.2	-33.0	19.5	5.99e-01	0	43	0	255328256	21	5012
2026-01-18 02:42:48.56	2.81	22.10	-30.1	-33.0	19.6	6.03e-01	0	43	0	261095424	21	4988
2026-01-18 02:42:51.57	2.42	22.54	-30.3	-33.3	19.4	5.98e-01	0	43	0	266862592	21	5094
2026-01-18 02:42:54.57	2.03	22.99	-30.2	-33.0	19.5	6.00e-01	0	43	0	272105472	21	5012
2026-01-18 02:42:57.58	1.62	23.45	-30.3	-33.3	19.3	6.00e-01	0	43	0	277872640	21	5117
2026-01-18 02:43:00.59	1.19	23.92	-30.3	-33.3	19.4	6.02e-01	0	43	0	283639808	21	5107
2026-01-18 02:43:03.60	0.76	24.39	-30.1	-32.9	19.7	6.01e-01	0	43	0	289406976	21	4942
2026-01-18 02:43:06.62	0.31	24.87	-30.3	-33.5	19.3	6.03e-01	0	43	0	294649856	21	5161
2026-01-18 02:43:09.64	359.84	25.36	-30.5	-33.8	19.1	6.02e-01	0	43	0	300417024	21	5291
2026-01-18 02:43:12.65	359.36	25.86	-30.3	-33.3	19.5	6.06e-01	0	43	0	306184192	21	5076
2026-01-18 02:43:15.66	358.86	26.36	-30.3	-33.4	19.4	6.01e-01	0	43	0	311951360	21	5122
2026-01-18 02:43:18.66	358.35	26.88	-30.5	-33.2	19.2	6.00e-01	0	43	0	317718528	22	4957
2026-01-18 02:43:21.67	357.81	27.40	-30.1	-32.3	19.8	6.01e-01	0	43	0	322961408	22	4639
2026-01-18 02:43:24.68	357.26	27.93	-29.9	-31.9	20.1	6.00e-01	0	43	0	328728576	22	4504
2026-01-18 02:43:27.70	356.69	28.46	-30.0	-32.0	20.0	6.03e-01	0	43	0	334495744	22	4526
2026-01-18 02:43:30.70	356.10	29.01	-29.9	-32.2	20.1	5.99e-01	0	43	0	340262912	21	4697
2026-01-18 02:43:33.69	355.49	29.56	-29.7	-31.7	20.5	6.00e-01	0	43	0	345505792	21	4548
2026-01-18 02:43:36.71	354.85	30.12	-29.8	-31.9	20.3	6.02e-01	0	43	0	351272960	21	4624
2026-01-18 02:43:39.72	354.19	30.69	-29.6	-31.5	20.6	5.99e-01	0	43	0	357040128	21	4499
2026-01-18 02:43:42.73	353.50	31.27	-29.6	-32.0	20.5	6.00e-01	0	43	0	362807296	20	4757
2026-01-18 02:43:45.73	352.80	31.85	-29.8	-32.5	20.3	6.02e-01	0	43	0	368050176	20	4923
2026-01-18 02:43:48.74	352.06	32.44	-29.9	-32.7	20.2	5.99e-01	0	43	0	373817344	20	4973
2026-01-18 02:43:51.75	351.29	33.04	-29.6	-32.1	20.6	6.00e-01	0	43	0	379584512	20	4774
2026-01-18 02:43:54.76	350.49	33.65	-30.1	-32.8	19.9	6.00e-01	0	43	0	385351680	21	4904
2026-01-18 02:43:57.78	349.66	34.26	-30.0	-32.6	20.1	6.01e-01	0	43	0	390594560	21	4822
2026-01-18 02:44:00.76	348.80	34.87	-30.4	-33.6	19.5	6.00e-01	0	44	0	396361728	21	5172
2026-01-18 02:44:03.77	347.91	35.50	-30.6	-33.4	19.3	5.99e-01	0	44	0	402128896	22	4990
2026-01-18 02:44:06.77	346.98	36.12	-30.7	-33.7	19.2	6.00e-01	0	43	0	407896064	22	5098
2026-01-18 02:44:09.78	346.01	36.75	-30.7	-33.7	19.2	6.01e-01	0	44	0	413138944	22	5092
2026-01-18 02:44:12.80	344.99	37.39	-31.2	-34.7	18.2	6.00e-01	0	44	0	418906112	23	5354
2026-01-18 02:44:15.80	343.94	38.03	-30.9	-33.7	18.8	6.01e-01	0	43	0	424673280	23	4999
2026-01-18 02:44:18.81	342.84	38.67	-31.7	-35.7	17.2	6.02e-01	0	43	0	430440448	24	5682
2026-01-18 02:44:21.82	341.70	39.31	-31.0	-33.7	18.5	6.00e-01	0	44	0	435683328	24	4881
2026-01-18 02:44:24.83	340.51	39.95	-31.3	-34.8	18.1	6.02e-01	0	44	0	441450496	23	5422
2026-01-18 02:44:27.85	339.27	40.59	-30.9	-34.2	18.5	6.01e-01	0	44	0	447217664	22	5292
2026-01-18 02:44:30.86	337.98	41.23	-31.2	-34.5	18.2	6.02e-01	0	43	0	452984832	23	5286
2026-01-18 02:44:33.87	336.64	41.86	-30.7	-33.2	19.0	6.01e-01	0	44	0	458227712	23	4812
2026-01-18 02:44:36.86	335.25	42.47	-31.0	-34.2	18.5	5.99e-01	0	44	0	463994880	23	5152
2026-01-18 02:44:39.87	333.80	43.09	-30.8	-33.4	19.0	6.01e-01	0	43	0	469762048	23	4890
2026-01-18 02:44:42.88	332.29	43.69	-31.1	-34.3	18.4	6.00e-01	0	44	0	475529216	23	5226
2026-01-18 02:44:45.88	330.72	44.28	-31.0	-34.7	18.5	5.99e-01	0	43	0	480772096	22	5461
2026-01-18 02:44:48.88	329.10	44.85	-31.1	-34.4	18.4	6.03e-01	0	44	0	486539264	23	5249
2026-01-18 02:44:51.89	327.41	45.40	-31.2	-34.5	18.3	6.01e-01	0	43	0	492306432	23	5291
2026-01-18 02:44:54.90	325.66	45.94	-31.2	-34.7	18.3	6.02e-01	0	44	0	498073600	23	5341
2026-01-18 02:44:57.92	323.85	46.45	-31.1	-34.7	18.6	6.00e-01	0	44	0	503316480	22	5459
2026-01-18 02:45:00.93	321.98	46.94	-31.2	-34.6	18.3	6.02e-01	0	44	0	509083648	23	5328
2026-01-18 02:45:03.94	320.05	47.40	-31.2	-34.6	18.3	6.00e-01	0	44	0	514850816	23	5312
2026-01-18 02:45:06.95	318.07	47.83	-31.3	-34.8	18.1	6.01e-01	0	44	0	520617984	23	5404
2026-01-18 02:45:09.96	316.03	48.22	-31.1	-34.2	18.6	6.02e-01	0	43	0	526385152	23	5188
2026-01-18 02:45:12.97	313.94	48.57	-30.7	-33.1	19.2	6.01e-01	0	44	0	531628032	23	4769
2026-01-18 02:45:15.97	311.81	48.89	-30.7	-33.3	19.1	6.01e-01	0	44	0	537395200	23	4826
2026-01-18 02:45:18.98	309.63	49.17	-30.9	-33.8	18.9	6.01e-01	0	44	0	543162368	23	4999
2026-01-18 02:45:21.99	307.41	49.40	-30.7	-33.3	19.2	5.97e-01	0	44	0	548405248	23	4843
2026-01-18 02:45:24.99	305.18	49.59	-30.6	-33.1	19.3	6.01e-01	0	44	0	554172416	23	4754
2026-01-18 02:45:28.00	302.90	49.73	-30.7	-33.2	19.2	5.98e-01	0	44	0	559939584	23	4796
2026-01-18 02:45:31.00	300.62	49.82	-30.5	-33.2	19.4	6.00e-01	0	44	0	565706752	22	4927
2026-01-18 02:45:34.01	298.32	49.87	-31.2	-34.7	18.4	6.01e-01	0	43	0	571473920	23	5363
2026-01-18 02:45:37.03	296.01	49.87	-30.5	-33.3	19.2	5.99e-01	0	44	0	576716800	22	4968
2026-01-18 02:45:40.03	293.71	49.81	-30.6	-33.1	19.3	6.00e-01	0	44	0	582483968	23	4767
2026-01-18 02:45:43.04	291.42	49.71	-31.3	-35.0	18.2	6.03e-01	0	44	0	588251136	23	5501
2026-01-18 02:45:46.04	289.16	49.57	-31.2	-34.8	18.1	6.02e-01	0	44	0	593494016	23	5438
2026-01-18 02:45:49.05	286.92	49.37	-31.4	-35.2	18.0	6.00e-01	0	44	0	599261184	23	5616
2026-01-18 02:45:52.06	284.70	49.13	-30.9	-34.3	18.8	6.02e-01	0	44	0	605028352	22	5349
2026-01-18 02:45:55.07	282.53	48.85	-30.6	-33.0	19.4	6.02e-01	0	44	0	610795520	23	4733
2026-01-18 02:45:58.06	280.41	48.53	-31.2	-34.6	18.1	6.00e-01	0	44	0	616562688	23	5330
2026-01-18 02:46:01.07	278.32	48.17	-30.2	-32.4	20.0	6.02e-01	0	44	0	621805568	22	4655
2026-01-18 02:46:04.08	276.29	47.77	-30.8	-34.2	18.7	6.00e-01	0	44	0	627572736	22	5305
2026-01-18 02:46:07.09	274.31	47.34	-30.0	-32.6	19.9	6.01e-01	0	44	0	633339904	21	4822
2026-01-18 02:46:10.08	272.40	46.88	-30.6	-33.4	19.2	5.99e-01	0	44	0	638582784	22	4990
2026-01-18 02:46:13.09	270.53	46.38	-30.7	-33.7	19.0	5.97e-01	0	44	0	644349952	22	5108
2026-01-18 02:46:16.10	268.73	45.87	-29.8	-32.0	20.4	6.02e-01	0	43	0	650117120	21	4636
2026-01-18 02:46:19.11	266.98	45.33	-30.0	-32.5	20.1	6.04e-01	0	44	0	655884288	21	4788
2026-01-18 02:46:22.12	265.30	44.77	-29.7	-32.2	20.6	6.03e-01	0	44	0	661651456	20	4827
2026-01-18 02:46:25.13	263.67	44.19	-29.9	-32.8	20.2	6.01e-01	0	43	0	666894336	20	5011
2026-01-18 02:46:28.13	262.11	43.60	-29.8	-32.1	20.3	6.02e-01	0	44	0	672661504	21	4671
2026-01-18 02:46:31.14	260.61	42.99	-29.6	-32.0	20.7	6.01e-01	0	44	0	678428672	20	4758
2026-01-18 02:46:34.14	259.16	42.38	-29.9	-32.8	20.2	6.00e-01	0	44	0	683671552	20	5009
2026-01-18 02:46:37.13	257.78	41.76	-30.1	-33.3	19.9	6.00e-01	0	44	0	689438720	20	5195
2026-01-18 02:46:40.15	256.44	41.12	-30.1	-32.7	19.9	5.99e-01	0	44	0	695205888	21	4882
2026-01-18 02:46:43.16	255.15	40.49	-30.7	-33.9	18.8	5.99e-01	0	44	0	700973056	22	5218
2026-01-18 02:46:46.16	253.92	39.85	-30.2	-33.0	19.7	6.02e-01	0	44	0	706740224	21	4979
2026-01-18 02:46:49.16	252.74	39.21	-30.4	-33.0	19.4	6.03e-01	0	44	0	711983104	22	4877
2026-01-18 02:46:52.17	251.60	38.56	-30.8	-34.3	18.6	6.01e-01	0	44	0	717750272	22	5339
2026-01-18 02:46:55.18	250.50	37.92	-31.1	-34.9	18.2	6.01e-01	0	44	0	723517440	22	5593
2026-01-18 02:46:58.20	249.45	37.28	-31.1	-34.5	18.1	6.01e-01	0	43	0	729284608	23	5315
2026-01-18 02:47:01.21	248.44	36.64	-30.8	-33.5	18.7	6.03e-01	0	44	0	734527488	23	4958
2026-01-18 02:47:04.22	247.47	36.00	-30.3	-32.9	19.3	6.01e-01	0	44	0	740294656	22	4857
2026-01-18 02:47:07.23	246.54	35.37	-30.7	-33.8	18.8	5.99e-01	0	44	0	746061824	22	5182
2026-01-18 02:47:10.24	245.64	34.75	-30.3	-33.0	19.3	5.99e-01	0	44	0	751828992	22	4882
2026-01-18 02:47:13.26	244.78	34.13	-29.9	-32.2	20.0	6.01e-01	0	44	0	757596160	21	4724
2026-01-18 02:47:16.27	243.95	33.51	-29.6	-32.0	20.3	6.02e-01	0	44	0	762839040	20	4767
2026-01-18 02:47:19.28	243.15	32.90	-30.0	-33.1	19.8	6.03e-01	0	43	0	768606208	20	5143
2026-01-18 02:47:22.28	242.39	32.31	-29.8	-32.6	20.0	6.01e-01	0	44	0	774373376	20	4988
2026-01-18 02:47:25.29	241.65	31.71	-29.3	-31.3	20.7	6.03e-01	0	44	0	779616256	20	4560
2026-01-18 02:47:28.31	240.94	31.12	-29.8	-32.7	20.0	6.01e-01	0	44	0	785383424	20	5022
2026-01-18 02:47:31.32	240.25	30.55	-29.4	-32.0	20.7	6.00e-01	0	44	0	791150592	19	4884
2026-01-18 02:47:34.33	239.60	29.98	-29.5	-32.3	20.5	6.01e-01	0	44	0	796917760	19	4985
2026-01-18 02:47:37.35	238.96	29.41	-29.6	-32.0	20.2	5.99e-01	0	44	0	802684928	20	4786
2026-01-18 02:47:40.36	238.34	28.86	-29.6	-32.1	20.3	6.00e-01	0	44	0	807927808	20	4823
2026-01-18 02:47:43.37	237.75	28.31	-29.8	-32.6	19.9	6.01e-01	0	44	0	813694976	20	4999
2026-01-18 02:47:46.38	237.18	27.77	-29.6	-32.2	20.2	6.00e-01	0	44	0	819462144	20	4858
2026-01-18 02:47:49.38	236.63	27.25	-30.1	-32.9	19.4	6.03e-01	0	44	0	825229312	21	4980
2026-01-18 02:47:52.40	236.10	26.72	-29.6	-31.7	20.1	6.03e-01	0	44	0	830996480	21	4587
2026-01-18 02:47:55.41	235.58	26.21	-30.0	-32.6	19.6	6.00e-01	0	44	0	836239360	21	4887
2026-01-18 02:47:58.41	235.09	25.70	-29.8	-32.7	19.8	5.99e-01	0	44	0	842006528	20	5043
2026-01-18 02:48:01.42	234.61	25.21	-30.0	-33.3	19.5	5.99e-01	0	44	0	847773696	20	5227
2026-01-18 02:48:04.43	234.14	24.72	-30.4	-33.8	18.9	6.02e-01	0	44	0	853016576	21	5316
2026-01-18 02:48:07.43	233.69	24.24	-30.4	-33.7	18.8	6.03e-01	0	44	0	858783744	21	5295
2026-01-18 02:48:10.43	233.26	23.76	-30.0	-33.3	19.4	6.01e-01	0	44	0	864550912	20	5248
2026-01-18 02:48:13.44	232.84	23.30	-30.3	-33.5	19.0	6.00e-01	0	44	0	870318080	21	5226
2026-01-18 02:48:16.45	232.43	22.84	-30.0	-33.4	19.3	6.00e-01	0	44	0	876085248	20	5318
2026-01-18 02:48:19.45	232.03	22.39	-30.1	-33.2	19.1	6.01e-01	0	44	0	881328128	21	5146
2026-01-18 02:48:22.45	231.65	21.94	-29.8	-32.7	19.7	6.01e-01	0	44	0	887095296	20	5064
2026-01-18 02:48:25.47	231.27	21.50	-29.9	-33.1	19.4	5.98e-01	0	44	0	892862464	20	5210
2026-01-18 02:48:28.48	230.91	21.07	-29.9	-33.2	19.3	6.03e-01	0	44	0	898105344	20	5229
2026-01-18 02:48:31.49	230.56	20.65	-29.9	-33.2	19.2	5.97e-01	0	44	0	903872512	20	5263
2026-01-18 02:48:34.50	230.22	20.23	-29.9	-33.0	19.4	5.97e-01	0	44	0	909639680	20	5186
2026-01-18 02:48:37.51	229.89	19.82	-29.9	-33.3	19.3	6.01e-01	0	44	0	915406848	20	5291
2026-01-18 02:48:40.51	229.57	19.42	-29.8	-33.0	19.4	5.99e-01	0	44	0	921174016	20	5176
2026-01-18 02:48:43.52	229.25	19.02	-29.9	-33.1	19.4	6.00e-01	0	44	0	926416896	20	5200
2026-01-18 02:48:46.52	228.95	18.63	-29.9	-33.1	19.3	5.99e-01	0	44	0	932184064	20	5200
2026-01-18 02:48:49.53	228.65	18.24	-29.8	-32.8	19.5	6.02e-01	0	44	0	937951232	20	5109
2026-01-18 02:48:52.54	228.36	17.86	-29.7	-32.7	19.5	6.05e-01	0	44	0	943718400	20	5072
2026-01-18 02:48:55.55	228.08	17.48	-30.0	-33.4	19.1	6.01e-01	0	44	0	948961280	20	5329
2026-01-18 02:48:58.55	227.81	17.11	-30.4	-34.1	18.2	6.02e-01	0	44	0	954728448	21	5494
2026-01-18 02:49:01.55	227.55	16.75	-30.0	-32.9	19.0	6.03e-01	0	44	0	960495616	21	5031
2026-01-18 02:49:04.56	227.29	16.39	-29.7	-32.3	19.3	6.02e-01	0	44	0	966262784	21	4846
2026-01-18 02:49:07.57	227.03	16.04	-29.7	-32.3	19.3	5.98e-01	0	44	0	971505664	21	4831
2026-01-18 02:49:10.58	226.79	15.69	-29.8	-33.1	19.1	5.97e-01	0	44	0	977272832	20	5220
2026-01-18 02:49:13.58	226.55	15.35	-29.7	-32.8	19.3	6.02e-01	0	44	0	983040000	20	5121
2026-01-18 02:49:16.59	226.32	15.01	-29.8	-32.9	19.2	6.00e-01	0	44	0	988282880	20	5148
2026-01-18 02:49:19.60	226.09	14.67	-29.8	-33.0	19.1	6.02e-01	0	44	0	994050048	20	5202
2026-01-18 02:49:22.61	225.86	14.34	-29.8	-33.0	19.1	5.99e-01	0	43	0	999817216	20	5208
2026-01-18 02:49:25.62	225.65	14.02	-29.8	-33.2	19.0	6.02e-01	0	44	0	1005584384	20	5266
2026-01-18 02:49:28.64	225.43	13.70	-30.0	-33.7	18.7	6.03e-01	0	44	0	1011351552	20	5473
2026-01-18 02:49:31.65	225.23	13.38	-30.0	-33.2	18.6	6.02e-01	0	44	0	1016594432	21	5173
2026-01-18 02:49:34.65	225.03	13.07	-30.1	-33.4	18.5	6.01e-01	0	44	0	1022361600	21	5271
2026-01-18 02:49:37.65	224.83	12.76	-30.2	-33.8	18.2	6.01e-01	0	44	0	1028128768	21	5399
2026-01-18 02:49:40.67	224.64	12.46	-30.3	-33.3	18.1	5.99e-01	0	44	0	1033895936	22	5131
2026-01-18 02:49:43.68	224.45	12.16	-30.1	-33.0	18.4	5.98e-01	0	44	0	1039138816	22	4997
2026-01-18 02:49:46.69	224.26	11.86	-30.2	-33.2	18.2	6.02e-01	0	44	0	1044905984	22	5080
2026-01-18 02:49:49.70	224.08	11.56	-29.9	-32.8	18.7	6.02e-01	0	44	0	1050673152	21	5058
2026-01-18 02:49:52.71	223.91	11.28	-29.8	-32.7	18.8	6.03e-01	0	44	0	1056440320	21	5003
2026-01-18 02:49:55.72	223.73	10.99	-29.9	-33.0	18.5	5.99e-01	0	44	0	1061683200	21	5120
2026-01-18 02:49:58.73	223.57	10.71	-30.2	-33.7	18.0	6.00e-01	0	44	0	1067450368	21	5387
2026-01-18 02:50:01.74	223.40	10.43	-30.1	-33.6	18.1	6.01e-01	0	44	0	1073217536	21	5354
2026-01-18 02:50:04.75	223.24	10.15	-30.5	-34.6	17.4	6.02e-01	0	44	0	1078984704	21	5792
2026-01-18 02:50:07.76	223.08	9.88	-30.4	-33.9	17.5	6.01e-01	0	44	0	1084751872	22	5394
2026-01-18 02:50:10.77	222.93	9.61	-30.3	-34.1	17.8	6.03e-01	0	44	0	1089994752	21	5567
2026-01-18 02:50:13.77	222.77	9.34	-30.4	-34.4	17.5	6.02e-01	0	44	0	1095761920	21	5722
2026-01-18 02:50:16.79	222.63	9.08	-30.2	-33.9	17.8	6.00e-01	0	44	0	1101529088	21	5501
2026-01-18 02:50:19.80	222.48	8.82	-30.2	-34.0	17.6	6.01e-01	0	44	0	1107296256	21	5552
2026-01-18 02:50:22.81	222.34	8.56	-30.6	-35.0	17.1	6.02e-01	0	44	0	1112539136	21	6002
2026-01-18 02:50:25.82	222.20	8.30	-30.7	-34.8	16.6	6.00e-01	0	44	0	1118306304	22	5824
2026-01-18 02:50:28.83	222.06	8.05	-30.7	-35.1	16.4	5.99e-01	0	44	0	1124073472	22	5955
2026-01-18 02:50:31.83	221.93	7.80	-30.8	-35.3	16.4	6.01e-01	0	44	0	1129840640	22	6048
2026-01-18 02:50:34.84	221.80	7.55	-30.8	-35.0	16.1	6.00e-01	0	44	0	1135083520	23	5789
2026-01-18 02:50:37.85	221.67	7.31	-31.0	-36.1	15.6	6.03e-01	0	44	0	1140850688	22	6498
2026-01-18 02:50:40.85	221.54	7.07	-33.3	-50.7	3.9	7.44e-01	0	44	104	1146093568	27	26744

#Closed at: 2026-01-18 02:50:43
#Recorded file [1146 MB]: D:/data/31010_260118_054029.dat