passes_logs/2026/01/18/R2M6_AANII_01/R2M6_AANII_01__20260118_233018_NOAA_21_JPSS-2_rec.log

#Pass ID: 20260118_233018_NOAA 21 (JPSS-2)
#Satellite: NOAA 21 (JPSS-2)
#Configuration: NOAA 21
#almurnet v.1.7.20240730
#Start time: 2026-01-18 23:30:19

#Version: 2.2.20231116
#Station: R2M6_AANII_01
#Location: 30.233357 lon 59.946436 lat
#TLE: 1 54234U 22150A   26017.90260625  .00000050  00000+0  44518-4 0  9994
#TLE: 2 54234  98.7502 318.7672 0000612 269.1755  90.9351 14.19535344165221

#Time	Az	El	Level	Level2	SNR	BER	BlckErr	Temp	State	Recorded	gain1	gain2
2026-01-18 23:30:19.92	23.22	7.09	-30.3	-35.1	4.7	1.38e+00	0	41	0	0	20	6219
2026-01-18 23:30:22.93	23.37	7.32	-31.3	-36.7	7.0	1.23e-01	0	42	0	3145728	22	6717
2026-01-18 23:30:25.93	23.52	7.54	-30.8	-35.2	8.5	4.53e-02	0	42	0	12582912	21	5991
2026-01-18 23:30:28.92	23.68	7.76	-30.4	-34.4	9.5	1.57e-02	0	42	0	22020096	20	5710
2026-01-18 23:30:31.92	23.84	7.99	-30.8	-34.6	8.6	5.10e-02	0	42	0	30408704	22	5604
2026-01-18 23:30:34.93	24.00	8.21	-30.1	-33.5	10.1	8.45e-03	0	42	0	39845888	20	5333
2026-01-18 23:30:37.93	24.16	8.44	-29.7	-32.8	11.0	2.49e-03	0	42	0	49283072	19	5158
2026-01-18 23:30:40.94	24.33	8.68	-29.3	-32.4	11.6	5.02e-04	0	42	0	58720256	18	5104
2026-01-18 23:30:43.94	24.50	8.91	-29.3	-31.7	11.8	7.35e-04	0	42	0	68157440	19	4764
2026-01-18 23:30:46.95	24.67	9.15	-29.4	-32.5	11.6	5.26e-04	0	42	0	77594624	18	5149
2026-01-18 23:30:49.97	24.85	9.38	-29.2	-32.0	11.9	3.11e-04	0	42	0	87031808	18	4971
2026-01-18 23:30:52.98	25.02	9.62	-29.0	-31.6	12.2	8.52e-04	0	42	0	96468992	18	4814
2026-01-18 23:30:56.00	25.20	9.87	-28.7	-31.2	12.8	7.70e-05	0	42	0	105906176	17	4808
2026-01-18 23:30:59.01	25.39	10.11	-28.5	-30.8	13.1	4.27e-05	0	43	0	115343360	17	4665
2026-01-18 23:31:02.01	25.57	10.36	-28.7	-31.2	12.8	4.42e-05	0	43	0	124780544	17	4801
2026-01-18 23:31:05.03	25.76	10.61	-28.8	-31.5	12.7	8.89e-04	0	43	0	134217728	17	4881
2026-01-18 23:31:08.04	25.95	10.86	-28.3	-30.2	13.4	9.24e-04	0	43	0	143654912	17	4480
2026-01-18 23:31:11.06	26.15	11.11	-28.3	-30.7	13.4	2.05e-05	0	43	0	153092096	16	4753
2026-01-18 23:31:14.07	26.34	11.37	-27.8	-29.9	14.1	1.42e-03	0	43	0	162529280	15	4619
2026-01-18 23:31:17.09	26.55	11.63	-27.8	-30.0	14.1	1.55e-03	0	43	0	171966464	15	4643
2026-01-18 23:31:20.10	26.75	11.89	-28.1	-30.1	13.9	1.85e-03	0	43	0	181403648	16	4551
2026-01-18 23:31:23.12	26.96	12.16	-27.8	-30.0	14.1	7.00e-07	0	43	0	190840832	15	4649
2026-01-18 23:31:26.13	27.17	12.42	-27.6	-29.4	14.4	1.72e-03	0	43	0	200278016	15	4467
2026-01-18 23:31:29.14	27.38	12.69	-27.5	-29.3	14.5	1.51e-03	0	43	0	209715200	15	4412
2026-01-18 23:31:32.15	27.60	12.96	-27.7	-29.8	14.2	5.75e-04	0	43	0	219152384	15	4586
2026-01-18 23:31:35.17	27.83	13.24	-27.8	-30.0	14.1	4.50e-06	0	43	0	228589568	15	4645
2026-01-18 23:31:38.17	28.05	13.51	-28.2	-30.4	13.8	5.30e-06	0	43	0	238026752	16	4634
2026-01-18 23:31:41.18	28.28	13.79	-27.4	-29.0	14.7	1.19e-03	0	43	0	247463936	15	4347
2026-01-18 23:31:44.20	28.52	14.08	-27.3	-29.4	14.9	0.00e+00	0	43	0	256901120	14	4563
2026-01-18 23:31:47.21	28.76	14.36	-27.4	-29.5	14.8	0.00e+00	0	43	0	266338304	14	4582
2026-01-18 23:31:50.22	29.00	14.65	-27.5	-29.7	14.7	0.00e+00	0	43	0	275775488	14	4658
2026-01-18 23:31:53.23	29.25	14.94	-27.6	-29.5	14.6	7.00e-07	0	43	0	285212672	15	4470
2026-01-18 23:31:56.24	29.50	15.23	-27.7	-29.6	14.5	0.00e+00	0	43	0	294649856	15	4511
2026-01-18 23:31:59.25	29.75	15.53	-27.5	-29.3	14.7	0.00e+00	0	43	0	304087040	15	4424
2026-01-18 23:32:02.27	30.02	15.83	-27.6	-29.4	14.6	7.00e-07	0	43	0	313524224	15	4455
2026-01-18 23:32:05.27	30.28	16.14	-27.8	-29.9	14.4	7.00e-07	0	43	0	322961408	15	4599
2026-01-18 23:32:08.26	30.55	16.44	-27.8	-30.0	14.3	7.00e-07	0	43	0	331350016	15	4634
2026-01-18 23:32:11.27	30.83	16.75	-27.9	-30.2	14.3	3.00e-06	0	43	0	341835776	15	4671
2026-01-18 23:32:14.28	31.11	17.07	-27.9	-30.2	14.3	1.50e-06	0	43	0	350224384	15	4675
2026-01-18 23:32:17.29	31.40	17.38	-28.2	-30.4	14.1	7.00e-07	0	44	0	359661568	16	4609
2026-01-18 23:32:20.30	31.70	17.70	-28.3	-30.6	13.9	5.30e-06	0	43	0	369098752	16	4669
2026-01-18 23:32:23.32	32.00	18.03	-28.1	-30.2	14.2	1.50e-06	0	43	0	378535936	16	4542
2026-01-18 23:32:26.33	32.31	18.36	-27.9	-30.1	14.4	1.98e-04	0	43	0	387973120	15	4651
2026-01-18 23:32:29.33	32.62	18.69	-27.8	-30.0	14.4	0.00e+00	0	43	0	397410304	15	4622
2026-01-18 23:32:32.35	32.94	19.03	-27.9	-30.2	14.3	3.80e-06	0	43	0	406847488	15	4679
2026-01-18 23:32:35.36	33.27	19.36	-27.7	-29.6	14.7	7.00e-07	0	43	0	416284672	15	4498
2026-01-18 23:32:38.37	33.60	19.71	-27.5	-29.2	14.9	1.22e-05	0	43	0	425721856	15	4369
2026-01-18 23:32:41.38	33.94	20.05	-27.3	-28.7	15.2	3.00e-04	0	43	0	435159040	15	4227
2026-01-18 23:32:44.40	34.29	20.41	-27.1	-28.8	15.5	1.22e-03	0	43	0	444596224	14	4363
2026-01-18 23:32:47.40	34.65	20.76	-27.2	-29.0	15.4	1.29e-03	0	44	0	454033408	14	4415
2026-01-18 23:32:50.42	35.01	21.12	-26.7	-27.9	16.0	0.00e+00	0	43	0	463470592	14	4126
2026-01-18 23:32:53.42	35.38	21.48	-26.6	-28.2	16.0	5.06e-04	0	44	0	472907776	13	4322
2026-01-18 23:32:56.43	35.77	21.85	-26.5	-27.9	16.3	0.00e+00	0	44	0	482344960	13	4234
2026-01-18 23:32:59.44	36.16	22.22	-26.5	-28.0	16.2	1.09e-03	0	44	0	491782144	13	4263
2026-01-18 23:33:02.44	36.55	22.59	-26.3	-27.5	16.5	1.25e-03	0	44	0	501219328	13	4125
2026-01-18 23:33:05.45	36.96	22.97	-26.3	-27.9	16.5	1.05e-03	0	44	0	510656512	12	4344
2026-01-18 23:33:08.47	37.38	23.36	-26.2	-27.8	16.6	7.35e-04	0	44	0	520093696	12	4324
2026-01-18 23:33:11.48	37.81	23.74	-26.3	-28.1	16.5	0.00e+00	0	44	0	529530880	12	4387
2026-01-18 23:33:14.49	38.25	24.14	-26.5	-28.0	16.3	3.55e-04	0	43	0	538968064	13	4258
2026-01-18 23:33:17.49	38.70	24.53	-26.7	-28.3	16.1	0.00e+00	0	44	0	548405248	13	4336
2026-01-18 23:33:20.50	39.16	24.93	-27.0	-28.9	15.8	0.00e+00	0	43	0	557842432	13	4519
2026-01-18 23:33:23.52	39.63	25.34	-27.1	-28.8	15.6	0.00e+00	0	44	0	567279616	14	4358
2026-01-18 23:33:26.53	40.12	25.75	-27.3	-29.2	15.4	0.00e+00	0	44	0	576716800	14	4488
2026-01-18 23:33:29.54	40.62	26.16	-27.2	-28.5	15.6	0.00e+00	0	44	0	586153984	15	4159
2026-01-18 23:33:32.55	41.13	26.58	-27.2	-28.3	15.6	0.00e+00	0	44	0	595591168	15	4123
2026-01-18 23:33:35.56	41.65	27.00	-27.2	-28.4	15.6	0.00e+00	0	44	0	605028352	15	4154
2026-01-18 23:33:38.57	42.19	27.42	-27.4	-28.9	15.4	0.00e+00	0	44	0	614465536	15	4272
2026-01-18 23:33:41.59	42.74	27.85	-27.5	-29.2	15.2	0.00e+00	0	44	0	623902720	15	4347
2026-01-18 23:33:44.60	43.30	28.29	-27.6	-29.4	15.1	0.00e+00	0	44	0	633339904	15	4409
2026-01-18 23:33:47.61	43.89	28.73	-27.5	-29.1	15.3	7.00e-07	0	44	0	642777088	15	4341
2026-01-18 23:33:50.63	44.48	29.17	-27.4	-29.0	15.4	0.00e+00	0	44	0	652214272	15	4297
2026-01-18 23:33:53.63	45.10	29.61	-27.4	-28.8	15.4	0.00e+00	0	44	0	661651456	15	4254
2026-01-18 23:33:56.65	45.73	30.06	-27.5	-29.1	15.3	0.00e+00	0	44	0	671088640	15	4317
2026-01-18 23:33:59.66	46.38	30.51	-27.4	-29.0	15.4	0.00e+00	0	44	0	679477248	15	4289
2026-01-18 23:34:02.66	47.04	30.97	-27.7	-29.5	15.1	0.00e+00	0	44	0	688914432	15	4441
2026-01-18 23:34:05.67	47.72	31.42	-28.2	-30.2	14.6	0.00e+00	0	44	0	698351616	16	4541
2026-01-18 23:34:08.68	48.43	31.88	-28.3	-29.9	14.4	7.00e-07	0	44	0	707788800	17	4344
2026-01-18 23:34:11.69	49.15	32.35	-28.4	-30.1	14.3	0.00e+00	0	44	0	717225984	17	4398
2026-01-18 23:34:14.70	49.89	32.81	-28.6	-30.5	14.1	1.50e-06	0	44	0	726663168	17	4517
2026-01-18 23:34:17.71	50.66	33.28	-28.3	-30.0	14.5	1.50e-06	0	44	0	736100352	17	4349
2026-01-18 23:34:20.72	51.45	33.75	-28.2	-29.7	14.6	0.00e+00	0	44	0	745537536	17	4277
2026-01-18 23:34:23.73	52.26	34.22	-28.5	-30.3	14.3	3.67e-04	0	44	0	754974720	17	4431
2026-01-18 23:34:26.74	53.09	34.69	-28.4	-30.6	14.4	7.00e-07	0	44	0	764411904	16	4630
2026-01-18 23:34:29.75	53.95	35.16	-28.7	-30.9	13.9	1.50e-06	0	44	0	773849088	17	4627
2026-01-18 23:34:32.76	54.83	35.63	-29.0	-30.9	13.7	3.97e-04	0	44	0	783286272	18	4520
2026-01-18 23:34:35.77	55.74	36.10	-28.9	-30.9	13.7	2.07e-04	0	44	0	792723456	18	4501
2026-01-18 23:34:38.78	56.67	36.57	-28.7	-30.4	14.0	6.18e-04	0	44	0	802160640	18	4352
2026-01-18 23:34:41.78	57.63	37.04	-29.0	-31.1	13.6	9.10e-06	0	44	0	811597824	18	4557
2026-01-18 23:34:44.80	58.62	37.50	-28.9	-30.8	13.8	4.45e-04	0	44	0	821035008	18	4484
2026-01-18 23:34:47.81	59.64	37.96	-28.8	-30.6	13.9	2.59e-04	0	44	0	830472192	18	4422
2026-01-18 23:34:50.83	60.68	38.42	-28.7	-30.3	14.0	2.55e-04	0	44	0	839909376	18	4344
2026-01-18 23:34:53.83	61.75	38.87	-28.9	-30.7	13.9	1.56e-04	0	44	0	849346560	18	4438
2026-01-18 23:34:56.85	62.86	39.32	-28.9	-30.9	13.8	2.23e-04	0	44	0	858783744	18	4492
2026-01-18 23:34:59.87	64.00	39.77	-29.1	-31.1	13.6	1.05e-04	0	44	0	868220928	18	4578
2026-01-18 23:35:02.89	65.17	40.20	-29.1	-31.3	13.6	1.06e-05	0	44	0	877658112	18	4617
2026-01-18 23:35:05.90	66.37	40.63	-29.7	-32.2	12.7	1.19e-04	0	44	0	887095296	19	4806
2026-01-18 23:35:08.89	67.59	41.04	-29.5	-31.7	13.0	3.05e-05	0	44	0	896532480	19	4637
2026-01-18 23:35:11.90	68.84	41.45	-29.5	-31.7	13.0	3.43e-05	0	44	0	905969664	19	4645
2026-01-18 23:35:14.91	70.13	41.85	-29.7	-32.3	12.7	8.08e-05	0	44	0	915406848	19	4821
2026-01-18 23:35:17.91	71.45	42.23	-29.9	-32.7	12.4	1.87e-04	0	44	0	924844032	19	4986
2026-01-18 23:35:20.93	72.81	42.60	-30.0	-32.6	12.1	2.71e-04	0	44	0	934281216	20	4835
2026-01-18 23:35:23.95	74.20	42.96	-29.7	-31.8	12.6	1.70e-04	0	44	0	943718400	20	4579
2026-01-18 23:35:26.97	75.62	43.30	-29.6	-31.6	12.8	7.09e-05	0	44	0	953155584	20	4508
2026-01-18 23:35:29.97	77.05	43.63	-29.3	-31.2	13.4	7.60e-06	0	44	0	962592768	19	4471
2026-01-18 23:35:32.99	78.53	43.94	-29.9	-32.7	12.4	1.62e-04	0	44	0	972029952	19	4980
2026-01-18 23:35:36.01	80.04	44.22	-29.7	-32.2	12.7	4.57e-05	0	44	0	981467136	19	4800
2026-01-18 23:35:39.02	81.56	44.49	-30.2	-33.0	11.9	4.26e-04	0	44	0	990904320	20	4971
2026-01-18 23:35:42.02	83.11	44.74	-30.2	-32.9	11.9	3.19e-04	0	44	0	999292928	20	4932
2026-01-18 23:35:45.02	84.68	44.97	-30.2	-33.0	11.9	4.86e-04	0	44	0	1009778688	20	4977
2026-01-18 23:35:48.03	86.27	45.17	-30.0	-32.5	12.2	2.98e-04	0	44	0	1019215872	20	4798
2026-01-18 23:35:51.05	87.89	45.35	-29.9	-32.2	12.4	1.70e-04	0	44	0	1027604480	20	4689
2026-01-18 23:35:54.07	89.53	45.51	-29.4	-31.1	13.1	2.82e-05	0	44	0	1038090240	20	4345
2026-01-18 23:35:57.08	91.18	45.64	-29.6	-31.9	12.9	3.43e-05	0	44	0	1046478848	19	4710
2026-01-18 23:36:00.07	92.83	45.75	-29.6	-32.1	12.9	6.40e-05	0	44	0	1055916032	19	4753
2026-01-18 23:36:03.07	94.49	45.83	-29.6	-31.9	13.0	4.11e-05	0	44	0	1065353216	19	4700
2026-01-18 23:36:06.09	96.17	45.88	-29.3	-31.3	13.3	3.66e-05	0	44	0	1074790400	19	4515
2026-01-18 23:36:09.10	97.85	45.91	-29.4	-31.6	13.1	3.43e-05	0	44	0	1084227584	19	4595
2026-01-18 23:36:12.10	99.53	45.91	-29.7	-32.2	12.8	5.34e-05	0	44	0	1093664768	19	4800
2026-01-18 23:36:15.10	101.21	45.89	-29.4	-31.5	13.2	4.11e-05	0	44	0	1103101952	19	4562
2026-01-18 23:36:18.11	102.89	45.84	-29.6	-31.9	12.9	4.65e-05	0	44	0	1112539136	19	4703
2026-01-18 23:36:21.11	104.55	45.76	-29.5	-31.8	13.1	3.96e-05	0	44	0	1121976320	19	4656
2026-01-18 23:36:24.12	106.21	45.65	-29.5	-31.7	13.2	2.59e-05	0	44	0	1131413504	19	4631
2026-01-18 23:36:27.14	107.87	45.52	-29.3	-31.3	13.4	2.28e-05	0	44	0	1140850688	19	4500
2026-01-18 23:36:30.16	109.51	45.37	-29.2	-31.0	13.5	7.60e-06	0	44	0	1150287872	19	4414
2026-01-18 23:36:33.15	111.12	45.19	-29.6	-32.0	12.9	4.27e-05	0	44	0	1159725056	19	4738
2026-01-18 23:36:36.16	112.72	44.99	-29.4	-31.5	13.2	2.59e-05	0	44	0	1169162240	19	4579
2026-01-18 23:36:39.17	114.30	44.77	-29.9	-32.6	12.6	1.15e-04	0	44	0	1178599424	19	4930
2026-01-18 23:36:42.17	115.85	44.52	-29.5	-31.7	13.1	4.19e-05	0	44	0	1188036608	19	4637
2026-01-18 23:36:45.18	117.38	44.25	-28.9	-30.8	14.0	2.20e-06	0	44	0	1197473792	18	4462
2026-01-18 23:36:48.19	118.89	43.96	-29.5	-31.6	13.2	2.67e-05	0	44	0	1206910976	19	4613
2026-01-18 23:36:51.20	120.36	43.66	-29.2	-31.0	13.5	6.80e-06	0	44	0	1216348160	19	4428
2026-01-18 23:36:54.22	121.82	43.33	-29.7	-32.2	12.9	5.03e-05	0	44	0	1225785344	19	4781
2026-01-18 23:36:57.23	123.24	42.99	-29.4	-31.0	13.1	3.73e-05	0	44	0	1235222528	20	4331
2026-01-18 23:37:00.23	124.62	42.64	-29.4	-30.9	13.2	2.13e-05	0	44	0	1244659712	20	4280
2026-01-18 23:37:03.24	125.98	42.27	-29.8	-32.4	12.7	6.25e-05	0	44	0	1254096896	19	4856
2026-01-18 23:37:06.26	127.32	41.88	-29.6	-32.0	12.9	3.89e-05	0	44	0	1263534080	19	4739
2026-01-18 23:37:09.25	128.61	41.49	-29.2	-30.8	13.6	7.60e-06	0	44	0	1272971264	19	4370
2026-01-18 23:37:12.27	129.88	41.08	-29.4	-31.5	13.2	2.89e-05	0	44	0	1282408448	19	4573
2026-01-18 23:37:15.28	131.11	40.66	-29.4	-31.5	13.2	2.89e-05	0	44	0	1291845632	19	4582
2026-01-18 23:37:18.28	132.31	40.23	-29.6	-32.0	12.9	3.20e-05	0	44	0	1300234240	19	4754
2026-01-18 23:37:21.28	133.48	39.80	-29.7	-32.1	12.9	6.17e-05	0	44	0	1309671424	19	4794
2026-01-18 23:37:24.28	134.61	39.36	-29.5	-31.8	13.0	3.35e-05	0	44	0	1319108608	19	4680
2026-01-18 23:37:27.28	135.72	38.91	-29.5	-31.6	13.1	2.59e-05	0	44	0	1328545792	19	4621
2026-01-18 23:37:30.29	136.80	38.45	-29.6	-32.0	12.9	4.34e-05	0	44	0	1337982976	19	4733
2026-01-18 23:37:33.31	137.86	37.99	-29.2	-31.0	13.5	1.83e-05	0	44	0	1347420160	19	4439
2026-01-18 23:37:36.32	138.88	37.53	-29.0	-31.0	13.8	4.50e-06	0	44	0	1356857344	18	4528
2026-01-18 23:37:39.33	139.87	37.06	-28.6	-30.0	14.4	7.00e-07	0	44	0	1366294528	18	4236
2026-01-18 23:37:42.34	140.84	36.59	-28.3	-29.7	14.8	7.00e-07	0	44	0	1375731712	17	4274
2026-01-18 23:37:45.35	141.78	36.12	-28.1	-29.9	15.0	0.00e+00	0	44	0	1385168896	16	4429
2026-01-18 23:37:48.36	142.69	35.65	-28.1	-30.0	14.9	0.00e+00	0	44	0	1394606080	16	4449
2026-01-18 23:37:51.38	143.58	35.17	-28.6	-30.6	14.3	0.00e+00	0	44	0	1404043264	17	4518
2026-01-18 23:37:54.39	144.45	34.70	-28.4	-30.1	14.6	0.00e+00	0	44	0	1413480448	17	4364
2026-01-18 23:37:57.40	145.28	34.22	-28.5	-30.3	14.4	0.00e+00	0	44	0	1422917632	17	4421
2026-01-18 23:38:00.39	146.09	33.75	-28.7	-30.8	14.1	7.00e-07	0	44	0	1432354816	17	4591
2026-01-18 23:38:03.41	146.89	33.28	-28.5	-30.4	14.3	1.50e-06	0	44	0	1441792000	17	4466
2026-01-18 23:38:06.42	147.66	32.81	-28.4	-30.1	14.5	0.00e+00	0	44	0	1451229184	17	4380
2026-01-18 23:38:09.43	148.41	32.34	-28.3	-30.3	14.7	7.00e-07	0	44	0	1460666368	16	4541
2026-01-18 23:38:12.45	149.14	31.88	-27.9	-29.4	15.2	7.00e-07	0	44	0	1470103552	16	4293
2026-01-18 23:38:15.47	149.85	31.41	-27.9	-29.9	13.6	0.00e+00	0	44	0	1479540736	15	4563
2026-01-18 23:38:18.47	150.53	30.95	-27.6	-29.3	15.3	0.00e+00	0	44	0	1488977920	15	4372
2026-01-18 23:38:21.48	151.20	30.49	-27.8	-29.7	15.1	0.00e+00	0	44	0	1498415104	15	4492
2026-01-18 23:38:24.49	151.85	30.04	-28.3	-30.3	14.6	0.00e+00	0	44	0	1507852288	16	4555
2026-01-18 23:38:27.50	152.48	29.59	-28.2	-30.1	14.8	1.50e-06	0	44	0	1517289472	16	4477
2026-01-18 23:38:30.51	153.10	29.14	-28.1	-29.8	14.9	3.82e-03	0	44	0	1526726656	16	4405
2026-01-18 23:38:33.51	153.70	28.70	-27.5	-29.0	15.4	0.00e+00	0	44	0	1536163840	15	4296
2026-01-18 23:38:36.53	154.28	28.25	-27.5	-29.5	15.4	2.70e-03	0	44	0	1545601024	14	4567
2026-01-18 23:38:39.54	154.85	27.82	-27.4	-29.3	15.5	0.00e+00	0	44	0	1555038208	14	4506
2026-01-18 23:38:42.55	155.41	27.38	-27.4	-28.9	15.4	3.55e-03	0	44	0	1564475392	15	4277
2026-01-18 23:38:45.56	155.94	26.95	-27.5	-29.6	15.3	3.16e-03	0	44	0	1573912576	14	4579
2026-01-18 23:38:48.57	156.47	26.53	-27.8	-29.9	14.9	3.30e-03	0	44	0	1583349760	15	4559
2026-01-18 23:38:51.58	156.98	26.11	-27.6	-29.5	15.1	3.12e-03	0	44	0	1592786944	15	4434
2026-01-18 23:38:54.59	157.48	25.69	-27.2	-29.0	15.6	2.99e-03	0	44	0	1601175552	14	4405
2026-01-18 23:38:57.60	157.97	25.28	-27.2	-29.0	15.6	3.25e-03	0	44	0	1610612736	14	4407
2026-01-18 23:39:00.61	158.44	24.87	-26.8	-28.5	16.1	0.00e+00	0	44	0	1621098496	13	4397
2026-01-18 23:39:03.62	158.90	24.47	-27.0	-28.5	15.9	3.05e-03	0	44	0	1629487104	14	4283
2026-01-18 23:39:06.61	159.35	24.07	-26.9	-28.2	16.0	0.00e+00	0	44	0	1638924288	14	4190
2026-01-18 23:39:09.61	159.79	23.68	-27.0	-28.9	15.9	3.64e-03	0	44	0	1648361472	13	4504
2026-01-18 23:39:12.62	160.22	23.29	-27.2	-28.8	15.6	0.00e+00	0	44	0	1657798656	14	4375
2026-01-18 23:39:15.64	160.64	22.90	-27.4	-29.4	15.3	0.00e+00	0	44	0	1667235840	14	4528
2026-01-18 23:39:18.65	161.05	22.52	-27.3	-29.2	15.4	3.62e-03	0	44	0	1676673024	14	4473
2026-01-18 23:39:21.67	161.45	22.14	-27.6	-29.3	15.1	0.00e+00	0	44	0	1686110208	15	4405
2026-01-18 23:39:24.67	161.84	21.77	-27.9	-30.1	14.6	1.50e-06	0	44	0	1695547392	15	4642
2026-01-18 23:39:27.68	162.22	21.40	-28.1	-30.1	14.5	4.50e-06	0	44	0	1704984576	16	4500
2026-01-18 23:39:30.69	162.60	21.03	-27.9	-29.6	14.8	3.00e-06	0	44	0	1714421760	16	4362
2026-01-18 23:39:33.70	162.96	20.67	-27.4	-29.5	15.2	0.00e+00	0	44	0	1723858944	14	4566
2026-01-18 23:39:36.69	163.32	20.32	-27.6	-29.4	15.0	2.20e-06	0	44	0	1733296128	15	4418
2026-01-18 23:39:39.70	163.67	19.96	-27.6	-29.5	14.9	0.00e+00	0	44	0	1742733312	15	4478
2026-01-18 23:39:42.71	164.01	19.61	-27.6	-29.4	14.9	0.00e+00	0	44	0	1752170496	15	4442
2026-01-18 23:39:45.72	164.34	19.27	-27.5	-29.2	15.0	7.00e-07	0	44	0	1761607680	15	4374
2026-01-18 23:39:48.73	164.67	18.93	-27.4	-29.0	15.1	0.00e+00	0	44	0	1771044864	15	4301
2026-01-18 23:39:51.74	164.99	18.59	-27.4	-29.0	15.2	0.00e+00	0	44	0	1780482048	15	4313
2026-01-18 23:39:54.75	165.30	18.26	-27.7	-29.7	14.8	0.00e+00	0	44	0	1789919232	15	4506
2026-01-18 23:39:57.75	165.61	17.93	-27.9	-30.1	14.5	7.00e-07	0	44	0	1799356416	15	4640
2026-01-18 23:40:00.76	165.91	17.60	-27.8	-29.9	14.6	0.00e+00	0	44	0	1808793600	15	4585
2026-01-18 23:40:03.78	166.20	17.28	-27.7	-29.6	14.8	0.00e+00	0	44	0	1818230784	15	4487
2026-01-18 23:40:06.78	166.49	16.96	-27.6	-29.5	14.8	7.00e-07	0	44	0	1827667968	15	4474
2026-01-18 23:40:09.77	166.77	16.64	-27.8	-29.8	14.6	0.00e+00	0	44	0	1837105152	15	4556
2026-01-18 23:40:12.78	167.05	16.33	-27.5	-29.1	15.0	0.00e+00	0	44	0	1846542336	15	4360
2026-01-18 23:40:15.79	167.32	16.02	-27.6	-29.4	14.9	0.00e+00	0	44	0	1854930944	15	4424
2026-01-18 23:40:18.80	167.58	15.71	-27.6	-29.5	14.8	0.00e+00	0	44	0	1864368128	15	4455
2026-01-18 23:40:21.82	167.85	15.41	-27.7	-29.7	14.6	0.00e+00	0	44	0	1873805312	15	4525
2026-01-18 23:40:24.83	168.10	15.11	-27.6	-29.6	12.9	7.00e-07	0	44	0	1883242496	15	4502
2026-01-18 23:40:27.84	168.35	14.81	-27.9	-30.2	14.2	2.20e-06	0	44	0	1892679680	15	4704
2026-01-18 23:40:30.85	168.60	14.52	-28.1	-30.2	14.1	2.20e-06	0	44	0	1902116864	16	4570
2026-01-18 23:40:33.86	168.84	14.23	-28.0	-30.4	14.2	3.14e-03	0	44	0	1911554048	15	4753
2026-01-18 23:40:36.87	169.08	13.94	-28.1	-30.2	14.2	1.05e-03	0	44	0	1920991232	16	4556
2026-01-18 23:40:39.89	169.31	13.66	-28.1	-30.1	14.2	7.00e-07	0	44	0	1930428416	16	4537
2026-01-18 23:40:42.90	169.54	13.38	-28.2	-30.2	14.1	2.79e-03	0	44	0	1939865600	16	4583
2026-01-18 23:40:45.91	169.77	13.10	-28.3	-30.6	13.9	3.04e-03	0	44	0	1949302784	16	4680
2026-01-18 23:40:48.92	169.99	12.82	-28.2	-30.5	13.9	3.03e-03	0	44	0	1958739968	16	4657
2026-01-18 23:40:51.94	170.21	12.55	-28.3	-30.7	13.8	2.99e-03	0	44	0	1968177152	16	4718
2026-01-18 23:40:54.96	170.42	12.28	-28.3	-30.7	13.8	2.36e-03	0	44	0	1977614336	16	4719
2026-01-18 23:40:57.97	170.63	12.01	-28.8	-31.4	13.0	2.43e-03	0	44	0	1987051520	17	4832
2026-01-18 23:41:00.97	170.83	11.75	-28.9	-31.6	12.9	2.22e-03	0	44	0	1996488704	17	4908
2026-01-18 23:41:03.98	171.04	11.48	-29.0	-31.8	12.7	1.76e-03	0	44	0	2005925888	17	4980
2026-01-18 23:41:06.99	171.24	11.22	-29.0	-31.4	12.7	8.31e-05	0	44	0	2015363072	18	4753
2026-01-18 23:41:10.01	171.43	10.96	-29.0	-31.3	12.7	1.53e-03	0	44	0	2024800256	18	4692
2026-01-18 23:41:13.02	171.63	10.71	-28.8	-31.3	13.0	5.18e-05	0	44	0	2034237440	17	4822
2026-01-18 23:41:16.04	171.82	10.45	-28.8	-31.2	13.0	1.57e-03	0	44	0	2043674624	17	4788
2026-01-18 23:41:19.06	172.00	10.20	-28.8	-31.3	13.0	3.20e-05	0	44	0	2053111808	17	4795
2026-01-18 23:41:22.06	172.19	9.96	-28.0	-30.5	12.9	4.88e-05	0	44	0	2062548992	17	4797
2026-01-18 23:41:25.08	172.37	9.71	-29.0	-31.4	12.5	9.91e-05	0	44	0	2071986176	18	4734
2026-01-18 23:41:28.08	172.54	9.47	-28.8	-31.4	12.8	4.80e-05	0	44	0	2081423360	17	4860
2026-01-18 23:41:31.09	172.72	9.22	-29.0	-31.7	12.6	8.01e-05	0	44	0	2090860544	17	4960
2026-01-18 23:41:34.09	172.89	8.99	-28.9	-31.5	12.8	5.95e-05	0	44	0	2100297728	17	4889
2026-01-18 23:41:37.10	173.06	8.75	-28.7	-31.2	12.9	4.73e-04	0	44	0	2109734912	17	4796
2026-01-18 23:41:40.10	173.23	8.51	-28.9	-31.7	12.6	8.46e-05	0	44	0	2119172096	17	4942
2026-01-18 23:41:43.11	173.39	8.28	-29.2	-31.9	12.1	6.64e-04	0	44	0	2128609280	18	4928
2026-01-18 23:41:46.12	173.55	8.05	-29.3	-32.2	11.9	2.80e-04	0	44	0	2138046464	18	5018
2026-01-18 23:41:49.12	173.71	7.82	-29.5	-32.2	11.5	1.22e-03	0	44	0	2147483648	19	4936
2026-01-18 23:41:52.11	173.87	7.59	-29.3	-31.8	11.8	9.89e-04	0	44	0	2156920832	19	4794
2026-01-18 23:41:55.12	174.02	7.37	-29.3	-32.3	11.8	4.01e-04	0	44	0	2166358016	18	5080
2026-01-18 23:41:58.12	174.18	7.14	-29.3	-32.1	11.9	7.86e-04	0	44	0	2174746624	18	5002

#Closed at: 2026-01-18 23:42:00
#Recorded file [2178 MB]: D:/data/31010_260119_023021.dat