passes_logs/2026/01/18/R2M6_AANII_01/R2M6_AANII_01__20260118_103209_NOAA_20_JPSS-1_rec.log

#Pass ID: 20260118_103209_NOAA 20 (JPSS-1)
#Satellite: NOAA 20 (JPSS-1)
#Configuration: NOAA 20
#almurnet v.1.7.20240730
#Start time: 2026-01-18 10:32:10

#Version: 2.2.20231116
#Station: R2M6_AANII_01
#Location: 30.233357 lon 59.946436 lat
#TLE: 1 43013U 17073A   26017.30359522  .00000067  00000+0  52526-4 0  9990
#TLE: 2 43013  98.7639 318.2187 0001419  36.2087 323.9184 14.19536557423067

#Time	Az	El	Level	Level2	SNR	BER	BlckErr	Temp	State	Recorded	gain1	gain2
2026-01-18 10:32:10.41	166.83	7.06	-31.9	-37.9	4.9	1.32e+00	0	41	0	0	25	7184
2026-01-18 10:32:13.42	166.89	7.30	-31.8	-37.3	7.8	8.63e-02	0	41	0	1048576	25	6792
2026-01-18 10:32:16.44	166.94	7.53	-32.0	-38.1	7.2	1.31e-01	0	41	0	7340032	25	7278
2026-01-18 10:32:19.44	166.99	7.77	-32.1	-38.4	7.0	1.51e-01	0	41	0	12582912	25	7470
2026-01-18 10:32:22.46	167.04	8.01	-31.6	-36.9	8.6	5.16e-02	0	41	0	18874368	24	6572
2026-01-18 10:32:25.47	167.09	8.25	-31.1	-35.4	10.1	9.18e-03	0	41	0	24117248	23	5900
2026-01-18 10:32:28.48	167.15	8.50	-31.0	-35.1	10.3	4.55e-03	0	41	0	29360128	23	5751
2026-01-18 10:32:31.50	167.20	8.75	-31.0	-34.9	10.6	3.61e-03	0	41	0	35651584	23	5639
2026-01-18 10:32:34.51	167.26	9.00	-30.8	-34.7	11.2	1.26e-03	0	41	0	40894464	22	5645
2026-01-18 10:32:37.52	167.32	9.25	-30.7	-34.5	11.3	1.23e-03	0	42	0	46137344	22	5578
2026-01-18 10:32:40.53	167.37	9.51	-30.8	-34.7	11.2	1.20e-03	0	42	0	52428800	22	5635
2026-01-18 10:32:43.54	167.43	9.76	-30.8	-34.8	11.1	1.83e-03	0	41	0	57671680	22	5687
2026-01-18 10:32:46.55	167.49	10.02	-30.8	-34.7	11.2	1.95e-03	0	42	0	63963136	22	5661
2026-01-18 10:32:49.55	167.55	10.29	-30.8	-34.8	11.2	8.94e-04	0	42	0	69206016	22	5651
2026-01-18 10:32:52.56	167.61	10.55	-30.6	-34.0	11.8	5.43e-04	0	42	0	74448896	22	5322
2026-01-18 10:32:55.56	167.67	10.82	-30.5	-33.7	12.1	3.43e-04	0	42	0	80740352	22	5184
2026-01-18 10:32:58.57	167.74	11.09	-30.5	-33.6	12.2	2.44e-04	0	42	0	85983232	22	5120
2026-01-18 10:33:01.58	167.80	11.37	-30.6	-33.8	12.1	2.66e-04	0	42	0	91226112	22	5212
2026-01-18 10:33:04.59	167.87	11.64	-30.6	-33.9	12.0	2.65e-04	0	42	0	97517568	22	5236
2026-01-18 10:33:07.60	167.93	11.93	-30.6	-33.9	12.0	3.41e-04	0	42	0	102760448	22	5281
2026-01-18 10:33:10.61	168.00	12.21	-30.7	-34.4	11.7	3.62e-04	0	42	0	109051904	22	5472
2026-01-18 10:33:13.61	168.07	12.50	-30.6	-34.2	11.8	6.45e-04	0	42	0	114294784	22	5422
2026-01-18 10:33:16.61	168.14	12.79	-30.5	-33.7	12.2	3.76e-04	0	42	0	119537664	22	5214
2026-01-18 10:33:19.62	168.21	13.08	-30.3	-33.7	12.5	9.46e-05	0	42	0	125829120	21	5337
2026-01-18 10:33:22.64	168.28	13.38	-30.3	-33.5	12.7	1.04e-04	0	42	0	131072000	21	5226
2026-01-18 10:33:25.65	168.35	13.68	-30.4	-33.9	12.4	1.32e-04	0	43	0	136314880	21	5386
2026-01-18 10:33:28.65	168.43	13.99	-30.7	-34.6	12.0	5.08e-04	0	42	0	142606336	21	5680
2026-01-18 10:33:31.66	168.50	14.30	-30.3	-33.5	12.8	6.25e-05	0	43	0	147849216	21	5192
2026-01-18 10:33:34.67	168.58	14.61	-30.4	-33.6	12.7	5.34e-05	0	42	0	154140672	21	5248
2026-01-18 10:33:37.68	168.66	14.93	-30.1	-32.9	13.3	3.20e-05	0	43	0	159383552	21	4944
2026-01-18 10:33:40.68	168.74	15.25	-30.1	-32.9	13.3	1.44e-05	0	43	0	164626432	21	4957
2026-01-18 10:33:43.68	168.82	15.57	-30.1	-32.9	13.3	1.67e-05	0	43	0	170917888	21	4948
2026-01-18 10:33:46.70	168.90	15.90	-30.3	-33.2	13.1	1.75e-05	0	43	0	176160768	21	5056
2026-01-18 10:33:49.71	168.99	16.24	-30.4	-33.5	12.9	4.34e-05	0	43	0	181403648	21	5163
2026-01-18 10:33:52.72	169.08	16.58	-30.6	-34.0	12.6	6.86e-05	0	43	0	187695104	21	5357
2026-01-18 10:33:55.73	169.16	16.92	-30.6	-34.1	12.5	1.18e-04	0	43	0	192937984	21	5395
2026-01-18 10:33:58.74	169.25	17.27	-30.4	-33.4	13.1	4.57e-05	0	43	0	199229440	21	5105
2026-01-18 10:34:01.76	169.35	17.63	-30.3	-33.2	13.2	4.19e-05	0	43	0	204472320	21	5017
2026-01-18 10:34:04.75	169.44	17.98	-30.2	-33.0	13.3	1.14e-05	0	43	0	209715200	21	4971
2026-01-18 10:34:07.77	169.54	18.35	-30.4	-33.3	13.2	4.34e-05	0	43	0	216006656	21	5069
2026-01-18 10:34:10.79	169.64	18.72	-30.3	-33.0	13.4	1.37e-05	0	43	0	221249536	21	4952
2026-01-18 10:34:13.79	169.74	19.09	-30.4	-33.4	13.2	2.67e-05	0	43	0	227540992	21	5084
2026-01-18 10:34:16.81	169.84	19.48	-30.5	-33.7	13.0	2.59e-05	0	43	0	232783872	21	5222
2026-01-18 10:34:19.81	169.94	19.86	-30.6	-34.0	12.8	5.72e-05	0	43	0	238026752	21	5327
2026-01-18 10:34:22.83	170.05	20.26	-30.7	-34.2	12.7	7.01e-05	0	43	0	244318208	21	5403
2026-01-18 10:34:25.85	170.16	20.66	-30.5	-33.8	12.9	5.64e-05	0	43	0	249561088	21	5231
2026-01-18 10:34:28.86	170.27	21.06	-30.6	-33.9	12.9	4.34e-05	0	43	0	255852544	21	5257
2026-01-18 10:34:31.87	170.39	21.47	-30.8	-34.5	12.5	1.32e-04	0	43	0	261095424	21	5505
2026-01-18 10:34:34.88	170.51	21.89	-30.7	-34.4	12.6	8.23e-05	0	43	0	266338304	21	5460
2026-01-18 10:34:37.90	170.63	22.32	-31.0	-35.0	12.1	1.61e-04	0	43	0	272629760	21	5752
2026-01-18 10:34:40.90	170.75	22.75	-30.8	-34.0	12.5	1.54e-04	0	43	0	277872640	22	5218
2026-01-18 10:34:43.91	170.88	23.19	-30.9	-34.2	12.5	1.23e-04	0	43	0	283115520	22	5259
2026-01-18 10:34:46.91	171.01	23.64	-30.8	-33.9	12.7	6.86e-05	0	43	0	289406976	22	5157
2026-01-18 10:34:49.91	171.15	24.09	-30.7	-33.8	12.8	6.33e-05	0	43	0	294649856	22	5108
2026-01-18 10:34:52.92	171.29	24.55	-30.7	-33.6	13.0	5.41e-05	0	43	0	300941312	22	5015
2026-01-18 10:34:55.93	171.43	25.03	-30.7	-33.6	12.9	5.95e-05	0	43	0	306184192	22	5025
2026-01-18 10:34:58.94	171.57	25.51	-30.5	-33.0	13.3	3.50e-05	0	43	0	311427072	22	4826
2026-01-18 10:35:01.96	171.72	26.00	-30.6	-33.4	13.0	1.29e-05	0	43	0	317718528	22	4968
2026-01-18 10:35:04.96	171.88	26.49	-30.6	-33.3	13.2	1.44e-05	0	43	0	322961408	22	4904
2026-01-18 10:35:07.98	172.04	27.00	-30.4	-32.9	13.5	1.67e-05	0	43	0	329252864	22	4757
2026-01-18 10:35:10.99	172.20	27.51	-30.7	-33.5	13.1	1.98e-05	0	43	0	334495744	22	4981
2026-01-18 10:35:13.99	172.37	28.04	-30.8	-33.8	12.9	4.57e-05	0	43	0	339738624	22	5092
2026-01-18 10:35:17.00	172.55	28.57	-31.0	-34.4	12.5	1.03e-04	0	43	0	346030080	22	5346
2026-01-18 10:35:20.01	172.73	29.12	-31.4	-35.5	11.8	4.46e-04	0	43	0	351272960	22	5788
2026-01-18 10:35:23.02	172.91	29.68	-31.3	-35.3	11.9	4.67e-04	0	43	0	356515840	22	5722
2026-01-18 10:35:26.02	173.10	30.24	-31.5	-35.4	11.5	6.35e-04	0	43	0	362807296	23	5654
2026-01-18 10:35:29.03	173.30	30.82	-31.5	-35.4	11.5	6.27e-04	0	43	0	368050176	23	5621
2026-01-18 10:35:32.04	173.51	31.41	-31.8	-36.3	10.9	2.07e-03	0	43	0	374341632	23	6068
2026-01-18 10:35:35.05	173.72	32.01	-31.8	-36.4	10.8	2.66e-03	0	43	0	379584512	23	6082
2026-01-18 10:35:38.05	173.94	32.62	-31.6	-35.7	11.3	1.70e-03	0	43	0	384827392	23	5761
2026-01-18 10:35:41.05	174.17	33.24	-31.1	-34.0	12.6	1.12e-04	0	43	0	391118848	23	5049
2026-01-18 10:35:44.05	174.41	33.88	-30.9	-33.5	12.9	5.11e-05	0	43	0	396361728	23	4863
2026-01-18 10:35:47.06	174.65	34.53	-30.6	-33.1	13.5	1.14e-05	0	43	0	401604608	22	4824
2026-01-18 10:35:50.07	174.91	35.19	-30.4	-32.5	13.8	4.50e-06	0	43	0	407896064	22	4625
2026-01-18 10:35:53.08	175.18	35.87	-29.9	-31.9	14.5	7.00e-07	0	43	0	413138944	21	4527
2026-01-18 10:35:56.07	175.45	36.56	-30.0	-32.0	14.5	0.00e+00	0	43	0	419430400	21	4567
2026-01-18 10:35:59.06	175.74	37.26	-30.4	-33.1	13.8	2.20e-06	0	43	0	424673280	21	4917
2026-01-18 10:36:02.07	176.04	37.98	-30.6	-33.6	13.6	1.14e-05	0	43	0	429916160	21	5093
2026-01-18 10:36:05.08	176.36	38.71	-30.7	-34.0	13.3	1.37e-05	0	43	0	436207616	21	5269
2026-01-18 10:36:08.09	176.68	39.46	-31.0	-34.3	12.8	5.72e-05	0	43	0	441450496	22	5251
2026-01-18 10:36:11.09	177.03	40.23	-31.3	-35.0	12.3	1.88e-04	0	43	0	446693376	22	5531
2026-01-18 10:36:14.09	177.39	41.00	-31.3	-35.1	12.2	1.82e-04	0	43	0	452984832	22	5591
2026-01-18 10:36:17.10	177.76	41.80	-31.4	-35.0	12.0	3.73e-04	0	43	0	458227712	23	5414
2026-01-18 10:36:20.11	178.16	42.61	-31.3	-34.5	12.4	2.26e-04	0	43	0	464519168	23	5233
2026-01-18 10:36:23.13	178.58	43.45	-31.1	-34.1	12.6	8.08e-05	0	43	0	469762048	23	5078
2026-01-18 10:36:26.12	179.01	44.29	-31.4	-34.8	12.2	1.75e-04	0	43	0	475004928	23	5364
2026-01-18 10:36:29.13	179.47	45.15	-31.4	-34.9	12.2	2.57e-04	0	43	0	481296384	23	5381
2026-01-18 10:36:32.14	179.96	46.03	-31.3	-34.6	12.4	1.60e-04	0	43	0	486539264	23	5262
2026-01-18 10:36:35.14	180.47	46.93	-31.1	-34.1	12.7	6.86e-05	0	43	0	491782144	23	5068
2026-01-18 10:36:38.14	181.02	47.84	-31.5	-35.0	12.1	2.19e-04	0	43	0	498073600	23	5427
2026-01-18 10:36:41.15	181.59	48.77	-31.3	-34.7	12.3	2.50e-04	0	43	0	503316480	23	5303
2026-01-18 10:36:44.16	182.20	49.72	-30.5	-32.7	14.0	3.80e-06	0	43	0	509607936	22	4662
2026-01-18 10:36:47.17	182.86	50.68	-29.7	-31.8	15.1	0.00e+00	0	43	0	514850816	20	4584
2026-01-18 10:36:50.17	183.55	51.66	-29.6	-31.6	15.2	0.00e+00	0	43	0	520093696	20	4505
2026-01-18 10:36:53.18	184.29	52.66	-28.7	-30.4	16.6	0.00e+00	0	43	0	526385152	18	4358
2026-01-18 10:36:56.18	185.08	53.66	-28.6	-30.0	16.9	0.00e+00	0	43	0	531628032	18	4240
2026-01-18 10:36:59.19	185.93	54.69	-28.5	-29.9	17.0	0.00e+00	0	43	0	536870912	18	4200
2026-01-18 10:37:02.19	186.83	55.73	-28.9	-30.7	16.6	0.00e+00	0	43	0	543162368	18	4444
2026-01-18 10:37:05.19	187.81	56.78	-29.6	-31.9	15.6	0.00e+00	0	43	0	548405248	19	4700
2026-01-18 10:37:08.20	188.87	57.84	-29.4	-31.4	15.9	0.00e+00	0	43	0	554696704	19	4535
2026-01-18 10:37:11.21	190.01	58.92	-29.5	-31.6	15.8	0.00e+00	0	43	0	559939584	19	4613
2026-01-18 10:37:14.22	191.25	60.00	-28.5	-29.8	17.1	0.00e+00	0	43	0	565182464	18	4173
2026-01-18 10:37:17.22	192.60	61.08	-28.2	-29.6	17.4	0.00e+00	0	43	0	571473920	17	4239
2026-01-18 10:37:20.23	194.07	62.17	-27.8	-28.7	18.0	0.00e+00	0	43	0	576716800	17	3992
2026-01-18 10:37:23.23	195.67	63.26	-28.1	-29.9	17.7	0.00e+00	0	43	0	581959680	16	4410
2026-01-18 10:37:26.25	197.44	64.35	-28.9	-31.2	16.7	0.00e+00	0	43	0	588251136	17	4685
2026-01-18 10:37:29.25	199.36	65.43	-29.3	-31.6	16.2	0.00e+00	0	43	0	593494016	18	4690
2026-01-18 10:37:32.25	201.49	66.49	-31.2	-34.6	13.1	5.30e-06	0	43	0	599785472	22	5298
2026-01-18 10:37:35.27	203.84	67.55	-30.9	-33.8	13.6	8.30e-06	0	43	0	605028352	22	5001
2026-01-18 10:37:38.26	206.42	68.56	-31.5	-34.9	12.5	1.02e-04	0	43	0	610271232	23	5308
2026-01-18 10:37:41.26	209.28	69.55	-31.2	-33.9	13.3	3.05e-05	0	43	0	616562688	23	4934
2026-01-18 10:37:44.26	212.44	70.49	-30.7	-33.0	14.2	4.50e-06	0	43	0	621805568	22	4726
2026-01-18 10:37:47.26	215.94	71.39	-31.8	-35.6	12.3	1.06e-04	0	43	0	627048448	23	5588
2026-01-18 10:37:50.26	219.80	72.21	-31.3	-34.2	13.1	5.03e-05	0	43	0	633339904	23	5032
2026-01-18 10:37:53.26	224.03	72.96	-31.8	-35.6	12.3	1.98e-04	0	43	0	638582784	23	5598
2026-01-18 10:37:56.27	228.66	73.62	-31.2	-33.9	13.3	3.89e-05	0	43	0	643825664	23	4927
2026-01-18 10:37:59.27	233.64	74.17	-31.4	-34.6	12.9	3.35e-05	0	43	0	650117120	23	5206
2026-01-18 10:38:02.28	238.98	74.61	-31.0	-33.4	13.6	6.80e-06	0	43	0	655360000	23	4759
2026-01-18 10:38:05.29	244.58	74.91	-30.6	-32.7	14.3	1.50e-06	0	43	0	661651456	22	4625
2026-01-18 10:38:08.30	250.36	75.06	-31.0	-34.0	13.6	1.60e-05	0	43	0	666894336	22	5065
2026-01-18 10:38:11.31	256.21	75.07	-31.3	-34.6	13.2	2.13e-05	0	43	0	672137216	22	5313
2026-01-18 10:38:14.32	262.00	74.93	-31.6	-35.0	12.6	9.68e-05	0	44	0	678428672	23	5350
2026-01-18 10:38:17.33	267.63	74.64	-31.9	-35.8	12.1	2.04e-04	0	43	0	683671552	23	5662
2026-01-18 10:38:20.34	272.99	74.23	-33.4	-40.2	7.6	8.12e-02	0	43	0	688914432	26	7805
2026-01-18 10:38:23.35	278.02	73.68	-31.9	-35.1	11.8	5.85e-04	0	43	0	695205888	25	5194
2026-01-18 10:38:26.36	282.69	73.04	-32.5	-37.1	10.2	6.27e-03	0	43	0	700448768	25	6094
2026-01-18 10:38:29.37	286.97	72.29	-32.4	-36.7	10.6	4.45e-03	0	43	0	706740224	25	5919
2026-01-18 10:38:32.37	290.86	71.47	-31.6	-34.7	12.4	9.23e-05	0	43	0	711983104	24	5124
2026-01-18 10:38:35.38	294.40	70.59	-31.4	-34.2	12.7	8.92e-05	0	43	0	717225984	24	4937
2026-01-18 10:38:38.39	297.60	69.65	-32.1	-36.2	11.3	9.12e-04	0	43	0	723517440	24	5765
2026-01-18 10:38:41.40	300.49	68.66	-31.9	-35.7	11.6	7.79e-04	0	43	0	728760320	24	5554
2026-01-18 10:38:44.40	303.10	67.64	-31.8	-35.3	11.9	1.26e-03	0	43	0	734003200	24	5388
2026-01-18 10:38:47.41	305.46	66.60	-31.9	-35.6	11.7	1.09e-03	0	43	0	740294656	24	5511
2026-01-18 10:38:50.43	307.62	65.53	-31.3	-34.2	13.0	3.35e-05	0	43	0	745537536	23	5042
2026-01-18 10:38:53.44	309.56	64.46	-29.5	-31.0	15.9	0.00e+00	0	43	0	751828992	20	4319
2026-01-18 10:38:56.44	311.33	63.38	-29.0	-31.0	16.6	0.00e+00	0	43	0	757071872	18	4507
2026-01-18 10:38:59.45	312.95	62.29	-26.6	-27.6	19.3	0.00e+00	0	43	0	762314752	14	4033
2026-01-18 10:39:02.46	314.43	61.20	-28.8	-31.0	16.8	0.00e+00	0	43	0	768606208	17	4651
2026-01-18 10:39:05.46	315.78	60.12	-28.7	-30.7	16.9	0.00e+00	0	43	0	773849088	17	4528
2026-01-18 10:39:08.47	317.03	59.04	-32.2	-36.8	10.7	2.06e-03	0	43	0	780140544	24	6092
2026-01-18 10:39:11.48	318.18	57.97	-30.5	-32.7	14.2	8.30e-06	0	43	0	785383424	22	4627
2026-01-18 10:39:14.48	319.24	56.91	-31.9	-36.1	11.5	1.99e-04	0	43	0	790626304	23	5878
2026-01-18 10:39:17.49	320.23	55.86	-29.6	-31.5	15.5	0.00e+00	0	43	0	796917760	20	4456
2026-01-18 10:39:20.49	321.14	54.83	-29.7	-32.0	15.5	0.00e+00	0	43	0	802160640	19	4742
2026-01-18 10:39:23.50	321.99	53.80	-29.2	-31.0	16.1	0.00e+00	0	43	0	807403520	19	4402
2026-01-18 10:39:26.52	322.79	52.79	-28.5	-30.7	17.1	0.00e+00	0	43	0	813694976	16	4675
2026-01-18 10:39:29.53	323.54	51.79	-30.3	-33.2	14.4	7.00e-07	0	43	0	818937856	20	5035
2026-01-18 10:39:32.54	324.23	50.82	-30.1	-32.6	14.8	7.00e-07	0	43	0	825229312	20	4817
2026-01-18 10:39:35.54	324.88	49.86	-32.5	-37.7	9.9	3.76e-03	0	43	0	830472192	24	6607
2026-01-18 10:39:38.55	325.50	48.91	-33.0	-38.8	8.3	6.89e-02	0	43	0	835715072	26	6990
2026-01-18 10:39:41.57	326.08	47.98	-32.6	-37.1	9.5	2.94e-02	0	43	0	842006528	26	6052
2026-01-18 10:39:44.58	326.63	47.07	-33.0	-38.6	8.4	2.63e-02	0	43	0	847249408	26	6918
2026-01-18 10:39:47.58	327.14	46.18	-32.6	-37.3	9.4	3.07e-02	0	43	0	852492288	26	6149
2026-01-18 10:39:50.58	327.63	45.30	-32.0	-35.6	11.1	1.21e-03	0	43	0	858783744	25	5439
2026-01-18 10:39:53.59	328.10	44.44	-31.6	-34.9	11.9	5.52e-04	0	43	0	864026624	24	5256
2026-01-18 10:39:56.60	328.54	43.60	-30.8	-33.1	13.4	3.12e-05	0	43	0	870318080	23	4693
2026-01-18 10:39:59.61	328.95	42.77	-29.7	-31.7	15.2	0.00e+00	0	43	0	875560960	20	4539
2026-01-18 10:40:02.62	329.35	41.96	-29.7	-31.8	15.1	0.00e+00	0	43	0	880803840	20	4557
2026-01-18 10:40:05.63	329.73	41.16	-31.7	-35.7	11.6	4.80e-05	0	43	0	887095296	23	5745
2026-01-18 10:40:08.63	330.09	40.39	-31.7	-35.3	11.5	3.10e-03	0	43	0	892338176	24	5443
2026-01-18 10:40:11.64	330.44	39.62	-30.0	-32.0	14.7	0.00e+00	0	43	0	897581056	21	4517
2026-01-18 10:40:14.65	330.77	38.87	-30.6	-33.5	13.7	2.20e-06	0	43	0	903872512	21	5066
2026-01-18 10:40:17.67	331.09	38.14	-31.6	-35.6	11.6	4.41e-04	0	43	0	909115392	23	5666
2026-01-18 10:40:20.68	331.39	37.42	-31.5	-35.2	11.9	5.22e-04	0	43	0	915406848	23	5504
2026-01-18 10:40:23.69	331.68	36.72	-31.0	-33.7	12.8	5.26e-05	0	43	0	920649728	23	4939
2026-01-18 10:40:26.70	331.96	36.03	-30.6	-33.2	13.6	1.37e-05	0	43	0	925892608	22	4828
2026-01-18 10:40:29.72	332.23	35.35	-31.1	-34.5	12.7	7.09e-05	0	43	0	932184064	22	5340
2026-01-18 10:40:32.75	332.49	34.68	-31.3	-35.1	12.3	1.23e-04	0	43	0	937426944	22	5565
2026-01-18 10:40:35.76	332.74	34.03	-31.5	-35.2	11.8	5.60e-04	0	43	0	943718400	23	5513
2026-01-18 10:40:38.76	332.97	33.40	-31.4	-35.1	11.8	4.04e-04	0	43	0	948961280	23	5478
2026-01-18 10:40:41.77	333.20	32.78	-31.4	-34.9	12.0	3.41e-04	0	43	0	954204160	23	5417
2026-01-18 10:40:44.78	333.43	32.17	-31.0	-33.9	12.6	1.04e-04	0	43	0	960495616	23	4992
2026-01-18 10:40:47.79	333.64	31.57	-31.1	-34.1	12.4	1.14e-04	0	43	0	965738496	23	5086
2026-01-18 10:40:50.80	333.85	30.98	-31.2	-34.4	12.4	1.69e-04	0	43	0	970981376	23	5182
2026-01-18 10:40:53.79	334.05	30.41	-31.1	-34.2	12.3	2.48e-04	0	43	0	977272832	23	5142
2026-01-18 10:40:56.80	334.24	29.84	-31.3	-34.7	12.1	2.91e-04	0	43	0	982515712	23	5326
2026-01-18 10:40:59.81	334.43	29.29	-31.1	-34.0	12.5	1.42e-04	0	43	0	988807168	23	5059
2026-01-18 10:41:02.82	334.61	28.74	-30.6	-33.2	13.3	3.35e-05	0	43	0	994050048	22	4876
2026-01-18 10:41:05.84	334.79	28.21	-30.4	-32.6	13.8	4.50e-06	0	43	0	999292928	22	4637
2026-01-18 10:41:08.84	334.96	27.69	-29.7	-31.8	14.9	0.00e+00	0	43	0	1005584384	20	4596
2026-01-18 10:41:11.84	335.12	27.17	-29.5	-31.3	15.1	0.00e+00	0	43	0	1010827264	20	4447
2026-01-18 10:41:14.85	335.28	26.67	-29.7	-31.9	14.7	0.00e+00	0	43	0	1016070144	20	4645
2026-01-18 10:41:17.85	335.44	26.17	-29.9	-32.6	14.3	1.50e-06	0	43	0	1022361600	20	4865
2026-01-18 10:41:20.86	335.59	25.69	-30.1	-33.1	14.0	2.20e-06	0	43	0	1027604480	20	5051
2026-01-18 10:41:23.88	335.74	25.21	-29.8	-32.3	14.5	1.50e-06	0	44	0	1033895936	20	4762
2026-01-18 10:41:26.89	335.88	24.74	-29.6	-31.6	14.9	0.00e+00	0	43	0	1039138816	20	4551
2026-01-18 10:41:29.88	336.02	24.28	-29.3	-31.4	15.2	0.00e+00	0	44	0	1044381696	19	4585
2026-01-18 10:41:32.90	336.16	23.82	-29.1	-30.9	15.6	0.00e+00	0	43	0	1050673152	19	4439
2026-01-18 10:41:35.91	336.29	23.38	-29.1	-30.9	15.7	0.00e+00	0	43	0	1055916032	19	4414
2026-01-18 10:41:38.93	336.42	22.94	-29.1	-30.9	15.6	0.00e+00	0	43	0	1062207488	19	4426
2026-01-18 10:41:41.94	336.55	22.50	-29.3	-31.4	15.4	0.00e+00	0	43	0	1067450368	19	4573
2026-01-18 10:41:44.94	336.67	22.08	-29.4	-31.8	15.1	0.00e+00	0	43	0	1072693248	19	4705
2026-01-18 10:41:47.96	336.79	21.66	-29.7	-32.4	14.7	0.00e+00	0	43	0	1078984704	19	4912
2026-01-18 10:41:50.96	336.91	21.25	-29.5	-31.9	15.0	0.00e+00	0	43	0	1084227584	19	4738
2026-01-18 10:41:53.96	337.02	20.85	-29.5	-32.0	14.9	0.00e+00	0	43	0	1089470464	19	4773
2026-01-18 10:41:56.98	337.14	20.45	-29.5	-31.9	15.0	7.00e-07	0	43	0	1095761920	19	4752
2026-01-18 10:41:59.98	337.25	20.06	-29.5	-32.0	14.9	0.00e+00	0	43	0	1101004800	19	4783
2026-01-18 10:42:02.99	337.35	19.67	-29.4	-31.7	15.1	0.00e+00	0	43	0	1107296256	19	4684
2026-01-18 10:42:05.99	337.46	19.29	-29.6	-32.2	14.8	0.00e+00	0	43	0	1112539136	19	4841
2026-01-18 10:42:08.99	337.56	18.92	-29.9	-32.9	14.3	2.20e-06	0	43	0	1117782016	19	5108
2026-01-18 10:42:12.01	337.66	18.55	-30.0	-33.2	14.1	2.20e-06	0	43	0	1124073472	19	5205
2026-01-18 10:42:15.02	337.76	18.19	-30.0	-32.8	13.9	2.20e-06	0	43	0	1129316352	20	4967
2026-01-18 10:42:18.02	337.86	17.83	-30.0	-32.7	13.9	3.80e-06	0	43	0	1135607808	20	4954
2026-01-18 10:42:21.04	337.95	17.48	-30.0	-32.8	13.9	3.80e-06	0	43	0	1140850688	20	4987
2026-01-18 10:42:24.04	338.04	17.13	-30.2	-33.4	13.5	3.80e-06	0	43	0	1146093568	20	5176
2026-01-18 10:42:27.03	338.13	16.79	-30.2	-33.4	13.5	1.14e-05	0	43	0	1152385024	20	5189
2026-01-18 10:42:30.05	338.22	16.45	-30.3	-33.7	13.3	2.21e-05	0	43	0	1157627904	20	5317
2026-01-18 10:42:33.06	338.31	16.11	-30.4	-33.8	13.2	2.74e-05	0	43	0	1162870784	20	5372
2026-01-18 10:42:36.07	338.39	15.78	-30.6	-34.0	12.7	5.79e-05	0	43	0	1169162240	21	5310
2026-01-18 10:42:39.09	338.48	15.46	-30.6	-34.0	12.6	7.70e-05	0	43	0	1174405120	21	5344
2026-01-18 10:42:42.09	338.56	15.14	-30.4	-33.6	12.9	7.17e-05	0	43	0	1180696576	21	5174
2026-01-18 10:42:45.11	338.64	14.82	-30.3	-33.1	13.2	2.28e-05	0	44	0	1185939456	21	5005
2026-01-18 10:42:48.12	338.72	14.51	-30.3	-33.1	13.2	3.12e-05	0	43	0	1191182336	21	5004
2026-01-18 10:42:51.14	338.80	14.20	-30.5	-33.7	12.8	3.43e-05	0	43	0	1197473792	21	5207
2026-01-18 10:42:54.16	338.88	13.89	-30.5	-33.7	12.8	6.17e-05	0	43	0	1202716672	21	5227
2026-01-18 10:42:57.16	338.95	13.59	-30.7	-34.4	12.3	1.11e-04	0	43	0	1209008128	21	5498
2026-01-18 10:43:00.17	339.03	13.29	-30.9	-35.0	11.9	3.43e-04	0	43	0	1214251008	21	5761
2026-01-18 10:43:03.18	339.10	13.00	-31.1	-35.2	11.3	1.12e-03	0	43	0	1219493888	22	5763
2026-01-18 10:43:06.19	339.17	12.71	-31.2	-35.4	11.2	1.39e-03	0	43	0	1225785344	22	5854
2026-01-18 10:43:09.20	339.24	12.42	-31.4	-36.1	10.7	2.82e-03	0	43	0	1231028224	22	6186
2026-01-18 10:43:12.20	339.31	12.14	-31.2	-35.0	11.1	2.05e-03	0	43	0	1236271104	23	5585
2026-01-18 10:43:15.21	339.38	11.86	-30.7	-33.8	12.3	2.35e-04	0	43	0	1242562560	22	5178
2026-01-18 10:43:18.23	339.45	11.58	-30.8	-34.1	12.0	3.39e-04	0	43	0	1247805440	22	5307
2026-01-18 10:43:21.25	339.52	11.31	-30.7	-33.9	12.1	3.13e-04	0	43	0	1254096896	22	5235
2026-01-18 10:43:24.26	339.58	11.04	-30.7	-33.9	12.1	3.40e-04	0	43	0	1259339776	22	5237
2026-01-18 10:43:27.26	339.65	10.77	-30.8	-34.4	11.8	3.83e-04	0	43	0	1264582656	22	5439
2026-01-18 10:43:30.26	339.71	10.50	-30.7	-34.1	12.0	3.50e-04	0	43	0	1270874112	22	5321
2026-01-18 10:43:33.27	339.77	10.24	-30.8	-34.4	11.7	5.52e-04	0	43	0	1276116992	22	5439
2026-01-18 10:43:36.29	339.84	9.98	-30.6	-33.7	12.1	2.85e-04	0	43	0	1281359872	22	5172
2026-01-18 10:43:39.30	339.90	9.72	-30.2	-33.3	12.8	5.95e-05	0	43	0	1287651328	21	5097
2026-01-18 10:43:42.32	339.96	9.47	-30.2	-33.2	12.8	4.42e-05	0	43	0	1292894208	21	5074
2026-01-18 10:43:45.32	340.02	9.22	-30.1	-32.9	13.0	5.18e-05	0	43	0	1299185664	21	4970
2026-01-18 10:43:48.33	340.07	8.97	-30.3	-33.5	12.6	6.86e-05	0	43	0	1304428544	21	5189
2026-01-18 10:43:51.35	340.13	8.72	-30.4	-33.7	12.3	1.79e-04	0	43	0	1309671424	21	5296
2026-01-18 10:43:54.36	340.19	8.48	-30.5	-34.2	12.0	3.29e-04	0	43	0	1315962880	21	5475
2026-01-18 10:43:57.37	340.25	8.23	-30.7	-34.7	11.6	7.29e-04	0	43	0	1321205760	21	5700
2026-01-18 10:44:00.37	340.30	7.99	-30.8	-35.1	11.3	9.94e-04	0	43	0	1327497216	21	5884
2026-01-18 10:44:03.37	340.36	7.76	-30.6	-34.6	11.6	6.33e-04	0	43	0	1332740096	21	5667
2026-01-18 10:44:06.37	340.41	7.52	-30.4	-34.0	12.1	2.42e-04	0	44	0	1337982976	21	5414
2026-01-18 10:44:09.38	340.46	7.29	-30.5	-34.3	11.8	3.29e-04	0	43	0	1344274432	21	5558
2026-01-18 10:44:12.38	340.52	7.06	-32.7	-41.8	5.9	7.16e-04	0	43	0	1349517312	25	10292

#Closed at: 2026-01-18 10:44:15
#Recorded file [1349 MB]: D:/data/31010_260118_133212.dat