passes_logs/2026/01/18/R2M6_AANII_01/R2M6_AANII_01__20260118_094201_NOAA_21_JPSS-2_rec.log

#Pass ID: 20260118_094201_NOAA 21 (JPSS-2)
#Satellite: NOAA 21 (JPSS-2)
#Configuration: NOAA 21
#almurnet v.1.7.20240730
#Start time: 2026-01-18 09:42:03

#Version: 2.2.20231116
#Station: R2M6_AANII_01
#Location: 30.233357 lon 59.946436 lat
#TLE: 1 54234U 22150A   26017.26823908  .00000042  00000+0  40962-4 0  9992
#TLE: 2 54234  98.7501 318.1405 0000613 274.2947  85.8159 14.19535194165131

#Time	Az	El	Level	Level2	SNR	BER	BlckErr	Temp	State	Recorded	gain1	gain2
2026-01-18 09:42:03.36	140.99	7.16	-30.5	-35.4	4.6	1.40e+00	0	40	0	0	21	6315
2026-01-18 09:42:06.36	140.90	7.39	-30.5	-34.9	8.6	4.67e-02	0	41	0	3145728	21	5946
2026-01-18 09:42:09.37	140.81	7.62	-29.9	-33.1	9.9	8.91e-03	0	41	0	12582912	21	5198
2026-01-18 09:42:12.37	140.72	7.86	-30.0	-33.1	10.0	8.59e-03	0	41	0	22020096	21	5178
2026-01-18 09:42:15.38	140.62	8.09	-30.2	-33.6	9.7	7.72e-03	0	41	0	30408704	21	5326
2026-01-18 09:42:18.38	140.53	8.33	-30.0	-33.1	10.2	5.91e-03	0	41	0	39845888	21	5104
2026-01-18 09:42:21.39	140.43	8.58	-30.0	-32.8	10.4	4.09e-03	0	41	0	49283072	21	4983
2026-01-18 09:42:24.39	140.34	8.82	-29.8	-32.8	10.8	2.74e-03	0	41	0	58720256	20	5062
2026-01-18 09:42:27.40	140.23	9.07	-29.3	-31.8	11.9	3.13e-04	0	41	0	68157440	19	4791
2026-01-18 09:42:30.41	140.13	9.32	-29.4	-31.9	11.9	3.83e-04	0	41	0	77594624	19	4808
2026-01-18 09:42:33.42	140.03	9.57	-28.8	-30.5	12.9	5.18e-05	0	41	0	87031808	19	4367
2026-01-18 09:42:36.42	139.92	9.82	-28.6	-30.5	13.2	2.28e-05	0	42	0	96468992	18	4459
2026-01-18 09:42:39.41	139.82	10.08	-28.7	-30.6	13.1	3.43e-05	0	42	0	105906176	18	4500
2026-01-18 09:42:42.41	139.71	10.34	-28.5	-30.2	13.5	1.22e-05	0	42	0	115343360	18	4355
2026-01-18 09:42:45.42	139.59	10.60	-28.6	-30.4	13.3	1.75e-05	0	42	0	124780544	18	4404
2026-01-18 09:42:48.44	139.48	10.86	-28.6	-30.3	13.4	1.44e-05	0	42	0	134217728	18	4391
2026-01-18 09:42:51.44	139.36	11.13	-28.6	-30.3	13.4	1.06e-05	0	42	0	143654912	18	4393
2026-01-18 09:42:54.44	139.24	11.40	-28.5	-30.0	13.7	5.30e-06	0	42	0	153092096	18	4276
2026-01-18 09:42:57.46	139.12	11.67	-28.1	-29.7	14.1	7.00e-07	0	42	0	162529280	17	4315
2026-01-18 09:43:00.46	139.00	11.95	-28.1	-29.7	14.2	2.20e-06	0	42	0	171966464	17	4296
2026-01-18 09:43:03.47	138.87	12.23	-28.1	-29.7	14.2	2.20e-06	0	42	0	181403648	17	4297
2026-01-18 09:43:06.49	138.74	12.51	-28.1	-29.5	14.3	1.50e-06	0	42	0	190840832	17	4246
2026-01-18 09:43:09.50	138.61	12.80	-28.0	-29.4	14.4	7.00e-07	0	42	0	200278016	17	4215
2026-01-18 09:43:12.52	138.48	13.09	-28.1	-29.5	14.3	7.00e-07	0	42	0	209715200	17	4249
2026-01-18 09:43:15.53	138.34	13.38	-28.0	-29.3	14.5	0.00e+00	0	42	0	219152384	17	4179
2026-01-18 09:43:18.55	138.20	13.68	-27.9	-29.1	14.6	0.00e+00	0	42	0	228589568	17	4143
2026-01-18 09:43:21.56	138.06	13.97	-28.0	-29.3	14.5	7.00e-07	0	42	0	238026752	17	4196
2026-01-18 09:43:24.57	137.91	14.28	-28.1	-29.6	14.3	7.00e-07	0	42	0	247463936	17	4270
2026-01-18 09:43:27.58	137.76	14.58	-28.1	-29.7	14.2	1.50e-06	0	42	0	256901120	17	4326
2026-01-18 09:43:30.58	137.61	14.89	-28.1	-29.7	14.3	1.50e-06	0	42	0	266338304	17	4311
2026-01-18 09:43:33.59	137.45	15.21	-28.1	-29.7	14.3	0.00e+00	0	42	0	275775488	17	4315
2026-01-18 09:43:36.61	137.29	15.52	-28.1	-29.6	14.4	0.00e+00	0	42	0	284164096	17	4252
2026-01-18 09:43:39.61	137.13	15.84	-28.3	-30.0	14.2	1.50e-06	0	42	0	294649856	17	4368
2026-01-18 09:43:42.63	136.96	16.17	-28.2	-29.8	14.4	7.00e-07	0	42	0	303038464	17	4319
2026-01-18 09:43:45.63	136.79	16.50	-28.3	-30.1	14.2	1.50e-06	0	43	0	312475648	17	4413
2026-01-18 09:43:48.63	136.62	16.83	-28.1	-29.6	14.5	1.50e-06	0	42	0	321912832	17	4258
2026-01-18 09:43:51.63	136.44	17.17	-28.1	-29.5	14.6	7.00e-07	0	42	0	331350016	17	4236
2026-01-18 09:43:54.64	136.26	17.51	-28.3	-29.9	14.4	1.50e-06	0	42	0	340787200	17	4340
2026-01-18 09:43:57.65	136.07	17.86	-28.3	-29.8	14.5	0.00e+00	0	43	0	350224384	17	4318
2026-01-18 09:44:00.67	135.88	18.21	-28.2	-29.8	14.5	0.00e+00	0	43	0	359661568	17	4315
2026-01-18 09:44:03.67	135.68	18.56	-28.3	-29.9	14.5	7.00e-07	0	42	0	369098752	17	4326
2026-01-18 09:44:06.68	135.48	18.92	-28.2	-29.7	14.7	0.00e+00	0	42	0	378535936	17	4287
2026-01-18 09:44:09.69	135.28	19.29	-28.3	-29.8	14.7	0.00e+00	0	43	0	387973120	17	4297
2026-01-18 09:44:12.70	135.06	19.66	-28.1	-29.5	14.8	0.00e+00	0	43	0	397410304	17	4207
2026-01-18 09:44:15.70	134.85	20.04	-27.9	-29.0	15.1	0.00e+00	0	43	0	406847488	17	4082
2026-01-18 09:44:18.70	134.63	20.42	-27.8	-29.2	15.4	0.00e+00	0	43	0	416284672	16	4230
2026-01-18 09:44:21.70	134.40	20.80	-27.6	-28.6	15.7	0.00e+00	0	43	0	425721856	16	4072
2026-01-18 09:44:24.70	134.16	21.19	-27.3	-28.2	16.0	0.00e+00	0	43	0	435159040	16	3955
2026-01-18 09:44:27.73	133.92	21.59	-27.1	-28.1	16.1	0.00e+00	0	43	0	444596224	15	4061
2026-01-18 09:44:30.73	133.68	22.00	-26.9	-27.8	16.3	0.00e+00	0	43	0	454033408	15	3965
2026-01-18 09:44:33.74	133.42	22.41	-26.9	-27.8	16.3	0.00e+00	0	43	0	463470592	15	3964
2026-01-18 09:44:36.74	133.16	22.82	-26.9	-27.7	16.4	1.50e-06	0	43	0	472907776	15	3940
2026-01-18 09:44:39.73	132.89	23.24	-26.8	-27.6	16.5	2.20e-06	0	43	0	482344960	15	3911
2026-01-18 09:44:42.74	132.62	23.67	-27.1	-28.0	16.2	0.00e+00	0	43	0	491782144	15	4033
2026-01-18 09:44:45.76	132.33	24.10	-26.9	-27.8	16.4	7.00e-07	0	43	0	501219328	15	3974
2026-01-18 09:44:48.76	132.04	24.54	-27.1	-28.2	16.2	1.50e-06	0	43	0	509607936	15	4072
2026-01-18 09:44:51.76	131.74	24.99	-27.1	-28.2	16.2	0.00e+00	0	43	0	520093696	15	4076
2026-01-18 09:44:54.77	131.43	25.44	-27.3	-28.6	16.0	0.00e+00	0	43	0	529530880	15	4169
2026-01-18 09:44:57.78	131.11	25.90	-27.5	-29.1	15.7	0.00e+00	0	43	0	537919488	15	4313
2026-01-18 09:45:00.78	130.79	26.37	-27.7	-29.4	15.6	7.00e-07	0	43	0	547356672	15	4379
2026-01-18 09:45:03.77	130.45	26.84	-27.7	-29.4	15.6	0.00e+00	0	43	0	556793856	15	4387
2026-01-18 09:45:06.79	130.10	27.32	-27.7	-29.4	15.6	0.00e+00	0	43	0	566231040	15	4378
2026-01-18 09:45:09.79	129.74	27.81	-27.6	-29.2	15.7	0.00e+00	0	43	0	575668224	15	4330
2026-01-18 09:45:12.79	129.37	28.31	-27.7	-29.4	15.6	0.00e+00	0	43	0	585105408	15	4387
2026-01-18 09:45:15.80	128.99	28.81	-28.0	-30.0	15.3	0.00e+00	0	43	0	594542592	15	4565
2026-01-18 09:45:18.81	128.59	29.33	-28.2	-30.0	15.2	0.00e+00	0	43	0	603979776	16	4446
2026-01-18 09:45:21.82	128.18	29.85	-28.1	-29.9	15.3	0.00e+00	0	43	0	613416960	16	4402
2026-01-18 09:45:24.82	127.76	30.37	-28.1	-29.8	15.4	0.00e+00	0	43	0	622854144	16	4368
2026-01-18 09:45:27.83	127.32	30.91	-27.9	-29.2	15.7	0.00e+00	0	43	0	632291328	16	4218
2026-01-18 09:45:30.84	126.87	31.45	-28.2	-30.1	15.2	0.00e+00	0	43	0	641728512	16	4461
2026-01-18 09:45:33.85	126.40	32.00	-28.1	-29.7	15.4	0.00e+00	0	43	0	651165696	16	4358
2026-01-18 09:45:36.85	125.92	32.56	-28.2	-29.9	15.3	0.00e+00	0	43	0	660602880	16	4399
2026-01-18 09:45:39.86	125.41	33.13	-27.8	-29.2	15.8	0.00e+00	0	43	0	670040064	16	4193
2026-01-18 09:45:42.85	124.90	33.70	-28.1	-29.8	15.4	0.00e+00	0	43	0	679477248	16	4382
2026-01-18 09:45:45.85	124.36	34.29	-28.5	-30.6	15.0	7.00e-07	0	43	0	688914432	16	4603
2026-01-18 09:45:48.85	123.80	34.88	-28.9	-31.0	14.5	7.00e-07	0	43	0	698351616	17	4616
2026-01-18 09:45:51.87	123.22	35.48	-28.7	-30.7	14.7	0.00e+00	0	43	0	707788800	17	4504
2026-01-18 09:45:54.87	122.62	36.09	-28.9	-31.1	14.4	0.00e+00	0	43	0	717225984	17	4627
2026-01-18 09:45:57.88	121.99	36.70	-29.3	-31.6	13.9	3.00e-06	0	43	0	726663168	18	4669
2026-01-18 09:46:00.89	121.34	37.33	-29.3	-31.0	13.9	4.50e-06	0	43	0	736100352	19	4399
2026-01-18 09:46:03.90	120.66	37.96	-29.5	-31.5	13.7	6.80e-06	0	43	0	744488960	19	4538
2026-01-18 09:46:06.92	119.96	38.60	-29.6	-31.8	13.5	9.10e-06	0	43	0	754974720	19	4636
2026-01-18 09:46:09.92	119.23	39.24	-29.4	-31.4	13.8	2.20e-06	0	43	0	763363328	19	4495
2026-01-18 09:46:12.92	118.47	39.89	-29.4	-31.2	13.9	3.00e-06	0	43	0	772800512	19	4443
2026-01-18 09:46:15.92	117.67	40.55	-29.7	-31.9	13.5	1.29e-05	0	43	0	782237696	19	4638
2026-01-18 09:46:18.92	116.85	41.21	-29.5	-31.4	13.8	9.10e-06	0	43	0	791674880	19	4494
2026-01-18 09:46:21.92	115.99	41.88	-29.6	-31.8	13.6	9.90e-06	0	43	0	801112064	19	4608
2026-01-18 09:46:24.93	115.09	42.55	-30.5	-33.1	12.1	1.01e-04	0	43	0	810549248	21	4825
2026-01-18 09:46:27.94	114.15	43.23	-30.1	-32.1	12.8	6.25e-05	0	43	0	819986432	21	4492
2026-01-18 09:46:30.96	113.17	43.91	-30.0	-31.7	13.0	3.96e-05	0	43	0	829423616	21	4360
2026-01-18 09:46:33.97	112.15	44.59	-30.7	-33.4	11.9	2.73e-04	0	43	0	838860800	21	4936
2026-01-18 09:46:36.99	111.08	45.28	-30.6	-33.2	12.2	3.04e-04	0	43	0	848297984	21	4846
2026-01-18 09:46:39.99	109.97	45.96	-30.5	-32.9	12.3	1.66e-04	0	43	0	857735168	21	4765
2026-01-18 09:46:43.01	108.80	46.65	-30.7	-33.6	11.9	3.56e-04	0	43	0	867172352	21	4995
2026-01-18 09:46:46.02	107.58	47.33	-30.5	-33.0	12.2	1.79e-04	0	43	0	876609536	21	4812
2026-01-18 09:46:49.03	106.31	48.00	-30.2	-32.3	12.6	8.77e-05	0	43	0	886046720	21	4573
2026-01-18 09:46:52.04	104.99	48.67	-29.7	-31.5	13.5	1.29e-05	0	43	0	895483904	20	4418
2026-01-18 09:46:55.05	103.60	49.33	-29.6	-31.2	13.7	8.30e-06	0	43	0	904921088	20	4315
2026-01-18 09:46:58.05	102.16	49.99	-29.4	-31.2	14.0	3.00e-06	0	43	0	914358272	19	4439
2026-01-18 09:47:01.06	100.65	50.63	-29.6	-31.6	13.8	7.60e-06	0	43	0	923795456	19	4562
2026-01-18 09:47:04.06	99.08	51.26	-29.6	-31.6	13.8	2.20e-06	0	43	0	933232640	19	4562
2026-01-18 09:47:07.07	97.44	51.87	-29.0	-30.2	14.7	7.00e-07	0	43	0	942669824	19	4132
2026-01-18 09:47:10.07	95.73	52.46	-29.3	-31.0	14.1	7.00e-07	0	43	0	952107008	19	4385
2026-01-18 09:47:13.09	93.95	53.04	-28.9	-30.6	14.7	0.00e+00	0	43	0	961544192	18	4368
2026-01-18 09:47:16.10	92.10	53.59	-28.9	-30.6	14.7	0.00e+00	0	43	0	970981376	18	4364
2026-01-18 09:47:19.11	90.18	54.12	-29.0	-30.8	14.6	0.00e+00	0	43	0	980418560	18	4428
2026-01-18 09:47:22.12	88.19	54.62	-28.8	-30.3	14.9	0.00e+00	0	43	0	989855744	18	4276
2026-01-18 09:47:25.13	86.13	55.08	-28.7	-30.1	15.0	0.00e+00	0	43	0	999292928	18	4227
2026-01-18 09:47:28.14	84.00	55.51	-28.4	-29.3	15.4	0.00e+00	0	43	0	1008730112	18	4005
2026-01-18 09:47:31.16	81.81	55.91	-29.2	-31.1	14.4	1.50e-06	0	43	0	1017118720	18	4519
2026-01-18 09:47:34.17	79.56	56.26	-28.8	-30.4	14.8	0.00e+00	0	43	0	1027604480	18	4289
2026-01-18 09:47:37.17	77.26	56.58	-28.4	-29.3	15.4	0.00e+00	0	43	0	1037041664	18	4020
2026-01-18 09:47:40.17	74.92	56.85	-27.8	-29.0	16.1	0.00e+00	0	43	0	1045430272	16	4134
2026-01-18 09:47:43.19	72.52	57.07	-28.2	-30.0	15.6	0.00e+00	0	43	0	1054867456	16	4407
2026-01-18 09:47:46.19	70.10	57.24	-28.7	-30.5	15.1	0.00e+00	0	43	0	1064304640	17	4455
2026-01-18 09:47:49.22	67.63	57.37	-28.4	-30.0	15.4	0.00e+00	0	43	0	1073741824	17	4289
2026-01-18 09:47:52.23	65.15	57.44	-28.1	-29.2	15.8	0.00e+00	0	43	0	1083179008	17	4098
2026-01-18 09:47:55.22	62.69	57.47	-27.8	-28.9	16.2	0.00e+00	0	43	0	1092616192	16	4120
2026-01-18 09:47:58.22	60.21	57.44	-28.6	-30.3	15.2	0.00e+00	0	43	0	1102053376	17	4401
2026-01-18 09:48:01.23	57.74	57.36	-27.8	-28.5	16.2	0.00e+00	0	43	0	1111490560	17	3902
2026-01-18 09:48:04.24	55.29	57.23	-28.1	-29.6	15.9	0.00e+00	0	43	0	1120927744	16	4313
2026-01-18 09:48:07.25	52.86	57.05	-27.7	-28.7	16.4	0.00e+00	0	43	0	1130364928	16	4060
2026-01-18 09:48:10.26	50.47	56.83	-27.8	-28.9	16.2	0.00e+00	0	43	0	1139802112	16	4115
2026-01-18 09:48:13.26	48.13	56.56	-28.0	-29.4	16.0	0.00e+00	0	43	0	1149239296	16	4250
2026-01-18 09:48:16.27	45.84	56.24	-28.4	-30.4	15.4	0.00e+00	0	43	0	1158676480	16	4512
2026-01-18 09:48:19.26	43.61	55.89	-28.9	-31.1	14.8	0.00e+00	0	43	0	1168113664	17	4610
2026-01-18 09:48:22.28	41.42	55.49	-28.5	-29.7	15.3	0.00e+00	0	43	0	1177550848	18	4099
2026-01-18 09:48:25.29	39.30	55.06	-27.9	-28.8	16.0	0.00e+00	0	43	0	1186988032	17	3993
2026-01-18 09:48:28.30	37.25	54.59	-28.5	-30.0	15.4	0.00e+00	0	43	0	1196425216	17	4294
2026-01-18 09:48:31.29	35.28	54.10	-28.2	-29.4	15.5	0.00e+00	0	43	0	1205862400	17	4136
2026-01-18 09:48:34.31	33.36	53.57	-28.2	-29.5	15.6	0.00e+00	0	43	0	1215299584	17	4169
2026-01-18 09:48:37.32	31.52	53.02	-29.7	-31.9	13.7	1.29e-05	0	43	0	1224736768	19	4637
2026-01-18 09:48:40.33	29.75	52.44	-27.9	-28.7	16.0	0.00e+00	0	43	0	1234173952	17	3950
2026-01-18 09:48:43.33	28.05	51.85	-29.5	-31.9	14.0	2.20e-06	0	43	0	1243611136	18	4741
2026-01-18 09:48:46.35	26.41	51.23	-29.1	-30.4	14.5	1.50e-06	0	43	0	1253048320	19	4209
2026-01-18 09:48:49.36	24.84	50.60	-30.3	-32.9	12.5	3.20e-05	0	43	0	1262485504	20	4876
2026-01-18 09:48:52.36	23.34	49.97	-30.9	-33.5	11.6	7.29e-04	0	43	0	1270874112	22	4854
2026-01-18 09:48:55.36	21.91	49.32	-30.6	-32.8	12.2	1.98e-04	0	43	0	1281359872	22	4599
2026-01-18 09:48:58.38	20.53	48.65	-31.5	-35.0	10.5	3.44e-03	0	43	0	1290797056	22	5424
2026-01-18 09:49:01.39	19.21	47.98	-31.4	-33.9	10.7	5.47e-03	0	43	0	1299185664	24	4782
2026-01-18 09:49:04.40	17.94	47.31	-31.0	-33.7	11.5	8.61e-04	0	43	0	1308622848	22	4906
2026-01-18 09:49:07.41	16.73	46.63	-32.2	-36.1	9.1	1.54e-02	0	43	0	1318060032	24	5699
2026-01-18 09:49:10.42	15.57	45.95	-31.6	-34.5	10.1	1.05e-02	0	43	0	1327497216	24	5023
2026-01-18 09:49:13.42	14.47	45.27	-29.8	-31.8	13.2	1.75e-05	0	43	0	1336934400	20	4506
2026-01-18 09:49:16.43	13.41	44.59	-30.9	-33.6	11.5	1.28e-03	0	43	0	1346371584	22	4895
2026-01-18 09:49:19.43	12.39	43.91	-30.4	-32.2	12.4	1.82e-04	0	43	0	1355808768	22	4426
2026-01-18 09:49:22.44	11.42	43.24	-29.4	-30.6	13.9	5.30e-06	0	43	0	1365245952	20	4172
2026-01-18 09:49:25.45	10.48	42.56	-30.1	-32.4	12.6	7.09e-05	0	43	0	1374683136	20	4717
2026-01-18 09:49:28.47	9.59	41.89	-31.0	-33.9	11.1	2.23e-03	0	43	0	1384120320	22	5005
2026-01-18 09:49:31.47	8.73	41.23	-30.6	-32.8	11.9	3.11e-04	0	43	0	1393557504	22	4620
2026-01-18 09:49:34.48	7.91	40.57	-30.4	-32.3	12.2	2.19e-04	0	43	0	1402994688	22	4487
2026-01-18 09:49:37.49	7.12	39.91	-30.6	-32.6	12.0	2.89e-04	0	43	0	1412431872	22	4580
2026-01-18 09:49:40.49	6.36	39.26	-31.1	-34.3	10.9	3.08e-03	0	43	0	1421869056	22	5173
2026-01-18 09:49:43.49	5.64	38.62	-29.2	-30.7	14.1	2.20e-06	0	43	0	1431306240	19	4307
2026-01-18 09:49:46.49	4.94	37.99	-28.9	-30.6	14.5	0.00e+00	0	43	0	1440743424	18	4380
2026-01-18 09:49:49.49	4.27	37.36	-29.3	-31.7	13.9	2.20e-06	0	43	0	1450180608	18	4707
2026-01-18 09:49:52.50	3.62	36.74	-29.3	-31.6	13.9	6.10e-06	0	43	0	1459617792	18	4680
2026-01-18 09:49:55.52	2.99	36.13	-29.8	-32.3	13.1	1.83e-05	0	43	0	1469054976	19	4793
2026-01-18 09:49:58.51	2.40	35.52	-29.8	-32.2	13.2	2.67e-05	0	43	0	1478492160	19	4785
2026-01-18 09:50:01.54	1.82	34.92	-29.7	-32.0	13.3	1.60e-05	0	43	0	1487929344	19	4677
2026-01-18 09:50:04.56	1.26	34.33	-28.9	-30.1	14.5	7.00e-07	0	43	0	1497366528	19	4124
2026-01-18 09:50:07.56	0.72	33.75	-29.0	-30.3	14.3	7.00e-07	0	43	0	1506803712	19	4197
2026-01-18 09:50:10.56	0.21	33.18	-28.5	-29.6	15.0	0.00e+00	0	43	0	1516240896	18	4104
2026-01-18 09:50:13.57	359.71	32.61	-28.2	-29.4	15.3	0.00e+00	0	43	0	1525678080	17	4164
2026-01-18 09:50:16.58	359.22	32.05	-28.1	-29.4	15.3	0.00e+00	0	43	0	1535115264	17	4155
2026-01-18 09:50:19.60	358.76	31.50	-28.2	-29.4	15.3	0.00e+00	0	43	0	1543503872	17	4161
2026-01-18 09:50:22.61	358.31	30.96	-28.1	-29.2	15.4	0.00e+00	0	43	0	1553989632	17	4110
2026-01-18 09:50:25.61	357.87	30.43	-28.0	-29.1	15.5	0.00e+00	0	43	0	1562378240	17	4069
2026-01-18 09:50:28.61	357.45	29.91	-27.8	-28.6	15.7	0.00e+00	0	43	0	1571815424	17	3955
2026-01-18 09:50:31.63	357.05	29.39	-28.3	-29.6	15.2	0.00e+00	0	43	0	1581252608	17	4224
2026-01-18 09:50:34.65	356.65	28.87	-28.4	-30.0	14.9	0.00e+00	0	43	0	1590689792	17	4333
2026-01-18 09:50:37.65	356.27	28.37	-28.4	-30.0	14.9	0.00e+00	0	43	0	1600126976	17	4335
2026-01-18 09:50:40.66	355.90	27.88	-28.3	-29.7	15.1	0.00e+00	0	43	0	1609564160	17	4232
2026-01-18 09:50:43.67	355.54	27.39	-28.2	-29.4	15.2	0.00e+00	0	43	0	1619001344	17	4177
2026-01-18 09:50:46.68	355.20	26.91	-28.2	-29.9	15.2	0.00e+00	0	43	0	1628438528	16	4426
2026-01-18 09:50:49.69	354.86	26.44	-27.3	-28.0	16.2	0.00e+00	0	43	0	1637875712	16	3911
2026-01-18 09:50:52.70	354.54	25.97	-26.9	-27.6	16.5	0.00e+00	0	43	0	1647312896	15	3918
2026-01-18 09:50:55.70	354.22	25.52	-26.9	-27.6	16.5	0.00e+00	0	43	0	1656750080	15	3918
2026-01-18 09:50:58.71	353.91	25.06	-27.0	-28.4	16.4	0.00e+00	0	43	0	1666187264	14	4222
2026-01-18 09:51:01.71	353.62	24.62	-27.3	-28.9	16.1	0.00e+00	0	43	0	1675624448	14	4364
2026-01-18 09:51:04.72	353.33	24.18	-27.5	-29.0	15.7	0.00e+00	0	43	0	1685061632	15	4286
2026-01-18 09:51:07.73	353.04	23.75	-27.7	-29.3	15.6	7.00e-07	0	43	0	1694498816	15	4368
2026-01-18 09:51:10.73	352.77	23.32	-27.6	-29.2	15.6	0.00e+00	0	43	0	1703936000	15	4332
2026-01-18 09:51:13.73	352.51	22.91	-27.7	-29.5	15.4	0.00e+00	0	43	0	1713373184	15	4424
2026-01-18 09:51:16.73	352.25	22.49	-27.7	-29.6	15.4	0.00e+00	0	43	0	1722810368	15	4438
2026-01-18 09:51:19.75	352.00	22.09	-27.8	-29.6	15.4	0.00e+00	0	43	0	1732247552	15	4463
2026-01-18 09:51:22.76	351.75	21.68	-27.8	-29.7	15.4	0.00e+00	0	43	0	1741684736	15	4468
2026-01-18 09:51:25.77	351.51	21.29	-27.8	-29.8	15.3	0.00e+00	0	43	0	1751121920	15	4502
2026-01-18 09:51:28.77	351.28	20.90	-27.8	-29.6	15.3	0.00e+00	0	43	0	1760559104	15	4466
2026-01-18 09:51:31.78	351.06	20.51	-28.0	-29.5	15.3	0.00e+00	0	43	0	1769996288	16	4312
2026-01-18 09:51:34.79	350.83	20.13	-27.9	-29.3	15.4	0.00e+00	0	43	0	1779433472	16	4252
2026-01-18 09:51:37.80	350.62	19.76	-28.0	-29.7	15.2	0.00e+00	0	43	0	1788870656	16	4360
2026-01-18 09:51:40.82	350.41	19.39	-27.7	-28.9	15.6	0.00e+00	0	43	0	1798307840	16	4152
2026-01-18 09:51:43.82	350.21	19.03	-27.8	-29.3	15.3	0.00e+00	0	43	0	1807745024	16	4257
2026-01-18 09:51:46.83	350.01	18.67	-27.9	-29.5	15.2	0.00e+00	0	43	0	1817182208	16	4321
2026-01-18 09:51:49.84	349.81	18.31	-28.0	-29.6	15.1	0.00e+00	0	43	0	1825570816	16	4356
2026-01-18 09:51:52.85	349.62	17.96	-28.1	-29.8	15.0	0.00e+00	0	43	0	1835008000	16	4409
2026-01-18 09:51:55.85	349.44	17.62	-28.1	-29.9	14.9	7.00e-07	0	43	0	1844445184	16	4443
2026-01-18 09:51:58.87	349.26	17.28	-28.2	-30.2	14.7	0.00e+00	0	43	0	1853882368	16	4526
2026-01-18 09:52:01.87	349.08	16.94	-28.3	-30.3	14.7	0.00e+00	0	43	0	1863319552	16	4547
2026-01-18 09:52:04.88	348.91	16.61	-28.5	-30.8	14.4	0.00e+00	0	43	0	1872756736	16	4705
2026-01-18 09:52:07.89	348.74	16.28	-28.5	-30.3	14.3	2.20e-06	0	43	0	1882193920	17	4445
2026-01-18 09:52:10.90	348.58	15.96	-28.6	-30.7	14.1	1.50e-06	0	43	0	1891631104	17	4546
2026-01-18 09:52:13.92	348.42	15.63	-28.7	-30.8	14.1	3.00e-06	0	43	0	1901068288	17	4576
2026-01-18 09:52:16.92	348.26	15.32	-28.8	-31.2	13.8	3.00e-06	0	43	0	1910505472	17	4706
2026-01-18 09:52:19.94	348.11	15.01	-28.9	-31.3	13.7	8.30e-06	0	43	0	1919942656	17	4749
2026-01-18 09:52:22.95	347.96	14.70	-29.1	-31.2	13.4	2.51e-05	0	43	0	1929379840	18	4615
2026-01-18 09:52:25.95	347.81	14.39	-28.9	-30.8	13.6	1.22e-05	0	43	0	1938817024	18	4492
2026-01-18 09:52:28.96	347.67	14.09	-29.0	-31.0	13.6	1.14e-05	0	43	0	1948254208	18	4532
2026-01-18 09:52:31.97	347.53	13.80	-28.9	-30.8	13.6	8.30e-06	0	43	0	1957691392	18	4492
2026-01-18 09:52:34.97	347.39	13.50	-28.6	-30.1	14.0	2.20e-06	0	43	0	1967128576	18	4278
2026-01-18 09:52:37.98	347.26	13.21	-28.6	-30.2	13.9	7.60e-06	0	43	0	1976565760	18	4308
2026-01-18 09:52:40.99	347.12	12.92	-28.6	-30.2	13.9	3.00e-06	0	43	0	1986002944	18	4313
2026-01-18 09:52:43.99	347.00	12.64	-28.6	-30.1	13.9	5.30e-06	0	43	0	1995440128	18	4289
2026-01-18 09:52:47.00	346.87	12.36	-28.6	-30.1	13.9	3.80e-06	0	43	0	2004877312	18	4293
2026-01-18 09:52:50.03	346.75	12.08	-28.6	-30.2	13.8	4.50e-06	0	43	0	2014314496	18	4313
2026-01-18 09:52:53.03	346.62	11.80	-28.6	-30.2	13.8	2.20e-06	0	43	0	2023751680	18	4325
2026-01-18 09:52:56.05	346.51	11.53	-28.9	-31.0	13.3	1.60e-05	0	43	0	2033188864	18	4550
2026-01-18 09:52:59.05	346.39	11.26	-28.6	-30.2	13.8	5.30e-06	0	43	0	2042626048	18	4317
2026-01-18 09:53:02.06	346.28	11.00	-28.8	-30.7	13.5	7.60e-06	0	43	0	2052063232	18	4461
2026-01-18 09:53:05.07	346.16	10.73	-28.8	-30.6	13.5	1.44e-05	0	43	0	2061500416	18	4445
2026-01-18 09:53:08.09	346.05	10.47	-28.7	-30.5	13.6	7.60e-06	0	43	0	2070937600	18	4402
2026-01-18 09:53:11.08	345.95	10.21	-28.7	-30.3	13.6	9.10e-06	0	43	0	2080374784	18	4370
2026-01-18 09:53:14.08	345.84	9.96	-28.7	-30.4	13.6	7.60e-06	0	43	0	2089811968	18	4392
2026-01-18 09:53:17.09	345.74	9.70	-28.7	-30.5	13.5	1.37e-05	0	43	0	2098200576	18	4409
2026-01-18 09:53:20.10	345.64	9.45	-28.8	-30.8	13.3	1.67e-05	0	43	0	2107637760	18	4507
2026-01-18 09:53:23.11	345.54	9.20	-28.9	-30.9	13.2	1.90e-05	0	43	0	2117074944	18	4551
2026-01-18 09:53:26.11	345.44	8.96	-29.1	-31.4	12.8	3.73e-05	0	43	0	2126512128	18	4717
2026-01-18 09:53:29.10	345.35	8.72	-29.2	-31.7	12.7	4.42e-05	0	43	0	2135949312	18	4813
2026-01-18 09:53:32.11	345.25	8.47	-29.3	-32.0	12.4	1.28e-04	0	43	0	2145386496	18	4913
2026-01-18 09:53:35.12	345.16	8.23	-29.3	-32.1	12.4	1.74e-04	0	43	0	2154823680	18	4942
2026-01-18 09:53:38.13	345.07	8.00	-29.3	-31.6	12.3	2.20e-04	0	43	0	2164260864	19	4667
2026-01-18 09:53:41.15	344.98	7.76	-29.5	-31.9	12.1	2.09e-04	0	43	0	2173698048	19	4772
2026-01-18 09:53:44.15	344.89	7.53	-29.5	-32.1	11.9	3.33e-04	0	43	0	2183135232	19	4832
2026-01-18 09:53:47.16	344.81	7.30	-29.6	-32.3	11.8	5.26e-04	0	43	0	2192572416	19	4914
2026-01-18 09:53:50.17	344.73	7.07	-30.2	-33.5	10.8	4.36e-04	0	43	0	2202009600	20	5249

#Closed at: 2026-01-18 09:53:53
#Recorded file [2204 MB]: D:/data/31010_260118_124205.dat