passes_logs/2026/01/18/R2M6_AANII_01/R2M6_AANII_01__20260118_080401_NOAA_21_JPSS-2_rec.log

#Pass ID: 20260118_080401_NOAA 21 (JPSS-2)
#Satellite: NOAA 21 (JPSS-2)
#Configuration: NOAA 21
#almurnet v.1.7.20240730
#Start time: 2026-01-18 08:04:00

#Version: 2.2.20231116
#Station: R2M6_AANII_01
#Location: 30.233357 lon 59.946436 lat
#TLE: 1 54234U 22150A   26017.26823908  .00000042  00000+0  40962-4 0  9992
#TLE: 2 54234  98.7501 318.1405 0000613 274.2947  85.8159 14.19535194165131

#Time	Az	El	Level	Level2	SNR	BER	BlckErr	Temp	State	Recorded	gain1	gain2
2026-01-18 08:04:00.74	90.32	6.96	-32.5	-40.1	4.0	1.47e+00	0	40	0	0	26	8679
2026-01-18 08:04:03.76	90.01	7.14	-31.4	-35.8	7.7	7.09e-02	0	40	0	3145728	23	6031
2026-01-18 08:04:06.77	89.69	7.32	-31.1	-34.8	8.6	4.21e-02	0	40	0	12582912	23	5517
2026-01-18 08:04:09.78	89.36	7.50	-31.4	-36.0	7.7	6.68e-02	0	40	0	22020096	23	6075
2026-01-18 08:04:12.78	89.04	7.68	-30.8	-33.9	9.3	2.32e-02	0	40	0	30408704	23	5117
2026-01-18 08:04:15.79	88.70	7.86	-29.8	-31.9	11.4	1.38e-03	0	40	0	39845888	21	4589
2026-01-18 08:04:18.80	88.37	8.04	-29.7	-32.1	11.6	6.38e-04	0	40	0	49283072	20	4757
2026-01-18 08:04:21.80	88.03	8.22	-29.3	-31.1	12.3	2.25e-04	0	40	0	58720256	20	4411
2026-01-18 08:04:24.81	87.68	8.40	-29.6	-32.2	11.9	3.13e-04	0	40	0	68157440	19	4881
2026-01-18 08:04:27.81	87.33	8.58	-29.5	-31.9	12.2	2.02e-04	0	41	0	77594624	19	4768
2026-01-18 08:04:30.82	86.98	8.76	-29.4	-31.6	12.4	1.66e-04	0	41	0	87031808	19	4668
2026-01-18 08:04:33.83	86.62	8.94	-29.2	-31.2	12.8	6.10e-05	0	41	0	96468992	19	4521
2026-01-18 08:04:36.83	86.26	9.12	-28.8	-30.7	13.4	1.52e-05	0	41	0	105906176	18	4475
2026-01-18 08:04:39.83	85.89	9.30	-28.7	-30.5	13.5	9.90e-06	0	41	0	115343360	18	4425
2026-01-18 08:04:42.85	85.52	9.48	-28.7	-30.5	13.5	1.60e-05	0	41	0	124780544	18	4414
2026-01-18 08:04:45.86	85.14	9.66	-28.8	-30.6	13.5	9.90e-06	0	41	0	134217728	18	4450
2026-01-18 08:04:48.88	84.76	9.84	-28.7	-30.5	13.6	9.10e-06	0	41	0	143654912	18	4415
2026-01-18 08:04:51.88	84.38	10.03	-28.7	-30.3	13.7	3.00e-06	0	41	0	153092096	18	4371
2026-01-18 08:04:54.88	83.98	10.21	-28.7	-30.4	13.6	6.10e-06	0	41	0	162529280	18	4373
2026-01-18 08:04:57.88	83.59	10.39	-29.0	-31.1	13.3	8.30e-06	0	41	0	171966464	18	4585
2026-01-18 08:05:00.89	83.19	10.57	-29.3	-32.0	12.7	8.69e-05	0	41	0	181403648	18	4892
2026-01-18 08:05:03.90	82.78	10.75	-29.1	-31.4	13.1	2.82e-05	0	41	0	190840832	18	4689
2026-01-18 08:05:06.91	82.37	10.93	-29.3	-31.8	12.8	3.05e-05	0	41	0	200278016	18	4828
2026-01-18 08:05:09.91	81.95	11.12	-28.4	-29.8	14.1	3.00e-06	0	41	0	209715200	18	4207
2026-01-18 08:05:12.92	81.53	11.30	-28.3	-29.6	14.2	0.00e+00	0	41	0	219152384	18	4139
2026-01-18 08:05:15.91	81.11	11.48	-28.5	-29.8	14.1	2.20e-06	0	41	0	228589568	18	4207
2026-01-18 08:05:18.91	80.68	11.66	-28.4	-29.8	14.1	1.50e-06	0	41	0	238026752	18	4193
2026-01-18 08:05:21.91	80.24	11.84	-28.5	-30.0	14.0	0.00e+00	0	41	0	247463936	18	4256
2026-01-18 08:05:24.91	79.80	12.02	-28.7	-30.3	13.9	6.10e-06	0	41	0	255852544	18	4351
2026-01-18 08:05:27.92	79.35	12.20	-28.5	-29.9	14.1	3.80e-06	0	42	0	265289728	18	4244
2026-01-18 08:05:30.92	78.89	12.38	-28.6	-30.1	14.0	1.50e-06	0	42	0	274726912	18	4273
2026-01-18 08:05:33.93	78.43	12.56	-28.4	-29.6	14.3	7.00e-07	0	41	0	284164096	18	4150
2026-01-18 08:05:36.94	77.97	12.74	-28.4	-29.7	14.3	7.00e-07	0	42	0	293601280	18	4159
2026-01-18 08:05:39.95	77.49	12.91	-28.5	-29.8	14.2	7.00e-07	0	42	0	303038464	18	4197
2026-01-18 08:05:42.96	77.02	13.09	-28.4	-29.6	14.4	0.00e+00	0	42	0	312475648	18	4139
2026-01-18 08:05:45.96	76.54	13.27	-28.6	-30.1	14.0	1.50e-06	0	41	0	321912832	18	4289
2026-01-18 08:05:48.98	76.04	13.44	-28.4	-29.6	14.4	0.00e+00	0	42	0	331350016	18	4134
2026-01-18 08:05:51.98	75.55	13.62	-28.5	-29.8	14.2	0.00e+00	0	42	0	340787200	18	4206
2026-01-18 08:05:54.98	75.05	13.79	-28.5	-29.8	14.3	0.00e+00	0	42	0	350224384	18	4184
2026-01-18 08:05:57.99	74.54	13.96	-28.7	-30.3	14.0	3.00e-06	0	42	0	359661568	18	4328
2026-01-18 08:06:01.00	74.03	14.14	-28.4	-29.7	14.4	1.50e-06	0	42	0	369098752	18	4160
2026-01-18 08:06:04.00	73.51	14.31	-28.5	-29.8	14.3	7.00e-07	0	42	0	378535936	18	4194
2026-01-18 08:06:07.00	72.99	14.48	-28.4	-29.5	14.5	7.00e-07	0	42	0	387973120	18	4118
2026-01-18 08:06:10.01	72.46	14.65	-28.2	-29.8	14.6	7.00e-07	0	42	0	397410304	17	4281
2026-01-18 08:06:13.04	71.92	14.81	-28.3	-29.8	14.6	0.00e+00	0	42	0	406847488	17	4298
2026-01-18 08:06:16.05	71.37	14.98	-28.4	-30.1	14.4	0.00e+00	0	42	0	416284672	17	4396
2026-01-18 08:06:19.06	70.82	15.14	-28.5	-30.4	14.3	7.00e-07	0	42	0	425721856	17	4481
2026-01-18 08:06:22.07	70.27	15.31	-28.7	-30.9	14.0	3.00e-06	0	42	0	435159040	17	4623
2026-01-18 08:06:25.08	69.71	15.47	-28.8	-31.1	13.9	3.80e-06	0	42	0	444596224	17	4674
2026-01-18 08:06:28.10	69.14	15.63	-29.0	-31.0	13.7	5.30e-06	0	42	0	454033408	18	4538
2026-01-18 08:06:31.12	68.56	15.79	-28.4	-29.7	14.5	7.00e-07	0	42	0	463470592	18	4148
2026-01-18 08:06:34.11	67.98	15.94	-28.4	-29.6	14.6	7.00e-07	0	42	0	472907776	18	4133
2026-01-18 08:06:37.13	67.39	16.09	-28.2	-29.7	14.7	0.00e+00	0	42	0	482344960	17	4274
2026-01-18 08:06:40.13	66.80	16.25	-28.4	-30.0	14.6	0.00e+00	0	42	0	491782144	17	4358
2026-01-18 08:06:43.14	66.21	16.39	-28.4	-30.1	14.5	0.00e+00	0	42	0	501219328	17	4384
2026-01-18 08:06:46.16	65.60	16.54	-28.6	-30.5	14.3	1.50e-06	0	42	0	510656512	17	4483
2026-01-18 08:06:49.18	64.99	16.69	-28.4	-30.2	14.5	2.20e-06	0	42	0	520093696	17	4396
2026-01-18 08:06:52.18	64.37	16.83	-28.4	-30.0	14.6	0.00e+00	0	42	0	529530880	17	4355
2026-01-18 08:06:55.19	63.75	16.97	-28.2	-29.7	14.8	0.00e+00	0	42	0	538968064	17	4252
2026-01-18 08:06:58.21	63.12	17.10	-28.1	-29.4	15.0	0.00e+00	0	42	0	548405248	17	4166
2026-01-18 08:07:01.22	62.49	17.24	-28.0	-29.2	15.1	0.00e+00	0	42	0	556793856	17	4131
2026-01-18 08:07:04.23	61.85	17.37	-27.8	-28.7	15.4	0.00e+00	0	42	0	567279616	17	3981
2026-01-18 08:07:07.24	61.21	17.50	-28.0	-29.6	15.2	0.00e+00	0	42	0	576716800	16	4334
2026-01-18 08:07:10.26	60.55	17.62	-28.4	-30.6	14.6	0.00e+00	0	42	0	585105408	16	4624
2026-01-18 08:07:13.25	59.90	17.74	-28.2	-30.1	15.0	0.00e+00	0	42	0	594542592	16	4470
2026-01-18 08:07:16.26	59.24	17.86	-28.0	-29.7	15.1	0.00e+00	0	42	0	603979776	16	4360
2026-01-18 08:07:19.28	58.57	17.98	-27.8	-29.2	15.4	0.00e+00	0	42	0	613416960	16	4235
2026-01-18 08:07:22.28	57.91	18.09	-27.7	-29.0	15.6	0.00e+00	0	42	0	622854144	16	4163
2026-01-18 08:07:25.28	57.23	18.19	-27.6	-28.8	15.6	0.00e+00	0	42	0	632291328	16	4112
2026-01-18 08:07:28.29	56.55	18.30	-27.7	-29.0	15.5	0.00e+00	0	42	0	641728512	16	4184
2026-01-18 08:07:31.30	55.87	18.40	-27.7	-28.9	15.6	0.00e+00	0	42	0	651165696	16	4153
2026-01-18 08:07:34.32	55.18	18.50	-27.7	-29.0	15.6	0.00e+00	0	42	0	660602880	16	4163
2026-01-18 08:07:37.32	54.48	18.59	-27.7	-28.9	15.7	0.00e+00	0	42	0	670040064	16	4134
2026-01-18 08:07:40.31	53.79	18.68	-27.9	-29.3	15.4	0.00e+00	0	42	0	679477248	16	4254
2026-01-18 08:07:43.32	53.09	18.76	-28.0	-29.7	15.2	7.00e-07	0	42	0	688914432	16	4358
2026-01-18 08:07:46.33	52.38	18.84	-28.0	-29.5	15.3	0.00e+00	0	42	0	698351616	16	4306
2026-01-18 08:07:49.33	51.68	18.92	-27.9	-29.4	15.4	0.00e+00	0	42	0	707788800	16	4267
2026-01-18 08:07:52.34	50.97	18.99	-27.9	-29.4	15.4	0.00e+00	0	42	0	717225984	16	4268
2026-01-18 08:07:55.35	50.25	19.05	-28.0	-29.5	15.3	0.00e+00	0	42	0	726663168	16	4316
2026-01-18 08:07:58.36	49.53	19.12	-28.2	-30.0	15.0	0.00e+00	0	42	0	736100352	16	4455
2026-01-18 08:08:01.36	48.81	19.17	-28.0	-29.7	15.2	0.00e+00	0	42	0	745537536	16	4368
2026-01-18 08:08:04.37	48.09	19.23	-27.9	-29.4	15.4	0.00e+00	0	42	0	754974720	16	4262
2026-01-18 08:08:07.37	47.36	19.28	-27.9	-29.5	15.4	0.00e+00	0	42	0	764411904	16	4290
2026-01-18 08:08:10.37	46.64	19.32	-28.1	-29.8	15.1	0.00e+00	0	42	0	773849088	16	4401
2026-01-18 08:08:13.38	45.91	19.36	-28.1	-29.9	15.1	0.00e+00	0	42	0	783286272	16	4403
2026-01-18 08:08:16.38	45.18	19.39	-28.2	-30.0	15.1	0.00e+00	0	42	0	792723456	16	4461
2026-01-18 08:08:19.39	44.44	19.42	-28.1	-29.8	15.2	0.00e+00	0	42	0	802160640	16	4395
2026-01-18 08:08:22.40	43.71	19.45	-28.2	-30.0	15.1	0.00e+00	0	42	0	810549248	16	4442
2026-01-18 08:08:25.42	42.97	19.47	-27.9	-29.5	15.3	0.00e+00	0	42	0	819986432	16	4294
2026-01-18 08:08:28.42	42.23	19.48	-28.0	-29.6	15.2	0.00e+00	0	42	0	829423616	16	4346
2026-01-18 08:08:31.42	41.50	19.49	-27.8	-29.2	15.5	0.00e+00	0	42	0	838860800	16	4223
2026-01-18 08:08:34.43	40.76	19.50	-28.0	-29.6	15.3	0.00e+00	0	42	0	848297984	16	4321
2026-01-18 08:08:37.44	40.02	19.50	-28.1	-29.9	15.1	0.00e+00	0	42	0	857735168	16	4429
2026-01-18 08:08:40.45	39.29	19.49	-28.1	-29.9	15.1	0.00e+00	0	42	0	867172352	16	4414
2026-01-18 08:08:43.47	38.55	19.48	-27.8	-29.1	15.6	0.00e+00	0	42	0	876609536	16	4191
2026-01-18 08:08:46.48	37.81	19.46	-27.8	-29.1	15.6	0.00e+00	0	42	0	886046720	16	4184
2026-01-18 08:08:49.48	37.08	19.45	-27.8	-29.2	15.5	0.00e+00	0	42	0	895483904	16	4218
2026-01-18 08:08:52.48	36.34	19.42	-27.7	-29.0	15.6	0.00e+00	0	42	0	904921088	16	4159
2026-01-18 08:08:55.48	35.61	19.39	-27.7	-28.9	15.6	0.00e+00	0	42	0	914358272	16	4134
2026-01-18 08:08:58.49	34.88	19.36	-27.7	-29.0	15.6	0.00e+00	0	42	0	923795456	16	4161
2026-01-18 08:09:01.51	34.15	19.32	-27.7	-29.0	15.6	0.00e+00	0	42	0	933232640	16	4176
2026-01-18 08:09:04.51	33.42	19.27	-27.8	-29.1	15.5	0.00e+00	0	42	0	942669824	16	4199
2026-01-18 08:09:07.51	32.70	19.22	-27.7	-28.9	15.6	0.00e+00	0	42	0	952107008	16	4136
2026-01-18 08:09:10.52	31.98	19.17	-27.7	-28.9	15.6	0.00e+00	0	42	0	961544192	16	4146
2026-01-18 08:09:13.54	31.25	19.11	-27.8	-29.1	15.5	0.00e+00	0	42	0	970981376	16	4205
2026-01-18 08:09:16.55	30.54	19.05	-27.7	-29.0	15.6	0.00e+00	0	42	0	980418560	16	4177
2026-01-18 08:09:19.56	29.82	18.98	-27.8	-29.2	15.5	7.00e-07	0	42	0	989855744	16	4222
2026-01-18 08:09:22.56	29.11	18.91	-27.6	-28.7	15.7	0.00e+00	0	42	0	999292928	16	4090
2026-01-18 08:09:25.56	28.41	18.84	-27.7	-28.9	15.7	0.00e+00	0	42	0	1008730112	16	4132
2026-01-18 08:09:28.57	27.70	18.75	-27.7	-29.0	15.6	0.00e+00	0	42	0	1018167296	16	4171
2026-01-18 08:09:31.58	27.00	18.67	-27.8	-29.2	15.5	0.00e+00	0	42	0	1027604480	16	4217
2026-01-18 08:09:34.59	26.31	18.58	-28.0	-29.5	15.2	0.00e+00	0	42	0	1037041664	16	4317
2026-01-18 08:09:37.61	25.61	18.49	-28.2	-30.1	14.9	0.00e+00	0	42	0	1046478848	16	4493
2026-01-18 08:09:40.60	24.93	18.39	-28.3	-30.3	14.8	0.00e+00	0	42	0	1055916032	16	4538
2026-01-18 08:09:43.60	24.25	18.29	-28.2	-30.2	14.8	0.00e+00	0	42	0	1064304640	16	4509
2026-01-18 08:09:46.61	23.57	18.19	-27.9	-29.4	15.3	0.00e+00	0	42	0	1073741824	16	4275
2026-01-18 08:09:49.63	22.90	18.08	-27.7	-28.9	15.5	0.00e+00	0	42	0	1083179008	16	4143
2026-01-18 08:09:52.63	22.23	17.97	-27.7	-29.0	15.5	0.00e+00	0	42	0	1092616192	16	4177
2026-01-18 08:09:55.65	21.56	17.85	-27.9	-29.3	15.3	0.00e+00	0	42	0	1102053376	16	4244
2026-01-18 08:09:58.65	20.91	17.74	-28.0	-29.5	15.2	0.00e+00	0	42	0	1111490560	16	4309
2026-01-18 08:10:01.65	20.26	17.62	-27.7	-29.0	15.5	0.00e+00	0	42	0	1120927744	16	4169
2026-01-18 08:10:04.67	19.61	17.49	-27.8	-29.1	15.4	0.00e+00	0	42	0	1130364928	16	4201
2026-01-18 08:10:07.68	18.97	17.36	-27.8	-29.2	15.4	0.00e+00	0	42	0	1139802112	16	4232
2026-01-18 08:10:10.69	18.33	17.23	-27.7	-29.0	15.5	0.00e+00	0	42	0	1149239296	16	4172
2026-01-18 08:10:13.70	17.70	17.10	-28.1	-29.8	15.0	0.00e+00	0	42	0	1158676480	16	4384
2026-01-18 08:10:16.72	17.07	16.96	-28.2	-30.0	14.8	0.00e+00	0	42	0	1168113664	16	4466
2026-01-18 08:10:19.72	16.45	16.82	-28.0	-29.7	15.1	0.00e+00	0	42	0	1177550848	16	4353
2026-01-18 08:10:22.74	15.84	16.68	-27.9	-29.3	15.3	0.00e+00	0	42	0	1186988032	16	4256
2026-01-18 08:10:25.74	15.23	16.54	-28.0	-29.7	15.1	0.00e+00	0	42	0	1196425216	16	4362
2026-01-18 08:10:28.75	14.63	16.39	-28.3	-30.2	14.7	0.00e+00	0	42	0	1205862400	16	4527
2026-01-18 08:10:31.77	14.03	16.24	-28.2	-30.0	14.8	0.00e+00	0	42	0	1215299584	16	4462
2026-01-18 08:10:34.77	13.44	16.09	-28.0	-29.8	15.0	0.00e+00	0	42	0	1224736768	16	4386
2026-01-18 08:10:37.79	12.86	15.94	-28.1	-30.0	14.9	0.00e+00	0	42	0	1234173952	16	4439
2026-01-18 08:10:40.80	12.28	15.78	-28.2	-30.0	14.9	0.00e+00	0	42	0	1243611136	16	4453
2026-01-18 08:10:43.81	11.71	15.62	-28.3	-30.2	14.7	7.00e-07	0	42	0	1253048320	16	4525
2026-01-18 08:10:46.82	11.14	15.47	-28.2	-30.1	14.8	7.00e-07	0	42	0	1262485504	16	4474
2026-01-18 08:10:49.83	10.58	15.30	-28.2	-30.2	14.7	7.00e-07	0	42	0	1271922688	16	4518
2026-01-18 08:10:52.84	10.03	15.14	-28.3	-30.0	14.5	0.00e+00	0	42	0	1281359872	17	4333
2026-01-18 08:10:55.85	9.48	14.98	-28.5	-30.2	14.4	0.00e+00	0	42	0	1290797056	17	4419
2026-01-18 08:10:58.87	8.94	14.81	-28.6	-30.6	14.2	7.00e-07	0	42	0	1300234240	17	4518
2026-01-18 08:11:01.87	8.41	14.65	-28.5	-30.4	14.2	0.00e+00	0	42	0	1309671424	17	4475
2026-01-18 08:11:04.88	7.88	14.48	-28.5	-30.4	14.3	7.00e-07	0	42	0	1319108608	17	4463
2026-01-18 08:11:07.88	7.36	14.31	-28.6	-30.6	14.1	3.00e-06	0	42	0	1328545792	17	4519
2026-01-18 08:11:10.90	6.84	14.14	-28.5	-30.4	14.3	1.50e-06	0	42	0	1337982976	17	4456
2026-01-18 08:11:13.91	6.33	13.97	-28.1	-29.5	14.7	1.50e-06	0	42	0	1347420160	17	4214
2026-01-18 08:11:16.90	5.83	13.79	-28.1	-29.4	14.8	0.00e+00	0	42	0	1356857344	17	4193
2026-01-18 08:11:19.91	5.33	13.62	-28.1	-29.5	14.7	0.00e+00	0	42	0	1365245952	17	4214
2026-01-18 08:11:22.92	4.84	13.45	-28.4	-30.0	14.4	0.00e+00	0	42	0	1374683136	17	4368
2026-01-18 08:11:25.94	4.35	13.27	-28.4	-30.2	14.3	1.50e-06	0	42	0	1384120320	17	4404
2026-01-18 08:11:28.95	3.87	13.09	-28.5	-30.4	14.2	0.00e+00	0	42	0	1393557504	17	4463
2026-01-18 08:11:31.97	3.39	12.92	-28.4	-30.1	14.3	2.20e-06	0	42	0	1402994688	17	4386
2026-01-18 08:11:34.98	2.92	12.74	-28.4	-30.2	14.3	7.00e-07	0	42	0	1412431872	17	4403
2026-01-18 08:11:37.99	2.46	12.56	-28.7	-30.7	13.9	6.10e-06	0	42	0	1421869056	17	4578
2026-01-18 08:11:40.99	2.00	12.38	-28.6	-30.7	13.9	7.60e-06	0	42	0	1431306240	17	4568
2026-01-18 08:11:44.01	1.55	12.20	-28.7	-30.8	13.8	1.50e-06	0	42	0	1440743424	17	4606
2026-01-18 08:11:47.02	1.10	12.02	-28.7	-30.9	13.8	2.20e-06	0	42	0	1450180608	17	4641
2026-01-18 08:11:50.04	0.66	11.84	-28.7	-30.9	13.8	3.00e-06	0	42	0	1459617792	17	4619
2026-01-18 08:11:53.04	0.23	11.66	-28.6	-30.6	13.9	2.20e-06	0	42	0	1469054976	17	4552
2026-01-18 08:11:56.06	359.79	11.48	-28.6	-30.6	13.9	4.50e-06	0	42	0	1478492160	17	4554
2026-01-18 08:11:59.08	359.37	11.30	-28.7	-30.9	13.8	3.80e-06	0	42	0	1487929344	17	4633
2026-01-18 08:12:02.09	358.95	11.12	-28.9	-31.4	13.5	1.29e-05	0	42	0	1497366528	17	4792
2026-01-18 08:12:05.10	358.54	10.94	-28.9	-31.3	13.5	1.60e-05	0	42	0	1506803712	17	4763
2026-01-18 08:12:08.11	358.13	10.76	-28.8	-30.5	13.6	6.10e-06	0	42	0	1516240896	18	4413
2026-01-18 08:12:11.12	357.72	10.58	-28.8	-30.7	13.5	7.60e-06	0	42	0	1525678080	18	4456
2026-01-18 08:12:14.13	357.32	10.39	-28.9	-30.9	13.4	9.90e-06	0	42	0	1535115264	18	4542
2026-01-18 08:12:17.13	356.93	10.21	-29.0	-31.2	13.2	1.67e-05	0	42	0	1544552448	18	4607
2026-01-18 08:12:20.12	356.55	10.03	-29.3	-31.8	12.8	7.24e-05	0	42	0	1553989632	18	4838
2026-01-18 08:12:23.13	356.16	9.85	-29.4	-31.6	12.6	1.42e-04	0	42	0	1563426816	19	4658
2026-01-18 08:12:26.14	355.78	9.67	-29.3	-31.4	12.8	8.54e-05	0	42	0	1572864000	19	4584
2026-01-18 08:12:29.15	355.41	9.49	-29.3	-31.4	12.7	7.70e-05	0	42	0	1582301184	19	4599
2026-01-18 08:12:32.15	355.04	9.31	-29.4	-31.7	12.5	7.62e-05	0	42	0	1591738368	19	4683
2026-01-18 08:12:35.16	354.68	9.13	-29.5	-31.9	12.4	1.37e-04	0	42	0	1601175552	19	4768
2026-01-18 08:12:38.16	354.32	8.95	-29.6	-32.3	12.1	2.43e-04	0	42	0	1610612736	19	4890
2026-01-18 08:12:41.17	353.96	8.77	-29.8	-32.8	11.7	4.98e-04	0	42	0	1620049920	19	5072
2026-01-18 08:12:44.17	353.61	8.59	-29.4	-31.7	12.4	1.16e-04	0	42	0	1629487104	19	4682
2026-01-18 08:12:47.18	353.27	8.41	-29.2	-31.1	12.8	6.86e-05	0	42	0	1638924288	19	4510
2026-01-18 08:12:50.19	352.92	8.23	-29.4	-31.6	12.4	1.28e-04	0	42	0	1648361472	19	4669
2026-01-18 08:12:53.20	352.59	8.05	-29.5	-32.1	12.1	2.27e-04	0	42	0	1657798656	19	4817
2026-01-18 08:12:56.19	352.26	7.87	-29.7	-32.5	11.8	5.58e-04	0	42	0	1666187264	19	4956
2026-01-18 08:12:59.20	351.93	7.69	-29.6	-32.2	12.0	2.75e-04	0	42	0	1675624448	19	4863
2026-01-18 08:13:02.22	351.60	7.51	-29.5	-31.9	12.2	2.55e-04	0	42	0	1685061632	19	4762
2026-01-18 08:13:05.22	351.28	7.34	-29.4	-31.7	12.3	1.75e-04	0	42	0	1694498816	19	4688
2026-01-18 08:13:08.24	350.96	7.16	-29.4	-31.6	12.3	2.20e-04	0	42	0	1703936000	19	4687

#Closed at: 2026-01-18 08:13:11
#Recorded file [1708 MB]: D:/data/31010_260118_110402.dat