passes_logs/2026/01/18/R2M6_AANII_01/R2M6_AANII_01__20260118_011726_FENGYUN_3D_rec.log

#Pass ID: 20260118_011726_FENGYUN 3D
#Satellite: FENGYUN 3D
#Configuration: FENGYUN 3D
#almurnet v.1.7.20240730
#Start time: 2026-01-18 01:17:25

#Version: 2.2.20231116
#Station: R2M6_AANII_01
#Location: 30.233357 lon 59.946436 lat
#TLE: 1 43010U 17072A   26017.25882587  .00000461  00000+0  23963-3 0  9992
#TLE: 2 43010  98.9934 349.1096 0002357 104.0487 256.0951 14.19697152423579

#Time	Az	El	Level	Level2	SNR	BER	BlckErr	Temp	State	Recorded	gain1	gain2
2026-01-18 01:17:25.31	26.00	6.94	-28.1	-30.3	5.8	7.67e-01	0	42	0	0	16	4610
2026-01-18 01:17:28.32	26.20	7.15	-30.4	-34.1	9.1	1.87e-02	0	41	0	5242880	20	5541
2026-01-18 01:17:31.32	26.41	7.37	-30.2	-33.7	9.5	9.89e-03	0	42	0	22020096	20	5377
2026-01-18 01:17:34.33	26.62	7.58	-30.2	-33.5	9.7	1.11e-02	0	42	0	38797312	20	5273
2026-01-18 01:17:37.34	26.83	7.79	-30.3	-34.0	9.3	1.72e-02	0	42	0	55574528	20	5460
2026-01-18 01:17:40.35	27.05	8.01	-29.7	-32.6	10.8	2.45e-03	0	42	0	73400320	19	5018
2026-01-18 01:17:43.36	27.27	8.23	-29.1	-31.6	11.8	3.34e-04	0	42	0	90177536	18	4775
2026-01-18 01:17:46.37	27.49	8.45	-28.9	-31.5	12.2	1.75e-04	0	42	0	106954752	17	4873
2026-01-18 01:17:49.38	27.72	8.67	-28.7	-31.0	12.5	3.51e-04	0	42	0	123731968	17	4695
2026-01-18 01:17:52.39	27.95	8.89	-29.1	-31.4	12.0	1.46e-04	0	42	0	140509184	18	4731
2026-01-18 01:17:55.41	28.18	9.11	-28.2	-29.8	13.2	1.48e-05	0	42	0	157286400	17	4342
2026-01-18 01:17:58.43	28.42	9.34	-27.1	-28.4	14.5	0.00e+00	0	43	0	175112192	15	4162
2026-01-18 01:18:01.42	28.66	9.57	-26.9	-28.4	14.9	1.10e-06	0	43	0	191889408	14	4255
2026-01-18 01:18:04.42	28.90	9.79	-26.8	-28.6	15.0	0.00e+00	0	43	0	208666624	13	4426
2026-01-18 01:18:07.44	29.14	10.03	-27.3	-29.2	14.4	1.10e-06	0	43	0	225443840	14	4485
2026-01-18 01:18:10.46	29.40	10.26	-27.3	-29.3	14.3	0.00e+00	0	43	0	242221056	14	4535
2026-01-18 01:18:13.46	29.65	10.49	-26.8	-28.7	15.0	0.00e+00	0	43	0	258998272	13	4453
2026-01-18 01:18:16.46	29.91	10.73	-26.5	-27.9	15.5	0.00e+00	0	43	0	275775488	13	4230
2026-01-18 01:18:19.46	30.17	10.96	-26.3	-27.5	15.7	0.00e+00	0	43	0	292552704	13	4125
2026-01-18 01:18:22.48	30.43	11.21	-26.4	-28.1	15.7	0.00e+00	0	43	0	310378496	12	4402
2026-01-18 01:18:25.48	30.70	11.45	-26.1	-27.5	16.0	0.00e+00	0	43	0	327155712	12	4244
2026-01-18 01:18:28.49	30.98	11.69	-26.4	-28.3	15.6	0.00e+00	0	43	0	343932928	12	4453
2026-01-18 01:18:31.50	31.26	11.93	-26.4	-28.2	15.7	0.00e+00	0	43	0	360710144	12	4438
2026-01-18 01:18:34.50	31.54	12.18	-26.4	-28.2	15.7	0.00e+00	0	43	0	377487360	12	4443
2026-01-18 01:18:37.50	31.83	12.43	-26.3	-27.6	15.8	0.00e+00	0	43	0	394264576	13	4148
2026-01-18 01:18:40.51	32.12	12.68	-26.2	-27.7	16.0	0.00e+00	0	43	0	411041792	12	4291
2026-01-18 01:18:43.52	32.42	12.93	-26.2	-27.7	16.0	0.00e+00	0	43	0	428867584	12	4281
2026-01-18 01:18:46.53	32.72	13.19	-25.9	-27.2	16.2	0.00e+00	0	43	0	445644800	12	4171
2026-01-18 01:18:49.54	33.02	13.44	-26.0	-27.4	16.1	0.00e+00	0	43	0	462422016	12	4209
2026-01-18 01:18:52.54	33.34	13.70	-26.0	-27.3	16.3	0.00e+00	0	43	0	479199232	12	4174
2026-01-18 01:18:55.55	33.65	13.96	-25.9	-27.2	16.4	0.00e+00	0	43	0	495976448	12	4156
2026-01-18 01:18:58.56	33.98	14.23	-25.9	-27.1	16.4	2.60e-04	0	43	0	512753664	12	4130
2026-01-18 01:19:01.57	34.31	14.49	-26.2	-27.8	16.1	0.00e+00	0	43	0	529530880	12	4309
2026-01-18 01:19:04.57	34.64	14.76	-25.8	-26.9	16.6	0.00e+00	0	43	0	546308096	12	4083
2026-01-18 01:19:07.58	34.98	15.03	-25.7	-26.7	16.7	1.99e-04	0	43	0	564133888	12	4020
2026-01-18 01:19:10.58	35.32	15.30	-25.6	-26.5	16.8	1.18e-04	0	43	0	580911104	12	3969
2026-01-18 01:19:13.58	35.67	15.57	-25.7	-27.0	16.9	0.00e+00	0	43	0	597688320	11	4222
2026-01-18 01:19:16.60	36.03	15.85	-25.6	-27.0	16.9	0.00e+00	0	44	0	614465536	11	4211
2026-01-18 01:19:19.60	36.40	16.12	-25.5	-26.7	17.1	0.00e+00	0	43	0	631242752	11	4134
2026-01-18 01:19:22.62	36.77	16.40	-25.2	-26.1	17.4	1.75e-04	0	43	0	648019968	11	3975
2026-01-18 01:19:25.62	37.15	16.68	-25.3	-26.3	17.3	2.01e-04	0	43	0	664797184	11	4026
2026-01-18 01:19:28.63	37.53	16.97	-25.3	-26.2	17.4	1.62e-04	0	43	0	681574400	11	4018
2026-01-18 01:19:31.63	37.92	17.25	-25.5	-26.8	17.1	4.34e-05	0	43	0	699400192	11	4149
2026-01-18 01:19:34.64	38.32	17.54	-25.5	-26.7	17.1	0.00e+00	0	43	0	716177408	11	4125
2026-01-18 01:19:37.66	38.73	17.83	-25.5	-26.6	17.2	1.62e-04	0	43	0	732954624	11	4105
2026-01-18 01:19:40.65	39.14	18.12	-25.4	-26.5	17.3	1.73e-04	0	44	0	749731840	11	4090
2026-01-18 01:19:43.65	39.56	18.42	-25.3	-26.3	17.4	1.10e-06	0	44	0	766509056	11	4021
2026-01-18 01:19:46.65	39.99	18.71	-25.1	-25.9	17.6	0.00e+00	0	43	0	783286272	11	3931
2026-01-18 01:19:49.67	40.43	19.01	-24.9	-25.4	17.9	1.10e-06	0	44	0	800063488	11	3824
2026-01-18 01:19:52.67	40.88	19.31	-25.0	-25.5	17.8	0.00e+00	0	44	0	817889280	11	3842
2026-01-18 01:19:55.68	41.33	19.61	-25.0	-25.6	17.8	0.00e+00	0	43	0	834666496	11	3870
2026-01-18 01:19:58.69	41.80	19.92	-25.1	-26.4	17.7	0.00e+00	0	44	0	851443712	10	4155
2026-01-18 01:20:01.70	42.27	20.22	-24.6	-25.7	18.2	0.00e+00	0	43	0	868220928	9	4114
2026-01-18 01:20:04.71	42.76	20.53	-24.7	-26.1	18.1	0.00e+00	0	44	0	884998144	9	4198
2026-01-18 01:20:07.72	43.25	20.84	-24.7	-26.1	18.1	0.00e+00	0	44	0	901775360	9	4207
2026-01-18 01:20:10.72	43.75	21.15	-24.8	-26.4	17.9	0.00e+00	0	43	0	918552576	9	4302
2026-01-18 01:20:13.74	44.26	21.47	-24.6	-25.8	18.3	0.00e+00	0	44	0	935329792	9	4117
2026-01-18 01:20:16.75	44.79	21.78	-24.6	-25.7	18.3	0.00e+00	0	44	0	953155584	9	4088
2026-01-18 01:20:19.76	45.32	22.10	-24.8	-26.2	18.1	0.00e+00	0	44	0	969932800	9	4220
2026-01-18 01:20:22.77	45.86	22.42	-24.2	-24.9	18.8	0.00e+00	0	44	0	986710016	9	3893
2026-01-18 01:20:25.77	46.41	22.74	-24.3	-25.2	18.6	0.00e+00	0	44	0	1003487232	9	3979
2026-01-18 01:20:28.78	46.98	23.06	-24.1	-24.7	18.9	0.00e+00	0	44	0	1020264448	9	3857
2026-01-18 01:20:31.77	47.55	23.38	-24.2	-24.9	18.8	0.00e+00	0	44	0	1037041664	9	3899
2026-01-18 01:20:34.77	48.14	23.70	-24.1	-24.6	19.0	0.00e+00	0	44	0	1053818880	9	3833
2026-01-18 01:20:37.79	48.74	24.03	-24.1	-24.8	18.9	0.00e+00	0	44	0	1070596096	9	3875
2026-01-18 01:20:40.79	49.36	24.35	-23.9	-24.2	19.2	0.00e+00	0	44	0	1088421888	9	3741
2026-01-18 01:20:43.80	49.98	24.68	-23.7	-24.4	19.3	0.00e+00	0	44	0	1105199104	8	3893
2026-01-18 01:20:46.79	50.62	25.00	-24.0	-24.9	19.1	0.00e+00	0	44	0	1121976320	8	4006
2026-01-18 01:20:49.79	51.27	25.32	-23.9	-24.7	19.2	0.00e+00	0	44	0	1138753536	8	3957
2026-01-18 01:20:52.80	51.93	25.65	-24.1	-25.1	19.0	0.00e+00	0	44	0	1155530752	8	4059
2026-01-18 01:20:55.81	52.61	25.98	-23.6	-24.1	19.5	0.00e+00	0	44	0	1172307968	8	3815
2026-01-18 01:20:58.83	53.30	26.31	-23.5	-23.8	19.7	0.00e+00	0	44	0	1189085184	8	3762
2026-01-18 01:21:01.84	54.01	26.63	-23.5	-23.9	19.6	0.00e+00	0	44	0	1205862400	8	3782
2026-01-18 01:21:04.83	54.73	26.95	-23.4	-23.7	19.7	0.00e+00	0	44	0	1223688192	8	3726
2026-01-18 01:21:07.86	55.47	27.28	-23.6	-24.1	19.6	0.00e+00	0	44	0	1240465408	8	3811
2026-01-18 01:21:10.88	56.22	27.60	-23.5	-24.0	19.6	0.00e+00	0	44	0	1257242624	8	3789
2026-01-18 01:21:13.89	56.99	27.93	-23.3	-23.6	19.8	0.00e+00	0	44	0	1274019840	8	3699
2026-01-18 01:21:16.90	57.77	28.25	-23.1	-23.6	20.0	0.00e+00	0	44	0	1290797056	7	3817
2026-01-18 01:21:19.91	58.56	28.56	-23.3	-24.0	19.9	0.00e+00	0	44	0	1307574272	7	3898
2026-01-18 01:21:22.93	59.38	28.88	-23.3	-23.9	19.9	0.00e+00	0	44	0	1325400064	7	3886
2026-01-18 01:21:25.93	60.20	29.19	-23.2	-23.8	19.9	0.00e+00	0	44	0	1342177280	7	3864
2026-01-18 01:21:28.95	61.05	29.50	-22.9	-23.7	20.2	0.00e+00	0	44	0	1358954496	6	3937
2026-01-18 01:21:31.95	61.90	29.81	-23.0	-23.9	20.2	0.00e+00	0	44	0	1375731712	6	3989
2026-01-18 01:21:34.97	62.78	30.11	-23.2	-24.4	19.9	0.00e+00	0	44	0	1392508928	6	4105
2026-01-18 01:21:37.98	63.68	30.41	-23.0	-23.9	20.2	0.00e+00	0	44	0	1409286144	6	3985
2026-01-18 01:21:40.99	64.58	30.71	-23.3	-24.4	19.9	0.00e+00	0	44	0	1426063360	6	4112
2026-01-18 01:21:44.00	65.51	31.00	-23.6	-24.5	19.6	0.00e+00	0	44	0	1443889152	7	4028
2026-01-18 01:21:47.01	66.45	31.28	-23.3	-24.0	19.9	0.00e+00	0	44	0	1460666368	7	3891
2026-01-18 01:21:50.01	67.40	31.56	-23.4	-24.3	19.8	0.00e+00	0	44	0	1477443584	7	3969
2026-01-18 01:21:53.02	68.38	31.83	-23.3	-24.1	19.8	0.00e+00	0	44	0	1494220800	7	3922
2026-01-18 01:21:56.02	69.36	32.09	-23.5	-24.3	19.7	0.00e+00	0	44	0	1510998016	7	3979
2026-01-18 01:21:59.03	70.37	32.35	-23.2	-23.8	19.8	0.00e+00	0	44	0	1527775232	7	3885
2026-01-18 01:22:02.05	71.39	32.60	-22.7	-23.3	20.3	0.00e+00	0	44	0	1544552448	6	3851
2026-01-18 01:22:05.06	72.43	32.85	-23.2	-24.4	19.8	0.00e+00	0	44	0	1561329664	6	4121
2026-01-18 01:22:08.07	73.48	33.08	-23.3	-24.6	19.7	0.00e+00	0	44	0	1579155456	6	4167
2026-01-18 01:22:11.08	74.55	33.31	-23.1	-23.6	19.9	0.00e+00	0	44	0	1595932672	7	3819
2026-01-18 01:22:14.10	75.63	33.52	-23.1	-23.6	19.9	0.00e+00	0	44	0	1612709888	7	3831
2026-01-18 01:22:17.12	76.73	33.73	-23.3	-24.1	19.6	0.00e+00	0	44	0	1629487104	7	3948
2026-01-18 01:22:20.12	77.84	33.93	-23.4	-24.2	19.6	0.00e+00	0	44	0	1646264320	7	3979
2026-01-18 01:22:23.13	78.96	34.11	-22.8	-23.1	20.1	0.00e+00	0	44	0	1664090112	7	3710
2026-01-18 01:22:26.13	80.09	34.29	-23.1	-24.1	19.9	0.00e+00	0	44	0	1680867328	6	4060
2026-01-18 01:22:29.12	81.23	34.45	-23.1	-24.2	19.9	0.00e+00	0	44	0	1697644544	6	4076
2026-01-18 01:22:32.14	82.39	34.60	-23.0	-24.0	19.9	0.00e+00	0	44	0	1714421760	6	4026
2026-01-18 01:22:35.14	83.55	34.74	-23.0	-23.9	20.0	0.00e+00	0	44	0	1731198976	6	4007
2026-01-18 01:22:38.15	84.73	34.86	-22.8	-23.6	20.1	0.00e+00	0	44	0	1747976192	6	3926
2026-01-18 01:22:41.16	85.91	34.98	-22.8	-23.6	20.1	0.00e+00	0	44	0	1764753408	6	3928
2026-01-18 01:22:44.16	87.10	35.08	-22.9	-23.7	19.2	0.00e+00	0	44	0	1781530624	6	3966
2026-01-18 01:22:47.17	88.30	35.16	-23.0	-23.9	20.0	1.20e-04	0	44	0	1799356416	6	3997
2026-01-18 01:22:50.19	89.51	35.24	-23.1	-24.1	19.9	0.00e+00	0	44	0	1816133632	6	4059
2026-01-18 01:22:53.20	90.72	35.30	-23.3	-24.6	19.6	0.00e+00	0	44	0	1832910848	6	4176
2026-01-18 01:22:56.20	91.93	35.34	-22.9	-23.8	20.0	8.35e-05	0	44	0	1849688064	6	3983
2026-01-18 01:22:59.21	93.15	35.37	-23.0	-23.9	20.0	1.25e-05	0	44	0	1866465280	6	4001
2026-01-18 01:23:02.23	94.38	35.39	-22.8	-23.5	20.2	0.00e+00	0	44	0	1883242496	6	3911
2026-01-18 01:23:05.23	95.59	35.39	-22.9	-23.7	20.1	3.31e-05	0	44	0	1900019712	6	3963
2026-01-18 01:23:08.25	96.82	35.38	-22.7	-23.3	20.2	0.00e+00	0	44	0	1917845504	6	3859
2026-01-18 01:23:11.25	98.03	35.36	-23.0	-23.9	20.0	0.00e+00	0	44	0	1934622720	6	4015
2026-01-18 01:23:14.25	99.24	35.32	-22.8	-23.6	20.1	0.00e+00	0	44	0	1951399936	6	3939
2026-01-18 01:23:17.26	100.46	35.26	-23.0	-23.9	20.0	0.00e+00	0	44	0	1968177152	6	4002
2026-01-18 01:23:20.27	101.67	35.20	-22.8	-23.5	20.1	5.49e-05	0	44	0	1984954368	6	3917
2026-01-18 01:23:23.28	102.87	35.11	-22.8	-23.6	20.0	0.00e+00	0	44	0	2001731584	6	3945
2026-01-18 01:23:26.30	104.07	35.02	-22.7	-23.4	20.2	2.17e-05	0	44	0	2018508800	6	3883
2026-01-18 01:23:29.30	105.26	34.91	-22.8	-23.7	20.0	8.01e-05	0	44	0	2035286016	6	3955
2026-01-18 01:23:32.30	106.44	34.79	-22.9	-23.7	20.0	0.00e+00	0	44	0	2053111808	6	3954
2026-01-18 01:23:35.30	107.61	34.66	-23.3	-24.7	19.5	0.00e+00	0	44	0	2069889024	6	4208
2026-01-18 01:23:38.31	108.77	34.51	-22.9	-23.6	20.0	0.00e+00	0	44	0	2086666240	6	3938
2026-01-18 01:23:41.33	109.92	34.35	-23.1	-24.2	19.8	0.00e+00	0	44	0	2103443456	6	4079
2026-01-18 01:23:44.34	111.07	34.18	-23.4	-24.7	19.5	0.00e+00	0	44	0	2120220672	6	4209
2026-01-18 01:23:47.33	112.19	34.00	-23.4	-24.8	19.5	0.00e+00	0	44	0	2136997888	6	4221
2026-01-18 01:23:50.34	113.30	33.81	-23.9	-24.9	19.0	0.00e+00	0	43	0	2153775104	8	4029
2026-01-18 01:23:53.34	114.40	33.61	-22.9	-23.3	19.9	0.00e+00	0	44	0	2170552320	7	3772
2026-01-18 01:23:56.34	115.49	33.39	-23.3	-24.1	19.6	0.00e+00	0	44	0	2188378112	7	3943
2026-01-18 01:23:59.34	116.56	33.17	-23.3	-24.2	19.5	0.00e+00	0	44	0	2205155328	7	3964
2026-01-18 01:24:02.34	117.62	32.94	-23.3	-24.1	19.5	0.00e+00	0	44	0	2221932544	7	3950
2026-01-18 01:24:05.35	118.67	32.70	-23.5	-24.5	19.4	0.00e+00	0	44	0	2238709760	7	4033
2026-01-18 01:24:08.36	119.70	32.45	-23.4	-24.2	19.5	0.00e+00	0	44	0	2255486976	7	3979
2026-01-18 01:24:11.37	120.71	32.19	-23.7	-24.9	19.2	0.00e+00	0	44	0	2272264192	7	4134
2026-01-18 01:24:14.38	121.71	31.93	-23.4	-24.3	19.4	0.00e+00	0	44	0	2289041408	7	3989
2026-01-18 01:24:17.38	122.69	31.66	-23.4	-24.4	19.4	0.00e+00	0	44	0	2305818624	7	4022
2026-01-18 01:24:20.39	123.66	31.38	-23.4	-24.3	19.4	0.00e+00	0	44	0	2323644416	7	4003
2026-01-18 01:24:23.41	124.61	31.10	-23.2	-23.9	19.7	0.00e+00	0	44	0	2340421632	7	3891
2026-01-18 01:24:26.42	125.55	30.81	-23.2	-23.9	19.6	0.00e+00	0	44	0	2357198848	7	3906
2026-01-18 01:24:29.43	126.46	30.52	-23.5	-24.6	19.2	0.00e+00	0	44	0	2373976064	7	4067
2026-01-18 01:24:32.45	127.37	30.22	-23.4	-24.2	19.4	0.00e+00	0	44	0	2390753280	7	3973
2026-01-18 01:24:35.46	128.25	29.91	-23.3	-24.1	19.5	0.00e+00	0	44	0	2407530496	7	3938
2026-01-18 01:24:38.47	129.12	29.61	-23.3	-24.1	19.5	0.00e+00	0	44	0	2425356288	7	3943
2026-01-18 01:24:41.48	129.98	29.30	-23.2	-23.9	19.6	0.00e+00	0	44	0	2442133504	7	3894
2026-01-18 01:24:44.49	130.81	28.98	-23.3	-24.1	19.4	0.00e+00	0	44	0	2458910720	7	3954
2026-01-18 01:24:47.49	131.63	28.67	-23.6	-24.8	19.1	1.61e-04	0	44	0	2475687936	7	4123
2026-01-18 01:24:50.49	132.43	28.35	-23.8	-25.1	18.9	0.00e+00	0	44	0	2492465152	7	4194
2026-01-18 01:24:53.49	133.22	28.03	-23.2	-23.9	19.5	0.00e+00	0	44	0	2509242368	7	3887
2026-01-18 01:24:56.50	134.00	27.71	-23.5	-24.6	19.1	3.64e-04	0	44	0	2526019584	7	4077
2026-01-18 01:24:59.51	134.75	27.38	-23.7	-25.1	18.9	2.45e-04	0	44	0	2542796800	7	4196
2026-01-18 01:25:02.52	135.50	27.06	-23.7	-24.9	19.0	0.00e+00	0	44	0	2560622592	7	4158
2026-01-18 01:25:05.52	136.23	26.73	-23.7	-25.0	18.9	3.02e-04	0	44	0	2577399808	7	4167
2026-01-18 01:25:08.53	136.94	26.40	-23.8	-25.2	18.8	8.23e-05	0	44	0	2594177024	7	4237
2026-01-18 01:25:11.54	137.64	26.07	-23.7	-24.9	18.9	1.51e-04	0	44	0	2610954240	7	4150
2026-01-18 01:25:14.55	138.33	25.74	-23.3	-24.1	19.3	5.74e-04	0	44	0	2627731456	7	3958
2026-01-18 01:25:17.56	139.00	25.42	-23.6	-24.8	19.0	3.51e-04	0	44	0	2644508672	7	4115
2026-01-18 01:25:20.57	139.66	25.09	-23.8	-25.1	18.8	4.87e-04	0	44	0	2662334464	7	4200
2026-01-18 01:25:23.58	140.31	24.76	-23.7	-24.9	18.9	0.00e+00	0	44	0	2679111680	7	4144
2026-01-18 01:25:26.58	140.94	24.43	-23.8	-25.2	18.7	0.00e+00	0	44	0	2695888896	7	4227
2026-01-18 01:25:29.59	141.56	24.10	-24.0	-25.5	18.6	7.71e-04	0	44	0	2712666112	7	4305
2026-01-18 01:25:32.59	142.16	23.78	-24.3	-25.7	18.3	0.00e+00	0	44	0	2729443328	8	4228
2026-01-18 01:25:35.60	142.76	23.45	-24.2	-25.5	18.3	0.00e+00	0	44	0	2746220544	8	4200
2026-01-18 01:25:38.61	143.34	23.13	-24.1	-25.4	18.3	0.00e+00	0	44	0	2762997760	8	4158
2026-01-18 01:25:41.62	143.91	22.80	-24.1	-25.3	18.4	0.00e+00	0	44	0	2779774976	8	4147
2026-01-18 01:25:44.63	144.47	22.48	-24.3	-25.7	18.2	0.00e+00	0	44	0	2797600768	8	4233
2026-01-18 01:25:47.64	145.02	22.16	-24.2	-25.6	18.2	0.00e+00	0	44	0	2814377984	8	4208
2026-01-18 01:25:50.66	145.56	21.84	-24.1	-25.4	18.3	0.00e+00	0	44	0	2831155200	8	4166
2026-01-18 01:25:53.67	146.09	21.52	-24.2	-25.6	18.2	0.00e+00	0	44	0	2847932416	8	4210
2026-01-18 01:25:56.68	146.61	21.20	-24.4	-26.0	18.0	0.00e+00	0	44	0	2864709632	8	4304
2026-01-18 01:25:59.69	147.12	20.89	-24.6	-25.9	17.7	1.10e-06	0	44	0	2881486848	9	4185
2026-01-18 01:26:02.69	147.61	20.58	-24.9	-26.0	17.5	0.00e+00	0	44	0	2898264064	10	4073
2026-01-18 01:26:05.71	148.10	20.26	-25.2	-26.7	17.0	0.00e+00	0	44	0	2915041280	10	4278
2026-01-18 01:26:08.72	148.58	19.96	-25.4	-26.7	16.8	3.40e-06	0	44	0	2932867072	11	4155
2026-01-18 01:26:11.73	149.05	19.65	-25.2	-26.7	17.0	3.40e-06	0	44	0	2949644288	10	4281
2026-01-18 01:26:14.74	149.51	19.34	-25.1	-26.4	17.2	1.10e-06	0	44	0	2966421504	10	4196
2026-01-18 01:26:17.75	149.96	19.04	-25.2	-26.6	17.1	0.00e+00	0	44	0	2983198720	10	4252
2026-01-18 01:26:20.74	150.40	18.74	-25.4	-27.1	16.8	0.00e+00	0	44	0	2999975936	10	4370
2026-01-18 01:26:23.75	150.83	18.44	-25.5	-27.3	16.6	1.10e-06	0	44	0	3016753152	10	4457
2026-01-18 01:26:26.77	151.26	18.14	-25.2	-26.6	16.4	0.00e+00	0	44	0	3034578944	11	4259
2026-01-18 01:26:29.78	151.68	17.85	-25.4	-27.2	16.7	0.00e+00	0	44	0	3051356160	10	4399
2026-01-18 01:26:32.79	152.09	17.55	-25.6	-27.0	16.5	0.00e+00	0	44	0	3068133376	11	4234
2026-01-18 01:26:35.81	152.49	17.26	-25.5	-26.9	16.6	1.68e-04	0	44	0	3084910592	11	4209
2026-01-18 01:26:38.82	152.88	16.97	-25.5	-26.9	16.5	0.00e+00	0	44	0	3101687808	11	4216
2026-01-18 01:26:41.83	153.27	16.68	-25.5	-26.8	16.5	0.00e+00	0	44	0	3118465024	11	4210
2026-01-18 01:26:44.84	153.65	16.40	-25.5	-27.0	16.4	1.86e-04	0	44	0	3135242240	11	4243
2026-01-18 01:26:47.85	154.03	16.12	-25.7	-27.3	16.3	2.25e-04	0	44	0	3153068032	11	4321
2026-01-18 01:26:50.85	154.39	15.84	-25.8	-27.5	16.2	0.00e+00	0	44	0	3169845248	11	4379
2026-01-18 01:26:53.87	154.75	15.56	-26.3	-28.1	15.5	2.04e-04	0	44	0	3186622464	12	4442
2026-01-18 01:26:56.87	155.11	15.28	-26.1	-27.6	15.8	2.07e-04	0	44	0	3203399680	12	4292
2026-01-18 01:26:59.89	155.46	15.01	-26.1	-27.7	15.7	2.02e-04	0	44	0	3220176896	12	4332
2026-01-18 01:27:02.90	155.80	14.74	-26.0	-27.9	15.9	1.60e-04	0	44	0	3236954112	11	4484
2026-01-18 01:27:05.92	156.13	14.47	-25.9	-27.7	16.1	6.06e-05	0	44	0	3254779904	11	4420
2026-01-18 01:27:08.92	156.46	14.20	-26.2	-27.8	15.6	6.17e-05	0	44	0	3271557120	12	4363
2026-01-18 01:27:11.92	156.79	13.93	-26.1	-27.7	15.6	0.00e+00	0	44	0	3288334336	12	4334
2026-01-18 01:27:14.94	157.11	13.67	-26.2	-27.9	15.5	2.74e-05	0	44	0	3305111552	12	4376
2026-01-18 01:27:17.96	157.42	13.41	-26.3	-28.2	15.4	8.01e-05	0	44	0	3321888768	12	4471
2026-01-18 01:27:20.96	157.73	13.15	-26.6	-28.3	15.0	0.00e+00	0	44	0	3338665984	13	4378
2026-01-18 01:27:23.98	158.03	12.89	-26.5	-28.2	15.1	0.00e+00	0	44	0	3355443200	13	4351
2026-01-18 01:27:26.99	158.33	12.64	-26.3	-28.2	15.3	0.00e+00	0	44	0	3373268992	12	4462
2026-01-18 01:27:30.00	158.62	12.38	-26.4	-28.4	15.2	0.00e+00	0	44	0	3390046208	12	4537
2026-01-18 01:27:33.01	158.91	12.13	-26.5	-28.1	15.1	1.10e-06	0	44	0	3406823424	13	4334
2026-01-18 01:27:36.01	159.19	11.88	-26.5	-28.2	15.0	0.00e+00	0	44	0	3423600640	13	4349
2026-01-18 01:27:39.00	159.47	11.64	-26.9	-28.9	14.6	0.00e+00	0	44	0	3440377856	13	4565
2026-01-18 01:27:42.01	159.75	11.39	-27.1	-29.0	14.2	0.00e+00	0	44	0	3457155072	14	4482
2026-01-18 01:27:45.02	160.02	11.15	-27.0	-29.3	14.3	0.00e+00	0	44	0	3473932288	13	4695
2026-01-18 01:27:48.02	160.28	10.91	-26.8	-29.0	14.5	0.00e+00	0	44	0	3490709504	13	4596
2026-01-18 01:27:51.03	160.54	10.67	-26.8	-28.9	14.5	2.20e-06	0	44	0	3508535296	13	4580
2026-01-18 01:27:54.02	160.80	10.43	-27.0	-28.8	14.2	0.00e+00	0	44	0	3525312512	14	4443
2026-01-18 01:27:57.02	161.05	10.19	-27.1	-29.1	14.1	0.00e+00	0	44	0	3542089728	14	4518
2026-01-18 01:28:00.03	161.30	9.96	-27.5	-29.9	13.6	2.20e-06	0	44	0	3558866944	14	4770
2026-01-18 01:28:03.03	161.55	9.73	-26.9	-28.6	14.3	0.00e+00	0	44	0	3575644160	14	4374
2026-01-18 01:28:06.03	161.79	9.50	-27.1	-29.1	14.0	1.10e-06	0	44	0	3592421376	14	4510
2026-01-18 01:28:09.04	162.03	9.27	-27.2	-29.2	14.0	2.20e-06	0	44	0	3609198592	14	4536
2026-01-18 01:28:12.06	162.26	9.04	-27.1	-29.0	14.1	4.50e-06	0	44	0	3625975808	14	4475
2026-01-18 01:28:15.06	162.50	8.81	-27.3	-29.4	13.8	0.00e+00	0	44	0	3643801600	14	4595
2026-01-18 01:28:18.07	162.72	8.59	-27.0	-28.9	14.1	3.40e-06	0	44	0	3660578816	14	4451
2026-01-18 01:28:21.09	162.95	8.37	-27.0	-28.7	14.2	1.10e-06	0	44	0	3677356032	14	4407
2026-01-18 01:28:24.10	163.17	8.14	-26.9	-28.5	14.1	1.10e-06	0	44	0	3694133248	14	4337
2026-01-18 01:28:27.11	163.39	7.93	-27.2	-29.3	11.9	3.40e-06	0	44	0	3710910464	14	4592
2026-01-18 01:28:30.11	163.61	7.71	-27.5	-29.6	13.3	1.02e-05	0	44	0	3727687680	15	4568
2026-01-18 01:28:33.12	163.82	7.49	-27.4	-29.8	13.4	1.25e-05	0	44	0	3744464896	14	4759
2026-01-18 01:28:36.14	164.03	7.28	-27.3	-29.5	13.5	1.45e-03	0	44	0	3761242112	14	4675
2026-01-18 01:28:39.14	164.23	7.06	-27.5	-30.1	13.2	1.37e-05	0	44	0	3779067904	14	4853

#Closed at: 2026-01-18 01:28:42
#Recorded file [3780 MB]: D:/data/31010_260118_041727.dat