passes_logs/2026/01/18/R2M6_AANII_01/R2M6_AANII_01__20260118_115306_SUOMI_NPP_rec.log

#Pass ID: 20260118_115306_SUOMI NPP
#Satellite: SUOMI NPP
#Configuration: NPP
#almurnet v.1.7.20240730
#Start time: 2026-01-18 11:53:05

#Version: 2.2.20231116
#Station: R2M6_AANII_01
#Location: 30.233357 lon 59.946436 lat
#TLE: 1 37849U 11061A   26017.28905266  .00000074  00000+0  55894-4 0  9999
#TLE: 2 37849  98.7814 319.3179 0002408  59.7048 300.4366 14.19525847737038

#Time	Az	El	Level	Level2	SNR	BER	BlckErr	Temp	State	Recorded	gain1	gain2
2026-01-18 11:53:05.82	208.63	6.95	-30.3	-32.1	5.6	1.15e+00	0	40	0	0	22	4394
2026-01-18 11:53:08.83	208.90	7.15	-31.3	-35.4	8.8	3.41e-02	0	41	0	1048576	22	5761
2026-01-18 11:53:11.85	209.17	7.35	-31.1	-34.6	9.3	2.32e-02	0	41	0	7340032	22	5412
2026-01-18 11:53:14.85	209.44	7.55	-30.5	-32.6	11.0	3.81e-03	0	41	0	12582912	22	4567
2026-01-18 11:53:17.87	209.72	7.75	-30.5	-32.2	11.4	1.04e-03	0	41	0	17825792	22	4421
2026-01-18 11:53:20.88	210.00	7.95	-30.5	-32.4	11.4	9.66e-04	0	41	0	24117248	22	4475
2026-01-18 11:53:23.89	210.28	8.15	-30.4	-32.6	11.6	8.48e-04	0	41	0	29360128	21	4626
2026-01-18 11:53:26.90	210.57	8.35	-30.4	-32.6	11.6	8.00e-04	0	41	0	35651584	21	4620
2026-01-18 11:53:29.89	210.86	8.56	-30.5	-32.7	11.5	6.73e-04	0	41	0	40894464	21	4654
2026-01-18 11:53:32.91	211.16	8.76	-30.3	-32.2	12.0	4.45e-04	0	41	0	46137344	21	4463
2026-01-18 11:53:35.93	211.46	8.97	-30.4	-32.3	12.0	2.94e-04	0	42	0	52428800	21	4489
2026-01-18 11:53:38.93	211.76	9.17	-30.4	-32.4	12.1	4.78e-04	0	42	0	57671680	21	4501
2026-01-18 11:53:41.94	212.07	9.38	-30.5	-32.7	11.8	3.49e-04	0	42	0	63963136	21	4638
2026-01-18 11:53:44.95	212.38	9.59	-30.4	-32.4	12.0	4.53e-04	0	42	0	69206016	21	4525
2026-01-18 11:53:47.95	212.70	9.80	-30.5	-32.6	11.8	4.64e-04	0	42	0	74448896	21	4586
2026-01-18 11:53:50.97	213.02	10.01	-30.2	-31.8	12.5	1.53e-04	0	42	0	80740352	21	4301
2026-01-18 11:53:53.97	213.34	10.22	-30.3	-31.8	12.5	1.10e-04	0	42	0	85983232	21	4314
2026-01-18 11:53:56.99	213.68	10.44	-30.3	-31.8	12.4	1.11e-04	0	42	0	91226112	21	4321
2026-01-18 11:53:59.99	214.01	10.65	-30.1	-31.5	12.8	7.24e-05	0	42	0	97517568	21	4187
2026-01-18 11:54:03.00	214.35	10.86	-30.3	-32.1	12.4	1.28e-04	0	42	0	102760448	21	4383
2026-01-18 11:54:06.01	214.69	11.08	-30.6	-32.8	11.9	2.42e-04	0	42	0	109051904	21	4630
2026-01-18 11:54:09.02	215.04	11.30	-30.6	-32.9	11.8	7.70e-04	0	42	0	114294784	21	4660
2026-01-18 11:54:12.02	215.40	11.51	-30.7	-33.1	11.7	6.07e-04	0	42	0	119537664	21	4734
2026-01-18 11:54:15.03	215.76	11.73	-30.7	-33.0	11.8	3.71e-04	0	42	0	125829120	21	4702
2026-01-18 11:54:18.04	216.12	11.95	-30.6	-32.7	12.1	3.23e-04	0	42	0	131072000	21	4578
2026-01-18 11:54:21.06	216.49	12.18	-30.7	-33.0	11.9	2.67e-04	0	42	0	136314880	21	4679
2026-01-18 11:54:24.07	216.87	12.40	-30.5	-32.3	12.4	1.84e-04	0	43	0	142606336	21	4448
2026-01-18 11:54:27.08	217.25	12.62	-30.5	-32.4	12.3	1.23e-04	0	43	0	147849216	21	4476
2026-01-18 11:54:30.09	217.64	12.84	-30.2	-31.6	12.8	5.95e-05	0	43	0	154140672	21	4230
2026-01-18 11:54:33.10	218.03	13.07	-30.4	-32.1	12.5	8.23e-05	0	43	0	159383552	21	4390
2026-01-18 11:54:36.10	218.43	13.29	-30.2	-31.7	12.8	4.34e-05	0	43	0	164626432	21	4233
2026-01-18 11:54:39.11	218.83	13.52	-30.1	-31.2	13.2	1.98e-05	0	43	0	170917888	21	4082
2026-01-18 11:54:42.12	219.24	13.75	-30.1	-31.2	13.2	2.44e-05	0	43	0	176160768	21	4084
2026-01-18 11:54:45.13	219.66	13.97	-30.4	-32.0	12.7	6.48e-05	0	43	0	182452224	21	4331
2026-01-18 11:54:48.15	220.08	14.20	-30.5	-32.4	12.4	1.14e-04	0	43	0	187695104	21	4466
2026-01-18 11:54:51.16	220.51	14.43	-30.5	-32.2	12.5	1.23e-04	0	43	0	192937984	21	4402
2026-01-18 11:54:54.17	220.95	14.66	-30.6	-32.6	12.3	1.76e-04	0	43	0	199229440	21	4528
2026-01-18 11:54:57.18	221.39	14.89	-30.5	-32.4	12.4	1.17e-04	0	43	0	204472320	21	4474
2026-01-18 11:55:00.18	221.84	15.12	-30.5	-32.2	12.6	4.88e-05	0	43	0	209715200	21	4403
2026-01-18 11:55:03.19	222.29	15.35	-30.1	-31.0	13.4	3.43e-05	0	43	0	216006656	21	4031
2026-01-18 11:55:06.19	222.75	15.59	-29.8	-30.4	13.8	3.80e-06	0	43	0	221249536	21	3861
2026-01-18 11:55:09.20	223.22	15.82	-29.7	-30.5	14.0	2.20e-06	0	43	0	227540992	20	3973
2026-01-18 11:55:12.21	223.70	16.05	-29.7	-30.4	14.1	3.00e-06	0	43	0	232783872	20	3943
2026-01-18 11:55:15.21	224.18	16.28	-29.9	-31.1	13.7	5.30e-06	0	43	0	238026752	20	4119
2026-01-18 11:55:18.22	224.67	16.52	-30.0	-31.3	13.6	1.06e-05	0	43	0	244318208	20	4203
2026-01-18 11:55:21.23	225.17	16.75	-30.1	-31.6	13.5	1.06e-05	0	43	0	249561088	20	4269
2026-01-18 11:55:24.23	225.68	16.98	-30.0	-31.3	13.6	1.22e-05	0	43	0	254803968	20	4172
2026-01-18 11:55:27.24	226.19	17.22	-30.0	-31.2	13.7	6.10e-06	0	43	0	261095424	20	4158
2026-01-18 11:55:30.25	226.71	17.45	-29.8	-30.8	14.0	4.50e-06	0	43	0	266338304	20	4033
2026-01-18 11:55:33.27	227.24	17.69	-29.4	-29.9	14.5	7.00e-07	0	43	0	272629760	20	3777
2026-01-18 11:55:36.28	227.78	17.92	-29.3	-29.6	14.7	1.50e-06	0	43	0	277872640	20	3717
2026-01-18 11:55:39.28	228.33	18.15	-29.1	-29.5	15.2	0.00e+00	0	43	0	283115520	19	3760
2026-01-18 11:55:42.30	228.88	18.39	-29.4	-30.2	14.8	0.00e+00	0	43	0	289406976	19	3939
2026-01-18 11:55:45.30	229.44	18.62	-29.6	-30.9	14.3	7.00e-07	0	43	0	294649856	19	4139
2026-01-18 11:55:48.31	230.01	18.85	-29.7	-30.9	14.4	2.20e-06	0	43	0	299892736	19	4138
2026-01-18 11:55:51.32	230.59	19.08	-29.8	-31.2	14.2	0.00e+00	0	43	0	306184192	19	4228
2026-01-18 11:55:54.32	231.18	19.32	-30.1	-31.6	13.6	9.90e-06	0	43	0	311427072	20	4265
2026-01-18 11:55:57.33	231.78	19.55	-29.8	-30.9	14.0	3.80e-06	0	43	0	317718528	20	4047
2026-01-18 11:56:00.34	232.38	19.77	-29.7	-30.4	14.4	0.00e+00	0	43	0	322961408	20	3918
2026-01-18 11:56:03.35	233.00	20.00	-29.5	-30.0	14.6	0.00e+00	0	43	0	328204288	20	3794
2026-01-18 11:56:06.37	233.62	20.23	-29.4	-30.1	15.0	0.00e+00	0	43	0	334495744	19	3899
2026-01-18 11:56:09.38	234.25	20.46	-29.0	-29.1	15.6	0.00e+00	0	43	0	339738624	19	3645
2026-01-18 11:56:12.38	234.89	20.68	-29.0	-29.1	15.5	0.00e+00	0	43	0	346030080	19	3651
2026-01-18 11:56:15.39	235.54	20.90	-28.8	-29.1	15.9	0.00e+00	0	43	0	351272960	18	3726
2026-01-18 11:56:18.38	236.20	21.12	-28.9	-29.5	15.6	0.00e+00	0	43	0	356515840	18	3845
2026-01-18 11:56:21.39	236.87	21.34	-29.0	-29.6	15.6	0.00e+00	0	43	0	362807296	18	3873
2026-01-18 11:56:24.40	237.54	21.56	-29.1	-29.9	15.4	0.00e+00	0	43	0	368050176	18	3938
2026-01-18 11:56:27.41	238.23	21.77	-29.2	-30.1	15.3	0.00e+00	0	43	0	373293056	18	3995
2026-01-18 11:56:30.41	238.93	21.98	-28.7	-28.9	16.0	0.00e+00	0	43	0	379584512	18	3692
2026-01-18 11:56:33.41	239.63	22.19	-28.9	-29.3	15.8	0.00e+00	0	43	0	384827392	18	3794
2026-01-18 11:56:36.42	240.34	22.40	-29.2	-30.2	15.3	0.00e+00	0	43	0	391118848	18	4025
2026-01-18 11:56:39.43	241.07	22.60	-29.2	-30.1	15.3	0.00e+00	0	43	0	396361728	18	3980
2026-01-18 11:56:42.44	241.80	22.80	-29.3	-30.4	15.2	0.00e+00	0	43	0	401604608	18	4071
2026-01-18 11:56:45.45	242.55	23.00	-29.6	-30.5	14.8	7.00e-07	0	43	0	407896064	19	4011
2026-01-18 11:56:48.47	243.30	23.20	-29.4	-30.0	15.1	0.00e+00	0	43	0	413138944	19	3879
2026-01-18 11:56:51.48	244.06	23.39	-29.9	-31.0	14.2	3.00e-06	0	43	0	419430400	20	4052
2026-01-18 11:56:54.49	244.83	23.57	-29.6	-30.1	14.7	1.50e-06	0	43	0	424673280	20	3815
2026-01-18 11:56:57.50	245.61	23.76	-29.7	-30.4	14.6	0.00e+00	0	43	0	429916160	20	3895
2026-01-18 11:57:00.51	246.40	23.93	-30.4	-31.6	13.4	1.60e-05	0	43	0	436207616	21	4155
2026-01-18 11:57:03.53	247.20	24.11	-30.8	-32.9	12.6	5.87e-05	0	43	0	441450496	21	4577
2026-01-18 11:57:06.53	248.00	24.28	-31.2	-33.5	11.9	3.07e-04	0	43	0	446693376	22	4675
2026-01-18 11:57:09.55	248.81	24.44	-30.2	-31.2	13.7	6.10e-06	0	43	0	452984832	21	4039
2026-01-18 11:57:12.55	249.63	24.60	-30.8	-32.9	12.6	6.48e-05	0	43	0	458227712	21	4563
2026-01-18 11:57:15.54	250.46	24.75	-31.7	-34.4	10.9	1.23e-03	0	43	0	464519168	23	4937
2026-01-18 11:57:18.55	251.29	24.90	-31.5	-34.0	11.2	3.56e-03	0	43	0	469762048	23	4791
2026-01-18 11:57:21.56	252.14	25.05	-30.5	-31.5	13.3	2.67e-05	0	43	0	475004928	22	4037
2026-01-18 11:57:24.56	252.99	25.18	-31.5	-33.9	11.3	6.00e-04	0	43	0	481296384	23	4752
2026-01-18 11:57:27.57	253.85	25.31	-32.0	-35.0	10.2	6.37e-03	0	43	0	486539264	24	5065
2026-01-18 11:57:30.57	254.71	25.44	-31.9	-34.5	10.6	2.94e-03	0	43	0	491782144	24	4877
2026-01-18 11:57:33.58	255.58	25.56	-31.8	-34.2	10.7	3.90e-03	0	43	0	498073600	24	4744
2026-01-18 11:57:36.59	256.46	25.67	-31.3	-33.1	12.0	2.20e-04	0	43	0	503316480	23	4445
2026-01-18 11:57:39.60	257.35	25.78	-31.7	-34.3	11.1	1.70e-03	0	43	0	509607936	23	4884
2026-01-18 11:57:42.62	258.24	25.88	-31.3	-33.1	12.0	3.85e-04	0	43	0	514850816	23	4425
2026-01-18 11:57:45.62	259.13	25.97	-32.0	-34.8	10.3	5.12e-03	0	43	0	520093696	24	5004
2026-01-18 11:57:48.63	260.03	26.05	-31.3	-32.6	11.9	6.93e-04	0	43	0	526385152	24	4198
2026-01-18 11:57:51.63	260.94	26.13	-31.2	-32.7	12.2	2.00e-04	0	43	0	531628032	23	4316
2026-01-18 11:57:54.64	261.84	26.20	-31.3	-33.1	12.0	3.09e-04	0	43	0	536870912	23	4445
2026-01-18 11:57:57.65	262.76	26.27	-31.3	-33.1	11.9	4.21e-04	0	43	0	543162368	23	4436
2026-01-18 11:58:00.67	263.68	26.32	-31.2	-32.9	12.1	2.89e-04	0	43	0	548405248	23	4369
2026-01-18 11:58:03.67	264.59	26.37	-30.8	-31.8	12.9	1.33e-04	0	43	0	554696704	23	4013
2026-01-18 11:58:06.67	265.51	26.41	-31.3	-33.6	12.0	2.61e-04	0	43	0	559939584	22	4691
2026-01-18 11:58:09.68	266.43	26.44	-31.1	-32.5	12.3	3.05e-04	0	43	0	565182464	23	4249
2026-01-18 11:58:12.69	267.36	26.47	-31.2	-32.8	12.1	2.13e-04	0	43	0	571473920	23	4347
2026-01-18 11:58:15.70	268.28	26.49	-31.5	-33.6	11.6	5.99e-04	0	43	0	576716800	23	4604
2026-01-18 11:58:18.72	269.21	26.50	-31.2	-33.0	12.0	2.94e-04	0	43	0	581959680	23	4398
2026-01-18 11:58:21.73	270.14	26.50	-31.5	-33.9	11.5	9.76e-04	0	43	0	588251136	23	4711
2026-01-18 11:58:24.74	271.07	26.49	-30.3	-31.0	13.7	3.80e-06	0	43	0	593494016	22	3863
2026-01-18 11:58:27.73	271.99	26.48	-30.7	-32.5	13.1	2.89e-05	0	43	0	599785472	21	4408
2026-01-18 11:58:30.74	272.91	26.46	-30.4	-31.5	13.7	1.29e-05	0	43	0	605028352	21	4109
2026-01-18 11:58:33.75	273.84	26.43	-30.7	-32.5	13.0	1.90e-05	0	43	0	610271232	21	4418
2026-01-18 11:58:36.77	274.76	26.39	-30.9	-33.0	12.7	5.41e-05	0	43	0	616562688	21	4572
2026-01-18 11:58:39.79	275.68	26.34	-31.2	-33.3	12.2	1.45e-04	0	43	0	621805568	22	4590
2026-01-18 11:58:42.80	276.60	26.29	-31.3	-33.7	11.9	4.46e-04	0	43	0	628097024	22	4731
2026-01-18 11:58:45.80	277.51	26.23	-30.6	-31.7	13.3	4.65e-05	0	43	0	633339904	22	4065
2026-01-18 11:58:48.81	278.42	26.16	-30.0	-30.6	14.3	7.00e-07	0	43	0	638582784	21	3852
2026-01-18 11:58:51.83	279.33	26.09	-30.2	-31.1	13.9	2.20e-06	0	43	0	644874240	21	3994
2026-01-18 11:58:54.84	280.23	26.01	-30.2	-30.9	14.1	7.00e-07	0	43	0	650117120	21	3944
2026-01-18 11:58:57.86	281.13	25.92	-30.4	-31.6	13.6	7.60e-06	0	43	0	655360000	21	4147
2026-01-18 11:59:00.87	282.02	25.82	-30.2	-31.0	14.0	1.50e-06	0	43	0	661651456	21	3957
2026-01-18 11:59:03.88	282.90	25.72	-29.9	-30.9	14.4	0.00e+00	0	43	0	666894336	20	4012
2026-01-18 11:59:06.90	283.78	25.61	-30.6	-32.0	13.4	1.22e-05	0	43	0	673185792	21	4259
2026-01-18 11:59:09.91	284.66	25.49	-30.3	-31.5	13.8	2.20e-06	0	43	0	678428672	21	4104
2026-01-18 11:59:12.91	285.52	25.37	-30.2	-31.1	14.0	6.10e-06	0	43	0	683671552	21	3980
2026-01-18 11:59:15.91	286.38	25.24	-30.0	-30.5	14.3	7.00e-07	0	43	0	689963008	21	3835
2026-01-18 11:59:18.93	287.23	25.11	-29.5	-29.7	15.0	0.00e+00	0	43	0	695205888	20	3709
2026-01-18 11:59:21.94	288.08	24.97	-29.5	-30.2	15.1	0.00e+00	0	43	0	701497344	19	3918
2026-01-18 11:59:24.96	288.92	24.82	-29.4	-30.0	15.3	0.00e+00	0	43	0	706740224	19	3857
2026-01-18 11:59:27.96	289.75	24.67	-29.4	-30.0	15.3	0.00e+00	0	43	0	711983104	19	3855
2026-01-18 11:59:30.96	290.57	24.51	-29.6	-30.5	15.0	0.00e+00	0	43	0	718274560	19	4006
2026-01-18 11:59:33.97	291.38	24.35	-28.6	-28.7	16.3	0.00e+00	0	43	0	723517440	18	3613
2026-01-18 11:59:36.98	292.18	24.18	-28.5	-28.5	16.4	0.00e+00	0	43	0	728760320	18	3568
2026-01-18 11:59:39.99	292.98	24.01	-28.5	-28.5	16.5	0.00e+00	0	43	0	735051776	18	3570
2026-01-18 11:59:43.01	293.77	23.84	-28.7	-28.8	16.3	0.00e+00	0	43	0	740294656	18	3643
2026-01-18 11:59:46.01	294.55	23.66	-29.1	-29.8	15.7	0.00e+00	0	43	0	746586112	18	3903
2026-01-18 11:59:49.02	295.32	23.47	-28.7	-28.8	16.3	0.00e+00	0	43	0	751828992	18	3650
2026-01-18 11:59:52.02	296.08	23.29	-29.1	-29.7	15.7	0.00e+00	0	43	0	757071872	18	3867
2026-01-18 11:59:55.03	296.83	23.10	-28.8	-29.1	16.0	0.00e+00	0	43	0	763363328	18	3728
2026-01-18 11:59:58.05	297.58	22.90	-29.3	-30.3	15.4	0.00e+00	0	43	0	768606208	18	4030
2026-01-18 12:00:01.06	298.31	22.70	-29.8	-31.0	14.6	0.00e+00	0	43	0	773849088	19	4148
2026-01-18 12:00:04.07	299.04	22.50	-30.0	-31.1	14.2	0.00e+00	0	43	0	780140544	20	4098
2026-01-18 12:00:07.08	299.75	22.30	-29.9	-30.9	14.3	7.00e-07	0	43	0	785383424	20	4025
2026-01-18 12:00:10.08	300.46	22.09	-30.2	-31.5	13.9	6.80e-06	0	43	0	791674880	20	4213
2026-01-18 12:00:13.10	301.16	21.88	-29.4	-29.5	15.2	0.00e+00	0	43	0	796917760	20	3640
2026-01-18 12:00:16.11	301.85	21.67	-29.7	-30.9	14.7	0.00e+00	0	44	0	802160640	19	4113
2026-01-18 12:00:19.11	302.52	21.45	-30.3	-31.9	13.7	8.30e-06	0	43	0	808452096	20	4331
2026-01-18 12:00:22.11	303.19	21.24	-29.6	-30.1	14.8	0.00e+00	0	43	0	813694976	20	3807
2026-01-18 12:00:25.12	303.85	21.02	-29.3	-29.8	15.3	0.00e+00	0	43	0	819986432	19	3809
2026-01-18 12:00:28.13	304.50	20.80	-30.0	-31.1	14.2	0.00e+00	0	43	0	825229312	20	4070
2026-01-18 12:00:31.14	305.15	20.58	-30.3	-32.0	13.6	6.80e-06	0	43	0	830472192	20	4362
2026-01-18 12:00:34.15	305.78	20.36	-30.8	-32.9	12.6	8.77e-05	0	43	0	836763648	21	4563
2026-01-18 12:00:37.16	306.40	20.13	-30.3	-31.5	13.6	9.90e-06	0	43	0	842006528	21	4110
2026-01-18 12:00:40.17	307.02	19.91	-30.0	-30.6	14.1	7.00e-07	0	43	0	847249408	21	3861
2026-01-18 12:00:43.18	307.63	19.68	-30.5	-31.9	13.3	9.90e-06	0	43	0	853540864	21	4237
2026-01-18 12:00:46.18	308.22	19.45	-31.1	-33.1	12.2	1.30e-04	0	43	0	858783744	22	4536
2026-01-18 12:00:49.18	308.81	19.22	-30.4	-31.1	13.5	2.59e-05	0	43	0	865075200	22	3921
2026-01-18 12:00:52.19	309.39	18.99	-30.2	-31.3	13.6	3.00e-06	0	43	0	870318080	21	4053
2026-01-18 12:00:55.20	309.96	18.76	-30.3	-31.5	13.5	6.10e-06	0	43	0	875560960	21	4127
2026-01-18 12:00:58.20	310.52	18.53	-30.6	-32.3	12.9	3.66e-05	0	43	0	881852416	21	4385
2026-01-18 12:01:01.21	311.08	18.30	-30.2	-31.3	13.6	1.06e-05	0	43	0	887095296	21	4061
2026-01-18 12:01:04.22	311.63	18.07	-30.9	-33.1	12.4	1.45e-04	0	43	0	892338176	21	4664
2026-01-18 12:01:07.23	312.17	17.84	-30.8	-32.4	12.5	1.39e-04	0	43	0	898629632	22	4317
2026-01-18 12:01:10.25	312.70	17.61	-29.9	-30.5	14.1	3.80e-06	0	43	0	903872512	21	3832
2026-01-18 12:01:13.25	313.22	17.37	-30.0	-30.8	13.9	1.50e-06	0	43	0	910163968	21	3917
2026-01-18 12:01:16.27	313.74	17.14	-30.2	-31.2	13.7	8.30e-06	0	43	0	915406848	21	4037
2026-01-18 12:01:19.27	314.24	16.91	-29.9	-30.5	14.1	3.00e-06	0	43	0	920649728	21	3832
2026-01-18 12:01:22.29	314.75	16.68	-30.2	-31.1	13.7	3.00e-06	0	43	0	926941184	21	4007
2026-01-18 12:01:25.29	315.24	16.45	-30.8	-32.9	12.5	9.15e-05	0	43	0	932184064	21	4573
2026-01-18 12:01:28.30	315.72	16.22	-30.7	-32.7	12.6	1.18e-04	0	43	0	937426944	21	4523
2026-01-18 12:01:31.31	316.20	15.98	-30.5	-32.0	13.1	2.59e-05	0	43	0	943718400	21	4273
2026-01-18 12:01:34.29	316.67	15.76	-30.4	-31.7	13.2	3.20e-05	0	43	0	948961280	21	4199
2026-01-18 12:01:37.31	317.13	15.53	-30.4	-31.7	13.2	1.75e-05	0	43	0	955252736	21	4205
2026-01-18 12:01:40.32	317.59	15.30	-30.0	-30.6	13.9	4.50e-06	0	43	0	960495616	21	3885
2026-01-18 12:01:43.34	318.04	15.07	-30.0	-30.7	13.9	3.80e-06	0	43	0	965738496	21	3903
2026-01-18 12:01:46.35	318.49	14.84	-30.7	-32.6	12.6	6.17e-05	0	43	0	972029952	21	4501
2026-01-18 12:01:49.36	318.92	14.61	-31.2	-33.6	11.6	5.05e-04	0	43	0	977272832	22	4741
2026-01-18 12:01:52.37	319.36	14.38	-31.1	-33.2	11.9	5.74e-04	0	43	0	983564288	22	4604
2026-01-18 12:01:55.39	319.78	14.15	-30.6	-31.8	12.8	1.27e-04	0	43	0	988807168	22	4152
2026-01-18 12:01:58.41	320.20	13.93	-30.5	-31.6	12.9	4.11e-05	0	43	0	994050048	22	4078
2026-01-18 12:02:01.40	320.61	13.70	-30.2	-31.2	13.4	1.44e-05	0	43	0	1000341504	21	4066
2026-01-18 12:02:04.40	321.02	13.48	-29.9	-30.4	14.0	6.10e-06	0	43	0	1005584384	21	3822
2026-01-18 12:02:07.42	321.42	13.26	-29.8	-30.6	14.1	4.50e-06	0	43	0	1010827264	20	3970
2026-01-18 12:02:10.44	321.81	13.03	-29.9	-31.1	13.8	9.10e-06	0	43	0	1017118720	20	4116
2026-01-18 12:02:13.44	322.20	12.81	-30.5	-32.5	12.9	4.73e-05	0	43	0	1022361600	20	4570
2026-01-18 12:02:16.45	322.58	12.59	-30.6	-32.5	12.6	1.48e-04	0	43	0	1028653056	21	4466
2026-01-18 12:02:19.46	322.96	12.37	-30.5	-32.2	12.7	8.16e-05	0	43	0	1033895936	21	4379
2026-01-18 12:02:22.47	323.33	12.15	-30.6	-32.5	12.5	1.02e-04	0	43	0	1039138816	21	4479
2026-01-18 12:02:25.48	323.70	11.93	-30.6	-32.5	12.5	1.08e-04	0	43	0	1045430272	21	4470
2026-01-18 12:02:28.49	324.06	11.71	-30.7	-32.7	12.4	2.08e-04	0	43	0	1050673152	21	4529
2026-01-18 12:02:31.49	324.42	11.50	-30.5	-32.2	12.7	5.87e-05	0	43	0	1055916032	21	4371
2026-01-18 12:02:34.49	324.77	11.28	-30.4	-32.0	12.8	5.95e-05	0	43	0	1062207488	21	4309
2026-01-18 12:02:37.49	325.12	11.07	-30.4	-31.9	12.9	5.64e-05	0	43	0	1067450368	21	4283
2026-01-18 12:02:40.50	325.46	10.86	-30.5	-32.1	12.7	1.04e-04	0	43	0	1073741824	21	4357
2026-01-18 12:02:43.51	325.79	10.64	-30.7	-32.8	12.3	1.59e-04	0	43	0	1078984704	21	4580
2026-01-18 12:02:46.52	326.13	10.43	-31.0	-33.1	11.7	6.10e-04	0	43	0	1084227584	22	4602
2026-01-18 12:02:49.52	326.45	10.22	-31.2	-33.9	11.1	1.68e-03	0	43	0	1090519040	22	4902
2026-01-18 12:02:52.53	326.78	10.01	-31.2	-33.8	11.1	1.75e-03	0	43	0	1095761920	22	4863
2026-01-18 12:02:55.54	327.10	9.80	-31.2	-33.8	11.1	2.10e-03	0	43	0	1101004800	22	4878
2026-01-18 12:02:58.56	327.41	9.60	-31.1	-33.6	11.3	8.80e-04	0	43	0	1107296256	22	4773
2026-01-18 12:03:01.57	327.72	9.39	-31.1	-33.7	11.1	1.42e-03	0	44	0	1112539136	22	4850
2026-01-18 12:03:04.58	328.03	9.18	-30.9	-33.0	11.6	8.08e-04	0	43	0	1118830592	22	4576
2026-01-18 12:03:07.59	328.33	8.98	-30.9	-33.1	11.5	7.80e-04	0	43	0	1124073472	22	4624
2026-01-18 12:03:10.60	328.63	8.78	-30.8	-32.7	11.8	5.44e-04	0	43	0	1129316352	22	4481
2026-01-18 12:03:13.61	328.93	8.57	-30.7	-32.3	12.0	3.13e-04	0	43	0	1135607808	22	4370
2026-01-18 12:03:16.62	329.22	8.37	-30.5	-31.9	12.3	1.91e-04	0	43	0	1140850688	22	4209
2026-01-18 12:03:19.61	329.50	8.17	-30.7	-32.4	11.9	2.73e-04	0	43	0	1146093568	22	4377
2026-01-18 12:03:22.62	329.79	7.97	-30.9	-33.0	11.5	8.64e-04	0	44	0	1152385024	22	4593
2026-01-18 12:03:25.61	330.06	7.78	-31.2	-34.0	10.7	2.66e-03	0	43	0	1157627904	22	4968
2026-01-18 12:03:28.62	330.34	7.58	-31.4	-34.8	10.1	6.85e-03	0	43	0	1163919360	22	5334
2026-01-18 12:03:31.63	330.61	7.38	-31.5	-34.7	9.7	9.55e-03	0	43	0	1169162240	23	5218
2026-01-18 12:03:34.65	330.88	7.19	-31.3	-34.2	10.1	8.81e-03	0	43	0	1174405120	23	4986
2026-01-18 12:03:37.65	331.15	6.99	-33.7	-46.2	3.8	1.49e+00	0	43	104	1178599424	27	15085

#Closed at: 2026-01-18 12:03:40
#Recorded file [1178 MB]: D:/data/31010_260118_145307.dat