passes_logs/2026/01/18/R2M6_AANII_01/R2M6_AANII_01__20260118_043815_FENGYUN_3D_rec.log

#Pass ID: 20260118_043815_FENGYUN 3D
#Satellite: FENGYUN 3D
#Configuration: FENGYUN 3D
#almurnet v.1.7.20240730
#Start time: 2026-01-18 04:38:16

#Version: 2.2.20231116
#Station: R2M6_AANII_01
#Location: 30.233357 lon 59.946436 lat
#TLE: 1 43010U 17072A   26017.25882587  .00000461  00000+0  23963-3 0  9992
#TLE: 2 43010  98.9934 349.1096 0002357 104.0487 256.0951 14.19697152423579

#Time	Az	El	Level	Level2	SNR	BER	BlckErr	Temp	State	Recorded	gain1	gain2
2026-01-18 04:38:16.16	10.08	7.06	-31.4	-36.0	4.8	8.05e-01	0	40	0	0	23	6067
2026-01-18 04:38:19.17	9.77	7.24	-30.5	-33.8	9.2	2.35e-02	0	40	0	5242880	21	5291
2026-01-18 04:38:22.18	9.46	7.43	-30.3	-33.4	9.4	1.74e-02	0	41	0	22020096	21	5140
2026-01-18 04:38:25.19	9.15	7.61	-29.0	-30.8	11.9	8.77e-04	0	41	0	38797312	19	4441
2026-01-18 04:38:28.20	8.83	7.79	-28.9	-31.6	12.1	4.22e-04	0	41	0	55574528	17	4882
2026-01-18 04:38:31.20	8.51	7.97	-28.7	-31.0	12.5	2.93e-04	0	41	0	73400320	17	4702
2026-01-18 04:38:34.22	8.18	8.16	-28.5	-30.4	12.9	2.23e-04	0	41	0	90177536	17	4523
2026-01-18 04:38:37.23	7.85	8.34	-28.2	-29.8	13.3	1.15e-04	0	41	0	106954752	17	4331
2026-01-18 04:38:40.23	7.51	8.52	-28.0	-29.3	13.6	5.72e-05	0	41	0	123731968	17	4200
2026-01-18 04:38:43.24	7.17	8.71	-28.3	-30.1	13.2	3.66e-05	0	41	0	140509184	17	4422
2026-01-18 04:38:46.25	6.83	8.89	-28.1	-29.5	13.6	9.49e-05	0	41	0	157286400	17	4232
2026-01-18 04:38:49.26	6.48	9.08	-27.8	-29.3	13.9	3.43e-05	0	41	0	174063616	16	4298
2026-01-18 04:38:52.27	6.12	9.27	-27.7	-29.1	14.1	8.00e-06	0	41	0	191889408	16	4244
2026-01-18 04:38:55.28	5.76	9.45	-27.2	-28.4	14.6	1.88e-04	0	41	0	208666624	15	4169
2026-01-18 04:38:58.29	5.40	9.64	-27.2	-28.9	14.6	1.52e-04	0	41	0	225443840	14	4412
2026-01-18 04:39:01.30	5.03	9.82	-27.1	-28.9	14.6	0.00e+00	0	41	0	242221056	14	4397
2026-01-18 04:39:04.31	4.66	10.01	-27.0	-28.5	14.8	0.00e+00	0	42	0	258998272	14	4301
2026-01-18 04:39:07.33	4.28	10.20	-27.2	-29.1	14.5	1.48e-05	0	42	0	275775488	14	4467
2026-01-18 04:39:10.34	3.90	10.39	-27.3	-29.2	14.5	1.10e-06	0	42	0	293601280	14	4492
2026-01-18 04:39:13.35	3.51	10.57	-27.1	-28.9	14.7	1.10e-06	0	42	0	310378496	14	4399
2026-01-18 04:39:16.36	3.11	10.76	-27.2	-29.1	14.6	0.00e+00	0	42	0	327155712	14	4451
2026-01-18 04:39:19.36	2.72	10.95	-27.0	-28.6	14.8	0.00e+00	0	42	0	343932928	14	4332
2026-01-18 04:39:22.38	2.31	11.14	-27.1	-28.7	14.8	0.00e+00	0	42	0	360710144	14	4345
2026-01-18 04:39:25.40	1.90	11.32	-26.9	-28.4	15.0	0.00e+00	0	42	0	377487360	14	4263
2026-01-18 04:39:28.41	1.49	11.51	-26.8	-28.1	15.2	0.00e+00	0	42	0	394264576	14	4183
2026-01-18 04:39:31.40	1.07	11.70	-26.8	-28.2	15.1	0.00e+00	0	42	0	411041792	14	4206
2026-01-18 04:39:34.42	0.64	11.89	-26.8	-28.2	15.2	1.10e-06	0	42	0	428867584	14	4198
2026-01-18 04:39:37.43	0.21	12.07	-26.9	-28.2	15.2	0.00e+00	0	42	0	445644800	14	4211
2026-01-18 04:39:40.44	359.77	12.26	-26.6	-27.5	15.5	0.00e+00	0	42	0	462422016	14	4028
2026-01-18 04:39:43.44	359.33	12.45	-26.8	-28.0	15.3	0.00e+00	0	42	0	479199232	14	4159
2026-01-18 04:39:46.45	358.88	12.63	-27.0	-28.6	15.0	0.00e+00	0	42	0	495976448	14	4331
2026-01-18 04:39:49.45	358.43	12.82	-26.7	-28.4	15.4	0.00e+00	0	42	0	512753664	13	4380
2026-01-18 04:39:52.45	357.97	13.01	-26.7	-28.3	15.4	0.00e+00	0	42	0	529530880	13	4354
2026-01-18 04:39:55.47	357.51	13.19	-26.3	-27.6	15.9	0.00e+00	0	42	0	547356672	13	4152
2026-01-18 04:39:58.48	357.03	13.38	-26.5	-27.8	15.7	0.00e+00	0	42	0	564133888	13	4210
2026-01-18 04:40:01.49	356.56	13.56	-26.2	-27.8	16.0	0.00e+00	0	42	0	580911104	12	4324
2026-01-18 04:40:04.49	356.07	13.74	-26.4	-27.6	15.9	0.00e+00	0	42	0	597688320	13	4153
2026-01-18 04:40:07.50	355.58	13.93	-26.3	-27.9	16.0	0.00e+00	0	43	0	614465536	12	4337
2026-01-18 04:40:10.52	355.08	14.11	-26.3	-27.5	15.9	0.00e+00	0	42	0	631242752	13	4135
2026-01-18 04:40:13.54	354.58	14.29	-26.5	-27.8	15.8	0.00e+00	0	42	0	649068544	13	4205
2026-01-18 04:40:16.55	354.07	14.47	-26.1	-27.5	16.2	0.00e+00	0	42	0	665845760	12	4227
2026-01-18 04:40:19.57	353.55	14.65	-26.0	-27.4	16.3	0.00e+00	0	42	0	682622976	12	4202
2026-01-18 04:40:22.57	353.03	14.83	-25.9	-27.2	16.4	0.00e+00	0	42	0	699400192	12	4149
2026-01-18 04:40:25.58	352.50	15.01	-26.2	-27.7	16.2	0.00e+00	0	42	0	716177408	12	4294
2026-01-18 04:40:28.59	351.97	15.19	-26.2	-27.8	16.1	0.00e+00	0	42	0	732954624	12	4307
2026-01-18 04:40:31.61	351.43	15.36	-25.8	-26.9	16.6	2.33e-04	0	42	0	749731840	12	4084
2026-01-18 04:40:34.61	350.88	15.53	-25.9	-27.2	16.5	0.00e+00	0	42	0	766509056	12	4147
2026-01-18 04:40:37.62	350.33	15.71	-25.6	-27.0	16.9	0.00e+00	0	42	0	784334848	11	4199
2026-01-18 04:40:40.62	349.77	15.88	-25.8	-26.8	16.7	1.75e-04	0	42	0	801112064	12	4054
2026-01-18 04:40:43.64	349.20	16.05	-25.7	-27.0	16.9	1.62e-04	0	42	0	817889280	11	4219
2026-01-18 04:40:46.66	348.62	16.21	-25.7	-27.1	16.9	0.00e+00	0	43	0	834666496	11	4243
2026-01-18 04:40:49.66	348.05	16.38	-25.7	-27.2	16.9	1.60e-04	0	42	0	851443712	11	4253
2026-01-18 04:40:52.67	347.46	16.54	-25.6	-27.0	17.0	4.23e-05	0	42	0	869269504	11	4198
2026-01-18 04:40:55.67	346.87	16.70	-25.6	-26.9	17.0	5.70e-06	0	42	0	886046720	11	4172
2026-01-18 04:40:58.68	346.27	16.86	-25.6	-26.9	17.0	9.84e-05	0	42	0	902823936	11	4189
2026-01-18 04:41:01.68	345.66	17.02	-25.5	-26.6	17.2	3.54e-05	0	42	0	919601152	11	4111
2026-01-18 04:41:04.68	345.05	17.17	-25.6	-26.9	17.0	6.80e-06	0	42	0	936378368	11	4170
2026-01-18 04:41:07.69	344.43	17.33	-25.5	-26.7	17.1	1.10e-06	0	43	0	953155584	11	4132
2026-01-18 04:41:10.70	343.81	17.48	-25.3	-26.3	17.3	3.54e-05	0	43	0	969932800	11	4041
2026-01-18 04:41:13.71	343.18	17.62	-25.3	-26.2	17.4	2.05e-05	0	43	0	986710016	11	4010
2026-01-18 04:41:16.71	342.54	17.77	-25.3	-26.2	17.4	0.00e+00	0	43	0	1003487232	11	4017
2026-01-18 04:41:19.72	341.90	17.91	-25.2	-26.1	17.4	0.00e+00	0	43	0	1021313024	11	3981
2026-01-18 04:41:22.72	341.25	18.05	-25.4	-26.4	17.3	0.00e+00	0	43	0	1038090240	11	4053
2026-01-18 04:41:25.72	340.60	18.18	-25.2	-26.2	17.4	4.46e-05	0	42	0	1054867456	11	3994
2026-01-18 04:41:28.74	339.93	18.32	-25.1	-25.9	17.6	0.00e+00	0	42	0	1071644672	11	3926
2026-01-18 04:41:31.74	339.27	18.44	-24.9	-25.4	17.8	0.00e+00	0	43	0	1088421888	11	3816
2026-01-18 04:41:34.76	338.59	18.57	-24.9	-25.9	17.8	0.00e+00	0	42	0	1105199104	10	4028
2026-01-18 04:41:37.78	337.91	18.69	-25.0	-26.1	17.7	0.00e+00	0	42	0	1123024896	10	4081
2026-01-18 04:41:40.79	337.22	18.81	-25.2	-26.5	17.5	0.00e+00	0	42	0	1139802112	10	4193
2026-01-18 04:41:43.79	336.54	18.93	-25.0	-26.1	17.7	0.00e+00	0	43	0	1156579328	10	4080
2026-01-18 04:41:46.79	335.84	19.04	-25.0	-26.1	17.7	0.00e+00	0	43	0	1173356544	10	4076
2026-01-18 04:41:49.80	335.14	19.14	-25.3	-26.7	17.4	0.00e+00	0	43	0	1190133760	10	4247
2026-01-18 04:41:52.82	334.44	19.25	-25.0	-26.1	17.7	0.00e+00	0	43	0	1206910976	10	4090
2026-01-18 04:41:55.83	333.73	19.35	-24.4	-25.4	18.3	0.00e+00	0	43	0	1223688192	9	4016
2026-01-18 04:41:58.83	333.01	19.44	-24.4	-25.4	18.3	0.00e+00	0	43	0	1240465408	9	4025
2026-01-18 04:42:01.84	332.30	19.53	-24.3	-25.2	18.4	0.00e+00	0	43	0	1258291200	9	3982
2026-01-18 04:42:04.84	331.57	19.62	-24.3	-25.6	18.5	0.00e+00	0	43	0	1275068416	8	4180
2026-01-18 04:42:07.86	330.85	19.70	-24.1	-25.3	18.6	0.00e+00	0	43	0	1291845632	8	4103
2026-01-18 04:42:10.87	330.11	19.77	-24.3	-25.7	18.4	0.00e+00	0	43	0	1308622848	8	4221
2026-01-18 04:42:13.87	329.38	19.85	-24.2	-25.5	18.5	0.00e+00	0	43	0	1325400064	8	4154
2026-01-18 04:42:16.88	328.64	19.91	-24.0	-25.1	18.8	0.00e+00	0	43	0	1342177280	8	4054
2026-01-18 04:42:19.88	327.91	19.98	-24.1	-25.2	18.7	0.00e+00	0	43	0	1358954496	8	4080
2026-01-18 04:42:22.89	327.16	20.03	-24.3	-25.7	18.4	0.00e+00	0	42	0	1375731712	8	4210
2026-01-18 04:42:25.88	326.42	20.09	-24.4	-25.8	18.4	0.00e+00	0	43	0	1393557504	8	4238
2026-01-18 04:42:28.87	325.67	20.13	-24.3	-25.5	18.5	0.00e+00	0	43	0	1410334720	8	4166
2026-01-18 04:42:31.88	324.92	20.18	-24.2	-25.5	18.5	0.00e+00	0	43	0	1427111936	8	4166
2026-01-18 04:42:34.88	324.17	20.21	-24.2	-25.5	18.5	0.00e+00	0	43	0	1443889152	8	4167
2026-01-18 04:42:37.90	323.41	20.25	-24.1	-25.1	18.7	0.00e+00	0	43	0	1460666368	8	4071
2026-01-18 04:42:40.90	322.66	20.27	-24.1	-25.2	18.7	0.00e+00	0	43	0	1477443584	8	4093
2026-01-18 04:42:43.92	321.90	20.29	-24.3	-25.6	18.5	0.00e+00	0	43	0	1494220800	8	4187
2026-01-18 04:42:46.92	321.14	20.31	-24.4	-25.8	18.4	0.00e+00	0	43	0	1510998016	8	4234
2026-01-18 04:42:49.93	320.38	20.32	-24.4	-25.9	18.3	0.00e+00	0	43	0	1528823808	8	4267
2026-01-18 04:42:52.94	319.62	20.33	-24.7	-25.9	18.1	0.00e+00	0	43	0	1545601024	9	4149
2026-01-18 04:42:55.95	318.86	20.33	-24.4	-25.3	18.4	0.00e+00	0	43	0	1562378240	9	3991
2026-01-18 04:42:58.97	318.10	20.32	-24.3	-25.7	18.4	0.00e+00	0	43	0	1579155456	8	4213
2026-01-18 04:43:01.98	317.34	20.31	-24.0	-24.9	18.8	0.00e+00	0	43	0	1595932672	8	4017
2026-01-18 04:43:05.00	316.58	20.30	-24.1	-25.2	18.7	0.00e+00	0	43	0	1612709888	8	4086
2026-01-18 04:43:08.01	315.82	20.28	-24.3	-25.6	18.5	0.00e+00	0	43	0	1629487104	8	4180
2026-01-18 04:43:11.02	315.06	20.25	-24.1	-25.2	18.6	0.00e+00	0	43	0	1647312896	8	4095
2026-01-18 04:43:14.03	314.30	20.22	-24.2	-25.4	18.6	0.00e+00	0	43	0	1664090112	8	4131
2026-01-18 04:43:17.05	313.55	20.19	-24.4	-25.3	18.4	0.00e+00	0	43	0	1680867328	9	3994
2026-01-18 04:43:20.07	312.79	20.14	-24.1	-25.2	18.6	0.00e+00	0	43	0	1697644544	8	4090
2026-01-18 04:43:23.08	312.04	20.10	-24.1	-25.1	18.7	0.00e+00	0	43	0	1714421760	8	4061
2026-01-18 04:43:26.08	311.29	20.05	-24.2	-25.4	18.5	0.00e+00	0	43	0	1731198976	8	4142
2026-01-18 04:43:29.09	310.55	19.99	-24.4	-25.9	18.3	0.00e+00	0	43	0	1749024768	8	4267
2026-01-18 04:43:32.10	309.81	19.93	-24.1	-25.2	18.6	0.00e+00	0	43	0	1765801984	8	4085
2026-01-18 04:43:35.11	309.07	19.86	-24.1	-25.1	18.7	0.00e+00	0	43	0	1782579200	8	4071
2026-01-18 04:43:38.12	308.33	19.79	-24.3	-25.6	18.4	0.00e+00	0	43	0	1799356416	8	4196
2026-01-18 04:43:41.12	307.60	19.71	-24.4	-25.8	18.3	0.00e+00	0	43	0	1816133632	8	4246
2026-01-18 04:43:44.14	306.87	19.63	-24.7	-25.9	18.0	0.00e+00	0	43	0	1832910848	9	4156
2026-01-18 04:43:47.15	306.14	19.55	-24.2	-25.5	18.5	0.00e+00	0	43	0	1849688064	8	4154
2026-01-18 04:43:50.17	305.42	19.46	-24.9	-26.5	17.7	0.00e+00	0	43	0	1867513856	9	4299
2026-01-18 04:43:53.17	304.70	19.37	-24.2	-24.9	18.5	0.00e+00	0	43	0	1884291072	9	3905
2026-01-18 04:43:56.17	303.99	19.27	-24.2	-25.0	18.5	0.00e+00	0	43	0	1901068288	9	3922
2026-01-18 04:43:59.18	303.29	19.17	-24.2	-24.8	18.6	0.00e+00	0	43	0	1917845504	9	3889
2026-01-18 04:44:02.16	302.59	19.06	-24.1	-24.7	18.6	0.00e+00	0	42	0	1934622720	9	3848
2026-01-18 04:44:05.17	301.89	18.95	-24.6	-25.8	18.0	0.00e+00	0	43	0	1951399936	9	4137
2026-01-18 04:44:08.18	301.20	18.84	-24.4	-25.3	18.3	0.00e+00	0	43	0	1968177152	9	4006
2026-01-18 04:44:11.19	300.51	18.72	-24.5	-25.6	18.1	0.00e+00	0	43	0	1984954368	9	4072
2026-01-18 04:44:14.18	299.84	18.60	-24.2	-24.9	18.5	0.00e+00	0	43	0	2002780160	9	3908
2026-01-18 04:44:17.19	299.16	18.47	-24.4	-25.3	18.3	0.00e+00	0	43	0	2019557376	9	4010
2026-01-18 04:44:20.20	298.49	18.34	-24.4	-25.3	18.3	0.00e+00	0	43	0	2036334592	9	4001
2026-01-18 04:44:23.21	297.82	18.21	-24.7	-26.0	17.9	0.00e+00	0	43	0	2053111808	9	4191
2026-01-18 04:44:26.22	297.16	18.08	-24.6	-25.7	18.0	0.00e+00	0	43	0	2069889024	9	4115
2026-01-18 04:44:29.22	296.51	17.94	-24.8	-26.2	17.8	0.00e+00	0	43	0	2086666240	9	4222
2026-01-18 04:44:32.24	295.86	17.80	-25.4	-26.6	17.1	0.00e+00	0	43	0	2103443456	11	4097
2026-01-18 04:44:35.24	295.22	17.65	-24.8	-25.3	17.7	0.00e+00	0	43	0	2120220672	11	3783
2026-01-18 04:44:38.25	294.59	17.51	-25.2	-26.5	17.3	0.00e+00	0	43	0	2138046464	10	4190
2026-01-18 04:44:41.26	293.96	17.36	-24.7	-25.5	17.8	0.00e+00	0	43	0	2154823680	10	3949
2026-01-18 04:44:44.27	293.34	17.20	-25.0	-26.2	17.5	0.00e+00	0	43	0	2171600896	10	4114
2026-01-18 04:44:47.28	292.72	17.05	-25.3	-26.9	17.1	0.00e+00	0	43	0	2188378112	10	4295
2026-01-18 04:44:50.28	292.11	16.89	-25.6	-26.9	16.8	0.00e+00	0	43	0	2205155328	11	4198
2026-01-18 04:44:53.29	291.51	16.73	-25.3	-26.3	17.1	0.00e+00	0	43	0	2221932544	11	4038
2026-01-18 04:44:56.30	290.91	16.57	-25.6	-26.9	16.8	0.00e+00	0	43	0	2238709760	11	4176
2026-01-18 04:44:59.30	290.33	16.41	-25.7	-27.1	16.7	0.00e+00	0	43	0	2255486976	11	4230
2026-01-18 04:45:02.31	289.74	16.24	-25.6	-26.9	16.8	0.00e+00	0	43	0	2273312768	11	4188
2026-01-18 04:45:05.31	289.17	16.08	-25.3	-26.2	17.1	0.00e+00	0	43	0	2290089984	11	4023
2026-01-18 04:45:08.32	288.60	15.91	-25.3	-26.7	17.1	0.00e+00	0	43	0	2306867200	10	4263
2026-01-18 04:45:11.33	288.03	15.74	-25.2	-26.2	17.2	0.00e+00	0	43	0	2323644416	11	4001
2026-01-18 04:45:14.33	287.47	15.57	-25.3	-26.8	17.1	0.00e+00	0	43	0	2340421632	10	4268
2026-01-18 04:45:17.32	286.93	15.39	-25.2	-26.5	17.2	0.00e+00	0	43	0	2357198848	10	4201
2026-01-18 04:45:20.32	286.38	15.22	-25.3	-26.8	17.0	0.00e+00	0	43	0	2373976064	10	4292
2026-01-18 04:45:23.33	285.85	15.04	-25.5	-26.7	16.8	0.00e+00	0	43	0	2390753280	11	4132
2026-01-18 04:45:26.35	285.31	14.86	-25.5	-26.8	16.8	0.00e+00	0	43	0	2408579072	11	4154
2026-01-18 04:45:29.36	284.79	14.68	-25.9	-27.6	16.3	0.00e+00	0	43	0	2425356288	11	4385
2026-01-18 04:45:32.36	284.27	14.50	-25.4	-26.6	16.9	0.00e+00	0	43	0	2442133504	11	4116
2026-01-18 04:45:35.36	283.76	14.32	-25.8	-27.3	16.5	0.00e+00	0	43	0	2458910720	11	4293
2026-01-18 04:45:38.37	283.25	14.14	-25.8	-27.0	16.2	0.00e+00	0	43	0	2475687936	12	4106
2026-01-18 04:45:41.38	282.75	13.96	-25.6	-27.0	16.6	0.00e+00	0	43	0	2492465152	11	4220
2026-01-18 04:45:44.39	282.25	13.78	-25.7	-27.1	16.5	0.00e+00	0	43	0	2509242368	11	4253
2026-01-18 04:45:47.41	281.76	13.59	-25.8	-26.9	16.2	0.00e+00	0	43	0	2526019584	12	4101
2026-01-18 04:45:50.41	281.28	13.41	-25.8	-27.4	16.3	0.00e+00	0	43	0	2543845376	11	4335
2026-01-18 04:45:53.42	280.81	13.22	-26.0	-27.6	15.5	0.00e+00	0	43	0	2560622592	12	4341
2026-01-18 04:45:56.42	280.34	13.04	-26.1	-27.6	15.0	0.00e+00	0	43	0	2577399808	12	4282
2026-01-18 04:45:59.43	279.88	12.85	-26.0	-27.3	15.8	0.00e+00	0	43	0	2594177024	12	4202
2026-01-18 04:46:02.43	279.42	12.66	-26.3	-28.0	15.6	0.00e+00	0	43	0	2610954240	12	4376
2026-01-18 04:46:05.44	278.97	12.48	-26.3	-28.1	15.6	0.00e+00	0	43	0	2627731456	12	4409
2026-01-18 04:46:08.45	278.52	12.29	-26.5	-28.0	15.3	0.00e+00	0	43	0	2644508672	13	4267
2026-01-18 04:46:11.46	278.08	12.10	-26.3	-27.9	15.6	0.00e+00	0	43	0	2661285888	12	4368
2026-01-18 04:46:14.47	277.64	11.91	-26.7	-28.5	15.0	2.64e-04	0	43	0	2679111680	13	4408
2026-01-18 04:46:17.47	277.22	11.73	-26.5	-28.0	15.3	0.00e+00	0	43	0	2695888896	13	4267
2026-01-18 04:46:20.50	276.79	11.54	-26.3	-28.1	15.5	0.00e+00	0	43	0	2712666112	12	4408
2026-01-18 04:46:23.51	276.37	11.35	-26.5	-27.9	15.3	9.11e-04	0	43	0	2729443328	13	4253
2026-01-18 04:46:26.51	275.96	11.16	-26.3	-28.1	15.5	9.22e-04	0	43	0	2746220544	12	4399
2026-01-18 04:46:29.52	275.55	10.97	-26.3	-28.1	15.5	0.00e+00	0	43	0	2764046336	12	4418
2026-01-18 04:46:32.52	275.15	10.79	-26.8	-28.6	14.9	7.55e-05	0	43	0	2780823552	13	4452
2026-01-18 04:46:35.53	274.75	10.60	-26.5	-28.0	15.2	1.82e-04	0	43	0	2797600768	13	4289
2026-01-18 04:46:38.54	274.36	10.41	-26.5	-28.1	15.2	1.10e-06	0	43	0	2814377984	13	4289
2026-01-18 04:46:41.55	273.98	10.22	-26.9	-28.8	14.8	6.50e-04	0	43	0	2831155200	13	4494
2026-01-18 04:46:44.56	273.59	10.03	-26.7	-28.4	15.0	5.95e-04	0	43	0	2847932416	13	4398
2026-01-18 04:46:47.56	273.22	9.85	-26.9	-28.3	14.7	1.70e-04	0	43	0	2864709632	14	4262
2026-01-18 04:46:50.58	272.84	9.66	-26.8	-28.7	14.8	3.68e-04	0	43	0	2882535424	13	4469
2026-01-18 04:46:53.58	272.48	9.47	-26.9	-28.8	14.7	1.00e-03	0	43	0	2899312640	13	4507
2026-01-18 04:46:56.59	272.12	9.29	-27.3	-29.4	14.1	1.37e-03	0	43	0	2916089856	14	4545
2026-01-18 04:46:59.60	271.76	9.10	-26.9	-28.4	14.6	2.20e-06	0	43	0	2932867072	14	4289
2026-01-18 04:47:02.61	271.41	8.91	-26.9	-28.5	14.6	1.34e-03	0	43	0	2949644288	14	4311
2026-01-18 04:47:05.62	271.06	8.73	-27.0	-28.6	14.5	7.49e-04	0	43	0	2966421504	14	4341
2026-01-18 04:47:08.62	270.71	8.54	-27.1	-28.8	14.4	3.40e-06	0	43	0	2983198720	14	4388
2026-01-18 04:47:11.63	270.37	8.36	-27.1	-28.9	14.3	0.00e+00	0	43	0	2999975936	14	4411
2026-01-18 04:47:14.64	270.04	8.17	-27.3	-28.9	13.9	3.47e-04	0	43	0	3017801728	15	4332
2026-01-18 04:47:17.64	269.71	7.99	-27.3	-29.4	13.9	2.20e-06	0	43	0	3034578944	14	4563
2026-01-18 04:47:20.66	269.38	7.81	-27.3	-29.3	13.9	3.40e-06	0	43	0	3051356160	14	4544
2026-01-18 04:47:23.67	269.06	7.62	-27.2	-29.1	14.0	1.14e-05	0	43	0	3068133376	14	4488
2026-01-18 04:47:26.69	268.74	7.44	-27.5	-29.3	13.6	1.37e-05	0	43	0	3084910592	15	4444
2026-01-18 04:47:29.71	268.42	7.26	-27.7	-29.7	13.2	2.51e-05	0	43	0	3101687808	15	4579
2026-01-18 04:47:32.73	268.11	7.07	-33.1	-43.7	3.8	2.48e-01	0	43	104	3117416448	26	12109

#Closed at: 2026-01-18 04:47:35
#Recorded file [3117 MB]: D:/data/31010_260118_073818.dat