passes_logs/2026/01/18/R2M6_AANII_01/R2M6_AANII_01__20260118_025738_FENGYUN_3D_rec.log

#Pass ID: 20260118_025738_FENGYUN 3D
#Satellite: FENGYUN 3D
#Configuration: FENGYUN 3D
#almurnet v.1.7.20240730
#Start time: 2026-01-18 02:57:40

#Version: 2.2.20231116
#Station: R2M6_AANII_01
#Location: 30.233357 lon 59.946436 lat
#TLE: 1 43010U 17072A   26017.25882587  .00000461  00000+0  23963-3 0  9992
#TLE: 2 43010  98.9934 349.1096 0002357 104.0487 256.0951 14.19697152423579

#Time	Az	El	Level	Level2	SNR	BER	BlckErr	Temp	State	Recorded	gain1	gain2
2026-01-18 02:57:40.00	16.07	7.12	-30.1	-33.3	5.3	7.89e-01	0	41	0	0	20	5198
2026-01-18 02:57:42.99	15.99	7.35	-29.9	-32.7	10.3	4.78e-03	0	42	0	5242880	20	4945
2026-01-18 02:57:46.00	15.92	7.58	-29.7	-32.5	10.9	1.58e-03	0	42	0	22020096	19	4999
2026-01-18 02:57:49.01	15.84	7.82	-30.0	-32.8	10.3	3.98e-03	0	42	0	38797312	20	5003
2026-01-18 02:57:52.01	15.76	8.05	-29.1	-31.5	11.9	7.36e-04	0	42	0	55574528	18	4753
2026-01-18 02:57:55.02	15.68	8.29	-28.4	-30.4	12.9	2.97e-05	0	42	0	73400320	17	4503
2026-01-18 02:57:58.03	15.60	8.53	-28.2	-30.3	13.3	3.65e-04	0	42	0	90177536	16	4583
2026-01-18 02:58:01.05	15.52	8.78	-28.4	-30.8	13.0	3.66e-04	0	42	0	106954752	16	4756
2026-01-18 02:58:04.07	15.44	9.03	-28.2	-30.3	13.4	3.59e-04	0	42	0	123731968	16	4584
2026-01-18 02:58:07.07	15.35	9.27	-27.5	-29.3	14.1	3.36e-04	0	42	0	140509184	15	4396
2026-01-18 02:58:10.08	15.26	9.52	-27.3	-29.2	14.4	3.54e-04	0	43	0	157286400	14	4496
2026-01-18 02:58:13.10	15.17	9.78	-27.1	-28.8	14.7	4.58e-04	0	43	0	175112192	14	4380
2026-01-18 02:58:16.11	15.08	10.03	-27.5	-29.2	14.2	1.10e-06	0	43	0	191889408	15	4369
2026-01-18 02:58:19.13	14.99	10.29	-27.1	-28.7	14.7	3.72e-04	0	43	0	208666624	14	4360
2026-01-18 02:58:22.13	14.89	10.55	-27.0	-28.5	14.9	3.48e-04	0	43	0	225443840	14	4299
2026-01-18 02:58:25.14	14.80	10.82	-26.7	-27.8	15.3	0.00e+00	0	43	0	242221056	14	4097
2026-01-18 02:58:28.15	14.70	11.08	-26.9	-28.8	15.0	6.17e-05	0	43	0	258998272	13	4496
2026-01-18 02:58:31.15	14.60	11.35	-27.4	-29.5	14.3	3.23e-04	0	43	0	275775488	14	4589
2026-01-18 02:58:34.17	14.49	11.63	-27.1	-28.7	14.8	1.10e-06	0	43	0	293601280	14	4343
2026-01-18 02:58:37.18	14.39	11.90	-27.0	-28.4	15.0	0.00e+00	0	43	0	310378496	14	4268
2026-01-18 02:58:40.18	14.28	12.18	-26.9	-28.7	15.1	3.72e-04	0	43	0	327155712	13	4457
2026-01-18 02:58:43.18	14.17	12.46	-26.6	-27.8	15.4	0.00e+00	0	43	0	343932928	14	4090
2026-01-18 02:58:46.19	14.06	12.74	-26.6	-28.1	15.5	0.00e+00	0	43	0	360710144	13	4279
2026-01-18 02:58:49.19	13.95	13.03	-26.7	-28.4	15.3	0.00e+00	0	43	0	377487360	13	4384
2026-01-18 02:58:52.20	13.83	13.32	-26.5	-28.0	15.6	0.00e+00	0	43	0	394264576	13	4252
2026-01-18 02:58:55.20	13.71	13.62	-26.8	-28.5	15.3	0.00e+00	0	43	0	411041792	13	4400
2026-01-18 02:58:58.20	13.59	13.91	-26.7	-28.3	15.4	0.00e+00	0	43	0	428867584	13	4334
2026-01-18 02:59:01.20	13.46	14.21	-26.6	-28.2	15.5	0.00e+00	0	43	0	445644800	13	4324
2026-01-18 02:59:04.21	13.34	14.52	-26.6	-28.0	15.6	0.00e+00	0	43	0	462422016	13	4261
2026-01-18 02:59:07.23	13.20	14.83	-26.4	-28.1	15.8	0.00e+00	0	43	0	479199232	12	4407
2026-01-18 02:59:10.24	13.07	15.14	-26.0	-27.4	16.3	0.00e+00	0	43	0	495976448	12	4212
2026-01-18 02:59:13.25	12.93	15.46	-26.1	-27.4	16.2	0.00e+00	0	44	0	512753664	12	4216
2026-01-18 02:59:16.25	12.79	15.78	-25.8	-27.4	16.6	0.00e+00	0	43	0	529530880	11	4325
2026-01-18 02:59:19.25	12.65	16.10	-26.1	-27.5	16.2	0.00e+00	0	43	0	546308096	12	4241
2026-01-18 02:59:22.26	12.51	16.43	-25.7	-27.2	16.8	0.00e+00	0	44	0	564133888	11	4261
2026-01-18 02:59:25.27	12.35	16.76	-25.8	-27.3	16.8	0.00e+00	0	44	0	580911104	11	4278
2026-01-18 02:59:28.29	12.20	17.10	-25.4	-26.6	17.1	0.00e+00	0	43	0	597688320	11	4095
2026-01-18 02:59:31.29	12.04	17.44	-25.7	-27.2	16.8	0.00e+00	0	44	0	614465536	11	4260
2026-01-18 02:59:34.30	11.88	17.79	-25.3	-26.8	17.3	0.00e+00	0	44	0	631242752	10	4257
2026-01-18 02:59:37.31	11.72	18.14	-25.1	-26.3	17.6	0.00e+00	0	44	0	648019968	10	4127
2026-01-18 02:59:40.33	11.55	18.50	-25.1	-26.3	17.6	0.00e+00	0	43	0	664797184	10	4128
2026-01-18 02:59:43.35	11.37	18.86	-25.1	-26.3	17.6	0.00e+00	0	44	0	682622976	10	4148
2026-01-18 02:59:46.36	11.19	19.23	-24.9	-26.0	17.8	0.00e+00	0	44	0	699400192	10	4053
2026-01-18 02:59:49.37	11.01	19.60	-25.0	-26.1	17.7	0.00e+00	0	44	0	716177408	10	4092
2026-01-18 02:59:52.38	10.82	19.98	-25.0	-26.0	17.8	0.00e+00	0	44	0	732954624	10	4071
2026-01-18 02:59:55.39	10.63	20.36	-24.8	-25.7	18.0	0.00e+00	0	44	0	749731840	10	3985
2026-01-18 02:59:58.40	10.43	20.75	-24.8	-26.1	18.0	0.00e+00	0	44	0	766509056	9	4196
2026-01-18 03:00:01.41	10.23	21.14	-24.9	-25.9	17.9	0.00e+00	0	44	0	784334848	10	4044
2026-01-18 03:00:04.43	10.02	21.54	-24.7	-25.5	18.1	0.00e+00	0	43	0	801112064	10	3938
2026-01-18 03:00:07.43	9.80	21.94	-24.6	-25.8	18.3	1.59e-04	0	44	0	817889280	9	4122
2026-01-18 03:00:10.44	9.58	22.36	-24.6	-25.7	18.3	0.00e+00	0	44	0	834666496	9	4102
2026-01-18 03:00:13.45	9.35	22.77	-24.7	-25.9	18.2	2.18e-04	0	44	0	851443712	9	4151
2026-01-18 03:00:16.46	9.12	23.20	-24.3	-25.1	18.6	1.68e-04	0	44	0	868220928	9	3962
2026-01-18 03:00:19.47	8.88	23.63	-24.2	-24.9	18.7	0.00e+00	0	44	0	884998144	9	3898
2026-01-18 03:00:22.47	8.63	24.06	-24.3	-25.1	18.6	0.00e+00	0	44	0	902823936	9	3957
2026-01-18 03:00:25.48	8.37	24.51	-24.4	-25.3	18.5	1.70e-04	0	44	0	919601152	9	3998
2026-01-18 03:00:28.48	8.11	24.96	-24.2	-24.9	18.7	7.89e-05	0	44	0	936378368	9	3910
2026-01-18 03:00:31.49	7.84	25.42	-24.1	-24.8	18.8	0.00e+00	0	44	0	953155584	9	3881
2026-01-18 03:00:34.49	7.56	25.88	-23.8	-24.5	19.2	0.00e+00	0	44	0	969932800	8	3907
2026-01-18 03:00:37.50	7.28	26.35	-23.7	-24.4	19.3	4.46e-05	0	44	0	986710016	8	3882
2026-01-18 03:00:40.52	6.98	26.84	-23.8	-24.6	19.2	1.33e-04	0	44	0	1003487232	8	3947
2026-01-18 03:00:43.53	6.67	27.32	-24.0	-25.0	19.0	1.12e-04	0	44	0	1020264448	8	4029
2026-01-18 03:00:46.55	6.35	27.82	-24.0	-25.0	19.0	1.33e-04	0	44	0	1038090240	8	4042
2026-01-18 03:00:49.57	6.03	28.33	-23.8	-24.6	19.2	2.47e-04	0	44	0	1054867456	8	3949
2026-01-18 03:00:52.58	5.69	28.84	-23.7	-24.7	19.3	0.00e+00	0	44	0	1071644672	7	4085
2026-01-18 03:00:55.59	5.34	29.36	-23.8	-25.1	19.2	1.79e-04	0	44	0	1088421888	7	4170
2026-01-18 03:00:58.60	4.98	29.89	-23.8	-24.6	19.2	0.00e+00	0	44	0	1105199104	8	3950
2026-01-18 03:01:01.61	4.60	30.43	-23.9	-24.8	19.1	0.00e+00	0	44	0	1123024896	8	3980
2026-01-18 03:01:04.62	4.22	30.98	-23.7	-24.4	19.3	0.00e+00	0	44	0	1139802112	8	3886
2026-01-18 03:01:07.63	3.81	31.53	-23.6	-24.1	19.5	0.00e+00	0	44	0	1156579328	8	3824
2026-01-18 03:01:10.63	3.40	32.10	-23.7	-24.4	19.3	0.00e+00	0	44	0	1173356544	8	3898
2026-01-18 03:01:13.65	2.97	32.67	-23.6	-24.3	19.4	0.00e+00	0	44	0	1190133760	8	3861
2026-01-18 03:01:16.66	2.52	33.25	-23.3	-23.6	19.7	0.00e+00	0	44	0	1206910976	8	3709
2026-01-18 03:01:19.66	2.06	33.84	-23.4	-23.7	19.7	0.00e+00	0	44	0	1223688192	8	3725
2026-01-18 03:01:22.67	1.58	34.45	-23.5	-24.0	19.5	0.00e+00	0	44	0	1240465408	8	3804
2026-01-18 03:01:25.68	1.08	35.06	-23.6	-24.2	19.4	0.00e+00	0	44	0	1258291200	8	3849
2026-01-18 03:01:28.68	0.56	35.68	-23.6	-24.1	19.5	0.00e+00	0	44	0	1275068416	8	3834
2026-01-18 03:01:31.69	0.02	36.31	-23.6	-24.1	19.5	0.00e+00	0	44	0	1291845632	8	3817
2026-01-18 03:01:34.71	359.46	36.95	-23.2	-23.9	19.8	0.00e+00	0	44	0	1308622848	7	3886
2026-01-18 03:01:37.72	358.87	37.60	-23.3	-23.9	19.8	0.00e+00	0	44	0	1325400064	7	3893
2026-01-18 03:01:40.73	358.26	38.26	-23.3	-23.9	19.8	0.00e+00	0	44	0	1342177280	7	3887
2026-01-18 03:01:43.74	357.63	38.92	-23.2	-23.7	19.9	0.00e+00	0	44	0	1358954496	7	3842
2026-01-18 03:01:46.75	356.97	39.60	-23.3	-24.1	19.8	0.00e+00	0	44	0	1376780288	7	3929
2026-01-18 03:01:49.76	356.28	40.29	-23.3	-24.0	19.8	0.00e+00	0	44	0	1393557504	7	3903
2026-01-18 03:01:52.77	355.55	40.98	-23.4	-24.2	19.7	0.00e+00	0	44	0	1410334720	7	3959
2026-01-18 03:01:55.79	354.80	41.68	-23.7	-24.8	19.4	0.00e+00	0	44	0	1427111936	7	4107
2026-01-18 03:01:58.80	354.01	42.39	-23.6	-24.7	19.5	0.00e+00	0	44	0	1443889152	7	4064
2026-01-18 03:02:01.81	353.19	43.11	-23.7	-24.8	19.4	0.00e+00	0	44	0	1460666368	7	4100
2026-01-18 03:02:04.81	352.33	43.83	-23.9	-25.2	19.3	0.00e+00	0	44	0	1478492160	7	4205
2026-01-18 03:02:07.83	351.42	44.56	-23.8	-24.6	19.3	0.00e+00	0	44	0	1495269376	8	3943
2026-01-18 03:02:10.84	350.47	45.30	-23.7	-24.4	19.4	0.00e+00	0	44	0	1512046592	8	3888
2026-01-18 03:02:13.86	349.48	46.04	-23.5	-24.4	19.7	0.00e+00	0	44	0	1528823808	7	3990
2026-01-18 03:02:16.88	348.43	46.78	-23.8	-25.0	19.4	0.00e+00	0	44	0	1545601024	7	4135
2026-01-18 03:02:19.90	347.34	47.53	-23.6	-24.5	19.6	0.00e+00	0	44	0	1563426816	7	4028
2026-01-18 03:02:22.90	346.20	48.27	-23.6	-24.6	19.6	0.00e+00	0	44	0	1580204032	7	4050
2026-01-18 03:02:25.92	344.99	49.02	-24.2	-25.3	19.0	0.00e+00	0	44	0	1596981248	8	4104
2026-01-18 03:02:28.93	343.73	49.77	-24.6	-25.7	18.6	0.00e+00	0	44	0	1613758464	9	4101
2026-01-18 03:02:31.93	342.40	50.50	-24.4	-25.4	18.8	0.00e+00	0	44	0	1630535680	9	4009
2026-01-18 03:02:34.94	341.01	51.24	-24.9	-26.3	18.3	0.00e+00	0	44	0	1647312896	9	4250
2026-01-18 03:02:37.95	339.55	51.97	-24.6	-25.7	18.6	0.00e+00	0	44	0	1664090112	9	4083
2026-01-18 03:02:40.95	338.01	52.68	-24.6	-25.6	18.6	0.00e+00	0	44	0	1680867328	9	4076
2026-01-18 03:02:43.96	336.40	53.39	-24.6	-25.7	18.6	0.00e+00	0	44	0	1698693120	9	4081
2026-01-18 03:02:46.97	334.70	54.08	-24.7	-25.9	18.5	0.00e+00	0	44	0	1715470336	9	4142
2026-01-18 03:02:49.97	332.93	54.75	-24.7	-26.0	18.5	0.00e+00	0	44	0	1732247552	9	4149
2026-01-18 03:02:52.96	331.08	55.40	-25.0	-26.0	18.2	0.00e+00	0	44	0	1749024768	10	4065
2026-01-18 03:02:55.97	329.13	56.03	-24.9	-25.9	18.2	0.00e+00	0	44	0	1765801984	10	4034
2026-01-18 03:02:58.98	327.09	56.63	-25.0	-26.0	18.2	0.00e+00	0	44	0	1782579200	10	4064
2026-01-18 03:03:01.99	324.97	57.21	-24.4	-25.2	18.8	0.00e+00	0	44	0	1799356416	9	3976
2026-01-18 03:03:05.00	322.75	57.75	-23.6	-24.1	19.6	0.00e+00	0	44	0	1817182208	8	3822
2026-01-18 03:03:08.01	320.44	58.25	-24.3	-25.6	18.9	0.00e+00	0	44	0	1833959424	8	4189
2026-01-18 03:03:11.01	318.06	58.71	-23.9	-24.7	19.3	0.00e+00	0	44	0	1850736640	8	3959
2026-01-18 03:03:14.01	315.60	59.12	-23.8	-24.5	19.5	0.00e+00	0	44	0	1867513856	8	3907
2026-01-18 03:03:17.02	313.06	59.49	-23.8	-24.6	19.4	0.00e+00	0	44	0	1884291072	8	3936
2026-01-18 03:03:20.04	310.44	59.80	-24.0	-25.0	19.2	0.00e+00	0	44	0	1901068288	8	4032
2026-01-18 03:03:23.05	307.76	60.07	-24.0	-25.1	19.2	0.00e+00	0	44	0	1917845504	8	4044
2026-01-18 03:03:26.04	305.06	60.27	-24.2	-25.5	19.0	0.00e+00	0	44	0	1934622720	8	4138
2026-01-18 03:03:29.05	302.30	60.42	-24.8	-25.8	18.3	0.00e+00	0	44	0	1952448512	10	4000
2026-01-18 03:03:32.06	299.51	60.51	-23.7	-24.4	19.5	0.00e+00	0	44	0	1969225728	8	3885
2026-01-18 03:03:35.08	296.70	60.54	-23.9	-24.8	19.3	0.00e+00	0	44	0	1986002944	8	3983
2026-01-18 03:03:38.10	293.90	60.50	-23.8	-24.5	19.4	0.00e+00	0	44	0	2002780160	8	3919
2026-01-18 03:03:41.11	291.11	60.41	-24.1	-25.2	19.1	0.00e+00	0	44	0	2019557376	8	4075
2026-01-18 03:03:44.12	288.35	60.25	-24.3	-25.6	18.9	0.00e+00	0	44	0	2036334592	8	4175
2026-01-18 03:03:47.12	285.64	60.04	-23.8	-24.6	19.4	0.00e+00	0	44	0	2053111808	8	3934
2026-01-18 03:03:50.13	282.98	59.77	-24.0	-24.5	19.2	0.00e+00	0	44	0	2069889024	9	3807
2026-01-18 03:03:53.15	280.36	59.45	-24.2	-24.9	19.0	0.00e+00	0	44	0	2087714816	9	3907
2026-01-18 03:03:56.15	277.83	59.08	-23.9	-24.3	19.2	0.00e+00	0	44	0	2104492032	9	3771
2026-01-18 03:03:59.16	275.36	58.66	-23.6	-24.1	19.6	0.00e+00	0	44	0	2121269248	8	3814
2026-01-18 03:04:02.16	272.99	58.19	-23.5	-24.0	19.6	0.00e+00	0	44	0	2138046464	8	3802
2026-01-18 03:04:05.18	270.68	57.69	-23.7	-24.9	19.4	0.00e+00	0	44	0	2154823680	7	4111
2026-01-18 03:04:08.19	268.47	57.14	-23.4	-24.2	19.7	0.00e+00	0	44	0	2171600896	7	3945
2026-01-18 03:04:11.19	266.36	56.57	-23.5	-24.3	19.7	0.00e+00	0	44	0	2189426688	7	3984
2026-01-18 03:04:14.20	264.33	55.96	-23.6	-24.6	19.6	0.00e+00	0	44	0	2206203904	7	4039
2026-01-18 03:04:17.21	262.38	55.33	-24.1	-25.3	19.0	0.00e+00	0	44	0	2222981120	8	4106
2026-01-18 03:04:20.22	260.53	54.67	-24.2	-25.4	18.9	0.00e+00	0	44	0	2239758336	8	4130
2026-01-18 03:04:23.23	258.76	53.99	-24.3	-25.6	18.8	0.00e+00	0	44	0	2256535552	8	4170
2026-01-18 03:04:26.23	257.07	53.30	-23.9	-24.8	19.2	0.00e+00	0	44	0	2273312768	8	3985
2026-01-18 03:04:29.23	255.47	52.59	-23.9	-24.8	19.2	0.00e+00	0	44	0	2290089984	8	3983
2026-01-18 03:04:32.24	253.94	51.87	-23.8	-24.5	19.3	0.00e+00	0	44	0	2306867200	8	3926
2026-01-18 03:04:35.24	252.48	51.14	-23.6	-24.1	19.5	0.00e+00	0	44	0	2323644416	8	3825
2026-01-18 03:04:38.26	251.09	50.40	-23.5	-23.8	19.7	0.00e+00	0	44	0	2341470208	8	3754
2026-01-18 03:04:41.25	249.78	49.66	-23.4	-23.8	19.7	0.00e+00	0	44	0	2358247424	8	3757
2026-01-18 03:04:44.26	248.52	48.91	-23.3	-23.5	19.8	0.00e+00	0	44	0	2375024640	8	3693
2026-01-18 03:04:47.28	247.31	48.16	-23.4	-23.8	19.6	0.00e+00	0	44	0	2391801856	8	3748
2026-01-18 03:04:50.27	246.18	47.42	-23.5	-23.9	19.5	0.00e+00	0	44	0	2408579072	8	3778
2026-01-18 03:04:53.28	245.09	46.67	-23.1	-23.7	19.9	0.00e+00	0	44	0	2425356288	7	3828
2026-01-18 03:04:56.28	244.06	45.93	-23.0	-23.3	20.1	0.00e+00	0	44	0	2442133504	7	3746
2026-01-18 03:04:59.29	243.07	45.19	-22.9	-23.2	20.2	0.00e+00	0	44	0	2459959296	7	3719
2026-01-18 03:05:02.30	242.12	44.45	-23.2	-23.8	19.8	0.00e+00	0	44	0	2476736512	7	3853
2026-01-18 03:05:05.31	241.22	43.72	-23.1	-23.6	19.9	0.00e+00	0	44	0	2493513728	7	3809
2026-01-18 03:05:08.32	240.36	42.99	-23.3	-24.0	19.7	0.00e+00	0	44	0	2510290944	7	3900
2026-01-18 03:05:11.33	239.54	42.27	-22.9	-23.1	20.1	0.00e+00	0	44	0	2527068160	7	3710
2026-01-18 03:05:14.35	238.75	41.56	-23.0	-23.5	19.9	0.00e+00	0	44	0	2543845376	7	3795
2026-01-18 03:05:17.35	238.00	40.86	-23.0	-23.3	20.0	0.00e+00	0	44	0	2560622592	7	3747
2026-01-18 03:05:20.36	237.28	40.16	-23.1	-23.6	19.9	0.00e+00	0	44	0	2578448384	7	3816
2026-01-18 03:05:23.38	236.58	39.48	-22.7	-23.3	20.2	0.00e+00	0	44	0	2595225600	6	3861
2026-01-18 03:05:26.38	235.92	38.80	-22.7	-23.2	20.3	0.00e+00	0	44	0	2612002816	6	3832
2026-01-18 03:05:29.40	235.29	38.13	-22.6	-23.1	20.3	0.00e+00	0	44	0	2628780032	6	3818
2026-01-18 03:05:32.40	234.68	37.47	-22.7	-23.4	20.2	0.00e+00	0	44	0	2645557248	6	3875
2026-01-18 03:05:35.42	234.10	36.82	-22.9	-23.6	20.1	0.00e+00	0	44	0	2662334464	6	3926
2026-01-18 03:05:38.41	233.54	36.18	-22.9	-23.6	20.0	0.00e+00	0	44	0	2679111680	6	3939
2026-01-18 03:05:41.41	233.00	35.55	-22.9	-23.7	20.0	0.00e+00	0	44	0	2696937472	6	3951
2026-01-18 03:05:44.43	232.48	34.93	-22.7	-23.4	20.2	5.83e-05	0	44	0	2713714688	6	3867
2026-01-18 03:05:47.44	231.98	34.31	-22.9	-23.8	20.0	1.04e-04	0	44	0	2730491904	6	3963
2026-01-18 03:05:50.44	231.50	33.71	-23.0	-23.9	19.9	0.00e+00	0	44	0	2747269120	6	3989
2026-01-18 03:05:53.45	231.04	33.12	-23.0	-24.0	19.8	0.00e+00	0	44	0	2764046336	6	4026
2026-01-18 03:05:56.46	230.59	32.53	-22.8	-23.6	20.0	0.00e+00	0	44	0	2780823552	6	3926
2026-01-18 03:05:59.46	230.16	31.96	-23.1	-24.0	19.8	0.00e+00	0	44	0	2797600768	6	4036
2026-01-18 03:06:02.46	229.75	31.40	-23.2	-24.4	19.6	0.00e+00	0	44	0	2814377984	6	4110
2026-01-18 03:06:05.47	229.34	30.84	-23.3	-24.6	19.5	0.00e+00	0	44	0	2832203776	6	4173
2026-01-18 03:06:08.49	228.96	30.29	-23.5	-24.9	19.3	0.00e+00	0	44	0	2848980992	6	4243
2026-01-18 03:06:11.49	228.58	29.75	-23.6	-24.7	19.2	0.00e+00	0	44	0	2865758208	7	4091
2026-01-18 03:06:14.49	228.22	29.22	-23.5	-24.0	19.3	0.00e+00	0	44	0	2882535424	8	3795
2026-01-18 03:06:17.50	227.87	28.70	-23.4	-24.7	19.4	4.11e-04	0	44	0	2899312640	6	4204
2026-01-18 03:06:20.51	227.53	28.19	-23.5	-24.9	19.3	0.00e+00	0	44	0	2916089856	6	4254
2026-01-18 03:06:23.53	227.20	27.68	-23.8	-25.1	19.0	0.00e+00	0	44	0	2933915648	7	4173
2026-01-18 03:06:26.55	226.89	27.18	-23.7	-24.8	19.1	8.35e-05	0	44	0	2950692864	7	4107
2026-01-18 03:06:29.56	226.58	26.69	-23.8	-25.1	18.9	0.00e+00	0	44	0	2967470080	7	4180
2026-01-18 03:06:32.57	226.28	26.21	-24.3	-25.2	18.3	0.00e+00	0	44	0	2984247296	9	3992
2026-01-18 03:06:35.58	225.99	25.74	-23.7	-24.5	19.0	0.00e+00	0	44	0	3001024512	8	3918
2026-01-18 03:06:38.59	225.71	25.27	-23.8	-24.5	19.0	0.00e+00	0	44	0	3017801728	8	3932
2026-01-18 03:06:41.61	225.44	24.81	-23.7	-24.4	19.0	0.00e+00	0	44	0	3034578944	8	3910
2026-01-18 03:06:44.62	225.17	24.36	-23.9	-24.8	18.8	0.00e+00	0	44	0	3052404736	8	4008
2026-01-18 03:06:47.62	224.92	23.91	-23.5	-24.1	19.1	0.00e+00	0	44	0	3069181952	8	3825
2026-01-18 03:06:50.62	224.67	23.48	-23.6	-24.1	19.1	0.00e+00	0	44	0	3085959168	8	3826
2026-01-18 03:06:53.62	224.43	23.05	-23.6	-24.1	19.1	0.00e+00	0	44	0	3102736384	8	3843
2026-01-18 03:06:56.62	224.19	22.62	-23.8	-24.7	18.8	0.00e+00	0	44	0	3119513600	8	3977
2026-01-18 03:06:59.63	223.96	22.21	-23.8	-24.6	18.8	0.00e+00	0	44	0	3136290816	8	3947
2026-01-18 03:07:02.63	223.74	21.79	-24.0	-25.0	18.6	0.00e+00	0	44	0	3153068032	8	4040
2026-01-18 03:07:05.63	223.53	21.39	-24.0	-25.0	18.6	0.00e+00	0	44	0	3169845248	8	4058
2026-01-18 03:07:08.63	223.32	20.99	-24.1	-25.3	18.4	0.00e+00	0	44	0	3186622464	8	4120
2026-01-18 03:07:11.64	223.11	20.60	-24.2	-25.4	18.3	0.00e+00	0	44	0	3204448256	8	4155
2026-01-18 03:07:14.65	222.91	20.21	-24.3	-25.7	18.2	0.00e+00	0	44	0	3221225472	8	4217
2026-01-18 03:07:17.65	222.72	19.83	-24.3	-25.6	18.2	0.00e+00	0	44	0	3238002688	8	4194
2026-01-18 03:07:20.66	222.53	19.45	-24.3	-25.7	18.2	0.00e+00	0	44	0	3254779904	8	4222
2026-01-18 03:07:23.67	222.34	19.08	-24.4	-26.0	18.0	0.00e+00	0	44	0	3271557120	8	4288
2026-01-18 03:07:26.68	222.16	18.71	-24.5	-25.6	18.0	0.00e+00	0	44	0	3288334336	9	4078
2026-01-18 03:07:29.69	221.99	18.35	-24.8	-26.3	17.6	0.00e+00	0	44	0	3305111552	9	4260
2026-01-18 03:07:32.70	221.82	17.99	-25.0	-26.7	17.4	0.00e+00	0	44	0	3322937344	9	4362
2026-01-18 03:07:35.70	221.65	17.64	-25.2	-26.7	17.1	0.00e+00	0	44	0	3339714560	10	4262
2026-01-18 03:07:38.72	221.48	17.29	-25.3	-26.9	15.8	0.00e+00	0	44	0	3356491776	10	4313
2026-01-18 03:07:41.72	221.33	16.95	-25.3	-26.8	17.0	0.00e+00	0	44	0	3373268992	10	4278
2026-01-18 03:07:44.73	221.17	16.61	-25.3	-26.8	17.0	0.00e+00	0	44	0	3390046208	10	4282
2026-01-18 03:07:47.74	221.02	16.28	-25.2	-26.7	17.0	0.00e+00	0	44	0	3406823424	10	4262
2026-01-18 03:07:50.75	220.87	15.95	-25.3	-26.8	17.0	2.00e-04	0	44	0	3423600640	10	4276
2026-01-18 03:07:53.77	220.72	15.62	-25.3	-26.4	16.9	1.89e-04	0	44	0	3440377856	11	4062
2026-01-18 03:07:56.77	220.58	15.30	-25.5	-26.7	16.7	0.00e+00	0	44	0	3458203648	11	4147
2026-01-18 03:07:59.78	220.44	14.98	-25.4	-26.6	16.8	0.00e+00	0	44	0	3474980864	11	4117
2026-01-18 03:08:02.80	220.31	14.67	-25.5	-26.7	16.6	2.05e-04	0	44	0	3491758080	11	4153
2026-01-18 03:08:05.81	220.17	14.36	-25.5	-26.8	16.6	0.00e+00	0	44	0	3508535296	11	4165
2026-01-18 03:08:08.81	220.04	14.06	-25.6	-26.9	16.5	2.60e-04	0	44	0	3525312512	11	4205
2026-01-18 03:08:11.82	219.92	13.75	-25.8	-27.5	16.2	3.32e-04	0	44	0	3542089728	11	4360
2026-01-18 03:08:14.83	219.79	13.45	-26.0	-27.8	15.9	3.48e-04	0	44	0	3558866944	11	4461
2026-01-18 03:08:17.84	219.67	13.16	-26.3	-28.0	15.5	3.28e-04	0	44	0	3576692736	12	4391
2026-01-18 03:08:20.85	219.55	12.87	-26.1	-27.6	15.7	2.57e-04	0	44	0	3593469952	12	4285
2026-01-18 03:08:23.86	219.44	12.58	-26.1	-27.7	15.6	2.66e-04	0	44	0	3610247168	12	4299
2026-01-18 03:08:26.86	219.32	12.30	-26.1	-27.7	15.6	0.00e+00	0	44	0	3627024384	12	4312
2026-01-18 03:08:29.88	219.21	12.01	-26.3	-28.2	15.3	1.83e-04	0	44	0	3643801600	12	4447
2026-01-18 03:08:32.88	219.10	11.73	-26.2	-27.5	15.4	1.75e-04	0	44	0	3660578816	13	4149
2026-01-18 03:08:35.89	218.99	11.46	-26.6	-28.3	14.9	0.00e+00	0	44	0	3678404608	13	4377
2026-01-18 03:08:38.90	218.89	11.19	-26.6	-28.2	15.0	0.00e+00	0	44	0	3695181824	13	4344
2026-01-18 03:08:41.91	218.78	10.92	-26.7	-28.6	14.7	1.35e-04	0	44	0	3711959040	13	4459
2026-01-18 03:08:44.90	218.68	10.65	-26.6	-28.3	14.9	1.02e-04	0	44	0	3728736256	13	4362
2026-01-18 03:08:47.90	218.58	10.39	-26.5	-28.2	14.9	0.00e+00	0	44	0	3745513472	13	4338
2026-01-18 03:08:50.91	218.49	10.13	-26.7	-28.5	14.7	1.19e-04	0	44	0	3762290688	13	4442
2026-01-18 03:08:53.92	218.39	9.87	-26.9	-28.4	14.5	1.35e-04	0	44	0	3779067904	14	4294
2026-01-18 03:08:56.93	218.30	9.61	-26.7	-28.0	14.7	0.00e+00	0	44	0	3795845120	14	4185
2026-01-18 03:08:59.94	218.21	9.36	-27.1	-29.0	14.1	0.00e+00	0	44	0	3813670912	14	4454
2026-01-18 03:09:02.94	218.12	9.11	-26.9	-28.5	14.3	1.43e-04	0	44	0	3830448128	14	4316
2026-01-18 03:09:05.96	218.03	8.86	-26.8	-28.3	14.4	1.10e-06	0	44	0	3847225344	14	4273
2026-01-18 03:09:08.98	217.94	8.61	-27.2	-29.1	13.9	2.20e-06	0	44	0	3864002560	14	4510
2026-01-18 03:09:11.97	217.86	8.37	-27.6	-29.5	13.3	4.50e-06	0	44	0	3880779776	15	4520
2026-01-18 03:09:14.99	217.77	8.12	-27.3	-28.9	13.7	8.00e-06	0	44	0	3897556992	15	4348
2026-01-18 03:09:18.00	217.69	7.89	-27.6	-29.7	13.2	9.10e-06	0	44	0	3914334208	15	4561
2026-01-18 03:09:21.00	217.61	7.65	-27.8	-30.0	13.0	2.28e-05	0	44	0	3932160000	15	4674
2026-01-18 03:09:24.00	217.53	7.41	-27.8	-30.1	12.9	4.34e-05	0	44	0	3948937216	15	4721
2026-01-18 03:09:27.03	217.45	7.18	-28.3	-30.9	12.3	8.01e-05	0	44	0	3965714432	16	4830

#Closed at: 2026-01-18 03:09:29
#Recorded file [3973 MB]: D:/data/31010_260118_055741.dat