passes_logs/2026/01/18/R2M6_AANII_01/R2M6_AANII_01__20260118_143431_FENGYUN_3E_rec.log

#Pass ID: 20260118_143431_FENGYUN 3E
#Satellite: FENGYUN 3E
#Configuration: FENGYUN 3E
#almurnet v.1.7.20240730
#Start time: 2026-01-18 14:34:32

#Version: 2.2.20231116
#Station: R2M6_AANII_01
#Location: 30.233357 lon 59.946436 lat
#TLE: 1 49008U 21062A   26017.61301378  .00000104  00000+0  69808-4 0  9996
#TLE: 2 49008  98.7484  22.7108 0002130 132.1860 227.9498 14.19886007235218

#Time	Az	El	Level	Level2	SNR	BER	BlckErr	Temp	State	Recorded	gain1	gain2
2026-01-18 14:34:32.92	159.34	7.10	-29.6	-32.1	5.1	7.92e-01	0	41	0	0	20	4816
2026-01-18 14:34:35.93	159.34	7.34	-29.4	-32.1	8.9	2.90e-02	0	41	0	7340032	19	4886
2026-01-18 14:34:38.93	159.35	7.58	-29.4	-31.9	9.0	2.57e-02	0	41	0	28311552	19	4823
2026-01-18 14:34:41.95	159.36	7.82	-29.1	-31.1	9.6	1.62e-02	0	41	0	50331648	19	4553
2026-01-18 14:34:44.96	159.37	8.06	-27.7	-29.3	11.6	7.49e-04	0	41	0	72351744	16	4332
2026-01-18 14:34:47.97	159.38	8.30	-26.7	-28.1	12.6	1.17e-04	0	41	0	93323264	14	4234
2026-01-18 14:34:50.98	159.39	8.55	-27.0	-28.7	12.3	1.38e-04	0	42	0	115343360	14	4396
2026-01-18 14:34:53.99	159.40	8.80	-26.7	-28.2	12.7	8.23e-05	0	42	0	137363456	14	4242
2026-01-18 14:34:56.99	159.41	9.05	-27.1	-29.0	12.3	1.68e-04	0	42	0	159383552	14	4473
2026-01-18 14:35:00.00	159.42	9.30	-26.4	-27.4	13.2	3.31e-05	0	42	0	180355072	14	4035
2026-01-18 14:35:03.01	159.43	9.56	-26.3	-27.5	13.4	1.25e-05	0	42	0	202375168	13	4152
2026-01-18 14:35:06.02	159.44	9.82	-26.2	-27.3	13.5	1.71e-05	0	42	0	224395264	13	4114
2026-01-18 14:35:09.03	159.45	10.08	-26.3	-27.5	13.4	1.83e-05	0	42	0	246415360	13	4162
2026-01-18 14:35:12.05	159.46	10.35	-25.8	-27.1	14.0	4.50e-06	0	42	0	267386880	12	4145
2026-01-18 14:35:15.06	159.47	10.62	-25.9	-27.2	13.9	6.80e-06	0	42	0	289406976	12	4180
2026-01-18 14:35:18.08	159.48	10.89	-25.9	-27.3	13.9	3.40e-06	0	42	0	311427072	12	4195
2026-01-18 14:35:21.08	159.49	11.16	-25.8	-27.0	14.1	4.50e-06	0	42	0	333447168	12	4123
2026-01-18 14:35:24.10	159.50	11.44	-25.8	-26.9	14.2	1.10e-06	0	42	0	354418688	12	4083
2026-01-18 14:35:27.10	159.51	11.72	-25.8	-26.8	14.2	0.00e+00	0	42	0	376438784	12	4057
2026-01-18 14:35:30.10	159.52	12.00	-25.6	-26.5	14.4	0.00e+00	0	42	0	398458880	12	3979
2026-01-18 14:35:33.10	159.53	12.29	-25.6	-26.5	14.4	1.10e-06	0	42	0	419430400	12	3968
2026-01-18 14:35:36.11	159.54	12.58	-25.6	-26.8	14.6	0.00e+00	0	42	0	441450496	11	4171
2026-01-18 14:35:39.12	159.55	12.87	-25.6	-26.9	14.5	0.00e+00	0	42	0	463470592	11	4189
2026-01-18 14:35:42.14	159.56	13.17	-25.2	-26.1	15.0	0.00e+00	0	42	0	484442112	11	3966
2026-01-18 14:35:45.15	159.57	13.47	-25.2	-26.1	15.1	0.00e+00	0	42	0	506462208	11	3968
2026-01-18 14:35:48.16	159.58	13.78	-25.1	-25.7	15.3	0.00e+00	0	43	0	528482304	11	3872
2026-01-18 14:35:51.17	159.59	14.09	-25.1	-25.7	15.3	3.40e-06	0	42	0	550502400	11	3874
2026-01-18 14:35:54.19	159.60	14.40	-24.9	-25.9	15.5	4.50e-06	0	43	0	571473920	10	4019
2026-01-18 14:35:57.19	159.62	14.72	-24.8	-25.7	15.6	5.70e-06	0	43	0	593494016	10	3974
2026-01-18 14:36:00.21	159.63	15.04	-24.8	-25.6	15.7	2.20e-06	0	43	0	615514112	10	3941
2026-01-18 14:36:03.22	159.64	15.36	-24.9	-25.8	15.6	0.00e+00	0	43	0	637534208	10	3988
2026-01-18 14:36:06.22	159.65	15.69	-24.9	-25.8	15.6	0.00e+00	0	43	0	658505728	10	4006
2026-01-18 14:36:09.22	159.66	16.03	-24.5	-25.0	16.0	0.00e+00	0	43	0	680525824	10	3801
2026-01-18 14:36:12.24	159.67	16.37	-24.5	-25.0	16.0	0.00e+00	0	43	0	702545920	10	3809
2026-01-18 14:36:15.25	159.68	16.71	-24.3	-25.1	16.3	0.00e+00	0	43	0	723517440	9	3927
2026-01-18 14:36:18.26	159.69	17.06	-24.4	-25.3	16.1	0.00e+00	0	43	0	745537536	9	3970
2026-01-18 14:36:21.27	159.70	17.41	-24.4	-25.1	16.3	0.00e+00	0	43	0	767557632	9	3929
2026-01-18 14:36:24.27	159.71	17.77	-24.3	-25.0	16.4	0.00e+00	0	43	0	789577728	9	3896
2026-01-18 14:36:27.27	159.72	18.13	-24.1	-24.7	16.5	0.00e+00	0	43	0	810549248	9	3821
2026-01-18 14:36:30.29	159.73	18.50	-24.1	-24.6	16.5	0.00e+00	0	43	0	832569344	9	3819
2026-01-18 14:36:33.29	159.74	18.88	-24.4	-25.2	16.2	0.00e+00	0	43	0	854589440	9	3967
2026-01-18 14:36:36.29	159.75	19.26	-24.2	-24.9	16.4	0.00e+00	0	43	0	875560960	9	3877
2026-01-18 14:36:39.29	159.76	19.64	-24.3	-25.1	16.3	0.00e+00	0	43	0	897581056	9	3948
2026-01-18 14:36:42.29	159.77	20.04	-24.1	-24.5	16.6	0.00e+00	0	43	0	919601152	9	3794
2026-01-18 14:36:45.31	159.78	20.44	-24.0	-25.0	16.6	0.00e+00	0	43	0	941621248	8	4010
2026-01-18 14:36:48.31	159.79	20.84	-24.1	-25.1	16.6	0.00e+00	0	43	0	962592768	8	4042
2026-01-18 14:36:51.32	159.81	21.26	-24.0	-25.0	16.6	0.00e+00	0	43	0	984612864	8	4025
2026-01-18 14:36:54.33	159.82	21.68	-24.0	-24.9	16.7	0.00e+00	0	43	0	1006632960	8	4006
2026-01-18 14:36:57.34	159.83	22.10	-24.2	-25.2	16.6	0.00e+00	0	43	0	1027604480	8	4075
2026-01-18 14:37:00.34	159.84	22.53	-23.8	-24.6	16.9	0.00e+00	0	43	0	1049624576	8	3920
2026-01-18 14:37:03.36	159.85	22.98	-23.3	-23.9	17.4	0.00e+00	0	43	0	1071644672	7	3866
2026-01-18 14:37:06.37	159.86	23.43	-23.1	-23.6	17.6	0.00e+00	0	43	0	1092616192	7	3784
2026-01-18 14:37:09.37	159.87	23.88	-23.0	-23.4	17.7	0.00e+00	0	43	0	1114636288	7	3744
2026-01-18 14:37:12.37	159.88	24.35	-23.1	-23.5	17.6	0.00e+00	0	43	0	1136656384	7	3787
2026-01-18 14:37:15.38	159.89	24.82	-23.4	-24.1	17.3	0.00e+00	0	43	0	1157627904	7	3934
2026-01-18 14:37:18.40	159.90	25.30	-23.6	-24.6	17.0	0.00e+00	0	43	0	1179648000	7	4042
2026-01-18 14:37:21.41	159.92	25.80	-23.5	-24.5	17.1	0.00e+00	0	43	0	1201668096	7	4040
2026-01-18 14:37:24.42	159.93	26.30	-23.6	-24.6	17.0	0.00e+00	0	43	0	1223688192	7	4062
2026-01-18 14:37:27.44	159.94	26.81	-23.2	-23.8	17.4	0.00e+00	0	43	0	1244659712	7	3879
2026-01-18 14:37:30.46	159.95	27.33	-23.2	-23.7	17.5	0.00e+00	0	43	0	1266679808	7	3854
2026-01-18 14:37:33.47	159.96	27.86	-22.9	-23.2	17.8	0.00e+00	0	43	0	1288699904	7	3722
2026-01-18 14:37:36.47	159.97	28.40	-23.3	-23.3	18.5	0.00e+00	0	43	0	1310720000	7	3614
2026-01-18 14:37:39.47	159.98	28.95	-23.2	-23.1	18.6	0.00e+00	0	43	0	1331691520	7	3563
2026-01-18 14:37:42.47	160.00	29.51	-23.2	-23.1	18.7	0.00e+00	0	43	0	1353711616	7	3562
2026-01-18 14:37:45.48	160.01	30.08	-23.5	-23.8	18.4	0.00e+00	0	43	0	1375731712	7	3707
2026-01-18 14:37:48.50	160.02	30.67	-23.4	-23.6	18.5	0.00e+00	0	43	0	1396703232	7	3669
2026-01-18 14:37:51.51	160.03	31.27	-23.5	-23.7	18.4	0.00e+00	0	43	0	1418723328	7	3680
2026-01-18 14:37:54.52	160.04	31.88	-23.6	-23.9	18.3	0.00e+00	0	43	0	1440743424	7	3742
2026-01-18 14:37:57.52	160.06	32.50	-23.5	-23.8	18.4	0.00e+00	0	43	0	1462763520	7	3708
2026-01-18 14:38:00.53	160.07	33.13	-23.3	-23.3	18.6	0.00e+00	0	43	0	1483735040	7	3606
2026-01-18 14:38:03.55	160.08	33.78	-23.5	-23.6	18.5	0.00e+00	0	43	0	1505755136	7	3676
2026-01-18 14:38:06.56	160.09	34.45	-23.6	-23.9	18.3	0.00e+00	0	43	0	1527775232	7	3734
2026-01-18 14:38:09.56	160.10	35.12	-23.5	-23.6	18.5	0.00e+00	0	43	0	1549795328	7	3674
2026-01-18 14:38:12.58	160.12	35.82	-23.4	-23.4	18.6	0.00e+00	0	43	0	1570766848	7	3630
2026-01-18 14:38:15.58	160.13	36.52	-23.4	-23.6	18.5	0.00e+00	0	43	0	1592786944	7	3673
2026-01-18 14:38:18.60	160.14	37.25	-23.2	-23.2	18.8	0.00e+00	0	43	0	1614807040	7	3570
2026-01-18 14:38:21.60	160.15	37.99	-23.5	-23.8	18.5	0.00e+00	0	43	0	1635778560	7	3709
2026-01-18 14:38:24.62	160.17	38.75	-23.8	-24.3	18.2	0.00e+00	0	43	0	1657798656	7	3832
2026-01-18 14:38:27.63	160.18	39.52	-24.0	-24.3	18.0	0.00e+00	0	43	0	1679818752	8	3724
2026-01-18 14:38:30.63	160.19	40.31	-24.1	-24.5	17.9	0.00e+00	0	43	0	1701838848	8	3768
2026-01-18 14:38:33.64	160.21	41.12	-24.1	-24.4	18.0	0.00e+00	0	43	0	1722810368	8	3751
2026-01-18 14:38:36.65	160.22	41.95	-23.8	-23.9	18.2	0.00e+00	0	43	0	1744830464	8	3621
2026-01-18 14:38:39.67	160.23	42.80	-23.5	-23.2	18.6	0.00e+00	0	43	0	1766850560	8	3485
2026-01-18 14:38:42.67	160.25	43.66	-23.7	-23.7	18.4	0.00e+00	0	43	0	1787822080	8	3590
2026-01-18 14:38:45.69	160.26	44.55	-23.7	-23.6	18.4	0.00e+00	0	43	0	1809842176	8	3557
2026-01-18 14:38:48.71	160.28	45.46	-24.1	-24.5	18.0	0.00e+00	0	43	0	1831862272	8	3766
2026-01-18 14:38:51.70	160.29	46.38	-24.4	-25.1	17.7	0.00e+00	0	43	0	1852833792	8	3891
2026-01-18 14:38:54.70	160.31	47.33	-25.1	-26.0	17.0	0.00e+00	0	43	0	1874853888	9	4019
2026-01-18 14:38:57.71	160.32	48.30	-24.8	-24.8	17.4	0.00e+00	0	43	0	1896873984	10	3638
2026-01-18 14:39:00.71	160.34	49.29	-24.6	-24.6	17.4	0.00e+00	0	43	0	1918894080	10	3582
2026-01-18 14:39:03.73	160.35	50.31	-25.0	-25.5	17.0	0.00e+00	0	43	0	1939865600	10	3777
2026-01-18 14:39:06.74	160.37	51.35	-25.2	-25.9	16.8	0.00e+00	0	43	0	1961885696	10	3874
2026-01-18 14:39:09.75	160.39	52.41	-24.6	-24.6	17.5	0.00e+00	0	43	0	1983905792	10	3573
2026-01-18 14:39:12.74	160.40	53.49	-25.0	-25.8	17.1	0.00e+00	0	43	0	2004877312	9	3953
2026-01-18 14:39:15.74	160.42	54.59	-25.0	-25.4	17.1	0.00e+00	0	43	0	2026897408	10	3772
2026-01-18 14:39:18.76	160.44	55.73	-24.9	-25.1	17.3	0.00e+00	0	43	0	2048917504	10	3690
2026-01-18 14:39:21.76	160.46	56.88	-24.9	-25.1	17.2	0.00e+00	0	43	0	2070937600	10	3679
2026-01-18 14:39:24.77	160.48	58.06	-25.1	-25.6	17.0	0.00e+00	0	43	0	2091909120	10	3814
2026-01-18 14:39:27.77	160.50	59.26	-25.5	-25.4	16.6	0.00e+00	0	43	0	2113929216	12	3557
2026-01-18 14:39:30.77	160.52	60.49	-24.5	-24.3	17.6	0.00e+00	0	43	0	2135949312	10	3519
2026-01-18 14:39:33.79	160.54	61.74	-25.3	-25.9	16.9	0.00e+00	0	44	0	2156920832	10	3887
2026-01-18 14:39:36.79	160.57	63.02	-23.8	-23.9	18.5	0.00e+00	0	43	0	2178940928	8	3612
2026-01-18 14:39:39.80	160.59	64.32	-24.5	-24.7	17.8	0.00e+00	0	43	0	2200961024	9	3709
2026-01-18 14:39:42.79	160.62	65.63	-23.4	-23.6	18.8	0.00e+00	0	43	0	2221932544	7	3657
2026-01-18 14:39:45.81	160.65	66.98	-22.9	-22.5	19.4	0.00e+00	0	43	0	2243952640	7	3430
2026-01-18 14:39:48.82	160.68	68.35	-23.4	-24.0	18.9	0.00e+00	0	43	0	2265972736	6	3848
2026-01-18 14:39:51.83	160.71	69.74	-23.9	-24.5	18.4	0.00e+00	0	43	0	2287992832	7	3875
2026-01-18 14:39:54.84	160.75	71.15	-23.7	-24.1	18.6	0.00e+00	0	44	0	2308964352	7	3781
2026-01-18 14:39:57.85	160.80	72.58	-24.2	-24.7	17.9	0.00e+00	0	43	0	2330984448	8	3801
2026-01-18 14:40:00.85	160.85	74.02	-23.6	-23.4	18.8	0.00e+00	0	43	0	2351955968	8	3514
2026-01-18 14:40:03.86	160.91	75.49	-23.9	-24.5	18.5	0.00e+00	0	43	0	2373976064	7	3860
2026-01-18 14:40:06.88	160.98	76.97	-22.4	-21.9	20.0	0.00e+00	0	43	0	2395996160	6	3408
2026-01-18 14:40:09.90	161.06	78.47	-22.5	-22.7	19.8	0.00e+00	0	44	0	2418016256	5	3676
2026-01-18 14:40:12.90	161.17	79.98	-21.7	-21.5	20.6	0.00e+00	0	43	0	2438987776	4	3517
2026-01-18 14:40:15.90	161.32	81.49	-21.9	-21.8	20.5	0.00e+00	0	44	0	2461007872	4	3584
2026-01-18 14:40:18.90	161.52	83.02	-22.2	-22.6	20.1	0.00e+00	0	44	0	2483027968	4	3746
2026-01-18 14:40:21.89	161.83	84.55	-23.4	-24.1	18.9	0.00e+00	0	43	0	2503999488	6	3883
2026-01-18 14:40:24.91	162.38	86.10	-24.3	-24.9	18.1	0.00e+00	0	43	0	2526019584	8	3846
2026-01-18 14:40:27.91	163.65	87.64	-24.5	-24.8	17.9	0.00e+00	0	43	0	2548039680	9	3732
2026-01-18 14:40:30.93	169.76	89.19	-24.4	-24.6	18.0	0.00e+00	0	43	0	2570059776	9	3659
2026-01-18 14:40:33.95	330.83	89.23	-29.2	-30.5	12.5	0.00e+00	0	44	0	2591031296	18	4191
2026-01-18 14:40:36.95	337.30	87.69	-33.9	-41.3	3.8	8.45e-01	0	43	104	2596274176	28	8383
2026-01-18 14:40:39.96	338.61	86.14	-34.3	-44.0	3.8	8.45e-01	0	44	104	2596274176	28	10985
2026-01-18 14:40:42.96	339.17	84.60	-34.3	-43.7	3.8	8.45e-01	0	43	104	2596274176	28	10662
2026-01-18 14:40:45.97	339.49	83.06	-34.3	-44.0	3.8	8.45e-01	0	43	104	2596274176	28	10904
2026-01-18 14:40:48.96	339.69	81.54	-34.3	-44.0	3.8	8.47e-01	0	44	104	2596274176	28	10986
2026-01-18 14:40:51.97	339.84	80.02	-34.3	-44.0	3.8	8.45e-01	0	44	104	2596274176	28	10999
2026-01-18 14:40:54.97	339.95	78.52	-34.3	-44.0	3.8	8.45e-01	0	44	104	2596274176	28	10983
2026-01-18 14:40:57.98	340.03	77.03	-34.3	-44.0	3.8	8.45e-01	0	43	104	2596274176	28	10981
2026-01-18 14:41:00.99	340.10	75.55	-34.3	-44.1	3.8	8.46e-01	0	43	104	2596274176	28	11057
2026-01-18 14:41:04.00	340.16	74.08	-34.3	-44.0	3.8	8.46e-01	0	43	104	2596274176	28	11038
2026-01-18 14:41:07.01	340.21	72.64	-34.3	-44.0	3.8	8.45e-01	0	44	104	2596274176	28	11029
2026-01-18 14:41:10.02	340.26	71.21	-34.3	-44.1	3.8	8.46e-01	0	44	104	2596274176	28	11096
2026-01-18 14:41:13.02	340.30	69.81	-34.3	-44.0	3.8	8.47e-01	0	44	104	2596274176	28	11029
2026-01-18 14:41:16.04	340.33	68.41	-34.3	-44.0	3.8	8.46e-01	0	44	104	2596274176	28	11002
2026-01-18 14:41:19.05	340.37	67.05	-34.3	-43.9	3.8	8.45e-01	0	44	104	2596274176	28	10977
2026-01-18 14:41:22.05	340.40	65.71	-34.3	-44.0	3.8	8.47e-01	0	44	104	2596274176	28	11015
2026-01-18 14:41:25.06	340.42	64.39	-34.3	-43.9	3.8	8.45e-01	0	44	104	2596274176	28	10976
2026-01-18 14:41:28.08	340.45	63.08	-34.3	-44.0	3.8	8.46e-01	0	44	104	2596274176	28	11004
2026-01-18 14:41:31.09	340.47	61.81	-34.3	-43.9	3.8	8.45e-01	0	44	104	2596274176	28	10991
2026-01-18 14:41:34.10	340.50	60.56	-34.2	-43.9	3.8	8.46e-01	0	44	104	2596274176	28	10966
2026-01-18 14:41:37.11	340.52	59.33	-34.2	-43.9	3.8	8.46e-01	0	43	104	2596274176	28	10944
2026-01-18 14:41:40.13	340.54	58.13	-34.2	-43.9	3.8	8.46e-01	0	43	104	2596274176	28	10905
2026-01-18 14:41:43.14	340.56	56.95	-34.2	-43.8	3.8	8.45e-01	0	43	104	2596274176	28	10908
2026-01-18 14:41:46.16	340.58	55.79	-34.2	-43.8	3.8	8.46e-01	0	44	104	2596274176	28	10901
2026-01-18 14:41:49.19	340.60	54.65	-34.2	-43.8	3.8	8.46e-01	0	44	104	2596274176	28	10839
2026-01-18 14:41:52.19	340.62	53.55	-34.2	-43.7	3.8	8.45e-01	0	44	104	2596274176	28	10842
2026-01-18 14:41:55.21	340.63	52.46	-34.1	-43.7	3.8	8.46e-01	0	44	104	2596274176	28	10776
2026-01-18 14:41:58.22	340.65	51.41	-34.1	-43.7	3.8	8.47e-01	0	43	104	2596274176	28	10807
2026-01-18 14:42:01.24	340.67	50.37	-34.1	-43.7	3.8	8.46e-01	0	44	104	2596274176	28	10834
2026-01-18 14:42:04.25	340.69	49.36	-34.1	-43.7	3.8	8.45e-01	0	44	104	2596274176	28	10828
2026-01-18 14:42:07.26	340.70	48.37	-34.1	-43.5	3.8	8.46e-01	0	44	104	2596274176	28	10706
2026-01-18 14:42:10.28	340.72	47.39	-34.1	-43.6	3.8	8.46e-01	0	44	104	2596274176	28	10768
2026-01-18 14:42:13.29	340.73	46.45	-34.1	-43.6	3.8	8.47e-01	0	44	104	2596274176	28	10734
2026-01-18 14:42:16.29	340.75	45.53	-34.1	-43.6	3.8	8.45e-01	0	44	104	2596274176	28	10738
2026-01-18 14:42:19.30	340.76	44.62	-34.1	-43.6	3.8	8.47e-01	0	44	104	2596274176	28	10741
2026-01-18 14:42:22.33	340.78	43.73	-34.1	-43.5	3.8	8.46e-01	0	44	104	2596274176	28	10700
2026-01-18 14:42:25.33	340.79	42.87	-34.1	-43.5	3.8	8.45e-01	0	44	104	2596274176	28	10705
2026-01-18 14:42:28.33	340.81	42.03	-34.1	-43.5	3.8	8.44e-01	0	44	104	2596274176	28	10736
2026-01-18 14:42:31.34	340.82	41.21	-34.1	-43.5	3.8	8.46e-01	0	44	104	2596274176	28	10665
2026-01-18 14:42:34.35	340.84	40.40	-34.0	-43.5	3.8	8.47e-01	0	44	104	2596274176	28	10658
2026-01-18 14:42:37.36	340.85	39.61	-34.0	-43.4	3.8	8.47e-01	0	44	104	2596274176	28	10657
2026-01-18 14:42:40.37	340.87	38.84	-34.0	-43.4	3.8	8.45e-01	0	44	104	2596274176	28	10602
2026-01-18 14:42:43.38	340.88	38.08	-34.0	-43.4	3.8	8.45e-01	0	43	104	2596274176	28	10638
2026-01-18 14:42:46.39	340.89	37.35	-34.0	-43.4	3.8	8.47e-01	0	44	104	2596274176	28	10623
2026-01-18 14:42:49.40	340.91	36.62	-34.0	-43.3	3.8	8.46e-01	0	44	104	2596274176	28	10579
2026-01-18 14:42:52.42	340.92	35.92	-34.0	-43.3	3.8	8.46e-01	0	44	104	2596274176	28	10582
2026-01-18 14:42:55.43	340.93	35.23	-34.0	-43.3	3.8	8.47e-01	0	44	104	2596274176	28	10574
2026-01-18 14:42:58.43	340.95	34.55	-33.9	-43.2	3.8	8.46e-01	0	44	104	2596274176	28	10495
2026-01-18 14:43:01.44	340.96	33.89	-33.9	-43.3	3.8	8.46e-01	0	44	104	2596274176	28	10595
2026-01-18 14:43:04.44	340.98	33.24	-33.9	-43.2	3.8	8.45e-01	0	43	104	2596274176	28	10523
2026-01-18 14:43:07.45	340.99	32.61	-33.9	-43.2	3.8	8.45e-01	0	44	104	2596274176	28	10558
2026-01-18 14:43:10.47	341.00	31.99	-33.9	-43.2	3.8	8.47e-01	0	44	104	2596274176	28	10491
2026-01-18 14:43:13.48	341.02	31.38	-33.9	-43.2	3.8	8.46e-01	0	44	104	2596274176	28	10488
2026-01-18 14:43:16.49	341.03	30.78	-33.9	-43.2	3.8	8.46e-01	0	44	104	2596274176	28	10466
2026-01-18 14:43:19.49	341.04	30.20	-33.9	-43.2	3.8	8.47e-01	0	44	104	2596274176	28	10473
2026-01-18 14:43:22.50	341.05	29.63	-33.9	-43.1	3.8	8.45e-01	0	44	104	2596274176	28	10445
2026-01-18 14:43:25.51	341.07	29.07	-33.9	-43.1	3.8	8.46e-01	0	44	104	2596274176	28	10476
2026-01-18 14:43:28.53	341.08	28.52	-33.9	-43.1	3.8	8.46e-01	0	44	104	2596274176	28	10462
2026-01-18 14:43:31.53	341.09	27.98	-33.8	-43.1	3.8	8.47e-01	0	44	104	2596274176	28	10416
2026-01-18 14:43:34.54	341.11	27.45	-33.8	-43.1	3.8	8.46e-01	0	44	104	2596274176	28	10420
2026-01-18 14:43:37.55	341.12	26.93	-33.8	-43.0	3.8	8.45e-01	0	44	104	2596274176	28	10404
2026-01-18 14:43:40.56	341.13	26.43	-33.8	-43.0	3.8	8.45e-01	0	44	104	2596274176	28	10389
2026-01-18 14:43:43.57	341.15	25.93	-33.8	-43.0	3.8	8.46e-01	0	44	104	2596274176	28	10343
2026-01-18 14:43:46.57	341.16	25.44	-33.8	-43.0	3.8	8.46e-01	0	44	104	2596274176	28	10384
2026-01-18 14:43:49.57	341.17	24.96	-33.8	-42.9	3.8	8.47e-01	0	44	104	2596274176	28	10333
2026-01-18 14:43:52.57	341.18	24.49	-33.7	-42.9	3.8	8.46e-01	0	44	104	2596274176	28	10285
2026-01-18 14:43:55.59	341.20	24.02	-33.7	-42.9	3.8	8.47e-01	0	44	104	2596274176	28	10349
2026-01-18 14:43:58.59	341.21	23.57	-33.7	-42.8	3.8	8.48e-01	0	44	104	2596274176	28	10298
2026-01-18 14:44:01.61	341.22	23.12	-33.7	-42.9	3.8	8.46e-01	0	44	104	2596274176	28	10322
2026-01-18 14:44:04.63	341.23	22.68	-33.7	-42.8	3.8	8.46e-01	0	44	104	2596274176	28	10311
2026-01-18 14:44:07.64	341.25	22.24	-33.7	-42.8	3.8	8.46e-01	0	44	104	2596274176	28	10293
2026-01-18 14:44:10.65	341.26	21.82	-33.7	-42.8	3.8	8.47e-01	0	44	104	2596274176	28	10291
2026-01-18 14:44:13.64	341.27	21.40	-33.6	-42.8	3.8	8.48e-01	0	44	104	2596274176	28	10272
2026-01-18 14:44:16.66	341.29	20.99	-33.6	-42.7	3.8	8.46e-01	0	44	104	2596274176	28	10229
2026-01-18 14:44:19.66	341.30	20.58	-33.6	-42.7	3.8	8.46e-01	0	44	104	2596274176	28	10260
2026-01-18 14:44:22.67	341.31	20.19	-33.6	-42.7	3.8	8.46e-01	0	43	104	2596274176	28	10225
2026-01-18 14:44:25.68	341.32	19.79	-33.6	-42.6	3.8	8.46e-01	0	44	104	2596274176	28	10193
2026-01-18 14:44:28.68	341.34	19.41	-33.5	-42.6	3.8	8.46e-01	0	44	104	2596274176	28	10180
2026-01-18 14:44:31.69	341.35	19.03	-33.5	-42.5	3.8	8.45e-01	0	44	104	2596274176	28	10145
2026-01-18 14:44:34.71	341.36	18.65	-33.5	-42.5	3.8	8.45e-01	0	44	104	2596274176	28	10160
2026-01-18 14:44:37.73	341.37	18.28	-33.5	-42.5	3.8	8.45e-01	0	44	104	2596274176	28	10145
2026-01-18 14:44:40.74	341.39	17.92	-33.5	-42.4	3.8	8.46e-01	0	44	104	2596274176	28	10128
2026-01-18 14:44:43.76	341.40	17.56	-33.4	-42.4	3.8	8.46e-01	0	44	104	2596274176	28	10076
2026-01-18 14:44:46.76	341.41	17.21	-33.4	-42.4	3.8	8.47e-01	0	44	104	2596274176	28	10074
2026-01-18 14:44:49.78	341.42	16.86	-33.4	-42.3	3.8	8.45e-01	0	44	104	2596274176	28	10013
2026-01-18 14:44:52.79	341.44	16.52	-33.4	-42.4	3.8	8.46e-01	0	44	104	2596274176	28	10057
2026-01-18 14:44:55.80	341.45	16.18	-33.4	-42.4	3.8	8.46e-01	0	44	104	2596274176	28	10058
2026-01-18 14:44:58.80	341.46	15.84	-33.4	-42.3	3.8	8.46e-01	0	44	104	2596274176	28	10043
2026-01-18 14:45:01.81	341.47	15.52	-33.4	-42.3	3.8	8.45e-01	0	44	104	2596274176	28	10026
2026-01-18 14:45:04.81	341.49	15.19	-33.4	-42.3	3.8	8.46e-01	0	44	104	2596274176	28	10025
2026-01-18 14:45:07.83	341.50	14.87	-33.5	-42.9	3.8	8.46e-01	0	44	104	2596274176	27	10683
2026-01-18 14:45:10.84	341.51	14.55	-33.4	-42.9	3.8	8.45e-01	0	44	104	2596274176	27	10665
2026-01-18 14:45:13.84	341.52	14.24	-33.5	-42.9	3.8	8.47e-01	0	44	104	2596274176	27	10634
2026-01-18 14:45:16.85	341.54	13.93	-33.5	-42.9	3.8	8.46e-01	0	44	104	2596274176	27	10621
2026-01-18 14:45:19.87	341.55	13.63	-33.5	-42.8	3.8	8.45e-01	0	44	104	2596274176	27	10557
2026-01-18 14:45:22.87	341.56	13.33	-33.5	-42.8	3.8	8.46e-01	0	44	104	2596274176	27	10566
2026-01-18 14:45:25.89	341.58	13.03	-33.4	-42.8	3.8	8.47e-01	0	44	104	2596274176	27	10587
2026-01-18 14:45:28.89	341.59	12.74	-33.4	-42.7	3.8	8.47e-01	0	44	104	2596274176	27	10540
2026-01-18 14:45:31.90	341.60	12.45	-33.4	-42.7	3.8	8.46e-01	0	44	104	2596274176	27	10511
2026-01-18 14:45:34.93	341.61	12.16	-33.4	-42.7	3.8	8.47e-01	0	44	104	2596274176	27	10501
2026-01-18 14:45:37.95	341.63	11.88	-33.4	-42.6	3.8	8.46e-01	0	44	104	2596274176	27	10477
2026-01-18 14:45:40.97	341.64	11.60	-33.4	-42.6	3.8	8.47e-01	0	44	104	2596274176	27	10395
2026-01-18 14:45:43.98	341.65	11.32	-33.4	-42.6	3.8	8.46e-01	0	44	104	2596274176	27	10436
2026-01-18 14:45:46.99	341.66	11.05	-33.3	-42.6	3.8	8.46e-01	0	44	104	2596274176	27	10425
2026-01-18 14:45:49.99	341.68	10.78	-33.3	-42.5	3.8	8.46e-01	0	44	104	2596274176	27	10400
2026-01-18 14:45:53.00	341.69	10.51	-33.3	-42.6	3.8	8.46e-01	0	44	104	2596274176	27	10412
2026-01-18 14:45:56.02	341.70	10.25	-33.3	-42.6	3.8	8.46e-01	0	44	104	2596274176	27	10432
2026-01-18 14:45:59.04	341.71	9.98	-33.3	-42.5	3.8	8.47e-01	0	44	104	2596274176	27	10361
2026-01-18 14:46:02.06	341.73	9.72	-33.3	-42.5	3.8	8.45e-01	0	44	104	2596274176	27	10372
2026-01-18 14:46:05.06	341.74	9.47	-33.2	-42.4	3.8	8.46e-01	0	44	104	2596274176	27	10295
2026-01-18 14:46:08.07	341.75	9.21	-33.2	-42.3	3.8	8.46e-01	0	44	104	2596274176	27	10284
2026-01-18 14:46:11.08	341.76	8.96	-33.2	-42.3	3.8	8.46e-01	0	44	104	2596274176	27	10265
2026-01-18 14:46:14.10	341.78	8.71	-33.2	-42.2	3.8	8.46e-01	0	44	104	2596274176	27	10227
2026-01-18 14:46:17.11	341.79	8.47	-33.1	-42.1	3.8	8.46e-01	0	44	104	2596274176	27	10166
2026-01-18 14:46:20.12	341.80	8.22	-33.1	-42.0	3.8	8.47e-01	0	44	104	2596274176	27	10115
2026-01-18 14:46:23.12	341.82	7.98	-33.0	-41.9	3.8	8.47e-01	0	44	104	2596274176	27	10038
2026-01-18 14:46:26.14	341.83	7.74	-33.0	-41.9	3.8	8.47e-01	0	44	104	2596274176	27	10033
2026-01-18 14:46:29.16	341.84	7.50	-33.0	-41.9	3.8	8.45e-01	0	44	104	2596274176	27	10050
2026-01-18 14:46:32.17	341.85	7.27	-33.0	-42.0	3.8	8.46e-01	0	44	104	2596274176	27	10088
2026-01-18 14:46:35.18	341.87	7.04	-33.2	-42.3	3.8	8.46e-01	0	44	104	2596274176	27	10279

#Closed at: 2026-01-18 14:46:37
#Recorded file [2596 MB]: D:/data/31010_260118_173434.dat