passes_logs/2026/01/18/R2M6_AANII_01/R2M6_AANII_01__20260118_121442_NOAA_20_JPSS-1_rec.log

#Pass ID: 20260118_121442_NOAA 20 (JPSS-1)
#Satellite: NOAA 20 (JPSS-1)
#Configuration: NOAA 20
#almurnet v.1.7.20240730
#Start time: 2026-01-18 12:14:43

#Version: 2.2.20231116
#Station: R2M6_AANII_01
#Location: 30.233357 lon 59.946436 lat
#TLE: 1 43013U 17073A   26017.30359522  .00000067  00000+0  52526-4 0  9990
#TLE: 2 43013  98.7639 318.2187 0001419  36.2087 323.9184 14.19536557423067

#Time	Az	El	Level	Level2	SNR	BER	BlckErr	Temp	State	Recorded	gain1	gain2
2026-01-18 12:14:43.27	224.75	7.07	-31.4	-35.7	5.3	1.14e+00	0	41	0	0	24	5966
2026-01-18 12:14:46.27	225.09	7.24	-32.0	-38.2	7.7	7.78e-02	0	41	0	1048576	24	7381
2026-01-18 12:14:49.28	225.43	7.41	-31.7	-37.1	8.6	5.09e-02	0	41	0	7340032	24	6702
2026-01-18 12:14:52.29	225.78	7.58	-31.3	-35.3	10.0	1.27e-02	0	41	0	12582912	24	5714
2026-01-18 12:14:55.30	226.13	7.75	-31.2	-35.6	10.2	5.37e-03	0	41	0	17825792	23	5929
2026-01-18 12:14:58.30	226.48	7.92	-31.1	-35.1	10.6	5.11e-03	0	41	0	24117248	23	5678
2026-01-18 12:15:01.31	226.84	8.10	-31.1	-35.1	10.6	2.76e-03	0	41	0	29360128	23	5697
2026-01-18 12:15:04.32	227.20	8.27	-31.2	-35.4	10.5	3.45e-03	0	41	0	35651584	23	5811
2026-01-18 12:15:07.33	227.57	8.44	-31.0	-34.7	11.0	1.73e-03	0	42	0	40894464	23	5487
2026-01-18 12:15:10.33	227.93	8.61	-30.9	-34.4	11.2	1.13e-03	0	42	0	46137344	23	5366
2026-01-18 12:15:13.35	228.31	8.79	-30.9	-34.3	11.3	1.05e-03	0	42	0	52428800	23	5335
2026-01-18 12:15:16.35	228.69	8.96	-30.8	-34.6	11.5	6.76e-04	0	42	0	57671680	22	5529
2026-01-18 12:15:19.35	229.07	9.13	-30.9	-34.9	11.3	1.20e-03	0	42	0	62914560	22	5678
2026-01-18 12:15:22.36	229.46	9.30	-30.7	-34.3	11.8	3.68e-04	0	42	0	69206016	22	5394
2026-01-18 12:15:25.36	229.85	9.48	-30.7	-34.1	11.9	3.54e-04	0	42	0	74448896	22	5316
2026-01-18 12:15:28.37	230.25	9.65	-30.7	-34.0	12.0	3.94e-04	0	42	0	80740352	22	5279
2026-01-18 12:15:31.38	230.65	9.82	-30.7	-34.0	11.9	2.97e-04	0	42	0	85983232	22	5295
2026-01-18 12:15:34.39	231.05	9.99	-30.9	-34.7	11.5	8.88e-04	0	42	0	91226112	22	5560
2026-01-18 12:15:37.39	231.46	10.17	-30.7	-34.1	11.9	3.52e-04	0	42	0	97517568	22	5328
2026-01-18 12:15:40.40	231.88	10.34	-30.8	-34.4	11.8	5.35e-04	0	42	0	102760448	22	5436
2026-01-18 12:15:43.41	232.30	10.51	-30.8	-34.4	11.7	4.33e-04	0	42	0	108003328	22	5451
2026-01-18 12:15:46.42	232.72	10.68	-30.8	-34.4	11.8	4.00e-04	0	42	0	114294784	22	5415
2026-01-18 12:15:49.44	233.15	10.86	-30.7	-34.0	12.1	2.89e-04	0	42	0	119537664	22	5241
2026-01-18 12:15:52.46	233.59	11.03	-30.8	-34.3	11.9	3.43e-04	0	42	0	125829120	22	5385
2026-01-18 12:15:55.47	234.03	11.20	-30.9	-34.4	11.8	5.03e-04	0	42	0	131072000	22	5436
2026-01-18 12:15:58.47	234.47	11.37	-30.7	-33.9	12.2	2.27e-04	0	42	0	136314880	22	5209
2026-01-18 12:16:01.49	234.92	11.55	-30.7	-34.0	12.2	1.80e-04	0	42	0	142606336	22	5244
2026-01-18 12:16:04.49	235.38	11.72	-30.7	-33.8	12.3	1.56e-04	0	43	0	147849216	22	5176
2026-01-18 12:16:07.50	235.84	11.89	-30.7	-34.0	12.2	2.72e-04	0	42	0	154140672	22	5236
2026-01-18 12:16:10.50	236.30	12.06	-30.7	-34.0	12.2	1.79e-04	0	42	0	159383552	22	5266
2026-01-18 12:16:13.50	236.77	12.22	-30.8	-34.2	12.1	3.05e-04	0	43	0	164626432	22	5314
2026-01-18 12:16:16.51	237.24	12.39	-30.7	-33.8	12.4	1.42e-04	0	43	0	170917888	22	5175
2026-01-18 12:16:19.53	237.73	12.56	-30.6	-33.6	12.5	1.45e-04	0	43	0	176160768	22	5079
2026-01-18 12:16:22.54	238.21	12.73	-30.7	-33.8	12.4	1.69e-04	0	43	0	181403648	22	5153
2026-01-18 12:16:25.56	238.70	12.90	-30.5	-33.3	12.8	6.56e-05	0	43	0	187695104	22	4957
2026-01-18 12:16:28.56	239.20	13.06	-30.4	-32.9	13.0	4.57e-05	0	43	0	192937984	22	4836
2026-01-18 12:16:31.57	239.70	13.23	-30.3	-32.7	13.1	2.82e-05	0	43	0	199229440	22	4755
2026-01-18 12:16:34.58	240.21	13.39	-30.3	-32.7	13.2	2.82e-05	0	43	0	204472320	22	4732
2026-01-18 12:16:37.59	240.72	13.55	-30.3	-33.2	13.2	3.12e-05	0	43	0	209715200	21	5015
2026-01-18 12:16:40.58	241.24	13.72	-30.2	-32.9	13.4	1.29e-05	0	43	0	216006656	21	4916
2026-01-18 12:16:43.60	241.76	13.88	-30.2	-33.0	13.3	1.14e-05	0	43	0	221249536	21	4951
2026-01-18 12:16:46.61	242.29	14.04	-30.1	-32.6	13.6	8.30e-06	0	43	0	226492416	21	4813
2026-01-18 12:16:49.61	242.83	14.20	-30.1	-32.5	13.7	5.30e-06	0	43	0	232783872	21	4775
2026-01-18 12:16:52.61	243.37	14.35	-30.1	-32.6	13.6	5.30e-06	0	43	0	238026752	21	4813
2026-01-18 12:16:55.62	243.91	14.51	-30.1	-32.5	13.7	5.30e-06	0	43	0	244318208	21	4768
2026-01-18 12:16:58.63	244.46	14.66	-30.0	-32.3	13.9	4.50e-06	0	43	0	249561088	21	4691
2026-01-18 12:17:01.63	245.02	14.82	-30.0	-32.4	13.8	3.00e-06	0	43	0	254803968	21	4741
2026-01-18 12:17:04.64	245.58	14.97	-30.2	-33.0	13.4	7.60e-06	0	43	0	261095424	21	4936
2026-01-18 12:17:07.65	246.15	15.12	-30.2	-32.9	13.5	9.10e-06	0	43	0	266338304	21	4914
2026-01-18 12:17:10.66	246.73	15.27	-30.4	-33.3	13.3	1.75e-05	0	43	0	272629760	21	5034
2026-01-18 12:17:13.66	247.30	15.41	-30.6	-33.9	12.9	3.96e-05	0	43	0	277872640	21	5270
2026-01-18 12:17:16.67	247.89	15.56	-30.6	-34.0	12.8	5.49e-05	0	43	0	283115520	21	5311
2026-01-18 12:17:19.67	248.48	15.70	-30.8	-34.4	12.5	1.27e-04	0	43	0	289406976	21	5488
2026-01-18 12:17:22.68	249.07	15.84	-30.9	-34.8	12.2	1.60e-04	0	43	0	294649856	21	5663
2026-01-18 12:17:25.69	249.67	15.98	-30.8	-34.5	12.5	1.21e-04	0	43	0	299892736	21	5531
2026-01-18 12:17:28.70	250.28	16.11	-30.7	-34.3	12.6	9.76e-05	0	43	0	306184192	21	5447
2026-01-18 12:17:31.69	250.89	16.24	-30.9	-34.8	12.3	2.31e-04	0	43	0	311427072	21	5657
2026-01-18 12:17:34.70	251.50	16.38	-31.1	-35.0	11.9	3.30e-04	0	43	0	317718528	22	5600
2026-01-18 12:17:37.71	252.13	16.50	-31.2	-35.1	11.7	4.46e-04	0	43	0	322961408	22	5678
2026-01-18 12:17:40.72	252.75	16.63	-31.4	-35.8	11.3	9.80e-04	0	43	0	328204288	22	5969
2026-01-18 12:17:43.72	253.38	16.75	-31.3	-35.4	11.6	6.16e-04	0	43	0	334495744	22	5783
2026-01-18 12:17:46.72	254.02	16.87	-31.2	-35.1	11.8	4.68e-04	0	43	0	339738624	22	5662
2026-01-18 12:17:49.72	254.66	16.99	-31.1	-34.7	12.1	2.78e-04	0	43	0	344981504	22	5489
2026-01-18 12:17:52.73	255.31	17.11	-31.0	-34.6	12.2	2.47e-04	0	43	0	351272960	22	5433
2026-01-18 12:17:55.73	255.96	17.22	-30.9	-34.3	12.4	1.87e-04	0	43	0	356515840	22	5322
2026-01-18 12:17:58.73	256.61	17.33	-30.8	-33.9	12.7	8.77e-05	0	43	0	362807296	22	5172
2026-01-18 12:18:01.74	257.27	17.43	-30.6	-33.3	13.1	4.34e-05	0	43	0	368050176	22	4937
2026-01-18 12:18:04.75	257.94	17.54	-30.6	-33.5	13.0	3.28e-05	0	43	0	373293056	22	4986
2026-01-18 12:18:07.77	258.61	17.64	-30.5	-33.2	13.2	1.90e-05	0	43	0	379584512	22	4883
2026-01-18 12:18:10.77	259.28	17.73	-30.6	-33.3	13.1	3.05e-05	0	43	0	384827392	22	4922
2026-01-18 12:18:13.79	259.96	17.82	-30.7	-33.7	12.9	4.57e-05	0	43	0	390070272	22	5082
2026-01-18 12:18:16.80	260.64	17.91	-30.7	-33.6	13.0	3.05e-05	0	43	0	396361728	22	5047
2026-01-18 12:18:19.81	261.33	18.00	-30.7	-33.5	13.0	3.58e-05	0	43	0	401604608	22	5011
2026-01-18 12:18:22.82	262.02	18.08	-30.8	-33.8	12.8	5.26e-05	0	43	0	407896064	22	5107
2026-01-18 12:18:25.82	262.71	18.16	-30.7	-33.6	13.0	4.04e-05	0	43	0	413138944	22	5025
2026-01-18 12:18:28.83	263.41	18.23	-30.7	-33.5	13.0	2.13e-05	0	43	0	418381824	22	4996
2026-01-18 12:18:31.84	264.11	18.30	-30.7	-33.7	13.0	3.28e-05	0	43	0	424673280	22	5052
2026-01-18 12:18:34.85	264.81	18.37	-30.7	-33.6	13.0	3.89e-05	0	43	0	429916160	22	5023
2026-01-18 12:18:37.85	265.51	18.43	-30.6	-33.3	13.2	2.21e-05	0	43	0	435159040	22	4921
2026-01-18 12:18:40.85	266.22	18.49	-30.7	-33.5	13.0	2.67e-05	0	43	0	441450496	22	4987
2026-01-18 12:18:43.84	266.92	18.54	-30.6	-33.2	13.3	2.89e-05	0	43	0	446693376	22	4878
2026-01-18 12:18:46.86	267.64	18.59	-30.5	-33.0	13.4	2.44e-05	0	43	0	452984832	22	4819
2026-01-18 12:18:49.87	268.35	18.64	-30.6	-33.3	13.2	3.81e-05	0	43	0	458227712	22	4927
2026-01-18 12:18:52.87	269.07	18.68	-30.7	-33.7	13.0	5.34e-05	0	43	0	463470592	22	5042
2026-01-18 12:18:55.87	269.78	18.71	-30.8	-33.8	12.9	4.27e-05	0	43	0	469762048	22	5092
2026-01-18 12:18:58.89	270.51	18.75	-30.9	-34.2	12.6	8.54e-05	0	43	0	475004928	22	5259
2026-01-18 12:19:01.90	271.23	18.77	-30.9	-34.2	12.6	8.92e-05	0	43	0	480247808	22	5261
2026-01-18 12:19:04.91	271.95	18.80	-31.2	-34.9	12.1	2.46e-04	0	43	0	486539264	22	5537
2026-01-18 12:19:07.92	272.67	18.82	-31.3	-35.3	11.9	7.56e-04	0	43	0	491782144	22	5704
2026-01-18 12:19:10.93	273.40	18.83	-30.7	-33.5	13.1	4.50e-05	0	43	0	498073600	22	4973
2026-01-18 12:19:13.93	274.12	18.84	-30.6	-33.3	13.2	1.75e-05	0	43	0	503316480	22	4917
2026-01-18 12:19:16.94	274.85	18.85	-30.8	-33.9	12.8	4.65e-05	0	43	0	508559360	22	5139
2026-01-18 12:19:19.96	275.57	18.85	-31.0	-34.5	12.4	1.21e-04	0	43	0	514850816	22	5359
2026-01-18 12:19:22.97	276.30	18.85	-31.0	-34.4	12.5	1.16e-04	0	43	0	520093696	22	5318
2026-01-18 12:19:25.98	277.02	18.84	-30.9	-34.1	12.7	6.94e-05	0	43	0	526385152	22	5203
2026-01-18 12:19:28.97	277.74	18.83	-30.9	-34.2	12.6	9.15e-05	0	43	0	531628032	22	5262
2026-01-18 12:19:31.97	278.47	18.81	-30.9	-34.1	12.7	9.00e-05	0	43	0	536870912	22	5220
2026-01-18 12:19:34.98	279.19	18.79	-30.9	-34.2	12.6	6.40e-05	0	43	0	543162368	22	5253
2026-01-18 12:19:37.99	279.91	18.77	-30.8	-33.8	12.8	5.72e-05	0	43	0	548405248	22	5092
2026-01-18 12:19:41.00	280.63	18.74	-30.9	-34.0	12.7	5.03e-05	0	43	0	553648128	22	5190
2026-01-18 12:19:44.01	281.35	18.70	-30.8	-33.9	12.8	6.48e-05	0	43	0	559939584	22	5123
2026-01-18 12:19:47.00	282.06	18.66	-30.9	-34.0	12.8	4.80e-05	0	43	0	565182464	22	5169
2026-01-18 12:19:50.02	282.78	18.62	-31.0	-34.4	12.5	1.23e-04	0	43	0	570425344	22	5333
2026-01-18 12:19:53.03	283.49	18.58	-31.0	-34.4	12.5	1.17e-04	0	43	0	576716800	22	5334
2026-01-18 12:19:56.03	284.20	18.52	-31.0	-34.4	12.5	1.01e-04	0	43	0	581959680	22	5310
2026-01-18 12:19:59.03	284.91	18.47	-30.5	-33.0	13.4	1.67e-05	0	43	0	588251136	22	4810
2026-01-18 12:20:02.03	285.61	18.41	-30.7	-33.5	13.1	2.59e-05	0	43	0	593494016	22	4983
2026-01-18 12:20:05.05	286.32	18.35	-30.7	-33.7	13.0	4.42e-05	0	43	0	598736896	22	5043
2026-01-18 12:20:08.07	287.02	18.28	-31.0	-34.3	12.6	7.32e-05	0	43	0	605028352	22	5284
2026-01-18 12:20:11.07	287.71	18.21	-30.8	-33.7	12.9	4.88e-05	0	43	0	610271232	22	5062
2026-01-18 12:20:14.09	288.41	18.13	-30.7	-33.5	13.1	3.58e-05	0	43	0	616562688	22	4978
2026-01-18 12:20:17.09	289.10	18.06	-30.2	-32.7	13.8	3.80e-06	0	43	0	621805568	21	4810
2026-01-18 12:20:20.11	289.78	17.97	-30.5	-33.5	13.4	9.10e-06	0	43	0	627048448	21	5086
2026-01-18 12:20:23.11	290.47	17.89	-30.4	-33.2	13.6	8.30e-06	0	43	0	633339904	21	4982
2026-01-18 12:20:26.12	291.14	17.80	-30.5	-33.6	13.3	1.52e-05	0	43	0	638582784	21	5138
2026-01-18 12:20:29.13	291.82	17.70	-30.4	-33.2	13.6	1.22e-05	0	43	0	643825664	21	4973
2026-01-18 12:20:32.14	292.49	17.61	-30.2	-32.8	13.8	5.30e-06	0	43	0	650117120	21	4850
2026-01-18 12:20:35.15	293.16	17.51	-30.2	-32.6	13.9	3.00e-06	0	43	0	655360000	21	4782
2026-01-18 12:20:38.16	293.82	17.40	-29.8	-31.7	14.5	0.00e+00	0	43	0	661651456	21	4467
2026-01-18 12:20:41.16	294.47	17.30	-29.8	-32.2	14.5	0.00e+00	0	43	0	666894336	20	4747
2026-01-18 12:20:44.17	295.12	17.19	-30.0	-32.7	14.2	7.00e-07	0	43	0	672137216	20	4896
2026-01-18 12:20:47.19	295.78	17.08	-30.1	-33.0	14.0	1.50e-06	0	43	0	678428672	20	5007
2026-01-18 12:20:50.19	296.42	16.96	-29.8	-32.2	14.5	7.00e-07	0	43	0	683671552	20	4734
2026-01-18 12:20:53.20	297.05	16.84	-29.7	-31.9	14.7	1.50e-06	0	43	0	688914432	20	4642
2026-01-18 12:20:56.21	297.69	16.72	-29.6	-31.6	14.9	0.00e+00	0	43	0	695205888	20	4536
2026-01-18 12:20:59.21	298.31	16.60	-29.9	-32.3	14.4	0.00e+00	0	43	0	700448768	20	4789
2026-01-18 12:21:02.22	298.94	16.47	-30.0	-32.6	14.3	0.00e+00	0	43	0	706740224	20	4869
2026-01-18 12:21:05.22	299.55	16.35	-30.0	-32.7	14.1	0.00e+00	0	43	0	711983104	20	4926
2026-01-18 12:21:08.24	300.17	16.21	-30.0	-32.6	14.3	1.50e-06	0	43	0	717225984	20	4878
2026-01-18 12:21:11.24	300.77	16.08	-29.8	-32.3	14.4	1.50e-06	0	43	0	723517440	20	4769
2026-01-18 12:21:14.24	301.37	15.95	-30.2	-33.1	13.9	4.50e-06	0	43	0	728760320	20	5066
2026-01-18 12:21:17.25	301.97	15.81	-30.6	-34.0	13.0	2.13e-05	0	43	0	734003200	21	5283
2026-01-18 12:21:20.26	302.56	15.67	-31.0	-34.5	12.3	1.69e-04	0	43	0	740294656	22	5387
2026-01-18 12:21:23.27	303.15	15.53	-31.1	-34.8	12.2	2.28e-04	0	43	0	745537536	22	5491
2026-01-18 12:21:26.28	303.73	15.38	-31.3	-35.4	11.7	6.19e-04	0	43	0	751828992	22	5772
2026-01-18 12:21:29.28	304.30	15.24	-30.8	-34.0	12.7	9.15e-05	0	43	0	757071872	22	5186
2026-01-18 12:21:32.29	304.87	15.09	-30.6	-33.4	13.0	3.12e-05	0	43	0	762314752	22	4954
2026-01-18 12:21:35.32	305.44	14.94	-30.7	-33.7	12.8	4.88e-05	0	43	0	768606208	22	5089
2026-01-18 12:21:38.33	306.00	14.79	-31.0	-34.6	12.2	1.82e-04	0	43	0	773849088	22	5444
2026-01-18 12:21:41.33	306.55	14.64	-31.1	-35.0	11.9	3.49e-04	0	43	0	780140544	22	5592
2026-01-18 12:21:44.34	307.10	14.48	-31.2	-35.2	11.8	5.07e-04	0	43	0	785383424	22	5694
2026-01-18 12:21:47.35	307.64	14.33	-31.2	-35.2	11.8	5.36e-04	0	43	0	790626304	22	5707
2026-01-18 12:21:50.36	308.17	14.17	-31.3	-35.5	11.5	7.64e-04	0	43	0	796917760	22	5832
2026-01-18 12:21:53.37	308.71	14.01	-31.2	-35.2	11.8	4.76e-04	0	43	0	802160640	22	5684
2026-01-18 12:21:56.38	309.23	13.86	-31.2	-35.1	11.8	5.52e-04	0	43	0	807403520	22	5657
2026-01-18 12:21:59.40	309.75	13.70	-30.8	-33.9	12.6	9.99e-05	0	43	0	813694976	22	5163
2026-01-18 12:22:02.41	310.27	13.53	-30.6	-33.3	13.0	4.04e-05	0	43	0	818937856	22	4942
2026-01-18 12:22:05.42	310.78	13.37	-30.7	-33.7	12.7	6.17e-05	0	43	0	825229312	22	5084
2026-01-18 12:22:08.43	311.28	13.21	-30.9	-34.1	12.4	1.41e-04	0	43	0	830472192	22	5240
2026-01-18 12:22:11.44	311.78	13.05	-31.0	-34.6	12.1	1.72e-04	0	43	0	835715072	22	5454
2026-01-18 12:22:14.45	312.27	12.88	-31.4	-35.7	11.3	9.84e-04	0	43	0	842006528	22	5924
2026-01-18 12:22:17.46	312.76	12.72	-31.3	-35.5	11.5	1.12e-03	0	43	0	847249408	22	5839
2026-01-18 12:22:20.46	313.24	12.55	-30.9	-34.4	12.2	2.32e-04	0	43	0	852492288	22	5360
2026-01-18 12:22:23.46	313.71	12.38	-30.8	-33.9	12.5	1.19e-04	0	43	0	858783744	22	5168
2026-01-18 12:22:26.48	314.19	12.22	-30.6	-33.3	13.0	4.50e-05	0	43	0	864026624	22	4938
2026-01-18 12:22:29.50	314.66	12.05	-30.6	-33.4	12.9	5.41e-05	0	43	0	870318080	22	4977
2026-01-18 12:22:32.50	315.12	11.88	-30.5	-33.3	13.0	4.95e-05	0	43	0	875560960	22	4936
2026-01-18 12:22:35.51	315.57	11.71	-30.5	-33.2	13.0	3.58e-05	0	43	0	880803840	22	4923
2026-01-18 12:22:38.51	316.02	11.54	-30.8	-34.1	12.3	1.56e-04	0	43	0	887095296	22	5252
2026-01-18 12:22:41.53	316.47	11.37	-30.6	-33.6	12.6	1.30e-04	0	43	0	892338176	22	5065
2026-01-18 12:22:44.54	316.91	11.20	-30.4	-32.9	13.1	5.11e-05	0	43	0	898629632	22	4805
2026-01-18 12:22:47.56	317.35	11.03	-30.4	-32.9	13.2	3.73e-05	0	43	0	903872512	22	4785
2026-01-18 12:22:50.56	317.78	10.86	-30.6	-33.4	12.8	4.95e-05	0	43	0	909115392	22	4981
2026-01-18 12:22:53.57	318.20	10.69	-30.7	-33.8	12.5	1.22e-04	0	43	0	915406848	22	5141
2026-01-18 12:22:56.57	318.62	10.52	-30.5	-33.3	12.8	7.40e-05	0	43	0	920649728	22	4967
2026-01-18 12:22:59.57	319.04	10.35	-30.5	-33.1	12.9	5.11e-05	0	43	0	925892608	22	4896
2026-01-18 12:23:02.57	319.45	10.18	-30.7	-33.7	12.6	8.23e-05	0	43	0	932184064	22	5100
2026-01-18 12:23:05.58	319.86	10.01	-30.9	-34.4	12.0	2.27e-04	0	43	0	937426944	22	5403
2026-01-18 12:23:08.59	320.26	9.84	-30.9	-34.4	12.0	3.41e-04	0	43	0	943718400	22	5401
2026-01-18 12:23:11.61	320.66	9.67	-30.7	-34.0	12.3	2.64e-04	0	43	0	948961280	22	5216
2026-01-18 12:23:14.60	321.05	9.50	-30.7	-33.8	12.4	1.30e-04	0	43	0	954204160	22	5140
2026-01-18 12:23:17.61	321.44	9.32	-30.9	-34.3	12.1	2.94e-04	0	43	0	960495616	22	5357
2026-01-18 12:23:20.62	321.83	9.15	-31.0	-34.7	11.8	4.24e-04	0	43	0	965738496	22	5507
2026-01-18 12:23:23.62	322.21	8.98	-31.0	-34.8	11.7	6.79e-04	0	43	0	970981376	22	5565
2026-01-18 12:23:26.63	322.59	8.81	-31.0	-34.8	11.6	5.97e-04	0	43	0	977272832	22	5569
2026-01-18 12:23:29.64	322.96	8.64	-31.1	-35.2	11.3	1.27e-03	0	43	0	982515712	22	5766
2026-01-18 12:23:32.65	323.33	8.47	-31.3	-35.9	10.7	1.94e-03	0	43	0	988807168	22	6099
2026-01-18 12:23:35.64	323.69	8.30	-31.3	-35.9	10.8	3.43e-03	0	43	0	994050048	22	6098
2026-01-18 12:23:38.65	324.05	8.13	-31.3	-35.8	10.9	2.50e-03	0	43	0	999292928	22	6040
2026-01-18 12:23:41.66	324.40	7.96	-31.3	-35.9	10.7	3.41e-03	0	43	0	1005584384	22	6102
2026-01-18 12:23:44.67	324.76	7.79	-31.4	-35.9	10.3	4.86e-03	0	43	0	1010827264	23	6003
2026-01-18 12:23:47.69	325.11	7.62	-31.6	-36.4	9.9	8.32e-03	0	43	0	1016070144	23	6280
2026-01-18 12:23:50.68	325.45	7.45	-31.5	-36.0	10.2	6.13e-03	0	43	0	1022361600	23	6080
2026-01-18 12:23:53.69	325.79	7.28	-31.3	-35.3	10.8	3.24e-03	0	43	0	1027604480	23	5707
2026-01-18 12:23:56.70	326.13	7.12	-31.2	-35.0	10.9	2.73e-03	0	43	0	1033895936	23	5599

#Closed at: 2026-01-18 12:23:59
#Recorded file [1034 MB]: D:/data/31010_260118_151445.dat