passes_logs/2026/01/08/PlanumMoscow/PlanumMoscow__20260108_121742_METEOR-M2_4_rec.log

#Pass ID: 20260108_121742_METEOR-M2 4
#Satellite: METEOR-M2 4
#Configuration: METEOR-M2 4
#Start time: 2026-01-08 12:17:47.363505

#LorettStation: 1.0.0 05.05.2024
#Station: PlanumMoscow
#Location: 37.6253844 lon 55.6713361 lat
#TLE: 1 59051U 24039A   25293.94737965  .00000087  00000+0  58459-4 0  9998
#TLE: 2 59051  98.6671 251.7071 0007726 135.4772 224.7028 14.22388966 85257

#Time	Az	El	Level	SNR
2026-01-08 12:21:27.929554	216.8	24.7	-63.7	10.7
2026-01-08 12:21:30.175572	217.3	24.9	-63.9	10.7
2026-01-08 12:21:32.418101	217.7	25.2	-63.4	9.5
2026-01-08 12:21:34.661149	218.2	25.5	-63.2	9.2
2026-01-08 12:21:36.902670	218.7	25.7	-64.0	9.5
2026-01-08 12:21:39.138229	219.2	26.0	-62.9	3.8
2026-01-08 12:21:41.379742	219.7	26.2	-62.8	9.3
2026-01-08 12:21:43.623257	220.2	26.5	-62.8	8.6
2026-01-08 12:21:45.863778	220.7	26.8	-61.3	4.9
2026-01-08 12:21:48.104787	221.2	27.0	-61.6	5.0
2026-01-08 12:21:50.342291	221.8	27.3	-63.5	9.3
2026-01-08 12:21:52.578802	222.3	27.5	-61.4	6.2
2026-01-08 12:21:54.816837	222.9	27.8	-61.9	7.7
2026-01-08 12:21:57.049852	223.4	28.0	-62.4	7.8
2026-01-08 12:21:59.290366	224.0	28.3	-59.9	5.0
2026-01-08 12:22:01.532879	224.5	28.6	-61.0	5.7
2026-01-08 12:22:03.771896	225.1	28.8	-61.8	6.2
2026-01-08 12:22:06.009418	225.7	29.1	-62.4	6.8
2026-01-08 12:22:08.246929	226.3	29.3	-60.3	2.1
2026-01-08 12:22:10.485442	226.9	29.6	-60.0	2.8
2026-01-08 12:22:12.727451	227.6	29.8	-62.6	7.3
2026-01-08 12:22:14.965468	228.2	30.1	-62.8	6.9
2026-01-08 12:22:17.204484	228.8	30.3	-62.6	7.3
2026-01-08 12:22:19.446007	229.5	30.6	-61.1	2.0
2026-01-08 12:22:21.679014	230.1	30.8	-63.5	7.5
2026-01-08 12:22:23.916022	230.8	31.0	-62.1	5.6
2026-01-08 12:22:26.154535	231.5	31.3	-61.6	6.5
2026-01-08 12:22:28.395544	232.2	31.5	-59.0	0.9
2026-01-08 12:22:30.631064	232.9	31.8	-59.7	0.0
2026-01-08 12:22:32.868081	233.6	32.0	-62.4	7.4
2026-01-08 12:22:35.106585	234.3	32.2	-62.7	4.5
2026-01-08 12:22:37.343601	235.0	32.4	-59.7	0.2
2026-01-08 12:22:39.583105	235.8	32.7	-61.8	5.6
2026-01-08 12:22:41.819122	236.5	32.9	-61.0	5.8
2026-01-08 12:22:44.060140	237.3	33.1	-59.4	1.1
2026-01-08 12:22:46.304159	238.0	33.3	-61.9	6.8
2026-01-08 12:22:48.548169	238.8	33.5	-61.8	6.3
2026-01-08 12:22:50.792178	239.6	33.7	-62.2	7.3
2026-01-08 12:22:53.036205	240.4	33.9	-62.2	5.3
2026-01-08 12:22:55.279222	241.2	34.1	-62.4	6.2
2026-01-08 12:22:57.522728	242.0	34.3	-59.6	0.3
2026-01-08 12:22:59.766737	242.9	34.5	-61.6	3.0
2026-01-08 12:23:02.005755	243.7	34.6	-62.5	5.2
2026-01-08 12:23:04.243267	244.5	34.8	-61.2	5.1
2026-01-08 12:23:06.481789	245.4	35.0	-61.4	4.1
2026-01-08 12:23:08.721301	246.3	35.1	-60.2	1.1
2026-01-08 12:23:10.959814	247.1	35.3	-60.1	0.5
2026-01-08 12:23:13.200319	248.0	35.4	-61.5	2.9
2026-01-08 12:23:15.440832	248.9	35.6	-61.1	3.6
2026-01-08 12:23:17.680848	249.8	35.7	-59.7	0.0
2026-01-08 12:23:19.923858	250.7	35.8	-60.7	2.4
2026-01-08 12:23:22.162874	251.6	35.9	-59.3	0.0
2026-01-08 12:23:24.401387	252.5	36.1	-61.8	4.4
2026-01-08 12:23:26.639907	253.4	36.2	-62.6	6.0
2026-01-08 12:23:28.882916	254.3	36.3	-60.8	3.0
2026-01-08 12:23:31.118934	255.2	36.3	-62.2	4.8
2026-01-08 12:23:33.360943	256.2	36.4	-61.0	3.1
2026-01-08 12:23:35.599447	257.1	36.5	-62.9	5.4
2026-01-08 12:23:37.839952	258.0	36.5	-63.8	6.0
2026-01-08 12:23:40.082457	259.0	36.6	-62.8	6.0
2026-01-08 12:23:42.326467	259.9	36.6	-62.3	5.1
2026-01-08 12:23:44.567475	260.9	36.7	-63.1	4.8
2026-01-08 12:23:46.807997	261.8	36.7	-63.9	6.5
2026-01-08 12:23:49.048502	262.8	36.7	-63.6	6.0
2026-01-08 12:23:51.285023	263.7	36.7	-63.6	6.0
2026-01-08 12:23:53.521031	264.7	36.7	-64.0	5.0
2026-01-08 12:23:55.757039	265.6	36.7	-63.0	6.2
2026-01-08 12:23:57.993551	266.6	36.7	-63.3	6.5
2026-01-08 12:24:00.234568	267.5	36.7	-63.9	5.7
2026-01-08 12:24:02.472576	268.5	36.7	-63.9	7.4
2026-01-08 12:24:04.713593	269.4	36.6	-63.1	5.0
2026-01-08 12:24:06.957107	270.3	36.6	-59.9	0.6
2026-01-08 12:24:09.200621	271.3	36.5	-59.6	1.1
2026-01-08 12:24:11.444631	272.2	36.4	-63.7	4.4
2026-01-08 12:24:13.688649	273.2	36.4	-64.1	5.2
2026-01-08 12:24:15.932659	274.1	36.3	-63.0	1.2
2026-01-08 12:24:18.175676	275.0	36.2	-64.0	6.2
2026-01-08 12:24:20.419686	275.9	36.1	-64.3	5.7
2026-01-08 12:24:22.660214	276.8	36.0	-65.3	8.0
2026-01-08 12:24:24.899727	277.7	35.9	-64.6	6.6
2026-01-08 12:24:27.138239	278.6	35.7	-65.1	4.2
2026-01-08 12:24:29.380753	279.5	35.6	-61.6	2.7
2026-01-08 12:24:31.622266	280.4	35.5	-63.2	6.3
2026-01-08 12:24:33.865276	281.3	35.3	-63.2	6.0
2026-01-08 12:24:36.104788	282.1	35.2	-61.9	3.7
2026-01-08 12:24:38.341809	283.0	35.0	-61.5	4.5
2026-01-08 12:24:40.578321	283.9	34.9	-60.9	0.2
2026-01-08 12:24:42.820834	284.7	34.7	-61.6	2.4
2026-01-08 12:24:45.060843	285.5	34.5	-63.2	4.4
2026-01-08 12:24:47.295859	286.4	34.4	-64.6	7.3
2026-01-08 12:24:49.531363	287.2	34.2	-64.2	7.8
2026-01-08 12:24:51.768370	288.0	34.0	-63.7	6.8
2026-01-08 12:24:54.006379	288.8	33.8	-62.0	4.5
2026-01-08 12:24:56.241386	289.6	33.6	-64.7	7.8
2026-01-08 12:24:58.472393	290.3	33.4	-64.4	7.4
2026-01-08 12:25:00.708921	291.1	33.2	-64.8	8.2
2026-01-08 12:25:02.949425	291.9	33.0	-63.7	4.1
2026-01-08 12:25:05.183939	292.6	32.8	-65.0	7.1
2026-01-08 12:25:07.422452	293.3	32.5	-65.8	10.0
2026-01-08 12:25:09.661965	294.1	32.3	-65.8	10.1
2026-01-08 12:25:11.899973	294.8	32.1	-65.2	8.7
2026-01-08 12:25:14.139478	295.5	31.9	-65.3	9.3
2026-01-08 12:25:16.370007	296.2	31.6	-65.5	9.4
2026-01-08 12:25:18.602013	296.9	31.4	-65.5	10.4
2026-01-08 12:25:20.838527	297.6	31.2	-63.3	5.6
2026-01-08 12:25:23.074039	298.2	30.9	-66.1	9.7
2026-01-08 12:25:25.309046	298.9	30.7	-65.6	9.1
2026-01-08 12:25:27.551560	299.5	30.4	-64.1	7.2
2026-01-08 12:25:29.794082	300.2	30.2	-64.6	9.3
2026-01-08 12:25:32.039108	300.8	29.9	-65.6	10.6
2026-01-08 12:25:34.281628	301.4	29.7	-64.5	8.1
2026-01-08 12:25:36.525639	302.1	29.4	-65.1	7.8
2026-01-08 12:25:38.770153	302.7	29.2	-65.2	9.2
2026-01-08 12:25:41.014163	303.3	28.9	-66.4	10.4
2026-01-08 12:25:43.250171	303.8	28.7	-66.1	8.3
2026-01-08 12:25:45.485178	304.4	28.4	-66.3	11.2
2026-01-08 12:25:47.721682	305.0	28.2	-65.6	9.6
2026-01-08 12:25:49.955201	305.5	27.9	-66.5	11.0
2026-01-08 12:25:52.187713	306.1	27.7	-65.8	9.3
2026-01-08 12:25:54.420719	306.6	27.4	-66.2	10.8
2026-01-08 12:25:56.654735	307.2	27.2	-66.0	10.2
2026-01-08 12:25:58.889742	307.7	26.9	-65.9	10.4
2026-01-08 12:26:01.120262	308.2	26.6	-66.9	11.3
2026-01-08 12:26:03.351277	308.7	26.4	-66.2	10.1
2026-01-08 12:26:05.582284	309.2	26.1	-65.7	9.4
2026-01-08 12:26:07.816291	309.7	25.9	-65.3	9.1
2026-01-08 12:26:10.054300	310.2	25.6	-66.3	10.5
2026-01-08 12:26:12.287307	310.6	25.4	-65.3	9.2
2026-01-08 12:26:14.525819	311.1	25.1	-65.8	9.9
2026-01-08 12:26:16.763331	311.6	24.9	-65.7	10.5
2026-01-08 12:26:18.995338	312.0	24.6	-65.2	10.2
2026-01-08 12:26:21.233842	312.5	24.4	-65.9	11.0
2026-01-08 12:26:23.470346	312.9	24.1	-65.5	9.7
2026-01-08 12:26:25.705361	313.3	23.9	-66.1	10.9
2026-01-08 12:26:27.939873	313.8	23.6	-66.3	11.1
2026-01-08 12:26:30.176880	314.2	23.4	-66.1	11.7
2026-01-08 12:26:32.412392	314.6	23.1	-66.2	10.7
2026-01-08 12:26:34.648400	315.0	22.9	-66.1	10.0
2026-01-08 12:26:36.886408	315.4	22.6	-65.7	9.8
2026-01-08 12:26:39.126417	315.8	22.4	-66.4	9.8
2026-01-08 12:26:41.361920	316.2	22.1	-65.9	10.4
2026-01-08 12:26:43.602929	316.6	21.9	-66.4	11.3
2026-01-08 12:26:45.846451	317.0	21.6	-66.5	10.6
2026-01-08 12:26:48.091469	317.3	21.4	-66.1	10.2
2026-01-08 12:26:50.335983	317.7	21.2	-66.2	11.0
2026-01-08 12:26:52.579498	318.1	20.9	-66.5	10.9
2026-01-08 12:26:54.827014	318.4	20.7	-64.8	8.6
2026-01-08 12:26:57.071518	318.8	20.4	-65.3	8.5
2026-01-08 12:26:59.315038	319.1	20.2	-66.3	10.7
2026-01-08 12:27:01.554551	319.5	20.0	-66.1	10.6
2026-01-08 12:27:03.793568	319.8	19.7	-64.8	7.5
2026-01-08 12:27:06.032073	320.1	19.5	-66.0	10.8
2026-01-08 12:27:08.266079	320.4	19.3	-65.7	7.9
2026-01-08 12:27:10.503592	320.8	19.0	-65.4	6.7
2026-01-08 12:27:12.743105	321.1	18.8	-66.6	10.8
2026-01-08 12:27:14.981617	321.4	18.6	-65.5	8.8
2026-01-08 12:27:17.218633	321.7	18.4	-66.6	10.3
2026-01-08 12:27:19.453649	322.0	18.1	-66.6	9.8
2026-01-08 12:27:21.694162	322.3	17.9	-66.6	9.6
2026-01-08 12:27:23.934675	322.6	17.7	-66.1	10.0
2026-01-08 12:27:26.172691	322.9	17.5	-65.7	8.4
2026-01-08 12:27:28.409708	323.2	17.3	-66.1	9.0
2026-01-08 12:27:30.648220	323.4	17.0	-66.0	9.3
2026-01-08 12:27:32.881731	323.7	16.8	-66.2	9.5
2026-01-08 12:27:35.121244	324.0	16.6	-66.4	10.3
2026-01-08 12:27:37.358756	324.3	16.4	-66.6	9.9
2026-01-08 12:27:39.595764	324.5	16.2	-66.6	10.0
2026-01-08 12:27:41.835277	324.8	16.0	-66.1	8.7
2026-01-08 12:27:44.074285	325.0	15.8	-66.0	8.5
2026-01-08 12:27:46.310302	325.3	15.6	-66.1	9.1
2026-01-08 12:27:48.545310	325.6	15.4	-65.4	7.0
2026-01-08 12:27:50.784823	325.8	15.2	-66.0	7.7
2026-01-08 12:27:53.020831	326.1	14.9	-66.7	8.8
2026-01-08 12:27:55.262848	326.3	14.7	-65.7	7.4
2026-01-08 12:27:57.501361	326.5	14.5	-65.8	7.2
2026-01-08 12:27:59.739369	326.8	14.3	-66.0	8.1
2026-01-08 12:28:01.977882	327.0	14.1	-65.7	7.2
2026-01-08 12:28:04.217394	327.2	13.9	-65.8	8.3
2026-01-08 12:28:06.460907	327.5	13.7	-66.7	9.7
2026-01-08 12:28:08.704932	327.7	13.6	-66.0	9.1
2026-01-08 12:28:10.949455	327.9	13.4	-67.1	8.8
2026-01-08 12:28:13.193464	328.1	13.2	-67.0	9.4
2026-01-08 12:28:15.437474	328.3	13.0	-67.0	8.7
2026-01-08 12:28:17.680491	328.6	12.8	-66.8	8.8
2026-01-08 12:28:19.926006	328.8	12.6	-67.0	8.1
2026-01-08 12:28:22.166014	329.0	12.4	-66.9	8.0
2026-01-08 12:28:24.398021	329.2	12.2	-66.6	8.3
2026-01-08 12:28:26.633534	329.4	12.0	-66.9	8.9
2026-01-08 12:28:28.870038	329.6	11.8	-66.2	8.0
2026-01-08 12:28:31.103541	329.8	11.7	-66.2	7.2
2026-01-08 12:28:33.338557	330.0	11.5	-66.1	6.8
2026-01-08 12:28:35.575069	330.2	11.3	-66.4	6.8
2026-01-08 12:28:37.810086	330.4	11.1	-66.8	6.5
2026-01-08 12:28:40.046598	330.6	10.9	-66.3	6.9
2026-01-08 12:28:42.280110	330.7	10.8	-66.7	7.9
2026-01-08 12:28:44.517117	330.9	10.6	-66.2	7.4
2026-01-08 12:28:46.757143	331.1	10.4	-65.9	5.9
2026-01-08 12:28:48.991150	331.3	10.2	-66.5	6.6
2026-01-08 12:28:51.224653	331.5	10.0	-66.2	6.0
2026-01-08 12:28:53.458173	331.6	9.9	-65.2	4.8
2026-01-08 12:28:55.694199	331.8	9.7	-66.1	5.9
2026-01-08 12:28:57.935704	332.0	9.5	-66.5	5.9
2026-01-08 12:29:00.170711	332.2	9.4	-66.3	5.5
2026-01-08 12:29:02.409224	332.3	9.2	-66.4	5.8
2026-01-08 12:29:04.643239	332.5	9.0	-66.2	6.6
2026-01-08 12:29:06.879254	332.7	8.9	-66.2	4.9
2026-01-08 12:29:09.116261	332.8	8.7	-66.0	6.1
2026-01-08 12:29:11.354279	333.0	8.5	-64.5	4.3
2026-01-08 12:29:13.591791	333.1	8.4	-65.0	5.2
2026-01-08 12:29:15.830313	333.3	8.2	-66.2	4.3
2026-01-08 12:29:18.067321	333.5	8.0	-65.1	3.2
2026-01-08 12:29:20.305825	333.6	7.9	-64.7	5.1
2026-01-08 12:29:22.542841	333.8	7.7	-65.1	4.0
2026-01-08 12:29:24.781346	333.9	7.5	-64.5	0.0
2026-01-08 12:29:27.014362	334.1	7.4	-65.5	1.9
2026-01-08 12:29:29.257886	334.2	7.2	-64.2	1.5
2026-01-08 12:29:31.506897	334.4	7.1	-64.0	2.4
2026-01-08 12:29:33.749418	334.5	6.9	-63.3	0.0
2026-01-08 12:29:35.990427	334.7	6.8	-63.2	0.9
2026-01-08 12:29:38.233959	334.8	6.6	-63.8	4.4
2026-01-08 12:29:40.477969	334.9	6.4	-65.5	4.6
2026-01-08 12:29:42.721482	335.1	6.3	-64.1	1.2
2026-01-08 12:29:44.960995	335.2	6.1	-65.3	6.1
2026-01-08 12:29:47.196047	335.4	6.0	-66.8	7.8
2026-01-08 12:29:49.427054	335.5	5.8	-67.9	0.0
2026-01-08 12:29:51.660061	335.6	5.7	-68.3	0.0
2026-01-08 12:29:53.892573	335.8	5.5	-70.4	0.0
2026-01-08 12:29:56.127580	335.9	5.4	-70.6	0.0
2026-01-08 12:29:58.362084	336.0	5.2	-71.3	0.0
2026-01-08 12:30:00.592594	336.2	5.1	-72.3	0.0
#Closed at: 2026-01-08 12:17:42.364690