passes_logs/2026/01/08/PlanumMoscow/PlanumMoscow__20260108_095051_METEOR-M2_3_rec.log

#Pass ID: 20260108_095051_METEOR-M2 3
#Satellite: METEOR-M2 3
#Configuration: METEOR-M2 3
#Start time: 2026-01-08 09:50:56.964038

#LorettStation: 1.0.0 05.05.2024
#Station: PlanumMoscow
#Location: 37.6253844 lon 55.6713361 lat
#TLE: 1 57166U 23091A   25293.99389264  .00000062  00000+0  46113-4 0  9997
#TLE: 2 57166  98.6457 348.4330 0004759 135.3141 224.8422 14.24016546120475

#Time	Az	El	Level	SNR
2026-01-08 09:54:35.399358	326.9	13.5	-63.1	7.3
2026-01-08 09:54:36.520115	326.7	13.5	-63.5	7.5
2026-01-08 09:54:37.639367	326.5	13.5	-63.6	7.2
2026-01-08 09:54:38.760125	326.3	13.5	-63.4	7.6
2026-01-08 09:54:39.879881	326.0	13.5	-64.0	8.5
2026-01-08 09:54:41.001134	325.8	13.5	-63.0	6.7
2026-01-08 09:54:42.122899	325.6	13.6	-63.6	7.7
2026-01-08 09:54:43.242151	325.3	13.6	-63.7	7.9
2026-01-08 09:54:44.362403	325.1	13.6	-64.2	8.4
2026-01-08 09:54:45.479159	324.9	13.6	-64.0	8.8
2026-01-08 09:54:46.596915	324.7	13.6	-64.3	9.0
2026-01-08 09:54:47.715175	324.4	13.6	-64.2	8.4
2026-01-08 09:54:48.833435	324.2	13.6	-64.1	7.9
2026-01-08 09:54:49.953687	324.0	13.6	-64.1	8.5
2026-01-08 09:54:51.069938	323.8	13.7	-64.3	8.6
2026-01-08 09:54:52.188694	323.5	13.7	-64.0	8.5
2026-01-08 09:54:53.305451	323.3	13.7	-64.4	8.4
2026-01-08 09:54:54.425703	323.1	13.7	-64.1	7.9
2026-01-08 09:54:55.546460	322.8	13.7	-64.4	8.4
2026-01-08 09:54:56.667713	322.6	13.7	-64.1	8.0
2026-01-08 09:54:57.789965	322.4	13.7	-63.9	7.9
2026-01-08 09:54:58.908722	322.2	13.7	-64.3	8.0
2026-01-08 09:55:00.025973	321.9	13.7	-64.0	8.8
2026-01-08 09:55:01.147234	321.7	13.7	-64.2	8.4
2026-01-08 09:55:02.268007	321.5	13.8	-64.2	7.4
2026-01-08 09:55:03.390260	321.2	13.8	-64.3	7.4
2026-01-08 09:55:04.512513	321.0	13.8	-64.1	8.6
2026-01-08 09:55:05.633775	320.8	13.8	-64.2	8.9
2026-01-08 09:55:06.756028	320.6	13.8	-65.2	9.7
2026-01-08 09:55:07.877289	320.3	13.8	-65.3	9.8
2026-01-08 09:55:08.999046	320.1	13.8	-65.3	10.2
2026-01-08 09:55:10.121298	319.9	13.8	-65.2	10.3
2026-01-08 09:55:11.243056	319.6	13.8	-65.3	10.0
2026-01-08 09:55:12.361823	319.4	13.8	-64.6	9.1
2026-01-08 09:55:13.478578	319.2	13.8	-64.5	9.1
2026-01-08 09:55:14.601344	318.9	13.8	-64.9	9.2
2026-01-08 09:55:15.723101	318.7	13.8	-65.0	9.3
2026-01-08 09:55:16.844858	318.5	13.8	-64.3	8.3
2026-01-08 09:55:17.966118	318.2	13.8	-64.4	7.9
2026-01-08 09:55:19.082883	318.0	13.8	-64.7	9.4
2026-01-08 09:55:20.198134	317.8	13.8	-64.4	9.1
2026-01-08 09:55:21.313890	317.6	13.8	-64.6	9.3
2026-01-08 09:55:22.431150	317.3	13.8	-64.8	9.7
2026-01-08 09:55:23.549906	317.1	13.8	-65.0	11.3
2026-01-08 09:55:24.671159	316.9	13.8	-64.8	9.1
2026-01-08 09:55:25.790411	316.6	13.8	-65.1	9.9
2026-01-08 09:55:26.912167	316.4	13.8	-64.4	10.3
2026-01-08 09:55:28.032428	316.2	13.8	-64.6	9.3
2026-01-08 09:55:29.152184	315.9	13.8	-65.2	9.8
2026-01-08 09:55:30.273443	315.7	13.8	-65.6	10.6
2026-01-08 09:55:31.391704	315.5	13.8	-65.5	9.8
2026-01-08 09:55:32.512460	315.3	13.8	-65.2	10.2
2026-01-08 09:55:33.633712	315.0	13.8	-65.5	10.4
2026-01-08 09:55:34.754965	314.8	13.8	-65.0	9.3
2026-01-08 09:55:35.873224	314.6	13.8	-65.8	10.3
2026-01-08 09:55:36.990979	314.3	13.8	-66.0	10.5
2026-01-08 09:55:38.107231	314.1	13.7	-66.0	10.4
2026-01-08 09:55:39.224483	313.9	13.7	-65.7	9.1
2026-01-08 09:55:40.341734	313.6	13.7	-65.8	9.8
2026-01-08 09:55:41.460986	313.4	13.7	-66.0	9.4
2026-01-08 09:55:42.578750	313.2	13.7	-65.4	8.8
2026-01-08 09:55:43.698002	313.0	13.7	-65.2	9.3
2026-01-08 09:55:44.817759	312.7	13.7	-64.6	8.9
2026-01-08 09:55:45.935514	312.5	13.7	-64.7	7.7
2026-01-08 09:55:47.054767	312.3	13.7	-64.9	8.4
2026-01-08 09:55:48.171523	312.0	13.7	-65.0	8.6
2026-01-08 09:55:49.288774	311.8	13.6	-65.3	8.3
2026-01-08 09:55:50.403025	311.6	13.6	-65.1	8.6
2026-01-08 09:55:51.518276	311.4	13.6	-65.2	8.4
2026-01-08 09:55:52.634032	311.1	13.6	-65.7	9.4
2026-01-08 09:55:53.748787	310.9	13.6	-65.0	8.3
2026-01-08 09:55:54.866543	310.7	13.6	-65.8	9.1
2026-01-08 09:55:55.983298	310.5	13.6	-65.1	9.1
2026-01-08 09:55:57.101559	310.2	13.6	-65.5	8.6
2026-01-08 09:55:58.216315	310.0	13.5	-65.1	8.7
2026-01-08 09:55:59.333071	309.8	13.5	-65.0	8.9
2026-01-08 09:56:00.449322	309.6	13.5	-64.8	7.6
2026-01-08 09:56:01.566573	309.3	13.5	-65.8	8.5
2026-01-08 09:56:02.683330	309.1	13.5	-65.4	8.9
2026-01-08 09:56:03.799581	308.9	13.5	-65.8	8.7
2026-01-08 09:56:04.916832	308.7	13.4	-66.3	9.1
2026-01-08 09:56:06.032084	308.4	13.4	-65.2	9.2
2026-01-08 09:56:07.148839	308.2	13.4	-65.9	9.0
2026-01-08 09:56:08.266091	308.0	13.4	-66.1	10.3
2026-01-08 09:56:09.384855	307.8	13.4	-65.8	10.4
2026-01-08 09:56:10.501123	307.5	13.3	-66.3	10.9
2026-01-08 09:56:11.618375	307.3	13.3	-65.6	9.4
2026-01-08 09:56:12.736627	307.1	13.3	-66.0	9.9
2026-01-08 09:56:13.851878	306.9	13.3	-66.1	10.2
2026-01-08 09:56:14.969633	306.7	13.3	-66.3	9.8
2026-01-08 09:56:16.086885	306.4	13.2	-65.7	9.2
2026-01-08 09:56:17.205145	306.2	13.2	-65.3	9.6
2026-01-08 09:56:18.322406	306.0	13.2	-66.2	10.1
2026-01-08 09:56:19.440665	305.8	13.2	-66.1	8.5
2026-01-08 09:56:20.556421	305.5	13.1	-65.8	9.9
2026-01-08 09:56:21.675673	305.3	13.1	-66.0	10.1
2026-01-08 09:56:22.792924	305.1	13.1	-65.7	9.4
2026-01-08 09:56:23.911192	304.9	13.1	-66.1	9.7
2026-01-08 09:56:25.028452	304.7	13.0	-66.3	10.1
2026-01-08 09:56:26.144704	304.5	13.0	-65.9	9.5
2026-01-08 09:56:27.262460	304.2	13.0	-66.2	9.5
2026-01-08 09:56:28.380712	304.0	13.0	-65.9	8.0
2026-01-08 09:56:29.501973	303.8	12.9	-65.0	7.6
2026-01-08 09:56:30.620225	303.6	12.9	-66.1	9.8
2026-01-08 09:56:31.741989	303.4	12.9	-65.2	8.1
2026-01-08 09:56:32.863746	303.1	12.9	-65.5	8.9
2026-01-08 09:56:33.985005	302.9	12.8	-66.0	8.4
2026-01-08 09:56:35.107267	302.7	12.8	-66.0	8.4
2026-01-08 09:56:36.229023	302.5	12.8	-66.0	8.5
2026-01-08 09:56:37.349300	302.3	12.7	-65.3	8.0
2026-01-08 09:56:38.471553	302.1	12.7	-66.0	7.9
2026-01-08 09:56:39.593311	301.9	12.7	-65.8	8.0
2026-01-08 09:56:40.715067	301.6	12.7	-65.6	9.0
2026-01-08 09:56:41.836824	301.4	12.6	-66.5	9.6
2026-01-08 09:56:42.959077	301.2	12.6	-66.3	10.3
2026-01-08 09:56:44.080338	301.0	12.6	-66.2	9.6
2026-01-08 09:56:45.204095	300.8	12.5	-66.3	8.9
2026-01-08 09:56:46.325852	300.6	12.5	-66.3	8.2
2026-01-08 09:56:47.445608	300.4	12.5	-65.9	8.5
2026-01-08 09:56:48.566365	300.2	12.4	-66.1	8.7
2026-01-08 09:56:49.686626	299.9	12.4	-65.9	7.7
2026-01-08 09:56:50.805878	299.7	12.4	-66.3	8.1
2026-01-08 09:56:51.925130	299.5	12.3	-66.2	8.4
2026-01-08 09:56:53.040390	299.3	12.3	-66.5	8.4
2026-01-08 09:56:54.158650	299.1	12.3	-66.7	9.5
2026-01-08 09:56:55.275406	298.9	12.2	-66.1	9.0
2026-01-08 09:56:56.393658	298.7	12.2	-66.0	9.3
2026-01-08 09:56:57.514424	298.5	12.2	-65.6	9.2
2026-01-08 09:56:58.631179	298.3	12.1	-66.2	7.9
2026-01-08 09:56:59.747431	298.1	12.1	-65.3	7.9
2026-01-08 09:57:00.865187	297.9	12.1	-65.8	8.6
2026-01-08 09:57:01.987448	297.7	12.0	-65.7	7.0
2026-01-08 09:57:03.106700	297.5	12.0	-65.7	8.1
2026-01-08 09:57:04.225457	297.3	11.9	-66.3	9.3
2026-01-08 09:57:05.345709	297.1	11.9	-65.7	8.5
2026-01-08 09:57:06.466961	296.9	11.9	-65.2	7.3
2026-01-08 09:57:07.586214	296.7	11.8	-65.7	9.9
2026-01-08 09:57:08.702970	296.5	11.8	-65.0	7.2
2026-01-08 09:57:09.827231	296.3	11.8	-65.0	9.1
2026-01-08 09:57:10.947483	296.1	11.7	-65.1	8.7
2026-01-08 09:57:12.065735	295.9	11.7	-65.4	9.4
2026-01-08 09:57:13.181986	295.7	11.6	-65.4	8.3
2026-01-08 09:57:14.300247	295.5	11.6	-65.5	8.6
2026-01-08 09:57:15.418003	295.3	11.6	-65.8	9.3
2026-01-08 09:57:16.534758	295.1	11.5	-64.9	9.3
2026-01-08 09:57:17.654011	294.9	11.5	-65.7	9.0
2026-01-08 09:57:18.772767	294.7	11.4	-65.8	9.1
2026-01-08 09:57:19.889521	294.5	11.4	-66.0	9.8
2026-01-08 09:57:21.007773	294.3	11.4	-64.6	8.0
2026-01-08 09:57:22.129035	294.1	11.3	-65.5	9.4
2026-01-08 09:57:23.247790	293.9	11.3	-65.4	7.9
2026-01-08 09:57:24.367050	293.7	11.2	-65.6	9.2
2026-01-08 09:57:25.483309	293.5	11.2	-66.0	7.9
2026-01-08 09:57:26.599064	293.3	11.2	-65.7	8.1
2026-01-08 09:57:27.718829	293.1	11.1	-65.9	8.3
2026-01-08 09:57:28.834080	292.9	11.1	-65.3	8.2
2026-01-08 09:57:29.954340	292.7	11.0	-65.5	7.6
2026-01-08 09:57:31.071592	292.6	11.0	-65.4	6.7
2026-01-08 09:57:32.187843	292.4	10.9	-65.5	8.6
2026-01-08 09:57:33.307095	292.2	10.9	-65.7	7.8
2026-01-08 09:57:34.426347	292.0	10.9	-65.1	7.2
2026-01-08 09:57:35.544599	291.8	10.8	-65.0	7.7
2026-01-08 09:57:36.666356	291.6	10.8	-64.6	4.6
2026-01-08 09:57:37.785608	291.4	10.7	-65.2	6.6
2026-01-08 09:57:38.904372	291.2	10.7	-65.7	7.3
2026-01-08 09:57:40.023138	291.0	10.6	-65.9	7.3
2026-01-08 09:57:41.139389	290.9	10.6	-64.4	6.0
2026-01-08 09:57:42.260146	290.7	10.5	-65.4	7.3
2026-01-08 09:57:43.380406	290.5	10.5	-65.0	7.0
2026-01-08 09:57:44.501163	290.3	10.4	-65.1	7.4
2026-01-08 09:57:45.619415	290.1	10.4	-65.8	7.9
2026-01-08 09:57:46.739171	289.9	10.4	-64.5	5.7
2026-01-08 09:57:47.857431	289.8	10.3	-65.0	6.1
2026-01-08 09:57:48.975187	289.6	10.3	-64.7	5.8
2026-01-08 09:57:50.095944	289.4	10.2	-65.5	6.6
2026-01-08 09:57:51.213195	289.2	10.2	-64.2	5.8
2026-01-08 09:57:52.330951	289.0	10.1	-65.1	4.6
2026-01-08 09:57:53.450211	288.9	10.1	-64.4	3.8
2026-01-08 09:57:54.571464	288.7	10.0	-64.9	7.7
2026-01-08 09:57:55.693220	288.5	10.0	-65.5	6.9
2026-01-08 09:57:56.817474	288.3	9.9	-65.6	7.4
2026-01-08 09:57:57.939238	288.2	9.9	-65.2	6.9
2026-01-08 09:57:59.058995	288.0	9.8	-65.4	7.6
2026-01-08 09:58:00.181752	287.8	9.8	-65.4	7.3
2026-01-08 09:58:01.303509	287.6	9.7	-65.7	6.7
2026-01-08 09:58:02.429266	287.5	9.7	-63.0	4.4
2026-01-08 09:58:03.551031	287.3	9.6	-64.8	6.5
2026-01-08 09:58:04.673284	287.1	9.6	-65.3	5.5
2026-01-08 09:58:05.795041	286.9	9.5	-64.8	7.2
2026-01-08 09:58:06.916798	286.8	9.5	-64.4	6.7
2026-01-08 09:58:08.032554	286.6	9.4	-64.5	7.3
2026-01-08 09:58:09.148813	286.4	9.4	-64.3	6.6
2026-01-08 09:58:10.271570	286.3	9.3	-64.4	6.5
2026-01-08 09:58:11.389822	286.1	9.3	-64.5	5.2
2026-01-08 09:58:12.510074	285.9	9.2	-64.0	4.6
2026-01-08 09:58:13.628326	285.7	9.2	-63.9	6.6
2026-01-08 09:58:14.745586	285.6	9.1	-64.6	5.6
2026-01-08 09:58:15.863838	285.4	9.1	-64.5	6.0
2026-01-08 09:58:16.987091	285.2	9.0	-63.7	6.3
2026-01-08 09:58:18.113849	285.1	9.0	-63.6	4.9
2026-01-08 09:58:19.232605	284.9	8.9	-64.3	5.0
2026-01-08 09:58:20.352361	284.7	8.9	-64.9	5.4
2026-01-08 09:58:21.473621	284.6	8.8	-65.0	5.9
2026-01-08 09:58:22.595874	284.4	8.8	-65.1	7.2
2026-01-08 09:58:23.718127	284.3	8.7	-64.2	5.2
2026-01-08 09:58:24.837379	284.1	8.7	-65.3	6.9
2026-01-08 09:58:25.952638	283.9	8.6	-65.3	6.1
2026-01-08 09:58:27.073900	283.8	8.6	-65.1	8.1
2026-01-08 09:58:28.195656	283.6	8.5	-64.2	5.3
2026-01-08 09:58:29.316909	283.5	8.5	-64.7	5.3
2026-01-08 09:58:30.438161	283.3	8.4	-65.3	6.0
2026-01-08 09:58:31.558918	283.1	8.4	-64.6	6.0
2026-01-08 09:58:32.679675	283.0	8.3	-64.0	3.6
2026-01-08 09:58:33.799430	282.8	8.3	-64.0	4.2
2026-01-08 09:58:34.921196	282.7	8.2	-63.2	3.5
2026-01-08 09:58:36.040448	282.5	8.2	-65.0	3.6
2026-01-08 09:58:37.162701	282.3	8.1	-63.9	5.1
2026-01-08 09:58:38.283962	282.2	8.1	-64.8	4.0
2026-01-08 09:58:39.401214	282.0	8.0	-63.7	3.8
2026-01-08 09:58:40.517970	281.9	8.0	-64.0	3.7
2026-01-08 09:58:41.635222	281.7	7.9	-62.8	1.6
2026-01-08 09:58:42.757980	281.6	7.9	-64.0	4.0
2026-01-08 09:58:43.874735	281.4	7.8	-65.0	5.5
2026-01-08 09:58:44.992491	281.3	7.7	-65.2	4.3
2026-01-08 09:58:46.108743	281.1	7.7	-64.1	3.8
2026-01-08 09:58:47.224506	281.0	7.6	-64.4	4.6
2026-01-08 09:58:48.339757	280.8	7.6	-65.2	4.1
2026-01-08 09:58:49.459009	280.7	7.5	-64.6	3.9
2026-01-08 09:58:50.576765	280.5	7.5	-63.9	3.0
2026-01-08 09:58:51.694025	280.4	7.4	-64.7	3.6
2026-01-08 09:58:52.811276	280.2	7.4	-64.6	3.3
2026-01-08 09:58:53.928528	280.1	7.3	-64.6	5.0
2026-01-08 09:58:55.044779	279.9	7.3	-65.3	4.3
2026-01-08 09:58:56.162031	279.8	7.2	-65.0	4.2
2026-01-08 09:58:57.278283	279.6	7.2	-65.4	5.6
2026-01-08 09:58:58.396535	279.5	7.1	-65.0	2.4
2026-01-08 09:58:59.513786	279.4	7.1	-64.5	2.4
2026-01-08 09:59:00.633543	279.2	7.0	-63.9	1.5
2026-01-08 09:59:01.754299	279.1	6.9	-65.1	3.2
2026-01-08 09:59:02.872551	278.9	6.9	-65.0	2.7
2026-01-08 09:59:03.989306	278.8	6.8	-64.7	4.3
2026-01-08 09:59:05.108062	278.6	6.8	-64.4	2.3
2026-01-08 09:59:06.225313	278.5	6.7	-64.4	3.6
2026-01-08 09:59:07.342070	278.4	6.7	-64.8	4.9
2026-01-08 09:59:08.460330	278.2	6.6	-64.5	3.4
2026-01-08 09:59:09.579087	278.1	6.6	-65.1	5.5
2026-01-08 09:59:10.700348	277.9	6.5	-64.2	1.2
2026-01-08 09:59:11.816599	277.8	6.5	-64.3	3.6
2026-01-08 09:59:12.934355	277.7	6.4	-62.9	1.5
2026-01-08 09:59:14.051616	277.5	6.4	-64.6	3.1
2026-01-08 09:59:15.166875	277.4	6.3	-65.1	5.4
2026-01-08 09:59:16.284126	277.2	6.2	-64.3	3.1
2026-01-08 09:59:17.401386	277.1	6.2	-63.7	3.1
2026-01-08 09:59:18.519638	277.0	6.1	-64.8	2.4
2026-01-08 09:59:19.637393	276.8	6.1	-65.1	4.3
2026-01-08 09:59:20.755646	276.7	6.0	-64.5	0.0
2026-01-08 09:59:21.871897	276.6	6.0	-68.5	0.0
2026-01-08 09:59:22.989652	276.4	5.9	-67.5	0.0
2026-01-08 09:59:24.105903	276.3	5.9	-68.5	0.0
2026-01-08 09:59:25.223669	276.2	5.8	-68.4	0.0
2026-01-08 09:59:26.339921	276.0	5.8	-67.2	0.0
2026-01-08 09:59:27.455172	275.9	5.7	-69.4	0.0
2026-01-08 09:59:28.572423	275.8	5.6	-69.2	0.0
2026-01-08 09:59:29.689186	275.6	5.6	-69.5	0.0
2026-01-08 09:59:30.806438	275.5	5.5	-68.9	0.0
2026-01-08 09:59:31.921689	275.4	5.5	-70.6	0.0
2026-01-08 09:59:33.037940	275.3	5.4	-71.4	0.0
2026-01-08 09:59:34.154696	275.1	5.4	-72.0	0.0
2026-01-08 09:59:35.276949	275.0	5.3	-71.9	0.0
2026-01-08 09:59:36.398706	274.9	5.3	-71.0	0.0
2026-01-08 09:59:37.520462	274.7	5.2	-71.4	0.0
2026-01-08 09:59:38.642219	274.6	5.1	-71.4	0.0
2026-01-08 09:59:39.763480	274.5	5.1	-71.4	0.0
2026-01-08 09:59:40.884740	274.4	5.0	-71.5	0.0
#Closed at: 2026-01-08 09:50:51.965040