passes_logs/2026/01/08/PlanumMoscow/PlanumMoscow__20260108_171153_METOP-C_rec.log

#Pass ID: 20260108_171153_METOP-C
#Satellite: METOP-C
#Configuration: METOP-C
#Start time: 2026-01-08 17:11:58.943265

#LorettStation: 1.0.0 05.05.2024
#Station: PlanumMoscow
#Location: 37.6253844 lon 55.6713361 lat
#TLE: 1 43689U 18087A   25293.88981035  .00000265  00000+0  14109-3 0  9997
#TLE: 2 43689  98.7006 352.4487 0002041 122.1097 238.0279 14.21482740360838

#Time	Az	El	Level	SNR
2026-01-08 17:15:37.419956	114.6	26.2	-64.7	4.9
2026-01-08 17:15:39.651963	114.2	26.5	-65.3	5.1
2026-01-08 17:15:41.889971	113.8	26.8	-65.9	5.6
2026-01-08 17:15:44.129475	113.3	27.1	-65.7	6.4
2026-01-08 17:15:46.371991	112.9	27.4	-65.8	6.3
2026-01-08 17:15:48.613037	112.4	27.7	-65.9	5.3
2026-01-08 17:15:50.854093	112.0	28.0	-65.4	1.7
2026-01-08 17:15:53.093605	111.5	28.3	-66.3	4.4
2026-01-08 17:15:55.335126	111.0	28.7	-66.0	3.1
2026-01-08 17:15:57.577631	110.6	29.0	-66.2	3.7
2026-01-08 17:15:59.821145	110.1	29.3	-66.2	3.7
2026-01-08 17:16:02.066177	109.6	29.6	-65.5	2.4
2026-01-08 17:16:04.310691	109.0	29.9	-65.1	1.0
2026-01-08 17:16:06.553708	108.5	30.2	-64.9	2.9
2026-01-08 17:16:08.795718	108.0	30.6	-65.9	5.4
2026-01-08 17:16:11.042241	107.4	30.9	-65.6	2.8
2026-01-08 17:16:13.285275	106.9	31.2	-64.5	3.4
2026-01-08 17:16:15.523779	106.3	31.5	-65.3	3.1
2026-01-08 17:16:17.762283	105.7	31.8	-65.9	3.6
2026-01-08 17:16:20.003796	105.1	32.2	-66.0	4.6
2026-01-08 17:16:22.242813	104.5	32.5	-64.2	0.0
2026-01-08 17:16:24.482335	103.9	32.8	-65.4	1.3
2026-01-08 17:16:26.719847	103.3	33.1	-65.9	3.8
2026-01-08 17:16:28.956360	102.7	33.5	-65.3	0.0
2026-01-08 17:16:31.192863	102.0	33.8	-65.9	3.5
2026-01-08 17:16:33.433377	101.3	34.1	-65.9	0.0
2026-01-08 17:16:35.672395	100.7	34.4	-65.0	0.0
2026-01-08 17:16:37.912899	100.0	34.7	-65.7	0.7
2026-01-08 17:16:40.151403	99.3	35.0	-64.4	0.0
2026-01-08 17:16:42.385916	98.5	35.4	-65.4	0.0
2026-01-08 17:16:44.623437	97.8	35.7	-63.7	0.0
2026-01-08 17:16:46.858444	97.1	36.0	-64.0	0.0
2026-01-08 17:16:49.093955	96.3	36.3	-65.6	0.0
2026-01-08 17:16:51.328971	95.5	36.6	-66.7	0.1
2026-01-08 17:16:53.565979	94.7	36.9	-66.8	0.0
2026-01-08 17:16:55.800482	93.9	37.2	-65.3	0.0
2026-01-08 17:16:58.034985	93.1	37.5	-65.4	0.0
2026-01-08 17:17:00.268002	92.3	37.7	-66.2	0.0
2026-01-08 17:17:02.508010	91.4	38.0	-64.3	0.0
2026-01-08 17:17:04.746514	90.6	38.3	-65.7	0.0
2026-01-08 17:17:06.985036	89.7	38.6	-64.2	0.0
2026-01-08 17:17:09.218556	88.8	38.8	-64.4	0.0
2026-01-08 17:17:11.453564	87.9	39.1	-64.6	0.0
2026-01-08 17:17:13.691580	87.0	39.4	-63.1	0.0
2026-01-08 17:17:15.926596	86.0	39.6	-64.6	0.0
2026-01-08 17:17:18.163109	85.1	39.8	-64.5	0.0
2026-01-08 17:17:20.397635	84.1	40.1	-62.2	0.0
2026-01-08 17:17:22.633651	83.1	40.3	-61.9	0.0
2026-01-08 17:17:24.871174	82.2	40.5	-61.5	0.0
2026-01-08 17:17:27.107182	81.2	40.7	-62.4	0.0
2026-01-08 17:17:29.346191	80.1	40.9	-65.7	0.0
2026-01-08 17:17:31.584695	79.1	41.1	-62.1	0.0
2026-01-08 17:17:33.830217	78.1	41.3	-63.7	0.0
2026-01-08 17:17:36.074227	77.0	41.5	-64.0	0.0
2026-01-08 17:17:38.318732	75.9	41.6	-60.8	0.0
2026-01-08 17:17:40.559742	74.9	41.8	-64.3	0.0
2026-01-08 17:17:42.800751	73.8	41.9	-63.2	0.0
2026-01-08 17:17:45.044264	72.7	42.0	-63.0	0.0
2026-01-08 17:17:47.286282	71.6	42.1	-63.3	0.0
2026-01-08 17:17:49.530292	70.5	42.2	-64.0	0.0
2026-01-08 17:17:51.765795	69.4	42.3	-64.4	0.0
2026-01-08 17:17:54.002812	68.2	42.4	-61.8	0.0
2026-01-08 17:17:56.237820	67.1	42.5	-60.7	0.0
2026-01-08 17:17:58.471836	66.0	42.5	-59.2	0.0
2026-01-08 17:18:00.710854	64.9	42.6	-64.0	0.0
2026-01-08 17:18:02.949862	63.7	42.6	-62.1	0.0
2026-01-08 17:18:05.184374	62.6	42.6	-61.4	0.0
2026-01-08 17:18:07.420888	61.5	42.6	-61.6	0.0
2026-01-08 17:18:09.661393	60.3	42.6	-59.4	0.0
2026-01-08 17:18:11.894896	59.2	42.6	-61.1	0.0
2026-01-08 17:18:14.133400	58.0	42.6	-60.2	0.0
2026-01-08 17:18:16.369913	56.9	42.5	-59.5	0.0
2026-01-08 17:18:18.607433	55.8	42.5	-62.7	0.0
2026-01-08 17:18:20.840441	54.7	42.4	-61.6	0.0
2026-01-08 17:18:23.077458	53.6	42.3	-60.0	0.0
2026-01-08 17:18:25.314467	52.4	42.2	-64.0	0.0
2026-01-08 17:18:27.552971	51.3	42.1	-63.3	0.0
2026-01-08 17:18:29.790475	50.2	42.0	-63.6	0.0
2026-01-08 17:18:32.028492	49.2	41.9	-62.0	0.0
2026-01-08 17:18:34.266508	48.1	41.7	-61.5	0.0
2026-01-08 17:18:36.507013	47.0	41.6	-61.3	0.0
2026-01-08 17:18:38.744021	46.0	41.4	-62.4	0.0
2026-01-08 17:18:40.979542	44.9	41.2	-62.8	0.0
2026-01-08 17:18:43.216054	43.9	41.0	-62.4	0.0
2026-01-08 17:18:45.455072	42.9	40.9	-63.8	0.0
2026-01-08 17:18:47.689585	41.8	40.7	-63.3	0.0
2026-01-08 17:18:49.925593	40.8	40.4	-60.3	0.0
2026-01-08 17:18:52.168098	39.9	40.2	-63.1	0.0
2026-01-08 17:18:54.411117	38.9	40.0	-58.1	0.0
2026-01-08 17:18:56.656154	37.9	39.8	-62.6	0.0
2026-01-08 17:18:58.899667	37.0	39.5	-63.0	0.0
2026-01-08 17:19:01.144173	36.0	39.3	-62.2	0.0
2026-01-08 17:19:03.390687	35.1	39.0	-63.8	0.0
2026-01-08 17:19:05.635201	34.2	38.8	-63.0	0.0
2026-01-08 17:19:07.877210	33.3	38.5	-62.2	0.0
2026-01-08 17:19:10.108729	32.5	38.2	-64.3	0.0
2026-01-08 17:19:12.341746	31.6	37.9	-64.7	0.0
2026-01-08 17:19:14.579258	30.8	37.7	-62.7	0.0
2026-01-08 17:19:16.814271	30.0	37.4	-61.4	0.0
2026-01-08 17:19:19.051779	29.1	37.1	-60.3	0.0
2026-01-08 17:19:21.285786	28.3	36.8	-61.3	0.0
2026-01-08 17:19:23.523298	27.6	36.5	-65.3	0.0
2026-01-08 17:19:25.759306	26.8	36.2	-65.4	0.0
2026-01-08 17:19:27.996313	26.0	35.9	-63.1	0.0
2026-01-08 17:19:30.230827	25.3	35.6	-65.1	0.0
2026-01-08 17:19:32.464339	24.6	35.3	-65.1	0.0
2026-01-08 17:19:34.698355	23.9	35.0	-64.5	0.0
2026-01-08 17:19:36.934363	23.2	34.6	-61.8	0.0
2026-01-08 17:19:39.171868	22.5	34.3	-63.0	0.0
2026-01-08 17:19:41.409380	21.8	34.0	-63.4	0.0
2026-01-08 17:19:43.641395	21.2	33.7	-65.6	0.0
2026-01-08 17:19:45.878907	20.5	33.4	-63.1	0.0
2026-01-08 17:19:48.116411	19.9	33.1	-62.3	0.0
2026-01-08 17:19:50.350427	19.3	32.7	-64.7	0.0
2026-01-08 17:19:52.585950	18.6	32.4	-63.5	0.0
2026-01-08 17:19:54.821463	18.1	32.1	-65.1	0.0
2026-01-08 17:19:57.057967	17.5	31.8	-63.4	0.0
2026-01-08 17:19:59.292478	16.9	31.5	-65.7	0.0
2026-01-08 17:20:01.528982	16.3	31.1	-65.1	0.0
2026-01-08 17:20:03.765486	15.8	30.8	-64.9	0.4
2026-01-08 17:20:06.005990	15.2	30.5	-61.8	0.0
2026-01-08 17:20:08.242503	14.7	30.2	-63.7	0.3
2026-01-08 17:20:10.480511	14.2	29.9	-64.9	1.9
2026-01-08 17:20:12.718528	13.7	29.6	-64.7	0.0
2026-01-08 17:20:14.957056	13.2	29.2	-62.5	0.0
2026-01-08 17:20:17.193064	12.7	28.9	-61.8	0.0
2026-01-08 17:20:19.432072	12.2	28.6	-64.4	2.7
2026-01-08 17:20:21.674081	11.8	28.3	-62.3	0.0
2026-01-08 17:20:23.918108	11.3	28.0	-62.6	1.8
2026-01-08 17:20:26.160156	10.8	27.7	-62.2	0.4
2026-01-08 17:20:28.403670	10.4	27.4	-64.8	4.4
2026-01-08 17:20:30.646679	10.0	27.1	-61.5	0.0
2026-01-08 17:20:32.889696	9.5	26.8	-62.5	0.0
2026-01-08 17:20:35.133242	9.1	26.5	-64.5	3.4
2026-01-08 17:20:37.378752	8.7	26.2	-61.1	0.0
2026-01-08 17:20:39.612760	8.3	25.9	-63.7	2.7
2026-01-08 17:20:41.848768	7.9	25.6	-61.8	0.0
2026-01-08 17:20:44.086281	7.5	25.3	-64.1	4.4
2026-01-08 17:20:46.321297	7.1	25.0	-58.9	0.0
2026-01-08 17:20:48.560306	6.8	24.7	-61.5	1.9
2026-01-08 17:20:50.795817	6.4	24.4	-61.2	0.8
2026-01-08 17:20:53.031833	6.1	24.1	-62.7	3.2
2026-01-08 17:20:55.274338	5.7	23.8	-61.2	0.0
2026-01-08 17:20:57.513852	5.4	23.5	-63.0	0.5
2026-01-08 17:20:59.751365	5.0	23.3	-63.6	3.5
2026-01-08 17:21:01.990373	4.7	23.0	-60.5	0.0
2026-01-08 17:21:04.229382	4.4	22.7	-62.8	1.9
2026-01-08 17:21:06.466400	4.0	22.4	-61.4	0.0
2026-01-08 17:21:08.702913	3.7	22.2	-61.7	0.3
2026-01-08 17:21:10.942417	3.4	21.9	-61.1	0.0
2026-01-08 17:21:13.177425	3.1	21.6	-61.7	0.0
2026-01-08 17:21:15.413450	2.8	21.3	-60.5	0.0
2026-01-08 17:21:17.650458	2.5	21.1	-61.2	2.3
2026-01-08 17:21:19.885962	2.2	20.8	-62.0	3.4
2026-01-08 17:21:22.124978	1.9	20.6	-61.5	1.4
2026-01-08 17:21:24.360482	1.7	20.3	-61.8	0.0
2026-01-08 17:21:26.598995	1.4	20.0	-62.3	3.8
2026-01-08 17:21:28.836004	1.1	19.8	-63.6	4.0
2026-01-08 17:21:31.073524	0.9	19.5	-62.8	4.2
2026-01-08 17:21:33.309532	0.6	19.3	-62.1	3.0
2026-01-08 17:21:35.549053	0.3	19.0	-62.6	2.9
2026-01-08 17:21:37.787576	0.1	18.8	-62.8	5.8
2026-01-08 17:21:40.028098	359.8	18.5	-62.8	4.2
2026-01-08 17:21:42.262610	359.6	18.3	-62.1	1.7
2026-01-08 17:21:44.500618	359.4	18.0	-60.7	0.2
2026-01-08 17:21:46.737625	359.1	17.8	-61.4	2.5
2026-01-08 17:21:48.974137	358.9	17.6	-61.6	2.6
2026-01-08 17:21:51.217147	358.7	17.3	-62.2	2.9
2026-01-08 17:21:53.458652	358.4	17.1	-63.0	2.0
2026-01-08 17:21:55.699157	358.2	16.9	-62.7	2.6
2026-01-08 17:21:57.944167	358.0	16.6	-62.9	3.2
2026-01-08 17:22:00.188177	357.8	16.4	-62.6	3.2
2026-01-08 17:22:02.431701	357.6	16.2	-62.1	2.2
2026-01-08 17:22:04.675214	357.4	15.9	-62.4	3.9
2026-01-08 17:22:06.917738	357.2	15.7	-61.9	2.0
2026-01-08 17:22:09.160755	357.0	15.5	-62.8	0.0
2026-01-08 17:22:11.404269	356.8	15.3	-62.8	1.7
2026-01-08 17:22:13.644287	356.6	15.1	-62.9	2.6
2026-01-08 17:22:15.877790	356.4	14.8	-62.6	2.4
2026-01-08 17:22:18.112302	356.2	14.6	-62.0	2.5
2026-01-08 17:22:20.349309	356.0	14.4	-62.4	3.9
2026-01-08 17:22:22.588823	355.8	14.2	-61.6	0.2
2026-01-08 17:22:24.828344	355.6	14.0	-61.8	3.1
2026-01-08 17:22:27.067360	355.5	13.8	-61.8	2.0
2026-01-08 17:22:29.304368	355.3	13.6	-63.1	2.6
2026-01-08 17:22:31.540879	355.1	13.4	-62.9	2.7
2026-01-08 17:22:33.779392	355.0	13.2	-62.5	1.4
2026-01-08 17:22:36.015905	354.8	13.0	-62.9	1.2
2026-01-08 17:22:38.253913	354.6	12.7	-63.3	3.1
2026-01-08 17:22:40.492921	354.5	12.5	-62.9	3.0
2026-01-08 17:22:42.728425	354.3	12.3	-61.5	1.9
2026-01-08 17:22:44.966938	354.1	12.2	-63.1	3.8
2026-01-08 17:22:47.204946	354.0	12.0	-61.8	2.7
2026-01-08 17:22:49.442963	353.8	11.8	-61.8	0.8
2026-01-08 17:22:51.677475	353.7	11.6	-61.8	3.0
2026-01-08 17:22:53.919988	353.5	11.4	-62.4	3.3
2026-01-08 17:22:56.158005	353.4	11.2	-62.2	1.9
2026-01-08 17:22:58.397518	353.2	11.0	-63.7	2.7
2026-01-08 17:23:00.638527	353.1	10.8	-62.7	0.0
2026-01-08 17:23:02.875544	353.0	10.6	-63.3	1.0
2026-01-08 17:23:05.111057	352.8	10.4	-62.4	1.6
2026-01-08 17:23:07.347560	352.7	10.2	-63.2	1.3
2026-01-08 17:23:09.583064	352.5	10.1	-63.2	0.8
2026-01-08 17:23:11.816576	352.4	9.9	-63.8	3.0
2026-01-08 17:23:14.059594	352.3	9.7	-63.1	2.9
2026-01-08 17:23:16.303107	352.1	9.5	-63.2	2.4
2026-01-08 17:23:18.549130	352.0	9.3	-62.4	1.7
2026-01-08 17:23:20.791652	351.9	9.2	-62.4	0.5
2026-01-08 17:23:23.035661	351.8	9.0	-63.6	1.7
2026-01-08 17:23:25.278192	351.6	8.8	-63.9	4.1
2026-01-08 17:23:27.522715	351.5	8.6	-63.5	3.3
2026-01-08 17:23:29.759236	351.4	8.5	-63.3	2.9
2026-01-08 17:23:31.995740	351.3	8.3	-62.1	0.9
2026-01-08 17:23:34.231765	351.2	8.1	-62.4	1.8
2026-01-08 17:23:36.469269	351.0	7.9	-63.1	5.5
2026-01-08 17:23:38.708773	350.9	7.8	-62.9	2.6
2026-01-08 17:23:40.945790	350.8	7.6	-62.9	2.4
2026-01-08 17:23:43.181294	350.7	7.4	-62.3	1.7
2026-01-08 17:23:45.418312	350.6	7.3	-63.8	4.1
2026-01-08 17:23:47.656816	350.5	7.1	-63.1	1.7
2026-01-08 17:23:49.892328	350.4	6.9	-63.6	3.6
2026-01-08 17:23:52.128841	350.3	6.8	-64.0	3.8
2026-01-08 17:23:54.366353	350.2	6.6	-64.0	2.4
2026-01-08 17:23:56.602856	350.1	6.5	-64.1	0.0
2026-01-08 17:23:58.842361	350.0	6.3	-63.6	0.0
2026-01-08 17:24:01.076864	349.9	6.1	-63.5	0.0
2026-01-08 17:24:03.309871	349.8	6.0	-67.4	1.1
2026-01-08 17:24:05.543399	349.7	5.8	-68.5	0.0
2026-01-08 17:24:07.774425	349.6	5.7	-68.8	0.0
2026-01-08 17:24:10.008450	349.5	5.5	-70.4	0.0
2026-01-08 17:24:12.243466	349.4	5.3	-67.5	0.0
2026-01-08 17:24:14.475473	349.3	5.2	-71.7	0.0
2026-01-08 17:24:16.711977	349.2	5.0	-71.1	0.0
#Closed at: 2026-01-08 17:11:53.944522