passes_logs/2026/01/08/PlanumMoscow/PlanumMoscow__20260108_063014_METEOR-M2_3_rec.log

#Pass ID: 20260108_063014_METEOR-M2 3
#Satellite: METEOR-M2 3
#Configuration: METEOR-M2 3
#Start time: 2026-01-08 06:30:19.246980

#LorettStation: 1.0.0 05.05.2024
#Station: PlanumMoscow
#Location: 37.6253844 lon 55.6713361 lat
#TLE: 1 57166U 23091A   25293.99389264  .00000062  00000+0  46113-4 0  9997
#TLE: 2 57166  98.6457 348.4330 0004759 135.3141 224.8422 14.24016546120475

#Time	Az	El	Level	SNR
2026-01-08 06:33:57.683784	47.6	24.1	-63.7	10.2
2026-01-08 06:33:59.925802	48.1	24.4	-63.6	9.2
2026-01-08 06:34:02.165870	48.6	24.6	-63.9	9.2
2026-01-08 06:34:04.403879	49.0	24.9	-65.0	10.7
2026-01-08 06:34:06.644895	49.5	25.1	-65.2	10.3
2026-01-08 06:34:08.885409	50.0	25.4	-64.8	10.6
2026-01-08 06:34:11.127427	50.5	25.6	-64.2	9.8
2026-01-08 06:34:13.365452	51.0	25.9	-64.9	10.3
2026-01-08 06:34:15.606957	51.5	26.2	-64.0	10.8
2026-01-08 06:34:17.845974	52.0	26.4	-64.1	10.8
2026-01-08 06:34:20.083487	52.5	26.7	-63.9	9.6
2026-01-08 06:34:22.325505	53.0	26.9	-64.1	10.4
2026-01-08 06:34:24.562538	53.5	27.2	-64.4	8.3
2026-01-08 06:34:26.803556	54.1	27.4	-64.3	10.2
2026-01-08 06:34:29.045565	54.6	27.7	-64.2	10.7
2026-01-08 06:34:31.287575	55.2	27.9	-64.2	10.2
2026-01-08 06:34:33.527591	55.8	28.2	-63.9	7.8
2026-01-08 06:34:35.768610	56.3	28.4	-63.6	8.2
2026-01-08 06:34:38.006626	56.9	28.7	-63.7	10.0
2026-01-08 06:34:40.246139	57.5	28.9	-64.2	10.8
2026-01-08 06:34:42.488149	58.1	29.2	-64.6	10.4
2026-01-08 06:34:44.733655	58.8	29.4	-64.6	10.1
2026-01-08 06:34:46.973185	59.4	29.7	-63.7	10.8
2026-01-08 06:34:49.215213	60.0	29.9	-63.6	9.9
2026-01-08 06:34:51.458246	60.7	30.2	-63.8	10.1
2026-01-08 06:34:53.705273	61.3	30.4	-63.8	9.7
2026-01-08 06:34:55.948787	62.0	30.6	-62.6	8.7
2026-01-08 06:34:58.192302	62.7	30.9	-62.6	8.9
2026-01-08 06:35:00.433335	63.3	31.1	-62.9	9.4
2026-01-08 06:35:02.673344	64.0	31.3	-62.8	9.6
2026-01-08 06:35:04.914857	64.7	31.6	-62.0	8.2
2026-01-08 06:35:07.154865	65.4	31.8	-61.9	7.8
2026-01-08 06:35:09.394386	66.2	32.0	-61.3	6.3
2026-01-08 06:35:11.636396	66.9	32.2	-60.1	4.6
2026-01-08 06:35:13.878918	67.6	32.5	-61.0	6.5
2026-01-08 06:35:16.117926	68.4	32.7	-60.5	3.8
2026-01-08 06:35:18.350934	69.2	32.9	-63.2	8.7
2026-01-08 06:35:20.589438	69.9	33.1	-63.2	6.5
2026-01-08 06:35:22.825953	70.7	33.3	-61.9	5.7
2026-01-08 06:35:25.064978	71.5	33.5	-62.7	8.2
2026-01-08 06:35:27.303997	72.3	33.7	-59.9	3.1
2026-01-08 06:35:29.542511	73.1	33.9	-62.8	8.5
2026-01-08 06:35:31.782528	73.9	34.0	-61.4	7.7
2026-01-08 06:35:34.021536	74.7	34.2	-61.8	7.4
2026-01-08 06:35:36.264546	75.6	34.4	-61.7	8.8
2026-01-08 06:35:38.507059	76.4	34.6	-59.9	2.1
2026-01-08 06:35:40.749068	77.3	34.7	-62.6	7.0
2026-01-08 06:35:42.989582	78.1	34.9	-60.2	4.2
2026-01-08 06:35:45.226590	79.0	35.0	-63.3	8.1
2026-01-08 06:35:47.465102	79.9	35.1	-61.9	6.2
2026-01-08 06:35:49.708111	80.8	35.3	-61.3	4.9
2026-01-08 06:35:51.947120	81.7	35.4	-63.5	7.2
2026-01-08 06:35:54.190138	82.6	35.5	-61.6	6.6
2026-01-08 06:35:56.430148	83.5	35.6	-62.7	6.7
2026-01-08 06:35:58.670670	84.4	35.7	-60.2	4.8
2026-01-08 06:36:00.913175	85.3	35.8	-61.7	6.7
2026-01-08 06:36:03.152689	86.2	35.9	-61.3	6.4
2026-01-08 06:36:05.390705	87.1	36.0	-62.9	9.0
2026-01-08 06:36:07.629713	88.1	36.1	-64.0	8.4
2026-01-08 06:36:09.869722	89.0	36.1	-63.3	10.2
2026-01-08 06:36:12.110227	89.9	36.2	-62.8	7.3
2026-01-08 06:36:14.352236	90.9	36.2	-64.3	9.6
2026-01-08 06:36:16.590244	91.8	36.3	-65.1	9.7
2026-01-08 06:36:18.828767	92.8	36.3	-64.3	9.3
2026-01-08 06:36:21.065775	93.7	36.3	-65.1	10.5
2026-01-08 06:36:23.301286	94.6	36.3	-64.3	10.8
2026-01-08 06:36:25.540810	95.6	36.3	-64.9	11.9
2026-01-08 06:36:27.782828	96.5	36.3	-65.5	10.7
2026-01-08 06:36:30.024333	97.5	36.3	-64.6	10.4
2026-01-08 06:36:32.259349	98.4	36.3	-64.0	9.8
2026-01-08 06:36:34.501358	99.4	36.3	-64.4	11.3
2026-01-08 06:36:36.746873	100.3	36.2	-65.8	12.3
2026-01-08 06:36:38.985881	101.3	36.2	-65.4	11.4
2026-01-08 06:36:41.225899	102.2	36.1	-64.4	12.3
2026-01-08 06:36:43.469421	103.1	36.1	-65.9	11.5
2026-01-08 06:36:45.713440	104.1	36.0	-66.4	12.4
2026-01-08 06:36:47.957945	105.0	35.9	-65.7	11.9
2026-01-08 06:36:50.197954	105.9	35.8	-66.2	14.0
2026-01-08 06:36:52.431466	106.8	35.7	-66.2	13.3
2026-01-08 06:36:54.673494	107.7	35.6	-65.7	12.3
2026-01-08 06:36:56.917503	108.6	35.5	-66.4	13.5
2026-01-08 06:36:59.161522	109.5	35.4	-66.0	14.2
2026-01-08 06:37:01.405036	110.4	35.3	-65.1	13.0
2026-01-08 06:37:03.637547	111.3	35.1	-65.4	13.9
2026-01-08 06:37:05.877060	112.2	35.0	-65.8	13.8
2026-01-08 06:37:08.115069	113.1	34.9	-65.6	12.8
2026-01-08 06:37:10.351572	113.9	34.7	-66.0	14.0
2026-01-08 06:37:12.592589	114.8	34.5	-65.5	12.1
2026-01-08 06:37:14.833094	115.6	34.4	-65.8	13.8
2026-01-08 06:37:17.073102	116.5	34.2	-65.6	12.1
2026-01-08 06:37:19.311623	117.3	34.0	-65.7	12.4
2026-01-08 06:37:21.550128	118.1	33.8	-66.1	14.2
2026-01-08 06:37:23.790137	118.9	33.7	-65.2	13.5
2026-01-08 06:37:26.031146	119.7	33.5	-65.9	14.1
2026-01-08 06:37:28.270155	120.5	33.3	-65.9	13.7
2026-01-08 06:37:30.507667	121.3	33.1	-65.6	13.3
2026-01-08 06:37:32.747172	122.1	32.9	-65.4	13.4
2026-01-08 06:37:34.985685	122.8	32.6	-65.2	12.3
2026-01-08 06:37:37.227198	123.6	32.4	-65.9	13.0
2026-01-08 06:37:39.463710	124.3	32.2	-65.3	13.4
2026-01-08 06:37:41.703719	125.1	32.0	-65.4	12.0
2026-01-08 06:37:43.940727	125.8	31.8	-65.3	12.3
2026-01-08 06:37:46.176752	126.5	31.5	-65.9	14.1
2026-01-08 06:37:48.418257	127.2	31.3	-64.4	13.1
2026-01-08 06:37:50.655273	127.9	31.1	-66.4	14.4
2026-01-08 06:37:52.896786	128.6	30.8	-66.3	13.7
2026-01-08 06:37:55.133317	129.3	30.6	-66.1	13.4
2026-01-08 06:37:57.373326	129.9	30.4	-65.5	12.9
2026-01-08 06:37:59.607848	130.6	30.1	-65.7	14.0
2026-01-08 06:38:01.843874	131.2	29.9	-65.8	14.0
2026-01-08 06:38:04.085903	131.9	29.6	-65.8	13.6
2026-01-08 06:38:06.333419	132.5	29.4	-65.8	13.7
2026-01-08 06:38:08.577429	133.1	29.1	-64.8	12.0
2026-01-08 06:38:10.821439	133.7	28.9	-64.8	12.2
2026-01-08 06:38:13.064953	134.3	28.6	-64.8	13.1
2026-01-08 06:38:15.308972	134.9	28.4	-65.3	12.7
2026-01-08 06:38:17.549981	135.5	28.1	-65.5	14.1
2026-01-08 06:38:19.781491	136.1	27.9	-64.6	12.0
2026-01-08 06:38:22.019518	136.6	27.6	-65.6	14.1
2026-01-08 06:38:24.258040	137.2	27.4	-66.1	14.7
2026-01-08 06:38:26.496048	137.7	27.1	-65.7	14.1
2026-01-08 06:38:28.732073	138.3	26.8	-65.8	14.1
2026-01-08 06:38:30.970594	138.8	26.6	-66.3	14.8
2026-01-08 06:38:33.212107	139.3	26.3	-65.3	12.8
2026-01-08 06:38:35.451620	139.8	26.1	-65.7	14.3
2026-01-08 06:38:37.691125	140.3	25.8	-65.5	12.9
2026-01-08 06:38:39.926637	140.8	25.6	-65.8	14.3
2026-01-08 06:38:42.164655	141.3	25.3	-65.0	13.9
2026-01-08 06:38:44.405664	141.8	25.0	-65.6	13.8
2026-01-08 06:38:46.643176	142.3	24.8	-65.8	14.0
2026-01-08 06:38:48.881680	142.7	24.5	-66.1	13.7
2026-01-08 06:38:51.121697	143.2	24.3	-65.8	13.9
2026-01-08 06:38:53.359201	143.6	24.0	-65.2	13.5
2026-01-08 06:38:55.600723	144.1	23.8	-65.6	13.9
2026-01-08 06:38:57.838245	144.5	23.5	-66.1	14.5
2026-01-08 06:39:00.076253	144.9	23.3	-65.9	13.2
2026-01-08 06:39:02.313261	145.4	23.0	-66.1	14.0
2026-01-08 06:39:04.552281	145.8	22.8	-66.4	13.3
2026-01-08 06:39:06.791814	146.2	22.5	-65.9	14.0
2026-01-08 06:39:09.027822	146.6	22.3	-66.4	13.7
2026-01-08 06:39:11.266830	147.0	22.0	-66.2	13.5
2026-01-08 06:39:13.505840	147.4	21.8	-67.0	14.6
2026-01-08 06:39:15.746866	147.8	21.5	-66.0	12.4
2026-01-08 06:39:17.985379	148.2	21.3	-65.9	12.3
2026-01-08 06:39:20.227893	148.5	21.1	-66.4	13.5
2026-01-08 06:39:22.471903	148.9	20.8	-65.8	12.8
2026-01-08 06:39:24.714921	149.3	20.6	-66.0	12.3
2026-01-08 06:39:26.958435	149.6	20.3	-66.3	13.3
2026-01-08 06:39:29.202445	150.0	20.1	-65.8	13.1
2026-01-08 06:39:31.446454	150.3	19.9	-66.7	13.3
2026-01-08 06:39:33.686967	150.7	19.6	-66.3	13.4
2026-01-08 06:39:35.918470	151.0	19.4	-66.8	13.4
2026-01-08 06:39:38.150973	151.3	19.2	-65.8	11.7
2026-01-08 06:39:40.382980	151.7	18.9	-66.5	13.0
2026-01-08 06:39:42.620997	152.0	18.7	-65.8	12.2
2026-01-08 06:39:44.859510	152.3	18.5	-67.1	13.9
2026-01-08 06:39:47.094022	152.6	18.3	-66.3	13.1
2026-01-08 06:39:49.332039	152.9	18.0	-66.8	14.0
2026-01-08 06:39:51.567551	153.2	17.8	-66.6	13.5
2026-01-08 06:39:53.808056	153.5	17.6	-66.5	12.8
2026-01-08 06:39:56.043568	153.8	17.4	-66.3	13.3
2026-01-08 06:39:58.280071	154.1	17.1	-66.7	13.4
2026-01-08 06:40:00.516584	154.4	16.9	-66.6	12.1
2026-01-08 06:40:02.754620	154.7	16.7	-66.6	12.0
2026-01-08 06:40:04.993637	154.9	16.5	-66.6	13.0
2026-01-08 06:40:07.228645	155.2	16.3	-66.4	12.6
2026-01-08 06:40:09.469158	155.5	16.1	-66.8	12.8
2026-01-08 06:40:11.707671	155.8	15.8	-67.1	13.0
2026-01-08 06:40:13.945679	156.0	15.6	-67.0	11.4
2026-01-08 06:40:16.181687	156.3	15.4	-67.0	12.2
2026-01-08 06:40:18.419696	156.5	15.2	-66.7	10.8
2026-01-08 06:40:20.656712	156.8	15.0	-66.6	11.7
2026-01-08 06:40:22.896216	157.0	14.8	-66.9	11.6
2026-01-08 06:40:25.130224	157.3	14.6	-67.1	11.6
2026-01-08 06:40:27.366232	157.5	14.4	-66.8	11.0
2026-01-08 06:40:29.607241	157.8	14.2	-66.5	10.2
2026-01-08 06:40:31.843249	158.0	14.0	-66.9	11.1
2026-01-08 06:40:34.082761	158.2	13.8	-66.7	11.1
2026-01-08 06:40:36.316792	158.5	13.6	-67.0	11.9
2026-01-08 06:40:38.550800	158.7	13.4	-67.1	10.8
2026-01-08 06:40:40.787825	158.9	13.2	-67.0	10.6
2026-01-08 06:40:43.035340	159.1	13.0	-66.8	10.5
2026-01-08 06:40:45.277349	159.4	12.8	-66.9	11.5
2026-01-08 06:40:47.517366	159.6	12.6	-66.2	9.7
2026-01-08 06:40:49.758383	159.8	12.4	-66.8	10.5
2026-01-08 06:40:52.005401	160.0	12.2	-67.1	11.5
2026-01-08 06:40:54.243922	160.2	12.0	-66.9	10.8
2026-01-08 06:40:56.481435	160.4	11.8	-67.0	11.0
2026-01-08 06:40:58.724948	160.6	11.7	-66.7	11.3
2026-01-08 06:41:00.969463	160.8	11.5	-66.7	10.8
2026-01-08 06:41:03.212481	161.0	11.3	-66.8	10.7
2026-01-08 06:41:05.445489	161.2	11.1	-66.5	11.4
2026-01-08 06:41:07.679992	161.4	10.9	-66.7	10.9
2026-01-08 06:41:09.912503	161.6	10.7	-65.8	9.7
2026-01-08 06:41:12.145538	161.8	10.6	-67.0	11.2
2026-01-08 06:41:14.378067	162.0	10.4	-65.9	9.0
2026-01-08 06:41:16.607595	162.2	10.2	-66.8	10.5
2026-01-08 06:41:18.842603	162.3	10.0	-66.6	9.7
2026-01-08 06:41:21.076114	162.5	9.8	-66.4	10.1
2026-01-08 06:41:23.311130	162.7	9.7	-66.5	10.2
2026-01-08 06:41:25.550643	162.9	9.5	-66.5	9.0
2026-01-08 06:41:27.789659	163.1	9.3	-66.3	9.2
2026-01-08 06:41:30.028677	163.2	9.2	-66.7	9.8
2026-01-08 06:41:32.264694	163.4	9.0	-66.5	9.3
2026-01-08 06:41:34.495701	163.6	8.8	-66.1	9.0
2026-01-08 06:41:36.734718	163.7	8.6	-66.6	8.9
2026-01-08 06:41:38.969221	163.9	8.5	-65.9	9.0
2026-01-08 06:41:41.202725	164.1	8.3	-66.3	8.8
2026-01-08 06:41:43.437228	164.2	8.1	-66.2	8.5
2026-01-08 06:41:45.673236	164.4	8.0	-66.2	8.2
2026-01-08 06:41:47.907747	164.5	7.8	-65.9	8.9
2026-01-08 06:41:50.142260	164.7	7.6	-66.5	7.3
2026-01-08 06:41:52.375780	164.8	7.5	-65.5	6.9
2026-01-08 06:41:54.611787	165.0	7.3	-64.8	6.7
2026-01-08 06:41:56.849805	165.1	7.2	-65.1	7.0
2026-01-08 06:41:59.087326	165.3	7.0	-65.3	6.8
2026-01-08 06:42:01.321843	165.4	6.8	-65.9	5.2
2026-01-08 06:42:03.559360	165.6	6.7	-65.4	7.1
2026-01-08 06:42:05.791863	165.7	6.5	-65.9	7.5
2026-01-08 06:42:08.027871	165.9	6.4	-65.8	7.3
2026-01-08 06:42:10.263382	166.0	6.2	-66.2	5.4
2026-01-08 06:42:12.508906	166.2	6.1	-66.0	6.6
2026-01-08 06:42:14.754916	166.3	5.9	-68.7	6.8
2026-01-08 06:42:16.998438	166.4	5.8	-69.7	0.0
2026-01-08 06:42:19.240960	166.6	5.6	-69.8	0.0
2026-01-08 06:42:21.485474	166.7	5.4	-70.0	0.0
2026-01-08 06:42:23.725483	166.8	5.3	-72.5	0.0
2026-01-08 06:42:25.960004	167.0	5.1	-72.5	0.0
2026-01-08 06:42:28.203013	167.1	5.0	-72.3	0.0
#Closed at: 2026-01-08 06:30:14.247570