passes_logs/2026/01/08/PlanumMoscow/PlanumMoscow__20260108_175846_METEOR-M2_3_rec.log

#Pass ID: 20260108_175846_METEOR-M2 3
#Satellite: METEOR-M2 3
#Configuration: METEOR-M2 3
#Start time: 2026-01-08 17:58:51.625302

#LorettStation: 1.0.0 05.05.2024
#Station: PlanumMoscow
#Location: 37.6253844 lon 55.6713361 lat
#TLE: 1 57166U 23091A   25293.99389264  .00000062  00000+0  46113-4 0  9997
#TLE: 2 57166  98.6457 348.4330 0004759 135.3141 224.8422 14.24016546120475

#Time	Az	El	Level	SNR
2026-01-08 18:02:30.033662	174.4	29.7	-64.3	14.2
2026-01-08 18:02:32.277680	174.5	30.1	-64.6	14.7
2026-01-08 18:02:34.520697	174.7	30.5	-65.0	14.4
2026-01-08 18:02:36.755705	174.8	31.0	-64.8	14.3
2026-01-08 18:02:38.991722	175.0	31.4	-65.0	14.7
2026-01-08 18:02:41.228235	175.1	31.8	-65.4	14.7
2026-01-08 18:02:43.462748	175.3	32.3	-65.3	15.2
2026-01-08 18:02:45.697779	175.5	32.8	-65.5	15.1
2026-01-08 18:02:47.932803	175.6	33.2	-65.2	15.1
2026-01-08 18:02:50.168314	175.8	33.7	-65.7	15.1
2026-01-08 18:02:52.402321	176.0	34.2	-65.9	15.5
2026-01-08 18:02:54.639834	176.2	34.7	-65.7	15.3
2026-01-08 18:02:56.873841	176.4	35.2	-65.2	15.3
2026-01-08 18:02:59.106856	176.6	35.7	-65.4	15.0
2026-01-08 18:03:01.343369	176.8	36.2	-64.9	14.8
2026-01-08 18:03:03.575375	177.0	36.7	-65.6	15.5
2026-01-08 18:03:05.813390	177.2	37.3	-65.3	14.7
2026-01-08 18:03:08.046396	177.5	37.8	-65.7	15.0
2026-01-08 18:03:10.282900	177.7	38.4	-65.3	13.8
2026-01-08 18:03:12.517403	177.9	38.9	-65.5	14.8
2026-01-08 18:03:14.756420	178.2	39.5	-65.5	15.5
2026-01-08 18:03:16.996949	178.4	40.1	-65.4	15.6
2026-01-08 18:03:19.234454	178.7	40.7	-65.8	14.7
2026-01-08 18:03:21.471966	179.0	41.3	-65.3	15.0
2026-01-08 18:03:23.709974	179.3	41.9	-66.2	15.5
2026-01-08 18:03:25.947495	179.6	42.5	-65.9	14.3
2026-01-08 18:03:28.184999	179.9	43.1	-66.1	15.0
2026-01-08 18:03:30.421520	180.2	43.7	-66.0	15.2
2026-01-08 18:03:32.657042	180.5	44.4	-66.3	14.8
2026-01-08 18:03:34.897565	180.9	45.0	-66.0	15.0
2026-01-08 18:03:37.141071	181.2	45.7	-65.8	14.7
2026-01-08 18:03:39.385584	181.6	46.3	-66.2	14.0
2026-01-08 18:03:41.628106	182.0	47.0	-66.3	14.0
2026-01-08 18:03:43.872124	182.4	47.7	-65.3	12.5
2026-01-08 18:03:46.116133	182.8	48.4	-66.5	14.4
2026-01-08 18:03:48.357664	183.3	49.1	-66.7	13.9
2026-01-08 18:03:50.599690	183.8	49.8	-66.2	13.4
2026-01-08 18:03:52.832697	184.3	50.6	-67.0	13.2
2026-01-08 18:03:55.070209	184.8	51.3	-66.9	13.8
2026-01-08 18:03:57.305728	185.3	52.1	-66.9	12.7
2026-01-08 18:03:59.542241	185.9	52.8	-67.1	13.2
2026-01-08 18:04:01.778753	186.5	53.6	-67.2	13.2
2026-01-08 18:04:04.013266	187.1	54.3	-67.5	13.0
2026-01-08 18:04:06.248770	187.8	55.1	-67.1	12.1
2026-01-08 18:04:08.483785	188.5	55.9	-67.1	12.3
2026-01-08 18:04:10.718289	189.2	56.7	-67.5	13.0
2026-01-08 18:04:12.954296	190.0	57.5	-67.8	12.7
2026-01-08 18:04:15.191313	190.8	58.3	-67.8	12.9
2026-01-08 18:04:17.429817	191.7	59.1	-67.9	12.7
2026-01-08 18:04:19.667825	192.7	59.9	-67.9	12.4
2026-01-08 18:04:21.903833	193.7	60.8	-67.9	12.8
2026-01-08 18:04:24.144347	194.7	61.6	-67.8	12.9
2026-01-08 18:04:26.388356	195.9	62.4	-67.8	12.7
2026-01-08 18:04:28.623859	197.1	63.2	-68.1	13.2
2026-01-08 18:04:30.861372	198.4	64.1	-68.1	13.2
2026-01-08 18:04:33.097895	199.8	64.9	-68.2	13.3
2026-01-08 18:04:35.335912	201.3	65.7	-68.3	13.0
2026-01-08 18:04:37.571416	203.0	66.5	-68.7	12.6
2026-01-08 18:04:39.807423	204.7	67.3	-68.7	12.6
2026-01-08 18:04:42.046936	206.6	68.1	-68.7	13.1
2026-01-08 18:04:44.285449	208.6	68.8	-68.5	12.4
2026-01-08 18:04:46.523953	210.8	69.6	-68.6	12.7
2026-01-08 18:04:48.760474	213.2	70.3	-68.3	12.5
2026-01-08 18:04:51.001987	215.8	71.0	-68.3	11.8
2026-01-08 18:04:53.238500	218.5	71.6	-68.5	12.4
2026-01-08 18:04:55.481005	221.5	72.3	-68.0	12.8
2026-01-08 18:04:57.717020	224.7	72.8	-67.8	13.7
2026-01-08 18:04:59.956524	228.1	73.3	-67.9	13.8
2026-01-08 18:05:02.194533	231.7	73.8	-67.9	13.6
2026-01-08 18:05:04.435550	235.6	74.2	-67.8	13.1
2026-01-08 18:05:06.672073	239.6	74.5	-68.1	13.6
2026-01-08 18:05:08.908577	243.8	74.8	-68.2	13.6
2026-01-08 18:05:11.148091	248.1	75.0	-68.6	13.5
2026-01-08 18:05:13.382601	252.5	75.1	-68.7	12.1
2026-01-08 18:05:15.619609	256.9	75.1	-68.7	12.1
2026-01-08 18:05:17.863627	261.3	75.0	-68.3	12.4
2026-01-08 18:05:20.109142	265.6	74.8	-67.9	12.6
2026-01-08 18:05:22.352655	269.8	74.6	-67.5	12.0
2026-01-08 18:05:24.594168	273.9	74.3	-67.5	12.8
2026-01-08 18:05:26.838178	277.7	73.9	-67.7	12.7
2026-01-08 18:05:29.082195	281.4	73.4	-68.1	12.1
2026-01-08 18:05:31.327205	284.8	72.9	-67.5	10.5
2026-01-08 18:05:33.567222	288.1	72.3	-68.0	11.0
2026-01-08 18:05:35.805726	291.1	71.7	-68.1	10.5
2026-01-08 18:05:38.041743	293.9	71.1	-68.3	9.9
2026-01-08 18:05:40.279255	296.4	70.4	-68.7	10.1
2026-01-08 18:05:42.516759	298.8	69.7	-68.2	10.9
2026-01-08 18:05:44.755273	301.1	69.0	-67.6	11.4
2026-01-08 18:05:46.992777	303.1	68.2	-67.3	10.1
2026-01-08 18:05:49.226785	305.0	67.4	-67.6	9.9
2026-01-08 18:05:51.460792	306.8	66.6	-67.7	11.8
2026-01-08 18:05:53.695799	308.4	65.8	-67.9	11.4
2026-01-08 18:05:55.937808	310.0	65.0	-68.2	12.2
2026-01-08 18:05:58.170311	311.4	64.2	-67.2	10.7
2026-01-08 18:06:00.400823	312.7	63.4	-66.5	9.4
2026-01-08 18:06:02.638327	313.9	62.6	-65.9	10.4
2026-01-08 18:06:04.870838	315.1	61.8	-66.4	8.9
2026-01-08 18:06:07.106856	316.2	60.9	-65.9	8.8
2026-01-08 18:06:09.339359	317.2	60.1	-66.3	10.7
2026-01-08 18:06:11.571366	318.1	59.3	-67.0	10.8
2026-01-08 18:06:13.807373	319.0	58.5	-67.1	10.0
2026-01-08 18:06:16.043390	319.9	57.7	-67.0	9.7
2026-01-08 18:06:18.278893	320.7	56.9	-67.0	10.4
2026-01-08 18:06:20.513405	321.4	56.1	-66.9	11.2
2026-01-08 18:06:22.748412	322.1	55.3	-67.1	10.9
2026-01-08 18:06:24.984924	322.8	54.5	-67.2	10.6
2026-01-08 18:06:27.225437	323.4	53.8	-67.4	11.0
2026-01-08 18:06:29.461445	324.0	53.0	-67.3	11.7
2026-01-08 18:06:31.696460	324.6	52.3	-66.3	11.2
2026-01-08 18:06:33.926970	325.2	51.5	-66.0	9.7
2026-01-08 18:06:36.162483	325.7	50.8	-64.9	7.5
2026-01-08 18:06:38.401491	326.2	50.1	-66.2	9.2
2026-01-08 18:06:40.638003	326.6	49.3	-66.8	10.3
2026-01-08 18:06:42.881021	327.1	48.6	-66.7	11.5
2026-01-08 18:06:45.126041	327.5	47.9	-66.7	12.0
2026-01-08 18:06:47.370059	327.9	47.2	-66.4	10.5
2026-01-08 18:06:49.614068	328.3	46.6	-66.8	10.2
2026-01-08 18:06:51.856590	328.7	45.9	-66.6	11.0
2026-01-08 18:06:54.094111	329.1	45.2	-67.0	13.1
2026-01-08 18:06:56.328118	329.4	44.6	-66.5	12.5
2026-01-08 18:06:58.564126	329.8	43.9	-66.5	13.1
2026-01-08 18:07:00.797646	330.1	43.3	-66.1	12.3
2026-01-08 18:07:03.032653	330.4	42.7	-65.7	10.5
2026-01-08 18:07:05.266165	330.7	42.1	-65.0	9.9
2026-01-08 18:07:07.501677	331.0	41.5	-65.5	10.7
2026-01-08 18:07:09.745687	331.3	40.9	-66.3	12.9
2026-01-08 18:07:11.988705	331.6	40.3	-65.7	10.9
2026-01-08 18:07:14.223757	331.8	39.7	-65.1	11.0
2026-01-08 18:07:16.459260	332.1	39.2	-64.9	12.0
2026-01-08 18:07:18.694764	332.3	38.6	-65.8	12.2
2026-01-08 18:07:20.934773	332.5	38.1	-65.4	12.3
2026-01-08 18:07:23.169780	332.8	37.5	-65.1	11.9
2026-01-08 18:07:25.404788	333.0	37.0	-65.3	11.3
2026-01-08 18:07:27.640796	333.2	36.5	-65.5	12.1
2026-01-08 18:07:29.880805	333.4	35.9	-64.0	9.7
2026-01-08 18:07:32.116819	333.6	35.4	-63.8	11.4
2026-01-08 18:07:34.348330	333.8	34.9	-64.8	11.6
2026-01-08 18:07:36.581337	334.0	34.4	-65.6	12.6
2026-01-08 18:07:38.815345	334.2	34.0	-65.4	11.5
2026-01-08 18:07:41.054353	334.4	33.5	-64.5	11.7
2026-01-08 18:07:43.287864	334.5	33.0	-64.1	11.5
2026-01-08 18:07:45.521383	334.7	32.5	-64.4	12.3
2026-01-08 18:07:47.756887	334.9	32.1	-64.7	11.4
2026-01-08 18:07:49.991895	335.0	31.6	-65.1	12.3
2026-01-08 18:07:52.228903	335.2	31.2	-65.0	11.7
2026-01-08 18:07:54.463431	335.3	30.8	-65.2	10.6
2026-01-08 18:07:56.699935	335.5	30.3	-65.1	12.2
2026-01-08 18:07:58.932445	335.6	29.9	-64.7	11.7
2026-01-08 18:08:01.170461	335.8	29.5	-64.6	11.1
2026-01-08 18:08:03.405971	335.9	29.1	-64.7	11.1
2026-01-08 18:08:05.643980	336.1	28.7	-65.1	11.1
2026-01-08 18:08:07.878987	336.2	28.3	-64.7	10.4
2026-01-08 18:08:10.111498	336.3	27.9	-66.0	12.3
2026-01-08 18:08:12.354507	336.4	27.5	-65.3	10.8
2026-01-08 18:08:14.597036	336.6	27.1	-65.6	12.0
2026-01-08 18:08:16.839585	336.7	26.7	-65.2	12.5
2026-01-08 18:08:19.082604	336.8	26.3	-65.4	13.3
2026-01-08 18:08:21.332110	336.9	26.0	-65.5	12.7
2026-01-08 18:08:23.576120	337.0	25.6	-66.3	12.6
2026-01-08 18:08:25.811633	337.1	25.2	-66.0	11.7
2026-01-08 18:08:28.049154	337.3	24.9	-66.5	12.4
2026-01-08 18:08:30.284178	337.4	24.5	-65.4	11.3
2026-01-08 18:08:32.521194	337.5	24.2	-65.5	11.9
2026-01-08 18:08:34.764213	337.6	23.9	-66.4	13.3
2026-01-08 18:08:37.006727	337.7	23.5	-66.0	12.8
2026-01-08 18:08:39.238733	337.8	23.2	-65.6	12.0
2026-01-08 18:08:41.474742	337.9	22.9	-66.1	14.0
2026-01-08 18:08:43.712751	338.0	22.5	-66.0	12.5
2026-01-08 18:08:45.948263	338.0	22.2	-66.0	11.3
2026-01-08 18:08:48.183775	338.1	21.9	-66.7	11.9
2026-01-08 18:08:50.417791	338.2	21.6	-65.8	11.0
2026-01-08 18:08:52.653294	338.3	21.3	-66.4	12.9
2026-01-08 18:08:54.891302	338.4	21.0	-66.1	11.5
2026-01-08 18:08:57.127814	338.5	20.7	-65.6	12.1
2026-01-08 18:08:59.362822	338.6	20.4	-66.3	12.8
2026-01-08 18:09:01.600335	338.6	20.1	-66.4	12.7
2026-01-08 18:09:03.833838	338.7	19.8	-66.4	12.9
2026-01-08 18:09:06.069351	338.8	19.5	-65.1	10.1
2026-01-08 18:09:08.312864	338.9	19.2	-66.1	10.8
2026-01-08 18:09:10.547375	339.0	18.9	-66.3	11.6
2026-01-08 18:09:12.780383	339.0	18.7	-66.5	12.1
2026-01-08 18:09:15.015398	339.1	18.4	-66.2	11.2
2026-01-08 18:09:17.254903	339.2	18.1	-66.4	12.2
2026-01-08 18:09:19.489414	339.3	17.9	-66.2	10.4
2026-01-08 18:09:21.720916	339.3	17.6	-65.9	10.4
2026-01-08 18:09:23.956430	339.4	17.3	-66.2	11.6
2026-01-08 18:09:26.192457	339.5	17.1	-65.9	10.5
2026-01-08 18:09:28.425473	339.5	16.8	-65.4	9.9
2026-01-08 18:09:30.660993	339.6	16.6	-66.2	11.0
2026-01-08 18:09:32.896000	339.7	16.3	-66.1	11.4
2026-01-08 18:09:35.133512	339.7	16.1	-65.7	9.9
2026-01-08 18:09:37.370024	339.8	15.8	-66.6	10.6
2026-01-08 18:09:39.603535	339.9	15.6	-66.6	10.3
2026-01-08 18:09:41.844587	339.9	15.3	-66.7	10.8
2026-01-08 18:09:44.088597	340.0	15.1	-65.5	7.6
2026-01-08 18:09:46.332615	340.0	14.8	-66.3	10.1
2026-01-08 18:09:48.576625	340.1	14.6	-66.3	9.9
2026-01-08 18:09:50.820635	340.2	14.4	-65.9	8.6
2026-01-08 18:09:53.069149	340.2	14.1	-66.4	10.0
2026-01-08 18:09:55.313655	340.3	13.9	-65.6	9.4
2026-01-08 18:09:57.552671	340.3	13.7	-65.4	8.9
2026-01-08 18:09:59.791191	340.4	13.5	-66.0	10.3
2026-01-08 18:10:02.025230	340.4	13.2	-65.6	9.8
2026-01-08 18:10:04.259734	340.5	13.0	-65.9	9.3
2026-01-08 18:10:06.496246	340.5	12.8	-65.6	8.5
2026-01-08 18:10:08.730758	340.6	12.6	-65.7	8.4
2026-01-08 18:10:10.965269	340.7	12.4	-66.1	9.3
2026-01-08 18:10:13.197772	340.7	12.2	-65.6	6.3
2026-01-08 18:10:15.432275	340.8	12.0	-66.2	8.3
2026-01-08 18:10:17.667788	340.8	11.8	-66.7	9.1
2026-01-08 18:10:19.901300	340.9	11.5	-65.9	8.5
2026-01-08 18:10:22.141308	340.9	11.3	-64.7	4.9
2026-01-08 18:10:24.373818	341.0	11.1	-66.7	9.2
2026-01-08 18:10:26.612323	341.0	10.9	-65.6	6.8
2026-01-08 18:10:28.851340	341.1	10.7	-66.2	8.3
2026-01-08 18:10:31.087356	341.1	10.5	-65.8	7.2
2026-01-08 18:10:33.324877	341.1	10.3	-66.1	9.0
2026-01-08 18:10:35.559884	341.2	10.1	-66.1	8.6
2026-01-08 18:10:37.798395	341.2	10.0	-65.7	6.0
2026-01-08 18:10:40.036907	341.3	9.8	-66.9	7.4
2026-01-08 18:10:42.273411	341.3	9.6	-66.6	6.9
2026-01-08 18:10:44.509923	341.4	9.4	-66.6	7.0
2026-01-08 18:10:46.748932	341.4	9.2	-66.2	5.6
2026-01-08 18:10:48.984940	341.5	9.0	-65.5	6.3
2026-01-08 18:10:51.221452	341.5	8.8	-65.5	6.0
2026-01-08 18:10:53.459468	341.5	8.6	-64.7	6.6
2026-01-08 18:10:55.695477	341.6	8.5	-64.0	2.4
2026-01-08 18:10:57.935503	341.6	8.3	-65.0	6.1
2026-01-08 18:11:00.170520	341.7	8.1	-65.4	7.2
2026-01-08 18:11:02.404041	341.7	7.9	-65.0	5.7
2026-01-08 18:11:04.643545	341.8	7.7	-65.0	5.0
2026-01-08 18:11:06.888051	341.8	7.6	-62.7	0.0
2026-01-08 18:11:09.131573	341.8	7.4	-65.2	5.0
2026-01-08 18:11:11.375087	341.9	7.2	-62.4	0.0
2026-01-08 18:11:13.618103	341.9	7.0	-64.0	5.7
2026-01-08 18:11:15.861120	342.0	6.9	-64.8	6.2
2026-01-08 18:11:18.105138	342.0	6.7	-63.8	2.4
2026-01-08 18:11:20.349644	342.0	6.5	-63.3	5.9
2026-01-08 18:11:22.585660	342.1	6.4	-62.8	4.1
2026-01-08 18:11:24.821172	342.1	6.2	-63.9	6.1
2026-01-08 18:11:27.054675	342.1	6.0	-65.4	6.5
2026-01-08 18:11:29.290691	342.2	5.9	-68.8	0.0
2026-01-08 18:11:31.524708	342.2	5.7	-67.9	0.0
2026-01-08 18:11:33.762228	342.3	5.5	-69.5	0.0
2026-01-08 18:11:35.998236	342.3	5.4	-68.1	0.0
2026-01-08 18:11:38.232252	342.3	5.2	-68.1	0.0
2026-01-08 18:11:40.463770	342.4	5.1	-68.5	0.0
#Closed at: 2026-01-08 17:58:46.626422