passes_logs/2026/01/08/PlanumMoscow/PlanumMoscow__20260108_185157_METOP-C_rec.log

#Pass ID: 20260108_185157_METOP-C
#Satellite: METOP-C
#Configuration: METOP-C
#Start time: 2026-01-08 18:52:02.921225

#LorettStation: 1.0.0 05.05.2024
#Station: PlanumMoscow
#Location: 37.6253844 lon 55.6713361 lat
#TLE: 1 43689U 18087A   25293.88981035  .00000265  00000+0  14109-3 0  9997
#TLE: 2 43689  98.7006 352.4487 0002041 122.1097 238.0279 14.21482740360838

#Time	Az	El	Level	SNR
2026-01-08 18:55:41.359757	208.1	25.8	-65.1	0.0
2026-01-08 18:55:43.590268	208.5	26.1	-65.6	0.0
2026-01-08 18:55:45.820275	208.9	26.4	-63.9	0.0
2026-01-08 18:55:48.052283	209.4	26.7	-65.1	0.0
2026-01-08 18:55:50.281785	209.8	27.0	-63.3	0.0
2026-01-08 18:55:52.512791	210.2	27.3	-66.0	0.0
2026-01-08 18:55:54.743806	210.7	27.6	-65.7	0.0
2026-01-08 18:55:56.975309	211.2	27.9	-66.0	0.0
2026-01-08 18:55:59.211821	211.6	28.2	-65.7	0.0
2026-01-08 18:56:01.444324	212.1	28.6	-66.6	0.0
2026-01-08 18:56:03.677332	212.6	28.9	-67.3	0.0
2026-01-08 18:56:05.909355	213.1	29.2	-66.8	0.0
2026-01-08 18:56:08.145885	213.6	29.5	-66.6	0.0
2026-01-08 18:56:10.378388	214.1	29.8	-66.8	0.0
2026-01-08 18:56:12.614908	214.7	30.1	-67.3	0.0
2026-01-08 18:56:14.851916	215.2	30.4	-67.0	0.0
2026-01-08 18:56:17.085923	215.8	30.7	-65.7	0.0
2026-01-08 18:56:19.321930	216.3	31.1	-65.8	0.0
2026-01-08 18:56:21.555946	216.9	31.4	-66.6	0.0
2026-01-08 18:56:23.790962	217.5	31.7	-65.6	0.0
2026-01-08 18:56:26.025978	218.1	32.0	-65.4	0.0
2026-01-08 18:56:28.262491	218.7	32.3	-64.8	0.0
2026-01-08 18:56:30.502499	219.3	32.6	-65.5	0.0
2026-01-08 18:56:32.746509	219.9	32.9	-66.2	0.0
2026-01-08 18:56:34.981525	220.6	33.3	-67.0	0.0
2026-01-08 18:56:37.222534	221.2	33.6	-65.5	0.0
2026-01-08 18:56:39.465551	221.9	33.9	-64.0	0.0
2026-01-08 18:56:41.705567	222.6	34.2	-64.5	0.0
2026-01-08 18:56:43.940575	223.3	34.5	-65.6	0.0
2026-01-08 18:56:46.174086	224.0	34.8	-64.4	0.0
2026-01-08 18:56:48.405100	224.7	35.1	-65.9	0.0
2026-01-08 18:56:50.638603	225.4	35.4	-65.1	0.0
2026-01-08 18:56:52.873107	226.2	35.7	-64.7	0.0
2026-01-08 18:56:55.106610	226.9	36.0	-65.1	0.0
2026-01-08 18:56:57.343122	227.7	36.3	-64.3	0.0
2026-01-08 18:56:59.576633	228.5	36.6	-64.8	0.0
2026-01-08 18:57:01.811145	229.3	36.9	-66.0	0.0
2026-01-08 18:57:04.045152	230.1	37.2	-64.9	0.0
2026-01-08 18:57:06.276663	230.9	37.5	-64.6	0.0
2026-01-08 18:57:08.512176	231.8	37.8	-63.7	0.0
2026-01-08 18:57:10.747679	232.6	38.0	-65.2	0.0
2026-01-08 18:57:12.984191	233.5	38.3	-66.2	0.0
2026-01-08 18:57:15.225713	234.4	38.6	-62.2	0.0
2026-01-08 18:57:17.469228	235.3	38.8	-64.0	0.0
2026-01-08 18:57:19.711245	236.2	39.1	-63.0	0.0
2026-01-08 18:57:21.953270	237.1	39.3	-65.5	0.0
2026-01-08 18:57:24.185277	238.1	39.6	-63.3	0.0
2026-01-08 18:57:26.416788	239.0	39.8	-64.0	0.0
2026-01-08 18:57:28.647307	240.0	40.0	-62.6	0.0
2026-01-08 18:57:30.877818	241.0	40.2	-65.9	0.0
2026-01-08 18:57:33.110826	242.0	40.4	-63.9	0.0
2026-01-08 18:57:35.345345	243.0	40.6	-65.4	0.0
2026-01-08 18:57:37.578856	244.0	40.8	-63.7	0.0
2026-01-08 18:57:39.812864	245.0	41.0	-63.7	0.0
2026-01-08 18:57:42.047872	246.1	41.2	-64.7	0.0
2026-01-08 18:57:44.281375	247.1	41.4	-63.6	0.0
2026-01-08 18:57:46.513382	248.2	41.5	-61.9	0.0
2026-01-08 18:57:48.752895	249.3	41.6	-64.8	0.0
2026-01-08 18:57:50.988407	250.3	41.8	-64.7	0.0
2026-01-08 18:57:53.220413	251.4	41.9	-64.3	0.0
2026-01-08 18:57:55.453421	252.5	42.0	-65.1	0.0
2026-01-08 18:57:57.690933	253.6	42.1	-65.4	0.0
2026-01-08 18:57:59.923436	254.7	42.2	-65.9	0.0
2026-01-08 18:58:02.156452	255.9	42.3	-63.7	0.0
2026-01-08 18:58:04.389467	257.0	42.3	-64.5	0.0
2026-01-08 18:58:06.623475	258.1	42.4	-66.3	0.0
2026-01-08 18:58:08.857987	259.2	42.4	-65.3	0.0
2026-01-08 18:58:11.093500	260.4	42.5	-66.0	0.0
2026-01-08 18:58:13.325506	261.5	42.5	-65.4	0.0
2026-01-08 18:58:15.558017	262.6	42.5	-66.8	0.0
2026-01-08 18:58:17.794049	263.7	42.5	-65.3	0.0
2026-01-08 18:58:20.024551	264.9	42.4	-65.5	0.0
2026-01-08 18:58:22.256559	266.0	42.4	-66.5	0.0
2026-01-08 18:58:24.487061	267.1	42.4	-65.7	0.0
2026-01-08 18:58:26.728583	268.2	42.3	-66.6	0.0
2026-01-08 18:58:28.971113	269.4	42.2	-66.6	0.0
2026-01-08 18:58:31.215123	270.5	42.2	-67.9	0.0
2026-01-08 18:58:33.459142	271.6	42.1	-66.4	0.0
2026-01-08 18:58:35.703151	272.7	42.0	-67.2	0.0
2026-01-08 18:58:37.947665	273.8	41.8	-66.3	0.0
2026-01-08 18:58:40.192171	274.9	41.7	-65.1	0.0
2026-01-08 18:58:42.432692	276.0	41.6	-64.5	0.0
2026-01-08 18:58:44.668195	277.0	41.4	-67.1	0.0
2026-01-08 18:58:46.899698	278.1	41.3	-66.9	0.0
2026-01-08 18:58:49.133713	279.1	41.1	-67.2	0.0
2026-01-08 18:58:51.366720	280.2	40.9	-66.7	0.0
2026-01-08 18:58:53.597728	281.2	40.7	-67.6	0.0
2026-01-08 18:58:55.831743	282.2	40.5	-67.5	0.0
2026-01-08 18:58:58.064265	283.2	40.3	-67.3	0.0
2026-01-08 18:59:00.292776	284.2	40.1	-66.6	0.0
2026-01-08 18:59:02.524783	285.1	39.9	-65.0	0.0
2026-01-08 18:59:04.760790	286.1	39.7	-65.0	0.0
2026-01-08 18:59:06.992797	287.0	39.5	-67.4	0.0
2026-01-08 18:59:09.227805	288.0	39.2	-67.5	0.0
2026-01-08 18:59:11.459308	288.9	39.0	-67.9	0.0
2026-01-08 18:59:13.693328	289.8	38.7	-67.1	0.0
2026-01-08 18:59:15.931348	290.7	38.5	-66.9	0.0
2026-01-08 18:59:18.165356	291.6	38.2	-67.9	0.0
2026-01-08 18:59:20.397362	292.4	37.9	-66.8	0.0
2026-01-08 18:59:22.631370	293.3	37.6	-65.8	0.0
2026-01-08 18:59:24.862873	294.1	37.4	-67.2	0.0
2026-01-08 18:59:27.097384	294.9	37.1	-67.7	0.0
2026-01-08 18:59:29.326893	295.7	36.8	-68.3	0.0
2026-01-08 18:59:31.558901	296.5	36.5	-68.4	0.0
2026-01-08 18:59:33.787907	297.3	36.2	-68.3	0.0
2026-01-08 18:59:36.020923	298.1	35.9	-67.4	0.0
2026-01-08 18:59:38.252938	298.8	35.6	-64.4	0.0
2026-01-08 18:59:40.482960	299.5	35.3	-66.7	0.0
2026-01-08 18:59:42.715967	300.3	35.0	-67.0	0.0
2026-01-08 18:59:44.947975	301.0	34.7	-67.1	0.0
2026-01-08 18:59:47.181983	301.7	34.4	-66.7	0.0
2026-01-08 18:59:49.416495	302.4	34.1	-67.6	0.0
2026-01-08 18:59:51.658008	303.0	33.8	-66.2	0.0
2026-01-08 18:59:53.901521	303.7	33.5	-66.8	0.0
2026-01-08 18:59:56.146027	304.3	33.2	-65.0	0.0
2026-01-08 18:59:58.390036	305.0	32.8	-67.6	0.0
2026-01-08 19:00:00.625053	305.6	32.5	-68.3	0.0
2026-01-08 19:00:02.869566	306.2	32.2	-67.2	0.0
2026-01-08 19:00:05.113080	306.8	31.9	-67.2	0.0
2026-01-08 19:00:07.358090	307.4	31.6	-66.0	0.0
2026-01-08 19:00:09.596099	308.0	31.3	-68.0	0.0
2026-01-08 19:00:11.827123	308.5	31.0	-68.5	0.0
2026-01-08 19:00:14.064140	309.1	30.6	-68.1	0.0
2026-01-08 19:00:16.300148	309.6	30.3	-66.4	0.0
2026-01-08 19:00:18.534659	310.2	30.0	-67.4	0.0
2026-01-08 19:00:20.766162	310.7	29.7	-68.6	0.0
2026-01-08 19:00:22.999169	311.2	29.4	-68.6	0.0
2026-01-08 19:00:25.230672	311.7	29.1	-69.2	0.0
2026-01-08 19:00:27.466680	312.2	28.8	-68.9	0.0
2026-01-08 19:00:29.698199	312.7	28.5	-68.7	0.0
2026-01-08 19:00:31.933207	313.2	28.2	-68.6	0.0
2026-01-08 19:00:34.166222	313.6	27.9	-68.8	0.0
2026-01-08 19:00:36.397243	314.1	27.6	-67.4	0.0
2026-01-08 19:00:38.630244	314.6	27.3	-68.1	0.0
2026-01-08 19:00:40.862755	315.0	27.0	-68.7	0.0
2026-01-08 19:00:43.095761	315.4	26.7	-69.1	0.0
2026-01-08 19:00:45.328273	315.9	26.4	-69.4	0.0
2026-01-08 19:00:47.559280	316.3	26.1	-68.6	0.0
2026-01-08 19:00:49.790286	316.7	25.8	-68.2	0.0
2026-01-08 19:00:52.022798	317.1	25.5	-68.2	0.0
2026-01-08 19:00:54.254301	317.5	25.2	-68.6	0.0
2026-01-08 19:00:56.485811	317.9	24.9	-68.3	0.0
2026-01-08 19:00:58.717827	318.3	24.6	-68.6	0.0
2026-01-08 19:01:00.934096	318.6	24.4	-68.8	0.0
2026-01-08 19:01:03.167103	319.0	24.1	-68.9	0.0
2026-01-08 19:01:05.398110	319.4	23.8	-68.6	0.0
2026-01-08 19:01:07.628621	319.7	23.5	-68.8	0.0
2026-01-08 19:01:09.864132	320.1	23.2	-69.1	0.0
2026-01-08 19:01:12.106663	320.4	23.0	-67.6	0.0
2026-01-08 19:01:14.350682	320.8	22.7	-66.4	0.0
2026-01-08 19:01:16.593700	321.1	22.4	-68.6	0.0
2026-01-08 19:01:18.835213	321.4	22.2	-69.4	0.0
2026-01-08 19:01:21.066724	321.8	21.9	-69.0	0.0
2026-01-08 19:01:23.305228	322.1	21.6	-69.0	0.0
2026-01-08 19:01:25.535730	322.4	21.4	-69.1	0.0
2026-01-08 19:01:27.768747	322.7	21.1	-69.1	0.0
2026-01-08 19:01:30.000754	323.0	20.8	-67.8	0.0
2026-01-08 19:01:32.236770	323.3	20.6	-67.9	0.0
2026-01-08 19:01:34.469282	323.6	20.3	-67.4	0.0
2026-01-08 19:01:36.702784	323.9	20.1	-68.1	0.0
2026-01-08 19:01:38.940296	324.2	19.8	-68.2	0.0
2026-01-08 19:01:41.170816	324.4	19.6	-67.8	0.0
2026-01-08 19:01:43.402823	324.7	19.3	-68.2	0.0
2026-01-08 19:01:45.635335	325.0	19.1	-68.3	0.0
2026-01-08 19:01:47.866845	325.2	18.8	-68.5	0.0
2026-01-08 19:01:50.105870	325.5	18.6	-68.1	0.0
2026-01-08 19:01:52.340373	325.8	18.4	-67.3	0.0
2026-01-08 19:01:54.583887	326.0	18.1	-67.6	0.0
2026-01-08 19:01:56.826905	326.3	17.9	-68.4	0.0
2026-01-08 19:01:59.070914	326.5	17.6	-67.9	0.0
2026-01-08 19:02:01.313420	326.8	17.4	-68.2	0.0
2026-01-08 19:02:03.547940	327.0	17.2	-67.9	0.0
2026-01-08 19:02:05.784467	327.2	16.9	-67.8	0.0
2026-01-08 19:02:08.015969	327.5	16.7	-67.4	0.0
2026-01-08 19:02:10.245481	327.7	16.5	-67.5	0.0
2026-01-08 19:02:12.478993	327.9	16.3	-66.9	0.0
2026-01-08 19:02:14.712506	328.1	16.0	-67.3	0.0
2026-01-08 19:02:16.947522	328.4	15.8	-67.4	0.0
2026-01-08 19:02:19.179537	328.6	15.6	-67.7	0.0
2026-01-08 19:02:21.412040	328.8	15.4	-66.6	0.0
2026-01-08 19:02:23.651544	329.0	15.2	-67.8	0.0
2026-01-08 19:02:25.885560	329.2	15.0	-67.6	0.0
2026-01-08 19:02:28.117074	329.4	14.7	-67.2	0.0
2026-01-08 19:02:30.350089	329.6	14.5	-67.7	0.0
2026-01-08 19:02:32.585097	329.8	14.3	-67.7	0.0
2026-01-08 19:02:34.819104	330.0	14.1	-67.2	0.0
2026-01-08 19:02:37.052120	330.2	13.9	-67.7	0.0
2026-01-08 19:02:39.286135	330.4	13.7	-66.5	0.0
2026-01-08 19:02:41.520639	330.6	13.5	-66.5	0.0
2026-01-08 19:02:43.753158	330.8	13.3	-66.3	0.0
2026-01-08 19:02:45.986661	331.0	13.1	-66.7	0.0
2026-01-08 19:02:48.226182	331.1	12.9	-66.4	0.0
2026-01-08 19:02:50.457197	331.3	12.7	-65.9	0.0
2026-01-08 19:02:52.690204	331.5	12.5	-66.4	0.0
2026-01-08 19:02:54.923211	331.7	12.3	-66.1	0.0
2026-01-08 19:02:57.156219	331.8	12.1	-66.5	0.0
2026-01-08 19:02:59.388722	332.0	11.9	-66.1	0.0
2026-01-08 19:03:01.622728	332.2	11.7	-66.4	0.0
2026-01-08 19:03:03.858736	332.4	11.5	-66.2	0.0
2026-01-08 19:03:06.102260	332.5	11.3	-65.9	0.0
2026-01-08 19:03:08.346774	332.7	11.2	-65.4	0.0
2026-01-08 19:03:10.590784	332.8	11.0	-65.8	0.0
2026-01-08 19:03:12.835289	333.0	10.8	-65.6	0.0
2026-01-08 19:03:15.079306	333.2	10.6	-65.2	0.0
2026-01-08 19:03:17.316828	333.3	10.4	-65.2	0.0
2026-01-08 19:03:19.559837	333.5	10.2	-65.7	0.0
2026-01-08 19:03:21.800846	333.6	10.0	-65.3	0.0
2026-01-08 19:03:24.035358	333.8	9.9	-65.1	0.0
2026-01-08 19:03:26.267869	333.9	9.7	-65.6	0.0
2026-01-08 19:03:28.497876	334.1	9.5	-64.8	0.0
2026-01-08 19:03:30.729394	334.2	9.3	-64.9	0.0
2026-01-08 19:03:32.964906	334.4	9.2	-64.6	0.0
2026-01-08 19:03:35.202410	334.5	9.0	-64.9	0.0
2026-01-08 19:03:37.435913	334.6	8.8	-65.1	0.0
2026-01-08 19:03:39.668424	334.8	8.6	-64.9	0.0
2026-01-08 19:03:41.903439	334.9	8.5	-65.9	0.0
2026-01-08 19:03:44.134446	335.0	8.3	-66.0	0.0
2026-01-08 19:03:46.368957	335.2	8.1	-65.2	0.0
2026-01-08 19:03:48.603966	335.3	8.0	-65.6	0.0
2026-01-08 19:03:50.840479	335.4	7.8	-64.7	0.0
2026-01-08 19:03:53.081984	335.6	7.6	-65.8	0.0
2026-01-08 19:03:55.320496	335.7	7.5	-64.2	0.0
2026-01-08 19:03:57.553008	335.8	7.3	-65.7	0.0
2026-01-08 19:03:59.786014	336.0	7.1	-66.2	0.0
2026-01-08 19:04:02.017525	336.1	7.0	-66.0	0.0
2026-01-08 19:04:04.249044	336.2	6.8	-65.7	0.0
2026-01-08 19:04:06.480547	336.3	6.7	-64.9	0.0
2026-01-08 19:04:08.714554	336.4	6.5	-65.7	0.0
2026-01-08 19:04:10.944570	336.6	6.3	-63.8	0.0
2026-01-08 19:04:13.176577	336.7	6.2	-65.6	0.0
2026-01-08 19:04:15.408079	336.8	6.0	-66.0	0.1
2026-01-08 19:04:17.640086	336.9	5.9	-69.0	0.0
2026-01-08 19:04:19.870093	337.0	5.7	-68.8	0.0
2026-01-08 19:04:22.104596	337.1	5.6	-68.7	0.0
2026-01-08 19:04:24.336107	337.3	5.4	-68.1	0.0
2026-01-08 19:04:26.573137	337.4	5.3	-69.7	0.0
2026-01-08 19:04:28.816163	337.5	5.1	-69.9	0.0
#Closed at: 2026-01-08 18:51:57.922581