passes_logs/2026/01/08/PlanumMoscow/PlanumMoscow__20260108_004743_METEOR-M2_4_rec.log

#Pass ID: 20260108_004743_METEOR-M2 4
#Satellite: METEOR-M2 4
#Configuration: METEOR-M2 4
#Start time: 2026-01-08 00:47:48.765330

#LorettStation: 1.0.0 05.05.2024
#Station: PlanumMoscow
#Location: 37.6253844 lon 55.6713361 lat
#TLE: 1 59051U 24039A   25293.94737965  .00000087  00000+0  58459-4 0  9998
#TLE: 2 59051  98.6671 251.7071 0007726 135.4772 224.7028 14.22388966 85257

#Time	Az	El	Level	SNR
2026-01-08 00:51:27.205620	24.7	28.9	-63.3	12.0
2026-01-08 00:51:29.439139	24.9	29.3	-64.0	11.2
2026-01-08 00:51:31.671657	25.0	29.7	-64.1	11.2
2026-01-08 00:51:33.909170	25.2	30.1	-63.9	11.7
2026-01-08 00:51:36.141673	25.3	30.6	-63.8	11.7
2026-01-08 00:51:38.373680	25.5	31.0	-63.8	11.6
2026-01-08 00:51:40.609688	25.7	31.4	-63.0	8.6
2026-01-08 00:51:42.849193	25.8	31.9	-64.0	11.3
2026-01-08 00:51:45.087697	26.0	32.3	-62.9	10.0
2026-01-08 00:51:47.325714	26.2	32.8	-63.5	10.1
2026-01-08 00:51:49.562723	26.4	33.2	-63.2	11.3
2026-01-08 00:51:51.798730	26.6	33.7	-63.7	10.5
2026-01-08 00:51:54.037234	26.8	34.2	-63.6	10.5
2026-01-08 00:51:56.271241	27.0	34.7	-63.3	10.0
2026-01-08 00:51:58.504753	27.2	35.2	-63.7	10.8
2026-01-08 00:52:00.740265	27.4	35.7	-63.0	9.4
2026-01-08 00:52:02.972768	27.6	36.2	-63.4	10.6
2026-01-08 00:52:05.205288	27.8	36.7	-61.7	7.7
2026-01-08 00:52:07.439296	28.1	37.2	-62.6	9.9
2026-01-08 00:52:09.673312	28.3	37.7	-63.3	9.8
2026-01-08 00:52:11.907822	28.6	38.3	-63.6	8.7
2026-01-08 00:52:14.147352	28.8	38.8	-61.7	7.0
2026-01-08 00:52:16.391362	29.1	39.4	-62.8	10.2
2026-01-08 00:52:18.636867	29.4	39.9	-62.8	7.2
2026-01-08 00:52:20.874380	29.7	40.5	-63.0	8.6
2026-01-08 00:52:23.117398	30.0	41.1	-63.0	8.5
2026-01-08 00:52:25.359903	30.3	41.7	-62.6	6.2
2026-01-08 00:52:27.600416	30.6	42.3	-63.1	8.3
2026-01-08 00:52:29.843938	30.9	42.9	-62.7	7.2
2026-01-08 00:52:32.085956	31.2	43.5	-63.3	7.6
2026-01-08 00:52:34.329966	31.6	44.1	-63.8	8.2
2026-01-08 00:52:36.566973	32.0	44.7	-63.5	7.0
2026-01-08 00:52:38.800484	32.4	45.4	-63.7	7.1
2026-01-08 00:52:41.037537	32.8	46.0	-63.4	7.1
2026-01-08 00:52:43.272589	33.2	46.7	-63.5	5.8
2026-01-08 00:52:45.509597	33.6	47.4	-63.2	6.8
2026-01-08 00:52:47.747109	34.0	48.0	-64.3	7.0
2026-01-08 00:52:49.980124	34.5	48.7	-64.8	7.7
2026-01-08 00:52:52.213130	35.0	49.4	-64.4	6.8
2026-01-08 00:52:54.452147	35.5	50.1	-64.1	5.1
2026-01-08 00:52:56.687651	36.1	50.8	-64.4	6.5
2026-01-08 00:52:58.920658	36.6	51.5	-63.7	5.7
2026-01-08 00:53:01.157176	37.2	52.3	-63.7	6.2
2026-01-08 00:53:03.390688	37.8	53.0	-64.3	7.7
2026-01-08 00:53:05.629715	38.5	53.7	-64.1	5.7
2026-01-08 00:53:07.862739	39.2	54.5	-64.9	7.9
2026-01-08 00:53:10.097242	39.9	55.2	-65.4	8.1
2026-01-08 00:53:12.329249	40.7	56.0	-65.6	8.4
2026-01-08 00:53:14.565777	41.5	56.8	-64.9	8.5
2026-01-08 00:53:16.803281	42.3	57.6	-65.1	6.6
2026-01-08 00:53:19.038793	43.2	58.3	-66.1	7.9
2026-01-08 00:53:21.277312	44.2	59.1	-66.1	8.2
2026-01-08 00:53:23.511825	45.2	59.9	-66.7	7.6
2026-01-08 00:53:25.751834	46.3	60.7	-66.8	7.0
2026-01-08 00:53:27.987841	47.4	61.5	-67.0	5.4
2026-01-08 00:53:30.223849	48.6	62.3	-67.2	5.8
2026-01-08 00:53:32.462361	49.9	63.0	-67.5	7.4
2026-01-08 00:53:34.700379	51.3	63.8	-67.1	7.1
2026-01-08 00:53:36.933890	52.8	64.6	-67.1	8.6
2026-01-08 00:53:39.171899	54.4	65.4	-67.5	10.0
2026-01-08 00:53:41.415918	56.1	66.1	-67.6	10.5
2026-01-08 00:53:43.659432	57.9	66.9	-67.6	10.5
2026-01-08 00:53:45.901450	59.9	67.6	-67.7	9.3
2026-01-08 00:53:48.145460	62.0	68.3	-68.0	9.9
2026-01-08 00:53:50.388973	64.2	69.0	-67.9	9.8
2026-01-08 00:53:52.632487	66.7	69.6	-67.7	10.4
2026-01-08 00:53:54.866999	69.2	70.3	-67.8	10.5
2026-01-08 00:53:57.099501	72.0	70.8	-67.7	10.5
2026-01-08 00:53:59.329012	74.9	71.4	-67.6	12.2
2026-01-08 00:54:01.561019	78.0	71.9	-67.5	12.7
2026-01-08 00:54:03.793522	81.2	72.3	-67.5	13.5
2026-01-08 00:54:06.026034	84.7	72.7	-67.7	13.4
2026-01-08 00:54:08.261050	88.3	73.1	-68.0	13.3
2026-01-08 00:54:10.497058	92.0	73.3	-68.2	12.9
2026-01-08 00:54:12.736074	95.9	73.5	-68.1	12.9
2026-01-08 00:54:14.972082	99.8	73.7	-68.3	12.3
2026-01-08 00:54:17.204585	103.8	73.7	-68.3	13.1
2026-01-08 00:54:19.438609	107.8	73.7	-68.5	13.4
2026-01-08 00:54:21.674130	111.8	73.6	-68.4	13.4
2026-01-08 00:54:23.911138	115.7	73.4	-68.6	13.5
2026-01-08 00:54:26.147642	119.5	73.2	-68.6	13.6
2026-01-08 00:54:28.383658	123.2	72.9	-68.4	13.0
2026-01-08 00:54:30.618162	126.7	72.5	-69.0	12.6
2026-01-08 00:54:32.857170	130.0	72.1	-69.2	12.4
2026-01-08 00:54:35.092682	133.2	71.6	-68.9	12.8
2026-01-08 00:54:37.328690	136.2	71.1	-69.1	12.4
2026-01-08 00:54:39.563697	139.1	70.5	-68.8	13.5
2026-01-08 00:54:41.805715	141.7	69.9	-68.6	14.3
2026-01-08 00:54:44.040227	144.2	69.3	-67.7	14.1
2026-01-08 00:54:46.278739	146.5	68.6	-68.4	14.2
2026-01-08 00:54:48.512242	148.7	67.9	-68.3	14.3
2026-01-08 00:54:50.748754	150.7	67.2	-68.0	14.3
2026-01-08 00:54:52.982266	152.6	66.4	-68.2	13.5
2026-01-08 00:54:55.226284	154.3	65.7	-68.6	13.4
2026-01-08 00:54:57.468310	156.0	64.9	-68.3	13.9
2026-01-08 00:54:59.711823	157.5	64.2	-68.3	14.1
2026-01-08 00:55:01.955337	159.0	63.4	-68.2	14.3
2026-01-08 00:55:04.199346	160.3	62.6	-68.1	14.2
2026-01-08 00:55:06.442365	161.6	61.8	-68.2	14.3
2026-01-08 00:55:08.688871	162.8	61.0	-68.3	14.0
2026-01-08 00:55:10.921374	163.9	60.2	-68.6	13.3
2026-01-08 00:55:13.153380	164.9	59.4	-68.5	13.1
2026-01-08 00:55:15.388893	165.9	58.6	-68.7	12.4
2026-01-08 00:55:17.625901	166.8	57.9	-68.6	12.3
2026-01-08 00:55:19.861420	167.7	57.1	-68.7	11.6
2026-01-08 00:55:22.098444	168.5	56.3	-68.8	12.3
2026-01-08 00:55:24.335452	169.3	55.5	-69.0	12.3
2026-01-08 00:55:26.572473	170.0	54.8	-69.0	12.2
2026-01-08 00:55:28.809994	170.7	54.0	-68.9	12.0
2026-01-08 00:55:31.049011	171.4	53.3	-68.9	12.2
2026-01-08 00:55:33.283523	172.0	52.5	-69.1	11.7
2026-01-08 00:55:35.522037	172.7	51.8	-68.9	11.8
2026-01-08 00:55:37.761541	173.2	51.1	-69.0	12.3
2026-01-08 00:55:39.995060	173.8	50.3	-68.9	12.4
2026-01-08 00:55:42.231076	174.3	49.6	-68.5	11.9
2026-01-08 00:55:44.466589	174.8	48.9	-69.0	12.1
2026-01-08 00:55:46.705598	175.3	48.2	-68.3	11.6
2026-01-08 00:55:48.939605	175.7	47.6	-68.3	12.5
2026-01-08 00:55:51.175623	176.2	46.9	-68.0	12.1
2026-01-08 00:55:53.414128	176.6	46.2	-67.9	12.5
2026-01-08 00:55:55.652136	177.0	45.6	-68.5	13.8
2026-01-08 00:55:57.891153	177.4	44.9	-68.2	14.0
2026-01-08 00:56:00.129658	177.8	44.3	-67.7	13.1
2026-01-08 00:56:02.367674	178.1	43.6	-67.7	13.0
2026-01-08 00:56:04.608186	178.5	43.0	-67.8	14.5
2026-01-08 00:56:06.848691	178.8	42.4	-67.8	14.1
2026-01-08 00:56:09.081698	179.1	41.8	-67.6	13.6
2026-01-08 00:56:11.316219	179.4	41.2	-67.7	13.8
2026-01-08 00:56:13.553234	179.7	40.6	-67.5	14.5
2026-01-08 00:56:15.788251	180.0	40.0	-67.5	14.3
2026-01-08 00:56:18.024283	180.3	39.5	-67.4	14.4
2026-01-08 00:56:20.261787	180.6	38.9	-67.4	14.7
2026-01-08 00:56:22.502308	180.8	38.4	-67.2	14.8
2026-01-08 00:56:24.738316	181.1	37.8	-67.1	14.7
2026-01-08 00:56:26.974340	181.3	37.3	-66.3	12.8
2026-01-08 00:56:29.211845	181.6	36.8	-67.0	14.4
2026-01-08 00:56:31.451862	181.8	36.2	-67.0	15.0
2026-01-08 00:56:33.695376	182.0	35.7	-66.8	15.0
2026-01-08 00:56:35.938385	182.2	35.2	-66.9	15.1
2026-01-08 00:56:38.180897	182.5	34.7	-67.0	14.3
2026-01-08 00:56:40.421916	182.7	34.2	-66.7	14.0
2026-01-08 00:56:42.663942	182.9	33.8	-66.8	15.0
2026-01-08 00:56:44.907951	183.1	33.3	-66.9	14.8
2026-01-08 00:56:47.150464	183.2	32.8	-67.0	14.6
2026-01-08 00:56:49.384976	183.4	32.3	-67.0	14.5
2026-01-08 00:56:51.616983	183.6	31.9	-67.0	14.6
2026-01-08 00:56:53.847990	183.8	31.4	-67.1	14.2
2026-01-08 00:56:56.083007	183.9	31.0	-67.1	14.7
2026-01-08 00:56:58.317022	184.1	30.6	-66.8	14.8
2026-01-08 00:57:00.550525	184.3	30.1	-66.8	14.4
2026-01-08 00:57:02.786541	184.4	29.7	-66.8	14.7
2026-01-08 00:57:05.023557	184.6	29.3	-66.9	14.3
2026-01-08 00:57:07.258085	184.7	28.9	-67.4	14.3
2026-01-08 00:57:09.494596	184.9	28.5	-67.0	13.6
2026-01-08 00:57:11.730604	185.0	28.1	-66.9	14.1
2026-01-08 00:57:13.968622	185.1	27.7	-66.8	13.5
2026-01-08 00:57:16.200125	185.3	27.3	-66.8	14.2
2026-01-08 00:57:18.436646	185.4	26.9	-66.8	14.3
2026-01-08 00:57:20.672661	185.5	26.6	-66.4	13.1
2026-01-08 00:57:22.910173	185.7	26.2	-66.6	14.9
2026-01-08 00:57:25.144685	185.8	25.8	-66.8	14.5
2026-01-08 00:57:27.382197	185.9	25.5	-66.7	14.4
2026-01-08 00:57:29.616709	186.0	25.1	-67.0	14.9
2026-01-08 00:57:31.853717	186.1	24.7	-66.7	14.3
2026-01-08 00:57:34.086734	186.3	24.4	-66.7	13.8
2026-01-08 00:57:36.321743	186.4	24.0	-67.0	14.5
2026-01-08 00:57:38.561770	186.5	23.7	-66.6	13.2
2026-01-08 00:57:40.799274	186.6	23.4	-66.6	11.6
2026-01-08 00:57:43.033289	186.7	23.0	-66.1	13.1
2026-01-08 00:57:45.266792	186.8	22.7	-66.4	13.0
2026-01-08 00:57:47.500809	186.9	22.4	-65.5	11.5
2026-01-08 00:57:49.731815	187.0	22.1	-65.2	12.0
2026-01-08 00:57:51.961317	187.1	21.8	-66.3	12.7
2026-01-08 00:57:54.192324	187.2	21.5	-66.5	13.4
2026-01-08 00:57:56.423835	187.3	21.1	-66.6	12.9
2026-01-08 00:57:58.664853	187.4	20.8	-66.7	13.8
2026-01-08 00:58:00.902357	187.5	20.5	-66.4	11.9
2026-01-08 00:58:03.146863	187.6	20.2	-66.2	12.3
2026-01-08 00:58:05.390872	187.6	19.9	-67.2	12.6
2026-01-08 00:58:07.631386	187.7	19.7	-67.2	13.3
2026-01-08 00:58:09.874900	187.8	19.4	-66.0	12.2
2026-01-08 00:58:12.114404	187.9	19.1	-65.9	11.0
2026-01-08 00:58:14.356909	188.0	18.8	-66.2	13.1
2026-01-08 00:58:16.600431	188.1	18.5	-66.8	13.7
2026-01-08 00:58:18.834943	188.1	18.3	-66.4	12.0
2026-01-08 00:58:21.066460	188.2	18.0	-66.5	12.9
2026-01-08 00:58:23.299485	188.3	17.7	-66.6	12.9
2026-01-08 00:58:25.529996	188.4	17.4	-67.1	13.2
2026-01-08 00:58:27.761003	188.4	17.2	-66.8	13.2
2026-01-08 00:58:29.999011	188.5	16.9	-66.7	13.4
2026-01-08 00:58:32.233531	188.6	16.7	-66.8	12.3
2026-01-08 00:58:34.465538	188.6	16.4	-66.7	12.6
2026-01-08 00:58:36.702545	188.7	16.2	-66.5	12.5
2026-01-08 00:58:38.935056	188.8	15.9	-66.9	12.8
2026-01-08 00:58:41.168567	188.9	15.7	-66.7	12.2
2026-01-08 00:58:43.401078	188.9	15.4	-66.7	11.9
2026-01-08 00:58:45.636594	189.0	15.2	-66.7	11.7
2026-01-08 00:58:47.869596	189.0	14.9	-66.6	11.6
2026-01-08 00:58:50.101603	189.1	14.7	-66.5	12.0
2026-01-08 00:58:52.334106	189.2	14.5	-66.6	10.8
2026-01-08 00:58:54.569113	189.2	14.2	-66.6	11.5
2026-01-08 00:58:56.799625	189.3	14.0	-66.0	10.2
2026-01-08 00:58:59.037138	189.4	13.8	-66.7	11.4
2026-01-08 00:59:01.270145	189.4	13.6	-66.9	11.6
2026-01-08 00:59:03.504648	189.5	13.3	-66.9	11.5
2026-01-08 00:59:05.742160	189.5	13.1	-64.6	8.5
2026-01-08 00:59:07.978176	189.6	12.9	-66.8	11.0
2026-01-08 00:59:10.213184	189.6	12.7	-66.2	10.5
2026-01-08 00:59:12.449704	189.7	12.5	-65.7	9.4
2026-01-08 00:59:14.685217	189.8	12.2	-66.0	10.3
2026-01-08 00:59:16.921728	189.8	12.0	-66.3	10.4
2026-01-08 00:59:19.156746	189.9	11.8	-66.3	9.6
2026-01-08 00:59:21.401251	189.9	11.6	-66.2	9.7
2026-01-08 00:59:23.637794	190.0	11.4	-64.0	4.5
2026-01-08 00:59:25.871305	190.0	11.2	-64.9	8.9
2026-01-08 00:59:28.104320	190.1	11.0	-66.8	10.9
2026-01-08 00:59:30.337327	190.1	10.8	-66.6	10.4
2026-01-08 00:59:32.575336	190.2	10.6	-66.7	10.1
2026-01-08 00:59:34.810351	190.2	10.4	-65.9	9.8
2026-01-08 00:59:37.052370	190.3	10.2	-66.3	9.9
2026-01-08 00:59:39.295884	190.3	10.0	-66.1	7.9
2026-01-08 00:59:41.537910	190.4	9.8	-65.0	6.6
2026-01-08 00:59:43.780937	190.4	9.6	-66.2	8.7
2026-01-08 00:59:46.023955	190.4	9.4	-62.8	4.4
2026-01-08 00:59:48.256466	190.5	9.2	-65.7	6.7
2026-01-08 00:59:50.488483	190.5	9.0	-66.3	9.5
2026-01-08 00:59:52.726491	190.6	8.9	-66.6	8.8
2026-01-08 00:59:54.963516	190.6	8.7	-66.2	9.2
2026-01-08 00:59:57.199020	190.7	8.5	-65.4	8.6
2026-01-08 00:59:59.432036	190.7	8.3	-66.0	8.6
2026-01-08 01:00:01.669549	190.8	8.1	-66.0	7.5
2026-01-08 01:00:03.906564	190.8	7.9	-66.2	7.0
2026-01-08 01:00:06.141076	190.8	7.8	-65.2	7.0
2026-01-08 01:00:08.374587	190.9	7.6	-63.7	6.9
2026-01-08 01:00:10.611604	190.9	7.4	-64.3	2.4
2026-01-08 01:00:12.848117	191.0	7.2	-62.2	5.3
2026-01-08 01:00:15.088135	191.0	7.1	-62.1	3.9
2026-01-08 01:00:17.321142	191.0	6.9	-60.7	0.0
2026-01-08 01:00:19.545774	191.1	6.7	-61.6	0.0
2026-01-08 01:00:21.785287	191.1	6.5	-63.2	4.1
2026-01-08 01:00:24.025303	191.2	6.4	-59.4	0.0
2026-01-08 01:00:26.264312	191.2	6.2	-58.3	0.0
2026-01-08 01:00:28.501824	191.2	6.0	-65.8	7.7
2026-01-08 01:00:30.740840	191.3	5.9	-69.7	0.0
2026-01-08 01:00:32.983858	191.3	5.7	-70.9	0.0
2026-01-08 01:00:35.222866	191.3	5.5	-72.2	0.0
2026-01-08 01:00:37.456873	191.4	5.4	-72.3	0.0
2026-01-08 01:00:39.691880	191.4	5.2	-72.7	0.0
2026-01-08 01:00:41.930393	191.5	5.1	-72.0	0.0
#Closed at: 2026-01-08 00:47:43.767760