passes_logs/2025/01/13/SPB_Silybum_02/SPB_Silybum_02__20250113_133231_AQUA_rec.log

#Pass ID: 20250113_133231_AQUA
#Satellite: AQUA
#Configuration: AQUA
#Start time: 2025-01-13 13:32:32

#Version: 2.0.20230423
#Station: SPB_Silybum_02
#Location: 30.233357 lon 59.946436 lat
#TLE: 1 27424U 02022A   25012.80860775  .00001720  00000+0  36312-3 0  9993
#TLE: 2 27424  98.3585 329.4528 0001624 113.6325 279.3978 14.60673868207302

#Time	Az	El	Level	Level2	SNR	BER	Gain	Gain2
2025-01-13 13:32:34.12	233.59	4.10	
2025-01-13 13:32:35.16	233.72	4.15	
2025-01-13 13:32:36.20	233.85	4.20	
2025-01-13 13:32:37.22	233.98	4.25	
2025-01-13 13:32:38.25	234.11	4.30	
2025-01-13 13:32:39.28	234.24	4.35	
2025-01-13 13:32:40.30	234.36	4.40	
2025-01-13 13:32:41.33	234.49	4.45	
2025-01-13 13:32:42.36	234.62	4.50	
2025-01-13 13:32:43.39	234.76	4.55	
2025-01-13 13:32:44.42	234.89	4.60	
2025-01-13 13:32:45.44	235.02	4.65	
2025-01-13 13:32:46.47	235.15	4.70	
2025-01-13 13:32:47.50	235.28	4.74	
2025-01-13 13:32:48.52	235.42	4.79	
2025-01-13 13:32:49.55	235.55	4.84	
2025-01-13 13:32:50.58	235.68	4.89	
2025-01-13 13:32:51.61	235.82	4.94	
2025-01-13 13:32:52.63	235.95	4.99	
2025-01-13 13:32:53.66	236.09	5.04	
2025-01-13 13:32:54.68	236.22	5.09	
2025-01-13 13:32:55.71	236.36	5.14	
2025-01-13 13:32:56.73	236.50	5.19	
2025-01-13 13:32:57.77	236.63	5.24	
2025-01-13 13:32:58.80	236.77	5.29	
2025-01-13 13:32:59.83	236.91	5.34	
2025-01-13 13:33:00.88	237.05	5.39	
2025-01-13 13:33:01.91	237.19	5.43	
2025-01-13 13:33:02.93	237.33	5.48	
2025-01-13 13:33:03.95	237.47	5.53	
2025-01-13 13:33:04.98	237.61	5.58	
2025-01-13 13:33:06.02	237.76	5.63	
2025-01-13 13:33:07.05	237.90	5.68	
2025-01-13 13:33:08.08	238.04	5.73	
2025-01-13 13:33:09.10	238.18	5.78	
2025-01-13 13:33:10.12	238.32	5.83	
2025-01-13 13:33:11.15	238.47	5.87	
2025-01-13 13:33:12.18	238.61	5.92	
2025-01-13 13:33:13.20	238.76	5.97	
2025-01-13 13:33:14.22	238.90	6.02	
2025-01-13 13:33:15.26	239.05	6.07	
2025-01-13 13:33:16.29	239.20	6.12	
2025-01-13 13:33:17.32	239.34	6.17	
2025-01-13 13:33:18.34	239.49	6.21	
2025-01-13 13:33:19.37	239.64	6.26	
2025-01-13 13:33:20.40	239.79	6.31	
2025-01-13 13:33:21.42	239.93	6.36	
2025-01-13 13:33:22.45	240.08	6.41	
2025-01-13 13:33:23.47	240.23	6.45	
2025-01-13 13:33:24.50	240.38	6.50	
2025-01-13 13:33:25.53	240.54	6.55	
2025-01-13 13:33:26.55	240.69	6.60	
2025-01-13 13:33:27.58	240.84	6.65	
2025-01-13 13:33:28.61	240.99	6.69	
2025-01-13 13:33:29.64	241.14	6.74	
2025-01-13 13:33:30.66	241.30	6.79	
2025-01-13 13:33:31.69	241.45	6.84	
2025-01-13 13:33:32.72	241.61	6.88	
2025-01-13 13:33:33.75	241.76	6.93	
2025-01-13 13:33:34.78	241.92	6.98	
2025-01-13 13:33:35.81	242.08	7.03	
2025-01-13 13:33:36.83	242.23	7.07	
2025-01-13 13:33:37.88	242.39	7.12	
2025-01-13 13:33:38.92	242.55	7.17	
2025-01-13 13:33:39.94	242.71	7.22	
2025-01-13 13:33:40.97	242.87	7.26	
2025-01-13 13:33:41.99	243.03	7.31	
2025-01-13 13:33:43.02	243.19	7.36	
2025-01-13 13:33:44.06	243.35	7.40	
2025-01-13 13:33:45.10	243.51	7.45	
2025-01-13 13:33:46.12	243.67	7.50	
2025-01-13 13:33:47.15	243.84	7.54	
2025-01-13 13:33:48.18	244.00	7.59	
2025-01-13 13:33:49.20	244.16	7.64	
2025-01-13 13:33:50.24	244.33	7.68	
2025-01-13 13:33:51.27	244.49	7.73	
2025-01-13 13:33:52.30	244.66	7.78	
2025-01-13 13:33:53.32	244.82	7.82	
2025-01-13 13:33:54.35	244.99	7.87	
2025-01-13 13:33:55.37	245.15	7.91	
2025-01-13 13:33:56.42	245.32	7.96	
2025-01-13 13:33:57.44	245.49	8.00	
2025-01-13 13:33:58.47	245.66	8.05	
2025-01-13 13:33:59.50	245.83	8.09	
2025-01-13 13:34:00.54	246.00	8.14	
2025-01-13 13:34:01.56	246.17	8.18	
2025-01-13 13:34:02.59	246.34	8.23	
2025-01-13 13:34:03.61	246.51	8.27	
2025-01-13 13:34:04.64	246.68	8.32	
2025-01-13 13:34:05.66	246.85	8.36	
2025-01-13 13:34:06.69	247.03	8.41	
2025-01-13 13:34:07.71	247.20	8.45	
2025-01-13 13:34:08.74	247.37	8.50	
2025-01-13 13:34:09.76	247.54	8.54	
2025-01-13 13:34:10.79	247.72	8.58	
2025-01-13 13:34:11.82	247.90	8.63	
2025-01-13 13:34:12.85	248.07	8.67	
2025-01-13 13:34:13.88	248.25	8.71	
2025-01-13 13:34:14.91	248.43	8.76	
2025-01-13 13:34:15.94	248.60	8.80	
2025-01-13 13:34:16.96	248.78	8.84	
2025-01-13 13:34:17.99	248.96	8.89	
2025-01-13 13:34:19.02	249.14	8.93	
2025-01-13 13:34:20.04	249.32	8.97	
2025-01-13 13:34:21.06	249.50	9.01	
2025-01-13 13:34:22.09	249.68	9.06	
2025-01-13 13:34:23.11	249.86	9.10	
2025-01-13 13:34:24.14	250.04	9.14	
2025-01-13 13:34:25.17	250.22	9.18	
2025-01-13 13:34:26.19	250.41	9.22	
2025-01-13 13:34:27.22	250.59	9.26	
2025-01-13 13:34:28.25	250.78	9.31	
2025-01-13 13:34:29.28	250.96	9.35	
2025-01-13 13:34:30.30	251.14	9.39	
2025-01-13 13:34:31.34	251.33	9.43	
2025-01-13 13:34:32.37	251.52	9.47	
2025-01-13 13:34:33.39	251.70	9.51	
2025-01-13 13:34:34.42	251.89	9.55	
2025-01-13 13:34:35.45	252.08	9.59	
2025-01-13 13:34:36.47	252.27	9.63	
2025-01-13 13:34:37.50	252.46	9.67	
2025-01-13 13:34:38.53	252.65	9.71	
2025-01-13 13:34:39.55	252.84	9.75	
2025-01-13 13:34:40.58	253.03	9.79	
2025-01-13 13:34:41.61	253.22	9.83	
2025-01-13 13:34:42.63	253.41	9.86	
2025-01-13 13:34:43.66	253.60	9.90	
2025-01-13 13:34:44.70	253.80	9.94	
2025-01-13 13:34:45.74	253.99	9.98	
2025-01-13 13:34:46.77	254.19	10.02	
2025-01-13 13:34:47.79	254.38	10.06	
2025-01-13 13:34:48.82	254.58	10.09	
2025-01-13 13:34:49.85	254.77	10.13	
2025-01-13 13:34:50.88	254.97	10.17	
2025-01-13 13:34:51.90	255.16	10.20	
2025-01-13 13:34:52.93	255.36	10.24	
2025-01-13 13:34:53.95	255.56	10.28	
2025-01-13 13:34:54.97	255.75	10.31	
2025-01-13 13:34:56.00	255.95	10.35	
2025-01-13 13:34:57.03	256.15	10.38	
2025-01-13 13:34:58.05	256.35	10.42	
2025-01-13 13:34:59.08	256.55	10.45	
2025-01-13 13:35:00.10	256.75	10.49	
2025-01-13 13:35:01.14	256.95	10.52	
2025-01-13 13:35:02.16	257.15	10.56	
2025-01-13 13:35:03.19	257.35	10.59	
2025-01-13 13:35:04.21	257.56	10.63	
2025-01-13 13:35:05.24	257.76	10.66	
2025-01-13 13:35:06.27	257.96	10.69	
2025-01-13 13:35:07.31	258.17	10.73	
2025-01-13 13:35:08.34	258.37	10.76	
2025-01-13 13:35:09.36	258.58	10.79	
2025-01-13 13:35:10.38	258.78	10.83	
2025-01-13 13:35:11.41	258.99	10.86	
2025-01-13 13:35:12.45	259.20	10.89	
2025-01-13 13:35:13.48	259.40	10.92	
2025-01-13 13:35:14.52	259.61	10.95	
2025-01-13 13:35:15.54	259.82	10.98	
2025-01-13 13:35:16.57	260.03	11.02	
2025-01-13 13:35:17.60	260.24	11.05	
2025-01-13 13:35:18.63	260.45	11.08	
2025-01-13 13:35:19.66	260.66	11.11	
2025-01-13 13:35:20.68	260.86	11.14	
2025-01-13 13:35:21.71	261.08	11.17	
2025-01-13 13:35:22.74	261.29	11.19	
2025-01-13 13:35:23.76	261.50	11.22	
2025-01-13 13:35:24.79	261.71	11.25	
2025-01-13 13:35:25.81	261.92	11.28	
2025-01-13 13:35:26.84	262.13	11.31	
2025-01-13 13:35:27.86	262.34	11.33	
2025-01-13 13:35:28.89	262.56	11.36	
2025-01-13 13:35:29.93	262.77	11.39	
2025-01-13 13:35:30.95	262.99	11.42	
2025-01-13 13:35:31.98	263.20	11.44	
2025-01-13 13:35:33.01	263.42	11.47	
2025-01-13 13:35:34.04	263.63	11.49	
2025-01-13 13:35:35.06	263.85	11.52	
2025-01-13 13:35:36.11	264.07	11.55	
2025-01-13 13:35:37.13	264.28	11.57	
2025-01-13 13:35:38.16	264.50	11.59	
2025-01-13 13:35:39.18	264.72	11.62	
2025-01-13 13:35:40.21	264.93	11.64	
2025-01-13 13:35:41.23	265.15	11.67	
2025-01-13 13:35:42.26	265.37	11.69	
2025-01-13 13:35:43.30	265.59	11.71	
2025-01-13 13:35:44.32	265.81	11.73	
2025-01-13 13:35:45.35	266.03	11.76	
2025-01-13 13:35:46.39	266.25	11.78	
2025-01-13 13:35:47.41	266.47	11.80	
2025-01-13 13:35:48.44	266.69	11.82	
2025-01-13 13:35:49.46	266.91	11.84	
2025-01-13 13:35:50.49	267.13	11.86	
2025-01-13 13:35:51.51	267.35	11.88	
2025-01-13 13:35:52.54	267.57	11.90	
2025-01-13 13:35:53.58	267.80	11.92	
2025-01-13 13:35:54.61	268.02	11.94	
2025-01-13 13:35:55.63	268.24	11.96	
2025-01-13 13:35:56.66	268.46	11.98	
2025-01-13 13:35:57.70	268.69	12.00	
2025-01-13 13:35:58.72	268.91	12.01	
2025-01-13 13:35:59.75	269.13	12.03	
2025-01-13 13:36:00.77	269.36	12.05	
2025-01-13 13:36:01.80	269.58	12.06	
2025-01-13 13:36:02.82	269.80	12.08	
2025-01-13 13:36:03.86	270.03	12.10	
2025-01-13 13:36:04.89	270.26	12.11	
2025-01-13 13:36:05.92	270.48	12.13	
2025-01-13 13:36:06.94	270.71	12.14	
2025-01-13 13:36:07.97	270.93	12.16	
2025-01-13 13:36:09.01	271.16	12.17	
2025-01-13 13:36:10.03	271.39	12.18	
2025-01-13 13:36:11.07	271.62	12.20	
2025-01-13 13:36:12.10	271.84	12.21	
2025-01-13 13:36:13.12	272.07	12.22	
2025-01-13 13:36:14.15	272.29	12.23	
2025-01-13 13:36:15.19	272.52	12.25	
2025-01-13 13:36:16.23	272.75	12.26	
2025-01-13 13:36:17.25	272.98	12.27	
2025-01-13 13:36:18.28	273.21	12.28	
2025-01-13 13:36:19.30	273.43	12.29	
2025-01-13 13:36:20.32	273.66	12.30	
2025-01-13 13:36:21.35	273.89	12.31	
2025-01-13 13:36:22.38	274.12	12.32	
2025-01-13 13:36:23.40	274.34	12.33	
2025-01-13 13:36:24.43	274.57	12.33	
2025-01-13 13:36:25.46	274.80	12.34	
2025-01-13 13:36:26.48	275.03	12.35	
2025-01-13 13:36:27.51	275.26	12.36	
2025-01-13 13:36:28.54	275.49	12.36	
2025-01-13 13:36:29.56	275.72	12.37	
2025-01-13 13:36:30.60	275.95	12.37	
2025-01-13 13:36:31.63	276.18	12.38	
2025-01-13 13:36:32.65	276.41	12.38	
2025-01-13 13:36:33.67	276.63	12.39	
2025-01-13 13:36:34.70	276.86	12.39	
2025-01-13 13:36:35.73	277.09	12.40	
2025-01-13 13:36:36.76	277.32	12.40	
2025-01-13 13:36:37.80	277.56	12.40	
2025-01-13 13:36:38.82	277.78	12.41	
2025-01-13 13:36:39.85	278.01	12.41	
2025-01-13 13:36:40.87	278.24	12.41	
2025-01-13 13:36:41.90	278.47	12.41	
2025-01-13 13:36:42.94	278.70	12.41	
2025-01-13 13:36:43.96	278.93	12.41	
2025-01-13 13:36:44.99	279.16	12.41	
2025-01-13 13:36:46.01	279.39	12.41	
2025-01-13 13:36:47.04	279.62	12.41	
2025-01-13 13:36:48.06	279.85	12.41	
2025-01-13 13:36:49.11	280.08	12.41	
2025-01-13 13:36:50.13	280.31	12.41	
2025-01-13 13:36:51.17	280.54	12.41	
2025-01-13 13:36:52.20	280.77	12.41	
2025-01-13 13:36:53.22	281.00	12.40	
2025-01-13 13:36:54.25	281.23	12.40	
2025-01-13 13:36:55.27	281.46	12.40	
2025-01-13 13:36:56.30	281.69	12.39	
2025-01-13 13:36:57.33	281.92	12.39	
2025-01-13 13:36:58.35	282.15	12.38	
2025-01-13 13:36:59.38	282.38	12.38	
2025-01-13 13:37:00.42	282.61	12.37	
2025-01-13 13:37:01.45	282.84	12.37	
2025-01-13 13:37:02.47	283.06	12.36	
2025-01-13 13:37:03.50	283.29	12.35	
2025-01-13 13:37:04.53	283.52	12.34	
2025-01-13 13:37:05.56	283.75	12.34	
2025-01-13 13:37:06.60	283.98	12.33	
2025-01-13 13:37:07.63	284.21	12.32	
2025-01-13 13:37:08.65	284.44	12.31	
2025-01-13 13:37:09.67	284.66	12.30	
2025-01-13 13:37:10.70	284.89	12.29	
2025-01-13 13:37:11.74	285.12	12.28	
2025-01-13 13:37:12.76	285.35	12.27	
2025-01-13 13:37:13.79	285.58	12.26	
2025-01-13 13:37:14.82	285.80	12.25	
2025-01-13 13:37:15.84	286.03	12.24	
2025-01-13 13:37:16.86	286.25	12.23	
2025-01-13 13:37:17.89	286.48	12.22	
2025-01-13 13:37:18.92	286.71	12.20	
2025-01-13 13:37:19.94	286.93	12.19	
2025-01-13 13:37:20.97	287.16	12.18	
2025-01-13 13:37:21.99	287.38	12.16	
2025-01-13 13:37:23.02	287.61	12.15	
2025-01-13 13:37:24.05	287.83	12.13	
2025-01-13 13:37:25.08	288.06	12.12	
2025-01-13 13:37:26.11	288.28	12.10	
2025-01-13 13:37:27.13	288.51	12.09	
2025-01-13 13:37:28.16	288.73	12.07	
2025-01-13 13:37:29.19	288.96	12.06	
2025-01-13 13:37:30.21	289.18	12.04	
2025-01-13 13:37:31.24	289.40	12.02	
2025-01-13 13:37:32.27	289.63	12.01	
2025-01-13 13:37:33.29	289.85	11.99	
2025-01-13 13:37:34.33	290.07	11.97	
2025-01-13 13:37:35.36	290.29	11.95	
2025-01-13 13:37:36.38	290.51	11.93	
2025-01-13 13:37:37.41	290.74	11.91	
2025-01-13 13:37:38.44	290.96	11.89	
2025-01-13 13:37:39.47	291.18	11.87	
2025-01-13 13:37:40.49	291.40	11.85	
2025-01-13 13:37:41.54	291.62	11.83	
2025-01-13 13:37:42.57	291.84	11.81	
2025-01-13 13:37:43.59	292.06	11.79	
2025-01-13 13:37:44.61	292.28	11.77	
2025-01-13 13:37:45.64	292.50	11.75	
2025-01-13 13:37:46.66	292.72	11.73	
2025-01-13 13:37:47.69	292.94	11.70	
2025-01-13 13:37:48.72	293.15	11.68	
2025-01-13 13:37:49.75	293.37	11.66	
2025-01-13 13:37:50.77	293.59	11.63	
2025-01-13 13:37:51.80	293.80	11.61	
2025-01-13 13:37:52.82	294.02	11.58	
2025-01-13 13:37:53.85	294.24	11.56	
2025-01-13 13:37:54.87	294.45	11.54	
2025-01-13 13:37:55.90	294.67	11.51	
2025-01-13 13:37:56.92	294.88	11.49	
2025-01-13 13:37:57.95	295.09	11.46	
2025-01-13 13:37:58.97	295.31	11.43	
2025-01-13 13:38:00.00	295.52	11.41	
2025-01-13 13:38:01.02	295.73	11.38	
2025-01-13 13:38:02.05	295.95	11.35	
2025-01-13 13:38:03.07	296.16	11.33	
2025-01-13 13:38:04.10	296.37	11.30	
2025-01-13 13:38:05.12	296.58	11.27	
2025-01-13 13:38:06.15	296.79	11.24	
2025-01-13 13:38:07.20	297.01	11.21	
2025-01-13 13:38:08.22	297.21	11.19	
2025-01-13 13:38:09.25	297.42	11.16	
2025-01-13 13:38:10.29	297.64	11.13	
2025-01-13 13:38:11.31	297.84	11.10	
2025-01-13 13:38:12.34	298.05	11.07	
2025-01-13 13:38:13.37	298.26	11.04	
2025-01-13 13:38:14.39	298.47	11.01	
2025-01-13 13:38:15.42	298.67	10.98	
2025-01-13 13:38:16.44	298.88	10.94	
2025-01-13 13:38:17.47	299.09	10.91	
2025-01-13 13:38:18.50	299.29	10.88	
2025-01-13 13:38:19.52	299.50	10.85	
2025-01-13 13:38:20.55	299.70	10.82	
2025-01-13 13:38:21.57	299.90	10.79	
2025-01-13 13:38:22.59	300.11	10.75	
2025-01-13 13:38:23.62	300.31	10.72	
2025-01-13 13:38:24.65	300.51	10.69	
2025-01-13 13:38:25.67	300.72	10.65	
2025-01-13 13:38:26.70	300.92	10.62	
2025-01-13 13:38:27.71	301.12	10.59	
2025-01-13 13:38:28.73	301.31	10.55	
2025-01-13 13:38:29.75	301.51	10.52	
2025-01-13 13:38:30.80	301.72	10.48	
2025-01-13 13:38:31.83	301.92	10.45	
2025-01-13 13:38:32.85	302.12	10.41	
2025-01-13 13:38:33.87	302.31	10.38	
2025-01-13 13:38:34.90	302.51	10.34	
2025-01-13 13:38:35.94	302.71	10.31	
2025-01-13 13:38:36.96	302.91	10.27	
2025-01-13 13:38:37.99	303.10	10.24	
2025-01-13 13:38:39.02	303.30	10.20	
2025-01-13 13:38:40.04	303.49	10.16	
2025-01-13 13:38:41.09	303.69	10.13	
2025-01-13 13:38:42.11	303.88	10.09	
2025-01-13 13:38:43.16	304.08	10.05	
2025-01-13 13:38:44.19	304.28	10.01	
2025-01-13 13:38:45.22	304.47	9.98	
2025-01-13 13:38:46.25	304.66	9.94	
2025-01-13 13:38:47.29	304.86	9.90	
2025-01-13 13:38:48.32	305.05	9.86	
2025-01-13 13:38:49.35	305.24	9.82	
2025-01-13 13:38:50.38	305.43	9.78	
2025-01-13 13:38:51.40	305.62	9.74	
2025-01-13 13:38:52.44	305.81	9.71	
2025-01-13 13:38:53.46	306.00	9.67	
2025-01-13 13:38:54.49	306.18	9.63	
2025-01-13 13:38:55.52	306.37	9.59	
2025-01-13 13:38:56.55	306.56	9.55	
2025-01-13 13:38:57.57	306.74	9.51	
2025-01-13 13:38:58.59	306.93	9.47	
2025-01-13 13:38:59.63	307.12	9.43	
2025-01-13 13:39:00.66	307.30	9.39	
2025-01-13 13:39:01.68	307.48	9.35	
2025-01-13 13:39:02.70	307.67	9.31	
2025-01-13 13:39:03.74	307.85	9.26	
2025-01-13 13:39:04.76	308.03	9.22	
2025-01-13 13:39:05.80	308.22	9.18	
2025-01-13 13:39:06.83	308.40	9.14	
2025-01-13 13:39:07.85	308.58	9.10	
2025-01-13 13:39:08.87	308.76	9.06	
2025-01-13 13:39:09.90	308.94	9.01	
2025-01-13 13:39:10.92	309.12	8.97	
2025-01-13 13:39:11.95	309.29	8.93	
2025-01-13 13:39:12.97	309.47	8.89	
2025-01-13 13:39:14.00	309.65	8.85	
2025-01-13 13:39:15.02	309.83	8.80	
2025-01-13 13:39:16.05	310.00	8.76	
2025-01-13 13:39:17.08	310.18	8.72	
2025-01-13 13:39:18.12	310.36	8.67	
2025-01-13 13:39:19.14	310.53	8.63	
2025-01-13 13:39:20.16	310.70	8.59	
2025-01-13 13:39:21.19	310.88	8.54	
2025-01-13 13:39:22.21	311.05	8.50	
2025-01-13 13:39:23.24	311.22	8.46	
2025-01-13 13:39:24.26	311.39	8.41	
2025-01-13 13:39:25.29	311.57	8.37	
2025-01-13 13:39:26.31	311.74	8.33	
2025-01-13 13:39:27.33	311.90	8.28	
2025-01-13 13:39:28.36	312.07	8.24	
2025-01-13 13:39:29.39	312.24	8.19	
2025-01-13 13:39:30.42	312.41	8.15	
2025-01-13 13:39:31.45	312.58	8.10	
2025-01-13 13:39:32.47	312.75	8.06	
2025-01-13 13:39:33.50	312.92	8.01	
2025-01-13 13:39:34.54	313.09	7.97	
2025-01-13 13:39:35.56	313.25	7.92	
2025-01-13 13:39:36.58	313.41	7.88	
2025-01-13 13:39:37.61	313.58	7.83	
2025-01-13 13:39:38.63	313.74	7.79	
2025-01-13 13:39:39.66	313.91	7.74	
2025-01-13 13:39:40.68	314.07	7.70	
2025-01-13 13:39:41.72	314.24	7.65	
2025-01-13 13:39:42.75	314.40	7.61	
2025-01-13 13:39:43.77	314.56	7.56	
2025-01-13 13:39:44.80	314.72	7.51	
2025-01-13 13:39:45.82	314.88	7.47	
2025-01-13 13:39:46.84	315.04	7.42	
2025-01-13 13:39:47.87	315.20	7.38	
2025-01-13 13:39:48.89	315.36	7.33	
2025-01-13 13:39:49.92	315.52	7.28	
2025-01-13 13:39:50.94	315.67	7.24	
2025-01-13 13:39:51.97	315.83	7.19	
2025-01-13 13:39:53.00	315.99	7.14	
2025-01-13 13:39:54.02	316.14	7.10	
2025-01-13 13:39:55.05	316.30	7.05	
2025-01-13 13:39:56.09	316.46	7.00	
2025-01-13 13:39:57.11	316.61	6.96	
2025-01-13 13:39:58.14	316.77	6.91	
2025-01-13 13:39:59.16	316.92	6.86	
2025-01-13 13:40:00.18	317.07	6.82	
2025-01-13 13:40:01.22	317.23	6.77	
2025-01-13 13:40:02.24	317.38	6.72	
2025-01-13 13:40:03.27	317.53	6.67	
2025-01-13 13:40:04.29	317.68	6.63	
2025-01-13 13:40:05.31	317.83	6.58	
2025-01-13 13:40:06.34	317.98	6.53	
2025-01-13 13:40:07.37	318.13	6.48	
2025-01-13 13:40:08.40	318.28	6.44	
2025-01-13 13:40:09.44	318.43	6.39	
2025-01-13 13:40:10.46	318.58	6.34	
2025-01-13 13:40:11.49	318.72	6.29	
2025-01-13 13:40:12.52	318.87	6.24	
2025-01-13 13:40:13.54	319.02	6.20	
2025-01-13 13:40:14.57	319.16	6.15	
2025-01-13 13:40:15.61	319.31	6.10	
2025-01-13 13:40:16.64	319.46	6.05	
2025-01-13 13:40:17.67	319.60	6.00	
2025-01-13 13:40:18.69	319.75	5.96	
2025-01-13 13:40:19.72	319.89	5.91	
2025-01-13 13:40:20.76	320.03	5.86	
2025-01-13 13:40:21.79	320.18	5.81	
2025-01-13 13:40:22.81	320.32	5.76	
2025-01-13 13:40:23.84	320.46	5.71	
2025-01-13 13:40:24.87	320.60	5.67	
2025-01-13 13:40:25.91	320.74	5.62	
2025-01-13 13:40:26.93	320.88	5.57	
2025-01-13 13:40:27.96	321.02	5.52	
2025-01-13 13:40:28.99	321.16	5.47	
2025-01-13 13:40:30.01	321.30	5.42	
2025-01-13 13:40:31.04	321.44	5.38	
2025-01-13 13:40:32.07	321.58	5.33	
2025-01-13 13:40:33.09	321.71	5.28	
2025-01-13 13:40:34.12	321.85	5.23	
2025-01-13 13:40:35.15	321.99	5.18	
2025-01-13 13:40:36.18	322.12	5.13	
2025-01-13 13:40:37.21	322.26	5.08	
2025-01-13 13:40:38.24	322.39	5.03	
2025-01-13 13:40:39.27	322.53	4.99	
2025-01-13 13:40:40.29	322.66	4.94	
2025-01-13 13:40:41.32	322.80	4.89	
2025-01-13 13:40:42.34	322.93	4.84	
2025-01-13 13:40:43.37	323.06	4.79	
2025-01-13 13:40:44.40	323.19	4.74	
2025-01-13 13:40:45.42	323.32	4.69	
2025-01-13 13:40:46.45	323.46	4.64	
2025-01-13 13:40:47.48	323.59	4.60	
2025-01-13 13:40:48.52	323.72	4.55	
2025-01-13 13:40:49.54	323.85	4.50	
2025-01-13 13:40:50.58	323.98	4.45	
2025-01-13 13:40:51.61	324.11	4.40	
2025-01-13 13:40:52.64	324.24	4.35	
2025-01-13 13:40:53.66	324.36	4.30	
2025-01-13 13:40:54.68	324.49	4.25	
2025-01-13 13:40:55.71	324.62	4.20	
2025-01-13 13:40:56.73	324.74	4.15	
2025-01-13 13:40:57.76	324.87	4.11	
2025-01-13 13:40:58.80	325.00	4.06	

#Closed at: 2025-01-13 13:40:59