passes_logs/2025/01/13/SPB_Silybum_02/SPB_Silybum_02__20250113_161914_TERRA_rec.log

#Pass ID: 20250113_161914_TERRA
#Satellite: TERRA
#Configuration: TERRA
#Start time: 2025-01-13 16:19:13

#Version: 2.0.20230423
#Station: SPB_Silybum_02
#Location: 30.233357 lon 59.946436 lat
#TLE: 1 25994U 99068A   25012.80475962  .00000761  00000+0  16654-3 0  9990
#TLE: 2 25994  98.0220  75.9049 0003508  77.1547  57.1006 14.60390868333758

#Time	Az	El	Level	Level2	SNR	BER	Gain	Gain2
2025-01-13 16:19:15.34	92.80	4.05	
2025-01-13 16:19:16.37	92.69	4.11	
2025-01-13 16:19:17.39	92.58	4.17	
2025-01-13 16:19:18.44	92.47	4.23	
2025-01-13 16:19:19.46	92.36	4.28	
2025-01-13 16:19:20.49	92.25	4.34	
2025-01-13 16:19:21.51	92.14	4.40	
2025-01-13 16:19:22.54	92.03	4.45	
2025-01-13 16:19:23.56	91.92	4.51	
2025-01-13 16:19:24.59	91.80	4.57	
2025-01-13 16:19:25.64	91.69	4.63	
2025-01-13 16:19:26.66	91.58	4.68	
2025-01-13 16:19:27.69	91.46	4.74	
2025-01-13 16:19:28.71	91.35	4.80	
2025-01-13 16:19:29.74	91.23	4.86	
2025-01-13 16:19:30.77	91.12	4.91	
2025-01-13 16:19:31.79	91.00	4.97	
2025-01-13 16:19:32.82	90.88	5.03	
2025-01-13 16:19:33.85	90.77	5.09	
2025-01-13 16:19:34.87	90.65	5.14	
2025-01-13 16:19:35.91	90.53	5.20	
2025-01-13 16:19:36.93	90.41	5.26	
2025-01-13 16:19:37.96	90.29	5.32	
2025-01-13 16:19:38.99	90.17	5.37	
2025-01-13 16:19:40.01	90.06	5.43	
2025-01-13 16:19:41.04	89.93	5.49	
2025-01-13 16:19:42.08	89.81	5.55	
2025-01-13 16:19:43.11	89.69	5.61	
2025-01-13 16:19:44.14	89.57	5.66	
2025-01-13 16:19:45.16	89.45	5.72	
2025-01-13 16:19:46.19	89.32	5.78	
2025-01-13 16:19:47.23	89.20	5.84	
2025-01-13 16:19:48.25	89.07	5.90	
2025-01-13 16:19:49.28	88.95	5.96	
2025-01-13 16:19:50.30	88.82	6.01	
2025-01-13 16:19:51.33	88.70	6.07	
2025-01-13 16:19:52.37	88.57	6.13	
2025-01-13 16:19:53.39	88.44	6.19	
2025-01-13 16:19:54.42	88.31	6.25	
2025-01-13 16:19:55.44	88.19	6.30	
2025-01-13 16:19:56.47	88.06	6.36	
2025-01-13 16:19:57.50	87.93	6.42	
2025-01-13 16:19:58.52	87.80	6.48	
2025-01-13 16:19:59.55	87.67	6.54	
2025-01-13 16:20:00.59	87.53	6.60	
2025-01-13 16:20:01.61	87.40	6.65	
2025-01-13 16:20:02.64	87.27	6.71	
2025-01-13 16:20:03.66	87.14	6.77	
2025-01-13 16:20:04.69	87.00	6.83	
2025-01-13 16:20:05.71	86.87	6.89	
2025-01-13 16:20:06.75	86.74	6.94	
2025-01-13 16:20:07.77	86.60	7.00	
2025-01-13 16:20:08.81	86.46	7.06	
2025-01-13 16:20:09.85	86.32	7.12	
2025-01-13 16:20:10.88	86.19	7.18	
2025-01-13 16:20:11.90	86.05	7.24	
2025-01-13 16:20:12.92	85.91	7.30	
2025-01-13 16:20:13.95	85.77	7.35	
2025-01-13 16:20:14.97	85.64	7.41	
2025-01-13 16:20:16.00	85.49	7.47	
2025-01-13 16:20:17.02	85.35	7.53	
2025-01-13 16:20:18.05	85.21	7.59	
2025-01-13 16:20:19.07	85.07	7.64	
2025-01-13 16:20:20.11	84.93	7.70	
2025-01-13 16:20:21.14	84.78	7.76	
2025-01-13 16:20:22.16	84.64	7.82	
2025-01-13 16:20:23.18	84.50	7.88	
2025-01-13 16:20:24.22	84.35	7.94	
2025-01-13 16:20:25.25	84.20	7.99	
2025-01-13 16:20:26.28	84.06	8.05	
2025-01-13 16:20:27.32	83.91	8.11	
2025-01-13 16:20:28.35	83.76	8.17	
2025-01-13 16:20:29.40	83.61	8.23	
2025-01-13 16:20:30.42	83.46	8.29	
2025-01-13 16:20:31.45	83.31	8.35	
2025-01-13 16:20:32.47	83.16	8.40	
2025-01-13 16:20:33.50	83.01	8.46	
2025-01-13 16:20:34.52	82.86	8.52	
2025-01-13 16:20:35.55	82.71	8.58	
2025-01-13 16:20:36.57	82.55	8.64	
2025-01-13 16:20:37.59	82.40	8.69	
2025-01-13 16:20:38.62	82.25	8.75	
2025-01-13 16:20:39.65	82.09	8.81	
2025-01-13 16:20:40.67	81.94	8.87	
2025-01-13 16:20:41.70	81.78	8.92	
2025-01-13 16:20:42.74	81.62	8.98	
2025-01-13 16:20:43.76	81.46	9.04	
2025-01-13 16:20:44.79	81.30	9.10	
2025-01-13 16:20:45.82	81.14	9.16	
2025-01-13 16:20:46.84	80.99	9.21	
2025-01-13 16:20:47.87	80.82	9.27	
2025-01-13 16:20:48.89	80.66	9.33	
2025-01-13 16:20:49.92	80.50	9.38	
2025-01-13 16:20:50.96	80.34	9.44	
2025-01-13 16:20:51.98	80.18	9.50	
2025-01-13 16:20:53.02	80.01	9.56	
2025-01-13 16:20:54.04	79.85	9.61	
2025-01-13 16:20:55.08	79.68	9.67	
2025-01-13 16:20:56.10	79.51	9.73	
2025-01-13 16:20:57.13	79.35	9.79	
2025-01-13 16:20:58.15	79.18	9.84	
2025-01-13 16:20:59.17	79.01	9.90	
2025-01-13 16:21:00.21	78.84	9.96	
2025-01-13 16:21:01.25	78.67	10.01	
2025-01-13 16:21:02.28	78.50	10.07	
2025-01-13 16:21:03.30	78.33	10.13	
2025-01-13 16:21:04.33	78.16	10.18	
2025-01-13 16:21:05.35	77.98	10.24	
2025-01-13 16:21:06.38	77.81	10.29	
2025-01-13 16:21:07.41	77.64	10.35	
2025-01-13 16:21:08.43	77.46	10.41	
2025-01-13 16:21:09.46	77.29	10.46	
2025-01-13 16:21:10.48	77.11	10.52	
2025-01-13 16:21:11.51	76.93	10.57	
2025-01-13 16:21:12.55	76.75	10.63	
2025-01-13 16:21:13.58	76.57	10.68	
2025-01-13 16:21:14.60	76.40	10.74	
2025-01-13 16:21:15.63	76.22	10.79	
2025-01-13 16:21:16.65	76.04	10.85	
2025-01-13 16:21:17.69	75.85	10.90	
2025-01-13 16:21:18.72	75.67	10.96	
2025-01-13 16:21:19.75	75.49	11.01	
2025-01-13 16:21:20.77	75.30	11.07	
2025-01-13 16:21:21.80	75.12	11.12	
2025-01-13 16:21:22.82	74.94	11.18	
2025-01-13 16:21:23.85	74.75	11.23	
2025-01-13 16:21:24.89	74.56	11.29	
2025-01-13 16:21:25.91	74.37	11.34	
2025-01-13 16:21:26.94	74.19	11.39	
2025-01-13 16:21:27.96	74.00	11.45	
2025-01-13 16:21:28.99	73.81	11.50	
2025-01-13 16:21:30.02	73.62	11.55	
2025-01-13 16:21:31.05	73.43	11.61	
2025-01-13 16:21:32.07	73.24	11.66	
2025-01-13 16:21:33.10	73.04	11.71	
2025-01-13 16:21:34.12	72.85	11.76	
2025-01-13 16:21:35.15	72.66	11.82	
2025-01-13 16:21:36.17	72.46	11.87	
2025-01-13 16:21:37.20	72.27	11.92	
2025-01-13 16:21:38.22	72.07	11.97	
2025-01-13 16:21:39.24	71.88	12.02	
2025-01-13 16:21:40.27	71.68	12.07	
2025-01-13 16:21:41.31	71.48	12.13	
2025-01-13 16:21:42.33	71.28	12.18	
2025-01-13 16:21:43.36	71.08	12.23	
2025-01-13 16:21:44.38	70.88	12.28	
2025-01-13 16:21:45.42	70.67	12.33	
2025-01-13 16:21:46.45	70.47	12.38	
2025-01-13 16:21:47.47	70.27	12.43	
2025-01-13 16:21:48.50	70.07	12.48	
2025-01-13 16:21:49.52	69.86	12.53	
2025-01-13 16:21:50.54	69.66	12.58	
2025-01-13 16:21:51.56	69.45	12.62	
2025-01-13 16:21:52.59	69.25	12.67	
2025-01-13 16:21:53.62	69.04	12.72	
2025-01-13 16:21:54.64	68.83	12.77	
2025-01-13 16:21:55.67	68.62	12.82	
2025-01-13 16:21:56.69	68.41	12.87	
2025-01-13 16:21:57.72	68.20	12.91	
2025-01-13 16:21:58.74	67.99	12.96	
2025-01-13 16:21:59.76	67.78	13.01	
2025-01-13 16:22:00.79	67.57	13.05	
2025-01-13 16:22:01.82	67.36	13.10	
2025-01-13 16:22:02.85	67.14	13.15	
2025-01-13 16:22:03.88	66.93	13.19	
2025-01-13 16:22:04.91	66.71	13.24	
2025-01-13 16:22:05.93	66.50	13.28	
2025-01-13 16:22:06.96	66.28	13.33	
2025-01-13 16:22:08.00	66.06	13.37	
2025-01-13 16:22:09.02	65.84	13.42	
2025-01-13 16:22:10.05	65.62	13.46	
2025-01-13 16:22:11.07	65.40	13.51	
2025-01-13 16:22:12.10	65.18	13.55	
2025-01-13 16:22:13.12	64.96	13.59	
2025-01-13 16:22:14.15	64.74	13.63	
2025-01-13 16:22:15.19	64.52	13.68	
2025-01-13 16:22:16.22	64.29	13.72	
2025-01-13 16:22:17.24	64.07	13.76	
2025-01-13 16:22:18.27	63.84	13.80	
2025-01-13 16:22:19.29	63.62	13.84	
2025-01-13 16:22:20.33	63.39	13.89	
2025-01-13 16:22:21.35	63.17	13.93	
2025-01-13 16:22:22.38	62.94	13.97	
2025-01-13 16:22:23.40	62.71	14.01	
2025-01-13 16:22:24.42	62.49	14.05	
2025-01-13 16:22:25.45	62.26	14.08	
2025-01-13 16:22:26.48	62.03	14.12	
2025-01-13 16:22:27.51	61.79	14.16	
2025-01-13 16:22:28.55	61.56	14.20	
2025-01-13 16:22:29.58	61.33	14.24	
2025-01-13 16:22:30.62	61.09	14.28	
2025-01-13 16:22:31.64	60.86	14.31	
2025-01-13 16:22:32.67	60.63	14.35	
2025-01-13 16:22:33.69	60.40	14.39	
2025-01-13 16:22:34.71	60.16	14.42	
2025-01-13 16:22:35.75	59.92	14.46	
2025-01-13 16:22:36.77	59.69	14.49	
2025-01-13 16:22:37.80	59.45	14.53	
2025-01-13 16:22:38.84	59.21	14.56	
2025-01-13 16:22:39.86	58.98	14.59	
2025-01-13 16:22:40.89	58.74	14.63	
2025-01-13 16:22:41.91	58.50	14.66	
2025-01-13 16:22:42.93	58.26	14.69	
2025-01-13 16:22:43.96	58.02	14.72	
2025-01-13 16:22:44.99	57.78	14.76	
2025-01-13 16:22:46.03	57.54	14.79	
2025-01-13 16:22:47.06	57.29	14.82	
2025-01-13 16:22:48.08	57.05	14.85	
2025-01-13 16:22:49.12	56.81	14.88	
2025-01-13 16:22:50.15	56.56	14.91	
2025-01-13 16:22:51.17	56.32	14.94	
2025-01-13 16:22:52.20	56.08	14.96	
2025-01-13 16:22:53.23	55.83	14.99	
2025-01-13 16:22:54.25	55.59	15.02	
2025-01-13 16:22:55.28	55.34	15.05	
2025-01-13 16:22:56.30	55.10	15.07	
2025-01-13 16:22:57.33	54.85	15.10	
2025-01-13 16:22:58.35	54.60	15.13	
2025-01-13 16:22:59.38	54.36	15.15	
2025-01-13 16:23:00.41	54.11	15.18	
2025-01-13 16:23:01.45	53.86	15.20	
2025-01-13 16:23:02.47	53.61	15.22	
2025-01-13 16:23:03.50	53.36	15.25	
2025-01-13 16:23:04.53	53.11	15.27	
2025-01-13 16:23:05.57	52.86	15.29	
2025-01-13 16:23:06.59	52.61	15.31	
2025-01-13 16:23:07.63	52.35	15.33	
2025-01-13 16:23:08.65	52.10	15.36	
2025-01-13 16:23:09.68	51.85	15.38	
2025-01-13 16:23:10.70	51.60	15.40	
2025-01-13 16:23:11.73	51.35	15.41	
2025-01-13 16:23:12.75	51.10	15.43	
2025-01-13 16:23:13.77	50.85	15.45	
2025-01-13 16:23:14.80	50.59	15.47	
2025-01-13 16:23:15.83	50.34	15.49	
2025-01-13 16:23:16.87	50.08	15.50	
2025-01-13 16:23:17.89	49.83	15.52	
2025-01-13 16:23:18.91	49.58	15.53	
2025-01-13 16:23:19.94	49.32	15.55	
2025-01-13 16:23:20.96	49.07	15.56	
2025-01-13 16:23:21.99	48.81	15.58	
2025-01-13 16:23:23.02	48.56	15.59	
2025-01-13 16:23:24.04	48.30	15.60	
2025-01-13 16:23:25.06	48.05	15.62	
2025-01-13 16:23:26.09	47.79	15.63	
2025-01-13 16:23:27.13	47.53	15.64	
2025-01-13 16:23:28.15	47.28	15.65	
2025-01-13 16:23:29.18	47.02	15.66	
2025-01-13 16:23:30.21	46.76	15.67	
2025-01-13 16:23:31.23	46.51	15.68	
2025-01-13 16:23:32.26	46.25	15.69	
2025-01-13 16:23:33.28	45.99	15.69	
2025-01-13 16:23:34.31	45.74	15.70	
2025-01-13 16:23:35.33	45.48	15.71	
2025-01-13 16:23:36.35	45.22	15.71	
2025-01-13 16:23:37.38	44.96	15.72	
2025-01-13 16:23:38.40	44.71	15.73	
2025-01-13 16:23:39.43	44.45	15.73	
2025-01-13 16:23:40.47	44.19	15.73	
2025-01-13 16:23:41.49	43.93	15.74	
2025-01-13 16:23:42.53	43.67	15.74	
2025-01-13 16:23:43.57	43.41	15.74	
2025-01-13 16:23:44.60	43.15	15.74	
2025-01-13 16:23:45.63	42.89	15.75	
2025-01-13 16:23:46.65	42.63	15.75	
2025-01-13 16:23:47.68	42.38	15.75	
2025-01-13 16:23:48.72	42.11	15.75	
2025-01-13 16:23:49.74	41.86	15.74	
2025-01-13 16:23:50.77	41.60	15.74	
2025-01-13 16:23:51.80	41.34	15.74	
2025-01-13 16:23:52.83	41.08	15.74	
2025-01-13 16:23:53.85	40.82	15.74	
2025-01-13 16:23:54.88	40.57	15.73	
2025-01-13 16:23:55.90	40.31	15.73	
2025-01-13 16:23:56.93	40.05	15.72	
2025-01-13 16:23:57.95	39.80	15.72	
2025-01-13 16:23:58.98	39.54	15.71	
2025-01-13 16:24:00.00	39.28	15.70	
2025-01-13 16:24:01.02	39.03	15.70	
2025-01-13 16:24:02.05	38.77	15.69	
2025-01-13 16:24:03.07	38.51	15.68	
2025-01-13 16:24:04.10	38.25	15.67	
2025-01-13 16:24:05.13	38.00	15.66	
2025-01-13 16:24:06.15	37.74	15.65	
2025-01-13 16:24:07.18	37.49	15.64	
2025-01-13 16:24:08.21	37.23	15.63	
2025-01-13 16:24:09.24	36.97	15.62	
2025-01-13 16:24:10.26	36.72	15.61	
2025-01-13 16:24:11.30	36.46	15.60	
2025-01-13 16:24:12.33	36.20	15.58	
2025-01-13 16:24:13.35	35.95	15.57	
2025-01-13 16:24:14.38	35.69	15.55	
2025-01-13 16:24:15.41	35.44	15.54	
2025-01-13 16:24:16.44	35.18	15.52	
2025-01-13 16:24:17.47	34.93	15.51	
2025-01-13 16:24:18.50	34.68	15.49	
2025-01-13 16:24:19.53	34.42	15.48	
2025-01-13 16:24:20.57	34.16	15.46	
2025-01-13 16:24:21.61	33.91	15.44	
2025-01-13 16:24:22.65	33.65	15.42	
2025-01-13 16:24:23.69	33.40	15.40	
2025-01-13 16:24:24.71	33.15	15.38	
2025-01-13 16:24:25.73	32.90	15.36	
2025-01-13 16:24:26.76	32.65	15.34	
2025-01-13 16:24:27.79	32.40	15.32	
2025-01-13 16:24:28.82	32.15	15.30	
2025-01-13 16:24:29.84	31.90	15.28	
2025-01-13 16:24:30.87	31.65	15.26	
2025-01-13 16:24:31.89	31.40	15.23	
2025-01-13 16:24:32.92	31.15	15.21	
2025-01-13 16:24:33.95	30.90	15.19	
2025-01-13 16:24:34.97	30.66	15.16	
2025-01-13 16:24:36.00	30.41	15.14	
2025-01-13 16:24:37.02	30.16	15.11	
2025-01-13 16:24:38.05	29.92	15.08	
2025-01-13 16:24:39.08	29.67	15.06	
2025-01-13 16:24:40.10	29.43	15.03	
2025-01-13 16:24:41.14	29.18	15.00	
2025-01-13 16:24:42.17	28.93	14.98	
2025-01-13 16:24:43.19	28.69	14.95	
2025-01-13 16:24:44.22	28.45	14.92	
2025-01-13 16:24:45.26	28.20	14.89	
2025-01-13 16:24:46.29	27.96	14.86	
2025-01-13 16:24:47.31	27.72	14.83	
2025-01-13 16:24:48.34	27.48	14.80	
2025-01-13 16:24:49.36	27.24	14.77	
2025-01-13 16:24:50.39	27.00	14.74	
2025-01-13 16:24:51.42	26.76	14.71	
2025-01-13 16:24:52.44	26.52	14.67	
2025-01-13 16:24:53.47	26.28	14.64	
2025-01-13 16:24:54.49	26.04	14.61	
2025-01-13 16:24:55.51	25.81	14.58	
2025-01-13 16:24:56.56	25.56	14.54	
2025-01-13 16:24:57.58	25.33	14.51	
2025-01-13 16:24:58.60	25.10	14.47	
2025-01-13 16:24:59.63	24.86	14.44	
2025-01-13 16:25:00.67	24.62	14.40	
2025-01-13 16:25:01.70	24.39	14.37	
2025-01-13 16:25:02.72	24.16	14.33	
2025-01-13 16:25:03.75	23.92	14.29	
2025-01-13 16:25:04.77	23.69	14.26	
2025-01-13 16:25:05.80	23.46	14.22	
2025-01-13 16:25:06.82	23.23	14.18	
2025-01-13 16:25:07.85	23.00	14.14	
2025-01-13 16:25:08.88	22.77	14.10	
2025-01-13 16:25:09.90	22.55	14.07	
2025-01-13 16:25:10.93	22.32	14.03	
2025-01-13 16:25:11.96	22.09	13.99	
2025-01-13 16:25:12.98	21.86	13.95	
2025-01-13 16:25:14.01	21.64	13.91	
2025-01-13 16:25:15.04	21.41	13.87	
2025-01-13 16:25:16.06	21.19	13.82	
2025-01-13 16:25:17.08	20.96	13.78	
2025-01-13 16:25:18.11	20.74	13.74	
2025-01-13 16:25:19.13	20.52	13.70	
2025-01-13 16:25:20.15	20.30	13.66	
2025-01-13 16:25:21.18	20.08	13.62	
2025-01-13 16:25:22.22	19.85	13.57	
2025-01-13 16:25:23.25	19.63	13.53	
2025-01-13 16:25:24.27	19.42	13.48	
2025-01-13 16:25:25.30	19.20	13.44	
2025-01-13 16:25:26.32	18.98	13.40	
2025-01-13 16:25:27.35	18.76	13.35	
2025-01-13 16:25:28.39	18.54	13.31	
2025-01-13 16:25:29.41	18.33	13.26	
2025-01-13 16:25:30.44	18.11	13.22	
2025-01-13 16:25:31.46	17.90	13.17	
2025-01-13 16:25:32.49	17.69	13.13	
2025-01-13 16:25:33.52	17.47	13.08	
2025-01-13 16:25:34.54	17.26	13.03	
2025-01-13 16:25:35.57	17.05	12.99	
2025-01-13 16:25:36.59	16.84	12.94	
2025-01-13 16:25:37.62	16.63	12.89	
2025-01-13 16:25:38.64	16.42	12.84	
2025-01-13 16:25:39.67	16.21	12.80	
2025-01-13 16:25:40.70	16.01	12.75	
2025-01-13 16:25:41.72	15.80	12.70	
2025-01-13 16:25:42.75	15.59	12.65	
2025-01-13 16:25:43.78	15.39	12.60	
2025-01-13 16:25:44.80	15.18	12.55	
2025-01-13 16:25:45.83	14.98	12.51	
2025-01-13 16:25:46.86	14.78	12.46	
2025-01-13 16:25:47.88	14.58	12.41	
2025-01-13 16:25:48.91	14.37	12.36	
2025-01-13 16:25:49.93	14.17	12.31	
2025-01-13 16:25:50.97	13.97	12.26	
2025-01-13 16:25:52.00	13.77	12.21	
2025-01-13 16:25:53.02	13.57	12.15	
2025-01-13 16:25:54.06	13.37	12.10	
2025-01-13 16:25:55.08	13.18	12.05	
2025-01-13 16:25:56.11	12.98	12.00	
2025-01-13 16:25:57.13	12.79	11.95	
2025-01-13 16:25:58.16	12.59	11.90	
2025-01-13 16:25:59.19	12.40	11.85	
2025-01-13 16:26:00.21	12.20	11.79	
2025-01-13 16:26:01.23	12.01	11.74	
2025-01-13 16:26:02.26	11.82	11.69	
2025-01-13 16:26:03.28	11.63	11.64	
2025-01-13 16:26:04.31	11.44	11.59	
2025-01-13 16:26:05.34	11.25	11.53	
2025-01-13 16:26:06.36	11.06	11.48	
2025-01-13 16:26:07.40	10.87	11.43	
2025-01-13 16:26:08.43	10.68	11.37	
2025-01-13 16:26:09.45	10.50	11.32	
2025-01-13 16:26:10.47	10.31	11.27	
2025-01-13 16:26:11.50	10.13	11.21	
2025-01-13 16:26:12.53	9.94	11.16	
2025-01-13 16:26:13.56	9.76	11.10	
2025-01-13 16:26:14.58	9.57	11.05	
2025-01-13 16:26:15.60	9.39	11.00	
2025-01-13 16:26:16.63	9.21	10.94	
2025-01-13 16:26:17.65	9.03	10.89	
2025-01-13 16:26:18.67	8.85	10.83	
2025-01-13 16:26:19.70	8.67	10.78	
2025-01-13 16:26:20.73	8.49	10.72	
2025-01-13 16:26:21.75	8.32	10.67	
2025-01-13 16:26:22.78	8.14	10.61	
2025-01-13 16:26:23.80	7.96	10.56	
2025-01-13 16:26:24.83	7.79	10.50	
2025-01-13 16:26:25.85	7.61	10.45	
2025-01-13 16:26:26.89	7.44	10.39	
2025-01-13 16:26:27.92	7.26	10.33	
2025-01-13 16:26:28.94	7.09	10.28	
2025-01-13 16:26:29.97	6.92	10.22	
2025-01-13 16:26:30.99	6.75	10.17	
2025-01-13 16:26:32.03	6.58	10.11	
2025-01-13 16:26:33.06	6.41	10.05	
2025-01-13 16:26:34.08	6.24	10.00	
2025-01-13 16:26:35.11	6.07	9.94	
2025-01-13 16:26:36.13	5.90	9.88	
2025-01-13 16:26:37.15	5.74	9.83	
2025-01-13 16:26:38.18	5.57	9.77	
2025-01-13 16:26:39.20	5.41	9.72	
2025-01-13 16:26:40.23	5.24	9.66	
2025-01-13 16:26:41.26	5.08	9.60	
2025-01-13 16:26:42.30	4.91	9.54	
2025-01-13 16:26:43.32	4.75	9.49	
2025-01-13 16:26:44.34	4.59	9.43	
2025-01-13 16:26:45.37	4.43	9.37	
2025-01-13 16:26:46.40	4.27	9.32	
2025-01-13 16:26:47.42	4.11	9.26	
2025-01-13 16:26:48.45	3.95	9.20	
2025-01-13 16:26:49.47	3.79	9.14	
2025-01-13 16:26:50.50	3.63	9.09	
2025-01-13 16:26:51.52	3.48	9.03	
2025-01-13 16:26:52.55	3.32	8.97	
2025-01-13 16:26:53.58	3.16	8.91	
2025-01-13 16:26:54.61	3.01	8.86	
2025-01-13 16:26:55.65	2.85	8.80	
2025-01-13 16:26:56.67	2.70	8.74	
2025-01-13 16:26:57.70	2.54	8.68	
2025-01-13 16:26:58.74	2.39	8.62	
2025-01-13 16:26:59.76	2.24	8.57	
2025-01-13 16:27:00.79	2.09	8.51	
2025-01-13 16:27:01.83	1.93	8.45	
2025-01-13 16:27:02.85	1.79	8.39	
2025-01-13 16:27:03.88	1.64	8.34	
2025-01-13 16:27:04.90	1.49	8.28	
2025-01-13 16:27:05.94	1.34	8.22	
2025-01-13 16:27:06.98	1.19	8.16	
2025-01-13 16:27:08.01	1.04	8.10	
2025-01-13 16:27:09.03	0.90	8.04	
2025-01-13 16:27:10.05	0.75	7.99	
2025-01-13 16:27:11.08	0.61	7.93	
2025-01-13 16:27:12.10	0.47	7.87	
2025-01-13 16:27:13.13	0.32	7.81	
2025-01-13 16:27:14.15	0.18	7.76	
2025-01-13 16:27:15.18	0.04	7.70	
2025-01-13 16:27:16.21	359.90	7.64	
2025-01-13 16:27:17.25	359.75	7.58	
2025-01-13 16:27:18.27	359.61	7.52	
2025-01-13 16:27:19.30	359.48	7.46	
2025-01-13 16:27:20.32	359.34	7.41	
2025-01-13 16:27:21.35	359.20	7.35	
2025-01-13 16:27:22.38	359.06	7.29	
2025-01-13 16:27:23.40	358.92	7.23	
2025-01-13 16:27:24.43	358.79	7.17	
2025-01-13 16:27:25.45	358.65	7.12	
2025-01-13 16:27:26.48	358.52	7.06	
2025-01-13 16:27:27.52	358.38	7.00	
2025-01-13 16:27:28.54	358.25	6.94	
2025-01-13 16:27:29.57	358.11	6.88	
2025-01-13 16:27:30.59	357.98	6.83	
2025-01-13 16:27:31.62	357.85	6.77	
2025-01-13 16:27:32.64	357.72	6.71	
2025-01-13 16:27:33.67	357.59	6.65	
2025-01-13 16:27:34.69	357.46	6.59	
2025-01-13 16:27:35.72	357.33	6.54	
2025-01-13 16:27:36.75	357.20	6.48	
2025-01-13 16:27:37.78	357.07	6.42	
2025-01-13 16:27:38.81	356.94	6.36	
2025-01-13 16:27:39.85	356.81	6.30	
2025-01-13 16:27:40.88	356.68	6.24	
2025-01-13 16:27:41.90	356.56	6.19	
2025-01-13 16:27:42.93	356.43	6.13	
2025-01-13 16:27:43.96	356.30	6.07	
2025-01-13 16:27:44.98	356.18	6.01	
2025-01-13 16:27:46.01	356.06	5.95	
2025-01-13 16:27:47.03	355.93	5.90	
2025-01-13 16:27:48.06	355.81	5.84	
2025-01-13 16:27:49.08	355.69	5.78	
2025-01-13 16:27:50.11	355.57	5.72	
2025-01-13 16:27:51.13	355.44	5.67	
2025-01-13 16:27:52.16	355.32	5.61	
2025-01-13 16:27:53.18	355.20	5.55	
2025-01-13 16:27:54.21	355.08	5.49	
2025-01-13 16:27:55.23	354.96	5.44	
2025-01-13 16:27:56.25	354.85	5.38	
2025-01-13 16:27:57.28	354.73	5.32	
2025-01-13 16:27:58.31	354.61	5.26	
2025-01-13 16:27:59.34	354.49	5.21	
2025-01-13 16:28:00.36	354.38	5.15	
2025-01-13 16:28:01.38	354.26	5.09	
2025-01-13 16:28:02.40	354.15	5.03	
2025-01-13 16:28:03.43	354.03	4.98	
2025-01-13 16:28:04.45	353.92	4.92	
2025-01-13 16:28:05.48	353.80	4.86	
2025-01-13 16:28:06.50	353.69	4.81	
2025-01-13 16:28:07.53	353.58	4.75	
2025-01-13 16:28:08.56	353.46	4.69	
2025-01-13 16:28:09.58	353.35	4.63	
2025-01-13 16:28:10.62	353.24	4.58	
2025-01-13 16:28:11.64	353.13	4.52	
2025-01-13 16:28:12.67	353.02	4.46	
2025-01-13 16:28:13.69	352.91	4.41	
2025-01-13 16:28:14.72	352.80	4.35	
2025-01-13 16:28:15.75	352.69	4.29	
2025-01-13 16:28:16.77	352.58	4.24	
2025-01-13 16:28:17.79	352.47	4.18	
2025-01-13 16:28:18.83	352.36	4.12	
2025-01-13 16:28:19.86	352.25	4.06	
2025-01-13 16:28:20.88	352.15	4.01	

#Closed at: 2025-01-13 16:28:21