passes_logs/2025/01/13/SPB_Silybum_02/SPB_Silybum_02__20250113_115218_AQUA_rec.log

#Pass ID: 20250113_115218_AQUA
#Satellite: AQUA
#Configuration: AQUA
#Start time: 2025-01-13 11:52:18

#Version: 2.0.20230423
#Station: SPB_Silybum_02
#Location: 30.233357 lon 59.946436 lat
#TLE: 1 27424U 02022A   25012.80860775  .00001720  00000+0  36312-3 0  9993
#TLE: 2 27424  98.3585 329.4528 0001624 113.6325 279.3978 14.60673868207302

#Time	Az	El	Level	Level2	SNR	BER	Gain	Gain2
2025-01-13 11:52:20.16	175.71	4.09	
2025-01-13 11:52:21.40	175.75	4.18	
2025-01-13 11:52:22.64	175.79	4.27	
2025-01-13 11:52:23.88	175.82	4.36	
2025-01-13 11:52:25.12	175.86	4.45	
2025-01-13 11:52:26.35	175.90	4.54	
2025-01-13 11:52:27.58	175.94	4.63	
2025-01-13 11:52:28.81	175.98	4.72	
2025-01-13 11:52:30.04	176.02	4.81	
2025-01-13 11:52:31.28	176.06	4.90	
2025-01-13 11:52:32.50	176.11	4.99	
2025-01-13 11:52:33.74	176.15	5.08	
2025-01-13 11:52:34.96	176.19	5.17	
2025-01-13 11:52:36.21	176.23	5.26	
2025-01-13 11:52:37.43	176.27	5.35	
2025-01-13 11:52:38.68	176.31	5.45	
2025-01-13 11:52:39.91	176.36	5.54	
2025-01-13 11:52:41.14	176.40	5.63	
2025-01-13 11:52:42.39	176.44	5.73	
2025-01-13 11:52:43.62	176.49	5.82	
2025-01-13 11:52:44.85	176.53	5.92	
2025-01-13 11:52:46.09	176.57	6.01	
2025-01-13 11:52:47.32	176.62	6.11	
2025-01-13 11:52:48.55	176.66	6.20	
2025-01-13 11:52:49.78	176.71	6.30	
2025-01-13 11:52:51.02	176.75	6.39	
2025-01-13 11:52:52.25	176.80	6.49	
2025-01-13 11:52:53.48	176.84	6.59	
2025-01-13 11:52:54.71	176.89	6.68	
2025-01-13 11:52:55.94	176.93	6.78	
2025-01-13 11:52:57.17	176.98	6.88	
2025-01-13 11:52:58.40	177.03	6.98	
2025-01-13 11:52:59.64	177.07	7.08	
2025-01-13 11:53:00.87	177.12	7.17	
2025-01-13 11:53:02.10	177.17	7.27	
2025-01-13 11:53:03.33	177.22	7.37	
2025-01-13 11:53:04.56	177.26	7.47	
2025-01-13 11:53:05.79	177.31	7.58	
2025-01-13 11:53:07.02	177.36	7.68	
2025-01-13 11:53:08.25	177.41	7.78	
2025-01-13 11:53:09.50	177.46	7.88	
2025-01-13 11:53:10.73	177.51	7.98	
2025-01-13 11:53:11.96	177.56	8.09	
2025-01-13 11:53:13.21	177.61	8.19	
2025-01-13 11:53:14.45	177.67	8.30	
2025-01-13 11:53:15.68	177.72	8.40	
2025-01-13 11:53:16.91	177.77	8.51	
2025-01-13 11:53:18.15	177.82	8.61	
2025-01-13 11:53:19.38	177.87	8.72	
2025-01-13 11:53:20.63	177.93	8.83	
2025-01-13 11:53:21.85	177.98	8.93	
2025-01-13 11:53:23.09	178.03	9.04	
2025-01-13 11:53:24.32	178.09	9.15	
2025-01-13 11:53:25.55	178.14	9.26	
2025-01-13 11:53:26.79	178.20	9.37	
2025-01-13 11:53:28.02	178.25	9.48	
2025-01-13 11:53:29.24	178.31	9.58	
2025-01-13 11:53:30.48	178.37	9.70	
2025-01-13 11:53:31.72	178.42	9.81	
2025-01-13 11:53:32.95	178.48	9.92	
2025-01-13 11:53:34.18	178.54	10.03	
2025-01-13 11:53:35.42	178.60	10.14	
2025-01-13 11:53:36.65	178.65	10.26	
2025-01-13 11:53:37.88	178.71	10.37	
2025-01-13 11:53:39.10	178.77	10.48	
2025-01-13 11:53:40.35	178.83	10.60	
2025-01-13 11:53:41.58	178.89	10.72	
2025-01-13 11:53:42.81	178.95	10.83	
2025-01-13 11:53:44.04	179.02	10.95	
2025-01-13 11:53:45.27	179.08	11.07	
2025-01-13 11:53:46.51	179.14	11.18	
2025-01-13 11:53:47.76	179.20	11.30	
2025-01-13 11:53:48.99	179.27	11.42	
2025-01-13 11:53:50.22	179.33	11.54	
2025-01-13 11:53:51.45	179.39	11.66	
2025-01-13 11:53:52.69	179.46	11.78	
2025-01-13 11:53:53.93	179.53	11.91	
2025-01-13 11:53:55.16	179.59	12.03	
2025-01-13 11:53:56.39	179.66	12.15	
2025-01-13 11:53:57.61	179.72	12.27	
2025-01-13 11:53:58.85	179.79	12.40	
2025-01-13 11:54:00.08	179.86	12.52	
2025-01-13 11:54:01.30	179.93	12.65	
2025-01-13 11:54:02.53	180.00	12.77	
2025-01-13 11:54:03.76	180.07	12.90	
2025-01-13 11:54:04.99	180.14	13.03	
2025-01-13 11:54:06.22	180.21	13.16	
2025-01-13 11:54:07.45	180.28	13.28	
2025-01-13 11:54:08.68	180.35	13.41	
2025-01-13 11:54:09.92	180.43	13.55	
2025-01-13 11:54:11.16	180.50	13.68	
2025-01-13 11:54:12.39	180.58	13.81	
2025-01-13 11:54:13.62	180.65	13.94	
2025-01-13 11:54:14.85	180.73	14.08	
2025-01-13 11:54:16.08	180.80	14.21	
2025-01-13 11:54:17.31	180.88	14.34	
2025-01-13 11:54:18.54	180.96	14.48	
2025-01-13 11:54:19.77	181.04	14.62	
2025-01-13 11:54:21.01	181.12	14.75	
2025-01-13 11:54:22.24	181.20	14.89	
2025-01-13 11:54:23.47	181.28	15.03	
2025-01-13 11:54:24.70	181.36	15.17	
2025-01-13 11:54:25.93	181.44	15.31	
2025-01-13 11:54:27.16	181.53	15.45	
2025-01-13 11:54:28.39	181.61	15.60	
2025-01-13 11:54:29.63	181.69	15.74	
2025-01-13 11:54:30.86	181.78	15.88	
2025-01-13 11:54:32.09	181.87	16.03	
2025-01-13 11:54:33.32	181.95	16.18	
2025-01-13 11:54:34.55	182.04	16.32	
2025-01-13 11:54:35.78	182.13	16.47	
2025-01-13 11:54:37.01	182.22	16.62	
2025-01-13 11:54:38.24	182.31	16.77	
2025-01-13 11:54:39.47	182.40	16.92	
2025-01-13 11:54:40.70	182.50	17.07	
2025-01-13 11:54:41.94	182.59	17.22	
2025-01-13 11:54:43.17	182.68	17.38	
2025-01-13 11:54:44.40	182.78	17.53	
2025-01-13 11:54:45.63	182.88	17.69	
2025-01-13 11:54:46.86	182.97	17.84	
2025-01-13 11:54:48.10	183.07	18.00	
2025-01-13 11:54:49.33	183.17	18.16	
2025-01-13 11:54:50.56	183.27	18.32	
2025-01-13 11:54:51.79	183.38	18.48	
2025-01-13 11:54:53.01	183.48	18.64	
2025-01-13 11:54:54.24	183.58	18.80	
2025-01-13 11:54:55.49	183.69	18.97	
2025-01-13 11:54:56.71	183.79	19.13	
2025-01-13 11:54:57.94	183.90	19.30	
2025-01-13 11:54:59.17	184.01	19.47	
2025-01-13 11:55:00.41	184.12	19.64	
2025-01-13 11:55:01.64	184.23	19.81	
2025-01-13 11:55:02.87	184.34	19.98	
2025-01-13 11:55:04.10	184.46	20.15	
2025-01-13 11:55:05.33	184.57	20.32	
2025-01-13 11:55:06.56	184.69	20.50	
2025-01-13 11:55:07.79	184.81	20.67	
2025-01-13 11:55:09.03	184.92	20.85	
2025-01-13 11:55:10.26	185.05	21.03	
2025-01-13 11:55:11.49	185.17	21.21	
2025-01-13 11:55:12.72	185.29	21.39	
2025-01-13 11:55:13.95	185.41	21.57	
2025-01-13 11:55:15.20	185.54	21.76	
2025-01-13 11:55:16.43	185.67	21.94	
2025-01-13 11:55:17.66	185.80	22.13	
2025-01-13 11:55:18.89	185.93	22.31	
2025-01-13 11:55:20.13	186.06	22.50	
2025-01-13 11:55:21.35	186.20	22.69	
2025-01-13 11:55:22.59	186.33	22.88	
2025-01-13 11:55:23.82	186.47	23.08	
2025-01-13 11:55:25.05	186.61	23.27	
2025-01-13 11:55:26.27	186.75	23.47	
2025-01-13 11:55:27.52	186.89	23.67	
2025-01-13 11:55:28.75	187.04	23.86	
2025-01-13 11:55:29.98	187.18	24.06	
2025-01-13 11:55:31.22	187.33	24.27	
2025-01-13 11:55:32.45	187.48	24.47	
2025-01-13 11:55:33.69	187.64	24.68	
2025-01-13 11:55:34.93	187.79	24.88	
2025-01-13 11:55:36.15	187.95	25.09	
2025-01-13 11:55:37.39	188.11	25.30	
2025-01-13 11:55:38.62	188.27	25.51	
2025-01-13 11:55:39.86	188.43	25.72	
2025-01-13 11:55:41.09	188.60	25.94	
2025-01-13 11:55:42.32	188.76	26.15	
2025-01-13 11:55:43.55	188.93	26.37	
2025-01-13 11:55:44.78	189.10	26.59	
2025-01-13 11:55:46.03	189.28	26.81	
2025-01-13 11:55:47.26	189.46	27.04	
2025-01-13 11:55:48.49	189.64	27.26	
2025-01-13 11:55:49.72	189.82	27.49	
2025-01-13 11:55:50.96	190.01	27.71	
2025-01-13 11:55:52.18	190.19	27.94	
2025-01-13 11:55:53.41	190.38	28.17	
2025-01-13 11:55:54.64	190.57	28.41	
2025-01-13 11:55:55.88	190.77	28.64	
2025-01-13 11:55:57.12	190.97	28.88	
2025-01-13 11:55:58.35	191.17	29.12	
2025-01-13 11:55:59.59	191.38	29.36	
2025-01-13 11:56:00.82	191.58	29.60	
2025-01-13 11:56:02.05	191.79	29.84	
2025-01-13 11:56:03.28	192.01	30.09	
2025-01-13 11:56:04.51	192.23	30.34	
2025-01-13 11:56:05.74	192.45	30.58	
2025-01-13 11:56:06.97	192.67	30.84	
2025-01-13 11:56:08.20	192.90	31.09	
2025-01-13 11:56:09.45	193.13	31.35	
2025-01-13 11:56:10.68	193.37	31.60	
2025-01-13 11:56:11.92	193.61	31.86	
2025-01-13 11:56:13.15	193.85	32.12	
2025-01-13 11:56:14.40	194.10	32.39	
2025-01-13 11:56:15.63	194.35	32.65	
2025-01-13 11:56:16.87	194.61	32.92	
2025-01-13 11:56:18.10	194.87	33.19	
2025-01-13 11:56:19.34	195.13	33.46	
2025-01-13 11:56:20.57	195.40	33.73	
2025-01-13 11:56:21.79	195.67	34.00	
2025-01-13 11:56:23.03	195.95	34.28	
2025-01-13 11:56:24.25	196.23	34.56	
2025-01-13 11:56:25.49	196.52	34.84	
2025-01-13 11:56:26.71	196.81	35.12	
2025-01-13 11:56:27.94	197.10	35.40	
2025-01-13 11:56:29.17	197.41	35.68	
2025-01-13 11:56:30.40	197.71	35.97	
2025-01-13 11:56:31.63	198.03	36.26	
2025-01-13 11:56:32.86	198.34	36.55	
2025-01-13 11:56:34.09	198.67	36.84	
2025-01-13 11:56:35.32	199.00	37.13	
2025-01-13 11:56:36.55	199.33	37.43	
2025-01-13 11:56:37.79	199.68	37.73	
2025-01-13 11:56:39.02	200.03	38.03	
2025-01-13 11:56:40.25	200.38	38.33	
2025-01-13 11:56:41.49	200.75	38.63	
2025-01-13 11:56:42.72	201.12	38.94	
2025-01-13 11:56:43.95	201.49	39.24	
2025-01-13 11:56:45.18	201.88	39.55	
2025-01-13 11:56:46.41	202.27	39.86	
2025-01-13 11:56:47.64	202.66	40.16	
2025-01-13 11:56:48.87	203.07	40.48	
2025-01-13 11:56:50.11	203.48	40.79	
2025-01-13 11:56:51.34	203.91	41.10	
2025-01-13 11:56:52.58	204.34	41.42	
2025-01-13 11:56:53.80	204.77	41.73	
2025-01-13 11:56:55.03	205.22	42.05	
2025-01-13 11:56:56.26	205.68	42.37	
2025-01-13 11:56:57.49	206.14	42.69	
2025-01-13 11:56:58.73	206.62	43.01	
2025-01-13 11:56:59.97	207.11	43.33	
2025-01-13 11:57:01.20	207.60	43.65	
2025-01-13 11:57:02.43	208.10	43.97	
2025-01-13 11:57:03.66	208.62	44.29	
2025-01-13 11:57:04.89	209.14	44.61	
2025-01-13 11:57:06.13	209.68	44.94	
2025-01-13 11:57:07.37	210.23	45.26	
2025-01-13 11:57:08.60	210.79	45.58	
2025-01-13 11:57:09.84	211.36	45.91	
2025-01-13 11:57:11.07	211.95	46.23	
2025-01-13 11:57:12.30	212.54	46.55	
2025-01-13 11:57:13.53	213.14	46.87	
2025-01-13 11:57:14.76	213.76	47.19	
2025-01-13 11:57:15.99	214.39	47.50	
2025-01-13 11:57:17.22	215.03	47.82	
2025-01-13 11:57:18.46	215.70	48.14	
2025-01-13 11:57:19.70	216.37	48.45	
2025-01-13 11:57:20.92	217.05	48.76	
2025-01-13 11:57:22.15	217.75	49.07	
2025-01-13 11:57:23.39	218.47	49.38	
2025-01-13 11:57:24.62	219.19	49.68	
2025-01-13 11:57:25.86	219.94	49.99	
2025-01-13 11:57:27.09	220.69	50.29	
2025-01-13 11:57:28.32	221.47	50.58	
2025-01-13 11:57:29.55	222.25	50.87	
2025-01-13 11:57:30.78	223.05	51.16	
2025-01-13 11:57:32.01	223.87	51.45	
2025-01-13 11:57:33.24	224.70	51.72	
2025-01-13 11:57:34.47	225.55	52.00	
2025-01-13 11:57:35.70	226.41	52.27	
2025-01-13 11:57:36.95	227.31	52.54	
2025-01-13 11:57:38.19	228.21	52.80	
2025-01-13 11:57:39.43	229.13	53.06	
2025-01-13 11:57:40.66	230.06	53.30	
2025-01-13 11:57:41.90	231.01	53.55	
2025-01-13 11:57:43.13	231.97	53.78	
2025-01-13 11:57:44.36	232.94	54.01	
2025-01-13 11:57:45.59	233.93	54.23	
2025-01-13 11:57:46.83	234.94	54.44	
2025-01-13 11:57:48.07	235.97	54.65	
2025-01-13 11:57:49.31	237.01	54.85	
2025-01-13 11:57:50.54	238.06	55.04	
2025-01-13 11:57:51.77	239.12	55.21	
2025-01-13 11:57:53.01	240.20	55.39	
2025-01-13 11:57:54.24	241.29	55.55	
2025-01-13 11:57:55.48	242.40	55.70	
2025-01-13 11:57:56.71	243.51	55.84	
2025-01-13 11:57:57.94	244.63	55.97	
2025-01-13 11:57:59.17	245.77	56.09	
2025-01-13 11:58:00.41	246.92	56.20	
2025-01-13 11:58:01.64	248.07	56.30	
2025-01-13 11:58:02.87	249.22	56.39	
2025-01-13 11:58:04.10	250.39	56.47	
2025-01-13 11:58:05.33	251.56	56.53	
2025-01-13 11:58:06.58	252.76	56.59	
2025-01-13 11:58:07.81	253.94	56.63	
2025-01-13 11:58:09.04	255.12	56.66	
2025-01-13 11:58:10.28	256.31	56.68	
2025-01-13 11:58:11.51	257.50	56.69	
2025-01-13 11:58:12.74	258.69	56.69	
2025-01-13 11:58:13.99	259.89	56.67	
2025-01-13 11:58:15.23	261.09	56.65	
2025-01-13 11:58:16.47	262.28	56.61	
2025-01-13 11:58:17.72	263.47	56.56	
2025-01-13 11:58:18.95	264.65	56.50	
2025-01-13 11:58:20.19	265.82	56.42	
2025-01-13 11:58:21.42	266.98	56.34	
2025-01-13 11:58:22.65	268.14	56.24	
2025-01-13 11:58:23.88	269.28	56.14	
2025-01-13 11:58:25.11	270.42	56.02	
2025-01-13 11:58:26.35	271.55	55.90	
2025-01-13 11:58:27.58	272.66	55.76	
2025-01-13 11:58:28.81	273.77	55.61	
2025-01-13 11:58:30.05	274.87	55.45	
2025-01-13 11:58:31.29	275.96	55.29	
2025-01-13 11:58:32.53	277.03	55.11	
2025-01-13 11:58:33.76	278.08	54.93	
2025-01-13 11:58:35.00	279.13	54.73	
2025-01-13 11:58:36.24	280.16	54.53	
2025-01-13 11:58:37.47	281.17	54.32	
2025-01-13 11:58:38.71	282.17	54.10	
2025-01-13 11:58:39.93	283.14	53.88	
2025-01-13 11:58:41.16	284.11	53.65	
2025-01-13 11:58:42.41	285.07	53.41	
2025-01-13 11:58:43.64	286.00	53.16	
2025-01-13 11:58:44.87	286.92	52.91	
2025-01-13 11:58:46.11	287.83	52.66	
2025-01-13 11:58:47.34	288.71	52.39	
2025-01-13 11:58:48.56	289.57	52.13	
2025-01-13 11:58:49.79	290.43	51.86	
2025-01-13 11:58:51.02	291.26	51.58	
2025-01-13 11:58:52.26	292.09	51.30	
2025-01-13 11:58:53.49	292.90	51.01	
2025-01-13 11:58:54.72	293.69	50.72	
2025-01-13 11:58:55.94	294.46	50.43	
2025-01-13 11:58:57.18	295.23	50.13	
2025-01-13 11:58:58.42	295.98	49.83	
2025-01-13 11:58:59.65	296.71	49.53	
2025-01-13 11:59:00.88	297.43	49.23	
2025-01-13 11:59:02.11	298.13	48.92	
2025-01-13 11:59:03.34	298.82	48.61	
2025-01-13 11:59:04.57	299.49	48.30	
2025-01-13 11:59:05.81	300.16	47.98	
2025-01-13 11:59:07.04	300.81	47.67	
2025-01-13 11:59:08.28	301.45	47.35	
2025-01-13 11:59:09.50	302.06	47.04	
2025-01-13 11:59:10.74	302.68	46.72	
2025-01-13 11:59:11.97	303.28	46.40	
2025-01-13 11:59:13.20	303.86	46.08	
2025-01-13 11:59:14.44	304.44	45.76	
2025-01-13 11:59:15.67	305.00	45.44	
2025-01-13 11:59:16.91	305.55	45.11	
2025-01-13 11:59:18.14	306.09	44.79	
2025-01-13 11:59:19.37	306.62	44.47	
2025-01-13 11:59:20.62	307.15	44.15	
2025-01-13 11:59:21.85	307.66	43.83	
2025-01-13 11:59:23.08	308.15	43.51	
2025-01-13 11:59:24.33	308.65	43.19	
2025-01-13 11:59:25.56	309.12	42.87	
2025-01-13 11:59:26.80	309.60	42.55	
2025-01-13 11:59:28.03	310.06	42.23	
2025-01-13 11:59:29.28	310.51	41.91	
2025-01-13 11:59:30.51	310.95	41.60	
2025-01-13 11:59:31.74	311.39	41.28	
2025-01-13 11:59:32.97	311.81	40.97	
2025-01-13 11:59:34.20	312.23	40.66	
2025-01-13 11:59:35.43	312.63	40.35	
2025-01-13 11:59:36.66	313.03	40.04	
2025-01-13 11:59:37.90	313.43	39.73	
2025-01-13 11:59:39.12	313.81	39.43	
2025-01-13 11:59:40.35	314.19	39.12	
2025-01-13 11:59:41.58	314.56	38.82	
2025-01-13 11:59:42.82	314.93	38.52	
2025-01-13 11:59:44.05	315.29	38.22	
2025-01-13 11:59:45.28	315.64	37.92	
2025-01-13 11:59:46.51	315.98	37.62	
2025-01-13 11:59:47.74	316.32	37.33	
2025-01-13 11:59:48.97	316.65	37.03	
2025-01-13 11:59:50.20	316.98	36.74	
2025-01-13 11:59:51.45	317.30	36.45	
2025-01-13 11:59:52.69	317.62	36.16	
2025-01-13 11:59:53.92	317.93	35.87	
2025-01-13 11:59:55.14	318.23	35.59	
2025-01-13 11:59:56.39	318.54	35.31	
2025-01-13 11:59:57.63	318.83	35.02	
2025-01-13 11:59:58.86	319.12	34.74	
2025-01-13 12:00:00.11	319.41	34.46	
2025-01-13 12:00:01.34	319.69	34.19	
2025-01-13 12:00:02.56	319.96	33.92	
2025-01-13 12:00:03.79	320.23	33.65	
2025-01-13 12:00:05.02	320.49	33.38	
2025-01-13 12:00:06.25	320.75	33.11	
2025-01-13 12:00:07.48	321.01	32.85	
2025-01-13 12:00:08.71	321.26	32.58	
2025-01-13 12:00:09.94	321.51	32.32	
2025-01-13 12:00:11.19	321.76	32.06	
2025-01-13 12:00:12.42	322.00	31.80	
2025-01-13 12:00:13.65	322.23	31.54	
2025-01-13 12:00:14.88	322.47	31.29	
2025-01-13 12:00:16.11	322.69	31.04	
2025-01-13 12:00:17.35	322.92	30.78	
2025-01-13 12:00:18.58	323.14	30.54	
2025-01-13 12:00:19.83	323.37	30.29	
2025-01-13 12:00:21.07	323.58	30.04	
2025-01-13 12:00:22.30	323.79	29.80	
2025-01-13 12:00:23.53	324.00	29.56	
2025-01-13 12:00:24.76	324.21	29.32	
2025-01-13 12:00:26.00	324.41	29.08	
2025-01-13 12:00:27.23	324.61	28.84	
2025-01-13 12:00:28.46	324.81	28.61	
2025-01-13 12:00:29.69	325.00	28.37	
2025-01-13 12:00:30.92	325.19	28.14	
2025-01-13 12:00:32.15	325.38	27.92	
2025-01-13 12:00:33.38	325.57	27.69	
2025-01-13 12:00:34.61	325.75	27.46	
2025-01-13 12:00:35.84	325.93	27.24	
2025-01-13 12:00:37.07	326.11	27.02	
2025-01-13 12:00:38.31	326.29	26.80	
2025-01-13 12:00:39.53	326.46	26.58	
2025-01-13 12:00:40.76	326.63	26.36	
2025-01-13 12:00:41.99	326.80	26.15	
2025-01-13 12:00:43.22	326.96	25.93	
2025-01-13 12:00:44.46	327.13	25.72	
2025-01-13 12:00:45.69	327.29	25.51	
2025-01-13 12:00:46.92	327.45	25.30	
2025-01-13 12:00:48.15	327.61	25.09	
2025-01-13 12:00:49.38	327.76	24.89	
2025-01-13 12:00:50.61	327.91	24.68	
2025-01-13 12:00:51.84	328.07	24.48	
2025-01-13 12:00:53.09	328.22	24.28	
2025-01-13 12:00:54.32	328.36	24.08	
2025-01-13 12:00:55.54	328.51	23.88	
2025-01-13 12:00:56.77	328.65	23.68	
2025-01-13 12:00:58.00	328.79	23.49	
2025-01-13 12:00:59.24	328.94	23.29	
2025-01-13 12:01:00.49	329.08	23.10	
2025-01-13 12:01:01.73	329.21	22.90	
2025-01-13 12:01:02.97	329.35	22.71	
2025-01-13 12:01:04.20	329.48	22.52	
2025-01-13 12:01:05.44	329.62	22.34	
2025-01-13 12:01:06.68	329.75	22.15	
2025-01-13 12:01:07.91	329.88	21.96	
2025-01-13 12:01:09.14	330.00	21.78	
2025-01-13 12:01:10.37	330.13	21.60	
2025-01-13 12:01:11.60	330.25	21.42	
2025-01-13 12:01:12.83	330.38	21.24	
2025-01-13 12:01:14.06	330.50	21.06	
2025-01-13 12:01:15.29	330.62	20.89	
2025-01-13 12:01:16.52	330.74	20.71	
2025-01-13 12:01:17.75	330.85	20.54	
2025-01-13 12:01:18.98	330.97	20.36	
2025-01-13 12:01:20.21	331.08	20.19	
2025-01-13 12:01:21.45	331.20	20.02	
2025-01-13 12:01:22.68	331.31	19.85	
2025-01-13 12:01:23.91	331.42	19.68	
2025-01-13 12:01:25.14	331.53	19.52	
2025-01-13 12:01:26.37	331.64	19.35	
2025-01-13 12:01:27.62	331.75	19.18	
2025-01-13 12:01:28.85	331.85	19.02	
2025-01-13 12:01:30.08	331.96	18.86	
2025-01-13 12:01:31.31	332.06	18.69	
2025-01-13 12:01:32.55	332.17	18.53	
2025-01-13 12:01:33.79	332.27	18.37	
2025-01-13 12:01:35.01	332.37	18.22	
2025-01-13 12:01:36.25	332.47	18.06	
2025-01-13 12:01:37.47	332.57	17.90	
2025-01-13 12:01:38.70	332.66	17.75	
2025-01-13 12:01:39.94	332.76	17.59	
2025-01-13 12:01:41.18	332.86	17.44	
2025-01-13 12:01:42.41	332.95	17.28	
2025-01-13 12:01:43.64	333.05	17.13	
2025-01-13 12:01:44.87	333.14	16.98	
2025-01-13 12:01:46.10	333.23	16.83	
2025-01-13 12:01:47.33	333.32	16.69	
2025-01-13 12:01:48.57	333.41	16.54	
2025-01-13 12:01:49.79	333.50	16.39	
2025-01-13 12:01:51.02	333.59	16.25	
2025-01-13 12:01:52.26	333.68	16.10	
2025-01-13 12:01:53.50	333.76	15.95	
2025-01-13 12:01:54.73	333.85	15.81	
2025-01-13 12:01:55.97	333.94	15.67	
2025-01-13 12:01:57.20	334.02	15.53	
2025-01-13 12:01:58.43	334.10	15.39	
2025-01-13 12:01:59.66	334.19	15.25	
2025-01-13 12:02:00.90	334.27	15.11	
2025-01-13 12:02:02.13	334.35	14.97	
2025-01-13 12:02:03.36	334.43	14.83	
2025-01-13 12:02:04.59	334.51	14.70	
2025-01-13 12:02:05.82	334.59	14.56	
2025-01-13 12:02:07.05	334.67	14.43	
2025-01-13 12:02:08.28	334.74	14.29	
2025-01-13 12:02:09.51	334.82	14.16	
2025-01-13 12:02:10.75	334.90	14.03	
2025-01-13 12:02:11.99	334.97	13.89	
2025-01-13 12:02:13.22	335.05	13.76	
2025-01-13 12:02:14.46	335.12	13.63	
2025-01-13 12:02:15.69	335.20	13.50	
2025-01-13 12:02:16.92	335.27	13.37	
2025-01-13 12:02:18.15	335.34	13.24	
2025-01-13 12:02:19.38	335.41	13.12	
2025-01-13 12:02:20.61	335.48	12.99	
2025-01-13 12:02:21.84	335.55	12.86	
2025-01-13 12:02:23.08	335.62	12.74	
2025-01-13 12:02:24.30	335.69	12.62	
2025-01-13 12:02:25.54	335.76	12.49	
2025-01-13 12:02:26.78	335.83	12.37	
2025-01-13 12:02:28.02	335.90	12.24	
2025-01-13 12:02:29.25	335.97	12.12	
2025-01-13 12:02:30.50	336.03	12.00	
2025-01-13 12:02:31.73	336.10	11.88	
2025-01-13 12:02:32.97	336.16	11.76	
2025-01-13 12:02:34.22	336.23	11.64	
2025-01-13 12:02:35.45	336.29	11.52	
2025-01-13 12:02:36.68	336.36	11.40	
2025-01-13 12:02:37.92	336.42	11.28	
2025-01-13 12:02:39.15	336.49	11.16	
2025-01-13 12:02:40.37	336.55	11.05	
2025-01-13 12:02:41.60	336.61	10.93	
2025-01-13 12:02:42.84	336.67	10.82	
2025-01-13 12:02:44.07	336.73	10.70	
2025-01-13 12:02:45.31	336.79	10.59	
2025-01-13 12:02:46.55	336.85	10.47	
2025-01-13 12:02:47.77	336.91	10.36	
2025-01-13 12:02:49.01	336.97	10.25	
2025-01-13 12:02:50.24	337.03	10.14	
2025-01-13 12:02:51.47	337.09	10.02	
2025-01-13 12:02:52.70	337.15	9.91	
2025-01-13 12:02:53.93	337.20	9.80	
2025-01-13 12:02:55.16	337.26	9.69	
2025-01-13 12:02:56.39	337.32	9.58	
2025-01-13 12:02:57.62	337.37	9.48	
2025-01-13 12:02:58.85	337.43	9.37	
2025-01-13 12:03:00.08	337.48	9.26	
2025-01-13 12:03:01.31	337.54	9.15	
2025-01-13 12:03:02.54	337.59	9.05	
2025-01-13 12:03:03.77	337.65	8.94	
2025-01-13 12:03:05.00	337.70	8.83	
2025-01-13 12:03:06.23	337.75	8.73	
2025-01-13 12:03:07.46	337.81	8.63	
2025-01-13 12:03:08.69	337.86	8.52	
2025-01-13 12:03:09.92	337.91	8.42	
2025-01-13 12:03:11.15	337.96	8.31	
2025-01-13 12:03:12.39	338.02	8.21	
2025-01-13 12:03:13.64	338.07	8.11	
2025-01-13 12:03:14.88	338.12	8.00	
2025-01-13 12:03:16.11	338.17	7.90	
2025-01-13 12:03:17.34	338.22	7.80	
2025-01-13 12:03:18.58	338.27	7.70	
2025-01-13 12:03:19.81	338.32	7.60	
2025-01-13 12:03:21.04	338.37	7.50	
2025-01-13 12:03:22.27	338.42	7.40	
2025-01-13 12:03:23.50	338.47	7.30	
2025-01-13 12:03:24.73	338.51	7.20	
2025-01-13 12:03:25.97	338.56	7.10	
2025-01-13 12:03:27.20	338.61	7.01	
2025-01-13 12:03:28.43	338.66	6.91	
2025-01-13 12:03:29.66	338.70	6.81	
2025-01-13 12:03:30.90	338.75	6.71	
2025-01-13 12:03:32.13	338.80	6.62	
2025-01-13 12:03:33.36	338.84	6.52	
2025-01-13 12:03:34.59	338.89	6.43	
2025-01-13 12:03:35.83	338.93	6.33	
2025-01-13 12:03:37.06	338.98	6.24	
2025-01-13 12:03:38.29	339.02	6.14	
2025-01-13 12:03:39.52	339.07	6.05	
2025-01-13 12:03:40.75	339.11	5.96	
2025-01-13 12:03:41.99	339.16	5.86	
2025-01-13 12:03:43.22	339.20	5.77	
2025-01-13 12:03:44.45	339.25	5.68	
2025-01-13 12:03:45.68	339.29	5.58	
2025-01-13 12:03:46.91	339.33	5.49	
2025-01-13 12:03:48.15	339.38	5.40	
2025-01-13 12:03:49.38	339.42	5.31	
2025-01-13 12:03:50.61	339.46	5.22	
2025-01-13 12:03:51.84	339.50	5.13	
2025-01-13 12:03:53.07	339.54	5.04	
2025-01-13 12:03:54.31	339.59	4.95	
2025-01-13 12:03:55.56	339.63	4.86	
2025-01-13 12:03:56.78	339.67	4.77	
2025-01-13 12:03:58.01	339.71	4.68	
2025-01-13 12:03:59.26	339.75	4.59	
2025-01-13 12:04:00.48	339.79	4.50	
2025-01-13 12:04:01.71	339.83	4.41	
2025-01-13 12:04:02.95	339.87	4.33	
2025-01-13 12:04:04.18	339.91	4.24	
2025-01-13 12:04:05.41	339.95	4.15	
2025-01-13 12:04:06.64	339.99	4.07	

#Closed at: 2025-01-13 12:04:07