passes_logs/2025/01/13/SPB_Silybum_02/SPB_Silybum_02__20250113_072616_SUOMI_NPP_rec.log

#Pass ID: 20250113_072616_SUOMI NPP
#Satellite: SUOMI NPP
#Configuration: NPP
#Start time: 2025-01-13 07:26:16

#Version: 2.0.20230423
#Station: SPB_Silybum_02
#Location: 30.233357 lon 59.946436 lat
#TLE: 1 37849U 11061A   25012.80531474  .00000146  00000+0  90276-4 0  9990
#TLE: 2 37849  98.7443 313.8217 0001772  44.3490 315.7828 14.19537186684607

#Time	Az	El	Level	Level2	SNR	BER	Gain	Gain2
2025-01-13 07:26:18.55	77.65	4.10	
2025-01-13 07:26:19.58	77.54	4.15	
2025-01-13 07:26:20.61	77.44	4.20	
2025-01-13 07:26:21.63	77.33	4.25	
2025-01-13 07:26:22.66	77.22	4.31	
2025-01-13 07:26:23.69	77.11	4.36	
2025-01-13 07:26:24.72	77.01	4.41	
2025-01-13 07:26:25.74	76.90	4.46	
2025-01-13 07:26:26.77	76.79	4.51	
2025-01-13 07:26:27.79	76.68	4.56	
2025-01-13 07:26:28.82	76.57	4.61	
2025-01-13 07:26:29.85	76.46	4.66	
2025-01-13 07:26:30.88	76.35	4.71	
2025-01-13 07:26:31.90	76.24	4.76	
2025-01-13 07:26:32.93	76.13	4.81	
2025-01-13 07:26:33.95	76.02	4.86	
2025-01-13 07:26:34.98	75.91	4.91	
2025-01-13 07:26:36.00	75.80	4.96	
2025-01-13 07:26:37.04	75.68	5.02	
2025-01-13 07:26:38.06	75.57	5.07	
2025-01-13 07:26:39.08	75.46	5.12	
2025-01-13 07:26:40.11	75.35	5.17	
2025-01-13 07:26:41.14	75.23	5.22	
2025-01-13 07:26:42.16	75.12	5.27	
2025-01-13 07:26:43.20	75.00	5.32	
2025-01-13 07:26:44.23	74.89	5.37	
2025-01-13 07:26:45.25	74.77	5.42	
2025-01-13 07:26:46.28	74.65	5.47	
2025-01-13 07:26:47.31	74.54	5.52	
2025-01-13 07:26:48.33	74.42	5.57	
2025-01-13 07:26:49.36	74.30	5.62	
2025-01-13 07:26:50.40	74.19	5.68	
2025-01-13 07:26:51.42	74.07	5.73	
2025-01-13 07:26:52.45	73.95	5.78	
2025-01-13 07:26:53.48	73.83	5.83	
2025-01-13 07:26:54.51	73.71	5.88	
2025-01-13 07:26:55.53	73.59	5.93	
2025-01-13 07:26:56.55	73.47	5.98	
2025-01-13 07:26:57.58	73.35	6.03	
2025-01-13 07:26:58.61	73.23	6.08	
2025-01-13 07:26:59.63	73.11	6.13	
2025-01-13 07:27:00.66	72.99	6.18	
2025-01-13 07:27:01.69	72.86	6.23	
2025-01-13 07:27:02.71	72.74	6.28	
2025-01-13 07:27:03.74	72.62	6.33	
2025-01-13 07:27:04.77	72.49	6.38	
2025-01-13 07:27:05.79	72.37	6.43	
2025-01-13 07:27:06.82	72.25	6.48	
2025-01-13 07:27:07.85	72.12	6.53	
2025-01-13 07:27:08.87	72.00	6.58	
2025-01-13 07:27:09.90	71.87	6.63	
2025-01-13 07:27:10.92	71.74	6.68	
2025-01-13 07:27:11.95	71.62	6.73	
2025-01-13 07:27:12.97	71.49	6.78	
2025-01-13 07:27:14.00	71.36	6.83	
2025-01-13 07:27:15.03	71.23	6.88	
2025-01-13 07:27:16.05	71.11	6.93	
2025-01-13 07:27:17.08	70.98	6.98	
2025-01-13 07:27:18.11	70.85	7.03	
2025-01-13 07:27:19.13	70.72	7.08	
2025-01-13 07:27:20.16	70.59	7.13	
2025-01-13 07:27:21.19	70.46	7.18	
2025-01-13 07:27:22.21	70.33	7.23	
2025-01-13 07:27:23.24	70.19	7.28	
2025-01-13 07:27:24.26	70.06	7.33	
2025-01-13 07:27:25.29	69.93	7.38	
2025-01-13 07:27:26.32	69.80	7.43	
2025-01-13 07:27:27.36	69.66	7.48	
2025-01-13 07:27:28.39	69.53	7.53	
2025-01-13 07:27:29.41	69.39	7.58	
2025-01-13 07:27:30.43	69.26	7.63	
2025-01-13 07:27:31.46	69.12	7.68	
2025-01-13 07:27:32.48	68.99	7.72	
2025-01-13 07:27:33.51	68.85	7.77	
2025-01-13 07:27:34.53	68.72	7.82	
2025-01-13 07:27:35.56	68.58	7.87	
2025-01-13 07:27:36.58	68.44	7.92	
2025-01-13 07:27:37.63	68.30	7.97	
2025-01-13 07:27:38.65	68.16	8.02	
2025-01-13 07:27:39.68	68.02	8.07	
2025-01-13 07:27:40.71	67.88	8.12	
2025-01-13 07:27:41.75	67.74	8.17	
2025-01-13 07:27:42.78	67.60	8.21	
2025-01-13 07:27:43.81	67.46	8.26	
2025-01-13 07:27:44.84	67.32	8.31	
2025-01-13 07:27:45.86	67.18	8.36	
2025-01-13 07:27:46.89	67.03	8.41	
2025-01-13 07:27:47.91	66.89	8.46	
2025-01-13 07:27:48.94	66.75	8.50	
2025-01-13 07:27:49.97	66.60	8.55	
2025-01-13 07:27:50.99	66.46	8.60	
2025-01-13 07:27:52.02	66.31	8.65	
2025-01-13 07:27:53.06	66.17	8.70	
2025-01-13 07:27:54.08	66.02	8.74	
2025-01-13 07:27:55.12	65.87	8.79	
2025-01-13 07:27:56.16	65.72	8.84	
2025-01-13 07:27:57.19	65.58	8.89	
2025-01-13 07:27:58.21	65.43	8.93	
2025-01-13 07:27:59.24	65.28	8.98	
2025-01-13 07:28:00.27	65.13	9.03	
2025-01-13 07:28:01.31	64.98	9.08	
2025-01-13 07:28:02.34	64.83	9.12	
2025-01-13 07:28:03.37	64.68	9.17	
2025-01-13 07:28:04.39	64.53	9.22	
2025-01-13 07:28:05.43	64.38	9.26	
2025-01-13 07:28:06.45	64.23	9.31	
2025-01-13 07:28:07.48	64.07	9.36	
2025-01-13 07:28:08.51	63.92	9.40	
2025-01-13 07:28:09.53	63.77	9.45	
2025-01-13 07:28:10.56	63.61	9.50	
2025-01-13 07:28:11.58	63.46	9.54	
2025-01-13 07:28:12.61	63.31	9.59	
2025-01-13 07:28:13.64	63.15	9.63	
2025-01-13 07:28:14.66	63.00	9.68	
2025-01-13 07:28:15.69	62.84	9.72	
2025-01-13 07:28:16.71	62.68	9.77	
2025-01-13 07:28:17.74	62.53	9.81	
2025-01-13 07:28:18.76	62.37	9.86	
2025-01-13 07:28:19.79	62.21	9.90	
2025-01-13 07:28:20.82	62.05	9.95	
2025-01-13 07:28:21.84	61.89	9.99	
2025-01-13 07:28:22.87	61.73	10.04	
2025-01-13 07:28:23.90	61.57	10.08	
2025-01-13 07:28:24.92	61.41	10.13	
2025-01-13 07:28:25.96	61.25	10.17	
2025-01-13 07:28:26.98	61.09	10.22	
2025-01-13 07:28:28.01	60.93	10.26	
2025-01-13 07:28:29.04	60.76	10.30	
2025-01-13 07:28:30.06	60.60	10.35	
2025-01-13 07:28:31.09	60.44	10.39	
2025-01-13 07:28:32.13	60.27	10.43	
2025-01-13 07:28:33.17	60.11	10.48	
2025-01-13 07:28:34.20	59.94	10.52	
2025-01-13 07:28:35.22	59.78	10.56	
2025-01-13 07:28:36.25	59.61	10.61	
2025-01-13 07:28:37.28	59.44	10.65	
2025-01-13 07:28:38.30	59.28	10.69	
2025-01-13 07:28:39.33	59.11	10.73	
2025-01-13 07:28:40.36	58.94	10.78	
2025-01-13 07:28:41.38	58.77	10.82	
2025-01-13 07:28:42.41	58.60	10.86	
2025-01-13 07:28:43.43	58.44	10.90	
2025-01-13 07:28:44.46	58.26	10.94	
2025-01-13 07:28:45.48	58.10	10.98	
2025-01-13 07:28:46.51	57.92	11.02	
2025-01-13 07:28:47.54	57.75	11.07	
2025-01-13 07:28:48.56	57.58	11.11	
2025-01-13 07:28:49.59	57.41	11.15	
2025-01-13 07:28:50.62	57.24	11.19	
2025-01-13 07:28:51.64	57.06	11.23	
2025-01-13 07:28:52.68	56.89	11.27	
2025-01-13 07:28:53.71	56.71	11.31	
2025-01-13 07:28:54.73	56.54	11.35	
2025-01-13 07:28:55.76	56.36	11.39	
2025-01-13 07:28:56.79	56.19	11.42	
2025-01-13 07:28:57.82	56.01	11.46	
2025-01-13 07:28:58.84	55.84	11.50	
2025-01-13 07:28:59.87	55.66	11.54	
2025-01-13 07:29:00.89	55.48	11.58	
2025-01-13 07:29:01.92	55.30	11.62	
2025-01-13 07:29:02.95	55.12	11.66	
2025-01-13 07:29:03.97	54.95	11.69	
2025-01-13 07:29:05.00	54.77	11.73	
2025-01-13 07:29:06.02	54.59	11.77	
2025-01-13 07:29:07.05	54.41	11.80	
2025-01-13 07:29:08.08	54.23	11.84	
2025-01-13 07:29:09.10	54.05	11.88	
2025-01-13 07:29:10.13	53.86	11.91	
2025-01-13 07:29:11.15	53.68	11.95	
2025-01-13 07:29:12.19	53.50	11.99	
2025-01-13 07:29:13.22	53.31	12.02	
2025-01-13 07:29:14.24	53.13	12.06	
2025-01-13 07:29:15.26	52.95	12.09	
2025-01-13 07:29:16.29	52.76	12.13	
2025-01-13 07:29:17.33	52.58	12.16	
2025-01-13 07:29:18.36	52.39	12.20	
2025-01-13 07:29:19.39	52.20	12.23	
2025-01-13 07:29:20.43	52.02	12.27	
2025-01-13 07:29:21.46	51.83	12.30	
2025-01-13 07:29:22.48	51.64	12.33	
2025-01-13 07:29:23.51	51.46	12.37	
2025-01-13 07:29:24.56	51.26	12.40	
2025-01-13 07:29:25.59	51.07	12.43	
2025-01-13 07:29:26.61	50.89	12.47	
2025-01-13 07:29:27.64	50.70	12.50	
2025-01-13 07:29:28.68	50.51	12.53	
2025-01-13 07:29:29.72	50.31	12.56	
2025-01-13 07:29:30.75	50.12	12.59	
2025-01-13 07:29:31.78	49.93	12.62	
2025-01-13 07:29:32.82	49.74	12.66	
2025-01-13 07:29:33.84	49.55	12.69	
2025-01-13 07:29:34.87	49.35	12.72	
2025-01-13 07:29:35.90	49.16	12.75	
2025-01-13 07:29:36.92	48.97	12.78	
2025-01-13 07:29:37.95	48.78	12.81	
2025-01-13 07:29:38.97	48.58	12.83	
2025-01-13 07:29:40.00	48.39	12.86	
2025-01-13 07:29:41.03	48.19	12.89	
2025-01-13 07:29:42.06	48.00	12.92	
2025-01-13 07:29:43.10	47.80	12.95	
2025-01-13 07:29:44.12	47.61	12.98	
2025-01-13 07:29:45.15	47.41	13.00	
2025-01-13 07:29:46.18	47.21	13.03	
2025-01-13 07:29:47.20	47.02	13.06	
2025-01-13 07:29:48.23	46.82	13.08	
2025-01-13 07:29:49.27	46.62	13.11	
2025-01-13 07:29:50.29	46.43	13.14	
2025-01-13 07:29:51.32	46.23	13.16	
2025-01-13 07:29:52.34	46.03	13.19	
2025-01-13 07:29:53.37	45.83	13.21	
2025-01-13 07:29:54.39	45.63	13.24	
2025-01-13 07:29:55.42	45.43	13.26	
2025-01-13 07:29:56.45	45.23	13.29	
2025-01-13 07:29:57.47	45.03	13.31	
2025-01-13 07:29:58.50	44.83	13.33	
2025-01-13 07:29:59.53	44.63	13.36	
2025-01-13 07:30:00.57	44.43	13.38	
2025-01-13 07:30:01.59	44.23	13.40	
2025-01-13 07:30:02.61	44.03	13.42	
2025-01-13 07:30:03.64	43.83	13.44	
2025-01-13 07:30:04.67	43.62	13.47	
2025-01-13 07:30:05.70	43.42	13.49	
2025-01-13 07:30:06.73	43.22	13.51	
2025-01-13 07:30:07.75	43.02	13.53	
2025-01-13 07:30:08.78	42.81	13.55	
2025-01-13 07:30:09.80	42.61	13.57	
2025-01-13 07:30:10.83	42.41	13.59	
2025-01-13 07:30:11.86	42.20	13.61	
2025-01-13 07:30:12.88	42.00	13.62	
2025-01-13 07:30:13.92	41.79	13.64	
2025-01-13 07:30:14.95	41.59	13.66	
2025-01-13 07:30:15.98	41.38	13.68	
2025-01-13 07:30:17.00	41.18	13.70	
2025-01-13 07:30:18.03	40.97	13.71	
2025-01-13 07:30:19.05	40.77	13.73	
2025-01-13 07:30:20.08	40.56	13.74	
2025-01-13 07:30:21.11	40.35	13.76	
2025-01-13 07:30:22.13	40.15	13.78	
2025-01-13 07:30:23.15	39.94	13.79	
2025-01-13 07:30:24.18	39.73	13.81	
2025-01-13 07:30:25.22	39.52	13.82	
2025-01-13 07:30:26.24	39.32	13.83	
2025-01-13 07:30:27.27	39.11	13.85	
2025-01-13 07:30:28.30	38.90	13.86	
2025-01-13 07:30:29.32	38.70	13.87	
2025-01-13 07:30:30.35	38.49	13.89	
2025-01-13 07:30:31.38	38.28	13.90	
2025-01-13 07:30:32.40	38.07	13.91	
2025-01-13 07:30:33.43	37.86	13.92	
2025-01-13 07:30:34.45	37.66	13.93	
2025-01-13 07:30:35.49	37.44	13.94	
2025-01-13 07:30:36.52	37.23	13.95	
2025-01-13 07:30:37.55	37.03	13.96	
2025-01-13 07:30:38.58	36.82	13.97	
2025-01-13 07:30:39.60	36.61	13.98	
2025-01-13 07:30:40.64	36.40	13.99	
2025-01-13 07:30:41.69	36.18	14.00	
2025-01-13 07:30:42.71	35.97	14.01	
2025-01-13 07:30:43.74	35.76	14.02	
2025-01-13 07:30:44.77	35.55	14.02	
2025-01-13 07:30:45.79	35.34	14.03	
2025-01-13 07:30:46.83	35.13	14.04	
2025-01-13 07:30:47.86	34.92	14.04	
2025-01-13 07:30:48.88	34.71	14.05	
2025-01-13 07:30:49.91	34.50	14.05	
2025-01-13 07:30:50.95	34.29	14.06	
2025-01-13 07:30:51.97	34.08	14.06	
2025-01-13 07:30:52.99	33.87	14.07	
2025-01-13 07:30:54.02	33.66	14.07	
2025-01-13 07:30:55.05	33.45	14.08	
2025-01-13 07:30:56.08	33.23	14.08	
2025-01-13 07:30:57.11	33.02	14.08	
2025-01-13 07:30:58.14	32.81	14.08	
2025-01-13 07:30:59.17	32.60	14.09	
2025-01-13 07:31:00.19	32.39	14.09	
2025-01-13 07:31:01.22	32.18	14.09	
2025-01-13 07:31:02.24	31.97	14.09	
2025-01-13 07:31:03.27	31.76	14.09	
2025-01-13 07:31:04.31	31.54	14.09	
2025-01-13 07:31:05.33	31.34	14.09	
2025-01-13 07:31:06.35	31.13	14.09	
2025-01-13 07:31:07.39	30.91	14.09	
2025-01-13 07:31:08.42	30.70	14.09	
2025-01-13 07:31:09.44	30.49	14.08	
2025-01-13 07:31:10.47	30.28	14.08	
2025-01-13 07:31:11.49	30.07	14.08	
2025-01-13 07:31:12.52	29.86	14.08	
2025-01-13 07:31:13.55	29.65	14.07	
2025-01-13 07:31:14.57	29.44	14.07	
2025-01-13 07:31:15.60	29.23	14.06	
2025-01-13 07:31:16.62	29.02	14.06	
2025-01-13 07:31:17.65	28.81	14.05	
2025-01-13 07:31:18.68	28.60	14.05	
2025-01-13 07:31:19.70	28.39	14.04	
2025-01-13 07:31:20.73	28.18	14.04	
2025-01-13 07:31:21.76	27.97	14.03	
2025-01-13 07:31:22.80	27.75	14.02	
2025-01-13 07:31:23.84	27.54	14.02	
2025-01-13 07:31:24.89	27.33	14.01	
2025-01-13 07:31:25.92	27.12	14.00	
2025-01-13 07:31:26.94	26.91	13.99	
2025-01-13 07:31:27.97	26.70	13.98	
2025-01-13 07:31:29.00	26.49	13.97	
2025-01-13 07:31:30.02	26.28	13.96	
2025-01-13 07:31:31.05	26.07	13.95	
2025-01-13 07:31:32.07	25.87	13.94	
2025-01-13 07:31:33.10	25.66	13.93	
2025-01-13 07:31:34.13	25.45	13.92	
2025-01-13 07:31:35.17	25.24	13.91	
2025-01-13 07:31:36.19	25.03	13.90	
2025-01-13 07:31:37.23	24.82	13.89	
2025-01-13 07:31:38.26	24.61	13.87	
2025-01-13 07:31:39.28	24.40	13.86	
2025-01-13 07:31:40.31	24.20	13.85	
2025-01-13 07:31:41.33	23.99	13.83	
2025-01-13 07:31:42.36	23.78	13.82	
2025-01-13 07:31:43.39	23.58	13.80	
2025-01-13 07:31:44.42	23.37	13.79	
2025-01-13 07:31:45.45	23.16	13.77	
2025-01-13 07:31:46.47	22.96	13.76	
2025-01-13 07:31:47.50	22.75	13.74	
2025-01-13 07:31:48.52	22.55	13.73	
2025-01-13 07:31:49.55	22.34	13.71	
2025-01-13 07:31:50.58	22.13	13.69	
2025-01-13 07:31:51.62	21.93	13.68	
2025-01-13 07:31:52.65	21.72	13.66	
2025-01-13 07:31:53.67	21.52	13.64	
2025-01-13 07:31:54.71	21.31	13.62	
2025-01-13 07:31:55.74	21.11	13.60	
2025-01-13 07:31:56.77	20.90	13.58	
2025-01-13 07:31:57.79	20.70	13.57	
2025-01-13 07:31:58.82	20.50	13.55	
2025-01-13 07:31:59.84	20.29	13.53	
2025-01-13 07:32:00.88	20.09	13.50	
2025-01-13 07:32:01.90	19.89	13.48	
2025-01-13 07:32:02.93	19.69	13.46	
2025-01-13 07:32:03.96	19.48	13.44	
2025-01-13 07:32:04.98	19.28	13.42	
2025-01-13 07:32:06.00	19.08	13.40	
2025-01-13 07:32:07.04	18.88	13.38	
2025-01-13 07:32:08.09	18.68	13.35	
2025-01-13 07:32:09.11	18.48	13.33	
2025-01-13 07:32:10.14	18.28	13.31	
2025-01-13 07:32:11.16	18.08	13.28	
2025-01-13 07:32:12.18	17.88	13.26	
2025-01-13 07:32:13.22	17.68	13.23	
2025-01-13 07:32:14.25	17.48	13.21	
2025-01-13 07:32:15.28	17.28	13.18	
2025-01-13 07:32:16.30	17.08	13.16	
2025-01-13 07:32:17.33	16.89	13.13	
2025-01-13 07:32:18.36	16.69	13.11	
2025-01-13 07:32:19.38	16.49	13.08	
2025-01-13 07:32:20.42	16.29	13.05	
2025-01-13 07:32:21.46	16.10	13.03	
2025-01-13 07:32:22.49	15.90	13.00	
2025-01-13 07:32:23.51	15.70	12.97	
2025-01-13 07:32:24.54	15.51	12.95	
2025-01-13 07:32:25.57	15.31	12.92	
2025-01-13 07:32:26.59	15.12	12.89	
2025-01-13 07:32:27.62	14.93	12.86	
2025-01-13 07:32:28.65	14.73	12.83	
2025-01-13 07:32:29.67	14.54	12.80	
2025-01-13 07:32:30.70	14.35	12.77	
2025-01-13 07:32:31.72	14.16	12.74	
2025-01-13 07:32:32.75	13.96	12.71	
2025-01-13 07:32:33.78	13.77	12.68	
2025-01-13 07:32:34.81	13.58	12.65	
2025-01-13 07:32:35.83	13.39	12.62	
2025-01-13 07:32:36.87	13.20	12.59	
2025-01-13 07:32:37.90	13.01	12.56	
2025-01-13 07:32:38.92	12.82	12.53	
2025-01-13 07:32:39.96	12.63	12.50	
2025-01-13 07:32:40.99	12.44	12.46	
2025-01-13 07:32:42.01	12.25	12.43	
2025-01-13 07:32:43.04	12.06	12.40	
2025-01-13 07:32:44.08	11.87	12.37	
2025-01-13 07:32:45.11	11.69	12.33	
2025-01-13 07:32:46.13	11.50	12.30	
2025-01-13 07:32:47.16	11.32	12.26	
2025-01-13 07:32:48.19	11.13	12.23	
2025-01-13 07:32:49.21	10.95	12.20	
2025-01-13 07:32:50.24	10.76	12.16	
2025-01-13 07:32:51.26	10.58	12.13	
2025-01-13 07:32:52.29	10.39	12.09	
2025-01-13 07:32:53.32	10.21	12.06	
2025-01-13 07:32:54.34	10.03	12.02	
2025-01-13 07:32:55.37	9.84	11.99	
2025-01-13 07:32:56.41	9.66	11.95	
2025-01-13 07:32:57.44	9.48	11.91	
2025-01-13 07:32:58.46	9.30	11.88	
2025-01-13 07:32:59.49	9.12	11.84	
2025-01-13 07:33:00.51	8.94	11.80	
2025-01-13 07:33:01.54	8.76	11.77	
2025-01-13 07:33:02.56	8.58	11.73	
2025-01-13 07:33:03.59	8.40	11.69	
2025-01-13 07:33:04.61	8.22	11.66	
2025-01-13 07:33:05.64	8.04	11.62	
2025-01-13 07:33:06.66	7.87	11.58	
2025-01-13 07:33:07.69	7.69	11.54	
2025-01-13 07:33:08.71	7.52	11.50	
2025-01-13 07:33:09.73	7.34	11.46	
2025-01-13 07:33:10.76	7.16	11.43	
2025-01-13 07:33:11.80	6.99	11.39	
2025-01-13 07:33:12.83	6.81	11.35	
2025-01-13 07:33:13.86	6.64	11.31	
2025-01-13 07:33:14.88	6.46	11.27	
2025-01-13 07:33:15.91	6.29	11.23	
2025-01-13 07:33:16.93	6.12	11.19	
2025-01-13 07:33:17.96	5.95	11.15	
2025-01-13 07:33:18.99	5.77	11.11	
2025-01-13 07:33:20.03	5.60	11.07	
2025-01-13 07:33:21.05	5.43	11.03	
2025-01-13 07:33:22.08	5.26	10.98	
2025-01-13 07:33:23.10	5.09	10.94	
2025-01-13 07:33:24.13	4.92	10.90	
2025-01-13 07:33:25.16	4.75	10.86	
2025-01-13 07:33:26.19	4.58	10.82	
2025-01-13 07:33:27.21	4.42	10.78	
2025-01-13 07:33:28.25	4.25	10.73	
2025-01-13 07:33:29.28	4.08	10.69	
2025-01-13 07:33:30.30	3.92	10.65	
2025-01-13 07:33:31.32	3.75	10.61	
2025-01-13 07:33:32.35	3.59	10.57	
2025-01-13 07:33:33.40	3.42	10.52	
2025-01-13 07:33:34.42	3.25	10.48	
2025-01-13 07:33:35.46	3.09	10.44	
2025-01-13 07:33:36.49	2.92	10.39	
2025-01-13 07:33:37.52	2.76	10.35	
2025-01-13 07:33:38.55	2.60	10.30	
2025-01-13 07:33:39.57	2.44	10.26	
2025-01-13 07:33:40.60	2.28	10.22	
2025-01-13 07:33:41.63	2.11	10.17	
2025-01-13 07:33:42.66	1.95	10.13	
2025-01-13 07:33:43.69	1.79	10.08	
2025-01-13 07:33:44.71	1.63	10.04	
2025-01-13 07:33:45.74	1.47	10.00	
2025-01-13 07:33:46.76	1.32	9.95	
2025-01-13 07:33:47.79	1.16	9.91	
2025-01-13 07:33:48.81	1.00	9.86	
2025-01-13 07:33:49.84	0.85	9.82	
2025-01-13 07:33:50.86	0.69	9.77	
2025-01-13 07:33:51.89	0.53	9.73	
2025-01-13 07:33:52.93	0.38	9.68	
2025-01-13 07:33:53.95	0.22	9.64	
2025-01-13 07:33:54.97	0.07	9.59	
2025-01-13 07:33:56.00	359.91	9.54	
2025-01-13 07:33:57.03	359.76	9.50	
2025-01-13 07:33:58.06	359.61	9.45	
2025-01-13 07:33:59.09	359.45	9.41	
2025-01-13 07:34:00.13	359.30	9.36	
2025-01-13 07:34:01.15	359.15	9.31	
2025-01-13 07:34:02.18	359.00	9.27	
2025-01-13 07:34:03.21	358.85	9.22	
2025-01-13 07:34:04.23	358.70	9.17	
2025-01-13 07:34:05.26	358.55	9.13	
2025-01-13 07:34:06.29	358.40	9.08	
2025-01-13 07:34:07.33	358.25	9.03	
2025-01-13 07:34:08.36	358.10	8.99	
2025-01-13 07:34:09.38	357.95	8.94	
2025-01-13 07:34:10.41	357.81	8.89	
2025-01-13 07:34:11.44	357.66	8.84	
2025-01-13 07:34:12.46	357.51	8.80	
2025-01-13 07:34:13.50	357.37	8.75	
2025-01-13 07:34:14.53	357.22	8.70	
2025-01-13 07:34:15.56	357.08	8.65	
2025-01-13 07:34:16.58	356.93	8.61	
2025-01-13 07:34:17.61	356.79	8.56	
2025-01-13 07:34:18.63	356.65	8.51	
2025-01-13 07:34:19.66	356.50	8.46	
2025-01-13 07:34:20.69	356.36	8.41	
2025-01-13 07:34:21.71	356.22	8.37	
2025-01-13 07:34:22.74	356.08	8.32	
2025-01-13 07:34:23.77	355.94	8.27	
2025-01-13 07:34:24.81	355.79	8.22	
2025-01-13 07:34:25.83	355.66	8.17	
2025-01-13 07:34:26.86	355.52	8.12	
2025-01-13 07:34:27.89	355.38	8.07	
2025-01-13 07:34:28.91	355.24	8.03	
2025-01-13 07:34:29.94	355.10	7.98	
2025-01-13 07:34:30.97	354.96	7.93	
2025-01-13 07:34:31.99	354.83	7.88	
2025-01-13 07:34:33.02	354.69	7.83	
2025-01-13 07:34:34.05	354.55	7.78	
2025-01-13 07:34:35.07	354.42	7.73	
2025-01-13 07:34:36.10	354.28	7.68	
2025-01-13 07:34:37.13	354.15	7.63	
2025-01-13 07:34:38.15	354.02	7.59	
2025-01-13 07:34:39.20	353.88	7.54	
2025-01-13 07:34:40.22	353.75	7.49	
2025-01-13 07:34:41.25	353.61	7.44	
2025-01-13 07:34:42.28	353.48	7.39	
2025-01-13 07:34:43.31	353.35	7.34	
2025-01-13 07:34:44.33	353.22	7.29	
2025-01-13 07:34:45.36	353.09	7.24	
2025-01-13 07:34:46.38	352.96	7.19	
2025-01-13 07:34:47.40	352.83	7.14	
2025-01-13 07:34:48.43	352.70	7.09	
2025-01-13 07:34:49.46	352.57	7.04	
2025-01-13 07:34:50.48	352.44	6.99	
2025-01-13 07:34:51.51	352.31	6.94	
2025-01-13 07:34:52.54	352.18	6.89	
2025-01-13 07:34:53.57	352.06	6.84	
2025-01-13 07:34:54.61	351.93	6.79	
2025-01-13 07:34:55.64	351.80	6.74	
2025-01-13 07:34:56.66	351.68	6.69	
2025-01-13 07:34:57.71	351.55	6.64	
2025-01-13 07:34:58.73	351.42	6.59	
2025-01-13 07:34:59.76	351.30	6.54	
2025-01-13 07:35:00.80	351.17	6.49	
2025-01-13 07:35:01.83	351.05	6.44	
2025-01-13 07:35:02.85	350.93	6.39	
2025-01-13 07:35:03.88	350.80	6.34	
2025-01-13 07:35:04.92	350.68	6.29	
2025-01-13 07:35:05.95	350.56	6.24	
2025-01-13 07:35:06.97	350.44	6.19	
2025-01-13 07:35:07.99	350.31	6.14	
2025-01-13 07:35:09.02	350.19	6.09	
2025-01-13 07:35:10.04	350.07	6.04	
2025-01-13 07:35:11.07	349.95	5.99	
2025-01-13 07:35:12.10	349.83	5.94	
2025-01-13 07:35:13.12	349.72	5.89	
2025-01-13 07:35:14.15	349.60	5.84	
2025-01-13 07:35:15.19	349.48	5.79	
2025-01-13 07:35:16.22	349.36	5.73	
2025-01-13 07:35:17.25	349.24	5.68	
2025-01-13 07:35:18.27	349.13	5.63	
2025-01-13 07:35:19.31	349.01	5.58	
2025-01-13 07:35:20.34	348.89	5.53	
2025-01-13 07:35:21.37	348.78	5.48	
2025-01-13 07:35:22.39	348.66	5.43	
2025-01-13 07:35:23.42	348.55	5.38	
2025-01-13 07:35:24.45	348.43	5.33	
2025-01-13 07:35:25.47	348.32	5.28	
2025-01-13 07:35:26.50	348.20	5.23	
2025-01-13 07:35:27.53	348.09	5.18	
2025-01-13 07:35:28.55	347.98	5.13	
2025-01-13 07:35:29.58	347.87	5.08	
2025-01-13 07:35:30.61	347.75	5.03	
2025-01-13 07:35:31.65	347.64	4.98	
2025-01-13 07:35:32.68	347.53	4.92	
2025-01-13 07:35:33.71	347.42	4.87	
2025-01-13 07:35:34.73	347.31	4.82	
2025-01-13 07:35:35.77	347.20	4.77	
2025-01-13 07:35:36.80	347.09	4.72	
2025-01-13 07:35:37.82	346.98	4.67	
2025-01-13 07:35:38.85	346.87	4.62	
2025-01-13 07:35:39.87	346.76	4.57	
2025-01-13 07:35:40.90	346.65	4.52	
2025-01-13 07:35:41.93	346.54	4.47	
2025-01-13 07:35:42.96	346.44	4.42	
2025-01-13 07:35:43.98	346.33	4.37	
2025-01-13 07:35:45.01	346.22	4.32	
2025-01-13 07:35:46.05	346.12	4.27	
2025-01-13 07:35:47.09	346.01	4.21	
2025-01-13 07:35:48.13	345.90	4.16	
2025-01-13 07:35:49.16	345.80	4.11	
2025-01-13 07:35:50.19	345.69	4.06	
2025-01-13 07:35:51.21	345.59	4.01	

#Closed at: 2025-01-13 07:35:51