passes_logs/2025/01/13/SPB_Silybum_02/SPB_Silybum_02__20250113_193237_TERRA_rec.log

#Pass ID: 20250113_193237_TERRA
#Satellite: TERRA
#Configuration: TERRA
#Start time: 2025-01-13 19:32:36

#Version: 2.0.20230423
#Station: SPB_Silybum_02
#Location: 30.233357 lon 59.946436 lat
#TLE: 1 25994U 99068A   25012.80475962  .00000761  00000+0  16654-3 0  9990
#TLE: 2 25994  98.0220  75.9049 0003508  77.1547  57.1006 14.60390868333758

#Time	Az	El	Level	Level2	SNR	BER	Gain	Gain2
2025-01-13 19:32:38.54	193.64	4.05	
2025-01-13 19:32:39.77	193.72	4.13	
2025-01-13 19:32:41.00	193.80	4.22	
2025-01-13 19:32:42.23	193.87	4.30	
2025-01-13 19:32:43.46	193.95	4.38	
2025-01-13 19:32:44.69	194.03	4.47	
2025-01-13 19:32:45.92	194.11	4.55	
2025-01-13 19:32:47.15	194.19	4.63	
2025-01-13 19:32:48.38	194.27	4.72	
2025-01-13 19:32:49.62	194.35	4.80	
2025-01-13 19:32:50.86	194.43	4.89	
2025-01-13 19:32:52.10	194.51	4.98	
2025-01-13 19:32:53.33	194.59	5.06	
2025-01-13 19:32:54.56	194.67	5.15	
2025-01-13 19:32:55.79	194.75	5.23	
2025-01-13 19:32:57.02	194.84	5.32	
2025-01-13 19:32:58.27	194.92	5.41	
2025-01-13 19:32:59.51	195.01	5.49	
2025-01-13 19:33:00.74	195.09	5.58	
2025-01-13 19:33:01.97	195.18	5.67	
2025-01-13 19:33:03.20	195.26	5.76	
2025-01-13 19:33:04.43	195.35	5.84	
2025-01-13 19:33:05.66	195.43	5.93	
2025-01-13 19:33:06.90	195.52	6.02	
2025-01-13 19:33:08.13	195.61	6.11	
2025-01-13 19:33:09.37	195.70	6.20	
2025-01-13 19:33:10.60	195.79	6.29	
2025-01-13 19:33:11.83	195.87	6.38	
2025-01-13 19:33:13.07	195.97	6.47	
2025-01-13 19:33:14.30	196.06	6.56	
2025-01-13 19:33:15.53	196.15	6.65	
2025-01-13 19:33:16.78	196.24	6.74	
2025-01-13 19:33:18.01	196.33	6.83	
2025-01-13 19:33:19.24	196.42	6.92	
2025-01-13 19:33:20.49	196.52	7.02	
2025-01-13 19:33:21.72	196.61	7.11	
2025-01-13 19:33:22.95	196.71	7.20	
2025-01-13 19:33:24.18	196.80	7.29	
2025-01-13 19:33:25.41	196.90	7.39	
2025-01-13 19:33:26.65	197.00	7.48	
2025-01-13 19:33:27.88	197.09	7.57	
2025-01-13 19:33:29.11	197.19	7.67	
2025-01-13 19:33:30.35	197.29	7.76	
2025-01-13 19:33:31.58	197.39	7.86	
2025-01-13 19:33:32.81	197.49	7.95	
2025-01-13 19:33:34.04	197.59	8.05	
2025-01-13 19:33:35.28	197.69	8.14	
2025-01-13 19:33:36.52	197.79	8.24	
2025-01-13 19:33:37.74	197.90	8.34	
2025-01-13 19:33:38.97	198.00	8.43	
2025-01-13 19:33:40.21	198.10	8.53	
2025-01-13 19:33:41.44	198.21	8.63	
2025-01-13 19:33:42.67	198.31	8.73	
2025-01-13 19:33:43.90	198.42	8.82	
2025-01-13 19:33:45.13	198.53	8.92	
2025-01-13 19:33:46.37	198.64	9.02	
2025-01-13 19:33:47.59	198.74	9.12	
2025-01-13 19:33:48.82	198.85	9.22	
2025-01-13 19:33:50.07	198.96	9.32	
2025-01-13 19:33:51.32	199.08	9.42	
2025-01-13 19:33:52.57	199.19	9.52	
2025-01-13 19:33:53.80	199.30	9.62	
2025-01-13 19:33:55.03	199.42	9.73	
2025-01-13 19:33:56.27	199.53	9.83	
2025-01-13 19:33:57.51	199.65	9.93	
2025-01-13 19:33:58.74	199.76	10.03	
2025-01-13 19:33:59.97	199.88	10.14	
2025-01-13 19:34:01.20	200.00	10.24	
2025-01-13 19:34:02.43	200.11	10.34	
2025-01-13 19:34:03.66	200.23	10.45	
2025-01-13 19:34:04.89	200.35	10.55	
2025-01-13 19:34:06.12	200.47	10.66	
2025-01-13 19:34:07.35	200.60	10.76	
2025-01-13 19:34:08.58	200.72	10.87	
2025-01-13 19:34:09.81	200.84	10.97	
2025-01-13 19:34:11.04	200.97	11.08	
2025-01-13 19:34:12.27	201.09	11.18	
2025-01-13 19:34:13.50	201.22	11.29	
2025-01-13 19:34:14.73	201.35	11.40	
2025-01-13 19:34:15.97	201.48	11.51	
2025-01-13 19:34:17.20	201.60	11.62	
2025-01-13 19:34:18.42	201.73	11.72	
2025-01-13 19:34:19.66	201.87	11.83	
2025-01-13 19:34:20.89	202.00	11.94	
2025-01-13 19:34:22.13	202.13	12.05	
2025-01-13 19:34:23.36	202.27	12.16	
2025-01-13 19:34:24.59	202.40	12.27	
2025-01-13 19:34:25.82	202.54	12.39	
2025-01-13 19:34:27.06	202.68	12.50	
2025-01-13 19:34:28.30	202.82	12.61	
2025-01-13 19:34:29.53	202.96	12.72	
2025-01-13 19:34:30.76	203.10	12.84	
2025-01-13 19:34:31.99	203.24	12.95	
2025-01-13 19:34:33.22	203.38	13.06	
2025-01-13 19:34:34.45	203.53	13.18	
2025-01-13 19:34:35.68	203.67	13.29	
2025-01-13 19:34:36.92	203.82	13.41	
2025-01-13 19:34:38.15	203.97	13.52	
2025-01-13 19:34:39.38	204.12	13.64	
2025-01-13 19:34:40.62	204.27	13.76	
2025-01-13 19:34:41.86	204.42	13.87	
2025-01-13 19:34:43.09	204.57	13.99	
2025-01-13 19:34:44.32	204.73	14.11	
2025-01-13 19:34:45.55	204.88	14.23	
2025-01-13 19:34:46.79	205.04	14.35	
2025-01-13 19:34:48.03	205.20	14.47	
2025-01-13 19:34:49.28	205.36	14.59	
2025-01-13 19:34:50.51	205.52	14.71	
2025-01-13 19:34:51.74	205.68	14.83	
2025-01-13 19:34:52.97	205.85	14.95	
2025-01-13 19:34:54.22	206.01	15.07	
2025-01-13 19:34:55.46	206.18	15.20	
2025-01-13 19:34:56.70	206.35	15.32	
2025-01-13 19:34:57.93	206.52	15.44	
2025-01-13 19:34:59.16	206.69	15.57	
2025-01-13 19:35:00.41	206.86	15.69	
2025-01-13 19:35:01.65	207.04	15.82	
2025-01-13 19:35:02.88	207.21	15.94	
2025-01-13 19:35:04.11	207.39	16.07	
2025-01-13 19:35:05.35	207.57	16.19	
2025-01-13 19:35:06.58	207.75	16.32	
2025-01-13 19:35:07.81	207.93	16.45	
2025-01-13 19:35:09.06	208.11	16.57	
2025-01-13 19:35:10.29	208.30	16.70	
2025-01-13 19:35:11.52	208.48	16.83	
2025-01-13 19:35:12.75	208.67	16.96	
2025-01-13 19:35:14.00	208.86	17.09	
2025-01-13 19:35:15.23	209.05	17.22	
2025-01-13 19:35:16.47	209.25	17.35	
2025-01-13 19:35:17.71	209.44	17.48	
2025-01-13 19:35:18.94	209.64	17.61	
2025-01-13 19:35:20.19	209.84	17.75	
2025-01-13 19:35:21.42	210.04	17.88	
2025-01-13 19:35:22.65	210.24	18.01	
2025-01-13 19:35:23.88	210.44	18.14	
2025-01-13 19:35:25.11	210.65	18.27	
2025-01-13 19:35:26.34	210.86	18.41	
2025-01-13 19:35:27.58	211.07	18.54	
2025-01-13 19:35:28.81	211.28	18.68	
2025-01-13 19:35:30.04	211.49	18.81	
2025-01-13 19:35:31.27	211.70	18.95	
2025-01-13 19:35:32.51	211.92	19.08	
2025-01-13 19:35:33.74	212.14	19.22	
2025-01-13 19:35:34.97	212.36	19.36	
2025-01-13 19:35:36.20	212.58	19.49	
2025-01-13 19:35:37.43	212.81	19.63	
2025-01-13 19:35:38.68	213.04	19.77	
2025-01-13 19:35:39.92	213.27	19.91	
2025-01-13 19:35:41.15	213.50	20.05	
2025-01-13 19:35:42.39	213.73	20.19	
2025-01-13 19:35:43.62	213.97	20.33	
2025-01-13 19:35:44.86	214.21	20.47	
2025-01-13 19:35:46.09	214.45	20.61	
2025-01-13 19:35:47.32	214.69	20.75	
2025-01-13 19:35:48.55	214.93	20.89	
2025-01-13 19:35:49.79	215.18	21.03	
2025-01-13 19:35:51.02	215.43	21.18	
2025-01-13 19:35:52.25	215.68	21.32	
2025-01-13 19:35:53.47	215.93	21.46	
2025-01-13 19:35:54.71	216.19	21.60	
2025-01-13 19:35:55.94	216.45	21.75	
2025-01-13 19:35:57.17	216.71	21.89	
2025-01-13 19:35:58.40	216.97	22.03	
2025-01-13 19:35:59.64	217.24	22.18	
2025-01-13 19:36:00.88	217.51	22.32	
2025-01-13 19:36:02.11	217.78	22.47	
2025-01-13 19:36:03.35	218.06	22.61	
2025-01-13 19:36:04.58	218.33	22.76	
2025-01-13 19:36:05.83	218.62	22.91	
2025-01-13 19:36:07.06	218.90	23.05	
2025-01-13 19:36:08.29	219.18	23.20	
2025-01-13 19:36:09.52	219.47	23.34	
2025-01-13 19:36:10.76	219.76	23.49	
2025-01-13 19:36:12.00	220.06	23.64	
2025-01-13 19:36:13.23	220.35	23.78	
2025-01-13 19:36:14.46	220.65	23.93	
2025-01-13 19:36:15.69	220.95	24.08	
2025-01-13 19:36:16.92	221.25	24.22	
2025-01-13 19:36:18.16	221.56	24.37	
2025-01-13 19:36:19.39	221.87	24.52	
2025-01-13 19:36:20.62	222.19	24.66	
2025-01-13 19:36:21.85	222.50	24.81	
2025-01-13 19:36:23.08	222.82	24.96	
2025-01-13 19:36:24.31	223.14	25.11	
2025-01-13 19:36:25.54	223.47	25.25	
2025-01-13 19:36:26.77	223.79	25.40	
2025-01-13 19:36:28.02	224.13	25.55	
2025-01-13 19:36:29.25	224.47	25.69	
2025-01-13 19:36:30.48	224.80	25.84	
2025-01-13 19:36:31.72	225.15	25.99	
2025-01-13 19:36:32.95	225.49	26.13	
2025-01-13 19:36:34.18	225.84	26.28	
2025-01-13 19:36:35.41	226.19	26.43	
2025-01-13 19:36:36.64	226.54	26.57	
2025-01-13 19:36:37.87	226.90	26.72	
2025-01-13 19:36:39.12	227.26	26.86	
2025-01-13 19:36:40.36	227.63	27.01	
2025-01-13 19:36:41.59	228.00	27.15	
2025-01-13 19:36:42.82	228.37	27.30	
2025-01-13 19:36:44.06	228.74	27.44	
2025-01-13 19:36:45.29	229.12	27.59	
2025-01-13 19:36:46.52	229.50	27.73	
2025-01-13 19:36:47.74	229.88	27.87	
2025-01-13 19:36:48.97	230.27	28.01	
2025-01-13 19:36:50.20	230.66	28.15	
2025-01-13 19:36:51.44	231.06	28.29	
2025-01-13 19:36:52.67	231.46	28.43	
2025-01-13 19:36:53.90	231.86	28.57	
2025-01-13 19:36:55.13	232.26	28.71	
2025-01-13 19:36:56.36	232.67	28.84	
2025-01-13 19:36:57.60	233.09	28.98	
2025-01-13 19:36:58.84	233.51	29.12	
2025-01-13 19:37:00.07	233.93	29.25	
2025-01-13 19:37:01.32	234.35	29.39	
2025-01-13 19:37:02.55	234.78	29.52	
2025-01-13 19:37:03.79	235.21	29.65	
2025-01-13 19:37:05.02	235.65	29.78	
2025-01-13 19:37:06.26	236.09	29.91	
2025-01-13 19:37:07.50	236.53	30.04	
2025-01-13 19:37:08.73	236.98	30.17	
2025-01-13 19:37:09.96	237.43	30.30	
2025-01-13 19:37:11.19	237.88	30.42	
2025-01-13 19:37:12.42	238.33	30.54	
2025-01-13 19:37:13.65	238.79	30.67	
2025-01-13 19:37:14.88	239.25	30.79	
2025-01-13 19:37:16.11	239.72	30.91	
2025-01-13 19:37:17.35	240.19	31.02	
2025-01-13 19:37:18.58	240.66	31.14	
2025-01-13 19:37:19.81	241.14	31.25	
2025-01-13 19:37:21.04	241.62	31.37	
2025-01-13 19:37:22.29	242.11	31.48	
2025-01-13 19:37:23.52	242.59	31.59	
2025-01-13 19:37:24.75	243.08	31.70	
2025-01-13 19:37:25.98	243.57	31.80	
2025-01-13 19:37:27.21	244.07	31.91	
2025-01-13 19:37:28.46	244.58	32.01	
2025-01-13 19:37:29.69	245.08	32.11	
2025-01-13 19:37:30.92	245.58	32.21	
2025-01-13 19:37:32.15	246.09	32.30	
2025-01-13 19:37:33.38	246.60	32.40	
2025-01-13 19:37:34.61	247.12	32.49	
2025-01-13 19:37:35.84	247.63	32.58	
2025-01-13 19:37:37.08	248.16	32.67	
2025-01-13 19:37:38.31	248.68	32.75	
2025-01-13 19:37:39.55	249.21	32.83	
2025-01-13 19:37:40.78	249.74	32.91	
2025-01-13 19:37:42.01	250.27	32.99	
2025-01-13 19:37:43.24	250.80	33.07	
2025-01-13 19:37:44.47	251.34	33.14	
2025-01-13 19:37:45.71	251.88	33.21	
2025-01-13 19:37:46.94	252.42	33.28	
2025-01-13 19:37:48.17	252.96	33.34	
2025-01-13 19:37:49.42	253.52	33.41	
2025-01-13 19:37:50.65	254.06	33.47	
2025-01-13 19:37:51.88	254.61	33.53	
2025-01-13 19:37:53.12	255.17	33.58	
2025-01-13 19:37:54.34	255.72	33.63	
2025-01-13 19:37:55.58	256.27	33.68	
2025-01-13 19:37:56.81	256.83	33.73	
2025-01-13 19:37:58.05	257.39	33.77	
2025-01-13 19:37:59.28	257.95	33.81	
2025-01-13 19:38:00.52	258.52	33.85	
2025-01-13 19:38:01.75	259.08	33.88	
2025-01-13 19:38:02.99	259.64	33.91	
2025-01-13 19:38:04.23	260.21	33.94	
2025-01-13 19:38:05.46	260.78	33.97	
2025-01-13 19:38:06.69	261.34	33.99	
2025-01-13 19:38:07.92	261.91	34.01	
2025-01-13 19:38:09.16	262.48	34.03	
2025-01-13 19:38:10.41	263.05	34.04	
2025-01-13 19:38:11.64	263.62	34.05	
2025-01-13 19:38:12.87	264.19	34.06	
2025-01-13 19:38:14.11	264.76	34.07	
2025-01-13 19:38:15.34	265.33	34.07	
2025-01-13 19:38:16.57	265.90	34.07	
2025-01-13 19:38:17.80	266.47	34.06	
2025-01-13 19:38:19.03	267.03	34.05	
2025-01-13 19:38:20.27	267.61	34.04	
2025-01-13 19:38:21.50	268.17	34.03	
2025-01-13 19:38:22.73	268.74	34.01	
2025-01-13 19:38:23.96	269.31	33.99	
2025-01-13 19:38:25.18	269.87	33.97	
2025-01-13 19:38:26.41	270.43	33.94	
2025-01-13 19:38:27.64	270.99	33.92	
2025-01-13 19:38:28.87	271.56	33.88	
2025-01-13 19:38:30.12	272.13	33.85	
2025-01-13 19:38:31.36	272.69	33.81	
2025-01-13 19:38:32.59	273.25	33.77	
2025-01-13 19:38:33.82	273.80	33.73	
2025-01-13 19:38:35.06	274.36	33.68	
2025-01-13 19:38:36.30	274.92	33.63	
2025-01-13 19:38:37.53	275.47	33.58	
2025-01-13 19:38:38.76	276.02	33.53	
2025-01-13 19:38:39.99	276.57	33.47	
2025-01-13 19:38:41.22	277.12	33.41	
2025-01-13 19:38:42.47	277.67	33.35	
2025-01-13 19:38:43.71	278.22	33.28	
2025-01-13 19:38:44.94	278.76	33.21	
2025-01-13 19:38:46.17	279.29	33.14	
2025-01-13 19:38:47.41	279.83	33.07	
2025-01-13 19:38:48.65	280.37	33.00	
2025-01-13 19:38:49.88	280.90	32.92	
2025-01-13 19:38:51.11	281.42	32.84	
2025-01-13 19:38:52.34	281.95	32.76	
2025-01-13 19:38:53.57	282.47	32.67	
2025-01-13 19:38:54.80	282.99	32.58	
2025-01-13 19:38:56.03	283.50	32.50	
2025-01-13 19:38:57.26	284.02	32.40	
2025-01-13 19:38:58.51	284.54	32.31	
2025-01-13 19:38:59.76	285.05	32.21	
2025-01-13 19:39:01.00	285.56	32.11	
2025-01-13 19:39:02.22	286.06	32.02	
2025-01-13 19:39:03.45	286.55	31.91	
2025-01-13 19:39:04.69	287.05	31.81	
2025-01-13 19:39:05.92	287.54	31.71	
2025-01-13 19:39:07.15	288.03	31.60	
2025-01-13 19:39:08.38	288.51	31.49	
2025-01-13 19:39:09.61	289.00	31.38	
2025-01-13 19:39:10.84	289.47	31.27	
2025-01-13 19:39:12.08	289.95	31.15	
2025-01-13 19:39:13.32	290.43	31.04	
2025-01-13 19:39:14.55	290.89	30.92	
2025-01-13 19:39:15.78	291.36	30.80	
2025-01-13 19:39:17.01	291.82	30.68	
2025-01-13 19:39:18.26	292.28	30.56	
2025-01-13 19:39:19.50	292.74	30.43	
2025-01-13 19:39:20.73	293.19	30.31	
2025-01-13 19:39:21.97	293.64	30.18	
2025-01-13 19:39:23.20	294.08	30.06	
2025-01-13 19:39:24.44	294.53	29.93	
2025-01-13 19:39:25.68	294.96	29.80	
2025-01-13 19:39:26.92	295.40	29.67	
2025-01-13 19:39:28.15	295.83	29.54	
2025-01-13 19:39:29.38	296.25	29.41	
2025-01-13 19:39:30.62	296.68	29.27	
2025-01-13 19:39:31.85	297.10	29.14	
2025-01-13 19:39:33.09	297.51	29.00	
2025-01-13 19:39:34.32	297.92	28.87	
2025-01-13 19:39:35.55	298.33	28.73	
2025-01-13 19:39:36.78	298.74	28.59	
2025-01-13 19:39:38.01	299.14	28.46	
2025-01-13 19:39:39.25	299.54	28.32	
2025-01-13 19:39:40.48	299.93	28.18	
2025-01-13 19:39:41.71	300.32	28.04	
2025-01-13 19:39:42.94	300.70	27.90	
2025-01-13 19:39:44.19	301.09	27.75	
2025-01-13 19:39:45.42	301.47	27.61	
2025-01-13 19:39:46.65	301.85	27.47	
2025-01-13 19:39:47.88	302.22	27.33	
2025-01-13 19:39:49.11	302.59	27.19	
2025-01-13 19:39:50.36	302.96	27.04	
2025-01-13 19:39:51.58	303.32	26.90	
2025-01-13 19:39:52.81	303.68	26.75	
2025-01-13 19:39:54.05	304.04	26.61	
2025-01-13 19:39:55.28	304.39	26.46	
2025-01-13 19:39:56.52	304.74	26.32	
2025-01-13 19:39:57.75	305.09	26.17	
2025-01-13 19:39:58.98	305.43	26.03	
2025-01-13 19:40:00.22	305.77	25.88	
2025-01-13 19:40:01.45	306.11	25.74	
2025-01-13 19:40:02.68	306.44	25.59	
2025-01-13 19:40:03.91	306.77	25.44	
2025-01-13 19:40:05.14	307.10	25.30	
2025-01-13 19:40:06.37	307.42	25.15	
2025-01-13 19:40:07.62	307.75	25.00	
2025-01-13 19:40:08.85	308.06	24.86	
2025-01-13 19:40:10.08	308.38	24.71	
2025-01-13 19:40:11.31	308.69	24.57	
2025-01-13 19:40:12.55	309.00	24.42	
2025-01-13 19:40:13.78	309.31	24.27	
2025-01-13 19:40:15.02	309.61	24.13	
2025-01-13 19:40:16.26	309.92	23.98	
2025-01-13 19:40:17.49	310.21	23.84	
2025-01-13 19:40:18.72	310.51	23.69	
2025-01-13 19:40:19.96	310.80	23.54	
2025-01-13 19:40:21.19	311.09	23.40	
2025-01-13 19:40:22.43	311.38	23.25	
2025-01-13 19:40:23.65	311.66	23.11	
2025-01-13 19:40:24.89	311.94	22.96	
2025-01-13 19:40:26.12	312.22	22.82	
2025-01-13 19:40:27.35	312.49	22.68	
2025-01-13 19:40:28.58	312.77	22.53	
2025-01-13 19:40:29.82	313.04	22.39	
2025-01-13 19:40:31.05	313.31	22.24	
2025-01-13 19:40:32.28	313.57	22.10	
2025-01-13 19:40:33.51	313.84	21.96	
2025-01-13 19:40:34.74	314.10	21.82	
2025-01-13 19:40:35.98	314.36	21.67	
2025-01-13 19:40:37.22	314.61	21.53	
2025-01-13 19:40:38.45	314.87	21.39	
2025-01-13 19:40:39.69	315.12	21.25	
2025-01-13 19:40:40.92	315.37	21.11	
2025-01-13 19:40:42.16	315.61	20.97	
2025-01-13 19:40:43.39	315.86	20.83	
2025-01-13 19:40:44.62	316.10	20.69	
2025-01-13 19:40:45.86	316.34	20.55	
2025-01-13 19:40:47.08	316.57	20.41	
2025-01-13 19:40:48.31	316.81	20.27	
2025-01-13 19:40:49.56	317.05	20.13	
2025-01-13 19:40:50.80	317.28	19.99	
2025-01-13 19:40:52.04	317.51	19.85	
2025-01-13 19:40:53.28	317.74	19.71	
2025-01-13 19:40:54.50	317.96	19.58	
2025-01-13 19:40:55.75	318.18	19.44	
2025-01-13 19:40:56.98	318.40	19.31	
2025-01-13 19:40:58.21	318.62	19.17	
2025-01-13 19:40:59.44	318.84	19.04	
2025-01-13 19:41:00.67	319.05	18.90	
2025-01-13 19:41:01.90	319.26	18.77	
2025-01-13 19:41:03.12	319.47	18.63	
2025-01-13 19:41:04.35	319.68	18.50	
2025-01-13 19:41:05.59	319.89	18.37	
2025-01-13 19:41:06.82	320.09	18.24	
2025-01-13 19:41:08.06	320.30	18.10	
2025-01-13 19:41:09.29	320.50	17.97	
2025-01-13 19:41:10.52	320.70	17.84	
2025-01-13 19:41:11.77	320.90	17.71	
2025-01-13 19:41:13.00	321.09	17.58	
2025-01-13 19:41:14.24	321.29	17.45	
2025-01-13 19:41:15.47	321.48	17.32	
2025-01-13 19:41:16.71	321.67	17.19	
2025-01-13 19:41:17.95	321.86	17.06	
2025-01-13 19:41:19.19	322.05	16.93	
2025-01-13 19:41:20.42	322.24	16.81	
2025-01-13 19:41:21.66	322.42	16.68	
2025-01-13 19:41:22.89	322.60	16.55	
2025-01-13 19:41:24.12	322.79	16.43	
2025-01-13 19:41:25.36	322.97	16.30	
2025-01-13 19:41:26.58	323.14	16.18	
2025-01-13 19:41:27.82	323.32	16.05	
2025-01-13 19:41:29.05	323.49	15.93	
2025-01-13 19:41:30.28	323.67	15.80	
2025-01-13 19:41:31.52	323.84	15.68	
2025-01-13 19:41:32.75	324.01	15.56	
2025-01-13 19:41:33.99	324.18	15.43	
2025-01-13 19:41:35.22	324.35	15.31	
2025-01-13 19:41:36.45	324.52	15.19	
2025-01-13 19:41:37.68	324.68	15.07	
2025-01-13 19:41:38.91	324.84	14.95	
2025-01-13 19:41:40.15	325.01	14.83	
2025-01-13 19:41:41.38	325.17	14.71	
2025-01-13 19:41:42.61	325.33	14.59	
2025-01-13 19:41:43.85	325.49	14.47	
2025-01-13 19:41:45.08	325.64	14.36	
2025-01-13 19:41:46.31	325.80	14.24	
2025-01-13 19:41:47.55	325.95	14.12	
2025-01-13 19:41:48.78	326.11	14.00	
2025-01-13 19:41:50.01	326.26	13.89	
2025-01-13 19:41:51.24	326.41	13.77	
2025-01-13 19:41:52.48	326.56	13.66	
2025-01-13 19:41:53.71	326.71	13.54	
2025-01-13 19:41:54.94	326.85	13.43	
2025-01-13 19:41:56.17	327.00	13.31	
2025-01-13 19:41:57.40	327.14	13.20	
2025-01-13 19:41:58.63	327.29	13.09	
2025-01-13 19:41:59.86	327.43	12.97	
2025-01-13 19:42:01.09	327.57	12.86	
2025-01-13 19:42:02.34	327.71	12.75	
2025-01-13 19:42:03.57	327.85	12.64	
2025-01-13 19:42:04.80	327.99	12.53	
2025-01-13 19:42:06.03	328.13	12.42	
2025-01-13 19:42:07.28	328.27	12.30	
2025-01-13 19:42:08.51	328.40	12.19	
2025-01-13 19:42:09.74	328.53	12.09	
2025-01-13 19:42:10.98	328.67	11.98	
2025-01-13 19:42:12.21	328.80	11.87	
2025-01-13 19:42:13.44	328.93	11.76	
2025-01-13 19:42:14.67	329.06	11.65	
2025-01-13 19:42:15.90	329.19	11.54	
2025-01-13 19:42:17.14	329.32	11.44	
2025-01-13 19:42:18.38	329.45	11.33	
2025-01-13 19:42:19.63	329.57	11.22	
2025-01-13 19:42:20.88	329.70	11.12	
2025-01-13 19:42:22.11	329.82	11.01	
2025-01-13 19:42:23.34	329.95	10.91	
2025-01-13 19:42:24.59	330.07	10.80	
2025-01-13 19:42:25.84	330.20	10.69	
2025-01-13 19:42:27.06	330.31	10.59	
2025-01-13 19:42:28.30	330.44	10.49	
2025-01-13 19:42:29.54	330.55	10.38	
2025-01-13 19:42:30.79	330.67	10.28	
2025-01-13 19:42:32.02	330.79	10.18	
2025-01-13 19:42:33.25	330.91	10.08	
2025-01-13 19:42:34.48	331.02	9.97	
2025-01-13 19:42:35.71	331.14	9.87	
2025-01-13 19:42:36.94	331.25	9.77	
2025-01-13 19:42:38.19	331.37	9.67	
2025-01-13 19:42:39.42	331.48	9.57	
2025-01-13 19:42:40.65	331.59	9.47	
2025-01-13 19:42:41.88	331.70	9.37	
2025-01-13 19:42:43.12	331.81	9.27	
2025-01-13 19:42:44.35	331.92	9.17	
2025-01-13 19:42:45.59	332.03	9.08	
2025-01-13 19:42:46.82	332.14	8.98	
2025-01-13 19:42:48.05	332.24	8.88	
2025-01-13 19:42:49.30	332.35	8.78	
2025-01-13 19:42:50.53	332.46	8.69	
2025-01-13 19:42:51.76	332.56	8.59	
2025-01-13 19:42:53.00	332.67	8.49	
2025-01-13 19:42:54.24	332.77	8.40	
2025-01-13 19:42:55.47	332.87	8.30	
2025-01-13 19:42:56.70	332.97	8.21	
2025-01-13 19:42:57.93	333.07	8.11	
2025-01-13 19:42:59.17	333.18	8.02	
2025-01-13 19:43:00.39	333.28	7.92	
2025-01-13 19:43:01.62	333.37	7.83	
2025-01-13 19:43:02.87	333.47	7.73	
2025-01-13 19:43:04.11	333.57	7.64	
2025-01-13 19:43:05.34	333.67	7.55	
2025-01-13 19:43:06.57	333.77	7.46	
2025-01-13 19:43:07.82	333.86	7.36	
2025-01-13 19:43:09.06	333.96	7.27	
2025-01-13 19:43:10.31	334.06	7.18	
2025-01-13 19:43:11.54	334.15	7.09	
2025-01-13 19:43:12.77	334.24	6.99	
2025-01-13 19:43:14.00	334.34	6.90	
2025-01-13 19:43:15.25	334.43	6.81	
2025-01-13 19:43:16.48	334.52	6.72	
2025-01-13 19:43:17.71	334.61	6.63	
2025-01-13 19:43:18.94	334.70	6.54	
2025-01-13 19:43:20.18	334.80	6.45	
2025-01-13 19:43:21.41	334.89	6.37	
2025-01-13 19:43:22.64	334.97	6.28	
2025-01-13 19:43:23.87	335.06	6.19	
2025-01-13 19:43:25.11	335.15	6.10	
2025-01-13 19:43:26.34	335.24	6.01	
2025-01-13 19:43:27.57	335.33	5.92	
2025-01-13 19:43:28.80	335.41	5.84	
2025-01-13 19:43:30.03	335.50	5.75	
2025-01-13 19:43:31.26	335.58	5.66	
2025-01-13 19:43:32.49	335.67	5.58	
2025-01-13 19:43:33.72	335.75	5.49	
2025-01-13 19:43:34.95	335.83	5.41	
2025-01-13 19:43:36.19	335.92	5.32	
2025-01-13 19:43:37.42	336.00	5.24	
2025-01-13 19:43:38.66	336.08	5.15	
2025-01-13 19:43:39.90	336.17	5.06	
2025-01-13 19:43:41.12	336.25	4.98	
2025-01-13 19:43:42.36	336.33	4.90	
2025-01-13 19:43:43.60	336.41	4.81	
2025-01-13 19:43:44.84	336.49	4.73	
2025-01-13 19:43:46.08	336.57	4.64	
2025-01-13 19:43:47.31	336.65	4.56	
2025-01-13 19:43:48.54	336.73	4.48	
2025-01-13 19:43:49.80	336.81	4.39	
2025-01-13 19:43:51.03	336.88	4.31	
2025-01-13 19:43:52.26	336.96	4.23	
2025-01-13 19:43:53.50	337.04	4.14	
2025-01-13 19:43:54.73	337.12	4.06	

#Closed at: 2025-01-13 19:43:55