passes_logs/2025/01/13/SPB_Silybum_02/SPB_Silybum_02__20250113_003822_AQUA_rec.log

#Pass ID: 20250113_003822_AQUA
#Satellite: AQUA
#Configuration: AQUA
#Start time: 2025-01-13 00:38:22

#Version: 2.0.20230423
#Station: SPB_Silybum_02
#Location: 30.233357 lon 59.946436 lat
#TLE: 1 27424U 02022A   25012.20730597  .00001826  00000+0  38477-3 0  9996
#TLE: 2 27424  98.3584 328.8461 0001605 114.2253 358.7733 14.60671943207219

#Time	Az	El	Level	Level2	SNR	BER	Gain	Gain2
2025-01-13 00:38:24.68	21.18	4.12	
2025-01-13 00:38:25.90	21.23	4.20	
2025-01-13 00:38:27.14	21.28	4.29	
2025-01-13 00:38:28.37	21.34	4.37	
2025-01-13 00:38:29.59	21.39	4.46	
2025-01-13 00:38:30.82	21.44	4.55	
2025-01-13 00:38:32.05	21.50	4.63	
2025-01-13 00:38:33.28	21.55	4.72	
2025-01-13 00:38:34.52	21.61	4.81	
2025-01-13 00:38:35.74	21.66	4.90	
2025-01-13 00:38:36.98	21.72	4.98	
2025-01-13 00:38:38.21	21.77	5.07	
2025-01-13 00:38:39.44	21.83	5.16	
2025-01-13 00:38:40.69	21.88	5.25	
2025-01-13 00:38:41.92	21.94	5.34	
2025-01-13 00:38:43.15	22.00	5.43	
2025-01-13 00:38:44.39	22.05	5.52	
2025-01-13 00:38:45.62	22.11	5.61	
2025-01-13 00:38:46.85	22.17	5.70	
2025-01-13 00:38:48.08	22.23	5.79	
2025-01-13 00:38:49.31	22.29	5.88	
2025-01-13 00:38:50.54	22.34	5.98	
2025-01-13 00:38:51.77	22.40	6.07	
2025-01-13 00:38:53.00	22.46	6.16	
2025-01-13 00:38:54.23	22.52	6.25	
2025-01-13 00:38:55.47	22.58	6.35	
2025-01-13 00:38:56.70	22.64	6.44	
2025-01-13 00:38:57.93	22.71	6.53	
2025-01-13 00:38:59.16	22.77	6.63	
2025-01-13 00:39:00.39	22.83	6.72	
2025-01-13 00:39:01.62	22.89	6.82	
2025-01-13 00:39:02.86	22.95	6.91	
2025-01-13 00:39:04.09	23.02	7.01	
2025-01-13 00:39:05.32	23.08	7.10	
2025-01-13 00:39:06.55	23.14	7.20	
2025-01-13 00:39:07.79	23.21	7.30	
2025-01-13 00:39:09.02	23.27	7.40	
2025-01-13 00:39:10.25	23.34	7.49	
2025-01-13 00:39:11.49	23.41	7.59	
2025-01-13 00:39:12.72	23.47	7.69	
2025-01-13 00:39:13.95	23.54	7.79	
2025-01-13 00:39:15.19	23.61	7.89	
2025-01-13 00:39:16.42	23.67	7.99	
2025-01-13 00:39:17.66	23.74	8.09	
2025-01-13 00:39:18.89	23.81	8.19	
2025-01-13 00:39:20.12	23.88	8.29	
2025-01-13 00:39:21.35	23.95	8.39	
2025-01-13 00:39:22.59	24.02	8.49	
2025-01-13 00:39:23.82	24.09	8.59	
2025-01-13 00:39:25.05	24.16	8.70	
2025-01-13 00:39:26.28	24.23	8.80	
2025-01-13 00:39:27.51	24.30	8.90	
2025-01-13 00:39:28.74	24.37	9.01	
2025-01-13 00:39:29.97	24.45	9.11	
2025-01-13 00:39:31.22	24.52	9.22	
2025-01-13 00:39:32.45	24.60	9.32	
2025-01-13 00:39:33.68	24.67	9.43	
2025-01-13 00:39:34.91	24.75	9.53	
2025-01-13 00:39:36.15	24.82	9.64	
2025-01-13 00:39:37.40	24.90	9.75	
2025-01-13 00:39:38.63	24.98	9.86	
2025-01-13 00:39:39.86	25.05	9.97	
2025-01-13 00:39:41.09	25.13	10.07	
2025-01-13 00:39:42.32	25.21	10.18	
2025-01-13 00:39:43.55	25.29	10.29	
2025-01-13 00:39:44.78	25.37	10.40	
2025-01-13 00:39:46.03	25.45	10.51	
2025-01-13 00:39:47.26	25.53	10.62	
2025-01-13 00:39:48.49	25.61	10.74	
2025-01-13 00:39:49.72	25.69	10.85	
2025-01-13 00:39:50.96	25.78	10.96	
2025-01-13 00:39:52.19	25.86	11.07	
2025-01-13 00:39:53.44	25.94	11.19	
2025-01-13 00:39:54.67	26.03	11.30	
2025-01-13 00:39:55.90	26.11	11.42	
2025-01-13 00:39:57.13	26.20	11.53	
2025-01-13 00:39:58.36	26.29	11.65	
2025-01-13 00:39:59.59	26.37	11.77	
2025-01-13 00:40:00.81	26.46	11.88	
2025-01-13 00:40:02.04	26.55	12.00	
2025-01-13 00:40:03.27	26.64	12.12	
2025-01-13 00:40:04.50	26.73	12.24	
2025-01-13 00:40:05.74	26.82	12.36	
2025-01-13 00:40:06.97	26.91	12.48	
2025-01-13 00:40:08.20	27.00	12.60	
2025-01-13 00:40:09.43	27.10	12.72	
2025-01-13 00:40:10.66	27.19	12.84	
2025-01-13 00:40:11.89	27.29	12.96	
2025-01-13 00:40:13.12	27.38	13.08	
2025-01-13 00:40:14.35	27.48	13.21	
2025-01-13 00:40:15.58	27.58	13.33	
2025-01-13 00:40:16.81	27.67	13.45	
2025-01-13 00:40:18.04	27.77	13.58	
2025-01-13 00:40:19.27	27.87	13.71	
2025-01-13 00:40:20.50	27.97	13.83	
2025-01-13 00:40:21.74	28.07	13.96	
2025-01-13 00:40:22.96	28.18	14.09	
2025-01-13 00:40:24.20	28.28	14.22	
2025-01-13 00:40:25.43	28.38	14.35	
2025-01-13 00:40:26.66	28.49	14.48	
2025-01-13 00:40:27.89	28.60	14.61	
2025-01-13 00:40:29.13	28.70	14.74	
2025-01-13 00:40:30.36	28.81	14.87	
2025-01-13 00:40:31.59	28.92	15.01	
2025-01-13 00:40:32.82	29.03	15.14	
2025-01-13 00:40:34.05	29.14	15.27	
2025-01-13 00:40:35.28	29.25	15.41	
2025-01-13 00:40:36.51	29.36	15.54	
2025-01-13 00:40:37.74	29.48	15.68	
2025-01-13 00:40:38.98	29.59	15.82	
2025-01-13 00:40:40.21	29.71	15.96	
2025-01-13 00:40:41.44	29.83	16.10	
2025-01-13 00:40:42.67	29.95	16.24	
2025-01-13 00:40:43.91	30.07	16.38	
2025-01-13 00:40:45.13	30.19	16.52	
2025-01-13 00:40:46.37	30.31	16.66	
2025-01-13 00:40:47.60	30.43	16.80	
2025-01-13 00:40:48.83	30.56	16.95	
2025-01-13 00:40:50.07	30.68	17.09	
2025-01-13 00:40:51.31	30.81	17.24	
2025-01-13 00:40:52.53	30.94	17.38	
2025-01-13 00:40:53.76	31.07	17.53	
2025-01-13 00:40:54.99	31.20	17.68	
2025-01-13 00:40:56.22	31.33	17.83	
2025-01-13 00:40:57.46	31.46	17.98	
2025-01-13 00:40:58.68	31.59	18.13	
2025-01-13 00:40:59.93	31.73	18.28	
2025-01-13 00:41:01.16	31.87	18.43	
2025-01-13 00:41:02.39	32.01	18.58	
2025-01-13 00:41:03.62	32.15	18.74	
2025-01-13 00:41:04.85	32.29	18.89	
2025-01-13 00:41:06.10	32.43	19.05	
2025-01-13 00:41:07.33	32.58	19.21	
2025-01-13 00:41:08.56	32.72	19.36	
2025-01-13 00:41:09.79	32.87	19.52	
2025-01-13 00:41:11.02	33.02	19.68	
2025-01-13 00:41:12.25	33.17	19.84	
2025-01-13 00:41:13.48	33.32	20.00	
2025-01-13 00:41:14.71	33.48	20.17	
2025-01-13 00:41:15.94	33.63	20.33	
2025-01-13 00:41:17.16	33.79	20.49	
2025-01-13 00:41:18.39	33.95	20.66	
2025-01-13 00:41:19.62	34.11	20.82	
2025-01-13 00:41:20.85	34.27	20.99	
2025-01-13 00:41:22.08	34.43	21.16	
2025-01-13 00:41:23.31	34.60	21.33	
2025-01-13 00:41:24.54	34.77	21.50	
2025-01-13 00:41:25.78	34.94	21.67	
2025-01-13 00:41:27.02	35.11	21.85	
2025-01-13 00:41:28.25	35.29	22.02	
2025-01-13 00:41:29.49	35.46	22.19	
2025-01-13 00:41:30.72	35.64	22.37	
2025-01-13 00:41:31.95	35.82	22.55	
2025-01-13 00:41:33.20	36.00	22.73	
2025-01-13 00:41:34.43	36.19	22.91	
2025-01-13 00:41:35.66	36.37	23.09	
2025-01-13 00:41:36.89	36.56	23.27	
2025-01-13 00:41:38.12	36.75	23.45	
2025-01-13 00:41:39.35	36.95	23.63	
2025-01-13 00:41:40.58	37.14	23.81	
2025-01-13 00:41:41.82	37.34	24.00	
2025-01-13 00:41:43.05	37.54	24.19	
2025-01-13 00:41:44.29	37.74	24.38	
2025-01-13 00:41:45.53	37.95	24.57	
2025-01-13 00:41:46.75	38.16	24.76	
2025-01-13 00:41:47.98	38.37	24.95	
2025-01-13 00:41:49.21	38.58	25.14	
2025-01-13 00:41:50.44	38.79	25.33	
2025-01-13 00:41:51.67	39.01	25.52	
2025-01-13 00:41:52.90	39.23	25.72	
2025-01-13 00:41:54.13	39.46	25.92	
2025-01-13 00:41:55.36	39.68	26.11	
2025-01-13 00:41:56.59	39.91	26.31	
2025-01-13 00:41:57.83	40.14	26.51	
2025-01-13 00:41:59.06	40.38	26.72	
2025-01-13 00:42:00.29	40.62	26.92	
2025-01-13 00:42:01.51	40.86	27.12	
2025-01-13 00:42:02.74	41.10	27.32	
2025-01-13 00:42:03.99	41.35	27.53	
2025-01-13 00:42:05.23	41.60	27.74	
2025-01-13 00:42:06.46	41.86	27.95	
2025-01-13 00:42:07.69	42.12	28.16	
2025-01-13 00:42:08.91	42.38	28.37	
2025-01-13 00:42:10.15	42.64	28.58	
2025-01-13 00:42:11.38	42.91	28.79	
2025-01-13 00:42:12.61	43.18	29.00	
2025-01-13 00:42:13.84	43.46	29.22	
2025-01-13 00:42:15.07	43.74	29.43	
2025-01-13 00:42:16.31	44.02	29.65	
2025-01-13 00:42:17.54	44.31	29.87	
2025-01-13 00:42:18.77	44.60	30.09	
2025-01-13 00:42:20.01	44.90	30.31	
2025-01-13 00:42:21.25	45.20	30.53	
2025-01-13 00:42:22.48	45.50	30.75	
2025-01-13 00:42:23.71	45.81	30.98	
2025-01-13 00:42:24.94	46.12	31.20	
2025-01-13 00:42:26.20	46.44	31.43	
2025-01-13 00:42:27.43	46.76	31.65	
2025-01-13 00:42:28.66	47.09	31.88	
2025-01-13 00:42:29.90	47.42	32.11	
2025-01-13 00:42:31.15	47.76	32.34	
2025-01-13 00:42:32.37	48.10	32.57	
2025-01-13 00:42:33.60	48.44	32.80	
2025-01-13 00:42:34.84	48.79	33.03	
2025-01-13 00:42:36.09	49.15	33.27	
2025-01-13 00:42:37.32	49.51	33.50	
2025-01-13 00:42:38.56	49.88	33.73	
2025-01-13 00:42:39.79	50.25	33.97	
2025-01-13 00:42:41.01	50.62	34.20	
2025-01-13 00:42:42.26	51.01	34.44	
2025-01-13 00:42:43.48	51.40	34.67	
2025-01-13 00:42:44.71	51.79	34.90	
2025-01-13 00:42:45.94	52.19	35.14	
2025-01-13 00:42:47.17	52.59	35.38	
2025-01-13 00:42:48.41	53.00	35.61	
2025-01-13 00:42:49.64	53.42	35.85	
2025-01-13 00:42:50.87	53.84	36.09	
2025-01-13 00:42:52.10	54.27	36.32	
2025-01-13 00:42:53.33	54.71	36.56	
2025-01-13 00:42:54.56	55.15	36.80	
2025-01-13 00:42:55.79	55.59	37.04	
2025-01-13 00:42:57.03	56.05	37.28	
2025-01-13 00:42:58.27	56.52	37.51	
2025-01-13 00:42:59.50	56.99	37.75	
2025-01-13 00:43:00.75	57.47	37.99	
2025-01-13 00:43:01.98	57.95	38.23	
2025-01-13 00:43:03.21	58.44	38.46	
2025-01-13 00:43:04.44	58.94	38.70	
2025-01-13 00:43:05.67	59.44	38.93	
2025-01-13 00:43:06.90	59.95	39.17	
2025-01-13 00:43:08.14	60.48	39.40	
2025-01-13 00:43:09.36	61.00	39.63	
2025-01-13 00:43:10.61	61.54	39.87	
2025-01-13 00:43:11.84	62.08	40.09	
2025-01-13 00:43:13.07	62.63	40.32	
2025-01-13 00:43:14.31	63.19	40.55	
2025-01-13 00:43:15.54	63.76	40.78	
2025-01-13 00:43:16.77	64.33	41.00	
2025-01-13 00:43:18.00	64.91	41.22	
2025-01-13 00:43:19.23	65.50	41.44	
2025-01-13 00:43:20.46	66.10	41.66	
2025-01-13 00:43:21.69	66.71	41.88	
2025-01-13 00:43:22.94	67.33	42.10	
2025-01-13 00:43:24.17	67.95	42.31	
2025-01-13 00:43:25.39	68.58	42.52	
2025-01-13 00:43:26.62	69.22	42.72	
2025-01-13 00:43:27.85	69.86	42.93	
2025-01-13 00:43:29.09	70.52	43.13	
2025-01-13 00:43:30.32	71.19	43.33	
2025-01-13 00:43:31.55	71.86	43.53	
2025-01-13 00:43:32.78	72.54	43.72	
2025-01-13 00:43:34.02	73.23	43.91	
2025-01-13 00:43:35.25	73.93	44.09	
2025-01-13 00:43:36.48	74.64	44.27	
2025-01-13 00:43:37.71	75.35	44.45	
2025-01-13 00:43:38.94	76.07	44.63	
2025-01-13 00:43:40.18	76.81	44.80	
2025-01-13 00:43:41.40	77.54	44.96	
2025-01-13 00:43:42.65	78.29	45.12	
2025-01-13 00:43:43.88	79.05	45.28	
2025-01-13 00:43:45.11	79.80	45.43	
2025-01-13 00:43:46.34	80.57	45.58	
2025-01-13 00:43:47.59	81.36	45.72	
2025-01-13 00:43:48.82	82.14	45.86	
2025-01-13 00:43:50.05	82.93	45.99	
2025-01-13 00:43:51.27	83.71	46.11	
2025-01-13 00:43:52.50	84.51	46.23	
2025-01-13 00:43:53.73	85.32	46.35	
2025-01-13 00:43:54.97	86.14	46.46	
2025-01-13 00:43:56.20	86.96	46.56	
2025-01-13 00:43:57.43	87.78	46.66	
2025-01-13 00:43:58.66	88.61	46.75	
2025-01-13 00:43:59.89	89.44	46.83	
2025-01-13 00:44:01.13	90.29	46.91	
2025-01-13 00:44:02.35	91.12	46.98	
2025-01-13 00:44:03.58	91.97	47.05	
2025-01-13 00:44:04.81	92.81	47.11	
2025-01-13 00:44:06.04	93.67	47.16	
2025-01-13 00:44:07.27	94.52	47.21	
2025-01-13 00:44:08.50	95.38	47.24	
2025-01-13 00:44:09.74	96.24	47.28	
2025-01-13 00:44:10.97	97.10	47.30	
2025-01-13 00:44:12.20	97.96	47.32	
2025-01-13 00:44:13.44	98.83	47.33	
2025-01-13 00:44:14.67	99.70	47.34	
2025-01-13 00:44:15.92	100.57	47.33	
2025-01-13 00:44:17.15	101.44	47.33	
2025-01-13 00:44:18.38	102.30	47.31	
2025-01-13 00:44:19.61	103.16	47.29	
2025-01-13 00:44:20.84	104.02	47.26	
2025-01-13 00:44:22.07	104.88	47.22	
2025-01-13 00:44:23.31	105.74	47.18	
2025-01-13 00:44:24.54	106.59	47.13	
2025-01-13 00:44:25.76	107.44	47.07	
2025-01-13 00:44:27.00	108.29	47.01	
2025-01-13 00:44:28.22	109.13	46.94	
2025-01-13 00:44:29.47	109.98	46.86	
2025-01-13 00:44:30.70	110.81	46.78	
2025-01-13 00:44:31.93	111.65	46.69	
2025-01-13 00:44:33.17	112.48	46.59	
2025-01-13 00:44:34.39	113.29	46.49	
2025-01-13 00:44:35.62	114.11	46.39	
2025-01-13 00:44:36.85	114.92	46.27	
2025-01-13 00:44:38.08	115.72	46.15	
2025-01-13 00:44:39.31	116.52	46.03	
2025-01-13 00:44:40.54	117.31	45.90	
2025-01-13 00:44:41.79	118.11	45.76	
2025-01-13 00:44:43.02	118.88	45.62	
2025-01-13 00:44:44.25	119.65	45.48	
2025-01-13 00:44:45.48	120.42	45.33	
2025-01-13 00:44:46.71	121.17	45.17	
2025-01-13 00:44:47.96	121.93	45.01	
2025-01-13 00:44:49.19	122.68	44.85	
2025-01-13 00:44:50.41	123.40	44.68	
2025-01-13 00:44:51.65	124.13	44.50	
2025-01-13 00:44:52.89	124.86	44.33	
2025-01-13 00:44:54.12	125.57	44.15	
2025-01-13 00:44:55.35	126.27	43.96	
2025-01-13 00:44:56.58	126.96	43.77	
2025-01-13 00:44:57.83	127.66	43.58	
2025-01-13 00:44:59.06	128.33	43.38	
2025-01-13 00:45:00.29	129.00	43.18	
2025-01-13 00:45:01.52	129.66	42.98	
2025-01-13 00:45:02.75	130.31	42.78	
2025-01-13 00:45:03.98	130.95	42.57	
2025-01-13 00:45:05.23	131.60	42.36	
2025-01-13 00:45:06.47	132.23	42.14	
2025-01-13 00:45:07.70	132.85	41.93	
2025-01-13 00:45:08.93	133.46	41.71	
2025-01-13 00:45:10.17	134.07	41.49	
2025-01-13 00:45:11.41	134.66	41.27	
2025-01-13 00:45:12.64	135.25	41.05	
2025-01-13 00:45:13.87	135.83	40.82	
2025-01-13 00:45:15.10	136.40	40.60	
2025-01-13 00:45:16.33	136.96	40.37	
2025-01-13 00:45:17.56	137.51	40.14	
2025-01-13 00:45:18.79	138.05	39.91	
2025-01-13 00:45:20.02	138.59	39.68	
2025-01-13 00:45:21.25	139.12	39.44	
2025-01-13 00:45:22.48	139.64	39.21	
2025-01-13 00:45:23.71	140.16	38.98	
2025-01-13 00:45:24.94	140.67	38.74	
2025-01-13 00:45:26.17	141.17	38.50	
2025-01-13 00:45:27.40	141.66	38.27	
2025-01-13 00:45:28.63	142.15	38.03	
2025-01-13 00:45:29.86	142.62	37.79	
2025-01-13 00:45:31.09	143.10	37.55	
2025-01-13 00:45:32.33	143.57	37.31	
2025-01-13 00:45:33.56	144.02	37.08	
2025-01-13 00:45:34.79	144.47	36.84	
2025-01-13 00:45:36.02	144.92	36.60	
2025-01-13 00:45:37.25	145.36	36.36	
2025-01-13 00:45:38.48	145.79	36.12	
2025-01-13 00:45:39.71	146.21	35.88	
2025-01-13 00:45:40.94	146.63	35.64	
2025-01-13 00:45:42.17	147.05	35.41	
2025-01-13 00:45:43.40	147.45	35.17	
2025-01-13 00:45:44.63	147.85	34.93	
2025-01-13 00:45:45.86	148.25	34.70	
2025-01-13 00:45:47.09	148.64	34.46	
2025-01-13 00:45:48.32	149.02	34.22	
2025-01-13 00:45:49.55	149.40	33.99	
2025-01-13 00:45:50.79	149.78	33.75	
2025-01-13 00:45:52.02	150.15	33.52	
2025-01-13 00:45:53.26	150.51	33.28	
2025-01-13 00:45:54.49	150.87	33.05	
2025-01-13 00:45:55.70	151.21	32.82	
2025-01-13 00:45:56.94	151.56	32.59	
2025-01-13 00:45:58.17	151.91	32.36	
2025-01-13 00:45:59.40	152.24	32.13	
2025-01-13 00:46:00.64	152.58	31.90	
2025-01-13 00:46:01.88	152.91	31.67	
2025-01-13 00:46:03.11	153.23	31.44	
2025-01-13 00:46:04.34	153.55	31.21	
2025-01-13 00:46:05.57	153.86	30.99	
2025-01-13 00:46:06.80	154.17	30.76	
2025-01-13 00:46:08.03	154.48	30.54	
2025-01-13 00:46:09.26	154.78	30.32	
2025-01-13 00:46:10.49	155.08	30.10	
2025-01-13 00:46:11.72	155.37	29.88	
2025-01-13 00:46:12.95	155.66	29.66	
2025-01-13 00:46:14.17	155.94	29.44	
2025-01-13 00:46:15.40	156.22	29.22	
2025-01-13 00:46:16.63	156.50	29.01	
2025-01-13 00:46:17.87	156.77	28.79	
2025-01-13 00:46:19.09	157.04	28.58	
2025-01-13 00:46:20.33	157.31	28.36	
2025-01-13 00:46:21.56	157.57	28.15	
2025-01-13 00:46:22.79	157.83	27.94	
2025-01-13 00:46:24.02	158.09	27.73	
2025-01-13 00:46:25.25	158.34	27.52	
2025-01-13 00:46:26.48	158.59	27.32	
2025-01-13 00:46:27.71	158.83	27.11	
2025-01-13 00:46:28.94	159.08	26.91	
2025-01-13 00:46:30.17	159.32	26.70	
2025-01-13 00:46:31.40	159.55	26.50	
2025-01-13 00:46:32.63	159.79	26.30	
2025-01-13 00:46:33.87	160.02	26.10	
2025-01-13 00:46:35.10	160.25	25.90	
2025-01-13 00:46:36.33	160.47	25.70	
2025-01-13 00:46:37.55	160.69	25.50	
2025-01-13 00:46:38.79	160.91	25.31	
2025-01-13 00:46:40.02	161.13	25.11	
2025-01-13 00:46:41.25	161.34	24.92	
2025-01-13 00:46:42.48	161.55	24.73	
2025-01-13 00:46:43.71	161.76	24.53	
2025-01-13 00:46:44.94	161.97	24.34	
2025-01-13 00:46:46.17	162.17	24.16	
2025-01-13 00:46:47.41	162.37	23.97	
2025-01-13 00:46:48.64	162.57	23.78	
2025-01-13 00:46:49.87	162.77	23.59	
2025-01-13 00:46:51.10	162.96	23.41	
2025-01-13 00:46:52.33	163.15	23.23	
2025-01-13 00:46:53.59	163.35	23.04	
2025-01-13 00:46:54.82	163.53	22.86	
2025-01-13 00:46:56.05	163.72	22.68	
2025-01-13 00:46:57.28	163.90	22.50	
2025-01-13 00:46:58.53	164.08	22.32	
2025-01-13 00:46:59.77	164.26	22.14	
2025-01-13 00:47:01.02	164.44	21.96	
2025-01-13 00:47:02.25	164.62	21.79	
2025-01-13 00:47:03.48	164.79	21.61	
2025-01-13 00:47:04.72	164.96	21.44	
2025-01-13 00:47:05.96	165.13	21.27	
2025-01-13 00:47:07.19	165.30	21.10	
2025-01-13 00:47:08.42	165.46	20.93	
2025-01-13 00:47:09.65	165.62	20.76	
2025-01-13 00:47:10.89	165.79	20.59	
2025-01-13 00:47:12.12	165.95	20.42	
2025-01-13 00:47:13.35	166.10	20.26	
2025-01-13 00:47:14.58	166.26	20.09	
2025-01-13 00:47:15.80	166.41	19.93	
2025-01-13 00:47:17.03	166.56	19.77	
2025-01-13 00:47:18.26	166.72	19.61	
2025-01-13 00:47:19.49	166.86	19.45	
2025-01-13 00:47:20.72	167.01	19.29	
2025-01-13 00:47:21.95	167.16	19.13	
2025-01-13 00:47:23.18	167.30	18.97	
2025-01-13 00:47:24.41	167.45	18.81	
2025-01-13 00:47:25.65	167.59	18.66	
2025-01-13 00:47:26.89	167.73	18.50	
2025-01-13 00:47:28.12	167.87	18.35	
2025-01-13 00:47:29.35	168.01	18.19	
2025-01-13 00:47:30.58	168.14	18.04	
2025-01-13 00:47:31.81	168.28	17.89	
2025-01-13 00:47:33.04	168.41	17.74	
2025-01-13 00:47:34.26	168.54	17.59	
2025-01-13 00:47:35.51	168.67	17.44	
2025-01-13 00:47:36.74	168.80	17.29	
2025-01-13 00:47:37.97	168.93	17.14	
2025-01-13 00:47:39.20	169.06	17.00	
2025-01-13 00:47:40.43	169.18	16.85	
2025-01-13 00:47:41.66	169.30	16.71	
2025-01-13 00:47:42.89	169.43	16.56	
2025-01-13 00:47:44.12	169.55	16.42	
2025-01-13 00:47:45.35	169.67	16.28	
2025-01-13 00:47:46.59	169.79	16.14	
2025-01-13 00:47:47.82	169.91	16.00	
2025-01-13 00:47:49.06	170.03	15.85	
2025-01-13 00:47:50.29	170.14	15.72	
2025-01-13 00:47:51.52	170.26	15.58	
2025-01-13 00:47:52.75	170.37	15.44	
2025-01-13 00:47:53.99	170.48	15.30	
2025-01-13 00:47:55.22	170.60	15.17	
2025-01-13 00:47:56.45	170.71	15.03	
2025-01-13 00:47:57.69	170.82	14.90	
2025-01-13 00:47:58.92	170.93	14.76	
2025-01-13 00:48:00.15	171.03	14.63	
2025-01-13 00:48:01.38	171.14	14.50	
2025-01-13 00:48:02.61	171.25	14.37	
2025-01-13 00:48:03.85	171.35	14.23	
2025-01-13 00:48:05.08	171.46	14.10	
2025-01-13 00:48:06.32	171.56	13.97	
2025-01-13 00:48:07.54	171.66	13.84	
2025-01-13 00:48:08.78	171.76	13.72	
2025-01-13 00:48:10.01	171.86	13.59	
2025-01-13 00:48:11.24	171.96	13.46	
2025-01-13 00:48:12.47	172.06	13.34	
2025-01-13 00:48:13.70	172.16	13.21	
2025-01-13 00:48:14.93	172.25	13.08	
2025-01-13 00:48:16.16	172.35	12.96	
2025-01-13 00:48:17.39	172.45	12.84	
2025-01-13 00:48:18.64	172.54	12.71	
2025-01-13 00:48:19.87	172.63	12.59	
2025-01-13 00:48:21.10	172.73	12.47	
2025-01-13 00:48:22.34	172.82	12.35	
2025-01-13 00:48:23.59	172.91	12.22	
2025-01-13 00:48:24.82	173.00	12.10	
2025-01-13 00:48:26.05	173.09	11.98	
2025-01-13 00:48:27.28	173.18	11.87	
2025-01-13 00:48:28.54	173.27	11.74	
2025-01-13 00:48:29.77	173.36	11.63	
2025-01-13 00:48:31.01	173.45	11.51	
2025-01-13 00:48:32.24	173.53	11.39	
2025-01-13 00:48:33.47	173.62	11.28	
2025-01-13 00:48:34.71	173.70	11.16	
2025-01-13 00:48:35.94	173.79	11.05	
2025-01-13 00:48:37.17	173.87	10.93	
2025-01-13 00:48:38.40	173.95	10.82	
2025-01-13 00:48:39.63	174.04	10.71	
2025-01-13 00:48:40.86	174.12	10.59	
2025-01-13 00:48:42.09	174.20	10.48	
2025-01-13 00:48:43.32	174.28	10.37	
2025-01-13 00:48:44.56	174.36	10.26	
2025-01-13 00:48:45.79	174.44	10.15	
2025-01-13 00:48:47.02	174.52	10.04	
2025-01-13 00:48:48.25	174.59	9.93	
2025-01-13 00:48:49.48	174.67	9.82	
2025-01-13 00:48:50.70	174.75	9.71	
2025-01-13 00:48:51.93	174.82	9.60	
2025-01-13 00:48:53.16	174.90	9.49	
2025-01-13 00:48:54.39	174.97	9.39	
2025-01-13 00:48:55.62	175.05	9.28	
2025-01-13 00:48:56.85	175.12	9.17	
2025-01-13 00:48:58.08	175.19	9.07	
2025-01-13 00:48:59.31	175.27	8.96	
2025-01-13 00:49:00.54	175.34	8.86	
2025-01-13 00:49:01.77	175.41	8.76	
2025-01-13 00:49:03.01	175.48	8.65	
2025-01-13 00:49:04.23	175.55	8.55	
2025-01-13 00:49:05.46	175.62	8.44	
2025-01-13 00:49:06.69	175.69	8.34	
2025-01-13 00:49:07.92	175.76	8.24	
2025-01-13 00:49:09.15	175.83	8.14	
2025-01-13 00:49:10.39	175.90	8.04	
2025-01-13 00:49:11.62	175.96	7.94	
2025-01-13 00:49:12.86	176.03	7.83	
2025-01-13 00:49:14.09	176.10	7.73	
2025-01-13 00:49:15.32	176.16	7.63	
2025-01-13 00:49:16.56	176.23	7.53	
2025-01-13 00:49:17.79	176.30	7.44	
2025-01-13 00:49:19.02	176.36	7.34	
2025-01-13 00:49:20.25	176.42	7.24	
2025-01-13 00:49:21.48	176.49	7.14	
2025-01-13 00:49:22.71	176.55	7.04	
2025-01-13 00:49:23.95	176.62	6.95	
2025-01-13 00:49:25.18	176.68	6.85	
2025-01-13 00:49:26.41	176.74	6.75	
2025-01-13 00:49:27.64	176.80	6.66	
2025-01-13 00:49:28.87	176.86	6.56	
2025-01-13 00:49:30.11	176.92	6.47	
2025-01-13 00:49:31.34	176.99	6.37	
2025-01-13 00:49:32.57	177.05	6.28	
2025-01-13 00:49:33.80	177.11	6.19	
2025-01-13 00:49:35.03	177.16	6.09	
2025-01-13 00:49:36.26	177.22	6.00	
2025-01-13 00:49:37.49	177.28	5.91	
2025-01-13 00:49:38.72	177.34	5.81	
2025-01-13 00:49:39.95	177.40	5.72	
2025-01-13 00:49:41.18	177.46	5.63	
2025-01-13 00:49:42.41	177.51	5.54	
2025-01-13 00:49:43.64	177.57	5.45	
2025-01-13 00:49:44.87	177.63	5.36	
2025-01-13 00:49:46.10	177.68	5.27	
2025-01-13 00:49:47.33	177.74	5.18	
2025-01-13 00:49:48.57	177.79	5.09	
2025-01-13 00:49:49.80	177.85	5.00	
2025-01-13 00:49:51.03	177.90	4.91	
2025-01-13 00:49:52.26	177.96	4.82	
2025-01-13 00:49:53.49	178.01	4.73	
2025-01-13 00:49:54.72	178.07	4.64	
2025-01-13 00:49:55.95	178.12	4.55	
2025-01-13 00:49:57.19	178.17	4.46	
2025-01-13 00:49:58.42	178.22	4.38	
2025-01-13 00:49:59.65	178.28	4.29	
2025-01-13 00:50:00.88	178.33	4.20	
2025-01-13 00:50:02.11	178.38	4.12	
2025-01-13 00:50:03.34	178.43	4.03	

#Closed at: 2025-01-13 00:50:03