passes_logs/2025/01/13/SPB_Silybum_02/SPB_Silybum_02__20250113_095555_TERRA_rec.log

#Pass ID: 20250113_095555_TERRA
#Satellite: TERRA
#Configuration: TERRA
#Start time: 2025-01-13 09:55:56

#Version: 2.0.20230423
#Station: SPB_Silybum_02
#Location: 30.233357 lon 59.946436 lat
#TLE: 1 25994U 99068A   25012.80475962  .00000761  00000+0  16654-3 0  9990
#TLE: 2 25994  98.0220  75.9049 0003508  77.1547  57.1006 14.60390868333758

#Time	Az	El	Level	Level2	SNR	BER	Gain	Gain2
2025-01-13 09:55:58.23	9.96	4.15	
2025-01-13 09:55:59.46	9.87	4.23	
2025-01-13 09:56:00.69	9.77	4.31	
2025-01-13 09:56:01.92	9.68	4.39	
2025-01-13 09:56:03.14	9.58	4.47	
2025-01-13 09:56:04.37	9.49	4.55	
2025-01-13 09:56:05.61	9.39	4.63	
2025-01-13 09:56:06.84	9.29	4.71	
2025-01-13 09:56:08.07	9.19	4.79	
2025-01-13 09:56:09.31	9.09	4.87	
2025-01-13 09:56:10.53	9.00	4.95	
2025-01-13 09:56:11.78	8.89	5.03	
2025-01-13 09:56:13.01	8.79	5.11	
2025-01-13 09:56:14.24	8.69	5.19	
2025-01-13 09:56:15.48	8.59	5.27	
2025-01-13 09:56:16.72	8.49	5.35	
2025-01-13 09:56:17.95	8.38	5.43	
2025-01-13 09:56:19.18	8.28	5.52	
2025-01-13 09:56:20.41	8.18	5.60	
2025-01-13 09:56:21.64	8.07	5.68	
2025-01-13 09:56:22.87	7.97	5.76	
2025-01-13 09:56:24.10	7.86	5.84	
2025-01-13 09:56:25.35	7.75	5.93	
2025-01-13 09:56:26.59	7.64	6.01	
2025-01-13 09:56:27.83	7.53	6.09	
2025-01-13 09:56:29.06	7.42	6.18	
2025-01-13 09:56:30.29	7.31	6.26	
2025-01-13 09:56:31.52	7.20	6.34	
2025-01-13 09:56:32.75	7.09	6.43	
2025-01-13 09:56:33.98	6.98	6.51	
2025-01-13 09:56:35.22	6.87	6.60	
2025-01-13 09:56:36.46	6.75	6.68	
2025-01-13 09:56:37.69	6.64	6.77	
2025-01-13 09:56:38.92	6.52	6.85	
2025-01-13 09:56:40.16	6.41	6.94	
2025-01-13 09:56:41.40	6.29	7.02	
2025-01-13 09:56:42.63	6.17	7.11	
2025-01-13 09:56:43.86	6.05	7.19	
2025-01-13 09:56:45.08	5.93	7.28	
2025-01-13 09:56:46.31	5.82	7.37	
2025-01-13 09:56:47.55	5.69	7.45	
2025-01-13 09:56:48.78	5.57	7.54	
2025-01-13 09:56:50.00	5.45	7.62	
2025-01-13 09:56:51.24	5.33	7.71	
2025-01-13 09:56:52.48	5.20	7.80	
2025-01-13 09:56:53.72	5.08	7.89	
2025-01-13 09:56:54.96	4.95	7.98	
2025-01-13 09:56:56.19	4.82	8.06	
2025-01-13 09:56:57.43	4.70	8.15	
2025-01-13 09:56:58.65	4.57	8.24	
2025-01-13 09:56:59.89	4.44	8.33	
2025-01-13 09:57:01.12	4.31	8.42	
2025-01-13 09:57:02.35	4.18	8.51	
2025-01-13 09:57:03.58	4.05	8.60	
2025-01-13 09:57:04.81	3.92	8.68	
2025-01-13 09:57:06.06	3.78	8.78	
2025-01-13 09:57:07.29	3.65	8.86	
2025-01-13 09:57:08.52	3.51	8.95	
2025-01-13 09:57:09.75	3.37	9.04	
2025-01-13 09:57:10.98	3.24	9.13	
2025-01-13 09:57:12.21	3.10	9.23	
2025-01-13 09:57:13.45	2.96	9.32	
2025-01-13 09:57:14.68	2.82	9.41	
2025-01-13 09:57:15.91	2.68	9.50	
2025-01-13 09:57:17.14	2.54	9.59	
2025-01-13 09:57:18.37	2.39	9.68	
2025-01-13 09:57:19.60	2.25	9.77	
2025-01-13 09:57:20.83	2.10	9.87	
2025-01-13 09:57:22.06	1.96	9.96	
2025-01-13 09:57:23.29	1.81	10.05	
2025-01-13 09:57:24.53	1.66	10.14	
2025-01-13 09:57:25.76	1.51	10.24	
2025-01-13 09:57:26.99	1.36	10.33	
2025-01-13 09:57:28.22	1.21	10.42	
2025-01-13 09:57:29.45	1.06	10.52	
2025-01-13 09:57:30.69	0.90	10.61	
2025-01-13 09:57:31.93	0.75	10.70	
2025-01-13 09:57:33.16	0.59	10.80	
2025-01-13 09:57:34.39	0.44	10.89	
2025-01-13 09:57:35.62	0.28	10.99	
2025-01-13 09:57:36.85	0.12	11.08	
2025-01-13 09:57:38.08	359.96	11.18	
2025-01-13 09:57:39.31	359.80	11.27	
2025-01-13 09:57:40.55	359.64	11.37	
2025-01-13 09:57:41.77	359.47	11.46	
2025-01-13 09:57:43.01	359.31	11.56	
2025-01-13 09:57:44.25	359.14	11.65	
2025-01-13 09:57:45.50	358.97	11.75	
2025-01-13 09:57:46.73	358.80	11.85	
2025-01-13 09:57:47.96	358.63	11.94	
2025-01-13 09:57:49.19	358.46	12.04	
2025-01-13 09:57:50.42	358.29	12.14	
2025-01-13 09:57:51.65	358.12	12.23	
2025-01-13 09:57:52.88	357.94	12.33	
2025-01-13 09:57:54.12	357.76	12.43	
2025-01-13 09:57:55.34	357.59	12.53	
2025-01-13 09:57:56.58	357.41	12.62	
2025-01-13 09:57:57.81	357.23	12.72	
2025-01-13 09:57:59.04	357.05	12.82	
2025-01-13 09:58:00.27	356.87	12.92	
2025-01-13 09:58:01.50	356.68	13.02	
2025-01-13 09:58:02.73	356.50	13.12	
2025-01-13 09:58:03.96	356.31	13.21	
2025-01-13 09:58:05.20	356.12	13.31	
2025-01-13 09:58:06.44	355.93	13.41	
2025-01-13 09:58:07.67	355.74	13.51	
2025-01-13 09:58:08.90	355.55	13.61	
2025-01-13 09:58:10.13	355.36	13.71	
2025-01-13 09:58:11.36	355.16	13.81	
2025-01-13 09:58:12.59	354.96	13.91	
2025-01-13 09:58:13.82	354.77	14.01	
2025-01-13 09:58:15.06	354.57	14.11	
2025-01-13 09:58:16.29	354.37	14.21	
2025-01-13 09:58:17.52	354.16	14.31	
2025-01-13 09:58:18.75	353.96	14.41	
2025-01-13 09:58:19.98	353.75	14.51	
2025-01-13 09:58:21.21	353.55	14.61	
2025-01-13 09:58:22.45	353.34	14.71	
2025-01-13 09:58:23.68	353.13	14.81	
2025-01-13 09:58:24.91	352.92	14.91	
2025-01-13 09:58:26.15	352.70	15.01	
2025-01-13 09:58:27.39	352.49	15.12	
2025-01-13 09:58:28.62	352.27	15.22	
2025-01-13 09:58:29.85	352.05	15.32	
2025-01-13 09:58:31.08	351.84	15.42	
2025-01-13 09:58:32.32	351.61	15.52	
2025-01-13 09:58:33.55	351.39	15.62	
2025-01-13 09:58:34.78	351.17	15.72	
2025-01-13 09:58:36.01	350.94	15.82	
2025-01-13 09:58:37.26	350.71	15.93	
2025-01-13 09:58:38.49	350.48	16.03	
2025-01-13 09:58:39.72	350.25	16.13	
2025-01-13 09:58:40.95	350.02	16.23	
2025-01-13 09:58:42.20	349.78	16.33	
2025-01-13 09:58:43.43	349.54	16.44	
2025-01-13 09:58:44.66	349.31	16.54	
2025-01-13 09:58:45.88	349.07	16.64	
2025-01-13 09:58:47.11	348.83	16.74	
2025-01-13 09:58:48.35	348.58	16.84	
2025-01-13 09:58:49.58	348.34	16.94	
2025-01-13 09:58:50.81	348.09	17.04	
2025-01-13 09:58:52.03	347.85	17.14	
2025-01-13 09:58:53.27	347.60	17.24	
2025-01-13 09:58:54.52	347.34	17.35	
2025-01-13 09:58:55.76	347.08	17.45	
2025-01-13 09:58:56.99	346.83	17.55	
2025-01-13 09:58:58.22	346.57	17.65	
2025-01-13 09:58:59.45	346.31	17.75	
2025-01-13 09:59:00.68	346.05	17.85	
2025-01-13 09:59:01.91	345.79	17.95	
2025-01-13 09:59:03.14	345.52	18.05	
2025-01-13 09:59:04.37	345.26	18.15	
2025-01-13 09:59:05.61	344.99	18.25	
2025-01-13 09:59:06.85	344.72	18.35	
2025-01-13 09:59:08.08	344.44	18.45	
2025-01-13 09:59:09.30	344.17	18.55	
2025-01-13 09:59:10.53	343.90	18.65	
2025-01-13 09:59:11.76	343.62	18.75	
2025-01-13 09:59:12.99	343.34	18.84	
2025-01-13 09:59:14.22	343.06	18.94	
2025-01-13 09:59:15.47	342.77	19.04	
2025-01-13 09:59:16.70	342.48	19.14	
2025-01-13 09:59:17.93	342.19	19.24	
2025-01-13 09:59:19.16	341.90	19.33	
2025-01-13 09:59:20.39	341.61	19.43	
2025-01-13 09:59:21.62	341.32	19.53	
2025-01-13 09:59:22.85	341.02	19.62	
2025-01-13 09:59:24.08	340.73	19.72	
2025-01-13 09:59:25.31	340.43	19.81	
2025-01-13 09:59:26.55	340.12	19.91	
2025-01-13 09:59:27.80	339.81	20.00	
2025-01-13 09:59:29.03	339.51	20.10	
2025-01-13 09:59:30.25	339.20	20.19	
2025-01-13 09:59:31.49	338.89	20.28	
2025-01-13 09:59:32.72	338.58	20.38	
2025-01-13 09:59:33.95	338.27	20.47	
2025-01-13 09:59:35.18	337.95	20.56	
2025-01-13 09:59:36.41	337.63	20.65	
2025-01-13 09:59:37.64	337.31	20.74	
2025-01-13 09:59:38.87	336.99	20.83	
2025-01-13 09:59:40.12	336.66	20.92	
2025-01-13 09:59:41.35	336.34	21.01	
2025-01-13 09:59:42.58	336.01	21.10	
2025-01-13 09:59:43.82	335.68	21.19	
2025-01-13 09:59:45.05	335.35	21.27	
2025-01-13 09:59:46.28	335.01	21.36	
2025-01-13 09:59:47.51	334.68	21.45	
2025-01-13 09:59:48.74	334.34	21.53	
2025-01-13 09:59:49.99	334.00	21.62	
2025-01-13 09:59:51.22	333.65	21.70	
2025-01-13 09:59:52.44	333.31	21.78	
2025-01-13 09:59:53.68	332.97	21.86	
2025-01-13 09:59:54.91	332.62	21.95	
2025-01-13 09:59:56.14	332.27	22.03	
2025-01-13 09:59:57.36	331.92	22.10	
2025-01-13 09:59:58.59	331.57	22.18	
2025-01-13 09:59:59.82	331.21	22.26	
2025-01-13 10:00:01.05	330.86	22.34	
2025-01-13 10:00:02.29	330.49	22.41	
2025-01-13 10:00:03.53	330.13	22.49	
2025-01-13 10:00:04.76	329.77	22.56	
2025-01-13 10:00:05.99	329.40	22.64	
2025-01-13 10:00:07.22	329.04	22.71	
2025-01-13 10:00:08.45	328.67	22.78	
2025-01-13 10:00:09.68	328.30	22.85	
2025-01-13 10:00:10.91	327.93	22.92	
2025-01-13 10:00:12.14	327.56	22.99	
2025-01-13 10:00:13.37	327.18	23.05	
2025-01-13 10:00:14.60	326.81	23.12	
2025-01-13 10:00:15.83	326.43	23.18	
2025-01-13 10:00:17.06	326.05	23.25	
2025-01-13 10:00:18.29	325.67	23.31	
2025-01-13 10:00:19.52	325.28	23.37	
2025-01-13 10:00:20.75	324.90	23.43	
2025-01-13 10:00:21.98	324.51	23.49	
2025-01-13 10:00:23.21	324.13	23.55	
2025-01-13 10:00:24.44	323.74	23.61	
2025-01-13 10:00:25.67	323.35	23.66	
2025-01-13 10:00:26.92	322.95	23.72	
2025-01-13 10:00:28.16	322.55	23.77	
2025-01-13 10:00:29.39	322.16	23.82	
2025-01-13 10:00:30.62	321.76	23.87	
2025-01-13 10:00:31.85	321.36	23.92	
2025-01-13 10:00:33.10	320.96	23.97	
2025-01-13 10:00:34.34	320.56	24.01	
2025-01-13 10:00:35.59	320.15	24.06	
2025-01-13 10:00:36.81	319.75	24.10	
2025-01-13 10:00:38.05	319.34	24.14	
2025-01-13 10:00:39.29	318.93	24.18	
2025-01-13 10:00:40.52	318.53	24.22	
2025-01-13 10:00:41.75	318.12	24.26	
2025-01-13 10:00:42.97	317.72	24.30	
2025-01-13 10:00:44.20	317.31	24.33	
2025-01-13 10:00:45.43	316.90	24.36	
2025-01-13 10:00:46.67	316.48	24.40	
2025-01-13 10:00:47.91	316.07	24.43	
2025-01-13 10:00:49.15	315.65	24.45	
2025-01-13 10:00:50.38	315.24	24.48	
2025-01-13 10:00:51.61	314.83	24.51	
2025-01-13 10:00:52.84	314.41	24.53	
2025-01-13 10:00:54.07	314.00	24.55	
2025-01-13 10:00:55.30	313.58	24.57	
2025-01-13 10:00:56.52	313.17	24.59	
2025-01-13 10:00:57.75	312.75	24.61	
2025-01-13 10:00:58.98	312.33	24.63	
2025-01-13 10:01:00.23	311.91	24.64	
2025-01-13 10:01:01.47	311.49	24.65	
2025-01-13 10:01:02.72	311.06	24.67	
2025-01-13 10:01:03.95	310.64	24.68	
2025-01-13 10:01:05.18	310.22	24.68	
2025-01-13 10:01:06.41	309.80	24.69	
2025-01-13 10:01:07.64	309.38	24.70	
2025-01-13 10:01:08.87	308.96	24.70	
2025-01-13 10:01:10.10	308.54	24.70	
2025-01-13 10:01:11.33	308.13	24.70	
2025-01-13 10:01:12.56	307.71	24.70	
2025-01-13 10:01:13.79	307.29	24.69	
2025-01-13 10:01:15.02	306.87	24.69	
2025-01-13 10:01:16.25	306.45	24.68	
2025-01-13 10:01:17.50	306.02	24.68	
2025-01-13 10:01:18.73	305.60	24.67	
2025-01-13 10:01:19.96	305.18	24.65	
2025-01-13 10:01:21.19	304.76	24.64	
2025-01-13 10:01:22.42	304.35	24.63	
2025-01-13 10:01:23.67	303.92	24.61	
2025-01-13 10:01:24.90	303.50	24.59	
2025-01-13 10:01:26.13	303.09	24.57	
2025-01-13 10:01:27.36	302.67	24.55	
2025-01-13 10:01:28.60	302.25	24.53	
2025-01-13 10:01:29.84	301.83	24.51	
2025-01-13 10:01:31.07	301.42	24.48	
2025-01-13 10:01:32.30	301.01	24.45	
2025-01-13 10:01:33.53	300.59	24.42	
2025-01-13 10:01:34.76	300.18	24.39	
2025-01-13 10:01:35.99	299.77	24.36	
2025-01-13 10:01:37.22	299.36	24.33	
2025-01-13 10:01:38.47	298.95	24.29	
2025-01-13 10:01:39.70	298.54	24.26	
2025-01-13 10:01:40.93	298.13	24.22	
2025-01-13 10:01:42.16	297.72	24.18	
2025-01-13 10:01:43.39	297.32	24.14	
2025-01-13 10:01:44.63	296.91	24.10	
2025-01-13 10:01:45.86	296.51	24.06	
2025-01-13 10:01:47.09	296.11	24.01	
2025-01-13 10:01:48.32	295.71	23.96	
2025-01-13 10:01:49.55	295.31	23.92	
2025-01-13 10:01:50.78	294.91	23.87	
2025-01-13 10:01:52.01	294.51	23.82	
2025-01-13 10:01:53.24	294.12	23.77	
2025-01-13 10:01:54.47	293.72	23.71	
2025-01-13 10:01:55.71	293.33	23.66	
2025-01-13 10:01:56.94	292.93	23.60	
2025-01-13 10:01:58.17	292.54	23.55	
2025-01-13 10:01:59.41	292.15	23.49	
2025-01-13 10:02:00.64	291.77	23.43	
2025-01-13 10:02:01.88	291.38	23.37	
2025-01-13 10:02:03.11	290.99	23.31	
2025-01-13 10:02:04.34	290.61	23.24	
2025-01-13 10:02:05.57	290.23	23.18	
2025-01-13 10:02:06.81	289.85	23.12	
2025-01-13 10:02:08.05	289.47	23.05	
2025-01-13 10:02:09.28	289.09	22.98	
2025-01-13 10:02:10.51	288.72	22.91	
2025-01-13 10:02:11.74	288.35	22.84	
2025-01-13 10:02:12.97	287.98	22.77	
2025-01-13 10:02:14.20	287.61	22.70	
2025-01-13 10:02:15.43	287.24	22.63	
2025-01-13 10:02:16.66	286.88	22.56	
2025-01-13 10:02:17.89	286.52	22.48	
2025-01-13 10:02:19.12	286.15	22.41	
2025-01-13 10:02:20.36	285.79	22.33	
2025-01-13 10:02:21.59	285.43	22.25	
2025-01-13 10:02:22.82	285.08	22.18	
2025-01-13 10:02:24.05	284.72	22.10	
2025-01-13 10:02:25.28	284.37	22.02	
2025-01-13 10:02:26.51	284.02	21.94	
2025-01-13 10:02:27.74	283.67	21.85	
2025-01-13 10:02:28.97	283.33	21.77	
2025-01-13 10:02:30.20	282.98	21.69	
2025-01-13 10:02:31.43	282.64	21.61	
2025-01-13 10:02:32.66	282.30	21.52	
2025-01-13 10:02:33.90	281.96	21.44	
2025-01-13 10:02:35.13	281.62	21.35	
2025-01-13 10:02:36.36	281.29	21.26	
2025-01-13 10:02:37.60	280.95	21.18	
2025-01-13 10:02:38.83	280.62	21.09	
2025-01-13 10:02:40.06	280.29	21.00	
2025-01-13 10:02:41.29	279.97	20.91	
2025-01-13 10:02:42.52	279.64	20.82	
2025-01-13 10:02:43.75	279.32	20.73	
2025-01-13 10:02:44.98	279.00	20.64	
2025-01-13 10:02:46.21	278.68	20.55	
2025-01-13 10:02:47.45	278.36	20.46	
2025-01-13 10:02:48.67	278.05	20.36	
2025-01-13 10:02:49.90	277.74	20.27	
2025-01-13 10:02:51.13	277.43	20.18	
2025-01-13 10:02:52.37	277.12	20.08	
2025-01-13 10:02:53.61	276.81	19.99	
2025-01-13 10:02:54.86	276.50	19.89	
2025-01-13 10:02:56.09	276.19	19.80	
2025-01-13 10:02:57.32	275.89	19.70	
2025-01-13 10:02:58.55	275.60	19.61	
2025-01-13 10:02:59.78	275.30	19.51	
2025-01-13 10:03:01.03	275.00	19.41	
2025-01-13 10:03:02.27	274.70	19.31	
2025-01-13 10:03:03.50	274.41	19.22	
2025-01-13 10:03:04.73	274.12	19.12	
2025-01-13 10:03:05.96	273.84	19.02	
2025-01-13 10:03:07.19	273.55	18.92	
2025-01-13 10:03:08.42	273.27	18.82	
2025-01-13 10:03:09.65	272.99	18.73	
2025-01-13 10:03:10.88	272.71	18.63	
2025-01-13 10:03:12.11	272.43	18.53	
2025-01-13 10:03:13.34	272.16	18.43	
2025-01-13 10:03:14.57	271.88	18.33	
2025-01-13 10:03:15.82	271.61	18.23	
2025-01-13 10:03:17.05	271.34	18.13	
2025-01-13 10:03:18.28	271.07	18.03	
2025-01-13 10:03:19.51	270.81	17.93	
2025-01-13 10:03:20.74	270.54	17.83	
2025-01-13 10:03:21.97	270.28	17.73	
2025-01-13 10:03:23.21	270.02	17.62	
2025-01-13 10:03:24.45	269.76	17.52	
2025-01-13 10:03:25.68	269.50	17.42	
2025-01-13 10:03:26.91	269.25	17.32	
2025-01-13 10:03:28.14	268.99	17.22	
2025-01-13 10:03:29.37	268.74	17.12	
2025-01-13 10:03:30.60	268.49	17.02	
2025-01-13 10:03:31.83	268.25	16.91	
2025-01-13 10:03:33.06	268.00	16.81	
2025-01-13 10:03:34.29	267.76	16.71	
2025-01-13 10:03:35.52	267.52	16.61	
2025-01-13 10:03:36.75	267.28	16.51	
2025-01-13 10:03:37.99	267.04	16.41	
2025-01-13 10:03:39.22	266.80	16.30	
2025-01-13 10:03:40.45	266.56	16.20	
2025-01-13 10:03:41.69	266.33	16.10	
2025-01-13 10:03:42.94	266.09	16.00	
2025-01-13 10:03:44.17	265.86	15.89	
2025-01-13 10:03:45.40	265.63	15.79	
2025-01-13 10:03:46.63	265.41	15.69	
2025-01-13 10:03:47.86	265.18	15.59	
2025-01-13 10:03:49.09	264.96	15.49	
2025-01-13 10:03:50.33	264.74	15.39	
2025-01-13 10:03:51.56	264.52	15.28	
2025-01-13 10:03:52.79	264.30	15.18	
2025-01-13 10:03:54.02	264.08	15.08	
2025-01-13 10:03:55.25	263.86	14.98	
2025-01-13 10:03:56.49	263.65	14.88	
2025-01-13 10:03:57.72	263.44	14.78	
2025-01-13 10:03:58.95	263.23	14.68	
2025-01-13 10:04:00.18	263.02	14.58	
2025-01-13 10:04:01.41	262.81	14.48	
2025-01-13 10:04:02.64	262.60	14.37	
2025-01-13 10:04:03.87	262.40	14.27	
2025-01-13 10:04:05.10	262.20	14.17	
2025-01-13 10:04:06.33	261.99	14.07	
2025-01-13 10:04:07.56	261.79	13.97	
2025-01-13 10:04:08.80	261.59	13.87	
2025-01-13 10:04:10.03	261.40	13.77	
2025-01-13 10:04:11.26	261.20	13.67	
2025-01-13 10:04:12.49	261.01	13.57	
2025-01-13 10:04:13.73	260.81	13.47	
2025-01-13 10:04:14.96	260.62	13.37	
2025-01-13 10:04:16.19	260.43	13.27	
2025-01-13 10:04:17.42	260.24	13.17	
2025-01-13 10:04:18.65	260.05	13.08	
2025-01-13 10:04:19.88	259.87	12.98	
2025-01-13 10:04:21.11	259.68	12.88	
2025-01-13 10:04:22.34	259.50	12.78	
2025-01-13 10:04:23.57	259.32	12.68	
2025-01-13 10:04:24.81	259.13	12.58	
2025-01-13 10:04:26.05	258.95	12.48	
2025-01-13 10:04:27.28	258.78	12.39	
2025-01-13 10:04:28.51	258.60	12.29	
2025-01-13 10:04:29.75	258.42	12.19	
2025-01-13 10:04:30.98	258.25	12.09	
2025-01-13 10:04:32.20	258.08	12.00	
2025-01-13 10:04:33.43	257.90	11.90	
2025-01-13 10:04:34.67	257.73	11.80	
2025-01-13 10:04:35.90	257.56	11.71	
2025-01-13 10:04:37.13	257.39	11.61	
2025-01-13 10:04:38.38	257.22	11.51	
2025-01-13 10:04:39.61	257.06	11.42	
2025-01-13 10:04:40.84	256.89	11.32	
2025-01-13 10:04:42.06	256.73	11.23	
2025-01-13 10:04:43.31	256.57	11.13	
2025-01-13 10:04:44.54	256.41	11.03	
2025-01-13 10:04:45.77	256.25	10.94	
2025-01-13 10:04:47.01	256.09	10.84	
2025-01-13 10:04:48.24	255.93	10.75	
2025-01-13 10:04:49.47	255.77	10.65	
2025-01-13 10:04:50.70	255.62	10.56	
2025-01-13 10:04:51.93	255.46	10.47	
2025-01-13 10:04:53.17	255.31	10.37	
2025-01-13 10:04:54.40	255.16	10.28	
2025-01-13 10:04:55.63	255.00	10.19	
2025-01-13 10:04:56.86	254.85	10.09	
2025-01-13 10:04:58.10	254.70	10.00	
2025-01-13 10:04:59.34	254.55	9.91	
2025-01-13 10:05:00.58	254.41	9.81	
2025-01-13 10:05:01.81	254.26	9.72	
2025-01-13 10:05:03.04	254.11	9.63	
2025-01-13 10:05:04.27	253.97	9.54	
2025-01-13 10:05:05.50	253.83	9.44	
2025-01-13 10:05:06.73	253.69	9.35	
2025-01-13 10:05:07.96	253.55	9.26	
2025-01-13 10:05:09.20	253.40	9.17	
2025-01-13 10:05:10.43	253.26	9.08	
2025-01-13 10:05:11.67	253.13	8.99	
2025-01-13 10:05:12.90	252.99	8.90	
2025-01-13 10:05:14.13	252.85	8.81	
2025-01-13 10:05:15.38	252.71	8.72	
2025-01-13 10:05:16.63	252.58	8.63	
2025-01-13 10:05:17.86	252.44	8.54	
2025-01-13 10:05:19.11	252.31	8.45	
2025-01-13 10:05:20.34	252.18	8.36	
2025-01-13 10:05:21.58	252.05	8.27	
2025-01-13 10:05:22.81	251.92	8.18	
2025-01-13 10:05:24.04	251.79	8.09	
2025-01-13 10:05:25.28	251.66	8.00	
2025-01-13 10:05:26.52	251.53	7.91	
2025-01-13 10:05:27.75	251.40	7.82	
2025-01-13 10:05:28.98	251.28	7.74	
2025-01-13 10:05:30.21	251.15	7.65	
2025-01-13 10:05:31.44	251.03	7.56	
2025-01-13 10:05:32.67	250.91	7.48	
2025-01-13 10:05:33.91	250.78	7.39	
2025-01-13 10:05:35.14	250.66	7.30	
2025-01-13 10:05:36.37	250.54	7.22	
2025-01-13 10:05:37.60	250.42	7.13	
2025-01-13 10:05:38.85	250.30	7.04	
2025-01-13 10:05:40.10	250.18	6.96	
2025-01-13 10:05:41.33	250.06	6.87	
2025-01-13 10:05:42.56	249.94	6.78	
2025-01-13 10:05:43.79	249.83	6.70	
2025-01-13 10:05:45.02	249.71	6.62	
2025-01-13 10:05:46.25	249.60	6.53	
2025-01-13 10:05:47.48	249.49	6.45	
2025-01-13 10:05:48.72	249.37	6.36	
2025-01-13 10:05:49.94	249.26	6.28	
2025-01-13 10:05:51.18	249.15	6.19	
2025-01-13 10:05:52.41	249.04	6.11	
2025-01-13 10:05:53.65	248.93	6.03	
2025-01-13 10:05:54.88	248.82	5.94	
2025-01-13 10:05:56.11	248.71	5.86	
2025-01-13 10:05:57.34	248.60	5.78	
2025-01-13 10:05:58.57	248.49	5.69	
2025-01-13 10:05:59.80	248.39	5.61	
2025-01-13 10:06:01.03	248.28	5.53	
2025-01-13 10:06:02.26	248.17	5.45	
2025-01-13 10:06:03.50	248.07	5.37	
2025-01-13 10:06:04.72	247.96	5.28	
2025-01-13 10:06:05.97	247.86	5.20	
2025-01-13 10:06:07.20	247.76	5.12	
2025-01-13 10:06:08.44	247.65	5.04	
2025-01-13 10:06:09.66	247.55	4.96	
2025-01-13 10:06:10.90	247.45	4.88	
2025-01-13 10:06:12.12	247.35	4.80	
2025-01-13 10:06:13.35	247.25	4.72	
2025-01-13 10:06:14.58	247.15	4.64	
2025-01-13 10:06:15.81	247.06	4.56	
2025-01-13 10:06:17.05	246.96	4.48	
2025-01-13 10:06:18.28	246.86	4.40	
2025-01-13 10:06:19.51	246.76	4.32	
2025-01-13 10:06:20.75	246.67	4.24	
2025-01-13 10:06:21.98	246.57	4.16	
2025-01-13 10:06:23.21	246.48	4.08	
2025-01-13 10:06:24.44	246.38	4.00	

#Closed at: 2025-01-13 10:06:24