passes_logs/2025/01/13/SPB_Silybum_02/SPB_Silybum_02__20250113_081804_TERRA_rec.log

#Pass ID: 20250113_081804_TERRA
#Satellite: TERRA
#Configuration: TERRA
#Start time: 2025-01-13 08:18:04

#Version: 2.0.20230423
#Station: SPB_Silybum_02
#Location: 30.233357 lon 59.946436 lat
#TLE: 1 25994U 99068A   25012.80475962  .00000761  00000+0  16654-3 0  9990
#TLE: 2 25994  98.0220  75.9049 0003508  77.1547  57.1006 14.60390868333758

#Time	Az	El	Level	Level2	SNR	BER	Gain	Gain2
2025-01-13 08:18:06.86	17.01	4.19	
2025-01-13 08:18:08.09	17.02	4.28	
2025-01-13 08:18:09.33	17.03	4.37	
2025-01-13 08:18:10.56	17.04	4.46	
2025-01-13 08:18:11.79	17.05	4.55	
2025-01-13 08:18:13.02	17.06	4.64	
2025-01-13 08:18:14.25	17.07	4.73	
2025-01-13 08:18:15.48	17.08	4.82	
2025-01-13 08:18:16.73	17.09	4.91	
2025-01-13 08:18:17.97	17.10	5.01	
2025-01-13 08:18:19.21	17.11	5.10	
2025-01-13 08:18:20.43	17.12	5.19	
2025-01-13 08:18:21.67	17.13	5.28	
2025-01-13 08:18:22.91	17.15	5.38	
2025-01-13 08:18:24.15	17.16	5.47	
2025-01-13 08:18:25.38	17.17	5.56	
2025-01-13 08:18:26.62	17.18	5.66	
2025-01-13 08:18:27.85	17.19	5.75	
2025-01-13 08:18:29.08	17.20	5.85	
2025-01-13 08:18:30.31	17.21	5.94	
2025-01-13 08:18:31.54	17.22	6.04	
2025-01-13 08:18:32.79	17.23	6.14	
2025-01-13 08:18:34.02	17.24	6.23	
2025-01-13 08:18:35.25	17.26	6.33	
2025-01-13 08:18:36.48	17.27	6.43	
2025-01-13 08:18:37.71	17.28	6.52	
2025-01-13 08:18:38.96	17.29	6.62	
2025-01-13 08:18:40.19	17.30	6.72	
2025-01-13 08:18:41.42	17.31	6.82	
2025-01-13 08:18:42.65	17.32	6.92	
2025-01-13 08:18:43.88	17.33	7.02	
2025-01-13 08:18:45.11	17.35	7.12	
2025-01-13 08:18:46.36	17.36	7.22	
2025-01-13 08:18:47.60	17.37	7.32	
2025-01-13 08:18:48.83	17.38	7.42	
2025-01-13 08:18:50.07	17.39	7.52	
2025-01-13 08:18:51.30	17.40	7.63	
2025-01-13 08:18:52.53	17.42	7.73	
2025-01-13 08:18:53.75	17.43	7.83	
2025-01-13 08:18:54.99	17.44	7.94	
2025-01-13 08:18:56.22	17.45	8.04	
2025-01-13 08:18:57.45	17.46	8.14	
2025-01-13 08:18:58.68	17.47	8.25	
2025-01-13 08:18:59.92	17.49	8.36	
2025-01-13 08:19:01.15	17.50	8.46	
2025-01-13 08:19:02.38	17.51	8.57	
2025-01-13 08:19:03.61	17.52	8.67	
2025-01-13 08:19:04.84	17.54	8.78	
2025-01-13 08:19:06.07	17.55	8.89	
2025-01-13 08:19:07.31	17.56	9.00	
2025-01-13 08:19:08.55	17.57	9.11	
2025-01-13 08:19:09.79	17.59	9.22	
2025-01-13 08:19:11.01	17.60	9.33	
2025-01-13 08:19:12.24	17.61	9.44	
2025-01-13 08:19:13.47	17.62	9.55	
2025-01-13 08:19:14.72	17.64	9.66	
2025-01-13 08:19:15.95	17.65	9.78	
2025-01-13 08:19:17.19	17.66	9.89	
2025-01-13 08:19:18.43	17.67	10.01	
2025-01-13 08:19:19.66	17.69	10.12	
2025-01-13 08:19:20.89	17.70	10.23	
2025-01-13 08:19:22.14	17.71	10.35	
2025-01-13 08:19:23.37	17.73	10.47	
2025-01-13 08:19:24.60	17.74	10.58	
2025-01-13 08:19:25.83	17.75	10.70	
2025-01-13 08:19:27.06	17.77	10.82	
2025-01-13 08:19:28.30	17.78	10.94	
2025-01-13 08:19:29.53	17.79	11.06	
2025-01-13 08:19:30.76	17.81	11.18	
2025-01-13 08:19:31.99	17.82	11.30	
2025-01-13 08:19:33.24	17.84	11.42	
2025-01-13 08:19:34.46	17.85	11.54	
2025-01-13 08:19:35.70	17.86	11.66	
2025-01-13 08:19:36.93	17.88	11.79	
2025-01-13 08:19:38.18	17.89	11.91	
2025-01-13 08:19:39.40	17.90	12.04	
2025-01-13 08:19:40.63	17.92	12.16	
2025-01-13 08:19:41.87	17.93	12.29	
2025-01-13 08:19:43.10	17.95	12.41	
2025-01-13 08:19:44.33	17.96	12.54	
2025-01-13 08:19:45.56	17.98	12.67	
2025-01-13 08:19:46.81	17.99	12.80	
2025-01-13 08:19:48.04	18.01	12.93	
2025-01-13 08:19:49.27	18.02	13.06	
2025-01-13 08:19:50.50	18.04	13.19	
2025-01-13 08:19:51.73	18.05	13.32	
2025-01-13 08:19:52.96	18.07	13.45	
2025-01-13 08:19:54.20	18.08	13.59	
2025-01-13 08:19:55.44	18.10	13.72	
2025-01-13 08:19:56.67	18.11	13.86	
2025-01-13 08:19:57.90	18.13	14.00	
2025-01-13 08:19:59.13	18.14	14.13	
2025-01-13 08:20:00.37	18.16	14.27	
2025-01-13 08:20:01.60	18.18	14.41	
2025-01-13 08:20:02.83	18.19	14.55	
2025-01-13 08:20:04.07	18.21	14.69	
2025-01-13 08:20:05.30	18.22	14.83	
2025-01-13 08:20:06.53	18.24	14.97	
2025-01-13 08:20:07.77	18.26	15.12	
2025-01-13 08:20:09.01	18.27	15.26	
2025-01-13 08:20:10.26	18.29	15.41	
2025-01-13 08:20:11.51	18.31	15.56	
2025-01-13 08:20:12.73	18.32	15.70	
2025-01-13 08:20:13.96	18.34	15.85	
2025-01-13 08:20:15.19	18.36	16.00	
2025-01-13 08:20:16.44	18.37	16.15	
2025-01-13 08:20:17.68	18.39	16.31	
2025-01-13 08:20:18.92	18.41	16.46	
2025-01-13 08:20:20.15	18.43	16.61	
2025-01-13 08:20:21.38	18.44	16.77	
2025-01-13 08:20:22.61	18.46	16.92	
2025-01-13 08:20:23.86	18.48	17.08	
2025-01-13 08:20:25.09	18.50	17.24	
2025-01-13 08:20:26.32	18.52	17.40	
2025-01-13 08:20:27.57	18.54	17.56	
2025-01-13 08:20:28.80	18.56	17.72	
2025-01-13 08:20:30.05	18.57	17.88	
2025-01-13 08:20:31.28	18.59	18.05	
2025-01-13 08:20:32.51	18.61	18.21	
2025-01-13 08:20:33.74	18.63	18.38	
2025-01-13 08:20:34.98	18.65	18.54	
2025-01-13 08:20:36.22	18.67	18.71	
2025-01-13 08:20:37.45	18.69	18.88	
2025-01-13 08:20:38.68	18.71	19.05	
2025-01-13 08:20:39.91	18.73	19.23	
2025-01-13 08:20:41.15	18.75	19.40	
2025-01-13 08:20:42.38	18.77	19.58	
2025-01-13 08:20:43.61	18.79	19.75	
2025-01-13 08:20:44.84	18.81	19.93	
2025-01-13 08:20:46.07	18.83	20.11	
2025-01-13 08:20:47.30	18.86	20.29	
2025-01-13 08:20:48.53	18.88	20.47	
2025-01-13 08:20:49.77	18.90	20.65	
2025-01-13 08:20:51.00	18.92	20.84	
2025-01-13 08:20:52.23	18.94	21.02	
2025-01-13 08:20:53.46	18.96	21.21	
2025-01-13 08:20:54.70	18.99	21.40	
2025-01-13 08:20:55.94	19.01	21.59	
2025-01-13 08:20:57.16	19.03	21.78	
2025-01-13 08:20:58.39	19.06	21.98	
2025-01-13 08:20:59.62	19.08	22.17	
2025-01-13 08:21:00.86	19.10	22.37	
2025-01-13 08:21:02.12	19.13	22.58	
2025-01-13 08:21:03.35	19.15	22.78	
2025-01-13 08:21:04.58	19.18	22.98	
2025-01-13 08:21:05.81	19.20	23.18	
2025-01-13 08:21:07.05	19.23	23.39	
2025-01-13 08:21:08.28	19.25	23.60	
2025-01-13 08:21:09.51	19.28	23.81	
2025-01-13 08:21:10.73	19.30	24.01	
2025-01-13 08:21:11.97	19.33	24.23	
2025-01-13 08:21:13.20	19.36	24.44	
2025-01-13 08:21:14.44	19.38	24.66	
2025-01-13 08:21:15.67	19.41	24.88	
2025-01-13 08:21:16.92	19.44	25.11	
2025-01-13 08:21:18.15	19.47	25.33	
2025-01-13 08:21:19.38	19.49	25.55	
2025-01-13 08:21:20.61	19.52	25.78	
2025-01-13 08:21:21.86	19.55	26.01	
2025-01-13 08:21:23.09	19.58	26.24	
2025-01-13 08:21:24.32	19.61	26.48	
2025-01-13 08:21:25.55	19.64	26.71	
2025-01-13 08:21:26.78	19.67	26.95	
2025-01-13 08:21:28.01	19.70	27.19	
2025-01-13 08:21:29.24	19.73	27.43	
2025-01-13 08:21:30.47	19.76	27.68	
2025-01-13 08:21:31.70	19.80	27.92	
2025-01-13 08:21:32.93	19.83	28.17	
2025-01-13 08:21:34.16	19.86	28.43	
2025-01-13 08:21:35.40	19.89	28.68	
2025-01-13 08:21:36.63	19.93	28.94	
2025-01-13 08:21:37.86	19.96	29.20	
2025-01-13 08:21:39.10	20.00	29.46	
2025-01-13 08:21:40.34	20.03	29.73	
2025-01-13 08:21:41.57	20.07	30.00	
2025-01-13 08:21:42.80	20.11	30.27	
2025-01-13 08:21:44.03	20.14	30.54	
2025-01-13 08:21:45.26	20.18	30.81	
2025-01-13 08:21:46.49	20.22	31.09	
2025-01-13 08:21:47.72	20.26	31.37	
2025-01-13 08:21:48.97	20.30	31.66	
2025-01-13 08:21:50.20	20.34	31.95	
2025-01-13 08:21:51.43	20.38	32.24	
2025-01-13 08:21:52.66	20.42	32.53	
2025-01-13 08:21:53.91	20.46	32.83	
2025-01-13 08:21:55.16	20.50	33.14	
2025-01-13 08:21:56.39	20.55	33.44	
2025-01-13 08:21:57.61	20.59	33.74	
2025-01-13 08:21:58.84	20.64	34.05	
2025-01-13 08:22:00.07	20.68	34.37	
2025-01-13 08:22:01.30	20.73	34.68	
2025-01-13 08:22:02.54	20.78	35.00	
2025-01-13 08:22:03.77	20.82	35.33	
2025-01-13 08:22:05.01	20.87	35.65	
2025-01-13 08:22:06.24	20.92	35.98	
2025-01-13 08:22:07.47	20.97	36.32	
2025-01-13 08:22:08.70	21.03	36.65	
2025-01-13 08:22:09.94	21.08	37.00	
2025-01-13 08:22:11.19	21.13	37.35	
2025-01-13 08:22:12.42	21.19	37.70	
2025-01-13 08:22:13.65	21.25	38.05	
2025-01-13 08:22:14.88	21.30	38.41	
2025-01-13 08:22:16.13	21.36	38.77	
2025-01-13 08:22:17.36	21.42	39.14	
2025-01-13 08:22:18.59	21.48	39.50	
2025-01-13 08:22:19.83	21.55	39.88	
2025-01-13 08:22:21.06	21.61	40.26	
2025-01-13 08:22:22.29	21.67	40.64	
2025-01-13 08:22:23.52	21.74	41.02	
2025-01-13 08:22:24.75	21.81	41.41	
2025-01-13 08:22:25.99	21.88	41.81	
2025-01-13 08:22:27.22	21.95	42.21	
2025-01-13 08:22:28.45	22.02	42.61	
2025-01-13 08:22:29.68	22.10	43.02	
2025-01-13 08:22:30.91	22.18	43.43	
2025-01-13 08:22:32.14	22.25	43.85	
2025-01-13 08:22:33.37	22.34	44.27	
2025-01-13 08:22:34.61	22.42	44.70	
2025-01-13 08:22:35.84	22.50	45.13	
2025-01-13 08:22:37.07	22.59	45.57	
2025-01-13 08:22:38.30	22.68	46.01	
2025-01-13 08:22:39.53	22.77	46.45	
2025-01-13 08:22:40.76	22.87	46.91	
2025-01-13 08:22:41.99	22.96	47.36	
2025-01-13 08:22:43.23	23.06	47.83	
2025-01-13 08:22:44.46	23.17	48.29	
2025-01-13 08:22:45.69	23.27	48.77	
2025-01-13 08:22:46.92	23.38	49.24	
2025-01-13 08:22:48.15	23.50	49.73	
2025-01-13 08:22:49.39	23.61	50.22	
2025-01-13 08:22:50.63	23.73	50.72	
2025-01-13 08:22:51.86	23.86	51.21	
2025-01-13 08:22:53.09	23.98	51.72	
2025-01-13 08:22:54.33	24.12	52.23	
2025-01-13 08:22:55.56	24.25	52.75	
2025-01-13 08:22:56.79	24.40	53.27	
2025-01-13 08:22:58.03	24.54	53.80	
2025-01-13 08:22:59.26	24.70	54.33	
2025-01-13 08:23:00.49	24.85	54.87	
2025-01-13 08:23:01.72	25.02	55.41	
2025-01-13 08:23:02.96	25.19	55.96	
2025-01-13 08:23:04.20	25.37	56.52	
2025-01-13 08:23:05.44	25.55	57.09	
2025-01-13 08:23:06.67	25.74	57.65	
2025-01-13 08:23:07.90	25.94	58.22	
2025-01-13 08:23:09.14	26.15	58.80	
2025-01-13 08:23:10.39	26.37	59.39	
2025-01-13 08:23:11.63	26.60	59.99	
2025-01-13 08:23:12.86	26.84	60.58	
2025-01-13 08:23:14.09	27.09	61.18	
2025-01-13 08:23:15.32	27.35	61.78	
2025-01-13 08:23:16.56	27.63	62.39	
2025-01-13 08:23:17.79	27.92	63.01	
2025-01-13 08:23:19.01	28.22	63.62	
2025-01-13 08:23:20.24	28.54	64.24	
2025-01-13 08:23:21.48	28.88	64.88	
2025-01-13 08:23:22.71	29.23	65.51	
2025-01-13 08:23:23.94	29.61	66.15	
2025-01-13 08:23:25.17	30.01	66.79	
2025-01-13 08:23:26.40	30.44	67.43	
2025-01-13 08:23:27.64	30.89	68.09	
2025-01-13 08:23:28.87	31.38	68.74	
2025-01-13 08:23:30.10	31.89	69.40	
2025-01-13 08:23:31.33	32.44	70.06	
2025-01-13 08:23:32.56	33.04	70.72	
2025-01-13 08:23:33.79	33.67	71.38	
2025-01-13 08:23:35.02	34.36	72.05	
2025-01-13 08:23:36.25	35.11	72.72	
2025-01-13 08:23:37.49	35.92	73.40	
2025-01-13 08:23:38.72	36.80	74.07	
2025-01-13 08:23:39.95	37.76	74.74	
2025-01-13 08:23:41.18	38.81	75.41	
2025-01-13 08:23:42.43	39.98	76.09	
2025-01-13 08:23:43.66	41.26	76.75	
2025-01-13 08:23:44.90	42.68	77.42	
2025-01-13 08:23:46.13	44.26	78.08	
2025-01-13 08:23:47.36	46.03	78.73	
2025-01-13 08:23:48.59	48.01	79.37	
2025-01-13 08:23:49.84	50.29	80.00	
2025-01-13 08:23:51.07	52.83	80.62	
2025-01-13 08:23:52.30	55.73	81.21	
2025-01-13 08:23:53.53	59.05	81.78	
2025-01-13 08:23:54.77	62.88	82.33	
2025-01-13 08:23:56.00	67.25	82.83	
2025-01-13 08:23:57.24	72.29	83.29	
2025-01-13 08:23:58.47	77.98	83.69	
2025-01-13 08:23:59.70	84.37	84.02	
2025-01-13 08:24:00.94	91.47	84.27	
2025-01-13 08:24:02.19	99.16	84.42	
2025-01-13 08:24:03.42	107.01	84.47	
2025-01-13 08:24:04.65	114.85	84.42	
2025-01-13 08:24:05.88	122.42	84.27	
2025-01-13 08:24:07.13	129.59	84.02	
2025-01-13 08:24:08.36	135.99	83.69	
2025-01-13 08:24:09.59	141.68	83.29	
2025-01-13 08:24:10.82	146.69	82.84	
2025-01-13 08:24:12.06	151.11	82.33	
2025-01-13 08:24:13.30	154.95	81.79	
2025-01-13 08:24:14.53	158.27	81.22	
2025-01-13 08:24:15.76	161.18	80.62	
2025-01-13 08:24:16.99	163.73	80.01	
2025-01-13 08:24:18.22	165.97	79.38	
2025-01-13 08:24:19.47	167.99	78.73	
2025-01-13 08:24:20.70	169.76	78.08	
2025-01-13 08:24:21.93	171.34	77.42	
2025-01-13 08:24:23.16	172.76	76.76	
2025-01-13 08:24:24.39	174.04	76.09	
2025-01-13 08:24:25.64	175.21	75.41	
2025-01-13 08:24:26.87	176.27	74.74	
2025-01-13 08:24:28.10	177.23	74.07	
2025-01-13 08:24:29.33	178.11	73.40	
2025-01-13 08:24:30.56	178.91	72.73	
2025-01-13 08:24:31.80	179.66	72.05	
2025-01-13 08:24:33.02	180.35	71.39	
2025-01-13 08:24:34.25	180.99	70.72	
2025-01-13 08:24:35.48	181.58	70.06	
2025-01-13 08:24:36.72	182.14	69.39	
2025-01-13 08:24:37.95	182.65	68.73	
2025-01-13 08:24:39.18	183.14	68.08	
2025-01-13 08:24:40.41	183.59	67.43	
2025-01-13 08:24:41.64	184.02	66.78	
2025-01-13 08:24:42.88	184.42	66.13	
2025-01-13 08:24:44.11	184.80	65.49	
2025-01-13 08:24:45.35	185.16	64.85	
2025-01-13 08:24:46.58	185.50	64.22	
2025-01-13 08:24:47.81	185.82	63.60	
2025-01-13 08:24:49.04	186.12	62.98	
2025-01-13 08:24:50.28	186.41	62.36	
2025-01-13 08:24:51.51	186.69	61.75	
2025-01-13 08:24:52.75	186.95	61.14	
2025-01-13 08:24:53.98	187.20	60.54	
2025-01-13 08:24:55.21	187.44	59.95	
2025-01-13 08:24:56.45	187.66	59.35	
2025-01-13 08:24:57.69	187.88	58.77	
2025-01-13 08:24:58.92	188.09	58.19	
2025-01-13 08:25:00.15	188.29	57.62	
2025-01-13 08:25:01.38	188.48	57.05	
2025-01-13 08:25:02.61	188.67	56.49	
2025-01-13 08:25:03.85	188.84	55.93	
2025-01-13 08:25:05.09	189.02	55.37	
2025-01-13 08:25:06.34	189.18	54.82	
2025-01-13 08:25:07.57	189.34	54.28	
2025-01-13 08:25:08.82	189.49	53.74	
2025-01-13 08:25:10.05	189.64	53.21	
2025-01-13 08:25:11.28	189.78	52.69	
2025-01-13 08:25:12.52	189.92	52.17	
2025-01-13 08:25:13.75	190.05	51.66	
2025-01-13 08:25:14.99	190.18	51.15	
2025-01-13 08:25:16.22	190.30	50.65	
2025-01-13 08:25:17.45	190.42	50.15	
2025-01-13 08:25:18.68	190.54	49.66	
2025-01-13 08:25:19.91	190.65	49.18	
2025-01-13 08:25:21.15	190.76	48.70	
2025-01-13 08:25:22.39	190.87	48.22	
2025-01-13 08:25:23.62	190.97	47.75	
2025-01-13 08:25:24.85	191.07	47.29	
2025-01-13 08:25:26.08	191.17	46.83	
2025-01-13 08:25:27.31	191.26	46.38	
2025-01-13 08:25:28.56	191.35	45.92	
2025-01-13 08:25:29.79	191.44	45.48	
2025-01-13 08:25:31.02	191.53	45.04	
2025-01-13 08:25:32.26	191.61	44.61	
2025-01-13 08:25:33.49	191.70	44.18	
2025-01-13 08:25:34.73	191.78	43.75	
2025-01-13 08:25:35.98	191.86	43.33	
2025-01-13 08:25:37.21	191.93	42.92	
2025-01-13 08:25:38.44	192.01	42.51	
2025-01-13 08:25:39.68	192.08	42.10	
2025-01-13 08:25:40.91	192.15	41.70	
2025-01-13 08:25:42.15	192.22	41.30	
2025-01-13 08:25:43.38	192.29	40.91	
2025-01-13 08:25:44.61	192.36	40.52	
2025-01-13 08:25:45.85	192.42	40.14	
2025-01-13 08:25:47.08	192.48	39.76	
2025-01-13 08:25:48.32	192.55	39.39	
2025-01-13 08:25:49.55	192.61	39.02	
2025-01-13 08:25:50.78	192.67	38.65	
2025-01-13 08:25:52.02	192.73	38.29	
2025-01-13 08:25:53.25	192.78	37.93	
2025-01-13 08:25:54.48	192.84	37.58	
2025-01-13 08:25:55.71	192.89	37.23	
2025-01-13 08:25:56.94	192.95	36.88	
2025-01-13 08:25:58.17	193.00	36.54	
2025-01-13 08:25:59.40	193.05	36.20	
2025-01-13 08:26:00.63	193.10	35.87	
2025-01-13 08:26:01.87	193.15	35.54	
2025-01-13 08:26:03.10	193.20	35.21	
2025-01-13 08:26:04.33	193.25	34.89	
2025-01-13 08:26:05.56	193.29	34.57	
2025-01-13 08:26:06.80	193.34	34.25	
2025-01-13 08:26:08.03	193.39	33.93	
2025-01-13 08:26:09.26	193.43	33.62	
2025-01-13 08:26:10.49	193.47	33.32	
2025-01-13 08:26:11.72	193.52	33.01	
2025-01-13 08:26:12.95	193.56	32.71	
2025-01-13 08:26:14.18	193.60	32.42	
2025-01-13 08:26:15.42	193.64	32.12	
2025-01-13 08:26:16.65	193.68	31.83	
2025-01-13 08:26:17.88	193.72	31.54	
2025-01-13 08:26:19.12	193.76	31.25	
2025-01-13 08:26:20.35	193.80	30.97	
2025-01-13 08:26:21.59	193.84	30.69	
2025-01-13 08:26:22.82	193.87	30.41	
2025-01-13 08:26:24.05	193.91	30.14	
2025-01-13 08:26:25.28	193.94	29.87	
2025-01-13 08:26:26.53	193.98	29.60	
2025-01-13 08:26:27.76	194.02	29.33	
2025-01-13 08:26:28.99	194.05	29.07	
2025-01-13 08:26:30.22	194.08	28.81	
2025-01-13 08:26:31.45	194.12	28.55	
2025-01-13 08:26:32.70	194.15	28.29	
2025-01-13 08:26:33.93	194.18	28.04	
2025-01-13 08:26:35.17	194.21	27.79	
2025-01-13 08:26:36.40	194.25	27.54	
2025-01-13 08:26:37.62	194.28	27.30	
2025-01-13 08:26:38.87	194.31	27.05	
2025-01-13 08:26:40.10	194.34	26.81	
2025-01-13 08:26:41.34	194.37	26.57	
2025-01-13 08:26:42.58	194.40	26.33	
2025-01-13 08:26:43.82	194.43	26.10	
2025-01-13 08:26:45.05	194.46	25.87	
2025-01-13 08:26:46.28	194.48	25.64	
2025-01-13 08:26:47.51	194.51	25.41	
2025-01-13 08:26:48.75	194.54	25.18	
2025-01-13 08:26:49.98	194.57	24.96	
2025-01-13 08:26:51.21	194.59	24.74	
2025-01-13 08:26:52.45	194.62	24.52	
2025-01-13 08:26:53.68	194.65	24.30	
2025-01-13 08:26:54.91	194.67	24.08	
2025-01-13 08:26:56.14	194.70	23.87	
2025-01-13 08:26:57.38	194.72	23.66	
2025-01-13 08:26:58.61	194.75	23.45	
2025-01-13 08:26:59.84	194.77	23.24	
2025-01-13 08:27:01.06	194.80	23.04	
2025-01-13 08:27:02.30	194.82	22.83	
2025-01-13 08:27:03.54	194.85	22.63	
2025-01-13 08:27:04.78	194.87	22.42	
2025-01-13 08:27:06.03	194.89	22.22	
2025-01-13 08:27:07.26	194.92	22.02	
2025-01-13 08:27:08.49	194.94	21.83	
2025-01-13 08:27:09.72	194.96	21.63	
2025-01-13 08:27:10.96	194.98	21.44	
2025-01-13 08:27:12.20	195.01	21.25	
2025-01-13 08:27:13.43	195.03	21.06	
2025-01-13 08:27:14.67	195.05	20.87	
2025-01-13 08:27:15.90	195.07	20.68	
2025-01-13 08:27:17.14	195.09	20.50	
2025-01-13 08:27:18.38	195.11	20.31	
2025-01-13 08:27:19.61	195.13	20.13	
2025-01-13 08:27:20.84	195.15	19.95	
2025-01-13 08:27:22.07	195.17	19.77	
2025-01-13 08:27:23.30	195.19	19.59	
2025-01-13 08:27:24.55	195.22	19.41	
2025-01-13 08:27:25.78	195.23	19.24	
2025-01-13 08:27:27.01	195.25	19.06	
2025-01-13 08:27:28.24	195.27	18.89	
2025-01-13 08:27:29.47	195.29	18.72	
2025-01-13 08:27:30.71	195.31	18.55	
2025-01-13 08:27:31.94	195.33	18.38	
2025-01-13 08:27:33.17	195.35	18.21	
2025-01-13 08:27:34.41	195.37	18.05	
2025-01-13 08:27:35.64	195.39	17.88	
2025-01-13 08:27:36.87	195.40	17.72	
2025-01-13 08:27:38.10	195.42	17.56	
2025-01-13 08:27:39.34	195.44	17.39	
2025-01-13 08:27:40.57	195.46	17.23	
2025-01-13 08:27:41.80	195.48	17.08	
2025-01-13 08:27:43.03	195.49	16.92	
2025-01-13 08:27:44.27	195.51	16.76	
2025-01-13 08:27:45.50	195.53	16.61	
2025-01-13 08:27:46.75	195.55	16.45	
2025-01-13 08:27:47.98	195.56	16.29	
2025-01-13 08:27:49.21	195.58	16.14	
2025-01-13 08:27:50.46	195.60	15.99	
2025-01-13 08:27:51.70	195.61	15.84	
2025-01-13 08:27:52.93	195.63	15.69	
2025-01-13 08:27:54.17	195.64	15.54	
2025-01-13 08:27:55.40	195.66	15.39	
2025-01-13 08:27:56.62	195.68	15.25	
2025-01-13 08:27:57.87	195.69	15.10	
2025-01-13 08:27:59.10	195.71	14.96	
2025-01-13 08:28:00.33	195.72	14.81	
2025-01-13 08:28:01.56	195.74	14.67	
2025-01-13 08:28:02.81	195.75	14.53	
2025-01-13 08:28:04.05	195.77	14.38	
2025-01-13 08:28:05.29	195.78	14.24	
2025-01-13 08:28:06.52	195.80	14.10	
2025-01-13 08:28:07.75	195.81	13.97	
2025-01-13 08:28:08.98	195.83	13.83	
2025-01-13 08:28:10.22	195.84	13.69	
2025-01-13 08:28:11.46	195.86	13.56	
2025-01-13 08:28:12.70	195.87	13.42	
2025-01-13 08:28:13.93	195.89	13.29	
2025-01-13 08:28:15.18	195.90	13.15	
2025-01-13 08:28:16.41	195.92	13.02	
2025-01-13 08:28:17.64	195.93	12.89	
2025-01-13 08:28:18.87	195.94	12.76	
2025-01-13 08:28:20.12	195.96	12.63	
2025-01-13 08:28:21.35	195.97	12.50	
2025-01-13 08:28:22.60	195.99	12.37	
2025-01-13 08:28:23.83	196.00	12.24	
2025-01-13 08:28:25.05	196.01	12.11	
2025-01-13 08:28:26.30	196.03	11.99	
2025-01-13 08:28:27.55	196.04	11.86	
2025-01-13 08:28:28.78	196.05	11.73	
2025-01-13 08:28:30.01	196.07	11.61	
2025-01-13 08:28:31.23	196.08	11.49	
2025-01-13 08:28:32.46	196.09	11.37	
2025-01-13 08:28:33.70	196.10	11.24	
2025-01-13 08:28:34.93	196.12	11.12	
2025-01-13 08:28:36.17	196.13	11.00	
2025-01-13 08:28:37.40	196.14	10.88	
2025-01-13 08:28:38.63	196.16	10.76	
2025-01-13 08:28:39.86	196.17	10.64	
2025-01-13 08:28:41.09	196.18	10.52	
2025-01-13 08:28:42.32	196.19	10.41	
2025-01-13 08:28:43.55	196.20	10.29	
2025-01-13 08:28:44.79	196.22	10.17	
2025-01-13 08:28:46.02	196.23	10.06	
2025-01-13 08:28:47.27	196.24	9.94	
2025-01-13 08:28:48.50	196.25	9.83	
2025-01-13 08:28:49.73	196.26	9.71	
2025-01-13 08:28:50.96	196.28	9.60	
2025-01-13 08:28:52.21	196.29	9.49	
2025-01-13 08:28:53.45	196.30	9.37	
2025-01-13 08:28:54.68	196.31	9.26	
2025-01-13 08:28:55.91	196.32	9.15	
2025-01-13 08:28:57.15	196.34	9.04	
2025-01-13 08:28:58.38	196.35	8.93	
2025-01-13 08:28:59.62	196.36	8.82	
2025-01-13 08:29:00.88	196.37	8.71	
2025-01-13 08:29:02.11	196.38	8.60	
2025-01-13 08:29:03.34	196.39	8.49	
2025-01-13 08:29:04.58	196.40	8.39	
2025-01-13 08:29:05.81	196.41	8.28	
2025-01-13 08:29:07.04	196.43	8.17	
2025-01-13 08:29:08.29	196.44	8.07	
2025-01-13 08:29:09.53	196.45	7.96	
2025-01-13 08:29:10.76	196.46	7.85	
2025-01-13 08:29:11.99	196.47	7.75	
2025-01-13 08:29:13.23	196.48	7.65	
2025-01-13 08:29:14.46	196.49	7.54	
2025-01-13 08:29:15.70	196.50	7.44	
2025-01-13 08:29:16.93	196.51	7.34	
2025-01-13 08:29:18.16	196.52	7.24	
2025-01-13 08:29:19.40	196.53	7.13	
2025-01-13 08:29:20.63	196.54	7.03	
2025-01-13 08:29:21.88	196.55	6.93	
2025-01-13 08:29:23.11	196.56	6.83	
2025-01-13 08:29:24.34	196.57	6.73	
2025-01-13 08:29:25.59	196.58	6.63	
2025-01-13 08:29:26.82	196.59	6.53	
2025-01-13 08:29:28.07	196.60	6.43	
2025-01-13 08:29:29.30	196.61	6.33	
2025-01-13 08:29:30.54	196.62	6.23	
2025-01-13 08:29:31.78	196.63	6.14	
2025-01-13 08:29:33.02	196.64	6.04	
2025-01-13 08:29:34.25	196.65	5.94	
2025-01-13 08:29:35.48	196.66	5.85	
2025-01-13 08:29:36.71	196.67	5.75	
2025-01-13 08:29:37.94	196.68	5.66	
2025-01-13 08:29:39.17	196.69	5.56	
2025-01-13 08:29:40.41	196.70	5.47	
2025-01-13 08:29:41.64	196.71	5.37	
2025-01-13 08:29:42.87	196.72	5.28	
2025-01-13 08:29:44.10	196.73	5.19	
2025-01-13 08:29:45.33	196.74	5.09	
2025-01-13 08:29:46.56	196.75	5.00	
2025-01-13 08:29:47.79	196.76	4.91	
2025-01-13 08:29:49.02	196.77	4.82	
2025-01-13 08:29:50.25	196.78	4.73	
2025-01-13 08:29:51.48	196.79	4.63	
2025-01-13 08:29:52.71	196.80	4.54	
2025-01-13 08:29:53.94	196.81	4.45	
2025-01-13 08:29:55.18	196.82	4.36	
2025-01-13 08:29:56.42	196.83	4.27	
2025-01-13 08:29:57.65	196.83	4.18	
2025-01-13 08:29:58.88	196.84	4.09	
2025-01-13 08:30:00.11	196.85	4.00	

#Closed at: 2025-01-13 08:30:00