passes_logs/2025/01/13/SPB_Silybum_02/SPB_Silybum_02__20250113_035358_AQUA_rec.log

#Pass ID: 20250113_035358_AQUA
#Satellite: AQUA
#Configuration: AQUA
#Start time: 2025-01-13 03:53:57

#Version: 2.0.20230423
#Station: SPB_Silybum_02
#Location: 30.233357 lon 59.946436 lat
#TLE: 1 27424U 02022A   25012.20730597  .00001826  00000+0  38477-3 0  9996
#TLE: 2 27424  98.3584 328.8461 0001605 114.2253 358.7733 14.60671943207219

#Time	Az	El	Level	Level2	SNR	BER	Gain	Gain2
2025-01-13 03:53:59.58	7.82	4.06	
2025-01-13 03:54:00.61	7.70	4.11	
2025-01-13 03:54:01.64	7.58	4.16	
2025-01-13 03:54:02.67	7.46	4.21	
2025-01-13 03:54:03.69	7.34	4.27	
2025-01-13 03:54:04.72	7.22	4.32	
2025-01-13 03:54:05.76	7.10	4.37	
2025-01-13 03:54:06.78	6.97	4.42	
2025-01-13 03:54:07.81	6.85	4.47	
2025-01-13 03:54:08.83	6.73	4.53	
2025-01-13 03:54:09.86	6.60	4.58	
2025-01-13 03:54:10.89	6.48	4.63	
2025-01-13 03:54:11.93	6.35	4.68	
2025-01-13 03:54:12.95	6.23	4.73	
2025-01-13 03:54:13.98	6.10	4.79	
2025-01-13 03:54:15.00	5.98	4.84	
2025-01-13 03:54:16.03	5.85	4.89	
2025-01-13 03:54:17.05	5.72	4.94	
2025-01-13 03:54:18.08	5.59	4.99	
2025-01-13 03:54:19.12	5.46	5.04	
2025-01-13 03:54:20.15	5.33	5.10	
2025-01-13 03:54:21.17	5.21	5.15	
2025-01-13 03:54:22.20	5.08	5.20	
2025-01-13 03:54:23.23	4.95	5.25	
2025-01-13 03:54:24.27	4.81	5.30	
2025-01-13 03:54:25.31	4.68	5.36	
2025-01-13 03:54:26.34	4.55	5.41	
2025-01-13 03:54:27.36	4.42	5.46	
2025-01-13 03:54:28.39	4.28	5.51	
2025-01-13 03:54:29.43	4.15	5.56	
2025-01-13 03:54:30.45	4.01	5.61	
2025-01-13 03:54:31.48	3.88	5.67	
2025-01-13 03:54:32.51	3.74	5.72	
2025-01-13 03:54:33.54	3.61	5.77	
2025-01-13 03:54:34.57	3.47	5.82	
2025-01-13 03:54:35.59	3.33	5.87	
2025-01-13 03:54:36.63	3.19	5.92	
2025-01-13 03:54:37.68	3.05	5.98	
2025-01-13 03:54:38.70	2.92	6.03	
2025-01-13 03:54:39.73	2.78	6.08	
2025-01-13 03:54:40.75	2.64	6.13	
2025-01-13 03:54:41.78	2.50	6.18	
2025-01-13 03:54:42.82	2.36	6.23	
2025-01-13 03:54:43.85	2.21	6.28	
2025-01-13 03:54:44.89	2.07	6.34	
2025-01-13 03:54:45.92	1.93	6.39	
2025-01-13 03:54:46.95	1.78	6.44	
2025-01-13 03:54:47.97	1.64	6.49	
2025-01-13 03:54:49.00	1.50	6.54	
2025-01-13 03:54:50.02	1.35	6.59	
2025-01-13 03:54:51.05	1.21	6.64	
2025-01-13 03:54:52.08	1.06	6.69	
2025-01-13 03:54:53.11	0.92	6.74	
2025-01-13 03:54:54.14	0.77	6.79	
2025-01-13 03:54:55.18	0.62	6.84	
2025-01-13 03:54:56.20	0.47	6.89	
2025-01-13 03:54:57.23	0.32	6.94	
2025-01-13 03:54:58.25	0.17	6.99	
2025-01-13 03:54:59.28	0.02	7.05	
2025-01-13 03:55:00.30	359.88	7.09	
2025-01-13 03:55:01.33	359.72	7.15	
2025-01-13 03:55:02.36	359.57	7.20	
2025-01-13 03:55:03.39	359.42	7.25	
2025-01-13 03:55:04.41	359.27	7.30	
2025-01-13 03:55:05.43	359.12	7.34	
2025-01-13 03:55:06.46	358.96	7.39	
2025-01-13 03:55:07.49	358.81	7.44	
2025-01-13 03:55:08.51	358.65	7.49	
2025-01-13 03:55:09.54	358.50	7.54	
2025-01-13 03:55:10.56	358.34	7.59	
2025-01-13 03:55:11.60	358.18	7.64	
2025-01-13 03:55:12.63	358.03	7.69	
2025-01-13 03:55:13.67	357.87	7.74	
2025-01-13 03:55:14.69	357.71	7.79	
2025-01-13 03:55:15.73	357.55	7.84	
2025-01-13 03:55:16.77	357.39	7.89	
2025-01-13 03:55:17.81	357.22	7.94	
2025-01-13 03:55:18.85	357.06	7.99	
2025-01-13 03:55:19.89	356.90	8.04	
2025-01-13 03:55:20.91	356.74	8.09	
2025-01-13 03:55:21.94	356.57	8.14	
2025-01-13 03:55:22.97	356.41	8.18	
2025-01-13 03:55:24.01	356.24	8.23	
2025-01-13 03:55:25.04	356.08	8.28	
2025-01-13 03:55:26.06	355.91	8.33	
2025-01-13 03:55:27.09	355.75	8.38	
2025-01-13 03:55:28.11	355.58	8.42	
2025-01-13 03:55:29.14	355.42	8.47	
2025-01-13 03:55:30.16	355.25	8.52	
2025-01-13 03:55:31.21	355.08	8.57	
2025-01-13 03:55:32.23	354.91	8.61	
2025-01-13 03:55:33.27	354.74	8.66	
2025-01-13 03:55:34.30	354.57	8.71	
2025-01-13 03:55:35.33	354.40	8.76	
2025-01-13 03:55:36.36	354.23	8.80	
2025-01-13 03:55:37.38	354.05	8.85	
2025-01-13 03:55:38.40	353.88	8.90	
2025-01-13 03:55:39.43	353.71	8.94	
2025-01-13 03:55:40.46	353.54	8.99	
2025-01-13 03:55:41.48	353.36	9.04	
2025-01-13 03:55:42.51	353.19	9.08	
2025-01-13 03:55:43.53	353.01	9.13	
2025-01-13 03:55:44.56	352.84	9.17	
2025-01-13 03:55:45.59	352.66	9.22	
2025-01-13 03:55:46.61	352.48	9.26	
2025-01-13 03:55:47.64	352.31	9.31	
2025-01-13 03:55:48.66	352.13	9.35	
2025-01-13 03:55:49.69	351.95	9.40	
2025-01-13 03:55:50.72	351.77	9.44	
2025-01-13 03:55:51.74	351.59	9.49	
2025-01-13 03:55:52.77	351.41	9.53	
2025-01-13 03:55:53.80	351.23	9.58	
2025-01-13 03:55:54.82	351.05	9.62	
2025-01-13 03:55:55.86	350.86	9.66	
2025-01-13 03:55:56.90	350.67	9.71	
2025-01-13 03:55:57.93	350.49	9.75	
2025-01-13 03:55:58.96	350.31	9.80	
2025-01-13 03:55:59.99	350.12	9.84	
2025-01-13 03:56:01.01	349.94	9.88	
2025-01-13 03:56:02.03	349.75	9.92	
2025-01-13 03:56:03.08	349.56	9.97	
2025-01-13 03:56:04.11	349.37	10.01	
2025-01-13 03:56:05.14	349.18	10.05	
2025-01-13 03:56:06.17	348.99	10.09	
2025-01-13 03:56:07.20	348.80	10.14	
2025-01-13 03:56:08.24	348.61	10.18	
2025-01-13 03:56:09.26	348.42	10.22	
2025-01-13 03:56:10.29	348.23	10.26	
2025-01-13 03:56:11.31	348.04	10.30	
2025-01-13 03:56:12.34	347.85	10.34	
2025-01-13 03:56:13.36	347.66	10.38	
2025-01-13 03:56:14.39	347.46	10.42	
2025-01-13 03:56:15.42	347.27	10.46	
2025-01-13 03:56:16.44	347.07	10.50	
2025-01-13 03:56:17.47	346.88	10.54	
2025-01-13 03:56:18.50	346.68	10.58	
2025-01-13 03:56:19.52	346.49	10.62	
2025-01-13 03:56:20.55	346.29	10.66	
2025-01-13 03:56:21.58	346.09	10.70	
2025-01-13 03:56:22.60	345.89	10.74	
2025-01-13 03:56:23.61	345.70	10.77	
2025-01-13 03:56:24.63	345.50	10.81	
2025-01-13 03:56:25.66	345.30	10.85	
2025-01-13 03:56:26.69	345.10	10.89	
2025-01-13 03:56:27.73	344.90	10.92	
2025-01-13 03:56:28.76	344.69	10.96	
2025-01-13 03:56:29.78	344.49	11.00	
2025-01-13 03:56:30.81	344.29	11.03	
2025-01-13 03:56:31.84	344.09	11.07	
2025-01-13 03:56:32.88	343.88	11.11	
2025-01-13 03:56:33.91	343.68	11.14	
2025-01-13 03:56:34.93	343.47	11.18	
2025-01-13 03:56:35.96	343.27	11.21	
2025-01-13 03:56:36.99	343.06	11.25	
2025-01-13 03:56:38.02	342.85	11.28	
2025-01-13 03:56:39.05	342.65	11.32	
2025-01-13 03:56:40.08	342.44	11.35	
2025-01-13 03:56:41.11	342.23	11.38	
2025-01-13 03:56:42.16	342.02	11.42	
2025-01-13 03:56:43.19	341.81	11.45	
2025-01-13 03:56:44.21	341.60	11.48	
2025-01-13 03:56:45.24	341.39	11.52	
2025-01-13 03:56:46.26	341.18	11.55	
2025-01-13 03:56:47.29	340.97	11.58	
2025-01-13 03:56:48.31	340.76	11.61	
2025-01-13 03:56:49.35	340.54	11.64	
2025-01-13 03:56:50.39	340.33	11.67	
2025-01-13 03:56:51.42	340.11	11.70	
2025-01-13 03:56:52.44	339.90	11.73	
2025-01-13 03:56:53.46	339.69	11.76	
2025-01-13 03:56:54.49	339.48	11.79	
2025-01-13 03:56:55.51	339.26	11.82	
2025-01-13 03:56:56.54	339.05	11.85	
2025-01-13 03:56:57.56	338.83	11.88	
2025-01-13 03:56:58.59	338.62	11.91	
2025-01-13 03:56:59.62	338.40	11.93	
2025-01-13 03:57:00.64	338.18	11.96	
2025-01-13 03:57:01.67	337.96	11.99	
2025-01-13 03:57:02.69	337.75	12.01	
2025-01-13 03:57:03.72	337.53	12.04	
2025-01-13 03:57:04.74	337.31	12.07	
2025-01-13 03:57:05.77	337.09	12.09	
2025-01-13 03:57:06.81	336.87	12.12	
2025-01-13 03:57:07.83	336.65	12.14	
2025-01-13 03:57:08.85	336.43	12.17	
2025-01-13 03:57:09.88	336.21	12.19	
2025-01-13 03:57:10.90	335.99	12.22	
2025-01-13 03:57:11.93	335.77	12.24	
2025-01-13 03:57:12.96	335.54	12.26	
2025-01-13 03:57:13.99	335.32	12.28	
2025-01-13 03:57:15.01	335.10	12.31	
2025-01-13 03:57:16.04	334.88	12.33	
2025-01-13 03:57:17.06	334.65	12.35	
2025-01-13 03:57:18.10	334.43	12.37	
2025-01-13 03:57:19.13	334.20	12.39	
2025-01-13 03:57:20.15	333.98	12.41	
2025-01-13 03:57:21.18	333.75	12.43	
2025-01-13 03:57:22.21	333.53	12.45	
2025-01-13 03:57:23.24	333.30	12.47	
2025-01-13 03:57:24.28	333.07	12.49	
2025-01-13 03:57:25.30	332.85	12.51	
2025-01-13 03:57:26.33	332.62	12.53	
2025-01-13 03:57:27.35	332.40	12.54	
2025-01-13 03:57:28.38	332.17	12.56	
2025-01-13 03:57:29.41	331.94	12.58	
2025-01-13 03:57:30.43	331.71	12.60	
2025-01-13 03:57:31.46	331.49	12.61	
2025-01-13 03:57:32.49	331.26	12.63	
2025-01-13 03:57:33.51	331.03	12.64	
2025-01-13 03:57:34.54	330.80	12.66	
2025-01-13 03:57:35.56	330.57	12.67	
2025-01-13 03:57:36.59	330.34	12.69	
2025-01-13 03:57:37.62	330.11	12.70	
2025-01-13 03:57:38.65	329.88	12.71	
2025-01-13 03:57:39.68	329.65	12.72	
2025-01-13 03:57:40.70	329.42	12.74	
2025-01-13 03:57:41.73	329.19	12.75	
2025-01-13 03:57:42.75	328.96	12.76	
2025-01-13 03:57:43.79	328.73	12.77	
2025-01-13 03:57:44.81	328.50	12.78	
2025-01-13 03:57:45.84	328.27	12.79	
2025-01-13 03:57:46.87	328.04	12.80	
2025-01-13 03:57:47.89	327.81	12.81	
2025-01-13 03:57:48.92	327.57	12.82	
2025-01-13 03:57:49.96	327.34	12.83	
2025-01-13 03:57:50.99	327.11	12.84	
2025-01-13 03:57:52.02	326.87	12.84	
2025-01-13 03:57:53.04	326.64	12.85	
2025-01-13 03:57:54.07	326.41	12.86	
2025-01-13 03:57:55.10	326.18	12.86	
2025-01-13 03:57:56.12	325.95	12.87	
2025-01-13 03:57:57.15	325.71	12.87	
2025-01-13 03:57:58.17	325.48	12.88	
2025-01-13 03:57:59.20	325.25	12.88	
2025-01-13 03:58:00.22	325.02	12.89	
2025-01-13 03:58:01.25	324.78	12.89	
2025-01-13 03:58:02.27	324.55	12.89	
2025-01-13 03:58:03.30	324.32	12.90	
2025-01-13 03:58:04.33	324.09	12.90	
2025-01-13 03:58:05.37	323.85	12.90	
2025-01-13 03:58:06.39	323.62	12.90	
2025-01-13 03:58:07.42	323.38	12.90	
2025-01-13 03:58:08.44	323.15	12.90	
2025-01-13 03:58:09.47	322.92	12.90	
2025-01-13 03:58:10.50	322.68	12.90	
2025-01-13 03:58:11.53	322.45	12.90	
2025-01-13 03:58:12.55	322.22	12.90	
2025-01-13 03:58:13.58	321.98	12.90	
2025-01-13 03:58:14.61	321.75	12.90	
2025-01-13 03:58:15.63	321.52	12.90	
2025-01-13 03:58:16.66	321.29	12.89	
2025-01-13 03:58:17.69	321.05	12.89	
2025-01-13 03:58:18.71	320.82	12.89	
2025-01-13 03:58:19.74	320.59	12.88	
2025-01-13 03:58:20.76	320.36	12.88	
2025-01-13 03:58:21.81	320.12	12.87	
2025-01-13 03:58:22.83	319.89	12.87	
2025-01-13 03:58:23.87	319.65	12.86	
2025-01-13 03:58:24.90	319.42	12.85	
2025-01-13 03:58:25.93	319.19	12.85	
2025-01-13 03:58:26.96	318.95	12.84	
2025-01-13 03:58:27.99	318.72	12.83	
2025-01-13 03:58:29.02	318.49	12.82	
2025-01-13 03:58:30.04	318.26	12.81	
2025-01-13 03:58:31.07	318.02	12.80	
2025-01-13 03:58:32.10	317.79	12.79	
2025-01-13 03:58:33.12	317.56	12.78	
2025-01-13 03:58:34.14	317.33	12.77	
2025-01-13 03:58:35.17	317.10	12.76	
2025-01-13 03:58:36.20	316.87	12.75	
2025-01-13 03:58:37.23	316.64	12.74	
2025-01-13 03:58:38.27	316.40	12.73	
2025-01-13 03:58:39.30	316.17	12.71	
2025-01-13 03:58:40.32	315.95	12.70	
2025-01-13 03:58:41.35	315.72	12.69	
2025-01-13 03:58:42.39	315.48	12.67	
2025-01-13 03:58:43.42	315.25	12.66	
2025-01-13 03:58:44.46	315.02	12.65	
2025-01-13 03:58:45.49	314.79	12.63	
2025-01-13 03:58:46.52	314.56	12.61	
2025-01-13 03:58:47.55	314.33	12.60	
2025-01-13 03:58:48.57	314.11	12.58	
2025-01-13 03:58:49.60	313.88	12.57	
2025-01-13 03:58:50.63	313.65	12.55	
2025-01-13 03:58:51.65	313.42	12.53	
2025-01-13 03:58:52.68	313.20	12.51	
2025-01-13 03:58:53.70	312.97	12.49	
2025-01-13 03:58:54.73	312.74	12.48	
2025-01-13 03:58:55.75	312.52	12.46	
2025-01-13 03:58:56.78	312.29	12.44	
2025-01-13 03:58:57.81	312.07	12.42	
2025-01-13 03:58:58.84	311.84	12.40	
2025-01-13 03:58:59.86	311.62	12.38	
2025-01-13 03:59:00.89	311.39	12.36	
2025-01-13 03:59:01.91	311.17	12.33	
2025-01-13 03:59:02.94	310.95	12.31	
2025-01-13 03:59:03.96	310.73	12.29	
2025-01-13 03:59:04.99	310.50	12.27	
2025-01-13 03:59:06.02	310.28	12.24	
2025-01-13 03:59:07.04	310.06	12.22	
2025-01-13 03:59:08.09	309.83	12.20	
2025-01-13 03:59:09.11	309.61	12.17	
2025-01-13 03:59:10.13	309.39	12.15	
2025-01-13 03:59:11.16	309.17	12.12	
2025-01-13 03:59:12.19	308.95	12.10	
2025-01-13 03:59:13.21	308.73	12.07	
2025-01-13 03:59:14.24	308.51	12.05	
2025-01-13 03:59:15.26	308.29	12.02	
2025-01-13 03:59:16.29	308.07	11.99	
2025-01-13 03:59:17.32	307.86	11.97	
2025-01-13 03:59:18.34	307.64	11.94	
2025-01-13 03:59:19.36	307.42	11.91	
2025-01-13 03:59:20.39	307.21	11.88	
2025-01-13 03:59:21.42	306.99	11.86	
2025-01-13 03:59:22.45	306.77	11.83	
2025-01-13 03:59:23.49	306.55	11.80	
2025-01-13 03:59:24.51	306.34	11.77	
2025-01-13 03:59:25.53	306.13	11.74	
2025-01-13 03:59:26.56	305.91	11.71	
2025-01-13 03:59:27.58	305.70	11.68	
2025-01-13 03:59:28.61	305.49	11.65	
2025-01-13 03:59:29.64	305.27	11.62	
2025-01-13 03:59:30.66	305.06	11.58	
2025-01-13 03:59:31.69	304.85	11.55	
2025-01-13 03:59:32.73	304.64	11.52	
2025-01-13 03:59:33.76	304.43	11.49	
2025-01-13 03:59:34.78	304.22	11.46	
2025-01-13 03:59:35.81	304.01	11.42	
2025-01-13 03:59:36.84	303.80	11.39	
2025-01-13 03:59:37.87	303.59	11.36	
2025-01-13 03:59:38.89	303.38	11.32	
2025-01-13 03:59:39.92	303.17	11.29	
2025-01-13 03:59:40.94	302.97	11.25	
2025-01-13 03:59:41.97	302.76	11.22	
2025-01-13 03:59:43.01	302.55	11.18	
2025-01-13 03:59:44.04	302.35	11.15	
2025-01-13 03:59:45.06	302.14	11.11	
2025-01-13 03:59:46.09	301.94	11.08	
2025-01-13 03:59:47.11	301.73	11.04	
2025-01-13 03:59:48.14	301.53	11.01	
2025-01-13 03:59:49.16	301.33	10.97	
2025-01-13 03:59:50.19	301.13	10.93	
2025-01-13 03:59:51.21	300.93	10.89	
2025-01-13 03:59:52.24	300.72	10.86	
2025-01-13 03:59:53.27	300.52	10.82	
2025-01-13 03:59:54.29	300.32	10.78	
2025-01-13 03:59:55.32	300.12	10.74	
2025-01-13 03:59:56.34	299.93	10.71	
2025-01-13 03:59:57.37	299.73	10.67	
2025-01-13 03:59:58.39	299.53	10.63	
2025-01-13 03:59:59.43	299.33	10.59	
2025-01-13 04:00:00.46	299.13	10.55	
2025-01-13 04:00:01.49	298.94	10.51	
2025-01-13 04:00:02.51	298.74	10.47	
2025-01-13 04:00:03.54	298.55	10.43	
2025-01-13 04:00:04.57	298.35	10.39	
2025-01-13 04:00:05.59	298.16	10.35	
2025-01-13 04:00:06.63	297.97	10.31	
2025-01-13 04:00:07.66	297.77	10.27	
2025-01-13 04:00:08.69	297.58	10.23	
2025-01-13 04:00:09.71	297.39	10.18	
2025-01-13 04:00:10.74	297.20	10.14	
2025-01-13 04:00:11.76	297.01	10.10	
2025-01-13 04:00:12.79	296.82	10.06	
2025-01-13 04:00:13.83	296.63	10.02	
2025-01-13 04:00:14.87	296.44	9.97	
2025-01-13 04:00:15.89	296.25	9.93	
2025-01-13 04:00:16.92	296.06	9.89	
2025-01-13 04:00:17.95	295.88	9.84	
2025-01-13 04:00:18.98	295.69	9.80	
2025-01-13 04:00:20.02	295.50	9.76	
2025-01-13 04:00:21.05	295.32	9.71	
2025-01-13 04:00:22.07	295.13	9.67	
2025-01-13 04:00:23.10	294.95	9.63	
2025-01-13 04:00:24.14	294.76	9.58	
2025-01-13 04:00:25.16	294.58	9.54	
2025-01-13 04:00:26.19	294.40	9.49	
2025-01-13 04:00:27.21	294.22	9.45	
2025-01-13 04:00:28.24	294.04	9.40	
2025-01-13 04:00:29.26	293.86	9.36	
2025-01-13 04:00:30.29	293.68	9.31	
2025-01-13 04:00:31.31	293.50	9.27	
2025-01-13 04:00:32.34	293.32	9.22	
2025-01-13 04:00:33.37	293.15	9.18	
2025-01-13 04:00:34.40	292.97	9.13	
2025-01-13 04:00:35.42	292.79	9.09	
2025-01-13 04:00:36.45	292.62	9.04	
2025-01-13 04:00:37.47	292.44	8.99	
2025-01-13 04:00:38.50	292.27	8.95	
2025-01-13 04:00:39.53	292.09	8.90	
2025-01-13 04:00:40.56	291.92	8.85	
2025-01-13 04:00:41.58	291.75	8.81	
2025-01-13 04:00:42.61	291.58	8.76	
2025-01-13 04:00:43.64	291.40	8.71	
2025-01-13 04:00:44.67	291.23	8.67	
2025-01-13 04:00:45.69	291.06	8.62	
2025-01-13 04:00:46.71	290.90	8.57	
2025-01-13 04:00:47.74	290.73	8.52	
2025-01-13 04:00:48.77	290.56	8.48	
2025-01-13 04:00:49.80	290.39	8.43	
2025-01-13 04:00:50.82	290.22	8.38	
2025-01-13 04:00:51.85	290.06	8.33	
2025-01-13 04:00:52.89	289.89	8.28	
2025-01-13 04:00:53.91	289.72	8.24	
2025-01-13 04:00:54.94	289.56	8.19	
2025-01-13 04:00:55.97	289.39	8.14	
2025-01-13 04:00:56.99	289.23	8.09	
2025-01-13 04:00:58.02	289.07	8.04	
2025-01-13 04:00:59.04	288.91	7.99	
2025-01-13 04:01:00.07	288.74	7.94	
2025-01-13 04:01:01.09	288.58	7.90	
2025-01-13 04:01:02.12	288.42	7.85	
2025-01-13 04:01:03.14	288.26	7.80	
2025-01-13 04:01:04.16	288.10	7.75	
2025-01-13 04:01:05.19	287.95	7.70	
2025-01-13 04:01:06.22	287.79	7.65	
2025-01-13 04:01:07.26	287.63	7.60	
2025-01-13 04:01:08.30	287.47	7.55	
2025-01-13 04:01:09.34	287.31	7.50	
2025-01-13 04:01:10.37	287.15	7.45	
2025-01-13 04:01:11.40	287.00	7.40	
2025-01-13 04:01:12.42	286.84	7.35	
2025-01-13 04:01:13.45	286.69	7.30	
2025-01-13 04:01:14.47	286.54	7.25	
2025-01-13 04:01:15.50	286.38	7.20	
2025-01-13 04:01:16.53	286.23	7.15	
2025-01-13 04:01:17.56	286.08	7.10	
2025-01-13 04:01:18.58	285.93	7.05	
2025-01-13 04:01:19.61	285.78	7.00	
2025-01-13 04:01:20.64	285.63	6.95	
2025-01-13 04:01:21.66	285.48	6.90	
2025-01-13 04:01:22.69	285.33	6.85	
2025-01-13 04:01:23.73	285.18	6.79	
2025-01-13 04:01:24.75	285.03	6.74	
2025-01-13 04:01:25.78	284.88	6.69	
2025-01-13 04:01:26.81	284.74	6.64	
2025-01-13 04:01:27.83	284.59	6.59	
2025-01-13 04:01:28.86	284.44	6.54	
2025-01-13 04:01:29.88	284.30	6.49	
2025-01-13 04:01:30.92	284.15	6.44	
2025-01-13 04:01:31.95	284.01	6.39	
2025-01-13 04:01:32.98	283.87	6.34	
2025-01-13 04:01:34.01	283.72	6.28	
2025-01-13 04:01:35.05	283.58	6.23	
2025-01-13 04:01:36.09	283.43	6.18	
2025-01-13 04:01:37.13	283.29	6.13	
2025-01-13 04:01:38.15	283.15	6.08	
2025-01-13 04:01:39.18	283.01	6.03	
2025-01-13 04:01:40.21	282.87	5.97	
2025-01-13 04:01:41.25	282.73	5.92	
2025-01-13 04:01:42.28	282.59	5.87	
2025-01-13 04:01:43.30	282.46	5.82	
2025-01-13 04:01:44.32	282.32	5.77	
2025-01-13 04:01:45.35	282.18	5.72	
2025-01-13 04:01:46.38	282.05	5.66	
2025-01-13 04:01:47.40	281.91	5.61	
2025-01-13 04:01:48.43	281.77	5.56	
2025-01-13 04:01:49.45	281.64	5.51	
2025-01-13 04:01:50.47	281.51	5.46	
2025-01-13 04:01:51.50	281.37	5.41	
2025-01-13 04:01:52.53	281.24	5.36	
2025-01-13 04:01:53.57	281.11	5.30	
2025-01-13 04:01:54.59	280.97	5.25	
2025-01-13 04:01:55.62	280.84	5.20	
2025-01-13 04:01:56.65	280.71	5.15	
2025-01-13 04:01:57.67	280.58	5.10	
2025-01-13 04:01:58.70	280.45	5.04	
2025-01-13 04:01:59.72	280.32	4.99	
2025-01-13 04:02:00.75	280.19	4.94	
2025-01-13 04:02:01.77	280.07	4.89	
2025-01-13 04:02:02.81	279.94	4.84	
2025-01-13 04:02:03.83	279.81	4.78	
2025-01-13 04:02:04.86	279.68	4.73	
2025-01-13 04:02:05.88	279.56	4.68	
2025-01-13 04:02:06.91	279.43	4.63	
2025-01-13 04:02:07.94	279.31	4.58	
2025-01-13 04:02:08.97	279.18	4.52	
2025-01-13 04:02:09.99	279.06	4.47	
2025-01-13 04:02:11.02	278.93	4.42	
2025-01-13 04:02:12.04	278.81	4.37	
2025-01-13 04:02:13.06	278.69	4.32	
2025-01-13 04:02:14.11	278.56	4.26	
2025-01-13 04:02:15.14	278.44	4.21	
2025-01-13 04:02:16.17	278.32	4.16	
2025-01-13 04:02:17.20	278.20	4.11	
2025-01-13 04:02:18.23	278.08	4.06	

#Closed at: 2025-01-13 04:02:19