passes_logs/2025/01/13/SPB_Silybum_02/SPB_Silybum_02__20250113_005033_SUOMI_NPP_rec.log

#Pass ID: 20250113_005033_SUOMI NPP
#Satellite: SUOMI NPP
#Configuration: NPP
#Start time: 2025-01-13 00:50:33

#Version: 2.0.20230423
#Station: SPB_Silybum_02
#Location: 30.233357 lon 59.946436 lat
#TLE: 1 37849U 11061A   25012.17094835  .00000145  00000+0  89644-4 0  9991
#TLE: 2 37849  98.7443 313.1954 0001789  45.3429 314.7892 14.19536935684510

#Time	Az	El	Level	Level2	SNR	BER	Gain	Gain2
2025-01-13 00:50:35.56	16.43	4.12	
2025-01-13 00:50:37.00	16.40	4.21	
2025-01-13 00:50:38.43	16.37	4.31	
2025-01-13 00:50:39.87	16.35	4.41	
2025-01-13 00:50:41.31	16.32	4.51	
2025-01-13 00:50:42.75	16.29	4.61	
2025-01-13 00:50:44.18	16.26	4.71	
2025-01-13 00:50:45.62	16.23	4.81	
2025-01-13 00:50:47.07	16.20	4.91	
2025-01-13 00:50:48.51	16.17	5.01	
2025-01-13 00:50:49.94	16.14	5.11	
2025-01-13 00:50:51.38	16.11	5.22	
2025-01-13 00:50:52.81	16.08	5.32	
2025-01-13 00:50:54.24	16.05	5.42	
2025-01-13 00:50:55.68	16.02	5.52	
2025-01-13 00:50:57.11	15.99	5.63	
2025-01-13 00:50:58.57	15.96	5.73	
2025-01-13 00:51:00.00	15.93	5.84	
2025-01-13 00:51:01.44	15.90	5.94	
2025-01-13 00:51:02.88	15.86	6.05	
2025-01-13 00:51:04.33	15.83	6.15	
2025-01-13 00:51:05.76	15.80	6.26	
2025-01-13 00:51:07.21	15.77	6.37	
2025-01-13 00:51:08.64	15.73	6.47	
2025-01-13 00:51:10.08	15.70	6.58	
2025-01-13 00:51:11.52	15.67	6.69	
2025-01-13 00:51:12.95	15.63	6.79	
2025-01-13 00:51:14.40	15.60	6.90	
2025-01-13 00:51:15.84	15.56	7.01	
2025-01-13 00:51:17.27	15.53	7.12	
2025-01-13 00:51:18.71	15.49	7.23	
2025-01-13 00:51:20.14	15.46	7.34	
2025-01-13 00:51:21.58	15.42	7.45	
2025-01-13 00:51:23.03	15.38	7.56	
2025-01-13 00:51:24.46	15.35	7.68	
2025-01-13 00:51:25.89	15.31	7.79	
2025-01-13 00:51:27.33	15.27	7.90	
2025-01-13 00:51:28.76	15.24	8.01	
2025-01-13 00:51:30.19	15.20	8.13	
2025-01-13 00:51:31.63	15.16	8.24	
2025-01-13 00:51:33.06	15.12	8.35	
2025-01-13 00:51:34.50	15.08	8.47	
2025-01-13 00:51:35.93	15.04	8.59	
2025-01-13 00:51:37.37	15.00	8.70	
2025-01-13 00:51:38.80	14.96	8.82	
2025-01-13 00:51:40.24	14.92	8.94	
2025-01-13 00:51:41.67	14.88	9.05	
2025-01-13 00:51:43.12	14.84	9.17	
2025-01-13 00:51:44.56	14.80	9.29	
2025-01-13 00:51:46.00	14.76	9.41	
2025-01-13 00:51:47.43	14.72	9.53	
2025-01-13 00:51:48.87	14.67	9.65	
2025-01-13 00:51:50.30	14.63	9.77	
2025-01-13 00:51:51.73	14.59	9.89	
2025-01-13 00:51:53.17	14.54	10.02	
2025-01-13 00:51:54.60	14.50	10.14	
2025-01-13 00:51:56.03	14.46	10.26	
2025-01-13 00:51:57.47	14.41	10.38	
2025-01-13 00:51:58.91	14.36	10.51	
2025-01-13 00:52:00.34	14.32	10.63	
2025-01-13 00:52:01.78	14.27	10.76	
2025-01-13 00:52:03.22	14.23	10.89	
2025-01-13 00:52:04.65	14.18	11.01	
2025-01-13 00:52:06.10	14.13	11.14	
2025-01-13 00:52:07.54	14.08	11.27	
2025-01-13 00:52:08.97	14.03	11.40	
2025-01-13 00:52:10.40	13.98	11.53	
2025-01-13 00:52:11.84	13.93	11.66	
2025-01-13 00:52:13.27	13.88	11.79	
2025-01-13 00:52:14.70	13.83	11.92	
2025-01-13 00:52:16.14	13.78	12.05	
2025-01-13 00:52:17.57	13.73	12.19	
2025-01-13 00:52:19.02	13.68	12.32	
2025-01-13 00:52:20.46	13.62	12.46	
2025-01-13 00:52:21.90	13.57	12.59	
2025-01-13 00:52:23.33	13.52	12.73	
2025-01-13 00:52:24.77	13.46	12.86	
2025-01-13 00:52:26.22	13.41	13.00	
2025-01-13 00:52:27.65	13.35	13.14	
2025-01-13 00:52:29.09	13.30	13.28	
2025-01-13 00:52:30.53	13.24	13.42	
2025-01-13 00:52:31.96	13.18	13.56	
2025-01-13 00:52:33.40	13.12	13.70	
2025-01-13 00:52:34.83	13.06	13.84	
2025-01-13 00:52:36.28	13.01	13.99	
2025-01-13 00:52:37.72	12.95	14.13	
2025-01-13 00:52:39.15	12.88	14.28	
2025-01-13 00:52:40.60	12.82	14.42	
2025-01-13 00:52:42.04	12.76	14.57	
2025-01-13 00:52:43.48	12.70	14.72	
2025-01-13 00:52:44.92	12.64	14.86	
2025-01-13 00:52:46.35	12.57	15.01	
2025-01-13 00:52:47.80	12.51	15.16	
2025-01-13 00:52:49.23	12.44	15.31	
2025-01-13 00:52:50.67	12.38	15.47	
2025-01-13 00:52:52.11	12.31	15.62	
2025-01-13 00:52:53.54	12.24	15.77	
2025-01-13 00:52:54.97	12.17	15.92	
2025-01-13 00:52:56.41	12.10	16.08	
2025-01-13 00:52:57.84	12.04	16.24	
2025-01-13 00:52:59.28	11.96	16.39	
2025-01-13 00:53:00.71	11.89	16.55	
2025-01-13 00:53:02.16	11.82	16.71	
2025-01-13 00:53:03.60	11.75	16.87	
2025-01-13 00:53:05.05	11.67	17.03	
2025-01-13 00:53:06.51	11.60	17.20	
2025-01-13 00:53:07.94	11.52	17.36	
2025-01-13 00:53:09.38	11.45	17.52	
2025-01-13 00:53:10.81	11.37	17.69	
2025-01-13 00:53:12.25	11.29	17.86	
2025-01-13 00:53:13.68	11.21	18.02	
2025-01-13 00:53:15.12	11.13	18.19	
2025-01-13 00:53:16.55	11.05	18.36	
2025-01-13 00:53:17.98	10.97	18.53	
2025-01-13 00:53:19.41	10.89	18.70	
2025-01-13 00:53:20.85	10.80	18.87	
2025-01-13 00:53:22.29	10.72	19.05	
2025-01-13 00:53:23.73	10.63	19.22	
2025-01-13 00:53:25.16	10.54	19.40	
2025-01-13 00:53:26.60	10.45	19.58	
2025-01-13 00:53:28.04	10.36	19.76	
2025-01-13 00:53:29.47	10.27	19.94	
2025-01-13 00:53:30.94	10.18	20.12	
2025-01-13 00:53:32.38	10.09	20.30	
2025-01-13 00:53:33.81	9.99	20.49	
2025-01-13 00:53:35.25	9.90	20.67	
2025-01-13 00:53:36.69	9.80	20.86	
2025-01-13 00:53:38.12	9.71	21.05	
2025-01-13 00:53:39.56	9.61	21.23	
2025-01-13 00:53:40.99	9.51	21.42	
2025-01-13 00:53:42.42	9.41	21.61	
2025-01-13 00:53:43.86	9.30	21.81	
2025-01-13 00:53:45.30	9.20	22.00	
2025-01-13 00:53:46.74	9.09	22.20	
2025-01-13 00:53:48.19	8.98	22.40	
2025-01-13 00:53:49.62	8.88	22.59	
2025-01-13 00:53:51.05	8.77	22.79	
2025-01-13 00:53:52.49	8.66	23.00	
2025-01-13 00:53:53.93	8.54	23.20	
2025-01-13 00:53:55.36	8.43	23.40	
2025-01-13 00:53:56.80	8.31	23.61	
2025-01-13 00:53:58.23	8.19	23.81	
2025-01-13 00:53:59.67	8.08	24.02	
2025-01-13 00:54:01.11	7.95	24.24	
2025-01-13 00:54:02.57	7.83	24.45	
2025-01-13 00:54:04.00	7.71	24.66	
2025-01-13 00:54:05.43	7.58	24.88	
2025-01-13 00:54:06.87	7.45	25.09	
2025-01-13 00:54:08.31	7.32	25.31	
2025-01-13 00:54:09.74	7.19	25.53	
2025-01-13 00:54:11.18	7.06	25.75	
2025-01-13 00:54:12.61	6.92	25.98	
2025-01-13 00:54:14.05	6.78	26.20	
2025-01-13 00:54:15.49	6.64	26.43	
2025-01-13 00:54:16.92	6.50	26.66	
2025-01-13 00:54:18.36	6.36	26.89	
2025-01-13 00:54:19.80	6.21	27.12	
2025-01-13 00:54:21.23	6.06	27.35	
2025-01-13 00:54:22.67	5.91	27.59	
2025-01-13 00:54:24.13	5.76	27.83	
2025-01-13 00:54:25.57	5.60	28.07	
2025-01-13 00:54:27.00	5.45	28.31	
2025-01-13 00:54:28.43	5.29	28.55	
2025-01-13 00:54:29.87	5.12	28.80	
2025-01-13 00:54:31.30	4.96	29.04	
2025-01-13 00:54:32.74	4.79	29.29	
2025-01-13 00:54:34.17	4.62	29.54	
2025-01-13 00:54:35.60	4.45	29.79	
2025-01-13 00:54:37.04	4.27	30.05	
2025-01-13 00:54:38.47	4.09	30.30	
2025-01-13 00:54:39.90	3.91	30.56	
2025-01-13 00:54:41.34	3.73	30.82	
2025-01-13 00:54:42.78	3.54	31.08	
2025-01-13 00:54:44.21	3.35	31.35	
2025-01-13 00:54:45.64	3.15	31.61	
2025-01-13 00:54:47.09	2.95	31.88	
2025-01-13 00:54:48.53	2.75	32.15	
2025-01-13 00:54:49.98	2.54	32.43	
2025-01-13 00:54:51.42	2.34	32.70	
2025-01-13 00:54:52.85	2.12	32.98	
2025-01-13 00:54:54.29	1.91	33.26	
2025-01-13 00:54:55.73	1.69	33.54	
2025-01-13 00:54:57.16	1.47	33.82	
2025-01-13 00:54:58.60	1.24	34.11	
2025-01-13 00:55:00.03	1.01	34.39	
2025-01-13 00:55:01.48	0.77	34.69	
2025-01-13 00:55:02.91	0.53	34.98	
2025-01-13 00:55:04.34	0.29	35.27	
2025-01-13 00:55:05.78	0.04	35.56	
2025-01-13 00:55:07.22	359.78	35.86	
2025-01-13 00:55:08.66	359.52	36.16	
2025-01-13 00:55:10.09	359.26	36.46	
2025-01-13 00:55:11.54	358.99	36.77	
2025-01-13 00:55:12.98	358.71	37.08	
2025-01-13 00:55:14.41	358.44	37.39	
2025-01-13 00:55:15.85	358.15	37.70	
2025-01-13 00:55:17.28	357.86	38.01	
2025-01-13 00:55:18.72	357.57	38.32	
2025-01-13 00:55:20.15	357.27	38.64	
2025-01-13 00:55:21.59	356.96	38.96	
2025-01-13 00:55:23.02	356.64	39.28	
2025-01-13 00:55:24.45	356.32	39.60	
2025-01-13 00:55:25.90	355.99	39.93	
2025-01-13 00:55:27.34	355.66	40.25	
2025-01-13 00:55:28.77	355.32	40.58	
2025-01-13 00:55:30.22	354.97	40.91	
2025-01-13 00:55:31.66	354.61	41.25	
2025-01-13 00:55:33.09	354.25	41.58	
2025-01-13 00:55:34.52	353.88	41.91	
2025-01-13 00:55:35.96	353.51	42.25	
2025-01-13 00:55:37.40	353.12	42.59	
2025-01-13 00:55:38.83	352.73	42.93	
2025-01-13 00:55:40.28	352.32	43.28	
2025-01-13 00:55:41.72	351.91	43.62	
2025-01-13 00:55:43.16	351.48	43.97	
2025-01-13 00:55:44.60	351.05	44.31	
2025-01-13 00:55:46.04	350.61	44.66	
2025-01-13 00:55:47.49	350.16	45.02	
2025-01-13 00:55:48.93	349.69	45.37	
2025-01-13 00:55:50.36	349.23	45.71	
2025-01-13 00:55:51.80	348.74	46.07	
2025-01-13 00:55:53.23	348.25	46.42	
2025-01-13 00:55:54.66	347.75	46.77	
2025-01-13 00:55:56.09	347.24	47.12	
2025-01-13 00:55:57.53	346.71	47.48	
2025-01-13 00:55:58.97	346.17	47.83	
2025-01-13 00:56:00.40	345.62	48.18	
2025-01-13 00:56:01.84	345.06	48.54	
2025-01-13 00:56:03.27	344.48	48.89	
2025-01-13 00:56:04.71	343.89	49.24	
2025-01-13 00:56:06.15	343.28	49.60	
2025-01-13 00:56:07.58	342.66	49.95	
2025-01-13 00:56:09.03	342.02	50.30	
2025-01-13 00:56:10.46	341.38	50.65	
2025-01-13 00:56:11.90	340.71	51.00	
2025-01-13 00:56:13.33	340.03	51.35	
2025-01-13 00:56:14.78	339.33	51.69	
2025-01-13 00:56:16.22	338.62	52.04	
2025-01-13 00:56:17.65	337.89	52.38	
2025-01-13 00:56:19.09	337.14	52.72	
2025-01-13 00:56:20.52	336.38	53.05	
2025-01-13 00:56:21.96	335.60	53.38	
2025-01-13 00:56:23.39	334.80	53.71	
2025-01-13 00:56:24.82	333.99	54.04	
2025-01-13 00:56:26.26	333.15	54.36	
2025-01-13 00:56:27.71	332.28	54.68	
2025-01-13 00:56:29.14	331.41	54.99	
2025-01-13 00:56:30.58	330.51	55.30	
2025-01-13 00:56:32.02	329.60	55.60	
2025-01-13 00:56:33.47	328.65	55.90	
2025-01-13 00:56:34.91	327.70	56.19	
2025-01-13 00:56:36.34	326.73	56.47	
2025-01-13 00:56:37.80	325.72	56.75	
2025-01-13 00:56:39.23	324.71	57.02	
2025-01-13 00:56:40.67	323.67	57.28	
2025-01-13 00:56:42.12	322.60	57.54	
2025-01-13 00:56:43.55	321.53	57.78	
2025-01-13 00:56:44.99	320.44	58.02	
2025-01-13 00:56:46.43	319.32	58.25	
2025-01-13 00:56:47.86	318.19	58.47	
2025-01-13 00:56:49.30	317.04	58.68	
2025-01-13 00:56:50.74	315.87	58.87	
2025-01-13 00:56:52.17	314.69	59.06	
2025-01-13 00:56:53.60	313.49	59.24	
2025-01-13 00:56:55.04	312.27	59.40	
2025-01-13 00:56:56.47	311.04	59.56	
2025-01-13 00:56:57.91	309.79	59.70	
2025-01-13 00:56:59.36	308.52	59.83	
2025-01-13 00:57:00.82	307.23	59.95	
2025-01-13 00:57:02.25	305.95	60.05	
2025-01-13 00:57:03.68	304.66	60.14	
2025-01-13 00:57:05.10	303.37	60.22	
2025-01-13 00:57:06.53	302.07	60.29	
2025-01-13 00:57:07.97	300.75	60.34	
2025-01-13 00:57:09.41	299.42	60.38	
2025-01-13 00:57:10.84	298.10	60.40	
2025-01-13 00:57:12.28	296.77	60.41	
2025-01-13 00:57:13.71	295.45	60.41	
2025-01-13 00:57:15.15	294.12	60.40	
2025-01-13 00:57:16.58	292.81	60.37	
2025-01-13 00:57:18.03	291.47	60.32	
2025-01-13 00:57:19.48	290.15	60.26	
2025-01-13 00:57:20.93	288.83	60.19	
2025-01-13 00:57:22.37	287.52	60.11	
2025-01-13 00:57:23.81	286.23	60.01	
2025-01-13 00:57:25.25	284.95	59.90	
2025-01-13 00:57:26.70	283.66	59.78	
2025-01-13 00:57:28.14	282.41	59.64	
2025-01-13 00:57:29.57	281.17	59.49	
2025-01-13 00:57:31.02	279.93	59.33	
2025-01-13 00:57:32.46	278.71	59.16	
2025-01-13 00:57:33.89	277.52	58.98	
2025-01-13 00:57:35.32	276.35	58.79	
2025-01-13 00:57:36.76	275.18	58.59	
2025-01-13 00:57:38.19	274.04	58.37	
2025-01-13 00:57:39.63	272.92	58.15	
2025-01-13 00:57:41.06	271.81	57.92	
2025-01-13 00:57:42.51	270.72	57.68	
2025-01-13 00:57:43.95	269.65	57.43	
2025-01-13 00:57:45.38	268.60	57.17	
2025-01-13 00:57:46.82	267.57	56.90	
2025-01-13 00:57:48.26	266.56	56.63	
2025-01-13 00:57:49.68	265.59	56.35	
2025-01-13 00:57:51.12	264.62	56.07	
2025-01-13 00:57:52.57	263.66	55.77	
2025-01-13 00:57:54.01	262.73	55.47	
2025-01-13 00:57:55.45	261.82	55.16	
2025-01-13 00:57:56.90	260.92	54.85	
2025-01-13 00:57:58.33	260.06	54.54	
2025-01-13 00:57:59.77	259.21	54.22	
2025-01-13 00:58:01.20	258.38	53.90	
2025-01-13 00:58:02.63	257.57	53.57	
2025-01-13 00:58:04.07	256.77	53.24	
2025-01-13 00:58:05.52	255.99	52.90	
2025-01-13 00:58:06.95	255.24	52.56	
2025-01-13 00:58:08.39	254.49	52.22	
2025-01-13 00:58:09.83	253.77	51.88	
2025-01-13 00:58:11.26	253.06	51.54	
2025-01-13 00:58:12.70	252.37	51.19	
2025-01-13 00:58:14.13	251.70	50.84	
2025-01-13 00:58:15.58	251.03	50.49	
2025-01-13 00:58:17.02	250.39	50.14	
2025-01-13 00:58:18.45	249.76	49.78	
2025-01-13 00:58:19.88	249.15	49.43	
2025-01-13 00:58:21.32	248.55	49.08	
2025-01-13 00:58:22.76	247.96	48.72	
2025-01-13 00:58:24.19	247.39	48.37	
2025-01-13 00:58:25.62	246.83	48.01	
2025-01-13 00:58:27.05	246.28	47.66	
2025-01-13 00:58:28.49	245.75	47.31	
2025-01-13 00:58:29.93	245.22	46.95	
2025-01-13 00:58:31.37	244.71	46.59	
2025-01-13 00:58:32.81	244.21	46.24	
2025-01-13 00:58:34.24	243.72	45.89	
2025-01-13 00:58:35.68	243.24	45.54	
2025-01-13 00:58:37.11	242.78	45.19	
2025-01-13 00:58:38.55	242.32	44.83	
2025-01-13 00:58:39.98	241.87	44.49	
2025-01-13 00:58:41.42	241.43	44.14	
2025-01-13 00:58:42.86	241.01	43.79	
2025-01-13 00:58:44.31	240.58	43.44	
2025-01-13 00:58:45.74	240.18	43.10	
2025-01-13 00:58:47.18	239.77	42.75	
2025-01-13 00:58:48.62	239.38	42.41	
2025-01-13 00:58:50.07	238.99	42.07	
2025-01-13 00:58:51.51	238.62	41.73	
2025-01-13 00:58:52.95	238.25	41.39	
2025-01-13 00:58:54.38	237.89	41.06	
2025-01-13 00:58:55.82	237.54	40.73	
2025-01-13 00:58:57.26	237.19	40.40	
2025-01-13 00:58:58.70	236.85	40.07	
2025-01-13 00:59:00.13	236.52	39.74	
2025-01-13 00:59:01.58	236.19	39.41	
2025-01-13 00:59:03.03	235.87	39.09	
2025-01-13 00:59:04.46	235.56	38.77	
2025-01-13 00:59:05.91	235.25	38.44	
2025-01-13 00:59:07.35	234.95	38.13	
2025-01-13 00:59:08.78	234.66	37.81	
2025-01-13 00:59:10.21	234.37	37.50	
2025-01-13 00:59:11.66	234.08	37.19	
2025-01-13 00:59:13.12	233.80	36.88	
2025-01-13 00:59:14.56	233.53	36.57	
2025-01-13 00:59:15.99	233.26	36.27	
2025-01-13 00:59:17.43	233.00	35.96	
2025-01-13 00:59:18.86	232.74	35.66	
2025-01-13 00:59:20.31	232.49	35.36	
2025-01-13 00:59:21.75	232.24	35.07	
2025-01-13 00:59:23.18	232.00	34.77	
2025-01-13 00:59:24.62	231.76	34.48	
2025-01-13 00:59:26.06	231.52	34.19	
2025-01-13 00:59:27.49	231.29	33.91	
2025-01-13 00:59:28.92	231.07	33.62	
2025-01-13 00:59:30.36	230.84	33.34	
2025-01-13 00:59:31.79	230.63	33.06	
2025-01-13 00:59:33.22	230.41	32.78	
2025-01-13 00:59:34.66	230.20	32.50	
2025-01-13 00:59:36.09	229.99	32.23	
2025-01-13 00:59:37.52	229.79	31.96	
2025-01-13 00:59:38.96	229.59	31.69	
2025-01-13 00:59:40.40	229.39	31.42	
2025-01-13 00:59:41.84	229.20	31.15	
2025-01-13 00:59:43.28	229.01	30.89	
2025-01-13 00:59:44.71	228.82	30.63	
2025-01-13 00:59:46.16	228.63	30.36	
2025-01-13 00:59:47.60	228.45	30.10	
2025-01-13 00:59:49.04	228.27	29.85	
2025-01-13 00:59:50.48	228.10	29.59	
2025-01-13 00:59:51.92	227.92	29.34	
2025-01-13 00:59:53.35	227.75	29.09	
2025-01-13 00:59:54.78	227.59	28.84	
2025-01-13 00:59:56.22	227.42	28.60	
2025-01-13 00:59:57.65	227.26	28.35	
2025-01-13 00:59:59.10	227.10	28.11	
2025-01-13 01:00:00.53	226.94	27.87	
2025-01-13 01:00:01.97	226.79	27.63	
2025-01-13 01:00:03.41	226.63	27.39	
2025-01-13 01:00:04.85	226.48	27.15	
2025-01-13 01:00:06.30	226.33	26.92	
2025-01-13 01:00:07.73	226.19	26.69	
2025-01-13 01:00:09.16	226.04	26.46	
2025-01-13 01:00:10.60	225.90	26.23	
2025-01-13 01:00:12.05	225.76	26.00	
2025-01-13 01:00:13.50	225.62	25.77	
2025-01-13 01:00:14.93	225.49	25.55	
2025-01-13 01:00:16.37	225.35	25.33	
2025-01-13 01:00:17.80	225.22	25.11	
2025-01-13 01:00:19.25	225.09	24.89	
2025-01-13 01:00:20.70	224.96	24.67	
2025-01-13 01:00:22.14	224.84	24.46	
2025-01-13 01:00:23.57	224.71	24.24	
2025-01-13 01:00:25.01	224.59	24.03	
2025-01-13 01:00:26.44	224.47	23.82	
2025-01-13 01:00:27.88	224.35	23.61	
2025-01-13 01:00:29.33	224.23	23.40	
2025-01-13 01:00:30.77	224.11	23.20	
2025-01-13 01:00:32.20	224.00	22.99	
2025-01-13 01:00:33.64	223.89	22.79	
2025-01-13 01:00:35.07	223.78	22.59	
2025-01-13 01:00:36.54	223.66	22.39	
2025-01-13 01:00:37.97	223.56	22.19	
2025-01-13 01:00:39.40	223.45	21.99	
2025-01-13 01:00:40.84	223.34	21.80	
2025-01-13 01:00:42.27	223.24	21.60	
2025-01-13 01:00:43.70	223.14	21.41	
2025-01-13 01:00:45.14	223.03	21.22	
2025-01-13 01:00:46.57	222.93	21.03	
2025-01-13 01:00:48.00	222.84	20.84	
2025-01-13 01:00:49.44	222.74	20.65	
2025-01-13 01:00:50.88	222.64	20.47	
2025-01-13 01:00:52.33	222.54	20.28	
2025-01-13 01:00:53.76	222.45	20.10	
2025-01-13 01:00:55.19	222.36	19.92	
2025-01-13 01:00:56.63	222.27	19.74	
2025-01-13 01:00:58.07	222.17	19.56	
2025-01-13 01:00:59.51	222.08	19.38	
2025-01-13 01:01:00.95	222.00	19.20	
2025-01-13 01:01:02.40	221.91	19.02	
2025-01-13 01:01:03.83	221.82	18.85	
2025-01-13 01:01:05.27	221.73	18.67	
2025-01-13 01:01:06.70	221.65	18.50	
2025-01-13 01:01:08.14	221.57	18.33	
2025-01-13 01:01:09.60	221.48	18.16	
2025-01-13 01:01:11.04	221.40	17.99	
2025-01-13 01:01:12.47	221.32	17.82	
2025-01-13 01:01:13.91	221.24	17.65	
2025-01-13 01:01:15.34	221.16	17.48	
2025-01-13 01:01:16.78	221.08	17.32	
2025-01-13 01:01:18.21	221.01	17.16	
2025-01-13 01:01:19.65	220.93	16.99	
2025-01-13 01:01:21.09	220.86	16.83	
2025-01-13 01:01:22.52	220.78	16.67	
2025-01-13 01:01:23.95	220.71	16.51	
2025-01-13 01:01:25.39	220.64	16.35	
2025-01-13 01:01:26.83	220.56	16.19	
2025-01-13 01:01:28.28	220.49	16.04	
2025-01-13 01:01:29.71	220.42	15.88	
2025-01-13 01:01:31.16	220.35	15.72	
2025-01-13 01:01:32.61	220.28	15.57	
2025-01-13 01:01:34.04	220.21	15.42	
2025-01-13 01:01:35.49	220.15	15.26	
2025-01-13 01:01:36.93	220.08	15.11	
2025-01-13 01:01:38.36	220.01	14.96	
2025-01-13 01:01:39.80	219.95	14.81	
2025-01-13 01:01:41.24	219.88	14.66	
2025-01-13 01:01:42.67	219.82	14.51	
2025-01-13 01:01:44.11	219.76	14.37	
2025-01-13 01:01:45.54	219.69	14.22	
2025-01-13 01:01:46.97	219.63	14.08	
2025-01-13 01:01:48.41	219.57	13.93	
2025-01-13 01:01:49.84	219.51	13.79	
2025-01-13 01:01:51.27	219.45	13.65	
2025-01-13 01:01:52.72	219.39	13.50	
2025-01-13 01:01:54.17	219.33	13.36	
2025-01-13 01:01:55.60	219.27	13.22	
2025-01-13 01:01:57.04	219.22	13.08	
2025-01-13 01:01:58.47	219.16	12.94	
2025-01-13 01:01:59.91	219.10	12.80	
2025-01-13 01:02:01.34	219.05	12.67	
2025-01-13 01:02:02.78	218.99	12.53	
2025-01-13 01:02:04.21	218.94	12.39	
2025-01-13 01:02:05.66	218.88	12.26	
2025-01-13 01:02:07.10	218.83	12.12	
2025-01-13 01:02:08.55	218.78	11.99	
2025-01-13 01:02:09.98	218.72	11.86	
2025-01-13 01:02:11.43	218.67	11.72	
2025-01-13 01:02:12.86	218.62	11.59	
2025-01-13 01:02:14.29	218.57	11.46	
2025-01-13 01:02:15.76	218.52	11.33	
2025-01-13 01:02:17.19	218.47	11.20	
2025-01-13 01:02:18.63	218.42	11.07	
2025-01-13 01:02:20.06	218.37	10.94	
2025-01-13 01:02:21.50	218.32	10.81	
2025-01-13 01:02:22.93	218.27	10.69	
2025-01-13 01:02:24.37	218.22	10.56	
2025-01-13 01:02:25.80	218.17	10.43	
2025-01-13 01:02:27.24	218.13	10.31	
2025-01-13 01:02:28.67	218.08	10.18	
2025-01-13 01:02:30.10	218.04	10.06	
2025-01-13 01:02:31.53	217.99	9.94	
2025-01-13 01:02:32.96	217.94	9.82	
2025-01-13 01:02:34.40	217.90	9.69	
2025-01-13 01:02:35.83	217.86	9.57	
2025-01-13 01:02:37.27	217.81	9.45	
2025-01-13 01:02:38.70	217.77	9.33	
2025-01-13 01:02:40.15	217.72	9.21	
2025-01-13 01:02:41.59	217.68	9.09	
2025-01-13 01:02:43.03	217.64	8.97	
2025-01-13 01:02:44.46	217.60	8.85	
2025-01-13 01:02:45.90	217.55	8.74	
2025-01-13 01:02:47.34	217.51	8.62	
2025-01-13 01:02:48.78	217.47	8.50	
2025-01-13 01:02:50.21	217.43	8.39	
2025-01-13 01:02:51.65	217.39	8.27	
2025-01-13 01:02:53.08	217.35	8.16	
2025-01-13 01:02:54.52	217.31	8.04	
2025-01-13 01:02:55.95	217.27	7.93	
2025-01-13 01:02:57.41	217.23	7.81	
2025-01-13 01:02:58.84	217.19	7.70	
2025-01-13 01:03:00.27	217.16	7.59	
2025-01-13 01:03:01.71	217.12	7.47	
2025-01-13 01:03:03.16	217.08	7.36	
2025-01-13 01:03:04.60	217.04	7.25	
2025-01-13 01:03:06.03	217.00	7.14	
2025-01-13 01:03:07.47	216.97	7.03	
2025-01-13 01:03:08.90	216.93	6.92	
2025-01-13 01:03:10.34	216.90	6.81	
2025-01-13 01:03:11.78	216.86	6.70	
2025-01-13 01:03:13.21	216.82	6.59	
2025-01-13 01:03:14.64	216.79	6.49	
2025-01-13 01:03:16.08	216.75	6.38	
2025-01-13 01:03:17.52	216.72	6.27	
2025-01-13 01:03:18.95	216.69	6.17	
2025-01-13 01:03:20.39	216.65	6.06	
2025-01-13 01:03:21.84	216.62	5.95	
2025-01-13 01:03:23.27	216.58	5.85	
2025-01-13 01:03:24.71	216.55	5.74	
2025-01-13 01:03:26.14	216.52	5.64	
2025-01-13 01:03:27.58	216.48	5.53	
2025-01-13 01:03:29.03	216.45	5.43	
2025-01-13 01:03:30.46	216.42	5.33	
2025-01-13 01:03:31.90	216.39	5.22	
2025-01-13 01:03:33.33	216.36	5.12	
2025-01-13 01:03:34.76	216.32	5.02	
2025-01-13 01:03:36.20	216.29	4.92	
2025-01-13 01:03:37.63	216.26	4.82	
2025-01-13 01:03:39.07	216.23	4.71	
2025-01-13 01:03:40.51	216.20	4.61	
2025-01-13 01:03:41.94	216.17	4.51	
2025-01-13 01:03:43.38	216.14	4.41	
2025-01-13 01:03:44.81	216.11	4.31	
2025-01-13 01:03:46.25	216.08	4.21	
2025-01-13 01:03:47.68	216.05	4.12	
2025-01-13 01:03:49.13	216.02	4.02	

#Closed at: 2025-01-13 01:03:49