passes_logs/2025/01/13/SPB_Silybum_02/SPB_Silybum_02__20250113_021602_AQUA_rec.log

#Pass ID: 20250113_021602_AQUA
#Satellite: AQUA
#Configuration: AQUA
#Start time: 2025-01-13 02:16:00

#Version: 2.0.20230423
#Station: SPB_Silybum_02
#Location: 30.233357 lon 59.946436 lat
#TLE: 1 27424U 02022A   25012.20730597  .00001826  00000+0  38477-3 0  9996
#TLE: 2 27424  98.3584 328.8461 0001605 114.2253 358.7733 14.60671943207219

#Time	Az	El	Level	Level2	SNR	BER	Gain	Gain2
2025-01-13 02:16:02.90	13.16	4.03	
2025-01-13 02:16:04.13	13.10	4.11	
2025-01-13 02:16:05.36	13.05	4.20	
2025-01-13 02:16:06.60	12.99	4.28	
2025-01-13 02:16:07.83	12.93	4.37	
2025-01-13 02:16:09.07	12.87	4.45	
2025-01-13 02:16:10.30	12.82	4.54	
2025-01-13 02:16:11.52	12.76	4.62	
2025-01-13 02:16:12.75	12.70	4.71	
2025-01-13 02:16:13.99	12.64	4.80	
2025-01-13 02:16:15.22	12.58	4.89	
2025-01-13 02:16:16.47	12.52	4.97	
2025-01-13 02:16:17.70	12.46	5.06	
2025-01-13 02:16:18.94	12.39	5.15	
2025-01-13 02:16:20.16	12.33	5.24	
2025-01-13 02:16:21.40	12.27	5.33	
2025-01-13 02:16:22.63	12.21	5.42	
2025-01-13 02:16:23.86	12.14	5.51	
2025-01-13 02:16:25.09	12.08	5.60	
2025-01-13 02:16:26.32	12.02	5.68	
2025-01-13 02:16:27.55	11.95	5.77	
2025-01-13 02:16:28.78	11.89	5.87	
2025-01-13 02:16:30.01	11.82	5.96	
2025-01-13 02:16:31.27	11.75	6.05	
2025-01-13 02:16:32.50	11.69	6.14	
2025-01-13 02:16:33.73	11.62	6.23	
2025-01-13 02:16:34.96	11.55	6.32	
2025-01-13 02:16:36.19	11.49	6.42	
2025-01-13 02:16:37.44	11.42	6.51	
2025-01-13 02:16:38.67	11.35	6.60	
2025-01-13 02:16:39.90	11.28	6.70	
2025-01-13 02:16:41.14	11.21	6.79	
2025-01-13 02:16:42.39	11.14	6.89	
2025-01-13 02:16:43.62	11.06	6.98	
2025-01-13 02:16:44.87	10.99	7.08	
2025-01-13 02:16:46.10	10.92	7.17	
2025-01-13 02:16:47.32	10.85	7.27	
2025-01-13 02:16:48.57	10.77	7.36	
2025-01-13 02:16:49.80	10.70	7.46	
2025-01-13 02:16:51.05	10.62	7.56	
2025-01-13 02:16:52.28	10.55	7.66	
2025-01-13 02:16:53.51	10.47	7.75	
2025-01-13 02:16:54.76	10.40	7.85	
2025-01-13 02:16:55.99	10.32	7.95	
2025-01-13 02:16:57.24	10.24	8.05	
2025-01-13 02:16:58.47	10.16	8.15	
2025-01-13 02:16:59.70	10.08	8.25	
2025-01-13 02:17:00.93	10.01	8.35	
2025-01-13 02:17:02.16	9.93	8.45	
2025-01-13 02:17:03.39	9.85	8.55	
2025-01-13 02:17:04.62	9.76	8.65	
2025-01-13 02:17:05.85	9.68	8.75	
2025-01-13 02:17:07.09	9.60	8.85	
2025-01-13 02:17:08.33	9.52	8.95	
2025-01-13 02:17:09.57	9.43	9.06	
2025-01-13 02:17:10.82	9.35	9.16	
2025-01-13 02:17:12.05	9.26	9.26	
2025-01-13 02:17:13.28	9.18	9.37	
2025-01-13 02:17:14.52	9.09	9.47	
2025-01-13 02:17:15.75	9.00	9.58	
2025-01-13 02:17:16.98	8.91	9.68	
2025-01-13 02:17:18.21	8.83	9.79	
2025-01-13 02:17:19.44	8.74	9.89	
2025-01-13 02:17:20.67	8.65	10.00	
2025-01-13 02:17:21.92	8.55	10.11	
2025-01-13 02:17:23.15	8.46	10.21	
2025-01-13 02:17:24.38	8.37	10.32	
2025-01-13 02:17:25.61	8.28	10.43	
2025-01-13 02:17:26.84	8.18	10.54	
2025-01-13 02:17:28.07	8.09	10.64	
2025-01-13 02:17:29.30	7.99	10.75	
2025-01-13 02:17:30.53	7.90	10.86	
2025-01-13 02:17:31.76	7.80	10.97	
2025-01-13 02:17:33.00	7.70	11.08	
2025-01-13 02:17:34.23	7.60	11.20	
2025-01-13 02:17:35.47	7.50	11.31	
2025-01-13 02:17:36.70	7.40	11.42	
2025-01-13 02:17:37.93	7.30	11.53	
2025-01-13 02:17:39.16	7.20	11.65	
2025-01-13 02:17:40.39	7.10	11.76	
2025-01-13 02:17:41.62	6.99	11.87	
2025-01-13 02:17:42.86	6.89	11.99	
2025-01-13 02:17:44.09	6.78	12.10	
2025-01-13 02:17:45.32	6.67	12.22	
2025-01-13 02:17:46.56	6.56	12.34	
2025-01-13 02:17:47.79	6.46	12.45	
2025-01-13 02:17:49.02	6.35	12.57	
2025-01-13 02:17:50.25	6.24	12.69	
2025-01-13 02:17:51.48	6.12	12.81	
2025-01-13 02:17:52.72	6.01	12.92	
2025-01-13 02:17:53.97	5.89	13.05	
2025-01-13 02:17:55.20	5.78	13.17	
2025-01-13 02:17:56.43	5.66	13.29	
2025-01-13 02:17:57.66	5.55	13.41	
2025-01-13 02:17:58.89	5.43	13.53	
2025-01-13 02:18:00.12	5.31	13.65	
2025-01-13 02:18:01.35	5.19	13.77	
2025-01-13 02:18:02.59	5.07	13.90	
2025-01-13 02:18:03.82	4.95	14.02	
2025-01-13 02:18:05.05	4.82	14.14	
2025-01-13 02:18:06.28	4.70	14.27	
2025-01-13 02:18:07.52	4.57	14.40	
2025-01-13 02:18:08.75	4.45	14.52	
2025-01-13 02:18:09.99	4.32	14.65	
2025-01-13 02:18:11.22	4.19	14.78	
2025-01-13 02:18:12.46	4.06	14.90	
2025-01-13 02:18:13.69	3.92	15.03	
2025-01-13 02:18:14.93	3.79	15.16	
2025-01-13 02:18:16.16	3.66	15.29	
2025-01-13 02:18:17.40	3.52	15.42	
2025-01-13 02:18:18.63	3.38	15.55	
2025-01-13 02:18:19.86	3.24	15.69	
2025-01-13 02:18:21.10	3.10	15.82	
2025-01-13 02:18:22.34	2.96	15.95	
2025-01-13 02:18:23.56	2.82	16.08	
2025-01-13 02:18:24.79	2.68	16.22	
2025-01-13 02:18:26.02	2.53	16.35	
2025-01-13 02:18:27.25	2.38	16.49	
2025-01-13 02:18:28.49	2.23	16.62	
2025-01-13 02:18:29.72	2.09	16.76	
2025-01-13 02:18:30.97	1.93	16.90	
2025-01-13 02:18:32.20	1.78	17.04	
2025-01-13 02:18:33.43	1.63	17.18	
2025-01-13 02:18:34.67	1.47	17.32	
2025-01-13 02:18:35.90	1.31	17.46	
2025-01-13 02:18:37.13	1.15	17.60	
2025-01-13 02:18:38.37	0.99	17.74	
2025-01-13 02:18:39.61	0.83	17.88	
2025-01-13 02:18:40.84	0.66	18.02	
2025-01-13 02:18:42.08	0.50	18.17	
2025-01-13 02:18:43.32	0.33	18.31	
2025-01-13 02:18:44.55	0.16	18.46	
2025-01-13 02:18:45.79	359.99	18.60	
2025-01-13 02:18:47.02	359.82	18.75	
2025-01-13 02:18:48.25	359.64	18.89	
2025-01-13 02:18:49.50	359.46	19.04	
2025-01-13 02:18:50.73	359.28	19.19	
2025-01-13 02:18:51.97	359.10	19.34	
2025-01-13 02:18:53.21	358.92	19.49	
2025-01-13 02:18:54.44	358.74	19.64	
2025-01-13 02:18:55.67	358.55	19.79	
2025-01-13 02:18:56.90	358.36	19.94	
2025-01-13 02:18:58.13	358.17	20.09	
2025-01-13 02:18:59.36	357.98	20.25	
2025-01-13 02:19:00.59	357.79	20.40	
2025-01-13 02:19:01.83	357.59	20.56	
2025-01-13 02:19:03.07	357.39	20.71	
2025-01-13 02:19:04.32	357.19	20.87	
2025-01-13 02:19:05.55	356.99	21.03	
2025-01-13 02:19:06.78	356.78	21.18	
2025-01-13 02:19:08.01	356.57	21.34	
2025-01-13 02:19:09.24	356.37	21.50	
2025-01-13 02:19:10.48	356.15	21.66	
2025-01-13 02:19:11.71	355.94	21.82	
2025-01-13 02:19:12.95	355.72	21.98	
2025-01-13 02:19:14.18	355.50	22.14	
2025-01-13 02:19:15.41	355.28	22.30	
2025-01-13 02:19:16.65	355.06	22.46	
2025-01-13 02:19:17.88	354.83	22.63	
2025-01-13 02:19:19.11	354.60	22.79	
2025-01-13 02:19:20.36	354.37	22.96	
2025-01-13 02:19:21.59	354.13	23.12	
2025-01-13 02:19:22.82	353.90	23.29	
2025-01-13 02:19:24.05	353.66	23.45	
2025-01-13 02:19:25.29	353.42	23.62	
2025-01-13 02:19:26.54	353.17	23.79	
2025-01-13 02:19:27.78	352.92	23.96	
2025-01-13 02:19:29.01	352.67	24.13	
2025-01-13 02:19:30.25	352.41	24.30	
2025-01-13 02:19:31.48	352.16	24.47	
2025-01-13 02:19:32.71	351.90	24.64	
2025-01-13 02:19:33.94	351.64	24.81	
2025-01-13 02:19:35.17	351.37	24.98	
2025-01-13 02:19:36.40	351.10	25.16	
2025-01-13 02:19:37.63	350.83	25.33	
2025-01-13 02:19:38.86	350.56	25.50	
2025-01-13 02:19:40.09	350.28	25.67	
2025-01-13 02:19:41.34	350.00	25.85	
2025-01-13 02:19:42.57	349.71	26.03	
2025-01-13 02:19:43.80	349.42	26.20	
2025-01-13 02:19:45.03	349.13	26.38	
2025-01-13 02:19:46.26	348.84	26.55	
2025-01-13 02:19:47.50	348.54	26.73	
2025-01-13 02:19:48.73	348.24	26.91	
2025-01-13 02:19:49.96	347.93	27.08	
2025-01-13 02:19:51.21	347.62	27.27	
2025-01-13 02:19:52.44	347.31	27.44	
2025-01-13 02:19:53.68	346.99	27.62	
2025-01-13 02:19:54.91	346.67	27.80	
2025-01-13 02:19:56.16	346.34	27.98	
2025-01-13 02:19:57.39	346.02	28.16	
2025-01-13 02:19:58.62	345.69	28.34	
2025-01-13 02:19:59.85	345.35	28.52	
2025-01-13 02:20:01.08	345.01	28.70	
2025-01-13 02:20:02.31	344.67	28.88	
2025-01-13 02:20:03.55	344.32	29.06	
2025-01-13 02:20:04.78	343.97	29.24	
2025-01-13 02:20:06.02	343.61	29.42	
2025-01-13 02:20:07.25	343.25	29.60	
2025-01-13 02:20:08.48	342.89	29.78	
2025-01-13 02:20:09.71	342.52	29.96	
2025-01-13 02:20:10.94	342.15	30.14	
2025-01-13 02:20:12.17	341.77	30.32	
2025-01-13 02:20:13.41	341.39	30.50	
2025-01-13 02:20:14.64	341.00	30.68	
2025-01-13 02:20:15.87	340.62	30.86	
2025-01-13 02:20:17.11	340.22	31.04	
2025-01-13 02:20:18.35	339.82	31.22	
2025-01-13 02:20:19.60	339.41	31.40	
2025-01-13 02:20:20.83	339.00	31.58	
2025-01-13 02:20:22.06	338.59	31.76	
2025-01-13 02:20:23.29	338.17	31.93	
2025-01-13 02:20:24.52	337.75	32.11	
2025-01-13 02:20:25.75	337.32	32.29	
2025-01-13 02:20:26.98	336.89	32.46	
2025-01-13 02:20:28.21	336.45	32.63	
2025-01-13 02:20:29.45	336.01	32.81	
2025-01-13 02:20:30.68	335.56	32.98	
2025-01-13 02:20:31.92	335.10	33.15	
2025-01-13 02:20:33.15	334.65	33.32	
2025-01-13 02:20:34.38	334.19	33.49	
2025-01-13 02:20:35.61	333.72	33.66	
2025-01-13 02:20:36.85	333.25	33.83	
2025-01-13 02:20:38.10	332.76	34.00	
2025-01-13 02:20:39.32	332.28	34.16	
2025-01-13 02:20:40.55	331.80	34.33	
2025-01-13 02:20:41.80	331.30	34.49	
2025-01-13 02:20:43.04	330.80	34.65	
2025-01-13 02:20:44.28	330.29	34.81	
2025-01-13 02:20:45.51	329.79	34.97	
2025-01-13 02:20:46.74	329.27	35.13	
2025-01-13 02:20:47.97	328.76	35.28	
2025-01-13 02:20:49.21	328.23	35.43	
2025-01-13 02:20:50.44	327.70	35.58	
2025-01-13 02:20:51.67	327.17	35.73	
2025-01-13 02:20:52.92	326.63	35.88	
2025-01-13 02:20:54.15	326.08	36.02	
2025-01-13 02:20:55.39	325.53	36.16	
2025-01-13 02:20:56.62	324.98	36.30	
2025-01-13 02:20:57.85	324.42	36.44	
2025-01-13 02:20:59.10	323.85	36.58	
2025-01-13 02:21:00.33	323.29	36.71	
2025-01-13 02:21:01.56	322.72	36.84	
2025-01-13 02:21:02.79	322.14	36.96	
2025-01-13 02:21:04.04	321.55	37.09	
2025-01-13 02:21:05.27	320.97	37.21	
2025-01-13 02:21:06.50	320.38	37.33	
2025-01-13 02:21:07.73	319.78	37.44	
2025-01-13 02:21:08.97	319.18	37.56	
2025-01-13 02:21:10.20	318.58	37.67	
2025-01-13 02:21:11.43	317.97	37.77	
2025-01-13 02:21:12.66	317.36	37.87	
2025-01-13 02:21:13.89	316.75	37.97	
2025-01-13 02:21:15.13	316.13	38.07	
2025-01-13 02:21:16.37	315.50	38.16	
2025-01-13 02:21:17.60	314.87	38.25	
2025-01-13 02:21:18.83	314.25	38.34	
2025-01-13 02:21:20.06	313.61	38.42	
2025-01-13 02:21:21.31	312.97	38.50	
2025-01-13 02:21:22.54	312.33	38.57	
2025-01-13 02:21:23.77	311.69	38.64	
2025-01-13 02:21:25.01	311.04	38.71	
2025-01-13 02:21:26.25	310.39	38.77	
2025-01-13 02:21:27.50	309.73	38.83	
2025-01-13 02:21:28.74	309.07	38.88	
2025-01-13 02:21:29.97	308.42	38.93	
2025-01-13 02:21:31.20	307.76	38.98	
2025-01-13 02:21:32.45	307.09	39.02	
2025-01-13 02:21:33.68	306.44	39.06	
2025-01-13 02:21:34.91	305.77	39.09	
2025-01-13 02:21:36.16	305.10	39.12	
2025-01-13 02:21:37.39	304.44	39.14	
2025-01-13 02:21:38.62	303.78	39.16	
2025-01-13 02:21:39.86	303.11	39.18	
2025-01-13 02:21:41.09	302.44	39.19	
2025-01-13 02:21:42.32	301.77	39.20	
2025-01-13 02:21:43.55	301.11	39.20	
2025-01-13 02:21:44.78	300.44	39.20	
2025-01-13 02:21:46.02	299.77	39.20	
2025-01-13 02:21:47.26	299.10	39.19	
2025-01-13 02:21:48.50	298.43	39.17	
2025-01-13 02:21:49.73	297.76	39.15	
2025-01-13 02:21:50.98	297.09	39.13	
2025-01-13 02:21:52.20	296.43	39.10	
2025-01-13 02:21:53.45	295.76	39.07	
2025-01-13 02:21:54.68	295.10	39.03	
2025-01-13 02:21:55.92	294.44	38.99	
2025-01-13 02:21:57.16	293.77	38.95	
2025-01-13 02:21:58.39	293.12	38.90	
2025-01-13 02:21:59.62	292.47	38.85	
2025-01-13 02:22:00.87	291.81	38.79	
2025-01-13 02:22:02.09	291.16	38.73	
2025-01-13 02:22:03.32	290.52	38.67	
2025-01-13 02:22:04.55	289.87	38.60	
2025-01-13 02:22:05.79	289.23	38.52	
2025-01-13 02:22:07.01	288.60	38.45	
2025-01-13 02:22:08.24	287.96	38.37	
2025-01-13 02:22:09.49	287.32	38.28	
2025-01-13 02:22:10.72	286.69	38.20	
2025-01-13 02:22:11.96	286.06	38.11	
2025-01-13 02:22:13.19	285.44	38.01	
2025-01-13 02:22:14.42	284.83	37.91	
2025-01-13 02:22:15.67	284.20	37.81	
2025-01-13 02:22:16.90	283.60	37.71	
2025-01-13 02:22:18.13	282.99	37.60	
2025-01-13 02:22:19.37	282.39	37.49	
2025-01-13 02:22:20.59	281.79	37.37	
2025-01-13 02:22:21.82	281.20	37.26	
2025-01-13 02:22:23.07	280.60	37.13	
2025-01-13 02:22:24.30	280.02	37.01	
2025-01-13 02:22:25.53	279.44	36.88	
2025-01-13 02:22:26.76	278.87	36.76	
2025-01-13 02:22:28.00	278.29	36.62	
2025-01-13 02:22:29.23	277.73	36.49	
2025-01-13 02:22:30.46	277.17	36.35	
2025-01-13 02:22:31.70	276.61	36.21	
2025-01-13 02:22:32.93	276.06	36.07	
2025-01-13 02:22:34.16	275.51	35.93	
2025-01-13 02:22:35.39	274.97	35.78	
2025-01-13 02:22:36.62	274.44	35.64	
2025-01-13 02:22:37.86	273.90	35.49	
2025-01-13 02:22:39.09	273.38	35.33	
2025-01-13 02:22:40.32	272.86	35.18	
2025-01-13 02:22:41.56	272.34	35.02	
2025-01-13 02:22:42.79	271.83	34.87	
2025-01-13 02:22:44.02	271.32	34.71	
2025-01-13 02:22:45.26	270.82	34.55	
2025-01-13 02:22:46.50	270.32	34.38	
2025-01-13 02:22:47.74	269.83	34.22	
2025-01-13 02:22:48.97	269.34	34.05	
2025-01-13 02:22:50.20	268.86	33.89	
2025-01-13 02:22:51.44	268.38	33.72	
2025-01-13 02:22:52.68	267.91	33.55	
2025-01-13 02:22:53.91	267.44	33.38	
2025-01-13 02:22:55.14	266.98	33.21	
2025-01-13 02:22:56.37	266.53	33.04	
2025-01-13 02:22:57.61	266.07	32.86	
2025-01-13 02:22:58.84	265.63	32.69	
2025-01-13 02:23:00.07	265.19	32.52	
2025-01-13 02:23:01.30	264.75	32.34	
2025-01-13 02:23:02.53	264.32	32.16	
2025-01-13 02:23:03.76	263.90	31.99	
2025-01-13 02:23:04.99	263.48	31.81	
2025-01-13 02:23:06.22	263.06	31.63	
2025-01-13 02:23:07.46	262.65	31.45	
2025-01-13 02:23:08.68	262.24	31.28	
2025-01-13 02:23:09.92	261.84	31.10	
2025-01-13 02:23:11.15	261.44	30.92	
2025-01-13 02:23:12.38	261.05	30.74	
2025-01-13 02:23:13.61	260.66	30.56	
2025-01-13 02:23:14.84	260.27	30.38	
2025-01-13 02:23:16.07	259.89	30.20	
2025-01-13 02:23:17.31	259.52	30.01	
2025-01-13 02:23:18.55	259.14	29.83	
2025-01-13 02:23:19.78	258.78	29.65	
2025-01-13 02:23:21.02	258.41	29.47	
2025-01-13 02:23:22.25	258.05	29.29	
2025-01-13 02:23:23.48	257.70	29.11	
2025-01-13 02:23:24.71	257.35	28.93	
2025-01-13 02:23:25.94	257.00	28.74	
2025-01-13 02:23:27.17	256.66	28.56	
2025-01-13 02:23:28.41	256.32	28.38	
2025-01-13 02:23:29.64	255.99	28.20	
2025-01-13 02:23:30.87	255.66	28.02	
2025-01-13 02:23:32.10	255.33	27.84	
2025-01-13 02:23:33.33	255.01	27.66	
2025-01-13 02:23:34.58	254.68	27.48	
2025-01-13 02:23:35.81	254.37	27.30	
2025-01-13 02:23:37.04	254.06	27.12	
2025-01-13 02:23:38.28	253.75	26.94	
2025-01-13 02:23:39.52	253.44	26.76	
2025-01-13 02:23:40.75	253.14	26.59	
2025-01-13 02:23:41.98	252.85	26.41	
2025-01-13 02:23:43.21	252.55	26.23	
2025-01-13 02:23:44.44	252.26	26.06	
2025-01-13 02:23:45.67	251.97	25.88	
2025-01-13 02:23:46.90	251.69	25.71	
2025-01-13 02:23:48.13	251.41	25.53	
2025-01-13 02:23:49.36	251.13	25.36	
2025-01-13 02:23:50.61	250.86	25.18	
2025-01-13 02:23:51.85	250.58	25.01	
2025-01-13 02:23:53.09	250.31	24.83	
2025-01-13 02:23:54.32	250.05	24.66	
2025-01-13 02:23:55.56	249.79	24.49	
2025-01-13 02:23:56.80	249.53	24.31	
2025-01-13 02:23:58.03	249.27	24.14	
2025-01-13 02:23:59.26	249.02	23.97	
2025-01-13 02:24:00.49	248.77	23.81	
2025-01-13 02:24:01.73	248.52	23.64	
2025-01-13 02:24:02.96	248.27	23.47	
2025-01-13 02:24:04.19	248.03	23.30	
2025-01-13 02:24:05.44	247.79	23.13	
2025-01-13 02:24:06.67	247.56	22.97	
2025-01-13 02:24:07.90	247.32	22.80	
2025-01-13 02:24:09.13	247.09	22.64	
2025-01-13 02:24:10.36	246.86	22.47	
2025-01-13 02:24:11.61	246.63	22.31	
2025-01-13 02:24:12.84	246.41	22.14	
2025-01-13 02:24:14.07	246.19	21.98	
2025-01-13 02:24:15.30	245.97	21.82	
2025-01-13 02:24:16.53	245.76	21.66	
2025-01-13 02:24:17.78	245.54	21.50	
2025-01-13 02:24:19.02	245.33	21.34	
2025-01-13 02:24:20.26	245.12	21.18	
2025-01-13 02:24:21.49	244.91	21.02	
2025-01-13 02:24:22.72	244.71	20.86	
2025-01-13 02:24:23.95	244.50	20.71	
2025-01-13 02:24:25.19	244.30	20.55	
2025-01-13 02:24:26.42	244.10	20.39	
2025-01-13 02:24:27.65	243.91	20.24	
2025-01-13 02:24:28.88	243.71	20.09	
2025-01-13 02:24:30.12	243.52	19.93	
2025-01-13 02:24:31.35	243.33	19.78	
2025-01-13 02:24:32.59	243.14	19.63	
2025-01-13 02:24:33.82	242.96	19.48	
2025-01-13 02:24:35.05	242.77	19.33	
2025-01-13 02:24:36.28	242.59	19.18	
2025-01-13 02:24:37.51	242.41	19.03	
2025-01-13 02:24:38.74	242.23	18.88	
2025-01-13 02:24:39.98	242.06	18.73	
2025-01-13 02:24:41.21	241.88	18.59	
2025-01-13 02:24:42.44	241.71	18.44	
2025-01-13 02:24:43.67	241.54	18.29	
2025-01-13 02:24:44.90	241.37	18.15	
2025-01-13 02:24:46.13	241.20	18.01	
2025-01-13 02:24:47.36	241.04	17.86	
2025-01-13 02:24:48.60	240.87	17.72	
2025-01-13 02:24:49.84	240.71	17.58	
2025-01-13 02:24:51.08	240.55	17.43	
2025-01-13 02:24:52.31	240.39	17.29	
2025-01-13 02:24:53.54	240.23	17.15	
2025-01-13 02:24:54.77	240.07	17.01	
2025-01-13 02:24:56.00	239.92	16.88	
2025-01-13 02:24:57.23	239.77	16.74	
2025-01-13 02:24:58.46	239.62	16.60	
2025-01-13 02:24:59.70	239.47	16.46	
2025-01-13 02:25:00.93	239.32	16.33	
2025-01-13 02:25:02.16	239.17	16.19	
2025-01-13 02:25:03.39	239.03	16.06	
2025-01-13 02:25:04.63	238.88	15.92	
2025-01-13 02:25:05.87	238.74	15.79	
2025-01-13 02:25:07.12	238.59	15.65	
2025-01-13 02:25:08.35	238.45	15.52	
2025-01-13 02:25:09.57	238.32	15.39	
2025-01-13 02:25:10.83	238.17	15.26	
2025-01-13 02:25:12.06	238.04	15.13	
2025-01-13 02:25:13.29	237.90	15.00	
2025-01-13 02:25:14.52	237.77	14.87	
2025-01-13 02:25:15.76	237.64	14.74	
2025-01-13 02:25:16.99	237.51	14.61	
2025-01-13 02:25:18.23	237.38	14.48	
2025-01-13 02:25:19.46	237.25	14.35	
2025-01-13 02:25:20.69	237.12	14.23	
2025-01-13 02:25:21.92	236.99	14.10	
2025-01-13 02:25:23.15	236.87	13.98	
2025-01-13 02:25:24.40	236.74	13.85	
2025-01-13 02:25:25.63	236.62	13.73	
2025-01-13 02:25:26.87	236.50	13.60	
2025-01-13 02:25:28.10	236.38	13.48	
2025-01-13 02:25:29.33	236.26	13.36	
2025-01-13 02:25:30.56	236.14	13.24	
2025-01-13 02:25:31.79	236.02	13.12	
2025-01-13 02:25:33.03	235.91	13.00	
2025-01-13 02:25:34.26	235.79	12.88	
2025-01-13 02:25:35.49	235.68	12.76	
2025-01-13 02:25:36.72	235.56	12.64	
2025-01-13 02:25:37.97	235.45	12.52	
2025-01-13 02:25:39.22	235.34	12.40	
2025-01-13 02:25:40.45	235.23	12.28	
2025-01-13 02:25:41.69	235.12	12.16	
2025-01-13 02:25:42.93	235.01	12.05	
2025-01-13 02:25:44.16	234.90	11.93	
2025-01-13 02:25:45.40	234.79	11.81	
2025-01-13 02:25:46.63	234.69	11.70	
2025-01-13 02:25:47.88	234.58	11.58	
2025-01-13 02:25:49.11	234.48	11.47	
2025-01-13 02:25:50.34	234.38	11.36	
2025-01-13 02:25:51.57	234.27	11.24	
2025-01-13 02:25:52.80	234.17	11.13	
2025-01-13 02:25:54.03	234.07	11.02	
2025-01-13 02:25:55.26	233.97	10.91	
2025-01-13 02:25:56.50	233.87	10.80	
2025-01-13 02:25:57.72	233.78	10.69	
2025-01-13 02:25:58.95	233.68	10.58	
2025-01-13 02:26:00.20	233.58	10.47	
2025-01-13 02:26:01.45	233.49	10.36	
2025-01-13 02:26:02.68	233.39	10.25	
2025-01-13 02:26:03.91	233.30	10.14	
2025-01-13 02:26:05.15	233.21	10.03	
2025-01-13 02:26:06.38	233.11	9.93	
2025-01-13 02:26:07.61	233.02	9.82	
2025-01-13 02:26:08.84	232.93	9.71	
2025-01-13 02:26:10.07	232.84	9.61	
2025-01-13 02:26:11.30	232.75	9.50	
2025-01-13 02:26:12.53	232.66	9.40	
2025-01-13 02:26:13.75	232.58	9.29	
2025-01-13 02:26:14.98	232.49	9.19	
2025-01-13 02:26:16.21	232.40	9.09	
2025-01-13 02:26:17.45	232.32	8.98	
2025-01-13 02:26:18.68	232.23	8.88	
2025-01-13 02:26:19.91	232.15	8.78	
2025-01-13 02:26:21.14	232.06	8.68	
2025-01-13 02:26:22.37	231.98	8.57	
2025-01-13 02:26:23.61	231.90	8.47	
2025-01-13 02:26:24.84	231.82	8.37	
2025-01-13 02:26:26.07	231.74	8.27	
2025-01-13 02:26:27.31	231.65	8.17	
2025-01-13 02:26:28.54	231.57	8.07	
2025-01-13 02:26:29.77	231.50	7.97	
2025-01-13 02:26:31.00	231.42	7.87	
2025-01-13 02:26:32.22	231.34	7.78	
2025-01-13 02:26:33.46	231.26	7.68	
2025-01-13 02:26:34.69	231.18	7.58	
2025-01-13 02:26:35.94	231.11	7.48	
2025-01-13 02:26:37.17	231.03	7.38	
2025-01-13 02:26:38.43	230.95	7.28	
2025-01-13 02:26:39.66	230.88	7.19	
2025-01-13 02:26:40.89	230.81	7.09	
2025-01-13 02:26:42.13	230.73	7.00	
2025-01-13 02:26:43.36	230.66	6.90	
2025-01-13 02:26:44.59	230.59	6.81	
2025-01-13 02:26:45.82	230.51	6.71	
2025-01-13 02:26:47.06	230.44	6.62	
2025-01-13 02:26:48.29	230.37	6.52	
2025-01-13 02:26:49.52	230.30	6.43	
2025-01-13 02:26:50.76	230.23	6.34	
2025-01-13 02:26:52.00	230.16	6.24	
2025-01-13 02:26:53.23	230.09	6.15	
2025-01-13 02:26:54.46	230.02	6.06	
2025-01-13 02:26:55.69	229.96	5.97	
2025-01-13 02:26:56.92	229.89	5.88	
2025-01-13 02:26:58.16	229.82	5.78	
2025-01-13 02:26:59.39	229.76	5.69	
2025-01-13 02:27:00.64	229.69	5.60	
2025-01-13 02:27:01.88	229.62	5.51	
2025-01-13 02:27:03.11	229.56	5.42	
2025-01-13 02:27:04.34	229.49	5.33	
2025-01-13 02:27:05.57	229.43	5.24	
2025-01-13 02:27:06.80	229.37	5.15	
2025-01-13 02:27:08.03	229.30	5.06	
2025-01-13 02:27:09.27	229.24	4.97	
2025-01-13 02:27:10.50	229.18	4.89	
2025-01-13 02:27:11.74	229.11	4.80	
2025-01-13 02:27:12.98	229.05	4.71	
2025-01-13 02:27:14.21	228.99	4.62	
2025-01-13 02:27:15.45	228.93	4.54	
2025-01-13 02:27:16.68	228.87	4.45	
2025-01-13 02:27:17.91	228.81	4.36	
2025-01-13 02:27:19.14	228.75	4.28	
2025-01-13 02:27:20.37	228.69	4.19	
2025-01-13 02:27:21.60	228.63	4.11	
2025-01-13 02:27:22.83	228.58	4.02	

#Closed at: 2025-01-13 02:27:23