passes_logs/2025/01/13/SPB_Silybum_02/SPB_Silybum_02__20250113_104322_SUOMI_NPP_rec.log

#Pass ID: 20250113_104322_SUOMI NPP
#Satellite: SUOMI NPP
#Configuration: NPP
#Start time: 2025-01-13 10:43:22

#Version: 2.0.20230423
#Station: SPB_Silybum_02
#Location: 30.233357 lon 59.946436 lat
#TLE: 1 37849U 11061A   25012.80531474  .00000146  00000+0  90276-4 0  9990
#TLE: 2 37849  98.7443 313.8217 0001772  44.3490 315.7828 14.19537186684607

#Time	Az	El	Level	Level2	SNR	BER	Gain	Gain2
2025-01-13 10:43:24.97	172.44	4.17	
2025-01-13 10:43:26.40	172.47	4.26	
2025-01-13 10:43:27.84	172.51	4.36	
2025-01-13 10:43:29.28	172.54	4.46	
2025-01-13 10:43:30.71	172.58	4.56	
2025-01-13 10:43:32.15	172.61	4.66	
2025-01-13 10:43:33.60	172.65	4.77	
2025-01-13 10:43:35.03	172.68	4.87	
2025-01-13 10:43:36.47	172.72	4.97	
2025-01-13 10:43:37.91	172.76	5.07	
2025-01-13 10:43:39.34	172.79	5.17	
2025-01-13 10:43:40.77	172.83	5.27	
2025-01-13 10:43:42.21	172.87	5.38	
2025-01-13 10:43:43.64	172.90	5.48	
2025-01-13 10:43:45.09	172.94	5.58	
2025-01-13 10:43:46.53	172.98	5.69	
2025-01-13 10:43:47.96	173.02	5.79	
2025-01-13 10:43:49.40	173.05	5.90	
2025-01-13 10:43:50.84	173.09	6.00	
2025-01-13 10:43:52.28	173.13	6.11	
2025-01-13 10:43:53.71	173.17	6.22	
2025-01-13 10:43:55.15	173.21	6.32	
2025-01-13 10:43:56.59	173.25	6.43	
2025-01-13 10:43:58.04	173.29	6.54	
2025-01-13 10:43:59.48	173.33	6.65	
2025-01-13 10:44:00.91	173.37	6.76	
2025-01-13 10:44:02.36	173.41	6.87	
2025-01-13 10:44:03.80	173.45	6.97	
2025-01-13 10:44:05.24	173.49	7.08	
2025-01-13 10:44:06.68	173.53	7.20	
2025-01-13 10:44:08.11	173.57	7.31	
2025-01-13 10:44:09.55	173.62	7.42	
2025-01-13 10:44:10.99	173.66	7.53	
2025-01-13 10:44:12.43	173.70	7.64	
2025-01-13 10:44:13.86	173.74	7.75	
2025-01-13 10:44:15.30	173.79	7.87	
2025-01-13 10:44:16.75	173.83	7.98	
2025-01-13 10:44:18.18	173.87	8.10	
2025-01-13 10:44:19.62	173.92	8.21	
2025-01-13 10:44:21.07	173.96	8.33	
2025-01-13 10:44:22.50	174.01	8.44	
2025-01-13 10:44:23.94	174.05	8.56	
2025-01-13 10:44:25.38	174.10	8.68	
2025-01-13 10:44:26.82	174.14	8.79	
2025-01-13 10:44:28.25	174.19	8.91	
2025-01-13 10:44:29.69	174.23	9.03	
2025-01-13 10:44:31.14	174.28	9.15	
2025-01-13 10:44:32.58	174.33	9.27	
2025-01-13 10:44:34.02	174.37	9.39	
2025-01-13 10:44:35.46	174.42	9.51	
2025-01-13 10:44:36.89	174.47	9.63	
2025-01-13 10:44:38.33	174.52	9.75	
2025-01-13 10:44:39.77	174.57	9.88	
2025-01-13 10:44:41.20	174.62	10.00	
2025-01-13 10:44:42.64	174.66	10.12	
2025-01-13 10:44:44.07	174.71	10.25	
2025-01-13 10:44:45.51	174.76	10.37	
2025-01-13 10:44:46.94	174.81	10.50	
2025-01-13 10:44:48.38	174.87	10.62	
2025-01-13 10:44:49.82	174.92	10.75	
2025-01-13 10:44:51.25	174.97	10.88	
2025-01-13 10:44:52.69	175.02	11.00	
2025-01-13 10:44:54.12	175.07	11.13	
2025-01-13 10:44:55.56	175.13	11.26	
2025-01-13 10:44:56.99	175.18	11.39	
2025-01-13 10:44:58.43	175.23	11.52	
2025-01-13 10:44:59.87	175.29	11.65	
2025-01-13 10:45:01.30	175.34	11.79	
2025-01-13 10:45:02.74	175.40	11.92	
2025-01-13 10:45:04.17	175.45	12.05	
2025-01-13 10:45:05.60	175.51	12.18	
2025-01-13 10:45:07.04	175.57	12.32	
2025-01-13 10:45:08.49	175.62	12.46	
2025-01-13 10:45:09.92	175.68	12.59	
2025-01-13 10:45:11.36	175.74	12.73	
2025-01-13 10:45:12.80	175.80	12.87	
2025-01-13 10:45:14.24	175.86	13.01	
2025-01-13 10:45:15.67	175.92	13.15	
2025-01-13 10:45:17.11	175.98	13.29	
2025-01-13 10:45:18.55	176.04	13.43	
2025-01-13 10:45:19.98	176.10	13.57	
2025-01-13 10:45:21.43	176.16	13.71	
2025-01-13 10:45:22.86	176.22	13.85	
2025-01-13 10:45:24.30	176.28	14.00	
2025-01-13 10:45:25.73	176.35	14.14	
2025-01-13 10:45:27.16	176.41	14.29	
2025-01-13 10:45:28.60	176.48	14.44	
2025-01-13 10:45:30.04	176.54	14.58	
2025-01-13 10:45:31.48	176.61	14.73	
2025-01-13 10:45:32.91	176.67	14.88	
2025-01-13 10:45:34.35	176.74	15.03	
2025-01-13 10:45:35.80	176.81	15.18	
2025-01-13 10:45:37.23	176.88	15.34	
2025-01-13 10:45:38.67	176.95	15.49	
2025-01-13 10:45:40.10	177.01	15.64	
2025-01-13 10:45:41.53	177.08	15.80	
2025-01-13 10:45:42.98	177.16	15.95	
2025-01-13 10:45:44.42	177.23	16.11	
2025-01-13 10:45:45.86	177.30	16.27	
2025-01-13 10:45:47.31	177.37	16.43	
2025-01-13 10:45:48.74	177.45	16.59	
2025-01-13 10:45:50.17	177.52	16.75	
2025-01-13 10:45:51.61	177.60	16.91	
2025-01-13 10:45:53.05	177.67	17.07	
2025-01-13 10:45:54.50	177.75	17.24	
2025-01-13 10:45:55.93	177.83	17.40	
2025-01-13 10:45:57.37	177.91	17.57	
2025-01-13 10:45:58.81	177.99	17.74	
2025-01-13 10:46:00.26	178.07	17.91	
2025-01-13 10:46:01.69	178.15	18.07	
2025-01-13 10:46:03.14	178.23	18.25	
2025-01-13 10:46:04.58	178.31	18.42	
2025-01-13 10:46:06.01	178.40	18.59	
2025-01-13 10:46:07.45	178.48	18.76	
2025-01-13 10:46:08.91	178.57	18.94	
2025-01-13 10:46:10.36	178.65	19.12	
2025-01-13 10:46:11.80	178.74	19.30	
2025-01-13 10:46:13.23	178.83	19.47	
2025-01-13 10:46:14.68	178.92	19.66	
2025-01-13 10:46:16.12	179.01	19.84	
2025-01-13 10:46:17.55	179.10	20.02	
2025-01-13 10:46:19.00	179.19	20.20	
2025-01-13 10:46:20.44	179.29	20.39	
2025-01-13 10:46:21.87	179.38	20.58	
2025-01-13 10:46:23.30	179.47	20.76	
2025-01-13 10:46:24.74	179.57	20.95	
2025-01-13 10:46:26.18	179.67	21.14	
2025-01-13 10:46:27.61	179.77	21.33	
2025-01-13 10:46:29.05	179.87	21.53	
2025-01-13 10:46:30.48	179.97	21.72	
2025-01-13 10:46:31.94	180.07	21.92	
2025-01-13 10:46:33.37	180.18	22.12	
2025-01-13 10:46:34.82	180.28	22.32	
2025-01-13 10:46:36.26	180.39	22.52	
2025-01-13 10:46:37.70	180.50	22.72	
2025-01-13 10:46:39.13	180.60	22.92	
2025-01-13 10:46:40.58	180.71	23.13	
2025-01-13 10:46:42.02	180.83	23.34	
2025-01-13 10:46:43.45	180.94	23.54	
2025-01-13 10:46:44.89	181.05	23.75	
2025-01-13 10:46:46.32	181.17	23.96	
2025-01-13 10:46:47.78	181.29	24.18	
2025-01-13 10:46:49.21	181.41	24.39	
2025-01-13 10:46:50.66	181.53	24.61	
2025-01-13 10:46:52.09	181.65	24.83	
2025-01-13 10:46:53.53	181.77	25.05	
2025-01-13 10:46:54.96	181.90	25.27	
2025-01-13 10:46:56.40	182.03	25.49	
2025-01-13 10:46:57.83	182.15	25.71	
2025-01-13 10:46:59.27	182.29	25.94	
2025-01-13 10:47:00.70	182.42	26.17	
2025-01-13 10:47:02.14	182.55	26.40	
2025-01-13 10:47:03.57	182.69	26.63	
2025-01-13 10:47:05.02	182.83	26.86	
2025-01-13 10:47:06.47	182.97	27.10	
2025-01-13 10:47:07.91	183.11	27.34	
2025-01-13 10:47:09.34	183.25	27.58	
2025-01-13 10:47:10.78	183.40	27.82	
2025-01-13 10:47:12.22	183.55	28.06	
2025-01-13 10:47:13.65	183.70	28.30	
2025-01-13 10:47:15.09	183.85	28.55	
2025-01-13 10:47:16.53	184.01	28.80	
2025-01-13 10:47:17.97	184.16	29.05	
2025-01-13 10:47:19.42	184.33	29.31	
2025-01-13 10:47:20.87	184.49	29.56	
2025-01-13 10:47:22.31	184.65	29.82	
2025-01-13 10:47:23.74	184.82	30.08	
2025-01-13 10:47:25.18	184.99	30.34	
2025-01-13 10:47:26.62	185.16	30.61	
2025-01-13 10:47:28.06	185.34	30.87	
2025-01-13 10:47:29.50	185.52	31.14	
2025-01-13 10:47:30.94	185.70	31.41	
2025-01-13 10:47:32.37	185.88	31.68	
2025-01-13 10:47:33.81	186.07	31.96	
2025-01-13 10:47:35.24	186.26	32.23	
2025-01-13 10:47:36.68	186.45	32.51	
2025-01-13 10:47:38.11	186.65	32.79	
2025-01-13 10:47:39.56	186.85	33.08	
2025-01-13 10:47:41.00	187.05	33.36	
2025-01-13 10:47:42.43	187.26	33.65	
2025-01-13 10:47:43.87	187.47	33.94	
2025-01-13 10:47:45.30	187.69	34.23	
2025-01-13 10:47:46.75	187.91	34.53	
2025-01-13 10:47:48.19	188.13	34.83	
2025-01-13 10:47:49.63	188.35	35.13	
2025-01-13 10:47:51.06	188.58	35.43	
2025-01-13 10:47:52.50	188.82	35.73	
2025-01-13 10:47:53.94	189.06	36.04	
2025-01-13 10:47:55.37	189.30	36.35	
2025-01-13 10:47:56.82	189.55	36.66	
2025-01-13 10:47:58.26	189.80	36.98	
2025-01-13 10:47:59.70	190.06	37.29	
2025-01-13 10:48:01.13	190.32	37.61	
2025-01-13 10:48:02.58	190.59	37.93	
2025-01-13 10:48:04.01	190.86	38.26	
2025-01-13 10:48:05.47	191.14	38.59	
2025-01-13 10:48:06.90	191.42	38.91	
2025-01-13 10:48:08.34	191.71	39.25	
2025-01-13 10:48:09.78	192.01	39.58	
2025-01-13 10:48:11.22	192.31	39.92	
2025-01-13 10:48:12.66	192.62	40.26	
2025-01-13 10:48:14.10	192.93	40.60	
2025-01-13 10:48:15.53	193.25	40.94	
2025-01-13 10:48:16.97	193.58	41.28	
2025-01-13 10:48:18.40	193.91	41.63	
2025-01-13 10:48:19.83	194.25	41.98	
2025-01-13 10:48:21.27	194.60	42.33	
2025-01-13 10:48:22.71	194.95	42.68	
2025-01-13 10:48:24.14	195.31	43.04	
2025-01-13 10:48:25.57	195.68	43.39	
2025-01-13 10:48:27.01	196.06	43.75	
2025-01-13 10:48:28.45	196.45	44.12	
2025-01-13 10:48:29.89	196.85	44.48	
2025-01-13 10:48:31.32	197.25	44.85	
2025-01-13 10:48:32.76	197.67	45.21	
2025-01-13 10:48:34.20	198.10	45.59	
2025-01-13 10:48:35.63	198.53	45.95	
2025-01-13 10:48:37.07	198.97	46.33	
2025-01-13 10:48:38.51	199.43	46.70	
2025-01-13 10:48:39.95	199.90	47.08	
2025-01-13 10:48:41.40	200.38	47.46	
2025-01-13 10:48:42.84	200.87	47.84	
2025-01-13 10:48:44.27	201.37	48.22	
2025-01-13 10:48:45.72	201.89	48.60	
2025-01-13 10:48:47.16	202.41	48.98	
2025-01-13 10:48:48.61	202.96	49.37	
2025-01-13 10:48:50.05	203.51	49.75	
2025-01-13 10:48:51.48	204.08	50.13	
2025-01-13 10:48:52.92	204.66	50.51	
2025-01-13 10:48:54.36	205.26	50.90	
2025-01-13 10:48:55.79	205.86	51.28	
2025-01-13 10:48:57.22	206.49	51.66	
2025-01-13 10:48:58.66	207.13	52.04	
2025-01-13 10:49:00.09	207.79	52.42	
2025-01-13 10:49:01.53	208.46	52.80	
2025-01-13 10:49:02.96	209.15	53.18	
2025-01-13 10:49:04.40	209.87	53.56	
2025-01-13 10:49:05.83	210.59	53.93	
2025-01-13 10:49:07.27	211.34	54.30	
2025-01-13 10:49:08.70	212.11	54.67	
2025-01-13 10:49:10.14	212.90	55.04	
2025-01-13 10:49:11.57	213.70	55.41	
2025-01-13 10:49:13.02	214.54	55.77	
2025-01-13 10:49:14.46	215.40	56.13	
2025-01-13 10:49:15.90	216.27	56.49	
2025-01-13 10:49:17.33	217.16	56.84	
2025-01-13 10:49:18.77	218.08	57.19	
2025-01-13 10:49:20.20	219.02	57.53	
2025-01-13 10:49:21.65	220.00	57.87	
2025-01-13 10:49:23.09	220.99	58.20	
2025-01-13 10:49:24.53	222.00	58.52	
2025-01-13 10:49:25.96	223.04	58.84	
2025-01-13 10:49:27.41	224.11	59.15	
2025-01-13 10:49:28.85	225.20	59.45	
2025-01-13 10:49:30.31	226.34	59.75	
2025-01-13 10:49:31.74	227.47	60.04	
2025-01-13 10:49:33.18	228.64	60.31	
2025-01-13 10:49:34.62	229.83	60.58	
2025-01-13 10:49:36.05	231.04	60.84	
2025-01-13 10:49:37.48	232.27	61.08	
2025-01-13 10:49:38.92	233.53	61.32	
2025-01-13 10:49:40.38	234.84	61.55	
2025-01-13 10:49:41.83	236.16	61.76	
2025-01-13 10:49:43.26	237.48	61.96	
2025-01-13 10:49:44.70	238.84	62.15	
2025-01-13 10:49:46.15	240.22	62.32	
2025-01-13 10:49:47.59	241.61	62.48	
2025-01-13 10:49:49.02	243.01	62.63	
2025-01-13 10:49:50.45	244.43	62.76	
2025-01-13 10:49:51.89	245.87	62.88	
2025-01-13 10:49:53.33	247.33	62.98	
2025-01-13 10:49:54.76	248.78	63.07	
2025-01-13 10:49:56.20	250.26	63.14	
2025-01-13 10:49:57.63	251.74	63.20	
2025-01-13 10:49:59.07	253.23	63.24	
2025-01-13 10:50:00.50	254.71	63.26	
2025-01-13 10:50:01.94	256.21	63.27	
2025-01-13 10:50:03.38	257.70	63.27	
2025-01-13 10:50:04.82	259.20	63.24	
2025-01-13 10:50:06.25	260.68	63.20	
2025-01-13 10:50:07.70	262.17	63.15	
2025-01-13 10:50:09.14	263.65	63.08	
2025-01-13 10:50:10.57	265.11	62.99	
2025-01-13 10:50:12.01	266.56	62.89	
2025-01-13 10:50:13.45	268.01	62.78	
2025-01-13 10:50:14.88	269.42	62.65	
2025-01-13 10:50:16.32	270.84	62.50	
2025-01-13 10:50:17.76	272.23	62.35	
2025-01-13 10:50:19.19	273.60	62.17	
2025-01-13 10:50:20.64	274.96	61.99	
2025-01-13 10:50:22.08	276.30	61.79	
2025-01-13 10:50:23.51	277.60	61.58	
2025-01-13 10:50:24.96	278.90	61.36	
2025-01-13 10:50:26.39	280.16	61.12	
2025-01-13 10:50:27.82	281.39	60.88	
2025-01-13 10:50:29.26	282.61	60.62	
2025-01-13 10:50:30.70	283.80	60.36	
2025-01-13 10:50:32.13	284.96	60.09	
2025-01-13 10:50:33.56	286.10	59.80	
2025-01-13 10:50:35.00	287.22	59.51	
2025-01-13 10:50:36.45	288.32	59.21	
2025-01-13 10:50:37.90	289.40	58.90	
2025-01-13 10:50:39.34	290.44	58.58	
2025-01-13 10:50:40.79	291.47	58.26	
2025-01-13 10:50:42.23	292.46	57.93	
2025-01-13 10:50:43.66	293.42	57.60	
2025-01-13 10:50:45.10	294.37	57.26	
2025-01-13 10:50:46.55	295.30	56.91	
2025-01-13 10:50:47.98	296.19	56.56	
2025-01-13 10:50:49.42	297.07	56.21	
2025-01-13 10:50:50.86	297.93	55.85	
2025-01-13 10:50:52.29	298.76	55.49	
2025-01-13 10:50:53.72	299.56	55.13	
2025-01-13 10:50:55.16	300.35	54.76	
2025-01-13 10:50:56.61	301.13	54.39	
2025-01-13 10:50:58.06	301.89	54.01	
2025-01-13 10:50:59.50	302.62	53.63	
2025-01-13 10:51:00.95	303.34	53.26	
2025-01-13 10:51:02.38	304.03	52.88	
2025-01-13 10:51:03.82	304.71	52.50	
2025-01-13 10:51:05.26	305.38	52.12	
2025-01-13 10:51:06.69	306.02	51.74	
2025-01-13 10:51:08.13	306.64	51.36	
2025-01-13 10:51:09.55	307.25	50.98	
2025-01-13 10:51:10.99	307.85	50.60	
2025-01-13 10:51:12.43	308.43	50.22	
2025-01-13 10:51:13.87	309.00	49.84	
2025-01-13 10:51:15.30	309.55	49.46	
2025-01-13 10:51:16.74	310.09	49.08	
2025-01-13 10:51:18.21	310.63	48.69	
2025-01-13 10:51:19.64	311.14	48.31	
2025-01-13 10:51:21.07	311.64	47.94	
2025-01-13 10:51:22.51	312.14	47.56	
2025-01-13 10:51:23.95	312.61	47.19	
2025-01-13 10:51:25.38	313.08	46.81	
2025-01-13 10:51:26.82	313.54	46.44	
2025-01-13 10:51:28.25	313.98	46.07	
2025-01-13 10:51:29.69	314.42	45.70	
2025-01-13 10:51:31.13	314.85	45.33	
2025-01-13 10:51:32.56	315.26	44.97	
2025-01-13 10:51:33.99	315.66	44.60	
2025-01-13 10:51:35.43	316.06	44.24	
2025-01-13 10:51:36.86	316.45	43.88	
2025-01-13 10:51:38.30	316.83	43.52	
2025-01-13 10:51:39.73	317.20	43.17	
2025-01-13 10:51:41.17	317.57	42.81	
2025-01-13 10:51:42.60	317.92	42.46	
2025-01-13 10:51:44.04	318.27	42.11	
2025-01-13 10:51:45.48	318.61	41.76	
2025-01-13 10:51:46.91	318.95	41.42	
2025-01-13 10:51:48.34	319.27	41.07	
2025-01-13 10:51:49.78	319.59	40.73	
2025-01-13 10:51:51.22	319.91	40.39	
2025-01-13 10:51:52.65	320.22	40.06	
2025-01-13 10:51:54.09	320.52	39.72	
2025-01-13 10:51:55.52	320.81	39.39	
2025-01-13 10:51:56.95	321.10	39.06	
2025-01-13 10:51:58.39	321.39	38.74	
2025-01-13 10:51:59.82	321.66	38.41	
2025-01-13 10:52:01.26	321.94	38.09	
2025-01-13 10:52:02.69	322.20	37.77	
2025-01-13 10:52:04.13	322.47	37.45	
2025-01-13 10:52:05.58	322.73	37.13	
2025-01-13 10:52:07.02	322.98	36.82	
2025-01-13 10:52:08.45	323.23	36.51	
2025-01-13 10:52:09.89	323.47	36.20	
2025-01-13 10:52:11.32	323.71	35.90	
2025-01-13 10:52:12.76	323.95	35.59	
2025-01-13 10:52:14.19	324.18	35.29	
2025-01-13 10:52:15.63	324.40	34.99	
2025-01-13 10:52:17.06	324.63	34.70	
2025-01-13 10:52:18.50	324.85	34.40	
2025-01-13 10:52:19.93	325.06	34.11	
2025-01-13 10:52:21.38	325.27	33.82	
2025-01-13 10:52:22.82	325.48	33.54	
2025-01-13 10:52:24.25	325.69	33.25	
2025-01-13 10:52:25.69	325.89	32.97	
2025-01-13 10:52:27.13	326.09	32.69	
2025-01-13 10:52:28.56	326.28	32.41	
2025-01-13 10:52:30.00	326.47	32.13	
2025-01-13 10:52:31.43	326.66	31.86	
2025-01-13 10:52:32.87	326.84	31.59	
2025-01-13 10:52:34.30	327.02	31.32	
2025-01-13 10:52:35.74	327.20	31.06	
2025-01-13 10:52:37.18	327.38	30.79	
2025-01-13 10:52:38.62	327.56	30.53	
2025-01-13 10:52:40.06	327.73	30.27	
2025-01-13 10:52:41.49	327.89	30.01	
2025-01-13 10:52:42.94	328.06	29.75	
2025-01-13 10:52:44.38	328.22	29.50	
2025-01-13 10:52:45.81	328.38	29.24	
2025-01-13 10:52:47.25	328.54	28.99	
2025-01-13 10:52:48.70	328.70	28.74	
2025-01-13 10:52:50.14	328.86	28.50	
2025-01-13 10:52:51.57	329.01	28.25	
2025-01-13 10:52:53.00	329.15	28.01	
2025-01-13 10:52:54.44	329.30	27.77	
2025-01-13 10:52:55.88	329.45	27.53	
2025-01-13 10:52:57.32	329.59	27.30	
2025-01-13 10:52:58.77	329.73	27.06	
2025-01-13 10:53:00.22	329.87	26.82	
2025-01-13 10:53:01.67	330.01	26.59	
2025-01-13 10:53:03.10	330.15	26.36	
2025-01-13 10:53:04.56	330.28	26.13	
2025-01-13 10:53:06.00	330.41	25.90	
2025-01-13 10:53:07.44	330.54	25.68	
2025-01-13 10:53:08.88	330.67	25.46	
2025-01-13 10:53:10.32	330.80	25.24	
2025-01-13 10:53:11.75	330.92	25.02	
2025-01-13 10:53:13.19	331.05	24.80	
2025-01-13 10:53:14.63	331.17	24.59	
2025-01-13 10:53:16.06	331.29	24.37	
2025-01-13 10:53:17.49	331.40	24.16	
2025-01-13 10:53:18.93	331.52	23.95	
2025-01-13 10:53:20.36	331.64	23.74	
2025-01-13 10:53:21.80	331.75	23.54	
2025-01-13 10:53:23.25	331.86	23.33	
2025-01-13 10:53:24.69	331.98	23.12	
2025-01-13 10:53:26.13	332.09	22.92	
2025-01-13 10:53:27.58	332.20	22.72	
2025-01-13 10:53:29.02	332.30	22.52	
2025-01-13 10:53:30.45	332.41	22.32	
2025-01-13 10:53:31.89	332.51	22.12	
2025-01-13 10:53:33.33	332.62	21.93	
2025-01-13 10:53:34.76	332.72	21.73	
2025-01-13 10:53:36.19	332.82	21.54	
2025-01-13 10:53:37.64	332.92	21.35	
2025-01-13 10:53:39.11	333.02	21.15	
2025-01-13 10:53:40.55	333.12	20.97	
2025-01-13 10:53:41.98	333.21	20.78	
2025-01-13 10:53:43.41	333.31	20.59	
2025-01-13 10:53:44.85	333.40	20.41	
2025-01-13 10:53:46.28	333.50	20.23	
2025-01-13 10:53:47.72	333.59	20.04	
2025-01-13 10:53:49.16	333.68	19.86	
2025-01-13 10:53:50.59	333.77	19.68	
2025-01-13 10:53:52.03	333.86	19.51	
2025-01-13 10:53:53.46	333.95	19.33	
2025-01-13 10:53:54.90	334.03	19.15	
2025-01-13 10:53:56.33	334.12	18.98	
2025-01-13 10:53:57.75	334.20	18.81	
2025-01-13 10:53:59.20	334.29	18.63	
2025-01-13 10:54:00.64	334.37	18.46	
2025-01-13 10:54:02.08	334.46	18.29	
2025-01-13 10:54:03.51	334.54	18.12	
2025-01-13 10:54:04.95	334.62	17.96	
2025-01-13 10:54:06.40	334.70	17.79	
2025-01-13 10:54:07.84	334.78	17.62	
2025-01-13 10:54:09.29	334.86	17.46	
2025-01-13 10:54:10.73	334.94	17.29	
2025-01-13 10:54:12.16	335.01	17.13	
2025-01-13 10:54:13.60	335.09	16.97	
2025-01-13 10:54:15.04	335.17	16.81	
2025-01-13 10:54:16.47	335.24	16.65	
2025-01-13 10:54:17.91	335.32	16.49	
2025-01-13 10:54:19.34	335.39	16.33	
2025-01-13 10:54:20.78	335.46	16.18	
2025-01-13 10:54:22.22	335.53	16.02	
2025-01-13 10:54:23.65	335.60	15.87	
2025-01-13 10:54:25.09	335.68	15.71	
2025-01-13 10:54:26.52	335.75	15.56	
2025-01-13 10:54:27.96	335.81	15.41	
2025-01-13 10:54:29.40	335.88	15.26	
2025-01-13 10:54:30.84	335.95	15.11	
2025-01-13 10:54:32.27	336.02	14.96	
2025-01-13 10:54:33.71	336.09	14.81	
2025-01-13 10:54:35.14	336.15	14.67	
2025-01-13 10:54:36.58	336.22	14.52	
2025-01-13 10:54:38.03	336.28	14.37	
2025-01-13 10:54:39.46	336.35	14.23	
2025-01-13 10:54:40.89	336.41	14.08	
2025-01-13 10:54:42.33	336.48	13.94	
2025-01-13 10:54:43.77	336.54	13.80	
2025-01-13 10:54:45.21	336.60	13.66	
2025-01-13 10:54:46.65	336.66	13.52	
2025-01-13 10:54:48.08	336.72	13.38	
2025-01-13 10:54:49.53	336.79	13.24	
2025-01-13 10:54:50.97	336.85	13.10	
2025-01-13 10:54:52.40	336.91	12.96	
2025-01-13 10:54:53.84	336.97	12.82	
2025-01-13 10:54:55.28	337.02	12.69	
2025-01-13 10:54:56.71	337.08	12.55	
2025-01-13 10:54:58.16	337.14	12.42	
2025-01-13 10:54:59.60	337.20	12.28	
2025-01-13 10:55:01.04	337.26	12.15	
2025-01-13 10:55:02.50	337.31	12.01	
2025-01-13 10:55:03.94	337.37	11.88	
2025-01-13 10:55:05.37	337.42	11.75	
2025-01-13 10:55:06.80	337.48	11.62	
2025-01-13 10:55:08.24	337.53	11.49	
2025-01-13 10:55:09.67	337.59	11.36	
2025-01-13 10:55:11.11	337.64	11.24	
2025-01-13 10:55:12.55	337.70	11.11	
2025-01-13 10:55:13.99	337.75	10.98	
2025-01-13 10:55:15.44	337.80	10.85	
2025-01-13 10:55:16.88	337.85	10.73	
2025-01-13 10:55:18.33	337.91	10.60	
2025-01-13 10:55:19.77	337.96	10.48	
2025-01-13 10:55:21.20	338.01	10.35	
2025-01-13 10:55:22.64	338.06	10.23	
2025-01-13 10:55:24.07	338.11	10.11	
2025-01-13 10:55:25.51	338.16	9.98	
2025-01-13 10:55:26.94	338.21	9.86	
2025-01-13 10:55:28.38	338.26	9.74	
2025-01-13 10:55:29.83	338.31	9.62	
2025-01-13 10:55:31.26	338.36	9.50	
2025-01-13 10:55:32.70	338.41	9.38	
2025-01-13 10:55:34.14	338.45	9.26	
2025-01-13 10:55:35.58	338.50	9.14	
2025-01-13 10:55:37.01	338.55	9.03	
2025-01-13 10:55:38.45	338.59	8.91	
2025-01-13 10:55:39.89	338.64	8.79	
2025-01-13 10:55:41.34	338.69	8.68	
2025-01-13 10:55:42.77	338.73	8.56	
2025-01-13 10:55:44.21	338.78	8.45	
2025-01-13 10:55:45.65	338.82	8.33	
2025-01-13 10:55:47.09	338.87	8.22	
2025-01-13 10:55:48.53	338.91	8.10	
2025-01-13 10:55:49.97	338.96	7.99	
2025-01-13 10:55:51.42	339.00	7.88	
2025-01-13 10:55:52.85	339.05	7.77	
2025-01-13 10:55:54.28	339.09	7.65	
2025-01-13 10:55:55.73	339.13	7.54	
2025-01-13 10:55:57.18	339.18	7.43	
2025-01-13 10:55:58.62	339.22	7.32	
2025-01-13 10:56:00.05	339.26	7.21	
2025-01-13 10:56:01.49	339.31	7.10	
2025-01-13 10:56:02.93	339.35	6.99	
2025-01-13 10:56:04.36	339.39	6.89	
2025-01-13 10:56:05.80	339.43	6.78	
2025-01-13 10:56:07.24	339.47	6.67	
2025-01-13 10:56:08.67	339.51	6.56	
2025-01-13 10:56:10.11	339.55	6.46	
2025-01-13 10:56:11.55	339.59	6.35	
2025-01-13 10:56:12.98	339.63	6.25	
2025-01-13 10:56:14.42	339.67	6.14	
2025-01-13 10:56:15.87	339.71	6.03	
2025-01-13 10:56:17.30	339.75	5.93	
2025-01-13 10:56:18.75	339.79	5.83	
2025-01-13 10:56:20.20	339.83	5.72	
2025-01-13 10:56:21.64	339.87	5.62	
2025-01-13 10:56:23.08	339.91	5.51	
2025-01-13 10:56:24.51	339.95	5.41	
2025-01-13 10:56:25.94	339.98	5.31	
2025-01-13 10:56:27.37	340.02	5.21	
2025-01-13 10:56:28.81	340.06	5.11	
2025-01-13 10:56:30.24	340.10	5.01	
2025-01-13 10:56:31.68	340.13	4.91	
2025-01-13 10:56:33.12	340.17	4.81	
2025-01-13 10:56:34.55	340.21	4.71	
2025-01-13 10:56:35.98	340.24	4.61	
2025-01-13 10:56:37.42	340.28	4.51	
2025-01-13 10:56:38.86	340.32	4.41	
2025-01-13 10:56:40.30	340.35	4.31	
2025-01-13 10:56:41.73	340.39	4.22	
2025-01-13 10:56:43.17	340.42	4.12	
2025-01-13 10:56:44.61	340.46	4.02	

#Closed at: 2025-01-13 10:56:45