passes_logs/2025/01/13/SPB_Silybum_02/SPB_Silybum_02__20250113_084035_AQUA_rec.log

#Pass ID: 20250113_084035_AQUA
#Satellite: AQUA
#Configuration: AQUA
#Start time: 2025-01-13 08:40:35

#Version: 2.0.20230423
#Station: SPB_Silybum_02
#Location: 30.233357 lon 59.946436 lat
#TLE: 1 27424U 02022A   25012.80860775  .00001720  00000+0  36312-3 0  9993
#TLE: 2 27424  98.3585 329.4528 0001624 113.6325 279.3978 14.60673868207302

#Time	Az	El	Level	Level2	SNR	BER	Gain	Gain2
2025-01-13 08:40:37.61	76.13	4.11	
2025-01-13 08:40:38.43	76.03	4.15	
2025-01-13 08:40:39.25	75.93	4.19	
2025-01-13 08:40:40.07	75.82	4.22	
2025-01-13 08:40:40.89	75.72	4.26	
2025-01-13 08:40:41.72	75.62	4.30	
2025-01-13 08:40:42.54	75.51	4.34	
2025-01-13 08:40:43.36	75.41	4.38	
2025-01-13 08:40:44.18	75.31	4.42	
2025-01-13 08:40:45.00	75.20	4.46	
2025-01-13 08:40:45.82	75.10	4.50	
2025-01-13 08:40:46.65	74.99	4.54	
2025-01-13 08:40:47.46	74.89	4.58	
2025-01-13 08:40:48.28	74.78	4.61	
2025-01-13 08:40:49.11	74.68	4.65	
2025-01-13 08:40:49.92	74.57	4.69	
2025-01-13 08:40:50.74	74.47	4.73	
2025-01-13 08:40:51.57	74.36	4.77	
2025-01-13 08:40:52.39	74.25	4.81	
2025-01-13 08:40:53.21	74.14	4.85	
2025-01-13 08:40:54.03	74.04	4.89	
2025-01-13 08:40:54.85	73.93	4.93	
2025-01-13 08:40:55.67	73.82	4.96	
2025-01-13 08:40:56.49	73.71	5.00	
2025-01-13 08:40:57.31	73.60	5.04	
2025-01-13 08:40:58.13	73.49	5.08	
2025-01-13 08:40:58.96	73.38	5.12	
2025-01-13 08:40:59.78	73.27	5.16	
2025-01-13 08:41:00.60	73.16	5.20	
2025-01-13 08:41:01.42	73.05	5.23	
2025-01-13 08:41:02.24	72.94	5.27	
2025-01-13 08:41:03.08	72.83	5.31	
2025-01-13 08:41:03.90	72.72	5.35	
2025-01-13 08:41:04.72	72.61	5.39	
2025-01-13 08:41:05.54	72.49	5.43	
2025-01-13 08:41:06.36	72.38	5.47	
2025-01-13 08:41:07.18	72.27	5.50	
2025-01-13 08:41:08.02	72.15	5.54	
2025-01-13 08:41:08.84	72.04	5.58	
2025-01-13 08:41:09.66	71.93	5.62	
2025-01-13 08:41:10.49	71.81	5.66	
2025-01-13 08:41:11.31	71.70	5.70	
2025-01-13 08:41:12.14	71.58	5.73	
2025-01-13 08:41:12.96	71.47	5.77	
2025-01-13 08:41:13.80	71.35	5.81	
2025-01-13 08:41:14.63	71.23	5.85	
2025-01-13 08:41:15.45	71.12	5.89	
2025-01-13 08:41:16.27	71.00	5.93	
2025-01-13 08:41:17.09	70.88	5.96	
2025-01-13 08:41:17.91	70.77	6.00	
2025-01-13 08:41:18.74	70.65	6.04	
2025-01-13 08:41:19.55	70.53	6.08	
2025-01-13 08:41:20.38	70.41	6.11	
2025-01-13 08:41:21.20	70.29	6.15	
2025-01-13 08:41:22.02	70.17	6.19	
2025-01-13 08:41:22.84	70.06	6.23	
2025-01-13 08:41:23.66	69.94	6.26	
2025-01-13 08:41:24.50	69.81	6.30	
2025-01-13 08:41:25.32	69.69	6.34	
2025-01-13 08:41:26.14	69.57	6.38	
2025-01-13 08:41:26.96	69.45	6.41	
2025-01-13 08:41:27.78	69.33	6.45	
2025-01-13 08:41:28.60	69.21	6.49	
2025-01-13 08:41:29.42	69.09	6.53	
2025-01-13 08:41:30.24	68.97	6.56	
2025-01-13 08:41:31.06	68.84	6.60	
2025-01-13 08:41:31.90	68.72	6.64	
2025-01-13 08:41:32.72	68.60	6.67	
2025-01-13 08:41:33.54	68.47	6.71	
2025-01-13 08:41:34.37	68.35	6.75	
2025-01-13 08:41:35.19	68.22	6.78	
2025-01-13 08:41:36.01	68.10	6.82	
2025-01-13 08:41:36.82	67.98	6.86	
2025-01-13 08:41:37.66	67.85	6.89	
2025-01-13 08:41:38.48	67.72	6.93	
2025-01-13 08:41:39.30	67.60	6.97	
2025-01-13 08:41:40.12	67.47	7.00	
2025-01-13 08:41:40.94	67.34	7.04	
2025-01-13 08:41:41.76	67.22	7.08	
2025-01-13 08:41:42.58	67.09	7.11	
2025-01-13 08:41:43.40	66.96	7.15	
2025-01-13 08:41:44.22	66.83	7.18	
2025-01-13 08:41:45.04	66.71	7.22	
2025-01-13 08:41:45.86	66.58	7.26	
2025-01-13 08:41:46.69	66.45	7.29	
2025-01-13 08:41:47.51	66.32	7.33	
2025-01-13 08:41:48.33	66.19	7.36	
2025-01-13 08:41:49.15	66.06	7.40	
2025-01-13 08:41:49.97	65.93	7.43	
2025-01-13 08:41:50.79	65.80	7.47	
2025-01-13 08:41:51.61	65.67	7.50	
2025-01-13 08:41:52.44	65.53	7.54	
2025-01-13 08:41:53.26	65.40	7.58	
2025-01-13 08:41:54.08	65.27	7.61	
2025-01-13 08:41:54.90	65.14	7.65	
2025-01-13 08:41:55.72	65.00	7.68	
2025-01-13 08:41:56.54	64.87	7.71	
2025-01-13 08:41:57.36	64.74	7.75	
2025-01-13 08:41:58.18	64.60	7.78	
2025-01-13 08:41:59.00	64.47	7.82	
2025-01-13 08:41:59.82	64.33	7.85	
2025-01-13 08:42:00.64	64.20	7.89	
2025-01-13 08:42:01.46	64.06	7.92	
2025-01-13 08:42:02.28	63.93	7.96	
2025-01-13 08:42:03.10	63.79	7.99	
2025-01-13 08:42:03.92	63.66	8.02	
2025-01-13 08:42:04.75	63.52	8.06	
2025-01-13 08:42:05.57	63.38	8.09	
2025-01-13 08:42:06.39	63.24	8.13	
2025-01-13 08:42:07.21	63.11	8.16	
2025-01-13 08:42:08.03	62.97	8.19	
2025-01-13 08:42:08.85	62.83	8.23	
2025-01-13 08:42:09.69	62.69	8.26	
2025-01-13 08:42:10.51	62.55	8.29	
2025-01-13 08:42:11.33	62.41	8.33	
2025-01-13 08:42:12.15	62.27	8.36	
2025-01-13 08:42:12.97	62.13	8.39	
2025-01-13 08:42:13.79	61.99	8.43	
2025-01-13 08:42:14.62	61.85	8.46	
2025-01-13 08:42:15.46	61.70	8.49	
2025-01-13 08:42:16.29	61.56	8.52	
2025-01-13 08:42:17.11	61.42	8.56	
2025-01-13 08:42:17.93	61.28	8.59	
2025-01-13 08:42:18.76	61.13	8.62	
2025-01-13 08:42:19.58	60.99	8.65	
2025-01-13 08:42:20.40	60.85	8.69	
2025-01-13 08:42:21.22	60.70	8.72	
2025-01-13 08:42:22.04	60.56	8.75	
2025-01-13 08:42:22.86	60.41	8.78	
2025-01-13 08:42:23.69	60.27	8.81	
2025-01-13 08:42:24.51	60.12	8.84	
2025-01-13 08:42:25.33	59.98	8.87	
2025-01-13 08:42:26.15	59.83	8.91	
2025-01-13 08:42:26.97	59.69	8.94	
2025-01-13 08:42:27.80	59.54	8.97	
2025-01-13 08:42:28.62	59.39	9.00	
2025-01-13 08:42:29.44	59.24	9.03	
2025-01-13 08:42:30.26	59.10	9.06	
2025-01-13 08:42:31.08	58.95	9.09	
2025-01-13 08:42:31.90	58.80	9.12	
2025-01-13 08:42:32.72	58.65	9.15	
2025-01-13 08:42:33.55	58.50	9.18	
2025-01-13 08:42:34.37	58.35	9.21	
2025-01-13 08:42:35.19	58.20	9.24	
2025-01-13 08:42:36.02	58.05	9.27	
2025-01-13 08:42:36.84	57.90	9.30	
2025-01-13 08:42:37.68	57.75	9.33	
2025-01-13 08:42:38.51	57.60	9.36	
2025-01-13 08:42:39.33	57.45	9.39	
2025-01-13 08:42:40.15	57.29	9.42	
2025-01-13 08:42:40.99	57.14	9.45	
2025-01-13 08:42:41.81	56.99	9.47	
2025-01-13 08:42:42.63	56.83	9.50	
2025-01-13 08:42:43.45	56.68	9.53	
2025-01-13 08:42:44.27	56.53	9.56	
2025-01-13 08:42:45.09	56.38	9.59	
2025-01-13 08:42:45.91	56.22	9.61	
2025-01-13 08:42:46.73	56.07	9.64	
2025-01-13 08:42:47.55	55.91	9.67	
2025-01-13 08:42:48.38	55.76	9.70	
2025-01-13 08:42:49.20	55.60	9.72	
2025-01-13 08:42:50.03	55.45	9.75	
2025-01-13 08:42:50.85	55.29	9.78	
2025-01-13 08:42:51.67	55.14	9.80	
2025-01-13 08:42:52.49	54.98	9.83	
2025-01-13 08:42:53.31	54.82	9.86	
2025-01-13 08:42:54.15	54.66	9.88	
2025-01-13 08:42:54.97	54.51	9.91	
2025-01-13 08:42:55.79	54.35	9.94	
2025-01-13 08:42:56.61	54.19	9.96	
2025-01-13 08:42:57.44	54.03	9.99	
2025-01-13 08:42:58.26	53.87	10.01	
2025-01-13 08:42:59.09	53.71	10.04	
2025-01-13 08:42:59.91	53.55	10.06	
2025-01-13 08:43:00.73	53.39	10.09	
2025-01-13 08:43:01.56	53.23	10.11	
2025-01-13 08:43:02.38	53.07	10.14	
2025-01-13 08:43:03.20	52.91	10.16	
2025-01-13 08:43:04.02	52.75	10.19	
2025-01-13 08:43:04.86	52.59	10.21	
2025-01-13 08:43:05.68	52.43	10.23	
2025-01-13 08:43:06.50	52.27	10.26	
2025-01-13 08:43:07.32	52.11	10.28	
2025-01-13 08:43:08.14	51.94	10.30	
2025-01-13 08:43:08.96	51.78	10.33	
2025-01-13 08:43:09.78	51.62	10.35	
2025-01-13 08:43:10.60	51.46	10.37	
2025-01-13 08:43:11.43	51.29	10.40	
2025-01-13 08:43:12.26	51.13	10.42	
2025-01-13 08:43:13.10	50.96	10.44	
2025-01-13 08:43:13.92	50.80	10.46	
2025-01-13 08:43:14.73	50.64	10.48	
2025-01-13 08:43:15.56	50.47	10.51	
2025-01-13 08:43:16.39	50.30	10.53	
2025-01-13 08:43:17.21	50.14	10.55	
2025-01-13 08:43:18.04	49.97	10.57	
2025-01-13 08:43:18.86	49.81	10.59	
2025-01-13 08:43:19.68	49.64	10.61	
2025-01-13 08:43:20.50	49.48	10.63	
2025-01-13 08:43:21.32	49.31	10.65	
2025-01-13 08:43:22.15	49.14	10.67	
2025-01-13 08:43:22.98	48.97	10.69	
2025-01-13 08:43:23.80	48.81	10.71	
2025-01-13 08:43:24.62	48.64	10.73	
2025-01-13 08:43:25.44	48.47	10.75	
2025-01-13 08:43:26.26	48.30	10.77	
2025-01-13 08:43:27.08	48.14	10.79	
2025-01-13 08:43:27.91	47.97	10.81	
2025-01-13 08:43:28.74	47.80	10.83	
2025-01-13 08:43:29.56	47.63	10.84	
2025-01-13 08:43:30.38	47.46	10.86	
2025-01-13 08:43:31.20	47.29	10.88	
2025-01-13 08:43:32.04	47.12	10.90	
2025-01-13 08:43:32.86	46.95	10.91	
2025-01-13 08:43:33.67	46.78	10.93	
2025-01-13 08:43:34.50	46.61	10.95	
2025-01-13 08:43:35.32	46.44	10.97	
2025-01-13 08:43:36.14	46.27	10.98	
2025-01-13 08:43:36.95	46.10	11.00	
2025-01-13 08:43:37.79	45.93	11.01	
2025-01-13 08:43:38.61	45.76	11.03	
2025-01-13 08:43:39.43	45.59	11.04	
2025-01-13 08:43:40.25	45.42	11.06	
2025-01-13 08:43:41.07	45.25	11.08	
2025-01-13 08:43:41.89	45.07	11.09	
2025-01-13 08:43:42.71	44.90	11.10	
2025-01-13 08:43:43.53	44.73	11.12	
2025-01-13 08:43:44.36	44.56	11.13	
2025-01-13 08:43:45.18	44.38	11.15	
2025-01-13 08:43:46.00	44.21	11.16	
2025-01-13 08:43:46.82	44.04	11.17	
2025-01-13 08:43:47.63	43.87	11.19	
2025-01-13 08:43:48.45	43.70	11.20	
2025-01-13 08:43:49.27	43.52	11.21	
2025-01-13 08:43:50.10	43.35	11.23	
2025-01-13 08:43:50.92	43.18	11.24	
2025-01-13 08:43:51.74	43.00	11.25	
2025-01-13 08:43:52.57	42.83	11.26	
2025-01-13 08:43:53.41	42.65	11.27	
2025-01-13 08:43:54.23	42.47	11.29	
2025-01-13 08:43:55.05	42.30	11.30	
2025-01-13 08:43:55.89	42.12	11.31	
2025-01-13 08:43:56.70	41.95	11.32	
2025-01-13 08:43:57.52	41.78	11.33	
2025-01-13 08:43:58.35	41.60	11.34	
2025-01-13 08:43:59.16	41.43	11.35	
2025-01-13 08:44:00.00	41.25	11.36	
2025-01-13 08:44:00.82	41.07	11.37	
2025-01-13 08:44:01.64	40.90	11.38	
2025-01-13 08:44:02.46	40.72	11.39	
2025-01-13 08:44:03.28	40.55	11.40	
2025-01-13 08:44:04.10	40.37	11.40	
2025-01-13 08:44:04.92	40.20	11.41	
2025-01-13 08:44:05.74	40.02	11.42	
2025-01-13 08:44:06.58	39.84	11.43	
2025-01-13 08:44:07.40	39.67	11.44	
2025-01-13 08:44:08.22	39.49	11.44	
2025-01-13 08:44:09.04	39.31	11.45	
2025-01-13 08:44:09.87	39.14	11.46	
2025-01-13 08:44:10.69	38.96	11.46	
2025-01-13 08:44:11.51	38.78	11.47	
2025-01-13 08:44:12.32	38.61	11.48	
2025-01-13 08:44:13.14	38.43	11.48	
2025-01-13 08:44:13.96	38.26	11.49	
2025-01-13 08:44:14.78	38.08	11.49	
2025-01-13 08:44:15.61	37.90	11.50	
2025-01-13 08:44:16.42	37.73	11.50	
2025-01-13 08:44:17.25	37.55	11.51	
2025-01-13 08:44:18.07	37.37	11.51	
2025-01-13 08:44:18.90	37.19	11.52	
2025-01-13 08:44:19.72	37.02	11.52	
2025-01-13 08:44:20.56	36.83	11.52	
2025-01-13 08:44:21.38	36.66	11.53	
2025-01-13 08:44:22.20	36.48	11.53	
2025-01-13 08:44:23.02	36.30	11.53	
2025-01-13 08:44:23.84	36.13	11.53	
2025-01-13 08:44:24.66	35.95	11.54	
2025-01-13 08:44:25.49	35.77	11.54	
2025-01-13 08:44:26.31	35.59	11.54	
2025-01-13 08:44:27.14	35.41	11.54	
2025-01-13 08:44:27.96	35.24	11.54	
2025-01-13 08:44:28.79	35.06	11.54	
2025-01-13 08:44:29.60	34.88	11.54	
2025-01-13 08:44:30.43	34.70	11.55	
2025-01-13 08:44:31.24	34.53	11.55	
2025-01-13 08:44:32.06	34.35	11.55	
2025-01-13 08:44:32.88	34.17	11.55	
2025-01-13 08:44:33.71	33.99	11.55	
2025-01-13 08:44:34.53	33.82	11.54	
2025-01-13 08:44:35.35	33.64	11.54	
2025-01-13 08:44:36.17	33.46	11.54	
2025-01-13 08:44:36.99	33.29	11.54	
2025-01-13 08:44:37.83	33.10	11.54	
2025-01-13 08:44:38.65	32.93	11.54	
2025-01-13 08:44:39.46	32.75	11.53	
2025-01-13 08:44:40.30	32.57	11.53	
2025-01-13 08:44:41.12	32.39	11.53	
2025-01-13 08:44:41.93	32.22	11.53	
2025-01-13 08:44:42.76	32.04	11.52	
2025-01-13 08:44:43.59	31.86	11.52	
2025-01-13 08:44:44.41	31.68	11.52	
2025-01-13 08:44:45.24	31.51	11.51	
2025-01-13 08:44:46.06	31.33	11.51	
2025-01-13 08:44:46.89	31.15	11.50	
2025-01-13 08:44:47.71	30.97	11.50	
2025-01-13 08:44:48.55	30.79	11.49	
2025-01-13 08:44:49.36	30.62	11.49	
2025-01-13 08:44:50.18	30.44	11.48	
2025-01-13 08:44:51.00	30.27	11.48	
2025-01-13 08:44:51.82	30.09	11.47	
2025-01-13 08:44:52.65	29.91	11.46	
2025-01-13 08:44:53.48	29.73	11.46	
2025-01-13 08:44:54.31	29.55	11.45	
2025-01-13 08:44:55.14	29.38	11.44	
2025-01-13 08:44:55.96	29.20	11.44	
2025-01-13 08:44:56.77	29.03	11.43	
2025-01-13 08:44:57.60	28.85	11.42	
2025-01-13 08:44:58.42	28.67	11.41	
2025-01-13 08:44:59.24	28.50	11.40	
2025-01-13 08:45:00.06	28.32	11.40	
2025-01-13 08:45:00.89	28.15	11.39	
2025-01-13 08:45:01.71	27.97	11.38	
2025-01-13 08:45:02.53	27.80	11.37	
2025-01-13 08:45:03.36	27.62	11.36	
2025-01-13 08:45:04.19	27.44	11.35	
2025-01-13 08:45:05.01	27.27	11.34	
2025-01-13 08:45:05.84	27.09	11.33	
2025-01-13 08:45:06.67	26.92	11.32	
2025-01-13 08:45:07.49	26.74	11.31	
2025-01-13 08:45:08.31	26.57	11.30	
2025-01-13 08:45:09.13	26.39	11.29	
2025-01-13 08:45:09.96	26.22	11.28	
2025-01-13 08:45:10.78	26.04	11.26	
2025-01-13 08:45:11.61	25.87	11.25	
2025-01-13 08:45:12.43	25.70	11.24	
2025-01-13 08:45:13.25	25.52	11.23	
2025-01-13 08:45:14.07	25.35	11.21	
2025-01-13 08:45:14.89	25.18	11.20	
2025-01-13 08:45:15.71	25.00	11.19	
2025-01-13 08:45:16.54	24.83	11.18	
2025-01-13 08:45:17.36	24.66	11.16	
2025-01-13 08:45:18.19	24.48	11.15	
2025-01-13 08:45:19.03	24.31	11.13	
2025-01-13 08:45:19.85	24.14	11.12	
2025-01-13 08:45:20.68	23.96	11.11	
2025-01-13 08:45:21.50	23.79	11.09	
2025-01-13 08:45:22.32	23.62	11.08	
2025-01-13 08:45:23.14	23.45	11.06	
2025-01-13 08:45:23.96	23.28	11.05	
2025-01-13 08:45:24.79	23.11	11.03	
2025-01-13 08:45:25.61	22.94	11.01	
2025-01-13 08:45:26.44	22.76	11.00	
2025-01-13 08:45:27.26	22.59	10.98	
2025-01-13 08:45:28.08	22.42	10.97	
2025-01-13 08:45:28.90	22.25	10.95	
2025-01-13 08:45:29.72	22.09	10.93	
2025-01-13 08:45:30.54	21.92	10.92	
2025-01-13 08:45:31.37	21.75	10.90	
2025-01-13 08:45:32.19	21.58	10.88	
2025-01-13 08:45:33.01	21.41	10.86	
2025-01-13 08:45:33.83	21.24	10.85	
2025-01-13 08:45:34.65	21.07	10.83	
2025-01-13 08:45:35.47	20.90	10.81	
2025-01-13 08:45:36.29	20.74	10.79	
2025-01-13 08:45:37.11	20.57	10.77	
2025-01-13 08:45:37.93	20.40	10.75	
2025-01-13 08:45:38.76	20.23	10.73	
2025-01-13 08:45:39.58	20.07	10.71	
2025-01-13 08:45:40.41	19.90	10.69	
2025-01-13 08:45:41.25	19.73	10.67	
2025-01-13 08:45:42.07	19.56	10.65	
2025-01-13 08:45:42.89	19.40	10.63	
2025-01-13 08:45:43.71	19.23	10.61	
2025-01-13 08:45:44.53	19.07	10.59	
2025-01-13 08:45:45.35	18.90	10.57	
2025-01-13 08:45:46.17	18.74	10.55	
2025-01-13 08:45:47.00	18.57	10.53	
2025-01-13 08:45:47.82	18.41	10.51	
2025-01-13 08:45:48.64	18.24	10.49	
2025-01-13 08:45:49.46	18.08	10.47	
2025-01-13 08:45:50.28	17.92	10.44	
2025-01-13 08:45:51.11	17.75	10.42	
2025-01-13 08:45:51.94	17.59	10.40	
2025-01-13 08:45:52.77	17.42	10.38	
2025-01-13 08:45:53.59	17.26	10.35	
2025-01-13 08:45:54.41	17.10	10.33	
2025-01-13 08:45:55.23	16.94	10.31	
2025-01-13 08:45:56.05	16.78	10.28	
2025-01-13 08:45:56.87	16.62	10.26	
2025-01-13 08:45:57.71	16.45	10.24	
2025-01-13 08:45:58.53	16.29	10.21	
2025-01-13 08:45:59.35	16.13	10.19	
2025-01-13 08:46:00.17	15.97	10.17	
2025-01-13 08:46:00.99	15.81	10.14	
2025-01-13 08:46:01.81	15.65	10.12	
2025-01-13 08:46:02.63	15.49	10.09	
2025-01-13 08:46:03.45	15.33	10.07	
2025-01-13 08:46:04.27	15.18	10.04	
2025-01-13 08:46:05.11	15.01	10.02	
2025-01-13 08:46:05.93	14.86	9.99	
2025-01-13 08:46:06.76	14.70	9.97	
2025-01-13 08:46:07.58	14.54	9.94	
2025-01-13 08:46:08.40	14.38	9.91	
2025-01-13 08:46:09.22	14.23	9.89	
2025-01-13 08:46:10.04	14.07	9.86	
2025-01-13 08:46:10.86	13.91	9.84	
2025-01-13 08:46:11.68	13.76	9.81	
2025-01-13 08:46:12.50	13.60	9.78	
2025-01-13 08:46:13.32	13.45	9.76	
2025-01-13 08:46:14.15	13.29	9.73	
2025-01-13 08:46:14.97	13.14	9.70	
2025-01-13 08:46:15.79	12.98	9.67	
2025-01-13 08:46:16.61	12.83	9.65	
2025-01-13 08:46:17.43	12.67	9.62	
2025-01-13 08:46:18.25	12.52	9.59	
2025-01-13 08:46:19.07	12.37	9.56	
2025-01-13 08:46:19.89	12.22	9.54	
2025-01-13 08:46:20.72	12.06	9.51	
2025-01-13 08:46:21.54	11.91	9.48	
2025-01-13 08:46:22.36	11.76	9.45	
2025-01-13 08:46:23.18	11.61	9.42	
2025-01-13 08:46:24.00	11.46	9.39	
2025-01-13 08:46:24.83	11.30	9.36	
2025-01-13 08:46:25.65	11.15	9.34	
2025-01-13 08:46:26.47	11.00	9.31	
2025-01-13 08:46:27.29	10.86	9.28	
2025-01-13 08:46:28.11	10.71	9.25	
2025-01-13 08:46:28.94	10.56	9.22	
2025-01-13 08:46:29.76	10.41	9.19	
2025-01-13 08:46:30.57	10.26	9.16	
2025-01-13 08:46:31.39	10.11	9.13	
2025-01-13 08:46:32.22	9.96	9.10	
2025-01-13 08:46:33.04	9.82	9.07	
2025-01-13 08:46:33.86	9.67	9.04	
2025-01-13 08:46:34.68	9.52	9.01	
2025-01-13 08:46:35.50	9.38	8.98	
2025-01-13 08:46:36.32	9.23	8.95	
2025-01-13 08:46:37.16	9.08	8.91	
2025-01-13 08:46:37.98	8.94	8.88	
2025-01-13 08:46:38.80	8.79	8.85	
2025-01-13 08:46:39.62	8.65	8.82	
2025-01-13 08:46:40.46	8.50	8.79	
2025-01-13 08:46:41.28	8.36	8.76	
2025-01-13 08:46:42.09	8.21	8.73	
2025-01-13 08:46:42.92	8.07	8.69	
2025-01-13 08:46:43.74	7.93	8.66	
2025-01-13 08:46:44.56	7.78	8.63	
2025-01-13 08:46:45.38	7.64	8.60	
2025-01-13 08:46:46.20	7.50	8.57	
2025-01-13 08:46:47.02	7.36	8.53	
2025-01-13 08:46:47.85	7.22	8.50	
2025-01-13 08:46:48.67	7.08	8.47	
2025-01-13 08:46:49.50	6.93	8.44	
2025-01-13 08:46:50.32	6.79	8.40	
2025-01-13 08:46:51.14	6.65	8.37	
2025-01-13 08:46:51.96	6.51	8.34	
2025-01-13 08:46:52.78	6.38	8.30	
2025-01-13 08:46:53.60	6.24	8.27	
2025-01-13 08:46:54.42	6.10	8.24	
2025-01-13 08:46:55.25	5.96	8.20	
2025-01-13 08:46:56.07	5.82	8.17	
2025-01-13 08:46:56.89	5.68	8.14	
2025-01-13 08:46:57.72	5.55	8.10	
2025-01-13 08:46:58.54	5.41	8.07	
2025-01-13 08:46:59.36	5.27	8.04	
2025-01-13 08:47:00.18	5.14	8.00	
2025-01-13 08:47:01.00	5.00	7.97	
2025-01-13 08:47:01.82	4.87	7.93	
2025-01-13 08:47:02.64	4.73	7.90	
2025-01-13 08:47:03.46	4.60	7.87	
2025-01-13 08:47:04.28	4.46	7.83	
2025-01-13 08:47:05.10	4.33	7.80	
2025-01-13 08:47:05.92	4.20	7.76	
2025-01-13 08:47:06.74	4.06	7.73	
2025-01-13 08:47:07.56	3.93	7.69	
2025-01-13 08:47:08.38	3.80	7.66	
2025-01-13 08:47:09.20	3.67	7.62	
2025-01-13 08:47:10.02	3.53	7.59	
2025-01-13 08:47:10.84	3.40	7.55	
2025-01-13 08:47:11.66	3.27	7.52	
2025-01-13 08:47:12.48	3.14	7.48	
2025-01-13 08:47:13.30	3.01	7.45	
2025-01-13 08:47:14.12	2.88	7.41	
2025-01-13 08:47:14.94	2.75	7.38	
2025-01-13 08:47:15.76	2.62	7.34	
2025-01-13 08:47:16.58	2.49	7.31	
2025-01-13 08:47:17.40	2.37	7.27	
2025-01-13 08:47:18.23	2.24	7.23	
2025-01-13 08:47:19.05	2.11	7.20	
2025-01-13 08:47:19.88	1.98	7.16	
2025-01-13 08:47:20.70	1.85	7.13	
2025-01-13 08:47:21.52	1.73	7.09	
2025-01-13 08:47:22.35	1.60	7.05	
2025-01-13 08:47:23.17	1.47	7.02	
2025-01-13 08:47:23.99	1.35	6.98	
2025-01-13 08:47:24.81	1.22	6.94	
2025-01-13 08:47:25.63	1.10	6.91	
2025-01-13 08:47:26.45	0.97	6.87	
2025-01-13 08:47:27.27	0.85	6.84	
2025-01-13 08:47:28.10	0.72	6.80	
2025-01-13 08:47:28.92	0.60	6.76	
2025-01-13 08:47:29.74	0.47	6.73	
2025-01-13 08:47:30.56	0.35	6.69	
2025-01-13 08:47:31.38	0.23	6.65	
2025-01-13 08:47:32.20	0.11	6.62	
2025-01-13 08:47:33.02	359.99	6.58	
2025-01-13 08:47:33.84	359.86	6.54	
2025-01-13 08:47:34.66	359.74	6.50	
2025-01-13 08:47:35.49	359.62	6.47	
2025-01-13 08:47:36.31	359.50	6.43	
2025-01-13 08:47:37.13	359.38	6.39	
2025-01-13 08:47:37.94	359.26	6.36	
2025-01-13 08:47:38.76	359.14	6.32	
2025-01-13 08:47:39.59	359.02	6.28	
2025-01-13 08:47:40.41	358.90	6.24	
2025-01-13 08:47:41.23	358.78	6.21	
2025-01-13 08:47:42.05	358.67	6.17	
2025-01-13 08:47:42.87	358.55	6.13	
2025-01-13 08:47:43.69	358.43	6.09	
2025-01-13 08:47:44.52	358.31	6.06	
2025-01-13 08:47:45.34	358.20	6.02	
2025-01-13 08:47:46.16	358.08	5.98	
2025-01-13 08:47:46.99	357.96	5.94	
2025-01-13 08:47:47.81	357.85	5.91	
2025-01-13 08:47:48.63	357.73	5.87	
2025-01-13 08:47:49.45	357.62	5.83	
2025-01-13 08:47:50.27	357.50	5.79	
2025-01-13 08:47:51.11	357.38	5.75	
2025-01-13 08:47:51.93	357.27	5.72	
2025-01-13 08:47:52.75	357.16	5.68	
2025-01-13 08:47:53.57	357.04	5.64	
2025-01-13 08:47:54.39	356.93	5.60	
2025-01-13 08:47:55.22	356.81	5.56	
2025-01-13 08:47:56.05	356.70	5.52	
2025-01-13 08:47:56.87	356.59	5.49	
2025-01-13 08:47:57.70	356.48	5.45	
2025-01-13 08:47:58.52	356.36	5.41	
2025-01-13 08:47:59.34	356.25	5.37	
2025-01-13 08:48:00.16	356.14	5.33	
2025-01-13 08:48:00.97	356.03	5.29	
2025-01-13 08:48:01.80	355.92	5.26	
2025-01-13 08:48:02.62	355.81	5.22	
2025-01-13 08:48:03.44	355.70	5.18	
2025-01-13 08:48:04.27	355.59	5.14	
2025-01-13 08:48:05.10	355.48	5.10	
2025-01-13 08:48:05.92	355.37	5.06	
2025-01-13 08:48:06.74	355.26	5.02	
2025-01-13 08:48:07.56	355.16	4.99	
2025-01-13 08:48:08.38	355.05	4.95	
2025-01-13 08:48:09.20	354.94	4.91	
2025-01-13 08:48:10.04	354.83	4.87	
2025-01-13 08:48:10.86	354.73	4.83	
2025-01-13 08:48:11.67	354.62	4.79	
2025-01-13 08:48:12.50	354.51	4.75	
2025-01-13 08:48:13.32	354.41	4.71	
2025-01-13 08:48:14.15	354.30	4.67	
2025-01-13 08:48:14.97	354.20	4.64	
2025-01-13 08:48:15.79	354.09	4.60	
2025-01-13 08:48:16.62	353.99	4.56	
2025-01-13 08:48:17.43	353.88	4.52	
2025-01-13 08:48:18.25	353.78	4.48	
2025-01-13 08:48:19.07	353.68	4.44	
2025-01-13 08:48:19.89	353.57	4.40	
2025-01-13 08:48:20.71	353.47	4.36	
2025-01-13 08:48:21.53	353.37	4.32	
2025-01-13 08:48:22.36	353.26	4.29	
2025-01-13 08:48:23.18	353.16	4.25	
2025-01-13 08:48:24.00	353.06	4.21	
2025-01-13 08:48:24.82	352.96	4.17	
2025-01-13 08:48:25.64	352.86	4.13	
2025-01-13 08:48:26.46	352.76	4.09	
2025-01-13 08:48:27.28	352.66	4.05	
2025-01-13 08:48:28.10	352.56	4.01	

#Closed at: 2025-01-13 08:48:28