passes_logs/2025/01/13/SPB_Silybum_02/SPB_Silybum_02__20250113_113400_TERRA_rec.log

#Pass ID: 20250113_113400_TERRA
#Satellite: TERRA
#Configuration: TERRA
#Start time: 2025-01-13 11:34:00

#Version: 2.0.20230423
#Station: SPB_Silybum_02
#Location: 30.233357 lon 59.946436 lat
#TLE: 1 25994U 99068A   25012.80475962  .00000761  00000+0  16654-3 0  9990
#TLE: 2 25994  98.0220  75.9049 0003508  77.1547  57.1006 14.60390868333758

#Time	Az	El	Level	Level2	SNR	BER	Gain	Gain2
2025-01-13 11:34:02.16	4.70	4.07	
2025-01-13 11:34:02.98	4.58	4.11	
2025-01-13 11:34:03.81	4.47	4.14	
2025-01-13 11:34:04.63	4.36	4.17	
2025-01-13 11:34:05.46	4.24	4.20	
2025-01-13 11:34:06.29	4.13	4.24	
2025-01-13 11:34:07.11	4.01	4.27	
2025-01-13 11:34:07.93	3.90	4.30	
2025-01-13 11:34:08.75	3.79	4.33	
2025-01-13 11:34:09.57	3.67	4.36	
2025-01-13 11:34:10.39	3.56	4.40	
2025-01-13 11:34:11.23	3.44	4.43	
2025-01-13 11:34:12.04	3.33	4.46	
2025-01-13 11:34:12.86	3.21	4.49	
2025-01-13 11:34:13.69	3.09	4.52	
2025-01-13 11:34:14.51	2.98	4.56	
2025-01-13 11:34:15.34	2.86	4.59	
2025-01-13 11:34:16.16	2.74	4.62	
2025-01-13 11:34:16.98	2.63	4.65	
2025-01-13 11:34:17.80	2.51	4.68	
2025-01-13 11:34:18.63	2.39	4.71	
2025-01-13 11:34:19.45	2.27	4.74	
2025-01-13 11:34:20.27	2.15	4.78	
2025-01-13 11:34:21.10	2.03	4.81	
2025-01-13 11:34:21.93	1.91	4.84	
2025-01-13 11:34:22.76	1.79	4.87	
2025-01-13 11:34:23.59	1.67	4.90	
2025-01-13 11:34:24.41	1.55	4.93	
2025-01-13 11:34:25.23	1.43	4.96	
2025-01-13 11:34:26.05	1.31	4.99	
2025-01-13 11:34:26.87	1.19	5.02	
2025-01-13 11:34:27.69	1.07	5.05	
2025-01-13 11:34:28.51	0.95	5.09	
2025-01-13 11:34:29.33	0.83	5.12	
2025-01-13 11:34:30.15	0.71	5.15	
2025-01-13 11:34:30.98	0.58	5.18	
2025-01-13 11:34:31.80	0.46	5.21	
2025-01-13 11:34:32.63	0.34	5.24	
2025-01-13 11:34:33.45	0.22	5.27	
2025-01-13 11:34:34.27	0.09	5.30	
2025-01-13 11:34:35.09	359.97	5.33	
2025-01-13 11:34:35.91	359.85	5.36	
2025-01-13 11:34:36.73	359.72	5.39	
2025-01-13 11:34:37.56	359.60	5.42	
2025-01-13 11:34:38.39	359.47	5.45	
2025-01-13 11:34:39.21	359.35	5.48	
2025-01-13 11:34:40.03	359.22	5.51	
2025-01-13 11:34:40.85	359.10	5.54	
2025-01-13 11:34:41.67	358.97	5.56	
2025-01-13 11:34:42.49	358.85	5.59	
2025-01-13 11:34:43.31	358.72	5.62	
2025-01-13 11:34:44.13	358.59	5.65	
2025-01-13 11:34:44.97	358.46	5.68	
2025-01-13 11:34:45.79	358.34	5.71	
2025-01-13 11:34:46.61	358.21	5.74	
2025-01-13 11:34:47.43	358.08	5.77	
2025-01-13 11:34:48.25	357.95	5.80	
2025-01-13 11:34:49.07	357.83	5.82	
2025-01-13 11:34:49.89	357.70	5.85	
2025-01-13 11:34:50.72	357.57	5.88	
2025-01-13 11:34:51.53	357.44	5.91	
2025-01-13 11:34:52.35	357.31	5.94	
2025-01-13 11:34:53.18	357.18	5.97	
2025-01-13 11:34:53.99	357.05	5.99	
2025-01-13 11:34:54.81	356.92	6.02	
2025-01-13 11:34:55.65	356.79	6.05	
2025-01-13 11:34:56.47	356.66	6.08	
2025-01-13 11:34:57.30	356.53	6.10	
2025-01-13 11:34:58.12	356.40	6.13	
2025-01-13 11:34:58.94	356.26	6.16	
2025-01-13 11:34:59.76	356.13	6.19	
2025-01-13 11:35:00.58	356.00	6.21	
2025-01-13 11:35:01.40	355.87	6.24	
2025-01-13 11:35:02.22	355.74	6.27	
2025-01-13 11:35:03.05	355.60	6.29	
2025-01-13 11:35:03.87	355.47	6.32	
2025-01-13 11:35:04.69	355.34	6.35	
2025-01-13 11:35:05.51	355.20	6.37	
2025-01-13 11:35:06.33	355.07	6.40	
2025-01-13 11:35:07.15	354.93	6.43	
2025-01-13 11:35:07.97	354.80	6.45	
2025-01-13 11:35:08.79	354.67	6.48	
2025-01-13 11:35:09.61	354.53	6.51	
2025-01-13 11:35:10.43	354.40	6.53	
2025-01-13 11:35:11.25	354.26	6.56	
2025-01-13 11:35:12.07	354.13	6.58	
2025-01-13 11:35:12.89	353.99	6.61	
2025-01-13 11:35:13.71	353.85	6.63	
2025-01-13 11:35:14.54	353.72	6.66	
2025-01-13 11:35:15.36	353.58	6.68	
2025-01-13 11:35:16.17	353.44	6.71	
2025-01-13 11:35:16.99	353.31	6.73	
2025-01-13 11:35:17.81	353.17	6.76	
2025-01-13 11:35:18.63	353.03	6.78	
2025-01-13 11:35:19.45	352.89	6.81	
2025-01-13 11:35:20.27	352.75	6.83	
2025-01-13 11:35:21.09	352.62	6.86	
2025-01-13 11:35:21.92	352.48	6.88	
2025-01-13 11:35:22.74	352.34	6.91	
2025-01-13 11:35:23.55	352.20	6.93	
2025-01-13 11:35:24.38	352.06	6.95	
2025-01-13 11:35:25.20	351.92	6.98	
2025-01-13 11:35:26.02	351.78	7.00	
2025-01-13 11:35:26.84	351.64	7.02	
2025-01-13 11:35:27.66	351.50	7.05	
2025-01-13 11:35:28.48	351.36	7.07	
2025-01-13 11:35:29.31	351.21	7.09	
2025-01-13 11:35:30.13	351.07	7.12	
2025-01-13 11:35:30.96	350.93	7.14	
2025-01-13 11:35:31.78	350.79	7.16	
2025-01-13 11:35:32.62	350.64	7.19	
2025-01-13 11:35:33.44	350.50	7.21	
2025-01-13 11:35:34.25	350.36	7.23	
2025-01-13 11:35:35.08	350.22	7.25	
2025-01-13 11:35:35.91	350.07	7.27	
2025-01-13 11:35:36.73	349.93	7.30	
2025-01-13 11:35:37.54	349.79	7.32	
2025-01-13 11:35:38.36	349.64	7.34	
2025-01-13 11:35:39.19	349.50	7.36	
2025-01-13 11:35:40.01	349.35	7.38	
2025-01-13 11:35:40.83	349.21	7.40	
2025-01-13 11:35:41.65	349.06	7.42	
2025-01-13 11:35:42.47	348.92	7.45	
2025-01-13 11:35:43.29	348.77	7.47	
2025-01-13 11:35:44.11	348.63	7.49	
2025-01-13 11:35:44.93	348.48	7.51	
2025-01-13 11:35:45.75	348.34	7.53	
2025-01-13 11:35:46.57	348.19	7.55	
2025-01-13 11:35:47.39	348.04	7.57	
2025-01-13 11:35:48.22	347.90	7.59	
2025-01-13 11:35:49.03	347.75	7.61	
2025-01-13 11:35:49.86	347.60	7.63	
2025-01-13 11:35:50.69	347.45	7.65	
2025-01-13 11:35:51.51	347.31	7.67	
2025-01-13 11:35:52.33	347.16	7.68	
2025-01-13 11:35:53.14	347.01	7.70	
2025-01-13 11:35:53.96	346.87	7.72	
2025-01-13 11:35:54.80	346.71	7.74	
2025-01-13 11:35:55.62	346.57	7.76	
2025-01-13 11:35:56.44	346.42	7.78	
2025-01-13 11:35:57.26	346.27	7.80	
2025-01-13 11:35:58.08	346.12	7.81	
2025-01-13 11:35:58.91	345.97	7.83	
2025-01-13 11:35:59.73	345.82	7.85	
2025-01-13 11:36:00.55	345.67	7.87	
2025-01-13 11:36:01.37	345.52	7.88	
2025-01-13 11:36:02.19	345.37	7.90	
2025-01-13 11:36:03.01	345.22	7.92	
2025-01-13 11:36:03.83	345.07	7.94	
2025-01-13 11:36:04.65	344.92	7.95	
2025-01-13 11:36:05.47	344.77	7.97	
2025-01-13 11:36:06.30	344.62	7.99	
2025-01-13 11:36:07.14	344.46	8.00	
2025-01-13 11:36:07.96	344.31	8.02	
2025-01-13 11:36:08.78	344.16	8.03	
2025-01-13 11:36:09.60	344.01	8.05	
2025-01-13 11:36:10.42	343.85	8.07	
2025-01-13 11:36:11.24	343.70	8.08	
2025-01-13 11:36:12.08	343.55	8.10	
2025-01-13 11:36:12.90	343.39	8.11	
2025-01-13 11:36:13.72	343.24	8.13	
2025-01-13 11:36:14.54	343.09	8.14	
2025-01-13 11:36:15.37	342.93	8.16	
2025-01-13 11:36:16.19	342.78	8.17	
2025-01-13 11:36:17.01	342.63	8.18	
2025-01-13 11:36:17.83	342.47	8.20	
2025-01-13 11:36:18.66	342.32	8.21	
2025-01-13 11:36:19.48	342.16	8.23	
2025-01-13 11:36:20.30	342.01	8.24	
2025-01-13 11:36:21.12	341.86	8.25	
2025-01-13 11:36:21.95	341.70	8.27	
2025-01-13 11:36:22.76	341.55	8.28	
2025-01-13 11:36:23.58	341.39	8.29	
2025-01-13 11:36:24.42	341.24	8.30	
2025-01-13 11:36:25.24	341.08	8.32	
2025-01-13 11:36:26.06	340.93	8.33	
2025-01-13 11:36:26.88	340.77	8.34	
2025-01-13 11:36:27.70	340.62	8.35	
2025-01-13 11:36:28.54	340.46	8.37	
2025-01-13 11:36:29.36	340.30	8.38	
2025-01-13 11:36:30.17	340.15	8.39	
2025-01-13 11:36:31.00	339.99	8.40	
2025-01-13 11:36:31.82	339.83	8.41	
2025-01-13 11:36:32.64	339.68	8.42	
2025-01-13 11:36:33.46	339.52	8.43	
2025-01-13 11:36:34.28	339.37	8.44	
2025-01-13 11:36:35.12	339.20	8.45	
2025-01-13 11:36:35.94	339.05	8.46	
2025-01-13 11:36:36.76	338.89	8.47	
2025-01-13 11:36:37.58	338.73	8.48	
2025-01-13 11:36:38.40	338.58	8.49	
2025-01-13 11:36:39.22	338.42	8.50	
2025-01-13 11:36:40.04	338.26	8.51	
2025-01-13 11:36:40.86	338.11	8.52	
2025-01-13 11:36:41.68	337.95	8.53	
2025-01-13 11:36:42.50	337.79	8.54	
2025-01-13 11:36:43.32	337.63	8.54	
2025-01-13 11:36:44.14	337.48	8.55	
2025-01-13 11:36:44.96	337.32	8.56	
2025-01-13 11:36:45.78	337.16	8.57	
2025-01-13 11:36:46.60	337.00	8.58	
2025-01-13 11:36:47.43	336.84	8.58	
2025-01-13 11:36:48.25	336.69	8.59	
2025-01-13 11:36:49.07	336.53	8.60	
2025-01-13 11:36:49.89	336.37	8.60	
2025-01-13 11:36:50.71	336.21	8.61	
2025-01-13 11:36:51.53	336.05	8.62	
2025-01-13 11:36:52.35	335.89	8.62	
2025-01-13 11:36:53.18	335.73	8.63	
2025-01-13 11:36:54.00	335.57	8.64	
2025-01-13 11:36:54.83	335.41	8.64	
2025-01-13 11:36:55.65	335.26	8.65	
2025-01-13 11:36:56.47	335.10	8.65	
2025-01-13 11:36:57.29	334.94	8.66	
2025-01-13 11:36:58.11	334.78	8.66	
2025-01-13 11:36:58.93	334.62	8.67	
2025-01-13 11:36:59.76	334.46	8.67	
2025-01-13 11:37:00.58	334.30	8.68	
2025-01-13 11:37:01.39	334.14	8.68	
2025-01-13 11:37:02.21	333.98	8.68	
2025-01-13 11:37:03.03	333.82	8.69	
2025-01-13 11:37:03.85	333.66	8.69	
2025-01-13 11:37:04.68	333.50	8.69	
2025-01-13 11:37:05.50	333.34	8.70	
2025-01-13 11:37:06.33	333.18	8.70	
2025-01-13 11:37:07.16	333.02	8.70	
2025-01-13 11:37:07.98	332.86	8.71	
2025-01-13 11:37:08.80	332.70	8.71	
2025-01-13 11:37:09.62	332.54	8.71	
2025-01-13 11:37:10.45	332.38	8.71	
2025-01-13 11:37:11.27	332.22	8.71	
2025-01-13 11:37:12.09	332.06	8.72	
2025-01-13 11:37:12.91	331.90	8.72	
2025-01-13 11:37:13.74	331.74	8.72	
2025-01-13 11:37:14.56	331.58	8.72	
2025-01-13 11:37:15.38	331.42	8.72	
2025-01-13 11:37:16.21	331.26	8.72	
2025-01-13 11:37:17.03	331.10	8.72	
2025-01-13 11:37:17.85	330.94	8.72	
2025-01-13 11:37:18.67	330.78	8.72	
2025-01-13 11:37:19.50	330.62	8.72	
2025-01-13 11:37:20.32	330.46	8.72	
2025-01-13 11:37:21.13	330.30	8.72	
2025-01-13 11:37:21.95	330.14	8.72	
2025-01-13 11:37:22.77	329.98	8.72	
2025-01-13 11:37:23.60	329.82	8.72	
2025-01-13 11:37:24.42	329.66	8.71	
2025-01-13 11:37:25.24	329.50	8.71	
2025-01-13 11:37:26.06	329.34	8.71	
2025-01-13 11:37:26.88	329.18	8.71	
2025-01-13 11:37:27.70	329.02	8.71	
2025-01-13 11:37:28.52	328.86	8.70	
2025-01-13 11:37:29.35	328.70	8.70	
2025-01-13 11:37:30.18	328.54	8.70	
2025-01-13 11:37:31.00	328.38	8.69	
2025-01-13 11:37:31.82	328.22	8.69	
2025-01-13 11:37:32.64	328.06	8.69	
2025-01-13 11:37:33.46	327.90	8.68	
2025-01-13 11:37:34.28	327.74	8.68	
2025-01-13 11:37:35.10	327.58	8.68	
2025-01-13 11:37:35.93	327.42	8.67	
2025-01-13 11:37:36.76	327.26	8.67	
2025-01-13 11:37:37.58	327.10	8.66	
2025-01-13 11:37:38.40	326.94	8.66	
2025-01-13 11:37:39.22	326.78	8.65	
2025-01-13 11:37:40.04	326.62	8.65	
2025-01-13 11:37:40.86	326.47	8.64	
2025-01-13 11:37:41.68	326.31	8.64	
2025-01-13 11:37:42.50	326.15	8.63	
2025-01-13 11:37:43.32	325.99	8.63	
2025-01-13 11:37:44.14	325.83	8.62	
2025-01-13 11:37:44.96	325.67	8.61	
2025-01-13 11:37:45.80	325.51	8.61	
2025-01-13 11:37:46.62	325.35	8.60	
2025-01-13 11:37:47.43	325.20	8.59	
2025-01-13 11:37:48.26	325.04	8.58	
2025-01-13 11:37:49.08	324.88	8.58	
2025-01-13 11:37:49.90	324.72	8.57	
2025-01-13 11:37:50.74	324.56	8.56	
2025-01-13 11:37:51.56	324.40	8.55	
2025-01-13 11:37:52.39	324.24	8.55	
2025-01-13 11:37:53.23	324.08	8.54	
2025-01-13 11:37:54.05	323.92	8.53	
2025-01-13 11:37:54.86	323.77	8.52	
2025-01-13 11:37:55.69	323.61	8.51	
2025-01-13 11:37:56.50	323.45	8.50	
2025-01-13 11:37:57.32	323.29	8.49	
2025-01-13 11:37:58.14	323.14	8.48	
2025-01-13 11:37:58.96	322.98	8.47	
2025-01-13 11:37:59.78	322.82	8.46	
2025-01-13 11:38:00.60	322.67	8.45	
2025-01-13 11:38:01.42	322.51	8.44	
2025-01-13 11:38:02.24	322.35	8.43	
2025-01-13 11:38:03.08	322.19	8.42	
2025-01-13 11:38:03.90	322.04	8.41	
2025-01-13 11:38:04.72	321.88	8.40	
2025-01-13 11:38:05.54	321.73	8.39	
2025-01-13 11:38:06.36	321.57	8.38	
2025-01-13 11:38:07.18	321.41	8.37	
2025-01-13 11:38:08.00	321.26	8.36	
2025-01-13 11:38:08.84	321.10	8.34	
2025-01-13 11:38:09.65	320.95	8.33	
2025-01-13 11:38:10.47	320.79	8.32	
2025-01-13 11:38:11.29	320.64	8.31	
2025-01-13 11:38:12.12	320.48	8.29	
2025-01-13 11:38:12.94	320.32	8.28	
2025-01-13 11:38:13.76	320.17	8.27	
2025-01-13 11:38:14.58	320.02	8.26	
2025-01-13 11:38:15.40	319.86	8.24	
2025-01-13 11:38:16.22	319.71	8.23	
2025-01-13 11:38:17.05	319.55	8.21	
2025-01-13 11:38:17.87	319.40	8.20	
2025-01-13 11:38:18.69	319.24	8.19	
2025-01-13 11:38:19.51	319.09	8.17	
2025-01-13 11:38:20.34	318.93	8.16	
2025-01-13 11:38:21.17	318.78	8.14	
2025-01-13 11:38:22.01	318.62	8.13	
2025-01-13 11:38:22.83	318.47	8.11	
2025-01-13 11:38:23.65	318.32	8.10	
2025-01-13 11:38:24.47	318.17	8.08	
2025-01-13 11:38:25.29	318.01	8.07	
2025-01-13 11:38:26.12	317.86	8.05	
2025-01-13 11:38:26.94	317.71	8.04	
2025-01-13 11:38:27.77	317.55	8.02	
2025-01-13 11:38:28.58	317.40	8.00	
2025-01-13 11:38:29.40	317.25	7.99	
2025-01-13 11:38:30.22	317.10	7.97	
2025-01-13 11:38:31.04	316.95	7.96	
2025-01-13 11:38:31.86	316.80	7.94	
2025-01-13 11:38:32.68	316.65	7.92	
2025-01-13 11:38:33.50	316.50	7.90	
2025-01-13 11:38:34.32	316.35	7.89	
2025-01-13 11:38:35.14	316.20	7.87	
2025-01-13 11:38:35.96	316.05	7.85	
2025-01-13 11:38:36.78	315.90	7.83	
2025-01-13 11:38:37.60	315.75	7.82	
2025-01-13 11:38:38.42	315.60	7.80	
2025-01-13 11:38:39.25	315.45	7.78	
2025-01-13 11:38:40.09	315.30	7.76	
2025-01-13 11:38:40.92	315.15	7.74	
2025-01-13 11:38:41.74	315.00	7.72	
2025-01-13 11:38:42.56	314.85	7.71	
2025-01-13 11:38:43.40	314.70	7.69	
2025-01-13 11:38:44.22	314.55	7.67	
2025-01-13 11:38:45.04	314.40	7.65	
2025-01-13 11:38:45.86	314.26	7.63	
2025-01-13 11:38:46.68	314.11	7.61	
2025-01-13 11:38:47.50	313.96	7.59	
2025-01-13 11:38:48.33	313.81	7.57	
2025-01-13 11:38:49.15	313.67	7.55	
2025-01-13 11:38:49.97	313.52	7.53	
2025-01-13 11:38:50.79	313.37	7.51	
2025-01-13 11:38:51.61	313.23	7.49	
2025-01-13 11:38:52.44	313.08	7.47	
2025-01-13 11:38:53.26	312.94	7.45	
2025-01-13 11:38:54.08	312.79	7.43	
2025-01-13 11:38:54.90	312.65	7.40	
2025-01-13 11:38:55.71	312.50	7.38	
2025-01-13 11:38:56.54	312.36	7.36	
2025-01-13 11:38:57.36	312.21	7.34	
2025-01-13 11:38:58.18	312.07	7.32	
2025-01-13 11:38:59.00	311.93	7.30	
2025-01-13 11:38:59.82	311.78	7.28	
2025-01-13 11:39:00.64	311.64	7.25	
2025-01-13 11:39:01.48	311.49	7.23	
2025-01-13 11:39:02.30	311.35	7.21	
2025-01-13 11:39:03.12	311.21	7.19	
2025-01-13 11:39:03.94	311.06	7.16	
2025-01-13 11:39:04.77	310.92	7.14	
2025-01-13 11:39:05.59	310.78	7.12	
2025-01-13 11:39:06.41	310.64	7.10	
2025-01-13 11:39:07.23	310.50	7.07	
2025-01-13 11:39:08.05	310.35	7.05	
2025-01-13 11:39:08.88	310.21	7.03	
2025-01-13 11:39:09.70	310.07	7.00	
2025-01-13 11:39:10.52	309.93	6.98	
2025-01-13 11:39:11.34	309.79	6.95	
2025-01-13 11:39:12.16	309.65	6.93	
2025-01-13 11:39:12.98	309.51	6.91	
2025-01-13 11:39:13.80	309.37	6.88	
2025-01-13 11:39:14.62	309.23	6.86	
2025-01-13 11:39:15.44	309.09	6.83	
2025-01-13 11:39:16.28	308.95	6.81	
2025-01-13 11:39:17.09	308.82	6.79	
2025-01-13 11:39:17.92	308.68	6.76	
2025-01-13 11:39:18.75	308.54	6.73	
2025-01-13 11:39:19.57	308.40	6.71	
2025-01-13 11:39:20.39	308.26	6.68	
2025-01-13 11:39:21.21	308.12	6.66	
2025-01-13 11:39:22.03	307.99	6.63	
2025-01-13 11:39:22.85	307.85	6.61	
2025-01-13 11:39:23.67	307.72	6.58	
2025-01-13 11:39:24.49	307.58	6.56	
2025-01-13 11:39:25.31	307.44	6.53	
2025-01-13 11:39:26.13	307.31	6.51	
2025-01-13 11:39:26.96	307.17	6.48	
2025-01-13 11:39:27.78	307.04	6.45	
2025-01-13 11:39:28.60	306.90	6.43	
2025-01-13 11:39:29.42	306.77	6.40	
2025-01-13 11:39:30.24	306.63	6.38	
2025-01-13 11:39:31.06	306.50	6.35	
2025-01-13 11:39:31.88	306.37	6.32	
2025-01-13 11:39:32.71	306.23	6.30	
2025-01-13 11:39:33.53	306.10	6.27	
2025-01-13 11:39:34.35	305.97	6.24	
2025-01-13 11:39:35.17	305.83	6.21	
2025-01-13 11:39:35.99	305.70	6.19	
2025-01-13 11:39:36.83	305.57	6.16	
2025-01-13 11:39:37.65	305.43	6.13	
2025-01-13 11:39:38.46	305.30	6.10	
2025-01-13 11:39:39.29	305.17	6.08	
2025-01-13 11:39:40.11	305.04	6.05	
2025-01-13 11:39:40.93	304.91	6.02	
2025-01-13 11:39:41.75	304.78	5.99	
2025-01-13 11:39:42.57	304.65	5.97	
2025-01-13 11:39:43.40	304.52	5.94	
2025-01-13 11:39:44.22	304.39	5.91	
2025-01-13 11:39:45.04	304.26	5.88	
2025-01-13 11:39:45.86	304.13	5.85	
2025-01-13 11:39:46.68	304.00	5.82	
2025-01-13 11:39:47.50	303.87	5.80	
2025-01-13 11:39:48.32	303.75	5.77	
2025-01-13 11:39:49.14	303.62	5.74	
2025-01-13 11:39:49.96	303.49	5.71	
2025-01-13 11:39:50.78	303.36	5.68	
2025-01-13 11:39:51.60	303.24	5.65	
2025-01-13 11:39:52.43	303.11	5.62	
2025-01-13 11:39:53.25	302.98	5.59	
2025-01-13 11:39:54.08	302.85	5.56	
2025-01-13 11:39:54.90	302.73	5.54	
2025-01-13 11:39:55.72	302.60	5.51	
2025-01-13 11:39:56.54	302.48	5.48	
2025-01-13 11:39:57.36	302.35	5.45	
2025-01-13 11:39:58.19	302.23	5.42	
2025-01-13 11:39:59.01	302.10	5.39	
2025-01-13 11:39:59.83	301.98	5.36	
2025-01-13 11:40:00.65	301.85	5.33	
2025-01-13 11:40:01.47	301.73	5.30	
2025-01-13 11:40:02.29	301.61	5.27	
2025-01-13 11:40:03.11	301.48	5.24	
2025-01-13 11:40:03.93	301.36	5.21	
2025-01-13 11:40:04.75	301.24	5.18	
2025-01-13 11:40:05.57	301.12	5.15	
2025-01-13 11:40:06.39	300.99	5.12	
2025-01-13 11:40:07.21	300.87	5.09	
2025-01-13 11:40:08.02	300.75	5.06	
2025-01-13 11:40:08.85	300.63	5.03	
2025-01-13 11:40:09.67	300.51	4.99	
2025-01-13 11:40:10.49	300.39	4.96	
2025-01-13 11:40:11.31	300.27	4.93	
2025-01-13 11:40:12.13	300.15	4.90	
2025-01-13 11:40:12.96	300.03	4.87	
2025-01-13 11:40:13.77	299.91	4.84	
2025-01-13 11:40:14.60	299.79	4.81	
2025-01-13 11:40:15.42	299.67	4.78	
2025-01-13 11:40:16.24	299.55	4.75	
2025-01-13 11:40:17.06	299.43	4.71	
2025-01-13 11:40:17.88	299.31	4.68	
2025-01-13 11:40:18.70	299.20	4.65	
2025-01-13 11:40:19.52	299.08	4.62	
2025-01-13 11:40:20.34	298.96	4.59	
2025-01-13 11:40:21.16	298.84	4.56	
2025-01-13 11:40:21.98	298.73	4.53	
2025-01-13 11:40:22.82	298.61	4.49	
2025-01-13 11:40:23.64	298.49	4.46	
2025-01-13 11:40:24.46	298.38	4.43	
2025-01-13 11:40:25.28	298.26	4.40	
2025-01-13 11:40:26.10	298.15	4.37	
2025-01-13 11:40:26.93	298.03	4.33	
2025-01-13 11:40:27.76	297.91	4.30	
2025-01-13 11:40:28.58	297.80	4.27	
2025-01-13 11:40:29.40	297.69	4.24	
2025-01-13 11:40:30.22	297.57	4.20	
2025-01-13 11:40:31.04	297.46	4.17	
2025-01-13 11:40:31.86	297.35	4.14	
2025-01-13 11:40:32.68	297.23	4.11	
2025-01-13 11:40:33.52	297.12	4.07	
2025-01-13 11:40:34.34	297.00	4.04	
2025-01-13 11:40:35.16	296.89	4.01	

#Closed at: 2025-01-13 11:40:35