passes_logs/2025/01/13/SPB_Silybum_02/SPB_Silybum_02__20250113_023104_SUOMI_NPP_rec.log

#Pass ID: 20250113_023104_SUOMI NPP
#Satellite: SUOMI NPP
#Configuration: NPP
#Start time: 2025-01-13 02:31:02

#Version: 2.0.20230423
#Station: SPB_Silybum_02
#Location: 30.233357 lon 59.946436 lat
#TLE: 1 37849U 11061A   25012.17094835  .00000145  00000+0  89644-4 0  9991
#TLE: 2 37849  98.7443 313.1954 0001789  45.3429 314.7892 14.19536935684510

#Time	Az	El	Level	Level2	SNR	BER	Gain	Gain2
2025-01-13 02:31:04.95	14.07	4.05	
2025-01-13 02:31:06.20	13.96	4.12	
2025-01-13 02:31:07.44	13.86	4.19	
2025-01-13 02:31:08.67	13.76	4.26	
2025-01-13 02:31:09.90	13.65	4.33	
2025-01-13 02:31:11.13	13.55	4.40	
2025-01-13 02:31:12.36	13.45	4.47	
2025-01-13 02:31:13.59	13.34	4.54	
2025-01-13 02:31:14.82	13.24	4.62	
2025-01-13 02:31:16.06	13.13	4.69	
2025-01-13 02:31:17.29	13.03	4.76	
2025-01-13 02:31:18.52	12.92	4.83	
2025-01-13 02:31:19.76	12.81	4.90	
2025-01-13 02:31:20.99	12.70	4.97	
2025-01-13 02:31:22.22	12.60	5.04	
2025-01-13 02:31:23.45	12.49	5.11	
2025-01-13 02:31:24.69	12.38	5.18	
2025-01-13 02:31:25.93	12.27	5.26	
2025-01-13 02:31:27.17	12.16	5.33	
2025-01-13 02:31:28.40	12.05	5.40	
2025-01-13 02:31:29.63	11.93	5.47	
2025-01-13 02:31:30.88	11.82	5.55	
2025-01-13 02:31:32.11	11.71	5.62	
2025-01-13 02:31:33.35	11.59	5.69	
2025-01-13 02:31:34.58	11.48	5.76	
2025-01-13 02:31:35.81	11.37	5.83	
2025-01-13 02:31:37.06	11.25	5.91	
2025-01-13 02:31:38.29	11.13	5.98	
2025-01-13 02:31:39.53	11.02	6.05	
2025-01-13 02:31:40.77	10.90	6.13	
2025-01-13 02:31:42.00	10.78	6.20	
2025-01-13 02:31:43.25	10.66	6.27	
2025-01-13 02:31:44.48	10.54	6.34	
2025-01-13 02:31:45.71	10.42	6.42	
2025-01-13 02:31:46.94	10.30	6.49	
2025-01-13 02:31:48.17	10.18	6.56	
2025-01-13 02:31:49.42	10.06	6.64	
2025-01-13 02:31:50.66	9.94	6.71	
2025-01-13 02:31:51.90	9.81	6.79	
2025-01-13 02:31:53.13	9.69	6.86	
2025-01-13 02:31:54.36	9.57	6.93	
2025-01-13 02:31:55.58	9.44	7.00	
2025-01-13 02:31:56.81	9.32	7.08	
2025-01-13 02:31:58.04	9.19	7.15	
2025-01-13 02:31:59.28	9.07	7.23	
2025-01-13 02:32:00.51	8.94	7.30	
2025-01-13 02:32:01.73	8.81	7.37	
2025-01-13 02:32:02.96	8.68	7.45	
2025-01-13 02:32:04.21	8.55	7.52	
2025-01-13 02:32:05.44	8.42	7.60	
2025-01-13 02:32:06.68	8.29	7.67	
2025-01-13 02:32:07.91	8.16	7.75	
2025-01-13 02:32:09.14	8.03	7.82	
2025-01-13 02:32:10.38	7.90	7.90	
2025-01-13 02:32:11.61	7.76	7.97	
2025-01-13 02:32:12.84	7.63	8.04	
2025-01-13 02:32:14.08	7.49	8.12	
2025-01-13 02:32:15.31	7.36	8.19	
2025-01-13 02:32:16.54	7.22	8.27	
2025-01-13 02:32:17.77	7.09	8.34	
2025-01-13 02:32:19.00	6.95	8.42	
2025-01-13 02:32:20.24	6.81	8.49	
2025-01-13 02:32:21.47	6.67	8.57	
2025-01-13 02:32:22.70	6.53	8.64	
2025-01-13 02:32:23.95	6.39	8.72	
2025-01-13 02:32:25.18	6.25	8.80	
2025-01-13 02:32:26.41	6.11	8.87	
2025-01-13 02:32:27.66	5.96	8.95	
2025-01-13 02:32:28.89	5.82	9.02	
2025-01-13 02:32:30.12	5.67	9.10	
2025-01-13 02:32:31.35	5.53	9.17	
2025-01-13 02:32:32.58	5.38	9.25	
2025-01-13 02:32:33.80	5.24	9.32	
2025-01-13 02:32:35.04	5.09	9.40	
2025-01-13 02:32:36.28	4.94	9.48	
2025-01-13 02:32:37.51	4.79	9.55	
2025-01-13 02:32:38.74	4.64	9.63	
2025-01-13 02:32:39.97	4.49	9.70	
2025-01-13 02:32:41.20	4.34	9.78	
2025-01-13 02:32:42.44	4.19	9.86	
2025-01-13 02:32:43.68	4.03	9.93	
2025-01-13 02:32:44.92	3.88	10.01	
2025-01-13 02:32:46.15	3.72	10.09	
2025-01-13 02:32:47.38	3.57	10.16	
2025-01-13 02:32:48.61	3.41	10.24	
2025-01-13 02:32:49.84	3.25	10.31	
2025-01-13 02:32:51.07	3.10	10.39	
2025-01-13 02:32:52.30	2.94	10.47	
2025-01-13 02:32:53.53	2.78	10.54	
2025-01-13 02:32:54.76	2.62	10.62	
2025-01-13 02:32:56.00	2.46	10.69	
2025-01-13 02:32:57.23	2.29	10.77	
2025-01-13 02:32:58.46	2.13	10.85	
2025-01-13 02:32:59.70	1.96	10.92	
2025-01-13 02:33:00.93	1.80	11.00	
2025-01-13 02:33:02.16	1.63	11.08	
2025-01-13 02:33:03.39	1.47	11.15	
2025-01-13 02:33:04.62	1.30	11.23	
2025-01-13 02:33:05.85	1.13	11.30	
2025-01-13 02:33:07.08	0.96	11.38	
2025-01-13 02:33:08.32	0.79	11.46	
2025-01-13 02:33:09.55	0.62	11.53	
2025-01-13 02:33:10.78	0.45	11.61	
2025-01-13 02:33:12.01	0.28	11.69	
2025-01-13 02:33:13.24	0.10	11.76	
2025-01-13 02:33:14.47	359.93	11.84	
2025-01-13 02:33:15.70	359.75	11.91	
2025-01-13 02:33:16.93	359.58	11.99	
2025-01-13 02:33:18.16	359.40	12.07	
2025-01-13 02:33:19.40	359.22	12.14	
2025-01-13 02:33:20.63	359.04	12.22	
2025-01-13 02:33:21.88	358.86	12.30	
2025-01-13 02:33:23.11	358.67	12.37	
2025-01-13 02:33:24.34	358.49	12.45	
2025-01-13 02:33:25.57	358.31	12.52	
2025-01-13 02:33:26.80	358.12	12.60	
2025-01-13 02:33:28.04	357.94	12.67	
2025-01-13 02:33:29.28	357.75	12.75	
2025-01-13 02:33:30.51	357.56	12.83	
2025-01-13 02:33:31.75	357.37	12.90	
2025-01-13 02:33:32.98	357.18	12.98	
2025-01-13 02:33:34.21	356.99	13.05	
2025-01-13 02:33:35.47	356.80	13.13	
2025-01-13 02:33:36.71	356.60	13.20	
2025-01-13 02:33:37.94	356.41	13.28	
2025-01-13 02:33:39.17	356.22	13.35	
2025-01-13 02:33:40.41	356.02	13.43	
2025-01-13 02:33:41.64	355.82	13.50	
2025-01-13 02:33:42.87	355.63	13.58	
2025-01-13 02:33:44.11	355.43	13.65	
2025-01-13 02:33:45.34	355.23	13.73	
2025-01-13 02:33:46.57	355.03	13.80	
2025-01-13 02:33:47.80	354.83	13.88	
2025-01-13 02:33:49.04	354.62	13.95	
2025-01-13 02:33:50.27	354.42	14.02	
2025-01-13 02:33:51.50	354.22	14.10	
2025-01-13 02:33:52.74	354.01	14.17	
2025-01-13 02:33:53.97	353.80	14.25	
2025-01-13 02:33:55.20	353.60	14.32	
2025-01-13 02:33:56.43	353.39	14.39	
2025-01-13 02:33:57.67	353.18	14.46	
2025-01-13 02:33:58.90	352.97	14.54	
2025-01-13 02:34:00.13	352.75	14.61	
2025-01-13 02:34:01.37	352.54	14.68	
2025-01-13 02:34:02.60	352.33	14.75	
2025-01-13 02:34:03.84	352.11	14.83	
2025-01-13 02:34:05.08	351.89	14.90	
2025-01-13 02:34:06.32	351.67	14.97	
2025-01-13 02:34:07.55	351.45	15.04	
2025-01-13 02:34:08.78	351.24	15.11	
2025-01-13 02:34:10.01	351.02	15.19	
2025-01-13 02:34:11.25	350.79	15.26	
2025-01-13 02:34:12.48	350.57	15.33	
2025-01-13 02:34:13.71	350.35	15.40	
2025-01-13 02:34:14.95	350.12	15.47	
2025-01-13 02:34:16.19	349.89	15.54	
2025-01-13 02:34:17.42	349.67	15.61	
2025-01-13 02:34:18.65	349.44	15.68	
2025-01-13 02:34:19.89	349.21	15.75	
2025-01-13 02:34:21.12	348.98	15.81	
2025-01-13 02:34:22.36	348.75	15.88	
2025-01-13 02:34:23.61	348.51	15.95	
2025-01-13 02:34:24.84	348.28	16.02	
2025-01-13 02:34:26.07	348.04	16.09	
2025-01-13 02:34:27.30	347.81	16.16	
2025-01-13 02:34:28.54	347.57	16.22	
2025-01-13 02:34:29.79	347.33	16.29	
2025-01-13 02:34:31.02	347.09	16.36	
2025-01-13 02:34:32.25	346.85	16.42	
2025-01-13 02:34:33.48	346.61	16.49	
2025-01-13 02:34:34.71	346.37	16.55	
2025-01-13 02:34:35.94	346.13	16.62	
2025-01-13 02:34:37.19	345.88	16.68	
2025-01-13 02:34:38.42	345.63	16.75	
2025-01-13 02:34:39.65	345.39	16.81	
2025-01-13 02:34:40.88	345.14	16.88	
2025-01-13 02:34:42.11	344.89	16.94	
2025-01-13 02:34:43.34	344.64	17.00	
2025-01-13 02:34:44.57	344.39	17.06	
2025-01-13 02:34:45.82	344.14	17.13	
2025-01-13 02:34:47.05	343.89	17.19	
2025-01-13 02:34:48.29	343.63	17.25	
2025-01-13 02:34:49.52	343.38	17.31	
2025-01-13 02:34:50.75	343.12	17.37	
2025-01-13 02:34:51.98	342.87	17.43	
2025-01-13 02:34:53.21	342.61	17.49	
2025-01-13 02:34:54.45	342.35	17.55	
2025-01-13 02:34:55.68	342.09	17.61	
2025-01-13 02:34:56.91	341.83	17.66	
2025-01-13 02:34:58.14	341.57	17.72	
2025-01-13 02:34:59.38	341.30	17.78	
2025-01-13 02:35:00.61	341.04	17.84	
2025-01-13 02:35:01.84	340.77	17.89	
2025-01-13 02:35:03.08	340.51	17.95	
2025-01-13 02:35:04.31	340.24	18.00	
2025-01-13 02:35:05.54	339.97	18.06	
2025-01-13 02:35:06.78	339.70	18.11	
2025-01-13 02:35:08.01	339.43	18.16	
2025-01-13 02:35:09.24	339.16	18.22	
2025-01-13 02:35:10.49	338.89	18.27	
2025-01-13 02:35:11.72	338.61	18.32	
2025-01-13 02:35:12.96	338.34	18.37	
2025-01-13 02:35:14.20	338.06	18.42	
2025-01-13 02:35:15.44	337.79	18.47	
2025-01-13 02:35:16.67	337.51	18.52	
2025-01-13 02:35:17.90	337.23	18.57	
2025-01-13 02:35:19.14	336.95	18.62	
2025-01-13 02:35:20.37	336.67	18.67	
2025-01-13 02:35:21.60	336.39	18.71	
2025-01-13 02:35:22.85	336.11	18.76	
2025-01-13 02:35:24.08	335.83	18.81	
2025-01-13 02:35:25.31	335.55	18.85	
2025-01-13 02:35:26.55	335.26	18.90	
2025-01-13 02:35:27.78	334.98	18.94	
2025-01-13 02:35:29.01	334.69	18.98	
2025-01-13 02:35:30.24	334.41	19.03	
2025-01-13 02:35:31.47	334.12	19.07	
2025-01-13 02:35:32.70	333.83	19.11	
2025-01-13 02:35:33.93	333.55	19.15	
2025-01-13 02:35:35.16	333.26	19.19	
2025-01-13 02:35:36.39	332.97	19.23	
2025-01-13 02:35:37.62	332.68	19.27	
2025-01-13 02:35:38.85	332.39	19.30	
2025-01-13 02:35:40.08	332.10	19.34	
2025-01-13 02:35:41.31	331.80	19.38	
2025-01-13 02:35:42.55	331.51	19.41	
2025-01-13 02:35:43.78	331.21	19.45	
2025-01-13 02:35:45.01	330.92	19.48	
2025-01-13 02:35:46.25	330.62	19.51	
2025-01-13 02:35:47.48	330.33	19.55	
2025-01-13 02:35:48.71	330.03	19.58	
2025-01-13 02:35:49.94	329.73	19.61	
2025-01-13 02:35:51.18	329.43	19.64	
2025-01-13 02:35:52.41	329.14	19.67	
2025-01-13 02:35:53.64	328.84	19.70	
2025-01-13 02:35:54.88	328.54	19.72	
2025-01-13 02:35:56.12	328.23	19.75	
2025-01-13 02:35:57.36	327.93	19.78	
2025-01-13 02:35:58.59	327.63	19.80	
2025-01-13 02:35:59.82	327.33	19.83	
2025-01-13 02:36:01.05	327.03	19.85	
2025-01-13 02:36:02.29	326.72	19.87	
2025-01-13 02:36:03.52	326.42	19.90	
2025-01-13 02:36:04.76	326.12	19.92	
2025-01-13 02:36:05.99	325.81	19.94	
2025-01-13 02:36:07.22	325.51	19.96	
2025-01-13 02:36:08.47	325.20	19.98	
2025-01-13 02:36:09.71	324.89	19.99	
2025-01-13 02:36:10.94	324.59	20.01	
2025-01-13 02:36:12.18	324.28	20.03	
2025-01-13 02:36:13.41	323.97	20.04	
2025-01-13 02:36:14.64	323.67	20.06	
2025-01-13 02:36:15.88	323.36	20.07	
2025-01-13 02:36:17.13	323.05	20.08	
2025-01-13 02:36:18.36	322.74	20.10	
2025-01-13 02:36:19.59	322.43	20.11	
2025-01-13 02:36:20.82	322.12	20.12	
2025-01-13 02:36:22.05	321.82	20.13	
2025-01-13 02:36:23.29	321.51	20.14	
2025-01-13 02:36:24.52	321.20	20.14	
2025-01-13 02:36:25.75	320.89	20.15	
2025-01-13 02:36:26.99	320.58	20.16	
2025-01-13 02:36:28.22	320.27	20.16	
2025-01-13 02:36:29.45	319.96	20.17	
2025-01-13 02:36:30.69	319.65	20.17	
2025-01-13 02:36:31.92	319.34	20.17	
2025-01-13 02:36:33.17	319.03	20.17	
2025-01-13 02:36:34.40	318.72	20.17	
2025-01-13 02:36:35.62	318.42	20.17	
2025-01-13 02:36:36.86	318.11	20.17	
2025-01-13 02:36:38.09	317.80	20.17	
2025-01-13 02:36:39.33	317.49	20.17	
2025-01-13 02:36:40.56	317.18	20.16	
2025-01-13 02:36:41.80	316.87	20.16	
2025-01-13 02:36:43.03	316.56	20.15	
2025-01-13 02:36:44.27	316.25	20.15	
2025-01-13 02:36:45.51	315.94	20.14	
2025-01-13 02:36:46.74	315.63	20.13	
2025-01-13 02:36:47.97	315.32	20.12	
2025-01-13 02:36:49.20	315.01	20.11	
2025-01-13 02:36:50.44	314.70	20.10	
2025-01-13 02:36:51.68	314.39	20.09	
2025-01-13 02:36:52.91	314.09	20.08	
2025-01-13 02:36:54.14	313.78	20.06	
2025-01-13 02:36:55.38	313.47	20.05	
2025-01-13 02:36:56.60	313.17	20.03	
2025-01-13 02:36:57.83	312.86	20.02	
2025-01-13 02:36:59.07	312.56	20.00	
2025-01-13 02:37:00.29	312.25	19.98	
2025-01-13 02:37:01.52	311.95	19.97	
2025-01-13 02:37:02.75	311.64	19.95	
2025-01-13 02:37:03.98	311.34	19.93	
2025-01-13 02:37:05.21	311.04	19.91	
2025-01-13 02:37:06.44	310.73	19.88	
2025-01-13 02:37:07.67	310.43	19.86	
2025-01-13 02:37:08.91	310.13	19.84	
2025-01-13 02:37:10.16	309.82	19.81	
2025-01-13 02:37:11.39	309.52	19.79	
2025-01-13 02:37:12.63	309.21	19.76	
2025-01-13 02:37:13.86	308.91	19.74	
2025-01-13 02:37:15.09	308.61	19.71	
2025-01-13 02:37:16.33	308.31	19.68	
2025-01-13 02:37:17.56	308.01	19.65	
2025-01-13 02:37:18.80	307.71	19.62	
2025-01-13 02:37:20.04	307.41	19.59	
2025-01-13 02:37:21.27	307.12	19.56	
2025-01-13 02:37:22.50	306.82	19.53	
2025-01-13 02:37:23.74	306.52	19.49	
2025-01-13 02:37:24.97	306.23	19.46	
2025-01-13 02:37:26.21	305.93	19.43	
2025-01-13 02:37:27.46	305.63	19.39	
2025-01-13 02:37:28.69	305.34	19.35	
2025-01-13 02:37:29.94	305.04	19.32	
2025-01-13 02:37:31.17	304.75	19.28	
2025-01-13 02:37:32.40	304.46	19.24	
2025-01-13 02:37:33.63	304.17	19.20	
2025-01-13 02:37:34.86	303.88	19.16	
2025-01-13 02:37:36.11	303.59	19.12	
2025-01-13 02:37:37.34	303.30	19.08	
2025-01-13 02:37:38.57	303.01	19.04	
2025-01-13 02:37:39.81	302.72	19.00	
2025-01-13 02:37:41.04	302.44	18.96	
2025-01-13 02:37:42.27	302.15	18.91	
2025-01-13 02:37:43.50	301.87	18.87	
2025-01-13 02:37:44.73	301.59	18.82	
2025-01-13 02:37:45.96	301.30	18.78	
2025-01-13 02:37:47.20	301.02	18.73	
2025-01-13 02:37:48.43	300.74	18.69	
2025-01-13 02:37:49.66	300.46	18.64	
2025-01-13 02:37:50.91	300.18	18.59	
2025-01-13 02:37:52.14	299.90	18.54	
2025-01-13 02:37:53.37	299.62	18.49	
2025-01-13 02:37:54.61	299.34	18.44	
2025-01-13 02:37:55.84	299.07	18.39	
2025-01-13 02:37:57.07	298.80	18.34	
2025-01-13 02:37:58.30	298.52	18.29	
2025-01-13 02:37:59.53	298.25	18.24	
2025-01-13 02:38:00.76	297.98	18.18	
2025-01-13 02:38:01.99	297.71	18.13	
2025-01-13 02:38:03.23	297.44	18.08	
2025-01-13 02:38:04.46	297.17	18.02	
2025-01-13 02:38:05.69	296.90	17.97	
2025-01-13 02:38:06.93	296.63	17.91	
2025-01-13 02:38:08.16	296.37	17.86	
2025-01-13 02:38:09.39	296.10	17.80	
2025-01-13 02:38:10.62	295.84	17.74	
2025-01-13 02:38:11.85	295.58	17.69	
2025-01-13 02:38:13.08	295.31	17.63	
2025-01-13 02:38:14.31	295.05	17.57	
2025-01-13 02:38:15.55	294.79	17.51	
2025-01-13 02:38:16.78	294.53	17.45	
2025-01-13 02:38:18.02	294.27	17.39	
2025-01-13 02:38:19.25	294.02	17.33	
2025-01-13 02:38:20.48	293.76	17.27	
2025-01-13 02:38:21.71	293.51	17.21	
2025-01-13 02:38:22.95	293.25	17.15	
2025-01-13 02:38:24.18	293.00	17.09	
2025-01-13 02:38:25.41	292.75	17.02	
2025-01-13 02:38:26.64	292.50	16.96	
2025-01-13 02:38:27.88	292.25	16.90	
2025-01-13 02:38:29.12	292.00	16.83	
2025-01-13 02:38:30.35	291.75	16.77	
2025-01-13 02:38:31.58	291.50	16.71	
2025-01-13 02:38:32.82	291.26	16.64	
2025-01-13 02:38:34.05	291.01	16.58	
2025-01-13 02:38:35.29	290.77	16.51	
2025-01-13 02:38:36.52	290.53	16.45	
2025-01-13 02:38:37.75	290.28	16.38	
2025-01-13 02:38:38.98	290.05	16.31	
2025-01-13 02:38:40.21	289.81	16.25	
2025-01-13 02:38:41.44	289.57	16.18	
2025-01-13 02:38:42.68	289.33	16.11	
2025-01-13 02:38:43.93	289.09	16.04	
2025-01-13 02:38:45.16	288.86	15.98	
2025-01-13 02:38:46.40	288.62	15.91	
2025-01-13 02:38:47.63	288.39	15.84	
2025-01-13 02:38:48.86	288.16	15.77	
2025-01-13 02:38:50.11	287.93	15.70	
2025-01-13 02:38:51.34	287.70	15.63	
2025-01-13 02:38:52.57	287.47	15.56	
2025-01-13 02:38:53.81	287.24	15.49	
2025-01-13 02:38:55.04	287.01	15.42	
2025-01-13 02:38:56.28	286.79	15.35	
2025-01-13 02:38:57.54	286.56	15.28	
2025-01-13 02:38:58.77	286.34	15.21	
2025-01-13 02:39:00.00	286.12	15.14	
2025-01-13 02:39:01.23	285.89	15.06	
2025-01-13 02:39:02.48	285.67	14.99	
2025-01-13 02:39:03.73	285.45	14.92	
2025-01-13 02:39:04.98	285.23	14.85	
2025-01-13 02:39:06.21	285.01	14.77	
2025-01-13 02:39:07.44	284.80	14.70	
2025-01-13 02:39:08.68	284.58	14.63	
2025-01-13 02:39:09.92	284.37	14.56	
2025-01-13 02:39:11.16	284.15	14.48	
2025-01-13 02:39:12.39	283.94	14.41	
2025-01-13 02:39:13.62	283.73	14.34	
2025-01-13 02:39:14.87	283.52	14.26	
2025-01-13 02:39:16.10	283.31	14.19	
2025-01-13 02:39:17.34	283.11	14.11	
2025-01-13 02:39:18.57	282.90	14.04	
2025-01-13 02:39:19.80	282.70	13.97	
2025-01-13 02:39:21.03	282.49	13.89	
2025-01-13 02:39:22.26	282.29	13.82	
2025-01-13 02:39:23.50	282.09	13.74	
2025-01-13 02:39:24.73	281.89	13.67	
2025-01-13 02:39:25.98	281.68	13.59	
2025-01-13 02:39:27.21	281.49	13.52	
2025-01-13 02:39:28.44	281.29	13.44	
2025-01-13 02:39:29.67	281.09	13.37	
2025-01-13 02:39:30.91	280.90	13.29	
2025-01-13 02:39:32.14	280.70	13.22	
2025-01-13 02:39:33.37	280.51	13.14	
2025-01-13 02:39:34.60	280.32	13.07	
2025-01-13 02:39:35.84	280.12	12.99	
2025-01-13 02:39:37.09	279.93	12.91	
2025-01-13 02:39:38.32	279.74	12.84	
2025-01-13 02:39:39.56	279.55	12.76	
2025-01-13 02:39:40.79	279.36	12.69	
2025-01-13 02:39:42.03	279.17	12.61	
2025-01-13 02:39:43.29	278.98	12.53	
2025-01-13 02:39:44.52	278.80	12.46	
2025-01-13 02:39:45.75	278.62	12.38	
2025-01-13 02:39:46.99	278.43	12.31	
2025-01-13 02:39:48.23	278.25	12.23	
2025-01-13 02:39:49.47	278.07	12.15	
2025-01-13 02:39:50.71	277.89	12.08	
2025-01-13 02:39:51.94	277.71	12.00	
2025-01-13 02:39:53.18	277.53	11.92	
2025-01-13 02:39:54.40	277.35	11.85	
2025-01-13 02:39:55.64	277.18	11.77	
2025-01-13 02:39:56.88	277.00	11.69	
2025-01-13 02:39:58.12	276.82	11.62	
2025-01-13 02:39:59.36	276.65	11.54	
2025-01-13 02:40:00.60	276.48	11.46	
2025-01-13 02:40:01.83	276.30	11.39	
2025-01-13 02:40:03.06	276.13	11.31	
2025-01-13 02:40:04.29	275.96	11.23	
2025-01-13 02:40:05.53	275.79	11.16	
2025-01-13 02:40:06.76	275.63	11.08	
2025-01-13 02:40:07.99	275.46	11.00	
2025-01-13 02:40:09.22	275.29	10.93	
2025-01-13 02:40:10.45	275.13	10.85	
2025-01-13 02:40:11.68	274.97	10.78	
2025-01-13 02:40:12.91	274.80	10.70	
2025-01-13 02:40:14.14	274.64	10.62	
2025-01-13 02:40:15.37	274.48	10.55	
2025-01-13 02:40:16.60	274.32	10.47	
2025-01-13 02:40:17.83	274.16	10.39	
2025-01-13 02:40:19.07	274.00	10.32	
2025-01-13 02:40:20.30	273.84	10.24	
2025-01-13 02:40:21.55	273.68	10.16	
2025-01-13 02:40:22.78	273.52	10.09	
2025-01-13 02:40:24.01	273.37	10.01	
2025-01-13 02:40:25.24	273.21	9.93	
2025-01-13 02:40:26.47	273.06	9.86	
2025-01-13 02:40:27.70	272.90	9.78	
2025-01-13 02:40:28.93	272.75	9.71	
2025-01-13 02:40:30.17	272.60	9.63	
2025-01-13 02:40:31.40	272.45	9.55	
2025-01-13 02:40:32.63	272.30	9.48	
2025-01-13 02:40:33.87	272.15	9.40	
2025-01-13 02:40:35.10	272.00	9.33	
2025-01-13 02:40:36.35	271.85	9.25	
2025-01-13 02:40:37.58	271.70	9.17	
2025-01-13 02:40:38.81	271.56	9.10	
2025-01-13 02:40:40.04	271.41	9.02	
2025-01-13 02:40:41.27	271.27	8.95	
2025-01-13 02:40:42.50	271.12	8.87	
2025-01-13 02:40:43.73	270.98	8.80	
2025-01-13 02:40:44.97	270.84	8.72	
2025-01-13 02:40:46.20	270.69	8.64	
2025-01-13 02:40:47.44	270.55	8.57	
2025-01-13 02:40:48.67	270.41	8.49	
2025-01-13 02:40:49.90	270.27	8.42	
2025-01-13 02:40:51.13	270.13	8.34	
2025-01-13 02:40:52.37	270.00	8.27	
2025-01-13 02:40:53.60	269.86	8.19	
2025-01-13 02:40:54.83	269.72	8.12	
2025-01-13 02:40:56.08	269.58	8.04	
2025-01-13 02:40:57.30	269.45	7.97	
2025-01-13 02:40:58.53	269.32	7.89	
2025-01-13 02:40:59.77	269.18	7.82	
2025-01-13 02:41:01.00	269.05	7.74	
2025-01-13 02:41:02.23	268.92	7.67	
2025-01-13 02:41:03.46	268.78	7.59	
2025-01-13 02:41:04.69	268.65	7.52	
2025-01-13 02:41:05.92	268.52	7.45	
2025-01-13 02:41:07.16	268.39	7.37	
2025-01-13 02:41:08.39	268.26	7.30	
2025-01-13 02:41:09.62	268.14	7.22	
2025-01-13 02:41:10.85	268.01	7.15	
2025-01-13 02:41:12.08	267.88	7.07	
2025-01-13 02:41:13.32	267.76	7.00	
2025-01-13 02:41:14.56	267.63	6.93	
2025-01-13 02:41:15.79	267.50	6.85	
2025-01-13 02:41:17.04	267.38	6.78	
2025-01-13 02:41:18.27	267.25	6.70	
2025-01-13 02:41:19.50	267.13	6.63	
2025-01-13 02:41:20.73	267.01	6.56	
2025-01-13 02:41:21.96	266.89	6.48	
2025-01-13 02:41:23.19	266.77	6.41	
2025-01-13 02:41:24.42	266.65	6.34	
2025-01-13 02:41:25.66	266.53	6.26	
2025-01-13 02:41:26.89	266.41	6.19	
2025-01-13 02:41:28.13	266.29	6.12	
2025-01-13 02:41:29.36	266.17	6.05	
2025-01-13 02:41:30.59	266.05	5.97	
2025-01-13 02:41:31.84	265.93	5.90	
2025-01-13 02:41:33.07	265.82	5.83	
2025-01-13 02:41:34.30	265.70	5.75	
2025-01-13 02:41:35.53	265.59	5.68	
2025-01-13 02:41:36.78	265.47	5.61	
2025-01-13 02:41:38.03	265.35	5.54	
2025-01-13 02:41:39.26	265.24	5.46	
2025-01-13 02:41:40.49	265.13	5.39	
2025-01-13 02:41:41.72	265.02	5.32	
2025-01-13 02:41:42.96	264.90	5.25	
2025-01-13 02:41:44.21	264.79	5.18	
2025-01-13 02:41:45.45	264.68	5.10	
2025-01-13 02:41:46.69	264.57	5.03	
2025-01-13 02:41:47.92	264.46	4.96	
2025-01-13 02:41:49.15	264.35	4.89	
2025-01-13 02:41:50.38	264.24	4.82	
2025-01-13 02:41:51.62	264.14	4.75	
2025-01-13 02:41:52.85	264.03	4.68	
2025-01-13 02:41:54.08	263.92	4.60	
2025-01-13 02:41:55.33	263.81	4.53	
2025-01-13 02:41:56.56	263.71	4.46	
2025-01-13 02:41:57.79	263.60	4.39	
2025-01-13 02:41:59.03	263.50	4.32	
2025-01-13 02:42:00.27	263.39	4.25	
2025-01-13 02:42:01.50	263.29	4.18	
2025-01-13 02:42:02.73	263.19	4.11	
2025-01-13 02:42:03.98	263.08	4.04	

#Closed at: 2025-01-13 02:42:04