passes_logs/2025/01/13/SPB_Silybum_02/SPB_Silybum_02__20250113_041113_SUOMI_NPP_rec.log

#Pass ID: 20250113_041113_SUOMI NPP
#Satellite: SUOMI NPP
#Configuration: NPP
#Start time: 2025-01-13 04:11:12

#Version: 2.0.20230423
#Station: SPB_Silybum_02
#Location: 30.233357 lon 59.946436 lat
#TLE: 1 37849U 11061A   25012.17094835  .00000145  00000+0  89644-4 0  9991
#TLE: 2 37849  98.7443 313.1954 0001789  45.3429 314.7892 14.19536935684510

#Time	Az	El	Level	Level2	SNR	BER	Gain	Gain2
2025-01-13 04:11:14.37	17.07	4.04	
2025-01-13 04:11:15.20	16.97	4.08	
2025-01-13 04:11:16.03	16.87	4.11	
2025-01-13 04:11:16.85	16.77	4.14	
2025-01-13 04:11:17.67	16.67	4.17	
2025-01-13 04:11:18.50	16.57	4.20	
2025-01-13 04:11:19.32	16.47	4.23	
2025-01-13 04:11:20.14	16.37	4.27	
2025-01-13 04:11:20.97	16.27	4.30	
2025-01-13 04:11:21.79	16.17	4.33	
2025-01-13 04:11:22.61	16.07	4.36	
2025-01-13 04:11:23.43	15.97	4.39	
2025-01-13 04:11:24.25	15.86	4.42	
2025-01-13 04:11:25.07	15.76	4.45	
2025-01-13 04:11:25.90	15.66	4.48	
2025-01-13 04:11:26.72	15.56	4.52	
2025-01-13 04:11:27.54	15.45	4.55	
2025-01-13 04:11:28.35	15.35	4.58	
2025-01-13 04:11:29.17	15.25	4.61	
2025-01-13 04:11:30.00	15.15	4.64	
2025-01-13 04:11:30.82	15.04	4.67	
2025-01-13 04:11:31.64	14.94	4.70	
2025-01-13 04:11:32.46	14.83	4.73	
2025-01-13 04:11:33.28	14.73	4.76	
2025-01-13 04:11:34.10	14.63	4.79	
2025-01-13 04:11:34.92	14.52	4.82	
2025-01-13 04:11:35.74	14.42	4.85	
2025-01-13 04:11:36.58	14.31	4.88	
2025-01-13 04:11:37.40	14.20	4.91	
2025-01-13 04:11:38.22	14.10	4.94	
2025-01-13 04:11:39.05	13.99	4.97	
2025-01-13 04:11:39.87	13.89	5.00	
2025-01-13 04:11:40.69	13.78	5.03	
2025-01-13 04:11:41.51	13.67	5.06	
2025-01-13 04:11:42.33	13.57	5.09	
2025-01-13 04:11:43.15	13.46	5.12	
2025-01-13 04:11:43.97	13.35	5.15	
2025-01-13 04:11:44.79	13.25	5.18	
2025-01-13 04:11:45.61	13.14	5.21	
2025-01-13 04:11:46.43	13.03	5.24	
2025-01-13 04:11:47.25	12.92	5.27	
2025-01-13 04:11:48.08	12.81	5.30	
2025-01-13 04:11:48.90	12.71	5.33	
2025-01-13 04:11:49.72	12.60	5.36	
2025-01-13 04:11:50.54	12.49	5.39	
2025-01-13 04:11:51.37	12.38	5.42	
2025-01-13 04:11:52.20	12.27	5.45	
2025-01-13 04:11:53.02	12.16	5.48	
2025-01-13 04:11:53.85	12.05	5.51	
2025-01-13 04:11:54.67	11.94	5.54	
2025-01-13 04:11:55.49	11.83	5.57	
2025-01-13 04:11:56.31	11.72	5.60	
2025-01-13 04:11:57.13	11.61	5.62	
2025-01-13 04:11:57.95	11.50	5.65	
2025-01-13 04:11:58.78	11.38	5.68	
2025-01-13 04:11:59.60	11.27	5.71	
2025-01-13 04:12:00.42	11.16	5.74	
2025-01-13 04:12:01.24	11.05	5.77	
2025-01-13 04:12:02.06	10.94	5.80	
2025-01-13 04:12:02.88	10.82	5.82	
2025-01-13 04:12:03.70	10.71	5.85	
2025-01-13 04:12:04.53	10.60	5.88	
2025-01-13 04:12:05.35	10.49	5.91	
2025-01-13 04:12:06.17	10.37	5.94	
2025-01-13 04:12:06.99	10.26	5.97	
2025-01-13 04:12:07.81	10.15	5.99	
2025-01-13 04:12:08.63	10.03	6.02	
2025-01-13 04:12:09.45	9.92	6.05	
2025-01-13 04:12:10.27	9.80	6.08	
2025-01-13 04:12:11.09	9.69	6.10	
2025-01-13 04:12:11.91	9.58	6.13	
2025-01-13 04:12:12.73	9.46	6.16	
2025-01-13 04:12:13.55	9.35	6.19	
2025-01-13 04:12:14.38	9.23	6.21	
2025-01-13 04:12:15.20	9.11	6.24	
2025-01-13 04:12:16.03	9.00	6.27	
2025-01-13 04:12:16.86	8.88	6.30	
2025-01-13 04:12:17.68	8.76	6.32	
2025-01-13 04:12:18.50	8.65	6.35	
2025-01-13 04:12:19.32	8.53	6.38	
2025-01-13 04:12:20.14	8.41	6.40	
2025-01-13 04:12:20.96	8.30	6.43	
2025-01-13 04:12:21.78	8.18	6.46	
2025-01-13 04:12:22.60	8.06	6.48	
2025-01-13 04:12:23.42	7.94	6.51	
2025-01-13 04:12:24.24	7.83	6.53	
2025-01-13 04:12:25.06	7.71	6.56	
2025-01-13 04:12:25.89	7.59	6.59	
2025-01-13 04:12:26.71	7.47	6.61	
2025-01-13 04:12:27.53	7.35	6.64	
2025-01-13 04:12:28.35	7.23	6.67	
2025-01-13 04:12:29.17	7.11	6.69	
2025-01-13 04:12:29.99	6.99	6.72	
2025-01-13 04:12:30.81	6.87	6.74	
2025-01-13 04:12:31.65	6.75	6.77	
2025-01-13 04:12:32.47	6.63	6.79	
2025-01-13 04:12:33.29	6.51	6.82	
2025-01-13 04:12:34.11	6.39	6.84	
2025-01-13 04:12:34.94	6.27	6.87	
2025-01-13 04:12:35.76	6.15	6.89	
2025-01-13 04:12:36.58	6.03	6.92	
2025-01-13 04:12:37.40	5.91	6.94	
2025-01-13 04:12:38.24	5.78	6.97	
2025-01-13 04:12:39.06	5.66	6.99	
2025-01-13 04:12:39.88	5.54	7.02	
2025-01-13 04:12:40.70	5.42	7.04	
2025-01-13 04:12:41.53	5.29	7.07	
2025-01-13 04:12:42.35	5.17	7.09	
2025-01-13 04:12:43.18	5.04	7.12	
2025-01-13 04:12:44.01	4.92	7.14	
2025-01-13 04:12:44.83	4.80	7.16	
2025-01-13 04:12:45.65	4.67	7.19	
2025-01-13 04:12:46.48	4.55	7.21	
2025-01-13 04:12:47.30	4.42	7.24	
2025-01-13 04:12:48.12	4.30	7.26	
2025-01-13 04:12:48.94	4.18	7.28	
2025-01-13 04:12:49.76	4.05	7.31	
2025-01-13 04:12:50.59	3.93	7.33	
2025-01-13 04:12:51.41	3.80	7.35	
2025-01-13 04:12:52.23	3.68	7.37	
2025-01-13 04:12:53.05	3.55	7.40	
2025-01-13 04:12:53.87	3.43	7.42	
2025-01-13 04:12:54.69	3.30	7.44	
2025-01-13 04:12:55.51	3.17	7.47	
2025-01-13 04:12:56.33	3.05	7.49	
2025-01-13 04:12:57.15	2.92	7.51	
2025-01-13 04:12:57.98	2.79	7.53	
2025-01-13 04:12:58.80	2.67	7.55	
2025-01-13 04:12:59.63	2.54	7.58	
2025-01-13 04:13:00.47	2.41	7.60	
2025-01-13 04:13:01.29	2.28	7.62	
2025-01-13 04:13:02.11	2.15	7.64	
2025-01-13 04:13:02.93	2.03	7.66	
2025-01-13 04:13:03.75	1.90	7.68	
2025-01-13 04:13:04.57	1.77	7.71	
2025-01-13 04:13:05.40	1.64	7.73	
2025-01-13 04:13:06.22	1.51	7.75	
2025-01-13 04:13:07.04	1.38	7.77	
2025-01-13 04:13:07.86	1.26	7.79	
2025-01-13 04:13:08.68	1.13	7.81	
2025-01-13 04:13:09.50	1.00	7.83	
2025-01-13 04:13:10.33	0.87	7.85	
2025-01-13 04:13:11.15	0.74	7.87	
2025-01-13 04:13:11.98	0.61	7.89	
2025-01-13 04:13:12.81	0.47	7.91	
2025-01-13 04:13:13.62	0.35	7.93	
2025-01-13 04:13:14.45	0.21	7.95	
2025-01-13 04:13:15.27	0.08	7.97	
2025-01-13 04:13:16.09	359.95	7.99	
2025-01-13 04:13:16.92	359.82	8.01	
2025-01-13 04:13:17.74	359.69	8.03	
2025-01-13 04:13:18.57	359.56	8.05	
2025-01-13 04:13:19.39	359.43	8.07	
2025-01-13 04:13:20.21	359.29	8.09	
2025-01-13 04:13:21.03	359.16	8.11	
2025-01-13 04:13:21.87	359.03	8.13	
2025-01-13 04:13:22.69	358.90	8.14	
2025-01-13 04:13:23.51	358.76	8.16	
2025-01-13 04:13:24.33	358.63	8.18	
2025-01-13 04:13:25.15	358.50	8.20	
2025-01-13 04:13:25.97	358.37	8.22	
2025-01-13 04:13:26.79	358.23	8.23	
2025-01-13 04:13:27.61	358.10	8.25	
2025-01-13 04:13:28.43	357.97	8.27	
2025-01-13 04:13:29.27	357.83	8.29	
2025-01-13 04:13:30.09	357.70	8.30	
2025-01-13 04:13:30.91	357.56	8.32	
2025-01-13 04:13:31.74	357.43	8.34	
2025-01-13 04:13:32.56	357.29	8.36	
2025-01-13 04:13:33.38	357.16	8.37	
2025-01-13 04:13:34.21	357.02	8.39	
2025-01-13 04:13:35.03	356.89	8.41	
2025-01-13 04:13:35.85	356.76	8.42	
2025-01-13 04:13:36.67	356.62	8.44	
2025-01-13 04:13:37.49	356.49	8.45	
2025-01-13 04:13:38.31	356.35	8.47	
2025-01-13 04:13:39.15	356.21	8.49	
2025-01-13 04:13:39.97	356.08	8.50	
2025-01-13 04:13:40.79	355.94	8.52	
2025-01-13 04:13:41.61	355.81	8.53	
2025-01-13 04:13:42.43	355.67	8.55	
2025-01-13 04:13:43.25	355.53	8.56	
2025-01-13 04:13:44.07	355.40	8.58	
2025-01-13 04:13:44.90	355.26	8.59	
2025-01-13 04:13:45.72	355.12	8.61	
2025-01-13 04:13:46.54	354.99	8.62	
2025-01-13 04:13:47.36	354.85	8.64	
2025-01-13 04:13:48.19	354.71	8.65	
2025-01-13 04:13:49.02	354.57	8.67	
2025-01-13 04:13:49.85	354.44	8.68	
2025-01-13 04:13:50.68	354.30	8.69	
2025-01-13 04:13:51.50	354.16	8.71	
2025-01-13 04:13:52.32	354.02	8.72	
2025-01-13 04:13:53.14	353.88	8.73	
2025-01-13 04:13:53.96	353.75	8.75	
2025-01-13 04:13:54.78	353.61	8.76	
2025-01-13 04:13:55.60	353.47	8.77	
2025-01-13 04:13:56.42	353.33	8.79	
2025-01-13 04:13:57.24	353.19	8.80	
2025-01-13 04:13:58.06	353.06	8.81	
2025-01-13 04:13:58.90	352.91	8.82	
2025-01-13 04:13:59.72	352.78	8.83	
2025-01-13 04:14:00.54	352.64	8.85	
2025-01-13 04:14:01.36	352.50	8.86	
2025-01-13 04:14:02.18	352.36	8.87	
2025-01-13 04:14:03.01	352.22	8.88	
2025-01-13 04:14:03.83	352.08	8.89	
2025-01-13 04:14:04.65	351.94	8.90	
2025-01-13 04:14:05.47	351.80	8.91	
2025-01-13 04:14:06.30	351.66	8.93	
2025-01-13 04:14:07.12	351.52	8.94	
2025-01-13 04:14:07.94	351.38	8.95	
2025-01-13 04:14:08.77	351.24	8.96	
2025-01-13 04:14:09.59	351.10	8.97	
2025-01-13 04:14:10.41	350.96	8.98	
2025-01-13 04:14:11.23	350.82	8.99	
2025-01-13 04:14:12.04	350.68	9.00	
2025-01-13 04:14:12.87	350.54	9.01	
2025-01-13 04:14:13.69	350.40	9.02	
2025-01-13 04:14:14.51	350.26	9.03	
2025-01-13 04:14:15.33	350.12	9.03	
2025-01-13 04:14:16.16	349.98	9.04	
2025-01-13 04:14:16.97	349.84	9.05	
2025-01-13 04:14:17.79	349.70	9.06	
2025-01-13 04:14:18.61	349.56	9.07	
2025-01-13 04:14:19.44	349.41	9.08	
2025-01-13 04:14:20.27	349.27	9.09	
2025-01-13 04:14:21.10	349.13	9.09	
2025-01-13 04:14:21.92	348.99	9.10	
2025-01-13 04:14:22.73	348.85	9.11	
2025-01-13 04:14:23.55	348.71	9.12	
2025-01-13 04:14:24.38	348.56	9.12	
2025-01-13 04:14:25.21	348.42	9.13	
2025-01-13 04:14:26.03	348.28	9.14	
2025-01-13 04:14:26.85	348.14	9.14	
2025-01-13 04:14:27.68	347.99	9.15	
2025-01-13 04:14:28.50	347.85	9.16	
2025-01-13 04:14:29.32	347.71	9.16	
2025-01-13 04:14:30.14	347.57	9.17	
2025-01-13 04:14:30.97	347.42	9.18	
2025-01-13 04:14:31.80	347.28	9.18	
2025-01-13 04:14:32.62	347.14	9.19	
2025-01-13 04:14:33.44	347.00	9.19	
2025-01-13 04:14:34.27	346.85	9.20	
2025-01-13 04:14:35.09	346.71	9.20	
2025-01-13 04:14:35.91	346.57	9.21	
2025-01-13 04:14:36.73	346.43	9.21	
2025-01-13 04:14:37.55	346.28	9.22	
2025-01-13 04:14:38.39	346.14	9.22	
2025-01-13 04:14:39.21	345.99	9.23	
2025-01-13 04:14:40.03	345.85	9.23	
2025-01-13 04:14:40.85	345.71	9.24	
2025-01-13 04:14:41.67	345.57	9.24	
2025-01-13 04:14:42.49	345.42	9.24	
2025-01-13 04:14:43.31	345.28	9.25	
2025-01-13 04:14:44.13	345.14	9.25	
2025-01-13 04:14:44.96	345.00	9.25	
2025-01-13 04:14:45.78	344.85	9.26	
2025-01-13 04:14:46.60	344.71	9.26	
2025-01-13 04:14:47.42	344.57	9.26	
2025-01-13 04:14:48.24	344.42	9.26	
2025-01-13 04:14:49.06	344.28	9.27	
2025-01-13 04:14:49.88	344.14	9.27	
2025-01-13 04:14:50.71	343.99	9.27	
2025-01-13 04:14:51.53	343.85	9.27	
2025-01-13 04:14:52.35	343.71	9.27	
2025-01-13 04:14:53.17	343.57	9.27	
2025-01-13 04:14:54.00	343.42	9.28	
2025-01-13 04:14:54.82	343.28	9.28	
2025-01-13 04:14:55.65	343.13	9.28	
2025-01-13 04:14:56.47	342.99	9.28	
2025-01-13 04:14:57.28	342.85	9.28	
2025-01-13 04:14:58.11	342.70	9.28	
2025-01-13 04:14:58.93	342.56	9.28	
2025-01-13 04:14:59.75	342.42	9.28	
2025-01-13 04:15:00.57	342.28	9.28	
2025-01-13 04:15:01.39	342.13	9.28	
2025-01-13 04:15:02.21	341.99	9.28	
2025-01-13 04:15:03.03	341.85	9.28	
2025-01-13 04:15:03.85	341.70	9.28	
2025-01-13 04:15:04.68	341.56	9.28	
2025-01-13 04:15:05.50	341.42	9.27	
2025-01-13 04:15:06.32	341.27	9.27	
2025-01-13 04:15:07.14	341.13	9.27	
2025-01-13 04:15:07.96	340.99	9.27	
2025-01-13 04:15:08.78	340.84	9.27	
2025-01-13 04:15:09.60	340.70	9.27	
2025-01-13 04:15:10.43	340.56	9.26	
2025-01-13 04:15:11.25	340.41	9.26	
2025-01-13 04:15:12.07	340.27	9.26	
2025-01-13 04:15:12.89	340.13	9.26	
2025-01-13 04:15:13.71	339.99	9.25	
2025-01-13 04:15:14.54	339.84	9.25	
2025-01-13 04:15:15.38	339.69	9.25	
2025-01-13 04:15:16.20	339.55	9.24	
2025-01-13 04:15:17.03	339.41	9.24	
2025-01-13 04:15:17.85	339.27	9.24	
2025-01-13 04:15:18.67	339.12	9.23	
2025-01-13 04:15:19.49	338.98	9.23	
2025-01-13 04:15:20.32	338.84	9.22	
2025-01-13 04:15:21.15	338.69	9.22	
2025-01-13 04:15:21.98	338.55	9.22	
2025-01-13 04:15:22.80	338.41	9.21	
2025-01-13 04:15:23.62	338.26	9.21	
2025-01-13 04:15:24.44	338.12	9.20	
2025-01-13 04:15:25.26	337.98	9.20	
2025-01-13 04:15:26.08	337.84	9.19	
2025-01-13 04:15:26.90	337.69	9.18	
2025-01-13 04:15:27.72	337.55	9.18	
2025-01-13 04:15:28.54	337.41	9.17	
2025-01-13 04:15:29.37	337.27	9.17	
2025-01-13 04:15:30.19	337.12	9.16	
2025-01-13 04:15:31.01	336.98	9.15	
2025-01-13 04:15:31.83	336.84	9.15	
2025-01-13 04:15:32.66	336.70	9.14	
2025-01-13 04:15:33.50	336.55	9.13	
2025-01-13 04:15:34.32	336.41	9.13	
2025-01-13 04:15:35.14	336.27	9.12	
2025-01-13 04:15:35.96	336.13	9.11	
2025-01-13 04:15:36.78	335.99	9.10	
2025-01-13 04:15:37.61	335.84	9.10	
2025-01-13 04:15:38.43	335.70	9.09	
2025-01-13 04:15:39.25	335.56	9.08	
2025-01-13 04:15:40.07	335.42	9.07	
2025-01-13 04:15:40.91	335.28	9.06	
2025-01-13 04:15:41.73	335.14	9.06	
2025-01-13 04:15:42.56	334.99	9.05	
2025-01-13 04:15:43.38	334.85	9.04	
2025-01-13 04:15:44.21	334.71	9.03	
2025-01-13 04:15:45.05	334.57	9.02	
2025-01-13 04:15:45.87	334.43	9.01	
2025-01-13 04:15:46.71	334.28	9.00	
2025-01-13 04:15:47.53	334.14	8.99	
2025-01-13 04:15:48.34	334.00	8.98	
2025-01-13 04:15:49.17	333.86	8.97	
2025-01-13 04:15:49.99	333.72	8.96	
2025-01-13 04:15:50.83	333.58	8.95	
2025-01-13 04:15:51.66	333.44	8.94	
2025-01-13 04:15:52.49	333.30	8.93	
2025-01-13 04:15:53.31	333.16	8.92	
2025-01-13 04:15:54.13	333.02	8.91	
2025-01-13 04:15:54.95	332.88	8.90	
2025-01-13 04:15:55.77	332.74	8.88	
2025-01-13 04:15:56.59	332.60	8.87	
2025-01-13 04:15:57.41	332.46	8.86	
2025-01-13 04:15:58.23	332.32	8.85	
2025-01-13 04:15:59.05	332.18	8.84	
2025-01-13 04:15:59.87	332.04	8.83	
2025-01-13 04:16:00.69	331.91	8.81	
2025-01-13 04:16:01.51	331.77	8.80	
2025-01-13 04:16:02.33	331.63	8.79	
2025-01-13 04:16:03.17	331.49	8.78	
2025-01-13 04:16:03.99	331.35	8.76	
2025-01-13 04:16:04.81	331.21	8.75	
2025-01-13 04:16:05.63	331.07	8.74	
2025-01-13 04:16:06.45	330.94	8.72	
2025-01-13 04:16:07.28	330.80	8.71	
2025-01-13 04:16:08.11	330.66	8.70	
2025-01-13 04:16:08.93	330.52	8.68	
2025-01-13 04:16:09.75	330.38	8.67	
2025-01-13 04:16:10.57	330.25	8.65	
2025-01-13 04:16:11.39	330.11	8.64	
2025-01-13 04:16:12.21	329.97	8.63	
2025-01-13 04:16:13.04	329.83	8.61	
2025-01-13 04:16:13.85	329.70	8.60	
2025-01-13 04:16:14.68	329.56	8.58	
2025-01-13 04:16:15.50	329.43	8.57	
2025-01-13 04:16:16.32	329.29	8.55	
2025-01-13 04:16:17.14	329.15	8.54	
2025-01-13 04:16:17.97	329.02	8.52	
2025-01-13 04:16:18.79	328.88	8.51	
2025-01-13 04:16:19.61	328.75	8.49	
2025-01-13 04:16:20.43	328.61	8.48	
2025-01-13 04:16:21.26	328.47	8.46	
2025-01-13 04:16:22.08	328.34	8.44	
2025-01-13 04:16:22.90	328.20	8.43	
2025-01-13 04:16:23.73	328.07	8.41	
2025-01-13 04:16:24.56	327.93	8.39	
2025-01-13 04:16:25.38	327.80	8.38	
2025-01-13 04:16:26.21	327.66	8.36	
2025-01-13 04:16:27.02	327.53	8.34	
2025-01-13 04:16:27.83	327.40	8.33	
2025-01-13 04:16:28.65	327.26	8.31	
2025-01-13 04:16:29.48	327.13	8.29	
2025-01-13 04:16:30.30	326.99	8.27	
2025-01-13 04:16:31.13	326.86	8.26	
2025-01-13 04:16:31.95	326.73	8.24	
2025-01-13 04:16:32.77	326.59	8.22	
2025-01-13 04:16:33.60	326.46	8.20	
2025-01-13 04:16:34.42	326.33	8.19	
2025-01-13 04:16:35.24	326.19	8.17	
2025-01-13 04:16:36.06	326.06	8.15	
2025-01-13 04:16:36.88	325.93	8.13	
2025-01-13 04:16:37.70	325.80	8.11	
2025-01-13 04:16:38.52	325.66	8.09	
2025-01-13 04:16:39.34	325.53	8.07	
2025-01-13 04:16:40.16	325.40	8.06	
2025-01-13 04:16:40.99	325.27	8.04	
2025-01-13 04:16:41.81	325.14	8.02	
2025-01-13 04:16:42.62	325.01	8.00	
2025-01-13 04:16:43.45	324.88	7.98	
2025-01-13 04:16:44.26	324.75	7.96	
2025-01-13 04:16:45.10	324.61	7.94	
2025-01-13 04:16:45.92	324.48	7.92	
2025-01-13 04:16:46.74	324.35	7.90	
2025-01-13 04:16:47.57	324.22	7.88	
2025-01-13 04:16:48.39	324.09	7.86	
2025-01-13 04:16:49.21	323.96	7.84	
2025-01-13 04:16:50.03	323.83	7.82	
2025-01-13 04:16:50.85	323.70	7.80	
2025-01-13 04:16:51.67	323.58	7.78	
2025-01-13 04:16:52.49	323.45	7.75	
2025-01-13 04:16:53.32	323.32	7.73	
2025-01-13 04:16:54.14	323.19	7.71	
2025-01-13 04:16:54.97	323.06	7.69	
2025-01-13 04:16:55.79	322.93	7.67	
2025-01-13 04:16:56.61	322.80	7.65	
2025-01-13 04:16:57.43	322.67	7.63	
2025-01-13 04:16:58.25	322.55	7.61	
2025-01-13 04:16:59.09	322.42	7.58	
2025-01-13 04:16:59.91	322.29	7.56	
2025-01-13 04:17:00.73	322.16	7.54	
2025-01-13 04:17:01.55	322.04	7.52	
2025-01-13 04:17:02.37	321.91	7.49	
2025-01-13 04:17:03.19	321.78	7.47	
2025-01-13 04:17:04.02	321.66	7.45	
2025-01-13 04:17:04.84	321.53	7.43	
2025-01-13 04:17:05.66	321.41	7.40	
2025-01-13 04:17:06.48	321.28	7.38	
2025-01-13 04:17:07.30	321.15	7.36	
2025-01-13 04:17:08.13	321.03	7.34	
2025-01-13 04:17:08.95	320.90	7.31	
2025-01-13 04:17:09.77	320.78	7.29	
2025-01-13 04:17:10.59	320.65	7.27	
2025-01-13 04:17:11.41	320.53	7.24	
2025-01-13 04:17:12.24	320.40	7.22	
2025-01-13 04:17:13.05	320.28	7.20	
2025-01-13 04:17:13.87	320.16	7.17	
2025-01-13 04:17:14.69	320.03	7.15	
2025-01-13 04:17:15.52	319.91	7.12	
2025-01-13 04:17:16.34	319.79	7.10	
2025-01-13 04:17:17.16	319.66	7.07	
2025-01-13 04:17:17.98	319.54	7.05	
2025-01-13 04:17:18.80	319.42	7.03	
2025-01-13 04:17:19.62	319.30	7.00	
2025-01-13 04:17:20.44	319.18	6.98	
2025-01-13 04:17:21.26	319.05	6.95	
2025-01-13 04:17:22.09	318.93	6.93	
2025-01-13 04:17:22.91	318.81	6.90	
2025-01-13 04:17:23.75	318.69	6.88	
2025-01-13 04:17:24.57	318.56	6.85	
2025-01-13 04:17:25.40	318.44	6.83	
2025-01-13 04:17:26.23	318.32	6.80	
2025-01-13 04:17:27.05	318.20	6.78	
2025-01-13 04:17:27.87	318.08	6.75	
2025-01-13 04:17:28.69	317.96	6.73	
2025-01-13 04:17:29.51	317.84	6.70	
2025-01-13 04:17:30.33	317.72	6.67	
2025-01-13 04:17:31.15	317.60	6.65	
2025-01-13 04:17:31.97	317.48	6.62	
2025-01-13 04:17:32.80	317.36	6.60	
2025-01-13 04:17:33.62	317.24	6.57	
2025-01-13 04:17:34.44	317.13	6.54	
2025-01-13 04:17:35.26	317.01	6.52	
2025-01-13 04:17:36.08	316.89	6.49	
2025-01-13 04:17:36.90	316.77	6.46	
2025-01-13 04:17:37.72	316.65	6.44	
2025-01-13 04:17:38.54	316.54	6.41	
2025-01-13 04:17:39.36	316.42	6.39	
2025-01-13 04:17:40.18	316.30	6.36	
2025-01-13 04:17:41.00	316.19	6.33	
2025-01-13 04:17:41.82	316.07	6.30	
2025-01-13 04:17:42.64	315.95	6.28	
2025-01-13 04:17:43.46	315.84	6.25	
2025-01-13 04:17:44.28	315.72	6.22	
2025-01-13 04:17:45.10	315.61	6.20	
2025-01-13 04:17:45.92	315.49	6.17	
2025-01-13 04:17:46.74	315.38	6.14	
2025-01-13 04:17:47.56	315.26	6.11	
2025-01-13 04:17:48.38	315.15	6.09	
2025-01-13 04:17:49.21	315.03	6.06	
2025-01-13 04:17:50.03	314.92	6.03	
2025-01-13 04:17:50.85	314.80	6.00	
2025-01-13 04:17:51.67	314.69	5.98	
2025-01-13 04:17:52.51	314.57	5.95	
2025-01-13 04:17:53.34	314.46	5.92	
2025-01-13 04:17:54.16	314.35	5.89	
2025-01-13 04:17:54.99	314.23	5.86	
2025-01-13 04:17:55.81	314.12	5.83	
2025-01-13 04:17:56.63	314.01	5.81	
2025-01-13 04:17:57.45	313.89	5.78	
2025-01-13 04:17:58.28	313.78	5.75	
2025-01-13 04:17:59.10	313.67	5.72	
2025-01-13 04:17:59.92	313.56	5.69	
2025-01-13 04:18:00.74	313.45	5.66	
2025-01-13 04:18:01.56	313.34	5.63	
2025-01-13 04:18:02.38	313.22	5.60	
2025-01-13 04:18:03.22	313.11	5.58	
2025-01-13 04:18:04.04	313.00	5.55	
2025-01-13 04:18:04.87	312.89	5.52	
2025-01-13 04:18:05.70	312.78	5.49	
2025-01-13 04:18:06.52	312.67	5.46	
2025-01-13 04:18:07.34	312.56	5.43	
2025-01-13 04:18:08.16	312.45	5.40	
2025-01-13 04:18:08.98	312.34	5.37	
2025-01-13 04:18:09.80	312.23	5.34	
2025-01-13 04:18:10.62	312.12	5.31	
2025-01-13 04:18:11.44	312.02	5.28	
2025-01-13 04:18:12.26	311.91	5.25	
2025-01-13 04:18:13.08	311.80	5.22	
2025-01-13 04:18:13.90	311.69	5.19	
2025-01-13 04:18:14.73	311.58	5.16	
2025-01-13 04:18:15.55	311.48	5.13	
2025-01-13 04:18:16.37	311.37	5.10	
2025-01-13 04:18:17.19	311.26	5.07	
2025-01-13 04:18:18.01	311.16	5.04	
2025-01-13 04:18:18.83	311.05	5.01	
2025-01-13 04:18:19.65	310.94	4.98	
2025-01-13 04:18:20.47	310.84	4.95	
2025-01-13 04:18:21.30	310.73	4.92	
2025-01-13 04:18:22.12	310.62	4.89	
2025-01-13 04:18:22.94	310.52	4.86	
2025-01-13 04:18:23.77	310.41	4.83	
2025-01-13 04:18:24.59	310.31	4.80	
2025-01-13 04:18:25.41	310.20	4.77	
2025-01-13 04:18:26.23	310.10	4.74	
2025-01-13 04:18:27.06	309.99	4.71	
2025-01-13 04:18:27.88	309.89	4.68	
2025-01-13 04:18:28.70	309.79	4.65	
2025-01-13 04:18:29.52	309.68	4.62	
2025-01-13 04:18:30.34	309.58	4.59	
2025-01-13 04:18:31.16	309.48	4.56	
2025-01-13 04:18:31.98	309.37	4.52	
2025-01-13 04:18:32.80	309.27	4.49	
2025-01-13 04:18:33.62	309.17	4.46	
2025-01-13 04:18:34.45	309.07	4.43	
2025-01-13 04:18:35.27	308.96	4.40	
2025-01-13 04:18:36.09	308.86	4.37	
2025-01-13 04:18:36.91	308.76	4.34	
2025-01-13 04:18:37.73	308.66	4.31	
2025-01-13 04:18:38.55	308.56	4.28	
2025-01-13 04:18:39.37	308.46	4.24	
2025-01-13 04:18:40.19	308.36	4.21	
2025-01-13 04:18:41.02	308.26	4.18	
2025-01-13 04:18:41.84	308.16	4.15	
2025-01-13 04:18:42.67	308.05	4.12	
2025-01-13 04:18:43.49	307.95	4.09	
2025-01-13 04:18:44.32	307.85	4.05	
2025-01-13 04:18:45.14	307.75	4.02	

#Closed at: 2025-01-13 04:18:45