passes_logs/2025/01/13/SPB_Silybum_02/SPB_Silybum_02__20250113_225132_SUOMI_NPP_rec.log

#Pass ID: 20250113_225132_SUOMI NPP
#Satellite: SUOMI NPP
#Configuration: NPP
#Start time: 2025-01-13 22:51:33

#Version: 2.0.20230423
#Station: SPB_Silybum_02
#Location: 30.233357 lon 59.946436 lat
#TLE: 1 37849U 11061A   25013.15774042  .00000145  00000+0  89802-4 0  9991
#TLE: 2 37849  98.7444 314.1696 0001761  43.7896 316.3420 14.19537310684653

#Time	Az	El	Level	Level2	SNR	BER	Gain	Gain2
2025-01-13 22:51:35.17	24.84	4.17	
2025-01-13 22:51:36.41	24.92	4.25	
2025-01-13 22:51:37.64	25.01	4.32	
2025-01-13 22:51:38.87	25.10	4.40	
2025-01-13 22:51:40.10	25.19	4.47	
2025-01-13 22:51:41.34	25.28	4.55	
2025-01-13 22:51:42.57	25.37	4.62	
2025-01-13 22:51:43.80	25.46	4.70	
2025-01-13 22:51:45.03	25.55	4.77	
2025-01-13 22:51:46.26	25.64	4.85	
2025-01-13 22:51:47.49	25.73	4.92	
2025-01-13 22:51:48.72	25.82	5.00	
2025-01-13 22:51:49.96	25.92	5.08	
2025-01-13 22:51:51.20	26.01	5.15	
2025-01-13 22:51:52.45	26.11	5.23	
2025-01-13 22:51:53.68	26.20	5.31	
2025-01-13 22:51:54.91	26.29	5.38	
2025-01-13 22:51:56.14	26.39	5.46	
2025-01-13 22:51:57.39	26.49	5.54	
2025-01-13 22:51:58.62	26.58	5.62	
2025-01-13 22:51:59.85	26.68	5.69	
2025-01-13 22:52:01.08	26.77	5.77	
2025-01-13 22:52:02.32	26.87	5.85	
2025-01-13 22:52:03.55	26.97	5.93	
2025-01-13 22:52:04.78	27.07	6.00	
2025-01-13 22:52:06.01	27.17	6.08	
2025-01-13 22:52:07.24	27.27	6.16	
2025-01-13 22:52:08.48	27.37	6.24	
2025-01-13 22:52:09.71	27.47	6.32	
2025-01-13 22:52:10.94	27.57	6.40	
2025-01-13 22:52:12.18	27.67	6.48	
2025-01-13 22:52:13.42	27.77	6.56	
2025-01-13 22:52:14.65	27.87	6.64	
2025-01-13 22:52:15.88	27.98	6.72	
2025-01-13 22:52:17.11	28.08	6.80	
2025-01-13 22:52:18.34	28.18	6.87	
2025-01-13 22:52:19.57	28.29	6.95	
2025-01-13 22:52:20.80	28.39	7.03	
2025-01-13 22:52:22.04	28.50	7.12	
2025-01-13 22:52:23.28	28.61	7.20	
2025-01-13 22:52:24.51	28.71	7.28	
2025-01-13 22:52:25.74	28.82	7.36	
2025-01-13 22:52:26.97	28.93	7.44	
2025-01-13 22:52:28.22	29.04	7.52	
2025-01-13 22:52:29.45	29.15	7.60	
2025-01-13 22:52:30.68	29.26	7.68	
2025-01-13 22:52:31.92	29.37	7.77	
2025-01-13 22:52:33.15	29.48	7.85	
2025-01-13 22:52:34.40	29.59	7.93	
2025-01-13 22:52:35.63	29.70	8.01	
2025-01-13 22:52:36.86	29.81	8.10	
2025-01-13 22:52:38.10	29.93	8.18	
2025-01-13 22:52:39.32	30.04	8.26	
2025-01-13 22:52:40.56	30.16	8.35	
2025-01-13 22:52:41.79	30.27	8.43	
2025-01-13 22:52:43.02	30.39	8.51	
2025-01-13 22:52:44.25	30.50	8.60	
2025-01-13 22:52:45.50	30.62	8.68	
2025-01-13 22:52:46.73	30.74	8.77	
2025-01-13 22:52:47.96	30.86	8.85	
2025-01-13 22:52:49.19	30.97	8.93	
2025-01-13 22:52:50.42	31.09	9.02	
2025-01-13 22:52:51.67	31.22	9.10	
2025-01-13 22:52:52.90	31.34	9.19	
2025-01-13 22:52:54.13	31.46	9.27	
2025-01-13 22:52:55.36	31.58	9.36	
2025-01-13 22:52:56.59	31.70	9.44	
2025-01-13 22:52:57.82	31.83	9.53	
2025-01-13 22:52:59.05	31.95	9.62	
2025-01-13 22:53:00.28	32.07	9.70	
2025-01-13 22:53:01.52	32.20	9.79	
2025-01-13 22:53:02.75	32.33	9.87	
2025-01-13 22:53:03.98	32.45	9.96	
2025-01-13 22:53:05.21	32.58	10.05	
2025-01-13 22:53:06.44	32.71	10.13	
2025-01-13 22:53:07.68	32.84	10.22	
2025-01-13 22:53:08.90	32.97	10.31	
2025-01-13 22:53:10.13	33.10	10.40	
2025-01-13 22:53:11.37	33.23	10.48	
2025-01-13 22:53:12.60	33.36	10.57	
2025-01-13 22:53:13.83	33.50	10.66	
2025-01-13 22:53:15.07	33.63	10.75	
2025-01-13 22:53:16.31	33.77	10.84	
2025-01-13 22:53:17.55	33.90	10.93	
2025-01-13 22:53:18.78	34.04	11.02	
2025-01-13 22:53:20.01	34.17	11.11	
2025-01-13 22:53:21.24	34.31	11.19	
2025-01-13 22:53:22.47	34.45	11.28	
2025-01-13 22:53:23.71	34.59	11.37	
2025-01-13 22:53:24.94	34.73	11.46	
2025-01-13 22:53:26.17	34.87	11.55	
2025-01-13 22:53:27.40	35.01	11.64	
2025-01-13 22:53:28.63	35.15	11.73	
2025-01-13 22:53:29.87	35.30	11.82	
2025-01-13 22:53:31.11	35.44	11.92	
2025-01-13 22:53:32.34	35.59	12.01	
2025-01-13 22:53:33.59	35.74	12.10	
2025-01-13 22:53:34.82	35.88	12.19	
2025-01-13 22:53:36.05	36.03	12.28	
2025-01-13 22:53:37.28	36.18	12.37	
2025-01-13 22:53:38.51	36.33	12.46	
2025-01-13 22:53:39.76	36.48	12.56	
2025-01-13 22:53:40.99	36.63	12.65	
2025-01-13 22:53:42.22	36.78	12.74	
2025-01-13 22:53:43.46	36.94	12.83	
2025-01-13 22:53:44.69	37.09	12.93	
2025-01-13 22:53:45.92	37.25	13.02	
2025-01-13 22:53:47.15	37.40	13.11	
2025-01-13 22:53:48.38	37.56	13.21	
2025-01-13 22:53:49.63	37.72	13.30	
2025-01-13 22:53:50.86	37.88	13.39	
2025-01-13 22:53:52.09	38.04	13.49	
2025-01-13 22:53:53.32	38.20	13.58	
2025-01-13 22:53:54.56	38.36	13.67	
2025-01-13 22:53:55.79	38.52	13.77	
2025-01-13 22:53:57.02	38.69	13.86	
2025-01-13 22:53:58.26	38.85	13.96	
2025-01-13 22:53:59.49	39.02	14.05	
2025-01-13 22:54:00.72	39.19	14.15	
2025-01-13 22:54:01.94	39.35	14.24	
2025-01-13 22:54:03.17	39.52	14.34	
2025-01-13 22:54:04.40	39.69	14.43	
2025-01-13 22:54:05.63	39.86	14.53	
2025-01-13 22:54:06.87	40.04	14.62	
2025-01-13 22:54:08.09	40.21	14.72	
2025-01-13 22:54:09.33	40.38	14.81	
2025-01-13 22:54:10.55	40.56	14.91	
2025-01-13 22:54:11.78	40.73	15.00	
2025-01-13 22:54:13.01	40.91	15.10	
2025-01-13 22:54:14.24	41.09	15.20	
2025-01-13 22:54:15.49	41.27	15.29	
2025-01-13 22:54:16.73	41.45	15.39	
2025-01-13 22:54:17.97	41.64	15.49	
2025-01-13 22:54:19.20	41.82	15.58	
2025-01-13 22:54:20.43	42.00	15.68	
2025-01-13 22:54:21.66	42.19	15.78	
2025-01-13 22:54:22.89	42.37	15.87	
2025-01-13 22:54:24.12	42.56	15.97	
2025-01-13 22:54:25.35	42.75	16.07	
2025-01-13 22:54:26.58	42.94	16.17	
2025-01-13 22:54:27.82	43.13	16.26	
2025-01-13 22:54:29.05	43.32	16.36	
2025-01-13 22:54:30.29	43.52	16.46	
2025-01-13 22:54:31.52	43.71	16.56	
2025-01-13 22:54:32.77	43.91	16.66	
2025-01-13 22:54:34.00	44.11	16.75	
2025-01-13 22:54:35.23	44.31	16.85	
2025-01-13 22:54:36.46	44.51	16.95	
2025-01-13 22:54:37.69	44.71	17.05	
2025-01-13 22:54:38.92	44.91	17.15	
2025-01-13 22:54:40.15	45.12	17.24	
2025-01-13 22:54:41.39	45.32	17.34	
2025-01-13 22:54:42.62	45.53	17.44	
2025-01-13 22:54:43.85	45.74	17.54	
2025-01-13 22:54:45.08	45.95	17.64	
2025-01-13 22:54:46.31	46.16	17.74	
2025-01-13 22:54:47.54	46.37	17.84	
2025-01-13 22:54:48.77	46.58	17.93	
2025-01-13 22:54:50.00	46.79	18.03	
2025-01-13 22:54:51.23	47.01	18.13	
2025-01-13 22:54:52.46	47.23	18.23	
2025-01-13 22:54:53.69	47.45	18.33	
2025-01-13 22:54:54.92	47.66	18.43	
2025-01-13 22:54:56.17	47.89	18.53	
2025-01-13 22:54:57.39	48.11	18.62	
2025-01-13 22:54:58.63	48.34	18.72	
2025-01-13 22:54:59.86	48.56	18.82	
2025-01-13 22:55:01.09	48.79	18.92	
2025-01-13 22:55:02.34	49.02	19.02	
2025-01-13 22:55:03.57	49.25	19.12	
2025-01-13 22:55:04.81	49.48	19.22	
2025-01-13 22:55:06.04	49.71	19.31	
2025-01-13 22:55:07.27	49.95	19.41	
2025-01-13 22:55:08.50	50.18	19.51	
2025-01-13 22:55:09.73	50.42	19.61	
2025-01-13 22:55:10.96	50.66	19.71	
2025-01-13 22:55:12.20	50.90	19.80	
2025-01-13 22:55:13.43	51.14	19.90	
2025-01-13 22:55:14.66	51.39	20.00	
2025-01-13 22:55:15.90	51.63	20.10	
2025-01-13 22:55:17.13	51.88	20.19	
2025-01-13 22:55:18.36	52.13	20.29	
2025-01-13 22:55:19.59	52.37	20.39	
2025-01-13 22:55:20.82	52.63	20.48	
2025-01-13 22:55:22.05	52.88	20.58	
2025-01-13 22:55:23.29	53.13	20.68	
2025-01-13 22:55:24.52	53.39	20.77	
2025-01-13 22:55:25.77	53.65	20.87	
2025-01-13 22:55:27.00	53.91	20.97	
2025-01-13 22:55:28.23	54.17	21.06	
2025-01-13 22:55:29.46	54.43	21.16	
2025-01-13 22:55:30.70	54.69	21.25	
2025-01-13 22:55:31.94	54.96	21.35	
2025-01-13 22:55:33.17	55.23	21.44	
2025-01-13 22:55:34.41	55.50	21.54	
2025-01-13 22:55:35.65	55.77	21.63	
2025-01-13 22:55:36.88	56.04	21.73	
2025-01-13 22:55:38.11	56.31	21.82	
2025-01-13 22:55:39.35	56.59	21.92	
2025-01-13 22:55:40.58	56.87	22.01	
2025-01-13 22:55:41.83	57.15	22.10	
2025-01-13 22:55:43.07	57.43	22.20	
2025-01-13 22:55:44.30	57.71	22.29	
2025-01-13 22:55:45.54	58.00	22.38	
2025-01-13 22:55:46.77	58.28	22.47	
2025-01-13 22:55:48.01	58.57	22.56	
2025-01-13 22:55:49.25	58.86	22.65	
2025-01-13 22:55:50.48	59.15	22.74	
2025-01-13 22:55:51.72	59.44	22.83	
2025-01-13 22:55:52.97	59.74	22.92	
2025-01-13 22:55:54.20	60.03	23.01	
2025-01-13 22:55:55.43	60.33	23.10	
2025-01-13 22:55:56.66	60.62	23.19	
2025-01-13 22:55:57.89	60.92	23.28	
2025-01-13 22:55:59.12	61.22	23.36	
2025-01-13 22:56:00.36	61.53	23.45	
2025-01-13 22:56:01.60	61.84	23.53	
2025-01-13 22:56:02.83	62.14	23.62	
2025-01-13 22:56:04.06	62.45	23.70	
2025-01-13 22:56:05.29	62.76	23.79	
2025-01-13 22:56:06.54	63.07	23.87	
2025-01-13 22:56:07.77	63.38	23.96	
2025-01-13 22:56:09.00	63.70	24.04	
2025-01-13 22:56:10.23	64.01	24.12	
2025-01-13 22:56:11.47	64.33	24.20	
2025-01-13 22:56:12.70	64.65	24.28	
2025-01-13 22:56:13.93	64.97	24.36	
2025-01-13 22:56:15.16	65.29	24.44	
2025-01-13 22:56:16.40	65.62	24.52	
2025-01-13 22:56:17.65	65.95	24.60	
2025-01-13 22:56:18.88	66.28	24.67	
2025-01-13 22:56:20.11	66.61	24.75	
2025-01-13 22:56:21.36	66.94	24.83	
2025-01-13 22:56:22.59	67.27	24.90	
2025-01-13 22:56:23.82	67.60	24.97	
2025-01-13 22:56:25.05	67.94	25.05	
2025-01-13 22:56:26.29	68.28	25.12	
2025-01-13 22:56:27.53	68.62	25.19	
2025-01-13 22:56:28.76	68.96	25.26	
2025-01-13 22:56:29.99	69.30	25.33	
2025-01-13 22:56:31.22	69.64	25.40	
2025-01-13 22:56:32.45	69.98	25.47	
2025-01-13 22:56:33.68	70.33	25.53	
2025-01-13 22:56:34.91	70.67	25.60	
2025-01-13 22:56:36.14	71.02	25.67	
2025-01-13 22:56:37.37	71.37	25.73	
2025-01-13 22:56:38.60	71.72	25.79	
2025-01-13 22:56:39.83	72.07	25.85	
2025-01-13 22:56:41.07	72.43	25.92	
2025-01-13 22:56:42.30	72.78	25.98	
2025-01-13 22:56:43.53	73.14	26.04	
2025-01-13 22:56:44.76	73.49	26.09	
2025-01-13 22:56:45.99	73.85	26.15	
2025-01-13 22:56:47.22	74.21	26.21	
2025-01-13 22:56:48.45	74.57	26.26	
2025-01-13 22:56:49.69	74.94	26.32	
2025-01-13 22:56:50.93	75.30	26.37	
2025-01-13 22:56:52.17	75.67	26.42	
2025-01-13 22:56:53.41	76.04	26.47	
2025-01-13 22:56:54.65	76.41	26.52	
2025-01-13 22:56:55.89	76.78	26.57	
2025-01-13 22:56:57.13	77.15	26.62	
2025-01-13 22:56:58.36	77.52	26.66	
2025-01-13 22:56:59.60	77.90	26.71	
2025-01-13 22:57:00.84	78.27	26.75	
2025-01-13 22:57:02.09	78.65	26.80	
2025-01-13 22:57:03.32	79.03	26.84	
2025-01-13 22:57:04.55	79.40	26.88	
2025-01-13 22:57:05.79	79.78	26.92	
2025-01-13 22:57:07.03	80.16	26.95	
2025-01-13 22:57:08.27	80.54	26.99	
2025-01-13 22:57:09.50	80.92	27.02	
2025-01-13 22:57:10.73	81.30	27.06	
2025-01-13 22:57:11.96	81.68	27.09	
2025-01-13 22:57:13.19	82.06	27.12	
2025-01-13 22:57:14.42	82.44	27.15	
2025-01-13 22:57:15.66	82.83	27.18	
2025-01-13 22:57:16.91	83.22	27.21	
2025-01-13 22:57:18.14	83.60	27.23	
2025-01-13 22:57:19.37	83.98	27.26	
2025-01-13 22:57:20.60	84.37	27.28	
2025-01-13 22:57:21.84	84.76	27.30	
2025-01-13 22:57:23.07	85.14	27.32	
2025-01-13 22:57:24.30	85.53	27.34	
2025-01-13 22:57:25.53	85.92	27.36	
2025-01-13 22:57:26.77	86.31	27.37	
2025-01-13 22:57:28.00	86.70	27.39	
2025-01-13 22:57:29.24	87.09	27.40	
2025-01-13 22:57:30.47	87.48	27.41	
2025-01-13 22:57:31.70	87.86	27.42	
2025-01-13 22:57:32.94	88.26	27.43	
2025-01-13 22:57:34.17	88.64	27.44	
2025-01-13 22:57:35.40	89.03	27.45	
2025-01-13 22:57:36.63	89.42	27.45	
2025-01-13 22:57:37.87	89.82	27.46	
2025-01-13 22:57:39.10	90.21	27.46	
2025-01-13 22:57:40.33	90.60	27.46	
2025-01-13 22:57:41.56	90.99	27.46	
2025-01-13 22:57:42.79	91.37	27.46	
2025-01-13 22:57:44.03	91.77	27.45	
2025-01-13 22:57:45.26	92.16	27.45	
2025-01-13 22:57:46.50	92.55	27.44	
2025-01-13 22:57:47.73	92.94	27.44	
2025-01-13 22:57:48.96	93.33	27.43	
2025-01-13 22:57:50.19	93.72	27.42	
2025-01-13 22:57:51.42	94.11	27.40	
2025-01-13 22:57:52.65	94.49	27.39	
2025-01-13 22:57:53.88	94.88	27.38	
2025-01-13 22:57:55.13	95.28	27.36	
2025-01-13 22:57:56.36	95.66	27.34	
2025-01-13 22:57:57.59	96.05	27.32	
2025-01-13 22:57:58.82	96.44	27.30	
2025-01-13 22:58:00.05	96.82	27.28	
2025-01-13 22:58:01.30	97.21	27.26	
2025-01-13 22:58:02.52	97.60	27.24	
2025-01-13 22:58:03.75	97.98	27.21	
2025-01-13 22:58:04.98	98.36	27.18	
2025-01-13 22:58:06.21	98.75	27.16	
2025-01-13 22:58:07.44	99.13	27.13	
2025-01-13 22:58:08.67	99.51	27.10	
2025-01-13 22:58:09.90	99.89	27.06	
2025-01-13 22:58:11.13	100.27	27.03	
2025-01-13 22:58:12.37	100.65	26.99	
2025-01-13 22:58:13.60	101.03	26.96	
2025-01-13 22:58:14.83	101.41	26.92	
2025-01-13 22:58:16.06	101.79	26.88	
2025-01-13 22:58:17.30	102.17	26.84	
2025-01-13 22:58:18.53	102.54	26.80	
2025-01-13 22:58:19.76	102.91	26.76	
2025-01-13 22:58:20.99	103.29	26.72	
2025-01-13 22:58:22.22	103.66	26.67	
2025-01-13 22:58:23.45	104.03	26.63	
2025-01-13 22:58:24.70	104.41	26.58	
2025-01-13 22:58:25.93	104.78	26.53	
2025-01-13 22:58:27.16	105.14	26.48	
2025-01-13 22:58:28.39	105.51	26.43	
2025-01-13 22:58:29.62	105.88	26.38	
2025-01-13 22:58:30.86	106.24	26.33	
2025-01-13 22:58:32.09	106.61	26.27	
2025-01-13 22:58:33.32	106.97	26.22	
2025-01-13 22:58:34.55	107.33	26.16	
2025-01-13 22:58:35.79	107.69	26.10	
2025-01-13 22:58:37.02	108.05	26.05	
2025-01-13 22:58:38.25	108.41	25.99	
2025-01-13 22:58:39.48	108.76	25.93	
2025-01-13 22:58:40.73	109.12	25.86	
2025-01-13 22:58:41.96	109.48	25.80	
2025-01-13 22:58:43.20	109.83	25.74	
2025-01-13 22:58:44.43	110.18	25.67	
2025-01-13 22:58:45.66	110.53	25.61	
2025-01-13 22:58:46.89	110.88	25.54	
2025-01-13 22:58:48.13	111.23	25.48	
2025-01-13 22:58:49.37	111.57	25.41	
2025-01-13 22:58:50.62	111.92	25.34	
2025-01-13 22:58:51.85	112.26	25.27	
2025-01-13 22:58:53.08	112.60	25.20	
2025-01-13 22:58:54.31	112.94	25.13	
2025-01-13 22:58:55.54	113.28	25.05	
2025-01-13 22:58:56.77	113.61	24.98	
2025-01-13 22:58:58.01	113.95	24.91	
2025-01-13 22:58:59.25	114.29	24.83	
2025-01-13 22:59:00.47	114.62	24.76	
2025-01-13 22:59:01.74	114.96	24.68	
2025-01-13 22:59:02.97	115.28	24.60	
2025-01-13 22:59:04.20	115.61	24.52	
2025-01-13 22:59:05.43	115.93	24.44	
2025-01-13 22:59:06.66	116.26	24.37	
2025-01-13 22:59:07.89	116.58	24.29	
2025-01-13 22:59:09.13	116.90	24.20	
2025-01-13 22:59:10.36	117.22	24.12	
2025-01-13 22:59:11.59	117.54	24.04	
2025-01-13 22:59:12.82	117.85	23.96	
2025-01-13 22:59:14.05	118.17	23.88	
2025-01-13 22:59:15.28	118.48	23.79	
2025-01-13 22:59:16.52	118.79	23.71	
2025-01-13 22:59:17.77	119.10	23.62	
2025-01-13 22:59:19.00	119.41	23.54	
2025-01-13 22:59:20.24	119.72	23.45	
2025-01-13 22:59:21.47	120.02	23.36	
2025-01-13 22:59:22.70	120.32	23.28	
2025-01-13 22:59:23.94	120.63	23.19	
2025-01-13 22:59:25.17	120.93	23.10	
2025-01-13 22:59:26.41	121.22	23.01	
2025-01-13 22:59:27.64	121.52	22.92	
2025-01-13 22:59:28.87	121.81	22.83	
2025-01-13 22:59:30.10	122.11	22.74	
2025-01-13 22:59:31.34	122.40	22.65	
2025-01-13 22:59:32.57	122.69	22.56	
2025-01-13 22:59:33.81	122.98	22.47	
2025-01-13 22:59:35.04	123.26	22.38	
2025-01-13 22:59:36.28	123.55	22.28	
2025-01-13 22:59:37.53	123.84	22.19	
2025-01-13 22:59:38.76	124.12	22.10	
2025-01-13 22:59:39.99	124.40	22.00	
2025-01-13 22:59:41.23	124.68	21.91	
2025-01-13 22:59:42.47	124.95	21.81	
2025-01-13 22:59:43.71	125.23	21.72	
2025-01-13 22:59:44.94	125.50	21.62	
2025-01-13 22:59:46.17	125.77	21.53	
2025-01-13 22:59:47.40	126.04	21.44	
2025-01-13 22:59:48.64	126.31	21.34	
2025-01-13 22:59:49.87	126.58	21.24	
2025-01-13 22:59:51.10	126.84	21.15	
2025-01-13 22:59:52.33	127.10	21.05	
2025-01-13 22:59:53.56	127.37	20.96	
2025-01-13 22:59:54.80	127.63	20.86	
2025-01-13 22:59:56.03	127.89	20.76	
2025-01-13 22:59:57.26	128.14	20.66	
2025-01-13 22:59:58.50	128.40	20.57	
2025-01-13 22:59:59.74	128.65	20.47	
2025-01-13 23:00:00.97	128.91	20.37	
2025-01-13 23:00:02.20	129.16	20.27	
2025-01-13 23:00:03.43	129.40	20.18	
2025-01-13 23:00:04.66	129.65	20.08	
2025-01-13 23:00:05.89	129.90	19.98	
2025-01-13 23:00:07.14	130.15	19.88	
2025-01-13 23:00:08.37	130.39	19.78	
2025-01-13 23:00:09.60	130.63	19.68	
2025-01-13 23:00:10.84	130.87	19.58	
2025-01-13 23:00:12.07	131.11	19.49	
2025-01-13 23:00:13.30	131.34	19.39	
2025-01-13 23:00:14.53	131.58	19.29	
2025-01-13 23:00:15.77	131.82	19.19	
2025-01-13 23:00:17.00	132.05	19.09	
2025-01-13 23:00:18.25	132.28	18.99	
2025-01-13 23:00:19.48	132.51	18.89	
2025-01-13 23:00:20.71	132.74	18.79	
2025-01-13 23:00:21.95	132.97	18.69	
2025-01-13 23:00:23.19	133.19	18.59	
2025-01-13 23:00:24.42	133.42	18.49	
2025-01-13 23:00:25.65	133.64	18.39	
2025-01-13 23:00:26.88	133.86	18.29	
2025-01-13 23:00:28.13	134.08	18.19	
2025-01-13 23:00:29.37	134.30	18.09	
2025-01-13 23:00:30.60	134.52	17.99	
2025-01-13 23:00:31.83	134.73	17.90	
2025-01-13 23:00:33.08	134.95	17.79	
2025-01-13 23:00:34.31	135.16	17.70	
2025-01-13 23:00:35.56	135.38	17.59	
2025-01-13 23:00:36.78	135.58	17.50	
2025-01-13 23:00:38.02	135.79	17.40	
2025-01-13 23:00:39.25	136.00	17.30	
2025-01-13 23:00:40.48	136.21	17.20	
2025-01-13 23:00:41.73	136.41	17.10	
2025-01-13 23:00:42.96	136.62	17.00	
2025-01-13 23:00:44.19	136.82	16.90	
2025-01-13 23:00:45.42	137.02	16.80	
2025-01-13 23:00:46.65	137.22	16.70	
2025-01-13 23:00:47.88	137.42	16.60	
2025-01-13 23:00:49.11	137.61	16.51	
2025-01-13 23:00:50.35	137.81	16.41	
2025-01-13 23:00:51.58	138.00	16.31	
2025-01-13 23:00:52.82	138.20	16.21	
2025-01-13 23:00:54.05	138.39	16.11	
2025-01-13 23:00:55.28	138.58	16.01	
2025-01-13 23:00:56.51	138.77	15.92	
2025-01-13 23:00:57.74	138.96	15.82	
2025-01-13 23:00:58.97	139.14	15.72	
2025-01-13 23:01:00.20	139.33	15.62	
2025-01-13 23:01:01.45	139.52	15.52	
2025-01-13 23:01:02.67	139.70	15.43	
2025-01-13 23:01:03.91	139.88	15.33	
2025-01-13 23:01:05.14	140.06	15.23	
2025-01-13 23:01:06.38	140.25	15.13	
2025-01-13 23:01:07.61	140.42	15.04	
2025-01-13 23:01:08.84	140.60	14.94	
2025-01-13 23:01:10.07	140.78	14.84	
2025-01-13 23:01:11.30	140.95	14.75	
2025-01-13 23:01:12.53	141.13	14.65	
2025-01-13 23:01:13.76	141.30	14.55	
2025-01-13 23:01:14.99	141.47	14.46	
2025-01-13 23:01:16.24	141.65	14.36	
2025-01-13 23:01:17.47	141.82	14.26	
2025-01-13 23:01:18.70	141.99	14.17	
2025-01-13 23:01:19.93	142.15	14.07	
2025-01-13 23:01:21.18	142.32	13.98	
2025-01-13 23:01:22.42	142.49	13.88	
2025-01-13 23:01:23.66	142.66	13.78	
2025-01-13 23:01:24.89	142.82	13.69	
2025-01-13 23:01:26.12	142.98	13.60	
2025-01-13 23:01:27.35	143.15	13.50	
2025-01-13 23:01:28.58	143.31	13.41	
2025-01-13 23:01:29.81	143.47	13.31	
2025-01-13 23:01:31.05	143.63	13.22	
2025-01-13 23:01:32.28	143.78	13.12	
2025-01-13 23:01:33.51	143.94	13.03	
2025-01-13 23:01:34.75	144.10	12.94	
2025-01-13 23:01:35.99	144.25	12.84	
2025-01-13 23:01:37.24	144.41	12.75	
2025-01-13 23:01:38.47	144.56	12.65	
2025-01-13 23:01:39.70	144.72	12.56	
2025-01-13 23:01:40.93	144.87	12.47	
2025-01-13 23:01:42.18	145.02	12.37	
2025-01-13 23:01:43.41	145.17	12.28	
2025-01-13 23:01:44.64	145.32	12.19	
2025-01-13 23:01:45.87	145.46	12.10	
2025-01-13 23:01:47.10	145.61	12.01	
2025-01-13 23:01:48.33	145.76	11.91	
2025-01-13 23:01:49.57	145.90	11.82	
2025-01-13 23:01:50.80	146.05	11.73	
2025-01-13 23:01:52.03	146.19	11.64	
2025-01-13 23:01:53.27	146.33	11.55	
2025-01-13 23:01:54.50	146.48	11.46	
2025-01-13 23:01:55.73	146.62	11.37	
2025-01-13 23:01:56.96	146.76	11.28	
2025-01-13 23:01:58.19	146.89	11.19	
2025-01-13 23:01:59.42	147.03	11.10	
2025-01-13 23:02:00.65	147.17	11.01	
2025-01-13 23:02:01.89	147.31	10.92	
2025-01-13 23:02:03.12	147.44	10.83	
2025-01-13 23:02:04.37	147.58	10.74	
2025-01-13 23:02:05.60	147.71	10.65	
2025-01-13 23:02:06.83	147.85	10.56	
2025-01-13 23:02:08.06	147.98	10.47	
2025-01-13 23:02:09.31	148.11	10.38	
2025-01-13 23:02:10.54	148.25	10.29	
2025-01-13 23:02:11.76	148.37	10.20	
2025-01-13 23:02:12.99	148.50	10.12	
2025-01-13 23:02:14.22	148.63	10.03	
2025-01-13 23:02:15.46	148.76	9.94	
2025-01-13 23:02:16.69	148.89	9.85	
2025-01-13 23:02:17.93	149.02	9.76	
2025-01-13 23:02:19.16	149.14	9.68	
2025-01-13 23:02:20.39	149.27	9.59	
2025-01-13 23:02:21.62	149.39	9.50	
2025-01-13 23:02:22.87	149.52	9.42	
2025-01-13 23:02:24.11	149.64	9.33	
2025-01-13 23:02:25.34	149.76	9.24	
2025-01-13 23:02:26.57	149.89	9.16	
2025-01-13 23:02:27.80	150.01	9.07	
2025-01-13 23:02:29.03	150.13	8.99	
2025-01-13 23:02:30.26	150.25	8.90	
2025-01-13 23:02:31.49	150.37	8.82	
2025-01-13 23:02:32.74	150.49	8.73	
2025-01-13 23:02:33.97	150.60	8.64	
2025-01-13 23:02:35.20	150.72	8.56	
2025-01-13 23:02:36.43	150.84	8.48	
2025-01-13 23:02:37.67	150.95	8.39	
2025-01-13 23:02:38.90	151.07	8.31	
2025-01-13 23:02:40.13	151.18	8.22	
2025-01-13 23:02:41.36	151.30	8.14	
2025-01-13 23:02:42.60	151.41	8.05	
2025-01-13 23:02:43.84	151.52	7.97	
2025-01-13 23:02:45.09	151.64	7.89	
2025-01-13 23:02:46.32	151.75	7.80	
2025-01-13 23:02:47.55	151.86	7.72	
2025-01-13 23:02:48.78	151.97	7.64	
2025-01-13 23:02:50.01	152.08	7.56	
2025-01-13 23:02:51.24	152.19	7.47	
2025-01-13 23:02:52.48	152.30	7.39	
2025-01-13 23:02:53.71	152.40	7.31	
2025-01-13 23:02:54.94	152.51	7.23	
2025-01-13 23:02:56.16	152.62	7.15	
2025-01-13 23:02:57.41	152.72	7.06	
2025-01-13 23:02:58.64	152.83	6.98	
2025-01-13 23:02:59.87	152.93	6.90	
2025-01-13 23:03:01.10	153.04	6.82	
2025-01-13 23:03:02.33	153.14	6.74	
2025-01-13 23:03:03.58	153.25	6.66	
2025-01-13 23:03:04.82	153.35	6.58	
2025-01-13 23:03:06.07	153.45	6.50	
2025-01-13 23:03:07.30	153.56	6.42	
2025-01-13 23:03:08.52	153.66	6.34	
2025-01-13 23:03:09.75	153.76	6.26	
2025-01-13 23:03:11.00	153.86	6.18	
2025-01-13 23:03:12.23	153.96	6.10	
2025-01-13 23:03:13.45	154.05	6.02	
2025-01-13 23:03:14.69	154.15	5.94	
2025-01-13 23:03:15.93	154.25	5.86	
2025-01-13 23:03:17.17	154.35	5.78	
2025-01-13 23:03:18.40	154.45	5.70	
2025-01-13 23:03:19.63	154.54	5.63	
2025-01-13 23:03:20.86	154.64	5.55	
2025-01-13 23:03:22.11	154.74	5.47	
2025-01-13 23:03:23.35	154.83	5.39	
2025-01-13 23:03:24.58	154.93	5.31	
2025-01-13 23:03:25.81	155.02	5.24	
2025-01-13 23:03:27.05	155.12	5.16	
2025-01-13 23:03:28.28	155.21	5.08	
2025-01-13 23:03:29.51	155.30	5.00	
2025-01-13 23:03:30.74	155.39	4.93	
2025-01-13 23:03:31.99	155.49	4.85	
2025-01-13 23:03:33.22	155.58	4.77	
2025-01-13 23:03:34.45	155.67	4.70	
2025-01-13 23:03:35.69	155.76	4.62	
2025-01-13 23:03:36.93	155.85	4.54	
2025-01-13 23:03:38.17	155.94	4.47	
2025-01-13 23:03:39.40	156.03	4.39	
2025-01-13 23:03:40.64	156.12	4.32	
2025-01-13 23:03:41.87	156.21	4.24	
2025-01-13 23:03:43.11	156.29	4.16	
2025-01-13 23:03:44.34	156.38	4.09	
2025-01-13 23:03:45.57	156.47	4.01	

#Closed at: 2025-01-13 23:03:45