passes_logs/2025/01/13/SPB_Silybum_02/SPB_Silybum_02__20250113_101517_AQUA_rec.log

#Pass ID: 20250113_101517_AQUA
#Satellite: AQUA
#Configuration: AQUA
#Start time: 2025-01-13 10:15:17

#Version: 2.0.20230423
#Station: SPB_Silybum_02
#Location: 30.233357 lon 59.946436 lat
#TLE: 1 27424U 02022A   25012.80860775  .00001720  00000+0  36312-3 0  9993
#TLE: 2 27424  98.3585 329.4528 0001624 113.6325 279.3978 14.60673868207302

#Time	Az	El	Level	Level2	SNR	BER	Gain	Gain2
2025-01-13 10:15:19.61	125.78	4.14	
2025-01-13 10:15:20.84	125.71	4.22	
2025-01-13 10:15:22.07	125.64	4.31	
2025-01-13 10:15:23.30	125.57	4.39	
2025-01-13 10:15:24.53	125.50	4.48	
2025-01-13 10:15:25.77	125.43	4.56	
2025-01-13 10:15:27.00	125.36	4.65	
2025-01-13 10:15:28.23	125.28	4.73	
2025-01-13 10:15:29.46	125.21	4.82	
2025-01-13 10:15:30.68	125.14	4.90	
2025-01-13 10:15:31.92	125.06	4.99	
2025-01-13 10:15:33.15	124.99	5.08	
2025-01-13 10:15:34.38	124.91	5.16	
2025-01-13 10:15:35.61	124.84	5.25	
2025-01-13 10:15:36.84	124.76	5.34	
2025-01-13 10:15:38.07	124.68	5.42	
2025-01-13 10:15:39.30	124.61	5.51	
2025-01-13 10:15:40.53	124.53	5.60	
2025-01-13 10:15:41.76	124.45	5.69	
2025-01-13 10:15:42.99	124.37	5.78	
2025-01-13 10:15:44.23	124.29	5.87	
2025-01-13 10:15:45.46	124.21	5.96	
2025-01-13 10:15:46.69	124.13	6.05	
2025-01-13 10:15:47.92	124.05	6.14	
2025-01-13 10:15:49.16	123.97	6.23	
2025-01-13 10:15:50.41	123.88	6.32	
2025-01-13 10:15:51.64	123.80	6.41	
2025-01-13 10:15:52.88	123.72	6.50	
2025-01-13 10:15:54.11	123.63	6.59	
2025-01-13 10:15:55.34	123.55	6.68	
2025-01-13 10:15:56.57	123.46	6.78	
2025-01-13 10:15:57.80	123.38	6.87	
2025-01-13 10:15:59.03	123.29	6.96	
2025-01-13 10:16:00.28	123.20	7.06	
2025-01-13 10:16:01.51	123.11	7.15	
2025-01-13 10:16:02.73	123.03	7.24	
2025-01-13 10:16:03.97	122.94	7.34	
2025-01-13 10:16:05.20	122.85	7.43	
2025-01-13 10:16:06.45	122.75	7.53	
2025-01-13 10:16:07.68	122.66	7.62	
2025-01-13 10:16:08.93	122.57	7.72	
2025-01-13 10:16:10.16	122.48	7.81	
2025-01-13 10:16:11.39	122.38	7.91	
2025-01-13 10:16:12.62	122.29	8.01	
2025-01-13 10:16:13.86	122.20	8.10	
2025-01-13 10:16:15.13	122.10	8.20	
2025-01-13 10:16:16.37	122.00	8.30	
2025-01-13 10:16:17.60	121.90	8.40	
2025-01-13 10:16:18.83	121.81	8.50	
2025-01-13 10:16:20.06	121.71	8.59	
2025-01-13 10:16:21.30	121.61	8.69	
2025-01-13 10:16:22.54	121.51	8.79	
2025-01-13 10:16:23.77	121.41	8.89	
2025-01-13 10:16:25.00	121.31	8.99	
2025-01-13 10:16:26.24	121.20	9.09	
2025-01-13 10:16:27.47	121.10	9.19	
2025-01-13 10:16:28.70	121.00	9.29	
2025-01-13 10:16:29.93	120.89	9.40	
2025-01-13 10:16:31.16	120.79	9.50	
2025-01-13 10:16:32.40	120.68	9.60	
2025-01-13 10:16:33.63	120.58	9.70	
2025-01-13 10:16:34.86	120.47	9.80	
2025-01-13 10:16:36.10	120.36	9.91	
2025-01-13 10:16:37.32	120.25	10.01	
2025-01-13 10:16:38.56	120.14	10.12	
2025-01-13 10:16:39.79	120.03	10.22	
2025-01-13 10:16:41.02	119.92	10.32	
2025-01-13 10:16:42.27	119.80	10.43	
2025-01-13 10:16:43.50	119.69	10.54	
2025-01-13 10:16:44.73	119.57	10.64	
2025-01-13 10:16:45.98	119.46	10.75	
2025-01-13 10:16:47.21	119.34	10.86	
2025-01-13 10:16:48.44	119.22	10.96	
2025-01-13 10:16:49.67	119.10	11.07	
2025-01-13 10:16:50.89	118.99	11.18	
2025-01-13 10:16:52.12	118.87	11.29	
2025-01-13 10:16:53.36	118.74	11.40	
2025-01-13 10:16:54.59	118.62	11.50	
2025-01-13 10:16:55.82	118.50	11.61	
2025-01-13 10:16:57.06	118.37	11.72	
2025-01-13 10:16:58.29	118.25	11.83	
2025-01-13 10:16:59.52	118.12	11.95	
2025-01-13 10:17:00.75	117.99	12.06	
2025-01-13 10:17:01.97	117.87	12.17	
2025-01-13 10:17:03.21	117.74	12.28	
2025-01-13 10:17:04.44	117.61	12.39	
2025-01-13 10:17:05.67	117.47	12.50	
2025-01-13 10:17:06.90	117.34	12.62	
2025-01-13 10:17:08.14	117.21	12.73	
2025-01-13 10:17:09.37	117.07	12.85	
2025-01-13 10:17:10.60	116.93	12.96	
2025-01-13 10:17:11.83	116.80	13.08	
2025-01-13 10:17:13.07	116.66	13.19	
2025-01-13 10:17:14.30	116.52	13.31	
2025-01-13 10:17:15.54	116.38	13.43	
2025-01-13 10:17:16.77	116.23	13.54	
2025-01-13 10:17:18.01	116.09	13.66	
2025-01-13 10:17:19.24	115.94	13.78	
2025-01-13 10:17:20.47	115.80	13.90	
2025-01-13 10:17:21.70	115.65	14.02	
2025-01-13 10:17:22.93	115.50	14.13	
2025-01-13 10:17:24.18	115.35	14.26	
2025-01-13 10:17:25.41	115.20	14.38	
2025-01-13 10:17:26.65	115.04	14.50	
2025-01-13 10:17:27.88	114.89	14.62	
2025-01-13 10:17:29.12	114.73	14.74	
2025-01-13 10:17:30.35	114.58	14.86	
2025-01-13 10:17:31.58	114.42	14.99	
2025-01-13 10:17:32.81	114.26	15.11	
2025-01-13 10:17:34.03	114.10	15.23	
2025-01-13 10:17:35.27	113.94	15.36	
2025-01-13 10:17:36.52	113.77	15.48	
2025-01-13 10:17:37.75	113.61	15.61	
2025-01-13 10:17:38.99	113.44	15.73	
2025-01-13 10:17:40.22	113.27	15.86	
2025-01-13 10:17:41.46	113.10	15.99	
2025-01-13 10:17:42.69	112.93	16.11	
2025-01-13 10:17:43.91	112.75	16.24	
2025-01-13 10:17:45.15	112.58	16.37	
2025-01-13 10:17:46.38	112.40	16.49	
2025-01-13 10:17:47.61	112.22	16.62	
2025-01-13 10:17:48.84	112.05	16.75	
2025-01-13 10:17:50.06	111.87	16.88	
2025-01-13 10:17:51.31	111.68	17.01	
2025-01-13 10:17:52.54	111.50	17.14	
2025-01-13 10:17:53.76	111.31	17.27	
2025-01-13 10:17:55.01	111.12	17.41	
2025-01-13 10:17:56.24	110.93	17.54	
2025-01-13 10:17:57.47	110.74	17.67	
2025-01-13 10:17:58.70	110.55	17.80	
2025-01-13 10:17:59.93	110.35	17.94	
2025-01-13 10:18:01.17	110.15	18.07	
2025-01-13 10:18:02.40	109.95	18.20	
2025-01-13 10:18:03.63	109.75	18.34	
2025-01-13 10:18:04.86	109.55	18.47	
2025-01-13 10:18:06.09	109.34	18.61	
2025-01-13 10:18:07.32	109.14	18.75	
2025-01-13 10:18:08.55	108.93	18.88	
2025-01-13 10:18:09.78	108.72	19.02	
2025-01-13 10:18:11.01	108.51	19.16	
2025-01-13 10:18:12.24	108.29	19.29	
2025-01-13 10:18:13.49	108.07	19.43	
2025-01-13 10:18:14.74	107.85	19.58	
2025-01-13 10:18:15.97	107.63	19.71	
2025-01-13 10:18:17.19	107.41	19.85	
2025-01-13 10:18:18.42	107.18	19.99	
2025-01-13 10:18:19.66	106.95	20.13	
2025-01-13 10:18:20.89	106.72	20.27	
2025-01-13 10:18:22.12	106.49	20.41	
2025-01-13 10:18:23.35	106.25	20.56	
2025-01-13 10:18:24.57	106.02	20.70	
2025-01-13 10:18:25.81	105.78	20.84	
2025-01-13 10:18:27.04	105.54	20.98	
2025-01-13 10:18:28.27	105.29	21.13	
2025-01-13 10:18:29.50	105.05	21.27	
2025-01-13 10:18:30.74	104.80	21.41	
2025-01-13 10:18:31.97	104.55	21.56	
2025-01-13 10:18:33.20	104.29	21.70	
2025-01-13 10:18:34.44	104.03	21.85	
2025-01-13 10:18:35.67	103.78	21.99	
2025-01-13 10:18:36.90	103.51	22.14	
2025-01-13 10:18:38.13	103.25	22.28	
2025-01-13 10:18:39.36	102.98	22.43	
2025-01-13 10:18:40.60	102.71	22.57	
2025-01-13 10:18:41.83	102.44	22.72	
2025-01-13 10:18:43.06	102.17	22.87	
2025-01-13 10:18:44.29	101.89	23.01	
2025-01-13 10:18:45.52	101.61	23.16	
2025-01-13 10:18:46.76	101.33	23.31	
2025-01-13 10:18:47.99	101.04	23.45	
2025-01-13 10:18:49.22	100.75	23.60	
2025-01-13 10:18:50.47	100.46	23.75	
2025-01-13 10:18:51.70	100.16	23.90	
2025-01-13 10:18:52.93	99.87	24.05	
2025-01-13 10:18:54.17	99.56	24.20	
2025-01-13 10:18:55.42	99.25	24.35	
2025-01-13 10:18:56.66	98.95	24.49	
2025-01-13 10:18:57.89	98.64	24.64	
2025-01-13 10:18:59.13	98.32	24.79	
2025-01-13 10:19:00.36	98.01	24.94	
2025-01-13 10:19:01.61	97.68	25.09	
2025-01-13 10:19:02.84	97.36	25.24	
2025-01-13 10:19:04.07	97.04	25.39	
2025-01-13 10:19:05.30	96.71	25.53	
2025-01-13 10:19:06.53	96.38	25.68	
2025-01-13 10:19:07.76	96.04	25.83	
2025-01-13 10:19:08.99	95.71	25.97	
2025-01-13 10:19:10.22	95.37	26.12	
2025-01-13 10:19:11.45	95.02	26.27	
2025-01-13 10:19:12.69	94.67	26.42	
2025-01-13 10:19:13.92	94.32	26.56	
2025-01-13 10:19:15.15	93.97	26.71	
2025-01-13 10:19:16.38	93.61	26.85	
2025-01-13 10:19:17.61	93.25	27.00	
2025-01-13 10:19:18.85	92.88	27.14	
2025-01-13 10:19:20.08	92.51	27.29	
2025-01-13 10:19:21.30	92.14	27.43	
2025-01-13 10:19:22.53	91.77	27.57	
2025-01-13 10:19:23.78	91.38	27.72	
2025-01-13 10:19:25.02	91.00	27.86	
2025-01-13 10:19:26.25	90.61	28.00	
2025-01-13 10:19:27.48	90.22	28.14	
2025-01-13 10:19:28.71	89.83	28.28	
2025-01-13 10:19:29.95	89.43	28.43	
2025-01-13 10:19:31.19	89.03	28.57	
2025-01-13 10:19:32.42	88.63	28.70	
2025-01-13 10:19:33.65	88.22	28.84	
2025-01-13 10:19:34.88	87.81	28.98	
2025-01-13 10:19:36.12	87.39	29.11	
2025-01-13 10:19:37.36	86.97	29.25	
2025-01-13 10:19:38.59	86.55	29.38	
2025-01-13 10:19:39.83	86.12	29.52	
2025-01-13 10:19:41.06	85.69	29.65	
2025-01-13 10:19:42.29	85.26	29.78	
2025-01-13 10:19:43.52	84.82	29.91	
2025-01-13 10:19:44.76	84.38	30.03	
2025-01-13 10:19:45.99	83.94	30.16	
2025-01-13 10:19:47.23	83.48	30.29	
2025-01-13 10:19:48.47	83.03	30.41	
2025-01-13 10:19:49.70	82.58	30.53	
2025-01-13 10:19:50.94	82.12	30.66	
2025-01-13 10:19:52.18	81.65	30.78	
2025-01-13 10:19:53.41	81.19	30.89	
2025-01-13 10:19:54.64	80.72	31.01	
2025-01-13 10:19:55.87	80.25	31.13	
2025-01-13 10:19:57.10	79.77	31.24	
2025-01-13 10:19:58.35	79.28	31.35	
2025-01-13 10:19:59.59	78.80	31.46	
2025-01-13 10:20:00.83	78.31	31.57	
2025-01-13 10:20:02.06	77.82	31.68	
2025-01-13 10:20:03.30	77.33	31.78	
2025-01-13 10:20:04.53	76.83	31.88	
2025-01-13 10:20:05.76	76.33	31.98	
2025-01-13 10:20:06.99	75.83	32.08	
2025-01-13 10:20:08.22	75.33	32.18	
2025-01-13 10:20:09.45	74.82	32.27	
2025-01-13 10:20:10.68	74.31	32.36	
2025-01-13 10:20:11.91	73.79	32.45	
2025-01-13 10:20:13.14	73.28	32.54	
2025-01-13 10:20:14.37	72.76	32.62	
2025-01-13 10:20:15.60	72.24	32.70	
2025-01-13 10:20:16.83	71.71	32.78	
2025-01-13 10:20:18.06	71.19	32.86	
2025-01-13 10:20:19.29	70.66	32.94	
2025-01-13 10:20:20.52	70.12	33.01	
2025-01-13 10:20:21.75	69.59	33.08	
2025-01-13 10:20:22.98	69.05	33.14	
2025-01-13 10:20:24.21	68.51	33.21	
2025-01-13 10:20:25.44	67.97	33.27	
2025-01-13 10:20:26.67	67.43	33.33	
2025-01-13 10:20:27.90	66.88	33.39	
2025-01-13 10:20:29.13	66.34	33.44	
2025-01-13 10:20:30.36	65.79	33.49	
2025-01-13 10:20:31.61	65.23	33.54	
2025-01-13 10:20:32.84	64.68	33.58	
2025-01-13 10:20:34.07	64.12	33.63	
2025-01-13 10:20:35.31	63.56	33.67	
2025-01-13 10:20:36.54	63.01	33.70	
2025-01-13 10:20:37.77	62.45	33.74	
2025-01-13 10:20:39.00	61.89	33.77	
2025-01-13 10:20:40.23	61.33	33.79	
2025-01-13 10:20:41.46	60.77	33.82	
2025-01-13 10:20:42.71	60.20	33.84	
2025-01-13 10:20:43.94	59.64	33.86	
2025-01-13 10:20:45.18	59.07	33.87	
2025-01-13 10:20:46.41	58.51	33.88	
2025-01-13 10:20:47.64	57.94	33.89	
2025-01-13 10:20:48.87	57.38	33.90	
2025-01-13 10:20:50.10	56.82	33.90	
2025-01-13 10:20:51.33	56.25	33.90	
2025-01-13 10:20:52.57	55.68	33.90	
2025-01-13 10:20:53.80	55.12	33.89	
2025-01-13 10:20:55.02	54.56	33.88	
2025-01-13 10:20:56.26	53.99	33.87	
2025-01-13 10:20:57.50	53.43	33.85	
2025-01-13 10:20:58.75	52.86	33.83	
2025-01-13 10:20:59.98	52.29	33.81	
2025-01-13 10:21:01.24	51.72	33.79	
2025-01-13 10:21:02.47	51.16	33.76	
2025-01-13 10:21:03.71	50.60	33.73	
2025-01-13 10:21:04.94	50.04	33.69	
2025-01-13 10:21:06.17	49.49	33.65	
2025-01-13 10:21:07.40	48.93	33.62	
2025-01-13 10:21:08.63	48.38	33.57	
2025-01-13 10:21:09.86	47.83	33.53	
2025-01-13 10:21:11.09	47.28	33.48	
2025-01-13 10:21:12.34	46.72	33.43	
2025-01-13 10:21:13.57	46.18	33.37	
2025-01-13 10:21:14.80	45.63	33.31	
2025-01-13 10:21:16.03	45.09	33.25	
2025-01-13 10:21:17.26	44.55	33.19	
2025-01-13 10:21:18.49	44.01	33.13	
2025-01-13 10:21:19.72	43.48	33.06	
2025-01-13 10:21:20.96	42.94	32.99	
2025-01-13 10:21:22.19	42.41	32.92	
2025-01-13 10:21:23.41	41.88	32.84	
2025-01-13 10:21:24.65	41.36	32.76	
2025-01-13 10:21:25.88	40.83	32.68	
2025-01-13 10:21:27.11	40.31	32.60	
2025-01-13 10:21:28.34	39.79	32.51	
2025-01-13 10:21:29.56	39.28	32.43	
2025-01-13 10:21:30.79	38.77	32.34	
2025-01-13 10:21:32.02	38.26	32.25	
2025-01-13 10:21:33.27	37.75	32.15	
2025-01-13 10:21:34.50	37.25	32.06	
2025-01-13 10:21:35.73	36.75	31.96	
2025-01-13 10:21:36.98	36.24	31.86	
2025-01-13 10:21:38.21	35.75	31.75	
2025-01-13 10:21:39.44	35.26	31.65	
2025-01-13 10:21:40.67	34.78	31.54	
2025-01-13 10:21:41.91	34.29	31.43	
2025-01-13 10:21:43.15	33.80	31.32	
2025-01-13 10:21:44.38	33.33	31.21	
2025-01-13 10:21:45.61	32.86	31.10	
2025-01-13 10:21:46.84	32.39	30.98	
2025-01-13 10:21:48.07	31.92	30.87	
2025-01-13 10:21:49.32	31.45	30.75	
2025-01-13 10:21:50.56	30.99	30.63	
2025-01-13 10:21:51.79	30.53	30.51	
2025-01-13 10:21:53.02	30.08	30.38	
2025-01-13 10:21:54.27	29.62	30.26	
2025-01-13 10:21:55.50	29.18	30.13	
2025-01-13 10:21:56.73	28.74	30.01	
2025-01-13 10:21:57.96	28.30	29.88	
2025-01-13 10:21:59.19	27.87	29.75	
2025-01-13 10:22:00.43	27.43	29.62	
2025-01-13 10:22:01.68	27.00	29.49	
2025-01-13 10:22:02.91	26.58	29.35	
2025-01-13 10:22:04.13	26.16	29.22	
2025-01-13 10:22:05.36	25.75	29.09	
2025-01-13 10:22:06.62	25.33	28.95	
2025-01-13 10:22:07.86	24.91	28.81	
2025-01-13 10:22:09.09	24.51	28.68	
2025-01-13 10:22:10.32	24.11	28.54	
2025-01-13 10:22:11.55	23.71	28.40	
2025-01-13 10:22:12.78	23.32	28.26	
2025-01-13 10:22:14.03	22.92	28.12	
2025-01-13 10:22:15.26	22.53	27.98	
2025-01-13 10:22:16.49	22.15	27.84	
2025-01-13 10:22:17.72	21.77	27.69	
2025-01-13 10:22:18.95	21.40	27.55	
2025-01-13 10:22:20.18	21.02	27.41	
2025-01-13 10:22:21.41	20.65	27.27	
2025-01-13 10:22:22.64	20.29	27.12	
2025-01-13 10:22:23.87	19.93	26.98	
2025-01-13 10:22:25.10	19.57	26.83	
2025-01-13 10:22:26.33	19.21	26.69	
2025-01-13 10:22:27.57	18.86	26.54	
2025-01-13 10:22:28.80	18.51	26.40	
2025-01-13 10:22:30.04	18.16	26.25	
2025-01-13 10:22:31.29	17.81	26.10	
2025-01-13 10:22:32.52	17.47	25.95	
2025-01-13 10:22:33.75	17.14	25.81	
2025-01-13 10:22:34.98	16.81	25.66	
2025-01-13 10:22:36.21	16.48	25.51	
2025-01-13 10:22:37.44	16.15	25.37	
2025-01-13 10:22:38.67	15.83	25.22	
2025-01-13 10:22:39.91	15.51	25.07	
2025-01-13 10:22:41.14	15.19	24.93	
2025-01-13 10:22:42.37	14.88	24.78	
2025-01-13 10:22:43.62	14.56	24.63	
2025-01-13 10:22:44.86	14.26	24.48	
2025-01-13 10:22:46.11	13.95	24.33	
2025-01-13 10:22:47.34	13.65	24.18	
2025-01-13 10:22:48.57	13.35	24.04	
2025-01-13 10:22:49.80	13.05	23.89	
2025-01-13 10:22:51.03	12.76	23.74	
2025-01-13 10:22:52.26	12.47	23.60	
2025-01-13 10:22:53.49	12.19	23.45	
2025-01-13 10:22:54.72	11.90	23.30	
2025-01-13 10:22:55.95	11.62	23.16	
2025-01-13 10:22:57.18	11.34	23.01	
2025-01-13 10:22:58.41	11.07	22.87	
2025-01-13 10:22:59.65	10.79	22.72	
2025-01-13 10:23:00.87	10.53	22.57	
2025-01-13 10:23:02.10	10.26	22.43	
2025-01-13 10:23:03.33	10.00	22.28	
2025-01-13 10:23:04.56	9.73	22.14	
2025-01-13 10:23:05.80	9.47	21.99	
2025-01-13 10:23:07.03	9.22	21.85	
2025-01-13 10:23:08.26	8.96	21.71	
2025-01-13 10:23:09.49	8.71	21.56	
2025-01-13 10:23:10.73	8.46	21.42	
2025-01-13 10:23:11.97	8.21	21.28	
2025-01-13 10:23:13.22	7.96	21.13	
2025-01-13 10:23:14.45	7.72	20.99	
2025-01-13 10:23:15.68	7.48	20.85	
2025-01-13 10:23:16.91	7.24	20.71	
2025-01-13 10:23:18.16	7.00	20.56	
2025-01-13 10:23:19.39	6.77	20.42	
2025-01-13 10:23:20.62	6.54	20.28	
2025-01-13 10:23:21.85	6.31	20.14	
2025-01-13 10:23:23.09	6.09	20.00	
2025-01-13 10:23:24.31	5.86	19.86	
2025-01-13 10:23:25.54	5.64	19.72	
2025-01-13 10:23:26.79	5.42	19.58	
2025-01-13 10:23:28.02	5.20	19.45	
2025-01-13 10:23:29.26	4.99	19.31	
2025-01-13 10:23:30.49	4.77	19.17	
2025-01-13 10:23:31.72	4.56	19.03	
2025-01-13 10:23:32.95	4.35	18.90	
2025-01-13 10:23:34.18	4.15	18.76	
2025-01-13 10:23:35.43	3.94	18.62	
2025-01-13 10:23:36.66	3.74	18.49	
2025-01-13 10:23:37.89	3.53	18.36	
2025-01-13 10:23:39.12	3.34	18.22	
2025-01-13 10:23:40.35	3.14	18.09	
2025-01-13 10:23:41.58	2.94	17.96	
2025-01-13 10:23:42.82	2.75	17.82	
2025-01-13 10:23:44.05	2.56	17.69	
2025-01-13 10:23:45.28	2.37	17.56	
2025-01-13 10:23:46.52	2.18	17.43	
2025-01-13 10:23:47.75	1.99	17.30	
2025-01-13 10:23:48.98	1.81	17.17	
2025-01-13 10:23:50.21	1.62	17.04	
2025-01-13 10:23:51.44	1.44	16.91	
2025-01-13 10:23:52.67	1.26	16.78	
2025-01-13 10:23:53.91	1.08	16.65	
2025-01-13 10:23:55.16	0.90	16.52	
2025-01-13 10:23:56.39	0.73	16.39	
2025-01-13 10:23:57.62	0.56	16.26	
2025-01-13 10:23:58.86	0.38	16.14	
2025-01-13 10:24:00.08	0.21	16.01	
2025-01-13 10:24:01.32	0.05	15.89	
2025-01-13 10:24:02.55	359.88	15.76	
2025-01-13 10:24:03.78	359.71	15.64	
2025-01-13 10:24:05.00	359.55	15.51	
2025-01-13 10:24:06.23	359.39	15.39	
2025-01-13 10:24:07.46	359.23	15.27	
2025-01-13 10:24:08.71	359.07	15.14	
2025-01-13 10:24:09.94	358.91	15.02	
2025-01-13 10:24:11.17	358.75	14.90	
2025-01-13 10:24:12.40	358.60	14.78	
2025-01-13 10:24:13.64	358.44	14.65	
2025-01-13 10:24:14.87	358.29	14.53	
2025-01-13 10:24:16.10	358.14	14.41	
2025-01-13 10:24:17.33	357.99	14.29	
2025-01-13 10:24:18.58	357.84	14.17	
2025-01-13 10:24:19.82	357.69	14.05	
2025-01-13 10:24:21.05	357.54	13.94	
2025-01-13 10:24:22.28	357.40	13.82	
2025-01-13 10:24:23.51	357.26	13.70	
2025-01-13 10:24:24.74	357.11	13.58	
2025-01-13 10:24:25.98	356.97	13.47	
2025-01-13 10:24:27.22	356.83	13.35	
2025-01-13 10:24:28.44	356.69	13.24	
2025-01-13 10:24:29.69	356.55	13.12	
2025-01-13 10:24:30.93	356.42	13.00	
2025-01-13 10:24:32.16	356.28	12.89	
2025-01-13 10:24:33.39	356.15	12.78	
2025-01-13 10:24:34.63	356.01	12.66	
2025-01-13 10:24:35.86	355.88	12.55	
2025-01-13 10:24:37.09	355.75	12.44	
2025-01-13 10:24:38.32	355.62	12.33	
2025-01-13 10:24:39.55	355.50	12.21	
2025-01-13 10:24:40.78	355.37	12.10	
2025-01-13 10:24:42.02	355.24	11.99	
2025-01-13 10:24:43.25	355.12	11.88	
2025-01-13 10:24:44.47	354.99	11.77	
2025-01-13 10:24:45.70	354.87	11.66	
2025-01-13 10:24:46.94	354.75	11.55	
2025-01-13 10:24:48.17	354.63	11.45	
2025-01-13 10:24:49.40	354.51	11.34	
2025-01-13 10:24:50.63	354.39	11.23	
2025-01-13 10:24:51.86	354.27	11.12	
2025-01-13 10:24:53.10	354.15	11.01	
2025-01-13 10:24:54.34	354.04	10.91	
2025-01-13 10:24:55.57	353.92	10.80	
2025-01-13 10:24:56.80	353.81	10.70	
2025-01-13 10:24:58.03	353.69	10.59	
2025-01-13 10:24:59.26	353.58	10.49	
2025-01-13 10:25:00.49	353.47	10.38	
2025-01-13 10:25:01.72	353.36	10.28	
2025-01-13 10:25:02.96	353.25	10.17	
2025-01-13 10:25:04.19	353.14	10.07	
2025-01-13 10:25:05.42	353.03	9.97	
2025-01-13 10:25:06.65	352.92	9.86	
2025-01-13 10:25:07.88	352.82	9.76	
2025-01-13 10:25:09.11	352.71	9.66	
2025-01-13 10:25:10.34	352.61	9.56	
2025-01-13 10:25:11.57	352.50	9.46	
2025-01-13 10:25:12.81	352.40	9.36	
2025-01-13 10:25:14.04	352.30	9.26	
2025-01-13 10:25:15.27	352.20	9.16	
2025-01-13 10:25:16.50	352.10	9.06	
2025-01-13 10:25:17.76	351.99	8.95	
2025-01-13 10:25:18.99	351.90	8.86	
2025-01-13 10:25:20.22	351.80	8.76	
2025-01-13 10:25:21.46	351.70	8.66	
2025-01-13 10:25:22.69	351.60	8.56	
2025-01-13 10:25:23.92	351.51	8.46	
2025-01-13 10:25:25.15	351.41	8.37	
2025-01-13 10:25:26.39	351.32	8.27	
2025-01-13 10:25:27.63	351.22	8.17	
2025-01-13 10:25:28.86	351.13	8.07	
2025-01-13 10:25:30.09	351.04	7.98	
2025-01-13 10:25:31.33	350.94	7.88	
2025-01-13 10:25:32.56	350.85	7.79	
2025-01-13 10:25:33.78	350.76	7.69	
2025-01-13 10:25:35.03	350.67	7.60	
2025-01-13 10:25:36.26	350.58	7.50	
2025-01-13 10:25:37.49	350.49	7.41	
2025-01-13 10:25:38.73	350.40	7.31	
2025-01-13 10:25:39.96	350.32	7.22	
2025-01-13 10:25:41.19	350.23	7.13	
2025-01-13 10:25:42.43	350.14	7.04	
2025-01-13 10:25:43.67	350.06	6.94	
2025-01-13 10:25:44.90	349.97	6.85	
2025-01-13 10:25:46.14	349.89	6.76	
2025-01-13 10:25:47.39	349.80	6.67	
2025-01-13 10:25:48.62	349.72	6.57	
2025-01-13 10:25:49.85	349.64	6.48	
2025-01-13 10:25:51.08	349.56	6.39	
2025-01-13 10:25:52.31	349.48	6.30	
2025-01-13 10:25:53.54	349.40	6.21	
2025-01-13 10:25:54.79	349.32	6.12	
2025-01-13 10:25:56.02	349.24	6.03	
2025-01-13 10:25:57.25	349.16	5.94	
2025-01-13 10:25:58.48	349.08	5.86	
2025-01-13 10:25:59.72	349.00	5.77	
2025-01-13 10:26:00.95	348.92	5.68	
2025-01-13 10:26:02.18	348.85	5.59	
2025-01-13 10:26:03.41	348.77	5.50	
2025-01-13 10:26:04.64	348.70	5.42	
2025-01-13 10:26:05.90	348.62	5.33	
2025-01-13 10:26:07.13	348.54	5.24	
2025-01-13 10:26:08.36	348.47	5.15	
2025-01-13 10:26:09.59	348.40	5.07	
2025-01-13 10:26:10.82	348.32	4.98	
2025-01-13 10:26:12.05	348.25	4.90	
2025-01-13 10:26:13.28	348.18	4.81	
2025-01-13 10:26:14.52	348.11	4.72	
2025-01-13 10:26:15.75	348.04	4.64	
2025-01-13 10:26:16.98	347.97	4.55	
2025-01-13 10:26:18.21	347.90	4.47	
2025-01-13 10:26:19.44	347.83	4.39	
2025-01-13 10:26:20.67	347.76	4.30	
2025-01-13 10:26:21.90	347.69	4.22	
2025-01-13 10:26:23.13	347.62	4.14	
2025-01-13 10:26:24.36	347.55	4.05	

#Closed at: 2025-01-13 10:26:25