passes_logs/2025/01/13/SPB_Silybum_02/SPB_Silybum_02__20250113_234019_AQUA_rec.log

#Pass ID: 20250113_234019_AQUA
#Satellite: AQUA
#Configuration: AQUA
#Start time: 2025-01-13 23:40:18

#Version: 2.0.20230423
#Station: SPB_Silybum_02
#Location: 30.233357 lon 59.946436 lat
#TLE: 1 27424U 02022A   25013.15568498  .00001660  00000+0  35066-3 0  9997
#TLE: 2 27424  98.3585 329.8030 0001646 113.3422 303.6913 14.60674931207350

#Time	Az	El	Level	Level2	SNR	BER	Gain	Gain2
2025-01-13 23:40:20.78	29.11	4.07	
2025-01-13 23:40:21.80	29.21	4.13	
2025-01-13 23:40:22.83	29.31	4.19	
2025-01-13 23:40:23.86	29.41	4.25	
2025-01-13 23:40:24.88	29.51	4.31	
2025-01-13 23:40:25.91	29.61	4.37	
2025-01-13 23:40:26.93	29.72	4.43	
2025-01-13 23:40:27.97	29.82	4.49	
2025-01-13 23:40:29.00	29.92	4.55	
2025-01-13 23:40:30.03	30.03	4.61	
2025-01-13 23:40:31.05	30.13	4.67	
2025-01-13 23:40:32.08	30.23	4.73	
2025-01-13 23:40:33.11	30.34	4.79	
2025-01-13 23:40:34.14	30.44	4.85	
2025-01-13 23:40:35.16	30.55	4.91	
2025-01-13 23:40:36.19	30.65	4.97	
2025-01-13 23:40:37.22	30.76	5.03	
2025-01-13 23:40:38.24	30.87	5.10	
2025-01-13 23:40:39.28	30.98	5.16	
2025-01-13 23:40:40.31	31.08	5.22	
2025-01-13 23:40:41.34	31.19	5.28	
2025-01-13 23:40:42.36	31.30	5.34	
2025-01-13 23:40:43.39	31.41	5.40	
2025-01-13 23:40:44.41	31.52	5.46	
2025-01-13 23:40:45.44	31.63	5.52	
2025-01-13 23:40:46.47	31.74	5.58	
2025-01-13 23:40:47.49	31.85	5.64	
2025-01-13 23:40:48.52	31.96	5.71	
2025-01-13 23:40:49.56	32.08	5.77	
2025-01-13 23:40:50.60	32.19	5.83	
2025-01-13 23:40:51.62	32.30	5.89	
2025-01-13 23:40:52.65	32.42	5.95	
2025-01-13 23:40:53.68	32.53	6.02	
2025-01-13 23:40:54.70	32.64	6.08	
2025-01-13 23:40:55.73	32.76	6.14	
2025-01-13 23:40:56.75	32.87	6.20	
2025-01-13 23:40:57.80	32.99	6.27	
2025-01-13 23:40:58.82	33.11	6.33	
2025-01-13 23:40:59.85	33.23	6.39	
2025-01-13 23:41:00.86	33.34	6.45	
2025-01-13 23:41:01.89	33.46	6.51	
2025-01-13 23:41:02.91	33.58	6.58	
2025-01-13 23:41:03.94	33.70	6.64	
2025-01-13 23:41:04.96	33.82	6.70	
2025-01-13 23:41:05.99	33.94	6.76	
2025-01-13 23:41:07.02	34.06	6.83	
2025-01-13 23:41:08.05	34.18	6.89	
2025-01-13 23:41:09.08	34.30	6.95	
2025-01-13 23:41:10.10	34.42	7.01	
2025-01-13 23:41:11.13	34.55	7.08	
2025-01-13 23:41:12.17	34.67	7.14	
2025-01-13 23:41:13.19	34.80	7.20	
2025-01-13 23:41:14.22	34.92	7.27	
2025-01-13 23:41:15.24	35.04	7.33	
2025-01-13 23:41:16.28	35.17	7.40	
2025-01-13 23:41:17.31	35.30	7.46	
2025-01-13 23:41:18.34	35.43	7.52	
2025-01-13 23:41:19.36	35.55	7.59	
2025-01-13 23:41:20.38	35.68	7.65	
2025-01-13 23:41:21.41	35.81	7.71	
2025-01-13 23:41:22.43	35.94	7.78	
2025-01-13 23:41:23.46	36.07	7.84	
2025-01-13 23:41:24.49	36.20	7.90	
2025-01-13 23:41:25.51	36.33	7.97	
2025-01-13 23:41:26.55	36.46	8.03	
2025-01-13 23:41:27.58	36.60	8.10	
2025-01-13 23:41:28.61	36.73	8.16	
2025-01-13 23:41:29.63	36.86	8.23	
2025-01-13 23:41:30.66	37.00	8.29	
2025-01-13 23:41:31.69	37.13	8.35	
2025-01-13 23:41:32.71	37.27	8.42	
2025-01-13 23:41:33.73	37.40	8.48	
2025-01-13 23:41:34.76	37.54	8.55	
2025-01-13 23:41:35.79	37.68	8.61	
2025-01-13 23:41:36.81	37.81	8.68	
2025-01-13 23:41:37.84	37.95	8.74	
2025-01-13 23:41:38.86	38.09	8.81	
2025-01-13 23:41:39.90	38.23	8.87	
2025-01-13 23:41:40.92	38.37	8.94	
2025-01-13 23:41:41.94	38.51	9.00	
2025-01-13 23:41:42.98	38.66	9.07	
2025-01-13 23:41:44.01	38.80	9.13	
2025-01-13 23:41:45.03	38.94	9.20	
2025-01-13 23:41:46.06	39.08	9.26	
2025-01-13 23:41:47.08	39.23	9.32	
2025-01-13 23:41:48.11	39.37	9.39	
2025-01-13 23:41:49.15	39.52	9.46	
2025-01-13 23:41:50.17	39.67	9.52	
2025-01-13 23:41:51.20	39.81	9.59	
2025-01-13 23:41:52.23	39.96	9.65	
2025-01-13 23:41:53.25	40.11	9.72	
2025-01-13 23:41:54.28	40.26	9.78	
2025-01-13 23:41:55.32	40.41	9.85	
2025-01-13 23:41:56.35	40.56	9.91	
2025-01-13 23:41:57.37	40.71	9.98	
2025-01-13 23:41:58.40	40.87	10.04	
2025-01-13 23:41:59.42	41.02	10.11	
2025-01-13 23:42:00.45	41.17	10.18	
2025-01-13 23:42:01.48	41.33	10.24	
2025-01-13 23:42:02.51	41.48	10.31	
2025-01-13 23:42:03.54	41.64	10.37	
2025-01-13 23:42:04.57	41.80	10.44	
2025-01-13 23:42:05.59	41.95	10.50	
2025-01-13 23:42:06.61	42.11	10.57	
2025-01-13 23:42:07.64	42.27	10.64	
2025-01-13 23:42:08.66	42.43	10.70	
2025-01-13 23:42:09.69	42.59	10.77	
2025-01-13 23:42:10.72	42.75	10.83	
2025-01-13 23:42:11.75	42.91	10.90	
2025-01-13 23:42:12.77	43.07	10.96	
2025-01-13 23:42:13.80	43.24	11.03	
2025-01-13 23:42:14.82	43.40	11.09	
2025-01-13 23:42:15.86	43.57	11.16	
2025-01-13 23:42:16.89	43.73	11.23	
2025-01-13 23:42:17.91	43.90	11.29	
2025-01-13 23:42:18.94	44.06	11.36	
2025-01-13 23:42:19.97	44.23	11.42	
2025-01-13 23:42:21.00	44.40	11.49	
2025-01-13 23:42:22.03	44.57	11.56	
2025-01-13 23:42:23.06	44.74	11.62	
2025-01-13 23:42:24.08	44.91	11.69	
2025-01-13 23:42:25.12	45.09	11.75	
2025-01-13 23:42:26.15	45.26	11.82	
2025-01-13 23:42:27.19	45.44	11.89	
2025-01-13 23:42:28.21	45.61	11.95	
2025-01-13 23:42:29.24	45.78	12.02	
2025-01-13 23:42:30.27	45.96	12.08	
2025-01-13 23:42:31.29	46.14	12.15	
2025-01-13 23:42:32.32	46.32	12.21	
2025-01-13 23:42:33.36	46.50	12.28	
2025-01-13 23:42:34.38	46.67	12.34	
2025-01-13 23:42:35.41	46.85	12.41	
2025-01-13 23:42:36.44	47.04	12.47	
2025-01-13 23:42:37.46	47.22	12.54	
2025-01-13 23:42:38.49	47.40	12.60	
2025-01-13 23:42:39.52	47.58	12.67	
2025-01-13 23:42:40.54	47.77	12.73	
2025-01-13 23:42:41.57	47.95	12.80	
2025-01-13 23:42:42.60	48.14	12.86	
2025-01-13 23:42:43.63	48.33	12.93	
2025-01-13 23:42:44.65	48.51	12.99	
2025-01-13 23:42:45.68	48.70	13.06	
2025-01-13 23:42:46.70	48.89	13.12	
2025-01-13 23:42:47.73	49.08	13.19	
2025-01-13 23:42:48.76	49.27	13.25	
2025-01-13 23:42:49.78	49.46	13.32	
2025-01-13 23:42:50.82	49.66	13.38	
2025-01-13 23:42:51.85	49.85	13.45	
2025-01-13 23:42:52.87	50.05	13.51	
2025-01-13 23:42:53.90	50.24	13.57	
2025-01-13 23:42:54.92	50.44	13.64	
2025-01-13 23:42:55.95	50.64	13.70	
2025-01-13 23:42:56.99	50.84	13.76	
2025-01-13 23:42:58.01	51.03	13.83	
2025-01-13 23:42:59.03	51.23	13.89	
2025-01-13 23:43:00.08	51.44	13.96	
2025-01-13 23:43:01.11	51.64	14.02	
2025-01-13 23:43:02.13	51.84	14.08	
2025-01-13 23:43:03.15	52.04	14.14	
2025-01-13 23:43:04.18	52.25	14.21	
2025-01-13 23:43:05.21	52.46	14.27	
2025-01-13 23:43:06.23	52.66	14.33	
2025-01-13 23:43:07.26	52.87	14.39	
2025-01-13 23:43:08.28	53.08	14.46	
2025-01-13 23:43:09.31	53.29	14.52	
2025-01-13 23:43:10.34	53.50	14.58	
2025-01-13 23:43:11.37	53.71	14.64	
2025-01-13 23:43:12.41	53.92	14.70	
2025-01-13 23:43:13.43	54.13	14.76	
2025-01-13 23:43:14.46	54.35	14.83	
2025-01-13 23:43:15.48	54.56	14.89	
2025-01-13 23:43:16.51	54.78	14.95	
2025-01-13 23:43:17.53	54.99	15.01	
2025-01-13 23:43:18.56	55.21	15.07	
2025-01-13 23:43:19.59	55.43	15.13	
2025-01-13 23:43:20.61	55.65	15.19	
2025-01-13 23:43:21.64	55.87	15.25	
2025-01-13 23:43:22.66	56.09	15.31	
2025-01-13 23:43:23.69	56.31	15.37	
2025-01-13 23:43:24.71	56.53	15.43	
2025-01-13 23:43:25.74	56.76	15.48	
2025-01-13 23:43:26.77	56.98	15.54	
2025-01-13 23:43:27.79	57.20	15.60	
2025-01-13 23:43:28.82	57.43	15.66	
2025-01-13 23:43:29.84	57.66	15.72	
2025-01-13 23:43:30.86	57.88	15.77	
2025-01-13 23:43:31.90	58.12	15.83	
2025-01-13 23:43:32.93	58.35	15.89	
2025-01-13 23:43:33.95	58.58	15.95	
2025-01-13 23:43:34.98	58.81	16.00	
2025-01-13 23:43:36.03	59.05	16.06	
2025-01-13 23:43:37.06	59.28	16.12	
2025-01-13 23:43:38.09	59.52	16.17	
2025-01-13 23:43:39.12	59.75	16.23	
2025-01-13 23:43:40.15	59.99	16.28	
2025-01-13 23:43:41.17	60.23	16.34	
2025-01-13 23:43:42.20	60.47	16.39	
2025-01-13 23:43:43.22	60.71	16.45	
2025-01-13 23:43:44.24	60.94	16.50	
2025-01-13 23:43:45.27	61.19	16.55	
2025-01-13 23:43:46.30	61.43	16.61	
2025-01-13 23:43:47.32	61.67	16.66	
2025-01-13 23:43:48.35	61.91	16.71	
2025-01-13 23:43:49.37	62.16	16.76	
2025-01-13 23:43:50.40	62.40	16.82	
2025-01-13 23:43:51.42	62.65	16.87	
2025-01-13 23:43:52.45	62.90	16.92	
2025-01-13 23:43:53.48	63.15	16.97	
2025-01-13 23:43:54.51	63.40	17.02	
2025-01-13 23:43:55.54	63.65	17.07	
2025-01-13 23:43:56.57	63.90	17.12	
2025-01-13 23:43:57.59	64.15	17.17	
2025-01-13 23:43:58.63	64.40	17.22	
2025-01-13 23:43:59.66	64.66	17.27	
2025-01-13 23:44:00.68	64.91	17.31	
2025-01-13 23:44:01.71	65.17	17.36	
2025-01-13 23:44:02.74	65.42	17.41	
2025-01-13 23:44:03.76	65.68	17.45	
2025-01-13 23:44:04.79	65.94	17.50	
2025-01-13 23:44:05.81	66.19	17.55	
2025-01-13 23:44:06.84	66.45	17.59	
2025-01-13 23:44:07.88	66.72	17.64	
2025-01-13 23:44:08.90	66.98	17.68	
2025-01-13 23:44:09.93	67.24	17.73	
2025-01-13 23:44:10.95	67.50	17.77	
2025-01-13 23:44:11.98	67.76	17.81	
2025-01-13 23:44:13.00	68.02	17.85	
2025-01-13 23:44:14.03	68.29	17.90	
2025-01-13 23:44:15.05	68.55	17.94	
2025-01-13 23:44:16.07	68.82	17.98	
2025-01-13 23:44:17.09	69.08	18.02	
2025-01-13 23:44:18.11	69.35	18.06	
2025-01-13 23:44:19.14	69.62	18.10	
2025-01-13 23:44:20.16	69.89	18.14	
2025-01-13 23:44:21.20	70.16	18.18	
2025-01-13 23:44:22.23	70.43	18.21	
2025-01-13 23:44:23.25	70.70	18.25	
2025-01-13 23:44:24.28	70.97	18.29	
2025-01-13 23:44:25.31	71.25	18.33	
2025-01-13 23:44:26.35	71.52	18.36	
2025-01-13 23:44:27.38	71.80	18.40	
2025-01-13 23:44:28.40	72.07	18.43	
2025-01-13 23:44:29.43	72.35	18.47	
2025-01-13 23:44:30.45	72.62	18.50	
2025-01-13 23:44:31.48	72.90	18.53	
2025-01-13 23:44:32.51	73.18	18.56	
2025-01-13 23:44:33.54	73.46	18.60	
2025-01-13 23:44:34.58	73.74	18.63	
2025-01-13 23:44:35.62	74.02	18.66	
2025-01-13 23:44:36.64	74.30	18.69	
2025-01-13 23:44:37.66	74.58	18.72	
2025-01-13 23:44:38.69	74.86	18.75	
2025-01-13 23:44:39.73	75.15	18.78	
2025-01-13 23:44:40.75	75.43	18.80	
2025-01-13 23:44:41.78	75.71	18.83	
2025-01-13 23:44:42.81	75.99	18.86	
2025-01-13 23:44:43.83	76.27	18.88	
2025-01-13 23:44:44.86	76.56	18.91	
2025-01-13 23:44:45.89	76.85	18.93	
2025-01-13 23:44:46.91	77.13	18.96	
2025-01-13 23:44:47.93	77.41	18.98	
2025-01-13 23:44:48.97	77.70	19.00	
2025-01-13 23:44:50.00	77.99	19.02	
2025-01-13 23:44:51.03	78.28	19.05	
2025-01-13 23:44:52.05	78.56	19.07	
2025-01-13 23:44:53.07	78.85	19.09	
2025-01-13 23:44:54.10	79.14	19.11	
2025-01-13 23:44:55.12	79.42	19.12	
2025-01-13 23:44:56.15	79.71	19.14	
2025-01-13 23:44:57.17	80.00	19.16	
2025-01-13 23:44:58.20	80.29	19.18	
2025-01-13 23:44:59.22	80.58	19.19	
2025-01-13 23:45:00.25	80.87	19.21	
2025-01-13 23:45:01.27	81.16	19.22	
2025-01-13 23:45:02.30	81.45	19.24	
2025-01-13 23:45:03.32	81.74	19.25	
2025-01-13 23:45:04.35	82.03	19.26	
2025-01-13 23:45:05.38	82.32	19.27	
2025-01-13 23:45:06.41	82.62	19.28	
2025-01-13 23:45:07.43	82.91	19.29	
2025-01-13 23:45:08.46	83.20	19.30	
2025-01-13 23:45:09.50	83.49	19.31	
2025-01-13 23:45:10.54	83.79	19.32	
2025-01-13 23:45:11.57	84.08	19.33	
2025-01-13 23:45:12.59	84.38	19.34	
2025-01-13 23:45:13.62	84.67	19.34	
2025-01-13 23:45:14.65	84.96	19.35	
2025-01-13 23:45:15.69	85.26	19.35	
2025-01-13 23:45:16.71	85.55	19.36	
2025-01-13 23:45:17.74	85.85	19.36	
2025-01-13 23:45:18.77	86.14	19.36	
2025-01-13 23:45:19.80	86.44	19.36	
2025-01-13 23:45:20.82	86.73	19.37	
2025-01-13 23:45:21.85	87.02	19.37	
2025-01-13 23:45:22.88	87.32	19.37	
2025-01-13 23:45:23.90	87.61	19.37	
2025-01-13 23:45:24.93	87.90	19.36	
2025-01-13 23:45:25.95	88.19	19.36	
2025-01-13 23:45:26.98	88.49	19.36	
2025-01-13 23:45:28.00	88.78	19.35	
2025-01-13 23:45:29.03	89.07	19.35	
2025-01-13 23:45:30.05	89.37	19.34	
2025-01-13 23:45:31.08	89.66	19.34	
2025-01-13 23:45:32.11	89.95	19.33	
2025-01-13 23:45:33.13	90.24	19.32	
2025-01-13 23:45:34.18	90.54	19.32	
2025-01-13 23:45:35.20	90.83	19.31	
2025-01-13 23:45:36.23	91.13	19.30	
2025-01-13 23:45:37.25	91.42	19.29	
2025-01-13 23:45:38.28	91.71	19.28	
2025-01-13 23:45:39.31	92.00	19.27	
2025-01-13 23:45:40.34	92.30	19.25	
2025-01-13 23:45:41.37	92.59	19.24	
2025-01-13 23:45:42.39	92.88	19.23	
2025-01-13 23:45:43.41	93.17	19.21	
2025-01-13 23:45:44.44	93.46	19.20	
2025-01-13 23:45:45.47	93.75	19.18	
2025-01-13 23:45:46.49	94.04	19.17	
2025-01-13 23:45:47.52	94.33	19.15	
2025-01-13 23:45:48.54	94.62	19.13	
2025-01-13 23:45:49.57	94.91	19.11	
2025-01-13 23:45:50.60	95.20	19.09	
2025-01-13 23:45:51.62	95.48	19.07	
2025-01-13 23:45:52.66	95.77	19.05	
2025-01-13 23:45:53.70	96.07	19.03	
2025-01-13 23:45:54.74	96.36	19.01	
2025-01-13 23:45:55.77	96.64	18.99	
2025-01-13 23:45:56.79	96.93	18.97	
2025-01-13 23:45:57.83	97.22	18.94	
2025-01-13 23:45:58.85	97.50	18.92	
2025-01-13 23:45:59.88	97.79	18.89	
2025-01-13 23:46:00.91	98.07	18.87	
2025-01-13 23:46:01.93	98.35	18.84	
2025-01-13 23:46:02.96	98.64	18.81	
2025-01-13 23:46:04.00	98.92	18.79	
2025-01-13 23:46:05.03	99.21	18.76	
2025-01-13 23:46:06.05	99.49	18.73	
2025-01-13 23:46:07.08	99.77	18.70	
2025-01-13 23:46:08.11	100.05	18.67	
2025-01-13 23:46:09.13	100.33	18.64	
2025-01-13 23:46:10.16	100.61	18.61	
2025-01-13 23:46:11.19	100.89	18.58	
2025-01-13 23:46:12.22	101.17	18.54	
2025-01-13 23:46:13.25	101.45	18.51	
2025-01-13 23:46:14.27	101.72	18.48	
2025-01-13 23:46:15.30	102.00	18.44	
2025-01-13 23:46:16.32	102.27	18.41	
2025-01-13 23:46:17.35	102.55	18.37	
2025-01-13 23:46:18.37	102.82	18.34	
2025-01-13 23:46:19.40	103.10	18.30	
2025-01-13 23:46:20.43	103.37	18.26	
2025-01-13 23:46:21.45	103.64	18.23	
2025-01-13 23:46:22.47	103.91	18.19	
2025-01-13 23:46:23.50	104.19	18.15	
2025-01-13 23:46:24.52	104.45	18.11	
2025-01-13 23:46:25.55	104.72	18.07	
2025-01-13 23:46:26.57	104.99	18.03	
2025-01-13 23:46:27.60	105.26	17.99	
2025-01-13 23:46:28.62	105.53	17.95	
2025-01-13 23:46:29.65	105.79	17.91	
2025-01-13 23:46:30.68	106.06	17.87	
2025-01-13 23:46:31.72	106.33	17.82	
2025-01-13 23:46:32.75	106.60	17.78	
2025-01-13 23:46:33.77	106.86	17.74	
2025-01-13 23:46:34.80	107.12	17.69	
2025-01-13 23:46:35.83	107.38	17.65	
2025-01-13 23:46:36.87	107.65	17.60	
2025-01-13 23:46:37.91	107.91	17.56	
2025-01-13 23:46:38.94	108.17	17.51	
2025-01-13 23:46:39.96	108.43	17.46	
2025-01-13 23:46:40.99	108.69	17.42	
2025-01-13 23:46:42.01	108.94	17.37	
2025-01-13 23:46:43.06	109.21	17.32	
2025-01-13 23:46:44.08	109.46	17.27	
2025-01-13 23:46:45.10	109.71	17.23	
2025-01-13 23:46:46.13	109.97	17.18	
2025-01-13 23:46:47.16	110.22	17.13	
2025-01-13 23:46:48.18	110.47	17.08	
2025-01-13 23:46:49.21	110.72	17.03	
2025-01-13 23:46:50.25	110.98	16.98	
2025-01-13 23:46:51.27	111.23	16.93	
2025-01-13 23:46:52.30	111.48	16.87	
2025-01-13 23:46:53.32	111.72	16.82	
2025-01-13 23:46:54.35	111.97	16.77	
2025-01-13 23:46:55.37	112.21	16.72	
2025-01-13 23:46:56.40	112.46	16.67	
2025-01-13 23:46:57.43	112.71	16.61	
2025-01-13 23:46:58.45	112.95	16.56	
2025-01-13 23:46:59.48	113.19	16.51	
2025-01-13 23:47:00.52	113.43	16.45	
2025-01-13 23:47:01.54	113.67	16.40	
2025-01-13 23:47:02.56	113.91	16.34	
2025-01-13 23:47:03.59	114.15	16.29	
2025-01-13 23:47:04.62	114.39	16.23	
2025-01-13 23:47:05.64	114.63	16.18	
2025-01-13 23:47:06.67	114.86	16.12	
2025-01-13 23:47:07.69	115.10	16.06	
2025-01-13 23:47:08.72	115.33	16.01	
2025-01-13 23:47:09.75	115.57	15.95	
2025-01-13 23:47:10.78	115.80	15.89	
2025-01-13 23:47:11.82	116.03	15.83	
2025-01-13 23:47:12.84	116.26	15.78	
2025-01-13 23:47:13.86	116.49	15.72	
2025-01-13 23:47:14.89	116.72	15.66	
2025-01-13 23:47:15.92	116.95	15.60	
2025-01-13 23:47:16.95	117.18	15.54	
2025-01-13 23:47:17.97	117.40	15.48	
2025-01-13 23:47:18.99	117.63	15.43	
2025-01-13 23:47:20.02	117.85	15.37	
2025-01-13 23:47:21.04	118.07	15.31	
2025-01-13 23:47:22.07	118.30	15.25	
2025-01-13 23:47:23.09	118.52	15.19	
2025-01-13 23:47:24.11	118.73	15.13	
2025-01-13 23:47:25.15	118.96	15.07	
2025-01-13 23:47:26.18	119.18	15.00	
2025-01-13 23:47:27.21	119.39	14.94	
2025-01-13 23:47:28.24	119.61	14.88	
2025-01-13 23:47:29.26	119.83	14.82	
2025-01-13 23:47:30.29	120.04	14.76	
2025-01-13 23:47:31.32	120.26	14.70	
2025-01-13 23:47:32.34	120.47	14.64	
2025-01-13 23:47:33.37	120.68	14.57	
2025-01-13 23:47:34.39	120.89	14.51	
2025-01-13 23:47:35.43	121.10	14.45	
2025-01-13 23:47:36.46	121.31	14.39	
2025-01-13 23:47:37.48	121.52	14.32	
2025-01-13 23:47:38.51	121.73	14.26	
2025-01-13 23:47:39.54	121.94	14.20	
2025-01-13 23:47:40.56	122.14	14.13	
2025-01-13 23:47:41.59	122.35	14.07	
2025-01-13 23:47:42.61	122.55	14.01	
2025-01-13 23:47:43.63	122.75	13.94	
2025-01-13 23:47:44.66	122.96	13.88	
2025-01-13 23:47:45.68	123.16	13.82	
2025-01-13 23:47:46.71	123.36	13.75	
2025-01-13 23:47:47.74	123.56	13.69	
2025-01-13 23:47:48.77	123.76	13.62	
2025-01-13 23:47:49.80	123.95	13.56	
2025-01-13 23:47:50.84	124.15	13.49	
2025-01-13 23:47:51.87	124.35	13.43	
2025-01-13 23:47:52.90	124.55	13.36	
2025-01-13 23:47:53.93	124.74	13.30	
2025-01-13 23:47:54.95	124.93	13.23	
2025-01-13 23:47:55.98	125.12	13.17	
2025-01-13 23:47:57.01	125.32	13.10	
2025-01-13 23:47:58.03	125.51	13.04	
2025-01-13 23:47:59.06	125.70	12.97	
2025-01-13 23:48:00.08	125.88	12.91	
2025-01-13 23:48:01.10	126.07	12.84	
2025-01-13 23:48:02.13	126.26	12.78	
2025-01-13 23:48:03.16	126.45	12.71	
2025-01-13 23:48:04.18	126.63	12.65	
2025-01-13 23:48:05.21	126.82	12.58	
2025-01-13 23:48:06.24	127.00	12.52	
2025-01-13 23:48:07.26	127.18	12.45	
2025-01-13 23:48:08.29	127.36	12.38	
2025-01-13 23:48:09.31	127.54	12.32	
2025-01-13 23:48:10.34	127.72	12.25	
2025-01-13 23:48:11.36	127.90	12.19	
2025-01-13 23:48:12.39	128.08	12.12	
2025-01-13 23:48:13.41	128.26	12.06	
2025-01-13 23:48:14.44	128.44	11.99	
2025-01-13 23:48:15.46	128.61	11.92	
2025-01-13 23:48:16.49	128.79	11.86	
2025-01-13 23:48:17.51	128.96	11.79	
2025-01-13 23:48:18.55	129.14	11.72	
2025-01-13 23:48:19.58	129.31	11.66	
2025-01-13 23:48:20.60	129.48	11.59	
2025-01-13 23:48:21.63	129.65	11.53	
2025-01-13 23:48:22.66	129.82	11.46	
2025-01-13 23:48:23.68	129.99	11.39	
2025-01-13 23:48:24.71	130.16	11.33	
2025-01-13 23:48:25.73	130.33	11.26	
2025-01-13 23:48:26.76	130.50	11.19	
2025-01-13 23:48:27.78	130.66	11.13	
2025-01-13 23:48:28.81	130.83	11.06	
2025-01-13 23:48:29.83	130.99	11.00	
2025-01-13 23:48:30.86	131.16	10.93	
2025-01-13 23:48:31.88	131.32	10.86	
2025-01-13 23:48:32.91	131.48	10.80	
2025-01-13 23:48:33.93	131.64	10.73	
2025-01-13 23:48:34.96	131.80	10.66	
2025-01-13 23:48:35.99	131.97	10.60	
2025-01-13 23:48:37.01	132.12	10.53	
2025-01-13 23:48:38.04	132.28	10.47	
2025-01-13 23:48:39.06	132.44	10.40	
2025-01-13 23:48:40.09	132.60	10.33	
2025-01-13 23:48:41.11	132.75	10.27	
2025-01-13 23:48:42.14	132.91	10.20	
2025-01-13 23:48:43.17	133.07	10.13	
2025-01-13 23:48:44.19	133.22	10.07	
2025-01-13 23:48:45.22	133.37	10.00	
2025-01-13 23:48:46.25	133.53	9.94	
2025-01-13 23:48:47.27	133.68	9.87	
2025-01-13 23:48:48.30	133.83	9.80	
2025-01-13 23:48:49.33	133.98	9.74	
2025-01-13 23:48:50.35	134.13	9.67	
2025-01-13 23:48:51.38	134.28	9.61	
2025-01-13 23:48:52.42	134.43	9.54	
2025-01-13 23:48:53.44	134.58	9.47	
2025-01-13 23:48:54.47	134.73	9.41	
2025-01-13 23:48:55.49	134.87	9.34	
2025-01-13 23:48:56.52	135.02	9.28	
2025-01-13 23:48:57.53	135.16	9.21	
2025-01-13 23:48:58.56	135.30	9.15	
2025-01-13 23:48:59.58	135.45	9.08	
2025-01-13 23:49:00.61	135.59	9.01	
2025-01-13 23:49:01.65	135.74	8.95	
2025-01-13 23:49:02.67	135.88	8.88	
2025-01-13 23:49:03.70	136.02	8.82	
2025-01-13 23:49:04.72	136.16	8.75	
2025-01-13 23:49:05.75	136.30	8.69	
2025-01-13 23:49:06.78	136.44	8.62	
2025-01-13 23:49:07.81	136.58	8.56	
2025-01-13 23:49:08.83	136.71	8.49	
2025-01-13 23:49:09.87	136.85	8.43	
2025-01-13 23:49:10.90	136.99	8.36	
2025-01-13 23:49:11.92	137.12	8.30	
2025-01-13 23:49:12.95	137.26	8.23	
2025-01-13 23:49:13.98	137.40	8.16	
2025-01-13 23:49:15.00	137.53	8.10	
2025-01-13 23:49:16.03	137.66	8.04	
2025-01-13 23:49:17.05	137.79	7.97	
2025-01-13 23:49:18.09	137.93	7.91	
2025-01-13 23:49:19.12	138.06	7.84	
2025-01-13 23:49:20.14	138.19	7.78	
2025-01-13 23:49:21.17	138.32	7.71	
2025-01-13 23:49:22.19	138.45	7.65	
2025-01-13 23:49:23.22	138.58	7.58	
2025-01-13 23:49:24.25	138.71	7.52	
2025-01-13 23:49:25.27	138.84	7.45	
2025-01-13 23:49:26.30	138.96	7.39	
2025-01-13 23:49:27.32	139.09	7.33	
2025-01-13 23:49:28.35	139.22	7.26	
2025-01-13 23:49:29.38	139.34	7.20	
2025-01-13 23:49:30.40	139.47	7.13	
2025-01-13 23:49:31.44	139.59	7.07	
2025-01-13 23:49:32.46	139.72	7.01	
2025-01-13 23:49:33.49	139.84	6.94	
2025-01-13 23:49:34.51	139.96	6.88	
2025-01-13 23:49:35.54	140.08	6.82	
2025-01-13 23:49:36.56	140.21	6.75	
2025-01-13 23:49:37.59	140.33	6.69	
2025-01-13 23:49:38.61	140.45	6.63	
2025-01-13 23:49:39.64	140.57	6.56	
2025-01-13 23:49:40.66	140.69	6.50	
2025-01-13 23:49:41.69	140.81	6.44	
2025-01-13 23:49:42.73	140.92	6.37	
2025-01-13 23:49:43.76	141.04	6.31	
2025-01-13 23:49:44.78	141.16	6.25	
2025-01-13 23:49:45.81	141.28	6.18	
2025-01-13 23:49:46.84	141.39	6.12	
2025-01-13 23:49:47.86	141.51	6.06	
2025-01-13 23:49:48.89	141.62	6.00	
2025-01-13 23:49:49.92	141.74	5.93	
2025-01-13 23:49:50.94	141.85	5.87	
2025-01-13 23:49:51.97	141.97	5.81	
2025-01-13 23:49:52.99	142.08	5.75	
2025-01-13 23:49:54.02	142.19	5.68	
2025-01-13 23:49:55.04	142.30	5.62	
2025-01-13 23:49:56.07	142.42	5.56	
2025-01-13 23:49:57.10	142.53	5.50	
2025-01-13 23:49:58.12	142.64	5.44	
2025-01-13 23:49:59.15	142.75	5.38	
2025-01-13 23:50:00.17	142.86	5.31	
2025-01-13 23:50:01.19	142.97	5.25	
2025-01-13 23:50:02.21	143.07	5.19	
2025-01-13 23:50:03.24	143.18	5.13	
2025-01-13 23:50:04.27	143.29	5.07	
2025-01-13 23:50:05.30	143.40	5.01	
2025-01-13 23:50:06.33	143.50	4.95	
2025-01-13 23:50:07.36	143.61	4.88	
2025-01-13 23:50:08.38	143.72	4.82	
2025-01-13 23:50:09.41	143.82	4.76	
2025-01-13 23:50:10.43	143.93	4.70	
2025-01-13 23:50:11.45	144.03	4.64	
2025-01-13 23:50:12.48	144.13	4.58	
2025-01-13 23:50:13.52	144.24	4.52	
2025-01-13 23:50:14.55	144.34	4.46	
2025-01-13 23:50:15.58	144.45	4.40	
2025-01-13 23:50:16.60	144.55	4.34	
2025-01-13 23:50:17.63	144.65	4.28	
2025-01-13 23:50:18.65	144.75	4.22	
2025-01-13 23:50:19.68	144.85	4.16	
2025-01-13 23:50:20.70	144.95	4.10	
2025-01-13 23:50:21.73	145.05	4.04	

#Closed at: 2025-01-13 23:50:22