passes_logs/2025/01/13/SPB_Silybum_02/SPB_Silybum_02__20250113_175439_TERRA_rec.log

#Pass ID: 20250113_175439_TERRA
#Satellite: TERRA
#Configuration: TERRA
#Start time: 2025-01-13 17:54:38

#Version: 2.0.20230423
#Station: SPB_Silybum_02
#Location: 30.233357 lon 59.946436 lat
#TLE: 1 25994U 99068A   25012.80475962  .00000761  00000+0  16654-3 0  9990
#TLE: 2 25994  98.0220  75.9049 0003508  77.1547  57.1006 14.60390868333758

#Time	Az	El	Level	Level2	SNR	BER	Gain	Gain2
2025-01-13 17:54:40.73	142.43	4.09	
2025-01-13 17:54:41.96	142.39	4.18	
2025-01-13 17:54:43.19	142.35	4.27	
2025-01-13 17:54:44.42	142.32	4.35	
2025-01-13 17:54:45.66	142.28	4.44	
2025-01-13 17:54:46.89	142.24	4.53	
2025-01-13 17:54:48.11	142.20	4.62	
2025-01-13 17:54:49.34	142.17	4.71	
2025-01-13 17:54:50.57	142.13	4.80	
2025-01-13 17:54:51.80	142.09	4.89	
2025-01-13 17:54:53.04	142.05	4.98	
2025-01-13 17:54:54.27	142.01	5.07	
2025-01-13 17:54:55.50	141.97	5.16	
2025-01-13 17:54:56.73	141.93	5.26	
2025-01-13 17:54:57.96	141.89	5.35	
2025-01-13 17:54:59.19	141.85	5.44	
2025-01-13 17:55:00.42	141.81	5.53	
2025-01-13 17:55:01.66	141.77	5.63	
2025-01-13 17:55:02.89	141.72	5.72	
2025-01-13 17:55:04.12	141.68	5.81	
2025-01-13 17:55:05.35	141.64	5.91	
2025-01-13 17:55:06.60	141.60	6.00	
2025-01-13 17:55:07.83	141.55	6.10	
2025-01-13 17:55:09.09	141.51	6.20	
2025-01-13 17:55:10.33	141.47	6.29	
2025-01-13 17:55:11.57	141.42	6.39	
2025-01-13 17:55:12.80	141.38	6.49	
2025-01-13 17:55:14.04	141.33	6.58	
2025-01-13 17:55:15.28	141.29	6.68	
2025-01-13 17:55:16.51	141.24	6.78	
2025-01-13 17:55:17.74	141.20	6.88	
2025-01-13 17:55:18.97	141.15	6.97	
2025-01-13 17:55:20.20	141.10	7.07	
2025-01-13 17:55:21.44	141.06	7.17	
2025-01-13 17:55:22.67	141.01	7.27	
2025-01-13 17:55:23.90	140.96	7.37	
2025-01-13 17:55:25.14	140.91	7.47	
2025-01-13 17:55:26.38	140.87	7.57	
2025-01-13 17:55:27.61	140.82	7.68	
2025-01-13 17:55:28.84	140.77	7.78	
2025-01-13 17:55:30.09	140.72	7.88	
2025-01-13 17:55:31.32	140.67	7.98	
2025-01-13 17:55:32.55	140.62	8.09	
2025-01-13 17:55:33.78	140.57	8.19	
2025-01-13 17:55:35.01	140.52	8.29	
2025-01-13 17:55:36.24	140.46	8.40	
2025-01-13 17:55:37.47	140.41	8.50	
2025-01-13 17:55:38.70	140.36	8.61	
2025-01-13 17:55:39.93	140.31	8.71	
2025-01-13 17:55:41.16	140.25	8.82	
2025-01-13 17:55:42.41	140.20	8.93	
2025-01-13 17:55:43.64	140.15	9.04	
2025-01-13 17:55:44.87	140.09	9.14	
2025-01-13 17:55:46.10	140.04	9.25	
2025-01-13 17:55:47.33	139.98	9.36	
2025-01-13 17:55:48.56	139.92	9.47	
2025-01-13 17:55:49.81	139.87	9.58	
2025-01-13 17:55:51.04	139.81	9.69	
2025-01-13 17:55:52.27	139.75	9.80	
2025-01-13 17:55:53.52	139.69	9.91	
2025-01-13 17:55:54.75	139.63	10.03	
2025-01-13 17:55:55.98	139.58	10.14	
2025-01-13 17:55:57.21	139.52	10.25	
2025-01-13 17:55:58.44	139.46	10.36	
2025-01-13 17:55:59.69	139.39	10.48	
2025-01-13 17:56:00.92	139.33	10.59	
2025-01-13 17:56:02.15	139.27	10.71	
2025-01-13 17:56:03.39	139.21	10.83	
2025-01-13 17:56:04.63	139.15	10.94	
2025-01-13 17:56:05.86	139.08	11.06	
2025-01-13 17:56:07.09	139.02	11.18	
2025-01-13 17:56:08.32	138.95	11.30	
2025-01-13 17:56:09.55	138.89	11.41	
2025-01-13 17:56:10.79	138.82	11.53	
2025-01-13 17:56:12.02	138.76	11.65	
2025-01-13 17:56:13.24	138.69	11.77	
2025-01-13 17:56:14.49	138.62	11.90	
2025-01-13 17:56:15.72	138.55	12.02	
2025-01-13 17:56:16.95	138.48	12.14	
2025-01-13 17:56:18.20	138.41	12.26	
2025-01-13 17:56:19.43	138.34	12.39	
2025-01-13 17:56:20.66	138.27	12.51	
2025-01-13 17:56:21.91	138.20	12.64	
2025-01-13 17:56:23.13	138.13	12.76	
2025-01-13 17:56:24.36	138.06	12.89	
2025-01-13 17:56:25.59	137.98	13.02	
2025-01-13 17:56:26.83	137.91	13.15	
2025-01-13 17:56:28.06	137.83	13.27	
2025-01-13 17:56:29.29	137.76	13.40	
2025-01-13 17:56:30.52	137.68	13.53	
2025-01-13 17:56:31.75	137.60	13.66	
2025-01-13 17:56:32.99	137.52	13.80	
2025-01-13 17:56:34.23	137.44	13.93	
2025-01-13 17:56:35.48	137.36	14.06	
2025-01-13 17:56:36.72	137.28	14.20	
2025-01-13 17:56:37.95	137.20	14.33	
2025-01-13 17:56:39.18	137.12	14.47	
2025-01-13 17:56:40.41	137.04	14.60	
2025-01-13 17:56:41.64	136.95	14.74	
2025-01-13 17:56:42.87	136.87	14.88	
2025-01-13 17:56:44.10	136.78	15.01	
2025-01-13 17:56:45.33	136.70	15.15	
2025-01-13 17:56:46.56	136.61	15.29	
2025-01-13 17:56:47.80	136.52	15.43	
2025-01-13 17:56:49.03	136.43	15.58	
2025-01-13 17:56:50.26	136.34	15.72	
2025-01-13 17:56:51.49	136.25	15.86	
2025-01-13 17:56:52.72	136.16	16.00	
2025-01-13 17:56:53.95	136.07	16.15	
2025-01-13 17:56:55.18	135.97	16.30	
2025-01-13 17:56:56.41	135.88	16.44	
2025-01-13 17:56:57.65	135.78	16.59	
2025-01-13 17:56:58.88	135.68	16.74	
2025-01-13 17:57:00.11	135.58	16.89	
2025-01-13 17:57:01.34	135.49	17.04	
2025-01-13 17:57:02.57	135.39	17.19	
2025-01-13 17:57:03.80	135.28	17.34	
2025-01-13 17:57:05.03	135.18	17.49	
2025-01-13 17:57:06.27	135.08	17.65	
2025-01-13 17:57:07.50	134.97	17.80	
2025-01-13 17:57:08.73	134.87	17.96	
2025-01-13 17:57:09.96	134.76	18.12	
2025-01-13 17:57:11.19	134.65	18.27	
2025-01-13 17:57:12.42	134.54	18.43	
2025-01-13 17:57:13.67	134.43	18.60	
2025-01-13 17:57:14.90	134.32	18.76	
2025-01-13 17:57:16.13	134.20	18.92	
2025-01-13 17:57:17.37	134.09	19.08	
2025-01-13 17:57:18.61	133.97	19.25	
2025-01-13 17:57:19.86	133.85	19.42	
2025-01-13 17:57:21.10	133.73	19.58	
2025-01-13 17:57:22.33	133.61	19.75	
2025-01-13 17:57:23.57	133.49	19.92	
2025-01-13 17:57:24.80	133.37	20.09	
2025-01-13 17:57:26.04	133.24	20.26	
2025-01-13 17:57:27.29	133.11	20.44	
2025-01-13 17:57:28.52	132.98	20.61	
2025-01-13 17:57:29.75	132.85	20.79	
2025-01-13 17:57:31.00	132.72	20.96	
2025-01-13 17:57:32.23	132.59	21.14	
2025-01-13 17:57:33.46	132.46	21.32	
2025-01-13 17:57:34.69	132.32	21.50	
2025-01-13 17:57:35.92	132.18	21.68	
2025-01-13 17:57:37.17	132.04	21.86	
2025-01-13 17:57:38.41	131.90	22.05	
2025-01-13 17:57:39.66	131.75	22.23	
2025-01-13 17:57:40.89	131.61	22.42	
2025-01-13 17:57:42.13	131.46	22.61	
2025-01-13 17:57:43.36	131.31	22.80	
2025-01-13 17:57:44.59	131.16	22.98	
2025-01-13 17:57:45.82	131.01	23.17	
2025-01-13 17:57:47.06	130.85	23.37	
2025-01-13 17:57:48.29	130.70	23.56	
2025-01-13 17:57:49.52	130.54	23.76	
2025-01-13 17:57:50.77	130.37	23.95	
2025-01-13 17:57:52.00	130.21	24.15	
2025-01-13 17:57:53.23	130.05	24.35	
2025-01-13 17:57:54.46	129.88	24.55	
2025-01-13 17:57:55.71	129.71	24.75	
2025-01-13 17:57:56.95	129.53	24.96	
2025-01-13 17:57:58.18	129.36	25.16	
2025-01-13 17:57:59.42	129.18	25.37	
2025-01-13 17:58:00.65	129.00	25.58	
2025-01-13 17:58:01.88	128.82	25.79	
2025-01-13 17:58:03.11	128.64	26.00	
2025-01-13 17:58:04.35	128.45	26.21	
2025-01-13 17:58:05.58	128.26	26.42	
2025-01-13 17:58:06.82	128.07	26.64	
2025-01-13 17:58:08.06	127.87	26.86	
2025-01-13 17:58:09.29	127.67	27.07	
2025-01-13 17:58:10.52	127.47	27.29	
2025-01-13 17:58:11.75	127.27	27.51	
2025-01-13 17:58:12.99	127.06	27.74	
2025-01-13 17:58:14.21	126.85	27.96	
2025-01-13 17:58:15.44	126.64	28.18	
2025-01-13 17:58:16.67	126.42	28.41	
2025-01-13 17:58:17.90	126.20	28.64	
2025-01-13 17:58:19.13	125.98	28.87	
2025-01-13 17:58:20.37	125.75	29.10	
2025-01-13 17:58:21.60	125.52	29.33	
2025-01-13 17:58:22.83	125.29	29.57	
2025-01-13 17:58:24.07	125.05	29.80	
2025-01-13 17:58:25.30	124.81	30.04	
2025-01-13 17:58:26.53	124.57	30.28	
2025-01-13 17:58:27.76	124.32	30.52	
2025-01-13 17:58:29.00	124.07	30.76	
2025-01-13 17:58:30.23	123.81	31.01	
2025-01-13 17:58:31.47	123.55	31.26	
2025-01-13 17:58:32.69	123.29	31.50	
2025-01-13 17:58:33.93	123.02	31.75	
2025-01-13 17:58:35.16	122.75	32.00	
2025-01-13 17:58:36.39	122.47	32.25	
2025-01-13 17:58:37.63	122.19	32.51	
2025-01-13 17:58:38.86	121.90	32.76	
2025-01-13 17:58:40.10	121.61	33.02	
2025-01-13 17:58:41.34	121.31	33.28	
2025-01-13 17:58:42.57	121.01	33.54	
2025-01-13 17:58:43.80	120.71	33.80	
2025-01-13 17:58:45.05	120.39	34.06	
2025-01-13 17:58:46.28	120.08	34.32	
2025-01-13 17:58:47.51	119.76	34.59	
2025-01-13 17:58:48.75	119.43	34.86	
2025-01-13 17:58:49.98	119.09	35.12	
2025-01-13 17:58:51.21	118.76	35.39	
2025-01-13 17:58:52.45	118.41	35.66	
2025-01-13 17:58:53.68	118.06	35.93	
2025-01-13 17:58:54.91	117.71	36.21	
2025-01-13 17:58:56.14	117.35	36.48	
2025-01-13 17:58:57.39	116.97	36.76	
2025-01-13 17:58:58.62	116.60	37.03	
2025-01-13 17:58:59.85	116.22	37.31	
2025-01-13 17:59:01.08	115.83	37.59	
2025-01-13 17:59:02.30	115.44	37.86	
2025-01-13 17:59:03.54	115.03	38.14	
2025-01-13 17:59:04.77	114.62	38.42	
2025-01-13 17:59:06.00	114.21	38.71	
2025-01-13 17:59:07.25	113.78	38.99	
2025-01-13 17:59:08.48	113.35	39.27	
2025-01-13 17:59:09.71	112.91	39.56	
2025-01-13 17:59:10.94	112.46	39.84	
2025-01-13 17:59:12.19	112.00	40.13	
2025-01-13 17:59:13.42	111.54	40.41	
2025-01-13 17:59:14.65	111.07	40.70	
2025-01-13 17:59:15.88	110.59	40.98	
2025-01-13 17:59:17.12	110.09	41.27	
2025-01-13 17:59:18.35	109.60	41.55	
2025-01-13 17:59:19.58	109.09	41.84	
2025-01-13 17:59:20.81	108.57	42.12	
2025-01-13 17:59:22.04	108.05	42.40	
2025-01-13 17:59:23.27	107.51	42.69	
2025-01-13 17:59:24.50	106.97	42.97	
2025-01-13 17:59:25.73	106.42	43.25	
2025-01-13 17:59:26.98	105.84	43.54	
2025-01-13 17:59:28.21	105.27	43.82	
2025-01-13 17:59:29.45	104.68	44.10	
2025-01-13 17:59:30.69	104.08	44.38	
2025-01-13 17:59:31.92	103.47	44.66	
2025-01-13 17:59:33.15	102.86	44.93	
2025-01-13 17:59:34.38	102.23	45.20	
2025-01-13 17:59:35.63	101.58	45.48	
2025-01-13 17:59:36.86	100.93	45.75	
2025-01-13 17:59:38.10	100.26	46.02	
2025-01-13 17:59:39.33	99.59	46.28	
2025-01-13 17:59:40.56	98.90	46.54	
2025-01-13 17:59:41.79	98.21	46.80	
2025-01-13 17:59:43.03	97.49	47.06	
2025-01-13 17:59:44.26	96.77	47.31	
2025-01-13 17:59:45.50	96.04	47.56	
2025-01-13 17:59:46.74	95.29	47.81	
2025-01-13 17:59:47.97	94.53	48.05	
2025-01-13 17:59:49.20	93.76	48.29	
2025-01-13 17:59:50.43	92.99	48.52	
2025-01-13 17:59:51.66	92.19	48.75	
2025-01-13 17:59:52.90	91.38	48.98	
2025-01-13 17:59:54.12	90.58	49.19	
2025-01-13 17:59:55.35	89.75	49.41	
2025-01-13 17:59:56.58	88.91	49.62	
2025-01-13 17:59:57.82	88.05	49.82	
2025-01-13 17:59:59.06	87.19	50.02	
2025-01-13 18:00:00.29	86.31	50.21	
2025-01-13 18:00:01.52	85.43	50.39	
2025-01-13 18:00:02.75	84.54	50.57	
2025-01-13 18:00:03.98	83.63	50.74	
2025-01-13 18:00:05.21	82.72	50.91	
2025-01-13 18:00:06.45	81.78	51.07	
2025-01-13 18:00:07.68	80.85	51.22	
2025-01-13 18:00:08.91	79.91	51.36	
2025-01-13 18:00:10.14	78.95	51.49	
2025-01-13 18:00:11.37	77.99	51.62	
2025-01-13 18:00:12.61	77.01	51.74	
2025-01-13 18:00:13.84	76.04	51.85	
2025-01-13 18:00:15.07	75.05	51.95	
2025-01-13 18:00:16.30	74.06	52.04	
2025-01-13 18:00:17.54	73.06	52.13	
2025-01-13 18:00:18.77	72.06	52.21	
2025-01-13 18:00:20.00	71.05	52.27	
2025-01-13 18:00:21.23	70.04	52.33	
2025-01-13 18:00:22.47	69.02	52.38	
2025-01-13 18:00:23.70	68.00	52.42	
2025-01-13 18:00:24.95	66.96	52.45	
2025-01-13 18:00:26.18	65.94	52.47	
2025-01-13 18:00:27.41	64.92	52.48	
2025-01-13 18:00:28.65	63.89	52.48	
2025-01-13 18:00:29.88	62.86	52.47	
2025-01-13 18:00:31.11	61.84	52.46	
2025-01-13 18:00:32.34	60.82	52.43	
2025-01-13 18:00:33.57	59.80	52.39	
2025-01-13 18:00:34.80	58.79	52.35	
2025-01-13 18:00:36.05	57.76	52.29	
2025-01-13 18:00:37.28	56.75	52.23	
2025-01-13 18:00:38.51	55.75	52.16	
2025-01-13 18:00:39.74	54.75	52.08	
2025-01-13 18:00:40.97	53.76	51.99	
2025-01-13 18:00:42.20	52.77	51.89	
2025-01-13 18:00:43.45	51.78	51.78	
2025-01-13 18:00:44.69	50.80	51.67	
2025-01-13 18:00:45.93	49.83	51.54	
2025-01-13 18:00:47.17	48.87	51.41	
2025-01-13 18:00:48.42	47.91	51.27	
2025-01-13 18:00:49.65	46.97	51.12	
2025-01-13 18:00:50.88	46.04	50.96	
2025-01-13 18:00:52.11	45.12	50.80	
2025-01-13 18:00:53.34	44.22	50.63	
2025-01-13 18:00:54.57	43.32	50.46	
2025-01-13 18:00:55.80	42.44	50.28	
2025-01-13 18:00:57.03	41.56	50.09	
2025-01-13 18:00:58.26	40.70	49.89	
2025-01-13 18:00:59.49	39.84	49.69	
2025-01-13 18:01:00.72	39.00	49.49	
2025-01-13 18:01:01.95	38.17	49.28	
2025-01-13 18:01:03.18	37.36	49.06	
2025-01-13 18:01:04.41	36.55	48.84	
2025-01-13 18:01:05.66	35.74	48.61	
2025-01-13 18:01:06.89	34.96	48.38	
2025-01-13 18:01:08.12	34.19	48.14	
2025-01-13 18:01:09.35	33.43	47.90	
2025-01-13 18:01:10.59	32.68	47.66	
2025-01-13 18:01:11.84	31.94	47.41	
2025-01-13 18:01:13.07	31.21	47.16	
2025-01-13 18:01:14.30	30.50	46.90	
2025-01-13 18:01:15.55	29.79	46.64	
2025-01-13 18:01:16.77	29.11	46.38	
2025-01-13 18:01:18.01	28.43	46.12	
2025-01-13 18:01:19.24	27.77	45.85	
2025-01-13 18:01:20.47	27.11	45.59	
2025-01-13 18:01:21.70	26.47	45.32	
2025-01-13 18:01:22.93	25.84	45.05	
2025-01-13 18:01:24.16	25.22	44.77	
2025-01-13 18:01:25.41	24.61	44.49	
2025-01-13 18:01:26.64	24.01	44.22	
2025-01-13 18:01:27.87	23.42	43.94	
2025-01-13 18:01:29.10	22.84	43.66	
2025-01-13 18:01:30.34	22.27	43.38	
2025-01-13 18:01:31.57	21.72	43.10	
2025-01-13 18:01:32.80	21.17	42.82	
2025-01-13 18:01:34.03	20.63	42.54	
2025-01-13 18:01:35.26	20.11	42.25	
2025-01-13 18:01:36.49	19.59	41.97	
2025-01-13 18:01:37.73	19.08	41.68	
2025-01-13 18:01:38.96	18.58	41.40	
2025-01-13 18:01:40.19	18.09	41.12	
2025-01-13 18:01:41.42	17.60	40.83	
2025-01-13 18:01:42.66	17.13	40.55	
2025-01-13 18:01:43.88	16.67	40.27	
2025-01-13 18:01:45.11	16.21	39.98	
2025-01-13 18:01:46.34	15.76	39.70	
2025-01-13 18:01:47.58	15.32	39.42	
2025-01-13 18:01:48.85	14.87	39.13	
2025-01-13 18:01:50.08	14.45	38.85	
2025-01-13 18:01:51.31	14.03	38.57	
2025-01-13 18:01:52.54	13.62	38.29	
2025-01-13 18:01:53.78	13.21	38.01	
2025-01-13 18:01:55.02	12.81	37.73	
2025-01-13 18:01:56.25	12.43	37.45	
2025-01-13 18:01:57.48	12.04	37.18	
2025-01-13 18:01:58.71	11.67	36.90	
2025-01-13 18:01:59.96	11.29	36.62	
2025-01-13 18:02:01.18	10.93	36.35	
2025-01-13 18:02:02.41	10.58	36.08	
2025-01-13 18:02:03.65	10.23	35.81	
2025-01-13 18:02:04.89	9.88	35.54	
2025-01-13 18:02:06.12	9.54	35.27	
2025-01-13 18:02:07.37	9.20	35.00	
2025-01-13 18:02:08.60	8.87	34.73	
2025-01-13 18:02:09.83	8.55	34.47	
2025-01-13 18:02:11.07	8.23	34.21	
2025-01-13 18:02:12.30	7.92	33.95	
2025-01-13 18:02:13.55	7.61	33.68	
2025-01-13 18:02:14.78	7.31	33.42	
2025-01-13 18:02:16.01	7.02	33.17	
2025-01-13 18:02:17.25	6.72	32.91	
2025-01-13 18:02:18.49	6.43	32.65	
2025-01-13 18:02:19.72	6.15	32.40	
2025-01-13 18:02:20.97	5.87	32.15	
2025-01-13 18:02:22.21	5.60	31.90	
2025-01-13 18:02:23.44	5.33	31.65	
2025-01-13 18:02:24.67	5.06	31.40	
2025-01-13 18:02:25.90	4.80	31.16	
2025-01-13 18:02:27.13	4.55	30.92	
2025-01-13 18:02:28.37	4.29	30.67	
2025-01-13 18:02:29.60	4.05	30.43	
2025-01-13 18:02:30.84	3.80	30.19	
2025-01-13 18:02:32.06	3.56	29.96	
2025-01-13 18:02:33.30	3.32	29.72	
2025-01-13 18:02:34.52	3.09	29.49	
2025-01-13 18:02:35.75	2.86	29.26	
2025-01-13 18:02:36.99	2.64	29.02	
2025-01-13 18:02:38.22	2.41	28.79	
2025-01-13 18:02:39.45	2.19	28.57	
2025-01-13 18:02:40.68	1.98	28.34	
2025-01-13 18:02:41.92	1.76	28.11	
2025-01-13 18:02:43.16	1.55	27.89	
2025-01-13 18:02:44.41	1.34	27.67	
2025-01-13 18:02:45.64	1.14	27.45	
2025-01-13 18:02:46.87	0.94	27.23	
2025-01-13 18:02:48.11	0.74	27.01	
2025-01-13 18:02:49.34	0.54	26.79	
2025-01-13 18:02:50.57	0.35	26.58	
2025-01-13 18:02:51.80	0.16	26.37	
2025-01-13 18:02:53.04	359.97	26.15	
2025-01-13 18:02:54.28	359.79	25.94	
2025-01-13 18:02:55.51	359.61	25.73	
2025-01-13 18:02:56.76	359.42	25.52	
2025-01-13 18:02:57.99	359.25	25.32	
2025-01-13 18:02:59.22	359.07	25.11	
2025-01-13 18:03:00.47	358.90	24.91	
2025-01-13 18:03:01.70	358.73	24.71	
2025-01-13 18:03:02.95	358.56	24.51	
2025-01-13 18:03:04.18	358.39	24.31	
2025-01-13 18:03:05.41	358.23	24.11	
2025-01-13 18:03:06.63	358.07	23.92	
2025-01-13 18:03:07.86	357.91	23.72	
2025-01-13 18:03:09.09	357.76	23.53	
2025-01-13 18:03:10.33	357.60	23.34	
2025-01-13 18:03:11.56	357.45	23.15	
2025-01-13 18:03:12.79	357.30	22.96	
2025-01-13 18:03:14.02	357.15	22.77	
2025-01-13 18:03:15.25	357.00	22.58	
2025-01-13 18:03:16.48	356.86	22.40	
2025-01-13 18:03:17.71	356.72	22.21	
2025-01-13 18:03:18.96	356.57	22.03	
2025-01-13 18:03:20.21	356.43	21.85	
2025-01-13 18:03:21.44	356.30	21.67	
2025-01-13 18:03:22.67	356.16	21.49	
2025-01-13 18:03:23.91	356.03	21.31	
2025-01-13 18:03:25.14	355.89	21.13	
2025-01-13 18:03:26.37	355.76	20.96	
2025-01-13 18:03:27.60	355.63	20.78	
2025-01-13 18:03:28.84	355.50	20.61	
2025-01-13 18:03:30.07	355.38	20.44	
2025-01-13 18:03:31.30	355.25	20.27	
2025-01-13 18:03:32.53	355.13	20.10	
2025-01-13 18:03:33.76	355.01	19.93	
2025-01-13 18:03:35.00	354.89	19.76	
2025-01-13 18:03:36.23	354.77	19.59	
2025-01-13 18:03:37.47	354.65	19.43	
2025-01-13 18:03:38.70	354.54	19.26	
2025-01-13 18:03:39.95	354.42	19.10	
2025-01-13 18:03:41.20	354.31	18.93	
2025-01-13 18:03:42.43	354.19	18.77	
2025-01-13 18:03:43.66	354.08	18.61	
2025-01-13 18:03:44.89	353.97	18.45	
2025-01-13 18:03:46.14	353.86	18.29	
2025-01-13 18:03:47.37	353.76	18.14	
2025-01-13 18:03:48.60	353.65	17.98	
2025-01-13 18:03:49.83	353.55	17.83	
2025-01-13 18:03:51.06	353.44	17.67	
2025-01-13 18:03:52.29	353.34	17.52	
2025-01-13 18:03:53.52	353.24	17.37	
2025-01-13 18:03:54.75	353.14	17.22	
2025-01-13 18:03:55.98	353.04	17.07	
2025-01-13 18:03:57.22	352.95	16.92	
2025-01-13 18:03:58.45	352.85	16.77	
2025-01-13 18:03:59.69	352.75	16.62	
2025-01-13 18:04:00.92	352.66	16.47	
2025-01-13 18:04:02.16	352.56	16.33	
2025-01-13 18:04:03.39	352.47	16.18	
2025-01-13 18:04:04.63	352.38	16.04	
2025-01-13 18:04:05.87	352.29	15.89	
2025-01-13 18:04:07.09	352.20	15.75	
2025-01-13 18:04:08.32	352.11	15.61	
2025-01-13 18:04:09.57	352.02	15.47	
2025-01-13 18:04:10.81	351.93	15.33	
2025-01-13 18:04:12.04	351.85	15.19	
2025-01-13 18:04:13.27	351.76	15.05	
2025-01-13 18:04:14.52	351.68	14.91	
2025-01-13 18:04:15.76	351.59	14.77	
2025-01-13 18:04:16.99	351.51	14.64	
2025-01-13 18:04:18.22	351.43	14.50	
2025-01-13 18:04:19.45	351.35	14.37	
2025-01-13 18:04:20.69	351.27	14.23	
2025-01-13 18:04:21.92	351.19	14.10	
2025-01-13 18:04:23.14	351.11	13.97	
2025-01-13 18:04:24.39	351.04	13.84	
2025-01-13 18:04:25.63	350.96	13.71	
2025-01-13 18:04:26.86	350.88	13.58	
2025-01-13 18:04:28.08	350.81	13.45	
2025-01-13 18:04:29.31	350.73	13.32	
2025-01-13 18:04:30.55	350.66	13.19	
2025-01-13 18:04:31.80	350.58	13.06	
2025-01-13 18:04:33.04	350.51	12.94	
2025-01-13 18:04:34.27	350.44	12.81	
2025-01-13 18:04:35.50	350.37	12.69	
2025-01-13 18:04:36.73	350.30	12.56	
2025-01-13 18:04:37.98	350.23	12.44	
2025-01-13 18:04:39.21	350.16	12.31	
2025-01-13 18:04:40.44	350.09	12.19	
2025-01-13 18:04:41.69	350.02	12.07	
2025-01-13 18:04:42.92	349.96	11.95	
2025-01-13 18:04:44.15	349.89	11.83	
2025-01-13 18:04:45.38	349.83	11.71	
2025-01-13 18:04:46.61	349.76	11.59	
2025-01-13 18:04:47.85	349.70	11.47	
2025-01-13 18:04:49.09	349.63	11.35	
2025-01-13 18:04:50.33	349.57	11.23	
2025-01-13 18:04:51.56	349.50	11.12	
2025-01-13 18:04:52.80	349.44	11.00	
2025-01-13 18:04:54.03	349.38	10.88	
2025-01-13 18:04:55.26	349.32	10.77	
2025-01-13 18:04:56.50	349.26	10.65	
2025-01-13 18:04:57.74	349.20	10.54	
2025-01-13 18:04:58.97	349.14	10.43	
2025-01-13 18:05:00.20	349.08	10.31	
2025-01-13 18:05:01.43	349.02	10.20	
2025-01-13 18:05:02.66	348.97	10.09	
2025-01-13 18:05:03.89	348.91	9.98	
2025-01-13 18:05:05.13	348.85	9.87	
2025-01-13 18:05:06.37	348.79	9.76	
2025-01-13 18:05:07.60	348.74	9.65	
2025-01-13 18:05:08.83	348.68	9.54	
2025-01-13 18:05:10.06	348.63	9.43	
2025-01-13 18:05:11.30	348.57	9.32	
2025-01-13 18:05:12.53	348.52	9.21	
2025-01-13 18:05:13.78	348.47	9.10	
2025-01-13 18:05:15.01	348.41	9.00	
2025-01-13 18:05:16.24	348.36	8.89	
2025-01-13 18:05:17.47	348.31	8.79	
2025-01-13 18:05:18.72	348.26	8.68	
2025-01-13 18:05:19.95	348.21	8.57	
2025-01-13 18:05:21.18	348.16	8.47	
2025-01-13 18:05:22.42	348.10	8.37	
2025-01-13 18:05:23.65	348.06	8.26	
2025-01-13 18:05:24.88	348.01	8.16	
2025-01-13 18:05:26.11	347.96	8.06	
2025-01-13 18:05:27.34	347.91	7.96	
2025-01-13 18:05:28.57	347.86	7.85	
2025-01-13 18:05:29.81	347.81	7.75	
2025-01-13 18:05:31.03	347.77	7.65	
2025-01-13 18:05:32.26	347.72	7.55	
2025-01-13 18:05:33.49	347.67	7.45	
2025-01-13 18:05:34.73	347.63	7.35	
2025-01-13 18:05:35.97	347.58	7.25	
2025-01-13 18:05:37.20	347.53	7.15	
2025-01-13 18:05:38.44	347.49	7.05	
2025-01-13 18:05:39.67	347.44	6.96	
2025-01-13 18:05:40.93	347.40	6.86	
2025-01-13 18:05:42.17	347.35	6.76	
2025-01-13 18:05:43.40	347.31	6.66	
2025-01-13 18:05:44.63	347.27	6.57	
2025-01-13 18:05:45.87	347.22	6.47	
2025-01-13 18:05:47.11	347.18	6.37	
2025-01-13 18:05:48.37	347.14	6.28	
2025-01-13 18:05:49.60	347.10	6.18	
2025-01-13 18:05:50.84	347.05	6.09	
2025-01-13 18:05:52.07	347.01	5.99	
2025-01-13 18:05:53.30	346.97	5.90	
2025-01-13 18:05:54.54	346.93	5.81	
2025-01-13 18:05:55.77	346.89	5.71	
2025-01-13 18:05:57.00	346.85	5.62	
2025-01-13 18:05:58.23	346.81	5.53	
2025-01-13 18:05:59.46	346.77	5.44	
2025-01-13 18:06:00.70	346.73	5.34	
2025-01-13 18:06:01.93	346.69	5.25	
2025-01-13 18:06:03.16	346.66	5.16	
2025-01-13 18:06:04.39	346.62	5.07	
2025-01-13 18:06:05.62	346.58	4.98	
2025-01-13 18:06:06.86	346.54	4.89	
2025-01-13 18:06:08.09	346.51	4.80	
2025-01-13 18:06:09.32	346.47	4.71	
2025-01-13 18:06:10.55	346.43	4.62	
2025-01-13 18:06:11.79	346.40	4.53	
2025-01-13 18:06:13.02	346.36	4.45	
2025-01-13 18:06:14.25	346.32	4.36	
2025-01-13 18:06:15.50	346.29	4.27	
2025-01-13 18:06:16.73	346.25	4.18	
2025-01-13 18:06:17.96	346.22	4.09	
2025-01-13 18:06:19.19	346.18	4.01	

#Closed at: 2025-01-13 18:06:19