passes_logs/2025/01/13/SPB_Silybum_02/SPB_Silybum_02__20250113_064047_TERRA_rec.log

#Pass ID: 20250113_064047_TERRA
#Satellite: TERRA
#Configuration: TERRA
#Start time: 2025-01-13 06:40:47

#Version: 2.0.20230423
#Station: SPB_Silybum_02
#Location: 30.233357 lon 59.946436 lat
#TLE: 1 25994U 99068A   25012.80475962  .00000761  00000+0  16654-3 0  9990
#TLE: 2 25994  98.0220  75.9049 0003508  77.1547  57.1006 14.60390868333758

#Time	Az	El	Level	Level2	SNR	BER	Gain	Gain2
2025-01-13 06:40:49.55	29.03	4.12	
2025-01-13 06:40:50.57	29.13	4.18	
2025-01-13 06:40:51.60	29.24	4.24	
2025-01-13 06:40:52.63	29.34	4.29	
2025-01-13 06:40:53.65	29.44	4.35	
2025-01-13 06:40:54.68	29.55	4.41	
2025-01-13 06:40:55.70	29.65	4.47	
2025-01-13 06:40:56.73	29.76	4.53	
2025-01-13 06:40:57.76	29.87	4.59	
2025-01-13 06:40:58.79	29.97	4.65	
2025-01-13 06:40:59.82	30.08	4.71	
2025-01-13 06:41:00.84	30.19	4.77	
2025-01-13 06:41:01.87	30.29	4.83	
2025-01-13 06:41:02.89	30.40	4.88	
2025-01-13 06:41:03.91	30.51	4.94	
2025-01-13 06:41:04.94	30.62	5.00	
2025-01-13 06:41:05.96	30.73	5.06	
2025-01-13 06:41:07.00	30.84	5.12	
2025-01-13 06:41:08.03	30.95	5.18	
2025-01-13 06:41:09.06	31.06	5.24	
2025-01-13 06:41:10.09	31.17	5.30	
2025-01-13 06:41:11.11	31.28	5.36	
2025-01-13 06:41:12.15	31.40	5.42	
2025-01-13 06:41:13.18	31.51	5.48	
2025-01-13 06:41:14.22	31.62	5.54	
2025-01-13 06:41:15.24	31.74	5.60	
2025-01-13 06:41:16.27	31.85	5.66	
2025-01-13 06:41:17.30	31.97	5.73	
2025-01-13 06:41:18.33	32.08	5.79	
2025-01-13 06:41:19.35	32.20	5.85	
2025-01-13 06:41:20.38	32.31	5.91	
2025-01-13 06:41:21.41	32.43	5.97	
2025-01-13 06:41:22.43	32.55	6.03	
2025-01-13 06:41:23.46	32.67	6.09	
2025-01-13 06:41:24.49	32.78	6.15	
2025-01-13 06:41:25.51	32.90	6.21	
2025-01-13 06:41:26.55	33.02	6.27	
2025-01-13 06:41:27.58	33.14	6.33	
2025-01-13 06:41:28.61	33.26	6.39	
2025-01-13 06:41:29.63	33.38	6.45	
2025-01-13 06:41:30.65	33.51	6.52	
2025-01-13 06:41:31.67	33.63	6.58	
2025-01-13 06:41:32.70	33.75	6.64	
2025-01-13 06:41:33.74	33.87	6.70	
2025-01-13 06:41:34.78	34.00	6.76	
2025-01-13 06:41:35.81	34.12	6.82	
2025-01-13 06:41:36.84	34.25	6.89	
2025-01-13 06:41:37.86	34.37	6.95	
2025-01-13 06:41:38.89	34.50	7.01	
2025-01-13 06:41:39.93	34.63	7.07	
2025-01-13 06:41:40.95	34.75	7.13	
2025-01-13 06:41:42.00	34.88	7.20	
2025-01-13 06:41:43.02	35.01	7.26	
2025-01-13 06:41:44.05	35.14	7.32	
2025-01-13 06:41:45.08	35.27	7.38	
2025-01-13 06:41:46.10	35.40	7.44	
2025-01-13 06:41:47.13	35.53	7.51	
2025-01-13 06:41:48.16	35.66	7.57	
2025-01-13 06:41:49.18	35.79	7.63	
2025-01-13 06:41:50.22	35.93	7.69	
2025-01-13 06:41:51.25	36.06	7.75	
2025-01-13 06:41:52.29	36.19	7.82	
2025-01-13 06:41:53.32	36.33	7.88	
2025-01-13 06:41:54.34	36.46	7.94	
2025-01-13 06:41:55.37	36.60	8.01	
2025-01-13 06:41:56.40	36.73	8.07	
2025-01-13 06:41:57.43	36.87	8.13	
2025-01-13 06:41:58.45	37.01	8.19	
2025-01-13 06:41:59.48	37.14	8.26	
2025-01-13 06:42:00.50	37.28	8.32	
2025-01-13 06:42:01.53	37.42	8.38	
2025-01-13 06:42:02.55	37.56	8.44	
2025-01-13 06:42:03.57	37.70	8.51	
2025-01-13 06:42:04.60	37.84	8.57	
2025-01-13 06:42:05.64	37.98	8.63	
2025-01-13 06:42:06.67	38.12	8.70	
2025-01-13 06:42:07.70	38.27	8.76	
2025-01-13 06:42:08.74	38.41	8.82	
2025-01-13 06:42:09.77	38.56	8.89	
2025-01-13 06:42:10.79	38.70	8.95	
2025-01-13 06:42:11.82	38.85	9.01	
2025-01-13 06:42:12.85	38.99	9.07	
2025-01-13 06:42:13.88	39.14	9.14	
2025-01-13 06:42:14.92	39.29	9.20	
2025-01-13 06:42:15.96	39.44	9.27	
2025-01-13 06:42:16.98	39.59	9.33	
2025-01-13 06:42:18.01	39.74	9.39	
2025-01-13 06:42:19.04	39.89	9.46	
2025-01-13 06:42:20.07	40.04	9.52	
2025-01-13 06:42:21.09	40.19	9.58	
2025-01-13 06:42:22.12	40.34	9.65	
2025-01-13 06:42:23.14	40.49	9.71	
2025-01-13 06:42:24.17	40.65	9.77	
2025-01-13 06:42:25.21	40.80	9.84	
2025-01-13 06:42:26.23	40.95	9.90	
2025-01-13 06:42:27.27	41.11	9.96	
2025-01-13 06:42:28.30	41.27	10.03	
2025-01-13 06:42:29.33	41.43	10.09	
2025-01-13 06:42:30.35	41.58	10.15	
2025-01-13 06:42:31.38	41.74	10.22	
2025-01-13 06:42:32.42	41.90	10.28	
2025-01-13 06:42:33.44	42.06	10.34	
2025-01-13 06:42:34.49	42.23	10.41	
2025-01-13 06:42:35.53	42.39	10.47	
2025-01-13 06:42:36.56	42.55	10.54	
2025-01-13 06:42:37.58	42.71	10.60	
2025-01-13 06:42:38.60	42.88	10.66	
2025-01-13 06:42:39.63	43.04	10.73	
2025-01-13 06:42:40.65	43.20	10.79	
2025-01-13 06:42:41.68	43.37	10.85	
2025-01-13 06:42:42.71	43.54	10.92	
2025-01-13 06:42:43.73	43.70	10.98	
2025-01-13 06:42:44.77	43.87	11.04	
2025-01-13 06:42:45.79	44.04	11.11	
2025-01-13 06:42:46.82	44.21	11.17	
2025-01-13 06:42:47.86	44.38	11.23	
2025-01-13 06:42:48.88	44.55	11.30	
2025-01-13 06:42:49.92	44.73	11.36	
2025-01-13 06:42:50.95	44.90	11.42	
2025-01-13 06:42:51.97	45.07	11.49	
2025-01-13 06:42:53.00	45.25	11.55	
2025-01-13 06:42:54.03	45.42	11.61	
2025-01-13 06:42:55.05	45.60	11.67	
2025-01-13 06:42:56.08	45.77	11.74	
2025-01-13 06:42:57.10	45.95	11.80	
2025-01-13 06:42:58.14	46.13	11.86	
2025-01-13 06:42:59.18	46.31	11.93	
2025-01-13 06:43:00.20	46.49	11.99	
2025-01-13 06:43:01.23	46.67	12.05	
2025-01-13 06:43:02.25	46.85	12.11	
2025-01-13 06:43:03.28	47.03	12.18	
2025-01-13 06:43:04.31	47.22	12.24	
2025-01-13 06:43:05.33	47.40	12.30	
2025-01-13 06:43:06.36	47.59	12.36	
2025-01-13 06:43:07.39	47.77	12.43	
2025-01-13 06:43:08.41	47.96	12.49	
2025-01-13 06:43:09.44	48.14	12.55	
2025-01-13 06:43:10.47	48.33	12.61	
2025-01-13 06:43:11.49	48.52	12.67	
2025-01-13 06:43:12.52	48.71	12.73	
2025-01-13 06:43:13.54	48.90	12.80	
2025-01-13 06:43:14.57	49.09	12.86	
2025-01-13 06:43:15.59	49.28	12.92	
2025-01-13 06:43:16.62	49.47	12.98	
2025-01-13 06:43:17.64	49.67	13.04	
2025-01-13 06:43:18.68	49.86	13.10	
2025-01-13 06:43:19.70	50.06	13.16	
2025-01-13 06:43:20.73	50.25	13.22	
2025-01-13 06:43:21.76	50.45	13.29	
2025-01-13 06:43:22.78	50.65	13.35	
2025-01-13 06:43:23.81	50.85	13.41	
2025-01-13 06:43:24.83	51.05	13.47	
2025-01-13 06:43:25.86	51.25	13.53	
2025-01-13 06:43:26.89	51.45	13.59	
2025-01-13 06:43:27.92	51.65	13.65	
2025-01-13 06:43:28.95	51.85	13.71	
2025-01-13 06:43:29.97	52.06	13.77	
2025-01-13 06:43:31.00	52.26	13.83	
2025-01-13 06:43:32.02	52.47	13.88	
2025-01-13 06:43:33.05	52.67	13.94	
2025-01-13 06:43:34.08	52.88	14.00	
2025-01-13 06:43:35.11	53.09	14.06	
2025-01-13 06:43:36.13	53.30	14.12	
2025-01-13 06:43:37.15	53.51	14.18	
2025-01-13 06:43:38.19	53.72	14.24	
2025-01-13 06:43:39.22	53.93	14.30	
2025-01-13 06:43:40.24	54.14	14.35	
2025-01-13 06:43:41.27	54.36	14.41	
2025-01-13 06:43:42.29	54.57	14.47	
2025-01-13 06:43:43.32	54.79	14.53	
2025-01-13 06:43:44.36	55.00	14.58	
2025-01-13 06:43:45.39	55.22	14.64	
2025-01-13 06:43:46.42	55.44	14.70	
2025-01-13 06:43:47.44	55.66	14.75	
2025-01-13 06:43:48.47	55.88	14.81	
2025-01-13 06:43:49.49	56.10	14.86	
2025-01-13 06:43:50.52	56.32	14.92	
2025-01-13 06:43:51.55	56.54	14.98	
2025-01-13 06:43:52.57	56.76	15.03	
2025-01-13 06:43:53.61	56.99	15.09	
2025-01-13 06:43:54.64	57.21	15.14	
2025-01-13 06:43:55.66	57.44	15.20	
2025-01-13 06:43:56.69	57.66	15.25	
2025-01-13 06:43:57.73	57.89	15.30	
2025-01-13 06:43:58.75	58.12	15.36	
2025-01-13 06:43:59.77	58.35	15.41	
2025-01-13 06:44:00.81	58.58	15.47	
2025-01-13 06:44:01.84	58.81	15.52	
2025-01-13 06:44:02.87	59.04	15.57	
2025-01-13 06:44:03.89	59.28	15.62	
2025-01-13 06:44:04.92	59.51	15.67	
2025-01-13 06:44:05.95	59.74	15.73	
2025-01-13 06:44:06.98	59.98	15.78	
2025-01-13 06:44:08.02	60.22	15.83	
2025-01-13 06:44:09.05	60.46	15.88	
2025-01-13 06:44:10.07	60.69	15.93	
2025-01-13 06:44:11.10	60.93	15.98	
2025-01-13 06:44:12.12	61.17	16.03	
2025-01-13 06:44:13.15	61.41	16.08	
2025-01-13 06:44:14.18	61.65	16.13	
2025-01-13 06:44:15.21	61.89	16.18	
2025-01-13 06:44:16.23	62.13	16.23	
2025-01-13 06:44:17.26	62.38	16.27	
2025-01-13 06:44:18.28	62.62	16.32	
2025-01-13 06:44:19.30	62.86	16.37	
2025-01-13 06:44:20.34	63.11	16.42	
2025-01-13 06:44:21.36	63.35	16.46	
2025-01-13 06:44:22.39	63.60	16.51	
2025-01-13 06:44:23.41	63.85	16.55	
2025-01-13 06:44:24.45	64.10	16.60	
2025-01-13 06:44:25.49	64.35	16.64	
2025-01-13 06:44:26.53	64.61	16.69	
2025-01-13 06:44:27.56	64.86	16.73	
2025-01-13 06:44:28.58	65.11	16.78	
2025-01-13 06:44:29.61	65.36	16.82	
2025-01-13 06:44:30.64	65.62	16.86	
2025-01-13 06:44:31.66	65.87	16.91	
2025-01-13 06:44:32.70	66.13	16.95	
2025-01-13 06:44:33.73	66.38	16.99	
2025-01-13 06:44:34.75	66.64	17.03	
2025-01-13 06:44:35.78	66.90	17.07	
2025-01-13 06:44:36.81	67.15	17.11	
2025-01-13 06:44:37.83	67.41	17.15	
2025-01-13 06:44:38.86	67.67	17.19	
2025-01-13 06:44:39.88	67.93	17.23	
2025-01-13 06:44:40.91	68.19	17.27	
2025-01-13 06:44:41.94	68.45	17.30	
2025-01-13 06:44:42.98	68.72	17.34	
2025-01-13 06:44:44.00	68.98	17.38	
2025-01-13 06:44:45.03	69.24	17.42	
2025-01-13 06:44:46.06	69.51	17.45	
2025-01-13 06:44:47.09	69.77	17.49	
2025-01-13 06:44:48.11	70.04	17.52	
2025-01-13 06:44:49.15	70.31	17.56	
2025-01-13 06:44:50.18	70.57	17.59	
2025-01-13 06:44:51.21	70.84	17.62	
2025-01-13 06:44:52.24	71.11	17.66	
2025-01-13 06:44:53.26	71.38	17.69	
2025-01-13 06:44:54.29	71.65	17.72	
2025-01-13 06:44:55.32	71.92	17.75	
2025-01-13 06:44:56.34	72.19	17.78	
2025-01-13 06:44:57.37	72.46	17.81	
2025-01-13 06:44:58.40	72.73	17.84	
2025-01-13 06:44:59.43	73.00	17.87	
2025-01-13 06:45:00.47	73.28	17.90	
2025-01-13 06:45:01.49	73.55	17.93	
2025-01-13 06:45:02.51	73.82	17.95	
2025-01-13 06:45:03.54	74.10	17.98	
2025-01-13 06:45:04.58	74.37	18.01	
2025-01-13 06:45:05.61	74.65	18.03	
2025-01-13 06:45:06.64	74.93	18.06	
2025-01-13 06:45:07.67	75.20	18.08	
2025-01-13 06:45:08.70	75.48	18.10	
2025-01-13 06:45:09.74	75.76	18.13	
2025-01-13 06:45:10.77	76.04	18.15	
2025-01-13 06:45:11.79	76.31	18.17	
2025-01-13 06:45:12.82	76.59	18.19	
2025-01-13 06:45:13.85	76.87	18.21	
2025-01-13 06:45:14.89	77.15	18.23	
2025-01-13 06:45:15.92	77.43	18.25	
2025-01-13 06:45:16.95	77.71	18.27	
2025-01-13 06:45:17.97	77.99	18.29	
2025-01-13 06:45:18.99	78.27	18.31	
2025-01-13 06:45:20.02	78.55	18.33	
2025-01-13 06:45:21.05	78.83	18.34	
2025-01-13 06:45:22.07	79.11	18.36	
2025-01-13 06:45:23.10	79.40	18.37	
2025-01-13 06:45:24.12	79.68	18.39	
2025-01-13 06:45:25.15	79.96	18.40	
2025-01-13 06:45:26.18	80.24	18.41	
2025-01-13 06:45:27.21	80.53	18.43	
2025-01-13 06:45:28.23	80.81	18.44	
2025-01-13 06:45:29.26	81.09	18.45	
2025-01-13 06:45:30.30	81.38	18.46	
2025-01-13 06:45:31.32	81.66	18.47	
2025-01-13 06:45:32.35	81.95	18.48	
2025-01-13 06:45:33.38	82.23	18.49	
2025-01-13 06:45:34.40	82.51	18.49	
2025-01-13 06:45:35.43	82.80	18.50	
2025-01-13 06:45:36.45	83.08	18.51	
2025-01-13 06:45:37.49	83.37	18.51	
2025-01-13 06:45:38.52	83.65	18.52	
2025-01-13 06:45:39.55	83.94	18.52	
2025-01-13 06:45:40.58	84.23	18.53	
2025-01-13 06:45:41.61	84.51	18.53	
2025-01-13 06:45:42.64	84.80	18.53	
2025-01-13 06:45:43.66	85.08	18.54	
2025-01-13 06:45:44.70	85.37	18.54	
2025-01-13 06:45:45.72	85.65	18.54	
2025-01-13 06:45:46.75	85.94	18.54	
2025-01-13 06:45:47.78	86.22	18.54	
2025-01-13 06:45:48.80	86.51	18.54	
2025-01-13 06:45:49.83	86.79	18.53	
2025-01-13 06:45:50.86	87.08	18.53	
2025-01-13 06:45:51.89	87.37	18.53	
2025-01-13 06:45:52.92	87.65	18.52	
2025-01-13 06:45:53.94	87.93	18.52	
2025-01-13 06:45:54.99	88.23	18.51	
2025-01-13 06:45:56.03	88.51	18.51	
2025-01-13 06:45:57.07	88.80	18.50	
2025-01-13 06:45:58.10	89.09	18.49	
2025-01-13 06:45:59.12	89.37	18.49	
2025-01-13 06:46:00.14	89.65	18.48	
2025-01-13 06:46:01.16	89.93	18.47	
2025-01-13 06:46:02.19	90.22	18.46	
2025-01-13 06:46:03.22	90.50	18.45	
2025-01-13 06:46:04.24	90.78	18.44	
2025-01-13 06:46:05.27	91.07	18.42	
2025-01-13 06:46:06.30	91.35	18.41	
2025-01-13 06:46:07.34	91.64	18.40	
2025-01-13 06:46:08.37	91.92	18.38	
2025-01-13 06:46:09.39	92.20	18.37	
2025-01-13 06:46:10.42	92.48	18.35	
2025-01-13 06:46:11.44	92.76	18.34	
2025-01-13 06:46:12.47	93.05	18.32	
2025-01-13 06:46:13.49	93.33	18.30	
2025-01-13 06:46:14.52	93.61	18.29	
2025-01-13 06:46:15.54	93.89	18.27	
2025-01-13 06:46:16.57	94.17	18.25	
2025-01-13 06:46:17.59	94.44	18.23	
2025-01-13 06:46:18.62	94.72	18.21	
2025-01-13 06:46:19.65	95.00	18.19	
2025-01-13 06:46:20.67	95.28	18.17	
2025-01-13 06:46:21.70	95.56	18.15	
2025-01-13 06:46:22.72	95.84	18.12	
2025-01-13 06:46:23.75	96.11	18.10	
2025-01-13 06:46:24.77	96.39	18.08	
2025-01-13 06:46:25.80	96.67	18.05	
2025-01-13 06:46:26.82	96.94	18.03	
2025-01-13 06:46:27.85	97.22	18.00	
2025-01-13 06:46:28.87	97.49	17.98	
2025-01-13 06:46:29.90	97.76	17.95	
2025-01-13 06:46:30.92	98.04	17.92	
2025-01-13 06:46:31.95	98.31	17.89	
2025-01-13 06:46:32.99	98.59	17.86	
2025-01-13 06:46:34.03	98.86	17.84	
2025-01-13 06:46:35.07	99.14	17.81	
2025-01-13 06:46:36.10	99.41	17.77	
2025-01-13 06:46:37.12	99.68	17.74	
2025-01-13 06:46:38.15	99.95	17.71	
2025-01-13 06:46:39.17	100.22	17.68	
2025-01-13 06:46:40.20	100.49	17.65	
2025-01-13 06:46:41.24	100.76	17.62	
2025-01-13 06:46:42.26	101.03	17.58	
2025-01-13 06:46:43.29	101.29	17.55	
2025-01-13 06:46:44.33	101.56	17.51	
2025-01-13 06:46:45.38	101.84	17.48	
2025-01-13 06:46:46.41	102.10	17.44	
2025-01-13 06:46:47.44	102.37	17.41	
2025-01-13 06:46:48.47	102.63	17.37	
2025-01-13 06:46:49.50	102.90	17.33	
2025-01-13 06:46:50.52	103.16	17.29	
2025-01-13 06:46:51.55	103.42	17.26	
2025-01-13 06:46:52.57	103.68	17.22	
2025-01-13 06:46:53.60	103.94	17.18	
2025-01-13 06:46:54.63	104.20	17.14	
2025-01-13 06:46:55.65	104.46	17.10	
2025-01-13 06:46:56.68	104.72	17.06	
2025-01-13 06:46:57.70	104.97	17.02	
2025-01-13 06:46:58.74	105.23	16.98	
2025-01-13 06:46:59.77	105.49	16.93	
2025-01-13 06:47:00.79	105.75	16.89	
2025-01-13 06:47:01.82	106.00	16.85	
2025-01-13 06:47:02.84	106.25	16.81	
2025-01-13 06:47:03.87	106.51	16.76	
2025-01-13 06:47:04.89	106.76	16.72	
2025-01-13 06:47:05.92	107.01	16.68	
2025-01-13 06:47:06.96	107.27	16.63	
2025-01-13 06:47:07.98	107.51	16.58	
2025-01-13 06:47:09.02	107.77	16.54	
2025-01-13 06:47:10.04	108.01	16.49	
2025-01-13 06:47:11.07	108.26	16.45	
2025-01-13 06:47:12.09	108.51	16.40	
2025-01-13 06:47:13.14	108.76	16.35	
2025-01-13 06:47:14.17	109.01	16.30	
2025-01-13 06:47:15.21	109.25	16.26	
2025-01-13 06:47:16.24	109.50	16.21	
2025-01-13 06:47:17.26	109.74	16.16	
2025-01-13 06:47:18.29	109.98	16.11	
2025-01-13 06:47:19.32	110.23	16.06	
2025-01-13 06:47:20.34	110.46	16.01	
2025-01-13 06:47:21.37	110.70	15.96	
2025-01-13 06:47:22.40	110.94	15.91	
2025-01-13 06:47:23.42	111.18	15.86	
2025-01-13 06:47:24.45	111.42	15.81	
2025-01-13 06:47:25.49	111.66	15.76	
2025-01-13 06:47:26.52	111.89	15.70	
2025-01-13 06:47:27.55	112.13	15.65	
2025-01-13 06:47:28.57	112.36	15.60	
2025-01-13 06:47:29.60	112.60	15.55	
2025-01-13 06:47:30.62	112.83	15.49	
2025-01-13 06:47:31.66	113.06	15.44	
2025-01-13 06:47:32.68	113.29	15.39	
2025-01-13 06:47:33.72	113.52	15.33	
2025-01-13 06:47:34.75	113.75	15.28	
2025-01-13 06:47:35.79	113.98	15.22	
2025-01-13 06:47:36.81	114.21	15.17	
2025-01-13 06:47:37.84	114.44	15.11	
2025-01-13 06:47:38.87	114.66	15.06	
2025-01-13 06:47:39.89	114.88	15.00	
2025-01-13 06:47:40.92	115.11	14.95	
2025-01-13 06:47:41.95	115.33	14.89	
2025-01-13 06:47:42.97	115.55	14.84	
2025-01-13 06:47:44.00	115.77	14.78	
2025-01-13 06:47:45.03	115.99	14.72	
2025-01-13 06:47:46.05	116.21	14.67	
2025-01-13 06:47:47.08	116.43	14.61	
2025-01-13 06:47:48.11	116.65	14.55	
2025-01-13 06:47:49.14	116.87	14.49	
2025-01-13 06:47:50.16	117.08	14.44	
2025-01-13 06:47:51.19	117.30	14.38	
2025-01-13 06:47:52.22	117.51	14.32	
2025-01-13 06:47:53.24	117.72	14.26	
2025-01-13 06:47:54.26	117.93	14.20	
2025-01-13 06:47:55.28	118.14	14.14	
2025-01-13 06:47:56.31	118.36	14.09	
2025-01-13 06:47:57.34	118.57	14.03	
2025-01-13 06:47:58.36	118.77	13.97	
2025-01-13 06:47:59.39	118.98	13.91	
2025-01-13 06:48:00.42	119.19	13.85	
2025-01-13 06:48:01.46	119.40	13.79	
2025-01-13 06:48:02.48	119.60	13.73	
2025-01-13 06:48:03.51	119.81	13.67	
2025-01-13 06:48:04.53	120.01	13.61	
2025-01-13 06:48:05.56	120.21	13.55	
2025-01-13 06:48:06.61	120.42	13.49	
2025-01-13 06:48:07.64	120.62	13.42	
2025-01-13 06:48:08.68	120.82	13.36	
2025-01-13 06:48:09.71	121.02	13.30	
2025-01-13 06:48:10.73	121.22	13.24	
2025-01-13 06:48:11.76	121.42	13.18	
2025-01-13 06:48:12.79	121.62	13.12	
2025-01-13 06:48:13.81	121.81	13.06	
2025-01-13 06:48:14.84	122.01	12.99	
2025-01-13 06:48:15.88	122.20	12.93	
2025-01-13 06:48:16.91	122.40	12.87	
2025-01-13 06:48:17.93	122.59	12.81	
2025-01-13 06:48:18.96	122.78	12.75	
2025-01-13 06:48:19.99	122.97	12.68	
2025-01-13 06:48:21.02	123.16	12.62	
2025-01-13 06:48:22.04	123.35	12.56	
2025-01-13 06:48:23.07	123.54	12.50	
2025-01-13 06:48:24.11	123.73	12.43	
2025-01-13 06:48:25.14	123.92	12.37	
2025-01-13 06:48:26.16	124.10	12.31	
2025-01-13 06:48:27.19	124.29	12.25	
2025-01-13 06:48:28.21	124.47	12.18	
2025-01-13 06:48:29.24	124.65	12.12	
2025-01-13 06:48:30.27	124.84	12.06	
2025-01-13 06:48:31.29	125.02	11.99	
2025-01-13 06:48:32.32	125.20	11.93	
2025-01-13 06:48:33.34	125.38	11.87	
2025-01-13 06:48:34.38	125.56	11.80	
2025-01-13 06:48:35.41	125.74	11.74	
2025-01-13 06:48:36.44	125.92	11.68	
2025-01-13 06:48:37.46	126.09	11.61	
2025-01-13 06:48:38.49	126.27	11.55	
2025-01-13 06:48:39.51	126.44	11.49	
2025-01-13 06:48:40.54	126.62	11.42	
2025-01-13 06:48:41.57	126.79	11.36	
2025-01-13 06:48:42.59	126.96	11.30	
2025-01-13 06:48:43.62	127.14	11.23	
2025-01-13 06:48:44.64	127.31	11.17	
2025-01-13 06:48:45.66	127.48	11.11	
2025-01-13 06:48:46.69	127.65	11.04	
2025-01-13 06:48:47.71	127.82	10.98	
2025-01-13 06:48:48.74	127.98	10.92	
2025-01-13 06:48:49.76	128.15	10.85	
2025-01-13 06:48:50.79	128.32	10.79	
2025-01-13 06:48:51.81	128.48	10.72	
2025-01-13 06:48:52.84	128.65	10.66	
2025-01-13 06:48:53.86	128.81	10.60	
2025-01-13 06:48:54.89	128.98	10.53	
2025-01-13 06:48:55.92	129.14	10.47	
2025-01-13 06:48:56.94	129.30	10.40	
2025-01-13 06:48:57.97	129.46	10.34	
2025-01-13 06:48:58.99	129.62	10.28	
2025-01-13 06:49:00.02	129.78	10.21	
2025-01-13 06:49:01.06	129.95	10.15	
2025-01-13 06:49:02.09	130.10	10.08	
2025-01-13 06:49:03.12	130.26	10.02	
2025-01-13 06:49:04.15	130.42	9.96	
2025-01-13 06:49:05.18	130.58	9.89	
2025-01-13 06:49:06.20	130.73	9.83	
2025-01-13 06:49:07.23	130.89	9.76	
2025-01-13 06:49:08.26	131.04	9.70	
2025-01-13 06:49:09.28	131.20	9.64	
2025-01-13 06:49:10.32	131.35	9.57	
2025-01-13 06:49:11.34	131.50	9.51	
2025-01-13 06:49:12.36	131.65	9.44	
2025-01-13 06:49:13.38	131.80	9.38	
2025-01-13 06:49:14.41	131.95	9.32	
2025-01-13 06:49:15.44	132.10	9.25	
2025-01-13 06:49:16.48	132.25	9.19	
2025-01-13 06:49:17.51	132.40	9.12	
2025-01-13 06:49:18.53	132.55	9.06	
2025-01-13 06:49:19.55	132.69	9.00	
2025-01-13 06:49:20.58	132.84	8.93	
2025-01-13 06:49:21.61	132.99	8.87	
2025-01-13 06:49:22.63	133.13	8.81	
2025-01-13 06:49:23.66	133.27	8.74	
2025-01-13 06:49:24.68	133.42	8.68	
2025-01-13 06:49:25.71	133.56	8.62	
2025-01-13 06:49:26.74	133.70	8.55	
2025-01-13 06:49:27.76	133.84	8.49	
2025-01-13 06:49:28.80	133.99	8.43	
2025-01-13 06:49:29.84	134.13	8.36	
2025-01-13 06:49:30.87	134.27	8.30	
2025-01-13 06:49:31.90	134.41	8.23	
2025-01-13 06:49:32.92	134.55	8.17	
2025-01-13 06:49:33.96	134.68	8.11	
2025-01-13 06:49:34.99	134.82	8.04	
2025-01-13 06:49:36.02	134.96	7.98	
2025-01-13 06:49:37.04	135.09	7.92	
2025-01-13 06:49:38.07	135.23	7.85	
2025-01-13 06:49:39.10	135.36	7.79	
2025-01-13 06:49:40.12	135.50	7.73	
2025-01-13 06:49:41.15	135.63	7.67	
2025-01-13 06:49:42.18	135.76	7.60	
2025-01-13 06:49:43.21	135.90	7.54	
2025-01-13 06:49:44.25	136.03	7.48	
2025-01-13 06:49:45.27	136.16	7.41	
2025-01-13 06:49:46.29	136.29	7.35	
2025-01-13 06:49:47.32	136.42	7.29	
2025-01-13 06:49:48.35	136.55	7.23	
2025-01-13 06:49:49.37	136.68	7.16	
2025-01-13 06:49:50.40	136.81	7.10	
2025-01-13 06:49:51.42	136.93	7.04	
2025-01-13 06:49:52.45	137.06	6.98	
2025-01-13 06:49:53.48	137.19	6.91	
2025-01-13 06:49:54.50	137.31	6.85	
2025-01-13 06:49:55.53	137.44	6.79	
2025-01-13 06:49:56.55	137.56	6.73	
2025-01-13 06:49:57.58	137.69	6.67	
2025-01-13 06:49:58.60	137.81	6.61	
2025-01-13 06:49:59.63	137.93	6.54	
2025-01-13 06:50:00.65	138.05	6.48	
2025-01-13 06:50:01.68	138.18	6.42	
2025-01-13 06:50:02.72	138.30	6.36	
2025-01-13 06:50:03.75	138.42	6.30	
2025-01-13 06:50:04.77	138.54	6.23	
2025-01-13 06:50:05.79	138.66	6.17	
2025-01-13 06:50:06.83	138.78	6.11	
2025-01-13 06:50:07.86	138.90	6.05	
2025-01-13 06:50:08.88	139.02	5.99	
2025-01-13 06:50:09.91	139.13	5.93	
2025-01-13 06:50:10.94	139.25	5.87	
2025-01-13 06:50:11.96	139.37	5.80	
2025-01-13 06:50:12.99	139.48	5.74	
2025-01-13 06:50:14.02	139.60	5.68	
2025-01-13 06:50:15.04	139.71	5.62	
2025-01-13 06:50:16.07	139.83	5.56	
2025-01-13 06:50:17.09	139.94	5.50	
2025-01-13 06:50:18.12	140.06	5.44	
2025-01-13 06:50:19.16	140.17	5.38	
2025-01-13 06:50:20.19	140.28	5.32	
2025-01-13 06:50:21.21	140.39	5.26	
2025-01-13 06:50:22.23	140.51	5.20	
2025-01-13 06:50:23.26	140.62	5.14	
2025-01-13 06:50:24.29	140.73	5.08	
2025-01-13 06:50:25.31	140.84	5.02	
2025-01-13 06:50:26.34	140.95	4.96	
2025-01-13 06:50:27.36	141.06	4.90	
2025-01-13 06:50:28.40	141.17	4.84	
2025-01-13 06:50:29.43	141.28	4.78	
2025-01-13 06:50:30.46	141.38	4.72	
2025-01-13 06:50:31.49	141.49	4.66	
2025-01-13 06:50:32.51	141.60	4.60	
2025-01-13 06:50:33.54	141.70	4.54	
2025-01-13 06:50:34.57	141.81	4.48	
2025-01-13 06:50:35.59	141.92	4.42	
2025-01-13 06:50:36.62	142.02	4.36	
2025-01-13 06:50:37.65	142.13	4.30	
2025-01-13 06:50:38.67	142.23	4.24	
2025-01-13 06:50:39.70	142.33	4.18	
2025-01-13 06:50:40.74	142.44	4.12	
2025-01-13 06:50:41.76	142.54	4.06	
2025-01-13 06:50:42.79	142.64	4.00	

#Closed at: 2025-01-13 06:50:43