passes_logs/2025/01/13/SPB_Silybum_02/SPB_Silybum_02__20250113_090343_SUOMI_NPP_rec.log

#Pass ID: 20250113_090343_SUOMI NPP
#Satellite: SUOMI NPP
#Configuration: NPP
#Start time: 2025-01-13 09:03:42

#Version: 2.0.20230423
#Station: SPB_Silybum_02
#Location: 30.233357 lon 59.946436 lat
#TLE: 1 37849U 11061A   25012.80531474  .00000146  00000+0  90276-4 0  9990
#TLE: 2 37849  98.7443 313.8217 0001772  44.3490 315.7828 14.19537186684607

#Time	Az	El	Level	Level2	SNR	BER	Gain	Gain2
2025-01-13 09:03:44.41	124.36	4.08	
2025-01-13 09:03:45.84	124.29	4.18	
2025-01-13 09:03:47.28	124.22	4.27	
2025-01-13 09:03:48.72	124.14	4.37	
2025-01-13 09:03:50.15	124.07	4.46	
2025-01-13 09:03:51.59	124.00	4.56	
2025-01-13 09:03:53.03	123.93	4.65	
2025-01-13 09:03:54.47	123.85	4.75	
2025-01-13 09:03:55.91	123.78	4.84	
2025-01-13 09:03:57.35	123.71	4.94	
2025-01-13 09:03:58.78	123.63	5.04	
2025-01-13 09:04:00.22	123.56	5.13	
2025-01-13 09:04:01.67	123.48	5.23	
2025-01-13 09:04:03.10	123.40	5.33	
2025-01-13 09:04:04.54	123.33	5.43	
2025-01-13 09:04:05.98	123.25	5.53	
2025-01-13 09:04:07.41	123.17	5.63	
2025-01-13 09:04:08.86	123.09	5.73	
2025-01-13 09:04:10.29	123.01	5.82	
2025-01-13 09:04:11.73	122.93	5.92	
2025-01-13 09:04:13.18	122.85	6.02	
2025-01-13 09:04:14.62	122.77	6.13	
2025-01-13 09:04:16.05	122.69	6.23	
2025-01-13 09:04:17.50	122.60	6.33	
2025-01-13 09:04:18.95	122.52	6.43	
2025-01-13 09:04:20.39	122.44	6.53	
2025-01-13 09:04:21.82	122.35	6.63	
2025-01-13 09:04:23.26	122.27	6.74	
2025-01-13 09:04:24.70	122.18	6.84	
2025-01-13 09:04:26.14	122.10	6.94	
2025-01-13 09:04:27.58	122.01	7.04	
2025-01-13 09:04:29.02	121.92	7.15	
2025-01-13 09:04:30.46	121.84	7.25	
2025-01-13 09:04:31.90	121.75	7.36	
2025-01-13 09:04:33.35	121.66	7.46	
2025-01-13 09:04:34.78	121.57	7.57	
2025-01-13 09:04:36.22	121.48	7.67	
2025-01-13 09:04:37.66	121.39	7.78	
2025-01-13 09:04:39.09	121.29	7.89	
2025-01-13 09:04:40.53	121.20	7.99	
2025-01-13 09:04:41.98	121.11	8.10	
2025-01-13 09:04:43.41	121.01	8.21	
2025-01-13 09:04:44.85	120.92	8.32	
2025-01-13 09:04:46.28	120.82	8.42	
2025-01-13 09:04:47.72	120.73	8.53	
2025-01-13 09:04:49.16	120.63	8.64	
2025-01-13 09:04:50.60	120.53	8.75	
2025-01-13 09:04:52.04	120.43	8.86	
2025-01-13 09:04:53.49	120.33	8.97	
2025-01-13 09:04:54.93	120.23	9.08	
2025-01-13 09:04:56.38	120.13	9.19	
2025-01-13 09:04:57.82	120.03	9.31	
2025-01-13 09:04:59.26	119.93	9.42	
2025-01-13 09:05:00.69	119.83	9.53	
2025-01-13 09:05:02.13	119.72	9.64	
2025-01-13 09:05:03.57	119.62	9.76	
2025-01-13 09:05:05.02	119.51	9.87	
2025-01-13 09:05:06.46	119.40	9.98	
2025-01-13 09:05:07.90	119.29	10.10	
2025-01-13 09:05:09.33	119.19	10.21	
2025-01-13 09:05:10.77	119.08	10.33	
2025-01-13 09:05:12.21	118.97	10.44	
2025-01-13 09:05:13.64	118.86	10.56	
2025-01-13 09:05:15.08	118.74	10.68	
2025-01-13 09:05:16.51	118.63	10.79	
2025-01-13 09:05:17.96	118.52	10.91	
2025-01-13 09:05:19.40	118.40	11.03	
2025-01-13 09:05:20.83	118.29	11.15	
2025-01-13 09:05:22.27	118.17	11.27	
2025-01-13 09:05:23.70	118.05	11.38	
2025-01-13 09:05:25.14	117.93	11.50	
2025-01-13 09:05:26.58	117.81	11.63	
2025-01-13 09:05:28.01	117.69	11.75	
2025-01-13 09:05:29.47	117.57	11.87	
2025-01-13 09:05:30.90	117.45	11.99	
2025-01-13 09:05:32.34	117.32	12.11	
2025-01-13 09:05:33.78	117.20	12.23	
2025-01-13 09:05:35.21	117.07	12.36	
2025-01-13 09:05:36.66	116.95	12.48	
2025-01-13 09:05:38.11	116.82	12.61	
2025-01-13 09:05:39.55	116.69	12.73	
2025-01-13 09:05:40.99	116.56	12.86	
2025-01-13 09:05:42.43	116.42	12.98	
2025-01-13 09:05:43.88	116.29	13.11	
2025-01-13 09:05:45.32	116.16	13.24	
2025-01-13 09:05:46.76	116.02	13.36	
2025-01-13 09:05:48.19	115.89	13.49	
2025-01-13 09:05:49.63	115.75	13.62	
2025-01-13 09:05:51.06	115.61	13.75	
2025-01-13 09:05:52.50	115.47	13.87	
2025-01-13 09:05:53.93	115.33	14.00	
2025-01-13 09:05:55.37	115.19	14.13	
2025-01-13 09:05:56.81	115.04	14.26	
2025-01-13 09:05:58.24	114.90	14.39	
2025-01-13 09:05:59.68	114.75	14.53	
2025-01-13 09:06:01.13	114.60	14.66	
2025-01-13 09:06:02.57	114.45	14.79	
2025-01-13 09:06:04.02	114.30	14.93	
2025-01-13 09:06:05.46	114.15	15.06	
2025-01-13 09:06:06.91	113.99	15.20	
2025-01-13 09:06:08.35	113.84	15.33	
2025-01-13 09:06:09.78	113.68	15.47	
2025-01-13 09:06:11.22	113.53	15.60	
2025-01-13 09:06:12.66	113.37	15.74	
2025-01-13 09:06:14.10	113.21	15.88	
2025-01-13 09:06:15.54	113.04	16.01	
2025-01-13 09:06:16.98	112.88	16.15	
2025-01-13 09:06:18.41	112.72	16.29	
2025-01-13 09:06:19.85	112.55	16.43	
2025-01-13 09:06:21.29	112.38	16.57	
2025-01-13 09:06:22.72	112.21	16.71	
2025-01-13 09:06:24.16	112.04	16.85	
2025-01-13 09:06:25.59	111.87	16.99	
2025-01-13 09:06:27.02	111.69	17.13	
2025-01-13 09:06:28.46	111.52	17.27	
2025-01-13 09:06:29.90	111.34	17.42	
2025-01-13 09:06:31.34	111.16	17.56	
2025-01-13 09:06:32.78	110.98	17.70	
2025-01-13 09:06:34.21	110.79	17.85	
2025-01-13 09:06:35.65	110.61	17.99	
2025-01-13 09:06:37.09	110.42	18.14	
2025-01-13 09:06:38.53	110.23	18.28	
2025-01-13 09:06:39.97	110.04	18.43	
2025-01-13 09:06:41.40	109.85	18.58	
2025-01-13 09:06:42.84	109.65	18.73	
2025-01-13 09:06:44.29	109.46	18.88	
2025-01-13 09:06:45.73	109.26	19.02	
2025-01-13 09:06:47.16	109.06	19.17	
2025-01-13 09:06:48.60	108.86	19.32	
2025-01-13 09:06:50.04	108.65	19.47	
2025-01-13 09:06:51.47	108.45	19.62	
2025-01-13 09:06:52.91	108.24	19.78	
2025-01-13 09:06:54.35	108.03	19.93	
2025-01-13 09:06:55.79	107.81	20.08	
2025-01-13 09:06:57.22	107.60	20.23	
2025-01-13 09:06:58.66	107.38	20.39	
2025-01-13 09:07:00.10	107.16	20.54	
2025-01-13 09:07:01.54	106.94	20.70	
2025-01-13 09:07:02.98	106.72	20.85	
2025-01-13 09:07:04.41	106.49	21.01	
2025-01-13 09:07:05.85	106.26	21.16	
2025-01-13 09:07:07.28	106.03	21.32	
2025-01-13 09:07:08.71	105.80	21.47	
2025-01-13 09:07:10.15	105.56	21.63	
2025-01-13 09:07:11.59	105.33	21.79	
2025-01-13 09:07:13.04	105.08	21.95	
2025-01-13 09:07:14.48	104.84	22.11	
2025-01-13 09:07:15.92	104.59	22.27	
2025-01-13 09:07:17.38	104.34	22.43	
2025-01-13 09:07:18.82	104.09	22.59	
2025-01-13 09:07:20.26	103.84	22.75	
2025-01-13 09:07:21.69	103.58	22.91	
2025-01-13 09:07:23.13	103.32	23.07	
2025-01-13 09:07:24.58	103.06	23.23	
2025-01-13 09:07:26.02	102.80	23.40	
2025-01-13 09:07:27.46	102.53	23.56	
2025-01-13 09:07:28.90	102.26	23.72	
2025-01-13 09:07:30.36	101.98	23.89	
2025-01-13 09:07:31.80	101.70	24.05	
2025-01-13 09:07:33.24	101.43	24.21	
2025-01-13 09:07:34.67	101.15	24.38	
2025-01-13 09:07:36.13	100.86	24.54	
2025-01-13 09:07:37.58	100.57	24.71	
2025-01-13 09:07:39.01	100.28	24.87	
2025-01-13 09:07:40.45	99.98	25.04	
2025-01-13 09:07:41.90	99.69	25.20	
2025-01-13 09:07:43.34	99.39	25.37	
2025-01-13 09:07:44.78	99.08	25.53	
2025-01-13 09:07:46.22	98.77	25.70	
2025-01-13 09:07:47.67	98.46	25.87	
2025-01-13 09:07:49.11	98.15	26.03	
2025-01-13 09:07:50.55	97.83	26.20	
2025-01-13 09:07:51.99	97.51	26.36	
2025-01-13 09:07:53.43	97.19	26.53	
2025-01-13 09:07:54.87	96.86	26.69	
2025-01-13 09:07:56.31	96.53	26.86	
2025-01-13 09:07:57.74	96.20	27.03	
2025-01-13 09:07:59.18	95.86	27.19	
2025-01-13 09:08:00.61	95.53	27.36	
2025-01-13 09:08:02.05	95.18	27.52	
2025-01-13 09:08:03.49	94.83	27.69	
2025-01-13 09:08:04.92	94.49	27.85	
2025-01-13 09:08:06.38	94.13	28.02	
2025-01-13 09:08:07.81	93.77	28.18	
2025-01-13 09:08:09.25	93.41	28.35	
2025-01-13 09:08:10.69	93.04	28.51	
2025-01-13 09:08:12.13	92.67	28.67	
2025-01-13 09:08:13.56	92.30	28.83	
2025-01-13 09:08:15.00	91.92	29.00	
2025-01-13 09:08:16.44	91.54	29.16	
2025-01-13 09:08:17.87	91.16	29.32	
2025-01-13 09:08:19.31	90.77	29.48	
2025-01-13 09:08:20.75	90.37	29.64	
2025-01-13 09:08:22.20	89.97	29.80	
2025-01-13 09:08:23.63	89.58	29.96	
2025-01-13 09:08:25.07	89.17	30.12	
2025-01-13 09:08:26.51	88.76	30.28	
2025-01-13 09:08:27.95	88.35	30.44	
2025-01-13 09:08:29.39	87.93	30.59	
2025-01-13 09:08:30.83	87.51	30.75	
2025-01-13 09:08:32.27	87.08	30.90	
2025-01-13 09:08:33.71	86.65	31.06	
2025-01-13 09:08:35.15	86.22	31.21	
2025-01-13 09:08:36.59	85.78	31.36	
2025-01-13 09:08:38.05	85.34	31.51	
2025-01-13 09:08:39.48	84.89	31.66	
2025-01-13 09:08:40.93	84.44	31.81	
2025-01-13 09:08:42.37	83.99	31.95	
2025-01-13 09:08:43.80	83.53	32.10	
2025-01-13 09:08:45.24	83.07	32.24	
2025-01-13 09:08:46.67	82.60	32.38	
2025-01-13 09:08:48.11	82.13	32.52	
2025-01-13 09:08:49.55	81.66	32.66	
2025-01-13 09:08:50.99	81.18	32.80	
2025-01-13 09:08:52.43	80.70	32.94	
2025-01-13 09:08:53.86	80.21	33.07	
2025-01-13 09:08:55.30	79.72	33.20	
2025-01-13 09:08:56.76	79.22	33.34	
2025-01-13 09:08:58.19	78.73	33.46	
2025-01-13 09:08:59.63	78.22	33.59	
2025-01-13 09:09:01.08	77.71	33.72	
2025-01-13 09:09:02.52	77.20	33.84	
2025-01-13 09:09:03.96	76.69	33.96	
2025-01-13 09:09:05.39	76.17	34.08	
2025-01-13 09:09:06.83	75.65	34.19	
2025-01-13 09:09:08.28	75.12	34.31	
2025-01-13 09:09:09.73	74.59	34.42	
2025-01-13 09:09:11.16	74.06	34.53	
2025-01-13 09:09:12.61	73.52	34.63	
2025-01-13 09:09:14.06	72.98	34.74	
2025-01-13 09:09:15.49	72.44	34.84	
2025-01-13 09:09:16.94	71.89	34.94	
2025-01-13 09:09:18.38	71.34	35.04	
2025-01-13 09:09:19.81	70.79	35.13	
2025-01-13 09:09:21.25	70.23	35.22	
2025-01-13 09:09:22.69	69.67	35.31	
2025-01-13 09:09:24.12	69.12	35.39	
2025-01-13 09:09:25.56	68.55	35.47	
2025-01-13 09:09:27.01	67.98	35.55	
2025-01-13 09:09:28.44	67.41	35.63	
2025-01-13 09:09:29.89	66.83	35.70	
2025-01-13 09:09:31.33	66.26	35.77	
2025-01-13 09:09:32.76	65.69	35.84	
2025-01-13 09:09:34.20	65.10	35.90	
2025-01-13 09:09:35.64	64.52	35.96	
2025-01-13 09:09:37.07	63.94	36.02	
2025-01-13 09:09:38.52	63.35	36.07	
2025-01-13 09:09:39.96	62.76	36.12	
2025-01-13 09:09:41.40	62.17	36.17	
2025-01-13 09:09:42.83	61.58	36.21	
2025-01-13 09:09:44.27	60.99	36.25	
2025-01-13 09:09:45.71	60.40	36.29	
2025-01-13 09:09:47.15	59.80	36.32	
2025-01-13 09:09:48.58	59.21	36.35	
2025-01-13 09:09:50.04	58.60	36.37	
2025-01-13 09:09:51.48	58.00	36.40	
2025-01-13 09:09:52.92	57.40	36.42	
2025-01-13 09:09:54.35	56.81	36.43	
2025-01-13 09:09:55.80	56.20	36.44	
2025-01-13 09:09:57.26	55.59	36.45	
2025-01-13 09:09:58.71	54.99	36.45	
2025-01-13 09:10:00.14	54.39	36.46	
2025-01-13 09:10:01.58	53.79	36.45	
2025-01-13 09:10:03.02	53.19	36.45	
2025-01-13 09:10:04.46	52.59	36.44	
2025-01-13 09:10:05.89	51.99	36.42	
2025-01-13 09:10:07.33	51.39	36.41	
2025-01-13 09:10:08.77	50.79	36.38	
2025-01-13 09:10:10.20	50.20	36.36	
2025-01-13 09:10:11.64	49.60	36.33	
2025-01-13 09:10:13.08	49.00	36.30	
2025-01-13 09:10:14.52	48.41	36.27	
2025-01-13 09:10:15.96	47.82	36.23	
2025-01-13 09:10:17.42	47.22	36.19	
2025-01-13 09:10:18.85	46.63	36.14	
2025-01-13 09:10:20.29	46.04	36.09	
2025-01-13 09:10:21.72	45.46	36.04	
2025-01-13 09:10:23.15	44.88	35.99	
2025-01-13 09:10:24.59	44.29	35.93	
2025-01-13 09:10:26.03	43.71	35.87	
2025-01-13 09:10:27.46	43.14	35.80	
2025-01-13 09:10:28.91	42.56	35.73	
2025-01-13 09:10:30.35	41.99	35.66	
2025-01-13 09:10:31.78	41.42	35.59	
2025-01-13 09:10:33.22	40.85	35.51	
2025-01-13 09:10:34.65	40.29	35.43	
2025-01-13 09:10:36.11	39.72	35.35	
2025-01-13 09:10:37.55	39.16	35.26	
2025-01-13 09:10:38.98	38.61	35.17	
2025-01-13 09:10:40.41	38.06	35.08	
2025-01-13 09:10:41.87	37.50	34.99	
2025-01-13 09:10:43.30	36.96	34.89	
2025-01-13 09:10:44.74	36.41	34.79	
2025-01-13 09:10:46.18	35.87	34.69	
2025-01-13 09:10:47.62	35.33	34.58	
2025-01-13 09:10:49.05	34.80	34.47	
2025-01-13 09:10:50.49	34.28	34.36	
2025-01-13 09:10:51.93	33.75	34.25	
2025-01-13 09:10:53.36	33.23	34.14	
2025-01-13 09:10:54.80	32.71	34.02	
2025-01-13 09:10:56.24	32.20	33.90	
2025-01-13 09:10:57.69	31.68	33.78	
2025-01-13 09:10:59.12	31.18	33.66	
2025-01-13 09:11:00.57	30.67	33.53	
2025-01-13 09:11:02.01	30.17	33.40	
2025-01-13 09:11:03.45	29.68	33.28	
2025-01-13 09:11:04.88	29.19	33.15	
2025-01-13 09:11:06.32	28.70	33.01	
2025-01-13 09:11:07.76	28.22	32.88	
2025-01-13 09:11:09.20	27.74	32.74	
2025-01-13 09:11:10.64	27.26	32.60	
2025-01-13 09:11:12.07	26.80	32.47	
2025-01-13 09:11:13.50	26.33	32.33	
2025-01-13 09:11:14.94	25.87	32.18	
2025-01-13 09:11:16.38	25.41	32.04	
2025-01-13 09:11:17.82	24.95	31.89	
2025-01-13 09:11:19.26	24.50	31.75	
2025-01-13 09:11:20.69	24.06	31.60	
2025-01-13 09:11:22.13	23.62	31.45	
2025-01-13 09:11:23.57	23.18	31.30	
2025-01-13 09:11:25.03	22.74	31.15	
2025-01-13 09:11:26.47	22.31	31.00	
2025-01-13 09:11:27.92	21.88	30.84	
2025-01-13 09:11:29.35	21.46	30.69	
2025-01-13 09:11:30.79	21.04	30.53	
2025-01-13 09:11:32.22	20.63	30.38	
2025-01-13 09:11:33.66	20.22	30.22	
2025-01-13 09:11:35.10	19.82	30.06	
2025-01-13 09:11:36.54	19.42	29.90	
2025-01-13 09:11:38.00	19.01	29.74	
2025-01-13 09:11:39.44	18.62	29.58	
2025-01-13 09:11:40.88	18.23	29.42	
2025-01-13 09:11:42.32	17.84	29.26	
2025-01-13 09:11:43.76	17.46	29.10	
2025-01-13 09:11:45.19	17.09	28.94	
2025-01-13 09:11:46.63	16.71	28.78	
2025-01-13 09:11:48.07	16.34	28.62	
2025-01-13 09:11:49.50	15.98	28.45	
2025-01-13 09:11:50.94	15.61	28.29	
2025-01-13 09:11:52.38	15.25	28.13	
2025-01-13 09:11:53.82	14.90	27.96	
2025-01-13 09:11:55.26	14.55	27.80	
2025-01-13 09:11:56.69	14.20	27.63	
2025-01-13 09:11:58.12	13.86	27.47	
2025-01-13 09:11:59.57	13.51	27.31	
2025-01-13 09:12:01.00	13.18	27.14	
2025-01-13 09:12:02.44	12.85	26.98	
2025-01-13 09:12:03.88	12.52	26.81	
2025-01-13 09:12:05.31	12.19	26.65	
2025-01-13 09:12:06.75	11.87	26.48	
2025-01-13 09:12:08.18	11.55	26.32	
2025-01-13 09:12:09.61	11.23	26.15	
2025-01-13 09:12:11.06	10.92	25.99	
2025-01-13 09:12:12.49	10.61	25.82	
2025-01-13 09:12:13.93	10.30	25.66	
2025-01-13 09:12:15.37	10.00	25.49	
2025-01-13 09:12:16.81	9.70	25.33	
2025-01-13 09:12:18.24	9.40	25.17	
2025-01-13 09:12:19.68	9.11	25.00	
2025-01-13 09:12:21.12	8.82	24.84	
2025-01-13 09:12:22.57	8.53	24.67	
2025-01-13 09:12:24.01	8.24	24.51	
2025-01-13 09:12:25.44	7.96	24.35	
2025-01-13 09:12:26.88	7.68	24.18	
2025-01-13 09:12:28.32	7.41	24.02	
2025-01-13 09:12:29.75	7.14	23.86	
2025-01-13 09:12:31.19	6.87	23.70	
2025-01-13 09:12:32.63	6.60	23.54	
2025-01-13 09:12:34.07	6.33	23.37	
2025-01-13 09:12:35.51	6.07	23.21	
2025-01-13 09:12:36.94	5.81	23.05	
2025-01-13 09:12:38.38	5.56	22.89	
2025-01-13 09:12:39.83	5.30	22.73	
2025-01-13 09:12:41.28	5.05	22.57	
2025-01-13 09:12:42.73	4.80	22.41	
2025-01-13 09:12:44.18	4.55	22.25	
2025-01-13 09:12:45.62	4.31	22.09	
2025-01-13 09:12:47.05	4.07	21.94	
2025-01-13 09:12:48.49	3.83	21.78	
2025-01-13 09:12:49.94	3.59	21.62	
2025-01-13 09:12:51.38	3.36	21.46	
2025-01-13 09:12:52.81	3.13	21.31	
2025-01-13 09:12:54.25	2.90	21.15	
2025-01-13 09:12:55.67	2.67	21.00	
2025-01-13 09:12:57.11	2.45	20.84	
2025-01-13 09:12:58.55	2.23	20.69	
2025-01-13 09:12:59.99	2.01	20.54	
2025-01-13 09:13:01.42	1.79	20.38	
2025-01-13 09:13:02.86	1.58	20.23	
2025-01-13 09:13:04.30	1.36	20.08	
2025-01-13 09:13:05.74	1.15	19.93	
2025-01-13 09:13:07.17	0.95	19.78	
2025-01-13 09:13:08.61	0.74	19.63	
2025-01-13 09:13:10.04	0.54	19.48	
2025-01-13 09:13:11.48	0.33	19.33	
2025-01-13 09:13:12.91	0.13	19.18	
2025-01-13 09:13:14.35	359.94	19.03	
2025-01-13 09:13:15.79	359.74	18.88	
2025-01-13 09:13:17.22	359.55	18.74	
2025-01-13 09:13:18.67	359.35	18.59	
2025-01-13 09:13:20.11	359.16	18.44	
2025-01-13 09:13:21.55	358.97	18.29	
2025-01-13 09:13:22.98	358.79	18.15	
2025-01-13 09:13:24.42	358.60	18.00	
2025-01-13 09:13:25.85	358.42	17.86	
2025-01-13 09:13:27.29	358.24	17.72	
2025-01-13 09:13:28.74	358.05	17.57	
2025-01-13 09:13:30.18	357.88	17.43	
2025-01-13 09:13:31.62	357.70	17.29	
2025-01-13 09:13:33.05	357.53	17.15	
2025-01-13 09:13:34.49	357.35	17.01	
2025-01-13 09:13:35.92	357.18	16.87	
2025-01-13 09:13:37.36	357.01	16.73	
2025-01-13 09:13:38.81	356.84	16.59	
2025-01-13 09:13:40.25	356.68	16.45	
2025-01-13 09:13:41.68	356.51	16.31	
2025-01-13 09:13:43.12	356.35	16.17	
2025-01-13 09:13:44.56	356.19	16.03	
2025-01-13 09:13:46.02	356.02	15.90	
2025-01-13 09:13:47.46	355.87	15.76	
2025-01-13 09:13:48.91	355.71	15.62	
2025-01-13 09:13:50.34	355.55	15.49	
2025-01-13 09:13:51.78	355.40	15.35	
2025-01-13 09:13:53.21	355.25	15.22	
2025-01-13 09:13:54.65	355.09	15.09	
2025-01-13 09:13:56.09	354.94	14.95	
2025-01-13 09:13:57.54	354.79	14.82	
2025-01-13 09:13:58.97	354.65	14.69	
2025-01-13 09:14:00.42	354.50	14.56	
2025-01-13 09:14:01.86	354.36	14.42	
2025-01-13 09:14:03.29	354.21	14.30	
2025-01-13 09:14:04.73	354.07	14.16	
2025-01-13 09:14:06.18	353.93	14.03	
2025-01-13 09:14:07.62	353.79	13.91	
2025-01-13 09:14:09.05	353.65	13.78	
2025-01-13 09:14:10.51	353.51	13.65	
2025-01-13 09:14:11.96	353.38	13.52	
2025-01-13 09:14:13.40	353.24	13.39	
2025-01-13 09:14:14.84	353.11	13.27	
2025-01-13 09:14:16.29	352.97	13.14	
2025-01-13 09:14:17.75	352.84	13.01	
2025-01-13 09:14:19.19	352.71	12.89	
2025-01-13 09:14:20.63	352.58	12.76	
2025-01-13 09:14:22.07	352.45	12.64	
2025-01-13 09:14:23.52	352.33	12.51	
2025-01-13 09:14:24.97	352.20	12.39	
2025-01-13 09:14:26.41	352.08	12.27	
2025-01-13 09:14:27.85	351.95	12.15	
2025-01-13 09:14:29.28	351.83	12.03	
2025-01-13 09:14:30.72	351.71	11.90	
2025-01-13 09:14:32.15	351.59	11.78	
2025-01-13 09:14:33.59	351.47	11.66	
2025-01-13 09:14:35.04	351.35	11.54	
2025-01-13 09:14:36.48	351.24	11.42	
2025-01-13 09:14:37.92	351.12	11.31	
2025-01-13 09:14:39.37	351.00	11.19	
2025-01-13 09:14:40.81	350.89	11.07	
2025-01-13 09:14:42.24	350.78	10.95	
2025-01-13 09:14:43.68	350.66	10.83	
2025-01-13 09:14:45.12	350.55	10.72	
2025-01-13 09:14:46.55	350.44	10.60	
2025-01-13 09:14:47.99	350.33	10.49	
2025-01-13 09:14:49.42	350.23	10.37	
2025-01-13 09:14:50.87	350.12	10.26	
2025-01-13 09:14:52.30	350.01	10.14	
2025-01-13 09:14:53.74	349.91	10.03	
2025-01-13 09:14:55.18	349.80	9.92	
2025-01-13 09:14:56.62	349.70	9.80	
2025-01-13 09:14:58.06	349.59	9.69	
2025-01-13 09:14:59.51	349.49	9.58	
2025-01-13 09:15:00.94	349.39	9.47	
2025-01-13 09:15:02.38	349.29	9.35	
2025-01-13 09:15:03.82	349.19	9.24	
2025-01-13 09:15:05.27	349.09	9.13	
2025-01-13 09:15:06.70	348.99	9.02	
2025-01-13 09:15:08.14	348.89	8.91	
2025-01-13 09:15:09.58	348.79	8.80	
2025-01-13 09:15:11.02	348.70	8.69	
2025-01-13 09:15:12.47	348.60	8.58	
2025-01-13 09:15:13.92	348.51	8.48	
2025-01-13 09:15:15.36	348.41	8.37	
2025-01-13 09:15:16.80	348.32	8.26	
2025-01-13 09:15:18.23	348.23	8.15	
2025-01-13 09:15:19.67	348.14	8.05	
2025-01-13 09:15:21.11	348.04	7.94	
2025-01-13 09:15:22.54	347.95	7.84	
2025-01-13 09:15:23.98	347.87	7.73	
2025-01-13 09:15:25.42	347.78	7.62	
2025-01-13 09:15:26.85	347.69	7.52	
2025-01-13 09:15:28.29	347.60	7.42	
2025-01-13 09:15:29.72	347.51	7.31	
2025-01-13 09:15:31.16	347.43	7.21	
2025-01-13 09:15:32.60	347.34	7.10	
2025-01-13 09:15:34.05	347.26	7.00	
2025-01-13 09:15:35.50	347.17	6.90	
2025-01-13 09:15:36.94	347.09	6.80	
2025-01-13 09:15:38.38	347.00	6.69	
2025-01-13 09:15:39.82	346.92	6.59	
2025-01-13 09:15:41.25	346.84	6.49	
2025-01-13 09:15:42.69	346.76	6.39	
2025-01-13 09:15:44.13	346.68	6.29	
2025-01-13 09:15:45.56	346.60	6.19	
2025-01-13 09:15:47.00	346.52	6.09	
2025-01-13 09:15:48.43	346.44	5.99	
2025-01-13 09:15:49.87	346.36	5.89	
2025-01-13 09:15:51.31	346.29	5.79	
2025-01-13 09:15:52.75	346.21	5.69	
2025-01-13 09:15:54.18	346.13	5.60	
2025-01-13 09:15:55.62	346.06	5.50	
2025-01-13 09:15:57.06	345.98	5.40	
2025-01-13 09:15:58.49	345.91	5.30	
2025-01-13 09:15:59.93	345.83	5.21	
2025-01-13 09:16:01.37	345.76	5.11	
2025-01-13 09:16:02.82	345.68	5.01	
2025-01-13 09:16:04.26	345.61	4.91	
2025-01-13 09:16:05.70	345.54	4.82	
2025-01-13 09:16:07.13	345.47	4.72	
2025-01-13 09:16:08.57	345.40	4.63	
2025-01-13 09:16:10.00	345.33	4.53	
2025-01-13 09:16:11.44	345.25	4.44	
2025-01-13 09:16:12.88	345.18	4.34	
2025-01-13 09:16:14.31	345.12	4.25	
2025-01-13 09:16:15.74	345.05	4.16	
2025-01-13 09:16:17.18	344.98	4.06	

#Closed at: 2025-01-13 09:16:18