passes_logs/2025/01/13/SPB_Silybum_02/SPB_Silybum_02__20250113_122611_SUOMI_NPP_rec.log

#Pass ID: 20250113_122611_SUOMI NPP
#Satellite: SUOMI NPP
#Configuration: NPP
#Start time: 2025-01-13 12:26:09

#Version: 2.0.20230423
#Station: SPB_Silybum_02
#Location: 30.233357 lon 59.946436 lat
#TLE: 1 37849U 11061A   25012.80531474  .00000146  00000+0  90276-4 0  9990
#TLE: 2 37849  98.7443 313.8217 0001772  44.3490 315.7828 14.19537186684607

#Time	Az	El	Level	Level2	SNR	BER	Gain	Gain2
2025-01-13 12:26:11.46	226.89	4.02	
2025-01-13 12:26:12.70	227.01	4.08	
2025-01-13 12:26:13.93	227.14	4.15	
2025-01-13 12:26:15.16	227.26	4.21	
2025-01-13 12:26:16.41	227.39	4.27	
2025-01-13 12:26:17.63	227.51	4.33	
2025-01-13 12:26:18.86	227.64	4.40	
2025-01-13 12:26:20.09	227.77	4.46	
2025-01-13 12:26:21.33	227.90	4.52	
2025-01-13 12:26:22.55	228.02	4.58	
2025-01-13 12:26:23.78	228.15	4.64	
2025-01-13 12:26:25.01	228.28	4.71	
2025-01-13 12:26:26.24	228.41	4.77	
2025-01-13 12:26:27.48	228.54	4.83	
2025-01-13 12:26:28.71	228.68	4.89	
2025-01-13 12:26:29.94	228.81	4.96	
2025-01-13 12:26:31.18	228.94	5.02	
2025-01-13 12:26:32.41	229.07	5.08	
2025-01-13 12:26:33.65	229.21	5.15	
2025-01-13 12:26:34.88	229.34	5.21	
2025-01-13 12:26:36.11	229.47	5.27	
2025-01-13 12:26:37.35	229.61	5.33	
2025-01-13 12:26:38.58	229.75	5.40	
2025-01-13 12:26:39.81	229.88	5.46	
2025-01-13 12:26:41.04	230.02	5.52	
2025-01-13 12:26:42.27	230.16	5.58	
2025-01-13 12:26:43.50	230.29	5.65	
2025-01-13 12:26:44.73	230.43	5.71	
2025-01-13 12:26:45.96	230.57	5.77	
2025-01-13 12:26:47.19	230.71	5.83	
2025-01-13 12:26:48.42	230.85	5.90	
2025-01-13 12:26:49.66	230.99	5.96	
2025-01-13 12:26:50.91	231.14	6.02	
2025-01-13 12:26:52.16	231.28	6.09	
2025-01-13 12:26:53.38	231.42	6.15	
2025-01-13 12:26:54.62	231.56	6.21	
2025-01-13 12:26:55.84	231.71	6.28	
2025-01-13 12:26:57.07	231.85	6.34	
2025-01-13 12:26:58.30	232.00	6.40	
2025-01-13 12:26:59.55	232.14	6.46	
2025-01-13 12:27:00.77	232.29	6.53	
2025-01-13 12:27:02.00	232.43	6.59	
2025-01-13 12:27:03.24	232.58	6.65	
2025-01-13 12:27:04.47	232.73	6.72	
2025-01-13 12:27:05.71	232.88	6.78	
2025-01-13 12:27:06.94	233.03	6.84	
2025-01-13 12:27:08.17	233.18	6.90	
2025-01-13 12:27:09.40	233.33	6.97	
2025-01-13 12:27:10.63	233.48	7.03	
2025-01-13 12:27:11.88	233.63	7.09	
2025-01-13 12:27:13.12	233.79	7.16	
2025-01-13 12:27:14.35	233.94	7.22	
2025-01-13 12:27:15.59	234.09	7.28	
2025-01-13 12:27:16.82	234.25	7.34	
2025-01-13 12:27:18.05	234.40	7.41	
2025-01-13 12:27:19.28	234.56	7.47	
2025-01-13 12:27:20.51	234.71	7.53	
2025-01-13 12:27:21.74	234.87	7.59	
2025-01-13 12:27:22.97	235.03	7.66	
2025-01-13 12:27:24.22	235.19	7.72	
2025-01-13 12:27:25.45	235.35	7.78	
2025-01-13 12:27:26.68	235.51	7.84	
2025-01-13 12:27:27.91	235.67	7.91	
2025-01-13 12:27:29.15	235.83	7.97	
2025-01-13 12:27:30.39	235.99	8.03	
2025-01-13 12:27:31.62	236.15	8.09	
2025-01-13 12:27:32.86	236.32	8.16	
2025-01-13 12:27:34.09	236.48	8.22	
2025-01-13 12:27:35.32	236.64	8.28	
2025-01-13 12:27:36.56	236.81	8.34	
2025-01-13 12:27:37.80	236.98	8.41	
2025-01-13 12:27:39.03	237.14	8.47	
2025-01-13 12:27:40.28	237.31	8.53	
2025-01-13 12:27:41.51	237.48	8.59	
2025-01-13 12:27:42.75	237.65	8.66	
2025-01-13 12:27:43.99	237.82	8.72	
2025-01-13 12:27:45.22	237.99	8.78	
2025-01-13 12:27:46.45	238.16	8.84	
2025-01-13 12:27:47.68	238.33	8.90	
2025-01-13 12:27:48.91	238.50	8.96	
2025-01-13 12:27:50.14	238.67	9.02	
2025-01-13 12:27:51.37	238.84	9.09	
2025-01-13 12:27:52.60	239.02	9.15	
2025-01-13 12:27:53.83	239.19	9.21	
2025-01-13 12:27:55.06	239.37	9.27	
2025-01-13 12:27:56.29	239.54	9.33	
2025-01-13 12:27:57.52	239.72	9.39	
2025-01-13 12:27:58.75	239.90	9.45	
2025-01-13 12:27:59.98	240.07	9.51	
2025-01-13 12:28:01.21	240.25	9.57	
2025-01-13 12:28:02.44	240.43	9.63	
2025-01-13 12:28:03.67	240.61	9.69	
2025-01-13 12:28:04.90	240.79	9.75	
2025-01-13 12:28:06.13	240.97	9.81	
2025-01-13 12:28:07.36	241.16	9.87	
2025-01-13 12:28:08.59	241.34	9.93	
2025-01-13 12:28:09.82	241.52	9.99	
2025-01-13 12:28:11.04	241.70	10.05	
2025-01-13 12:28:12.28	241.89	10.11	
2025-01-13 12:28:13.51	242.08	10.17	
2025-01-13 12:28:14.74	242.26	10.23	
2025-01-13 12:28:15.97	242.45	10.29	
2025-01-13 12:28:17.20	242.64	10.35	
2025-01-13 12:28:18.43	242.83	10.41	
2025-01-13 12:28:19.66	243.02	10.47	
2025-01-13 12:28:20.89	243.21	10.53	
2025-01-13 12:28:22.12	243.40	10.59	
2025-01-13 12:28:23.37	243.59	10.65	
2025-01-13 12:28:24.60	243.78	10.70	
2025-01-13 12:28:25.83	243.98	10.76	
2025-01-13 12:28:27.06	244.17	10.82	
2025-01-13 12:28:28.29	244.37	10.88	
2025-01-13 12:28:29.52	244.56	10.94	
2025-01-13 12:28:30.75	244.76	10.99	
2025-01-13 12:28:31.99	244.96	11.05	
2025-01-13 12:28:33.22	245.15	11.11	
2025-01-13 12:28:34.46	245.35	11.17	
2025-01-13 12:28:35.70	245.55	11.22	
2025-01-13 12:28:36.93	245.75	11.28	
2025-01-13 12:28:38.15	245.95	11.34	
2025-01-13 12:28:39.38	246.15	11.39	
2025-01-13 12:28:40.61	246.36	11.45	
2025-01-13 12:28:41.84	246.56	11.50	
2025-01-13 12:28:43.07	246.76	11.56	
2025-01-13 12:28:44.30	246.97	11.62	
2025-01-13 12:28:45.55	247.17	11.67	
2025-01-13 12:28:46.78	247.38	11.73	
2025-01-13 12:28:48.01	247.59	11.78	
2025-01-13 12:28:49.24	247.79	11.84	
2025-01-13 12:28:50.47	248.00	11.89	
2025-01-13 12:28:51.72	248.21	11.95	
2025-01-13 12:28:52.95	248.42	12.00	
2025-01-13 12:28:54.18	248.63	12.05	
2025-01-13 12:28:55.42	248.85	12.11	
2025-01-13 12:28:56.65	249.06	12.16	
2025-01-13 12:28:57.88	249.27	12.21	
2025-01-13 12:28:59.11	249.48	12.27	
2025-01-13 12:29:00.34	249.70	12.32	
2025-01-13 12:29:01.58	249.91	12.37	
2025-01-13 12:29:02.81	250.13	12.43	
2025-01-13 12:29:04.04	250.35	12.48	
2025-01-13 12:29:05.27	250.56	12.53	
2025-01-13 12:29:06.50	250.78	12.58	
2025-01-13 12:29:07.73	251.00	12.63	
2025-01-13 12:29:08.97	251.22	12.68	
2025-01-13 12:29:10.20	251.44	12.73	
2025-01-13 12:29:11.43	251.66	12.78	
2025-01-13 12:29:12.67	251.88	12.83	
2025-01-13 12:29:13.90	252.11	12.88	
2025-01-13 12:29:15.13	252.33	12.93	
2025-01-13 12:29:16.36	252.55	12.98	
2025-01-13 12:29:17.59	252.78	13.03	
2025-01-13 12:29:18.82	253.00	13.08	
2025-01-13 12:29:20.05	253.23	13.13	
2025-01-13 12:29:21.28	253.45	13.18	
2025-01-13 12:29:22.51	253.68	13.22	
2025-01-13 12:29:23.74	253.91	13.27	
2025-01-13 12:29:24.97	254.14	13.32	
2025-01-13 12:29:26.20	254.37	13.36	
2025-01-13 12:29:27.43	254.60	13.41	
2025-01-13 12:29:28.66	254.83	13.46	
2025-01-13 12:29:29.89	255.06	13.50	
2025-01-13 12:29:31.12	255.29	13.55	
2025-01-13 12:29:32.35	255.52	13.59	
2025-01-13 12:29:33.58	255.76	13.64	
2025-01-13 12:29:34.81	255.99	13.68	
2025-01-13 12:29:36.05	256.23	13.72	
2025-01-13 12:29:37.28	256.46	13.77	
2025-01-13 12:29:38.53	256.70	13.81	
2025-01-13 12:29:39.76	256.94	13.85	
2025-01-13 12:29:40.99	257.18	13.90	
2025-01-13 12:29:42.22	257.41	13.94	
2025-01-13 12:29:43.46	257.65	13.98	
2025-01-13 12:29:44.69	257.89	14.02	
2025-01-13 12:29:45.91	258.13	14.06	
2025-01-13 12:29:47.14	258.37	14.10	
2025-01-13 12:29:48.37	258.61	14.14	
2025-01-13 12:29:49.61	258.86	14.18	
2025-01-13 12:29:50.83	259.10	14.22	
2025-01-13 12:29:52.08	259.34	14.26	
2025-01-13 12:29:53.31	259.59	14.30	
2025-01-13 12:29:54.54	259.83	14.34	
2025-01-13 12:29:55.78	260.08	14.38	
2025-01-13 12:29:57.01	260.32	14.41	
2025-01-13 12:29:58.27	260.58	14.45	
2025-01-13 12:29:59.50	260.82	14.49	
2025-01-13 12:30:00.74	261.07	14.52	
2025-01-13 12:30:01.98	261.32	14.56	
2025-01-13 12:30:03.22	261.57	14.59	
2025-01-13 12:30:04.45	261.82	14.63	
2025-01-13 12:30:05.69	262.07	14.66	
2025-01-13 12:30:06.92	262.32	14.70	
2025-01-13 12:30:08.15	262.57	14.73	
2025-01-13 12:30:09.39	262.83	14.76	
2025-01-13 12:30:10.64	263.08	14.79	
2025-01-13 12:30:11.87	263.33	14.83	
2025-01-13 12:30:13.10	263.59	14.86	
2025-01-13 12:30:14.35	263.84	14.89	
2025-01-13 12:30:15.59	264.10	14.92	
2025-01-13 12:30:16.82	264.35	14.95	
2025-01-13 12:30:18.07	264.61	14.98	
2025-01-13 12:30:19.30	264.87	15.01	
2025-01-13 12:30:20.53	265.12	15.03	
2025-01-13 12:30:21.78	265.38	15.06	
2025-01-13 12:30:23.01	265.64	15.09	
2025-01-13 12:30:24.24	265.90	15.12	
2025-01-13 12:30:25.49	266.16	15.14	
2025-01-13 12:30:26.71	266.41	15.17	
2025-01-13 12:30:27.97	266.68	15.19	
2025-01-13 12:30:29.20	266.94	15.22	
2025-01-13 12:30:30.43	267.20	15.24	
2025-01-13 12:30:31.66	267.46	15.27	
2025-01-13 12:30:32.89	267.72	15.29	
2025-01-13 12:30:34.13	267.98	15.31	
2025-01-13 12:30:35.36	268.24	15.33	
2025-01-13 12:30:36.59	268.50	15.36	
2025-01-13 12:30:37.81	268.76	15.38	
2025-01-13 12:30:39.04	269.02	15.40	
2025-01-13 12:30:40.28	269.29	15.42	
2025-01-13 12:30:41.51	269.55	15.44	
2025-01-13 12:30:42.74	269.81	15.45	
2025-01-13 12:30:43.98	270.08	15.47	
2025-01-13 12:30:45.21	270.34	15.49	
2025-01-13 12:30:46.45	270.60	15.51	
2025-01-13 12:30:47.68	270.87	15.52	
2025-01-13 12:30:48.91	271.13	15.54	
2025-01-13 12:30:50.14	271.40	15.55	
2025-01-13 12:30:51.37	271.66	15.57	
2025-01-13 12:30:52.60	271.93	15.58	
2025-01-13 12:30:53.83	272.19	15.60	
2025-01-13 12:30:55.06	272.46	15.61	
2025-01-13 12:30:56.29	272.72	15.62	
2025-01-13 12:30:57.52	272.99	15.63	
2025-01-13 12:30:58.77	273.26	15.65	
2025-01-13 12:31:00.00	273.52	15.66	
2025-01-13 12:31:01.23	273.79	15.67	
2025-01-13 12:31:02.47	274.06	15.68	
2025-01-13 12:31:03.70	274.33	15.69	
2025-01-13 12:31:04.94	274.59	15.69	
2025-01-13 12:31:06.17	274.86	15.70	
2025-01-13 12:31:07.40	275.13	15.71	
2025-01-13 12:31:08.64	275.40	15.72	
2025-01-13 12:31:09.88	275.67	15.72	
2025-01-13 12:31:11.12	275.94	15.73	
2025-01-13 12:31:12.35	276.20	15.73	
2025-01-13 12:31:13.59	276.47	15.74	
2025-01-13 12:31:14.83	276.74	15.74	
2025-01-13 12:31:16.07	277.01	15.74	
2025-01-13 12:31:17.30	277.28	15.75	
2025-01-13 12:31:18.53	277.55	15.75	
2025-01-13 12:31:19.77	277.82	15.75	
2025-01-13 12:31:21.00	278.09	15.75	
2025-01-13 12:31:22.23	278.35	15.75	
2025-01-13 12:31:23.46	278.62	15.75	
2025-01-13 12:31:24.72	278.90	15.75	
2025-01-13 12:31:25.95	279.16	15.75	
2025-01-13 12:31:27.18	279.43	15.75	
2025-01-13 12:31:28.41	279.70	15.74	
2025-01-13 12:31:29.64	279.97	15.74	
2025-01-13 12:31:30.89	280.24	15.74	
2025-01-13 12:31:32.13	280.51	15.73	
2025-01-13 12:31:33.36	280.77	15.73	
2025-01-13 12:31:34.59	281.04	15.72	
2025-01-13 12:31:35.82	281.31	15.71	
2025-01-13 12:31:37.06	281.58	15.71	
2025-01-13 12:31:38.29	281.84	15.70	
2025-01-13 12:31:39.52	282.11	15.69	
2025-01-13 12:31:40.77	282.38	15.68	
2025-01-13 12:31:41.99	282.65	15.67	
2025-01-13 12:31:43.22	282.91	15.66	
2025-01-13 12:31:44.45	283.18	15.65	
2025-01-13 12:31:45.70	283.45	15.64	
2025-01-13 12:31:46.93	283.71	15.63	
2025-01-13 12:31:48.16	283.98	15.62	
2025-01-13 12:31:49.39	284.24	15.61	
2025-01-13 12:31:50.64	284.51	15.59	
2025-01-13 12:31:51.87	284.78	15.58	
2025-01-13 12:31:53.12	285.05	15.57	
2025-01-13 12:31:54.35	285.31	15.55	
2025-01-13 12:31:55.58	285.58	15.54	
2025-01-13 12:31:56.82	285.84	15.52	
2025-01-13 12:31:58.04	286.10	15.50	
2025-01-13 12:31:59.27	286.37	15.49	
2025-01-13 12:32:00.52	286.63	15.47	
2025-01-13 12:32:01.75	286.89	15.45	
2025-01-13 12:32:02.99	287.16	15.43	
2025-01-13 12:32:04.22	287.42	15.41	
2025-01-13 12:32:05.45	287.68	15.39	
2025-01-13 12:32:06.68	287.94	15.37	
2025-01-13 12:32:07.90	288.20	15.35	
2025-01-13 12:32:09.14	288.46	15.33	
2025-01-13 12:32:10.38	288.73	15.31	
2025-01-13 12:32:11.62	288.99	15.28	
2025-01-13 12:32:12.85	289.25	15.26	
2025-01-13 12:32:14.08	289.51	15.24	
2025-01-13 12:32:15.30	289.76	15.21	
2025-01-13 12:32:16.53	290.02	15.19	
2025-01-13 12:32:17.76	290.28	15.16	
2025-01-13 12:32:18.99	290.53	15.14	
2025-01-13 12:32:20.22	290.79	15.11	
2025-01-13 12:32:21.45	291.05	15.08	
2025-01-13 12:32:22.68	291.30	15.06	
2025-01-13 12:32:23.91	291.56	15.03	
2025-01-13 12:32:25.14	291.81	15.00	
2025-01-13 12:32:26.37	292.07	14.97	
2025-01-13 12:32:27.60	292.32	14.94	
2025-01-13 12:32:28.84	292.58	14.91	
2025-01-13 12:32:30.06	292.83	14.88	
2025-01-13 12:32:31.29	293.08	14.85	
2025-01-13 12:32:32.52	293.33	14.82	
2025-01-13 12:32:33.75	293.58	14.79	
2025-01-13 12:32:34.98	293.83	14.76	
2025-01-13 12:32:36.22	294.09	14.73	
2025-01-13 12:32:37.45	294.33	14.69	
2025-01-13 12:32:38.67	294.58	14.66	
2025-01-13 12:32:39.90	294.83	14.63	
2025-01-13 12:32:41.13	295.08	14.59	
2025-01-13 12:32:42.36	295.33	14.56	
2025-01-13 12:32:43.61	295.58	14.52	
2025-01-13 12:32:44.84	295.82	14.49	
2025-01-13 12:32:46.07	296.07	14.45	
2025-01-13 12:32:47.30	296.31	14.41	
2025-01-13 12:32:48.52	296.56	14.38	
2025-01-13 12:32:49.75	296.80	14.34	
2025-01-13 12:32:51.00	297.05	14.30	
2025-01-13 12:32:52.23	297.29	14.26	
2025-01-13 12:32:53.46	297.53	14.22	
2025-01-13 12:32:54.69	297.77	14.19	
2025-01-13 12:32:55.92	298.01	14.15	
2025-01-13 12:32:57.16	298.26	14.11	
2025-01-13 12:32:58.39	298.50	14.07	
2025-01-13 12:32:59.63	298.74	14.02	
2025-01-13 12:33:00.86	298.98	13.98	
2025-01-13 12:33:02.09	299.21	13.94	
2025-01-13 12:33:03.33	299.45	13.90	
2025-01-13 12:33:04.56	299.69	13.86	
2025-01-13 12:33:05.79	299.92	13.82	
2025-01-13 12:33:07.02	300.16	13.77	
2025-01-13 12:33:08.25	300.39	13.73	
2025-01-13 12:33:09.48	300.63	13.69	
2025-01-13 12:33:10.71	300.86	13.64	
2025-01-13 12:33:11.94	301.09	13.60	
2025-01-13 12:33:13.18	301.33	13.55	
2025-01-13 12:33:14.42	301.56	13.51	
2025-01-13 12:33:15.65	301.79	13.46	
2025-01-13 12:33:16.88	302.02	13.42	
2025-01-13 12:33:18.11	302.25	13.37	
2025-01-13 12:33:19.35	302.48	13.32	
2025-01-13 12:33:20.60	302.71	13.28	
2025-01-13 12:33:21.83	302.93	13.23	
2025-01-13 12:33:23.06	303.16	13.18	
2025-01-13 12:33:24.29	303.39	13.14	
2025-01-13 12:33:25.52	303.61	13.09	
2025-01-13 12:33:26.75	303.83	13.04	
2025-01-13 12:33:27.99	304.06	12.99	
2025-01-13 12:33:29.21	304.28	12.94	
2025-01-13 12:33:30.45	304.50	12.89	
2025-01-13 12:33:31.67	304.72	12.84	
2025-01-13 12:33:32.92	304.95	12.79	
2025-01-13 12:33:34.15	305.17	12.74	
2025-01-13 12:33:35.38	305.38	12.69	
2025-01-13 12:33:36.61	305.60	12.64	
2025-01-13 12:33:37.86	305.82	12.59	
2025-01-13 12:33:39.09	306.04	12.54	
2025-01-13 12:33:40.32	306.26	12.49	
2025-01-13 12:33:41.55	306.47	12.44	
2025-01-13 12:33:42.78	306.69	12.39	
2025-01-13 12:33:44.01	306.90	12.33	
2025-01-13 12:33:45.25	307.11	12.28	
2025-01-13 12:33:46.49	307.33	12.23	
2025-01-13 12:33:47.73	307.54	12.18	
2025-01-13 12:33:48.97	307.75	12.12	
2025-01-13 12:33:50.21	307.96	12.07	
2025-01-13 12:33:51.45	308.18	12.01	
2025-01-13 12:33:52.68	308.38	11.96	
2025-01-13 12:33:53.91	308.59	11.91	
2025-01-13 12:33:55.14	308.80	11.85	
2025-01-13 12:33:56.37	309.00	11.80	
2025-01-13 12:33:57.61	309.21	11.74	
2025-01-13 12:33:58.85	309.42	11.69	
2025-01-13 12:34:00.09	309.62	11.63	
2025-01-13 12:34:01.35	309.83	11.58	
2025-01-13 12:34:02.58	310.03	11.52	
2025-01-13 12:34:03.81	310.24	11.47	
2025-01-13 12:34:05.05	310.44	11.41	
2025-01-13 12:34:06.30	310.64	11.35	
2025-01-13 12:34:07.52	310.84	11.30	
2025-01-13 12:34:08.75	311.04	11.24	
2025-01-13 12:34:09.98	311.24	11.19	
2025-01-13 12:34:11.22	311.44	11.13	
2025-01-13 12:34:12.46	311.63	11.07	
2025-01-13 12:34:13.69	311.83	11.02	
2025-01-13 12:34:14.92	312.02	10.96	
2025-01-13 12:34:16.16	312.22	10.90	
2025-01-13 12:34:17.39	312.41	10.84	
2025-01-13 12:34:18.62	312.61	10.79	
2025-01-13 12:34:19.85	312.80	10.73	
2025-01-13 12:34:21.10	312.99	10.67	
2025-01-13 12:34:22.34	313.19	10.61	
2025-01-13 12:34:23.57	313.38	10.55	
2025-01-13 12:34:24.80	313.56	10.49	
2025-01-13 12:34:26.03	313.75	10.44	
2025-01-13 12:34:27.26	313.94	10.38	
2025-01-13 12:34:28.49	314.13	10.32	
2025-01-13 12:34:29.72	314.31	10.26	
2025-01-13 12:34:30.95	314.50	10.20	
2025-01-13 12:34:32.19	314.69	10.14	
2025-01-13 12:34:33.44	314.87	10.08	
2025-01-13 12:34:34.67	315.06	10.02	
2025-01-13 12:34:35.90	315.24	9.96	
2025-01-13 12:34:37.13	315.42	9.90	
2025-01-13 12:34:38.38	315.60	9.84	
2025-01-13 12:34:39.61	315.78	9.78	
2025-01-13 12:34:40.85	315.97	9.72	
2025-01-13 12:34:42.08	316.15	9.66	
2025-01-13 12:34:43.31	316.32	9.61	
2025-01-13 12:34:44.54	316.50	9.55	
2025-01-13 12:34:45.77	316.68	9.49	
2025-01-13 12:34:47.00	316.85	9.42	
2025-01-13 12:34:48.25	317.03	9.36	
2025-01-13 12:34:49.47	317.21	9.30	
2025-01-13 12:34:50.70	317.38	9.24	
2025-01-13 12:34:51.94	317.55	9.18	
2025-01-13 12:34:53.18	317.73	9.12	
2025-01-13 12:34:54.40	317.90	9.06	
2025-01-13 12:34:55.63	318.07	9.00	
2025-01-13 12:34:56.87	318.24	8.94	
2025-01-13 12:34:58.10	318.41	8.88	
2025-01-13 12:34:59.33	318.58	8.82	
2025-01-13 12:35:00.57	318.75	8.76	
2025-01-13 12:35:01.81	318.92	8.69	
2025-01-13 12:35:03.04	319.09	8.63	
2025-01-13 12:35:04.27	319.25	8.57	
2025-01-13 12:35:05.50	319.42	8.51	
2025-01-13 12:35:06.74	319.59	8.45	
2025-01-13 12:35:07.97	319.75	8.39	
2025-01-13 12:35:09.19	319.91	8.33	
2025-01-13 12:35:10.42	320.08	8.27	
2025-01-13 12:35:11.65	320.24	8.20	
2025-01-13 12:35:12.88	320.40	8.14	
2025-01-13 12:35:14.11	320.56	8.08	
2025-01-13 12:35:15.34	320.72	8.02	
2025-01-13 12:35:16.58	320.88	7.96	
2025-01-13 12:35:17.80	321.04	7.90	
2025-01-13 12:35:19.03	321.20	7.84	
2025-01-13 12:35:20.28	321.36	7.77	
2025-01-13 12:35:21.51	321.52	7.71	
2025-01-13 12:35:22.75	321.68	7.65	
2025-01-13 12:35:23.98	321.83	7.59	
2025-01-13 12:35:25.21	321.99	7.53	
2025-01-13 12:35:26.45	322.14	7.46	
2025-01-13 12:35:27.68	322.30	7.40	
2025-01-13 12:35:28.91	322.45	7.34	
2025-01-13 12:35:30.14	322.60	7.28	
2025-01-13 12:35:31.37	322.76	7.22	
2025-01-13 12:35:32.61	322.91	7.15	
2025-01-13 12:35:33.84	323.06	7.09	
2025-01-13 12:35:35.07	323.21	7.03	
2025-01-13 12:35:36.30	323.36	6.97	
2025-01-13 12:35:37.53	323.51	6.91	
2025-01-13 12:35:38.76	323.66	6.84	
2025-01-13 12:35:39.99	323.81	6.78	
2025-01-13 12:35:41.22	323.95	6.72	
2025-01-13 12:35:42.46	324.10	6.66	
2025-01-13 12:35:43.71	324.25	6.59	
2025-01-13 12:35:44.94	324.39	6.53	
2025-01-13 12:35:46.17	324.54	6.47	
2025-01-13 12:35:47.40	324.68	6.41	
2025-01-13 12:35:48.63	324.83	6.35	
2025-01-13 12:35:49.86	324.97	6.28	
2025-01-13 12:35:51.11	325.12	6.22	
2025-01-13 12:35:52.35	325.26	6.16	
2025-01-13 12:35:53.60	325.40	6.10	
2025-01-13 12:35:54.84	325.54	6.03	
2025-01-13 12:35:56.07	325.68	5.97	
2025-01-13 12:35:57.30	325.82	5.91	
2025-01-13 12:35:58.53	325.96	5.85	
2025-01-13 12:35:59.78	326.10	5.78	
2025-01-13 12:36:01.00	326.24	5.72	
2025-01-13 12:36:02.23	326.38	5.66	
2025-01-13 12:36:03.47	326.52	5.60	
2025-01-13 12:36:04.69	326.65	5.54	
2025-01-13 12:36:05.94	326.79	5.47	
2025-01-13 12:36:07.19	326.93	5.41	
2025-01-13 12:36:08.42	327.06	5.35	
2025-01-13 12:36:09.65	327.20	5.29	
2025-01-13 12:36:10.88	327.33	5.23	
2025-01-13 12:36:12.11	327.46	5.16	
2025-01-13 12:36:13.34	327.59	5.10	
2025-01-13 12:36:14.57	327.73	5.04	
2025-01-13 12:36:15.82	327.86	4.98	
2025-01-13 12:36:17.05	327.99	4.92	
2025-01-13 12:36:18.27	328.12	4.86	
2025-01-13 12:36:19.51	328.25	4.79	
2025-01-13 12:36:20.74	328.38	4.73	
2025-01-13 12:36:21.98	328.51	4.67	
2025-01-13 12:36:23.22	328.64	4.61	
2025-01-13 12:36:24.45	328.77	4.55	
2025-01-13 12:36:25.68	328.89	4.48	
2025-01-13 12:36:26.91	329.02	4.42	
2025-01-13 12:36:28.15	329.15	4.36	
2025-01-13 12:36:29.38	329.27	4.30	
2025-01-13 12:36:30.62	329.40	4.24	
2025-01-13 12:36:31.84	329.52	4.18	
2025-01-13 12:36:33.09	329.65	4.11	
2025-01-13 12:36:34.32	329.77	4.05	

#Closed at: 2025-01-13 12:36:35