passes_logs/2025/01/24/planumMaritime01/planumMaritime01__20250124_073438_NOAA_18_rec.log

#Pass ID: 20250124_073438_NOAA 18
#Satellite: NOAA 18
#Configuration: NOAA 18
#Start time: 2025-01-24 07:34:43.426446

#LorettStation: 1.0.0 05.05.2024
#Station: planumMaritime01
#Location: 37.49445 lon 55.92918 lat
#TLE: 1 28654U 05018A   25023.79872758  .00000470  00000+0  27266-3 0  9990
#TLE: 2 28654  98.8553 104.7652 0014753 154.7972 205.3923 14.13495354 14429

#Time	Az	El	Level	SNR
2025-01-24 07:34:45.586013	37.1	10.1	-74.4	0.0
2025-01-24 07:34:47.831397	37.4	10.3	-74.8	0.0
2025-01-24 07:34:50.074362	37.6	10.4	-74.8	0.0
2025-01-24 07:34:52.321626	37.9	10.6	-74.8	0.0
2025-01-24 07:34:54.565093	38.2	10.7	-74.8	0.0
2025-01-24 07:34:56.812052	38.4	10.9	-74.7	0.0
2025-01-24 07:34:59.058169	38.7	11.0	-74.8	0.0
2025-01-24 07:35:01.304796	39.0	11.2	-75.1	0.0
2025-01-24 07:35:03.553259	39.3	11.3	-75.4	0.0
2025-01-24 07:35:05.800077	39.6	11.5	-75.0	0.0
2025-01-24 07:35:08.047501	39.8	11.6	-74.9	0.0
2025-01-24 07:35:10.291213	40.1	11.8	-74.9	0.0
2025-01-24 07:35:12.537402	40.4	11.9	-74.6	0.0
2025-01-24 07:35:14.781693	40.7	12.1	-75.1	0.0
2025-01-24 07:35:17.028078	41.0	12.2	-74.7	0.0
2025-01-24 07:35:19.271739	41.3	12.4	-74.9	0.0
2025-01-24 07:35:21.517094	41.6	12.5	-74.9	0.0
2025-01-24 07:35:23.765669	41.9	12.7	-75.0	0.0
2025-01-24 07:35:26.009490	42.2	12.8	-75.1	0.0
2025-01-24 07:35:28.254862	42.6	13.0	-74.7	0.0
2025-01-24 07:35:30.502408	42.9	13.1	-75.4	0.0
2025-01-24 07:35:32.747673	43.2	13.3	-75.0	0.0
2025-01-24 07:35:34.992400	43.5	13.4	-75.3	0.0
2025-01-24 07:35:37.243869	43.8	13.6	-75.2	0.0
2025-01-24 07:35:39.493412	44.2	13.7	-74.9	0.0
2025-01-24 07:35:41.740148	44.5	13.9	-74.9	0.0
2025-01-24 07:35:43.984325	44.8	14.0	-74.9	0.0
2025-01-24 07:35:46.230805	45.2	14.2	-75.4	0.0
2025-01-24 07:35:48.476510	45.5	14.3	-75.0	0.0
2025-01-24 07:35:50.722920	45.9	14.5	-75.3	0.0
2025-01-24 07:35:52.967452	46.2	14.7	-75.2	0.0
2025-01-24 07:35:55.212808	46.6	14.8	-74.8	0.0
2025-01-24 07:35:57.460401	46.9	15.0	-75.3	0.0
2025-01-24 07:35:59.708729	47.3	15.1	-75.6	0.0
2025-01-24 07:36:01.955436	47.7	15.3	-75.6	0.0
2025-01-24 07:36:04.201254	48.0	15.4	-75.3	0.0
2025-01-24 07:36:06.448042	48.4	15.6	-75.7	0.0
2025-01-24 07:36:08.692853	48.8	15.7	-75.5	0.0
2025-01-24 07:36:10.939026	49.1	15.9	-75.4	0.0
2025-01-24 07:36:13.181665	49.5	16.0	-75.7	0.0
2025-01-24 07:36:15.430300	49.9	16.2	-75.9	0.0
2025-01-24 07:36:17.677646	50.3	16.3	-75.7	0.0
2025-01-24 07:36:19.925448	50.7	16.5	-75.5	0.0
2025-01-24 07:36:22.171534	51.1	16.6	-75.8	0.0
2025-01-24 07:36:24.414355	51.5	16.8	-75.3	0.0
2025-01-24 07:36:26.662019	51.9	16.9	-75.1	0.0
2025-01-24 07:36:28.907894	52.3	17.1	-75.8	0.0
2025-01-24 07:36:31.154276	52.7	17.2	-75.5	0.0
2025-01-24 07:36:33.403714	53.1	17.4	-75.1	0.0
2025-01-24 07:36:35.650843	53.6	17.5	-75.7	0.0
2025-01-24 07:36:37.897502	54.0	17.7	-75.4	0.0
2025-01-24 07:36:40.144203	54.4	17.8	-75.9	0.0
2025-01-24 07:36:42.387904	54.8	18.0	-75.6	0.0
2025-01-24 07:36:44.633782	55.3	18.1	-75.3	0.0
2025-01-24 07:36:46.882580	55.7	18.2	-75.6	0.0
2025-01-24 07:36:49.128925	56.2	18.4	-75.8	0.0
2025-01-24 07:36:51.377904	56.6	18.5	-75.1	0.0
2025-01-24 07:36:53.623805	57.1	18.7	-75.7	0.0
2025-01-24 07:36:55.868503	57.5	18.8	-75.8	0.0
2025-01-24 07:36:58.114173	58.0	18.9	-75.4	0.0
2025-01-24 07:37:00.360094	58.5	19.1	-75.4	0.0
2025-01-24 07:37:02.607598	58.9	19.2	-75.7	0.0
2025-01-24 07:37:04.853357	59.4	19.4	-75.6	0.0
2025-01-24 07:37:07.100722	59.9	19.5	-76.0	0.0
2025-01-24 07:37:09.343784	60.4	19.6	-76.0	0.0
2025-01-24 07:37:11.589400	60.9	19.8	-75.7	0.0
2025-01-24 07:37:13.832484	61.3	19.9	-75.7	0.0
2025-01-24 07:37:16.076305	61.8	20.0	-75.8	0.0
2025-01-24 07:37:18.321499	62.3	20.1	-75.7	0.0
2025-01-24 07:37:20.568208	62.8	20.3	-75.5	0.0
2025-01-24 07:37:22.815488	63.3	20.4	-75.3	0.0
2025-01-24 07:37:25.060135	63.9	20.5	-74.7	0.0
2025-01-24 07:37:27.305715	64.4	20.6	-75.5	0.0
2025-01-24 07:37:29.551039	64.9	20.8	-75.8	0.0
2025-01-24 07:37:31.795601	65.4	20.9	-75.8	0.0
2025-01-24 07:37:34.038696	65.9	21.0	-75.9	0.0
2025-01-24 07:37:36.281907	66.5	21.1	-75.9	0.0
2025-01-24 07:37:38.528923	67.0	21.2	-75.7	0.0
2025-01-24 07:37:40.775287	67.5	21.3	-75.3	0.0
2025-01-24 07:37:43.024010	68.1	21.4	-75.7	0.0
2025-01-24 07:37:45.270471	68.6	21.6	-75.6	0.0
2025-01-24 07:37:47.517521	69.2	21.7	-75.8	0.0
2025-01-24 07:37:49.763806	69.7	21.8	-75.8	0.0
2025-01-24 07:37:52.006314	70.3	21.9	-75.8	0.0
2025-01-24 07:37:54.249394	70.9	22.0	-75.6	0.0
2025-01-24 07:37:56.496200	71.4	22.0	-75.8	0.0
2025-01-24 07:37:58.743423	72.0	22.1	-75.3	0.0
2025-01-24 07:38:00.988672	72.6	22.2	-75.9	0.0
2025-01-24 07:38:03.235857	73.1	22.3	-75.9	0.0
2025-01-24 07:38:05.482242	73.7	22.4	-74.9	0.0
2025-01-24 07:38:07.726275	74.3	22.5	-75.4	0.0
2025-01-24 07:38:09.971983	74.9	22.6	-75.3	0.0
2025-01-24 07:38:12.219880	75.5	22.6	-75.3	0.0
2025-01-24 07:38:14.465973	76.0	22.7	-75.3	0.0
2025-01-24 07:38:16.713130	76.6	22.8	-75.2	0.0
2025-01-24 07:38:18.957354	77.2	22.9	-75.3	0.0
2025-01-24 07:38:21.203517	77.8	22.9	-75.5	0.0
2025-01-24 07:38:23.450369	78.4	23.0	-75.1	0.0
2025-01-24 07:38:25.698096	79.0	23.0	-75.7	0.0
2025-01-24 07:38:27.946162	79.6	23.1	-75.6	0.0
2025-01-24 07:38:30.194391	80.2	23.1	-75.2	0.0
2025-01-24 07:38:32.440300	80.8	23.2	-75.5	0.0
2025-01-24 07:38:34.686300	81.5	23.2	-75.4	0.0
2025-01-24 07:38:36.932649	82.1	23.3	-75.9	0.0
2025-01-24 07:38:39.176974	82.7	23.3	-75.6	0.0
2025-01-24 07:38:41.421301	83.3	23.4	-75.5	0.0
2025-01-24 07:38:43.666211	83.9	23.4	-75.7	0.0
2025-01-24 07:38:45.908550	84.5	23.4	-75.2	0.0
2025-01-24 07:38:48.155322	85.1	23.4	-75.6	0.0
2025-01-24 07:38:50.402712	85.8	23.5	-75.3	0.0
2025-01-24 07:38:52.647535	86.4	23.5	-75.4	0.0
2025-01-24 07:38:54.896133	87.0	23.5	-75.8	0.0
2025-01-24 07:38:57.141488	87.6	23.5	-75.6	0.0
2025-01-24 07:38:59.387582	88.2	23.5	-75.6	0.0
2025-01-24 07:39:01.635268	88.9	23.5	-75.5	0.0
2025-01-24 07:39:03.881551	89.5	23.5	-76.1	0.0
2025-01-24 07:39:06.127930	90.1	23.5	-75.2	0.0
2025-01-24 07:39:08.373025	90.7	23.5	-75.9	0.0
2025-01-24 07:39:10.616167	91.4	23.5	-75.4	0.0
2025-01-24 07:39:12.862826	92.0	23.5	-75.6	0.0
2025-01-24 07:39:15.108295	92.6	23.5	-75.4	0.0
2025-01-24 07:39:17.355432	93.2	23.5	-76.0	0.0
2025-01-24 07:39:19.601307	93.8	23.5	-75.6	0.0
2025-01-24 07:39:21.847719	94.5	23.4	-75.7	0.0
2025-01-24 07:39:24.094925	95.1	23.4	-74.9	0.0
2025-01-24 07:39:26.344720	95.7	23.4	-75.3	0.0
2025-01-24 07:39:28.592799	96.3	23.3	-75.8	0.0
2025-01-24 07:39:30.837944	96.9	23.3	-75.4	0.0
2025-01-24 07:39:33.085551	97.5	23.3	-75.7	0.0
2025-01-24 07:39:35.331587	98.2	23.2	-75.4	0.0
2025-01-24 07:39:37.577850	98.8	23.2	-75.4	0.0
2025-01-24 07:39:39.824182	99.4	23.1	-75.5	0.0
2025-01-24 07:39:42.071310	100.0	23.0	-75.4	0.0
2025-01-24 07:39:44.318500	100.6	23.0	-75.8	0.0
2025-01-24 07:39:46.563686	101.2	22.9	-75.3	0.0
2025-01-24 07:39:48.809339	101.8	22.9	-75.4	0.0
2025-01-24 07:39:51.054337	102.4	22.8	-75.5	0.0
2025-01-24 07:39:53.298384	103.0	22.7	-75.5	0.0
2025-01-24 07:39:55.547434	103.6	22.7	-75.5	0.0
2025-01-24 07:39:57.795437	104.2	22.6	-75.5	0.0
2025-01-24 07:40:00.037774	104.7	22.5	-75.8	0.0
2025-01-24 07:40:02.283433	105.3	22.4	-75.8	0.0
2025-01-24 07:40:04.529031	105.9	22.3	-75.8	0.0
2025-01-24 07:40:06.776786	106.5	22.2	-75.6	0.0
2025-01-24 07:40:09.022814	107.1	22.2	-75.0	0.0
2025-01-24 07:40:11.268073	107.6	22.1	-75.7	0.0
2025-01-24 07:40:13.511364	108.2	22.0	-75.5	0.0
2025-01-24 07:40:15.758019	108.8	21.9	-75.9	0.0
2025-01-24 07:40:18.003806	109.3	21.8	-75.6	0.0
2025-01-24 07:40:20.251294	109.9	21.7	-75.9	0.0
2025-01-24 07:40:22.495883	110.4	21.6	-75.7	0.0
2025-01-24 07:40:24.742250	111.0	21.5	-75.7	0.0
2025-01-24 07:40:26.987153	111.5	21.3	-75.8	0.0
2025-01-24 07:40:29.231781	112.1	21.2	-75.8	0.0
2025-01-24 07:40:31.476902	112.6	21.1	-75.6	0.0
2025-01-24 07:40:33.722080	113.1	21.0	-75.9	0.0
2025-01-24 07:40:35.965024	113.7	20.9	-75.6	0.0
2025-01-24 07:40:38.212017	114.2	20.8	-74.8	0.0
2025-01-24 07:40:40.458200	114.7	20.7	-74.8	0.0
2025-01-24 07:40:42.702230	115.2	20.5	-75.3	0.0
2025-01-24 07:40:44.948000	115.8	20.4	-75.7	0.0
2025-01-24 07:40:47.196132	116.3	20.3	-75.1	0.0
2025-01-24 07:40:49.441755	116.8	20.2	-75.1	0.0
2025-01-24 07:40:51.689254	117.3	20.0	-75.2	0.0
2025-01-24 07:40:53.937438	117.8	19.9	-75.2	0.0
2025-01-24 07:40:56.180497	118.3	19.8	-75.8	0.0
2025-01-24 07:40:58.425417	118.8	19.6	-75.6	0.0
2025-01-24 07:41:00.675864	119.2	19.5	-75.4	0.0
2025-01-24 07:41:02.925688	119.7	19.4	-75.8	0.0
2025-01-24 07:41:05.173294	120.2	19.2	-75.9	0.0
2025-01-24 07:41:07.420568	120.7	19.1	-75.7	0.0
2025-01-24 07:41:09.669464	121.2	18.9	-75.7	0.0
2025-01-24 07:41:11.913758	121.6	18.8	-75.4	0.0
2025-01-24 07:41:14.160507	122.1	18.7	-75.6	0.0
2025-01-24 07:41:16.406098	122.5	18.5	-76.1	0.0
2025-01-24 07:41:18.650442	123.0	18.4	-75.7	0.0
2025-01-24 07:41:20.896967	123.4	18.2	-75.3	0.0
2025-01-24 07:41:23.142853	123.9	18.1	-75.5	0.0
2025-01-24 07:41:25.385609	124.3	17.9	-75.4	0.0
2025-01-24 07:41:27.634275	124.8	17.8	-75.9	0.0
2025-01-24 07:41:29.880497	125.2	17.6	-75.8	0.0
2025-01-24 07:41:32.126242	125.6	17.5	-75.6	0.0
2025-01-24 07:41:34.370717	126.0	17.3	-75.5	0.0
2025-01-24 07:41:36.619109	126.5	17.2	-75.7	0.0
2025-01-24 07:41:38.865583	126.9	17.0	-75.7	0.0
2025-01-24 07:41:41.113465	127.3	16.9	-75.8	0.0
2025-01-24 07:41:43.356713	127.7	16.7	-75.9	0.0
2025-01-24 07:41:45.605991	128.1	16.6	-76.2	0.0
2025-01-24 07:41:47.849962	128.5	16.4	-75.8	0.0
2025-01-24 07:41:50.094157	128.9	16.3	-75.9	0.0
2025-01-24 07:41:52.336087	129.3	16.1	-76.3	0.0
2025-01-24 07:41:54.581138	129.7	16.0	-76.0	0.0
2025-01-24 07:41:56.828684	130.1	15.8	-75.9	0.0
2025-01-24 07:41:59.073885	130.4	15.7	-75.9	0.0
2025-01-24 07:42:01.321118	130.8	15.5	-75.9	0.0
2025-01-24 07:42:03.567022	131.2	15.4	-75.5	0.0
2025-01-24 07:42:05.814559	131.6	15.2	-76.0	0.0
2025-01-24 07:42:08.062397	131.9	15.1	-75.6	0.0
2025-01-24 07:42:10.307436	132.3	14.9	-75.6	0.0
2025-01-24 07:42:12.554949	132.7	14.7	-76.1	0.0
2025-01-24 07:42:14.802860	133.0	14.6	-75.4	0.0
2025-01-24 07:42:17.047354	133.4	14.4	-75.0	0.0
2025-01-24 07:42:19.297250	133.7	14.3	-76.0	0.0
2025-01-24 07:42:21.544317	134.1	14.1	-75.6	0.0
2025-01-24 07:42:23.792736	134.4	14.0	-75.8	0.0
2025-01-24 07:42:26.037731	134.7	13.8	-75.5	0.0
2025-01-24 07:42:28.283218	135.1	13.7	-75.8	0.0
2025-01-24 07:42:30.531202	135.4	13.5	-76.0	0.0
2025-01-24 07:42:32.778241	135.7	13.4	-75.8	0.0
2025-01-24 07:42:35.024338	136.1	13.2	-75.7	0.0
2025-01-24 07:42:37.273544	136.4	13.1	-75.6	0.0
2025-01-24 07:42:39.520520	136.7	12.9	-75.8	0.0
2025-01-24 07:42:41.766716	137.0	12.7	-75.8	0.0
2025-01-24 07:42:44.012440	137.3	12.6	-75.5	0.0
2025-01-24 07:42:46.256264	137.6	12.4	-76.0	0.0
2025-01-24 07:42:48.503183	137.9	12.3	-75.1	0.0
2025-01-24 07:42:50.747364	138.2	12.1	-75.8	0.0
2025-01-24 07:42:52.988949	138.5	12.0	-75.7	0.0
2025-01-24 07:42:55.232527	138.8	11.8	-75.7	0.0
2025-01-24 07:42:57.478968	139.1	11.7	-75.8	0.0
2025-01-24 07:42:59.726114	139.4	11.5	-75.6	0.0
2025-01-24 07:43:01.972093	139.7	11.4	-75.6	0.0
2025-01-24 07:43:04.215894	140.0	11.2	-75.2	0.0
2025-01-24 07:43:06.461700	140.3	11.1	-75.7	0.0
2025-01-24 07:43:08.706790	140.6	10.9	-75.1	0.0
2025-01-24 07:43:10.953191	140.8	10.8	-75.4	0.0
2025-01-24 07:43:13.199791	141.1	10.6	-75.2	0.0
2025-01-24 07:43:15.444590	141.4	10.5	-75.5	0.0
2025-01-24 07:43:17.688212	141.7	10.3	-75.7	0.0
2025-01-24 07:43:19.934328	141.9	10.2	-75.5	0.0
2025-01-24 07:43:22.181669	142.2	10.0	-75.5	0.0
#Closed at: 2025-01-24 07:34:38.428277