passes_logs/2025/01/24/planumMaritime01/planumMaritime01__20250124_161722_METEOR-M2_3_rec.log

#Pass ID: 20250124_161722_METEOR-M2 3
#Satellite: METEOR-M2 3
#Configuration: METEOR-M2 3
#Start time: 2025-01-24 16:17:27.613878

#LorettStation: 1.0.0 05.05.2024
#Station: planumMaritime01
#Location: 37.49445 lon 55.92918 lat
#TLE: 1 57166U 23091A   25023.82634034  .00000085  00000+0  56339-4 0  9994
#TLE: 2 57166  98.6836  82.1812 0003643 195.3672 164.7397 14.23971493 82020

#Time	Az	El	Level	SNR
2025-01-24 16:17:29.777796	106.0	10.2	-75.2	0.0
2025-01-24 16:17:30.901270	105.9	10.2	-75.7	0.0
2025-01-24 16:17:32.026445	105.8	10.3	-75.7	0.0
2025-01-24 16:17:33.147781	105.6	10.4	-75.2	0.0
2025-01-24 16:17:34.273942	105.5	10.5	-76.0	0.0
2025-01-24 16:17:35.396716	105.4	10.6	-75.7	0.0
2025-01-24 16:17:36.517955	105.2	10.6	-76.3	0.0
2025-01-24 16:17:37.641568	105.1	10.7	-76.3	0.0
2025-01-24 16:17:38.764742	105.0	10.8	-75.7	0.0
2025-01-24 16:17:39.887515	104.9	10.9	-76.2	0.0
2025-01-24 16:17:41.008838	104.7	11.0	-77.6	0.0
2025-01-24 16:17:42.132591	104.6	11.0	-76.8	0.0
2025-01-24 16:17:43.255865	104.5	11.1	-76.2	0.0
2025-01-24 16:17:44.378084	104.3	11.2	-75.6	0.0
2025-01-24 16:17:45.502042	104.2	11.3	-77.6	0.0
2025-01-24 16:17:46.625060	104.1	11.4	-77.1	0.0
2025-01-24 16:17:47.748816	103.9	11.4	-77.4	0.0
2025-01-24 16:17:48.870547	103.8	11.5	-76.1	0.0
2025-01-24 16:17:49.997102	103.7	11.6	-77.3	0.0
2025-01-24 16:17:51.121279	103.5	11.7	-76.4	0.0
2025-01-24 16:17:52.245874	103.4	11.8	-76.4	0.0
2025-01-24 16:17:53.368629	103.3	11.8	-76.4	0.0
2025-01-24 16:17:54.491509	103.1	11.9	-76.6	0.0
2025-01-24 16:17:55.614400	103.0	12.0	-76.2	0.0
2025-01-24 16:17:56.737214	102.8	12.1	-75.9	0.0
2025-01-24 16:17:57.860682	102.7	12.2	-76.0	0.0
2025-01-24 16:17:58.983809	102.6	12.3	-75.8	0.0
2025-01-24 16:18:00.108390	102.4	12.3	-75.5	0.0
2025-01-24 16:18:01.231022	102.3	12.4	-75.4	0.0
2025-01-24 16:18:02.353247	102.1	12.5	-76.6	0.0
2025-01-24 16:18:03.477124	102.0	12.6	-76.3	0.0
2025-01-24 16:18:04.598941	101.8	12.7	-77.8	0.0
2025-01-24 16:18:05.721734	101.7	12.8	-76.4	0.0
2025-01-24 16:18:06.844312	101.5	12.8	-76.5	0.0
2025-01-24 16:18:07.966212	101.4	12.9	-76.4	0.0
2025-01-24 16:18:09.089624	101.2	13.0	-76.6	0.0
2025-01-24 16:18:10.212366	101.1	13.1	-76.5	0.0
2025-01-24 16:18:11.334191	100.9	13.2	-76.3	0.0
2025-01-24 16:18:12.455831	100.8	13.3	-75.6	0.0
2025-01-24 16:18:13.580356	100.6	13.3	-76.4	0.0
2025-01-24 16:18:14.704810	100.5	13.4	-76.4	0.0
2025-01-24 16:18:15.826201	100.3	13.5	-76.7	0.0
2025-01-24 16:18:16.949534	100.2	13.6	-77.0	0.0
2025-01-24 16:18:18.073333	100.0	13.7	-76.2	0.0
2025-01-24 16:18:19.198363	99.9	13.8	-76.2	0.0
2025-01-24 16:18:20.319391	99.7	13.8	-76.3	0.0
2025-01-24 16:18:21.445764	99.5	13.9	-76.4	0.0
2025-01-24 16:18:22.567882	99.4	14.0	-76.3	0.0
2025-01-24 16:18:23.691827	99.2	14.1	-76.7	0.0
2025-01-24 16:18:24.815592	99.1	14.2	-76.1	0.0
2025-01-24 16:18:25.938556	98.9	14.3	-77.1	0.0
2025-01-24 16:18:27.059846	98.7	14.4	-76.3	0.0
2025-01-24 16:18:28.185469	98.6	14.4	-76.7	0.0
2025-01-24 16:18:29.307790	98.4	14.5	-76.2	0.0
2025-01-24 16:18:30.430486	98.2	14.6	-77.6	0.0
2025-01-24 16:18:31.554045	98.1	14.7	-75.8	0.0
2025-01-24 16:18:32.678078	97.9	14.8	-76.9	0.0
2025-01-24 16:18:33.800928	97.7	14.9	-76.4	0.0
2025-01-24 16:18:34.924010	97.5	14.9	-76.6	0.0
2025-01-24 16:18:36.049218	97.4	15.0	-75.8	0.0
2025-01-24 16:18:37.170696	97.2	15.1	-76.4	0.0
2025-01-24 16:18:38.293194	97.0	15.2	-75.9	0.0
2025-01-24 16:18:39.415600	96.9	15.3	-76.1	0.0
2025-01-24 16:18:40.541403	96.7	15.4	-74.7	0.0
2025-01-24 16:18:41.664738	96.5	15.5	-75.6	0.0
2025-01-24 16:18:42.788693	96.3	15.5	-75.5	0.0
2025-01-24 16:18:43.910474	96.1	15.6	-75.9	0.0
2025-01-24 16:18:45.034262	96.0	15.7	-75.3	0.0
2025-01-24 16:18:46.156346	95.8	15.8	-75.9	0.0
2025-01-24 16:18:47.280576	95.6	15.9	-76.0	0.0
2025-01-24 16:18:48.405717	95.4	16.0	-73.8	0.0
2025-01-24 16:18:49.528008	95.2	16.1	-76.2	0.0
2025-01-24 16:18:50.650881	95.0	16.1	-75.9	0.0
2025-01-24 16:18:51.773325	94.9	16.2	-76.3	0.0
2025-01-24 16:18:52.897834	94.7	16.3	-76.0	0.0
2025-01-24 16:18:54.021328	94.5	16.4	-75.7	0.0
2025-01-24 16:18:55.145119	94.3	16.5	-76.2	0.0
2025-01-24 16:18:56.266458	94.1	16.6	-76.4	0.0
2025-01-24 16:18:57.390660	93.9	16.7	-76.0	0.0
2025-01-24 16:18:58.513804	93.7	16.7	-76.4	0.0
2025-01-24 16:18:59.634278	93.5	16.8	-76.4	0.0
2025-01-24 16:19:00.754934	93.3	16.9	-76.8	0.0
2025-01-24 16:19:01.878901	93.1	17.0	-77.3	0.0
2025-01-24 16:19:03.001312	92.9	17.1	-76.6	0.0
2025-01-24 16:19:04.121545	92.7	17.2	-77.6	0.0
2025-01-24 16:19:05.242300	92.5	17.2	-76.6	0.0
2025-01-24 16:19:06.365044	92.3	17.3	-76.4	0.0
2025-01-24 16:19:07.489183	92.1	17.4	-77.1	0.0
2025-01-24 16:19:08.613426	91.9	17.5	-77.2	0.0
2025-01-24 16:19:09.735409	91.7	17.6	-76.9	0.0
2025-01-24 16:19:10.858749	91.5	17.7	-77.1	0.0
2025-01-24 16:19:11.981374	91.3	17.8	-77.5	0.0
2025-01-24 16:19:13.107188	91.1	17.8	-77.3	0.0
2025-01-24 16:19:14.229086	90.9	17.9	-76.9	0.0
2025-01-24 16:19:15.352793	90.7	18.0	-76.8	0.0
2025-01-24 16:19:16.474264	90.5	18.1	-77.8	0.0
2025-01-24 16:19:17.595232	90.3	18.2	-76.9	0.0
2025-01-24 16:19:18.718919	90.1	18.3	-76.8	0.0
2025-01-24 16:19:19.840789	89.8	18.3	-76.2	0.0
2025-01-24 16:19:20.964803	89.6	18.4	-77.8	0.0
2025-01-24 16:19:22.085947	89.4	18.5	-77.8	0.0
2025-01-24 16:19:23.208262	89.2	18.6	-77.2	0.0
2025-01-24 16:19:24.329165	89.0	18.7	-77.1	0.0
2025-01-24 16:19:25.454802	88.7	18.8	-77.0	0.0
2025-01-24 16:19:26.576992	88.5	18.8	-77.0	0.0
2025-01-24 16:19:27.700293	88.3	18.9	-77.5	0.0
2025-01-24 16:19:28.821819	88.1	19.0	-77.6	0.0
2025-01-24 16:19:29.944171	87.8	19.1	-76.7	0.0
2025-01-24 16:19:31.068269	87.6	19.2	-77.9	0.0
2025-01-24 16:19:32.190426	87.4	19.3	-77.4	0.0
2025-01-24 16:19:33.312917	87.2	19.3	-76.1	0.0
2025-01-24 16:19:34.436963	86.9	19.4	-76.6	0.0
2025-01-24 16:19:35.560397	86.7	19.5	-77.2	0.0
2025-01-24 16:19:36.684554	86.5	19.6	-76.5	0.0
2025-01-24 16:19:37.807227	86.2	19.7	-77.6	0.0
2025-01-24 16:19:38.930595	86.0	19.7	-77.4	0.0
2025-01-24 16:19:40.053058	85.8	19.8	-77.0	0.0
2025-01-24 16:19:41.175221	85.5	19.9	-77.9	0.0
2025-01-24 16:19:42.298245	85.3	20.0	-77.4	0.0
2025-01-24 16:19:43.420731	85.0	20.1	-77.5	0.0
2025-01-24 16:19:44.541724	84.8	20.1	-76.6	0.0
2025-01-24 16:19:45.663946	84.6	20.2	-76.8	0.0
2025-01-24 16:19:46.785789	84.3	20.3	-76.5	0.0
2025-01-24 16:19:47.908997	84.1	20.4	-76.5	0.0
2025-01-24 16:19:49.031283	83.8	20.5	-77.0	0.0
2025-01-24 16:19:50.155917	83.6	20.5	-77.5	0.0
2025-01-24 16:19:51.279006	83.3	20.6	-77.6	0.0
2025-01-24 16:19:52.403018	83.1	20.7	-77.5	0.0
2025-01-24 16:19:53.526170	82.8	20.8	-77.9	0.0
2025-01-24 16:19:54.648555	82.6	20.8	-77.8	0.0
2025-01-24 16:19:55.771496	82.3	20.9	-77.5	0.0
2025-01-24 16:19:56.892391	82.1	21.0	-78.2	0.0
2025-01-24 16:19:58.016334	81.8	21.1	-77.4	0.0
2025-01-24 16:19:59.138920	81.5	21.1	-77.9	0.0
2025-01-24 16:20:00.262284	81.3	21.2	-77.7	0.0
2025-01-24 16:20:01.386073	81.0	21.3	-77.7	0.0
2025-01-24 16:20:02.509366	80.8	21.4	-77.6	0.0
2025-01-24 16:20:03.630447	80.5	21.4	-77.8	0.0
2025-01-24 16:20:04.753203	80.2	21.5	-77.1	0.0
2025-01-24 16:20:05.878263	80.0	21.6	-76.8	0.0
2025-01-24 16:20:06.999789	79.7	21.7	-76.5	0.0
2025-01-24 16:20:08.123826	79.4	21.7	-77.6	0.0
2025-01-24 16:20:09.248665	79.1	21.8	-77.4	0.0
2025-01-24 16:20:10.372159	78.9	21.9	-77.1	0.0
2025-01-24 16:20:11.495951	78.6	21.9	-77.7	0.0
2025-01-24 16:20:12.619366	78.3	22.0	-77.7	0.0
2025-01-24 16:20:13.743408	78.1	22.1	-77.6	0.0
2025-01-24 16:20:14.868896	77.8	22.1	-77.9	0.0
2025-01-24 16:20:15.989400	77.5	22.2	-78.0	0.0
2025-01-24 16:20:17.110783	77.2	22.3	-77.5	0.0
2025-01-24 16:20:18.232563	76.9	22.4	-77.5	0.0
2025-01-24 16:20:19.356000	76.7	22.4	-77.9	0.0
2025-01-24 16:20:20.477312	76.4	22.5	-77.6	0.0
2025-01-24 16:20:21.601177	76.1	22.5	-77.5	0.0
2025-01-24 16:20:22.724627	75.8	22.6	-77.8	0.0
2025-01-24 16:20:23.848045	75.5	22.7	-77.8	0.0
2025-01-24 16:20:24.970896	75.2	22.7	-78.0	0.0
2025-01-24 16:20:26.094361	75.0	22.8	-77.6	0.0
2025-01-24 16:20:27.215517	74.7	22.9	-77.8	0.0
2025-01-24 16:20:28.338457	74.4	22.9	-77.9	0.0
2025-01-24 16:20:29.462802	74.1	23.0	-77.7	0.0
2025-01-24 16:20:30.585721	73.8	23.0	-77.8	0.0
2025-01-24 16:20:31.706799	73.5	23.1	-77.9	0.0
2025-01-24 16:20:32.830340	73.2	23.2	-78.5	0.0
2025-01-24 16:20:33.956090	72.9	23.2	-77.9	0.0
2025-01-24 16:20:35.079320	72.6	23.3	-77.3	0.0
2025-01-24 16:20:36.203718	72.3	23.3	-76.9	0.0
2025-01-24 16:20:37.325379	72.0	23.4	-77.9	0.0
2025-01-24 16:20:38.449158	71.7	23.5	-77.7	0.0
2025-01-24 16:20:39.573479	71.4	23.5	-77.7	0.0
2025-01-24 16:20:40.697297	71.1	23.6	-78.0	0.0
2025-01-24 16:20:41.819641	70.8	23.6	-76.7	0.0
2025-01-24 16:20:42.943531	70.5	23.7	-78.2	0.0
2025-01-24 16:20:44.066915	70.2	23.7	-77.8	0.0
2025-01-24 16:20:45.190425	69.9	23.8	-77.5	0.0
2025-01-24 16:20:46.314273	69.6	23.8	-77.7	0.0
2025-01-24 16:20:47.438272	69.3	23.9	-77.8	0.0
2025-01-24 16:20:48.560603	69.0	23.9	-77.9	0.0
2025-01-24 16:20:49.682234	68.6	24.0	-77.6	0.0
2025-01-24 16:20:50.806350	68.3	24.0	-77.5	0.0
2025-01-24 16:20:51.928433	68.0	24.1	-78.1	0.0
2025-01-24 16:20:53.052703	67.7	24.1	-77.9	0.0
2025-01-24 16:20:54.175326	67.4	24.1	-77.7	0.0
2025-01-24 16:20:55.299937	67.1	24.2	-77.7	0.0
2025-01-24 16:20:56.423457	66.8	24.2	-77.7	0.0
2025-01-24 16:20:57.546497	66.4	24.3	-78.0	0.0
2025-01-24 16:20:58.670757	66.1	24.3	-78.0	0.0
2025-01-24 16:20:59.791614	65.8	24.4	-76.8	0.0
2025-01-24 16:21:00.915819	65.5	24.4	-77.3	0.0
2025-01-24 16:21:02.042115	65.2	24.4	-77.8	0.0
2025-01-24 16:21:03.164878	64.8	24.5	-77.7	0.0
2025-01-24 16:21:04.287875	64.5	24.5	-77.5	0.0
2025-01-24 16:21:05.412689	64.2	24.5	-77.7	0.0
2025-01-24 16:21:06.534376	63.9	24.6	-77.3	0.0
2025-01-24 16:21:07.657796	63.5	24.6	-77.5	0.0
2025-01-24 16:21:08.781719	63.2	24.6	-77.2	0.0
2025-01-24 16:21:09.906997	62.9	24.7	-77.1	0.0
2025-01-24 16:21:11.030586	62.6	24.7	-77.1	0.0
2025-01-24 16:21:12.155782	62.2	24.7	-77.7	0.0
2025-01-24 16:21:13.277815	61.9	24.8	-77.7	0.0
2025-01-24 16:21:14.403023	61.6	24.8	-77.6	0.0
2025-01-24 16:21:15.525072	61.3	24.8	-77.5	0.0
2025-01-24 16:21:16.647105	60.9	24.8	-77.6	0.0
2025-01-24 16:21:17.769003	60.6	24.9	-76.9	0.0
2025-01-24 16:21:18.892386	60.3	24.9	-77.8	0.0
2025-01-24 16:21:20.017382	59.9	24.9	-78.2	0.0
2025-01-24 16:21:21.137683	59.6	24.9	-77.8	0.0
2025-01-24 16:21:22.260589	59.3	25.0	-77.4	0.0
2025-01-24 16:21:23.385026	58.9	25.0	-77.7	0.0
2025-01-24 16:21:24.508924	58.6	25.0	-77.7	0.0
2025-01-24 16:21:25.632685	58.3	25.0	-78.1	0.0
2025-01-24 16:21:26.753583	58.0	25.0	-77.5	0.0
2025-01-24 16:21:27.876806	57.6	25.0	-77.5	0.0
2025-01-24 16:21:29.000947	57.3	25.1	-77.4	0.0
2025-01-24 16:21:30.122694	57.0	25.1	-77.3	0.0
2025-01-24 16:21:31.247003	56.6	25.1	-77.8	0.0
2025-01-24 16:21:32.371783	56.3	25.1	-77.4	0.0
2025-01-24 16:21:33.494090	55.9	25.1	-77.3	0.0
2025-01-24 16:21:34.618066	55.6	25.1	-77.8	0.0
2025-01-24 16:21:35.741085	55.3	25.1	-76.6	0.0
2025-01-24 16:21:36.865744	54.9	25.1	-77.7	0.0
2025-01-24 16:21:37.989672	54.6	25.1	-76.8	0.0
2025-01-24 16:21:39.112973	54.3	25.1	-76.9	0.0
2025-01-24 16:21:40.236867	53.9	25.1	-77.4	0.0
2025-01-24 16:21:41.360320	53.6	25.1	-76.3	0.0
2025-01-24 16:21:42.483566	53.3	25.1	-77.3	0.0
2025-01-24 16:21:43.607427	52.9	25.1	-77.5	0.0
2025-01-24 16:21:44.727032	52.6	25.1	-77.8	0.0
2025-01-24 16:21:45.850082	52.3	25.1	-77.5	0.0
2025-01-24 16:21:46.973540	51.9	25.1	-76.5	0.0
2025-01-24 16:21:48.096262	51.6	25.1	-77.5	0.0
2025-01-24 16:21:49.219387	51.3	25.1	-77.3	0.0
2025-01-24 16:21:50.342635	50.9	25.1	-77.9	0.0
2025-01-24 16:21:51.464595	50.6	25.1	-76.7	0.0
2025-01-24 16:21:52.585149	50.2	25.1	-77.3	0.0
2025-01-24 16:21:53.708796	49.9	25.1	-77.6	0.0
2025-01-24 16:21:54.831398	49.6	25.1	-77.4	0.0
2025-01-24 16:21:55.958568	49.2	25.1	-77.5	0.0
2025-01-24 16:21:57.081855	48.9	25.1	-77.4	0.0
2025-01-24 16:21:58.205311	48.6	25.1	-77.2	0.0
2025-01-24 16:21:59.327493	48.2	25.0	-77.8	0.0
2025-01-24 16:22:00.450029	47.9	25.0	-77.9	0.0
2025-01-24 16:22:01.574581	47.6	25.0	-77.6	0.0
2025-01-24 16:22:02.697131	47.2	25.0	-77.6	0.0
2025-01-24 16:22:03.818891	46.9	25.0	-78.0	0.0
2025-01-24 16:22:04.943184	46.6	25.0	-77.9	0.0
2025-01-24 16:22:06.066674	46.3	24.9	-76.6	0.0
2025-01-24 16:22:07.191713	45.9	24.9	-76.6	0.0
2025-01-24 16:22:08.314847	45.6	24.9	-77.0	0.0
2025-01-24 16:22:09.438343	45.3	24.9	-76.9	0.0
2025-01-24 16:22:10.561417	44.9	24.8	-77.2	0.0
2025-01-24 16:22:11.682606	44.6	24.8	-77.0	0.0
2025-01-24 16:22:12.805737	44.3	24.8	-77.2	0.0
2025-01-24 16:22:13.929549	43.9	24.8	-77.1	0.0
2025-01-24 16:22:15.051345	43.6	24.7	-76.5	0.0
2025-01-24 16:22:16.176249	43.3	24.7	-75.9	0.0
2025-01-24 16:22:17.300296	43.0	24.7	-77.6	0.0
2025-01-24 16:22:18.421218	42.6	24.6	-77.2	0.0
2025-01-24 16:22:19.543582	42.3	24.6	-77.3	0.0
2025-01-24 16:22:20.666943	42.0	24.6	-76.7	0.0
2025-01-24 16:22:21.790758	41.7	24.5	-77.4	0.0
2025-01-24 16:22:22.913697	41.4	24.5	-77.9	0.0
2025-01-24 16:22:24.035774	41.0	24.5	-77.3	0.0
2025-01-24 16:22:25.158729	40.7	24.4	-78.5	0.0
2025-01-24 16:22:26.280765	40.4	24.4	-77.9	0.0
2025-01-24 16:22:27.403011	40.1	24.4	-77.7	0.0
2025-01-24 16:22:28.527773	39.8	24.3	-77.9	0.0
2025-01-24 16:22:29.650644	39.4	24.3	-77.7	0.0
2025-01-24 16:22:30.774117	39.1	24.2	-78.4	0.0
2025-01-24 16:22:31.897911	38.8	24.2	-78.3	0.0
2025-01-24 16:22:33.020180	38.5	24.2	-78.2	0.0
2025-01-24 16:22:34.141259	38.2	24.1	-77.4	0.0
2025-01-24 16:22:35.265223	37.9	24.1	-77.7	0.0
2025-01-24 16:22:36.388111	37.5	24.0	-77.8	0.0
2025-01-24 16:22:37.509830	37.2	24.0	-78.2	0.0
2025-01-24 16:22:38.632106	36.9	23.9	-78.2	0.0
2025-01-24 16:22:39.754343	36.6	23.9	-77.9	0.0
2025-01-24 16:22:40.877513	36.3	23.8	-77.8	0.0
2025-01-24 16:22:42.001028	36.0	23.8	-78.1	0.0
2025-01-24 16:22:43.123089	35.7	23.7	-77.7	0.0
2025-01-24 16:22:44.247141	35.4	23.7	-77.2	0.0
2025-01-24 16:22:45.371787	35.1	23.6	-77.7	0.0
2025-01-24 16:22:46.494527	34.8	23.6	-77.5	0.0
2025-01-24 16:22:47.616544	34.5	23.5	-77.0	0.0
2025-01-24 16:22:48.737564	34.2	23.5	-76.9	0.0
2025-01-24 16:22:49.861438	33.9	23.4	-76.6	0.0
2025-01-24 16:22:50.986176	33.6	23.4	-77.5	0.0
2025-01-24 16:22:52.108944	33.3	23.3	-77.6	0.0
2025-01-24 16:22:53.231398	33.0	23.2	-77.0	0.0
2025-01-24 16:22:54.353895	32.7	23.2	-77.2	0.0
2025-01-24 16:22:55.477526	32.4	23.1	-78.4	0.0
2025-01-24 16:22:56.600304	32.1	23.1	-77.9	0.0
2025-01-24 16:22:57.723795	31.8	23.0	-77.2	0.0
2025-01-24 16:22:58.844877	31.5	22.9	-78.0	0.0
2025-01-24 16:22:59.967278	31.2	22.9	-78.0	0.0
2025-01-24 16:23:01.088672	30.9	22.8	-77.5	0.0
2025-01-24 16:23:02.213777	30.7	22.8	-78.2	0.0
2025-01-24 16:23:03.336664	30.4	22.7	-78.2	0.0
2025-01-24 16:23:04.459106	30.1	22.6	-78.5	0.0
2025-01-24 16:23:05.582770	29.8	22.6	-78.4	0.0
2025-01-24 16:23:06.707494	29.5	22.5	-77.9	0.0
2025-01-24 16:23:07.831358	29.2	22.4	-78.1	0.0
2025-01-24 16:23:08.955317	29.0	22.4	-78.2	0.0
2025-01-24 16:23:10.076913	28.7	22.3	-77.9	0.0
2025-01-24 16:23:11.200597	28.4	22.2	-78.0	0.0
2025-01-24 16:23:12.324023	28.1	22.2	-77.8	0.0
2025-01-24 16:23:13.447605	27.8	22.1	-78.2	0.0
2025-01-24 16:23:14.571244	27.6	22.0	-77.9	0.0
2025-01-24 16:23:15.693409	27.3	22.0	-77.3	0.0
2025-01-24 16:23:16.818008	27.0	21.9	-77.8	0.0
2025-01-24 16:23:17.941412	26.8	21.8	-77.2	0.0
2025-01-24 16:23:19.062540	26.5	21.7	-76.9	0.0
2025-01-24 16:23:20.183909	26.2	21.7	-76.3	0.0
2025-01-24 16:23:21.307552	25.9	21.6	-77.9	0.0
2025-01-24 16:23:22.430843	25.7	21.5	-77.8	0.0
2025-01-24 16:23:23.553434	25.4	21.5	-77.3	0.0
2025-01-24 16:23:24.677776	25.2	21.4	-78.4	0.0
2025-01-24 16:23:25.799785	24.9	21.3	-78.1	0.0
2025-01-24 16:23:26.922252	24.6	21.2	-77.9	0.0
2025-01-24 16:23:28.044284	24.4	21.2	-77.4	0.0
2025-01-24 16:23:29.167558	24.1	21.1	-77.1	0.0
2025-01-24 16:23:30.290934	23.9	21.0	-77.8	0.0
2025-01-24 16:23:31.414204	23.6	20.9	-77.6	0.0
2025-01-24 16:23:32.538159	23.3	20.9	-77.7	0.0
2025-01-24 16:23:33.660374	23.1	20.8	-77.4	0.0
2025-01-24 16:23:34.782563	22.8	20.7	-77.1	0.0
2025-01-24 16:23:35.904768	22.6	20.6	-78.0	0.0
2025-01-24 16:23:37.030011	22.3	20.6	-78.1	0.0
2025-01-24 16:23:38.154462	22.1	20.5	-77.1	0.0
2025-01-24 16:23:39.275924	21.8	20.4	-76.9	0.0
2025-01-24 16:23:40.400345	21.6	20.3	-77.3	0.0
2025-01-24 16:23:41.521050	21.4	20.2	-78.0	0.0
2025-01-24 16:23:42.643844	21.1	20.2	-77.7	0.0
2025-01-24 16:23:43.766966	20.9	20.1	-77.5	0.0
2025-01-24 16:23:44.890430	20.6	20.0	-77.6	0.0
2025-01-24 16:23:46.011502	20.4	19.9	-77.5	0.0
2025-01-24 16:23:47.134269	20.2	19.8	-77.8	0.0
2025-01-24 16:23:48.255493	19.9	19.8	-77.7	0.0
2025-01-24 16:23:49.380816	19.7	19.7	-77.4	0.0
2025-01-24 16:23:50.502216	19.5	19.6	-77.3	0.0
2025-01-24 16:23:51.625050	19.2	19.5	-78.0	0.0
2025-01-24 16:23:52.748435	19.0	19.4	-77.5	0.0
2025-01-24 16:23:53.872654	18.8	19.4	-77.9	0.0
2025-01-24 16:23:54.995804	18.5	19.3	-78.1	0.0
2025-01-24 16:23:56.121534	18.3	19.2	-77.5	0.0
2025-01-24 16:23:57.245425	18.1	19.1	-77.9	0.0
2025-01-24 16:23:58.367445	17.9	19.0	-78.4	0.0
2025-01-24 16:23:59.489165	17.6	19.0	-78.1	0.0
2025-01-24 16:24:00.612610	17.4	18.9	-77.7	0.0
2025-01-24 16:24:01.733554	17.2	18.8	-77.9	0.0
2025-01-24 16:24:02.857450	17.0	18.7	-77.7	0.0
2025-01-24 16:24:03.980429	16.7	18.6	-77.1	0.0
2025-01-24 16:24:05.104959	16.5	18.5	-77.5	0.0
2025-01-24 16:24:06.225074	16.3	18.5	-77.5	0.0
2025-01-24 16:24:07.348110	16.1	18.4	-77.0	0.0
2025-01-24 16:24:08.470642	15.9	18.3	-77.2	0.0
2025-01-24 16:24:09.594803	15.7	18.2	-77.0	0.0
2025-01-24 16:24:10.717543	15.5	18.1	-76.8	0.0
2025-01-24 16:24:11.842780	15.2	18.0	-76.9	0.0
2025-01-24 16:24:12.966341	15.0	18.0	-77.0	0.0
2025-01-24 16:24:14.088545	14.8	17.9	-76.8	0.0
2025-01-24 16:24:15.209858	14.6	17.8	-77.5	0.0
2025-01-24 16:24:16.331300	14.4	17.7	-77.6	0.0
2025-01-24 16:24:17.454483	14.2	17.6	-77.9	0.0
2025-01-24 16:24:18.576928	14.0	17.5	-77.8	0.0
2025-01-24 16:24:19.700349	13.8	17.4	-78.3	0.0
2025-01-24 16:24:20.824424	13.6	17.4	-77.6	0.0
2025-01-24 16:24:21.948069	13.4	17.3	-77.4	0.0
2025-01-24 16:24:23.071362	13.2	17.2	-77.7	0.0
2025-01-24 16:24:24.192937	13.0	17.1	-77.4	0.0
2025-01-24 16:24:25.314920	12.8	17.0	-77.9	0.0
2025-01-24 16:24:26.436643	12.6	16.9	-77.6	0.0
2025-01-24 16:24:27.560736	12.4	16.9	-78.3	0.0
2025-01-24 16:24:28.684113	12.2	16.8	-77.7	0.0
2025-01-24 16:24:29.807930	12.0	16.7	-77.0	0.0
2025-01-24 16:24:30.932003	11.8	16.6	-77.7	0.0
2025-01-24 16:24:32.055708	11.7	16.5	-77.3	0.0
2025-01-24 16:24:33.178021	11.5	16.4	-77.4	0.0
2025-01-24 16:24:34.302279	11.3	16.3	-77.7	0.0
2025-01-24 16:24:35.426365	11.1	16.3	-77.9	0.0
2025-01-24 16:24:36.548177	10.9	16.2	-77.3	0.0
2025-01-24 16:24:37.669708	10.7	16.1	-76.8	0.0
2025-01-24 16:24:38.790505	10.5	16.0	-77.1	0.0
2025-01-24 16:24:39.912774	10.4	15.9	-77.8	0.0
2025-01-24 16:24:41.034944	10.2	15.8	-78.2	0.0
2025-01-24 16:24:42.157693	10.0	15.8	-78.5	0.0
2025-01-24 16:24:43.280890	9.8	15.7	-78.4	0.0
2025-01-24 16:24:44.406196	9.6	15.6	-77.5	0.0
2025-01-24 16:24:45.530160	9.5	15.5	-77.9	0.0
2025-01-24 16:24:46.653901	9.3	15.4	-77.6	0.0
2025-01-24 16:24:47.777115	9.1	15.3	-77.0	0.0
2025-01-24 16:24:48.901784	8.9	15.2	-77.2	0.0
2025-01-24 16:24:50.025195	8.8	15.2	-76.8	0.0
2025-01-24 16:24:51.149691	8.6	15.1	-77.6	0.0
2025-01-24 16:24:52.272303	8.4	15.0	-77.4	0.0
2025-01-24 16:24:53.394003	8.2	14.9	-76.8	0.0
2025-01-24 16:24:54.519034	8.1	14.8	-77.5	0.0
2025-01-24 16:24:55.641771	7.9	14.7	-77.6	0.0
2025-01-24 16:24:56.764807	7.7	14.6	-77.8	0.0
2025-01-24 16:24:57.886061	7.6	14.6	-77.8	0.0
2025-01-24 16:24:59.011042	7.4	14.5	-77.6	0.0
2025-01-24 16:25:00.132563	7.2	14.4	-77.5	0.0
2025-01-24 16:25:01.254965	7.1	14.3	-77.5	0.0
2025-01-24 16:25:02.379011	6.9	14.2	-77.4	0.0
2025-01-24 16:25:03.503186	6.8	14.1	-77.4	0.0
2025-01-24 16:25:04.623228	6.6	14.1	-76.9	0.0
2025-01-24 16:25:05.746340	6.4	14.0	-76.8	0.0
2025-01-24 16:25:06.869717	6.3	13.9	-77.4	0.0
2025-01-24 16:25:07.993893	6.1	13.8	-77.1	0.0
2025-01-24 16:25:09.116925	6.0	13.7	-77.2	0.0
2025-01-24 16:25:10.239576	5.8	13.6	-77.3	0.0
2025-01-24 16:25:11.362634	5.7	13.6	-77.4	0.0
2025-01-24 16:25:12.487778	5.5	13.5	-77.3	0.0
2025-01-24 16:25:13.610784	5.4	13.4	-77.0	0.0
2025-01-24 16:25:14.734172	5.2	13.3	-77.0	0.0
2025-01-24 16:25:15.857760	5.0	13.2	-77.3	0.0
2025-01-24 16:25:16.981247	4.9	13.1	-77.5	0.0
2025-01-24 16:25:18.105881	4.7	13.1	-77.4	0.0
2025-01-24 16:25:19.227447	4.6	13.0	-77.4	0.0
2025-01-24 16:25:20.352484	4.5	12.9	-77.4	0.0
2025-01-24 16:25:21.474886	4.3	12.8	-77.6	0.0
2025-01-24 16:25:22.596756	4.2	12.7	-77.6	0.0
2025-01-24 16:25:23.718944	4.0	12.6	-76.9	0.0
2025-01-24 16:25:24.842175	3.9	12.6	-77.9	0.0
2025-01-24 16:25:25.963460	3.7	12.5	-77.2	0.0
2025-01-24 16:25:27.086476	3.6	12.4	-78.1	0.0
2025-01-24 16:25:28.212638	3.4	12.3	-77.7	0.0
2025-01-24 16:25:29.333892	3.3	12.2	-77.4	0.0
2025-01-24 16:25:30.456770	3.2	12.1	-77.5	0.0
2025-01-24 16:25:31.579327	3.0	12.1	-77.8	0.0
2025-01-24 16:25:32.701543	2.9	12.0	-77.8	0.0
2025-01-24 16:25:33.824019	2.7	11.9	-77.5	0.0
2025-01-24 16:25:34.948987	2.6	11.8	-78.1	0.0
2025-01-24 16:25:36.071983	2.5	11.7	-77.0	0.0
2025-01-24 16:25:37.193464	2.3	11.7	-77.8	0.0
2025-01-24 16:25:38.317906	2.2	11.6	-77.2	0.0
2025-01-24 16:25:39.439762	2.1	11.5	-77.4	0.0
2025-01-24 16:25:40.563549	1.9	11.4	-77.5	0.0
2025-01-24 16:25:41.685870	1.8	11.3	-77.6	0.0
2025-01-24 16:25:42.807957	1.7	11.2	-77.4	0.0
2025-01-24 16:25:43.932085	1.5	11.2	-77.4	0.0
2025-01-24 16:25:45.054484	1.4	11.1	-77.9	0.0
2025-01-24 16:25:46.175679	1.3	11.0	-77.5	0.0
2025-01-24 16:25:47.299172	1.2	10.9	-77.7	0.0
2025-01-24 16:25:48.422801	1.0	10.8	-77.8	0.0
2025-01-24 16:25:49.547486	0.9	10.8	-77.8	0.0
2025-01-24 16:25:50.668733	0.8	10.7	-77.9	0.0
2025-01-24 16:25:51.791658	0.6	10.6	-75.2	0.0
2025-01-24 16:25:52.915330	0.5	10.5	-77.7	0.0
2025-01-24 16:25:54.037060	0.4	10.4	-78.0	0.0
2025-01-24 16:25:55.158835	0.3	10.4	-77.9	0.0
2025-01-24 16:25:56.282420	0.1	10.3	-75.4	0.0
2025-01-24 16:25:57.406554	0.0	10.2	-77.9	0.0
2025-01-24 16:25:58.528907	359.9	10.1	-78.1	0.0
2025-01-24 16:25:59.653656	359.8	10.0	-77.5	0.0
#Closed at: 2025-01-24 16:17:22.617351