passes_logs/2025/01/24/planumMaritime01/planumMaritime01__20250124_110516_METEOR-M2_4_rec.log

#Pass ID: 20250124_110516_METEOR-M2 4
#Satellite: METEOR-M2 4
#Configuration: METEOR-M2 4
#Start time: 2025-01-24 11:05:21.978330

#LorettStation: 1.0.0 05.05.2024
#Station: planumMaritime01
#Location: 37.49445 lon 55.92918 lat
#TLE: 1 59051U 24039A   25023.82134414  .00000153  00000+0  88244-4 0  9995
#TLE: 2 59051  98.6304 346.6458 0006606 196.6758 163.4204 14.22328196 46859

#Time	Az	El	Level	SNR
2025-01-24 11:05:24.134451	149.1	10.2	-75.2	7.2
2025-01-24 11:05:26.380525	149.0	10.4	-75.6	7.6
2025-01-24 11:05:28.625611	149.0	10.6	-74.9	7.8
2025-01-24 11:05:30.871544	148.9	10.8	-74.9	6.2
2025-01-24 11:05:33.116829	148.8	11.0	-74.9	7.5
2025-01-24 11:05:35.361906	148.8	11.2	-74.6	8.3
2025-01-24 11:05:37.608584	148.7	11.4	-74.5	8.9
2025-01-24 11:05:39.854980	148.7	11.6	-74.9	8.0
2025-01-24 11:05:42.098577	148.6	11.8	-75.1	7.1
2025-01-24 11:05:44.343714	148.6	12.0	-74.4	6.4
2025-01-24 11:05:46.587640	148.5	12.2	-75.5	9.3
2025-01-24 11:05:48.834158	148.4	12.4	-74.5	7.8
2025-01-24 11:05:51.079447	148.4	12.7	-74.0	5.7
2025-01-24 11:05:53.326300	148.3	12.9	-74.4	7.4
2025-01-24 11:05:55.574628	148.2	13.1	-74.6	8.4
2025-01-24 11:05:57.818871	148.2	13.3	-74.6	8.9
2025-01-24 11:06:00.065148	148.1	13.5	-74.8	9.2
2025-01-24 11:06:02.309771	148.0	13.8	-74.5	8.8
2025-01-24 11:06:04.554234	148.0	14.0	-74.7	8.1
2025-01-24 11:06:06.800517	147.9	14.2	-74.8	9.2
2025-01-24 11:06:09.043507	147.8	14.5	-74.8	9.3
2025-01-24 11:06:11.291391	147.7	14.7	-74.9	9.3
2025-01-24 11:06:13.535000	147.7	14.9	-74.9	8.1
2025-01-24 11:06:15.777190	147.6	15.2	-74.8	8.5
2025-01-24 11:06:18.021783	147.5	15.4	-75.1	9.5
2025-01-24 11:06:20.266793	147.4	15.7	-74.8	9.2
2025-01-24 11:06:22.513017	147.3	15.9	-74.4	8.8
2025-01-24 11:06:24.759727	147.3	16.2	-74.2	8.8
2025-01-24 11:06:27.005810	147.2	16.4	-74.4	7.3
2025-01-24 11:06:29.250439	147.1	16.7	-74.1	6.7
2025-01-24 11:06:31.496074	147.0	16.9	-75.0	8.0
2025-01-24 11:06:33.739869	146.9	17.2	-75.3	9.2
2025-01-24 11:06:35.983132	146.8	17.4	-75.1	7.7
2025-01-24 11:06:38.230808	146.7	17.7	-74.8	7.7
2025-01-24 11:06:40.476626	146.6	18.0	-75.4	7.7
2025-01-24 11:06:42.721502	146.6	18.2	-75.8	8.4
2025-01-24 11:06:44.965931	146.5	18.5	-76.0	7.8
2025-01-24 11:06:47.214948	146.4	18.8	-75.6	7.7
2025-01-24 11:06:49.460240	146.3	19.1	-75.6	7.2
2025-01-24 11:06:51.707206	146.2	19.3	-75.6	6.4
2025-01-24 11:06:53.953562	146.0	19.6	-76.0	6.1
2025-01-24 11:06:56.200067	145.9	19.9	-75.9	6.6
2025-01-24 11:06:58.445986	145.8	20.2	-75.7	6.8
2025-01-24 11:07:00.691048	145.7	20.5	-76.3	6.0
2025-01-24 11:07:02.937146	145.6	20.8	-76.1	5.5
2025-01-24 11:07:05.181692	145.5	21.1	-76.6	5.1
2025-01-24 11:07:07.429921	145.4	21.4	-76.4	5.7
2025-01-24 11:07:09.674860	145.2	21.7	-76.2	5.2
2025-01-24 11:07:11.919359	145.1	22.0	-76.6	4.9
2025-01-24 11:07:14.165351	145.0	22.3	-76.6	3.0
2025-01-24 11:07:16.409180	144.9	22.7	-75.8	3.4
2025-01-24 11:07:18.654432	144.7	23.0	-76.2	2.2
2025-01-24 11:07:20.899938	144.6	23.3	-76.7	3.3
2025-01-24 11:07:23.144710	144.5	23.6	-77.1	1.3
2025-01-24 11:07:25.391733	144.3	24.0	-77.2	0.0
2025-01-24 11:07:27.637749	144.2	24.3	-77.5	0.0
2025-01-24 11:07:29.886591	144.0	24.7	-77.4	0.0
2025-01-24 11:07:32.133375	143.9	25.0	-77.8	0.0
2025-01-24 11:07:34.377935	143.7	25.4	-77.1	0.0
2025-01-24 11:07:36.622298	143.6	25.7	-77.9	0.0
2025-01-24 11:07:38.867139	143.4	26.1	-78.3	0.0
2025-01-24 11:07:41.114436	143.2	26.5	-78.6	0.0
2025-01-24 11:07:43.364155	143.1	26.8	-77.1	0.0
2025-01-24 11:07:45.606817	142.9	27.2	-77.9	0.0
2025-01-24 11:07:47.852130	142.7	27.6	-77.8	0.0
2025-01-24 11:07:50.101310	142.5	28.0	-77.3	0.0
2025-01-24 11:07:52.348671	142.4	28.4	-77.9	0.0
2025-01-24 11:07:54.594842	142.2	28.8	-77.9	0.0
2025-01-24 11:07:56.837507	142.0	29.2	-77.9	0.0
2025-01-24 11:07:59.084231	141.8	29.6	-78.2	0.0
2025-01-24 11:08:01.335310	141.6	30.0	-77.7	0.0
2025-01-24 11:08:03.584893	141.3	30.4	-77.9	0.0
2025-01-24 11:08:05.830254	141.1	30.8	-77.6	0.0
2025-01-24 11:08:08.077267	140.9	31.3	-77.8	0.0
2025-01-24 11:08:10.324175	140.7	31.7	-77.6	0.0
2025-01-24 11:08:12.570419	140.4	32.1	-77.5	0.0
2025-01-24 11:08:14.816518	140.2	32.6	-78.2	0.0
2025-01-24 11:08:17.065861	139.9	33.1	-77.1	0.0
2025-01-24 11:08:19.314022	139.7	33.5	-77.8	0.0
2025-01-24 11:08:21.559531	139.4	34.0	-77.1	0.0
2025-01-24 11:08:23.807336	139.1	34.5	-77.6	0.0
2025-01-24 11:08:26.053900	138.8	34.9	-77.6	0.0
2025-01-24 11:08:28.300597	138.6	35.4	-77.0	0.0
2025-01-24 11:08:30.543677	138.3	35.9	-77.5	0.0
2025-01-24 11:08:32.785118	137.9	36.4	-77.2	0.0
2025-01-24 11:08:35.032018	137.6	36.9	-77.2	0.0
2025-01-24 11:08:37.279997	137.3	37.4	-77.8	0.0
2025-01-24 11:08:39.524078	136.9	38.0	-77.2	0.0
2025-01-24 11:08:41.768485	136.6	38.5	-77.2	0.0
2025-01-24 11:08:44.015990	136.2	39.0	-77.2	0.0
2025-01-24 11:08:46.263245	135.9	39.6	-77.1	0.0
2025-01-24 11:08:48.510550	135.5	40.1	-77.4	0.0
2025-01-24 11:08:50.753910	135.1	40.7	-77.7	0.0
2025-01-24 11:08:52.998987	134.6	41.2	-77.7	0.0
2025-01-24 11:08:55.242829	134.2	41.8	-76.5	0.0
2025-01-24 11:08:57.489278	133.8	42.4	-77.9	0.0
2025-01-24 11:08:59.735258	133.3	43.0	-78.0	0.0
2025-01-24 11:09:01.982092	132.8	43.6	-77.8	0.0
2025-01-24 11:09:04.231065	132.3	44.2	-78.1	0.0
2025-01-24 11:09:06.476988	131.8	44.8	-77.7	0.0
2025-01-24 11:09:08.722491	131.2	45.4	-78.1	0.0
2025-01-24 11:09:10.966924	130.7	46.0	-77.9	0.0
2025-01-24 11:09:13.213281	130.1	46.6	-78.2	0.0
2025-01-24 11:09:15.460517	129.5	47.3	-78.1	0.0
2025-01-24 11:09:17.705765	128.8	47.9	-78.1	0.0
2025-01-24 11:09:19.950767	128.2	48.5	-77.9	0.0
2025-01-24 11:09:22.198951	127.5	49.2	-77.9	0.0
2025-01-24 11:09:24.447437	126.8	49.8	-78.5	0.0
2025-01-24 11:09:26.695598	126.0	50.5	-77.8	0.0
2025-01-24 11:09:28.940960	125.2	51.1	-78.2	0.0
2025-01-24 11:09:31.186369	124.4	51.8	-77.7	0.0
2025-01-24 11:09:33.431144	123.5	52.5	-77.8	0.0
2025-01-24 11:09:35.675851	122.6	53.1	-77.9	0.0
2025-01-24 11:09:37.923491	121.7	53.8	-77.9	0.0
2025-01-24 11:09:40.168037	120.7	54.5	-77.7	0.0
2025-01-24 11:09:42.412642	119.6	55.1	-77.9	0.0
2025-01-24 11:09:44.658494	118.6	55.8	-78.1	0.0
2025-01-24 11:09:46.905718	117.4	56.5	-78.4	0.0
2025-01-24 11:09:49.154204	116.2	57.1	-78.2	0.0
2025-01-24 11:09:51.396570	115.0	57.8	-78.0	0.0
2025-01-24 11:09:53.644292	113.6	58.4	-78.0	0.0
2025-01-24 11:09:55.889350	112.2	59.1	-77.6	0.0
2025-01-24 11:09:58.134475	110.8	59.7	-78.2	0.0
2025-01-24 11:10:00.380306	109.3	60.3	-77.6	0.0
2025-01-24 11:10:02.627241	107.7	60.9	-78.1	0.0
2025-01-24 11:10:04.873776	106.0	61.5	-77.7	0.0
2025-01-24 11:10:07.121451	104.2	62.1	-78.0	0.0
2025-01-24 11:10:09.366523	102.4	62.7	-77.8	0.0
2025-01-24 11:10:11.613347	100.4	63.2	-77.9	0.0
2025-01-24 11:10:13.860014	98.4	63.7	-78.0	0.0
2025-01-24 11:10:16.103448	96.3	64.2	-77.9	0.0
2025-01-24 11:10:18.349092	94.1	64.6	-77.8	0.0
2025-01-24 11:10:20.595069	91.8	65.1	-78.7	0.0
2025-01-24 11:10:22.841219	89.5	65.4	-78.2	0.0
2025-01-24 11:10:25.091671	87.0	65.8	-78.5	0.0
2025-01-24 11:10:27.335517	84.5	66.1	-78.0	0.0
2025-01-24 11:10:29.585797	81.9	66.4	-78.8	0.0
2025-01-24 11:10:31.833737	79.3	66.6	-78.4	0.0
2025-01-24 11:10:34.079874	76.6	66.8	-78.2	0.0
2025-01-24 11:10:36.324069	73.8	66.9	-78.6	0.0
2025-01-24 11:10:38.570422	71.1	67.0	-78.7	0.0
2025-01-24 11:10:40.814448	68.3	67.0	-78.2	0.0
2025-01-24 11:10:43.059660	65.5	67.0	-78.6	0.0
2025-01-24 11:10:45.304968	62.8	66.9	-78.5	0.0
2025-01-24 11:10:47.553025	60.0	66.8	-78.1	0.0
2025-01-24 11:10:49.801243	57.3	66.6	-78.6	0.0
2025-01-24 11:10:52.045419	54.7	66.4	-78.5	0.0
2025-01-24 11:10:54.291275	52.1	66.2	-77.2	0.0
2025-01-24 11:10:56.540254	49.6	65.9	-78.2	0.0
2025-01-24 11:10:58.786334	47.1	65.5	-77.9	0.0
2025-01-24 11:11:01.031100	44.7	65.1	-78.0	0.0
2025-01-24 11:11:03.278142	42.4	64.7	-77.6	0.0
2025-01-24 11:11:05.522960	40.2	64.3	-77.9	0.0
2025-01-24 11:11:07.768097	38.1	63.8	-78.0	0.0
2025-01-24 11:11:10.013105	36.1	63.3	-77.8	0.0
2025-01-24 11:11:12.260011	34.1	62.8	-78.1	0.0
2025-01-24 11:11:14.506788	32.3	62.2	-78.3	0.0
2025-01-24 11:11:16.751636	30.5	61.6	-78.2	0.0
2025-01-24 11:11:19.000028	28.8	61.1	-77.9	0.0
2025-01-24 11:11:21.245934	27.2	60.5	-77.9	0.0
2025-01-24 11:11:23.494978	25.6	59.8	-77.9	0.0
2025-01-24 11:11:25.739864	24.2	59.2	-77.8	0.0
2025-01-24 11:11:27.982808	22.8	58.6	-77.5	0.0
2025-01-24 11:11:30.229048	21.4	57.9	-77.6	0.0
2025-01-24 11:11:32.475903	20.2	57.3	-77.6	0.0
2025-01-24 11:11:34.722780	19.0	56.6	-77.7	0.0
2025-01-24 11:11:36.968536	17.8	55.9	-78.2	0.0
2025-01-24 11:11:39.215834	16.7	55.3	-78.0	0.0
2025-01-24 11:11:41.461658	15.7	54.6	-78.2	0.0
2025-01-24 11:11:43.706378	14.7	53.9	-77.8	0.0
2025-01-24 11:11:45.951872	13.7	53.3	-78.2	0.0
2025-01-24 11:11:48.197182	12.8	52.6	-77.4	0.0
2025-01-24 11:11:50.443409	11.9	52.0	-77.5	0.0
2025-01-24 11:11:52.686735	11.1	51.3	-78.1	0.0
2025-01-24 11:11:54.932202	10.3	50.6	-78.1	0.0
2025-01-24 11:11:57.178371	9.6	50.0	-78.0	0.0
2025-01-24 11:11:59.423811	8.8	49.3	-77.8	0.0
2025-01-24 11:12:01.671341	8.1	48.7	-77.7	0.0
2025-01-24 11:12:03.916504	7.5	48.0	-77.9	0.0
2025-01-24 11:12:06.166521	6.8	47.4	-77.8	0.0
2025-01-24 11:12:08.411734	6.2	46.8	-78.0	0.0
2025-01-24 11:12:10.657079	5.6	46.1	-77.9	0.0
2025-01-24 11:12:12.902244	5.1	45.5	-77.9	0.0
2025-01-24 11:12:15.148427	4.5	44.9	-77.6	0.0
2025-01-24 11:12:17.392889	4.0	44.3	-77.8	0.0
2025-01-24 11:12:19.638879	3.5	43.7	-77.6	0.0
2025-01-24 11:12:21.885949	3.0	43.1	-78.3	0.0
2025-01-24 11:12:24.132611	2.5	42.5	-78.2	0.0
2025-01-24 11:12:26.378425	2.1	42.0	-77.8	0.0
2025-01-24 11:12:28.621711	1.6	41.4	-78.4	0.0
2025-01-24 11:12:30.868711	1.2	40.8	-77.9	0.0
2025-01-24 11:12:33.113828	0.8	40.3	-77.7	0.0
2025-01-24 11:12:35.360872	0.4	39.7	-77.8	0.0
2025-01-24 11:12:37.606901	0.0	39.2	-77.7	0.0
2025-01-24 11:12:39.851642	359.7	38.6	-78.1	0.0
2025-01-24 11:12:42.096976	359.3	38.1	-77.8	0.0
2025-01-24 11:12:44.343553	359.0	37.6	-78.0	0.0
2025-01-24 11:12:46.594226	358.7	37.1	-78.1	0.0
2025-01-24 11:12:48.840887	358.3	36.6	-77.9	0.0
2025-01-24 11:12:51.085317	358.0	36.1	-78.5	0.0
2025-01-24 11:12:53.334210	357.7	35.6	-78.1	0.0
2025-01-24 11:12:55.577155	357.4	35.1	-78.2	0.0
2025-01-24 11:12:57.821424	357.1	34.6	-78.5	0.0
2025-01-24 11:13:00.065125	356.9	34.1	-78.2	0.0
2025-01-24 11:13:02.310977	356.6	33.7	-78.3	0.0
2025-01-24 11:13:04.553766	356.3	33.2	-78.4	0.0
2025-01-24 11:13:06.803326	356.1	32.8	-78.6	0.0
2025-01-24 11:13:09.051313	355.8	32.3	-78.4	0.0
2025-01-24 11:13:11.297999	355.6	31.9	-77.9	0.0
2025-01-24 11:13:13.544687	355.4	31.4	-78.1	0.0
2025-01-24 11:13:15.791377	355.1	31.0	-78.0	0.0
2025-01-24 11:13:18.037594	354.9	30.6	-78.2	0.0
2025-01-24 11:13:20.283675	354.7	30.2	-78.4	0.0
2025-01-24 11:13:22.530572	354.5	29.7	-78.2	0.0
2025-01-24 11:13:24.776065	354.3	29.3	-77.6	0.0
2025-01-24 11:13:27.024944	354.1	28.9	-78.4	0.0
2025-01-24 11:13:29.272019	353.9	28.5	-76.5	0.0
2025-01-24 11:13:31.518007	353.7	28.1	-78.7	0.0
2025-01-24 11:13:33.760708	353.6	27.8	-78.3	0.0
2025-01-24 11:13:36.006168	353.4	27.4	-78.2	0.0
2025-01-24 11:13:38.249263	353.2	27.0	-78.0	0.0
2025-01-24 11:13:40.494336	353.0	26.6	-78.2	0.0
2025-01-24 11:13:42.739137	352.9	26.3	-77.8	0.0
2025-01-24 11:13:44.983572	352.7	25.9	-78.3	0.0
2025-01-24 11:13:47.230667	352.5	25.5	-77.9	0.0
2025-01-24 11:13:49.475673	352.4	25.2	-78.3	0.0
2025-01-24 11:13:51.722458	352.2	24.8	-78.1	0.0
2025-01-24 11:13:53.967421	352.1	24.5	-78.7	0.0
2025-01-24 11:13:56.213291	352.0	24.1	-78.3	0.0
2025-01-24 11:13:58.457698	351.8	23.8	-78.4	0.0
2025-01-24 11:14:00.706634	351.7	23.5	-78.0	0.0
2025-01-24 11:14:02.950765	351.5	23.2	-78.2	0.0
2025-01-24 11:14:05.199213	351.4	22.8	-78.5	0.0
2025-01-24 11:14:07.443834	351.3	22.5	-78.3	0.0
2025-01-24 11:14:09.691071	351.2	22.2	-78.5	0.0
2025-01-24 11:14:11.939130	351.0	21.9	-78.4	0.0
2025-01-24 11:14:14.184673	350.9	21.6	-78.0	0.0
2025-01-24 11:14:16.427876	350.8	21.3	-78.3	0.0
2025-01-24 11:14:18.674899	350.7	21.0	-78.3	0.0
2025-01-24 11:14:20.919813	350.6	20.7	-78.5	0.0
2025-01-24 11:14:23.163994	350.5	20.4	-78.1	0.0
2025-01-24 11:14:25.410109	350.4	20.1	-78.3	0.0
2025-01-24 11:14:27.657232	350.2	19.8	-78.4	0.0
2025-01-24 11:14:29.905148	350.1	19.5	-77.8	0.0
2025-01-24 11:14:32.150283	350.0	19.2	-77.8	0.0
2025-01-24 11:14:34.392166	349.9	18.9	-78.0	0.0
2025-01-24 11:14:36.637045	349.8	18.7	-78.2	0.0
2025-01-24 11:14:38.877551	349.7	18.4	-77.8	0.0
2025-01-24 11:14:41.124588	349.7	18.1	-77.9	0.0
2025-01-24 11:14:43.369850	349.6	17.9	-78.0	0.0
2025-01-24 11:14:45.616433	349.5	17.6	-78.0	0.0
2025-01-24 11:14:47.863608	349.4	17.3	-78.3	0.0
2025-01-24 11:14:50.112041	349.3	17.1	-78.6	0.0
2025-01-24 11:14:52.358616	349.2	16.8	-78.4	0.0
2025-01-24 11:14:54.601543	349.1	16.6	-78.3	0.0
2025-01-24 11:14:56.846554	349.0	16.3	-77.8	0.0
2025-01-24 11:14:59.093688	349.0	16.1	-78.1	0.0
2025-01-24 11:15:01.341314	348.9	15.8	-77.7	0.0
2025-01-24 11:15:03.596844	348.8	15.6	-78.1	0.0
2025-01-24 11:15:05.841072	348.7	15.3	-78.3	0.0
2025-01-24 11:15:08.085711	348.7	15.1	-78.4	0.0
2025-01-24 11:15:10.334318	348.6	14.9	-78.0	0.0
2025-01-24 11:15:12.577840	348.5	14.6	-78.1	0.0
2025-01-24 11:15:14.820367	348.4	14.4	-78.2	0.0
2025-01-24 11:15:17.064539	348.4	14.2	-78.1	0.0
2025-01-24 11:15:19.312814	348.3	13.9	-78.0	0.0
2025-01-24 11:15:21.557001	348.2	13.7	-78.2	0.0
2025-01-24 11:15:23.804097	348.2	13.5	-78.0	0.0
2025-01-24 11:15:26.048249	348.1	13.3	-78.0	0.0
2025-01-24 11:15:28.292688	348.0	13.0	-77.3	0.0
2025-01-24 11:15:30.538022	348.0	12.8	-77.4	0.0
2025-01-24 11:15:32.783466	347.9	12.6	-77.6	0.0
2025-01-24 11:15:35.028522	347.8	12.4	-77.7	0.0
2025-01-24 11:15:37.273939	347.8	12.2	-77.2	0.0
2025-01-24 11:15:39.520669	347.7	12.0	-77.1	0.0
2025-01-24 11:15:41.767818	347.7	11.8	-77.1	0.0
2025-01-24 11:15:44.015544	347.6	11.6	-77.9	0.0
2025-01-24 11:15:46.258699	347.6	11.4	-78.0	0.0
2025-01-24 11:15:48.503126	347.5	11.2	-78.0	0.0
2025-01-24 11:15:50.749500	347.4	11.0	-78.5	0.0
2025-01-24 11:15:52.997390	347.4	10.7	-77.8	0.0
2025-01-24 11:15:55.245465	347.3	10.6	-77.5	0.0
2025-01-24 11:15:57.494661	347.3	10.4	-78.0	0.0
2025-01-24 11:15:59.741303	347.2	10.2	-77.8	0.0
#Closed at: 2025-01-24 11:05:16.980872