passes_logs/2025/01/24/planumMaritime01/planumMaritime01__20250124_132648_METEOR-M2_2_rec.log

#Pass ID: 20250124_132648_METEOR-M2 2
#Satellite: METEOR-M2 2
#Configuration: METEOR-M2 2
#Start time: 2025-01-24 13:26:53.501003

#LorettStation: 1.0.0 05.05.2024
#Station: planumMaritime01
#Location: 37.49445 lon 55.92918 lat
#TLE: 1 44387U 19038A   25023.85032452  .00000409  00000+0  19745-3 0  9999
#TLE: 2 44387  98.8577   0.3146 0002179  65.3887 294.7518 14.24123988288794

#Time	Az	El	Level	SNR
2025-01-24 13:26:57.685383	203.1	10.3	-76.3	0.0
2025-01-24 13:26:59.931191	203.3	10.5	-76.4	0.0
2025-01-24 13:27:02.176682	203.5	10.7	-76.7	0.0
2025-01-24 13:27:04.420073	203.7	10.8	-75.8	0.0
2025-01-24 13:27:06.667422	203.9	11.0	-76.5	0.0
2025-01-24 13:27:08.910817	204.2	11.2	-76.8	0.0
2025-01-24 13:27:11.154747	204.4	11.4	-76.1	0.0
2025-01-24 13:27:13.401008	204.6	11.6	-76.3	0.0
2025-01-24 13:27:15.645647	204.9	11.7	-76.5	0.0
2025-01-24 13:27:17.890942	205.1	11.9	-76.0	0.0
2025-01-24 13:27:20.134280	205.3	12.1	-76.8	0.0
2025-01-24 13:27:22.379464	205.6	12.3	-76.4	0.0
2025-01-24 13:27:24.626549	205.8	12.5	-76.6	0.0
2025-01-24 13:27:26.871810	206.0	12.6	-77.0	0.0
2025-01-24 13:27:29.119370	206.3	12.8	-76.7	0.0
2025-01-24 13:27:31.369789	206.5	13.0	-77.1	0.0
2025-01-24 13:27:33.617808	206.8	13.2	-77.0	0.0
2025-01-24 13:27:35.866057	207.1	13.4	-77.4	0.0
2025-01-24 13:27:38.112449	207.3	13.6	-77.4	0.0
2025-01-24 13:27:40.358270	207.6	13.8	-77.3	0.0
2025-01-24 13:27:42.603348	207.8	14.0	-77.0	0.0
2025-01-24 13:27:44.845342	208.1	14.2	-76.7	0.0
2025-01-24 13:27:47.093026	208.4	14.3	-76.9	0.0
2025-01-24 13:27:49.338154	208.7	14.5	-77.1	0.0
2025-01-24 13:27:51.583559	208.9	14.7	-76.8	0.0
2025-01-24 13:27:53.826627	209.2	14.9	-77.0	0.0
2025-01-24 13:27:56.072174	209.5	15.1	-77.3	0.0
2025-01-24 13:27:58.318555	209.8	15.3	-77.4	0.0
2025-01-24 13:28:00.562773	210.1	15.5	-77.4	0.0
2025-01-24 13:28:02.808774	210.4	15.7	-76.9	0.0
2025-01-24 13:28:05.054003	210.7	15.9	-75.4	0.0
2025-01-24 13:28:07.301752	211.0	16.1	-76.5	0.0
2025-01-24 13:28:09.547178	211.3	16.3	-76.5	0.0
2025-01-24 13:28:11.790766	211.6	16.5	-76.9	0.0
2025-01-24 13:28:14.037506	212.0	16.7	-77.0	0.0
2025-01-24 13:28:16.282174	212.3	16.9	-77.1	0.0
2025-01-24 13:28:18.530765	212.6	17.1	-77.4	0.0
2025-01-24 13:28:20.775034	212.9	17.4	-76.9	0.0
2025-01-24 13:28:23.021106	213.3	17.6	-76.8	0.0
2025-01-24 13:28:25.265156	213.6	17.8	-77.1	0.0
2025-01-24 13:28:27.510861	214.0	18.0	-76.8	0.0
2025-01-24 13:28:29.758312	214.3	18.2	-77.2	0.0
2025-01-24 13:28:32.004776	214.7	18.4	-77.5	0.0
2025-01-24 13:28:34.248722	215.0	18.6	-77.4	0.0
2025-01-24 13:28:36.496514	215.4	18.8	-77.5	0.0
2025-01-24 13:28:38.742850	215.8	19.0	-77.4	0.0
2025-01-24 13:28:40.990367	216.2	19.3	-77.5	0.0
2025-01-24 13:28:43.234945	216.5	19.5	-77.3	0.0
2025-01-24 13:28:45.481176	216.9	19.7	-77.5	0.0
2025-01-24 13:28:47.726523	217.3	19.9	-77.6	0.0
2025-01-24 13:28:49.970804	217.7	20.1	-77.8	0.0
2025-01-24 13:28:52.216526	218.1	20.3	-77.6	0.0
2025-01-24 13:28:54.460970	218.5	20.5	-76.8	0.0
2025-01-24 13:28:56.706618	218.9	20.8	-76.9	0.0
2025-01-24 13:28:58.949174	219.4	21.0	-77.4	0.0
2025-01-24 13:29:01.193797	219.8	21.2	-77.4	0.0
2025-01-24 13:29:03.443268	220.2	21.4	-77.6	0.0
2025-01-24 13:29:05.687688	220.7	21.6	-77.4	0.0
2025-01-24 13:29:07.931727	221.1	21.9	-77.8	0.0
2025-01-24 13:29:10.181465	221.5	22.1	-77.7	0.0
2025-01-24 13:29:12.426048	222.0	22.3	-77.3	0.0
2025-01-24 13:29:14.671245	222.5	22.5	-76.9	0.0
2025-01-24 13:29:16.918051	222.9	22.7	-77.3	0.0
2025-01-24 13:29:19.160671	223.4	23.0	-77.3	0.0
2025-01-24 13:29:21.403534	223.9	23.2	-77.4	0.0
2025-01-24 13:29:23.650192	224.4	23.4	-77.2	0.0
2025-01-24 13:29:25.893795	224.9	23.6	-77.3	0.0
2025-01-24 13:29:28.140324	225.4	23.8	-77.8	0.0
2025-01-24 13:29:30.384759	225.9	24.1	-77.3	0.0
2025-01-24 13:29:32.630523	226.4	24.3	-77.1	0.0
2025-01-24 13:29:34.877364	226.9	24.5	-77.2	0.0
2025-01-24 13:29:37.121946	227.5	24.7	-76.9	0.0
2025-01-24 13:29:39.361839	228.0	24.9	-77.5	0.0
2025-01-24 13:29:41.608367	228.5	25.1	-76.6	0.0
2025-01-24 13:29:43.852522	229.1	25.3	-77.4	0.0
2025-01-24 13:29:46.097005	229.7	25.6	-77.4	0.0
2025-01-24 13:29:48.343156	230.2	25.8	-77.2	0.0
2025-01-24 13:29:50.590488	230.8	26.0	-76.8	0.0
2025-01-24 13:29:52.835372	231.4	26.2	-77.2	0.0
2025-01-24 13:29:55.083199	232.0	26.4	-77.2	0.0
2025-01-24 13:29:57.329970	232.6	26.6	-76.8	0.0
2025-01-24 13:29:59.574074	233.2	26.8	-77.2	0.0
2025-01-24 13:30:01.822059	233.8	27.0	-77.0	0.0
2025-01-24 13:30:04.067583	234.4	27.2	-77.5	0.0
2025-01-24 13:30:06.312468	235.0	27.4	-77.2	0.0
2025-01-24 13:30:08.558625	235.7	27.6	-76.8	0.0
2025-01-24 13:30:10.801247	236.3	27.8	-76.5	0.0
2025-01-24 13:30:13.045916	237.0	28.0	-77.1	0.0
2025-01-24 13:30:15.290590	237.6	28.2	-76.4	0.0
2025-01-24 13:30:17.536074	238.3	28.4	-77.5	0.0
2025-01-24 13:30:19.780233	239.0	28.5	-77.4	0.0
2025-01-24 13:30:22.025748	239.6	28.7	-77.9	0.0
2025-01-24 13:30:24.269701	240.3	28.9	-76.6	0.0
2025-01-24 13:30:26.515409	241.0	29.1	-77.7	0.0
2025-01-24 13:30:28.758267	241.7	29.2	-77.7	0.0
2025-01-24 13:30:31.003544	242.4	29.4	-77.5	0.0
2025-01-24 13:30:33.250070	243.2	29.6	-77.0	0.0
2025-01-24 13:30:35.495972	243.9	29.7	-77.5	0.0
2025-01-24 13:30:37.740039	244.6	29.9	-77.6	0.0
2025-01-24 13:30:39.984453	245.4	30.0	-77.8	0.0
2025-01-24 13:30:42.233353	246.1	30.2	-78.2	0.0
2025-01-24 13:30:44.481170	246.9	30.3	-78.0	0.0
2025-01-24 13:30:46.726509	247.6	30.5	-77.5	0.0
2025-01-24 13:30:48.971552	248.4	30.6	-77.8	0.0
2025-01-24 13:30:51.215988	249.1	30.7	-78.2	0.0
2025-01-24 13:30:53.463380	249.9	30.8	-78.3	0.0
2025-01-24 13:30:55.709280	250.7	31.0	-78.3	0.0
2025-01-24 13:30:57.954466	251.5	31.1	-78.2	0.0
2025-01-24 13:31:00.198946	252.3	31.2	-78.0	0.0
2025-01-24 13:31:02.444539	253.1	31.3	-78.4	0.0
2025-01-24 13:31:04.692228	253.9	31.4	-78.5	0.0
2025-01-24 13:31:06.938478	254.7	31.4	-78.3	0.0
2025-01-24 13:31:09.182577	255.5	31.5	-78.3	0.0
2025-01-24 13:31:11.429598	256.3	31.6	-78.0	0.0
2025-01-24 13:31:13.672967	257.1	31.7	-78.1	0.0
2025-01-24 13:31:15.916985	257.9	31.7	-78.1	0.0
2025-01-24 13:31:18.163157	258.8	31.8	-77.9	0.0
2025-01-24 13:31:20.408172	259.6	31.8	-78.4	0.0
2025-01-24 13:31:22.654295	260.4	31.9	-78.0	0.0
2025-01-24 13:31:24.899948	261.3	31.9	-78.2	0.0
2025-01-24 13:31:27.141773	262.1	32.0	-78.2	0.0
2025-01-24 13:31:29.385467	262.9	32.0	-77.9	0.0
2025-01-24 13:31:31.630702	263.8	32.0	-77.9	0.0
2025-01-24 13:31:33.872565	264.6	32.0	-77.9	0.0
2025-01-24 13:31:36.120736	265.4	32.0	-77.9	0.0
2025-01-24 13:31:38.368095	266.3	32.0	-77.6	0.0
2025-01-24 13:31:40.614950	267.1	32.0	-78.2	0.0
2025-01-24 13:31:42.859707	267.9	32.0	-78.2	0.0
2025-01-24 13:31:45.104971	268.8	32.0	-78.0	0.0
2025-01-24 13:31:47.350027	269.6	32.0	-77.7	0.0
2025-01-24 13:31:49.596155	270.4	31.9	-77.9	0.0
2025-01-24 13:31:51.841299	271.3	31.9	-78.4	0.0
2025-01-24 13:31:54.088839	272.1	31.8	-78.7	0.0
2025-01-24 13:31:56.331194	272.9	31.8	-78.4	0.0
2025-01-24 13:31:58.574765	273.7	31.7	-78.0	0.0
2025-01-24 13:32:00.820393	274.6	31.7	-77.1	0.0
2025-01-24 13:32:03.067141	275.4	31.6	-77.3	0.0
2025-01-24 13:32:05.311877	276.2	31.5	-76.5	0.0
2025-01-24 13:32:07.557746	277.0	31.4	-76.9	0.0
2025-01-24 13:32:09.805491	277.8	31.3	-77.3	0.0
2025-01-24 13:32:12.050667	278.6	31.2	-76.9	0.0
2025-01-24 13:32:14.295713	279.4	31.1	-76.8	0.0
2025-01-24 13:32:16.542570	280.2	31.0	-76.6	0.0
2025-01-24 13:32:18.787259	281.0	30.9	-77.3	0.0
2025-01-24 13:32:21.035546	281.8	30.8	-77.0	0.0
2025-01-24 13:32:23.282488	282.5	30.7	-77.2	0.0
2025-01-24 13:32:25.526169	283.3	30.5	-77.5	0.0
2025-01-24 13:32:27.770420	284.0	30.4	-77.5	0.0
2025-01-24 13:32:30.018220	284.8	30.3	-77.1	0.0
2025-01-24 13:32:32.264388	285.6	30.1	-77.3	0.0
2025-01-24 13:32:34.509541	286.3	30.0	-77.3	0.0
2025-01-24 13:32:36.755575	287.0	29.8	-77.2	0.0
2025-01-24 13:32:39.002522	287.8	29.7	-77.0	0.0
2025-01-24 13:32:41.248816	288.5	29.5	-76.2	0.0
2025-01-24 13:32:43.495907	289.2	29.4	-77.0	0.0
2025-01-24 13:32:45.742609	289.9	29.2	-77.3	0.0
2025-01-24 13:32:47.989723	290.6	29.0	-77.1	0.0
2025-01-24 13:32:50.235489	291.3	28.9	-77.0	0.0
2025-01-24 13:32:52.480221	292.0	28.7	-77.1	0.0
2025-01-24 13:32:54.725554	292.6	28.5	-77.1	0.0
2025-01-24 13:32:56.971765	293.3	28.3	-77.2	0.0
2025-01-24 13:32:59.218453	294.0	28.1	-77.0	0.0
2025-01-24 13:33:01.464302	294.6	27.9	-76.4	0.0
2025-01-24 13:33:03.711119	295.3	27.8	-77.0	0.0
2025-01-24 13:33:05.957318	295.9	27.6	-77.0	0.0
2025-01-24 13:33:08.200663	296.5	27.4	-77.5	0.0
2025-01-24 13:33:10.447498	297.2	27.2	-76.8	0.0
2025-01-24 13:33:12.692127	297.8	27.0	-77.4	0.0
2025-01-24 13:33:14.937068	298.4	26.8	-77.5	0.0
2025-01-24 13:33:17.179283	299.0	26.6	-76.9	0.0
2025-01-24 13:33:19.424047	299.6	26.4	-77.1	0.0
2025-01-24 13:33:21.670719	300.2	26.2	-77.3	0.0
2025-01-24 13:33:23.919849	300.7	25.9	-77.2	0.0
2025-01-24 13:33:26.164364	301.3	25.7	-77.6	0.0
2025-01-24 13:33:28.409979	301.9	25.5	-76.9	0.0
2025-01-24 13:33:30.657493	302.4	25.3	-77.0	0.0
2025-01-24 13:33:32.901561	303.0	25.1	-77.2	0.0
2025-01-24 13:33:35.147666	303.5	24.9	-77.1	0.0
2025-01-24 13:33:37.395381	304.1	24.7	-77.2	0.0
2025-01-24 13:33:39.643667	304.6	24.5	-77.4	0.0
2025-01-24 13:33:41.888256	305.1	24.2	-77.7	0.0
2025-01-24 13:33:44.136501	305.6	24.0	-78.0	0.0
2025-01-24 13:33:46.384232	306.1	23.8	-77.9	0.0
2025-01-24 13:33:48.627335	306.6	23.6	-78.1	0.0
2025-01-24 13:33:50.872757	307.1	23.4	-78.3	0.0
2025-01-24 13:33:53.120667	307.6	23.2	-77.8	0.0
2025-01-24 13:33:55.364062	308.1	22.9	-77.9	0.0
2025-01-24 13:33:57.610959	308.6	22.7	-77.0	0.0
2025-01-24 13:33:59.853940	309.0	22.5	-77.8	0.0
2025-01-24 13:34:02.097924	309.5	22.3	-76.7	0.0
2025-01-24 13:34:04.341762	309.9	22.1	-78.2	0.0
2025-01-24 13:34:06.585483	310.4	21.8	-78.3	0.0
2025-01-24 13:34:08.830445	310.8	21.6	-78.4	0.0
2025-01-24 13:34:11.077441	311.2	21.4	-77.9	0.0
2025-01-24 13:34:13.325793	311.7	21.2	-77.8	0.0
2025-01-24 13:34:15.571521	312.1	21.0	-78.0	0.0
2025-01-24 13:34:17.819347	312.5	20.8	-78.3	0.0
2025-01-24 13:34:20.066533	312.9	20.5	-78.2	0.0
2025-01-24 13:34:22.312983	313.3	20.3	-78.1	0.0
2025-01-24 13:34:24.558929	313.7	20.1	-78.4	0.0
2025-01-24 13:34:26.804669	314.1	19.9	-78.6	0.0
2025-01-24 13:34:29.048325	314.5	19.7	-78.5	0.0
2025-01-24 13:34:31.291647	314.9	19.5	-78.0	0.0
2025-01-24 13:34:33.536079	315.3	19.3	-78.1	0.0
2025-01-24 13:34:35.781669	315.7	19.1	-78.3	0.0
2025-01-24 13:34:38.027287	316.0	18.8	-78.0	0.0
2025-01-24 13:34:40.272348	316.4	18.6	-77.9	0.0
2025-01-24 13:34:42.517424	316.7	18.4	-78.1	0.0
2025-01-24 13:34:44.762790	317.1	18.2	-78.3	0.0
2025-01-24 13:34:47.009151	317.4	18.0	-77.7	0.0
2025-01-24 13:34:49.256093	317.8	17.8	-77.4	0.0
2025-01-24 13:34:51.500696	318.1	17.6	-78.0	0.0
2025-01-24 13:34:53.748981	318.5	17.4	-78.2	0.0
2025-01-24 13:34:55.993481	318.8	17.2	-78.3	0.0
2025-01-24 13:34:58.239514	319.1	17.0	-78.3	0.0
2025-01-24 13:35:00.483106	319.4	16.8	-78.5	0.0
2025-01-24 13:35:02.727552	319.8	16.6	-78.6	0.0
2025-01-24 13:35:04.974426	320.1	16.4	-78.5	0.0
2025-01-24 13:35:07.218803	320.4	16.2	-78.1	0.0
2025-01-24 13:35:09.463269	320.7	16.0	-78.1	0.0
2025-01-24 13:35:11.709812	321.0	15.8	-78.2	0.0
2025-01-24 13:35:13.953918	321.3	15.6	-78.4	0.0
2025-01-24 13:35:16.201863	321.6	15.4	-77.9	0.0
2025-01-24 13:35:18.448492	321.9	15.2	-77.4	0.0
2025-01-24 13:35:20.693189	322.2	15.0	-77.8	0.0
2025-01-24 13:35:22.939345	322.5	14.8	-77.0	0.0
2025-01-24 13:35:25.186369	322.7	14.6	-77.5	0.0
2025-01-24 13:35:27.437064	323.0	14.4	-78.2	0.0
2025-01-24 13:35:29.683057	323.3	14.2	-78.0	0.0
2025-01-24 13:35:31.926236	323.6	14.0	-77.9	0.0
2025-01-24 13:35:34.173561	323.8	13.8	-76.8	0.0
2025-01-24 13:35:36.420814	324.1	13.6	-77.2	0.0
2025-01-24 13:35:38.666155	324.3	13.5	-76.5	0.0
2025-01-24 13:35:40.914433	324.6	13.3	-77.8	0.0
2025-01-24 13:35:43.162554	324.8	13.1	-77.3	0.0
2025-01-24 13:35:45.407877	325.1	12.9	-77.5	0.0
2025-01-24 13:35:47.652209	325.3	12.7	-77.3	0.0
2025-01-24 13:35:49.893726	325.6	12.5	-77.2	0.0
2025-01-24 13:35:52.139438	325.8	12.4	-77.5	0.0
2025-01-24 13:35:54.382089	326.1	12.2	-77.1	0.0
2025-01-24 13:35:56.627828	326.3	12.0	-77.3	0.0
2025-01-24 13:35:58.877733	326.5	11.8	-77.0	0.0
2025-01-24 13:36:01.123911	326.8	11.6	-77.3	0.0
2025-01-24 13:36:03.370426	327.0	11.5	-77.7	0.0
2025-01-24 13:36:05.616997	327.2	11.3	-77.6	0.0
2025-01-24 13:36:07.864588	327.4	11.1	-77.9	0.0
2025-01-24 13:36:10.108454	327.7	10.9	-77.1	0.0
2025-01-24 13:36:12.353807	327.9	10.8	-77.6	0.0
2025-01-24 13:36:14.599708	328.1	10.6	-77.5	0.0
2025-01-24 13:36:16.845457	328.3	10.4	-77.9	0.0
2025-01-24 13:36:19.089866	328.5	10.2	-77.9	0.0
2025-01-24 13:36:21.335633	328.7	10.1	-77.8	0.0
#Closed at: 2025-01-24 13:26:48.504323