passes_logs/2025/01/24/planumMaritime01/planumMaritime01__20250124_062713_METEOR-M2_3_rec.log

#Pass ID: 20250124_062713_METEOR-M2 3
#Satellite: METEOR-M2 3
#Configuration: METEOR-M2 3
#Start time: 2025-01-24 06:27:18.720261

#LorettStation: 1.0.0 05.05.2024
#Station: planumMaritime01
#Location: 37.49445 lon 55.92918 lat
#TLE: 1 57166U 23091A   25023.82634034  .00000085  00000+0  56339-4 0  9994
#TLE: 2 57166  98.6836  82.1812 0003643 195.3672 164.7397 14.23971493 82020

#Time	Az	El	Level	SNR
2025-01-24 06:27:20.884655	30.5	10.2	-76.5	0.0
2025-01-24 06:27:23.133738	30.7	10.3	-77.0	0.0
2025-01-24 06:27:25.380298	30.9	10.5	-77.3	0.0
2025-01-24 06:27:27.625152	31.1	10.7	-76.6	0.0
2025-01-24 06:27:29.868754	31.3	10.9	-77.3	0.0
2025-01-24 06:27:32.116481	31.5	11.0	-76.8	0.0
2025-01-24 06:27:34.360464	31.8	11.2	-77.5	0.0
2025-01-24 06:27:36.608201	32.0	11.4	-77.2	0.0
2025-01-24 06:27:38.855440	32.2	11.6	-77.3	0.0
2025-01-24 06:27:41.103425	32.4	11.7	-77.2	0.0
2025-01-24 06:27:43.348434	32.6	11.9	-77.8	0.0
2025-01-24 06:27:45.597194	32.9	12.1	-77.6	0.0
2025-01-24 06:27:47.845707	33.1	12.3	-77.7	0.0
2025-01-24 06:27:50.091287	33.3	12.5	-77.2	0.0
2025-01-24 06:27:52.336308	33.6	12.7	-78.0	0.0
2025-01-24 06:27:54.585139	33.8	12.8	-77.6	0.0
2025-01-24 06:27:56.828905	34.0	13.0	-77.3	0.0
2025-01-24 06:27:59.073261	34.3	13.2	-77.3	0.0
2025-01-24 06:28:01.318691	34.5	13.4	-77.3	0.0
2025-01-24 06:28:03.566546	34.8	13.6	-77.2	0.0
2025-01-24 06:28:05.812895	35.0	13.8	-77.7	0.0
2025-01-24 06:28:08.055931	35.3	14.0	-77.5	0.0
2025-01-24 06:28:10.301972	35.6	14.2	-77.5	0.0
2025-01-24 06:28:12.544545	35.8	14.4	-77.6	0.0
2025-01-24 06:28:14.793633	36.1	14.6	-77.7	0.0
2025-01-24 06:28:17.040467	36.4	14.7	-77.7	0.0
2025-01-24 06:28:19.286664	36.6	14.9	-77.8	0.0
2025-01-24 06:28:21.531806	36.9	15.1	-77.5	0.0
2025-01-24 06:28:23.777313	37.2	15.3	-77.7	0.0
2025-01-24 06:28:26.022922	37.5	15.5	-77.9	0.0
2025-01-24 06:28:28.269715	37.8	15.7	-77.8	0.0
2025-01-24 06:28:30.519077	38.1	15.9	-77.3	0.0
2025-01-24 06:28:32.767119	38.3	16.1	-77.9	0.0
2025-01-24 06:28:35.015963	38.6	16.3	-77.8	0.0
2025-01-24 06:28:37.260053	39.0	16.6	-77.4	0.0
2025-01-24 06:28:39.508796	39.3	16.8	-77.7	0.0
2025-01-24 06:28:41.756549	39.6	17.0	-77.3	0.0
2025-01-24 06:28:44.000853	39.9	17.2	-77.4	0.0
2025-01-24 06:28:46.247723	40.2	17.4	-77.7	0.0
2025-01-24 06:28:48.495166	40.5	17.6	-77.6	0.0
2025-01-24 06:28:50.740336	40.9	17.8	-77.4	0.0
2025-01-24 06:28:52.984992	41.2	18.0	-77.7	0.0
2025-01-24 06:28:55.229994	41.5	18.2	-77.4	0.0
2025-01-24 06:28:57.474084	41.9	18.4	-77.5	0.0
2025-01-24 06:28:59.718887	42.2	18.6	-77.4	0.0
2025-01-24 06:29:01.961342	42.6	18.9	-77.5	0.0
2025-01-24 06:29:04.207454	42.9	19.1	-77.9	0.0
2025-01-24 06:29:06.450736	43.3	19.3	-78.0	0.0
2025-01-24 06:29:08.697099	43.7	19.5	-77.6	0.0
2025-01-24 06:29:10.942552	44.0	19.7	-77.2	0.0
2025-01-24 06:29:13.188546	44.4	19.9	-77.6	0.0
2025-01-24 06:29:15.438832	44.8	20.2	-78.3	0.0
2025-01-24 06:29:17.682808	45.2	20.4	-78.0	0.0
2025-01-24 06:29:19.930105	45.6	20.6	-77.6	0.0
2025-01-24 06:29:22.177122	46.0	20.8	-77.8	0.0
2025-01-24 06:29:24.423447	46.4	21.1	-77.3	0.0
2025-01-24 06:29:26.667723	46.8	21.3	-77.7	0.0
2025-01-24 06:29:28.914788	47.2	21.5	-77.8	0.0
2025-01-24 06:29:31.158950	47.6	21.7	-77.9	0.0
2025-01-24 06:29:33.402442	48.1	21.9	-77.7	0.0
2025-01-24 06:29:35.647963	48.5	22.2	-77.4	0.0
2025-01-24 06:29:37.892612	48.9	22.4	-77.6	0.0
2025-01-24 06:29:40.140602	49.4	22.6	-78.0	0.0
2025-01-24 06:29:42.386977	49.8	22.8	-77.9	0.0
2025-01-24 06:29:44.634877	50.3	23.1	-77.5	0.0
2025-01-24 06:29:46.879548	50.8	23.3	-77.8	0.0
2025-01-24 06:29:49.124497	51.3	23.5	-77.8	0.0
2025-01-24 06:29:51.366862	51.7	23.8	-78.0	0.0
2025-01-24 06:29:53.613131	52.2	24.0	-77.3	0.0
2025-01-24 06:29:55.859934	52.7	24.2	-77.7	0.0
2025-01-24 06:29:58.104900	53.2	24.4	-77.9	0.0
2025-01-24 06:30:00.349531	53.7	24.7	-78.3	0.0
2025-01-24 06:30:02.600554	54.2	24.9	-78.1	0.0
2025-01-24 06:30:04.846907	54.8	25.1	-77.8	0.0
2025-01-24 06:30:07.092781	55.3	25.3	-77.4	0.0
2025-01-24 06:30:09.337255	55.8	25.6	-77.9	0.0
2025-01-24 06:30:11.584669	56.4	25.8	-78.1	0.0
2025-01-24 06:30:13.828957	56.9	26.0	-78.0	0.0
2025-01-24 06:30:16.075383	57.5	26.2	-77.6	0.0
2025-01-24 06:30:18.320497	58.1	26.4	-77.7	0.0
2025-01-24 06:30:20.567080	58.6	26.7	-78.1	0.0
2025-01-24 06:30:22.813783	59.2	26.9	-77.8	0.0
2025-01-24 06:30:25.059904	59.8	27.1	-77.9	0.0
2025-01-24 06:30:27.304384	60.4	27.3	-78.0	0.0
2025-01-24 06:30:29.551777	61.0	27.5	-77.5	0.0
2025-01-24 06:30:31.796450	61.6	27.7	-77.9	0.0
2025-01-24 06:30:34.044113	62.3	27.9	-77.3	0.0
2025-01-24 06:30:36.291478	62.9	28.1	-77.5	0.0
2025-01-24 06:30:38.535754	63.5	28.3	-77.7	0.0
2025-01-24 06:30:40.783078	64.2	28.5	-77.6	0.0
2025-01-24 06:30:43.028874	64.9	28.7	-77.8	0.0
2025-01-24 06:30:45.276989	65.5	28.9	-77.6	0.0
2025-01-24 06:30:47.519775	66.2	29.1	-77.7	0.0
2025-01-24 06:30:49.763427	66.9	29.3	-77.6	0.0
2025-01-24 06:30:52.007305	67.6	29.5	-78.1	0.0
2025-01-24 06:30:54.252425	68.3	29.7	-78.5	0.0
2025-01-24 06:30:56.501260	69.0	29.9	-77.8	0.0
2025-01-24 06:30:58.748400	69.7	30.1	-78.2	0.0
2025-01-24 06:31:00.992707	70.4	30.2	-77.3	0.0
2025-01-24 06:31:03.238126	71.1	30.4	-77.2	0.0
2025-01-24 06:31:05.486336	71.9	30.6	-77.9	0.0
2025-01-24 06:31:07.736785	72.6	30.7	-78.2	0.0
2025-01-24 06:31:09.983512	73.4	30.9	-78.1	0.0
2025-01-24 06:31:12.232523	74.1	31.0	-78.0	0.0
2025-01-24 06:31:14.479817	74.9	31.2	-77.7	0.0
2025-01-24 06:31:16.722659	75.7	31.3	-77.8	0.0
2025-01-24 06:31:18.968443	76.4	31.5	-78.3	0.0
2025-01-24 06:31:21.214157	77.2	31.6	-78.5	0.0
2025-01-24 06:31:23.460739	78.0	31.7	-78.3	0.0
2025-01-24 06:31:25.706394	78.8	31.9	-77.9	0.0
2025-01-24 06:31:27.950290	79.6	32.0	-78.4	0.0
2025-01-24 06:31:30.193255	80.4	32.1	-78.2	0.0
2025-01-24 06:31:32.435139	81.2	32.2	-77.8	0.0
2025-01-24 06:31:34.680805	82.1	32.3	-77.9	0.0
2025-01-24 06:31:36.926965	82.9	32.4	-77.8	0.0
2025-01-24 06:31:39.172879	83.7	32.5	-77.4	0.0
2025-01-24 06:31:41.418698	84.6	32.6	-77.7	0.0
2025-01-24 06:31:43.663952	85.4	32.6	-77.8	0.0
2025-01-24 06:31:45.907042	86.2	32.7	-77.8	0.0
2025-01-24 06:31:48.154455	87.1	32.8	-77.8	0.0
2025-01-24 06:31:50.398393	87.9	32.8	-78.1	0.0
2025-01-24 06:31:52.643358	88.8	32.9	-77.6	0.0
2025-01-24 06:31:54.889380	89.6	32.9	-77.3	0.0
2025-01-24 06:31:57.135295	90.5	33.0	-77.7	0.0
2025-01-24 06:31:59.382312	91.4	33.0	-77.5	0.0
2025-01-24 06:32:01.627179	92.2	33.0	-77.8	0.0
2025-01-24 06:32:03.872114	93.1	33.0	-78.0	0.0
2025-01-24 06:32:06.116433	93.9	33.0	-78.2	0.0
2025-01-24 06:32:08.361235	94.8	33.0	-77.9	0.0
2025-01-24 06:32:10.607146	95.7	33.0	-78.3	0.0
2025-01-24 06:32:12.853128	96.5	33.0	-77.6	0.0
2025-01-24 06:32:15.098111	97.4	33.0	-77.7	0.0
2025-01-24 06:32:17.344862	98.2	33.0	-77.7	0.0
2025-01-24 06:32:19.591526	99.1	32.9	-77.9	0.0
2025-01-24 06:32:21.837646	100.0	32.9	-77.6	0.0
2025-01-24 06:32:24.083824	100.8	32.8	-78.1	0.0
2025-01-24 06:32:26.329917	101.7	32.8	-78.1	0.0
2025-01-24 06:32:28.575825	102.5	32.7	-77.5	0.0
2025-01-24 06:32:30.820085	103.3	32.6	-77.9	0.0
2025-01-24 06:32:33.064593	104.2	32.6	-77.4	0.0
2025-01-24 06:32:35.311336	105.0	32.5	-78.3	0.0
2025-01-24 06:32:37.556993	105.9	32.4	-78.0	0.0
2025-01-24 06:32:39.800786	106.7	32.3	-77.8	0.0
2025-01-24 06:32:42.046780	107.5	32.2	-77.6	0.0
2025-01-24 06:32:44.290117	108.3	32.1	-77.8	0.0
2025-01-24 06:32:46.534796	109.1	32.0	-78.3	0.0
2025-01-24 06:32:48.781882	109.9	31.9	-77.2	0.0
2025-01-24 06:32:51.025774	110.7	31.7	-78.4	0.0
2025-01-24 06:32:53.268388	111.5	31.6	-78.7	0.0
2025-01-24 06:32:55.515439	112.3	31.5	-78.0	0.0
2025-01-24 06:32:57.764499	113.1	31.3	-78.1	0.0
2025-01-24 06:33:00.011275	113.9	31.2	-78.1	0.0
2025-01-24 06:33:02.256057	114.6	31.0	-77.8	0.0
2025-01-24 06:33:04.500453	115.4	30.9	-77.2	0.0
2025-01-24 06:33:06.746768	116.2	30.7	-78.2	0.0
2025-01-24 06:33:08.992678	116.9	30.6	-77.7	0.0
2025-01-24 06:33:11.239257	117.6	30.4	-77.3	0.0
2025-01-24 06:33:13.487216	118.4	30.2	-77.7	0.0
2025-01-24 06:33:15.731182	119.1	30.0	-77.6	0.0
2025-01-24 06:33:17.977617	119.8	29.9	-77.7	0.5
2025-01-24 06:33:20.224181	120.5	29.7	-77.7	1.2
2025-01-24 06:33:22.466537	121.2	29.5	-77.6	1.6
2025-01-24 06:33:24.711784	121.9	29.3	-77.7	0.0
2025-01-24 06:33:26.955363	122.6	29.1	-77.1	0.0
2025-01-24 06:33:29.201840	123.3	28.9	-76.8	2.5
2025-01-24 06:33:31.450108	123.9	28.7	-77.1	3.3
2025-01-24 06:33:33.696367	124.6	28.5	-77.6	1.2
2025-01-24 06:33:35.941702	125.3	28.3	-77.1	0.0
2025-01-24 06:33:38.186984	125.9	28.1	-76.8	0.0
2025-01-24 06:33:40.434151	126.5	27.9	-77.0	0.0
2025-01-24 06:33:42.682554	127.2	27.7	-76.9	0.1
2025-01-24 06:33:44.925645	127.8	27.5	-77.7	0.4
2025-01-24 06:33:47.172025	128.4	27.3	-77.5	0.1
2025-01-24 06:33:49.419941	129.0	27.0	-76.8	1.4
2025-01-24 06:33:51.666732	129.6	26.8	-77.4	0.0
2025-01-24 06:33:53.910972	130.2	26.6	-76.6	0.9
2025-01-24 06:33:56.154771	130.8	26.4	-77.4	2.2
2025-01-24 06:33:58.399998	131.3	26.2	-77.4	0.6
2025-01-24 06:34:00.643165	131.9	25.9	-77.5	0.0
2025-01-24 06:34:02.890666	132.5	25.7	-77.6	0.4
2025-01-24 06:34:05.136998	133.0	25.5	-77.9	0.9
2025-01-24 06:34:07.383207	133.5	25.3	-78.2	0.0
2025-01-24 06:34:09.627062	134.1	25.0	-77.6	0.0
2025-01-24 06:34:11.871675	134.6	24.8	-77.4	0.0
2025-01-24 06:34:14.114333	135.1	24.6	-77.4	0.0
2025-01-24 06:34:16.356015	135.6	24.4	-77.6	0.0
2025-01-24 06:34:18.600882	136.1	24.1	-77.9	0.0
2025-01-24 06:34:20.850735	136.6	23.9	-78.2	0.0
2025-01-24 06:34:23.094461	137.1	23.7	-78.1	0.0
2025-01-24 06:34:25.340124	137.6	23.5	-77.4	0.0
2025-01-24 06:34:27.586096	138.1	23.2	-77.9	0.0
2025-01-24 06:34:29.826423	138.5	23.0	-78.5	0.0
2025-01-24 06:34:32.071068	139.0	22.8	-77.6	0.0
2025-01-24 06:34:34.318601	139.5	22.5	-77.6	0.0
2025-01-24 06:34:36.565249	139.9	22.3	-78.2	0.0
2025-01-24 06:34:38.812453	140.4	22.1	-77.8	0.0
2025-01-24 06:34:41.056959	140.8	21.9	-77.1	0.0
2025-01-24 06:34:43.302052	141.2	21.6	-76.9	0.0
2025-01-24 06:34:45.547496	141.6	21.4	-77.4	0.0
2025-01-24 06:34:47.792873	142.1	21.2	-77.0	1.0
2025-01-24 06:34:50.040887	142.5	21.0	-77.4	0.9
2025-01-24 06:34:52.286492	142.9	20.7	-77.0	2.1
2025-01-24 06:34:54.533597	143.3	20.5	-76.9	2.8
2025-01-24 06:34:56.779544	143.7	20.3	-77.0	4.4
2025-01-24 06:34:59.023874	144.1	20.1	-76.8	5.1
2025-01-24 06:35:01.270017	144.5	19.8	-76.0	4.9
2025-01-24 06:35:03.518607	144.8	19.6	-76.9	6.4
2025-01-24 06:35:05.763471	145.2	19.4	-76.8	5.8
2025-01-24 06:35:08.007748	145.6	19.2	-76.3	7.5
2025-01-24 06:35:10.254911	145.9	19.0	-76.3	6.9
2025-01-24 06:35:12.499158	146.3	18.7	-76.2	8.5
2025-01-24 06:35:14.742516	146.6	18.5	-76.3	8.5
2025-01-24 06:35:16.988246	147.0	18.3	-76.3	9.2
2025-01-24 06:35:19.233539	147.3	18.1	-75.9	9.1
2025-01-24 06:35:21.479394	147.7	17.9	-76.2	9.2
2025-01-24 06:35:23.723523	148.0	17.7	-75.9	9.1
2025-01-24 06:35:25.968997	148.3	17.5	-75.9	10.0
2025-01-24 06:35:28.215352	148.7	17.2	-75.5	10.2
2025-01-24 06:35:30.460063	149.0	17.0	-75.3	11.0
2025-01-24 06:35:32.705763	149.3	16.8	-75.3	11.4
2025-01-24 06:35:34.952410	149.6	16.6	-75.1	10.9
2025-01-24 06:35:37.198267	149.9	16.4	-75.2	11.3
2025-01-24 06:35:39.440932	150.2	16.2	-75.1	10.8
2025-01-24 06:35:41.688141	150.5	16.0	-75.1	10.9
2025-01-24 06:35:43.930433	150.8	15.8	-75.0	10.5
2025-01-24 06:35:46.174377	151.1	15.6	-74.9	11.6
2025-01-24 06:35:48.417828	151.4	15.4	-74.9	12.0
2025-01-24 06:35:50.666842	151.7	15.2	-75.1	12.1
2025-01-24 06:35:52.914936	152.0	15.0	-75.0	11.6
2025-01-24 06:35:55.161201	152.2	14.8	-75.1	12.3
2025-01-24 06:35:57.406020	152.5	14.6	-74.7	11.0
2025-01-24 06:35:59.653899	152.8	14.4	-75.0	11.5
2025-01-24 06:36:01.900489	153.1	14.2	-75.3	12.2
2025-01-24 06:36:04.143454	153.3	14.0	-75.0	12.1
2025-01-24 06:36:06.393398	153.6	13.8	-75.2	11.2
2025-01-24 06:36:08.637653	153.8	13.6	-75.2	11.0
2025-01-24 06:36:10.884591	154.1	13.4	-75.1	11.5
2025-01-24 06:36:13.128539	154.3	13.2	-75.0	11.6
2025-01-24 06:36:15.373287	154.6	13.0	-74.7	9.9
2025-01-24 06:36:17.619253	154.8	12.9	-75.2	11.3
2025-01-24 06:36:19.861352	155.1	12.7	-75.6	11.2
2025-01-24 06:36:22.107309	155.3	12.5	-75.2	10.5
2025-01-24 06:36:24.354496	155.5	12.3	-75.5	11.7
2025-01-24 06:36:26.599148	155.8	12.1	-75.2	10.6
2025-01-24 06:36:28.843264	156.0	11.9	-75.6	11.3
2025-01-24 06:36:31.089830	156.2	11.7	-75.4	11.3
2025-01-24 06:36:33.333967	156.5	11.6	-75.1	10.5
2025-01-24 06:36:35.580994	156.7	11.4	-74.9	9.0
2025-01-24 06:36:37.826030	156.9	11.2	-75.4	10.3
2025-01-24 06:36:40.072493	157.1	11.0	-75.0	9.6
2025-01-24 06:36:42.320245	157.3	10.8	-75.6	9.6
2025-01-24 06:36:44.566637	157.5	10.7	-75.4	9.5
2025-01-24 06:36:46.813020	157.7	10.5	-75.8	10.0
2025-01-24 06:36:49.063857	157.9	10.3	-75.0	9.7
2025-01-24 06:36:51.306734	158.2	10.1	-75.3	8.6
#Closed at: 2025-01-24 06:27:13.726599