passes_logs/2025/01/24/planumMaritime01/planumMaritime01__20250124_181900_METOP-B_rec.log

#Pass ID: 20250124_181900_METOP-B
#Satellite: METOP-B
#Configuration: METOP-B
#Start time: 2025-01-24 18:19:05.904515

#LorettStation: 1.0.0 05.05.2024
#Station: planumMaritime01
#Location: 37.49445 lon 55.92918 lat
#TLE: 1 38771U 12049A   25023.77055793  .00000354  00000+0  18150-3 0  9996
#TLE: 2 38771  98.5998  81.7023 0001597  71.0182 289.1168 14.21416772640884

#Time	Az	El	Level	SNR
2025-01-24 18:19:08.063890	180.9	10.2	-77.4	0.0
2025-01-24 18:19:10.311324	181.0	10.4	-77.1	0.0
2025-01-24 18:19:12.556222	181.1	10.6	-77.0	0.0
2025-01-24 18:19:14.803197	181.2	10.8	-77.0	0.0
2025-01-24 18:19:17.049072	181.3	11.0	-77.3	0.0
2025-01-24 18:19:19.292455	181.5	11.2	-77.5	0.0
2025-01-24 18:19:21.539310	181.6	11.4	-77.3	0.0
2025-01-24 18:19:23.786374	181.7	11.6	-77.2	0.0
2025-01-24 18:19:26.033548	181.8	11.8	-77.5	0.0
2025-01-24 18:19:28.280952	181.9	12.0	-77.4	0.0
2025-01-24 18:19:30.527247	182.0	12.2	-77.2	0.0
2025-01-24 18:19:32.774180	182.1	12.4	-77.3	0.0
2025-01-24 18:19:35.021354	182.3	12.6	-77.2	0.0
2025-01-24 18:19:37.266495	182.4	12.8	-77.4	0.0
2025-01-24 18:19:39.512485	182.5	13.0	-77.1	0.0
2025-01-24 18:19:41.758500	182.6	13.2	-77.5	0.0
2025-01-24 18:19:44.001366	182.8	13.5	-77.8	0.0
2025-01-24 18:19:46.248667	182.9	13.7	-77.6	0.0
2025-01-24 18:19:48.492533	183.0	13.9	-76.8	0.0
2025-01-24 18:19:50.739622	183.1	14.1	-76.6	0.0
2025-01-24 18:19:52.985816	183.3	14.3	-77.2	0.0
2025-01-24 18:19:55.228291	183.4	14.6	-77.1	0.0
2025-01-24 18:19:57.471825	183.5	14.8	-77.3	0.0
2025-01-24 18:19:59.714790	183.7	15.0	-77.5	0.0
2025-01-24 18:20:01.962064	183.8	15.3	-77.6	0.0
2025-01-24 18:20:04.212727	184.0	15.5	-77.7	0.0
2025-01-24 18:20:06.458948	184.1	15.7	-77.7	0.0
2025-01-24 18:20:08.706849	184.3	16.0	-77.4	0.0
2025-01-24 18:20:10.949906	184.4	16.2	-77.4	0.0
2025-01-24 18:20:13.196541	184.6	16.5	-77.8	0.0
2025-01-24 18:20:15.442862	184.7	16.7	-77.6	0.0
2025-01-24 18:20:17.691146	184.9	17.0	-77.3	0.0
2025-01-24 18:20:19.938306	185.0	17.2	-77.9	0.0
2025-01-24 18:20:22.185970	185.2	17.5	-77.8	0.0
2025-01-24 18:20:24.431017	185.4	17.7	-77.5	0.0
2025-01-24 18:20:26.675767	185.5	18.0	-77.6	0.0
2025-01-24 18:20:28.921611	185.7	18.2	-76.6	0.0
2025-01-24 18:20:31.168701	185.9	18.5	-77.7	0.0
2025-01-24 18:20:33.414109	186.1	18.8	-77.5	0.0
2025-01-24 18:20:35.664127	186.2	19.0	-77.8	0.0
2025-01-24 18:20:37.912346	186.4	19.3	-77.7	0.0
2025-01-24 18:20:40.160926	186.6	19.6	-77.4	0.0
2025-01-24 18:20:42.403381	186.8	19.9	-77.7	0.0
2025-01-24 18:20:44.648337	187.0	20.1	-77.7	0.0
2025-01-24 18:20:46.896537	187.2	20.4	-77.6	0.0
2025-01-24 18:20:49.142284	187.4	20.7	-77.9	0.0
2025-01-24 18:20:51.390063	187.6	21.0	-77.5	0.0
2025-01-24 18:20:53.635507	187.8	21.3	-78.0	0.0
2025-01-24 18:20:55.880907	188.0	21.6	-77.8	0.0
2025-01-24 18:20:58.128542	188.2	21.9	-77.7	0.0
2025-01-24 18:21:00.374854	188.4	22.2	-77.8	0.0
2025-01-24 18:21:02.623209	188.6	22.5	-78.3	0.0
2025-01-24 18:21:04.870221	188.9	22.8	-77.5	0.0
2025-01-24 18:21:07.117177	189.1	23.1	-77.3	0.0
2025-01-24 18:21:09.360542	189.3	23.4	-77.2	0.0
2025-01-24 18:21:11.606936	189.6	23.7	-77.3	0.0
2025-01-24 18:21:13.852460	189.8	24.1	-77.6	0.0
2025-01-24 18:21:16.099987	190.1	24.4	-78.0	0.0
2025-01-24 18:21:18.346123	190.3	24.7	-77.2	0.0
2025-01-24 18:21:20.593571	190.6	25.0	-77.4	0.0
2025-01-24 18:21:22.841958	190.9	25.4	-77.9	0.0
2025-01-24 18:21:25.090061	191.1	25.7	-77.5	0.0
2025-01-24 18:21:27.335568	191.4	26.1	-77.3	0.0
2025-01-24 18:21:29.582191	191.7	26.4	-77.5	0.0
2025-01-24 18:21:31.828596	192.0	26.8	-77.7	0.0
2025-01-24 18:21:34.075501	192.3	27.1	-78.1	0.0
2025-01-24 18:21:36.321211	192.6	27.5	-77.3	0.0
2025-01-24 18:21:38.568115	192.9	27.8	-77.7	0.0
2025-01-24 18:21:40.816053	193.2	28.2	-78.1	0.0
2025-01-24 18:21:43.061840	193.5	28.6	-78.0	0.0
2025-01-24 18:21:45.309074	193.8	28.9	-77.8	0.0
2025-01-24 18:21:47.555578	194.2	29.3	-77.9	0.0
2025-01-24 18:21:49.801901	194.5	29.7	-77.9	0.0
2025-01-24 18:21:52.048509	194.9	30.1	-78.1	0.0
2025-01-24 18:21:54.293339	195.2	30.5	-77.6	0.0
2025-01-24 18:21:56.540588	195.6	30.9	-77.9	0.0
2025-01-24 18:21:58.785386	196.0	31.3	-78.0	0.0
2025-01-24 18:22:01.029040	196.4	31.7	-77.4	0.0
2025-01-24 18:22:03.274479	196.8	32.1	-78.1	0.0
2025-01-24 18:22:05.522751	197.2	32.5	-77.9	0.0
2025-01-24 18:22:07.771728	197.6	32.9	-78.4	0.0
2025-01-24 18:22:10.020666	198.0	33.3	-78.4	0.0
2025-01-24 18:22:12.266265	198.5	33.7	-77.7	0.0
2025-01-24 18:22:14.510313	198.9	34.2	-77.9	0.0
2025-01-24 18:22:16.755793	199.4	34.6	-77.5	0.0
2025-01-24 18:22:18.999649	199.8	35.0	-77.8	0.0
2025-01-24 18:22:21.244499	200.3	35.5	-77.8	0.0
2025-01-24 18:22:23.489628	200.8	35.9	-77.8	0.0
2025-01-24 18:22:25.735091	201.3	36.3	-77.3	0.0
2025-01-24 18:22:27.980630	201.9	36.8	-78.2	0.0
2025-01-24 18:22:30.226756	202.4	37.2	-78.0	0.0
2025-01-24 18:22:32.473956	203.0	37.7	-77.3	0.0
2025-01-24 18:22:34.720444	203.5	38.2	-77.3	0.0
2025-01-24 18:22:36.966906	204.1	38.6	-77.2	0.0
2025-01-24 18:22:39.212448	204.7	39.1	-78.0	0.0
2025-01-24 18:22:41.459461	205.4	39.6	-77.9	0.0
2025-01-24 18:22:43.705637	206.0	40.0	-77.9	0.0
2025-01-24 18:22:45.952955	206.7	40.5	-77.7	0.0
2025-01-24 18:22:48.201248	207.3	41.0	-77.7	0.0
2025-01-24 18:22:50.450410	208.0	41.5	-78.0	0.0
2025-01-24 18:22:52.697511	208.8	41.9	-78.0	0.0
2025-01-24 18:22:54.943211	209.5	42.4	-76.8	0.0
2025-01-24 18:22:57.189891	210.3	42.9	-78.1	0.0
2025-01-24 18:22:59.435094	211.0	43.4	-78.4	0.0
2025-01-24 18:23:01.685121	211.9	43.8	-77.5	0.0
2025-01-24 18:23:03.932636	212.7	44.3	-77.7	0.0
2025-01-24 18:23:06.178401	213.6	44.8	-77.9	0.0
2025-01-24 18:23:08.423209	214.4	45.3	-78.0	0.0
2025-01-24 18:23:10.670293	215.3	45.8	-77.9	0.0
2025-01-24 18:23:12.918677	216.3	46.2	-77.6	0.0
2025-01-24 18:23:15.165976	217.3	46.7	-78.0	0.0
2025-01-24 18:23:17.411269	218.2	47.2	-78.0	0.0
2025-01-24 18:23:19.656615	219.3	47.6	-78.0	0.0
2025-01-24 18:23:21.901385	220.3	48.1	-77.8	0.0
2025-01-24 18:23:24.147904	221.4	48.5	-77.1	0.0
2025-01-24 18:23:26.393561	222.5	49.0	-78.2	0.0
2025-01-24 18:23:28.638958	223.7	49.4	-78.0	0.0
2025-01-24 18:23:30.884265	224.9	49.9	-77.5	0.0
2025-01-24 18:23:33.128658	226.1	50.3	-77.8	0.0
2025-01-24 18:23:35.378294	227.3	50.7	-77.7	0.0
2025-01-24 18:23:37.626370	228.6	51.1	-78.1	0.0
2025-01-24 18:23:39.874807	229.9	51.5	-78.2	0.0
2025-01-24 18:23:42.119796	231.3	51.8	-78.1	0.0
2025-01-24 18:23:44.367130	232.7	52.2	-77.6	0.0
2025-01-24 18:23:46.613290	234.1	52.5	-77.2	0.0
2025-01-24 18:23:48.859792	235.6	52.9	-77.5	0.0
2025-01-24 18:23:51.105717	237.0	53.2	-77.4	0.0
2025-01-24 18:23:53.353449	238.5	53.5	-77.8	0.0
2025-01-24 18:23:55.599537	240.1	53.8	-77.6	0.0
2025-01-24 18:23:57.842812	241.7	54.0	-77.9	0.0
2025-01-24 18:24:00.089735	243.3	54.3	-77.5	0.0
2025-01-24 18:24:02.332899	244.9	54.5	-77.7	0.0
2025-01-24 18:24:04.579679	246.5	54.7	-77.6	0.0
2025-01-24 18:24:06.828558	248.2	54.8	-78.0	0.0
2025-01-24 18:24:09.076063	249.9	55.0	-78.0	0.0
2025-01-24 18:24:11.323234	251.6	55.1	-78.0	0.0
2025-01-24 18:24:13.569120	253.3	55.2	-74.0	0.0
2025-01-24 18:24:15.816033	255.0	55.3	-78.0	0.0
2025-01-24 18:24:18.060872	256.8	55.3	-78.5	0.0
2025-01-24 18:24:20.305885	258.5	55.3	-77.4	0.0
2025-01-24 18:24:22.553942	260.2	55.3	-78.5	0.0
2025-01-24 18:24:24.796765	262.0	55.3	-78.2	0.0
2025-01-24 18:24:27.046470	263.7	55.2	-78.2	0.0
2025-01-24 18:24:29.294486	265.4	55.2	-78.5	0.0
2025-01-24 18:24:31.540737	267.1	55.1	-78.2	0.0
2025-01-24 18:24:33.785911	268.8	54.9	-78.3	0.0
2025-01-24 18:24:36.031200	270.5	54.8	-77.9	0.0
2025-01-24 18:24:38.278051	272.2	54.6	-78.2	0.0
2025-01-24 18:24:40.527619	273.8	54.4	-77.8	0.0
2025-01-24 18:24:42.774341	275.4	54.2	-78.6	0.0
2025-01-24 18:24:45.021429	277.0	53.9	-78.0	0.0
2025-01-24 18:24:47.267107	278.6	53.7	-77.7	0.0
2025-01-24 18:24:49.514302	280.1	53.4	-78.1	0.0
2025-01-24 18:24:51.761074	281.6	53.1	-78.4	0.0
2025-01-24 18:24:54.005174	283.1	52.8	-78.3	0.0
2025-01-24 18:24:56.250558	284.5	52.4	-77.9	0.0
2025-01-24 18:24:58.497348	285.9	52.1	-78.0	0.0
2025-01-24 18:25:00.743891	287.3	51.7	-78.3	0.0
2025-01-24 18:25:02.993865	288.6	51.3	-78.0	0.0
2025-01-24 18:25:05.239407	289.9	51.0	-78.3	0.0
2025-01-24 18:25:07.483398	291.2	50.6	-77.9	0.0
2025-01-24 18:25:09.730269	292.4	50.1	-78.5	0.0
2025-01-24 18:25:11.980117	293.6	49.7	-77.9	0.0
2025-01-24 18:25:14.224369	294.8	49.3	-78.4	0.0
2025-01-24 18:25:16.471809	295.9	48.9	-78.1	0.0
2025-01-24 18:25:18.720020	297.0	48.4	-78.4	0.0
2025-01-24 18:25:20.965300	298.1	48.0	-78.6	0.0
2025-01-24 18:25:23.211547	299.2	47.5	-78.1	0.0
2025-01-24 18:25:25.457109	300.2	47.0	-78.3	0.0
2025-01-24 18:25:27.703764	301.2	46.6	-78.2	0.0
2025-01-24 18:25:29.949619	302.1	46.1	-78.6	0.0
2025-01-24 18:25:32.192872	303.0	45.6	-78.4	0.0
2025-01-24 18:25:34.439727	303.9	45.2	-78.3	0.0
2025-01-24 18:25:36.687216	304.8	44.7	-78.2	0.0
2025-01-24 18:25:38.933318	305.7	44.2	-78.0	0.0
2025-01-24 18:25:41.181946	306.5	43.7	-78.0	0.0
2025-01-24 18:25:43.428192	307.3	43.2	-78.2	0.0
2025-01-24 18:25:45.677192	308.1	42.8	-78.1	0.0
2025-01-24 18:25:47.922446	308.8	42.3	-78.3	0.0
2025-01-24 18:25:50.168964	309.6	41.8	-78.7	0.0
2025-01-24 18:25:52.415149	310.3	41.3	-78.3	0.0
2025-01-24 18:25:54.661922	311.0	40.9	-78.6	0.0
2025-01-24 18:25:56.910148	311.6	40.4	-78.4	0.0
2025-01-24 18:25:59.155920	312.3	39.9	-78.7	0.0
2025-01-24 18:26:01.403444	312.9	39.5	-78.5	0.0
2025-01-24 18:26:03.651541	313.5	39.0	-78.2	0.0
2025-01-24 18:26:05.895301	314.1	38.5	-77.9	0.0
2025-01-24 18:26:08.144288	314.7	38.1	-78.1	0.0
2025-01-24 18:26:10.392768	315.3	37.6	-78.5	0.0
2025-01-24 18:26:12.639457	315.8	37.2	-78.1	0.0
2025-01-24 18:26:14.887496	316.4	36.7	-78.6	0.0
2025-01-24 18:26:17.134025	316.9	36.3	-78.5	0.0
2025-01-24 18:26:19.382699	317.4	35.8	-78.8	0.0
2025-01-24 18:26:21.630079	317.9	35.4	-78.7	0.0
2025-01-24 18:26:23.878504	318.4	35.0	-77.8	0.0
2025-01-24 18:26:26.126796	318.8	34.5	-78.4	0.0
2025-01-24 18:26:28.373770	319.3	34.1	-78.3	0.0
2025-01-24 18:26:30.621354	319.7	33.7	-78.1	0.0
2025-01-24 18:26:32.865466	320.2	33.3	-78.3	0.0
2025-01-24 18:26:35.116085	320.6	32.8	-78.3	0.0
2025-01-24 18:26:37.359356	321.0	32.4	-77.8	0.0
2025-01-24 18:26:39.610656	321.4	32.0	-78.5	0.0
2025-01-24 18:26:41.856818	321.8	31.6	-77.7	0.0
2025-01-24 18:26:44.101912	322.2	31.2	-77.7	0.0
2025-01-24 18:26:46.348637	322.6	30.8	-78.1	0.0
2025-01-24 18:26:48.595341	322.9	30.4	-78.1	0.0
2025-01-24 18:26:50.842941	323.3	30.1	-78.2	0.0
2025-01-24 18:26:53.092336	323.7	29.7	-77.9	0.0
2025-01-24 18:26:55.336758	324.0	29.3	-78.5	0.0
2025-01-24 18:26:57.582415	324.3	28.9	-77.5	0.0
2025-01-24 18:26:59.828683	324.7	28.6	-78.2	0.0
2025-01-24 18:27:02.073996	325.0	28.2	-78.3	0.0
2025-01-24 18:27:04.319444	325.3	27.8	-78.4	0.0
2025-01-24 18:27:06.566791	325.6	27.5	-78.5	0.0
2025-01-24 18:27:08.814425	325.9	27.1	-78.0	0.0
2025-01-24 18:27:11.060296	326.2	26.8	-78.5	0.0
2025-01-24 18:27:13.307732	326.5	26.4	-77.9	0.0
2025-01-24 18:27:15.553862	326.8	26.1	-78.4	0.0
2025-01-24 18:27:17.798821	327.0	25.7	-78.0	0.0
2025-01-24 18:27:20.045585	327.3	25.4	-78.0	0.0
2025-01-24 18:27:22.293451	327.6	25.1	-78.4	0.0
2025-01-24 18:27:24.538416	327.8	24.7	-78.5	0.0
2025-01-24 18:27:26.783641	328.1	24.4	-78.3	0.0
2025-01-24 18:27:29.029300	328.3	24.1	-78.2	0.0
2025-01-24 18:27:31.275482	328.6	23.8	-78.4	0.0
2025-01-24 18:27:33.520775	328.8	23.5	-78.0	0.0
2025-01-24 18:27:35.767002	329.0	23.1	-78.1	0.0
2025-01-24 18:27:38.015752	329.3	22.8	-77.8	0.0
2025-01-24 18:27:40.259417	329.5	22.5	-78.0	0.0
2025-01-24 18:27:42.504881	329.7	22.2	-78.0	0.0
2025-01-24 18:27:44.749874	329.9	21.9	-78.3	0.0
2025-01-24 18:27:46.994897	330.2	21.6	-78.6	0.0
2025-01-24 18:27:49.239840	330.4	21.3	-76.1	0.0
2025-01-24 18:27:51.485739	330.6	21.1	-78.7	0.0
2025-01-24 18:27:53.732739	330.8	20.8	-78.3	0.0
2025-01-24 18:27:55.981228	331.0	20.5	-78.3	0.0
2025-01-24 18:27:58.226702	331.2	20.2	-77.1	0.0
2025-01-24 18:28:00.474799	331.4	19.9	-77.8	0.0
2025-01-24 18:28:02.722383	331.5	19.7	-78.1	0.0
2025-01-24 18:28:04.968346	331.7	19.4	-78.4	0.0
2025-01-24 18:28:07.217228	331.9	19.1	-77.9	0.0
2025-01-24 18:28:09.463084	332.1	18.8	-78.2	0.0
2025-01-24 18:28:11.712864	332.3	18.6	-77.7	0.0
2025-01-24 18:28:13.960389	332.4	18.3	-77.8	0.0
2025-01-24 18:28:16.207722	332.6	18.1	-77.5	0.0
2025-01-24 18:28:18.457245	332.8	17.8	-77.9	0.0
2025-01-24 18:28:20.700084	333.0	17.6	-77.5	0.0
2025-01-24 18:28:22.945924	333.1	17.3	-78.0	0.0
2025-01-24 18:28:25.192769	333.3	17.1	-78.0	0.0
2025-01-24 18:28:27.437875	333.4	16.8	-78.4	0.0
2025-01-24 18:28:29.685897	333.6	16.6	-78.3	0.0
2025-01-24 18:28:31.929435	333.7	16.3	-78.0	0.0
2025-01-24 18:28:34.175081	333.9	16.1	-77.8	0.0
2025-01-24 18:28:36.421497	334.0	15.8	-78.3	0.0
2025-01-24 18:28:38.670729	334.2	15.6	-78.5	0.0
2025-01-24 18:28:40.917399	334.3	15.4	-78.1	0.0
2025-01-24 18:28:43.159090	334.5	15.1	-78.5	0.0
2025-01-24 18:28:45.404117	334.6	14.9	-78.1	0.0
2025-01-24 18:28:47.650359	334.8	14.7	-78.2	0.0
2025-01-24 18:28:49.896910	334.9	14.5	-78.0	0.0
2025-01-24 18:28:52.142916	335.0	14.2	-78.2	0.0
2025-01-24 18:28:54.390831	335.2	14.0	-77.9	0.0
2025-01-24 18:28:56.635905	335.3	13.8	-77.4	0.0
2025-01-24 18:28:58.884046	335.4	13.6	-77.2	0.0
2025-01-24 18:29:01.129815	335.5	13.4	-77.9	0.0
2025-01-24 18:29:03.374022	335.7	13.1	-78.4	0.0
2025-01-24 18:29:05.617450	335.8	12.9	-78.6	0.0
2025-01-24 18:29:07.863033	335.9	12.7	-78.4	0.0
2025-01-24 18:29:10.111189	336.0	12.5	-78.3	0.0
2025-01-24 18:29:12.355014	336.2	12.3	-78.2	0.0
2025-01-24 18:29:14.602922	336.3	12.1	-78.3	0.0
2025-01-24 18:29:16.849598	336.4	11.9	-78.6	0.0
2025-01-24 18:29:19.094893	336.5	11.7	-78.6	0.0
2025-01-24 18:29:21.336538	336.6	11.5	-78.1	0.0
2025-01-24 18:29:23.585501	336.7	11.3	-77.8	0.0
2025-01-24 18:29:25.832490	336.8	11.1	-78.0	0.0
2025-01-24 18:29:28.080227	336.9	10.9	-77.8	0.0
2025-01-24 18:29:30.327191	337.1	10.7	-77.5	0.0
2025-01-24 18:29:32.573379	337.2	10.5	-77.7	0.0
2025-01-24 18:29:34.822438	337.3	10.3	-77.6	0.0
2025-01-24 18:29:37.070200	337.4	10.1	-77.5	0.0
#Closed at: 2025-01-24 18:19:00.906803