passes_logs/2025/01/24/planumMaritime01/planumMaritime01__20250124_105611_NOAA_18_rec.log

#Pass ID: 20250124_105611_NOAA 18
#Satellite: NOAA 18
#Configuration: NOAA 18
#Start time: 2025-01-24 10:56:16.810765

#LorettStation: 1.0.0 05.05.2024
#Station: planumMaritime01
#Location: 37.49445 lon 55.92918 lat
#TLE: 1 28654U 05018A   25023.79872758  .00000470  00000+0  27266-3 0  9990
#TLE: 2 28654  98.8553 104.7652 0014753 154.7972 205.3923 14.13495354 14429

#Time	Az	El	Level	SNR
2025-01-24 10:56:18.967212	357.4	10.1	-75.2	0.0
2025-01-24 10:56:20.089257	357.3	10.2	-74.5	0.0
2025-01-24 10:56:21.212958	357.2	10.3	-74.8	0.0
2025-01-24 10:56:22.335239	357.0	10.3	-75.0	0.0
2025-01-24 10:56:23.456088	356.9	10.4	-74.9	0.0
2025-01-24 10:56:24.577003	356.7	10.5	-74.6	0.0
2025-01-24 10:56:25.698435	356.6	10.5	-75.1	0.0
2025-01-24 10:56:26.820346	356.4	10.6	-75.6	0.0
2025-01-24 10:56:27.945151	356.3	10.7	-75.5	0.0
2025-01-24 10:56:29.069505	356.2	10.8	-75.0	0.0
2025-01-24 10:56:30.192698	356.0	10.8	-75.0	0.0
2025-01-24 10:56:31.318459	355.9	10.9	-75.5	0.0
2025-01-24 10:56:32.440904	355.7	11.0	-75.2	0.0
2025-01-24 10:56:33.565047	355.6	11.0	-75.6	0.0
2025-01-24 10:56:34.686173	355.4	11.1	-75.7	0.0
2025-01-24 10:56:35.809397	355.3	11.2	-75.8	0.0
2025-01-24 10:56:36.932585	355.1	11.2	-75.4	0.0
2025-01-24 10:56:38.054766	355.0	11.3	-75.1	0.0
2025-01-24 10:56:39.178613	354.8	11.4	-75.2	0.0
2025-01-24 10:56:40.303522	354.7	11.5	-75.0	0.0
2025-01-24 10:56:41.427108	354.5	11.5	-75.3	0.0
2025-01-24 10:56:42.551810	354.4	11.6	-75.5	0.0
2025-01-24 10:56:43.676992	354.2	11.7	-75.1	0.0
2025-01-24 10:56:44.800155	354.1	11.7	-75.0	0.0
2025-01-24 10:56:45.921252	353.9	11.8	-75.0	0.0
2025-01-24 10:56:47.043930	353.7	11.9	-74.6	0.0
2025-01-24 10:56:48.168518	353.6	11.9	-75.2	0.0
2025-01-24 10:56:49.290733	353.4	12.0	-75.6	0.0
2025-01-24 10:56:50.412833	353.3	12.1	-75.8	0.0
2025-01-24 10:56:51.536223	353.1	12.2	-75.8	0.0
2025-01-24 10:56:52.659428	352.9	12.2	-75.3	0.0
2025-01-24 10:56:53.783007	352.8	12.3	-75.5	0.0
2025-01-24 10:56:54.905469	352.6	12.4	-75.5	0.0
2025-01-24 10:56:56.028259	352.5	12.4	-75.7	0.0
2025-01-24 10:56:57.151089	352.3	12.5	-75.4	0.0
2025-01-24 10:56:58.273442	352.1	12.6	-75.1	0.0
2025-01-24 10:56:59.398233	352.0	12.6	-75.8	0.0
2025-01-24 10:57:00.521500	351.8	12.7	-75.7	0.0
2025-01-24 10:57:01.644056	351.6	12.8	-75.6	0.0
2025-01-24 10:57:02.768384	351.5	12.8	-75.3	0.0
2025-01-24 10:57:03.892517	351.3	12.9	-75.2	0.0
2025-01-24 10:57:05.016849	351.1	13.0	-74.8	0.0
2025-01-24 10:57:06.139303	351.0	13.1	-74.7	0.0
2025-01-24 10:57:07.261076	350.8	13.1	-75.2	0.0
2025-01-24 10:57:08.383896	350.6	13.2	-75.2	0.0
2025-01-24 10:57:09.507446	350.4	13.3	-75.6	0.0
2025-01-24 10:57:10.630905	350.3	13.3	-75.4	0.0
2025-01-24 10:57:11.755385	350.1	13.4	-75.8	0.0
2025-01-24 10:57:12.877581	349.9	13.5	-75.6	0.0
2025-01-24 10:57:14.001906	349.8	13.5	-75.8	0.0
2025-01-24 10:57:15.125373	349.6	13.6	-75.8	0.0
2025-01-24 10:57:16.246679	349.4	13.7	-75.8	0.0
2025-01-24 10:57:17.370984	349.2	13.7	-75.8	0.0
2025-01-24 10:57:18.494518	349.0	13.8	-75.4	0.0
2025-01-24 10:57:19.615547	348.9	13.9	-75.5	0.0
2025-01-24 10:57:20.738610	348.7	13.9	-75.5	0.0
2025-01-24 10:57:21.862650	348.5	14.0	-76.0	0.0
2025-01-24 10:57:22.985866	348.3	14.1	-75.4	0.0
2025-01-24 10:57:24.110586	348.1	14.1	-75.7	0.0
2025-01-24 10:57:25.234413	348.0	14.2	-75.6	0.0
2025-01-24 10:57:26.358235	347.8	14.3	-75.4	0.0
2025-01-24 10:57:27.480398	347.6	14.3	-75.8	0.0
2025-01-24 10:57:28.602744	347.4	14.4	-75.5	0.0
2025-01-24 10:57:29.726699	347.2	14.5	-75.5	0.0
2025-01-24 10:57:30.848170	347.0	14.6	-75.7	0.0
2025-01-24 10:57:31.970611	346.8	14.6	-75.8	0.0
2025-01-24 10:57:33.094266	346.6	14.7	-75.9	0.0
2025-01-24 10:57:34.215579	346.4	14.8	-76.1	0.0
2025-01-24 10:57:35.339931	346.3	14.8	-76.2	0.0
2025-01-24 10:57:36.464551	346.1	14.9	-76.2	0.0
2025-01-24 10:57:37.586544	345.9	14.9	-75.8	0.0
2025-01-24 10:57:38.711525	345.7	15.0	-75.9	0.0
2025-01-24 10:57:39.833951	345.5	15.1	-75.7	0.0
2025-01-24 10:57:40.957191	345.3	15.1	-75.7	0.0
2025-01-24 10:57:42.080705	345.1	15.2	-75.2	0.0
2025-01-24 10:57:43.202370	344.9	15.3	-76.0	0.0
2025-01-24 10:57:44.327252	344.7	15.3	-75.9	0.0
2025-01-24 10:57:45.449150	344.5	15.4	-76.0	0.0
2025-01-24 10:57:46.572283	344.3	15.5	-76.1	0.0
2025-01-24 10:57:47.696072	344.1	15.5	-76.0	0.0
2025-01-24 10:57:48.819217	343.9	15.6	-75.5	0.0
2025-01-24 10:57:49.942061	343.7	15.7	-76.0	0.0
2025-01-24 10:57:51.064157	343.5	15.7	-76.2	0.0
2025-01-24 10:57:52.187833	343.3	15.8	-75.6	0.0
2025-01-24 10:57:53.313932	343.1	15.9	-76.0	0.0
2025-01-24 10:57:54.436145	342.9	15.9	-75.2	0.0
2025-01-24 10:57:55.561386	342.7	16.0	-75.8	0.0
2025-01-24 10:57:56.683292	342.4	16.0	-75.8	0.0
2025-01-24 10:57:57.807911	342.2	16.1	-75.7	0.0
2025-01-24 10:57:58.932721	342.0	16.2	-76.0	0.0
2025-01-24 10:58:00.056352	341.8	16.2	-76.0	0.0
2025-01-24 10:58:01.181108	341.6	16.3	-75.5	0.0
2025-01-24 10:58:02.304756	341.4	16.4	-75.4	0.0
2025-01-24 10:58:03.427097	341.2	16.4	-75.8	0.0
2025-01-24 10:58:04.551101	341.0	16.5	-75.7	0.0
2025-01-24 10:58:05.675757	340.7	16.5	-75.4	0.0
2025-01-24 10:58:06.799800	340.5	16.6	-75.8	0.0
2025-01-24 10:58:07.923423	340.3	16.7	-76.1	0.0
2025-01-24 10:58:09.044651	340.1	16.7	-75.8	0.0
2025-01-24 10:58:10.166769	339.9	16.8	-75.8	0.0
2025-01-24 10:58:11.290299	339.7	16.8	-76.1	0.0
2025-01-24 10:58:12.413642	339.4	16.9	-75.8	0.0
2025-01-24 10:58:13.538791	339.2	17.0	-75.4	0.0
2025-01-24 10:58:14.661493	339.0	17.0	-76.0	0.0
2025-01-24 10:58:15.784450	338.8	17.1	-76.1	0.0
2025-01-24 10:58:16.906776	338.5	17.1	-75.6	0.0
2025-01-24 10:58:18.029491	338.3	17.2	-76.1	0.0
2025-01-24 10:58:19.153913	338.1	17.3	-75.6	0.0
2025-01-24 10:58:20.276927	337.9	17.3	-75.6	0.0
2025-01-24 10:58:21.399604	337.6	17.4	-75.8	0.0
2025-01-24 10:58:22.521033	337.4	17.4	-75.6	0.0
2025-01-24 10:58:23.642893	337.2	17.5	-75.6	0.0
2025-01-24 10:58:24.764165	336.9	17.5	-75.6	0.0
2025-01-24 10:58:25.885942	336.7	17.6	-76.2	0.0
2025-01-24 10:58:27.008158	336.5	17.6	-76.4	0.0
2025-01-24 10:58:28.132546	336.3	17.7	-76.1	0.0
2025-01-24 10:58:29.255687	336.0	17.8	-75.8	0.0
2025-01-24 10:58:30.379389	335.8	17.8	-75.3	0.0
2025-01-24 10:58:31.503006	335.5	17.9	-76.3	0.0
2025-01-24 10:58:32.624840	335.3	17.9	-76.1	0.0
2025-01-24 10:58:33.748559	335.1	18.0	-76.0	0.0
2025-01-24 10:58:34.871801	334.8	18.0	-76.1	0.0
2025-01-24 10:58:35.996352	334.6	18.1	-75.7	0.0
2025-01-24 10:58:37.119815	334.4	18.1	-76.0	0.0
2025-01-24 10:58:38.243106	334.1	18.2	-75.1	0.0
2025-01-24 10:58:39.365340	333.9	18.2	-75.6	0.0
2025-01-24 10:58:40.487534	333.6	18.3	-76.0	0.0
2025-01-24 10:58:41.610161	333.4	18.3	-75.8	0.0
2025-01-24 10:58:42.731967	333.1	18.4	-76.2	0.0
2025-01-24 10:58:43.855794	332.9	18.4	-76.3	0.0
2025-01-24 10:58:44.980859	332.7	18.5	-76.0	0.0
2025-01-24 10:58:46.103696	332.4	18.5	-75.6	0.0
2025-01-24 10:58:47.225553	332.2	18.6	-76.0	0.0
2025-01-24 10:58:48.348922	331.9	18.6	-75.6	0.0
2025-01-24 10:58:49.472007	331.7	18.7	-76.1	0.0
2025-01-24 10:58:50.595296	331.4	18.7	-76.1	0.0
2025-01-24 10:58:51.716422	331.2	18.8	-76.3	0.0
2025-01-24 10:58:52.838773	330.9	18.8	-76.3	0.0
2025-01-24 10:58:53.959173	330.7	18.8	-76.0	0.0
2025-01-24 10:58:55.080814	330.4	18.9	-76.0	0.0
2025-01-24 10:58:56.203926	330.2	18.9	-75.8	0.0
2025-01-24 10:58:57.326649	329.9	19.0	-76.0	0.0
2025-01-24 10:58:58.450591	329.6	19.0	-76.0	0.0
2025-01-24 10:58:59.574649	329.4	19.1	-76.2	0.0
2025-01-24 10:59:00.695173	329.1	19.1	-75.7	0.0
2025-01-24 10:59:01.819027	328.9	19.1	-76.3	0.0
2025-01-24 10:59:02.942105	328.6	19.2	-76.2	0.0
2025-01-24 10:59:04.064010	328.4	19.2	-76.2	0.0
2025-01-24 10:59:05.187963	328.1	19.3	-76.0	0.0
2025-01-24 10:59:06.309864	327.8	19.3	-75.8	0.0
2025-01-24 10:59:07.433776	327.6	19.3	-76.3	0.0
2025-01-24 10:59:08.557526	327.3	19.4	-76.0	0.0
2025-01-24 10:59:09.679605	327.1	19.4	-76.0	0.0
2025-01-24 10:59:10.803226	326.8	19.5	-76.2	0.0
2025-01-24 10:59:11.925805	326.5	19.5	-76.5	0.0
2025-01-24 10:59:13.046700	326.3	19.5	-76.2	0.0
2025-01-24 10:59:14.170396	326.0	19.6	-76.1	0.0
2025-01-24 10:59:15.295310	325.7	19.6	-76.0	0.0
2025-01-24 10:59:16.417571	325.5	19.6	-75.9	0.0
2025-01-24 10:59:17.538628	325.2	19.7	-76.2	0.0
2025-01-24 10:59:18.663355	324.9	19.7	-76.0	0.0
2025-01-24 10:59:19.787920	324.7	19.7	-75.7	0.0
2025-01-24 10:59:20.910368	324.4	19.8	-76.0	0.0
2025-01-24 10:59:22.032237	324.1	19.8	-76.1	0.0
2025-01-24 10:59:23.154011	323.9	19.8	-76.0	0.0
2025-01-24 10:59:24.277200	323.6	19.9	-75.9	0.0
2025-01-24 10:59:25.401447	323.3	19.9	-75.7	0.0
2025-01-24 10:59:26.522815	323.1	19.9	-75.7	0.0
2025-01-24 10:59:27.644900	322.8	19.9	-75.9	0.0
2025-01-24 10:59:28.767852	322.5	20.0	-75.5	0.0
2025-01-24 10:59:29.889723	322.3	20.0	-75.5	0.0
2025-01-24 10:59:31.010253	322.0	20.0	-75.6	0.0
2025-01-24 10:59:32.134508	321.7	20.0	-75.6	0.0
2025-01-24 10:59:33.256183	321.4	20.1	-75.8	0.0
2025-01-24 10:59:34.378225	321.2	20.1	-75.0	0.0
2025-01-24 10:59:35.501978	320.9	20.1	-75.5	0.0
2025-01-24 10:59:36.625949	320.6	20.1	-75.4	0.0
2025-01-24 10:59:37.749561	320.3	20.2	-75.6	0.0
2025-01-24 10:59:38.872709	320.1	20.2	-75.4	0.0
2025-01-24 10:59:39.995112	319.8	20.2	-75.9	0.0
2025-01-24 10:59:41.117745	319.5	20.2	-75.9	0.0
2025-01-24 10:59:42.242008	319.2	20.2	-75.4	0.0
2025-01-24 10:59:43.367801	319.0	20.3	-76.2	0.0
2025-01-24 10:59:44.490252	318.7	20.3	-75.9	0.0
2025-01-24 10:59:45.612857	318.4	20.3	-76.0	0.0
2025-01-24 10:59:46.736082	318.1	20.3	-76.5	0.0
2025-01-24 10:59:47.859171	317.8	20.3	-75.9	0.0
2025-01-24 10:59:48.982938	317.6	20.3	-75.9	0.0
2025-01-24 10:59:50.106529	317.3	20.3	-76.3	0.0
2025-01-24 10:59:51.227534	317.0	20.4	-76.5	0.0
2025-01-24 10:59:52.349044	316.7	20.4	-75.9	0.0
2025-01-24 10:59:53.472805	316.4	20.4	-75.9	0.0
2025-01-24 10:59:54.595880	316.2	20.4	-76.0	0.0
2025-01-24 10:59:55.719212	315.9	20.4	-75.9	0.0
2025-01-24 10:59:56.840608	315.6	20.4	-75.9	0.0
2025-01-24 10:59:57.963934	315.3	20.4	-76.1	0.0
2025-01-24 10:59:59.085023	315.0	20.4	-76.2	0.0
2025-01-24 11:00:00.207980	314.8	20.4	-75.2	0.0
2025-01-24 11:00:01.330208	314.5	20.5	-75.9	0.0
2025-01-24 11:00:02.454522	314.2	20.5	-76.1	0.0
2025-01-24 11:00:03.575719	313.9	20.5	-76.2	0.0
2025-01-24 11:00:04.700974	313.6	20.5	-75.8	0.0
2025-01-24 11:00:05.827256	313.4	20.5	-75.6	0.0
2025-01-24 11:00:06.951031	313.1	20.5	-76.2	0.0
2025-01-24 11:00:08.072037	312.8	20.5	-75.7	0.0
2025-01-24 11:00:09.191854	312.5	20.5	-76.0	0.0
2025-01-24 11:00:10.314590	312.2	20.5	-75.1	0.0
2025-01-24 11:00:11.436352	312.0	20.5	-75.7	0.0
2025-01-24 11:00:12.559665	311.7	20.5	-75.9	0.0
2025-01-24 11:00:13.681115	311.4	20.5	-76.1	0.0
2025-01-24 11:00:14.805489	311.1	20.5	-76.0	0.0
2025-01-24 11:00:15.927796	310.8	20.5	-76.4	0.0
2025-01-24 11:00:17.051492	310.6	20.5	-76.1	0.0
2025-01-24 11:00:18.172535	310.3	20.5	-76.1	0.0
2025-01-24 11:00:19.295371	310.0	20.5	-75.9	0.0
2025-01-24 11:00:20.417585	309.7	20.5	-76.3	0.0
2025-01-24 11:00:21.541677	309.4	20.5	-76.3	0.0
2025-01-24 11:00:22.665552	309.1	20.4	-76.1	0.0
2025-01-24 11:00:23.789046	308.9	20.4	-76.0	0.0
2025-01-24 11:00:24.909776	308.6	20.4	-76.0	0.0
2025-01-24 11:00:26.031614	308.3	20.4	-76.3	0.0
2025-01-24 11:00:27.154566	308.0	20.4	-76.2	0.0
2025-01-24 11:00:28.277313	307.7	20.4	-76.3	0.0
2025-01-24 11:00:29.400067	307.5	20.4	-76.1	0.0
2025-01-24 11:00:30.521503	307.2	20.4	-75.8	0.0
2025-01-24 11:00:31.643534	306.9	20.4	-76.0	0.0
2025-01-24 11:00:32.767017	306.6	20.3	-75.8	0.0
2025-01-24 11:00:33.888748	306.3	20.3	-75.8	0.0
2025-01-24 11:00:35.012881	306.1	20.3	-76.0	0.0
2025-01-24 11:00:36.133642	305.8	20.3	-75.9	0.0
2025-01-24 11:00:37.255720	305.5	20.3	-76.1	0.0
2025-01-24 11:00:38.378674	305.2	20.3	-75.9	0.0
2025-01-24 11:00:39.503158	305.0	20.3	-75.7	0.0
2025-01-24 11:00:40.624982	304.7	20.2	-75.1	0.0
2025-01-24 11:00:41.748429	304.4	20.2	-75.6	0.0
2025-01-24 11:00:42.871317	304.1	20.2	-75.6	0.0
2025-01-24 11:00:43.993980	303.8	20.2	-75.9	0.0
2025-01-24 11:00:45.118152	303.6	20.2	-76.0	0.0
2025-01-24 11:00:46.240276	303.3	20.1	-75.7	0.0
2025-01-24 11:00:47.362755	303.0	20.1	-75.9	0.0
2025-01-24 11:00:48.484605	302.7	20.1	-75.8	0.0
2025-01-24 11:00:49.607041	302.5	20.1	-76.3	0.0
2025-01-24 11:00:50.730998	302.2	20.0	-76.5	0.0
2025-01-24 11:00:51.853539	301.9	20.0	-76.2	0.0
2025-01-24 11:00:52.977140	301.7	20.0	-75.7	0.0
2025-01-24 11:00:54.100102	301.4	20.0	-75.4	0.0
2025-01-24 11:00:55.221543	301.1	19.9	-76.1	0.0
2025-01-24 11:00:56.344445	300.8	19.9	-76.2	0.0
2025-01-24 11:00:57.466598	300.6	19.9	-75.9	0.0
2025-01-24 11:00:58.589719	300.3	19.9	-75.9	0.0
2025-01-24 11:00:59.712822	300.0	19.8	-75.5	0.0
2025-01-24 11:01:00.834229	299.8	19.8	-75.9	0.0
2025-01-24 11:01:01.954535	299.5	19.8	-76.0	0.0
2025-01-24 11:01:03.077671	299.2	19.7	-76.2	0.0
2025-01-24 11:01:04.202688	298.9	19.7	-75.9	0.0
2025-01-24 11:01:05.326288	298.7	19.7	-76.0	0.0
2025-01-24 11:01:06.448751	298.4	19.6	-75.2	0.0
2025-01-24 11:01:07.571737	298.1	19.6	-76.1	0.0
2025-01-24 11:01:08.692371	297.9	19.6	-76.1	0.0
2025-01-24 11:01:09.816559	297.6	19.5	-76.2	0.0
2025-01-24 11:01:10.940258	297.4	19.5	-76.4	0.0
2025-01-24 11:01:12.063754	297.1	19.5	-76.0	0.0
2025-01-24 11:01:13.185827	296.8	19.4	-76.0	0.0
2025-01-24 11:01:14.308806	296.6	19.4	-76.0	0.0
2025-01-24 11:01:15.433867	296.3	19.3	-76.1	0.0
2025-01-24 11:01:16.557859	296.0	19.3	-75.9	0.0
2025-01-24 11:01:17.679689	295.8	19.3	-76.1	0.0
2025-01-24 11:01:18.804342	295.5	19.2	-76.3	0.0
2025-01-24 11:01:19.928464	295.3	19.2	-76.6	0.0
2025-01-24 11:01:21.051292	295.0	19.1	-76.8	0.0
2025-01-24 11:01:22.174104	294.7	19.1	-75.7	0.0
2025-01-24 11:01:23.297163	294.5	19.1	-76.6	0.0
2025-01-24 11:01:24.421527	294.2	19.0	-76.2	0.0
2025-01-24 11:01:25.544045	294.0	19.0	-75.3	0.0
2025-01-24 11:01:26.667612	293.7	18.9	-75.7	0.0
2025-01-24 11:01:27.790763	293.5	18.9	-76.0	0.0
2025-01-24 11:01:28.913922	293.2	18.8	-75.9	0.0
2025-01-24 11:01:30.036125	293.0	18.8	-76.5	0.0
2025-01-24 11:01:31.158351	292.7	18.8	-76.3	0.0
2025-01-24 11:01:32.280155	292.5	18.7	-76.2	0.0
2025-01-24 11:01:33.403687	292.2	18.7	-75.9	0.0
2025-01-24 11:01:34.524899	291.9	18.6	-76.4	0.0
2025-01-24 11:01:35.648592	291.7	18.6	-76.2	0.0
2025-01-24 11:01:36.770312	291.5	18.5	-76.3	0.0
2025-01-24 11:01:37.892741	291.2	18.5	-76.2	0.0
2025-01-24 11:01:39.014021	291.0	18.4	-76.2	0.0
2025-01-24 11:01:40.137066	290.7	18.4	-76.2	0.0
2025-01-24 11:01:41.260938	290.5	18.3	-76.2	0.0
2025-01-24 11:01:42.385046	290.2	18.3	-75.9	0.0
2025-01-24 11:01:43.507373	290.0	18.2	-76.6	0.0
2025-01-24 11:01:44.629163	289.7	18.2	-76.0	0.0
2025-01-24 11:01:45.748727	289.5	18.1	-76.5	0.0
2025-01-24 11:01:46.874678	289.3	18.1	-76.4	0.0
2025-01-24 11:01:47.998326	289.0	18.0	-76.3	0.0
2025-01-24 11:01:49.122503	288.8	18.0	-75.8	0.0
2025-01-24 11:01:50.245657	288.5	17.9	-75.9	0.0
2025-01-24 11:01:51.368851	288.3	17.9	-76.3	0.0
2025-01-24 11:01:52.494555	288.1	17.8	-76.1	0.0
2025-01-24 11:01:53.617916	287.8	17.7	-76.4	0.0
2025-01-24 11:01:54.741343	287.6	17.7	-76.6	0.0
2025-01-24 11:01:55.864988	287.4	17.6	-76.3	0.0
2025-01-24 11:01:56.989325	287.1	17.6	-76.4	0.0
2025-01-24 11:01:58.111088	286.9	17.5	-76.3	0.0
2025-01-24 11:01:59.233860	286.7	17.5	-76.1	0.0
2025-01-24 11:02:00.355483	286.4	17.4	-75.8	0.0
2025-01-24 11:02:01.478116	286.2	17.4	-76.2	0.0
2025-01-24 11:02:02.600825	286.0	17.3	-76.6	0.0
2025-01-24 11:02:03.726124	285.7	17.2	-76.7	0.0
2025-01-24 11:02:04.850273	285.5	17.2	-76.4	0.0
2025-01-24 11:02:05.974762	285.3	17.1	-76.2	0.0
2025-01-24 11:02:07.095948	285.1	17.1	-76.4	0.0
2025-01-24 11:02:08.217758	284.8	17.0	-75.9	0.0
2025-01-24 11:02:09.341757	284.6	16.9	-76.5	0.0
2025-01-24 11:02:10.464787	284.4	16.9	-76.1	0.0
2025-01-24 11:02:11.588178	284.2	16.8	-76.2	0.0
2025-01-24 11:02:12.711008	283.9	16.8	-76.1	0.0
2025-01-24 11:02:13.835872	283.7	16.7	-76.0	0.0
2025-01-24 11:02:14.959102	283.5	16.6	-76.2	0.0
2025-01-24 11:02:16.083157	283.3	16.6	-76.1	0.0
2025-01-24 11:02:17.207237	283.1	16.5	-76.3	0.0
2025-01-24 11:02:18.332048	282.8	16.5	-76.1	0.0
2025-01-24 11:02:19.453979	282.6	16.4	-76.0	0.0
2025-01-24 11:02:20.576642	282.4	16.3	-76.1	0.0
2025-01-24 11:02:21.699309	282.2	16.3	-75.9	0.0
2025-01-24 11:02:22.822438	282.0	16.2	-76.0	0.0
2025-01-24 11:02:23.944160	281.8	16.2	-76.0	0.0
2025-01-24 11:02:25.067715	281.6	16.1	-76.0	0.0
2025-01-24 11:02:26.189759	281.3	16.0	-76.2	0.0
2025-01-24 11:02:27.312217	281.1	16.0	-76.1	0.0
2025-01-24 11:02:28.435316	280.9	15.9	-76.1	0.0
2025-01-24 11:02:29.559234	280.7	15.8	-75.9	0.0
2025-01-24 11:02:30.680150	280.5	15.8	-76.3	0.0
2025-01-24 11:02:31.802651	280.3	15.7	-76.0	0.0
2025-01-24 11:02:32.926426	280.1	15.6	-75.8	0.0
2025-01-24 11:02:34.049824	279.9	15.6	-76.1	0.0
2025-01-24 11:02:35.173641	279.7	15.5	-76.1	0.0
2025-01-24 11:02:36.297386	279.5	15.4	-76.1	0.0
2025-01-24 11:02:37.418819	279.3	15.4	-76.1	0.0
2025-01-24 11:02:38.542820	279.1	15.3	-75.8	0.0
2025-01-24 11:02:39.665668	278.9	15.3	-76.2	0.0
2025-01-24 11:02:40.788232	278.7	15.2	-75.9	0.0
2025-01-24 11:02:41.913710	278.5	15.1	-73.8	0.0
2025-01-24 11:02:43.037700	278.3	15.1	-76.3	0.0
2025-01-24 11:02:44.159778	278.1	15.0	-76.4	0.0
2025-01-24 11:02:45.282933	277.9	14.9	-76.7	0.0
2025-01-24 11:02:46.405538	277.7	14.9	-75.9	0.0
2025-01-24 11:02:47.528801	277.5	14.8	-76.5	0.0
2025-01-24 11:02:48.650856	277.3	14.7	-76.4	0.0
2025-01-24 11:02:49.774402	277.1	14.7	-74.8	0.0
2025-01-24 11:02:50.899849	276.9	14.6	-76.8	0.0
2025-01-24 11:02:52.022259	276.7	14.5	-76.5	0.0
2025-01-24 11:02:53.145932	276.6	14.5	-76.7	0.0
2025-01-24 11:02:54.267601	276.4	14.4	-76.3	0.0
2025-01-24 11:02:55.387745	276.2	14.3	-76.5	0.0
2025-01-24 11:02:56.510381	276.0	14.2	-76.6	0.0
2025-01-24 11:02:57.634388	275.8	14.2	-77.0	0.0
2025-01-24 11:02:58.755753	275.6	14.1	-76.7	0.0
2025-01-24 11:02:59.878454	275.4	14.0	-76.4	0.0
2025-01-24 11:03:01.001093	275.2	14.0	-76.0	0.0
2025-01-24 11:03:02.121658	275.1	13.9	-76.4	0.0
2025-01-24 11:03:03.243184	274.9	13.8	-76.4	0.0
2025-01-24 11:03:04.367011	274.7	13.8	-75.8	0.0
2025-01-24 11:03:05.490826	274.5	13.7	-76.7	0.0
2025-01-24 11:03:06.613037	274.3	13.6	-76.6	0.0
2025-01-24 11:03:07.735795	274.2	13.6	-76.5	0.0
2025-01-24 11:03:08.858569	274.0	13.5	-76.6	0.0
2025-01-24 11:03:09.980692	273.8	13.4	-76.4	0.0
2025-01-24 11:03:11.101963	273.6	13.4	-76.1	0.0
2025-01-24 11:03:12.224887	273.5	13.3	-76.0	0.0
2025-01-24 11:03:13.346764	273.3	13.2	-76.1	0.0
2025-01-24 11:03:14.470902	273.1	13.2	-76.6	0.0
2025-01-24 11:03:15.591158	272.9	13.1	-76.6	0.0
2025-01-24 11:03:16.714759	272.8	13.0	-76.3	0.0
2025-01-24 11:03:17.836250	272.6	12.9	-76.6	0.0
2025-01-24 11:03:18.960823	272.4	12.9	-76.7	0.0
2025-01-24 11:03:20.084749	272.3	12.8	-76.1	0.0
2025-01-24 11:03:21.207824	272.1	12.7	-76.2	0.0
2025-01-24 11:03:22.329927	271.9	12.7	-76.4	0.0
2025-01-24 11:03:23.453033	271.7	12.6	-76.5	0.0
2025-01-24 11:03:24.577095	271.6	12.5	-76.5	0.0
2025-01-24 11:03:25.699743	271.4	12.5	-76.4	0.0
2025-01-24 11:03:26.821285	271.2	12.4	-76.8	0.0
2025-01-24 11:03:27.943714	271.1	12.3	-76.4	0.0
2025-01-24 11:03:29.066540	270.9	12.2	-76.3	0.0
2025-01-24 11:03:30.188577	270.8	12.2	-75.9	0.0
2025-01-24 11:03:31.310071	270.6	12.1	-76.0	0.0
2025-01-24 11:03:32.433829	270.4	12.0	-76.2	0.0
2025-01-24 11:03:33.555962	270.3	12.0	-76.1	0.0
2025-01-24 11:03:34.678780	270.1	11.9	-76.9	0.0
2025-01-24 11:03:35.800291	270.0	11.8	-75.8	0.0
2025-01-24 11:03:36.923971	269.8	11.8	-76.3	0.0
2025-01-24 11:03:38.046445	269.6	11.7	-76.4	0.0
2025-01-24 11:03:39.167979	269.5	11.6	-75.9	0.0
2025-01-24 11:03:40.289071	269.3	11.5	-76.2	0.0
2025-01-24 11:03:41.412694	269.2	11.5	-75.9	0.0
2025-01-24 11:03:42.534436	269.0	11.4	-77.0	0.0
2025-01-24 11:03:43.656500	268.9	11.3	-76.3	0.0
2025-01-24 11:03:44.777965	268.7	11.3	-76.2	0.0
2025-01-24 11:03:45.900902	268.6	11.2	-75.8	0.0
2025-01-24 11:03:47.022938	268.4	11.1	-76.6	0.0
2025-01-24 11:03:48.145944	268.3	11.1	-76.8	0.0
2025-01-24 11:03:49.267632	268.1	11.0	-76.3	0.0
2025-01-24 11:03:50.388150	268.0	10.9	-76.4	0.0
2025-01-24 11:03:51.510396	267.8	10.8	-76.7	0.0
2025-01-24 11:03:52.631872	267.7	10.8	-76.4	0.0
2025-01-24 11:03:53.751592	267.5	10.7	-76.5	0.0
2025-01-24 11:03:54.874725	267.4	10.6	-76.3	0.0
2025-01-24 11:03:55.997558	267.2	10.6	-76.7	0.0
2025-01-24 11:03:57.119750	267.1	10.5	-76.3	0.0
2025-01-24 11:03:58.243733	266.9	10.4	-76.4	0.0
2025-01-24 11:03:59.365861	266.8	10.4	-76.9	0.0
2025-01-24 11:04:00.489452	266.7	10.3	-76.6	0.0
2025-01-24 11:04:01.609969	266.5	10.2	-76.6	0.0
2025-01-24 11:04:02.734333	266.4	10.1	-76.8	0.0
2025-01-24 11:04:03.857886	266.2	10.1	-76.7	0.0
2025-01-24 11:04:04.982405	266.1	10.0	-76.6	0.0
#Closed at: 2025-01-24 10:56:11.813609