passes_logs/2025/01/24/planumMaritime01/planumMaritime01__20250124_190749_NOAA_18_rec.log

#Pass ID: 20250124_190749_NOAA 18
#Satellite: NOAA 18
#Configuration: NOAA 18
#Start time: 2025-01-24 19:07:54.873598

#LorettStation: 1.0.0 05.05.2024
#Station: planumMaritime01
#Location: 37.49445 lon 55.92918 lat
#TLE: 1 28654U 05018A   25023.79872758  .00000470  00000+0  27266-3 0  9990
#TLE: 2 28654  98.8553 104.7652 0014753 154.7972 205.3923 14.13495354 14429

#Time	Az	El	Level	SNR
2025-01-24 19:07:57.031023	155.5	10.2	-73.8	5.3
2025-01-24 19:07:59.276793	155.5	10.4	-73.9	5.8
2025-01-24 19:08:01.523303	155.5	10.6	-73.5	5.9
2025-01-24 19:08:03.768766	155.5	10.8	-73.7	5.8
2025-01-24 19:08:06.013653	155.4	11.0	-73.8	6.7
2025-01-24 19:08:08.259444	155.4	11.2	-73.9	6.6
2025-01-24 19:08:10.502783	155.4	11.4	-74.0	6.5
2025-01-24 19:08:12.748477	155.4	11.6	-73.4	5.5
2025-01-24 19:08:14.995349	155.4	11.8	-74.1	5.7
2025-01-24 19:08:17.241229	155.3	12.0	-72.7	5.7
2025-01-24 19:08:19.490689	155.3	12.2	-73.7	6.5
2025-01-24 19:08:21.738099	155.3	12.4	-74.1	6.6
2025-01-24 19:08:23.984464	155.3	12.6	-74.1	7.1
2025-01-24 19:08:26.231282	155.2	12.9	-74.3	6.8
2025-01-24 19:08:28.477358	155.2	13.1	-74.0	4.4
2025-01-24 19:08:30.721475	155.2	13.3	-73.9	6.0
2025-01-24 19:08:32.968128	155.2	13.5	-73.6	7.1
2025-01-24 19:08:35.215215	155.2	13.7	-74.0	7.1
2025-01-24 19:08:37.460743	155.1	14.0	-73.9	7.4
2025-01-24 19:08:39.707263	155.1	14.2	-73.8	7.0
2025-01-24 19:08:41.953776	155.1	14.4	-73.8	7.3
2025-01-24 19:08:44.197352	155.0	14.7	-74.1	6.1
2025-01-24 19:08:46.442963	155.0	14.9	-73.9	6.8
2025-01-24 19:08:48.688585	155.0	15.1	-73.5	6.5
2025-01-24 19:08:50.933121	155.0	15.4	-74.0	7.3
2025-01-24 19:08:53.178317	154.9	15.6	-74.1	6.5
2025-01-24 19:08:55.423272	154.9	15.8	-74.3	7.4
2025-01-24 19:08:57.667617	154.9	16.1	-73.9	6.8
2025-01-24 19:08:59.915751	154.8	16.3	-74.1	6.7
2025-01-24 19:09:02.163607	154.8	16.6	-74.2	7.5
2025-01-24 19:09:04.413066	154.8	16.8	-73.9	6.8
2025-01-24 19:09:06.656636	154.7	17.1	-74.0	7.2
2025-01-24 19:09:08.900519	154.7	17.4	-74.1	6.7
2025-01-24 19:09:11.144100	154.7	17.6	-74.1	5.2
2025-01-24 19:09:13.387117	154.6	17.9	-73.8	5.0
2025-01-24 19:09:15.632059	154.6	18.2	-74.3	5.0
2025-01-24 19:09:17.877699	154.6	18.4	-73.9	5.7
2025-01-24 19:09:20.123726	154.5	18.7	-74.3	6.1
2025-01-24 19:09:22.369305	154.5	19.0	-74.4	6.0
2025-01-24 19:09:24.615490	154.4	19.3	-74.3	5.3
2025-01-24 19:09:26.858752	154.4	19.5	-74.0	5.2
2025-01-24 19:09:29.106737	154.4	19.8	-74.6	5.6
2025-01-24 19:09:31.353671	154.3	20.1	-74.4	4.0
2025-01-24 19:09:33.600722	154.3	20.4	-74.2	3.8
2025-01-24 19:09:35.845564	154.2	20.7	-74.5	4.4
2025-01-24 19:09:38.089584	154.2	21.0	-75.0	5.0
2025-01-24 19:09:40.335471	154.1	21.3	-74.9	4.2
2025-01-24 19:09:42.577891	154.1	21.6	-74.8	4.7
2025-01-24 19:09:44.826346	154.1	21.9	-74.9	3.5
2025-01-24 19:09:47.074124	154.0	22.2	-75.0	3.3
2025-01-24 19:09:49.319192	154.0	22.5	-74.8	3.6
2025-01-24 19:09:51.564743	153.9	22.9	-74.6	3.7
2025-01-24 19:09:53.808399	153.9	23.2	-75.1	3.9
2025-01-24 19:09:56.053340	153.8	23.5	-75.2	3.0
2025-01-24 19:09:58.297656	153.7	23.8	-75.5	2.0
2025-01-24 19:10:00.544190	153.7	24.2	-74.9	0.0
2025-01-24 19:10:02.792848	153.6	24.5	-75.1	2.0
2025-01-24 19:10:05.039968	153.6	24.9	-76.0	2.7
2025-01-24 19:10:07.288460	153.5	25.2	-75.8	1.3
2025-01-24 19:10:09.530906	153.4	25.6	-75.1	0.0
2025-01-24 19:10:11.775774	153.4	25.9	-75.8	1.1
2025-01-24 19:10:14.023151	153.3	26.3	-75.9	0.3
2025-01-24 19:10:16.268778	153.3	26.7	-75.8	0.0
2025-01-24 19:10:18.512895	153.2	27.1	-75.5	0.0
2025-01-24 19:10:20.759401	153.1	27.4	-75.0	0.0
2025-01-24 19:10:23.006588	153.0	27.8	-75.0	0.0
2025-01-24 19:10:25.255135	153.0	28.2	-75.8	0.0
2025-01-24 19:10:27.501206	152.9	28.6	-75.8	0.0
2025-01-24 19:10:29.747421	152.8	29.0	-75.7	0.0
2025-01-24 19:10:31.996203	152.7	29.4	-75.5	0.0
2025-01-24 19:10:34.245688	152.7	29.8	-76.0	0.0
2025-01-24 19:10:36.492098	152.6	30.2	-75.9	0.0
2025-01-24 19:10:38.737636	152.5	30.7	-75.7	0.0
2025-01-24 19:10:40.981683	152.4	31.1	-76.2	0.0
2025-01-24 19:10:43.231495	152.3	31.5	-76.5	0.0
2025-01-24 19:10:45.479210	152.2	32.0	-76.4	0.0
2025-01-24 19:10:47.725694	152.1	32.4	-75.9	0.0
2025-01-24 19:10:49.971745	152.0	32.9	-75.9	0.0
2025-01-24 19:10:52.214390	151.9	33.4	-76.2	0.0
2025-01-24 19:10:54.460171	151.8	33.8	-76.4	0.0
2025-01-24 19:10:56.707390	151.7	34.3	-75.7	0.0
2025-01-24 19:10:58.954716	151.6	34.8	-76.5	0.0
2025-01-24 19:11:01.200216	151.5	35.3	-76.4	0.0
2025-01-24 19:11:03.445862	151.3	35.8	-76.4	0.0
2025-01-24 19:11:05.692744	151.2	36.3	-76.0	0.0
2025-01-24 19:11:07.939188	151.1	36.8	-76.1	0.0
2025-01-24 19:11:10.185063	150.9	37.3	-76.3	0.0
2025-01-24 19:11:12.428481	150.8	37.9	-76.2	0.0
2025-01-24 19:11:14.678518	150.7	38.4	-75.6	0.0
2025-01-24 19:11:16.925090	150.5	39.0	-75.8	0.0
2025-01-24 19:11:19.172443	150.4	39.5	-76.2	0.0
2025-01-24 19:11:21.419133	150.2	40.1	-75.8	0.0
2025-01-24 19:11:23.667615	150.0	40.7	-75.9	0.0
2025-01-24 19:11:25.911497	149.9	41.2	-76.0	0.0
2025-01-24 19:11:28.156541	149.7	41.8	-76.0	0.0
2025-01-24 19:11:30.407570	149.5	42.4	-75.7	0.0
2025-01-24 19:11:32.654586	149.3	43.1	-76.2	0.0
2025-01-24 19:11:34.901284	149.1	43.7	-76.1	0.0
2025-01-24 19:11:37.146724	148.9	44.3	-76.4	0.0
2025-01-24 19:11:39.393268	148.7	44.9	-75.9	0.0
2025-01-24 19:11:41.638776	148.5	45.6	-74.9	0.0
2025-01-24 19:11:43.885426	148.2	46.3	-75.2	0.0
2025-01-24 19:11:46.134701	148.0	46.9	-75.9	0.0
2025-01-24 19:11:48.379892	147.7	47.6	-75.8	0.0
2025-01-24 19:11:50.626990	147.5	48.3	-75.8	0.0
2025-01-24 19:11:52.872721	147.2	49.0	-75.2	0.0
2025-01-24 19:11:55.123025	146.9	49.7	-75.8	0.0
2025-01-24 19:11:57.370468	146.6	50.5	-75.9	0.0
2025-01-24 19:11:59.616099	146.2	51.2	-74.1	0.0
2025-01-24 19:12:01.861269	145.9	51.9	-76.4	0.0
2025-01-24 19:12:04.107982	145.5	52.7	-75.9	0.0
2025-01-24 19:12:06.353053	145.2	53.5	-75.5	0.0
2025-01-24 19:12:08.598856	144.8	54.2	-76.5	0.0
2025-01-24 19:12:10.845045	144.3	55.0	-76.1	0.0
2025-01-24 19:12:13.090569	143.9	55.8	-75.9	0.0
2025-01-24 19:12:15.338222	143.4	56.6	-76.4	0.0
2025-01-24 19:12:17.584524	142.9	57.4	-75.9	0.0
2025-01-24 19:12:19.831459	142.4	58.3	-76.1	0.0
2025-01-24 19:12:22.074657	141.8	59.1	-75.9	0.0
2025-01-24 19:12:24.321498	141.2	59.9	-75.2	0.0
2025-01-24 19:12:26.569675	140.5	60.8	-75.2	0.0
2025-01-24 19:12:28.819527	139.8	61.6	-75.9	0.0
2025-01-24 19:12:31.065049	139.1	62.5	-75.8	0.0
2025-01-24 19:12:33.311728	138.3	63.4	-76.0	0.0
2025-01-24 19:12:35.552698	137.4	64.3	-76.1	0.0
2025-01-24 19:12:37.798545	136.5	65.1	-75.6	0.0
2025-01-24 19:12:40.045760	135.5	66.0	-76.3	0.0
2025-01-24 19:12:42.294443	134.3	66.9	-76.6	0.0
2025-01-24 19:12:44.538808	133.1	67.8	-76.0	0.0
2025-01-24 19:12:46.783347	131.8	68.7	-76.1	0.0
2025-01-24 19:12:49.024575	130.4	69.6	-76.5	0.0
2025-01-24 19:12:51.273724	128.8	70.5	-76.0	0.0
2025-01-24 19:12:53.520199	127.1	71.3	-75.5	0.0
2025-01-24 19:12:55.764319	125.2	72.2	-75.8	0.0
2025-01-24 19:12:58.013785	123.1	73.0	-76.2	0.0
2025-01-24 19:13:00.260360	120.7	73.9	-76.0	0.0
2025-01-24 19:13:02.505267	118.1	74.7	-76.6	0.0
2025-01-24 19:13:04.753068	115.2	75.5	-76.1	0.0
2025-01-24 19:13:06.996348	112.0	76.2	-76.2	0.0
2025-01-24 19:13:09.243214	108.3	76.9	-76.4	0.0
2025-01-24 19:13:11.491202	104.3	77.5	-75.9	0.0
2025-01-24 19:13:13.736232	99.9	78.1	-75.7	0.0
2025-01-24 19:13:15.983434	95.0	78.6	-76.0	0.0
2025-01-24 19:13:18.228659	89.7	79.0	-76.0	0.0
2025-01-24 19:13:20.473545	84.1	79.3	-76.0	0.0
2025-01-24 19:13:22.722370	78.1	79.6	-76.5	0.0
2025-01-24 19:13:24.969793	71.9	79.7	-76.0	0.0
2025-01-24 19:13:27.216087	65.8	79.6	-76.3	0.0
2025-01-24 19:13:29.463872	59.7	79.5	-76.1	0.0
2025-01-24 19:13:31.711898	53.8	79.2	-75.8	0.0
2025-01-24 19:13:33.959858	48.3	78.9	-76.1	0.0
2025-01-24 19:13:36.205604	43.1	78.4	-75.5	0.0
2025-01-24 19:13:38.453256	38.4	77.9	-76.1	0.0
2025-01-24 19:13:40.696133	34.2	77.3	-76.1	0.0
2025-01-24 19:13:42.940818	30.3	76.6	-75.7	0.0
2025-01-24 19:13:45.188198	26.9	75.9	-76.1	0.0
2025-01-24 19:13:47.432717	23.7	75.2	-75.9	0.0
2025-01-24 19:13:49.678126	21.0	74.4	-76.3	0.0
2025-01-24 19:13:51.923668	18.4	73.6	-75.5	0.0
2025-01-24 19:13:54.171235	16.2	72.7	-76.3	0.0
2025-01-24 19:13:56.417138	14.2	71.9	-76.5	0.0
2025-01-24 19:13:58.661991	12.3	71.0	-76.2	0.0
2025-01-24 19:14:00.905676	10.7	70.1	-76.0	0.0
2025-01-24 19:14:03.151081	9.1	69.2	-76.3	0.0
2025-01-24 19:14:05.395508	7.8	68.4	-75.6	0.0
2025-01-24 19:14:07.639754	6.5	67.5	-76.7	0.0
2025-01-24 19:14:09.886678	5.3	66.6	-76.0	0.0
2025-01-24 19:14:12.130354	4.3	65.7	-75.4	0.0
2025-01-24 19:14:14.377790	3.3	64.8	-76.0	0.0
2025-01-24 19:14:16.625222	2.4	63.9	-75.8	0.0
2025-01-24 19:14:18.867681	1.5	63.1	-76.0	0.0
2025-01-24 19:14:21.116463	0.7	62.2	-76.6	0.0
2025-01-24 19:14:23.359959	0.0	61.3	-75.1	0.0
2025-01-24 19:14:25.607649	359.3	60.5	-76.2	0.0
2025-01-24 19:14:27.849482	358.7	59.6	-76.5	0.0
2025-01-24 19:14:30.096860	358.1	58.8	-75.9	0.0
2025-01-24 19:14:32.341296	357.5	57.9	-76.3	0.0
2025-01-24 19:14:34.587433	357.0	57.1	-75.9	0.0
2025-01-24 19:14:36.831056	356.5	56.3	-76.5	0.0
2025-01-24 19:14:39.075690	356.1	55.5	-76.3	0.0
2025-01-24 19:14:41.324676	355.6	54.7	-76.3	0.0
2025-01-24 19:14:43.568698	355.2	53.9	-75.8	0.0
2025-01-24 19:14:45.814710	354.8	53.2	-76.2	0.0
2025-01-24 19:14:48.056390	354.4	52.4	-76.3	0.0
2025-01-24 19:14:50.300449	354.1	51.7	-76.3	0.0
2025-01-24 19:14:52.547067	353.8	50.9	-76.0	0.0
2025-01-24 19:14:54.795278	353.4	50.2	-75.5	0.0
2025-01-24 19:14:57.040705	353.1	49.5	-76.2	0.0
2025-01-24 19:14:59.287949	352.8	48.8	-76.3	0.0
2025-01-24 19:15:01.534822	352.6	48.1	-76.2	0.0
2025-01-24 19:15:03.779256	352.3	47.4	-75.6	0.0
2025-01-24 19:15:06.024878	352.1	46.7	-74.8	0.0
2025-01-24 19:15:08.269995	351.8	46.0	-75.9	0.0
2025-01-24 19:15:10.517773	351.6	45.4	-75.8	0.0
2025-01-24 19:15:12.764690	351.4	44.7	-76.5	0.0
2025-01-24 19:15:15.013408	351.1	44.1	-75.7	0.0
2025-01-24 19:15:17.261390	350.9	43.5	-76.4	0.0
2025-01-24 19:15:19.510712	350.7	42.8	-76.5	0.0
2025-01-24 19:15:21.756833	350.6	42.2	-76.2	0.0
2025-01-24 19:15:24.003644	350.4	41.6	-76.2	0.0
2025-01-24 19:15:26.248703	350.2	41.0	-76.4	0.0
2025-01-24 19:15:28.496482	350.0	40.5	-76.7	0.0
2025-01-24 19:15:30.742944	349.9	39.9	-75.9	0.0
2025-01-24 19:15:32.992659	349.7	39.3	-76.4	0.0
2025-01-24 19:15:35.235244	349.6	38.8	-76.5	0.0
2025-01-24 19:15:37.480978	349.4	38.2	-76.6	0.0
2025-01-24 19:15:39.723977	349.3	37.7	-76.3	0.0
2025-01-24 19:15:41.969209	349.1	37.2	-76.0	0.0
2025-01-24 19:15:44.214960	349.0	36.6	-76.4	0.0
2025-01-24 19:15:46.459760	348.9	36.1	-76.1	0.0
2025-01-24 19:15:48.704990	348.8	35.6	-76.3	0.0
2025-01-24 19:15:50.950075	348.6	35.1	-76.0	0.0
2025-01-24 19:15:53.196896	348.5	34.6	-76.0	0.0
2025-01-24 19:15:55.440931	348.4	34.1	-76.6	0.0
2025-01-24 19:15:57.686982	348.3	33.7	-76.4	0.0
2025-01-24 19:15:59.932315	348.2	33.2	-76.3	0.0
2025-01-24 19:16:02.177516	348.1	32.7	-76.0	0.0
2025-01-24 19:16:04.425674	348.0	32.3	-76.6	0.0
2025-01-24 19:16:06.670195	347.9	31.8	-76.7	0.0
2025-01-24 19:16:08.915693	347.8	31.4	-76.2	0.0
2025-01-24 19:16:11.165528	347.7	31.0	-76.5	0.0
2025-01-24 19:16:13.413326	347.6	30.5	-76.1	0.0
2025-01-24 19:16:15.658309	347.6	30.1	-75.8	0.0
2025-01-24 19:16:17.904581	347.5	29.7	-76.1	0.0
2025-01-24 19:16:20.150439	347.4	29.3	-75.9	0.0
2025-01-24 19:16:22.396688	347.3	28.9	-76.3	0.0
2025-01-24 19:16:24.643155	347.2	28.5	-76.0	0.0
2025-01-24 19:16:26.891014	347.2	28.1	-76.9	0.0
2025-01-24 19:16:29.137805	347.1	27.7	-76.5	0.0
2025-01-24 19:16:31.382876	347.0	27.3	-77.1	0.0
2025-01-24 19:16:33.629491	347.0	26.9	-76.5	0.0
2025-01-24 19:16:35.872372	346.9	26.6	-76.5	0.0
2025-01-24 19:16:38.122404	346.8	26.2	-76.6	0.0
2025-01-24 19:16:40.367464	346.8	25.8	-76.3	0.0
2025-01-24 19:16:42.614848	346.7	25.5	-76.2	0.0
2025-01-24 19:16:44.860450	346.6	25.1	-76.4	0.0
2025-01-24 19:16:47.107071	346.6	24.8	-75.8	0.0
2025-01-24 19:16:49.356829	346.5	24.4	-76.1	0.0
2025-01-24 19:16:51.601215	346.5	24.1	-76.9	0.0
2025-01-24 19:16:53.845252	346.4	23.7	-76.7	0.0
2025-01-24 19:16:56.091934	346.4	23.4	-76.6	0.0
2025-01-24 19:16:58.340183	346.3	23.1	-77.1	0.0
2025-01-24 19:17:00.586036	346.3	22.8	-76.7	0.0
2025-01-24 19:17:02.830957	346.2	22.4	-76.6	0.0
2025-01-24 19:17:05.076809	346.2	22.1	-77.2	0.0
2025-01-24 19:17:07.321176	346.1	21.8	-77.1	0.0
2025-01-24 19:17:09.566248	346.1	21.5	-76.7	0.0
2025-01-24 19:17:11.812122	346.0	21.2	-76.3	0.0
2025-01-24 19:17:14.057077	346.0	20.9	-76.7	0.0
2025-01-24 19:17:16.303396	345.9	20.6	-76.6	0.0
2025-01-24 19:17:18.548557	345.9	20.3	-76.7	0.0
2025-01-24 19:17:20.798005	345.9	20.0	-76.9	0.0
2025-01-24 19:17:23.043824	345.8	19.7	-76.6	0.0
2025-01-24 19:17:25.289356	345.8	19.5	-76.3	0.0
2025-01-24 19:17:27.536041	345.7	19.2	-76.9	0.0
2025-01-24 19:17:29.782396	345.7	18.9	-76.9	0.0
2025-01-24 19:17:32.027332	345.7	18.6	-76.9	0.0
2025-01-24 19:17:34.273260	345.6	18.3	-76.8	0.0
2025-01-24 19:17:36.521496	345.6	18.1	-76.5	0.0
2025-01-24 19:17:38.764624	345.6	17.8	-76.7	0.0
2025-01-24 19:17:41.008994	345.5	17.6	-76.6	0.0
2025-01-24 19:17:43.255194	345.5	17.3	-76.4	0.0
2025-01-24 19:17:45.502575	345.5	17.0	-76.3	0.0
2025-01-24 19:17:47.753246	345.4	16.8	-76.6	0.0
2025-01-24 19:17:49.999699	345.4	16.5	-76.1	0.0
2025-01-24 19:17:52.244153	345.4	16.3	-77.0	0.0
2025-01-24 19:17:54.489912	345.3	16.0	-76.5	0.0
2025-01-24 19:17:56.738908	345.3	15.8	-76.2	0.0
2025-01-24 19:17:58.985199	345.3	15.5	-76.8	0.0
2025-01-24 19:18:01.230397	345.3	15.3	-76.3	0.0
2025-01-24 19:18:03.477804	345.2	15.1	-76.1	0.0
2025-01-24 19:18:05.723777	345.2	14.8	-76.2	0.0
2025-01-24 19:18:07.967154	345.2	14.6	-76.7	0.0
2025-01-24 19:18:10.214609	345.2	14.4	-76.3	0.0
2025-01-24 19:18:12.461076	345.1	14.1	-76.0	0.0
2025-01-24 19:18:14.706882	345.1	13.9	-76.4	0.0
2025-01-24 19:18:16.954364	345.1	13.7	-76.5	0.0
2025-01-24 19:18:19.202078	345.1	13.5	-75.9	0.0
2025-01-24 19:18:21.450765	345.0	13.2	-76.3	0.0
2025-01-24 19:18:23.692493	345.0	13.0	-76.4	0.0
2025-01-24 19:18:25.938775	345.0	12.8	-76.6	0.0
2025-01-24 19:18:28.186629	345.0	12.6	-76.7	0.0
2025-01-24 19:18:30.430073	344.9	12.4	-76.6	0.0
2025-01-24 19:18:32.677061	344.9	12.2	-76.8	0.0
2025-01-24 19:18:34.923092	344.9	12.0	-76.8	0.0
2025-01-24 19:18:37.171965	344.9	11.7	-76.2	0.0
2025-01-24 19:18:39.418179	344.9	11.5	-76.8	0.0
2025-01-24 19:18:41.664395	344.8	11.3	-76.6	0.0
2025-01-24 19:18:43.908858	344.8	11.1	-76.7	0.0
2025-01-24 19:18:46.153409	344.8	10.9	-76.0	0.0
2025-01-24 19:18:48.396222	344.8	10.7	-76.3	0.0
2025-01-24 19:18:50.643348	344.8	10.5	-76.2	0.0
2025-01-24 19:18:52.886997	344.8	10.3	-76.1	0.0
2025-01-24 19:18:55.132906	344.7	10.1	-76.6	0.0
#Closed at: 2025-01-24 19:07:49.876148