passes_logs/2025/01/24/planumMaritime01/planumMaritime01__20250124_124636_METEOR-M2_4_rec.log

#Pass ID: 20250124_124636_METEOR-M2 4
#Satellite: METEOR-M2 4
#Configuration: METEOR-M2 4
#Start time: 2025-01-24 12:46:41.673413

#LorettStation: 1.0.0 05.05.2024
#Station: planumMaritime01
#Location: 37.49445 lon 55.92918 lat
#TLE: 1 59051U 24039A   25023.82134414  .00000153  00000+0  88244-4 0  9995
#TLE: 2 59051  98.6304 346.6458 0006606 196.6758 163.4204 14.22328196 46859

#Time	Az	El	Level	SNR
2025-01-24 12:46:43.830924	211.9	10.2	-77.0	0.0
2025-01-24 12:46:46.076800	212.2	10.3	-76.9	0.0
2025-01-24 12:46:48.323257	212.4	10.5	-77.2	0.0
2025-01-24 12:46:50.568635	212.7	10.6	-76.9	0.0
2025-01-24 12:46:52.812844	212.9	10.8	-77.1	0.0
2025-01-24 12:46:55.055968	213.2	11.0	-75.2	0.0
2025-01-24 12:46:57.302461	213.4	11.1	-73.8	0.0
2025-01-24 12:46:59.546102	213.7	11.3	-75.9	0.0
2025-01-24 12:47:01.789723	213.9	11.4	-76.3	0.0
2025-01-24 12:47:04.037343	214.2	11.6	-76.0	0.0
2025-01-24 12:47:06.282425	214.5	11.8	-75.8	0.0
2025-01-24 12:47:08.528502	214.7	11.9	-76.4	0.0
2025-01-24 12:47:10.773883	215.0	12.1	-76.7	0.0
2025-01-24 12:47:13.023811	215.3	12.3	-77.0	0.0
2025-01-24 12:47:15.270321	215.6	12.4	-74.4	0.0
2025-01-24 12:47:17.514415	215.9	12.6	-74.5	0.0
2025-01-24 12:47:19.761933	216.2	12.8	-76.3	0.0
2025-01-24 12:47:22.006247	216.4	12.9	-77.2	0.0
2025-01-24 12:47:24.249906	216.7	13.1	-77.3	0.0
2025-01-24 12:47:26.496348	217.0	13.3	-76.2	0.0
2025-01-24 12:47:28.742422	217.3	13.4	-76.4	0.0
2025-01-24 12:47:30.989402	217.6	13.6	-76.3	0.0
2025-01-24 12:47:33.235990	217.9	13.8	-76.2	0.0
2025-01-24 12:47:35.482466	218.3	14.0	-74.2	0.0
2025-01-24 12:47:37.727173	218.6	14.1	-75.2	0.0
2025-01-24 12:47:39.974614	218.9	14.3	-75.9	0.0
2025-01-24 12:47:42.221665	219.2	14.5	-76.4	0.0
2025-01-24 12:47:44.465724	219.5	14.7	-76.0	0.0
2025-01-24 12:47:46.713135	219.9	14.8	-75.4	0.0
2025-01-24 12:47:48.958498	220.2	15.0	-76.1	0.0
2025-01-24 12:47:51.203984	220.5	15.2	-76.1	0.0
2025-01-24 12:47:53.447652	220.9	15.3	-77.0	0.0
2025-01-24 12:47:55.691965	221.2	15.5	-75.2	0.0
2025-01-24 12:47:57.939833	221.6	15.7	-75.4	0.0
2025-01-24 12:48:00.183915	221.9	15.9	-75.8	0.0
2025-01-24 12:48:02.427060	222.3	16.0	-77.2	0.0
2025-01-24 12:48:04.674651	222.6	16.2	-76.8	0.0
2025-01-24 12:48:06.922472	223.0	16.4	-76.6	0.0
2025-01-24 12:48:09.168195	223.3	16.6	-76.5	0.0
2025-01-24 12:48:11.412159	223.7	16.8	-76.6	0.0
2025-01-24 12:48:13.659234	224.1	16.9	-77.7	0.0
2025-01-24 12:48:15.906592	224.5	17.1	-74.9	0.0
2025-01-24 12:48:18.150482	224.9	17.3	-75.9	0.0
2025-01-24 12:48:20.395060	225.3	17.5	-77.5	0.0
2025-01-24 12:48:22.640464	225.6	17.6	-77.8	0.0
2025-01-24 12:48:24.888492	226.0	17.8	-77.6	0.0
2025-01-24 12:48:27.133852	226.4	18.0	-77.6	0.0
2025-01-24 12:48:29.381542	226.9	18.2	-77.6	0.0
2025-01-24 12:48:31.623023	227.3	18.3	-77.3	0.0
2025-01-24 12:48:33.868532	227.7	18.5	-76.7	0.0
2025-01-24 12:48:36.112778	228.1	18.7	-74.6	0.0
2025-01-24 12:48:38.358488	228.5	18.9	-76.0	0.0
2025-01-24 12:48:40.606776	229.0	19.0	-77.5	0.0
2025-01-24 12:48:42.853817	229.4	19.2	-77.0	0.0
2025-01-24 12:48:45.099193	229.8	19.4	-75.8	0.0
2025-01-24 12:48:47.347653	230.3	19.6	-77.2	0.0
2025-01-24 12:48:49.593890	230.7	19.7	-77.8	0.0
2025-01-24 12:48:51.837900	231.2	19.9	-76.5	0.0
2025-01-24 12:48:54.081914	231.7	20.1	-77.7	0.0
2025-01-24 12:48:56.329390	232.1	20.3	-75.4	0.0
2025-01-24 12:48:58.577220	232.6	20.4	-75.7	0.0
2025-01-24 12:49:00.823821	233.1	20.6	-76.6	0.0
2025-01-24 12:49:03.070109	233.5	20.8	-77.0	0.0
2025-01-24 12:49:05.317462	234.0	20.9	-78.0	0.0
2025-01-24 12:49:07.563019	234.5	21.1	-78.0	0.0
2025-01-24 12:49:09.807082	235.0	21.3	-77.4	0.0
2025-01-24 12:49:12.050470	235.5	21.4	-77.3	0.0
2025-01-24 12:49:14.294911	236.0	21.6	-77.8	0.0
2025-01-24 12:49:16.540027	236.5	21.8	-75.2	0.0
2025-01-24 12:49:18.786397	237.1	21.9	-76.3	0.0
2025-01-24 12:49:21.030749	237.6	22.1	-77.7	0.0
2025-01-24 12:49:23.273765	238.1	22.2	-78.1	0.0
2025-01-24 12:49:25.521265	238.6	22.4	-76.5	0.0
2025-01-24 12:49:27.763335	239.2	22.6	-76.4	0.0
2025-01-24 12:49:30.007290	239.7	22.7	-76.8	0.0
2025-01-24 12:49:32.251186	240.3	22.9	-75.8	0.0
2025-01-24 12:49:34.497337	240.8	23.0	-76.2	0.0
2025-01-24 12:49:36.741261	241.4	23.2	-74.6	0.0
2025-01-24 12:49:38.987127	242.0	23.3	-75.8	0.0
2025-01-24 12:49:41.232239	242.5	23.5	-77.2	0.0
2025-01-24 12:49:43.475841	243.1	23.6	-77.1	0.0
2025-01-24 12:49:45.720519	243.7	23.7	-77.1	0.0
2025-01-24 12:49:47.967344	244.3	23.9	-76.9	0.0
2025-01-24 12:49:50.212315	244.9	24.0	-77.2	0.0
2025-01-24 12:49:52.460061	245.5	24.2	-76.1	0.0
2025-01-24 12:49:54.705362	246.1	24.3	-76.7	0.0
2025-01-24 12:49:56.953506	246.7	24.4	-75.1	0.0
2025-01-24 12:49:59.199639	247.3	24.5	-76.2	0.0
2025-01-24 12:50:01.448022	247.9	24.7	-77.3	0.0
2025-01-24 12:50:03.692311	248.5	24.8	-77.4	0.0
2025-01-24 12:50:05.938340	249.1	24.9	-77.8	0.0
2025-01-24 12:50:08.186929	249.8	25.0	-76.4	0.0
2025-01-24 12:50:10.434538	250.4	25.1	-77.4	0.0
2025-01-24 12:50:12.680208	251.0	25.2	-77.5	0.0
2025-01-24 12:50:14.927506	251.7	25.3	-77.7	0.0
2025-01-24 12:50:17.173942	252.3	25.4	-75.9	0.0
2025-01-24 12:50:19.421891	253.0	25.5	-75.9	0.0
2025-01-24 12:50:21.669155	253.6	25.6	-76.9	0.0
2025-01-24 12:50:23.915277	254.3	25.7	-77.1	0.0
2025-01-24 12:50:26.160079	254.9	25.8	-78.1	0.0
2025-01-24 12:50:28.404169	255.6	25.9	-77.9	0.0
2025-01-24 12:50:30.648120	256.3	26.0	-78.2	0.0
2025-01-24 12:50:32.895033	257.0	26.0	-77.7	0.0
2025-01-24 12:50:35.138552	257.6	26.1	-77.8	0.0
2025-01-24 12:50:37.382846	258.3	26.2	-75.7	0.0
2025-01-24 12:50:39.626538	259.0	26.2	-76.7	0.0
2025-01-24 12:50:41.872060	259.7	26.3	-78.5	0.0
2025-01-24 12:50:44.117552	260.3	26.4	-77.6	0.0
2025-01-24 12:50:46.361920	261.0	26.4	-77.3	0.0
2025-01-24 12:50:48.607050	261.7	26.5	-77.8	0.0
2025-01-24 12:50:50.852916	262.4	26.5	-78.3	0.0
2025-01-24 12:50:53.097406	263.1	26.5	-77.5	0.0
2025-01-24 12:50:55.344438	263.8	26.6	-78.1	0.0
2025-01-24 12:50:57.588016	264.5	26.6	-75.8	0.0
2025-01-24 12:50:59.836936	265.2	26.6	-76.2	0.0
2025-01-24 12:51:02.080899	265.9	26.6	-78.0	0.0
2025-01-24 12:51:04.328015	266.6	26.7	-77.8	0.0
2025-01-24 12:51:06.574223	267.3	26.7	-78.3	0.0
2025-01-24 12:51:08.821075	268.0	26.7	-78.1	0.0
2025-01-24 12:51:11.069666	268.7	26.7	-77.9	0.0
2025-01-24 12:51:13.313069	269.4	26.7	-78.3	0.0
2025-01-24 12:51:15.558712	270.1	26.7	-77.6	0.0
2025-01-24 12:51:17.802631	270.8	26.7	-75.6	0.0
2025-01-24 12:51:20.047441	271.5	26.6	-76.6	0.0
2025-01-24 12:51:22.292622	272.2	26.6	-77.5	0.0
2025-01-24 12:51:24.540800	272.9	26.6	-78.1	0.0
2025-01-24 12:51:26.784646	273.6	26.6	-78.2	0.0
2025-01-24 12:51:29.031690	274.3	26.5	-78.2	0.0
2025-01-24 12:51:31.278192	275.0	26.5	-78.6	0.0
2025-01-24 12:51:33.523643	275.6	26.5	-78.2	0.0
2025-01-24 12:51:35.769618	276.3	26.4	-78.2	0.0
2025-01-24 12:51:38.013693	277.0	26.4	-75.9	0.0
2025-01-24 12:51:40.257344	277.7	26.3	-76.7	0.0
2025-01-24 12:51:42.505252	278.4	26.3	-78.2	0.0
2025-01-24 12:51:44.748719	279.1	26.2	-78.2	0.0
2025-01-24 12:51:46.993682	279.7	26.1	-78.3	0.0
2025-01-24 12:51:49.237889	280.4	26.1	-78.6	0.0
2025-01-24 12:51:51.482815	281.1	26.0	-78.0	0.0
2025-01-24 12:51:53.730541	281.8	25.9	-77.9	0.0
2025-01-24 12:51:55.973382	282.4	25.8	-77.7	0.0
2025-01-24 12:51:58.222187	283.1	25.7	-76.0	0.0
2025-01-24 12:52:00.470675	283.7	25.6	-77.1	0.0
2025-01-24 12:52:02.714592	284.4	25.6	-78.3	0.0
2025-01-24 12:52:04.960489	285.0	25.5	-78.1	0.0
2025-01-24 12:52:07.208926	285.7	25.4	-78.4	0.0
2025-01-24 12:52:09.454207	286.3	25.3	-78.5	0.0
2025-01-24 12:52:11.701501	287.0	25.1	-78.3	0.0
2025-01-24 12:52:13.947046	287.6	25.0	-78.3	0.0
2025-01-24 12:52:16.196251	288.2	24.9	-78.5	0.0
2025-01-24 12:52:18.440719	288.8	24.8	-75.6	0.0
2025-01-24 12:52:20.684929	289.5	24.7	-76.8	0.0
2025-01-24 12:52:22.931854	290.1	24.6	-78.9	0.0
2025-01-24 12:52:25.178905	290.7	24.4	-78.3	0.0
2025-01-24 12:52:27.423135	291.3	24.3	-78.0	0.0
2025-01-24 12:52:29.670068	291.9	24.2	-77.8	0.0
2025-01-24 12:52:31.914244	292.5	24.1	-77.3	0.0
2025-01-24 12:52:34.158821	293.1	23.9	-77.7	0.0
2025-01-24 12:52:36.403661	293.7	23.8	-78.1	0.0
2025-01-24 12:52:38.648262	294.2	23.6	-75.7	0.0
2025-01-24 12:52:40.896516	294.8	23.5	-76.3	0.0
2025-01-24 12:52:43.141601	295.4	23.4	-77.9	0.0
2025-01-24 12:52:45.386931	296.0	23.2	-78.2	0.0
2025-01-24 12:52:47.631911	296.5	23.1	-78.2	0.0
2025-01-24 12:52:49.876263	297.1	22.9	-78.2	0.0
2025-01-24 12:52:52.120998	297.6	22.8	-78.2	0.0
2025-01-24 12:52:54.366266	298.2	22.6	-77.1	0.0
2025-01-24 12:52:56.615753	298.7	22.5	-77.9	0.0
2025-01-24 12:52:58.859080	299.2	22.3	-76.5	0.0
2025-01-24 12:53:01.104476	299.8	22.1	-76.7	0.0
2025-01-24 12:53:03.349496	300.3	22.0	-77.9	0.0
2025-01-24 12:53:05.594449	300.8	21.8	-78.5	0.0
2025-01-24 12:53:07.839421	301.3	21.7	-78.5	0.0
2025-01-24 12:53:10.085262	301.8	21.5	-78.0	0.0
2025-01-24 12:53:12.332627	302.3	21.3	-78.1	0.0
2025-01-24 12:53:14.578255	302.8	21.2	-78.1	0.0
2025-01-24 12:53:16.821401	303.3	21.0	-78.3	0.0
2025-01-24 12:53:19.065371	303.8	20.8	-76.1	0.0
2025-01-24 12:53:21.308257	304.3	20.7	-76.6	0.0
2025-01-24 12:53:23.554310	304.8	20.5	-78.1	0.0
2025-01-24 12:53:25.800788	305.2	20.3	-78.3	0.0
2025-01-24 12:53:28.045756	305.7	20.2	-78.0	0.0
2025-01-24 12:53:30.289935	306.1	20.0	-78.2	0.0
2025-01-24 12:53:32.533130	306.6	19.8	-78.1	0.0
2025-01-24 12:53:34.780273	307.1	19.6	-78.2	0.0
2025-01-24 12:53:37.024499	307.5	19.5	-78.5	0.0
2025-01-24 12:53:39.269352	307.9	19.3	-76.0	0.0
2025-01-24 12:53:41.514201	308.4	19.1	-76.4	0.0
2025-01-24 12:53:43.758179	308.8	18.9	-77.0	0.0
2025-01-24 12:53:46.001726	309.2	18.8	-77.0	0.0
2025-01-24 12:53:48.247151	309.7	18.6	-78.3	0.0
2025-01-24 12:53:50.491912	310.1	18.4	-77.9	0.0
2025-01-24 12:53:52.737235	310.5	18.2	-77.7	0.0
2025-01-24 12:53:54.982778	310.9	18.1	-77.7	0.0
2025-01-24 12:53:57.229679	311.3	17.9	-77.9	0.0
2025-01-24 12:53:59.476854	311.7	17.7	-75.9	0.0
2025-01-24 12:54:01.723902	312.1	17.5	-75.4	0.0
2025-01-24 12:54:03.968300	312.5	17.4	-77.4	0.0
2025-01-24 12:54:06.212257	312.9	17.2	-77.9	0.0
2025-01-24 12:54:08.456893	313.2	17.0	-77.7	0.0
2025-01-24 12:54:10.702667	313.6	16.8	-78.1	0.0
2025-01-24 12:54:12.948786	314.0	16.7	-78.0	0.0
2025-01-24 12:54:15.194503	314.4	16.5	-78.4	0.0
2025-01-24 12:54:17.440808	314.7	16.3	-78.3	0.0
2025-01-24 12:54:19.687777	315.1	16.1	-76.3	0.0
2025-01-24 12:54:21.933432	315.4	16.0	-75.2	0.0
2025-01-24 12:54:24.180420	315.8	15.8	-78.0	0.0
2025-01-24 12:54:26.423659	316.1	15.6	-78.1	0.0
2025-01-24 12:54:28.668545	316.5	15.4	-78.1	0.0
2025-01-24 12:54:30.913912	316.8	15.3	-77.7	0.0
2025-01-24 12:54:33.156711	317.2	15.1	-78.1	0.0
2025-01-24 12:54:35.399207	317.5	14.9	-77.9	0.0
2025-01-24 12:54:37.643573	317.8	14.8	-78.4	0.0
2025-01-24 12:54:39.891528	318.1	14.6	-75.0	0.0
2025-01-24 12:54:42.135741	318.5	14.4	-76.3	0.0
2025-01-24 12:54:44.380225	318.8	14.2	-78.1	0.0
2025-01-24 12:54:46.624549	319.1	14.1	-78.5	0.0
2025-01-24 12:54:48.872829	319.4	13.9	-78.7	0.0
2025-01-24 12:54:51.119214	319.7	13.7	-78.3	0.0
2025-01-24 12:54:53.364578	320.0	13.6	-78.4	0.0
2025-01-24 12:54:55.610762	320.3	13.4	-78.2	0.0
2025-01-24 12:54:57.855905	320.6	13.2	-78.5	0.0
2025-01-24 12:55:00.102293	320.9	13.1	-76.5	0.0
2025-01-24 12:55:02.350878	321.2	12.9	-76.2	0.0
2025-01-24 12:55:04.595730	321.5	12.7	-78.8	0.0
2025-01-24 12:55:06.843118	321.8	12.6	-78.4	0.0
2025-01-24 12:55:09.087160	322.1	12.4	-78.2	0.0
2025-01-24 12:55:11.333531	322.3	12.2	-78.6	0.0
2025-01-24 12:55:13.575117	322.6	12.1	-78.2	0.0
2025-01-24 12:55:15.818521	322.9	11.9	-78.1	0.0
2025-01-24 12:55:18.063720	323.1	11.7	-78.6	0.0
2025-01-24 12:55:20.311043	323.4	11.6	-75.6	0.0
2025-01-24 12:55:22.553725	323.7	11.4	-76.4	0.0
2025-01-24 12:55:24.797425	323.9	11.3	-78.3	0.0
2025-01-24 12:55:27.045094	324.2	11.1	-77.9	0.0
2025-01-24 12:55:29.289764	324.5	10.9	-78.0	0.0
2025-01-24 12:55:31.536521	324.7	10.8	-78.5	0.0
2025-01-24 12:55:33.780861	325.0	10.6	-78.5	0.0
2025-01-24 12:55:36.025366	325.2	10.5	-78.2	0.0
2025-01-24 12:55:38.269827	325.4	10.3	-78.1	0.0
2025-01-24 12:55:40.516109	325.7	10.1	-75.2	0.0
#Closed at: 2025-01-24 12:46:36.678384