passes_logs/2025/01/24/planumMaritime01/planumMaritime01__20250124_080701_METEOR-M2_3_rec.log

#Pass ID: 20250124_080701_METEOR-M2 3
#Satellite: METEOR-M2 3
#Configuration: METEOR-M2 3
#Start time: 2025-01-24 08:07:06.963638

#LorettStation: 1.0.0 05.05.2024
#Station: planumMaritime01
#Location: 37.49445 lon 55.92918 lat
#TLE: 1 57166U 23091A   25023.82634034  .00000085  00000+0  56339-4 0  9994
#TLE: 2 57166  98.6836  82.1812 0003643 195.3672 164.7397 14.23971493 82020

#Time	Az	El	Level	SNR
2025-01-24 08:07:09.113923	10.3	10.2	-76.0	0.0
2025-01-24 08:07:11.363566	10.2	10.4	-75.7	0.0
2025-01-24 08:07:13.610710	10.1	10.6	-75.1	0.0
2025-01-24 08:07:15.857543	10.0	10.8	-75.6	0.0
2025-01-24 08:07:18.103934	9.9	11.0	-75.5	0.0
2025-01-24 08:07:20.352012	9.8	11.2	-75.6	0.0
2025-01-24 08:07:22.601982	9.7	11.4	-75.4	0.0
2025-01-24 08:07:24.849256	9.6	11.6	-75.6	0.0
2025-01-24 08:07:27.097534	9.5	11.8	-75.8	0.0
2025-01-24 08:07:29.342104	9.4	12.0	-75.6	0.0
2025-01-24 08:07:31.587400	9.3	12.2	-75.4	0.0
2025-01-24 08:07:33.832895	9.2	12.4	-75.7	0.0
2025-01-24 08:07:36.080942	9.0	12.6	-75.7	0.0
2025-01-24 08:07:38.327979	8.9	12.8	-75.7	0.0
2025-01-24 08:07:40.573654	8.8	13.0	-76.1	0.0
2025-01-24 08:07:42.822658	8.7	13.2	-75.8	0.0
2025-01-24 08:07:45.066548	8.6	13.5	-75.5	0.0
2025-01-24 08:07:47.309423	8.5	13.7	-75.7	0.0
2025-01-24 08:07:49.555506	8.3	13.9	-75.9	0.0
2025-01-24 08:07:51.798391	8.2	14.1	-76.2	0.0
2025-01-24 08:07:54.044621	8.1	14.3	-76.0	0.0
2025-01-24 08:07:56.291099	8.0	14.6	-75.5	0.0
2025-01-24 08:07:58.538399	7.8	14.8	-76.0	0.0
2025-01-24 08:08:00.785575	7.7	15.0	-76.1	0.0
2025-01-24 08:08:03.033007	7.6	15.3	-76.3	0.0
2025-01-24 08:08:05.281952	7.4	15.5	-76.4	0.0
2025-01-24 08:08:07.527190	7.3	15.7	-76.1	0.0
2025-01-24 08:08:09.771390	7.2	16.0	-76.3	0.0
2025-01-24 08:08:12.019133	7.0	16.2	-76.2	0.0
2025-01-24 08:08:14.264600	6.9	16.5	-76.2	0.0
2025-01-24 08:08:16.510152	6.7	16.7	-76.3	0.0
2025-01-24 08:08:18.756558	6.6	16.9	-75.9	0.0
2025-01-24 08:08:21.000740	6.4	17.2	-76.1	0.0
2025-01-24 08:08:23.246065	6.3	17.4	-76.5	0.0
2025-01-24 08:08:25.493513	6.1	17.7	-76.0	0.0
2025-01-24 08:08:27.740189	5.9	18.0	-76.0	0.0
2025-01-24 08:08:29.984350	5.8	18.2	-76.5	0.0
2025-01-24 08:08:32.227501	5.6	18.5	-76.6	0.0
2025-01-24 08:08:34.470742	5.4	18.7	-76.5	0.0
2025-01-24 08:08:36.717210	5.3	19.0	-76.4	0.0
2025-01-24 08:08:38.960760	5.1	19.3	-76.6	0.0
2025-01-24 08:08:41.205307	4.9	19.6	-76.0	0.0
2025-01-24 08:08:43.449519	4.7	19.8	-76.5	0.0
2025-01-24 08:08:45.695517	4.5	20.1	-76.9	0.0
2025-01-24 08:08:47.941428	4.3	20.4	-76.7	0.0
2025-01-24 08:08:50.185813	4.1	20.7	-76.7	0.0
2025-01-24 08:08:52.430857	3.9	21.0	-76.4	0.0
2025-01-24 08:08:54.673656	3.7	21.3	-76.3	0.0
2025-01-24 08:08:56.920270	3.5	21.5	-76.5	0.0
2025-01-24 08:08:59.165649	3.3	21.8	-76.6	0.0
2025-01-24 08:09:01.412541	3.1	22.1	-76.3	0.0
2025-01-24 08:09:03.660046	2.9	22.4	-76.3	0.0
2025-01-24 08:09:05.905919	2.7	22.8	-76.4	0.0
2025-01-24 08:09:08.153089	2.4	23.1	-76.2	0.0
2025-01-24 08:09:10.397366	2.2	23.4	-76.2	0.0
2025-01-24 08:09:12.644666	2.0	23.7	-76.6	0.0
2025-01-24 08:09:14.891276	1.7	24.0	-76.7	0.0
2025-01-24 08:09:17.136488	1.5	24.3	-76.6	0.0
2025-01-24 08:09:19.381666	1.2	24.7	-76.4	0.0
2025-01-24 08:09:21.629376	1.0	25.0	-76.4	0.0
2025-01-24 08:09:23.875873	0.7	25.3	-76.5	0.0
2025-01-24 08:09:26.121356	0.4	25.7	-76.5	0.0
2025-01-24 08:09:28.366886	0.1	26.0	-76.3	0.0
2025-01-24 08:09:30.613562	359.9	26.3	-76.7	0.0
2025-01-24 08:09:32.859691	359.6	26.7	-76.3	0.0
2025-01-24 08:09:35.106302	359.3	27.0	-76.6	0.0
2025-01-24 08:09:37.350764	359.0	27.4	-76.3	0.0
2025-01-24 08:09:39.595204	358.6	27.8	-76.0	0.0
2025-01-24 08:09:41.840226	358.3	28.1	-76.4	0.0
2025-01-24 08:09:44.085224	358.0	28.5	-76.4	0.0
2025-01-24 08:09:46.331877	357.7	28.9	-76.4	0.0
2025-01-24 08:09:48.580040	357.3	29.2	-76.6	0.0
2025-01-24 08:09:50.826191	357.0	29.6	-76.4	0.0
2025-01-24 08:09:53.072516	356.6	30.0	-76.1	0.0
2025-01-24 08:09:55.317307	356.3	30.4	-76.4	0.0
2025-01-24 08:09:57.561647	355.9	30.8	-76.4	0.0
2025-01-24 08:09:59.806840	355.5	31.2	-76.1	0.0
2025-01-24 08:10:02.052059	355.1	31.6	-76.5	0.0
2025-01-24 08:10:04.296157	354.7	32.0	-76.4	0.0
2025-01-24 08:10:06.539652	354.3	32.4	-76.3	0.0
2025-01-24 08:10:08.785859	353.8	32.8	-76.7	0.0
2025-01-24 08:10:11.033093	353.4	33.2	-76.7	0.0
2025-01-24 08:10:13.279749	353.0	33.6	-76.0	0.0
2025-01-24 08:10:15.522222	352.5	34.0	-76.5	0.0
2025-01-24 08:10:17.766419	352.0	34.4	-76.6	0.0
2025-01-24 08:10:20.011306	351.5	34.9	-76.5	0.0
2025-01-24 08:10:22.258527	351.0	35.3	-76.2	0.0
2025-01-24 08:10:24.506681	350.5	35.7	-76.3	0.0
2025-01-24 08:10:26.753054	350.0	36.2	-76.4	0.0
2025-01-24 08:10:28.999206	349.5	36.6	-76.3	0.0
2025-01-24 08:10:31.245753	348.9	37.1	-76.6	0.0
2025-01-24 08:10:33.493920	348.3	37.5	-76.5	0.0
2025-01-24 08:10:35.738716	347.7	37.9	-76.4	0.0
2025-01-24 08:10:37.984237	347.1	38.4	-76.6	0.0
2025-01-24 08:10:40.230583	346.5	38.9	-76.2	0.0
2025-01-24 08:10:42.474279	345.9	39.3	-76.6	0.0
2025-01-24 08:10:44.722144	345.2	39.8	-76.8	0.0
2025-01-24 08:10:46.967908	344.5	40.2	-76.4	0.0
2025-01-24 08:10:49.213231	343.8	40.7	-76.6	0.0
2025-01-24 08:10:51.462413	343.1	41.2	-76.9	0.0
2025-01-24 08:10:53.710019	342.4	41.6	-76.7	0.0
2025-01-24 08:10:55.956961	341.6	42.1	-76.7	0.0
2025-01-24 08:10:58.200235	340.8	42.5	-76.6	0.0
2025-01-24 08:11:00.446400	340.0	43.0	-76.7	0.0
2025-01-24 08:11:02.691492	339.2	43.5	-76.6	0.0
2025-01-24 08:11:04.937215	338.3	43.9	-76.7	0.0
2025-01-24 08:11:07.182864	337.4	44.4	-76.3	0.0
2025-01-24 08:11:09.430363	336.5	44.8	-76.4	0.0
2025-01-24 08:11:11.676429	335.6	45.3	-76.7	0.0
2025-01-24 08:11:13.923431	334.6	45.7	-76.6	0.0
2025-01-24 08:11:16.171039	333.6	46.2	-76.5	0.0
2025-01-24 08:11:18.415013	332.6	46.6	-77.2	0.0
2025-01-24 08:11:20.662425	331.6	47.1	-76.5	0.0
2025-01-24 08:11:22.911970	330.5	47.5	-76.5	0.0
2025-01-24 08:11:25.158902	329.4	47.9	-76.3	0.0
2025-01-24 08:11:27.405735	328.2	48.3	-76.5	0.0
2025-01-24 08:11:29.651027	327.1	48.7	-76.7	0.0
2025-01-24 08:11:31.895177	325.9	49.1	-76.9	0.0
2025-01-24 08:11:34.138462	324.6	49.5	-76.9	0.0
2025-01-24 08:11:36.386154	323.4	49.9	-76.8	0.0
2025-01-24 08:11:38.631346	322.1	50.2	-76.6	0.0
2025-01-24 08:11:40.874225	320.8	50.6	-76.8	0.0
2025-01-24 08:11:43.120981	319.4	50.9	-76.9	0.0
2025-01-24 08:11:45.367524	318.0	51.2	-76.8	0.0
2025-01-24 08:11:47.611460	316.6	51.5	-76.9	0.0
2025-01-24 08:11:49.858826	315.2	51.8	-76.7	0.0
2025-01-24 08:11:52.104826	313.7	52.1	-76.7	0.0
2025-01-24 08:11:54.352026	312.2	52.3	-77.0	0.0
2025-01-24 08:11:56.594794	310.7	52.6	-76.9	0.0
2025-01-24 08:11:58.839871	309.1	52.8	-76.8	0.0
2025-01-24 08:12:01.086200	307.6	53.0	-76.7	0.0
2025-01-24 08:12:03.332874	306.0	53.1	-76.7	0.0
2025-01-24 08:12:05.577396	304.4	53.3	-76.7	0.0
2025-01-24 08:12:07.824207	302.8	53.4	-77.1	0.0
2025-01-24 08:12:10.067447	301.1	53.5	-76.9	0.0
2025-01-24 08:12:12.314158	299.5	53.6	-76.7	0.0
2025-01-24 08:12:14.558869	297.9	53.6	-76.8	0.0
2025-01-24 08:12:16.806150	296.2	53.7	-76.7	0.0
2025-01-24 08:12:19.048039	294.5	53.7	-77.0	0.0
2025-01-24 08:12:21.296397	292.9	53.7	-76.6	0.0
2025-01-24 08:12:23.540663	291.2	53.6	-76.8	0.0
2025-01-24 08:12:25.784592	289.6	53.5	-76.6	0.0
2025-01-24 08:12:28.033896	288.0	53.5	-76.7	0.0
2025-01-24 08:12:30.278512	286.3	53.3	-76.8	0.0
2025-01-24 08:12:32.524564	284.7	53.2	-77.0	0.0
2025-01-24 08:12:34.770523	283.1	53.0	-77.1	0.0
2025-01-24 08:12:37.015733	281.6	52.9	-77.0	0.0
2025-01-24 08:12:39.262435	280.0	52.7	-77.0	0.0
2025-01-24 08:12:41.508329	278.5	52.4	-77.1	0.0
2025-01-24 08:12:43.754057	277.0	52.2	-77.1	0.0
2025-01-24 08:12:45.997034	275.5	51.9	-76.8	0.0
2025-01-24 08:12:48.241608	274.0	51.6	-77.0	0.0
2025-01-24 08:12:50.490326	272.6	51.3	-77.2	0.0
2025-01-24 08:12:52.734804	271.2	51.0	-77.1	0.0
2025-01-24 08:12:54.982324	269.8	50.7	-76.9	0.0
2025-01-24 08:12:57.228086	268.5	50.4	-77.0	0.0
2025-01-24 08:12:59.473429	267.2	50.0	-76.5	0.0
2025-01-24 08:13:01.718208	265.9	49.6	-76.4	0.0
2025-01-24 08:13:03.965972	264.7	49.3	-76.7	0.0
2025-01-24 08:13:06.210673	263.5	48.9	-76.5	0.0
2025-01-24 08:13:08.454992	262.3	48.5	-76.9	0.0
2025-01-24 08:13:10.700037	261.1	48.0	-77.2	0.0
2025-01-24 08:13:12.948189	260.0	47.6	-76.8	0.0
2025-01-24 08:13:15.192377	258.9	47.2	-76.9	0.0
2025-01-24 08:13:17.438571	257.8	46.8	-76.8	0.0
2025-01-24 08:13:19.685384	256.8	46.3	-76.6	0.0
2025-01-24 08:13:21.930354	255.8	45.9	-76.7	0.0
2025-01-24 08:13:24.176567	254.8	45.4	-76.8	0.0
2025-01-24 08:13:26.423962	253.9	45.0	-76.5	0.0
2025-01-24 08:13:28.669502	253.0	44.5	-76.4	0.0
2025-01-24 08:13:30.916012	252.1	44.1	-76.4	0.0
2025-01-24 08:13:33.163130	251.2	43.6	-76.5	0.0
2025-01-24 08:13:35.411876	250.4	43.1	-76.3	0.0
2025-01-24 08:13:37.657844	249.5	42.7	-75.9	0.0
2025-01-24 08:13:39.902027	248.7	42.2	-76.2	0.0
2025-01-24 08:13:42.147958	248.0	41.7	-76.3	0.0
2025-01-24 08:13:44.395333	247.2	41.3	-76.3	0.0
2025-01-24 08:13:46.642338	246.5	40.8	-76.5	0.0
2025-01-24 08:13:48.889368	245.8	40.3	-76.4	0.0
2025-01-24 08:13:51.131020	245.1	39.9	-76.2	0.0
2025-01-24 08:13:53.377719	244.4	39.4	-76.5	0.0
2025-01-24 08:13:55.627625	243.8	39.0	-76.1	0.0
2025-01-24 08:13:57.872957	243.1	38.5	-76.3	0.0
2025-01-24 08:14:00.121126	242.5	38.0	-76.4	0.0
2025-01-24 08:14:02.364529	241.9	37.6	-76.5	0.0
2025-01-24 08:14:04.607262	241.3	37.1	-76.5	0.0
2025-01-24 08:14:06.851846	240.8	36.7	-76.6	0.0
2025-01-24 08:14:09.096918	240.2	36.3	-76.3	0.0
2025-01-24 08:14:11.345355	239.7	35.8	-76.9	0.0
2025-01-24 08:14:13.589239	239.2	35.4	-76.5	0.0
2025-01-24 08:14:15.836990	238.7	34.9	-76.6	0.0
2025-01-24 08:14:18.079876	238.2	34.5	-76.5	0.0
2025-01-24 08:14:20.327436	237.7	34.1	-76.4	0.0
2025-01-24 08:14:22.575467	237.2	33.7	-76.5	0.0
2025-01-24 08:14:24.821066	236.8	33.2	-76.7	0.0
2025-01-24 08:14:27.066777	236.3	32.8	-76.6	0.0
2025-01-24 08:14:29.311586	235.9	32.4	-76.6	0.0
2025-01-24 08:14:31.559384	235.5	32.0	-76.6	0.0
2025-01-24 08:14:33.800822	235.0	31.6	-76.3	0.0
2025-01-24 08:14:36.044581	234.6	31.2	-76.3	0.0
2025-01-24 08:14:38.287377	234.3	30.8	-76.3	0.0
2025-01-24 08:14:40.533801	233.9	30.4	-76.5	0.0
2025-01-24 08:14:42.780171	233.5	30.0	-76.4	0.0
2025-01-24 08:14:45.026136	233.1	29.6	-76.3	0.0
2025-01-24 08:14:47.269324	232.8	29.3	-76.6	0.0
2025-01-24 08:14:49.512155	232.4	28.9	-76.3	0.0
2025-01-24 08:14:51.761967	232.1	28.5	-76.7	0.0
2025-01-24 08:14:54.007563	231.8	28.1	-76.8	0.0
2025-01-24 08:14:56.253547	231.4	27.8	-76.4	0.0
2025-01-24 08:14:58.500310	231.1	27.4	-77.0	0.0
2025-01-24 08:15:00.744122	230.8	27.0	-76.7	0.0
2025-01-24 08:15:02.989616	230.5	26.7	-76.4	0.0
2025-01-24 08:15:05.233555	230.2	26.3	-76.3	0.0
2025-01-24 08:15:07.479992	229.9	26.0	-76.8	0.0
2025-01-24 08:15:09.725612	229.7	25.7	-76.6	0.0
2025-01-24 08:15:11.970206	229.4	25.3	-77.0	0.0
2025-01-24 08:15:14.215013	229.1	25.0	-76.8	0.0
2025-01-24 08:15:16.461173	228.8	24.6	-76.5	0.0
2025-01-24 08:15:18.705258	228.6	24.3	-76.9	0.0
2025-01-24 08:15:20.950411	228.3	24.0	-76.7	0.0
2025-01-24 08:15:23.196934	228.1	23.7	-76.8	0.0
2025-01-24 08:15:25.441319	227.8	23.4	-76.8	0.0
2025-01-24 08:15:27.687121	227.6	23.0	-76.9	0.0
2025-01-24 08:15:29.934928	227.4	22.7	-76.3	0.0
2025-01-24 08:15:32.177784	227.1	22.4	-77.0	0.0
2025-01-24 08:15:34.423406	226.9	22.1	-77.0	0.0
2025-01-24 08:15:36.668382	226.7	21.8	-76.8	0.0
2025-01-24 08:15:38.913841	226.5	21.5	-76.9	0.0
2025-01-24 08:15:41.163297	226.3	21.2	-76.7	0.0
2025-01-24 08:15:43.411197	226.1	20.9	-76.4	0.0
2025-01-24 08:15:45.658918	225.9	20.6	-77.0	0.0
2025-01-24 08:15:47.907151	225.7	20.3	-76.7	0.0
2025-01-24 08:15:50.155233	225.5	20.1	-76.5	0.0
2025-01-24 08:15:52.398521	225.3	19.8	-76.4	0.0
2025-01-24 08:15:54.645894	225.1	19.5	-76.2	0.0
2025-01-24 08:15:56.892461	224.9	19.2	-76.2	0.0
2025-01-24 08:15:59.134905	224.7	19.0	-76.3	0.0
2025-01-24 08:16:01.378430	224.6	18.7	-76.4	0.0
2025-01-24 08:16:03.623705	224.4	18.4	-76.6	0.0
2025-01-24 08:16:05.868053	224.2	18.2	-75.7	0.0
2025-01-24 08:16:08.116815	224.0	17.9	-76.4	0.0
2025-01-24 08:16:10.363461	223.9	17.6	-76.5	0.0
2025-01-24 08:16:12.608619	223.7	17.4	-76.0	0.0
2025-01-24 08:16:14.855287	223.6	17.1	-76.5	0.0
2025-01-24 08:16:17.098446	223.4	16.9	-76.6	0.0
2025-01-24 08:16:19.343352	223.3	16.6	-76.6	0.0
2025-01-24 08:16:21.586559	223.1	16.4	-75.9	0.0
2025-01-24 08:16:23.833928	223.0	16.1	-75.9	0.0
2025-01-24 08:16:26.080473	222.8	15.9	-76.2	0.0
2025-01-24 08:16:28.324774	222.7	15.6	-76.5	0.0
2025-01-24 08:16:30.573365	222.5	15.4	-76.2	0.0
2025-01-24 08:16:32.817481	222.4	15.2	-76.4	0.0
2025-01-24 08:16:35.063394	222.2	14.9	-76.2	0.0
2025-01-24 08:16:37.308346	222.1	14.7	-76.6	0.0
2025-01-24 08:16:39.555879	222.0	14.5	-75.8	0.0
2025-01-24 08:16:41.800155	221.8	14.2	-76.3	0.0
2025-01-24 08:16:44.048243	221.7	14.0	-76.7	0.0
2025-01-24 08:16:46.292869	221.6	13.8	-76.2	0.0
2025-01-24 08:16:48.538151	221.5	13.6	-76.4	0.0
2025-01-24 08:16:50.783705	221.3	13.4	-76.3	0.0
2025-01-24 08:16:53.029330	221.2	13.1	-76.6	0.0
2025-01-24 08:16:55.277168	221.1	12.9	-76.7	0.0
2025-01-24 08:16:57.522431	221.0	12.7	-76.5	0.0
2025-01-24 08:16:59.767729	220.9	12.5	-76.1	0.0
2025-01-24 08:17:02.013711	220.8	12.3	-75.7	0.0
2025-01-24 08:17:04.256697	220.7	12.1	-76.6	0.0
2025-01-24 08:17:06.504038	220.5	11.9	-76.4	0.0
2025-01-24 08:17:08.751170	220.4	11.7	-76.3	0.0
2025-01-24 08:17:10.998030	220.3	11.4	-76.7	0.0
2025-01-24 08:17:13.242650	220.2	11.2	-76.2	0.0
2025-01-24 08:17:15.486512	220.1	11.0	-76.1	0.0
2025-01-24 08:17:17.733144	220.0	10.8	-76.4	0.0
2025-01-24 08:17:19.980273	219.9	10.6	-76.4	0.0
2025-01-24 08:17:22.226929	219.8	10.5	-76.2	0.0
2025-01-24 08:17:24.474155	219.7	10.3	-76.5	0.0
2025-01-24 08:17:26.719861	219.6	10.1	-76.3	0.0
#Closed at: 2025-01-24 08:07:01.966689