passes_logs/2025/01/24/planumMaritime01/planumMaritime01__20250124_085144_NOAA_19_rec.log

#Pass ID: 20250124_085144_NOAA 19
#Satellite: NOAA 19
#Configuration: NOAA 19
#Start time: 2025-01-24 08:51:49.305224

#LorettStation: 1.0.0 05.05.2024
#Station: planumMaritime01
#Location: 37.49445 lon 55.92918 lat
#TLE: 1 33591U 09005A   25023.78299149  .00000396  00000+0  23548-3 0  9998
#TLE: 2 33591  99.0182  87.6127 0014154  33.7555 326.4515 14.13267063822782

#Time	Az	El	Level	SNR
2025-01-24 08:51:51.465500	7.9	10.2	-75.0	0.0
2025-01-24 08:51:53.710359	7.7	10.4	-75.6	0.0
2025-01-24 08:51:55.953108	7.6	10.5	-74.9	0.0
2025-01-24 08:51:58.197849	7.5	10.7	-75.6	0.0
2025-01-24 08:52:00.445149	7.3	10.9	-75.1	0.0
2025-01-24 08:52:02.695408	7.2	11.1	-74.6	0.0
2025-01-24 08:52:04.940297	7.0	11.3	-75.0	0.0
2025-01-24 08:52:07.188557	6.8	11.5	-75.2	0.0
2025-01-24 08:52:09.432377	6.7	11.7	-75.2	0.0
2025-01-24 08:52:11.680896	6.5	11.9	-75.3	0.0
2025-01-24 08:52:13.925223	6.4	12.1	-75.2	0.0
2025-01-24 08:52:16.171005	6.2	12.2	-75.1	0.0
2025-01-24 08:52:18.415641	6.0	12.4	-75.1	0.0
2025-01-24 08:52:20.663221	5.9	12.6	-75.2	0.0
2025-01-24 08:52:22.910021	5.7	12.8	-75.3	0.0
2025-01-24 08:52:25.156001	5.5	13.0	-75.1	0.0
2025-01-24 08:52:27.404471	5.4	13.2	-75.2	0.0
2025-01-24 08:52:29.651275	5.2	13.4	-75.2	0.0
2025-01-24 08:52:31.899038	5.0	13.6	-75.3	0.0
2025-01-24 08:52:34.144411	4.8	13.9	-75.3	0.0
2025-01-24 08:52:36.388585	4.6	14.1	-75.4	0.0
2025-01-24 08:52:38.635510	4.4	14.3	-75.1	0.0
2025-01-24 08:52:40.880982	4.3	14.5	-75.2	0.0
2025-01-24 08:52:43.128023	4.1	14.7	-75.5	0.0
2025-01-24 08:52:45.377176	3.9	14.9	-75.4	0.0
2025-01-24 08:52:47.626081	3.7	15.1	-75.3	0.0
2025-01-24 08:52:49.871834	3.5	15.3	-75.5	0.0
2025-01-24 08:52:52.118256	3.3	15.5	-76.1	0.0
2025-01-24 08:52:54.368151	3.1	15.8	-75.3	0.0
2025-01-24 08:52:56.613424	2.8	16.0	-75.8	0.0
2025-01-24 08:52:58.858928	2.6	16.2	-75.7	0.0
2025-01-24 08:53:01.104747	2.4	16.4	-75.7	0.0
2025-01-24 08:53:03.349208	2.2	16.7	-76.0	0.0
2025-01-24 08:53:05.595134	2.0	16.9	-75.7	0.0
2025-01-24 08:53:07.840796	1.7	17.1	-75.7	0.0
2025-01-24 08:53:10.085204	1.5	17.3	-75.8	0.0
2025-01-24 08:53:12.333337	1.3	17.6	-75.7	0.0
2025-01-24 08:53:14.583090	1.0	17.8	-75.3	0.0
2025-01-24 08:53:16.828936	0.8	18.0	-75.8	0.0
2025-01-24 08:53:19.076172	0.5	18.3	-75.4	0.0
2025-01-24 08:53:21.322285	0.3	18.5	-75.5	0.0
2025-01-24 08:53:23.565950	0.0	18.8	-75.3	0.0
2025-01-24 08:53:25.813650	359.8	19.0	-75.5	0.0
2025-01-24 08:53:28.058351	359.5	19.2	-75.6	0.0
2025-01-24 08:53:30.304252	359.2	19.5	-75.5	0.0
2025-01-24 08:53:32.550706	359.0	19.7	-75.8	0.0
2025-01-24 08:53:34.794547	358.7	20.0	-75.9	0.0
2025-01-24 08:53:37.039533	358.4	20.2	-75.9	0.0
2025-01-24 08:53:39.287359	358.1	20.5	-75.7	0.0
2025-01-24 08:53:41.535253	357.8	20.7	-76.2	0.0
2025-01-24 08:53:43.780501	357.5	21.0	-75.8	0.0
2025-01-24 08:53:46.023855	357.2	21.2	-75.8	0.0
2025-01-24 08:53:48.270006	356.9	21.5	-76.0	0.0
2025-01-24 08:53:50.517915	356.6	21.8	-75.1	0.0
2025-01-24 08:53:52.762090	356.3	22.0	-76.9	0.0
2025-01-24 08:53:55.008075	356.0	22.3	-76.7	0.0
2025-01-24 08:53:57.255135	355.7	22.6	-77.0	0.0
2025-01-24 08:53:59.503471	355.3	22.8	-76.9	0.0
2025-01-24 08:54:01.750609	355.0	23.1	-75.8	0.0
2025-01-24 08:54:03.999113	354.6	23.4	-77.0	0.0
2025-01-24 08:54:06.246099	354.3	23.6	-75.6	0.0
2025-01-24 08:54:08.494971	353.9	23.9	-77.0	0.0
2025-01-24 08:54:10.742254	353.6	24.2	-76.0	0.0
2025-01-24 08:54:12.988454	353.2	24.5	-76.9	0.0
2025-01-24 08:54:15.235907	352.8	24.7	-75.8	0.0
2025-01-24 08:54:17.482637	352.4	25.0	-76.3	0.0
2025-01-24 08:54:19.730777	352.1	25.3	-76.1	0.0
2025-01-24 08:54:21.978372	351.7	25.6	-76.2	0.0
2025-01-24 08:54:24.225007	351.2	25.9	-75.6	0.0
2025-01-24 08:54:26.469532	350.8	26.2	-75.7	0.0
2025-01-24 08:54:28.715595	350.4	26.4	-75.7	0.0
2025-01-24 08:54:30.965060	350.0	26.7	-75.9	0.0
2025-01-24 08:54:33.211805	349.6	27.0	-75.9	0.0
2025-01-24 08:54:35.458054	349.1	27.3	-76.0	0.0
2025-01-24 08:54:37.704672	348.7	27.6	-75.8	0.0
2025-01-24 08:54:39.948050	348.2	27.9	-75.9	0.0
2025-01-24 08:54:42.195569	347.7	28.2	-75.5	0.0
2025-01-24 08:54:44.439360	347.2	28.5	-76.3	0.0
2025-01-24 08:54:46.686202	346.8	28.8	-76.4	0.0
2025-01-24 08:54:48.933320	346.3	29.1	-76.2	0.0
2025-01-24 08:54:51.180489	345.8	29.4	-76.0	0.0
2025-01-24 08:54:53.425766	345.2	29.7	-76.2	0.0
2025-01-24 08:54:55.671811	344.7	30.0	-75.7	0.0
2025-01-24 08:54:57.919379	344.2	30.3	-75.5	0.0
2025-01-24 08:55:00.164028	343.6	30.6	-75.7	0.0
2025-01-24 08:55:02.408648	343.1	30.9	-75.8	0.0
2025-01-24 08:55:04.655302	342.5	31.2	-76.1	0.0
2025-01-24 08:55:06.899740	341.9	31.5	-76.1	0.0
2025-01-24 08:55:09.143796	341.4	31.8	-76.2	0.0
2025-01-24 08:55:11.390660	340.8	32.1	-76.5	0.0
2025-01-24 08:55:13.638111	340.2	32.4	-75.9	0.0
2025-01-24 08:55:15.882567	339.5	32.7	-76.0	0.0
2025-01-24 08:55:18.126219	338.9	33.0	-75.9	0.0
2025-01-24 08:55:20.372225	338.3	33.2	-76.1	0.0
2025-01-24 08:55:22.619092	337.6	33.5	-76.3	0.0
2025-01-24 08:55:24.863293	336.9	33.8	-76.8	0.0
2025-01-24 08:55:27.109576	336.3	34.1	-76.9	0.0
2025-01-24 08:55:29.354278	335.6	34.4	-76.5	0.0
2025-01-24 08:55:31.602802	334.9	34.7	-76.0	0.0
2025-01-24 08:55:33.847367	334.2	35.0	-76.7	0.0
2025-01-24 08:55:36.096136	333.4	35.3	-76.2	0.0
2025-01-24 08:55:38.341125	332.7	35.5	-76.5	0.0
2025-01-24 08:55:40.589345	331.9	35.8	-76.3	0.0
2025-01-24 08:55:42.834621	331.2	36.1	-76.9	0.0
2025-01-24 08:55:45.080165	330.4	36.3	-76.9	0.0
2025-01-24 08:55:47.325755	329.6	36.6	-76.1	0.0
2025-01-24 08:55:49.569468	328.8	36.9	-77.3	0.0
2025-01-24 08:55:51.815362	328.0	37.1	-76.9	0.0
2025-01-24 08:55:54.060859	327.1	37.4	-77.3	0.0
2025-01-24 08:55:56.306288	326.3	37.6	-76.9	0.0
2025-01-24 08:55:58.549955	325.5	37.8	-77.3	0.0
2025-01-24 08:56:00.795925	324.6	38.1	-76.8	0.0
2025-01-24 08:56:03.044543	323.7	38.3	-77.1	0.0
2025-01-24 08:56:05.290290	322.8	38.5	-76.8	0.0
2025-01-24 08:56:07.536699	321.9	38.7	-76.3	0.0
2025-01-24 08:56:09.781714	321.0	38.9	-77.0	0.0
2025-01-24 08:56:12.027647	320.1	39.1	-76.8	0.0
2025-01-24 08:56:14.274029	319.1	39.3	-77.1	0.0
2025-01-24 08:56:16.520949	318.2	39.5	-77.0	0.0
2025-01-24 08:56:18.769011	317.2	39.7	-77.1	0.0
2025-01-24 08:56:21.015709	316.3	39.8	-77.0	0.0
2025-01-24 08:56:23.259039	315.3	40.0	-76.8	0.0
2025-01-24 08:56:25.503734	314.3	40.2	-77.1	0.0
2025-01-24 08:56:27.749956	313.3	40.3	-76.9	0.0
2025-01-24 08:56:29.996623	312.3	40.4	-77.1	0.0
2025-01-24 08:56:32.244978	311.3	40.5	-77.1	0.0
2025-01-24 08:56:34.492368	310.2	40.7	-76.7	0.0
2025-01-24 08:56:36.738277	309.2	40.8	-77.0	0.0
2025-01-24 08:56:38.984433	308.2	40.8	-77.3	0.0
2025-01-24 08:56:41.231584	307.1	40.9	-76.8	0.0
2025-01-24 08:56:43.480601	306.1	41.0	-77.6	0.0
2025-01-24 08:56:45.725864	305.1	41.1	-77.0	0.0
2025-01-24 08:56:47.969943	304.0	41.1	-76.9	0.0
2025-01-24 08:56:50.215687	303.0	41.1	-77.1	0.0
2025-01-24 08:56:52.460232	301.9	41.2	-77.3	0.0
2025-01-24 08:56:54.703333	300.8	41.2	-77.3	0.0
2025-01-24 08:56:56.948154	299.8	41.2	-77.2	0.0
2025-01-24 08:56:59.193636	298.7	41.2	-77.0	0.0
2025-01-24 08:57:01.441992	297.7	41.2	-77.3	0.0
2025-01-24 08:57:03.684423	296.6	41.1	-77.1	0.0
2025-01-24 08:57:05.932480	295.6	41.1	-77.3	0.0
2025-01-24 08:57:08.177371	294.5	41.0	-77.4	0.0
2025-01-24 08:57:10.422540	293.5	41.0	-77.2	0.0
2025-01-24 08:57:12.666952	292.4	40.9	-77.6	0.0
2025-01-24 08:57:14.912417	291.4	40.8	-77.2	0.0
2025-01-24 08:57:17.158925	290.3	40.7	-77.8	0.0
2025-01-24 08:57:19.404167	289.3	40.6	-77.4	0.0
2025-01-24 08:57:21.648841	288.3	40.5	-77.5	0.0
2025-01-24 08:57:23.897350	287.3	40.4	-77.0	0.0
2025-01-24 08:57:26.143928	286.3	40.3	-77.3	0.0
2025-01-24 08:57:28.389854	285.3	40.1	-77.7	0.0
2025-01-24 08:57:30.633688	284.3	40.0	-77.2	0.0
2025-01-24 08:57:32.880935	283.3	39.8	-77.7	0.0
2025-01-24 08:57:35.125043	282.4	39.6	-77.4	0.0
2025-01-24 08:57:37.373094	281.4	39.4	-77.5	0.0
2025-01-24 08:57:39.620712	280.5	39.3	-77.4	0.0
2025-01-24 08:57:41.867122	279.5	39.1	-77.0	0.0
2025-01-24 08:57:44.112839	278.6	38.9	-77.1	0.0
2025-01-24 08:57:46.354718	277.7	38.7	-77.5	0.0
2025-01-24 08:57:48.597220	276.8	38.4	-77.5	0.0
2025-01-24 08:57:50.842258	275.9	38.2	-77.1	0.0
2025-01-24 08:57:53.090658	275.0	38.0	-77.3	0.0
2025-01-24 08:57:55.333738	274.2	37.8	-77.1	0.0
2025-01-24 08:57:57.579973	273.3	37.5	-77.5	0.0
2025-01-24 08:57:59.825796	272.5	37.3	-77.3	0.0
2025-01-24 08:58:02.071960	271.7	37.0	-77.3	0.0
2025-01-24 08:58:04.312592	270.8	36.8	-77.6	0.0
2025-01-24 08:58:06.559165	270.0	36.5	-77.6	0.0
2025-01-24 08:58:08.803638	269.3	36.3	-77.4	0.0
2025-01-24 08:58:11.052541	268.5	36.0	-77.4	0.0
2025-01-24 08:58:13.299680	267.7	35.7	-77.3	0.0
2025-01-24 08:58:15.545602	267.0	35.4	-77.7	0.0
2025-01-24 08:58:17.793831	266.2	35.2	-77.0	0.0
2025-01-24 08:58:20.039506	265.5	34.9	-77.2	0.0
2025-01-24 08:58:22.283888	264.8	34.6	-77.4	0.0
2025-01-24 08:58:24.529293	264.1	34.3	-77.4	0.0
2025-01-24 08:58:26.775158	263.4	34.0	-77.3	0.0
2025-01-24 08:58:29.019234	262.7	33.7	-77.1	0.0
2025-01-24 08:58:31.265524	262.1	33.4	-77.7	0.0
2025-01-24 08:58:33.509780	261.4	33.2	-77.0	0.0
2025-01-24 08:58:35.755128	260.8	32.9	-77.0	0.0
2025-01-24 08:58:38.004867	260.2	32.6	-77.8	0.0
2025-01-24 08:58:40.248556	259.5	32.3	-77.4	0.0
2025-01-24 08:58:42.495683	258.9	32.0	-76.8	0.0
2025-01-24 08:58:44.741639	258.3	31.7	-76.6	0.0
2025-01-24 08:58:46.986937	257.8	31.4	-77.7	0.0
2025-01-24 08:58:49.231790	257.2	31.1	-76.7	0.0
2025-01-24 08:58:51.475094	256.6	30.8	-76.8	0.0
2025-01-24 08:58:53.719475	256.1	30.5	-77.2	0.0
2025-01-24 08:58:55.964374	255.5	30.2	-77.6	0.0
2025-01-24 08:58:58.209592	255.0	29.9	-77.6	0.0
2025-01-24 08:59:00.456290	254.5	29.6	-77.7	0.0
2025-01-24 08:59:02.698945	254.0	29.3	-77.8	0.0
2025-01-24 08:59:04.944093	253.5	29.0	-77.6	0.0
2025-01-24 08:59:07.188524	253.0	28.7	-77.7	0.0
2025-01-24 08:59:09.435697	252.5	28.4	-77.3	0.0
2025-01-24 08:59:11.681009	252.0	28.1	-77.4	0.0
2025-01-24 08:59:13.926946	251.5	27.8	-77.3	0.0
2025-01-24 08:59:16.172344	251.1	27.5	-77.6	0.0
2025-01-24 08:59:18.416974	250.6	27.2	-77.6	0.0
2025-01-24 08:59:20.662395	250.2	26.9	-77.5	0.0
2025-01-24 08:59:22.908174	249.8	26.6	-77.3	0.0
2025-01-24 08:59:25.153567	249.3	26.4	-77.5	0.0
2025-01-24 08:59:27.399293	248.9	26.1	-77.4	0.0
2025-01-24 08:59:29.645150	248.5	25.8	-77.7	0.0
2025-01-24 08:59:31.892559	248.1	25.5	-77.2	0.0
2025-01-24 08:59:34.138322	247.7	25.2	-77.4	0.0
2025-01-24 08:59:36.384951	247.3	24.9	-77.0	0.0
2025-01-24 08:59:38.632008	246.9	24.7	-76.2	0.0
2025-01-24 08:59:40.879843	246.6	24.4	-77.3	0.0
2025-01-24 08:59:43.127798	246.2	24.1	-77.0	0.0
2025-01-24 08:59:45.374849	245.8	23.8	-76.7	0.0
2025-01-24 08:59:47.622893	245.5	23.6	-77.3	0.0
2025-01-24 08:59:49.868471	245.1	23.3	-77.3	0.0
2025-01-24 08:59:52.113959	244.8	23.0	-77.4	0.0
2025-01-24 08:59:54.359047	244.4	22.7	-77.5	0.0
2025-01-24 08:59:56.602530	244.1	22.5	-77.3	0.0
2025-01-24 08:59:58.849941	243.8	22.2	-77.5	0.0
2025-01-24 09:00:01.092994	243.4	21.9	-77.2	0.0
2025-01-24 09:00:03.338867	243.1	21.7	-77.1	0.0
2025-01-24 09:00:05.587270	242.8	21.4	-77.6	0.0
2025-01-24 09:00:07.833816	242.5	21.2	-77.9	0.0
2025-01-24 09:00:10.082556	242.2	20.9	-77.9	0.0
2025-01-24 09:00:12.329321	241.9	20.7	-77.9	0.0
2025-01-24 09:00:14.575568	241.6	20.4	-77.0	0.0
2025-01-24 09:00:16.821654	241.3	20.2	-77.5	0.0
2025-01-24 09:00:19.069398	241.1	19.9	-77.2	0.0
2025-01-24 09:00:21.314122	240.8	19.7	-77.4	0.0
2025-01-24 09:00:23.558165	240.5	19.4	-77.8	0.0
2025-01-24 09:00:25.807159	240.3	19.2	-77.3	0.0
2025-01-24 09:00:28.055937	240.0	18.9	-77.6	0.0
2025-01-24 09:00:30.300827	239.7	18.7	-78.0	0.0
2025-01-24 09:00:32.541673	239.5	18.4	-77.1	0.0
2025-01-24 09:00:34.788820	239.2	18.2	-77.4	0.0
2025-01-24 09:00:37.034087	239.0	18.0	-77.6	0.0
2025-01-24 09:00:39.282557	238.7	17.7	-77.2	0.0
2025-01-24 09:00:41.528412	238.5	17.5	-77.3	0.0
2025-01-24 09:00:43.771406	238.3	17.3	-77.5	0.0
2025-01-24 09:00:46.018335	238.0	17.0	-77.6	0.0
2025-01-24 09:00:48.262943	237.8	16.8	-77.2	0.0
2025-01-24 09:00:50.510787	237.6	16.6	-77.2	0.0
2025-01-24 09:00:52.757379	237.4	16.4	-77.3	0.0
2025-01-24 09:00:55.002945	237.1	16.1	-77.3	0.0
2025-01-24 09:00:57.249373	236.9	15.9	-77.1	0.0
2025-01-24 09:00:59.494387	236.7	15.7	-77.2	0.0
2025-01-24 09:01:01.739917	236.5	15.5	-77.7	0.0
2025-01-24 09:01:03.985026	236.3	15.3	-77.4	0.0
2025-01-24 09:01:06.230294	236.1	15.1	-77.4	0.0
2025-01-24 09:01:08.482554	235.9	14.8	-77.7	0.0
2025-01-24 09:01:10.727789	235.7	14.6	-77.5	0.0
2025-01-24 09:01:12.969850	235.5	14.4	-77.8	0.0
2025-01-24 09:01:15.216198	235.3	14.2	-78.0	0.0
2025-01-24 09:01:17.463297	235.1	14.0	-77.6	0.0
2025-01-24 09:01:19.708595	234.9	13.8	-77.8	0.0
2025-01-24 09:01:21.953155	234.8	13.6	-77.8	0.0
2025-01-24 09:01:24.200955	234.6	13.4	-77.6	0.0
2025-01-24 09:01:26.445034	234.4	13.2	-76.9	0.0
2025-01-24 09:01:28.692619	234.2	13.0	-77.4	0.0
2025-01-24 09:01:30.940392	234.0	12.8	-77.2	0.0
2025-01-24 09:01:33.183583	233.9	12.6	-77.4	0.0
2025-01-24 09:01:35.426382	233.7	12.4	-77.9	0.0
2025-01-24 09:01:37.670736	233.5	12.2	-77.8	0.0
2025-01-24 09:01:39.918598	233.4	12.0	-78.0	0.0
2025-01-24 09:01:42.164877	233.2	11.8	-78.2	0.0
2025-01-24 09:01:44.409571	233.1	11.6	-77.8	0.0
2025-01-24 09:01:46.652214	232.9	11.4	-74.3	0.0
2025-01-24 09:01:48.895336	232.7	11.2	-74.2	0.0
2025-01-24 09:01:51.137471	232.6	11.0	-74.3	0.0
2025-01-24 09:01:53.382542	232.4	10.9	-74.3	0.3
2025-01-24 09:01:55.628800	232.3	10.7	-74.4	0.0
2025-01-24 09:01:57.876727	232.1	10.5	-74.5	0.0
2025-01-24 09:02:00.121002	232.0	10.3	-73.8	0.9
2025-01-24 09:02:02.367570	231.8	10.1	-74.2	0.0
#Closed at: 2025-01-24 08:51:44.309882