passes_logs/2025/01/24/planumMaritime01/planumMaritime01__20250124_103356_NOAA_19_rec.log

#Pass ID: 20250124_103356_NOAA 19
#Satellite: NOAA 19
#Configuration: NOAA 19
#Start time: 2025-01-24 10:34:01.215092

#LorettStation: 1.0.0 05.05.2024
#Station: planumMaritime01
#Location: 37.49445 lon 55.92918 lat
#TLE: 1 33591U 09005A   25023.78299149  .00000396  00000+0  23548-3 0  9998
#TLE: 2 33591  99.0182  87.6127 0014154  33.7555 326.4515 14.13267063822782

#Time	Az	El	Level	SNR
2025-01-24 10:34:03.383748	346.3	10.1	-76.8	0.0
2025-01-24 10:34:04.507605	346.2	10.1	-76.9	0.0
2025-01-24 10:34:05.628771	346.0	10.2	-76.8	0.0
2025-01-24 10:34:06.752229	345.8	10.2	-76.9	0.0
2025-01-24 10:34:07.874102	345.6	10.2	-76.9	0.0
2025-01-24 10:34:08.997817	345.4	10.3	-76.6	0.0
2025-01-24 10:34:10.119437	345.3	10.3	-76.0	0.0
2025-01-24 10:34:11.243515	345.1	10.3	-76.7	0.0
2025-01-24 10:34:12.367762	344.9	10.4	-76.5	0.0
2025-01-24 10:34:13.491507	344.7	10.4	-76.4	0.0
2025-01-24 10:34:14.614488	344.5	10.5	-77.0	0.0
2025-01-24 10:34:15.738814	344.3	10.5	-77.3	0.0
2025-01-24 10:34:16.862446	344.1	10.5	-77.0	0.0
2025-01-24 10:34:17.984832	344.0	10.6	-76.5	0.0
2025-01-24 10:34:19.109765	343.8	10.6	-77.0	0.0
2025-01-24 10:34:20.232031	343.6	10.6	-77.1	0.0
2025-01-24 10:34:21.354355	343.4	10.7	-77.0	0.0
2025-01-24 10:34:22.476807	343.2	10.7	-76.5	0.0
2025-01-24 10:34:23.601824	343.0	10.8	-76.8	0.0
2025-01-24 10:34:24.725101	342.8	10.8	-76.8	0.0
2025-01-24 10:34:25.848619	342.6	10.8	-77.0	0.0
2025-01-24 10:34:26.972348	342.4	10.9	-76.9	0.0
2025-01-24 10:34:28.094149	342.2	10.9	-76.4	0.0
2025-01-24 10:34:29.217294	342.1	10.9	-76.4	0.0
2025-01-24 10:34:30.339874	341.9	11.0	-76.2	0.0
2025-01-24 10:34:31.463886	341.7	11.0	-76.8	0.0
2025-01-24 10:34:32.587997	341.5	11.0	-76.9	0.0
2025-01-24 10:34:33.711677	341.3	11.1	-76.9	0.0
2025-01-24 10:34:34.834659	341.1	11.1	-76.7	0.0
2025-01-24 10:34:35.959221	340.9	11.1	-76.8	0.0
2025-01-24 10:34:37.081670	340.7	11.2	-76.4	0.0
2025-01-24 10:34:38.204886	340.5	11.2	-76.8	0.0
2025-01-24 10:34:39.328252	340.3	11.2	-77.1	0.0
2025-01-24 10:34:40.451422	340.1	11.3	-77.1	0.0
2025-01-24 10:34:41.574929	339.9	11.3	-76.8	0.0
2025-01-24 10:34:42.699625	339.7	11.3	-77.1	0.0
2025-01-24 10:34:43.824765	339.5	11.3	-76.9	0.0
2025-01-24 10:34:44.945792	339.3	11.4	-77.3	0.0
2025-01-24 10:34:46.070122	339.1	11.4	-76.9	0.0
2025-01-24 10:34:47.192202	338.9	11.4	-77.1	0.0
2025-01-24 10:34:48.317453	338.7	11.5	-77.3	0.0
2025-01-24 10:34:49.438758	338.5	11.5	-77.2	0.0
2025-01-24 10:34:50.561149	338.3	11.5	-77.3	0.0
2025-01-24 10:34:51.684027	338.1	11.6	-77.5	0.0
2025-01-24 10:34:52.806046	337.9	11.6	-76.9	0.0
2025-01-24 10:34:53.929344	337.7	11.6	-77.8	0.0
2025-01-24 10:34:55.053452	337.5	11.6	-76.6	0.0
2025-01-24 10:34:56.178649	337.3	11.7	-77.2	0.0
2025-01-24 10:34:57.301312	337.1	11.7	-77.0	0.0
2025-01-24 10:34:58.422116	336.9	11.7	-77.4	0.0
2025-01-24 10:34:59.544713	336.7	11.7	-76.0	0.0
2025-01-24 10:35:00.667555	336.5	11.8	-77.1	0.0
2025-01-24 10:35:01.790676	336.3	11.8	-77.6	0.0
2025-01-24 10:35:02.912522	336.1	11.8	-77.4	0.0
2025-01-24 10:35:04.036059	335.9	11.8	-77.9	0.0
2025-01-24 10:35:05.158426	335.7	11.9	-77.1	0.0
2025-01-24 10:35:06.281072	335.5	11.9	-76.2	0.0
2025-01-24 10:35:07.404308	335.3	11.9	-77.2	0.0
2025-01-24 10:35:08.525735	335.1	11.9	-77.6	0.0
2025-01-24 10:35:09.648952	334.9	12.0	-77.2	0.0
2025-01-24 10:35:10.770935	334.7	12.0	-76.8	0.0
2025-01-24 10:35:11.892884	334.5	12.0	-77.3	0.0
2025-01-24 10:35:13.016626	334.3	12.0	-77.1	0.0
2025-01-24 10:35:14.137730	334.1	12.1	-76.7	0.0
2025-01-24 10:35:15.262593	333.9	12.1	-77.2	0.0
2025-01-24 10:35:16.385815	333.6	12.1	-77.1	0.0
2025-01-24 10:35:17.510851	333.4	12.1	-77.0	0.0
2025-01-24 10:35:18.633408	333.2	12.1	-77.8	0.0
2025-01-24 10:35:19.755779	333.0	12.2	-78.0	0.0
2025-01-24 10:35:20.878352	332.8	12.2	-77.9	0.0
2025-01-24 10:35:22.001447	332.6	12.2	-77.4	0.0
2025-01-24 10:35:23.123532	332.4	12.2	-76.4	0.0
2025-01-24 10:35:24.246380	332.2	12.2	-77.4	0.0
2025-01-24 10:35:25.369287	332.0	12.3	-77.5	0.0
2025-01-24 10:35:26.491965	331.8	12.3	-77.3	0.0
2025-01-24 10:35:27.613644	331.6	12.3	-77.5	0.0
2025-01-24 10:35:28.737895	331.3	12.3	-77.3	0.0
2025-01-24 10:35:29.861907	331.1	12.3	-77.2	0.0
2025-01-24 10:35:30.983878	330.9	12.3	-77.5	0.0
2025-01-24 10:35:32.104318	330.7	12.4	-77.2	0.0
2025-01-24 10:35:33.225206	330.5	12.4	-77.5	0.0
2025-01-24 10:35:34.346963	330.3	12.4	-76.9	0.0
2025-01-24 10:35:35.470015	330.1	12.4	-77.3	0.0
2025-01-24 10:35:36.592358	329.9	12.4	-77.8	0.0
2025-01-24 10:35:37.715382	329.7	12.4	-77.4	0.0
2025-01-24 10:35:38.836822	329.4	12.4	-77.6	0.0
2025-01-24 10:35:39.959106	329.2	12.5	-77.5	0.0
2025-01-24 10:35:41.083608	329.0	12.5	-77.4	0.0
2025-01-24 10:35:42.207552	328.8	12.5	-77.4	0.0
2025-01-24 10:35:43.329154	328.6	12.5	-76.7	0.0
2025-01-24 10:35:44.451407	328.4	12.5	-77.2	0.0
2025-01-24 10:35:45.571653	328.2	12.5	-77.0	0.0
2025-01-24 10:35:46.695895	327.9	12.5	-77.2	0.0
2025-01-24 10:35:47.819198	327.7	12.5	-77.6	0.0
2025-01-24 10:35:48.942508	327.5	12.5	-77.5	0.0
2025-01-24 10:35:50.064224	327.3	12.6	-77.4	0.0
2025-01-24 10:35:51.184817	327.1	12.6	-77.0	0.0
2025-01-24 10:35:52.306875	326.9	12.6	-77.2	0.0
2025-01-24 10:35:53.430601	326.7	12.6	-77.2	0.0
2025-01-24 10:35:54.553183	326.4	12.6	-77.1	0.0
2025-01-24 10:35:55.678381	326.2	12.6	-77.2	0.0
2025-01-24 10:35:56.798809	326.0	12.6	-77.1	0.0
2025-01-24 10:35:57.921639	325.8	12.6	-76.6	0.0
2025-01-24 10:35:59.044754	325.6	12.6	-77.0	0.0
2025-01-24 10:36:00.166302	325.4	12.6	-77.1	0.0
2025-01-24 10:36:01.287325	325.2	12.6	-76.6	0.0
2025-01-24 10:36:02.412687	324.9	12.6	-77.3	0.0
2025-01-24 10:36:03.535904	324.7	12.6	-76.8	0.0
2025-01-24 10:36:04.661960	324.5	12.7	-77.1	0.0
2025-01-24 10:36:05.786021	324.3	12.7	-77.3	0.0
2025-01-24 10:36:06.908951	324.1	12.7	-77.0	0.0
2025-01-24 10:36:08.031076	323.9	12.7	-76.9	0.0
2025-01-24 10:36:09.153533	323.6	12.7	-77.2	0.0
2025-01-24 10:36:10.276902	323.4	12.7	-76.4	0.0
2025-01-24 10:36:11.400523	323.2	12.7	-76.6	0.0
2025-01-24 10:36:12.522958	323.0	12.7	-77.1	0.0
2025-01-24 10:36:13.644650	322.8	12.7	-77.6	0.0
2025-01-24 10:36:14.767677	322.6	12.7	-77.3	0.0
2025-01-24 10:36:15.890621	322.4	12.7	-76.7	0.0
2025-01-24 10:36:17.014824	322.1	12.7	-77.3	0.0
2025-01-24 10:36:18.138359	321.9	12.7	-76.5	0.0
2025-01-24 10:36:19.261230	321.7	12.7	-76.8	0.0
2025-01-24 10:36:20.380570	321.5	12.7	-77.6	0.0
2025-01-24 10:36:21.504906	321.3	12.7	-77.2	0.0
2025-01-24 10:36:22.626989	321.1	12.7	-77.5	0.0
2025-01-24 10:36:23.750630	320.8	12.7	-77.4	0.0
2025-01-24 10:36:24.872742	320.6	12.7	-77.3	0.0
2025-01-24 10:36:25.995556	320.4	12.7	-77.2	0.0
2025-01-24 10:36:27.118793	320.2	12.7	-77.3	0.0
2025-01-24 10:36:28.241703	320.0	12.7	-77.0	0.0
2025-01-24 10:36:29.365800	319.8	12.7	-77.4	0.0
2025-01-24 10:36:30.488785	319.5	12.7	-77.0	0.0
2025-01-24 10:36:31.612191	319.3	12.6	-77.3	0.0
2025-01-24 10:36:32.735127	319.1	12.6	-77.2	0.0
2025-01-24 10:36:33.859576	318.9	12.6	-77.5	0.0
2025-01-24 10:36:34.981830	318.7	12.6	-77.2	0.0
2025-01-24 10:36:36.105657	318.5	12.6	-77.1	0.0
2025-01-24 10:36:37.231466	318.2	12.6	-75.7	0.0
2025-01-24 10:36:38.353502	318.0	12.6	-76.7	0.0
2025-01-24 10:36:39.477708	317.8	12.6	-77.4	0.0
2025-01-24 10:36:40.600171	317.6	12.6	-77.3	0.0
2025-01-24 10:36:41.724187	317.4	12.6	-77.5	0.0
2025-01-24 10:36:42.846254	317.2	12.6	-77.0	0.0
2025-01-24 10:36:43.969827	317.0	12.6	-76.9	0.0
2025-01-24 10:36:45.092806	316.7	12.6	-77.5	0.0
2025-01-24 10:36:46.215897	316.5	12.5	-77.3	0.0
2025-01-24 10:36:47.339936	316.3	12.5	-77.2	0.0
2025-01-24 10:36:48.462951	316.1	12.5	-76.8	0.0
2025-01-24 10:36:49.584336	315.9	12.5	-76.7	0.0
2025-01-24 10:36:50.707138	315.7	12.5	-77.5	0.0
2025-01-24 10:36:51.830652	315.5	12.5	-77.6	0.0
2025-01-24 10:36:52.953256	315.3	12.5	-77.2	0.0
2025-01-24 10:36:54.077410	315.0	12.5	-77.5	0.0
2025-01-24 10:36:55.199993	314.8	12.5	-77.4	0.0
2025-01-24 10:36:56.323088	314.6	12.4	-77.4	0.0
2025-01-24 10:36:57.446437	314.4	12.4	-77.6	0.0
2025-01-24 10:36:58.569773	314.2	12.4	-77.3	0.0
2025-01-24 10:36:59.692013	314.0	12.4	-77.4	0.0
2025-01-24 10:37:00.817354	313.8	12.4	-77.1	0.0
2025-01-24 10:37:01.939788	313.6	12.4	-76.9	0.0
2025-01-24 10:37:03.062590	313.3	12.4	-77.5	0.0
2025-01-24 10:37:04.185708	313.1	12.3	-77.3	0.0
2025-01-24 10:37:05.310608	312.9	12.3	-77.3	0.0
2025-01-24 10:37:06.433172	312.7	12.3	-77.7	0.0
2025-01-24 10:37:07.556085	312.5	12.3	-76.5	0.0
2025-01-24 10:37:08.680232	312.3	12.3	-77.5	0.0
2025-01-24 10:37:09.803562	312.1	12.3	-77.2	0.0
2025-01-24 10:37:10.926025	311.9	12.2	-77.1	0.0
2025-01-24 10:37:12.049571	311.7	12.2	-77.4	0.0
2025-01-24 10:37:13.172487	311.4	12.2	-77.2	0.0
2025-01-24 10:37:14.294713	311.2	12.2	-77.4	0.0
2025-01-24 10:37:15.416441	311.0	12.2	-76.5	0.0
2025-01-24 10:37:16.538868	310.8	12.1	-76.9	0.0
2025-01-24 10:37:17.659535	310.6	12.1	-76.8	0.0
2025-01-24 10:37:18.783104	310.4	12.1	-76.9	0.0
2025-01-24 10:37:19.907315	310.2	12.1	-75.9	0.0
2025-01-24 10:37:21.031992	310.0	12.1	-76.6	0.0
2025-01-24 10:37:22.154405	309.8	12.0	-77.1	0.0
2025-01-24 10:37:23.276512	309.6	12.0	-77.5	0.0
2025-01-24 10:37:24.401728	309.4	12.0	-77.3	0.0
2025-01-24 10:37:25.522414	309.2	12.0	-77.3	0.0
2025-01-24 10:37:26.645531	309.0	11.9	-76.8	0.0
2025-01-24 10:37:27.768667	308.8	11.9	-77.4	0.0
2025-01-24 10:37:28.892715	308.5	11.9	-76.0	0.0
2025-01-24 10:37:30.017876	308.3	11.9	-75.3	0.0
2025-01-24 10:37:31.140925	308.1	11.8	-75.5	0.0
2025-01-24 10:37:32.264247	307.9	11.8	-77.0	0.0
2025-01-24 10:37:33.385316	307.7	11.8	-77.3	0.0
2025-01-24 10:37:34.506982	307.5	11.8	-77.8	0.0
2025-01-24 10:37:35.632803	307.3	11.7	-77.5	0.0
2025-01-24 10:37:36.756797	307.1	11.7	-76.9	0.0
2025-01-24 10:37:37.881206	306.9	11.7	-76.0	0.0
2025-01-24 10:37:39.003839	306.7	11.7	-76.7	0.0
2025-01-24 10:37:40.128198	306.5	11.6	-77.0	0.0
2025-01-24 10:37:41.251669	306.3	11.6	-77.2	0.0
2025-01-24 10:37:42.374242	306.1	11.6	-77.2	0.0
2025-01-24 10:37:43.498189	305.9	11.6	-77.1	0.0
2025-01-24 10:37:44.622560	305.7	11.5	-77.2	0.0
2025-01-24 10:37:45.745963	305.5	11.5	-77.2	0.0
2025-01-24 10:37:46.868943	305.3	11.5	-77.6	0.0
2025-01-24 10:37:47.991660	305.1	11.4	-77.5	0.0
2025-01-24 10:37:49.113910	304.9	11.4	-77.1	0.0
2025-01-24 10:37:50.236883	304.7	11.4	-77.6	0.0
2025-01-24 10:37:51.361068	304.5	11.3	-77.9	0.0
2025-01-24 10:37:52.482857	304.3	11.3	-77.4	0.0
2025-01-24 10:37:53.606600	304.1	11.3	-75.9	0.0
2025-01-24 10:37:54.728096	303.9	11.3	-77.2	0.0
2025-01-24 10:37:55.849334	303.7	11.2	-77.4	0.0
2025-01-24 10:37:56.971850	303.5	11.2	-77.4	0.0
2025-01-24 10:37:58.095830	303.4	11.2	-77.1	0.0
2025-01-24 10:37:59.219559	303.2	11.1	-77.6	0.0
2025-01-24 10:38:00.344779	303.0	11.1	-77.6	0.0
2025-01-24 10:38:01.466505	302.8	11.1	-76.7	0.0
2025-01-24 10:38:02.589515	302.6	11.0	-77.2	0.0
2025-01-24 10:38:03.711135	302.4	11.0	-77.0	0.0
2025-01-24 10:38:04.833379	302.2	11.0	-77.4	0.0
2025-01-24 10:38:05.955325	302.0	10.9	-77.5	0.0
2025-01-24 10:38:07.079082	301.8	10.9	-76.1	0.0
2025-01-24 10:38:08.201758	301.6	10.9	-77.8	0.0
2025-01-24 10:38:09.323834	301.4	10.8	-77.5	0.0
2025-01-24 10:38:10.448793	301.2	10.8	-75.8	0.0
2025-01-24 10:38:11.572490	301.0	10.8	-75.8	0.0
2025-01-24 10:38:12.698274	300.9	10.7	-76.5	0.0
2025-01-24 10:38:13.818623	300.7	10.7	-77.9	0.0
2025-01-24 10:38:14.942331	300.5	10.6	-77.9	0.0
2025-01-24 10:38:16.065379	300.3	10.6	-78.0	0.0
2025-01-24 10:38:17.188923	300.1	10.6	-78.1	0.0
2025-01-24 10:38:18.312194	299.9	10.5	-77.8	0.0
2025-01-24 10:38:19.435436	299.7	10.5	-78.2	0.0
2025-01-24 10:38:20.558089	299.5	10.5	-78.0	0.0
2025-01-24 10:38:21.680083	299.4	10.4	-77.7	0.0
2025-01-24 10:38:22.803137	299.2	10.4	-77.6	0.0
2025-01-24 10:38:23.926689	299.0	10.3	-77.4	0.0
2025-01-24 10:38:25.048930	298.8	10.3	-77.6	0.0
2025-01-24 10:38:26.171913	298.6	10.3	-77.4	0.0
2025-01-24 10:38:27.296033	298.4	10.2	-77.6	0.0
2025-01-24 10:38:28.418665	298.3	10.2	-77.7	0.0
2025-01-24 10:38:29.541798	298.1	10.2	-76.2	0.0
2025-01-24 10:38:30.665437	297.9	10.1	-77.7	0.0
2025-01-24 10:38:31.787543	297.7	10.1	-77.6	0.0
2025-01-24 10:38:32.911225	297.5	10.0	-77.3	0.0
#Closed at: 2025-01-24 10:33:56.218836