passes_logs/2025/01/24/planumMaritime01/planumMaritime01__20250124_184503_NOAA_19_rec.log

#Pass ID: 20250124_184503_NOAA 19
#Satellite: NOAA 19
#Configuration: NOAA 19
#Start time: 2025-01-24 18:45:08.726657

#LorettStation: 1.0.0 05.05.2024
#Station: planumMaritime01
#Location: 37.49445 lon 55.92918 lat
#TLE: 1 33591U 09005A   25023.78299149  .00000396  00000+0  23548-3 0  9998
#TLE: 2 33591  99.0182  87.6127 0014154  33.7555 326.4515 14.13267063822782

#Time	Az	El	Level	SNR
2025-01-24 18:45:10.886556	182.9	10.2	-76.5	0.0
2025-01-24 18:45:13.129737	183.1	10.4	-76.3	0.0
2025-01-24 18:45:15.375432	183.2	10.6	-76.9	0.0
2025-01-24 18:45:17.621211	183.3	10.8	-77.1	0.0
2025-01-24 18:45:19.866807	183.4	10.9	-77.0	0.0
2025-01-24 18:45:22.115266	183.5	11.1	-77.4	0.0
2025-01-24 18:45:24.364306	183.7	11.3	-77.0	0.0
2025-01-24 18:45:26.611494	183.8	11.5	-77.3	0.0
2025-01-24 18:45:28.858325	183.9	11.7	-76.8	0.0
2025-01-24 18:45:31.110191	184.0	11.9	-77.5	0.0
2025-01-24 18:45:33.356255	184.2	12.1	-77.6	0.0
2025-01-24 18:45:35.600979	184.3	12.3	-77.4	0.0
2025-01-24 18:45:37.845333	184.4	12.6	-77.4	0.0
2025-01-24 18:45:40.087831	184.6	12.8	-77.0	0.0
2025-01-24 18:45:42.331885	184.7	13.0	-77.7	0.0
2025-01-24 18:45:44.577835	184.8	13.2	-77.4	0.0
2025-01-24 18:45:46.824703	185.0	13.4	-77.7	0.0
2025-01-24 18:45:49.071238	185.1	13.6	-77.2	0.0
2025-01-24 18:45:51.316703	185.3	13.8	-76.9	0.0
2025-01-24 18:45:53.561183	185.4	14.0	-77.0	0.0
2025-01-24 18:45:55.807005	185.5	14.3	-77.1	0.0
2025-01-24 18:45:58.052301	185.7	14.5	-77.2	0.0
2025-01-24 18:46:00.298890	185.8	14.7	-77.1	0.0
2025-01-24 18:46:02.545585	186.0	14.9	-77.4	0.0
2025-01-24 18:46:04.793616	186.2	15.2	-77.1	0.0
2025-01-24 18:46:07.042255	186.3	15.4	-77.2	0.0
2025-01-24 18:46:09.285848	186.5	15.6	-77.3	0.0
2025-01-24 18:46:11.529092	186.6	15.8	-77.3	0.0
2025-01-24 18:46:13.772562	186.8	16.1	-77.2	0.0
2025-01-24 18:46:16.018309	187.0	16.3	-77.0	0.0
2025-01-24 18:46:18.265075	187.1	16.6	-76.8	0.0
2025-01-24 18:46:20.514362	187.3	16.8	-77.2	0.0
2025-01-24 18:46:22.759115	187.5	17.0	-77.6	0.0
2025-01-24 18:46:25.004409	187.7	17.3	-77.5	0.0
2025-01-24 18:46:27.250841	187.9	17.5	-77.1	0.0
2025-01-24 18:46:29.497416	188.0	17.8	-77.3	0.0
2025-01-24 18:46:31.743476	188.2	18.0	-77.4	0.0
2025-01-24 18:46:33.990920	188.4	18.3	-76.7	0.0
2025-01-24 18:46:36.233213	188.6	18.5	-77.0	0.0
2025-01-24 18:46:38.475995	188.8	18.8	-77.4	0.0
2025-01-24 18:46:40.723954	189.0	19.1	-77.5	0.0
2025-01-24 18:46:42.968274	189.2	19.3	-77.6	0.0
2025-01-24 18:46:45.214152	189.4	19.6	-77.4	0.0
2025-01-24 18:46:47.465682	189.6	19.9	-77.5	0.0
2025-01-24 18:46:49.711957	189.8	20.1	-77.2	0.0
2025-01-24 18:46:51.956191	190.0	20.4	-77.5	0.0
2025-01-24 18:46:54.201660	190.3	20.7	-77.2	0.0
2025-01-24 18:46:56.447647	190.5	21.0	-76.0	0.0
2025-01-24 18:46:58.692521	190.7	21.3	-77.8	0.0
2025-01-24 18:47:00.936298	190.9	21.5	-77.6	0.0
2025-01-24 18:47:03.184493	191.2	21.8	-77.5	0.0
2025-01-24 18:47:05.428339	191.4	22.1	-76.9	0.0
2025-01-24 18:47:07.674806	191.7	22.4	-77.3	0.0
2025-01-24 18:47:09.921856	191.9	22.7	-76.9	0.0
2025-01-24 18:47:12.166965	192.2	23.0	-77.1	0.0
2025-01-24 18:47:14.414551	192.4	23.3	-77.6	0.0
2025-01-24 18:47:16.663470	192.7	23.6	-77.4	0.0
2025-01-24 18:47:18.909687	193.0	23.9	-76.7	0.0
2025-01-24 18:47:21.157291	193.2	24.2	-72.7	0.0
2025-01-24 18:47:23.402056	193.5	24.5	-77.4	0.0
2025-01-24 18:47:25.647197	193.8	24.9	-77.3	0.0
2025-01-24 18:47:27.894354	194.1	25.2	-77.5	0.0
2025-01-24 18:47:30.138438	194.4	25.5	-77.6	0.0
2025-01-24 18:47:32.382957	194.7	25.8	-77.0	0.0
2025-01-24 18:47:34.628890	195.0	26.2	-77.3	0.0
2025-01-24 18:47:36.874382	195.3	26.5	-77.3	0.0
2025-01-24 18:47:39.121919	195.6	26.8	-77.6	0.0
2025-01-24 18:47:41.365337	196.0	27.2	-77.3	0.0
2025-01-24 18:47:43.609291	196.3	27.5	-77.2	0.0
2025-01-24 18:47:45.858281	196.6	27.9	-77.0	0.0
2025-01-24 18:47:48.104930	197.0	28.2	-77.4	0.0
2025-01-24 18:47:50.347635	197.3	28.6	-77.4	0.0
2025-01-24 18:47:52.595035	197.7	28.9	-77.4	0.0
2025-01-24 18:47:54.843649	198.1	29.3	-77.5	0.0
2025-01-24 18:47:57.088517	198.5	29.6	-76.9	0.0
2025-01-24 18:47:59.335935	198.8	30.0	-77.6	0.0
2025-01-24 18:48:01.584988	199.2	30.4	-77.5	0.0
2025-01-24 18:48:03.829446	199.6	30.7	-76.5	0.0
2025-01-24 18:48:06.075024	200.1	31.1	-77.1	0.0
2025-01-24 18:48:08.319711	200.5	31.5	-77.6	0.0
2025-01-24 18:48:10.564815	200.9	31.9	-77.0	0.0
2025-01-24 18:48:12.808793	201.4	32.2	-77.3	0.0
2025-01-24 18:48:15.054286	201.8	32.6	-77.9	0.0
2025-01-24 18:48:17.299189	202.3	33.0	-77.5	0.0
2025-01-24 18:48:19.543649	202.8	33.4	-77.3	0.0
2025-01-24 18:48:21.789557	203.2	33.8	-78.2	0.0
2025-01-24 18:48:24.036482	203.7	34.2	-77.3	0.0
2025-01-24 18:48:26.281731	204.3	34.6	-77.5	0.0
2025-01-24 18:48:28.530232	204.8	35.0	-77.5	0.0
2025-01-24 18:48:30.777713	205.3	35.4	-78.1	0.0
2025-01-24 18:48:33.025614	205.9	35.8	-77.5	0.0
2025-01-24 18:48:35.271266	206.4	36.2	-77.5	0.0
2025-01-24 18:48:37.519404	207.0	36.7	-77.5	0.0
2025-01-24 18:48:39.765590	207.6	37.1	-77.7	0.0
2025-01-24 18:48:42.009671	208.2	37.5	-77.4	0.0
2025-01-24 18:48:44.256251	208.8	37.9	-77.1	0.0
2025-01-24 18:48:46.498913	209.5	38.3	-77.9	0.0
2025-01-24 18:48:48.746663	210.1	38.7	-77.5	0.0
2025-01-24 18:48:50.991284	210.8	39.2	-78.3	0.0
2025-01-24 18:48:53.238125	211.5	39.6	-77.5	0.0
2025-01-24 18:48:55.486098	212.2	40.0	-78.2	0.0
2025-01-24 18:48:57.731088	212.9	40.4	-77.5	0.0
2025-01-24 18:48:59.979247	213.7	40.9	-78.2	0.0
2025-01-24 18:49:02.223899	214.4	41.3	-77.9	0.0
2025-01-24 18:49:04.470318	215.2	41.7	-77.3	0.0
2025-01-24 18:49:06.717412	216.0	42.1	-76.9	0.0
2025-01-24 18:49:08.962435	216.9	42.5	-77.4	0.0
2025-01-24 18:49:11.209009	217.7	43.0	-77.6	0.0
2025-01-24 18:49:13.458818	218.6	43.4	-78.0	0.0
2025-01-24 18:49:15.707956	219.5	43.8	-77.9	0.0
2025-01-24 18:49:17.956121	220.4	44.2	-77.2	0.0
2025-01-24 18:49:20.202624	221.3	44.6	-77.7	0.0
2025-01-24 18:49:22.448629	222.3	45.0	-77.6	0.0
2025-01-24 18:49:24.694724	223.3	45.4	-77.8	0.0
2025-01-24 18:49:26.940016	224.3	45.8	-77.8	0.0
2025-01-24 18:49:29.186506	225.3	46.2	-77.6	0.0
2025-01-24 18:49:31.432758	226.4	46.5	-77.8	0.0
2025-01-24 18:49:33.680422	227.4	46.9	-77.9	0.0
2025-01-24 18:49:35.922809	228.6	47.3	-77.9	0.0
2025-01-24 18:49:38.167604	229.7	47.6	-77.8	0.0
2025-01-24 18:49:40.412046	230.8	48.0	-77.6	0.0
2025-01-24 18:49:42.659643	232.0	48.3	-77.5	0.0
2025-01-24 18:49:44.907428	233.2	48.6	-77.8	0.0
2025-01-24 18:49:47.154622	234.5	48.9	-77.9	0.0
2025-01-24 18:49:49.401122	235.7	49.2	-78.0	0.0
2025-01-24 18:49:51.648138	237.0	49.5	-78.1	0.0
2025-01-24 18:49:53.896147	238.3	49.8	-77.3	0.0
2025-01-24 18:49:56.140164	239.6	50.0	-77.1	0.0
2025-01-24 18:49:58.386395	241.0	50.3	-77.1	0.0
2025-01-24 18:50:00.631271	242.4	50.5	-78.0	0.0
2025-01-24 18:50:02.875474	243.8	50.7	-78.0	0.0
2025-01-24 18:50:05.121685	245.2	50.9	-78.0	0.0
2025-01-24 18:50:07.367096	246.6	51.1	-78.1	0.0
2025-01-24 18:50:09.609370	248.0	51.2	-77.6	0.0
2025-01-24 18:50:11.855730	249.5	51.4	-77.9	0.0
2025-01-24 18:50:14.100708	250.9	51.5	-77.9	0.0
2025-01-24 18:50:16.345904	252.4	51.6	-77.8	0.0
2025-01-24 18:50:18.592447	253.9	51.7	-78.1	0.0
2025-01-24 18:50:20.839535	255.4	51.7	-77.8	0.0
2025-01-24 18:50:23.089107	256.9	51.8	-77.8	0.0
2025-01-24 18:50:25.334353	258.4	51.8	-77.9	0.0
2025-01-24 18:50:27.581571	259.9	51.8	-78.0	0.0
2025-01-24 18:50:29.829802	261.4	51.8	-77.7	0.0
2025-01-24 18:50:32.079025	262.9	51.8	-78.1	0.0
2025-01-24 18:50:34.326883	264.4	51.7	-77.8	0.0
2025-01-24 18:50:36.571452	265.9	51.6	-77.7	0.0
2025-01-24 18:50:38.817521	267.4	51.5	-77.9	0.0
2025-01-24 18:50:41.063691	268.9	51.4	-78.1	0.0
2025-01-24 18:50:43.310990	270.3	51.3	-78.2	0.0
2025-01-24 18:50:45.557873	271.8	51.1	-78.0	0.0
2025-01-24 18:50:47.805051	273.2	50.9	-77.8	0.0
2025-01-24 18:50:50.052261	274.6	50.8	-77.3	0.0
2025-01-24 18:50:52.297220	276.0	50.6	-77.9	0.0
2025-01-24 18:50:54.541933	277.4	50.3	-78.0	0.0
2025-01-24 18:50:56.789125	278.7	50.1	-78.2	0.0
2025-01-24 18:50:59.036745	280.0	49.8	-78.0	0.0
2025-01-24 18:51:01.282421	281.3	49.6	-78.1	0.0
2025-01-24 18:51:03.528811	282.6	49.3	-77.8	0.0
2025-01-24 18:51:05.772178	283.9	49.0	-77.5	0.0
2025-01-24 18:51:08.019748	285.1	48.7	-78.1	0.0
2025-01-24 18:51:10.264931	286.3	48.4	-78.0	0.0
2025-01-24 18:51:12.510674	287.5	48.1	-78.3	0.0
2025-01-24 18:51:14.756214	288.7	47.7	-78.1	0.0
2025-01-24 18:51:17.000604	289.8	47.4	-77.6	0.0
2025-01-24 18:51:19.243632	290.9	47.0	-78.1	0.0
2025-01-24 18:51:21.487192	292.0	46.6	-77.9	0.0
2025-01-24 18:51:23.732423	293.1	46.3	-77.8	0.0
2025-01-24 18:51:25.977207	294.1	45.9	-78.5	0.0
2025-01-24 18:51:28.222555	295.1	45.5	-78.3	0.0
2025-01-24 18:51:30.471297	296.1	45.1	-78.0	0.0
2025-01-24 18:51:32.719917	297.1	44.7	-77.9	0.0
2025-01-24 18:51:34.964543	298.0	44.3	-77.9	0.0
2025-01-24 18:51:37.209582	298.9	43.9	-77.8	0.0
2025-01-24 18:51:39.457204	299.8	43.5	-77.9	0.0
2025-01-24 18:51:41.706874	300.7	43.1	-76.7	0.0
2025-01-24 18:51:43.954427	301.5	42.7	-78.1	0.0
2025-01-24 18:51:46.201675	302.4	42.3	-78.4	0.0
2025-01-24 18:51:48.447063	303.2	41.9	-78.3	0.0
2025-01-24 18:51:50.689538	304.0	41.4	-78.0	0.0
2025-01-24 18:51:52.933570	304.7	41.0	-78.0	0.0
2025-01-24 18:51:55.182956	305.5	40.6	-78.3	0.0
2025-01-24 18:51:57.428148	306.2	40.2	-78.2	0.0
2025-01-24 18:51:59.670930	306.9	39.8	-78.0	0.0
2025-01-24 18:52:01.916415	307.6	39.3	-77.8	0.0
2025-01-24 18:52:04.160220	308.3	38.9	-77.5	0.0
2025-01-24 18:52:06.409976	308.9	38.5	-77.5	0.0
2025-01-24 18:52:08.657336	309.6	38.1	-77.3	0.0
2025-01-24 18:52:10.905544	310.2	37.7	-77.7	0.0
2025-01-24 18:52:13.151145	310.8	37.3	-77.8	0.0
2025-01-24 18:52:15.396249	311.4	36.8	-77.9	0.0
2025-01-24 18:52:17.644772	312.0	36.4	-78.1	0.0
2025-01-24 18:52:19.889472	312.6	36.0	-77.9	0.0
2025-01-24 18:52:22.136640	313.1	35.6	-78.1	0.0
2025-01-24 18:52:24.383601	313.6	35.2	-78.6	0.0
2025-01-24 18:52:26.630976	314.2	34.8	-78.0	0.0
2025-01-24 18:52:28.878432	314.7	34.4	-78.3	0.0
2025-01-24 18:52:31.121738	315.2	34.0	-78.4	0.0
2025-01-24 18:52:33.365314	315.7	33.6	-78.2	0.0
2025-01-24 18:52:35.611093	316.2	33.2	-78.4	0.0
2025-01-24 18:52:37.856808	316.6	32.8	-78.2	0.0
2025-01-24 18:52:40.104022	317.1	32.5	-78.0	0.0
2025-01-24 18:52:42.350363	317.5	32.1	-78.0	0.0
2025-01-24 18:52:44.596500	318.0	31.7	-78.4	0.0
2025-01-24 18:52:46.841125	318.4	31.3	-78.5	0.0
2025-01-24 18:52:49.091135	318.8	30.9	-78.2	0.0
2025-01-24 18:52:51.335996	319.2	30.6	-78.0	0.0
2025-01-24 18:52:53.582327	319.6	30.2	-78.3	0.0
2025-01-24 18:52:55.828706	320.0	29.9	-77.9	0.0
2025-01-24 18:52:58.075631	320.4	29.5	-77.7	0.0
2025-01-24 18:53:00.322294	320.8	29.1	-78.2	0.0
2025-01-24 18:53:02.572578	321.1	28.8	-78.1	0.0
2025-01-24 18:53:04.819686	321.5	28.4	-78.2	0.0
2025-01-24 18:53:07.066579	321.8	28.1	-77.9	0.0
2025-01-24 18:53:09.310099	322.2	27.7	-78.4	0.0
2025-01-24 18:53:11.557442	322.5	27.4	-78.5	0.0
2025-01-24 18:53:13.808009	322.8	27.1	-78.2	0.0
2025-01-24 18:53:16.052404	323.2	26.7	-78.4	0.0
2025-01-24 18:53:18.299113	323.5	26.4	-78.0	0.0
2025-01-24 18:53:20.547244	323.8	26.1	-78.1	0.0
2025-01-24 18:53:22.795051	324.1	25.7	-78.2	0.0
2025-01-24 18:53:25.039953	324.4	25.4	-78.2	0.0
2025-01-24 18:53:27.285284	324.7	25.1	-78.2	0.0
2025-01-24 18:53:29.531053	325.0	24.8	-77.8	0.0
2025-01-24 18:53:31.777778	325.2	24.5	-78.0	0.0
2025-01-24 18:53:34.027690	325.5	24.2	-78.0	0.0
2025-01-24 18:53:36.272089	325.8	23.9	-77.9	0.0
2025-01-24 18:53:38.517242	326.1	23.6	-77.8	0.0
2025-01-24 18:53:40.762071	326.3	23.3	-77.7	0.0
2025-01-24 18:53:43.004766	326.6	23.0	-77.7	0.0
2025-01-24 18:53:45.248334	326.8	22.7	-77.8	0.0
2025-01-24 18:53:47.492764	327.1	22.4	-78.1	0.0
2025-01-24 18:53:49.738711	327.3	22.1	-77.5	0.0
2025-01-24 18:53:51.985288	327.6	21.8	-78.0	0.0
2025-01-24 18:53:54.229437	327.8	21.5	-77.7	0.0
2025-01-24 18:53:56.474863	328.0	21.2	-77.5	0.0
2025-01-24 18:53:58.720547	328.2	21.0	-77.5	0.0
2025-01-24 18:54:00.966114	328.5	20.7	-76.9	0.0
2025-01-24 18:54:03.215037	328.7	20.4	-77.1	0.0
2025-01-24 18:54:05.458042	328.9	20.1	-77.6	0.0
2025-01-24 18:54:07.707559	329.1	19.9	-77.6	0.0
2025-01-24 18:54:09.954857	329.3	19.6	-77.3	0.0
2025-01-24 18:54:12.199632	329.5	19.3	-77.5	0.0
2025-01-24 18:54:14.444542	329.7	19.1	-77.8	0.0
2025-01-24 18:54:16.690905	329.9	18.8	-77.7	0.0
2025-01-24 18:54:18.934880	330.1	18.6	-78.0	0.0
2025-01-24 18:54:21.181346	330.3	18.3	-77.9	0.0
2025-01-24 18:54:23.428832	330.5	18.1	-78.3	0.0
2025-01-24 18:54:25.676866	330.7	17.8	-77.9	0.0
2025-01-24 18:54:27.924957	330.9	17.6	-77.6	0.0
2025-01-24 18:54:30.169293	331.0	17.3	-78.2	0.0
2025-01-24 18:54:32.413906	331.2	17.1	-78.0	0.0
2025-01-24 18:54:34.659551	331.4	16.8	-77.5	0.0
2025-01-24 18:54:36.906113	331.6	16.6	-77.6	0.0
2025-01-24 18:54:39.149957	331.7	16.4	-77.8	0.0
2025-01-24 18:54:41.395317	331.9	16.1	-78.2	0.0
2025-01-24 18:54:43.639197	332.1	15.9	-77.9	0.0
2025-01-24 18:54:45.884311	332.2	15.7	-77.1	0.0
2025-01-24 18:54:48.131214	332.4	15.4	-77.2	0.0
2025-01-24 18:54:50.380394	332.5	15.2	-78.1	0.0
2025-01-24 18:54:52.624726	332.7	15.0	-78.0	0.0
2025-01-24 18:54:54.870109	332.9	14.8	-78.3	0.0
2025-01-24 18:54:57.116620	333.0	14.6	-78.3	0.0
2025-01-24 18:54:59.362664	333.2	14.3	-78.1	0.0
2025-01-24 18:55:01.611225	333.3	14.1	-78.3	0.0
2025-01-24 18:55:03.857317	333.5	13.9	-77.9	0.0
2025-01-24 18:55:06.103371	333.6	13.7	-78.5	0.0
2025-01-24 18:55:08.348926	333.7	13.5	-77.8	0.0
2025-01-24 18:55:10.590493	333.9	13.3	-78.1	0.0
2025-01-24 18:55:12.837948	334.0	13.1	-78.2	0.0
2025-01-24 18:55:15.084211	334.1	12.9	-78.4	0.0
2025-01-24 18:55:17.331671	334.3	12.6	-78.4	0.0
2025-01-24 18:55:19.575687	334.4	12.4	-78.2	0.0
2025-01-24 18:55:21.820772	334.5	12.2	-77.6	0.0
2025-01-24 18:55:24.066227	334.7	12.0	-77.9	0.0
2025-01-24 18:55:26.310591	334.8	11.8	-78.2	0.0
2025-01-24 18:55:28.558234	334.9	11.6	-78.1	0.0
2025-01-24 18:55:30.806182	335.1	11.5	-77.7	0.0
2025-01-24 18:55:33.051547	335.2	11.3	-77.7	0.0
2025-01-24 18:55:35.297135	335.3	11.1	-78.1	0.0
2025-01-24 18:55:37.544667	335.4	10.9	-77.5	0.0
2025-01-24 18:55:39.790710	335.5	10.7	-78.1	0.0
2025-01-24 18:55:42.034369	335.7	10.5	-77.2	0.0
2025-01-24 18:55:44.280160	335.8	10.3	-78.5	0.0
2025-01-24 18:55:46.526508	335.9	10.1	-77.9	0.0
#Closed at: 2025-01-24 18:45:03.729504