passes_logs/2025/01/24/planumMaritime01/planumMaritime01__20250124_163933_METOP-B_rec.log

#Pass ID: 20250124_163933_METOP-B
#Satellite: METOP-B
#Configuration: METOP-B
#Start time: 2025-01-24 16:39:38.160623

#LorettStation: 1.0.0 05.05.2024
#Station: planumMaritime01
#Location: 37.49445 lon 55.92918 lat
#TLE: 1 38771U 12049A   25023.77055793  .00000354  00000+0  18150-3 0  9996
#TLE: 2 38771  98.5998  81.7023 0001597  71.0182 289.1168 14.21416772640884

#Time	Az	El	Level	SNR
2025-01-24 16:39:40.318606	121.1	10.2	-76.6	0.0
2025-01-24 16:39:42.565117	121.0	10.3	-76.9	0.0
2025-01-24 16:39:44.809376	120.8	10.5	-76.2	0.0
2025-01-24 16:39:47.058452	120.6	10.7	-77.3	0.0
2025-01-24 16:39:49.306301	120.4	10.9	-76.1	0.0
2025-01-24 16:39:51.552202	120.2	11.1	-76.5	0.0
2025-01-24 16:39:53.799152	120.0	11.3	-77.1	0.0
2025-01-24 16:39:56.048751	119.8	11.4	-76.9	0.0
2025-01-24 16:39:58.296069	119.6	11.6	-77.0	0.0
2025-01-24 16:40:00.542595	119.4	11.8	-76.8	0.0
2025-01-24 16:40:02.787600	119.2	12.0	-77.2	0.0
2025-01-24 16:40:05.037406	119.0	12.2	-76.6	0.0
2025-01-24 16:40:07.284775	118.8	12.4	-77.2	0.0
2025-01-24 16:40:09.532391	118.5	12.6	-76.6	0.0
2025-01-24 16:40:11.778532	118.3	12.8	-76.6	0.0
2025-01-24 16:40:14.023706	118.1	12.9	-76.9	0.0
2025-01-24 16:40:16.271120	117.9	13.1	-76.9	0.0
2025-01-24 16:40:18.518805	117.7	13.3	-76.9	0.0
2025-01-24 16:40:20.763460	117.4	13.5	-76.9	0.0
2025-01-24 16:40:23.009507	117.2	13.7	-77.1	0.0
2025-01-24 16:40:25.254551	117.0	13.9	-76.4	0.0
2025-01-24 16:40:27.502867	116.7	14.1	-76.4	0.0
2025-01-24 16:40:29.748753	116.5	14.3	-77.3	0.0
2025-01-24 16:40:31.992772	116.2	14.5	-77.1	0.0
2025-01-24 16:40:34.240592	116.0	14.7	-77.3	0.0
2025-01-24 16:40:36.486956	115.7	14.9	-77.3	0.0
2025-01-24 16:40:38.734149	115.5	15.1	-77.2	0.0
2025-01-24 16:40:40.980563	115.2	15.3	-77.0	0.0
2025-01-24 16:40:43.225797	114.9	15.5	-77.5	0.0
2025-01-24 16:40:45.471960	114.7	15.8	-76.7	0.0
2025-01-24 16:40:47.718741	114.4	16.0	-77.7	0.0
2025-01-24 16:40:49.963111	114.1	16.2	-77.3	0.0
2025-01-24 16:40:52.208727	113.8	16.4	-77.5	0.0
2025-01-24 16:40:54.455905	113.6	16.6	-76.8	0.0
2025-01-24 16:40:56.703783	113.3	16.8	-77.6	0.0
2025-01-24 16:40:58.952515	113.0	17.0	-76.8	0.0
2025-01-24 16:41:01.198473	112.7	17.2	-77.3	0.0
2025-01-24 16:41:03.447146	112.4	17.5	-77.2	0.0
2025-01-24 16:41:05.692901	112.1	17.7	-77.3	0.0
2025-01-24 16:41:07.938595	111.8	17.9	-77.3	0.0
2025-01-24 16:41:10.186273	111.4	18.1	-77.3	0.0
2025-01-24 16:41:12.432383	111.1	18.3	-77.3	0.0
2025-01-24 16:41:14.678323	110.8	18.6	-78.1	0.0
2025-01-24 16:41:16.924045	110.5	18.8	-78.1	0.0
2025-01-24 16:41:19.171266	110.1	19.0	-77.2	0.0
2025-01-24 16:41:21.416773	109.8	19.2	-77.3	0.0
2025-01-24 16:41:23.662416	109.5	19.5	-77.8	0.0
2025-01-24 16:41:25.909200	109.1	19.7	-77.8	0.0
2025-01-24 16:41:28.152145	108.8	19.9	-77.5	0.0
2025-01-24 16:41:30.400118	108.4	20.2	-78.0	0.0
2025-01-24 16:41:32.646884	108.0	20.4	-77.5	0.0
2025-01-24 16:41:34.893165	107.7	20.6	-76.8	0.0
2025-01-24 16:41:37.139814	107.3	20.8	-77.8	0.0
2025-01-24 16:41:39.386645	106.9	21.1	-77.2	0.0
2025-01-24 16:41:41.631513	106.5	21.3	-77.8	0.0
2025-01-24 16:41:43.875194	106.1	21.6	-77.7	0.0
2025-01-24 16:41:46.118573	105.7	21.8	-77.6	0.0
2025-01-24 16:41:48.361897	105.3	22.0	-77.9	0.0
2025-01-24 16:41:50.607814	104.9	22.3	-77.7	0.0
2025-01-24 16:41:52.856111	104.5	22.5	-77.3	0.0
2025-01-24 16:41:55.101121	104.0	22.7	-77.4	0.0
2025-01-24 16:41:57.345558	103.6	23.0	-77.2	0.0
2025-01-24 16:41:59.588801	103.2	23.2	-77.3	0.0
2025-01-24 16:42:01.835338	102.7	23.5	-77.7	0.0
2025-01-24 16:42:04.085066	102.3	23.7	-77.7	0.0
2025-01-24 16:42:06.330573	101.8	23.9	-77.2	0.0
2025-01-24 16:42:08.577522	101.3	24.2	-77.4	0.0
2025-01-24 16:42:10.821504	100.9	24.4	-77.8	0.0
2025-01-24 16:42:13.065526	100.4	24.7	-77.7	0.0
2025-01-24 16:42:15.312107	99.9	24.9	-77.4	0.0
2025-01-24 16:42:17.554921	99.4	25.1	-77.2	0.0
2025-01-24 16:42:19.803975	98.9	25.4	-77.9	0.0
2025-01-24 16:42:22.049567	98.4	25.6	-77.8	0.0
2025-01-24 16:42:24.294073	97.9	25.8	-77.8	0.0
2025-01-24 16:42:26.540794	97.3	26.1	-77.3	0.0
2025-01-24 16:42:28.788526	96.8	26.3	-77.5	0.0
2025-01-24 16:42:31.037098	96.3	26.6	-78.0	0.0
2025-01-24 16:42:33.283048	95.7	26.8	-78.0	0.0
2025-01-24 16:42:35.532918	95.1	27.0	-76.8	0.0
2025-01-24 16:42:37.778451	94.6	27.3	-77.5	0.0
2025-01-24 16:42:40.024930	94.0	27.5	-77.4	0.0
2025-01-24 16:42:42.270165	93.4	27.7	-78.0	0.0
2025-01-24 16:42:44.517981	92.8	28.0	-77.6	0.0
2025-01-24 16:42:46.765045	92.2	28.2	-77.9	0.0
2025-01-24 16:42:49.012925	91.6	28.4	-78.1	0.0
2025-01-24 16:42:51.260280	91.0	28.6	-77.8	0.0
2025-01-24 16:42:53.508522	90.3	28.9	-76.8	0.0
2025-01-24 16:42:55.754836	89.7	29.1	-77.2	0.0
2025-01-24 16:42:58.004240	89.1	29.3	-77.6	0.0
2025-01-24 16:43:00.250598	88.4	29.5	-76.5	0.0
2025-01-24 16:43:02.495292	87.7	29.7	-77.9	0.0
2025-01-24 16:43:04.741635	87.1	30.0	-77.8	0.0
2025-01-24 16:43:06.986295	86.4	30.2	-77.7	0.0
2025-01-24 16:43:09.231090	85.7	30.4	-77.8	0.0
2025-01-24 16:43:11.477474	85.0	30.6	-76.6	0.0
2025-01-24 16:43:13.722967	84.3	30.8	-77.8	0.0
2025-01-24 16:43:15.970266	83.5	31.0	-77.3	0.0
2025-01-24 16:43:18.217892	82.8	31.2	-78.1	0.0
2025-01-24 16:43:20.466720	82.1	31.3	-77.5	0.0
2025-01-24 16:43:22.716312	81.3	31.5	-78.3	0.0
2025-01-24 16:43:24.960769	80.6	31.7	-78.5	0.0
2025-01-24 16:43:27.207800	79.8	31.9	-77.6	0.0
2025-01-24 16:43:29.456668	79.1	32.0	-77.1	0.0
2025-01-24 16:43:31.705151	78.3	32.2	-78.0	0.0
2025-01-24 16:43:33.950579	77.5	32.4	-77.2	0.0
2025-01-24 16:43:36.193386	76.7	32.5	-78.7	0.0
2025-01-24 16:43:38.439270	75.9	32.7	-78.0	0.0
2025-01-24 16:43:40.683020	75.1	32.8	-78.5	0.0
2025-01-24 16:43:42.926423	74.3	32.9	-77.8	0.0
2025-01-24 16:43:45.170418	73.5	33.1	-77.5	0.0
2025-01-24 16:43:47.417350	72.6	33.2	-77.7	0.0
2025-01-24 16:43:49.660811	71.8	33.3	-77.6	0.0
2025-01-24 16:43:51.908673	71.0	33.4	-77.5	0.0
2025-01-24 16:43:54.153500	70.1	33.5	-77.3	0.0
2025-01-24 16:43:56.399168	69.3	33.6	-77.2	0.0
2025-01-24 16:43:58.642855	68.4	33.7	-77.7	0.0
2025-01-24 16:44:00.888239	67.6	33.8	-77.6	0.0
2025-01-24 16:44:03.133081	66.7	33.9	-77.8	0.0
2025-01-24 16:44:05.380467	65.8	33.9	-77.8	0.0
2025-01-24 16:44:07.626079	65.0	34.0	-77.8	0.0
2025-01-24 16:44:09.871736	64.1	34.1	-77.7	0.0
2025-01-24 16:44:12.118426	63.2	34.1	-77.3	0.0
2025-01-24 16:44:14.364886	62.3	34.1	-78.1	0.0
2025-01-24 16:44:16.608321	61.5	34.2	-77.9	0.0
2025-01-24 16:44:18.855479	60.6	34.2	-77.5	0.0
2025-01-24 16:44:21.104961	59.7	34.2	-77.6	0.0
2025-01-24 16:44:23.350989	58.8	34.2	-77.6	0.0
2025-01-24 16:44:25.595556	57.9	34.2	-77.6	0.0
2025-01-24 16:44:27.840841	57.0	34.2	-77.4	0.0
2025-01-24 16:44:30.087591	56.2	34.2	-77.7	0.0
2025-01-24 16:44:32.334771	55.3	34.2	-77.5	0.0
2025-01-24 16:44:34.579780	54.4	34.2	-77.8	0.0
2025-01-24 16:44:36.822938	53.5	34.1	-78.0	0.0
2025-01-24 16:44:39.070441	52.6	34.1	-77.9	0.0
2025-01-24 16:44:41.315566	51.8	34.0	-77.7	0.0
2025-01-24 16:44:43.563322	50.9	34.0	-77.9	0.0
2025-01-24 16:44:45.811804	50.0	33.9	-77.7	0.0
2025-01-24 16:44:48.055664	49.2	33.8	-78.0	0.0
2025-01-24 16:44:50.303177	48.3	33.7	-78.2	0.0
2025-01-24 16:44:52.545539	47.5	33.7	-77.5	0.0
2025-01-24 16:44:54.790945	46.6	33.6	-78.0	0.0
2025-01-24 16:44:57.038020	45.8	33.5	-77.4	0.0
2025-01-24 16:44:59.285461	44.9	33.3	-78.0	0.0
2025-01-24 16:45:01.533607	44.1	33.2	-77.9	0.0
2025-01-24 16:45:03.782249	43.3	33.1	-77.7	0.0
2025-01-24 16:45:06.029580	42.4	33.0	-78.1	0.0
2025-01-24 16:45:08.274537	41.6	32.8	-78.0	0.0
2025-01-24 16:45:10.520597	40.8	32.7	-77.9	0.0
2025-01-24 16:45:12.764630	40.0	32.6	-78.2	0.0
2025-01-24 16:45:15.012386	39.2	32.4	-78.3	0.0
2025-01-24 16:45:17.261077	38.4	32.3	-78.5	0.0
2025-01-24 16:45:19.503500	37.7	32.1	-77.6	0.0
2025-01-24 16:45:21.751802	36.9	31.9	-78.3	0.0
2025-01-24 16:45:23.999863	36.1	31.8	-78.2	0.0
2025-01-24 16:45:26.242221	35.4	31.6	-78.5	0.0
2025-01-24 16:45:28.489591	34.6	31.4	-77.4	0.0
2025-01-24 16:45:30.734481	33.9	31.2	-77.2	0.0
2025-01-24 16:45:32.980032	33.2	31.0	-78.1	0.0
2025-01-24 16:45:35.230992	32.4	30.8	-78.3	0.0
2025-01-24 16:45:37.475347	31.7	30.6	-77.9	0.0
2025-01-24 16:45:39.724608	31.0	30.4	-77.8	0.0
2025-01-24 16:45:41.972136	30.3	30.2	-78.3	0.0
2025-01-24 16:45:44.217673	29.7	30.0	-78.2	0.0
2025-01-24 16:45:46.464168	29.0	29.8	-78.1	0.0
2025-01-24 16:45:48.709164	28.3	29.6	-78.7	0.0
2025-01-24 16:45:50.956803	27.7	29.4	-78.4	0.0
2025-01-24 16:45:53.209375	27.0	29.2	-78.6	0.0
2025-01-24 16:45:55.454289	26.4	29.0	-78.2	0.0
2025-01-24 16:45:57.699776	25.7	28.7	-77.9	0.0
2025-01-24 16:45:59.943929	25.1	28.5	-78.0	0.0
2025-01-24 16:46:02.192564	24.5	28.3	-78.1	0.0
2025-01-24 16:46:04.442175	23.9	28.1	-78.3	0.0
2025-01-24 16:46:06.687469	23.3	27.8	-78.0	0.0
2025-01-24 16:46:08.934417	22.7	27.6	-78.3	0.0
2025-01-24 16:46:11.180412	22.1	27.4	-77.9	0.0
2025-01-24 16:46:13.425390	21.6	27.1	-77.9	0.0
2025-01-24 16:46:15.675448	21.0	26.9	-77.2	0.0
2025-01-24 16:46:17.923665	20.5	26.7	-78.0	0.0
2025-01-24 16:46:20.169929	19.9	26.4	-78.5	0.0
2025-01-24 16:46:22.415741	19.4	26.2	-78.1	0.0
2025-01-24 16:46:24.661116	18.8	26.0	-77.3	0.0
2025-01-24 16:46:26.905683	18.3	25.7	-77.9	0.0
2025-01-24 16:46:29.152284	17.8	25.5	-78.3	0.0
2025-01-24 16:46:31.396797	17.3	25.2	-77.9	0.0
2025-01-24 16:46:33.642737	16.8	25.0	-78.0	0.0
2025-01-24 16:46:35.887767	16.3	24.8	-78.1	0.0
2025-01-24 16:46:38.134523	15.8	24.5	-78.1	0.0
2025-01-24 16:46:40.383184	15.4	24.3	-78.1	0.0
2025-01-24 16:46:42.630670	14.9	24.0	-77.7	0.0
2025-01-24 16:46:44.880208	14.4	23.8	-78.0	0.0
2025-01-24 16:46:47.127056	14.0	23.6	-78.2	0.0
2025-01-24 16:46:49.376658	13.5	23.3	-78.2	0.0
2025-01-24 16:46:51.620175	13.1	23.1	-78.3	0.0
2025-01-24 16:46:53.868209	12.7	22.8	-78.2	0.0
2025-01-24 16:46:56.116628	12.2	22.6	-78.2	0.0
2025-01-24 16:46:58.363943	11.8	22.4	-78.2	0.0
2025-01-24 16:47:00.608212	11.4	22.1	-78.5	0.0
2025-01-24 16:47:02.850492	11.0	21.9	-78.3	0.0
2025-01-24 16:47:05.095812	10.6	21.7	-77.8	0.0
2025-01-24 16:47:07.343371	10.2	21.4	-78.4	0.0
2025-01-24 16:47:09.589250	9.8	21.2	-78.0	0.0
2025-01-24 16:47:11.836686	9.4	21.0	-78.4	0.0
2025-01-24 16:47:14.083796	9.1	20.7	-78.1	0.0
2025-01-24 16:47:16.327874	8.7	20.5	-78.3	0.0
2025-01-24 16:47:18.577481	8.3	20.3	-78.2	0.0
2025-01-24 16:47:20.822259	8.0	20.0	-77.4	0.0
2025-01-24 16:47:23.068104	7.6	19.8	-77.8	0.0
2025-01-24 16:47:25.314541	7.3	19.6	-78.2	0.0
2025-01-24 16:47:27.560622	6.9	19.4	-77.8	0.0
2025-01-24 16:47:29.808396	6.6	19.1	-77.2	0.0
2025-01-24 16:47:32.055077	6.2	18.9	-78.3	0.0
2025-01-24 16:47:34.303558	5.9	18.7	-77.9	0.0
2025-01-24 16:47:36.548750	5.6	18.5	-78.1	0.0
2025-01-24 16:47:38.796026	5.3	18.3	-77.3	0.0
2025-01-24 16:47:41.042771	5.0	18.0	-78.4	0.0
2025-01-24 16:47:43.287213	4.6	17.8	-78.1	0.0
2025-01-24 16:47:45.535688	4.3	17.6	-77.4	0.0
2025-01-24 16:47:47.784044	4.0	17.4	-77.4	0.0
2025-01-24 16:47:50.029600	3.7	17.2	-76.9	0.0
2025-01-24 16:47:52.276619	3.5	16.9	-77.4	0.0
2025-01-24 16:47:54.523131	3.2	16.7	-77.8	0.0
2025-01-24 16:47:56.770164	2.9	16.5	-77.1	0.0
2025-01-24 16:47:59.014189	2.6	16.3	-77.5	0.0
2025-01-24 16:48:01.258194	2.3	16.1	-78.3	0.0
2025-01-24 16:48:03.504388	2.1	15.9	-78.3	0.0
2025-01-24 16:48:05.751758	1.8	15.7	-77.8	0.0
2025-01-24 16:48:07.998446	1.5	15.5	-78.0	0.0
2025-01-24 16:48:10.243599	1.3	15.3	-77.7	0.0
2025-01-24 16:48:12.488273	1.0	15.1	-77.4	0.0
2025-01-24 16:48:14.732275	0.8	14.9	-77.2	0.0
2025-01-24 16:48:16.978355	0.5	14.7	-77.1	0.0
2025-01-24 16:48:19.224011	0.3	14.5	-78.6	0.0
2025-01-24 16:48:21.471224	0.0	14.3	-78.1	0.0
2025-01-24 16:48:23.717973	359.8	14.1	-78.1	0.0
2025-01-24 16:48:25.963344	359.6	13.9	-78.0	0.0
2025-01-24 16:48:28.208774	359.3	13.7	-77.9	0.0
2025-01-24 16:48:30.458175	359.1	13.5	-77.5	0.0
2025-01-24 16:48:32.703825	358.9	13.3	-77.1	0.0
2025-01-24 16:48:34.950508	358.6	13.1	-77.9	0.0
2025-01-24 16:48:37.196548	358.4	12.9	-78.1	0.0
2025-01-24 16:48:39.441358	358.2	12.7	-78.1	0.0
2025-01-24 16:48:41.690174	358.0	12.5	-77.9	0.0
2025-01-24 16:48:43.937241	357.8	12.3	-77.7	0.0
2025-01-24 16:48:46.184141	357.6	12.1	-78.4	0.0
2025-01-24 16:48:48.429676	357.4	12.0	-77.7	0.0
2025-01-24 16:48:50.675160	357.2	11.8	-78.3	0.0
2025-01-24 16:48:52.921250	357.0	11.6	-78.3	0.0
2025-01-24 16:48:55.165588	356.8	11.4	-77.9	0.0
2025-01-24 16:48:57.413138	356.6	11.2	-78.1	0.0
2025-01-24 16:48:59.663299	356.4	11.0	-76.8	0.0
2025-01-24 16:49:01.909374	356.2	10.9	-76.9	0.0
2025-01-24 16:49:04.152998	356.0	10.7	-78.4	0.0
2025-01-24 16:49:06.399830	355.8	10.5	-77.4	0.0
2025-01-24 16:49:08.648069	355.6	10.3	-78.1	0.0
2025-01-24 16:49:10.892116	355.5	10.1	-78.5	0.0
#Closed at: 2025-01-24 16:39:33.164461