passes_logs/2025/01/24/planumMaritime01/planumMaritime01__20250124_114611_METEOR-M2_2_rec.log

#Pass ID: 20250124_114611_METEOR-M2 2
#Satellite: METEOR-M2 2
#Configuration: METEOR-M2 2
#Start time: 2025-01-24 11:46:16.082710

#LorettStation: 1.0.0 05.05.2024
#Station: planumMaritime01
#Location: 37.49445 lon 55.92918 lat
#TLE: 1 44387U 19038A   25023.85032452  .00000409  00000+0  19745-3 0  9999
#TLE: 2 44387  98.8577   0.3146 0002179  65.3887 294.7518 14.24123988288794

#Time	Az	El	Level	SNR
2025-01-24 11:46:18.243502	141.2	10.2	-76.8	0.0
2025-01-24 11:46:20.488059	141.1	10.4	-76.7	0.0
2025-01-24 11:46:22.730585	141.0	10.6	-73.2	0.0
2025-01-24 11:46:24.978073	140.9	10.8	-76.2	0.0
2025-01-24 11:46:27.225379	140.8	11.0	-76.6	0.0
2025-01-24 11:46:29.471815	140.7	11.2	-76.5	0.0
2025-01-24 11:46:31.714818	140.7	11.4	-76.6	0.0
2025-01-24 11:46:33.963564	140.6	11.6	-76.6	0.0
2025-01-24 11:46:36.207468	140.4	11.8	-77.0	0.0
2025-01-24 11:46:38.457085	140.3	12.0	-77.2	0.0
2025-01-24 11:46:40.702717	140.2	12.2	-77.2	0.0
2025-01-24 11:46:42.948014	140.1	12.4	-72.3	0.0
2025-01-24 11:46:45.192522	140.0	12.6	-77.1	0.0
2025-01-24 11:46:47.437976	139.9	12.8	-77.1	0.0
2025-01-24 11:46:49.682136	139.8	13.1	-76.5	0.0
2025-01-24 11:46:51.926958	139.7	13.3	-76.8	0.0
2025-01-24 11:46:54.171699	139.6	13.5	-76.5	0.0
2025-01-24 11:46:56.417184	139.5	13.7	-77.5	0.0
2025-01-24 11:46:58.661386	139.3	14.0	-77.6	0.0
2025-01-24 11:47:00.908293	139.2	14.2	-76.7	0.0
2025-01-24 11:47:03.154575	139.1	14.4	-73.6	0.0
2025-01-24 11:47:05.405541	139.0	14.6	-76.2	0.0
2025-01-24 11:47:07.649564	138.9	14.9	-77.4	0.0
2025-01-24 11:47:09.893834	138.7	15.1	-76.8	0.0
2025-01-24 11:47:12.139918	138.6	15.3	-77.2	0.0
2025-01-24 11:47:14.385260	138.5	15.6	-76.9	0.0
2025-01-24 11:47:16.633589	138.3	15.8	-76.4	0.0
2025-01-24 11:47:18.880096	138.2	16.1	-76.4	0.0
2025-01-24 11:47:21.124845	138.1	16.3	-77.3	0.0
2025-01-24 11:47:23.372656	137.9	16.6	-76.3	0.0
2025-01-24 11:47:25.619462	137.8	16.8	-74.5	0.0
2025-01-24 11:47:27.864503	137.6	17.1	-77.2	0.0
2025-01-24 11:47:30.111529	137.5	17.3	-77.3	0.0
2025-01-24 11:47:32.357996	137.3	17.6	-76.6	0.0
2025-01-24 11:47:34.606167	137.2	17.8	-77.0	0.0
2025-01-24 11:47:36.850796	137.0	18.1	-76.6	0.0
2025-01-24 11:47:39.099604	136.8	18.4	-77.3	0.0
2025-01-24 11:47:41.341111	136.7	18.6	-77.2	0.0
2025-01-24 11:47:43.588733	136.5	18.9	-77.7	0.0
2025-01-24 11:47:45.835174	136.4	19.2	-72.9	0.0
2025-01-24 11:47:48.079929	136.2	19.5	-77.7	0.0
2025-01-24 11:47:50.325915	136.0	19.7	-77.1	0.0
2025-01-24 11:47:52.571983	135.8	20.0	-77.2	0.0
2025-01-24 11:47:54.818213	135.6	20.3	-77.0	0.0
2025-01-24 11:47:57.061423	135.5	20.6	-77.5	0.0
2025-01-24 11:47:59.309258	135.3	20.9	-77.6	0.0
2025-01-24 11:48:01.554040	135.1	21.2	-77.4	0.0
2025-01-24 11:48:03.799515	134.9	21.5	-77.7	0.0
2025-01-24 11:48:06.045523	134.7	21.8	-74.6	0.0
2025-01-24 11:48:08.289947	134.5	22.1	-76.8	0.0
2025-01-24 11:48:10.532666	134.3	22.4	-77.2	0.0
2025-01-24 11:48:12.779007	134.0	22.7	-77.7	0.0
2025-01-24 11:48:15.024714	133.8	23.0	-77.4	0.0
2025-01-24 11:48:17.270347	133.6	23.3	-77.4	0.0
2025-01-24 11:48:19.518036	133.4	23.7	-77.1	0.0
2025-01-24 11:48:21.763724	133.1	24.0	-77.8	0.0
2025-01-24 11:48:24.008072	132.9	24.3	-77.9	0.0
2025-01-24 11:48:26.255383	132.7	24.6	-77.2	0.0
2025-01-24 11:48:28.505042	132.4	25.0	-74.9	0.0
2025-01-24 11:48:30.750914	132.2	25.3	-77.4	0.0
2025-01-24 11:48:32.994214	131.9	25.7	-77.7	0.0
2025-01-24 11:48:35.238420	131.6	26.0	-77.4	0.0
2025-01-24 11:48:37.482698	131.4	26.4	-77.8	0.0
2025-01-24 11:48:39.729224	131.1	26.7	-77.6	0.0
2025-01-24 11:48:41.975152	130.8	27.1	-77.1	0.0
2025-01-24 11:48:44.223054	130.5	27.4	-77.6	0.0
2025-01-24 11:48:46.470455	130.2	27.8	-77.4	0.0
2025-01-24 11:48:48.719512	129.9	28.2	-73.3	0.0
2025-01-24 11:48:50.966380	129.6	28.5	-76.7	0.0
2025-01-24 11:48:53.212858	129.3	28.9	-77.0	0.0
2025-01-24 11:48:55.458808	128.9	29.3	-76.8	0.0
2025-01-24 11:48:57.705070	128.6	29.7	-77.1	0.0
2025-01-24 11:48:59.953907	128.3	30.1	-77.7	0.0
2025-01-24 11:49:02.200017	127.9	30.5	-77.1	0.0
2025-01-24 11:49:04.448889	127.5	30.9	-77.7	0.0
2025-01-24 11:49:06.698032	127.2	31.3	-76.8	0.0
2025-01-24 11:49:08.943870	126.8	31.7	-76.1	0.0
2025-01-24 11:49:11.189285	126.4	32.1	-75.8	0.0
2025-01-24 11:49:13.433998	126.0	32.5	-77.6	0.0
2025-01-24 11:49:15.677064	125.6	33.0	-77.6	0.0
2025-01-24 11:49:17.921921	125.2	33.4	-77.6	0.0
2025-01-24 11:49:20.166332	124.7	33.8	-78.1	0.0
2025-01-24 11:49:22.414185	124.3	34.2	-77.5	0.0
2025-01-24 11:49:24.657614	123.8	34.7	-77.6	0.0
2025-01-24 11:49:26.905353	123.3	35.1	-77.5	0.0
2025-01-24 11:49:29.151474	122.9	35.6	-77.4	0.0
2025-01-24 11:49:31.394910	122.4	36.0	-73.6	0.0
2025-01-24 11:49:33.643472	121.9	36.5	-77.7	0.0
2025-01-24 11:49:35.888953	121.3	36.9	-77.4	0.0
2025-01-24 11:49:38.135872	120.8	37.4	-77.3	0.0
2025-01-24 11:49:40.382984	120.2	37.9	-76.9	0.0
2025-01-24 11:49:42.626629	119.7	38.3	-77.7	0.0
2025-01-24 11:49:44.873823	119.1	38.8	-77.7	0.0
2025-01-24 11:49:47.119736	118.5	39.3	-77.8	0.0
2025-01-24 11:49:49.362870	117.8	39.8	-77.7	0.0
2025-01-24 11:49:51.607381	117.2	40.2	-73.7	0.0
2025-01-24 11:49:53.850889	116.5	40.7	-77.4	0.0
2025-01-24 11:49:56.095435	115.8	41.2	-78.1	0.0
2025-01-24 11:49:58.343568	115.1	41.7	-77.4	0.0
2025-01-24 11:50:00.589792	114.4	42.2	-77.5	0.0
2025-01-24 11:50:02.835294	113.6	42.7	-77.2	0.0
2025-01-24 11:50:05.082410	112.9	43.2	-77.7	0.0
2025-01-24 11:50:07.325490	112.1	43.7	-77.2	0.0
2025-01-24 11:50:09.571713	111.2	44.1	-77.4	0.0
2025-01-24 11:50:11.816160	110.4	44.6	-76.5	0.0
2025-01-24 11:50:14.063170	109.5	45.1	-74.9	0.0
2025-01-24 11:50:16.309578	108.6	45.6	-77.4	0.0
2025-01-24 11:50:18.557875	107.7	46.1	-77.9	0.0
2025-01-24 11:50:20.804107	106.7	46.6	-77.5	0.0
2025-01-24 11:50:23.050183	105.7	47.0	-77.0	0.0
2025-01-24 11:50:25.294649	104.7	47.5	-77.0	0.0
2025-01-24 11:50:27.540924	103.6	48.0	-77.7	0.0
2025-01-24 11:50:29.783383	102.6	48.4	-77.8	0.0
2025-01-24 11:50:32.028724	101.4	48.9	-77.7	0.0
2025-01-24 11:50:34.272406	100.3	49.3	-73.4	0.0
2025-01-24 11:50:36.520370	99.1	49.8	-77.9	0.0
2025-01-24 11:50:38.767182	97.9	50.2	-77.5	0.0
2025-01-24 11:50:41.015451	96.6	50.6	-77.8	0.0
2025-01-24 11:50:43.260350	95.3	51.0	-76.8	0.0
2025-01-24 11:50:45.507587	94.0	51.4	-77.4	0.0
2025-01-24 11:50:47.751167	92.6	51.8	-77.8	0.0
2025-01-24 11:50:49.997552	91.3	52.2	-77.7	0.0
2025-01-24 11:50:52.240600	89.8	52.5	-78.2	0.0
2025-01-24 11:50:54.486236	88.4	52.9	-75.4	0.0
2025-01-24 11:50:56.731465	86.9	53.2	-76.6	0.0
2025-01-24 11:50:58.977543	85.3	53.5	-77.8	0.0
2025-01-24 11:51:01.222023	83.8	53.8	-77.3	0.0
2025-01-24 11:51:03.467719	82.2	54.0	-77.8	0.0
2025-01-24 11:51:05.715595	80.6	54.3	-77.7	0.0
2025-01-24 11:51:07.958945	78.9	54.5	-78.3	0.0
2025-01-24 11:51:10.204499	77.3	54.7	-78.3	0.0
2025-01-24 11:51:12.450749	75.6	54.9	-77.6	0.0
2025-01-24 11:51:14.694171	73.9	55.0	-77.5	0.0
2025-01-24 11:51:16.940408	72.1	55.1	-75.1	0.0
2025-01-24 11:51:19.185134	70.4	55.2	-77.9	0.0
2025-01-24 11:51:21.432269	68.7	55.3	-78.1	0.0
2025-01-24 11:51:23.677656	66.9	55.3	-77.7	0.0
2025-01-24 11:51:25.924233	65.1	55.3	-77.9	0.0
2025-01-24 11:51:28.174030	63.4	55.3	-78.2	0.0
2025-01-24 11:51:30.419660	61.6	55.3	-77.8	0.0
2025-01-24 11:51:32.666138	59.9	55.2	-77.9	0.0
2025-01-24 11:51:34.911937	58.2	55.1	-77.4	0.0
2025-01-24 11:51:37.155323	56.4	55.0	-74.0	0.0
2025-01-24 11:51:39.399597	54.7	54.9	-77.3	0.0
2025-01-24 11:51:41.646613	53.0	54.7	-77.5	0.0
2025-01-24 11:51:43.890332	51.4	54.5	-77.5	0.0
2025-01-24 11:51:46.134087	49.7	54.3	-77.7	0.0
2025-01-24 11:51:48.380689	48.1	54.1	-77.4	0.0
2025-01-24 11:51:50.627046	46.5	53.8	-77.6	0.0
2025-01-24 11:51:52.872891	44.9	53.5	-77.7	0.0
2025-01-24 11:51:55.119542	43.4	53.2	-77.8	0.0
2025-01-24 11:51:57.362101	41.9	52.9	-75.8	0.0
2025-01-24 11:51:59.606335	40.5	52.6	-76.8	0.0
2025-01-24 11:52:01.851817	39.0	52.2	-77.6	0.0
2025-01-24 11:52:04.098639	37.6	51.9	-77.7	0.0
2025-01-24 11:52:06.343333	36.3	51.5	-77.7	0.0
2025-01-24 11:52:08.588162	34.9	51.1	-77.6	0.0
2025-01-24 11:52:10.832658	33.6	50.7	-77.3	0.0
2025-01-24 11:52:13.076533	32.4	50.3	-77.4	0.0
2025-01-24 11:52:15.324910	31.2	49.8	-77.4	0.0
2025-01-24 11:52:17.571811	30.0	49.4	-77.8	0.0
2025-01-24 11:52:19.819462	28.8	49.0	-74.2	0.0
2025-01-24 11:52:22.065557	27.7	48.5	-77.8	0.0
2025-01-24 11:52:24.308798	26.6	48.1	-77.7	0.0
2025-01-24 11:52:26.555366	25.6	47.6	-78.2	0.0
2025-01-24 11:52:28.803208	24.5	47.1	-77.6	0.0
2025-01-24 11:52:31.048605	23.6	46.6	-78.2	0.0
2025-01-24 11:52:33.294500	22.6	46.2	-77.9	0.0
2025-01-24 11:52:35.539566	21.7	45.7	-78.2	0.0
2025-01-24 11:52:37.786558	20.8	45.2	-77.7	0.0
2025-01-24 11:52:40.028928	19.9	44.7	-74.5	0.0
2025-01-24 11:52:42.273433	19.0	44.2	-77.6	0.0
2025-01-24 11:52:44.519094	18.2	43.7	-77.0	0.0
2025-01-24 11:52:46.765840	17.4	43.3	-77.5	0.0
2025-01-24 11:52:49.012204	16.6	42.8	-77.9	0.0
2025-01-24 11:52:51.258185	15.9	42.3	-77.6	0.0
2025-01-24 11:52:53.503349	15.1	41.8	-77.7	0.0
2025-01-24 11:52:55.745494	14.4	41.3	-78.1	0.0
2025-01-24 11:52:57.990834	13.7	40.8	-77.7	0.0
2025-01-24 11:53:00.237213	13.1	40.3	-76.6	0.0
2025-01-24 11:53:02.483898	12.4	39.9	-76.4	0.0
2025-01-24 11:53:04.727684	11.8	39.4	-78.0	0.0
2025-01-24 11:53:06.973741	11.2	38.9	-77.6	0.0
2025-01-24 11:53:09.218405	10.6	38.4	-78.0	0.0
2025-01-24 11:53:11.465838	10.0	38.0	-77.7	0.0
2025-01-24 11:53:13.712110	9.5	37.5	-78.1	0.0
2025-01-24 11:53:15.958341	8.9	37.1	-77.8	0.0
2025-01-24 11:53:18.202428	8.4	36.6	-78.0	0.0
2025-01-24 11:53:20.448733	7.9	36.1	-77.6	0.0
2025-01-24 11:53:22.695964	7.4	35.7	-74.8	0.0
2025-01-24 11:53:24.940483	6.9	35.2	-77.9	0.0
2025-01-24 11:53:27.186212	6.4	34.8	-77.8	0.0
2025-01-24 11:53:29.431561	6.0	34.4	-77.9	0.0
2025-01-24 11:53:31.676562	5.5	33.9	-78.1	0.0
2025-01-24 11:53:33.925612	5.1	33.5	-77.5	0.0
2025-01-24 11:53:36.171727	4.7	33.1	-77.7	0.0
2025-01-24 11:53:38.417934	4.3	32.7	-77.6	0.0
2025-01-24 11:53:40.665705	3.9	32.2	-77.7	0.0
2025-01-24 11:53:42.914210	3.5	31.8	-74.8	0.0
2025-01-24 11:53:45.158184	3.1	31.4	-77.2	0.0
2025-01-24 11:53:47.400781	2.7	31.0	-77.5	0.0
2025-01-24 11:53:49.646721	2.4	30.6	-78.1	0.0
2025-01-24 11:53:51.891645	2.0	30.2	-77.2	0.0
2025-01-24 11:53:54.139018	1.7	29.8	-77.6	0.0
2025-01-24 11:53:56.382765	1.3	29.5	-77.3	0.0
2025-01-24 11:53:58.628161	1.0	29.1	-77.2	0.0
2025-01-24 11:54:00.875427	0.7	28.7	-77.1	0.0
2025-01-24 11:54:03.121534	0.4	28.3	-76.0	0.0
2025-01-24 11:54:05.368168	0.1	27.9	-76.3	0.0
2025-01-24 11:54:07.614930	359.8	27.6	-77.6	0.0
2025-01-24 11:54:09.859130	359.5	27.2	-77.2	0.0
2025-01-24 11:54:12.104960	359.2	26.9	-77.4	0.0
2025-01-24 11:54:14.351894	358.9	26.5	-77.7	0.0
2025-01-24 11:54:16.594394	358.7	26.2	-77.8	0.0
2025-01-24 11:54:18.839181	358.4	25.8	-77.0	0.0
2025-01-24 11:54:21.086766	358.1	25.5	-77.4	0.0
2025-01-24 11:54:23.334200	357.9	25.1	-77.2	0.0
2025-01-24 11:54:25.580925	357.6	24.8	-73.8	0.0
2025-01-24 11:54:27.826272	357.4	24.5	-77.6	0.0
2025-01-24 11:54:30.073906	357.1	24.1	-77.9	0.0
2025-01-24 11:54:32.319889	356.9	23.8	-77.5	0.0
2025-01-24 11:54:34.564399	356.7	23.5	-77.2	0.0
2025-01-24 11:54:36.806973	356.5	23.2	-77.5	0.0
2025-01-24 11:54:39.054879	356.2	22.9	-77.7	0.0
2025-01-24 11:54:41.302758	356.0	22.5	-77.7	0.0
2025-01-24 11:54:43.547786	355.8	22.2	-77.6	0.0
2025-01-24 11:54:45.795540	355.6	21.9	-74.3	0.0
2025-01-24 11:54:48.042285	355.4	21.6	-77.1	0.0
2025-01-24 11:54:50.288705	355.2	21.3	-77.8	0.0
2025-01-24 11:54:52.534462	355.0	21.0	-77.9	0.0
2025-01-24 11:54:54.778380	354.8	20.8	-77.4	0.0
2025-01-24 11:54:57.023616	354.7	20.5	-77.9	0.0
2025-01-24 11:54:59.267974	354.5	20.2	-77.7	0.0
2025-01-24 11:55:01.509518	354.3	19.9	-77.4	0.0
2025-01-24 11:55:03.754953	354.1	19.6	-77.8	0.0
2025-01-24 11:55:06.001941	354.0	19.3	-76.5	0.0
2025-01-24 11:55:08.249153	353.8	19.1	-75.9	0.0
2025-01-24 11:55:10.496403	353.6	18.8	-78.1	0.0
2025-01-24 11:55:12.743424	353.5	18.5	-77.9	0.0
2025-01-24 11:55:14.987765	353.3	18.3	-77.9	0.0
2025-01-24 11:55:17.232123	353.1	18.0	-78.0	0.0
2025-01-24 11:55:19.479262	353.0	17.7	-78.0	0.0
2025-01-24 11:55:21.724531	352.8	17.5	-77.7	0.0
2025-01-24 11:55:23.972477	352.7	17.2	-78.0	0.0
2025-01-24 11:55:26.219065	352.5	17.0	-78.1	0.0
2025-01-24 11:55:28.463855	352.4	16.7	-74.2	0.0
2025-01-24 11:55:30.713042	352.3	16.5	-77.7	0.0
2025-01-24 11:55:32.958302	352.1	16.2	-78.2	0.0
2025-01-24 11:55:35.204336	352.0	16.0	-78.1	0.0
2025-01-24 11:55:37.450980	351.9	15.8	-77.8	0.0
2025-01-24 11:55:39.696799	351.7	15.5	-78.0	0.0
2025-01-24 11:55:41.943177	351.6	15.3	-77.9	0.0
2025-01-24 11:55:44.188171	351.5	15.0	-77.6	0.0
2025-01-24 11:55:46.433839	351.3	14.8	-78.1	0.0
2025-01-24 11:55:48.679862	351.2	14.6	-74.2	0.0
2025-01-24 11:55:50.926742	351.1	14.4	-78.0	0.0
2025-01-24 11:55:53.172828	351.0	14.1	-78.0	0.0
2025-01-24 11:55:55.418730	350.9	13.9	-78.3	0.0
2025-01-24 11:55:57.662403	350.8	13.7	-78.1	0.0
2025-01-24 11:55:59.907701	350.6	13.5	-78.6	0.0
2025-01-24 11:56:02.152835	350.5	13.2	-78.6	0.0
2025-01-24 11:56:04.399990	350.4	13.0	-78.3	0.0
2025-01-24 11:56:06.643389	350.3	12.8	-77.9	0.0
2025-01-24 11:56:08.889035	350.2	12.6	-75.9	0.0
2025-01-24 11:56:11.132557	350.1	12.4	-75.3	0.0
2025-01-24 11:56:13.379776	350.0	12.2	-78.1	0.0
2025-01-24 11:56:15.624089	349.9	12.0	-78.0	0.0
2025-01-24 11:56:17.870269	349.8	11.8	-78.3	0.0
2025-01-24 11:56:20.115945	349.7	11.6	-78.0	0.0
2025-01-24 11:56:22.361048	349.6	11.4	-78.1	0.0
2025-01-24 11:56:24.606530	349.5	11.2	-78.1	0.0
2025-01-24 11:56:26.854019	349.4	11.0	-77.7	0.0
2025-01-24 11:56:29.101086	349.3	10.8	-77.7	0.0
2025-01-24 11:56:31.345549	349.2	10.6	-73.9	0.0
2025-01-24 11:56:33.591722	349.1	10.4	-77.6	0.0
2025-01-24 11:56:35.840405	349.1	10.2	-77.6	0.0
#Closed at: 2025-01-24 11:46:11.083920