passes_logs/2025/01/24/planumMaritime01/planumMaritime01__20250124_175544_METEOR-M2_3_rec.log

#Pass ID: 20250124_175544_METEOR-M2 3
#Satellite: METEOR-M2 3
#Configuration: METEOR-M2 3
#Start time: 2025-01-24 17:55:49.443339

#LorettStation: 1.0.0 05.05.2024
#Station: planumMaritime01
#Location: 37.49445 lon 55.92918 lat
#TLE: 1 57166U 23091A   25023.82634034  .00000085  00000+0  56339-4 0  9994
#TLE: 2 57166  98.6836  82.1812 0003643 195.3672 164.7397 14.23971493 82020

#Time	Az	El	Level	SNR
2025-01-24 17:55:51.606304	166.0	10.2	-75.0	7.5
2025-01-24 17:55:53.852481	166.0	10.4	-74.3	7.3
2025-01-24 17:55:56.099543	166.0	10.6	-74.8	5.2
2025-01-24 17:55:58.345916	166.1	10.8	-75.1	6.3
2025-01-24 17:56:00.591348	166.1	11.0	-74.9	9.5
2025-01-24 17:56:02.834885	166.1	11.2	-74.7	8.5
2025-01-24 17:56:05.081991	166.2	11.4	-74.6	8.9
2025-01-24 17:56:07.327808	166.2	11.6	-74.6	8.7
2025-01-24 17:56:09.573897	166.2	11.8	-74.7	8.5
2025-01-24 17:56:11.819193	166.3	12.0	-74.9	7.6
2025-01-24 17:56:14.067991	166.3	12.3	-74.9	7.5
2025-01-24 17:56:16.312476	166.3	12.5	-74.6	9.5
2025-01-24 17:56:18.561575	166.4	12.7	-74.5	9.2
2025-01-24 17:56:20.809653	166.4	12.9	-74.0	7.5
2025-01-24 17:56:23.054575	166.4	13.1	-75.0	9.2
2025-01-24 17:56:25.298665	166.5	13.4	-74.9	8.6
2025-01-24 17:56:27.545782	166.5	13.6	-74.7	9.9
2025-01-24 17:56:29.791811	166.6	13.8	-74.7	9.9
2025-01-24 17:56:32.037014	166.6	14.1	-74.8	9.3
2025-01-24 17:56:34.284611	166.6	14.3	-75.0	9.3
2025-01-24 17:56:36.534507	166.7	14.5	-74.7	8.3
2025-01-24 17:56:38.782098	166.7	14.8	-74.8	9.6
2025-01-24 17:56:41.029383	166.7	15.0	-74.8	10.6
2025-01-24 17:56:43.276589	166.8	15.2	-75.0	10.8
2025-01-24 17:56:45.523216	166.8	15.5	-74.9	11.0
2025-01-24 17:56:47.769218	166.9	15.7	-74.9	10.9
2025-01-24 17:56:50.015321	166.9	16.0	-74.9	10.3
2025-01-24 17:56:52.259846	166.9	16.2	-74.9	10.3
2025-01-24 17:56:54.504646	167.0	16.5	-74.2	9.0
2025-01-24 17:56:56.748425	167.0	16.8	-74.6	10.4
2025-01-24 17:56:58.997709	167.1	17.0	-74.8	10.3
2025-01-24 17:57:01.240189	167.1	17.3	-75.1	11.5
2025-01-24 17:57:03.486028	167.2	17.6	-74.9	10.8
2025-01-24 17:57:05.731774	167.2	17.8	-74.8	10.3
2025-01-24 17:57:07.977452	167.3	18.1	-74.5	9.8
2025-01-24 17:57:10.224824	167.3	18.4	-74.9	10.1
2025-01-24 17:57:12.471426	167.4	18.7	-75.1	10.8
2025-01-24 17:57:14.719331	167.4	18.9	-75.2	10.2
2025-01-24 17:57:16.963365	167.5	19.2	-74.8	9.2
2025-01-24 17:57:19.209196	167.5	19.5	-75.4	10.0
2025-01-24 17:57:21.452129	167.6	19.8	-74.8	9.6
2025-01-24 17:57:23.696307	167.6	20.1	-75.6	9.1
2025-01-24 17:57:25.941752	167.7	20.4	-74.8	7.9
2025-01-24 17:57:28.187925	167.7	20.7	-76.1	8.4
2025-01-24 17:57:30.434110	167.8	21.0	-75.7	0.0
2025-01-24 17:57:32.682032	167.8	21.3	-75.9	8.6
2025-01-24 17:57:34.929365	167.9	21.6	-74.7	6.7
2025-01-24 17:57:37.176493	167.9	22.0	-76.1	7.6
2025-01-24 17:57:39.423727	168.0	22.3	-75.3	4.4
2025-01-24 17:57:41.672171	168.1	22.6	-76.0	6.9
2025-01-24 17:57:43.915813	168.1	22.9	-75.1	6.7
2025-01-24 17:57:46.161261	168.2	23.3	-76.1	0.0
2025-01-24 17:57:48.409525	168.2	23.6	-76.3	5.8
2025-01-24 17:57:50.654834	168.3	24.0	-76.4	5.1
2025-01-24 17:57:52.898257	168.4	24.3	-76.1	6.1
2025-01-24 17:57:55.145945	168.4	24.7	-75.2	4.9
2025-01-24 17:57:57.389747	168.5	25.0	-76.6	4.1
2025-01-24 17:57:59.640462	168.6	25.4	-76.6	2.9
2025-01-24 17:58:01.885876	168.7	25.8	-76.1	3.8
2025-01-24 17:58:04.131480	168.7	26.1	-75.7	2.3
2025-01-24 17:58:06.377712	168.8	26.5	-76.7	0.5
2025-01-24 17:58:08.622923	168.9	26.9	-76.8	3.1
2025-01-24 17:58:10.868270	169.0	27.3	-76.1	1.6
2025-01-24 17:58:13.114547	169.0	27.7	-77.6	0.0
2025-01-24 17:58:15.359872	169.1	28.1	-77.6	1.9
2025-01-24 17:58:17.608066	169.2	28.5	-77.2	2.3
2025-01-24 17:58:19.852212	169.3	28.9	-77.3	0.0
2025-01-24 17:58:22.096886	169.4	29.3	-77.6	0.0
2025-01-24 17:58:24.342663	169.5	29.7	-77.4	0.0
2025-01-24 17:58:26.591752	169.6	30.2	-77.6	0.0
2025-01-24 17:58:28.838827	169.7	30.6	-77.4	0.0
2025-01-24 17:58:31.084414	169.8	31.1	-77.1	0.0
2025-01-24 17:58:33.333333	169.9	31.5	-77.8	0.0
2025-01-24 17:58:35.580257	170.0	32.0	-77.7	0.0
2025-01-24 17:58:37.826029	170.1	32.4	-78.0	0.0
2025-01-24 17:58:40.070573	170.2	32.9	-78.1	0.0
2025-01-24 17:58:42.316476	170.3	33.4	-77.8	0.0
2025-01-24 17:58:44.562651	170.4	33.9	-77.5	0.0
2025-01-24 17:58:46.808630	170.5	34.4	-77.6	0.0
2025-01-24 17:58:49.054677	170.6	34.9	-77.4	0.0
2025-01-24 17:58:51.301133	170.8	35.4	-77.0	0.0
2025-01-24 17:58:53.548782	170.9	35.9	-77.4	0.0
2025-01-24 17:58:55.793136	171.0	36.5	-76.7	0.0
2025-01-24 17:58:58.041109	171.2	37.0	-76.2	0.0
2025-01-24 17:59:00.287122	171.3	37.6	-76.2	0.0
2025-01-24 17:59:02.532245	171.5	38.1	-77.1	0.0
2025-01-24 17:59:04.776227	171.6	38.7	-77.5	0.0
2025-01-24 17:59:07.024927	171.8	39.3	-77.1	0.0
2025-01-24 17:59:09.269047	171.9	39.8	-77.8	0.0
2025-01-24 17:59:11.514593	172.1	40.4	-77.1	0.0
2025-01-24 17:59:13.761808	172.3	41.0	-77.9	0.0
2025-01-24 17:59:16.006935	172.4	41.7	-78.1	0.0
2025-01-24 17:59:18.252551	172.6	42.3	-78.3	0.0
2025-01-24 17:59:20.496922	172.8	42.9	-77.7	0.0
2025-01-24 17:59:22.743010	173.0	43.6	-77.4	0.0
2025-01-24 17:59:24.989223	173.2	44.2	-77.5	0.0
2025-01-24 17:59:27.236424	173.4	44.9	-77.0	0.0
2025-01-24 17:59:29.483164	173.7	45.6	-77.7	0.0
2025-01-24 17:59:31.727481	173.9	46.3	-77.4	0.0
2025-01-24 17:59:33.973077	174.2	47.0	-78.1	0.0
2025-01-24 17:59:36.220052	174.4	47.7	-77.9	0.0
2025-01-24 17:59:38.465777	174.7	48.4	-77.6	0.0
2025-01-24 17:59:40.713160	175.0	49.1	-76.5	0.0
2025-01-24 17:59:42.957806	175.3	49.9	-77.5	0.0
2025-01-24 17:59:45.205605	175.6	50.6	-78.2	0.0
2025-01-24 17:59:47.451471	175.9	51.4	-78.0	0.0
2025-01-24 17:59:49.697645	176.2	52.2	-78.3	0.0
2025-01-24 17:59:51.941339	176.6	53.0	-77.5	0.0
2025-01-24 17:59:54.185226	177.0	53.8	-78.2	0.0
2025-01-24 17:59:56.432557	177.4	54.6	-77.6	0.0
2025-01-24 17:59:58.679628	177.8	55.4	-77.6	0.0
2025-01-24 18:00:00.926432	178.2	56.3	-78.2	0.0
2025-01-24 18:00:03.173364	178.7	57.1	-77.4	0.0
2025-01-24 18:00:05.421281	179.2	58.0	-78.3	0.0
2025-01-24 18:00:07.668106	179.8	58.9	-76.8	0.0
2025-01-24 18:00:09.915021	180.4	59.7	-76.9	0.0
2025-01-24 18:00:12.158844	181.0	60.6	-76.7	0.0
2025-01-24 18:00:14.406739	181.6	61.5	-77.8	0.0
2025-01-24 18:00:16.656538	182.4	62.5	-78.4	0.0
2025-01-24 18:00:18.902269	183.1	63.4	-77.0	0.0
2025-01-24 18:00:21.148962	184.0	64.3	-78.4	0.0
2025-01-24 18:00:23.394604	184.9	65.2	-77.9	0.0
2025-01-24 18:00:25.637771	185.8	66.2	-78.3	0.0
2025-01-24 18:00:27.885208	186.9	67.1	-76.8	0.0
2025-01-24 18:00:30.131630	188.1	68.1	-78.0	0.0
2025-01-24 18:00:32.377678	189.4	69.0	-77.3	0.0
2025-01-24 18:00:34.622805	190.8	70.0	-76.7	0.0
2025-01-24 18:00:36.868297	192.4	70.9	-78.2	0.0
2025-01-24 18:00:39.112676	194.1	71.9	-78.3	0.0
2025-01-24 18:00:41.354976	196.0	72.8	-76.8	0.0
2025-01-24 18:00:43.600560	198.2	73.7	-77.6	0.0
2025-01-24 18:00:45.846764	200.6	74.6	-76.6	0.0
2025-01-24 18:00:48.095355	203.4	75.5	-77.1	0.0
2025-01-24 18:00:50.342395	206.5	76.3	-75.9	0.0
2025-01-24 18:00:52.587279	210.0	77.1	-76.7	0.0
2025-01-24 18:00:54.834099	213.9	77.9	-77.4	0.0
2025-01-24 18:00:57.082248	218.4	78.6	-77.6	0.0
2025-01-24 18:00:59.327827	223.5	79.2	-77.7	0.0
2025-01-24 18:01:01.573196	229.1	79.7	-78.4	0.0
2025-01-24 18:01:03.818576	235.3	80.1	-77.4	0.0
2025-01-24 18:01:06.064039	241.9	80.4	-78.0	0.0
2025-01-24 18:01:08.308520	248.9	80.6	-77.5	0.0
2025-01-24 18:01:10.553589	256.1	80.6	-77.4	0.0
2025-01-24 18:01:12.799655	263.1	80.5	-78.0	0.0
2025-01-24 18:01:15.046501	269.9	80.3	-78.3	0.0
2025-01-24 18:01:17.294238	276.3	79.9	-78.5	0.0
2025-01-24 18:01:19.541969	282.2	79.4	-78.1	0.0
2025-01-24 18:01:21.789646	287.4	78.8	-78.1	0.0
2025-01-24 18:01:24.033108	292.1	78.2	-77.2	0.0
2025-01-24 18:01:26.279806	296.3	77.4	-78.2	0.0
2025-01-24 18:01:28.522912	300.0	76.6	-77.8	0.0
2025-01-24 18:01:30.770107	303.2	75.8	-78.0	0.0
2025-01-24 18:01:33.014198	306.1	74.9	-78.1	0.0
2025-01-24 18:01:35.258270	308.7	74.1	-78.0	0.0
2025-01-24 18:01:37.504727	310.9	73.2	-78.3	0.0
2025-01-24 18:01:39.750588	312.9	72.2	-77.7	0.0
2025-01-24 18:01:41.997689	314.8	71.3	-77.6	0.0
2025-01-24 18:01:44.244302	316.4	70.4	-77.1	0.0
2025-01-24 18:01:46.492266	317.9	69.4	-78.1	0.0
2025-01-24 18:01:48.738803	319.2	68.5	-77.6	0.0
2025-01-24 18:01:50.985889	320.4	67.5	-78.0	0.0
2025-01-24 18:01:53.230880	321.5	66.6	-78.5	0.0
2025-01-24 18:01:55.478705	322.5	65.6	-78.3	0.0
2025-01-24 18:01:57.724758	323.5	64.7	-78.2	0.0
2025-01-24 18:01:59.970221	324.3	63.8	-78.5	0.0
2025-01-24 18:02:02.217251	325.1	62.9	-78.2	0.0
2025-01-24 18:02:04.463450	325.9	61.9	-78.4	0.0
2025-01-24 18:02:06.712026	326.5	61.0	-78.3	0.0
2025-01-24 18:02:08.958478	327.2	60.1	-78.4	0.0
2025-01-24 18:02:11.206529	327.8	59.3	-78.6	0.0
2025-01-24 18:02:13.454052	328.3	58.4	-78.7	0.0
2025-01-24 18:02:15.699659	328.9	57.5	-77.2	0.0
2025-01-24 18:02:17.947290	329.3	56.7	-78.2	0.0
2025-01-24 18:02:20.192884	329.8	55.8	-78.2	0.0
2025-01-24 18:02:22.438326	330.2	55.0	-78.0	0.0
2025-01-24 18:02:24.684038	330.7	54.2	-78.3	0.0
2025-01-24 18:02:26.929008	331.0	53.4	-78.1	0.0
2025-01-24 18:02:29.175648	331.4	52.6	-78.1	0.0
2025-01-24 18:02:31.421661	331.8	51.8	-78.5	0.0
2025-01-24 18:02:33.669581	332.1	51.0	-78.3	0.0
2025-01-24 18:02:35.917416	332.4	50.2	-77.6	0.0
2025-01-24 18:02:38.163835	332.7	49.5	-78.0	0.0
2025-01-24 18:02:40.411309	333.0	48.7	-78.4	0.0
2025-01-24 18:02:42.654504	333.3	48.0	-78.6	0.0
2025-01-24 18:02:44.898732	333.5	47.3	-78.0	0.0
2025-01-24 18:02:47.142357	333.8	46.6	-78.4	0.0
2025-01-24 18:02:49.386301	334.0	45.9	-77.9	0.0
2025-01-24 18:02:51.632052	334.3	45.2	-77.2	0.0
2025-01-24 18:02:53.879018	334.5	44.6	-77.7	0.0
2025-01-24 18:02:56.125064	334.7	43.9	-78.2	0.0
2025-01-24 18:02:58.370331	334.9	43.3	-78.6	0.0
2025-01-24 18:03:00.615277	335.1	42.6	-78.0	0.0
2025-01-24 18:03:02.862040	335.3	42.0	-77.4	0.0
2025-01-24 18:03:05.111032	335.5	41.4	-78.5	0.0
2025-01-24 18:03:07.357691	335.6	40.8	-78.0	0.0
2025-01-24 18:03:09.601596	335.8	40.2	-78.4	0.0
2025-01-24 18:03:11.848126	336.0	39.6	-77.8	0.0
2025-01-24 18:03:14.094017	336.1	39.0	-77.6	0.0
2025-01-24 18:03:16.341045	336.3	38.4	-78.3	0.0
2025-01-24 18:03:18.586008	336.4	37.9	-78.6	0.0
2025-01-24 18:03:20.833168	336.6	37.3	-78.7	0.0
2025-01-24 18:03:23.079262	336.7	36.8	-77.7	0.0
2025-01-24 18:03:25.322402	336.8	36.3	-77.8	0.0
2025-01-24 18:03:27.567358	337.0	35.7	-77.0	0.0
2025-01-24 18:03:29.815668	337.1	35.2	-78.8	0.0
2025-01-24 18:03:32.062435	337.2	34.7	-78.1	0.0
2025-01-24 18:03:34.309360	337.4	34.2	-78.4	0.0
2025-01-24 18:03:36.557405	337.5	33.7	-78.8	0.0
2025-01-24 18:03:38.802961	337.6	33.2	-78.5	0.0
2025-01-24 18:03:41.052507	337.7	32.8	-78.6	0.0
2025-01-24 18:03:43.294940	337.8	32.3	-78.7	0.0
2025-01-24 18:03:45.543177	337.9	31.8	-78.2	0.0
2025-01-24 18:03:47.788923	338.0	31.4	-77.2	0.0
2025-01-24 18:03:50.034676	338.1	30.9	-77.6	0.0
2025-01-24 18:03:52.284376	338.2	30.5	-78.1	0.0
2025-01-24 18:03:54.529542	338.3	30.1	-78.6	0.0
2025-01-24 18:03:56.777394	338.4	29.6	-77.6	0.0
2025-01-24 18:03:59.023375	338.5	29.2	-76.5	0.0
2025-01-24 18:04:01.271114	338.6	28.8	-78.5	0.0
2025-01-24 18:04:03.516495	338.7	28.4	-78.4	0.0
2025-01-24 18:04:05.762260	338.7	28.0	-78.5	0.0
2025-01-24 18:04:08.008811	338.8	27.6	-78.5	0.0
2025-01-24 18:04:10.252649	338.9	27.2	-78.6	0.0
2025-01-24 18:04:12.498061	339.0	26.8	-77.2	0.0
2025-01-24 18:04:14.746235	339.1	26.4	-77.9	0.0
2025-01-24 18:04:16.993482	339.1	26.0	-77.5	0.0
2025-01-24 18:04:19.238944	339.2	25.7	-77.1	0.0
2025-01-24 18:04:21.485665	339.3	25.3	-78.3	0.0
2025-01-24 18:04:23.732488	339.4	24.9	-76.7	0.0
2025-01-24 18:04:25.976972	339.4	24.6	-77.8	0.0
2025-01-24 18:04:28.220901	339.5	24.2	-78.2	0.0
2025-01-24 18:04:30.466196	339.6	23.9	-76.9	0.0
2025-01-24 18:04:32.710630	339.6	23.6	-77.6	0.0
2025-01-24 18:04:34.958369	339.7	23.2	-78.2	0.0
2025-01-24 18:04:37.202765	339.7	22.9	-77.8	0.0
2025-01-24 18:04:39.450581	339.8	22.6	-77.9	0.0
2025-01-24 18:04:41.695748	339.9	22.2	-77.3	0.0
2025-01-24 18:04:43.943252	339.9	21.9	-77.6	0.0
2025-01-24 18:04:46.189538	340.0	21.6	-77.9	0.0
2025-01-24 18:04:48.434495	340.0	21.3	-78.3	0.0
2025-01-24 18:04:50.684874	340.1	21.0	-78.3	0.0
2025-01-24 18:04:52.926712	340.2	20.7	-77.9	0.0
2025-01-24 18:04:55.172365	340.2	20.4	-78.3	0.0
2025-01-24 18:04:57.420833	340.3	20.1	-77.6	0.0
2025-01-24 18:04:59.667927	340.3	19.8	-77.5	0.0
2025-01-24 18:05:01.914327	340.4	19.5	-78.3	0.0
2025-01-24 18:05:04.160631	340.4	19.2	-77.6	0.0
2025-01-24 18:05:06.404594	340.5	18.9	-77.9	0.0
2025-01-24 18:05:08.649245	340.5	18.6	-77.9	0.0
2025-01-24 18:05:10.893571	340.6	18.4	-78.3	0.0
2025-01-24 18:05:13.137947	340.6	18.1	-76.2	0.0
2025-01-24 18:05:15.383826	340.7	17.8	-77.0	0.0
2025-01-24 18:05:17.630734	340.7	17.6	-78.6	0.0
2025-01-24 18:05:19.880184	340.8	17.3	-78.1	0.0
2025-01-24 18:05:22.126894	340.8	17.0	-78.6	0.0
2025-01-24 18:05:24.373161	340.9	16.8	-77.7	0.0
2025-01-24 18:05:26.619434	340.9	16.5	-77.8	0.0
2025-01-24 18:05:28.864591	341.0	16.3	-78.4	0.0
2025-01-24 18:05:31.109109	341.0	16.0	-78.2	0.0
2025-01-24 18:05:33.351864	341.0	15.8	-78.3	0.0
2025-01-24 18:05:35.595277	341.1	15.5	-77.4	0.0
2025-01-24 18:05:37.841179	341.1	15.3	-78.4	0.0
2025-01-24 18:05:40.089389	341.2	15.0	-78.4	0.0
2025-01-24 18:05:42.333995	341.2	14.8	-78.4	0.0
2025-01-24 18:05:44.581668	341.2	14.6	-78.7	0.0
2025-01-24 18:05:46.828979	341.3	14.3	-78.4	0.0
2025-01-24 18:05:49.072969	341.3	14.1	-78.5	0.0
2025-01-24 18:05:51.318897	341.4	13.9	-78.5	0.0
2025-01-24 18:05:53.561378	341.4	13.6	-78.4	0.0
2025-01-24 18:05:55.807230	341.4	13.4	-77.2	0.0
2025-01-24 18:05:58.054837	341.5	13.2	-78.5	0.0
2025-01-24 18:06:00.301338	341.5	13.0	-78.5	0.0
2025-01-24 18:06:02.546853	341.6	12.7	-78.4	0.0
2025-01-24 18:06:04.790643	341.6	12.5	-78.7	0.0
2025-01-24 18:06:07.037660	341.6	12.3	-78.0	0.0
2025-01-24 18:06:09.282947	341.7	12.1	-78.3	0.0
2025-01-24 18:06:11.524418	341.7	11.9	-78.6	0.0
2025-01-24 18:06:13.769662	341.7	11.7	-78.3	0.0
2025-01-24 18:06:16.014570	341.8	11.5	-78.6	0.0
2025-01-24 18:06:18.259807	341.8	11.3	-78.3	0.0
2025-01-24 18:06:20.507653	341.8	11.1	-78.7	0.0
2025-01-24 18:06:22.755795	341.9	10.9	-78.6	0.0
2025-01-24 18:06:25.000517	341.9	10.7	-78.7	0.0
2025-01-24 18:06:27.245166	341.9	10.5	-78.4	0.0
2025-01-24 18:06:29.488982	342.0	10.3	-78.8	0.0
#Closed at: 2025-01-24 17:55:44.447575