passes_logs/2025/01/24/planumMaritime01/planumMaritime01__20250124_173433_METOP-C_rec.log

#Pass ID: 20250124_173433_METOP-C
#Satellite: METOP-C
#Configuration: METOP-C
#Start time: 2025-01-24 17:34:38.185015

#LorettStation: 1.0.0 05.05.2024
#Station: planumMaritime01
#Location: 37.49445 lon 55.92918 lat
#TLE: 1 43689U 18087A   25023.80960871  .00000345  00000+0  17780-3 0  9992
#TLE: 2 43689  98.6952  86.1699 0001813 148.0530 212.0757 14.21487618322467

#Time	Az	El	Level	SNR
2025-01-24 17:34:40.353180	143.9	10.2	-74.9	0.0
2025-01-24 17:34:42.599569	143.8	10.4	-74.4	0.0
2025-01-24 17:34:44.845461	143.7	10.6	-75.8	0.0
2025-01-24 17:34:47.090572	143.7	10.8	-75.7	0.0
2025-01-24 17:34:49.339625	143.6	11.0	-76.1	0.0
2025-01-24 17:34:51.585844	143.5	11.2	-75.6	0.0
2025-01-24 17:34:53.828993	143.4	11.4	-75.8	0.3
2025-01-24 17:34:56.080225	143.3	11.6	-75.7	2.0
2025-01-24 17:34:58.323712	143.2	11.8	-75.8	0.0
2025-01-24 17:35:00.571172	143.2	12.0	-75.8	0.0
2025-01-24 17:35:02.814965	143.1	12.2	-76.0	0.6
2025-01-24 17:35:05.060516	143.0	12.4	-75.8	0.0
2025-01-24 17:35:07.308118	142.9	12.6	-76.0	0.0
2025-01-24 17:35:09.554833	142.8	12.9	-76.1	0.0
2025-01-24 17:35:11.801520	142.7	13.1	-75.7	0.3
2025-01-24 17:35:14.046966	142.6	13.3	-76.0	1.4
2025-01-24 17:35:16.291133	142.5	13.5	-75.9	2.4
2025-01-24 17:35:18.535190	142.4	13.7	-75.2	0.0
2025-01-24 17:35:20.781096	142.3	14.0	-75.8	1.6
2025-01-24 17:35:23.026177	142.2	14.2	-75.8	1.8
2025-01-24 17:35:25.272853	142.1	14.4	-75.9	0.0
2025-01-24 17:35:27.521132	142.0	14.6	-75.8	0.0
2025-01-24 17:35:29.766409	141.9	14.9	-75.7	0.0
2025-01-24 17:35:32.011637	141.8	15.1	-76.2	0.0
2025-01-24 17:35:34.256186	141.6	15.3	-76.0	0.2
2025-01-24 17:35:36.499447	141.5	15.6	-75.7	0.0
2025-01-24 17:35:38.744786	141.4	15.8	-75.6	0.0
2025-01-24 17:35:40.990948	141.3	16.1	-76.5	0.0
2025-01-24 17:35:43.238835	141.2	16.3	-76.6	0.0
2025-01-24 17:35:45.486602	141.1	16.6	-76.3	0.0
2025-01-24 17:35:47.732178	140.9	16.8	-76.1	0.0
2025-01-24 17:35:49.980146	140.8	17.1	-76.6	0.0
2025-01-24 17:35:52.227339	140.7	17.3	-76.7	0.0
2025-01-24 17:35:54.473564	140.5	17.6	-76.2	0.0
2025-01-24 17:35:56.718272	140.4	17.9	-77.0	0.0
2025-01-24 17:35:58.962681	140.3	18.1	-77.2	0.0
2025-01-24 17:36:01.208639	140.1	18.4	-76.9	0.0
2025-01-24 17:36:03.455190	140.0	18.7	-77.0	0.0
2025-01-24 17:36:05.698034	139.9	18.9	-77.1	0.0
2025-01-24 17:36:07.943292	139.7	19.2	-77.4	0.0
2025-01-24 17:36:10.189525	139.6	19.5	-77.3	0.0
2025-01-24 17:36:12.434858	139.4	19.8	-77.0	0.0
2025-01-24 17:36:14.681413	139.3	20.0	-77.7	0.0
2025-01-24 17:36:16.929222	139.1	20.3	-77.2	0.0
2025-01-24 17:36:19.175209	138.9	20.6	-77.4	0.0
2025-01-24 17:36:21.419236	138.8	20.9	-77.4	0.0
2025-01-24 17:36:23.669049	138.6	21.2	-77.5	0.0
2025-01-24 17:36:25.912096	138.4	21.5	-77.5	0.0
2025-01-24 17:36:28.160242	138.3	21.8	-77.5	0.0
2025-01-24 17:36:30.407152	138.1	22.1	-77.8	0.0
2025-01-24 17:36:32.653992	137.9	22.4	-77.4	0.0
2025-01-24 17:36:34.898852	137.7	22.7	-77.7	0.0
2025-01-24 17:36:37.146125	137.5	23.1	-77.5	0.0
2025-01-24 17:36:39.392124	137.3	23.4	-77.4	0.0
2025-01-24 17:36:41.636839	137.1	23.7	-77.4	0.0
2025-01-24 17:36:43.882673	136.9	24.0	-77.6	0.0
2025-01-24 17:36:46.128547	136.7	24.4	-77.8	0.0
2025-01-24 17:36:48.375732	136.5	24.7	-77.0	0.0
2025-01-24 17:36:50.622847	136.3	25.0	-77.3	0.0
2025-01-24 17:36:52.866903	136.1	25.4	-77.2	0.0
2025-01-24 17:36:55.114537	135.8	25.7	-77.1	0.0
2025-01-24 17:36:57.358954	135.6	26.1	-76.6	0.0
2025-01-24 17:36:59.605586	135.4	26.4	-77.3	0.0
2025-01-24 17:37:01.852111	135.1	26.8	-77.4	0.0
2025-01-24 17:37:04.098557	134.9	27.2	-77.0	0.0
2025-01-24 17:37:06.345267	134.6	27.5	-76.9	0.0
2025-01-24 17:37:08.589223	134.4	27.9	-77.4	0.0
2025-01-24 17:37:10.833821	134.1	28.3	-73.9	0.0
2025-01-24 17:37:13.081378	133.8	28.7	-76.6	0.0
2025-01-24 17:37:15.330090	133.6	29.1	-76.5	0.0
2025-01-24 17:37:17.573549	133.3	29.4	-76.1	0.0
2025-01-24 17:37:19.819314	133.0	29.8	-76.1	0.0
2025-01-24 17:37:22.065875	132.7	30.2	-76.1	0.0
2025-01-24 17:37:24.313113	132.4	30.7	-76.7	0.0
2025-01-24 17:37:26.559910	132.1	31.1	-77.0	0.0
2025-01-24 17:37:28.804291	131.7	31.5	-76.9	0.0
2025-01-24 17:37:31.050712	131.4	31.9	-76.9	0.0
2025-01-24 17:37:33.297405	131.1	32.3	-76.9	0.0
2025-01-24 17:37:35.544824	130.7	32.8	-76.7	0.0
2025-01-24 17:37:37.789021	130.4	33.2	-77.0	0.0
2025-01-24 17:37:40.035353	130.0	33.6	-76.9	0.0
2025-01-24 17:37:42.283506	129.6	34.1	-76.7	0.0
2025-01-24 17:37:44.526861	129.2	34.5	-77.0	0.0
2025-01-24 17:37:46.772706	128.8	35.0	-77.3	0.0
2025-01-24 17:37:49.018347	128.4	35.4	-77.3	0.0
2025-01-24 17:37:51.267508	128.0	35.9	-77.4	0.0
2025-01-24 17:37:53.515831	127.5	36.4	-77.3	0.0
2025-01-24 17:37:55.758591	127.1	36.8	-77.6	0.0
2025-01-24 17:37:58.007485	126.6	37.3	-76.9	0.0
2025-01-24 17:38:00.252628	126.1	37.8	-76.9	0.0
2025-01-24 17:38:02.496915	125.6	38.3	-77.5	0.0
2025-01-24 17:38:04.746825	125.1	38.8	-77.4	0.0
2025-01-24 17:38:06.993193	124.6	39.3	-76.9	0.0
2025-01-24 17:38:09.238114	124.1	39.8	-77.4	0.0
2025-01-24 17:38:11.483771	123.5	40.3	-76.9	0.0
2025-01-24 17:38:13.730807	122.9	40.8	-76.9	0.0
2025-01-24 17:38:15.979660	122.3	41.3	-77.6	0.0
2025-01-24 17:38:18.227907	121.7	41.8	-77.6	0.0
2025-01-24 17:38:20.475912	121.1	42.4	-77.4	0.0
2025-01-24 17:38:22.723607	120.4	42.9	-77.8	0.0
2025-01-24 17:38:24.968671	119.7	43.4	-77.7	0.0
2025-01-24 17:38:27.212597	119.0	43.9	-76.8	0.0
2025-01-24 17:38:29.459820	118.3	44.5	-77.4	0.0
2025-01-24 17:38:31.704102	117.6	45.0	-77.7	0.0
2025-01-24 17:38:33.951468	116.8	45.5	-77.2	0.0
2025-01-24 17:38:36.197263	116.0	46.1	-77.1	0.0
2025-01-24 17:38:38.442609	115.1	46.6	-77.7	0.0
2025-01-24 17:38:40.688872	114.3	47.1	-78.1	0.0
2025-01-24 17:38:42.933079	113.4	47.7	-78.2	0.0
2025-01-24 17:38:45.179607	112.5	48.2	-78.1	0.0
2025-01-24 17:38:47.426172	111.5	48.8	-77.3	0.0
2025-01-24 17:38:49.672054	110.5	49.3	-77.4	0.0
2025-01-24 17:38:51.919921	109.5	49.8	-78.1	0.0
2025-01-24 17:38:54.167274	108.4	50.3	-77.8	0.0
2025-01-24 17:38:56.414862	107.3	50.9	-77.9	0.0
2025-01-24 17:38:58.664792	106.2	51.4	-78.1	0.0
2025-01-24 17:39:00.914281	105.0	51.9	-78.0	0.0
2025-01-24 17:39:03.161124	103.8	52.4	-77.8	0.0
2025-01-24 17:39:05.408163	102.6	52.9	-77.8	0.0
2025-01-24 17:39:07.653705	101.3	53.3	-77.9	0.0
2025-01-24 17:39:09.900988	99.9	53.8	-76.7	0.0
2025-01-24 17:39:12.146887	98.5	54.3	-77.5	0.0
2025-01-24 17:39:14.391750	97.1	54.7	-77.1	0.0
2025-01-24 17:39:16.637973	95.6	55.1	-77.1	0.0
2025-01-24 17:39:18.885697	94.1	55.6	-77.3	0.0
2025-01-24 17:39:21.132873	92.5	55.9	-77.5	0.0
2025-01-24 17:39:23.378961	90.9	56.3	-77.2	0.0
2025-01-24 17:39:25.626576	89.3	56.7	-77.2	0.0
2025-01-24 17:39:27.874328	87.6	57.0	-77.2	0.0
2025-01-24 17:39:30.120872	85.8	57.3	-77.8	0.0
2025-01-24 17:39:32.369123	84.1	57.6	-77.8	0.0
2025-01-24 17:39:34.613305	82.3	57.9	-78.1	0.0
2025-01-24 17:39:36.860965	80.4	58.1	-77.8	0.0
2025-01-24 17:39:39.107588	78.5	58.3	-77.9	0.0
2025-01-24 17:39:41.354094	76.6	58.5	-78.2	0.0
2025-01-24 17:39:43.600300	74.7	58.6	-78.3	0.0
2025-01-24 17:39:45.849092	72.8	58.8	-78.2	0.0
2025-01-24 17:39:48.097647	70.8	58.9	-78.5	0.0
2025-01-24 17:39:50.339653	68.8	58.9	-77.9	0.0
2025-01-24 17:39:52.585050	66.9	58.9	-78.1	0.0
2025-01-24 17:39:54.830841	64.9	58.9	-77.9	0.0
2025-01-24 17:39:57.078767	62.9	58.9	-77.9	0.0
2025-01-24 17:39:59.322813	60.9	58.8	-78.2	0.0
2025-01-24 17:40:01.566233	59.0	58.7	-78.1	0.0
2025-01-24 17:40:03.814397	57.0	58.6	-78.3	0.0
2025-01-24 17:40:06.058756	55.1	58.4	-78.5	0.0
2025-01-24 17:40:08.307501	53.2	58.3	-78.4	0.0
2025-01-24 17:40:10.552858	51.4	58.0	-78.6	0.0
2025-01-24 17:40:12.798962	49.5	57.8	-78.4	0.0
2025-01-24 17:40:15.046834	47.7	57.5	-78.3	0.0
2025-01-24 17:40:17.293735	46.0	57.2	-78.1	0.0
2025-01-24 17:40:19.540198	44.3	56.9	-78.6	0.0
2025-01-24 17:40:21.786678	42.6	56.6	-78.1	0.0
2025-01-24 17:40:24.033369	40.9	56.2	-78.2	0.0
2025-01-24 17:40:26.279070	39.4	55.8	-78.0	0.0
2025-01-24 17:40:28.524087	37.8	55.4	-77.5	0.0
2025-01-24 17:40:30.767444	36.3	55.0	-77.8	0.0
2025-01-24 17:40:33.013873	34.8	54.6	-77.9	0.0
2025-01-24 17:40:35.260227	33.4	54.1	-78.5	0.0
2025-01-24 17:40:37.504456	32.1	53.7	-78.3	0.0
2025-01-24 17:40:39.752004	30.7	53.2	-77.9	0.0
2025-01-24 17:40:42.000032	29.4	52.7	-77.8	0.0
2025-01-24 17:40:44.245525	28.2	52.2	-77.0	0.0
2025-01-24 17:40:46.494130	27.0	51.7	-72.7	0.0
2025-01-24 17:40:48.741857	25.8	51.2	-77.5	0.0
2025-01-24 17:40:50.990589	24.7	50.7	-77.4	0.0
2025-01-24 17:40:53.235438	23.6	50.2	-77.6	0.0
2025-01-24 17:40:55.483700	22.6	49.7	-77.2	0.0
2025-01-24 17:40:57.730521	21.6	49.2	-77.5	0.0
2025-01-24 17:40:59.978731	20.6	48.6	-77.3	0.0
2025-01-24 17:41:02.223912	19.6	48.1	-78.4	0.0
2025-01-24 17:41:04.472221	18.7	47.6	-78.4	0.0
2025-01-24 17:41:06.719172	17.9	47.0	-78.6	0.0
2025-01-24 17:41:08.964517	17.0	46.5	-77.0	0.0
2025-01-24 17:41:11.213193	16.2	45.9	-78.4	0.0
2025-01-24 17:41:13.461125	15.4	45.4	-77.9	0.0
2025-01-24 17:41:15.705968	14.6	44.9	-77.4	0.0
2025-01-24 17:41:17.950430	13.9	44.3	-77.7	0.0
2025-01-24 17:41:20.195233	13.2	43.8	-77.9	0.0
2025-01-24 17:41:22.442147	12.5	43.3	-78.0	0.0
2025-01-24 17:41:24.688707	11.8	42.8	-77.0	0.0
2025-01-24 17:41:26.934860	11.1	42.2	-77.6	0.0
2025-01-24 17:41:29.182769	10.5	41.7	-78.0	0.0
2025-01-24 17:41:31.433697	9.9	41.2	-78.2	0.0
2025-01-24 17:41:33.682194	9.3	40.7	-77.5	0.0
2025-01-24 17:41:35.929856	8.7	40.2	-77.4	0.0
2025-01-24 17:41:38.175837	8.2	39.7	-77.5	0.0
2025-01-24 17:41:40.423945	7.7	39.2	-78.2	0.0
2025-01-24 17:41:42.671958	7.1	38.7	-77.7	0.0
2025-01-24 17:41:44.917141	6.6	38.2	-78.0	0.0
2025-01-24 17:41:47.158032	6.1	37.7	-77.5	0.0
2025-01-24 17:41:49.403275	5.7	37.2	-78.4	0.0
2025-01-24 17:41:51.647395	5.2	36.8	-77.9	0.0
2025-01-24 17:41:53.894861	4.8	36.3	-76.6	0.0
2025-01-24 17:41:56.139838	4.3	35.8	-78.2	0.0
2025-01-24 17:41:58.386468	3.9	35.4	-77.5	0.0
2025-01-24 17:42:00.632425	3.5	34.9	-77.2	0.0
2025-01-24 17:42:02.878236	3.1	34.5	-78.1	0.0
2025-01-24 17:42:05.125686	2.7	34.0	-78.6	0.0
2025-01-24 17:42:07.374619	2.3	33.6	-78.4	0.0
2025-01-24 17:42:09.619157	2.0	33.1	-78.5	0.0
2025-01-24 17:42:11.870985	1.6	32.7	-78.1	0.0
2025-01-24 17:42:14.117892	1.3	32.3	-78.3	0.0
2025-01-24 17:42:16.367360	0.9	31.9	-78.1	0.0
2025-01-24 17:42:18.615165	0.6	31.4	-78.1	0.0
2025-01-24 17:42:20.859969	0.3	31.0	-78.7	0.0
2025-01-24 17:42:23.104260	360.0	30.6	-77.5	0.0
2025-01-24 17:42:25.350532	359.7	30.2	-77.7	0.0
2025-01-24 17:42:27.597173	359.4	29.8	-77.8	0.0
2025-01-24 17:42:29.841945	359.1	29.4	-77.8	0.0
2025-01-24 17:42:32.087753	358.8	29.0	-78.6	0.0
2025-01-24 17:42:34.334181	358.5	28.7	-77.7	0.0
2025-01-24 17:42:36.580960	358.3	28.3	-78.0	0.0
2025-01-24 17:42:38.827698	358.0	27.9	-78.0	0.0
2025-01-24 17:42:41.072519	357.7	27.5	-77.8	0.0
2025-01-24 17:42:43.320593	357.5	27.2	-78.3	0.0
2025-01-24 17:42:45.567419	357.2	26.8	-78.7	0.0
2025-01-24 17:42:47.814670	357.0	26.4	-77.5	0.0
2025-01-24 17:42:50.060409	356.8	26.1	-78.4	0.0
2025-01-24 17:42:52.308381	356.5	25.7	-77.4	0.0
2025-01-24 17:42:54.553018	356.3	25.4	-77.7	0.0
2025-01-24 17:42:56.794177	356.1	25.1	-78.3	0.0
2025-01-24 17:42:59.042969	355.9	24.7	-78.0	0.0
2025-01-24 17:43:01.288338	355.7	24.4	-78.0	0.0
2025-01-24 17:43:03.534390	355.5	24.1	-78.3	0.0
2025-01-24 17:43:05.781418	355.3	23.7	-77.9	0.0
2025-01-24 17:43:08.028337	355.1	23.4	-78.6	0.0
2025-01-24 17:43:10.274889	354.9	23.1	-78.7	0.0
2025-01-24 17:43:12.522594	354.7	22.8	-78.1	0.0
2025-01-24 17:43:14.767662	354.5	22.5	-77.9	0.0
2025-01-24 17:43:17.013758	354.4	22.1	-78.6	0.0
2025-01-24 17:43:19.258399	354.2	21.8	-78.3	0.0
2025-01-24 17:43:21.502149	354.0	21.5	-77.9	0.0
2025-01-24 17:43:23.750064	353.8	21.2	-78.0	0.0
2025-01-24 17:43:25.996909	353.7	20.9	-77.9	0.0
2025-01-24 17:43:28.239498	353.5	20.7	-78.6	0.0
2025-01-24 17:43:30.483589	353.4	20.4	-77.9	0.0
2025-01-24 17:43:32.725587	353.2	20.1	-78.5	0.0
2025-01-24 17:43:34.973021	353.0	19.8	-78.0	0.0
2025-01-24 17:43:37.218585	352.9	19.5	-77.7	0.0
2025-01-24 17:43:39.461878	352.7	19.2	-77.9	0.0
2025-01-24 17:43:41.705899	352.6	19.0	-78.1	0.0
2025-01-24 17:43:43.954628	352.5	18.7	-78.2	0.0
2025-01-24 17:43:46.200454	352.3	18.4	-78.4	0.0
2025-01-24 17:43:48.444827	352.2	18.2	-78.4	0.0
2025-01-24 17:43:50.691314	352.1	17.9	-78.6	0.0
2025-01-24 17:43:52.936495	351.9	17.6	-78.6	0.0
2025-01-24 17:43:55.183655	351.8	17.4	-77.8	0.0
2025-01-24 17:43:57.427002	351.7	17.1	-77.4	0.0
2025-01-24 17:43:59.673368	351.5	16.9	-77.5	0.0
2025-01-24 17:44:01.920691	351.4	16.6	-77.7	0.0
2025-01-24 17:44:04.167838	351.3	16.4	-78.6	0.0
2025-01-24 17:44:06.417530	351.2	16.1	-78.4	0.0
2025-01-24 17:44:08.663450	351.1	15.9	-78.3	0.0
2025-01-24 17:44:10.907746	351.0	15.7	-78.7	0.0
2025-01-24 17:44:13.154961	350.8	15.4	-78.5	0.0
2025-01-24 17:44:15.400135	350.7	15.2	-78.3	0.0
2025-01-24 17:44:17.644077	350.6	14.9	-77.7	0.0
2025-01-24 17:44:19.887858	350.5	14.7	-78.3	0.0
2025-01-24 17:44:22.133453	350.4	14.5	-77.7	0.0
2025-01-24 17:44:24.379951	350.3	14.3	-78.1	0.0
2025-01-24 17:44:26.622898	350.2	14.0	-75.6	0.0
2025-01-24 17:44:28.870106	350.1	13.8	-77.6	0.0
2025-01-24 17:44:31.116600	350.0	13.6	-77.6	0.0
2025-01-24 17:44:33.362061	349.9	13.4	-77.1	0.0
2025-01-24 17:44:35.608503	349.8	13.1	-77.3	0.0
2025-01-24 17:44:37.857659	349.7	12.9	-77.6	0.0
2025-01-24 17:44:40.105380	349.6	12.7	-78.3	0.0
2025-01-24 17:44:42.353182	349.5	12.5	-77.8	0.0
2025-01-24 17:44:44.600386	349.5	12.3	-78.3	0.0
2025-01-24 17:44:46.846683	349.4	12.1	-78.1	0.0
2025-01-24 17:44:49.093373	349.3	11.9	-78.4	0.0
2025-01-24 17:44:51.340670	349.2	11.7	-78.3	0.0
2025-01-24 17:44:53.587632	349.1	11.5	-77.9	0.0
2025-01-24 17:44:55.835888	349.0	11.3	-77.6	0.0
2025-01-24 17:44:58.084440	349.0	11.1	-77.6	0.0
2025-01-24 17:45:00.330084	348.9	10.9	-77.8	0.0
2025-01-24 17:45:02.578151	348.8	10.7	-78.4	0.0
2025-01-24 17:45:04.824779	348.7	10.5	-77.8	0.0
2025-01-24 17:45:07.071371	348.6	10.3	-77.5	0.0
2025-01-24 17:45:09.319418	348.6	10.1	-78.4	0.0
#Closed at: 2025-01-24 17:34:33.190228