passes_logs/2025/01/24/planumMaritime01/planumMaritime01__20250124_071056_NOAA_19_rec.log

#Pass ID: 20250124_071056_NOAA 19
#Satellite: NOAA 19
#Configuration: NOAA 19
#Start time: 2025-01-24 07:11:01.180538

#LorettStation: 1.0.0 05.05.2024
#Station: planumMaritime01
#Location: 37.49445 lon 55.92918 lat
#TLE: 1 33591U 09005A   25023.78299149  .00000396  00000+0  23548-3 0  9998
#TLE: 2 33591  99.0182  87.6127 0014154  33.7555 326.4515 14.13267063822782

#Time	Az	El	Level	SNR
2025-01-24 07:11:03.350444	25.7	10.2	-76.7	0.0
2025-01-24 07:11:05.593229	25.8	10.4	-76.7	0.0
2025-01-24 07:11:07.840137	25.9	10.5	-76.5	0.0
2025-01-24 07:11:10.085194	26.1	10.7	-76.8	0.0
2025-01-24 07:11:12.330744	26.2	10.9	-76.7	0.0
2025-01-24 07:11:14.576758	26.3	11.1	-76.7	0.0
2025-01-24 07:11:16.823128	26.5	11.3	-76.5	0.0
2025-01-24 07:11:19.067932	26.6	11.5	-76.3	0.0
2025-01-24 07:11:21.316435	26.8	11.7	-76.7	0.0
2025-01-24 07:11:23.563035	26.9	11.9	-76.2	0.0
2025-01-24 07:11:25.809668	27.1	12.1	-76.1	0.0
2025-01-24 07:11:28.053218	27.2	12.3	-76.8	0.0
2025-01-24 07:11:30.299421	27.4	12.5	-75.6	0.0
2025-01-24 07:11:32.547761	27.5	12.7	-76.8	0.0
2025-01-24 07:11:34.794572	27.7	12.9	-76.7	0.0
2025-01-24 07:11:37.038777	27.9	13.1	-76.4	0.0
2025-01-24 07:11:39.283116	28.0	13.3	-76.6	0.0
2025-01-24 07:11:41.526920	28.2	13.5	-76.7	0.0
2025-01-24 07:11:43.772395	28.4	13.7	-76.7	0.0
2025-01-24 07:11:46.019192	28.5	13.9	-76.5	0.0
2025-01-24 07:11:48.263263	28.7	14.1	-76.7	0.0
2025-01-24 07:11:50.507250	28.9	14.3	-76.7	0.0
2025-01-24 07:11:52.753761	29.0	14.5	-76.0	0.0
2025-01-24 07:11:55.001556	29.2	14.7	-75.8	0.0
2025-01-24 07:11:57.245920	29.4	15.0	-76.7	0.0
2025-01-24 07:11:59.495170	29.6	15.2	-76.2	0.0
2025-01-24 07:12:01.743010	29.8	15.4	-76.4	0.0
2025-01-24 07:12:03.989075	30.0	15.6	-76.5	0.0
2025-01-24 07:12:06.233878	30.2	15.8	-76.9	0.0
2025-01-24 07:12:08.479915	30.3	16.1	-76.2	0.0
2025-01-24 07:12:10.724261	30.5	16.3	-76.9	0.0
2025-01-24 07:12:12.971486	30.7	16.5	-76.5	0.0
2025-01-24 07:12:15.216264	30.9	16.8	-76.7	0.0
2025-01-24 07:12:17.460403	31.1	17.0	-77.0	0.0
2025-01-24 07:12:19.706540	31.4	17.2	-76.9	0.0
2025-01-24 07:12:21.955735	31.6	17.5	-76.6	0.0
2025-01-24 07:12:24.202312	31.8	17.7	-76.6	0.0
2025-01-24 07:12:26.448253	32.0	17.9	-76.6	0.0
2025-01-24 07:12:28.693693	32.2	18.2	-76.2	0.0
2025-01-24 07:12:30.940653	32.4	18.4	-76.9	0.0
2025-01-24 07:12:33.188802	32.7	18.7	-77.0	0.0
2025-01-24 07:12:35.435890	32.9	18.9	-76.8	0.0
2025-01-24 07:12:37.679304	33.1	19.2	-77.1	0.0
2025-01-24 07:12:39.925431	33.4	19.4	-76.5	0.0
2025-01-24 07:12:42.171474	33.6	19.7	-76.9	0.0
2025-01-24 07:12:44.416570	33.9	19.9	-76.7	0.0
2025-01-24 07:12:46.661395	34.1	20.2	-76.5	0.0
2025-01-24 07:12:48.911830	34.4	20.4	-76.6	0.0
2025-01-24 07:12:51.158163	34.6	20.7	-76.9	0.0
2025-01-24 07:12:53.408816	34.9	21.0	-77.0	0.0
2025-01-24 07:12:55.651460	35.2	21.2	-77.1	0.0
2025-01-24 07:12:57.896693	35.4	21.5	-77.0	0.0
2025-01-24 07:13:00.142836	35.7	21.8	-77.4	0.0
2025-01-24 07:13:02.390506	36.0	22.1	-77.5	0.0
2025-01-24 07:13:04.635151	36.3	22.3	-76.9	0.0
2025-01-24 07:13:06.881684	36.6	22.6	-76.7	0.0
2025-01-24 07:13:09.131937	36.9	22.9	-76.9	0.0
2025-01-24 07:13:11.378572	37.2	23.2	-76.8	0.0
2025-01-24 07:13:13.627321	37.5	23.5	-77.0	0.0
2025-01-24 07:13:15.872496	37.8	23.7	-77.1	0.0
2025-01-24 07:13:18.118465	38.1	24.0	-77.0	0.0
2025-01-24 07:13:20.365306	38.4	24.3	-77.0	0.0
2025-01-24 07:13:22.609013	38.7	24.6	-77.1	0.0
2025-01-24 07:13:24.853119	39.1	24.9	-77.3	0.0
2025-01-24 07:13:27.098014	39.4	25.2	-77.0	0.0
2025-01-24 07:13:29.346377	39.8	25.5	-77.6	0.0
2025-01-24 07:13:31.593036	40.1	25.8	-77.5	0.0
2025-01-24 07:13:33.843082	40.5	26.1	-77.0	0.0
2025-01-24 07:13:36.085385	40.8	26.4	-77.1	0.0
2025-01-24 07:13:38.328043	41.2	26.7	-77.1	0.0
2025-01-24 07:13:40.574799	41.6	27.1	-76.9	0.0
2025-01-24 07:13:42.821468	42.0	27.4	-76.8	0.0
2025-01-24 07:13:45.066813	42.4	27.7	-76.9	0.0
2025-01-24 07:13:47.314142	42.8	28.0	-76.8	0.0
2025-01-24 07:13:49.559288	43.2	28.3	-77.3	0.0
2025-01-24 07:13:51.803603	43.6	28.7	-77.1	0.0
2025-01-24 07:13:54.051024	44.0	29.0	-77.5	0.0
2025-01-24 07:13:56.298755	44.5	29.3	-77.5	0.0
2025-01-24 07:13:58.546345	44.9	29.6	-77.6	0.0
2025-01-24 07:14:00.791079	45.4	30.0	-77.5	0.0
2025-01-24 07:14:03.035261	45.8	30.3	-77.7	0.0
2025-01-24 07:14:05.279176	46.3	30.6	-77.4	0.0
2025-01-24 07:14:07.526434	46.8	31.0	-77.0	0.0
2025-01-24 07:14:09.772020	47.3	31.3	-76.6	0.0
2025-01-24 07:14:12.018734	47.8	31.7	-76.8	0.0
2025-01-24 07:14:14.266430	48.3	32.0	-77.0	0.0
2025-01-24 07:14:16.512232	48.8	32.3	-77.1	0.0
2025-01-24 07:14:18.757471	49.3	32.7	-77.0	0.0
2025-01-24 07:14:21.002611	49.9	33.0	-77.1	0.0
2025-01-24 07:14:23.249561	50.4	33.4	-77.2	0.0
2025-01-24 07:14:25.496626	51.0	33.7	-76.8	0.0
2025-01-24 07:14:27.743962	51.6	34.1	-76.9	0.0
2025-01-24 07:14:29.987469	52.2	34.4	-76.8	0.0
2025-01-24 07:14:32.234794	52.8	34.8	-76.8	0.0
2025-01-24 07:14:34.482643	53.4	35.1	-77.2	0.0
2025-01-24 07:14:36.727826	54.0	35.5	-77.0	0.0
2025-01-24 07:14:38.973032	54.7	35.8	-76.7	0.0
2025-01-24 07:14:41.221549	55.3	36.2	-76.8	0.0
2025-01-24 07:14:43.462789	56.0	36.5	-76.7	0.0
2025-01-24 07:14:45.707876	56.7	36.9	-76.9	0.0
2025-01-24 07:14:47.952888	57.4	37.2	-77.2	0.0
2025-01-24 07:14:50.199996	58.1	37.6	-77.3	0.0
2025-01-24 07:14:52.446269	58.9	37.9	-77.6	0.0
2025-01-24 07:14:54.691787	59.6	38.3	-77.1	0.0
2025-01-24 07:14:56.937293	60.4	38.6	-77.4	0.0
2025-01-24 07:14:59.185524	61.1	39.0	-77.4	0.0
2025-01-24 07:15:01.433216	61.9	39.3	-77.2	0.0
2025-01-24 07:15:03.680565	62.7	39.6	-77.5	0.0
2025-01-24 07:15:05.926693	63.6	40.0	-77.4	0.0
2025-01-24 07:15:08.172527	64.4	40.3	-77.4	0.0
2025-01-24 07:15:10.414346	65.3	40.6	-77.8	0.0
2025-01-24 07:15:12.659888	66.2	40.9	-77.4	0.0
2025-01-24 07:15:14.906761	67.1	41.3	-77.3	0.0
2025-01-24 07:15:17.153331	68.0	41.6	-77.1	0.0
2025-01-24 07:15:19.399869	68.9	41.9	-77.5	0.0
2025-01-24 07:15:21.643401	69.8	42.2	-77.5	0.0
2025-01-24 07:15:23.889948	70.8	42.5	-77.6	0.0
2025-01-24 07:15:26.136369	71.8	42.7	-77.0	0.0
2025-01-24 07:15:28.383578	72.8	43.0	-77.3	0.0
2025-01-24 07:15:30.627977	73.8	43.3	-76.8	0.0
2025-01-24 07:15:32.875009	74.8	43.5	-77.1	0.0
2025-01-24 07:15:35.117929	75.9	43.8	-77.6	0.0
2025-01-24 07:15:37.363412	76.9	44.0	-77.4	0.0
2025-01-24 07:15:39.608095	78.0	44.3	-77.3	0.0
2025-01-24 07:15:41.854669	79.1	44.5	-77.4	0.0
2025-01-24 07:15:44.101050	80.2	44.7	-77.3	0.0
2025-01-24 07:15:46.344467	81.4	44.9	-77.9	0.0
2025-01-24 07:15:48.589465	82.5	45.1	-77.2	0.0
2025-01-24 07:15:50.833761	83.7	45.3	-77.9	0.0
2025-01-24 07:15:53.079725	84.8	45.5	-77.4	0.0
2025-01-24 07:15:55.323070	86.0	45.6	-77.7	0.0
2025-01-24 07:15:57.569478	87.2	45.8	-77.6	0.0
2025-01-24 07:15:59.815007	88.4	45.9	-77.1	0.0
2025-01-24 07:16:02.061075	89.6	46.0	-77.2	0.0
2025-01-24 07:16:04.306190	90.8	46.1	-77.7	0.0
2025-01-24 07:16:06.552567	92.0	46.2	-76.8	0.0
2025-01-24 07:16:08.797686	93.3	46.3	-77.3	0.0
2025-01-24 07:16:11.044078	94.5	46.3	-77.6	0.0
2025-01-24 07:16:13.288081	95.7	46.4	-77.2	0.0
2025-01-24 07:16:15.533906	97.0	46.4	-77.8	0.0
2025-01-24 07:16:17.780181	98.2	46.4	-77.0	0.0
2025-01-24 07:16:20.026024	99.5	46.4	-77.4	0.0
2025-01-24 07:16:22.273232	100.7	46.4	-77.7	0.0
2025-01-24 07:16:24.523936	102.0	46.4	-77.4	0.0
2025-01-24 07:16:26.767920	103.2	46.4	-77.1	0.0
2025-01-24 07:16:29.013973	104.5	46.3	-77.0	0.0
2025-01-24 07:16:31.260210	105.7	46.3	-77.5	0.0
2025-01-24 07:16:33.506771	106.9	46.2	-77.4	0.0
2025-01-24 07:16:35.752317	108.1	46.1	-76.9	0.0
2025-01-24 07:16:37.999114	109.4	46.0	-77.3	0.0
2025-01-24 07:16:40.243814	110.6	45.8	-77.3	0.0
2025-01-24 07:16:42.490635	111.8	45.7	-77.2	0.0
2025-01-24 07:16:44.737418	112.9	45.6	-77.0	0.0
2025-01-24 07:16:46.983403	114.1	45.4	-77.2	0.0
2025-01-24 07:16:49.228306	115.3	45.2	-76.8	0.0
2025-01-24 07:16:51.473119	116.4	45.0	-77.4	0.0
2025-01-24 07:16:53.720332	117.6	44.8	-77.3	0.0
2025-01-24 07:16:55.965346	118.7	44.6	-77.3	0.0
2025-01-24 07:16:58.210456	119.8	44.4	-77.5	0.0
2025-01-24 07:17:00.457877	120.9	44.2	-77.4	0.0
2025-01-24 07:17:02.701909	122.0	43.9	-76.7	0.0
2025-01-24 07:17:04.946470	123.0	43.7	-77.3	0.0
2025-01-24 07:17:07.192792	124.1	43.4	-77.3	0.0
2025-01-24 07:17:09.438220	125.1	43.2	-77.5	0.0
2025-01-24 07:17:11.683358	126.1	42.9	-77.3	0.0
2025-01-24 07:17:13.928420	127.1	42.6	-76.9	0.0
2025-01-24 07:17:16.173351	128.1	42.3	-77.3	0.0
2025-01-24 07:17:18.420084	129.0	42.0	-77.2	0.0
2025-01-24 07:17:20.664506	130.0	41.7	-77.0	0.0
2025-01-24 07:17:22.908543	130.9	41.4	-76.8	0.0
2025-01-24 07:17:25.156580	131.8	41.1	-77.1	0.0
2025-01-24 07:17:27.403694	132.7	40.8	-77.2	0.0
2025-01-24 07:17:29.648437	133.5	40.5	-77.2	0.0
2025-01-24 07:17:31.895341	134.4	40.1	-77.1	0.0
2025-01-24 07:17:34.137988	135.2	39.8	-77.1	0.0
2025-01-24 07:17:36.385676	136.1	39.5	-77.0	0.0
2025-01-24 07:17:38.634958	136.9	39.1	-77.1	0.0
2025-01-24 07:17:40.880717	137.6	38.8	-77.0	0.0
2025-01-24 07:17:43.124963	138.4	38.5	-76.6	0.0
2025-01-24 07:17:45.366908	139.2	38.1	-77.0	0.0
2025-01-24 07:17:47.611526	139.9	37.8	-77.1	0.0
2025-01-24 07:17:49.860837	140.6	37.4	-77.2	0.0
2025-01-24 07:17:52.107842	141.4	37.1	-77.5	0.0
2025-01-24 07:17:54.354687	142.0	36.7	-77.3	0.0
2025-01-24 07:17:56.600648	142.7	36.4	-77.1	0.0
2025-01-24 07:17:58.841630	143.4	36.0	-77.3	0.0
2025-01-24 07:18:01.089475	144.0	35.7	-77.6	0.0
2025-01-24 07:18:03.334363	144.7	35.3	-77.4	0.0
2025-01-24 07:18:05.580511	145.3	35.0	-77.4	0.0
2025-01-24 07:18:07.826178	145.9	34.6	-76.9	0.0
2025-01-24 07:18:10.073878	146.5	34.3	-77.2	0.0
2025-01-24 07:18:12.318310	147.1	33.9	-77.6	0.0
2025-01-24 07:18:14.564416	147.7	33.6	-77.3	0.0
2025-01-24 07:18:16.814340	148.3	33.2	-77.2	0.0
2025-01-24 07:18:19.058982	148.8	32.9	-77.4	0.0
2025-01-24 07:18:21.305169	149.3	32.5	-77.1	0.0
2025-01-24 07:18:23.552138	149.9	32.2	-76.9	0.0
2025-01-24 07:18:25.798573	150.4	31.8	-77.1	0.0
2025-01-24 07:18:28.040847	150.9	31.5	-76.6	0.0
2025-01-24 07:18:30.286832	151.4	31.2	-77.2	0.0
2025-01-24 07:18:32.534637	151.9	30.8	-77.1	0.0
2025-01-24 07:18:34.780453	152.4	30.5	-77.4	0.0
2025-01-24 07:18:37.025402	152.8	30.1	-77.2	0.0
2025-01-24 07:18:39.272720	153.3	29.8	-76.7	0.0
2025-01-24 07:18:41.518487	153.7	29.5	-76.6	0.3
2025-01-24 07:18:43.764139	154.2	29.1	-76.8	0.0
2025-01-24 07:18:46.009008	154.6	28.8	-76.7	0.7
2025-01-24 07:18:48.253604	155.0	28.5	-76.5	1.8
2025-01-24 07:18:50.501766	155.4	28.2	-76.8	1.3
2025-01-24 07:18:52.747957	155.8	27.8	-76.6	2.4
2025-01-24 07:18:54.993696	156.2	27.5	-76.6	2.2
2025-01-24 07:18:57.239660	156.6	27.2	-76.4	2.4
2025-01-24 07:18:59.488962	157.0	26.9	-76.7	2.8
2025-01-24 07:19:01.735921	157.4	26.6	-76.3	3.1
2025-01-24 07:19:03.980305	157.8	26.3	-76.8	3.8
2025-01-24 07:19:06.224910	158.1	26.0	-76.3	4.5
2025-01-24 07:19:08.468617	158.5	25.7	-76.3	5.2
2025-01-24 07:19:10.713298	158.8	25.4	-76.4	5.3
2025-01-24 07:19:12.958017	159.2	25.1	-76.3	5.5
2025-01-24 07:19:15.200943	159.5	24.8	-76.3	5.5
2025-01-24 07:19:17.447206	159.8	24.5	-76.1	5.9
2025-01-24 07:19:19.694542	160.2	24.2	-75.8	5.3
2025-01-24 07:19:21.942201	160.5	23.9	-75.2	4.3
2025-01-24 07:19:24.185776	160.8	23.6	-75.7	6.0
2025-01-24 07:19:26.432835	161.1	23.3	-75.8	7.2
2025-01-24 07:19:28.678066	161.4	23.0	-75.6	6.4
2025-01-24 07:19:30.925182	161.7	22.7	-76.2	6.2
2025-01-24 07:19:33.170471	162.0	22.5	-75.7	6.1
2025-01-24 07:19:35.418077	162.3	22.2	-76.2	6.8
2025-01-24 07:19:37.665318	162.6	21.9	-76.1	6.5
2025-01-24 07:19:39.913025	162.8	21.6	-75.6	5.8
2025-01-24 07:19:42.156013	163.1	21.4	-75.7	4.7
2025-01-24 07:19:44.403234	163.4	21.1	-76.2	6.3
2025-01-24 07:19:46.643574	163.6	20.8	-76.3	5.6
2025-01-24 07:19:48.890957	163.9	20.6	-76.0	6.0
2025-01-24 07:19:51.132318	164.2	20.3	-76.0	6.5
2025-01-24 07:19:53.378124	164.4	20.0	-75.7	6.7
2025-01-24 07:19:55.626196	164.7	19.8	-76.0	6.5
2025-01-24 07:19:57.870680	164.9	19.5	-75.7	5.9
2025-01-24 07:20:00.116983	165.1	19.3	-75.3	5.8
2025-01-24 07:20:02.361700	165.4	19.0	-75.7	6.9
2025-01-24 07:20:04.608572	165.6	18.8	-75.6	7.6
2025-01-24 07:20:06.855953	165.8	18.5	-75.6	6.2
2025-01-24 07:20:09.104245	166.1	18.3	-75.7	7.1
2025-01-24 07:20:11.351164	166.3	18.0	-75.7	6.3
2025-01-24 07:20:13.597009	166.5	17.8	-75.7	5.7
2025-01-24 07:20:15.840292	166.7	17.5	-75.9	6.2
2025-01-24 07:20:18.088575	166.9	17.3	-76.0	5.3
2025-01-24 07:20:20.333743	167.1	17.1	-75.5	6.2
2025-01-24 07:20:22.581433	167.3	16.8	-75.7	5.4
2025-01-24 07:20:24.829404	167.5	16.6	-75.4	4.7
2025-01-24 07:20:27.072534	167.7	16.4	-75.4	4.7
2025-01-24 07:20:29.317495	167.9	16.1	-75.4	4.1
2025-01-24 07:20:31.562288	168.1	15.9	-75.8	4.5
2025-01-24 07:20:33.809074	168.3	15.7	-75.5	4.3
2025-01-24 07:20:36.054148	168.5	15.5	-75.9	4.0
2025-01-24 07:20:38.301257	168.7	15.3	-75.9	4.5
2025-01-24 07:20:40.547238	168.9	15.0	-75.9	4.4
2025-01-24 07:20:42.795610	169.1	14.8	-75.7	2.6
2025-01-24 07:20:45.043771	169.2	14.6	-75.6	3.2
2025-01-24 07:20:47.288483	169.4	14.4	-76.2	3.7
2025-01-24 07:20:49.533598	169.6	14.2	-75.9	2.3
2025-01-24 07:20:51.781920	169.8	14.0	-76.3	1.6
2025-01-24 07:20:54.028166	169.9	13.7	-76.1	2.5
2025-01-24 07:20:56.273837	170.1	13.5	-76.2	3.0
2025-01-24 07:20:58.519865	170.3	13.3	-76.0	0.9
2025-01-24 07:21:00.766040	170.4	13.1	-76.0	2.7
2025-01-24 07:21:03.010740	170.6	12.9	-76.3	2.0
2025-01-24 07:21:05.258665	170.7	12.7	-76.4	1.5
2025-01-24 07:21:07.504617	170.9	12.5	-76.0	2.1
2025-01-24 07:21:09.747444	171.0	12.3	-76.5	0.0
2025-01-24 07:21:11.993738	171.2	12.1	-76.1	1.0
2025-01-24 07:21:14.240805	171.3	11.9	-76.2	2.7
2025-01-24 07:21:16.486463	171.5	11.7	-76.1	1.0
2025-01-24 07:21:18.731331	171.6	11.5	-76.5	0.0
2025-01-24 07:21:20.977214	171.8	11.3	-76.5	0.0
2025-01-24 07:21:23.223814	171.9	11.2	-76.2	0.2
2025-01-24 07:21:25.468335	172.1	11.0	-76.1	0.0
2025-01-24 07:21:27.713509	172.2	10.8	-76.8	0.0
2025-01-24 07:21:29.958057	172.3	10.6	-76.3	0.0
2025-01-24 07:21:32.206721	172.5	10.4	-76.4	0.0
2025-01-24 07:21:34.451311	172.6	10.2	-76.4	0.0
2025-01-24 07:21:36.701508	172.7	10.0	-76.2	0.0
#Closed at: 2025-01-24 07:10:56.185284