passes_logs/2025/01/24/planumMaritime01/planumMaritime01__20250124_033741_METEOR-M2_2_rec.log

#Pass ID: 20250124_033741_METEOR-M2 2
#Satellite: METEOR-M2 2
#Configuration: METEOR-M2 2
#Start time: 2025-01-24 03:37:46.683187

#LorettStation: 1.0.0 05.05.2024
#Station: planumMaritime01
#Location: 37.49445 lon 55.92918 lat
#TLE: 1 44387U 19038A   25023.85032452  .00000409  00000+0  19745-3 0  9999
#TLE: 2 44387  98.8577   0.3146 0002179  65.3887 294.7518 14.24123988288794

#Time	Az	El	Level	SNR
2025-01-24 03:37:48.847887	0.4	10.2	-76.7	0.0
2025-01-24 03:37:51.089857	0.2	10.3	-76.8	0.0
2025-01-24 03:37:53.333576	359.9	10.5	-76.7	0.0
2025-01-24 03:37:55.579703	359.7	10.6	-77.2	0.0
2025-01-24 03:37:57.825775	359.4	10.8	-77.3	0.0
2025-01-24 03:38:00.072521	359.2	11.0	-77.2	0.0
2025-01-24 03:38:02.319824	358.9	11.1	-77.1	0.0
2025-01-24 03:38:04.564434	358.6	11.3	-77.3	0.0
2025-01-24 03:38:06.809927	358.4	11.4	-77.3	0.0
2025-01-24 03:38:09.054996	358.1	11.6	-77.0	0.0
2025-01-24 03:38:11.303690	357.8	11.8	-77.2	0.0
2025-01-24 03:38:13.550370	357.6	11.9	-77.1	0.0
2025-01-24 03:38:15.796552	357.3	12.1	-77.4	0.0
2025-01-24 03:38:18.044118	357.0	12.3	-77.5	0.0
2025-01-24 03:38:20.291835	356.7	12.4	-77.3	0.0
2025-01-24 03:38:22.537670	356.4	12.6	-77.4	0.0
2025-01-24 03:38:24.786507	356.1	12.8	-77.4	0.0
2025-01-24 03:38:27.032464	355.8	12.9	-77.2	0.0
2025-01-24 03:38:29.277541	355.5	13.1	-77.4	0.0
2025-01-24 03:38:31.527763	355.2	13.3	-77.3	0.0
2025-01-24 03:38:33.771663	354.9	13.4	-77.2	0.0
2025-01-24 03:38:36.016969	354.6	13.6	-77.6	0.0
2025-01-24 03:38:38.265773	354.3	13.8	-77.2	0.0
2025-01-24 03:38:40.510846	354.0	13.9	-77.4	0.0
2025-01-24 03:38:42.755631	353.7	14.1	-77.5	0.0
2025-01-24 03:38:45.001187	353.4	14.3	-77.3	0.0
2025-01-24 03:38:47.249571	353.0	14.4	-77.5	0.0
2025-01-24 03:38:49.496142	352.7	14.6	-77.8	0.0
2025-01-24 03:38:51.742455	352.4	14.8	-77.6	0.0
2025-01-24 03:38:53.991093	352.0	14.9	-77.2	0.0
2025-01-24 03:38:56.240688	351.7	15.1	-77.5	0.0
2025-01-24 03:38:58.485876	351.3	15.3	-77.6	0.0
2025-01-24 03:39:00.728176	351.0	15.5	-77.2	0.0
2025-01-24 03:39:02.974957	350.6	15.6	-77.7	0.0
2025-01-24 03:39:05.221831	350.3	15.8	-77.5	0.0
2025-01-24 03:39:07.467151	349.9	16.0	-77.6	0.0
2025-01-24 03:39:09.715014	349.5	16.1	-77.7	0.0
2025-01-24 03:39:11.960144	349.2	16.3	-77.5	0.0
2025-01-24 03:39:14.205304	348.8	16.5	-77.5	0.0
2025-01-24 03:39:16.450826	348.4	16.6	-77.6	0.0
2025-01-24 03:39:18.696814	348.0	16.8	-77.4	0.0
2025-01-24 03:39:20.943615	347.6	17.0	-77.6	0.0
2025-01-24 03:39:23.189032	347.2	17.2	-77.5	0.0
2025-01-24 03:39:25.436231	346.8	17.3	-77.3	0.0
2025-01-24 03:39:27.683301	346.4	17.5	-77.7	0.0
2025-01-24 03:39:29.927563	346.0	17.7	-77.3	0.0
2025-01-24 03:39:32.170751	345.6	17.8	-76.7	0.0
2025-01-24 03:39:34.418702	345.2	18.0	-77.4	0.0
2025-01-24 03:39:36.663318	344.8	18.2	-77.6	0.0
2025-01-24 03:39:38.909872	344.4	18.3	-77.3	0.0
2025-01-24 03:39:41.157903	343.9	18.5	-77.7	0.0
2025-01-24 03:39:43.402083	343.5	18.7	-77.6	0.0
2025-01-24 03:39:45.646495	343.0	18.8	-77.5	0.0
2025-01-24 03:39:47.893016	342.6	19.0	-77.3	0.0
2025-01-24 03:39:50.137394	342.1	19.2	-77.1	0.0
2025-01-24 03:39:52.381915	341.7	19.3	-77.6	0.0
2025-01-24 03:39:54.625712	341.2	19.5	-77.2	0.0
2025-01-24 03:39:56.873576	340.8	19.7	-77.1	0.0
2025-01-24 03:39:59.120763	340.3	19.8	-77.6	0.0
2025-01-24 03:40:01.367578	339.8	20.0	-77.6	0.0
2025-01-24 03:40:03.609783	339.3	20.1	-77.8	0.0
2025-01-24 03:40:05.854073	338.8	20.3	-77.4	0.0
2025-01-24 03:40:08.100793	338.3	20.5	-77.6	0.0
2025-01-24 03:40:10.349490	337.9	20.6	-77.8	0.0
2025-01-24 03:40:12.591945	337.3	20.8	-78.0	0.0
2025-01-24 03:40:14.838593	336.8	20.9	-77.6	0.0
2025-01-24 03:40:17.084035	336.3	21.1	-77.6	0.0
2025-01-24 03:40:19.329794	335.8	21.2	-77.5	0.0
2025-01-24 03:40:21.576298	335.3	21.4	-77.7	0.0
2025-01-24 03:40:23.821942	334.8	21.5	-77.5	0.0
2025-01-24 03:40:26.065434	334.2	21.7	-77.8	0.0
2025-01-24 03:40:28.311713	333.7	21.8	-77.8	0.0
2025-01-24 03:40:30.559345	333.1	21.9	-77.7	0.0
2025-01-24 03:40:32.807577	332.6	22.1	-77.9	0.0
2025-01-24 03:40:35.053264	332.0	22.2	-78.0	0.0
2025-01-24 03:40:37.297333	331.5	22.4	-77.9	0.0
2025-01-24 03:40:39.547256	330.9	22.5	-77.9	0.0
2025-01-24 03:40:41.791270	330.4	22.6	-77.9	0.0
2025-01-24 03:40:44.036113	329.8	22.7	-77.9	0.0
2025-01-24 03:40:46.283527	329.2	22.9	-78.0	0.0
2025-01-24 03:40:48.526712	328.6	23.0	-77.9	0.0
2025-01-24 03:40:50.771518	328.0	23.1	-78.0	0.0
2025-01-24 03:40:53.019264	327.4	23.2	-77.6	0.0
2025-01-24 03:40:55.264898	326.8	23.3	-77.9	0.0
2025-01-24 03:40:57.510832	326.2	23.5	-77.9	0.0
2025-01-24 03:40:59.755390	325.6	23.6	-77.8	0.0
2025-01-24 03:41:01.999920	325.0	23.7	-77.8	0.0
2025-01-24 03:41:04.246684	324.4	23.8	-77.9	0.0
2025-01-24 03:41:06.490453	323.8	23.9	-78.1	0.0
2025-01-24 03:41:08.736097	323.2	24.0	-78.0	0.0
2025-01-24 03:41:10.985782	322.5	24.1	-78.0	0.0
2025-01-24 03:41:13.231284	321.9	24.2	-77.8	0.0
2025-01-24 03:41:15.475445	321.3	24.2	-77.6	0.0
2025-01-24 03:41:17.721632	320.7	24.3	-77.8	0.0
2025-01-24 03:41:19.967939	320.0	24.4	-77.8	0.0
2025-01-24 03:41:22.214220	319.4	24.5	-77.6	0.0
2025-01-24 03:41:24.459248	318.7	24.6	-77.4	0.0
2025-01-24 03:41:26.703074	318.1	24.6	-77.7	0.0
2025-01-24 03:41:28.946468	317.4	24.7	-77.7	0.0
2025-01-24 03:41:31.193371	316.8	24.7	-77.8	0.0
2025-01-24 03:41:33.437679	316.1	24.8	-77.7	0.0
2025-01-24 03:41:35.682697	315.5	24.9	-77.7	0.0
2025-01-24 03:41:37.929826	314.8	24.9	-77.8	0.0
2025-01-24 03:41:40.174189	314.1	25.0	-77.9	0.0
2025-01-24 03:41:42.419875	313.5	25.0	-78.0	0.0
2025-01-24 03:41:44.667640	312.8	25.0	-77.9	0.0
2025-01-24 03:41:46.914509	312.1	25.1	-77.6	0.0
2025-01-24 03:41:49.161065	311.5	25.1	-78.1	0.0
2025-01-24 03:41:51.408102	310.8	25.1	-77.8	0.0
2025-01-24 03:41:53.651636	310.1	25.1	-78.0	0.0
2025-01-24 03:41:55.901237	309.4	25.1	-77.8	0.0
2025-01-24 03:41:58.147231	308.8	25.2	-77.9	0.0
2025-01-24 03:42:00.394520	308.1	25.2	-77.9	0.0
2025-01-24 03:42:02.641016	307.4	25.2	-77.9	0.0
2025-01-24 03:42:04.887673	306.7	25.2	-77.9	0.0
2025-01-24 03:42:07.134255	306.1	25.2	-77.9	0.0
2025-01-24 03:42:09.382750	305.4	25.1	-78.0	0.0
2025-01-24 03:42:11.629730	304.7	25.1	-77.1	0.0
2025-01-24 03:42:13.874568	304.1	25.1	-77.7	0.0
2025-01-24 03:42:16.120579	303.4	25.1	-78.0	0.0
2025-01-24 03:42:18.365297	302.7	25.1	-78.0	0.0
2025-01-24 03:42:20.611122	302.0	25.0	-78.0	0.0
2025-01-24 03:42:22.857592	301.4	25.0	-78.0	0.0
2025-01-24 03:42:25.101278	300.7	25.0	-77.9	0.0
2025-01-24 03:42:27.343600	300.0	24.9	-77.8	0.0
2025-01-24 03:42:29.590072	299.4	24.9	-77.9	0.0
2025-01-24 03:42:31.834176	298.7	24.8	-77.7	0.0
2025-01-24 03:42:34.079337	298.1	24.8	-77.8	0.0
2025-01-24 03:42:36.328473	297.4	24.7	-78.0	0.0
2025-01-24 03:42:38.575850	296.8	24.6	-77.7	0.0
2025-01-24 03:42:40.820509	296.1	24.6	-77.9	0.0
2025-01-24 03:42:43.064360	295.5	24.5	-77.9	0.0
2025-01-24 03:42:45.307028	294.8	24.4	-77.9	0.0
2025-01-24 03:42:47.555084	294.2	24.3	-77.8	0.0
2025-01-24 03:42:49.802098	293.5	24.3	-77.8	0.0
2025-01-24 03:42:52.048356	292.9	24.2	-77.5	0.0
2025-01-24 03:42:54.299100	292.3	24.1	-77.7	0.0
2025-01-24 03:42:56.546374	291.6	24.0	-77.6	0.0
2025-01-24 03:42:58.795603	291.0	23.9	-77.3	0.0
2025-01-24 03:43:01.042256	290.4	23.8	-77.9	0.0
2025-01-24 03:43:03.288173	289.8	23.7	-77.8	0.0
2025-01-24 03:43:05.535392	289.2	23.6	-77.7	0.0
2025-01-24 03:43:07.779991	288.6	23.5	-77.9	0.0
2025-01-24 03:43:10.026857	288.0	23.4	-77.9	0.0
2025-01-24 03:43:12.270883	287.4	23.2	-78.1	0.0
2025-01-24 03:43:14.515578	286.8	23.1	-77.5	0.0
2025-01-24 03:43:16.764868	286.2	23.0	-77.9	0.0
2025-01-24 03:43:19.011567	285.6	22.9	-78.0	0.0
2025-01-24 03:43:21.257496	285.0	22.8	-78.2	0.0
2025-01-24 03:43:23.501955	284.4	22.6	-78.0	0.0
2025-01-24 03:43:25.748720	283.9	22.5	-78.2	0.0
2025-01-24 03:43:27.995999	283.3	22.4	-77.4	0.0
2025-01-24 03:43:30.244474	282.7	22.2	-78.0	0.0
2025-01-24 03:43:32.491370	282.2	22.1	-77.9	0.0
2025-01-24 03:43:34.736629	281.6	21.9	-78.1	0.0
2025-01-24 03:43:36.984054	281.1	21.8	-78.3	0.0
2025-01-24 03:43:39.230480	280.6	21.7	-77.9	0.0
2025-01-24 03:43:41.478446	280.0	21.5	-78.4	0.0
2025-01-24 03:43:43.723578	279.5	21.4	-78.1	0.0
2025-01-24 03:43:45.967745	279.0	21.2	-78.2	0.0
2025-01-24 03:43:48.215267	278.4	21.1	-78.0	0.0
2025-01-24 03:43:50.457721	277.9	20.9	-77.9	0.0
2025-01-24 03:43:52.703980	277.4	20.8	-78.1	0.0
2025-01-24 03:43:54.948483	276.9	20.6	-78.1	0.0
2025-01-24 03:43:57.192919	276.4	20.5	-78.3	0.0
2025-01-24 03:43:59.438491	275.9	20.3	-78.3	0.0
2025-01-24 03:44:01.686084	275.4	20.1	-78.1	0.0
2025-01-24 03:44:03.932200	274.9	20.0	-78.2	0.0
2025-01-24 03:44:06.179039	274.5	19.8	-78.1	0.0
2025-01-24 03:44:08.425504	274.0	19.7	-78.0	0.0
2025-01-24 03:44:10.670069	273.5	19.5	-78.2	0.0
2025-01-24 03:44:12.914615	273.1	19.3	-78.2	0.0
2025-01-24 03:44:15.160185	272.6	19.2	-78.3	0.0
2025-01-24 03:44:17.406270	272.1	19.0	-78.2	0.0
2025-01-24 03:44:19.653317	271.7	18.8	-77.9	0.0
2025-01-24 03:44:21.899302	271.2	18.7	-78.1	0.0
2025-01-24 03:44:24.147848	270.8	18.5	-78.0	0.0
2025-01-24 03:44:26.390476	270.4	18.3	-78.1	0.0
2025-01-24 03:44:28.637714	269.9	18.2	-78.3	0.0
2025-01-24 03:44:30.884264	269.5	18.0	-78.2	0.0
2025-01-24 03:44:33.129759	269.1	17.8	-78.1	0.0
2025-01-24 03:44:35.378587	268.7	17.7	-78.1	0.0
2025-01-24 03:44:37.626344	268.3	17.5	-78.2	0.0
2025-01-24 03:44:39.872124	267.9	17.3	-78.3	0.0
2025-01-24 03:44:42.116480	267.5	17.1	-78.0	0.0
2025-01-24 03:44:44.363560	267.1	17.0	-78.2	0.0
2025-01-24 03:44:46.607609	266.7	16.8	-78.2	0.0
2025-01-24 03:44:48.853348	266.3	16.6	-78.2	0.0
2025-01-24 03:44:51.097840	265.9	16.5	-78.3	0.0
2025-01-24 03:44:53.341292	265.5	16.3	-78.4	0.0
2025-01-24 03:44:55.588300	265.2	16.1	-78.4	0.0
2025-01-24 03:44:57.835019	264.8	15.9	-78.2	0.0
2025-01-24 03:45:00.077210	264.4	15.8	-78.1	0.0
2025-01-24 03:45:02.321923	264.1	15.6	-78.4	0.0
2025-01-24 03:45:04.567141	263.7	15.4	-78.3	0.0
2025-01-24 03:45:06.817518	263.3	15.3	-78.3	0.0
2025-01-24 03:45:09.060691	263.0	15.1	-78.1	0.0
2025-01-24 03:45:11.309198	262.6	14.9	-78.1	0.0
2025-01-24 03:45:13.556876	262.3	14.8	-77.9	0.0
2025-01-24 03:45:15.802465	262.0	14.6	-78.1	0.0
2025-01-24 03:45:18.048550	261.6	14.4	-77.9	0.0
2025-01-24 03:45:20.293328	261.3	14.2	-78.4	0.0
2025-01-24 03:45:22.542026	261.0	14.1	-77.1	0.0
2025-01-24 03:45:24.788331	260.7	13.9	-77.0	0.0
2025-01-24 03:45:27.034598	260.3	13.7	-78.0	0.0
2025-01-24 03:45:29.281047	260.0	13.6	-77.0	0.0
2025-01-24 03:45:31.523708	259.7	13.4	-78.2	0.0
2025-01-24 03:45:33.769553	259.4	13.2	-78.0	0.0
2025-01-24 03:45:36.013886	259.1	13.1	-77.5	0.0
2025-01-24 03:45:38.259579	258.8	12.9	-78.2	0.0
2025-01-24 03:45:40.504702	258.5	12.7	-78.0	0.0
2025-01-24 03:45:42.750906	258.2	12.6	-78.1	0.0
2025-01-24 03:45:44.997969	257.9	12.4	-78.0	0.0
2025-01-24 03:45:47.246744	257.6	12.2	-78.1	0.0
2025-01-24 03:45:49.490725	257.4	12.1	-78.1	0.0
2025-01-24 03:45:51.735709	257.1	11.9	-77.8	0.0
2025-01-24 03:45:53.985105	256.8	11.7	-78.2	0.0
2025-01-24 03:45:56.227626	256.5	11.6	-77.2	0.0
2025-01-24 03:45:58.474341	256.3	11.4	-77.7	0.0
2025-01-24 03:46:00.718761	256.0	11.2	-77.8	0.0
2025-01-24 03:46:02.962365	255.7	11.1	-78.1	0.0
2025-01-24 03:46:05.208369	255.5	10.9	-78.2	0.0
2025-01-24 03:46:07.454550	255.2	10.8	-77.8	0.0
2025-01-24 03:46:09.698012	254.9	10.6	-78.1	0.0
2025-01-24 03:46:11.945484	254.7	10.4	-78.3	0.0
2025-01-24 03:46:14.196348	254.4	10.3	-78.3	0.0
2025-01-24 03:46:16.441201	254.2	10.1	-78.2	0.0
#Closed at: 2025-01-24 03:37:41.685806