passes_logs/2025/01/02/X_MFTI_01/X_MFTI_01__20250102_075311_TERRA_rec.log

#Pass ID: 20250102_075311_TERRA
#Satellite: TERRA
#Configuration: TERRA
#Start time: 2025-01-02 07:53:08

#Version: 1.5.20200625
#Station: X_MFTI_01
#Location: 37.5186 lon 55.9291 lat
#TLE: 1 25994U 99068A   23362.45014226  .00000817  00000+0  18168-3 0  9993
#TLE: 2 25994  98.0729  65.8244 0002317 146.5078 343.6211 14.59509299278111

#Time	Az	El	Level	Level2	SNR	BER	Gain	Gain2
2025-01-02 07:53:08.01	25.80	68.49	-77.9	-102.8	3.2	14917602	99	63367
2025-01-02 07:53:08.44	25.92	68.72	-77.7	-102.7	3.2	14905281	99	63312
2025-01-02 07:53:08.87	26.04	68.95	-77.8	-102.7	3.2	14901229	99	63731
2025-01-02 07:53:09.28	26.16	69.18	-77.6	-102.6	3.3	14897743	99	63801
2025-01-02 07:53:09.71	26.29	69.41	-77.9	-102.9	3.3	14895675	99	63821
2025-01-02 07:53:10.15	26.42	69.65	-77.9	-102.9	3.2	14907142	99	63674
2025-01-02 07:53:10.58	26.56	69.89	-77.9	-102.9	3.2	14905189	99	63865
2025-01-02 07:53:10.99	26.69	70.11	-77.7	-102.7	3.4	14905189	99	64018
2025-01-02 07:53:11.41	26.83	70.34	-77.9	-102.9	3.3	14889823	99	63790
2025-01-02 07:53:11.84	26.98	70.58	-77.9	-102.8	3.3	14890426	99	63546
2025-01-02 07:53:12.27	27.13	70.81	-77.9	-102.8	3.2	14902061	99	63127
2025-01-02 07:53:12.69	27.28	71.05	-77.8	-102.7	3.2	14912895	99	63177
2025-01-02 07:53:13.12	27.43	71.28	-77.7	-102.6	3.2	14913986	99	63249
2025-01-02 07:53:13.55	27.60	71.52	-77.7	-102.6	3.2	14913986	99	63214
2025-01-02 07:53:13.98	27.76	71.76	-77.7	-102.5	3.2	14899742	99	62567
2025-01-02 07:53:14.41	27.93	72.00	-77.8	-102.8	3.2	14897613	99	63407
2025-01-02 07:53:14.82	28.10	72.23	-77.7	-102.6	3.2	14897499	99	63309
2025-01-02 07:53:15.24	28.28	72.46	-77.9	-102.8	3.3	14908721	99	63322
2025-01-02 07:53:15.64	28.45	72.68	-77.9	-102.7	3.2	14905174	99	62674
2025-01-02 07:53:16.06	28.64	72.92	-77.9	-102.8	3.3	14905174	99	63303
2025-01-02 07:53:16.49	28.83	73.16	-77.9	-102.8	3.2	14906234	99	63304
2025-01-02 07:53:16.91	29.03	73.40	-77.8	-102.6	3.2	14910522	99	62208
2025-01-02 07:53:17.34	29.24	73.64	-77.8	-102.6	3.3	14895439	99	62277
2025-01-02 07:53:17.74	29.44	73.86	-77.8	-102.7	3.3	14893089	99	63322
2025-01-02 07:53:18.16	29.66	74.10	-77.8	-102.7	3.3	14907684	99	63302
2025-01-02 07:53:18.59	29.88	74.34	-77.7	-102.5	3.3	14908126	99	62631
2025-01-02 07:53:19.00	30.11	74.57	-77.7	-102.6	3.3	14908126	99	63265
2025-01-02 07:53:19.42	30.35	74.81	-77.9	-102.8	3.3	14909713	99	63202
2025-01-02 07:53:19.83	30.59	75.04	-77.9	-102.8	3.3	14903495	99	63174
2025-01-02 07:53:20.27	30.85	75.29	-77.7	-102.7	3.2	14912132	99	63452
2025-01-02 07:53:20.68	31.11	75.52	-77.8	-102.7	3.3	14903686	99	63261
2025-01-02 07:53:21.11	31.38	75.76	-77.9	-102.8	3.3	14903404	99	63313
2025-01-02 07:53:21.54	31.67	76.01	-77.9	-102.6	3.3	14903404	99	62149
2025-01-02 07:53:21.98	31.98	76.26	-77.8	-102.6	3.2	14901191	99	62527
2025-01-02 07:53:22.39	32.27	76.49	-77.9	-102.8	3.3	14883255	99	63805
2025-01-02 07:53:22.81	32.58	76.73	-77.8	-102.8	3.3	14910408	99	63875
2025-01-02 07:53:23.22	32.90	76.96	-77.8	-102.8	3.3	14902000	99	64001
2025-01-02 07:53:23.65	33.25	77.20	-77.8	-102.8	3.3	14895973	99	63898
2025-01-02 07:53:24.05	33.58	77.43	-77.7	-102.7	3.3	14895973	99	63810
2025-01-02 07:53:24.48	33.95	77.67	-77.7	-102.7	3.2	14907997	99	63756
2025-01-02 07:53:24.88	34.31	77.90	-77.9	-102.8	3.3	14910667	99	63435
2025-01-02 07:53:25.30	34.70	78.14	-77.7	-102.7	3.3	14890708	99	63322
2025-01-02 07:53:25.71	35.10	78.37	-77.7	-102.6	3.3	14907402	99	63216
2025-01-02 07:53:26.13	35.53	78.61	-77.7	-102.5	3.3	14906730	99	62428
2025-01-02 07:53:26.55	35.98	78.84	-77.9	-102.8	3.2	14906730	99	63035
2025-01-02 07:53:26.96	36.43	79.07	-77.7	-102.7	3.2	14896270	99	63814
2025-01-02 07:53:27.38	36.91	79.31	-77.7	-102.7	3.2	14905456	99	63713
2025-01-02 07:53:27.79	37.41	79.54	-77.8	-102.7	3.3	14898780	99	63486
2025-01-02 07:53:28.21	37.94	79.78	-77.8	-102.7	3.3	14908096	99	63576
2025-01-02 07:53:28.63	38.49	80.01	-77.8	-102.8	3.2	14892829	99	63830
2025-01-02 07:53:29.06	39.09	80.25	-77.9	-102.9	3.2	14910781	99	63717
2025-01-02 07:53:29.49	39.72	80.49	-77.8	-102.7	3.3	14910781	99	63619
2025-01-02 07:53:29.92	40.38	80.73	-77.9	-102.8	3.3	14898628	99	63663
2025-01-02 07:53:30.35	41.07	80.96	-77.7	-102.7	3.2	14901260	99	63809
2025-01-02 07:53:30.76	41.77	81.19	-77.9	-102.8	3.1	14901893	99	63085
2025-01-02 07:53:31.18	42.53	81.42	-77.8	-102.7	3.3	14904815	99	63639
2025-01-02 07:53:31.58	43.28	81.63	-77.9	-102.9	3.3	14897331	99	63805
2025-01-02 07:53:32.01	44.14	81.86	-77.8	-102.7	3.3	14897956	99	63200
2025-01-02 07:53:32.44	45.05	82.09	-77.9	-102.8	3.3	14897956	99	63611
2025-01-02 07:53:32.87	46.01	82.32	-77.9	-102.8	3.3	14895393	99	63503
2025-01-02 07:53:33.29	47.01	82.54	-77.9	-102.9	3.3	14878761	99	63319
2025-01-02 07:53:33.71	48.07	82.76	-77.9	-102.8	3.3	14896926	99	63275
2025-01-02 07:53:34.12	49.17	82.97	-77.8	-102.8	3.3	14892196	99	63624
2025-01-02 07:53:34.55	50.40	83.19	-77.9	-102.8	3.3	14895011	99	63336
2025-01-02 07:53:34.97	51.67	83.40	-77.8	-102.7	3.3	14895011	99	63352
2025-01-02 07:53:35.38	53.00	83.61	-77.9	-102.8	3.2	14907012	99	63361
2025-01-02 07:53:35.80	54.45	83.81	-77.8	-102.7	3.3	14905860	99	63494
2025-01-02 07:53:36.23	56.03	84.01	-77.8	-102.7	3.3	14889015	99	63358
2025-01-02 07:53:36.66	57.72	84.21	-77.7	-102.6	3.2	14911476	99	63376
2025-01-02 07:53:37.09	59.54	84.41	-77.7	-102.6	3.2	14907203	99	62759
2025-01-02 07:53:37.51	61.44	84.59	-77.9	-102.7	3.3	14907203	99	62748
2025-01-02 07:53:37.92	63.42	84.77	-77.9	-102.8	3.3	14910079	99	63406
2025-01-02 07:53:38.36	65.69	84.95	-77.7	-102.7	3.2	14897888	99	63337
2025-01-02 07:53:38.79	68.07	85.11	-77.8	-102.7	3.3	14901084	99	63103
2025-01-02 07:53:39.20	70.50	85.26	-77.8	-102.7	3.2	14906150	99	63354
2025-01-02 07:53:39.62	73.14	85.41	-77.9	-102.8	3.2	14901039	99	63345
2025-01-02 07:53:40.05	76.02	85.55	-77.9	-102.9	3.2	14905639	99	63957
2025-01-02 07:53:40.48	79.08	85.67	-77.9	-102.9	3.3	14905639	99	64309
2025-01-02 07:53:40.91	82.31	85.79	-77.7	-102.7	3.3	14901779	99	63877
2025-01-02 07:53:41.34	85.71	85.89	-77.7	-102.7	3.2	14894989	99	63340
2025-01-02 07:53:41.77	89.26	85.97	-77.7	-102.7	3.2	14906814	99	63519
2025-01-02 07:53:42.19	92.87	86.04	-77.9	-102.9	3.2	14905120	99	63608
2025-01-02 07:53:42.60	96.49	86.09	-77.8	-102.7	3.3	14907958	99	63369
2025-01-02 07:53:43.03	100.37	86.12	-77.9	-102.9	3.2	14905998	99	63923
2025-01-02 07:53:43.45	104.22	86.14	-77.8	-102.7	3.3	14905998	99	63349
2025-01-02 07:53:43.85	107.90	86.14	-77.9	-102.9	3.3	14905662	99	63930
2025-01-02 07:53:44.28	111.83	86.12	-77.9	-102.9	3.3	14901092	99	63895
2025-01-02 07:53:44.70	115.62	86.09	-77.7	-102.7	3.3	14907791	99	63941
2025-01-02 07:53:45.13	119.42	86.03	-77.7	-102.7	3.3	14914459	99	63535
2025-01-02 07:53:45.56	123.10	85.96	-77.9	-102.9	3.3	14899215	99	63932
2025-01-02 07:53:45.99	126.64	85.88	-77.9	-102.9	3.3	14899215	99	63863
2025-01-02 07:53:46.40	129.87	85.78	-77.7	-102.8	3.3	14897476	99	64131
2025-01-02 07:53:46.84	133.16	85.66	-77.9	-102.9	3.3	14900054	99	64163
2025-01-02 07:53:47.25	136.07	85.54	-77.7	-102.7	3.3	14890647	99	63850
2025-01-02 07:53:47.67	138.88	85.41	-77.7	-102.7	3.3	14899513	99	63893
2025-01-02 07:53:48.10	141.58	85.26	-77.9	-102.9	3.3	14898567	99	64093
2025-01-02 07:53:48.51	144.00	85.11	-77.9	-102.9	3.3	14891258	99	63967
2025-01-02 07:53:48.93	146.32	84.94	-77.8	-102.8	3.3	14891258	99	63901
2025-01-02 07:53:49.36	148.55	84.77	-77.9	-102.9	3.2	14900192	99	63976
2025-01-02 07:53:49.79	150.62	84.59	-77.9	-102.9	3.3	14901290	99	64196
2025-01-02 07:53:50.22	152.56	84.40	-77.9	-102.8	3.3	14915092	99	63890
2025-01-02 07:53:50.65	154.37	84.20	-77.8	-102.8	3.3	14920593	99	63803
2025-01-02 07:53:51.07	156.02	84.01	-77.8	-102.8	3.3	14902969	99	63657
2025-01-02 07:53:51.50	157.60	83.80	-77.8	-102.8	3.2	14902969	99	63650
2025-01-02 07:53:51.93	159.08	83.59	-77.9	-102.9	3.3	14893707	99	63951
2025-01-02 07:53:52.36	160.47	83.38	-77.7	-102.7	3.3	14910072	99	63806
2025-01-02 07:53:52.78	161.73	83.17	-77.9	-102.8	3.4	14900413	99	63364
2025-01-02 07:53:53.19	162.90	82.96	-77.7	-102.7	3.3	14890571	99	63905
2025-01-02 07:53:53.61	164.02	82.74	-77.8	-102.8	3.3	14906059	99	63998
2025-01-02 07:53:54.01	165.02	82.54	-77.8	-102.8	3.3	14906059	99	63866
2025-01-02 07:53:54.44	166.04	82.31	-77.9	-102.9	3.2	14909484	99	64039
2025-01-02 07:53:54.86	166.98	82.09	-77.7	-102.7	3.3	14895782	99	63972
2025-01-02 07:53:55.29	167.89	81.86	-77.7	-102.7	3.3	14907470	99	63840
2025-01-02 07:53:55.70	168.71	81.63	-77.9	-102.7	3.3	14896766	99	62983
2025-01-02 07:53:56.13	169.52	81.40	-77.7	-102.6	3.3	14907600	99	63037
2025-01-02 07:53:56.56	170.29	81.17	-77.9	-102.9	3.3	14909156	99	63923
2025-01-02 07:53:56.98	171.00	80.94	-77.8	-102.8	3.2	14909156	99	63905
2025-01-02 07:53:57.40	171.68	80.70	-77.7	-102.8	3.3	14901382	99	64394
2025-01-02 07:53:57.81	172.31	80.48	-77.8	-102.8	3.3	14890274	99	63997
2025-01-02 07:53:58.23	172.92	80.24	-77.9	-102.9	3.3	14909713	99	63947
2025-01-02 07:53:58.66	173.52	80.00	-77.8	-102.8	3.3	14889717	99	63917
2025-01-02 07:53:59.09	174.08	79.76	-77.7	-102.7	3.3	14898826	99	63719
2025-01-02 07:53:59.52	174.63	79.52	-77.7	-102.7	3.3	14911155	99	63860
2025-01-02 07:53:59.92	175.11	79.30	-77.9	-102.9	3.3	14911155	99	63849
2025-01-02 07:54:00.34	175.59	79.06	-77.9	-103.0	3.2	14905525	99	64221
2025-01-02 07:54:00.74	176.03	78.84	-77.8	-102.8	3.3	14905181	99	64123
2025-01-02 07:54:01.17	176.49	78.59	-77.7	-102.7	3.3	14892570	99	63932
2025-01-02 07:54:01.60	176.93	78.35	-77.7	-102.7	3.2	14901512	99	63831
2025-01-02 07:54:02.00	177.31	78.12	-77.7	-102.7	3.2	14901512	99	63492
2025-01-02 07:54:02.43	177.72	77.88	-77.8	-102.8	3.2	14911170	99	63874
2025-01-02 07:54:02.85	178.09	77.64	-77.9	-102.8	3.3	14903091	99	63847
2025-01-02 07:54:03.26	178.45	77.41	-77.9	-102.9	3.2	14903495	99	63941
2025-01-02 07:54:03.69	178.80	77.17	-77.9	-102.8	3.3	14895988	99	63367
2025-01-02 07:54:04.11	179.14	76.93	-77.7	-102.7	3.2	14907524	99	63430
2025-01-02 07:54:04.54	179.47	76.68	-77.7	-102.7	3.3	14905525	99	63444
2025-01-02 07:54:04.97	179.79	76.44	-77.7	-102.4	3.3	14905525	99	62157
2025-01-02 07:54:05.40	180.10	76.20	-77.7	-102.5	3.3	14892539	99	62453
2025-01-02 07:54:05.82	180.38	75.96	-77.9	-102.8	3.3	14880043	99	63482
2025-01-02 07:54:06.23	180.66	75.72	-77.9	-102.8	3.2	14913948	99	63346
2025-01-02 07:54:06.67	180.94	75.48	-77.9	-102.8	3.3	14898818	99	63124
2025-01-02 07:54:07.10	181.21	75.23	-77.9	-102.8	3.3	14915191	99	63354
2025-01-02 07:54:07.53	181.47	74.99	-77.9	-102.8	3.3	14905860	99	63439
2025-01-02 07:54:07.94	181.70	74.76	-77.8	-102.8	3.3	14905860	99	63422
2025-01-02 07:54:08.37	181.94	74.51	-77.9	-102.8	3.3	14898696	99	63364
2025-01-02 07:54:08.80	182.18	74.27	-77.9	-102.8	3.3	14915580	99	63378
2025-01-02 07:54:09.22	182.40	74.03	-77.9	-102.8	3.3	14905967	99	63825
2025-01-02 07:54:09.65	182.62	73.79	-77.9	-102.9	3.3	14899108	99	63939
2025-01-02 07:54:10.08	182.83	73.55	-77.8	-102.8	3.3	14902175	99	63958
2025-01-02 07:54:10.50	183.03	73.31	-77.7	-102.7	3.3	14890571	99	63953
2025-01-02 07:54:10.93	183.23	73.07	-77.7	-102.7	3.3	14890571	99	63962
2025-01-02 07:54:11.36	183.43	72.83	-77.9	-102.9	3.3	14911903	99	63834
2025-01-02 07:54:11.77	183.61	72.60	-77.8	-102.8	3.3	14901107	99	64005
2025-01-02 07:54:12.20	183.79	72.36	-77.9	-102.9	3.3	14905670	99	63923
2025-01-02 07:54:12.63	183.97	72.12	-77.8	-102.7	3.5	14908432	99	62940
2025-01-02 07:54:13.07	184.15	71.87	-77.9	-102.8	3.5	14903251	99	63487
2025-01-02 07:54:13.50	184.32	71.64	-77.8	-102.8	3.2	14899726	99	63870
2025-01-02 07:54:13.91	184.48	71.41	-77.8	-102.8	3.2	14899726	99	63930
2025-01-02 07:54:14.34	184.64	71.17	-77.9	-102.8	3.3	14902984	99	63598
2025-01-02 07:54:14.77	184.79	70.93	-77.7	-102.7	3.3	14894409	99	63462
2025-01-02 07:54:15.21	184.95	70.69	-77.7	-102.6	3.3	14897872	99	63450
2025-01-02 07:54:15.62	185.09	70.46	-77.9	-102.8	3.2	14899414	99	63446
2025-01-02 07:54:16.05	185.23	70.23	-77.8	-102.8	3.3	14894859	99	63872

#Closed at: 2025-01-02 07:54:16