passes_logs/2025/01/02/X_MFTI_01/X_MFTI_01__20250102_011108_FENGYUN_3D_rec.log

#Pass ID: 20250102_011108_FENGYUN 3D
#Satellite: FENGYUN 3D
#Configuration: FENGYUN 3D
#Start time: 2025-01-02 01:11:03

#Version: 1.5.20200625
#Station: X_MFTI_01
#Location: 37.5186 lon 55.9291 lat
#TLE: 1 43010U 17072A   23362.50642187  .00000183  00000+0  10870-3 0  9994
#TLE: 2 43010  98.8887 311.3857 0002475  98.0400 262.1057 14.19259665317063

#Time	Az	El	Level	Level2	SNR	BER	Gain	Gain2
2025-01-02 01:11:03.90	6.40	68.18	-74.7	-95.7	3.8	8447937	99	40106
2025-01-02 01:11:04.31	6.28	68.36	-74.8	-95.8	3.8	8458019	99	40024
2025-01-02 01:11:04.73	6.17	68.55	-74.7	-95.6	3.8	8463798	99	39928
2025-01-02 01:11:05.15	6.04	68.74	-74.8	-95.6	3.8	8455215	99	39255
2025-01-02 01:11:05.57	5.92	68.93	-74.8	-95.7	3.8	8455352	99	40135
2025-01-02 01:11:05.98	5.80	69.11	-74.7	-95.7	3.8	8450283	99	40107
2025-01-02 01:11:06.40	5.67	69.30	-74.8	-95.8	3.8	8448680	99	40229
2025-01-02 01:11:06.82	5.53	69.49	-74.8	-95.8	3.8	8463935	99	40084
2025-01-02 01:11:07.24	5.40	69.68	-74.9	-95.9	3.8	8459793	99	40188
2025-01-02 01:11:07.66	5.26	69.87	-74.9	-95.9	3.8	8456920	99	40107
2025-01-02 01:11:08.07	5.13	70.05	-74.8	-95.6	3.7	8464038	99	39613
2025-01-02 01:11:08.49	4.98	70.24	-74.8	-95.6	3.8	8466762	99	39687
2025-01-02 01:11:08.91	4.84	70.43	-74.7	-95.6	3.8	8447513	99	40091
2025-01-02 01:11:09.32	4.69	70.62	-74.8	-95.7	3.7	8452697	99	40237
2025-01-02 01:11:09.74	4.54	70.81	-74.7	-95.5	3.8	8459381	99	39491
2025-01-02 01:11:10.16	4.38	71.00	-74.8	-95.7	3.8	8452217	99	39510
2025-01-02 01:11:10.58	4.23	71.19	-74.8	-95.8	3.8	8454345	99	40286
2025-01-02 01:11:10.99	4.07	71.38	-74.7	-95.6	3.8	8456027	99	39918
2025-01-02 01:11:11.41	3.90	71.57	-74.7	-95.7	3.8	8461875	99	40014
2025-01-02 01:11:11.83	3.73	71.77	-74.8	-95.8	3.8	8458820	99	40366
2025-01-02 01:11:12.25	3.56	71.96	-74.7	-95.6	3.8	8463924	99	39916
2025-01-02 01:11:12.66	3.39	72.15	-74.8	-95.7	3.8	8467391	99	40285
2025-01-02 01:11:13.08	3.20	72.34	-74.7	-95.6	3.8	8465927	99	39664
2025-01-02 01:11:13.49	3.02	72.53	-74.7	-95.6	3.8	8460433	99	39745
2025-01-02 01:11:13.91	2.83	72.72	-74.8	-95.8	3.8	8470790	99	40247
2025-01-02 01:11:14.33	2.64	72.91	-74.7	-95.4	3.8	8465904	99	39054
2025-01-02 01:11:14.75	2.44	73.11	-74.7	-95.4	3.8	8463249	99	39068
2025-01-02 01:11:15.16	2.24	73.30	-74.7	-95.7	3.8	8453521	99	40170
2025-01-02 01:11:15.58	2.03	73.49	-74.8	-95.8	3.8	8456256	99	40191
2025-01-02 01:11:16.00	1.82	73.68	-74.7	-95.4	3.8	8463340	99	39135
2025-01-02 01:11:16.42	1.60	73.88	-74.7	-95.6	3.8	8464038	99	40263
2025-01-02 01:11:16.83	1.38	74.07	-74.8	-95.7	3.8	8461154	99	40152
2025-01-02 01:11:17.25	1.14	74.26	-74.7	-95.7	3.8	8453475	99	40238
2025-01-02 01:11:17.67	0.91	74.45	-74.7	-95.6	3.8	8451908	99	39837
2025-01-02 01:11:18.09	0.66	74.65	-74.8	-95.7	3.8	8459690	99	40168
2025-01-02 01:11:18.50	0.42	74.84	-74.7	-95.6	3.8	8443954	99	40091
2025-01-02 01:11:18.92	0.16	75.03	-74.8	-95.7	3.7	8457218	99	39647
2025-01-02 01:11:19.34	359.90	75.23	-74.7	-95.6	3.8	8457950	99	39671
2025-01-02 01:11:19.76	359.63	75.42	-74.7	-95.7	3.8	8463443	99	40206
2025-01-02 01:11:20.17	359.36	75.61	-74.8	-95.7	3.8	8456726	99	40122
2025-01-02 01:11:20.59	359.07	75.80	-74.7	-95.6	3.8	8466018	99	39654
2025-01-02 01:11:21.01	358.78	76.00	-74.7	-95.6	3.8	8466556	99	39810
2025-01-02 01:11:21.43	358.47	76.19	-74.8	-95.8	3.8	8471855	99	40203
2025-01-02 01:11:21.84	358.17	76.38	-74.8	-95.8	3.7	8462173	99	39978
2025-01-02 01:11:22.26	357.85	76.57	-74.8	-95.6	3.8	8455181	99	39350
2025-01-02 01:11:22.67	357.52	76.76	-74.8	-95.7	3.8	8459884	99	40187
2025-01-02 01:11:23.09	357.18	76.95	-74.8	-95.8	3.8	8467185	99	40167
2025-01-02 01:11:23.51	356.83	77.15	-74.8	-95.8	3.8	8457881	99	40150
2025-01-02 01:11:23.93	356.47	77.34	-74.7	-95.4	3.7	8460983	99	38663
2025-01-02 01:11:24.34	356.10	77.53	-74.7	-95.6	3.9	8452857	99	39593
2025-01-02 01:11:24.76	355.72	77.72	-74.8	-95.7	3.8	8457756	99	40088
2025-01-02 01:11:25.18	355.32	77.91	-74.8	-95.5	3.8	8456760	99	38895
2025-01-02 01:11:25.60	354.91	78.10	-74.7	-95.4	3.8	8461807	99	38868
2025-01-02 01:11:26.01	354.49	78.29	-74.7	-95.6	3.8	8453601	99	39991
2025-01-02 01:11:26.43	354.05	78.48	-74.8	-95.7	3.8	8464851	99	40019
2025-01-02 01:11:26.85	353.60	78.67	-74.8	-95.5	3.8	8454437	99	39198
2025-01-02 01:11:27.27	353.13	78.86	-74.7	-95.7	3.8	8469177	99	40022
2025-01-02 01:11:27.68	352.65	79.04	-74.8	-95.7	3.8	8455627	99	40048
2025-01-02 01:11:28.10	352.15	79.23	-74.7	-95.7	3.8	8449768	99	40031
2025-01-02 01:11:28.52	351.62	79.42	-74.9	-95.6	3.8	8461486	99	39227
2025-01-02 01:11:28.93	351.09	79.60	-74.7	-95.7	3.8	8465961	99	40369
2025-01-02 01:11:29.35	350.53	79.79	-74.8	-95.8	3.8	8455398	99	40316
2025-01-02 01:11:29.77	349.95	79.98	-74.8	-95.7	3.7	8461132	99	40069
2025-01-02 01:11:30.19	349.34	80.16	-74.7	-95.7	3.8	8456039	99	40234
2025-01-02 01:11:30.60	348.73	80.34	-74.7	-95.7	3.8	8466350	99	40346
2025-01-02 01:11:31.02	348.08	80.52	-74.8	-95.7	3.8	8456851	99	40297
2025-01-02 01:11:31.44	347.40	80.70	-74.8	-95.7	3.8	8459918	99	39809
2025-01-02 01:11:31.86	346.69	80.88	-74.8	-95.6	3.8	8463214	99	39870
2025-01-02 01:11:32.27	345.97	81.06	-74.7	-95.7	3.8	8463134	99	40304
2025-01-02 01:11:32.69	345.21	81.24	-74.8	-95.8	3.7	8470058	99	40303
2025-01-02 01:11:33.11	344.41	81.41	-74.8	-95.8	3.8	8466316	99	40412
2025-01-02 01:11:33.53	343.58	81.59	-74.7	-95.7	3.8	8450672	99	40360
2025-01-02 01:11:33.94	342.73	81.76	-74.7	-95.7	3.8	8469600	99	40296
2025-01-02 01:11:34.36	341.83	81.93	-74.8	-95.8	3.8	8461692	99	40337
2025-01-02 01:11:34.77	340.91	82.09	-74.8	-95.5	3.8	8472736	99	38971
2025-01-02 01:11:35.19	339.92	82.26	-74.7	-95.7	3.8	8461418	99	40421
2025-01-02 01:11:35.61	338.90	82.42	-74.8	-95.7	3.8	8455581	99	39920
2025-01-02 01:11:36.03	337.82	82.59	-74.8	-95.7	3.8	8459220	99	39839
2025-01-02 01:11:36.44	336.73	82.74	-74.8	-95.7	3.8	8459552	99	39826
2025-01-02 01:11:36.86	335.56	82.90	-74.7	-95.7	3.8	8466487	99	40400
2025-01-02 01:11:37.28	334.34	83.05	-74.7	-95.7	3.8	8455810	99	40311
2025-01-02 01:11:37.70	333.06	83.21	-74.8	-95.6	3.9	8468582	99	39250
2025-01-02 01:11:38.11	331.75	83.35	-74.7	-95.7	3.8	8460903	99	40400
2025-01-02 01:11:38.53	330.36	83.49	-74.7	-95.6	3.8	8458637	99	40337
2025-01-02 01:11:38.95	328.90	83.63	-74.7	-95.7	3.8	8453475	99	40287
2025-01-02 01:11:39.36	327.41	83.77	-74.9	-95.7	3.8	8465995	99	39759
2025-01-02 01:11:39.78	325.82	83.90	-74.8	-95.7	3.8	8459312	99	39915
2025-01-02 01:11:40.20	324.16	84.02	-74.8	-95.7	3.8	8455821	99	40143
2025-01-02 01:11:40.62	322.43	84.15	-74.8	-95.5	3.8	8455078	99	39152
2025-01-02 01:11:41.03	320.67	84.26	-74.8	-95.6	3.8	8456623	99	39237
2025-01-02 01:11:41.45	318.80	84.37	-74.8	-95.8	3.8	8452606	99	40244
2025-01-02 01:11:41.87	316.85	84.47	-74.7	-95.6	3.7	8457412	99	40138
2025-01-02 01:11:42.29	314.83	84.57	-74.8	-95.5	3.8	8472347	99	38952
2025-01-02 01:11:42.71	312.74	84.66	-74.8	-95.5	3.8	8449241	99	38924
2025-01-02 01:11:43.12	310.64	84.74	-74.7	-95.7	3.8	8462368	99	40212
2025-01-02 01:11:43.54	308.41	84.82	-74.7	-95.7	3.7	8467849	99	40061
2025-01-02 01:11:43.96	306.12	84.89	-74.8	-95.6	3.8	8463684	99	39470
2025-01-02 01:11:44.38	303.78	84.95	-74.7	-95.6	3.8	8464038	99	40053
2025-01-02 01:11:44.79	301.44	84.99	-74.7	-95.6	3.8	8451942	99	40080
2025-01-02 01:11:45.21	299.00	85.04	-74.8	-95.7	3.8	8458465	99	40178
2025-01-02 01:11:45.63	296.52	85.07	-74.8	-95.7	3.8	8446815	99	39713
2025-01-02 01:11:46.05	294.01	85.09	-74.7	-95.7	3.8	8458396	99	40125
2025-01-02 01:11:46.46	291.54	85.11	-74.7	-95.7	3.8	8457469	99	40203
2025-01-02 01:11:46.88	289.00	85.11	-74.8	-95.5	3.8	8456874	99	39283
2025-01-02 01:11:47.29	286.53	85.11	-74.8	-95.6	3.8	8459449	99	39415
2025-01-02 01:11:47.71	284.00	85.09	-74.8	-95.8	3.8	8459461	99	40211
2025-01-02 01:11:48.12	281.55	85.07	-74.7	-95.7	3.8	8450466	99	40316
2025-01-02 01:11:48.54	279.07	85.04	-74.7	-95.6	3.8	8462837	99	39774
2025-01-02 01:11:48.96	276.63	85.00	-74.8	-95.7	3.8	8464050	99	39970
2025-01-02 01:11:49.38	274.23	84.95	-74.7	-95.7	3.8	8470230	99	40328
2025-01-02 01:11:49.79	271.93	84.89	-74.7	-95.7	3.8	8451324	99	40322
2025-01-02 01:11:50.21	269.64	84.82	-74.6	-95.6	3.8	8465332	99	40119
2025-01-02 01:11:50.63	267.42	84.75	-74.7	-95.7	3.8	8462837	99	40315
2025-01-02 01:11:51.05	265.25	84.66	-74.6	-95.5	3.8	8465938	99	39760
2025-01-02 01:11:51.46	263.21	84.57	-74.7	-95.5	3.8	8457572	99	39812
2025-01-02 01:11:51.88	261.19	84.48	-74.7	-95.6	3.8	8464416	99	39759
2025-01-02 01:11:52.30	259.24	84.37	-74.7	-95.7	3.8	8459335	99	40234
2025-01-02 01:11:52.71	257.41	84.27	-74.7	-95.7	3.8	8451656	99	40272
2025-01-02 01:11:53.13	255.60	84.15	-74.7	-95.6	4.0	8466419	99	39846
2025-01-02 01:11:53.55	253.87	84.03	-74.8	-95.7	3.8	8454048	99	39861
2025-01-02 01:11:53.96	252.24	83.91	-74.8	-95.8	3.8	8452377	99	40273
2025-01-02 01:11:54.38	250.65	83.78	-74.6	-95.6	3.7	8464015	99	40190
2025-01-02 01:11:54.80	249.12	83.64	-74.7	-95.3	3.8	8451564	99	38973
2025-01-02 01:11:55.21	247.69	83.50	-74.7	-95.7	3.8	8456623	99	40305
2025-01-02 01:11:55.63	246.29	83.36	-74.7	-95.6	3.8	8458843	99	40248
2025-01-02 01:11:56.05	244.95	83.21	-74.7	-95.7	3.7	8464931	99	40295
2025-01-02 01:11:56.47	243.67	83.06	-74.7	-95.5	3.9	8463844	99	39713
2025-01-02 01:11:56.88	242.47	82.91	-74.7	-95.6	3.8	8456760	99	40098
2025-01-02 01:11:57.30	241.29	82.75	-74.6	-95.6	3.8	8464954	99	40201
2025-01-02 01:11:57.72	240.17	82.59	-74.7	-95.5	3.8	8462574	99	39459
2025-01-02 01:11:58.13	239.12	82.43	-74.7	-95.5	3.8	8478149	99	39459
2025-01-02 01:11:58.55	238.09	82.27	-74.7	-95.7	3.8	8459598	99	40218
2025-01-02 01:11:58.97	237.10	82.10	-74.7	-95.7	3.8	8455581	99	40323
2025-01-02 01:11:59.39	236.16	81.93	-74.7	-95.5	3.8	8468215	99	39380
2025-01-02 01:11:59.80	235.27	81.77	-74.7	-95.7	3.8	8459220	99	40287
2025-01-02 01:12:00.22	234.40	81.59	-74.8	-95.7	3.8	8453430	99	40333
2025-01-02 01:12:00.64	233.57	81.42	-74.8	-95.7	3.8	8448772	99	40177
2025-01-02 01:12:01.05	232.79	81.25	-74.8	-95.8	3.8	8461853	99	40341
2025-01-02 01:12:01.47	232.02	81.07	-74.7	-95.7	3.8	8454586	99	40223
2025-01-02 01:12:01.89	231.29	80.89	-74.8	-95.7	3.8	8464633	99	40191
2025-01-02 01:12:02.30	230.59	80.71	-74.7	-95.4	3.7	8461864	99	38819
2025-01-02 01:12:02.72	229.91	80.53	-74.8	-95.5	3.8	8460926	99	39030
2025-01-02 01:12:03.14	229.26	80.35	-74.8	-95.8	3.8	8457607	99	40158
2025-01-02 01:12:03.56	228.63	80.16	-74.8	-95.8	3.8	8454391	99	40131
2025-01-02 01:12:03.98	228.02	79.98	-74.7	-95.6	3.8	8455673	99	39756
2025-01-02 01:12:04.39	227.45	79.80	-74.8	-95.6	3.8	8480529	99	39461
2025-01-02 01:12:04.81	226.88	79.61	-74.7	-95.7	3.8	8451633	99	40258
2025-01-02 01:12:05.23	226.34	79.42	-74.8	-95.7	3.8	8449321	99	40114
2025-01-02 01:12:05.65	225.82	79.24	-74.7	-95.5	3.8	8453842	99	39514
2025-01-02 01:12:06.07	225.31	79.05	-74.7	-95.6	3.8	8474544	99	40102
2025-01-02 01:12:06.48	224.84	78.86	-74.7	-95.7	3.8	8468971	99	40183
2025-01-02 01:12:06.90	224.36	78.67	-74.7	-95.6	3.7	8463752	99	40139
2025-01-02 01:12:07.31	223.92	78.49	-74.7	-95.4	3.8	8451850	99	39111
2025-01-02 01:12:07.73	223.48	78.30	-74.8	-95.7	3.8	8455341	99	40031
2025-01-02 01:12:08.15	223.05	78.11	-74.8	-95.7	3.8	8462310	99	40043
2025-01-02 01:12:08.57	222.64	77.91	-74.7	-95.4	3.8	8462047	99	39205
2025-01-02 01:12:08.98	222.25	77.73	-74.7	-95.4	3.8	8447879	99	39194
2025-01-02 01:12:09.40	221.86	77.53	-74.8	-95.7	3.8	8456748	99	40019
2025-01-02 01:12:09.82	221.49	77.34	-74.8	-95.7	3.8	8467151	99	40041
2025-01-02 01:12:10.23	221.13	77.15	-74.7	-95.5	3.8	8452766	99	39355
2025-01-02 01:12:10.65	220.78	76.96	-74.6	-95.4	3.8	8463867	99	39412
2025-01-02 01:12:11.07	220.44	76.77	-74.7	-95.6	3.8	8457309	99	40256
2025-01-02 01:12:11.49	220.11	76.57	-74.7	-95.6	3.8	8450592	99	40258
2025-01-02 01:12:11.90	219.79	76.38	-74.7	-95.4	3.8	8463203	99	38881
2025-01-02 01:12:12.32	219.48	76.19	-74.6	-95.6	3.8	8452148	99	40253
2025-01-02 01:12:12.73	219.18	76.00	-74.7	-95.7	3.8	8458419	99	40213
2025-01-02 01:12:13.15	218.89	75.81	-74.6	-95.6	3.8	8464038	99	40184
2025-01-02 01:12:13.57	218.60	75.61	-74.6	-95.5	3.8	8450534	99	39772
2025-01-02 01:12:13.98	218.33	75.42	-74.7	-95.7	3.8	8450992	99	40179
2025-01-02 01:12:14.40	218.06	75.23	-74.7	-95.7	3.8	8461120	99	40291
2025-01-02 01:12:14.82	217.79	75.03	-74.7	-95.7	3.8	8461761	99	40038
2025-01-02 01:12:15.24	217.54	74.84	-74.7	-95.6	3.8	8465309	99	40059
2025-01-02 01:12:15.65	217.29	74.65	-74.8	-95.8	3.8	8456245	99	40210
2025-01-02 01:12:16.07	217.05	74.46	-74.8	-95.8	3.7	8467895	99	40180
2025-01-02 01:12:16.49	216.81	74.26	-74.8	-95.6	3.8	8469486	99	39651
2025-01-02 01:12:16.91	216.58	74.07	-74.7	-95.7	3.8	8463626	99	40190
2025-01-02 01:12:17.32	216.36	73.88	-74.8	-95.8	3.8	8453704	99	40158
2025-01-02 01:12:17.74	216.14	73.68	-74.8	-95.7	3.7	8462539	99	40038
2025-01-02 01:12:18.16	215.92	73.49	-74.7	-95.6	3.8	8456520	99	39587
2025-01-02 01:12:18.58	215.71	73.30	-74.7	-95.7	3.8	8464118	99	40217
2025-01-02 01:12:18.99	215.51	73.11	-74.8	-95.8	3.8	8466247	99	40302
2025-01-02 01:12:19.41	215.31	72.91	-74.7	-95.5	3.8	8453613	99	39233
2025-01-02 01:12:19.83	215.12	72.72	-74.7	-95.5	3.8	8461063	99	39294
2025-01-02 01:12:20.24	214.93	72.53	-74.8	-95.7	3.8	8454700	99	40299
2025-01-02 01:12:20.66	214.75	72.34	-74.8	-95.7	3.8	8460124	99	40089
2025-01-02 01:12:21.08	214.57	72.14	-74.8	-95.6	3.8	8466865	99	39573
2025-01-02 01:12:21.50	214.39	71.95	-74.7	-95.5	3.8	8462425	99	39534
2025-01-02 01:12:21.91	214.22	71.76	-74.8	-95.7	3.8	8450122	99	40218
2025-01-02 01:12:22.33	214.05	71.57	-74.8	-95.8	3.8	8451919	99	40205
2025-01-02 01:12:22.75	213.88	71.38	-74.7	-95.5	3.8	8451232	99	39483
2025-01-02 01:12:23.17	213.72	71.18	-74.8	-95.7	3.8	8451942	99	40251
2025-01-02 01:12:23.58	213.56	71.00	-74.5	-95.4	3.8	8455375	99	39849
2025-01-02 01:12:24.00	213.41	70.81	-74.7	-95.7	3.8	8460273	99	40343
2025-01-02 01:12:24.42	213.26	70.61	-74.7	-95.5	3.8	8453498	99	39548
2025-01-02 01:12:24.84	213.11	70.42	-74.6	-95.6	3.8	8462196	99	40415

#Closed at: 2025-01-02 01:12:25