passes_logs/2026/01/17/XPeterburg/XPeterburg__20260117_103542_SUOMI_NPP_rec.log

#Pass ID: 20260117_103542_SUOMI NPP
#Satellite: SUOMI NPP
#Configuration: NPP
#Start time: 2026-01-17 10:35:37

#Version: 1.5.20200625
#Station: XPeterburg
#Location: 30.318091 lon 59.932769 lat
#TLE: 1 37849U 11061A   26015.94982489  .00000054  00000+0  46705-4 0  9991
#TLE: 2 37849  98.7812 317.9902 0002438  62.0366 298.1057 14.19525452736847

#Time	Az	El	Level	Level2	SNR	BER	Gain	Gain2
2026-01-17 10:35:37.95	185.79	68.29	-38.4	-44.5	3.3	15355125	95	2480
2026-01-17 10:35:38.36	186.00	68.46	-38.3	-46.4	3.6	15121566	93	3130
2026-01-17 10:35:38.76	186.22	68.63	-38.2	-45.1	3.4	15177581	93	2709
2026-01-17 10:35:39.16	186.44	68.80	-38.3	-45.8	3.4	15181732	94	2931
2026-01-17 10:35:39.56	186.67	68.97	-38.2	-44.0	3.4	15138496	94	2412
2026-01-17 10:35:39.97	186.90	69.14	-37.8	-44.2	3.6	15138496	93	2571
2026-01-17 10:35:40.37	187.13	69.31	-37.6	-42.2	3.8	15148681	93	2079
2026-01-17 10:35:40.77	187.37	69.47	-37.5	-41.2	3.9	14575981	93	1879
2026-01-17 10:35:41.17	187.61	69.64	-37.3	-40.5	4.1	13851371	93	1781
2026-01-17 10:35:41.57	187.85	69.81	-37.2	-40.4	4.3	11970184	92	1795
2026-01-17 10:35:41.97	188.10	69.98	-37.0	-39.8	4.6	9848846	92	1696
2026-01-17 10:35:42.38	188.36	70.15	-36.8	-39.3	4.8	7584663	92	1634
2026-01-17 10:35:42.78	188.62	70.32	-36.8	-39.5	5.0	6497177	91	1686
2026-01-17 10:35:43.18	188.88	70.48	-36.8	-39.6	5.0	5750022	91	1703
2026-01-17 10:35:43.58	189.15	70.65	-36.7	-39.2	5.1	5611396	91	1646
2026-01-17 10:35:43.98	189.43	70.82	-36.8	-39.8	5.0	5579040	91	1726
2026-01-17 10:35:44.39	189.71	70.99	-36.9	-40.1	4.9	5554023	91	1771
2026-01-17 10:35:44.79	189.99	71.16	-37.1	-40.5	4.7	5554023	91	1822
2026-01-17 10:35:45.19	190.28	71.32	-37.0	-40.2	5.0	6643692	91	1784
2026-01-17 10:35:45.59	190.58	71.49	-37.0	-40.2	5.1	6272689	91	1778
2026-01-17 10:35:45.99	190.88	71.66	-37.0	-40.3	5.0	5826164	91	1803
2026-01-17 10:35:46.40	191.19	71.83	-37.1	-40.6	5.0	5572143	91	1845
2026-01-17 10:35:46.80	191.50	71.99	-36.9	-40.0	5.4	5252159	91	1754
2026-01-17 10:35:47.20	191.82	72.16	-36.6	-39.0	6.0	4494606	91	1630
2026-01-17 10:35:47.60	192.14	72.32	-36.3	-38.1	6.6	3228691	91	1519
2026-01-17 10:35:48.00	192.47	72.49	-35.9	-37.8	6.9	2121696	90	1528
2026-01-17 10:35:48.40	192.81	72.65	-35.7	-37.7	7.3	1401145	89	1557
2026-01-17 10:35:48.81	193.16	72.82	-35.4	-36.9	7.7	1047256	89	1463
2026-01-17 10:35:49.21	193.51	72.98	-35.4	-37.0	7.7	782379	89	1472
2026-01-17 10:35:49.61	193.87	73.15	-35.6	-37.4	7.4	946212	89	1516
2026-01-17 10:35:50.01	194.23	73.31	-36.0	-38.5	6.6	946212	89	1641
2026-01-17 10:35:50.41	194.61	73.47	-36.4	-39.5	6.0	1494750	89	1767
2026-01-17 10:35:50.82	195.00	73.64	-36.6	-39.6	5.6	2562133	90	1752
2026-01-17 10:35:51.22	195.38	73.80	-36.6	-39.7	5.4	3751419	90	1750
2026-01-17 10:35:51.62	195.78	73.96	-36.7	-39.8	5.5	4398086	90	1765
2026-01-17 10:35:52.02	196.19	74.12	-36.6	-39.4	5.7	4766647	90	1706
2026-01-17 10:35:52.42	196.60	74.28	-36.4	-39.0	5.9	3855438	90	1662
2026-01-17 10:35:52.83	197.03	74.45	-36.1	-38.1	6.7	2657081	90	1555
2026-01-17 10:35:53.23	197.46	74.61	-36.0	-38.0	6.9	2084785	90	1550
2026-01-17 10:35:53.63	197.91	74.77	-36.1	-38.3	6.7	1773826	90	1581
2026-01-17 10:35:54.03	198.36	74.92	-36.1	-38.4	6.9	1668846	90	1595
2026-01-17 10:35:54.43	198.82	75.08	-35.9	-37.7	7.2	1542755	90	1520
2026-01-17 10:35:54.83	199.29	75.24	-36.2	-38.7	6.7	1542755	90	1644
2026-01-17 10:35:55.24	199.78	75.40	-36.5	-39.4	6.2	1531547	90	1729
2026-01-17 10:35:55.64	200.27	75.55	-36.5	-39.6	6.1	2161491	90	1740
2026-01-17 10:35:56.04	200.77	75.70	-36.5	-39.3	6.3	2488151	90	1702
2026-01-17 10:35:56.44	201.29	75.86	-36.5	-39.6	6.2	2721916	90	1744
2026-01-17 10:35:56.84	201.81	76.01	-36.8	-40.3	5.9	3137863	90	1849
2026-01-17 10:35:57.24	202.35	76.16	-37.3	-41.1	5.2	3279159	91	1915
2026-01-17 10:35:57.65	202.91	76.31	-37.1	-40.6	5.5	4003532	91	1828
2026-01-17 10:35:58.05	203.48	76.46	-37.2	-40.7	5.5	4097221	91	1840
2026-01-17 10:35:58.45	204.05	76.61	-37.5	-41.8	4.9	4983207	91	2016
2026-01-17 10:35:58.85	204.64	76.75	-37.6	-41.8	4.6	6619270	92	1990
2026-01-17 10:35:59.25	205.24	76.90	-37.6	-41.7	4.6	7838050	92	1976
2026-01-17 10:35:59.65	205.86	77.04	-37.6	-41.7	4.7	6848388	92	1973
2026-01-17 10:36:00.05	206.49	77.19	-37.4	-41.1	5.1	6848388	92	1885
2026-01-17 10:36:00.46	207.15	77.33	-37.3	-40.8	5.4	5627464	92	1834
2026-01-17 10:36:00.86	207.81	77.47	-37.1	-39.9	5.8	4642761	92	1707
2026-01-17 10:36:01.26	208.48	77.61	-37.1	-39.9	5.9	3711891	92	1704
2026-01-17 10:36:01.66	209.17	77.74	-37.1	-40.2	5.8	3168296	92	1743
2026-01-17 10:36:02.06	209.87	77.88	-37.3	-40.4	5.4	3447486	92	1768
2026-01-17 10:36:02.46	210.60	78.01	-37.4	-41.0	5.0	4516281	92	1857
2026-01-17 10:36:02.87	211.35	78.15	-37.4	-40.8	5.0	5741500	92	1819
2026-01-17 10:36:03.27	212.11	78.28	-37.2	-40.2	5.3	5455680	92	1721
2026-01-17 10:36:03.67	212.88	78.40	-37.2	-39.9	5.6	4429580	92	1685
2026-01-17 10:36:04.07	213.67	78.53	-37.1	-39.7	5.8	3677955	92	1654
2026-01-17 10:36:04.47	214.48	78.65	-37.0	-39.5	5.9	3318527	92	1641
2026-01-17 10:36:04.87	215.30	78.77	-37.0	-39.3	6.0	3318527	92	1614
2026-01-17 10:36:05.28	216.17	78.90	-37.2	-40.2	5.5	3307708	92	1737
2026-01-17 10:36:05.68	217.03	79.01	-37.6	-41.2	4.9	3760337	92	1876
2026-01-17 10:36:06.08	217.91	79.13	-37.7	-41.8	4.6	5646942	92	1958
2026-01-17 10:36:06.48	218.81	79.24	-37.9	-42.5	4.3	7144004	92	2081
2026-01-17 10:36:06.88	219.73	79.35	-38.0	-42.4	4.1	8798477	93	2035
2026-01-17 10:36:07.29	220.69	79.46	-37.9	-42.1	4.2	9945564	93	1994
2026-01-17 10:36:07.69	221.65	79.56	-37.8	-41.7	4.3	9895507	93	1912
2026-01-17 10:36:08.09	222.62	79.66	-37.7	-41.0	4.6	8736419	93	1812
2026-01-17 10:36:08.49	223.62	79.76	-37.6	-40.5	4.8	7017967	93	1733
2026-01-17 10:36:08.89	224.64	79.85	-37.5	-40.3	4.9	6138420	93	1695
2026-01-17 10:36:09.29	225.67	79.94	-37.6	-40.6	4.8	6225608	93	1733
2026-01-17 10:36:09.70	226.75	80.03	-37.7	-41.0	4.6	6225608	93	1795
2026-01-17 10:36:10.10	227.82	80.12	-37.8	-41.5	4.3	6885993	93	1874
2026-01-17 10:36:10.50	228.91	80.20	-38.0	-42.0	4.2	8640228	93	1958
2026-01-17 10:36:10.90	230.02	80.28	-38.0	-42.3	4.1	9277847	93	2008
2026-01-17 10:36:11.30	231.15	80.35	-38.0	-42.3	4.0	10924140	93	2019
2026-01-17 10:36:11.70	232.29	80.42	-38.0	-42.1	4.1	11730850	93	1973
2026-01-17 10:36:12.10	233.46	80.49	-38.1	-42.5	4.0	10842498	93	2039
2026-01-17 10:36:12.51	234.66	80.56	-38.0	-42.2	4.1	12226837	93	1988
2026-01-17 10:36:12.91	235.86	80.62	-38.1	-42.6	4.0	10920310	93	2063
2026-01-17 10:36:13.31	237.06	80.67	-38.2	-42.8	3.9	12815109	93	2086
2026-01-17 10:36:13.71	238.28	80.72	-38.1	-42.7	4.0	12792366	93	2075
2026-01-17 10:36:14.11	239.52	80.77	-38.2	-42.9	3.9	12873313	93	2118
2026-01-17 10:36:14.51	240.77	80.81	-38.1	-42.5	4.0	13098411	93	2038
2026-01-17 10:36:14.92	242.06	80.85	-37.9	-41.7	4.3	13098411	93	1903
2026-01-17 10:36:15.32	243.33	80.88	-37.8	-41.2	4.5	10193458	93	1816
2026-01-17 10:36:15.72	244.60	80.91	-37.8	-41.3	4.5	8614814	93	1840
2026-01-17 10:36:16.12	245.89	80.94	-37.7	-40.8	4.7	7449974	93	1760
2026-01-17 10:36:16.52	247.18	80.96	-37.9	-41.5	4.4	7649353	93	1862
2026-01-17 10:36:16.93	248.51	80.97	-37.8	-41.2	4.5	7751419	93	1812
2026-01-17 10:36:17.33	249.81	80.98	-37.9	-41.8	4.3	7846031	93	1919
2026-01-17 10:36:17.73	251.11	80.99	-37.9	-41.6	4.3	8837203	93	1882
2026-01-17 10:36:18.13	252.42	80.99	-37.7	-41.1	4.6	8359596	93	1802
2026-01-17 10:36:18.53	253.72	80.99	-37.8	-41.2	4.6	7396232	93	1825
2026-01-17 10:36:18.93	255.02	80.98	-37.6	-40.3	5.0	6959945	93	1694
2026-01-17 10:36:19.33	256.32	80.97	-37.8	-41.2	4.6	6536758	93	1818
2026-01-17 10:36:19.74	257.65	80.95	-37.8	-41.4	4.5	6536758	93	1849
2026-01-17 10:36:20.14	258.94	80.93	-37.8	-41.2	4.6	7232040	93	1829
2026-01-17 10:36:20.54	260.23	80.91	-38.0	-42.0	4.3	7819061	93	1950
2026-01-17 10:36:20.94	261.50	80.88	-38.0	-42.0	4.2	8850868	93	1954
2026-01-17 10:36:21.34	262.77	80.84	-38.2	-42.8	4.0	10272521	93	2089
2026-01-17 10:36:21.74	264.02	80.80	-38.1	-42.6	4.0	12673141	93	2052
2026-01-17 10:36:22.15	265.30	80.76	-38.0	-42.1	4.3	12447257	93	1961
2026-01-17 10:36:22.55	266.53	80.71	-37.9	-41.8	4.3	10144828	93	1927
2026-01-17 10:36:22.95	267.75	80.66	-38.1	-42.3	4.1	9270294	93	1994
2026-01-17 10:36:23.35	268.96	80.60	-38.1	-42.7	4.0	10057594	93	2071
2026-01-17 10:36:23.75	270.15	80.54	-38.2	-42.9	3.9	13130996	93	2115
2026-01-17 10:36:24.16	271.35	80.48	-38.3	-43.6	3.7	13877235	93	2244
2026-01-17 10:36:24.56	272.51	80.41	-38.3	-43.2	3.8	14112403	93	2175
2026-01-17 10:36:24.96	273.65	80.34	-38.0	-43.2	4.3	14112403	93	2233
2026-01-17 10:36:25.36	274.77	80.27	-38.0	-42.3	4.4	13741882	93	2013
2026-01-17 10:36:25.76	275.88	80.19	-37.7	-40.9	4.8	9714126	93	1784
2026-01-17 10:36:26.16	276.96	80.10	-37.6	-40.8	4.9	7595359	93	1769
2026-01-17 10:36:26.57	278.06	80.02	-37.8	-41.3	4.6	6636619	93	1846
2026-01-17 10:36:26.97	279.11	79.93	-37.9	-41.8	4.4	7147743	93	1937
2026-01-17 10:36:27.37	280.14	79.84	-37.9	-42.1	4.3	8271781	93	1974
2026-01-17 10:36:27.77	281.15	79.74	-38.1	-42.5	4.1	9947456	93	2057
2026-01-17 10:36:28.18	282.17	79.64	-38.1	-42.8	4.0	12092201	93	2113
2026-01-17 10:36:28.58	283.14	79.54	-38.1	-42.9	4.0	12407371	93	2134
2026-01-17 10:36:28.98	284.09	79.43	-38.0	-42.3	4.2	11837944	93	2016
2026-01-17 10:36:29.38	285.03	79.33	-37.7	-41.2	4.6	8562049	93	1841
2026-01-17 10:36:29.78	285.94	79.22	-37.7	-41.4	4.7	8562049	93	1866
2026-01-17 10:36:30.19	286.86	79.10	-37.8	-41.5	4.6	7505119	93	1883
2026-01-17 10:36:30.59	287.73	78.99	-37.7	-41.2	4.7	7508628	93	1844
2026-01-17 10:36:30.99	288.59	78.87	-37.5	-40.6	5.0	7107917	93	1746
2026-01-17 10:36:31.39	289.43	78.75	-37.2	-40.1	5.7	5977119	92	1713
2026-01-17 10:36:31.79	290.25	78.63	-37.2	-40.3	5.6	3850128	92	1746
2026-01-17 10:36:32.20	291.08	78.50	-37.1	-39.9	5.8	3530364	92	1694
2026-01-17 10:36:32.60	291.86	78.38	-37.2	-40.3	5.6	3871086	92	1744
2026-01-17 10:36:33.00	292.63	78.25	-37.2	-40.2	5.6	3767318	92	1745
2026-01-17 10:36:33.40	293.38	78.12	-37.3	-40.5	5.4	4167907	92	1787
2026-01-17 10:36:33.80	294.12	77.99	-37.4	-40.9	5.3	4724220	92	1837
2026-01-17 10:36:34.20	294.84	77.86	-37.4	-40.9	5.2	4931427	92	1834
2026-01-17 10:36:34.61	295.55	77.72	-37.3	-40.7	5.4	5008094	92	1806
2026-01-17 10:36:35.01	296.24	77.58	-37.2	-40.2	5.7	5008094	92	1747
2026-01-17 10:36:35.41	296.91	77.44	-37.5	-41.1	5.0	4169273	92	1876
2026-01-17 10:36:35.81	297.57	77.30	-37.5	-41.2	4.8	4974624	92	1893
2026-01-17 10:36:36.22	298.22	77.16	-37.4	-41.0	4.9	6153724	92	1850
2026-01-17 10:36:36.62	298.85	77.02	-37.2	-40.1	5.4	5910400	92	1724
2026-01-17 10:36:37.02	299.46	76.87	-36.8	-39.0	6.2	4505065	92	1577
2026-01-17 10:36:37.42	300.06	76.73	-36.5	-38.6	7.0	2768737	91	1559
2026-01-17 10:36:37.83	300.66	76.58	-35.9	-38.1	7.7	1159843	89	1585
2026-01-17 10:36:38.23	301.23	76.43	-35.0	-36.4	9.0	571792	88	1441
2026-01-17 10:36:38.63	301.79	76.28	-34.9	-36.8	9.3	208915	87	1520
2026-01-17 10:36:39.03	302.34	76.13	-35.0	-36.8	9.0	184211	87	1513
2026-01-17 10:36:39.43	302.87	75.98	-35.1	-37.0	8.8	261253	87	1541
2026-01-17 10:36:39.83	303.39	75.83	-35.2	-37.2	8.5	261253	87	1559
2026-01-17 10:36:40.24	303.92	75.67	-35.4	-37.8	8.2	352256	87	1624
2026-01-17 10:36:40.64	304.42	75.52	-35.2	-37.4	8.4	498939	87	1585
2026-01-17 10:36:41.04	304.91	75.36	-35.5	-37.5	7.8	525558	88	1561
2026-01-17 10:36:41.44	305.39	75.21	-35.6	-38.0	7.5	726791	88	1610
2026-01-17 10:36:41.84	305.85	75.05	-36.3	-39.1	6.4	1050582	89	1715
2026-01-17 10:36:42.25	306.32	74.89	-36.6	-39.6	5.7	2355155	90	1733
2026-01-17 10:36:42.65	306.77	74.74	-36.6	-39.6	5.7	3618438	90	1729
2026-01-17 10:36:43.05	307.21	74.58	-36.7	-39.7	5.5	3904846	90	1739
2026-01-17 10:36:43.45	307.64	74.42	-36.6	-39.7	5.5	4327934	90	1743
2026-01-17 10:36:43.85	308.06	74.26	-36.8	-40.1	5.4	4098487	90	1801
2026-01-17 10:36:44.25	308.47	74.10	-36.9	-40.6	5.1	4797935	90	1872
2026-01-17 10:36:44.66	308.88	73.93	-36.8	-40.1	5.5	4984153	90	1811
2026-01-17 10:36:45.06	309.28	73.77	-36.8	-40.2	5.5	4984153	90	1825
2026-01-17 10:36:45.46	309.67	73.61	-36.7	-40.0	5.6	4024978	90	1785
2026-01-17 10:36:45.86	310.04	73.45	-36.2	-38.4	6.6	4186859	90	1592
2026-01-17 10:36:46.26	310.41	73.29	-36.0	-38.0	7.1	2552192	90	1554
2026-01-17 10:36:46.67	310.79	73.12	-35.6	-37.3	8.0	1407905	89	1508
2026-01-17 10:36:47.07	311.14	72.96	-35.4	-37.1	8.2	737518	89	1487
2026-01-17 10:36:47.47	311.49	72.79	-35.5	-37.1	8.0	508689	89	1491
2026-01-17 10:36:47.87	311.83	72.63	-35.5	-37.3	7.9	645065	89	1505
2026-01-17 10:36:48.27	312.17	72.46	-35.9	-38.3	7.0	827369	89	1618
2026-01-17 10:36:48.68	312.51	72.30	-36.5	-39.7	6.0	1616043	89	1797
2026-01-17 10:36:49.08	312.83	72.13	-36.8	-40.1	5.5	3281745	90	1810
2026-01-17 10:36:49.48	313.14	71.97	-37.3	-40.9	4.9	5776893	91	1867
2026-01-17 10:36:49.88	313.45	71.80	-37.3	-41.0	4.8	5776893	91	1891
2026-01-17 10:36:50.28	313.76	71.63	-37.3	-41.2	4.8	6777389	91	1930
2026-01-17 10:36:50.68	314.06	71.47	-37.5	-41.6	4.4	7115669	92	1993
2026-01-17 10:36:51.09	314.36	71.30	-37.8	-42.9	3.9	8206047	92	2220
2026-01-17 10:36:51.49	314.64	71.13	-37.8	-45.0	3.7	12264282	92	2818
2026-01-17 10:36:51.89	314.93	70.96	-37.9	-44.4	3.7	14463882	92	2616
2026-01-17 10:36:52.29	315.20	70.80	-37.8	-44.5	3.7	14502204	92	2674
2026-01-17 10:36:52.69	315.47	70.63	-37.7	-43.6	4.0	14509742	92	2416
2026-01-17 10:36:53.09	315.74	70.46	-37.7	-43.0	3.8	13660598	92	2252

#Closed at: 2026-01-17 10:36:53