passes_logs/2026/01/17/R3.2S-Naryan-Mar/R3.2S-Naryan-Mar__20260117_232038_AQUA_rec.log

#Pass ID: 20260117_232038_AQUA
#Satellite: AQUA
#Configuration: AQUA
#almurnet v.1.7.20240730
#Start time: 2026-01-17 23:20:41

#Version: 2.2.20231116
#Station: R3.2S-Naryan-Mar
#Location: 53.008057 lon 67.646978 lat
#TLE: 1 27424U 02022A   26017.29152041  .00000842  00000+0  17841-3 0  9992
#TLE: 2 27424  98.4085 343.7574 0002011  75.4099  30.6811 14.61825797261228

#Time	Az	El	Level	Level2	SNR	BER	BlckErr	Temp	State	Recorded	gain1	gain2
2026-01-17 23:20:41.40	19.51	0.18	-84.3	-88.8	2.4	3.11e+01	0	46	0	0	60	1048575
2026-01-17 23:20:44.42	19.68	0.35	-84.3	-88.8	2.4	3.11e+01	0	46	104	0	60	1048575
2026-01-17 23:20:47.44	19.84	0.52	-83.9	-88.8	2.6	3.11e+01	0	46	104	0	60	1048575
2026-01-17 23:20:50.47	20.00	0.70	-84.3	-88.8	2.5	3.11e+01	0	46	104	0	60	1048575
2026-01-17 23:20:53.48	20.17	0.88	-83.9	-88.8	2.3	3.11e+01	0	46	104	0	60	1048575
2026-01-17 23:20:56.50	20.34	1.05	-84.3	-88.8	2.7	3.11e+01	0	46	104	0	60	1048575
2026-01-17 23:20:59.51	20.51	1.23	-84.3	-88.8	2.6	3.11e+01	0	46	104	0	60	1048575
2026-01-17 23:21:02.54	20.69	1.41	-83.9	-88.8	2.5	3.11e+01	0	46	104	0	60	1048575
2026-01-17 23:21:05.56	20.86	1.59	-84.3	-88.8	2.5	3.11e+01	0	46	104	0	60	1048575
2026-01-17 23:21:08.58	21.04	1.77	-83.9	-88.8	2.6	3.11e+01	0	46	104	0	60	1048575
2026-01-17 23:21:11.60	21.22	1.95	-83.9	-88.8	2.7	3.11e+01	0	46	104	0	60	1048575
2026-01-17 23:21:14.61	21.40	2.14	-84.3	-88.8	2.6	3.11e+01	0	46	104	0	60	1048575
2026-01-17 23:21:17.63	21.59	2.32	-84.3	-88.8	2.2	3.11e+01	0	46	104	0	60	1048575
2026-01-17 23:21:20.65	21.77	2.51	-83.9	-88.8	2.3	3.11e+01	0	46	104	0	60	1048575
2026-01-17 23:21:23.68	21.96	2.70	-84.3	-88.8	2.6	3.11e+01	0	46	104	0	60	1048575
2026-01-17 23:21:26.70	22.15	2.88	-83.9	-88.8	2.6	3.11e+01	0	46	104	0	60	1048575
2026-01-17 23:21:29.71	22.35	3.07	-84.3	-88.8	2.5	3.11e+01	0	46	104	0	60	1048575
2026-01-17 23:21:32.73	22.54	3.26	-84.3	-88.8	2.7	3.11e+01	0	46	104	0	60	1048575
2026-01-17 23:21:35.75	22.74	3.45	-83.9	-88.8	2.8	3.11e+01	0	46	104	0	60	1048575
2026-01-17 23:21:38.77	22.95	3.65	-84.3	-88.8	2.8	3.11e+01	0	46	104	0	60	1048575
2026-01-17 23:21:41.80	23.15	3.84	-84.3	-88.8	2.6	3.11e+01	0	46	104	0	60	1048575
2026-01-17 23:21:44.81	23.36	4.04	-83.9	-88.8	2.5	3.11e+01	0	46	104	0	60	1048575
2026-01-17 23:21:47.82	23.57	4.23	-84.3	-88.8	2.6	3.11e+01	0	46	104	0	60	1048575
2026-01-17 23:21:50.83	23.78	4.43	-83.9	-88.8	2.5	3.11e+01	0	46	104	0	60	1048575
2026-01-17 23:21:53.83	24.00	4.63	-84.3	-88.8	2.6	3.11e+01	0	47	104	0	60	1048575
2026-01-17 23:21:56.85	24.22	4.83	-84.3	-88.8	2.5	3.11e+01	0	47	104	0	60	1048575
2026-01-17 23:21:59.87	24.44	5.03	-83.9	-88.8	2.6	3.11e+01	0	46	104	0	60	1048575
2026-01-17 23:22:02.89	24.66	5.24	-83.9	-88.8	2.7	3.11e+01	0	47	104	0	60	1048575
2026-01-17 23:22:05.92	24.89	5.44	-83.9	-88.8	2.5	3.11e+01	0	47	104	0	60	1048575
2026-01-17 23:22:08.93	25.13	5.65	-83.9	-88.8	2.6	3.11e+01	0	47	104	0	60	1048575
2026-01-17 23:22:11.96	25.36	5.86	-84.3	-88.8	2.4	3.11e+01	0	47	104	0	60	1048575
2026-01-17 23:22:14.98	25.60	6.07	-84.3	-88.8	2.5	3.11e+01	0	47	104	0	60	1048575
2026-01-17 23:22:17.99	25.84	6.28	-83.9	-88.8	2.3	3.11e+01	0	47	104	0	60	1048575
2026-01-17 23:22:21.01	26.09	6.49	-84.3	-88.8	2.5	3.11e+01	0	47	104	0	60	1048575
2026-01-17 23:22:24.03	26.34	6.70	-84.3	-88.8	2.5	3.11e+01	0	47	104	0	60	1048575
2026-01-17 23:22:27.05	26.59	6.92	-84.3	-88.8	2.4	3.11e+01	0	47	104	0	60	1048575
2026-01-17 23:22:30.07	26.85	7.14	-84.3	-88.8	2.6	3.11e+01	0	47	104	0	60	1048575
2026-01-17 23:22:33.09	27.11	7.36	-83.9	-88.8	2.5	3.11e+01	0	47	104	0	60	1048575
2026-01-17 23:22:36.11	27.38	7.58	-84.3	-88.8	2.4	3.11e+01	0	46	104	0	60	1048575
2026-01-17 23:22:39.12	27.65	7.80	-84.3	-88.8	2.6	3.11e+01	0	47	104	0	60	1048575
2026-01-17 23:22:42.14	27.92	8.02	-83.9	-88.8	2.5	3.11e+01	0	47	104	0	60	1048575
2026-01-17 23:22:45.15	28.20	8.25	-84.3	-88.8	2.2	3.11e+01	0	47	104	0	60	1048575
2026-01-17 23:22:48.17	28.48	8.48	-84.3	-88.8	2.6	3.11e+01	0	47	104	0	60	1048575
2026-01-17 23:22:51.19	28.77	8.71	-83.9	-88.8	2.6	3.11e+01	0	47	104	0	60	1048575
2026-01-17 23:22:54.21	29.06	8.94	-83.9	-88.8	2.6	3.11e+01	0	47	104	0	60	1048575
2026-01-17 23:22:57.22	29.36	9.17	-84.3	-88.8	2.7	3.11e+01	0	47	104	0	60	1048575
2026-01-17 23:23:00.23	29.66	9.40	-84.3	-88.8	2.5	3.11e+01	0	47	104	0	60	1048575
2026-01-17 23:23:03.25	29.97	9.64	-84.3	-88.8	2.7	3.11e+01	0	47	104	0	60	1048575
2026-01-17 23:23:06.27	30.28	9.88	-83.9	-88.8	2.4	3.11e+01	0	47	104	0	60	1048574
2026-01-17 23:23:09.28	30.60	10.12	-84.3	-88.8	2.6	3.11e+01	0	47	104	0	60	1048574
2026-01-17 23:23:12.30	30.92	10.36	-84.3	-88.8	2.6	3.11e+01	0	46	104	0	60	1048574
2026-01-17 23:23:15.32	31.25	10.60	-83.9	-88.8	2.6	3.11e+01	0	47	104	0	60	1048574
2026-01-17 23:23:18.35	31.59	10.85	-84.3	-88.8	2.5	3.11e+01	0	47	104	0	60	1048574
2026-01-17 23:23:21.37	31.93	11.10	-84.3	-88.8	2.5	3.11e+01	0	47	104	0	60	1048574
2026-01-17 23:23:24.39	32.27	11.35	-84.3	-88.8	2.5	3.11e+01	0	47	104	0	60	1048574
2026-01-17 23:23:27.40	32.63	11.60	-84.3	-88.8	2.5	3.11e+01	0	47	104	0	60	1048574
2026-01-17 23:23:30.41	32.98	11.85	-83.9	-88.8	2.7	3.11e+01	0	47	104	0	60	1048574
2026-01-17 23:23:33.43	33.35	12.11	-84.3	-88.8	2.6	3.11e+01	0	47	104	0	60	1048574
2026-01-17 23:23:36.45	33.72	12.37	-84.3	-88.8	2.6	3.11e+01	0	47	104	0	60	1048574
2026-01-17 23:23:39.47	34.10	12.63	-83.9	-88.8	2.5	3.11e+01	0	47	104	0	60	1048574
2026-01-17 23:23:42.48	34.48	12.89	-84.3	-88.8	2.6	3.11e+01	0	47	104	0	60	1048574
2026-01-17 23:23:45.51	34.88	13.15	-84.3	-88.8	2.5	3.11e+01	0	47	104	0	60	1048574
2026-01-17 23:23:48.53	35.28	13.42	-83.9	-88.8	2.2	3.11e+01	0	47	104	0	60	1048574
2026-01-17 23:23:51.54	35.69	13.69	-84.3	-88.8	2.5	3.11e+01	0	47	104	0	60	1048574
2026-01-17 23:23:54.56	36.10	13.96	-83.9	-88.8	2.6	3.11e+01	0	47	104	0	60	1048574
2026-01-17 23:23:57.58	36.53	14.23	-84.3	-88.8	2.8	3.11e+01	0	47	104	0	60	1048574
2026-01-17 23:24:00.59	36.96	14.50	-84.3	-88.8	2.5	3.11e+01	0	47	104	0	60	1048574
2026-01-17 23:24:03.62	37.40	14.78	-83.9	-88.8	2.5	3.11e+01	0	47	104	0	60	1048574
2026-01-17 23:24:06.64	37.85	15.06	-84.3	-88.8	2.3	3.11e+01	0	47	104	0	60	1048574
2026-01-17 23:24:09.66	38.31	15.34	-84.3	-88.8	2.6	3.11e+01	0	47	104	0	60	1048574
2026-01-17 23:24:12.68	38.77	15.62	-83.9	-88.8	2.5	3.11e+01	0	47	104	0	60	1048574
2026-01-17 23:24:15.69	39.25	15.91	-83.9	-88.8	2.5	3.11e+01	0	47	104	0	60	1048574
2026-01-17 23:24:18.71	39.73	16.19	-84.3	-88.8	2.4	3.11e+01	0	47	104	0	60	1048574
2026-01-17 23:24:21.73	40.23	16.48	-83.9	-88.8	2.3	3.11e+01	0	47	104	0	60	1048574
2026-01-17 23:24:24.74	40.73	16.77	-84.3	-88.8	2.3	3.11e+01	0	47	104	0	60	1048574
2026-01-17 23:24:27.77	41.25	17.06	-83.9	-88.8	2.5	3.11e+01	0	47	104	0	60	1048574
2026-01-17 23:24:30.79	41.77	17.36	-83.9	-88.8	2.6	3.11e+01	0	47	104	0	60	1048574
2026-01-17 23:24:33.81	42.31	17.65	-84.3	-88.8	2.4	3.11e+01	0	47	104	0	60	1048574
2026-01-17 23:24:36.83	42.86	17.95	-83.9	-88.8	2.5	3.11e+01	0	47	104	0	60	1048574
2026-01-17 23:24:39.85	43.41	18.25	-84.3	-88.8	2.6	3.11e+01	0	47	104	0	60	1048574
2026-01-17 23:24:42.88	43.99	18.55	-84.3	-88.8	2.6	3.11e+01	0	47	104	0	60	1048574
2026-01-17 23:24:45.90	44.57	18.85	-83.9	-88.8	2.7	3.11e+01	0	47	104	0	60	1048574
2026-01-17 23:24:48.92	45.16	19.15	-84.3	-88.8	2.4	3.11e+01	0	47	104	0	60	1048574
2026-01-17 23:24:51.94	45.77	19.46	-84.3	-88.8	2.5	3.11e+01	0	47	104	0	60	1048574
2026-01-17 23:24:54.96	46.39	19.76	-84.3	-88.8	2.5	3.11e+01	0	47	104	0	60	1048574
2026-01-17 23:24:57.98	47.02	20.07	-84.3	-88.8	2.6	3.11e+01	0	47	104	0	60	1048574
2026-01-17 23:25:01.00	47.66	20.38	-83.9	-88.8	2.5	3.11e+01	0	47	104	0	60	1048574
2026-01-17 23:25:04.03	48.32	20.68	-84.3	-88.8	2.4	3.11e+01	0	47	104	0	60	1048574
2026-01-17 23:25:07.05	48.99	20.99	-84.3	-88.8	2.6	3.11e+01	0	47	104	0	60	1048574
2026-01-17 23:25:10.07	49.68	21.30	-83.9	-88.8	2.8	3.11e+01	0	47	104	0	60	1048574
2026-01-17 23:25:13.09	50.38	21.61	-84.3	-88.8	2.6	3.11e+01	0	47	104	0	60	1048574
2026-01-17 23:25:16.11	51.09	21.92	-83.9	-88.8	2.6	3.11e+01	0	47	104	0	60	1048574
2026-01-17 23:25:19.13	51.82	22.22	-83.9	-88.8	2.2	3.11e+01	0	47	104	0	60	1048574
2026-01-17 23:25:22.16	52.57	22.53	-84.3	-88.8	2.3	3.11e+01	0	47	104	0	60	1048574
2026-01-17 23:25:25.17	53.32	22.84	-84.3	-88.8	2.3	3.11e+01	0	47	104	0	60	1048574
2026-01-17 23:25:28.19	54.10	23.14	-83.9	-88.8	2.5	3.11e+01	0	47	104	0	60	1048574
2026-01-17 23:25:31.21	54.89	23.45	-84.3	-88.8	2.6	3.11e+01	0	47	104	0	60	1048574
2026-01-17 23:25:34.23	55.70	23.75	-83.9	-88.8	2.3	3.11e+01	0	47	104	0	60	1048574
2026-01-17 23:25:37.25	56.52	24.05	-84.3	-88.8	2.4	3.11e+01	0	47	104	0	60	1048574
2026-01-17 23:25:40.27	57.36	24.35	-84.3	-88.8	2.5	3.11e+01	0	47	104	0	60	1048574
2026-01-17 23:25:43.28	58.21	24.65	-83.9	-88.8	2.6	3.11e+01	0	47	104	0	60	1048574
2026-01-17 23:25:46.30	59.08	24.94	-83.9	-88.8	2.8	3.11e+01	0	47	104	0	60	1048574
2026-01-17 23:25:49.33	59.97	25.23	-84.3	-88.8	1.9	3.11e+01	0	47	104	0	60	1048574
2026-01-17 23:25:52.35	60.88	25.52	-83.9	-88.8	2.3	3.11e+01	0	47	104	0	60	1048574
2026-01-17 23:25:55.37	61.80	25.80	-84.3	-88.8	2.5	3.11e+01	0	47	104	0	60	1048574
2026-01-17 23:25:58.39	62.74	26.08	-84.3	-88.8	2.5	3.11e+01	0	47	104	0	60	1048574
2026-01-17 23:26:01.41	63.69	26.35	-83.9	-88.8	2.2	3.11e+01	0	47	104	0	60	1048574
2026-01-17 23:26:04.43	64.67	26.62	-84.3	-88.8	2.2	3.11e+01	0	47	104	0	60	1048574
2026-01-17 23:26:07.45	65.66	26.88	-83.9	-88.8	2.3	3.11e+01	0	47	104	0	60	1048574
2026-01-17 23:26:10.46	66.66	27.13	-84.3	-88.8	2.3	3.11e+01	0	47	104	0	60	1048574
2026-01-17 23:26:13.48	67.68	27.38	-84.3	-88.8	2.7	3.11e+01	0	47	104	0	60	1048574
2026-01-17 23:26:16.50	68.72	27.62	-84.3	-88.8	2.5	3.11e+01	0	47	104	0	60	1048574
2026-01-17 23:26:19.52	69.77	27.86	-83.9	-88.8	2.6	3.11e+01	0	47	104	0	60	1048574
2026-01-17 23:26:22.54	70.84	28.08	-84.3	-88.8	2.7	3.11e+01	0	47	104	0	60	1048574
2026-01-17 23:26:25.56	71.93	28.30	-83.9	-88.8	2.6	3.11e+01	0	47	104	0	60	1048574
2026-01-17 23:26:28.58	73.03	28.51	-84.3	-88.8	2.3	3.11e+01	0	47	104	0	60	1048574
2026-01-17 23:26:31.60	74.15	28.71	-84.3	-88.8	2.5	3.11e+01	0	47	104	0	60	1048574
2026-01-17 23:26:34.62	75.27	28.90	-84.3	-88.8	2.8	3.11e+01	0	47	104	0	60	1048574
2026-01-17 23:26:37.63	76.41	29.08	-84.3	-88.8	2.7	3.11e+01	0	47	104	0	60	1048574
2026-01-17 23:26:40.66	77.57	29.25	-83.9	-88.8	2.7	3.11e+01	0	47	104	0	60	1048574
2026-01-17 23:26:43.67	78.73	29.40	-84.3	-88.8	2.4	3.11e+01	0	47	104	0	60	1048574
2026-01-17 23:26:46.69	79.91	29.55	-84.3	-88.8	2.7	3.11e+01	0	47	104	0	60	1048574
2026-01-17 23:26:49.71	81.10	29.68	-83.9	-88.8	2.5	3.11e+01	0	47	104	0	60	1048574
2026-01-17 23:26:52.73	82.30	29.80	-84.3	-88.8	2.6	3.11e+01	0	47	104	0	60	1048575
2026-01-17 23:26:55.75	83.51	29.91	-84.3	-88.8	2.6	3.11e+01	0	47	104	0	60	1048575
2026-01-17 23:26:58.77	84.72	30.00	-83.9	-88.8	2.5	3.11e+01	0	47	104	0	60	1048575
2026-01-17 23:27:01.79	85.94	30.09	-84.3	-88.8	2.6	3.11e+01	0	47	104	0	60	1048575
2026-01-17 23:27:04.81	87.17	30.15	-83.9	-88.8	2.7	3.11e+01	0	47	104	0	60	1048575
2026-01-17 23:27:07.83	88.40	30.21	-84.3	-88.8	2.7	3.11e+01	0	47	104	0	60	1048575
2026-01-17 23:27:10.85	89.64	30.25	-84.3	-88.8	2.4	3.11e+01	0	47	104	0	60	1048575
2026-01-17 23:27:13.88	90.88	30.27	-84.3	-88.8	2.4	3.11e+01	0	47	104	0	60	1048575
2026-01-17 23:27:16.90	92.12	30.29	-84.3	-88.8	2.4	3.11e+01	0	47	104	0	60	1048575
2026-01-17 23:27:19.92	93.37	30.29	-84.3	-88.8	2.5	3.11e+01	0	47	104	0	60	1048575
2026-01-17 23:27:22.94	94.61	30.27	-83.9	-88.8	2.6	3.11e+01	0	47	104	0	60	1048575
2026-01-17 23:27:25.95	95.84	30.24	-84.3	-88.8	2.5	3.11e+01	0	47	104	0	60	1048575
2026-01-17 23:27:28.97	97.08	30.20	-84.3	-88.8	2.7	3.11e+01	0	47	104	0	60	1048575
2026-01-17 23:27:32.00	98.31	30.14	-83.9	-88.8	2.6	3.11e+01	0	47	104	0	60	1048575
2026-01-17 23:27:35.02	99.54	30.07	-84.3	-88.8	2.5	3.11e+01	0	47	104	0	60	1048575
2026-01-17 23:27:38.05	100.77	29.98	-84.3	-88.8	2.5	3.11e+01	0	47	104	0	60	1048575
2026-01-17 23:27:41.06	101.98	29.88	-83.9	-88.8	2.6	3.11e+01	0	47	104	0	60	1048575
2026-01-17 23:27:44.08	103.18	29.77	-84.3	-88.8	2.6	3.11e+01	0	47	104	0	60	1048575
2026-01-17 23:27:47.10	104.38	29.65	-83.9	-88.8	2.4	3.11e+01	0	47	104	0	60	1048575
2026-01-17 23:27:50.13	105.57	29.51	-84.3	-88.8	2.7	3.11e+01	0	47	104	0	60	1048575
2026-01-17 23:27:53.14	106.75	29.36	-84.3	-88.8	2.7	3.11e+01	0	47	104	0	60	1048575
2026-01-17 23:27:56.16	107.91	29.20	-83.5	-88.8	2.5	3.11e+01	0	47	104	0	60	1048575
2026-01-17 23:27:59.17	109.06	29.03	-84.3	-88.8	2.5	3.11e+01	0	47	104	0	60	1048575
2026-01-17 23:28:02.20	110.21	28.85	-84.3	-88.8	2.7	3.11e+01	0	47	104	0	60	1048575
2026-01-17 23:28:05.22	111.33	28.65	-84.3	-88.8	2.6	3.11e+01	0	47	104	0	60	1048575
2026-01-17 23:28:08.25	112.45	28.45	-84.3	-88.8	2.4	3.11e+01	0	47	104	0	60	1048575
2026-01-17 23:28:11.26	113.55	28.24	-84.3	-88.8	2.3	3.11e+01	0	47	104	0	60	1048575
2026-01-17 23:28:14.28	114.63	28.02	-84.3	-88.8	2.5	3.11e+01	0	47	104	0	60	1048575
2026-01-17 23:28:17.30	115.70	27.79	-84.3	-88.8	2.3	3.11e+01	0	47	104	0	60	1048575
2026-01-17 23:28:20.32	116.75	27.55	-83.9	-88.8	2.6	3.11e+01	0	47	104	0	60	1048575
2026-01-17 23:28:23.34	117.79	27.31	-84.3	-88.8	2.3	3.11e+01	0	47	104	0	60	1048575
2026-01-17 23:28:26.35	118.81	27.06	-84.3	-88.8	2.6	3.11e+01	0	47	104	0	60	1048575
2026-01-17 23:28:29.37	119.81	26.80	-83.9	-88.8	2.7	3.11e+01	0	47	104	0	60	1048575
2026-01-17 23:28:32.39	120.80	26.53	-84.3	-88.8	2.7	3.11e+01	0	47	104	0	60	1048575
2026-01-17 23:28:35.42	121.77	26.26	-84.3	-88.8	2.4	3.11e+01	0	47	104	0	60	1048575
2026-01-17 23:28:38.44	122.73	25.99	-83.9	-88.8	2.4	3.11e+01	0	47	104	0	60	1048575
2026-01-17 23:28:41.46	123.66	25.71	-84.3	-88.8	2.6	3.11e+01	0	47	104	0	60	1048575
2026-01-17 23:28:44.48	124.58	25.42	-83.9	-88.8	2.5	3.11e+01	0	47	104	0	60	1048575
2026-01-17 23:28:47.50	125.49	25.13	-84.3	-88.8	2.6	3.11e+01	0	47	104	0	60	1048575
2026-01-17 23:28:50.53	126.38	24.84	-84.3	-88.8	2.5	3.11e+01	0	47	104	0	60	1048575
2026-01-17 23:28:53.55	127.25	24.54	-83.9	-88.8	2.7	3.11e+01	0	47	104	0	60	1048575
2026-01-17 23:28:56.57	128.10	24.25	-84.3	-88.8	2.5	3.11e+01	0	47	104	0	60	1048575
2026-01-17 23:28:59.58	128.93	23.95	-84.3	-88.8	2.3	3.11e+01	0	47	104	0	60	1048575
2026-01-17 23:29:02.60	129.75	23.64	-83.9	-88.8	2.6	3.11e+01	0	47	104	0	60	1048575
2026-01-17 23:29:05.61	130.56	23.34	-84.3	-88.8	2.6	3.11e+01	0	47	104	0	60	1048575
2026-01-17 23:29:08.59	131.33	23.04	-84.3	-88.8	2.3	3.11e+01	0	47	104	0	60	1048575
2026-01-17 23:29:11.47	132.07	22.74	-83.9	-88.8	2.6	3.11e+01	0	47	104	0	60	1048575
2026-01-17 23:29:14.63	132.86	22.42	-84.3	-88.8	2.5	3.11e+01	0	47	104	0	60	1048575
2026-01-17 23:29:17.51	133.57	22.13	-83.9	-88.8	2.5	3.11e+01	0	47	104	0	60	1048575
2026-01-17 23:29:20.67	134.33	21.80	-84.3	-88.8	2.3	3.11e+01	0	47	104	0	60	1048575
2026-01-17 23:29:23.55	135.01	21.51	-84.3	-88.8	2.6	3.11e+01	0	47	104	0	60	1048575
2026-01-17 23:29:26.72	135.75	21.18	-83.9	-88.8	2.6	3.11e+01	0	47	104	0	60	1048575
2026-01-17 23:29:29.59	136.40	20.89	-84.3	-88.8	2.7	3.11e+01	0	47	104	0	60	1048575
2026-01-17 23:29:32.75	137.10	20.56	-84.3	-88.8	2.4	3.11e+01	0	47	104	0	60	1048575
2026-01-17 23:29:35.63	137.73	20.27	-83.5	-88.8	2.7	3.11e+01	0	47	104	0	60	1048575
2026-01-17 23:29:38.79	138.40	19.94	-84.3	-88.8	2.6	3.11e+01	0	47	104	0	60	1048575
2026-01-17 23:29:41.67	139.00	19.65	-84.3	-88.8	2.6	3.11e+01	0	47	104	0	60	1048575
2026-01-17 23:29:44.83	139.64	19.33	-83.9	-88.8	2.5	3.11e+01	0	47	104	0	60	1048575
2026-01-17 23:29:47.71	140.22	19.04	-84.3	-88.8	2.6	3.11e+01	0	47	104	0	60	1048575
2026-01-17 23:29:50.88	140.84	18.72	-83.9	-88.8	2.7	3.11e+01	0	47	104	0	60	1048575
2026-01-17 23:29:53.75	141.39	18.43	-84.3	-88.8	2.5	3.11e+01	0	47	104	0	60	1048575
2026-01-17 23:29:56.92	141.99	18.11	-84.3	-88.8	2.5	3.11e+01	0	47	104	0	60	1048575
2026-01-17 23:29:59.80	142.52	17.83	-83.9	-88.8	2.2	3.11e+01	0	47	104	0	60	1048575
2026-01-17 23:30:02.96	143.09	17.52	-83.9	-88.8	2.5	3.11e+01	0	47	104	0	60	1048575
2026-01-17 23:30:05.84	143.60	17.23	-84.3	-88.8	2.6	3.11e+01	0	47	104	0	60	1048575
2026-01-17 23:30:09.01	144.15	16.92	-83.5	-88.8	2.6	3.11e+01	0	47	104	0	60	1048575
2026-01-17 23:30:11.89	144.64	16.64	-84.3	-88.8	2.5	3.11e+01	0	47	104	0	60	1048575
2026-01-17 23:30:15.05	145.17	16.34	-84.3	-88.8	2.5	3.11e+01	0	47	104	0	60	1048575
2026-01-17 23:30:17.93	145.64	16.06	-84.3	-88.8	2.4	3.11e+01	0	47	104	0	60	1048575
2026-01-17 23:30:21.10	146.15	15.76	-84.3	-88.8	2.6	3.11e+01	0	47	104	0	60	1048575
2026-01-17 23:30:23.98	146.60	15.49	-83.9	-88.8	2.3	3.11e+01	0	47	104	0	60	1048575
2026-01-17 23:30:27.13	147.09	15.19	-84.3	-88.8	2.6	3.11e+01	0	47	104	0	60	1048575
2026-01-17 23:30:30.00	147.52	14.92	-84.3	-88.8	2.2	3.11e+01	0	47	104	0	60	1048575
2026-01-17 23:30:33.16	147.99	14.63	-83.9	-88.8	2.1	3.11e+01	0	47	104	0	60	1048575
2026-01-17 23:30:36.04	148.41	14.37	-84.3	-88.8	2.7	3.11e+01	0	47	104	0	60	1048575
2026-01-17 23:30:39.20	148.86	14.08	-84.3	-88.8	2.3	3.11e+01	0	47	104	0	60	1048575
2026-01-17 23:30:42.07	149.26	13.82	-83.9	-88.8	2.7	3.11e+01	0	47	104	0	60	1048575
2026-01-17 23:30:45.23	149.69	13.53	-84.3	-88.8	2.4	3.11e+01	0	47	104	0	60	1048575
2026-01-17 23:30:48.11	150.08	13.28	-84.3	-88.8	2.5	3.11e+01	0	47	104	0	60	1048575
2026-01-17 23:30:51.27	150.50	13.00	-84.3	-88.8	2.6	3.11e+01	0	47	104	0	60	1048575
2026-01-17 23:30:54.14	150.87	12.74	-84.3	-88.8	2.4	3.11e+01	0	47	104	0	60	1048575
2026-01-17 23:30:57.30	151.27	12.47	-83.9	-88.8	2.4	3.11e+01	0	47	104	0	60	1048575
2026-01-17 23:31:00.16	151.63	12.22	-84.3	-88.8	2.5	3.11e+01	0	47	104	0	60	1048575
2026-01-17 23:31:03.32	152.01	11.95	-84.3	-88.8	2.6	3.11e+01	0	47	104	0	60	1048575
2026-01-17 23:31:06.20	152.36	11.71	-83.9	-88.8	2.4	3.11e+01	0	47	104	0	60	1048575
2026-01-17 23:31:09.36	152.74	11.44	-84.3	-88.8	2.4	3.11e+01	0	47	104	0	60	1048575
2026-01-17 23:31:12.23	153.07	11.20	-84.3	-88.8	2.6	3.11e+01	0	47	104	0	60	1048575
2026-01-17 23:31:15.39	153.43	10.94	-83.9	-88.8	2.6	3.11e+01	0	47	104	0	60	1048575
2026-01-17 23:31:18.27	153.75	10.70	-84.3	-88.8	2.4	3.11e+01	0	47	104	0	60	1048575
2026-01-17 23:31:21.44	154.10	10.44	-84.3	-88.8	2.7	3.11e+01	0	47	104	0	60	1048575
2026-01-17 23:31:24.32	154.41	10.20	-84.3	-88.8	2.7	3.11e+01	0	47	104	0	60	1048575
2026-01-17 23:31:27.47	154.75	9.95	-84.3	-88.8	2.6	3.11e+01	0	47	104	0	60	1048575
2026-01-17 23:31:30.35	155.05	9.72	-83.9	-88.8	2.4	3.11e+01	0	47	104	0	60	1048575
2026-01-17 23:31:33.51	155.38	9.47	-84.3	-88.8	2.9	3.11e+01	0	47	104	0	60	1048575
2026-01-17 23:31:36.39	155.67	9.24	-84.3	-88.8	2.5	3.11e+01	0	47	104	0	60	1048575
2026-01-17 23:31:39.55	155.98	9.00	-83.9	-88.8	2.5	3.11e+01	0	47	104	0	60	1048575
2026-01-17 23:31:42.43	156.26	8.77	-84.3	-88.8	2.3	3.11e+01	0	47	104	0	60	1048575
2026-01-17 23:31:45.58	156.57	8.53	-84.3	-88.8	2.3	3.11e+01	0	47	104	0	60	1048575
2026-01-17 23:31:48.46	156.84	8.31	-83.9	-88.8	2.6	3.11e+01	0	47	104	0	60	1048575
2026-01-17 23:31:51.63	157.13	8.07	-84.3	-88.8	2.3	3.11e+01	0	47	104	0	60	1048575
2026-01-17 23:31:54.50	157.40	7.86	-84.3	-88.8	2.6	3.11e+01	0	47	104	0	60	1048575
2026-01-17 23:31:57.66	157.68	7.62	-84.3	-88.8	2.3	3.11e+01	0	47	104	0	60	1048575
2026-01-17 23:32:00.53	157.94	7.41	-84.3	-88.8	2.6	3.11e+01	0	47	104	0	60	1048575
2026-01-17 23:32:03.70	158.21	7.18	-83.9	-88.8	2.2	3.11e+01	0	47	104	0	60	1048575
2026-01-17 23:32:06.57	158.46	6.97	-84.3	-88.8	2.7	3.11e+01	0	47	104	0	60	1048575
2026-01-17 23:32:09.74	158.73	6.74	-84.3	-88.8	2.3	3.11e+01	0	47	104	0	60	1048575
2026-01-17 23:32:12.62	158.97	6.53	-83.9	-88.8	2.4	3.11e+01	0	47	104	0	60	1048575
2026-01-17 23:32:15.78	159.23	6.31	-84.3	-88.8	2.7	3.11e+01	0	47	104	0	60	1048575
2026-01-17 23:32:18.65	159.46	6.11	-84.3	-88.8	2.4	3.11e+01	0	47	104	0	60	1048575
2026-01-17 23:32:21.81	159.71	5.88	-83.9	-88.8	2.6	3.11e+01	0	47	104	0	60	1048575
2026-01-17 23:32:24.69	159.94	5.68	-84.3	-88.8	2.4	3.11e+01	0	47	104	0	60	1048575
2026-01-17 23:32:27.85	160.18	5.47	-84.3	-88.8	2.6	3.11e+01	0	47	104	0	60	1048575
2026-01-17 23:32:30.73	160.40	5.27	-83.9	-88.8	2.5	3.11e+01	0	47	104	0	60	1048575
2026-01-17 23:32:33.89	160.64	5.05	-84.3	-88.8	2.8	3.11e+01	0	47	104	0	60	1048575
2026-01-17 23:32:36.77	160.85	4.86	-83.9	-88.8	2.7	3.11e+01	0	47	104	0	60	1048575
2026-01-17 23:32:39.93	161.08	4.64	-84.3	-88.8	2.5	3.11e+01	0	47	104	0	60	1048574
2026-01-17 23:32:42.81	161.29	4.45	-84.3	-88.8	2.3	3.11e+01	0	47	104	0	60	1048574
2026-01-17 23:32:45.98	161.51	4.24	-83.9	-88.8	2.7	3.11e+01	0	47	104	0	60	1048574
2026-01-17 23:32:48.86	161.72	4.05	-84.3	-88.8	2.6	3.11e+01	0	47	104	0	60	1048574
2026-01-17 23:32:52.02	161.93	3.85	-84.3	-88.8	2.6	3.11e+01	0	47	104	0	60	1048574
2026-01-17 23:32:54.89	162.13	3.66	-83.9	-88.8	2.4	3.11e+01	0	47	104	0	60	1048574
2026-01-17 23:32:58.05	162.34	3.46	-84.3	-88.8	2.7	3.11e+01	0	47	104	0	60	1048574
2026-01-17 23:33:00.93	162.53	3.27	-83.9	-88.8	2.6	3.11e+01	0	47	104	0	60	1048574
2026-01-17 23:33:04.09	162.74	3.07	-84.3	-88.8	2.7	3.11e+01	0	47	104	0	60	1048574
2026-01-17 23:33:06.95	162.92	2.89	-84.3	-88.8	2.5	3.11e+01	0	47	104	0	60	1048574
2026-01-17 23:33:10.10	163.12	2.69	-83.9	-88.8	2.7	3.11e+01	0	47	104	0	60	1048574
2026-01-17 23:33:12.98	163.30	2.51	-84.3	-88.8	2.6	3.11e+01	0	47	104	0	60	1048574
2026-01-17 23:33:16.13	163.50	2.31	-84.3	-88.8	2.5	3.11e+01	0	47	104	0	60	1048574
2026-01-17 23:33:19.01	163.67	2.14	-83.9	-88.8	2.7	3.11e+01	0	47	104	0	60	1048574
2026-01-17 23:33:22.18	163.86	1.94	-84.3	-88.8	2.6	3.11e+01	0	47	104	0	60	1048574
2026-01-17 23:33:25.05	164.03	1.77	-83.9	-88.8	2.4	3.11e+01	0	47	104	0	60	1048574
2026-01-17 23:33:28.20	164.22	1.58	-83.9	-88.8	2.7	3.11e+01	0	47	104	0	60	1048574
2026-01-17 23:33:31.08	164.39	1.40	-84.3	-88.8	2.3	3.11e+01	0	47	104	0	60	1048574
2026-01-17 23:33:34.24	164.57	1.21	-83.9	-88.8	2.5	3.11e+01	0	47	104	0	60	1048574
2026-01-17 23:33:37.12	164.73	1.04	-84.3	-88.8	2.4	3.11e+01	0	47	104	0	60	1048574
2026-01-17 23:33:40.28	164.91	0.85	-84.3	-88.8	2.4	3.11e+01	0	47	104	0	60	1048574
2026-01-17 23:33:43.16	165.06	0.68	-83.9	-88.8	2.5	3.11e+01	0	47	104	0	60	1048574
2026-01-17 23:33:46.31	165.24	0.50	-84.3	-88.8	2.4	3.11e+01	0	47	104	0	60	1048574
2026-01-17 23:33:49.19	165.39	0.33	-84.3	-88.8	2.6	3.11e+01	0	47	104	0	60	1048574
2026-01-17 23:33:52.36	165.56	0.15	-83.9	-88.8	2.6	3.11e+01	0	47	104	0	60	1048574
2026-01-17 23:33:55.23	165.71	-0.02	-84.3	-88.8	2.6	3.11e+01	0	47	104	0	60	1048574

#Closed at: 2026-01-17 23:33:55
#Recorded file [0 MB]: D:/Data/35015_260118_022041.dat