passes_logs/2026/01/17/R3.2S-Naryan-Mar/R3.2S-Naryan-Mar__20260117_223333_SUOMI_NPP_rec.log

#Pass ID: 20260117_223333_SUOMI NPP
#Satellite: SUOMI NPP
#Configuration: NPP
#almurnet v.1.7.20240730
#Start time: 2026-01-17 22:33:36

#Version: 2.2.20231116
#Station: R3.2S-Naryan-Mar
#Location: 53.008057 lon 67.646978 lat
#TLE: 1 37849U 11061A   26017.28905266  .00000074  00000+0  55894-4 0  9999
#TLE: 2 37849  98.7814 319.3179 0002408  59.7048 300.4366 14.19525847737038

#Time	Az	El	Level	Level2	SNR	BER	BlckErr	Temp	State	Recorded	gain1	gain2
2026-01-17 22:33:36.37	20.58	0.18	-84.7	-88.6	4.9	1.63e+00	0	46	0	0	60	1048575
2026-01-17 22:33:40.40	20.67	0.42	-85.2	-88.6	3.0	1.55e+00	0	46	104	0	60	1048572
2026-01-17 22:33:44.42	20.77	0.66	-85.2	-88.6	3.3	1.55e+00	0	46	104	0	60	1048575
2026-01-17 22:33:48.45	20.87	0.90	-85.2	-88.6	2.9	1.56e+00	0	46	104	0	60	1048575
2026-01-17 22:33:52.49	20.97	1.15	-85.2	-88.6	3.3	1.56e+00	0	46	104	0	60	1048574
2026-01-17 22:33:56.52	21.07	1.39	-85.2	-88.6	3.0	1.55e+00	0	46	104	0	60	1048575
2026-01-17 22:34:00.54	21.17	1.64	-85.2	-88.6	3.0	1.56e+00	0	46	104	0	60	1048573
2026-01-17 22:34:04.57	21.28	1.89	-85.2	-88.6	3.1	1.56e+00	0	46	104	0	60	1048573
2026-01-17 22:34:08.60	21.38	2.14	-85.2	-88.6	3.0	1.56e+00	0	46	104	0	60	1048575
2026-01-17 22:34:12.63	21.49	2.40	-85.2	-88.6	3.0	1.56e+00	0	46	104	0	60	1048569
2026-01-17 22:34:16.64	21.60	2.65	-85.2	-88.6	3.1	1.55e+00	0	46	104	0	60	1048571
2026-01-17 22:34:20.68	21.71	2.91	-85.2	-88.6	3.1	1.56e+00	0	46	104	0	60	1048575
2026-01-17 22:34:24.71	21.82	3.17	-85.2	-88.6	3.0	1.56e+00	0	46	104	0	60	1048575
2026-01-17 22:34:28.74	21.93	3.44	-82.8	-88.6	3.2	1.56e+00	0	46	104	0	60	1048575
2026-01-17 22:34:32.76	22.05	3.70	-85.2	-88.6	2.8	1.56e+00	0	46	104	0	60	1048574
2026-01-17 22:34:36.79	22.16	3.97	-85.2	-88.6	3.0	1.56e+00	0	46	104	0	60	1048575
2026-01-17 22:34:40.82	22.28	4.25	-85.2	-88.6	3.1	1.56e+00	0	46	104	0	60	1048574
2026-01-17 22:34:44.85	22.40	4.52	-85.2	-88.6	2.9	1.56e+00	0	46	104	0	60	1048575
2026-01-17 22:34:48.88	22.52	4.80	-85.2	-88.6	3.2	1.56e+00	0	46	104	0	60	1048574
2026-01-17 22:34:52.90	22.65	5.08	-85.2	-88.6	2.9	1.56e+00	0	46	104	0	60	1048574
2026-01-17 22:34:56.93	22.78	5.36	-85.2	-88.6	2.9	1.56e+00	0	46	104	0	60	1048575
2026-01-17 22:35:00.97	22.90	5.65	-85.2	-88.6	2.9	1.56e+00	0	46	104	0	60	1048575
2026-01-17 22:35:04.99	23.03	5.93	-85.2	-88.6	3.0	1.55e+00	0	46	104	0	60	1048574
2026-01-17 22:35:09.02	23.17	6.23	-85.2	-88.6	2.8	1.56e+00	0	46	104	0	60	1048575
2026-01-17 22:35:13.05	23.30	6.52	-84.7	-88.6	2.9	1.56e+00	0	47	104	0	60	1048573
2026-01-17 22:35:17.08	23.44	6.82	-85.2	-88.6	2.9	1.56e+00	0	47	104	0	60	1048575
2026-01-17 22:35:21.11	23.58	7.12	-85.2	-88.6	3.1	1.55e+00	0	47	104	0	60	1048575
2026-01-17 22:35:25.14	23.72	7.43	-85.2	-88.6	3.0	1.56e+00	0	46	104	0	60	1048575
2026-01-17 22:35:29.16	23.87	7.74	-84.7	-88.6	3.0	1.56e+00	0	47	104	0	60	1048574
2026-01-17 22:35:33.19	24.02	8.05	-85.2	-88.6	3.0	1.55e+00	0	47	104	0	60	1048575
2026-01-17 22:35:37.21	24.17	8.36	-85.2	-88.6	3.0	1.55e+00	0	47	104	0	60	1048574
2026-01-17 22:35:41.24	24.32	8.68	-85.2	-88.6	3.0	1.56e+00	0	47	104	0	60	1048574
2026-01-17 22:35:45.27	24.48	9.01	-85.2	-88.6	3.1	1.56e+00	0	47	104	0	60	1048575
2026-01-17 22:35:49.29	24.64	9.34	-85.2	-88.6	2.9	1.55e+00	0	47	104	0	60	1048575
2026-01-17 22:35:53.31	24.80	9.67	-85.2	-88.6	2.9	1.56e+00	0	47	104	0	60	1048574
2026-01-17 22:35:57.33	24.97	10.00	-85.2	-88.6	3.0	1.56e+00	0	47	104	0	60	1048575
2026-01-17 22:36:01.36	25.14	10.35	-85.2	-88.6	2.9	1.55e+00	0	47	104	0	60	1048574
2026-01-17 22:36:05.39	25.31	10.69	-85.2	-88.6	3.0	1.55e+00	0	47	104	0	60	1048574
2026-01-17 22:36:09.41	25.49	11.04	-85.2	-88.6	3.0	1.55e+00	0	47	104	0	60	1048573
2026-01-17 22:36:13.44	25.67	11.40	-85.2	-88.6	3.1	1.55e+00	0	47	104	0	60	1048574
2026-01-17 22:36:17.46	25.86	11.76	-85.2	-88.6	3.1	1.56e+00	0	47	104	0	60	1048569
2026-01-17 22:36:21.49	26.05	12.12	-85.2	-88.6	2.8	1.56e+00	0	47	104	0	60	1048574
2026-01-17 22:36:25.52	26.24	12.49	-85.2	-88.6	3.0	1.56e+00	0	47	104	0	60	1048575
2026-01-17 22:36:29.55	26.44	12.87	-85.2	-88.6	3.0	1.56e+00	0	47	104	0	60	1048573
2026-01-17 22:36:33.57	26.64	13.25	-85.2	-88.6	3.0	1.56e+00	0	47	104	0	60	1048572
2026-01-17 22:36:37.60	26.85	13.64	-85.2	-88.6	3.1	1.56e+00	0	47	104	0	60	1048570
2026-01-17 22:36:41.63	27.06	14.03	-85.2	-88.6	3.1	1.55e+00	0	47	104	0	60	1048575
2026-01-17 22:36:45.66	27.28	14.44	-85.2	-88.6	2.9	1.56e+00	0	47	104	0	60	1048574
2026-01-17 22:36:49.67	27.50	14.84	-85.2	-88.6	3.1	1.56e+00	0	47	104	0	60	1048575
2026-01-17 22:36:53.70	27.73	15.25	-85.2	-88.6	2.9	1.56e+00	0	47	104	0	60	1048574
2026-01-17 22:36:57.73	27.97	15.67	-85.2	-88.6	3.3	1.56e+00	0	47	104	0	60	1048575
2026-01-17 22:37:01.75	28.21	16.10	-85.2	-88.6	3.0	1.56e+00	0	47	104	0	60	1048575
2026-01-17 22:37:05.78	28.46	16.53	-85.2	-88.6	3.0	1.56e+00	0	47	104	0	60	1048575
2026-01-17 22:37:09.80	28.71	16.97	-85.2	-88.6	2.7	1.56e+00	0	47	104	0	60	1048575
2026-01-17 22:37:13.84	28.97	17.42	-85.2	-88.6	3.0	1.56e+00	0	47	104	0	60	1048575
2026-01-17 22:37:17.86	29.24	17.88	-85.2	-88.6	2.9	1.56e+00	0	47	104	0	60	1048575
2026-01-17 22:37:21.89	29.52	18.35	-85.2	-88.6	3.2	1.55e+00	0	47	104	0	60	1048573
2026-01-17 22:37:25.92	29.81	18.82	-85.2	-88.6	3.0	1.55e+00	0	47	104	0	60	1048575
2026-01-17 22:37:29.95	30.10	19.30	-85.2	-88.6	3.1	1.55e+00	0	47	104	0	60	1048574
2026-01-17 22:37:33.98	30.40	19.79	-85.2	-88.6	3.1	1.56e+00	0	47	104	0	60	1048574
2026-01-17 22:37:38.00	30.71	20.29	-85.2	-88.6	2.8	1.55e+00	0	47	104	0	60	1048575
2026-01-17 22:37:42.03	31.04	20.80	-85.2	-88.6	3.0	1.56e+00	0	47	104	0	60	1048574
2026-01-17 22:37:46.06	31.37	21.32	-85.2	-88.6	2.9	1.56e+00	0	47	104	0	60	1048575
2026-01-17 22:37:50.09	31.71	21.85	-85.2	-88.6	3.0	1.56e+00	0	47	104	0	60	1048575
2026-01-17 22:37:54.11	32.07	22.39	-85.2	-88.6	3.1	1.56e+00	0	47	104	0	60	1048575
2026-01-17 22:37:58.14	32.43	22.94	-85.2	-88.6	3.0	1.56e+00	0	47	104	0	60	1048574
2026-01-17 22:38:02.17	32.81	23.50	-85.2	-88.6	3.0	1.56e+00	0	47	104	0	60	1048574
2026-01-17 22:38:06.20	33.20	24.07	-85.2	-88.6	3.2	1.56e+00	0	47	104	0	60	1048573
2026-01-17 22:38:10.23	33.61	24.65	-85.2	-88.6	2.9	1.56e+00	0	47	104	0	60	1048573
2026-01-17 22:38:14.26	34.03	25.25	-85.2	-88.6	3.2	1.56e+00	0	47	104	0	60	1048574
2026-01-17 22:38:18.29	34.47	25.86	-85.2	-88.6	3.2	1.56e+00	0	47	104	0	60	1048570
2026-01-17 22:38:22.32	34.92	26.48	-85.2	-88.6	3.1	1.56e+00	0	47	104	0	60	1048574
2026-01-17 22:38:26.33	35.39	27.11	-85.2	-88.6	3.0	1.56e+00	0	47	104	0	60	1048574
2026-01-17 22:38:30.35	35.88	27.75	-85.2	-88.6	3.0	1.55e+00	0	47	104	0	60	1048575
2026-01-17 22:38:34.38	36.39	28.41	-85.2	-88.6	3.3	1.56e+00	0	47	104	0	60	1048570
2026-01-17 22:38:38.41	36.92	29.08	-85.2	-88.6	2.8	1.56e+00	0	47	104	0	60	1048574
2026-01-17 22:38:42.44	37.47	29.77	-85.2	-88.6	2.9	1.56e+00	0	47	104	0	60	1048575
2026-01-17 22:38:46.47	38.04	30.47	-85.2	-88.6	2.7	1.55e+00	0	47	104	0	60	1048575
2026-01-17 22:38:50.50	38.64	31.18	-85.2	-88.6	3.0	1.56e+00	0	47	104	0	60	1048574
2026-01-17 22:38:54.53	39.27	31.91	-85.2	-88.6	3.1	1.56e+00	0	47	104	0	60	1048575
2026-01-17 22:38:58.55	39.92	32.65	-85.2	-88.6	3.1	1.55e+00	0	47	104	0	60	1048575
2026-01-17 22:39:02.57	40.60	33.41	-85.2	-88.6	3.0	1.55e+00	0	47	104	0	60	1048574
2026-01-17 22:39:06.60	41.32	34.18	-85.2	-88.6	3.2	1.56e+00	0	47	104	0	60	1048575
2026-01-17 22:39:10.63	42.07	34.97	-85.2	-88.6	3.2	1.55e+00	0	47	104	0	60	1048575
2026-01-17 22:39:14.65	42.86	35.77	-85.2	-88.6	3.0	1.55e+00	0	47	104	0	60	1048575
2026-01-17 22:39:18.67	43.68	36.58	-85.2	-88.6	3.0	1.56e+00	0	47	104	0	60	1048575
2026-01-17 22:39:22.70	44.55	37.42	-85.2	-88.6	3.1	1.56e+00	0	47	104	0	60	1048574
2026-01-17 22:39:26.73	45.46	38.26	-85.2	-88.6	3.1	1.55e+00	0	47	104	0	60	1048573
2026-01-17 22:39:30.74	46.42	39.11	-85.2	-88.6	3.0	1.55e+00	0	47	104	0	60	1048575
2026-01-17 22:39:34.77	47.43	39.98	-85.2	-88.6	3.0	1.56e+00	0	47	104	0	60	1048575
2026-01-17 22:39:38.80	48.50	40.87	-85.2	-88.6	3.0	1.55e+00	0	47	104	0	60	1048574
2026-01-17 22:39:42.83	49.63	41.76	-85.2	-88.6	3.1	1.55e+00	0	47	104	0	60	1048571
2026-01-17 22:39:46.86	50.82	42.66	-83.5	-88.6	3.0	1.55e+00	0	47	104	0	60	1048575
2026-01-17 22:39:50.89	52.07	43.57	-85.2	-88.6	3.1	1.56e+00	0	47	104	0	60	1048575
2026-01-17 22:39:54.91	53.40	44.48	-85.2	-88.6	3.1	1.56e+00	0	47	104	0	60	1048573
2026-01-17 22:39:58.94	54.81	45.40	-85.2	-88.6	3.0	1.56e+00	0	47	104	0	60	1048575
2026-01-17 22:40:02.97	56.30	46.33	-85.2	-88.6	3.1	1.55e+00	0	47	104	0	60	1048575
2026-01-17 22:40:06.99	57.88	47.24	-84.3	-88.6	2.9	1.56e+00	0	47	104	0	60	1048575
2026-01-17 22:40:11.02	59.55	48.16	-85.2	-88.6	3.0	1.56e+00	0	47	104	0	60	1048574
2026-01-17 22:40:15.05	61.33	49.07	-85.2	-88.6	3.2	1.55e+00	0	47	104	0	60	1048573
2026-01-17 22:40:19.08	63.21	49.96	-85.2	-88.6	3.1	1.56e+00	0	47	104	0	60	1048572
2026-01-17 22:40:23.10	65.20	50.84	-85.2	-88.6	3.0	1.56e+00	0	47	104	0	60	1048575
2026-01-17 22:40:27.11	67.31	51.69	-85.2	-88.6	3.1	1.56e+00	0	47	104	0	60	1048575
2026-01-17 22:40:31.14	69.54	52.52	-85.2	-88.6	3.0	1.56e+00	0	47	104	0	60	1048575
2026-01-17 22:40:35.17	71.90	53.32	-85.2	-88.6	2.9	1.55e+00	0	47	104	0	60	1048575
2026-01-17 22:40:39.20	74.39	54.08	-85.2	-88.6	3.0	1.56e+00	0	47	104	0	60	1048573
2026-01-17 22:40:43.22	77.00	54.79	-85.2	-88.6	3.0	1.56e+00	0	47	104	0	60	1048575
2026-01-17 22:40:47.24	79.74	55.45	-84.7	-88.6	2.8	1.55e+00	0	47	104	0	60	1048575
2026-01-17 22:40:51.27	82.61	56.05	-85.2	-88.6	2.9	1.56e+00	0	47	104	0	60	1048573
2026-01-17 22:40:55.30	85.60	56.59	-85.2	-88.6	3.2	1.56e+00	0	47	104	0	60	1048575
2026-01-17 22:40:59.33	88.70	57.05	-85.2	-88.6	3.1	1.56e+00	0	47	104	0	60	1048572
2026-01-17 22:41:03.36	91.90	57.44	-85.2	-88.6	2.9	1.56e+00	0	47	104	0	60	1048575
2026-01-17 22:41:07.39	95.18	57.74	-85.2	-88.6	2.9	1.56e+00	0	47	104	0	60	1048575
2026-01-17 22:41:11.41	98.52	57.95	-85.2	-88.6	3.1	1.56e+00	0	47	104	0	60	1048574
2026-01-17 22:41:15.44	101.90	58.07	-85.2	-88.6	3.2	1.56e+00	0	47	104	0	60	1048572
2026-01-17 22:41:19.46	105.30	58.10	-85.2	-88.6	3.1	1.55e+00	0	47	104	0	60	1048573
2026-01-17 22:41:23.49	108.70	58.04	-85.2	-88.6	3.0	1.56e+00	0	47	104	0	60	1048573
2026-01-17 22:41:27.51	112.06	57.88	-85.2	-88.6	3.0	1.55e+00	0	47	104	0	60	1048575
2026-01-17 22:41:31.54	115.39	57.64	-85.2	-88.6	3.0	1.56e+00	0	47	104	0	60	1048574
2026-01-17 22:41:35.55	118.63	57.31	-84.3	-88.6	2.9	1.56e+00	0	47	104	0	60	1048575
2026-01-17 22:41:39.58	121.79	56.89	-85.2	-88.6	3.0	1.56e+00	0	47	104	0	60	1048575
2026-01-17 22:41:43.61	124.86	56.40	-85.2	-88.6	3.2	1.56e+00	0	47	104	0	60	1048573
2026-01-17 22:41:47.62	127.80	55.85	-85.2	-88.6	2.9	1.56e+00	0	47	104	0	60	1048575
2026-01-17 22:41:51.64	130.62	55.22	-85.2	-88.6	3.2	1.56e+00	0	47	104	0	60	1048575
2026-01-17 22:41:55.67	133.33	54.54	-85.2	-88.6	3.0	1.56e+00	0	47	104	0	60	1048574
2026-01-17 22:41:59.70	135.90	53.81	-85.2	-88.6	2.9	1.56e+00	0	47	104	0	60	1048573
2026-01-17 22:42:03.72	138.34	53.04	-85.2	-88.6	2.9	1.56e+00	0	47	104	0	60	1048574
2026-01-17 22:42:07.75	140.66	52.22	-85.2	-88.6	3.2	1.56e+00	0	47	104	0	60	1048573
2026-01-17 22:42:11.77	142.85	51.38	-85.2	-88.6	3.0	1.56e+00	0	47	104	0	60	1048574
2026-01-17 22:42:15.79	144.92	50.52	-85.2	-88.6	3.0	1.56e+00	0	47	104	0	60	1048575
2026-01-17 22:42:19.82	146.87	49.63	-85.2	-88.6	3.0	1.56e+00	0	47	104	0	60	1048573
2026-01-17 22:42:23.85	148.72	48.73	-85.2	-88.6	3.0	1.55e+00	0	47	104	0	60	1048574
2026-01-17 22:42:27.88	150.46	47.81	-85.2	-88.6	2.9	1.56e+00	0	47	104	0	60	1048574
2026-01-17 22:42:31.91	152.11	46.89	-85.2	-88.6	3.2	1.56e+00	0	47	104	0	60	1048575
2026-01-17 22:42:35.94	153.66	45.97	-85.2	-88.6	3.2	1.55e+00	0	47	104	0	60	1048575
2026-01-17 22:42:39.96	155.12	45.05	-85.2	-88.6	3.1	1.56e+00	0	47	104	0	60	1048573
2026-01-17 22:42:44.00	156.50	44.12	-85.2	-88.6	3.2	1.56e+00	0	47	104	0	60	1048575
2026-01-17 22:42:48.03	157.81	43.21	-85.2	-88.6	3.1	1.56e+00	0	47	104	0	60	1048574
2026-01-17 22:42:52.05	159.04	42.30	-85.2	-88.6	3.0	1.56e+00	0	47	104	0	60	1048570
2026-01-17 22:42:56.08	160.21	41.40	-85.2	-88.6	2.9	1.56e+00	0	47	104	0	60	1048575
2026-01-17 22:43:00.09	161.31	40.51	-85.2	-88.6	2.7	1.56e+00	0	47	104	0	60	1048575
2026-01-17 22:43:04.11	162.35	39.63	-85.2	-88.6	3.0	1.56e+00	0	47	104	0	60	1048575
2026-01-17 22:43:08.11	163.34	38.77	-85.2	-88.6	3.1	1.56e+00	0	47	104	0	60	1048575
2026-01-17 22:43:12.13	164.28	37.91	-85.2	-88.6	3.1	1.56e+00	0	47	104	0	60	1048575
2026-01-17 22:43:16.14	165.18	37.07	-85.2	-88.6	3.0	1.56e+00	0	47	104	0	60	1048575
2026-01-17 22:43:20.16	166.03	36.25	-85.2	-88.6	2.8	1.55e+00	0	47	104	0	60	1048575
2026-01-17 22:43:24.19	166.84	35.43	-85.2	-88.6	3.1	1.56e+00	0	47	104	0	60	1048569
2026-01-17 22:43:28.19	167.61	34.64	-85.2	-88.6	3.1	1.55e+00	0	47	104	0	60	1048573
2026-01-17 22:43:32.20	168.35	33.86	-85.2	-88.6	2.9	1.56e+00	0	47	104	0	60	1048575
2026-01-17 22:43:36.23	169.05	33.08	-85.2	-88.6	3.0	1.56e+00	0	47	104	0	60	1048574
2026-01-17 22:43:40.26	169.73	32.33	-85.2	-88.6	3.0	1.56e+00	0	47	104	0	60	1048575
2026-01-17 22:43:44.27	170.37	31.59	-85.2	-88.6	3.0	1.56e+00	0	47	104	0	60	1048575
2026-01-17 22:43:48.30	170.98	30.86	-85.2	-88.6	3.0	1.56e+00	0	47	104	0	60	1048571
2026-01-17 22:43:52.32	171.57	30.15	-85.2	-88.6	3.1	1.56e+00	0	47	104	0	60	1048575
2026-01-17 22:43:56.35	172.14	29.46	-85.2	-88.6	3.0	1.56e+00	0	47	104	0	60	1048575
2026-01-17 22:44:00.36	172.68	28.78	-85.2	-88.6	2.9	1.56e+00	0	47	104	0	60	1048569
2026-01-17 22:44:04.38	173.20	28.11	-85.2	-88.6	3.0	1.55e+00	0	47	104	0	60	1048575
2026-01-17 22:44:08.40	173.70	27.45	-85.2	-88.6	3.0	1.56e+00	0	47	104	0	60	1048574
2026-01-17 22:44:12.43	174.18	26.81	-85.2	-88.6	2.9	1.56e+00	0	47	104	0	60	1048575
2026-01-17 22:44:16.46	174.65	26.18	-85.2	-88.6	3.0	1.55e+00	0	47	104	0	60	1048574
2026-01-17 22:44:20.49	175.09	25.56	-85.2	-88.6	3.1	1.56e+00	0	47	104	0	60	1048574
2026-01-17 22:44:24.52	175.52	24.95	-85.2	-88.6	3.0	1.55e+00	0	47	104	0	60	1048575
2026-01-17 22:44:28.55	175.94	24.36	-85.2	-88.6	2.8	1.56e+00	0	47	104	0	60	1048570
2026-01-17 22:44:32.57	176.34	23.78	-85.2	-88.6	3.2	1.55e+00	0	47	104	0	60	1048575
2026-01-17 22:44:36.60	176.73	23.21	-85.2	-88.6	2.8	1.56e+00	0	47	104	0	60	1048575
2026-01-17 22:44:40.62	177.10	22.65	-85.2	-88.6	3.1	1.56e+00	0	47	104	0	60	1048573
2026-01-17 22:44:44.65	177.46	22.10	-85.2	-88.6	2.8	1.56e+00	0	47	104	0	60	1048574
2026-01-17 22:44:48.68	177.81	21.57	-85.2	-88.6	2.8	1.55e+00	0	47	104	0	60	1048568
2026-01-17 22:44:52.70	178.15	21.04	-85.2	-88.6	2.8	1.56e+00	0	47	104	0	60	1048574
2026-01-17 22:44:56.73	178.47	20.52	-85.2	-88.6	3.1	1.55e+00	0	47	104	0	60	1048574
2026-01-17 22:45:00.77	178.79	20.01	-85.2	-88.6	3.1	1.55e+00	0	47	104	0	60	1048570
2026-01-17 22:45:04.78	179.10	19.52	-85.2	-88.6	2.9	1.56e+00	0	47	104	0	60	1048575
2026-01-17 22:45:08.81	179.39	19.03	-85.2	-88.6	3.1	1.56e+00	0	47	104	0	60	1048575
2026-01-17 22:45:12.83	179.68	18.55	-85.2	-88.6	2.9	1.56e+00	0	47	104	0	60	1048571
2026-01-17 22:45:16.87	179.97	18.07	-85.2	-88.6	3.1	1.56e+00	0	47	104	0	60	1048575
2026-01-17 22:45:20.88	180.24	17.61	-85.2	-88.6	3.1	1.56e+00	0	47	104	0	60	1048574
2026-01-17 22:45:24.91	180.50	17.16	-85.2	-88.6	3.0	1.56e+00	0	47	104	0	60	1048574
2026-01-17 22:45:28.93	180.76	16.71	-85.2	-88.6	2.8	1.56e+00	0	47	104	0	60	1048575
2026-01-17 22:45:32.97	181.01	16.27	-85.2	-88.6	3.2	1.56e+00	0	47	104	0	60	1048575
2026-01-17 22:45:37.00	181.25	15.84	-85.2	-88.6	3.2	1.55e+00	0	47	104	0	60	1048573
2026-01-17 22:45:41.03	181.49	15.41	-85.2	-88.6	2.9	1.56e+00	0	47	104	0	60	1048575
2026-01-17 22:45:45.05	181.72	14.99	-85.2	-88.6	2.9	1.55e+00	0	47	104	0	60	1048573
2026-01-17 22:45:49.07	181.95	14.58	-83.9	-88.6	3.2	1.56e+00	0	47	104	0	60	1048574
2026-01-17 22:45:53.10	182.17	14.18	-85.2	-88.6	3.0	1.56e+00	0	47	104	0	60	1048575
2026-01-17 22:45:57.12	182.38	13.78	-85.2	-88.6	2.9	1.56e+00	0	47	104	0	60	1048573
2026-01-17 22:46:01.15	182.59	13.38	-85.2	-88.6	3.2	1.56e+00	0	47	104	0	60	1048574
2026-01-17 22:46:05.17	182.79	13.00	-85.2	-88.6	3.0	1.56e+00	0	47	104	0	60	1048575
2026-01-17 22:46:09.19	182.99	12.62	-85.2	-88.6	3.2	1.56e+00	0	47	104	0	60	1048575
2026-01-17 22:46:13.21	183.19	12.24	-85.2	-88.6	2.9	1.56e+00	0	47	104	0	60	1048575
2026-01-17 22:46:17.24	183.38	11.87	-85.2	-88.6	3.1	1.56e+00	0	47	104	0	60	1048573
2026-01-17 22:46:21.27	183.56	11.51	-85.2	-88.6	2.9	1.56e+00	0	47	104	0	60	1048570
2026-01-17 22:46:25.30	183.75	11.15	-85.2	-88.6	3.2	1.56e+00	0	47	104	0	60	1048575
2026-01-17 22:46:29.32	183.92	10.79	-85.2	-88.6	3.2	1.55e+00	0	47	104	0	60	1048574
2026-01-17 22:46:33.34	184.10	10.44	-85.2	-88.6	3.1	1.56e+00	0	47	104	0	60	1048575
2026-01-17 22:46:37.37	184.27	10.10	-83.5	-88.6	3.2	1.56e+00	0	47	104	0	60	1048575
2026-01-17 22:46:41.39	184.43	9.76	-85.2	-88.6	3.2	1.56e+00	0	47	104	0	60	1048572
2026-01-17 22:46:45.41	184.59	9.42	-85.2	-88.6	3.2	1.56e+00	0	47	104	0	60	1048575
2026-01-17 22:46:49.44	184.75	9.09	-85.2	-88.6	3.0	1.55e+00	0	47	104	0	60	1048572
2026-01-17 22:46:53.47	184.91	8.76	-82.8	-88.6	3.2	1.56e+00	0	47	104	0	60	1048574
2026-01-17 22:46:57.50	185.06	8.44	-85.2	-88.6	2.9	1.56e+00	0	47	104	0	60	1048574
2026-01-17 22:47:01.52	185.21	8.12	-85.2	-88.6	3.1	1.56e+00	0	47	104	0	60	1048575
2026-01-17 22:47:05.55	185.36	7.80	-85.2	-88.6	3.0	1.56e+00	0	47	104	0	60	1048573
2026-01-17 22:47:09.57	185.50	7.49	-85.2	-88.6	3.0	1.56e+00	0	47	104	0	60	1048575
2026-01-17 22:47:13.60	185.65	7.18	-85.2	-88.6	3.0	1.56e+00	0	47	104	0	60	1048575
2026-01-17 22:47:17.62	185.79	6.88	-85.2	-88.6	3.0	1.56e+00	0	47	104	0	60	1048575
2026-01-17 22:47:21.64	185.92	6.58	-84.7	-88.6	3.0	1.56e+00	0	47	104	0	60	1048575
2026-01-17 22:47:25.66	186.05	6.28	-85.2	-88.6	3.0	1.56e+00	0	47	104	0	60	1048574
2026-01-17 22:47:29.69	186.19	5.98	-85.2	-88.6	2.7	1.56e+00	0	47	104	0	60	1048575
2026-01-17 22:47:33.72	186.32	5.69	-85.2	-88.6	3.1	1.56e+00	0	47	104	0	60	1048575
2026-01-17 22:47:37.75	186.44	5.40	-85.2	-88.6	3.1	1.56e+00	0	47	104	0	60	1048574
2026-01-17 22:47:41.77	186.57	5.12	-85.2	-88.6	3.0	1.56e+00	0	47	104	0	60	1048574
2026-01-17 22:47:45.81	186.69	4.83	-85.2	-88.6	3.2	1.56e+00	0	47	104	0	60	1048573
2026-01-17 22:47:49.83	186.81	4.56	-85.2	-88.6	2.9	1.56e+00	0	47	104	0	60	1048572
2026-01-17 22:47:53.87	186.93	4.28	-85.2	-88.6	3.0	1.56e+00	0	47	104	0	60	1048574
2026-01-17 22:47:57.89	187.05	4.00	-85.2	-88.6	3.1	1.56e+00	0	47	104	0	60	1048575
2026-01-17 22:48:01.92	187.16	3.73	-84.3	-88.6	3.2	1.56e+00	0	47	104	0	60	1048574
2026-01-17 22:48:05.95	187.27	3.46	-85.2	-88.6	2.7	1.56e+00	0	47	104	0	60	1048574
2026-01-17 22:48:09.97	187.38	3.20	-84.3	-88.6	3.1	1.56e+00	0	47	104	0	60	1048574
2026-01-17 22:48:13.99	187.49	2.93	-85.2	-88.6	3.1	1.56e+00	0	47	104	0	60	1048575
2026-01-17 22:48:18.02	187.60	2.67	-84.3	-88.6	3.2	1.55e+00	0	47	104	0	60	1048569
2026-01-17 22:48:22.05	187.71	2.41	-85.2	-88.6	3.2	1.55e+00	0	47	104	0	60	1048575
2026-01-17 22:48:26.08	187.81	2.16	-85.2	-88.6	3.0	1.55e+00	0	47	104	0	60	1048572
2026-01-17 22:48:30.10	187.91	1.90	-85.2	-88.6	3.1	1.56e+00	0	47	104	0	60	1048575
2026-01-17 22:48:34.13	188.01	1.65	-84.3	-88.6	3.1	1.56e+00	0	47	104	0	60	1048573
2026-01-17 22:48:38.17	188.11	1.40	-85.2	-88.6	2.9	1.56e+00	0	47	104	0	60	1048575
2026-01-17 22:48:42.19	188.21	1.15	-84.3	-88.6	3.2	1.55e+00	0	47	104	0	60	1048574
2026-01-17 22:48:46.21	188.31	0.91	-85.2	-88.6	3.1	1.56e+00	0	47	104	0	60	1048575
2026-01-17 22:48:50.25	188.40	0.66	-84.3	-88.6	3.2	1.56e+00	0	47	104	0	60	1048575
2026-01-17 22:48:54.28	188.50	0.42	-85.2	-88.6	3.0	1.56e+00	0	47	104	0	60	1048573
2026-01-17 22:48:58.31	188.59	0.18	-83.9	-88.6	3.1	1.55e+00	0	47	104	0	60	1048575
2026-01-17 22:49:02.32	188.68	-0.06	-85.2	-88.6	3.1	1.56e+00	0	47	104	0	60	1048575

#Closed at: 2026-01-17 22:49:02
#Recorded file [0 MB]: D:/Data/35015_260118_013336.dat