passes_logs/2026/01/17/R3.2S-Naryan-Mar/R3.2S-Naryan-Mar__20260117_225414_NOAA_20_JPSS-1_rec.log

#Pass ID: 20260117_225414_NOAA 20 (JPSS-1)
#Satellite: NOAA 20 (JPSS-1)
#Configuration: NOAA 20
#almurnet v.1.7.20240730
#Start time: 2026-01-17 22:54:15

#Version: 2.2.20231116
#Station: R3.2S-Naryan-Mar
#Location: 53.008057 lon 67.646978 lat
#TLE: 1 43013U 17073A   26017.30359522  .00000067  00000+0  52526-4 0  9990
#TLE: 2 43013  98.7639 318.2187 0001419  36.2087 323.9184 14.19536557423067

#Time	Az	El	Level	Level2	SNR	BER	BlckErr	Temp	State	Recorded	gain1	gain2
2026-01-17 22:54:15.92	21.83	0.08	-85.2	-88.6	3.5	1.56e+00	0	44	0	0	60	1048575
2026-01-17 22:54:19.95	21.88	0.32	-85.2	-88.6	3.0	1.56e+00	0	46	104	0	60	1048575
2026-01-17 22:54:23.98	21.93	0.56	-85.2	-88.6	2.9	1.56e+00	0	46	104	0	60	1048575
2026-01-17 22:54:28.01	21.98	0.81	-85.2	-88.6	2.9	1.56e+00	0	46	104	0	60	1048574
2026-01-17 22:54:32.02	22.03	1.05	-85.2	-88.6	2.9	1.56e+00	0	46	104	0	60	1048575
2026-01-17 22:54:36.05	22.09	1.30	-85.2	-88.6	2.9	1.55e+00	0	46	104	0	60	1048572
2026-01-17 22:54:40.08	22.14	1.55	-85.2	-88.6	2.9	1.56e+00	0	46	104	0	60	1048574
2026-01-17 22:54:44.11	22.19	1.81	-85.2	-88.6	3.1	1.56e+00	0	46	104	0	60	1048572
2026-01-17 22:54:48.14	22.25	2.06	-85.2	-88.6	3.1	1.56e+00	0	46	104	0	60	1048575
2026-01-17 22:54:52.16	22.30	2.32	-85.2	-88.6	3.1	1.56e+00	0	46	104	0	60	1048575
2026-01-17 22:54:56.18	22.36	2.58	-84.7	-88.6	2.7	1.55e+00	0	46	104	0	60	1048575
2026-01-17 22:55:00.21	22.42	2.84	-85.2	-88.6	3.0	1.56e+00	0	46	104	0	60	1048575
2026-01-17 22:55:04.24	22.47	3.10	-85.2	-88.6	3.1	1.56e+00	0	46	104	0	60	1048575
2026-01-17 22:55:08.27	22.53	3.37	-85.2	-88.6	3.0	1.56e+00	0	46	104	0	60	1048575
2026-01-17 22:55:12.29	22.59	3.64	-85.2	-88.6	3.1	1.56e+00	0	46	104	0	60	1048574
2026-01-17 22:55:16.33	22.65	3.91	-85.2	-88.6	2.8	1.56e+00	0	46	104	0	60	1048573
2026-01-17 22:55:20.35	22.71	4.19	-85.2	-88.6	2.8	1.56e+00	0	46	104	0	60	1048572
2026-01-17 22:55:24.36	22.77	4.46	-85.2	-88.6	3.1	1.56e+00	0	46	104	0	60	1048575
2026-01-17 22:55:28.39	22.83	4.74	-85.2	-88.6	2.9	1.56e+00	0	47	104	0	60	1048574
2026-01-17 22:55:32.42	22.90	5.03	-85.2	-88.6	3.1	1.56e+00	0	47	104	0	60	1048575
2026-01-17 22:55:36.45	22.96	5.32	-85.2	-88.6	3.1	1.56e+00	0	47	104	0	60	1048572
2026-01-17 22:55:40.48	23.03	5.61	-85.2	-88.6	3.2	1.56e+00	0	46	104	0	60	1048575
2026-01-17 22:55:44.52	23.09	5.90	-85.2	-88.6	3.0	1.56e+00	0	46	104	0	60	1048575
2026-01-17 22:55:48.54	23.16	6.20	-85.2	-88.6	3.0	1.56e+00	0	47	104	0	60	1048575
2026-01-17 22:55:52.57	23.23	6.50	-85.2	-88.6	3.0	1.56e+00	0	47	104	0	60	1048575
2026-01-17 22:55:56.61	23.29	6.80	-85.2	-88.6	3.1	1.55e+00	0	47	104	0	60	1048575
2026-01-17 22:56:00.63	23.36	7.11	-85.2	-88.6	3.2	1.55e+00	0	47	104	0	60	1048575
2026-01-17 22:56:04.65	23.43	7.42	-85.2	-88.6	3.0	1.56e+00	0	47	104	0	60	1048571
2026-01-17 22:56:08.69	23.51	7.73	-85.2	-88.6	3.1	1.55e+00	0	47	104	0	60	1048575
2026-01-17 22:56:12.70	23.58	8.05	-85.2	-88.6	3.2	1.56e+00	0	47	104	0	60	1048572
2026-01-17 22:56:16.72	23.65	8.37	-85.2	-88.6	3.1	1.56e+00	0	47	104	0	60	1048575
2026-01-17 22:56:20.75	23.73	8.70	-85.2	-88.6	3.2	1.56e+00	0	47	104	0	60	1048575
2026-01-17 22:56:24.78	23.81	9.03	-85.2	-88.6	3.0	1.56e+00	0	47	104	0	60	1048575
2026-01-17 22:56:28.81	23.88	9.36	-85.2	-88.6	3.0	1.56e+00	0	47	104	0	60	1048575
2026-01-17 22:56:32.84	23.96	9.70	-85.2	-88.6	2.9	1.56e+00	0	47	104	0	60	1048575
2026-01-17 22:56:36.87	24.05	10.05	-85.2	-88.6	2.9	1.56e+00	0	47	104	0	60	1048571
2026-01-17 22:56:40.90	24.13	10.40	-84.7	-88.6	2.9	1.56e+00	0	47	104	0	60	1048575
2026-01-17 22:56:44.93	24.21	10.75	-85.2	-88.6	3.2	1.56e+00	0	47	104	0	60	1048575
2026-01-17 22:56:48.95	24.30	11.11	-85.2	-88.6	3.1	1.56e+00	0	47	104	0	60	1048574
2026-01-17 22:56:52.98	24.39	11.48	-85.2	-88.6	3.1	1.56e+00	0	47	104	0	60	1048575
2026-01-17 22:56:57.00	24.47	11.85	-85.2	-88.6	2.9	1.56e+00	0	47	104	0	60	1048575
2026-01-17 22:57:01.04	24.57	12.22	-85.2	-88.6	2.9	1.55e+00	0	47	104	0	60	1048575
2026-01-17 22:57:05.07	24.66	12.61	-85.2	-88.6	3.1	1.56e+00	0	47	104	0	60	1048574
2026-01-17 22:57:09.09	24.75	12.99	-85.2	-88.6	3.1	1.56e+00	0	47	104	0	60	1048575
2026-01-17 22:57:13.11	24.85	13.39	-85.2	-88.6	3.1	1.56e+00	0	47	104	0	60	1048575
2026-01-17 22:57:17.13	24.95	13.79	-85.2	-88.6	3.3	1.56e+00	0	47	104	0	60	1048575
2026-01-17 22:57:21.14	25.05	14.19	-85.2	-88.6	3.2	1.55e+00	0	47	104	0	60	1048575
2026-01-17 22:57:25.16	25.15	14.61	-85.2	-88.6	3.1	1.56e+00	0	47	104	0	60	1048574
2026-01-17 22:57:29.19	25.26	15.03	-84.7	-88.6	3.1	1.55e+00	0	47	104	0	60	1048575
2026-01-17 22:57:33.22	25.37	15.46	-85.2	-88.6	2.8	1.55e+00	0	47	104	0	60	1048575
2026-01-17 22:57:37.25	25.48	15.89	-85.2	-88.6	2.8	1.56e+00	0	47	104	0	60	1048574
2026-01-17 22:57:41.28	25.60	16.34	-85.2	-88.6	3.1	1.56e+00	0	47	104	0	60	1048575
2026-01-17 22:57:45.31	25.71	16.79	-85.2	-88.6	3.0	1.55e+00	0	47	104	0	60	1048575
2026-01-17 22:57:49.33	25.83	17.25	-85.2	-88.6	2.9	1.56e+00	0	47	104	0	60	1048575
2026-01-17 22:57:53.36	25.96	17.72	-85.2	-88.6	3.1	1.56e+00	0	47	104	0	60	1048575
2026-01-17 22:57:57.38	26.08	18.20	-85.2	-88.6	3.1	1.56e+00	0	47	104	0	60	1048575
2026-01-17 22:58:01.42	26.21	18.68	-85.2	-88.6	3.0	1.56e+00	0	47	104	0	60	1048575
2026-01-17 22:58:05.44	26.35	19.18	-85.2	-88.6	2.9	1.56e+00	0	47	104	0	60	1048573
2026-01-17 22:58:09.48	26.49	19.69	-83.5	-88.6	2.9	1.55e+00	0	47	104	0	60	1048574
2026-01-17 22:58:13.50	26.63	20.21	-85.2	-88.6	3.0	1.56e+00	0	47	104	0	60	1048573
2026-01-17 22:58:17.53	26.77	20.74	-85.2	-88.6	2.9	1.55e+00	0	47	104	0	60	1048575
2026-01-17 22:58:21.56	26.92	21.28	-85.2	-88.6	3.0	1.55e+00	0	47	104	0	60	1048575
2026-01-17 22:58:25.58	27.08	21.83	-85.2	-88.6	2.9	1.56e+00	0	47	104	0	60	1048574
2026-01-17 22:58:29.61	27.24	22.39	-85.2	-88.6	3.0	1.55e+00	0	47	104	0	60	1048571
2026-01-17 22:58:33.63	27.41	22.97	-85.2	-88.6	2.9	1.56e+00	0	47	104	0	60	1048575
2026-01-17 22:58:37.67	27.58	23.56	-85.2	-88.6	3.1	1.56e+00	0	47	104	0	60	1048575
2026-01-17 22:58:41.69	27.76	24.16	-85.2	-88.6	3.1	1.56e+00	0	47	104	0	60	1048574
2026-01-17 22:58:45.71	27.94	24.78	-85.2	-88.6	2.9	1.56e+00	0	47	104	0	60	1048574
2026-01-17 22:58:49.73	28.13	25.41	-85.2	-88.6	2.9	1.55e+00	0	47	104	0	60	1048575
2026-01-17 22:58:53.77	28.33	26.06	-85.2	-88.6	3.1	1.56e+00	0	47	104	0	60	1048575
2026-01-17 22:58:57.80	28.53	26.72	-85.2	-88.6	3.2	1.55e+00	0	47	104	0	60	1048574
2026-01-17 22:59:01.82	28.75	27.40	-85.2	-88.6	3.0	1.56e+00	0	47	104	0	60	1048574
2026-01-17 22:59:05.83	28.97	28.09	-85.2	-88.6	3.2	1.56e+00	0	47	104	0	60	1048575
2026-01-17 22:59:09.87	29.20	28.81	-85.2	-88.6	3.0	1.56e+00	0	47	104	0	60	1048574
2026-01-17 22:59:13.90	29.44	29.54	-85.2	-88.6	3.1	1.56e+00	0	47	104	0	60	1048575
2026-01-17 22:59:17.93	29.69	30.29	-85.2	-88.6	2.9	1.56e+00	0	47	104	0	60	1048572
2026-01-17 22:59:21.96	29.96	31.06	-85.2	-88.6	3.0	1.56e+00	0	47	104	0	60	1048575
2026-01-17 22:59:26.00	30.23	31.85	-85.2	-88.6	3.1	1.55e+00	0	47	104	0	60	1048575
2026-01-17 22:59:30.03	30.52	32.66	-85.2	-88.6	2.9	1.56e+00	0	47	104	0	60	1048575
2026-01-17 22:59:34.05	30.82	33.50	-85.2	-88.6	3.0	1.56e+00	0	47	104	0	60	1048572
2026-01-17 22:59:38.08	31.14	34.35	-85.2	-88.6	3.1	1.56e+00	0	47	104	0	60	1048572
2026-01-17 22:59:42.10	31.48	35.23	-85.2	-88.6	3.1	1.56e+00	0	47	104	0	60	1048574
2026-01-17 22:59:46.13	31.83	36.13	-85.2	-88.6	2.9	1.56e+00	0	47	104	0	60	1048571
2026-01-17 22:59:50.15	32.20	37.06	-85.2	-88.6	3.1	1.55e+00	0	47	104	0	60	1048575
2026-01-17 22:59:54.19	32.59	38.02	-85.2	-88.6	2.9	1.56e+00	0	47	104	0	60	1048575
2026-01-17 22:59:58.22	33.01	39.00	-85.2	-88.6	2.9	1.56e+00	0	47	104	0	60	1048575
2026-01-17 23:00:02.25	33.45	40.01	-85.2	-88.6	3.1	1.56e+00	0	47	104	0	60	1048575
2026-01-17 23:00:06.27	33.91	41.04	-85.2	-88.6	2.8	1.56e+00	0	47	104	0	60	1048575
2026-01-17 23:00:10.29	34.41	42.10	-85.2	-88.6	2.9	1.55e+00	0	47	104	0	60	1048574
2026-01-17 23:00:14.32	34.94	43.20	-85.2	-88.6	3.1	1.56e+00	0	47	104	0	60	1048575
2026-01-17 23:00:18.35	35.51	44.32	-85.2	-88.6	3.0	1.55e+00	0	47	104	0	60	1048575
2026-01-17 23:00:22.36	36.12	45.47	-85.2	-88.6	3.0	1.56e+00	0	47	104	0	60	1048574
2026-01-17 23:00:26.39	36.77	46.65	-85.2	-88.6	3.1	1.56e+00	0	47	104	0	60	1048575
2026-01-17 23:00:30.41	37.47	47.86	-85.2	-88.6	2.9	1.56e+00	0	47	104	0	60	1048575
2026-01-17 23:00:34.44	38.24	49.11	-85.2	-88.6	2.9	1.56e+00	0	47	104	0	60	1048575
2026-01-17 23:00:38.47	39.06	50.38	-85.2	-88.6	2.8	1.56e+00	0	47	104	0	60	1048573
2026-01-17 23:00:42.50	39.96	51.69	-85.2	-88.6	3.1	1.56e+00	0	47	104	0	60	1048575
2026-01-17 23:00:46.52	40.93	53.02	-85.2	-88.6	3.1	1.56e+00	0	47	104	0	60	1048572
2026-01-17 23:00:50.55	42.01	54.38	-85.2	-88.6	3.1	1.56e+00	0	47	104	0	60	1048575
2026-01-17 23:00:54.57	43.18	55.76	-85.2	-88.6	3.1	1.55e+00	0	47	104	0	60	1048571
2026-01-17 23:00:58.60	44.48	57.17	-85.2	-88.6	2.9	1.55e+00	0	47	104	0	60	1048575
2026-01-17 23:01:02.62	45.92	58.60	-85.2	-88.6	2.9	1.56e+00	0	47	104	0	60	1048574
2026-01-17 23:01:06.65	47.52	60.04	-85.2	-88.6	2.9	1.55e+00	0	47	104	0	60	1048575
2026-01-17 23:01:10.68	49.31	61.50	-85.2	-88.6	2.9	1.56e+00	0	47	104	0	60	1048570
2026-01-17 23:01:14.71	51.33	62.96	-85.2	-88.6	3.1	1.56e+00	0	47	104	0	60	1048573
2026-01-17 23:01:18.74	53.60	64.43	-85.2	-88.6	3.2	1.56e+00	0	47	104	0	60	1048573
2026-01-17 23:01:22.77	56.19	65.88	-85.2	-88.6	3.0	1.55e+00	0	47	104	0	60	1048575
2026-01-17 23:01:26.80	59.13	67.30	-85.2	-88.6	2.9	1.56e+00	0	47	104	0	60	1048575
2026-01-17 23:01:30.82	62.49	68.69	-85.2	-88.6	3.1	1.56e+00	0	47	104	0	60	1048575
2026-01-17 23:01:34.84	66.35	70.01	-85.2	-88.6	3.0	1.56e+00	0	47	104	0	60	1048575
2026-01-17 23:01:38.87	70.79	71.27	-85.2	-88.6	2.8	1.56e+00	0	47	104	0	60	1048575
2026-01-17 23:01:42.89	75.85	72.41	-85.2	-88.6	3.0	1.55e+00	0	47	104	0	60	1048573
2026-01-17 23:01:46.92	81.63	73.42	-85.2	-88.6	3.0	1.56e+00	0	47	104	0	60	1048574
2026-01-17 23:01:50.93	88.08	74.25	-85.2	-88.6	3.1	1.56e+00	0	47	104	0	60	1048575
2026-01-17 23:01:54.96	95.22	74.87	-85.2	-88.6	3.3	1.56e+00	0	47	104	0	60	1048575
2026-01-17 23:01:58.99	102.87	75.26	-85.2	-88.6	2.8	1.55e+00	0	47	104	0	60	1048575
2026-01-17 23:02:03.02	110.80	75.38	-85.2	-88.6	3.1	1.55e+00	0	47	104	0	60	1048575
2026-01-17 23:02:07.04	118.70	75.23	-85.2	-88.6	2.9	1.56e+00	0	47	104	0	60	1048575
2026-01-17 23:02:11.07	126.32	74.83	-83.5	-88.6	3.0	1.56e+00	0	47	104	0	60	1048574
2026-01-17 23:02:15.09	133.39	74.18	-85.2	-88.6	2.8	1.55e+00	0	47	104	0	60	1048574
2026-01-17 23:02:19.11	139.80	73.33	-85.2	-88.6	2.9	1.56e+00	0	47	104	0	60	1048572
2026-01-17 23:02:23.13	145.51	72.31	-85.2	-88.6	3.1	1.56e+00	0	47	104	0	60	1048575
2026-01-17 23:02:27.16	150.53	71.16	-85.2	-88.6	3.0	1.56e+00	0	47	104	0	60	1048574
2026-01-17 23:02:31.19	154.92	69.90	-85.2	-88.6	3.2	1.56e+00	0	47	104	0	60	1048574
2026-01-17 23:02:35.21	158.73	68.56	-85.2	-88.6	2.9	1.56e+00	0	47	104	0	60	1048575
2026-01-17 23:02:39.23	162.05	67.17	-85.2	-88.6	2.9	1.56e+00	0	47	104	0	60	1048574
2026-01-17 23:02:43.26	164.96	65.74	-85.2	-88.6	3.1	1.56e+00	0	47	104	0	60	1048575
2026-01-17 23:02:47.29	167.52	64.28	-85.2	-88.6	3.0	1.56e+00	0	47	104	0	60	1048573
2026-01-17 23:02:51.31	169.77	62.82	-85.2	-88.6	2.9	1.56e+00	0	47	104	0	60	1048572
2026-01-17 23:02:55.34	171.76	61.36	-84.3	-88.6	3.0	1.55e+00	0	47	104	0	60	1048575
2026-01-17 23:02:59.36	173.53	59.90	-84.7	-88.6	3.1	1.55e+00	0	47	104	0	60	1048575
2026-01-17 23:03:03.39	175.12	58.45	-85.2	-88.6	2.8	1.56e+00	0	47	104	0	60	1048575
2026-01-17 23:03:07.42	176.55	57.02	-85.2	-88.6	3.1	1.56e+00	0	47	104	0	60	1048572
2026-01-17 23:03:11.45	177.84	55.61	-85.2	-88.6	2.9	1.56e+00	0	47	104	0	60	1048575
2026-01-17 23:03:15.48	179.01	54.22	-85.2	-88.6	2.9	1.56e+00	0	47	104	0	60	1048574
2026-01-17 23:03:19.52	180.07	52.85	-85.2	-88.6	3.1	1.55e+00	0	47	104	0	60	1048575
2026-01-17 23:03:23.55	181.04	51.52	-85.2	-88.6	3.0	1.56e+00	0	47	104	0	60	1048574
2026-01-17 23:03:27.56	181.93	50.22	-85.2	-88.6	3.0	1.56e+00	0	47	104	0	60	1048575
2026-01-17 23:03:31.58	182.75	48.95	-85.2	-88.6	2.9	1.56e+00	0	47	104	0	60	1048571
2026-01-17 23:03:35.61	183.50	47.70	-85.2	-88.6	3.0	1.56e+00	0	47	104	0	60	1048575
2026-01-17 23:03:39.64	184.20	46.49	-85.2	-88.6	3.2	1.56e+00	0	47	104	0	60	1048575
2026-01-17 23:03:43.66	184.85	45.31	-85.2	-88.6	3.0	1.56e+00	0	47	104	0	60	1048575
2026-01-17 23:03:47.68	185.45	44.15	-85.2	-88.6	3.0	1.56e+00	0	47	104	0	60	1048573
2026-01-17 23:03:51.71	186.02	43.03	-85.2	-88.6	3.1	1.56e+00	0	47	104	0	60	1048574
2026-01-17 23:03:55.74	186.54	41.94	-85.2	-88.6	3.1	1.55e+00	0	47	104	0	60	1048574
2026-01-17 23:03:59.74	187.03	40.88	-85.2	-88.6	3.0	1.56e+00	0	47	104	0	60	1048575
2026-01-17 23:04:03.76	187.50	39.85	-85.2	-88.6	3.1	1.56e+00	0	47	104	0	60	1048574
2026-01-17 23:04:07.79	187.94	38.84	-85.2	-88.6	2.9	1.55e+00	0	47	104	0	60	1048575
2026-01-17 23:04:11.81	188.35	37.86	-85.2	-88.6	2.9	1.56e+00	0	47	104	0	60	1048575
2026-01-17 23:04:15.84	188.74	36.90	-85.2	-88.6	3.0	1.55e+00	0	47	104	0	60	1048574
2026-01-17 23:04:19.87	189.11	35.97	-85.2	-88.6	2.8	1.56e+00	0	47	104	0	60	1048575
2026-01-17 23:04:23.89	189.45	35.07	-85.2	-88.6	3.0	1.56e+00	0	47	104	0	60	1048575
2026-01-17 23:04:27.92	189.79	34.19	-85.2	-88.6	3.0	1.56e+00	0	47	104	0	60	1048574
2026-01-17 23:04:31.94	190.10	33.34	-85.2	-88.6	3.0	1.56e+00	0	47	104	0	60	1048573
2026-01-17 23:04:35.97	190.40	32.50	-84.3	-88.6	3.2	1.56e+00	0	47	104	0	60	1048573
2026-01-17 23:04:40.00	190.69	31.69	-85.2	-88.6	2.9	1.56e+00	0	47	104	0	60	1048574
2026-01-17 23:04:44.04	190.96	30.90	-85.2	-88.6	3.0	1.55e+00	0	47	104	0	60	1048575
2026-01-17 23:04:48.06	191.22	30.13	-84.7	-88.6	2.9	1.56e+00	0	47	104	0	60	1048574
2026-01-17 23:04:52.08	191.47	29.38	-85.2	-88.6	2.8	1.56e+00	0	47	104	0	60	1048575
2026-01-17 23:04:56.11	191.71	28.65	-85.2	-88.6	3.1	1.56e+00	0	47	104	0	60	1048575
2026-01-17 23:05:00.14	191.94	27.93	-85.2	-88.6	3.1	1.56e+00	0	47	104	0	60	1048574
2026-01-17 23:05:04.17	192.16	27.23	-85.2	-88.6	3.1	1.56e+00	0	47	104	0	60	1048572
2026-01-17 23:05:08.20	192.37	26.56	-85.2	-88.6	3.1	1.56e+00	0	47	104	0	60	1048572
2026-01-17 23:05:12.22	192.57	25.89	-85.2	-88.6	3.0	1.56e+00	0	47	104	0	60	1048575
2026-01-17 23:05:16.25	192.77	25.25	-85.2	-88.6	2.9	1.56e+00	0	47	104	0	60	1048575
2026-01-17 23:05:20.27	192.96	24.62	-85.2	-88.6	3.0	1.56e+00	0	47	104	0	60	1048575
2026-01-17 23:05:24.30	193.14	24.00	-85.2	-88.6	3.2	1.56e+00	0	47	104	0	60	1048575
2026-01-17 23:05:28.33	193.32	23.39	-85.2	-88.6	3.0	1.56e+00	0	47	104	0	60	1048574
2026-01-17 23:05:32.37	193.49	22.80	-85.2	-88.6	3.1	1.55e+00	0	47	104	0	60	1048575
2026-01-17 23:05:36.40	193.65	22.22	-85.2	-88.6	3.2	1.56e+00	0	47	104	0	60	1048575
2026-01-17 23:05:40.43	193.81	21.66	-85.2	-88.6	3.1	1.55e+00	0	47	104	0	60	1048575
2026-01-17 23:05:44.46	193.96	21.11	-85.2	-88.6	3.1	1.56e+00	0	47	104	0	60	1048575
2026-01-17 23:05:48.49	194.11	20.57	-85.2	-88.6	3.1	1.56e+00	0	47	104	0	60	1048575
2026-01-17 23:05:52.52	194.26	20.04	-84.3	-88.6	3.0	1.56e+00	0	47	104	0	60	1048572
2026-01-17 23:05:56.53	194.40	19.52	-85.2	-88.6	2.9	1.56e+00	0	47	104	0	60	1048575
2026-01-17 23:06:00.57	194.53	19.01	-85.2	-88.6	3.0	1.56e+00	0	47	104	0	60	1048575
2026-01-17 23:06:04.58	194.66	18.52	-85.2	-88.6	3.0	1.55e+00	0	47	104	0	60	1048575
2026-01-17 23:06:08.61	194.79	18.03	-85.2	-88.6	3.0	1.56e+00	0	47	104	0	60	1048575
2026-01-17 23:06:12.64	194.92	17.55	-85.2	-88.6	3.1	1.56e+00	0	47	104	0	60	1048574
2026-01-17 23:06:16.66	195.04	17.08	-85.2	-88.6	2.9	1.55e+00	0	47	104	0	60	1048575
2026-01-17 23:06:20.69	195.15	16.62	-85.2	-88.6	3.0	1.56e+00	0	47	104	0	60	1048575
2026-01-17 23:06:24.72	195.27	16.17	-85.2	-88.6	3.0	1.56e+00	0	47	104	0	60	1048572
2026-01-17 23:06:28.74	195.38	15.72	-85.2	-88.6	3.0	1.56e+00	0	47	104	0	60	1048572
2026-01-17 23:06:32.76	195.49	15.29	-84.7	-88.6	3.0	1.55e+00	0	47	104	0	60	1048575
2026-01-17 23:06:36.78	195.60	14.86	-85.2	-88.6	3.1	1.56e+00	0	47	104	0	60	1048573
2026-01-17 23:06:40.81	195.70	14.44	-85.2	-88.6	2.9	1.55e+00	0	47	104	0	60	1048574
2026-01-17 23:06:44.85	195.80	14.02	-85.2	-88.6	3.2	1.56e+00	0	47	104	0	60	1048575
2026-01-17 23:06:48.87	195.90	13.61	-85.2	-88.6	3.0	1.56e+00	0	47	104	0	60	1048574
2026-01-17 23:06:52.90	196.00	13.21	-85.2	-88.6	3.1	1.56e+00	0	47	104	0	60	1048575
2026-01-17 23:06:56.93	196.09	12.82	-85.2	-88.6	3.1	1.56e+00	0	47	104	0	60	1048573
2026-01-17 23:07:00.94	196.18	12.43	-85.2	-88.6	3.1	1.56e+00	0	47	104	0	60	1048575
2026-01-17 23:07:04.97	196.27	12.05	-85.2	-88.6	3.0	1.56e+00	0	47	104	0	60	1048575
2026-01-17 23:07:09.01	196.36	11.67	-85.2	-88.6	3.1	1.56e+00	0	47	104	0	60	1048572
2026-01-17 23:07:13.04	196.45	11.30	-85.2	-88.6	3.0	1.55e+00	0	47	104	0	60	1048574
2026-01-17 23:07:17.06	196.53	10.94	-85.2	-88.6	3.0	1.56e+00	0	47	104	0	60	1048575
2026-01-17 23:07:21.08	196.62	10.58	-85.2	-88.6	2.9	1.56e+00	0	47	104	0	60	1048571
2026-01-17 23:07:25.11	196.70	10.22	-85.2	-88.6	3.0	1.56e+00	0	47	104	0	60	1048573
2026-01-17 23:07:29.14	196.78	9.87	-84.7	-88.6	3.0	1.56e+00	0	47	104	0	60	1048575
2026-01-17 23:07:33.17	196.86	9.53	-85.2	-88.6	2.7	1.56e+00	0	47	104	0	60	1048575
2026-01-17 23:07:37.19	196.93	9.19	-85.2	-88.6	3.2	1.56e+00	0	47	104	0	60	1048575
2026-01-17 23:07:41.22	197.01	8.85	-82.8	-88.6	2.9	1.55e+00	0	47	104	0	60	1048574
2026-01-17 23:07:45.24	197.08	8.52	-85.2	-88.6	3.1	1.56e+00	0	47	104	0	60	1048575
2026-01-17 23:07:49.28	197.15	8.19	-85.2	-88.6	3.1	1.56e+00	0	47	104	0	60	1048574
2026-01-17 23:07:53.31	197.22	7.87	-85.2	-88.6	3.0	1.56e+00	0	47	104	0	60	1048575
2026-01-17 23:07:57.33	197.29	7.55	-85.2	-88.6	3.2	1.56e+00	0	47	104	0	60	1048574
2026-01-17 23:08:01.37	197.36	7.24	-85.2	-88.6	2.9	1.56e+00	0	47	104	0	60	1048573
2026-01-17 23:08:05.40	197.43	6.93	-85.2	-88.6	2.9	1.56e+00	0	47	104	0	60	1048575
2026-01-17 23:08:09.42	197.50	6.62	-85.2	-88.6	3.0	1.56e+00	0	47	104	0	60	1048573
2026-01-17 23:08:13.45	197.56	6.32	-85.2	-88.6	3.0	1.56e+00	0	47	104	0	60	1048574
2026-01-17 23:08:17.47	197.63	6.02	-85.2	-88.6	3.0	1.56e+00	0	47	104	0	60	1048574
2026-01-17 23:08:21.50	197.69	5.72	-85.2	-88.6	2.9	1.56e+00	0	47	104	0	60	1048573
2026-01-17 23:08:25.52	197.75	5.43	-85.2	-88.6	3.1	1.56e+00	0	47	104	0	60	1048575
2026-01-17 23:08:29.54	197.81	5.14	-85.2	-88.6	3.1	1.56e+00	0	47	104	0	60	1048573
2026-01-17 23:08:33.57	197.87	4.85	-85.2	-88.6	3.2	1.56e+00	0	47	104	0	60	1048573
2026-01-17 23:08:37.60	197.93	4.57	-85.2	-88.6	3.1	1.56e+00	0	47	104	0	60	1048574
2026-01-17 23:08:41.62	197.99	4.29	-85.2	-88.6	3.1	1.55e+00	0	47	104	0	60	1048575
2026-01-17 23:08:45.65	198.05	4.01	-85.2	-88.6	2.8	1.56e+00	0	47	104	0	60	1048575
2026-01-17 23:08:49.68	198.11	3.73	-85.2	-88.6	3.1	1.56e+00	0	47	104	0	60	1048575
2026-01-17 23:08:53.72	198.16	3.46	-85.2	-88.6	3.1	1.56e+00	0	47	104	0	60	1048575
2026-01-17 23:08:57.74	198.22	3.19	-85.2	-88.6	2.8	1.56e+00	0	47	104	0	60	1048574
2026-01-17 23:09:01.77	198.27	2.92	-85.2	-88.6	3.1	1.55e+00	0	47	104	0	60	1048573
2026-01-17 23:09:05.79	198.33	2.66	-85.2	-88.6	3.0	1.56e+00	0	47	104	0	60	1048574
2026-01-17 23:09:09.82	198.38	2.39	-85.2	-88.6	3.0	1.55e+00	0	47	104	0	60	1048575
2026-01-17 23:09:13.85	198.43	2.13	-85.2	-88.6	3.1	1.56e+00	0	47	104	0	60	1048575
2026-01-17 23:09:17.89	198.48	1.88	-85.2	-88.6	2.8	1.56e+00	0	47	104	0	60	1048572
2026-01-17 23:09:21.92	198.54	1.62	-85.2	-88.6	2.9	1.56e+00	0	47	104	0	60	1048573
2026-01-17 23:09:25.95	198.59	1.37	-85.2	-88.6	2.9	1.56e+00	0	47	104	0	60	1048572
2026-01-17 23:09:29.97	198.64	1.12	-85.2	-88.6	2.9	1.55e+00	0	47	104	0	60	1048575
2026-01-17 23:09:34.00	198.69	0.87	-85.2	-88.6	3.2	1.56e+00	0	47	104	0	60	1048574
2026-01-17 23:09:38.02	198.73	0.62	-85.2	-88.6	3.2	1.56e+00	0	47	104	0	60	1048575
2026-01-17 23:09:42.05	198.78	0.38	-85.2	-88.6	3.2	1.56e+00	0	47	104	0	60	1048572
2026-01-17 23:09:46.08	198.83	0.13	-85.2	-88.6	2.9	1.56e+00	0	47	104	0	60	1048575

#Closed at: 2026-01-17 23:09:48
#Recorded file [0 MB]: D:/Data/35015_260118_015415.dat