passes_logs/2026/01/17/R3.2S-Naryan-Mar/R3.2S-Naryan-Mar__20260117_065611_TY-42_rec.log

#Pass ID: 20260117_065611_TY-42
#Satellite: TY-42
#Configuration: TY-42
#almurnet v.1.7.20240730
#Start time: 2026-01-17 06:59:31

#Version: 2.2.20231116
#Station: R3.2S-Naryan-Mar
#Location: 53.008057 lon 67.646978 lat
#TLE: 1 64048U 25103A   26017.16855324  .00008007  00000-0  38191-3 0 09993
#TLE: 2 64048 097.4122 092.5453 0001842 092.3417 060.2488 15.19155566 37145

#Time	Az	El	Level	Level2	SNR	BER	BlckErr	Temp	State	Recorded	gain1	gain2
2026-01-17 06:59:31.84	38.87	17.26	-83.9	-88.8	2.8	6.28e+00	0	46	0	0	60	1048575
2026-01-17 06:59:33.85	39.26	17.51	-83.1	-79.0	2.3	0.00e+00	0	47	104	0	60	1048575
2026-01-17 06:59:35.86	39.65	17.77	-83.5	-79.0	2.2	0.00e+00	0	47	104	0	60	1048574
2026-01-17 06:59:37.88	40.06	18.03	-83.5	-79.0	2.0	0.00e+00	0	47	104	0	60	1048575
2026-01-17 06:59:39.89	40.47	18.30	-83.1	-79.0	2.1	0.00e+00	0	47	104	0	60	1048575
2026-01-17 06:59:41.91	40.89	18.56	-83.5	-79.0	2.1	0.00e+00	0	47	104	0	60	1048568
2026-01-17 06:59:43.92	41.31	18.83	-83.1	-79.0	2.2	0.00e+00	0	47	104	0	60	1048574
2026-01-17 06:59:45.94	41.75	19.10	-83.1	-79.0	2.4	0.00e+00	0	47	104	0	60	1048574
2026-01-17 06:59:47.96	42.20	19.38	-83.1	-79.0	2.0	0.00e+00	0	47	104	0	60	1048555
2026-01-17 06:59:49.97	42.65	19.65	-83.1	-79.0	2.1	0.00e+00	0	47	104	0	60	1048575
2026-01-17 06:59:51.98	43.11	19.93	-83.1	-79.0	2.1	0.00e+00	0	47	104	0	60	1048574
2026-01-17 06:59:54.00	43.59	20.21	-83.1	-79.0	2.2	0.00e+00	0	47	104	0	60	1048571
2026-01-17 06:59:56.01	44.07	20.49	-83.5	-79.0	2.1	0.00e+00	0	47	104	0	60	1048571
2026-01-17 06:59:58.03	44.56	20.78	-83.1	-79.0	2.3	0.00e+00	0	47	104	0	60	1048574
2026-01-17 07:00:00.04	45.06	21.06	-83.5	-79.0	2.3	0.00e+00	0	47	104	0	60	1048575
2026-01-17 07:00:02.06	45.58	21.35	-83.5	-79.0	2.2	0.00e+00	0	47	104	0	60	1048575
2026-01-17 07:00:04.07	46.10	21.64	-83.1	-79.0	2.1	0.00e+00	0	48	104	0	60	1048574
2026-01-17 07:00:06.09	46.64	21.94	-83.5	-79.0	2.5	0.00e+00	0	47	104	0	60	1048573
2026-01-17 07:00:08.10	47.18	22.23	-83.1	-79.0	2.3	0.00e+00	0	48	104	0	60	1048572
2026-01-17 07:00:10.11	47.74	22.53	-83.5	-79.0	2.3	0.00e+00	0	47	104	0	60	1048572
2026-01-17 07:00:12.12	48.31	22.82	-83.1	-79.0	2.4	0.00e+00	0	48	104	0	60	1048575
2026-01-17 07:00:14.13	48.89	23.12	-83.5	-79.0	2.4	0.00e+00	0	48	104	0	60	1048573
2026-01-17 07:00:16.14	49.48	23.42	-83.5	-79.0	2.3	0.00e+00	0	48	104	0	60	1048575
2026-01-17 07:00:18.15	50.09	23.72	-83.5	-79.0	2.2	0.00e+00	0	48	104	0	60	1048575
2026-01-17 07:00:20.17	50.71	24.03	-83.5	-79.0	2.3	0.00e+00	0	48	104	0	60	1048568
2026-01-17 07:00:22.19	51.35	24.34	-82.8	-79.0	2.3	0.00e+00	0	48	104	0	60	1048573
2026-01-17 07:00:24.20	51.99	24.64	-83.5	-79.0	2.4	0.00e+00	0	48	104	0	60	1048573
2026-01-17 07:00:26.20	52.65	24.94	-83.1	-79.0	2.3	0.00e+00	0	48	104	0	60	1048574
2026-01-17 07:00:28.22	53.33	25.25	-83.5	-79.0	2.3	0.00e+00	0	48	104	0	60	1048574
2026-01-17 07:00:30.22	54.01	25.56	-83.5	-79.0	2.4	0.00e+00	0	48	104	0	60	1048569
2026-01-17 07:00:32.23	54.71	25.87	-83.5	-79.0	2.4	0.00e+00	0	48	104	0	60	1048565
2026-01-17 07:00:34.25	55.43	26.17	-83.5	-79.0	2.6	0.00e+00	0	48	104	0	60	1048573
2026-01-17 07:00:36.25	56.16	26.48	-83.1	-79.0	2.2	0.00e+00	0	48	104	0	60	1048574
2026-01-17 07:00:38.27	56.92	26.79	-83.5	-79.0	2.4	0.00e+00	0	48	104	0	60	1048575
2026-01-17 07:00:40.28	57.68	27.09	-83.5	-79.0	2.4	0.00e+00	0	48	104	0	60	1048573
2026-01-17 07:00:42.30	58.47	27.40	-83.5	-79.0	2.4	0.00e+00	0	48	104	0	60	1048575
2026-01-17 07:00:44.30	59.26	27.70	-83.1	-79.0	2.4	0.00e+00	0	48	104	0	60	1048572
2026-01-17 07:00:46.31	60.07	28.00	-83.1	-79.0	2.4	0.00e+00	0	48	104	0	60	1048568
2026-01-17 07:00:48.33	60.91	28.31	-83.5	-79.0	2.5	0.00e+00	0	48	104	0	60	1048563
2026-01-17 07:00:50.35	61.76	28.61	-83.1	-79.0	2.3	0.00e+00	0	48	104	0	60	1048575
2026-01-17 07:00:52.35	62.62	28.90	-83.5	-79.0	2.3	0.00e+00	0	48	104	0	60	1048572
2026-01-17 07:00:54.37	63.51	29.19	-83.5	-79.0	2.4	0.00e+00	0	48	104	0	60	1048561
2026-01-17 07:00:56.39	64.41	29.48	-83.5	-79.0	2.5	0.00e+00	0	48	104	0	60	1048557
2026-01-17 07:00:58.40	65.33	29.77	-83.5	-79.0	2.4	0.00e+00	0	48	104	0	60	1048571
2026-01-17 07:01:00.42	66.26	30.05	-83.1	-79.0	2.1	0.00e+00	0	48	104	0	60	1048574
2026-01-17 07:01:02.43	67.22	30.33	-83.5	-79.0	2.1	0.00e+00	0	48	104	0	60	1048573
2026-01-17 07:01:04.44	68.18	30.60	-83.1	-79.0	2.0	0.00e+00	0	48	104	0	60	1048572
2026-01-17 07:01:06.46	69.18	30.87	-83.5	-79.0	2.4	0.00e+00	0	48	104	0	60	1048573
2026-01-17 07:01:08.48	70.18	31.13	-83.5	-79.0	2.5	0.00e+00	0	48	104	0	60	1048575
2026-01-17 07:01:10.49	71.20	31.38	-83.5	-79.0	2.4	0.00e+00	0	48	104	0	60	1048572
2026-01-17 07:01:12.51	72.25	31.63	-83.5	-79.0	2.3	0.00e+00	0	48	104	0	60	1048571
2026-01-17 07:01:14.52	73.30	31.87	-83.1	-79.0	2.0	0.00e+00	0	48	104	0	60	1048573
2026-01-17 07:01:16.53	74.37	32.10	-83.5	-79.0	2.1	0.00e+00	0	48	104	0	60	1048566
2026-01-17 07:01:18.54	75.46	32.32	-83.1	-79.0	2.0	0.00e+00	0	48	104	0	60	1048572
2026-01-17 07:01:20.55	76.56	32.53	-83.5	-79.0	2.5	0.00e+00	0	48	104	0	60	1048571
2026-01-17 07:01:22.57	77.69	32.74	-83.5	-79.0	2.3	0.00e+00	0	48	104	0	60	1048572
2026-01-17 07:01:24.58	78.82	32.93	-83.1	-79.0	2.2	0.00e+00	0	48	104	0	60	1048575
2026-01-17 07:01:26.59	79.97	33.11	-83.1	-79.0	2.2	0.00e+00	0	48	104	0	60	1048570
2026-01-17 07:01:28.61	81.13	33.29	-82.8	-79.0	2.2	0.00e+00	0	48	104	0	60	1048575
2026-01-17 07:01:30.62	82.30	33.45	-83.5	-79.0	2.1	0.00e+00	0	48	104	0	60	1048570
2026-01-17 07:01:32.63	83.49	33.60	-83.1	-79.0	2.2	0.00e+00	0	48	104	0	60	1048575
2026-01-17 07:01:34.64	84.69	33.74	-83.1	-79.0	2.3	0.00e+00	0	48	104	0	60	1048572
2026-01-17 07:01:36.65	85.89	33.86	-83.1	-79.0	1.9	0.00e+00	0	48	104	0	60	1048575
2026-01-17 07:01:38.67	87.11	33.97	-83.1	-79.0	2.0	0.00e+00	0	48	104	0	60	1048571
2026-01-17 07:01:40.68	88.34	34.07	-83.5	-79.0	2.0	0.00e+00	0	48	104	0	60	1048575
2026-01-17 07:01:42.70	89.58	34.16	-82.8	-79.0	2.1	0.00e+00	0	48	104	0	60	1048569
2026-01-17 07:01:44.71	90.82	34.23	-83.5	-79.0	2.4	0.00e+00	0	48	104	0	60	1048575
2026-01-17 07:01:46.72	92.06	34.29	-83.1	-79.0	2.3	0.00e+00	0	48	104	0	60	1048574
2026-01-17 07:01:48.73	93.31	34.33	-83.5	-79.0	2.3	0.00e+00	0	48	104	0	60	1048575
2026-01-17 07:01:50.73	94.55	34.36	-83.5	-79.0	2.2	0.00e+00	0	48	104	0	60	1048575
2026-01-17 07:01:52.74	95.80	34.38	-83.1	-79.0	2.4	0.00e+00	0	48	104	0	60	1048572
2026-01-17 07:01:54.74	97.05	34.38	-83.5	-79.0	2.4	0.00e+00	0	48	104	0	60	1048574
2026-01-17 07:01:56.75	98.30	34.36	-83.1	-79.0	2.4	0.00e+00	0	48	104	0	60	1048572
2026-01-17 07:01:58.76	99.56	34.34	-83.5	-79.0	2.4	0.00e+00	0	48	104	0	60	1048574
2026-01-17 07:02:00.78	100.81	34.29	-83.5	-79.0	2.4	0.00e+00	0	48	104	0	60	1048570
2026-01-17 07:02:02.79	102.06	34.24	-83.5	-79.0	2.4	0.00e+00	0	48	104	0	60	1048575
2026-01-17 07:02:04.81	103.30	34.17	-83.5	-79.0	2.4	0.00e+00	0	48	104	0	60	1048573
2026-01-17 07:02:06.82	104.54	34.08	-82.8	-79.0	2.4	0.00e+00	0	48	104	0	60	1048571
2026-01-17 07:02:08.84	105.77	33.99	-83.5	-79.0	2.4	0.00e+00	0	48	104	0	60	1048572
2026-01-17 07:02:10.85	106.99	33.88	-83.1	-79.0	2.4	0.00e+00	0	48	104	0	60	1048572
2026-01-17 07:02:12.87	108.20	33.75	-83.1	-79.0	2.3	0.00e+00	0	48	104	0	60	1048575
2026-01-17 07:02:14.88	109.40	33.61	-83.5	-79.0	2.3	0.00e+00	0	48	104	0	60	1048572
2026-01-17 07:02:16.90	110.60	33.47	-83.5	-79.0	2.5	0.00e+00	0	48	104	0	60	1048566
2026-01-17 07:02:18.91	111.77	33.31	-83.5	-79.0	2.4	0.00e+00	0	48	104	0	60	1048573
2026-01-17 07:02:20.93	112.94	33.13	-83.1	-79.0	2.4	0.00e+00	0	48	104	0	60	1048567
2026-01-17 07:02:22.95	114.10	32.95	-83.5	-79.0	2.3	0.00e+00	0	48	104	0	60	1048572
2026-01-17 07:02:24.96	115.24	32.76	-83.5	-79.0	2.4	0.00e+00	0	48	104	0	60	1048575
2026-01-17 07:02:26.97	116.36	32.55	-83.5	-79.0	2.4	0.00e+00	0	48	104	0	60	1048573
2026-01-17 07:02:28.99	117.47	32.34	-83.5	-79.0	2.5	0.00e+00	0	48	104	0	60	1048573
2026-01-17 07:02:31.00	118.56	32.12	-83.1	-79.0	2.4	0.00e+00	0	48	104	0	60	1048575
2026-01-17 07:02:33.02	119.64	31.88	-83.5	-79.0	2.4	0.00e+00	0	48	104	0	60	1048570
2026-01-17 07:02:35.03	120.70	31.65	-83.1	-79.0	2.5	0.00e+00	0	48	104	0	60	1048573
2026-01-17 07:02:37.05	121.75	31.40	-83.5	-79.0	2.3	0.00e+00	0	48	104	0	60	1048571
2026-01-17 07:02:39.07	122.78	31.14	-83.1	-79.0	2.5	0.00e+00	0	48	104	0	60	1048574
2026-01-17 07:02:41.08	123.79	30.88	-83.5	-79.0	2.3	0.00e+00	0	48	104	0	60	1048573
2026-01-17 07:02:43.09	124.78	30.62	-83.5	-79.0	2.5	0.00e+00	0	48	104	0	60	1048572
2026-01-17 07:02:45.11	125.76	30.34	-83.1	-79.0	2.3	0.00e+00	0	48	104	0	60	1048575
2026-01-17 07:02:47.12	126.71	30.07	-83.5	-79.0	2.4	0.00e+00	0	48	104	0	60	1048575
2026-01-17 07:02:49.13	127.65	29.79	-83.1	-79.0	2.3	0.00e+00	0	48	104	0	60	1048562
2026-01-17 07:02:51.15	128.58	29.50	-83.5	-79.0	2.0	0.00e+00	0	48	104	0	60	1048575
2026-01-17 07:02:53.15	129.48	29.21	-83.5	-79.0	2.5	0.00e+00	0	48	104	0	60	1048574
2026-01-17 07:02:55.17	130.37	28.91	-83.5	-79.0	2.4	0.00e+00	0	48	104	0	60	1048574
2026-01-17 07:02:57.17	131.23	28.62	-83.5	-79.0	2.4	0.00e+00	0	48	104	0	60	1048573
2026-01-17 07:02:59.18	132.08	28.32	-82.8	-79.0	2.4	0.00e+00	0	48	104	0	60	1048575
2026-01-17 07:03:01.19	132.92	28.02	-83.5	-79.0	2.2	0.00e+00	0	48	104	0	60	1048573
2026-01-17 07:03:03.21	133.74	27.71	-83.1	-79.0	2.3	0.00e+00	0	48	104	0	60	1048572
2026-01-17 07:03:05.22	134.54	27.41	-83.1	-79.0	1.9	0.00e+00	0	48	104	0	60	1048570
2026-01-17 07:03:07.23	135.33	27.10	-83.5	-79.0	2.4	0.00e+00	0	48	104	0	60	1048572
2026-01-17 07:03:09.24	136.10	26.79	-83.1	-79.0	1.9	0.00e+00	0	48	104	0	60	1048574
2026-01-17 07:03:11.24	136.85	26.49	-83.5	-79.0	2.2	0.00e+00	0	48	104	0	60	1048571
2026-01-17 07:03:13.26	137.59	26.18	-83.1	-79.0	2.2	0.00e+00	0	48	104	0	60	1048571
2026-01-17 07:03:15.27	138.31	25.87	-83.5	-79.0	2.1	0.00e+00	0	49	104	0	60	1048570
2026-01-17 07:03:17.28	139.02	25.56	-82.8	-79.0	2.1	0.00e+00	0	48	104	0	60	1048573
2026-01-17 07:03:19.29	139.71	25.25	-83.1	-79.0	2.3	0.00e+00	0	48	104	0	60	1048575
2026-01-17 07:03:21.30	140.39	24.94	-83.5	-79.0	2.0	0.00e+00	0	48	104	0	60	1048575
2026-01-17 07:03:23.31	141.05	24.63	-83.1	-79.0	2.2	0.00e+00	0	48	104	0	60	1048573
2026-01-17 07:03:25.31	141.70	24.33	-83.5	-79.0	2.2	0.00e+00	0	48	104	0	60	1048572
2026-01-17 07:03:27.32	142.33	24.02	-82.8	-79.0	2.3	0.00e+00	0	48	104	0	60	1048568
2026-01-17 07:03:29.33	142.96	23.72	-83.1	-79.0	2.2	0.00e+00	0	48	104	0	60	1048574
2026-01-17 07:03:31.34	143.57	23.41	-83.5	-79.0	2.3	0.00e+00	0	49	104	0	60	1048568
2026-01-17 07:03:33.35	144.16	23.11	-83.5	-79.0	2.2	0.00e+00	0	48	104	0	60	1048575
2026-01-17 07:03:35.36	144.75	22.81	-83.5	-79.0	2.3	0.00e+00	0	48	104	0	60	1048574
2026-01-17 07:03:37.37	145.32	22.51	-83.1	-79.0	2.3	0.00e+00	0	48	104	0	60	1048575
2026-01-17 07:03:39.37	145.88	22.21	-83.5	-79.0	2.3	0.00e+00	0	48	104	0	60	1048567
2026-01-17 07:03:41.39	146.43	21.92	-83.1	-79.0	2.3	0.00e+00	0	48	104	0	60	1048574
2026-01-17 07:03:43.40	146.97	21.62	-83.5	-79.0	2.4	0.00e+00	0	48	104	0	60	1048574
2026-01-17 07:03:45.41	147.49	21.33	-83.5	-79.0	2.4	0.00e+00	0	48	104	0	60	1048575
2026-01-17 07:03:47.42	148.01	21.04	-83.1	-79.0	2.4	0.00e+00	0	48	104	0	60	1048568
2026-01-17 07:03:49.43	148.51	20.75	-83.5	-79.0	2.5	0.00e+00	0	48	104	0	60	1048571
2026-01-17 07:03:51.45	149.01	20.47	-82.8	-79.0	2.3	0.00e+00	0	48	104	0	60	1048570
2026-01-17 07:03:53.46	149.49	20.18	-83.5	-79.0	2.3	0.00e+00	0	48	104	0	60	1048574
2026-01-17 07:03:55.48	149.97	19.90	-83.1	-79.0	2.4	0.00e+00	0	48	104	0	60	1048575
2026-01-17 07:03:57.49	150.43	19.62	-83.5	-79.0	2.4	0.00e+00	0	48	104	0	60	1048572
2026-01-17 07:03:59.51	150.89	19.34	-83.5	-79.0	2.4	0.00e+00	0	48	104	0	60	1048575
2026-01-17 07:04:01.52	151.34	19.07	-83.1	-79.0	2.4	0.00e+00	0	48	104	0	60	1048573
2026-01-17 07:04:03.54	151.78	18.79	-83.5	-79.0	2.4	0.00e+00	0	48	104	0	60	1048574
2026-01-17 07:04:05.55	152.20	18.52	-82.8	-79.0	2.5	0.00e+00	0	48	104	0	60	1048572
2026-01-17 07:04:07.56	152.62	18.26	-83.5	-79.0	2.3	0.00e+00	0	48	104	0	60	1048575
2026-01-17 07:04:09.58	153.04	17.99	-83.1	-79.0	2.3	0.00e+00	0	48	104	0	60	1048568
2026-01-17 07:04:11.59	153.44	17.73	-83.5	-79.0	2.4	0.00e+00	0	48	104	0	60	1048571
2026-01-17 07:04:13.61	153.84	17.47	-83.5	-79.0	2.3	0.00e+00	0	48	104	0	60	1048562
2026-01-17 07:04:15.63	154.23	17.21	-83.1	-79.0	2.4	0.00e+00	0	48	104	0	60	1048575
2026-01-17 07:04:17.64	154.61	16.95	-83.5	-79.0	2.1	0.00e+00	0	48	104	0	60	1048571
2026-01-17 07:04:19.64	154.98	16.70	-83.1	-79.0	2.1	0.00e+00	0	48	104	0	60	1048572
2026-01-17 07:04:21.65	155.35	16.45	-83.5	-79.0	2.4	0.00e+00	0	48	104	0	60	1048570
2026-01-17 07:04:23.67	155.71	16.20	-83.5	-79.0	2.3	0.00e+00	0	49	104	0	60	1048574
2026-01-17 07:04:25.68	156.07	15.95	-83.1	-79.0	2.5	0.00e+00	0	48	104	0	60	1048572
2026-01-17 07:04:27.70	156.41	15.70	-83.1	-79.0	2.4	0.00e+00	0	48	104	0	60	1048575
2026-01-17 07:04:29.71	156.75	15.46	-83.1	-79.0	2.1	0.00e+00	0	49	104	0	60	1048575
2026-01-17 07:04:31.72	157.09	15.22	-83.5	-79.0	2.0	0.00e+00	0	48	104	0	60	1048568
2026-01-17 07:04:33.74	157.42	14.98	-83.1	-79.0	2.1	0.00e+00	0	48	104	0	60	1048568
2026-01-17 07:04:35.75	157.74	14.75	-83.5	-79.0	2.1	0.00e+00	0	48	104	0	60	1048575
2026-01-17 07:04:37.75	158.05	14.52	-83.5	-79.0	2.4	0.00e+00	0	48	104	0	60	1048565
2026-01-17 07:04:39.76	158.36	14.28	-83.5	-79.0	2.3	0.00e+00	0	49	104	0	60	1048575
2026-01-17 07:04:41.78	158.67	14.06	-83.5	-79.0	2.2	0.00e+00	0	49	104	0	60	1048564
2026-01-17 07:04:43.79	158.97	13.83	-83.1	-79.0	2.0	0.00e+00	0	48	104	0	60	1048575
2026-01-17 07:04:45.81	159.27	13.60	-83.1	-79.0	2.0	0.00e+00	0	49	104	0	60	1048572
2026-01-17 07:04:47.83	159.56	13.38	-83.1	-79.0	2.1	0.00e+00	0	49	104	0	60	1048575
2026-01-17 07:04:49.84	159.84	13.16	-83.5	-79.0	2.2	0.00e+00	0	48	104	0	60	1048574
2026-01-17 07:04:51.85	160.12	12.94	-83.5	-79.0	2.3	0.00e+00	0	48	104	0	60	1048573
2026-01-17 07:04:53.86	160.40	12.72	-83.5	-79.0	2.1	0.00e+00	0	48	104	0	60	1048574
2026-01-17 07:04:55.87	160.67	12.51	-83.5	-79.0	2.1	0.00e+00	0	49	104	0	60	1048572
2026-01-17 07:04:57.88	160.93	12.30	-82.8	-79.0	2.1	0.00e+00	0	48	104	0	60	1048568
2026-01-17 07:04:59.90	161.20	12.09	-83.5	-79.0	2.1	0.00e+00	0	49	104	0	60	1048573
2026-01-17 07:05:01.91	161.45	11.88	-83.5	-79.0	2.3	0.00e+00	0	49	104	0	60	1048573
2026-01-17 07:05:03.93	161.71	11.67	-83.5	-79.0	2.6	0.00e+00	0	49	104	0	60	1048575
2026-01-17 07:05:05.95	161.96	11.46	-83.5	-79.0	2.2	0.00e+00	0	48	104	0	60	1048575
2026-01-17 07:05:07.96	162.20	11.26	-83.1	-79.0	2.1	0.00e+00	0	49	104	0	60	1048574
2026-01-17 07:05:09.97	162.44	11.06	-83.5	-79.0	2.0	0.00e+00	0	49	104	0	60	1048575
2026-01-17 07:05:11.99	162.68	10.86	-82.8	-79.0	2.2	0.00e+00	0	48	104	0	60	1048574
2026-01-17 07:05:14.00	162.92	10.66	-83.5	-79.0	2.2	0.00e+00	0	49	104	0	60	1048574
2026-01-17 07:05:16.02	163.15	10.46	-83.5	-79.0	2.3	0.00e+00	0	49	104	0	60	1048573
2026-01-17 07:05:18.03	163.37	10.27	-83.5	-79.0	2.2	0.00e+00	0	48	104	0	60	1048575
2026-01-17 07:05:20.05	163.60	10.08	-83.5	-79.0	2.4	0.00e+00	0	49	104	0	60	1048573
2026-01-17 07:05:22.06	163.82	9.89	-83.1	-79.0	2.2	0.00e+00	0	49	104	0	60	1048572
2026-01-17 07:05:24.07	164.03	9.70	-83.5	-79.0	2.2	0.00e+00	0	49	104	0	60	1048573
2026-01-17 07:05:26.09	164.25	9.51	-83.1	-79.0	2.4	0.00e+00	0	49	104	0	60	1048568
2026-01-17 07:05:28.10	164.45	9.32	-83.5	-79.0	2.3	0.00e+00	0	49	104	0	60	1048575
2026-01-17 07:05:30.12	164.66	9.14	-83.5	-79.0	2.4	0.00e+00	0	49	104	0	60	1048574
2026-01-17 07:05:32.12	164.86	8.95	-83.5	-79.0	2.5	0.00e+00	0	48	104	0	60	1048575
2026-01-17 07:05:34.13	165.07	8.77	-83.5	-79.0	2.3	0.00e+00	0	48	104	0	60	1048574
2026-01-17 07:05:36.16	165.26	8.59	-83.1	-79.0	2.2	0.00e+00	0	49	104	0	60	1048569
2026-01-17 07:05:38.17	165.46	8.41	-83.5	-79.0	2.2	0.00e+00	0	48	104	0	60	1048575
2026-01-17 07:05:40.19	165.65	8.23	-83.1	-79.0	2.2	0.00e+00	0	48	104	0	60	1048573
2026-01-17 07:05:42.19	165.84	8.06	-83.5	-79.0	2.3	0.00e+00	0	49	104	0	60	1048575
2026-01-17 07:05:44.21	166.03	7.88	-83.1	-79.0	2.4	0.00e+00	0	48	104	0	60	1048571
2026-01-17 07:05:46.22	166.21	7.71	-83.5	-79.0	2.4	0.00e+00	0	49	104	0	60	1048566
2026-01-17 07:05:48.23	166.39	7.54	-83.5	-79.0	2.4	0.00e+00	0	49	104	0	60	1048574
2026-01-17 07:05:50.24	166.57	7.37	-82.8	-79.0	2.4	0.00e+00	0	49	104	0	60	1048573
2026-01-17 07:05:52.26	166.75	7.20	-83.5	-79.0	2.3	0.00e+00	0	48	104	0	60	1048573
2026-01-17 07:05:54.27	166.92	7.03	-83.1	-79.0	2.4	0.00e+00	0	49	104	0	60	1048569
2026-01-17 07:05:56.29	167.09	6.86	-83.1	-79.0	2.4	0.00e+00	0	49	104	0	60	1048572
2026-01-17 07:05:58.31	167.26	6.70	-83.5	-79.0	2.4	0.00e+00	0	49	104	0	60	1048575
2026-01-17 07:06:00.32	167.43	6.53	-83.1	-79.0	2.4	0.00e+00	0	49	104	0	60	1048573
2026-01-17 07:06:02.33	167.60	6.37	-83.5	-79.0	2.4	0.00e+00	0	48	104	0	60	1048574
2026-01-17 07:06:04.35	167.76	6.21	-82.8	-79.0	2.4	0.00e+00	0	49	104	0	60	1048575
2026-01-17 07:06:06.35	167.92	6.05	-83.5	-79.0	2.4	0.00e+00	0	48	104	0	60	1048574
2026-01-17 07:06:08.37	168.08	5.89	-83.1	-79.0	2.4	0.00e+00	0	48	104	0	60	1048575
2026-01-17 07:06:10.38	168.23	5.73	-83.1	-79.0	2.4	0.00e+00	0	49	104	0	60	1048568
2026-01-17 07:06:12.40	168.39	5.57	-83.5	-79.0	2.4	0.00e+00	0	49	104	0	60	1048572
2026-01-17 07:06:14.42	168.54	5.42	-83.1	-79.0	2.4	0.00e+00	0	49	104	0	60	1048573
2026-01-17 07:06:16.42	168.69	5.26	-83.5	-79.0	2.2	0.00e+00	0	48	104	0	60	1048575
2026-01-17 07:06:18.43	168.84	5.11	-82.8	-79.0	2.5	0.00e+00	0	48	104	0	60	1048568
2026-01-17 07:06:20.45	168.99	4.96	-83.5	-79.0	2.4	0.00e+00	0	49	104	0	60	1048571
2026-01-17 07:06:22.47	169.13	4.80	-83.5	-79.0	2.5	0.00e+00	0	48	104	0	60	1048573
2026-01-17 07:06:24.48	169.28	4.65	-83.5	-79.0	2.4	0.00e+00	0	49	104	0	60	1048570
2026-01-17 07:06:26.49	169.42	4.50	-83.5	-79.0	2.4	0.00e+00	0	49	104	0	60	1048575
2026-01-17 07:06:28.51	169.56	4.35	-83.1	-79.0	2.5	0.00e+00	0	48	104	0	60	1048573
2026-01-17 07:06:30.53	169.70	4.21	-83.5	-79.0	2.3	0.00e+00	0	48	104	0	60	1048574
2026-01-17 07:06:32.54	169.83	4.06	-83.1	-79.0	2.2	0.00e+00	0	49	104	0	60	1048573
2026-01-17 07:06:34.55	169.97	3.91	-83.5	-79.0	2.4	0.00e+00	0	48	104	0	60	1048566
2026-01-17 07:06:36.56	170.10	3.77	-83.5	-79.0	2.4	0.00e+00	0	49	104	0	60	1048571
2026-01-17 07:06:38.58	170.23	3.62	-83.5	-79.0	2.4	0.00e+00	0	49	104	0	60	1048572
2026-01-17 07:06:40.59	170.36	3.48	-83.5	-79.0	2.4	0.00e+00	0	48	104	0	60	1048575
2026-01-17 07:06:42.61	170.49	3.34	-83.1	-79.0	2.2	0.00e+00	0	49	104	0	60	1048570
2026-01-17 07:06:44.63	170.62	3.20	-83.5	-79.0	2.2	0.00e+00	0	49	104	0	60	1048574
2026-01-17 07:06:46.64	170.75	3.06	-83.1	-79.0	2.1	0.00e+00	0	48	104	0	60	1048572
2026-01-17 07:06:48.65	170.87	2.92	-83.1	-79.0	2.4	0.00e+00	0	48	104	0	60	1048575
2026-01-17 07:06:50.67	170.99	2.78	-83.5	-79.0	2.5	0.00e+00	0	49	104	0	60	1048574
2026-01-17 07:06:52.68	171.12	2.64	-83.1	-79.0	2.2	0.00e+00	0	48	104	0	60	1048574
2026-01-17 07:06:54.69	171.24	2.50	-83.5	-79.0	2.2	0.00e+00	0	48	104	0	60	1048574
2026-01-17 07:06:56.70	171.35	2.37	-83.1	-79.0	2.0	0.00e+00	0	49	104	0	60	1048575
2026-01-17 07:06:58.72	171.47	2.23	-83.5	-79.0	2.0	0.00e+00	0	49	104	0	60	1048574
2026-01-17 07:07:00.73	171.59	2.09	-83.5	-79.0	2.0	0.00e+00	0	49	104	0	60	1048561
2026-01-17 07:07:02.75	171.70	1.96	-83.5	-79.0	2.2	0.00e+00	0	48	104	0	60	1048573
2026-01-17 07:07:04.75	171.82	1.83	-83.5	-79.0	2.1	0.00e+00	0	49	104	0	60	1048574
2026-01-17 07:07:06.76	171.93	1.69	-83.1	-79.0	2.2	0.00e+00	0	49	104	0	60	1048573
2026-01-17 07:07:08.78	172.04	1.56	-83.5	-79.0	2.1	0.00e+00	0	48	104	0	60	1048570
2026-01-17 07:07:10.79	172.15	1.43	-83.1	-79.0	2.2	0.00e+00	0	49	104	0	60	1048573
2026-01-17 07:07:12.80	172.26	1.30	-83.5	-79.0	2.2	0.00e+00	0	48	104	0	60	1048575
2026-01-17 07:07:14.82	172.37	1.17	-83.5	-79.0	2.2	0.00e+00	0	48	104	0	60	1048575
2026-01-17 07:07:16.83	172.48	1.04	-83.5	-79.0	2.3	0.00e+00	0	48	104	0	60	1048570
2026-01-17 07:07:18.84	172.58	0.91	-83.5	-79.0	2.3	0.00e+00	0	48	104	0	60	1048572
2026-01-17 07:07:20.85	172.69	0.79	-83.1	-79.0	2.0	0.00e+00	0	49	104	0	60	1048573
2026-01-17 07:07:22.87	172.79	0.66	-83.5	-79.0	2.1	0.00e+00	0	49	104	0	60	1048571
2026-01-17 07:07:24.88	172.89	0.53	-82.8	-79.0	1.9	0.00e+00	0	49	104	0	60	1048575
2026-01-17 07:07:26.89	172.99	0.41	-83.5	-79.0	2.4	0.00e+00	0	48	104	0	60	1048575
2026-01-17 07:07:28.90	173.09	0.28	-83.5	-79.0	2.3	0.00e+00	0	48	104	0	60	1048573
2026-01-17 07:07:30.92	173.19	0.16	-83.5	-79.0	2.3	0.00e+00	0	48	104	0	60	1048568
2026-01-17 07:07:32.94	173.29	0.03	-83.5	-79.0	2.3	0.00e+00	0	48	104	0	60	1048570

#Closed at: 2026-01-17 07:07:33
#Recorded file [0 MB]: D:/Data/35015_260117_095931.dat