passes_logs/2026/01/17/R3.2S-Naryan-Mar/R3.2S-Naryan-Mar__20260117_215129_FENGYUN_3D_rec.log

#Pass ID: 20260117_215129_FENGYUN 3D
#Satellite: FENGYUN 3D
#Configuration: FENGYUN 3D
#almurnet v.1.7.20240730
#Start time: 2026-01-17 21:53:34

#Version: 2.2.20231116
#Station: R3.2S-Naryan-Mar
#Location: 53.008057 lon 67.646978 lat
#TLE: 1 43010U 17072A   26017.25882587  .00000461  00000+0  23963-3 0  9992
#TLE: 2 43010  98.9934 349.1096 0002357 104.0487 256.0951 14.19697152423579

#Time	Az	El	Level	Level2	SNR	BER	BlckErr	Temp	State	Recorded	gain1	gain2
2026-01-17 21:53:34.17	30.40	4.94	-84.3	-88.8	2.3	3.12e+01	0	46	0	0	60	1048574
2026-01-17 21:53:37.19	30.79	5.05	-82.8	-88.6	5.5	2.77e-01	0	47	0	0	60	1048574
2026-01-17 21:53:40.20	31.18	5.17	-85.2	-88.6	6.1	2.74e-01	0	47	0	0	60	1048575
2026-01-17 21:53:43.23	31.58	5.28	-85.2	-88.6	6.0	2.74e-01	0	47	0	0	60	1048571
2026-01-17 21:53:46.25	31.97	5.39	-82.8	-88.6	6.1	2.74e-01	0	47	0	0	60	1048575
2026-01-17 21:53:49.27	32.37	5.50	-85.2	-88.6	6.1	2.81e-01	0	47	0	0	60	1048575
2026-01-17 21:53:52.30	32.77	5.61	-85.2	-88.6	6.2	2.77e-01	0	47	0	0	60	1048573
2026-01-17 21:53:55.32	33.18	5.72	-82.8	-88.6	6.2	2.79e-01	0	47	0	0	60	1048574
2026-01-17 21:53:58.34	33.59	5.83	-82.8	-88.6	5.7	2.79e-01	0	47	0	0	60	1048574
2026-01-17 21:54:01.36	34.00	5.94	-85.2	-88.6	5.4	2.78e-01	0	47	0	0	60	1048573
2026-01-17 21:54:04.38	34.41	6.04	-85.2	-88.6	6.2	2.75e-01	0	47	0	0	60	1048572
2026-01-17 21:54:07.41	34.83	6.15	-84.7	-88.6	6.1	2.76e-01	0	47	0	0	60	1048572
2026-01-17 21:54:10.43	35.25	6.25	-85.2	-88.6	6.0	2.76e-01	0	47	0	0	60	1048573
2026-01-17 21:54:13.45	35.67	6.36	-82.8	-88.6	6.1	2.72e-01	0	47	0	0	60	1048572
2026-01-17 21:54:16.47	36.09	6.46	-85.2	-88.6	6.4	2.76e-01	0	47	0	0	60	1048570
2026-01-17 21:54:19.48	36.52	6.56	-82.8	-88.6	3.3	7.64e-01	0	47	104	0	60	1048574
2026-01-17 21:54:22.50	36.95	6.67	-84.7	-88.6	2.7	7.63e-01	0	47	104	0	60	1048568
2026-01-17 21:54:25.52	37.39	6.77	-84.7	-88.6	3.0	7.64e-01	0	47	104	0	60	1048573
2026-01-17 21:54:28.54	37.82	6.87	-83.1	-88.6	2.8	7.63e-01	0	47	104	0	60	1048575
2026-01-17 21:54:31.56	38.26	6.97	-85.2	-88.6	3.1	7.65e-01	0	47	104	0	60	1048575
2026-01-17 21:54:34.58	38.71	7.06	-85.2	-88.6	3.6	7.64e-01	0	47	104	0	60	1048567
2026-01-17 21:54:37.59	39.15	7.16	-83.1	-88.6	3.2	7.62e-01	0	47	104	0	60	1048572
2026-01-17 21:54:40.61	39.60	7.26	-85.2	-88.6	3.0	7.64e-01	0	47	104	0	60	1048574
2026-01-17 21:54:43.64	40.05	7.35	-85.2	-88.6	3.7	7.64e-01	0	47	104	0	60	1048575
2026-01-17 21:54:46.66	40.50	7.44	-84.7	-88.6	3.7	7.63e-01	0	47	104	0	60	1048574
2026-01-17 21:54:49.67	40.96	7.54	-85.2	-88.6	3.1	7.64e-01	0	47	104	0	60	1048571
2026-01-17 21:54:52.69	41.42	7.63	-85.2	-88.6	3.1	7.63e-01	0	47	104	0	60	1048575
2026-01-17 21:54:55.70	41.88	7.72	-83.1	-88.6	3.1	7.64e-01	0	47	104	0	60	1048575
2026-01-17 21:54:58.73	42.35	7.80	-83.1	-88.6	2.7	7.64e-01	0	47	104	0	60	1048573
2026-01-17 21:55:01.75	42.82	7.89	-85.2	-88.6	3.3	7.63e-01	0	47	104	0	60	1048573
2026-01-17 21:55:04.77	43.29	7.98	-82.8	-88.6	3.7	7.64e-01	0	47	104	0	60	1048575
2026-01-17 21:55:07.78	43.76	8.06	-85.2	-88.6	3.1	7.63e-01	0	47	104	0	60	1048570
2026-01-17 21:55:10.79	44.23	8.14	-85.2	-88.6	3.6	7.65e-01	0	47	104	0	60	1048575
2026-01-17 21:55:13.81	44.71	8.23	-83.1	-88.6	3.0	7.64e-01	0	47	104	0	60	1048575
2026-01-17 21:55:16.83	45.19	8.31	-85.2	-88.6	2.8	7.64e-01	0	47	104	0	60	1048574
2026-01-17 21:55:19.85	45.67	8.39	-82.5	-88.6	3.3	7.63e-01	0	47	104	0	60	1048575
2026-01-17 21:55:22.86	46.16	8.46	-85.2	-88.6	3.6	7.64e-01	0	47	104	0	60	1048564
2026-01-17 21:55:25.88	46.65	8.54	-85.2	-88.6	3.0	7.64e-01	0	47	104	0	60	1048575
2026-01-17 21:55:28.89	47.14	8.61	-82.8	-88.6	3.6	7.63e-01	0	47	104	0	60	1048572
2026-01-17 21:55:31.91	47.63	8.68	-84.7	-88.6	3.7	7.64e-01	0	47	104	0	60	1048575
2026-01-17 21:55:34.94	48.13	8.76	-85.2	-88.6	2.9	7.63e-01	0	47	104	0	60	1048575
2026-01-17 21:55:37.96	48.63	8.83	-85.2	-88.6	3.0	7.64e-01	0	47	104	0	60	1048574
2026-01-17 21:55:40.98	49.13	8.89	-85.2	-88.6	3.2	7.64e-01	0	47	104	0	60	1048575
2026-01-17 21:55:44.00	49.63	8.96	-83.1	-88.6	2.9	7.63e-01	0	47	104	0	60	1048575
2026-01-17 21:55:47.01	50.13	9.02	-82.8	-88.6	3.7	7.64e-01	0	47	104	0	60	1048574
2026-01-17 21:55:50.04	50.64	9.09	-85.2	-88.6	3.7	7.63e-01	0	47	104	0	60	1048575
2026-01-17 21:55:53.06	51.15	9.15	-83.5	-88.6	3.0	7.63e-01	0	47	104	0	60	1048575
2026-01-17 21:55:56.08	51.66	9.20	-84.7	-88.6	3.0	7.63e-01	0	47	104	0	60	1048566
2026-01-17 21:55:59.09	52.17	9.26	-85.2	-88.6	3.3	7.64e-01	0	47	104	0	60	1048575
2026-01-17 21:56:02.11	52.69	9.32	-84.7	-88.6	3.3	7.63e-01	0	47	104	0	60	1048575
2026-01-17 21:56:05.12	53.20	9.37	-82.5	-88.6	3.3	7.63e-01	0	47	104	0	60	1048574
2026-01-17 21:56:08.14	53.72	9.42	-85.2	-88.6	2.8	7.63e-01	0	47	104	0	60	1048573
2026-01-17 21:56:11.16	54.24	9.47	-85.2	-88.6	3.3	7.62e-01	0	47	104	0	60	1048571
2026-01-17 21:56:14.18	54.77	9.52	-85.2	-88.6	3.1	7.64e-01	0	47	104	0	60	1048574
2026-01-17 21:56:17.20	55.29	9.56	-85.2	-88.6	3.3	7.64e-01	0	47	104	0	60	1048575
2026-01-17 21:56:20.21	55.81	9.61	-84.7	-88.6	2.8	7.64e-01	0	47	104	0	60	1048568
2026-01-17 21:56:23.23	56.34	9.65	-83.1	-88.6	3.1	7.63e-01	0	47	104	0	60	1048572
2026-01-17 21:56:26.25	56.87	9.69	-85.2	-88.6	2.7	7.65e-01	0	47	104	0	60	1048575
2026-01-17 21:56:29.26	57.40	9.73	-85.2	-88.6	3.7	7.64e-01	0	47	104	0	60	1048564
2026-01-17 21:56:32.28	57.93	9.76	-85.2	-88.6	2.8	7.59e-01	0	47	104	0	60	1048574
2026-01-17 21:56:35.29	58.46	9.79	-82.0	-88.6	3.5	7.64e-01	0	47	104	0	60	1048569
2026-01-17 21:56:38.32	58.99	9.82	-85.2	-88.6	2.9	7.63e-01	0	47	104	0	60	1048574
2026-01-17 21:56:41.34	59.53	9.85	-85.2	-88.6	3.2	7.64e-01	0	47	104	0	60	1048568
2026-01-17 21:56:44.36	60.06	9.88	-83.1	-88.6	3.1	7.63e-01	0	47	104	0	60	1048575
2026-01-17 21:56:47.37	60.60	9.90	-85.2	-88.6	3.6	7.62e-01	0	47	104	0	60	1048575
2026-01-17 21:56:50.39	61.14	9.93	-84.7	-88.6	3.1	7.63e-01	0	47	104	0	60	1048575
2026-01-17 21:56:53.41	61.68	9.95	-83.1	-88.6	3.4	7.64e-01	0	47	104	0	60	1048574
2026-01-17 21:56:56.44	62.22	9.97	-84.7	-88.6	3.3	7.65e-01	0	47	104	0	60	1048575
2026-01-17 21:56:59.46	62.76	9.98	-84.7	-88.6	3.0	7.63e-01	0	47	104	0	60	1048575
2026-01-17 21:57:02.48	63.30	10.00	-85.2	-88.6	3.2	7.64e-01	0	47	104	0	60	1048574
2026-01-17 21:57:05.48	63.83	10.01	-84.3	-88.6	3.1	7.64e-01	0	47	104	0	60	1048575
2026-01-17 21:57:08.50	64.37	10.02	-84.7	-88.6	3.1	7.63e-01	0	47	104	0	60	1048575
2026-01-17 21:57:11.53	64.92	10.02	-85.2	-88.6	3.3	7.64e-01	0	47	104	0	60	1048575
2026-01-17 21:57:14.56	65.46	10.03	-85.2	-88.6	3.0	7.62e-01	0	47	104	0	60	1048570
2026-01-17 21:57:17.58	66.00	10.03	-85.2	-88.6	3.0	7.63e-01	0	47	104	0	60	1048574
2026-01-17 21:57:20.60	66.54	10.03	-85.2	-88.6	2.4	7.64e-01	0	47	104	0	60	1048569
2026-01-17 21:57:23.61	67.08	10.03	-84.7	-88.6	3.7	7.65e-01	0	47	104	0	60	1048570
2026-01-17 21:57:26.64	67.63	10.02	-85.2	-88.6	3.2	7.63e-01	0	47	104	0	60	1048574
2026-01-17 21:57:29.67	68.17	10.02	-85.2	-88.6	3.1	7.64e-01	0	47	104	0	60	1048574
2026-01-17 21:57:32.69	68.71	10.01	-84.7	-88.6	2.8	7.63e-01	0	47	104	0	60	1048573
2026-01-17 21:57:35.71	69.25	10.00	-85.2	-88.6	3.1	7.63e-01	0	47	104	0	60	1048575
2026-01-17 21:57:38.73	69.79	9.99	-85.2	-88.6	3.1	7.63e-01	0	47	104	0	60	1048573
2026-01-17 21:57:41.76	70.33	9.97	-82.5	-88.6	3.4	7.62e-01	0	47	104	0	60	1048575
2026-01-17 21:57:44.77	70.87	9.95	-85.2	-88.6	3.4	7.64e-01	0	47	104	0	60	1048575
2026-01-17 21:57:47.80	71.41	9.93	-85.2	-88.6	3.4	7.62e-01	0	47	104	0	60	1048570
2026-01-17 21:57:50.81	71.95	9.91	-85.2	-88.6	3.4	7.63e-01	0	47	104	0	60	1048574
2026-01-17 21:57:53.84	72.49	9.89	-83.5	-88.6	3.5	7.62e-01	0	47	104	0	60	1048575
2026-01-17 21:57:56.86	73.02	9.86	-85.2	-88.6	2.9	7.63e-01	0	47	104	0	60	1048575
2026-01-17 21:57:59.88	73.56	9.83	-85.2	-88.6	2.7	7.64e-01	0	47	104	0	60	1048567
2026-01-17 21:58:02.90	74.09	9.80	-83.1	-88.6	3.1	7.63e-01	0	47	104	0	60	1048575
2026-01-17 21:58:05.92	74.63	9.77	-85.2	-88.6	3.2	7.64e-01	0	47	104	0	60	1048571
2026-01-17 21:58:08.94	75.16	9.73	-85.2	-88.6	3.3	7.64e-01	0	47	104	0	60	1048574
2026-01-17 21:58:11.95	75.69	9.70	-85.2	-88.6	3.5	7.64e-01	0	47	104	0	60	1048572
2026-01-17 21:58:14.97	76.22	9.66	-82.2	-88.6	2.8	7.63e-01	0	47	104	0	60	1048574
2026-01-17 21:58:17.99	76.75	9.62	-85.2	-88.6	3.6	7.64e-01	0	47	104	0	60	1048575
2026-01-17 21:58:21.01	77.27	9.57	-85.2	-88.6	3.2	7.65e-01	0	47	104	0	60	1048575
2026-01-17 21:58:24.03	77.80	9.53	-84.7	-88.6	2.9	7.63e-01	0	47	104	0	60	1048571
2026-01-17 21:58:27.05	78.32	9.48	-85.2	-88.6	3.5	7.63e-01	0	47	104	0	60	1048572
2026-01-17 21:58:30.07	78.85	9.43	-82.2	-88.6	3.5	7.64e-01	0	47	104	0	60	1048575
2026-01-17 21:58:33.10	79.37	9.38	-83.1	-88.6	3.4	7.64e-01	0	47	104	0	60	1048573
2026-01-17 21:58:36.12	79.89	9.33	-85.2	-88.6	3.1	7.62e-01	0	47	104	0	60	1048574
2026-01-17 21:58:39.14	80.40	9.27	-82.8	-88.6	3.3	7.62e-01	0	47	104	0	60	1048575
2026-01-17 21:58:42.15	80.92	9.22	-85.2	-88.6	3.4	7.62e-01	0	47	104	0	60	1048561
2026-01-17 21:58:45.17	81.43	9.16	-82.5	-88.6	3.2	7.64e-01	0	47	104	0	60	1048575
2026-01-17 21:58:48.19	81.94	9.10	-84.7	-88.6	3.4	7.62e-01	0	47	104	0	60	1048575
2026-01-17 21:58:51.21	82.45	9.04	-85.2	-88.6	3.0	7.63e-01	0	47	104	0	60	1048575
2026-01-17 21:58:54.24	82.96	8.97	-85.2	-88.6	3.8	7.64e-01	0	47	104	0	60	1048574
2026-01-17 21:58:57.26	83.46	8.91	-85.2	-88.6	3.1	7.64e-01	0	47	104	0	60	1048573
2026-01-17 21:59:00.27	83.96	8.84	-85.2	-88.6	3.0	7.64e-01	0	47	104	0	60	1048575
2026-01-17 21:59:03.28	84.46	8.77	-85.2	-88.6	3.3	7.64e-01	0	47	104	0	60	1048575
2026-01-17 21:59:06.29	84.96	8.70	-85.2	-88.6	3.0	7.64e-01	0	47	104	0	60	1048574
2026-01-17 21:59:09.31	85.45	8.63	-85.2	-88.6	3.3	7.63e-01	0	47	104	0	60	1048572
2026-01-17 21:59:12.33	85.95	8.55	-85.2	-88.6	3.2	7.65e-01	0	47	104	0	60	1048570
2026-01-17 21:59:15.36	86.44	8.48	-85.2	-88.6	2.9	7.64e-01	0	47	104	0	60	1048568
2026-01-17 21:59:18.38	86.93	8.40	-83.1	-88.6	3.3	7.62e-01	0	47	104	0	60	1048573
2026-01-17 21:59:21.40	87.41	8.32	-85.2	-88.6	3.2	7.64e-01	0	47	104	0	60	1048575
2026-01-17 21:59:24.42	87.90	8.24	-83.5	-88.6	3.4	7.63e-01	0	47	104	0	60	1048574
2026-01-17 21:59:27.44	88.38	8.16	-83.9	-88.6	3.0	7.64e-01	0	47	104	0	60	1048573
2026-01-17 21:59:30.46	88.86	8.08	-84.7	-88.6	3.1	7.64e-01	0	47	104	0	60	1048574
2026-01-17 21:59:33.47	89.33	7.99	-85.2	-88.6	3.5	7.64e-01	0	47	104	0	60	1048575
2026-01-17 21:59:36.49	89.80	7.90	-85.2	-88.6	3.2	7.63e-01	0	47	104	0	60	1048574
2026-01-17 21:59:39.52	90.27	7.82	-85.2	-88.6	3.0	7.61e-01	0	47	104	0	60	1048574
2026-01-17 21:59:42.54	90.74	7.73	-85.2	-88.6	3.0	7.64e-01	0	47	104	0	60	1048572
2026-01-17 21:59:45.57	91.21	7.64	-82.5	-88.6	2.9	7.62e-01	0	47	104	0	60	1048570
2026-01-17 21:59:48.59	91.67	7.55	-85.2	-88.6	3.1	7.64e-01	0	47	104	0	60	1048575
2026-01-17 21:59:51.61	92.13	7.45	-85.2	-88.6	3.5	7.64e-01	0	47	104	0	60	1048575
2026-01-17 21:59:54.63	92.58	7.36	-82.2	-88.6	3.6	7.63e-01	0	47	104	0	60	1048575
2026-01-17 21:59:57.66	93.04	7.27	-83.5	-88.6	3.1	7.64e-01	0	47	104	0	60	1048575
2026-01-17 22:00:00.68	93.49	7.17	-85.2	-88.6	3.2	7.64e-01	0	47	104	0	60	1048575
2026-01-17 22:00:03.70	93.94	7.07	-83.1	-88.6	3.3	7.64e-01	0	47	104	0	60	1048574
2026-01-17 22:00:06.72	94.38	6.97	-85.2	-88.6	2.9	7.63e-01	0	47	104	0	60	1048574
2026-01-17 22:00:09.73	94.82	6.88	-82.8	-88.6	3.2	7.64e-01	0	47	104	0	60	1048575
2026-01-17 22:00:12.75	95.26	6.77	-85.2	-88.6	3.6	7.65e-01	0	47	104	0	60	1048555
2026-01-17 22:00:15.78	95.70	6.67	-85.2	-88.6	3.4	7.64e-01	0	47	104	0	60	1048574
2026-01-17 22:00:18.79	96.13	6.57	-85.2	-88.6	2.5	7.64e-01	0	47	104	0	60	1048573
2026-01-17 22:00:21.81	96.56	6.47	-85.2	-88.6	2.9	7.63e-01	0	47	104	0	60	1048575
2026-01-17 22:00:24.82	96.99	6.36	-83.9	-88.6	3.1	7.64e-01	0	47	104	0	60	1048575
2026-01-17 22:00:27.84	97.41	6.26	-85.2	-88.6	3.1	7.62e-01	0	47	104	0	60	1048575
2026-01-17 22:00:30.86	97.83	6.15	-83.1	-88.6	3.0	7.64e-01	0	47	104	0	60	1048574
2026-01-17 22:00:33.89	98.25	6.05	-85.2	-88.6	3.4	7.64e-01	0	47	104	0	60	1048575
2026-01-17 22:00:36.90	98.67	5.94	-85.2	-88.6	3.8	7.63e-01	0	47	104	0	60	1048575
2026-01-17 22:00:39.92	99.08	5.83	-82.5	-88.6	3.4	7.65e-01	0	47	104	0	60	1048575
2026-01-17 22:00:42.93	99.49	5.72	-83.9	-88.6	2.9	7.63e-01	0	47	104	0	60	1048575
2026-01-17 22:00:45.96	99.90	5.61	-82.8	-88.6	2.9	7.63e-01	0	47	104	0	60	1048575
2026-01-17 22:00:48.97	100.30	5.50	-85.2	-88.6	3.4	7.64e-01	0	47	104	0	60	1048575
2026-01-17 22:00:52.00	100.70	5.39	-85.2	-88.6	2.9	7.63e-01	0	47	104	0	60	1048573
2026-01-17 22:00:55.02	101.10	5.28	-82.5	-88.6	3.5	7.63e-01	0	47	104	0	60	1048574
2026-01-17 22:00:58.04	101.49	5.16	-85.2	-88.6	3.6	7.63e-01	0	47	104	0	60	1048571
2026-01-17 22:01:01.06	101.89	5.05	-84.7	-88.6	3.2	7.63e-01	0	47	104	0	60	1048573
2026-01-17 22:01:04.09	102.28	4.94	-85.2	-88.6	3.5	7.64e-01	0	47	104	0	60	1048574
2026-01-17 22:01:07.11	102.66	4.82	-84.7	-88.6	3.1	7.63e-01	0	47	104	0	60	1048575
2026-01-17 22:01:10.12	103.05	4.71	-82.5	-88.6	3.1	7.63e-01	0	47	104	0	60	1048575
2026-01-17 22:01:13.14	103.43	4.59	-85.2	-88.6	3.0	7.64e-01	0	47	104	0	60	1048574
2026-01-17 22:01:16.16	103.80	4.48	-83.1	-88.6	3.0	7.63e-01	0	47	104	0	60	1048571
2026-01-17 22:01:19.18	104.18	4.36	-85.2	-88.6	2.9	7.64e-01	0	47	104	0	60	1048575
2026-01-17 22:01:22.20	104.55	4.24	-85.2	-88.6	3.1	7.63e-01	0	47	104	0	60	1048575
2026-01-17 22:01:25.22	104.92	4.12	-85.2	-88.6	3.0	7.64e-01	0	47	104	0	60	1048575
2026-01-17 22:01:28.23	105.29	4.01	-85.2	-88.6	3.1	7.60e-01	0	47	104	0	60	1048575
2026-01-17 22:01:31.24	105.65	3.89	-85.2	-88.6	3.1	7.63e-01	0	47	104	0	60	1048572
2026-01-17 22:01:34.26	106.01	3.77	-83.1	-88.6	2.9	7.63e-01	0	47	104	0	60	1048573
2026-01-17 22:01:37.29	106.37	3.65	-85.2	-88.6	3.0	7.62e-01	0	47	104	0	60	1048570
2026-01-17 22:01:40.31	106.72	3.53	-84.7	-88.6	3.1	7.64e-01	0	47	104	0	60	1048566
2026-01-17 22:01:43.33	107.07	3.41	-85.2	-88.6	3.4	7.64e-01	0	47	104	0	60	1048573
2026-01-17 22:01:46.35	107.42	3.29	-85.2	-88.6	2.9	7.64e-01	0	47	104	0	60	1048574
2026-01-17 22:01:49.35	107.77	3.17	-83.1	-88.6	3.2	7.64e-01	0	47	104	0	60	1048567
2026-01-17 22:01:52.37	108.11	3.05	-85.2	-88.6	2.9	7.64e-01	0	47	104	0	60	1048574
2026-01-17 22:01:55.39	108.45	2.93	-85.2	-88.6	3.1	7.61e-01	0	47	104	0	60	1048573
2026-01-17 22:01:58.41	108.79	2.81	-84.7	-88.6	3.4	7.63e-01	0	47	104	0	60	1048573
2026-01-17 22:02:01.43	109.13	2.69	-82.8	-88.6	3.4	7.65e-01	0	47	104	0	60	1048575
2026-01-17 22:02:04.44	109.46	2.56	-85.2	-88.6	3.6	7.64e-01	0	47	104	0	60	1048568
2026-01-17 22:02:07.45	109.79	2.44	-85.2	-88.6	3.4	7.62e-01	0	47	104	0	60	1048575
2026-01-17 22:02:10.47	110.12	2.32	-83.1	-88.6	3.1	7.64e-01	0	47	104	0	60	1048575
2026-01-17 22:02:13.49	110.45	2.20	-84.7	-88.6	3.7	7.65e-01	0	47	104	0	60	1048575
2026-01-17 22:02:16.51	110.77	2.07	-85.2	-88.6	2.9	7.63e-01	0	47	104	0	60	1048573
2026-01-17 22:02:19.53	111.09	1.95	-83.1	-88.6	3.0	7.63e-01	0	47	104	0	60	1048574
2026-01-17 22:02:22.55	111.41	1.83	-83.1	-88.6	3.6	7.63e-01	0	47	104	0	60	1048575
2026-01-17 22:02:25.57	111.72	1.71	-85.2	-88.6	3.7	7.64e-01	0	47	104	0	60	1048573
2026-01-17 22:02:28.59	112.04	1.58	-84.7	-88.6	3.0	7.64e-01	0	47	104	0	60	1048574
2026-01-17 22:02:31.60	112.34	1.46	-85.2	-88.6	3.2	7.64e-01	0	47	104	0	60	1048575
2026-01-17 22:02:34.62	112.65	1.34	-85.2	-88.6	3.5	7.63e-01	0	47	104	0	60	1048568
2026-01-17 22:02:37.63	112.96	1.21	-85.2	-88.6	3.0	7.63e-01	0	47	104	0	60	1048575
2026-01-17 22:02:40.65	113.26	1.09	-85.2	-88.6	2.9	7.63e-01	0	47	104	0	60	1048573
2026-01-17 22:02:43.67	113.56	0.96	-85.2	-88.6	3.8	7.63e-01	0	47	104	0	60	1048575
2026-01-17 22:02:46.69	113.86	0.84	-83.1	-88.6	3.2	7.64e-01	0	47	104	0	60	1048572
2026-01-17 22:02:49.72	114.16	0.72	-85.2	-88.6	3.6	7.63e-01	0	47	104	0	60	1048575
2026-01-17 22:02:52.73	114.45	0.59	-85.2	-88.6	3.3	7.63e-01	0	47	104	0	60	1048570
2026-01-17 22:02:55.75	114.74	0.47	-84.7	-88.6	2.9	7.64e-01	0	47	104	0	60	1048573
2026-01-17 22:02:58.76	115.03	0.34	-85.2	-88.6	3.6	7.63e-01	0	47	104	0	60	1048572
2026-01-17 22:03:01.77	115.32	0.22	-85.2	-88.6	3.0	7.64e-01	0	47	104	0	60	1048572
2026-01-17 22:03:04.79	115.60	0.09	-85.2	-88.6	2.8	7.64e-01	0	47	104	0	60	1048575
2026-01-17 22:03:07.80	115.88	-0.03	-85.2	-88.6	2.7	7.63e-01	0	47	104	0	60	1048573

#Closed at: 2026-01-17 22:03:09
#Recorded file [0 MB]: D:/Data/35015_260118_005334.dat