passes_logs/2026/01/17/R3.2S-Naryan-Mar/R3.2S-Naryan-Mar__20260117_161451_TY-42_rec.log

#Pass ID: 20260117_161451_TY-42
#Satellite: TY-42
#Configuration: TY-42
#almurnet v.1.7.20240730
#Start time: 2026-01-17 16:14:53

#Version: 2.2.20231116
#Station: R3.2S-Naryan-Mar
#Location: 53.008057 lon 67.646978 lat
#TLE: 1 64048U 25103A   26017.21478009  .00008006  00000-0  38191-3 0 09999
#TLE: 2 64048 097.4122 092.5907 0001889 091.4381 313.8037 15.19150120 37159

#Time	Az	El	Level	Level2	SNR	BER	BlckErr	Temp	State	Recorded	gain1	gain2
2026-01-17 16:14:53.42	123.44	0.13	-83.5	-79.0	2.3	0.00e+00	0	45	0	0	60	1048573
2026-01-17 16:14:56.44	123.29	0.31	-83.5	-79.0	2.4	0.00e+00	0	47	104	0	60	1048575
2026-01-17 16:14:59.46	123.15	0.50	-83.5	-79.0	2.4	0.00e+00	0	47	104	0	60	1048575
2026-01-17 16:15:02.49	123.00	0.69	-83.1	-79.0	2.4	0.00e+00	0	47	104	0	60	1048569
2026-01-17 16:15:05.51	122.85	0.88	-83.5	-79.0	2.4	0.00e+00	0	47	104	0	60	1048575
2026-01-17 16:15:08.53	122.69	1.08	-83.5	-79.0	2.4	0.00e+00	0	47	104	0	60	1048575
2026-01-17 16:15:11.55	122.54	1.27	-83.1	-79.0	2.5	0.00e+00	0	47	104	0	60	1048575
2026-01-17 16:15:14.57	122.38	1.47	-83.5	-79.0	2.5	0.00e+00	0	47	104	0	60	1048575
2026-01-17 16:15:17.60	122.21	1.67	-83.5	-79.0	2.4	0.00e+00	0	47	104	0	60	1048575
2026-01-17 16:15:20.62	122.05	1.87	-83.1	-79.0	2.4	0.00e+00	0	47	104	0	60	1048571
2026-01-17 16:15:23.64	121.88	2.07	-83.5	-79.0	2.5	0.00e+00	0	47	104	0	60	1048574
2026-01-17 16:15:26.66	121.71	2.27	-83.1	-79.0	2.3	0.00e+00	0	47	104	0	60	1048572
2026-01-17 16:15:29.69	121.53	2.47	-83.1	-79.0	2.5	0.00e+00	0	47	104	0	60	1048574
2026-01-17 16:15:32.71	121.35	2.68	-83.1	-79.0	2.4	0.00e+00	0	47	104	0	60	1048571
2026-01-17 16:15:35.73	121.17	2.89	-83.1	-79.0	2.3	0.00e+00	0	48	104	0	60	1048575
2026-01-17 16:15:38.75	120.99	3.10	-83.1	-79.0	2.4	0.00e+00	0	47	104	0	60	1048552
2026-01-17 16:15:41.77	120.80	3.31	-83.5	-79.0	2.4	0.00e+00	0	48	104	0	60	1048575
2026-01-17 16:15:44.79	120.61	3.52	-83.1	-79.0	2.5	0.00e+00	0	48	104	0	60	1048570
2026-01-17 16:15:47.82	120.41	3.74	-83.5	-79.0	2.6	0.00e+00	0	48	104	0	60	1048573
2026-01-17 16:15:50.84	120.21	3.96	-83.5	-79.0	2.5	0.00e+00	0	48	104	0	60	1048573
2026-01-17 16:15:53.86	120.00	4.17	-82.8	-79.0	2.4	0.00e+00	0	48	104	0	60	1048569
2026-01-17 16:15:56.88	119.80	4.40	-83.5	-79.0	2.4	0.00e+00	0	48	104	0	60	1048555
2026-01-17 16:15:59.90	119.58	4.62	-83.5	-79.0	2.4	0.00e+00	0	48	104	0	60	1048574
2026-01-17 16:16:02.92	119.37	4.85	-83.1	-79.0	2.5	0.00e+00	0	48	104	0	60	1048564
2026-01-17 16:16:05.95	119.15	5.07	-83.5	-79.0	2.5	0.00e+00	0	48	104	0	60	1048573
2026-01-17 16:16:08.97	118.92	5.30	-82.8	-79.0	2.4	0.00e+00	0	48	104	0	60	1048575
2026-01-17 16:16:11.99	118.69	5.54	-83.5	-79.0	2.4	0.00e+00	0	48	104	0	60	1048574
2026-01-17 16:16:15.00	118.46	5.77	-83.5	-79.0	2.3	0.00e+00	0	48	104	0	60	1048570
2026-01-17 16:16:18.02	118.22	6.01	-82.8	-79.0	2.3	0.00e+00	0	48	104	0	60	1048574
2026-01-17 16:16:21.04	117.97	6.25	-83.5	-79.0	2.4	0.00e+00	0	48	104	0	60	1048574
2026-01-17 16:16:24.06	117.72	6.49	-83.5	-79.0	2.5	0.00e+00	0	48	104	0	60	1048573
2026-01-17 16:16:27.09	117.46	6.74	-83.1	-79.0	2.4	0.00e+00	0	48	104	0	60	1048573
2026-01-17 16:16:30.10	117.20	6.98	-83.5	-79.0	2.4	0.00e+00	0	48	104	0	60	1048575
2026-01-17 16:16:33.12	116.93	7.23	-83.5	-79.0	2.4	0.00e+00	0	48	104	0	60	1048569
2026-01-17 16:16:36.14	116.66	7.49	-83.1	-79.0	2.4	0.00e+00	0	48	104	0	60	1048572
2026-01-17 16:16:39.17	116.38	7.74	-83.5	-79.0	2.4	0.00e+00	0	48	104	0	60	1048575
2026-01-17 16:16:42.19	116.09	8.00	-82.8	-79.0	2.4	0.00e+00	0	48	104	0	60	1048573
2026-01-17 16:16:45.21	115.80	8.26	-83.5	-79.0	2.4	0.00e+00	0	48	104	0	60	1048574
2026-01-17 16:16:48.22	115.50	8.53	-83.5	-79.0	2.2	0.00e+00	0	48	104	0	60	1048573
2026-01-17 16:16:51.23	115.20	8.79	-83.1	-79.0	2.4	0.00e+00	0	48	104	0	60	1048574
2026-01-17 16:16:54.25	114.88	9.06	-83.5	-79.0	2.3	0.00e+00	0	48	104	0	60	1048569
2026-01-17 16:16:57.28	114.56	9.34	-83.5	-79.0	2.5	0.00e+00	0	48	104	0	60	1048574
2026-01-17 16:17:00.30	114.23	9.62	-83.1	-79.0	2.4	0.00e+00	0	48	104	0	60	1048573
2026-01-17 16:17:03.31	113.90	9.90	-83.5	-79.0	2.4	0.00e+00	0	48	104	0	60	1048574
2026-01-17 16:17:06.33	113.55	10.18	-83.1	-79.0	2.4	0.00e+00	0	48	104	0	60	1048575
2026-01-17 16:17:09.36	113.20	10.47	-83.5	-79.0	2.4	0.00e+00	0	48	104	0	60	1048574
2026-01-17 16:17:12.38	112.83	10.76	-83.5	-79.0	2.5	0.00e+00	0	48	104	0	60	1048574
2026-01-17 16:17:15.40	112.46	11.05	-82.8	-79.0	2.5	0.00e+00	0	48	104	0	60	1048571
2026-01-17 16:17:18.42	112.08	11.35	-83.5	-79.0	2.4	0.00e+00	0	48	104	0	60	1048571
2026-01-17 16:17:21.43	111.69	11.65	-83.5	-79.0	2.3	0.00e+00	0	48	104	0	60	1048573
2026-01-17 16:17:24.45	111.29	11.96	-83.1	-79.0	2.4	0.00e+00	0	48	104	0	60	1048567
2026-01-17 16:17:27.47	110.88	12.27	-83.5	-79.0	2.4	0.00e+00	0	48	104	0	60	1048575
2026-01-17 16:17:30.48	110.46	12.58	-83.1	-79.0	2.4	0.00e+00	0	48	104	0	60	1048571
2026-01-17 16:17:33.51	110.02	12.90	-83.1	-79.0	2.4	0.00e+00	0	48	104	0	60	1048575
2026-01-17 16:17:36.53	109.58	13.22	-83.5	-79.0	2.6	0.00e+00	0	48	104	0	60	1048567
2026-01-17 16:17:39.56	109.12	13.55	-83.1	-79.0	2.4	0.00e+00	0	48	104	0	60	1048561
2026-01-17 16:17:42.57	108.65	13.88	-83.5	-79.0	2.4	0.00e+00	0	49	104	0	60	1048573
2026-01-17 16:17:45.59	108.17	14.21	-83.5	-79.0	2.5	0.00e+00	0	48	104	0	60	1048573
2026-01-17 16:17:48.61	107.67	14.55	-83.1	-79.0	2.4	0.00e+00	0	48	104	0	60	1048575
2026-01-17 16:17:51.63	107.16	14.89	-83.5	-79.0	2.4	0.00e+00	0	48	104	0	60	1048570
2026-01-17 16:17:54.64	106.64	15.24	-83.5	-79.0	2.3	0.00e+00	0	48	104	0	60	1048575
2026-01-17 16:17:57.66	106.10	15.59	-82.8	-79.0	2.5	0.00e+00	0	48	104	0	60	1048565
2026-01-17 16:18:00.68	105.55	15.94	-83.5	-79.0	2.4	0.00e+00	0	48	104	0	60	1048575
2026-01-17 16:18:03.70	104.98	16.30	-83.5	-79.0	2.4	0.00e+00	0	48	104	0	60	1048572
2026-01-17 16:18:06.72	104.39	16.67	-83.5	-79.0	2.4	0.00e+00	0	48	104	0	60	1048568
2026-01-17 16:18:09.74	103.79	17.03	-83.5	-79.0	2.4	0.00e+00	0	48	104	0	60	1048573
2026-01-17 16:18:12.76	103.17	17.40	-83.1	-79.0	2.4	0.00e+00	0	49	104	0	60	1048571
2026-01-17 16:18:15.78	102.53	17.78	-83.5	-79.0	2.5	0.00e+00	0	48	104	0	60	1048572
2026-01-17 16:18:18.79	101.87	18.16	-83.5	-79.0	2.4	0.00e+00	0	48	104	0	60	1048560
2026-01-17 16:18:21.81	101.20	18.54	-82.8	-79.0	2.4	0.00e+00	0	49	104	0	60	1048575
2026-01-17 16:18:24.83	100.50	18.93	-83.5	-79.0	2.3	0.00e+00	0	49	104	0	60	1048570
2026-01-17 16:18:27.84	99.78	19.32	-83.5	-79.0	2.4	0.00e+00	0	48	104	0	60	1048569
2026-01-17 16:18:30.86	99.04	19.71	-82.8	-79.0	2.5	0.00e+00	0	49	104	0	60	1048572
2026-01-17 16:18:33.87	98.28	20.11	-83.5	-79.0	2.4	0.00e+00	0	49	104	0	60	1048574
2026-01-17 16:18:36.90	97.49	20.51	-83.5	-79.0	2.4	0.00e+00	0	48	104	0	60	1048575
2026-01-17 16:18:39.92	96.68	20.92	-83.5	-79.0	2.4	0.00e+00	0	48	104	0	60	1048575
2026-01-17 16:18:42.94	95.85	21.32	-83.5	-79.0	2.4	0.00e+00	0	48	104	0	60	1048570
2026-01-17 16:18:45.96	94.99	21.73	-83.1	-79.0	2.3	0.00e+00	0	49	104	0	60	1048573
2026-01-17 16:18:48.97	94.11	22.14	-83.5	-79.0	2.4	0.00e+00	0	49	104	0	60	1048572
2026-01-17 16:18:51.99	93.19	22.55	-83.5	-79.0	2.4	0.00e+00	0	48	104	0	60	1048573
2026-01-17 16:18:55.01	92.25	22.96	-82.8	-79.0	2.4	0.00e+00	0	49	104	0	60	1048575
2026-01-17 16:18:58.03	91.28	23.37	-83.5	-79.0	2.4	0.00e+00	0	49	104	0	60	1048573
2026-01-17 16:19:01.05	90.29	23.79	-83.1	-79.0	2.6	0.00e+00	0	49	104	0	60	1048565
2026-01-17 16:19:04.06	89.26	24.20	-83.1	-79.0	2.4	0.00e+00	0	49	104	0	60	1048574
2026-01-17 16:19:07.08	88.20	24.61	-83.5	-79.0	2.3	0.00e+00	0	49	104	0	60	1048572
2026-01-17 16:19:10.09	87.12	25.01	-83.1	-79.0	2.4	0.00e+00	0	48	104	0	60	1048570
2026-01-17 16:19:13.12	85.99	25.42	-83.1	-79.0	2.4	0.00e+00	0	49	104	0	60	1048567
2026-01-17 16:19:16.13	84.85	25.82	-83.1	-79.0	2.4	0.00e+00	0	49	104	0	60	1048572
2026-01-17 16:19:19.15	83.66	26.21	-83.5	-79.0	2.4	0.00e+00	0	49	104	0	60	1048573
2026-01-17 16:19:22.17	82.44	26.60	-83.5	-79.0	2.4	0.00e+00	0	49	104	0	60	1048574
2026-01-17 16:19:25.19	81.19	26.98	-83.5	-79.0	2.4	0.00e+00	0	49	104	0	60	1048574
2026-01-17 16:19:28.21	79.91	27.36	-83.1	-79.0	2.5	0.00e+00	0	49	104	0	60	1048571
2026-01-17 16:19:31.23	78.59	27.72	-83.5	-79.0	2.4	0.00e+00	0	49	104	0	60	1048572
2026-01-17 16:19:34.24	77.25	28.08	-83.5	-79.0	2.4	0.00e+00	0	49	104	0	60	1048571
2026-01-17 16:19:37.26	75.86	28.42	-83.1	-79.0	2.4	0.00e+00	0	49	104	0	60	1048574
2026-01-17 16:19:40.28	74.45	28.75	-83.1	-79.0	2.3	0.00e+00	0	49	104	0	60	1048573
2026-01-17 16:19:43.30	73.00	29.07	-83.5	-79.0	2.5	0.00e+00	0	49	104	0	60	1048573
2026-01-17 16:19:46.33	71.52	29.37	-83.5	-79.0	2.3	0.00e+00	0	49	104	0	60	1048573
2026-01-17 16:19:49.35	70.02	29.66	-83.5	-79.0	2.4	0.00e+00	0	49	104	0	60	1048574
2026-01-17 16:19:52.37	68.48	29.93	-82.8	-79.0	2.5	0.00e+00	0	49	104	0	60	1048574
2026-01-17 16:19:55.39	66.92	30.17	-83.5	-79.0	2.4	0.00e+00	0	49	104	0	60	1048572
2026-01-17 16:19:58.41	65.34	30.40	-83.5	-79.0	2.4	0.00e+00	0	49	104	0	60	1048568
2026-01-17 16:20:01.43	63.73	30.61	-83.1	-79.0	2.5	0.00e+00	0	49	104	0	60	1048570
2026-01-17 16:20:04.45	62.10	30.79	-83.5	-79.0	2.4	0.00e+00	0	49	104	0	60	1048575
2026-01-17 16:20:07.48	60.44	30.95	-83.5	-79.0	2.3	0.00e+00	0	49	104	0	60	1048575
2026-01-17 16:20:10.49	58.79	31.09	-83.1	-79.0	2.4	0.00e+00	0	49	104	0	60	1048572
2026-01-17 16:20:13.51	57.11	31.20	-83.5	-79.0	2.4	0.00e+00	0	49	104	0	60	1048573
2026-01-17 16:20:16.53	55.42	31.28	-83.1	-79.0	2.4	0.00e+00	0	49	104	0	60	1048570
2026-01-17 16:20:19.55	53.72	31.34	-83.5	-79.0	2.3	0.00e+00	0	49	104	0	60	1048574
2026-01-17 16:20:22.57	52.02	31.37	-83.5	-79.0	2.4	0.00e+00	0	49	104	0	60	1048564
2026-01-17 16:20:25.58	50.32	31.38	-83.1	-79.0	2.4	0.00e+00	0	49	104	0	60	1048575
2026-01-17 16:20:28.60	48.62	31.36	-83.5	-79.0	2.4	0.00e+00	0	49	104	0	60	1048574
2026-01-17 16:20:31.62	46.92	31.31	-83.1	-79.0	2.5	0.00e+00	0	49	104	0	60	1048573
2026-01-17 16:20:34.65	45.22	31.24	-83.1	-79.0	2.3	0.00e+00	0	49	104	0	60	1048572
2026-01-17 16:20:37.67	43.54	31.14	-83.5	-79.0	2.4	0.00e+00	0	49	104	0	60	1048570
2026-01-17 16:20:40.69	41.87	31.01	-83.5	-79.0	2.3	0.00e+00	0	49	104	0	60	1048573
2026-01-17 16:20:43.70	40.22	30.86	-83.1	-79.0	2.4	0.00e+00	0	49	104	0	60	1048575
2026-01-17 16:20:46.73	38.58	30.69	-83.5	-79.0	2.4	0.00e+00	0	49	104	0	60	1048574
2026-01-17 16:20:49.74	36.97	30.49	-83.1	-79.0	2.4	0.00e+00	0	49	104	0	60	1048574
2026-01-17 16:20:52.76	35.37	30.27	-83.5	-79.0	2.4	0.00e+00	0	49	104	0	60	1048573
2026-01-17 16:20:55.79	33.80	30.03	-83.5	-79.0	2.4	0.00e+00	0	49	104	0	60	1048574
2026-01-17 16:20:58.81	32.26	29.78	-82.8	-79.0	2.4	0.00e+00	0	49	104	0	60	1048570
2026-01-17 16:21:01.83	30.74	29.50	-83.5	-79.0	2.4	0.00e+00	0	49	104	0	60	1048568
2026-01-17 16:21:04.86	29.25	29.20	-83.5	-79.0	2.4	0.00e+00	0	49	104	0	60	1048575
2026-01-17 16:21:07.88	27.80	28.89	-82.8	-79.0	2.3	0.00e+00	0	49	104	0	60	1048575
2026-01-17 16:21:10.89	26.38	28.57	-83.5	-79.0	2.4	0.00e+00	0	49	104	0	60	1048571
2026-01-17 16:21:13.91	24.98	28.23	-83.1	-79.0	2.3	0.00e+00	0	49	104	0	60	1048564
2026-01-17 16:21:16.93	23.62	27.88	-83.5	-79.0	2.4	0.00e+00	0	49	104	0	60	1048571
2026-01-17 16:21:19.95	22.30	27.52	-83.1	-79.0	2.4	0.00e+00	0	49	104	0	60	1048573
2026-01-17 16:21:22.97	21.00	27.15	-83.1	-79.0	2.4	0.00e+00	0	49	104	0	60	1048575
2026-01-17 16:21:25.99	19.74	26.78	-83.5	-79.0	2.4	0.00e+00	0	49	104	0	60	1048575
2026-01-17 16:21:28.99	18.52	26.39	-83.5	-79.0	2.4	0.00e+00	0	49	104	0	60	1048569
2026-01-17 16:21:32.02	17.32	26.00	-82.8	-79.0	2.5	0.00e+00	0	49	104	0	60	1048575
2026-01-17 16:21:35.04	16.16	25.60	-83.5	-79.0	2.4	0.00e+00	0	49	104	0	60	1048575
2026-01-17 16:21:38.06	15.03	25.20	-83.5	-79.0	2.4	0.00e+00	0	49	104	0	60	1048574
2026-01-17 16:21:41.09	13.93	24.80	-83.1	-79.0	2.5	0.00e+00	0	49	104	0	60	1048547
2026-01-17 16:21:44.11	12.86	24.39	-83.5	-79.0	2.4	0.00e+00	0	49	104	0	60	1048574
2026-01-17 16:21:47.13	11.82	23.98	-83.1	-79.0	2.4	0.00e+00	0	49	104	0	60	1048573
2026-01-17 16:21:50.14	10.82	23.57	-83.5	-79.0	2.3	0.00e+00	0	49	104	0	60	1048570
2026-01-17 16:21:53.16	9.84	23.16	-83.5	-79.0	2.5	0.00e+00	0	49	104	0	60	1048573
2026-01-17 16:21:56.17	8.90	22.75	-83.1	-79.0	2.4	0.00e+00	0	49	104	0	60	1048573
2026-01-17 16:21:59.20	7.97	22.34	-83.5	-79.0	2.4	0.00e+00	0	49	104	0	60	1048575
2026-01-17 16:22:02.21	7.08	21.93	-83.5	-79.0	2.4	0.00e+00	0	49	104	0	60	1048574
2026-01-17 16:22:05.23	6.21	21.52	-82.8	-79.0	2.4	0.00e+00	0	49	104	0	60	1048569
2026-01-17 16:22:08.25	5.37	21.12	-83.5	-79.0	2.4	0.00e+00	0	49	104	0	60	1048569
2026-01-17 16:22:11.26	4.56	20.72	-83.5	-79.0	2.4	0.00e+00	0	49	104	0	60	1048573
2026-01-17 16:22:14.29	3.76	20.32	-83.1	-79.0	2.4	0.00e+00	0	49	104	0	60	1048573
2026-01-17 16:22:17.31	2.99	19.92	-83.5	-79.0	2.4	0.00e+00	0	49	104	0	60	1048575
2026-01-17 16:22:20.33	2.24	19.52	-83.1	-79.0	2.4	0.00e+00	0	49	104	0	60	1048570
2026-01-17 16:22:23.35	1.52	19.13	-83.5	-79.0	2.4	0.00e+00	0	49	104	0	60	1048571
2026-01-17 16:22:26.36	0.82	18.75	-83.5	-79.0	2.4	0.00e+00	0	49	104	0	60	1048567
2026-01-17 16:22:29.38	0.14	18.36	-82.8	-79.0	2.4	0.00e+00	0	49	104	0	60	1048574
2026-01-17 16:22:32.40	359.47	17.98	-83.5	-79.0	2.4	0.00e+00	0	49	104	0	60	1048575
2026-01-17 16:22:35.42	358.83	17.61	-83.5	-79.0	2.4	0.00e+00	0	49	104	0	60	1048574
2026-01-17 16:22:38.43	358.20	17.24	-82.8	-79.0	2.4	0.00e+00	0	49	104	0	60	1048567
2026-01-17 16:22:41.45	357.60	16.87	-83.5	-79.0	2.4	0.00e+00	0	49	104	0	60	1048569
2026-01-17 16:22:44.47	357.00	16.51	-83.5	-79.0	2.3	0.00e+00	0	49	104	0	60	1048569
2026-01-17 16:22:47.49	356.43	16.15	-83.5	-79.0	2.3	0.00e+00	0	49	104	0	60	1048575
2026-01-17 16:22:50.51	355.87	15.79	-83.5	-79.0	2.5	0.00e+00	0	49	104	0	60	1048574
2026-01-17 16:22:53.52	355.33	15.44	-83.1	-79.0	2.5	0.00e+00	0	49	104	0	60	1048569
2026-01-17 16:22:56.54	354.80	15.09	-83.1	-79.0	2.4	0.00e+00	0	49	104	0	60	1048574
2026-01-17 16:22:59.55	354.29	14.75	-83.5	-79.0	2.3	0.00e+00	0	49	104	0	60	1048575
2026-01-17 16:23:02.57	353.79	14.41	-82.8	-79.0	2.4	0.00e+00	0	49	104	0	60	1048567
2026-01-17 16:23:05.58	353.31	14.08	-83.1	-79.0	2.4	0.00e+00	0	49	104	0	60	1048573
2026-01-17 16:23:08.60	352.84	13.75	-83.5	-79.0	2.3	0.00e+00	0	49	104	0	60	1048570
2026-01-17 16:23:11.61	352.38	13.43	-83.1	-79.0	2.4	0.00e+00	0	49	104	0	60	1048573
2026-01-17 16:23:14.63	351.93	13.10	-83.5	-79.0	2.3	0.00e+00	0	49	104	0	60	1048575
2026-01-17 16:23:17.65	351.49	12.78	-83.1	-79.0	2.3	0.00e+00	0	49	104	0	60	1048575
2026-01-17 16:23:20.66	351.07	12.47	-83.5	-79.0	2.4	0.00e+00	0	49	104	0	60	1048569
2026-01-17 16:23:23.68	350.66	12.16	-83.1	-79.0	2.4	0.00e+00	0	49	104	0	60	1048575
2026-01-17 16:23:26.69	350.25	11.86	-83.1	-79.0	2.5	0.00e+00	0	49	104	0	60	1048570
2026-01-17 16:23:29.71	349.86	11.55	-83.5	-79.0	2.3	0.00e+00	0	49	104	0	60	1048575
2026-01-17 16:23:32.73	349.48	11.25	-83.1	-79.0	2.5	0.00e+00	0	49	104	0	60	1048574
2026-01-17 16:23:35.75	349.10	10.96	-82.8	-79.0	2.3	0.00e+00	0	49	104	0	60	1048574
2026-01-17 16:23:38.78	348.74	10.67	-83.5	-79.0	2.4	0.00e+00	0	49	104	0	60	1048570
2026-01-17 16:23:41.80	348.38	10.38	-83.5	-79.0	2.4	0.00e+00	0	49	104	0	60	1048575
2026-01-17 16:23:44.82	348.03	10.09	-83.1	-79.0	2.4	0.00e+00	0	49	104	0	60	1048573
2026-01-17 16:23:47.83	347.70	9.81	-83.5	-79.0	2.4	0.00e+00	0	49	104	0	60	1048574
2026-01-17 16:23:50.85	347.37	9.54	-83.5	-79.0	2.4	0.00e+00	0	49	104	0	60	1048575
2026-01-17 16:23:53.87	347.04	9.26	-83.5	-79.0	2.4	0.00e+00	0	49	104	0	60	1048573
2026-01-17 16:23:56.89	346.73	8.99	-83.5	-79.0	2.3	0.00e+00	0	49	104	0	60	1048573
2026-01-17 16:23:59.90	346.42	8.72	-83.1	-79.0	2.5	0.00e+00	0	49	104	0	60	1048575
2026-01-17 16:24:02.91	346.12	8.46	-83.5	-79.0	2.4	0.00e+00	0	49	104	0	60	1048573
2026-01-17 16:24:05.92	345.83	8.20	-83.5	-79.0	2.4	0.00e+00	0	49	104	0	60	1048574
2026-01-17 16:24:08.93	345.54	7.94	-82.8	-79.0	2.5	0.00e+00	0	49	104	0	60	1048571
2026-01-17 16:24:11.96	345.26	7.68	-83.5	-79.0	2.3	0.00e+00	0	49	104	0	60	1048575
2026-01-17 16:24:14.97	344.99	7.43	-83.5	-79.0	2.4	0.00e+00	0	49	104	0	60	1048574
2026-01-17 16:24:17.99	344.72	7.18	-83.5	-79.0	2.4	0.00e+00	0	49	104	0	60	1048574
2026-01-17 16:24:21.01	344.46	6.93	-83.5	-79.0	2.4	0.00e+00	0	49	104	0	60	1048571
2026-01-17 16:24:24.04	344.20	6.68	-83.5	-79.0	2.4	0.00e+00	0	49	104	0	60	1048574
2026-01-17 16:24:27.05	343.95	6.44	-83.5	-79.0	2.4	0.00e+00	0	49	104	0	60	1048575
2026-01-17 16:24:30.08	343.70	6.20	-83.5	-79.0	2.4	0.00e+00	0	49	104	0	60	1048565
2026-01-17 16:24:33.09	343.46	5.96	-82.8	-79.0	2.4	0.00e+00	0	49	104	0	60	1048571
2026-01-17 16:24:36.10	343.23	5.73	-83.5	-79.0	2.4	0.00e+00	0	49	104	0	60	1048575
2026-01-17 16:24:39.12	343.00	5.49	-83.5	-79.0	2.5	0.00e+00	0	49	104	0	60	1048572
2026-01-17 16:24:42.14	342.77	5.26	-83.1	-79.0	2.4	0.00e+00	0	49	104	0	60	1048572
2026-01-17 16:24:45.17	342.55	5.04	-83.5	-79.0	2.4	0.00e+00	0	49	104	0	60	1048561
2026-01-17 16:24:48.19	342.33	4.81	-83.1	-79.0	2.4	0.00e+00	0	49	104	0	60	1048574
2026-01-17 16:24:51.20	342.12	4.59	-83.1	-79.0	2.3	0.00e+00	0	49	104	0	60	1048573
2026-01-17 16:24:54.21	341.91	4.36	-83.5	-79.0	2.5	0.00e+00	0	49	104	0	60	1048573
2026-01-17 16:24:57.23	341.71	4.14	-83.1	-79.0	2.3	0.00e+00	0	49	104	0	60	1048572
2026-01-17 16:25:00.26	341.51	3.93	-83.5	-79.0	2.5	0.00e+00	0	49	104	0	60	1048575
2026-01-17 16:25:03.27	341.31	3.71	-83.5	-79.0	2.4	0.00e+00	0	49	104	0	60	1048570
2026-01-17 16:25:06.29	341.12	3.50	-82.8	-79.0	2.4	0.00e+00	0	49	104	0	60	1048571
2026-01-17 16:25:09.31	340.93	3.29	-83.1	-79.0	2.4	0.00e+00	0	49	104	0	60	1048575
2026-01-17 16:25:12.32	340.75	3.08	-83.5	-79.0	2.5	0.00e+00	0	49	104	0	60	1048567
2026-01-17 16:25:15.33	340.57	2.87	-83.1	-79.0	2.5	0.00e+00	0	49	104	0	60	1048573
2026-01-17 16:25:18.36	340.39	2.66	-83.5	-79.0	2.4	0.00e+00	0	49	104	0	60	1048574
2026-01-17 16:25:21.37	340.22	2.46	-83.5	-79.0	2.4	0.00e+00	0	49	104	0	60	1048575
2026-01-17 16:25:24.39	340.05	2.25	-83.1	-79.0	2.3	0.00e+00	0	49	104	0	60	1048568
2026-01-17 16:25:27.41	339.88	2.05	-83.5	-79.0	2.4	0.00e+00	0	49	104	0	60	1048574
2026-01-17 16:25:30.43	339.71	1.85	-83.1	-79.0	2.5	0.00e+00	0	49	104	0	60	1048571
2026-01-17 16:25:33.45	339.55	1.66	-83.5	-79.0	2.4	0.00e+00	0	49	104	0	60	1048575
2026-01-17 16:25:36.48	339.39	1.46	-83.5	-79.0	2.4	0.00e+00	0	49	104	0	60	1048569
2026-01-17 16:25:39.50	339.23	1.26	-82.8	-79.0	2.3	0.00e+00	0	49	104	0	60	1048574
2026-01-17 16:25:42.52	339.08	1.07	-83.5	-79.0	2.5	0.00e+00	0	49	104	0	60	1048571
2026-01-17 16:25:45.54	338.93	0.88	-83.5	-79.0	2.4	0.00e+00	0	49	104	0	60	1048572
2026-01-17 16:25:48.56	338.78	0.69	-82.8	-79.0	2.3	0.00e+00	0	49	104	0	60	1048573
2026-01-17 16:25:51.59	338.64	0.50	-83.5	-79.0	2.4	0.00e+00	0	49	104	0	60	1048575
2026-01-17 16:25:54.61	338.49	0.31	-83.1	-79.0	2.4	0.00e+00	0	49	104	0	60	1048575
2026-01-17 16:25:57.63	338.35	0.12	-83.5	-79.0	2.5	0.00e+00	0	49	104	0	60	1048573
2026-01-17 16:26:00.65	338.22	-0.06	-83.5	-79.0	2.4	0.00e+00	0	49	104	0	60	1048575

#Closed at: 2026-01-17 16:26:01
#Recorded file [0 MB]: D:/Data/35015_260117_191453.dat