passes_logs/2026/01/17/R3.2S-Naryan-Mar/R3.2S-Naryan-Mar__20260117_174820_TY-42_rec.log

#Pass ID: 20260117_174820_TY-42
#Satellite: TY-42
#Configuration: TY-42
#almurnet v.1.7.20240730
#Start time: 2026-01-17 17:48:21

#Version: 2.2.20231116
#Station: R3.2S-Naryan-Mar
#Location: 53.008057 lon 67.646978 lat
#TLE: 1 64048U 25103A   26017.21478009  .00008006  00000-0  38191-3 0 09999
#TLE: 2 64048 097.4122 092.5907 0001889 091.4381 313.8037 15.19150120 37159

#Time	Az	El	Level	Level2	SNR	BER	BlckErr	Temp	State	Recorded	gain1	gain2
2026-01-17 17:48:21.06	164.76	0.06	-83.1	-79.0	2.3	0.00e+00	0	45	0	0	60	1048573
2026-01-17 17:48:24.08	164.80	0.26	-83.1	-79.0	2.5	0.00e+00	0	47	104	0	60	1048556
2026-01-17 17:48:27.09	164.85	0.45	-83.5	-79.0	2.4	0.00e+00	0	47	104	0	60	1048573
2026-01-17 17:48:30.11	164.89	0.65	-83.1	-79.0	2.3	0.00e+00	0	47	104	0	60	1048569
2026-01-17 17:48:33.14	164.94	0.85	-83.1	-79.0	2.4	0.00e+00	0	47	104	0	60	1048573
2026-01-17 17:48:36.16	164.99	1.05	-83.5	-79.0	2.4	0.00e+00	0	47	104	0	60	1048572
2026-01-17 17:48:39.18	165.03	1.25	-83.1	-79.0	2.4	0.00e+00	0	47	104	0	60	1048575
2026-01-17 17:48:42.21	165.08	1.46	-83.5	-79.0	2.5	0.00e+00	0	47	104	0	60	1048574
2026-01-17 17:48:45.23	165.13	1.66	-83.5	-79.0	2.4	0.00e+00	0	47	104	0	60	1048573
2026-01-17 17:48:48.25	165.18	1.87	-82.8	-79.0	2.4	0.00e+00	0	47	104	0	60	1048563
2026-01-17 17:48:51.28	165.23	2.08	-83.5	-79.0	2.5	0.00e+00	0	48	104	0	60	1048574
2026-01-17 17:48:54.30	165.28	2.30	-83.5	-79.0	2.3	0.00e+00	0	48	104	0	60	1048575
2026-01-17 17:48:57.32	165.33	2.51	-83.5	-79.0	2.3	0.00e+00	0	48	104	0	60	1048575
2026-01-17 17:49:00.34	165.39	2.73	-83.1	-79.0	2.4	0.00e+00	0	48	104	0	60	1048573
2026-01-17 17:49:03.35	165.44	2.95	-83.5	-79.0	2.3	0.00e+00	0	48	104	0	60	1048575
2026-01-17 17:49:06.36	165.49	3.17	-83.5	-79.0	2.4	0.00e+00	0	48	104	0	60	1048575
2026-01-17 17:49:09.38	165.55	3.39	-83.5	-79.0	2.4	0.00e+00	0	48	104	0	60	1048574
2026-01-17 17:49:12.40	165.60	3.62	-83.1	-79.0	2.3	0.00e+00	0	48	104	0	60	1048574
2026-01-17 17:49:15.42	165.66	3.84	-83.5	-79.0	2.4	0.00e+00	0	48	104	0	60	1048573
2026-01-17 17:49:18.44	165.72	4.07	-83.1	-79.0	2.5	0.00e+00	0	48	104	0	60	1048575
2026-01-17 17:49:21.45	165.77	4.31	-83.1	-79.0	2.4	0.00e+00	0	48	104	0	60	1048573
2026-01-17 17:49:24.47	165.83	4.54	-83.5	-79.0	2.4	0.00e+00	0	48	104	0	60	1048574
2026-01-17 17:49:27.50	165.89	4.78	-83.5	-79.0	2.4	0.00e+00	0	48	104	0	60	1048570
2026-01-17 17:49:30.52	165.96	5.03	-83.1	-79.0	2.5	0.00e+00	0	48	104	0	60	1048566
2026-01-17 17:49:33.54	166.02	5.27	-83.5	-79.0	2.4	0.00e+00	0	48	104	0	60	1048574
2026-01-17 17:49:36.55	166.08	5.52	-83.1	-79.0	2.4	0.00e+00	0	48	104	0	60	1048574
2026-01-17 17:49:39.57	166.15	5.77	-83.5	-79.0	2.4	0.00e+00	0	48	104	0	60	1048574
2026-01-17 17:49:42.58	166.21	6.02	-83.5	-79.0	2.4	0.00e+00	0	48	104	0	60	1048575
2026-01-17 17:49:45.61	166.28	6.28	-83.1	-79.0	2.4	0.00e+00	0	48	104	0	60	1048574
2026-01-17 17:49:48.63	166.35	6.54	-83.5	-79.0	2.4	0.00e+00	0	48	104	0	60	1048575
2026-01-17 17:49:51.66	166.42	6.81	-83.5	-79.0	2.4	0.00e+00	0	48	104	0	60	1048575
2026-01-17 17:49:54.67	166.49	7.07	-82.8	-79.0	2.5	0.00e+00	0	48	104	0	60	1048574
2026-01-17 17:49:57.69	166.56	7.35	-83.5	-79.0	2.4	0.00e+00	0	48	104	0	60	1048574
2026-01-17 17:50:00.72	166.64	7.62	-83.1	-79.0	2.4	0.00e+00	0	48	104	0	60	1048570
2026-01-17 17:50:03.74	166.71	7.90	-83.1	-79.0	2.4	0.00e+00	0	48	104	0	60	1048575
2026-01-17 17:50:06.76	166.79	8.19	-83.5	-79.0	2.4	0.00e+00	0	48	104	0	60	1048575
2026-01-17 17:50:09.78	166.87	8.48	-83.1	-79.0	2.2	0.00e+00	0	48	104	0	60	1048575
2026-01-17 17:50:12.80	166.95	8.77	-83.5	-79.0	2.4	0.00e+00	0	48	104	0	60	1048570
2026-01-17 17:50:15.82	167.03	9.07	-83.5	-79.0	2.3	0.00e+00	0	48	104	0	60	1048572
2026-01-17 17:50:18.85	167.12	9.37	-83.1	-79.0	2.4	0.00e+00	0	48	104	0	60	1048574
2026-01-17 17:50:21.86	167.20	9.67	-83.5	-79.0	2.3	0.00e+00	0	48	104	0	60	1048575
2026-01-17 17:50:24.88	167.29	9.99	-83.5	-79.0	2.4	0.00e+00	0	48	104	0	60	1048575
2026-01-17 17:50:27.90	167.38	10.30	-82.8	-79.0	2.4	0.00e+00	0	48	104	0	60	1048571
2026-01-17 17:50:30.93	167.47	10.63	-83.5	-79.0	2.4	0.00e+00	0	48	104	0	60	1048573
2026-01-17 17:50:33.95	167.57	10.96	-83.1	-79.0	2.4	0.00e+00	0	48	104	0	60	1048575
2026-01-17 17:50:36.97	167.66	11.29	-83.1	-79.0	2.3	0.00e+00	0	48	104	0	60	1048572
2026-01-17 17:50:39.99	167.76	11.63	-83.5	-79.0	2.4	0.00e+00	0	49	104	0	60	1048573
2026-01-17 17:50:43.01	167.86	11.98	-83.1	-79.0	2.3	0.00e+00	0	48	104	0	60	1048572
2026-01-17 17:50:46.03	167.97	12.33	-83.5	-79.0	2.4	0.00e+00	0	48	104	0	60	1048570
2026-01-17 17:50:49.04	168.07	12.69	-83.5	-79.0	2.5	0.00e+00	0	48	104	0	60	1048572
2026-01-17 17:50:52.07	168.18	13.06	-82.8	-79.0	2.4	0.00e+00	0	48	104	0	60	1048574
2026-01-17 17:50:55.09	168.30	13.43	-83.5	-79.0	2.4	0.00e+00	0	49	104	0	60	1048575
2026-01-17 17:50:58.10	168.41	13.81	-83.1	-79.0	2.5	0.00e+00	0	49	104	0	60	1048570
2026-01-17 17:51:01.12	168.53	14.20	-82.8	-79.0	2.5	0.00e+00	0	49	104	0	60	1048563
2026-01-17 17:51:04.14	168.65	14.60	-83.5	-79.0	2.4	0.00e+00	0	49	104	0	60	1048573
2026-01-17 17:51:07.17	168.78	15.01	-83.5	-79.0	2.4	0.00e+00	0	48	104	0	60	1048572
2026-01-17 17:51:10.19	168.91	15.42	-83.5	-79.0	2.4	0.00e+00	0	48	104	0	60	1048574
2026-01-17 17:51:13.21	169.05	15.84	-83.5	-79.0	2.4	0.00e+00	0	48	104	0	60	1048570
2026-01-17 17:51:16.23	169.18	16.28	-83.1	-79.0	2.4	0.00e+00	0	49	104	0	60	1048564
2026-01-17 17:51:19.25	169.33	16.72	-83.5	-79.0	2.5	0.00e+00	0	49	104	0	60	1048574
2026-01-17 17:51:22.28	169.47	17.18	-83.5	-79.0	2.4	0.00e+00	0	49	104	0	60	1048573
2026-01-17 17:51:25.30	169.63	17.64	-83.1	-79.0	2.4	0.00e+00	0	49	104	0	60	1048571
2026-01-17 17:51:28.32	169.78	18.12	-83.5	-79.0	2.5	0.00e+00	0	49	104	0	60	1048573
2026-01-17 17:51:31.34	169.95	18.61	-83.5	-79.0	2.4	0.00e+00	0	49	104	0	60	1048575
2026-01-17 17:51:34.36	170.12	19.11	-83.1	-79.0	2.4	0.00e+00	0	49	104	0	60	1048572
2026-01-17 17:51:37.39	170.29	19.62	-83.5	-79.0	2.5	0.00e+00	0	49	104	0	60	1048575
2026-01-17 17:51:40.41	170.47	20.15	-83.1	-79.0	2.4	0.00e+00	0	49	104	0	60	1048574
2026-01-17 17:51:43.43	170.66	20.69	-83.5	-79.0	2.4	0.00e+00	0	48	104	0	60	1048574
2026-01-17 17:51:46.45	170.85	21.24	-83.5	-79.0	2.5	0.00e+00	0	49	104	0	60	1048563
2026-01-17 17:51:49.46	171.06	21.81	-83.1	-79.0	2.3	0.00e+00	0	49	104	0	60	1048575
2026-01-17 17:51:52.47	171.27	22.40	-83.5	-79.0	2.5	0.00e+00	0	49	104	0	60	1048569
2026-01-17 17:51:55.49	171.49	23.00	-83.5	-79.0	2.4	0.00e+00	0	49	104	0	60	1048575
2026-01-17 17:51:58.51	171.72	23.62	-83.1	-79.0	2.4	0.00e+00	0	48	104	0	60	1048573
2026-01-17 17:52:01.53	171.95	24.26	-83.5	-79.0	2.4	0.00e+00	0	49	104	0	60	1048573
2026-01-17 17:52:04.54	172.20	24.92	-83.5	-79.0	2.3	0.00e+00	0	49	104	0	60	1048564
2026-01-17 17:52:07.56	172.46	25.60	-83.5	-79.0	2.4	0.00e+00	0	49	104	0	60	1048575
2026-01-17 17:52:10.58	172.74	26.29	-83.5	-79.0	2.4	0.00e+00	0	49	104	0	60	1048575
2026-01-17 17:52:13.59	173.02	27.01	-83.5	-79.0	2.4	0.00e+00	0	48	104	0	60	1048575
2026-01-17 17:52:16.62	173.32	27.76	-83.5	-79.0	2.4	0.00e+00	0	49	104	0	60	1048572
2026-01-17 17:52:19.64	173.64	28.53	-83.5	-79.0	2.3	0.00e+00	0	49	104	0	60	1048572
2026-01-17 17:52:22.66	173.97	29.32	-82.8	-79.0	2.4	0.00e+00	0	49	104	0	60	1048574
2026-01-17 17:52:25.68	174.32	30.14	-83.1	-79.0	2.4	0.00e+00	0	49	104	0	60	1048575
2026-01-17 17:52:28.70	174.69	30.99	-83.5	-79.0	2.4	0.00e+00	0	49	104	0	60	1048575
2026-01-17 17:52:31.73	175.08	31.86	-83.1	-79.0	2.4	0.00e+00	0	48	104	0	60	1048575
2026-01-17 17:52:34.74	175.50	32.77	-83.5	-79.0	2.4	0.00e+00	0	49	104	0	60	1048574
2026-01-17 17:52:37.76	175.93	33.70	-83.1	-79.0	2.4	0.00e+00	0	49	104	0	60	1048572
2026-01-17 17:52:40.77	176.40	34.67	-83.5	-79.0	2.2	0.00e+00	0	49	104	0	60	1048575
2026-01-17 17:52:43.79	176.89	35.67	-83.5	-79.0	2.4	0.00e+00	0	49	104	0	60	1048574
2026-01-17 17:52:46.81	177.42	36.71	-83.5	-79.0	2.4	0.00e+00	0	49	104	0	60	1048574
2026-01-17 17:52:49.83	177.99	37.78	-83.1	-79.0	2.4	0.00e+00	0	49	104	0	60	1048571
2026-01-17 17:52:52.84	178.59	38.89	-83.5	-79.0	2.4	0.00e+00	0	49	104	0	60	1048571
2026-01-17 17:52:55.84	179.24	40.04	-83.1	-79.0	2.4	0.00e+00	0	49	104	0	60	1048574
2026-01-17 17:52:58.85	179.94	41.22	-83.5	-79.0	2.5	0.00e+00	0	49	104	0	60	1048571
2026-01-17 17:53:01.88	180.69	42.46	-83.5	-79.0	2.4	0.00e+00	0	49	104	0	60	1048574
2026-01-17 17:53:04.89	181.51	43.72	-83.1	-79.0	2.4	0.00e+00	0	49	104	0	60	1048574
2026-01-17 17:53:07.90	182.39	45.04	-83.5	-79.0	2.4	0.00e+00	0	49	104	0	60	1048575
2026-01-17 17:53:10.91	183.36	46.39	-83.5	-79.0	2.4	0.00e+00	0	49	104	0	60	1048566
2026-01-17 17:53:13.93	184.42	47.79	-83.1	-79.0	2.4	0.00e+00	0	49	104	0	60	1048574
2026-01-17 17:53:16.95	185.58	49.22	-83.5	-79.0	2.5	0.00e+00	0	49	104	0	60	1048574
2026-01-17 17:53:19.97	186.86	50.70	-83.1	-79.0	2.4	0.00e+00	0	49	104	0	60	1048575
2026-01-17 17:53:22.99	188.27	52.22	-83.5	-79.0	2.4	0.00e+00	0	49	104	0	60	1048575
2026-01-17 17:53:26.02	189.85	53.77	-83.5	-79.0	2.4	0.00e+00	0	49	104	0	60	1048572
2026-01-17 17:53:29.03	191.59	55.35	-82.8	-79.0	2.4	0.00e+00	0	49	104	0	60	1048569
2026-01-17 17:53:32.05	193.56	56.95	-83.5	-79.0	2.3	0.00e+00	0	49	104	0	60	1048571
2026-01-17 17:53:35.07	195.77	58.57	-83.5	-79.0	2.4	0.00e+00	0	49	104	0	60	1048575
2026-01-17 17:53:38.10	198.28	60.19	-83.5	-79.0	2.4	0.00e+00	0	49	104	0	60	1048566
2026-01-17 17:53:41.11	201.11	61.80	-83.5	-79.0	2.4	0.00e+00	0	49	104	0	60	1048562
2026-01-17 17:53:44.12	204.33	63.38	-83.5	-79.0	2.3	0.00e+00	0	49	104	0	60	1048575
2026-01-17 17:53:47.14	208.02	64.91	-83.5	-79.0	2.3	0.00e+00	0	49	104	0	60	1048572
2026-01-17 17:53:50.17	212.26	66.38	-83.5	-79.0	2.4	0.00e+00	0	49	104	0	60	1048572
2026-01-17 17:53:53.19	217.08	67.74	-83.1	-79.0	2.4	0.00e+00	0	49	104	0	60	1048574
2026-01-17 17:53:56.21	222.55	68.95	-83.5	-79.0	2.4	0.00e+00	0	49	104	0	60	1048574
2026-01-17 17:53:59.22	228.67	69.98	-83.5	-79.0	2.5	0.00e+00	0	49	104	0	60	1048571
2026-01-17 17:54:02.25	235.46	70.79	-83.1	-79.0	2.4	0.00e+00	0	49	104	0	60	1048570
2026-01-17 17:54:05.27	242.76	71.33	-83.5	-79.0	2.4	0.00e+00	0	49	104	0	60	1048570
2026-01-17 17:54:08.29	250.39	71.57	-83.5	-79.0	2.4	0.00e+00	0	49	104	0	60	1048573
2026-01-17 17:54:11.31	258.09	71.50	-83.1	-79.0	2.4	0.00e+00	0	49	104	0	60	1048572
2026-01-17 17:54:14.33	265.60	71.13	-83.5	-79.0	2.4	0.00e+00	0	49	104	0	60	1048575
2026-01-17 17:54:17.36	272.71	70.46	-83.1	-79.0	2.4	0.00e+00	0	49	104	0	60	1048557
2026-01-17 17:54:20.38	279.20	69.56	-83.5	-79.0	2.4	0.00e+00	0	49	104	0	60	1048572
2026-01-17 17:54:23.40	285.04	68.44	-83.5	-79.0	2.4	0.00e+00	0	49	104	0	60	1048572
2026-01-17 17:54:26.42	290.22	67.16	-83.1	-79.0	2.4	0.00e+00	0	49	104	0	60	1048573
2026-01-17 17:54:29.43	294.75	65.76	-83.1	-79.0	2.4	0.00e+00	0	49	104	0	60	1048573
2026-01-17 17:54:32.46	298.74	64.26	-83.5	-79.0	2.4	0.00e+00	0	49	104	0	60	1048570
2026-01-17 17:54:35.47	302.21	62.70	-82.8	-79.0	2.5	0.00e+00	0	49	104	0	60	1048574
2026-01-17 17:54:38.49	305.26	61.11	-83.5	-79.0	2.3	0.00e+00	0	49	104	0	60	1048575
2026-01-17 17:54:41.52	307.95	59.49	-83.1	-79.0	2.4	0.00e+00	0	49	104	0	60	1048575
2026-01-17 17:54:44.54	310.32	57.88	-83.1	-79.0	2.4	0.00e+00	0	49	104	0	60	1048572
2026-01-17 17:54:47.56	312.41	56.27	-83.5	-79.0	2.5	0.00e+00	0	49	104	0	60	1048575
2026-01-17 17:54:50.58	314.28	54.68	-83.1	-79.0	2.4	0.00e+00	0	49	104	0	60	1048564
2026-01-17 17:54:53.59	315.94	53.12	-83.5	-79.0	2.4	0.00e+00	0	49	104	0	60	1048571
2026-01-17 17:54:56.61	317.44	51.59	-83.5	-79.0	2.4	0.00e+00	0	49	104	0	60	1048575
2026-01-17 17:54:59.64	318.79	50.09	-83.1	-79.0	2.5	0.00e+00	0	49	104	0	60	1048569
2026-01-17 17:55:02.66	320.02	48.64	-83.5	-79.0	2.4	0.00e+00	0	49	104	0	60	1048574
2026-01-17 17:55:05.68	321.13	47.22	-83.5	-79.0	2.4	0.00e+00	0	49	104	0	60	1048570
2026-01-17 17:55:08.70	322.14	45.84	-83.1	-79.0	2.3	0.00e+00	0	49	104	0	60	1048575
2026-01-17 17:55:11.72	323.08	44.51	-83.5	-79.0	2.4	0.00e+00	0	49	104	0	60	1048575
2026-01-17 17:55:14.73	323.93	43.22	-83.5	-79.0	2.5	0.00e+00	0	49	104	0	60	1048572
2026-01-17 17:55:17.76	324.72	41.97	-83.5	-79.0	2.4	0.00e+00	0	49	104	0	60	1048575
2026-01-17 17:55:20.77	325.45	40.76	-83.5	-79.0	2.4	0.00e+00	0	49	104	0	60	1048575
2026-01-17 17:55:23.79	326.12	39.59	-83.1	-79.0	2.4	0.00e+00	0	49	104	0	60	1048567
2026-01-17 17:55:26.80	326.75	38.47	-83.5	-79.0	2.3	0.00e+00	0	49	104	0	60	1048572
2026-01-17 17:55:29.82	327.34	37.38	-83.5	-79.0	2.4	0.00e+00	0	49	104	0	60	1048570
2026-01-17 17:55:32.84	327.89	36.32	-83.1	-79.0	2.4	0.00e+00	0	49	104	0	60	1048574
2026-01-17 17:55:35.87	328.40	35.30	-83.5	-79.0	2.4	0.00e+00	0	49	104	0	60	1048575
2026-01-17 17:55:38.89	328.89	34.32	-83.5	-79.0	2.3	0.00e+00	0	49	104	0	60	1048575
2026-01-17 17:55:41.91	329.34	33.36	-83.1	-79.0	2.4	0.00e+00	0	49	104	0	60	1048573
2026-01-17 17:55:44.94	329.77	32.44	-83.5	-79.0	2.4	0.00e+00	0	49	104	0	60	1048571
2026-01-17 17:55:47.96	330.17	31.55	-83.5	-79.0	2.5	0.00e+00	0	49	104	0	60	1048574
2026-01-17 17:55:50.99	330.55	30.69	-83.5	-79.0	2.5	0.00e+00	0	49	104	0	60	1048574
2026-01-17 17:55:54.00	330.91	29.86	-83.5	-79.0	2.5	0.00e+00	0	49	104	0	60	1048574
2026-01-17 17:55:57.03	331.26	29.06	-83.1	-79.0	2.5	0.00e+00	0	49	104	0	60	1048575
2026-01-17 17:56:00.04	331.58	28.28	-83.5	-79.0	2.4	0.00e+00	0	49	104	0	60	1048573
2026-01-17 17:56:03.06	331.89	27.52	-83.5	-79.0	2.3	0.00e+00	0	49	104	0	60	1048569
2026-01-17 17:56:06.08	332.18	26.79	-82.8	-79.0	2.4	0.00e+00	0	49	104	0	60	1048566
2026-01-17 17:56:09.10	332.46	26.08	-83.1	-79.0	2.3	0.00e+00	0	49	104	0	60	1048575
2026-01-17 17:56:12.12	332.73	25.40	-83.5	-79.0	2.4	0.00e+00	0	49	104	0	60	1048566
2026-01-17 17:56:15.14	332.99	24.73	-83.1	-79.0	2.4	0.00e+00	0	49	104	0	60	1048574
2026-01-17 17:56:18.17	333.23	24.08	-83.5	-79.0	2.4	0.00e+00	0	49	104	0	60	1048575
2026-01-17 17:56:21.18	333.47	23.45	-83.5	-79.0	2.3	0.00e+00	0	49	104	0	60	1048573
2026-01-17 17:56:24.20	333.69	22.84	-83.5	-79.0	2.5	0.00e+00	0	49	104	0	60	1048575
2026-01-17 17:56:27.22	333.91	22.25	-83.1	-79.0	2.4	0.00e+00	0	49	104	0	60	1048573
2026-01-17 17:56:30.24	334.12	21.67	-83.1	-79.0	2.4	0.00e+00	0	49	104	0	60	1048572
2026-01-17 17:56:33.25	334.32	21.11	-83.1	-79.0	2.4	0.00e+00	0	49	104	0	60	1048574
2026-01-17 17:56:36.27	334.51	20.56	-83.5	-79.0	2.4	0.00e+00	0	49	104	0	60	1048574
2026-01-17 17:56:39.30	334.70	20.03	-82.8	-79.0	2.3	0.00e+00	0	49	104	0	60	1048573
2026-01-17 17:56:42.32	334.88	19.51	-83.5	-79.0	2.4	0.00e+00	0	49	104	0	60	1048568
2026-01-17 17:56:45.34	335.05	19.00	-83.5	-79.0	2.5	0.00e+00	0	49	104	0	60	1048574
2026-01-17 17:56:48.36	335.21	18.51	-83.1	-79.0	2.4	0.00e+00	0	49	104	0	60	1048574
2026-01-17 17:56:51.39	335.38	18.03	-83.5	-79.0	2.4	0.00e+00	0	49	104	0	60	1048575
2026-01-17 17:56:54.41	335.53	17.56	-83.5	-79.0	2.4	0.00e+00	0	49	104	0	60	1048575
2026-01-17 17:56:57.43	335.68	17.10	-83.5	-79.0	2.3	0.00e+00	0	49	104	0	60	1048571
2026-01-17 17:57:00.45	335.83	16.65	-83.5	-79.0	2.4	0.00e+00	0	49	104	0	60	1048573
2026-01-17 17:57:03.46	335.97	16.21	-82.8	-79.0	2.3	0.00e+00	0	49	104	0	60	1048575
2026-01-17 17:57:06.48	336.11	15.79	-83.1	-79.0	2.3	0.00e+00	0	49	104	0	60	1048575
2026-01-17 17:57:09.50	336.24	15.37	-83.5	-79.0	2.4	0.00e+00	0	49	104	0	60	1048575
2026-01-17 17:57:12.53	336.37	14.96	-83.1	-79.0	2.4	0.00e+00	0	49	104	0	60	1048571
2026-01-17 17:57:15.55	336.50	14.55	-83.5	-79.0	2.4	0.00e+00	0	49	104	0	60	1048573
2026-01-17 17:57:18.57	336.62	14.16	-83.5	-79.0	2.4	0.00e+00	0	49	104	0	60	1048574
2026-01-17 17:57:21.59	336.74	13.78	-83.5	-79.0	2.4	0.00e+00	0	49	104	0	60	1048574
2026-01-17 17:57:24.61	336.85	13.40	-83.5	-79.0	2.4	0.00e+00	0	49	104	0	60	1048575
2026-01-17 17:57:27.63	336.97	13.03	-83.5	-79.0	2.4	0.00e+00	0	49	104	0	60	1048575
2026-01-17 17:57:30.65	337.08	12.67	-83.5	-79.0	2.5	0.00e+00	0	49	104	0	60	1048570
2026-01-17 17:57:33.68	337.18	12.31	-83.5	-79.0	2.3	0.00e+00	0	49	104	0	60	1048570
2026-01-17 17:57:36.70	337.29	11.96	-83.1	-79.0	2.3	0.00e+00	0	49	104	0	60	1048574
2026-01-17 17:57:39.72	337.39	11.62	-83.5	-79.0	2.3	0.00e+00	0	49	104	0	60	1048575
2026-01-17 17:57:42.73	337.49	11.28	-83.5	-79.0	2.4	0.00e+00	0	49	104	0	60	1048575
2026-01-17 17:57:45.75	337.59	10.95	-83.1	-79.0	2.4	0.00e+00	0	49	104	0	60	1048574
2026-01-17 17:57:48.77	337.68	10.63	-83.5	-79.0	2.4	0.00e+00	0	49	104	0	60	1048573
2026-01-17 17:57:51.79	337.77	10.31	-83.5	-79.0	2.3	0.00e+00	0	49	104	0	60	1048575
2026-01-17 17:57:54.81	337.86	9.99	-83.5	-79.0	2.4	0.00e+00	0	49	104	0	60	1048572
2026-01-17 17:57:57.83	337.95	9.68	-83.5	-79.0	2.5	0.00e+00	0	49	104	0	60	1048575
2026-01-17 17:58:00.85	338.04	9.38	-83.1	-79.0	2.4	0.00e+00	0	49	104	0	60	1048571
2026-01-17 17:58:03.87	338.12	9.08	-83.5	-79.0	2.4	0.00e+00	0	49	104	0	60	1048575
2026-01-17 17:58:06.90	338.21	8.78	-83.1	-79.0	2.4	0.00e+00	0	49	104	0	60	1048575
2026-01-17 17:58:09.92	338.29	8.49	-83.1	-79.0	2.3	0.00e+00	0	49	104	0	60	1048574
2026-01-17 17:58:12.93	338.37	8.21	-83.5	-79.0	2.4	0.00e+00	0	49	104	0	60	1048574
2026-01-17 17:58:15.95	338.45	7.93	-83.5	-79.0	2.5	0.00e+00	0	49	104	0	60	1048566
2026-01-17 17:58:18.97	338.52	7.65	-83.1	-79.0	2.4	0.00e+00	0	49	104	0	60	1048571
2026-01-17 17:58:21.99	338.60	7.38	-83.5	-79.0	2.5	0.00e+00	0	49	104	0	60	1048574
2026-01-17 17:58:25.01	338.67	7.11	-83.5	-79.0	2.4	0.00e+00	0	49	104	0	60	1048570
2026-01-17 17:58:28.03	338.74	6.84	-83.1	-79.0	2.4	0.00e+00	0	49	104	0	60	1048570
2026-01-17 17:58:31.05	338.82	6.58	-83.5	-79.0	2.4	0.00e+00	0	49	104	0	60	1048572
2026-01-17 17:58:34.07	338.88	6.32	-83.1	-79.0	2.4	0.00e+00	0	49	104	0	60	1048575
2026-01-17 17:58:37.09	338.95	6.06	-83.5	-79.0	2.5	0.00e+00	0	49	104	0	60	1048574
2026-01-17 17:58:40.11	339.02	5.81	-83.5	-79.0	2.4	0.00e+00	0	49	104	0	60	1048571
2026-01-17 17:58:43.12	339.09	5.56	-83.1	-79.0	2.4	0.00e+00	0	49	104	0	60	1048572
2026-01-17 17:58:46.14	339.15	5.32	-83.5	-79.0	2.5	0.00e+00	0	49	104	0	60	1048575
2026-01-17 17:58:49.16	339.22	5.07	-83.5	-79.0	2.4	0.00e+00	0	49	104	0	60	1048570
2026-01-17 17:58:52.18	339.28	4.83	-83.1	-79.0	2.4	0.00e+00	0	49	104	0	60	1048572
2026-01-17 17:58:55.20	339.34	4.60	-83.5	-79.0	2.5	0.00e+00	0	49	104	0	60	1048574
2026-01-17 17:58:58.22	339.40	4.36	-83.5	-79.0	2.4	0.00e+00	0	49	104	0	60	1048570
2026-01-17 17:59:01.25	339.46	4.13	-83.5	-79.0	2.3	0.00e+00	0	49	104	0	60	1048573
2026-01-17 17:59:04.26	339.52	3.90	-83.5	-79.0	2.4	0.00e+00	0	49	104	0	60	1048565
2026-01-17 17:59:07.27	339.58	3.67	-82.8	-79.0	2.4	0.00e+00	0	49	104	0	60	1048575
2026-01-17 17:59:10.29	339.64	3.45	-83.5	-79.0	2.4	0.00e+00	0	49	104	0	60	1048575
2026-01-17 17:59:13.31	339.69	3.23	-83.5	-79.0	2.3	0.00e+00	0	49	104	0	60	1048575
2026-01-17 17:59:16.32	339.75	3.01	-83.1	-79.0	2.4	0.00e+00	0	49	104	0	60	1048575
2026-01-17 17:59:19.34	339.80	2.79	-83.5	-79.0	2.4	0.00e+00	0	49	104	0	60	1048573
2026-01-17 17:59:22.36	339.86	2.57	-83.5	-79.0	2.4	0.00e+00	0	49	104	0	60	1048574
2026-01-17 17:59:25.38	339.91	2.36	-83.1	-79.0	2.4	0.00e+00	0	49	104	0	60	1048571
2026-01-17 17:59:28.40	339.96	2.15	-83.5	-79.0	2.4	0.00e+00	0	49	104	0	60	1048568
2026-01-17 17:59:31.42	340.01	1.94	-83.1	-79.0	2.5	0.00e+00	0	49	104	0	60	1048574
2026-01-17 17:59:34.43	340.07	1.73	-83.5	-79.0	2.4	0.00e+00	0	49	104	0	60	1048574
2026-01-17 17:59:37.44	340.12	1.53	-83.5	-79.0	2.3	0.00e+00	0	49	104	0	60	1048575
2026-01-17 17:59:40.47	340.17	1.33	-83.1	-79.0	2.4	0.00e+00	0	49	104	0	60	1048571
2026-01-17 17:59:43.48	340.22	1.12	-83.5	-79.0	2.3	0.00e+00	0	49	104	0	60	1048573
2026-01-17 17:59:46.50	340.26	0.93	-83.5	-79.0	2.3	0.00e+00	0	49	104	0	60	1048570
2026-01-17 17:59:49.52	340.31	0.73	-82.8	-79.0	2.4	0.00e+00	0	49	104	0	60	1048575
2026-01-17 17:59:52.54	340.36	0.53	-83.1	-79.0	2.4	0.00e+00	0	49	104	0	60	1048569
2026-01-17 17:59:55.55	340.41	0.34	-83.5	-79.0	2.4	0.00e+00	0	49	104	0	60	1048574
2026-01-17 17:59:58.56	340.45	0.14	-83.5	-79.0	2.4	0.00e+00	0	49	104	0	60	1048574
2026-01-17 18:00:01.59	340.50	-0.05	-83.5	-79.0	2.5	0.00e+00	0	49	104	0	60	1048565

#Closed at: 2026-01-17 18:00:01
#Recorded file [0 MB]: D:/Data/35015_260117_204821.dat