passes_logs/2026/01/17/R3.2S-Naryan-Mar/R3.2S-Naryan-Mar__20260117_192329_TY-42_rec.log

#Pass ID: 20260117_192329_TY-42
#Satellite: TY-42
#Configuration: TY-42
#almurnet v.1.7.20240730
#Start time: 2026-01-17 19:23:30

#Version: 2.2.20231116
#Station: R3.2S-Naryan-Mar
#Location: 53.008057 lon 67.646978 lat
#TLE: 1 64048U 25103A   26017.21478009  .00008006  00000-0  38191-3 0 09999
#TLE: 2 64048 097.4122 092.5907 0001889 091.4381 313.8037 15.19150120 37159

#Time	Az	El	Level	Level2	SNR	BER	BlckErr	Temp	State	Recorded	gain1	gain2
2026-01-17 19:23:30.94	209.72	0.09	-83.1	-79.0	2.3	0.00e+00	0	45	0	0	60	1048574
2026-01-17 19:23:33.96	209.97	0.26	-83.1	-79.0	2.4	0.00e+00	0	46	104	0	60	1048575
2026-01-17 19:23:36.98	210.22	0.43	-83.5	-79.0	2.4	0.00e+00	0	47	104	0	60	1048575
2026-01-17 19:23:40.00	210.48	0.60	-83.1	-79.0	2.4	0.00e+00	0	47	104	0	60	1048572
2026-01-17 19:23:43.02	210.75	0.78	-83.1	-79.0	2.4	0.00e+00	0	47	104	0	60	1048572
2026-01-17 19:23:46.04	211.02	0.95	-83.5	-79.0	2.5	0.00e+00	0	47	104	0	60	1048574
2026-01-17 19:23:49.05	211.29	1.12	-83.5	-79.0	2.5	0.00e+00	0	47	104	0	60	1048572
2026-01-17 19:23:52.07	211.56	1.30	-83.5	-79.0	2.4	0.00e+00	0	47	104	0	60	1048574
2026-01-17 19:23:55.09	211.84	1.47	-83.5	-79.0	2.5	0.00e+00	0	47	104	0	60	1048574
2026-01-17 19:23:58.11	212.12	1.65	-82.8	-79.0	2.4	0.00e+00	0	47	104	0	60	1048575
2026-01-17 19:24:01.13	212.41	1.83	-83.5	-79.0	2.5	0.00e+00	0	47	104	0	60	1048570
2026-01-17 19:24:04.15	212.70	2.01	-83.5	-79.0	2.4	0.00e+00	0	47	104	0	60	1048573
2026-01-17 19:24:07.17	213.00	2.19	-83.1	-79.0	2.3	0.00e+00	0	47	104	0	60	1048575
2026-01-17 19:24:10.19	213.30	2.37	-83.5	-79.0	2.4	0.00e+00	0	47	104	0	60	1048564
2026-01-17 19:24:13.21	213.60	2.55	-83.5	-79.0	2.4	0.00e+00	0	47	104	0	60	1048573
2026-01-17 19:24:16.23	213.91	2.73	-83.1	-79.0	2.4	0.00e+00	0	47	104	0	60	1048574
2026-01-17 19:24:19.25	214.23	2.92	-83.5	-79.0	2.3	0.00e+00	0	47	104	0	60	1048572
2026-01-17 19:24:22.27	214.55	3.10	-83.1	-79.0	2.4	0.00e+00	0	47	104	0	60	1048573
2026-01-17 19:24:25.29	214.87	3.29	-83.5	-79.0	2.4	0.00e+00	0	48	104	0	60	1048573
2026-01-17 19:24:28.32	215.20	3.48	-83.5	-79.0	2.3	0.00e+00	0	48	104	0	60	1048575
2026-01-17 19:24:31.33	215.53	3.66	-83.1	-79.0	2.4	0.00e+00	0	48	104	0	60	1048565
2026-01-17 19:24:34.35	215.87	3.85	-83.5	-79.0	2.4	0.00e+00	0	48	104	0	60	1048573
2026-01-17 19:24:37.37	216.22	4.04	-83.5	-79.0	2.5	0.00e+00	0	48	104	0	60	1048574
2026-01-17 19:24:40.39	216.57	4.23	-83.1	-79.0	2.5	0.00e+00	0	48	104	0	60	1048571
2026-01-17 19:24:43.41	216.92	4.43	-83.5	-79.0	2.4	0.00e+00	0	48	104	0	60	1048572
2026-01-17 19:24:46.43	217.29	4.62	-83.5	-79.0	2.4	0.00e+00	0	48	104	0	60	1048575
2026-01-17 19:24:49.45	217.65	4.81	-83.1	-79.0	2.4	0.00e+00	0	48	104	0	60	1048573
2026-01-17 19:24:52.47	218.03	5.01	-83.5	-79.0	2.4	0.00e+00	0	48	104	0	60	1048572
2026-01-17 19:24:55.49	218.41	5.21	-83.5	-79.0	2.4	0.00e+00	0	48	104	0	60	1048574
2026-01-17 19:24:58.51	218.79	5.40	-83.5	-79.0	2.4	0.00e+00	0	48	104	0	60	1048575
2026-01-17 19:25:01.52	219.18	5.60	-83.5	-79.0	2.4	0.00e+00	0	48	104	0	60	1048572
2026-01-17 19:25:04.54	219.58	5.80	-82.8	-79.0	2.4	0.00e+00	0	48	104	0	60	1048573
2026-01-17 19:25:07.56	219.99	6.00	-83.5	-79.0	2.5	0.00e+00	0	48	104	0	60	1048568
2026-01-17 19:25:10.58	220.40	6.20	-83.5	-79.0	2.4	0.00e+00	0	48	104	0	60	1048569
2026-01-17 19:25:13.60	220.82	6.41	-83.1	-79.0	2.3	0.00e+00	0	48	104	0	60	1048572
2026-01-17 19:25:16.62	221.25	6.61	-83.5	-79.0	2.3	0.00e+00	0	48	104	0	60	1048572
2026-01-17 19:25:19.65	221.68	6.82	-83.5	-79.0	2.5	0.00e+00	0	48	104	0	60	1048573
2026-01-17 19:25:22.66	222.12	7.02	-83.5	-79.0	2.4	0.00e+00	0	48	104	0	60	1048573
2026-01-17 19:25:25.68	222.57	7.23	-83.5	-79.0	2.4	0.00e+00	0	48	104	0	60	1048569
2026-01-17 19:25:28.69	223.03	7.43	-83.1	-79.0	2.4	0.00e+00	0	48	104	0	60	1048570
2026-01-17 19:25:31.71	223.49	7.64	-83.5	-79.0	2.4	0.00e+00	0	48	104	0	60	1048570
2026-01-17 19:25:34.74	223.97	7.85	-83.5	-79.0	2.3	0.00e+00	0	48	104	0	60	1048574
2026-01-17 19:25:37.75	224.44	8.06	-83.1	-79.0	2.4	0.00e+00	0	48	104	0	60	1048575
2026-01-17 19:25:40.78	224.94	8.27	-83.5	-79.0	2.4	0.00e+00	0	48	104	0	60	1048574
2026-01-17 19:25:43.79	225.43	8.49	-83.5	-79.0	2.4	0.00e+00	0	48	104	0	60	1048575
2026-01-17 19:25:46.81	225.94	8.70	-83.1	-79.0	2.4	0.00e+00	0	48	104	0	60	1048571
2026-01-17 19:25:49.83	226.45	8.91	-83.5	-79.0	2.4	0.00e+00	0	48	104	0	60	1048575
2026-01-17 19:25:52.85	226.98	9.13	-83.1	-79.0	2.4	0.00e+00	0	48	104	0	60	1048574
2026-01-17 19:25:55.87	227.51	9.34	-83.1	-79.0	2.5	0.00e+00	0	48	104	0	60	1048574
2026-01-17 19:25:58.88	228.05	9.55	-83.5	-79.0	2.4	0.00e+00	0	48	104	0	60	1048575
2026-01-17 19:26:01.89	228.61	9.77	-83.1	-79.0	2.4	0.00e+00	0	48	104	0	60	1048575
2026-01-17 19:26:04.91	229.17	9.99	-83.5	-79.0	2.3	0.00e+00	0	48	104	0	60	1048575
2026-01-17 19:26:07.94	229.74	10.20	-83.5	-79.0	2.4	0.00e+00	0	48	104	0	60	1048575
2026-01-17 19:26:10.95	230.32	10.42	-83.1	-79.0	2.5	0.00e+00	0	48	104	0	60	1048572
2026-01-17 19:26:13.96	230.91	10.64	-83.5	-79.0	2.4	0.00e+00	0	49	104	0	60	1048566
2026-01-17 19:26:16.97	231.52	10.85	-83.5	-79.0	2.5	0.00e+00	0	49	104	0	60	1048572
2026-01-17 19:26:19.99	232.13	11.07	-83.1	-79.0	2.4	0.00e+00	0	49	104	0	60	1048574
2026-01-17 19:26:23.01	232.76	11.29	-83.5	-79.0	2.4	0.00e+00	0	49	104	0	60	1048575
2026-01-17 19:26:26.04	233.39	11.50	-83.5	-79.0	2.3	0.00e+00	0	48	104	0	60	1048575
2026-01-17 19:26:29.06	234.04	11.72	-83.1	-79.0	2.4	0.00e+00	0	48	104	0	60	1048575
2026-01-17 19:26:32.08	234.70	11.94	-83.5	-79.0	2.4	0.00e+00	0	49	104	0	60	1048575
2026-01-17 19:26:35.10	235.37	12.15	-83.1	-79.0	2.4	0.00e+00	0	49	104	0	60	1048571
2026-01-17 19:26:38.12	236.05	12.37	-83.5	-79.0	2.5	0.00e+00	0	48	104	0	60	1048573
2026-01-17 19:26:41.14	236.74	12.58	-83.5	-79.0	2.4	0.00e+00	0	49	104	0	60	1048570
2026-01-17 19:26:44.17	237.45	12.79	-83.1	-79.0	2.4	0.00e+00	0	49	104	0	60	1048575
2026-01-17 19:26:47.18	238.17	13.01	-83.5	-79.0	2.4	0.00e+00	0	49	104	0	60	1048574
2026-01-17 19:26:50.20	238.90	13.22	-83.5	-79.0	2.3	0.00e+00	0	49	104	0	60	1048575
2026-01-17 19:26:53.21	239.63	13.43	-83.5	-79.0	2.4	0.00e+00	0	49	104	0	60	1048567
2026-01-17 19:26:56.23	240.39	13.63	-83.5	-79.0	2.4	0.00e+00	0	49	104	0	60	1048572
2026-01-17 19:26:59.26	241.16	13.84	-83.5	-79.0	2.4	0.00e+00	0	49	104	0	60	1048574
2026-01-17 19:27:02.27	241.93	14.04	-83.5	-79.0	2.4	0.00e+00	0	49	104	0	60	1048574
2026-01-17 19:27:05.29	242.72	14.25	-83.5	-79.0	2.4	0.00e+00	0	49	104	0	60	1048573
2026-01-17 19:27:08.31	243.53	14.45	-83.1	-79.0	2.4	0.00e+00	0	49	104	0	60	1048565
2026-01-17 19:27:11.33	244.34	14.64	-83.5	-79.0	2.4	0.00e+00	0	49	104	0	60	1048573
2026-01-17 19:27:14.36	245.17	14.84	-83.5	-79.0	2.5	0.00e+00	0	49	104	0	60	1048574
2026-01-17 19:27:17.38	246.01	15.03	-83.1	-79.0	2.4	0.00e+00	0	49	104	0	60	1048574
2026-01-17 19:27:20.39	246.86	15.22	-83.5	-79.0	2.5	0.00e+00	0	49	104	0	60	1048575
2026-01-17 19:27:23.40	247.72	15.40	-83.1	-79.0	2.3	0.00e+00	0	49	104	0	60	1048573
2026-01-17 19:27:26.42	248.60	15.58	-82.8	-79.0	2.4	0.00e+00	0	49	104	0	60	1048573
2026-01-17 19:27:29.43	249.49	15.76	-83.5	-79.0	2.4	0.00e+00	0	49	104	0	60	1048572
2026-01-17 19:27:32.45	250.39	15.93	-83.1	-79.0	2.5	0.00e+00	0	49	104	0	60	1048575
2026-01-17 19:27:35.47	251.30	16.10	-83.5	-79.0	2.4	0.00e+00	0	49	104	0	60	1048575
2026-01-17 19:27:38.49	252.23	16.26	-83.5	-79.0	2.4	0.00e+00	0	49	104	0	60	1048567
2026-01-17 19:27:41.50	253.16	16.42	-82.8	-79.0	2.3	0.00e+00	0	49	104	0	60	1048559
2026-01-17 19:27:44.52	254.11	16.57	-83.5	-79.0	2.4	0.00e+00	0	49	104	0	60	1048573
2026-01-17 19:27:47.54	255.06	16.72	-83.5	-79.0	2.4	0.00e+00	0	49	104	0	60	1048574
2026-01-17 19:27:50.56	256.03	16.86	-83.1	-79.0	2.4	0.00e+00	0	49	104	0	60	1048572
2026-01-17 19:27:53.58	257.01	16.99	-83.5	-79.0	2.5	0.00e+00	0	48	104	0	60	1048574
2026-01-17 19:27:56.60	258.00	17.12	-83.5	-79.0	2.3	0.00e+00	0	49	104	0	60	1048575
2026-01-17 19:27:59.62	259.00	17.24	-83.5	-79.0	2.4	0.00e+00	0	49	104	0	60	1048571
2026-01-17 19:28:02.64	260.00	17.36	-83.5	-79.0	2.5	0.00e+00	0	49	104	0	60	1048569
2026-01-17 19:28:05.66	261.02	17.47	-83.1	-79.0	2.5	0.00e+00	0	49	104	0	60	1048572
2026-01-17 19:28:08.68	262.04	17.57	-83.5	-79.0	2.4	0.00e+00	0	49	104	0	60	1048570
2026-01-17 19:28:11.70	263.07	17.66	-83.5	-79.0	2.4	0.00e+00	0	48	104	0	60	1048569
2026-01-17 19:28:14.72	264.11	17.75	-82.8	-79.0	2.4	0.00e+00	0	49	104	0	60	1048573
2026-01-17 19:28:17.74	265.15	17.83	-83.5	-79.0	2.4	0.00e+00	0	49	104	0	60	1048575
2026-01-17 19:28:20.77	266.20	17.90	-83.5	-79.0	2.4	0.00e+00	0	49	104	0	60	1048568
2026-01-17 19:28:23.79	267.26	17.96	-82.8	-79.0	2.5	0.00e+00	0	49	104	0	60	1048575
2026-01-17 19:28:26.81	268.32	18.01	-83.5	-79.0	2.4	0.00e+00	0	49	104	0	60	1048575
2026-01-17 19:28:29.82	269.38	18.06	-83.1	-79.0	2.4	0.00e+00	0	49	104	0	60	1048570
2026-01-17 19:28:32.84	270.44	18.09	-83.5	-79.0	2.4	0.00e+00	0	49	104	0	60	1048572
2026-01-17 19:28:35.87	271.51	18.12	-83.5	-79.0	2.4	0.00e+00	0	49	104	0	60	1048570
2026-01-17 19:28:38.89	272.58	18.14	-83.1	-79.0	2.4	0.00e+00	0	49	104	0	60	1048575
2026-01-17 19:28:41.92	273.66	18.15	-83.5	-79.0	2.5	0.00e+00	0	49	104	0	60	1048570
2026-01-17 19:28:44.93	274.73	18.15	-83.5	-79.0	2.4	0.00e+00	0	49	104	0	60	1048573
2026-01-17 19:28:47.95	275.80	18.15	-83.1	-79.0	2.3	0.00e+00	0	49	104	0	60	1048573
2026-01-17 19:28:50.97	276.87	18.13	-83.5	-79.0	2.4	0.00e+00	0	49	104	0	60	1048573
2026-01-17 19:28:54.00	277.94	18.11	-83.5	-79.0	2.4	0.00e+00	0	49	104	0	60	1048574
2026-01-17 19:28:57.02	279.01	18.07	-83.1	-79.0	2.5	0.00e+00	0	49	104	0	60	1048571
2026-01-17 19:29:00.03	280.06	18.03	-83.5	-79.0	2.4	0.00e+00	0	49	104	0	60	1048574
2026-01-17 19:29:03.03	281.12	17.98	-83.5	-79.0	2.4	0.00e+00	0	49	104	0	60	1048574
2026-01-17 19:29:06.04	282.17	17.92	-83.5	-79.0	2.3	0.00e+00	0	49	104	0	60	1048574
2026-01-17 19:29:09.06	283.22	17.86	-83.5	-79.0	2.4	0.00e+00	0	49	104	0	60	1048574
2026-01-17 19:29:12.08	284.26	17.78	-83.1	-79.0	2.4	0.00e+00	0	49	104	0	60	1048575
2026-01-17 19:29:15.10	285.30	17.70	-83.5	-79.0	2.4	0.00e+00	0	49	104	0	60	1048574
2026-01-17 19:29:18.12	286.33	17.61	-83.5	-79.0	2.5	0.00e+00	0	49	104	0	60	1048574
2026-01-17 19:29:21.14	287.36	17.51	-82.8	-79.0	2.5	0.00e+00	0	49	104	0	60	1048570
2026-01-17 19:29:24.16	288.37	17.41	-83.5	-79.0	2.5	0.00e+00	0	49	104	0	60	1048570
2026-01-17 19:29:27.19	289.38	17.30	-83.5	-79.0	2.4	0.00e+00	0	49	104	0	60	1048573
2026-01-17 19:29:30.21	290.38	17.18	-83.5	-79.0	2.4	0.00e+00	0	49	104	0	60	1048571
2026-01-17 19:29:33.22	291.37	17.05	-83.1	-79.0	2.4	0.00e+00	0	49	104	0	60	1048575
2026-01-17 19:29:36.23	292.34	16.92	-83.1	-79.0	2.4	0.00e+00	0	49	104	0	60	1048572
2026-01-17 19:29:39.26	293.32	16.78	-83.1	-79.0	2.4	0.00e+00	0	49	104	0	60	1048570
2026-01-17 19:29:42.28	294.28	16.64	-83.5	-79.0	2.4	0.00e+00	0	49	104	0	60	1048567
2026-01-17 19:29:45.30	295.22	16.49	-82.8	-79.0	2.4	0.00e+00	0	49	104	0	60	1048570
2026-01-17 19:29:48.33	296.16	16.34	-83.5	-79.0	2.5	0.00e+00	0	49	104	0	60	1048575
2026-01-17 19:29:51.35	297.09	16.18	-83.5	-79.0	2.5	0.00e+00	0	49	104	0	60	1048568
2026-01-17 19:29:54.37	298.01	16.01	-82.8	-79.0	2.5	0.00e+00	0	49	104	0	60	1048574
2026-01-17 19:29:57.39	298.91	15.84	-83.5	-79.0	2.5	0.00e+00	0	49	104	0	60	1048574
2026-01-17 19:30:00.41	299.80	15.67	-83.5	-79.0	2.3	0.00e+00	0	49	104	0	60	1048570
2026-01-17 19:30:03.44	300.68	15.49	-83.5	-79.0	2.4	0.00e+00	0	49	104	0	60	1048566
2026-01-17 19:30:06.46	301.55	15.31	-83.5	-79.0	2.4	0.00e+00	0	49	104	0	60	1048575
2026-01-17 19:30:09.48	302.40	15.12	-83.1	-79.0	2.3	0.00e+00	0	49	104	0	60	1048572
2026-01-17 19:30:12.48	303.24	14.94	-83.5	-79.0	2.4	0.00e+00	0	49	104	0	60	1048575
2026-01-17 19:30:15.50	304.07	14.74	-83.5	-79.0	2.4	0.00e+00	0	49	104	0	60	1048575
2026-01-17 19:30:18.53	304.89	14.55	-83.1	-79.0	2.4	0.00e+00	0	49	104	0	60	1048575
2026-01-17 19:30:21.54	305.69	14.35	-83.5	-79.0	2.4	0.00e+00	0	49	104	0	60	1048572
2026-01-17 19:30:24.55	306.48	14.15	-83.5	-79.0	2.4	0.00e+00	0	49	104	0	60	1048564
2026-01-17 19:30:27.57	307.26	13.95	-83.1	-79.0	2.2	0.00e+00	0	49	104	0	60	1048571
2026-01-17 19:30:30.59	308.03	13.75	-83.5	-79.0	2.4	0.00e+00	0	49	104	0	60	1048575
2026-01-17 19:30:33.62	308.79	13.54	-83.1	-79.0	2.4	0.00e+00	0	49	104	0	60	1048569
2026-01-17 19:30:36.64	309.53	13.34	-83.5	-79.0	2.4	0.00e+00	0	49	104	0	60	1048575
2026-01-17 19:30:39.65	310.26	13.13	-83.5	-79.0	2.5	0.00e+00	0	49	104	0	60	1048575
2026-01-17 19:30:42.67	310.98	12.92	-83.1	-79.0	2.4	0.00e+00	0	49	104	0	60	1048574
2026-01-17 19:30:45.69	311.69	12.71	-83.5	-79.0	2.4	0.00e+00	0	49	104	0	60	1048563
2026-01-17 19:30:48.71	312.38	12.49	-83.5	-79.0	2.4	0.00e+00	0	49	104	0	60	1048574
2026-01-17 19:30:51.74	313.07	12.28	-83.1	-79.0	2.4	0.00e+00	0	49	104	0	60	1048574
2026-01-17 19:30:54.76	313.74	12.07	-83.5	-79.0	2.4	0.00e+00	0	49	104	0	60	1048575
2026-01-17 19:30:57.78	314.40	11.85	-83.5	-79.0	2.4	0.00e+00	0	49	104	0	60	1048572
2026-01-17 19:31:00.80	315.05	11.64	-83.1	-79.0	2.4	0.00e+00	0	49	104	0	60	1048575
2026-01-17 19:31:03.81	315.68	11.42	-83.5	-79.0	2.4	0.00e+00	0	49	104	0	60	1048569
2026-01-17 19:31:06.83	316.31	11.21	-83.1	-79.0	2.4	0.00e+00	0	49	104	0	60	1048575
2026-01-17 19:31:09.85	316.93	10.99	-83.5	-79.0	2.4	0.00e+00	0	49	104	0	60	1048571
2026-01-17 19:31:12.87	317.53	10.78	-83.1	-79.0	2.4	0.00e+00	0	49	104	0	60	1048573
2026-01-17 19:31:15.89	318.13	10.56	-83.1	-79.0	2.5	0.00e+00	0	49	104	0	60	1048574
2026-01-17 19:31:18.90	318.71	10.35	-83.5	-79.0	2.3	0.00e+00	0	49	104	0	60	1048571
2026-01-17 19:31:21.93	319.29	10.13	-83.5	-79.0	2.4	0.00e+00	0	49	104	0	60	1048567
2026-01-17 19:31:24.95	319.85	9.92	-82.8	-79.0	2.4	0.00e+00	0	49	104	0	60	1048569
2026-01-17 19:31:27.97	320.41	9.70	-83.5	-79.0	2.3	0.00e+00	0	49	104	0	60	1048574
2026-01-17 19:31:30.99	320.95	9.49	-83.1	-79.0	2.3	0.00e+00	0	49	104	0	60	1048573
2026-01-17 19:31:34.01	321.49	9.28	-83.5	-79.0	2.5	0.00e+00	0	49	104	0	60	1048574
2026-01-17 19:31:37.03	322.02	9.06	-83.5	-79.0	2.4	0.00e+00	0	49	104	0	60	1048573
2026-01-17 19:31:40.05	322.53	8.85	-83.1	-79.0	2.4	0.00e+00	0	49	104	0	60	1048575
2026-01-17 19:31:43.07	323.04	8.64	-83.5	-79.0	2.4	0.00e+00	0	49	104	0	60	1048575
2026-01-17 19:31:46.09	323.54	8.43	-83.5	-79.0	2.3	0.00e+00	0	49	104	0	60	1048572
2026-01-17 19:31:49.10	324.03	8.22	-83.1	-79.0	2.4	0.00e+00	0	49	104	0	60	1048575
2026-01-17 19:31:52.12	324.51	8.01	-83.5	-79.0	2.3	0.00e+00	0	49	104	0	60	1048572
2026-01-17 19:31:55.13	324.99	7.80	-83.5	-79.0	2.2	0.00e+00	0	49	104	0	60	1048575
2026-01-17 19:31:58.16	325.46	7.60	-83.1	-79.0	2.5	0.00e+00	0	49	104	0	60	1048572
2026-01-17 19:32:01.18	325.91	7.39	-83.5	-79.0	2.5	0.00e+00	0	49	104	0	60	1048570
2026-01-17 19:32:04.20	326.37	7.18	-83.5	-79.0	2.4	0.00e+00	0	49	104	0	60	1048573
2026-01-17 19:32:07.22	326.81	6.98	-83.1	-79.0	2.4	0.00e+00	0	49	104	0	60	1048569
2026-01-17 19:32:10.24	327.25	6.78	-83.5	-79.0	2.4	0.00e+00	0	49	104	0	60	1048574
2026-01-17 19:32:13.26	327.67	6.57	-83.5	-79.0	2.4	0.00e+00	0	49	104	0	60	1048575
2026-01-17 19:32:16.28	328.10	6.37	-83.5	-79.0	2.3	0.00e+00	0	49	104	0	60	1048574
2026-01-17 19:32:19.29	328.51	6.17	-83.5	-79.0	2.4	0.00e+00	0	49	104	0	60	1048575
2026-01-17 19:32:22.32	328.92	5.97	-82.8	-79.0	2.4	0.00e+00	0	49	104	0	60	1048571
2026-01-17 19:32:25.34	329.32	5.77	-83.5	-79.0	2.4	0.00e+00	0	49	104	0	60	1048575
2026-01-17 19:32:28.36	329.71	5.58	-83.5	-79.0	2.3	0.00e+00	0	49	104	0	60	1048572
2026-01-17 19:32:31.38	330.10	5.38	-83.1	-79.0	2.4	0.00e+00	0	49	104	0	60	1048575
2026-01-17 19:32:34.40	330.48	5.18	-83.5	-79.0	2.4	0.00e+00	0	49	104	0	60	1048575
2026-01-17 19:32:37.42	330.86	4.99	-83.5	-79.0	2.4	0.00e+00	0	49	104	0	60	1048570
2026-01-17 19:32:40.43	331.23	4.80	-83.1	-79.0	2.3	0.00e+00	0	49	104	0	60	1048574
2026-01-17 19:32:43.45	331.59	4.60	-83.5	-79.0	2.4	0.00e+00	0	49	104	0	60	1048574
2026-01-17 19:32:46.48	331.95	4.41	-83.1	-79.0	2.4	0.00e+00	0	49	104	0	60	1048572
2026-01-17 19:32:49.50	332.30	4.22	-83.5	-79.0	2.4	0.00e+00	0	49	104	0	60	1048572
2026-01-17 19:32:52.52	332.65	4.03	-83.5	-79.0	2.3	0.00e+00	0	49	104	0	60	1048574
2026-01-17 19:32:55.54	332.99	3.84	-83.1	-79.0	2.4	0.00e+00	0	49	104	0	60	1048573
2026-01-17 19:32:58.55	333.33	3.66	-83.5	-79.0	2.4	0.00e+00	0	49	104	0	60	1048575
2026-01-17 19:33:01.57	333.66	3.47	-83.5	-79.0	2.5	0.00e+00	0	49	104	0	60	1048575
2026-01-17 19:33:04.59	333.99	3.29	-83.1	-79.0	2.4	0.00e+00	0	49	104	0	60	1048571
2026-01-17 19:33:07.60	334.31	3.10	-83.5	-79.0	2.4	0.00e+00	0	49	104	0	60	1048575
2026-01-17 19:33:10.61	334.62	2.92	-83.5	-79.0	2.3	0.00e+00	0	49	104	0	60	1048575
2026-01-17 19:33:13.63	334.93	2.74	-83.5	-79.0	2.4	0.00e+00	0	49	104	0	60	1048575
2026-01-17 19:33:16.65	335.24	2.56	-83.1	-79.0	2.4	0.00e+00	0	49	104	0	60	1048572
2026-01-17 19:33:19.67	335.54	2.38	-82.8	-79.0	2.3	0.00e+00	0	49	104	0	60	1048575
2026-01-17 19:33:22.70	335.84	2.20	-83.1	-79.0	2.3	0.00e+00	0	49	104	0	60	1048564
2026-01-17 19:33:25.72	336.14	2.02	-83.5	-79.0	2.4	0.00e+00	0	49	104	0	60	1048574
2026-01-17 19:33:28.73	336.43	1.84	-83.1	-79.0	2.4	0.00e+00	0	49	104	0	60	1048575
2026-01-17 19:33:31.75	336.71	1.66	-83.5	-79.0	2.4	0.00e+00	0	49	104	0	60	1048574
2026-01-17 19:33:34.77	336.99	1.49	-83.5	-79.0	2.4	0.00e+00	0	49	104	0	60	1048570
2026-01-17 19:33:37.79	337.27	1.31	-83.1	-79.0	2.3	0.00e+00	0	49	104	0	60	1048570
2026-01-17 19:33:40.81	337.54	1.14	-83.5	-79.0	2.4	0.00e+00	0	49	104	0	60	1048572
2026-01-17 19:33:43.83	337.81	0.97	-83.5	-79.0	2.4	0.00e+00	0	49	104	0	60	1048569
2026-01-17 19:33:46.84	338.08	0.80	-83.5	-79.0	2.5	0.00e+00	0	49	104	0	60	1048570
2026-01-17 19:33:49.86	338.34	0.63	-83.5	-79.0	2.4	0.00e+00	0	49	104	0	60	1048575
2026-01-17 19:33:52.87	338.60	0.46	-83.5	-79.0	2.4	0.00e+00	0	49	104	0	60	1048569
2026-01-17 19:33:55.89	338.85	0.29	-83.5	-79.0	2.4	0.00e+00	0	49	104	0	60	1048570
2026-01-17 19:33:58.92	339.11	0.12	-83.5	-79.0	2.4	0.00e+00	0	49	104	0	60	1048572
2026-01-17 19:34:01.94	339.36	-0.05	-82.8	-79.0	2.4	0.00e+00	0	49	104	0	60	1048575

#Closed at: 2026-01-17 19:34:02
#Recorded file [0 MB]: D:/Data/35015_260117_222330.dat