passes_logs/2026/01/17/R3.2S-Naryan-Mar/R3.2S-Naryan-Mar__20260117_205258_SUOMI_NPP_rec.log

#Pass ID: 20260117_205258_SUOMI NPP
#Satellite: SUOMI NPP
#Configuration: NPP
#almurnet v.1.7.20240730
#Start time: 2026-01-17 20:53:00

#Version: 2.2.20231116
#Station: R3.2S-Naryan-Mar
#Location: 53.008057 lon 67.646978 lat
#TLE: 1 37849U 11061A   26017.28905266  .00000074  00000+0  55894-4 0  9999
#TLE: 2 37849  98.7814 319.3179 0002408  59.7048 300.4366 14.19525847737038

#Time	Az	El	Level	Level2	SNR	BER	BlckErr	Temp	State	Recorded	gain1	gain2
2026-01-17 20:53:00.63	17.00	0.11	-85.2	-88.8	3.5	1.56e+00	0	44	0	0	60	1048575
2026-01-17 20:53:04.65	17.27	0.31	-85.2	-88.6	3.0	1.56e+00	0	45	104	0	60	1048575
2026-01-17 20:53:08.66	17.55	0.51	-85.2	-88.6	3.1	1.56e+00	0	46	104	0	60	1048574
2026-01-17 20:53:12.68	17.83	0.72	-85.2	-88.6	2.9	1.56e+00	0	46	104	0	60	1048575
2026-01-17 20:53:16.71	18.12	0.93	-85.2	-88.6	2.7	1.56e+00	0	46	104	0	60	1048574
2026-01-17 20:53:20.74	18.41	1.14	-85.2	-88.6	2.7	1.56e+00	0	46	104	0	60	1048575
2026-01-17 20:53:24.76	18.70	1.35	-85.2	-88.6	3.2	1.55e+00	0	46	104	0	60	1048575
2026-01-17 20:53:28.78	19.00	1.56	-85.2	-88.6	3.1	1.56e+00	0	46	104	0	60	1048574
2026-01-17 20:53:32.81	19.30	1.77	-85.2	-88.6	3.0	1.56e+00	0	46	104	0	60	1048575
2026-01-17 20:53:36.84	19.60	1.98	-85.2	-88.6	3.1	1.56e+00	0	46	104	0	60	1048571
2026-01-17 20:53:40.85	19.91	2.19	-85.2	-88.6	3.0	1.56e+00	0	46	104	0	60	1048574
2026-01-17 20:53:44.87	20.22	2.40	-85.2	-88.6	2.9	1.56e+00	0	46	104	0	60	1048575
2026-01-17 20:53:48.89	20.54	2.62	-85.2	-88.6	3.0	1.56e+00	0	46	104	0	60	1048574
2026-01-17 20:53:52.92	20.86	2.84	-85.2	-88.6	3.1	1.56e+00	0	46	104	0	60	1048575
2026-01-17 20:53:56.95	21.19	3.05	-85.2	-88.6	3.0	1.55e+00	0	46	104	0	60	1048574
2026-01-17 20:54:00.97	21.52	3.27	-85.2	-88.6	3.0	1.55e+00	0	46	104	0	60	1048575
2026-01-17 20:54:05.00	21.86	3.49	-85.2	-88.6	2.9	1.56e+00	0	46	104	0	60	1048575
2026-01-17 20:54:09.03	22.20	3.71	-85.2	-88.6	3.0	1.56e+00	0	46	104	0	60	1048575
2026-01-17 20:54:13.06	22.54	3.93	-85.2	-88.6	3.0	1.55e+00	0	46	104	0	60	1048575
2026-01-17 20:54:17.08	22.89	4.15	-85.2	-88.6	3.0	1.55e+00	0	46	104	0	60	1048575
2026-01-17 20:54:21.11	23.25	4.37	-85.2	-88.6	3.0	1.56e+00	0	46	104	0	60	1048575
2026-01-17 20:54:25.14	23.61	4.60	-85.2	-88.6	3.0	1.56e+00	0	46	104	0	60	1048575
2026-01-17 20:54:29.17	23.98	4.82	-85.2	-88.6	3.1	1.55e+00	0	46	104	0	60	1048575
2026-01-17 20:54:33.18	24.35	5.05	-85.2	-88.6	3.0	1.56e+00	0	46	104	0	60	1048575
2026-01-17 20:54:37.21	24.72	5.28	-85.2	-88.6	3.0	1.56e+00	0	47	104	0	60	1048570
2026-01-17 20:54:41.24	25.10	5.50	-85.2	-88.6	3.1	1.56e+00	0	47	104	0	60	1048575
2026-01-17 20:54:45.27	25.49	5.73	-85.2	-88.6	3.0	1.56e+00	0	47	104	0	60	1048574
2026-01-17 20:54:49.30	25.89	5.96	-85.2	-88.6	3.1	1.56e+00	0	47	104	0	60	1048574
2026-01-17 20:54:53.33	26.29	6.19	-85.2	-88.6	2.9	1.56e+00	0	47	104	0	60	1048575
2026-01-17 20:54:57.36	26.69	6.42	-85.2	-88.6	3.1	1.56e+00	0	47	104	0	60	1048575
2026-01-17 20:55:01.38	27.10	6.66	-85.2	-88.6	3.1	1.56e+00	0	47	104	0	60	1048575
2026-01-17 20:55:05.39	27.52	6.89	-85.2	-88.6	3.0	1.56e+00	0	47	104	0	60	1048575
2026-01-17 20:55:09.41	27.94	7.12	-85.2	-88.6	3.0	1.56e+00	0	47	104	0	60	1048575
2026-01-17 20:55:13.43	28.37	7.36	-85.2	-88.6	3.0	1.55e+00	0	47	104	0	60	1048567
2026-01-17 20:55:17.46	28.81	7.59	-85.2	-88.6	3.2	1.56e+00	0	47	104	0	60	1048575
2026-01-17 20:55:21.49	29.26	7.83	-85.2	-88.6	2.7	1.56e+00	0	47	104	0	60	1048575
2026-01-17 20:55:25.52	29.71	8.07	-85.2	-88.6	3.2	1.56e+00	0	47	104	0	60	1048573
2026-01-17 20:55:29.54	30.17	8.30	-85.2	-88.6	2.9	1.56e+00	0	47	104	0	60	1048575
2026-01-17 20:55:33.56	30.63	8.54	-85.2	-88.6	3.2	1.56e+00	0	47	104	0	60	1048574
2026-01-17 20:55:37.58	31.11	8.78	-85.2	-88.6	2.9	1.55e+00	0	47	104	0	60	1048575
2026-01-17 20:55:41.60	31.59	9.02	-85.2	-88.6	3.0	1.56e+00	0	47	104	0	60	1048575
2026-01-17 20:55:45.63	32.07	9.26	-85.2	-88.6	3.0	1.55e+00	0	47	104	0	60	1048575
2026-01-17 20:55:49.66	32.57	9.50	-85.2	-88.6	2.8	1.56e+00	0	47	104	0	60	1048574
2026-01-17 20:55:53.69	33.08	9.75	-85.2	-88.6	3.2	1.56e+00	0	47	104	0	60	1048574
2026-01-17 20:55:57.71	33.59	9.99	-85.2	-88.6	3.0	1.56e+00	0	47	104	0	60	1048575
2026-01-17 20:56:01.74	34.11	10.23	-85.2	-88.6	3.1	1.55e+00	0	47	104	0	60	1048574
2026-01-17 20:56:05.77	34.64	10.47	-85.2	-88.6	3.1	1.56e+00	0	47	104	0	60	1048575
2026-01-17 20:56:09.80	35.17	10.72	-85.2	-88.6	3.0	1.56e+00	0	47	104	0	60	1048574
2026-01-17 20:56:13.82	35.72	10.96	-85.2	-88.6	3.0	1.56e+00	0	47	104	0	60	1048575
2026-01-17 20:56:17.85	36.28	11.20	-85.2	-88.6	2.9	1.56e+00	0	47	104	0	60	1048574
2026-01-17 20:56:21.87	36.84	11.45	-84.3	-88.6	2.9	1.56e+00	0	47	104	0	60	1048575
2026-01-17 20:56:25.90	37.41	11.69	-85.2	-88.6	2.9	1.56e+00	0	47	104	0	60	1048575
2026-01-17 20:56:29.92	37.99	11.93	-85.2	-88.6	3.2	1.56e+00	0	47	104	0	60	1048571
2026-01-17 20:56:33.95	38.58	12.18	-85.2	-88.6	3.1	1.56e+00	0	47	104	0	60	1048575
2026-01-17 20:56:37.97	39.18	12.42	-84.3	-88.6	3.0	1.56e+00	0	47	104	0	60	1048569
2026-01-17 20:56:42.00	39.80	12.66	-85.2	-88.6	3.1	1.55e+00	0	47	104	0	60	1048575
2026-01-17 20:56:46.02	40.41	12.91	-85.2	-88.6	3.3	1.56e+00	0	47	104	0	60	1048575
2026-01-17 20:56:50.05	41.05	13.15	-85.2	-88.6	3.0	1.55e+00	0	47	104	0	60	1048574
2026-01-17 20:56:54.07	41.69	13.39	-85.2	-88.6	3.2	1.56e+00	0	47	104	0	60	1048575
2026-01-17 20:56:58.10	42.34	13.63	-85.2	-88.6	2.8	1.56e+00	0	47	104	0	60	1048575
2026-01-17 20:57:02.13	43.00	13.87	-85.2	-88.6	3.2	1.56e+00	0	47	104	0	60	1048575
2026-01-17 20:57:06.16	43.67	14.10	-85.2	-88.6	3.0	1.55e+00	0	47	104	0	60	1048575
2026-01-17 20:57:10.19	44.35	14.34	-85.2	-88.6	3.2	1.56e+00	0	47	104	0	60	1048574
2026-01-17 20:57:14.21	45.04	14.57	-85.2	-88.6	3.1	1.55e+00	0	47	104	0	60	1048574
2026-01-17 20:57:18.24	45.75	14.81	-85.2	-88.6	3.1	1.56e+00	0	47	104	0	60	1048575
2026-01-17 20:57:22.26	46.46	15.04	-85.2	-88.6	3.1	1.56e+00	0	47	104	0	60	1048574
2026-01-17 20:57:26.29	47.18	15.27	-85.2	-88.6	3.2	1.56e+00	0	47	104	0	60	1048573
2026-01-17 20:57:30.31	47.92	15.49	-85.2	-88.6	2.7	1.56e+00	0	47	104	0	60	1048574
2026-01-17 20:57:34.35	48.67	15.72	-85.2	-88.6	3.0	1.56e+00	0	47	104	0	60	1048575
2026-01-17 20:57:38.37	49.42	15.94	-85.2	-88.6	2.9	1.56e+00	0	47	104	0	60	1048572
2026-01-17 20:57:42.40	50.19	16.16	-85.2	-88.6	3.0	1.56e+00	0	47	104	0	60	1048575
2026-01-17 20:57:46.43	50.97	16.38	-85.2	-88.6	2.8	1.55e+00	0	47	104	0	60	1048575
2026-01-17 20:57:50.46	51.76	16.59	-85.2	-88.6	3.0	1.56e+00	0	47	104	0	60	1048574
2026-01-17 20:57:54.49	52.56	16.80	-85.2	-88.6	3.1	1.56e+00	0	47	104	0	60	1048575
2026-01-17 20:57:58.51	53.37	17.01	-85.2	-88.6	3.1	1.56e+00	0	47	104	0	60	1048575
2026-01-17 20:58:02.54	54.20	17.21	-85.2	-88.6	3.0	1.56e+00	0	47	104	0	60	1048575
2026-01-17 20:58:06.57	55.03	17.41	-85.2	-88.6	3.3	1.56e+00	0	47	104	0	60	1048574
2026-01-17 20:58:10.59	55.87	17.61	-85.2	-88.6	2.9	1.56e+00	0	47	104	0	60	1048575
2026-01-17 20:58:14.62	56.73	17.80	-85.2	-88.6	3.1	1.55e+00	0	47	104	0	60	1048573
2026-01-17 20:58:18.66	57.60	17.98	-85.2	-88.6	2.8	1.56e+00	0	47	104	0	60	1048574
2026-01-17 20:58:22.68	58.47	18.16	-85.2	-88.6	3.1	1.55e+00	0	47	104	0	60	1048575
2026-01-17 20:58:26.71	59.36	18.34	-85.2	-88.6	3.1	1.56e+00	0	47	104	0	60	1048571
2026-01-17 20:58:30.73	60.25	18.51	-85.2	-88.6	3.1	1.56e+00	0	47	104	0	60	1048573
2026-01-17 20:58:34.76	61.16	18.67	-85.2	-88.6	3.0	1.56e+00	0	47	104	0	60	1048575
2026-01-17 20:58:38.80	62.08	18.83	-85.2	-88.6	3.2	1.56e+00	0	47	104	0	60	1048575
2026-01-17 20:58:42.81	63.00	18.98	-85.2	-88.6	3.0	1.56e+00	0	47	104	0	60	1048573
2026-01-17 20:58:46.85	63.93	19.13	-85.2	-88.6	2.9	1.56e+00	0	47	104	0	60	1048575
2026-01-17 20:58:50.87	64.87	19.27	-85.2	-88.6	3.2	1.56e+00	0	47	104	0	60	1048572
2026-01-17 20:58:54.90	65.82	19.40	-85.2	-88.6	3.1	1.56e+00	0	47	104	0	60	1048574
2026-01-17 20:58:58.92	66.78	19.52	-85.2	-88.6	2.9	1.56e+00	0	47	104	0	60	1048574
2026-01-17 20:59:02.95	67.74	19.64	-85.2	-88.6	3.1	1.56e+00	0	47	104	0	60	1048574
2026-01-17 20:59:06.97	68.71	19.75	-85.2	-88.6	3.1	1.56e+00	0	47	104	0	60	1048575
2026-01-17 20:59:11.00	69.69	19.85	-85.2	-88.6	2.9	1.56e+00	0	47	104	0	60	1048573
2026-01-17 20:59:15.03	70.68	19.95	-85.2	-88.6	3.0	1.56e+00	0	47	104	0	60	1048573
2026-01-17 20:59:19.06	71.67	20.03	-85.2	-88.6	3.3	1.56e+00	0	47	104	0	60	1048574
2026-01-17 20:59:23.08	72.67	20.11	-85.2	-88.6	2.9	1.56e+00	0	47	104	0	60	1048575
2026-01-17 20:59:27.11	73.67	20.18	-85.2	-88.6	3.1	1.55e+00	0	47	104	0	60	1048575
2026-01-17 20:59:31.14	74.67	20.24	-85.2	-88.6	3.0	1.56e+00	0	47	104	0	60	1048575
2026-01-17 20:59:35.17	75.68	20.30	-85.2	-88.6	3.1	1.56e+00	0	47	104	0	60	1048574
2026-01-17 20:59:39.20	76.70	20.34	-85.2	-88.6	3.0	1.56e+00	0	47	104	0	60	1048575
2026-01-17 20:59:43.22	77.71	20.38	-85.2	-88.6	2.8	1.56e+00	0	47	104	0	60	1048575
2026-01-17 20:59:47.25	78.73	20.40	-85.2	-88.6	3.0	1.56e+00	0	47	104	0	60	1048575
2026-01-17 20:59:51.29	79.75	20.42	-85.2	-88.6	3.2	1.55e+00	0	47	104	0	60	1048575
2026-01-17 20:59:55.31	80.77	20.43	-85.2	-88.6	3.0	1.55e+00	0	47	104	0	60	1048575
2026-01-17 20:59:59.35	81.79	20.43	-85.2	-88.6	3.1	1.55e+00	0	47	104	0	60	1048575
2026-01-17 21:00:03.37	82.81	20.42	-85.2	-88.6	3.0	1.56e+00	0	47	104	0	60	1048573
2026-01-17 21:00:07.40	83.83	20.40	-85.2	-88.6	3.1	1.56e+00	0	47	104	0	60	1048575
2026-01-17 21:00:11.42	84.84	20.37	-85.2	-88.6	3.2	1.56e+00	0	47	104	0	60	1048571
2026-01-17 21:00:15.45	85.86	20.34	-85.2	-88.6	3.0	1.55e+00	0	47	104	0	60	1048575
2026-01-17 21:00:19.48	86.87	20.29	-85.2	-88.6	3.0	1.55e+00	0	47	104	0	60	1048574
2026-01-17 21:00:23.50	87.88	20.24	-85.2	-88.6	3.0	1.56e+00	0	47	104	0	60	1048575
2026-01-17 21:00:27.53	88.89	20.18	-85.2	-88.6	3.2	1.55e+00	0	47	104	0	60	1048574
2026-01-17 21:00:31.56	89.89	20.11	-85.2	-88.6	3.0	1.56e+00	0	47	104	0	60	1048574
2026-01-17 21:00:35.59	90.89	20.03	-85.2	-88.6	3.0	1.56e+00	0	47	104	0	60	1048575
2026-01-17 21:00:39.62	91.88	19.94	-84.7	-88.6	3.0	1.55e+00	0	47	104	0	60	1048574
2026-01-17 21:00:43.63	92.86	19.84	-85.2	-88.6	3.1	1.56e+00	0	47	104	0	60	1048572
2026-01-17 21:00:47.66	93.84	19.74	-85.2	-88.6	3.1	1.56e+00	0	47	104	0	60	1048574
2026-01-17 21:00:51.69	94.82	19.63	-85.2	-88.6	3.1	1.55e+00	0	47	104	0	60	1048573
2026-01-17 21:00:55.72	95.78	19.51	-85.2	-88.6	2.9	1.56e+00	0	47	104	0	60	1048575
2026-01-17 21:00:59.74	96.74	19.39	-84.7	-88.6	3.2	1.56e+00	0	47	104	0	60	1048575
2026-01-17 21:01:03.77	97.69	19.25	-84.3	-88.6	3.1	1.56e+00	0	47	104	0	60	1048573
2026-01-17 21:01:07.79	98.63	19.11	-85.2	-88.6	3.0	1.56e+00	0	47	104	0	60	1048575
2026-01-17 21:01:11.82	99.57	18.97	-85.2	-88.6	3.0	1.56e+00	0	47	104	0	60	1048575
2026-01-17 21:01:15.84	100.49	18.81	-85.2	-88.6	3.1	1.56e+00	0	47	104	0	60	1048575
2026-01-17 21:01:19.86	101.41	18.66	-85.2	-88.6	3.1	1.56e+00	0	47	104	0	60	1048574
2026-01-17 21:01:23.89	102.32	18.49	-85.2	-88.6	2.7	1.56e+00	0	47	104	0	60	1048574
2026-01-17 21:01:27.93	103.22	18.32	-85.2	-88.6	3.0	1.56e+00	0	47	104	0	60	1048575
2026-01-17 21:01:31.95	104.10	18.14	-85.2	-88.6	3.0	1.56e+00	0	47	104	0	60	1048574
2026-01-17 21:01:35.97	104.98	17.96	-85.2	-88.6	3.1	1.55e+00	0	47	104	0	60	1048574
2026-01-17 21:01:39.99	105.84	17.77	-85.2	-88.6	3.0	1.55e+00	0	47	104	0	60	1048575
2026-01-17 21:01:44.02	106.70	17.58	-85.2	-88.6	2.9	1.56e+00	0	47	104	0	60	1048575
2026-01-17 21:01:48.03	107.54	17.39	-85.2	-88.6	3.1	1.56e+00	0	47	104	0	60	1048575
2026-01-17 21:01:52.05	108.38	17.19	-85.2	-88.6	2.9	1.56e+00	0	47	104	0	60	1048573
2026-01-17 21:01:56.07	109.20	16.98	-85.2	-88.6	3.1	1.56e+00	0	47	104	0	60	1048575
2026-01-17 21:02:00.10	110.01	16.78	-85.2	-88.6	3.1	1.56e+00	0	47	104	0	60	1048574
2026-01-17 21:02:04.12	110.82	16.56	-85.2	-88.6	3.1	1.56e+00	0	47	104	0	60	1048571
2026-01-17 21:02:08.13	111.60	16.35	-85.2	-88.6	3.0	1.56e+00	0	47	104	0	60	1048575
2026-01-17 21:02:12.16	112.39	16.13	-85.2	-88.6	2.9	1.56e+00	0	47	104	0	60	1048574
2026-01-17 21:02:16.19	113.16	15.91	-85.2	-88.6	3.0	1.56e+00	0	47	104	0	60	1048575
2026-01-17 21:02:20.20	113.91	15.69	-85.2	-88.6	3.2	1.56e+00	0	47	104	0	60	1048573
2026-01-17 21:02:24.21	114.66	15.46	-85.2	-88.6	3.1	1.56e+00	0	47	104	0	60	1048575
2026-01-17 21:02:28.23	115.39	15.23	-85.2	-88.6	3.3	1.55e+00	0	47	104	0	60	1048575
2026-01-17 21:02:32.26	116.12	15.00	-85.2	-88.6	3.0	1.56e+00	0	47	104	0	60	1048573
2026-01-17 21:02:36.29	116.84	14.77	-85.2	-88.6	3.3	1.56e+00	0	47	104	0	60	1048575
2026-01-17 21:02:40.32	117.54	14.53	-85.2	-88.6	3.1	1.55e+00	0	47	104	0	60	1048575
2026-01-17 21:02:44.35	118.23	14.30	-85.2	-88.6	3.1	1.56e+00	0	47	104	0	60	1048574
2026-01-17 21:02:48.38	118.92	14.06	-85.2	-88.6	2.9	1.56e+00	0	47	104	0	60	1048574
2026-01-17 21:02:52.41	119.59	13.82	-85.2	-88.6	2.9	1.55e+00	0	47	104	0	60	1048575
2026-01-17 21:02:56.43	120.25	13.58	-85.2	-88.6	3.0	1.56e+00	0	47	104	0	60	1048569
2026-01-17 21:03:00.44	120.90	13.34	-85.2	-88.6	3.0	1.55e+00	0	47	104	0	60	1048574
2026-01-17 21:03:04.47	121.54	13.10	-85.2	-88.6	3.0	1.56e+00	0	47	104	0	60	1048574
2026-01-17 21:03:08.48	122.17	12.86	-85.2	-88.6	2.9	1.56e+00	0	47	104	0	60	1048574
2026-01-17 21:03:12.50	122.79	12.61	-85.2	-88.6	3.1	1.56e+00	0	47	104	0	60	1048575
2026-01-17 21:03:16.53	123.40	12.37	-85.2	-88.6	3.1	1.56e+00	0	47	104	0	60	1048575
2026-01-17 21:03:20.55	124.01	12.12	-85.2	-88.6	3.0	1.56e+00	0	47	104	0	60	1048572
2026-01-17 21:03:24.57	124.60	11.88	-85.2	-88.6	2.8	1.56e+00	0	47	104	0	60	1048571
2026-01-17 21:03:28.60	125.18	11.63	-85.2	-88.6	2.9	1.55e+00	0	47	104	0	60	1048575
2026-01-17 21:03:32.63	125.75	11.39	-85.2	-88.6	3.1	1.56e+00	0	47	104	0	60	1048573
2026-01-17 21:03:36.66	126.32	11.14	-85.2	-88.6	3.1	1.55e+00	0	47	104	0	60	1048575
2026-01-17 21:03:40.69	126.87	10.90	-85.2	-88.6	3.1	1.55e+00	0	47	104	0	60	1048575
2026-01-17 21:03:44.69	127.42	10.65	-85.2	-88.6	2.9	1.56e+00	0	47	104	0	60	1048575
2026-01-17 21:03:48.70	127.95	10.41	-85.2	-88.6	3.0	1.56e+00	0	47	104	0	60	1048573
2026-01-17 21:03:52.73	128.48	10.16	-85.2	-88.6	3.2	1.56e+00	0	47	104	0	60	1048574
2026-01-17 21:03:56.76	129.00	9.92	-85.2	-88.6	2.8	1.55e+00	0	47	104	0	60	1048573
2026-01-17 21:04:00.79	129.52	9.68	-85.2	-88.6	3.1	1.56e+00	0	47	104	0	60	1048575
2026-01-17 21:04:04.81	130.02	9.43	-85.2	-88.6	2.9	1.56e+00	0	47	104	0	60	1048574
2026-01-17 21:04:08.83	130.52	9.19	-85.2	-88.6	3.1	1.56e+00	0	47	104	0	60	1048574
2026-01-17 21:04:12.86	131.00	8.95	-85.2	-88.6	2.8	1.56e+00	0	47	104	0	60	1048574
2026-01-17 21:04:16.89	131.49	8.70	-85.2	-88.6	3.2	1.56e+00	0	47	104	0	60	1048575
2026-01-17 21:04:20.91	131.96	8.46	-85.2	-88.6	3.1	1.55e+00	0	47	104	0	60	1048575
2026-01-17 21:04:24.95	132.42	8.22	-85.2	-88.6	2.9	1.56e+00	0	47	104	0	60	1048575
2026-01-17 21:04:28.97	132.88	7.98	-85.2	-88.6	2.9	1.56e+00	0	47	104	0	60	1048573
2026-01-17 21:04:33.00	133.33	7.74	-85.2	-88.6	3.1	1.56e+00	0	47	104	0	60	1048575
2026-01-17 21:04:37.02	133.78	7.51	-85.2	-88.6	2.9	1.56e+00	0	47	104	0	60	1048575
2026-01-17 21:04:41.05	134.21	7.27	-85.2	-88.6	3.2	1.56e+00	0	47	104	0	60	1048575
2026-01-17 21:04:45.08	134.65	7.03	-85.2	-88.6	2.8	1.56e+00	0	47	104	0	60	1048573
2026-01-17 21:04:49.10	135.07	6.80	-85.2	-88.6	3.1	1.55e+00	0	47	104	0	60	1048575
2026-01-17 21:04:53.13	135.49	6.56	-85.2	-88.6	3.0	1.56e+00	0	47	104	0	60	1048573
2026-01-17 21:04:57.16	135.90	6.33	-85.2	-88.6	3.0	1.56e+00	0	47	104	0	60	1048573
2026-01-17 21:05:01.18	136.30	6.09	-85.2	-88.6	2.9	1.56e+00	0	47	104	0	60	1048572
2026-01-17 21:05:05.21	136.70	5.86	-85.2	-88.6	3.1	1.56e+00	0	47	104	0	60	1048574
2026-01-17 21:05:09.23	137.09	5.63	-85.2	-88.6	3.0	1.55e+00	0	47	104	0	60	1048574
2026-01-17 21:05:13.26	137.48	5.40	-85.2	-88.6	3.2	1.56e+00	0	47	104	0	60	1048574
2026-01-17 21:05:17.29	137.86	5.17	-85.2	-88.6	3.1	1.55e+00	0	47	104	0	60	1048574
2026-01-17 21:05:21.31	138.24	4.94	-85.2	-88.6	3.0	1.56e+00	0	47	104	0	60	1048572
2026-01-17 21:05:25.33	138.60	4.72	-85.2	-88.6	3.1	1.56e+00	0	47	104	0	60	1048574
2026-01-17 21:05:29.35	138.97	4.49	-85.2	-88.6	3.2	1.55e+00	0	47	104	0	60	1048574
2026-01-17 21:05:33.38	139.33	4.26	-85.2	-88.6	2.9	1.56e+00	0	47	104	0	60	1048572
2026-01-17 21:05:37.41	139.68	4.04	-85.2	-88.6	3.0	1.55e+00	0	47	104	0	60	1048575
2026-01-17 21:05:41.43	140.03	3.82	-85.2	-88.6	3.1	1.56e+00	0	47	104	0	60	1048574
2026-01-17 21:05:45.44	140.37	3.59	-84.7	-88.6	3.0	1.55e+00	0	47	104	0	60	1048572
2026-01-17 21:05:49.48	140.71	3.37	-85.2	-88.6	2.8	1.56e+00	0	47	104	0	60	1048575
2026-01-17 21:05:53.51	141.05	3.15	-85.2	-88.6	3.0	1.56e+00	0	47	104	0	60	1048575
2026-01-17 21:05:57.53	141.37	2.93	-85.2	-88.6	3.1	1.56e+00	0	47	104	0	60	1048573
2026-01-17 21:06:01.56	141.70	2.71	-85.2	-88.6	3.2	1.55e+00	0	47	104	0	60	1048575
2026-01-17 21:06:05.59	142.02	2.50	-84.7	-88.6	2.9	1.56e+00	0	47	104	0	60	1048572
2026-01-17 21:06:09.62	142.34	2.28	-85.2	-88.6	3.2	1.56e+00	0	47	104	0	60	1048574
2026-01-17 21:06:13.64	142.65	2.06	-85.2	-88.6	3.2	1.55e+00	0	47	104	0	60	1048574
2026-01-17 21:06:17.67	142.95	1.85	-85.2	-88.6	3.1	1.55e+00	0	47	104	0	60	1048575
2026-01-17 21:06:21.70	143.26	1.64	-85.2	-88.6	3.2	1.56e+00	0	47	104	0	60	1048573
2026-01-17 21:06:25.73	143.56	1.42	-85.2	-88.6	3.0	1.56e+00	0	47	104	0	60	1048574
2026-01-17 21:06:29.75	143.85	1.21	-85.2	-88.6	3.1	1.56e+00	0	47	104	0	60	1048572
2026-01-17 21:06:33.78	144.14	1.00	-85.2	-88.6	3.0	1.56e+00	0	47	104	0	60	1048575
2026-01-17 21:06:37.80	144.43	0.79	-85.2	-88.6	2.6	1.56e+00	0	47	104	0	60	1048575
2026-01-17 21:06:41.83	144.71	0.58	-85.2	-88.6	2.9	1.55e+00	0	47	104	0	60	1048575
2026-01-17 21:06:45.86	144.99	0.37	-85.2	-88.6	3.0	1.56e+00	0	47	104	0	60	1048575
2026-01-17 21:06:49.88	145.27	0.17	-85.2	-88.6	3.0	1.56e+00	0	47	104	0	60	1048574

#Closed at: 2026-01-17 21:06:53
#Recorded file [0 MB]: D:/Data/35015_260117_235300.dat