passes_logs/2026/01/17/R3.2S-Naryan-Mar/R3.2S-Naryan-Mar__20260117_202313_NOAA_21_JPSS-2_rec.log

#Pass ID: 20260117_202313_NOAA 21 (JPSS-2)
#Satellite: NOAA 21 (JPSS-2)
#Configuration: NOAA-21
#almurnet v.1.7.20240730
#Start time: 2026-01-17 20:23:16

#Version: 2.2.20231116
#Station: R3.2S-Naryan-Mar
#Location: 53.008057 lon 67.646978 lat
#TLE: 1 54234U 22150A   26016.56338662  .00000024  00000+0  32257-4 0  9990
#TLE: 2 54234  98.7500 317.4442 0000622 279.9774  80.1332 14.19534942165033

#Time	Az	El	Level	Level2	SNR	BER	BlckErr	Temp	State	Recorded	gain1	gain2
2026-01-17 20:23:16.74	16.49	0.14	-83.5	-79.0	2.4	0.00e+00	0	45	0	0	60	1048572
2026-01-17 20:23:19.77	16.73	0.28	-85.2	-88.8	2.8	1.56e+00	0	46	104	0	60	1048567
2026-01-17 20:23:22.79	16.97	0.43	-85.2	-88.8	2.6	1.56e+00	0	46	104	0	60	1048575
2026-01-17 20:23:25.81	17.21	0.57	-85.2	-88.8	2.7	1.56e+00	0	46	104	0	60	1048574
2026-01-17 20:23:28.81	17.45	0.71	-85.2	-88.8	2.6	1.56e+00	0	46	104	0	60	1048573
2026-01-17 20:23:31.84	17.70	0.86	-85.2	-88.8	2.5	1.56e+00	0	46	104	0	60	1048571
2026-01-17 20:23:34.86	17.95	1.00	-85.2	-88.8	2.9	1.56e+00	0	46	104	0	60	1048574
2026-01-17 20:23:37.89	18.20	1.15	-85.2	-88.8	2.7	1.56e+00	0	46	104	0	60	1048575
2026-01-17 20:23:40.91	18.45	1.29	-85.2	-88.8	2.9	1.56e+00	0	46	104	0	60	1048572
2026-01-17 20:23:43.91	18.70	1.44	-85.2	-88.8	2.6	1.56e+00	0	46	104	0	60	1048575
2026-01-17 20:23:46.93	18.96	1.58	-85.2	-88.8	2.8	1.56e+00	0	46	104	0	60	1048573
2026-01-17 20:23:49.95	19.22	1.73	-85.2	-88.8	2.7	1.56e+00	0	46	104	0	60	1048571
2026-01-17 20:23:52.97	19.48	1.88	-85.2	-88.8	2.8	1.56e+00	0	46	104	0	60	1048572
2026-01-17 20:23:55.99	19.75	2.02	-85.2	-88.8	2.8	1.56e+00	0	47	104	0	60	1048574
2026-01-17 20:23:59.01	20.02	2.17	-85.2	-88.8	2.6	1.56e+00	0	47	104	0	60	1048575
2026-01-17 20:24:02.03	20.29	2.32	-85.2	-88.8	2.6	1.56e+00	0	47	104	0	60	1048574
2026-01-17 20:24:05.05	20.56	2.46	-85.2	-88.8	2.6	1.56e+00	0	47	104	0	60	1048575
2026-01-17 20:24:08.07	20.83	2.61	-85.2	-88.8	2.8	1.56e+00	0	47	104	0	60	1048575
2026-01-17 20:24:11.09	21.11	2.76	-85.2	-88.8	2.7	1.56e+00	0	47	104	0	60	1048571
2026-01-17 20:24:14.12	21.39	2.91	-85.2	-88.8	2.8	1.56e+00	0	47	104	0	60	1048572
2026-01-17 20:24:17.14	21.68	3.06	-85.2	-88.8	2.7	1.56e+00	0	47	104	0	60	1048575
2026-01-17 20:24:20.15	21.96	3.21	-85.2	-88.8	2.7	1.56e+00	0	47	104	0	60	1048564
2026-01-17 20:24:23.17	22.25	3.35	-85.2	-88.8	2.8	1.56e+00	0	47	104	0	60	1048575
2026-01-17 20:24:26.19	22.54	3.50	-84.7	-88.8	2.5	1.56e+00	0	47	104	0	60	1048574
2026-01-17 20:24:29.20	22.83	3.65	-85.2	-88.8	2.8	1.56e+00	0	47	104	0	60	1048574
2026-01-17 20:24:32.22	23.13	3.80	-85.2	-88.8	2.7	1.56e+00	0	47	104	0	60	1048571
2026-01-17 20:24:35.24	23.43	3.95	-85.2	-88.8	2.9	1.56e+00	0	47	104	0	60	1048575
2026-01-17 20:24:38.26	23.73	4.10	-85.2	-88.8	2.8	1.56e+00	0	47	104	0	60	1048574
2026-01-17 20:24:41.28	24.04	4.25	-85.2	-88.8	2.6	1.56e+00	0	47	104	0	60	1048575
2026-01-17 20:24:44.30	24.35	4.40	-85.2	-88.8	2.7	1.56e+00	0	47	104	0	60	1048575
2026-01-17 20:24:47.32	24.66	4.55	-85.2	-88.8	2.7	1.56e+00	0	47	104	0	60	1048573
2026-01-17 20:24:50.33	24.97	4.70	-85.2	-88.8	2.6	1.56e+00	0	47	104	0	60	1048574
2026-01-17 20:24:53.35	25.29	4.86	-85.2	-88.8	2.7	1.56e+00	0	47	104	0	60	1048572
2026-01-17 20:24:56.37	25.61	5.01	-85.2	-88.8	2.7	1.56e+00	0	47	104	0	60	1048575
2026-01-17 20:24:59.39	25.93	5.16	-85.2	-88.8	2.7	1.56e+00	0	47	104	0	60	1048572
2026-01-17 20:25:02.41	26.26	5.31	-85.2	-88.8	2.6	1.56e+00	0	47	104	0	60	1048574
2026-01-17 20:25:05.43	26.59	5.46	-85.2	-88.8	2.6	1.56e+00	0	47	104	0	60	1048567
2026-01-17 20:25:08.44	26.92	5.61	-85.2	-88.8	2.8	1.56e+00	0	47	104	0	60	1048574
2026-01-17 20:25:11.47	27.26	5.76	-85.2	-88.8	2.8	1.56e+00	0	47	104	0	60	1048567
2026-01-17 20:25:14.49	27.60	5.92	-85.2	-88.8	2.8	1.56e+00	0	47	104	0	60	1048572
2026-01-17 20:25:17.51	27.95	6.07	-85.2	-88.8	2.9	1.56e+00	0	47	104	0	60	1048573
2026-01-17 20:25:20.53	28.29	6.22	-85.2	-88.8	2.7	1.56e+00	0	47	104	0	60	1048572
2026-01-17 20:25:23.54	28.64	6.37	-85.2	-88.8	2.8	1.56e+00	0	47	104	0	60	1048574
2026-01-17 20:25:26.56	29.00	6.52	-85.2	-88.8	2.5	1.56e+00	0	47	104	0	60	1048575
2026-01-17 20:25:29.57	29.35	6.68	-85.2	-88.8	2.8	1.56e+00	0	47	104	0	60	1048570
2026-01-17 20:25:32.59	29.72	6.83	-85.2	-88.8	2.8	1.56e+00	0	47	104	0	60	1048575
2026-01-17 20:25:35.62	30.08	6.98	-85.2	-88.8	2.7	1.56e+00	0	47	104	0	60	1048575
2026-01-17 20:25:38.63	30.45	7.13	-85.2	-88.8	2.5	1.56e+00	0	47	104	0	60	1048573
2026-01-17 20:25:41.65	30.82	7.28	-85.2	-88.8	2.8	1.56e+00	0	47	104	0	60	1048575
2026-01-17 20:25:44.67	31.20	7.43	-83.5	-88.8	2.8	1.56e+00	0	47	104	0	60	1048570
2026-01-17 20:25:47.69	31.58	7.59	-85.2	-88.8	2.8	1.56e+00	0	47	104	0	60	1048573
2026-01-17 20:25:50.71	31.96	7.74	-85.2	-88.8	2.8	1.56e+00	0	47	104	0	60	1048575
2026-01-17 20:25:53.73	32.35	7.89	-85.2	-88.8	2.7	1.56e+00	0	47	104	0	60	1048575
2026-01-17 20:25:56.75	32.74	8.04	-85.2	-88.8	2.6	1.56e+00	0	47	104	0	60	1048573
2026-01-17 20:25:59.77	33.14	8.19	-85.2	-88.8	2.8	1.56e+00	0	47	104	0	60	1048572
2026-01-17 20:26:02.80	33.54	8.34	-85.2	-88.8	2.7	1.56e+00	0	47	104	0	60	1048575
2026-01-17 20:26:05.82	33.94	8.49	-84.3	-88.8	2.6	1.56e+00	0	47	104	0	60	1048575
2026-01-17 20:26:08.85	34.35	8.64	-85.2	-88.8	2.5	1.56e+00	0	47	104	0	60	1048575
2026-01-17 20:26:11.86	34.76	8.79	-85.2	-88.8	2.8	1.56e+00	0	47	104	0	60	1048574
2026-01-17 20:26:14.88	35.17	8.94	-85.2	-88.8	2.7	1.56e+00	0	47	104	0	60	1048573
2026-01-17 20:26:17.91	35.59	9.09	-85.2	-88.8	2.6	1.56e+00	0	47	104	0	60	1048575
2026-01-17 20:26:20.93	36.02	9.24	-84.3	-88.8	2.6	1.56e+00	0	47	104	0	60	1048573
2026-01-17 20:26:23.96	36.45	9.38	-85.2	-88.8	2.7	1.56e+00	0	47	104	0	60	1048574
2026-01-17 20:26:26.98	36.88	9.53	-85.2	-88.8	2.7	1.56e+00	0	47	104	0	60	1048575
2026-01-17 20:26:29.99	37.31	9.68	-85.2	-88.8	2.5	1.56e+00	0	47	104	0	60	1048574
2026-01-17 20:26:33.01	37.75	9.82	-85.2	-88.8	2.6	1.56e+00	0	47	104	0	60	1048569
2026-01-17 20:26:36.02	38.20	9.97	-85.2	-88.8	2.6	1.56e+00	0	47	104	0	60	1048574
2026-01-17 20:26:39.05	38.65	10.11	-85.2	-88.8	2.8	1.56e+00	0	47	104	0	60	1048574
2026-01-17 20:26:42.07	39.10	10.26	-85.2	-88.8	2.9	1.56e+00	0	47	104	0	60	1048571
2026-01-17 20:26:45.09	39.56	10.40	-84.7	-88.8	2.7	1.56e+00	0	47	104	0	60	1048573
2026-01-17 20:26:48.10	40.02	10.54	-85.2	-88.8	2.7	1.56e+00	0	47	104	0	60	1048575
2026-01-17 20:26:51.12	40.49	10.69	-85.2	-88.8	2.8	1.56e+00	0	47	104	0	60	1048573
2026-01-17 20:26:54.14	40.96	10.83	-85.2	-88.8	2.8	1.56e+00	0	47	104	0	60	1048575
2026-01-17 20:26:57.17	41.43	10.97	-85.2	-88.8	2.5	1.56e+00	0	47	104	0	60	1048570
2026-01-17 20:27:00.19	41.91	11.11	-85.2	-88.8	2.7	1.56e+00	0	47	104	0	60	1048569
2026-01-17 20:27:03.20	42.39	11.25	-85.2	-88.8	2.7	1.56e+00	0	47	104	0	60	1048574
2026-01-17 20:27:06.22	42.88	11.38	-85.2	-88.8	2.7	1.56e+00	0	47	104	0	60	1048574
2026-01-17 20:27:09.23	43.37	11.52	-85.2	-88.8	2.4	1.56e+00	0	47	104	0	60	1048575
2026-01-17 20:27:12.25	43.87	11.65	-85.2	-88.8	2.8	1.56e+00	0	47	104	0	60	1048573
2026-01-17 20:27:15.28	44.37	11.79	-85.2	-88.8	2.9	1.56e+00	0	47	104	0	60	1048574
2026-01-17 20:27:18.30	44.88	11.92	-85.2	-88.8	2.9	1.56e+00	0	47	104	0	60	1048575
2026-01-17 20:27:21.32	45.39	12.05	-85.2	-88.8	2.9	1.56e+00	0	47	104	0	60	1048575
2026-01-17 20:27:24.34	45.91	12.18	-85.2	-88.8	2.8	1.56e+00	0	47	104	0	60	1048575
2026-01-17 20:27:27.36	46.43	12.31	-85.2	-88.8	2.8	1.56e+00	0	47	104	0	60	1048573
2026-01-17 20:27:30.38	46.95	12.44	-85.2	-88.8	2.6	1.56e+00	0	47	104	0	60	1048575
2026-01-17 20:27:33.40	47.48	12.56	-85.2	-88.8	2.6	1.56e+00	0	47	104	0	60	1048574
2026-01-17 20:27:36.42	48.01	12.69	-85.2	-88.8	2.6	1.56e+00	0	47	104	0	60	1048573
2026-01-17 20:27:39.43	48.55	12.81	-85.2	-88.8	2.7	1.56e+00	0	47	104	0	60	1048575
2026-01-17 20:27:42.45	49.09	12.93	-85.2	-88.8	2.6	1.56e+00	0	47	104	0	60	1048574
2026-01-17 20:27:45.47	49.63	13.05	-85.2	-88.8	2.9	1.56e+00	0	47	104	0	60	1048574
2026-01-17 20:27:48.50	50.18	13.17	-85.2	-88.8	2.7	1.56e+00	0	47	104	0	60	1048575
2026-01-17 20:27:51.52	50.74	13.28	-85.2	-88.8	2.8	1.56e+00	0	47	104	0	60	1048575
2026-01-17 20:27:54.54	51.30	13.39	-85.2	-88.8	2.6	1.56e+00	0	47	104	0	60	1048575
2026-01-17 20:27:57.55	51.86	13.51	-85.2	-88.8	2.6	1.56e+00	0	47	104	0	60	1048575
2026-01-17 20:28:00.57	52.42	13.62	-85.2	-88.8	3.0	1.56e+00	0	47	104	0	60	1048574
2026-01-17 20:28:03.59	52.99	13.72	-85.2	-88.8	2.7	1.56e+00	0	47	104	0	60	1048570
2026-01-17 20:28:06.61	53.57	13.83	-85.2	-88.8	2.7	1.56e+00	0	47	104	0	60	1048575
2026-01-17 20:28:09.62	54.14	13.93	-85.2	-88.8	2.6	1.56e+00	0	47	104	0	60	1048575
2026-01-17 20:28:12.63	54.72	14.03	-85.2	-88.8	2.8	1.56e+00	0	47	104	0	60	1048574
2026-01-17 20:28:15.64	55.31	14.13	-85.2	-88.8	2.8	1.56e+00	0	47	104	0	60	1048573
2026-01-17 20:28:18.66	55.90	14.23	-85.2	-88.8	2.6	1.56e+00	0	47	104	0	60	1048573
2026-01-17 20:28:21.69	56.49	14.32	-85.2	-88.8	2.9	1.56e+00	0	47	104	0	60	1048571
2026-01-17 20:28:24.70	57.09	14.41	-85.2	-88.8	2.5	1.56e+00	0	47	104	0	60	1048575
2026-01-17 20:28:27.72	57.69	14.50	-85.2	-88.8	2.9	1.56e+00	0	47	104	0	60	1048575
2026-01-17 20:28:30.72	58.29	14.59	-85.2	-88.8	2.8	1.56e+00	0	47	104	0	60	1048574
2026-01-17 20:28:33.74	58.90	14.67	-85.2	-88.8	2.7	1.56e+00	0	47	104	0	60	1048575
2026-01-17 20:28:36.76	59.51	14.75	-85.2	-88.8	2.9	1.56e+00	0	47	104	0	60	1048571
2026-01-17 20:28:39.78	60.12	14.83	-85.2	-88.8	2.7	1.56e+00	0	47	104	0	60	1048575
2026-01-17 20:28:42.80	60.74	14.90	-84.7	-88.8	2.6	1.56e+00	0	47	104	0	60	1048575
2026-01-17 20:28:45.81	61.36	14.97	-85.2	-88.8	2.7	1.56e+00	0	47	104	0	60	1048574
2026-01-17 20:28:48.83	61.98	15.04	-85.2	-88.8	2.6	1.56e+00	0	47	104	0	60	1048575
2026-01-17 20:28:51.86	62.61	15.11	-84.7	-88.8	2.7	1.56e+00	0	47	104	0	60	1048575
2026-01-17 20:28:54.89	63.24	15.17	-85.2	-88.8	2.9	1.56e+00	0	47	104	0	60	1048571
2026-01-17 20:28:57.90	63.87	15.23	-85.2	-88.8	2.7	1.56e+00	0	47	104	0	60	1048574
2026-01-17 20:29:00.92	64.50	15.29	-85.2	-88.8	2.6	1.56e+00	0	47	104	0	60	1048573
2026-01-17 20:29:03.93	65.14	15.35	-85.2	-88.8	2.9	1.56e+00	0	47	104	0	60	1048572
2026-01-17 20:29:06.96	65.78	15.40	-84.7	-88.8	2.9	1.56e+00	0	47	104	0	60	1048575
2026-01-17 20:29:09.98	66.42	15.44	-85.2	-88.8	2.7	1.56e+00	0	47	104	0	60	1048566
2026-01-17 20:29:13.00	67.06	15.49	-85.2	-88.8	2.6	1.56e+00	0	47	104	0	60	1048572
2026-01-17 20:29:16.02	67.71	15.53	-85.2	-88.8	2.7	1.56e+00	0	47	104	0	60	1048575
2026-01-17 20:29:19.03	68.35	15.57	-85.2	-88.8	2.9	1.56e+00	0	47	104	0	60	1048574
2026-01-17 20:29:22.06	69.00	15.60	-83.5	-88.8	2.4	1.56e+00	0	47	104	0	60	1048574
2026-01-17 20:29:25.09	69.65	15.63	-85.2	-88.8	2.8	1.56e+00	0	47	104	0	60	1048575
2026-01-17 20:29:28.11	70.30	15.66	-85.2	-88.8	2.7	1.56e+00	0	47	104	0	60	1048572
2026-01-17 20:29:31.12	70.95	15.68	-85.2	-88.8	2.7	1.56e+00	0	47	104	0	60	1048574
2026-01-17 20:29:34.14	71.60	15.70	-85.2	-88.8	2.6	1.56e+00	0	47	104	0	60	1048570
2026-01-17 20:29:37.16	72.25	15.72	-85.2	-88.8	2.7	1.56e+00	0	47	104	0	60	1048575
2026-01-17 20:29:40.18	72.91	15.74	-85.2	-88.8	2.9	1.56e+00	0	47	104	0	60	1048575
2026-01-17 20:29:43.20	73.56	15.75	-85.2	-88.8	2.7	1.56e+00	0	47	104	0	60	1048575
2026-01-17 20:29:46.22	74.22	15.75	-85.2	-88.8	2.6	1.56e+00	0	47	104	0	60	1048573
2026-01-17 20:29:49.24	74.87	15.76	-85.2	-88.8	2.6	1.56e+00	0	47	104	0	60	1048575
2026-01-17 20:29:52.26	75.53	15.76	-84.7	-88.8	2.7	1.56e+00	0	47	104	0	60	1048575
2026-01-17 20:29:55.28	76.18	15.75	-85.2	-88.8	2.7	1.56e+00	0	47	104	0	60	1048574
2026-01-17 20:29:58.31	76.84	15.74	-85.2	-88.8	2.5	1.56e+00	0	47	104	0	60	1048575
2026-01-17 20:30:01.33	77.49	15.73	-85.2	-88.8	2.6	1.56e+00	0	47	104	0	60	1048575
2026-01-17 20:30:04.35	78.15	15.72	-85.2	-88.8	2.7	1.56e+00	0	47	104	0	60	1048567
2026-01-17 20:30:07.36	78.80	15.70	-85.2	-88.8	2.5	1.56e+00	0	47	104	0	60	1048574
2026-01-17 20:30:10.37	79.45	15.68	-85.2	-88.8	2.6	1.56e+00	0	47	104	0	60	1048575
2026-01-17 20:30:13.39	80.10	15.66	-85.2	-88.8	2.7	1.56e+00	0	47	104	0	60	1048572
2026-01-17 20:30:16.42	80.75	15.63	-85.2	-88.8	2.6	1.56e+00	0	47	104	0	60	1048574
2026-01-17 20:30:19.44	81.40	15.60	-85.2	-88.8	2.7	1.56e+00	0	47	104	0	60	1048575
2026-01-17 20:30:22.46	82.05	15.56	-85.2	-88.8	2.8	1.56e+00	0	47	104	0	60	1048573
2026-01-17 20:30:25.48	82.70	15.52	-85.2	-88.8	2.8	1.56e+00	0	47	104	0	60	1048575
2026-01-17 20:30:28.50	83.34	15.48	-85.2	-88.8	2.7	1.56e+00	0	47	104	0	60	1048566
2026-01-17 20:30:31.51	83.98	15.44	-85.2	-88.8	2.6	1.56e+00	0	47	104	0	60	1048575
2026-01-17 20:30:34.54	84.62	15.39	-85.2	-88.8	2.8	1.56e+00	0	47	104	0	60	1048574
2026-01-17 20:30:37.56	85.26	15.34	-85.2	-88.8	2.8	1.56e+00	0	47	104	0	60	1048572
2026-01-17 20:30:40.58	85.90	15.28	-85.2	-88.8	2.6	1.56e+00	0	47	104	0	60	1048575
2026-01-17 20:30:43.61	86.54	15.22	-85.2	-88.8	2.7	1.56e+00	0	47	104	0	60	1048575
2026-01-17 20:30:46.63	87.17	15.16	-85.2	-88.8	2.6	1.56e+00	0	47	104	0	60	1048572
2026-01-17 20:30:49.65	87.80	15.10	-85.2	-88.8	2.6	1.56e+00	0	47	104	0	60	1048569
2026-01-17 20:30:52.68	88.43	15.03	-85.2	-88.8	2.7	1.56e+00	0	47	104	0	60	1048575
2026-01-17 20:30:55.69	89.05	14.96	-84.3	-88.8	2.6	1.56e+00	0	47	104	0	60	1048574
2026-01-17 20:30:58.71	89.67	14.89	-83.9	-88.8	2.7	1.56e+00	0	47	104	0	60	1048574
2026-01-17 20:31:01.73	90.29	14.81	-82.8	-88.8	2.8	1.56e+00	0	47	104	0	60	1048575
2026-01-17 20:31:04.75	90.90	14.73	-85.2	-88.8	2.7	1.56e+00	0	47	104	0	60	1048573
2026-01-17 20:31:07.77	91.52	14.65	-85.2	-88.8	2.8	1.56e+00	0	47	104	0	60	1048575
2026-01-17 20:31:10.79	92.13	14.57	-84.7	-88.8	2.7	1.56e+00	0	47	104	0	60	1048570
2026-01-17 20:31:13.81	92.73	14.48	-85.2	-88.8	2.7	1.56e+00	0	47	104	0	60	1048575
2026-01-17 20:31:16.82	93.33	14.39	-85.2	-88.8	2.7	1.56e+00	0	47	104	0	60	1048572
2026-01-17 20:31:19.84	93.93	14.30	-85.2	-88.8	2.9	1.56e+00	0	48	104	0	60	1048573
2026-01-17 20:31:22.86	94.52	14.20	-85.2	-88.8	2.6	1.56e+00	0	47	104	0	60	1048574
2026-01-17 20:31:25.88	95.11	14.11	-83.5	-88.8	2.8	1.56e+00	0	47	104	0	60	1048575
2026-01-17 20:31:28.90	95.70	14.01	-85.2	-88.8	2.8	1.56e+00	0	47	104	0	60	1048575
2026-01-17 20:31:31.92	96.29	13.91	-83.9	-88.8	2.8	1.56e+00	0	47	104	0	60	1048575
2026-01-17 20:31:34.94	96.87	13.80	-85.2	-88.8	2.7	1.56e+00	0	47	104	0	60	1048574
2026-01-17 20:31:37.97	97.44	13.69	-85.2	-88.8	2.8	1.56e+00	0	47	104	0	60	1048575
2026-01-17 20:31:40.99	98.01	13.59	-85.2	-88.8	2.7	1.56e+00	0	47	104	0	60	1048574
2026-01-17 20:31:44.01	98.58	13.48	-85.2	-88.8	2.9	1.56e+00	0	47	104	0	60	1048567
2026-01-17 20:31:47.02	99.14	13.36	-85.2	-88.8	2.7	1.56e+00	0	47	104	0	60	1048571
2026-01-17 20:31:50.03	99.70	13.25	-85.2	-88.8	2.7	1.56e+00	0	47	104	0	60	1048575
2026-01-17 20:31:53.05	100.26	13.13	-85.2	-88.8	2.6	1.56e+00	0	47	104	0	60	1048575
2026-01-17 20:31:56.07	100.81	13.01	-85.2	-88.8	2.7	1.56e+00	0	47	104	0	60	1048573
2026-01-17 20:31:59.09	101.35	12.89	-85.2	-88.8	2.8	1.56e+00	0	47	104	0	60	1048573
2026-01-17 20:32:02.10	101.89	12.77	-85.2	-88.8	2.8	1.56e+00	0	47	104	0	60	1048575
2026-01-17 20:32:05.12	102.43	12.65	-85.2	-88.8	2.9	1.56e+00	0	48	104	0	60	1048574
2026-01-17 20:32:08.14	102.97	12.52	-85.2	-88.8	2.8	1.56e+00	0	47	104	0	60	1048572
2026-01-17 20:32:11.17	103.50	12.40	-85.2	-88.8	2.8	1.56e+00	0	47	104	0	60	1048573
2026-01-17 20:32:14.19	104.02	12.27	-85.2	-88.8	2.8	1.56e+00	0	47	104	0	60	1048570
2026-01-17 20:32:17.21	104.54	12.14	-85.2	-88.8	2.6	1.56e+00	0	48	104	0	60	1048573
2026-01-17 20:32:20.23	105.06	12.01	-85.2	-88.8	2.6	1.56e+00	0	47	104	0	60	1048574
2026-01-17 20:32:23.25	105.57	11.88	-85.2	-88.8	2.7	1.56e+00	0	48	104	0	60	1048573
2026-01-17 20:32:26.28	106.08	11.74	-83.9	-88.8	2.5	1.56e+00	0	47	104	0	60	1048574
2026-01-17 20:32:29.29	106.58	11.61	-85.2	-88.8	2.9	1.56e+00	0	47	104	0	60	1048575
2026-01-17 20:32:32.31	107.08	11.47	-85.2	-88.8	2.7	1.56e+00	0	47	104	0	60	1048574
2026-01-17 20:32:35.33	107.57	11.33	-85.2	-88.8	2.8	1.56e+00	0	47	104	0	60	1048573
2026-01-17 20:32:38.35	108.06	11.19	-85.2	-88.8	2.7	1.56e+00	0	47	104	0	60	1048575
2026-01-17 20:32:41.38	108.55	11.05	-85.2	-88.8	2.7	1.56e+00	0	47	104	0	60	1048571
2026-01-17 20:32:44.40	109.03	10.91	-85.2	-88.8	2.9	1.56e+00	0	47	104	0	60	1048574
2026-01-17 20:32:47.42	109.50	10.77	-85.2	-88.8	2.8	1.56e+00	0	47	104	0	60	1048573
2026-01-17 20:32:50.44	109.98	10.63	-85.2	-88.8	2.7	1.56e+00	0	47	104	0	60	1048575
2026-01-17 20:32:53.45	110.44	10.49	-85.2	-88.8	2.6	1.56e+00	0	47	104	0	60	1048575
2026-01-17 20:32:56.47	110.90	10.34	-85.2	-88.8	2.7	1.56e+00	0	47	104	0	60	1048572
2026-01-17 20:32:59.48	111.36	10.20	-85.2	-88.8	2.8	1.56e+00	0	47	104	0	60	1048575
2026-01-17 20:33:02.49	111.81	10.05	-85.2	-88.8	2.7	1.56e+00	0	47	104	0	60	1048573
2026-01-17 20:33:05.51	112.26	9.91	-85.2	-88.8	2.7	1.56e+00	0	47	104	0	60	1048572
2026-01-17 20:33:08.51	112.71	9.76	-85.2	-88.8	2.8	1.56e+00	0	47	104	0	60	1048571
2026-01-17 20:33:11.52	113.15	9.61	-85.2	-88.8	2.6	1.56e+00	0	47	104	0	60	1048574
2026-01-17 20:33:14.53	113.58	9.47	-85.2	-88.8	2.7	1.56e+00	0	47	104	0	60	1048575
2026-01-17 20:33:17.55	114.01	9.32	-85.2	-88.8	2.7	1.56e+00	0	48	104	0	60	1048573
2026-01-17 20:33:20.58	114.44	9.17	-85.2	-88.8	2.8	1.56e+00	0	48	104	0	60	1048575
2026-01-17 20:33:23.60	114.87	9.02	-85.2	-88.8	2.7	1.56e+00	0	47	104	0	60	1048570
2026-01-17 20:33:26.61	115.29	8.87	-85.2	-88.8	2.6	1.56e+00	0	47	104	0	60	1048575
2026-01-17 20:33:29.63	115.70	8.72	-85.2	-88.8	2.6	1.56e+00	0	48	104	0	60	1048575
2026-01-17 20:33:32.65	116.11	8.57	-85.2	-88.8	2.7	1.56e+00	0	48	104	0	60	1048574
2026-01-17 20:33:35.67	116.52	8.42	-85.2	-88.8	2.5	1.56e+00	0	47	104	0	60	1048572
2026-01-17 20:33:38.70	116.93	8.26	-85.2	-88.8	2.4	1.56e+00	0	48	104	0	60	1048567
2026-01-17 20:33:41.72	117.33	8.11	-85.2	-88.8	2.6	1.56e+00	0	47	104	0	60	1048574
2026-01-17 20:33:44.72	117.72	7.96	-85.2	-88.8	2.7	1.56e+00	0	47	104	0	60	1048575
2026-01-17 20:33:47.74	118.11	7.81	-85.2	-88.8	2.5	1.56e+00	0	47	104	0	60	1048572
2026-01-17 20:33:50.76	118.50	7.66	-85.2	-88.8	2.7	1.56e+00	0	47	104	0	60	1048575
2026-01-17 20:33:53.78	118.88	7.50	-85.2	-88.8	2.5	1.56e+00	0	47	104	0	60	1048574
2026-01-17 20:33:56.80	119.26	7.35	-85.2	-88.8	2.8	1.56e+00	0	47	104	0	60	1048575
2026-01-17 20:33:59.81	119.64	7.20	-85.2	-88.8	2.8	1.56e+00	0	47	104	0	60	1048571
2026-01-17 20:34:02.82	120.01	7.05	-85.2	-88.8	2.7	1.56e+00	0	47	104	0	60	1048575
2026-01-17 20:34:05.84	120.38	6.89	-85.2	-88.8	2.7	1.56e+00	0	48	104	0	60	1048575
2026-01-17 20:34:08.86	120.74	6.74	-85.2	-88.8	3.0	1.56e+00	0	47	104	0	60	1048575
2026-01-17 20:34:11.89	121.11	6.59	-85.2	-88.8	2.7	1.56e+00	0	48	104	0	60	1048568
2026-01-17 20:34:14.90	121.46	6.43	-85.2	-88.8	2.8	1.56e+00	0	47	104	0	60	1048575
2026-01-17 20:34:17.92	121.82	6.28	-85.2	-88.8	2.8	1.56e+00	0	47	104	0	60	1048575
2026-01-17 20:34:20.94	122.17	6.13	-85.2	-88.8	2.8	1.56e+00	0	47	104	0	60	1048575
2026-01-17 20:34:23.96	122.51	5.97	-85.2	-88.8	2.7	1.56e+00	0	47	104	0	60	1048575
2026-01-17 20:34:26.99	122.86	5.82	-85.2	-88.8	2.8	1.56e+00	0	47	104	0	60	1048575
2026-01-17 20:34:30.01	123.20	5.67	-85.2	-88.8	2.7	1.56e+00	0	47	104	0	60	1048575
2026-01-17 20:34:33.02	123.54	5.51	-85.2	-88.8	2.5	1.55e+00	0	48	104	0	60	1048573
2026-01-17 20:34:36.04	123.87	5.36	-85.2	-88.8	2.5	1.56e+00	0	47	104	0	60	1048574
2026-01-17 20:34:39.07	124.20	5.21	-85.2	-88.8	2.7	1.56e+00	0	47	104	0	60	1048575
2026-01-17 20:34:42.09	124.53	5.06	-85.2	-88.8	2.7	1.56e+00	0	47	104	0	60	1048573
2026-01-17 20:34:45.12	124.85	4.90	-85.2	-88.8	2.6	1.56e+00	0	47	104	0	60	1048573
2026-01-17 20:34:48.14	125.17	4.75	-85.2	-88.8	2.7	1.56e+00	0	47	104	0	60	1048574
2026-01-17 20:34:51.15	125.49	4.60	-85.2	-88.8	2.8	1.56e+00	0	47	104	0	60	1048575
2026-01-17 20:34:54.16	125.80	4.45	-85.2	-88.8	2.7	1.56e+00	0	47	104	0	60	1048575
2026-01-17 20:34:57.18	126.11	4.29	-85.2	-88.8	2.7	1.56e+00	0	47	104	0	60	1048575
2026-01-17 20:35:00.19	126.42	4.14	-85.2	-88.8	2.9	1.56e+00	0	47	104	0	60	1048572
2026-01-17 20:35:03.21	126.72	3.99	-85.2	-88.8	2.8	1.56e+00	0	47	104	0	60	1048571
2026-01-17 20:35:06.21	127.02	3.84	-85.2	-88.8	2.8	1.56e+00	0	47	104	0	60	1048575
2026-01-17 20:35:09.23	127.32	3.69	-85.2	-88.8	2.8	1.56e+00	0	47	104	0	60	1048575
2026-01-17 20:35:12.25	127.62	3.54	-85.2	-88.8	2.6	1.56e+00	0	47	104	0	60	1048575
2026-01-17 20:35:15.27	127.91	3.39	-85.2	-88.8	2.8	1.56e+00	0	47	104	0	60	1048575
2026-01-17 20:35:18.29	128.20	3.24	-84.7	-88.8	2.8	1.56e+00	0	47	104	0	60	1048573
2026-01-17 20:35:21.30	128.49	3.09	-85.2	-88.8	2.7	1.56e+00	0	47	104	0	60	1048572
2026-01-17 20:35:24.31	128.77	2.94	-85.2	-88.8	2.8	1.56e+00	0	47	104	0	60	1048574
2026-01-17 20:35:27.31	129.05	2.79	-84.3	-88.8	2.7	1.56e+00	0	47	104	0	60	1048574
2026-01-17 20:35:30.33	129.33	2.64	-85.2	-88.8	2.8	1.56e+00	0	47	104	0	60	1048574
2026-01-17 20:35:33.36	129.61	2.49	-85.2	-88.8	2.7	1.56e+00	0	47	104	0	60	1048572
2026-01-17 20:35:36.38	129.88	2.34	-85.2	-88.8	2.7	1.56e+00	0	48	104	0	60	1048575
2026-01-17 20:35:39.40	130.16	2.19	-85.2	-88.8	2.9	1.56e+00	0	47	104	0	60	1048575
2026-01-17 20:35:42.42	130.42	2.04	-85.2	-88.8	2.7	1.56e+00	0	48	104	0	60	1048575
2026-01-17 20:35:45.44	130.69	1.89	-85.2	-88.8	2.7	1.56e+00	0	47	104	0	60	1048575
2026-01-17 20:35:48.46	130.95	1.75	-85.2	-88.8	2.6	1.56e+00	0	48	104	0	60	1048573
2026-01-17 20:35:51.47	131.22	1.60	-84.3	-88.8	2.7	1.56e+00	0	48	104	0	60	1048575
2026-01-17 20:35:54.49	131.47	1.45	-85.2	-88.8	2.8	1.56e+00	0	47	104	0	60	1048575
2026-01-17 20:35:57.50	131.73	1.31	-85.2	-88.8	2.7	1.56e+00	0	47	104	0	60	1048571
2026-01-17 20:36:00.52	131.98	1.16	-85.2	-88.8	2.9	1.55e+00	0	47	104	0	60	1048575
2026-01-17 20:36:03.54	132.24	1.01	-85.2	-88.8	2.9	1.56e+00	0	47	104	0	60	1048568
2026-01-17 20:36:06.56	132.48	0.87	-85.2	-88.8	2.4	1.56e+00	0	47	104	0	60	1048574
2026-01-17 20:36:09.58	132.73	0.72	-85.2	-88.8	2.5	1.56e+00	0	47	104	0	60	1048573
2026-01-17 20:36:12.60	132.98	0.58	-85.2	-88.8	2.7	1.56e+00	0	47	104	0	60	1048572
2026-01-17 20:36:15.62	133.22	0.43	-85.2	-88.8	2.9	1.56e+00	0	48	104	0	60	1048575
2026-01-17 20:36:18.63	133.46	0.29	-85.2	-88.8	2.6	1.56e+00	0	47	104	0	60	1048575
2026-01-17 20:36:21.65	133.70	0.14	-85.2	-88.8	2.4	1.56e+00	0	47	104	0	60	1048575
2026-01-17 20:36:24.68	133.93	-0.00	-85.2	-88.8	2.7	1.56e+00	0	47	104	0	60	1048575

#Closed at: 2026-01-17 20:36:24
#Recorded file [0 MB]: D:/Data/35015_260117_232316.dat