passes_logs/2026/01/17/R3.2S-Naryan-Mar/R3.2S-Naryan-Mar__20260117_211340_NOAA_20_JPSS-1_rec.log

#Pass ID: 20260117_211340_NOAA 20 (JPSS-1)
#Satellite: NOAA 20 (JPSS-1)
#Configuration: NOAA 20
#almurnet v.1.7.20240730
#Start time: 2026-01-17 21:13:43

#Version: 2.2.20231116
#Station: R3.2S-Naryan-Mar
#Location: 53.008057 lon 67.646978 lat
#TLE: 1 43013U 17073A   26017.30359522  .00000067  00000+0  52526-4 0  9990
#TLE: 2 43013  98.7639 318.2187 0001419  36.2087 323.9184 14.19536557423067

#Time	Az	El	Level	Level2	SNR	BER	BlckErr	Temp	State	Recorded	gain1	gain2
2026-01-17 21:13:43.14	17.59	0.12	-85.2	-88.6	4.6	1.63e+00	0	46	0	0	60	1048572
2026-01-17 21:13:47.15	17.82	0.34	-85.2	-88.6	3.0	1.55e+00	0	46	104	0	60	1048567
2026-01-17 21:13:51.18	18.05	0.56	-85.2	-88.6	2.8	1.56e+00	0	46	104	0	60	1048575
2026-01-17 21:13:55.21	18.29	0.78	-85.2	-88.6	3.2	1.56e+00	0	46	104	0	60	1048575
2026-01-17 21:13:59.23	18.53	1.00	-85.2	-88.6	3.0	1.56e+00	0	46	104	0	60	1048574
2026-01-17 21:14:03.27	18.77	1.22	-85.2	-88.6	2.9	1.56e+00	0	46	104	0	60	1048575
2026-01-17 21:14:07.29	19.02	1.44	-85.2	-88.6	3.2	1.56e+00	0	46	104	0	60	1048573
2026-01-17 21:14:11.32	19.27	1.67	-85.2	-88.6	3.0	1.56e+00	0	46	104	0	60	1048575
2026-01-17 21:14:15.35	19.53	1.89	-85.2	-88.6	3.1	1.55e+00	0	46	104	0	60	1048575
2026-01-17 21:14:19.38	19.78	2.12	-85.2	-88.6	2.7	1.56e+00	0	46	104	0	60	1048570
2026-01-17 21:14:23.41	20.04	2.35	-85.2	-88.6	2.8	1.56e+00	0	46	104	0	60	1048574
2026-01-17 21:14:27.44	20.31	2.58	-85.2	-88.6	3.1	1.56e+00	0	46	104	0	60	1048574
2026-01-17 21:14:31.46	20.58	2.81	-85.2	-88.6	2.9	1.55e+00	0	46	104	0	60	1048575
2026-01-17 21:14:35.49	20.85	3.04	-85.2	-88.6	3.0	1.56e+00	0	46	104	0	60	1048575
2026-01-17 21:14:39.51	21.13	3.27	-85.2	-88.6	2.9	1.55e+00	0	46	104	0	60	1048574
2026-01-17 21:14:43.54	21.41	3.51	-85.2	-88.6	2.8	1.56e+00	0	46	104	0	60	1048575
2026-01-17 21:14:47.57	21.69	3.75	-85.2	-88.6	2.9	1.55e+00	0	47	104	0	60	1048575
2026-01-17 21:14:51.59	21.98	3.98	-85.2	-88.6	2.8	1.56e+00	0	47	104	0	60	1048575
2026-01-17 21:14:55.62	22.27	4.22	-85.2	-88.6	3.0	1.55e+00	0	47	104	0	60	1048575
2026-01-17 21:14:59.64	22.57	4.46	-85.2	-88.6	3.1	1.56e+00	0	47	104	0	60	1048575
2026-01-17 21:15:03.67	22.87	4.71	-85.2	-88.6	2.9	1.56e+00	0	47	104	0	60	1048570
2026-01-17 21:15:07.69	23.18	4.95	-85.2	-88.6	3.1	1.56e+00	0	47	104	0	60	1048575
2026-01-17 21:15:11.72	23.49	5.20	-85.2	-88.6	3.1	1.56e+00	0	46	104	0	60	1048573
2026-01-17 21:15:15.75	23.81	5.45	-85.2	-88.6	3.0	1.56e+00	0	47	104	0	60	1048573
2026-01-17 21:15:19.78	24.13	5.70	-85.2	-88.6	3.0	1.56e+00	0	47	104	0	60	1048570
2026-01-17 21:15:23.81	24.46	5.95	-85.2	-88.6	3.2	1.55e+00	0	47	104	0	60	1048570
2026-01-17 21:15:27.84	24.80	6.20	-85.2	-88.6	3.2	1.56e+00	0	47	104	0	60	1048572
2026-01-17 21:15:31.87	25.13	6.46	-85.2	-88.6	2.9	1.56e+00	0	47	104	0	60	1048575
2026-01-17 21:15:35.90	25.48	6.71	-85.2	-88.6	3.0	1.56e+00	0	47	104	0	60	1048575
2026-01-17 21:15:39.90	25.83	6.97	-85.2	-88.6	3.0	1.56e+00	0	47	104	0	60	1048574
2026-01-17 21:15:43.92	26.18	7.23	-85.2	-88.6	3.0	1.56e+00	0	47	104	0	60	1048574
2026-01-17 21:15:47.94	26.54	7.49	-85.2	-88.6	2.9	1.56e+00	0	47	104	0	60	1048572
2026-01-17 21:15:51.97	26.91	7.75	-85.2	-88.6	3.0	1.56e+00	0	47	104	0	60	1048575
2026-01-17 21:15:55.99	27.29	8.02	-85.2	-88.6	2.9	1.55e+00	0	47	104	0	60	1048575
2026-01-17 21:16:00.01	27.67	8.29	-85.2	-88.6	3.2	1.56e+00	0	47	104	0	60	1048573
2026-01-17 21:16:04.04	28.05	8.55	-85.2	-88.6	3.1	1.56e+00	0	47	104	0	60	1048573
2026-01-17 21:16:08.07	28.45	8.82	-85.2	-88.6	3.0	1.56e+00	0	47	104	0	60	1048573
2026-01-17 21:16:12.08	28.85	9.10	-85.2	-88.6	3.2	1.55e+00	0	47	104	0	60	1048574
2026-01-17 21:16:16.09	29.26	9.37	-85.2	-88.6	3.1	1.56e+00	0	47	104	0	60	1048575
2026-01-17 21:16:20.13	29.67	9.65	-85.2	-88.6	2.8	1.56e+00	0	47	104	0	60	1048572
2026-01-17 21:16:24.16	30.10	9.92	-85.2	-88.6	2.9	1.55e+00	0	47	104	0	60	1048575
2026-01-17 21:16:28.19	30.53	10.20	-85.2	-88.6	3.0	1.56e+00	0	47	104	0	60	1048575
2026-01-17 21:16:32.21	30.97	10.49	-85.2	-88.6	3.0	1.55e+00	0	47	104	0	60	1048575
2026-01-17 21:16:36.24	31.42	10.77	-85.2	-88.6	3.0	1.56e+00	0	47	104	0	60	1048573
2026-01-17 21:16:40.27	31.87	11.05	-85.2	-88.6	3.2	1.55e+00	0	47	104	0	60	1048570
2026-01-17 21:16:44.29	32.34	11.34	-85.2	-88.6	3.0	1.56e+00	0	47	104	0	60	1048573
2026-01-17 21:16:48.32	32.81	11.63	-85.2	-88.6	2.8	1.55e+00	0	47	104	0	60	1048575
2026-01-17 21:16:52.35	33.29	11.92	-85.2	-88.6	3.1	1.56e+00	0	47	104	0	60	1048575
2026-01-17 21:16:56.38	33.79	12.21	-85.2	-88.6	2.9	1.56e+00	0	47	104	0	60	1048575
2026-01-17 21:17:00.40	34.29	12.50	-85.2	-88.6	2.7	1.56e+00	0	47	104	0	60	1048574
2026-01-17 21:17:04.42	34.80	12.80	-85.2	-88.6	3.0	1.56e+00	0	47	104	0	60	1048575
2026-01-17 21:17:08.45	35.32	13.10	-85.2	-88.6	2.9	1.55e+00	0	47	104	0	60	1048575
2026-01-17 21:17:12.47	35.85	13.39	-85.2	-88.6	3.0	1.56e+00	0	47	104	0	60	1048575
2026-01-17 21:17:16.50	36.39	13.69	-85.2	-88.6	3.0	1.56e+00	0	47	104	0	60	1048575
2026-01-17 21:17:20.53	36.94	13.99	-85.2	-88.6	3.1	1.56e+00	0	47	104	0	60	1048574
2026-01-17 21:17:24.57	37.51	14.30	-85.2	-88.6	2.8	1.56e+00	0	47	104	0	60	1048575
2026-01-17 21:17:28.60	38.08	14.60	-85.2	-88.6	2.9	1.56e+00	0	47	104	0	60	1048575
2026-01-17 21:17:32.62	38.67	14.91	-85.2	-88.6	3.0	1.56e+00	0	47	104	0	60	1048575
2026-01-17 21:17:36.65	39.26	15.21	-85.2	-88.6	3.0	1.56e+00	0	47	104	0	60	1048574
2026-01-17 21:17:40.67	39.87	15.52	-84.7	-88.6	2.9	1.56e+00	0	47	104	0	60	1048574
2026-01-17 21:17:44.70	40.49	15.83	-85.2	-88.6	3.1	1.56e+00	0	47	104	0	60	1048574
2026-01-17 21:17:48.73	41.13	16.13	-85.2	-88.6	3.0	1.56e+00	0	47	104	0	60	1048574
2026-01-17 21:17:52.76	41.78	16.44	-85.2	-88.6	3.1	1.56e+00	0	47	104	0	60	1048575
2026-01-17 21:17:56.79	42.44	16.75	-85.2	-88.6	3.0	1.55e+00	0	47	104	0	60	1048575
2026-01-17 21:18:00.81	43.11	17.06	-85.2	-88.6	3.1	1.56e+00	0	47	104	0	60	1048574
2026-01-17 21:18:04.84	43.80	17.37	-85.2	-88.6	2.9	1.56e+00	0	47	104	0	60	1048574
2026-01-17 21:18:08.86	44.49	17.68	-85.2	-88.6	2.8	1.56e+00	0	47	104	0	60	1048574
2026-01-17 21:18:12.89	45.21	17.99	-85.2	-88.6	3.0	1.56e+00	0	47	104	0	60	1048570
2026-01-17 21:18:16.92	45.94	18.30	-85.2	-88.6	3.1	1.56e+00	0	47	104	0	60	1048574
2026-01-17 21:18:20.95	46.68	18.61	-85.2	-88.6	3.1	1.55e+00	0	47	104	0	60	1048575
2026-01-17 21:18:24.98	47.44	18.92	-85.2	-88.6	3.1	1.56e+00	0	47	104	0	60	1048575
2026-01-17 21:18:29.00	48.21	19.22	-85.2	-88.6	3.1	1.56e+00	0	47	104	0	60	1048572
2026-01-17 21:18:33.03	49.00	19.53	-85.2	-88.6	3.0	1.56e+00	0	47	104	0	60	1048573
2026-01-17 21:18:37.06	49.81	19.83	-85.2	-88.6	3.0	1.56e+00	0	47	104	0	60	1048574
2026-01-17 21:18:41.09	50.63	20.13	-85.2	-88.6	3.0	1.56e+00	0	47	104	0	60	1048575
2026-01-17 21:18:45.12	51.46	20.43	-85.2	-88.6	3.2	1.56e+00	0	47	104	0	60	1048573
2026-01-17 21:18:49.15	52.32	20.73	-85.2	-88.6	3.1	1.55e+00	0	47	104	0	60	1048573
2026-01-17 21:18:53.17	53.18	21.02	-85.2	-88.6	3.0	1.55e+00	0	47	104	0	60	1048574
2026-01-17 21:18:57.20	54.07	21.32	-85.2	-88.6	3.0	1.56e+00	0	47	104	0	60	1048574
2026-01-17 21:19:01.20	54.96	21.60	-85.2	-88.6	2.9	1.56e+00	0	47	104	0	60	1048574
2026-01-17 21:19:05.21	55.87	21.88	-85.2	-88.6	2.9	1.55e+00	0	47	104	0	60	1048574
2026-01-17 21:19:09.24	56.81	22.16	-85.2	-88.6	3.3	1.56e+00	0	47	104	0	60	1048575
2026-01-17 21:19:13.25	57.75	22.44	-85.2	-88.6	3.0	1.56e+00	0	47	104	0	60	1048573
2026-01-17 21:19:17.28	58.72	22.70	-85.2	-88.6	3.1	1.56e+00	0	47	104	0	60	1048574
2026-01-17 21:19:21.30	59.70	22.97	-85.2	-88.6	3.0	1.56e+00	0	47	104	0	60	1048572
2026-01-17 21:19:25.33	60.70	23.23	-85.2	-88.6	2.9	1.56e+00	0	47	104	0	60	1048574
2026-01-17 21:19:29.36	61.71	23.48	-85.2	-88.6	3.0	1.56e+00	0	47	104	0	60	1048575
2026-01-17 21:19:33.38	62.74	23.72	-85.2	-88.6	3.0	1.56e+00	0	47	104	0	60	1048575
2026-01-17 21:19:37.41	63.79	23.96	-85.2	-88.6	3.0	1.56e+00	0	47	104	0	60	1048575
2026-01-17 21:19:41.44	64.85	24.19	-85.2	-88.6	3.1	1.56e+00	0	47	104	0	60	1048575
2026-01-17 21:19:45.47	65.93	24.41	-85.2	-88.6	3.2	1.56e+00	0	47	104	0	60	1048574
2026-01-17 21:19:49.50	67.02	24.62	-85.2	-88.6	3.0	1.56e+00	0	47	104	0	60	1048573
2026-01-17 21:19:53.53	68.13	24.82	-85.2	-88.6	3.1	1.56e+00	0	47	104	0	60	1048574
2026-01-17 21:19:57.56	69.25	25.02	-85.2	-88.6	3.0	1.56e+00	0	47	104	0	60	1048575
2026-01-17 21:20:01.58	70.38	25.20	-85.2	-88.6	3.1	1.56e+00	0	47	104	0	60	1048573
2026-01-17 21:20:05.61	71.52	25.37	-85.2	-88.6	3.0	1.56e+00	0	47	104	0	60	1048575
2026-01-17 21:20:09.63	72.68	25.54	-85.2	-88.6	3.2	1.55e+00	0	47	104	0	60	1048575
2026-01-17 21:20:13.66	73.85	25.69	-85.2	-88.6	3.0	1.56e+00	0	47	104	0	60	1048574
2026-01-17 21:20:17.68	75.02	25.83	-85.2	-88.6	3.1	1.56e+00	0	47	104	0	60	1048574
2026-01-17 21:20:21.71	76.21	25.95	-85.2	-88.6	2.9	1.56e+00	0	47	104	0	60	1048575
2026-01-17 21:20:25.73	77.41	26.07	-85.2	-88.6	3.0	1.56e+00	0	47	104	0	60	1048570
2026-01-17 21:20:29.75	78.61	26.17	-85.2	-88.6	2.9	1.55e+00	0	47	104	0	60	1048575
2026-01-17 21:20:33.78	79.83	26.26	-85.2	-88.6	3.1	1.56e+00	0	47	104	0	60	1048575
2026-01-17 21:20:37.81	81.05	26.33	-85.2	-88.6	2.9	1.55e+00	0	47	104	0	60	1048575
2026-01-17 21:20:41.83	82.27	26.40	-85.2	-88.6	3.0	1.55e+00	0	47	104	0	60	1048575
2026-01-17 21:20:45.85	83.50	26.44	-85.2	-88.6	2.9	1.55e+00	0	47	104	0	60	1048575
2026-01-17 21:20:49.88	84.73	26.48	-85.2	-88.6	3.2	1.55e+00	0	47	104	0	60	1048573
2026-01-17 21:20:53.91	85.97	26.50	-85.2	-88.6	2.9	1.56e+00	0	47	104	0	60	1048574
2026-01-17 21:20:57.94	87.20	26.51	-85.2	-88.6	2.9	1.55e+00	0	47	104	0	60	1048575
2026-01-17 21:21:01.97	88.44	26.50	-85.2	-88.6	3.1	1.56e+00	0	47	104	0	60	1048574
2026-01-17 21:21:06.00	89.68	26.48	-85.2	-88.6	3.1	1.56e+00	0	47	104	0	60	1048573
2026-01-17 21:21:10.03	90.91	26.44	-85.2	-88.6	3.0	1.55e+00	0	47	104	0	60	1048575
2026-01-17 21:21:14.05	92.14	26.40	-85.2	-88.6	3.1	1.56e+00	0	47	104	0	60	1048573
2026-01-17 21:21:18.07	93.36	26.33	-85.2	-88.6	2.8	1.56e+00	0	47	104	0	60	1048574
2026-01-17 21:21:22.10	94.58	26.26	-85.2	-88.6	3.0	1.56e+00	0	47	104	0	60	1048575
2026-01-17 21:21:26.13	95.80	26.17	-85.2	-88.6	3.1	1.56e+00	0	47	104	0	60	1048575
2026-01-17 21:21:30.14	97.00	26.07	-85.2	-88.6	3.1	1.55e+00	0	47	104	0	60	1048574
2026-01-17 21:21:34.17	98.20	25.95	-85.2	-88.6	2.9	1.56e+00	0	47	104	0	60	1048570
2026-01-17 21:21:38.20	99.39	25.82	-85.2	-88.6	3.2	1.56e+00	0	47	104	0	60	1048575
2026-01-17 21:21:42.24	100.58	25.68	-85.2	-88.6	3.1	1.56e+00	0	47	104	0	60	1048575
2026-01-17 21:21:46.26	101.74	25.53	-85.2	-88.6	3.0	1.56e+00	0	47	104	0	60	1048575
2026-01-17 21:21:50.28	102.90	25.37	-85.2	-88.6	2.8	1.56e+00	0	47	104	0	60	1048574
2026-01-17 21:21:54.29	104.04	25.20	-85.2	-88.6	3.2	1.56e+00	0	47	104	0	60	1048573
2026-01-17 21:21:58.32	105.18	25.01	-85.2	-88.6	2.8	1.55e+00	0	47	104	0	60	1048575
2026-01-17 21:22:02.34	106.30	24.82	-85.2	-88.6	2.9	1.56e+00	0	47	104	0	60	1048573
2026-01-17 21:22:06.37	107.41	24.62	-84.7	-88.6	3.1	1.56e+00	0	47	104	0	60	1048575
2026-01-17 21:22:10.40	108.50	24.40	-85.2	-88.6	3.0	1.56e+00	0	47	104	0	60	1048575
2026-01-17 21:22:14.43	109.58	24.18	-85.2	-88.6	3.2	1.56e+00	0	47	104	0	60	1048569
2026-01-17 21:22:18.45	110.64	23.95	-85.2	-88.6	3.1	1.55e+00	0	47	104	0	60	1048573
2026-01-17 21:22:22.47	111.69	23.71	-85.2	-88.6	2.9	1.56e+00	0	47	104	0	60	1048575
2026-01-17 21:22:26.50	112.73	23.47	-85.2	-88.6	2.9	1.56e+00	0	47	104	0	60	1048575
2026-01-17 21:22:30.51	113.74	23.22	-85.2	-88.6	3.0	1.56e+00	0	47	104	0	60	1048572
2026-01-17 21:22:34.53	114.74	22.96	-85.2	-88.6	3.1	1.56e+00	0	47	104	0	60	1048574
2026-01-17 21:22:38.55	115.72	22.69	-85.2	-88.6	2.9	1.56e+00	0	47	104	0	60	1048575
2026-01-17 21:22:42.58	116.69	22.42	-85.2	-88.6	3.1	1.56e+00	0	47	104	0	60	1048575
2026-01-17 21:22:46.61	117.64	22.15	-85.2	-88.6	2.9	1.56e+00	0	47	104	0	60	1048573
2026-01-17 21:22:50.64	118.58	21.87	-85.2	-88.6	3.0	1.56e+00	0	47	104	0	60	1048575
2026-01-17 21:22:54.67	119.50	21.58	-85.2	-88.6	3.1	1.56e+00	0	47	104	0	60	1048575
2026-01-17 21:22:58.69	120.40	21.29	-85.2	-88.6	3.0	1.56e+00	0	47	104	0	60	1048574
2026-01-17 21:23:02.71	121.28	21.00	-85.2	-88.6	3.1	1.56e+00	0	47	104	0	60	1048575
2026-01-17 21:23:06.74	122.16	20.70	-85.2	-88.6	2.8	1.56e+00	0	47	104	0	60	1048575
2026-01-17 21:23:10.76	123.01	20.41	-85.2	-88.6	3.0	1.56e+00	0	47	104	0	60	1048575
2026-01-17 21:23:14.78	123.84	20.11	-85.2	-88.6	3.0	1.56e+00	0	47	104	0	60	1048575
2026-01-17 21:23:18.81	124.67	19.80	-85.2	-88.6	3.0	1.55e+00	0	47	104	0	60	1048574
2026-01-17 21:23:22.85	125.48	19.49	-85.2	-88.6	2.9	1.56e+00	0	47	104	0	60	1048574
2026-01-17 21:23:26.86	126.26	19.19	-85.2	-88.6	3.1	1.56e+00	0	47	104	0	60	1048572
2026-01-17 21:23:30.88	127.04	18.88	-85.2	-88.6	2.9	1.56e+00	0	47	104	0	60	1048574
2026-01-17 21:23:34.92	127.80	18.57	-85.2	-88.6	3.1	1.56e+00	0	47	104	0	60	1048575
2026-01-17 21:23:38.95	128.55	18.26	-85.2	-88.6	3.0	1.56e+00	0	47	104	0	60	1048572
2026-01-17 21:23:42.97	129.28	17.95	-85.2	-88.6	2.8	1.56e+00	0	47	104	0	60	1048575
2026-01-17 21:23:46.98	129.99	17.64	-85.2	-88.6	3.0	1.56e+00	0	47	104	0	60	1048575
2026-01-17 21:23:51.01	130.69	17.33	-85.2	-88.6	2.9	1.56e+00	0	47	104	0	60	1048575
2026-01-17 21:23:55.05	131.38	17.01	-85.2	-88.6	3.0	1.56e+00	0	47	104	0	60	1048575
2026-01-17 21:23:59.08	132.06	16.70	-85.2	-88.6	3.0	1.56e+00	0	47	104	0	60	1048575
2026-01-17 21:24:03.11	132.72	16.39	-85.2	-88.6	3.0	1.56e+00	0	47	104	0	60	1048575
2026-01-17 21:24:07.13	133.37	16.08	-85.2	-88.6	2.9	1.55e+00	0	47	104	0	60	1048574
2026-01-17 21:24:11.15	134.00	15.77	-85.2	-88.6	3.0	1.55e+00	0	47	104	0	60	1048573
2026-01-17 21:24:15.17	134.62	15.46	-85.2	-88.6	3.1	1.56e+00	0	47	104	0	60	1048575
2026-01-17 21:24:19.20	135.23	15.15	-85.2	-88.6	3.0	1.55e+00	0	47	104	0	60	1048575
2026-01-17 21:24:23.22	135.83	14.84	-84.3	-88.6	3.0	1.56e+00	0	47	104	0	60	1048574
2026-01-17 21:24:27.25	136.42	14.54	-85.2	-88.6	3.0	1.55e+00	0	47	104	0	60	1048572
2026-01-17 21:24:31.27	136.99	14.23	-85.2	-88.6	3.0	1.56e+00	0	47	104	0	60	1048570
2026-01-17 21:24:35.30	137.56	13.93	-85.2	-88.6	3.1	1.56e+00	0	47	104	0	60	1048575
2026-01-17 21:24:39.33	138.11	13.62	-85.2	-88.6	3.1	1.56e+00	0	47	104	0	60	1048573
2026-01-17 21:24:43.36	138.65	13.32	-85.2	-88.6	3.1	1.56e+00	0	47	104	0	60	1048574
2026-01-17 21:24:47.39	139.18	13.02	-85.2	-88.6	3.0	1.56e+00	0	47	104	0	60	1048574
2026-01-17 21:24:51.42	139.70	12.72	-85.2	-88.6	2.9	1.56e+00	0	47	104	0	60	1048575
2026-01-17 21:24:55.44	140.21	12.43	-85.2	-88.6	2.9	1.56e+00	0	47	104	0	60	1048575
2026-01-17 21:24:59.46	140.71	12.13	-85.2	-88.6	3.0	1.56e+00	0	47	104	0	60	1048571
2026-01-17 21:25:03.49	141.21	11.84	-85.2	-88.6	2.8	1.56e+00	0	47	104	0	60	1048575
2026-01-17 21:25:07.51	141.69	11.55	-85.2	-88.6	2.9	1.56e+00	0	47	104	0	60	1048573
2026-01-17 21:25:11.53	142.16	11.26	-85.2	-88.6	3.1	1.55e+00	0	47	104	0	60	1048575
2026-01-17 21:25:15.57	142.63	10.97	-85.2	-88.6	2.9	1.56e+00	0	47	104	0	60	1048568
2026-01-17 21:25:19.60	143.08	10.68	-85.2	-88.6	3.2	1.56e+00	0	47	104	0	60	1048575
2026-01-17 21:25:23.61	143.53	10.40	-85.2	-88.6	3.0	1.56e+00	0	47	104	0	60	1048573
2026-01-17 21:25:27.64	143.97	10.11	-83.9	-88.6	3.0	1.56e+00	0	47	104	0	60	1048574
2026-01-17 21:25:31.66	144.40	9.83	-85.2	-88.6	3.1	1.56e+00	0	47	104	0	60	1048575
2026-01-17 21:25:35.69	144.82	9.55	-85.2	-88.6	3.0	1.56e+00	0	47	104	0	60	1048574
2026-01-17 21:25:39.73	145.24	9.27	-85.2	-88.6	3.1	1.56e+00	0	47	104	0	60	1048575
2026-01-17 21:25:43.76	145.65	9.00	-85.2	-88.6	3.0	1.56e+00	0	47	104	0	60	1048575
2026-01-17 21:25:47.78	146.05	8.72	-85.2	-88.6	2.9	1.56e+00	0	47	104	0	60	1048575
2026-01-17 21:25:51.82	146.44	8.45	-85.2	-88.6	3.1	1.56e+00	0	47	104	0	60	1048575
2026-01-17 21:25:55.84	146.83	8.18	-85.2	-88.6	3.2	1.56e+00	0	47	104	0	60	1048573
2026-01-17 21:25:59.86	147.21	7.91	-85.2	-88.6	3.1	1.56e+00	0	47	104	0	60	1048575
2026-01-17 21:26:03.89	147.58	7.64	-85.2	-88.6	2.8	1.55e+00	0	47	104	0	60	1048574
2026-01-17 21:26:07.91	147.95	7.38	-85.2	-88.6	3.1	1.55e+00	0	47	104	0	60	1048575
2026-01-17 21:26:11.94	148.31	7.12	-85.2	-88.6	3.0	1.56e+00	0	47	104	0	60	1048572
2026-01-17 21:26:15.96	148.66	6.85	-85.2	-88.6	3.1	1.56e+00	0	47	104	0	60	1048575
2026-01-17 21:26:19.99	149.01	6.59	-85.2	-88.6	3.0	1.56e+00	0	47	104	0	60	1048573
2026-01-17 21:26:24.02	149.35	6.34	-85.2	-88.6	2.9	1.56e+00	0	47	104	0	60	1048575
2026-01-17 21:26:28.05	149.69	6.08	-83.9	-88.6	3.1	1.56e+00	0	47	104	0	60	1048575
2026-01-17 21:26:32.06	150.02	5.83	-85.2	-88.6	3.0	1.56e+00	0	47	104	0	60	1048575
2026-01-17 21:26:36.08	150.34	5.57	-85.2	-88.6	3.1	1.55e+00	0	47	104	0	60	1048574
2026-01-17 21:26:40.11	150.66	5.32	-85.2	-88.6	2.9	1.56e+00	0	47	104	0	60	1048575
2026-01-17 21:26:44.14	150.98	5.07	-85.2	-88.6	3.0	1.55e+00	0	47	104	0	60	1048575
2026-01-17 21:26:48.16	151.29	4.83	-85.2	-88.6	2.9	1.56e+00	0	47	104	0	60	1048572
2026-01-17 21:26:52.19	151.60	4.58	-85.2	-88.6	3.1	1.55e+00	0	47	104	0	60	1048575
2026-01-17 21:26:56.23	151.90	4.33	-85.2	-88.6	3.2	1.56e+00	0	47	104	0	60	1048573
2026-01-17 21:27:00.25	152.19	4.09	-85.2	-88.6	3.0	1.56e+00	0	47	104	0	60	1048574
2026-01-17 21:27:04.28	152.48	3.85	-85.2	-88.6	3.1	1.55e+00	0	47	104	0	60	1048574
2026-01-17 21:27:08.31	152.77	3.61	-85.2	-88.6	3.1	1.55e+00	0	47	104	0	60	1048572
2026-01-17 21:27:12.34	153.05	3.37	-85.2	-88.6	3.1	1.56e+00	0	47	104	0	60	1048575
2026-01-17 21:27:16.37	153.33	3.13	-85.2	-88.6	3.1	1.55e+00	0	47	104	0	60	1048575
2026-01-17 21:27:20.39	153.61	2.90	-83.1	-88.6	2.8	1.55e+00	0	47	104	0	60	1048575
2026-01-17 21:27:24.42	153.88	2.66	-85.2	-88.6	3.1	1.56e+00	0	47	104	0	60	1048570
2026-01-17 21:27:28.45	154.14	2.43	-85.2	-88.6	3.0	1.56e+00	0	47	104	0	60	1048575
2026-01-17 21:27:32.48	154.40	2.20	-85.2	-88.6	2.9	1.55e+00	0	47	104	0	60	1048571
2026-01-17 21:27:36.50	154.66	1.97	-85.2	-88.6	3.1	1.56e+00	0	47	104	0	60	1048575
2026-01-17 21:27:40.52	154.92	1.74	-85.2	-88.6	3.0	1.56e+00	0	47	104	0	60	1048575
2026-01-17 21:27:44.55	155.17	1.52	-85.2	-88.6	2.9	1.56e+00	0	47	104	0	60	1048574
2026-01-17 21:27:48.58	155.41	1.29	-85.2	-88.6	3.0	1.56e+00	0	47	104	0	60	1048575
2026-01-17 21:27:52.61	155.66	1.07	-85.2	-88.6	2.9	1.56e+00	0	47	104	0	60	1048574
2026-01-17 21:27:56.64	155.90	0.84	-85.2	-88.6	2.9	1.56e+00	0	47	104	0	60	1048575
2026-01-17 21:28:00.66	156.14	0.62	-85.2	-88.6	3.0	1.56e+00	0	47	104	0	60	1048574
2026-01-17 21:28:04.69	156.37	0.40	-85.2	-88.6	3.0	1.56e+00	0	47	104	0	60	1048574
2026-01-17 21:28:08.72	156.60	0.18	-85.2	-88.6	3.1	1.55e+00	0	47	104	0	60	1048573

#Closed at: 2026-01-17 21:28:12
#Recorded file [0 MB]: D:/Data/35015_260118_001343.dat