passes_logs/2026/01/17/R3.2S-Naryan-Mar/R3.2S-Naryan-Mar__20260117_105218_NOAA_20_JPSS-1_rec.log

#Pass ID: 20260117_105218_NOAA 20 (JPSS-1)
#Satellite: NOAA 20 (JPSS-1)
#Configuration: NOAA 20
#almurnet v.1.7.20240730
#Start time: 2026-01-17 10:52:20

#Version: 2.2.20231116
#Station: R3.2S-Naryan-Mar
#Location: 53.008057 lon 67.646978 lat
#TLE: 1 43013U 17073A   26016.24631778  .00000038  00000+0  39093-4 0  9990
#TLE: 2 43013  98.7637 317.1726 0001455  37.6755 322.4523 14.19536243422915

#Time	Az	El	Level	Level2	SNR	BER	BlckErr	Temp	State	Recorded	gain1	gain2
2026-01-17 10:52:20.81	217.71	0.11	-85.2	-88.6	3.0	1.56e+00	0	44	0	0	60	1048568
2026-01-17 10:52:24.83	218.00	0.31	-85.2	-88.6	3.1	1.56e+00	0	45	104	0	60	1048575
2026-01-17 10:52:28.86	218.29	0.52	-85.2	-88.6	3.1	1.56e+00	0	46	104	0	60	1048575
2026-01-17 10:52:32.89	218.58	0.72	-85.2	-88.6	2.9	1.56e+00	0	46	104	0	60	1048575
2026-01-17 10:52:36.91	218.88	0.93	-85.2	-88.6	3.0	1.56e+00	0	46	104	0	60	1048574
2026-01-17 10:52:40.94	219.18	1.13	-85.2	-88.6	3.0	1.55e+00	0	46	104	0	60	1048575
2026-01-17 10:52:44.97	219.49	1.34	-85.2	-88.6	3.0	1.55e+00	0	46	104	0	60	1048574
2026-01-17 10:52:49.00	219.80	1.55	-85.2	-88.6	3.3	1.56e+00	0	46	104	0	60	1048574
2026-01-17 10:52:53.01	220.11	1.76	-85.2	-88.6	2.9	1.55e+00	0	46	104	0	60	1048575
2026-01-17 10:52:57.03	220.43	1.97	-85.2	-88.6	2.7	1.55e+00	0	46	104	0	60	1048574
2026-01-17 10:53:01.05	220.75	2.18	-85.2	-88.6	3.0	1.55e+00	0	46	104	0	60	1048573
2026-01-17 10:53:05.07	221.08	2.39	-85.2	-88.6	2.9	1.56e+00	0	46	104	0	60	1048575
2026-01-17 10:53:09.10	221.41	2.60	-85.2	-88.6	2.9	1.56e+00	0	46	104	0	60	1048574
2026-01-17 10:53:13.13	221.75	2.82	-85.2	-88.6	3.0	1.56e+00	0	46	104	0	60	1048572
2026-01-17 10:53:17.15	222.09	3.03	-85.2	-88.6	2.9	1.55e+00	0	46	104	0	60	1048575
2026-01-17 10:53:21.17	222.43	3.25	-85.2	-88.6	3.0	1.56e+00	0	46	104	0	60	1048573
2026-01-17 10:53:25.19	222.78	3.46	-85.2	-88.6	3.0	1.55e+00	0	46	104	0	60	1048572
2026-01-17 10:53:29.21	223.14	3.68	-85.2	-88.6	2.8	1.56e+00	0	46	104	0	60	1048573
2026-01-17 10:53:33.23	223.50	3.90	-85.2	-88.6	2.9	1.56e+00	0	46	104	0	60	1048575
2026-01-17 10:53:37.26	223.86	4.11	-84.3	-88.6	2.9	1.55e+00	0	46	104	0	60	1048575
2026-01-17 10:53:41.28	224.23	4.33	-85.2	-88.6	3.0	1.56e+00	0	46	104	0	60	1048571
2026-01-17 10:53:45.31	224.61	4.55	-85.2	-88.6	3.1	1.56e+00	0	46	104	0	60	1048575
2026-01-17 10:53:49.33	224.99	4.77	-85.2	-88.6	2.9	1.55e+00	0	46	104	0	60	1048571
2026-01-17 10:53:53.34	225.37	5.00	-85.2	-88.6	3.1	1.56e+00	0	46	104	0	60	1048572
2026-01-17 10:53:57.37	225.77	5.22	-84.7	-88.6	3.1	1.56e+00	0	47	104	0	60	1048575
2026-01-17 10:54:01.40	226.17	5.44	-85.2	-88.6	3.2	1.56e+00	0	46	104	0	60	1048565
2026-01-17 10:54:05.42	226.57	5.67	-85.2	-88.6	3.0	1.55e+00	0	47	104	0	60	1048574
2026-01-17 10:54:09.44	226.98	5.89	-85.2	-88.6	3.1	1.56e+00	0	46	104	0	60	1048574
2026-01-17 10:54:13.47	227.40	6.12	-85.2	-88.6	2.9	1.56e+00	0	46	104	0	60	1048572
2026-01-17 10:54:17.51	227.82	6.34	-83.9	-88.6	3.1	1.56e+00	0	47	104	0	60	1048575
2026-01-17 10:54:21.54	228.25	6.57	-85.2	-88.6	3.1	1.55e+00	0	47	104	0	60	1048574
2026-01-17 10:54:25.55	228.68	6.80	-85.2	-88.6	3.0	1.56e+00	0	47	104	0	60	1048575
2026-01-17 10:54:29.58	229.12	7.03	-85.2	-88.6	2.9	1.56e+00	0	46	104	0	60	1048572
2026-01-17 10:54:33.61	229.57	7.26	-85.2	-88.6	3.0	1.55e+00	0	47	104	0	60	1048572
2026-01-17 10:54:37.64	230.03	7.48	-84.7	-88.6	3.0	1.56e+00	0	47	104	0	60	1048575
2026-01-17 10:54:41.67	230.49	7.72	-85.2	-88.6	2.8	1.56e+00	0	46	104	0	60	1048573
2026-01-17 10:54:45.70	230.96	7.95	-85.2	-88.6	2.9	1.56e+00	0	47	104	0	60	1048573
2026-01-17 10:54:49.73	231.44	8.18	-85.2	-88.6	3.0	1.56e+00	0	47	104	0	60	1048575
2026-01-17 10:54:53.75	231.92	8.41	-85.2	-88.6	2.9	1.56e+00	0	46	104	0	60	1048575
2026-01-17 10:54:57.78	232.41	8.64	-85.2	-88.6	3.0	1.56e+00	0	47	104	0	60	1048573
2026-01-17 10:55:01.81	232.91	8.87	-85.2	-88.6	3.0	1.56e+00	0	47	104	0	60	1048575
2026-01-17 10:55:05.84	233.42	9.11	-85.2	-88.6	3.1	1.55e+00	0	47	104	0	60	1048574
2026-01-17 10:55:09.87	233.94	9.34	-85.2	-88.6	3.1	1.56e+00	0	47	104	0	60	1048575
2026-01-17 10:55:13.90	234.46	9.57	-85.2	-88.6	2.9	1.56e+00	0	47	104	0	60	1048575
2026-01-17 10:55:17.93	234.99	9.80	-85.2	-88.6	2.9	1.56e+00	0	47	104	0	60	1048573
2026-01-17 10:55:21.96	235.53	10.04	-85.2	-88.6	3.1	1.56e+00	0	47	104	0	60	1048573
2026-01-17 10:55:25.98	236.07	10.27	-85.2	-88.6	2.9	1.56e+00	0	47	104	0	60	1048575
2026-01-17 10:55:30.00	236.63	10.50	-84.7	-88.6	3.0	1.56e+00	0	47	104	0	60	1048575
2026-01-17 10:55:34.03	237.19	10.73	-85.2	-88.6	2.8	1.56e+00	0	47	104	0	60	1048575
2026-01-17 10:55:38.07	237.77	10.97	-85.2	-88.6	2.9	1.56e+00	0	47	104	0	60	1048571
2026-01-17 10:55:42.10	238.35	11.20	-85.2	-88.6	3.1	1.56e+00	0	47	104	0	60	1048575
2026-01-17 10:55:46.12	238.94	11.43	-84.3	-88.6	2.9	1.56e+00	0	47	104	0	60	1048572
2026-01-17 10:55:50.15	239.54	11.66	-85.2	-88.6	2.9	1.56e+00	0	47	104	0	60	1048575
2026-01-17 10:55:54.18	240.15	11.89	-85.2	-88.6	2.9	1.56e+00	0	47	104	0	60	1048574
2026-01-17 10:55:58.21	240.77	12.12	-85.2	-88.6	2.9	1.55e+00	0	47	104	0	60	1048575
2026-01-17 10:56:02.24	241.40	12.35	-85.2	-88.6	3.2	1.56e+00	0	47	104	0	60	1048569
2026-01-17 10:56:06.27	242.03	12.58	-85.2	-88.6	3.1	1.56e+00	0	47	104	0	60	1048575
2026-01-17 10:56:10.31	242.68	12.81	-85.2	-88.6	3.1	1.56e+00	0	47	104	0	60	1048574
2026-01-17 10:56:14.33	243.34	13.03	-85.2	-88.6	2.9	1.56e+00	0	47	104	0	60	1048575
2026-01-17 10:56:18.35	244.00	13.25	-85.2	-88.6	3.1	1.56e+00	0	47	104	0	60	1048573
2026-01-17 10:56:22.37	244.68	13.48	-85.2	-88.6	3.1	1.56e+00	0	47	104	0	60	1048575
2026-01-17 10:56:26.40	245.36	13.70	-85.2	-88.6	3.0	1.56e+00	0	47	104	0	60	1048571
2026-01-17 10:56:30.43	246.06	13.92	-85.2	-88.6	3.2	1.56e+00	0	47	104	0	60	1048575
2026-01-17 10:56:34.45	246.76	14.13	-85.2	-88.6	3.1	1.55e+00	0	47	104	0	60	1048574
2026-01-17 10:56:38.48	247.48	14.35	-85.2	-88.6	3.2	1.55e+00	0	47	104	0	60	1048574
2026-01-17 10:56:42.51	248.20	14.56	-85.2	-88.6	3.3	1.55e+00	0	47	104	0	60	1048574
2026-01-17 10:56:46.54	248.94	14.77	-85.2	-88.6	3.1	1.56e+00	0	47	104	0	60	1048574
2026-01-17 10:56:50.57	249.68	14.98	-85.2	-88.6	3.1	1.56e+00	0	47	104	0	60	1048574
2026-01-17 10:56:54.59	250.44	15.18	-85.2	-88.6	2.9	1.56e+00	0	47	104	0	60	1048574
2026-01-17 10:56:58.62	251.20	15.39	-85.2	-88.6	3.0	1.56e+00	0	47	104	0	60	1048571
2026-01-17 10:57:02.66	251.98	15.58	-85.2	-88.6	3.1	1.55e+00	0	47	104	0	60	1048573
2026-01-17 10:57:06.68	252.77	15.78	-85.2	-88.6	2.9	1.55e+00	0	47	104	0	60	1048575
2026-01-17 10:57:10.69	253.56	15.97	-85.2	-88.6	3.0	1.56e+00	0	47	104	0	60	1048575
2026-01-17 10:57:14.72	254.36	16.16	-85.2	-88.6	3.1	1.56e+00	0	47	104	0	60	1048574
2026-01-17 10:57:18.75	255.18	16.34	-85.2	-88.6	3.0	1.56e+00	0	47	104	0	60	1048573
2026-01-17 10:57:22.77	256.00	16.52	-82.8	-88.6	3.2	1.55e+00	0	47	104	0	60	1048575
2026-01-17 10:57:26.80	256.84	16.70	-85.2	-88.6	2.9	1.56e+00	0	47	104	0	60	1048572
2026-01-17 10:57:30.83	257.68	16.87	-85.2	-88.6	3.1	1.56e+00	0	47	104	0	60	1048574
2026-01-17 10:57:34.87	258.53	17.03	-85.2	-88.6	3.0	1.56e+00	0	47	104	0	60	1048575
2026-01-17 10:57:38.90	259.40	17.19	-85.2	-88.6	3.0	1.56e+00	0	47	104	0	60	1048575
2026-01-17 10:57:42.92	260.26	17.35	-85.2	-88.6	3.2	1.56e+00	0	47	104	0	60	1048574
2026-01-17 10:57:46.95	261.14	17.50	-85.2	-88.6	3.0	1.55e+00	0	47	104	0	60	1048575
2026-01-17 10:57:50.99	262.03	17.65	-85.2	-88.6	3.0	1.56e+00	0	47	104	0	60	1048575
2026-01-17 10:57:55.01	262.93	17.78	-85.2	-88.6	3.1	1.56e+00	0	47	104	0	60	1048573
2026-01-17 10:57:59.03	263.83	17.92	-85.2	-88.6	2.8	1.56e+00	0	47	104	0	60	1048575
2026-01-17 10:58:03.06	264.74	18.04	-85.2	-88.6	2.9	1.55e+00	0	47	104	0	60	1048575
2026-01-17 10:58:07.09	265.66	18.16	-85.2	-88.6	2.7	1.56e+00	0	47	104	0	60	1048574
2026-01-17 10:58:11.11	266.58	18.28	-85.2	-88.6	3.1	1.56e+00	0	47	104	0	60	1048575
2026-01-17 10:58:15.14	267.51	18.38	-85.2	-88.6	3.1	1.55e+00	0	47	104	0	60	1048575
2026-01-17 10:58:19.16	268.45	18.48	-85.2	-88.6	3.1	1.56e+00	0	47	104	0	60	1048575
2026-01-17 10:58:23.19	269.39	18.58	-85.2	-88.6	3.0	1.55e+00	0	47	104	0	60	1048571
2026-01-17 10:58:27.22	270.34	18.66	-85.2	-88.6	3.0	1.56e+00	0	47	104	0	60	1048574
2026-01-17 10:58:31.25	271.29	18.74	-85.2	-88.6	3.0	1.56e+00	0	47	104	0	60	1048574
2026-01-17 10:58:35.28	272.25	18.81	-84.3	-88.6	2.8	1.56e+00	0	47	104	0	60	1048570
2026-01-17 10:58:39.30	273.21	18.87	-85.2	-88.6	2.9	1.56e+00	0	47	104	0	60	1048572
2026-01-17 10:58:43.33	274.18	18.93	-85.2	-88.6	3.0	1.56e+00	0	47	104	0	60	1048573
2026-01-17 10:58:47.36	275.14	18.98	-85.2	-88.6	2.8	1.56e+00	0	47	104	0	60	1048575
2026-01-17 10:58:51.39	276.12	19.01	-85.2	-88.6	3.0	1.56e+00	0	47	104	0	60	1048575
2026-01-17 10:58:55.42	277.09	19.05	-85.2	-88.6	3.1	1.55e+00	0	47	104	0	60	1048575
2026-01-17 10:58:59.44	278.06	19.07	-85.2	-88.6	3.0	1.56e+00	0	47	104	0	60	1048574
2026-01-17 10:59:03.46	279.04	19.08	-85.2	-88.6	3.0	1.55e+00	0	47	104	0	60	1048574
2026-01-17 10:59:07.47	280.01	19.09	-85.2	-88.6	3.0	1.56e+00	0	47	104	0	60	1048574
2026-01-17 10:59:11.49	280.98	19.09	-85.2	-88.6	3.0	1.55e+00	0	47	104	0	60	1048574
2026-01-17 10:59:15.52	281.96	19.08	-85.2	-88.6	3.2	1.56e+00	0	47	104	0	60	1048575
2026-01-17 10:59:19.55	282.93	19.07	-85.2	-88.6	3.3	1.56e+00	0	47	104	0	60	1048575
2026-01-17 10:59:23.57	283.91	19.04	-85.2	-88.6	3.0	1.56e+00	0	47	104	0	60	1048575
2026-01-17 10:59:27.60	284.88	19.01	-85.2	-88.6	3.3	1.55e+00	0	47	104	0	60	1048575
2026-01-17 10:59:31.63	285.85	18.97	-85.2	-88.6	2.9	1.55e+00	0	47	104	0	60	1048575
2026-01-17 10:59:35.65	286.81	18.92	-85.2	-88.6	3.1	1.55e+00	0	47	104	0	60	1048574
2026-01-17 10:59:39.67	287.77	18.86	-85.2	-88.6	3.0	1.56e+00	0	47	104	0	60	1048575
2026-01-17 10:59:43.71	288.74	18.80	-85.2	-88.6	3.0	1.56e+00	0	47	104	0	60	1048575
2026-01-17 10:59:47.74	289.69	18.72	-85.2	-88.6	3.0	1.56e+00	0	47	104	0	60	1048575
2026-01-17 10:59:51.76	290.64	18.65	-85.2	-88.6	2.9	1.56e+00	0	47	104	0	60	1048573
2026-01-17 10:59:55.78	291.58	18.56	-85.2	-88.6	3.0	1.56e+00	0	47	104	0	60	1048575
2026-01-17 10:59:59.81	292.53	18.46	-85.2	-88.6	3.0	1.56e+00	0	47	104	0	60	1048573
2026-01-17 11:00:03.84	293.46	18.36	-85.2	-88.6	3.2	1.56e+00	0	47	104	0	60	1048575
2026-01-17 11:00:07.87	294.39	18.26	-85.2	-88.6	3.0	1.55e+00	0	47	104	0	60	1048573
2026-01-17 11:00:11.89	295.31	18.14	-85.2	-88.6	3.0	1.56e+00	0	47	104	0	60	1048575
2026-01-17 11:00:15.91	296.22	18.02	-85.2	-88.6	3.0	1.56e+00	0	47	104	0	60	1048575
2026-01-17 11:00:19.92	297.12	17.89	-85.2	-88.6	3.0	1.56e+00	0	47	104	0	60	1048570
2026-01-17 11:00:23.94	298.02	17.76	-85.2	-88.6	3.0	1.56e+00	0	47	104	0	60	1048575
2026-01-17 11:00:27.96	298.91	17.62	-85.2	-88.6	3.1	1.56e+00	0	47	104	0	60	1048574
2026-01-17 11:00:31.98	299.79	17.48	-85.2	-88.6	3.1	1.56e+00	0	47	104	0	60	1048575
2026-01-17 11:00:36.00	300.66	17.33	-85.2	-88.6	3.2	1.56e+00	0	47	104	0	60	1048575
2026-01-17 11:00:40.03	301.53	17.17	-85.2	-88.6	3.2	1.56e+00	0	47	104	0	60	1048575
2026-01-17 11:00:44.06	302.39	17.01	-85.2	-88.6	3.0	1.56e+00	0	47	104	0	60	1048573
2026-01-17 11:00:48.09	303.23	16.85	-85.2	-88.6	3.1	1.56e+00	0	47	104	0	60	1048575
2026-01-17 11:00:52.12	304.07	16.67	-85.2	-88.6	3.0	1.56e+00	0	47	104	0	60	1048575
2026-01-17 11:00:56.15	304.90	16.50	-85.2	-88.6	3.0	1.56e+00	0	47	104	0	60	1048575
2026-01-17 11:01:00.18	305.72	16.32	-85.2	-88.6	3.0	1.56e+00	0	47	104	0	60	1048572
2026-01-17 11:01:04.22	306.54	16.14	-85.2	-88.6	2.8	1.56e+00	0	47	104	0	60	1048571
2026-01-17 11:01:08.25	307.34	15.95	-85.2	-88.6	3.1	1.56e+00	0	47	104	0	60	1048575
2026-01-17 11:01:12.28	308.13	15.76	-85.2	-88.6	3.3	1.56e+00	0	47	104	0	60	1048575
2026-01-17 11:01:16.31	308.91	15.56	-85.2	-88.6	2.9	1.56e+00	0	47	104	0	60	1048575
2026-01-17 11:01:20.34	309.68	15.36	-85.2	-88.6	3.1	1.56e+00	0	47	104	0	60	1048575
2026-01-17 11:01:24.37	310.44	15.16	-85.2	-88.6	2.9	1.56e+00	0	47	104	0	60	1048574
2026-01-17 11:01:28.40	311.19	14.96	-85.2	-88.6	3.1	1.56e+00	0	47	104	0	60	1048574
2026-01-17 11:01:32.43	311.93	14.75	-85.2	-88.6	2.9	1.56e+00	0	47	104	0	60	1048574
2026-01-17 11:01:36.45	312.66	14.54	-85.2	-88.6	2.9	1.56e+00	0	47	104	0	60	1048572
2026-01-17 11:01:40.48	313.38	14.33	-85.2	-88.6	2.9	1.56e+00	0	47	104	0	60	1048575
2026-01-17 11:01:44.52	314.10	14.12	-85.2	-88.6	2.8	1.56e+00	0	47	104	0	60	1048575
2026-01-17 11:01:48.53	314.79	13.90	-85.2	-88.6	3.2	1.56e+00	0	47	104	0	60	1048572
2026-01-17 11:01:52.55	315.48	13.69	-85.2	-88.6	3.1	1.56e+00	0	47	104	0	60	1048575
2026-01-17 11:01:56.57	316.16	13.47	-85.2	-88.6	2.9	1.56e+00	0	47	104	0	60	1048574
2026-01-17 11:02:00.60	316.83	13.25	-85.2	-88.6	3.1	1.56e+00	0	47	104	0	60	1048575
2026-01-17 11:02:04.63	317.50	13.02	-85.2	-88.6	3.0	1.56e+00	0	47	104	0	60	1048573
2026-01-17 11:02:08.65	318.15	12.80	-84.7	-88.6	3.2	1.56e+00	0	47	104	0	60	1048575
2026-01-17 11:02:12.67	318.79	12.58	-85.2	-88.6	3.1	1.55e+00	0	47	104	0	60	1048574
2026-01-17 11:02:16.71	319.42	12.35	-85.2	-88.6	3.0	1.56e+00	0	47	104	0	60	1048573
2026-01-17 11:02:20.74	320.05	12.12	-85.2	-88.6	3.0	1.56e+00	0	47	104	0	60	1048575
2026-01-17 11:02:24.76	320.66	11.89	-85.2	-88.6	3.0	1.56e+00	0	47	104	0	60	1048569
2026-01-17 11:02:28.78	321.26	11.67	-85.2	-88.6	2.9	1.55e+00	0	47	104	0	60	1048575
2026-01-17 11:02:32.81	321.86	11.44	-85.2	-88.6	3.0	1.56e+00	0	47	104	0	60	1048574
2026-01-17 11:02:36.84	322.45	11.21	-85.2	-88.6	3.0	1.56e+00	0	47	104	0	60	1048575
2026-01-17 11:02:40.87	323.03	10.98	-85.2	-88.6	3.0	1.56e+00	0	47	104	0	60	1048573
2026-01-17 11:02:44.90	323.60	10.75	-85.2	-88.6	3.1	1.56e+00	0	47	104	0	60	1048563
2026-01-17 11:02:48.93	324.16	10.52	-85.2	-88.6	3.1	1.55e+00	0	47	104	0	60	1048574
2026-01-17 11:02:52.95	324.71	10.29	-85.2	-88.6	3.0	1.56e+00	0	47	104	0	60	1048575
2026-01-17 11:02:56.97	325.25	10.05	-85.2	-88.6	2.9	1.56e+00	0	47	104	0	60	1048575
2026-01-17 11:03:00.98	325.79	9.82	-85.2	-88.6	2.9	1.56e+00	0	47	104	0	60	1048574
2026-01-17 11:03:05.01	326.31	9.59	-85.2	-88.6	3.1	1.55e+00	0	47	104	0	60	1048572
2026-01-17 11:03:09.04	326.84	9.36	-85.2	-88.6	3.2	1.56e+00	0	47	104	0	60	1048575
2026-01-17 11:03:13.07	327.35	9.13	-85.2	-88.6	3.0	1.56e+00	0	47	104	0	60	1048574
2026-01-17 11:03:17.10	327.85	8.90	-85.2	-88.6	2.8	1.56e+00	0	47	104	0	60	1048575
2026-01-17 11:03:21.13	328.35	8.67	-85.2	-88.6	2.8	1.55e+00	0	47	104	0	60	1048575
2026-01-17 11:03:25.15	328.84	8.44	-85.2	-88.6	3.0	1.56e+00	0	47	104	0	60	1048573
2026-01-17 11:03:29.17	329.32	8.21	-85.2	-88.6	3.1	1.56e+00	0	47	104	0	60	1048572
2026-01-17 11:03:33.19	329.79	7.98	-85.2	-88.6	3.1	1.56e+00	0	47	104	0	60	1048575
2026-01-17 11:03:37.22	330.26	7.76	-85.2	-88.6	3.1	1.55e+00	0	47	104	0	60	1048573
2026-01-17 11:03:41.24	330.72	7.53	-85.2	-88.6	3.0	1.56e+00	0	47	104	0	60	1048574
2026-01-17 11:03:45.27	331.18	7.30	-85.2	-88.6	3.2	1.56e+00	0	47	104	0	60	1048574
2026-01-17 11:03:49.29	331.62	7.07	-85.2	-88.6	3.0	1.56e+00	0	47	104	0	60	1048573
2026-01-17 11:03:53.33	332.06	6.85	-85.2	-88.6	3.0	1.56e+00	0	47	104	0	60	1048573
2026-01-17 11:03:57.35	332.50	6.62	-85.2	-88.6	2.8	1.56e+00	0	47	104	0	60	1048571
2026-01-17 11:04:01.38	332.93	6.40	-85.2	-88.6	2.9	1.56e+00	0	47	104	0	60	1048575
2026-01-17 11:04:05.40	333.35	6.17	-85.2	-88.6	2.9	1.55e+00	0	47	104	0	60	1048574
2026-01-17 11:04:09.42	333.76	5.95	-85.2	-88.6	3.2	1.55e+00	0	47	104	0	60	1048575
2026-01-17 11:04:13.46	334.17	5.73	-84.3	-88.6	3.1	1.55e+00	0	47	104	0	60	1048575
2026-01-17 11:04:17.48	334.58	5.50	-85.2	-88.6	2.9	1.55e+00	0	47	104	0	60	1048575
2026-01-17 11:04:21.51	334.97	5.28	-85.2	-88.6	2.9	1.56e+00	0	47	104	0	60	1048573
2026-01-17 11:04:25.54	335.37	5.06	-85.2	-88.6	3.1	1.56e+00	0	47	104	0	60	1048575
2026-01-17 11:04:29.57	335.75	4.84	-85.2	-88.6	3.2	1.56e+00	0	47	104	0	60	1048574
2026-01-17 11:04:33.60	336.13	4.62	-85.2	-88.6	3.1	1.56e+00	0	47	104	0	60	1048575
2026-01-17 11:04:37.63	336.51	4.40	-85.2	-88.6	3.1	1.56e+00	0	47	104	0	60	1048573
2026-01-17 11:04:41.66	336.88	4.19	-85.2	-88.6	2.9	1.56e+00	0	47	104	0	60	1048575
2026-01-17 11:04:45.69	337.25	3.97	-85.2	-88.6	2.9	1.55e+00	0	47	104	0	60	1048575
2026-01-17 11:04:49.71	337.61	3.75	-85.2	-88.6	3.0	1.56e+00	0	47	104	0	60	1048572
2026-01-17 11:04:53.74	337.96	3.54	-85.2	-88.6	2.9	1.56e+00	0	47	104	0	60	1048575
2026-01-17 11:04:57.77	338.31	3.33	-85.2	-88.6	3.1	1.56e+00	0	47	104	0	60	1048575
2026-01-17 11:05:01.80	338.66	3.11	-85.2	-88.6	3.0	1.55e+00	0	47	104	0	60	1048572
2026-01-17 11:05:05.82	339.00	2.90	-85.2	-88.6	2.8	1.56e+00	0	47	104	0	60	1048575
2026-01-17 11:05:09.84	339.34	2.69	-85.2	-88.6	3.1	1.55e+00	0	47	104	0	60	1048573
2026-01-17 11:05:13.86	339.67	2.48	-85.2	-88.6	2.9	1.55e+00	0	47	104	0	60	1048575
2026-01-17 11:05:17.89	339.99	2.27	-85.2	-88.6	2.9	1.56e+00	0	47	104	0	60	1048575
2026-01-17 11:05:21.91	340.32	2.06	-85.2	-88.6	3.0	1.55e+00	0	47	104	0	60	1048575
2026-01-17 11:05:25.95	340.64	1.85	-85.2	-88.6	3.0	1.56e+00	0	47	104	0	60	1048574
2026-01-17 11:05:29.97	340.95	1.64	-85.2	-88.6	2.8	1.55e+00	0	47	104	0	60	1048573
2026-01-17 11:05:34.00	341.26	1.44	-85.2	-88.6	3.0	1.55e+00	0	47	104	0	60	1048575
2026-01-17 11:05:38.03	341.57	1.23	-85.2	-88.6	2.9	1.56e+00	0	47	104	0	60	1048575
2026-01-17 11:05:42.06	341.87	1.03	-85.2	-88.6	3.1	1.55e+00	0	47	104	0	60	1048574
2026-01-17 11:05:46.09	342.17	0.82	-85.2	-88.6	3.0	1.55e+00	0	47	104	0	60	1048575
2026-01-17 11:05:50.12	342.47	0.62	-85.2	-88.6	2.7	1.56e+00	0	47	104	0	60	1048575
2026-01-17 11:05:54.14	342.76	0.42	-85.2	-88.6	3.1	1.56e+00	0	47	104	0	60	1048574
2026-01-17 11:05:58.17	343.05	0.22	-85.2	-88.6	2.9	1.56e+00	0	47	104	0	60	1048574
2026-01-17 11:06:02.19	343.33	0.02	-85.2	-88.6	3.0	1.56e+00	0	47	104	0	60	1048570

#Closed at: 2026-01-17 11:06:05
#Recorded file [0 MB]: D:/Data/35015_260117_135220.dat