passes_logs/2026/01/17/R3.2S-Naryan-Mar/R3.2S-Naryan-Mar__20260117_233159_FENGYUN_3D_rec.log

#Pass ID: 20260117_233159_FENGYUN 3D
#Satellite: FENGYUN 3D
#Configuration: FENGYUN 3D
#almurnet v.1.7.20240730
#Start time: 2026-01-17 23:33:58

#Version: 2.2.20231116
#Station: R3.2S-Naryan-Mar
#Location: 53.008057 lon 67.646978 lat
#TLE: 1 43010U 17072A   26017.25882587  .00000461  00000+0  23963-3 0  9992
#TLE: 2 43010  98.9934 349.1096 0002357 104.0487 256.0951 14.19697152423579

#Time	Az	El	Level	Level2	SNR	BER	BlckErr	Temp	State	Recorded	gain1	gain2
2026-01-17 23:33:58.17	26.06	7.16	-84.3	-88.8	2.0	3.11e+01	0	47	0	0	60	1048574
2026-01-17 23:34:01.17	26.30	7.36	-84.7	-88.6	5.9	2.80e-01	0	47	0	0	60	1048575
2026-01-17 23:34:04.20	26.55	7.57	-84.7	-88.6	5.7	2.83e-01	0	47	0	0	60	1048572
2026-01-17 23:34:07.22	26.80	7.77	-84.7	-88.6	6.4	2.76e-01	0	47	0	0	60	1048574
2026-01-17 23:34:10.24	27.05	7.98	-84.7	-88.6	5.7	2.78e-01	0	47	0	0	60	1048574
2026-01-17 23:34:13.26	27.31	8.19	-84.7	-88.6	6.2	2.78e-01	0	47	0	0	60	1048562
2026-01-17 23:34:16.27	27.57	8.40	-85.2	-88.6	6.1	2.78e-01	0	47	0	0	60	1048574
2026-01-17 23:34:19.30	27.84	8.61	-84.7	-88.6	5.5	2.84e-01	0	47	0	0	60	1048575
2026-01-17 23:34:22.32	28.10	8.82	-85.2	-88.6	6.4	2.78e-01	0	47	0	0	60	1048568
2026-01-17 23:34:25.34	28.38	9.04	-84.7	-88.6	6.0	2.81e-01	0	47	0	0	60	1048570
2026-01-17 23:34:28.36	28.65	9.25	-84.7	-88.6	5.6	2.82e-01	0	47	0	0	60	1048571
2026-01-17 23:34:31.37	28.93	9.47	-85.2	-88.6	6.2	2.78e-01	0	47	0	0	60	1048572
2026-01-17 23:34:34.39	29.21	9.68	-85.2	-88.6	6.2	2.75e-01	0	47	0	0	60	1048575
2026-01-17 23:34:37.41	29.50	9.90	-84.7	-88.6	5.9	2.77e-01	0	47	0	0	60	1048570
2026-01-17 23:34:40.43	29.79	10.12	-85.2	-88.6	6.2	2.74e-01	0	47	0	0	60	1048574
2026-01-17 23:34:43.46	30.09	10.35	-84.7	-88.6	6.1	2.78e-01	0	47	0	0	60	1048575
2026-01-17 23:34:46.48	30.39	10.57	-85.2	-88.6	6.1	2.83e-01	0	47	0	0	60	1048575
2026-01-17 23:34:49.49	30.69	10.79	-85.2	-88.6	5.7	2.78e-01	0	47	0	0	60	1048575
2026-01-17 23:34:52.52	31.00	11.02	-84.7	-88.6	5.8	2.83e-01	0	47	0	0	60	1048573
2026-01-17 23:34:55.53	31.32	11.25	-85.2	-88.6	6.0	2.81e-01	0	47	0	0	60	1048575
2026-01-17 23:34:58.55	31.63	11.47	-85.2	-88.6	6.0	2.77e-01	0	47	0	0	60	1048571
2026-01-17 23:35:01.57	31.96	11.70	-84.7	-88.6	5.8	2.79e-01	0	47	0	0	60	1048573
2026-01-17 23:35:04.60	32.29	11.94	-84.7	-88.6	6.3	2.74e-01	0	47	0	0	60	1048573
2026-01-17 23:35:07.62	32.62	12.17	-85.2	-88.6	6.0	2.80e-01	0	47	0	0	60	1048575
2026-01-17 23:35:10.63	32.96	12.40	-84.7	-88.6	5.8	2.79e-01	0	47	0	0	60	1048573
2026-01-17 23:35:13.65	33.30	12.64	-84.7	-88.6	5.9	2.77e-01	0	47	0	0	60	1048575
2026-01-17 23:35:16.67	33.65	12.87	-85.2	-88.6	3.7	3.56e-01	0	47	104	0	60	1048573
2026-01-17 23:35:19.68	34.00	13.11	-85.2	-88.6	3.1	7.64e-01	0	47	104	0	60	1048574
2026-01-17 23:35:22.70	34.36	13.35	-85.2	-88.6	3.1	7.63e-01	0	47	104	0	60	1048575
2026-01-17 23:35:25.72	34.72	13.59	-84.7	-88.6	2.9	7.63e-01	0	47	104	0	60	1048574
2026-01-17 23:35:28.73	35.09	13.83	-85.2	-88.6	3.3	7.64e-01	0	47	104	0	60	1048572
2026-01-17 23:35:31.75	35.47	14.08	-84.7	-88.6	3.6	7.64e-01	0	47	104	0	60	1048567
2026-01-17 23:35:34.78	35.85	14.32	-85.2	-88.6	3.2	7.62e-01	0	47	104	0	60	1048571
2026-01-17 23:35:37.80	36.24	14.57	-85.2	-88.6	2.9	7.63e-01	0	47	104	0	60	1048575
2026-01-17 23:35:40.82	36.64	14.82	-85.2	-88.6	3.1	7.64e-01	0	47	104	0	60	1048571
2026-01-17 23:35:43.84	37.04	15.06	-85.2	-88.6	2.9	7.64e-01	0	47	104	0	60	1048571
2026-01-17 23:35:46.86	37.45	15.31	-85.2	-88.6	3.5	7.64e-01	0	47	104	0	60	1048572
2026-01-17 23:35:49.88	37.86	15.57	-85.2	-88.6	3.3	7.64e-01	0	47	104	0	60	1048574
2026-01-17 23:35:52.91	38.29	15.82	-85.2	-88.6	3.4	7.63e-01	0	47	104	0	60	1048572
2026-01-17 23:35:55.92	38.71	16.07	-85.2	-88.6	2.7	7.62e-01	0	47	104	0	60	1048574
2026-01-17 23:35:58.94	39.15	16.33	-85.2	-88.6	3.0	7.64e-01	0	47	104	0	60	1048575
2026-01-17 23:36:01.96	39.59	16.58	-84.7	-88.6	3.1	7.65e-01	0	47	104	0	60	1048571
2026-01-17 23:36:04.99	40.04	16.84	-85.2	-88.6	3.2	7.63e-01	0	47	104	0	60	1048573
2026-01-17 23:36:08.00	40.50	17.10	-84.7	-88.6	2.9	7.64e-01	0	47	104	0	60	1048575
2026-01-17 23:36:11.02	40.97	17.36	-85.2	-88.6	3.1	7.64e-01	0	47	104	0	60	1048575
2026-01-17 23:36:14.03	41.44	17.62	-85.2	-88.6	2.9	7.63e-01	0	47	104	0	60	1048575
2026-01-17 23:36:17.05	41.92	17.88	-84.7	-88.6	2.9	7.65e-01	0	47	104	0	60	1048575
2026-01-17 23:36:20.08	42.41	18.14	-85.2	-88.6	3.0	7.63e-01	0	47	104	0	60	1048574
2026-01-17 23:36:23.10	42.91	18.41	-84.7	-88.6	3.2	7.63e-01	0	47	104	0	60	1048575
2026-01-17 23:36:26.12	43.41	18.67	-85.2	-88.6	3.1	7.63e-01	0	47	104	0	60	1048574
2026-01-17 23:36:29.14	43.93	18.93	-84.3	-88.6	3.2	7.64e-01	0	47	104	0	60	1048569
2026-01-17 23:36:32.17	44.45	19.20	-84.7	-88.6	3.7	7.62e-01	0	47	104	0	60	1048569
2026-01-17 23:36:35.19	44.98	19.46	-85.2	-88.6	3.0	7.65e-01	0	47	104	0	60	1048569
2026-01-17 23:36:38.21	45.53	19.73	-85.2	-88.6	3.2	7.62e-01	0	47	104	0	60	1048571
2026-01-17 23:36:41.24	46.08	20.00	-85.2	-88.6	3.6	7.63e-01	0	47	104	0	60	1048574
2026-01-17 23:36:44.25	46.64	20.26	-85.2	-88.6	2.9	7.63e-01	0	47	104	0	60	1048573
2026-01-17 23:36:47.27	47.21	20.53	-85.2	-88.6	3.1	7.62e-01	0	47	104	0	60	1048575
2026-01-17 23:36:50.30	47.79	20.80	-85.2	-88.6	2.8	7.62e-01	0	47	104	0	60	1048575
2026-01-17 23:36:53.32	48.38	21.06	-85.2	-88.6	3.1	7.63e-01	0	47	104	0	60	1048574
2026-01-17 23:36:56.34	48.98	21.33	-84.3	-88.6	3.6	7.63e-01	0	47	104	0	60	1048564
2026-01-17 23:36:59.36	49.59	21.60	-85.2	-88.6	2.8	7.64e-01	0	47	104	0	60	1048574
2026-01-17 23:37:02.37	50.20	21.86	-85.2	-88.6	3.2	7.63e-01	0	47	104	0	60	1048571
2026-01-17 23:37:05.40	50.84	22.13	-84.7	-88.6	3.2	7.64e-01	0	47	104	0	60	1048573
2026-01-17 23:37:08.41	51.47	22.39	-85.2	-88.6	3.7	7.63e-01	0	47	104	0	60	1048574
2026-01-17 23:37:11.43	52.13	22.65	-85.2	-88.6	3.2	7.63e-01	0	47	104	0	60	1048574
2026-01-17 23:37:14.45	52.79	22.91	-84.7	-88.6	2.9	7.62e-01	0	47	104	0	60	1048573
2026-01-17 23:37:17.47	53.46	23.18	-85.2	-88.6	3.4	7.64e-01	0	47	104	0	60	1048574
2026-01-17 23:37:20.49	54.15	23.43	-85.2	-88.6	3.0	7.63e-01	0	47	104	0	60	1048569
2026-01-17 23:37:23.51	54.84	23.69	-85.2	-88.6	3.1	7.62e-01	0	47	104	0	60	1048574
2026-01-17 23:37:26.53	55.55	23.95	-85.2	-88.6	3.7	7.63e-01	0	47	104	0	60	1048575
2026-01-17 23:37:29.54	56.26	24.20	-85.2	-88.6	3.1	7.63e-01	0	47	104	0	60	1048574
2026-01-17 23:37:32.56	56.99	24.45	-85.2	-88.6	3.1	7.63e-01	0	47	104	0	60	1048572
2026-01-17 23:37:35.58	57.73	24.70	-85.2	-88.6	3.5	7.63e-01	0	47	104	0	60	1048565
2026-01-17 23:37:38.59	58.48	24.95	-84.7	-88.6	2.9	7.62e-01	0	47	104	0	60	1048575
2026-01-17 23:37:41.60	59.24	25.19	-85.2	-88.6	3.4	7.62e-01	0	47	104	0	60	1048571
2026-01-17 23:37:44.62	60.02	25.43	-85.2	-88.6	3.1	7.62e-01	0	47	104	0	60	1048575
2026-01-17 23:37:47.64	60.81	25.67	-85.2	-88.6	3.2	7.62e-01	0	47	104	0	60	1048575
2026-01-17 23:37:50.65	61.60	25.91	-85.2	-88.6	3.6	7.63e-01	0	47	104	0	60	1048575
2026-01-17 23:37:53.67	62.41	26.14	-85.2	-88.6	3.0	7.62e-01	0	47	104	0	60	1048553
2026-01-17 23:37:56.68	63.23	26.36	-85.2	-88.6	3.1	7.63e-01	0	47	104	0	60	1048573
2026-01-17 23:37:59.69	64.06	26.58	-85.2	-88.6	3.2	7.63e-01	0	47	104	0	60	1048572
2026-01-17 23:38:02.72	64.91	26.80	-84.7	-88.6	2.9	7.64e-01	0	47	104	0	60	1048575
2026-01-17 23:38:05.74	65.77	27.01	-85.2	-88.6	2.8	7.63e-01	0	47	104	0	60	1048573
2026-01-17 23:38:08.76	66.64	27.22	-85.2	-88.6	3.7	7.62e-01	0	47	104	0	60	1048575
2026-01-17 23:38:11.78	67.51	27.42	-84.7	-88.6	3.6	7.61e-01	0	47	104	0	60	1048573
2026-01-17 23:38:14.80	68.40	27.62	-85.2	-88.6	3.0	7.63e-01	0	47	104	0	60	1048575
2026-01-17 23:38:17.82	69.30	27.81	-85.2	-88.6	3.1	7.63e-01	0	47	104	0	60	1048571
2026-01-17 23:38:20.85	70.22	27.99	-85.2	-88.6	2.8	7.63e-01	0	47	104	0	60	1048574
2026-01-17 23:38:23.86	71.13	28.17	-85.2	-88.6	3.0	7.63e-01	0	47	104	0	60	1048573
2026-01-17 23:38:26.88	72.06	28.34	-83.5	-88.6	3.7	7.63e-01	0	47	104	0	60	1048571
2026-01-17 23:38:29.89	73.00	28.50	-85.2	-88.6	2.9	7.63e-01	0	47	104	0	60	1048575
2026-01-17 23:38:32.92	73.95	28.66	-85.2	-88.6	3.2	7.64e-01	0	47	104	0	60	1048574
2026-01-17 23:38:35.94	74.91	28.81	-85.2	-88.6	3.6	7.63e-01	0	47	104	0	60	1048572
2026-01-17 23:38:38.96	75.88	28.95	-85.2	-88.6	3.1	7.64e-01	0	47	104	0	60	1048573
2026-01-17 23:38:41.98	76.85	29.08	-85.2	-88.6	3.2	7.64e-01	0	47	104	0	60	1048574
2026-01-17 23:38:45.00	77.84	29.20	-84.7	-88.6	2.8	7.63e-01	0	47	104	0	60	1048575
2026-01-17 23:38:48.02	78.83	29.32	-85.2	-88.6	3.0	7.63e-01	0	47	104	0	60	1048574
2026-01-17 23:38:51.03	79.82	29.43	-85.2	-88.6	2.8	7.63e-01	0	47	104	0	60	1048573
2026-01-17 23:38:54.06	80.83	29.52	-85.2	-88.6	3.0	7.63e-01	0	47	104	0	60	1048570
2026-01-17 23:38:57.07	81.83	29.61	-85.2	-88.6	2.8	7.64e-01	0	47	104	0	60	1048570
2026-01-17 23:39:00.09	82.85	29.69	-84.7	-88.6	3.4	7.63e-01	0	47	104	0	60	1048575
2026-01-17 23:39:03.10	83.86	29.76	-85.2	-88.6	2.9	7.62e-01	0	47	104	0	60	1048573
2026-01-17 23:39:06.12	84.89	29.82	-85.2	-88.6	3.0	7.63e-01	0	47	104	0	60	1048570
2026-01-17 23:39:09.14	85.91	29.87	-85.2	-88.6	3.0	7.63e-01	0	47	104	0	60	1048575
2026-01-17 23:39:12.16	86.94	29.91	-85.2	-88.6	3.4	7.64e-01	0	47	104	0	60	1048575
2026-01-17 23:39:15.18	87.97	29.95	-85.2	-88.6	3.2	7.64e-01	0	47	104	0	60	1048575
2026-01-17 23:39:18.21	89.01	29.97	-84.7	-88.6	3.7	7.62e-01	0	47	104	0	60	1048573
2026-01-17 23:39:21.23	90.05	29.98	-85.2	-88.6	3.1	7.63e-01	0	47	104	0	60	1048567
2026-01-17 23:39:24.25	91.08	29.98	-85.2	-88.6	3.1	7.63e-01	0	47	104	0	60	1048573
2026-01-17 23:39:27.28	92.12	29.97	-85.2	-88.6	3.0	7.63e-01	0	47	104	0	60	1048575
2026-01-17 23:39:30.29	93.15	29.95	-85.2	-88.6	2.8	7.64e-01	0	47	104	0	60	1048573
2026-01-17 23:39:33.31	94.18	29.92	-84.7	-88.6	3.0	7.64e-01	0	47	104	0	60	1048572
2026-01-17 23:39:36.33	95.21	29.88	-85.2	-88.6	3.1	7.64e-01	0	47	104	0	60	1048571
2026-01-17 23:39:39.36	96.25	29.83	-84.7	-88.6	3.0	7.62e-01	0	47	104	0	60	1048573
2026-01-17 23:39:42.38	97.27	29.78	-85.2	-88.6	3.4	7.64e-01	0	47	104	0	60	1048574
2026-01-17 23:39:45.40	98.29	29.71	-85.2	-88.6	3.5	7.64e-01	0	47	104	0	60	1048572
2026-01-17 23:39:48.42	99.31	29.63	-85.2	-88.6	3.3	7.64e-01	0	47	104	0	60	1048574
2026-01-17 23:39:51.44	100.32	29.54	-85.2	-88.6	3.4	7.63e-01	0	47	104	0	60	1048565
2026-01-17 23:39:54.46	101.32	29.45	-85.2	-88.6	3.1	7.64e-01	0	47	104	0	60	1048571
2026-01-17 23:39:57.49	102.33	29.34	-84.3	-88.6	3.4	7.64e-01	0	47	104	0	60	1048573
2026-01-17 23:40:00.51	103.32	29.23	-85.2	-88.6	3.2	7.64e-01	0	47	104	0	60	1048572
2026-01-17 23:40:03.52	104.30	29.10	-85.2	-88.6	2.9	7.62e-01	0	47	104	0	60	1048567
2026-01-17 23:40:06.54	105.28	28.97	-84.7	-88.6	3.7	7.62e-01	0	47	104	0	60	1048570
2026-01-17 23:40:09.55	106.25	28.83	-85.2	-88.6	3.1	7.64e-01	0	47	104	0	60	1048573
2026-01-17 23:40:12.57	107.21	28.69	-84.7	-88.6	3.3	7.63e-01	0	47	104	0	60	1048575
2026-01-17 23:40:15.60	108.17	28.53	-84.7	-88.6	3.3	7.63e-01	0	47	104	0	60	1048574
2026-01-17 23:40:18.61	109.11	28.37	-85.2	-88.6	3.1	7.60e-01	0	47	104	0	60	1048574
2026-01-17 23:40:21.63	110.04	28.20	-85.2	-88.6	2.8	7.62e-01	0	47	104	0	60	1048574
2026-01-17 23:40:24.65	110.97	28.02	-85.2	-88.6	3.3	7.64e-01	0	47	104	0	60	1048573
2026-01-17 23:40:27.67	111.88	27.84	-85.2	-88.6	3.4	7.62e-01	0	47	104	0	60	1048574
2026-01-17 23:40:30.69	112.79	27.65	-84.7	-88.6	3.1	7.61e-01	0	47	104	0	60	1048567
2026-01-17 23:40:33.71	113.68	27.46	-85.2	-88.6	3.4	7.63e-01	0	47	104	0	60	1048574
2026-01-17 23:40:36.73	114.56	27.25	-85.2	-88.6	3.6	7.60e-01	0	47	104	0	60	1048575
2026-01-17 23:40:39.75	115.43	27.05	-85.2	-88.6	2.9	7.63e-01	0	47	104	0	60	1048572
2026-01-17 23:40:42.76	116.29	26.84	-85.2	-88.6	2.9	7.63e-01	0	47	104	0	60	1048575
2026-01-17 23:40:45.79	117.15	26.62	-84.7	-88.6	3.1	7.63e-01	0	47	104	0	60	1048575
2026-01-17 23:40:48.81	117.98	26.40	-85.2	-88.6	3.2	7.61e-01	0	47	104	0	60	1048574
2026-01-17 23:40:51.84	118.81	26.17	-85.2	-88.6	3.5	7.62e-01	0	47	104	0	60	1048574
2026-01-17 23:40:54.85	119.63	25.94	-85.2	-88.6	3.2	7.63e-01	0	47	104	0	60	1048569
2026-01-17 23:40:57.87	120.43	25.70	-85.2	-88.6	3.4	7.63e-01	0	47	104	0	60	1048571
2026-01-17 23:41:00.89	121.22	25.47	-85.2	-88.6	3.1	7.63e-01	0	47	104	0	60	1048572
2026-01-17 23:41:03.91	122.00	25.22	-84.7	-88.6	3.1	7.63e-01	0	47	104	0	60	1048575
2026-01-17 23:41:06.93	122.77	24.98	-85.2	-88.6	3.3	7.61e-01	0	47	104	0	60	1048572
2026-01-17 23:41:09.95	123.53	24.73	-85.2	-88.6	3.0	7.63e-01	0	47	104	0	60	1048575
2026-01-17 23:41:12.96	124.27	24.48	-85.2	-88.6	3.6	7.62e-01	0	47	104	0	60	1048571
2026-01-17 23:41:15.99	125.01	24.23	-85.2	-88.6	3.2	7.63e-01	0	47	104	0	60	1048574
2026-01-17 23:41:19.01	125.73	23.97	-85.2	-88.6	3.0	7.63e-01	0	47	104	0	60	1048567
2026-01-17 23:41:22.04	126.44	23.72	-84.3	-88.6	3.6	7.64e-01	0	47	104	0	60	1048574
2026-01-17 23:41:25.06	127.14	23.46	-85.2	-88.6	3.2	7.63e-01	0	47	104	0	60	1048575
2026-01-17 23:41:28.07	127.83	23.20	-84.7	-88.6	3.0	7.62e-01	0	47	104	0	60	1048570
2026-01-17 23:41:31.08	128.50	22.93	-84.7	-88.6	3.0	7.63e-01	0	47	104	0	60	1048575
2026-01-17 23:41:34.10	129.17	22.67	-85.2	-88.6	3.2	7.64e-01	0	47	104	0	60	1048569
2026-01-17 23:41:37.13	129.83	22.41	-85.2	-88.6	3.6	7.62e-01	0	47	104	0	60	1048573
2026-01-17 23:41:40.15	130.47	22.14	-85.2	-88.6	3.3	7.64e-01	0	47	104	0	60	1048575
2026-01-17 23:41:43.16	131.10	21.87	-85.2	-88.6	3.1	7.63e-01	0	47	104	0	60	1048575
2026-01-17 23:41:46.19	131.73	21.61	-85.2	-88.6	3.5	7.63e-01	0	47	104	0	60	1048575
2026-01-17 23:41:49.20	132.34	21.34	-85.2	-88.6	3.3	7.63e-01	0	47	104	0	60	1048574
2026-01-17 23:41:52.21	132.94	21.07	-85.2	-88.6	3.3	7.62e-01	0	47	104	0	60	1048573
2026-01-17 23:41:55.22	133.53	20.81	-85.2	-88.6	3.1	7.64e-01	0	47	104	0	60	1048574
2026-01-17 23:41:58.24	134.11	20.54	-85.2	-88.6	3.1	7.63e-01	0	47	104	0	60	1048573
2026-01-17 23:42:01.25	134.69	20.27	-85.2	-88.6	3.0	7.61e-01	0	47	104	0	60	1048560
2026-01-17 23:42:04.27	135.25	20.00	-85.2	-88.6	3.2	7.63e-01	0	47	104	0	60	1048575
2026-01-17 23:42:07.30	135.80	19.73	-84.3	-88.6	3.8	7.63e-01	0	47	104	0	60	1048574
2026-01-17 23:42:10.32	136.35	19.47	-85.2	-88.6	3.1	7.63e-01	0	47	104	0	60	1048575
2026-01-17 23:42:13.34	136.88	19.20	-84.7	-88.6	2.9	7.64e-01	0	47	104	0	60	1048572
2026-01-17 23:42:16.36	137.41	18.93	-83.5	-88.6	3.3	7.61e-01	0	47	104	0	60	1048566
2026-01-17 23:42:19.38	137.93	18.66	-85.2	-88.6	3.3	7.63e-01	0	47	104	0	60	1048575
2026-01-17 23:42:22.39	138.44	18.40	-85.2	-88.6	3.0	7.63e-01	0	47	104	0	60	1048574
2026-01-17 23:42:25.41	138.94	18.14	-85.2	-88.6	2.9	7.64e-01	0	47	104	0	60	1048574
2026-01-17 23:42:28.42	139.43	17.87	-85.2	-88.6	3.6	7.63e-01	0	47	104	0	60	1048574
2026-01-17 23:42:31.44	139.91	17.61	-85.2	-88.6	3.2	7.62e-01	0	47	104	0	60	1048572
2026-01-17 23:42:34.46	140.39	17.35	-85.2	-88.6	3.0	7.62e-01	0	47	104	0	60	1048573
2026-01-17 23:42:37.48	140.85	17.09	-85.2	-88.6	3.3	7.64e-01	0	47	104	0	60	1048573
2026-01-17 23:42:40.50	141.31	16.83	-85.2	-88.6	3.0	7.62e-01	0	47	104	0	60	1048575
2026-01-17 23:42:43.53	141.77	16.57	-85.2	-88.6	2.8	7.63e-01	0	47	104	0	60	1048574
2026-01-17 23:42:46.55	142.21	16.31	-85.2	-88.6	3.5	7.63e-01	0	47	104	0	60	1048570
2026-01-17 23:42:49.57	142.65	16.05	-85.2	-88.6	3.5	7.62e-01	0	47	104	0	60	1048573
2026-01-17 23:42:52.59	143.08	15.79	-84.7	-88.6	3.2	7.63e-01	0	47	104	0	60	1048575
2026-01-17 23:42:55.60	143.50	15.54	-85.2	-88.6	2.9	7.63e-01	0	47	104	0	60	1048575
2026-01-17 23:42:58.62	143.92	15.29	-85.2	-88.6	3.0	7.63e-01	0	47	104	0	60	1048574
2026-01-17 23:43:01.64	144.33	15.04	-85.2	-88.6	3.2	7.63e-01	0	47	104	0	60	1048574
2026-01-17 23:43:04.66	144.73	14.78	-85.2	-88.6	2.9	7.63e-01	0	47	104	0	60	1048572
2026-01-17 23:43:07.66	145.13	14.54	-85.2	-88.6	3.6	7.63e-01	0	47	104	0	60	1048575
2026-01-17 23:43:10.67	145.51	14.29	-85.2	-88.6	3.6	7.64e-01	0	47	104	0	60	1048575
2026-01-17 23:43:13.68	145.90	14.04	-85.2	-88.6	3.1	7.63e-01	0	47	104	0	60	1048570
2026-01-17 23:43:16.70	146.28	13.80	-84.7	-88.6	2.9	7.64e-01	0	47	104	0	60	1048569
2026-01-17 23:43:19.72	146.65	13.55	-85.2	-88.6	2.9	7.62e-01	0	47	104	0	60	1048575
2026-01-17 23:43:22.74	147.01	13.31	-85.2	-88.6	3.1	7.62e-01	0	47	104	0	60	1048575
2026-01-17 23:43:25.75	147.37	13.07	-84.7	-88.6	3.3	7.63e-01	0	47	104	0	60	1048575
2026-01-17 23:43:28.76	147.73	12.83	-85.2	-88.6	3.6	7.62e-01	0	47	104	0	60	1048575
2026-01-17 23:43:31.78	148.08	12.59	-85.2	-88.6	3.5	7.62e-01	0	47	104	0	60	1048575
2026-01-17 23:43:34.81	148.42	12.35	-85.2	-88.6	3.2	7.64e-01	0	47	104	0	60	1048572
2026-01-17 23:43:37.83	148.76	12.12	-85.2	-88.6	3.2	7.63e-01	0	47	104	0	60	1048573
2026-01-17 23:43:40.84	149.09	11.89	-84.7	-88.6	3.1	7.64e-01	0	47	104	0	60	1048575
2026-01-17 23:43:43.86	149.42	11.65	-85.2	-88.6	3.0	7.63e-01	0	47	104	0	60	1048574
2026-01-17 23:43:46.87	149.74	11.42	-85.2	-88.6	3.7	7.63e-01	0	47	104	0	60	1048574
2026-01-17 23:43:49.90	150.06	11.19	-84.7	-88.6	3.0	7.62e-01	0	47	104	0	60	1048570
2026-01-17 23:43:52.92	150.38	10.96	-85.2	-88.6	3.5	7.64e-01	0	47	104	0	60	1048574
2026-01-17 23:43:55.94	150.69	10.73	-85.2	-88.6	3.7	7.64e-01	0	47	104	0	60	1048575
2026-01-17 23:43:58.96	150.99	10.51	-84.7	-88.6	3.2	7.64e-01	0	47	104	0	60	1048569
2026-01-17 23:44:01.97	151.29	10.28	-85.2	-88.6	2.9	7.63e-01	0	47	104	0	60	1048573
2026-01-17 23:44:05.00	151.59	10.06	-85.2	-88.6	2.9	7.63e-01	0	47	104	0	60	1048575
2026-01-17 23:44:08.02	151.88	9.84	-85.2	-88.6	2.8	7.64e-01	0	47	104	0	60	1048575
2026-01-17 23:44:11.04	152.17	9.62	-85.2	-88.6	3.0	7.63e-01	0	47	104	0	60	1048574
2026-01-17 23:44:14.05	152.45	9.40	-85.2	-88.6	3.6	7.63e-01	0	47	104	0	60	1048570
2026-01-17 23:44:17.06	152.73	9.18	-85.2	-88.6	3.1	7.64e-01	0	47	104	0	60	1048574
2026-01-17 23:44:20.08	153.00	8.97	-85.2	-88.6	3.2	7.64e-01	0	47	104	0	60	1048575
2026-01-17 23:44:23.09	153.27	8.75	-84.7	-88.6	3.1	7.65e-01	0	47	104	0	60	1048575
2026-01-17 23:44:26.11	153.54	8.54	-85.2	-88.6	3.0	7.63e-01	0	47	104	0	60	1048575
2026-01-17 23:44:29.13	153.81	8.32	-85.2	-88.6	2.9	7.62e-01	0	47	104	0	60	1048575
2026-01-17 23:44:32.15	154.07	8.11	-85.2	-88.6	3.6	7.63e-01	0	47	104	0	60	1048575
2026-01-17 23:44:35.16	154.32	7.90	-85.2	-88.6	3.4	7.63e-01	0	47	104	0	60	1048574
2026-01-17 23:44:38.18	154.58	7.69	-85.2	-88.6	2.8	7.63e-01	0	47	104	0	60	1048575
2026-01-17 23:44:41.19	154.83	7.49	-85.2	-88.6	3.1	7.65e-01	0	47	104	0	60	1048574
2026-01-17 23:44:44.22	155.07	7.28	-85.2	-88.6	3.4	7.64e-01	0	47	104	0	60	1048575
2026-01-17 23:44:47.23	155.32	7.08	-85.2	-88.6	2.9	7.62e-01	0	47	104	0	60	1048574
2026-01-17 23:44:50.25	155.56	6.87	-85.2	-88.6	3.2	7.63e-01	0	47	104	0	60	1048566
2026-01-17 23:44:53.27	155.79	6.67	-85.2	-88.6	3.0	7.63e-01	0	47	104	0	60	1048574
2026-01-17 23:44:56.29	156.03	6.47	-85.2	-88.6	3.0	7.63e-01	0	47	104	0	60	1048566
2026-01-17 23:44:59.32	156.26	6.27	-84.7	-88.6	2.9	7.61e-01	0	47	104	0	60	1048573
2026-01-17 23:45:02.34	156.49	6.07	-85.2	-88.6	2.8	7.63e-01	0	47	104	0	60	1048574
2026-01-17 23:45:05.36	156.71	5.87	-85.2	-88.6	3.1	7.63e-01	0	47	104	0	60	1048575
2026-01-17 23:45:08.38	156.93	5.67	-85.2	-88.6	3.8	7.62e-01	0	47	104	0	60	1048575
2026-01-17 23:45:11.40	157.15	5.48	-85.2	-88.6	3.3	7.63e-01	0	47	104	0	60	1048567
2026-01-17 23:45:14.42	157.37	5.28	-85.2	-88.6	3.6	7.63e-01	0	47	104	0	60	1048575
2026-01-17 23:45:17.45	157.58	5.09	-85.2	-88.6	2.8	7.64e-01	0	47	104	0	60	1048575
2026-01-17 23:45:20.46	157.79	4.90	-84.7	-88.6	2.9	7.62e-01	0	47	104	0	60	1048574
2026-01-17 23:45:23.48	158.00	4.71	-85.2	-88.6	3.3	7.62e-01	0	47	104	0	60	1048572
2026-01-17 23:45:26.49	158.21	4.52	-85.2	-88.6	2.9	7.63e-01	0	47	104	0	60	1048573
2026-01-17 23:45:29.51	158.41	4.33	-84.7	-88.6	3.4	7.62e-01	0	47	104	0	60	1048568
2026-01-17 23:45:32.53	158.61	4.14	-85.2	-88.6	3.5	7.64e-01	0	47	104	0	60	1048575
2026-01-17 23:45:35.55	158.81	3.95	-85.2	-88.6	3.1	7.62e-01	0	47	104	0	60	1048574
2026-01-17 23:45:38.57	159.01	3.77	-85.2	-88.6	3.1	7.63e-01	0	47	104	0	60	1048574
2026-01-17 23:45:41.59	159.20	3.58	-85.2	-88.6	2.9	7.59e-01	0	47	104	0	60	1048575
2026-01-17 23:45:44.61	159.39	3.40	-85.2	-88.6	3.0	7.64e-01	0	47	104	0	60	1048574
2026-01-17 23:45:47.63	159.58	3.21	-85.2	-88.6	3.1	7.64e-01	0	47	104	0	60	1048575
2026-01-17 23:45:50.66	159.77	3.03	-85.2	-88.6	3.2	7.62e-01	0	47	104	0	60	1048572
2026-01-17 23:45:53.68	159.96	2.85	-84.3	-88.6	3.7	7.63e-01	0	47	104	0	60	1048572
2026-01-17 23:45:56.70	160.14	2.67	-85.2	-88.6	2.8	7.63e-01	0	47	104	0	60	1048570
2026-01-17 23:45:59.71	160.32	2.49	-85.2	-88.6	3.7	7.62e-01	0	47	104	0	60	1048575
2026-01-17 23:46:02.73	160.50	2.31	-84.7	-88.6	3.4	7.63e-01	0	47	104	0	60	1048575
2026-01-17 23:46:05.76	160.68	2.14	-85.2	-88.6	3.0	7.63e-01	0	47	104	0	60	1048574
2026-01-17 23:46:08.78	160.85	1.96	-84.7	-88.6	3.2	7.63e-01	0	47	104	0	60	1048573
2026-01-17 23:46:11.79	161.02	1.78	-85.2	-88.6	3.0	7.62e-01	0	47	104	0	60	1048573
2026-01-17 23:46:14.82	161.19	1.61	-85.2	-88.6	3.1	7.63e-01	0	47	104	0	60	1048568
2026-01-17 23:46:17.84	161.36	1.44	-85.2	-88.6	2.9	7.65e-01	0	47	104	0	60	1048575
2026-01-17 23:46:20.86	161.53	1.26	-85.2	-88.6	3.6	7.64e-01	0	47	104	0	60	1048575
2026-01-17 23:46:23.89	161.70	1.09	-85.2	-88.6	3.0	7.63e-01	0	47	104	0	60	1048575
2026-01-17 23:46:26.91	161.86	0.92	-85.2	-88.6	3.3	7.64e-01	0	47	104	0	60	1048575
2026-01-17 23:46:29.93	162.02	0.75	-85.2	-88.6	3.5	7.61e-01	0	47	104	0	60	1048575
2026-01-17 23:46:32.95	162.18	0.58	-85.2	-88.6	3.0	7.62e-01	0	47	104	0	60	1048570
2026-01-17 23:46:35.97	162.34	0.41	-84.7	-88.6	3.0	7.62e-01	0	47	104	0	60	1048575
2026-01-17 23:46:39.00	162.50	0.24	-84.7	-88.6	2.9	7.64e-01	0	47	104	0	60	1048573
2026-01-17 23:46:42.02	162.65	0.07	-85.2	-88.6	2.9	7.62e-01	0	47	104	0	60	1048574
2026-01-17 23:46:45.04	162.81	-0.09	-85.2	-88.6	2.9	7.62e-01	0	47	104	0	60	1048575

#Closed at: 2026-01-17 23:46:46
#Recorded file [0 MB]: D:/Data/35015_260118_023358.dat