passes_logs/2026/01/17/R3.2S-Naryan-Mar/R3.2S-Naryan-Mar__20260117_112357_TY-39_rec.log

#Pass ID: 20260117_112357_TY-39
#Satellite: TY-39
#Configuration: TY-39
#almurnet v.1.7.20240730
#Start time: 2026-01-17 11:28:32

#Version: 2.2.20231116
#Station: R3.2S-Naryan-Mar
#Location: 53.008057 lon 67.646978 lat
#TLE: 1 51832U 22019J   26016.60474156  .00001050  00000-0  52357-4 0  9993
#TLE: 2 51832  97.3652  83.2563 0009986  47.3573 312.8502 15.19639799214772

#Time	Az	El	Level	Level2	SNR	BER	BlckErr	Temp	State	Recorded	gain1	gain2
2026-01-17 11:28:32.69	344.82	9.62	-83.1	-79.0	2.3	0.00e+00	0	48	0	0	60	1048567
2026-01-17 11:28:33.69	344.57	9.61	-83.1	-79.0	2.5	0.00e+00	0	49	104	0	60	1048570
2026-01-17 11:28:34.70	344.31	9.61	-83.1	-79.0	2.5	0.00e+00	0	49	104	0	60	1048558
2026-01-17 11:28:35.70	344.06	9.60	-83.5	-79.0	2.4	0.00e+00	0	49	104	0	60	1048575
2026-01-17 11:28:36.71	343.80	9.59	-83.5	-79.0	2.3	0.00e+00	0	48	104	0	60	1048575
2026-01-17 11:28:37.72	343.55	9.59	-83.5	-79.0	2.4	0.00e+00	0	49	104	0	60	1048575
2026-01-17 11:28:38.72	343.30	9.58	-83.1	-79.0	2.5	0.00e+00	0	49	104	0	60	1048571
2026-01-17 11:28:39.73	343.04	9.57	-83.1	-79.0	2.4	0.00e+00	0	49	104	0	60	1048573
2026-01-17 11:28:40.74	342.79	9.56	-83.5	-79.0	2.4	0.00e+00	0	48	104	0	60	1048575
2026-01-17 11:28:41.74	342.54	9.55	-83.5	-79.0	2.3	0.00e+00	0	49	104	0	60	1048568
2026-01-17 11:28:42.75	342.28	9.54	-83.5	-79.0	2.5	0.00e+00	0	49	104	0	60	1048571
2026-01-17 11:28:43.76	342.03	9.53	-82.8	-79.0	2.4	0.00e+00	0	49	104	0	60	1048562
2026-01-17 11:28:44.77	341.78	9.52	-83.1	-79.0	2.4	0.00e+00	0	49	104	0	60	1048573
2026-01-17 11:28:45.77	341.52	9.51	-83.5	-79.0	2.4	0.00e+00	0	49	104	0	60	1048573
2026-01-17 11:28:46.78	341.27	9.50	-83.5	-79.0	2.4	0.00e+00	0	48	104	0	60	1048574
2026-01-17 11:28:47.79	341.02	9.49	-83.5	-79.0	2.4	0.00e+00	0	48	104	0	60	1048575
2026-01-17 11:28:48.80	340.77	9.48	-83.1	-79.0	2.5	0.00e+00	0	48	104	0	60	1048574
2026-01-17 11:28:49.80	340.52	9.46	-83.5	-79.0	2.3	0.00e+00	0	48	104	0	60	1048574
2026-01-17 11:28:50.81	340.26	9.45	-83.5	-79.0	2.3	0.00e+00	0	48	104	0	60	1048572
2026-01-17 11:28:51.82	340.01	9.44	-83.5	-79.0	2.3	0.00e+00	0	48	104	0	60	1048575
2026-01-17 11:28:52.83	339.76	9.42	-82.8	-79.0	2.5	0.00e+00	0	48	104	0	60	1048572
2026-01-17 11:28:53.83	339.51	9.41	-83.1	-79.0	2.3	0.00e+00	0	49	104	0	60	1048573
2026-01-17 11:28:54.84	339.26	9.39	-83.5	-79.0	2.5	0.00e+00	0	49	104	0	60	1048574
2026-01-17 11:28:55.85	339.01	9.38	-83.5	-79.0	2.3	0.00e+00	0	48	104	0	60	1048573
2026-01-17 11:28:56.86	338.76	9.36	-83.5	-79.0	2.4	0.00e+00	0	48	104	0	60	1048571
2026-01-17 11:28:57.87	338.51	9.34	-82.8	-79.0	2.4	0.00e+00	0	48	104	0	60	1048573
2026-01-17 11:28:58.87	338.27	9.33	-83.1	-79.0	2.4	0.00e+00	0	49	104	0	60	1048572
2026-01-17 11:28:59.88	338.02	9.31	-83.5	-79.0	2.4	0.00e+00	0	48	104	0	60	1048575
2026-01-17 11:29:00.89	337.77	9.29	-83.5	-79.0	2.3	0.00e+00	0	48	104	0	60	1048574
2026-01-17 11:29:01.90	337.52	9.27	-83.5	-79.0	2.6	0.00e+00	0	48	104	0	60	1048573
2026-01-17 11:29:02.90	337.27	9.26	-83.1	-79.0	2.4	0.00e+00	0	49	104	0	60	1048572
2026-01-17 11:29:03.91	337.03	9.24	-83.5	-79.0	2.4	0.00e+00	0	49	104	0	60	1048574
2026-01-17 11:29:04.92	336.78	9.22	-83.5	-79.0	2.4	0.00e+00	0	49	104	0	60	1048572
2026-01-17 11:29:05.92	336.53	9.20	-83.5	-79.0	2.3	0.00e+00	0	48	104	0	60	1048572
2026-01-17 11:29:06.93	336.29	9.18	-83.1	-79.0	2.4	0.00e+00	0	49	104	0	60	1048573
2026-01-17 11:29:07.75	336.09	9.16	-83.5	-79.0	2.4	0.00e+00	0	48	104	0	60	1048573
2026-01-17 11:29:08.90	335.81	9.14	-83.5	-79.0	2.5	0.00e+00	0	49	104	0	60	1048572
2026-01-17 11:29:09.76	335.60	9.12	-83.1	-79.0	2.5	0.00e+00	0	48	104	0	60	1048574
2026-01-17 11:29:10.90	335.32	9.10	-83.5	-79.0	2.3	0.00e+00	0	48	104	0	60	1048575
2026-01-17 11:29:11.76	335.12	9.08	-82.8	-79.0	2.4	0.00e+00	0	49	104	0	60	1048575
2026-01-17 11:29:12.92	334.84	9.05	-83.5	-79.0	2.4	0.00e+00	0	48	104	0	60	1048574
2026-01-17 11:29:13.78	334.63	9.03	-83.5	-79.0	2.4	0.00e+00	0	49	104	0	60	1048574
2026-01-17 11:29:14.93	334.35	9.01	-83.5	-79.0	2.4	0.00e+00	0	49	104	0	60	1048574
2026-01-17 11:29:15.80	334.14	8.99	-83.5	-79.0	2.3	0.00e+00	0	48	104	0	60	1048575
2026-01-17 11:29:16.95	333.87	8.96	-83.1	-79.0	2.4	0.00e+00	0	48	104	0	60	1048567
2026-01-17 11:29:17.80	333.67	8.94	-83.1	-79.0	2.4	0.00e+00	0	48	104	0	60	1048573
2026-01-17 11:29:18.95	333.39	8.91	-83.5	-79.0	2.5	0.00e+00	0	48	104	0	60	1048572
2026-01-17 11:29:19.82	333.19	8.89	-83.5	-79.0	2.3	0.00e+00	0	49	104	0	60	1048574
2026-01-17 11:29:20.96	332.92	8.86	-83.1	-79.0	2.2	0.00e+00	0	49	104	0	60	1048574
2026-01-17 11:29:21.83	332.71	8.84	-83.5	-79.0	2.3	0.00e+00	0	49	104	0	60	1048573
2026-01-17 11:29:22.98	332.44	8.81	-83.5	-79.0	2.6	0.00e+00	0	49	104	0	60	1048573
2026-01-17 11:29:23.84	332.23	8.79	-83.5	-79.0	2.5	0.00e+00	0	48	104	0	60	1048574
2026-01-17 11:29:24.99	331.96	8.75	-83.5	-79.0	2.3	0.00e+00	0	49	104	0	60	1048569
2026-01-17 11:29:25.86	331.76	8.73	-83.1	-79.0	2.5	0.00e+00	0	49	104	0	60	1048575
2026-01-17 11:29:27.01	331.49	8.70	-83.1	-79.0	2.3	0.00e+00	0	48	104	0	60	1048575
2026-01-17 11:29:27.88	331.29	8.68	-83.5	-79.0	2.4	0.00e+00	0	49	104	0	60	1048568
2026-01-17 11:29:29.03	331.02	8.64	-83.5	-79.0	2.6	0.00e+00	0	48	104	0	60	1048574
2026-01-17 11:29:29.89	330.82	8.62	-83.5	-79.0	2.4	0.00e+00	0	49	104	0	60	1048575
2026-01-17 11:29:31.05	330.55	8.59	-82.8	-79.0	2.6	0.00e+00	0	48	104	0	60	1048573
2026-01-17 11:29:31.91	330.35	8.56	-83.1	-79.0	2.4	0.00e+00	0	49	104	0	60	1048572
2026-01-17 11:29:33.06	330.09	8.53	-83.5	-79.0	2.4	0.00e+00	0	49	104	0	60	1048573
2026-01-17 11:29:33.92	329.89	8.50	-83.5	-79.0	2.3	0.00e+00	0	49	104	0	60	1048574
2026-01-17 11:29:35.07	329.62	8.47	-83.1	-79.0	2.4	0.00e+00	0	49	104	0	60	1048575
2026-01-17 11:29:35.94	329.43	8.44	-82.8	-79.0	2.4	0.00e+00	0	49	104	0	60	1048566
2026-01-17 11:29:37.08	329.17	8.41	-83.5	-79.0	2.3	0.00e+00	0	49	104	0	60	1048575
2026-01-17 11:29:37.94	328.97	8.38	-83.5	-79.0	2.4	0.00e+00	0	48	104	0	60	1048566
2026-01-17 11:29:39.09	328.71	8.34	-83.5	-79.0	2.4	0.00e+00	0	48	104	0	60	1048569
2026-01-17 11:29:39.95	328.51	8.32	-83.5	-79.0	2.2	0.00e+00	0	48	104	0	60	1048565
2026-01-17 11:29:41.10	328.25	8.28	-83.5	-79.0	2.3	0.00e+00	0	48	104	0	60	1048573
2026-01-17 11:29:41.96	328.06	8.25	-83.1	-79.0	2.3	0.00e+00	0	48	104	0	60	1048575
2026-01-17 11:29:43.12	327.80	8.22	-83.5	-79.0	2.4	0.00e+00	0	48	104	0	60	1048573
2026-01-17 11:29:43.98	327.61	8.19	-83.5	-79.0	2.4	0.00e+00	0	49	104	0	60	1048573
2026-01-17 11:29:45.13	327.35	8.15	-83.1	-79.0	2.3	0.00e+00	0	48	104	0	60	1048575
2026-01-17 11:29:45.99	327.16	8.12	-83.5	-79.0	2.4	0.00e+00	0	48	104	0	60	1048575
2026-01-17 11:29:47.15	326.90	8.08	-83.5	-79.0	2.3	0.00e+00	0	48	104	0	60	1048570
2026-01-17 11:29:48.01	326.71	8.05	-83.5	-79.0	2.5	0.00e+00	0	49	104	0	60	1048572
2026-01-17 11:29:49.16	326.46	8.01	-83.5	-79.0	2.4	0.00e+00	0	48	104	0	60	1048572
2026-01-17 11:29:50.03	326.27	7.98	-82.8	-79.0	2.5	0.00e+00	0	48	104	0	60	1048572
2026-01-17 11:29:51.17	326.02	7.94	-83.1	-79.0	2.3	0.00e+00	0	48	104	0	60	1048573
2026-01-17 11:29:52.04	325.82	7.91	-83.5	-79.0	2.5	0.00e+00	0	48	104	0	60	1048573
2026-01-17 11:29:53.19	325.57	7.87	-83.5	-79.0	2.3	0.00e+00	0	49	104	0	60	1048575
2026-01-17 11:29:54.05	325.39	7.84	-83.5	-79.0	2.4	0.00e+00	0	48	104	0	60	1048572
2026-01-17 11:29:55.20	325.14	7.80	-83.1	-79.0	2.4	0.00e+00	0	48	104	0	60	1048570
2026-01-17 11:29:56.06	324.95	7.77	-83.5	-79.0	2.4	0.00e+00	0	48	104	0	60	1048572
2026-01-17 11:29:57.21	324.70	7.73	-83.5	-79.0	2.4	0.00e+00	0	49	104	0	60	1048574
2026-01-17 11:29:58.08	324.52	7.70	-83.5	-79.0	2.2	0.00e+00	0	49	104	0	60	1048571
2026-01-17 11:29:59.23	324.27	7.65	-83.1	-79.0	2.3	0.00e+00	0	49	104	0	60	1048573
2026-01-17 11:30:00.09	324.09	7.62	-83.1	-79.0	2.3	0.00e+00	0	49	104	0	60	1048568
2026-01-17 11:30:01.25	323.84	7.58	-83.5	-79.0	2.4	0.00e+00	0	48	104	0	60	1048573
2026-01-17 11:30:02.11	323.66	7.55	-83.1	-79.0	2.4	0.00e+00	0	49	104	0	60	1048569
2026-01-17 11:30:03.26	323.42	7.50	-83.5	-79.0	2.5	0.00e+00	0	48	104	0	60	1048573
2026-01-17 11:30:04.13	323.23	7.47	-83.1	-79.0	2.3	0.00e+00	0	48	104	0	60	1048574
2026-01-17 11:30:05.28	322.99	7.43	-83.5	-79.0	2.6	0.00e+00	0	48	104	0	60	1048575
2026-01-17 11:30:06.14	322.81	7.39	-83.5	-79.0	2.3	0.00e+00	0	48	104	0	60	1048569
2026-01-17 11:30:07.29	322.57	7.35	-83.5	-79.0	2.6	0.00e+00	0	49	104	0	60	1048575
2026-01-17 11:30:08.16	322.39	7.32	-83.1	-79.0	2.4	0.00e+00	0	48	104	0	60	1048570
2026-01-17 11:30:09.31	322.15	7.27	-82.8	-79.0	2.5	0.00e+00	0	48	104	0	60	1048574
2026-01-17 11:30:10.17	321.98	7.24	-83.1	-79.0	2.3	0.00e+00	0	48	104	0	60	1048571
2026-01-17 11:30:11.32	321.74	7.19	-83.5	-79.0	2.3	0.00e+00	0	48	104	0	60	1048575
2026-01-17 11:30:12.19	321.56	7.16	-83.5	-79.0	2.4	0.00e+00	0	49	104	0	60	1048571
2026-01-17 11:30:13.34	321.33	7.11	-83.1	-79.0	2.2	0.00e+00	0	48	104	0	60	1048574
2026-01-17 11:30:14.20	321.15	7.08	-83.1	-79.0	2.5	0.00e+00	0	49	104	0	60	1048563
2026-01-17 11:30:15.35	320.92	7.03	-83.5	-79.0	2.5	0.00e+00	0	48	104	0	60	1048575
2026-01-17 11:30:16.21	320.74	7.00	-83.5	-79.0	2.4	0.00e+00	0	48	104	0	60	1048565
2026-01-17 11:30:17.37	320.51	6.95	-83.5	-79.0	2.3	0.00e+00	0	48	104	0	60	1048575
2026-01-17 11:30:18.23	320.34	6.91	-83.1	-79.0	2.2	0.00e+00	0	48	104	0	60	1048573
2026-01-17 11:30:19.38	320.11	6.87	-83.1	-79.0	2.4	0.00e+00	0	49	104	0	60	1048572
2026-01-17 11:30:20.25	319.94	6.83	-83.5	-79.0	2.3	0.00e+00	0	48	104	0	60	1048574
2026-01-17 11:30:21.40	319.71	6.78	-83.5	-79.0	2.4	0.00e+00	0	48	104	0	60	1048564
2026-01-17 11:30:22.26	319.54	6.75	-83.5	-79.0	2.2	0.00e+00	0	49	104	0	60	1048574
2026-01-17 11:30:23.41	319.31	6.70	-83.1	-79.0	2.4	0.00e+00	0	48	104	0	60	1048575
2026-01-17 11:30:24.27	319.14	6.66	-83.1	-79.0	2.4	0.00e+00	0	49	104	0	60	1048574
2026-01-17 11:30:25.42	318.92	6.61	-83.1	-79.0	2.4	0.00e+00	0	48	104	0	60	1048575
2026-01-17 11:30:26.29	318.75	6.58	-83.1	-79.0	2.4	0.00e+00	0	49	104	0	60	1048573
2026-01-17 11:30:27.44	318.52	6.53	-83.5	-79.0	2.5	0.00e+00	0	49	104	0	60	1048575
2026-01-17 11:30:28.30	318.36	6.49	-82.8	-79.0	2.3	0.00e+00	0	49	104	0	60	1048574
2026-01-17 11:30:29.45	318.14	6.44	-83.5	-79.0	2.4	0.00e+00	0	48	104	0	60	1048574
2026-01-17 11:30:30.31	317.97	6.40	-83.5	-79.0	2.3	0.00e+00	0	49	104	0	60	1048570
2026-01-17 11:30:31.45	317.75	6.36	-83.5	-79.0	2.5	0.00e+00	0	49	104	0	60	1048568
2026-01-17 11:30:32.32	317.59	6.32	-83.1	-79.0	2.4	0.00e+00	0	49	104	0	60	1048575
2026-01-17 11:30:33.47	317.37	6.27	-83.1	-79.0	2.4	0.00e+00	0	48	104	0	60	1048575
2026-01-17 11:30:34.33	317.21	6.23	-83.5	-79.0	2.4	0.00e+00	0	49	104	0	60	1048571
2026-01-17 11:30:35.48	316.99	6.18	-83.5	-79.0	2.3	0.00e+00	0	49	104	0	60	1048575
2026-01-17 11:30:36.35	316.83	6.14	-83.5	-79.0	2.4	0.00e+00	0	49	104	0	60	1048574
2026-01-17 11:30:37.50	316.61	6.09	-83.1	-79.0	2.4	0.00e+00	0	48	104	0	60	1048575
2026-01-17 11:30:38.36	316.45	6.05	-83.1	-79.0	2.4	0.00e+00	0	49	104	0	60	1048566
2026-01-17 11:30:39.51	316.24	6.00	-83.1	-79.0	2.4	0.00e+00	0	49	104	0	60	1048572
2026-01-17 11:30:40.38	316.08	5.96	-83.5	-79.0	2.4	0.00e+00	0	49	104	0	60	1048573
2026-01-17 11:30:41.52	315.87	5.91	-83.1	-79.0	2.4	0.00e+00	0	49	104	0	60	1048568
2026-01-17 11:30:42.38	315.71	5.87	-82.8	-79.0	2.3	0.00e+00	0	49	104	0	60	1048575
2026-01-17 11:30:43.53	315.50	5.82	-83.5	-79.0	2.3	0.00e+00	0	49	104	0	60	1048574
2026-01-17 11:30:44.39	315.35	5.78	-83.5	-79.0	2.3	0.00e+00	0	49	104	0	60	1048575
2026-01-17 11:30:45.54	315.14	5.73	-83.5	-79.0	2.3	0.00e+00	0	49	104	0	60	1048569
2026-01-17 11:30:46.41	314.98	5.69	-83.1	-79.0	2.3	0.00e+00	0	49	104	0	60	1048571
2026-01-17 11:30:47.56	314.77	5.64	-83.1	-79.0	2.4	0.00e+00	0	49	104	0	60	1048567
2026-01-17 11:30:48.43	314.62	5.60	-83.5	-79.0	2.4	0.00e+00	0	49	104	0	60	1048573
2026-01-17 11:30:49.58	314.41	5.55	-83.5	-79.0	2.5	0.00e+00	0	49	104	0	60	1048573
2026-01-17 11:30:50.44	314.26	5.51	-83.5	-79.0	2.3	0.00e+00	0	49	104	0	60	1048574
2026-01-17 11:30:51.59	314.06	5.46	-83.1	-79.0	2.4	0.00e+00	0	49	104	0	60	1048575
2026-01-17 11:30:52.45	313.91	5.42	-83.5	-79.0	2.4	0.00e+00	0	49	104	0	60	1048571
2026-01-17 11:30:53.60	313.71	5.36	-83.5	-79.0	2.4	0.00e+00	0	49	104	0	60	1048570
2026-01-17 11:30:54.47	313.55	5.32	-83.5	-79.0	2.3	0.00e+00	0	49	104	0	60	1048575
2026-01-17 11:30:55.62	313.35	5.27	-83.5	-79.0	2.5	0.00e+00	0	49	104	0	60	1048574
2026-01-17 11:30:56.48	313.20	5.23	-83.1	-79.0	2.4	0.00e+00	0	49	104	0	60	1048573
2026-01-17 11:30:57.63	313.01	5.18	-83.1	-79.0	2.4	0.00e+00	0	49	104	0	60	1048563
2026-01-17 11:30:58.49	312.86	5.14	-83.5	-79.0	2.4	0.00e+00	0	49	104	0	60	1048575
2026-01-17 11:30:59.64	312.66	5.08	-83.5	-79.0	2.3	0.00e+00	0	49	104	0	60	1048574
2026-01-17 11:31:00.50	312.52	5.04	-83.5	-79.0	2.3	0.00e+00	0	49	104	0	60	1048574
2026-01-17 11:31:01.65	312.32	4.99	-82.8	-79.0	2.2	0.00e+00	0	49	104	0	60	1048573
2026-01-17 11:31:02.51	312.18	4.95	-83.5	-79.0	2.6	0.00e+00	0	49	104	0	60	1048573
2026-01-17 11:31:03.66	311.98	4.90	-83.5	-79.0	2.3	0.00e+00	0	49	104	0	60	1048574
2026-01-17 11:31:04.52	311.84	4.86	-83.5	-79.0	2.4	0.00e+00	0	49	104	0	60	1048575
2026-01-17 11:31:05.67	311.65	4.80	-83.1	-79.0	2.5	0.00e+00	0	49	104	0	60	1048575
2026-01-17 11:31:06.53	311.50	4.76	-82.8	-79.0	2.4	0.00e+00	0	49	104	0	60	1048574
2026-01-17 11:31:07.68	311.31	4.71	-83.5	-79.0	2.4	0.00e+00	0	49	104	0	60	1048568
2026-01-17 11:31:08.55	311.17	4.67	-83.5	-79.0	2.3	0.00e+00	0	49	104	0	60	1048574
2026-01-17 11:31:09.70	310.98	4.61	-83.5	-79.0	2.5	0.00e+00	0	48	104	0	60	1048575
2026-01-17 11:31:10.57	310.84	4.57	-83.1	-79.0	2.4	0.00e+00	0	49	104	0	60	1048574
2026-01-17 11:31:11.72	310.65	4.52	-83.5	-79.0	2.3	0.00e+00	0	49	104	0	60	1048575
2026-01-17 11:31:12.58	310.51	4.47	-83.5	-79.0	2.4	0.00e+00	0	49	104	0	60	1048573
2026-01-17 11:31:13.73	310.33	4.42	-83.5	-79.0	2.3	0.00e+00	0	49	104	0	60	1048562
2026-01-17 11:31:14.59	310.19	4.38	-83.5	-79.0	2.5	0.00e+00	0	49	104	0	60	1048573
2026-01-17 11:31:15.74	310.01	4.32	-83.1	-79.0	2.4	0.00e+00	0	48	104	0	60	1048571
2026-01-17 11:31:16.61	309.87	4.28	-83.5	-79.0	2.3	0.00e+00	0	48	104	0	60	1048573
2026-01-17 11:31:17.76	309.68	4.23	-83.5	-79.0	2.4	0.00e+00	0	49	104	0	60	1048575
2026-01-17 11:31:18.62	309.55	4.19	-83.5	-79.0	2.6	0.00e+00	0	48	104	0	60	1048574
2026-01-17 11:31:19.77	309.37	4.13	-83.1	-79.0	2.4	0.00e+00	0	49	104	0	60	1048574
2026-01-17 11:31:20.63	309.23	4.09	-83.1	-79.0	2.2	0.00e+00	0	49	104	0	60	1048574
2026-01-17 11:31:21.78	309.05	4.03	-83.5	-79.0	2.3	0.00e+00	0	49	104	0	60	1048575
2026-01-17 11:31:22.65	308.92	3.99	-83.5	-79.0	2.4	0.00e+00	0	49	104	0	60	1048575
2026-01-17 11:31:23.80	308.74	3.94	-83.5	-79.0	2.4	0.00e+00	0	49	104	0	60	1048572
2026-01-17 11:31:24.66	308.61	3.90	-83.5	-79.0	2.2	0.00e+00	0	49	104	0	60	1048574
2026-01-17 11:31:25.81	308.43	3.84	-83.1	-79.0	2.3	0.00e+00	0	49	104	0	60	1048573
2026-01-17 11:31:26.68	308.30	3.80	-83.5	-79.0	2.5	0.00e+00	0	49	104	0	60	1048573
2026-01-17 11:31:27.83	308.13	3.74	-83.5	-79.0	2.4	0.00e+00	0	49	104	0	60	1048573
2026-01-17 11:31:28.69	308.00	3.70	-83.5	-79.0	2.6	0.00e+00	0	48	104	0	60	1048573
2026-01-17 11:31:29.84	307.82	3.65	-82.8	-79.0	2.3	0.00e+00	0	48	104	0	60	1048565
2026-01-17 11:31:30.70	307.69	3.60	-83.1	-79.0	2.4	0.00e+00	0	49	104	0	60	1048570
2026-01-17 11:31:31.86	307.52	3.55	-83.5	-79.0	2.4	0.00e+00	0	49	104	0	60	1048571
2026-01-17 11:31:32.72	307.39	3.51	-83.5	-79.0	2.4	0.00e+00	0	49	104	0	60	1048575
2026-01-17 11:31:33.86	307.22	3.45	-83.5	-79.0	2.3	0.00e+00	0	49	104	0	60	1048571
2026-01-17 11:31:34.73	307.10	3.41	-82.8	-79.0	2.5	0.00e+00	0	49	104	0	60	1048573
2026-01-17 11:31:35.87	306.93	3.35	-83.1	-79.0	2.4	0.00e+00	0	49	104	0	60	1048574
2026-01-17 11:31:36.74	306.80	3.31	-83.5	-79.0	2.5	0.00e+00	0	49	104	0	60	1048574
2026-01-17 11:31:37.89	306.63	3.25	-83.5	-79.0	2.4	0.00e+00	0	49	104	0	60	1048565
2026-01-17 11:31:38.75	306.51	3.21	-83.1	-79.0	2.4	0.00e+00	0	49	104	0	60	1048574
2026-01-17 11:31:39.90	306.34	3.16	-83.1	-79.0	2.2	0.00e+00	0	49	104	0	60	1048574
2026-01-17 11:31:40.76	306.22	3.11	-83.5	-79.0	2.3	0.00e+00	0	49	104	0	60	1048575
2026-01-17 11:31:41.91	306.06	3.06	-83.5	-79.0	2.4	0.00e+00	0	49	104	0	60	1048575
2026-01-17 11:31:42.77	305.93	3.02	-83.5	-79.0	2.3	0.00e+00	0	49	104	0	60	1048569
2026-01-17 11:31:43.93	305.77	2.96	-82.8	-79.0	2.2	0.00e+00	0	49	104	0	60	1048573
2026-01-17 11:31:44.79	305.65	2.92	-83.1	-79.0	2.5	0.00e+00	0	49	104	0	60	1048573
2026-01-17 11:31:45.94	305.49	2.86	-83.5	-79.0	2.2	0.00e+00	0	49	104	0	60	1048575
2026-01-17 11:31:46.81	305.36	2.82	-83.5	-79.0	2.5	0.00e+00	0	49	104	0	60	1048573
2026-01-17 11:31:47.96	305.20	2.76	-83.1	-79.0	2.5	0.00e+00	0	49	104	0	60	1048575
2026-01-17 11:31:48.82	305.08	2.72	-83.1	-79.0	2.3	0.00e+00	0	49	104	0	60	1048574
2026-01-17 11:31:49.96	304.93	2.67	-83.5	-79.0	2.7	0.00e+00	0	49	104	0	60	1048573
2026-01-17 11:31:50.82	304.81	2.62	-83.5	-79.0	2.3	0.00e+00	0	49	104	0	60	1048573
2026-01-17 11:31:51.96	304.65	2.57	-83.5	-79.0	2.6	0.00e+00	0	49	104	0	60	1048575
2026-01-17 11:31:52.82	304.54	2.53	-83.5	-79.0	2.6	0.00e+00	0	49	104	0	60	1048574
2026-01-17 11:31:53.97	304.38	2.47	-82.8	-79.0	2.6	0.00e+00	0	49	104	0	60	1048573
2026-01-17 11:31:54.84	304.26	2.43	-83.1	-79.0	2.3	0.00e+00	0	49	104	0	60	1048573
2026-01-17 11:31:55.99	304.11	2.37	-83.5	-79.0	2.3	0.00e+00	0	49	104	0	60	1048575
2026-01-17 11:31:56.85	303.99	2.33	-83.5	-79.0	2.4	0.00e+00	0	49	104	0	60	1048575
2026-01-17 11:31:58.00	303.84	2.27	-83.1	-79.0	2.2	0.00e+00	0	49	104	0	60	1048565
2026-01-17 11:31:58.87	303.72	2.23	-83.1	-79.0	2.4	0.00e+00	0	49	104	0	60	1048573
2026-01-17 11:32:00.02	303.57	2.17	-83.1	-79.0	2.5	0.00e+00	0	49	104	0	60	1048575
2026-01-17 11:32:00.89	303.46	2.13	-83.5	-79.0	2.4	0.00e+00	0	49	104	0	60	1048575
2026-01-17 11:32:02.04	303.31	2.07	-83.5	-79.0	2.4	0.00e+00	0	49	104	0	60	1048574
2026-01-17 11:32:02.90	303.19	2.03	-83.1	-79.0	2.4	0.00e+00	0	49	104	0	60	1048574
2026-01-17 11:32:04.05	303.04	1.97	-83.1	-79.0	2.3	0.00e+00	0	49	104	0	60	1048574
2026-01-17 11:32:04.92	302.93	1.93	-83.5	-79.0	2.3	0.00e+00	0	49	104	0	60	1048573
2026-01-17 11:32:06.06	302.79	1.88	-83.5	-79.0	2.3	0.00e+00	0	49	104	0	60	1048572
2026-01-17 11:32:06.93	302.67	1.83	-83.5	-79.0	2.3	0.00e+00	0	49	104	0	60	1048573
2026-01-17 11:32:08.08	302.53	1.78	-83.1	-79.0	2.4	0.00e+00	0	49	104	0	60	1048575
2026-01-17 11:32:08.94	302.42	1.73	-83.5	-79.0	2.4	0.00e+00	0	49	104	0	60	1048574
2026-01-17 11:32:10.09	302.27	1.68	-83.5	-79.0	2.4	0.00e+00	0	49	104	0	60	1048558
2026-01-17 11:32:10.95	302.16	1.64	-83.5	-79.0	2.7	0.00e+00	0	49	104	0	60	1048571
2026-01-17 11:32:12.11	302.02	1.58	-83.1	-79.0	2.5	0.00e+00	0	49	104	0	60	1048574
2026-01-17 11:32:12.97	301.91	1.54	-83.1	-79.0	2.4	0.00e+00	0	49	104	0	60	1048572
2026-01-17 11:32:14.12	301.77	1.48	-83.5	-79.0	2.5	0.00e+00	0	49	104	0	60	1048575
2026-01-17 11:32:14.98	301.66	1.44	-83.5	-79.0	2.4	0.00e+00	0	49	104	0	60	1048575
2026-01-17 11:32:16.14	301.52	1.38	-83.1	-79.0	2.4	0.00e+00	0	49	104	0	60	1048575
2026-01-17 11:32:17.00	301.41	1.34	-83.1	-79.0	2.3	0.00e+00	0	49	104	0	60	1048568
2026-01-17 11:32:18.15	301.27	1.28	-83.1	-79.0	2.4	0.00e+00	0	49	104	0	60	1048572
2026-01-17 11:32:19.01	301.17	1.24	-83.5	-79.0	2.4	0.00e+00	0	49	104	0	60	1048573
2026-01-17 11:32:20.16	301.03	1.18	-83.5	-79.0	2.3	0.00e+00	0	49	104	0	60	1048575
2026-01-17 11:32:21.02	300.93	1.14	-83.5	-79.0	2.4	0.00e+00	0	49	104	0	60	1048575
2026-01-17 11:32:22.17	300.79	1.09	-83.1	-79.0	2.3	0.00e+00	0	49	104	0	60	1048575
2026-01-17 11:32:23.03	300.68	1.04	-83.1	-79.0	2.3	0.00e+00	0	49	104	0	60	1048574
2026-01-17 11:32:24.18	300.55	0.99	-83.5	-79.0	2.3	0.00e+00	0	49	104	0	60	1048575
2026-01-17 11:32:25.04	300.45	0.95	-83.5	-79.0	2.4	0.00e+00	0	49	104	0	60	1048570
2026-01-17 11:32:26.20	300.31	0.89	-83.5	-79.0	2.6	0.00e+00	0	49	104	0	60	1048574
2026-01-17 11:32:27.06	300.21	0.85	-83.1	-79.0	2.2	0.00e+00	0	49	104	0	60	1048568
2026-01-17 11:32:28.21	300.07	0.79	-83.5	-79.0	2.5	0.00e+00	0	49	104	0	60	1048574
2026-01-17 11:32:29.07	299.97	0.75	-83.5	-79.0	2.4	0.00e+00	0	49	104	0	60	1048572
2026-01-17 11:32:30.22	299.84	0.69	-83.5	-79.0	2.4	0.00e+00	0	49	104	0	60	1048568
2026-01-17 11:32:31.08	299.74	0.65	-83.5	-79.0	2.4	0.00e+00	0	49	104	0	60	1048572
2026-01-17 11:32:32.23	299.61	0.59	-82.8	-79.0	2.4	0.00e+00	0	49	104	0	60	1048570
2026-01-17 11:32:33.10	299.51	0.55	-83.1	-79.0	2.4	0.00e+00	0	49	104	0	60	1048575
2026-01-17 11:32:34.25	299.38	0.50	-83.5	-79.0	2.4	0.00e+00	0	49	104	0	60	1048574
2026-01-17 11:32:35.11	299.28	0.45	-83.5	-79.0	2.3	0.00e+00	0	49	104	0	60	1048570
2026-01-17 11:32:36.26	299.15	0.40	-83.1	-79.0	2.3	0.00e+00	0	49	104	0	60	1048572
2026-01-17 11:32:37.12	299.05	0.36	-82.8	-79.0	2.4	0.00e+00	0	49	104	0	60	1048574
2026-01-17 11:32:38.27	298.93	0.30	-83.5	-79.0	2.3	0.00e+00	0	49	104	0	60	1048573
2026-01-17 11:32:39.13	298.83	0.26	-83.5	-79.0	2.2	0.00e+00	0	49	104	0	60	1048569
2026-01-17 11:32:40.28	298.70	0.20	-83.5	-79.0	2.3	0.00e+00	0	49	104	0	60	1048575
2026-01-17 11:32:41.15	298.61	0.16	-82.8	-79.0	2.3	0.00e+00	0	49	104	0	60	1048570
2026-01-17 11:32:42.29	298.48	0.10	-83.5	-79.0	2.5	0.00e+00	0	49	104	0	60	1048573
2026-01-17 11:32:43.16	298.38	0.06	-83.5	-79.0	2.7	0.00e+00	0	49	104	0	60	1048573
2026-01-17 11:32:44.31	298.26	0.01	-83.5	-79.0	2.3	0.00e+00	0	49	104	0	60	1048575
2026-01-17 11:32:45.17	298.17	-0.04	-83.5	-79.0	2.3	0.00e+00	0	49	104	0	60	1048573

#Closed at: 2026-01-17 11:32:46
#Recorded file [0 MB]: D:/Data/35015_260117_142832.dat