passes_logs/2026/01/17/R3.2S-Naryan-Mar/R3.2S-Naryan-Mar__20260117_112830_FENGYUN_3D_rec.log

#Pass ID: 20260117_112830_FENGYUN 3D
#Satellite: FENGYUN 3D
#Configuration: FENGYUN 3D
#almurnet v.1.7.20240730
#Start time: 2026-01-17 11:32:52

#Version: 2.2.20231116
#Station: R3.2S-Naryan-Mar
#Location: 53.008057 lon 67.646978 lat
#TLE: 1 43010U 17072A   26016.27214855  .00000192  00000+0  11235-3 0  9990
#TLE: 2 43010  98.9932 348.1078 0002365 105.5031 254.6406 14.19695933423435

#Time	Az	El	Level	Level2	SNR	BER	BlckErr	Temp	State	Recorded	gain1	gain2
2026-01-17 11:32:52.06	197.26	21.45	-83.5	-79.0	2.4	0.00e+00	0	48	0	0	60	1048573
2026-01-17 11:32:55.08	197.65	21.81	-84.7	-88.6	6.1	2.80e-01	0	48	0	0	60	1048574
2026-01-17 11:32:58.08	198.05	22.19	-84.7	-88.6	6.4	2.80e-01	0	48	0	0	60	1048574
2026-01-17 11:33:01.09	198.46	22.56	-84.7	-88.6	5.7	2.78e-01	0	48	0	0	60	1048575
2026-01-17 11:33:04.11	198.88	22.94	-84.7	-88.6	6.2	2.79e-01	0	48	0	0	60	1048575
2026-01-17 11:33:07.13	199.31	23.33	-85.2	-88.6	6.2	2.82e-01	0	48	0	0	60	1048575
2026-01-17 11:33:10.15	199.75	23.72	-84.7	-88.6	5.7	2.82e-01	0	48	0	0	60	1048574
2026-01-17 11:33:13.16	200.20	24.11	-84.7	-88.6	5.9	2.79e-01	0	48	0	0	60	1048574
2026-01-17 11:33:16.18	200.67	24.51	-85.2	-88.6	6.3	2.81e-01	0	48	0	0	60	1048575
2026-01-17 11:33:19.21	201.14	24.91	-84.7	-88.6	6.3	2.78e-01	0	48	0	0	60	1048571
2026-01-17 11:33:22.22	201.63	25.31	-84.7	-88.6	5.8	2.78e-01	0	48	0	0	60	1048574
2026-01-17 11:33:25.24	202.13	25.72	-84.7	-88.6	6.3	2.74e-01	0	48	0	0	60	1048573
2026-01-17 11:33:28.26	202.64	26.14	-85.2	-88.6	6.3	2.80e-01	0	48	0	0	60	1048573
2026-01-17 11:33:31.27	203.16	26.56	-84.7	-88.6	5.6	2.77e-01	0	48	0	0	60	1048570
2026-01-17 11:33:34.29	203.70	26.98	-84.7	-88.6	6.0	2.80e-01	0	48	0	0	60	1048575
2026-01-17 11:33:37.32	204.25	27.40	-84.7	-88.6	5.7	2.77e-01	0	48	0	0	60	1048570
2026-01-17 11:33:40.34	204.82	27.83	-84.7	-88.6	6.2	2.84e-01	0	48	0	0	60	1048575
2026-01-17 11:33:43.35	205.40	28.27	-85.2	-88.6	5.5	2.82e-01	0	48	0	0	60	1048575
2026-01-17 11:33:46.37	206.00	28.70	-84.7	-88.6	5.9	2.81e-01	0	47	0	0	60	1048575
2026-01-17 11:33:49.39	206.61	29.15	-84.7	-88.6	6.0	2.77e-01	0	48	0	0	60	1048575
2026-01-17 11:33:52.41	207.24	29.59	-84.7	-88.6	5.9	2.74e-01	0	48	0	0	60	1048575
2026-01-17 11:33:55.43	207.89	30.04	-84.7	-88.6	6.3	2.85e-01	0	48	0	0	60	1048574
2026-01-17 11:33:58.45	208.56	30.49	-84.7	-88.6	5.4	2.77e-01	0	48	0	0	60	1048575
2026-01-17 11:34:01.47	209.24	30.94	-84.7	-88.6	5.6	2.81e-01	0	48	0	0	60	1048574
2026-01-17 11:34:04.48	209.94	31.40	-84.7	-88.6	5.8	2.78e-01	0	48	0	0	60	1048569
2026-01-17 11:34:07.50	210.67	31.85	-84.7	-88.6	6.2	2.80e-01	0	47	0	0	60	1048574
2026-01-17 11:34:10.52	211.41	32.31	-84.7	-88.6	5.9	2.77e-01	0	48	0	0	60	1048572
2026-01-17 11:34:13.54	212.17	32.78	-85.2	-88.6	5.8	2.83e-01	0	47	0	0	60	1048574
2026-01-17 11:34:16.57	212.96	33.24	-84.7	-88.6	6.4	2.77e-01	0	47	0	0	60	1048570
2026-01-17 11:34:19.59	213.77	33.71	-84.7	-88.6	6.1	2.78e-01	0	47	0	0	60	1048573
2026-01-17 11:34:22.59	214.60	34.17	-84.7	-88.6	5.9	2.79e-01	0	47	0	0	60	1048574
2026-01-17 11:34:25.61	215.45	34.64	-84.7	-88.6	5.8	2.77e-01	0	47	0	0	60	1048572
2026-01-17 11:34:28.63	216.33	35.10	-84.7	-88.6	6.4	2.82e-01	0	47	0	0	60	1048575
2026-01-17 11:34:31.66	217.24	35.57	-85.2	-88.6	5.8	2.83e-01	0	47	0	0	60	1048562
2026-01-17 11:34:34.68	218.17	36.03	-84.7	-88.6	6.1	2.81e-01	0	47	0	0	60	1048574
2026-01-17 11:34:37.70	219.12	36.49	-84.7	-88.6	5.7	2.79e-01	0	47	0	0	60	1048574
2026-01-17 11:34:40.73	220.11	36.95	-84.7	-88.6	6.2	2.78e-01	0	47	0	0	60	1048573
2026-01-17 11:34:43.75	221.12	37.41	-84.7	-88.6	6.2	2.77e-01	0	47	0	0	60	1048573
2026-01-17 11:34:46.77	222.16	37.86	-84.7	-88.6	6.0	2.76e-01	0	47	0	0	60	1048575
2026-01-17 11:34:49.79	223.22	38.31	-84.7	-88.6	6.1	2.79e-01	0	47	0	0	60	1048574
2026-01-17 11:34:52.81	224.32	38.75	-84.7	-88.6	5.7	2.82e-01	0	47	0	0	60	1048571
2026-01-17 11:34:55.84	225.45	39.19	-85.2	-88.6	5.9	2.83e-01	0	47	0	0	60	1048566
2026-01-17 11:34:58.86	226.60	39.62	-84.7	-88.6	6.3	2.79e-01	0	47	0	0	60	1048575
2026-01-17 11:35:01.89	227.79	40.04	-84.7	-88.6	6.2	2.78e-01	0	47	0	0	60	1048573
2026-01-17 11:35:04.91	229.01	40.45	-84.7	-88.6	5.7	2.79e-01	0	47	0	0	60	1048574
2026-01-17 11:35:07.93	230.26	40.86	-84.7	-88.6	5.6	2.80e-01	0	47	0	0	60	1048573
2026-01-17 11:35:10.95	231.54	41.25	-84.7	-88.6	6.5	2.81e-01	0	47	0	0	60	1048574
2026-01-17 11:35:13.97	232.84	41.63	-84.7	-88.6	5.7	2.75e-01	0	47	0	0	60	1048575
2026-01-17 11:35:17.00	234.19	41.99	-84.7	-88.6	5.9	2.79e-01	0	47	0	0	60	1048563
2026-01-17 11:35:20.02	235.55	42.35	-84.7	-88.6	6.0	2.79e-01	0	47	0	0	60	1048573
2026-01-17 11:35:23.04	236.95	42.69	-85.2	-88.6	5.9	2.78e-01	0	47	0	0	60	1048574
2026-01-17 11:35:26.06	238.38	43.01	-84.3	-88.6	5.6	2.76e-01	0	47	0	0	60	1048575
2026-01-17 11:35:29.08	239.83	43.31	-84.7	-88.6	5.9	2.78e-01	0	47	0	0	60	1048575
2026-01-17 11:35:32.10	241.31	43.60	-84.7	-88.6	5.7	2.84e-01	0	47	0	0	60	1048575
2026-01-17 11:35:35.13	242.82	43.87	-84.7	-88.6	5.9	2.77e-01	0	47	0	0	60	1048570
2026-01-17 11:35:38.15	244.35	44.11	-85.2	-88.6	6.3	2.79e-01	0	47	0	0	60	1048570
2026-01-17 11:35:41.16	245.89	44.34	-84.7	-88.6	6.1	2.83e-01	0	47	0	0	60	1048575
2026-01-17 11:35:44.18	247.47	44.54	-84.7	-88.6	5.6	2.78e-01	0	47	0	0	60	1048575
2026-01-17 11:35:47.20	249.06	44.72	-85.2	-88.6	5.9	2.76e-01	0	47	0	0	60	1048574
2026-01-17 11:35:50.22	250.67	44.88	-84.7	-88.6	6.1	2.79e-01	0	47	0	0	60	1048574
2026-01-17 11:35:53.25	252.29	45.01	-85.2	-88.6	6.1	2.77e-01	0	47	0	0	60	1048575
2026-01-17 11:35:56.27	253.93	45.12	-84.7	-88.6	6.1	2.78e-01	0	47	0	0	60	1048574
2026-01-17 11:35:59.29	255.57	45.21	-84.7	-88.6	5.7	2.81e-01	0	47	0	0	60	1048573
2026-01-17 11:36:02.32	257.23	45.26	-85.2	-88.6	6.1	2.76e-01	0	47	0	0	60	1048571
2026-01-17 11:36:05.34	258.89	45.30	-84.7	-88.6	5.9	2.83e-01	0	47	0	0	60	1048575
2026-01-17 11:36:08.36	260.55	45.30	-85.2	-88.6	6.2	2.77e-01	0	47	0	0	60	1048575
2026-01-17 11:36:11.38	262.20	45.28	-85.2	-88.6	6.0	2.81e-01	0	47	0	0	60	1048570
2026-01-17 11:36:14.40	263.86	45.24	-85.2	-88.6	6.3	2.82e-01	0	47	0	0	60	1048571
2026-01-17 11:36:17.42	265.51	45.17	-84.7	-88.6	6.1	2.77e-01	0	47	0	0	60	1048571
2026-01-17 11:36:20.43	267.14	45.07	-84.3	-88.6	5.9	2.77e-01	0	47	0	0	60	1048573
2026-01-17 11:36:23.45	268.77	44.95	-84.7	-88.6	6.2	2.85e-01	0	47	0	0	60	1048573
2026-01-17 11:36:26.47	270.38	44.80	-84.7	-88.6	6.2	2.77e-01	0	47	0	0	60	1048574
2026-01-17 11:36:29.48	271.98	44.64	-85.2	-88.6	6.6	2.79e-01	0	47	0	0	60	1048574
2026-01-17 11:36:32.50	273.56	44.44	-84.7	-88.6	5.7	2.78e-01	0	47	0	0	60	1048573
2026-01-17 11:36:35.52	275.12	44.23	-84.7	-88.6	6.0	2.78e-01	0	47	0	0	60	1048575
2026-01-17 11:36:38.55	276.66	43.99	-85.2	-88.6	6.5	2.76e-01	0	47	0	0	60	1048572
2026-01-17 11:36:41.56	278.17	43.74	-84.7	-88.6	5.9	2.80e-01	0	47	0	0	60	1048575
2026-01-17 11:36:44.59	279.67	43.46	-84.7	-88.6	6.1	2.76e-01	0	47	0	0	60	1048575
2026-01-17 11:36:47.61	281.13	43.17	-84.7	-88.6	6.4	2.76e-01	0	47	0	0	60	1048573
2026-01-17 11:36:50.63	282.57	42.85	-85.2	-88.6	6.2	2.82e-01	0	47	0	0	60	1048575
2026-01-17 11:36:53.64	283.98	42.53	-84.7	-88.6	6.4	2.77e-01	0	47	0	0	60	1048568
2026-01-17 11:36:56.67	285.36	42.18	-84.7	-88.6	5.4	2.81e-01	0	47	0	0	60	1048574
2026-01-17 11:36:59.69	286.71	41.82	-84.7	-88.6	5.5	2.85e-01	0	47	0	0	60	1048571
2026-01-17 11:37:02.71	288.03	41.45	-85.2	-88.6	2.8	7.54e-01	0	47	104	0	60	1048575
2026-01-17 11:37:05.72	289.32	41.07	-85.2	-88.6	3.2	7.63e-01	0	47	104	0	60	1048574
2026-01-17 11:37:08.74	290.58	40.67	-85.2	-88.6	3.3	7.64e-01	0	47	104	0	60	1048572
2026-01-17 11:37:11.77	291.81	40.26	-85.2	-88.6	2.8	7.63e-01	0	47	104	0	60	1048575
2026-01-17 11:37:14.79	293.01	39.85	-85.2	-88.6	3.1	7.62e-01	0	47	104	0	60	1048570
2026-01-17 11:37:17.81	294.18	39.42	-85.2	-88.6	2.9	7.62e-01	0	47	104	0	60	1048567
2026-01-17 11:37:20.84	295.32	38.99	-84.7	-88.6	2.9	7.64e-01	0	47	104	0	60	1048575
2026-01-17 11:37:23.85	296.43	38.56	-85.2	-88.6	3.0	7.64e-01	0	47	104	0	60	1048568
2026-01-17 11:37:26.87	297.51	38.11	-85.2	-88.6	3.6	7.63e-01	0	47	104	0	60	1048575
2026-01-17 11:37:29.89	298.56	37.66	-84.7	-88.6	3.0	7.62e-01	0	47	104	0	60	1048575
2026-01-17 11:37:32.91	299.58	37.21	-85.2	-88.6	3.6	7.62e-01	0	47	104	0	60	1048574
2026-01-17 11:37:35.93	300.58	36.76	-85.2	-88.6	2.8	7.63e-01	0	47	104	0	60	1048575
2026-01-17 11:37:38.95	301.54	36.30	-84.7	-88.6	2.6	7.64e-01	0	47	104	0	60	1048575
2026-01-17 11:37:41.98	302.49	35.84	-85.2	-88.6	3.6	7.62e-01	0	47	104	0	60	1048575
2026-01-17 11:37:45.00	303.40	35.37	-85.2	-88.6	2.9	7.63e-01	0	47	104	0	60	1048575
2026-01-17 11:37:48.02	304.29	34.91	-85.2	-88.6	3.0	7.63e-01	0	47	104	0	60	1048575
2026-01-17 11:37:51.04	305.16	34.45	-85.2	-88.6	3.6	7.63e-01	0	47	104	0	60	1048569
2026-01-17 11:37:54.06	306.00	33.98	-84.7	-88.6	3.1	7.63e-01	0	47	104	0	60	1048575
2026-01-17 11:37:57.09	306.82	33.52	-85.2	-88.6	3.7	7.64e-01	0	47	104	0	60	1048575
2026-01-17 11:38:00.11	307.62	33.06	-84.7	-88.6	3.5	7.64e-01	0	47	104	0	60	1048575
2026-01-17 11:38:03.13	308.39	32.59	-84.7	-88.6	2.9	7.62e-01	0	47	104	0	60	1048575
2026-01-17 11:38:06.16	309.15	32.13	-85.2	-88.6	3.3	7.64e-01	0	47	104	0	60	1048575
2026-01-17 11:38:09.19	309.88	31.68	-85.2	-88.6	3.1	7.62e-01	0	47	104	0	60	1048574
2026-01-17 11:38:12.20	310.59	31.22	-84.7	-88.6	3.3	7.63e-01	0	47	104	0	60	1048572
2026-01-17 11:38:15.22	311.28	30.77	-85.2	-88.6	3.2	7.62e-01	0	47	104	0	60	1048574
2026-01-17 11:38:18.25	311.96	30.32	-85.2	-88.6	3.1	7.62e-01	0	47	104	0	60	1048574
2026-01-17 11:38:21.27	312.62	29.87	-85.2	-88.6	3.1	7.64e-01	0	47	104	0	60	1048575
2026-01-17 11:38:24.28	313.25	29.43	-85.2	-88.6	3.1	7.64e-01	0	47	104	0	60	1048574
2026-01-17 11:38:27.31	313.88	28.99	-85.2	-88.6	3.3	7.63e-01	0	47	104	0	60	1048569
2026-01-17 11:38:30.33	314.48	28.55	-85.2	-88.6	3.6	7.63e-01	0	47	104	0	60	1048567
2026-01-17 11:38:33.36	315.07	28.11	-85.2	-88.6	3.0	7.64e-01	0	47	104	0	60	1048574
2026-01-17 11:38:36.38	315.65	27.68	-84.7	-88.6	3.1	7.62e-01	0	47	104	0	60	1048575
2026-01-17 11:38:39.40	316.21	27.26	-85.2	-88.6	3.0	7.64e-01	0	47	104	0	60	1048574
2026-01-17 11:38:42.43	316.75	26.83	-85.2	-88.6	3.0	7.63e-01	0	47	104	0	60	1048574
2026-01-17 11:38:45.45	317.29	26.42	-85.2	-88.6	3.3	7.63e-01	0	47	104	0	60	1048571
2026-01-17 11:38:48.47	317.80	26.00	-85.2	-88.6	3.5	7.65e-01	0	47	104	0	60	1048573
2026-01-17 11:38:51.49	318.31	25.59	-85.2	-88.6	2.7	7.63e-01	0	47	104	0	60	1048575
2026-01-17 11:38:54.51	318.80	25.19	-85.2	-88.6	3.4	7.63e-01	0	47	104	0	60	1048574
2026-01-17 11:38:57.54	319.28	24.78	-85.2	-88.6	3.5	7.64e-01	0	47	104	0	60	1048575
2026-01-17 11:39:00.56	319.75	24.38	-85.2	-88.6	3.0	7.64e-01	0	47	104	0	60	1048575
2026-01-17 11:39:03.57	320.21	23.99	-85.2	-88.6	3.1	7.63e-01	0	47	104	0	60	1048574
2026-01-17 11:39:06.58	320.65	23.60	-85.2	-88.6	3.3	7.64e-01	0	47	104	0	60	1048570
2026-01-17 11:39:09.59	321.09	23.22	-84.7	-88.6	2.8	7.61e-01	0	47	104	0	60	1048575
2026-01-17 11:39:12.61	321.51	22.84	-85.2	-88.6	3.4	7.63e-01	0	47	104	0	60	1048572
2026-01-17 11:39:15.64	321.93	22.46	-85.2	-88.6	3.7	7.64e-01	0	47	104	0	60	1048574
2026-01-17 11:39:18.66	322.34	22.09	-85.2	-88.6	3.0	7.64e-01	0	47	104	0	60	1048573
2026-01-17 11:39:21.68	322.73	21.72	-85.2	-88.6	3.6	7.63e-01	0	47	104	0	60	1048569
2026-01-17 11:39:24.70	323.12	21.35	-85.2	-88.6	3.0	7.62e-01	0	47	104	0	60	1048573
2026-01-17 11:39:27.72	323.50	20.99	-85.2	-88.6	2.8	7.63e-01	0	47	104	0	60	1048575
2026-01-17 11:39:30.74	323.87	20.63	-85.2	-88.6	2.9	7.61e-01	0	47	104	0	60	1048573
2026-01-17 11:39:33.76	324.23	20.28	-84.7	-88.6	3.1	7.64e-01	0	47	104	0	60	1048574
2026-01-17 11:39:36.77	324.59	19.93	-85.2	-88.6	3.2	7.64e-01	0	47	104	0	60	1048575
2026-01-17 11:39:39.80	324.94	19.59	-85.2	-88.6	3.1	7.62e-01	0	47	104	0	60	1048567
2026-01-17 11:39:42.82	325.28	19.24	-84.7	-88.6	3.7	7.64e-01	0	47	104	0	60	1048574
2026-01-17 11:39:45.85	325.61	18.91	-85.2	-88.6	2.7	7.62e-01	0	47	104	0	60	1048573
2026-01-17 11:39:48.87	325.93	18.57	-85.2	-88.6	3.1	7.63e-01	0	47	104	0	60	1048572
2026-01-17 11:39:51.89	326.25	18.24	-85.2	-88.6	3.4	7.62e-01	0	47	104	0	60	1048572
2026-01-17 11:39:54.91	326.57	17.91	-85.2	-88.6	3.0	7.63e-01	0	47	104	0	60	1048575
2026-01-17 11:39:57.93	326.87	17.59	-84.7	-88.6	3.1	7.63e-01	0	47	104	0	60	1048574
2026-01-17 11:40:00.96	327.17	17.27	-85.2	-88.6	3.7	7.62e-01	0	47	104	0	60	1048574
2026-01-17 11:40:03.98	327.47	16.95	-85.2	-88.6	3.1	7.61e-01	0	47	104	0	60	1048574
2026-01-17 11:40:07.00	327.76	16.64	-84.7	-88.6	3.0	7.63e-01	0	47	104	0	60	1048573
2026-01-17 11:40:10.02	328.04	16.33	-85.2	-88.6	3.4	7.63e-01	0	47	104	0	60	1048574
2026-01-17 11:40:13.03	328.31	16.02	-85.2	-88.6	3.4	7.63e-01	0	47	104	0	60	1048574
2026-01-17 11:40:16.05	328.59	15.72	-84.3	-88.6	3.1	7.63e-01	0	47	104	0	60	1048574
2026-01-17 11:40:19.08	328.85	15.42	-85.2	-88.6	3.4	7.63e-01	0	47	104	0	60	1048575
2026-01-17 11:40:22.10	329.12	15.12	-85.2	-88.6	3.0	7.63e-01	0	47	104	0	60	1048575
2026-01-17 11:40:25.12	329.37	14.83	-85.2	-88.6	3.4	7.63e-01	0	47	104	0	60	1048572
2026-01-17 11:40:28.13	329.62	14.54	-85.2	-88.6	3.6	7.64e-01	0	47	104	0	60	1048575
2026-01-17 11:40:31.15	329.87	14.25	-85.2	-88.6	3.5	7.63e-01	0	47	104	0	60	1048574
2026-01-17 11:40:34.17	330.11	13.97	-85.2	-88.6	3.0	7.63e-01	0	47	104	0	60	1048569
2026-01-17 11:40:37.20	330.35	13.69	-84.7	-88.6	3.4	7.63e-01	0	47	104	0	60	1048575
2026-01-17 11:40:40.22	330.59	13.41	-84.7	-88.6	3.1	7.63e-01	0	47	104	0	60	1048575
2026-01-17 11:40:43.23	330.82	13.13	-85.2	-88.6	2.8	7.64e-01	0	47	104	0	60	1048573
2026-01-17 11:40:46.24	331.04	12.86	-85.2	-88.6	2.8	7.64e-01	0	47	104	0	60	1048575
2026-01-17 11:40:49.25	331.27	12.59	-84.7	-88.6	3.4	7.62e-01	0	47	104	0	60	1048575
2026-01-17 11:40:52.27	331.49	12.32	-85.2	-88.6	3.6	7.62e-01	0	47	104	0	60	1048572
2026-01-17 11:40:55.28	331.70	12.05	-85.2	-88.6	3.2	7.63e-01	0	47	104	0	60	1048575
2026-01-17 11:40:58.30	331.91	11.79	-85.2	-88.6	3.0	7.64e-01	0	47	104	0	60	1048568
2026-01-17 11:41:01.31	332.12	11.53	-85.2	-88.6	3.0	7.63e-01	0	47	104	0	60	1048573
2026-01-17 11:41:04.34	332.32	11.27	-84.7	-88.6	3.0	7.63e-01	0	47	104	0	60	1048569
2026-01-17 11:41:07.35	332.52	11.02	-85.2	-88.6	2.8	7.64e-01	0	47	104	0	60	1048575
2026-01-17 11:41:10.37	332.72	10.76	-84.7	-88.6	3.4	7.63e-01	0	47	104	0	60	1048575
2026-01-17 11:41:13.39	332.92	10.51	-84.7	-88.6	3.2	7.62e-01	0	47	104	0	60	1048571
2026-01-17 11:41:16.40	333.11	10.27	-85.2	-88.6	3.3	7.63e-01	0	47	104	0	60	1048573
2026-01-17 11:41:19.41	333.30	10.02	-85.2	-88.6	3.7	7.62e-01	0	47	104	0	60	1048574
2026-01-17 11:41:22.44	333.48	9.77	-84.7	-88.6	3.0	7.62e-01	0	47	104	0	60	1048575
2026-01-17 11:41:25.46	333.67	9.53	-84.7	-88.6	2.9	7.63e-01	0	47	104	0	60	1048574
2026-01-17 11:41:28.48	333.85	9.29	-85.2	-88.6	3.4	7.62e-01	0	47	104	0	60	1048569
2026-01-17 11:41:31.50	334.03	9.05	-84.7	-88.6	3.2	7.63e-01	0	47	104	0	60	1048568
2026-01-17 11:41:34.52	334.20	8.82	-85.2	-88.6	3.0	7.63e-01	0	47	104	0	60	1048575
2026-01-17 11:41:37.54	334.37	8.58	-84.7	-88.6	3.4	7.63e-01	0	47	104	0	60	1048575
2026-01-17 11:41:40.57	334.54	8.35	-85.2	-88.6	2.9	7.62e-01	0	47	104	0	60	1048570
2026-01-17 11:41:43.59	334.71	8.12	-85.2	-88.6	3.6	7.62e-01	0	47	104	0	60	1048572
2026-01-17 11:41:46.61	334.88	7.89	-84.7	-88.6	3.6	7.63e-01	0	47	104	0	60	1048568
2026-01-17 11:41:49.63	335.04	7.67	-85.2	-88.6	2.8	7.63e-01	0	47	104	0	60	1048566
2026-01-17 11:41:52.63	335.20	7.44	-85.2	-88.6	2.9	7.63e-01	0	47	104	0	60	1048574
2026-01-17 11:41:55.65	335.36	7.22	-85.2	-88.6	3.2	7.63e-01	0	47	104	0	60	1048572
2026-01-17 11:41:58.67	335.51	7.00	-85.2	-88.6	3.7	7.63e-01	0	47	104	0	60	1048573
2026-01-17 11:42:01.69	335.67	6.78	-85.2	-88.6	3.7	7.63e-01	0	47	104	0	60	1048570
2026-01-17 11:42:04.70	335.82	6.56	-85.2	-88.6	3.0	7.62e-01	0	47	104	0	60	1048575
2026-01-17 11:42:07.72	335.97	6.35	-85.2	-88.6	3.1	7.64e-01	0	47	104	0	60	1048575
2026-01-17 11:42:10.74	336.12	6.13	-85.2	-88.6	2.9	7.62e-01	0	47	104	0	60	1048573
2026-01-17 11:42:13.77	336.26	5.92	-85.2	-88.6	3.1	7.63e-01	0	47	104	0	60	1048572
2026-01-17 11:42:16.79	336.41	5.71	-84.7	-88.6	2.9	7.63e-01	0	47	104	0	60	1048567
2026-01-17 11:42:19.81	336.55	5.50	-85.2	-88.6	3.1	7.63e-01	0	47	104	0	60	1048575
2026-01-17 11:42:22.83	336.69	5.29	-85.2	-88.6	3.6	7.63e-01	0	47	104	0	60	1048573
2026-01-17 11:42:25.85	336.83	5.09	-85.2	-88.6	3.8	7.65e-01	0	47	104	0	60	1048575
2026-01-17 11:42:28.86	336.97	4.88	-85.2	-88.6	3.8	7.64e-01	0	47	104	0	60	1048573
2026-01-17 11:42:31.88	337.10	4.68	-85.2	-88.6	3.5	7.63e-01	0	47	104	0	60	1048568
2026-01-17 11:42:34.91	337.24	4.48	-84.7	-88.6	3.1	7.62e-01	0	47	104	0	60	1048568
2026-01-17 11:42:37.93	337.37	4.28	-85.2	-88.6	3.0	7.63e-01	0	47	104	0	60	1048573
2026-01-17 11:42:40.95	337.50	4.08	-84.7	-88.6	2.9	7.64e-01	0	47	104	0	60	1048565
2026-01-17 11:42:43.97	337.63	3.88	-85.2	-88.6	2.8	7.63e-01	0	47	104	0	60	1048573
2026-01-17 11:42:46.99	337.75	3.68	-85.2	-88.6	2.8	7.64e-01	0	47	104	0	60	1048575
2026-01-17 11:42:50.01	337.88	3.49	-85.2	-88.6	3.4	7.63e-01	0	47	104	0	60	1048574
2026-01-17 11:42:53.03	338.01	3.29	-84.7	-88.6	3.5	7.62e-01	0	47	104	0	60	1048575
2026-01-17 11:42:56.04	338.13	3.10	-85.2	-88.6	3.1	7.64e-01	0	47	104	0	60	1048572
2026-01-17 11:42:59.05	338.25	2.91	-85.2	-88.6	3.3	7.63e-01	0	47	104	0	60	1048575
2026-01-17 11:43:02.07	338.37	2.72	-85.2	-88.6	3.0	7.64e-01	0	47	104	0	60	1048574
2026-01-17 11:43:05.08	338.49	2.53	-85.2	-88.6	2.9	7.63e-01	0	47	104	0	60	1048572
2026-01-17 11:43:08.10	338.60	2.34	-85.2	-88.6	2.8	7.63e-01	0	47	104	0	60	1048570
2026-01-17 11:43:11.11	338.72	2.16	-85.2	-88.6	2.9	7.64e-01	0	47	104	0	60	1048573
2026-01-17 11:43:14.13	338.84	1.97	-85.2	-88.6	3.6	7.62e-01	0	47	104	0	60	1048574
2026-01-17 11:43:17.15	338.95	1.79	-84.7	-88.6	3.4	7.64e-01	0	47	104	0	60	1048574
2026-01-17 11:43:20.17	339.06	1.60	-85.2	-88.6	3.1	7.64e-01	0	47	104	0	60	1048574
2026-01-17 11:43:23.19	339.17	1.42	-84.7	-88.6	3.0	7.58e-01	0	47	104	0	60	1048575
2026-01-17 11:43:26.20	339.28	1.24	-84.7	-88.6	3.0	7.59e-01	0	47	104	0	60	1048573
2026-01-17 11:43:29.22	339.39	1.06	-85.2	-88.6	3.0	7.63e-01	0	47	104	0	60	1048571
2026-01-17 11:43:32.23	339.50	0.88	-85.2	-88.6	2.8	7.63e-01	0	47	104	0	60	1048574
2026-01-17 11:43:35.25	339.61	0.71	-85.2	-88.6	3.6	7.63e-01	0	47	104	0	60	1048569
2026-01-17 11:43:38.28	339.71	0.53	-85.2	-88.6	3.3	7.63e-01	0	47	104	0	60	1048568
2026-01-17 11:43:41.30	339.82	0.35	-85.2	-88.6	3.6	7.64e-01	0	47	104	0	60	1048573
2026-01-17 11:43:44.32	339.92	0.18	-85.2	-88.6	3.3	7.63e-01	0	47	104	0	60	1048575
2026-01-17 11:43:47.34	340.02	0.00	-85.2	-88.6	2.9	7.63e-01	0	47	104	0	60	1048575

#Closed at: 2026-01-17 11:43:48
#Recorded file [0 MB]: D:/Data/35015_260117_143252.dat