passes_logs/2026/01/17/R3.2S-Naryan-Mar/R3.2S-Naryan-Mar__20260117_083640_TY-40_rec.log

#Pass ID: 20260117_083640_TY-40
#Satellite: TY-40
#Configuration: TY-39
#almurnet v.1.7.20240730
#Start time: 2026-01-17 08:41:53

#Version: 2.2.20231116
#Station: R3.2S-Naryan-Mar
#Location: 53.008057 lon 67.646978 lat
#TLE: 1 56846U 23081A   26016.61953149  .00002313  00000-0  10506-3 0  9990
#TLE: 2 56846  97.3892  89.5057 0001765  75.2099 284.9333 15.21769873144958

#Time	Az	El	Level	Level2	SNR	BER	BlckErr	Temp	State	Recorded	gain1	gain2
2026-01-17 08:41:53.69	326.10	42.31	-83.5	-79.0	2.3	0.00e+00	0	48	0	0	60	1048571
2026-01-17 08:41:55.69	324.60	42.66	-82.8	-79.0	2.4	0.00e+00	0	49	104	0	60	1048575
2026-01-17 08:41:57.70	323.05	43.00	-83.5	-79.0	2.2	0.00e+00	0	49	104	0	60	1048575
2026-01-17 08:41:59.71	321.47	43.31	-83.1	-79.0	2.3	0.00e+00	0	49	104	0	60	1048566
2026-01-17 08:42:01.73	319.85	43.61	-83.5	-79.0	2.6	0.00e+00	0	49	104	0	60	1048574
2026-01-17 08:42:03.74	318.21	43.88	-83.5	-79.0	2.4	0.00e+00	0	49	104	0	60	1048574
2026-01-17 08:42:05.75	316.54	44.13	-83.5	-79.0	2.2	0.00e+00	0	49	104	0	60	1048567
2026-01-17 08:42:07.76	314.84	44.35	-83.5	-79.0	2.6	0.00e+00	0	49	104	0	60	1048571
2026-01-17 08:42:09.77	313.12	44.55	-83.1	-79.0	2.4	0.00e+00	0	49	104	0	60	1048575
2026-01-17 08:42:11.79	311.37	44.72	-83.5	-79.0	2.4	0.00e+00	0	49	104	0	60	1048567
2026-01-17 08:42:13.80	309.61	44.86	-83.1	-79.0	2.5	0.00e+00	0	49	104	0	60	1048568
2026-01-17 08:42:15.82	307.83	44.97	-83.5	-79.0	2.5	0.00e+00	0	49	104	0	60	1048574
2026-01-17 08:42:17.84	306.04	45.06	-83.5	-79.0	2.4	0.00e+00	0	49	104	0	60	1048568
2026-01-17 08:42:19.85	304.24	45.11	-83.1	-79.0	2.3	0.00e+00	0	49	104	0	60	1048575
2026-01-17 08:42:21.86	302.44	45.13	-83.5	-79.0	2.1	0.00e+00	0	49	104	0	60	1048574
2026-01-17 08:42:23.88	300.64	45.13	-82.8	-79.0	2.4	0.00e+00	0	49	104	0	60	1048573
2026-01-17 08:42:25.89	298.84	45.09	-83.5	-79.0	2.4	0.00e+00	0	49	104	0	60	1048575
2026-01-17 08:42:27.90	297.05	45.02	-83.1	-79.0	2.4	0.00e+00	0	49	104	0	60	1048571
2026-01-17 08:42:29.91	295.27	44.92	-83.5	-79.0	2.4	0.00e+00	0	49	104	0	60	1048575
2026-01-17 08:42:31.93	293.49	44.79	-83.5	-79.0	2.4	0.00e+00	0	49	104	0	60	1048571
2026-01-17 08:42:33.94	291.74	44.64	-83.1	-79.0	2.5	0.00e+00	0	49	104	0	60	1048571
2026-01-17 08:42:35.96	290.00	44.45	-83.5	-79.0	2.4	0.00e+00	0	49	104	0	60	1048573
2026-01-17 08:42:37.97	288.29	44.24	-83.1	-79.0	2.2	0.00e+00	0	49	104	0	60	1048575
2026-01-17 08:42:39.98	286.61	44.01	-83.5	-79.0	2.0	0.00e+00	0	49	104	0	60	1048575
2026-01-17 08:42:41.99	284.95	43.74	-83.5	-79.0	2.5	0.00e+00	0	49	104	0	60	1048573
2026-01-17 08:42:44.00	283.32	43.46	-83.1	-79.0	2.3	0.00e+00	0	49	104	0	60	1048571
2026-01-17 08:42:46.02	281.71	43.15	-83.1	-79.0	2.3	0.00e+00	0	49	104	0	60	1048575
2026-01-17 08:42:48.03	280.15	42.83	-82.8	-79.0	2.5	0.00e+00	0	49	104	0	60	1048563
2026-01-17 08:42:50.05	278.61	42.48	-83.5	-79.0	2.4	0.00e+00	0	49	104	0	60	1048571
2026-01-17 08:42:52.07	277.10	42.11	-83.1	-79.0	2.4	0.00e+00	0	49	104	0	60	1048573
2026-01-17 08:42:54.08	275.64	41.73	-83.5	-79.0	2.5	0.00e+00	0	49	104	0	60	1048573
2026-01-17 08:42:56.08	274.22	41.34	-83.1	-79.0	2.4	0.00e+00	0	49	104	0	60	1048566
2026-01-17 08:42:58.09	272.84	40.93	-83.5	-79.0	2.5	0.00e+00	0	49	104	0	60	1048574
2026-01-17 08:43:00.10	271.48	40.50	-83.5	-79.0	2.4	0.00e+00	0	49	104	0	60	1048571
2026-01-17 08:43:02.12	270.16	40.07	-83.1	-79.0	2.4	0.00e+00	0	49	104	0	60	1048575
2026-01-17 08:43:04.13	268.89	39.63	-83.5	-79.0	2.5	0.00e+00	0	49	104	0	60	1048569
2026-01-17 08:43:06.14	267.64	39.17	-83.1	-79.0	2.3	0.00e+00	0	49	104	0	60	1048575
2026-01-17 08:43:08.15	266.44	38.71	-83.5	-79.0	2.5	0.00e+00	0	49	104	0	60	1048573
2026-01-17 08:43:10.17	265.26	38.25	-83.5	-79.0	2.5	0.00e+00	0	49	104	0	60	1048572
2026-01-17 08:43:12.18	264.13	37.78	-83.1	-79.0	2.6	0.00e+00	0	49	104	0	60	1048574
2026-01-17 08:43:14.19	263.03	37.30	-83.5	-79.0	2.5	0.00e+00	0	49	104	0	60	1048575
2026-01-17 08:43:16.19	261.97	36.83	-82.8	-79.0	2.4	0.00e+00	0	49	104	0	60	1048574
2026-01-17 08:43:18.20	260.93	36.35	-83.5	-79.0	2.3	0.00e+00	0	49	104	0	60	1048575
2026-01-17 08:43:20.21	259.93	35.86	-83.5	-79.0	2.3	0.00e+00	0	49	104	0	60	1048575
2026-01-17 08:43:22.22	258.96	35.38	-83.5	-79.0	2.7	0.00e+00	0	49	104	0	60	1048572
2026-01-17 08:43:24.23	258.02	34.90	-83.5	-79.0	2.5	0.00e+00	0	49	104	0	60	1048573
2026-01-17 08:43:26.25	257.10	34.41	-83.1	-79.0	2.3	0.00e+00	0	49	104	0	60	1048574
2026-01-17 08:43:28.25	256.22	33.93	-83.5	-79.0	2.3	0.00e+00	0	49	104	0	60	1048569
2026-01-17 08:43:30.26	255.37	33.45	-83.1	-79.0	2.1	0.00e+00	0	49	104	0	60	1048561
2026-01-17 08:43:32.27	254.54	32.98	-83.5	-79.0	2.5	0.00e+00	0	49	104	0	60	1048568
2026-01-17 08:43:34.28	253.73	32.50	-83.1	-79.0	2.4	0.00e+00	0	49	104	0	60	1048574
2026-01-17 08:43:36.28	252.96	32.03	-83.5	-79.0	2.6	0.00e+00	0	49	104	0	60	1048571
2026-01-17 08:43:38.28	252.21	31.56	-83.5	-79.0	2.4	0.00e+00	0	49	104	0	60	1048573
2026-01-17 08:43:40.30	251.47	31.10	-83.1	-79.0	2.4	0.00e+00	0	49	104	0	60	1048575
2026-01-17 08:43:42.32	250.76	30.63	-83.5	-79.0	2.4	0.00e+00	0	49	104	0	60	1048575
2026-01-17 08:43:44.33	250.07	30.18	-83.1	-79.0	2.6	0.00e+00	0	49	104	0	60	1048571
2026-01-17 08:43:46.34	249.41	29.72	-83.5	-79.0	2.6	0.00e+00	0	49	104	0	60	1048575
2026-01-17 08:43:48.34	248.76	29.28	-83.5	-79.0	2.4	0.00e+00	0	49	104	0	60	1048575
2026-01-17 08:43:50.35	248.13	28.83	-83.1	-79.0	2.4	0.00e+00	0	49	104	0	60	1048575
2026-01-17 08:43:52.37	247.52	28.39	-83.5	-79.0	2.4	0.00e+00	0	49	104	0	60	1048568
2026-01-17 08:43:54.38	246.93	27.96	-83.1	-79.0	2.5	0.00e+00	0	49	104	0	60	1048572
2026-01-17 08:43:56.40	246.36	27.53	-83.5	-79.0	2.5	0.00e+00	0	49	104	0	60	1048574
2026-01-17 08:43:58.42	245.80	27.10	-83.1	-79.0	2.5	0.00e+00	0	49	104	0	60	1048567
2026-01-17 08:44:00.43	245.26	26.68	-83.5	-79.0	2.4	0.00e+00	0	49	104	0	60	1048575
2026-01-17 08:44:02.44	244.73	26.27	-83.5	-79.0	2.4	0.00e+00	0	49	104	0	60	1048574
2026-01-17 08:44:04.45	244.22	25.86	-83.5	-79.0	2.3	0.00e+00	0	49	104	0	60	1048575
2026-01-17 08:44:06.47	243.72	25.45	-83.5	-79.0	2.3	0.00e+00	0	49	104	0	60	1048573
2026-01-17 08:44:08.48	243.24	25.06	-82.8	-79.0	2.5	0.00e+00	0	49	104	0	60	1048572
2026-01-17 08:44:10.50	242.77	24.66	-83.5	-79.0	2.4	0.00e+00	0	49	104	0	60	1048574
2026-01-17 08:44:12.51	242.31	24.27	-83.5	-79.0	2.8	0.00e+00	0	49	104	0	60	1048575
2026-01-17 08:44:14.53	241.87	23.89	-83.1	-79.0	2.4	0.00e+00	0	49	104	0	60	1048570
2026-01-17 08:44:16.54	241.44	23.51	-83.5	-79.0	2.2	0.00e+00	0	49	104	0	60	1048571
2026-01-17 08:44:18.55	241.02	23.14	-83.1	-79.0	2.3	0.00e+00	0	49	104	0	60	1048568
2026-01-17 08:44:20.57	240.61	22.77	-83.1	-79.0	2.3	0.00e+00	0	49	104	0	60	1048575
2026-01-17 08:44:22.59	240.21	22.41	-83.1	-79.0	2.5	0.00e+00	0	49	104	0	60	1048575
2026-01-17 08:44:24.60	239.82	22.05	-83.5	-79.0	2.4	0.00e+00	0	49	104	0	60	1048574
2026-01-17 08:44:26.62	239.44	21.70	-83.1	-79.0	2.3	0.00e+00	0	49	104	0	60	1048574
2026-01-17 08:44:28.64	239.07	21.35	-83.5	-79.0	2.4	0.00e+00	0	49	104	0	60	1048573
2026-01-17 08:44:30.65	238.71	21.01	-83.5	-79.0	2.4	0.00e+00	0	49	104	0	60	1048575
2026-01-17 08:44:32.67	238.36	20.67	-83.1	-79.0	2.5	0.00e+00	0	49	104	0	60	1048568
2026-01-17 08:44:34.67	238.02	20.33	-83.5	-79.0	2.5	0.00e+00	0	49	104	0	60	1048574
2026-01-17 08:44:36.69	237.69	20.00	-83.1	-79.0	2.4	0.00e+00	0	49	104	0	60	1048563
2026-01-17 08:44:38.70	237.36	19.68	-83.5	-79.0	2.5	0.00e+00	0	49	104	0	60	1048575
2026-01-17 08:44:40.71	237.05	19.36	-83.5	-79.0	2.3	0.00e+00	0	49	104	0	60	1048575
2026-01-17 08:44:42.73	236.74	19.04	-83.5	-79.0	2.2	0.00e+00	0	49	104	0	60	1048568
2026-01-17 08:44:44.74	236.44	18.73	-83.5	-79.0	2.5	0.00e+00	0	49	104	0	60	1048574
2026-01-17 08:44:46.76	236.14	18.42	-82.8	-79.0	2.4	0.00e+00	0	49	104	0	60	1048573
2026-01-17 08:44:48.77	235.85	18.12	-83.5	-79.0	2.4	0.00e+00	0	49	104	0	60	1048575
2026-01-17 08:44:50.78	235.57	17.82	-83.1	-79.0	2.6	0.00e+00	0	49	104	0	60	1048573
2026-01-17 08:44:52.79	235.30	17.53	-83.5	-79.0	2.4	0.00e+00	0	49	104	0	60	1048574
2026-01-17 08:44:54.81	235.03	17.23	-83.5	-79.0	2.4	0.00e+00	0	49	104	0	60	1048569
2026-01-17 08:44:56.82	234.77	16.95	-83.5	-79.0	2.2	0.00e+00	0	49	104	0	60	1048573
2026-01-17 08:44:58.83	234.51	16.66	-83.5	-79.0	2.5	0.00e+00	0	49	104	0	60	1048574
2026-01-17 08:45:00.85	234.26	16.38	-83.1	-79.0	2.6	0.00e+00	0	49	104	0	60	1048575
2026-01-17 08:45:02.87	234.01	16.11	-83.5	-79.0	2.3	0.00e+00	0	49	104	0	60	1048575
2026-01-17 08:45:04.88	233.77	15.83	-83.1	-79.0	2.3	0.00e+00	0	49	104	0	60	1048567
2026-01-17 08:45:06.90	233.54	15.56	-83.5	-79.0	2.3	0.00e+00	0	49	104	0	60	1048574
2026-01-17 08:45:08.90	233.31	15.30	-83.5	-79.0	2.3	0.00e+00	0	49	104	0	60	1048575
2026-01-17 08:45:10.91	233.09	15.04	-83.1	-79.0	2.5	0.00e+00	0	49	104	0	60	1048562
2026-01-17 08:45:12.92	232.87	14.78	-83.5	-79.0	2.6	0.00e+00	0	49	104	0	60	1048574
2026-01-17 08:45:14.93	232.65	14.52	-82.8	-79.0	2.4	0.00e+00	0	49	104	0	60	1048570
2026-01-17 08:45:16.94	232.44	14.27	-83.5	-79.0	2.3	0.00e+00	0	49	104	0	60	1048575
2026-01-17 08:45:18.95	232.23	14.02	-83.1	-79.0	2.4	0.00e+00	0	49	104	0	60	1048574
2026-01-17 08:45:20.97	232.03	13.77	-83.5	-79.0	2.5	0.00e+00	0	49	104	0	60	1048572
2026-01-17 08:45:22.98	231.83	13.53	-83.5	-79.0	2.6	0.00e+00	0	49	104	0	60	1048575
2026-01-17 08:45:24.99	231.64	13.28	-83.1	-79.0	2.6	0.00e+00	0	49	104	0	60	1048574
2026-01-17 08:45:27.00	231.45	13.05	-83.5	-79.0	2.6	0.00e+00	0	49	104	0	60	1048572
2026-01-17 08:45:29.01	231.26	12.81	-83.1	-79.0	2.4	0.00e+00	0	49	104	0	60	1048575
2026-01-17 08:45:31.01	231.08	12.58	-83.5	-79.0	2.4	0.00e+00	0	49	104	0	60	1048568
2026-01-17 08:45:33.03	230.90	12.35	-83.5	-79.0	2.5	0.00e+00	0	49	104	0	60	1048574
2026-01-17 08:45:35.04	230.72	12.12	-83.5	-79.0	2.4	0.00e+00	0	49	104	0	60	1048569
2026-01-17 08:45:37.06	230.55	11.89	-83.5	-79.0	2.3	0.00e+00	0	49	104	0	60	1048574
2026-01-17 08:45:39.07	230.38	11.67	-83.1	-79.0	2.3	0.00e+00	0	49	104	0	60	1048572
2026-01-17 08:45:41.09	230.22	11.45	-83.5	-79.0	2.6	0.00e+00	0	49	104	0	60	1048569
2026-01-17 08:45:43.10	230.05	11.23	-83.1	-79.0	2.5	0.00e+00	0	49	104	0	60	1048569
2026-01-17 08:45:45.11	229.89	11.02	-83.5	-79.0	2.4	0.00e+00	0	49	104	0	60	1048568
2026-01-17 08:45:47.13	229.73	10.80	-83.5	-79.0	2.4	0.00e+00	0	49	104	0	60	1048569
2026-01-17 08:45:49.14	229.58	10.59	-83.5	-79.0	2.7	0.00e+00	0	49	104	0	60	1048571
2026-01-17 08:45:51.15	229.43	10.38	-83.5	-79.0	2.5	0.00e+00	0	49	104	0	60	1048575
2026-01-17 08:45:53.17	229.28	10.18	-83.1	-79.0	2.4	0.00e+00	0	49	104	0	60	1048573
2026-01-17 08:45:55.18	229.13	9.97	-83.5	-79.0	2.2	0.00e+00	0	49	104	0	60	1048575
2026-01-17 08:45:57.19	228.99	9.77	-83.1	-79.0	2.2	0.00e+00	0	49	104	0	60	1048571
2026-01-17 08:45:59.21	228.85	9.57	-83.5	-79.0	2.2	0.00e+00	0	49	104	0	60	1048572
2026-01-17 08:46:01.22	228.71	9.37	-83.5	-79.0	2.3	0.00e+00	0	49	104	0	60	1048572
2026-01-17 08:46:03.23	228.57	9.17	-83.1	-79.0	2.5	0.00e+00	0	49	104	0	60	1048562
2026-01-17 08:46:05.25	228.44	8.98	-83.5	-79.0	2.4	0.00e+00	0	49	104	0	60	1048575
2026-01-17 08:46:07.26	228.31	8.79	-83.1	-79.0	2.5	0.00e+00	0	49	104	0	60	1048575
2026-01-17 08:46:09.27	228.18	8.59	-83.5	-79.0	2.3	0.00e+00	0	49	104	0	60	1048575
2026-01-17 08:46:11.29	228.05	8.40	-83.5	-79.0	2.3	0.00e+00	0	49	104	0	60	1048573
2026-01-17 08:46:13.31	227.93	8.22	-83.5	-79.0	2.3	0.00e+00	0	49	104	0	60	1048572
2026-01-17 08:46:15.32	227.80	8.03	-83.5	-79.0	2.4	0.00e+00	0	49	104	0	60	1048575
2026-01-17 08:46:17.34	227.68	7.85	-83.1	-79.0	2.4	0.00e+00	0	49	104	0	60	1048575
2026-01-17 08:46:19.35	227.56	7.66	-83.5	-79.0	2.5	0.00e+00	0	49	104	0	60	1048575
2026-01-17 08:46:21.36	227.45	7.48	-82.8	-79.0	2.5	0.00e+00	0	49	104	0	60	1048570
2026-01-17 08:46:23.37	227.33	7.31	-83.5	-79.0	2.4	0.00e+00	0	49	104	0	60	1048575
2026-01-17 08:46:25.39	227.22	7.13	-83.5	-79.0	2.3	0.00e+00	0	49	104	0	60	1048575
2026-01-17 08:46:27.40	227.11	6.95	-83.5	-79.0	2.2	0.00e+00	0	49	104	0	60	1048575
2026-01-17 08:46:29.41	227.00	6.78	-83.5	-79.0	2.6	0.00e+00	0	49	104	0	60	1048563
2026-01-17 08:46:31.42	226.89	6.60	-83.5	-79.0	2.6	0.00e+00	0	48	104	0	60	1048571
2026-01-17 08:46:33.43	226.78	6.43	-83.5	-79.0	2.4	0.00e+00	0	49	104	0	60	1048574
2026-01-17 08:46:35.43	226.68	6.26	-83.1	-79.0	2.0	0.00e+00	0	49	104	0	60	1048570
2026-01-17 08:46:37.45	226.58	6.10	-83.5	-79.0	2.4	0.00e+00	0	49	104	0	60	1048573
2026-01-17 08:46:39.46	226.47	5.93	-83.5	-79.0	2.4	0.00e+00	0	49	104	0	60	1048575
2026-01-17 08:46:41.48	226.37	5.76	-83.5	-79.0	2.5	0.00e+00	0	49	104	0	60	1048575
2026-01-17 08:46:43.50	226.27	5.60	-83.5	-79.0	2.5	0.00e+00	0	49	104	0	60	1048574
2026-01-17 08:46:45.51	226.18	5.43	-83.1	-79.0	2.4	0.00e+00	0	49	104	0	60	1048574
2026-01-17 08:46:47.53	226.08	5.27	-83.5	-79.0	2.3	0.00e+00	0	49	104	0	60	1048574
2026-01-17 08:46:49.54	225.99	5.11	-83.1	-79.0	2.3	0.00e+00	0	49	104	0	60	1048572
2026-01-17 08:46:51.55	225.90	4.95	-83.5	-79.0	2.4	0.00e+00	0	49	104	0	60	1048574
2026-01-17 08:46:53.57	225.80	4.79	-83.5	-79.0	2.4	0.00e+00	0	49	104	0	60	1048575
2026-01-17 08:46:55.58	225.71	4.63	-83.5	-79.0	2.7	0.00e+00	0	49	104	0	60	1048573
2026-01-17 08:46:57.59	225.63	4.48	-83.5	-79.0	2.5	0.00e+00	0	49	104	0	60	1048571
2026-01-17 08:46:59.61	225.54	4.32	-83.1	-79.0	2.2	0.00e+00	0	49	104	0	60	1048571
2026-01-17 08:47:01.63	225.45	4.17	-83.5	-79.0	2.2	0.00e+00	0	49	104	0	60	1048569
2026-01-17 08:47:03.64	225.37	4.02	-83.5	-79.0	2.4	0.00e+00	0	49	104	0	60	1048574
2026-01-17 08:47:05.65	225.28	3.87	-83.5	-79.0	2.5	0.00e+00	0	49	104	0	60	1048568
2026-01-17 08:47:07.66	225.20	3.72	-83.5	-79.0	2.4	0.00e+00	0	49	104	0	60	1048572
2026-01-17 08:47:09.67	225.12	3.57	-82.8	-79.0	2.4	0.00e+00	0	49	104	0	60	1048574
2026-01-17 08:47:11.68	225.04	3.42	-83.5	-79.0	2.4	0.00e+00	0	49	104	0	60	1048573
2026-01-17 08:47:13.69	224.96	3.27	-83.1	-79.0	2.3	0.00e+00	0	49	104	0	60	1048574
2026-01-17 08:47:15.70	224.88	3.12	-83.5	-79.0	2.2	0.00e+00	0	49	104	0	60	1048575
2026-01-17 08:47:17.72	224.80	2.98	-83.1	-79.0	2.5	0.00e+00	0	49	104	0	60	1048569
2026-01-17 08:47:19.73	224.73	2.83	-83.5	-79.0	2.5	0.00e+00	0	49	104	0	60	1048575
2026-01-17 08:47:21.74	224.65	2.69	-83.5	-79.0	2.5	0.00e+00	0	49	104	0	60	1048575
2026-01-17 08:47:23.74	224.58	2.55	-83.1	-79.0	2.2	0.00e+00	0	49	104	0	60	1048575
2026-01-17 08:47:25.75	224.51	2.41	-83.5	-79.0	2.3	0.00e+00	0	49	104	0	60	1048574
2026-01-17 08:47:27.76	224.44	2.27	-83.1	-79.0	2.4	0.00e+00	0	49	104	0	60	1048572
2026-01-17 08:47:29.77	224.36	2.13	-83.5	-79.0	2.4	0.00e+00	0	49	104	0	60	1048573
2026-01-17 08:47:31.79	224.29	1.99	-83.5	-79.0	2.5	0.00e+00	0	49	104	0	60	1048570
2026-01-17 08:47:33.80	224.22	1.85	-83.1	-79.0	2.6	0.00e+00	0	49	104	0	60	1048573
2026-01-17 08:47:35.82	224.16	1.71	-83.5	-79.0	2.4	0.00e+00	0	49	104	0	60	1048567
2026-01-17 08:47:37.83	224.09	1.58	-82.8	-79.0	2.2	0.00e+00	0	49	104	0	60	1048569
2026-01-17 08:47:39.85	224.02	1.44	-83.1	-79.0	2.2	0.00e+00	0	49	104	0	60	1048562
2026-01-17 08:47:41.86	223.96	1.30	-83.1	-79.0	2.5	0.00e+00	0	49	104	0	60	1048575
2026-01-17 08:47:43.87	223.89	1.17	-83.5	-79.0	2.4	0.00e+00	0	49	104	0	60	1048575
2026-01-17 08:47:45.89	223.83	1.04	-83.5	-79.0	2.6	0.00e+00	0	49	104	0	60	1048575
2026-01-17 08:47:47.90	223.76	0.90	-83.5	-79.0	2.4	0.00e+00	0	49	104	0	60	1048571
2026-01-17 08:47:49.91	223.70	0.77	-83.5	-79.0	2.1	0.00e+00	0	49	104	0	60	1048573
2026-01-17 08:47:51.93	223.64	0.64	-83.1	-79.0	2.3	0.00e+00	0	49	104	0	60	1048569
2026-01-17 08:47:53.94	223.58	0.51	-83.5	-79.0	2.3	0.00e+00	0	49	104	0	60	1048570
2026-01-17 08:47:55.95	223.52	0.38	-83.1	-79.0	2.5	0.00e+00	0	49	104	0	60	1048562
2026-01-17 08:47:57.97	223.46	0.25	-83.1	-79.0	2.7	0.00e+00	0	49	104	0	60	1048573
2026-01-17 08:47:59.98	223.40	0.12	-83.5	-79.0	2.4	0.00e+00	0	49	104	0	60	1048571
2026-01-17 08:48:02.00	223.34	-0.00	-83.1	-79.0	2.2	0.00e+00	0	49	104	0	60	1048569

#Closed at: 2026-01-17 08:48:03
#Recorded file [0 MB]: D:/Data/35015_260117_114153.dat