passes_logs/2026/01/17/R3.2S-Naryan-Mar/R3.2S-Naryan-Mar__20260117_175352_TY-40_rec.log

#Pass ID: 20260117_175352_TY-40
#Satellite: TY-40
#Configuration: TY-39
#almurnet v.1.7.20240730
#Start time: 2026-01-17 18:00:04

#Version: 2.2.20231116
#Station: R3.2S-Naryan-Mar
#Location: 53.008057 lon 67.646978 lat
#TLE: 1 56846U 23081A   26016.94830663  .00002646  00000-0  11971-3 0  9997
#TLE: 2 56846  97.3895  89.8290 0001781  76.6008 283.5426 15.21771932145000

#Time	Az	El	Level	Level2	SNR	BER	BlckErr	Temp	State	Recorded	gain1	gain2
2026-01-17 18:00:04.43	287.74	51.31	-83.1	-79.0	2.5	0.00e+00	0	48	0	0	60	1048570
2026-01-17 18:00:06.45	289.60	50.71	-83.1	-79.0	2.3	0.00e+00	0	49	104	0	60	1048570
2026-01-17 18:00:08.46	291.38	50.10	-83.5	-79.0	2.4	0.00e+00	0	49	104	0	60	1048574
2026-01-17 18:00:10.48	293.09	49.46	-83.5	-79.0	2.5	0.00e+00	0	49	104	0	60	1048572
2026-01-17 18:00:12.49	294.72	48.81	-83.5	-79.0	2.4	0.00e+00	0	49	104	0	60	1048575
2026-01-17 18:00:14.51	296.28	48.14	-82.8	-79.0	2.4	0.00e+00	0	49	104	0	60	1048575
2026-01-17 18:00:16.53	297.78	47.47	-83.5	-79.0	2.4	0.00e+00	0	49	104	0	60	1048575
2026-01-17 18:00:18.54	299.21	46.79	-83.1	-79.0	2.3	0.00e+00	0	49	104	0	60	1048569
2026-01-17 18:00:20.55	300.57	46.10	-83.5	-79.0	2.5	0.00e+00	0	49	104	0	60	1048572
2026-01-17 18:00:22.56	301.88	45.42	-83.5	-79.0	2.4	0.00e+00	0	49	104	0	60	1048571
2026-01-17 18:00:24.58	303.13	44.72	-83.1	-79.0	2.5	0.00e+00	0	49	104	0	60	1048574
2026-01-17 18:00:26.59	304.33	44.03	-83.5	-79.0	2.3	0.00e+00	0	49	104	0	60	1048574
2026-01-17 18:00:28.60	305.47	43.35	-82.8	-79.0	2.4	0.00e+00	0	49	104	0	60	1048572
2026-01-17 18:00:30.61	306.56	42.66	-83.5	-79.0	2.4	0.00e+00	0	49	104	0	60	1048572
2026-01-17 18:00:32.62	307.60	41.98	-83.5	-79.0	2.4	0.00e+00	0	49	104	0	60	1048575
2026-01-17 18:00:34.64	308.61	41.30	-83.5	-79.0	2.6	0.00e+00	0	49	104	0	60	1048573
2026-01-17 18:00:36.65	309.57	40.63	-83.5	-79.0	2.4	0.00e+00	0	49	104	0	60	1048569
2026-01-17 18:00:38.66	310.49	39.96	-83.1	-79.0	2.4	0.00e+00	0	49	104	0	60	1048573
2026-01-17 18:00:40.67	311.37	39.30	-83.5	-79.0	2.4	0.00e+00	0	49	104	0	60	1048575
2026-01-17 18:00:42.68	312.21	38.65	-83.1	-79.0	2.3	0.00e+00	0	49	104	0	60	1048568
2026-01-17 18:00:44.69	313.02	38.00	-83.5	-79.0	2.3	0.00e+00	0	49	104	0	60	1048575
2026-01-17 18:00:46.71	313.80	37.37	-83.5	-79.0	2.3	0.00e+00	0	49	104	0	60	1048574
2026-01-17 18:00:48.72	314.54	36.74	-83.5	-79.0	2.4	0.00e+00	0	49	104	0	60	1048575
2026-01-17 18:00:50.74	315.26	36.12	-83.5	-79.0	2.4	0.00e+00	0	49	104	0	60	1048575
2026-01-17 18:00:52.76	315.96	35.51	-82.8	-79.0	2.3	0.00e+00	0	49	104	0	60	1048575
2026-01-17 18:00:54.77	316.62	34.91	-83.5	-79.0	2.5	0.00e+00	0	49	104	0	60	1048571
2026-01-17 18:00:56.79	317.26	34.31	-83.5	-79.0	2.4	0.00e+00	0	49	104	0	60	1048571
2026-01-17 18:00:58.79	317.87	33.73	-83.5	-79.0	2.5	0.00e+00	0	49	104	0	60	1048575
2026-01-17 18:01:00.81	318.47	33.16	-83.5	-79.0	2.5	0.00e+00	0	49	104	0	60	1048567
2026-01-17 18:01:02.82	319.04	32.60	-82.8	-79.0	2.5	0.00e+00	0	49	104	0	60	1048574
2026-01-17 18:01:04.84	319.59	32.04	-83.5	-79.0	2.5	0.00e+00	0	49	104	0	60	1048575
2026-01-17 18:01:06.86	320.12	31.50	-83.1	-79.0	2.4	0.00e+00	0	49	104	0	60	1048574
2026-01-17 18:01:08.87	320.63	30.96	-83.5	-79.0	2.4	0.00e+00	0	49	104	0	60	1048565
2026-01-17 18:01:10.88	321.13	30.44	-83.1	-79.0	2.5	0.00e+00	0	49	104	0	60	1048573
2026-01-17 18:01:12.90	321.61	29.92	-83.5	-79.0	2.4	0.00e+00	0	49	104	0	60	1048575
2026-01-17 18:01:14.91	322.07	29.41	-83.5	-79.0	2.4	0.00e+00	0	49	104	0	60	1048575
2026-01-17 18:01:16.92	322.52	28.91	-83.1	-79.0	2.4	0.00e+00	0	49	104	0	60	1048575
2026-01-17 18:01:18.94	322.95	28.42	-83.5	-79.0	2.4	0.00e+00	0	49	104	0	60	1048573
2026-01-17 18:01:20.95	323.37	27.94	-83.1	-79.0	2.4	0.00e+00	0	49	104	0	60	1048572
2026-01-17 18:01:22.97	323.78	27.47	-83.1	-79.0	2.4	0.00e+00	0	49	104	0	60	1048571
2026-01-17 18:01:24.98	324.17	27.00	-83.5	-79.0	2.4	0.00e+00	0	49	104	0	60	1048575
2026-01-17 18:01:26.99	324.55	26.55	-83.5	-79.0	2.4	0.00e+00	0	49	104	0	60	1048574
2026-01-17 18:01:29.00	324.92	26.10	-83.5	-79.0	2.4	0.00e+00	0	49	104	0	60	1048571
2026-01-17 18:01:31.01	325.28	25.66	-83.1	-79.0	2.5	0.00e+00	0	49	104	0	60	1048575
2026-01-17 18:01:33.02	325.62	25.23	-83.5	-79.0	2.4	0.00e+00	0	49	104	0	60	1048575
2026-01-17 18:01:35.04	325.96	24.80	-82.8	-79.0	2.3	0.00e+00	0	49	104	0	60	1048572
2026-01-17 18:01:37.05	326.29	24.38	-83.5	-79.0	2.4	0.00e+00	0	49	104	0	60	1048570
2026-01-17 18:01:39.07	326.61	23.97	-83.5	-79.0	2.4	0.00e+00	0	49	104	0	60	1048564
2026-01-17 18:01:41.09	326.92	23.57	-83.5	-79.0	2.5	0.00e+00	0	49	104	0	60	1048567
2026-01-17 18:01:43.10	327.23	23.17	-83.5	-79.0	2.5	0.00e+00	0	49	104	0	60	1048574
2026-01-17 18:01:45.11	327.52	22.78	-83.1	-79.0	2.4	0.00e+00	0	49	104	0	60	1048572
2026-01-17 18:01:47.12	327.80	22.40	-83.5	-79.0	2.4	0.00e+00	0	49	104	0	60	1048574
2026-01-17 18:01:49.13	328.08	22.02	-83.1	-79.0	2.4	0.00e+00	0	49	104	0	60	1048575
2026-01-17 18:01:51.14	328.35	21.65	-83.5	-79.0	2.3	0.00e+00	0	49	104	0	60	1048575
2026-01-17 18:01:53.15	328.62	21.29	-83.5	-79.0	2.4	0.00e+00	0	49	104	0	60	1048574
2026-01-17 18:01:55.16	328.87	20.93	-83.1	-79.0	2.4	0.00e+00	0	49	104	0	60	1048575
2026-01-17 18:01:57.17	329.12	20.58	-83.5	-79.0	2.5	0.00e+00	0	49	104	0	60	1048570
2026-01-17 18:01:59.19	329.37	20.23	-83.1	-79.0	2.4	0.00e+00	0	49	104	0	60	1048571
2026-01-17 18:02:01.20	329.61	19.89	-83.5	-79.0	2.5	0.00e+00	0	49	104	0	60	1048574
2026-01-17 18:02:03.21	329.84	19.55	-83.5	-79.0	2.5	0.00e+00	0	49	104	0	60	1048574
2026-01-17 18:02:05.22	330.07	19.22	-83.5	-79.0	2.4	0.00e+00	0	49	104	0	60	1048572
2026-01-17 18:02:07.22	330.29	18.90	-83.5	-79.0	2.4	0.00e+00	0	49	104	0	60	1048573
2026-01-17 18:02:09.23	330.51	18.58	-83.1	-79.0	2.3	0.00e+00	0	49	104	0	60	1048569
2026-01-17 18:02:11.25	330.72	18.26	-83.5	-79.0	2.5	0.00e+00	0	49	104	0	60	1048575
2026-01-17 18:02:13.26	330.93	17.95	-83.1	-79.0	2.4	0.00e+00	0	49	104	0	60	1048575
2026-01-17 18:02:15.28	331.13	17.64	-83.5	-79.0	2.4	0.00e+00	0	49	104	0	60	1048571
2026-01-17 18:02:17.30	331.33	17.34	-83.5	-79.0	2.4	0.00e+00	0	49	104	0	60	1048574
2026-01-17 18:02:19.31	331.52	17.04	-83.5	-79.0	2.4	0.00e+00	0	49	104	0	60	1048572
2026-01-17 18:02:21.32	331.71	16.75	-83.5	-79.0	2.5	0.00e+00	0	49	104	0	60	1048566
2026-01-17 18:02:23.34	331.90	16.46	-83.1	-79.0	2.4	0.00e+00	0	49	104	0	60	1048575
2026-01-17 18:02:25.35	332.08	16.18	-83.5	-79.0	2.3	0.00e+00	0	49	104	0	60	1048573
2026-01-17 18:02:27.36	332.26	15.90	-83.1	-79.0	2.5	0.00e+00	0	49	104	0	60	1048575
2026-01-17 18:02:29.37	332.43	15.62	-83.5	-79.0	2.5	0.00e+00	0	49	104	0	60	1048569
2026-01-17 18:02:31.38	332.60	15.35	-83.5	-79.0	2.5	0.00e+00	0	49	104	0	60	1048573
2026-01-17 18:02:33.40	332.77	15.08	-83.5	-79.0	2.5	0.00e+00	0	49	104	0	60	1048575
2026-01-17 18:02:35.41	332.93	14.81	-83.5	-79.0	2.5	0.00e+00	0	49	104	0	60	1048572
2026-01-17 18:02:37.43	333.10	14.55	-83.1	-79.0	2.4	0.00e+00	0	49	104	0	60	1048573
2026-01-17 18:02:39.44	333.25	14.29	-83.1	-79.0	2.4	0.00e+00	0	49	104	0	60	1048573
2026-01-17 18:02:41.46	333.41	14.03	-83.1	-79.0	2.3	0.00e+00	0	49	104	0	60	1048572
2026-01-17 18:02:43.47	333.56	13.78	-83.5	-79.0	2.3	0.00e+00	0	49	104	0	60	1048567
2026-01-17 18:02:45.49	333.71	13.53	-83.1	-79.0	2.4	0.00e+00	0	49	104	0	60	1048574
2026-01-17 18:02:47.51	333.86	13.29	-83.1	-79.0	2.5	0.00e+00	0	49	104	0	60	1048574
2026-01-17 18:02:49.52	334.00	13.05	-83.5	-79.0	2.4	0.00e+00	0	49	104	0	60	1048567
2026-01-17 18:02:51.53	334.14	12.81	-82.8	-79.0	2.4	0.00e+00	0	49	104	0	60	1048567
2026-01-17 18:02:53.54	334.28	12.57	-83.5	-79.0	2.5	0.00e+00	0	49	104	0	60	1048572
2026-01-17 18:02:55.55	334.41	12.34	-83.1	-79.0	2.5	0.00e+00	0	49	104	0	60	1048571
2026-01-17 18:02:57.56	334.55	12.11	-83.5	-79.0	2.4	0.00e+00	0	49	104	0	60	1048572
2026-01-17 18:02:59.57	334.68	11.88	-83.5	-79.0	2.4	0.00e+00	0	49	104	0	60	1048575
2026-01-17 18:03:01.59	334.81	11.65	-83.5	-79.0	2.5	0.00e+00	0	49	104	0	60	1048565
2026-01-17 18:03:03.60	334.93	11.43	-83.5	-79.0	2.5	0.00e+00	0	49	104	0	60	1048568
2026-01-17 18:03:05.61	335.06	11.21	-83.1	-79.0	2.3	0.00e+00	0	49	104	0	60	1048575
2026-01-17 18:03:07.62	335.18	10.99	-83.5	-79.0	2.4	0.00e+00	0	49	104	0	60	1048565
2026-01-17 18:03:09.63	335.30	10.78	-83.5	-79.0	2.4	0.00e+00	0	49	104	0	60	1048554
2026-01-17 18:03:11.64	335.42	10.57	-83.5	-79.0	2.3	0.00e+00	0	49	104	0	60	1048571
2026-01-17 18:03:13.65	335.53	10.36	-83.5	-79.0	2.4	0.00e+00	0	49	104	0	60	1048561
2026-01-17 18:03:15.66	335.65	10.15	-82.8	-79.0	2.4	0.00e+00	0	49	104	0	60	1048572
2026-01-17 18:03:17.68	335.76	9.94	-83.5	-79.0	2.3	0.00e+00	0	49	104	0	60	1048574
2026-01-17 18:03:19.69	335.87	9.74	-83.1	-79.0	2.4	0.00e+00	0	49	104	0	60	1048573
2026-01-17 18:03:21.71	335.98	9.54	-83.5	-79.0	2.4	0.00e+00	0	49	104	0	60	1048573
2026-01-17 18:03:23.72	336.09	9.34	-83.5	-79.0	2.4	0.00e+00	0	49	104	0	60	1048574
2026-01-17 18:03:25.73	336.19	9.14	-83.1	-79.0	2.4	0.00e+00	0	49	104	0	60	1048566
2026-01-17 18:03:27.73	336.30	8.95	-83.5	-79.0	2.6	0.00e+00	0	49	104	0	60	1048575
2026-01-17 18:03:29.74	336.40	8.75	-83.1	-79.0	2.3	0.00e+00	0	49	104	0	60	1048572
2026-01-17 18:03:31.76	336.50	8.56	-83.5	-79.0	2.4	0.00e+00	0	49	104	0	60	1048574
2026-01-17 18:03:33.78	336.60	8.37	-83.1	-79.0	2.4	0.00e+00	0	49	104	0	60	1048574
2026-01-17 18:03:35.79	336.70	8.18	-83.5	-79.0	2.3	0.00e+00	0	49	104	0	60	1048574
2026-01-17 18:03:37.81	336.80	8.00	-83.1	-79.0	2.5	0.00e+00	0	49	104	0	60	1048570
2026-01-17 18:03:39.82	336.89	7.81	-83.1	-79.0	2.4	0.00e+00	0	49	104	0	60	1048574
2026-01-17 18:03:41.83	336.99	7.63	-83.5	-79.0	2.4	0.00e+00	0	49	104	0	60	1048567
2026-01-17 18:03:43.84	337.08	7.45	-82.8	-79.0	2.4	0.00e+00	0	49	104	0	60	1048569
2026-01-17 18:03:45.85	337.17	7.27	-83.5	-79.0	2.4	0.00e+00	0	49	104	0	60	1048574
2026-01-17 18:03:47.87	337.26	7.09	-83.5	-79.0	2.4	0.00e+00	0	49	104	0	60	1048574
2026-01-17 18:03:49.89	337.35	6.91	-83.5	-79.0	2.5	0.00e+00	0	49	104	0	60	1048571
2026-01-17 18:03:51.90	337.44	6.74	-83.5	-79.0	2.4	0.00e+00	0	49	104	0	60	1048575
2026-01-17 18:03:53.91	337.53	6.57	-83.1	-79.0	2.4	0.00e+00	0	49	104	0	60	1048573
2026-01-17 18:03:55.93	337.61	6.40	-83.5	-79.0	2.3	0.00e+00	0	49	104	0	60	1048575
2026-01-17 18:03:57.94	337.70	6.23	-83.1	-79.0	2.4	0.00e+00	0	49	104	0	60	1048573
2026-01-17 18:03:59.95	337.78	6.06	-83.5	-79.0	2.4	0.00e+00	0	49	104	0	60	1048574
2026-01-17 18:04:01.97	337.86	5.89	-83.1	-79.0	2.3	0.00e+00	0	49	104	0	60	1048573
2026-01-17 18:04:03.99	337.94	5.72	-83.5	-79.0	2.5	0.00e+00	0	49	104	0	60	1048570
2026-01-17 18:04:06.00	338.02	5.56	-83.5	-79.0	2.4	0.00e+00	0	49	104	0	60	1048573
2026-01-17 18:04:08.01	338.10	5.40	-83.1	-79.0	2.4	0.00e+00	0	49	104	0	60	1048575
2026-01-17 18:04:10.03	338.18	5.24	-83.5	-79.0	2.4	0.00e+00	0	49	104	0	60	1048574
2026-01-17 18:04:12.04	338.26	5.07	-83.1	-79.0	2.4	0.00e+00	0	49	104	0	60	1048571
2026-01-17 18:04:14.06	338.33	4.92	-83.5	-79.0	2.4	0.00e+00	0	49	104	0	60	1048575
2026-01-17 18:04:16.07	338.41	4.76	-83.5	-79.0	2.3	0.00e+00	0	49	104	0	60	1048570
2026-01-17 18:04:18.09	338.48	4.60	-83.5	-79.0	2.5	0.00e+00	0	49	104	0	60	1048574
2026-01-17 18:04:20.09	338.56	4.45	-83.5	-79.0	2.4	0.00e+00	0	49	104	0	60	1048572
2026-01-17 18:04:22.11	338.63	4.29	-83.1	-79.0	2.4	0.00e+00	0	49	104	0	60	1048572
2026-01-17 18:04:24.13	338.70	4.14	-83.5	-79.0	2.5	0.00e+00	0	49	104	0	60	1048567
2026-01-17 18:04:26.14	338.77	3.99	-83.1	-79.0	2.4	0.00e+00	0	49	104	0	60	1048564
2026-01-17 18:04:28.16	338.84	3.83	-83.5	-79.0	2.5	0.00e+00	0	49	104	0	60	1048575
2026-01-17 18:04:30.17	338.91	3.68	-83.5	-79.0	2.5	0.00e+00	0	49	104	0	60	1048574
2026-01-17 18:04:32.19	338.98	3.53	-83.5	-79.0	2.4	0.00e+00	0	49	104	0	60	1048572
2026-01-17 18:04:34.21	339.05	3.39	-83.5	-79.0	2.4	0.00e+00	0	49	104	0	60	1048561
2026-01-17 18:04:36.22	339.12	3.24	-82.8	-79.0	2.4	0.00e+00	0	49	104	0	60	1048573
2026-01-17 18:04:38.23	339.18	3.09	-83.5	-79.0	2.5	0.00e+00	0	49	104	0	60	1048575
2026-01-17 18:04:40.25	339.25	2.95	-83.1	-79.0	2.4	0.00e+00	0	49	104	0	60	1048573
2026-01-17 18:04:42.26	339.31	2.81	-83.5	-79.0	2.5	0.00e+00	0	49	104	0	60	1048571
2026-01-17 18:04:44.28	339.38	2.66	-83.5	-79.0	2.5	0.00e+00	0	49	104	0	60	1048575
2026-01-17 18:04:46.30	339.44	2.52	-83.1	-79.0	2.3	0.00e+00	0	49	104	0	60	1048575
2026-01-17 18:04:48.31	339.51	2.38	-83.5	-79.0	2.5	0.00e+00	0	49	104	0	60	1048569
2026-01-17 18:04:50.32	339.57	2.24	-82.8	-79.0	2.4	0.00e+00	0	49	104	0	60	1048570
2026-01-17 18:04:52.33	339.63	2.10	-83.5	-79.0	2.4	0.00e+00	0	49	104	0	60	1048574
2026-01-17 18:04:54.34	339.69	1.96	-83.5	-79.0	2.4	0.00e+00	0	49	104	0	60	1048573
2026-01-17 18:04:56.35	339.75	1.82	-83.5	-79.0	2.5	0.00e+00	0	49	104	0	60	1048575
2026-01-17 18:04:58.37	339.81	1.69	-83.5	-79.0	2.5	0.00e+00	0	49	104	0	60	1048571
2026-01-17 18:05:00.38	339.87	1.55	-83.1	-79.0	2.5	0.00e+00	0	49	104	0	60	1048573
2026-01-17 18:05:02.40	339.93	1.42	-83.5	-79.0	2.4	0.00e+00	0	49	104	0	60	1048571
2026-01-17 18:05:04.42	339.99	1.28	-83.1	-79.0	2.5	0.00e+00	0	49	104	0	60	1048572
2026-01-17 18:05:06.43	340.04	1.15	-83.5	-79.0	2.5	0.00e+00	0	49	104	0	60	1048573
2026-01-17 18:05:08.44	340.10	1.02	-83.5	-79.0	2.4	0.00e+00	0	49	104	0	60	1048573
2026-01-17 18:05:10.46	340.16	0.88	-83.5	-79.0	2.4	0.00e+00	0	49	104	0	60	1048575
2026-01-17 18:05:12.47	340.21	0.75	-83.5	-79.0	2.5	0.00e+00	0	49	104	0	60	1048575
2026-01-17 18:05:14.48	340.27	0.62	-82.8	-79.0	2.3	0.00e+00	0	49	104	0	60	1048575
2026-01-17 18:05:16.49	340.32	0.49	-83.5	-79.0	2.4	0.00e+00	0	49	104	0	60	1048575
2026-01-17 18:05:18.51	340.38	0.36	-83.5	-79.0	2.4	0.00e+00	0	49	104	0	60	1048575
2026-01-17 18:05:20.52	340.43	0.24	-83.5	-79.0	2.4	0.00e+00	0	49	104	0	60	1048570
2026-01-17 18:05:22.52	340.48	0.11	-83.5	-79.0	2.4	0.00e+00	0	49	104	0	60	1048574

#Closed at: 2026-01-17 18:05:24
#Recorded file [0 MB]: D:/Data/35015_260117_210004.dat