passes_logs/2026/01/17/R3.2S-Naryan-Mar/R3.2S-Naryan-Mar__20260117_142412_TY-41_rec.log

#Pass ID: 20260117_142412_TY-41
#Satellite: TY-41
#Configuration: TY-39
#almurnet v.1.7.20240730
#Start time: 2026-01-17 14:24:18

#Version: 2.2.20231116
#Station: R3.2S-Naryan-Mar
#Location: 53.008057 lon 67.646978 lat
#TLE: 1 61231U 24173E   26017.08983796  .00008010  00000-0  38191-3 0 09990
#TLE: 2 61231 097.4122 092.0846 0001831 091.8622 061.7654 15.19167953 72814

#Time	Az	El	Level	Level2	SNR	BER	BlckErr	Temp	State	Recorded	gain1	gain2
2026-01-17 14:24:18.11	78.81	0.27	-83.9	-88.8	2.5	6.30e+00	0	44	0	0	60	1048574
2026-01-17 14:24:21.13	78.51	0.43	-83.1	-79.0	1.9	0.00e+00	0	46	104	0	60	1048570
2026-01-17 14:24:24.16	78.20	0.59	-83.1	-79.0	2.4	0.00e+00	0	46	104	0	60	1048571
2026-01-17 14:24:27.18	77.89	0.75	-83.5	-79.0	2.0	0.00e+00	0	46	104	0	60	1048570
2026-01-17 14:24:30.21	77.58	0.91	-83.1	-79.0	2.5	0.00e+00	0	46	104	0	60	1048575
2026-01-17 14:24:33.22	77.26	1.07	-83.1	-79.0	2.3	0.00e+00	0	46	104	0	60	1048574
2026-01-17 14:24:36.24	76.94	1.23	-83.5	-79.0	2.4	0.00e+00	0	46	104	0	60	1048574
2026-01-17 14:24:39.25	76.62	1.40	-82.8	-79.0	2.1	0.00e+00	0	47	104	0	60	1048572
2026-01-17 14:24:42.27	76.28	1.56	-83.5	-79.0	2.4	0.00e+00	0	47	104	0	60	1048571
2026-01-17 14:24:45.30	75.95	1.72	-83.5	-79.0	2.3	0.00e+00	0	47	104	0	60	1048573
2026-01-17 14:24:48.32	75.61	1.88	-83.5	-79.0	2.1	0.00e+00	0	47	104	0	60	1048567
2026-01-17 14:24:51.34	75.26	2.05	-83.5	-79.0	2.0	0.00e+00	0	47	104	0	60	1048574
2026-01-17 14:24:54.35	74.91	2.21	-83.5	-79.0	2.4	0.00e+00	0	47	104	0	60	1048568
2026-01-17 14:24:57.37	74.56	2.38	-83.5	-79.0	2.4	0.00e+00	0	47	104	0	60	1048575
2026-01-17 14:25:00.39	74.19	2.54	-83.5	-79.0	2.1	0.00e+00	0	47	104	0	60	1048569
2026-01-17 14:25:03.42	73.83	2.71	-82.8	-79.0	2.5	0.00e+00	0	47	104	0	60	1048572
2026-01-17 14:25:06.44	73.45	2.87	-83.5	-79.0	2.3	0.00e+00	0	47	104	0	60	1048574
2026-01-17 14:25:09.46	73.08	3.04	-83.5	-79.0	2.5	0.00e+00	0	47	104	0	60	1048572
2026-01-17 14:25:12.47	72.70	3.21	-82.8	-79.0	2.1	0.00e+00	0	47	104	0	60	1048572
2026-01-17 14:25:15.49	72.31	3.37	-83.5	-79.0	2.4	0.00e+00	0	47	104	0	60	1048575
2026-01-17 14:25:18.51	71.91	3.54	-83.5	-79.0	2.0	0.00e+00	0	47	104	0	60	1048573
2026-01-17 14:25:21.53	71.51	3.71	-83.1	-79.0	2.4	0.00e+00	0	47	104	0	60	1048569
2026-01-17 14:25:24.55	71.11	3.87	-83.5	-79.0	2.1	0.00e+00	0	47	104	0	60	1048570
2026-01-17 14:25:27.57	70.69	4.04	-83.5	-79.0	2.5	0.00e+00	0	47	104	0	60	1048574
2026-01-17 14:25:30.58	70.28	4.21	-83.1	-79.0	2.2	0.00e+00	0	47	104	0	60	1048571
2026-01-17 14:25:33.59	69.85	4.38	-83.5	-79.0	2.3	0.00e+00	0	47	104	0	60	1048575
2026-01-17 14:25:36.61	69.42	4.55	-83.1	-79.0	2.4	0.00e+00	0	47	104	0	60	1048575
2026-01-17 14:25:39.61	68.99	4.71	-83.5	-79.0	2.0	0.00e+00	0	47	104	0	60	1048574
2026-01-17 14:25:42.61	68.55	4.88	-83.5	-79.0	2.4	0.00e+00	0	47	104	0	60	1048572
2026-01-17 14:25:45.63	68.10	5.05	-83.1	-79.0	2.2	0.00e+00	0	48	104	0	60	1048574
2026-01-17 14:25:48.65	67.64	5.22	-83.5	-79.0	2.5	0.00e+00	0	47	104	0	60	1048575
2026-01-17 14:25:51.66	67.18	5.39	-83.5	-79.0	2.1	0.00e+00	0	48	104	0	60	1048574
2026-01-17 14:25:54.69	66.71	5.56	-83.5	-79.0	2.4	0.00e+00	0	48	104	0	60	1048575
2026-01-17 14:25:57.69	66.23	5.72	-83.5	-79.0	2.1	0.00e+00	0	47	104	0	60	1048573
2026-01-17 14:26:00.72	65.74	5.89	-83.1	-79.0	2.4	0.00e+00	0	48	104	0	60	1048564
2026-01-17 14:26:03.74	65.25	6.06	-83.5	-79.0	2.1	0.00e+00	0	48	104	0	60	1048574
2026-01-17 14:26:06.76	64.75	6.23	-83.5	-79.0	2.5	0.00e+00	0	48	104	0	60	1048569
2026-01-17 14:26:09.79	64.25	6.40	-83.1	-79.0	2.2	0.00e+00	0	48	104	0	60	1048565
2026-01-17 14:26:12.81	63.73	6.56	-83.1	-79.0	2.1	0.00e+00	0	48	104	0	60	1048574
2026-01-17 14:26:15.83	63.21	6.73	-83.5	-79.0	2.1	0.00e+00	0	48	104	0	60	1048575
2026-01-17 14:26:18.84	62.68	6.90	-82.8	-79.0	2.4	0.00e+00	0	48	104	0	60	1048575
2026-01-17 14:26:21.86	62.15	7.06	-83.5	-79.0	2.4	0.00e+00	0	48	104	0	60	1048573
2026-01-17 14:26:24.88	61.60	7.23	-83.1	-79.0	2.0	0.00e+00	0	48	104	0	60	1048572
2026-01-17 14:26:27.91	61.05	7.39	-83.5	-79.0	2.5	0.00e+00	0	48	104	0	60	1048569
2026-01-17 14:26:30.93	60.49	7.56	-83.1	-79.0	2.5	0.00e+00	0	48	104	0	60	1048571
2026-01-17 14:26:33.95	59.92	7.72	-83.1	-79.0	2.3	0.00e+00	0	48	104	0	60	1048575
2026-01-17 14:26:36.96	59.34	7.88	-83.5	-79.0	2.3	0.00e+00	0	48	104	0	60	1048574
2026-01-17 14:26:39.98	58.76	8.04	-83.5	-79.0	2.5	0.00e+00	0	48	104	0	60	1048573
2026-01-17 14:26:42.99	58.17	8.20	-82.8	-79.0	2.1	0.00e+00	0	48	104	0	60	1048571
2026-01-17 14:26:46.01	57.57	8.36	-83.5	-79.0	2.6	0.00e+00	0	48	104	0	60	1048574
2026-01-17 14:26:49.03	56.96	8.52	-83.5	-79.0	2.3	0.00e+00	0	48	104	0	60	1048575
2026-01-17 14:26:52.04	56.34	8.67	-83.1	-79.0	2.5	0.00e+00	0	48	104	0	60	1048571
2026-01-17 14:26:55.07	55.72	8.83	-83.5	-79.0	2.1	0.00e+00	0	48	104	0	60	1048569
2026-01-17 14:26:58.09	55.08	8.98	-83.1	-79.0	2.4	0.00e+00	0	48	104	0	60	1048572
2026-01-17 14:27:01.11	54.44	9.13	-83.5	-79.0	2.1	0.00e+00	0	48	104	0	60	1048570
2026-01-17 14:27:04.13	53.79	9.28	-83.5	-79.0	2.5	0.00e+00	0	48	104	0	60	1048571
2026-01-17 14:27:07.16	53.13	9.43	-83.5	-79.0	2.2	0.00e+00	0	48	104	0	60	1048574
2026-01-17 14:27:10.18	52.46	9.58	-83.5	-79.0	2.4	0.00e+00	0	48	104	0	60	1048574
2026-01-17 14:27:13.20	51.79	9.72	-83.5	-79.0	2.3	0.00e+00	0	48	104	0	60	1048570
2026-01-17 14:27:16.23	51.10	9.87	-83.1	-79.0	2.6	0.00e+00	0	48	104	0	60	1048571
2026-01-17 14:27:19.25	50.41	10.00	-83.5	-79.0	2.0	0.00e+00	0	48	104	0	60	1048572
2026-01-17 14:27:22.27	49.71	10.14	-83.5	-79.0	2.4	0.00e+00	0	48	104	0	60	1048573
2026-01-17 14:27:25.29	49.01	10.28	-83.1	-79.0	2.4	0.00e+00	0	48	104	0	60	1048575
2026-01-17 14:27:28.31	48.29	10.41	-83.5	-79.0	2.1	0.00e+00	0	48	104	0	60	1048575
2026-01-17 14:27:31.33	47.57	10.54	-83.1	-79.0	2.1	0.00e+00	0	48	104	0	60	1048569
2026-01-17 14:27:34.35	46.84	10.66	-83.1	-79.0	2.4	0.00e+00	0	48	104	0	60	1048573
2026-01-17 14:27:37.37	46.10	10.79	-83.5	-79.0	2.5	0.00e+00	0	48	104	0	60	1048574
2026-01-17 14:27:40.38	45.35	10.91	-82.8	-79.0	2.1	0.00e+00	0	48	104	0	60	1048571
2026-01-17 14:27:43.41	44.60	11.02	-83.5	-79.0	2.5	0.00e+00	0	48	104	0	60	1048563
2026-01-17 14:27:46.43	43.84	11.14	-83.5	-79.0	2.2	0.00e+00	0	48	104	0	60	1048574
2026-01-17 14:27:49.44	43.07	11.25	-83.1	-79.0	2.3	0.00e+00	0	48	104	0	60	1048574
2026-01-17 14:27:52.46	42.30	11.35	-83.5	-79.0	2.2	0.00e+00	0	48	104	0	60	1048573
2026-01-17 14:27:55.47	41.52	11.45	-83.5	-79.0	2.5	0.00e+00	0	48	104	0	60	1048569
2026-01-17 14:27:58.50	40.73	11.55	-82.8	-79.0	2.0	0.00e+00	0	48	104	0	60	1048568
2026-01-17 14:28:01.52	39.93	11.65	-83.5	-79.0	2.4	0.00e+00	0	48	104	0	60	1048571
2026-01-17 14:28:04.53	39.14	11.74	-83.5	-79.0	2.2	0.00e+00	0	48	104	0	60	1048575
2026-01-17 14:28:07.56	38.33	11.82	-83.5	-79.0	2.5	0.00e+00	0	48	104	0	60	1048574
2026-01-17 14:28:10.57	37.52	11.90	-83.5	-79.0	2.0	0.00e+00	0	48	104	0	60	1048565
2026-01-17 14:28:13.59	36.70	11.98	-83.1	-79.0	2.4	0.00e+00	0	48	104	0	60	1048573
2026-01-17 14:28:16.61	35.88	12.05	-83.1	-79.0	2.5	0.00e+00	0	48	104	0	60	1048575
2026-01-17 14:28:19.63	35.05	12.12	-83.5	-79.0	2.0	0.00e+00	0	48	104	0	60	1048572
2026-01-17 14:28:22.65	34.22	12.18	-82.8	-79.0	2.3	0.00e+00	0	48	104	0	60	1048575
2026-01-17 14:28:25.66	33.39	12.24	-83.5	-79.0	2.2	0.00e+00	0	48	104	0	60	1048573
2026-01-17 14:28:28.68	32.55	12.29	-83.5	-79.0	2.4	0.00e+00	0	48	104	0	60	1048572
2026-01-17 14:28:31.70	31.71	12.34	-83.1	-79.0	2.2	0.00e+00	0	48	104	0	60	1048573
2026-01-17 14:28:34.72	30.86	12.38	-83.5	-79.0	2.5	0.00e+00	0	48	104	0	60	1048575
2026-01-17 14:28:37.74	30.02	12.42	-83.1	-79.0	2.3	0.00e+00	0	48	104	0	60	1048571
2026-01-17 14:28:40.75	29.17	12.45	-83.5	-79.0	2.4	0.00e+00	0	48	104	0	60	1048573
2026-01-17 14:28:43.77	28.31	12.48	-83.5	-79.0	2.0	0.00e+00	0	48	104	0	60	1048574
2026-01-17 14:28:46.79	27.46	12.50	-83.1	-79.0	2.5	0.00e+00	0	48	104	0	60	1048569
2026-01-17 14:28:49.81	26.60	12.52	-83.5	-79.0	2.3	0.00e+00	0	48	104	0	60	1048575
2026-01-17 14:28:52.83	25.75	12.53	-83.1	-79.0	2.5	0.00e+00	0	48	104	0	60	1048575
2026-01-17 14:28:55.85	24.89	12.53	-83.1	-79.0	2.1	0.00e+00	0	48	104	0	60	1048575
2026-01-17 14:28:58.87	24.03	12.53	-83.5	-79.0	2.5	0.00e+00	0	48	104	0	60	1048568
2026-01-17 14:29:01.90	23.17	12.53	-83.5	-79.0	2.3	0.00e+00	0	48	104	0	60	1048574
2026-01-17 14:29:04.90	22.32	12.52	-83.1	-79.0	2.2	0.00e+00	0	48	104	0	60	1048569
2026-01-17 14:29:07.91	21.47	12.50	-83.5	-79.0	2.5	0.00e+00	0	48	104	0	60	1048573
2026-01-17 14:29:10.93	20.62	12.48	-83.1	-79.0	2.4	0.00e+00	0	48	104	0	60	1048569
2026-01-17 14:29:13.96	19.76	12.45	-83.5	-79.0	2.5	0.00e+00	0	48	104	0	60	1048575
2026-01-17 14:29:16.97	18.91	12.42	-83.5	-79.0	2.3	0.00e+00	0	48	104	0	60	1048571
2026-01-17 14:29:19.99	18.07	12.38	-83.1	-79.0	2.6	0.00e+00	0	48	104	0	60	1048575
2026-01-17 14:29:23.01	17.22	12.34	-83.5	-79.0	2.2	0.00e+00	0	48	104	0	60	1048572
2026-01-17 14:29:26.02	16.38	12.29	-83.5	-79.0	2.4	0.00e+00	0	48	104	0	60	1048575
2026-01-17 14:29:29.05	15.54	12.24	-82.8	-79.0	2.3	0.00e+00	0	48	104	0	60	1048572
2026-01-17 14:29:32.07	14.71	12.18	-83.5	-79.0	2.5	0.00e+00	0	48	104	0	60	1048574
2026-01-17 14:29:35.09	13.88	12.12	-83.5	-79.0	2.3	0.00e+00	0	48	104	0	60	1048570
2026-01-17 14:29:38.12	13.05	12.05	-83.5	-79.0	2.4	0.00e+00	0	48	104	0	60	1048574
2026-01-17 14:29:41.13	12.23	11.98	-83.5	-79.0	2.2	0.00e+00	0	49	104	0	60	1048573
2026-01-17 14:29:44.15	11.41	11.90	-83.1	-79.0	2.4	0.00e+00	0	48	104	0	60	1048575
2026-01-17 14:29:47.17	10.60	11.82	-83.5	-79.0	2.0	0.00e+00	0	49	104	0	60	1048575
2026-01-17 14:29:50.19	9.80	11.74	-83.5	-79.0	2.4	0.00e+00	0	49	104	0	60	1048568
2026-01-17 14:29:53.20	9.00	11.65	-83.1	-79.0	2.4	0.00e+00	0	49	104	0	60	1048559
2026-01-17 14:29:56.22	8.21	11.55	-83.1	-79.0	2.2	0.00e+00	0	48	104	0	60	1048575
2026-01-17 14:29:59.24	7.42	11.46	-83.5	-79.0	2.2	0.00e+00	0	48	104	0	60	1048575
2026-01-17 14:30:02.26	6.64	11.35	-82.8	-79.0	2.5	0.00e+00	0	48	104	0	60	1048572
2026-01-17 14:30:05.28	5.87	11.25	-83.5	-79.0	2.5	0.00e+00	0	48	104	0	60	1048575
2026-01-17 14:30:08.29	5.10	11.14	-83.1	-79.0	2.0	0.00e+00	0	48	104	0	60	1048574
2026-01-17 14:30:11.30	4.35	11.03	-83.1	-79.0	2.6	0.00e+00	0	48	104	0	60	1048571
2026-01-17 14:30:14.32	3.59	10.91	-83.5	-79.0	2.1	0.00e+00	0	48	104	0	60	1048572
2026-01-17 14:30:17.33	2.85	10.79	-83.1	-79.0	2.5	0.00e+00	0	49	104	0	60	1048569
2026-01-17 14:30:20.35	2.11	10.67	-83.5	-79.0	2.1	0.00e+00	0	48	104	0	60	1048573
2026-01-17 14:30:23.37	1.38	10.54	-83.5	-79.0	2.5	0.00e+00	0	48	104	0	60	1048572
2026-01-17 14:30:26.39	0.66	10.41	-83.1	-79.0	2.1	0.00e+00	0	49	104	0	60	1048573
2026-01-17 14:30:29.41	359.95	10.28	-83.5	-79.0	2.4	0.00e+00	0	49	104	0	60	1048574
2026-01-17 14:30:32.43	359.24	10.15	-83.5	-79.0	2.2	0.00e+00	0	49	104	0	60	1048574
2026-01-17 14:30:35.46	358.54	10.01	-83.5	-79.0	2.4	0.00e+00	0	48	104	0	60	1048573
2026-01-17 14:30:38.48	357.85	9.87	-83.5	-79.0	2.1	0.00e+00	0	49	104	0	60	1048575
2026-01-17 14:30:41.49	357.17	9.73	-83.5	-79.0	2.5	0.00e+00	0	49	104	0	60	1048575
2026-01-17 14:30:44.51	356.50	9.59	-83.5	-79.0	2.6	0.00e+00	0	49	104	0	60	1048568
2026-01-17 14:30:47.54	355.83	9.44	-83.5	-79.0	2.4	0.00e+00	0	49	104	0	60	1048574
2026-01-17 14:30:50.56	355.18	9.29	-83.1	-79.0	2.2	0.00e+00	0	49	104	0	60	1048575
2026-01-17 14:30:53.58	354.53	9.14	-83.5	-79.0	2.4	0.00e+00	0	49	104	0	60	1048575
2026-01-17 14:30:56.60	353.89	8.99	-83.5	-79.0	2.5	0.00e+00	0	49	104	0	60	1048574
2026-01-17 14:30:59.62	353.26	8.84	-83.1	-79.0	2.1	0.00e+00	0	48	104	0	60	1048572
2026-01-17 14:31:02.64	352.63	8.68	-83.5	-79.0	2.2	0.00e+00	0	48	104	0	60	1048571
2026-01-17 14:31:05.67	352.01	8.53	-83.5	-79.0	2.2	0.00e+00	0	49	104	0	60	1048574
2026-01-17 14:31:08.68	351.41	8.37	-83.1	-79.0	2.5	0.00e+00	0	49	104	0	60	1048575
2026-01-17 14:31:11.70	350.81	8.21	-83.5	-79.0	2.0	0.00e+00	0	49	104	0	60	1048567
2026-01-17 14:31:14.72	350.22	8.05	-83.5	-79.0	2.5	0.00e+00	0	49	104	0	60	1048568
2026-01-17 14:31:17.72	349.64	7.89	-83.5	-79.0	2.3	0.00e+00	0	49	104	0	60	1048568
2026-01-17 14:31:20.74	349.06	7.73	-83.5	-79.0	2.6	0.00e+00	0	48	104	0	60	1048575
2026-01-17 14:31:23.76	348.50	7.57	-83.1	-79.0	2.0	0.00e+00	0	48	104	0	60	1048575
2026-01-17 14:31:26.77	347.94	7.40	-83.5	-79.0	2.5	0.00e+00	0	49	104	0	60	1048573
2026-01-17 14:31:29.80	347.39	7.24	-83.5	-79.0	2.1	0.00e+00	0	49	104	0	60	1048572
2026-01-17 14:31:32.82	346.85	7.08	-83.1	-79.0	2.3	0.00e+00	0	49	104	0	60	1048572
2026-01-17 14:31:35.85	346.31	6.91	-83.1	-79.0	2.0	0.00e+00	0	49	104	0	60	1048575
2026-01-17 14:31:38.86	345.78	6.74	-83.5	-79.0	2.3	0.00e+00	0	49	104	0	60	1048575
2026-01-17 14:31:41.88	345.26	6.58	-83.1	-79.0	2.3	0.00e+00	0	49	104	0	60	1048573
2026-01-17 14:31:44.89	344.75	6.41	-83.5	-79.0	2.3	0.00e+00	0	49	104	0	60	1048575
2026-01-17 14:31:47.92	344.24	6.24	-82.8	-79.0	2.5	0.00e+00	0	49	104	0	60	1048575
2026-01-17 14:31:50.93	343.75	6.08	-83.5	-79.0	2.4	0.00e+00	0	49	104	0	60	1048575
2026-01-17 14:31:53.94	343.26	5.91	-83.1	-79.0	2.2	0.00e+00	0	49	104	0	60	1048575
2026-01-17 14:31:56.97	342.77	5.74	-83.1	-79.0	2.1	0.00e+00	0	49	104	0	60	1048575
2026-01-17 14:31:59.99	342.30	5.57	-83.5	-79.0	2.5	0.00e+00	0	49	104	0	60	1048574
2026-01-17 14:32:03.01	341.83	5.40	-83.5	-79.0	2.0	0.00e+00	0	49	104	0	60	1048575
2026-01-17 14:32:06.03	341.37	5.24	-83.1	-79.0	2.6	0.00e+00	0	49	104	0	60	1048571
2026-01-17 14:32:09.06	340.91	5.07	-83.5	-79.0	2.2	0.00e+00	0	49	104	0	60	1048567
2026-01-17 14:32:12.08	340.46	4.90	-83.1	-79.0	2.7	0.00e+00	0	49	104	0	60	1048570
2026-01-17 14:32:15.11	340.02	4.73	-83.5	-79.0	2.1	0.00e+00	0	49	104	0	60	1048572
2026-01-17 14:32:18.13	339.58	4.56	-83.5	-79.0	2.5	0.00e+00	0	49	104	0	60	1048572
2026-01-17 14:32:21.16	339.15	4.39	-83.1	-79.0	2.0	0.00e+00	0	49	104	0	60	1048568
2026-01-17 14:32:24.17	338.73	4.23	-83.5	-79.0	2.5	0.00e+00	0	49	104	0	60	1048569
2026-01-17 14:32:27.19	338.31	4.06	-83.5	-79.0	2.1	0.00e+00	0	49	104	0	60	1048575
2026-01-17 14:32:30.21	337.90	3.89	-82.8	-79.0	2.3	0.00e+00	0	49	104	0	60	1048570
2026-01-17 14:32:33.24	337.50	3.72	-83.5	-79.0	2.1	0.00e+00	0	49	104	0	60	1048575
2026-01-17 14:32:36.26	337.10	3.56	-83.5	-79.0	2.3	0.00e+00	0	49	104	0	60	1048574
2026-01-17 14:32:39.27	336.71	3.39	-83.1	-79.0	2.2	0.00e+00	0	49	104	0	60	1048571
2026-01-17 14:32:42.29	336.32	3.22	-83.5	-79.0	2.5	0.00e+00	0	49	104	0	60	1048574
2026-01-17 14:32:45.32	335.94	3.06	-83.1	-79.0	2.5	0.00e+00	0	49	104	0	60	1048575
2026-01-17 14:32:48.34	335.56	2.89	-83.5	-79.0	2.4	0.00e+00	0	49	104	0	60	1048574
2026-01-17 14:32:51.37	335.19	2.72	-83.5	-79.0	2.2	0.00e+00	0	49	104	0	60	1048575
2026-01-17 14:32:54.38	334.83	2.56	-83.1	-79.0	2.3	0.00e+00	0	49	104	0	60	1048572
2026-01-17 14:32:57.40	334.47	2.39	-83.5	-79.0	2.2	0.00e+00	0	49	104	0	60	1048564
2026-01-17 14:33:00.41	334.11	2.23	-83.5	-79.0	2.2	0.00e+00	0	49	104	0	60	1048572
2026-01-17 14:33:03.42	333.76	2.07	-83.1	-79.0	2.4	0.00e+00	0	49	104	0	60	1048575
2026-01-17 14:33:06.45	333.42	1.90	-83.5	-79.0	2.3	0.00e+00	0	49	104	0	60	1048574
2026-01-17 14:33:09.47	333.08	1.74	-83.5	-79.0	2.4	0.00e+00	0	49	104	0	60	1048575
2026-01-17 14:33:12.49	332.75	1.58	-83.1	-79.0	2.1	0.00e+00	0	49	104	0	60	1048575
2026-01-17 14:33:15.51	332.42	1.42	-83.5	-79.0	2.5	0.00e+00	0	49	104	0	60	1048573
2026-01-17 14:33:18.53	332.09	1.25	-83.1	-79.0	2.4	0.00e+00	0	49	104	0	60	1048575
2026-01-17 14:33:21.55	331.77	1.09	-83.5	-79.0	2.4	0.00e+00	0	49	104	0	60	1048575
2026-01-17 14:33:24.56	331.46	0.93	-83.5	-79.0	2.1	0.00e+00	0	49	104	0	60	1048575
2026-01-17 14:33:27.57	331.15	0.77	-82.8	-79.0	2.4	0.00e+00	0	49	104	0	60	1048575
2026-01-17 14:33:30.59	330.84	0.61	-83.5	-79.0	2.3	0.00e+00	0	49	104	0	60	1048573
2026-01-17 14:33:33.61	330.54	0.45	-83.5	-79.0	2.2	0.00e+00	0	49	104	0	60	1048571
2026-01-17 14:33:36.63	330.24	0.29	-82.8	-79.0	2.1	0.00e+00	0	49	104	0	60	1048573
2026-01-17 14:33:39.65	329.94	0.14	-83.5	-79.0	2.5	0.00e+00	0	49	104	0	60	1048567
2026-01-17 14:33:42.66	329.66	-0.02	-83.5	-79.0	2.2	0.00e+00	0	49	104	0	60	1048570

#Closed at: 2026-01-17 14:33:43
#Recorded file [0 MB]: D:/Data/35015_260117_172418.dat