passes_logs/2026/01/17/R3.2S-Naryan-Mar/R3.2S-Naryan-Mar__20260117_142830_TY-39_rec.log

#Pass ID: 20260117_142830_TY-39
#Satellite: TY-39
#Configuration: TY-39
#almurnet v.1.7.20240730
#Start time: 2026-01-17 14:33:46

#Version: 2.2.20231116
#Station: R3.2S-Naryan-Mar
#Location: 53.008057 lon 67.646978 lat
#TLE: 1 51832U 22019J   26016.93397770  .00000681  00000-0  35057-4 0  9992
#TLE: 2 51832  97.3651  83.5773 0009934  46.4665 313.7394 15.19639081214821

#Time	Az	El	Level	Level2	SNR	BER	BlckErr	Temp	State	Recorded	gain1	gain2
2026-01-17 14:33:46.48	27.97	15.79	-83.5	-79.0	2.4	0.00e+00	0	48	0	0	60	1048573
2026-01-17 14:33:48.49	27.32	15.76	-83.1	-79.0	2.5	0.00e+00	0	49	104	0	60	1048573
2026-01-17 14:33:50.50	26.67	15.73	-83.5	-79.0	2.4	0.00e+00	0	49	104	0	60	1048574
2026-01-17 14:33:52.52	26.02	15.69	-82.8	-79.0	2.3	0.00e+00	0	49	104	0	60	1048575
2026-01-17 14:33:54.53	25.37	15.65	-83.5	-79.0	2.5	0.00e+00	0	49	104	0	60	1048572
2026-01-17 14:33:56.55	24.73	15.61	-83.5	-79.0	2.5	0.00e+00	0	49	104	0	60	1048570
2026-01-17 14:33:58.56	24.08	15.56	-83.5	-79.0	2.5	0.00e+00	0	49	104	0	60	1048572
2026-01-17 14:34:00.56	23.45	15.52	-83.5	-79.0	2.5	0.00e+00	0	49	104	0	60	1048574
2026-01-17 14:34:02.58	22.81	15.46	-83.5	-79.0	2.3	0.00e+00	0	49	104	0	60	1048575
2026-01-17 14:34:04.59	22.17	15.41	-83.5	-79.0	2.4	0.00e+00	0	49	104	0	60	1048569
2026-01-17 14:34:06.61	21.54	15.35	-82.8	-79.0	2.5	0.00e+00	0	49	104	0	60	1048570
2026-01-17 14:34:08.62	20.91	15.29	-83.5	-79.0	2.4	0.00e+00	0	49	104	0	60	1048572
2026-01-17 14:34:10.63	20.29	15.23	-83.5	-79.0	2.5	0.00e+00	0	49	104	0	60	1048575
2026-01-17 14:34:12.65	19.66	15.16	-83.5	-79.0	2.4	0.00e+00	0	49	104	0	60	1048575
2026-01-17 14:34:14.66	19.04	15.09	-83.5	-79.0	2.5	0.00e+00	0	49	104	0	60	1048571
2026-01-17 14:34:16.67	18.43	15.02	-83.1	-79.0	2.4	0.00e+00	0	49	104	0	60	1048567
2026-01-17 14:34:18.67	17.82	14.95	-83.5	-79.0	2.4	0.00e+00	0	49	104	0	60	1048574
2026-01-17 14:34:20.68	17.21	14.87	-83.5	-79.0	2.7	0.00e+00	0	49	104	0	60	1048572
2026-01-17 14:34:22.70	16.61	14.79	-83.5	-79.0	2.7	0.00e+00	0	49	104	0	60	1048575
2026-01-17 14:34:24.71	16.01	14.71	-83.5	-79.0	2.5	0.00e+00	0	49	104	0	60	1048575
2026-01-17 14:34:26.73	15.41	14.63	-83.1	-79.0	2.4	0.00e+00	0	49	104	0	60	1048560
2026-01-17 14:34:28.73	14.82	14.54	-83.5	-79.0	2.2	0.00e+00	0	49	104	0	60	1048572
2026-01-17 14:34:30.75	14.23	14.45	-83.1	-79.0	2.2	0.00e+00	0	49	104	0	60	1048574
2026-01-17 14:34:32.77	13.64	14.36	-83.5	-79.0	2.3	0.00e+00	0	49	104	0	60	1048574
2026-01-17 14:34:34.78	13.06	14.27	-83.5	-79.0	2.3	0.00e+00	0	49	104	0	60	1048575
2026-01-17 14:34:36.80	12.48	14.17	-83.1	-79.0	2.4	0.00e+00	0	49	104	0	60	1048575
2026-01-17 14:34:38.81	11.91	14.08	-83.1	-79.0	2.3	0.00e+00	0	49	104	0	60	1048575
2026-01-17 14:34:40.81	11.35	13.98	-82.8	-79.0	2.5	0.00e+00	0	49	104	0	60	1048571
2026-01-17 14:34:42.82	10.79	13.88	-83.5	-79.0	2.4	0.00e+00	0	49	104	0	60	1048574
2026-01-17 14:34:44.84	10.23	13.78	-83.1	-79.0	2.4	0.00e+00	0	49	104	0	60	1048572
2026-01-17 14:34:46.85	9.68	13.67	-83.5	-79.0	2.4	0.00e+00	0	49	104	0	60	1048575
2026-01-17 14:34:48.87	9.13	13.57	-83.1	-79.0	2.2	0.00e+00	0	49	104	0	60	1048573
2026-01-17 14:34:50.88	8.59	13.46	-83.5	-79.0	2.3	0.00e+00	0	49	104	0	60	1048573
2026-01-17 14:34:52.89	8.05	13.35	-83.5	-79.0	2.6	0.00e+00	0	49	104	0	60	1048573
2026-01-17 14:34:54.90	7.52	13.24	-83.1	-79.0	2.3	0.00e+00	0	49	104	0	60	1048572
2026-01-17 14:34:56.91	6.99	13.13	-83.5	-79.0	2.4	0.00e+00	0	49	104	0	60	1048575
2026-01-17 14:34:58.93	6.46	13.02	-83.1	-79.0	2.5	0.00e+00	0	49	104	0	60	1048571
2026-01-17 14:35:00.95	5.94	12.90	-83.5	-79.0	2.3	0.00e+00	0	49	104	0	60	1048569
2026-01-17 14:35:02.97	5.43	12.79	-83.5	-79.0	2.4	0.00e+00	0	49	104	0	60	1048575
2026-01-17 14:35:04.98	4.92	12.67	-83.1	-79.0	2.6	0.00e+00	0	49	104	0	60	1048573
2026-01-17 14:35:07.00	4.41	12.55	-83.5	-79.0	2.4	0.00e+00	0	49	104	0	60	1048573
2026-01-17 14:35:09.00	3.92	12.43	-82.8	-79.0	2.4	0.00e+00	0	49	104	0	60	1048575
2026-01-17 14:35:11.01	3.42	12.31	-83.5	-79.0	2.1	0.00e+00	0	49	104	0	60	1048574
2026-01-17 14:35:13.03	2.93	12.19	-83.1	-79.0	2.2	0.00e+00	0	49	104	0	60	1048573
2026-01-17 14:35:15.04	2.45	12.07	-83.5	-79.0	2.4	0.00e+00	0	49	104	0	60	1048575
2026-01-17 14:35:17.06	1.97	11.95	-83.5	-79.0	2.4	0.00e+00	0	49	104	0	60	1048575
2026-01-17 14:35:19.08	1.49	11.82	-83.5	-79.0	2.6	0.00e+00	0	49	104	0	60	1048574
2026-01-17 14:35:21.09	1.02	11.70	-83.5	-79.0	2.5	0.00e+00	0	49	104	0	60	1048574
2026-01-17 14:35:23.10	0.56	11.57	-83.1	-79.0	2.4	0.00e+00	0	49	104	0	60	1048569
2026-01-17 14:35:25.11	0.10	11.45	-83.5	-79.0	2.5	0.00e+00	0	49	104	0	60	1048559
2026-01-17 14:35:27.12	359.65	11.32	-83.1	-79.0	2.4	0.00e+00	0	49	104	0	60	1048572
2026-01-17 14:35:29.14	359.20	11.19	-83.5	-79.0	2.6	0.00e+00	0	49	104	0	60	1048575
2026-01-17 14:35:31.15	358.75	11.06	-83.5	-79.0	2.4	0.00e+00	0	49	104	0	60	1048575
2026-01-17 14:35:33.17	358.31	10.94	-83.1	-79.0	2.3	0.00e+00	0	49	104	0	60	1048571
2026-01-17 14:35:35.19	357.87	10.81	-83.5	-79.0	2.2	0.00e+00	0	49	104	0	60	1048569
2026-01-17 14:35:37.20	357.44	10.68	-83.1	-79.0	2.3	0.00e+00	0	49	104	0	60	1048574
2026-01-17 14:35:39.21	357.02	10.55	-83.1	-79.0	2.4	0.00e+00	0	49	104	0	60	1048575
2026-01-17 14:35:41.22	356.60	10.42	-83.5	-79.0	2.5	0.00e+00	0	49	104	0	60	1048562
2026-01-17 14:35:43.23	356.18	10.29	-83.1	-79.0	2.5	0.00e+00	0	49	104	0	60	1048575
2026-01-17 14:35:45.24	355.77	10.16	-83.5	-79.0	2.7	0.00e+00	0	49	104	0	60	1048568
2026-01-17 14:35:47.26	355.36	10.02	-83.1	-79.0	2.2	0.00e+00	0	49	104	0	60	1048575
2026-01-17 14:35:49.27	354.96	9.89	-83.5	-79.0	2.3	0.00e+00	0	49	104	0	60	1048575
2026-01-17 14:35:51.29	354.56	9.76	-83.1	-79.0	2.5	0.00e+00	0	49	104	0	60	1048573
2026-01-17 14:35:53.30	354.16	9.63	-83.5	-79.0	2.4	0.00e+00	0	49	104	0	60	1048575
2026-01-17 14:35:55.31	353.77	9.50	-83.5	-79.0	2.3	0.00e+00	0	49	104	0	60	1048573
2026-01-17 14:35:57.32	353.39	9.37	-83.5	-79.0	2.4	0.00e+00	0	49	104	0	60	1048574
2026-01-17 14:35:59.34	353.01	9.23	-83.5	-79.0	2.3	0.00e+00	0	49	104	0	60	1048570
2026-01-17 14:36:01.35	352.63	9.10	-82.8	-79.0	2.3	0.00e+00	0	49	104	0	60	1048568
2026-01-17 14:36:03.36	352.26	8.97	-83.5	-79.0	2.4	0.00e+00	0	49	104	0	60	1048574
2026-01-17 14:36:05.38	351.89	8.84	-83.5	-79.0	2.4	0.00e+00	0	49	104	0	60	1048572
2026-01-17 14:36:07.39	351.53	8.70	-83.1	-79.0	2.4	0.00e+00	0	49	104	0	60	1048575
2026-01-17 14:36:09.41	351.17	8.57	-83.5	-79.0	2.4	0.00e+00	0	49	104	0	60	1048574
2026-01-17 14:36:11.43	350.81	8.44	-83.5	-79.0	2.4	0.00e+00	0	49	104	0	60	1048570
2026-01-17 14:36:13.45	350.46	8.31	-83.5	-79.0	2.2	0.00e+00	0	49	104	0	60	1048570
2026-01-17 14:36:15.46	350.11	8.17	-82.8	-79.0	2.3	0.00e+00	0	49	104	0	60	1048567
2026-01-17 14:36:17.48	349.76	8.04	-83.5	-79.0	2.7	0.00e+00	0	49	104	0	60	1048575
2026-01-17 14:36:19.49	349.43	7.91	-83.1	-79.0	2.5	0.00e+00	0	49	104	0	60	1048572
2026-01-17 14:36:21.50	349.09	7.78	-83.5	-79.0	2.3	0.00e+00	0	49	104	0	60	1048571
2026-01-17 14:36:23.52	348.76	7.65	-83.5	-79.0	2.3	0.00e+00	0	49	104	0	60	1048574
2026-01-17 14:36:25.53	348.43	7.52	-83.5	-79.0	2.3	0.00e+00	0	49	104	0	60	1048574
2026-01-17 14:36:27.54	348.11	7.38	-83.5	-79.0	2.4	0.00e+00	0	49	104	0	60	1048575
2026-01-17 14:36:29.55	347.79	7.25	-83.1	-79.0	2.4	0.00e+00	0	49	104	0	60	1048572
2026-01-17 14:36:31.56	347.47	7.12	-83.5	-79.0	2.3	0.00e+00	0	49	104	0	60	1048574
2026-01-17 14:36:33.57	347.16	6.99	-83.5	-79.0	2.3	0.00e+00	0	49	104	0	60	1048571
2026-01-17 14:36:35.59	346.85	6.86	-83.5	-79.0	2.1	0.00e+00	0	49	104	0	60	1048574
2026-01-17 14:36:37.60	346.54	6.73	-83.5	-79.0	2.4	0.00e+00	0	49	104	0	60	1048567
2026-01-17 14:36:39.61	346.24	6.60	-82.8	-79.0	2.6	0.00e+00	0	49	104	0	60	1048575
2026-01-17 14:36:41.63	345.94	6.47	-83.5	-79.0	2.5	0.00e+00	0	49	104	0	60	1048574
2026-01-17 14:36:43.64	345.64	6.34	-83.1	-79.0	2.4	0.00e+00	0	49	104	0	60	1048574
2026-01-17 14:36:45.65	345.35	6.21	-83.5	-79.0	2.5	0.00e+00	0	49	104	0	60	1048573
2026-01-17 14:36:47.67	345.06	6.08	-83.5	-79.0	2.4	0.00e+00	0	49	104	0	60	1048574
2026-01-17 14:36:49.68	344.77	5.95	-83.5	-79.0	2.1	0.00e+00	0	49	104	0	60	1048575
2026-01-17 14:36:51.69	344.49	5.82	-83.5	-79.0	2.7	0.00e+00	0	49	104	0	60	1048575
2026-01-17 14:36:53.69	344.21	5.70	-83.1	-79.0	2.5	0.00e+00	0	49	104	0	60	1048575
2026-01-17 14:36:55.71	343.94	5.57	-83.5	-79.0	2.4	0.00e+00	0	49	104	0	60	1048575
2026-01-17 14:36:57.73	343.66	5.44	-83.1	-79.0	2.3	0.00e+00	0	49	104	0	60	1048575
2026-01-17 14:36:59.74	343.39	5.31	-83.5	-79.0	2.3	0.00e+00	0	49	104	0	60	1048575
2026-01-17 14:37:01.75	343.13	5.19	-83.5	-79.0	2.4	0.00e+00	0	49	104	0	60	1048573
2026-01-17 14:37:03.77	342.86	5.06	-83.5	-79.0	2.5	0.00e+00	0	49	104	0	60	1048574
2026-01-17 14:37:05.78	342.60	4.93	-83.5	-79.0	2.5	0.00e+00	0	49	104	0	60	1048573
2026-01-17 14:37:07.79	342.34	4.81	-82.8	-79.0	2.5	0.00e+00	0	49	104	0	60	1048565
2026-01-17 14:37:09.80	342.09	4.68	-83.5	-79.0	2.2	0.00e+00	0	49	104	0	60	1048572
2026-01-17 14:37:11.81	341.84	4.56	-83.1	-79.0	2.3	0.00e+00	0	49	104	0	60	1048575
2026-01-17 14:37:13.83	341.59	4.43	-83.5	-79.0	2.4	0.00e+00	0	49	104	0	60	1048575
2026-01-17 14:37:15.85	341.34	4.31	-83.5	-79.0	2.2	0.00e+00	0	49	104	0	60	1048571
2026-01-17 14:37:17.86	341.09	4.18	-83.1	-79.0	2.4	0.00e+00	0	49	104	0	60	1048571
2026-01-17 14:37:19.87	340.85	4.06	-83.5	-79.0	2.5	0.00e+00	0	49	104	0	60	1048573
2026-01-17 14:37:21.89	340.61	3.93	-83.1	-79.0	2.8	0.00e+00	0	49	104	0	60	1048574
2026-01-17 14:37:23.90	340.38	3.81	-83.5	-79.0	2.2	0.00e+00	0	49	104	0	60	1048575
2026-01-17 14:37:25.91	340.15	3.69	-83.5	-79.0	2.6	0.00e+00	0	49	104	0	60	1048575
2026-01-17 14:37:27.93	339.91	3.57	-83.5	-79.0	2.3	0.00e+00	0	49	104	0	60	1048575
2026-01-17 14:37:29.93	339.69	3.44	-83.5	-79.0	2.5	0.00e+00	0	49	104	0	60	1048572
2026-01-17 14:37:31.95	339.46	3.32	-82.8	-79.0	2.5	0.00e+00	0	49	104	0	60	1048575
2026-01-17 14:37:33.97	339.24	3.20	-83.5	-79.0	2.2	0.00e+00	0	49	104	0	60	1048574
2026-01-17 14:37:35.97	339.02	3.08	-83.1	-79.0	2.7	0.00e+00	0	49	104	0	60	1048568
2026-01-17 14:37:37.99	338.80	2.96	-83.5	-79.0	2.5	0.00e+00	0	48	104	0	60	1048574
2026-01-17 14:37:40.00	338.58	2.84	-83.1	-79.0	2.4	0.00e+00	0	49	104	0	60	1048571
2026-01-17 14:37:42.01	338.37	2.72	-83.1	-79.0	2.5	0.00e+00	0	49	104	0	60	1048575
2026-01-17 14:37:44.02	338.16	2.60	-83.5	-79.0	2.5	0.00e+00	0	49	104	0	60	1048575
2026-01-17 14:37:46.04	337.95	2.48	-83.1	-79.0	2.5	0.00e+00	0	49	104	0	60	1048574
2026-01-17 14:37:48.05	337.74	2.36	-83.5	-79.0	2.4	0.00e+00	0	49	104	0	60	1048574
2026-01-17 14:37:50.07	337.53	2.24	-83.1	-79.0	2.3	0.00e+00	0	49	104	0	60	1048575
2026-01-17 14:37:52.09	337.33	2.12	-83.5	-79.0	2.3	0.00e+00	0	49	104	0	60	1048574
2026-01-17 14:37:54.10	337.13	2.01	-83.5	-79.0	2.2	0.00e+00	0	49	104	0	60	1048573
2026-01-17 14:37:56.11	336.93	1.89	-83.5	-79.0	2.2	0.00e+00	0	49	104	0	60	1048574
2026-01-17 14:37:58.12	336.73	1.77	-83.5	-79.0	2.3	0.00e+00	0	49	104	0	60	1048573
2026-01-17 14:38:00.13	336.54	1.66	-83.1	-79.0	2.3	0.00e+00	0	49	104	0	60	1048573
2026-01-17 14:38:02.15	336.35	1.54	-83.5	-79.0	2.6	0.00e+00	0	49	104	0	60	1048571
2026-01-17 14:38:04.17	336.16	1.42	-83.1	-79.0	2.5	0.00e+00	0	49	104	0	60	1048575
2026-01-17 14:38:06.18	335.97	1.31	-83.5	-79.0	2.4	0.00e+00	0	49	104	0	60	1048575
2026-01-17 14:38:08.19	335.78	1.19	-83.5	-79.0	2.3	0.00e+00	0	49	104	0	60	1048575
2026-01-17 14:38:10.20	335.60	1.08	-83.1	-79.0	2.4	0.00e+00	0	49	104	0	60	1048574
2026-01-17 14:38:12.21	335.41	0.96	-83.5	-79.0	2.4	0.00e+00	0	49	104	0	60	1048575
2026-01-17 14:38:14.23	335.23	0.85	-83.1	-79.0	2.5	0.00e+00	0	49	104	0	60	1048574
2026-01-17 14:38:16.25	335.05	0.74	-83.5	-79.0	2.5	0.00e+00	0	49	104	0	60	1048572
2026-01-17 14:38:18.26	334.88	0.62	-83.5	-79.0	2.3	0.00e+00	0	49	104	0	60	1048562
2026-01-17 14:38:20.27	334.70	0.51	-83.5	-79.0	2.4	0.00e+00	0	49	104	0	60	1048575
2026-01-17 14:38:22.29	334.53	0.40	-83.1	-79.0	2.4	0.00e+00	0	49	104	0	60	1048569
2026-01-17 14:38:24.30	334.36	0.28	-83.1	-79.0	2.5	0.00e+00	0	49	104	0	60	1048575
2026-01-17 14:38:26.32	334.19	0.17	-83.5	-79.0	2.5	0.00e+00	0	49	104	0	60	1048573
2026-01-17 14:38:28.33	334.02	0.06	-82.8	-79.0	2.5	0.00e+00	0	49	104	0	60	1048575

#Closed at: 2026-01-17 14:38:30
#Recorded file [0 MB]: D:/Data/35015_260117_173346.dat