passes_logs/2026/01/17/R3.2S-Naryan-Mar/R3.2S-Naryan-Mar__20260117_131108_FENGYUN_3D_rec.log

#Pass ID: 20260117_131108_FENGYUN 3D
#Satellite: FENGYUN 3D
#Configuration: FENGYUN 3D
#almurnet v.1.7.20240730
#Start time: 2026-01-17 13:19:11

#Version: 2.2.20231116
#Station: R3.2S-Naryan-Mar
#Location: 53.008057 lon 67.646978 lat
#TLE: 1 43010U 17072A   26016.62453405 -.00000112  00000+0 -31355-4 0  9995
#TLE: 2 43010  98.9932 348.4654 0002369 105.3910 254.7528 14.19694900423480

#Time	Az	El	Level	Level2	SNR	BER	BlckErr	Temp	State	Recorded	gain1	gain2
2026-01-17 13:19:11.74	302.63	14.48	-83.1	-79.0	2.3	0.00e+00	0	48	0	0	60	1048575
2026-01-17 13:19:13.76	303.03	14.41	-84.7	-88.6	5.9	2.39e-01	0	48	0	0	60	1048575
2026-01-17 13:19:15.76	303.42	14.35	-85.2	-88.6	6.4	2.76e-01	0	48	0	0	60	1048574
2026-01-17 13:19:17.78	303.82	14.28	-84.7	-88.6	6.7	2.75e-01	0	48	0	0	60	1048575
2026-01-17 13:19:19.79	304.21	14.22	-84.7	-88.6	6.0	2.78e-01	0	48	0	0	60	1048574
2026-01-17 13:19:21.80	304.61	14.15	-85.2	-88.6	6.1	2.75e-01	0	48	0	0	60	1048572
2026-01-17 13:19:23.81	305.00	14.08	-84.7	-88.6	6.1	2.74e-01	0	48	0	0	60	1048574
2026-01-17 13:19:25.82	305.38	14.01	-84.7	-88.6	5.4	2.77e-01	0	48	0	0	60	1048575
2026-01-17 13:19:27.84	305.77	13.94	-84.7	-88.6	6.1	2.77e-01	0	48	0	0	60	1048575
2026-01-17 13:19:29.85	306.16	13.87	-85.2	-88.6	6.1	2.73e-01	0	48	0	0	60	1048575
2026-01-17 13:19:31.87	306.54	13.80	-85.2	-88.6	5.8	2.77e-01	0	48	0	0	60	1048574
2026-01-17 13:19:33.89	306.92	13.72	-85.2	-88.6	6.2	2.74e-01	0	48	0	0	60	1048574
2026-01-17 13:19:35.90	307.30	13.65	-84.7	-88.6	6.0	2.72e-01	0	48	0	0	60	1048575
2026-01-17 13:19:37.91	307.68	13.57	-84.7	-88.6	5.8	2.73e-01	0	48	0	0	60	1048574
2026-01-17 13:19:39.93	308.06	13.50	-84.7	-88.6	5.8	2.75e-01	0	48	0	0	60	1048575
2026-01-17 13:19:41.94	308.43	13.42	-84.7	-88.6	6.2	2.76e-01	0	48	0	0	60	1048575
2026-01-17 13:19:43.95	308.80	13.34	-85.2	-88.6	6.5	2.76e-01	0	48	0	0	60	1048571
2026-01-17 13:19:45.97	309.17	13.26	-84.7	-88.6	6.0	2.78e-01	0	48	0	0	60	1048572
2026-01-17 13:19:47.98	309.54	13.18	-84.7	-88.6	5.8	2.72e-01	0	48	0	0	60	1048574
2026-01-17 13:19:49.99	309.91	13.10	-84.7	-88.6	6.1	2.75e-01	0	48	0	0	60	1048570
2026-01-17 13:19:52.01	310.27	13.02	-84.7	-88.6	5.4	2.76e-01	0	48	0	0	60	1048573
2026-01-17 13:19:54.01	310.63	12.94	-84.7	-88.6	6.1	2.74e-01	0	48	0	0	60	1048572
2026-01-17 13:19:56.03	310.99	12.86	-84.7	-88.6	5.7	2.74e-01	0	48	0	0	60	1048575
2026-01-17 13:19:58.05	311.35	12.77	-84.7	-88.6	6.0	2.75e-01	0	48	0	0	60	1048573
2026-01-17 13:20:00.06	311.71	12.69	-85.2	-88.6	5.9	2.72e-01	0	48	0	0	60	1048575
2026-01-17 13:20:02.08	312.06	12.60	-85.2	-88.6	6.2	2.77e-01	0	48	0	0	60	1048575
2026-01-17 13:20:04.10	312.42	12.52	-85.2	-88.6	6.0	2.70e-01	0	48	0	0	60	1048575
2026-01-17 13:20:06.11	312.77	12.43	-85.2	-88.6	5.8	2.78e-01	0	48	0	0	60	1048574
2026-01-17 13:20:08.13	313.12	12.35	-84.7	-88.6	5.6	2.69e-01	0	48	0	0	60	1048573
2026-01-17 13:20:10.14	313.46	12.26	-85.2	-88.6	6.6	2.77e-01	0	48	0	0	60	1048569
2026-01-17 13:20:12.14	313.81	12.17	-85.2	-88.6	6.0	2.75e-01	0	47	0	0	60	1048575
2026-01-17 13:20:14.16	314.15	12.08	-85.2	-88.6	5.9	2.82e-01	0	48	0	0	60	1048574
2026-01-17 13:20:16.18	314.49	11.99	-84.7	-88.6	6.0	2.75e-01	0	48	0	0	60	1048575
2026-01-17 13:20:18.19	314.83	11.90	-84.7	-88.6	6.0	2.76e-01	0	48	0	0	60	1048574
2026-01-17 13:20:20.21	315.17	11.81	-84.7	-88.6	6.0	2.80e-01	0	48	0	0	60	1048574
2026-01-17 13:20:22.22	315.50	11.72	-85.2	-88.6	6.5	2.77e-01	0	48	0	0	60	1048575
2026-01-17 13:20:24.22	315.83	11.63	-84.7	-88.6	5.6	2.72e-01	0	48	0	0	60	1048573
2026-01-17 13:20:26.24	316.16	11.54	-84.7	-88.6	5.9	2.80e-01	0	48	0	0	60	1048574
2026-01-17 13:20:28.25	316.49	11.45	-84.7	-88.6	5.8	2.78e-01	0	48	0	0	60	1048574
2026-01-17 13:20:30.26	316.81	11.35	-85.2	-88.6	2.9	7.64e-01	0	48	104	0	60	1048574
2026-01-17 13:20:32.27	317.14	11.26	-85.2	-88.6	3.7	7.64e-01	0	47	104	0	60	1048574
2026-01-17 13:20:34.29	317.46	11.17	-84.7	-88.6	3.2	7.57e-01	0	47	104	0	60	1048574
2026-01-17 13:20:36.30	317.78	11.07	-85.2	-88.6	3.4	7.64e-01	0	47	104	0	60	1048575
2026-01-17 13:20:38.31	318.10	10.98	-85.2	-88.6	3.1	7.63e-01	0	48	104	0	60	1048575
2026-01-17 13:20:40.33	318.42	10.88	-85.2	-88.6	3.2	7.64e-01	0	47	104	0	60	1048575
2026-01-17 13:20:42.34	318.73	10.79	-85.2	-88.6	2.9	7.64e-01	0	47	104	0	60	1048570
2026-01-17 13:20:44.34	319.04	10.69	-85.2	-88.6	3.3	7.63e-01	0	47	104	0	60	1048573
2026-01-17 13:20:46.36	319.35	10.59	-85.2	-88.6	3.5	7.63e-01	0	47	104	0	60	1048573
2026-01-17 13:20:48.37	319.66	10.50	-85.2	-88.6	2.9	7.63e-01	0	48	104	0	60	1048575
2026-01-17 13:20:50.39	319.97	10.40	-85.2	-88.6	3.6	7.63e-01	0	48	104	0	60	1048574
2026-01-17 13:20:52.40	320.27	10.30	-85.2	-88.6	3.3	7.64e-01	0	47	104	0	60	1048571
2026-01-17 13:20:54.42	320.58	10.21	-85.2	-88.6	3.0	7.63e-01	0	47	104	0	60	1048572
2026-01-17 13:20:56.43	320.88	10.11	-85.2	-88.6	3.2	7.64e-01	0	47	104	0	60	1048574
2026-01-17 13:20:58.44	321.17	10.01	-85.2	-88.6	3.6	7.61e-01	0	48	104	0	60	1048574
2026-01-17 13:21:00.46	321.47	9.91	-85.2	-88.6	3.2	7.63e-01	0	47	104	0	60	1048567
2026-01-17 13:21:02.48	321.77	9.81	-85.2	-88.6	3.0	7.63e-01	0	47	104	0	60	1048575
2026-01-17 13:21:04.49	322.06	9.71	-85.2	-88.6	3.3	7.64e-01	0	47	104	0	60	1048570
2026-01-17 13:21:06.51	322.35	9.62	-85.2	-88.6	3.0	7.63e-01	0	47	104	0	60	1048568
2026-01-17 13:21:08.52	322.64	9.52	-84.7	-88.6	3.1	7.64e-01	0	47	104	0	60	1048571
2026-01-17 13:21:10.54	322.93	9.42	-85.2	-88.6	3.1	7.62e-01	0	47	104	0	60	1048569
2026-01-17 13:21:12.55	323.21	9.32	-85.2	-88.6	3.3	7.64e-01	0	47	104	0	60	1048574
2026-01-17 13:21:14.57	323.50	9.22	-85.2	-88.6	3.6	7.64e-01	0	47	104	0	60	1048574
2026-01-17 13:21:16.58	323.78	9.12	-85.2	-88.6	2.9	7.63e-01	0	47	104	0	60	1048572
2026-01-17 13:21:18.59	324.06	9.02	-84.7	-88.6	3.6	7.65e-01	0	47	104	0	60	1048566
2026-01-17 13:21:20.61	324.34	8.92	-85.2	-88.6	3.1	7.63e-01	0	47	104	0	60	1048574
2026-01-17 13:21:22.62	324.61	8.82	-84.7	-88.6	3.7	7.63e-01	0	47	104	0	60	1048575
2026-01-17 13:21:24.64	324.89	8.71	-85.2	-88.6	3.0	7.60e-01	0	47	104	0	60	1048570
2026-01-17 13:21:26.66	325.16	8.61	-85.2	-88.6	3.1	7.61e-01	0	47	104	0	60	1048570
2026-01-17 13:21:28.67	325.43	8.51	-85.2	-88.6	3.6	7.63e-01	0	47	104	0	60	1048575
2026-01-17 13:21:30.68	325.70	8.41	-85.2	-88.6	3.2	7.64e-01	0	47	104	0	60	1048574
2026-01-17 13:21:32.69	325.97	8.31	-85.2	-88.6	3.7	7.63e-01	0	47	104	0	60	1048573
2026-01-17 13:21:34.70	326.23	8.21	-85.2	-88.6	3.6	7.60e-01	0	47	104	0	60	1048572
2026-01-17 13:21:36.71	326.49	8.11	-85.2	-88.6	3.0	7.64e-01	0	47	104	0	60	1048573
2026-01-17 13:21:38.72	326.75	8.01	-85.2	-88.6	3.0	7.62e-01	0	47	104	0	60	1048563
2026-01-17 13:21:40.74	327.02	7.90	-84.7	-88.6	3.0	7.65e-01	0	47	104	0	60	1048573
2026-01-17 13:21:42.75	327.27	7.80	-85.2	-88.6	3.1	7.64e-01	0	47	104	0	60	1048575
2026-01-17 13:21:44.77	327.53	7.70	-85.2	-88.6	2.9	7.63e-01	0	47	104	0	60	1048574
2026-01-17 13:21:46.79	327.79	7.60	-85.2	-88.6	3.4	7.64e-01	0	47	104	0	60	1048575
2026-01-17 13:21:48.80	328.04	7.50	-85.2	-88.6	3.6	7.63e-01	0	47	104	0	60	1048575
2026-01-17 13:21:50.81	328.29	7.39	-85.2	-88.6	3.1	7.64e-01	0	47	104	0	60	1048574
2026-01-17 13:21:52.81	328.54	7.29	-85.2	-88.6	3.4	7.61e-01	0	47	104	0	60	1048575
2026-01-17 13:21:54.82	328.79	7.19	-85.2	-88.6	2.9	7.64e-01	0	47	104	0	60	1048575
2026-01-17 13:21:56.83	329.03	7.09	-85.2	-88.6	3.6	7.63e-01	0	47	104	0	60	1048572
2026-01-17 13:21:58.85	329.28	6.99	-85.2	-88.6	3.1	7.63e-01	0	47	104	0	60	1048575
2026-01-17 13:22:00.86	329.52	6.88	-84.7	-88.6	3.1	7.63e-01	0	47	104	0	60	1048574
2026-01-17 13:22:02.88	329.76	6.78	-85.2	-88.6	3.5	7.64e-01	0	47	104	0	60	1048575
2026-01-17 13:22:04.89	330.00	6.68	-85.2	-88.6	3.0	7.64e-01	0	47	104	0	60	1048572
2026-01-17 13:22:06.91	330.24	6.58	-85.2	-88.6	3.5	7.64e-01	0	47	104	0	60	1048571
2026-01-17 13:22:08.92	330.48	6.47	-85.2	-88.6	2.9	7.63e-01	0	47	104	0	60	1048569
2026-01-17 13:22:10.92	330.71	6.37	-85.2	-88.6	3.7	7.64e-01	0	47	104	0	60	1048575
2026-01-17 13:22:12.93	330.94	6.27	-85.2	-88.6	2.9	7.64e-01	0	47	104	0	60	1048570
2026-01-17 13:22:14.95	331.17	6.17	-85.2	-88.6	3.3	7.63e-01	0	47	104	0	60	1048575
2026-01-17 13:22:16.97	331.41	6.07	-84.7	-88.6	3.1	7.64e-01	0	47	104	0	60	1048574
2026-01-17 13:22:18.98	331.63	5.96	-85.2	-88.6	2.9	7.64e-01	0	47	104	0	60	1048575
2026-01-17 13:22:20.99	331.86	5.86	-85.2	-88.6	3.3	7.63e-01	0	47	104	0	60	1048574
2026-01-17 13:22:22.99	332.09	5.76	-84.7	-88.6	3.3	7.64e-01	0	47	104	0	60	1048572
2026-01-17 13:22:25.00	332.31	5.66	-83.9	-88.6	2.9	7.63e-01	0	47	104	0	60	1048575
2026-01-17 13:22:27.01	332.53	5.56	-85.2	-88.6	2.8	7.64e-01	0	47	104	0	60	1048567
2026-01-17 13:22:29.03	332.75	5.45	-85.2	-88.6	3.0	7.63e-01	0	47	104	0	60	1048571
2026-01-17 13:22:31.04	332.97	5.35	-85.2	-88.6	2.9	7.63e-01	0	47	104	0	60	1048575
2026-01-17 13:22:33.06	333.19	5.25	-85.2	-88.6	3.0	7.64e-01	0	47	104	0	60	1048565
2026-01-17 13:22:35.07	333.41	5.15	-85.2	-88.6	3.0	7.65e-01	0	47	104	0	60	1048572
2026-01-17 13:22:37.09	333.62	5.05	-85.2	-88.6	3.5	7.64e-01	0	47	104	0	60	1048572
2026-01-17 13:22:39.10	333.84	4.95	-85.2	-88.6	2.8	7.64e-01	0	47	104	0	60	1048575
2026-01-17 13:22:41.12	334.05	4.84	-84.7	-88.6	2.9	7.59e-01	0	47	104	0	60	1048568
2026-01-17 13:22:43.13	334.26	4.74	-84.7	-88.6	3.0	7.63e-01	0	47	104	0	60	1048574
2026-01-17 13:22:45.15	334.47	4.64	-85.2	-88.6	3.4	7.63e-01	0	47	104	0	60	1048575
2026-01-17 13:22:47.16	334.68	4.54	-84.7	-88.6	3.1	7.63e-01	0	47	104	0	60	1048575
2026-01-17 13:22:49.18	334.89	4.44	-85.2	-88.6	3.2	7.64e-01	0	47	104	0	60	1048575
2026-01-17 13:22:51.20	335.10	4.34	-85.2	-88.6	3.5	7.62e-01	0	47	104	0	60	1048575
2026-01-17 13:22:53.20	335.30	4.24	-85.2	-88.6	2.9	7.62e-01	0	47	104	0	60	1048575
2026-01-17 13:22:55.21	335.50	4.14	-85.2	-88.6	3.2	7.63e-01	0	47	104	0	60	1048572
2026-01-17 13:22:57.22	335.70	4.04	-84.7	-88.6	3.2	7.64e-01	0	47	104	0	60	1048572
2026-01-17 13:22:59.23	335.90	3.93	-84.7	-88.6	3.3	7.62e-01	0	47	104	0	60	1048574
2026-01-17 13:23:01.24	336.10	3.83	-85.2	-88.6	3.1	7.63e-01	0	47	104	0	60	1048571
2026-01-17 13:23:03.25	336.30	3.73	-85.2	-88.6	3.5	7.63e-01	0	47	104	0	60	1048573
2026-01-17 13:23:05.27	336.50	3.63	-85.2	-88.6	3.2	7.64e-01	0	47	104	0	60	1048567
2026-01-17 13:23:07.28	336.69	3.53	-84.7	-88.6	2.9	7.62e-01	0	47	104	0	60	1048574
2026-01-17 13:23:09.29	336.89	3.43	-85.2	-88.6	3.3	7.64e-01	0	47	104	0	60	1048575
2026-01-17 13:23:11.31	337.08	3.33	-85.2	-88.6	3.2	7.64e-01	0	47	104	0	60	1048575
2026-01-17 13:23:13.31	337.27	3.23	-85.2	-88.6	3.4	7.64e-01	0	47	104	0	60	1048572
2026-01-17 13:23:15.33	337.46	3.13	-85.2	-88.6	3.6	7.64e-01	0	47	104	0	60	1048572
2026-01-17 13:23:17.34	337.65	3.03	-84.7	-88.6	2.5	7.62e-01	0	47	104	0	60	1048574
2026-01-17 13:23:19.36	337.84	2.93	-85.2	-88.6	3.5	7.64e-01	0	47	104	0	60	1048574
2026-01-17 13:23:21.36	338.02	2.83	-85.2	-88.6	3.1	7.64e-01	0	47	104	0	60	1048573
2026-01-17 13:23:23.37	338.21	2.74	-85.2	-88.6	3.4	7.61e-01	0	47	104	0	60	1048574
2026-01-17 13:23:25.39	338.39	2.64	-85.2	-88.6	2.9	7.64e-01	0	47	104	0	60	1048570
2026-01-17 13:23:27.40	338.58	2.54	-85.2	-88.6	3.3	7.64e-01	0	47	104	0	60	1048570
2026-01-17 13:23:29.41	338.76	2.44	-85.2	-88.6	3.2	7.64e-01	0	47	104	0	60	1048575
2026-01-17 13:23:31.42	338.94	2.34	-85.2	-88.6	3.0	7.63e-01	0	47	104	0	60	1048574
2026-01-17 13:23:33.43	339.12	2.24	-85.2	-88.6	3.3	7.64e-01	0	47	104	0	60	1048573
2026-01-17 13:23:35.44	339.30	2.14	-84.7	-88.6	3.0	7.63e-01	0	47	104	0	60	1048573
2026-01-17 13:23:37.46	339.47	2.04	-84.7	-88.6	3.2	7.64e-01	0	47	104	0	60	1048574
2026-01-17 13:23:39.47	339.65	1.95	-85.2	-88.6	3.7	7.65e-01	0	47	104	0	60	1048573
2026-01-17 13:23:41.48	339.82	1.85	-85.2	-88.6	2.9	7.64e-01	0	47	104	0	60	1048570
2026-01-17 13:23:43.49	340.00	1.75	-85.2	-88.6	3.0	7.64e-01	0	47	104	0	60	1048575
2026-01-17 13:23:45.51	340.17	1.65	-85.2	-88.6	3.1	7.63e-01	0	47	104	0	60	1048573
2026-01-17 13:23:47.52	340.34	1.55	-85.2	-88.6	3.7	7.63e-01	0	47	104	0	60	1048575
2026-01-17 13:23:49.53	340.51	1.46	-84.7	-88.6	2.9	7.65e-01	0	47	104	0	60	1048575
2026-01-17 13:23:51.55	340.69	1.36	-85.2	-88.6	3.8	7.63e-01	0	47	104	0	60	1048574
2026-01-17 13:23:53.57	340.85	1.26	-85.2	-88.6	3.5	7.64e-01	0	47	104	0	60	1048573
2026-01-17 13:23:55.58	341.02	1.16	-85.2	-88.6	3.1	7.64e-01	0	47	104	0	60	1048567
2026-01-17 13:23:57.60	341.19	1.07	-85.2	-88.6	2.8	7.62e-01	0	47	104	0	60	1048575
2026-01-17 13:23:59.62	341.36	0.97	-85.2	-88.6	2.9	7.62e-01	0	47	104	0	60	1048574
2026-01-17 13:24:01.63	341.52	0.87	-85.2	-88.6	3.6	7.63e-01	0	47	104	0	60	1048572
2026-01-17 13:24:03.64	341.68	0.77	-85.2	-88.6	3.2	7.62e-01	0	47	104	0	60	1048575
2026-01-17 13:24:05.64	341.85	0.68	-85.2	-88.6	3.0	7.63e-01	0	47	104	0	60	1048574
2026-01-17 13:24:07.66	342.01	0.58	-85.2	-88.6	3.1	7.61e-01	0	47	104	0	60	1048573
2026-01-17 13:24:09.67	342.17	0.49	-85.2	-88.6	3.7	7.65e-01	0	47	104	0	60	1048574
2026-01-17 13:24:11.68	342.33	0.39	-85.2	-88.6	3.3	7.63e-01	0	47	104	0	60	1048574
2026-01-17 13:24:13.70	342.49	0.29	-85.2	-88.6	2.5	7.64e-01	0	47	104	0	60	1048574
2026-01-17 13:24:15.72	342.65	0.20	-85.2	-88.6	3.5	7.63e-01	0	47	104	0	60	1048574
2026-01-17 13:24:17.73	342.80	0.10	-85.2	-88.6	3.1	7.64e-01	0	47	104	0	60	1048567
2026-01-17 13:24:19.75	342.96	0.01	-85.2	-88.6	2.9	7.64e-01	0	47	104	0	60	1048574
2026-01-17 13:24:21.77	343.12	-0.09	-85.2	-88.6	3.5	7.63e-01	0	47	104	0	60	1048574

#Closed at: 2026-01-17 13:24:22
#Recorded file [0 MB]: D:/Data/35015_260117_161911.dat