passes_logs/2026/01/17/R3.2S-Naryan-Mar/R3.2S-Naryan-Mar__20260117_084913_SUOMI_NPP_rec.log

#Pass ID: 20260117_084913_SUOMI NPP
#Satellite: SUOMI NPP
#Configuration: NPP
#almurnet v.1.7.20240730
#Start time: 2026-01-17 08:49:16

#Version: 2.2.20231116
#Station: R3.2S-Naryan-Mar
#Location: 53.008057 lon 67.646978 lat
#TLE: 1 37849U 11061A   26016.23176763  .00000061  00000+0  49926-4 0  9990
#TLE: 2 37849  98.7812 318.2698 0002434  61.5135 298.6286 14.19525545736883

#Time	Az	El	Level	Level2	SNR	BER	BlckErr	Temp	State	Recorded	gain1	gain2
2026-01-17 08:49:16.08	163.91	0.17	-83.5	-79.0	2.5	0.00e+00	0	46	0	0	60	1048574
2026-01-17 08:49:20.10	163.97	0.41	-85.2	-88.6	2.9	1.56e+00	0	47	104	0	60	1048574
2026-01-17 08:49:24.13	164.03	0.66	-85.2	-88.6	3.1	1.55e+00	0	47	104	0	60	1048575
2026-01-17 08:49:28.15	164.09	0.90	-85.2	-88.6	2.9	1.56e+00	0	47	104	0	60	1048575
2026-01-17 08:49:32.19	164.15	1.15	-85.2	-88.6	3.0	1.56e+00	0	47	104	0	60	1048575
2026-01-17 08:49:36.21	164.21	1.40	-85.2	-88.6	3.0	1.56e+00	0	47	104	0	60	1048575
2026-01-17 08:49:40.23	164.28	1.66	-85.2	-88.6	3.0	1.56e+00	0	47	104	0	60	1048574
2026-01-17 08:49:44.27	164.34	1.91	-85.2	-88.6	3.0	1.56e+00	0	47	104	0	60	1048575
2026-01-17 08:49:48.30	164.41	2.17	-85.2	-88.6	3.0	1.56e+00	0	47	104	0	60	1048575
2026-01-17 08:49:52.31	164.47	2.43	-85.2	-88.6	3.1	1.55e+00	0	47	104	0	60	1048575
2026-01-17 08:49:56.34	164.54	2.69	-85.2	-88.6	3.0	1.56e+00	0	47	104	0	60	1048572
2026-01-17 08:50:00.37	164.61	2.95	-85.2	-88.6	3.1	1.56e+00	0	47	104	0	60	1048575
2026-01-17 08:50:04.40	164.68	3.22	-85.2	-88.6	3.0	1.55e+00	0	47	104	0	60	1048575
2026-01-17 08:50:08.42	164.75	3.49	-85.2	-88.6	3.0	1.56e+00	0	47	104	0	60	1048573
2026-01-17 08:50:12.45	164.82	3.76	-85.2	-88.6	3.0	1.55e+00	0	47	104	0	60	1048573
2026-01-17 08:50:16.48	164.89	4.04	-85.2	-88.6	3.1	1.56e+00	0	47	104	0	60	1048575
2026-01-17 08:50:20.51	164.97	4.32	-85.2	-88.6	3.1	1.56e+00	0	47	104	0	60	1048572
2026-01-17 08:50:24.54	165.04	4.60	-85.2	-88.6	2.9	1.56e+00	0	47	104	0	60	1048575
2026-01-17 08:50:28.56	165.12	4.88	-85.2	-88.6	3.1	1.55e+00	0	47	104	0	60	1048575
2026-01-17 08:50:32.58	165.20	5.17	-85.2	-88.6	3.0	1.56e+00	0	47	104	0	60	1048574
2026-01-17 08:50:36.61	165.27	5.46	-85.2	-88.6	3.0	1.56e+00	0	47	104	0	60	1048573
2026-01-17 08:50:40.64	165.35	5.75	-85.2	-88.6	2.9	1.56e+00	0	47	104	0	60	1048575
2026-01-17 08:50:44.67	165.44	6.05	-85.2	-88.6	3.0	1.56e+00	0	47	104	0	60	1048575
2026-01-17 08:50:48.70	165.52	6.35	-85.2	-88.6	3.0	1.56e+00	0	47	104	0	60	1048574
2026-01-17 08:50:52.73	165.60	6.65	-85.2	-88.6	2.8	1.56e+00	0	47	104	0	60	1048574
2026-01-17 08:50:56.75	165.69	6.96	-85.2	-88.6	3.0	1.56e+00	0	47	104	0	60	1048572
2026-01-17 08:51:00.77	165.78	7.27	-85.2	-88.6	2.8	1.56e+00	0	47	104	0	60	1048574
2026-01-17 08:51:04.79	165.86	7.58	-85.2	-88.6	3.0	1.56e+00	0	47	104	0	60	1048575
2026-01-17 08:51:08.81	165.95	7.90	-85.2	-88.6	3.2	1.56e+00	0	47	104	0	60	1048572
2026-01-17 08:51:12.84	166.05	8.22	-85.2	-88.6	3.0	1.55e+00	0	47	104	0	60	1048575
2026-01-17 08:51:16.87	166.14	8.55	-85.2	-88.6	3.2	1.55e+00	0	47	104	0	60	1048574
2026-01-17 08:51:20.90	166.24	8.88	-85.2	-88.6	3.1	1.56e+00	0	47	104	0	60	1048571
2026-01-17 08:51:24.93	166.33	9.21	-85.2	-88.6	2.9	1.55e+00	0	47	104	0	60	1048574
2026-01-17 08:51:28.96	166.43	9.55	-85.2	-88.6	3.1	1.55e+00	0	47	104	0	60	1048574
2026-01-17 08:51:32.98	166.53	9.90	-85.2	-88.6	3.0	1.56e+00	0	47	104	0	60	1048575
2026-01-17 08:51:37.00	166.64	10.24	-85.2	-88.6	3.0	1.56e+00	0	47	104	0	60	1048571
2026-01-17 08:51:41.03	166.74	10.60	-85.2	-88.6	2.9	1.56e+00	0	47	104	0	60	1048575
2026-01-17 08:51:45.06	166.85	10.96	-85.2	-88.6	3.0	1.56e+00	0	47	104	0	60	1048575
2026-01-17 08:51:49.09	166.96	11.32	-85.2	-88.6	3.1	1.56e+00	0	47	104	0	60	1048575
2026-01-17 08:51:53.11	167.08	11.69	-85.2	-88.6	3.0	1.55e+00	0	47	104	0	60	1048574
2026-01-17 08:51:57.13	167.19	12.07	-85.2	-88.6	2.9	1.56e+00	0	47	104	0	60	1048575
2026-01-17 08:52:01.16	167.31	12.45	-85.2	-88.6	3.0	1.55e+00	0	47	104	0	60	1048572
2026-01-17 08:52:05.19	167.43	12.83	-85.2	-88.6	3.1	1.55e+00	0	47	104	0	60	1048575
2026-01-17 08:52:09.21	167.55	13.23	-85.2	-88.6	3.1	1.56e+00	0	47	104	0	60	1048570
2026-01-17 08:52:13.23	167.68	13.63	-85.2	-88.6	3.0	1.55e+00	0	47	104	0	60	1048575
2026-01-17 08:52:17.27	167.81	14.03	-85.2	-88.6	3.0	1.55e+00	0	47	104	0	60	1048575
2026-01-17 08:52:21.29	167.94	14.45	-85.2	-88.6	3.1	1.55e+00	0	47	104	0	60	1048575
2026-01-17 08:52:25.32	168.08	14.87	-85.2	-88.6	3.2	1.56e+00	0	47	104	0	60	1048573
2026-01-17 08:52:29.34	168.22	15.29	-85.2	-88.6	3.0	1.56e+00	0	47	104	0	60	1048575
2026-01-17 08:52:33.37	168.36	15.73	-85.2	-88.6	2.9	1.56e+00	0	47	104	0	60	1048574
2026-01-17 08:52:37.40	168.51	16.17	-85.2	-88.6	3.0	1.56e+00	0	47	104	0	60	1048575
2026-01-17 08:52:41.43	168.66	16.62	-85.2	-88.6	2.9	1.56e+00	0	47	104	0	60	1048574
2026-01-17 08:52:45.46	168.82	17.08	-85.2	-88.6	3.1	1.56e+00	0	47	104	0	60	1048573
2026-01-17 08:52:49.48	168.98	17.55	-85.2	-88.6	3.0	1.55e+00	0	47	104	0	60	1048572
2026-01-17 08:52:53.51	169.14	18.02	-85.2	-88.6	2.9	1.55e+00	0	47	104	0	60	1048575
2026-01-17 08:52:57.53	169.31	18.51	-84.7	-88.6	2.9	1.56e+00	0	47	104	0	60	1048572
2026-01-17 08:53:01.56	169.48	19.00	-85.2	-88.6	3.0	1.56e+00	0	47	104	0	60	1048572
2026-01-17 08:53:05.59	169.66	19.51	-85.2	-88.6	2.8	1.56e+00	0	47	104	0	60	1048572
2026-01-17 08:53:09.62	169.85	20.02	-85.2	-88.6	3.1	1.56e+00	0	47	104	0	60	1048575
2026-01-17 08:53:13.63	170.04	20.55	-85.2	-88.6	3.0	1.56e+00	0	47	104	0	60	1048575
2026-01-17 08:53:17.65	170.24	21.08	-85.2	-88.6	3.0	1.56e+00	0	47	104	0	60	1048574
2026-01-17 08:53:21.67	170.44	21.63	-85.2	-88.6	3.2	1.56e+00	0	47	104	0	60	1048575
2026-01-17 08:53:25.69	170.65	22.19	-85.2	-88.6	3.0	1.55e+00	0	47	104	0	60	1048572
2026-01-17 08:53:29.71	170.87	22.76	-85.2	-88.6	3.1	1.56e+00	0	47	104	0	60	1048575
2026-01-17 08:53:33.73	171.09	23.34	-85.2	-88.6	3.1	1.56e+00	0	47	104	0	60	1048575
2026-01-17 08:53:37.76	171.32	23.94	-84.7	-88.6	3.0	1.56e+00	0	47	104	0	60	1048575
2026-01-17 08:53:41.77	171.57	24.55	-85.2	-88.6	2.8	1.56e+00	0	47	104	0	60	1048574
2026-01-17 08:53:45.79	171.82	25.17	-85.2	-88.6	3.1	1.56e+00	0	47	104	0	60	1048573
2026-01-17 08:53:49.82	172.08	25.81	-85.2	-88.6	2.8	1.55e+00	0	47	104	0	60	1048571
2026-01-17 08:53:53.86	172.35	26.47	-85.2	-88.6	2.8	1.55e+00	0	47	104	0	60	1048573
2026-01-17 08:53:57.89	172.63	27.14	-85.2	-88.6	3.0	1.56e+00	0	47	104	0	60	1048574
2026-01-17 08:54:01.91	172.92	27.82	-85.2	-88.6	2.9	1.56e+00	0	47	104	0	60	1048575
2026-01-17 08:54:05.94	173.23	28.53	-85.2	-88.6	3.1	1.56e+00	0	47	104	0	60	1048566
2026-01-17 08:54:09.96	173.55	29.25	-85.2	-88.6	3.0	1.56e+00	0	47	104	0	60	1048575
2026-01-17 08:54:13.99	173.88	29.99	-85.2	-88.6	2.9	1.55e+00	0	47	104	0	60	1048575
2026-01-17 08:54:18.02	174.23	30.74	-85.2	-88.6	3.0	1.56e+00	0	47	104	0	60	1048571
2026-01-17 08:54:22.04	174.59	31.52	-85.2	-88.6	3.0	1.56e+00	0	47	104	0	60	1048575
2026-01-17 08:54:26.07	174.97	32.32	-83.5	-88.6	3.1	1.56e+00	0	47	104	0	60	1048575
2026-01-17 08:54:30.09	175.37	33.13	-85.2	-88.6	2.9	1.56e+00	0	47	104	0	60	1048575
2026-01-17 08:54:34.12	175.79	33.97	-85.2	-88.6	2.9	1.56e+00	0	47	104	0	60	1048573
2026-01-17 08:54:38.14	176.23	34.83	-85.2	-88.6	3.0	1.56e+00	0	47	104	0	60	1048575
2026-01-17 08:54:42.17	176.69	35.71	-85.2	-88.6	2.9	1.56e+00	0	47	104	0	60	1048575
2026-01-17 08:54:46.20	177.18	36.61	-85.2	-88.6	3.0	1.56e+00	0	47	104	0	60	1048575
2026-01-17 08:54:50.23	177.70	37.54	-85.2	-88.6	3.0	1.56e+00	0	47	104	0	60	1048575
2026-01-17 08:54:54.25	178.24	38.49	-85.2	-88.6	3.0	1.55e+00	0	47	104	0	60	1048573
2026-01-17 08:54:58.28	178.82	39.47	-85.2	-88.6	3.1	1.56e+00	0	47	104	0	60	1048575
2026-01-17 08:55:02.31	179.44	40.47	-85.2	-88.6	2.9	1.56e+00	0	47	104	0	60	1048575
2026-01-17 08:55:06.34	180.09	41.50	-85.2	-88.6	2.9	1.55e+00	0	47	104	0	60	1048572
2026-01-17 08:55:10.37	180.78	42.55	-85.2	-88.6	2.9	1.56e+00	0	47	104	0	60	1048574
2026-01-17 08:55:14.40	181.52	43.62	-85.2	-88.6	3.0	1.55e+00	0	47	104	0	60	1048575
2026-01-17 08:55:18.43	182.32	44.73	-85.2	-88.6	2.9	1.55e+00	0	47	104	0	60	1048575
2026-01-17 08:55:22.46	183.16	45.85	-84.3	-88.6	3.0	1.56e+00	0	47	104	0	60	1048575
2026-01-17 08:55:26.48	184.07	47.00	-85.2	-88.6	2.9	1.56e+00	0	47	104	0	60	1048573
2026-01-17 08:55:30.50	185.05	48.18	-85.2	-88.6	3.0	1.56e+00	0	47	104	0	60	1048575
2026-01-17 08:55:34.53	186.10	49.38	-85.2	-88.6	2.7	1.56e+00	0	47	104	0	60	1048574
2026-01-17 08:55:38.56	187.25	50.60	-85.2	-88.6	3.0	1.56e+00	0	47	104	0	60	1048575
2026-01-17 08:55:42.59	188.48	51.84	-85.2	-88.6	3.0	1.56e+00	0	47	104	0	60	1048575
2026-01-17 08:55:46.62	189.83	53.10	-85.2	-88.6	3.3	1.56e+00	0	47	104	0	60	1048574
2026-01-17 08:55:50.64	191.29	54.37	-85.2	-88.6	2.9	1.56e+00	0	47	104	0	60	1048575
2026-01-17 08:55:54.68	192.89	55.66	-85.2	-88.6	3.0	1.56e+00	0	47	104	0	60	1048574
2026-01-17 08:55:58.71	194.64	56.95	-85.2	-88.6	3.1	1.56e+00	0	47	104	0	60	1048574
2026-01-17 08:56:02.73	196.56	58.25	-85.2	-88.6	3.1	1.56e+00	0	47	104	0	60	1048574
2026-01-17 08:56:06.75	198.67	59.53	-85.2	-88.6	3.0	1.56e+00	0	47	104	0	60	1048575
2026-01-17 08:56:10.77	201.00	60.81	-85.2	-88.6	3.0	1.56e+00	0	47	104	0	60	1048574
2026-01-17 08:56:14.79	203.57	62.07	-85.2	-88.6	2.9	1.56e+00	0	47	104	0	60	1048573
2026-01-17 08:56:18.82	206.42	63.29	-85.2	-88.6	2.9	1.55e+00	0	47	104	0	60	1048575
2026-01-17 08:56:22.84	209.56	64.47	-85.2	-88.6	3.3	1.56e+00	0	47	104	0	60	1048575
2026-01-17 08:56:26.87	213.05	65.60	-85.2	-88.6	3.2	1.56e+00	0	47	104	0	60	1048574
2026-01-17 08:56:30.90	216.90	66.65	-85.2	-88.6	3.0	1.55e+00	0	47	104	0	60	1048575
2026-01-17 08:56:34.93	221.13	67.61	-85.2	-88.6	2.9	1.56e+00	0	47	104	0	60	1048575
2026-01-17 08:56:38.95	225.73	68.46	-85.2	-88.6	3.1	1.56e+00	0	47	104	0	60	1048575
2026-01-17 08:56:42.98	230.72	69.17	-85.2	-88.6	2.9	1.55e+00	0	47	104	0	60	1048571
2026-01-17 08:56:47.01	236.04	69.74	-85.2	-88.6	3.0	1.56e+00	0	47	104	0	60	1048575
2026-01-17 08:56:51.03	241.63	70.13	-85.2	-88.6	3.1	1.56e+00	0	47	104	0	60	1048575
2026-01-17 08:56:55.05	247.41	70.34	-85.2	-88.6	2.9	1.56e+00	0	47	104	0	60	1048574
2026-01-17 08:56:59.08	253.27	70.37	-85.2	-88.6	2.9	1.56e+00	0	47	104	0	60	1048575
2026-01-17 08:57:03.11	259.08	70.20	-85.2	-88.6	3.1	1.56e+00	0	47	104	0	60	1048574
2026-01-17 08:57:07.15	264.75	69.85	-85.2	-88.6	3.1	1.55e+00	0	47	104	0	60	1048573
2026-01-17 08:57:11.17	270.14	69.33	-85.2	-88.6	2.9	1.56e+00	0	47	104	0	60	1048572
2026-01-17 08:57:15.20	275.21	68.65	-85.2	-88.6	3.0	1.56e+00	0	47	104	0	60	1048574
2026-01-17 08:57:19.23	279.92	67.84	-85.2	-88.6	2.9	1.56e+00	0	47	104	0	60	1048574
2026-01-17 08:57:23.26	284.24	66.90	-85.2	-88.6	2.8	1.55e+00	0	47	104	0	60	1048575
2026-01-17 08:57:27.28	288.17	65.88	-85.2	-88.6	3.0	1.55e+00	0	47	104	0	60	1048575
2026-01-17 08:57:31.31	291.74	64.77	-85.2	-88.6	3.0	1.56e+00	0	47	104	0	60	1048575
2026-01-17 08:57:35.34	294.97	63.60	-85.2	-88.6	2.9	1.56e+00	0	47	104	0	60	1048573
2026-01-17 08:57:39.36	297.89	62.39	-85.2	-88.6	2.9	1.56e+00	0	47	104	0	60	1048575
2026-01-17 08:57:43.38	300.52	61.15	-85.2	-88.6	2.7	1.56e+00	0	47	104	0	60	1048575
2026-01-17 08:57:47.41	302.91	59.87	-85.2	-88.6	3.0	1.56e+00	0	47	104	0	60	1048574
2026-01-17 08:57:51.43	305.07	58.59	-85.2	-88.6	3.2	1.56e+00	0	47	104	0	60	1048573
2026-01-17 08:57:55.46	307.04	57.30	-85.2	-88.6	2.9	1.56e+00	0	47	104	0	60	1048575
2026-01-17 08:57:59.48	308.83	56.01	-85.2	-88.6	3.0	1.55e+00	0	47	104	0	60	1048575
2026-01-17 08:58:03.51	310.46	54.73	-85.2	-88.6	3.2	1.56e+00	0	47	104	0	60	1048575
2026-01-17 08:58:07.54	311.96	53.46	-85.2	-88.6	3.1	1.55e+00	0	47	104	0	60	1048574
2026-01-17 08:58:11.55	313.32	52.20	-85.2	-88.6	3.0	1.56e+00	0	47	104	0	60	1048575
2026-01-17 08:58:15.58	314.58	50.96	-85.2	-88.6	2.9	1.56e+00	0	47	104	0	60	1048573
2026-01-17 08:58:19.61	315.75	49.74	-85.2	-88.6	3.0	1.56e+00	0	47	104	0	60	1048574
2026-01-17 08:58:23.64	316.82	48.53	-85.2	-88.6	2.8	1.56e+00	0	47	104	0	60	1048575
2026-01-17 08:58:27.67	317.82	47.36	-85.2	-88.6	3.0	1.56e+00	0	47	104	0	60	1048574
2026-01-17 08:58:31.69	318.75	46.20	-85.2	-88.6	2.8	1.55e+00	0	47	104	0	60	1048572
2026-01-17 08:58:35.71	319.61	45.08	-85.2	-88.6	3.2	1.55e+00	0	47	104	0	60	1048575
2026-01-17 08:58:39.73	320.41	43.97	-85.2	-88.6	3.0	1.56e+00	0	47	104	0	60	1048575
2026-01-17 08:58:43.76	321.16	42.89	-85.2	-88.6	3.0	1.55e+00	0	47	104	0	60	1048575
2026-01-17 08:58:47.78	321.87	41.84	-85.2	-88.6	3.3	1.56e+00	0	47	104	0	60	1048575
2026-01-17 08:58:51.80	322.53	40.81	-85.2	-88.6	3.3	1.55e+00	0	47	104	0	60	1048575
2026-01-17 08:58:55.83	323.16	39.81	-85.2	-88.6	2.9	1.56e+00	0	47	104	0	60	1048574
2026-01-17 08:58:59.85	323.74	38.83	-85.2	-88.6	3.0	1.56e+00	0	47	104	0	60	1048575
2026-01-17 08:59:03.88	324.30	37.88	-85.2	-88.6	3.0	1.56e+00	0	47	104	0	60	1048574
2026-01-17 08:59:07.89	324.82	36.95	-84.3	-88.6	2.9	1.56e+00	0	47	104	0	60	1048575
2026-01-17 08:59:11.91	325.32	36.05	-85.2	-88.6	2.9	1.55e+00	0	47	104	0	60	1048574
2026-01-17 08:59:15.95	325.79	35.16	-85.2	-88.6	3.2	1.56e+00	0	47	104	0	60	1048575
2026-01-17 08:59:19.98	326.24	34.30	-85.2	-88.6	2.9	1.56e+00	0	47	104	0	60	1048574
2026-01-17 08:59:24.00	326.66	33.46	-85.2	-88.6	3.1	1.56e+00	0	47	104	0	60	1048575
2026-01-17 08:59:28.03	327.07	32.64	-85.2	-88.6	3.0	1.56e+00	0	47	104	0	60	1048575
2026-01-17 08:59:32.05	327.45	31.84	-85.2	-88.6	2.9	1.56e+00	0	47	104	0	60	1048574
2026-01-17 08:59:36.08	327.82	31.06	-85.2	-88.6	2.9	1.56e+00	0	47	104	0	60	1048575
2026-01-17 08:59:40.11	328.18	30.30	-85.2	-88.6	3.0	1.56e+00	0	47	104	0	60	1048575
2026-01-17 08:59:44.13	328.51	29.56	-85.2	-88.6	3.2	1.55e+00	0	47	104	0	60	1048575
2026-01-17 08:59:48.17	328.84	28.83	-85.2	-88.6	3.0	1.56e+00	0	47	104	0	60	1048575
2026-01-17 08:59:52.18	329.15	28.13	-85.2	-88.6	3.1	1.55e+00	0	47	104	0	60	1048575
2026-01-17 08:59:56.21	329.44	27.44	-85.2	-88.6	3.0	1.56e+00	0	47	104	0	60	1048568
2026-01-17 09:00:00.24	329.73	26.77	-85.2	-88.6	2.9	1.56e+00	0	47	104	0	60	1048572
2026-01-17 09:00:04.28	330.01	26.11	-85.2	-88.6	3.0	1.56e+00	0	47	104	0	60	1048572
2026-01-17 09:00:08.31	330.27	25.47	-85.2	-88.6	3.1	1.55e+00	0	47	104	0	60	1048574
2026-01-17 09:00:12.33	330.52	24.84	-85.2	-88.6	3.1	1.56e+00	0	47	104	0	60	1048575
2026-01-17 09:00:16.36	330.77	24.23	-85.2	-88.6	3.0	1.56e+00	0	47	104	0	60	1048568
2026-01-17 09:00:20.39	331.01	23.63	-85.2	-88.6	3.1	1.56e+00	0	47	104	0	60	1048570
2026-01-17 09:00:24.42	331.24	23.04	-85.2	-88.6	3.2	1.56e+00	0	47	104	0	60	1048572
2026-01-17 09:00:28.44	331.46	22.47	-85.2	-88.6	3.1	1.56e+00	0	47	104	0	60	1048573
2026-01-17 09:00:32.47	331.67	21.91	-85.2	-88.6	2.9	1.56e+00	0	47	104	0	60	1048575
2026-01-17 09:00:36.48	331.88	21.36	-85.2	-88.6	3.2	1.56e+00	0	47	104	0	60	1048575
2026-01-17 09:00:40.51	332.08	20.82	-85.2	-88.6	3.0	1.56e+00	0	47	104	0	60	1048574
2026-01-17 09:00:44.54	332.27	20.30	-85.2	-88.6	3.0	1.56e+00	0	47	104	0	60	1048575
2026-01-17 09:00:48.57	332.46	19.78	-85.2	-88.6	3.2	1.55e+00	0	47	104	0	60	1048575
2026-01-17 09:00:52.60	332.65	19.27	-85.2	-88.6	2.8	1.56e+00	0	47	104	0	60	1048575
2026-01-17 09:00:56.62	332.82	18.78	-85.2	-88.6	3.0	1.56e+00	0	47	104	0	60	1048574
2026-01-17 09:01:00.64	332.99	18.29	-85.2	-88.6	2.9	1.56e+00	0	47	104	0	60	1048575
2026-01-17 09:01:04.68	333.16	17.81	-85.2	-88.6	3.1	1.55e+00	0	47	104	0	60	1048573
2026-01-17 09:01:08.70	333.33	17.35	-84.7	-88.6	3.0	1.56e+00	0	47	104	0	60	1048575
2026-01-17 09:01:12.73	333.48	16.89	-85.2	-88.6	3.1	1.56e+00	0	47	104	0	60	1048575
2026-01-17 09:01:16.76	333.64	16.43	-85.2	-88.6	2.9	1.56e+00	0	47	104	0	60	1048575
2026-01-17 09:01:20.78	333.79	15.99	-85.2	-88.6	3.1	1.55e+00	0	47	104	0	60	1048575
2026-01-17 09:01:24.81	333.94	15.56	-85.2	-88.6	3.0	1.56e+00	0	47	104	0	60	1048574
2026-01-17 09:01:28.84	334.08	15.13	-85.2	-88.6	3.3	1.55e+00	0	47	104	0	60	1048575
2026-01-17 09:01:32.87	334.22	14.71	-84.7	-88.6	2.8	1.56e+00	0	47	104	0	60	1048570
2026-01-17 09:01:36.89	334.35	14.29	-85.2	-88.6	2.9	1.56e+00	0	47	104	0	60	1048575
2026-01-17 09:01:40.91	334.49	13.89	-85.2	-88.6	3.1	1.55e+00	0	47	104	0	60	1048575
2026-01-17 09:01:44.95	334.62	13.49	-85.2	-88.6	3.0	1.56e+00	0	47	104	0	60	1048573
2026-01-17 09:01:48.97	334.74	13.09	-85.2	-88.6	2.8	1.56e+00	0	47	104	0	60	1048574
2026-01-17 09:01:52.99	334.87	12.71	-84.7	-88.6	3.1	1.56e+00	0	47	104	0	60	1048575
2026-01-17 09:01:57.01	334.99	12.33	-84.7	-88.6	3.1	1.55e+00	0	47	104	0	60	1048575
2026-01-17 09:02:01.03	335.11	11.95	-85.2	-88.6	3.0	1.56e+00	0	47	104	0	60	1048575
2026-01-17 09:02:05.07	335.22	11.58	-84.7	-88.6	3.0	1.55e+00	0	47	104	0	60	1048575
2026-01-17 09:02:09.08	335.34	11.22	-84.7	-88.6	3.1	1.56e+00	0	47	104	0	60	1048575
2026-01-17 09:02:13.11	335.45	10.86	-85.2	-88.6	2.8	1.56e+00	0	47	104	0	60	1048574
2026-01-17 09:02:17.13	335.56	10.50	-85.2	-88.6	3.0	1.56e+00	0	47	104	0	60	1048574
2026-01-17 09:02:21.15	335.66	10.15	-84.7	-88.6	2.8	1.56e+00	0	47	104	0	60	1048574
2026-01-17 09:02:25.18	335.77	9.81	-84.7	-88.6	2.9	1.56e+00	0	47	104	0	60	1048575
2026-01-17 09:02:29.20	335.87	9.47	-84.7	-88.6	3.3	1.56e+00	0	47	104	0	60	1048572
2026-01-17 09:02:33.23	335.97	9.13	-85.2	-88.6	2.9	1.56e+00	0	47	104	0	60	1048575
2026-01-17 09:02:37.26	336.07	8.80	-85.2	-88.6	3.0	1.56e+00	0	47	104	0	60	1048575
2026-01-17 09:02:41.28	336.17	8.48	-85.2	-88.6	2.8	1.55e+00	0	47	104	0	60	1048575
2026-01-17 09:02:45.32	336.26	8.15	-85.2	-88.6	3.0	1.56e+00	0	47	104	0	60	1048574
2026-01-17 09:02:49.34	336.36	7.84	-85.2	-88.6	3.0	1.55e+00	0	47	104	0	60	1048572
2026-01-17 09:02:53.38	336.45	7.52	-84.7	-88.6	3.2	1.56e+00	0	47	104	0	60	1048574
2026-01-17 09:02:57.38	336.54	7.21	-85.2	-88.6	3.0	1.56e+00	0	47	104	0	60	1048571
2026-01-17 09:03:01.41	336.63	6.90	-85.2	-88.6	3.2	1.56e+00	0	47	104	0	60	1048574
2026-01-17 09:03:05.44	336.72	6.60	-85.2	-88.6	3.1	1.56e+00	0	47	104	0	60	1048571
2026-01-17 09:03:09.47	336.80	6.30	-84.7	-88.6	3.1	1.56e+00	0	47	104	0	60	1048575
2026-01-17 09:03:13.49	336.89	6.00	-85.2	-88.6	3.0	1.56e+00	0	47	104	0	60	1048574
2026-01-17 09:03:17.51	336.97	5.71	-85.2	-88.6	2.8	1.55e+00	0	47	104	0	60	1048574
2026-01-17 09:03:21.54	337.05	5.42	-85.2	-88.6	3.2	1.55e+00	0	47	104	0	60	1048574
2026-01-17 09:03:25.56	337.13	5.14	-85.2	-88.6	3.2	1.55e+00	0	47	104	0	60	1048573
2026-01-17 09:03:29.58	337.21	4.85	-85.2	-88.6	3.1	1.55e+00	0	47	104	0	60	1048574
2026-01-17 09:03:33.62	337.29	4.57	-85.2	-88.6	3.1	1.56e+00	0	47	104	0	60	1048575
2026-01-17 09:03:37.64	337.37	4.29	-85.2	-88.6	3.0	1.56e+00	0	47	104	0	60	1048575
2026-01-17 09:03:41.67	337.45	4.02	-85.2	-88.6	2.9	1.56e+00	0	47	104	0	60	1048573
2026-01-17 09:03:45.70	337.52	3.74	-85.2	-88.6	3.0	1.56e+00	0	47	104	0	60	1048574
2026-01-17 09:03:49.73	337.60	3.47	-85.2	-88.6	2.9	1.56e+00	0	47	104	0	60	1048573
2026-01-17 09:03:53.76	337.67	3.21	-85.2	-88.6	3.1	1.56e+00	0	47	104	0	60	1048574
2026-01-17 09:03:57.79	337.74	2.94	-85.2	-88.6	3.1	1.56e+00	0	47	104	0	60	1048575
2026-01-17 09:04:01.82	337.81	2.68	-85.2	-88.6	3.0	1.56e+00	0	47	104	0	60	1048575
2026-01-17 09:04:05.85	337.88	2.42	-85.2	-88.6	3.1	1.55e+00	0	47	104	0	60	1048575
2026-01-17 09:04:09.87	337.95	2.16	-85.2	-88.6	3.0	1.55e+00	0	47	104	0	60	1048575
2026-01-17 09:04:13.90	338.02	1.91	-84.7	-88.6	2.8	1.56e+00	0	47	104	0	60	1048575
2026-01-17 09:04:17.93	338.09	1.65	-85.2	-88.6	3.1	1.56e+00	0	47	104	0	60	1048574
2026-01-17 09:04:21.96	338.16	1.40	-85.2	-88.6	2.8	1.56e+00	0	47	104	0	60	1048573
2026-01-17 09:04:25.99	338.22	1.16	-85.2	-88.6	3.2	1.56e+00	0	47	104	0	60	1048572
2026-01-17 09:04:30.01	338.29	0.91	-85.2	-88.6	3.1	1.55e+00	0	47	104	0	60	1048572
2026-01-17 09:04:34.04	338.35	0.66	-85.2	-88.6	3.1	1.56e+00	0	47	104	0	60	1048575
2026-01-17 09:04:38.06	338.42	0.42	-85.2	-88.6	2.9	1.55e+00	0	47	104	0	60	1048574
2026-01-17 09:04:42.08	338.48	0.18	-85.2	-88.6	3.0	1.56e+00	0	47	104	0	60	1048571

#Closed at: 2026-01-17 09:04:45
#Recorded file [0 MB]: D:/Data/35015_260117_114916.dat