passes_logs/2026/01/17/R3.2S-Naryan-Mar/R3.2S-Naryan-Mar__20260117_145437_FENGYUN_3E_rec.log

#Pass ID: 20260117_145437_FENGYUN 3E
#Satellite: FENGYUN 3E
#Configuration: FENGYUN 3E
#almurnet v.1.7.20240730
#Start time: 2026-01-17 14:57:57

#Version: 2.2.20231116
#Station: R3.2S-Naryan-Mar
#Location: 53.008057 lon 67.646978 lat
#TLE: 1 49008U 21062A   26016.55599566  .00000255  00000+0  14071-3 0  9994
#TLE: 2 49008  98.7485  21.6664 0002094 134.5344 225.6004 14.19886148235063

#Time	Az	El	Level	Level2	SNR	BER	BlckErr	Temp	State	Recorded	gain1	gain2
2026-01-17 14:57:57.94	230.10	11.78	-83.5	-79.0	2.4	0.00e+00	0	48	0	0	60	1048573
2026-01-17 14:58:00.95	230.52	11.98	-84.7	-88.6	3.5	7.77e-01	0	49	104	0	60	1048574
2026-01-17 14:58:03.98	230.94	12.18	-84.7	-88.6	2.8	7.77e-01	0	48	104	0	60	1048575
2026-01-17 14:58:07.00	231.37	12.37	-84.7	-88.6	3.5	7.76e-01	0	48	104	0	60	1048572
2026-01-17 14:58:10.02	231.81	12.57	-84.7	-88.6	3.1	7.77e-01	0	48	104	0	60	1048568
2026-01-17 14:58:13.04	232.25	12.76	-84.7	-88.6	3.0	7.77e-01	0	48	104	0	60	1048574
2026-01-17 14:58:16.06	232.70	12.96	-84.7	-88.6	3.1	7.77e-01	0	48	104	0	60	1048574
2026-01-17 14:58:19.08	233.15	13.16	-84.7	-88.6	2.9	7.76e-01	0	48	104	0	60	1048571
2026-01-17 14:58:22.11	233.61	13.36	-84.7	-88.6	2.8	7.77e-01	0	49	104	0	60	1048566
2026-01-17 14:58:25.13	234.07	13.55	-84.7	-88.6	2.5	7.77e-01	0	48	104	0	60	1048568
2026-01-17 14:58:28.15	234.55	13.75	-84.7	-88.6	2.7	7.77e-01	0	48	104	0	60	1048573
2026-01-17 14:58:31.16	235.02	13.94	-84.7	-88.6	3.6	7.76e-01	0	48	104	0	60	1048575
2026-01-17 14:58:34.18	235.50	14.14	-84.7	-88.6	3.0	7.75e-01	0	48	104	0	60	1048571
2026-01-17 14:58:37.21	235.99	14.34	-84.7	-88.6	2.9	7.77e-01	0	48	104	0	60	1048571
2026-01-17 14:58:40.23	236.49	14.53	-84.7	-88.6	2.9	7.77e-01	0	48	104	0	60	1048572
2026-01-17 14:58:43.25	236.99	14.73	-84.7	-88.6	2.9	7.77e-01	0	48	104	0	60	1048569
2026-01-17 14:58:46.26	237.50	14.92	-84.7	-88.6	3.1	7.76e-01	0	48	104	0	60	1048573
2026-01-17 14:58:49.27	238.01	15.11	-84.7	-88.6	3.5	7.75e-01	0	48	104	0	60	1048575
2026-01-17 14:58:52.30	238.53	15.31	-84.7	-88.6	3.0	7.76e-01	0	48	104	0	60	1048573
2026-01-17 14:58:55.32	239.06	15.50	-84.7	-88.6	2.8	7.75e-01	0	48	104	0	60	1048575
2026-01-17 14:58:58.34	239.59	15.69	-84.7	-88.6	2.9	7.77e-01	0	48	104	0	60	1048571
2026-01-17 14:59:01.36	240.13	15.88	-84.7	-88.6	3.0	7.76e-01	0	48	104	0	60	1048569
2026-01-17 14:59:04.36	240.68	16.07	-84.7	-88.6	2.5	7.76e-01	0	48	104	0	60	1048567
2026-01-17 14:59:07.38	241.23	16.26	-84.7	-88.6	3.0	7.77e-01	0	48	104	0	60	1048575
2026-01-17 14:59:10.39	241.79	16.45	-84.7	-88.6	3.0	7.75e-01	0	48	104	0	60	1048575
2026-01-17 14:59:13.41	242.36	16.63	-84.7	-88.6	2.5	7.73e-01	0	48	104	0	60	1048573
2026-01-17 14:59:16.43	242.93	16.82	-84.7	-88.6	3.0	7.76e-01	0	48	104	0	60	1048575
2026-01-17 14:59:19.45	243.51	17.00	-84.7	-88.6	2.7	7.76e-01	0	48	104	0	60	1048568
2026-01-17 14:59:22.48	244.11	17.19	-84.7	-88.6	3.0	7.76e-01	0	48	104	0	60	1048575
2026-01-17 14:59:25.50	244.70	17.37	-84.7	-88.6	2.9	7.77e-01	0	48	104	0	60	1048571
2026-01-17 14:59:28.52	245.30	17.55	-84.7	-88.6	2.8	7.78e-01	0	48	104	0	60	1048575
2026-01-17 14:59:31.54	245.91	17.72	-84.7	-88.6	2.7	7.75e-01	0	48	104	0	60	1048571
2026-01-17 14:59:34.56	246.53	17.90	-84.7	-88.6	3.2	7.76e-01	0	48	104	0	60	1048572
2026-01-17 14:59:37.57	247.15	18.07	-84.7	-88.6	2.7	7.74e-01	0	48	104	0	60	1048575
2026-01-17 14:59:40.59	247.78	18.24	-84.7	-88.6	3.4	7.78e-01	0	48	104	0	60	1048574
2026-01-17 14:59:43.62	248.42	18.41	-84.7	-88.6	3.1	7.77e-01	0	48	104	0	60	1048575
2026-01-17 14:59:46.64	249.06	18.58	-84.7	-88.6	2.9	7.77e-01	0	48	104	0	60	1048575
2026-01-17 14:59:49.66	249.71	18.75	-84.7	-88.6	2.8	7.78e-01	0	48	104	0	60	1048575
2026-01-17 14:59:52.69	250.37	18.91	-84.7	-88.6	3.0	7.76e-01	0	48	104	0	60	1048573
2026-01-17 14:59:55.70	251.03	19.07	-84.7	-88.6	3.2	7.77e-01	0	48	104	0	60	1048566
2026-01-17 14:59:58.73	251.71	19.22	-84.7	-88.6	3.0	7.76e-01	0	48	104	0	60	1048574
2026-01-17 15:00:01.75	252.38	19.38	-84.7	-88.6	2.9	7.77e-01	0	48	104	0	60	1048574
2026-01-17 15:00:04.78	253.07	19.53	-84.7	-88.6	2.4	7.77e-01	0	48	104	0	60	1048574
2026-01-17 15:00:07.80	253.76	19.68	-84.7	-88.6	3.1	7.78e-01	0	48	104	0	60	1048575
2026-01-17 15:00:10.81	254.46	19.82	-84.7	-88.6	2.9	7.77e-01	0	48	104	0	60	1048570
2026-01-17 15:00:13.83	255.16	19.96	-84.7	-88.6	2.8	7.76e-01	0	48	104	0	60	1048570
2026-01-17 15:00:16.85	255.87	20.10	-84.7	-88.6	3.0	7.77e-01	0	48	104	0	60	1048574
2026-01-17 15:00:19.88	256.59	20.23	-84.7	-88.6	2.9	7.77e-01	0	48	104	0	60	1048572
2026-01-17 15:00:22.90	257.31	20.36	-84.7	-88.6	2.6	7.76e-01	0	48	104	0	60	1048575
2026-01-17 15:00:25.92	258.04	20.49	-84.7	-88.6	2.9	7.77e-01	0	48	104	0	60	1048575
2026-01-17 15:00:28.92	258.77	20.61	-84.7	-88.6	3.1	7.77e-01	0	48	104	0	60	1048574
2026-01-17 15:00:31.94	259.51	20.73	-84.7	-88.6	3.1	7.76e-01	0	48	104	0	60	1048573
2026-01-17 15:00:34.97	260.25	20.84	-84.7	-88.6	3.3	7.77e-01	0	48	104	0	60	1048574
2026-01-17 15:00:38.00	261.00	20.95	-84.7	-88.6	2.7	7.78e-01	0	48	104	0	60	1048573
2026-01-17 15:00:41.02	261.76	21.06	-84.7	-88.6	2.9	7.77e-01	0	48	104	0	60	1048564
2026-01-17 15:00:44.04	262.52	21.16	-84.7	-88.6	3.2	7.77e-01	0	48	104	0	60	1048571
2026-01-17 15:00:47.06	263.28	21.25	-84.7	-88.6	2.8	7.76e-01	0	48	104	0	60	1048575
2026-01-17 15:00:50.09	264.05	21.35	-84.7	-88.6	3.6	7.74e-01	0	47	104	0	60	1048564
2026-01-17 15:00:53.11	264.83	21.43	-84.7	-88.6	2.8	7.76e-01	0	48	104	0	60	1048575
2026-01-17 15:00:56.13	265.60	21.51	-84.7	-88.6	2.9	7.77e-01	0	48	104	0	60	1048575
2026-01-17 15:00:59.14	266.38	21.59	-84.7	-88.6	3.1	7.77e-01	0	48	104	0	60	1048570
2026-01-17 15:01:02.17	267.17	21.66	-84.7	-88.6	3.1	7.77e-01	0	48	104	0	60	1048575
2026-01-17 15:01:05.19	267.96	21.73	-84.7	-88.6	3.0	7.76e-01	0	47	104	0	60	1048574
2026-01-17 15:01:08.21	268.75	21.79	-84.7	-88.6	2.8	7.77e-01	0	47	104	0	60	1048575
2026-01-17 15:01:11.23	269.54	21.84	-84.7	-88.6	2.9	7.76e-01	0	48	104	0	60	1048575
2026-01-17 15:01:14.26	270.34	21.89	-84.7	-88.6	3.0	7.72e-01	0	48	104	0	60	1048575
2026-01-17 15:01:17.28	271.14	21.94	-84.7	-88.6	2.9	7.77e-01	0	48	104	0	60	1048574
2026-01-17 15:01:20.30	271.94	21.97	-84.7	-88.6	3.0	7.77e-01	0	48	104	0	60	1048571
2026-01-17 15:01:23.32	272.75	22.01	-84.7	-88.6	3.0	7.77e-01	0	48	104	0	60	1048571
2026-01-17 15:01:26.35	273.55	22.03	-84.7	-88.6	2.9	7.76e-01	0	48	104	0	60	1048574
2026-01-17 15:01:29.36	274.36	22.06	-84.7	-88.6	3.1	7.76e-01	0	47	104	0	60	1048572
2026-01-17 15:01:32.37	275.16	22.07	-84.7	-88.6	3.4	7.70e-01	0	47	104	0	60	1048574
2026-01-17 15:01:35.40	275.97	22.08	-84.7	-88.6	3.0	7.77e-01	0	47	104	0	60	1048575
2026-01-17 15:01:38.42	276.78	22.09	-84.7	-88.6	3.2	7.75e-01	0	48	104	0	60	1048570
2026-01-17 15:01:41.44	277.58	22.09	-84.7	-88.6	3.1	7.77e-01	0	48	104	0	60	1048574
2026-01-17 15:01:44.46	278.39	22.08	-84.7	-88.6	2.7	7.76e-01	0	48	104	0	60	1048574
2026-01-17 15:01:47.48	279.20	22.07	-84.7	-88.6	2.6	7.73e-01	0	47	104	0	60	1048574
2026-01-17 15:01:50.49	280.00	22.05	-84.7	-88.6	3.3	7.77e-01	0	47	104	0	60	1048574
2026-01-17 15:01:53.50	280.80	22.02	-84.7	-88.6	3.0	7.76e-01	0	47	104	0	60	1048571
2026-01-17 15:01:56.52	281.60	21.99	-84.7	-88.6	3.2	7.76e-01	0	47	104	0	60	1048573
2026-01-17 15:01:59.53	282.40	21.96	-84.7	-88.6	3.2	7.76e-01	0	47	104	0	60	1048575
2026-01-17 15:02:02.56	283.21	21.92	-84.7	-88.6	3.3	7.75e-01	0	47	104	0	60	1048575
2026-01-17 15:02:05.57	284.00	21.87	-84.7	-88.6	3.0	7.77e-01	0	47	104	0	60	1048575
2026-01-17 15:02:08.59	284.80	21.82	-84.7	-88.6	3.0	7.77e-01	0	47	104	0	60	1048574
2026-01-17 15:02:11.61	285.59	21.76	-84.7	-88.6	3.1	7.77e-01	0	47	104	0	60	1048574
2026-01-17 15:02:14.63	286.38	21.70	-84.7	-88.6	2.5	7.77e-01	0	48	104	0	60	1048575
2026-01-17 15:02:17.64	287.16	21.63	-84.7	-88.6	2.9	7.77e-01	0	47	104	0	60	1048572
2026-01-17 15:02:20.66	287.94	21.56	-84.7	-88.6	3.1	7.77e-01	0	47	104	0	60	1048574
2026-01-17 15:02:23.68	288.72	21.48	-84.7	-88.6	2.9	7.77e-01	0	47	104	0	60	1048573
2026-01-17 15:02:26.69	289.49	21.40	-84.7	-88.6	3.2	7.77e-01	0	48	104	0	60	1048575
2026-01-17 15:02:29.71	290.26	21.31	-84.7	-88.6	2.9	7.78e-01	0	47	104	0	60	1048572
2026-01-17 15:02:32.73	291.03	21.22	-84.7	-88.6	2.5	7.76e-01	0	47	104	0	60	1048571
2026-01-17 15:02:35.76	291.79	21.12	-84.7	-88.6	3.0	7.78e-01	0	47	104	0	60	1048565
2026-01-17 15:02:38.78	292.55	21.02	-84.7	-88.6	2.9	7.73e-01	0	47	104	0	60	1048575
2026-01-17 15:02:41.80	293.30	20.91	-84.7	-88.6	3.3	7.76e-01	0	47	104	0	60	1048574
2026-01-17 15:02:44.82	294.05	20.80	-84.7	-88.6	3.1	7.77e-01	0	47	104	0	60	1048567
2026-01-17 15:02:47.85	294.79	20.69	-84.7	-88.6	3.6	7.75e-01	0	47	104	0	60	1048573
2026-01-17 15:02:50.87	295.52	20.57	-84.7	-88.6	3.2	7.77e-01	0	47	104	0	60	1048572
2026-01-17 15:02:53.88	296.25	20.45	-84.7	-88.6	3.1	7.76e-01	0	47	104	0	60	1048574
2026-01-17 15:02:56.89	296.97	20.32	-84.7	-88.6	3.5	7.78e-01	0	47	104	0	60	1048571
2026-01-17 15:02:59.90	297.69	20.19	-84.7	-88.6	3.0	7.77e-01	0	47	104	0	60	1048575
2026-01-17 15:03:02.93	298.40	20.05	-84.7	-88.6	3.6	7.77e-01	0	47	104	0	60	1048575
2026-01-17 15:03:05.95	299.11	19.92	-84.7	-88.6	2.9	7.78e-01	0	47	104	0	60	1048575
2026-01-17 15:03:08.97	299.81	19.77	-84.7	-88.6	2.4	7.77e-01	0	47	104	0	60	1048572
2026-01-17 15:03:11.98	300.50	19.63	-84.7	-88.6	3.0	7.78e-01	0	47	104	0	60	1048572
2026-01-17 15:03:15.00	301.18	19.48	-84.7	-88.6	2.8	7.78e-01	0	47	104	0	60	1048568
2026-01-17 15:03:18.02	301.86	19.33	-84.7	-88.6	3.0	7.76e-01	0	47	104	0	60	1048575
2026-01-17 15:03:21.04	302.54	19.18	-84.7	-88.6	2.9	7.76e-01	0	47	104	0	60	1048566
2026-01-17 15:03:24.06	303.20	19.02	-84.7	-88.6	3.0	7.78e-01	0	47	104	0	60	1048569
2026-01-17 15:03:27.08	303.86	18.86	-84.7	-88.6	2.6	7.78e-01	0	47	104	0	60	1048574
2026-01-17 15:03:30.09	304.52	18.70	-84.7	-88.6	3.1	7.76e-01	0	47	104	0	60	1048567
2026-01-17 15:03:33.11	305.16	18.53	-84.7	-88.6	3.4	7.76e-01	0	47	104	0	60	1048568
2026-01-17 15:03:36.13	305.80	18.37	-84.7	-88.6	3.5	7.76e-01	0	47	104	0	60	1048574
2026-01-17 15:03:39.15	306.43	18.20	-84.7	-88.6	2.5	7.76e-01	0	47	104	0	60	1048574
2026-01-17 15:03:42.16	307.06	18.03	-84.7	-88.6	2.5	7.74e-01	0	47	104	0	60	1048574
2026-01-17 15:03:45.17	307.67	17.85	-84.7	-88.6	3.0	7.77e-01	0	47	104	0	60	1048570
2026-01-17 15:03:48.19	308.29	17.68	-84.7	-88.6	3.0	7.78e-01	0	47	104	0	60	1048575
2026-01-17 15:03:51.21	308.89	17.50	-84.7	-88.6	3.2	7.77e-01	0	47	104	0	60	1048575
2026-01-17 15:03:54.24	309.49	17.32	-84.7	-88.6	3.1	7.76e-01	0	47	104	0	60	1048575
2026-01-17 15:03:57.26	310.08	17.14	-84.7	-88.6	3.5	7.78e-01	0	47	104	0	60	1048575
2026-01-17 15:04:00.27	310.66	16.96	-84.7	-88.6	3.3	7.77e-01	0	47	104	0	60	1048570
2026-01-17 15:04:03.28	311.24	16.78	-84.7	-88.6	3.0	7.76e-01	0	47	104	0	60	1048572
2026-01-17 15:04:06.30	311.81	16.59	-84.7	-88.6	2.4	7.71e-01	0	47	104	0	60	1048575
2026-01-17 15:04:09.32	312.37	16.41	-84.7	-88.6	2.6	7.76e-01	0	47	104	0	60	1048575
2026-01-17 15:04:12.33	312.93	16.22	-84.7	-88.6	3.5	7.77e-01	0	47	104	0	60	1048575
2026-01-17 15:04:15.36	313.48	16.03	-84.7	-88.6	2.8	7.77e-01	0	47	104	0	60	1048574
2026-01-17 15:04:18.38	314.02	15.84	-84.7	-88.6	2.9	7.77e-01	0	47	104	0	60	1048573
2026-01-17 15:04:21.40	314.56	15.65	-84.7	-88.6	2.7	7.74e-01	0	47	104	0	60	1048575
2026-01-17 15:04:24.42	315.09	15.46	-84.7	-88.6	3.2	7.77e-01	0	47	104	0	60	1048574
2026-01-17 15:04:27.45	315.62	15.27	-84.7	-88.6	2.5	7.73e-01	0	47	104	0	60	1048567
2026-01-17 15:04:30.46	316.13	15.08	-84.7	-88.6	3.1	7.74e-01	0	47	104	0	60	1048567
2026-01-17 15:04:33.48	316.64	14.89	-84.7	-88.6	3.1	7.76e-01	0	47	104	0	60	1048575
2026-01-17 15:04:36.50	317.15	14.69	-84.7	-88.6	2.9	7.76e-01	0	47	104	0	60	1048574
2026-01-17 15:04:39.53	317.65	14.50	-84.7	-88.6	3.1	7.76e-01	0	47	104	0	60	1048574
2026-01-17 15:04:42.55	318.14	14.31	-84.7	-88.6	2.9	7.77e-01	0	47	104	0	60	1048575
2026-01-17 15:04:45.57	318.62	14.11	-84.7	-88.6	3.0	7.77e-01	0	47	104	0	60	1048566
2026-01-17 15:04:48.59	319.10	13.92	-84.7	-88.6	3.1	7.77e-01	0	47	104	0	60	1048573
2026-01-17 15:04:51.61	319.58	13.72	-84.7	-88.6	2.9	7.77e-01	0	47	104	0	60	1048575
2026-01-17 15:04:54.63	320.05	13.53	-84.7	-88.6	3.0	7.74e-01	0	47	104	0	60	1048571
2026-01-17 15:04:57.65	320.51	13.33	-84.7	-88.6	2.9	7.77e-01	0	47	104	0	60	1048575
2026-01-17 15:05:00.67	320.96	13.14	-84.7	-88.6	3.3	7.76e-01	0	47	104	0	60	1048566
2026-01-17 15:05:03.69	321.41	12.94	-84.7	-88.6	2.8	7.76e-01	0	47	104	0	60	1048572
2026-01-17 15:05:06.71	321.86	12.75	-84.7	-88.6	2.8	7.77e-01	0	47	104	0	60	1048573
2026-01-17 15:05:09.73	322.29	12.55	-84.7	-88.6	3.5	7.77e-01	0	47	104	0	60	1048567
2026-01-17 15:05:12.75	322.73	12.36	-84.7	-88.6	2.6	7.77e-01	0	47	104	0	60	1048573
2026-01-17 15:05:15.78	323.16	12.16	-84.7	-88.6	3.0	7.77e-01	0	47	104	0	60	1048573
2026-01-17 15:05:18.80	323.58	11.97	-84.7	-88.6	2.9	7.77e-01	0	47	104	0	60	1048573
2026-01-17 15:05:21.83	324.00	11.77	-84.7	-88.6	2.5	7.77e-01	0	47	104	0	60	1048574
2026-01-17 15:05:24.85	324.41	11.58	-84.7	-88.6	3.0	7.76e-01	0	48	104	0	60	1048575
2026-01-17 15:05:27.87	324.81	11.38	-84.7	-88.6	3.1	7.75e-01	0	47	104	0	60	1048575
2026-01-17 15:05:30.89	325.21	11.19	-84.7	-88.6	2.9	7.77e-01	0	47	104	0	60	1048571
2026-01-17 15:05:33.91	325.61	10.99	-84.7	-88.6	2.7	7.76e-01	0	47	104	0	60	1048573
2026-01-17 15:05:36.93	326.00	10.80	-84.7	-88.6	3.1	7.77e-01	0	47	104	0	60	1048574
2026-01-17 15:05:39.95	326.39	10.61	-84.7	-88.6	2.9	7.77e-01	0	47	104	0	60	1048573
2026-01-17 15:05:42.97	326.77	10.42	-84.7	-88.6	2.7	7.75e-01	0	47	104	0	60	1048575
2026-01-17 15:05:45.99	327.15	10.22	-84.7	-88.6	3.1	7.76e-01	0	47	104	0	60	1048575
2026-01-17 15:05:49.00	327.52	10.03	-84.7	-88.6	3.0	7.77e-01	0	47	104	0	60	1048570
2026-01-17 15:05:52.03	327.88	9.84	-84.7	-88.6	3.0	7.76e-01	0	47	104	0	60	1048567
2026-01-17 15:05:55.06	328.25	9.65	-84.7	-88.6	2.4	7.76e-01	0	47	104	0	60	1048574
2026-01-17 15:05:58.07	328.60	9.46	-84.7	-88.6	2.9	7.77e-01	0	47	104	0	60	1048570
2026-01-17 15:06:01.09	328.96	9.27	-84.7	-88.6	3.1	7.77e-01	0	47	104	0	60	1048575
2026-01-17 15:06:04.11	329.31	9.08	-84.7	-88.6	3.2	7.76e-01	0	47	104	0	60	1048571
2026-01-17 15:06:07.14	329.65	8.89	-84.7	-88.6	3.1	7.78e-01	0	48	104	0	60	1048574
2026-01-17 15:06:10.16	329.99	8.71	-84.7	-88.6	2.7	7.76e-01	0	47	104	0	60	1048574
2026-01-17 15:06:13.18	330.33	8.52	-84.7	-88.6	3.1	7.76e-01	0	47	104	0	60	1048573
2026-01-17 15:06:16.19	330.66	8.33	-84.7	-88.6	3.3	7.76e-01	0	47	104	0	60	1048575
2026-01-17 15:06:19.21	330.99	8.15	-84.7	-88.6	2.8	7.75e-01	0	47	104	0	60	1048575
2026-01-17 15:06:22.24	331.32	7.96	-84.7	-88.6	3.0	7.77e-01	0	47	104	0	60	1048575
2026-01-17 15:06:25.26	331.64	7.78	-84.7	-88.6	3.3	7.77e-01	0	47	104	0	60	1048572
2026-01-17 15:06:28.29	331.95	7.59	-84.7	-88.6	2.7	7.76e-01	0	47	104	0	60	1048573
2026-01-17 15:06:31.29	332.26	7.41	-84.7	-88.6	3.1	7.76e-01	0	47	104	0	60	1048575
2026-01-17 15:06:34.32	332.58	7.23	-84.7	-88.6	3.1	7.78e-01	0	47	104	0	60	1048573
2026-01-17 15:06:37.34	332.88	7.04	-84.7	-88.6	2.8	7.76e-01	0	47	104	0	60	1048573
2026-01-17 15:06:40.36	333.18	6.86	-84.7	-88.6	3.2	7.78e-01	0	47	104	0	60	1048575
2026-01-17 15:06:43.38	333.48	6.68	-84.7	-88.6	3.2	7.77e-01	0	47	104	0	60	1048574
2026-01-17 15:06:46.40	333.78	6.50	-84.7	-88.6	3.1	7.76e-01	0	47	104	0	60	1048574
2026-01-17 15:06:49.41	334.07	6.32	-84.7	-88.6	3.3	7.76e-01	0	47	104	0	60	1048568
2026-01-17 15:06:52.44	334.36	6.14	-84.7	-88.6	2.4	7.76e-01	0	47	104	0	60	1048573
2026-01-17 15:06:55.46	334.64	5.96	-84.7	-88.6	3.0	7.77e-01	0	47	104	0	60	1048574
2026-01-17 15:06:58.49	334.92	5.79	-84.7	-88.6	2.6	7.77e-01	0	47	104	0	60	1048573
2026-01-17 15:07:01.51	335.20	5.61	-84.7	-88.6	2.9	7.76e-01	0	47	104	0	60	1048571
2026-01-17 15:07:04.52	335.47	5.43	-84.7	-88.6	3.1	7.77e-01	0	47	104	0	60	1048568
2026-01-17 15:07:07.54	335.75	5.26	-84.7	-88.6	3.0	7.78e-01	0	47	104	0	60	1048570
2026-01-17 15:07:10.56	336.02	5.08	-84.7	-88.6	2.9	7.73e-01	0	47	104	0	60	1048571
2026-01-17 15:07:13.58	336.28	4.91	-84.7	-88.6	2.8	7.77e-01	0	48	104	0	60	1048568
2026-01-17 15:07:16.60	336.54	4.73	-84.7	-88.6	3.0	7.76e-01	0	47	104	0	60	1048573
2026-01-17 15:07:19.62	336.80	4.56	-84.7	-88.6	2.5	7.77e-01	0	47	104	0	60	1048575
2026-01-17 15:07:22.65	337.06	4.39	-84.7	-88.6	2.8	7.77e-01	0	47	104	0	60	1048574
2026-01-17 15:07:25.67	337.32	4.22	-84.7	-88.6	3.5	7.77e-01	0	47	104	0	60	1048575
2026-01-17 15:07:28.69	337.57	4.04	-84.7	-88.6	2.6	7.76e-01	0	47	104	0	60	1048575
2026-01-17 15:07:31.71	337.82	3.87	-84.7	-88.6	2.8	7.77e-01	0	47	104	0	60	1048574
2026-01-17 15:07:34.73	338.06	3.70	-84.7	-88.6	3.2	7.77e-01	0	47	104	0	60	1048574
2026-01-17 15:07:37.75	338.31	3.54	-84.7	-88.6	2.9	7.77e-01	0	47	104	0	60	1048568
2026-01-17 15:07:40.77	338.55	3.37	-84.7	-88.6	3.2	7.76e-01	0	47	104	0	60	1048570
2026-01-17 15:07:43.79	338.79	3.20	-84.7	-88.6	3.2	7.76e-01	0	47	104	0	60	1048572
2026-01-17 15:07:46.81	339.02	3.03	-84.7	-88.6	2.7	7.77e-01	0	47	104	0	60	1048570
2026-01-17 15:07:49.83	339.25	2.87	-84.7	-88.6	2.6	7.73e-01	0	47	104	0	60	1048565
2026-01-17 15:07:52.85	339.49	2.70	-84.7	-88.6	3.1	7.78e-01	0	47	104	0	60	1048575
2026-01-17 15:07:55.87	339.71	2.53	-84.7	-88.6	2.9	7.77e-01	0	47	104	0	60	1048575
2026-01-17 15:07:58.89	339.94	2.37	-84.7	-88.6	2.9	7.75e-01	0	47	104	0	60	1048569
2026-01-17 15:08:01.91	340.16	2.21	-84.7	-88.6	2.5	7.77e-01	0	47	104	0	60	1048575
2026-01-17 15:08:04.94	340.39	2.04	-84.7	-88.6	3.1	7.76e-01	0	47	104	0	60	1048574
2026-01-17 15:08:07.96	340.60	1.88	-84.7	-88.6	3.6	7.77e-01	0	47	104	0	60	1048568
2026-01-17 15:08:10.98	340.82	1.72	-84.7	-88.6	3.5	7.78e-01	0	47	104	0	60	1048572
2026-01-17 15:08:13.99	341.04	1.56	-84.7	-88.6	3.3	7.77e-01	0	47	104	0	60	1048573
2026-01-17 15:08:17.02	341.25	1.39	-84.7	-88.6	3.3	7.76e-01	0	47	104	0	60	1048575
2026-01-17 15:08:20.04	341.46	1.23	-84.7	-88.6	2.9	7.76e-01	0	47	104	0	60	1048575
2026-01-17 15:08:23.07	341.67	1.07	-84.7	-88.6	3.1	7.77e-01	0	47	104	0	60	1048574
2026-01-17 15:08:26.09	341.87	0.91	-84.7	-88.6	3.1	7.76e-01	0	47	104	0	60	1048565
2026-01-17 15:08:29.10	342.08	0.76	-84.7	-88.6	3.0	7.76e-01	0	47	104	0	60	1048570
2026-01-17 15:08:32.11	342.28	0.60	-84.7	-88.6	2.5	7.76e-01	0	47	104	0	60	1048572
2026-01-17 15:08:35.13	342.48	0.44	-84.7	-88.6	3.3	7.76e-01	0	47	104	0	60	1048574
2026-01-17 15:08:38.16	342.68	0.28	-84.7	-88.6	2.4	7.77e-01	0	47	104	0	60	1048572
2026-01-17 15:08:41.17	342.87	0.13	-84.7	-88.6	3.2	7.77e-01	0	47	104	0	60	1048574
2026-01-17 15:08:44.19	343.07	-0.03	-84.7	-88.6	1.3	7.77e-01	0	47	104	0	60	1048571

#Closed at: 2026-01-17 15:08:45
#Recorded file [0 MB]: D:/Data/35015_260117_175757.dat