passes_logs/2026/01/17/R3.2S-Naryan-Mar/R3.2S-Naryan-Mar__20260117_191023_TY-39_rec.log

#Pass ID: 20260117_191023_TY-39
#Satellite: TY-39
#Configuration: TY-39
#almurnet v.1.7.20240730
#Start time: 2026-01-17 19:15:28

#Version: 2.2.20231116
#Station: R3.2S-Naryan-Mar
#Location: 53.008057 lon 67.646978 lat
#TLE: 1 51832U 22019J   26016.93397770  .00000681  00000-0  35057-4 0  9992
#TLE: 2 51832  97.3651  83.5773 0009934  46.4665 313.7394 15.19639081214821

#Time	Az	El	Level	Level2	SNR	BER	BlckErr	Temp	State	Recorded	gain1	gain2
2026-01-17 19:15:28.66	282.63	13.45	-83.5	-79.0	2.2	0.00e+00	0	48	0	0	60	1048574
2026-01-17 19:15:30.66	283.23	13.44	-83.5	-79.0	2.4	0.00e+00	0	49	104	0	60	1048570
2026-01-17 19:15:32.68	283.83	13.42	-83.5	-79.0	2.5	0.00e+00	0	49	104	0	60	1048575
2026-01-17 19:15:34.69	284.43	13.40	-83.5	-79.0	2.5	0.00e+00	0	49	104	0	60	1048565
2026-01-17 19:15:36.71	285.03	13.38	-83.1	-79.0	2.4	0.00e+00	0	49	104	0	60	1048571
2026-01-17 19:15:38.72	285.62	13.36	-83.5	-79.0	2.3	0.00e+00	0	49	104	0	60	1048573
2026-01-17 19:15:40.73	286.21	13.33	-83.1	-79.0	2.4	0.00e+00	0	49	104	0	60	1048574
2026-01-17 19:15:42.74	286.81	13.30	-83.5	-79.0	2.5	0.00e+00	0	49	104	0	60	1048575
2026-01-17 19:15:44.76	287.40	13.27	-83.5	-79.0	2.4	0.00e+00	0	49	104	0	60	1048574
2026-01-17 19:15:46.77	287.99	13.23	-83.1	-79.0	2.4	0.00e+00	0	49	104	0	60	1048569
2026-01-17 19:15:48.79	288.58	13.20	-83.5	-79.0	2.3	0.00e+00	0	49	104	0	60	1048575
2026-01-17 19:15:50.81	289.17	13.16	-83.1	-79.0	2.4	0.00e+00	0	49	104	0	60	1048570
2026-01-17 19:15:52.82	289.75	13.12	-83.5	-79.0	2.4	0.00e+00	0	49	104	0	60	1048575
2026-01-17 19:15:54.83	290.33	13.08	-83.1	-79.0	2.4	0.00e+00	0	49	104	0	60	1048573
2026-01-17 19:15:56.84	290.91	13.03	-83.5	-79.0	2.5	0.00e+00	0	49	104	0	60	1048574
2026-01-17 19:15:58.85	291.49	12.98	-83.5	-79.0	2.3	0.00e+00	0	49	104	0	60	1048572
2026-01-17 19:16:00.86	292.06	12.93	-83.1	-79.0	2.4	0.00e+00	0	49	104	0	60	1048574
2026-01-17 19:16:02.88	292.64	12.88	-83.5	-79.0	2.4	0.00e+00	0	49	104	0	60	1048575
2026-01-17 19:16:04.89	293.21	12.83	-83.1	-79.0	2.5	0.00e+00	0	49	104	0	60	1048575
2026-01-17 19:16:06.91	293.78	12.77	-83.1	-79.0	2.3	0.00e+00	0	49	104	0	60	1048575
2026-01-17 19:16:08.92	294.35	12.71	-83.5	-79.0	2.3	0.00e+00	0	49	104	0	60	1048575
2026-01-17 19:16:10.93	294.91	12.65	-83.5	-79.0	2.4	0.00e+00	0	49	104	0	60	1048573
2026-01-17 19:16:12.95	295.47	12.59	-83.5	-79.0	2.4	0.00e+00	0	49	104	0	60	1048571
2026-01-17 19:16:14.96	296.03	12.53	-82.8	-79.0	2.3	0.00e+00	0	49	104	0	60	1048574
2026-01-17 19:16:16.96	296.58	12.46	-83.5	-79.0	2.3	0.00e+00	0	49	104	0	60	1048575
2026-01-17 19:16:18.98	297.13	12.39	-82.8	-79.0	2.4	0.00e+00	0	49	104	0	60	1048574
2026-01-17 19:16:21.00	297.68	12.32	-83.5	-79.0	2.4	0.00e+00	0	49	104	0	60	1048574
2026-01-17 19:16:23.01	298.23	12.25	-83.5	-79.0	2.3	0.00e+00	0	49	104	0	60	1048575
2026-01-17 19:16:25.03	298.77	12.18	-83.1	-79.0	2.4	0.00e+00	0	49	104	0	60	1048572
2026-01-17 19:16:27.04	299.31	12.10	-83.5	-79.0	2.5	0.00e+00	0	49	104	0	60	1048573
2026-01-17 19:16:29.05	299.84	12.03	-83.1	-79.0	2.4	0.00e+00	0	49	104	0	60	1048565
2026-01-17 19:16:31.06	300.37	11.95	-83.5	-79.0	2.4	0.00e+00	0	49	104	0	60	1048571
2026-01-17 19:16:33.07	300.90	11.87	-83.1	-79.0	2.4	0.00e+00	0	49	104	0	60	1048566
2026-01-17 19:16:35.09	301.43	11.79	-83.5	-79.0	2.5	0.00e+00	0	49	104	0	60	1048572
2026-01-17 19:16:37.10	301.95	11.70	-83.5	-79.0	2.3	0.00e+00	0	49	104	0	60	1048571
2026-01-17 19:16:39.11	302.47	11.62	-83.1	-79.0	2.3	0.00e+00	0	49	104	0	60	1048575
2026-01-17 19:16:41.13	302.98	11.53	-83.5	-79.0	2.5	0.00e+00	0	49	104	0	60	1048574
2026-01-17 19:16:43.15	303.49	11.45	-83.1	-79.0	2.4	0.00e+00	0	49	104	0	60	1048574
2026-01-17 19:16:45.16	304.00	11.36	-83.5	-79.0	2.4	0.00e+00	0	49	104	0	60	1048575
2026-01-17 19:16:47.17	304.50	11.27	-83.5	-79.0	2.4	0.00e+00	0	49	104	0	60	1048567
2026-01-17 19:16:49.18	305.00	11.18	-83.5	-79.0	2.4	0.00e+00	0	49	104	0	60	1048575
2026-01-17 19:16:51.19	305.50	11.08	-83.5	-79.0	2.3	0.00e+00	0	49	104	0	60	1048572
2026-01-17 19:16:53.21	305.99	10.99	-83.1	-79.0	2.4	0.00e+00	0	49	104	0	60	1048575
2026-01-17 19:16:55.22	306.48	10.90	-83.5	-79.0	2.4	0.00e+00	0	49	104	0	60	1048574
2026-01-17 19:16:57.23	306.96	10.80	-83.1	-79.0	2.4	0.00e+00	0	49	104	0	60	1048568
2026-01-17 19:16:59.25	307.45	10.70	-83.1	-79.0	2.4	0.00e+00	0	49	104	0	60	1048575
2026-01-17 19:17:01.26	307.92	10.61	-83.1	-79.0	2.5	0.00e+00	0	49	104	0	60	1048569
2026-01-17 19:17:03.28	308.40	10.51	-83.5	-79.0	2.4	0.00e+00	0	49	104	0	60	1048575
2026-01-17 19:17:05.29	308.87	10.41	-83.1	-79.0	2.4	0.00e+00	0	49	104	0	60	1048575
2026-01-17 19:17:07.31	309.33	10.31	-83.1	-79.0	2.4	0.00e+00	0	49	104	0	60	1048573
2026-01-17 19:17:09.32	309.79	10.21	-83.5	-79.0	2.3	0.00e+00	0	49	104	0	60	1048574
2026-01-17 19:17:11.34	310.25	10.10	-83.1	-79.0	2.4	0.00e+00	0	49	104	0	60	1048575
2026-01-17 19:17:13.36	310.71	10.00	-83.5	-79.0	2.4	0.00e+00	0	48	104	0	60	1048575
2026-01-17 19:17:15.37	311.16	9.90	-83.5	-79.0	2.4	0.00e+00	0	49	104	0	60	1048572
2026-01-17 19:17:17.39	311.61	9.79	-83.5	-79.0	2.4	0.00e+00	0	49	104	0	60	1048574
2026-01-17 19:17:19.40	312.05	9.69	-83.5	-79.0	2.4	0.00e+00	0	49	104	0	60	1048572
2026-01-17 19:17:21.41	312.49	9.58	-83.1	-79.0	2.4	0.00e+00	0	49	104	0	60	1048575
2026-01-17 19:17:23.42	312.92	9.47	-83.1	-79.0	2.4	0.00e+00	0	49	104	0	60	1048575
2026-01-17 19:17:25.44	313.35	9.37	-83.1	-79.0	2.5	0.00e+00	0	49	104	0	60	1048573
2026-01-17 19:17:27.45	313.78	9.26	-83.5	-79.0	2.4	0.00e+00	0	49	104	0	60	1048574
2026-01-17 19:17:29.46	314.20	9.15	-83.5	-79.0	2.4	0.00e+00	0	49	104	0	60	1048574
2026-01-17 19:17:31.48	314.62	9.04	-83.5	-79.0	2.2	0.00e+00	0	49	104	0	60	1048571
2026-01-17 19:17:33.48	315.03	8.93	-83.5	-79.0	2.4	0.00e+00	0	49	104	0	60	1048575
2026-01-17 19:17:35.48	315.44	8.82	-83.1	-79.0	2.4	0.00e+00	0	49	104	0	60	1048574
2026-01-17 19:17:37.49	315.85	8.71	-83.5	-79.0	2.3	0.00e+00	0	49	104	0	60	1048568
2026-01-17 19:17:39.51	316.26	8.60	-83.5	-79.0	2.4	0.00e+00	0	49	104	0	60	1048574
2026-01-17 19:17:41.51	316.65	8.49	-83.5	-79.0	2.5	0.00e+00	0	49	104	0	60	1048572
2026-01-17 19:17:43.53	317.05	8.38	-83.5	-79.0	2.4	0.00e+00	0	49	104	0	60	1048574
2026-01-17 19:17:45.54	317.45	8.27	-83.5	-79.0	2.4	0.00e+00	0	49	104	0	60	1048571
2026-01-17 19:17:47.55	317.83	8.16	-83.5	-79.0	2.4	0.00e+00	0	49	104	0	60	1048574
2026-01-17 19:17:49.57	318.22	8.04	-83.1	-79.0	2.4	0.00e+00	0	49	104	0	60	1048556
2026-01-17 19:17:51.58	318.60	7.93	-83.5	-79.0	2.4	0.00e+00	0	49	104	0	60	1048571
2026-01-17 19:17:53.60	318.98	7.82	-83.5	-79.0	2.4	0.00e+00	0	49	104	0	60	1048572
2026-01-17 19:17:55.61	319.36	7.70	-83.5	-79.0	2.3	0.00e+00	0	49	104	0	60	1048575
2026-01-17 19:17:57.62	319.73	7.59	-83.5	-79.0	2.4	0.00e+00	0	49	104	0	60	1048575
2026-01-17 19:17:59.64	320.10	7.48	-83.1	-79.0	2.5	0.00e+00	0	49	104	0	60	1048573
2026-01-17 19:18:01.65	320.46	7.36	-83.5	-79.0	2.4	0.00e+00	0	49	104	0	60	1048570
2026-01-17 19:18:03.67	320.82	7.25	-83.1	-79.0	2.3	0.00e+00	0	49	104	0	60	1048574
2026-01-17 19:18:05.69	321.18	7.13	-83.5	-79.0	2.4	0.00e+00	0	49	104	0	60	1048575
2026-01-17 19:18:07.70	321.54	7.02	-83.5	-79.0	2.5	0.00e+00	0	49	104	0	60	1048574
2026-01-17 19:18:09.70	321.89	6.91	-83.1	-79.0	2.3	0.00e+00	0	49	104	0	60	1048573
2026-01-17 19:18:11.72	322.23	6.79	-83.5	-79.0	2.5	0.00e+00	0	49	104	0	60	1048573
2026-01-17 19:18:13.73	322.58	6.68	-83.1	-79.0	2.4	0.00e+00	0	49	104	0	60	1048573
2026-01-17 19:18:15.74	322.92	6.56	-83.5	-79.0	2.4	0.00e+00	0	49	104	0	60	1048575
2026-01-17 19:18:17.76	323.26	6.45	-83.5	-79.0	2.4	0.00e+00	0	49	104	0	60	1048575
2026-01-17 19:18:19.78	323.59	6.33	-83.5	-79.0	2.4	0.00e+00	0	49	104	0	60	1048573
2026-01-17 19:18:21.79	323.92	6.22	-83.1	-79.0	2.5	0.00e+00	0	49	104	0	60	1048575
2026-01-17 19:18:23.80	324.25	6.11	-83.5	-79.0	2.5	0.00e+00	0	49	104	0	60	1048575
2026-01-17 19:18:25.81	324.58	5.99	-83.5	-79.0	2.3	0.00e+00	0	49	104	0	60	1048574
2026-01-17 19:18:27.82	324.90	5.88	-82.8	-79.0	2.4	0.00e+00	0	49	104	0	60	1048570
2026-01-17 19:18:29.83	325.22	5.76	-83.5	-79.0	2.4	0.00e+00	0	49	104	0	60	1048558
2026-01-17 19:18:31.84	325.53	5.65	-83.1	-79.0	2.4	0.00e+00	0	49	104	0	60	1048571
2026-01-17 19:18:33.86	325.84	5.53	-83.5	-79.0	2.4	0.00e+00	0	49	104	0	60	1048572
2026-01-17 19:18:35.87	326.15	5.42	-83.5	-79.0	2.3	0.00e+00	0	49	104	0	60	1048575
2026-01-17 19:18:37.89	326.46	5.31	-83.1	-79.0	2.4	0.00e+00	0	49	104	0	60	1048564
2026-01-17 19:18:39.89	326.76	5.19	-83.5	-79.0	2.4	0.00e+00	0	49	104	0	60	1048574
2026-01-17 19:18:41.90	327.06	5.08	-83.1	-79.0	2.4	0.00e+00	0	49	104	0	60	1048571
2026-01-17 19:18:43.91	327.36	4.96	-83.5	-79.0	2.4	0.00e+00	0	49	104	0	60	1048574
2026-01-17 19:18:45.93	327.66	4.85	-83.5	-79.0	2.4	0.00e+00	0	49	104	0	60	1048562
2026-01-17 19:18:47.94	327.95	4.74	-83.5	-79.0	2.5	0.00e+00	0	49	104	0	60	1048573
2026-01-17 19:18:49.96	328.24	4.62	-83.5	-79.0	2.5	0.00e+00	0	49	104	0	60	1048568
2026-01-17 19:18:51.97	328.53	4.51	-83.1	-79.0	2.4	0.00e+00	0	49	104	0	60	1048575
2026-01-17 19:18:53.99	328.81	4.40	-83.5	-79.0	2.5	0.00e+00	0	49	104	0	60	1048572
2026-01-17 19:18:56.01	329.09	4.28	-83.1	-79.0	2.6	0.00e+00	0	49	104	0	60	1048573
2026-01-17 19:18:58.01	329.37	4.17	-83.5	-79.0	2.5	0.00e+00	0	49	104	0	60	1048575
2026-01-17 19:19:00.03	329.65	4.06	-83.5	-79.0	2.3	0.00e+00	0	49	104	0	60	1048566
2026-01-17 19:19:02.04	329.92	3.95	-83.5	-79.0	2.3	0.00e+00	0	49	104	0	60	1048571
2026-01-17 19:19:04.03	330.19	3.84	-83.5	-79.0	2.4	0.00e+00	0	49	104	0	60	1048575
2026-01-17 19:19:06.03	330.46	3.72	-83.1	-79.0	2.4	0.00e+00	0	49	104	0	60	1048570
2026-01-17 19:19:08.04	330.72	3.61	-83.5	-79.0	2.4	0.00e+00	0	49	104	0	60	1048574
2026-01-17 19:19:10.06	330.99	3.50	-83.1	-79.0	2.3	0.00e+00	0	49	104	0	60	1048566
2026-01-17 19:19:12.08	331.25	3.39	-83.5	-79.0	2.4	0.00e+00	0	49	104	0	60	1048572
2026-01-17 19:19:14.09	331.51	3.28	-83.5	-79.0	2.5	0.00e+00	0	49	104	0	60	1048571
2026-01-17 19:19:16.09	331.76	3.17	-83.1	-79.0	2.3	0.00e+00	0	49	104	0	60	1048574
2026-01-17 19:19:18.11	332.02	3.05	-83.5	-79.0	2.4	0.00e+00	0	49	104	0	60	1048568
2026-01-17 19:19:20.12	332.27	2.94	-82.8	-79.0	2.4	0.00e+00	0	49	104	0	60	1048572
2026-01-17 19:19:22.14	332.52	2.83	-83.5	-79.0	2.3	0.00e+00	0	49	104	0	60	1048574
2026-01-17 19:19:24.15	332.76	2.72	-83.1	-79.0	2.5	0.00e+00	0	49	104	0	60	1048571
2026-01-17 19:19:26.17	333.01	2.61	-83.5	-79.0	2.4	0.00e+00	0	49	104	0	60	1048564
2026-01-17 19:19:28.18	333.25	2.50	-83.5	-79.0	2.4	0.00e+00	0	49	104	0	60	1048574
2026-01-17 19:19:30.19	333.49	2.39	-83.1	-79.0	2.5	0.00e+00	0	49	104	0	60	1048561
2026-01-17 19:19:32.20	333.73	2.28	-83.5	-79.0	2.5	0.00e+00	0	49	104	0	60	1048570
2026-01-17 19:19:34.22	333.97	2.17	-83.1	-79.0	2.4	0.00e+00	0	49	104	0	60	1048570
2026-01-17 19:19:36.24	334.20	2.07	-83.5	-79.0	2.3	0.00e+00	0	49	104	0	60	1048574
2026-01-17 19:19:38.24	334.43	1.96	-83.1	-79.0	2.4	0.00e+00	0	49	104	0	60	1048571
2026-01-17 19:19:40.25	334.66	1.85	-83.5	-79.0	2.4	0.00e+00	0	49	104	0	60	1048574
2026-01-17 19:19:42.27	334.89	1.74	-83.5	-79.0	2.4	0.00e+00	0	49	104	0	60	1048575
2026-01-17 19:19:44.28	335.11	1.63	-82.8	-79.0	2.3	0.00e+00	0	49	104	0	60	1048575
2026-01-17 19:19:46.30	335.34	1.52	-83.5	-79.0	2.4	0.00e+00	0	49	104	0	60	1048560
2026-01-17 19:19:48.30	335.56	1.42	-83.1	-79.0	2.4	0.00e+00	0	49	104	0	60	1048575
2026-01-17 19:19:50.32	335.78	1.31	-83.5	-79.0	2.3	0.00e+00	0	49	104	0	60	1048574
2026-01-17 19:19:52.33	336.00	1.20	-83.5	-79.0	2.4	0.00e+00	0	49	104	0	60	1048569
2026-01-17 19:19:54.35	336.21	1.10	-83.5	-79.0	2.4	0.00e+00	0	49	104	0	60	1048571
2026-01-17 19:19:56.36	336.43	0.99	-83.5	-79.0	2.3	0.00e+00	0	49	104	0	60	1048575
2026-01-17 19:19:58.37	336.64	0.88	-83.1	-79.0	2.4	0.00e+00	0	49	104	0	60	1048574
2026-01-17 19:20:00.39	336.85	0.78	-83.5	-79.0	2.4	0.00e+00	0	49	104	0	60	1048573
2026-01-17 19:20:02.40	337.06	0.67	-83.1	-79.0	2.4	0.00e+00	0	49	104	0	60	1048570
2026-01-17 19:20:04.41	337.26	0.57	-83.5	-79.0	2.4	0.00e+00	0	49	104	0	60	1048570
2026-01-17 19:20:06.43	337.47	0.46	-83.5	-79.0	2.4	0.00e+00	0	49	104	0	60	1048575
2026-01-17 19:20:08.44	337.67	0.36	-83.1	-79.0	2.4	0.00e+00	0	49	104	0	60	1048574
2026-01-17 19:20:10.46	337.87	0.25	-83.5	-79.0	2.4	0.00e+00	0	49	104	0	60	1048574
2026-01-17 19:20:12.48	338.07	0.15	-83.1	-79.0	2.4	0.00e+00	0	49	104	0	60	1048568
2026-01-17 19:20:14.49	338.27	0.04	-83.5	-79.0	2.4	0.00e+00	0	49	104	0	60	1048575
2026-01-17 19:20:16.51	338.47	-0.06	-83.1	-79.0	2.4	0.00e+00	0	49	104	0	60	1048575

#Closed at: 2026-01-17 19:20:18
#Recorded file [0 MB]: D:/Data/35015_260117_221528.dat