passes_logs/2026/01/17/R3.2S-Naryan-Mar/R3.2S-Naryan-Mar__20260117_144229_TY-42_rec.log

#Pass ID: 20260117_144229_TY-42
#Satellite: TY-42
#Configuration: TY-42
#almurnet v.1.7.20240730
#Start time: 2026-01-17 14:42:30

#Version: 2.2.20231116
#Station: R3.2S-Naryan-Mar
#Location: 53.008057 lon 67.646978 lat
#TLE: 1 64048U 25103A   26017.21478009  .00008006  00000-0  38191-3 0 09999
#TLE: 2 64048 097.4122 092.5907 0001889 091.4381 313.8037 15.19150120 37159

#Time	Az	El	Level	Level2	SNR	BER	BlckErr	Temp	State	Recorded	gain1	gain2
2026-01-17 14:42:30.92	85.48	0.09	-83.5	-79.0	2.3	0.00e+00	0	45	0	0	60	1048570
2026-01-17 14:42:33.93	85.21	0.25	-83.5	-79.0	2.4	0.00e+00	0	46	104	0	60	1048568
2026-01-17 14:42:36.95	84.92	0.42	-82.8	-79.0	2.4	0.00e+00	0	46	104	0	60	1048575
2026-01-17 14:42:39.96	84.64	0.58	-83.5	-79.0	2.2	0.00e+00	0	46	104	0	60	1048570
2026-01-17 14:42:42.97	84.35	0.74	-83.5	-79.0	2.6	0.00e+00	0	47	104	0	60	1048570
2026-01-17 14:42:45.99	84.06	0.91	-83.5	-79.0	2.4	0.00e+00	0	47	104	0	60	1048574
2026-01-17 14:42:49.01	83.76	1.08	-83.5	-79.0	2.4	0.00e+00	0	47	104	0	60	1048575
2026-01-17 14:42:52.03	83.45	1.24	-82.8	-79.0	2.4	0.00e+00	0	47	104	0	60	1048571
2026-01-17 14:42:55.04	83.15	1.41	-83.5	-79.0	2.6	0.00e+00	0	47	104	0	60	1048573
2026-01-17 14:42:58.06	82.83	1.58	-83.5	-79.0	2.5	0.00e+00	0	47	104	0	60	1048575
2026-01-17 14:43:01.08	82.52	1.75	-83.1	-79.0	2.5	0.00e+00	0	47	104	0	60	1048570
2026-01-17 14:43:04.09	82.20	1.92	-83.5	-79.0	2.5	0.00e+00	0	47	104	0	60	1048575
2026-01-17 14:43:07.11	81.87	2.09	-83.1	-79.0	2.4	0.00e+00	0	47	104	0	60	1048575
2026-01-17 14:43:10.13	81.54	2.26	-83.1	-79.0	2.5	0.00e+00	0	47	104	0	60	1048572
2026-01-17 14:43:13.15	81.20	2.43	-83.5	-79.0	2.3	0.00e+00	0	47	104	0	60	1048567
2026-01-17 14:43:16.16	80.86	2.60	-83.1	-79.0	2.4	0.00e+00	0	47	104	0	60	1048575
2026-01-17 14:43:19.19	80.51	2.77	-83.5	-79.0	2.4	0.00e+00	0	47	104	0	60	1048568
2026-01-17 14:43:22.21	80.16	2.94	-83.5	-79.0	2.3	0.00e+00	0	47	104	0	60	1048569
2026-01-17 14:43:25.22	79.80	3.12	-82.8	-79.0	2.7	0.00e+00	0	47	104	0	60	1048567
2026-01-17 14:43:28.23	79.44	3.29	-83.5	-79.0	2.3	0.00e+00	0	47	104	0	60	1048574
2026-01-17 14:43:31.24	79.07	3.46	-83.5	-79.0	2.7	0.00e+00	0	47	104	0	60	1048574
2026-01-17 14:43:34.26	78.70	3.64	-83.1	-79.0	2.3	0.00e+00	0	47	104	0	60	1048569
2026-01-17 14:43:37.28	78.32	3.81	-83.5	-79.0	2.5	0.00e+00	0	47	104	0	60	1048570
2026-01-17 14:43:40.30	77.93	3.99	-83.5	-79.0	2.4	0.00e+00	0	47	104	0	60	1048575
2026-01-17 14:43:43.31	77.54	4.17	-83.1	-79.0	2.6	0.00e+00	0	47	104	0	60	1048575
2026-01-17 14:43:46.32	77.14	4.34	-83.5	-79.0	2.1	0.00e+00	0	48	104	0	60	1048565
2026-01-17 14:43:49.33	76.74	4.52	-83.1	-79.0	2.4	0.00e+00	0	47	104	0	60	1048566
2026-01-17 14:43:52.35	76.32	4.70	-83.5	-79.0	2.4	0.00e+00	0	48	104	0	60	1048574
2026-01-17 14:43:55.37	75.91	4.88	-83.5	-79.0	2.4	0.00e+00	0	47	104	0	60	1048575
2026-01-17 14:43:58.39	75.48	5.05	-83.1	-79.0	2.5	0.00e+00	0	48	104	0	60	1048571
2026-01-17 14:44:01.41	75.05	5.23	-83.5	-79.0	2.4	0.00e+00	0	48	104	0	60	1048570
2026-01-17 14:44:04.43	74.61	5.41	-83.5	-79.0	2.5	0.00e+00	0	48	104	0	60	1048572
2026-01-17 14:44:07.44	74.17	5.59	-82.8	-79.0	2.3	0.00e+00	0	48	104	0	60	1048574
2026-01-17 14:44:10.46	73.72	5.77	-83.5	-79.0	2.4	0.00e+00	0	48	104	0	60	1048574
2026-01-17 14:44:13.49	73.26	5.95	-83.5	-79.0	2.4	0.00e+00	0	48	104	0	60	1048572
2026-01-17 14:44:16.51	72.79	6.13	-83.1	-79.0	2.2	0.00e+00	0	48	104	0	60	1048568
2026-01-17 14:44:19.52	72.32	6.31	-83.5	-79.0	2.3	0.00e+00	0	48	104	0	60	1048570
2026-01-17 14:44:22.54	71.84	6.49	-83.1	-79.0	2.4	0.00e+00	0	48	104	0	60	1048575
2026-01-17 14:44:25.57	71.34	6.67	-83.5	-79.0	2.5	0.00e+00	0	48	104	0	60	1048573
2026-01-17 14:44:28.59	70.85	6.85	-83.5	-79.0	2.1	0.00e+00	0	48	104	0	60	1048574
2026-01-17 14:44:31.61	70.34	7.03	-83.1	-79.0	2.3	0.00e+00	0	48	104	0	60	1048575
2026-01-17 14:44:34.63	69.83	7.21	-83.5	-79.0	2.3	0.00e+00	0	48	104	0	60	1048568
2026-01-17 14:44:37.65	69.31	7.39	-83.5	-79.0	2.2	0.00e+00	0	48	104	0	60	1048574
2026-01-17 14:44:40.66	68.78	7.57	-83.1	-79.0	2.3	0.00e+00	0	48	104	0	60	1048569
2026-01-17 14:44:43.69	68.24	7.75	-83.5	-79.0	2.3	0.00e+00	0	48	104	0	60	1048574
2026-01-17 14:44:46.71	67.70	7.93	-83.1	-79.0	2.5	0.00e+00	0	48	104	0	60	1048575
2026-01-17 14:44:49.73	67.14	8.11	-83.5	-79.0	2.4	0.00e+00	0	48	104	0	60	1048572
2026-01-17 14:44:52.75	66.58	8.29	-83.5	-79.0	2.5	0.00e+00	0	48	104	0	60	1048571
2026-01-17 14:44:55.77	66.01	8.47	-83.1	-79.0	2.4	0.00e+00	0	48	104	0	60	1048573
2026-01-17 14:44:58.79	65.43	8.65	-83.5	-79.0	2.5	0.00e+00	0	48	104	0	60	1048568
2026-01-17 14:45:01.82	64.84	8.82	-83.5	-79.0	2.5	0.00e+00	0	48	104	0	60	1048571
2026-01-17 14:45:04.84	64.24	9.00	-83.1	-79.0	2.5	0.00e+00	0	48	104	0	60	1048574
2026-01-17 14:45:07.86	63.63	9.17	-83.5	-79.0	2.4	0.00e+00	0	48	104	0	60	1048574
2026-01-17 14:45:10.87	63.02	9.34	-83.5	-79.0	2.6	0.00e+00	0	48	104	0	60	1048573
2026-01-17 14:45:13.90	62.39	9.52	-83.1	-79.0	2.4	0.00e+00	0	48	104	0	60	1048573
2026-01-17 14:45:16.92	61.76	9.69	-83.5	-79.0	2.3	0.00e+00	0	48	104	0	60	1048571
2026-01-17 14:45:19.95	61.11	9.86	-83.5	-79.0	2.4	0.00e+00	0	48	104	0	60	1048555
2026-01-17 14:45:22.97	60.46	10.03	-83.5	-79.0	2.4	0.00e+00	0	48	104	0	60	1048575
2026-01-17 14:45:25.99	59.80	10.19	-83.5	-79.0	2.6	0.00e+00	0	48	104	0	60	1048573
2026-01-17 14:45:29.01	59.13	10.36	-83.1	-79.0	2.4	0.00e+00	0	48	104	0	60	1048571
2026-01-17 14:45:32.03	58.45	10.52	-83.5	-79.0	2.4	0.00e+00	0	48	104	0	60	1048574
2026-01-17 14:45:35.05	57.76	10.68	-83.5	-79.0	2.4	0.00e+00	0	48	104	0	60	1048571
2026-01-17 14:45:38.08	57.06	10.84	-83.1	-79.0	2.6	0.00e+00	0	48	104	0	60	1048568
2026-01-17 14:45:41.09	56.35	11.00	-83.5	-79.0	2.4	0.00e+00	0	48	104	0	60	1048575
2026-01-17 14:45:44.11	55.63	11.15	-83.5	-79.0	2.4	0.00e+00	0	48	104	0	60	1048567
2026-01-17 14:45:47.13	54.91	11.30	-83.1	-79.0	2.7	0.00e+00	0	48	104	0	60	1048572
2026-01-17 14:45:50.15	54.17	11.45	-83.1	-79.0	2.4	0.00e+00	0	48	104	0	60	1048563
2026-01-17 14:45:53.17	53.43	11.60	-83.5	-79.0	2.3	0.00e+00	0	48	104	0	60	1048574
2026-01-17 14:45:56.19	52.67	11.74	-83.1	-79.0	2.4	0.00e+00	0	48	104	0	60	1048574
2026-01-17 14:45:59.20	51.91	11.88	-83.5	-79.0	2.5	0.00e+00	0	48	104	0	60	1048572
2026-01-17 14:46:02.23	51.14	12.02	-83.1	-79.0	2.4	0.00e+00	0	48	104	0	60	1048572
2026-01-17 14:46:05.25	50.36	12.15	-83.5	-79.0	2.4	0.00e+00	0	48	104	0	60	1048572
2026-01-17 14:46:08.26	49.57	12.28	-83.5	-79.0	2.2	0.00e+00	0	48	104	0	60	1048575
2026-01-17 14:46:11.29	48.77	12.41	-83.1	-79.0	2.3	0.00e+00	0	48	104	0	60	1048573
2026-01-17 14:46:14.31	47.97	12.53	-83.1	-79.0	2.4	0.00e+00	0	48	104	0	60	1048573
2026-01-17 14:46:17.32	47.16	12.65	-83.5	-79.0	2.7	0.00e+00	0	48	104	0	60	1048572
2026-01-17 14:46:20.34	46.34	12.76	-83.5	-79.0	2.6	0.00e+00	0	48	104	0	60	1048566
2026-01-17 14:46:23.36	45.51	12.87	-83.5	-79.0	2.4	0.00e+00	0	48	104	0	60	1048569
2026-01-17 14:46:26.38	44.67	12.98	-83.1	-79.0	2.4	0.00e+00	0	48	104	0	60	1048573
2026-01-17 14:46:29.39	43.83	13.08	-83.5	-79.0	2.3	0.00e+00	0	48	104	0	60	1048569
2026-01-17 14:46:32.41	42.98	13.18	-83.5	-79.0	2.4	0.00e+00	0	48	104	0	60	1048573
2026-01-17 14:46:35.43	42.13	13.27	-83.1	-79.0	2.6	0.00e+00	0	48	104	0	60	1048568
2026-01-17 14:46:38.45	41.26	13.35	-83.5	-79.0	2.4	0.00e+00	0	48	104	0	60	1048572
2026-01-17 14:46:41.48	40.39	13.43	-83.5	-79.0	2.7	0.00e+00	0	49	104	0	60	1048575
2026-01-17 14:46:44.50	39.52	13.51	-83.1	-79.0	2.3	0.00e+00	0	48	104	0	60	1048574
2026-01-17 14:46:47.51	38.65	13.58	-83.5	-79.0	2.2	0.00e+00	0	48	104	0	60	1048574
2026-01-17 14:46:50.54	37.76	13.64	-83.5	-79.0	2.5	0.00e+00	0	48	104	0	60	1048560
2026-01-17 14:46:53.56	36.87	13.70	-83.1	-79.0	2.4	0.00e+00	0	48	104	0	60	1048575
2026-01-17 14:46:56.58	35.98	13.75	-83.5	-79.0	2.3	0.00e+00	0	49	104	0	60	1048575
2026-01-17 14:46:59.61	35.08	13.80	-83.1	-79.0	2.5	0.00e+00	0	49	104	0	60	1048571
2026-01-17 14:47:02.63	34.18	13.84	-83.5	-79.0	2.3	0.00e+00	0	49	104	0	60	1048572
2026-01-17 14:47:05.65	33.28	13.88	-83.5	-79.0	2.6	0.00e+00	0	49	104	0	60	1048571
2026-01-17 14:47:08.67	32.38	13.91	-83.1	-79.0	2.3	0.00e+00	0	48	104	0	60	1048571
2026-01-17 14:47:11.69	31.48	13.93	-83.5	-79.0	2.5	0.00e+00	0	49	104	0	60	1048573
2026-01-17 14:47:14.72	30.57	13.94	-83.5	-79.0	2.4	0.00e+00	0	49	104	0	60	1048570
2026-01-17 14:47:17.74	29.66	13.96	-82.8	-79.0	2.5	0.00e+00	0	48	104	0	60	1048574
2026-01-17 14:47:20.76	28.75	13.96	-83.5	-79.0	2.5	0.00e+00	0	49	104	0	60	1048573
2026-01-17 14:47:23.78	27.84	13.96	-83.5	-79.0	2.4	0.00e+00	0	49	104	0	60	1048568
2026-01-17 14:47:26.79	26.94	13.95	-83.5	-79.0	2.4	0.00e+00	0	49	104	0	60	1048574
2026-01-17 14:47:29.81	26.03	13.94	-83.5	-79.0	2.4	0.00e+00	0	48	104	0	60	1048574
2026-01-17 14:47:32.84	25.12	13.91	-83.1	-79.0	2.5	0.00e+00	0	49	104	0	60	1048575
2026-01-17 14:47:35.86	24.22	13.89	-83.5	-79.0	2.2	0.00e+00	0	49	104	0	60	1048574
2026-01-17 14:47:38.89	23.32	13.86	-83.5	-79.0	2.4	0.00e+00	0	49	104	0	60	1048572
2026-01-17 14:47:41.90	22.42	13.82	-82.8	-79.0	2.4	0.00e+00	0	49	104	0	60	1048572
2026-01-17 14:47:44.93	21.52	13.77	-83.5	-79.0	2.2	0.00e+00	0	49	104	0	60	1048571
2026-01-17 14:47:47.95	20.63	13.72	-83.5	-79.0	2.3	0.00e+00	0	49	104	0	60	1048570
2026-01-17 14:47:50.97	19.74	13.67	-83.1	-79.0	2.4	0.00e+00	0	48	104	0	60	1048575
2026-01-17 14:47:53.99	18.86	13.60	-83.5	-79.0	2.3	0.00e+00	0	48	104	0	60	1048574
2026-01-17 14:47:57.01	17.98	13.54	-83.5	-79.0	2.4	0.00e+00	0	49	104	0	60	1048573
2026-01-17 14:48:00.03	17.10	13.46	-83.5	-79.0	2.5	0.00e+00	0	49	104	0	60	1048575
2026-01-17 14:48:03.05	16.23	13.38	-83.5	-79.0	2.5	0.00e+00	0	48	104	0	60	1048575
2026-01-17 14:48:06.08	15.37	13.30	-82.8	-79.0	2.5	0.00e+00	0	49	104	0	60	1048575
2026-01-17 14:48:09.09	14.51	13.21	-83.5	-79.0	2.3	0.00e+00	0	49	104	0	60	1048575
2026-01-17 14:48:12.11	13.66	13.12	-83.5	-79.0	2.3	0.00e+00	0	49	104	0	60	1048569
2026-01-17 14:48:15.13	12.82	13.02	-83.1	-79.0	2.7	0.00e+00	0	49	104	0	60	1048574
2026-01-17 14:48:18.15	11.98	12.92	-83.5	-79.0	2.3	0.00e+00	0	49	104	0	60	1048572
2026-01-17 14:48:21.17	11.15	12.81	-83.5	-79.0	2.5	0.00e+00	0	49	104	0	60	1048573
2026-01-17 14:48:24.19	10.33	12.70	-83.1	-79.0	2.4	0.00e+00	0	49	104	0	60	1048575
2026-01-17 14:48:27.21	9.52	12.58	-83.5	-79.0	2.4	0.00e+00	0	49	104	0	60	1048565
2026-01-17 14:48:30.23	8.71	12.46	-83.1	-79.0	2.7	0.00e+00	0	48	104	0	60	1048575
2026-01-17 14:48:33.25	7.91	12.34	-83.5	-79.0	2.3	0.00e+00	0	48	104	0	60	1048575
2026-01-17 14:48:36.28	7.12	12.21	-83.5	-79.0	2.3	0.00e+00	0	49	104	0	60	1048569
2026-01-17 14:48:39.30	6.34	12.08	-83.1	-79.0	2.1	0.00e+00	0	49	104	0	60	1048575
2026-01-17 14:48:42.33	5.56	11.94	-83.5	-79.0	2.5	0.00e+00	0	49	104	0	60	1048574
2026-01-17 14:48:45.34	4.80	11.80	-83.5	-79.0	2.5	0.00e+00	0	49	104	0	60	1048575
2026-01-17 14:48:48.37	4.04	11.66	-83.1	-79.0	2.6	0.00e+00	0	49	104	0	60	1048575
2026-01-17 14:48:51.40	3.29	11.51	-83.5	-79.0	2.4	0.00e+00	0	49	104	0	60	1048570
2026-01-17 14:48:54.42	2.55	11.37	-83.5	-79.0	2.5	0.00e+00	0	49	104	0	60	1048572
2026-01-17 14:48:57.44	1.82	11.21	-83.1	-79.0	2.5	0.00e+00	0	49	104	0	60	1048572
2026-01-17 14:49:00.46	1.11	11.06	-83.5	-79.0	2.3	0.00e+00	0	49	104	0	60	1048574
2026-01-17 14:49:03.48	0.40	10.91	-83.1	-79.0	2.4	0.00e+00	0	49	104	0	60	1048575
2026-01-17 14:49:06.49	359.70	10.75	-83.1	-79.0	2.3	0.00e+00	0	49	104	0	60	1048569
2026-01-17 14:49:09.50	359.01	10.59	-83.1	-79.0	2.3	0.00e+00	0	49	104	0	60	1048575
2026-01-17 14:49:12.52	358.33	10.43	-83.1	-79.0	2.4	0.00e+00	0	49	104	0	60	1048566
2026-01-17 14:49:15.54	357.65	10.26	-83.5	-79.0	2.3	0.00e+00	0	49	104	0	60	1048575
2026-01-17 14:49:18.56	356.99	10.10	-83.5	-79.0	2.4	0.00e+00	0	49	104	0	60	1048567
2026-01-17 14:49:21.57	356.34	9.93	-82.8	-79.0	2.3	0.00e+00	0	49	104	0	60	1048574
2026-01-17 14:49:24.60	355.69	9.76	-83.5	-79.0	2.3	0.00e+00	0	49	104	0	60	1048574
2026-01-17 14:49:27.62	355.06	9.59	-83.5	-79.0	2.3	0.00e+00	0	49	104	0	60	1048575
2026-01-17 14:49:30.65	354.43	9.42	-83.5	-79.0	2.7	0.00e+00	0	49	104	0	60	1048568
2026-01-17 14:49:33.67	353.81	9.25	-83.5	-79.0	2.3	0.00e+00	0	49	104	0	60	1048565
2026-01-17 14:49:36.69	353.20	9.07	-83.1	-79.0	2.4	0.00e+00	0	49	104	0	60	1048574
2026-01-17 14:49:39.72	352.60	8.90	-83.1	-79.0	2.3	0.00e+00	0	49	104	0	60	1048575
2026-01-17 14:49:42.74	352.01	8.72	-83.5	-79.0	2.4	0.00e+00	0	49	104	0	60	1048574
2026-01-17 14:49:45.77	351.43	8.55	-83.1	-79.0	2.4	0.00e+00	0	49	104	0	60	1048572
2026-01-17 14:49:48.79	350.85	8.37	-83.5	-79.0	2.3	0.00e+00	0	49	104	0	60	1048574
2026-01-17 14:49:51.79	350.29	8.19	-83.5	-79.0	2.4	0.00e+00	0	49	104	0	60	1048575
2026-01-17 14:49:54.81	349.74	8.02	-83.1	-79.0	2.4	0.00e+00	0	49	104	0	60	1048567
2026-01-17 14:49:57.83	349.19	7.84	-83.5	-79.0	2.6	0.00e+00	0	49	104	0	60	1048574
2026-01-17 14:50:00.85	348.65	7.66	-83.5	-79.0	2.5	0.00e+00	0	49	104	0	60	1048571
2026-01-17 14:50:03.88	348.12	7.48	-83.1	-79.0	2.7	0.00e+00	0	49	104	0	60	1048575
2026-01-17 14:50:06.90	347.60	7.30	-83.5	-79.0	2.4	0.00e+00	0	49	104	0	60	1048575
2026-01-17 14:50:09.92	347.08	7.12	-83.1	-79.0	2.3	0.00e+00	0	49	104	0	60	1048571
2026-01-17 14:50:12.93	346.58	6.94	-83.5	-79.0	2.6	0.00e+00	0	49	104	0	60	1048573
2026-01-17 14:50:15.95	346.08	6.76	-83.5	-79.0	2.5	0.00e+00	0	49	104	0	60	1048562
2026-01-17 14:50:18.97	345.59	6.58	-83.1	-79.0	2.3	0.00e+00	0	49	104	0	60	1048575
2026-01-17 14:50:21.99	345.11	6.40	-83.5	-79.0	2.6	0.00e+00	0	49	104	0	60	1048566
2026-01-17 14:50:25.00	344.64	6.22	-83.5	-79.0	2.4	0.00e+00	0	49	104	0	60	1048575
2026-01-17 14:50:28.02	344.17	6.04	-83.1	-79.0	2.4	0.00e+00	0	49	104	0	60	1048574
2026-01-17 14:50:31.03	343.71	5.86	-83.5	-79.0	2.4	0.00e+00	0	49	104	0	60	1048575
2026-01-17 14:50:34.05	343.26	5.68	-83.5	-79.0	2.4	0.00e+00	0	49	104	0	60	1048575
2026-01-17 14:50:37.08	342.81	5.50	-83.1	-79.0	2.4	0.00e+00	0	49	104	0	60	1048574
2026-01-17 14:50:40.09	342.37	5.32	-83.5	-79.0	2.4	0.00e+00	0	49	104	0	60	1048573
2026-01-17 14:50:43.10	341.94	5.15	-83.1	-79.0	2.5	0.00e+00	0	49	104	0	60	1048571
2026-01-17 14:50:46.12	341.51	4.97	-83.5	-79.0	2.5	0.00e+00	0	49	104	0	60	1048574
2026-01-17 14:50:49.14	341.10	4.79	-83.5	-79.0	2.5	0.00e+00	0	49	104	0	60	1048575
2026-01-17 14:50:52.16	340.68	4.61	-83.1	-79.0	2.2	0.00e+00	0	49	104	0	60	1048575
2026-01-17 14:50:55.18	340.28	4.43	-83.5	-79.0	2.5	0.00e+00	0	49	104	0	60	1048575
2026-01-17 14:50:58.21	339.88	4.26	-83.5	-79.0	2.5	0.00e+00	0	49	104	0	60	1048571
2026-01-17 14:51:01.23	339.48	4.08	-82.8	-79.0	2.5	0.00e+00	0	49	104	0	60	1048573
2026-01-17 14:51:04.25	339.10	3.90	-83.5	-79.0	2.4	0.00e+00	0	49	104	0	60	1048571
2026-01-17 14:51:07.27	338.71	3.73	-83.1	-79.0	2.3	0.00e+00	0	49	104	0	60	1048575
2026-01-17 14:51:10.29	338.34	3.55	-83.5	-79.0	2.3	0.00e+00	0	49	104	0	60	1048572
2026-01-17 14:51:13.30	337.97	3.38	-83.1	-79.0	2.5	0.00e+00	0	49	104	0	60	1048571
2026-01-17 14:51:16.32	337.61	3.21	-83.1	-79.0	2.2	0.00e+00	0	49	104	0	60	1048573
2026-01-17 14:51:19.34	337.25	3.03	-83.1	-79.0	2.5	0.00e+00	0	49	104	0	60	1048572
2026-01-17 14:51:22.37	336.89	2.86	-83.5	-79.0	2.5	0.00e+00	0	49	104	0	60	1048574
2026-01-17 14:51:25.38	336.55	2.69	-83.1	-79.0	2.4	0.00e+00	0	49	104	0	60	1048570
2026-01-17 14:51:28.40	336.21	2.52	-83.5	-79.0	2.3	0.00e+00	0	49	104	0	60	1048573
2026-01-17 14:51:31.41	335.87	2.35	-83.1	-79.0	2.3	0.00e+00	0	49	104	0	60	1048575
2026-01-17 14:51:34.44	335.54	2.18	-82.8	-79.0	2.4	0.00e+00	0	49	104	0	60	1048565
2026-01-17 14:51:37.46	335.21	2.01	-83.5	-79.0	2.5	0.00e+00	0	49	104	0	60	1048572
2026-01-17 14:51:40.48	334.89	1.84	-83.1	-79.0	2.3	0.00e+00	0	49	104	0	60	1048575
2026-01-17 14:51:43.51	334.57	1.67	-83.5	-79.0	2.3	0.00e+00	0	49	104	0	60	1048575
2026-01-17 14:51:46.53	334.26	1.50	-83.5	-79.0	2.6	0.00e+00	0	49	104	0	60	1048572
2026-01-17 14:51:49.54	333.95	1.33	-83.5	-79.0	2.5	0.00e+00	0	49	104	0	60	1048573
2026-01-17 14:51:52.55	333.65	1.17	-83.5	-79.0	2.5	0.00e+00	0	49	104	0	60	1048573
2026-01-17 14:51:55.57	333.35	1.00	-83.5	-79.0	2.5	0.00e+00	0	49	104	0	60	1048575
2026-01-17 14:51:58.60	333.05	0.83	-83.1	-79.0	2.7	0.00e+00	0	49	104	0	60	1048573
2026-01-17 14:52:01.62	332.76	0.67	-83.5	-79.0	2.3	0.00e+00	0	49	104	0	60	1048574
2026-01-17 14:52:04.64	332.48	0.51	-83.5	-79.0	2.3	0.00e+00	0	49	104	0	60	1048568
2026-01-17 14:52:07.66	332.20	0.34	-83.1	-79.0	2.0	0.00e+00	0	49	104	0	60	1048574
2026-01-17 14:52:10.69	331.92	0.18	-83.5	-79.0	2.5	0.00e+00	0	49	104	0	60	1048573
2026-01-17 14:52:13.70	331.64	0.02	-83.5	-79.0	2.4	0.00e+00	0	49	104	0	60	1048575

#Closed at: 2026-01-17 14:52:14
#Recorded file [0 MB]: D:/Data/35015_260117_174230.dat