passes_logs/2026/01/17/R3.2S-Naryan-Mar/R3.2S-Naryan-Mar__20260117_214305_AQUA_rec.log

#Pass ID: 20260117_214305_AQUA
#Satellite: AQUA
#Configuration: AQUA
#almurnet v.1.7.20240730
#Start time: 2026-01-17 21:43:06

#Version: 2.2.20231116
#Station: R3.2S-Naryan-Mar
#Location: 53.008057 lon 67.646978 lat
#TLE: 1 27424U 02022A   26017.29152041  .00000842  00000+0  17841-3 0  9992
#TLE: 2 27424  98.4085 343.7574 0002011  75.4099  30.6811 14.61825797261228

#Time	Az	El	Level	Level2	SNR	BER	BlckErr	Temp	State	Recorded	gain1	gain2
2026-01-17 21:43:06.01	19.87	0.01	-85.2	-88.6	4.9	1.56e+00	0	45	0	0	60	1048574
2026-01-17 21:43:09.02	20.18	0.14	-84.3	-88.8	2.5	3.12e+01	0	46	104	0	60	1048575
2026-01-17 21:43:12.03	20.49	0.27	-83.9	-88.8	2.7	3.12e+01	0	46	104	0	60	1048575
2026-01-17 21:43:15.05	20.80	0.39	-84.3	-88.8	2.5	3.12e+01	0	46	104	0	60	1048575
2026-01-17 21:43:18.07	21.12	0.52	-83.9	-88.8	2.6	3.12e+01	0	46	104	0	60	1048575
2026-01-17 21:43:21.09	21.44	0.65	-84.3	-88.8	2.5	3.12e+01	0	46	104	0	60	1048575
2026-01-17 21:43:24.11	21.77	0.78	-84.3	-88.8	2.6	3.12e+01	0	46	104	0	60	1048575
2026-01-17 21:43:27.12	22.09	0.91	-83.9	-88.8	2.3	3.12e+01	0	46	104	0	60	1048575
2026-01-17 21:43:30.13	22.42	1.03	-84.3	-88.8	2.3	3.12e+01	0	46	104	0	60	1048575
2026-01-17 21:43:33.16	22.75	1.16	-84.3	-88.8	2.8	3.12e+01	0	46	104	0	60	1048575
2026-01-17 21:43:36.18	23.09	1.29	-83.9	-88.8	2.6	3.12e+01	0	46	104	0	60	1048575
2026-01-17 21:43:39.21	23.43	1.42	-84.3	-88.8	2.5	3.12e+01	0	46	104	0	60	1048575
2026-01-17 21:43:42.22	23.77	1.55	-84.3	-88.8	2.7	3.12e+01	0	46	104	0	60	1048575
2026-01-17 21:43:45.24	24.12	1.67	-83.9	-88.8	2.6	3.12e+01	0	46	104	0	60	1048575
2026-01-17 21:43:48.26	24.46	1.80	-84.3	-88.8	2.7	3.12e+01	0	46	104	0	60	1048575
2026-01-17 21:43:51.28	24.82	1.93	-83.9	-88.8	2.4	3.12e+01	0	46	104	0	60	1048575
2026-01-17 21:43:54.30	25.17	2.05	-84.3	-88.8	2.6	3.12e+01	0	46	104	0	60	1048575
2026-01-17 21:43:57.32	25.53	2.18	-84.3	-88.8	2.6	3.12e+01	0	46	104	0	60	1048575
2026-01-17 21:44:00.35	25.89	2.31	-83.9	-88.8	2.7	3.12e+01	0	46	104	0	60	1048575
2026-01-17 21:44:03.37	26.25	2.43	-84.3	-88.8	2.7	3.12e+01	0	46	104	0	60	1048575
2026-01-17 21:44:06.39	26.62	2.56	-84.3	-88.8	2.4	3.12e+01	0	46	104	0	60	1048575
2026-01-17 21:44:09.41	26.99	2.69	-83.9	-88.8	2.6	3.12e+01	0	46	104	0	60	1048575
2026-01-17 21:44:12.44	27.37	2.81	-84.3	-88.8	2.5	3.12e+01	0	46	104	0	60	1048575
2026-01-17 21:44:15.45	27.74	2.94	-84.3	-88.8	2.5	3.12e+01	0	47	104	0	60	1048575
2026-01-17 21:44:18.48	28.12	3.06	-84.3	-88.8	2.6	3.12e+01	0	46	104	0	60	1048575
2026-01-17 21:44:21.49	28.51	3.19	-84.3	-88.8	2.6	3.12e+01	0	46	104	0	60	1048575
2026-01-17 21:44:24.52	28.90	3.31	-83.9	-88.8	2.5	3.12e+01	0	46	104	0	60	1048575
2026-01-17 21:44:27.54	29.29	3.44	-84.3	-88.8	2.5	3.12e+01	0	47	104	0	60	1048575
2026-01-17 21:44:30.57	29.68	3.56	-84.3	-88.8	2.5	3.12e+01	0	46	104	0	60	1048575
2026-01-17 21:44:33.58	30.08	3.68	-83.9	-88.8	2.7	3.12e+01	0	47	104	0	60	1048575
2026-01-17 21:44:36.60	30.48	3.81	-83.9	-88.8	2.8	3.12e+01	0	47	104	0	60	1048575
2026-01-17 21:44:39.62	30.89	3.93	-84.3	-88.8	2.6	3.12e+01	0	47	104	0	60	1048575
2026-01-17 21:44:42.64	31.30	4.05	-83.9	-88.8	2.5	3.12e+01	0	47	104	0	60	1048575
2026-01-17 21:44:45.66	31.71	4.17	-84.3	-88.8	2.6	3.12e+01	0	47	104	0	60	1048575
2026-01-17 21:44:48.68	32.12	4.29	-84.3	-88.8	2.4	3.12e+01	0	47	104	0	60	1048575
2026-01-17 21:44:51.70	32.54	4.41	-84.3	-88.8	2.5	3.12e+01	0	47	104	0	60	1048575
2026-01-17 21:44:54.72	32.97	4.53	-84.3	-88.8	2.5	3.12e+01	0	46	104	0	60	1048575
2026-01-17 21:44:57.74	33.39	4.65	-83.9	-88.8	2.8	3.12e+01	0	47	104	0	60	1048575
2026-01-17 21:45:00.76	33.83	4.77	-84.3	-88.8	2.5	3.12e+01	0	47	104	0	60	1048575
2026-01-17 21:45:03.78	34.26	4.89	-84.3	-88.8	2.5	3.12e+01	0	47	104	0	60	1048575
2026-01-17 21:45:06.81	34.70	5.00	-83.9	-88.8	2.6	3.12e+01	0	47	104	0	60	1048575
2026-01-17 21:45:09.83	35.14	5.12	-84.3	-88.8	2.4	3.12e+01	0	47	104	0	60	1048575
2026-01-17 21:45:12.85	35.59	5.23	-84.3	-88.8	2.5	3.12e+01	0	47	104	0	60	1048575
2026-01-17 21:45:15.87	36.03	5.35	-83.9	-88.8	2.6	3.12e+01	0	47	104	0	60	1048575
2026-01-17 21:45:18.89	36.49	5.46	-84.3	-88.8	2.6	3.12e+01	0	47	104	0	60	1048575
2026-01-17 21:45:21.91	36.94	5.58	-83.9	-88.8	2.7	3.12e+01	0	47	104	0	60	1048575
2026-01-17 21:45:24.93	37.40	5.69	-84.3	-88.8	2.6	3.12e+01	0	47	104	0	60	1048575
2026-01-17 21:45:27.95	37.87	5.80	-84.3	-88.8	2.7	3.12e+01	0	47	104	0	60	1048575
2026-01-17 21:45:30.96	38.33	5.91	-83.9	-88.8	2.7	3.12e+01	0	47	104	0	60	1048575
2026-01-17 21:45:33.97	38.80	6.02	-84.3	-88.8	2.7	3.12e+01	0	47	104	0	60	1048575
2026-01-17 21:45:36.99	39.28	6.13	-84.3	-88.8	2.5	3.12e+01	0	47	104	0	60	1048575
2026-01-17 21:45:40.01	39.76	6.23	-83.9	-88.8	2.6	3.12e+01	0	47	104	0	60	1048575
2026-01-17 21:45:43.03	40.24	6.34	-84.3	-88.8	2.6	3.12e+01	0	47	104	0	60	1048575
2026-01-17 21:45:46.05	40.73	6.44	-84.3	-88.8	2.6	3.12e+01	0	47	104	0	60	1048575
2026-01-17 21:45:49.08	41.22	6.55	-83.9	-88.8	2.6	3.12e+01	0	47	104	0	60	1048575
2026-01-17 21:45:52.10	41.71	6.65	-83.9	-88.8	2.7	3.12e+01	0	47	104	0	60	1048575
2026-01-17 21:45:55.11	42.21	6.75	-84.3	-88.8	2.6	3.12e+01	0	47	104	0	60	1048575
2026-01-17 21:45:58.13	42.71	6.85	-84.3	-88.8	2.6	3.12e+01	0	47	104	0	60	1048574
2026-01-17 21:46:01.14	43.21	6.95	-84.3	-88.8	2.8	3.12e+01	0	47	104	0	60	1048574
2026-01-17 21:46:04.17	43.72	7.05	-83.5	-88.8	2.6	3.12e+01	0	47	104	0	60	1048574
2026-01-17 21:46:07.19	44.24	7.14	-84.3	-88.8	2.7	3.12e+01	0	47	104	0	60	1048574
2026-01-17 21:46:10.22	44.75	7.24	-84.3	-88.8	2.8	3.12e+01	0	47	104	0	60	1048574
2026-01-17 21:46:13.24	45.27	7.33	-83.9	-88.8	2.4	3.12e+01	0	47	104	0	60	1048574
2026-01-17 21:46:16.26	45.79	7.42	-84.3	-88.8	2.7	3.12e+01	0	47	104	0	60	1048574
2026-01-17 21:46:19.27	46.32	7.51	-84.3	-88.8	2.7	3.12e+01	0	47	104	0	60	1048574
2026-01-17 21:46:22.30	46.85	7.60	-83.9	-88.8	2.6	3.12e+01	0	47	104	0	60	1048574
2026-01-17 21:46:25.33	47.38	7.69	-84.3	-88.8	2.6	3.12e+01	0	47	104	0	60	1048574
2026-01-17 21:46:28.35	47.92	7.77	-84.3	-88.8	2.7	3.12e+01	0	47	104	0	60	1048574
2026-01-17 21:46:31.37	48.46	7.86	-84.3	-88.8	2.6	3.12e+01	0	47	104	0	60	1048574
2026-01-17 21:46:34.39	49.00	7.94	-84.3	-88.8	2.6	3.12e+01	0	47	104	0	60	1048574
2026-01-17 21:46:37.42	49.55	8.02	-83.9	-88.8	2.5	3.12e+01	0	47	104	0	60	1048574
2026-01-17 21:46:40.45	50.10	8.10	-84.3	-88.8	2.7	3.12e+01	0	47	104	0	60	1048574
2026-01-17 21:46:43.47	50.65	8.17	-84.3	-88.8	2.8	3.12e+01	0	47	104	0	60	1048574
2026-01-17 21:46:46.49	51.21	8.25	-83.9	-88.8	2.5	3.12e+01	0	47	104	0	60	1048574
2026-01-17 21:46:49.51	51.77	8.32	-84.3	-88.8	2.6	3.12e+01	0	47	104	0	60	1048574
2026-01-17 21:46:52.53	52.33	8.39	-84.3	-88.8	2.6	3.12e+01	0	47	104	0	60	1048574
2026-01-17 21:46:55.55	52.89	8.46	-83.9	-88.8	2.5	3.12e+01	0	47	104	0	60	1048574
2026-01-17 21:46:58.57	53.46	8.52	-84.3	-88.8	2.5	3.12e+01	0	47	104	0	60	1048574
2026-01-17 21:47:01.59	54.03	8.59	-84.3	-88.8	2.7	3.12e+01	0	47	104	0	60	1048574
2026-01-17 21:47:04.60	54.60	8.65	-83.9	-88.8	2.7	3.12e+01	0	47	104	0	60	1048574
2026-01-17 21:47:07.63	55.17	8.71	-84.3	-88.8	2.6	3.12e+01	0	47	104	0	60	1048574
2026-01-17 21:47:10.65	55.75	8.77	-84.3	-88.8	2.6	3.12e+01	0	47	104	0	60	1048574
2026-01-17 21:47:13.67	56.33	8.82	-84.3	-88.8	2.6	3.12e+01	0	47	104	0	60	1048574
2026-01-17 21:47:16.69	56.91	8.87	-83.9	-88.8	2.3	3.12e+01	0	47	104	0	60	1048574
2026-01-17 21:47:19.71	57.49	8.92	-83.9	-88.8	2.6	3.12e+01	0	47	104	0	60	1048574
2026-01-17 21:47:22.73	58.08	8.97	-84.3	-88.8	2.6	3.12e+01	0	47	104	0	60	1048574
2026-01-17 21:47:25.75	58.67	9.02	-84.3	-88.8	2.6	3.12e+01	0	47	104	0	60	1048574
2026-01-17 21:47:28.77	59.26	9.06	-83.9	-88.8	2.4	3.12e+01	0	47	104	0	60	1048574
2026-01-17 21:47:31.80	59.85	9.10	-84.3	-88.8	2.6	3.12e+01	0	47	104	0	60	1048574
2026-01-17 21:47:34.82	60.44	9.14	-84.3	-88.8	2.6	3.12e+01	0	47	104	0	60	1048574
2026-01-17 21:47:37.84	61.04	9.18	-83.9	-88.8	2.6	3.12e+01	0	47	104	0	60	1048574
2026-01-17 21:47:40.85	61.63	9.21	-84.3	-88.8	2.4	3.12e+01	0	47	104	0	60	1048574
2026-01-17 21:47:43.87	62.23	9.24	-83.9	-88.8	2.6	3.12e+01	0	47	104	0	60	1048574
2026-01-17 21:47:46.90	62.83	9.27	-84.3	-88.8	2.5	3.12e+01	0	47	104	0	60	1048574
2026-01-17 21:47:49.92	63.43	9.30	-83.9	-88.8	2.6	3.12e+01	0	47	104	0	60	1048574
2026-01-17 21:47:52.94	64.04	9.32	-83.9	-88.8	2.7	3.12e+01	0	47	104	0	60	1048574
2026-01-17 21:47:55.96	64.64	9.34	-84.3	-88.8	2.6	3.12e+01	0	47	104	0	60	1048574
2026-01-17 21:47:58.98	65.24	9.36	-84.3	-88.8	2.7	3.12e+01	0	47	104	0	60	1048574
2026-01-17 21:48:02.01	65.85	9.38	-83.9	-88.8	2.6	3.12e+01	0	47	104	0	60	1048574
2026-01-17 21:48:05.03	66.45	9.39	-84.3	-88.8	2.4	3.12e+01	0	47	104	0	60	1048574
2026-01-17 21:48:08.05	67.06	9.40	-84.3	-88.8	2.5	3.12e+01	0	47	104	0	60	1048574
2026-01-17 21:48:11.07	67.66	9.41	-84.3	-88.8	2.5	3.12e+01	0	47	104	0	60	1048574
2026-01-17 21:48:14.08	68.27	9.41	-84.3	-88.8	2.4	3.12e+01	0	47	104	0	60	1048574
2026-01-17 21:48:17.11	68.88	9.42	-83.9	-88.8	2.6	3.12e+01	0	47	104	0	60	1048574
2026-01-17 21:48:20.13	69.48	9.42	-84.3	-88.8	2.7	3.12e+01	0	47	104	0	60	1048574
2026-01-17 21:48:23.15	70.09	9.41	-84.3	-88.8	2.7	3.12e+01	0	47	104	0	60	1048574
2026-01-17 21:48:26.16	70.69	9.41	-83.9	-88.8	2.6	3.12e+01	0	47	104	0	60	1048574
2026-01-17 21:48:29.18	71.30	9.40	-84.3	-88.8	2.6	3.12e+01	0	47	104	0	60	1048574
2026-01-17 21:48:32.20	71.91	9.39	-84.3	-88.8	2.4	3.12e+01	0	47	104	0	60	1048574
2026-01-17 21:48:35.22	72.51	9.38	-83.9	-88.8	2.7	3.12e+01	0	47	104	0	60	1048574
2026-01-17 21:48:38.25	73.12	9.36	-84.3	-88.8	2.7	3.12e+01	0	47	104	0	60	1048574
2026-01-17 21:48:41.27	73.72	9.34	-84.3	-88.8	2.8	3.12e+01	0	47	104	0	60	1048574
2026-01-17 21:48:44.28	74.32	9.32	-84.3	-88.8	2.6	3.12e+01	0	47	104	0	60	1048574
2026-01-17 21:48:47.31	74.93	9.30	-84.3	-88.8	2.6	3.12e+01	0	47	104	0	60	1048574
2026-01-17 21:48:50.32	75.53	9.27	-83.9	-88.8	2.5	3.12e+01	0	47	104	0	60	1048574
2026-01-17 21:48:53.35	76.13	9.24	-84.3	-88.8	2.6	3.12e+01	0	47	104	0	60	1048574
2026-01-17 21:48:56.37	76.73	9.21	-84.3	-88.8	2.6	3.12e+01	0	47	104	0	60	1048574
2026-01-17 21:48:59.39	77.32	9.17	-83.9	-88.8	2.5	3.12e+01	0	47	104	0	60	1048574
2026-01-17 21:49:02.41	77.92	9.14	-84.3	-88.8	2.7	3.12e+01	0	47	104	0	60	1048574
2026-01-17 21:49:05.42	78.51	9.10	-84.3	-88.8	2.6	3.12e+01	0	47	104	0	60	1048574
2026-01-17 21:49:08.44	79.11	9.06	-83.9	-88.8	2.7	3.12e+01	0	47	104	0	60	1048574
2026-01-17 21:49:11.45	79.69	9.01	-84.3	-88.8	2.6	3.12e+01	0	47	104	0	60	1048574
2026-01-17 21:49:14.47	80.28	8.97	-83.9	-88.8	2.4	3.12e+01	0	47	104	0	60	1048574
2026-01-17 21:49:17.48	80.87	8.92	-84.3	-88.8	2.6	3.12e+01	0	47	104	0	60	1048574
2026-01-17 21:49:20.49	81.45	8.87	-84.3	-88.8	2.6	3.12e+01	0	47	104	0	60	1048574
2026-01-17 21:49:23.50	82.03	8.82	-83.9	-88.8	2.7	3.12e+01	0	47	104	0	60	1048574
2026-01-17 21:49:26.53	82.61	8.76	-84.3	-88.8	2.6	3.12e+01	0	47	104	0	60	1048574
2026-01-17 21:49:29.55	83.19	8.70	-84.3	-88.8	2.4	3.12e+01	0	47	104	0	60	1048574
2026-01-17 21:49:32.56	83.77	8.64	-83.9	-88.8	2.6	3.12e+01	0	47	104	0	60	1048575
2026-01-17 21:49:35.58	84.34	8.58	-84.3	-88.8	2.4	3.12e+01	0	47	104	0	60	1048575
2026-01-17 21:49:38.60	84.91	8.52	-83.9	-88.8	2.5	3.12e+01	0	47	104	0	60	1048575
2026-01-17 21:49:41.62	85.48	8.45	-83.9	-88.8	2.5	3.12e+01	0	47	104	0	60	1048575
2026-01-17 21:49:44.64	86.04	8.38	-84.3	-88.8	2.6	3.12e+01	0	47	104	0	60	1048575
2026-01-17 21:49:47.65	86.60	8.31	-83.9	-88.8	2.7	3.12e+01	0	47	104	0	60	1048575
2026-01-17 21:49:50.66	87.16	8.24	-84.3	-88.8	2.6	3.12e+01	0	47	104	0	60	1048575
2026-01-17 21:49:53.69	87.72	8.16	-84.3	-88.8	2.7	3.12e+01	0	47	104	0	60	1048575
2026-01-17 21:49:56.71	88.27	8.09	-83.9	-88.8	2.5	3.12e+01	0	47	104	0	60	1048575
2026-01-17 21:49:59.73	88.82	8.01	-84.3	-88.8	2.5	3.12e+01	0	47	104	0	60	1048575
2026-01-17 21:50:02.75	89.37	7.93	-84.3	-88.8	2.5	3.12e+01	0	47	104	0	60	1048575
2026-01-17 21:50:05.77	89.91	7.85	-83.9	-88.8	2.5	3.12e+01	0	47	104	0	60	1048575
2026-01-17 21:50:08.79	90.45	7.76	-84.3	-88.8	2.4	3.12e+01	0	47	104	0	60	1048575
2026-01-17 21:50:11.81	90.99	7.68	-84.3	-88.8	2.6	3.12e+01	0	47	104	0	60	1048575
2026-01-17 21:50:14.83	91.53	7.59	-84.3	-88.8	2.5	3.12e+01	0	47	104	0	60	1048575
2026-01-17 21:50:17.85	92.06	7.50	-84.3	-88.8	2.7	3.12e+01	0	47	104	0	60	1048575
2026-01-17 21:50:20.88	92.59	7.41	-83.9	-88.8	2.5	3.12e+01	0	47	104	0	60	1048575
2026-01-17 21:50:23.89	93.11	7.32	-84.3	-88.8	2.5	3.12e+01	0	47	104	0	60	1048575
2026-01-17 21:50:26.91	93.63	7.22	-84.3	-88.8	2.6	3.12e+01	0	47	104	0	60	1048575
2026-01-17 21:50:29.93	94.15	7.13	-83.9	-88.8	2.3	3.12e+01	0	47	104	0	60	1048575
2026-01-17 21:50:32.95	94.66	7.03	-84.3	-88.8	2.5	3.12e+01	0	47	104	0	60	1048575
2026-01-17 21:50:35.97	95.17	6.93	-84.3	-88.8	2.7	3.12e+01	0	47	104	0	60	1048575
2026-01-17 21:50:38.98	95.68	6.83	-83.9	-88.8	2.8	3.12e+01	0	47	104	0	60	1048575
2026-01-17 21:50:42.00	96.18	6.73	-84.3	-88.8	2.5	3.12e+01	0	47	104	0	60	1048575
2026-01-17 21:50:45.01	96.68	6.63	-83.9	-88.8	2.5	3.12e+01	0	47	104	0	60	1048575
2026-01-17 21:50:48.04	97.17	6.53	-83.9	-88.8	2.5	3.12e+01	0	47	104	0	60	1048575
2026-01-17 21:50:51.06	97.66	6.42	-84.3	-88.8	2.6	3.12e+01	0	47	104	0	60	1048575
2026-01-17 21:50:54.08	98.15	6.32	-83.9	-88.8	2.6	3.12e+01	0	47	104	0	60	1048575
2026-01-17 21:50:57.09	98.63	6.21	-84.3	-88.8	2.6	3.12e+01	0	47	104	0	60	1048575
2026-01-17 21:51:00.11	99.11	6.10	-84.3	-88.8	2.6	3.12e+01	0	47	104	0	60	1048575
2026-01-17 21:51:03.14	99.59	5.99	-83.9	-88.8	2.5	3.12e+01	0	47	104	0	60	1048575
2026-01-17 21:51:06.16	100.07	5.88	-84.3	-88.8	2.7	3.12e+01	0	47	104	0	60	1048575
2026-01-17 21:51:09.18	100.54	5.77	-84.3	-88.8	2.6	3.12e+01	0	47	104	0	60	1048575
2026-01-17 21:51:12.20	101.00	5.66	-84.3	-88.8	2.5	3.12e+01	0	47	104	0	60	1048575
2026-01-17 21:51:15.22	101.46	5.55	-84.3	-88.8	2.7	3.12e+01	0	47	104	0	60	1048575
2026-01-17 21:51:18.24	101.92	5.43	-83.9	-88.8	2.7	3.12e+01	0	47	104	0	60	1048575
2026-01-17 21:51:21.26	102.38	5.32	-83.9	-88.8	2.6	3.12e+01	0	47	104	0	60	1048575
2026-01-17 21:51:24.28	102.83	5.20	-84.3	-88.8	2.6	3.12e+01	0	47	104	0	60	1048575
2026-01-17 21:51:27.30	103.27	5.09	-83.9	-88.8	2.5	3.12e+01	0	47	104	0	60	1048575
2026-01-17 21:51:30.32	103.72	4.97	-84.3	-88.8	2.6	3.12e+01	0	47	104	0	60	1048575
2026-01-17 21:51:33.34	104.15	4.85	-84.3	-88.8	2.4	3.12e+01	0	47	104	0	60	1048575
2026-01-17 21:51:36.37	104.59	4.73	-83.9	-88.8	2.7	3.12e+01	0	47	104	0	60	1048575
2026-01-17 21:51:39.39	105.02	4.61	-84.3	-88.8	2.6	3.12e+01	0	47	104	0	60	1048575
2026-01-17 21:51:42.41	105.45	4.49	-83.9	-88.8	2.5	3.12e+01	0	47	104	0	60	1048575
2026-01-17 21:51:45.42	105.87	4.37	-83.9	-88.8	2.6	3.12e+01	0	47	104	0	60	1048575
2026-01-17 21:51:48.43	106.29	4.25	-84.3	-88.8	2.4	3.12e+01	0	47	104	0	60	1048575
2026-01-17 21:51:51.45	106.71	4.13	-83.9	-88.8	2.6	3.12e+01	0	47	104	0	60	1048575
2026-01-17 21:51:54.47	107.12	4.01	-84.3	-88.8	2.6	3.12e+01	0	47	104	0	60	1048575
2026-01-17 21:51:57.49	107.53	3.89	-84.3	-88.8	2.6	3.12e+01	0	47	104	0	60	1048575
2026-01-17 21:52:00.52	107.94	3.76	-83.9	-88.8	2.6	3.12e+01	0	47	104	0	60	1048575
2026-01-17 21:52:03.54	108.34	3.64	-84.3	-88.8	2.8	3.12e+01	0	47	104	0	60	1048575
2026-01-17 21:52:06.56	108.74	3.51	-84.3	-88.8	2.4	3.12e+01	0	47	104	0	60	1048575
2026-01-17 21:52:09.59	109.14	3.39	-83.9	-88.8	2.7	3.12e+01	0	47	104	0	60	1048575
2026-01-17 21:52:12.62	109.53	3.26	-84.3	-88.8	2.7	3.12e+01	0	47	104	0	60	1048575
2026-01-17 21:52:15.63	109.92	3.14	-84.3	-88.8	2.4	3.12e+01	0	47	104	0	60	1048575
2026-01-17 21:52:18.65	110.31	3.01	-83.9	-88.8	2.6	3.12e+01	0	47	104	0	60	1048575
2026-01-17 21:52:21.67	110.69	2.89	-84.3	-88.8	2.5	3.12e+01	0	47	104	0	60	1048575
2026-01-17 21:52:24.68	111.06	2.76	-83.9	-88.8	2.6	3.12e+01	0	47	104	0	60	1048575
2026-01-17 21:52:27.71	111.44	2.63	-84.3	-88.8	2.5	3.12e+01	0	47	104	0	60	1048575
2026-01-17 21:52:30.73	111.81	2.51	-84.3	-88.8	2.7	3.12e+01	0	47	104	0	60	1048575
2026-01-17 21:52:33.75	112.18	2.38	-83.9	-88.8	2.5	3.12e+01	0	47	104	0	60	1048575
2026-01-17 21:52:36.78	112.55	2.25	-84.3	-88.8	2.5	3.12e+01	0	47	104	0	60	1048575
2026-01-17 21:52:39.80	112.91	2.12	-84.3	-88.8	2.7	3.12e+01	0	47	104	0	60	1048575
2026-01-17 21:52:42.82	113.27	2.00	-83.9	-88.8	2.5	3.12e+01	0	47	104	0	60	1048575
2026-01-17 21:52:45.84	113.62	1.87	-84.3	-88.8	2.6	3.12e+01	0	47	104	0	60	1048575
2026-01-17 21:52:48.86	113.97	1.74	-84.3	-88.8	2.6	3.12e+01	0	47	104	0	60	1048575
2026-01-17 21:52:51.87	114.32	1.61	-84.3	-88.8	2.6	3.12e+01	0	47	104	0	60	1048575
2026-01-17 21:52:54.89	114.66	1.48	-84.3	-88.8	2.5	3.12e+01	0	47	104	0	60	1048575
2026-01-17 21:52:57.90	115.01	1.35	-83.9	-88.8	2.7	3.12e+01	0	47	104	0	60	1048575
2026-01-17 21:53:00.91	115.34	1.23	-84.3	-88.8	2.5	3.12e+01	0	47	104	0	60	1048575
2026-01-17 21:53:03.93	115.68	1.10	-84.3	-88.8	2.6	3.12e+01	0	47	104	0	60	1048575
2026-01-17 21:53:06.93	116.01	0.97	-83.9	-88.8	2.5	3.12e+01	0	47	104	0	60	1048575
2026-01-17 21:53:09.95	116.34	0.84	-84.3	-88.8	2.6	3.12e+01	0	47	104	0	60	1048575
2026-01-17 21:53:12.96	116.67	0.71	-84.3	-88.8	2.7	3.12e+01	0	47	104	0	60	1048575
2026-01-17 21:53:15.98	116.99	0.58	-83.9	-88.8	2.3	3.12e+01	0	47	104	0	60	1048575
2026-01-17 21:53:18.99	117.31	0.45	-84.3	-88.8	2.6	3.12e+01	0	47	104	0	60	1048575
2026-01-17 21:53:22.02	117.63	0.32	-83.9	-88.8	2.8	3.12e+01	0	47	104	0	60	1048575
2026-01-17 21:53:25.03	117.94	0.19	-84.3	-88.8	2.5	3.12e+01	0	47	104	0	60	1048575
2026-01-17 21:53:28.05	118.26	0.06	-84.3	-88.8	2.4	3.12e+01	0	47	104	0	60	1048575
2026-01-17 21:53:31.06	118.57	-0.06	-83.9	-88.8	2.6	3.12e+01	0	47	104	0	60	1048574

#Closed at: 2026-01-17 21:53:31
#Recorded file [0 MB]: D:/Data/35015_260118_004305.dat