passes_logs/2026/01/17/R3.2S-Naryan-Mar/R3.2S-Naryan-Mar__20260117_144758_TY-40_rec.log

#Pass ID: 20260117_144758_TY-40
#Satellite: TY-40
#Configuration: TY-39
#almurnet v.1.7.20240730
#Start time: 2026-01-17 14:52:17

#Version: 2.2.20231116
#Station: R3.2S-Naryan-Mar
#Location: 53.008057 lon 67.646978 lat
#TLE: 1 56846U 23081A   26016.94830663  .00002646  00000-0  11971-3 0  9997
#TLE: 2 56846  97.3895  89.8290 0001781  76.6008 283.5426 15.21771932145000

#Time	Az	El	Level	Level2	SNR	BER	BlckErr	Temp	State	Recorded	gain1	gain2
2026-01-17 14:52:17.30	44.12	14.72	-83.5	-79.0	2.3	0.00e+00	0	48	0	0	60	1048575
2026-01-17 14:52:19.31	43.50	14.77	-83.5	-79.0	2.3	0.00e+00	0	49	104	0	60	1048575
2026-01-17 14:52:21.33	42.88	14.82	-83.5	-79.0	2.4	0.00e+00	0	49	104	0	60	1048572
2026-01-17 14:52:23.34	42.25	14.87	-83.5	-79.0	2.4	0.00e+00	0	49	104	0	60	1048575
2026-01-17 14:52:25.36	41.62	14.92	-83.5	-79.0	2.4	0.00e+00	0	49	104	0	60	1048571
2026-01-17 14:52:27.37	41.00	14.96	-82.8	-79.0	2.5	0.00e+00	0	49	104	0	60	1048575
2026-01-17 14:52:29.39	40.36	15.00	-83.5	-79.0	2.4	0.00e+00	0	49	104	0	60	1048575
2026-01-17 14:52:31.41	39.73	15.04	-83.1	-79.0	2.4	0.00e+00	0	49	104	0	60	1048575
2026-01-17 14:52:33.42	39.09	15.07	-83.5	-79.0	2.5	0.00e+00	0	49	104	0	60	1048575
2026-01-17 14:52:35.44	38.45	15.10	-83.5	-79.0	2.4	0.00e+00	0	49	104	0	60	1048573
2026-01-17 14:52:37.45	37.81	15.13	-83.5	-79.0	2.4	0.00e+00	0	49	104	0	60	1048563
2026-01-17 14:52:39.47	37.17	15.16	-83.5	-79.0	2.4	0.00e+00	0	49	104	0	60	1048561
2026-01-17 14:52:41.48	36.53	15.18	-82.8	-79.0	2.4	0.00e+00	0	49	104	0	60	1048571
2026-01-17 14:52:43.50	35.89	15.20	-83.5	-79.0	2.4	0.00e+00	0	49	104	0	60	1048575
2026-01-17 14:52:45.51	35.24	15.22	-83.5	-79.0	2.3	0.00e+00	0	49	104	0	60	1048560
2026-01-17 14:52:47.52	34.60	15.23	-83.5	-79.0	2.3	0.00e+00	0	49	104	0	60	1048572
2026-01-17 14:52:49.54	33.96	15.24	-83.5	-79.0	2.5	0.00e+00	0	49	104	0	60	1048566
2026-01-17 14:52:51.55	33.31	15.24	-83.1	-79.0	2.4	0.00e+00	0	49	104	0	60	1048573
2026-01-17 14:52:53.56	32.67	15.25	-83.5	-79.0	2.3	0.00e+00	0	49	104	0	60	1048572
2026-01-17 14:52:55.56	32.03	15.25	-82.8	-79.0	2.5	0.00e+00	0	49	104	0	60	1048570
2026-01-17 14:52:57.57	31.38	15.24	-83.5	-79.0	2.4	0.00e+00	0	49	104	0	60	1048574
2026-01-17 14:52:59.58	30.74	15.24	-83.1	-79.0	2.4	0.00e+00	0	49	104	0	60	1048568
2026-01-17 14:53:01.60	30.09	15.23	-83.5	-79.0	2.4	0.00e+00	0	49	104	0	60	1048572
2026-01-17 14:53:03.61	29.45	15.22	-83.5	-79.0	2.4	0.00e+00	0	49	104	0	60	1048575
2026-01-17 14:53:05.63	28.80	15.20	-83.1	-79.0	2.4	0.00e+00	0	49	104	0	60	1048575
2026-01-17 14:53:07.64	28.16	15.18	-83.5	-79.0	2.6	0.00e+00	0	49	104	0	60	1048571
2026-01-17 14:53:09.65	27.52	15.16	-83.1	-79.0	2.4	0.00e+00	0	49	104	0	60	1048573
2026-01-17 14:53:11.66	26.88	15.13	-83.5	-79.0	2.4	0.00e+00	0	49	104	0	60	1048575
2026-01-17 14:53:13.68	26.24	15.10	-83.5	-79.0	2.4	0.00e+00	0	49	104	0	60	1048573
2026-01-17 14:53:15.69	25.61	15.07	-83.1	-79.0	2.4	0.00e+00	0	49	104	0	60	1048570
2026-01-17 14:53:17.71	24.97	15.04	-83.5	-79.0	2.5	0.00e+00	0	49	104	0	60	1048573
2026-01-17 14:53:19.72	24.34	15.00	-82.8	-79.0	2.5	0.00e+00	0	49	104	0	60	1048573
2026-01-17 14:53:21.73	23.71	14.96	-83.5	-79.0	2.4	0.00e+00	0	49	104	0	60	1048575
2026-01-17 14:53:23.75	23.08	14.92	-83.1	-79.0	2.4	0.00e+00	0	49	104	0	60	1048574
2026-01-17 14:53:25.76	22.45	14.87	-83.5	-79.0	2.5	0.00e+00	0	49	104	0	60	1048574
2026-01-17 14:53:27.77	21.83	14.82	-83.5	-79.0	2.5	0.00e+00	0	49	104	0	60	1048570
2026-01-17 14:53:29.77	21.21	14.77	-83.5	-79.0	2.4	0.00e+00	0	49	104	0	60	1048565
2026-01-17 14:53:31.79	20.59	14.72	-83.5	-79.0	2.4	0.00e+00	0	49	104	0	60	1048575
2026-01-17 14:53:33.80	19.97	14.66	-82.8	-79.0	2.4	0.00e+00	0	49	104	0	60	1048572
2026-01-17 14:53:35.81	19.36	14.60	-83.1	-79.0	2.4	0.00e+00	0	49	104	0	60	1048563
2026-01-17 14:53:37.83	18.75	14.54	-83.1	-79.0	2.4	0.00e+00	0	49	104	0	60	1048574
2026-01-17 14:53:39.84	18.14	14.47	-83.5	-79.0	2.5	0.00e+00	0	49	104	0	60	1048571
2026-01-17 14:53:41.85	17.54	14.41	-83.5	-79.0	2.4	0.00e+00	0	49	104	0	60	1048571
2026-01-17 14:53:43.86	16.94	14.34	-83.1	-79.0	2.4	0.00e+00	0	49	104	0	60	1048574
2026-01-17 14:53:45.87	16.34	14.26	-83.5	-79.0	2.3	0.00e+00	0	49	104	0	60	1048572
2026-01-17 14:53:47.87	15.75	14.19	-82.8	-79.0	2.4	0.00e+00	0	49	104	0	60	1048575
2026-01-17 14:53:49.88	15.16	14.11	-83.5	-79.0	2.3	0.00e+00	0	49	104	0	60	1048574
2026-01-17 14:53:51.89	14.58	14.03	-83.5	-79.0	2.5	0.00e+00	0	49	104	0	60	1048573
2026-01-17 14:53:53.91	13.99	13.95	-83.1	-79.0	2.4	0.00e+00	0	49	104	0	60	1048572
2026-01-17 14:53:55.92	13.41	13.87	-83.5	-79.0	2.3	0.00e+00	0	49	104	0	60	1048575
2026-01-17 14:53:57.94	12.84	13.78	-82.8	-79.0	2.5	0.00e+00	0	49	104	0	60	1048570
2026-01-17 14:53:59.95	12.27	13.69	-83.5	-79.0	2.4	0.00e+00	0	49	104	0	60	1048568
2026-01-17 14:54:01.96	11.70	13.60	-83.1	-79.0	2.4	0.00e+00	0	49	104	0	60	1048575
2026-01-17 14:54:03.98	11.14	13.51	-83.1	-79.0	2.4	0.00e+00	0	49	104	0	60	1048575
2026-01-17 14:54:05.99	10.58	13.42	-83.5	-79.0	2.4	0.00e+00	0	49	104	0	60	1048572
2026-01-17 14:54:08.01	10.03	13.32	-83.5	-79.0	2.4	0.00e+00	0	49	104	0	60	1048573
2026-01-17 14:54:10.02	9.48	13.23	-83.5	-79.0	2.4	0.00e+00	0	49	104	0	60	1048575
2026-01-17 14:54:12.03	8.93	13.13	-82.8	-79.0	2.4	0.00e+00	0	49	104	0	60	1048568
2026-01-17 14:54:14.05	8.39	13.03	-83.5	-79.0	2.5	0.00e+00	0	49	104	0	60	1048574
2026-01-17 14:54:16.06	7.86	12.92	-83.1	-79.0	2.4	0.00e+00	0	49	104	0	60	1048575
2026-01-17 14:54:18.07	7.33	12.82	-83.5	-79.0	2.5	0.00e+00	0	49	104	0	60	1048575
2026-01-17 14:54:20.09	6.80	12.72	-83.5	-79.0	2.4	0.00e+00	0	49	104	0	60	1048570
2026-01-17 14:54:22.10	6.28	12.61	-83.1	-79.0	2.4	0.00e+00	0	49	104	0	60	1048575
2026-01-17 14:54:24.11	5.76	12.50	-83.5	-79.0	2.4	0.00e+00	0	49	104	0	60	1048572
2026-01-17 14:54:26.12	5.25	12.39	-83.1	-79.0	2.4	0.00e+00	0	49	104	0	60	1048573
2026-01-17 14:54:28.14	4.74	12.28	-83.5	-79.0	2.4	0.00e+00	0	49	104	0	60	1048574
2026-01-17 14:54:30.15	4.23	12.17	-83.1	-79.0	2.4	0.00e+00	0	49	104	0	60	1048575
2026-01-17 14:54:32.17	3.73	12.06	-83.5	-79.0	2.4	0.00e+00	0	49	104	0	60	1048575
2026-01-17 14:54:34.18	3.24	11.94	-83.5	-79.0	2.4	0.00e+00	0	49	104	0	60	1048575
2026-01-17 14:54:36.20	2.75	11.83	-82.8	-79.0	2.4	0.00e+00	0	49	104	0	60	1048569
2026-01-17 14:54:38.21	2.27	11.71	-83.5	-79.0	2.4	0.00e+00	0	49	104	0	60	1048575
2026-01-17 14:54:40.22	1.79	11.59	-82.8	-79.0	2.4	0.00e+00	0	49	104	0	60	1048571
2026-01-17 14:54:42.24	1.31	11.48	-83.5	-79.0	2.4	0.00e+00	0	49	104	0	60	1048573
2026-01-17 14:54:44.25	0.84	11.36	-83.5	-79.0	2.3	0.00e+00	0	49	104	0	60	1048572
2026-01-17 14:54:46.27	0.37	11.24	-83.1	-79.0	2.4	0.00e+00	0	49	104	0	60	1048575
2026-01-17 14:54:48.28	359.91	11.12	-83.5	-79.0	2.3	0.00e+00	0	49	104	0	60	1048573
2026-01-17 14:54:50.30	359.45	10.99	-83.1	-79.0	2.4	0.00e+00	0	49	104	0	60	1048567
2026-01-17 14:54:52.30	359.00	10.87	-83.5	-79.0	2.5	0.00e+00	0	49	104	0	60	1048575
2026-01-17 14:54:54.32	358.56	10.75	-82.8	-79.0	2.3	0.00e+00	0	49	104	0	60	1048571
2026-01-17 14:54:56.33	358.11	10.63	-83.5	-79.0	2.3	0.00e+00	0	49	104	0	60	1048570
2026-01-17 14:54:58.35	357.67	10.50	-83.5	-79.0	2.4	0.00e+00	0	49	104	0	60	1048575
2026-01-17 14:55:00.37	357.24	10.38	-83.5	-79.0	2.3	0.00e+00	0	49	104	0	60	1048575
2026-01-17 14:55:02.38	356.81	10.25	-83.5	-79.0	2.4	0.00e+00	0	49	104	0	60	1048575
2026-01-17 14:55:04.40	356.39	10.13	-83.1	-79.0	2.4	0.00e+00	0	49	104	0	60	1048569
2026-01-17 14:55:06.41	355.97	10.00	-83.5	-79.0	2.4	0.00e+00	0	49	104	0	60	1048575
2026-01-17 14:55:08.43	355.55	9.88	-83.1	-79.0	2.3	0.00e+00	0	49	104	0	60	1048570
2026-01-17 14:55:10.44	355.14	9.75	-83.1	-79.0	2.4	0.00e+00	0	49	104	0	60	1048575
2026-01-17 14:55:12.46	354.73	9.62	-83.5	-79.0	2.3	0.00e+00	0	49	104	0	60	1048572
2026-01-17 14:55:14.47	354.33	9.50	-83.1	-79.0	2.4	0.00e+00	0	49	104	0	60	1048574
2026-01-17 14:55:16.49	353.93	9.37	-83.5	-79.0	2.4	0.00e+00	0	49	104	0	60	1048572
2026-01-17 14:55:18.51	353.54	9.24	-82.8	-79.0	2.4	0.00e+00	0	49	104	0	60	1048558
2026-01-17 14:55:20.52	353.15	9.11	-83.5	-79.0	2.4	0.00e+00	0	49	104	0	60	1048574
2026-01-17 14:55:22.54	352.76	8.99	-83.1	-79.0	2.4	0.00e+00	0	49	104	0	60	1048572
2026-01-17 14:55:24.55	352.38	8.86	-83.5	-79.0	2.5	0.00e+00	0	49	104	0	60	1048575
2026-01-17 14:55:26.55	352.01	8.73	-83.5	-79.0	2.4	0.00e+00	0	49	104	0	60	1048568
2026-01-17 14:55:28.56	351.64	8.60	-83.1	-79.0	2.4	0.00e+00	0	49	104	0	60	1048575
2026-01-17 14:55:30.57	351.27	8.47	-83.5	-79.0	2.4	0.00e+00	0	49	104	0	60	1048571
2026-01-17 14:55:32.59	350.90	8.35	-83.1	-79.0	2.5	0.00e+00	0	49	104	0	60	1048575
2026-01-17 14:55:34.61	350.54	8.22	-83.5	-79.0	2.4	0.00e+00	0	49	104	0	60	1048569
2026-01-17 14:55:36.62	350.19	8.09	-83.5	-79.0	2.4	0.00e+00	0	49	104	0	60	1048569
2026-01-17 14:55:38.63	349.84	7.96	-83.5	-79.0	2.4	0.00e+00	0	49	104	0	60	1048572
2026-01-17 14:55:40.64	349.49	7.83	-83.5	-79.0	2.4	0.00e+00	0	49	104	0	60	1048572
2026-01-17 14:55:42.66	349.14	7.70	-83.1	-79.0	2.4	0.00e+00	0	49	104	0	60	1048571
2026-01-17 14:55:44.66	348.81	7.58	-83.5	-79.0	2.4	0.00e+00	0	49	104	0	60	1048573
2026-01-17 14:55:46.68	348.47	7.45	-82.8	-79.0	2.4	0.00e+00	0	49	104	0	60	1048571
2026-01-17 14:55:48.69	348.14	7.32	-83.5	-79.0	2.4	0.00e+00	0	49	104	0	60	1048575
2026-01-17 14:55:50.71	347.81	7.19	-83.5	-79.0	2.4	0.00e+00	0	49	104	0	60	1048575
2026-01-17 14:55:52.73	347.48	7.06	-83.5	-79.0	2.4	0.00e+00	0	49	104	0	60	1048575
2026-01-17 14:55:54.74	347.16	6.93	-83.5	-79.0	2.3	0.00e+00	0	49	104	0	60	1048571
2026-01-17 14:55:56.75	346.84	6.81	-83.1	-79.0	2.5	0.00e+00	0	49	104	0	60	1048574
2026-01-17 14:55:58.76	346.53	6.68	-83.5	-79.0	2.3	0.00e+00	0	49	104	0	60	1048574
2026-01-17 14:56:00.78	346.22	6.55	-83.1	-79.0	2.4	0.00e+00	0	49	104	0	60	1048573
2026-01-17 14:56:02.78	345.91	6.42	-83.1	-79.0	2.4	0.00e+00	0	49	104	0	60	1048570
2026-01-17 14:56:04.80	345.60	6.30	-83.5	-79.0	2.5	0.00e+00	0	49	104	0	60	1048573
2026-01-17 14:56:06.81	345.30	6.17	-82.8	-79.0	2.5	0.00e+00	0	49	104	0	60	1048574
2026-01-17 14:56:08.83	345.01	6.04	-83.5	-79.0	2.4	0.00e+00	0	49	104	0	60	1048574
2026-01-17 14:56:10.84	344.71	5.92	-82.8	-79.0	2.4	0.00e+00	0	49	104	0	60	1048573
2026-01-17 14:56:12.86	344.42	5.79	-83.5	-79.0	2.4	0.00e+00	0	49	104	0	60	1048574
2026-01-17 14:56:14.87	344.13	5.66	-82.8	-79.0	2.4	0.00e+00	0	49	104	0	60	1048573
2026-01-17 14:56:16.89	343.85	5.54	-83.1	-79.0	2.4	0.00e+00	0	49	104	0	60	1048575
2026-01-17 14:56:18.91	343.57	5.41	-83.5	-79.0	2.4	0.00e+00	0	49	104	0	60	1048573
2026-01-17 14:56:20.92	343.29	5.29	-83.1	-79.0	2.4	0.00e+00	0	49	104	0	60	1048574
2026-01-17 14:56:22.94	343.01	5.16	-83.5	-79.0	2.4	0.00e+00	0	49	104	0	60	1048572
2026-01-17 14:56:24.95	342.74	5.04	-83.1	-79.0	2.4	0.00e+00	0	49	104	0	60	1048568
2026-01-17 14:56:26.96	342.47	4.91	-83.5	-79.0	2.4	0.00e+00	0	49	104	0	60	1048570
2026-01-17 14:56:28.98	342.21	4.79	-83.1	-79.0	2.4	0.00e+00	0	49	104	0	60	1048573
2026-01-17 14:56:30.99	341.94	4.67	-83.5	-79.0	2.5	0.00e+00	0	49	104	0	60	1048572
2026-01-17 14:56:33.00	341.68	4.54	-83.5	-79.0	2.3	0.00e+00	0	49	104	0	60	1048574
2026-01-17 14:56:35.01	341.43	4.42	-83.5	-79.0	2.4	0.00e+00	0	49	104	0	60	1048574
2026-01-17 14:56:37.03	341.17	4.30	-83.5	-79.0	2.4	0.00e+00	0	49	104	0	60	1048573
2026-01-17 14:56:39.04	340.92	4.17	-82.8	-79.0	2.4	0.00e+00	0	49	104	0	60	1048569
2026-01-17 14:56:41.05	340.67	4.05	-83.5	-79.0	2.5	0.00e+00	0	49	104	0	60	1048571
2026-01-17 14:56:43.07	340.42	3.93	-83.5	-79.0	2.4	0.00e+00	0	49	104	0	60	1048567
2026-01-17 14:56:45.08	340.18	3.81	-83.5	-79.0	2.4	0.00e+00	0	49	104	0	60	1048575
2026-01-17 14:56:47.09	339.94	3.69	-83.5	-79.0	2.4	0.00e+00	0	49	104	0	60	1048574
2026-01-17 14:56:49.11	339.70	3.57	-82.8	-79.0	2.4	0.00e+00	0	49	104	0	60	1048574
2026-01-17 14:56:51.12	339.47	3.44	-83.5	-79.0	2.4	0.00e+00	0	49	104	0	60	1048575
2026-01-17 14:56:53.13	339.23	3.32	-83.1	-79.0	2.4	0.00e+00	0	49	104	0	60	1048570
2026-01-17 14:56:55.14	339.00	3.20	-83.5	-79.0	2.4	0.00e+00	0	49	104	0	60	1048575
2026-01-17 14:56:57.15	338.77	3.09	-83.5	-79.0	2.4	0.00e+00	0	49	104	0	60	1048575
2026-01-17 14:56:59.17	338.55	2.97	-83.1	-79.0	2.4	0.00e+00	0	49	104	0	60	1048575
2026-01-17 14:57:01.17	338.33	2.85	-83.5	-79.0	2.4	0.00e+00	0	49	104	0	60	1048574
2026-01-17 14:57:03.18	338.10	2.73	-82.8	-79.0	2.4	0.00e+00	0	49	104	0	60	1048575
2026-01-17 14:57:05.20	337.89	2.61	-83.5	-79.0	2.4	0.00e+00	0	49	104	0	60	1048573
2026-01-17 14:57:07.20	337.67	2.49	-83.1	-79.0	2.3	0.00e+00	0	49	104	0	60	1048564
2026-01-17 14:57:09.21	337.46	2.38	-83.5	-79.0	2.4	0.00e+00	0	49	104	0	60	1048575
2026-01-17 14:57:11.22	337.25	2.26	-83.5	-79.0	2.4	0.00e+00	0	49	104	0	60	1048574
2026-01-17 14:57:13.24	337.03	2.14	-83.1	-79.0	2.3	0.00e+00	0	49	104	0	60	1048575
2026-01-17 14:57:15.25	336.83	2.02	-83.5	-79.0	2.5	0.00e+00	0	49	104	0	60	1048575
2026-01-17 14:57:17.26	336.62	1.91	-83.1	-79.0	2.5	0.00e+00	0	49	104	0	60	1048575
2026-01-17 14:57:19.27	336.42	1.79	-83.5	-79.0	2.3	0.00e+00	0	49	104	0	60	1048572
2026-01-17 14:57:21.28	336.22	1.68	-83.1	-79.0	2.4	0.00e+00	0	49	104	0	60	1048572
2026-01-17 14:57:23.29	336.02	1.56	-83.5	-79.0	2.4	0.00e+00	0	49	104	0	60	1048575
2026-01-17 14:57:25.30	335.82	1.45	-83.1	-79.0	2.4	0.00e+00	0	49	104	0	60	1048571
2026-01-17 14:57:27.31	335.63	1.33	-82.8	-79.0	2.4	0.00e+00	0	49	104	0	60	1048575
2026-01-17 14:57:29.32	335.44	1.22	-83.5	-79.0	2.3	0.00e+00	0	49	104	0	60	1048574
2026-01-17 14:57:31.34	335.24	1.10	-82.8	-79.0	2.4	0.00e+00	0	49	104	0	60	1048567
2026-01-17 14:57:33.36	335.05	0.99	-83.5	-79.0	2.4	0.00e+00	0	49	104	0	60	1048573
2026-01-17 14:57:35.37	334.87	0.88	-83.5	-79.0	2.5	0.00e+00	0	49	104	0	60	1048575
2026-01-17 14:57:37.39	334.68	0.76	-83.5	-79.0	2.4	0.00e+00	0	49	104	0	60	1048570
2026-01-17 14:57:39.40	334.50	0.65	-83.5	-79.0	2.4	0.00e+00	0	49	104	0	60	1048571
2026-01-17 14:57:41.41	334.32	0.54	-82.8	-79.0	2.4	0.00e+00	0	49	104	0	60	1048574
2026-01-17 14:57:43.43	334.14	0.43	-83.5	-79.0	2.3	0.00e+00	0	49	104	0	60	1048568
2026-01-17 14:57:45.45	333.96	0.31	-82.8	-79.0	2.4	0.00e+00	0	49	104	0	60	1048574
2026-01-17 14:57:47.46	333.78	0.20	-83.5	-79.0	2.4	0.00e+00	0	49	104	0	60	1048574
2026-01-17 14:57:49.48	333.61	0.09	-83.5	-79.0	2.4	0.00e+00	0	49	104	0	60	1048573
2026-01-17 14:57:51.49	333.44	-0.02	-83.1	-79.0	2.4	0.00e+00	0	49	104	0	60	1048567

#Closed at: 2026-01-17 14:57:52
#Recorded file [0 MB]: D:/Data/35015_260117_175217.dat