passes_logs/2026/01/17/R3.2S-Naryan-Mar/R3.2S-Naryan-Mar__20260117_131023_TY-42_rec.log

#Pass ID: 20260117_131023_TY-42
#Satellite: TY-42
#Configuration: TY-42
#almurnet v.1.7.20240730
#Start time: 2026-01-17 13:10:25

#Version: 2.2.20231116
#Station: R3.2S-Naryan-Mar
#Location: 53.008057 lon 67.646978 lat
#TLE: 1 64048U 25103A   26017.21478009  .00008006  00000-0  38191-3 0 09999
#TLE: 2 64048 097.4122 092.5907 0001889 091.4381 313.8037 15.19150120 37159

#Time	Az	El	Level	Level2	SNR	BER	BlckErr	Temp	State	Recorded	gain1	gain2
2026-01-17 13:10:25.51	54.19	0.10	-83.1	-79.0	2.5	0.00e+00	0	44	0	0	60	1048574
2026-01-17 13:10:27.53	53.97	0.19	-83.1	-79.0	2.5	0.00e+00	0	46	104	0	60	1048572
2026-01-17 13:10:29.53	53.74	0.29	-83.5	-79.0	2.3	0.00e+00	0	46	104	0	60	1048574
2026-01-17 13:10:31.55	53.51	0.39	-83.5	-79.0	2.4	0.00e+00	0	46	104	0	60	1048575
2026-01-17 13:10:33.56	53.28	0.48	-83.5	-79.0	2.3	0.00e+00	0	46	104	0	60	1048569
2026-01-17 13:10:35.58	53.05	0.58	-83.5	-79.0	2.5	0.00e+00	0	46	104	0	60	1048575
2026-01-17 13:10:37.60	52.81	0.68	-83.1	-79.0	2.5	0.00e+00	0	46	104	0	60	1048560
2026-01-17 13:10:39.61	52.57	0.77	-83.5	-79.0	2.5	0.00e+00	0	46	104	0	60	1048567
2026-01-17 13:10:41.62	52.34	0.87	-83.1	-79.0	2.5	0.00e+00	0	46	104	0	60	1048575
2026-01-17 13:10:43.63	52.09	0.97	-83.5	-79.0	2.5	0.00e+00	0	46	104	0	60	1048574
2026-01-17 13:10:45.63	51.85	1.06	-83.5	-79.0	2.5	0.00e+00	0	47	104	0	60	1048569
2026-01-17 13:10:47.64	51.61	1.16	-83.1	-79.0	2.5	0.00e+00	0	46	104	0	60	1048570
2026-01-17 13:10:49.66	51.36	1.26	-83.5	-79.0	2.5	0.00e+00	0	46	104	0	60	1048571
2026-01-17 13:10:51.68	51.11	1.35	-82.8	-79.0	2.5	0.00e+00	0	47	104	0	60	1048571
2026-01-17 13:10:53.70	50.86	1.45	-83.5	-79.0	2.4	0.00e+00	0	47	104	0	60	1048575
2026-01-17 13:10:55.70	50.60	1.55	-83.5	-79.0	2.3	0.00e+00	0	47	104	0	60	1048575
2026-01-17 13:10:57.71	50.35	1.65	-83.5	-79.0	2.3	0.00e+00	0	47	104	0	60	1048573
2026-01-17 13:10:59.73	50.09	1.74	-83.5	-79.0	2.3	0.00e+00	0	47	104	0	60	1048575
2026-01-17 13:11:01.74	49.83	1.84	-83.5	-79.0	2.4	0.00e+00	0	47	104	0	60	1048575
2026-01-17 13:11:03.75	49.57	1.94	-83.5	-79.0	2.6	0.00e+00	0	47	104	0	60	1048573
2026-01-17 13:11:05.76	49.30	2.03	-83.1	-79.0	2.4	0.00e+00	0	47	104	0	60	1048575
2026-01-17 13:11:07.77	49.03	2.13	-83.5	-79.0	2.6	0.00e+00	0	47	104	0	60	1048574
2026-01-17 13:11:09.79	48.76	2.23	-83.1	-79.0	2.5	0.00e+00	0	47	104	0	60	1048572
2026-01-17 13:11:11.81	48.49	2.32	-83.1	-79.0	2.0	0.00e+00	0	47	104	0	60	1048571
2026-01-17 13:11:13.82	48.22	2.42	-83.5	-79.0	2.0	0.00e+00	0	47	104	0	60	1048573
2026-01-17 13:11:15.83	47.94	2.52	-83.1	-79.0	2.3	0.00e+00	0	47	104	0	60	1048575
2026-01-17 13:11:17.84	47.66	2.61	-83.5	-79.0	2.3	0.00e+00	0	47	104	0	60	1048575
2026-01-17 13:11:19.85	47.38	2.71	-83.1	-79.0	2.3	0.00e+00	0	47	104	0	60	1048568
2026-01-17 13:11:21.87	47.10	2.81	-83.5	-79.0	2.3	0.00e+00	0	47	104	0	60	1048574
2026-01-17 13:11:23.88	46.81	2.90	-83.5	-79.0	2.2	0.00e+00	0	47	104	0	60	1048563
2026-01-17 13:11:25.90	46.52	3.00	-83.5	-79.0	2.1	0.00e+00	0	47	104	0	60	1048571
2026-01-17 13:11:27.91	46.23	3.09	-83.5	-79.0	2.1	0.00e+00	0	47	104	0	60	1048575
2026-01-17 13:11:29.93	45.93	3.19	-83.1	-79.0	2.3	0.00e+00	0	47	104	0	60	1048571
2026-01-17 13:11:31.94	45.64	3.28	-83.5	-79.0	2.6	0.00e+00	0	47	104	0	60	1048573
2026-01-17 13:11:33.95	45.34	3.38	-83.1	-79.0	2.1	0.00e+00	0	47	104	0	60	1048570
2026-01-17 13:11:35.97	45.04	3.48	-83.5	-79.0	2.1	0.00e+00	0	47	104	0	60	1048573
2026-01-17 13:11:37.98	44.74	3.57	-83.5	-79.0	2.1	0.00e+00	0	47	104	0	60	1048575
2026-01-17 13:11:40.00	44.43	3.67	-83.1	-79.0	2.1	0.00e+00	0	47	104	0	60	1048575
2026-01-17 13:11:42.01	44.12	3.76	-83.5	-79.0	2.1	0.00e+00	0	47	104	0	60	1048572
2026-01-17 13:11:44.03	43.81	3.85	-83.1	-79.0	2.3	0.00e+00	0	47	104	0	60	1048570
2026-01-17 13:11:46.05	43.49	3.95	-83.5	-79.0	2.2	0.00e+00	0	47	104	0	60	1048575
2026-01-17 13:11:48.05	43.18	4.04	-83.1	-79.0	2.2	0.00e+00	0	48	104	0	60	1048572
2026-01-17 13:11:50.06	42.86	4.14	-83.5	-79.0	2.1	0.00e+00	0	48	104	0	60	1048573
2026-01-17 13:11:52.06	42.54	4.23	-83.5	-79.0	2.1	0.00e+00	0	48	104	0	60	1048575
2026-01-17 13:11:54.08	42.21	4.32	-83.1	-79.0	2.4	0.00e+00	0	48	104	0	60	1048575
2026-01-17 13:11:56.09	41.89	4.42	-83.5	-79.0	2.4	0.00e+00	0	47	104	0	60	1048572
2026-01-17 13:11:58.11	41.56	4.51	-83.1	-79.0	2.4	0.00e+00	0	48	104	0	60	1048575
2026-01-17 13:12:00.13	41.22	4.60	-83.5	-79.0	2.2	0.00e+00	0	48	104	0	60	1048574
2026-01-17 13:12:02.13	40.89	4.69	-83.1	-79.0	2.0	0.00e+00	0	48	104	0	60	1048575
2026-01-17 13:12:04.14	40.55	4.78	-83.5	-79.0	2.3	0.00e+00	0	48	104	0	60	1048575
2026-01-17 13:12:06.16	40.21	4.88	-83.5	-79.0	2.5	0.00e+00	0	48	104	0	60	1048570
2026-01-17 13:12:08.17	39.87	4.97	-83.1	-79.0	2.4	0.00e+00	0	48	104	0	60	1048573
2026-01-17 13:12:10.19	39.52	5.06	-83.5	-79.0	2.4	0.00e+00	0	48	104	0	60	1048575
2026-01-17 13:12:12.20	39.17	5.15	-83.1	-79.0	2.4	0.00e+00	0	48	104	0	60	1048572
2026-01-17 13:12:14.21	38.82	5.24	-83.5	-79.0	2.4	0.00e+00	0	48	104	0	60	1048574
2026-01-17 13:12:16.23	38.47	5.33	-83.1	-79.0	2.5	0.00e+00	0	48	104	0	60	1048571
2026-01-17 13:12:18.24	38.11	5.41	-83.5	-79.0	2.4	0.00e+00	0	48	104	0	60	1048575
2026-01-17 13:12:20.26	37.75	5.50	-83.5	-79.0	2.4	0.00e+00	0	48	104	0	60	1048572
2026-01-17 13:12:22.26	37.39	5.59	-83.1	-79.0	2.5	0.00e+00	0	48	104	0	60	1048575
2026-01-17 13:12:24.27	37.02	5.68	-83.5	-79.0	2.4	0.00e+00	0	48	104	0	60	1048567
2026-01-17 13:12:26.29	36.65	5.76	-82.8	-79.0	2.4	0.00e+00	0	48	104	0	60	1048573
2026-01-17 13:12:28.30	36.28	5.85	-83.5	-79.0	2.5	0.00e+00	0	48	104	0	60	1048573
2026-01-17 13:12:30.32	35.91	5.94	-83.5	-79.0	2.5	0.00e+00	0	48	104	0	60	1048565
2026-01-17 13:12:32.34	35.53	6.02	-83.5	-79.0	2.3	0.00e+00	0	48	104	0	60	1048575
2026-01-17 13:12:34.35	35.15	6.11	-83.5	-79.0	2.4	0.00e+00	0	48	104	0	60	1048575
2026-01-17 13:12:36.37	34.77	6.19	-83.1	-79.0	2.5	0.00e+00	0	48	104	0	60	1048571
2026-01-17 13:12:38.38	34.38	6.27	-83.5	-79.0	2.6	0.00e+00	0	48	104	0	60	1048574
2026-01-17 13:12:40.39	34.00	6.36	-83.1	-79.0	2.6	0.00e+00	0	48	104	0	60	1048575
2026-01-17 13:12:42.41	33.61	6.44	-83.5	-79.0	2.4	0.00e+00	0	48	104	0	60	1048569
2026-01-17 13:12:44.42	33.21	6.52	-83.5	-79.0	2.3	0.00e+00	0	48	104	0	60	1048575
2026-01-17 13:12:46.44	32.82	6.60	-83.5	-79.0	2.4	0.00e+00	0	48	104	0	60	1048573
2026-01-17 13:12:48.45	32.42	6.68	-83.5	-79.0	2.5	0.00e+00	0	48	104	0	60	1048573
2026-01-17 13:12:50.47	32.02	6.76	-83.1	-79.0	2.6	0.00e+00	0	48	104	0	60	1048575
2026-01-17 13:12:52.47	31.61	6.83	-83.5	-79.0	2.6	0.00e+00	0	48	104	0	60	1048570
2026-01-17 13:12:54.49	31.21	6.91	-83.5	-79.0	2.5	0.00e+00	0	48	104	0	60	1048569
2026-01-17 13:12:56.50	30.80	6.99	-83.5	-79.0	2.5	0.00e+00	0	48	104	0	60	1048571
2026-01-17 13:12:58.51	30.38	7.06	-83.5	-79.0	2.4	0.00e+00	0	48	104	0	60	1048575
2026-01-17 13:13:00.52	29.97	7.14	-83.1	-79.0	2.4	0.00e+00	0	48	104	0	60	1048573
2026-01-17 13:13:02.53	29.55	7.21	-83.5	-79.0	2.5	0.00e+00	0	48	104	0	60	1048573
2026-01-17 13:13:04.54	29.13	7.28	-83.1	-79.0	2.5	0.00e+00	0	48	104	0	60	1048575
2026-01-17 13:13:06.55	28.71	7.36	-83.5	-79.0	2.5	0.00e+00	0	48	104	0	60	1048573
2026-01-17 13:13:08.56	28.29	7.43	-83.1	-79.0	2.2	0.00e+00	0	48	104	0	60	1048575
2026-01-17 13:13:10.57	27.86	7.50	-83.5	-79.0	2.4	0.00e+00	0	48	104	0	60	1048571
2026-01-17 13:13:12.59	27.43	7.56	-83.5	-79.0	2.2	0.00e+00	0	48	104	0	60	1048575
2026-01-17 13:13:14.60	26.99	7.63	-83.1	-79.0	2.1	0.00e+00	0	48	104	0	60	1048575
2026-01-17 13:13:16.61	26.56	7.70	-83.5	-79.0	2.1	0.00e+00	0	48	104	0	60	1048574
2026-01-17 13:13:18.63	26.12	7.76	-83.1	-79.0	2.4	0.00e+00	0	48	104	0	60	1048573
2026-01-17 13:13:20.64	25.68	7.83	-83.5	-79.0	2.3	0.00e+00	0	48	104	0	60	1048575
2026-01-17 13:13:22.65	25.24	7.89	-83.5	-79.0	2.3	0.00e+00	0	48	104	0	60	1048573
2026-01-17 13:13:24.66	24.79	7.95	-83.1	-79.0	2.2	0.00e+00	0	48	104	0	60	1048573
2026-01-17 13:13:26.67	24.34	8.01	-83.5	-79.0	2.1	0.00e+00	0	48	104	0	60	1048574
2026-01-17 13:13:28.68	23.89	8.07	-83.1	-79.0	2.2	0.00e+00	0	48	104	0	60	1048570
2026-01-17 13:13:30.69	23.44	8.13	-83.5	-79.0	1.9	0.00e+00	0	48	104	0	60	1048568
2026-01-17 13:13:32.69	22.99	8.19	-83.1	-79.0	2.5	0.00e+00	0	48	104	0	60	1048575
2026-01-17 13:13:34.71	22.53	8.25	-83.1	-79.0	2.3	0.00e+00	0	48	104	0	60	1048572
2026-01-17 13:13:36.73	22.07	8.30	-83.5	-79.0	2.4	0.00e+00	0	48	104	0	60	1048571
2026-01-17 13:13:38.73	21.61	8.35	-82.8	-79.0	2.1	0.00e+00	0	48	104	0	60	1048572
2026-01-17 13:13:40.74	21.15	8.41	-83.5	-79.0	2.2	0.00e+00	0	48	104	0	60	1048573
2026-01-17 13:13:42.75	20.69	8.46	-82.8	-79.0	2.0	0.00e+00	0	48	104	0	60	1048573
2026-01-17 13:13:44.77	20.22	8.51	-83.5	-79.0	2.4	0.00e+00	0	48	104	0	60	1048574
2026-01-17 13:13:46.78	19.75	8.55	-83.5	-79.0	2.4	0.00e+00	0	48	104	0	60	1048574
2026-01-17 13:13:48.79	19.28	8.60	-83.5	-79.0	2.6	0.00e+00	0	48	104	0	60	1048575
2026-01-17 13:13:50.80	18.81	8.64	-83.5	-79.0	2.4	0.00e+00	0	48	104	0	60	1048565
2026-01-17 13:13:52.82	18.33	8.69	-83.1	-79.0	2.5	0.00e+00	0	49	104	0	60	1048574
2026-01-17 13:13:54.83	17.85	8.73	-83.5	-79.0	2.4	0.00e+00	0	48	104	0	60	1048575
2026-01-17 13:13:56.85	17.38	8.77	-83.1	-79.0	2.4	0.00e+00	0	48	104	0	60	1048575
2026-01-17 13:13:58.86	16.90	8.81	-83.5	-79.0	2.4	0.00e+00	0	48	104	0	60	1048569
2026-01-17 13:14:00.88	16.41	8.85	-83.1	-79.0	2.4	0.00e+00	0	48	104	0	60	1048575
2026-01-17 13:14:02.89	15.93	8.88	-83.5	-79.0	2.5	0.00e+00	0	48	104	0	60	1048575
2026-01-17 13:14:04.91	15.45	8.92	-83.5	-79.0	2.4	0.00e+00	0	48	104	0	60	1048570
2026-01-17 13:14:06.93	14.96	8.95	-83.1	-79.0	2.5	0.00e+00	0	48	104	0	60	1048575
2026-01-17 13:14:08.94	14.47	8.98	-83.5	-79.0	2.3	0.00e+00	0	48	104	0	60	1048568
2026-01-17 13:14:10.95	13.98	9.01	-83.1	-79.0	2.5	0.00e+00	0	48	104	0	60	1048573
2026-01-17 13:14:12.96	13.50	9.04	-83.5	-79.0	2.4	0.00e+00	0	49	104	0	60	1048573
2026-01-17 13:14:14.98	13.00	9.06	-83.5	-79.0	2.6	0.00e+00	0	48	104	0	60	1048571
2026-01-17 13:14:16.99	12.51	9.09	-83.5	-79.0	2.6	0.00e+00	0	48	104	0	60	1048574
2026-01-17 13:14:19.00	12.02	9.11	-83.5	-79.0	2.5	0.00e+00	0	48	104	0	60	1048569
2026-01-17 13:14:21.02	11.53	9.13	-83.1	-79.0	2.4	0.00e+00	0	48	104	0	60	1048574
2026-01-17 13:14:23.03	11.03	9.15	-83.5	-79.0	2.3	0.00e+00	0	49	104	0	60	1048573
2026-01-17 13:14:25.04	10.54	9.17	-83.5	-79.0	2.4	0.00e+00	0	49	104	0	60	1048572
2026-01-17 13:14:27.06	10.04	9.18	-83.5	-79.0	2.4	0.00e+00	0	49	104	0	60	1048575
2026-01-17 13:14:29.07	9.54	9.20	-83.5	-79.0	2.6	0.00e+00	0	48	104	0	60	1048573
2026-01-17 13:14:31.09	9.05	9.21	-83.5	-79.0	2.6	0.00e+00	0	49	104	0	60	1048570
2026-01-17 13:14:33.11	8.55	9.22	-83.5	-79.0	2.5	0.00e+00	0	49	104	0	60	1048575
2026-01-17 13:14:35.12	8.05	9.23	-83.1	-79.0	2.4	0.00e+00	0	49	104	0	60	1048575
2026-01-17 13:14:37.13	7.55	9.24	-83.5	-79.0	2.4	0.00e+00	0	49	104	0	60	1048573
2026-01-17 13:14:39.13	7.06	9.24	-83.5	-79.0	2.6	0.00e+00	0	49	104	0	60	1048574
2026-01-17 13:14:41.15	6.56	9.25	-83.5	-79.0	2.5	0.00e+00	0	48	104	0	60	1048568
2026-01-17 13:14:43.16	6.06	9.25	-83.5	-79.0	2.4	0.00e+00	0	48	104	0	60	1048568
2026-01-17 13:14:45.18	5.56	9.25	-83.1	-79.0	2.4	0.00e+00	0	49	104	0	60	1048575
2026-01-17 13:14:47.20	5.06	9.25	-83.5	-79.0	2.3	0.00e+00	0	49	104	0	60	1048575
2026-01-17 13:14:49.21	4.56	9.25	-83.1	-79.0	2.3	0.00e+00	0	48	104	0	60	1048574
2026-01-17 13:14:51.22	4.06	9.24	-83.5	-79.0	2.2	0.00e+00	0	48	104	0	60	1048575
2026-01-17 13:14:53.23	3.56	9.23	-83.5	-79.0	2.6	0.00e+00	0	48	104	0	60	1048575
2026-01-17 13:14:55.25	3.06	9.23	-83.5	-79.0	2.5	0.00e+00	0	49	104	0	60	1048574
2026-01-17 13:14:57.26	2.57	9.22	-83.5	-79.0	2.4	0.00e+00	0	48	104	0	60	1048574
2026-01-17 13:14:59.28	2.07	9.20	-83.1	-79.0	2.4	0.00e+00	0	48	104	0	60	1048569
2026-01-17 13:15:01.29	1.57	9.19	-83.5	-79.0	2.2	0.00e+00	0	49	104	0	60	1048571
2026-01-17 13:15:03.31	1.07	9.17	-83.1	-79.0	2.2	0.00e+00	0	49	104	0	60	1048570
2026-01-17 13:15:05.32	0.58	9.16	-83.5	-79.0	2.2	0.00e+00	0	49	104	0	60	1048575
2026-01-17 13:15:07.34	0.08	9.14	-83.5	-79.0	2.5	0.00e+00	0	48	104	0	60	1048575
2026-01-17 13:15:09.35	359.59	9.12	-83.1	-79.0	2.4	0.00e+00	0	49	104	0	60	1048574
2026-01-17 13:15:11.37	359.10	9.09	-83.5	-79.0	2.3	0.00e+00	0	49	104	0	60	1048575
2026-01-17 13:15:13.38	358.61	9.07	-83.1	-79.0	2.2	0.00e+00	0	48	104	0	60	1048575
2026-01-17 13:15:15.40	358.11	9.05	-83.5	-79.0	2.1	0.00e+00	0	49	104	0	60	1048574
2026-01-17 13:15:17.42	357.62	9.02	-83.1	-79.0	2.0	0.00e+00	0	48	104	0	60	1048572
2026-01-17 13:15:19.43	357.13	8.99	-83.5	-79.0	2.5	0.00e+00	0	49	104	0	60	1048572
2026-01-17 13:15:21.44	356.65	8.96	-83.5	-79.0	2.5	0.00e+00	0	48	104	0	60	1048573
2026-01-17 13:15:23.46	356.16	8.93	-83.5	-79.0	2.3	0.00e+00	0	49	104	0	60	1048574
2026-01-17 13:15:25.46	355.68	8.89	-83.5	-79.0	2.2	0.00e+00	0	49	104	0	60	1048575
2026-01-17 13:15:27.47	355.20	8.86	-83.1	-79.0	2.2	0.00e+00	0	48	104	0	60	1048575
2026-01-17 13:15:29.48	354.72	8.82	-83.1	-79.0	2.0	0.00e+00	0	49	104	0	60	1048573
2026-01-17 13:15:31.50	354.23	8.78	-83.1	-79.0	2.0	0.00e+00	0	49	104	0	60	1048571
2026-01-17 13:15:33.51	353.76	8.74	-83.5	-79.0	2.4	0.00e+00	0	49	104	0	60	1048574
2026-01-17 13:15:35.53	353.28	8.70	-83.1	-79.0	2.4	0.00e+00	0	48	104	0	60	1048574
2026-01-17 13:15:37.54	352.80	8.66	-83.1	-79.0	2.3	0.00e+00	0	49	104	0	60	1048573
2026-01-17 13:15:39.55	352.33	8.61	-83.5	-79.0	2.0	0.00e+00	0	49	104	0	60	1048574
2026-01-17 13:15:41.56	351.86	8.57	-83.1	-79.0	2.1	0.00e+00	0	48	104	0	60	1048574
2026-01-17 13:15:43.57	351.39	8.52	-83.5	-79.0	2.0	0.00e+00	0	48	104	0	60	1048574
2026-01-17 13:15:45.58	350.92	8.47	-83.5	-79.0	2.4	0.00e+00	0	48	104	0	60	1048575
2026-01-17 13:15:47.59	350.46	8.42	-83.5	-79.0	2.6	0.00e+00	0	48	104	0	60	1048570
2026-01-17 13:15:49.61	349.99	8.37	-83.5	-79.0	2.4	0.00e+00	0	49	104	0	60	1048571
2026-01-17 13:15:51.62	349.53	8.32	-83.1	-79.0	2.4	0.00e+00	0	49	104	0	60	1048573
2026-01-17 13:15:53.63	349.07	8.26	-83.5	-79.0	2.0	0.00e+00	0	49	104	0	60	1048572
2026-01-17 13:15:55.65	348.61	8.21	-83.1	-79.0	2.1	0.00e+00	0	49	104	0	60	1048573
2026-01-17 13:15:57.66	348.16	8.15	-83.5	-79.0	2.4	0.00e+00	0	49	104	0	60	1048569
2026-01-17 13:15:59.67	347.71	8.09	-83.5	-79.0	2.4	0.00e+00	0	49	104	0	60	1048574
2026-01-17 13:16:01.69	347.25	8.03	-83.5	-79.0	2.3	0.00e+00	0	48	104	0	60	1048573
2026-01-17 13:16:03.70	346.81	7.97	-83.5	-79.0	2.4	0.00e+00	0	49	104	0	60	1048573
2026-01-17 13:16:05.72	346.36	7.91	-83.1	-79.0	2.5	0.00e+00	0	49	104	0	60	1048575
2026-01-17 13:16:07.73	345.92	7.85	-83.5	-79.0	2.5	0.00e+00	0	49	104	0	60	1048571
2026-01-17 13:16:09.75	345.47	7.78	-83.1	-79.0	2.3	0.00e+00	0	49	104	0	60	1048575
2026-01-17 13:16:11.76	345.04	7.72	-83.5	-79.0	2.5	0.00e+00	0	49	104	0	60	1048570
2026-01-17 13:16:13.78	344.60	7.65	-83.5	-79.0	2.5	0.00e+00	0	49	104	0	60	1048575
2026-01-17 13:16:15.79	344.16	7.59	-83.1	-79.0	2.4	0.00e+00	0	49	104	0	60	1048574
2026-01-17 13:16:17.81	343.73	7.52	-83.5	-79.0	2.5	0.00e+00	0	49	104	0	60	1048573
2026-01-17 13:16:19.82	343.30	7.45	-83.1	-79.0	2.5	0.00e+00	0	49	104	0	60	1048567
2026-01-17 13:16:21.84	342.88	7.38	-83.5	-79.0	2.4	0.00e+00	0	49	104	0	60	1048570
2026-01-17 13:16:23.85	342.45	7.31	-83.1	-79.0	2.5	0.00e+00	0	49	104	0	60	1048571
2026-01-17 13:16:25.87	342.03	7.23	-83.5	-79.0	2.5	0.00e+00	0	49	104	0	60	1048575
2026-01-17 13:16:27.89	341.61	7.16	-83.5	-79.0	2.5	0.00e+00	0	49	104	0	60	1048574
2026-01-17 13:16:29.90	341.20	7.09	-83.1	-79.0	2.5	0.00e+00	0	49	104	0	60	1048574
2026-01-17 13:16:31.91	340.78	7.01	-83.5	-79.0	2.5	0.00e+00	0	49	104	0	60	1048573
2026-01-17 13:16:33.93	340.37	6.93	-83.1	-79.0	2.3	0.00e+00	0	49	104	0	60	1048575
2026-01-17 13:16:35.94	339.97	6.86	-83.5	-79.0	2.4	0.00e+00	0	48	104	0	60	1048575
2026-01-17 13:16:37.95	339.56	6.78	-83.5	-79.0	2.5	0.00e+00	0	49	104	0	60	1048574
2026-01-17 13:16:39.96	339.16	6.70	-83.1	-79.0	2.5	0.00e+00	0	49	104	0	60	1048575
2026-01-17 13:16:41.98	338.76	6.62	-83.5	-79.0	2.4	0.00e+00	0	49	104	0	60	1048574
2026-01-17 13:16:43.99	338.36	6.54	-83.1	-79.0	2.7	0.00e+00	0	49	104	0	60	1048570
2026-01-17 13:16:46.01	337.97	6.46	-83.5	-79.0	2.4	0.00e+00	0	49	104	0	60	1048570
2026-01-17 13:16:48.02	337.58	6.38	-83.1	-79.0	2.4	0.00e+00	0	48	104	0	60	1048570
2026-01-17 13:16:50.04	337.19	6.30	-83.5	-79.0	2.5	0.00e+00	0	49	104	0	60	1048562
2026-01-17 13:16:52.05	336.80	6.21	-83.5	-79.0	2.5	0.00e+00	0	49	104	0	60	1048574
2026-01-17 13:16:54.07	336.42	6.13	-83.5	-79.0	2.6	0.00e+00	0	49	104	0	60	1048574
2026-01-17 13:16:56.08	336.04	6.05	-83.5	-79.0	2.5	0.00e+00	0	49	104	0	60	1048574
2026-01-17 13:16:58.10	335.66	5.96	-82.8	-79.0	2.4	0.00e+00	0	49	104	0	60	1048572
2026-01-17 13:17:00.12	335.29	5.88	-83.5	-79.0	2.5	0.00e+00	0	49	104	0	60	1048574
2026-01-17 13:17:02.13	334.92	5.79	-83.1	-79.0	2.5	0.00e+00	0	49	104	0	60	1048575
2026-01-17 13:17:04.14	334.55	5.70	-83.5	-79.0	2.6	0.00e+00	0	49	104	0	60	1048573
2026-01-17 13:17:06.16	334.18	5.62	-83.5	-79.0	2.5	0.00e+00	0	49	104	0	60	1048568
2026-01-17 13:17:08.17	333.82	5.53	-83.1	-79.0	2.5	0.00e+00	0	49	104	0	60	1048574
2026-01-17 13:17:10.19	333.46	5.44	-83.5	-79.0	2.5	0.00e+00	0	49	104	0	60	1048575
2026-01-17 13:17:12.20	333.10	5.35	-83.1	-79.0	2.4	0.00e+00	0	49	104	0	60	1048573
2026-01-17 13:17:14.21	332.75	5.26	-83.5	-79.0	2.5	0.00e+00	0	49	104	0	60	1048573
2026-01-17 13:17:16.23	332.39	5.17	-83.5	-79.0	2.5	0.00e+00	0	49	104	0	60	1048572
2026-01-17 13:17:18.25	332.04	5.08	-83.5	-79.0	2.6	0.00e+00	0	49	104	0	60	1048574
2026-01-17 13:17:20.26	331.70	4.99	-83.5	-79.0	2.5	0.00e+00	0	49	104	0	60	1048575
2026-01-17 13:17:22.27	331.35	4.90	-83.1	-79.0	2.5	0.00e+00	0	49	104	0	60	1048574
2026-01-17 13:17:24.28	331.01	4.81	-83.5	-79.0	2.3	0.00e+00	0	49	104	0	60	1048574
2026-01-17 13:17:26.29	330.67	4.72	-83.1	-79.0	2.1	0.00e+00	0	49	104	0	60	1048575
2026-01-17 13:17:28.31	330.34	4.63	-83.5	-79.0	2.1	0.00e+00	0	48	104	0	60	1048575
2026-01-17 13:17:30.33	330.00	4.53	-83.5	-79.0	2.5	0.00e+00	0	49	104	0	60	1048573
2026-01-17 13:17:32.34	329.67	4.44	-83.5	-79.0	2.5	0.00e+00	0	48	104	0	60	1048574
2026-01-17 13:17:34.36	329.34	4.35	-83.5	-79.0	2.5	0.00e+00	0	49	104	0	60	1048573
2026-01-17 13:17:36.37	329.02	4.26	-83.1	-79.0	2.4	0.00e+00	0	49	104	0	60	1048575
2026-01-17 13:17:38.39	328.70	4.16	-83.1	-79.0	2.3	0.00e+00	0	49	104	0	60	1048574
2026-01-17 13:17:40.39	328.38	4.07	-83.1	-79.0	2.2	0.00e+00	0	49	104	0	60	1048575
2026-01-17 13:17:42.41	328.06	3.98	-83.5	-79.0	2.1	0.00e+00	0	49	104	0	60	1048574
2026-01-17 13:17:44.42	327.75	3.88	-83.5	-79.0	2.0	0.00e+00	0	49	104	0	60	1048575
2026-01-17 13:17:46.43	327.44	3.79	-83.5	-79.0	2.3	0.00e+00	0	49	104	0	60	1048575
2026-01-17 13:17:48.45	327.13	3.69	-83.5	-79.0	2.0	0.00e+00	0	49	104	0	60	1048568
2026-01-17 13:17:50.46	326.82	3.60	-83.1	-79.0	2.1	0.00e+00	0	49	104	0	60	1048575
2026-01-17 13:17:52.47	326.52	3.50	-83.5	-79.0	2.1	0.00e+00	0	49	104	0	60	1048574
2026-01-17 13:17:54.48	326.22	3.41	-83.1	-79.0	2.0	0.00e+00	0	49	104	0	60	1048574
2026-01-17 13:17:56.50	325.92	3.31	-83.5	-79.0	2.1	0.00e+00	0	49	104	0	60	1048574
2026-01-17 13:17:58.51	325.62	3.22	-83.5	-79.0	2.5	0.00e+00	0	49	104	0	60	1048575
2026-01-17 13:18:00.53	325.32	3.12	-83.1	-79.0	2.3	0.00e+00	0	49	104	0	60	1048565
2026-01-17 13:18:02.54	325.03	3.03	-83.5	-79.0	2.2	0.00e+00	0	49	104	0	60	1048575
2026-01-17 13:18:04.56	324.74	2.93	-82.8	-79.0	2.0	0.00e+00	0	49	104	0	60	1048575
2026-01-17 13:18:06.57	324.46	2.83	-83.5	-79.0	2.0	0.00e+00	0	49	104	0	60	1048573
2026-01-17 13:18:08.59	324.17	2.74	-83.1	-79.0	2.5	0.00e+00	0	49	104	0	60	1048569
2026-01-17 13:18:10.60	323.89	2.64	-83.5	-79.0	2.3	0.00e+00	0	49	104	0	60	1048569
2026-01-17 13:18:12.61	323.61	2.54	-83.5	-79.0	2.3	0.00e+00	0	49	104	0	60	1048575
2026-01-17 13:18:14.62	323.34	2.45	-83.5	-79.0	2.4	0.00e+00	0	49	104	0	60	1048575
2026-01-17 13:18:16.63	323.06	2.35	-83.5	-79.0	2.2	0.00e+00	0	49	104	0	60	1048574
2026-01-17 13:18:18.65	322.79	2.25	-83.1	-79.0	2.2	0.00e+00	0	49	104	0	60	1048575
2026-01-17 13:18:20.66	322.52	2.16	-83.5	-79.0	2.5	0.00e+00	0	48	104	0	60	1048570
2026-01-17 13:18:22.68	322.25	2.06	-83.1	-79.0	2.4	0.00e+00	0	49	104	0	60	1048568
2026-01-17 13:18:24.69	321.98	1.96	-83.5	-79.0	2.5	0.00e+00	0	49	104	0	60	1048575
2026-01-17 13:18:26.71	321.72	1.87	-83.5	-79.0	2.6	0.00e+00	0	49	104	0	60	1048575
2026-01-17 13:18:28.72	321.46	1.77	-83.1	-79.0	2.6	0.00e+00	0	49	104	0	60	1048569
2026-01-17 13:18:30.73	321.20	1.67	-83.5	-79.0	2.4	0.00e+00	0	49	104	0	60	1048567
2026-01-17 13:18:32.75	320.94	1.58	-82.8	-79.0	2.4	0.00e+00	0	49	104	0	60	1048571
2026-01-17 13:18:34.76	320.69	1.48	-83.5	-79.0	2.4	0.00e+00	0	49	104	0	60	1048572
2026-01-17 13:18:36.78	320.44	1.38	-83.5	-79.0	2.5	0.00e+00	0	49	104	0	60	1048575
2026-01-17 13:18:38.80	320.19	1.29	-83.5	-79.0	2.5	0.00e+00	0	49	104	0	60	1048570
2026-01-17 13:18:40.81	319.94	1.19	-83.5	-79.0	2.4	0.00e+00	0	49	104	0	60	1048573
2026-01-17 13:18:42.83	319.69	1.09	-83.1	-79.0	2.4	0.00e+00	0	49	104	0	60	1048567
2026-01-17 13:18:44.84	319.45	0.99	-83.5	-79.0	2.4	0.00e+00	0	48	104	0	60	1048570
2026-01-17 13:18:46.85	319.21	0.90	-83.1	-79.0	2.4	0.00e+00	0	48	104	0	60	1048575
2026-01-17 13:18:48.86	318.97	0.80	-83.5	-79.0	2.4	0.00e+00	0	49	104	0	60	1048574
2026-01-17 13:18:50.87	318.73	0.70	-83.5	-79.0	2.4	0.00e+00	0	49	104	0	60	1048571
2026-01-17 13:18:52.89	318.49	0.61	-83.5	-79.0	2.4	0.00e+00	0	49	104	0	60	1048573
2026-01-17 13:18:54.90	318.26	0.51	-83.5	-79.0	2.5	0.00e+00	0	49	104	0	60	1048572
2026-01-17 13:18:56.92	318.03	0.41	-83.1	-79.0	2.4	0.00e+00	0	49	104	0	60	1048575
2026-01-17 13:18:58.92	317.80	0.32	-83.5	-79.0	2.4	0.00e+00	0	49	104	0	60	1048575
2026-01-17 13:19:00.94	317.57	0.22	-83.5	-79.0	2.4	0.00e+00	0	49	104	0	60	1048574
2026-01-17 13:19:02.95	317.35	0.13	-83.5	-79.0	2.3	0.00e+00	0	49	104	0	60	1048573
2026-01-17 13:19:04.95	317.12	0.03	-83.5	-79.0	2.4	0.00e+00	0	49	104	0	60	1048574

#Closed at: 2026-01-17 13:19:05
#Recorded file [0 MB]: D:/Data/35015_260117_161025.dat