passes_logs/2026/01/17/R3.2S-Naryan-Mar/R3.2S-Naryan-Mar__20260117_155627_TY-41_rec.log

#Pass ID: 20260117_155627_TY-41
#Satellite: TY-41
#Configuration: TY-39
#almurnet v.1.7.20240730
#Start time: 2026-01-17 15:56:31

#Version: 2.2.20231116
#Station: R3.2S-Naryan-Mar
#Location: 53.008057 lon 67.646978 lat
#TLE: 1 61231U 24173E   26017.08983796  .00008010  00000-0  38191-3 0 09990
#TLE: 2 61231 097.4122 092.0846 0001831 091.8622 061.7654 15.19167953 72814

#Time	Az	El	Level	Level2	SNR	BER	BlckErr	Temp	State	Recorded	gain1	gain2
2026-01-17 15:56:31.90	116.11	0.25	-84.7	-88.6	2.9	7.77e-01	0	44	0	0	60	1048575
2026-01-17 15:56:34.92	115.93	0.44	-83.1	-79.0	2.5	0.00e+00	0	46	104	0	60	1048575
2026-01-17 15:56:37.94	115.75	0.62	-83.1	-79.0	2.4	0.00e+00	0	46	104	0	60	1048572
2026-01-17 15:56:40.97	115.57	0.81	-83.5	-79.0	2.5	0.00e+00	0	46	104	0	60	1048575
2026-01-17 15:56:43.99	115.39	1.00	-83.5	-79.0	2.4	0.00e+00	0	46	104	0	60	1048572
2026-01-17 15:56:47.01	115.20	1.19	-82.8	-79.0	2.4	0.00e+00	0	46	104	0	60	1048575
2026-01-17 15:56:50.02	115.01	1.38	-83.5	-79.0	2.4	0.00e+00	0	46	104	0	60	1048573
2026-01-17 15:56:53.05	114.81	1.57	-83.1	-79.0	2.4	0.00e+00	0	47	104	0	60	1048574
2026-01-17 15:56:56.07	114.62	1.77	-83.1	-79.0	2.4	0.00e+00	0	46	104	0	60	1048571
2026-01-17 15:56:59.09	114.42	1.96	-83.5	-79.0	2.4	0.00e+00	0	47	104	0	60	1048575
2026-01-17 15:57:02.11	114.21	2.16	-83.1	-79.0	2.3	0.00e+00	0	47	104	0	60	1048575
2026-01-17 15:57:05.14	114.00	2.36	-83.5	-79.0	2.4	0.00e+00	0	47	104	0	60	1048572
2026-01-17 15:57:08.16	113.79	2.56	-83.5	-79.0	2.5	0.00e+00	0	47	104	0	60	1048575
2026-01-17 15:57:11.18	113.58	2.76	-83.1	-79.0	2.4	0.00e+00	0	47	104	0	60	1048571
2026-01-17 15:57:14.20	113.36	2.96	-83.5	-79.0	2.3	0.00e+00	0	47	104	0	60	1048574
2026-01-17 15:57:17.23	113.13	3.17	-83.5	-79.0	2.6	0.00e+00	0	47	104	0	60	1048574
2026-01-17 15:57:20.25	112.90	3.38	-83.1	-79.0	2.4	0.00e+00	0	47	104	0	60	1048572
2026-01-17 15:57:23.27	112.67	3.58	-83.5	-79.0	2.4	0.00e+00	0	47	104	0	60	1048573
2026-01-17 15:57:26.28	112.44	3.79	-83.5	-79.0	2.5	0.00e+00	0	47	104	0	60	1048575
2026-01-17 15:57:29.30	112.19	4.01	-83.1	-79.0	2.6	0.00e+00	0	47	104	0	60	1048569
2026-01-17 15:57:32.33	111.95	4.22	-83.5	-79.0	2.4	0.00e+00	0	47	104	0	60	1048574
2026-01-17 15:57:35.34	111.70	4.43	-83.5	-79.0	2.4	0.00e+00	0	47	104	0	60	1048572
2026-01-17 15:57:38.36	111.44	4.65	-83.5	-79.0	2.4	0.00e+00	0	47	104	0	60	1048575
2026-01-17 15:57:41.37	111.18	4.87	-83.5	-79.0	2.4	0.00e+00	0	47	104	0	60	1048575
2026-01-17 15:57:44.38	110.92	5.09	-83.1	-79.0	2.4	0.00e+00	0	47	104	0	60	1048574
2026-01-17 15:57:47.40	110.65	5.31	-83.5	-79.0	2.4	0.00e+00	0	47	104	0	60	1048569
2026-01-17 15:57:50.42	110.37	5.54	-83.5	-79.0	2.5	0.00e+00	0	47	104	0	60	1048574
2026-01-17 15:57:53.44	110.09	5.76	-83.1	-79.0	2.6	0.00e+00	0	47	104	0	60	1048564
2026-01-17 15:57:56.45	109.80	5.99	-83.5	-79.0	2.3	0.00e+00	0	47	104	0	60	1048575
2026-01-17 15:57:59.47	109.51	6.22	-83.5	-79.0	2.3	0.00e+00	0	48	104	0	60	1048575
2026-01-17 15:58:02.50	109.21	6.46	-83.1	-79.0	2.4	0.00e+00	0	48	104	0	60	1048572
2026-01-17 15:58:05.51	108.90	6.69	-83.5	-79.0	2.4	0.00e+00	0	48	104	0	60	1048574
2026-01-17 15:58:08.53	108.59	6.93	-83.1	-79.0	2.4	0.00e+00	0	47	104	0	60	1048574
2026-01-17 15:58:11.53	108.27	7.17	-83.5	-79.0	2.4	0.00e+00	0	48	104	0	60	1048573
2026-01-17 15:58:14.54	107.95	7.41	-83.5	-79.0	2.4	0.00e+00	0	48	104	0	60	1048568
2026-01-17 15:58:17.57	107.62	7.65	-83.1	-79.0	2.6	0.00e+00	0	48	104	0	60	1048570
2026-01-17 15:58:20.59	107.28	7.90	-83.5	-79.0	2.3	0.00e+00	0	48	104	0	60	1048574
2026-01-17 15:58:23.61	106.93	8.15	-83.5	-79.0	2.4	0.00e+00	0	48	104	0	60	1048568
2026-01-17 15:58:26.63	106.57	8.40	-83.1	-79.0	2.5	0.00e+00	0	48	104	0	60	1048575
2026-01-17 15:58:29.65	106.21	8.65	-83.5	-79.0	2.5	0.00e+00	0	48	104	0	60	1048566
2026-01-17 15:58:32.68	105.84	8.91	-83.5	-79.0	2.4	0.00e+00	0	48	104	0	60	1048575
2026-01-17 15:58:35.70	105.46	9.17	-83.1	-79.0	2.5	0.00e+00	0	48	104	0	60	1048575
2026-01-17 15:58:38.72	105.07	9.43	-83.5	-79.0	2.4	0.00e+00	0	48	104	0	60	1048575
2026-01-17 15:58:41.74	104.68	9.69	-83.1	-79.0	2.4	0.00e+00	0	48	104	0	60	1048572
2026-01-17 15:58:44.77	104.27	9.96	-83.5	-79.0	2.6	0.00e+00	0	48	104	0	60	1048571
2026-01-17 15:58:47.79	103.85	10.23	-83.5	-79.0	2.4	0.00e+00	0	48	104	0	60	1048559
2026-01-17 15:58:50.81	103.43	10.50	-83.1	-79.0	2.4	0.00e+00	0	48	104	0	60	1048562
2026-01-17 15:58:53.84	102.99	10.78	-83.5	-79.0	2.4	0.00e+00	0	48	104	0	60	1048574
2026-01-17 15:58:56.85	102.55	11.05	-83.1	-79.0	2.5	0.00e+00	0	48	104	0	60	1048574
2026-01-17 15:58:59.87	102.09	11.33	-83.1	-79.0	2.6	0.00e+00	0	48	104	0	60	1048553
2026-01-17 15:59:02.88	101.63	11.61	-83.5	-79.0	2.3	0.00e+00	0	48	104	0	60	1048557
2026-01-17 15:59:05.90	101.15	11.90	-83.5	-79.0	2.5	0.00e+00	0	48	104	0	60	1048573
2026-01-17 15:59:08.93	100.66	12.19	-83.1	-79.0	2.7	0.00e+00	0	48	104	0	60	1048575
2026-01-17 15:59:11.95	100.16	12.48	-83.5	-79.0	2.2	0.00e+00	0	48	104	0	60	1048575
2026-01-17 15:59:14.97	99.65	12.77	-83.1	-79.0	2.4	0.00e+00	0	48	104	0	60	1048574
2026-01-17 15:59:17.98	99.12	13.07	-83.5	-79.0	2.4	0.00e+00	0	48	104	0	60	1048573
2026-01-17 15:59:21.01	98.58	13.36	-83.5	-79.0	2.5	0.00e+00	0	48	104	0	60	1048574
2026-01-17 15:59:24.03	98.03	13.67	-83.1	-79.0	2.3	0.00e+00	0	48	104	0	60	1048573
2026-01-17 15:59:27.05	97.47	13.97	-83.5	-79.0	2.4	0.00e+00	0	48	104	0	60	1048573
2026-01-17 15:59:30.07	96.89	14.27	-83.5	-79.0	2.4	0.00e+00	0	48	104	0	60	1048573
2026-01-17 15:59:33.09	96.29	14.58	-83.1	-79.0	2.5	0.00e+00	0	48	104	0	60	1048573
2026-01-17 15:59:36.11	95.68	14.89	-83.5	-79.0	2.4	0.00e+00	0	48	104	0	60	1048568
2026-01-17 15:59:39.13	95.06	15.20	-83.5	-79.0	2.4	0.00e+00	0	48	104	0	60	1048574
2026-01-17 15:59:42.15	94.42	15.52	-83.5	-79.0	2.3	0.00e+00	0	48	104	0	60	1048572
2026-01-17 15:59:45.17	93.76	15.84	-83.5	-79.0	2.8	0.00e+00	0	48	104	0	60	1048574
2026-01-17 15:59:48.19	93.09	16.15	-83.1	-79.0	2.5	0.00e+00	0	48	104	0	60	1048572
2026-01-17 15:59:51.21	92.40	16.47	-83.5	-79.0	2.5	0.00e+00	0	48	104	0	60	1048575
2026-01-17 15:59:54.23	91.69	16.80	-83.1	-79.0	2.4	0.00e+00	0	48	104	0	60	1048570
2026-01-17 15:59:57.25	90.96	17.12	-83.1	-79.0	2.6	0.00e+00	0	48	104	0	60	1048571
2026-01-17 16:00:00.28	90.22	17.44	-83.5	-79.0	2.4	0.00e+00	0	48	104	0	60	1048572
2026-01-17 16:00:03.30	89.45	17.77	-83.5	-79.0	2.4	0.00e+00	0	48	104	0	60	1048575
2026-01-17 16:00:06.32	88.67	18.10	-83.1	-79.0	2.4	0.00e+00	0	48	104	0	60	1048556
2026-01-17 16:00:09.35	87.86	18.42	-83.5	-79.0	2.5	0.00e+00	0	48	104	0	60	1048574
2026-01-17 16:00:12.36	87.04	18.75	-83.1	-79.0	2.4	0.00e+00	0	48	104	0	60	1048574
2026-01-17 16:00:15.38	86.20	19.07	-83.5	-79.0	2.5	0.00e+00	0	48	104	0	60	1048575
2026-01-17 16:00:18.40	85.34	19.40	-83.5	-79.0	2.7	0.00e+00	0	48	104	0	60	1048574
2026-01-17 16:00:21.43	84.45	19.73	-83.1	-79.0	2.4	0.00e+00	0	49	104	0	60	1048575
2026-01-17 16:00:24.44	83.54	20.05	-83.5	-79.0	2.5	0.00e+00	0	48	104	0	60	1048575
2026-01-17 16:00:27.46	82.61	20.37	-83.5	-79.0	2.5	0.00e+00	0	48	104	0	60	1048575
2026-01-17 16:00:30.47	81.66	20.69	-83.1	-79.0	2.5	0.00e+00	0	49	104	0	60	1048574
2026-01-17 16:00:33.49	80.69	21.01	-83.5	-79.0	2.5	0.00e+00	0	48	104	0	60	1048573
2026-01-17 16:00:36.52	79.68	21.32	-83.5	-79.0	2.5	0.00e+00	0	48	104	0	60	1048574
2026-01-17 16:00:39.53	78.67	21.63	-83.1	-79.0	2.3	0.00e+00	0	48	104	0	60	1048570
2026-01-17 16:00:42.55	77.62	21.94	-83.5	-79.0	2.5	0.00e+00	0	48	104	0	60	1048572
2026-01-17 16:00:45.57	76.55	22.24	-83.1	-79.0	2.4	0.00e+00	0	49	104	0	60	1048574
2026-01-17 16:00:48.59	75.46	22.53	-83.5	-79.0	2.1	0.00e+00	0	48	104	0	60	1048569
2026-01-17 16:00:51.61	74.35	22.82	-83.5	-79.0	2.4	0.00e+00	0	48	104	0	60	1048571
2026-01-17 16:00:54.62	73.21	23.10	-83.1	-79.0	2.4	0.00e+00	0	48	104	0	60	1048575
2026-01-17 16:00:57.64	72.05	23.38	-83.5	-79.0	2.4	0.00e+00	0	48	104	0	60	1048575
2026-01-17 16:01:00.65	70.87	23.64	-83.5	-79.0	2.3	0.00e+00	0	49	104	0	60	1048575
2026-01-17 16:01:03.67	69.67	23.90	-83.1	-79.0	2.4	0.00e+00	0	49	104	0	60	1048573
2026-01-17 16:01:06.69	68.44	24.15	-83.5	-79.0	2.3	0.00e+00	0	49	104	0	60	1048559
2026-01-17 16:01:09.72	67.19	24.39	-83.5	-79.0	2.6	0.00e+00	0	49	104	0	60	1048573
2026-01-17 16:01:12.74	65.92	24.61	-83.5	-79.0	2.5	0.00e+00	0	49	104	0	60	1048573
2026-01-17 16:01:15.76	64.63	24.83	-83.5	-79.0	2.5	0.00e+00	0	49	104	0	60	1048575
2026-01-17 16:01:18.77	63.33	25.03	-83.5	-79.0	2.3	0.00e+00	0	49	104	0	60	1048575
2026-01-17 16:01:21.80	62.00	25.21	-83.5	-79.0	2.6	0.00e+00	0	49	104	0	60	1048575
2026-01-17 16:01:24.82	60.65	25.39	-83.5	-79.0	2.5	0.00e+00	0	48	104	0	60	1048563
2026-01-17 16:01:27.84	59.30	25.55	-83.1	-79.0	2.5	0.00e+00	0	48	104	0	60	1048572
2026-01-17 16:01:30.85	57.93	25.69	-83.5	-79.0	2.5	0.00e+00	0	48	104	0	60	1048574
2026-01-17 16:01:33.88	56.54	25.82	-83.5	-79.0	2.5	0.00e+00	0	48	104	0	60	1048575
2026-01-17 16:01:36.89	55.14	25.93	-83.1	-79.0	2.4	0.00e+00	0	48	104	0	60	1048569
2026-01-17 16:01:39.91	53.74	26.03	-83.5	-79.0	2.4	0.00e+00	0	49	104	0	60	1048566
2026-01-17 16:01:42.93	52.32	26.10	-83.1	-79.0	2.4	0.00e+00	0	49	104	0	60	1048573
2026-01-17 16:01:45.95	50.90	26.16	-83.5	-79.0	2.4	0.00e+00	0	48	104	0	60	1048565
2026-01-17 16:01:48.97	49.47	26.21	-83.5	-79.0	2.5	0.00e+00	0	48	104	0	60	1048571
2026-01-17 16:01:51.99	48.04	26.23	-83.1	-79.0	2.4	0.00e+00	0	49	104	0	60	1048574
2026-01-17 16:01:55.00	46.61	26.24	-83.5	-79.0	2.5	0.00e+00	0	49	104	0	60	1048574
2026-01-17 16:01:58.02	45.18	26.23	-83.5	-79.0	2.3	0.00e+00	0	49	104	0	60	1048566
2026-01-17 16:02:01.03	43.75	26.20	-83.1	-79.0	2.4	0.00e+00	0	49	104	0	60	1048574
2026-01-17 16:02:04.05	42.33	26.15	-83.1	-79.0	2.3	0.00e+00	0	48	104	0	60	1048575
2026-01-17 16:02:07.07	40.91	26.08	-83.5	-79.0	2.4	0.00e+00	0	48	104	0	60	1048571
2026-01-17 16:02:10.09	39.50	26.00	-83.1	-79.0	2.5	0.00e+00	0	49	104	0	60	1048572
2026-01-17 16:02:13.11	38.09	25.90	-83.5	-79.0	2.4	0.00e+00	0	49	104	0	60	1048575
2026-01-17 16:02:16.14	36.69	25.78	-83.5	-79.0	2.4	0.00e+00	0	49	104	0	60	1048566
2026-01-17 16:02:19.17	35.31	25.65	-83.1	-79.0	2.4	0.00e+00	0	49	104	0	60	1048572
2026-01-17 16:02:22.19	33.94	25.50	-83.5	-79.0	2.5	0.00e+00	0	49	104	0	60	1048574
2026-01-17 16:02:25.20	32.59	25.34	-83.1	-79.0	2.5	0.00e+00	0	48	104	0	60	1048569
2026-01-17 16:02:28.22	31.26	25.16	-83.5	-79.0	2.2	0.00e+00	0	49	104	0	60	1048575
2026-01-17 16:02:31.24	29.94	24.97	-83.5	-79.0	2.3	0.00e+00	0	49	104	0	60	1048570
2026-01-17 16:02:34.27	28.63	24.77	-83.1	-79.0	2.4	0.00e+00	0	49	104	0	60	1048569
2026-01-17 16:02:37.29	27.35	24.55	-83.5	-79.0	2.5	0.00e+00	0	49	104	0	60	1048571
2026-01-17 16:02:40.30	26.10	24.32	-83.5	-79.0	2.4	0.00e+00	0	49	104	0	60	1048569
2026-01-17 16:02:43.32	24.86	24.08	-83.1	-79.0	2.4	0.00e+00	0	49	104	0	60	1048575
2026-01-17 16:02:46.34	23.64	23.83	-83.5	-79.0	2.4	0.00e+00	0	49	104	0	60	1048572
2026-01-17 16:02:49.37	22.44	23.57	-83.1	-79.0	2.4	0.00e+00	0	49	104	0	60	1048575
2026-01-17 16:02:52.38	21.27	23.31	-83.5	-79.0	2.4	0.00e+00	0	49	104	0	60	1048570
2026-01-17 16:02:55.40	20.12	23.03	-83.5	-79.0	2.3	0.00e+00	0	49	104	0	60	1048556
2026-01-17 16:02:58.41	18.99	22.75	-83.1	-79.0	2.6	0.00e+00	0	49	104	0	60	1048569
2026-01-17 16:03:01.42	17.89	22.46	-83.5	-79.0	2.8	0.00e+00	0	49	104	0	60	1048572
2026-01-17 16:03:04.44	16.81	22.16	-83.5	-79.0	2.6	0.00e+00	0	49	104	0	60	1048571
2026-01-17 16:03:07.45	15.76	21.86	-83.1	-79.0	2.4	0.00e+00	0	49	104	0	60	1048575
2026-01-17 16:03:10.47	14.72	21.56	-83.5	-79.0	2.5	0.00e+00	0	49	104	0	60	1048574
2026-01-17 16:03:13.49	13.71	21.25	-83.5	-79.0	2.3	0.00e+00	0	49	104	0	60	1048575
2026-01-17 16:03:16.51	12.72	20.93	-83.1	-79.0	2.4	0.00e+00	0	49	104	0	60	1048575
2026-01-17 16:03:19.53	11.76	20.62	-83.5	-79.0	2.4	0.00e+00	0	49	104	0	60	1048571
2026-01-17 16:03:22.56	10.81	20.30	-83.5	-79.0	2.5	0.00e+00	0	49	104	0	60	1048565
2026-01-17 16:03:25.57	9.89	19.98	-83.5	-79.0	2.4	0.00e+00	0	49	104	0	60	1048573
2026-01-17 16:03:28.59	9.00	19.65	-83.5	-79.0	2.4	0.00e+00	0	49	104	0	60	1048574
2026-01-17 16:03:31.60	8.12	19.33	-83.1	-79.0	2.4	0.00e+00	0	49	104	0	60	1048573
2026-01-17 16:03:34.63	7.26	19.00	-83.5	-79.0	2.5	0.00e+00	0	49	104	0	60	1048574
2026-01-17 16:03:37.64	6.43	18.68	-83.5	-79.0	2.5	0.00e+00	0	49	104	0	60	1048575
2026-01-17 16:03:40.66	5.62	18.36	-83.1	-79.0	2.3	0.00e+00	0	49	104	0	60	1048574
2026-01-17 16:03:43.66	4.83	18.03	-83.5	-79.0	2.4	0.00e+00	0	49	104	0	60	1048572
2026-01-17 16:03:46.68	4.05	17.71	-83.5	-79.0	2.4	0.00e+00	0	49	104	0	60	1048573
2026-01-17 16:03:49.70	3.30	17.38	-83.1	-79.0	2.4	0.00e+00	0	49	104	0	60	1048572
2026-01-17 16:03:52.72	2.56	17.06	-83.5	-79.0	2.4	0.00e+00	0	49	104	0	60	1048570
2026-01-17 16:03:55.74	1.84	16.74	-83.1	-79.0	2.5	0.00e+00	0	49	104	0	60	1048573
2026-01-17 16:03:58.75	1.14	16.42	-83.5	-79.0	2.4	0.00e+00	0	49	104	0	60	1048575
2026-01-17 16:04:01.77	0.46	16.10	-83.5	-79.0	2.5	0.00e+00	0	49	104	0	60	1048566
2026-01-17 16:04:04.80	359.79	15.79	-82.8	-79.0	2.4	0.00e+00	0	49	104	0	60	1048571
2026-01-17 16:04:07.82	359.14	15.47	-83.5	-79.0	2.5	0.00e+00	0	49	104	0	60	1048573
2026-01-17 16:04:10.84	358.51	15.16	-83.5	-79.0	2.5	0.00e+00	0	49	104	0	60	1048573
2026-01-17 16:04:13.87	357.89	14.85	-83.1	-79.0	2.6	0.00e+00	0	49	104	0	60	1048574
2026-01-17 16:04:16.89	357.29	14.54	-83.5	-79.0	2.5	0.00e+00	0	49	104	0	60	1048568
2026-01-17 16:04:19.91	356.70	14.23	-83.1	-79.0	2.3	0.00e+00	0	49	104	0	60	1048572
2026-01-17 16:04:22.92	356.13	13.93	-83.5	-79.0	2.4	0.00e+00	0	49	104	0	60	1048573
2026-01-17 16:04:25.93	355.57	13.63	-83.5	-79.0	2.5	0.00e+00	0	49	104	0	60	1048574
2026-01-17 16:04:28.95	355.02	13.33	-83.1	-79.0	2.5	0.00e+00	0	49	104	0	60	1048575
2026-01-17 16:04:31.96	354.49	13.03	-83.5	-79.0	2.4	0.00e+00	0	49	104	0	60	1048575
2026-01-17 16:04:34.98	353.97	12.74	-83.5	-79.0	2.4	0.00e+00	0	49	104	0	60	1048575
2026-01-17 16:04:37.99	353.47	12.45	-82.8	-79.0	2.4	0.00e+00	0	49	104	0	60	1048575
2026-01-17 16:04:41.01	352.97	12.16	-83.5	-79.0	2.4	0.00e+00	0	49	104	0	60	1048574
2026-01-17 16:04:44.02	352.49	11.88	-83.5	-79.0	2.4	0.00e+00	0	49	104	0	60	1048573
2026-01-17 16:04:47.05	352.02	11.59	-83.1	-79.0	2.8	0.00e+00	0	49	104	0	60	1048572
2026-01-17 16:04:50.06	351.56	11.31	-83.5	-79.0	2.6	0.00e+00	0	49	104	0	60	1048573
2026-01-17 16:04:53.08	351.11	11.04	-83.1	-79.0	2.7	0.00e+00	0	49	104	0	60	1048569
2026-01-17 16:04:56.08	350.67	10.76	-83.5	-79.0	2.4	0.00e+00	0	49	104	0	60	1048567
2026-01-17 16:04:59.09	350.24	10.49	-83.5	-79.0	2.4	0.00e+00	0	49	104	0	60	1048574
2026-01-17 16:05:02.12	349.82	10.22	-83.1	-79.0	2.4	0.00e+00	0	49	104	0	60	1048567
2026-01-17 16:05:05.14	349.41	9.95	-83.5	-79.0	2.5	0.00e+00	0	49	104	0	60	1048574
2026-01-17 16:05:08.16	349.01	9.69	-83.5	-79.0	2.4	0.00e+00	0	49	104	0	60	1048574
2026-01-17 16:05:11.18	348.62	9.42	-83.1	-79.0	2.4	0.00e+00	0	49	104	0	60	1048573
2026-01-17 16:05:14.20	348.23	9.16	-83.5	-79.0	2.6	0.00e+00	0	49	104	0	60	1048575
2026-01-17 16:05:17.22	347.86	8.91	-83.1	-79.0	2.4	0.00e+00	0	49	104	0	60	1048564
2026-01-17 16:05:20.25	347.49	8.65	-83.1	-79.0	2.4	0.00e+00	0	49	104	0	60	1048566
2026-01-17 16:05:23.27	347.13	8.40	-83.5	-79.0	2.4	0.00e+00	0	49	104	0	60	1048570
2026-01-17 16:05:26.29	346.78	8.15	-83.1	-79.0	2.5	0.00e+00	0	49	104	0	60	1048574
2026-01-17 16:05:29.31	346.44	7.90	-83.5	-79.0	2.5	0.00e+00	0	49	104	0	60	1048575
2026-01-17 16:05:32.34	346.10	7.66	-83.5	-79.0	2.3	0.00e+00	0	49	104	0	60	1048572
2026-01-17 16:05:35.36	345.77	7.41	-83.1	-79.0	2.4	0.00e+00	0	49	104	0	60	1048575
2026-01-17 16:05:38.38	345.45	7.17	-83.5	-79.0	2.7	0.00e+00	0	49	104	0	60	1048575
2026-01-17 16:05:41.39	345.13	6.93	-83.1	-79.0	2.6	0.00e+00	0	49	104	0	60	1048574
2026-01-17 16:05:44.41	344.83	6.70	-82.8	-79.0	2.5	0.00e+00	0	49	104	0	60	1048575
2026-01-17 16:05:47.43	344.52	6.46	-83.5	-79.0	2.4	0.00e+00	0	49	104	0	60	1048575
2026-01-17 16:05:50.46	344.23	6.23	-83.1	-79.0	2.4	0.00e+00	0	49	104	0	60	1048571
2026-01-17 16:05:53.49	343.94	6.00	-83.5	-79.0	2.4	0.00e+00	0	49	104	0	60	1048573
2026-01-17 16:05:56.51	343.65	5.77	-83.1	-79.0	2.6	0.00e+00	0	49	104	0	60	1048574
2026-01-17 16:05:59.53	343.37	5.55	-83.1	-79.0	2.5	0.00e+00	0	49	104	0	60	1048575
2026-01-17 16:06:02.54	343.10	5.33	-83.5	-79.0	2.5	0.00e+00	0	49	104	0	60	1048575
2026-01-17 16:06:05.56	342.83	5.10	-83.5	-79.0	2.5	0.00e+00	0	49	104	0	60	1048573
2026-01-17 16:06:08.59	342.57	4.88	-83.1	-79.0	2.5	0.00e+00	0	49	104	0	60	1048574
2026-01-17 16:06:11.61	342.31	4.67	-83.5	-79.0	2.4	0.00e+00	0	49	104	0	60	1048568
2026-01-17 16:06:14.62	342.06	4.45	-83.5	-79.0	2.5	0.00e+00	0	49	104	0	60	1048575
2026-01-17 16:06:17.64	341.81	4.24	-83.1	-79.0	2.4	0.00e+00	0	49	104	0	60	1048575
2026-01-17 16:06:20.67	341.57	4.02	-83.5	-79.0	2.4	0.00e+00	0	49	104	0	60	1048574
2026-01-17 16:06:23.69	341.33	3.81	-83.1	-79.0	2.4	0.00e+00	0	49	104	0	60	1048568
2026-01-17 16:06:26.71	341.10	3.60	-83.5	-79.0	2.5	0.00e+00	0	49	104	0	60	1048575
2026-01-17 16:06:29.73	340.87	3.40	-83.5	-79.0	2.5	0.00e+00	0	49	104	0	60	1048575
2026-01-17 16:06:32.74	340.65	3.19	-83.5	-79.0	2.5	0.00e+00	0	49	104	0	60	1048573
2026-01-17 16:06:35.76	340.43	2.99	-83.5	-79.0	2.4	0.00e+00	0	49	104	0	60	1048572
2026-01-17 16:06:38.79	340.21	2.78	-83.5	-79.0	2.4	0.00e+00	0	49	104	0	60	1048568
2026-01-17 16:06:41.80	340.00	2.58	-83.1	-79.0	2.9	0.00e+00	0	49	104	0	60	1048571
2026-01-17 16:06:44.82	339.79	2.39	-83.5	-79.0	2.4	0.00e+00	0	49	104	0	60	1048563
2026-01-17 16:06:47.84	339.58	2.19	-83.5	-79.0	2.5	0.00e+00	0	49	104	0	60	1048570
2026-01-17 16:06:50.85	339.38	1.99	-83.1	-79.0	2.4	0.00e+00	0	49	104	0	60	1048573
2026-01-17 16:06:53.88	339.18	1.80	-83.5	-79.0	2.5	0.00e+00	0	49	104	0	60	1048574
2026-01-17 16:06:56.90	338.99	1.60	-83.5	-79.0	2.5	0.00e+00	0	49	104	0	60	1048569
2026-01-17 16:06:59.93	338.80	1.41	-83.1	-79.0	2.5	0.00e+00	0	49	104	0	60	1048572
2026-01-17 16:07:02.94	338.61	1.22	-83.5	-79.0	2.4	0.00e+00	0	49	104	0	60	1048575
2026-01-17 16:07:05.96	338.43	1.03	-83.1	-79.0	2.7	0.00e+00	0	49	104	0	60	1048574
2026-01-17 16:07:08.98	338.24	0.84	-83.5	-79.0	2.4	0.00e+00	0	49	104	0	60	1048575
2026-01-17 16:07:12.00	338.07	0.66	-83.5	-79.0	2.4	0.00e+00	0	49	104	0	60	1048572
2026-01-17 16:07:15.02	337.89	0.47	-83.1	-79.0	2.4	0.00e+00	0	49	104	0	60	1048573
2026-01-17 16:07:18.04	337.72	0.29	-83.5	-79.0	2.5	0.00e+00	0	49	104	0	60	1048574
2026-01-17 16:07:21.06	337.55	0.11	-83.5	-79.0	2.4	0.00e+00	0	49	104	0	60	1048575
2026-01-17 16:07:24.08	337.38	-0.07	-82.8	-79.0	2.4	0.00e+00	0	49	104	0	60	1048573

#Closed at: 2026-01-17 16:07:24
#Recorded file [0 MB]: D:/Data/35015_260117_185631.dat