passes_logs/2026/01/17/R3.2S-Naryan-Mar/R3.2S-Naryan-Mar__20260117_080844_FENGYUN_3D_rec.log

#Pass ID: 20260117_080844_FENGYUN 3D
#Satellite: FENGYUN 3D
#Configuration: FENGYUN 3D
#almurnet v.1.7.20240730
#Start time: 2026-01-17 08:08:47

#Version: 2.2.20231116
#Station: R3.2S-Naryan-Mar
#Location: 53.008057 lon 67.646978 lat
#TLE: 1 43010U 17072A   26016.27214855  .00000192  00000+0  11235-3 0  9990
#TLE: 2 43010  98.9932 348.1078 0002365 105.5031 254.6406 14.19695933423435

#Time	Az	El	Level	Level2	SNR	BER	BlckErr	Temp	State	Recorded	gain1	gain2
2026-01-17 08:08:47.92	103.35	0.18	-85.2	-88.6	6.0	3.17e-01	0	45	0	0	60	1048575
2026-01-17 08:08:51.95	103.18	0.41	-84.7	-88.6	5.9	2.82e-01	0	45	0	0	60	1048571
2026-01-17 08:08:55.97	103.00	0.64	-84.7	-88.6	6.1	2.81e-01	0	46	0	0	60	1048575
2026-01-17 08:09:00.00	102.82	0.87	-84.7	-88.6	5.8	2.83e-01	0	46	0	0	60	1048574
2026-01-17 08:09:04.02	102.64	1.11	-84.7	-88.6	6.0	2.82e-01	0	46	0	0	60	1048575
2026-01-17 08:09:08.04	102.46	1.34	-84.7	-88.6	5.7	2.78e-01	0	46	0	0	60	1048575
2026-01-17 08:09:12.07	102.27	1.58	-84.7	-88.6	6.1	2.84e-01	0	46	0	0	60	1048574
2026-01-17 08:09:16.10	102.08	1.82	-84.7	-88.6	5.9	2.72e-01	0	46	0	0	60	1048574
2026-01-17 08:09:20.11	101.88	2.06	-84.7	-88.6	5.4	2.75e-01	0	46	0	0	60	1048575
2026-01-17 08:09:24.15	101.68	2.30	-84.7	-88.6	6.2	2.76e-01	0	46	0	0	60	1048573
2026-01-17 08:09:28.18	101.48	2.55	-84.7	-88.6	6.0	2.75e-01	0	46	0	0	60	1048569
2026-01-17 08:09:32.21	101.28	2.79	-84.7	-88.6	6.0	2.78e-01	0	46	0	0	60	1048574
2026-01-17 08:09:36.24	101.07	3.04	-85.2	-88.6	6.4	2.78e-01	0	46	0	0	60	1048569
2026-01-17 08:09:40.25	100.85	3.29	-84.7	-88.6	6.1	2.82e-01	0	46	0	0	60	1048575
2026-01-17 08:09:44.29	100.64	3.54	-85.2	-88.6	5.8	2.77e-01	0	46	0	0	60	1048564
2026-01-17 08:09:48.32	100.41	3.80	-84.7	-88.6	5.7	2.78e-01	0	46	0	0	60	1048575
2026-01-17 08:09:52.35	100.19	4.05	-84.7	-88.6	6.3	2.79e-01	0	46	0	0	60	1048574
2026-01-17 08:09:56.37	99.96	4.31	-84.7	-88.6	6.0	2.80e-01	0	46	0	0	60	1048575
2026-01-17 08:10:00.39	99.73	4.57	-84.7	-88.6	5.8	2.78e-01	0	46	0	0	60	1048574
2026-01-17 08:10:04.43	99.49	4.83	-84.7	-88.6	5.9	2.77e-01	0	46	0	0	60	1048575
2026-01-17 08:10:08.45	99.25	5.10	-84.7	-88.6	6.0	2.78e-01	0	46	0	0	60	1048570
2026-01-17 08:10:12.48	99.00	5.36	-84.7	-88.6	6.2	2.80e-01	0	46	0	0	60	1048574
2026-01-17 08:10:16.51	98.75	5.63	-84.7	-88.6	6.1	2.80e-01	0	46	0	0	60	1048573
2026-01-17 08:10:20.53	98.49	5.90	-84.7	-88.6	5.3	2.78e-01	0	46	0	0	60	1048568
2026-01-17 08:10:24.55	98.23	6.17	-85.2	-88.6	5.9	2.75e-01	0	46	0	0	60	1048573
2026-01-17 08:10:28.57	97.96	6.45	-84.7	-88.6	6.5	2.82e-01	0	46	0	0	60	1048575
2026-01-17 08:10:32.59	97.69	6.72	-85.2	-88.6	6.1	2.79e-01	0	46	0	0	60	1048574
2026-01-17 08:10:36.63	97.41	7.00	-84.3	-88.6	6.1	2.81e-01	0	46	0	0	60	1048573
2026-01-17 08:10:40.66	97.13	7.29	-84.3	-88.6	5.3	2.78e-01	0	46	0	0	60	1048575
2026-01-17 08:10:44.67	96.84	7.57	-84.3	-88.6	6.2	2.81e-01	0	47	0	0	60	1048572
2026-01-17 08:10:48.70	96.54	7.86	-84.7	-88.6	5.7	2.81e-01	0	46	0	0	60	1048571
2026-01-17 08:10:52.73	96.24	8.15	-84.7	-88.6	5.7	2.80e-01	0	47	0	0	60	1048574
2026-01-17 08:10:56.75	95.93	8.44	-84.7	-88.6	6.1	2.80e-01	0	46	0	0	60	1048575
2026-01-17 08:11:00.77	95.62	8.73	-84.3	-88.6	6.2	2.77e-01	0	46	0	0	60	1048574
2026-01-17 08:11:04.80	95.30	9.03	-84.7	-88.6	6.0	2.74e-01	0	46	0	0	60	1048575
2026-01-17 08:11:08.82	94.97	9.33	-84.7	-88.6	6.1	2.77e-01	0	46	0	0	60	1048571
2026-01-17 08:11:12.84	94.63	9.63	-83.5	-88.6	6.3	2.76e-01	0	47	0	0	60	1048566
2026-01-17 08:11:16.87	94.29	9.94	-84.7	-88.6	5.9	2.77e-01	0	46	0	0	60	1048575
2026-01-17 08:11:20.88	93.94	10.24	-83.9	-88.6	6.2	2.83e-01	0	47	0	0	60	1048575
2026-01-17 08:11:24.91	93.58	10.56	-84.3	-88.6	5.8	2.75e-01	0	46	0	0	60	1048571
2026-01-17 08:11:28.93	93.22	10.87	-84.7	-88.6	6.0	2.77e-01	0	46	0	0	60	1048573
2026-01-17 08:11:32.94	92.85	11.18	-84.7	-88.6	5.9	2.82e-01	0	47	0	0	60	1048573
2026-01-17 08:11:36.96	92.47	11.50	-84.7	-88.6	5.8	2.80e-01	0	47	0	0	60	1048574
2026-01-17 08:11:40.98	92.07	11.82	-84.7	-88.6	6.0	2.80e-01	0	47	0	0	60	1048570
2026-01-17 08:11:45.01	91.67	12.15	-85.2	-88.6	5.9	2.80e-01	0	47	0	0	60	1048565
2026-01-17 08:11:49.03	91.27	12.48	-84.3	-88.6	6.5	2.82e-01	0	47	0	0	60	1048575
2026-01-17 08:11:53.04	90.85	12.81	-85.2	-88.6	6.2	2.81e-01	0	47	0	0	60	1048575
2026-01-17 08:11:57.06	90.42	13.14	-84.7	-88.6	5.5	2.82e-01	0	47	0	0	60	1048574
2026-01-17 08:12:01.10	89.98	13.48	-84.7	-88.6	6.3	2.82e-01	0	47	0	0	60	1048570
2026-01-17 08:12:05.13	89.53	13.82	-83.9	-88.6	6.0	2.80e-01	0	47	0	0	60	1048575
2026-01-17 08:12:09.15	89.07	14.16	-84.7	-88.6	5.7	2.80e-01	0	47	0	0	60	1048573
2026-01-17 08:12:13.17	88.60	14.51	-84.7	-88.6	5.5	2.79e-01	0	47	0	0	60	1048574
2026-01-17 08:12:17.19	88.12	14.86	-84.7	-88.6	5.5	2.78e-01	0	47	0	0	60	1048570
2026-01-17 08:12:21.22	87.63	15.21	-84.7	-88.6	6.1	2.75e-01	0	47	0	0	60	1048563
2026-01-17 08:12:25.24	87.12	15.56	-83.5	-88.6	5.8	2.81e-01	0	47	0	0	60	1048570
2026-01-17 08:12:29.27	86.60	15.92	-83.5	-88.6	6.0	2.80e-01	0	47	0	0	60	1048572
2026-01-17 08:12:33.30	86.07	16.28	-83.5	-88.6	6.0	2.79e-01	0	47	0	0	60	1048575
2026-01-17 08:12:37.33	85.53	16.64	-84.7	-88.6	5.8	2.80e-01	0	47	0	0	60	1048573
2026-01-17 08:12:41.35	84.97	17.01	-84.7	-88.6	5.6	2.78e-01	0	47	0	0	60	1048573
2026-01-17 08:12:45.38	84.40	17.38	-84.7	-88.6	5.9	2.79e-01	0	47	0	0	60	1048573
2026-01-17 08:12:49.42	83.81	17.75	-84.7	-88.6	5.6	2.80e-01	0	47	0	0	60	1048575
2026-01-17 08:12:53.44	83.21	18.12	-84.7	-88.6	6.2	2.78e-01	0	47	0	0	60	1048573
2026-01-17 08:12:57.45	82.59	18.50	-83.5	-88.6	5.8	2.77e-01	0	47	0	0	60	1048572
2026-01-17 08:13:01.47	81.96	18.87	-84.3	-88.6	6.0	2.80e-01	0	47	0	0	60	1048575
2026-01-17 08:13:05.50	81.31	19.25	-83.5	-88.6	6.0	2.77e-01	0	47	0	0	60	1048574
2026-01-17 08:13:09.53	80.64	19.63	-83.9	-88.6	5.6	2.84e-01	0	47	0	0	60	1048570
2026-01-17 08:13:13.56	79.96	20.02	-83.5	-88.6	6.0	2.79e-01	0	47	0	0	60	1048573
2026-01-17 08:13:17.57	79.26	20.40	-84.7	-88.6	6.1	2.79e-01	0	47	0	0	60	1048575
2026-01-17 08:13:21.60	78.55	20.79	-83.5	-88.6	6.2	2.81e-01	0	47	0	0	60	1048572
2026-01-17 08:13:25.62	77.81	21.17	-84.7	-88.6	5.7	2.83e-01	0	47	0	0	60	1048569
2026-01-17 08:13:29.63	77.06	21.56	-84.7	-88.6	6.4	2.80e-01	0	47	0	0	60	1048573
2026-01-17 08:13:33.67	76.28	21.95	-85.2	-88.6	6.4	2.81e-01	0	47	0	0	60	1048557
2026-01-17 08:13:37.69	75.49	22.34	-84.7	-88.6	6.4	2.81e-01	0	47	0	0	60	1048572
2026-01-17 08:13:41.71	74.67	22.73	-84.7	-88.6	5.7	2.79e-01	0	47	0	0	60	1048575
2026-01-17 08:13:45.74	73.84	23.11	-83.5	-88.6	6.1	2.79e-01	0	47	0	0	60	1048572
2026-01-17 08:13:49.76	72.98	23.50	-84.3	-88.6	6.2	2.78e-01	0	47	0	0	60	1048572
2026-01-17 08:13:53.78	72.10	23.88	-83.9	-88.6	5.9	2.77e-01	0	47	0	0	60	1048574
2026-01-17 08:13:57.81	71.20	24.27	-84.7	-88.6	6.2	2.78e-01	0	47	0	0	60	1048569
2026-01-17 08:14:01.83	70.28	24.65	-83.9	-88.6	6.3	2.80e-01	0	47	0	0	60	1048567
2026-01-17 08:14:05.86	69.34	25.03	-84.7	-88.6	6.5	2.78e-01	0	47	0	0	60	1048573
2026-01-17 08:14:09.88	68.37	25.40	-83.9	-88.6	6.1	2.80e-01	0	47	0	0	60	1048570
2026-01-17 08:14:13.92	67.37	25.77	-84.7	-88.6	6.1	2.79e-01	0	47	0	0	60	1048574
2026-01-17 08:14:17.95	66.36	26.14	-83.9	-88.6	5.9	2.80e-01	0	47	0	0	60	1048575
2026-01-17 08:14:21.97	65.32	26.50	-84.7	-88.6	6.0	2.73e-01	0	47	0	0	60	1048571
2026-01-17 08:14:26.00	64.26	26.85	-83.9	-88.6	5.5	2.83e-01	0	47	0	0	60	1048570
2026-01-17 08:14:30.03	63.17	27.20	-84.7	-88.6	6.2	2.84e-01	0	47	0	0	60	1048573
2026-01-17 08:14:34.06	62.06	27.54	-84.7	-88.6	6.2	2.80e-01	0	47	0	0	60	1048573
2026-01-17 08:14:38.09	60.92	27.88	-85.2	-88.6	6.3	2.75e-01	0	47	0	0	60	1048574
2026-01-17 08:14:42.11	59.76	28.20	-83.9	-88.6	6.2	2.79e-01	0	47	0	0	60	1048561
2026-01-17 08:14:46.14	58.58	28.52	-84.3	-88.6	5.9	2.76e-01	0	47	0	0	60	1048573
2026-01-17 08:14:50.15	57.38	28.82	-84.7	-88.6	6.3	2.75e-01	0	47	0	0	60	1048575
2026-01-17 08:14:54.18	56.15	29.11	-84.7	-88.6	6.2	2.78e-01	0	47	0	0	60	1048573
2026-01-17 08:14:58.21	54.90	29.39	-85.2	-88.6	6.0	2.79e-01	0	47	0	0	60	1048574
2026-01-17 08:15:02.23	53.63	29.66	-84.7	-88.6	6.4	2.80e-01	0	47	0	0	60	1048567
2026-01-17 08:15:06.27	52.33	29.91	-84.3	-88.6	6.3	2.74e-01	0	47	0	0	60	1048574
2026-01-17 08:15:10.28	51.03	30.15	-85.2	-88.6	6.1	2.81e-01	0	47	0	0	60	1048574
2026-01-17 08:15:14.31	49.70	30.38	-84.7	-88.6	6.0	2.81e-01	0	47	0	0	60	1048574
2026-01-17 08:15:18.34	48.34	30.58	-85.2	-88.6	6.3	2.76e-01	0	47	0	0	60	1048573
2026-01-17 08:15:22.37	46.98	30.78	-84.7	-88.6	6.6	2.74e-01	0	47	0	0	60	1048572
2026-01-17 08:15:26.39	45.60	30.95	-84.7	-88.6	6.0	2.75e-01	0	47	0	0	60	1048575
2026-01-17 08:15:30.42	44.20	31.10	-84.7	-88.6	6.3	2.79e-01	0	47	0	0	60	1048574
2026-01-17 08:15:34.45	42.79	31.24	-84.7	-88.6	6.5	2.84e-01	0	47	0	0	60	1048575
2026-01-17 08:15:38.47	41.37	31.36	-85.2	-88.6	6.1	2.79e-01	0	47	0	0	60	1048567
2026-01-17 08:15:42.50	39.94	31.46	-84.7	-88.6	6.3	2.82e-01	0	47	0	0	60	1048574
2026-01-17 08:15:46.53	38.51	31.54	-85.2	-88.6	6.1	2.79e-01	0	47	0	0	60	1048575
2026-01-17 08:15:50.56	37.06	31.59	-85.2	-88.6	6.0	2.78e-01	0	47	0	0	60	1048572
2026-01-17 08:15:54.59	35.61	31.63	-85.2	-88.6	3.1	7.62e-01	0	47	104	0	60	1048571
2026-01-17 08:15:58.61	34.17	31.65	-85.2	-88.6	3.0	7.62e-01	0	47	104	0	60	1048571
2026-01-17 08:16:02.63	32.72	31.64	-85.2	-88.6	2.8	7.63e-01	0	47	104	0	60	1048574
2026-01-17 08:16:06.65	31.27	31.62	-85.2	-88.6	3.4	7.64e-01	0	47	104	0	60	1048575
2026-01-17 08:16:10.68	29.82	31.57	-85.2	-88.6	3.3	7.64e-01	0	47	104	0	60	1048574
2026-01-17 08:16:14.71	28.38	31.51	-85.2	-88.6	3.0	7.61e-01	0	47	104	0	60	1048574
2026-01-17 08:16:18.73	26.95	31.42	-85.2	-88.6	3.1	7.63e-01	0	47	104	0	60	1048572
2026-01-17 08:16:22.77	25.52	31.32	-85.2	-88.6	2.7	7.63e-01	0	47	104	0	60	1048575
2026-01-17 08:16:26.79	24.11	31.19	-85.2	-88.6	3.2	7.64e-01	0	47	104	0	60	1048566
2026-01-17 08:16:30.82	22.71	31.05	-85.2	-88.6	3.2	7.63e-01	0	47	104	0	60	1048575
2026-01-17 08:16:34.85	21.31	30.88	-85.2	-88.6	2.9	7.64e-01	0	47	104	0	60	1048573
2026-01-17 08:16:38.87	19.94	30.70	-85.2	-88.6	3.6	7.62e-01	0	47	104	0	60	1048574
2026-01-17 08:16:42.90	18.58	30.51	-85.2	-88.6	3.4	7.63e-01	0	47	104	0	60	1048574
2026-01-17 08:16:46.92	17.24	30.29	-84.7	-88.6	2.8	7.62e-01	0	47	104	0	60	1048575
2026-01-17 08:16:50.94	15.92	30.06	-84.7	-88.6	2.9	7.63e-01	0	47	104	0	60	1048574
2026-01-17 08:16:54.97	14.62	29.82	-84.7	-88.6	3.0	7.63e-01	0	47	104	0	60	1048570
2026-01-17 08:16:59.00	13.33	29.56	-85.2	-88.6	3.2	7.63e-01	0	47	104	0	60	1048573
2026-01-17 08:17:03.02	12.07	29.29	-85.2	-88.6	3.2	7.64e-01	0	47	104	0	60	1048574
2026-01-17 08:17:07.05	10.83	29.00	-83.5	-88.6	3.0	7.63e-01	0	47	104	0	60	1048575
2026-01-17 08:17:11.07	9.62	28.71	-85.2	-88.6	3.0	7.64e-01	0	47	104	0	60	1048574
2026-01-17 08:17:15.09	8.43	28.40	-85.2	-88.6	3.1	7.65e-01	0	47	104	0	60	1048573
2026-01-17 08:17:19.12	7.25	28.08	-84.7	-88.6	2.9	7.63e-01	0	47	104	0	60	1048572
2026-01-17 08:17:23.14	6.11	27.76	-85.2	-88.6	3.5	7.63e-01	0	47	104	0	60	1048574
2026-01-17 08:17:27.16	4.99	27.42	-83.9	-88.6	3.4	7.63e-01	0	47	104	0	60	1048574
2026-01-17 08:17:31.18	3.89	27.08	-85.2	-88.6	3.7	7.64e-01	0	47	104	0	60	1048568
2026-01-17 08:17:35.21	2.81	26.73	-85.2	-88.6	2.8	7.63e-01	0	47	104	0	60	1048575
2026-01-17 08:17:39.24	1.76	26.37	-85.2	-88.6	3.1	7.63e-01	0	47	104	0	60	1048575
2026-01-17 08:17:43.27	0.73	26.01	-84.7	-88.6	3.2	7.63e-01	0	47	104	0	60	1048574
2026-01-17 08:17:47.29	359.73	25.64	-84.7	-88.6	3.0	7.62e-01	0	47	104	0	60	1048575
2026-01-17 08:17:51.32	358.74	25.27	-85.2	-88.6	2.9	7.64e-01	0	47	104	0	60	1048575
2026-01-17 08:17:55.35	357.79	24.89	-85.2	-88.6	3.5	7.63e-01	0	47	104	0	60	1048572
2026-01-17 08:17:59.37	356.85	24.52	-85.2	-88.6	2.8	7.64e-01	0	47	104	0	60	1048574
2026-01-17 08:18:03.40	355.94	24.13	-85.2	-88.6	3.4	7.62e-01	0	47	104	0	60	1048575
2026-01-17 08:18:07.43	355.05	23.75	-84.7	-88.6	3.3	7.63e-01	0	47	104	0	60	1048575
2026-01-17 08:18:11.45	354.18	23.37	-84.7	-88.6	3.0	7.60e-01	0	47	104	0	60	1048574
2026-01-17 08:18:15.47	353.34	22.98	-85.2	-88.6	2.9	7.64e-01	0	47	104	0	60	1048562
2026-01-17 08:18:19.48	352.51	22.59	-85.2	-88.6	3.0	7.63e-01	0	47	104	0	60	1048575
2026-01-17 08:18:23.51	351.71	22.21	-85.2	-88.6	3.6	7.62e-01	0	47	104	0	60	1048573
2026-01-17 08:18:27.54	350.92	21.82	-85.2	-88.6	2.8	7.64e-01	0	47	104	0	60	1048573
2026-01-17 08:18:31.57	350.16	21.43	-85.2	-88.6	3.1	7.63e-01	0	47	104	0	60	1048575
2026-01-17 08:18:35.60	349.41	21.04	-84.7	-88.6	2.9	7.64e-01	0	47	104	0	60	1048575
2026-01-17 08:18:39.63	348.68	20.66	-85.2	-88.6	3.1	7.63e-01	0	47	104	0	60	1048573
2026-01-17 08:18:43.67	347.97	20.27	-85.2	-88.6	3.2	7.63e-01	0	47	104	0	60	1048575
2026-01-17 08:18:47.69	347.28	19.89	-85.2	-88.6	3.0	7.64e-01	0	47	104	0	60	1048567
2026-01-17 08:18:51.71	346.61	19.51	-83.5	-88.6	3.4	7.62e-01	0	47	104	0	60	1048572
2026-01-17 08:18:55.73	345.95	19.13	-84.7	-88.6	3.2	7.64e-01	0	47	104	0	60	1048575
2026-01-17 08:18:59.76	345.31	18.75	-84.7	-88.6	3.1	7.63e-01	0	47	104	0	60	1048575
2026-01-17 08:19:03.78	344.69	18.37	-84.7	-88.6	3.2	7.64e-01	0	47	104	0	60	1048575
2026-01-17 08:19:07.80	344.08	18.00	-82.8	-88.6	3.7	7.63e-01	0	47	104	0	60	1048573
2026-01-17 08:19:11.81	343.49	17.63	-85.2	-88.6	3.5	7.64e-01	0	47	104	0	60	1048575
2026-01-17 08:19:15.84	342.91	17.26	-85.2	-88.6	3.1	7.62e-01	0	47	104	0	60	1048575
2026-01-17 08:19:19.86	342.34	16.90	-85.2	-88.6	2.9	7.63e-01	0	47	104	0	60	1048574
2026-01-17 08:19:23.89	341.79	16.53	-84.7	-88.6	2.9	7.64e-01	0	47	104	0	60	1048571
2026-01-17 08:19:27.92	341.25	16.17	-84.7	-88.6	3.4	7.64e-01	0	47	104	0	60	1048574
2026-01-17 08:19:31.95	340.73	15.81	-85.2	-88.6	3.3	7.64e-01	0	47	104	0	60	1048568
2026-01-17 08:19:35.98	340.21	15.46	-85.2	-88.6	3.2	7.62e-01	0	47	104	0	60	1048574
2026-01-17 08:19:40.01	339.71	15.10	-85.2	-88.6	3.1	7.61e-01	0	47	104	0	60	1048571
2026-01-17 08:19:44.04	339.23	14.75	-84.7	-88.6	3.0	7.63e-01	0	47	104	0	60	1048572
2026-01-17 08:19:48.07	338.75	14.40	-83.5	-88.6	3.2	7.63e-01	0	47	104	0	60	1048571
2026-01-17 08:19:52.10	338.29	14.06	-85.2	-88.6	3.1	7.63e-01	0	47	104	0	60	1048575
2026-01-17 08:19:56.13	337.83	13.72	-84.7	-88.6	3.1	7.63e-01	0	47	104	0	60	1048574
2026-01-17 08:20:00.15	337.39	13.38	-85.2	-88.6	3.1	7.64e-01	0	47	104	0	60	1048575
2026-01-17 08:20:04.19	336.95	13.04	-85.2	-88.6	3.2	7.65e-01	0	47	104	0	60	1048573
2026-01-17 08:20:08.21	336.53	12.71	-85.2	-88.6	3.3	7.64e-01	0	47	104	0	60	1048574
2026-01-17 08:20:12.24	336.12	12.38	-85.2	-88.6	3.3	7.64e-01	0	47	104	0	60	1048575
2026-01-17 08:20:16.27	335.71	12.06	-85.2	-88.6	2.9	7.63e-01	0	47	104	0	60	1048575
2026-01-17 08:20:20.29	335.32	11.73	-84.7	-88.6	3.4	7.63e-01	0	47	104	0	60	1048575
2026-01-17 08:20:24.32	334.93	11.41	-85.2	-88.6	3.5	7.63e-01	0	47	104	0	60	1048573
2026-01-17 08:20:28.34	334.56	11.10	-85.2	-88.6	3.1	7.63e-01	0	47	104	0	60	1048573
2026-01-17 08:20:32.36	334.19	10.78	-85.2	-88.6	3.0	7.63e-01	0	47	104	0	60	1048575
2026-01-17 08:20:36.40	333.83	10.47	-85.2	-88.6	3.2	7.63e-01	0	47	104	0	60	1048571
2026-01-17 08:20:40.41	333.48	10.16	-85.2	-88.6	3.5	7.64e-01	0	47	104	0	60	1048574
2026-01-17 08:20:44.44	333.13	9.85	-85.2	-88.6	3.2	7.60e-01	0	47	104	0	60	1048573
2026-01-17 08:20:48.47	332.79	9.55	-84.7	-88.6	3.6	7.65e-01	0	47	104	0	60	1048573
2026-01-17 08:20:52.49	332.46	9.25	-85.2	-88.6	3.5	7.63e-01	0	47	104	0	60	1048572
2026-01-17 08:20:56.52	332.14	8.95	-85.2	-88.6	2.9	7.64e-01	0	47	104	0	60	1048575
2026-01-17 08:21:00.54	331.82	8.65	-85.2	-88.6	3.3	7.64e-01	0	47	104	0	60	1048574
2026-01-17 08:21:04.57	331.51	8.36	-85.2	-88.6	3.6	7.62e-01	0	47	104	0	60	1048569
2026-01-17 08:21:08.60	331.21	8.07	-85.2	-88.6	3.2	7.64e-01	0	47	104	0	60	1048575
2026-01-17 08:21:12.63	330.91	7.78	-84.7	-88.6	3.1	7.62e-01	0	47	104	0	60	1048574
2026-01-17 08:21:16.66	330.62	7.50	-85.2	-88.6	3.1	7.63e-01	0	47	104	0	60	1048574
2026-01-17 08:21:20.68	330.34	7.21	-85.2	-88.6	3.0	7.64e-01	0	47	104	0	60	1048571
2026-01-17 08:21:24.72	330.06	6.93	-85.2	-88.6	3.4	7.63e-01	0	47	104	0	60	1048575
2026-01-17 08:21:28.74	329.78	6.65	-85.2	-88.6	3.0	7.62e-01	0	47	104	0	60	1048572
2026-01-17 08:21:32.77	329.51	6.38	-85.2	-88.6	2.9	7.63e-01	0	47	104	0	60	1048573
2026-01-17 08:21:36.79	329.25	6.11	-85.2	-88.6	3.0	7.65e-01	0	47	104	0	60	1048575
2026-01-17 08:21:40.82	328.99	5.83	-85.2	-88.6	3.1	7.63e-01	0	47	104	0	60	1048575
2026-01-17 08:21:44.85	328.74	5.56	-85.2	-88.6	3.7	7.64e-01	0	47	104	0	60	1048572
2026-01-17 08:21:48.88	328.49	5.30	-85.2	-88.6	3.6	7.65e-01	0	47	104	0	60	1048564
2026-01-17 08:21:52.90	328.25	5.03	-85.2	-88.6	3.4	7.64e-01	0	47	104	0	60	1048571
2026-01-17 08:21:56.93	328.01	4.77	-85.2	-88.6	2.9	7.64e-01	0	47	104	0	60	1048573
2026-01-17 08:22:00.95	327.78	4.51	-85.2	-88.6	3.2	7.62e-01	0	47	104	0	60	1048575
2026-01-17 08:22:04.98	327.55	4.25	-84.7	-88.6	3.0	7.62e-01	0	47	104	0	60	1048573
2026-01-17 08:22:09.01	327.32	3.99	-85.2	-88.6	2.9	7.63e-01	0	47	104	0	60	1048575
2026-01-17 08:22:13.04	327.10	3.74	-85.2	-88.6	2.9	7.63e-01	0	47	104	0	60	1048571
2026-01-17 08:22:17.07	326.88	3.49	-85.2	-88.6	3.0	7.64e-01	0	47	104	0	60	1048573
2026-01-17 08:22:21.09	326.67	3.24	-85.2	-88.6	3.6	7.62e-01	0	47	104	0	60	1048575
2026-01-17 08:22:25.11	326.46	2.99	-85.2	-88.6	3.4	7.63e-01	0	47	104	0	60	1048575
2026-01-17 08:22:29.14	326.25	2.74	-84.7	-88.6	3.1	7.62e-01	0	47	104	0	60	1048574
2026-01-17 08:22:33.18	326.05	2.49	-85.2	-88.6	3.0	7.63e-01	0	47	104	0	60	1048574
2026-01-17 08:22:37.21	325.85	2.25	-85.2	-88.6	2.9	7.63e-01	0	47	104	0	60	1048575
2026-01-17 08:22:41.24	325.66	2.01	-85.2	-88.6	2.9	7.63e-01	0	47	104	0	60	1048573
2026-01-17 08:22:45.27	325.47	1.77	-85.2	-88.6	3.3	7.63e-01	0	47	104	0	60	1048569
2026-01-17 08:22:49.29	325.28	1.53	-85.2	-88.6	2.8	7.63e-01	0	47	104	0	60	1048575
2026-01-17 08:22:53.32	325.09	1.29	-85.2	-88.6	3.0	7.64e-01	0	47	104	0	60	1048571
2026-01-17 08:22:57.33	324.91	1.06	-85.2	-88.6	3.5	7.63e-01	0	47	104	0	60	1048570
2026-01-17 08:23:01.36	324.73	0.82	-85.2	-88.6	3.3	7.62e-01	0	47	104	0	60	1048574
2026-01-17 08:23:05.39	324.56	0.59	-85.2	-88.6	3.3	7.62e-01	0	47	104	0	60	1048571
2026-01-17 08:23:09.42	324.38	0.36	-85.2	-88.6	3.1	7.63e-01	0	47	104	0	60	1048570
2026-01-17 08:23:13.44	324.22	0.13	-85.2	-88.6	3.0	7.62e-01	0	47	104	0	60	1048572

#Closed at: 2026-01-17 08:23:17
#Recorded file [0 MB]: D:/Data/35015_260117_110847.dat