passes_logs/2026/01/17/R3.2S-Naryan-Mar/R3.2S-Naryan-Mar__20260117_125203_TY-41_rec.log

#Pass ID: 20260117_125203_TY-41
#Satellite: TY-41
#Configuration: TY-39
#almurnet v.1.7.20240730
#Start time: 2026-01-17 12:52:07

#Version: 2.2.20231116
#Station: R3.2S-Naryan-Mar
#Location: 53.008057 lon 67.646978 lat
#TLE: 1 61231U 24173E   26017.08983796  .00008010  00000-0  38191-3 0 09990
#TLE: 2 61231 097.4122 092.0846 0001831 091.8622 061.7654 15.19167953 72814

#Time	Az	El	Level	Level2	SNR	BER	BlckErr	Temp	State	Recorded	gain1	gain2
2026-01-17 12:52:07.33	49.47	0.17	-85.2	-88.8	3.1	1.56e+00	0	44	0	0	60	1048572
2026-01-17 12:52:09.33	49.24	0.27	-83.1	-79.0	2.6	0.00e+00	0	46	104	0	60	1048575
2026-01-17 12:52:11.35	49.01	0.36	-83.5	-79.0	2.3	0.00e+00	0	46	104	0	60	1048575
2026-01-17 12:52:13.37	48.78	0.46	-82.8	-79.0	2.5	0.00e+00	0	46	104	0	60	1048575
2026-01-17 12:52:15.38	48.54	0.55	-83.5	-79.0	2.5	0.00e+00	0	46	104	0	60	1048574
2026-01-17 12:52:17.40	48.31	0.65	-83.5	-79.0	2.4	0.00e+00	0	46	104	0	60	1048569
2026-01-17 12:52:19.41	48.07	0.75	-83.5	-79.0	2.3	0.00e+00	0	46	104	0	60	1048575
2026-01-17 12:52:21.43	47.83	0.84	-83.5	-79.0	2.2	0.00e+00	0	46	104	0	60	1048575
2026-01-17 12:52:23.43	47.59	0.94	-83.1	-79.0	2.5	0.00e+00	0	46	104	0	60	1048571
2026-01-17 12:52:25.45	47.34	1.04	-83.5	-79.0	2.3	0.00e+00	0	46	104	0	60	1048570
2026-01-17 12:52:27.47	47.09	1.13	-82.8	-79.0	2.5	0.00e+00	0	46	104	0	60	1048575
2026-01-17 12:52:29.47	46.85	1.23	-83.5	-79.0	2.5	0.00e+00	0	46	104	0	60	1048575
2026-01-17 12:52:31.49	46.59	1.32	-83.5	-79.0	2.3	0.00e+00	0	46	104	0	60	1048573
2026-01-17 12:52:33.50	46.34	1.42	-83.1	-79.0	2.3	0.00e+00	0	46	104	0	60	1048574
2026-01-17 12:52:35.51	46.09	1.52	-83.5	-79.0	2.4	0.00e+00	0	46	104	0	60	1048566
2026-01-17 12:52:37.53	45.83	1.61	-83.1	-79.0	2.4	0.00e+00	0	47	104	0	60	1048574
2026-01-17 12:52:39.54	45.57	1.71	-83.5	-79.0	2.3	0.00e+00	0	47	104	0	60	1048572
2026-01-17 12:52:41.56	45.31	1.81	-83.5	-79.0	2.6	0.00e+00	0	47	104	0	60	1048572
2026-01-17 12:52:43.57	45.04	1.90	-83.5	-79.0	2.4	0.00e+00	0	47	104	0	60	1048575
2026-01-17 12:52:45.59	44.78	2.00	-83.5	-79.0	2.3	0.00e+00	0	47	104	0	60	1048575
2026-01-17 12:52:47.61	44.51	2.09	-83.1	-79.0	2.3	0.00e+00	0	47	104	0	60	1048574
2026-01-17 12:52:49.62	44.24	2.19	-83.5	-79.0	2.5	0.00e+00	0	47	104	0	60	1048575
2026-01-17 12:52:51.64	43.96	2.29	-83.1	-79.0	2.5	0.00e+00	0	47	104	0	60	1048573
2026-01-17 12:52:53.64	43.69	2.38	-83.5	-79.0	2.3	0.00e+00	0	47	104	0	60	1048572
2026-01-17 12:52:55.65	43.41	2.48	-83.5	-79.0	2.4	0.00e+00	0	47	104	0	60	1048574
2026-01-17 12:52:57.66	43.13	2.57	-83.5	-79.0	2.3	0.00e+00	0	47	104	0	60	1048574
2026-01-17 12:52:59.66	42.85	2.67	-83.5	-79.0	2.4	0.00e+00	0	47	104	0	60	1048574
2026-01-17 12:53:01.67	42.57	2.76	-83.1	-79.0	2.3	0.00e+00	0	47	104	0	60	1048573
2026-01-17 12:53:03.67	42.28	2.86	-83.5	-79.0	2.3	0.00e+00	0	47	104	0	60	1048574
2026-01-17 12:53:05.69	41.99	2.95	-83.1	-79.0	2.3	0.00e+00	0	47	104	0	60	1048575
2026-01-17 12:53:07.71	41.70	3.05	-83.5	-79.0	2.3	0.00e+00	0	47	104	0	60	1048571
2026-01-17 12:53:09.72	41.41	3.14	-83.5	-79.0	2.5	0.00e+00	0	47	104	0	60	1048575
2026-01-17 12:53:11.73	41.11	3.24	-83.5	-79.0	2.5	0.00e+00	0	47	104	0	60	1048575
2026-01-17 12:53:13.74	40.81	3.33	-83.5	-79.0	2.2	0.00e+00	0	47	104	0	60	1048575
2026-01-17 12:53:15.75	40.51	3.43	-83.1	-79.0	2.5	0.00e+00	0	47	104	0	60	1048573
2026-01-17 12:53:17.77	40.20	3.52	-83.5	-79.0	2.4	0.00e+00	0	47	104	0	60	1048574
2026-01-17 12:53:19.79	39.90	3.61	-83.1	-79.0	2.4	0.00e+00	0	47	104	0	60	1048559
2026-01-17 12:53:21.80	39.59	3.71	-83.5	-79.0	2.4	0.00e+00	0	47	104	0	60	1048572
2026-01-17 12:53:23.81	39.28	3.80	-83.5	-79.0	2.4	0.00e+00	0	47	104	0	60	1048575
2026-01-17 12:53:25.82	38.96	3.89	-83.1	-79.0	2.3	0.00e+00	0	47	104	0	60	1048572
2026-01-17 12:53:27.84	38.64	3.99	-83.5	-79.0	2.5	0.00e+00	0	47	104	0	60	1048573
2026-01-17 12:53:29.84	38.33	4.08	-83.1	-79.0	2.5	0.00e+00	0	47	104	0	60	1048575
2026-01-17 12:53:31.86	38.00	4.17	-83.5	-79.0	2.4	0.00e+00	0	47	104	0	60	1048574
2026-01-17 12:53:33.87	37.68	4.27	-83.5	-79.0	2.3	0.00e+00	0	47	104	0	60	1048566
2026-01-17 12:53:35.89	37.35	4.36	-83.5	-79.0	2.4	0.00e+00	0	47	104	0	60	1048575
2026-01-17 12:53:37.90	37.02	4.45	-83.5	-79.0	2.4	0.00e+00	0	47	104	0	60	1048574
2026-01-17 12:53:39.91	36.69	4.54	-83.1	-79.0	2.4	0.00e+00	0	47	104	0	60	1048574
2026-01-17 12:53:41.92	36.35	4.63	-83.5	-79.0	2.3	0.00e+00	0	47	104	0	60	1048574
2026-01-17 12:53:43.93	36.01	4.72	-82.8	-79.0	2.1	0.00e+00	0	47	104	0	60	1048575
2026-01-17 12:53:45.94	35.67	4.81	-83.5	-79.0	2.3	0.00e+00	0	47	104	0	60	1048574
2026-01-17 12:53:47.95	35.33	4.90	-83.5	-79.0	2.3	0.00e+00	0	48	104	0	60	1048573
2026-01-17 12:53:49.97	34.98	4.99	-83.1	-79.0	2.7	0.00e+00	0	47	104	0	60	1048571
2026-01-17 12:53:51.97	34.64	5.08	-83.5	-79.0	2.5	0.00e+00	0	47	104	0	60	1048574
2026-01-17 12:53:53.99	34.28	5.17	-83.1	-79.0	2.3	0.00e+00	0	47	104	0	60	1048575
2026-01-17 12:53:56.01	33.93	5.26	-83.5	-79.0	2.4	0.00e+00	0	48	104	0	60	1048567
2026-01-17 12:53:58.02	33.57	5.34	-83.1	-79.0	2.3	0.00e+00	0	48	104	0	60	1048564
2026-01-17 12:54:00.03	33.21	5.43	-83.5	-79.0	2.3	0.00e+00	0	48	104	0	60	1048562
2026-01-17 12:54:02.05	32.85	5.52	-83.5	-79.0	2.3	0.00e+00	0	48	104	0	60	1048567
2026-01-17 12:54:04.07	32.48	5.60	-83.5	-79.0	2.3	0.00e+00	0	48	104	0	60	1048571
2026-01-17 12:54:06.08	32.11	5.69	-83.5	-79.0	2.4	0.00e+00	0	48	104	0	60	1048575
2026-01-17 12:54:08.10	31.74	5.77	-83.1	-79.0	2.4	0.00e+00	0	48	104	0	60	1048574
2026-01-17 12:54:10.11	31.37	5.86	-83.5	-79.0	2.4	0.00e+00	0	48	104	0	60	1048569
2026-01-17 12:54:12.13	30.99	5.94	-83.5	-79.0	2.5	0.00e+00	0	48	104	0	60	1048574
2026-01-17 12:54:14.15	30.61	6.03	-83.5	-79.0	2.5	0.00e+00	0	48	104	0	60	1048575
2026-01-17 12:54:16.16	30.23	6.11	-83.5	-79.0	2.5	0.00e+00	0	48	104	0	60	1048575
2026-01-17 12:54:18.17	29.84	6.19	-83.1	-79.0	2.4	0.00e+00	0	48	104	0	60	1048564
2026-01-17 12:54:20.18	29.46	6.27	-83.5	-79.0	2.2	0.00e+00	0	48	104	0	60	1048574
2026-01-17 12:54:22.19	29.07	6.35	-83.1	-79.0	2.4	0.00e+00	0	48	104	0	60	1048572
2026-01-17 12:54:24.20	28.68	6.43	-83.5	-79.0	2.2	0.00e+00	0	48	104	0	60	1048562
2026-01-17 12:54:26.21	28.28	6.51	-83.5	-79.0	2.4	0.00e+00	0	48	104	0	60	1048574
2026-01-17 12:54:28.23	27.88	6.59	-83.5	-79.0	2.5	0.00e+00	0	48	104	0	60	1048575
2026-01-17 12:54:30.24	27.48	6.66	-83.5	-79.0	2.4	0.00e+00	0	48	104	0	60	1048575
2026-01-17 12:54:32.26	27.07	6.74	-82.8	-79.0	2.6	0.00e+00	0	48	104	0	60	1048574
2026-01-17 12:54:34.27	26.67	6.82	-83.5	-79.0	2.5	0.00e+00	0	48	104	0	60	1048575
2026-01-17 12:54:36.27	26.26	6.89	-83.1	-79.0	2.5	0.00e+00	0	48	104	0	60	1048575
2026-01-17 12:54:38.29	25.85	6.97	-83.5	-79.0	2.6	0.00e+00	0	48	104	0	60	1048573
2026-01-17 12:54:40.30	25.44	7.04	-83.5	-79.0	2.2	0.00e+00	0	48	104	0	60	1048572
2026-01-17 12:54:42.31	25.02	7.11	-83.5	-79.0	2.2	0.00e+00	0	48	104	0	60	1048571
2026-01-17 12:54:44.32	24.60	7.18	-83.5	-79.0	2.3	0.00e+00	0	48	104	0	60	1048573
2026-01-17 12:54:46.34	24.18	7.25	-82.8	-79.0	2.3	0.00e+00	0	48	104	0	60	1048573
2026-01-17 12:54:48.36	23.75	7.32	-83.5	-79.0	2.3	0.00e+00	0	48	104	0	60	1048575
2026-01-17 12:54:50.37	23.32	7.39	-83.1	-79.0	2.5	0.00e+00	0	48	104	0	60	1048573
2026-01-17 12:54:52.38	22.90	7.46	-83.5	-79.0	2.6	0.00e+00	0	48	104	0	60	1048567
2026-01-17 12:54:54.39	22.46	7.52	-83.5	-79.0	2.6	0.00e+00	0	48	104	0	60	1048574
2026-01-17 12:54:56.39	22.03	7.59	-83.1	-79.0	2.4	0.00e+00	0	48	104	0	60	1048574
2026-01-17 12:54:58.41	21.59	7.65	-83.5	-79.0	2.3	0.00e+00	0	48	104	0	60	1048574
2026-01-17 12:55:00.42	21.15	7.72	-82.8	-79.0	2.3	0.00e+00	0	48	104	0	60	1048572
2026-01-17 12:55:02.44	20.71	7.78	-83.5	-79.0	2.3	0.00e+00	0	48	104	0	60	1048572
2026-01-17 12:55:04.45	20.27	7.84	-83.1	-79.0	2.3	0.00e+00	0	48	104	0	60	1048568
2026-01-17 12:55:06.46	19.82	7.90	-83.5	-79.0	2.3	0.00e+00	0	48	104	0	60	1048572
2026-01-17 12:55:08.48	19.37	7.96	-83.5	-79.0	2.4	0.00e+00	0	48	104	0	60	1048570
2026-01-17 12:55:10.48	18.92	8.01	-83.5	-79.0	2.4	0.00e+00	0	48	104	0	60	1048572
2026-01-17 12:55:12.49	18.47	8.07	-83.5	-79.0	2.4	0.00e+00	0	48	104	0	60	1048570
2026-01-17 12:55:14.51	18.01	8.12	-83.1	-79.0	2.6	0.00e+00	0	48	104	0	60	1048575
2026-01-17 12:55:16.52	17.56	8.18	-83.5	-79.0	2.4	0.00e+00	0	48	104	0	60	1048573
2026-01-17 12:55:18.54	17.10	8.23	-83.1	-79.0	2.3	0.00e+00	0	48	104	0	60	1048574
2026-01-17 12:55:20.56	16.63	8.28	-83.5	-79.0	2.4	0.00e+00	0	48	104	0	60	1048574
2026-01-17 12:55:22.57	16.17	8.33	-83.5	-79.0	2.4	0.00e+00	0	48	104	0	60	1048575
2026-01-17 12:55:24.59	15.70	8.38	-83.1	-79.0	2.3	0.00e+00	0	48	104	0	60	1048574
2026-01-17 12:55:26.60	15.24	8.42	-83.5	-79.0	2.3	0.00e+00	0	48	104	0	60	1048574
2026-01-17 12:55:28.61	14.77	8.47	-83.1	-79.0	2.6	0.00e+00	0	48	104	0	60	1048573
2026-01-17 12:55:30.62	14.30	8.51	-83.5	-79.0	2.1	0.00e+00	0	48	104	0	60	1048573
2026-01-17 12:55:32.63	13.83	8.55	-83.5	-79.0	2.5	0.00e+00	0	48	104	0	60	1048572
2026-01-17 12:55:34.64	13.35	8.59	-83.5	-79.0	2.3	0.00e+00	0	48	104	0	60	1048575
2026-01-17 12:55:36.66	12.88	8.63	-83.5	-79.0	2.5	0.00e+00	0	48	104	0	60	1048573
2026-01-17 12:55:38.67	12.40	8.67	-82.8	-79.0	2.5	0.00e+00	0	48	104	0	60	1048571
2026-01-17 12:55:40.68	11.92	8.71	-83.5	-79.0	2.3	0.00e+00	0	48	104	0	60	1048570
2026-01-17 12:55:42.69	11.44	8.74	-83.1	-79.0	2.4	0.00e+00	0	48	104	0	60	1048575
2026-01-17 12:55:44.71	10.96	8.77	-83.5	-79.0	2.4	0.00e+00	0	48	104	0	60	1048571
2026-01-17 12:55:46.73	10.47	8.81	-83.5	-79.0	2.7	0.00e+00	0	48	104	0	60	1048569
2026-01-17 12:55:48.73	9.99	8.84	-83.5	-79.0	2.5	0.00e+00	0	48	104	0	60	1048574
2026-01-17 12:55:50.75	9.50	8.86	-83.5	-79.0	2.3	0.00e+00	0	48	104	0	60	1048574
2026-01-17 12:55:52.77	9.02	8.89	-83.1	-79.0	2.4	0.00e+00	0	48	104	0	60	1048575
2026-01-17 12:55:54.78	8.53	8.91	-83.5	-79.0	2.3	0.00e+00	0	48	104	0	60	1048575
2026-01-17 12:55:56.79	8.04	8.94	-83.5	-79.0	2.4	0.00e+00	0	48	104	0	60	1048574
2026-01-17 12:55:58.81	7.55	8.96	-83.5	-79.0	2.4	0.00e+00	0	48	104	0	60	1048575
2026-01-17 12:56:00.82	7.06	8.98	-83.5	-79.0	2.4	0.00e+00	0	48	104	0	60	1048573
2026-01-17 12:56:02.84	6.57	9.00	-83.5	-79.0	2.4	0.00e+00	0	48	104	0	60	1048574
2026-01-17 12:56:04.86	6.07	9.01	-83.5	-79.0	2.4	0.00e+00	0	48	104	0	60	1048575
2026-01-17 12:56:06.87	5.58	9.03	-83.1	-79.0	2.2	0.00e+00	0	48	104	0	60	1048575
2026-01-17 12:56:08.89	5.09	9.04	-83.5	-79.0	2.5	0.00e+00	0	48	104	0	60	1048572
2026-01-17 12:56:10.90	4.59	9.05	-83.1	-79.0	2.5	0.00e+00	0	48	104	0	60	1048575
2026-01-17 12:56:12.91	4.10	9.06	-83.5	-79.0	2.6	0.00e+00	0	48	104	0	60	1048573
2026-01-17 12:56:14.93	3.60	9.07	-83.5	-79.0	2.5	0.00e+00	0	48	104	0	60	1048573
2026-01-17 12:56:16.94	3.11	9.08	-83.1	-79.0	2.3	0.00e+00	0	48	104	0	60	1048575
2026-01-17 12:56:18.96	2.61	9.08	-83.5	-79.0	2.6	0.00e+00	0	48	104	0	60	1048573
2026-01-17 12:56:20.97	2.12	9.09	-83.1	-79.0	2.4	0.00e+00	0	48	104	0	60	1048575
2026-01-17 12:56:22.99	1.62	9.09	-83.5	-79.0	2.4	0.00e+00	0	48	104	0	60	1048575
2026-01-17 12:56:25.01	1.12	9.09	-83.5	-79.0	2.4	0.00e+00	0	48	104	0	60	1048575
2026-01-17 12:56:27.02	0.63	9.08	-83.5	-79.0	2.4	0.00e+00	0	48	104	0	60	1048574
2026-01-17 12:56:29.03	0.13	9.08	-83.5	-79.0	2.4	0.00e+00	0	48	104	0	60	1048571
2026-01-17 12:56:31.04	359.64	9.07	-83.1	-79.0	2.3	0.00e+00	0	48	104	0	60	1048570
2026-01-17 12:56:33.05	359.15	9.07	-83.5	-79.0	2.3	0.00e+00	0	48	104	0	60	1048575
2026-01-17 12:56:35.07	358.65	9.06	-82.8	-79.0	2.6	0.00e+00	0	48	104	0	60	1048575
2026-01-17 12:56:37.08	358.16	9.05	-83.5	-79.0	2.6	0.00e+00	0	49	104	0	60	1048572
2026-01-17 12:56:39.09	357.66	9.03	-83.5	-79.0	2.5	0.00e+00	0	48	104	0	60	1048575
2026-01-17 12:56:41.11	357.17	9.02	-83.5	-79.0	2.5	0.00e+00	0	48	104	0	60	1048572
2026-01-17 12:56:43.12	356.68	9.00	-83.5	-79.0	2.3	0.00e+00	0	48	104	0	60	1048572
2026-01-17 12:56:45.13	356.19	8.99	-83.1	-79.0	2.3	0.00e+00	0	48	104	0	60	1048574
2026-01-17 12:56:47.14	355.70	8.97	-83.5	-79.0	2.4	0.00e+00	0	48	104	0	60	1048568
2026-01-17 12:56:49.15	355.21	8.95	-83.1	-79.0	2.3	0.00e+00	0	49	104	0	60	1048569
2026-01-17 12:56:51.16	354.72	8.92	-83.5	-79.0	2.4	0.00e+00	0	48	104	0	60	1048575
2026-01-17 12:56:53.17	354.23	8.90	-83.5	-79.0	2.2	0.00e+00	0	48	104	0	60	1048575
2026-01-17 12:56:55.18	353.74	8.87	-83.5	-79.0	2.4	0.00e+00	0	48	104	0	60	1048575
2026-01-17 12:56:57.19	353.26	8.85	-83.5	-79.0	2.4	0.00e+00	0	48	104	0	60	1048575
2026-01-17 12:56:59.21	352.77	8.82	-83.1	-79.0	2.4	0.00e+00	0	48	104	0	60	1048575
2026-01-17 12:57:01.22	352.29	8.79	-83.5	-79.0	2.4	0.00e+00	0	49	104	0	60	1048574
2026-01-17 12:57:03.24	351.81	8.75	-83.5	-79.0	2.3	0.00e+00	0	48	104	0	60	1048575
2026-01-17 12:57:05.25	351.33	8.72	-83.5	-79.0	2.3	0.00e+00	0	48	104	0	60	1048575
2026-01-17 12:57:07.27	350.84	8.68	-83.5	-79.0	2.3	0.00e+00	0	48	104	0	60	1048571
2026-01-17 12:57:09.28	350.37	8.65	-83.1	-79.0	2.6	0.00e+00	0	48	104	0	60	1048575
2026-01-17 12:57:11.30	349.89	8.61	-83.5	-79.0	2.3	0.00e+00	0	48	104	0	60	1048574
2026-01-17 12:57:13.31	349.42	8.57	-83.1	-79.0	2.3	0.00e+00	0	48	104	0	60	1048574
2026-01-17 12:57:15.33	348.94	8.53	-83.5	-79.0	2.3	0.00e+00	0	48	104	0	60	1048575
2026-01-17 12:57:17.35	348.47	8.48	-83.5	-79.0	2.3	0.00e+00	0	48	104	0	60	1048574
2026-01-17 12:57:19.36	348.00	8.44	-83.5	-79.0	2.4	0.00e+00	0	48	104	0	60	1048570
2026-01-17 12:57:21.37	347.53	8.39	-83.5	-79.0	2.4	0.00e+00	0	49	104	0	60	1048575
2026-01-17 12:57:23.38	347.07	8.35	-83.1	-79.0	2.5	0.00e+00	0	49	104	0	60	1048575
2026-01-17 12:57:25.40	346.60	8.30	-83.5	-79.0	2.4	0.00e+00	0	48	104	0	60	1048575
2026-01-17 12:57:27.41	346.14	8.25	-83.1	-79.0	2.4	0.00e+00	0	48	104	0	60	1048574
2026-01-17 12:57:29.42	345.68	8.20	-83.5	-79.0	2.3	0.00e+00	0	48	104	0	60	1048574
2026-01-17 12:57:31.43	345.22	8.14	-83.5	-79.0	2.3	0.00e+00	0	49	104	0	60	1048570
2026-01-17 12:57:33.45	344.76	8.09	-83.5	-79.0	2.3	0.00e+00	0	48	104	0	60	1048575
2026-01-17 12:57:35.47	344.31	8.03	-83.5	-79.0	2.3	0.00e+00	0	48	104	0	60	1048566
2026-01-17 12:57:37.48	343.86	7.98	-83.1	-79.0	2.4	0.00e+00	0	49	104	0	60	1048575
2026-01-17 12:57:39.49	343.41	7.92	-83.5	-79.0	2.5	0.00e+00	0	48	104	0	60	1048572
2026-01-17 12:57:41.50	342.96	7.86	-83.1	-79.0	2.6	0.00e+00	0	49	104	0	60	1048571
2026-01-17 12:57:43.52	342.52	7.80	-83.5	-79.0	2.5	0.00e+00	0	49	104	0	60	1048570
2026-01-17 12:57:45.52	342.08	7.74	-83.5	-79.0	2.3	0.00e+00	0	48	104	0	60	1048575
2026-01-17 12:57:47.54	341.64	7.68	-83.1	-79.0	2.4	0.00e+00	0	49	104	0	60	1048574
2026-01-17 12:57:49.56	341.20	7.61	-83.5	-79.0	2.5	0.00e+00	0	48	104	0	60	1048575
2026-01-17 12:57:51.57	340.76	7.55	-83.1	-79.0	2.4	0.00e+00	0	49	104	0	60	1048575
2026-01-17 12:57:53.58	340.33	7.48	-83.5	-79.0	2.4	0.00e+00	0	49	104	0	60	1048574
2026-01-17 12:57:55.60	339.90	7.41	-83.1	-79.0	2.7	0.00e+00	0	49	104	0	60	1048575
2026-01-17 12:57:57.61	339.47	7.35	-83.5	-79.0	2.6	0.00e+00	0	49	104	0	60	1048571
2026-01-17 12:57:59.62	339.04	7.28	-83.5	-79.0	2.5	0.00e+00	0	49	104	0	60	1048573
2026-01-17 12:58:01.64	338.62	7.21	-83.5	-79.0	2.2	0.00e+00	0	49	104	0	60	1048564
2026-01-17 12:58:03.65	338.20	7.14	-83.5	-79.0	2.5	0.00e+00	0	49	104	0	60	1048569
2026-01-17 12:58:05.67	337.78	7.06	-83.1	-79.0	2.4	0.00e+00	0	49	104	0	60	1048574
2026-01-17 12:58:07.69	337.36	6.99	-83.5	-79.0	2.2	0.00e+00	0	48	104	0	60	1048568
2026-01-17 12:58:09.70	336.95	6.92	-83.5	-79.0	2.3	0.00e+00	0	49	104	0	60	1048575
2026-01-17 12:58:11.71	336.54	6.84	-83.5	-79.0	2.3	0.00e+00	0	49	104	0	60	1048575
2026-01-17 12:58:13.72	336.14	6.77	-83.5	-79.0	2.5	0.00e+00	0	49	104	0	60	1048571
2026-01-17 12:58:15.74	335.73	6.69	-83.5	-79.0	2.4	0.00e+00	0	49	104	0	60	1048574
2026-01-17 12:58:17.75	335.33	6.61	-83.5	-79.0	2.4	0.00e+00	0	49	104	0	60	1048572
2026-01-17 12:58:19.76	334.93	6.54	-83.1	-79.0	2.4	0.00e+00	0	49	104	0	60	1048574
2026-01-17 12:58:21.78	334.53	6.46	-83.5	-79.0	2.5	0.00e+00	0	49	104	0	60	1048568
2026-01-17 12:58:23.80	334.14	6.38	-83.5	-79.0	2.4	0.00e+00	0	49	104	0	60	1048570
2026-01-17 12:58:25.81	333.75	6.30	-83.5	-79.0	2.3	0.00e+00	0	49	104	0	60	1048575
2026-01-17 12:58:27.82	333.36	6.22	-83.5	-79.0	2.3	0.00e+00	0	49	104	0	60	1048575
2026-01-17 12:58:29.84	332.97	6.13	-82.8	-79.0	2.3	0.00e+00	0	49	104	0	60	1048571
2026-01-17 12:58:31.85	332.59	6.05	-83.5	-79.0	2.6	0.00e+00	0	49	104	0	60	1048575
2026-01-17 12:58:33.86	332.21	5.97	-83.1	-79.0	2.4	0.00e+00	0	49	104	0	60	1048563
2026-01-17 12:58:35.88	331.83	5.89	-83.5	-79.0	2.5	0.00e+00	0	49	104	0	60	1048574
2026-01-17 12:58:37.89	331.46	5.80	-83.5	-79.0	2.3	0.00e+00	0	49	104	0	60	1048575
2026-01-17 12:58:39.90	331.09	5.72	-83.1	-79.0	2.5	0.00e+00	0	49	104	0	60	1048575
2026-01-17 12:58:41.91	330.72	5.63	-83.5	-79.0	2.4	0.00e+00	0	49	104	0	60	1048572
2026-01-17 12:58:43.92	330.35	5.55	-83.1	-79.0	2.5	0.00e+00	0	49	104	0	60	1048574
2026-01-17 12:58:45.93	329.99	5.46	-83.5	-79.0	2.3	0.00e+00	0	49	104	0	60	1048572
2026-01-17 12:58:47.95	329.63	5.37	-83.5	-79.0	2.4	0.00e+00	0	49	104	0	60	1048572
2026-01-17 12:58:49.96	329.27	5.29	-83.1	-79.0	2.4	0.00e+00	0	49	104	0	60	1048573
2026-01-17 12:58:51.97	328.92	5.20	-83.5	-79.0	2.2	0.00e+00	0	49	104	0	60	1048568
2026-01-17 12:58:53.99	328.56	5.11	-83.5	-79.0	2.3	0.00e+00	0	49	104	0	60	1048571
2026-01-17 12:58:56.01	328.21	5.02	-83.5	-79.0	2.4	0.00e+00	0	48	104	0	60	1048571
2026-01-17 12:58:58.01	327.87	4.93	-83.1	-79.0	2.5	0.00e+00	0	49	104	0	60	1048572
2026-01-17 12:59:00.03	327.52	4.84	-83.5	-79.0	2.2	0.00e+00	0	49	104	0	60	1048567
2026-01-17 12:59:02.04	327.18	4.75	-83.5	-79.0	2.3	0.00e+00	0	48	104	0	60	1048573
2026-01-17 12:59:04.04	326.84	4.66	-83.1	-79.0	2.3	0.00e+00	0	48	104	0	60	1048563
2026-01-17 12:59:06.05	326.51	4.57	-83.5	-79.0	2.2	0.00e+00	0	48	104	0	60	1048568
2026-01-17 12:59:08.06	326.17	4.48	-83.1	-79.0	2.4	0.00e+00	0	49	104	0	60	1048575
2026-01-17 12:59:10.07	325.84	4.39	-83.5	-79.0	2.3	0.00e+00	0	49	104	0	60	1048575
2026-01-17 12:59:12.08	325.51	4.30	-83.1	-79.0	2.3	0.00e+00	0	48	104	0	60	1048573
2026-01-17 12:59:14.10	325.19	4.20	-83.5	-79.0	2.3	0.00e+00	0	48	104	0	60	1048572
2026-01-17 12:59:16.11	324.86	4.11	-83.5	-79.0	2.4	0.00e+00	0	48	104	0	60	1048574
2026-01-17 12:59:18.11	324.55	4.02	-83.1	-79.0	2.3	0.00e+00	0	48	104	0	60	1048572
2026-01-17 12:59:20.13	324.23	3.93	-83.5	-79.0	2.4	0.00e+00	0	49	104	0	60	1048570
2026-01-17 12:59:22.14	323.91	3.83	-83.1	-79.0	2.3	0.00e+00	0	48	104	0	60	1048573
2026-01-17 12:59:24.15	323.60	3.74	-83.5	-79.0	2.4	0.00e+00	0	48	104	0	60	1048574
2026-01-17 12:59:26.17	323.29	3.65	-83.1	-79.0	2.4	0.00e+00	0	48	104	0	60	1048574
2026-01-17 12:59:28.19	322.98	3.55	-83.5	-79.0	2.2	0.00e+00	0	49	104	0	60	1048574
2026-01-17 12:59:30.21	322.67	3.46	-83.1	-79.0	2.3	0.00e+00	0	49	104	0	60	1048570
2026-01-17 12:59:32.22	322.37	3.36	-83.5	-79.0	2.5	0.00e+00	0	49	104	0	60	1048557
2026-01-17 12:59:34.22	322.07	3.27	-83.5	-79.0	2.5	0.00e+00	0	49	104	0	60	1048574
2026-01-17 12:59:36.24	321.77	3.18	-83.1	-79.0	2.3	0.00e+00	0	49	104	0	60	1048575
2026-01-17 12:59:38.25	321.48	3.08	-83.5	-79.0	2.5	0.00e+00	0	49	104	0	60	1048560
2026-01-17 12:59:40.27	321.19	2.99	-83.1	-79.0	2.2	0.00e+00	0	49	104	0	60	1048573
2026-01-17 12:59:42.28	320.90	2.89	-83.5	-79.0	2.3	0.00e+00	0	49	104	0	60	1048574
2026-01-17 12:59:44.30	320.61	2.80	-83.5	-79.0	2.4	0.00e+00	0	49	104	0	60	1048570
2026-01-17 12:59:46.32	320.32	2.70	-83.1	-79.0	2.4	0.00e+00	0	49	104	0	60	1048574
2026-01-17 12:59:48.34	320.04	2.60	-83.5	-79.0	2.3	0.00e+00	0	49	104	0	60	1048574
2026-01-17 12:59:50.35	319.76	2.51	-82.8	-79.0	2.3	0.00e+00	0	49	104	0	60	1048573
2026-01-17 12:59:52.36	319.48	2.41	-83.5	-79.0	2.3	0.00e+00	0	48	104	0	60	1048573
2026-01-17 12:59:54.37	319.20	2.32	-83.5	-79.0	2.4	0.00e+00	0	49	104	0	60	1048573
2026-01-17 12:59:56.39	318.93	2.22	-83.5	-79.0	2.4	0.00e+00	0	48	104	0	60	1048571
2026-01-17 12:59:58.40	318.66	2.13	-83.5	-79.0	2.4	0.00e+00	0	49	104	0	60	1048575
2026-01-17 13:00:00.42	318.39	2.03	-82.8	-79.0	2.5	0.00e+00	0	49	104	0	60	1048575
2026-01-17 13:00:02.43	318.12	1.93	-83.5	-79.0	2.4	0.00e+00	0	49	104	0	60	1048570
2026-01-17 13:00:04.44	317.86	1.84	-83.1	-79.0	2.4	0.00e+00	0	49	104	0	60	1048568
2026-01-17 13:00:06.45	317.60	1.74	-83.5	-79.0	2.4	0.00e+00	0	49	104	0	60	1048574
2026-01-17 13:00:08.46	317.34	1.65	-83.5	-79.0	2.4	0.00e+00	0	49	104	0	60	1048574
2026-01-17 13:00:10.47	317.08	1.55	-83.5	-79.0	2.4	0.00e+00	0	49	104	0	60	1048575
2026-01-17 13:00:12.48	316.82	1.45	-83.5	-79.0	2.5	0.00e+00	0	49	104	0	60	1048571
2026-01-17 13:00:14.50	316.57	1.36	-82.8	-79.0	2.3	0.00e+00	0	49	104	0	60	1048574
2026-01-17 13:00:16.51	316.32	1.26	-83.5	-79.0	2.4	0.00e+00	0	49	104	0	60	1048566
2026-01-17 13:00:18.53	316.07	1.16	-83.1	-79.0	2.4	0.00e+00	0	49	104	0	60	1048574
2026-01-17 13:00:20.54	315.82	1.07	-83.5	-79.0	2.4	0.00e+00	0	48	104	0	60	1048571
2026-01-17 13:00:22.55	315.58	0.97	-83.5	-79.0	2.5	0.00e+00	0	49	104	0	60	1048575
2026-01-17 13:00:24.56	315.33	0.88	-83.5	-79.0	2.4	0.00e+00	0	49	104	0	60	1048575
2026-01-17 13:00:26.57	315.09	0.78	-83.5	-79.0	2.2	0.00e+00	0	49	104	0	60	1048575
2026-01-17 13:00:28.59	314.85	0.68	-82.8	-79.0	2.4	0.00e+00	0	49	104	0	60	1048574
2026-01-17 13:00:30.60	314.62	0.59	-83.5	-79.0	2.2	0.00e+00	0	49	104	0	60	1048575
2026-01-17 13:00:32.61	314.38	0.49	-83.1	-79.0	2.3	0.00e+00	0	48	104	0	60	1048572
2026-01-17 13:00:34.63	314.15	0.40	-83.5	-79.0	2.6	0.00e+00	0	48	104	0	60	1048575
2026-01-17 13:00:36.65	313.92	0.30	-83.5	-79.0	2.3	0.00e+00	0	48	104	0	60	1048575
2026-01-17 13:00:38.66	313.69	0.20	-83.1	-79.0	2.3	0.00e+00	0	49	104	0	60	1048574
2026-01-17 13:00:40.67	313.46	0.11	-83.5	-79.0	2.4	0.00e+00	0	49	104	0	60	1048575
2026-01-17 13:00:42.68	313.24	0.01	-83.1	-79.0	2.4	0.00e+00	0	49	104	0	60	1048571

#Closed at: 2026-01-17 13:00:44
#Recorded file [0 MB]: D:/Data/35015_260117_155207.dat