passes_logs/2026/01/17/R3.2S-Naryan-Mar/R3.2S-Naryan-Mar__20260117_162019_TY-40_rec.log

#Pass ID: 20260117_162019_TY-40
#Satellite: TY-40
#Configuration: TY-39
#almurnet v.1.7.20240730
#Start time: 2026-01-17 16:26:03

#Version: 2.2.20231116
#Station: R3.2S-Naryan-Mar
#Location: 53.008057 lon 67.646978 lat
#TLE: 1 56846U 23081A   26016.94830663  .00002646  00000-0  11971-3 0  9997
#TLE: 2 56846  97.3895  89.8290 0001781  76.6008 283.5426 15.21771932145000

#Time	Az	El	Level	Level2	SNR	BER	BlckErr	Temp	State	Recorded	gain1	gain2
2026-01-17 16:26:03.74	48.09	36.86	-83.1	-79.0	2.4	0.00e+00	0	48	0	0	60	1048575
2026-01-17 16:26:05.75	46.73	36.76	-83.5	-79.0	2.5	0.00e+00	0	49	104	0	60	1048575
2026-01-17 16:26:07.77	45.36	36.66	-83.5	-79.0	2.4	0.00e+00	0	49	104	0	60	1048569
2026-01-17 16:26:09.78	44.02	36.53	-83.5	-79.0	2.4	0.00e+00	0	49	104	0	60	1048566
2026-01-17 16:26:11.79	42.69	36.39	-83.5	-79.0	2.4	0.00e+00	0	49	104	0	60	1048570
2026-01-17 16:26:13.81	41.36	36.23	-83.5	-79.0	2.4	0.00e+00	0	49	104	0	60	1048574
2026-01-17 16:26:15.82	40.05	36.06	-82.8	-79.0	2.5	0.00e+00	0	49	104	0	60	1048575
2026-01-17 16:26:17.83	38.76	35.87	-83.5	-79.0	2.4	0.00e+00	0	49	104	0	60	1048573
2026-01-17 16:26:19.84	37.49	35.67	-83.1	-79.0	2.5	0.00e+00	0	49	104	0	60	1048574
2026-01-17 16:26:21.86	36.22	35.45	-83.5	-79.0	2.4	0.00e+00	0	49	104	0	60	1048575
2026-01-17 16:26:23.87	34.99	35.23	-83.5	-79.0	2.4	0.00e+00	0	49	104	0	60	1048575
2026-01-17 16:26:25.89	33.76	34.98	-83.1	-79.0	2.3	0.00e+00	0	49	104	0	60	1048572
2026-01-17 16:26:27.89	32.57	34.73	-83.5	-79.0	2.4	0.00e+00	0	49	104	0	60	1048574
2026-01-17 16:26:29.90	31.39	34.47	-83.1	-79.0	2.5	0.00e+00	0	49	104	0	60	1048566
2026-01-17 16:26:31.92	30.22	34.20	-83.5	-79.0	2.4	0.00e+00	0	49	104	0	60	1048574
2026-01-17 16:26:33.93	29.08	33.92	-83.5	-79.0	2.4	0.00e+00	0	49	104	0	60	1048571
2026-01-17 16:26:35.95	27.96	33.62	-83.5	-79.0	2.4	0.00e+00	0	49	104	0	60	1048552
2026-01-17 16:26:37.96	26.86	33.32	-83.5	-79.0	2.4	0.00e+00	0	49	104	0	60	1048568
2026-01-17 16:26:39.97	25.79	33.02	-82.8	-79.0	2.4	0.00e+00	0	49	104	0	60	1048568
2026-01-17 16:26:41.99	24.73	32.70	-83.5	-79.0	2.3	0.00e+00	0	49	104	0	60	1048575
2026-01-17 16:26:44.00	23.70	32.38	-83.1	-79.0	2.3	0.00e+00	0	49	104	0	60	1048570
2026-01-17 16:26:46.02	22.69	32.06	-83.5	-79.0	2.4	0.00e+00	0	49	104	0	60	1048575
2026-01-17 16:26:48.03	21.70	31.73	-83.5	-79.0	2.4	0.00e+00	0	49	104	0	60	1048569
2026-01-17 16:26:50.04	20.74	31.39	-83.5	-79.0	2.4	0.00e+00	0	49	104	0	60	1048573
2026-01-17 16:26:52.05	19.80	31.06	-83.5	-79.0	2.4	0.00e+00	0	49	104	0	60	1048575
2026-01-17 16:26:54.07	18.87	30.71	-83.1	-79.0	2.3	0.00e+00	0	49	104	0	60	1048575
2026-01-17 16:26:56.09	17.97	30.37	-83.5	-79.0	2.4	0.00e+00	0	49	104	0	60	1048575
2026-01-17 16:26:58.10	17.09	30.02	-83.5	-79.0	2.4	0.00e+00	0	49	104	0	60	1048572
2026-01-17 16:27:00.12	16.22	29.67	-83.5	-79.0	2.4	0.00e+00	0	49	104	0	60	1048573
2026-01-17 16:27:02.13	15.38	29.32	-83.5	-79.0	2.4	0.00e+00	0	49	104	0	60	1048562
2026-01-17 16:27:04.14	14.56	28.97	-83.1	-79.0	2.3	0.00e+00	0	49	104	0	60	1048572
2026-01-17 16:27:06.15	13.77	28.62	-83.5	-79.0	2.3	0.00e+00	0	49	104	0	60	1048573
2026-01-17 16:27:08.17	12.98	28.26	-83.1	-79.0	2.3	0.00e+00	0	49	104	0	60	1048563
2026-01-17 16:27:10.19	12.22	27.91	-83.5	-79.0	2.3	0.00e+00	0	49	104	0	60	1048573
2026-01-17 16:27:12.20	11.47	27.56	-83.5	-79.0	2.4	0.00e+00	0	49	104	0	60	1048574
2026-01-17 16:27:14.22	10.74	27.20	-83.5	-79.0	2.4	0.00e+00	0	49	104	0	60	1048572
2026-01-17 16:27:16.23	10.03	26.85	-83.5	-79.0	2.4	0.00e+00	0	49	104	0	60	1048575
2026-01-17 16:27:18.25	9.34	26.50	-82.8	-79.0	2.3	0.00e+00	0	49	104	0	60	1048573
2026-01-17 16:27:20.27	8.66	26.15	-83.5	-79.0	2.5	0.00e+00	0	49	104	0	60	1048572
2026-01-17 16:27:22.29	8.00	25.81	-83.1	-79.0	2.4	0.00e+00	0	49	104	0	60	1048566
2026-01-17 16:27:24.30	7.36	25.46	-83.5	-79.0	2.3	0.00e+00	0	49	104	0	60	1048569
2026-01-17 16:27:26.31	6.73	25.12	-83.1	-79.0	2.5	0.00e+00	0	49	104	0	60	1048571
2026-01-17 16:27:28.33	6.12	24.78	-83.5	-79.0	2.5	0.00e+00	0	49	104	0	60	1048572
2026-01-17 16:27:30.34	5.52	24.44	-83.5	-79.0	2.4	0.00e+00	0	49	104	0	60	1048575
2026-01-17 16:27:32.36	4.94	24.10	-83.1	-79.0	2.4	0.00e+00	0	49	104	0	60	1048568
2026-01-17 16:27:34.37	4.37	23.77	-83.5	-79.0	2.4	0.00e+00	0	49	104	0	60	1048574
2026-01-17 16:27:36.38	3.81	23.44	-83.1	-79.0	2.5	0.00e+00	0	49	104	0	60	1048573
2026-01-17 16:27:38.40	3.27	23.11	-83.5	-79.0	2.4	0.00e+00	0	49	104	0	60	1048573
2026-01-17 16:27:40.41	2.74	22.78	-83.5	-79.0	2.4	0.00e+00	0	49	104	0	60	1048573
2026-01-17 16:27:42.43	2.22	22.46	-83.5	-79.0	2.4	0.00e+00	0	49	104	0	60	1048573
2026-01-17 16:27:44.45	1.71	22.13	-83.5	-79.0	2.4	0.00e+00	0	49	104	0	60	1048570
2026-01-17 16:27:46.46	1.22	21.82	-83.1	-79.0	2.3	0.00e+00	0	49	104	0	60	1048572
2026-01-17 16:27:48.48	0.74	21.50	-83.5	-79.0	2.4	0.00e+00	0	49	104	0	60	1048575
2026-01-17 16:27:50.49	0.27	21.19	-83.1	-79.0	2.4	0.00e+00	0	49	104	0	60	1048575
2026-01-17 16:27:52.50	359.81	20.88	-83.5	-79.0	2.4	0.00e+00	0	49	104	0	60	1048573
2026-01-17 16:27:54.52	359.36	20.57	-83.5	-79.0	2.4	0.00e+00	0	49	104	0	60	1048568
2026-01-17 16:27:56.53	358.92	20.27	-83.1	-79.0	2.5	0.00e+00	0	49	104	0	60	1048574
2026-01-17 16:27:58.55	358.49	19.97	-83.5	-79.0	2.3	0.00e+00	0	49	104	0	60	1048567
2026-01-17 16:28:00.56	358.07	19.67	-82.8	-79.0	2.3	0.00e+00	0	49	104	0	60	1048570
2026-01-17 16:28:02.57	357.66	19.38	-83.5	-79.0	2.4	0.00e+00	0	49	104	0	60	1048572
2026-01-17 16:28:04.59	357.25	19.09	-83.5	-79.0	2.4	0.00e+00	0	49	104	0	60	1048572
2026-01-17 16:28:06.60	356.86	18.80	-83.1	-79.0	2.4	0.00e+00	0	49	104	0	60	1048575
2026-01-17 16:28:08.62	356.48	18.51	-83.5	-79.0	2.3	0.00e+00	0	49	104	0	60	1048574
2026-01-17 16:28:10.63	356.10	18.23	-82.8	-79.0	2.4	0.00e+00	0	49	104	0	60	1048575
2026-01-17 16:28:12.64	355.73	17.95	-83.5	-79.0	2.4	0.00e+00	0	49	104	0	60	1048568
2026-01-17 16:28:14.66	355.37	17.68	-82.8	-79.0	2.4	0.00e+00	0	49	104	0	60	1048570
2026-01-17 16:28:16.67	355.02	17.40	-83.5	-79.0	2.5	0.00e+00	0	49	104	0	60	1048574
2026-01-17 16:28:18.68	354.68	17.13	-83.5	-79.0	2.4	0.00e+00	0	49	104	0	60	1048570
2026-01-17 16:28:20.70	354.34	16.87	-83.5	-79.0	2.5	0.00e+00	0	49	104	0	60	1048575
2026-01-17 16:28:22.72	354.01	16.60	-83.5	-79.0	2.4	0.00e+00	0	49	104	0	60	1048571
2026-01-17 16:28:24.73	353.68	16.34	-82.8	-79.0	2.4	0.00e+00	0	49	104	0	60	1048568
2026-01-17 16:28:26.74	353.37	16.08	-83.1	-79.0	2.4	0.00e+00	0	49	104	0	60	1048569
2026-01-17 16:28:28.76	353.06	15.82	-82.8	-79.0	2.4	0.00e+00	0	49	104	0	60	1048574
2026-01-17 16:28:30.77	352.75	15.57	-83.5	-79.0	2.4	0.00e+00	0	49	104	0	60	1048575
2026-01-17 16:28:32.78	352.46	15.32	-83.5	-79.0	2.5	0.00e+00	0	49	104	0	60	1048575
2026-01-17 16:28:34.80	352.16	15.07	-83.5	-79.0	2.4	0.00e+00	0	49	104	0	60	1048572
2026-01-17 16:28:36.81	351.88	14.82	-83.1	-79.0	2.4	0.00e+00	0	49	104	0	60	1048570
2026-01-17 16:28:38.83	351.60	14.58	-82.8	-79.0	2.4	0.00e+00	0	49	104	0	60	1048574
2026-01-17 16:28:40.85	351.32	14.34	-83.5	-79.0	2.4	0.00e+00	0	49	104	0	60	1048567
2026-01-17 16:28:42.86	351.05	14.10	-83.1	-79.0	2.4	0.00e+00	0	49	104	0	60	1048571
2026-01-17 16:28:44.88	350.78	13.87	-83.5	-79.0	2.4	0.00e+00	0	49	104	0	60	1048572
2026-01-17 16:28:46.89	350.53	13.63	-83.5	-79.0	2.4	0.00e+00	0	49	104	0	60	1048567
2026-01-17 16:28:48.90	350.27	13.40	-83.5	-79.0	2.4	0.00e+00	0	49	104	0	60	1048572
2026-01-17 16:28:50.92	350.02	13.17	-83.5	-79.0	2.4	0.00e+00	0	49	104	0	60	1048572
2026-01-17 16:28:52.94	349.78	12.95	-82.8	-79.0	2.4	0.00e+00	0	49	104	0	60	1048573
2026-01-17 16:28:54.95	349.54	12.72	-83.1	-79.0	2.4	0.00e+00	0	49	104	0	60	1048575
2026-01-17 16:28:56.96	349.30	12.50	-83.5	-79.0	2.4	0.00e+00	0	49	104	0	60	1048575
2026-01-17 16:28:58.97	349.07	12.28	-83.5	-79.0	2.4	0.00e+00	0	49	104	0	60	1048574
2026-01-17 16:29:00.99	348.84	12.07	-83.5	-79.0	2.3	0.00e+00	0	49	104	0	60	1048573
2026-01-17 16:29:02.99	348.62	11.85	-83.1	-79.0	2.3	0.00e+00	0	49	104	0	60	1048570
2026-01-17 16:29:05.00	348.40	11.64	-83.5	-79.0	2.3	0.00e+00	0	49	104	0	60	1048575
2026-01-17 16:29:07.01	348.19	11.43	-83.1	-79.0	2.3	0.00e+00	0	49	104	0	60	1048569
2026-01-17 16:29:09.03	347.98	11.22	-83.5	-79.0	2.4	0.00e+00	0	49	104	0	60	1048572
2026-01-17 16:29:11.04	347.77	11.01	-83.5	-79.0	2.4	0.00e+00	0	49	104	0	60	1048575
2026-01-17 16:29:13.06	347.56	10.81	-83.1	-79.0	2.3	0.00e+00	0	49	104	0	60	1048575
2026-01-17 16:29:15.07	347.36	10.60	-83.5	-79.0	2.4	0.00e+00	0	49	104	0	60	1048574
2026-01-17 16:29:17.09	347.17	10.40	-83.1	-79.0	2.4	0.00e+00	0	49	104	0	60	1048575
2026-01-17 16:29:19.09	346.97	10.21	-83.5	-79.0	2.5	0.00e+00	0	49	104	0	60	1048573
2026-01-17 16:29:21.10	346.78	10.01	-83.1	-79.0	2.5	0.00e+00	0	49	104	0	60	1048575
2026-01-17 16:29:23.12	346.60	9.81	-83.5	-79.0	2.4	0.00e+00	0	49	104	0	60	1048572
2026-01-17 16:29:25.13	346.41	9.62	-83.5	-79.0	2.4	0.00e+00	0	49	104	0	60	1048575
2026-01-17 16:29:27.14	346.23	9.43	-83.5	-79.0	2.4	0.00e+00	0	49	104	0	60	1048574
2026-01-17 16:29:29.15	346.06	9.24	-83.5	-79.0	2.4	0.00e+00	0	49	104	0	60	1048572
2026-01-17 16:29:31.17	345.88	9.05	-83.1	-79.0	2.5	0.00e+00	0	49	104	0	60	1048575
2026-01-17 16:29:33.18	345.71	8.86	-83.5	-79.0	2.5	0.00e+00	0	49	104	0	60	1048569
2026-01-17 16:29:35.20	345.54	8.68	-83.5	-79.0	2.4	0.00e+00	0	49	104	0	60	1048572
2026-01-17 16:29:37.21	345.37	8.49	-83.5	-79.0	2.4	0.00e+00	0	49	104	0	60	1048575
2026-01-17 16:29:39.22	345.21	8.31	-83.5	-79.0	2.5	0.00e+00	0	49	104	0	60	1048573
2026-01-17 16:29:41.24	345.05	8.13	-82.8	-79.0	2.4	0.00e+00	0	49	104	0	60	1048575
2026-01-17 16:29:43.25	344.89	7.95	-83.5	-79.0	2.4	0.00e+00	0	49	104	0	60	1048571
2026-01-17 16:29:45.27	344.74	7.77	-83.1	-79.0	2.3	0.00e+00	0	49	104	0	60	1048574
2026-01-17 16:29:47.29	344.58	7.60	-83.5	-79.0	2.4	0.00e+00	0	49	104	0	60	1048574
2026-01-17 16:29:49.30	344.43	7.42	-83.5	-79.0	2.4	0.00e+00	0	49	104	0	60	1048572
2026-01-17 16:29:51.30	344.28	7.25	-83.5	-79.0	2.4	0.00e+00	0	49	104	0	60	1048573
2026-01-17 16:29:53.31	344.14	7.08	-83.1	-79.0	2.4	0.00e+00	0	49	104	0	60	1048575
2026-01-17 16:29:55.32	343.99	6.91	-83.1	-79.0	2.3	0.00e+00	0	49	104	0	60	1048575
2026-01-17 16:29:57.33	343.85	6.74	-83.5	-79.0	2.4	0.00e+00	0	49	104	0	60	1048569
2026-01-17 16:29:59.34	343.71	6.57	-82.8	-79.0	2.4	0.00e+00	0	49	104	0	60	1048566
2026-01-17 16:30:01.36	343.57	6.41	-83.5	-79.0	2.4	0.00e+00	0	49	104	0	60	1048566
2026-01-17 16:30:03.37	343.44	6.24	-83.1	-79.0	2.4	0.00e+00	0	49	104	0	60	1048570
2026-01-17 16:30:05.39	343.31	6.08	-83.1	-79.0	2.4	0.00e+00	0	49	104	0	60	1048573
2026-01-17 16:30:07.40	343.17	5.92	-83.5	-79.0	2.5	0.00e+00	0	49	104	0	60	1048574
2026-01-17 16:30:09.42	343.04	5.75	-83.1	-79.0	2.4	0.00e+00	0	49	104	0	60	1048572
2026-01-17 16:30:11.43	342.92	5.59	-83.5	-79.0	2.4	0.00e+00	0	49	104	0	60	1048569
2026-01-17 16:30:13.45	342.79	5.43	-83.1	-79.0	2.4	0.00e+00	0	49	104	0	60	1048570
2026-01-17 16:30:15.46	342.67	5.28	-83.5	-79.0	2.5	0.00e+00	0	49	104	0	60	1048574
2026-01-17 16:30:17.48	342.54	5.12	-83.5	-79.0	2.4	0.00e+00	0	49	104	0	60	1048575
2026-01-17 16:30:19.49	342.42	4.96	-83.5	-79.0	2.4	0.00e+00	0	49	104	0	60	1048573
2026-01-17 16:30:21.50	342.31	4.81	-83.5	-79.0	2.3	0.00e+00	0	49	104	0	60	1048574
2026-01-17 16:30:23.50	342.19	4.66	-83.1	-79.0	2.4	0.00e+00	0	49	104	0	60	1048570
2026-01-17 16:30:25.52	342.07	4.50	-83.5	-79.0	2.4	0.00e+00	0	49	104	0	60	1048569
2026-01-17 16:30:27.53	341.96	4.35	-82.8	-79.0	2.4	0.00e+00	0	49	104	0	60	1048575
2026-01-17 16:30:29.54	341.85	4.20	-83.5	-79.0	2.3	0.00e+00	0	49	104	0	60	1048574
2026-01-17 16:30:31.55	341.74	4.05	-83.5	-79.0	2.4	0.00e+00	0	49	104	0	60	1048575
2026-01-17 16:30:33.57	341.63	3.91	-83.5	-79.0	2.4	0.00e+00	0	49	104	0	60	1048575
2026-01-17 16:30:35.58	341.52	3.76	-83.5	-79.0	2.5	0.00e+00	0	49	104	0	60	1048572
2026-01-17 16:30:37.59	341.42	3.61	-83.1	-79.0	2.4	0.00e+00	0	49	104	0	60	1048572
2026-01-17 16:30:39.60	341.31	3.47	-83.5	-79.0	2.3	0.00e+00	0	49	104	0	60	1048575
2026-01-17 16:30:41.61	341.21	3.32	-83.1	-79.0	2.5	0.00e+00	0	49	104	0	60	1048573
2026-01-17 16:30:43.62	341.11	3.18	-83.5	-79.0	2.3	0.00e+00	0	49	104	0	60	1048575
2026-01-17 16:30:45.63	341.01	3.04	-83.5	-79.0	2.5	0.00e+00	0	49	104	0	60	1048573
2026-01-17 16:30:47.64	340.91	2.90	-83.1	-79.0	2.3	0.00e+00	0	49	104	0	60	1048574
2026-01-17 16:30:49.66	340.81	2.75	-83.5	-79.0	2.4	0.00e+00	0	49	104	0	60	1048574
2026-01-17 16:30:51.68	340.71	2.61	-83.1	-79.0	2.4	0.00e+00	0	49	104	0	60	1048571
2026-01-17 16:30:53.69	340.62	2.48	-83.5	-79.0	2.4	0.00e+00	0	49	104	0	60	1048569
2026-01-17 16:30:55.71	340.52	2.34	-83.5	-79.0	2.5	0.00e+00	0	49	104	0	60	1048573
2026-01-17 16:30:57.72	340.43	2.20	-83.1	-79.0	2.4	0.00e+00	0	49	104	0	60	1048574
2026-01-17 16:30:59.73	340.34	2.06	-83.5	-79.0	2.3	0.00e+00	0	49	104	0	60	1048572
2026-01-17 16:31:01.74	340.25	1.93	-83.1	-79.0	2.5	0.00e+00	0	49	104	0	60	1048574
2026-01-17 16:31:03.76	340.16	1.79	-83.1	-79.0	2.5	0.00e+00	0	49	104	0	60	1048572
2026-01-17 16:31:05.78	340.07	1.66	-83.1	-79.0	2.3	0.00e+00	0	49	104	0	60	1048568
2026-01-17 16:31:07.79	339.98	1.52	-83.5	-79.0	2.4	0.00e+00	0	49	104	0	60	1048575
2026-01-17 16:31:09.80	339.90	1.39	-83.5	-79.0	2.5	0.00e+00	0	49	104	0	60	1048566
2026-01-17 16:31:11.82	339.81	1.26	-83.5	-79.0	2.4	0.00e+00	0	49	104	0	60	1048574
2026-01-17 16:31:13.83	339.73	1.13	-83.5	-79.0	2.4	0.00e+00	0	49	104	0	60	1048573
2026-01-17 16:31:15.84	339.65	1.00	-82.8	-79.0	2.5	0.00e+00	0	49	104	0	60	1048555
2026-01-17 16:31:17.85	339.56	0.87	-83.5	-79.0	2.2	0.00e+00	0	49	104	0	60	1048574
2026-01-17 16:31:19.87	339.48	0.74	-83.5	-79.0	2.4	0.00e+00	0	49	104	0	60	1048575
2026-01-17 16:31:21.88	339.40	0.61	-83.5	-79.0	2.4	0.00e+00	0	49	104	0	60	1048563
2026-01-17 16:31:23.90	339.32	0.48	-83.5	-79.0	2.4	0.00e+00	0	49	104	0	60	1048574
2026-01-17 16:31:25.91	339.25	0.35	-82.8	-79.0	2.4	0.00e+00	0	49	104	0	60	1048575
2026-01-17 16:31:27.92	339.17	0.23	-83.5	-79.0	2.4	0.00e+00	0	49	104	0	60	1048575
2026-01-17 16:31:29.93	339.09	0.10	-82.8	-79.0	2.5	0.00e+00	0	49	104	0	60	1048575
2026-01-17 16:31:31.95	339.02	-0.02	-83.5	-79.0	2.4	0.00e+00	0	49	104	0	60	1048575

#Closed at: 2026-01-17 16:31:32
#Recorded file [0 MB]: D:/Data/35015_260117_192603.dat