passes_logs/2026/01/17/R3.2S-Naryan-Mar/R3.2S-Naryan-Mar__20260117_072941_NOAA_20_JPSS-1_rec.log

#Pass ID: 20260117_072941_NOAA 20 (JPSS-1)
#Satellite: NOAA 20 (JPSS-1)
#Configuration: NOAA 20
#almurnet v.1.7.20240730
#Start time: 2026-01-17 07:29:41

#Version: 2.2.20231116
#Station: R3.2S-Naryan-Mar
#Location: 53.008057 lon 67.646978 lat
#TLE: 1 43013U 17073A   26016.24631778  .00000038  00000+0  39093-4 0  9990
#TLE: 2 43013  98.7637 317.1726 0001455  37.6755 322.4523 14.19536243422915

#Time	Az	El	Level	Level2	SNR	BER	BlckErr	Temp	State	Recorded	gain1	gain2
2026-01-17 07:29:41.59	134.37	0.02	-85.2	-88.6	4.8	1.55e+00	0	44	0	0	60	1048575
2026-01-17 07:29:45.62	134.30	0.26	-85.2	-88.6	3.1	1.56e+00	0	45	104	0	60	1048572
2026-01-17 07:29:49.65	134.24	0.50	-85.2	-88.6	3.1	1.56e+00	0	45	104	0	60	1048574
2026-01-17 07:29:53.68	134.17	0.75	-84.3	-88.6	3.0	1.56e+00	0	46	104	0	60	1048575
2026-01-17 07:29:57.70	134.10	0.99	-85.2	-88.6	3.2	1.56e+00	0	46	104	0	60	1048575
2026-01-17 07:30:01.72	134.03	1.24	-85.2	-88.6	3.1	1.55e+00	0	46	104	0	60	1048575
2026-01-17 07:30:05.75	133.96	1.49	-85.2	-88.6	3.0	1.55e+00	0	46	104	0	60	1048574
2026-01-17 07:30:09.78	133.88	1.75	-85.2	-88.6	2.8	1.55e+00	0	46	104	0	60	1048575
2026-01-17 07:30:13.80	133.81	2.00	-85.2	-88.6	3.0	1.56e+00	0	46	104	0	60	1048574
2026-01-17 07:30:17.82	133.73	2.26	-85.2	-88.6	3.0	1.56e+00	0	46	104	0	60	1048575
2026-01-17 07:30:21.85	133.65	2.52	-85.2	-88.6	3.2	1.56e+00	0	46	104	0	60	1048575
2026-01-17 07:30:25.89	133.57	2.78	-85.2	-88.6	3.0	1.56e+00	0	46	104	0	60	1048575
2026-01-17 07:30:29.91	133.49	3.04	-85.2	-88.6	2.9	1.56e+00	0	46	104	0	60	1048574
2026-01-17 07:30:33.92	133.41	3.31	-85.2	-88.6	2.9	1.56e+00	0	46	104	0	60	1048574
2026-01-17 07:30:37.94	133.32	3.58	-85.2	-88.6	2.9	1.55e+00	0	46	104	0	60	1048569
2026-01-17 07:30:41.96	133.24	3.85	-85.2	-88.6	3.1	1.56e+00	0	46	104	0	60	1048571
2026-01-17 07:30:45.98	133.15	4.12	-85.2	-88.6	3.1	1.56e+00	0	46	104	0	60	1048575
2026-01-17 07:30:50.01	133.06	4.40	-85.2	-88.6	3.1	1.56e+00	0	46	104	0	60	1048574
2026-01-17 07:30:54.04	132.97	4.68	-85.2	-88.6	3.2	1.56e+00	0	46	104	0	60	1048574
2026-01-17 07:30:58.07	132.87	4.97	-83.9	-88.6	3.1	1.56e+00	0	46	104	0	60	1048574
2026-01-17 07:31:02.08	132.77	5.25	-85.2	-88.6	3.0	1.55e+00	0	46	104	0	60	1048574
2026-01-17 07:31:06.10	132.68	5.54	-85.2	-88.6	3.1	1.55e+00	0	46	104	0	60	1048571
2026-01-17 07:31:10.11	132.58	5.83	-85.2	-88.6	3.2	1.55e+00	0	46	104	0	60	1048575
2026-01-17 07:31:14.15	132.47	6.13	-85.2	-88.6	3.1	1.55e+00	0	46	104	0	60	1048572
2026-01-17 07:31:18.17	132.37	6.43	-85.2	-88.6	2.9	1.56e+00	0	46	104	0	60	1048575
2026-01-17 07:31:22.20	132.26	6.73	-85.2	-88.6	2.9	1.56e+00	0	46	104	0	60	1048574
2026-01-17 07:31:26.23	132.15	7.03	-85.2	-88.6	3.2	1.56e+00	0	47	104	0	60	1048574
2026-01-17 07:31:30.25	132.03	7.34	-85.2	-88.6	2.9	1.55e+00	0	46	104	0	60	1048575
2026-01-17 07:31:34.28	131.92	7.66	-85.2	-88.6	3.1	1.56e+00	0	47	104	0	60	1048572
2026-01-17 07:31:38.30	131.80	7.97	-85.2	-88.6	3.0	1.56e+00	0	46	104	0	60	1048573
2026-01-17 07:31:42.33	131.68	8.29	-85.2	-88.6	3.0	1.55e+00	0	47	104	0	60	1048575
2026-01-17 07:31:46.36	131.55	8.62	-85.2	-88.6	3.0	1.55e+00	0	46	104	0	60	1048575
2026-01-17 07:31:50.38	131.42	8.94	-85.2	-88.6	3.0	1.55e+00	0	46	104	0	60	1048572
2026-01-17 07:31:54.40	131.29	9.28	-85.2	-88.6	3.1	1.56e+00	0	47	104	0	60	1048575
2026-01-17 07:31:58.42	131.16	9.61	-85.2	-88.6	3.1	1.56e+00	0	46	104	0	60	1048574
2026-01-17 07:32:02.46	131.02	9.96	-85.2	-88.6	3.0	1.56e+00	0	47	104	0	60	1048573
2026-01-17 07:32:06.49	130.88	10.30	-85.2	-88.6	2.9	1.56e+00	0	47	104	0	60	1048574
2026-01-17 07:32:10.50	130.73	10.65	-85.2	-88.6	2.8	1.55e+00	0	47	104	0	60	1048575
2026-01-17 07:32:14.53	130.58	11.01	-85.2	-88.6	2.9	1.56e+00	0	47	104	0	60	1048574
2026-01-17 07:32:18.56	130.43	11.37	-85.2	-88.6	3.1	1.56e+00	0	47	104	0	60	1048574
2026-01-17 07:32:22.58	130.27	11.73	-85.2	-88.6	3.1	1.56e+00	0	47	104	0	60	1048575
2026-01-17 07:32:26.60	130.11	12.10	-85.2	-88.6	2.9	1.56e+00	0	47	104	0	60	1048575
2026-01-17 07:32:30.62	129.95	12.48	-85.2	-88.6	3.0	1.56e+00	0	47	104	0	60	1048575
2026-01-17 07:32:34.65	129.78	12.86	-85.2	-88.6	3.0	1.56e+00	0	47	104	0	60	1048573
2026-01-17 07:32:38.68	129.60	13.25	-85.2	-88.6	3.1	1.56e+00	0	47	104	0	60	1048575
2026-01-17 07:32:42.71	129.42	13.65	-85.2	-88.6	3.1	1.56e+00	0	46	104	0	60	1048574
2026-01-17 07:32:46.75	129.23	14.05	-85.2	-88.6	3.0	1.56e+00	0	47	104	0	60	1048575
2026-01-17 07:32:50.78	129.04	14.45	-85.2	-88.6	3.0	1.55e+00	0	47	104	0	60	1048575
2026-01-17 07:32:54.81	128.84	14.87	-85.2	-88.6	2.9	1.56e+00	0	47	104	0	60	1048575
2026-01-17 07:32:58.82	128.64	15.29	-85.2	-88.6	3.1	1.56e+00	0	47	104	0	60	1048571
2026-01-17 07:33:02.85	128.43	15.71	-85.2	-88.6	3.0	1.55e+00	0	47	104	0	60	1048575
2026-01-17 07:33:06.88	128.22	16.15	-85.2	-88.6	3.0	1.56e+00	0	47	104	0	60	1048572
2026-01-17 07:33:10.90	128.00	16.59	-85.2	-88.6	2.8	1.56e+00	0	47	104	0	60	1048575
2026-01-17 07:33:14.92	127.77	17.04	-85.2	-88.6	2.9	1.56e+00	0	47	104	0	60	1048574
2026-01-17 07:33:18.95	127.53	17.49	-85.2	-88.6	3.0	1.55e+00	0	47	104	0	60	1048575
2026-01-17 07:33:22.97	127.28	17.96	-85.2	-88.6	3.0	1.56e+00	0	47	104	0	60	1048575
2026-01-17 07:33:26.99	127.03	18.43	-85.2	-88.6	2.9	1.56e+00	0	47	104	0	60	1048575
2026-01-17 07:33:31.01	126.77	18.91	-85.2	-88.6	3.1	1.56e+00	0	47	104	0	60	1048574
2026-01-17 07:33:35.03	126.50	19.40	-84.7	-88.6	3.0	1.55e+00	0	47	104	0	60	1048575
2026-01-17 07:33:39.05	126.22	19.90	-85.2	-88.6	2.9	1.56e+00	0	47	104	0	60	1048575
2026-01-17 07:33:43.08	125.94	20.41	-85.2	-88.6	3.0	1.56e+00	0	47	104	0	60	1048574
2026-01-17 07:33:47.10	125.64	20.93	-85.2	-88.6	3.1	1.56e+00	0	47	104	0	60	1048573
2026-01-17 07:33:51.12	125.33	21.46	-85.2	-88.6	2.8	1.56e+00	0	47	104	0	60	1048575
2026-01-17 07:33:55.14	125.01	22.00	-85.2	-88.6	2.9	1.56e+00	0	47	104	0	60	1048575
2026-01-17 07:33:59.17	124.67	22.55	-85.2	-88.6	2.9	1.56e+00	0	47	104	0	60	1048575
2026-01-17 07:34:03.20	124.33	23.11	-85.2	-88.6	3.0	1.56e+00	0	47	104	0	60	1048574
2026-01-17 07:34:07.22	123.97	23.68	-85.2	-88.6	2.9	1.56e+00	0	47	104	0	60	1048574
2026-01-17 07:34:11.25	123.60	24.26	-85.2	-88.6	3.1	1.55e+00	0	47	104	0	60	1048575
2026-01-17 07:34:15.28	123.21	24.86	-85.2	-88.6	3.0	1.55e+00	0	47	104	0	60	1048573
2026-01-17 07:34:19.31	122.81	25.47	-84.7	-88.6	3.0	1.55e+00	0	47	104	0	60	1048572
2026-01-17 07:34:23.33	122.39	26.08	-85.2	-88.6	2.9	1.56e+00	0	47	104	0	60	1048575
2026-01-17 07:34:27.37	121.95	26.72	-85.2	-88.6	3.0	1.56e+00	0	47	104	0	60	1048574
2026-01-17 07:34:31.40	121.49	27.37	-85.2	-88.6	3.0	1.55e+00	0	47	104	0	60	1048574
2026-01-17 07:34:35.43	121.02	28.03	-85.2	-88.6	2.9	1.56e+00	0	47	104	0	60	1048575
2026-01-17 07:34:39.45	120.52	28.70	-84.3	-88.6	3.0	1.56e+00	0	47	104	0	60	1048572
2026-01-17 07:34:43.47	120.01	29.38	-85.2	-88.6	3.1	1.56e+00	0	47	104	0	60	1048575
2026-01-17 07:34:47.50	119.47	30.09	-85.2	-88.6	3.1	1.56e+00	0	47	104	0	60	1048574
2026-01-17 07:34:51.52	118.90	30.80	-85.2	-88.6	3.0	1.56e+00	0	47	104	0	60	1048575
2026-01-17 07:34:55.55	118.31	31.53	-85.2	-88.6	2.9	1.56e+00	0	47	104	0	60	1048575
2026-01-17 07:34:59.57	117.69	32.27	-84.3	-88.6	3.0	1.56e+00	0	47	104	0	60	1048575
2026-01-17 07:35:03.60	117.04	33.04	-85.2	-88.6	3.1	1.56e+00	0	47	104	0	60	1048573
2026-01-17 07:35:07.62	116.36	33.81	-85.2	-88.6	3.0	1.56e+00	0	47	104	0	60	1048574
2026-01-17 07:35:11.66	115.65	34.60	-85.2	-88.6	3.1	1.56e+00	0	47	104	0	60	1048575
2026-01-17 07:35:15.69	114.89	35.41	-85.2	-88.6	2.9	1.55e+00	0	47	104	0	60	1048575
2026-01-17 07:35:19.71	114.10	36.22	-85.2	-88.6	2.9	1.55e+00	0	47	104	0	60	1048575
2026-01-17 07:35:23.75	113.27	37.06	-85.2	-88.6	3.0	1.55e+00	0	47	104	0	60	1048575
2026-01-17 07:35:27.77	112.39	37.91	-85.2	-88.6	2.8	1.56e+00	0	47	104	0	60	1048574
2026-01-17 07:35:31.80	111.47	38.77	-85.2	-88.6	3.0	1.56e+00	0	47	104	0	60	1048571
2026-01-17 07:35:35.83	110.49	39.64	-85.2	-88.6	3.0	1.56e+00	0	47	104	0	60	1048569
2026-01-17 07:35:39.85	109.46	40.53	-85.2	-88.6	2.9	1.56e+00	0	47	104	0	60	1048575
2026-01-17 07:35:43.87	108.37	41.42	-85.2	-88.6	3.0	1.56e+00	0	47	104	0	60	1048575
2026-01-17 07:35:47.91	107.22	42.33	-85.2	-88.6	3.2	1.56e+00	0	47	104	0	60	1048575
2026-01-17 07:35:51.94	106.00	43.25	-85.2	-88.6	2.9	1.56e+00	0	47	104	0	60	1048574
2026-01-17 07:35:55.97	104.70	44.17	-85.2	-88.6	3.0	1.56e+00	0	47	104	0	60	1048574
2026-01-17 07:35:59.99	103.33	45.10	-85.2	-88.6	3.0	1.55e+00	0	47	104	0	60	1048575
2026-01-17 07:36:04.01	101.88	46.02	-85.2	-88.6	3.2	1.56e+00	0	47	104	0	60	1048575
2026-01-17 07:36:08.04	100.34	46.95	-85.2	-88.6	2.9	1.55e+00	0	47	104	0	60	1048574
2026-01-17 07:36:12.08	98.69	47.88	-85.2	-88.6	3.0	1.56e+00	0	47	104	0	60	1048570
2026-01-17 07:36:16.11	96.95	48.80	-85.2	-88.6	3.1	1.56e+00	0	47	104	0	60	1048572
2026-01-17 07:36:20.12	95.12	49.70	-85.2	-88.6	3.1	1.56e+00	0	47	104	0	60	1048575
2026-01-17 07:36:24.15	93.16	50.58	-85.2	-88.6	2.9	1.55e+00	0	47	104	0	60	1048575
2026-01-17 07:36:28.19	91.08	51.45	-85.2	-88.6	3.1	1.56e+00	0	47	104	0	60	1048574
2026-01-17 07:36:32.21	88.88	52.29	-85.2	-88.6	3.0	1.56e+00	0	47	104	0	60	1048575
2026-01-17 07:36:36.24	86.56	53.10	-85.2	-88.6	2.9	1.55e+00	0	47	104	0	60	1048574
2026-01-17 07:36:40.27	84.10	53.87	-85.2	-88.6	3.1	1.56e+00	0	47	104	0	60	1048569
2026-01-17 07:36:44.29	81.52	54.59	-85.2	-88.6	3.1	1.56e+00	0	47	104	0	60	1048575
2026-01-17 07:36:48.32	78.80	55.27	-85.2	-88.6	3.1	1.56e+00	0	47	104	0	60	1048572
2026-01-17 07:36:52.34	75.97	55.88	-85.2	-88.6	3.1	1.56e+00	0	47	104	0	60	1048575
2026-01-17 07:36:56.37	73.00	56.43	-85.2	-88.6	3.0	1.56e+00	0	47	104	0	60	1048575
2026-01-17 07:37:00.40	69.93	56.90	-85.2	-88.6	3.0	1.55e+00	0	47	104	0	60	1048575
2026-01-17 07:37:04.43	66.75	57.30	-85.2	-88.6	3.1	1.56e+00	0	47	104	0	60	1048575
2026-01-17 07:37:08.45	63.51	57.61	-83.9	-88.6	3.1	1.56e+00	0	47	104	0	60	1048573
2026-01-17 07:37:12.48	60.18	57.83	-85.2	-88.6	3.1	1.56e+00	0	47	104	0	60	1048575
2026-01-17 07:37:16.51	56.82	57.96	-85.2	-88.6	3.0	1.55e+00	0	47	104	0	60	1048575
2026-01-17 07:37:20.53	53.44	58.00	-85.2	-88.6	3.0	1.56e+00	0	47	104	0	60	1048575
2026-01-17 07:37:24.56	50.05	57.94	-85.2	-88.6	3.0	1.55e+00	0	47	104	0	60	1048574
2026-01-17 07:37:28.58	46.70	57.79	-85.2	-88.6	3.1	1.56e+00	0	47	104	0	60	1048575
2026-01-17 07:37:32.61	43.40	57.55	-85.2	-88.6	3.2	1.55e+00	0	47	104	0	60	1048575
2026-01-17 07:37:36.63	40.16	57.22	-85.2	-88.6	2.9	1.55e+00	0	47	104	0	60	1048574
2026-01-17 07:37:40.65	37.02	56.81	-85.2	-88.6	2.9	1.56e+00	0	47	104	0	60	1048575
2026-01-17 07:37:44.66	33.98	56.32	-85.2	-88.6	3.0	1.56e+00	0	47	104	0	60	1048575
2026-01-17 07:37:48.69	31.05	55.76	-85.2	-88.6	3.0	1.55e+00	0	47	104	0	60	1048572
2026-01-17 07:37:52.72	28.23	55.14	-85.2	-88.6	2.8	1.55e+00	0	47	104	0	60	1048573
2026-01-17 07:37:56.75	25.55	54.45	-85.2	-88.6	3.0	1.56e+00	0	47	104	0	60	1048574
2026-01-17 07:38:00.78	22.99	53.72	-84.3	-88.6	2.8	1.56e+00	0	47	104	0	60	1048574
2026-01-17 07:38:04.81	20.57	52.95	-85.2	-88.6	2.9	1.56e+00	0	47	104	0	60	1048575
2026-01-17 07:38:08.84	18.27	52.13	-85.2	-88.6	3.0	1.56e+00	0	47	104	0	60	1048575
2026-01-17 07:38:12.87	16.10	51.29	-85.2	-88.6	3.1	1.56e+00	0	47	104	0	60	1048574
2026-01-17 07:38:16.90	14.05	50.42	-85.2	-88.6	3.1	1.56e+00	0	47	104	0	60	1048571
2026-01-17 07:38:20.93	12.12	49.53	-85.2	-88.6	2.9	1.56e+00	0	47	104	0	60	1048575
2026-01-17 07:38:24.96	10.30	48.62	-85.2	-88.6	2.8	1.55e+00	0	47	104	0	60	1048575
2026-01-17 07:38:28.99	8.58	47.70	-85.2	-88.6	2.9	1.56e+00	0	47	104	0	60	1048575
2026-01-17 07:38:33.02	6.97	46.78	-85.2	-88.6	3.0	1.56e+00	0	47	104	0	60	1048575
2026-01-17 07:38:37.04	5.45	45.86	-85.2	-88.6	2.9	1.56e+00	0	47	104	0	60	1048573
2026-01-17 07:38:41.07	4.02	44.93	-85.2	-88.6	3.0	1.55e+00	0	47	104	0	60	1048573
2026-01-17 07:38:45.10	2.66	44.01	-85.2	-88.6	2.8	1.56e+00	0	47	104	0	60	1048575
2026-01-17 07:38:49.14	1.38	43.09	-85.2	-88.6	3.1	1.56e+00	0	47	104	0	60	1048573
2026-01-17 07:38:53.16	0.18	42.18	-85.2	-88.6	3.0	1.56e+00	0	47	104	0	60	1048572
2026-01-17 07:38:57.19	359.04	41.28	-85.2	-88.6	2.9	1.56e+00	0	47	104	0	60	1048573
2026-01-17 07:39:01.23	357.97	40.38	-85.2	-88.6	3.0	1.56e+00	0	47	104	0	60	1048573
2026-01-17 07:39:05.25	356.95	39.50	-85.2	-88.6	3.0	1.56e+00	0	47	104	0	60	1048574
2026-01-17 07:39:09.27	355.99	38.63	-85.2	-88.6	3.0	1.56e+00	0	47	104	0	60	1048571
2026-01-17 07:39:13.29	355.08	37.78	-85.2	-88.6	3.0	1.56e+00	0	47	104	0	60	1048575
2026-01-17 07:39:17.31	354.22	36.94	-85.2	-88.6	3.3	1.55e+00	0	47	104	0	60	1048574
2026-01-17 07:39:21.34	353.39	36.11	-85.2	-88.6	2.8	1.56e+00	0	47	104	0	60	1048575
2026-01-17 07:39:25.36	352.61	35.30	-84.3	-88.6	2.9	1.56e+00	0	47	104	0	60	1048575
2026-01-17 07:39:29.39	351.87	34.50	-85.2	-88.6	3.0	1.56e+00	0	47	104	0	60	1048575
2026-01-17 07:39:33.42	351.16	33.71	-84.7	-88.6	2.8	1.56e+00	0	47	104	0	60	1048574
2026-01-17 07:39:37.45	350.49	32.94	-85.2	-88.6	3.0	1.56e+00	0	47	104	0	60	1048574
2026-01-17 07:39:41.47	349.85	32.19	-85.2	-88.6	3.1	1.56e+00	0	47	104	0	60	1048575
2026-01-17 07:39:45.50	349.24	31.45	-85.2	-88.6	3.0	1.56e+00	0	47	104	0	60	1048574
2026-01-17 07:39:49.52	348.66	30.73	-85.2	-88.6	2.7	1.55e+00	0	47	104	0	60	1048575
2026-01-17 07:39:53.55	348.10	30.02	-85.2	-88.6	3.0	1.55e+00	0	47	104	0	60	1048575
2026-01-17 07:39:57.57	347.56	29.32	-85.2	-88.6	3.3	1.56e+00	0	47	104	0	60	1048575
2026-01-17 07:40:01.60	347.05	28.64	-85.2	-88.6	2.9	1.56e+00	0	47	104	0	60	1048574
2026-01-17 07:40:05.64	346.56	27.97	-85.2	-88.6	3.2	1.56e+00	0	47	104	0	60	1048575
2026-01-17 07:40:09.66	346.09	27.31	-85.2	-88.6	3.1	1.56e+00	0	47	104	0	60	1048575
2026-01-17 07:40:13.68	345.65	26.67	-85.2	-88.6	3.1	1.56e+00	0	47	104	0	60	1048575
2026-01-17 07:40:17.71	345.21	26.04	-85.2	-88.6	3.0	1.56e+00	0	47	104	0	60	1048572
2026-01-17 07:40:21.74	344.80	25.43	-85.2	-88.6	2.9	1.55e+00	0	47	104	0	60	1048575
2026-01-17 07:40:25.76	344.40	24.83	-85.2	-88.6	2.8	1.55e+00	0	47	104	0	60	1048574
2026-01-17 07:40:29.78	344.02	24.24	-85.2	-88.6	2.9	1.56e+00	0	47	104	0	60	1048575
2026-01-17 07:40:33.81	343.65	23.66	-85.2	-88.6	2.9	1.56e+00	0	47	104	0	60	1048575
2026-01-17 07:40:37.84	343.30	23.09	-85.2	-88.6	2.9	1.55e+00	0	47	104	0	60	1048575
2026-01-17 07:40:41.87	342.96	22.53	-85.2	-88.6	2.9	1.55e+00	0	47	104	0	60	1048575
2026-01-17 07:40:45.90	342.63	21.98	-85.2	-88.6	3.0	1.56e+00	0	47	104	0	60	1048572
2026-01-17 07:40:49.92	342.31	21.45	-85.2	-88.6	3.0	1.56e+00	0	47	104	0	60	1048574
2026-01-17 07:40:53.95	342.01	20.92	-85.2	-88.6	3.1	1.55e+00	0	47	104	0	60	1048575
2026-01-17 07:40:57.98	341.71	20.41	-85.2	-88.6	2.8	1.55e+00	0	47	104	0	60	1048575
2026-01-17 07:41:02.01	341.42	19.90	-85.2	-88.6	3.1	1.56e+00	0	47	104	0	60	1048575
2026-01-17 07:41:06.04	341.15	19.40	-85.2	-88.6	2.6	1.56e+00	0	47	104	0	60	1048574
2026-01-17 07:41:10.07	340.88	18.91	-85.2	-88.6	3.0	1.56e+00	0	47	104	0	60	1048575
2026-01-17 07:41:14.10	340.63	18.43	-85.2	-88.6	3.2	1.56e+00	0	47	104	0	60	1048575
2026-01-17 07:41:18.13	340.38	17.96	-85.2	-88.6	2.7	1.56e+00	0	47	104	0	60	1048574
2026-01-17 07:41:22.15	340.14	17.50	-85.2	-88.6	2.8	1.55e+00	0	47	104	0	60	1048575
2026-01-17 07:41:26.17	339.90	17.05	-85.2	-88.6	3.1	1.56e+00	0	47	104	0	60	1048575
2026-01-17 07:41:30.20	339.68	16.60	-85.2	-88.6	3.0	1.56e+00	0	47	104	0	60	1048574
2026-01-17 07:41:34.23	339.46	16.16	-85.2	-88.6	2.9	1.56e+00	0	47	104	0	60	1048575
2026-01-17 07:41:38.26	339.25	15.73	-85.2	-88.6	2.9	1.56e+00	0	47	104	0	60	1048575
2026-01-17 07:41:42.28	339.04	15.31	-85.2	-88.6	2.8	1.56e+00	0	47	104	0	60	1048575
2026-01-17 07:41:46.32	338.84	14.89	-85.2	-88.6	3.0	1.56e+00	0	47	104	0	60	1048570
2026-01-17 07:41:50.33	338.65	14.48	-85.2	-88.6	3.2	1.56e+00	0	47	104	0	60	1048575
2026-01-17 07:41:54.34	338.46	14.08	-85.2	-88.6	3.1	1.56e+00	0	47	104	0	60	1048575
2026-01-17 07:41:58.36	338.28	13.68	-85.2	-88.6	2.9	1.55e+00	0	47	104	0	60	1048575
2026-01-17 07:42:02.40	338.10	13.29	-85.2	-88.6	3.1	1.56e+00	0	47	104	0	60	1048574
2026-01-17 07:42:06.42	337.93	12.90	-85.2	-88.6	3.0	1.56e+00	0	47	104	0	60	1048575
2026-01-17 07:42:10.44	337.76	12.52	-85.2	-88.6	2.8	1.56e+00	0	47	104	0	60	1048574
2026-01-17 07:42:14.47	337.60	12.15	-85.2	-88.6	2.9	1.56e+00	0	47	104	0	60	1048575
2026-01-17 07:42:18.51	337.44	11.78	-85.2	-88.6	2.9	1.56e+00	0	47	104	0	60	1048574
2026-01-17 07:42:22.53	337.28	11.41	-85.2	-88.6	2.9	1.56e+00	0	47	104	0	60	1048573
2026-01-17 07:42:26.56	337.13	11.05	-85.2	-88.6	3.1	1.56e+00	0	47	104	0	60	1048575
2026-01-17 07:42:30.58	336.99	10.70	-85.2	-88.6	2.8	1.56e+00	0	47	104	0	60	1048571
2026-01-17 07:42:34.61	336.85	10.35	-85.2	-88.6	2.9	1.56e+00	0	47	104	0	60	1048573
2026-01-17 07:42:38.64	336.71	10.01	-85.2	-88.6	2.9	1.56e+00	0	47	104	0	60	1048575
2026-01-17 07:42:42.67	336.57	9.67	-85.2	-88.6	2.9	1.56e+00	0	47	104	0	60	1048575
2026-01-17 07:42:46.69	336.44	9.33	-85.2	-88.6	3.0	1.56e+00	0	47	104	0	60	1048575
2026-01-17 07:42:50.72	336.31	9.00	-85.2	-88.6	3.0	1.56e+00	0	47	104	0	60	1048574
2026-01-17 07:42:54.73	336.19	8.67	-85.2	-88.6	3.2	1.56e+00	0	47	104	0	60	1048575
2026-01-17 07:42:58.75	336.07	8.35	-85.2	-88.6	3.1	1.56e+00	0	47	104	0	60	1048575
2026-01-17 07:43:02.78	335.95	8.03	-85.2	-88.6	3.0	1.56e+00	0	47	104	0	60	1048573
2026-01-17 07:43:06.81	335.83	7.72	-85.2	-88.6	3.0	1.56e+00	0	47	104	0	60	1048575
2026-01-17 07:43:10.83	335.72	7.41	-85.2	-88.6	2.9	1.56e+00	0	47	104	0	60	1048575
2026-01-17 07:43:14.85	335.61	7.10	-85.2	-88.6	3.1	1.56e+00	0	47	104	0	60	1048575
2026-01-17 07:43:18.87	335.50	6.80	-85.2	-88.6	2.8	1.55e+00	0	47	104	0	60	1048575
2026-01-17 07:43:22.89	335.40	6.49	-85.2	-88.6	3.0	1.55e+00	0	47	104	0	60	1048573
2026-01-17 07:43:26.90	335.30	6.20	-85.2	-88.6	3.0	1.56e+00	0	47	104	0	60	1048574
2026-01-17 07:43:30.92	335.20	5.90	-85.2	-88.6	2.8	1.56e+00	0	47	104	0	60	1048575
2026-01-17 07:43:34.93	335.10	5.61	-85.2	-88.6	3.2	1.56e+00	0	47	104	0	60	1048574
2026-01-17 07:43:38.94	335.00	5.33	-85.2	-88.6	3.0	1.56e+00	0	47	104	0	60	1048575
2026-01-17 07:43:42.97	334.91	5.04	-85.2	-88.6	2.8	1.55e+00	0	47	104	0	60	1048572
2026-01-17 07:43:47.00	334.82	4.76	-84.7	-88.6	2.9	1.56e+00	0	47	104	0	60	1048575
2026-01-17 07:43:51.03	334.73	4.48	-84.3	-88.6	2.9	1.56e+00	0	47	104	0	60	1048575
2026-01-17 07:43:55.05	334.64	4.21	-85.2	-88.6	3.0	1.55e+00	0	47	104	0	60	1048574
2026-01-17 07:43:59.08	334.56	3.93	-85.2	-88.6	3.0	1.56e+00	0	47	104	0	60	1048575
2026-01-17 07:44:03.11	334.47	3.66	-85.2	-88.6	3.0	1.56e+00	0	47	104	0	60	1048575
2026-01-17 07:44:07.13	334.39	3.39	-85.2	-88.6	3.0	1.55e+00	0	47	104	0	60	1048575
2026-01-17 07:44:11.15	334.31	3.13	-84.3	-88.6	3.1	1.56e+00	0	47	104	0	60	1048570
2026-01-17 07:44:15.18	334.23	2.86	-85.2	-88.6	3.1	1.56e+00	0	47	104	0	60	1048575
2026-01-17 07:44:19.20	334.16	2.60	-85.2	-88.6	2.9	1.56e+00	0	47	104	0	60	1048575
2026-01-17 07:44:23.21	334.08	2.34	-85.2	-88.6	3.0	1.55e+00	0	47	104	0	60	1048575
2026-01-17 07:44:27.23	334.01	2.09	-85.2	-88.6	2.9	1.56e+00	0	47	104	0	60	1048575
2026-01-17 07:44:31.25	333.94	1.83	-84.3	-88.6	3.1	1.55e+00	0	47	104	0	60	1048575
2026-01-17 07:44:35.27	333.87	1.58	-85.2	-88.6	2.9	1.56e+00	0	47	104	0	60	1048575
2026-01-17 07:44:39.30	333.80	1.33	-85.2	-88.6	2.7	1.56e+00	0	47	104	0	60	1048575
2026-01-17 07:44:43.32	333.73	1.08	-85.2	-88.6	3.1	1.56e+00	0	47	104	0	60	1048575
2026-01-17 07:44:47.36	333.67	0.84	-85.2	-88.6	2.9	1.55e+00	0	47	104	0	60	1048575
2026-01-17 07:44:51.38	333.60	0.59	-85.2	-88.6	3.0	1.56e+00	0	47	104	0	60	1048575
2026-01-17 07:44:55.40	333.54	0.35	-85.2	-88.6	3.1	1.56e+00	0	47	104	0	60	1048575
2026-01-17 07:44:59.44	333.48	0.11	-85.2	-88.6	2.9	1.56e+00	0	47	104	0	60	1048574

#Closed at: 2026-01-17 07:45:02
#Recorded file [0 MB]: D:/Data/35015_260117_102941.dat