passes_logs/2026/01/17/R3.2S-Naryan-Mar/R3.2S-Naryan-Mar__20260117_081929_NOAA_21_JPSS-2_rec.log

#Pass ID: 20260117_081929_NOAA 21 (JPSS-2)
#Satellite: NOAA 21 (JPSS-2)
#Configuration: NOAA-21
#almurnet v.1.7.20240730
#Start time: 2026-01-17 08:28:41

#Version: 2.2.20231116
#Station: R3.2S-Naryan-Mar
#Location: 53.008057 lon 67.646978 lat
#TLE: 1 54234U 22150A   26016.21096038  .00000027  00000+0  33607-4 0  9993
#TLE: 2 54234  98.7500 317.0960 0000625 282.3388  77.7718 14.19534911164985

#Time	Az	El	Level	Level2	SNR	BER	BlckErr	Temp	State	Recorded	gain1	gain2
2026-01-17 08:28:41.87	334.79	51.10	-84.7	-88.6	3.5	7.76e-01	0	47	0	0	60	1048574
2026-01-17 08:28:43.87	334.82	50.42	-85.2	-88.8	2.8	1.56e+00	0	47	104	0	60	1048571
2026-01-17 08:28:45.88	334.84	49.74	-85.2	-88.8	2.7	1.56e+00	0	47	104	0	60	1048575
2026-01-17 08:28:47.89	334.87	49.08	-85.2	-88.8	2.9	1.56e+00	0	47	104	0	60	1048575
2026-01-17 08:28:49.91	334.90	48.42	-85.2	-88.8	2.8	1.56e+00	0	47	104	0	60	1048574
2026-01-17 08:28:51.92	334.92	47.77	-84.3	-88.8	2.8	1.56e+00	0	47	104	0	60	1048575
2026-01-17 08:28:53.94	334.95	47.13	-85.2	-88.8	2.9	1.56e+00	0	47	104	0	60	1048573
2026-01-17 08:28:55.95	334.97	46.50	-85.2	-88.8	2.7	1.56e+00	0	47	104	0	60	1048575
2026-01-17 08:28:57.97	334.99	45.88	-84.3	-88.8	2.8	1.56e+00	0	47	104	0	60	1048572
2026-01-17 08:28:59.98	335.02	45.27	-85.2	-88.8	2.8	1.56e+00	0	47	104	0	60	1048575
2026-01-17 08:29:01.99	335.04	44.67	-85.2	-88.8	2.8	1.56e+00	0	47	104	0	60	1048575
2026-01-17 08:29:03.99	335.06	44.08	-85.2	-88.8	2.9	1.56e+00	0	47	104	0	60	1048573
2026-01-17 08:29:06.00	335.08	43.50	-85.2	-88.8	2.9	1.56e+00	0	47	104	0	60	1048574
2026-01-17 08:29:08.00	335.10	42.93	-85.2	-88.8	2.5	1.56e+00	0	47	104	0	60	1048575
2026-01-17 08:29:10.01	335.12	42.37	-85.2	-88.8	2.6	1.56e+00	0	47	104	0	60	1048571
2026-01-17 08:29:12.03	335.14	41.81	-85.2	-88.8	2.7	1.56e+00	0	47	104	0	60	1048573
2026-01-17 08:29:14.04	335.16	41.26	-85.2	-88.8	2.6	1.56e+00	0	47	104	0	60	1048575
2026-01-17 08:29:16.06	335.18	40.72	-85.2	-88.8	2.5	1.56e+00	0	47	104	0	60	1048571
2026-01-17 08:29:18.07	335.20	40.19	-84.3	-88.8	2.7	1.56e+00	0	47	104	0	60	1048575
2026-01-17 08:29:20.08	335.22	39.66	-85.2	-88.8	2.7	1.56e+00	0	47	104	0	60	1048575
2026-01-17 08:29:22.09	335.23	39.15	-85.2	-88.8	2.6	1.56e+00	0	47	104	0	60	1048575
2026-01-17 08:29:24.11	335.25	38.64	-85.2	-88.8	2.5	1.56e+00	0	47	104	0	60	1048574
2026-01-17 08:29:26.12	335.27	38.14	-85.2	-88.8	2.6	1.56e+00	0	47	104	0	60	1048574
2026-01-17 08:29:28.14	335.29	37.64	-85.2	-88.8	2.6	1.56e+00	0	47	104	0	60	1048572
2026-01-17 08:29:30.15	335.30	37.16	-85.2	-88.8	2.9	1.56e+00	0	47	104	0	60	1048575
2026-01-17 08:29:32.16	335.32	36.68	-85.2	-88.8	2.7	1.56e+00	0	47	104	0	60	1048575
2026-01-17 08:29:34.17	335.34	36.20	-85.2	-88.8	2.8	1.56e+00	0	47	104	0	60	1048572
2026-01-17 08:29:36.18	335.35	35.74	-85.2	-88.8	2.8	1.56e+00	0	47	104	0	60	1048575
2026-01-17 08:29:38.19	335.37	35.28	-85.2	-88.8	2.6	1.56e+00	0	47	104	0	60	1048575
2026-01-17 08:29:40.21	335.38	34.83	-85.2	-88.8	2.7	1.56e+00	0	47	104	0	60	1048574
2026-01-17 08:29:42.22	335.40	34.38	-85.2	-88.8	2.6	1.56e+00	0	47	104	0	60	1048575
2026-01-17 08:29:44.24	335.41	33.94	-85.2	-88.8	2.7	1.56e+00	0	47	104	0	60	1048570
2026-01-17 08:29:46.25	335.43	33.51	-85.2	-88.8	2.7	1.56e+00	0	47	104	0	60	1048575
2026-01-17 08:29:48.26	335.44	33.08	-85.2	-88.8	2.7	1.56e+00	0	47	104	0	60	1048575
2026-01-17 08:29:50.27	335.46	32.66	-85.2	-88.8	2.7	1.56e+00	0	47	104	0	60	1048572
2026-01-17 08:29:52.28	335.47	32.24	-85.2	-88.8	2.8	1.56e+00	0	47	104	0	60	1048574
2026-01-17 08:29:54.30	335.49	31.83	-85.2	-88.8	2.8	1.56e+00	0	47	104	0	60	1048573
2026-01-17 08:29:56.31	335.50	31.43	-85.2	-88.8	2.6	1.56e+00	0	47	104	0	60	1048574
2026-01-17 08:29:58.33	335.52	31.03	-85.2	-88.8	2.6	1.56e+00	0	47	104	0	60	1048571
2026-01-17 08:30:00.34	335.53	30.63	-85.2	-88.8	2.7	1.56e+00	0	47	104	0	60	1048575
2026-01-17 08:30:02.35	335.54	30.25	-85.2	-88.8	2.7	1.56e+00	0	47	104	0	60	1048575
2026-01-17 08:30:04.36	335.56	29.86	-85.2	-88.8	2.7	1.56e+00	0	47	104	0	60	1048575
2026-01-17 08:30:06.37	335.57	29.49	-85.2	-88.8	2.8	1.56e+00	0	47	104	0	60	1048575
2026-01-17 08:30:08.38	335.58	29.11	-85.2	-88.8	2.7	1.56e+00	0	47	104	0	60	1048570
2026-01-17 08:30:10.39	335.60	28.75	-85.2	-88.8	2.6	1.56e+00	0	47	104	0	60	1048575
2026-01-17 08:30:12.41	335.61	28.38	-85.2	-88.8	2.5	1.56e+00	0	47	104	0	60	1048575
2026-01-17 08:30:14.43	335.62	28.02	-85.2	-88.8	2.6	1.56e+00	0	47	104	0	60	1048574
2026-01-17 08:30:16.44	335.64	27.67	-85.2	-88.8	2.6	1.56e+00	0	47	104	0	60	1048574
2026-01-17 08:30:18.46	335.65	27.32	-85.2	-88.8	2.7	1.56e+00	0	47	104	0	60	1048574
2026-01-17 08:30:20.47	335.66	26.97	-85.2	-88.8	2.8	1.56e+00	0	47	104	0	60	1048574
2026-01-17 08:30:22.49	335.68	26.63	-85.2	-88.8	2.8	1.56e+00	0	47	104	0	60	1048574
2026-01-17 08:30:24.50	335.69	26.30	-85.2	-88.8	2.7	1.56e+00	0	47	104	0	60	1048574
2026-01-17 08:30:26.51	335.70	25.96	-85.2	-88.8	2.8	1.56e+00	0	47	104	0	60	1048574
2026-01-17 08:30:28.52	335.71	25.64	-85.2	-88.8	2.6	1.56e+00	0	47	104	0	60	1048575
2026-01-17 08:30:30.53	335.73	25.31	-85.2	-88.8	2.6	1.56e+00	0	47	104	0	60	1048572
2026-01-17 08:30:32.55	335.74	24.99	-85.2	-88.8	2.7	1.56e+00	0	47	104	0	60	1048574
2026-01-17 08:30:34.56	335.75	24.68	-85.2	-88.8	2.9	1.56e+00	0	47	104	0	60	1048574
2026-01-17 08:30:36.58	335.76	24.36	-85.2	-88.8	2.7	1.56e+00	0	47	104	0	60	1048575
2026-01-17 08:30:38.59	335.77	24.05	-85.2	-88.8	2.7	1.56e+00	0	47	104	0	60	1048574
2026-01-17 08:30:40.60	335.79	23.75	-85.2	-88.8	2.7	1.56e+00	0	47	104	0	60	1048575
2026-01-17 08:30:42.61	335.80	23.45	-85.2	-88.8	2.7	1.56e+00	0	47	104	0	60	1048574
2026-01-17 08:30:44.63	335.81	23.15	-85.2	-88.8	2.6	1.56e+00	0	47	104	0	60	1048568
2026-01-17 08:30:46.65	335.82	22.85	-85.2	-88.8	2.7	1.56e+00	0	47	104	0	60	1048575
2026-01-17 08:30:48.65	335.83	22.56	-85.2	-88.8	2.5	1.56e+00	0	47	104	0	60	1048573
2026-01-17 08:30:50.67	335.85	22.27	-85.2	-88.8	2.9	1.56e+00	0	47	104	0	60	1048573
2026-01-17 08:30:52.68	335.86	21.99	-85.2	-88.8	2.7	1.56e+00	0	47	104	0	60	1048572
2026-01-17 08:30:54.70	335.87	21.71	-85.2	-88.8	2.8	1.56e+00	0	47	104	0	60	1048572
2026-01-17 08:30:56.71	335.88	21.43	-85.2	-88.8	2.8	1.56e+00	0	47	104	0	60	1048575
2026-01-17 08:30:58.73	335.89	21.15	-84.7	-88.8	2.8	1.56e+00	0	47	104	0	60	1048575
2026-01-17 08:31:00.73	335.90	20.88	-85.2	-88.8	2.7	1.56e+00	0	47	104	0	60	1048571
2026-01-17 08:31:02.73	335.91	20.61	-85.2	-88.8	2.8	1.56e+00	0	47	104	0	60	1048575
2026-01-17 08:31:04.75	335.93	20.34	-85.2	-88.8	2.7	1.56e+00	0	47	104	0	60	1048573
2026-01-17 08:31:06.76	335.94	20.08	-85.2	-88.8	2.7	1.56e+00	0	47	104	0	60	1048572
2026-01-17 08:31:08.77	335.95	19.82	-85.2	-88.8	2.9	1.56e+00	0	47	104	0	60	1048574
2026-01-17 08:31:10.79	335.96	19.56	-85.2	-88.8	2.7	1.56e+00	0	47	104	0	60	1048575
2026-01-17 08:31:12.80	335.97	19.30	-85.2	-88.8	2.6	1.56e+00	0	47	104	0	60	1048574
2026-01-17 08:31:14.81	335.98	19.05	-85.2	-88.8	2.8	1.56e+00	0	47	104	0	60	1048574
2026-01-17 08:31:16.83	335.99	18.80	-85.2	-88.8	2.7	1.56e+00	0	47	104	0	60	1048575
2026-01-17 08:31:18.84	336.00	18.55	-85.2	-88.8	2.7	1.56e+00	0	47	104	0	60	1048573
2026-01-17 08:31:20.84	336.01	18.31	-85.2	-88.8	2.7	1.56e+00	0	47	104	0	60	1048575
2026-01-17 08:31:22.86	336.03	18.06	-85.2	-88.8	2.7	1.56e+00	0	47	104	0	60	1048569
2026-01-17 08:31:24.87	336.04	17.82	-85.2	-88.8	2.7	1.56e+00	0	47	104	0	60	1048575
2026-01-17 08:31:26.89	336.05	17.58	-85.2	-88.8	2.7	1.56e+00	0	47	104	0	60	1048573
2026-01-17 08:31:28.90	336.06	17.35	-85.2	-88.8	2.9	1.56e+00	0	47	104	0	60	1048571
2026-01-17 08:31:30.92	336.07	17.11	-85.2	-88.8	2.7	1.56e+00	0	47	104	0	60	1048575
2026-01-17 08:31:32.93	336.08	16.88	-85.2	-88.8	2.6	1.56e+00	0	47	104	0	60	1048572
2026-01-17 08:31:34.94	336.09	16.65	-85.2	-88.8	2.6	1.56e+00	0	47	104	0	60	1048574
2026-01-17 08:31:36.95	336.10	16.42	-85.2	-88.8	2.7	1.56e+00	0	47	104	0	60	1048575
2026-01-17 08:31:38.96	336.11	16.20	-85.2	-88.8	2.9	1.56e+00	0	47	104	0	60	1048575
2026-01-17 08:31:40.97	336.12	15.98	-85.2	-88.8	2.6	1.56e+00	0	47	104	0	60	1048573
2026-01-17 08:31:42.99	336.13	15.75	-84.7	-88.8	2.7	1.56e+00	0	47	104	0	60	1048575
2026-01-17 08:31:44.99	336.14	15.54	-85.2	-88.8	2.7	1.56e+00	0	47	104	0	60	1048575
2026-01-17 08:31:47.00	336.15	15.32	-85.2	-88.8	2.5	1.56e+00	0	47	104	0	60	1048573
2026-01-17 08:31:49.01	336.16	15.10	-85.2	-88.8	2.8	1.56e+00	0	47	104	0	60	1048574
2026-01-17 08:31:51.01	336.17	14.89	-85.2	-88.8	2.7	1.56e+00	0	47	104	0	60	1048572
2026-01-17 08:31:53.02	336.19	14.68	-85.2	-88.8	2.6	1.56e+00	0	47	104	0	60	1048574
2026-01-17 08:31:55.03	336.20	14.47	-85.2	-88.8	2.6	1.56e+00	0	47	104	0	60	1048573
2026-01-17 08:31:57.05	336.21	14.26	-85.2	-88.8	2.7	1.56e+00	0	47	104	0	60	1048575
2026-01-17 08:31:59.06	336.22	14.06	-85.2	-88.8	2.7	1.56e+00	0	47	104	0	60	1048573
2026-01-17 08:32:01.08	336.23	13.85	-85.2	-88.8	2.5	1.56e+00	0	47	104	0	60	1048570
2026-01-17 08:32:03.09	336.24	13.65	-85.2	-88.8	2.7	1.56e+00	0	47	104	0	60	1048575
2026-01-17 08:32:05.11	336.25	13.45	-85.2	-88.8	2.8	1.56e+00	0	47	104	0	60	1048574
2026-01-17 08:32:07.12	336.26	13.25	-85.2	-88.8	2.7	1.56e+00	0	47	104	0	60	1048575
2026-01-17 08:32:09.13	336.27	13.05	-85.2	-88.8	2.7	1.56e+00	0	47	104	0	60	1048575
2026-01-17 08:32:11.15	336.28	12.85	-85.2	-88.8	2.7	1.56e+00	0	47	104	0	60	1048573
2026-01-17 08:32:13.16	336.29	12.66	-85.2	-88.8	2.7	1.56e+00	0	47	104	0	60	1048573
2026-01-17 08:32:15.18	336.30	12.47	-85.2	-88.8	2.8	1.56e+00	0	47	104	0	60	1048575
2026-01-17 08:32:17.19	336.31	12.27	-85.2	-88.8	2.7	1.56e+00	0	47	104	0	60	1048575
2026-01-17 08:32:19.21	336.32	12.08	-85.2	-88.8	2.6	1.56e+00	0	47	104	0	60	1048575
2026-01-17 08:32:21.22	336.33	11.89	-85.2	-88.8	2.8	1.56e+00	0	47	104	0	60	1048569
2026-01-17 08:32:23.23	336.34	11.71	-85.2	-88.8	2.7	1.56e+00	0	47	104	0	60	1048575
2026-01-17 08:32:25.24	336.35	11.52	-85.2	-88.8	2.7	1.56e+00	0	47	104	0	60	1048573
2026-01-17 08:32:27.26	336.36	11.34	-85.2	-88.8	2.7	1.56e+00	0	47	104	0	60	1048575
2026-01-17 08:32:29.27	336.37	11.15	-84.7	-88.8	2.8	1.56e+00	0	47	104	0	60	1048575
2026-01-17 08:32:31.28	336.38	10.97	-85.2	-88.8	2.8	1.56e+00	0	47	104	0	60	1048574
2026-01-17 08:32:33.29	336.39	10.79	-85.2	-88.8	2.8	1.56e+00	0	47	104	0	60	1048575
2026-01-17 08:32:35.31	336.40	10.61	-85.2	-88.8	2.7	1.56e+00	0	47	104	0	60	1048575
2026-01-17 08:32:37.33	336.41	10.43	-85.2	-88.8	2.8	1.56e+00	0	47	104	0	60	1048575
2026-01-17 08:32:39.33	336.42	10.26	-85.2	-88.8	2.7	1.56e+00	0	47	104	0	60	1048572
2026-01-17 08:32:41.34	336.43	10.08	-85.2	-88.8	2.6	1.56e+00	0	47	104	0	60	1048575
2026-01-17 08:32:43.35	336.44	9.91	-85.2	-88.8	2.7	1.56e+00	0	47	104	0	60	1048574
2026-01-17 08:32:45.37	336.45	9.74	-85.2	-88.8	2.7	1.56e+00	0	47	104	0	60	1048573
2026-01-17 08:32:47.39	336.46	9.57	-85.2	-88.8	2.7	1.56e+00	0	47	104	0	60	1048574
2026-01-17 08:32:49.40	336.47	9.40	-85.2	-88.8	2.8	1.56e+00	0	47	104	0	60	1048575
2026-01-17 08:32:51.41	336.48	9.23	-85.2	-88.8	2.7	1.56e+00	0	47	104	0	60	1048572
2026-01-17 08:32:53.43	336.49	9.06	-84.3	-88.8	2.9	1.56e+00	0	47	104	0	60	1048575
2026-01-17 08:32:55.44	336.50	8.89	-85.2	-88.8	2.6	1.56e+00	0	47	104	0	60	1048572
2026-01-17 08:32:57.44	336.51	8.73	-85.2	-88.8	2.7	1.56e+00	0	47	104	0	60	1048574
2026-01-17 08:32:59.45	336.52	8.56	-85.2	-88.8	2.7	1.56e+00	0	47	104	0	60	1048575
2026-01-17 08:33:01.47	336.53	8.40	-85.2	-88.8	2.6	1.56e+00	0	47	104	0	60	1048574
2026-01-17 08:33:03.49	336.54	8.23	-85.2	-88.8	2.7	1.56e+00	0	47	104	0	60	1048571
2026-01-17 08:33:05.50	336.55	8.07	-85.2	-88.8	2.7	1.56e+00	0	47	104	0	60	1048574
2026-01-17 08:33:07.52	336.56	7.91	-85.2	-88.8	2.6	1.56e+00	0	47	104	0	60	1048572
2026-01-17 08:33:09.52	336.57	7.75	-85.2	-88.8	2.7	1.56e+00	0	47	104	0	60	1048574
2026-01-17 08:33:11.53	336.58	7.59	-85.2	-88.8	2.7	1.56e+00	0	47	104	0	60	1048575
2026-01-17 08:33:13.54	336.59	7.44	-84.7	-88.8	2.6	1.56e+00	0	47	104	0	60	1048575
2026-01-17 08:33:15.54	336.60	7.28	-85.2	-88.8	2.6	1.56e+00	0	47	104	0	60	1048565
2026-01-17 08:33:17.55	336.61	7.13	-85.2	-88.8	2.7	1.56e+00	0	47	104	0	60	1048573
2026-01-17 08:33:19.56	336.62	6.97	-84.7	-88.8	2.9	1.56e+00	0	47	104	0	60	1048568
2026-01-17 08:33:21.57	336.63	6.82	-85.2	-88.8	2.6	1.56e+00	0	47	104	0	60	1048575
2026-01-17 08:33:23.58	336.64	6.67	-85.2	-88.8	2.7	1.56e+00	0	47	104	0	60	1048574
2026-01-17 08:33:25.60	336.65	6.51	-85.2	-88.8	2.7	1.56e+00	0	47	104	0	60	1048575
2026-01-17 08:33:27.61	336.66	6.36	-85.2	-88.8	2.7	1.56e+00	0	47	104	0	60	1048575
2026-01-17 08:33:29.61	336.67	6.21	-85.2	-88.8	2.7	1.56e+00	0	47	104	0	60	1048575
2026-01-17 08:33:31.62	336.67	6.06	-85.2	-88.8	2.5	1.56e+00	0	47	104	0	60	1048572
2026-01-17 08:33:33.63	336.68	5.92	-85.2	-88.8	2.8	1.56e+00	0	47	104	0	60	1048572
2026-01-17 08:33:35.64	336.69	5.77	-85.2	-88.8	2.6	1.56e+00	0	47	104	0	60	1048573
2026-01-17 08:33:37.65	336.70	5.62	-85.2	-88.8	2.8	1.56e+00	0	47	104	0	60	1048575
2026-01-17 08:33:39.66	336.71	5.48	-85.2	-88.8	2.9	1.56e+00	0	47	104	0	60	1048571
2026-01-17 08:33:41.68	336.72	5.33	-85.2	-88.8	2.8	1.56e+00	0	47	104	0	60	1048574
2026-01-17 08:33:43.68	336.73	5.19	-84.3	-88.8	2.7	1.56e+00	0	47	104	0	60	1048574
2026-01-17 08:33:45.70	336.74	5.04	-85.2	-88.8	2.8	1.56e+00	0	47	104	0	60	1048575
2026-01-17 08:33:47.71	336.75	4.90	-85.2	-88.8	2.9	1.56e+00	0	47	104	0	60	1048575
2026-01-17 08:33:49.72	336.76	4.76	-85.2	-88.8	2.9	1.56e+00	0	47	104	0	60	1048575
2026-01-17 08:33:51.73	336.77	4.62	-85.2	-88.8	2.8	1.56e+00	0	47	104	0	60	1048574
2026-01-17 08:33:53.75	336.78	4.48	-84.3	-88.8	2.8	1.56e+00	0	47	104	0	60	1048575
2026-01-17 08:33:55.76	336.79	4.34	-85.2	-88.8	2.8	1.56e+00	0	47	104	0	60	1048572
2026-01-17 08:33:57.78	336.80	4.20	-85.2	-88.8	2.7	1.56e+00	0	47	104	0	60	1048575
2026-01-17 08:33:59.79	336.81	4.06	-85.2	-88.8	2.7	1.56e+00	0	47	104	0	60	1048573
2026-01-17 08:34:01.81	336.82	3.92	-85.2	-88.8	2.6	1.56e+00	0	47	104	0	60	1048575
2026-01-17 08:34:03.83	336.83	3.78	-85.2	-88.8	2.7	1.56e+00	0	47	104	0	60	1048573
2026-01-17 08:34:05.84	336.84	3.65	-85.2	-88.8	2.7	1.56e+00	0	47	104	0	60	1048573
2026-01-17 08:34:07.85	336.85	3.51	-85.2	-88.8	2.6	1.56e+00	0	47	104	0	60	1048574
2026-01-17 08:34:09.87	336.86	3.37	-85.2	-88.8	2.7	1.56e+00	0	47	104	0	60	1048574
2026-01-17 08:34:11.88	336.87	3.24	-85.2	-88.8	2.6	1.56e+00	0	47	104	0	60	1048572
2026-01-17 08:34:13.90	336.88	3.11	-84.7	-88.8	2.4	1.56e+00	0	47	104	0	60	1048575
2026-01-17 08:34:15.91	336.89	2.97	-85.2	-88.8	2.8	1.56e+00	0	47	104	0	60	1048575
2026-01-17 08:34:17.92	336.90	2.84	-85.2	-88.8	2.8	1.56e+00	0	47	104	0	60	1048570
2026-01-17 08:34:19.93	336.91	2.71	-85.2	-88.8	2.8	1.56e+00	0	47	104	0	60	1048574
2026-01-17 08:34:21.95	336.92	2.58	-83.9	-88.8	2.6	1.56e+00	0	47	104	0	60	1048574
2026-01-17 08:34:23.96	336.93	2.45	-85.2	-88.8	2.6	1.56e+00	0	47	104	0	60	1048563
2026-01-17 08:34:25.97	336.93	2.32	-85.2	-88.8	2.6	1.56e+00	0	47	104	0	60	1048575
2026-01-17 08:34:27.99	336.94	2.19	-85.2	-88.8	2.6	1.56e+00	0	47	104	0	60	1048573
2026-01-17 08:34:30.00	336.95	2.06	-85.2	-88.8	2.5	1.56e+00	0	47	104	0	60	1048571
2026-01-17 08:34:32.02	336.96	1.93	-85.2	-88.8	2.6	1.56e+00	0	47	104	0	60	1048575
2026-01-17 08:34:34.03	336.97	1.80	-84.3	-88.8	2.7	1.56e+00	0	47	104	0	60	1048575
2026-01-17 08:34:36.04	336.98	1.68	-85.2	-88.8	2.7	1.56e+00	0	47	104	0	60	1048575
2026-01-17 08:34:38.06	336.99	1.55	-85.2	-88.8	2.6	1.56e+00	0	47	104	0	60	1048575
2026-01-17 08:34:40.07	337.00	1.42	-85.2	-88.8	2.7	1.56e+00	0	47	104	0	60	1048571
2026-01-17 08:34:42.09	337.01	1.30	-84.7	-88.8	2.7	1.56e+00	0	47	104	0	60	1048574
2026-01-17 08:34:44.11	337.02	1.17	-85.2	-88.8	2.7	1.56e+00	0	47	104	0	60	1048573
2026-01-17 08:34:46.12	337.03	1.05	-85.2	-88.8	2.6	1.56e+00	0	47	104	0	60	1048574
2026-01-17 08:34:48.14	337.04	0.92	-85.2	-88.8	2.8	1.56e+00	0	47	104	0	60	1048575
2026-01-17 08:34:50.15	337.05	0.80	-85.2	-88.8	2.7	1.56e+00	0	47	104	0	60	1048570
2026-01-17 08:34:52.16	337.06	0.68	-85.2	-88.8	2.8	1.56e+00	0	47	104	0	60	1048575
2026-01-17 08:34:54.17	337.07	0.56	-85.2	-88.8	2.6	1.56e+00	0	47	104	0	60	1048572
2026-01-17 08:34:56.18	337.08	0.43	-85.2	-88.8	2.7	1.56e+00	0	47	104	0	60	1048574
2026-01-17 08:34:58.19	337.09	0.31	-85.2	-88.8	2.7	1.56e+00	0	47	104	0	60	1048574
2026-01-17 08:35:00.20	337.10	0.19	-85.2	-88.8	2.6	1.56e+00	0	47	104	0	60	1048572
2026-01-17 08:35:02.22	337.11	0.07	-85.2	-88.8	2.9	1.56e+00	0	47	104	0	60	1048573
2026-01-17 08:35:04.23	337.12	-0.05	-85.2	-88.8	2.6	1.56e+00	0	47	104	0	60	1048572

#Closed at: 2026-01-17 08:35:04
#Recorded file [0 MB]: D:/Data/35015_260117_112841.dat