passes_logs/2026/01/17/R3.2S-Naryan-Mar/R3.2S-Naryan-Mar__20260117_091001_NOAA_20_JPSS-1_rec.log

#Pass ID: 20260117_091001_NOAA 20 (JPSS-1)
#Satellite: NOAA 20 (JPSS-1)
#Configuration: NOAA 20
#almurnet v.1.7.20240730
#Start time: 2026-01-17 09:10:04

#Version: 2.2.20231116
#Station: R3.2S-Naryan-Mar
#Location: 53.008057 lon 67.646978 lat
#TLE: 1 43013U 17073A   26016.24631778  .00000038  00000+0  39093-4 0  9990
#TLE: 2 43013  98.7637 317.1726 0001455  37.6755 322.4523 14.19536243422915

#Time	Az	El	Level	Level2	SNR	BER	BlckErr	Temp	State	Recorded	gain1	gain2
2026-01-17 09:10:04.60	174.13	0.17	-84.7	-88.6	4.9	1.63e+00	0	46	0	0	60	1048575
2026-01-17 09:10:08.62	174.24	0.41	-85.2	-88.6	2.8	1.55e+00	0	45	104	0	60	1048574
2026-01-17 09:10:12.66	174.35	0.65	-85.2	-88.6	2.9	1.55e+00	0	46	104	0	60	1048574
2026-01-17 09:10:16.69	174.45	0.89	-85.2	-88.6	2.9	1.56e+00	0	46	104	0	60	1048575
2026-01-17 09:10:20.71	174.56	1.14	-85.2	-88.6	3.0	1.55e+00	0	46	104	0	60	1048575
2026-01-17 09:10:24.75	174.67	1.38	-85.2	-88.6	3.0	1.56e+00	0	46	104	0	60	1048575
2026-01-17 09:10:28.77	174.79	1.63	-85.2	-88.6	2.9	1.55e+00	0	46	104	0	60	1048574
2026-01-17 09:10:32.80	174.90	1.88	-85.2	-88.6	3.1	1.56e+00	0	46	104	0	60	1048575
2026-01-17 09:10:36.83	175.02	2.14	-83.5	-88.6	3.0	1.56e+00	0	46	104	0	60	1048575
2026-01-17 09:10:40.85	175.13	2.39	-85.2	-88.6	2.8	1.55e+00	0	46	104	0	60	1048575
2026-01-17 09:10:44.88	175.25	2.65	-85.2	-88.6	3.1	1.56e+00	0	46	104	0	60	1048575
2026-01-17 09:10:48.89	175.37	2.91	-85.2	-88.6	3.0	1.56e+00	0	46	104	0	60	1048571
2026-01-17 09:10:52.92	175.50	3.17	-84.7	-88.6	3.0	1.56e+00	0	46	104	0	60	1048574
2026-01-17 09:10:56.95	175.62	3.44	-85.2	-88.6	3.0	1.55e+00	0	46	104	0	60	1048573
2026-01-17 09:11:00.98	175.75	3.70	-85.2	-88.6	2.8	1.55e+00	0	46	104	0	60	1048575
2026-01-17 09:11:05.01	175.88	3.97	-85.2	-88.6	3.0	1.56e+00	0	46	104	0	60	1048574
2026-01-17 09:11:09.04	176.01	4.25	-85.2	-88.6	3.0	1.56e+00	0	46	104	0	60	1048573
2026-01-17 09:11:13.07	176.15	4.52	-85.2	-88.6	3.0	1.56e+00	0	46	104	0	60	1048574
2026-01-17 09:11:17.08	176.28	4.80	-85.2	-88.6	3.0	1.55e+00	0	46	104	0	60	1048575
2026-01-17 09:11:21.11	176.42	5.08	-85.2	-88.6	3.1	1.56e+00	0	46	104	0	60	1048574
2026-01-17 09:11:25.14	176.56	5.36	-85.2	-88.6	3.1	1.55e+00	0	46	104	0	60	1048575
2026-01-17 09:11:29.16	176.71	5.65	-83.1	-88.6	3.0	1.56e+00	0	46	104	0	60	1048575
2026-01-17 09:11:33.18	176.85	5.94	-85.2	-88.6	3.1	1.55e+00	0	46	104	0	60	1048574
2026-01-17 09:11:37.21	177.00	6.23	-85.2	-88.6	3.0	1.56e+00	0	46	104	0	60	1048574
2026-01-17 09:11:41.23	177.15	6.53	-85.2	-88.6	3.0	1.56e+00	0	46	104	0	60	1048575
2026-01-17 09:11:45.27	177.31	6.83	-85.2	-88.6	3.1	1.56e+00	0	46	104	0	60	1048572
2026-01-17 09:11:49.29	177.46	7.13	-85.2	-88.6	2.9	1.56e+00	0	46	104	0	60	1048573
2026-01-17 09:11:53.31	177.62	7.43	-85.2	-88.6	2.9	1.56e+00	0	46	104	0	60	1048574
2026-01-17 09:11:57.33	177.79	7.74	-85.2	-88.6	3.0	1.56e+00	0	47	104	0	60	1048575
2026-01-17 09:12:01.35	177.95	8.05	-85.2	-88.6	3.1	1.55e+00	0	46	104	0	60	1048575
2026-01-17 09:12:05.38	178.12	8.37	-85.2	-88.6	3.0	1.56e+00	0	46	104	0	60	1048575
2026-01-17 09:12:09.40	178.29	8.69	-85.2	-88.6	3.0	1.56e+00	0	47	104	0	60	1048575
2026-01-17 09:12:13.42	178.47	9.02	-85.2	-88.6	3.0	1.56e+00	0	47	104	0	60	1048575
2026-01-17 09:12:17.44	178.65	9.34	-84.3	-88.6	3.2	1.56e+00	0	47	104	0	60	1048573
2026-01-17 09:12:21.46	178.84	9.68	-85.2	-88.6	3.2	1.56e+00	0	47	104	0	60	1048575
2026-01-17 09:12:25.48	179.02	10.01	-85.2	-88.6	2.9	1.56e+00	0	47	104	0	60	1048574
2026-01-17 09:12:29.50	179.22	10.35	-84.7	-88.6	2.9	1.56e+00	0	47	104	0	60	1048575
2026-01-17 09:12:33.54	179.41	10.70	-85.2	-88.6	3.2	1.55e+00	0	47	104	0	60	1048575
2026-01-17 09:12:37.56	179.61	11.05	-85.2	-88.6	2.9	1.56e+00	0	47	104	0	60	1048574
2026-01-17 09:12:41.59	179.82	11.41	-85.2	-88.6	3.2	1.55e+00	0	47	104	0	60	1048574
2026-01-17 09:12:45.61	180.03	11.77	-85.2	-88.6	2.9	1.56e+00	0	47	104	0	60	1048574
2026-01-17 09:12:49.64	180.24	12.13	-85.2	-88.6	3.0	1.56e+00	0	47	104	0	60	1048575
2026-01-17 09:12:53.67	180.46	12.50	-85.2	-88.6	2.9	1.55e+00	0	47	104	0	60	1048574
2026-01-17 09:12:57.68	180.69	12.88	-85.2	-88.6	2.9	1.56e+00	0	47	104	0	60	1048575
2026-01-17 09:13:01.70	180.92	13.26	-85.2	-88.6	3.1	1.55e+00	0	47	104	0	60	1048575
2026-01-17 09:13:05.72	181.15	13.64	-85.2	-88.6	3.0	1.56e+00	0	47	104	0	60	1048574
2026-01-17 09:13:09.75	181.40	14.04	-85.2	-88.6	3.1	1.56e+00	0	47	104	0	60	1048575
2026-01-17 09:13:13.77	181.64	14.44	-85.2	-88.6	3.0	1.56e+00	0	47	104	0	60	1048575
2026-01-17 09:13:17.80	181.90	14.84	-85.2	-88.6	2.9	1.55e+00	0	47	104	0	60	1048574
2026-01-17 09:13:21.83	182.16	15.25	-85.2	-88.6	3.1	1.56e+00	0	47	104	0	60	1048574
2026-01-17 09:13:25.85	182.43	15.67	-85.2	-88.6	2.9	1.56e+00	0	47	104	0	60	1048575
2026-01-17 09:13:29.87	182.70	16.10	-85.2	-88.6	3.2	1.56e+00	0	47	104	0	60	1048575
2026-01-17 09:13:33.88	182.98	16.53	-85.2	-88.6	2.9	1.56e+00	0	47	104	0	60	1048574
2026-01-17 09:13:37.90	183.28	16.96	-85.2	-88.6	2.9	1.56e+00	0	47	104	0	60	1048575
2026-01-17 09:13:41.92	183.57	17.41	-85.2	-88.6	3.0	1.56e+00	0	47	104	0	60	1048575
2026-01-17 09:13:45.95	183.88	17.86	-85.2	-88.6	3.2	1.56e+00	0	47	104	0	60	1048575
2026-01-17 09:13:49.97	184.20	18.32	-85.2	-88.6	3.0	1.55e+00	0	47	104	0	60	1048574
2026-01-17 09:13:53.99	184.52	18.79	-85.2	-88.6	2.9	1.56e+00	0	47	104	0	60	1048575
2026-01-17 09:13:58.01	184.86	19.27	-85.2	-88.6	2.9	1.56e+00	0	47	104	0	60	1048572
2026-01-17 09:14:02.04	185.20	19.76	-85.2	-88.6	3.0	1.56e+00	0	47	104	0	60	1048575
2026-01-17 09:14:06.06	185.56	20.25	-85.2	-88.6	3.1	1.55e+00	0	47	104	0	60	1048573
2026-01-17 09:14:10.08	185.93	20.75	-85.2	-88.6	2.9	1.56e+00	0	47	104	0	60	1048571
2026-01-17 09:14:14.11	186.31	21.27	-85.2	-88.6	3.0	1.56e+00	0	47	104	0	60	1048575
2026-01-17 09:14:18.14	186.70	21.79	-85.2	-88.6	3.0	1.56e+00	0	47	104	0	60	1048575
2026-01-17 09:14:22.17	187.10	22.32	-85.2	-88.6	2.7	1.56e+00	0	47	104	0	60	1048574
2026-01-17 09:14:26.19	187.52	22.86	-85.2	-88.6	3.2	1.56e+00	0	47	104	0	60	1048574
2026-01-17 09:14:30.22	187.95	23.41	-85.2	-88.6	3.0	1.55e+00	0	47	104	0	60	1048575
2026-01-17 09:14:34.25	188.40	23.98	-85.2	-88.6	3.0	1.56e+00	0	47	104	0	60	1048575
2026-01-17 09:14:38.27	188.86	24.55	-85.2	-88.6	3.1	1.55e+00	0	47	104	0	60	1048575
2026-01-17 09:14:42.30	189.34	25.13	-85.2	-88.6	3.2	1.56e+00	0	47	104	0	60	1048575
2026-01-17 09:14:46.33	189.84	25.73	-85.2	-88.6	2.9	1.55e+00	0	47	104	0	60	1048575
2026-01-17 09:14:50.37	190.36	26.33	-85.2	-88.6	3.2	1.55e+00	0	47	104	0	60	1048575
2026-01-17 09:14:54.39	190.89	26.95	-85.2	-88.6	3.0	1.56e+00	0	47	104	0	60	1048575
2026-01-17 09:14:58.43	191.45	27.58	-85.2	-88.6	2.8	1.56e+00	0	47	104	0	60	1048575
2026-01-17 09:15:02.46	192.03	28.22	-85.2	-88.6	3.0	1.56e+00	0	47	104	0	60	1048575
2026-01-17 09:15:06.48	192.63	28.87	-85.2	-88.6	3.0	1.56e+00	0	47	104	0	60	1048573
2026-01-17 09:15:10.51	193.26	29.54	-85.2	-88.6	3.1	1.56e+00	0	47	104	0	60	1048571
2026-01-17 09:15:14.55	193.91	30.22	-85.2	-88.6	3.2	1.56e+00	0	47	104	0	60	1048573
2026-01-17 09:15:18.57	194.59	30.91	-85.2	-88.6	3.2	1.56e+00	0	47	104	0	60	1048575
2026-01-17 09:15:22.59	195.29	31.60	-85.2	-88.6	3.1	1.56e+00	0	47	104	0	60	1048573
2026-01-17 09:15:26.62	196.03	32.32	-85.2	-88.6	3.0	1.56e+00	0	47	104	0	60	1048575
2026-01-17 09:15:30.63	196.80	33.04	-85.2	-88.6	3.0	1.56e+00	0	47	104	0	60	1048575
2026-01-17 09:15:34.66	197.61	33.78	-85.2	-88.6	3.0	1.56e+00	0	47	104	0	60	1048575
2026-01-17 09:15:38.69	198.45	34.53	-85.2	-88.6	3.2	1.56e+00	0	47	104	0	60	1048575
2026-01-17 09:15:42.70	199.33	35.28	-84.7	-88.6	3.1	1.56e+00	0	47	104	0	60	1048575
2026-01-17 09:15:46.72	200.25	36.05	-85.2	-88.6	3.1	1.56e+00	0	47	104	0	60	1048575
2026-01-17 09:15:50.75	201.21	36.83	-85.2	-88.6	2.9	1.56e+00	0	47	104	0	60	1048575
2026-01-17 09:15:54.78	202.23	37.62	-85.2	-88.6	3.0	1.55e+00	0	47	104	0	60	1048574
2026-01-17 09:15:58.81	203.29	38.42	-85.2	-88.6	3.0	1.56e+00	0	47	104	0	60	1048573
2026-01-17 09:16:02.83	204.40	39.23	-85.2	-88.6	2.9	1.55e+00	0	47	104	0	60	1048574
2026-01-17 09:16:06.86	205.57	40.04	-85.2	-88.6	3.0	1.56e+00	0	47	104	0	60	1048573
2026-01-17 09:16:10.89	206.80	40.86	-85.2	-88.6	3.1	1.56e+00	0	47	104	0	60	1048575
2026-01-17 09:16:14.91	208.10	41.68	-85.2	-88.6	2.7	1.56e+00	0	47	104	0	60	1048575
2026-01-17 09:16:18.95	209.46	42.51	-85.2	-88.6	2.9	1.55e+00	0	47	104	0	60	1048567
2026-01-17 09:16:22.98	210.89	43.33	-85.2	-88.6	3.1	1.56e+00	0	47	104	0	60	1048575
2026-01-17 09:16:27.01	212.39	44.15	-85.2	-88.6	3.1	1.55e+00	0	47	104	0	60	1048575
2026-01-17 09:16:31.03	213.97	44.96	-85.2	-88.6	3.1	1.56e+00	0	47	104	0	60	1048574
2026-01-17 09:16:35.05	215.63	45.77	-85.2	-88.6	3.1	1.55e+00	0	47	104	0	60	1048575
2026-01-17 09:16:39.09	217.39	46.57	-85.2	-88.6	2.9	1.56e+00	0	47	104	0	60	1048575
2026-01-17 09:16:43.12	219.23	47.35	-84.3	-88.6	3.1	1.56e+00	0	47	104	0	60	1048575
2026-01-17 09:16:47.15	221.16	48.11	-85.2	-88.6	3.0	1.55e+00	0	47	104	0	60	1048575
2026-01-17 09:16:51.16	223.17	48.84	-85.2	-88.6	3.0	1.56e+00	0	47	104	0	60	1048572
2026-01-17 09:16:55.19	225.30	49.55	-85.2	-88.6	3.0	1.56e+00	0	47	104	0	60	1048575
2026-01-17 09:16:59.21	227.51	50.23	-85.2	-88.6	3.0	1.56e+00	0	47	104	0	60	1048575
2026-01-17 09:17:03.23	229.82	50.87	-85.2	-88.6	2.8	1.55e+00	0	47	104	0	60	1048575
2026-01-17 09:17:07.27	232.24	51.47	-85.2	-88.6	2.8	1.56e+00	0	47	104	0	60	1048573
2026-01-17 09:17:11.29	234.74	52.02	-85.2	-88.6	2.9	1.55e+00	0	47	104	0	60	1048574
2026-01-17 09:17:15.32	237.34	52.53	-85.2	-88.6	3.2	1.55e+00	0	47	104	0	60	1048574
2026-01-17 09:17:19.35	240.02	52.97	-85.2	-88.6	3.1	1.56e+00	0	47	104	0	60	1048573
2026-01-17 09:17:23.38	242.78	53.35	-84.3	-88.6	2.8	1.56e+00	0	47	104	0	60	1048575
2026-01-17 09:17:27.40	245.60	53.67	-85.2	-88.6	2.9	1.56e+00	0	47	104	0	60	1048573
2026-01-17 09:17:31.43	248.48	53.92	-85.2	-88.6	3.1	1.55e+00	0	47	104	0	60	1048574
2026-01-17 09:17:35.47	251.40	54.09	-85.2	-88.6	2.9	1.55e+00	0	47	104	0	60	1048574
2026-01-17 09:17:39.49	254.35	54.19	-85.2	-88.6	2.9	1.56e+00	0	47	104	0	60	1048573
2026-01-17 09:17:43.52	257.31	54.22	-85.2	-88.6	3.2	1.56e+00	0	47	104	0	60	1048574
2026-01-17 09:17:47.54	260.26	54.17	-85.2	-88.6	3.0	1.56e+00	0	47	104	0	60	1048575
2026-01-17 09:17:51.57	263.20	54.05	-85.2	-88.6	3.1	1.55e+00	0	47	104	0	60	1048575
2026-01-17 09:17:55.60	266.11	53.85	-85.2	-88.6	3.0	1.56e+00	0	47	104	0	60	1048573
2026-01-17 09:17:59.62	268.96	53.58	-85.2	-88.6	3.0	1.56e+00	0	47	104	0	60	1048574
2026-01-17 09:18:03.64	271.76	53.25	-85.2	-88.6	2.9	1.56e+00	0	47	104	0	60	1048574
2026-01-17 09:18:07.67	274.49	52.85	-85.2	-88.6	3.2	1.56e+00	0	47	104	0	60	1048575
2026-01-17 09:18:11.69	277.14	52.39	-85.2	-88.6	2.8	1.56e+00	0	47	104	0	60	1048575
2026-01-17 09:18:15.72	279.71	51.87	-85.2	-88.6	3.1	1.56e+00	0	47	104	0	60	1048575
2026-01-17 09:18:19.74	282.18	51.31	-85.2	-88.6	3.2	1.56e+00	0	47	104	0	60	1048575
2026-01-17 09:18:23.77	284.56	50.70	-85.2	-88.6	3.1	1.56e+00	0	47	104	0	60	1048575
2026-01-17 09:18:27.80	286.85	50.05	-85.2	-88.6	2.8	1.56e+00	0	47	104	0	60	1048574
2026-01-17 09:18:31.81	289.02	49.36	-85.2	-88.6	3.0	1.55e+00	0	47	104	0	60	1048575
2026-01-17 09:18:35.84	291.11	48.65	-85.2	-88.6	3.2	1.56e+00	0	47	104	0	60	1048575
2026-01-17 09:18:39.87	293.11	47.90	-85.2	-88.6	3.0	1.56e+00	0	47	104	0	60	1048574
2026-01-17 09:18:43.90	295.01	47.14	-85.2	-88.6	3.0	1.56e+00	0	47	104	0	60	1048574
2026-01-17 09:18:47.92	296.81	46.36	-85.2	-88.6	2.9	1.55e+00	0	47	104	0	60	1048573
2026-01-17 09:18:51.94	298.53	45.56	-84.7	-88.6	3.2	1.56e+00	0	47	104	0	60	1048575
2026-01-17 09:18:55.97	300.17	44.76	-85.2	-88.6	3.0	1.56e+00	0	47	104	0	60	1048573
2026-01-17 09:18:59.99	301.72	43.95	-85.2	-88.6	3.0	1.56e+00	0	47	104	0	60	1048571
2026-01-17 09:19:04.01	303.20	43.13	-85.2	-88.6	2.9	1.55e+00	0	47	104	0	60	1048575
2026-01-17 09:19:08.02	304.60	42.31	-85.2	-88.6	2.8	1.55e+00	0	47	104	0	60	1048573
2026-01-17 09:19:12.05	305.94	41.49	-85.2	-88.6	3.1	1.55e+00	0	47	104	0	60	1048573
2026-01-17 09:19:16.08	307.21	40.67	-85.2	-88.6	2.8	1.55e+00	0	47	104	0	60	1048575
2026-01-17 09:19:20.11	308.43	39.86	-85.2	-88.6	3.1	1.56e+00	0	47	104	0	60	1048575
2026-01-17 09:19:24.13	309.58	39.06	-85.2	-88.6	3.0	1.56e+00	0	47	104	0	60	1048574
2026-01-17 09:19:28.16	310.68	38.25	-85.2	-88.6	3.0	1.55e+00	0	47	104	0	60	1048573
2026-01-17 09:19:32.19	311.72	37.46	-85.2	-88.6	2.9	1.55e+00	0	47	104	0	60	1048574
2026-01-17 09:19:36.22	312.72	36.68	-85.2	-88.6	2.9	1.56e+00	0	47	104	0	60	1048575
2026-01-17 09:19:40.24	313.67	35.90	-85.2	-88.6	2.9	1.56e+00	0	47	104	0	60	1048575
2026-01-17 09:19:44.27	314.58	35.14	-85.2	-88.6	3.2	1.56e+00	0	47	104	0	60	1048572
2026-01-17 09:19:48.30	315.45	34.39	-85.2	-88.6	2.9	1.56e+00	0	47	104	0	60	1048575
2026-01-17 09:19:52.32	316.28	33.65	-85.2	-88.6	3.2	1.56e+00	0	47	104	0	60	1048572
2026-01-17 09:19:56.35	317.08	32.91	-85.2	-88.6	3.0	1.56e+00	0	47	104	0	60	1048575
2026-01-17 09:20:00.37	317.84	32.20	-85.2	-88.6	3.0	1.56e+00	0	47	104	0	60	1048575
2026-01-17 09:20:04.40	318.57	31.49	-85.2	-88.6	3.1	1.56e+00	0	47	104	0	60	1048574
2026-01-17 09:20:08.42	319.27	30.80	-85.2	-88.6	3.2	1.55e+00	0	47	104	0	60	1048575
2026-01-17 09:20:12.44	319.94	30.12	-85.2	-88.6	2.8	1.56e+00	0	47	104	0	60	1048574
2026-01-17 09:20:16.47	320.58	29.45	-85.2	-88.6	3.0	1.56e+00	0	47	104	0	60	1048575
2026-01-17 09:20:20.50	321.20	28.79	-85.2	-88.6	2.9	1.56e+00	0	47	104	0	60	1048572
2026-01-17 09:20:24.53	321.79	28.14	-85.2	-88.6	3.0	1.56e+00	0	47	104	0	60	1048575
2026-01-17 09:20:28.55	322.37	27.51	-85.2	-88.6	2.8	1.56e+00	0	47	104	0	60	1048574
2026-01-17 09:20:32.58	322.92	26.88	-85.2	-88.6	3.2	1.56e+00	0	47	104	0	60	1048575
2026-01-17 09:20:36.61	323.45	26.27	-85.2	-88.6	3.1	1.55e+00	0	47	104	0	60	1048572
2026-01-17 09:20:40.63	323.96	25.67	-85.2	-88.6	3.1	1.56e+00	0	47	104	0	60	1048575
2026-01-17 09:20:44.66	324.45	25.08	-85.2	-88.6	3.0	1.56e+00	0	47	104	0	60	1048573
2026-01-17 09:20:48.68	324.93	24.51	-85.2	-88.6	3.0	1.55e+00	0	47	104	0	60	1048574
2026-01-17 09:20:52.71	325.39	23.94	-85.2	-88.6	3.0	1.56e+00	0	47	104	0	60	1048574
2026-01-17 09:20:56.74	325.83	23.38	-85.2	-88.6	3.0	1.56e+00	0	47	104	0	60	1048574
2026-01-17 09:21:00.77	326.26	22.83	-85.2	-88.6	2.9	1.56e+00	0	47	104	0	60	1048575
2026-01-17 09:21:04.80	326.68	22.30	-85.2	-88.6	3.2	1.56e+00	0	47	104	0	60	1048573
2026-01-17 09:21:08.82	327.08	21.77	-85.2	-88.6	3.0	1.56e+00	0	47	104	0	60	1048575
2026-01-17 09:21:12.85	327.47	21.25	-85.2	-88.6	3.0	1.56e+00	0	47	104	0	60	1048574
2026-01-17 09:21:16.87	327.85	20.75	-85.2	-88.6	2.8	1.56e+00	0	47	104	0	60	1048575
2026-01-17 09:21:20.90	328.21	20.25	-85.2	-88.6	2.9	1.56e+00	0	47	104	0	60	1048575
2026-01-17 09:21:24.93	328.57	19.76	-85.2	-88.6	2.9	1.55e+00	0	47	104	0	60	1048575
2026-01-17 09:21:28.95	328.91	19.27	-85.2	-88.6	2.8	1.55e+00	0	47	104	0	60	1048574
2026-01-17 09:21:32.97	329.24	18.80	-85.2	-88.6	2.9	1.56e+00	0	47	104	0	60	1048574
2026-01-17 09:21:37.00	329.57	18.34	-85.2	-88.6	2.9	1.56e+00	0	47	104	0	60	1048573
2026-01-17 09:21:41.03	329.89	17.88	-85.2	-88.6	2.9	1.55e+00	0	47	104	0	60	1048575
2026-01-17 09:21:45.07	330.19	17.43	-85.2	-88.6	2.8	1.56e+00	0	47	104	0	60	1048575
2026-01-17 09:21:49.09	330.49	16.98	-85.2	-88.6	2.8	1.56e+00	0	47	104	0	60	1048574
2026-01-17 09:21:53.11	330.78	16.55	-85.2	-88.6	3.0	1.55e+00	0	47	104	0	60	1048575
2026-01-17 09:21:57.13	331.06	16.12	-85.2	-88.6	3.2	1.55e+00	0	47	104	0	60	1048575
2026-01-17 09:22:01.15	331.34	15.70	-85.2	-88.6	2.9	1.56e+00	0	47	104	0	60	1048574
2026-01-17 09:22:05.19	331.61	15.29	-84.7	-88.6	2.9	1.56e+00	0	47	104	0	60	1048575
2026-01-17 09:22:09.21	331.87	14.88	-85.2	-88.6	3.1	1.56e+00	0	47	104	0	60	1048575
2026-01-17 09:22:13.25	332.12	14.47	-85.2	-88.6	3.1	1.56e+00	0	47	104	0	60	1048573
2026-01-17 09:22:17.28	332.37	14.08	-85.2	-88.6	3.2	1.56e+00	0	47	104	0	60	1048574
2026-01-17 09:22:21.29	332.61	13.69	-85.2	-88.6	2.9	1.56e+00	0	47	104	0	60	1048572
2026-01-17 09:22:25.32	332.85	13.31	-85.2	-88.6	3.2	1.56e+00	0	47	104	0	60	1048572
2026-01-17 09:22:29.34	333.08	12.93	-85.2	-88.6	3.0	1.55e+00	0	47	104	0	60	1048575
2026-01-17 09:22:33.36	333.31	12.55	-85.2	-88.6	3.1	1.56e+00	0	47	104	0	60	1048573
2026-01-17 09:22:37.39	333.53	12.19	-85.2	-88.6	3.1	1.56e+00	0	47	104	0	60	1048575
2026-01-17 09:22:41.43	333.74	11.82	-85.2	-88.6	3.0	1.56e+00	0	47	104	0	60	1048574
2026-01-17 09:22:45.46	333.96	11.46	-85.2	-88.6	3.0	1.56e+00	0	47	104	0	60	1048574
2026-01-17 09:22:49.49	334.16	11.11	-85.2	-88.6	3.0	1.56e+00	0	47	104	0	60	1048575
2026-01-17 09:22:53.52	334.36	10.76	-85.2	-88.6	3.3	1.56e+00	0	47	104	0	60	1048575
2026-01-17 09:22:57.53	334.56	10.42	-85.2	-88.6	3.2	1.56e+00	0	47	104	0	60	1048575
2026-01-17 09:23:01.55	334.75	10.08	-85.2	-88.6	2.8	1.56e+00	0	47	104	0	60	1048575
2026-01-17 09:23:05.58	334.94	9.75	-85.2	-88.6	3.2	1.56e+00	0	47	104	0	60	1048575
2026-01-17 09:23:09.61	335.13	9.42	-85.2	-88.6	2.9	1.56e+00	0	47	104	0	60	1048575
2026-01-17 09:23:13.64	335.31	9.09	-85.2	-88.6	3.1	1.56e+00	0	47	104	0	60	1048574
2026-01-17 09:23:17.67	335.49	8.77	-85.2	-88.6	2.9	1.56e+00	0	47	104	0	60	1048575
2026-01-17 09:23:21.69	335.67	8.45	-85.2	-88.6	3.1	1.56e+00	0	47	104	0	60	1048575
2026-01-17 09:23:25.72	335.84	8.13	-85.2	-88.6	3.2	1.56e+00	0	47	104	0	60	1048575
2026-01-17 09:23:29.74	336.01	7.82	-85.2	-88.6	2.7	1.56e+00	0	47	104	0	60	1048575
2026-01-17 09:23:33.76	336.17	7.52	-85.2	-88.6	2.9	1.56e+00	0	47	104	0	60	1048573
2026-01-17 09:23:37.78	336.33	7.21	-85.2	-88.6	3.2	1.56e+00	0	47	104	0	60	1048574
2026-01-17 09:23:41.81	336.49	6.91	-85.2	-88.6	3.0	1.55e+00	0	47	104	0	60	1048574
2026-01-17 09:23:45.83	336.65	6.62	-85.2	-88.6	3.0	1.56e+00	0	47	104	0	60	1048574
2026-01-17 09:23:49.85	336.80	6.32	-85.2	-88.6	3.1	1.56e+00	0	47	104	0	60	1048575
2026-01-17 09:23:53.87	336.95	6.03	-85.2	-88.6	2.9	1.56e+00	0	47	104	0	60	1048575
2026-01-17 09:23:57.90	337.10	5.75	-85.2	-88.6	3.1	1.56e+00	0	47	104	0	60	1048574
2026-01-17 09:24:01.93	337.25	5.46	-85.2	-88.6	2.9	1.56e+00	0	47	104	0	60	1048575
2026-01-17 09:24:05.96	337.39	5.18	-85.2	-88.6	3.1	1.56e+00	0	47	104	0	60	1048575
2026-01-17 09:24:09.99	337.53	4.90	-85.2	-88.6	3.1	1.55e+00	0	47	104	0	60	1048572
2026-01-17 09:24:14.02	337.67	4.62	-85.2	-88.6	3.1	1.56e+00	0	47	104	0	60	1048573
2026-01-17 09:24:18.05	337.81	4.35	-85.2	-88.6	3.1	1.55e+00	0	47	104	0	60	1048575
2026-01-17 09:24:22.07	337.94	4.08	-85.2	-88.6	2.9	1.56e+00	0	47	104	0	60	1048573
2026-01-17 09:24:26.10	338.07	3.81	-85.2	-88.6	3.0	1.56e+00	0	47	104	0	60	1048575
2026-01-17 09:24:30.12	338.20	3.55	-85.2	-88.6	3.0	1.56e+00	0	47	104	0	60	1048575
2026-01-17 09:24:34.14	338.33	3.28	-85.2	-88.6	3.0	1.56e+00	0	47	104	0	60	1048574
2026-01-17 09:24:38.17	338.46	3.02	-85.2	-88.6	3.1	1.55e+00	0	47	104	0	60	1048575
2026-01-17 09:24:42.19	338.58	2.76	-85.2	-88.6	3.0	1.56e+00	0	47	104	0	60	1048573
2026-01-17 09:24:46.22	338.71	2.51	-85.2	-88.6	2.9	1.56e+00	0	47	104	0	60	1048575
2026-01-17 09:24:50.25	338.83	2.25	-85.2	-88.6	3.1	1.56e+00	0	47	104	0	60	1048574
2026-01-17 09:24:54.28	338.95	2.00	-85.2	-88.6	3.1	1.56e+00	0	47	104	0	60	1048574
2026-01-17 09:24:58.31	339.06	1.75	-85.2	-88.6	3.0	1.56e+00	0	47	104	0	60	1048573
2026-01-17 09:25:02.34	339.18	1.50	-85.2	-88.6	3.1	1.56e+00	0	47	104	0	60	1048575
2026-01-17 09:25:06.37	339.29	1.26	-85.2	-88.6	3.0	1.55e+00	0	47	104	0	60	1048575
2026-01-17 09:25:10.39	339.41	1.02	-85.2	-88.6	3.1	1.56e+00	0	47	104	0	60	1048575
2026-01-17 09:25:14.41	339.52	0.77	-85.2	-88.6	3.2	1.55e+00	0	47	104	0	60	1048568
2026-01-17 09:25:18.44	339.63	0.53	-85.2	-88.6	3.0	1.56e+00	0	47	104	0	60	1048572
2026-01-17 09:25:22.47	339.74	0.30	-85.2	-88.6	2.8	1.56e+00	0	47	104	0	60	1048574
2026-01-17 09:25:26.49	339.84	0.06	-84.7	-88.6	2.9	1.55e+00	0	47	104	0	60	1048575

#Closed at: 2026-01-17 09:25:27
#Recorded file [0 MB]: D:/Data/35015_260117_121004.dat