passes_logs/2026/01/17/R3.2S-Naryan-Mar/R3.2S-Naryan-Mar__20260117_192912_TY-40_rec.log

#Pass ID: 20260117_192912_TY-40
#Satellite: TY-40
#Configuration: TY-39
#almurnet v.1.7.20240730
#Start time: 2026-01-17 19:34:05

#Version: 2.2.20231116
#Station: R3.2S-Naryan-Mar
#Location: 53.008057 lon 67.646978 lat
#TLE: 1 56846U 23081A   26016.94830663  .00002646  00000-0  11971-3 0  9997
#TLE: 2 56846  97.3895  89.8290 0001781  76.6008 283.5426 15.21771932145000

#Time	Az	El	Level	Level2	SNR	BER	BlckErr	Temp	State	Recorded	gain1	gain2
2026-01-17 19:34:05.02	276.11	14.54	-83.1	-79.0	2.4	0.00e+00	0	48	0	0	60	1048573
2026-01-17 19:34:07.03	276.73	14.55	-83.5	-79.0	2.4	0.00e+00	0	49	104	0	60	1048574
2026-01-17 19:34:09.04	277.36	14.55	-83.5	-79.0	2.4	0.00e+00	0	49	104	0	60	1048575
2026-01-17 19:34:11.05	277.99	14.55	-83.1	-79.0	2.3	0.00e+00	0	49	104	0	60	1048574
2026-01-17 19:34:13.07	278.62	14.55	-83.5	-79.0	2.4	0.00e+00	0	49	104	0	60	1048568
2026-01-17 19:34:15.08	279.25	14.55	-83.5	-79.0	2.3	0.00e+00	0	49	104	0	60	1048574
2026-01-17 19:34:17.08	279.87	14.54	-83.5	-79.0	2.4	0.00e+00	0	49	104	0	60	1048575
2026-01-17 19:34:19.09	280.50	14.53	-82.8	-79.0	2.4	0.00e+00	0	49	104	0	60	1048574
2026-01-17 19:34:21.10	281.13	14.52	-83.5	-79.0	2.4	0.00e+00	0	49	104	0	60	1048575
2026-01-17 19:34:23.11	281.75	14.51	-83.5	-79.0	2.4	0.00e+00	0	49	104	0	60	1048573
2026-01-17 19:34:25.12	282.38	14.49	-83.1	-79.0	2.4	0.00e+00	0	49	104	0	60	1048575
2026-01-17 19:34:27.13	283.00	14.47	-83.5	-79.0	2.4	0.00e+00	0	49	104	0	60	1048572
2026-01-17 19:34:29.15	283.63	14.44	-83.1	-79.0	2.4	0.00e+00	0	49	104	0	60	1048574
2026-01-17 19:34:31.14	284.24	14.42	-83.5	-79.0	2.5	0.00e+00	0	49	104	0	60	1048571
2026-01-17 19:34:33.15	284.86	14.39	-83.1	-79.0	2.4	0.00e+00	0	49	104	0	60	1048569
2026-01-17 19:34:35.16	285.48	14.36	-83.5	-79.0	2.5	0.00e+00	0	49	104	0	60	1048564
2026-01-17 19:34:37.17	286.10	14.32	-83.5	-79.0	2.5	0.00e+00	0	49	104	0	60	1048574
2026-01-17 19:34:39.18	286.72	14.29	-83.5	-79.0	2.4	0.00e+00	0	49	104	0	60	1048562
2026-01-17 19:34:41.20	287.33	14.25	-83.5	-79.0	2.4	0.00e+00	0	49	104	0	60	1048573
2026-01-17 19:34:43.21	287.94	14.20	-83.1	-79.0	2.4	0.00e+00	0	49	104	0	60	1048575
2026-01-17 19:34:45.23	288.56	14.16	-83.5	-79.0	2.4	0.00e+00	0	49	104	0	60	1048573
2026-01-17 19:34:47.24	289.16	14.11	-83.5	-79.0	2.3	0.00e+00	0	49	104	0	60	1048575
2026-01-17 19:34:49.26	289.77	14.06	-83.5	-79.0	2.5	0.00e+00	0	49	104	0	60	1048571
2026-01-17 19:34:51.27	290.37	14.01	-83.1	-79.0	2.4	0.00e+00	0	49	104	0	60	1048568
2026-01-17 19:34:53.29	290.98	13.96	-83.5	-79.0	2.5	0.00e+00	0	49	104	0	60	1048574
2026-01-17 19:34:55.31	291.58	13.90	-83.5	-79.0	2.5	0.00e+00	0	49	104	0	60	1048574
2026-01-17 19:34:57.32	292.17	13.84	-83.1	-79.0	2.5	0.00e+00	0	49	104	0	60	1048575
2026-01-17 19:34:59.33	292.76	13.78	-83.5	-79.0	2.4	0.00e+00	0	49	104	0	60	1048575
2026-01-17 19:35:01.35	293.35	13.71	-83.5	-79.0	2.5	0.00e+00	0	49	104	0	60	1048575
2026-01-17 19:35:03.36	293.94	13.65	-83.5	-79.0	2.4	0.00e+00	0	49	104	0	60	1048572
2026-01-17 19:35:05.37	294.52	13.58	-83.5	-79.0	2.4	0.00e+00	0	49	104	0	60	1048571
2026-01-17 19:35:07.39	295.10	13.51	-83.1	-79.0	2.5	0.00e+00	0	49	104	0	60	1048570
2026-01-17 19:35:09.40	295.68	13.44	-83.5	-79.0	2.4	0.00e+00	0	49	104	0	60	1048573
2026-01-17 19:35:11.41	296.25	13.36	-83.1	-79.0	2.4	0.00e+00	0	49	104	0	60	1048575
2026-01-17 19:35:13.42	296.82	13.29	-83.5	-79.0	2.4	0.00e+00	0	49	104	0	60	1048575
2026-01-17 19:35:15.43	297.38	13.21	-83.5	-79.0	2.4	0.00e+00	0	49	104	0	60	1048571
2026-01-17 19:35:17.45	297.95	13.13	-83.5	-79.0	2.4	0.00e+00	0	49	104	0	60	1048575
2026-01-17 19:35:19.46	298.51	13.05	-83.5	-79.0	2.2	0.00e+00	0	49	104	0	60	1048567
2026-01-17 19:35:21.47	299.06	12.96	-82.8	-79.0	2.4	0.00e+00	0	49	104	0	60	1048575
2026-01-17 19:35:23.49	299.62	12.88	-83.5	-79.0	2.5	0.00e+00	0	49	104	0	60	1048569
2026-01-17 19:35:25.50	300.16	12.79	-83.1	-79.0	2.5	0.00e+00	0	49	104	0	60	1048573
2026-01-17 19:35:27.52	300.71	12.70	-83.5	-79.0	2.4	0.00e+00	0	49	104	0	60	1048571
2026-01-17 19:35:29.53	301.25	12.61	-83.5	-79.0	2.4	0.00e+00	0	49	104	0	60	1048565
2026-01-17 19:35:31.55	301.78	12.52	-83.1	-79.0	2.4	0.00e+00	0	49	104	0	60	1048570
2026-01-17 19:35:33.56	302.32	12.42	-83.5	-79.0	2.4	0.00e+00	0	49	104	0	60	1048575
2026-01-17 19:35:35.58	302.85	12.33	-83.1	-79.0	2.5	0.00e+00	0	49	104	0	60	1048554
2026-01-17 19:35:37.59	303.37	12.23	-83.5	-79.0	2.4	0.00e+00	0	49	104	0	60	1048575
2026-01-17 19:35:39.60	303.89	12.13	-83.1	-79.0	2.3	0.00e+00	0	49	104	0	60	1048571
2026-01-17 19:35:41.62	304.40	12.04	-83.5	-79.0	2.4	0.00e+00	0	49	104	0	60	1048575
2026-01-17 19:35:43.63	304.91	11.94	-83.5	-79.0	2.5	0.00e+00	0	49	104	0	60	1048574
2026-01-17 19:35:45.65	305.42	11.83	-83.5	-79.0	2.5	0.00e+00	0	49	104	0	60	1048575
2026-01-17 19:35:47.66	305.93	11.73	-83.5	-79.0	2.3	0.00e+00	0	49	104	0	60	1048572
2026-01-17 19:35:49.68	306.43	11.63	-83.1	-79.0	2.4	0.00e+00	0	49	104	0	60	1048573
2026-01-17 19:35:51.69	306.92	11.52	-83.5	-79.0	2.3	0.00e+00	0	49	104	0	60	1048564
2026-01-17 19:35:53.70	307.41	11.42	-83.1	-79.0	2.3	0.00e+00	0	49	104	0	60	1048571
2026-01-17 19:35:55.72	307.90	11.31	-83.5	-79.0	2.4	0.00e+00	0	49	104	0	60	1048573
2026-01-17 19:35:57.73	308.38	11.20	-83.5	-79.0	2.5	0.00e+00	0	49	104	0	60	1048569
2026-01-17 19:35:59.74	308.86	11.09	-83.5	-79.0	2.5	0.00e+00	0	49	104	0	60	1048574
2026-01-17 19:36:01.75	309.33	10.98	-83.1	-79.0	2.4	0.00e+00	0	49	104	0	60	1048572
2026-01-17 19:36:03.77	309.80	10.87	-83.1	-79.0	2.3	0.00e+00	0	49	104	0	60	1048570
2026-01-17 19:36:05.78	310.26	10.76	-83.5	-79.0	2.3	0.00e+00	0	49	104	0	60	1048575
2026-01-17 19:36:07.80	310.72	10.65	-83.5	-79.0	2.4	0.00e+00	0	49	104	0	60	1048575
2026-01-17 19:36:09.81	311.18	10.54	-83.5	-79.0	2.4	0.00e+00	0	49	104	0	60	1048574
2026-01-17 19:36:11.82	311.63	10.42	-83.5	-79.0	2.3	0.00e+00	0	49	104	0	60	1048575
2026-01-17 19:36:13.83	312.08	10.31	-82.8	-79.0	2.4	0.00e+00	0	49	104	0	60	1048574
2026-01-17 19:36:15.84	312.52	10.19	-83.5	-79.0	2.4	0.00e+00	0	49	104	0	60	1048574
2026-01-17 19:36:17.85	312.96	10.08	-82.8	-79.0	2.4	0.00e+00	0	49	104	0	60	1048573
2026-01-17 19:36:19.86	313.40	9.96	-83.1	-79.0	2.5	0.00e+00	0	49	104	0	60	1048575
2026-01-17 19:36:21.88	313.83	9.85	-83.5	-79.0	2.4	0.00e+00	0	49	104	0	60	1048563
2026-01-17 19:36:23.89	314.26	9.73	-83.5	-79.0	2.4	0.00e+00	0	49	104	0	60	1048575
2026-01-17 19:36:25.91	314.68	9.61	-83.5	-79.0	2.4	0.00e+00	0	49	104	0	60	1048570
2026-01-17 19:36:27.92	315.10	9.49	-83.1	-79.0	2.3	0.00e+00	0	49	104	0	60	1048572
2026-01-17 19:36:29.93	315.51	9.38	-83.5	-79.0	2.4	0.00e+00	0	49	104	0	60	1048575
2026-01-17 19:36:31.94	315.92	9.26	-83.1	-79.0	2.5	0.00e+00	0	49	104	0	60	1048573
2026-01-17 19:36:33.95	316.33	9.14	-83.5	-79.0	2.4	0.00e+00	0	49	104	0	60	1048573
2026-01-17 19:36:35.97	316.73	9.02	-83.5	-79.0	2.4	0.00e+00	0	49	104	0	60	1048575
2026-01-17 19:36:37.98	317.13	8.90	-83.1	-79.0	2.4	0.00e+00	0	49	104	0	60	1048575
2026-01-17 19:36:40.00	317.53	8.78	-83.5	-79.0	2.4	0.00e+00	0	49	104	0	60	1048573
2026-01-17 19:36:42.01	317.92	8.66	-83.1	-79.0	2.4	0.00e+00	0	49	104	0	60	1048575
2026-01-17 19:36:44.03	318.31	8.54	-83.1	-79.0	2.5	0.00e+00	0	49	104	0	60	1048575
2026-01-17 19:36:46.05	318.69	8.42	-83.1	-79.0	2.5	0.00e+00	0	49	104	0	60	1048569
2026-01-17 19:36:48.06	319.07	8.30	-83.5	-79.0	2.5	0.00e+00	0	49	104	0	60	1048575
2026-01-17 19:36:50.07	319.45	8.18	-83.5	-79.0	2.4	0.00e+00	0	49	104	0	60	1048569
2026-01-17 19:36:52.09	319.82	8.06	-83.1	-79.0	2.4	0.00e+00	0	49	104	0	60	1048573
2026-01-17 19:36:54.10	320.19	7.94	-83.5	-79.0	2.4	0.00e+00	0	49	104	0	60	1048575
2026-01-17 19:36:56.12	320.55	7.82	-83.1	-79.0	2.4	0.00e+00	0	49	104	0	60	1048574
2026-01-17 19:36:58.13	320.91	7.70	-83.5	-79.0	2.4	0.00e+00	0	49	104	0	60	1048571
2026-01-17 19:37:00.15	321.27	7.58	-83.5	-79.0	2.5	0.00e+00	0	49	104	0	60	1048572
2026-01-17 19:37:02.16	321.62	7.45	-83.5	-79.0	2.4	0.00e+00	0	49	104	0	60	1048573
2026-01-17 19:37:04.18	321.97	7.33	-83.5	-79.0	2.5	0.00e+00	0	49	104	0	60	1048570
2026-01-17 19:37:06.19	322.32	7.21	-83.1	-79.0	2.4	0.00e+00	0	49	104	0	60	1048572
2026-01-17 19:37:08.20	322.66	7.09	-83.5	-79.0	2.4	0.00e+00	0	49	104	0	60	1048574
2026-01-17 19:37:10.21	323.00	6.97	-83.1	-79.0	2.5	0.00e+00	0	49	104	0	60	1048574
2026-01-17 19:37:12.23	323.34	6.85	-83.1	-79.0	2.3	0.00e+00	0	49	104	0	60	1048575
2026-01-17 19:37:14.24	323.67	6.73	-83.5	-79.0	2.4	0.00e+00	0	49	104	0	60	1048573
2026-01-17 19:37:16.25	324.00	6.61	-83.5	-79.0	2.3	0.00e+00	0	49	104	0	60	1048572
2026-01-17 19:37:18.26	324.33	6.49	-83.5	-79.0	2.5	0.00e+00	0	49	104	0	60	1048574
2026-01-17 19:37:20.28	324.65	6.37	-83.1	-79.0	2.4	0.00e+00	0	49	104	0	60	1048575
2026-01-17 19:37:22.29	324.97	6.25	-83.5	-79.0	2.4	0.00e+00	0	49	104	0	60	1048572
2026-01-17 19:37:24.31	325.29	6.13	-83.1	-79.0	2.4	0.00e+00	0	49	104	0	60	1048575
2026-01-17 19:37:26.32	325.60	6.01	-83.5	-79.0	2.4	0.00e+00	0	49	104	0	60	1048571
2026-01-17 19:37:28.33	325.91	5.89	-83.5	-79.0	2.4	0.00e+00	0	49	104	0	60	1048573
2026-01-17 19:37:30.34	326.22	5.77	-83.1	-79.0	2.4	0.00e+00	0	49	104	0	60	1048574
2026-01-17 19:37:32.36	326.52	5.65	-83.5	-79.0	2.5	0.00e+00	0	49	104	0	60	1048569
2026-01-17 19:37:34.37	326.82	5.53	-83.1	-79.0	2.4	0.00e+00	0	49	104	0	60	1048564
2026-01-17 19:37:36.39	327.12	5.41	-83.5	-79.0	2.4	0.00e+00	0	49	104	0	60	1048574
2026-01-17 19:37:38.40	327.41	5.29	-83.5	-79.0	2.5	0.00e+00	0	49	104	0	60	1048575
2026-01-17 19:37:40.42	327.71	5.17	-83.5	-79.0	2.3	0.00e+00	0	49	104	0	60	1048569
2026-01-17 19:37:42.43	328.00	5.05	-83.5	-79.0	2.5	0.00e+00	0	49	104	0	60	1048569
2026-01-17 19:37:44.45	328.28	4.93	-83.1	-79.0	2.4	0.00e+00	0	49	104	0	60	1048569
2026-01-17 19:37:46.46	328.57	4.81	-83.1	-79.0	2.4	0.00e+00	0	49	104	0	60	1048574
2026-01-17 19:37:48.47	328.85	4.70	-82.8	-79.0	2.4	0.00e+00	0	49	104	0	60	1048574
2026-01-17 19:37:50.49	329.13	4.58	-83.5	-79.0	2.3	0.00e+00	0	49	104	0	60	1048573
2026-01-17 19:37:52.50	329.40	4.46	-83.5	-79.0	2.5	0.00e+00	0	49	104	0	60	1048572
2026-01-17 19:37:54.51	329.67	4.34	-83.5	-79.0	2.5	0.00e+00	0	49	104	0	60	1048575
2026-01-17 19:37:56.53	329.94	4.23	-83.5	-79.0	2.4	0.00e+00	0	49	104	0	60	1048575
2026-01-17 19:37:58.54	330.21	4.11	-83.5	-79.0	2.3	0.00e+00	0	49	104	0	60	1048575
2026-01-17 19:38:00.55	330.47	3.99	-83.5	-79.0	2.4	0.00e+00	0	49	104	0	60	1048575
2026-01-17 19:38:02.56	330.73	3.88	-83.1	-79.0	2.4	0.00e+00	0	49	104	0	60	1048574
2026-01-17 19:38:04.57	330.99	3.76	-83.5	-79.0	2.3	0.00e+00	0	49	104	0	60	1048571
2026-01-17 19:38:06.58	331.25	3.64	-83.5	-79.0	2.4	0.00e+00	0	49	104	0	60	1048574
2026-01-17 19:38:08.59	331.50	3.53	-83.5	-79.0	2.4	0.00e+00	0	49	104	0	60	1048569
2026-01-17 19:38:10.60	331.76	3.41	-83.5	-79.0	2.4	0.00e+00	0	49	104	0	60	1048573
2026-01-17 19:38:12.62	332.01	3.30	-83.1	-79.0	2.5	0.00e+00	0	49	104	0	60	1048573
2026-01-17 19:38:14.62	332.25	3.18	-83.5	-79.0	2.3	0.00e+00	0	49	104	0	60	1048570
2026-01-17 19:38:16.64	332.50	3.07	-83.1	-79.0	2.5	0.00e+00	0	49	104	0	60	1048575
2026-01-17 19:38:18.65	332.74	2.96	-83.5	-79.0	2.4	0.00e+00	0	49	104	0	60	1048574
2026-01-17 19:38:20.67	332.98	2.84	-83.5	-79.0	2.4	0.00e+00	0	49	104	0	60	1048575
2026-01-17 19:38:22.69	333.22	2.73	-83.1	-79.0	2.3	0.00e+00	0	49	104	0	60	1048569
2026-01-17 19:38:24.70	333.45	2.61	-83.5	-79.0	2.4	0.00e+00	0	49	104	0	60	1048574
2026-01-17 19:38:26.71	333.69	2.50	-83.1	-79.0	2.4	0.00e+00	0	49	104	0	60	1048573
2026-01-17 19:38:28.72	333.92	2.39	-83.5	-79.0	2.4	0.00e+00	0	49	104	0	60	1048575
2026-01-17 19:38:30.73	334.15	2.28	-83.1	-79.0	2.4	0.00e+00	0	49	104	0	60	1048575
2026-01-17 19:38:32.75	334.37	2.16	-83.5	-79.0	2.4	0.00e+00	0	49	104	0	60	1048573
2026-01-17 19:38:34.77	334.60	2.05	-83.5	-79.0	2.4	0.00e+00	0	49	104	0	60	1048572
2026-01-17 19:38:36.77	334.82	1.94	-83.5	-79.0	2.5	0.00e+00	0	49	104	0	60	1048565
2026-01-17 19:38:38.79	335.04	1.83	-83.5	-79.0	2.5	0.00e+00	0	49	104	0	60	1048573
2026-01-17 19:38:40.80	335.26	1.72	-82.8	-79.0	2.4	0.00e+00	0	49	104	0	60	1048575
2026-01-17 19:38:42.81	335.48	1.61	-83.5	-79.0	2.5	0.00e+00	0	49	104	0	60	1048573
2026-01-17 19:38:44.82	335.69	1.50	-83.5	-79.0	2.4	0.00e+00	0	49	104	0	60	1048573
2026-01-17 19:38:46.84	335.91	1.39	-83.1	-79.0	2.4	0.00e+00	0	49	104	0	60	1048570
2026-01-17 19:38:48.84	336.12	1.28	-83.5	-79.0	2.4	0.00e+00	0	49	104	0	60	1048574
2026-01-17 19:38:50.86	336.32	1.17	-83.1	-79.0	2.4	0.00e+00	0	49	104	0	60	1048574
2026-01-17 19:38:52.87	336.53	1.06	-83.1	-79.0	2.4	0.00e+00	0	49	104	0	60	1048569
2026-01-17 19:38:54.88	336.74	0.95	-83.1	-79.0	2.4	0.00e+00	0	49	104	0	60	1048570
2026-01-17 19:38:56.90	336.94	0.84	-83.1	-79.0	2.4	0.00e+00	0	49	104	0	60	1048573
2026-01-17 19:38:58.90	337.14	0.73	-83.5	-79.0	2.5	0.00e+00	0	49	104	0	60	1048573
2026-01-17 19:39:00.92	337.34	0.62	-83.5	-79.0	2.3	0.00e+00	0	49	104	0	60	1048572
2026-01-17 19:39:02.92	337.54	0.52	-83.5	-79.0	2.4	0.00e+00	0	49	104	0	60	1048575
2026-01-17 19:39:04.93	337.73	0.41	-83.1	-79.0	2.4	0.00e+00	0	49	104	0	60	1048569
2026-01-17 19:39:06.94	337.93	0.30	-83.5	-79.0	2.5	0.00e+00	0	49	104	0	60	1048564
2026-01-17 19:39:08.94	338.12	0.20	-83.5	-79.0	2.4	0.00e+00	0	49	104	0	60	1048573
2026-01-17 19:39:10.96	338.31	0.09	-83.5	-79.0	2.4	0.00e+00	0	49	104	0	60	1048574

#Closed at: 2026-01-17 19:39:12
#Recorded file [0 MB]: D:/Data/35015_260117_223405.dat