passes_logs/2026/01/17/R3.2S-Naryan-Mar/R3.2S-Naryan-Mar__20260117_190429_TY-41_rec.log

#Pass ID: 20260117_190429_TY-41
#Satellite: TY-41
#Configuration: TY-39
#almurnet v.1.7.20240730
#Start time: 2026-01-17 19:04:30

#Version: 2.2.20231116
#Station: R3.2S-Naryan-Mar
#Location: 53.008057 lon 67.646978 lat
#TLE: 1 61231U 24173E   26017.08983796  .00008010  00000-0  38191-3 0 09990
#TLE: 2 61231 097.4122 092.0846 0001831 091.8622 061.7654 15.19167953 72814

#Time	Az	El	Level	Level2	SNR	BER	BlckErr	Temp	State	Recorded	gain1	gain2
2026-01-17 19:04:30.30	201.05	0.02	-83.1	-79.0	2.3	0.00e+00	0	44	0	0	60	1048575
2026-01-17 19:04:33.30	201.27	0.20	-83.5	-79.0	2.5	0.00e+00	0	46	104	0	60	1048575
2026-01-17 19:04:36.32	201.48	0.38	-83.5	-79.0	2.5	0.00e+00	0	46	104	0	60	1048572
2026-01-17 19:04:39.35	201.70	0.56	-83.5	-79.0	2.5	0.00e+00	0	46	104	0	60	1048571
2026-01-17 19:04:42.37	201.93	0.74	-83.1	-79.0	2.3	0.00e+00	0	46	104	0	60	1048573
2026-01-17 19:04:45.39	202.15	0.92	-83.1	-79.0	2.7	0.00e+00	0	46	104	0	60	1048574
2026-01-17 19:04:48.40	202.38	1.10	-83.5	-79.0	2.3	0.00e+00	0	46	104	0	60	1048574
2026-01-17 19:04:51.42	202.62	1.28	-83.5	-79.0	2.5	0.00e+00	0	46	104	0	60	1048573
2026-01-17 19:04:54.44	202.85	1.47	-82.8	-79.0	2.4	0.00e+00	0	47	104	0	60	1048573
2026-01-17 19:04:57.46	203.09	1.65	-83.5	-79.0	2.4	0.00e+00	0	47	104	0	60	1048568
2026-01-17 19:05:00.49	203.34	1.84	-83.1	-79.0	2.6	0.00e+00	0	47	104	0	60	1048572
2026-01-17 19:05:03.51	203.59	2.03	-83.1	-79.0	2.5	0.00e+00	0	47	104	0	60	1048570
2026-01-17 19:05:06.53	203.84	2.22	-83.5	-79.0	2.4	0.00e+00	0	47	104	0	60	1048575
2026-01-17 19:05:09.54	204.10	2.41	-83.5	-79.0	2.4	0.00e+00	0	47	104	0	60	1048573
2026-01-17 19:05:12.56	204.36	2.60	-83.5	-79.0	2.5	0.00e+00	0	47	104	0	60	1048575
2026-01-17 19:05:15.58	204.62	2.80	-83.5	-79.0	2.4	0.00e+00	0	47	104	0	60	1048570
2026-01-17 19:05:18.60	204.89	2.99	-82.8	-79.0	2.5	0.00e+00	0	47	104	0	60	1048575
2026-01-17 19:05:21.63	205.16	3.19	-83.5	-79.0	2.4	0.00e+00	0	47	104	0	60	1048573
2026-01-17 19:05:24.65	205.44	3.39	-83.5	-79.0	2.7	0.00e+00	0	47	104	0	60	1048568
2026-01-17 19:05:27.66	205.72	3.58	-83.1	-79.0	2.4	0.00e+00	0	47	104	0	60	1048572
2026-01-17 19:05:30.67	206.01	3.78	-83.5	-79.0	2.6	0.00e+00	0	47	104	0	60	1048572
2026-01-17 19:05:33.69	206.30	3.99	-83.1	-79.0	2.7	0.00e+00	0	47	104	0	60	1048574
2026-01-17 19:05:36.72	206.59	4.19	-83.1	-79.0	2.5	0.00e+00	0	47	104	0	60	1048575
2026-01-17 19:05:39.74	206.90	4.40	-83.5	-79.0	2.4	0.00e+00	0	47	104	0	60	1048572
2026-01-17 19:05:42.76	207.20	4.60	-83.1	-79.0	2.4	0.00e+00	0	47	104	0	60	1048573
2026-01-17 19:05:45.78	207.51	4.81	-83.5	-79.0	2.4	0.00e+00	0	47	104	0	60	1048571
2026-01-17 19:05:48.81	207.83	5.02	-83.5	-79.0	2.3	0.00e+00	0	48	104	0	60	1048575
2026-01-17 19:05:51.83	208.16	5.23	-83.1	-79.0	2.5	0.00e+00	0	48	104	0	60	1048573
2026-01-17 19:05:54.86	208.49	5.45	-83.5	-79.0	2.3	0.00e+00	0	48	104	0	60	1048569
2026-01-17 19:05:57.88	208.82	5.66	-83.5	-79.0	2.7	0.00e+00	0	48	104	0	60	1048560
2026-01-17 19:06:00.89	209.16	5.88	-82.8	-79.0	2.4	0.00e+00	0	48	104	0	60	1048566
2026-01-17 19:06:03.92	209.51	6.10	-83.5	-79.0	2.3	0.00e+00	0	48	104	0	60	1048574
2026-01-17 19:06:06.94	209.86	6.32	-83.5	-79.0	2.5	0.00e+00	0	48	104	0	60	1048570
2026-01-17 19:06:09.96	210.22	6.54	-83.5	-79.0	2.4	0.00e+00	0	48	104	0	60	1048575
2026-01-17 19:06:12.97	210.59	6.76	-83.5	-79.0	2.4	0.00e+00	0	48	104	0	60	1048575
2026-01-17 19:06:15.98	210.96	6.99	-83.1	-79.0	2.4	0.00e+00	0	48	104	0	60	1048573
2026-01-17 19:06:19.00	211.34	7.21	-83.5	-79.0	2.4	0.00e+00	0	48	104	0	60	1048575
2026-01-17 19:06:22.03	211.73	7.44	-83.5	-79.0	2.5	0.00e+00	0	48	104	0	60	1048575
2026-01-17 19:06:25.05	212.12	7.67	-83.1	-79.0	2.7	0.00e+00	0	48	104	0	60	1048568
2026-01-17 19:06:28.06	212.52	7.90	-83.5	-79.0	2.4	0.00e+00	0	48	104	0	60	1048574
2026-01-17 19:06:31.07	212.93	8.14	-83.5	-79.0	2.4	0.00e+00	0	48	104	0	60	1048572
2026-01-17 19:06:34.08	213.35	8.37	-82.8	-79.0	2.5	0.00e+00	0	48	104	0	60	1048575
2026-01-17 19:06:37.11	213.77	8.61	-83.5	-79.0	2.7	0.00e+00	0	48	104	0	60	1048574
2026-01-17 19:06:40.13	214.21	8.85	-83.1	-79.0	2.3	0.00e+00	0	48	104	0	60	1048575
2026-01-17 19:06:43.15	214.65	9.09	-83.5	-79.0	2.5	0.00e+00	0	48	104	0	60	1048570
2026-01-17 19:06:46.17	215.10	9.34	-83.5	-79.0	2.6	0.00e+00	0	48	104	0	60	1048574
2026-01-17 19:06:49.19	215.57	9.58	-83.1	-79.0	2.5	0.00e+00	0	48	104	0	60	1048574
2026-01-17 19:06:52.21	216.04	9.83	-83.1	-79.0	2.4	0.00e+00	0	48	104	0	60	1048571
2026-01-17 19:06:55.22	216.51	10.07	-83.5	-79.0	2.5	0.00e+00	0	48	104	0	60	1048568
2026-01-17 19:06:58.25	217.01	10.33	-83.1	-79.0	2.5	0.00e+00	0	48	104	0	60	1048572
2026-01-17 19:07:01.26	217.50	10.58	-83.5	-79.0	2.6	0.00e+00	0	48	104	0	60	1048572
2026-01-17 19:07:04.28	218.01	10.83	-83.5	-79.0	2.4	0.00e+00	0	48	104	0	60	1048571
2026-01-17 19:07:07.30	218.53	11.09	-83.1	-79.0	2.3	0.00e+00	0	48	104	0	60	1048575
2026-01-17 19:07:10.32	219.07	11.34	-83.5	-79.0	2.4	0.00e+00	0	48	104	0	60	1048570
2026-01-17 19:07:13.34	219.61	11.60	-83.1	-79.0	2.4	0.00e+00	0	48	104	0	60	1048575
2026-01-17 19:07:16.36	220.16	11.86	-83.5	-79.0	2.4	0.00e+00	0	48	104	0	60	1048574
2026-01-17 19:07:19.38	220.73	12.12	-83.5	-79.0	2.4	0.00e+00	0	48	104	0	60	1048575
2026-01-17 19:07:22.40	221.31	12.39	-83.1	-79.0	2.4	0.00e+00	0	48	104	0	60	1048573
2026-01-17 19:07:25.41	221.89	12.65	-83.5	-79.0	2.3	0.00e+00	0	48	104	0	60	1048570
2026-01-17 19:07:28.43	222.50	12.92	-83.5	-79.0	2.5	0.00e+00	0	48	104	0	60	1048573
2026-01-17 19:07:31.45	223.11	13.18	-83.1	-79.0	2.5	0.00e+00	0	48	104	0	60	1048573
2026-01-17 19:07:34.47	223.74	13.45	-83.5	-79.0	2.5	0.00e+00	0	48	104	0	60	1048575
2026-01-17 19:07:37.49	224.38	13.72	-83.5	-79.0	2.4	0.00e+00	0	48	104	0	60	1048575
2026-01-17 19:07:40.51	225.04	13.99	-83.5	-79.0	2.4	0.00e+00	0	48	104	0	60	1048573
2026-01-17 19:07:43.53	225.70	14.26	-83.5	-79.0	2.4	0.00e+00	0	48	104	0	60	1048573
2026-01-17 19:07:46.56	226.39	14.54	-83.1	-79.0	2.3	0.00e+00	0	48	104	0	60	1048567
2026-01-17 19:07:49.58	227.09	14.81	-83.5	-79.0	2.5	0.00e+00	0	48	104	0	60	1048573
2026-01-17 19:07:52.60	227.80	15.08	-83.5	-79.0	2.6	0.00e+00	0	48	104	0	60	1048575
2026-01-17 19:07:55.62	228.53	15.35	-82.8	-79.0	2.4	0.00e+00	0	48	104	0	60	1048572
2026-01-17 19:07:58.64	229.27	15.63	-83.5	-79.0	2.4	0.00e+00	0	48	104	0	60	1048574
2026-01-17 19:08:01.66	230.03	15.90	-83.5	-79.0	2.4	0.00e+00	0	48	104	0	60	1048569
2026-01-17 19:08:04.69	230.81	16.17	-83.1	-79.0	2.5	0.00e+00	0	48	104	0	60	1048575
2026-01-17 19:08:07.71	231.60	16.45	-83.5	-79.0	2.4	0.00e+00	0	48	104	0	60	1048573
2026-01-17 19:08:10.72	232.41	16.72	-83.5	-79.0	2.5	0.00e+00	0	48	104	0	60	1048575
2026-01-17 19:08:13.74	233.23	16.99	-83.5	-79.0	2.5	0.00e+00	0	48	104	0	60	1048571
2026-01-17 19:08:16.76	234.07	17.25	-83.5	-79.0	2.7	0.00e+00	0	49	104	0	60	1048574
2026-01-17 19:08:19.78	234.93	17.52	-82.8	-79.0	2.4	0.00e+00	0	48	104	0	60	1048566
2026-01-17 19:08:22.81	235.81	17.79	-83.5	-79.0	2.2	0.00e+00	0	49	104	0	60	1048567
2026-01-17 19:08:25.83	236.71	18.05	-83.5	-79.0	2.3	0.00e+00	0	48	104	0	60	1048573
2026-01-17 19:08:28.84	237.61	18.31	-83.1	-79.0	2.3	0.00e+00	0	48	104	0	60	1048573
2026-01-17 19:08:31.86	238.54	18.56	-83.1	-79.0	2.4	0.00e+00	0	48	104	0	60	1048575
2026-01-17 19:08:34.87	239.49	18.82	-83.5	-79.0	2.4	0.00e+00	0	49	104	0	60	1048572
2026-01-17 19:08:37.90	240.45	19.07	-83.1	-79.0	2.5	0.00e+00	0	48	104	0	60	1048571
2026-01-17 19:08:40.91	241.43	19.31	-83.5	-79.0	2.6	0.00e+00	0	49	104	0	60	1048575
2026-01-17 19:08:43.94	242.43	19.55	-83.5	-79.0	2.4	0.00e+00	0	49	104	0	60	1048573
2026-01-17 19:08:46.96	243.45	19.79	-83.1	-79.0	2.3	0.00e+00	0	49	104	0	60	1048575
2026-01-17 19:08:49.98	244.48	20.02	-83.5	-79.0	2.5	0.00e+00	0	49	104	0	60	1048572
2026-01-17 19:08:53.00	245.54	20.24	-83.1	-79.0	2.4	0.00e+00	0	49	104	0	60	1048572
2026-01-17 19:08:56.03	246.61	20.46	-83.5	-79.0	2.3	0.00e+00	0	48	104	0	60	1048570
2026-01-17 19:08:59.04	247.69	20.67	-83.5	-79.0	2.5	0.00e+00	0	49	104	0	60	1048572
2026-01-17 19:09:02.05	248.79	20.87	-83.1	-79.0	2.3	0.00e+00	0	49	104	0	60	1048575
2026-01-17 19:09:05.06	249.90	21.07	-83.5	-79.0	2.4	0.00e+00	0	49	104	0	60	1048571
2026-01-17 19:09:08.08	251.04	21.26	-83.5	-79.0	2.5	0.00e+00	0	49	104	0	60	1048571
2026-01-17 19:09:11.09	252.18	21.43	-83.5	-79.0	2.4	0.00e+00	0	48	104	0	60	1048573
2026-01-17 19:09:14.11	253.34	21.60	-83.5	-79.0	2.7	0.00e+00	0	49	104	0	60	1048571
2026-01-17 19:09:17.13	254.52	21.76	-83.1	-79.0	2.6	0.00e+00	0	49	104	0	60	1048572
2026-01-17 19:09:20.15	255.71	21.91	-83.5	-79.0	2.5	0.00e+00	0	49	104	0	60	1048569
2026-01-17 19:09:23.17	256.91	22.05	-83.5	-79.0	2.4	0.00e+00	0	48	104	0	60	1048573
2026-01-17 19:09:26.20	258.12	22.18	-82.8	-79.0	2.7	0.00e+00	0	49	104	0	60	1048575
2026-01-17 19:09:29.22	259.35	22.30	-83.5	-79.0	2.4	0.00e+00	0	49	104	0	60	1048570
2026-01-17 19:09:32.24	260.58	22.40	-83.5	-79.0	2.3	0.00e+00	0	49	104	0	60	1048574
2026-01-17 19:09:35.26	261.82	22.50	-82.8	-79.0	2.3	0.00e+00	0	48	104	0	60	1048574
2026-01-17 19:09:38.28	263.07	22.58	-83.5	-79.0	2.5	0.00e+00	0	48	104	0	60	1048567
2026-01-17 19:09:41.30	264.33	22.65	-83.5	-79.0	2.5	0.00e+00	0	49	104	0	60	1048572
2026-01-17 19:09:44.32	265.59	22.70	-83.5	-79.0	2.7	0.00e+00	0	48	104	0	60	1048571
2026-01-17 19:09:47.35	266.86	22.75	-83.5	-79.0	2.4	0.00e+00	0	49	104	0	60	1048575
2026-01-17 19:09:50.37	268.13	22.78	-83.5	-79.0	2.5	0.00e+00	0	49	104	0	60	1048571
2026-01-17 19:09:53.39	269.40	22.79	-83.5	-79.0	2.5	0.00e+00	0	49	104	0	60	1048570
2026-01-17 19:09:56.41	270.67	22.80	-83.5	-79.0	2.4	0.00e+00	0	49	104	0	60	1048570
2026-01-17 19:09:59.43	271.94	22.79	-83.1	-79.0	2.5	0.00e+00	0	48	104	0	60	1048573
2026-01-17 19:10:02.45	273.21	22.77	-83.5	-79.0	2.4	0.00e+00	0	49	104	0	60	1048575
2026-01-17 19:10:05.47	274.48	22.73	-83.5	-79.0	2.6	0.00e+00	0	48	104	0	60	1048563
2026-01-17 19:10:08.50	275.74	22.68	-83.1	-79.0	2.3	0.00e+00	0	49	104	0	60	1048565
2026-01-17 19:10:11.51	277.00	22.62	-83.5	-79.0	2.5	0.00e+00	0	48	104	0	60	1048573
2026-01-17 19:10:14.54	278.25	22.55	-83.5	-79.0	2.4	0.00e+00	0	49	104	0	60	1048569
2026-01-17 19:10:17.56	279.50	22.46	-83.1	-79.0	2.7	0.00e+00	0	49	104	0	60	1048574
2026-01-17 19:10:20.58	280.73	22.36	-83.5	-79.0	2.5	0.00e+00	0	49	104	0	60	1048575
2026-01-17 19:10:23.60	281.96	22.25	-83.1	-79.0	2.2	0.00e+00	0	49	104	0	60	1048568
2026-01-17 19:10:26.62	283.18	22.13	-83.5	-79.0	2.4	0.00e+00	0	49	104	0	60	1048575
2026-01-17 19:10:29.64	284.38	22.00	-83.5	-79.0	2.5	0.00e+00	0	49	104	0	60	1048569
2026-01-17 19:10:32.66	285.57	21.85	-83.1	-79.0	2.4	0.00e+00	0	49	104	0	60	1048575
2026-01-17 19:10:35.69	286.76	21.70	-83.5	-79.0	2.4	0.00e+00	0	49	104	0	60	1048575
2026-01-17 19:10:38.70	287.92	21.54	-83.5	-79.0	2.4	0.00e+00	0	49	104	0	60	1048565
2026-01-17 19:10:41.71	289.07	21.36	-83.1	-79.0	2.4	0.00e+00	0	49	104	0	60	1048575
2026-01-17 19:10:44.73	290.21	21.18	-83.5	-79.0	2.4	0.00e+00	0	49	104	0	60	1048574
2026-01-17 19:10:47.75	291.33	20.99	-83.5	-79.0	2.4	0.00e+00	0	49	104	0	60	1048575
2026-01-17 19:10:50.78	292.44	20.79	-83.5	-79.0	2.3	0.00e+00	0	49	104	0	60	1048573
2026-01-17 19:10:53.80	293.53	20.59	-83.5	-79.0	2.4	0.00e+00	0	49	104	0	60	1048567
2026-01-17 19:10:56.81	294.61	20.38	-83.1	-79.0	2.4	0.00e+00	0	49	104	0	60	1048574
2026-01-17 19:10:59.82	295.66	20.16	-83.5	-79.0	2.4	0.00e+00	0	49	104	0	60	1048575
2026-01-17 19:11:02.85	296.70	19.93	-83.5	-79.0	2.5	0.00e+00	0	49	104	0	60	1048573
2026-01-17 19:11:05.87	297.73	19.70	-83.1	-79.0	2.4	0.00e+00	0	49	104	0	60	1048571
2026-01-17 19:11:08.89	298.73	19.46	-83.5	-79.0	2.4	0.00e+00	0	49	104	0	60	1048573
2026-01-17 19:11:11.91	299.72	19.22	-83.5	-79.0	2.4	0.00e+00	0	49	104	0	60	1048574
2026-01-17 19:11:14.93	300.69	18.98	-82.8	-79.0	2.4	0.00e+00	0	49	104	0	60	1048573
2026-01-17 19:11:17.95	301.64	18.73	-83.5	-79.0	2.5	0.00e+00	0	49	104	0	60	1048575
2026-01-17 19:11:20.97	302.58	18.47	-83.5	-79.0	2.3	0.00e+00	0	49	104	0	60	1048575
2026-01-17 19:11:24.00	303.50	18.22	-83.5	-79.0	2.3	0.00e+00	0	49	104	0	60	1048575
2026-01-17 19:11:27.02	304.40	17.96	-83.5	-79.0	2.4	0.00e+00	0	49	104	0	60	1048575
2026-01-17 19:11:30.04	305.28	17.70	-82.8	-79.0	2.4	0.00e+00	0	49	104	0	60	1048575
2026-01-17 19:11:33.05	306.14	17.43	-83.5	-79.0	2.4	0.00e+00	0	49	104	0	60	1048575
2026-01-17 19:11:36.07	306.99	17.17	-83.5	-79.0	2.4	0.00e+00	0	49	104	0	60	1048574
2026-01-17 19:11:39.09	307.82	16.90	-83.1	-79.0	2.3	0.00e+00	0	49	104	0	60	1048569
2026-01-17 19:11:42.12	308.64	16.63	-83.5	-79.0	2.5	0.00e+00	0	49	104	0	60	1048569
2026-01-17 19:11:45.14	309.44	16.36	-83.5	-79.0	2.4	0.00e+00	0	49	104	0	60	1048573
2026-01-17 19:11:48.16	310.22	16.09	-83.1	-79.0	2.4	0.00e+00	0	49	104	0	60	1048571
2026-01-17 19:11:51.17	310.98	15.82	-83.5	-79.0	2.4	0.00e+00	0	49	104	0	60	1048574
2026-01-17 19:11:54.18	311.73	15.55	-83.1	-79.0	2.5	0.00e+00	0	49	104	0	60	1048573
2026-01-17 19:11:57.20	312.46	15.28	-83.5	-79.0	2.3	0.00e+00	0	49	104	0	60	1048574
2026-01-17 19:12:00.22	313.18	15.01	-83.5	-79.0	2.6	0.00e+00	0	49	104	0	60	1048567
2026-01-17 19:12:03.23	313.88	14.74	-83.1	-79.0	2.5	0.00e+00	0	49	104	0	60	1048575
2026-01-17 19:12:06.24	314.57	14.47	-83.5	-79.0	2.4	0.00e+00	0	49	104	0	60	1048574
2026-01-17 19:12:09.27	315.24	14.20	-83.5	-79.0	2.3	0.00e+00	0	49	104	0	60	1048572
2026-01-17 19:12:12.28	315.90	13.93	-83.1	-79.0	2.5	0.00e+00	0	49	104	0	60	1048574
2026-01-17 19:12:15.31	316.55	13.66	-83.5	-79.0	2.4	0.00e+00	0	49	104	0	60	1048569
2026-01-17 19:12:18.33	317.19	13.40	-83.1	-79.0	2.3	0.00e+00	0	49	104	0	60	1048573
2026-01-17 19:12:21.35	317.81	13.13	-83.1	-79.0	2.4	0.00e+00	0	49	104	0	60	1048575
2026-01-17 19:12:24.37	318.41	12.87	-83.5	-79.0	2.4	0.00e+00	0	49	104	0	60	1048570
2026-01-17 19:12:27.39	319.01	12.60	-83.1	-79.0	2.3	0.00e+00	0	49	104	0	60	1048574
2026-01-17 19:12:30.41	319.59	12.34	-83.5	-79.0	2.5	0.00e+00	0	49	104	0	60	1048569
2026-01-17 19:12:33.43	320.16	12.08	-83.5	-79.0	2.7	0.00e+00	0	49	104	0	60	1048570
2026-01-17 19:12:36.45	320.72	11.82	-83.1	-79.0	2.5	0.00e+00	0	49	104	0	60	1048575
2026-01-17 19:12:39.47	321.27	11.56	-83.5	-79.0	2.4	0.00e+00	0	49	104	0	60	1048571
2026-01-17 19:12:42.49	321.80	11.31	-83.5	-79.0	2.4	0.00e+00	0	49	104	0	60	1048575
2026-01-17 19:12:45.51	322.33	11.05	-83.1	-79.0	2.7	0.00e+00	0	49	104	0	60	1048575
2026-01-17 19:12:48.53	322.84	10.80	-83.5	-79.0	2.5	0.00e+00	0	49	104	0	60	1048565
2026-01-17 19:12:51.55	323.35	10.55	-83.1	-79.0	2.4	0.00e+00	0	49	104	0	60	1048574
2026-01-17 19:12:54.56	323.84	10.30	-83.5	-79.0	2.4	0.00e+00	0	49	104	0	60	1048562
2026-01-17 19:12:57.56	324.32	10.05	-83.5	-79.0	2.4	0.00e+00	0	49	104	0	60	1048574
2026-01-17 19:13:00.58	324.80	9.81	-83.5	-79.0	2.3	0.00e+00	0	49	104	0	60	1048573
2026-01-17 19:13:03.60	325.26	9.56	-83.5	-79.0	2.3	0.00e+00	0	49	104	0	60	1048572
2026-01-17 19:13:06.62	325.72	9.32	-83.5	-79.0	2.3	0.00e+00	0	49	104	0	60	1048571
2026-01-17 19:13:09.64	326.17	9.08	-83.1	-79.0	2.8	0.00e+00	0	49	104	0	60	1048575
2026-01-17 19:13:12.65	326.60	8.84	-83.5	-79.0	2.4	0.00e+00	0	49	104	0	60	1048574
2026-01-17 19:13:15.67	327.03	8.60	-83.5	-79.0	2.4	0.00e+00	0	49	104	0	60	1048574
2026-01-17 19:13:18.69	327.46	8.37	-83.1	-79.0	2.7	0.00e+00	0	49	104	0	60	1048570
2026-01-17 19:13:21.71	327.87	8.13	-83.5	-79.0	2.5	0.00e+00	0	49	104	0	60	1048573
2026-01-17 19:13:24.73	328.28	7.90	-83.1	-79.0	2.4	0.00e+00	0	49	104	0	60	1048573
2026-01-17 19:13:27.74	328.67	7.67	-83.1	-79.0	2.4	0.00e+00	0	49	104	0	60	1048575
2026-01-17 19:13:30.76	329.07	7.44	-83.5	-79.0	2.4	0.00e+00	0	49	104	0	60	1048572
2026-01-17 19:13:33.78	329.45	7.22	-83.5	-79.0	2.4	0.00e+00	0	49	104	0	60	1048575
2026-01-17 19:13:36.80	329.83	6.99	-83.5	-79.0	2.3	0.00e+00	0	48	104	0	60	1048573
2026-01-17 19:13:39.81	330.20	6.77	-83.5	-79.0	2.4	0.00e+00	0	49	104	0	60	1048574
2026-01-17 19:13:42.82	330.56	6.55	-82.8	-79.0	2.5	0.00e+00	0	49	104	0	60	1048574
2026-01-17 19:13:45.82	330.91	6.33	-83.5	-79.0	2.4	0.00e+00	0	49	104	0	60	1048572
2026-01-17 19:13:48.84	331.26	6.12	-83.5	-79.0	2.4	0.00e+00	0	49	104	0	60	1048575
2026-01-17 19:13:51.86	331.61	5.90	-83.1	-79.0	2.4	0.00e+00	0	49	104	0	60	1048564
2026-01-17 19:13:54.88	331.95	5.68	-83.5	-79.0	2.5	0.00e+00	0	49	104	0	60	1048572
2026-01-17 19:13:57.89	332.28	5.47	-83.5	-79.0	2.5	0.00e+00	0	49	104	0	60	1048575
2026-01-17 19:14:00.91	332.60	5.26	-83.5	-79.0	2.5	0.00e+00	0	49	104	0	60	1048567
2026-01-17 19:14:03.93	332.92	5.05	-83.5	-79.0	2.4	0.00e+00	0	49	104	0	60	1048572
2026-01-17 19:14:06.95	333.24	4.84	-82.8	-79.0	2.6	0.00e+00	0	49	104	0	60	1048571
2026-01-17 19:14:09.97	333.55	4.64	-83.5	-79.0	2.4	0.00e+00	0	49	104	0	60	1048569
2026-01-17 19:14:12.99	333.86	4.43	-83.5	-79.0	2.5	0.00e+00	0	49	104	0	60	1048569
2026-01-17 19:14:16.00	334.15	4.23	-83.1	-79.0	2.4	0.00e+00	0	49	104	0	60	1048574
2026-01-17 19:14:19.01	334.45	4.03	-83.5	-79.0	2.4	0.00e+00	0	49	104	0	60	1048575
2026-01-17 19:14:22.03	334.74	3.83	-83.5	-79.0	2.5	0.00e+00	0	49	104	0	60	1048572
2026-01-17 19:14:25.05	335.02	3.63	-83.1	-79.0	2.4	0.00e+00	0	49	104	0	60	1048575
2026-01-17 19:14:28.08	335.31	3.43	-83.5	-79.0	2.4	0.00e+00	0	49	104	0	60	1048573
2026-01-17 19:14:31.09	335.58	3.23	-83.5	-79.0	2.4	0.00e+00	0	49	104	0	60	1048571
2026-01-17 19:14:34.11	335.85	3.04	-83.5	-79.0	2.6	0.00e+00	0	49	104	0	60	1048575
2026-01-17 19:14:37.13	336.12	2.85	-83.5	-79.0	2.5	0.00e+00	0	49	104	0	60	1048568
2026-01-17 19:14:40.15	336.39	2.65	-82.8	-79.0	2.4	0.00e+00	0	49	104	0	60	1048573
2026-01-17 19:14:43.17	336.64	2.46	-83.5	-79.0	2.5	0.00e+00	0	49	104	0	60	1048575
2026-01-17 19:14:46.19	336.90	2.27	-83.5	-79.0	2.7	0.00e+00	0	49	104	0	60	1048574
2026-01-17 19:14:49.22	337.15	2.08	-82.8	-79.0	2.4	0.00e+00	0	49	104	0	60	1048572
2026-01-17 19:14:52.24	337.40	1.90	-83.5	-79.0	2.4	0.00e+00	0	49	104	0	60	1048569
2026-01-17 19:14:55.25	337.64	1.71	-83.5	-79.0	2.4	0.00e+00	0	49	104	0	60	1048574
2026-01-17 19:14:58.27	337.88	1.53	-83.1	-79.0	2.3	0.00e+00	0	49	104	0	60	1048574
2026-01-17 19:15:01.29	338.12	1.34	-83.5	-79.0	2.5	0.00e+00	0	49	104	0	60	1048573
2026-01-17 19:15:04.31	338.35	1.16	-83.1	-79.0	2.3	0.00e+00	0	49	104	0	60	1048575
2026-01-17 19:15:07.33	338.58	0.98	-83.5	-79.0	2.4	0.00e+00	0	49	104	0	60	1048571
2026-01-17 19:15:10.35	338.81	0.80	-83.5	-79.0	2.5	0.00e+00	0	49	104	0	60	1048575
2026-01-17 19:15:13.37	339.03	0.62	-83.1	-79.0	2.5	0.00e+00	0	49	104	0	60	1048575
2026-01-17 19:15:16.39	339.25	0.45	-83.5	-79.0	2.5	0.00e+00	0	49	104	0	60	1048575
2026-01-17 19:15:19.41	339.47	0.27	-83.5	-79.0	2.4	0.00e+00	0	49	104	0	60	1048573
2026-01-17 19:15:22.44	339.69	0.09	-82.8	-79.0	2.4	0.00e+00	0	49	104	0	60	1048570
2026-01-17 19:15:25.46	339.90	-0.08	-83.5	-79.0	2.6	0.00e+00	0	49	104	0	60	1048571

#Closed at: 2026-01-17 19:15:25
#Recorded file [0 MB]: D:/Data/35015_260117_220430.dat