passes_logs/2026/01/17/R3.2S-Naryan-Mar/R3.2S-Naryan-Mar__20260117_095955_AQUA_rec.log

#Pass ID: 20260117_095955_AQUA
#Satellite: AQUA
#Configuration: AQUA
#almurnet v.1.7.20240730
#Start time: 2026-01-17 10:07:56

#Version: 2.2.20231116
#Station: R3.2S-Naryan-Mar
#Location: 53.008057 lon 67.646978 lat
#TLE: 1 27424U 02022A   26016.26443506  .00000711  00000+0  15228-3 0  9999
#TLE: 2 27424  98.4083 342.7130 0002022  76.7284  27.4473 14.61823291261073

#Time	Az	El	Level	Level2	SNR	BER	BlckErr	Temp	State	Recorded	gain1	gain2
2026-01-17 10:07:56.94	341.93	53.69	-84.7	-88.6	3.0	7.77e-01	0	47	0	0	60	1048573
2026-01-17 10:07:58.95	341.74	52.83	-84.3	-88.8	1.9	3.10e+01	0	47	104	0	60	1048574
2026-01-17 10:08:00.96	341.56	51.99	-83.9	-88.8	2.0	3.10e+01	0	47	104	0	60	1048574
2026-01-17 10:08:02.98	341.38	51.15	-84.3	-88.8	2.0	3.10e+01	0	47	104	0	60	1048574
2026-01-17 10:08:04.99	341.22	50.33	-84.3	-88.8	2.0	3.10e+01	0	47	104	0	60	1048574
2026-01-17 10:08:07.01	341.07	49.53	-83.9	-88.8	2.0	3.10e+01	0	47	104	0	60	1048574
2026-01-17 10:08:09.03	340.92	48.74	-84.3	-88.8	2.0	3.10e+01	0	47	104	0	60	1048574
2026-01-17 10:08:11.04	340.79	47.96	-83.9	-88.8	2.1	3.10e+01	0	47	104	0	60	1048574
2026-01-17 10:08:13.05	340.66	47.20	-83.9	-88.8	2.3	3.10e+01	0	47	104	0	60	1048574
2026-01-17 10:08:15.07	340.53	46.46	-84.3	-88.8	2.0	3.10e+01	0	47	104	0	60	1048574
2026-01-17 10:08:17.08	340.41	45.72	-84.3	-88.8	2.3	3.10e+01	0	47	104	0	60	1048574
2026-01-17 10:08:19.09	340.30	45.01	-83.9	-88.8	2.0	3.10e+01	0	47	104	0	60	1048574
2026-01-17 10:08:21.10	340.20	44.30	-83.9	-88.8	1.9	3.10e+01	0	47	104	0	60	1048574
2026-01-17 10:08:23.12	340.09	43.61	-84.3	-88.8	1.8	3.10e+01	0	47	104	0	60	1048574
2026-01-17 10:08:25.14	340.00	42.92	-84.3	-88.8	2.0	3.10e+01	0	47	104	0	60	1048574
2026-01-17 10:08:27.15	339.91	42.26	-84.3	-88.8	2.0	3.10e+01	0	47	104	0	60	1048574
2026-01-17 10:08:29.16	339.82	41.60	-84.3	-88.8	2.2	3.10e+01	0	47	104	0	60	1048574
2026-01-17 10:08:31.18	339.73	40.96	-83.9	-88.8	2.0	3.10e+01	0	47	104	0	60	1048574
2026-01-17 10:08:33.20	339.65	40.33	-84.3	-88.8	2.1	3.10e+01	0	47	104	0	60	1048574
2026-01-17 10:08:35.21	339.57	39.71	-83.9	-88.8	2.2	3.10e+01	0	47	104	0	60	1048574
2026-01-17 10:08:37.23	339.50	39.10	-84.3	-88.8	2.1	3.10e+01	0	47	104	0	60	1048574
2026-01-17 10:08:39.24	339.43	38.50	-83.9	-88.8	2.2	3.10e+01	0	47	104	0	60	1048574
2026-01-17 10:08:41.25	339.36	37.92	-84.3	-88.8	2.2	3.10e+01	0	47	104	0	60	1048574
2026-01-17 10:08:43.27	339.29	37.34	-84.3	-88.8	2.1	3.10e+01	0	47	104	0	60	1048574
2026-01-17 10:08:45.28	339.23	36.78	-84.3	-88.8	1.9	3.10e+01	0	47	104	0	60	1048574
2026-01-17 10:08:47.29	339.17	36.22	-84.3	-88.8	1.9	3.10e+01	0	47	104	0	60	1048574
2026-01-17 10:08:49.31	339.11	35.67	-83.9	-88.8	1.6	3.10e+01	0	47	104	0	60	1048574
2026-01-17 10:08:51.32	339.06	35.14	-84.3	-88.8	2.0	3.10e+01	0	47	104	0	60	1048574
2026-01-17 10:08:53.34	339.00	34.61	-84.3	-88.8	2.2	3.10e+01	0	47	104	0	60	1048574
2026-01-17 10:08:55.35	338.95	34.10	-84.3	-88.8	2.0	3.10e+01	0	47	104	0	60	1048574
2026-01-17 10:08:57.37	338.90	33.59	-84.3	-88.8	2.3	3.10e+01	0	47	104	0	60	1048574
2026-01-17 10:08:59.38	338.85	33.09	-83.9	-88.8	2.1	3.10e+01	0	47	104	0	60	1048574
2026-01-17 10:09:01.39	338.81	32.60	-84.3	-88.8	2.2	3.10e+01	0	47	104	0	60	1048574
2026-01-17 10:09:03.41	338.76	32.12	-83.9	-88.8	2.5	3.10e+01	0	47	104	0	60	1048574
2026-01-17 10:09:05.42	338.72	31.64	-84.3	-88.8	2.3	3.10e+01	0	47	104	0	60	1048574
2026-01-17 10:09:07.43	338.68	31.18	-84.3	-88.8	2.4	3.10e+01	0	47	104	0	60	1048574
2026-01-17 10:09:09.44	338.64	30.72	-84.3	-88.8	2.5	3.10e+01	0	47	104	0	60	1048574
2026-01-17 10:09:11.45	338.60	30.27	-84.3	-88.8	2.5	3.10e+01	0	47	104	0	60	1048574
2026-01-17 10:09:13.47	338.56	29.83	-83.9	-88.8	2.0	3.10e+01	0	47	104	0	60	1048574
2026-01-17 10:09:15.49	338.52	29.39	-84.3	-88.8	2.1	3.10e+01	0	47	104	0	60	1048574
2026-01-17 10:09:17.50	338.49	28.96	-84.3	-88.8	2.0	3.10e+01	0	47	104	0	60	1048574
2026-01-17 10:09:19.51	338.45	28.54	-84.3	-88.8	2.1	3.10e+01	0	47	104	0	60	1048574
2026-01-17 10:09:21.52	338.42	28.13	-84.3	-88.8	2.0	3.10e+01	0	47	104	0	60	1048574
2026-01-17 10:09:23.53	338.39	27.72	-84.3	-88.8	2.0	3.10e+01	0	47	104	0	60	1048574
2026-01-17 10:09:25.53	338.36	27.32	-84.3	-88.8	2.0	3.10e+01	0	47	104	0	60	1048574
2026-01-17 10:09:27.55	338.33	26.92	-83.9	-88.8	2.0	3.10e+01	0	47	104	0	60	1048574
2026-01-17 10:09:29.56	338.30	26.53	-84.3	-88.8	1.8	3.10e+01	0	47	104	0	60	1048574
2026-01-17 10:09:31.58	338.27	26.15	-83.9	-88.8	2.1	3.10e+01	0	47	104	0	60	1048574
2026-01-17 10:09:33.59	338.25	25.77	-84.3	-88.8	2.2	3.10e+01	0	47	104	0	60	1048574
2026-01-17 10:09:35.60	338.22	25.40	-84.3	-88.8	2.2	3.10e+01	0	47	104	0	60	1048574
2026-01-17 10:09:37.61	338.20	25.04	-83.9	-88.8	2.3	3.10e+01	0	47	104	0	60	1048574
2026-01-17 10:09:39.62	338.17	24.67	-84.3	-88.8	2.3	3.10e+01	0	47	104	0	60	1048574
2026-01-17 10:09:41.63	338.15	24.32	-83.9	-88.8	2.5	3.10e+01	0	47	104	0	60	1048574
2026-01-17 10:09:43.65	338.12	23.97	-83.9	-88.8	2.2	3.10e+01	0	47	104	0	60	1048574
2026-01-17 10:09:45.66	338.10	23.62	-84.3	-88.8	2.3	3.10e+01	0	47	104	0	60	1048574
2026-01-17 10:09:47.67	338.08	23.28	-84.3	-88.8	2.2	3.10e+01	0	47	104	0	60	1048574
2026-01-17 10:09:49.68	338.06	22.95	-84.3	-88.8	2.2	3.10e+01	0	47	104	0	60	1048574
2026-01-17 10:09:51.70	338.04	22.62	-83.9	-88.8	2.0	3.10e+01	0	47	104	0	60	1048574
2026-01-17 10:09:53.71	338.02	22.29	-84.3	-88.8	2.0	3.10e+01	0	47	104	0	60	1048574
2026-01-17 10:09:55.72	338.00	21.97	-83.9	-88.8	2.4	3.10e+01	0	47	104	0	60	1048574
2026-01-17 10:09:57.74	337.98	21.65	-84.3	-88.8	2.5	3.10e+01	0	47	104	0	60	1048574
2026-01-17 10:09:59.75	337.96	21.34	-84.3	-88.8	2.2	3.10e+01	0	47	104	0	60	1048574
2026-01-17 10:10:01.77	337.95	21.03	-84.3	-88.8	2.3	3.10e+01	0	47	104	0	60	1048574
2026-01-17 10:10:03.79	337.93	20.72	-84.3	-88.8	2.3	3.10e+01	0	47	104	0	60	1048574
2026-01-17 10:10:05.80	337.91	20.42	-83.9	-88.8	2.3	3.10e+01	0	47	104	0	60	1048574
2026-01-17 10:10:07.80	337.90	20.12	-84.3	-88.8	2.1	3.10e+01	0	47	104	0	60	1048574
2026-01-17 10:10:09.81	337.88	19.83	-83.9	-88.8	2.3	3.10e+01	0	47	104	0	60	1048574
2026-01-17 10:10:11.82	337.87	19.54	-84.3	-88.8	2.1	3.10e+01	0	47	104	0	60	1048574
2026-01-17 10:10:13.83	337.85	19.26	-84.3	-88.8	2.0	3.10e+01	0	47	104	0	60	1048574
2026-01-17 10:10:15.85	337.84	18.97	-83.9	-88.8	2.2	3.10e+01	0	47	104	0	60	1048574
2026-01-17 10:10:17.87	337.83	18.69	-84.3	-88.8	1.9	3.10e+01	0	47	104	0	60	1048574
2026-01-17 10:10:19.88	337.81	18.42	-83.9	-88.8	2.1	3.10e+01	0	47	104	0	60	1048574
2026-01-17 10:10:21.90	337.80	18.15	-84.3	-88.8	2.3	3.10e+01	0	47	104	0	60	1048574
2026-01-17 10:10:23.92	337.79	17.88	-84.3	-88.8	2.4	3.10e+01	0	47	104	0	60	1048574
2026-01-17 10:10:25.93	337.78	17.61	-84.3	-88.8	2.3	3.10e+01	0	47	104	0	60	1048574
2026-01-17 10:10:27.95	337.76	17.35	-84.3	-88.8	2.2	3.10e+01	0	47	104	0	60	1048574
2026-01-17 10:10:29.95	337.75	17.09	-83.9	-88.8	2.1	3.10e+01	0	47	104	0	60	1048574
2026-01-17 10:10:31.96	337.74	16.83	-84.3	-88.8	1.9	3.10e+01	0	47	104	0	60	1048574
2026-01-17 10:10:33.98	337.73	16.58	-83.9	-88.8	2.3	3.10e+01	0	47	104	0	60	1048574
2026-01-17 10:10:35.99	337.72	16.33	-84.3	-88.8	2.1	3.10e+01	0	47	104	0	60	1048574
2026-01-17 10:10:38.01	337.71	16.08	-84.3	-88.8	2.0	3.10e+01	0	47	104	0	60	1048574
2026-01-17 10:10:40.03	337.70	15.84	-83.9	-88.8	2.0	3.10e+01	0	47	104	0	60	1048574
2026-01-17 10:10:42.04	337.69	15.59	-84.3	-88.8	2.1	3.10e+01	0	47	104	0	60	1048574
2026-01-17 10:10:44.06	337.68	15.35	-83.9	-88.8	2.1	3.10e+01	0	47	104	0	60	1048574
2026-01-17 10:10:46.06	337.68	15.12	-84.3	-88.8	2.0	3.10e+01	0	47	104	0	60	1048574
2026-01-17 10:10:48.08	337.67	14.88	-83.9	-88.8	2.2	3.10e+01	0	47	104	0	60	1048574
2026-01-17 10:10:50.09	337.66	14.65	-84.3	-88.8	2.1	3.10e+01	0	47	104	0	60	1048574
2026-01-17 10:10:52.11	337.65	14.42	-83.9	-88.8	2.3	3.10e+01	0	47	104	0	60	1048574
2026-01-17 10:10:54.12	337.64	14.19	-84.3	-88.8	2.1	3.10e+01	0	47	104	0	60	1048574
2026-01-17 10:10:56.14	337.64	13.97	-84.3	-88.8	2.6	3.10e+01	0	47	104	0	60	1048574
2026-01-17 10:10:58.15	337.63	13.75	-83.9	-88.8	2.4	3.10e+01	0	47	104	0	60	1048574
2026-01-17 10:11:00.16	337.62	13.53	-84.3	-88.8	2.1	3.10e+01	0	47	104	0	60	1048574
2026-01-17 10:11:02.17	337.62	13.31	-83.9	-88.8	2.2	3.10e+01	0	47	104	0	60	1048574
2026-01-17 10:11:04.18	337.61	13.09	-84.3	-88.8	2.1	3.10e+01	0	47	104	0	60	1048574
2026-01-17 10:11:06.19	337.60	12.88	-84.3	-88.8	2.1	3.10e+01	0	47	104	0	60	1048574
2026-01-17 10:11:08.21	337.60	12.67	-84.3	-88.8	2.1	3.10e+01	0	47	104	0	60	1048574
2026-01-17 10:11:10.22	337.59	12.46	-84.3	-88.8	2.1	3.10e+01	0	47	104	0	60	1048574
2026-01-17 10:11:12.24	337.59	12.25	-83.9	-88.8	2.0	3.10e+01	0	47	104	0	60	1048574
2026-01-17 10:11:14.25	337.58	12.04	-84.3	-88.8	1.8	3.10e+01	0	47	104	0	60	1048574
2026-01-17 10:11:16.27	337.58	11.84	-83.9	-88.8	2.1	3.10e+01	0	47	104	0	60	1048574
2026-01-17 10:11:18.29	337.57	11.63	-84.3	-88.8	2.0	3.10e+01	0	47	104	0	60	1048574
2026-01-17 10:11:20.30	337.57	11.43	-84.3	-88.8	2.3	3.10e+01	0	47	104	0	60	1048574
2026-01-17 10:11:22.32	337.56	11.24	-83.9	-88.8	2.3	3.10e+01	0	47	104	0	60	1048574
2026-01-17 10:11:24.33	337.56	11.04	-84.3	-88.8	2.0	3.10e+01	0	47	104	0	60	1048574
2026-01-17 10:11:26.34	337.56	10.84	-83.9	-88.8	2.2	3.10e+01	0	47	104	0	60	1048574
2026-01-17 10:11:28.36	337.55	10.65	-84.3	-88.8	2.1	3.10e+01	0	47	104	0	60	1048574
2026-01-17 10:11:30.37	337.55	10.46	-84.3	-88.8	1.9	3.10e+01	0	47	104	0	60	1048574
2026-01-17 10:11:32.38	337.54	10.27	-84.3	-88.8	2.1	3.10e+01	0	47	104	0	60	1048574
2026-01-17 10:11:34.39	337.54	10.08	-84.3	-88.8	2.1	3.10e+01	0	47	104	0	60	1048574
2026-01-17 10:11:36.40	337.54	9.89	-83.9	-88.8	1.9	3.10e+01	0	47	104	0	60	1048574
2026-01-17 10:11:38.42	337.53	9.71	-84.3	-88.8	2.0	3.10e+01	0	47	104	0	60	1048574
2026-01-17 10:11:40.43	337.53	9.53	-83.9	-88.8	1.9	3.10e+01	0	47	104	0	60	1048574
2026-01-17 10:11:42.45	337.53	9.34	-84.3	-88.8	2.0	3.10e+01	0	47	104	0	60	1048574
2026-01-17 10:11:44.46	337.53	9.16	-84.3	-88.8	1.8	3.10e+01	0	47	104	0	60	1048574
2026-01-17 10:11:46.47	337.52	8.98	-84.3	-88.8	2.4	3.10e+01	0	47	104	0	60	1048574
2026-01-17 10:11:48.48	337.52	8.81	-84.3	-88.8	2.3	3.10e+01	0	47	104	0	60	1048574
2026-01-17 10:11:50.49	337.52	8.63	-83.5	-88.8	2.3	3.10e+01	0	47	104	0	60	1048574
2026-01-17 10:11:52.49	337.52	8.46	-84.3	-88.8	2.1	3.10e+01	0	47	104	0	60	1048574
2026-01-17 10:11:54.50	337.52	8.28	-83.9	-88.8	2.1	3.10e+01	0	47	104	0	60	1048574
2026-01-17 10:11:56.52	337.51	8.11	-84.3	-88.8	2.1	3.10e+01	0	47	104	0	60	1048574
2026-01-17 10:11:58.53	337.51	7.94	-84.3	-88.8	2.0	3.10e+01	0	47	104	0	60	1048574
2026-01-17 10:12:00.55	337.51	7.77	-83.9	-88.8	2.0	3.10e+01	0	47	104	0	60	1048574
2026-01-17 10:12:02.55	337.51	7.60	-84.3	-88.8	2.2	3.10e+01	0	47	104	0	60	1048574
2026-01-17 10:12:04.57	337.51	7.43	-83.9	-88.8	2.1	3.10e+01	0	47	104	0	60	1048574
2026-01-17 10:12:06.58	337.51	7.27	-84.3	-88.8	1.9	3.10e+01	0	47	104	0	60	1048574
2026-01-17 10:12:08.59	337.51	7.10	-83.9	-88.8	2.1	3.10e+01	0	47	104	0	60	1048574
2026-01-17 10:12:10.60	337.51	6.94	-84.3	-88.8	2.0	3.10e+01	0	47	104	0	60	1048574
2026-01-17 10:12:12.61	337.51	6.78	-84.3	-88.8	2.1	3.10e+01	0	47	104	0	60	1048574
2026-01-17 10:12:14.62	337.51	6.62	-83.9	-88.8	2.3	3.10e+01	0	47	104	0	60	1048574
2026-01-17 10:12:16.64	337.50	6.45	-84.3	-88.8	2.1	3.10e+01	0	47	104	0	60	1048574
2026-01-17 10:12:18.65	337.50	6.30	-83.9	-88.8	2.0	3.10e+01	0	47	104	0	60	1048574
2026-01-17 10:12:20.66	337.50	6.14	-84.3	-88.8	2.3	3.10e+01	0	47	104	0	60	1048574
2026-01-17 10:12:22.67	337.50	5.98	-83.9	-88.8	2.1	3.10e+01	0	47	104	0	60	1048574
2026-01-17 10:12:24.68	337.50	5.83	-84.3	-88.8	2.1	3.10e+01	0	47	104	0	60	1048574
2026-01-17 10:12:26.69	337.50	5.67	-84.3	-88.8	2.3	3.10e+01	0	47	104	0	60	1048574
2026-01-17 10:12:28.70	337.50	5.52	-83.9	-88.8	2.1	3.10e+01	0	47	104	0	60	1048574
2026-01-17 10:12:30.71	337.50	5.36	-84.3	-88.8	1.9	3.10e+01	0	47	104	0	60	1048574
2026-01-17 10:12:32.73	337.50	5.21	-83.9	-88.8	2.0	3.10e+01	0	47	104	0	60	1048574
2026-01-17 10:12:34.75	337.51	5.06	-84.3	-88.8	2.1	3.10e+01	0	47	104	0	60	1048574
2026-01-17 10:12:36.76	337.51	4.91	-84.3	-88.8	1.9	3.10e+01	0	47	104	0	60	1048574
2026-01-17 10:12:38.78	337.51	4.76	-83.9	-88.8	2.1	3.10e+01	0	47	104	0	60	1048574
2026-01-17 10:12:40.79	337.51	4.61	-84.3	-88.8	2.1	3.10e+01	0	47	104	0	60	1048574
2026-01-17 10:12:42.80	337.51	4.47	-83.9	-88.8	2.0	3.10e+01	0	47	104	0	60	1048574
2026-01-17 10:12:44.81	337.51	4.32	-84.3	-88.8	2.1	3.10e+01	0	47	104	0	60	1048574
2026-01-17 10:12:46.82	337.51	4.17	-83.9	-88.8	2.2	3.10e+01	0	47	104	0	60	1048574
2026-01-17 10:12:48.84	337.51	4.03	-84.3	-88.8	2.2	3.10e+01	0	47	104	0	60	1048574
2026-01-17 10:12:50.85	337.51	3.88	-84.3	-88.8	2.3	3.10e+01	0	47	104	0	60	1048574
2026-01-17 10:12:52.87	337.51	3.74	-84.3	-88.8	2.2	3.10e+01	0	47	104	0	60	1048574
2026-01-17 10:12:54.87	337.51	3.60	-84.3	-88.8	2.3	3.10e+01	0	47	104	0	60	1048574
2026-01-17 10:12:56.88	337.52	3.46	-83.9	-88.8	2.0	3.10e+01	0	47	104	0	60	1048574
2026-01-17 10:12:58.88	337.52	3.32	-84.3	-88.8	1.9	3.10e+01	0	47	104	0	60	1048574
2026-01-17 10:13:00.88	337.52	3.18	-83.9	-88.8	2.1	3.10e+01	0	47	104	0	60	1048574
2026-01-17 10:13:02.89	337.52	3.04	-84.3	-88.8	2.1	3.10e+01	0	47	104	0	60	1048574
2026-01-17 10:13:04.90	337.52	2.90	-84.3	-88.8	2.2	3.10e+01	0	47	104	0	60	1048574
2026-01-17 10:13:06.91	337.52	2.77	-83.9	-88.8	2.0	3.10e+01	0	47	104	0	60	1048574
2026-01-17 10:13:08.92	337.53	2.63	-84.3	-88.8	2.4	3.10e+01	0	47	104	0	60	1048574
2026-01-17 10:13:10.93	337.53	2.49	-83.9	-88.8	2.2	3.10e+01	0	47	104	0	60	1048574
2026-01-17 10:13:12.94	337.53	2.36	-83.9	-88.8	1.9	3.10e+01	0	47	104	0	60	1048574
2026-01-17 10:13:14.95	337.53	2.22	-84.3	-88.8	2.1	3.10e+01	0	47	104	0	60	1048574
2026-01-17 10:13:16.96	337.53	2.09	-84.3	-88.8	2.0	3.10e+01	0	47	104	0	60	1048574
2026-01-17 10:13:18.97	337.54	1.96	-84.3	-88.8	2.2	3.10e+01	0	47	104	0	60	1048574
2026-01-17 10:13:20.98	337.54	1.83	-83.9	-88.8	2.4	3.10e+01	0	47	104	0	60	1048574
2026-01-17 10:13:22.99	337.54	1.69	-84.3	-88.8	2.3	3.10e+01	0	47	104	0	60	1048574
2026-01-17 10:13:25.00	337.54	1.56	-83.9	-88.8	2.0	3.10e+01	0	47	104	0	60	1048574
2026-01-17 10:13:27.01	337.55	1.43	-83.9	-88.8	2.0	3.10e+01	0	47	104	0	60	1048574
2026-01-17 10:13:29.03	337.55	1.30	-84.3	-88.8	2.2	3.10e+01	0	47	104	0	60	1048574
2026-01-17 10:13:31.04	337.55	1.17	-84.3	-88.8	2.4	3.10e+01	0	47	104	0	60	1048574
2026-01-17 10:13:33.06	337.55	1.04	-84.3	-88.8	2.3	3.10e+01	0	47	104	0	60	1048574
2026-01-17 10:13:35.07	337.56	0.92	-83.9	-88.8	2.1	3.10e+01	0	47	104	0	60	1048574
2026-01-17 10:13:37.09	337.56	0.79	-84.3	-88.8	2.2	3.10e+01	0	47	104	0	60	1048574
2026-01-17 10:13:39.09	337.56	0.66	-83.9	-88.8	2.2	3.10e+01	0	47	104	0	60	1048574
2026-01-17 10:13:41.11	337.56	0.54	-84.3	-88.8	2.0	3.10e+01	0	47	104	0	60	1048574
2026-01-17 10:13:43.12	337.57	0.41	-84.3	-88.8	2.3	3.10e+01	0	47	104	0	60	1048574
2026-01-17 10:13:45.13	337.57	0.29	-83.9	-88.8	2.2	3.10e+01	0	47	104	0	60	1048574
2026-01-17 10:13:47.15	337.57	0.16	-84.3	-88.8	2.0	3.10e+01	0	47	104	0	60	1048574
2026-01-17 10:13:49.16	337.58	0.04	-83.9	-88.8	2.2	3.10e+01	0	47	104	0	60	1048574
2026-01-17 10:13:51.18	337.58	-0.09	-84.3	-88.8	1.9	3.10e+01	0	47	104	0	60	1048574

#Closed at: 2026-01-17 10:13:52
#Recorded file [0 MB]: D:/Data/35015_260117_130756.dat