passes_logs/2026/01/17/R3.2S-Naryan-Mar/R3.2S-Naryan-Mar__20260117_070916_SUOMI_NPP_rec.log

#Pass ID: 20260117_070916_SUOMI NPP
#Satellite: SUOMI NPP
#Configuration: NPP
#almurnet v.1.7.20240730
#Start time: 2026-01-17 07:14:20

#Version: 2.2.20231116
#Station: R3.2S-Naryan-Mar
#Location: 53.008057 lon 67.646978 lat
#TLE: 1 37849U 11061A   26016.23176763  .00000061  00000+0  49926-4 0  9990
#TLE: 2 37849  98.7812 318.2698 0002434  61.5135 298.6286 14.19525545736883

#Time	Az	El	Level	Level2	SNR	BER	BlckErr	Temp	State	Recorded	gain1	gain2
2026-01-17 07:14:20.10	104.13	27.90	-83.5	-79.0	2.4	0.00e+00	0	48	0	0	60	1048570
2026-01-17 07:14:23.11	103.60	28.35	-85.2	-88.6	3.3	1.56e+00	0	48	104	0	60	1048570
2026-01-17 07:14:26.13	103.04	28.81	-85.2	-88.6	2.9	1.55e+00	0	48	104	0	60	1048574
2026-01-17 07:14:29.15	102.47	29.26	-83.9	-88.6	3.0	1.56e+00	0	48	104	0	60	1048575
2026-01-17 07:14:32.18	101.88	29.73	-85.2	-88.6	2.9	1.56e+00	0	48	104	0	60	1048574
2026-01-17 07:14:35.20	101.28	30.20	-85.2	-88.6	3.0	1.55e+00	0	48	104	0	60	1048574
2026-01-17 07:14:38.22	100.65	30.67	-85.2	-88.6	2.9	1.56e+00	0	48	104	0	60	1048575
2026-01-17 07:14:41.23	100.01	31.14	-85.2	-88.6	2.8	1.56e+00	0	48	104	0	60	1048574
2026-01-17 07:14:44.25	99.35	31.62	-85.2	-88.6	3.1	1.56e+00	0	48	104	0	60	1048573
2026-01-17 07:14:47.28	98.67	32.11	-85.2	-88.6	3.0	1.56e+00	0	48	104	0	60	1048574
2026-01-17 07:14:50.30	97.97	32.59	-85.2	-88.6	3.1	1.55e+00	0	48	104	0	60	1048572
2026-01-17 07:14:53.32	97.24	33.08	-85.2	-88.6	3.0	1.56e+00	0	48	104	0	60	1048575
2026-01-17 07:14:56.34	96.49	33.57	-85.2	-88.6	3.1	1.56e+00	0	48	104	0	60	1048574
2026-01-17 07:14:59.36	95.72	34.07	-85.2	-88.6	2.9	1.55e+00	0	48	104	0	60	1048574
2026-01-17 07:15:02.38	94.93	34.56	-85.2	-88.6	3.2	1.56e+00	0	48	104	0	60	1048571
2026-01-17 07:15:05.41	94.11	35.06	-85.2	-88.6	3.3	1.56e+00	0	48	104	0	60	1048574
2026-01-17 07:15:08.42	93.27	35.55	-85.2	-88.6	3.2	1.56e+00	0	47	104	0	60	1048569
2026-01-17 07:15:11.44	92.40	36.05	-85.2	-88.6	3.0	1.56e+00	0	47	104	0	60	1048575
2026-01-17 07:15:14.45	91.50	36.55	-85.2	-88.6	3.0	1.55e+00	0	47	104	0	60	1048575
2026-01-17 07:15:17.47	90.58	37.04	-85.2	-88.6	3.0	1.56e+00	0	48	104	0	60	1048575
2026-01-17 07:15:20.50	89.62	37.54	-85.2	-88.6	2.9	1.55e+00	0	48	104	0	60	1048575
2026-01-17 07:15:23.52	88.64	38.03	-85.2	-88.6	3.1	1.56e+00	0	48	104	0	60	1048573
2026-01-17 07:15:26.55	87.62	38.53	-85.2	-88.6	3.0	1.55e+00	0	48	104	0	60	1048572
2026-01-17 07:15:29.56	86.58	39.01	-85.2	-88.6	3.1	1.56e+00	0	48	104	0	60	1048575
2026-01-17 07:15:32.58	85.50	39.49	-85.2	-88.6	3.0	1.55e+00	0	47	104	0	60	1048575
2026-01-17 07:15:35.61	84.39	39.97	-85.2	-88.6	2.9	1.56e+00	0	47	104	0	60	1048575
2026-01-17 07:15:38.63	83.25	40.44	-85.2	-88.6	3.0	1.56e+00	0	47	104	0	60	1048575
2026-01-17 07:15:41.65	82.07	40.91	-85.2	-88.6	2.8	1.56e+00	0	47	104	0	60	1048575
2026-01-17 07:15:44.67	80.86	41.36	-85.2	-88.6	3.1	1.55e+00	0	48	104	0	60	1048575
2026-01-17 07:15:47.69	79.62	41.81	-85.2	-88.6	3.0	1.56e+00	0	47	104	0	60	1048574
2026-01-17 07:15:50.71	78.34	42.24	-85.2	-88.6	3.2	1.56e+00	0	47	104	0	60	1048575
2026-01-17 07:15:53.73	77.03	42.67	-84.7	-88.6	3.1	1.56e+00	0	47	104	0	60	1048575
2026-01-17 07:15:56.75	75.68	43.08	-85.2	-88.6	3.1	1.56e+00	0	47	104	0	60	1048571
2026-01-17 07:15:59.76	74.30	43.47	-85.2	-88.6	2.9	1.55e+00	0	47	104	0	60	1048570
2026-01-17 07:16:02.78	72.88	43.86	-85.2	-88.6	3.0	1.56e+00	0	47	104	0	60	1048574
2026-01-17 07:16:05.80	71.43	44.22	-85.2	-88.6	2.9	1.55e+00	0	47	104	0	60	1048575
2026-01-17 07:16:08.83	69.94	44.57	-85.2	-88.6	2.9	1.56e+00	0	47	104	0	60	1048575
2026-01-17 07:16:11.84	68.43	44.90	-85.2	-88.6	3.2	1.56e+00	0	47	104	0	60	1048575
2026-01-17 07:16:14.86	66.89	45.20	-85.2	-88.6	3.0	1.56e+00	0	47	104	0	60	1048573
2026-01-17 07:16:17.88	65.31	45.49	-85.2	-88.6	3.0	1.56e+00	0	47	104	0	60	1048574
2026-01-17 07:16:20.89	63.71	45.75	-85.2	-88.6	3.2	1.56e+00	0	47	104	0	60	1048575
2026-01-17 07:16:23.91	62.09	46.00	-85.2	-88.6	2.9	1.56e+00	0	47	104	0	60	1048575
2026-01-17 07:16:26.93	60.43	46.21	-85.2	-88.6	2.9	1.56e+00	0	47	104	0	60	1048575
2026-01-17 07:16:29.96	58.75	46.40	-85.2	-88.6	3.2	1.55e+00	0	47	104	0	60	1048574
2026-01-17 07:16:32.97	57.07	46.56	-85.2	-88.6	3.1	1.56e+00	0	47	104	0	60	1048575
2026-01-17 07:16:35.99	55.36	46.70	-85.2	-88.6	3.3	1.55e+00	0	47	104	0	60	1048574
2026-01-17 07:16:39.01	53.63	46.81	-85.2	-88.6	3.0	1.56e+00	0	47	104	0	60	1048573
2026-01-17 07:16:42.03	51.90	46.89	-85.2	-88.6	3.1	1.55e+00	0	47	104	0	60	1048574
2026-01-17 07:16:45.06	50.16	46.94	-85.2	-88.6	2.7	1.56e+00	0	47	104	0	60	1048575
2026-01-17 07:16:48.08	48.41	46.96	-85.2	-88.6	3.1	1.55e+00	0	47	104	0	60	1048573
2026-01-17 07:16:51.10	46.67	46.95	-85.2	-88.6	3.2	1.56e+00	0	47	104	0	60	1048573
2026-01-17 07:16:54.11	44.93	46.92	-85.2	-88.6	3.2	1.56e+00	0	47	104	0	60	1048575
2026-01-17 07:16:57.14	43.19	46.85	-85.2	-88.6	3.1	1.56e+00	0	47	104	0	60	1048575
2026-01-17 07:17:00.15	41.47	46.76	-85.2	-88.6	3.1	1.56e+00	0	47	104	0	60	1048574
2026-01-17 07:17:03.17	39.75	46.64	-85.2	-88.6	2.8	1.55e+00	0	47	104	0	60	1048572
2026-01-17 07:17:06.19	38.05	46.49	-85.2	-88.6	3.0	1.56e+00	0	47	104	0	60	1048574
2026-01-17 07:17:09.21	36.37	46.31	-85.2	-88.6	2.9	1.55e+00	0	47	104	0	60	1048575
2026-01-17 07:17:12.22	34.71	46.11	-85.2	-88.6	3.0	1.55e+00	0	47	104	0	60	1048575
2026-01-17 07:17:15.24	33.07	45.88	-85.2	-88.6	3.0	1.55e+00	0	47	104	0	60	1048575
2026-01-17 07:17:18.26	31.46	45.63	-85.2	-88.6	3.0	1.56e+00	0	47	104	0	60	1048573
2026-01-17 07:17:21.28	29.87	45.36	-85.2	-88.6	2.9	1.56e+00	0	47	104	0	60	1048572
2026-01-17 07:17:24.30	28.31	45.06	-85.2	-88.6	3.0	1.56e+00	0	47	104	0	60	1048575
2026-01-17 07:17:27.32	26.78	44.74	-85.2	-88.6	3.0	1.56e+00	0	47	104	0	60	1048571
2026-01-17 07:17:30.35	25.28	44.40	-85.2	-88.6	3.2	1.56e+00	0	47	104	0	60	1048574
2026-01-17 07:17:33.36	23.82	44.05	-85.2	-88.6	2.8	1.56e+00	0	47	104	0	60	1048575
2026-01-17 07:17:36.38	22.39	43.68	-85.2	-88.6	3.1	1.56e+00	0	47	104	0	60	1048575
2026-01-17 07:17:39.40	20.99	43.29	-85.2	-88.6	3.2	1.55e+00	0	47	104	0	60	1048574
2026-01-17 07:17:42.43	19.62	42.88	-85.2	-88.6	3.1	1.56e+00	0	47	104	0	60	1048574
2026-01-17 07:17:45.45	18.29	42.47	-85.2	-88.6	3.0	1.56e+00	0	47	104	0	60	1048574
2026-01-17 07:17:48.47	17.00	42.04	-85.2	-88.6	2.9	1.56e+00	0	47	104	0	60	1048575
2026-01-17 07:17:51.49	15.74	41.60	-85.2	-88.6	3.0	1.56e+00	0	47	104	0	60	1048575
2026-01-17 07:17:54.51	14.51	41.15	-85.2	-88.6	2.9	1.56e+00	0	47	104	0	60	1048574
2026-01-17 07:17:57.54	13.32	40.69	-85.2	-88.6	3.0	1.56e+00	0	47	104	0	60	1048574
2026-01-17 07:18:00.56	12.16	40.22	-85.2	-88.6	3.0	1.56e+00	0	47	104	0	60	1048575
2026-01-17 07:18:03.58	11.04	39.75	-85.2	-88.6	2.9	1.56e+00	0	47	104	0	60	1048574
2026-01-17 07:18:06.61	9.94	39.27	-85.2	-88.6	3.3	1.56e+00	0	47	104	0	60	1048574
2026-01-17 07:18:09.62	8.89	38.79	-85.2	-88.6	3.0	1.55e+00	0	47	104	0	60	1048575
2026-01-17 07:18:12.65	7.86	38.30	-85.2	-88.6	3.0	1.56e+00	0	47	104	0	60	1048574
2026-01-17 07:18:15.67	6.86	37.81	-85.2	-88.6	2.9	1.55e+00	0	47	104	0	60	1048571
2026-01-17 07:18:18.68	5.90	37.32	-85.2	-88.6	2.9	1.56e+00	0	47	104	0	60	1048575
2026-01-17 07:18:21.70	4.96	36.82	-85.2	-88.6	3.2	1.55e+00	0	47	104	0	60	1048574
2026-01-17 07:18:24.72	4.05	36.33	-85.2	-88.6	2.8	1.55e+00	0	47	104	0	60	1048574
2026-01-17 07:18:27.74	3.17	35.83	-85.2	-88.6	3.1	1.56e+00	0	47	104	0	60	1048575
2026-01-17 07:18:30.76	2.32	35.34	-85.2	-88.6	3.0	1.56e+00	0	47	104	0	60	1048575
2026-01-17 07:18:33.78	1.49	34.84	-85.2	-88.6	3.0	1.56e+00	0	47	104	0	60	1048569
2026-01-17 07:18:36.80	0.68	34.35	-85.2	-88.6	3.2	1.56e+00	0	47	104	0	60	1048575
2026-01-17 07:18:39.83	359.90	33.85	-85.2	-88.6	3.1	1.55e+00	0	47	104	0	60	1048575
2026-01-17 07:18:42.85	359.14	33.36	-85.2	-88.6	2.8	1.56e+00	0	47	104	0	60	1048574
2026-01-17 07:18:45.88	358.41	32.87	-85.2	-88.6	3.1	1.56e+00	0	47	104	0	60	1048575
2026-01-17 07:18:48.90	357.70	32.39	-85.2	-88.6	3.0	1.56e+00	0	47	104	0	60	1048572
2026-01-17 07:18:51.91	357.01	31.90	-85.2	-88.6	2.9	1.56e+00	0	47	104	0	60	1048575
2026-01-17 07:18:54.93	356.34	31.43	-85.2	-88.6	3.0	1.56e+00	0	47	104	0	60	1048574
2026-01-17 07:18:57.95	355.69	30.95	-85.2	-88.6	3.1	1.56e+00	0	47	104	0	60	1048575
2026-01-17 07:19:00.98	355.06	30.48	-85.2	-88.6	3.0	1.55e+00	0	47	104	0	60	1048574
2026-01-17 07:19:04.00	354.44	30.01	-85.2	-88.6	3.1	1.56e+00	0	47	104	0	60	1048575
2026-01-17 07:19:07.02	353.85	29.54	-85.2	-88.6	3.0	1.55e+00	0	47	104	0	60	1048573
2026-01-17 07:19:10.04	353.27	29.08	-85.2	-88.6	2.9	1.56e+00	0	47	104	0	60	1048575
2026-01-17 07:19:13.05	352.71	28.63	-85.2	-88.6	3.1	1.55e+00	0	47	104	0	60	1048575
2026-01-17 07:19:16.07	352.17	28.18	-85.2	-88.6	3.2	1.56e+00	0	47	104	0	60	1048575
2026-01-17 07:19:19.09	351.64	27.73	-85.2	-88.6	3.0	1.56e+00	0	47	104	0	60	1048573
2026-01-17 07:19:22.11	351.12	27.29	-85.2	-88.6	3.2	1.56e+00	0	47	104	0	60	1048574
2026-01-17 07:19:25.14	350.62	26.85	-85.2	-88.6	3.1	1.55e+00	0	47	104	0	60	1048575
2026-01-17 07:19:28.16	350.13	26.41	-85.2	-88.6	3.0	1.55e+00	0	47	104	0	60	1048575
2026-01-17 07:19:31.18	349.66	25.98	-85.2	-88.6	2.9	1.55e+00	0	47	104	0	60	1048573
2026-01-17 07:19:34.20	349.20	25.56	-85.2	-88.6	3.1	1.56e+00	0	47	104	0	60	1048575
2026-01-17 07:19:37.22	348.75	25.14	-85.2	-88.6	3.1	1.55e+00	0	47	104	0	60	1048575
2026-01-17 07:19:40.22	348.32	24.73	-85.2	-88.6	2.9	1.56e+00	0	47	104	0	60	1048575
2026-01-17 07:19:43.25	347.89	24.32	-85.2	-88.6	3.0	1.56e+00	0	47	104	0	60	1048573
2026-01-17 07:19:46.27	347.48	23.91	-85.2	-88.6	2.9	1.56e+00	0	47	104	0	60	1048575
2026-01-17 07:19:49.29	347.08	23.51	-82.8	-88.6	3.0	1.56e+00	0	47	104	0	60	1048575
2026-01-17 07:19:52.30	346.68	23.12	-85.2	-88.6	2.9	1.56e+00	0	47	104	0	60	1048575
2026-01-17 07:19:55.32	346.30	22.72	-85.2	-88.6	3.1	1.56e+00	0	47	104	0	60	1048574
2026-01-17 07:19:58.34	345.93	22.34	-85.2	-88.6	3.0	1.56e+00	0	47	104	0	60	1048575
2026-01-17 07:20:01.37	345.56	21.95	-85.2	-88.6	3.2	1.56e+00	0	47	104	0	60	1048573
2026-01-17 07:20:04.39	345.21	21.57	-85.2	-88.6	2.9	1.55e+00	0	47	104	0	60	1048574
2026-01-17 07:20:07.41	344.86	21.20	-85.2	-88.6	2.9	1.56e+00	0	47	104	0	60	1048574
2026-01-17 07:20:10.43	344.53	20.83	-85.2	-88.6	2.9	1.56e+00	0	47	104	0	60	1048573
2026-01-17 07:20:13.45	344.20	20.47	-85.2	-88.6	3.2	1.55e+00	0	47	104	0	60	1048575
2026-01-17 07:20:16.47	343.88	20.10	-85.2	-88.6	3.1	1.55e+00	0	47	104	0	60	1048575
2026-01-17 07:20:19.48	343.57	19.75	-85.2	-88.6	3.0	1.56e+00	0	47	104	0	60	1048574
2026-01-17 07:20:22.51	343.26	19.40	-85.2	-88.6	2.9	1.56e+00	0	47	104	0	60	1048575
2026-01-17 07:20:25.52	342.96	19.05	-85.2	-88.6	3.2	1.56e+00	0	47	104	0	60	1048573
2026-01-17 07:20:28.54	342.67	18.70	-85.2	-88.6	3.2	1.55e+00	0	47	104	0	60	1048573
2026-01-17 07:20:31.56	342.38	18.36	-85.2	-88.6	3.2	1.55e+00	0	47	104	0	60	1048573
2026-01-17 07:20:34.58	342.11	18.03	-84.7	-88.6	3.0	1.55e+00	0	47	104	0	60	1048575
2026-01-17 07:20:37.60	341.83	17.69	-85.2	-88.6	2.9	1.56e+00	0	47	104	0	60	1048574
2026-01-17 07:20:40.62	341.57	17.37	-85.2	-88.6	3.1	1.56e+00	0	47	104	0	60	1048572
2026-01-17 07:20:43.63	341.31	17.04	-85.2	-88.6	3.1	1.56e+00	0	47	104	0	60	1048574
2026-01-17 07:20:46.65	341.05	16.72	-85.2	-88.6	3.0	1.56e+00	0	47	104	0	60	1048575
2026-01-17 07:20:49.67	340.81	16.40	-84.7	-88.6	2.9	1.56e+00	0	47	104	0	60	1048574
2026-01-17 07:20:52.69	340.56	16.09	-85.2	-88.6	3.0	1.56e+00	0	47	104	0	60	1048575
2026-01-17 07:20:55.72	340.32	15.78	-85.2	-88.6	2.9	1.56e+00	0	47	104	0	60	1048573
2026-01-17 07:20:58.74	340.09	15.47	-85.2	-88.6	2.9	1.56e+00	0	47	104	0	60	1048573
2026-01-17 07:21:01.75	339.86	15.16	-85.2	-88.6	3.2	1.56e+00	0	47	104	0	60	1048573
2026-01-17 07:21:04.77	339.64	14.86	-85.2	-88.6	3.0	1.56e+00	0	47	104	0	60	1048574
2026-01-17 07:21:07.79	339.42	14.57	-85.2	-88.6	3.0	1.56e+00	0	47	104	0	60	1048573
2026-01-17 07:21:10.81	339.21	14.27	-85.2	-88.6	2.9	1.56e+00	0	47	104	0	60	1048575
2026-01-17 07:21:13.83	339.00	13.98	-85.2	-88.6	3.1	1.55e+00	0	47	104	0	60	1048575
2026-01-17 07:21:16.86	338.79	13.69	-85.2	-88.6	2.7	1.55e+00	0	47	104	0	60	1048575
2026-01-17 07:21:19.87	338.59	13.41	-85.2	-88.6	3.0	1.55e+00	0	47	104	0	60	1048575
2026-01-17 07:21:22.90	338.39	13.12	-85.2	-88.6	3.0	1.55e+00	0	47	104	0	60	1048575
2026-01-17 07:21:25.92	338.20	12.84	-85.2	-88.6	3.1	1.55e+00	0	47	104	0	60	1048574
2026-01-17 07:21:28.95	338.01	12.57	-85.2	-88.6	2.9	1.55e+00	0	47	104	0	60	1048574
2026-01-17 07:21:31.97	337.82	12.29	-85.2	-88.6	3.1	1.56e+00	0	47	104	0	60	1048575
2026-01-17 07:21:34.98	337.64	12.02	-85.2	-88.6	3.2	1.56e+00	0	47	104	0	60	1048575
2026-01-17 07:21:38.01	337.46	11.75	-85.2	-88.6	3.0	1.55e+00	0	47	104	0	60	1048574
2026-01-17 07:21:41.04	337.29	11.49	-85.2	-88.6	2.8	1.56e+00	0	47	104	0	60	1048575
2026-01-17 07:21:44.06	337.12	11.22	-85.2	-88.6	3.2	1.55e+00	0	47	104	0	60	1048574
2026-01-17 07:21:47.08	336.95	10.96	-85.2	-88.6	3.0	1.55e+00	0	47	104	0	60	1048575
2026-01-17 07:21:50.10	336.78	10.70	-85.2	-88.6	3.2	1.55e+00	0	47	104	0	60	1048575
2026-01-17 07:21:53.10	336.62	10.45	-85.2	-88.6	3.0	1.56e+00	0	47	104	0	60	1048574
2026-01-17 07:21:56.11	336.46	10.20	-85.2	-88.6	2.9	1.55e+00	0	47	104	0	60	1048574
2026-01-17 07:21:59.13	336.31	9.95	-85.2	-88.6	3.0	1.56e+00	0	47	104	0	60	1048574
2026-01-17 07:22:02.15	336.15	9.70	-85.2	-88.6	3.0	1.55e+00	0	47	104	0	60	1048574
2026-01-17 07:22:05.17	336.00	9.45	-85.2	-88.6	2.9	1.56e+00	0	47	104	0	60	1048574
2026-01-17 07:22:08.19	335.85	9.21	-85.2	-88.6	2.9	1.56e+00	0	47	104	0	60	1048575
2026-01-17 07:22:11.21	335.71	8.97	-85.2	-88.6	3.1	1.56e+00	0	47	104	0	60	1048573
2026-01-17 07:22:14.23	335.57	8.73	-85.2	-88.6	3.2	1.56e+00	0	47	104	0	60	1048575
2026-01-17 07:22:17.25	335.43	8.49	-85.2	-88.6	2.9	1.56e+00	0	47	104	0	60	1048575
2026-01-17 07:22:20.27	335.29	8.25	-85.2	-88.6	2.9	1.55e+00	0	47	104	0	60	1048575
2026-01-17 07:22:23.29	335.15	8.02	-85.2	-88.6	3.0	1.56e+00	0	47	104	0	60	1048575
2026-01-17 07:22:26.31	335.02	7.79	-85.2	-88.6	3.0	1.56e+00	0	47	104	0	60	1048575
2026-01-17 07:22:29.34	334.89	7.56	-85.2	-88.6	3.0	1.55e+00	0	47	104	0	60	1048575
2026-01-17 07:22:32.36	334.76	7.33	-85.2	-88.6	3.0	1.56e+00	0	47	104	0	60	1048575
2026-01-17 07:22:35.38	334.63	7.10	-85.2	-88.6	2.9	1.56e+00	0	47	104	0	60	1048574
2026-01-17 07:22:38.40	334.51	6.88	-85.2	-88.6	3.0	1.55e+00	0	47	104	0	60	1048575
2026-01-17 07:22:41.42	334.39	6.65	-85.2	-88.6	2.8	1.56e+00	0	47	104	0	60	1048575
2026-01-17 07:22:44.43	334.27	6.43	-85.2	-88.6	3.0	1.56e+00	0	47	104	0	60	1048575
2026-01-17 07:22:47.45	334.15	6.22	-85.2	-88.6	3.1	1.56e+00	0	47	104	0	60	1048575
2026-01-17 07:22:50.48	334.03	6.00	-85.2	-88.6	2.9	1.55e+00	0	47	104	0	60	1048574
2026-01-17 07:22:53.49	333.92	5.78	-85.2	-88.6	3.0	1.56e+00	0	47	104	0	60	1048575
2026-01-17 07:22:56.50	333.81	5.57	-85.2	-88.6	3.0	1.56e+00	0	47	104	0	60	1048574
2026-01-17 07:22:59.52	333.70	5.36	-85.2	-88.6	3.0	1.56e+00	0	47	104	0	60	1048573
2026-01-17 07:23:02.54	333.59	5.15	-85.2	-88.6	3.0	1.55e+00	0	47	104	0	60	1048575
2026-01-17 07:23:05.56	333.48	4.94	-85.2	-88.6	3.0	1.56e+00	0	47	104	0	60	1048575
2026-01-17 07:23:08.59	333.38	4.73	-85.2	-88.6	3.3	1.56e+00	0	47	104	0	60	1048575
2026-01-17 07:23:11.60	333.27	4.52	-85.2	-88.6	3.0	1.56e+00	0	47	104	0	60	1048575
2026-01-17 07:23:14.62	333.17	4.32	-85.2	-88.6	3.1	1.56e+00	0	47	104	0	60	1048575
2026-01-17 07:23:17.63	333.07	4.12	-85.2	-88.6	3.1	1.55e+00	0	47	104	0	60	1048575
2026-01-17 07:23:20.65	332.97	3.91	-85.2	-88.6	3.1	1.56e+00	0	47	104	0	60	1048575
2026-01-17 07:23:23.66	332.87	3.71	-85.2	-88.6	3.0	1.56e+00	0	47	104	0	60	1048575
2026-01-17 07:23:26.68	332.78	3.52	-85.2	-88.6	3.0	1.56e+00	0	47	104	0	60	1048574
2026-01-17 07:23:29.68	332.68	3.32	-85.2	-88.6	2.9	1.56e+00	0	47	104	0	60	1048575
2026-01-17 07:23:32.69	332.59	3.12	-85.2	-88.6	3.2	1.56e+00	0	47	104	0	60	1048575
2026-01-17 07:23:35.70	332.50	2.93	-85.2	-88.6	3.2	1.56e+00	0	47	104	0	60	1048575
2026-01-17 07:23:38.71	332.41	2.74	-85.2	-88.6	2.8	1.56e+00	0	47	104	0	60	1048575
2026-01-17 07:23:41.73	332.32	2.54	-85.2	-88.6	2.9	1.56e+00	0	47	104	0	60	1048575
2026-01-17 07:23:44.75	332.23	2.35	-85.2	-88.6	3.1	1.56e+00	0	47	104	0	60	1048575
2026-01-17 07:23:47.77	332.15	2.16	-85.2	-88.6	3.0	1.56e+00	0	47	104	0	60	1048575
2026-01-17 07:23:50.79	332.06	1.97	-85.2	-88.6	3.0	1.56e+00	0	47	104	0	60	1048575
2026-01-17 07:23:53.80	331.98	1.79	-85.2	-88.6	3.0	1.56e+00	0	47	104	0	60	1048575
2026-01-17 07:23:56.82	331.90	1.60	-85.2	-88.6	2.8	1.56e+00	0	47	104	0	60	1048573
2026-01-17 07:23:59.84	331.81	1.41	-84.3	-88.6	3.0	1.56e+00	0	47	104	0	60	1048575
2026-01-17 07:24:02.86	331.73	1.23	-85.2	-88.6	3.1	1.56e+00	0	47	104	0	60	1048575
2026-01-17 07:24:05.88	331.65	1.05	-85.2	-88.6	3.1	1.56e+00	0	47	104	0	60	1048573
2026-01-17 07:24:08.89	331.58	0.86	-82.8	-88.6	3.1	1.56e+00	0	47	104	0	60	1048575
2026-01-17 07:24:11.91	331.50	0.68	-85.2	-88.6	3.0	1.56e+00	0	47	104	0	60	1048575
2026-01-17 07:24:14.93	331.42	0.50	-85.2	-88.6	3.0	1.56e+00	0	47	104	0	60	1048574
2026-01-17 07:24:17.95	331.35	0.32	-85.2	-88.6	3.2	1.56e+00	0	47	104	0	60	1048575
2026-01-17 07:24:20.96	331.28	0.15	-85.2	-88.6	3.1	1.56e+00	0	47	104	0	60	1048575
2026-01-17 07:24:23.98	331.20	-0.03	-85.2	-88.6	2.8	1.55e+00	0	47	104	0	60	1048572

#Closed at: 2026-01-17 07:24:25
#Recorded file [0 MB]: D:/Data/35015_260117_101420.dat