passes_logs/2026/01/17/R3.2S-Naryan-Mar/R3.2S-Naryan-Mar__20260117_094534_TY-41_rec.log

#Pass ID: 20260117_094534_TY-41
#Satellite: TY-41
#Configuration: TY-39
#almurnet v.1.7.20240730
#Start time: 2026-01-17 09:45:37

#Version: 2.2.20231116
#Station: R3.2S-Naryan-Mar
#Location: 53.008057 lon 67.646978 lat
#TLE: 1 61231U 24173E   26017.08983796  .00008010  00000-0  38191-3 0 09990
#TLE: 2 61231 097.4122 092.0846 0001831 091.8622 061.7654 15.19167953 72814

#Time	Az	El	Level	Level2	SNR	BER	BlckErr	Temp	State	Recorded	gain1	gain2
2026-01-17 09:45:37.62	23.07	0.17	-85.2	-88.6	3.2	1.56e+00	0	44	0	0	60	1048575
2026-01-17 09:45:40.63	22.88	0.34	-83.5	-79.0	2.4	0.00e+00	0	46	104	0	60	1048570
2026-01-17 09:45:43.65	22.68	0.53	-83.5	-79.0	2.4	0.00e+00	0	46	104	0	60	1048566
2026-01-17 09:45:46.67	22.49	0.71	-83.5	-79.0	2.7	0.00e+00	0	46	104	0	60	1048575
2026-01-17 09:45:49.69	22.29	0.89	-83.1	-79.0	2.5	0.00e+00	0	46	104	0	60	1048575
2026-01-17 09:45:52.71	22.08	1.08	-83.5	-79.0	2.4	0.00e+00	0	46	104	0	60	1048575
2026-01-17 09:45:55.73	21.87	1.26	-83.5	-79.0	2.2	0.00e+00	0	46	104	0	60	1048575
2026-01-17 09:45:58.75	21.66	1.45	-83.1	-79.0	2.5	0.00e+00	0	46	104	0	60	1048567
2026-01-17 09:46:01.77	21.45	1.64	-83.5	-79.0	2.3	0.00e+00	0	46	104	0	60	1048574
2026-01-17 09:46:04.79	21.23	1.83	-83.5	-79.0	2.3	0.00e+00	0	46	104	0	60	1048575
2026-01-17 09:46:07.80	21.01	2.02	-82.8	-79.0	2.4	0.00e+00	0	47	104	0	60	1048574
2026-01-17 09:46:10.82	20.78	2.21	-83.5	-79.0	2.4	0.00e+00	0	47	104	0	60	1048574
2026-01-17 09:46:13.84	20.55	2.41	-83.5	-79.0	2.4	0.00e+00	0	47	104	0	60	1048571
2026-01-17 09:46:16.85	20.32	2.60	-83.5	-79.0	2.3	0.00e+00	0	47	104	0	60	1048570
2026-01-17 09:46:19.86	20.08	2.80	-83.5	-79.0	2.3	0.00e+00	0	47	104	0	60	1048573
2026-01-17 09:46:22.88	19.84	2.99	-83.1	-79.0	2.4	0.00e+00	0	47	104	0	60	1048575
2026-01-17 09:46:25.89	19.60	3.19	-83.5	-79.0	2.5	0.00e+00	0	47	104	0	60	1048571
2026-01-17 09:46:28.91	19.34	3.39	-83.5	-79.0	2.4	0.00e+00	0	47	104	0	60	1048572
2026-01-17 09:46:31.93	19.09	3.60	-82.8	-79.0	2.4	0.00e+00	0	47	104	0	60	1048573
2026-01-17 09:46:34.95	18.83	3.80	-83.5	-79.0	2.4	0.00e+00	0	47	104	0	60	1048574
2026-01-17 09:46:37.97	18.56	4.01	-83.1	-79.0	2.4	0.00e+00	0	47	104	0	60	1048572
2026-01-17 09:46:40.99	18.29	4.21	-83.1	-79.0	2.4	0.00e+00	0	47	104	0	60	1048572
2026-01-17 09:46:44.02	18.01	4.42	-83.1	-79.0	2.4	0.00e+00	0	47	104	0	60	1048572
2026-01-17 09:46:47.04	17.73	4.63	-83.5	-79.0	2.3	0.00e+00	0	47	104	0	60	1048574
2026-01-17 09:46:50.05	17.45	4.84	-83.1	-79.0	2.5	0.00e+00	0	47	104	0	60	1048575
2026-01-17 09:46:53.08	17.16	5.06	-83.5	-79.0	2.5	0.00e+00	0	47	104	0	60	1048575
2026-01-17 09:46:56.10	16.86	5.27	-83.1	-79.0	2.3	0.00e+00	0	47	104	0	60	1048569
2026-01-17 09:46:59.12	16.56	5.49	-83.5	-79.0	2.4	0.00e+00	0	47	104	0	60	1048569
2026-01-17 09:47:02.15	16.24	5.71	-83.5	-79.0	2.4	0.00e+00	0	47	104	0	60	1048567
2026-01-17 09:47:05.17	15.93	5.93	-83.1	-79.0	2.4	0.00e+00	0	47	104	0	60	1048572
2026-01-17 09:47:08.19	15.61	6.15	-83.5	-79.0	2.3	0.00e+00	0	47	104	0	60	1048573
2026-01-17 09:47:11.21	15.28	6.38	-83.5	-79.0	2.5	0.00e+00	0	47	104	0	60	1048574
2026-01-17 09:47:14.23	14.95	6.60	-83.5	-79.0	2.3	0.00e+00	0	47	104	0	60	1048570
2026-01-17 09:47:17.25	14.60	6.83	-83.5	-79.0	2.4	0.00e+00	0	48	104	0	60	1048573
2026-01-17 09:47:20.27	14.26	7.06	-83.1	-79.0	2.3	0.00e+00	0	47	104	0	60	1048575
2026-01-17 09:47:23.30	13.90	7.29	-83.5	-79.0	2.5	0.00e+00	0	47	104	0	60	1048575
2026-01-17 09:47:26.31	13.54	7.52	-83.5	-79.0	2.4	0.00e+00	0	47	104	0	60	1048570
2026-01-17 09:47:29.33	13.17	7.76	-83.1	-79.0	2.4	0.00e+00	0	48	104	0	60	1048575
2026-01-17 09:47:32.35	12.79	7.99	-83.5	-79.0	2.4	0.00e+00	0	47	104	0	60	1048575
2026-01-17 09:47:35.37	12.40	8.23	-83.5	-79.0	2.5	0.00e+00	0	48	104	0	60	1048575
2026-01-17 09:47:38.39	12.01	8.47	-83.1	-79.0	2.3	0.00e+00	0	48	104	0	60	1048575
2026-01-17 09:47:41.41	11.61	8.72	-83.5	-79.0	2.5	0.00e+00	0	48	104	0	60	1048575
2026-01-17 09:47:44.43	11.20	8.96	-83.5	-79.0	2.5	0.00e+00	0	48	104	0	60	1048559
2026-01-17 09:47:47.45	10.78	9.21	-83.5	-79.0	2.5	0.00e+00	0	48	104	0	60	1048568
2026-01-17 09:47:50.47	10.35	9.46	-83.5	-79.0	2.4	0.00e+00	0	48	104	0	60	1048574
2026-01-17 09:47:53.49	9.91	9.71	-83.5	-79.0	2.5	0.00e+00	0	48	104	0	60	1048575
2026-01-17 09:47:56.51	9.46	9.96	-83.5	-79.0	2.5	0.00e+00	0	48	104	0	60	1048571
2026-01-17 09:47:59.54	9.00	10.22	-83.5	-79.0	2.5	0.00e+00	0	48	104	0	60	1048572
2026-01-17 09:48:02.55	8.53	10.47	-83.1	-79.0	2.3	0.00e+00	0	48	104	0	60	1048575
2026-01-17 09:48:05.58	8.05	10.73	-83.5	-79.0	2.4	0.00e+00	0	48	104	0	60	1048571
2026-01-17 09:48:08.60	7.57	10.99	-83.5	-79.0	2.5	0.00e+00	0	48	104	0	60	1048573
2026-01-17 09:48:11.63	7.06	11.25	-83.1	-79.0	2.4	0.00e+00	0	48	104	0	60	1048571
2026-01-17 09:48:14.65	6.55	11.52	-83.5	-79.0	2.2	0.00e+00	0	48	104	0	60	1048574
2026-01-17 09:48:17.66	6.03	11.78	-83.5	-79.0	2.3	0.00e+00	0	48	104	0	60	1048569
2026-01-17 09:48:20.67	5.50	12.05	-83.1	-79.0	2.5	0.00e+00	0	48	104	0	60	1048574
2026-01-17 09:48:23.69	4.95	12.32	-83.5	-79.0	2.4	0.00e+00	0	48	104	0	60	1048575
2026-01-17 09:48:26.70	4.40	12.59	-83.5	-79.0	2.5	0.00e+00	0	48	104	0	60	1048570
2026-01-17 09:48:29.72	3.82	12.86	-83.1	-79.0	2.4	0.00e+00	0	48	104	0	60	1048573
2026-01-17 09:48:32.74	3.24	13.13	-83.5	-79.0	2.5	0.00e+00	0	48	104	0	60	1048573
2026-01-17 09:48:35.76	2.64	13.41	-83.1	-79.0	2.4	0.00e+00	0	48	104	0	60	1048573
2026-01-17 09:48:38.78	2.03	13.69	-83.5	-79.0	2.5	0.00e+00	0	48	104	0	60	1048575
2026-01-17 09:48:41.80	1.41	13.96	-83.1	-79.0	2.4	0.00e+00	0	48	104	0	60	1048573
2026-01-17 09:48:44.82	0.77	14.24	-83.1	-79.0	2.5	0.00e+00	0	48	104	0	60	1048575
2026-01-17 09:48:47.84	0.11	14.52	-83.1	-79.0	2.3	0.00e+00	0	48	104	0	60	1048575
2026-01-17 09:48:50.86	359.44	14.80	-83.5	-79.0	2.4	0.00e+00	0	48	104	0	60	1048572
2026-01-17 09:48:53.88	358.76	15.09	-83.1	-79.0	2.4	0.00e+00	0	48	104	0	60	1048574
2026-01-17 09:48:56.91	358.05	15.37	-83.5	-79.0	2.3	0.00e+00	0	48	104	0	60	1048573
2026-01-17 09:48:59.92	357.34	15.65	-83.1	-79.0	2.5	0.00e+00	0	48	104	0	60	1048575
2026-01-17 09:49:02.94	356.61	15.93	-83.5	-79.0	2.4	0.00e+00	0	48	104	0	60	1048573
2026-01-17 09:49:05.95	355.86	16.21	-83.5	-79.0	2.3	0.00e+00	0	48	104	0	60	1048573
2026-01-17 09:49:08.96	355.10	16.49	-83.1	-79.0	2.3	0.00e+00	0	48	104	0	60	1048573
2026-01-17 09:49:11.98	354.31	16.78	-83.5	-79.0	2.3	0.00e+00	0	48	104	0	60	1048566
2026-01-17 09:49:15.00	353.51	17.06	-83.5	-79.0	2.3	0.00e+00	0	48	104	0	60	1048575
2026-01-17 09:49:18.02	352.69	17.34	-83.1	-79.0	2.5	0.00e+00	0	48	104	0	60	1048572
2026-01-17 09:49:21.04	351.86	17.61	-83.5	-79.0	2.4	0.00e+00	0	48	104	0	60	1048575
2026-01-17 09:49:24.05	351.01	17.89	-83.5	-79.0	2.4	0.00e+00	0	48	104	0	60	1048575
2026-01-17 09:49:27.07	350.13	18.16	-83.5	-79.0	2.4	0.00e+00	0	48	104	0	60	1048568
2026-01-17 09:49:30.10	349.24	18.44	-83.5	-79.0	2.4	0.00e+00	0	48	104	0	60	1048570
2026-01-17 09:49:33.12	348.33	18.71	-83.1	-79.0	2.4	0.00e+00	0	48	104	0	60	1048573
2026-01-17 09:49:36.14	347.40	18.97	-83.5	-79.0	2.4	0.00e+00	0	48	104	0	60	1048575
2026-01-17 09:49:39.15	346.46	19.23	-83.5	-79.0	2.2	0.00e+00	0	48	104	0	60	1048574
2026-01-17 09:49:42.17	345.49	19.49	-83.1	-79.0	2.5	0.00e+00	0	48	104	0	60	1048573
2026-01-17 09:49:45.19	344.50	19.75	-83.5	-79.0	2.5	0.00e+00	0	48	104	0	60	1048570
2026-01-17 09:49:48.22	343.50	20.00	-83.5	-79.0	2.3	0.00e+00	0	48	104	0	60	1048572
2026-01-17 09:49:51.24	342.47	20.24	-83.1	-79.0	2.4	0.00e+00	0	48	104	0	60	1048569
2026-01-17 09:49:54.25	341.43	20.48	-83.5	-79.0	2.4	0.00e+00	0	48	104	0	60	1048575
2026-01-17 09:49:57.27	340.37	20.71	-83.5	-79.0	2.4	0.00e+00	0	48	104	0	60	1048574
2026-01-17 09:50:00.29	339.29	20.93	-83.5	-79.0	2.5	0.00e+00	0	48	104	0	60	1048575
2026-01-17 09:50:03.31	338.20	21.15	-83.5	-79.0	2.5	0.00e+00	0	48	104	0	60	1048573
2026-01-17 09:50:06.33	337.08	21.36	-83.1	-79.0	2.5	0.00e+00	0	48	104	0	60	1048573
2026-01-17 09:50:09.35	335.95	21.56	-83.5	-79.0	2.4	0.00e+00	0	48	104	0	60	1048574
2026-01-17 09:50:12.37	334.81	21.75	-83.5	-79.0	2.5	0.00e+00	0	48	104	0	60	1048569
2026-01-17 09:50:15.39	333.64	21.94	-82.8	-79.0	2.5	0.00e+00	0	48	104	0	60	1048575
2026-01-17 09:50:18.41	332.46	22.11	-83.5	-79.0	2.4	0.00e+00	0	48	104	0	60	1048566
2026-01-17 09:50:21.43	331.27	22.27	-83.1	-79.0	2.5	0.00e+00	0	48	104	0	60	1048570
2026-01-17 09:50:24.44	330.07	22.42	-83.1	-79.0	2.4	0.00e+00	0	48	104	0	60	1048570
2026-01-17 09:50:27.46	328.85	22.56	-83.5	-79.0	2.4	0.00e+00	0	48	104	0	60	1048573
2026-01-17 09:50:30.48	327.61	22.69	-83.5	-79.0	2.5	0.00e+00	0	48	104	0	60	1048568
2026-01-17 09:50:33.50	326.37	22.81	-83.5	-79.0	2.3	0.00e+00	0	49	104	0	60	1048573
2026-01-17 09:50:36.52	325.12	22.91	-83.5	-79.0	2.4	0.00e+00	0	48	104	0	60	1048571
2026-01-17 09:50:39.55	323.85	23.00	-83.1	-79.0	2.5	0.00e+00	0	48	104	0	60	1048570
2026-01-17 09:50:42.57	322.58	23.08	-83.5	-79.0	2.4	0.00e+00	0	48	104	0	60	1048563
2026-01-17 09:50:45.58	321.31	23.14	-83.5	-79.0	2.5	0.00e+00	0	48	104	0	60	1048575
2026-01-17 09:50:48.61	320.03	23.19	-83.1	-79.0	2.3	0.00e+00	0	48	104	0	60	1048573
2026-01-17 09:50:51.63	318.74	23.23	-83.5	-79.0	2.2	0.00e+00	0	48	104	0	60	1048574
2026-01-17 09:50:54.65	317.45	23.25	-83.1	-79.0	2.4	0.00e+00	0	48	104	0	60	1048573
2026-01-17 09:50:57.67	316.16	23.26	-83.5	-79.0	2.4	0.00e+00	0	48	104	0	60	1048570
2026-01-17 09:51:00.69	314.87	23.25	-83.5	-79.0	2.5	0.00e+00	0	48	104	0	60	1048575
2026-01-17 09:51:03.71	313.58	23.23	-83.5	-79.0	2.5	0.00e+00	0	48	104	0	60	1048573
2026-01-17 09:51:06.74	312.29	23.19	-83.5	-79.0	2.4	0.00e+00	0	48	104	0	60	1048575
2026-01-17 09:51:09.76	311.01	23.14	-83.5	-79.0	2.3	0.00e+00	0	48	104	0	60	1048574
2026-01-17 09:51:12.78	309.73	23.08	-83.1	-79.0	2.4	0.00e+00	0	48	104	0	60	1048568
2026-01-17 09:51:15.80	308.46	23.00	-83.5	-79.0	2.3	0.00e+00	0	48	104	0	60	1048568
2026-01-17 09:51:18.82	307.20	22.91	-83.5	-79.0	2.6	0.00e+00	0	48	104	0	60	1048573
2026-01-17 09:51:21.84	305.94	22.81	-82.8	-79.0	2.3	0.00e+00	0	48	104	0	60	1048573
2026-01-17 09:51:24.85	304.70	22.70	-83.5	-79.0	2.5	0.00e+00	0	48	104	0	60	1048575
2026-01-17 09:51:27.88	303.47	22.57	-83.1	-79.0	2.5	0.00e+00	0	48	104	0	60	1048574
2026-01-17 09:51:30.90	302.24	22.43	-83.1	-79.0	2.5	0.00e+00	0	48	104	0	60	1048575
2026-01-17 09:51:33.92	301.03	22.28	-83.5	-79.0	2.4	0.00e+00	0	49	104	0	60	1048574
2026-01-17 09:51:36.94	299.84	22.12	-83.5	-79.0	2.6	0.00e+00	0	48	104	0	60	1048575
2026-01-17 09:51:39.95	298.66	21.94	-83.5	-79.0	2.3	0.00e+00	0	48	104	0	60	1048573
2026-01-17 09:51:42.98	297.49	21.76	-83.5	-79.0	2.6	0.00e+00	0	48	104	0	60	1048571
2026-01-17 09:51:46.00	296.34	21.57	-83.1	-79.0	2.4	0.00e+00	0	48	104	0	60	1048574
2026-01-17 09:51:49.02	295.20	21.37	-83.5	-79.0	2.3	0.00e+00	0	48	104	0	60	1048573
2026-01-17 09:51:52.03	294.09	21.16	-83.5	-79.0	2.3	0.00e+00	0	49	104	0	60	1048569
2026-01-17 09:51:55.04	292.99	20.94	-83.1	-79.0	2.4	0.00e+00	0	49	104	0	60	1048575
2026-01-17 09:51:58.06	291.91	20.72	-83.5	-79.0	2.5	0.00e+00	0	48	104	0	60	1048574
2026-01-17 09:52:01.08	290.85	20.48	-83.1	-79.0	2.3	0.00e+00	0	48	104	0	60	1048574
2026-01-17 09:52:04.11	289.80	20.24	-83.1	-79.0	2.4	0.00e+00	0	48	104	0	60	1048574
2026-01-17 09:52:07.11	288.78	20.00	-83.5	-79.0	2.3	0.00e+00	0	48	104	0	60	1048575
2026-01-17 09:52:10.13	287.77	19.75	-83.5	-79.0	2.6	0.00e+00	0	49	104	0	60	1048573
2026-01-17 09:52:13.15	286.78	19.50	-83.5	-79.0	2.3	0.00e+00	0	48	104	0	60	1048574
2026-01-17 09:52:16.17	285.81	19.24	-83.5	-79.0	2.4	0.00e+00	0	48	104	0	60	1048572
2026-01-17 09:52:19.20	284.85	18.97	-82.8	-79.0	2.4	0.00e+00	0	49	104	0	60	1048572
2026-01-17 09:52:22.22	283.92	18.71	-83.5	-79.0	2.4	0.00e+00	0	48	104	0	60	1048575
2026-01-17 09:52:25.23	283.01	18.44	-83.5	-79.0	2.4	0.00e+00	0	48	104	0	60	1048575
2026-01-17 09:52:28.25	282.11	18.16	-82.8	-79.0	2.4	0.00e+00	0	49	104	0	60	1048572
2026-01-17 09:52:31.26	281.24	17.89	-83.5	-79.0	2.3	0.00e+00	0	48	104	0	60	1048571
2026-01-17 09:52:34.27	280.38	17.61	-83.5	-79.0	2.6	0.00e+00	0	49	104	0	60	1048572
2026-01-17 09:52:37.29	279.54	17.33	-83.5	-79.0	2.4	0.00e+00	0	48	104	0	60	1048575
2026-01-17 09:52:40.31	278.72	17.05	-83.5	-79.0	2.3	0.00e+00	0	49	104	0	60	1048575
2026-01-17 09:52:43.33	277.92	16.77	-83.1	-79.0	2.3	0.00e+00	0	48	104	0	60	1048570
2026-01-17 09:52:46.35	277.13	16.49	-83.5	-79.0	2.5	0.00e+00	0	48	104	0	60	1048573
2026-01-17 09:52:49.37	276.36	16.21	-83.5	-79.0	2.4	0.00e+00	0	49	104	0	60	1048572
2026-01-17 09:52:52.38	275.61	15.92	-83.1	-79.0	2.3	0.00e+00	0	49	104	0	60	1048574
2026-01-17 09:52:55.39	274.87	15.64	-83.5	-79.0	2.5	0.00e+00	0	49	104	0	60	1048575
2026-01-17 09:52:58.40	274.16	15.36	-83.1	-79.0	2.3	0.00e+00	0	48	104	0	60	1048574
2026-01-17 09:53:01.41	273.45	15.08	-83.1	-79.0	2.4	0.00e+00	0	49	104	0	60	1048571
2026-01-17 09:53:04.43	272.77	14.79	-83.5	-79.0	2.5	0.00e+00	0	48	104	0	60	1048575
2026-01-17 09:53:07.45	272.09	14.51	-83.1	-79.0	2.5	0.00e+00	0	48	104	0	60	1048572
2026-01-17 09:53:10.47	271.43	14.23	-83.5	-79.0	2.4	0.00e+00	0	49	104	0	60	1048575
2026-01-17 09:53:13.49	270.79	13.95	-83.5	-79.0	2.4	0.00e+00	0	49	104	0	60	1048575
2026-01-17 09:53:16.51	270.16	13.67	-82.8	-79.0	2.4	0.00e+00	0	49	104	0	60	1048573
2026-01-17 09:53:19.53	269.55	13.40	-83.5	-79.0	2.3	0.00e+00	0	48	104	0	60	1048570
2026-01-17 09:53:22.55	268.95	13.12	-83.5	-79.0	2.4	0.00e+00	0	49	104	0	60	1048574
2026-01-17 09:53:25.58	268.36	12.84	-83.1	-79.0	2.4	0.00e+00	0	48	104	0	60	1048573
2026-01-17 09:53:28.59	267.78	12.57	-83.5	-79.0	2.5	0.00e+00	0	49	104	0	60	1048572
2026-01-17 09:53:31.61	267.22	12.30	-83.5	-79.0	2.4	0.00e+00	0	49	104	0	60	1048574
2026-01-17 09:53:34.63	266.67	12.03	-83.1	-79.0	2.2	0.00e+00	0	49	104	0	60	1048569
2026-01-17 09:53:37.65	266.13	11.76	-83.5	-79.0	2.4	0.00e+00	0	49	104	0	60	1048572
2026-01-17 09:53:40.66	265.61	11.49	-83.1	-79.0	2.3	0.00e+00	0	49	104	0	60	1048567
2026-01-17 09:53:43.68	265.10	11.23	-83.5	-79.0	2.3	0.00e+00	0	48	104	0	60	1048570
2026-01-17 09:53:46.70	264.59	10.97	-83.1	-79.0	2.6	0.00e+00	0	48	104	0	60	1048573
2026-01-17 09:53:49.72	264.10	10.70	-83.1	-79.0	2.2	0.00e+00	0	48	104	0	60	1048571
2026-01-17 09:53:52.74	263.62	10.44	-83.5	-79.0	2.5	0.00e+00	0	49	104	0	60	1048569
2026-01-17 09:53:55.76	263.15	10.19	-83.5	-79.0	2.5	0.00e+00	0	49	104	0	60	1048571
2026-01-17 09:53:58.79	262.69	9.93	-83.1	-79.0	2.5	0.00e+00	0	49	104	0	60	1048572
2026-01-17 09:54:01.81	262.24	9.68	-83.5	-79.0	2.4	0.00e+00	0	49	104	0	60	1048571
2026-01-17 09:54:04.83	261.79	9.43	-83.1	-79.0	2.4	0.00e+00	0	49	104	0	60	1048573
2026-01-17 09:54:07.85	261.36	9.18	-83.5	-79.0	2.5	0.00e+00	0	49	104	0	60	1048572
2026-01-17 09:54:10.86	260.94	8.93	-83.5	-79.0	2.5	0.00e+00	0	49	104	0	60	1048572
2026-01-17 09:54:13.89	260.53	8.68	-83.1	-79.0	2.4	0.00e+00	0	49	104	0	60	1048574
2026-01-17 09:54:16.91	260.12	8.44	-83.5	-79.0	2.4	0.00e+00	0	48	104	0	60	1048569
2026-01-17 09:54:19.93	259.72	8.20	-83.5	-79.0	2.4	0.00e+00	0	49	104	0	60	1048575
2026-01-17 09:54:22.95	259.34	7.96	-82.8	-79.0	2.5	0.00e+00	0	49	104	0	60	1048575
2026-01-17 09:54:25.97	258.96	7.72	-83.5	-79.0	2.4	0.00e+00	0	49	104	0	60	1048574
2026-01-17 09:54:28.99	258.58	7.48	-83.5	-79.0	2.3	0.00e+00	0	48	104	0	60	1048574
2026-01-17 09:54:32.02	258.22	7.25	-83.1	-79.0	2.5	0.00e+00	0	48	104	0	60	1048572
2026-01-17 09:54:35.04	257.86	7.02	-83.5	-79.0	2.5	0.00e+00	0	49	104	0	60	1048568
2026-01-17 09:54:38.06	257.51	6.79	-83.5	-79.0	2.4	0.00e+00	0	48	104	0	60	1048575
2026-01-17 09:54:41.08	257.16	6.56	-83.5	-79.0	2.3	0.00e+00	0	49	104	0	60	1048570
2026-01-17 09:54:44.10	256.83	6.33	-83.5	-79.0	2.4	0.00e+00	0	49	104	0	60	1048574
2026-01-17 09:54:47.12	256.50	6.11	-83.1	-79.0	2.4	0.00e+00	0	49	104	0	60	1048575
2026-01-17 09:54:50.14	256.17	5.88	-83.5	-79.0	2.4	0.00e+00	0	49	104	0	60	1048566
2026-01-17 09:54:53.15	255.86	5.66	-83.5	-79.0	2.4	0.00e+00	0	49	104	0	60	1048568
2026-01-17 09:54:56.17	255.54	5.44	-82.8	-79.0	2.6	0.00e+00	0	49	104	0	60	1048573
2026-01-17 09:54:59.19	255.24	5.23	-83.5	-79.0	2.3	0.00e+00	0	49	104	0	60	1048574
2026-01-17 09:55:02.22	254.94	5.01	-83.5	-79.0	2.5	0.00e+00	0	49	104	0	60	1048571
2026-01-17 09:55:05.24	254.64	4.80	-83.1	-79.0	2.2	0.00e+00	0	49	104	0	60	1048575
2026-01-17 09:55:08.26	254.35	4.58	-83.5	-79.0	2.6	0.00e+00	0	49	104	0	60	1048566
2026-01-17 09:55:11.28	254.07	4.37	-83.1	-79.0	2.3	0.00e+00	0	49	104	0	60	1048573
2026-01-17 09:55:14.30	253.79	4.16	-83.1	-79.0	2.4	0.00e+00	0	49	104	0	60	1048575
2026-01-17 09:55:17.33	253.52	3.95	-83.5	-79.0	2.2	0.00e+00	0	49	104	0	60	1048575
2026-01-17 09:55:20.36	253.25	3.75	-83.1	-79.0	2.5	0.00e+00	0	49	104	0	60	1048574
2026-01-17 09:55:23.38	252.99	3.54	-83.5	-79.0	2.4	0.00e+00	0	49	104	0	60	1048569
2026-01-17 09:55:26.39	252.73	3.34	-83.5	-79.0	2.5	0.00e+00	0	49	104	0	60	1048575
2026-01-17 09:55:29.41	252.48	3.14	-83.1	-79.0	2.5	0.00e+00	0	49	104	0	60	1048572
2026-01-17 09:55:32.44	252.23	2.94	-83.5	-79.0	2.5	0.00e+00	0	49	104	0	60	1048573
2026-01-17 09:55:35.47	251.98	2.74	-83.5	-79.0	2.4	0.00e+00	0	49	104	0	60	1048569
2026-01-17 09:55:38.49	251.74	2.54	-83.1	-79.0	2.3	0.00e+00	0	49	104	0	60	1048575
2026-01-17 09:55:41.50	251.51	2.35	-83.5	-79.0	2.5	0.00e+00	0	49	104	0	60	1048575
2026-01-17 09:55:44.52	251.27	2.15	-83.1	-79.0	2.4	0.00e+00	0	49	104	0	60	1048572
2026-01-17 09:55:47.55	251.05	1.96	-83.5	-79.0	2.5	0.00e+00	0	49	104	0	60	1048568
2026-01-17 09:55:50.57	250.82	1.77	-83.5	-79.0	2.4	0.00e+00	0	49	104	0	60	1048574
2026-01-17 09:55:53.60	250.60	1.58	-83.1	-79.0	2.6	0.00e+00	0	48	104	0	60	1048573
2026-01-17 09:55:56.61	250.38	1.39	-83.5	-79.0	2.4	0.00e+00	0	49	104	0	60	1048574
2026-01-17 09:55:59.63	250.17	1.20	-83.5	-79.0	2.5	0.00e+00	0	49	104	0	60	1048572
2026-01-17 09:56:02.65	249.96	1.01	-82.8	-79.0	2.4	0.00e+00	0	49	104	0	60	1048575
2026-01-17 09:56:05.68	249.75	0.83	-83.5	-79.0	2.5	0.00e+00	0	49	104	0	60	1048574
2026-01-17 09:56:08.69	249.55	0.64	-83.5	-79.0	2.4	0.00e+00	0	49	104	0	60	1048575
2026-01-17 09:56:11.71	249.35	0.46	-83.1	-79.0	2.4	0.00e+00	0	49	104	0	60	1048562
2026-01-17 09:56:14.73	249.16	0.28	-83.5	-79.0	2.4	0.00e+00	0	49	104	0	60	1048574
2026-01-17 09:56:17.75	248.96	0.10	-83.5	-79.0	2.4	0.00e+00	0	49	104	0	60	1048572
2026-01-17 09:56:20.77	248.77	-0.08	-83.5	-79.0	2.2	0.00e+00	0	49	104	0	60	1048572

#Closed at: 2026-01-17 09:56:21
#Recorded file [0 MB]: D:/Data/35015_260117_124537.dat