passes_logs/2026/01/17/R3.2S-Naryan-Mar/R3.2S-Naryan-Mar__20260117_220348_NOAA_21_JPSS-2_rec.log

#Pass ID: 20260117_220348_NOAA 21 (JPSS-2)
#Satellite: NOAA 21 (JPSS-2)
#Configuration: NOAA-21
#almurnet v.1.7.20240730
#Start time: 2026-01-17 22:03:49

#Version: 2.2.20231116
#Station: R3.2S-Naryan-Mar
#Location: 53.008057 lon 67.646978 lat
#TLE: 1 54234U 22150A   26017.26823908  .00000042  00000+0  40962-4 0  9992
#TLE: 2 54234  98.7501 318.1405 0000613 274.2947  85.8159 14.19535194165131

#Time	Az	El	Level	Level2	SNR	BER	BlckErr	Temp	State	Recorded	gain1	gain2
2026-01-17 22:03:49.37	19.27	0.03	-85.2	-88.6	4.0	7.63e-01	0	46	0	0	60	1048572
2026-01-17 22:03:53.39	19.41	0.26	-85.2	-88.8	2.5	1.56e+00	0	47	104	0	60	1048575
2026-01-17 22:03:57.42	19.55	0.50	-85.2	-88.8	3.0	1.56e+00	0	47	104	0	60	1048575
2026-01-17 22:04:01.45	19.69	0.73	-85.2	-88.8	2.8	1.56e+00	0	47	104	0	60	1048575
2026-01-17 22:04:05.47	19.84	0.97	-85.2	-88.8	2.7	1.56e+00	0	47	104	0	60	1048571
2026-01-17 22:04:09.50	19.99	1.21	-85.2	-88.8	2.8	1.56e+00	0	47	104	0	60	1048574
2026-01-17 22:04:13.52	20.13	1.45	-83.1	-88.8	2.7	1.56e+00	0	47	104	0	60	1048574
2026-01-17 22:04:17.56	20.29	1.69	-82.8	-88.8	2.7	1.56e+00	0	47	104	0	60	1048573
2026-01-17 22:04:21.57	20.44	1.93	-85.2	-88.8	2.9	1.56e+00	0	47	104	0	60	1048575
2026-01-17 22:04:25.60	20.59	2.18	-83.5	-88.8	2.7	1.56e+00	0	47	104	0	60	1048568
2026-01-17 22:04:29.63	20.75	2.43	-82.2	-88.8	2.5	1.56e+00	0	47	104	0	60	1048575
2026-01-17 22:04:33.65	20.91	2.68	-83.5	-88.8	2.7	1.56e+00	0	47	104	0	60	1048575
2026-01-17 22:04:37.69	21.08	2.93	-85.2	-88.8	2.9	1.56e+00	0	47	104	0	60	1048575
2026-01-17 22:04:41.72	21.24	3.19	-85.2	-88.8	2.7	1.56e+00	0	47	104	0	60	1048574
2026-01-17 22:04:45.75	21.41	3.45	-83.1	-88.8	2.7	1.56e+00	0	47	104	0	60	1048574
2026-01-17 22:04:49.77	21.58	3.71	-85.2	-88.8	2.7	1.56e+00	0	47	104	0	60	1048574
2026-01-17 22:04:53.80	21.75	3.97	-83.5	-88.8	2.8	1.56e+00	0	47	104	0	60	1048575
2026-01-17 22:04:57.82	21.93	4.23	-85.2	-88.8	2.6	1.56e+00	0	47	104	0	60	1048575
2026-01-17 22:05:01.85	22.11	4.50	-83.1	-88.8	2.7	1.56e+00	0	47	104	0	60	1048575
2026-01-17 22:05:05.87	22.29	4.77	-85.2	-88.8	2.5	1.56e+00	0	47	104	0	60	1048571
2026-01-17 22:05:09.89	22.47	5.04	-85.2	-88.8	2.6	1.56e+00	0	47	104	0	60	1048575
2026-01-17 22:05:13.92	22.66	5.31	-84.7	-88.8	2.7	1.56e+00	0	47	104	0	60	1048575
2026-01-17 22:05:17.94	22.85	5.59	-85.2	-88.8	2.8	1.56e+00	0	47	104	0	60	1048571
2026-01-17 22:05:21.97	23.04	5.87	-84.7	-88.8	2.9	1.56e+00	0	48	104	0	60	1048573
2026-01-17 22:05:26.00	23.24	6.15	-85.2	-88.8	2.6	1.56e+00	0	47	104	0	60	1048572
2026-01-17 22:05:30.02	23.44	6.43	-85.2	-88.8	2.7	1.56e+00	0	47	104	0	60	1048575
2026-01-17 22:05:34.05	23.65	6.72	-84.7	-88.8	2.9	1.56e+00	0	47	104	0	60	1048574
2026-01-17 22:05:38.08	23.86	7.01	-82.8	-88.8	2.6	1.56e+00	0	47	104	0	60	1048575
2026-01-17 22:05:42.10	24.07	7.31	-85.2	-88.8	2.7	1.56e+00	0	47	104	0	60	1048574
2026-01-17 22:05:46.13	24.28	7.60	-85.2	-88.8	2.5	1.56e+00	0	47	104	0	60	1048574
2026-01-17 22:05:50.15	24.50	7.90	-85.2	-88.8	2.8	1.56e+00	0	48	104	0	60	1048574
2026-01-17 22:05:54.17	24.73	8.21	-84.3	-88.8	2.8	1.56e+00	0	48	104	0	60	1048574
2026-01-17 22:05:58.21	24.96	8.52	-82.5	-88.8	2.7	1.56e+00	0	47	104	0	60	1048575
2026-01-17 22:06:02.24	25.19	8.83	-84.7	-88.8	2.7	1.56e+00	0	47	104	0	60	1048575
2026-01-17 22:06:06.27	25.43	9.14	-85.2	-88.8	2.5	1.56e+00	0	47	104	0	60	1048568
2026-01-17 22:06:10.29	25.67	9.46	-84.7	-88.8	2.6	1.56e+00	0	47	104	0	60	1048574
2026-01-17 22:06:14.31	25.92	9.78	-84.7	-88.8	2.6	1.56e+00	0	48	104	0	60	1048572
2026-01-17 22:06:18.34	26.17	10.10	-82.8	-88.8	2.8	1.56e+00	0	47	104	0	60	1048574
2026-01-17 22:06:22.37	26.43	10.43	-83.1	-88.8	2.9	1.56e+00	0	47	104	0	60	1048575
2026-01-17 22:06:26.40	26.69	10.77	-84.7	-88.8	2.6	1.56e+00	0	47	104	0	60	1048572
2026-01-17 22:06:30.42	26.96	11.10	-83.1	-88.8	2.7	1.56e+00	0	47	104	0	60	1048572
2026-01-17 22:06:34.45	27.24	11.44	-84.7	-88.8	2.8	1.56e+00	0	47	104	0	60	1048572
2026-01-17 22:06:38.48	27.52	11.79	-85.2	-88.8	2.9	1.56e+00	0	48	104	0	60	1048573
2026-01-17 22:06:42.51	27.81	12.14	-84.7	-88.8	2.6	1.56e+00	0	48	104	0	60	1048573
2026-01-17 22:06:46.54	28.10	12.49	-85.2	-88.8	2.6	1.56e+00	0	48	104	0	60	1048574
2026-01-17 22:06:50.56	28.40	12.85	-84.7	-88.8	2.7	1.56e+00	0	48	104	0	60	1048575
2026-01-17 22:06:54.59	28.71	13.21	-84.7	-88.8	2.6	1.56e+00	0	48	104	0	60	1048574
2026-01-17 22:06:58.63	29.03	13.58	-84.7	-88.8	2.5	1.56e+00	0	48	104	0	60	1048573
2026-01-17 22:07:02.65	29.35	13.96	-84.7	-88.8	2.8	1.56e+00	0	47	104	0	60	1048570
2026-01-17 22:07:06.69	29.68	14.34	-85.2	-88.8	2.8	1.56e+00	0	48	104	0	60	1048573
2026-01-17 22:07:10.72	30.02	14.72	-84.7	-88.8	2.9	1.56e+00	0	48	104	0	60	1048571
2026-01-17 22:07:14.74	30.36	15.11	-84.7	-88.8	2.8	1.56e+00	0	47	104	0	60	1048575
2026-01-17 22:07:18.77	30.72	15.50	-84.7	-88.8	2.7	1.56e+00	0	48	104	0	60	1048575
2026-01-17 22:07:22.79	31.08	15.90	-84.7	-88.8	2.6	1.56e+00	0	48	104	0	60	1048573
2026-01-17 22:07:26.81	31.45	16.30	-85.2	-88.8	2.8	1.56e+00	0	48	104	0	60	1048575
2026-01-17 22:07:30.84	31.84	16.72	-85.2	-88.8	2.8	1.56e+00	0	48	104	0	60	1048575
2026-01-17 22:07:34.87	32.23	17.13	-84.7	-88.8	2.5	1.56e+00	0	48	104	0	60	1048575
2026-01-17 22:07:38.90	32.64	17.55	-84.7	-88.8	2.9	1.56e+00	0	48	104	0	60	1048573
2026-01-17 22:07:42.93	33.05	17.98	-85.2	-88.8	2.9	1.56e+00	0	48	104	0	60	1048575
2026-01-17 22:07:46.95	33.48	18.42	-84.7	-88.8	2.8	1.56e+00	0	48	104	0	60	1048575
2026-01-17 22:07:50.97	33.92	18.86	-85.2	-88.8	2.8	1.56e+00	0	47	104	0	60	1048575
2026-01-17 22:07:54.99	34.37	19.30	-84.7	-88.8	2.7	1.56e+00	0	47	104	0	60	1048574
2026-01-17 22:07:59.01	34.83	19.76	-83.1	-88.8	2.8	1.56e+00	0	47	104	0	60	1048572
2026-01-17 22:08:03.05	35.31	20.22	-84.3	-88.8	2.7	1.56e+00	0	47	104	0	60	1048569
2026-01-17 22:08:07.09	35.80	20.69	-83.1	-88.8	2.8	1.56e+00	0	48	104	0	60	1048575
2026-01-17 22:08:11.10	36.30	21.16	-84.3	-88.8	2.7	1.56e+00	0	48	104	0	60	1048572
2026-01-17 22:08:15.13	36.82	21.64	-84.7	-88.8	2.5	1.56e+00	0	48	104	0	60	1048575
2026-01-17 22:08:19.16	37.36	22.13	-84.7	-88.8	2.8	1.56e+00	0	48	104	0	60	1048575
2026-01-17 22:08:23.18	37.91	22.62	-83.1	-88.8	2.7	1.56e+00	0	47	104	0	60	1048574
2026-01-17 22:08:27.20	38.48	23.12	-84.3	-88.8	2.4	1.56e+00	0	48	104	0	60	1048575
2026-01-17 22:08:31.23	39.07	23.63	-84.7	-88.8	2.6	1.56e+00	0	48	104	0	60	1048573
2026-01-17 22:08:35.26	39.68	24.15	-82.5	-88.8	2.4	1.56e+00	0	47	104	0	60	1048574
2026-01-17 22:08:39.29	40.31	24.67	-84.7	-88.8	2.8	1.56e+00	0	47	104	0	60	1048571
2026-01-17 22:08:43.31	40.96	25.20	-84.7	-88.8	2.9	1.56e+00	0	48	104	0	60	1048575
2026-01-17 22:08:47.34	41.63	25.74	-84.7	-88.8	2.5	1.56e+00	0	48	104	0	60	1048574
2026-01-17 22:08:51.37	42.32	26.28	-84.7	-88.8	2.9	1.56e+00	0	47	104	0	60	1048574
2026-01-17 22:08:55.40	43.04	26.83	-84.7	-88.8	2.7	1.56e+00	0	48	104	0	60	1048572
2026-01-17 22:08:59.43	43.78	27.39	-84.7	-88.8	2.8	1.56e+00	0	48	104	0	60	1048574
2026-01-17 22:09:03.45	44.55	27.95	-84.7	-88.8	2.6	1.56e+00	0	48	104	0	60	1048573
2026-01-17 22:09:07.48	45.34	28.52	-84.3	-88.8	2.9	1.56e+00	0	48	104	0	60	1048570
2026-01-17 22:09:11.50	46.16	29.09	-84.7	-88.8	2.8	1.56e+00	0	48	104	0	60	1048572
2026-01-17 22:09:15.52	47.01	29.67	-84.7	-88.8	2.9	1.56e+00	0	47	104	0	60	1048569
2026-01-17 22:09:19.56	47.90	30.26	-84.7	-88.8	2.8	1.56e+00	0	47	104	0	60	1048575
2026-01-17 22:09:23.58	48.81	30.85	-85.2	-88.8	2.6	1.56e+00	0	47	104	0	60	1048575
2026-01-17 22:09:27.61	49.76	31.44	-84.7	-88.8	2.7	1.56e+00	0	47	104	0	60	1048573
2026-01-17 22:09:31.63	50.74	32.04	-85.2	-88.8	2.5	1.56e+00	0	48	104	0	60	1048575
2026-01-17 22:09:35.65	51.75	32.64	-84.7	-88.8	2.8	1.56e+00	0	47	104	0	60	1048575
2026-01-17 22:09:39.66	52.80	33.24	-84.7	-88.8	2.7	1.56e+00	0	48	104	0	60	1048574
2026-01-17 22:09:43.69	53.90	33.84	-84.7	-88.8	2.7	1.56e+00	0	48	104	0	60	1048575
2026-01-17 22:09:47.71	55.03	34.45	-85.2	-88.8	2.8	1.56e+00	0	48	104	0	60	1048573
2026-01-17 22:09:51.73	56.21	35.05	-84.7	-88.8	2.7	1.56e+00	0	47	104	0	60	1048574
2026-01-17 22:09:55.76	57.43	35.65	-85.2	-88.8	2.6	1.56e+00	0	47	104	0	60	1048570
2026-01-17 22:09:59.78	58.69	36.25	-84.7	-88.8	2.6	1.56e+00	0	47	104	0	60	1048575
2026-01-17 22:10:03.80	60.00	36.84	-84.3	-88.8	2.6	1.56e+00	0	48	104	0	60	1048573
2026-01-17 22:10:07.83	61.36	37.42	-83.9	-88.8	2.8	1.56e+00	0	47	104	0	60	1048575
2026-01-17 22:10:11.86	62.77	38.00	-84.7	-88.8	2.6	1.56e+00	0	48	104	0	60	1048575
2026-01-17 22:10:15.89	64.23	38.57	-85.2	-88.8	2.7	1.56e+00	0	47	104	0	60	1048575
2026-01-17 22:10:19.92	65.74	39.13	-85.2	-88.8	2.8	1.56e+00	0	48	104	0	60	1048574
2026-01-17 22:10:23.95	67.30	39.67	-83.9	-88.8	2.8	1.56e+00	0	47	104	0	60	1048575
2026-01-17 22:10:27.98	68.92	40.20	-85.2	-88.8	2.7	1.56e+00	0	48	104	0	60	1048565
2026-01-17 22:10:32.01	70.58	40.71	-84.7	-88.8	2.7	1.56e+00	0	48	104	0	60	1048572
2026-01-17 22:10:36.04	72.30	41.20	-85.2	-88.8	2.8	1.56e+00	0	47	104	0	60	1048573
2026-01-17 22:10:40.06	74.06	41.66	-84.7	-88.8	2.7	1.56e+00	0	47	104	0	60	1048572
2026-01-17 22:10:44.09	75.88	42.10	-83.1	-88.8	2.8	1.56e+00	0	47	104	0	60	1048575
2026-01-17 22:10:48.12	77.75	42.52	-84.7	-88.8	2.6	1.56e+00	0	48	104	0	60	1048575
2026-01-17 22:10:52.15	79.66	42.90	-85.2	-88.8	2.9	1.56e+00	0	48	104	0	60	1048575
2026-01-17 22:10:56.17	81.61	43.25	-85.2	-88.8	2.6	1.56e+00	0	48	104	0	60	1048573
2026-01-17 22:11:00.20	83.61	43.57	-85.2	-88.8	2.6	1.56e+00	0	47	104	0	60	1048574
2026-01-17 22:11:04.22	85.64	43.85	-83.5	-88.8	2.7	1.56e+00	0	48	104	0	60	1048574
2026-01-17 22:11:08.25	87.71	44.10	-85.2	-88.8	2.6	1.56e+00	0	47	104	0	60	1048563
2026-01-17 22:11:12.27	89.80	44.30	-85.2	-88.8	2.7	1.56e+00	0	47	104	0	60	1048569
2026-01-17 22:11:16.30	91.92	44.46	-85.2	-88.8	2.6	1.56e+00	0	47	104	0	60	1048572
2026-01-17 22:11:20.33	94.06	44.58	-85.2	-88.8	2.7	1.56e+00	0	47	104	0	60	1048575
2026-01-17 22:11:24.36	96.22	44.66	-83.1	-88.8	2.7	1.56e+00	0	48	104	0	60	1048570
2026-01-17 22:11:28.39	98.38	44.69	-85.2	-88.8	2.7	1.56e+00	0	48	104	0	60	1048574
2026-01-17 22:11:32.41	100.54	44.68	-83.1	-88.8	2.7	1.56e+00	0	48	104	0	60	1048575
2026-01-17 22:11:36.43	102.69	44.62	-85.2	-88.8	2.7	1.56e+00	0	48	104	0	60	1048575
2026-01-17 22:11:40.46	104.84	44.53	-85.2	-88.8	2.8	1.56e+00	0	47	104	0	60	1048575
2026-01-17 22:11:44.49	106.97	44.38	-82.5	-88.8	2.6	1.56e+00	0	48	104	0	60	1048574
2026-01-17 22:11:48.50	109.08	44.20	-85.2	-88.8	2.9	1.56e+00	0	48	104	0	60	1048575
2026-01-17 22:11:52.53	111.16	43.97	-85.2	-88.8	2.7	1.56e+00	0	48	104	0	60	1048575
2026-01-17 22:11:56.55	113.21	43.71	-83.1	-88.8	2.5	1.56e+00	0	48	104	0	60	1048575
2026-01-17 22:12:00.58	115.23	43.41	-82.2	-88.8	2.7	1.56e+00	0	47	104	0	60	1048575
2026-01-17 22:12:04.60	117.21	43.07	-83.1	-88.8	2.7	1.56e+00	0	48	104	0	60	1048574
2026-01-17 22:12:08.63	119.14	42.70	-83.1	-88.8	2.8	1.56e+00	0	48	104	0	60	1048568
2026-01-17 22:12:12.66	121.04	42.30	-85.2	-88.8	2.8	1.56e+00	0	48	104	0	60	1048575
2026-01-17 22:12:16.69	122.88	41.87	-84.7	-88.8	2.7	1.56e+00	0	47	104	0	60	1048575
2026-01-17 22:12:20.71	124.67	41.42	-85.2	-88.8	2.8	1.56e+00	0	48	104	0	60	1048574
2026-01-17 22:12:24.73	126.41	40.94	-82.8	-88.8	2.8	1.56e+00	0	48	104	0	60	1048572
2026-01-17 22:12:28.76	128.11	40.44	-82.5	-88.8	2.7	1.56e+00	0	47	104	0	60	1048570
2026-01-17 22:12:32.79	129.75	39.92	-85.2	-88.8	2.7	1.56e+00	0	48	104	0	60	1048573
2026-01-17 22:12:36.82	131.34	39.38	-85.2	-88.8	2.7	1.56e+00	0	47	104	0	60	1048574
2026-01-17 22:12:40.85	132.88	38.83	-85.2	-88.8	2.9	1.56e+00	0	47	104	0	60	1048575
2026-01-17 22:12:44.88	134.37	38.26	-85.2	-88.8	2.7	1.56e+00	0	47	104	0	60	1048573
2026-01-17 22:12:48.92	135.81	37.68	-85.2	-88.8	2.9	1.56e+00	0	48	104	0	60	1048574
2026-01-17 22:12:52.94	137.19	37.10	-84.3	-88.8	2.9	1.56e+00	0	47	104	0	60	1048567
2026-01-17 22:12:56.96	138.53	36.51	-85.2	-88.8	2.6	1.56e+00	0	47	104	0	60	1048574
2026-01-17 22:13:00.98	139.82	35.91	-85.2	-88.8	2.7	1.56e+00	0	48	104	0	60	1048574
2026-01-17 22:13:05.01	141.06	35.31	-84.3	-88.8	2.8	1.56e+00	0	48	104	0	60	1048573
2026-01-17 22:13:09.03	142.26	34.71	-85.2	-88.8	3.1	1.56e+00	0	48	104	0	60	1048571
2026-01-17 22:13:13.05	143.42	34.10	-85.2	-88.8	2.8	1.56e+00	0	48	104	0	60	1048572
2026-01-17 22:13:17.08	144.53	33.49	-85.2	-88.8	2.7	1.56e+00	0	47	104	0	60	1048575
2026-01-17 22:13:21.11	145.61	32.89	-85.2	-88.8	2.6	1.56e+00	0	48	104	0	60	1048573
2026-01-17 22:13:25.13	146.65	32.28	-84.7	-88.8	2.8	1.56e+00	0	48	104	0	60	1048574
2026-01-17 22:13:29.14	147.64	31.68	-85.2	-88.8	2.9	1.56e+00	0	48	104	0	60	1048574
2026-01-17 22:13:33.17	148.61	31.08	-85.2	-88.8	2.6	1.56e+00	0	48	104	0	60	1048574
2026-01-17 22:13:37.20	149.54	30.49	-85.2	-88.8	2.7	1.56e+00	0	48	104	0	60	1048575
2026-01-17 22:13:41.23	150.44	29.90	-85.2	-88.8	2.8	1.56e+00	0	48	104	0	60	1048574
2026-01-17 22:13:45.25	151.31	29.31	-85.2	-88.8	2.7	1.56e+00	0	48	104	0	60	1048574
2026-01-17 22:13:49.28	152.15	28.73	-85.2	-88.8	2.7	1.56e+00	0	48	104	0	60	1048575
2026-01-17 22:13:53.31	152.95	28.15	-85.2	-88.8	2.9	1.56e+00	0	47	104	0	60	1048575
2026-01-17 22:13:57.33	153.73	27.59	-85.2	-88.8	2.8	1.56e+00	0	48	104	0	60	1048568
2026-01-17 22:14:01.37	154.49	27.02	-84.7	-88.8	2.7	1.56e+00	0	48	104	0	60	1048571
2026-01-17 22:14:05.40	155.22	26.47	-85.2	-88.8	2.8	1.56e+00	0	47	104	0	60	1048574
2026-01-17 22:14:09.43	155.92	25.92	-85.2	-88.8	2.7	1.56e+00	0	48	104	0	60	1048574
2026-01-17 22:14:13.46	156.61	25.37	-85.2	-88.8	2.6	1.56e+00	0	48	104	0	60	1048574
2026-01-17 22:14:17.49	157.26	24.84	-85.2	-88.8	2.6	1.56e+00	0	47	104	0	60	1048574
2026-01-17 22:14:21.51	157.90	24.31	-85.2	-88.8	2.7	1.56e+00	0	48	104	0	60	1048574
2026-01-17 22:14:25.54	158.52	23.79	-85.2	-88.8	2.5	1.56e+00	0	47	104	0	60	1048567
2026-01-17 22:14:29.57	159.12	23.27	-85.2	-88.8	2.7	1.56e+00	0	48	104	0	60	1048573
2026-01-17 22:14:33.59	159.70	22.77	-85.2	-88.8	2.8	1.56e+00	0	47	104	0	60	1048573
2026-01-17 22:14:37.61	160.26	22.27	-85.2	-88.8	2.9	1.56e+00	0	48	104	0	60	1048569
2026-01-17 22:14:41.64	160.80	21.77	-85.2	-88.8	2.6	1.56e+00	0	48	104	0	60	1048575
2026-01-17 22:14:45.68	161.33	21.28	-85.2	-88.8	2.6	1.56e+00	0	47	104	0	60	1048574
2026-01-17 22:14:49.71	161.85	20.80	-85.2	-88.8	2.4	1.56e+00	0	47	104	0	60	1048575
2026-01-17 22:14:53.72	162.34	20.33	-85.2	-88.8	2.8	1.56e+00	0	47	104	0	60	1048575
2026-01-17 22:14:57.75	162.82	19.87	-85.2	-88.8	2.8	1.56e+00	0	47	104	0	60	1048571
2026-01-17 22:15:01.78	163.29	19.41	-85.2	-88.8	2.8	1.56e+00	0	47	104	0	60	1048568
2026-01-17 22:15:05.81	163.75	18.95	-85.2	-88.8	2.6	1.56e+00	0	47	104	0	60	1048575
2026-01-17 22:15:09.83	164.19	18.51	-85.2	-88.8	2.5	1.56e+00	0	48	104	0	60	1048573
2026-01-17 22:15:13.86	164.62	18.07	-85.2	-88.8	2.8	1.56e+00	0	48	104	0	60	1048570
2026-01-17 22:15:17.89	165.04	17.64	-85.2	-88.8	2.6	1.56e+00	0	47	104	0	60	1048575
2026-01-17 22:15:21.92	165.45	17.21	-85.2	-88.8	2.8	1.56e+00	0	47	104	0	60	1048575
2026-01-17 22:15:25.93	165.85	16.79	-85.2	-88.8	2.7	1.56e+00	0	47	104	0	60	1048575
2026-01-17 22:15:29.97	166.24	16.37	-85.2	-88.8	2.6	1.56e+00	0	47	104	0	60	1048573
2026-01-17 22:15:34.00	166.61	15.96	-85.2	-88.8	2.9	1.56e+00	0	47	104	0	60	1048572
2026-01-17 22:15:38.03	166.98	15.56	-85.2	-88.8	2.8	1.56e+00	0	47	104	0	60	1048574
2026-01-17 22:15:42.04	167.34	15.16	-85.2	-88.8	2.8	1.56e+00	0	48	104	0	60	1048574
2026-01-17 22:15:46.07	167.69	14.77	-85.2	-88.8	2.8	1.56e+00	0	48	104	0	60	1048573
2026-01-17 22:15:50.10	168.03	14.38	-85.2	-88.8	2.6	1.56e+00	0	48	104	0	60	1048574
2026-01-17 22:15:54.13	168.36	14.00	-85.2	-88.8	2.8	1.56e+00	0	47	104	0	60	1048574
2026-01-17 22:15:58.15	168.68	13.62	-85.2	-88.8	2.6	1.56e+00	0	48	104	0	60	1048571
2026-01-17 22:16:02.18	169.00	13.25	-85.2	-88.8	2.9	1.56e+00	0	47	104	0	60	1048575
2026-01-17 22:16:06.20	169.31	12.88	-84.7	-88.8	2.3	1.56e+00	0	48	104	0	60	1048572
2026-01-17 22:16:10.23	169.61	12.52	-85.2	-88.8	2.7	1.56e+00	0	48	104	0	60	1048574
2026-01-17 22:16:14.25	169.91	12.16	-85.2	-88.8	2.5	1.56e+00	0	48	104	0	60	1048568
2026-01-17 22:16:18.27	170.19	11.81	-85.2	-88.8	2.8	1.56e+00	0	48	104	0	60	1048575
2026-01-17 22:16:22.30	170.48	11.46	-85.2	-88.8	2.4	1.56e+00	0	47	104	0	60	1048575
2026-01-17 22:16:26.32	170.75	11.12	-83.9	-88.8	2.5	1.56e+00	0	47	104	0	60	1048572
2026-01-17 22:16:30.34	171.02	10.78	-85.2	-88.8	2.6	1.56e+00	0	48	104	0	60	1048572
2026-01-17 22:16:34.37	171.28	10.44	-85.2	-88.8	2.8	1.56e+00	0	48	104	0	60	1048569
2026-01-17 22:16:38.40	171.54	10.11	-85.2	-88.8	3.0	1.56e+00	0	47	104	0	60	1048574
2026-01-17 22:16:42.43	171.80	9.78	-85.2	-88.8	2.6	1.56e+00	0	47	104	0	60	1048572
2026-01-17 22:16:46.45	172.04	9.46	-85.2	-88.8	2.6	1.56e+00	0	48	104	0	60	1048574
2026-01-17 22:16:50.47	172.29	9.14	-85.2	-88.8	2.8	1.56e+00	0	48	104	0	60	1048573
2026-01-17 22:16:54.50	172.52	8.82	-85.2	-88.8	2.6	1.56e+00	0	47	104	0	60	1048573
2026-01-17 22:16:58.53	172.76	8.51	-85.2	-88.8	2.8	1.56e+00	0	47	104	0	60	1048573
2026-01-17 22:17:02.57	172.99	8.19	-85.2	-88.8	2.9	1.56e+00	0	47	104	0	60	1048575
2026-01-17 22:17:06.59	173.21	7.89	-85.2	-88.8	2.7	1.56e+00	0	48	104	0	60	1048575
2026-01-17 22:17:10.62	173.43	7.59	-85.2	-88.8	2.6	1.56e+00	0	48	104	0	60	1048575
2026-01-17 22:17:14.64	173.65	7.29	-85.2	-88.8	2.7	1.56e+00	0	48	104	0	60	1048575
2026-01-17 22:17:18.67	173.86	6.99	-85.2	-88.8	2.8	1.56e+00	0	47	104	0	60	1048572
2026-01-17 22:17:22.70	174.06	6.70	-85.2	-88.8	2.7	1.56e+00	0	47	104	0	60	1048575
2026-01-17 22:17:26.72	174.27	6.41	-85.2	-88.8	2.9	1.56e+00	0	47	104	0	60	1048574
2026-01-17 22:17:30.75	174.47	6.12	-85.2	-88.8	2.7	1.56e+00	0	47	104	0	60	1048570
2026-01-17 22:17:34.77	174.66	5.83	-85.2	-88.8	2.7	1.56e+00	0	48	104	0	60	1048575
2026-01-17 22:17:38.81	174.86	5.55	-85.2	-88.8	2.7	1.56e+00	0	47	104	0	60	1048575
2026-01-17 22:17:42.83	175.05	5.27	-85.2	-88.8	3.0	1.56e+00	0	47	104	0	60	1048574
2026-01-17 22:17:46.87	175.23	4.99	-85.2	-88.8	2.6	1.56e+00	0	47	104	0	60	1048568
2026-01-17 22:17:50.89	175.42	4.72	-85.2	-88.8	2.7	1.56e+00	0	47	104	0	60	1048572
2026-01-17 22:17:54.91	175.60	4.45	-85.2	-88.8	2.7	1.56e+00	0	47	104	0	60	1048575
2026-01-17 22:17:58.94	175.77	4.18	-85.2	-88.8	2.8	1.56e+00	0	47	104	0	60	1048575
2026-01-17 22:18:02.97	175.95	3.91	-85.2	-88.8	2.8	1.56e+00	0	48	104	0	60	1048573
2026-01-17 22:18:06.99	176.12	3.65	-85.2	-88.8	2.8	1.56e+00	0	47	104	0	60	1048573
2026-01-17 22:18:11.02	176.29	3.39	-85.2	-88.8	2.8	1.56e+00	0	48	104	0	60	1048572
2026-01-17 22:18:15.05	176.45	3.13	-85.2	-88.8	2.7	1.56e+00	0	47	104	0	60	1048568
2026-01-17 22:18:19.08	176.61	2.87	-85.2	-88.8	2.7	1.56e+00	0	48	104	0	60	1048575
2026-01-17 22:18:23.11	176.77	2.62	-85.2	-88.8	2.6	1.56e+00	0	48	104	0	60	1048575
2026-01-17 22:18:27.12	176.93	2.37	-85.2	-88.8	2.7	1.56e+00	0	47	104	0	60	1048574
2026-01-17 22:18:31.13	177.09	2.12	-85.2	-88.8	2.7	1.56e+00	0	47	104	0	60	1048575
2026-01-17 22:18:35.16	177.24	1.87	-85.2	-88.8	2.6	1.56e+00	0	47	104	0	60	1048575
2026-01-17 22:18:39.18	177.39	1.62	-85.2	-88.8	2.8	1.56e+00	0	47	104	0	60	1048568
2026-01-17 22:18:43.20	177.54	1.38	-85.2	-88.8	2.8	1.56e+00	0	47	104	0	60	1048575
2026-01-17 22:18:47.23	177.69	1.13	-85.2	-88.8	2.7	1.56e+00	0	47	104	0	60	1048568
2026-01-17 22:18:51.25	177.83	0.89	-85.2	-88.8	2.9	1.56e+00	0	47	104	0	60	1048575
2026-01-17 22:18:55.28	177.97	0.65	-85.2	-88.8	2.8	1.56e+00	0	47	104	0	60	1048575
2026-01-17 22:18:59.32	178.11	0.42	-85.2	-88.8	2.7	1.56e+00	0	47	104	0	60	1048571
2026-01-17 22:19:03.34	178.25	0.18	-85.2	-88.8	2.5	1.56e+00	0	47	104	0	60	1048573

#Closed at: 2026-01-17 22:19:06
#Recorded file [0 MB]: D:/Data/35015_260118_010349.dat