passes_logs/2026/01/17/R3.2S-Naryan-Mar/R3.2S-Naryan-Mar__20260117_063009_FENGYUN_3D_rec.log

#Pass ID: 20260117_063009_FENGYUN 3D
#Satellite: FENGYUN 3D
#Configuration: FENGYUN 3D
#almurnet v.1.7.20240730
#Start time: 2026-01-17 06:30:10

#Version: 2.2.20231116
#Station: R3.2S-Naryan-Mar
#Location: 53.008057 lon 67.646978 lat
#TLE: 1 43010U 17072A   26016.27214855  .00000192  00000+0  11235-3 0  9990
#TLE: 2 43010  98.9932 348.1078 0002365 105.5031 254.6406 14.19695933423435

#Time	Az	El	Level	Level2	SNR	BER	BlckErr	Temp	State	Recorded	gain1	gain2
2026-01-17 06:30:10.49	71.82	0.04	-84.3	-90.0	5.8	0.00e+00	0	43	0	0	60	1048573
2026-01-17 06:30:14.50	71.58	0.26	-84.7	-88.6	5.8	2.78e-01	0	45	0	0	60	1048574
2026-01-17 06:30:18.52	71.34	0.47	-84.7	-88.6	6.1	2.72e-01	0	45	0	0	60	1048574
2026-01-17 06:30:22.55	71.10	0.69	-84.7	-88.6	5.6	2.75e-01	0	45	0	0	60	1048574
2026-01-17 06:30:26.57	70.84	0.91	-85.2	-88.6	6.1	2.73e-01	0	45	0	0	60	1048575
2026-01-17 06:30:30.59	70.59	1.13	-85.2	-88.6	6.2	2.79e-01	0	45	0	0	60	1048574
2026-01-17 06:30:34.62	70.33	1.35	-84.7	-88.6	6.0	2.82e-01	0	45	0	0	60	1048574
2026-01-17 06:30:38.64	70.07	1.57	-84.7	-88.6	6.4	2.79e-01	0	45	0	0	60	1048574
2026-01-17 06:30:42.67	69.80	1.79	-85.2	-88.6	6.1	2.79e-01	0	45	0	0	60	1048574
2026-01-17 06:30:46.69	69.53	2.01	-85.2	-88.6	6.1	2.80e-01	0	45	0	0	60	1048575
2026-01-17 06:30:50.71	69.26	2.24	-84.7	-88.6	6.2	2.78e-01	0	45	0	0	60	1048560
2026-01-17 06:30:54.74	68.98	2.46	-84.7	-88.6	6.2	2.79e-01	0	45	0	0	60	1048572
2026-01-17 06:30:58.77	68.69	2.69	-85.2	-88.6	6.4	2.79e-01	0	45	0	0	60	1048574
2026-01-17 06:31:02.80	68.40	2.92	-85.2	-88.6	6.1	2.82e-01	0	45	0	0	60	1048572
2026-01-17 06:31:06.82	68.11	3.15	-85.2	-88.6	6.1	2.82e-01	0	46	0	0	60	1048575
2026-01-17 06:31:10.85	67.81	3.38	-85.2	-88.6	6.4	2.77e-01	0	46	0	0	60	1048575
2026-01-17 06:31:14.87	67.51	3.61	-85.2	-88.6	6.0	2.79e-01	0	46	0	0	60	1048573
2026-01-17 06:31:18.89	67.20	3.84	-84.7	-88.6	5.5	2.81e-01	0	45	0	0	60	1048566
2026-01-17 06:31:22.92	66.89	4.07	-84.7	-88.6	6.3	2.78e-01	0	45	0	0	60	1048571
2026-01-17 06:31:26.95	66.57	4.31	-84.7	-88.6	6.2	2.75e-01	0	46	0	0	60	1048572
2026-01-17 06:31:30.98	66.24	4.55	-84.7	-88.6	6.1	2.74e-01	0	46	0	0	60	1048574
2026-01-17 06:31:35.01	65.91	4.78	-85.2	-88.6	5.5	2.77e-01	0	46	0	0	60	1048575
2026-01-17 06:31:39.03	65.58	5.02	-84.7	-88.6	6.4	2.75e-01	0	46	0	0	60	1048575
2026-01-17 06:31:43.07	65.24	5.26	-84.7	-88.6	6.1	2.82e-01	0	46	0	0	60	1048574
2026-01-17 06:31:47.10	64.89	5.50	-84.7	-88.6	6.1	2.76e-01	0	46	0	0	60	1048574
2026-01-17 06:31:51.12	64.54	5.75	-85.2	-88.6	6.1	2.80e-01	0	46	0	0	60	1048571
2026-01-17 06:31:55.13	64.18	5.99	-84.7	-88.6	6.2	2.76e-01	0	46	0	0	60	1048574
2026-01-17 06:31:59.15	63.81	6.23	-84.7	-88.6	6.0	2.78e-01	0	46	0	0	60	1048565
2026-01-17 06:32:03.19	63.44	6.48	-84.7	-88.6	6.2	2.81e-01	0	46	0	0	60	1048574
2026-01-17 06:32:07.21	63.06	6.73	-84.7	-88.6	5.9	2.79e-01	0	46	0	0	60	1048573
2026-01-17 06:32:11.23	62.68	6.97	-84.7	-88.6	6.1	2.80e-01	0	46	0	0	60	1048567
2026-01-17 06:32:15.26	62.29	7.22	-84.7	-88.6	6.5	2.80e-01	0	46	0	0	60	1048575
2026-01-17 06:32:19.29	61.89	7.47	-84.7	-88.6	6.2	2.79e-01	0	46	0	0	60	1048573
2026-01-17 06:32:23.32	61.48	7.73	-85.2	-88.6	6.1	2.76e-01	0	46	0	0	60	1048575
2026-01-17 06:32:27.34	61.07	7.98	-84.7	-88.6	6.3	2.77e-01	0	46	0	0	60	1048574
2026-01-17 06:32:31.37	60.64	8.23	-85.2	-88.6	5.9	2.85e-01	0	46	0	0	60	1048571
2026-01-17 06:32:35.39	60.22	8.49	-84.7	-88.6	6.0	2.76e-01	0	46	0	0	60	1048573
2026-01-17 06:32:39.41	59.78	8.74	-84.7	-88.6	5.7	2.81e-01	0	46	0	0	60	1048567
2026-01-17 06:32:43.42	59.34	9.00	-84.7	-88.6	6.2	2.78e-01	0	46	0	0	60	1048572
2026-01-17 06:32:47.45	58.89	9.26	-84.7	-88.6	5.9	2.80e-01	0	46	0	0	60	1048575
2026-01-17 06:32:51.47	58.43	9.51	-85.2	-88.6	6.4	2.78e-01	0	46	0	0	60	1048573
2026-01-17 06:32:55.49	57.96	9.77	-85.2	-88.6	5.7	2.76e-01	0	46	0	0	60	1048571
2026-01-17 06:32:59.52	57.48	10.03	-84.7	-88.6	6.2	2.77e-01	0	46	0	0	60	1048573
2026-01-17 06:33:03.54	56.99	10.29	-84.7	-88.6	5.9	2.79e-01	0	46	0	0	60	1048571
2026-01-17 06:33:07.57	56.50	10.56	-85.2	-88.6	6.0	2.79e-01	0	46	0	0	60	1048572
2026-01-17 06:33:11.60	55.99	10.82	-85.2	-88.6	5.4	2.80e-01	0	46	0	0	60	1048571
2026-01-17 06:33:15.63	55.48	11.08	-84.7	-88.6	6.1	2.80e-01	0	46	0	0	60	1048575
2026-01-17 06:33:19.65	54.95	11.34	-84.7	-88.6	5.7	2.83e-01	0	46	0	0	60	1048575
2026-01-17 06:33:23.67	54.42	11.61	-84.7	-88.6	6.4	2.82e-01	0	46	0	0	60	1048575
2026-01-17 06:33:27.69	53.88	11.87	-84.7	-88.6	6.1	2.78e-01	0	46	0	0	60	1048574
2026-01-17 06:33:31.70	53.33	12.14	-84.7	-88.6	6.3	2.82e-01	0	46	0	0	60	1048574
2026-01-17 06:33:35.72	52.76	12.40	-84.7	-88.6	6.2	2.78e-01	0	46	0	0	60	1048575
2026-01-17 06:33:39.73	52.19	12.66	-84.7	-88.6	6.1	2.76e-01	0	46	0	0	60	1048575
2026-01-17 06:33:43.76	51.61	12.93	-85.2	-88.6	6.1	2.78e-01	0	46	0	0	60	1048560
2026-01-17 06:33:47.78	51.01	13.19	-85.2	-88.6	6.2	2.78e-01	0	46	0	0	60	1048575
2026-01-17 06:33:51.81	50.41	13.46	-84.7	-88.6	6.1	2.79e-01	0	46	0	0	60	1048573
2026-01-17 06:33:55.84	49.79	13.72	-84.7	-88.6	6.0	2.79e-01	0	46	0	0	60	1048573
2026-01-17 06:33:59.87	49.16	13.98	-84.7	-88.6	6.1	2.78e-01	0	46	0	0	60	1048575
2026-01-17 06:34:03.89	48.52	14.25	-84.7	-88.6	6.2	2.79e-01	0	46	0	0	60	1048575
2026-01-17 06:34:07.92	47.87	14.51	-85.2	-88.6	6.4	2.76e-01	0	46	0	0	60	1048572
2026-01-17 06:34:11.94	47.20	14.77	-84.7	-88.6	6.5	2.76e-01	0	46	0	0	60	1048575
2026-01-17 06:34:15.97	46.53	15.03	-85.2	-88.6	6.0	2.79e-01	0	46	0	0	60	1048570
2026-01-17 06:34:20.00	45.84	15.29	-85.2	-88.6	6.0	2.78e-01	0	46	0	0	60	1048575
2026-01-17 06:34:24.02	45.14	15.54	-84.7	-88.6	6.3	2.78e-01	0	46	0	0	60	1048575
2026-01-17 06:34:28.05	44.43	15.80	-84.7	-88.6	6.4	2.73e-01	0	46	0	0	60	1048575
2026-01-17 06:34:32.07	43.71	16.05	-84.7	-88.6	6.4	2.79e-01	0	46	0	0	60	1048571
2026-01-17 06:34:36.10	42.97	16.30	-85.2	-88.6	5.6	2.78e-01	0	46	0	0	60	1048566
2026-01-17 06:34:40.11	42.22	16.55	-84.7	-88.6	5.8	2.76e-01	0	46	0	0	60	1048574
2026-01-17 06:34:44.14	41.46	16.80	-84.7	-88.6	6.4	2.78e-01	0	46	0	0	60	1048575
2026-01-17 06:34:48.18	40.68	17.04	-84.7	-88.6	6.3	2.78e-01	0	46	0	0	60	1048572
2026-01-17 06:34:52.21	39.89	17.28	-85.2	-88.6	6.1	2.79e-01	0	46	0	0	60	1048573
2026-01-17 06:34:56.23	39.10	17.52	-85.2	-88.6	6.4	2.79e-01	0	46	0	0	60	1048571
2026-01-17 06:35:00.26	38.28	17.75	-85.2	-88.6	5.8	2.79e-01	0	46	0	0	60	1048575
2026-01-17 06:35:04.29	37.46	17.98	-85.2	-88.6	6.2	2.81e-01	0	46	0	0	60	1048574
2026-01-17 06:35:08.32	36.62	18.20	-84.7	-88.6	6.3	2.79e-01	0	46	0	0	60	1048574
2026-01-17 06:35:12.35	35.77	18.42	-84.7	-88.6	6.1	2.83e-01	0	46	0	0	60	1048573
2026-01-17 06:35:16.37	34.90	18.64	-84.7	-88.6	6.3	2.78e-01	0	46	0	0	60	1048575
2026-01-17 06:35:20.40	34.03	18.85	-84.7	-88.6	6.2	2.79e-01	0	46	0	0	60	1048574
2026-01-17 06:35:24.43	33.14	19.06	-85.2	-88.6	5.4	2.79e-01	0	46	0	0	60	1048575
2026-01-17 06:35:28.46	32.24	19.26	-85.2	-88.6	5.7	2.78e-01	0	46	0	0	60	1048572
2026-01-17 06:35:32.48	31.33	19.45	-85.2	-88.6	6.1	2.81e-01	0	46	0	0	60	1048575
2026-01-17 06:35:36.51	30.41	19.64	-85.2	-88.6	5.8	2.83e-01	0	46	0	0	60	1048575
2026-01-17 06:35:40.54	29.47	19.82	-84.7	-88.6	5.8	2.79e-01	0	46	0	0	60	1048574
2026-01-17 06:35:44.57	28.53	19.99	-84.7	-88.6	5.7	2.76e-01	0	46	0	0	60	1048569
2026-01-17 06:35:48.60	27.57	20.16	-84.7	-88.6	6.3	2.78e-01	0	46	0	0	60	1048573
2026-01-17 06:35:52.63	26.60	20.32	-85.2	-88.6	5.7	2.76e-01	0	46	0	0	60	1048575
2026-01-17 06:35:56.66	25.63	20.47	-84.7	-88.6	5.4	2.74e-01	0	46	0	0	60	1048563
2026-01-17 06:36:00.69	24.64	20.62	-84.7	-88.6	5.8	2.76e-01	0	46	0	0	60	1048575
2026-01-17 06:36:04.71	23.65	20.75	-84.3	-88.6	5.7	2.77e-01	0	46	0	0	60	1048569
2026-01-17 06:36:08.75	22.64	20.88	-84.7	-88.6	6.0	2.77e-01	0	46	0	0	60	1048575
2026-01-17 06:36:12.77	21.63	21.00	-85.2	-88.6	5.5	2.80e-01	0	46	0	0	60	1048572
2026-01-17 06:36:16.78	20.62	21.11	-84.7	-88.6	5.7	2.80e-01	0	46	0	0	60	1048574
2026-01-17 06:36:20.81	19.59	21.21	-84.7	-88.6	6.2	2.82e-01	0	46	0	0	60	1048575
2026-01-17 06:36:24.83	18.56	21.30	-85.2	-88.6	5.7	2.82e-01	0	46	0	0	60	1048575
2026-01-17 06:36:28.86	17.52	21.38	-84.7	-88.6	5.9	2.80e-01	0	46	0	0	60	1048574
2026-01-17 06:36:32.89	16.48	21.45	-84.7	-88.6	5.9	2.78e-01	0	46	0	0	60	1048570
2026-01-17 06:36:36.91	15.43	21.51	-84.7	-88.6	6.5	2.78e-01	0	46	0	0	60	1048570
2026-01-17 06:36:40.93	14.38	21.56	-85.2	-88.6	5.3	2.80e-01	0	46	0	0	60	1048574
2026-01-17 06:36:44.96	13.32	21.60	-85.2	-88.6	5.6	2.78e-01	0	46	0	0	60	1048575
2026-01-17 06:36:48.98	12.27	21.63	-85.2	-88.6	6.2	2.79e-01	0	46	0	0	60	1048575
2026-01-17 06:36:53.00	11.21	21.65	-85.2	-88.6	6.1	2.74e-01	0	46	0	0	60	1048574
2026-01-17 06:36:57.02	10.15	21.66	-84.7	-88.6	5.8	2.78e-01	0	46	0	0	60	1048570
2026-01-17 06:37:01.04	9.09	21.66	-84.7	-88.6	6.0	2.79e-01	0	46	0	0	60	1048573
2026-01-17 06:37:05.07	8.03	21.65	-84.7	-88.6	6.1	2.84e-01	0	46	0	0	60	1048573
2026-01-17 06:37:09.10	6.97	21.63	-84.7	-88.6	6.3	2.73e-01	0	47	0	0	60	1048574
2026-01-17 06:37:13.13	5.92	21.60	-85.2	-88.6	6.1	2.74e-01	0	47	0	0	60	1048575
2026-01-17 06:37:17.16	4.86	21.56	-84.7	-88.6	5.9	2.82e-01	0	46	0	0	60	1048575
2026-01-17 06:37:21.19	3.81	21.50	-85.2	-88.6	5.5	2.79e-01	0	46	0	0	60	1048574
2026-01-17 06:37:25.22	2.76	21.44	-84.7	-88.6	5.8	2.79e-01	0	46	0	0	60	1048574
2026-01-17 06:37:29.25	1.72	21.37	-85.2	-88.6	5.7	2.80e-01	0	46	0	0	60	1048570
2026-01-17 06:37:33.28	0.68	21.29	-85.2	-88.6	6.0	2.81e-01	0	46	0	0	60	1048575
2026-01-17 06:37:37.31	359.65	21.20	-84.7	-88.6	6.3	2.83e-01	0	46	0	0	60	1048573
2026-01-17 06:37:41.33	358.62	21.09	-85.2	-88.6	5.7	2.82e-01	0	46	0	0	60	1048570
2026-01-17 06:37:45.36	357.61	20.98	-84.7	-88.6	6.4	2.78e-01	0	46	0	0	60	1048574
2026-01-17 06:37:49.38	356.60	20.86	-84.7	-88.6	6.0	2.79e-01	0	46	0	0	60	1048573
2026-01-17 06:37:53.41	355.60	20.74	-84.7	-88.6	6.3	2.82e-01	0	46	0	0	60	1048574
2026-01-17 06:37:57.43	354.60	20.60	-84.7	-88.6	6.3	2.77e-01	0	46	0	0	60	1048574
2026-01-17 06:38:01.47	353.62	20.45	-85.2	-88.6	6.3	2.73e-01	0	46	0	0	60	1048572
2026-01-17 06:38:05.50	352.64	20.30	-84.7	-88.6	6.3	2.80e-01	0	46	0	0	60	1048571
2026-01-17 06:38:09.53	351.68	20.14	-85.2	-88.6	5.9	2.78e-01	0	46	0	0	60	1048574
2026-01-17 06:38:13.55	350.72	19.97	-84.7	-88.6	6.0	2.80e-01	0	47	0	0	60	1048574
2026-01-17 06:38:17.58	349.78	19.80	-84.7	-88.6	5.9	2.80e-01	0	46	0	0	60	1048572
2026-01-17 06:38:21.61	348.85	19.61	-84.7	-88.6	6.2	2.75e-01	0	46	0	0	60	1048568
2026-01-17 06:38:25.64	347.92	19.43	-84.7	-88.6	6.2	2.75e-01	0	47	0	0	60	1048572
2026-01-17 06:38:29.67	347.01	19.23	-85.2	-88.6	6.1	2.75e-01	0	46	0	0	60	1048575
2026-01-17 06:38:33.69	346.12	19.03	-85.2	-88.6	5.9	2.75e-01	0	46	0	0	60	1048569
2026-01-17 06:38:37.71	345.24	18.82	-85.2	-88.6	6.2	2.77e-01	0	46	0	0	60	1048574
2026-01-17 06:38:41.74	344.36	18.61	-85.2	-88.6	5.9	2.76e-01	0	47	0	0	60	1048575
2026-01-17 06:38:45.77	343.50	18.40	-84.7	-88.6	5.8	2.77e-01	0	46	0	0	60	1048575
2026-01-17 06:38:49.80	342.65	18.18	-84.7	-88.6	5.8	2.79e-01	0	47	0	0	60	1048575
2026-01-17 06:38:53.83	341.81	17.95	-83.9	-88.6	5.9	2.79e-01	0	47	0	0	60	1048572
2026-01-17 06:38:57.85	340.99	17.72	-84.7	-88.6	5.3	2.81e-01	0	46	0	0	60	1048566
2026-01-17 06:39:01.89	340.18	17.49	-84.7	-88.6	6.1	2.78e-01	0	46	0	0	60	1048571
2026-01-17 06:39:05.90	339.38	17.25	-84.7	-88.6	6.1	2.80e-01	0	46	0	0	60	1048573
2026-01-17 06:39:09.92	338.60	17.01	-84.7	-88.6	6.2	2.75e-01	0	46	0	0	60	1048575
2026-01-17 06:39:13.94	337.83	16.77	-84.7	-88.6	6.1	2.80e-01	0	47	0	0	60	1048574
2026-01-17 06:39:17.96	337.07	16.52	-85.2	-88.6	6.5	2.75e-01	0	46	0	0	60	1048573
2026-01-17 06:39:21.99	336.32	16.27	-85.2	-88.6	5.9	2.76e-01	0	46	0	0	60	1048571
2026-01-17 06:39:26.01	335.59	16.02	-85.2	-88.6	5.6	2.78e-01	0	46	0	0	60	1048572
2026-01-17 06:39:30.04	334.87	15.77	-84.3	-88.6	6.1	2.79e-01	0	46	0	0	60	1048575
2026-01-17 06:39:34.07	334.16	15.51	-84.7	-88.6	6.3	2.75e-01	0	47	0	0	60	1048572
2026-01-17 06:39:38.09	333.46	15.26	-84.3	-88.6	6.2	2.76e-01	0	47	0	0	60	1048570
2026-01-17 06:39:42.12	332.77	15.00	-84.7	-88.6	6.0	2.77e-01	0	47	0	0	60	1048572
2026-01-17 06:39:46.15	332.10	14.74	-84.7	-88.6	6.6	2.72e-01	0	46	0	0	60	1048575
2026-01-17 06:39:50.18	331.44	14.48	-85.2	-88.6	6.0	2.77e-01	0	47	0	0	60	1048573
2026-01-17 06:39:54.21	330.79	14.22	-84.7	-88.6	5.5	2.78e-01	0	46	0	0	60	1048574
2026-01-17 06:39:58.23	330.15	13.95	-85.2	-88.6	6.1	2.73e-01	0	46	0	0	60	1048575
2026-01-17 06:40:02.27	329.52	13.69	-84.7	-88.6	6.3	2.77e-01	0	47	0	0	60	1048570
2026-01-17 06:40:06.29	328.91	13.43	-84.7	-88.6	6.2	2.80e-01	0	47	0	0	60	1048574
2026-01-17 06:40:10.31	328.30	13.16	-84.3	-88.6	5.7	2.80e-01	0	47	0	0	60	1048575
2026-01-17 06:40:14.34	327.71	12.90	-85.2	-88.6	2.9	7.61e-01	0	46	104	0	60	1048574
2026-01-17 06:40:18.36	327.13	12.63	-84.7	-88.6	3.0	7.63e-01	0	46	104	0	60	1048568
2026-01-17 06:40:22.39	326.55	12.37	-85.2	-88.6	3.4	7.63e-01	0	46	104	0	60	1048575
2026-01-17 06:40:26.42	325.99	12.10	-84.7	-88.6	3.7	7.63e-01	0	47	104	0	60	1048573
2026-01-17 06:40:30.44	325.44	11.84	-84.7	-88.6	3.6	7.63e-01	0	46	104	0	60	1048573
2026-01-17 06:40:34.47	324.90	11.58	-84.3	-88.6	3.4	7.63e-01	0	47	104	0	60	1048575
2026-01-17 06:40:38.49	324.37	11.31	-84.7	-88.6	3.7	7.64e-01	0	47	104	0	60	1048574
2026-01-17 06:40:42.52	323.85	11.05	-84.3	-88.6	3.2	7.63e-01	0	46	104	0	60	1048574
2026-01-17 06:40:46.54	323.33	10.79	-84.7	-88.6	2.9	7.63e-01	0	47	104	0	60	1048575
2026-01-17 06:40:50.57	322.83	10.52	-83.9	-88.6	3.1	7.64e-01	0	47	104	0	60	1048571
2026-01-17 06:40:54.60	322.34	10.26	-84.7	-88.6	3.6	7.63e-01	0	46	104	0	60	1048574
2026-01-17 06:40:58.63	321.85	10.00	-84.7	-88.6	3.3	7.65e-01	0	46	104	0	60	1048571
2026-01-17 06:41:02.66	321.37	9.74	-84.7	-88.6	3.4	7.63e-01	0	47	104	0	60	1048575
2026-01-17 06:41:06.68	320.91	9.48	-84.3	-88.6	2.9	7.63e-01	0	47	104	0	60	1048575
2026-01-17 06:41:10.70	320.45	9.22	-84.7	-88.6	3.0	7.64e-01	0	47	104	0	60	1048572
2026-01-17 06:41:14.74	320.00	8.97	-84.7	-88.6	2.8	7.64e-01	0	47	104	0	60	1048575
2026-01-17 06:41:18.77	319.55	8.71	-83.5	-88.6	3.6	7.63e-01	0	47	104	0	60	1048572
2026-01-17 06:41:22.80	319.12	8.45	-83.9	-88.6	3.3	7.62e-01	0	47	104	0	60	1048572
2026-01-17 06:41:26.83	318.69	8.20	-84.7	-88.6	3.3	7.65e-01	0	47	104	0	60	1048569
2026-01-17 06:41:30.85	318.27	7.95	-85.2	-88.6	3.1	7.63e-01	0	47	104	0	60	1048573
2026-01-17 06:41:34.87	317.86	7.69	-83.5	-88.6	3.2	7.62e-01	0	47	104	0	60	1048573
2026-01-17 06:41:38.89	317.46	7.44	-84.7	-88.6	3.0	7.63e-01	0	47	104	0	60	1048569
2026-01-17 06:41:42.92	317.06	7.19	-84.7	-88.6	3.2	7.63e-01	0	46	104	0	60	1048568
2026-01-17 06:41:46.96	316.67	6.94	-83.9	-88.6	2.9	7.64e-01	0	46	104	0	60	1048573
2026-01-17 06:41:50.98	316.28	6.70	-84.7	-88.6	3.4	7.63e-01	0	47	104	0	60	1048569
2026-01-17 06:41:55.01	315.91	6.45	-84.7	-88.6	2.9	7.63e-01	0	47	104	0	60	1048574
2026-01-17 06:41:59.03	315.54	6.20	-83.9	-88.6	2.9	7.60e-01	0	46	104	0	60	1048574
2026-01-17 06:42:03.06	315.17	5.96	-85.2	-88.6	3.7	7.61e-01	0	47	104	0	60	1048575
2026-01-17 06:42:07.08	314.82	5.72	-84.7	-88.6	3.4	7.64e-01	0	46	104	0	60	1048572
2026-01-17 06:42:11.10	314.46	5.47	-84.7	-88.6	3.0	7.63e-01	0	47	104	0	60	1048567
2026-01-17 06:42:15.13	314.12	5.23	-83.9	-88.6	2.8	7.64e-01	0	47	104	0	60	1048575
2026-01-17 06:42:19.16	313.78	4.99	-84.7	-88.6	3.2	7.64e-01	0	47	104	0	60	1048575
2026-01-17 06:42:23.18	313.45	4.75	-84.7	-88.6	3.4	7.62e-01	0	47	104	0	60	1048569
2026-01-17 06:42:27.20	313.12	4.52	-84.7	-88.6	3.7	7.55e-01	0	47	104	0	60	1048573
2026-01-17 06:42:31.24	312.79	4.28	-84.7	-88.6	3.6	7.63e-01	0	46	104	0	60	1048575
2026-01-17 06:42:35.26	312.48	4.05	-82.5	-88.6	3.1	7.64e-01	0	47	104	0	60	1048572
2026-01-17 06:42:39.28	312.16	3.81	-84.7	-88.6	3.5	7.62e-01	0	47	104	0	60	1048573
2026-01-17 06:42:43.31	311.86	3.58	-83.5	-88.6	2.7	7.63e-01	0	47	104	0	60	1048571
2026-01-17 06:42:47.33	311.56	3.35	-83.9	-88.6	2.9	7.63e-01	0	47	104	0	60	1048570
2026-01-17 06:42:51.36	311.26	3.12	-84.7	-88.6	3.0	7.64e-01	0	46	104	0	60	1048574
2026-01-17 06:42:55.38	310.97	2.89	-83.9	-88.6	2.9	7.63e-01	0	47	104	0	60	1048572
2026-01-17 06:42:59.40	310.68	2.66	-84.7	-88.6	3.4	7.62e-01	0	47	104	0	60	1048568
2026-01-17 06:43:03.43	310.40	2.44	-84.7	-88.6	3.2	7.63e-01	0	47	104	0	60	1048572
2026-01-17 06:43:07.45	310.12	2.21	-83.5	-88.6	3.5	7.63e-01	0	46	104	0	60	1048574
2026-01-17 06:43:11.48	309.84	1.99	-84.7	-88.6	3.5	7.62e-01	0	46	104	0	60	1048575
2026-01-17 06:43:15.50	309.57	1.76	-85.2	-88.6	3.0	7.63e-01	0	47	104	0	60	1048571
2026-01-17 06:43:19.52	309.31	1.54	-84.3	-88.6	2.9	7.64e-01	0	47	104	0	60	1048575
2026-01-17 06:43:23.54	309.05	1.32	-85.2	-88.6	3.5	7.63e-01	0	47	104	0	60	1048575
2026-01-17 06:43:27.56	308.79	1.10	-83.9	-88.6	3.5	7.60e-01	0	47	104	0	60	1048574
2026-01-17 06:43:31.57	308.54	0.88	-85.2	-88.6	3.7	7.64e-01	0	47	104	0	60	1048574
2026-01-17 06:43:35.58	308.29	0.67	-84.3	-88.6	3.7	7.64e-01	0	47	104	0	60	1048575
2026-01-17 06:43:39.59	308.05	0.45	-85.2	-88.6	3.7	7.64e-01	0	47	104	0	60	1048572
2026-01-17 06:43:43.61	307.81	0.24	-84.3	-88.6	3.0	7.63e-01	0	47	104	0	60	1048575
2026-01-17 06:43:47.64	307.57	0.02	-85.2	-88.6	3.2	7.63e-01	0	47	104	0	60	1048567

#Closed at: 2026-01-17 06:43:48
#Recorded file [0 MB]: D:/Data/35015_260117_093010.dat