passes_logs/2026/01/17/R3.2S-Naryan-Mar/R3.2S-Naryan-Mar__20260117_081507_FENGYUN_3E_rec.log

#Pass ID: 20260117_081507_FENGYUN 3E
#Satellite: FENGYUN 3E
#Configuration: FENGYUN 3E
#almurnet v.1.7.20240730
#Start time: 2026-01-17 08:23:19

#Version: 2.2.20231116
#Station: R3.2S-Naryan-Mar
#Location: 53.008057 lon 67.646978 lat
#TLE: 1 49008U 21062A   26016.27412410  .00000434  00000+0  22502-3 0  9992
#TLE: 2 49008  98.7486  21.3880 0002096 134.9721 225.1626 14.19886506235025

#Time	Az	El	Level	Level2	SNR	BER	BlckErr	Temp	State	Recorded	gain1	gain2
2026-01-17 08:23:19.57	341.72	18.35	-84.7	-88.6	2.9	7.64e-01	0	46	0	0	60	1048572
2026-01-17 08:23:21.57	341.28	18.26	-84.7	-88.6	5.2	4.02e-01	0	47	0	0	60	1048575
2026-01-17 08:23:23.58	340.84	18.17	-84.7	-88.6	5.0	3.98e-01	0	47	0	0	60	1048575
2026-01-17 08:23:25.60	340.40	18.08	-84.7	-88.6	4.9	4.01e-01	0	47	0	0	60	1048575
2026-01-17 08:23:27.62	339.96	17.99	-84.7	-88.6	5.4	3.97e-01	0	47	0	0	60	1048574
2026-01-17 08:23:29.63	339.53	17.89	-84.7	-88.6	5.5	3.99e-01	0	47	0	0	60	1048570
2026-01-17 08:23:31.63	339.10	17.80	-84.7	-88.6	5.2	3.94e-01	0	47	0	0	60	1048569
2026-01-17 08:23:33.64	338.68	17.70	-84.7	-88.6	5.3	4.02e-01	0	47	0	0	60	1048574
2026-01-17 08:23:35.65	338.25	17.60	-84.7	-88.6	5.2	3.98e-01	0	47	0	0	60	1048569
2026-01-17 08:23:37.65	337.84	17.50	-84.7	-88.6	5.3	4.02e-01	0	47	0	0	60	1048572
2026-01-17 08:23:39.66	337.42	17.40	-84.7	-88.6	5.4	3.99e-01	0	47	0	0	60	1048575
2026-01-17 08:23:41.67	337.00	17.30	-84.7	-88.6	4.9	4.03e-01	0	47	0	0	60	1048573
2026-01-17 08:23:43.68	336.59	17.19	-84.7	-88.6	5.3	4.06e-01	0	47	0	0	60	1048572
2026-01-17 08:23:45.70	336.18	17.09	-84.7	-88.6	5.5	3.97e-01	0	47	0	0	60	1048574
2026-01-17 08:23:47.71	335.78	16.98	-84.7	-88.6	6.0	4.02e-01	0	47	0	0	60	1048571
2026-01-17 08:23:49.72	335.37	16.88	-84.7	-88.6	5.8	3.98e-01	0	47	0	0	60	1048575
2026-01-17 08:23:51.73	334.97	16.77	-84.7	-88.6	3.3	4.03e-01	0	47	104	0	60	1048575
2026-01-17 08:23:53.75	334.57	16.66	-84.7	-88.6	3.6	7.77e-01	0	47	104	0	60	1048574
2026-01-17 08:23:55.76	334.18	16.55	-84.7	-88.6	3.4	7.77e-01	0	47	104	0	60	1048569
2026-01-17 08:23:57.78	333.79	16.44	-84.7	-88.6	3.1	7.76e-01	0	47	104	0	60	1048573
2026-01-17 08:23:59.79	333.40	16.33	-84.7	-88.6	2.8	7.77e-01	0	47	104	0	60	1048574
2026-01-17 08:24:01.80	333.01	16.22	-84.7	-88.6	3.3	7.77e-01	0	47	104	0	60	1048573
2026-01-17 08:24:03.81	332.63	16.11	-84.7	-88.6	3.5	7.77e-01	0	47	104	0	60	1048572
2026-01-17 08:24:05.83	332.25	15.99	-84.7	-88.6	3.0	7.75e-01	0	47	104	0	60	1048566
2026-01-17 08:24:07.83	331.87	15.88	-84.7	-88.6	2.9	7.78e-01	0	47	104	0	60	1048573
2026-01-17 08:24:09.84	331.50	15.76	-84.7	-88.6	2.7	7.78e-01	0	47	104	0	60	1048575
2026-01-17 08:24:11.86	331.13	15.65	-84.7	-88.6	3.0	7.77e-01	0	47	104	0	60	1048567
2026-01-17 08:24:13.88	330.76	15.53	-84.7	-88.6	3.1	7.77e-01	0	47	104	0	60	1048574
2026-01-17 08:24:15.88	330.39	15.41	-84.7	-88.6	2.9	7.77e-01	0	47	104	0	60	1048574
2026-01-17 08:24:17.89	330.03	15.30	-84.7	-88.6	3.0	7.77e-01	0	47	104	0	60	1048569
2026-01-17 08:24:19.90	329.67	15.18	-84.7	-88.6	3.2	7.77e-01	0	47	104	0	60	1048570
2026-01-17 08:24:21.92	329.31	15.06	-84.7	-88.6	3.3	7.77e-01	0	47	104	0	60	1048575
2026-01-17 08:24:23.93	328.96	14.94	-84.7	-88.6	3.5	7.75e-01	0	47	104	0	60	1048563
2026-01-17 08:24:25.95	328.61	14.82	-84.7	-88.6	3.1	7.77e-01	0	47	104	0	60	1048573
2026-01-17 08:24:27.95	328.26	14.70	-84.7	-88.6	3.2	7.77e-01	0	47	104	0	60	1048573
2026-01-17 08:24:29.97	327.91	14.58	-84.7	-88.6	2.9	7.77e-01	0	47	104	0	60	1048573
2026-01-17 08:24:31.98	327.57	14.46	-84.7	-88.6	3.0	7.76e-01	0	47	104	0	60	1048569
2026-01-17 08:24:34.00	327.23	14.34	-84.7	-88.6	3.3	7.77e-01	0	47	104	0	60	1048573
2026-01-17 08:24:36.01	326.89	14.21	-84.7	-88.6	3.1	7.78e-01	0	47	104	0	60	1048575
2026-01-17 08:24:38.01	326.56	14.09	-84.7	-88.6	3.2	7.78e-01	0	47	104	0	60	1048574
2026-01-17 08:24:40.03	326.23	13.97	-84.7	-88.6	3.6	7.76e-01	0	47	104	0	60	1048574
2026-01-17 08:24:42.04	325.90	13.85	-84.7	-88.6	3.0	7.78e-01	0	47	104	0	60	1048575
2026-01-17 08:24:44.05	325.58	13.72	-84.7	-88.6	3.1	7.76e-01	0	47	104	0	60	1048574
2026-01-17 08:24:46.06	325.25	13.60	-84.7	-88.6	2.6	7.76e-01	0	47	104	0	60	1048573
2026-01-17 08:24:48.08	324.93	13.47	-84.7	-88.6	2.4	7.78e-01	0	47	104	0	60	1048572
2026-01-17 08:24:50.09	324.61	13.35	-84.7	-88.6	2.7	7.76e-01	0	47	104	0	60	1048574
2026-01-17 08:24:52.10	324.30	13.23	-84.7	-88.6	3.1	7.77e-01	0	47	104	0	60	1048575
2026-01-17 08:24:54.11	323.99	13.10	-84.7	-88.6	2.8	7.77e-01	0	47	104	0	60	1048573
2026-01-17 08:24:56.13	323.68	12.98	-84.7	-88.6	3.1	7.77e-01	0	47	104	0	60	1048572
2026-01-17 08:24:58.13	323.37	12.85	-84.7	-88.6	3.2	7.77e-01	0	47	104	0	60	1048573
2026-01-17 08:25:00.14	323.07	12.73	-84.7	-88.6	2.9	7.76e-01	0	47	104	0	60	1048574
2026-01-17 08:25:02.15	322.77	12.60	-84.7	-88.6	3.0	7.76e-01	0	47	104	0	60	1048575
2026-01-17 08:25:04.17	322.47	12.48	-84.7	-88.6	2.9	7.75e-01	0	47	104	0	60	1048570
2026-01-17 08:25:06.18	322.17	12.35	-84.7	-88.6	2.4	7.76e-01	0	47	104	0	60	1048562
2026-01-17 08:25:08.19	321.88	12.22	-84.7	-88.6	3.0	7.77e-01	0	47	104	0	60	1048570
2026-01-17 08:25:10.21	321.58	12.10	-84.7	-88.6	3.0	7.77e-01	0	47	104	0	60	1048572
2026-01-17 08:25:12.21	321.30	11.97	-84.7	-88.6	3.0	7.76e-01	0	47	104	0	60	1048572
2026-01-17 08:25:14.22	321.01	11.85	-84.7	-88.6	2.7	7.76e-01	0	47	104	0	60	1048568
2026-01-17 08:25:16.23	320.73	11.72	-84.7	-88.6	3.5	7.77e-01	0	47	104	0	60	1048570
2026-01-17 08:25:18.25	320.45	11.60	-84.7	-88.6	3.0	7.77e-01	0	47	104	0	60	1048575
2026-01-17 08:25:20.26	320.17	11.47	-84.7	-88.6	2.6	7.76e-01	0	47	104	0	60	1048574
2026-01-17 08:25:22.28	319.89	11.34	-84.7	-88.6	2.9	7.76e-01	0	47	104	0	60	1048575
2026-01-17 08:25:24.30	319.61	11.22	-84.7	-88.6	3.3	7.77e-01	0	47	104	0	60	1048575
2026-01-17 08:25:26.31	319.34	11.09	-84.7	-88.6	3.0	7.77e-01	0	47	104	0	60	1048572
2026-01-17 08:25:28.33	319.07	10.96	-84.7	-88.6	3.0	7.77e-01	0	47	104	0	60	1048574
2026-01-17 08:25:30.35	318.81	10.84	-84.7	-88.6	3.0	7.77e-01	0	47	104	0	60	1048569
2026-01-17 08:25:32.36	318.54	10.71	-84.7	-88.6	3.2	7.77e-01	0	47	104	0	60	1048573
2026-01-17 08:25:34.38	318.28	10.58	-84.7	-88.6	3.1	7.77e-01	0	47	104	0	60	1048573
2026-01-17 08:25:36.39	318.02	10.46	-84.7	-88.6	2.9	7.78e-01	0	47	104	0	60	1048574
2026-01-17 08:25:38.41	317.76	10.33	-84.7	-88.6	3.4	7.77e-01	0	47	104	0	60	1048575
2026-01-17 08:25:40.41	317.51	10.21	-84.7	-88.6	2.5	7.76e-01	0	47	104	0	60	1048574
2026-01-17 08:25:42.43	317.25	10.08	-84.7	-88.6	3.2	7.75e-01	0	47	104	0	60	1048573
2026-01-17 08:25:44.44	317.00	9.96	-84.7	-88.6	3.2	7.77e-01	0	47	104	0	60	1048573
2026-01-17 08:25:46.45	316.75	9.83	-84.7	-88.6	3.1	7.77e-01	0	47	104	0	60	1048574
2026-01-17 08:25:48.46	316.51	9.71	-84.7	-88.6	2.5	7.76e-01	0	47	104	0	60	1048568
2026-01-17 08:25:50.48	316.26	9.58	-84.7	-88.6	3.0	7.77e-01	0	47	104	0	60	1048574
2026-01-17 08:25:52.49	316.02	9.45	-84.7	-88.6	3.0	7.76e-01	0	47	104	0	60	1048571
2026-01-17 08:25:54.51	315.78	9.33	-84.7	-88.6	2.5	7.77e-01	0	47	104	0	60	1048575
2026-01-17 08:25:56.53	315.54	9.20	-84.7	-88.6	3.2	7.77e-01	0	47	104	0	60	1048574
2026-01-17 08:25:58.54	315.30	9.08	-84.7	-88.6	3.1	7.77e-01	0	47	104	0	60	1048570
2026-01-17 08:26:00.55	315.07	8.96	-84.7	-88.6	3.2	7.77e-01	0	47	104	0	60	1048571
2026-01-17 08:26:02.56	314.84	8.83	-84.7	-88.6	2.5	7.76e-01	0	47	104	0	60	1048573
2026-01-17 08:26:04.58	314.61	8.71	-84.7	-88.6	3.4	7.77e-01	0	47	104	0	60	1048572
2026-01-17 08:26:06.59	314.38	8.58	-84.7	-88.6	3.3	7.77e-01	0	47	104	0	60	1048569
2026-01-17 08:26:08.61	314.15	8.46	-84.7	-88.6	3.3	7.76e-01	0	47	104	0	60	1048575
2026-01-17 08:26:10.63	313.93	8.33	-84.7	-88.6	3.1	7.77e-01	0	47	104	0	60	1048568
2026-01-17 08:26:12.64	313.71	8.21	-84.7	-88.6	3.0	7.76e-01	0	47	104	0	60	1048575
2026-01-17 08:26:14.66	313.49	8.09	-84.7	-88.6	2.8	7.77e-01	0	47	104	0	60	1048575
2026-01-17 08:26:16.67	313.27	7.96	-84.7	-88.6	2.9	7.76e-01	0	47	104	0	60	1048575
2026-01-17 08:26:18.69	313.05	7.84	-84.7	-88.6	3.3	7.76e-01	0	47	104	0	60	1048573
2026-01-17 08:26:20.69	312.84	7.72	-84.7	-88.6	2.9	7.77e-01	0	47	104	0	60	1048562
2026-01-17 08:26:22.70	312.63	7.60	-84.7	-88.6	2.9	7.77e-01	0	47	104	0	60	1048574
2026-01-17 08:26:24.72	312.42	7.47	-84.7	-88.6	3.7	7.76e-01	0	47	104	0	60	1048572
2026-01-17 08:26:26.73	312.21	7.35	-84.7	-88.6	2.8	7.77e-01	0	47	104	0	60	1048574
2026-01-17 08:26:28.74	312.00	7.23	-84.7	-88.6	3.0	7.77e-01	0	47	104	0	60	1048574
2026-01-17 08:26:30.75	311.80	7.11	-84.7	-88.6	3.0	7.76e-01	0	47	104	0	60	1048575
2026-01-17 08:26:32.76	311.59	6.99	-84.7	-88.6	3.3	7.76e-01	0	47	104	0	60	1048575
2026-01-17 08:26:34.77	311.39	6.87	-84.7	-88.6	2.7	7.76e-01	0	47	104	0	60	1048571
2026-01-17 08:26:36.79	311.19	6.74	-84.7	-88.6	3.5	7.78e-01	0	47	104	0	60	1048573
2026-01-17 08:26:38.80	310.99	6.62	-84.7	-88.6	3.0	7.76e-01	0	47	104	0	60	1048572
2026-01-17 08:26:40.81	310.80	6.50	-84.7	-88.6	2.5	7.76e-01	0	47	104	0	60	1048570
2026-01-17 08:26:42.83	310.60	6.38	-84.7	-88.6	3.0	7.77e-01	0	47	104	0	60	1048575
2026-01-17 08:26:44.85	310.41	6.26	-84.7	-88.6	3.0	7.76e-01	0	47	104	0	60	1048571
2026-01-17 08:26:46.86	310.22	6.14	-84.7	-88.6	2.9	7.74e-01	0	47	104	0	60	1048571
2026-01-17 08:26:48.88	310.03	6.02	-84.7	-88.6	2.6	7.77e-01	0	47	104	0	60	1048575
2026-01-17 08:26:50.89	309.84	5.90	-84.7	-88.6	2.8	7.77e-01	0	47	104	0	60	1048574
2026-01-17 08:26:52.90	309.65	5.79	-84.7	-88.6	3.0	7.77e-01	0	47	104	0	60	1048574
2026-01-17 08:26:54.91	309.47	5.67	-84.7	-88.6	3.2	7.77e-01	0	47	104	0	60	1048573
2026-01-17 08:26:56.93	309.28	5.55	-84.7	-88.6	3.2	7.76e-01	0	47	104	0	60	1048566
2026-01-17 08:26:58.94	309.10	5.43	-84.7	-88.6	2.9	7.77e-01	0	47	104	0	60	1048573
2026-01-17 08:27:00.96	308.92	5.31	-84.7	-88.6	3.1	7.77e-01	0	47	104	0	60	1048575
2026-01-17 08:27:02.98	308.74	5.19	-84.7	-88.6	2.9	7.78e-01	0	47	104	0	60	1048568
2026-01-17 08:27:04.99	308.56	5.08	-84.7	-88.6	3.1	7.77e-01	0	47	104	0	60	1048573
2026-01-17 08:27:07.00	308.39	4.96	-84.7	-88.6	2.5	7.77e-01	0	47	104	0	60	1048575
2026-01-17 08:27:09.01	308.21	4.84	-84.7	-88.6	3.1	7.77e-01	0	47	104	0	60	1048575
2026-01-17 08:27:11.02	308.04	4.73	-84.7	-88.6	3.3	7.77e-01	0	47	104	0	60	1048574
2026-01-17 08:27:13.04	307.87	4.61	-84.7	-88.6	3.2	7.77e-01	0	47	104	0	60	1048565
2026-01-17 08:27:15.05	307.70	4.49	-84.7	-88.6	2.9	7.78e-01	0	47	104	0	60	1048572
2026-01-17 08:27:17.07	307.53	4.38	-84.7	-88.6	2.5	7.75e-01	0	47	104	0	60	1048571
2026-01-17 08:27:19.08	307.36	4.26	-84.7	-88.6	3.5	7.77e-01	0	47	104	0	60	1048569
2026-01-17 08:27:21.09	307.19	4.15	-84.7	-88.6	2.9	7.78e-01	0	47	104	0	60	1048573
2026-01-17 08:27:23.10	307.03	4.03	-84.7	-88.6	2.8	7.76e-01	0	47	104	0	60	1048574
2026-01-17 08:27:25.11	306.86	3.92	-84.7	-88.6	3.5	7.75e-01	0	47	104	0	60	1048565
2026-01-17 08:27:27.13	306.70	3.80	-84.7	-88.6	3.1	7.76e-01	0	47	104	0	60	1048574
2026-01-17 08:27:29.13	306.54	3.69	-84.7	-88.6	3.0	7.77e-01	0	47	104	0	60	1048570
2026-01-17 08:27:31.15	306.38	3.57	-84.7	-88.6	2.9	7.76e-01	0	47	104	0	60	1048570
2026-01-17 08:27:33.16	306.22	3.46	-84.7	-88.6	2.6	7.77e-01	0	47	104	0	60	1048575
2026-01-17 08:27:35.18	306.07	3.35	-84.7	-88.6	3.4	7.77e-01	0	47	104	0	60	1048575
2026-01-17 08:27:37.19	305.91	3.23	-84.7	-88.6	2.8	7.75e-01	0	47	104	0	60	1048575
2026-01-17 08:27:39.20	305.76	3.12	-84.7	-88.6	3.2	7.75e-01	0	47	104	0	60	1048560
2026-01-17 08:27:41.21	305.60	3.01	-84.7	-88.6	3.0	7.76e-01	0	47	104	0	60	1048574
2026-01-17 08:27:43.23	305.45	2.89	-84.7	-88.6	2.4	7.75e-01	0	47	104	0	60	1048574
2026-01-17 08:27:45.24	305.30	2.78	-84.7	-88.6	3.1	7.77e-01	0	47	104	0	60	1048567
2026-01-17 08:27:47.26	305.15	2.67	-84.7	-88.6	3.0	7.76e-01	0	47	104	0	60	1048575
2026-01-17 08:27:49.27	305.00	2.56	-84.7	-88.6	3.1	7.76e-01	0	47	104	0	60	1048574
2026-01-17 08:27:51.28	304.85	2.45	-84.7	-88.6	3.4	7.76e-01	0	47	104	0	60	1048572
2026-01-17 08:27:53.29	304.71	2.34	-84.7	-88.6	3.0	7.76e-01	0	47	104	0	60	1048567
2026-01-17 08:27:55.31	304.56	2.22	-84.7	-88.6	3.2	7.77e-01	0	47	104	0	60	1048575
2026-01-17 08:27:57.32	304.42	2.11	-84.7	-88.6	2.9	7.77e-01	0	47	104	0	60	1048575
2026-01-17 08:27:59.33	304.28	2.00	-84.7	-88.6	3.0	7.77e-01	0	47	104	0	60	1048575
2026-01-17 08:28:01.35	304.13	1.89	-84.7	-88.6	3.4	7.75e-01	0	47	104	0	60	1048575
2026-01-17 08:28:03.36	303.99	1.78	-84.7	-88.6	2.4	7.77e-01	0	47	104	0	60	1048574
2026-01-17 08:28:05.38	303.85	1.67	-84.7	-88.6	2.8	7.76e-01	0	47	104	0	60	1048572
2026-01-17 08:28:07.39	303.72	1.56	-84.7	-88.6	3.1	7.76e-01	0	47	104	0	60	1048575
2026-01-17 08:28:09.40	303.58	1.46	-84.7	-88.6	2.8	7.77e-01	0	47	104	0	60	1048573
2026-01-17 08:28:11.41	303.44	1.35	-84.7	-88.6	3.3	7.79e-01	0	47	104	0	60	1048575
2026-01-17 08:28:13.43	303.31	1.24	-84.7	-88.6	3.0	7.78e-01	0	47	104	0	60	1048570
2026-01-17 08:28:15.44	303.17	1.13	-84.7	-88.6	2.9	7.75e-01	0	47	104	0	60	1048575
2026-01-17 08:28:17.45	303.04	1.02	-84.7	-88.6	3.4	7.77e-01	0	47	104	0	60	1048570
2026-01-17 08:28:19.46	302.91	0.91	-84.7	-88.6	2.8	7.76e-01	0	47	104	0	60	1048572
2026-01-17 08:28:21.47	302.78	0.81	-84.7	-88.6	3.0	7.77e-01	0	47	104	0	60	1048572
2026-01-17 08:28:23.49	302.65	0.70	-84.7	-88.6	2.9	7.77e-01	0	47	104	0	60	1048571
2026-01-17 08:28:25.51	302.52	0.59	-84.7	-88.6	3.2	7.76e-01	0	47	104	0	60	1048575
2026-01-17 08:28:27.52	302.39	0.48	-84.7	-88.6	3.2	7.76e-01	0	47	104	0	60	1048575
2026-01-17 08:28:29.52	302.26	0.38	-84.7	-88.6	3.0	7.77e-01	0	47	104	0	60	1048574
2026-01-17 08:28:31.53	302.14	0.27	-84.7	-88.6	2.7	7.77e-01	0	47	104	0	60	1048572
2026-01-17 08:28:33.55	302.01	0.17	-84.7	-88.6	2.7	7.76e-01	0	47	104	0	60	1048575
2026-01-17 08:28:35.56	301.89	0.06	-84.7	-88.6	3.0	7.77e-01	0	47	104	0	60	1048575
2026-01-17 08:28:37.58	301.76	-0.05	-84.7	-88.6	2.5	7.75e-01	0	47	104	0	60	1048572

#Closed at: 2026-01-17 08:28:39
#Recorded file [0 MB]: D:/Data/35015_260117_112319.dat