passes_logs/2026/01/17/R3.2S-Naryan-Mar/R3.2S-Naryan-Mar__20260117_114412_NOAA_21_JPSS-2_rec.log

#Pass ID: 20260117_114412_NOAA 21 (JPSS-2)
#Satellite: NOAA 21 (JPSS-2)
#Configuration: NOAA-21
#almurnet v.1.7.20240730
#Start time: 2026-01-17 11:52:33

#Version: 2.2.20231116
#Station: R3.2S-Naryan-Mar
#Location: 53.008057 lon 67.646978 lat
#TLE: 1 54234U 22150A   26016.21096038  .00000027  00000+0  33607-4 0  9993
#TLE: 2 54234  98.7500 317.0960 0000625 282.3388  77.7718 14.19534911164985

#Time	Az	El	Level	Level2	SNR	BER	BlckErr	Temp	State	Recorded	gain1	gain2
2026-01-17 11:52:33.48	317.83	8.47	-83.5	-79.0	2.5	0.00e+00	0	47	0	0	60	1048571
2026-01-17 11:52:34.48	317.99	8.44	-85.2	-88.8	2.7	1.56e+00	0	48	104	0	60	1048570
2026-01-17 11:52:35.49	318.14	8.41	-85.2	-88.8	2.7	1.56e+00	0	48	104	0	60	1048575
2026-01-17 11:52:36.49	318.30	8.38	-85.2	-88.8	2.5	1.56e+00	0	48	104	0	60	1048575
2026-01-17 11:52:37.50	318.46	8.35	-85.2	-88.8	2.7	1.56e+00	0	48	104	0	60	1048575
2026-01-17 11:52:38.51	318.61	8.31	-85.2	-88.8	2.7	1.56e+00	0	48	104	0	60	1048575
2026-01-17 11:52:39.51	318.77	8.28	-85.2	-88.8	2.8	1.56e+00	0	48	104	0	60	1048574
2026-01-17 11:52:40.51	318.92	8.25	-85.2	-88.8	2.7	1.56e+00	0	48	104	0	60	1048575
2026-01-17 11:52:41.52	319.08	8.22	-85.2	-88.8	2.7	1.56e+00	0	48	104	0	60	1048575
2026-01-17 11:52:42.53	319.23	8.18	-85.2	-88.8	2.5	1.56e+00	0	48	104	0	60	1048574
2026-01-17 11:52:43.53	319.39	8.15	-85.2	-88.8	2.9	1.56e+00	0	48	104	0	60	1048573
2026-01-17 11:52:44.54	319.54	8.12	-85.2	-88.8	2.6	1.56e+00	0	48	104	0	60	1048575
2026-01-17 11:52:45.55	319.69	8.09	-85.2	-88.8	2.7	1.56e+00	0	47	104	0	60	1048574
2026-01-17 11:52:46.56	319.85	8.05	-85.2	-88.8	2.9	1.56e+00	0	48	104	0	60	1048574
2026-01-17 11:52:47.57	320.00	8.02	-85.2	-88.8	2.8	1.56e+00	0	48	104	0	60	1048575
2026-01-17 11:52:48.57	320.15	7.99	-85.2	-88.8	2.6	1.56e+00	0	48	104	0	60	1048573
2026-01-17 11:52:49.58	320.31	7.95	-85.2	-88.8	2.7	1.56e+00	0	48	104	0	60	1048573
2026-01-17 11:52:50.58	320.46	7.92	-85.2	-88.8	2.8	1.56e+00	0	48	104	0	60	1048574
2026-01-17 11:52:51.58	320.61	7.89	-85.2	-88.8	2.8	1.56e+00	0	48	104	0	60	1048573
2026-01-17 11:52:52.58	320.76	7.85	-85.2	-88.8	2.9	1.56e+00	0	48	104	0	60	1048575
2026-01-17 11:52:53.59	320.91	7.82	-85.2	-88.8	2.8	1.56e+00	0	48	104	0	60	1048575
2026-01-17 11:52:54.60	321.06	7.78	-85.2	-88.8	2.7	1.56e+00	0	48	104	0	60	1048571
2026-01-17 11:52:55.60	321.21	7.75	-85.2	-88.8	2.7	1.56e+00	0	48	104	0	60	1048575
2026-01-17 11:52:56.60	321.36	7.72	-85.2	-88.8	2.9	1.56e+00	0	48	104	0	60	1048575
2026-01-17 11:52:57.61	321.51	7.68	-85.2	-88.8	2.6	1.56e+00	0	48	104	0	60	1048574
2026-01-17 11:52:58.61	321.66	7.65	-85.2	-88.8	2.5	1.56e+00	0	48	104	0	60	1048574
2026-01-17 11:52:59.61	321.80	7.61	-84.7	-88.8	2.5	1.56e+00	0	48	104	0	60	1048572
2026-01-17 11:53:00.61	321.95	7.58	-85.2	-88.8	2.5	1.56e+00	0	48	104	0	60	1048575
2026-01-17 11:53:01.62	322.10	7.54	-85.2	-88.8	2.8	1.56e+00	0	48	104	0	60	1048573
2026-01-17 11:53:02.63	322.25	7.51	-85.2	-88.8	2.9	1.56e+00	0	48	104	0	60	1048575
2026-01-17 11:53:03.64	322.40	7.47	-85.2	-88.8	2.7	1.56e+00	0	48	104	0	60	1048575
2026-01-17 11:53:04.65	322.54	7.44	-85.2	-88.8	2.8	1.56e+00	0	48	104	0	60	1048574
2026-01-17 11:53:05.65	322.69	7.40	-85.2	-88.8	2.9	1.56e+00	0	48	104	0	60	1048575
2026-01-17 11:53:06.66	322.84	7.37	-85.2	-88.8	2.5	1.56e+00	0	47	104	0	60	1048572
2026-01-17 11:53:07.67	322.98	7.33	-83.5	-88.8	2.8	1.56e+00	0	48	104	0	60	1048573
2026-01-17 11:53:08.67	323.13	7.29	-85.2	-88.8	2.7	1.56e+00	0	48	104	0	60	1048575
2026-01-17 11:53:09.68	323.27	7.26	-85.2	-88.8	2.8	1.56e+00	0	48	104	0	60	1048575
2026-01-17 11:53:10.69	323.42	7.22	-85.2	-88.8	2.8	1.56e+00	0	48	104	0	60	1048573
2026-01-17 11:53:11.70	323.57	7.19	-85.2	-88.8	2.6	1.56e+00	0	48	104	0	60	1048572
2026-01-17 11:53:12.70	323.71	7.15	-85.2	-88.8	2.7	1.56e+00	0	47	104	0	60	1048575
2026-01-17 11:53:13.71	323.85	7.11	-85.2	-88.8	2.7	1.56e+00	0	47	104	0	60	1048572
2026-01-17 11:53:14.72	324.00	7.08	-85.2	-88.8	2.7	1.56e+00	0	48	104	0	60	1048574
2026-01-17 11:53:15.72	324.14	7.04	-85.2	-88.8	2.8	1.56e+00	0	48	104	0	60	1048575
2026-01-17 11:53:16.73	324.28	7.01	-85.2	-88.8	2.4	1.56e+00	0	48	104	0	60	1048574
2026-01-17 11:53:17.74	324.43	6.97	-85.2	-88.8	2.9	1.56e+00	0	48	104	0	60	1048569
2026-01-17 11:53:18.74	324.57	6.93	-85.2	-88.8	2.7	1.56e+00	0	48	104	0	60	1048573
2026-01-17 11:53:19.75	324.71	6.89	-85.2	-88.8	2.6	1.56e+00	0	47	104	0	60	1048565
2026-01-17 11:53:20.76	324.85	6.86	-85.2	-88.8	2.6	1.56e+00	0	47	104	0	60	1048575
2026-01-17 11:53:21.76	324.99	6.82	-85.2	-88.8	2.6	1.56e+00	0	48	104	0	60	1048566
2026-01-17 11:53:22.77	325.13	6.78	-85.2	-88.8	2.7	1.56e+00	0	47	104	0	60	1048575
2026-01-17 11:53:23.77	325.27	6.75	-85.2	-88.8	2.8	1.56e+00	0	48	104	0	60	1048575
2026-01-17 11:53:24.78	325.41	6.71	-85.2	-88.8	2.7	1.56e+00	0	47	104	0	60	1048575
2026-01-17 11:53:25.79	325.55	6.67	-85.2	-88.8	2.7	1.56e+00	0	48	104	0	60	1048575
2026-01-17 11:53:26.79	325.69	6.64	-85.2	-88.8	2.8	1.56e+00	0	47	104	0	60	1048574
2026-01-17 11:53:27.80	325.83	6.60	-85.2	-88.8	2.7	1.56e+00	0	47	104	0	60	1048570
2026-01-17 11:53:28.80	325.97	6.56	-83.9	-88.8	2.7	1.56e+00	0	48	104	0	60	1048574
2026-01-17 11:53:29.81	326.11	6.52	-85.2	-88.8	3.0	1.56e+00	0	47	104	0	60	1048571
2026-01-17 11:53:30.81	326.25	6.48	-85.2	-88.8	2.5	1.56e+00	0	47	104	0	60	1048575
2026-01-17 11:53:31.81	326.38	6.45	-85.2	-88.8	2.6	1.56e+00	0	48	104	0	60	1048575
2026-01-17 11:53:32.82	326.52	6.41	-85.2	-88.8	2.8	1.56e+00	0	47	104	0	60	1048574
2026-01-17 11:53:33.83	326.66	6.37	-85.2	-88.8	2.8	1.56e+00	0	47	104	0	60	1048573
2026-01-17 11:53:34.83	326.80	6.33	-85.2	-88.8	2.7	1.56e+00	0	47	104	0	60	1048575
2026-01-17 11:53:35.84	326.93	6.29	-85.2	-88.8	2.6	1.56e+00	0	47	104	0	60	1048574
2026-01-17 11:53:36.85	327.07	6.26	-85.2	-88.8	2.7	1.56e+00	0	47	104	0	60	1048569
2026-01-17 11:53:37.85	327.20	6.22	-85.2	-88.8	2.6	1.56e+00	0	47	104	0	60	1048572
2026-01-17 11:53:38.85	327.34	6.18	-85.2	-88.8	2.8	1.56e+00	0	48	104	0	60	1048572
2026-01-17 11:53:39.86	327.47	6.14	-85.2	-88.8	2.8	1.56e+00	0	47	104	0	60	1048574
2026-01-17 11:53:40.86	327.61	6.10	-85.2	-88.8	2.7	1.56e+00	0	48	104	0	60	1048574
2026-01-17 11:53:41.87	327.74	6.06	-85.2	-88.8	2.6	1.56e+00	0	47	104	0	60	1048573
2026-01-17 11:53:42.87	327.88	6.03	-85.2	-88.8	2.5	1.56e+00	0	47	104	0	60	1048561
2026-01-17 11:53:43.88	328.01	5.99	-85.2	-88.8	2.7	1.56e+00	0	48	104	0	60	1048573
2026-01-17 11:53:44.89	328.14	5.95	-85.2	-88.8	2.9	1.56e+00	0	47	104	0	60	1048574
2026-01-17 11:53:45.89	328.28	5.91	-85.2	-88.8	2.7	1.56e+00	0	48	104	0	60	1048569
2026-01-17 11:53:46.90	328.41	5.87	-84.7	-88.8	3.0	1.56e+00	0	48	104	0	60	1048573
2026-01-17 11:53:47.91	328.54	5.83	-85.2	-88.8	2.7	1.56e+00	0	47	104	0	60	1048575
2026-01-17 11:53:48.91	328.67	5.79	-85.2	-88.8	2.9	1.56e+00	0	47	104	0	60	1048575
2026-01-17 11:53:49.91	328.80	5.75	-85.2	-88.8	2.7	1.56e+00	0	47	104	0	60	1048574
2026-01-17 11:53:50.92	328.94	5.71	-85.2	-88.8	2.9	1.56e+00	0	48	104	0	60	1048574
2026-01-17 11:53:51.93	329.07	5.67	-85.2	-88.8	2.8	1.56e+00	0	47	104	0	60	1048566
2026-01-17 11:53:52.93	329.20	5.64	-85.2	-88.8	2.8	1.56e+00	0	48	104	0	60	1048571
2026-01-17 11:53:53.94	329.33	5.60	-85.2	-88.8	2.8	1.56e+00	0	47	104	0	60	1048574
2026-01-17 11:53:54.95	329.46	5.56	-85.2	-88.8	2.8	1.56e+00	0	48	104	0	60	1048575
2026-01-17 11:53:55.96	329.59	5.52	-85.2	-88.8	2.7	1.56e+00	0	47	104	0	60	1048575
2026-01-17 11:53:56.97	329.72	5.48	-85.2	-88.8	2.9	1.56e+00	0	47	104	0	60	1048575
2026-01-17 11:53:57.97	329.85	5.44	-85.2	-88.8	2.9	1.56e+00	0	47	104	0	60	1048571
2026-01-17 11:53:58.98	329.98	5.40	-85.2	-88.8	2.8	1.56e+00	0	47	104	0	60	1048575
2026-01-17 11:53:59.99	330.10	5.36	-85.2	-88.8	2.8	1.56e+00	0	47	104	0	60	1048574
2026-01-17 11:54:00.99	330.23	5.32	-85.2	-88.8	2.8	1.56e+00	0	47	104	0	60	1048574
2026-01-17 11:54:02.00	330.36	5.28	-85.2	-88.8	2.7	1.56e+00	0	47	104	0	60	1048571
2026-01-17 11:54:03.00	330.49	5.24	-85.2	-88.8	2.7	1.56e+00	0	48	104	0	60	1048570
2026-01-17 11:54:04.01	330.61	5.20	-85.2	-88.8	2.6	1.56e+00	0	47	104	0	60	1048573
2026-01-17 11:54:05.02	330.74	5.16	-85.2	-88.8	2.7	1.56e+00	0	47	104	0	60	1048573
2026-01-17 11:54:06.03	330.87	5.12	-84.7	-88.8	2.5	1.56e+00	0	47	104	0	60	1048572
2026-01-17 11:54:07.03	330.99	5.08	-85.2	-88.8	2.8	1.56e+00	0	47	104	0	60	1048575
2026-01-17 11:54:08.04	331.12	5.04	-85.2	-88.8	2.9	1.56e+00	0	47	104	0	60	1048575
2026-01-17 11:54:09.04	331.24	5.00	-85.2	-88.8	2.7	1.56e+00	0	47	104	0	60	1048572
2026-01-17 11:54:10.05	331.37	4.96	-85.2	-88.8	2.7	1.56e+00	0	47	104	0	60	1048575
2026-01-17 11:54:11.06	331.49	4.92	-85.2	-88.8	2.7	1.56e+00	0	47	104	0	60	1048573
2026-01-17 11:54:12.06	331.62	4.88	-85.2	-88.8	2.6	1.56e+00	0	47	104	0	60	1048572
2026-01-17 11:54:13.07	331.74	4.84	-85.2	-88.8	2.8	1.56e+00	0	48	104	0	60	1048575
2026-01-17 11:54:14.08	331.86	4.80	-85.2	-88.8	2.7	1.56e+00	0	48	104	0	60	1048572
2026-01-17 11:54:15.08	331.99	4.76	-85.2	-88.8	2.7	1.56e+00	0	47	104	0	60	1048565
2026-01-17 11:54:16.09	332.11	4.71	-85.2	-88.8	2.8	1.56e+00	0	47	104	0	60	1048575
2026-01-17 11:54:17.10	332.23	4.67	-84.7	-88.8	2.8	1.56e+00	0	48	104	0	60	1048573
2026-01-17 11:54:18.11	332.36	4.63	-85.2	-88.8	2.8	1.56e+00	0	47	104	0	60	1048575
2026-01-17 11:54:19.12	332.48	4.59	-85.2	-88.8	2.7	1.56e+00	0	47	104	0	60	1048574
2026-01-17 11:54:20.13	332.60	4.55	-85.2	-88.8	2.6	1.56e+00	0	47	104	0	60	1048575
2026-01-17 11:54:21.13	332.72	4.51	-85.2	-88.8	2.9	1.56e+00	0	47	104	0	60	1048575
2026-01-17 11:54:22.14	332.84	4.47	-85.2	-88.8	2.8	1.56e+00	0	47	104	0	60	1048575
2026-01-17 11:54:23.14	332.96	4.43	-85.2	-88.8	2.9	1.56e+00	0	47	104	0	60	1048575
2026-01-17 11:54:24.15	333.08	4.39	-85.2	-88.8	2.8	1.56e+00	0	47	104	0	60	1048574
2026-01-17 11:54:25.16	333.20	4.35	-85.2	-88.8	2.8	1.56e+00	0	47	104	0	60	1048575
2026-01-17 11:54:26.17	333.32	4.31	-85.2	-88.8	2.8	1.56e+00	0	47	104	0	60	1048575
2026-01-17 11:54:27.17	333.44	4.27	-85.2	-88.8	2.9	1.56e+00	0	47	104	0	60	1048575
2026-01-17 11:54:28.18	333.56	4.22	-85.2	-88.8	2.5	1.56e+00	0	47	104	0	60	1048568
2026-01-17 11:54:29.19	333.68	4.18	-84.7	-88.8	2.8	1.56e+00	0	47	104	0	60	1048575
2026-01-17 11:54:30.19	333.80	4.14	-85.2	-88.8	2.9	1.56e+00	0	47	104	0	60	1048574
2026-01-17 11:54:31.20	333.92	4.10	-85.2	-88.8	2.8	1.56e+00	0	47	104	0	60	1048575
2026-01-17 11:54:32.21	334.04	4.06	-85.2	-88.8	2.7	1.56e+00	0	47	104	0	60	1048575
2026-01-17 11:54:33.21	334.15	4.02	-85.2	-88.8	2.8	1.56e+00	0	47	104	0	60	1048560
2026-01-17 11:54:34.21	334.27	3.98	-85.2	-88.8	2.7	1.56e+00	0	47	104	0	60	1048575
2026-01-17 11:54:35.21	334.39	3.94	-85.2	-88.8	2.7	1.56e+00	0	47	104	0	60	1048573
2026-01-17 11:54:36.22	334.50	3.89	-85.2	-88.8	2.8	1.56e+00	0	47	104	0	60	1048574
2026-01-17 11:54:37.23	334.62	3.85	-85.2	-88.8	2.7	1.56e+00	0	47	104	0	60	1048570
2026-01-17 11:54:38.24	334.74	3.81	-85.2	-88.8	2.6	1.56e+00	0	47	104	0	60	1048575
2026-01-17 11:54:39.24	334.85	3.77	-85.2	-88.8	2.7	1.56e+00	0	47	104	0	60	1048575
2026-01-17 11:54:40.24	334.96	3.73	-85.2	-88.8	2.6	1.56e+00	0	48	104	0	60	1048572
2026-01-17 11:54:41.25	335.08	3.69	-85.2	-88.8	2.7	1.56e+00	0	48	104	0	60	1048574
2026-01-17 11:54:42.26	335.20	3.65	-85.2	-88.8	3.1	1.56e+00	0	48	104	0	60	1048574
2026-01-17 11:54:43.26	335.31	3.60	-85.2	-88.8	2.8	1.56e+00	0	48	104	0	60	1048574
2026-01-17 11:54:44.27	335.42	3.56	-85.2	-88.8	2.7	1.56e+00	0	47	104	0	60	1048569
2026-01-17 11:54:45.28	335.54	3.52	-85.2	-88.8	2.8	1.56e+00	0	47	104	0	60	1048571
2026-01-17 11:54:46.29	335.65	3.48	-85.2	-88.8	2.8	1.56e+00	0	47	104	0	60	1048572
2026-01-17 11:54:47.29	335.76	3.44	-85.2	-88.8	2.9	1.56e+00	0	47	104	0	60	1048570
2026-01-17 11:54:48.30	335.88	3.40	-85.2	-88.8	2.8	1.56e+00	0	48	104	0	60	1048574
2026-01-17 11:54:49.31	335.99	3.35	-85.2	-88.8	2.5	1.56e+00	0	47	104	0	60	1048575
2026-01-17 11:54:50.32	336.10	3.31	-85.2	-88.8	2.5	1.56e+00	0	47	104	0	60	1048571
2026-01-17 11:54:51.32	336.21	3.27	-84.3	-88.8	2.7	1.56e+00	0	47	104	0	60	1048572
2026-01-17 11:54:52.33	336.33	3.23	-85.2	-88.8	2.7	1.56e+00	0	48	104	0	60	1048567
2026-01-17 11:54:53.34	336.44	3.19	-85.2	-88.8	2.7	1.56e+00	0	47	104	0	60	1048575
2026-01-17 11:54:54.35	336.55	3.15	-85.2	-88.8	3.0	1.56e+00	0	47	104	0	60	1048575
2026-01-17 11:54:55.35	336.66	3.10	-85.2	-88.8	2.6	1.56e+00	0	47	104	0	60	1048575
2026-01-17 11:54:56.36	336.77	3.06	-85.2	-88.8	2.7	1.56e+00	0	47	104	0	60	1048574
2026-01-17 11:54:57.37	336.88	3.02	-85.2	-88.8	2.8	1.56e+00	0	47	104	0	60	1048570
2026-01-17 11:54:58.37	336.99	2.98	-84.7	-88.8	2.7	1.56e+00	0	47	104	0	60	1048574
2026-01-17 11:54:59.38	337.10	2.94	-85.2	-88.8	2.8	1.56e+00	0	47	104	0	60	1048559
2026-01-17 11:55:00.39	337.21	2.89	-85.2	-88.8	2.6	1.56e+00	0	47	104	0	60	1048575
2026-01-17 11:55:01.40	337.32	2.85	-85.2	-88.8	2.9	1.56e+00	0	47	104	0	60	1048573
2026-01-17 11:55:02.41	337.43	2.81	-85.2	-88.8	2.6	1.56e+00	0	47	104	0	60	1048575
2026-01-17 11:55:03.41	337.54	2.77	-84.7	-88.8	2.9	1.56e+00	0	47	104	0	60	1048575
2026-01-17 11:55:04.42	337.64	2.73	-85.2	-88.8	2.9	1.56e+00	0	47	104	0	60	1048573
2026-01-17 11:55:05.43	337.75	2.68	-85.2	-88.8	2.8	1.56e+00	0	47	104	0	60	1048573
2026-01-17 11:55:06.44	337.86	2.64	-85.2	-88.8	2.8	1.56e+00	0	47	104	0	60	1048574
2026-01-17 11:55:07.45	337.97	2.60	-85.2	-88.8	2.7	1.56e+00	0	47	104	0	60	1048575
2026-01-17 11:55:08.45	338.07	2.56	-84.7	-88.8	2.8	1.56e+00	0	47	104	0	60	1048573
2026-01-17 11:55:09.46	338.18	2.52	-85.2	-88.8	2.9	1.56e+00	0	47	104	0	60	1048575
2026-01-17 11:55:10.47	338.29	2.47	-85.2	-88.8	2.7	1.56e+00	0	47	104	0	60	1048573
2026-01-17 11:55:11.48	338.39	2.43	-85.2	-88.8	2.8	1.56e+00	0	47	104	0	60	1048575
2026-01-17 11:55:12.48	338.50	2.39	-85.2	-88.8	2.7	1.56e+00	0	47	104	0	60	1048574
2026-01-17 11:55:13.49	338.60	2.35	-84.7	-88.8	2.7	1.56e+00	0	47	104	0	60	1048574
2026-01-17 11:55:14.50	338.71	2.30	-85.2	-88.8	2.7	1.56e+00	0	47	104	0	60	1048575
2026-01-17 11:55:15.51	338.82	2.26	-85.2	-88.8	2.7	1.56e+00	0	47	104	0	60	1048569
2026-01-17 11:55:16.52	338.92	2.22	-84.3	-88.8	2.6	1.56e+00	0	47	104	0	60	1048575
2026-01-17 11:55:17.53	339.02	2.18	-85.2	-88.8	2.6	1.56e+00	0	47	104	0	60	1048573
2026-01-17 11:55:18.53	339.13	2.14	-85.2	-88.8	2.6	1.56e+00	0	47	104	0	60	1048574
2026-01-17 11:55:19.54	339.23	2.09	-85.2	-88.8	2.8	1.56e+00	0	47	104	0	60	1048575
2026-01-17 11:55:20.55	339.34	2.05	-85.2	-88.8	2.6	1.56e+00	0	47	104	0	60	1048572
2026-01-17 11:55:21.56	339.44	2.01	-84.3	-88.8	2.7	1.56e+00	0	47	104	0	60	1048575
2026-01-17 11:55:22.57	339.54	1.97	-85.2	-88.8	2.8	1.56e+00	0	47	104	0	60	1048571
2026-01-17 11:55:23.57	339.64	1.92	-85.2	-88.8	2.7	1.56e+00	0	47	104	0	60	1048573
2026-01-17 11:55:24.58	339.75	1.88	-85.2	-88.8	2.6	1.56e+00	0	47	104	0	60	1048575
2026-01-17 11:55:25.59	339.85	1.84	-85.2	-88.8	2.9	1.56e+00	0	47	104	0	60	1048575
2026-01-17 11:55:26.60	339.95	1.80	-85.2	-88.8	2.7	1.56e+00	0	47	104	0	60	1048573
2026-01-17 11:55:27.60	340.05	1.76	-85.2	-88.8	2.7	1.56e+00	0	47	104	0	60	1048575
2026-01-17 11:55:28.61	340.15	1.71	-85.2	-88.8	2.8	1.56e+00	0	47	104	0	60	1048575
2026-01-17 11:55:29.61	340.25	1.67	-85.2	-88.8	2.6	1.56e+00	0	47	104	0	60	1048571
2026-01-17 11:55:30.61	340.36	1.63	-85.2	-88.8	2.9	1.56e+00	0	47	104	0	60	1048575
2026-01-17 11:55:31.62	340.46	1.59	-83.9	-88.8	2.9	1.56e+00	0	47	104	0	60	1048568
2026-01-17 11:55:32.63	340.56	1.54	-85.2	-88.8	2.6	1.56e+00	0	47	104	0	60	1048574
2026-01-17 11:55:33.64	340.66	1.50	-85.2	-88.8	2.8	1.56e+00	0	47	104	0	60	1048571
2026-01-17 11:55:34.65	340.76	1.46	-85.2	-88.8	2.8	1.56e+00	0	47	104	0	60	1048572
2026-01-17 11:55:35.65	340.86	1.42	-85.2	-88.8	2.7	1.56e+00	0	47	104	0	60	1048575
2026-01-17 11:55:36.66	340.95	1.37	-84.3	-88.8	2.8	1.56e+00	0	47	104	0	60	1048570
2026-01-17 11:55:37.67	341.05	1.33	-84.3	-88.8	2.7	1.56e+00	0	47	104	0	60	1048574
2026-01-17 11:55:38.68	341.15	1.29	-85.2	-88.8	2.6	1.56e+00	0	47	104	0	60	1048575
2026-01-17 11:55:39.68	341.25	1.25	-85.2	-88.8	2.5	1.56e+00	0	47	104	0	60	1048575
2026-01-17 11:55:40.69	341.35	1.21	-85.2	-88.8	2.6	1.56e+00	0	47	104	0	60	1048575
2026-01-17 11:55:41.69	341.45	1.16	-83.5	-88.8	2.7	1.56e+00	0	47	104	0	60	1048571
2026-01-17 11:55:42.70	341.54	1.12	-85.2	-88.8	2.8	1.56e+00	0	47	104	0	60	1048574
2026-01-17 11:55:43.71	341.64	1.08	-85.2	-88.8	2.6	1.56e+00	0	47	104	0	60	1048575
2026-01-17 11:55:44.71	341.74	1.04	-85.2	-88.8	2.8	1.56e+00	0	47	104	0	60	1048573
2026-01-17 11:55:45.72	341.83	0.99	-85.2	-88.8	2.6	1.56e+00	0	47	104	0	60	1048574
2026-01-17 11:55:46.73	341.93	0.95	-85.2	-88.8	2.7	1.56e+00	0	47	104	0	60	1048570
2026-01-17 11:55:47.73	342.03	0.91	-85.2	-88.8	2.6	1.56e+00	0	47	104	0	60	1048573
2026-01-17 11:55:48.74	342.12	0.87	-85.2	-88.8	2.7	1.56e+00	0	47	104	0	60	1048573
2026-01-17 11:55:49.75	342.22	0.82	-85.2	-88.8	2.6	1.56e+00	0	47	104	0	60	1048575
2026-01-17 11:55:50.76	342.32	0.78	-85.2	-88.8	2.7	1.56e+00	0	47	104	0	60	1048575
2026-01-17 11:55:51.76	342.41	0.74	-85.2	-88.8	2.7	1.56e+00	0	47	104	0	60	1048571
2026-01-17 11:55:52.76	342.50	0.70	-85.2	-88.8	2.8	1.56e+00	0	47	104	0	60	1048573
2026-01-17 11:55:53.77	342.60	0.66	-85.2	-88.8	2.9	1.56e+00	0	47	104	0	60	1048575
2026-01-17 11:55:54.78	342.69	0.61	-85.2	-88.8	2.7	1.56e+00	0	47	104	0	60	1048569
2026-01-17 11:55:55.79	342.79	0.57	-85.2	-88.8	2.7	1.56e+00	0	47	104	0	60	1048575
2026-01-17 11:55:56.79	342.88	0.53	-85.2	-88.8	2.6	1.56e+00	0	47	104	0	60	1048575
2026-01-17 11:55:57.80	342.98	0.49	-84.3	-88.8	2.6	1.56e+00	0	47	104	0	60	1048575
2026-01-17 11:55:58.81	343.07	0.44	-85.2	-88.8	2.8	1.56e+00	0	47	104	0	60	1048574
2026-01-17 11:55:59.81	343.16	0.40	-85.2	-88.8	2.9	1.56e+00	0	47	104	0	60	1048563
2026-01-17 11:56:00.82	343.26	0.36	-85.2	-88.8	2.8	1.56e+00	0	47	104	0	60	1048575
2026-01-17 11:56:01.82	343.35	0.32	-85.2	-88.8	2.7	1.56e+00	0	47	104	0	60	1048574
2026-01-17 11:56:02.83	343.44	0.27	-85.2	-88.8	2.7	1.56e+00	0	47	104	0	60	1048572
2026-01-17 11:56:03.84	343.53	0.23	-85.2	-88.8	2.8	1.56e+00	0	47	104	0	60	1048572
2026-01-17 11:56:04.85	343.63	0.19	-85.2	-88.8	2.7	1.56e+00	0	47	104	0	60	1048571
2026-01-17 11:56:05.85	343.72	0.15	-85.2	-88.8	2.7	1.56e+00	0	47	104	0	60	1048575
2026-01-17 11:56:06.86	343.81	0.10	-85.2	-88.8	2.7	1.56e+00	0	47	104	0	60	1048573
2026-01-17 11:56:07.87	343.90	0.06	-85.2	-88.8	2.6	1.56e+00	0	47	104	0	60	1048572
2026-01-17 11:56:08.88	343.99	0.02	-85.2	-88.8	2.6	1.56e+00	0	47	104	0	60	1048570
2026-01-17 11:56:09.88	344.08	-0.02	-85.2	-88.8	2.7	1.56e+00	0	47	104	0	60	1048574

#Closed at: 2026-01-17 11:56:10
#Recorded file [0 MB]: D:/Data/35015_260117_145233.dat