passes_logs/2026/01/17/R3.2S-Naryan-Mar/R3.2S-Naryan-Mar__20260117_125628_TY-39_rec.log

#Pass ID: 20260117_125628_TY-39
#Satellite: TY-39
#Configuration: TY-39
#almurnet v.1.7.20240730
#Start time: 2026-01-17 13:00:47

#Version: 2.2.20231116
#Station: R3.2S-Naryan-Mar
#Location: 53.008057 lon 67.646978 lat
#TLE: 1 51832U 22019J   26016.93397770  .00000681  00000-0  35057-4 0  9992
#TLE: 2 51832  97.3651  83.5773 0009934  46.4665 313.7394 15.19639081214821

#Time	Az	El	Level	Level2	SNR	BER	BlckErr	Temp	State	Recorded	gain1	gain2
2026-01-17 13:00:47.11	11.52	9.49	-83.5	-79.0	2.1	0.00e+00	0	48	0	0	60	1048569
2026-01-17 13:00:49.12	11.01	9.49	-83.1	-79.0	2.4	0.00e+00	0	49	104	0	60	1048572
2026-01-17 13:00:51.14	10.50	9.49	-83.5	-79.0	2.3	0.00e+00	0	48	104	0	60	1048574
2026-01-17 13:00:53.15	10.00	9.49	-83.1	-79.0	2.4	0.00e+00	0	49	104	0	60	1048569
2026-01-17 13:00:55.16	9.49	9.49	-83.5	-79.0	2.4	0.00e+00	0	49	104	0	60	1048567
2026-01-17 13:00:57.18	8.98	9.48	-83.5	-79.0	2.4	0.00e+00	0	49	104	0	60	1048573
2026-01-17 13:00:59.19	8.47	9.47	-83.5	-79.0	2.4	0.00e+00	0	49	104	0	60	1048569
2026-01-17 13:01:01.21	7.96	9.46	-83.5	-79.0	2.5	0.00e+00	0	49	104	0	60	1048562
2026-01-17 13:01:03.22	7.46	9.45	-82.8	-79.0	2.2	0.00e+00	0	49	104	0	60	1048573
2026-01-17 13:01:05.23	6.95	9.44	-83.5	-79.0	2.5	0.00e+00	0	49	104	0	60	1048575
2026-01-17 13:01:07.25	6.45	9.42	-83.1	-79.0	2.4	0.00e+00	0	49	104	0	60	1048574
2026-01-17 13:01:09.27	5.94	9.41	-83.5	-79.0	2.3	0.00e+00	0	49	104	0	60	1048573
2026-01-17 13:01:11.28	5.44	9.39	-83.5	-79.0	2.3	0.00e+00	0	49	104	0	60	1048575
2026-01-17 13:01:13.30	4.93	9.37	-83.5	-79.0	2.4	0.00e+00	0	49	104	0	60	1048574
2026-01-17 13:01:15.31	4.43	9.35	-83.1	-79.0	2.5	0.00e+00	0	49	104	0	60	1048572
2026-01-17 13:01:17.32	3.93	9.32	-83.1	-79.0	2.4	0.00e+00	0	49	104	0	60	1048571
2026-01-17 13:01:19.33	3.43	9.30	-83.5	-79.0	2.4	0.00e+00	0	48	104	0	60	1048574
2026-01-17 13:01:21.35	2.93	9.27	-83.5	-79.0	2.3	0.00e+00	0	48	104	0	60	1048572
2026-01-17 13:01:23.36	2.44	9.24	-83.5	-79.0	2.4	0.00e+00	0	49	104	0	60	1048575
2026-01-17 13:01:25.38	1.94	9.21	-83.5	-79.0	2.5	0.00e+00	0	49	104	0	60	1048574
2026-01-17 13:01:27.39	1.44	9.18	-82.8	-79.0	2.4	0.00e+00	0	49	104	0	60	1048575
2026-01-17 13:01:29.40	0.95	9.14	-83.5	-79.0	2.5	0.00e+00	0	49	104	0	60	1048575
2026-01-17 13:01:31.41	0.46	9.11	-83.1	-79.0	2.5	0.00e+00	0	49	104	0	60	1048573
2026-01-17 13:01:33.43	359.97	9.07	-83.5	-79.0	2.3	0.00e+00	0	49	104	0	60	1048574
2026-01-17 13:01:35.44	359.48	9.03	-83.5	-79.0	2.2	0.00e+00	0	48	104	0	60	1048571
2026-01-17 13:01:37.45	358.99	8.99	-83.5	-79.0	2.5	0.00e+00	0	48	104	0	60	1048574
2026-01-17 13:01:39.47	358.51	8.95	-83.5	-79.0	2.4	0.00e+00	0	49	104	0	60	1048569
2026-01-17 13:01:41.49	358.02	8.91	-83.1	-79.0	2.4	0.00e+00	0	49	104	0	60	1048569
2026-01-17 13:01:43.50	357.54	8.86	-83.5	-79.0	2.4	0.00e+00	0	49	104	0	60	1048571
2026-01-17 13:01:45.52	357.06	8.82	-83.1	-79.0	2.4	0.00e+00	0	49	104	0	60	1048574
2026-01-17 13:01:47.53	356.58	8.77	-83.5	-79.0	2.4	0.00e+00	0	49	104	0	60	1048570
2026-01-17 13:01:49.55	356.10	8.72	-83.5	-79.0	2.3	0.00e+00	0	49	104	0	60	1048575
2026-01-17 13:01:51.56	355.63	8.67	-83.5	-79.0	2.4	0.00e+00	0	49	104	0	60	1048572
2026-01-17 13:01:53.57	355.16	8.61	-83.5	-79.0	2.5	0.00e+00	0	49	104	0	60	1048568
2026-01-17 13:01:55.58	354.69	8.56	-83.1	-79.0	2.4	0.00e+00	0	49	104	0	60	1048572
2026-01-17 13:01:57.59	354.22	8.51	-83.5	-79.0	2.4	0.00e+00	0	49	104	0	60	1048572
2026-01-17 13:01:59.60	353.76	8.45	-83.1	-79.0	2.4	0.00e+00	0	49	104	0	60	1048572
2026-01-17 13:02:01.62	353.30	8.39	-83.5	-79.0	2.5	0.00e+00	0	49	104	0	60	1048574
2026-01-17 13:02:03.63	352.84	8.33	-83.5	-79.0	2.5	0.00e+00	0	49	104	0	60	1048570
2026-01-17 13:02:05.63	352.38	8.27	-83.1	-79.0	2.4	0.00e+00	0	49	104	0	60	1048570
2026-01-17 13:02:07.65	351.92	8.21	-83.5	-79.0	2.5	0.00e+00	0	49	104	0	60	1048573
2026-01-17 13:02:09.66	351.47	8.15	-83.1	-79.0	2.5	0.00e+00	0	48	104	0	60	1048573
2026-01-17 13:02:11.67	351.02	8.08	-83.5	-79.0	2.5	0.00e+00	0	48	104	0	60	1048574
2026-01-17 13:02:13.68	350.57	8.02	-83.5	-79.0	2.5	0.00e+00	0	48	104	0	60	1048568
2026-01-17 13:02:15.69	350.13	7.95	-83.5	-79.0	2.5	0.00e+00	0	48	104	0	60	1048572
2026-01-17 13:02:17.70	349.69	7.89	-83.5	-79.0	2.4	0.00e+00	0	49	104	0	60	1048575
2026-01-17 13:02:19.71	349.25	7.82	-83.1	-79.0	2.4	0.00e+00	0	49	104	0	60	1048571
2026-01-17 13:02:21.72	348.81	7.75	-83.5	-79.0	2.4	0.00e+00	0	49	104	0	60	1048572
2026-01-17 13:02:23.73	348.37	7.68	-83.1	-79.0	2.4	0.00e+00	0	49	104	0	60	1048570
2026-01-17 13:02:25.74	347.94	7.61	-83.5	-79.0	2.5	0.00e+00	0	49	104	0	60	1048574
2026-01-17 13:02:27.75	347.51	7.53	-83.5	-79.0	2.4	0.00e+00	0	49	104	0	60	1048574
2026-01-17 13:02:29.77	347.08	7.46	-83.5	-79.0	2.3	0.00e+00	0	49	104	0	60	1048574
2026-01-17 13:02:31.79	346.66	7.38	-83.5	-79.0	2.4	0.00e+00	0	49	104	0	60	1048572
2026-01-17 13:02:33.80	346.24	7.31	-83.1	-79.0	2.3	0.00e+00	0	49	104	0	60	1048575
2026-01-17 13:02:35.81	345.82	7.23	-83.5	-79.0	2.4	0.00e+00	0	49	104	0	60	1048574
2026-01-17 13:02:37.83	345.40	7.15	-83.1	-79.0	2.5	0.00e+00	0	49	104	0	60	1048574
2026-01-17 13:02:39.84	344.99	7.08	-83.5	-79.0	2.4	0.00e+00	0	49	104	0	60	1048573
2026-01-17 13:02:41.86	344.58	7.00	-83.5	-79.0	2.3	0.00e+00	0	49	104	0	60	1048574
2026-01-17 13:02:43.88	344.17	6.92	-83.5	-79.0	2.5	0.00e+00	0	49	104	0	60	1048575
2026-01-17 13:02:45.89	343.76	6.84	-83.5	-79.0	2.5	0.00e+00	0	49	104	0	60	1048575
2026-01-17 13:02:47.91	343.36	6.75	-82.8	-79.0	2.4	0.00e+00	0	49	104	0	60	1048571
2026-01-17 13:02:49.93	342.96	6.67	-83.5	-79.0	2.3	0.00e+00	0	49	104	0	60	1048570
2026-01-17 13:02:51.94	342.57	6.59	-83.5	-79.0	2.3	0.00e+00	0	49	104	0	60	1048575
2026-01-17 13:02:53.95	342.17	6.51	-83.5	-79.0	2.4	0.00e+00	0	49	104	0	60	1048573
2026-01-17 13:02:55.96	341.78	6.42	-83.5	-79.0	2.4	0.00e+00	0	48	104	0	60	1048575
2026-01-17 13:02:57.96	341.40	6.34	-83.1	-79.0	2.3	0.00e+00	0	49	104	0	60	1048574
2026-01-17 13:02:59.97	341.02	6.25	-83.5	-79.0	2.6	0.00e+00	0	49	104	0	60	1048575
2026-01-17 13:03:01.98	340.63	6.16	-83.1	-79.0	2.5	0.00e+00	0	49	104	0	60	1048575
2026-01-17 13:03:03.99	340.26	6.08	-83.5	-79.0	2.4	0.00e+00	0	49	104	0	60	1048564
2026-01-17 13:03:06.01	339.88	5.99	-83.5	-79.0	2.4	0.00e+00	0	49	104	0	60	1048575
2026-01-17 13:03:08.02	339.51	5.90	-83.1	-79.0	2.5	0.00e+00	0	49	104	0	60	1048573
2026-01-17 13:03:10.04	339.14	5.81	-83.5	-79.0	2.4	0.00e+00	0	49	104	0	60	1048571
2026-01-17 13:03:12.05	338.77	5.72	-83.1	-79.0	2.4	0.00e+00	0	49	104	0	60	1048570
2026-01-17 13:03:14.07	338.40	5.63	-83.5	-79.0	2.3	0.00e+00	0	49	104	0	60	1048573
2026-01-17 13:03:16.08	338.04	5.54	-82.8	-79.0	2.5	0.00e+00	0	49	104	0	60	1048568
2026-01-17 13:03:18.10	337.68	5.45	-83.5	-79.0	2.4	0.00e+00	0	49	104	0	60	1048574
2026-01-17 13:03:20.11	337.33	5.36	-83.5	-79.0	2.5	0.00e+00	0	49	104	0	60	1048572
2026-01-17 13:03:22.12	336.98	5.27	-83.1	-79.0	2.5	0.00e+00	0	49	104	0	60	1048574
2026-01-17 13:03:24.13	336.63	5.18	-83.5	-79.0	2.4	0.00e+00	0	49	104	0	60	1048573
2026-01-17 13:03:26.14	336.28	5.09	-83.1	-79.0	2.4	0.00e+00	0	49	104	0	60	1048572
2026-01-17 13:03:28.15	335.94	4.99	-83.5	-79.0	2.3	0.00e+00	0	49	104	0	60	1048572
2026-01-17 13:03:30.17	335.59	4.90	-83.1	-79.0	2.3	0.00e+00	0	49	104	0	60	1048574
2026-01-17 13:03:32.17	335.26	4.81	-83.5	-79.0	2.4	0.00e+00	0	49	104	0	60	1048568
2026-01-17 13:03:34.19	334.92	4.71	-83.5	-79.0	2.5	0.00e+00	0	49	104	0	60	1048575
2026-01-17 13:03:36.21	334.59	4.62	-83.1	-79.0	2.5	0.00e+00	0	49	104	0	60	1048574
2026-01-17 13:03:38.22	334.26	4.53	-83.5	-79.0	2.4	0.00e+00	0	49	104	0	60	1048575
2026-01-17 13:03:40.23	333.93	4.43	-83.1	-79.0	2.4	0.00e+00	0	49	104	0	60	1048572
2026-01-17 13:03:42.25	333.60	4.34	-83.5	-79.0	2.3	0.00e+00	0	49	104	0	60	1048572
2026-01-17 13:03:44.26	333.28	4.24	-83.1	-79.0	2.5	0.00e+00	0	49	104	0	60	1048574
2026-01-17 13:03:46.27	332.96	4.15	-83.5	-79.0	2.4	0.00e+00	0	49	104	0	60	1048573
2026-01-17 13:03:48.28	332.65	4.05	-83.1	-79.0	2.5	0.00e+00	0	49	104	0	60	1048571
2026-01-17 13:03:50.29	332.33	3.96	-83.5	-79.0	2.3	0.00e+00	0	49	104	0	60	1048565
2026-01-17 13:03:52.31	332.02	3.86	-83.5	-79.0	2.3	0.00e+00	0	49	104	0	60	1048575
2026-01-17 13:03:54.32	331.71	3.76	-83.1	-79.0	2.4	0.00e+00	0	49	104	0	60	1048573
2026-01-17 13:03:56.34	331.40	3.67	-83.5	-79.0	2.5	0.00e+00	0	49	104	0	60	1048570
2026-01-17 13:03:58.35	331.10	3.57	-83.1	-79.0	2.4	0.00e+00	0	49	104	0	60	1048572
2026-01-17 13:04:00.37	330.80	3.47	-83.5	-79.0	2.5	0.00e+00	0	49	104	0	60	1048574
2026-01-17 13:04:02.38	330.50	3.38	-83.5	-79.0	2.4	0.00e+00	0	49	104	0	60	1048575
2026-01-17 13:04:04.40	330.21	3.28	-83.5	-79.0	2.4	0.00e+00	0	49	104	0	60	1048573
2026-01-17 13:04:06.40	329.91	3.18	-83.1	-79.0	2.4	0.00e+00	0	49	104	0	60	1048575
2026-01-17 13:04:08.42	329.62	3.08	-83.1	-79.0	2.3	0.00e+00	0	49	104	0	60	1048573
2026-01-17 13:04:10.43	329.33	2.99	-83.5	-79.0	2.5	0.00e+00	0	49	104	0	60	1048569
2026-01-17 13:04:12.45	329.05	2.89	-83.5	-79.0	2.4	0.00e+00	0	48	104	0	60	1048568
2026-01-17 13:04:14.47	328.76	2.79	-83.5	-79.0	2.4	0.00e+00	0	49	104	0	60	1048575
2026-01-17 13:04:16.49	328.48	2.69	-83.5	-79.0	2.3	0.00e+00	0	49	104	0	60	1048575
2026-01-17 13:04:18.50	328.20	2.60	-82.8	-79.0	2.4	0.00e+00	0	49	104	0	60	1048575
2026-01-17 13:04:20.51	327.93	2.50	-83.5	-79.0	2.3	0.00e+00	0	49	104	0	60	1048575
2026-01-17 13:04:22.52	327.66	2.40	-82.8	-79.0	2.3	0.00e+00	0	49	104	0	60	1048574
2026-01-17 13:04:24.54	327.38	2.30	-83.5	-79.0	2.5	0.00e+00	0	49	104	0	60	1048575
2026-01-17 13:04:26.55	327.12	2.20	-83.5	-79.0	2.4	0.00e+00	0	49	104	0	60	1048573
2026-01-17 13:04:28.57	326.85	2.11	-83.5	-79.0	2.3	0.00e+00	0	49	104	0	60	1048575
2026-01-17 13:04:30.58	326.58	2.01	-83.5	-79.0	2.4	0.00e+00	0	49	104	0	60	1048572
2026-01-17 13:04:32.60	326.32	1.91	-83.1	-79.0	2.3	0.00e+00	0	49	104	0	60	1048574
2026-01-17 13:04:34.61	326.06	1.81	-83.5	-79.0	2.4	0.00e+00	0	49	104	0	60	1048575
2026-01-17 13:04:36.62	325.81	1.71	-83.5	-79.0	2.5	0.00e+00	0	49	104	0	60	1048564
2026-01-17 13:04:38.63	325.55	1.62	-83.5	-79.0	2.5	0.00e+00	0	49	104	0	60	1048573
2026-01-17 13:04:40.64	325.30	1.52	-83.5	-79.0	2.5	0.00e+00	0	49	104	0	60	1048574
2026-01-17 13:04:42.66	325.05	1.42	-83.5	-79.0	2.5	0.00e+00	0	49	104	0	60	1048573
2026-01-17 13:04:44.67	324.80	1.32	-83.5	-79.0	2.4	0.00e+00	0	49	104	0	60	1048573
2026-01-17 13:04:46.69	324.55	1.22	-82.8	-79.0	2.4	0.00e+00	0	48	104	0	60	1048575
2026-01-17 13:04:48.71	324.31	1.13	-83.5	-79.0	2.4	0.00e+00	0	49	104	0	60	1048572
2026-01-17 13:04:50.73	324.06	1.03	-83.5	-79.0	2.4	0.00e+00	0	49	104	0	60	1048574
2026-01-17 13:04:52.74	323.82	0.93	-83.1	-79.0	2.3	0.00e+00	0	49	104	0	60	1048574
2026-01-17 13:04:54.76	323.58	0.83	-83.5	-79.0	2.3	0.00e+00	0	49	104	0	60	1048574
2026-01-17 13:04:56.76	323.35	0.73	-83.1	-79.0	2.4	0.00e+00	0	49	104	0	60	1048574
2026-01-17 13:04:58.78	323.12	0.64	-83.5	-79.0	2.4	0.00e+00	0	49	104	0	60	1048568
2026-01-17 13:05:00.79	322.88	0.54	-83.1	-79.0	2.4	0.00e+00	0	49	104	0	60	1048575
2026-01-17 13:05:02.81	322.65	0.44	-83.5	-79.0	2.5	0.00e+00	0	49	104	0	60	1048572
2026-01-17 13:05:04.81	322.43	0.34	-83.5	-79.0	2.5	0.00e+00	0	49	104	0	60	1048572
2026-01-17 13:05:06.83	322.20	0.25	-83.5	-79.0	2.3	0.00e+00	0	49	104	0	60	1048568
2026-01-17 13:05:08.84	321.98	0.15	-83.5	-79.0	2.3	0.00e+00	0	49	104	0	60	1048575
2026-01-17 13:05:10.85	321.76	0.05	-82.8	-79.0	2.3	0.00e+00	0	49	104	0	60	1048574

#Closed at: 2026-01-17 13:05:12
#Recorded file [0 MB]: D:/Data/35015_260117_160047.dat