passes_logs/2026/01/17/R3.2S-Naryan-Mar/R3.2S-Naryan-Mar__20260117_172941_TY-41_rec.log

#Pass ID: 20260117_172941_TY-41
#Satellite: TY-41
#Configuration: TY-39
#almurnet v.1.7.20240730
#Start time: 2026-01-17 17:29:44

#Version: 2.2.20231116
#Station: R3.2S-Naryan-Mar
#Location: 53.008057 lon 67.646978 lat
#TLE: 1 61231U 24173E   26017.08983796  .00008010  00000-0  38191-3 0 09990
#TLE: 2 61231 097.4122 092.0846 0001831 091.8622 061.7654 15.19167953 72814

#Time	Az	El	Level	Level2	SNR	BER	BlckErr	Temp	State	Recorded	gain1	gain2
2026-01-17 17:29:44.15	157.04	0.18	-83.1	-79.0	2.7	0.00e+00	0	46	0	0	60	1048574
2026-01-17 17:29:47.16	157.05	0.37	-83.1	-79.0	2.4	0.00e+00	0	46	104	0	60	1048572
2026-01-17 17:29:50.18	157.06	0.57	-83.5	-79.0	2.3	0.00e+00	0	46	104	0	60	1048571
2026-01-17 17:29:53.21	157.07	0.77	-83.5	-79.0	2.4	0.00e+00	0	46	104	0	60	1048575
2026-01-17 17:29:56.23	157.07	0.97	-83.1	-79.0	2.2	0.00e+00	0	46	104	0	60	1048573
2026-01-17 17:29:59.25	157.08	1.17	-83.5	-79.0	2.4	0.00e+00	0	46	104	0	60	1048572
2026-01-17 17:30:02.28	157.09	1.38	-83.5	-79.0	2.3	0.00e+00	0	46	104	0	60	1048569
2026-01-17 17:30:05.30	157.10	1.58	-83.1	-79.0	2.3	0.00e+00	0	46	104	0	60	1048574
2026-01-17 17:30:08.32	157.10	1.79	-83.5	-79.0	2.4	0.00e+00	0	47	104	0	60	1048571
2026-01-17 17:30:11.33	157.11	2.00	-83.5	-79.0	2.4	0.00e+00	0	47	104	0	60	1048575
2026-01-17 17:30:14.35	157.12	2.21	-83.1	-79.0	2.4	0.00e+00	0	47	104	0	60	1048566
2026-01-17 17:30:17.37	157.12	2.43	-83.5	-79.0	2.4	0.00e+00	0	47	104	0	60	1048569
2026-01-17 17:30:20.39	157.13	2.65	-83.1	-79.0	2.4	0.00e+00	0	47	104	0	60	1048575
2026-01-17 17:30:23.41	157.14	2.87	-83.5	-79.0	2.1	0.00e+00	0	47	104	0	60	1048574
2026-01-17 17:30:26.43	157.15	3.09	-83.5	-79.0	2.4	0.00e+00	0	47	104	0	60	1048575
2026-01-17 17:30:29.45	157.15	3.31	-83.1	-79.0	2.3	0.00e+00	0	47	104	0	60	1048573
2026-01-17 17:30:32.47	157.16	3.54	-83.5	-79.0	2.4	0.00e+00	0	47	104	0	60	1048575
2026-01-17 17:30:35.49	157.17	3.76	-83.5	-79.0	2.1	0.00e+00	0	47	104	0	60	1048568
2026-01-17 17:30:38.50	157.17	4.00	-82.8	-79.0	2.4	0.00e+00	0	47	104	0	60	1048565
2026-01-17 17:30:41.52	157.18	4.23	-83.5	-79.0	2.2	0.00e+00	0	47	104	0	60	1048575
2026-01-17 17:30:44.54	157.19	4.47	-83.1	-79.0	2.4	0.00e+00	0	47	104	0	60	1048575
2026-01-17 17:30:47.56	157.19	4.70	-83.5	-79.0	2.2	0.00e+00	0	47	104	0	60	1048568
2026-01-17 17:30:50.59	157.20	4.95	-83.5	-79.0	2.4	0.00e+00	0	47	104	0	60	1048565
2026-01-17 17:30:53.61	157.21	5.19	-83.1	-79.0	2.3	0.00e+00	0	47	104	0	60	1048573
2026-01-17 17:30:56.62	157.21	5.44	-83.5	-79.0	2.5	0.00e+00	0	47	104	0	60	1048563
2026-01-17 17:30:59.64	157.22	5.69	-83.5	-79.0	2.4	0.00e+00	0	47	104	0	60	1048574
2026-01-17 17:31:02.66	157.22	5.95	-83.1	-79.0	2.4	0.00e+00	0	47	104	0	60	1048575
2026-01-17 17:31:05.69	157.23	6.20	-83.5	-79.0	2.5	0.00e+00	0	47	104	0	60	1048570
2026-01-17 17:31:08.71	157.24	6.47	-83.5	-79.0	2.4	0.00e+00	0	47	104	0	60	1048574
2026-01-17 17:31:11.73	157.24	6.73	-82.8	-79.0	2.3	0.00e+00	0	47	104	0	60	1048573
2026-01-17 17:31:14.74	157.25	7.00	-83.5	-79.0	2.1	0.00e+00	0	48	104	0	60	1048573
2026-01-17 17:31:17.76	157.25	7.27	-83.5	-79.0	2.4	0.00e+00	0	48	104	0	60	1048567
2026-01-17 17:31:20.78	157.26	7.55	-83.1	-79.0	2.4	0.00e+00	0	48	104	0	60	1048574
2026-01-17 17:31:23.80	157.26	7.83	-83.5	-79.0	2.4	0.00e+00	0	48	104	0	60	1048568
2026-01-17 17:31:26.82	157.27	8.11	-83.1	-79.0	2.2	0.00e+00	0	48	104	0	60	1048571
2026-01-17 17:31:29.84	157.27	8.40	-83.5	-79.0	2.4	0.00e+00	0	48	104	0	60	1048575
2026-01-17 17:31:32.85	157.28	8.69	-83.5	-79.0	2.4	0.00e+00	0	48	104	0	60	1048570
2026-01-17 17:31:35.87	157.28	8.99	-83.1	-79.0	2.2	0.00e+00	0	48	104	0	60	1048571
2026-01-17 17:31:38.90	157.29	9.29	-83.5	-79.0	2.3	0.00e+00	0	48	104	0	60	1048568
2026-01-17 17:31:41.92	157.29	9.60	-83.1	-79.0	2.5	0.00e+00	0	48	104	0	60	1048574
2026-01-17 17:31:44.95	157.30	9.92	-82.8	-79.0	2.4	0.00e+00	0	48	104	0	60	1048575
2026-01-17 17:31:47.96	157.30	10.23	-83.1	-79.0	2.3	0.00e+00	0	48	104	0	60	1048575
2026-01-17 17:31:50.96	157.31	10.55	-83.1	-79.0	2.2	0.00e+00	0	48	104	0	60	1048574
2026-01-17 17:31:53.97	157.31	10.88	-83.1	-79.0	2.4	0.00e+00	0	48	104	0	60	1048575
2026-01-17 17:31:57.00	157.31	11.22	-83.5	-79.0	2.4	0.00e+00	0	48	104	0	60	1048573
2026-01-17 17:32:00.02	157.32	11.56	-83.1	-79.0	2.4	0.00e+00	0	48	104	0	60	1048571
2026-01-17 17:32:03.03	157.32	11.91	-83.5	-79.0	2.4	0.00e+00	0	48	104	0	60	1048573
2026-01-17 17:32:06.05	157.32	12.26	-83.5	-79.0	2.5	0.00e+00	0	48	104	0	60	1048566
2026-01-17 17:32:09.07	157.33	12.62	-83.1	-79.0	2.3	0.00e+00	0	48	104	0	60	1048574
2026-01-17 17:32:12.09	157.33	12.99	-83.5	-79.0	2.4	0.00e+00	0	48	104	0	60	1048566
2026-01-17 17:32:15.11	157.33	13.37	-83.5	-79.0	2.3	0.00e+00	0	48	104	0	60	1048571
2026-01-17 17:32:18.13	157.33	13.75	-83.1	-79.0	2.3	0.00e+00	0	48	104	0	60	1048573
2026-01-17 17:32:21.14	157.34	14.14	-83.5	-79.0	2.5	0.00e+00	0	48	104	0	60	1048572
2026-01-17 17:32:24.15	157.34	14.54	-83.5	-79.0	2.3	0.00e+00	0	48	104	0	60	1048574
2026-01-17 17:32:27.17	157.34	14.95	-83.5	-79.0	2.4	0.00e+00	0	48	104	0	60	1048574
2026-01-17 17:32:30.18	157.34	15.36	-83.5	-79.0	2.2	0.00e+00	0	48	104	0	60	1048574
2026-01-17 17:32:33.21	157.34	15.79	-82.8	-79.0	2.5	0.00e+00	0	48	104	0	60	1048574
2026-01-17 17:32:36.22	157.34	16.23	-83.5	-79.0	2.4	0.00e+00	0	48	104	0	60	1048574
2026-01-17 17:32:39.24	157.34	16.67	-83.1	-79.0	2.3	0.00e+00	0	48	104	0	60	1048575
2026-01-17 17:32:42.25	157.34	17.13	-82.8	-79.0	2.5	0.00e+00	0	48	104	0	60	1048575
2026-01-17 17:32:45.28	157.34	17.60	-83.1	-79.0	2.3	0.00e+00	0	48	104	0	60	1048574
2026-01-17 17:32:48.29	157.34	18.08	-83.5	-79.0	2.3	0.00e+00	0	48	104	0	60	1048572
2026-01-17 17:32:51.31	157.34	18.57	-83.1	-79.0	2.3	0.00e+00	0	48	104	0	60	1048574
2026-01-17 17:32:54.32	157.33	19.08	-83.5	-79.0	2.4	0.00e+00	0	48	104	0	60	1048569
2026-01-17 17:32:57.34	157.33	19.59	-83.1	-79.0	2.3	0.00e+00	0	48	104	0	60	1048568
2026-01-17 17:33:00.36	157.33	20.13	-83.5	-79.0	2.4	0.00e+00	0	48	104	0	60	1048565
2026-01-17 17:33:03.38	157.32	20.67	-83.1	-79.0	2.2	0.00e+00	0	48	104	0	60	1048575
2026-01-17 17:33:06.40	157.32	21.24	-83.1	-79.0	2.4	0.00e+00	0	48	104	0	60	1048574
2026-01-17 17:33:09.41	157.31	21.81	-83.5	-79.0	2.4	0.00e+00	0	48	104	0	60	1048575
2026-01-17 17:33:12.41	157.31	22.40	-83.5	-79.0	2.4	0.00e+00	0	48	104	0	60	1048573
2026-01-17 17:33:15.43	157.30	23.02	-82.8	-79.0	2.4	0.00e+00	0	48	104	0	60	1048574
2026-01-17 17:33:18.45	157.30	23.65	-83.5	-79.0	2.2	0.00e+00	0	48	104	0	60	1048568
2026-01-17 17:33:21.47	157.29	24.30	-83.5	-79.0	2.3	0.00e+00	0	48	104	0	60	1048574
2026-01-17 17:33:24.49	157.28	24.97	-83.1	-79.0	2.5	0.00e+00	0	48	104	0	60	1048574
2026-01-17 17:33:27.51	157.27	25.66	-83.5	-79.0	2.4	0.00e+00	0	48	104	0	60	1048575
2026-01-17 17:33:30.52	157.26	26.37	-82.8	-79.0	2.1	0.00e+00	0	48	104	0	60	1048569
2026-01-17 17:33:33.54	157.24	27.11	-83.5	-79.0	2.4	0.00e+00	0	48	104	0	60	1048575
2026-01-17 17:33:36.57	157.23	27.88	-83.5	-79.0	2.3	0.00e+00	0	48	104	0	60	1048575
2026-01-17 17:33:39.59	157.22	28.66	-82.8	-79.0	2.4	0.00e+00	0	48	104	0	60	1048574
2026-01-17 17:33:42.59	157.20	29.48	-83.5	-79.0	2.1	0.00e+00	0	48	104	0	60	1048569
2026-01-17 17:33:45.60	157.18	30.32	-83.5	-79.0	2.4	0.00e+00	0	48	104	0	60	1048571
2026-01-17 17:33:48.61	157.16	31.19	-83.1	-79.0	2.5	0.00e+00	0	48	104	0	60	1048575
2026-01-17 17:33:51.64	157.14	32.10	-83.5	-79.0	2.5	0.00e+00	0	48	104	0	60	1048575
2026-01-17 17:33:54.66	157.12	33.04	-83.1	-79.0	2.4	0.00e+00	0	48	104	0	60	1048575
2026-01-17 17:33:57.68	157.09	34.02	-83.5	-79.0	2.4	0.00e+00	0	48	104	0	60	1048568
2026-01-17 17:34:00.70	157.06	35.03	-83.5	-79.0	2.4	0.00e+00	0	48	104	0	60	1048575
2026-01-17 17:34:03.71	157.03	36.08	-83.1	-79.0	2.5	0.00e+00	0	48	104	0	60	1048569
2026-01-17 17:34:06.73	157.00	37.17	-83.5	-79.0	2.4	0.00e+00	0	48	104	0	60	1048566
2026-01-17 17:34:09.76	156.96	38.31	-83.5	-79.0	2.4	0.00e+00	0	48	104	0	60	1048575
2026-01-17 17:34:12.78	156.92	39.49	-83.1	-79.0	2.3	0.00e+00	0	48	104	0	60	1048575
2026-01-17 17:34:15.80	156.88	40.72	-83.5	-79.0	2.4	0.00e+00	0	48	104	0	60	1048575
2026-01-17 17:34:18.82	156.83	41.99	-83.5	-79.0	2.4	0.00e+00	0	49	104	0	60	1048571
2026-01-17 17:34:21.83	156.77	43.32	-83.1	-79.0	2.1	0.00e+00	0	48	104	0	60	1048575
2026-01-17 17:34:24.86	156.71	44.70	-83.5	-79.0	2.5	0.00e+00	0	49	104	0	60	1048575
2026-01-17 17:34:27.87	156.64	46.14	-83.1	-79.0	2.4	0.00e+00	0	49	104	0	60	1048574
2026-01-17 17:34:30.88	156.57	47.63	-83.5	-79.0	2.4	0.00e+00	0	48	104	0	60	1048571
2026-01-17 17:34:33.89	156.48	49.18	-83.5	-79.0	2.2	0.00e+00	0	48	104	0	60	1048575
2026-01-17 17:34:36.91	156.38	50.80	-83.1	-79.0	2.5	0.00e+00	0	48	104	0	60	1048574
2026-01-17 17:34:39.93	156.28	52.49	-83.5	-79.0	2.4	0.00e+00	0	48	104	0	60	1048573
2026-01-17 17:34:42.96	156.15	54.25	-83.1	-79.0	2.4	0.00e+00	0	49	104	0	60	1048574
2026-01-17 17:34:45.98	156.01	56.06	-83.1	-79.0	2.4	0.00e+00	0	49	104	0	60	1048573
2026-01-17 17:34:49.00	155.84	57.95	-83.1	-79.0	2.3	0.00e+00	0	48	104	0	60	1048570
2026-01-17 17:34:52.03	155.65	59.91	-83.5	-79.0	2.3	0.00e+00	0	48	104	0	60	1048571
2026-01-17 17:34:55.04	155.42	61.92	-83.5	-79.0	2.6	0.00e+00	0	49	104	0	60	1048575
2026-01-17 17:34:58.07	155.15	64.02	-83.5	-79.0	2.3	0.00e+00	0	49	104	0	60	1048574
2026-01-17 17:35:01.09	154.82	66.17	-83.5	-79.0	2.4	0.00e+00	0	48	104	0	60	1048568
2026-01-17 17:35:04.11	154.42	68.39	-83.5	-79.0	2.3	0.00e+00	0	49	104	0	60	1048575
2026-01-17 17:35:07.13	153.90	70.67	-83.5	-79.0	2.4	0.00e+00	0	48	104	0	60	1048568
2026-01-17 17:35:10.15	153.24	73.00	-83.1	-79.0	2.3	0.00e+00	0	49	104	0	60	1048575
2026-01-17 17:35:13.16	152.34	75.38	-83.5	-79.0	2.5	0.00e+00	0	48	104	0	60	1048556
2026-01-17 17:35:16.18	151.07	77.80	-83.5	-79.0	2.4	0.00e+00	0	48	104	0	60	1048575
2026-01-17 17:35:19.21	149.13	80.26	-82.8	-79.0	2.1	0.00e+00	0	48	104	0	60	1048575
2026-01-17 17:35:22.23	145.85	82.72	-83.5	-79.0	2.5	0.00e+00	0	49	104	0	60	1048571
2026-01-17 17:35:25.25	139.17	85.16	-83.5	-79.0	2.3	0.00e+00	0	49	104	0	60	1048573
2026-01-17 17:35:28.27	119.88	87.43	-83.5	-79.0	2.4	0.00e+00	0	48	104	0	60	1048570
2026-01-17 17:35:31.29	49.72	88.30	-83.5	-79.0	2.1	0.00e+00	0	49	104	0	60	1048567
2026-01-17 17:35:34.31	6.00	86.50	-83.5	-79.0	2.4	0.00e+00	0	49	104	0	60	1048573
2026-01-17 17:35:37.33	354.49	84.12	-83.5	-79.0	2.3	0.00e+00	0	49	104	0	60	1048574
2026-01-17 17:35:40.36	349.71	81.66	-83.5	-79.0	2.5	0.00e+00	0	48	104	0	60	1048575
2026-01-17 17:35:43.38	347.14	79.20	-83.1	-79.0	2.1	0.00e+00	0	49	104	0	60	1048575
2026-01-17 17:35:46.40	345.55	76.76	-83.5	-79.0	2.4	0.00e+00	0	49	104	0	60	1048573
2026-01-17 17:35:49.42	344.46	74.35	-83.5	-79.0	2.4	0.00e+00	0	49	104	0	60	1048574
2026-01-17 17:35:52.44	343.68	72.00	-83.1	-79.0	2.4	0.00e+00	0	49	104	0	60	1048575
2026-01-17 17:35:55.46	343.09	69.69	-83.5	-79.0	2.4	0.00e+00	0	49	104	0	60	1048574
2026-01-17 17:35:58.47	342.63	67.45	-83.5	-79.0	2.4	0.00e+00	0	49	104	0	60	1048571
2026-01-17 17:36:01.49	342.26	65.26	-83.1	-79.0	2.3	0.00e+00	0	49	104	0	60	1048575
2026-01-17 17:36:04.51	341.95	63.14	-83.5	-79.0	2.4	0.00e+00	0	49	104	0	60	1048573
2026-01-17 17:36:07.53	341.70	61.09	-83.1	-79.0	2.4	0.00e+00	0	49	104	0	60	1048573
2026-01-17 17:36:10.55	341.49	59.10	-83.5	-79.0	2.2	0.00e+00	0	49	104	0	60	1048572
2026-01-17 17:36:13.58	341.31	57.17	-83.5	-79.0	2.3	0.00e+00	0	49	104	0	60	1048573
2026-01-17 17:36:16.60	341.16	55.32	-83.1	-79.0	2.3	0.00e+00	0	49	104	0	60	1048574
2026-01-17 17:36:19.62	341.02	53.54	-83.5	-79.0	2.3	0.00e+00	0	49	104	0	60	1048571
2026-01-17 17:36:22.65	340.91	51.81	-83.5	-79.0	1.9	0.00e+00	0	49	104	0	60	1048567
2026-01-17 17:36:25.67	340.80	50.16	-83.1	-79.0	2.4	0.00e+00	0	49	104	0	60	1048574
2026-01-17 17:36:28.68	340.71	48.58	-83.5	-79.0	2.4	0.00e+00	0	49	104	0	60	1048566
2026-01-17 17:36:31.71	340.63	47.04	-83.5	-79.0	2.4	0.00e+00	0	49	104	0	60	1048575
2026-01-17 17:36:34.73	340.56	45.58	-83.5	-79.0	2.2	0.00e+00	0	49	104	0	60	1048575
2026-01-17 17:36:37.74	340.49	44.17	-83.5	-79.0	2.4	0.00e+00	0	49	104	0	60	1048573
2026-01-17 17:36:40.76	340.44	42.81	-83.5	-79.0	2.3	0.00e+00	0	49	104	0	60	1048574
2026-01-17 17:36:43.78	340.38	41.51	-83.5	-79.0	2.4	0.00e+00	0	49	104	0	60	1048571
2026-01-17 17:36:46.81	340.34	40.26	-83.5	-79.0	2.3	0.00e+00	0	49	104	0	60	1048574
2026-01-17 17:36:49.83	340.29	39.05	-82.8	-79.0	2.4	0.00e+00	0	49	104	0	60	1048568
2026-01-17 17:36:52.85	340.25	37.89	-83.5	-79.0	2.3	0.00e+00	0	49	104	0	60	1048575
2026-01-17 17:36:55.87	340.22	36.78	-83.5	-79.0	2.4	0.00e+00	0	49	104	0	60	1048572
2026-01-17 17:36:58.89	340.19	35.71	-82.8	-79.0	2.3	0.00e+00	0	49	104	0	60	1048574
2026-01-17 17:37:01.90	340.16	34.68	-83.5	-79.0	2.5	0.00e+00	0	49	104	0	60	1048567
2026-01-17 17:37:04.93	340.13	33.68	-83.1	-79.0	2.4	0.00e+00	0	49	104	0	60	1048574
2026-01-17 17:37:07.95	340.11	32.73	-83.5	-79.0	2.4	0.00e+00	0	49	104	0	60	1048574
2026-01-17 17:37:10.96	340.09	31.81	-83.5	-79.0	2.3	0.00e+00	0	49	104	0	60	1048573
2026-01-17 17:37:13.98	340.07	30.92	-83.1	-79.0	2.4	0.00e+00	0	49	104	0	60	1048574
2026-01-17 17:37:17.00	340.05	30.06	-83.5	-79.0	2.5	0.00e+00	0	49	104	0	60	1048575
2026-01-17 17:37:20.01	340.03	29.23	-83.5	-79.0	2.3	0.00e+00	0	49	104	0	60	1048569
2026-01-17 17:37:23.03	340.02	28.43	-83.1	-79.0	2.4	0.00e+00	0	49	104	0	60	1048560
2026-01-17 17:37:26.05	340.00	27.65	-83.5	-79.0	2.4	0.00e+00	0	49	104	0	60	1048575
2026-01-17 17:37:29.07	339.99	26.90	-83.5	-79.0	2.4	0.00e+00	0	49	104	0	60	1048575
2026-01-17 17:37:32.10	339.98	26.17	-83.1	-79.0	2.1	0.00e+00	0	49	104	0	60	1048575
2026-01-17 17:37:35.12	339.97	25.47	-83.5	-79.0	2.4	0.00e+00	0	49	104	0	60	1048574
2026-01-17 17:37:38.14	339.96	24.79	-83.1	-79.0	2.2	0.00e+00	0	49	104	0	60	1048573
2026-01-17 17:37:41.15	339.95	24.13	-83.5	-79.0	2.5	0.00e+00	0	49	104	0	60	1048574
2026-01-17 17:37:44.18	339.95	23.49	-83.5	-79.0	2.2	0.00e+00	0	49	104	0	60	1048575
2026-01-17 17:37:47.21	339.94	22.87	-82.8	-79.0	2.4	0.00e+00	0	49	104	0	60	1048573
2026-01-17 17:37:50.23	339.94	22.26	-83.5	-79.0	2.3	0.00e+00	0	49	104	0	60	1048574
2026-01-17 17:37:53.25	339.93	21.68	-83.5	-79.0	2.4	0.00e+00	0	49	104	0	60	1048575
2026-01-17 17:37:56.27	339.93	21.11	-82.8	-79.0	2.2	0.00e+00	0	49	104	0	60	1048573
2026-01-17 17:37:59.29	339.92	20.55	-83.5	-79.0	2.3	0.00e+00	0	49	104	0	60	1048569
2026-01-17 17:38:02.31	339.92	20.01	-83.5	-79.0	2.3	0.00e+00	0	49	104	0	60	1048575
2026-01-17 17:38:05.34	339.92	19.49	-83.1	-79.0	2.4	0.00e+00	0	49	104	0	60	1048575
2026-01-17 17:38:08.35	339.92	18.98	-83.1	-79.0	2.5	0.00e+00	0	49	104	0	60	1048572
2026-01-17 17:38:11.37	339.92	18.48	-83.5	-79.0	2.4	0.00e+00	0	49	104	0	60	1048570
2026-01-17 17:38:14.40	339.92	17.99	-83.1	-79.0	2.4	0.00e+00	0	48	104	0	60	1048573
2026-01-17 17:38:17.42	339.92	17.52	-83.5	-79.0	2.4	0.00e+00	0	49	104	0	60	1048575
2026-01-17 17:38:20.44	339.92	17.05	-82.8	-79.0	2.4	0.00e+00	0	49	104	0	60	1048573
2026-01-17 17:38:23.46	339.92	16.60	-83.5	-79.0	2.4	0.00e+00	0	49	104	0	60	1048575
2026-01-17 17:38:26.48	339.92	16.16	-83.5	-79.0	2.4	0.00e+00	0	49	104	0	60	1048570
2026-01-17 17:38:29.50	339.92	15.73	-82.8	-79.0	2.4	0.00e+00	0	49	104	0	60	1048573
2026-01-17 17:38:32.52	339.92	15.31	-83.5	-79.0	2.5	0.00e+00	0	49	104	0	60	1048573
2026-01-17 17:38:35.55	339.93	14.89	-83.5	-79.0	2.1	0.00e+00	0	49	104	0	60	1048566
2026-01-17 17:38:38.57	339.93	14.49	-83.5	-79.0	2.4	0.00e+00	0	49	104	0	60	1048570
2026-01-17 17:38:41.59	339.93	14.09	-83.5	-79.0	2.5	0.00e+00	0	49	104	0	60	1048567
2026-01-17 17:38:44.61	339.93	13.71	-82.8	-79.0	2.4	0.00e+00	0	49	104	0	60	1048574
2026-01-17 17:38:47.63	339.94	13.33	-83.5	-79.0	2.2	0.00e+00	0	49	104	0	60	1048574
2026-01-17 17:38:50.65	339.94	12.96	-83.5	-79.0	2.3	0.00e+00	0	49	104	0	60	1048572
2026-01-17 17:38:53.67	339.95	12.59	-82.8	-79.0	2.3	0.00e+00	0	49	104	0	60	1048574
2026-01-17 17:38:56.69	339.95	12.24	-83.5	-79.0	2.4	0.00e+00	0	49	104	0	60	1048569
2026-01-17 17:38:59.71	339.96	11.88	-83.5	-79.0	2.3	0.00e+00	0	49	104	0	60	1048573
2026-01-17 17:39:02.72	339.96	11.54	-83.1	-79.0	2.4	0.00e+00	0	49	104	0	60	1048574
2026-01-17 17:39:05.73	339.97	11.21	-83.5	-79.0	2.3	0.00e+00	0	49	104	0	60	1048575
2026-01-17 17:39:08.75	339.97	10.87	-83.1	-79.0	2.4	0.00e+00	0	49	104	0	60	1048575
2026-01-17 17:39:11.77	339.98	10.55	-83.5	-79.0	2.1	0.00e+00	0	49	104	0	60	1048575
2026-01-17 17:39:14.78	339.98	10.23	-83.5	-79.0	2.4	0.00e+00	0	49	104	0	60	1048568
2026-01-17 17:39:17.79	339.99	9.91	-83.1	-79.0	2.5	0.00e+00	0	49	104	0	60	1048572
2026-01-17 17:39:20.80	339.99	9.61	-83.5	-79.0	2.4	0.00e+00	0	49	104	0	60	1048575
2026-01-17 17:39:23.82	340.00	9.30	-83.5	-79.0	2.4	0.00e+00	0	49	104	0	60	1048571
2026-01-17 17:39:26.84	340.01	9.00	-83.1	-79.0	2.1	0.00e+00	0	49	104	0	60	1048575
2026-01-17 17:39:29.86	340.01	8.71	-83.5	-79.0	2.5	0.00e+00	0	49	104	0	60	1048564
2026-01-17 17:39:32.87	340.02	8.42	-83.5	-79.0	2.1	0.00e+00	0	49	104	0	60	1048574
2026-01-17 17:39:35.89	340.03	8.13	-83.1	-79.0	2.4	0.00e+00	0	49	104	0	60	1048575
2026-01-17 17:39:38.91	340.03	7.85	-83.5	-79.0	2.3	0.00e+00	0	49	104	0	60	1048575
2026-01-17 17:39:41.93	340.04	7.57	-83.1	-79.0	2.4	0.00e+00	0	49	104	0	60	1048561
2026-01-17 17:39:44.96	340.05	7.29	-83.5	-79.0	2.1	0.00e+00	0	49	104	0	60	1048566
2026-01-17 17:39:47.98	340.05	7.02	-83.1	-79.0	2.4	0.00e+00	0	49	104	0	60	1048575
2026-01-17 17:39:51.00	340.06	6.76	-83.1	-79.0	2.2	0.00e+00	0	49	104	0	60	1048574
2026-01-17 17:39:54.01	340.07	6.50	-83.5	-79.0	2.5	0.00e+00	0	49	104	0	60	1048574
2026-01-17 17:39:57.03	340.08	6.24	-83.5	-79.0	2.4	0.00e+00	0	49	104	0	60	1048575
2026-01-17 17:40:00.06	340.08	5.98	-82.8	-79.0	2.1	0.00e+00	0	49	104	0	60	1048573
2026-01-17 17:40:03.08	340.09	5.73	-83.5	-79.0	2.2	0.00e+00	0	49	104	0	60	1048573
2026-01-17 17:40:06.10	340.10	5.48	-83.1	-79.0	2.4	0.00e+00	0	49	104	0	60	1048573
2026-01-17 17:40:09.11	340.11	5.23	-83.5	-79.0	2.4	0.00e+00	0	49	104	0	60	1048574
2026-01-17 17:40:12.13	340.12	4.99	-83.5	-79.0	2.1	0.00e+00	0	49	104	0	60	1048567
2026-01-17 17:40:15.16	340.13	4.75	-83.1	-79.0	2.4	0.00e+00	0	49	104	0	60	1048572
2026-01-17 17:40:18.18	340.13	4.51	-83.5	-79.0	2.3	0.00e+00	0	49	104	0	60	1048573
2026-01-17 17:40:21.21	340.14	4.27	-83.5	-79.0	2.4	0.00e+00	0	49	104	0	60	1048573
2026-01-17 17:40:24.22	340.15	4.04	-83.1	-79.0	2.2	0.00e+00	0	49	104	0	60	1048575
2026-01-17 17:40:27.24	340.16	3.81	-83.5	-79.0	2.4	0.00e+00	0	49	104	0	60	1048571
2026-01-17 17:40:30.26	340.17	3.59	-83.5	-79.0	2.5	0.00e+00	0	49	104	0	60	1048571
2026-01-17 17:40:33.28	340.18	3.36	-83.1	-79.0	2.4	0.00e+00	0	49	104	0	60	1048574
2026-01-17 17:40:36.30	340.19	3.14	-83.5	-79.0	2.1	0.00e+00	0	49	104	0	60	1048572
2026-01-17 17:40:39.32	340.20	2.92	-83.1	-79.0	2.5	0.00e+00	0	49	104	0	60	1048570
2026-01-17 17:40:42.34	340.21	2.70	-83.1	-79.0	2.4	0.00e+00	0	49	104	0	60	1048575
2026-01-17 17:40:45.37	340.21	2.48	-83.5	-79.0	2.4	0.00e+00	0	49	104	0	60	1048573
2026-01-17 17:40:48.39	340.22	2.27	-83.1	-79.0	2.2	0.00e+00	0	49	104	0	60	1048569
2026-01-17 17:40:51.42	340.23	2.06	-83.5	-79.0	2.3	0.00e+00	0	49	104	0	60	1048573
2026-01-17 17:40:54.44	340.24	1.85	-83.5	-79.0	2.4	0.00e+00	0	49	104	0	60	1048575
2026-01-17 17:40:57.46	340.25	1.64	-83.1	-79.0	2.4	0.00e+00	0	49	104	0	60	1048574
2026-01-17 17:41:00.47	340.26	1.44	-83.5	-79.0	2.1	0.00e+00	0	49	104	0	60	1048572
2026-01-17 17:41:03.49	340.27	1.23	-83.5	-79.0	2.3	0.00e+00	0	49	104	0	60	1048575
2026-01-17 17:41:06.51	340.28	1.03	-83.1	-79.0	2.3	0.00e+00	0	49	104	0	60	1048573
2026-01-17 17:41:09.53	340.29	0.83	-83.5	-79.0	2.4	0.00e+00	0	49	104	0	60	1048575
2026-01-17 17:41:12.56	340.30	0.63	-83.5	-79.0	2.4	0.00e+00	0	49	104	0	60	1048573
2026-01-17 17:41:15.58	340.31	0.44	-83.1	-79.0	2.4	0.00e+00	0	49	104	0	60	1048575
2026-01-17 17:41:18.60	340.32	0.24	-83.5	-79.0	2.5	0.00e+00	0	49	104	0	60	1048566
2026-01-17 17:41:21.62	340.33	0.05	-83.1	-79.0	2.4	0.00e+00	0	49	104	0	60	1048568
2026-01-17 17:41:24.65	340.34	-0.14	-83.5	-79.0	2.4	0.00e+00	0	49	104	0	60	1048575

#Closed at: 2026-01-17 17:41:24
#Recorded file [0 MB]: D:/Data/35015_260117_202944.dat