passes_logs/2026/01/17/R3.2S-Naryan-Mar/R3.2S-Naryan-Mar__20260117_111911_TY-41_rec.log

#Pass ID: 20260117_111911_TY-41
#Satellite: TY-41
#Configuration: TY-39
#almurnet v.1.7.20240730
#Start time: 2026-01-17 11:19:13

#Version: 2.2.20231116
#Station: R3.2S-Naryan-Mar
#Location: 53.008057 lon 67.646978 lat
#TLE: 1 61231U 24173E   26017.08983796  .00008010  00000-0  38191-3 0 09990
#TLE: 2 61231 097.4122 092.0846 0001831 091.8622 061.7654 15.19167953 72814

#Time	Az	El	Level	Level2	SNR	BER	BlckErr	Temp	State	Recorded	gain1	gain2
2026-01-17 11:19:13.77	31.65	0.13	-85.2	-88.6	3.4	1.55e+00	0	44	0	0	60	1048575
2026-01-17 11:19:16.79	31.34	0.28	-83.5	-79.0	2.6	0.00e+00	0	46	104	0	60	1048567
2026-01-17 11:19:19.81	31.03	0.44	-83.1	-79.0	2.5	0.00e+00	0	46	104	0	60	1048575
2026-01-17 11:19:22.83	30.72	0.59	-83.5	-79.0	2.4	0.00e+00	0	46	104	0	60	1048574
2026-01-17 11:19:25.85	30.40	0.75	-83.5	-79.0	2.5	0.00e+00	0	46	104	0	60	1048574
2026-01-17 11:19:28.88	30.08	0.91	-83.1	-79.0	2.5	0.00e+00	0	46	104	0	60	1048575
2026-01-17 11:19:31.90	29.75	1.07	-83.5	-79.0	2.2	0.00e+00	0	46	104	0	60	1048573
2026-01-17 11:19:34.92	29.42	1.22	-83.1	-79.0	2.3	0.00e+00	0	46	104	0	60	1048572
2026-01-17 11:19:37.93	29.09	1.38	-83.5	-79.0	2.2	0.00e+00	0	46	104	0	60	1048575
2026-01-17 11:19:40.95	28.74	1.54	-83.5	-79.0	2.5	0.00e+00	0	47	104	0	60	1048573
2026-01-17 11:19:43.97	28.40	1.70	-83.1	-79.0	2.2	0.00e+00	0	46	104	0	60	1048566
2026-01-17 11:19:46.99	28.05	1.86	-83.5	-79.0	2.4	0.00e+00	0	47	104	0	60	1048575
2026-01-17 11:19:50.01	27.69	2.02	-83.5	-79.0	2.7	0.00e+00	0	47	104	0	60	1048572
2026-01-17 11:19:53.03	27.33	2.18	-83.1	-79.0	2.5	0.00e+00	0	47	104	0	60	1048570
2026-01-17 11:19:56.04	26.97	2.34	-83.5	-79.0	2.4	0.00e+00	0	47	104	0	60	1048572
2026-01-17 11:19:59.06	26.60	2.50	-83.5	-79.0	2.5	0.00e+00	0	47	104	0	60	1048573
2026-01-17 11:20:02.08	26.22	2.66	-83.1	-79.0	2.4	0.00e+00	0	47	104	0	60	1048572
2026-01-17 11:20:05.11	25.84	2.82	-83.5	-79.0	2.7	0.00e+00	0	47	104	0	60	1048562
2026-01-17 11:20:08.13	25.45	2.98	-83.1	-79.0	2.3	0.00e+00	0	47	104	0	60	1048568
2026-01-17 11:20:11.15	25.06	3.14	-83.5	-79.0	2.3	0.00e+00	0	47	104	0	60	1048554
2026-01-17 11:20:14.17	24.66	3.30	-83.5	-79.0	2.6	0.00e+00	0	47	104	0	60	1048572
2026-01-17 11:20:17.19	24.25	3.46	-83.1	-79.0	2.4	0.00e+00	0	47	104	0	60	1048572
2026-01-17 11:20:20.22	23.84	3.62	-83.5	-79.0	2.3	0.00e+00	0	47	104	0	60	1048572
2026-01-17 11:20:23.24	23.43	3.79	-83.5	-79.0	2.4	0.00e+00	0	47	104	0	60	1048571
2026-01-17 11:20:26.26	23.00	3.95	-82.8	-79.0	2.6	0.00e+00	0	47	104	0	60	1048575
2026-01-17 11:20:29.28	22.58	4.11	-83.5	-79.0	2.4	0.00e+00	0	47	104	0	60	1048575
2026-01-17 11:20:32.30	22.14	4.27	-83.1	-79.0	2.4	0.00e+00	0	47	104	0	60	1048573
2026-01-17 11:20:35.31	21.70	4.43	-83.5	-79.0	2.2	0.00e+00	0	47	104	0	60	1048568
2026-01-17 11:20:38.33	21.26	4.59	-83.5	-79.0	2.5	0.00e+00	0	47	104	0	60	1048575
2026-01-17 11:20:41.34	20.80	4.76	-83.1	-79.0	2.5	0.00e+00	0	47	104	0	60	1048574
2026-01-17 11:20:44.36	20.35	4.92	-83.5	-79.0	2.5	0.00e+00	0	47	104	0	60	1048573
2026-01-17 11:20:47.37	19.88	5.08	-83.5	-79.0	2.4	0.00e+00	0	47	104	0	60	1048572
2026-01-17 11:20:50.39	19.41	5.24	-83.1	-79.0	2.5	0.00e+00	0	48	104	0	60	1048573
2026-01-17 11:20:53.40	18.93	5.40	-83.5	-79.0	2.5	0.00e+00	0	47	104	0	60	1048568
2026-01-17 11:20:56.43	18.44	5.56	-83.5	-79.0	2.6	0.00e+00	0	48	104	0	60	1048568
2026-01-17 11:20:59.44	17.95	5.72	-83.1	-79.0	2.5	0.00e+00	0	48	104	0	60	1048575
2026-01-17 11:21:02.46	17.45	5.88	-83.5	-79.0	2.5	0.00e+00	0	47	104	0	60	1048575
2026-01-17 11:21:05.48	16.94	6.04	-83.5	-79.0	2.2	0.00e+00	0	48	104	0	60	1048574
2026-01-17 11:21:08.50	16.43	6.20	-83.5	-79.0	2.3	0.00e+00	0	47	104	0	60	1048572
2026-01-17 11:21:11.53	15.90	6.36	-83.5	-79.0	2.4	0.00e+00	0	48	104	0	60	1048574
2026-01-17 11:21:14.55	15.38	6.52	-83.5	-79.0	2.5	0.00e+00	0	48	104	0	60	1048571
2026-01-17 11:21:17.57	14.84	6.67	-83.5	-79.0	2.4	0.00e+00	0	48	104	0	60	1048563
2026-01-17 11:21:20.59	14.30	6.83	-83.5	-79.0	2.5	0.00e+00	0	48	104	0	60	1048573
2026-01-17 11:21:23.61	13.74	6.98	-83.1	-79.0	2.3	0.00e+00	0	48	104	0	60	1048572
2026-01-17 11:21:26.64	13.18	7.14	-83.5	-79.0	2.7	0.00e+00	0	48	104	0	60	1048575
2026-01-17 11:21:29.66	12.62	7.29	-83.5	-79.0	2.3	0.00e+00	0	48	104	0	60	1048574
2026-01-17 11:21:32.68	12.04	7.45	-83.1	-79.0	2.3	0.00e+00	0	48	104	0	60	1048573
2026-01-17 11:21:35.70	11.46	7.60	-83.5	-79.0	2.3	0.00e+00	0	48	104	0	60	1048574
2026-01-17 11:21:38.72	10.87	7.75	-83.1	-79.0	2.5	0.00e+00	0	48	104	0	60	1048572
2026-01-17 11:21:41.74	10.28	7.90	-83.1	-79.0	2.4	0.00e+00	0	48	104	0	60	1048572
2026-01-17 11:21:44.76	9.67	8.04	-83.5	-79.0	2.6	0.00e+00	0	48	104	0	60	1048572
2026-01-17 11:21:47.78	9.06	8.19	-83.1	-79.0	2.5	0.00e+00	0	48	104	0	60	1048575
2026-01-17 11:21:50.79	8.44	8.33	-83.5	-79.0	2.8	0.00e+00	0	48	104	0	60	1048573
2026-01-17 11:21:53.80	7.82	8.48	-83.5	-79.0	2.4	0.00e+00	0	48	104	0	60	1048574
2026-01-17 11:21:56.81	7.19	8.62	-83.1	-79.0	2.4	0.00e+00	0	48	104	0	60	1048573
2026-01-17 11:21:59.84	6.54	8.76	-83.5	-79.0	2.7	0.00e+00	0	48	104	0	60	1048575
2026-01-17 11:22:02.87	5.89	8.90	-83.5	-79.0	2.6	0.00e+00	0	48	104	0	60	1048574
2026-01-17 11:22:05.89	5.23	9.03	-83.1	-79.0	2.5	0.00e+00	0	48	104	0	60	1048575
2026-01-17 11:22:08.90	4.57	9.16	-83.5	-79.0	2.4	0.00e+00	0	48	104	0	60	1048575
2026-01-17 11:22:11.92	3.89	9.29	-83.5	-79.0	2.5	0.00e+00	0	48	104	0	60	1048571
2026-01-17 11:22:14.94	3.21	9.42	-83.5	-79.0	2.6	0.00e+00	0	48	104	0	60	1048574
2026-01-17 11:22:17.96	2.52	9.55	-83.1	-79.0	2.6	0.00e+00	0	48	104	0	60	1048575
2026-01-17 11:22:20.97	1.83	9.67	-82.8	-79.0	2.6	0.00e+00	0	48	104	0	60	1048573
2026-01-17 11:22:23.99	1.13	9.79	-83.1	-79.0	2.4	0.00e+00	0	48	104	0	60	1048571
2026-01-17 11:22:27.00	0.42	9.91	-83.5	-79.0	2.5	0.00e+00	0	48	104	0	60	1048567
2026-01-17 11:22:30.02	359.70	10.03	-83.1	-79.0	2.5	0.00e+00	0	48	104	0	60	1048573
2026-01-17 11:22:33.04	358.98	10.14	-83.5	-79.0	2.7	0.00e+00	0	48	104	0	60	1048574
2026-01-17 11:22:36.07	358.25	10.25	-83.1	-79.0	2.4	0.00e+00	0	48	104	0	60	1048571
2026-01-17 11:22:39.08	357.51	10.36	-83.1	-79.0	2.3	0.00e+00	0	48	104	0	60	1048575
2026-01-17 11:22:42.10	356.77	10.46	-83.5	-79.0	2.4	0.00e+00	0	48	104	0	60	1048570
2026-01-17 11:22:45.12	356.02	10.56	-83.5	-79.0	2.5	0.00e+00	0	48	104	0	60	1048572
2026-01-17 11:22:48.14	355.26	10.65	-83.5	-79.0	2.2	0.00e+00	0	48	104	0	60	1048573
2026-01-17 11:22:51.16	354.50	10.74	-83.5	-79.0	2.4	0.00e+00	0	48	104	0	60	1048573
2026-01-17 11:22:54.18	353.73	10.83	-83.1	-79.0	2.7	0.00e+00	0	48	104	0	60	1048571
2026-01-17 11:22:57.19	352.96	10.92	-83.1	-79.0	2.7	0.00e+00	0	48	104	0	60	1048570
2026-01-17 11:23:00.20	352.18	11.00	-83.5	-79.0	2.4	0.00e+00	0	48	104	0	60	1048574
2026-01-17 11:23:03.22	351.40	11.07	-83.1	-79.0	2.5	0.00e+00	0	48	104	0	60	1048572
2026-01-17 11:23:06.24	350.61	11.15	-83.5	-79.0	2.3	0.00e+00	0	48	104	0	60	1048573
2026-01-17 11:23:09.26	349.81	11.21	-83.5	-79.0	2.4	0.00e+00	0	48	104	0	60	1048569
2026-01-17 11:23:12.28	349.02	11.28	-83.1	-79.0	2.3	0.00e+00	0	48	104	0	60	1048575
2026-01-17 11:23:15.29	348.22	11.34	-83.5	-79.0	2.5	0.00e+00	0	48	104	0	60	1048575
2026-01-17 11:23:18.31	347.41	11.39	-83.1	-79.0	2.6	0.00e+00	0	48	104	0	60	1048574
2026-01-17 11:23:21.33	346.60	11.44	-83.5	-79.0	2.6	0.00e+00	0	48	104	0	60	1048575
2026-01-17 11:23:24.35	345.79	11.48	-83.5	-79.0	2.5	0.00e+00	0	48	104	0	60	1048566
2026-01-17 11:23:27.36	344.97	11.53	-83.1	-79.0	2.6	0.00e+00	0	48	104	0	60	1048574
2026-01-17 11:23:30.38	344.15	11.56	-83.5	-79.0	2.6	0.00e+00	0	48	104	0	60	1048574
2026-01-17 11:23:33.40	343.33	11.59	-83.5	-79.0	2.4	0.00e+00	0	48	104	0	60	1048575
2026-01-17 11:23:36.42	342.51	11.62	-83.1	-79.0	2.3	0.00e+00	0	48	104	0	60	1048574
2026-01-17 11:23:39.45	341.68	11.64	-83.5	-79.0	2.4	0.00e+00	0	48	104	0	60	1048568
2026-01-17 11:23:42.46	340.86	11.66	-83.5	-79.0	2.6	0.00e+00	0	48	104	0	60	1048572
2026-01-17 11:23:45.48	340.03	11.67	-83.5	-79.0	2.5	0.00e+00	0	48	104	0	60	1048575
2026-01-17 11:23:48.49	339.21	11.67	-83.5	-79.0	2.4	0.00e+00	0	48	104	0	60	1048565
2026-01-17 11:23:51.52	338.38	11.67	-83.1	-79.0	2.5	0.00e+00	0	48	104	0	60	1048575
2026-01-17 11:23:54.55	337.55	11.67	-83.5	-79.0	2.4	0.00e+00	0	48	104	0	60	1048571
2026-01-17 11:23:57.57	336.72	11.66	-83.5	-79.0	2.3	0.00e+00	0	48	104	0	60	1048575
2026-01-17 11:24:00.59	335.90	11.65	-83.1	-79.0	2.2	0.00e+00	0	48	104	0	60	1048574
2026-01-17 11:24:03.61	335.07	11.63	-83.5	-79.0	2.3	0.00e+00	0	48	104	0	60	1048575
2026-01-17 11:24:06.62	334.25	11.61	-83.5	-79.0	2.5	0.00e+00	0	48	104	0	60	1048573
2026-01-17 11:24:09.64	333.43	11.58	-82.8	-79.0	2.5	0.00e+00	0	49	104	0	60	1048574
2026-01-17 11:24:12.66	332.61	11.54	-83.5	-79.0	2.1	0.00e+00	0	48	104	0	60	1048575
2026-01-17 11:24:15.68	331.79	11.51	-83.5	-79.0	2.6	0.00e+00	0	49	104	0	60	1048569
2026-01-17 11:24:18.70	330.97	11.46	-83.5	-79.0	2.6	0.00e+00	0	48	104	0	60	1048575
2026-01-17 11:24:21.72	330.16	11.42	-83.5	-79.0	2.5	0.00e+00	0	49	104	0	60	1048567
2026-01-17 11:24:24.74	329.35	11.36	-83.1	-79.0	2.4	0.00e+00	0	49	104	0	60	1048572
2026-01-17 11:24:27.77	328.54	11.31	-83.1	-79.0	2.6	0.00e+00	0	48	104	0	60	1048573
2026-01-17 11:24:30.79	327.74	11.25	-83.5	-79.0	2.5	0.00e+00	0	49	104	0	60	1048571
2026-01-17 11:24:33.81	326.95	11.18	-82.8	-79.0	2.7	0.00e+00	0	48	104	0	60	1048574
2026-01-17 11:24:36.83	326.15	11.11	-83.5	-79.0	2.2	0.00e+00	0	48	104	0	60	1048566
2026-01-17 11:24:39.85	325.37	11.04	-83.5	-79.0	2.4	0.00e+00	0	48	104	0	60	1048575
2026-01-17 11:24:42.87	324.58	10.96	-83.1	-79.0	2.4	0.00e+00	0	49	104	0	60	1048575
2026-01-17 11:24:45.89	323.81	10.88	-83.5	-79.0	2.4	0.00e+00	0	48	104	0	60	1048574
2026-01-17 11:24:48.92	323.03	10.79	-83.1	-79.0	2.1	0.00e+00	0	48	104	0	60	1048575
2026-01-17 11:24:51.94	322.26	10.70	-83.5	-79.0	2.5	0.00e+00	0	48	104	0	60	1048575
2026-01-17 11:24:54.96	321.50	10.61	-83.5	-79.0	2.4	0.00e+00	0	48	104	0	60	1048574
2026-01-17 11:24:57.98	320.75	10.51	-83.1	-79.0	2.4	0.00e+00	0	49	104	0	60	1048574
2026-01-17 11:25:01.00	320.00	10.41	-83.5	-79.0	2.7	0.00e+00	0	48	104	0	60	1048575
2026-01-17 11:25:04.02	319.26	10.30	-83.5	-79.0	2.5	0.00e+00	0	48	104	0	60	1048573
2026-01-17 11:25:07.04	318.52	10.19	-83.1	-79.0	2.3	0.00e+00	0	49	104	0	60	1048571
2026-01-17 11:25:10.07	317.79	10.08	-83.5	-79.0	2.6	0.00e+00	0	48	104	0	60	1048574
2026-01-17 11:25:13.09	317.07	9.97	-83.5	-79.0	2.4	0.00e+00	0	48	104	0	60	1048574
2026-01-17 11:25:16.11	316.36	9.85	-83.5	-79.0	2.6	0.00e+00	0	49	104	0	60	1048575
2026-01-17 11:25:19.12	315.65	9.73	-83.5	-79.0	2.4	0.00e+00	0	49	104	0	60	1048575
2026-01-17 11:25:22.15	314.95	9.61	-83.1	-79.0	2.5	0.00e+00	0	48	104	0	60	1048574
2026-01-17 11:25:25.16	314.26	9.49	-83.5	-79.0	2.4	0.00e+00	0	49	104	0	60	1048574
2026-01-17 11:25:28.18	313.57	9.36	-83.5	-79.0	2.2	0.00e+00	0	48	104	0	60	1048572
2026-01-17 11:25:31.19	312.89	9.23	-83.1	-79.0	2.3	0.00e+00	0	49	104	0	60	1048575
2026-01-17 11:25:34.22	312.22	9.09	-83.5	-79.0	2.5	0.00e+00	0	49	104	0	60	1048572
2026-01-17 11:25:37.24	311.56	8.96	-83.5	-79.0	2.6	0.00e+00	0	48	104	0	60	1048575
2026-01-17 11:25:40.25	310.90	8.82	-83.1	-79.0	2.2	0.00e+00	0	48	104	0	60	1048571
2026-01-17 11:25:43.28	310.25	8.68	-83.5	-79.0	2.4	0.00e+00	0	48	104	0	60	1048571
2026-01-17 11:25:46.30	309.61	8.54	-83.5	-79.0	2.5	0.00e+00	0	49	104	0	60	1048562
2026-01-17 11:25:49.32	308.98	8.40	-83.5	-79.0	2.6	0.00e+00	0	49	104	0	60	1048572
2026-01-17 11:25:52.35	308.35	8.26	-83.5	-79.0	2.4	0.00e+00	0	48	104	0	60	1048575
2026-01-17 11:25:55.37	307.74	8.11	-83.1	-79.0	2.2	0.00e+00	0	48	104	0	60	1048568
2026-01-17 11:25:58.39	307.13	7.96	-83.5	-79.0	2.4	0.00e+00	0	49	104	0	60	1048575
2026-01-17 11:26:01.41	306.53	7.82	-83.5	-79.0	2.5	0.00e+00	0	48	104	0	60	1048568
2026-01-17 11:26:04.43	305.93	7.67	-83.1	-79.0	2.3	0.00e+00	0	48	104	0	60	1048575
2026-01-17 11:26:07.45	305.35	7.51	-83.1	-79.0	2.4	0.00e+00	0	48	104	0	60	1048575
2026-01-17 11:26:10.48	304.76	7.36	-83.5	-79.0	2.5	0.00e+00	0	49	104	0	60	1048568
2026-01-17 11:26:13.50	304.19	7.21	-83.1	-79.0	2.6	0.00e+00	0	48	104	0	60	1048574
2026-01-17 11:26:16.51	303.63	7.05	-83.5	-79.0	2.5	0.00e+00	0	49	104	0	60	1048573
2026-01-17 11:26:19.54	303.07	6.90	-83.5	-79.0	2.4	0.00e+00	0	49	104	0	60	1048569
2026-01-17 11:26:22.55	302.53	6.74	-83.5	-79.0	2.4	0.00e+00	0	48	104	0	60	1048573
2026-01-17 11:26:25.58	301.98	6.59	-83.5	-79.0	2.4	0.00e+00	0	48	104	0	60	1048565
2026-01-17 11:26:28.60	301.45	6.43	-83.1	-79.0	2.5	0.00e+00	0	48	104	0	60	1048575
2026-01-17 11:26:31.61	300.92	6.27	-83.5	-79.0	2.3	0.00e+00	0	48	104	0	60	1048568
2026-01-17 11:26:34.63	300.40	6.11	-83.5	-79.0	2.5	0.00e+00	0	49	104	0	60	1048574
2026-01-17 11:26:37.65	299.89	5.95	-82.8	-79.0	2.4	0.00e+00	0	49	104	0	60	1048574
2026-01-17 11:26:40.67	299.39	5.79	-83.5	-79.0	2.5	0.00e+00	0	49	104	0	60	1048575
2026-01-17 11:26:43.69	298.89	5.63	-83.5	-79.0	2.3	0.00e+00	0	49	104	0	60	1048575
2026-01-17 11:26:46.71	298.40	5.47	-83.1	-79.0	2.6	0.00e+00	0	49	104	0	60	1048574
2026-01-17 11:26:49.73	297.91	5.31	-83.5	-79.0	2.5	0.00e+00	0	49	104	0	60	1048563
2026-01-17 11:26:52.75	297.44	5.15	-83.5	-79.0	2.4	0.00e+00	0	49	104	0	60	1048575
2026-01-17 11:26:55.77	296.96	4.99	-83.5	-79.0	2.3	0.00e+00	0	48	104	0	60	1048574
2026-01-17 11:26:58.79	296.50	4.82	-83.5	-79.0	2.5	0.00e+00	0	49	104	0	60	1048575
2026-01-17 11:27:01.81	296.04	4.66	-83.1	-79.0	2.6	0.00e+00	0	49	104	0	60	1048571
2026-01-17 11:27:04.83	295.59	4.50	-83.5	-79.0	2.4	0.00e+00	0	48	104	0	60	1048575
2026-01-17 11:27:07.85	295.15	4.34	-83.5	-79.0	2.4	0.00e+00	0	49	104	0	60	1048575
2026-01-17 11:27:10.88	294.71	4.18	-82.8	-79.0	2.4	0.00e+00	0	49	104	0	60	1048574
2026-01-17 11:27:13.89	294.27	4.01	-83.5	-79.0	2.5	0.00e+00	0	49	104	0	60	1048574
2026-01-17 11:27:16.91	293.85	3.85	-83.5	-79.0	2.3	0.00e+00	0	49	104	0	60	1048572
2026-01-17 11:27:19.92	293.43	3.69	-83.5	-79.0	2.4	0.00e+00	0	49	104	0	60	1048574
2026-01-17 11:27:22.94	293.02	3.53	-83.5	-79.0	2.5	0.00e+00	0	48	104	0	60	1048573
2026-01-17 11:27:25.95	292.61	3.37	-83.5	-79.0	2.4	0.00e+00	0	48	104	0	60	1048570
2026-01-17 11:27:28.97	292.21	3.21	-83.5	-79.0	2.2	0.00e+00	0	49	104	0	60	1048566
2026-01-17 11:27:31.99	291.81	3.04	-83.5	-79.0	2.4	0.00e+00	0	49	104	0	60	1048566
2026-01-17 11:27:35.01	291.42	2.88	-82.8	-79.0	2.8	0.00e+00	0	49	104	0	60	1048573
2026-01-17 11:27:38.03	291.03	2.72	-83.5	-79.0	2.4	0.00e+00	0	48	104	0	60	1048567
2026-01-17 11:27:41.04	290.65	2.56	-83.5	-79.0	2.2	0.00e+00	0	49	104	0	60	1048574
2026-01-17 11:27:44.06	290.28	2.40	-83.1	-79.0	2.4	0.00e+00	0	49	104	0	60	1048574
2026-01-17 11:27:47.08	289.91	2.24	-83.5	-79.0	2.4	0.00e+00	0	49	104	0	60	1048571
2026-01-17 11:27:50.10	289.54	2.08	-83.5	-79.0	2.7	0.00e+00	0	48	104	0	60	1048575
2026-01-17 11:27:53.13	289.18	1.92	-83.1	-79.0	2.3	0.00e+00	0	49	104	0	60	1048574
2026-01-17 11:27:56.15	288.83	1.76	-83.5	-79.0	2.4	0.00e+00	0	49	104	0	60	1048572
2026-01-17 11:27:59.17	288.48	1.60	-83.1	-79.0	2.4	0.00e+00	0	49	104	0	60	1048575
2026-01-17 11:28:02.20	288.13	1.44	-83.5	-79.0	2.5	0.00e+00	0	49	104	0	60	1048572
2026-01-17 11:28:05.22	287.79	1.28	-83.5	-79.0	2.3	0.00e+00	0	49	104	0	60	1048571
2026-01-17 11:28:08.24	287.46	1.13	-83.1	-79.0	2.5	0.00e+00	0	48	104	0	60	1048573
2026-01-17 11:28:11.26	287.13	0.97	-83.5	-79.0	2.5	0.00e+00	0	48	104	0	60	1048571
2026-01-17 11:28:14.27	286.80	0.81	-83.5	-79.0	2.6	0.00e+00	0	48	104	0	60	1048573
2026-01-17 11:28:17.29	286.48	0.65	-83.1	-79.0	2.3	0.00e+00	0	48	104	0	60	1048567
2026-01-17 11:28:20.31	286.16	0.50	-83.5	-79.0	2.4	0.00e+00	0	48	104	0	60	1048573
2026-01-17 11:28:23.33	285.85	0.34	-83.5	-79.0	2.2	0.00e+00	0	49	104	0	60	1048572
2026-01-17 11:28:26.35	285.54	0.19	-83.5	-79.0	2.5	0.00e+00	0	49	104	0	60	1048574
2026-01-17 11:28:29.35	285.24	0.03	-83.5	-79.0	2.7	0.00e+00	0	48	104	0	60	1048568

#Closed at: 2026-01-17 11:28:30
#Recorded file [0 MB]: D:/Data/35015_260117_141913.dat