passes_logs/2026/01/17/R3.2S-Naryan-Mar/R3.2S-Naryan-Mar__20260117_234417_NOAA_21_JPSS-2_rec.log

#Pass ID: 20260117_234417_NOAA 21 (JPSS-2)
#Satellite: NOAA 21 (JPSS-2)
#Configuration: NOAA-21
#almurnet v.1.7.20240730
#Start time: 2026-01-17 23:46:48

#Version: 2.2.20231116
#Station: R3.2S-Naryan-Mar
#Location: 53.008057 lon 67.646978 lat
#TLE: 1 54234U 22150A   26017.26823908  .00000042  00000+0  40962-4 0  9992
#TLE: 2 54234  98.7501 318.1405 0000613 274.2947  85.8159 14.19535194165131

#Time	Az	El	Level	Level2	SNR	BER	BlckErr	Temp	State	Recorded	gain1	gain2
2026-01-17 23:46:48.96	23.03	10.84	-84.7	-88.6	3.7	7.64e-01	0	47	0	0	60	1048575
2026-01-17 23:46:51.97	22.96	11.11	-85.2	-88.8	2.7	1.56e+00	0	47	104	0	60	1048574
2026-01-17 23:46:55.00	22.90	11.38	-85.2	-88.8	2.5	1.56e+00	0	47	104	0	60	1048574
2026-01-17 23:46:58.02	22.83	11.66	-85.2	-88.8	2.6	1.56e+00	0	47	104	0	60	1048575
2026-01-17 23:47:01.03	22.76	11.94	-85.2	-88.8	2.9	1.56e+00	0	47	104	0	60	1048573
2026-01-17 23:47:04.05	22.68	12.22	-85.2	-88.8	2.7	1.56e+00	0	47	104	0	60	1048573
2026-01-17 23:47:07.08	22.61	12.50	-85.2	-88.8	2.6	1.56e+00	0	47	104	0	60	1048575
2026-01-17 23:47:10.09	22.53	12.79	-85.2	-88.8	2.7	1.56e+00	0	48	104	0	60	1048574
2026-01-17 23:47:13.11	22.46	13.08	-85.2	-88.8	2.7	1.56e+00	0	47	104	0	60	1048574
2026-01-17 23:47:16.13	22.38	13.38	-85.2	-88.8	2.8	1.56e+00	0	47	104	0	60	1048574
2026-01-17 23:47:19.15	22.30	13.68	-85.2	-88.8	2.7	1.56e+00	0	48	104	0	60	1048574
2026-01-17 23:47:22.16	22.21	13.98	-85.2	-88.8	2.6	1.56e+00	0	47	104	0	60	1048575
2026-01-17 23:47:25.18	22.13	14.29	-85.2	-88.8	2.5	1.56e+00	0	48	104	0	60	1048575
2026-01-17 23:47:28.21	22.04	14.60	-85.2	-88.8	2.5	1.56e+00	0	47	104	0	60	1048575
2026-01-17 23:47:31.23	21.95	14.91	-85.2	-88.8	2.7	1.56e+00	0	47	104	0	60	1048572
2026-01-17 23:47:34.25	21.86	15.23	-85.2	-88.8	2.8	1.56e+00	0	47	104	0	60	1048575
2026-01-17 23:47:37.27	21.77	15.55	-85.2	-88.8	2.4	1.56e+00	0	48	104	0	60	1048571
2026-01-17 23:47:40.30	21.67	15.88	-85.2	-88.8	2.9	1.56e+00	0	47	104	0	60	1048575
2026-01-17 23:47:43.31	21.57	16.21	-84.7	-88.8	2.5	1.56e+00	0	47	104	0	60	1048574
2026-01-17 23:47:46.34	21.47	16.54	-85.2	-88.8	2.7	1.56e+00	0	47	104	0	60	1048575
2026-01-17 23:47:49.36	21.37	16.88	-85.2	-88.8	2.7	1.56e+00	0	47	104	0	60	1048574
2026-01-17 23:47:52.38	21.26	17.23	-85.2	-88.8	2.9	1.56e+00	0	48	104	0	60	1048575
2026-01-17 23:47:55.40	21.15	17.58	-85.2	-88.8	2.9	1.56e+00	0	48	104	0	60	1048564
2026-01-17 23:47:58.43	21.04	17.93	-85.2	-88.8	2.5	1.56e+00	0	48	104	0	60	1048575
2026-01-17 23:48:01.45	20.93	18.29	-85.2	-88.8	2.8	1.56e+00	0	48	104	0	60	1048573
2026-01-17 23:48:04.47	20.81	18.66	-85.2	-88.8	2.6	1.56e+00	0	48	104	0	60	1048573
2026-01-17 23:48:07.48	20.69	19.03	-85.2	-88.8	2.7	1.56e+00	0	47	104	0	60	1048574
2026-01-17 23:48:10.50	20.57	19.40	-85.2	-88.8	2.8	1.56e+00	0	47	104	0	60	1048574
2026-01-17 23:48:13.52	20.44	19.78	-85.2	-88.8	2.8	1.56e+00	0	47	104	0	60	1048574
2026-01-17 23:48:16.55	20.31	20.17	-85.2	-88.8	2.9	1.56e+00	0	48	104	0	60	1048573
2026-01-17 23:48:19.57	20.17	20.56	-85.2	-88.8	2.6	1.56e+00	0	47	104	0	60	1048575
2026-01-17 23:48:22.60	20.03	20.96	-85.2	-88.8	2.7	1.56e+00	0	48	104	0	60	1048569
2026-01-17 23:48:25.62	19.89	21.37	-85.2	-88.8	2.8	1.56e+00	0	47	104	0	60	1048575
2026-01-17 23:48:28.64	19.74	21.78	-85.2	-88.8	2.8	1.56e+00	0	47	104	0	60	1048574
2026-01-17 23:48:31.65	19.59	22.19	-85.2	-88.8	2.7	1.56e+00	0	47	104	0	60	1048569
2026-01-17 23:48:34.68	19.44	22.62	-85.2	-88.8	2.8	1.56e+00	0	48	104	0	60	1048574
2026-01-17 23:48:37.70	19.28	23.05	-85.2	-88.8	2.6	1.56e+00	0	48	104	0	60	1048573
2026-01-17 23:48:40.72	19.11	23.49	-85.2	-88.8	2.8	1.56e+00	0	47	104	0	60	1048574
2026-01-17 23:48:43.73	18.94	23.93	-85.2	-88.8	2.8	1.56e+00	0	48	104	0	60	1048573
2026-01-17 23:48:46.75	18.77	24.39	-85.2	-88.8	2.5	1.56e+00	0	48	104	0	60	1048575
2026-01-17 23:48:49.77	18.59	24.85	-85.2	-88.8	2.9	1.56e+00	0	48	104	0	60	1048575
2026-01-17 23:48:52.79	18.40	25.32	-85.2	-88.8	2.6	1.56e+00	0	48	104	0	60	1048574
2026-01-17 23:48:55.81	18.21	25.79	-85.2	-88.8	2.6	1.56e+00	0	48	104	0	60	1048575
2026-01-17 23:48:58.84	18.01	26.28	-85.2	-88.8	2.6	1.56e+00	0	48	104	0	60	1048575
2026-01-17 23:49:01.85	17.81	26.77	-85.2	-88.8	2.6	1.56e+00	0	48	104	0	60	1048572
2026-01-17 23:49:04.86	17.60	27.27	-85.2	-88.8	2.7	1.56e+00	0	47	104	0	60	1048574
2026-01-17 23:49:07.89	17.38	27.78	-85.2	-88.8	2.6	1.56e+00	0	48	104	0	60	1048574
2026-01-17 23:49:10.91	17.15	28.31	-85.2	-88.8	2.8	1.56e+00	0	47	104	0	60	1048575
2026-01-17 23:49:13.92	16.91	28.83	-85.2	-88.8	2.7	1.56e+00	0	47	104	0	60	1048573
2026-01-17 23:49:16.94	16.67	29.37	-85.2	-88.8	3.0	1.56e+00	0	47	104	0	60	1048575
2026-01-17 23:49:19.97	16.42	29.92	-85.2	-88.8	2.7	1.56e+00	0	48	104	0	60	1048573
2026-01-17 23:49:22.99	16.16	30.48	-85.2	-88.8	2.6	1.56e+00	0	47	104	0	60	1048575
2026-01-17 23:49:26.02	15.89	31.05	-85.2	-88.8	2.7	1.56e+00	0	47	104	0	60	1048574
2026-01-17 23:49:29.04	15.61	31.63	-85.2	-88.8	2.6	1.56e+00	0	48	104	0	60	1048574
2026-01-17 23:49:32.05	15.31	32.22	-85.2	-88.8	2.8	1.56e+00	0	48	104	0	60	1048567
2026-01-17 23:49:35.07	15.01	32.82	-85.2	-88.8	2.7	1.56e+00	0	47	104	0	60	1048572
2026-01-17 23:49:38.10	14.70	33.44	-85.2	-88.8	2.8	1.56e+00	0	48	104	0	60	1048575
2026-01-17 23:49:41.12	14.37	34.06	-85.2	-88.8	2.8	1.56e+00	0	48	104	0	60	1048575
2026-01-17 23:49:44.15	14.03	34.70	-85.2	-88.8	2.6	1.56e+00	0	47	104	0	60	1048575
2026-01-17 23:49:47.16	13.67	35.35	-85.2	-88.8	2.7	1.56e+00	0	47	104	0	60	1048575
2026-01-17 23:49:50.18	13.30	36.01	-85.2	-88.8	2.5	1.56e+00	0	48	104	0	60	1048575
2026-01-17 23:49:53.20	12.92	36.68	-85.2	-88.8	2.8	1.56e+00	0	48	104	0	60	1048575
2026-01-17 23:49:56.23	12.51	37.37	-85.2	-88.8	2.6	1.56e+00	0	48	104	0	60	1048573
2026-01-17 23:49:59.25	12.09	38.07	-85.2	-88.8	2.8	1.56e+00	0	48	104	0	60	1048573
2026-01-17 23:50:02.27	11.65	38.78	-85.2	-88.8	2.7	1.56e+00	0	48	104	0	60	1048575
2026-01-17 23:50:05.28	11.19	39.50	-85.2	-88.8	2.9	1.56e+00	0	48	104	0	60	1048569
2026-01-17 23:50:08.29	10.71	40.23	-85.2	-88.8	2.7	1.56e+00	0	47	104	0	60	1048574
2026-01-17 23:50:11.31	10.21	40.98	-85.2	-88.8	2.5	1.56e+00	0	47	104	0	60	1048573
2026-01-17 23:50:14.32	9.68	41.74	-85.2	-88.8	2.6	1.56e+00	0	48	104	0	60	1048570
2026-01-17 23:50:17.34	9.12	42.52	-85.2	-88.8	2.5	1.56e+00	0	47	104	0	60	1048575
2026-01-17 23:50:20.36	8.54	43.31	-85.2	-88.8	2.7	1.56e+00	0	47	104	0	60	1048574
2026-01-17 23:50:23.38	7.92	44.11	-85.2	-88.8	2.8	1.56e+00	0	48	104	0	60	1048572
2026-01-17 23:50:26.40	7.28	44.93	-85.2	-88.8	2.6	1.56e+00	0	48	104	0	60	1048573
2026-01-17 23:50:29.42	6.60	45.76	-85.2	-88.8	2.7	1.56e+00	0	48	104	0	60	1048574
2026-01-17 23:50:32.43	5.88	46.59	-85.2	-88.8	2.5	1.56e+00	0	47	104	0	60	1048575
2026-01-17 23:50:35.45	5.12	47.45	-85.2	-88.8	2.6	1.56e+00	0	48	104	0	60	1048573
2026-01-17 23:50:38.47	4.31	48.31	-83.5	-88.8	2.8	1.56e+00	0	48	104	0	60	1048574
2026-01-17 23:50:41.48	3.47	49.18	-85.2	-88.8	2.9	1.56e+00	0	48	104	0	60	1048574
2026-01-17 23:50:44.51	2.56	50.07	-85.2	-88.8	2.7	1.56e+00	0	48	104	0	60	1048575
2026-01-17 23:50:47.53	1.60	50.96	-85.2	-88.8	2.7	1.56e+00	0	48	104	0	60	1048575
2026-01-17 23:50:50.54	0.59	51.86	-85.2	-88.8	2.7	1.56e+00	0	48	104	0	60	1048574
2026-01-17 23:50:53.57	359.51	52.78	-85.2	-88.8	2.6	1.56e+00	0	48	104	0	60	1048574
2026-01-17 23:50:56.57	358.36	53.69	-85.2	-88.8	2.5	1.56e+00	0	48	104	0	60	1048575
2026-01-17 23:50:59.58	357.14	54.60	-85.2	-88.8	2.6	1.56e+00	0	48	104	0	60	1048574
2026-01-17 23:51:02.59	355.83	55.52	-85.2	-88.8	2.7	1.56e+00	0	48	104	0	60	1048573
2026-01-17 23:51:05.61	354.44	56.44	-85.2	-88.8	2.5	1.56e+00	0	48	104	0	60	1048572
2026-01-17 23:51:08.62	352.95	57.36	-84.7	-88.8	2.4	1.56e+00	0	48	104	0	60	1048571
2026-01-17 23:51:11.64	351.35	58.27	-85.2	-88.8	2.5	1.56e+00	0	48	104	0	60	1048575
2026-01-17 23:51:14.65	349.64	59.17	-85.2	-88.8	2.6	1.56e+00	0	48	104	0	60	1048574
2026-01-17 23:51:17.66	347.81	60.06	-84.3	-88.8	2.7	1.56e+00	0	47	104	0	60	1048575
2026-01-17 23:51:20.68	345.84	60.94	-85.2	-88.8	2.8	1.56e+00	0	48	104	0	60	1048574
2026-01-17 23:51:23.70	343.74	61.79	-85.2	-88.8	2.8	1.56e+00	0	48	104	0	60	1048575
2026-01-17 23:51:26.72	341.48	62.62	-85.2	-88.8	2.8	1.56e+00	0	48	104	0	60	1048571
2026-01-17 23:51:29.73	339.07	63.42	-85.2	-88.8	2.7	1.56e+00	0	48	104	0	60	1048574
2026-01-17 23:51:32.74	336.50	64.18	-85.2	-88.8	2.8	1.56e+00	0	48	104	0	60	1048575
2026-01-17 23:51:35.76	333.74	64.90	-85.2	-88.8	2.8	1.56e+00	0	47	104	0	60	1048574
2026-01-17 23:51:38.77	330.82	65.57	-85.2	-88.8	2.7	1.56e+00	0	48	104	0	60	1048575
2026-01-17 23:51:41.79	327.71	66.19	-85.2	-88.8	2.7	1.56e+00	0	47	104	0	60	1048573
2026-01-17 23:51:44.81	324.43	66.74	-85.2	-88.8	2.6	1.56e+00	0	48	104	0	60	1048573
2026-01-17 23:51:47.82	321.00	67.22	-84.7	-88.8	2.5	1.56e+00	0	48	104	0	60	1048575
2026-01-17 23:51:50.84	317.40	67.62	-83.9	-88.8	2.7	1.56e+00	0	48	104	0	60	1048573
2026-01-17 23:51:53.85	313.69	67.94	-85.2	-88.8	2.5	1.56e+00	0	48	104	0	60	1048571
2026-01-17 23:51:56.87	309.86	68.18	-85.2	-88.8	2.9	1.56e+00	0	48	104	0	60	1048573
2026-01-17 23:51:59.89	305.96	68.32	-85.2	-88.8	2.8	1.56e+00	0	48	104	0	60	1048574
2026-01-17 23:52:02.91	302.02	68.37	-85.2	-88.8	2.7	1.56e+00	0	48	104	0	60	1048575
2026-01-17 23:52:05.92	298.09	68.33	-84.7	-88.8	2.7	1.56e+00	0	48	104	0	60	1048572
2026-01-17 23:52:08.95	294.18	68.18	-85.2	-88.8	2.8	1.56e+00	0	48	104	0	60	1048575
2026-01-17 23:52:11.97	290.34	67.95	-85.2	-88.8	2.8	1.56e+00	0	47	104	0	60	1048575
2026-01-17 23:52:14.99	286.61	67.63	-85.2	-88.8	2.7	1.56e+00	0	48	104	0	60	1048573
2026-01-17 23:52:18.01	283.01	67.23	-85.2	-88.8	2.8	1.56e+00	0	48	104	0	60	1048575
2026-01-17 23:52:21.03	279.56	66.75	-85.2	-88.8	2.9	1.56e+00	0	47	104	0	60	1048568
2026-01-17 23:52:24.05	276.28	66.20	-85.2	-88.8	2.8	1.56e+00	0	48	104	0	60	1048573
2026-01-17 23:52:27.07	273.16	65.58	-85.2	-88.8	2.8	1.56e+00	0	48	104	0	60	1048575
2026-01-17 23:52:30.09	270.23	64.91	-85.2	-88.8	2.7	1.56e+00	0	48	104	0	60	1048573
2026-01-17 23:52:33.11	267.47	64.19	-85.2	-88.8	2.7	1.56e+00	0	48	104	0	60	1048573
2026-01-17 23:52:36.12	264.89	63.43	-85.2	-88.8	2.9	1.56e+00	0	48	104	0	60	1048575
2026-01-17 23:52:39.14	262.46	62.63	-85.2	-88.8	2.9	1.56e+00	0	48	104	0	60	1048573
2026-01-17 23:52:42.17	260.20	61.79	-85.2	-88.8	2.6	1.56e+00	0	48	104	0	60	1048575
2026-01-17 23:52:45.19	258.08	60.93	-85.2	-88.8	2.6	1.56e+00	0	48	104	0	60	1048573
2026-01-17 23:52:48.21	256.11	60.06	-85.2	-88.8	2.8	1.56e+00	0	48	104	0	60	1048574
2026-01-17 23:52:51.24	254.27	59.16	-85.2	-88.8	2.9	1.56e+00	0	48	104	0	60	1048571
2026-01-17 23:52:54.26	252.55	58.25	-84.7	-88.8	2.8	1.56e+00	0	48	104	0	60	1048575
2026-01-17 23:52:57.28	250.95	57.34	-85.2	-88.8	2.8	1.56e+00	0	48	104	0	60	1048575
2026-01-17 23:53:00.29	249.46	56.42	-85.2	-88.8	2.6	1.56e+00	0	48	104	0	60	1048574
2026-01-17 23:53:03.31	248.06	55.50	-84.7	-88.8	2.6	1.56e+00	0	48	104	0	60	1048574
2026-01-17 23:53:06.33	246.75	54.57	-85.2	-88.8	2.7	1.56e+00	0	48	104	0	60	1048574
2026-01-17 23:53:09.35	245.52	53.65	-85.2	-88.8	2.7	1.56e+00	0	48	104	0	60	1048571
2026-01-17 23:53:12.36	244.37	52.74	-85.2	-88.8	2.7	1.56e+00	0	48	104	0	60	1048575
2026-01-17 23:53:15.38	243.29	51.83	-85.2	-88.8	2.8	1.56e+00	0	48	104	0	60	1048574
2026-01-17 23:53:18.40	242.28	50.92	-85.2	-88.8	2.6	1.56e+00	0	48	104	0	60	1048573
2026-01-17 23:53:21.42	241.32	50.03	-85.2	-88.8	2.7	1.56e+00	0	48	104	0	60	1048573
2026-01-17 23:53:24.44	240.41	49.14	-85.2	-88.8	2.8	1.56e+00	0	48	104	0	60	1048573
2026-01-17 23:53:27.45	239.57	48.26	-85.2	-88.8	2.9	1.56e+00	0	47	104	0	60	1048571
2026-01-17 23:53:30.45	238.77	47.40	-85.2	-88.8	2.6	1.56e+00	0	48	104	0	60	1048571
2026-01-17 23:53:33.46	238.01	46.55	-85.2	-88.8	2.7	1.56e+00	0	48	104	0	60	1048573
2026-01-17 23:53:36.49	237.28	45.71	-85.2	-88.8	2.6	1.56e+00	0	48	104	0	60	1048572
2026-01-17 23:53:39.50	236.60	44.88	-85.2	-88.8	2.9	1.56e+00	0	48	104	0	60	1048574
2026-01-17 23:53:42.52	235.96	44.06	-85.2	-88.8	2.6	1.56e+00	0	48	104	0	60	1048572
2026-01-17 23:53:45.53	235.34	43.26	-85.2	-88.8	2.5	1.56e+00	0	48	104	0	60	1048575
2026-01-17 23:53:48.55	234.76	42.47	-85.2	-88.8	2.7	1.56e+00	0	48	104	0	60	1048572
2026-01-17 23:53:51.57	234.20	41.69	-85.2	-88.8	2.8	1.56e+00	0	48	104	0	60	1048575
2026-01-17 23:53:54.59	233.67	40.92	-85.2	-88.8	2.9	1.56e+00	0	48	104	0	60	1048575
2026-01-17 23:53:57.60	233.16	40.17	-85.2	-88.8	2.8	1.56e+00	0	48	104	0	60	1048575
2026-01-17 23:54:00.62	232.68	39.43	-85.2	-88.8	2.7	1.56e+00	0	48	104	0	60	1048573
2026-01-17 23:54:03.64	232.22	38.71	-85.2	-88.8	2.7	1.56e+00	0	47	104	0	60	1048575
2026-01-17 23:54:06.66	231.78	37.99	-85.2	-88.8	2.7	1.56e+00	0	48	104	0	60	1048574
2026-01-17 23:54:09.68	231.36	37.29	-85.2	-88.8	2.6	1.56e+00	0	48	104	0	60	1048575
2026-01-17 23:54:12.70	230.95	36.61	-85.2	-88.8	2.8	1.56e+00	0	48	104	0	60	1048572
2026-01-17 23:54:15.72	230.57	35.93	-85.2	-88.8	2.7	1.56e+00	0	48	104	0	60	1048573
2026-01-17 23:54:18.74	230.20	35.27	-83.5	-88.8	2.8	1.56e+00	0	48	104	0	60	1048566
2026-01-17 23:54:21.77	229.84	34.62	-85.2	-88.8	2.7	1.56e+00	0	48	104	0	60	1048575
2026-01-17 23:54:24.78	229.50	33.98	-85.2	-88.8	2.8	1.56e+00	0	48	104	0	60	1048573
2026-01-17 23:54:27.81	229.17	33.35	-85.2	-88.8	2.8	1.56e+00	0	48	104	0	60	1048574
2026-01-17 23:54:30.83	228.85	32.74	-85.2	-88.8	2.6	1.56e+00	0	48	104	0	60	1048575
2026-01-17 23:54:33.84	228.55	32.14	-85.2	-88.8	2.7	1.56e+00	0	48	104	0	60	1048575
2026-01-17 23:54:36.85	228.26	31.55	-85.2	-88.8	2.7	1.56e+00	0	48	104	0	60	1048573
2026-01-17 23:54:39.88	227.97	30.96	-85.2	-88.8	2.6	1.56e+00	0	48	104	0	60	1048575
2026-01-17 23:54:42.90	227.70	30.39	-85.2	-88.8	2.6	1.56e+00	0	48	104	0	60	1048575
2026-01-17 23:54:45.92	227.44	29.83	-85.2	-88.8	2.7	1.56e+00	0	47	104	0	60	1048574
2026-01-17 23:54:48.94	227.19	29.28	-85.2	-88.8	2.8	1.56e+00	0	48	104	0	60	1048574
2026-01-17 23:54:51.96	226.94	28.74	-85.2	-88.8	2.6	1.56e+00	0	47	104	0	60	1048575
2026-01-17 23:54:54.98	226.71	28.21	-85.2	-88.8	2.7	1.56e+00	0	48	104	0	60	1048574
2026-01-17 23:54:58.00	226.48	27.69	-85.2	-88.8	2.7	1.56e+00	0	48	104	0	60	1048575
2026-01-17 23:55:01.03	226.26	27.18	-85.2	-88.8	2.9	1.56e+00	0	48	104	0	60	1048575
2026-01-17 23:55:04.05	226.05	26.67	-84.7	-88.8	2.7	1.56e+00	0	48	104	0	60	1048575
2026-01-17 23:55:07.07	225.84	26.18	-85.2	-88.8	2.9	1.56e+00	0	48	104	0	60	1048572
2026-01-17 23:55:10.08	225.64	25.69	-85.2	-88.8	2.7	1.56e+00	0	48	104	0	60	1048575
2026-01-17 23:55:13.11	225.45	25.21	-85.2	-88.8	2.5	1.56e+00	0	48	104	0	60	1048575
2026-01-17 23:55:16.13	225.26	24.74	-85.2	-88.8	2.8	1.56e+00	0	48	104	0	60	1048575
2026-01-17 23:55:19.15	225.08	24.28	-85.2	-88.8	2.9	1.56e+00	0	48	104	0	60	1048572
2026-01-17 23:55:22.16	224.90	23.83	-85.2	-88.8	2.8	1.56e+00	0	48	104	0	60	1048574
2026-01-17 23:55:25.17	224.73	23.38	-85.2	-88.8	2.8	1.56e+00	0	47	104	0	60	1048572
2026-01-17 23:55:28.19	224.56	22.94	-85.2	-88.8	2.6	1.56e+00	0	48	104	0	60	1048575
2026-01-17 23:55:31.21	224.40	22.51	-85.2	-88.8	2.7	1.56e+00	0	48	104	0	60	1048573
2026-01-17 23:55:34.24	224.25	22.09	-85.2	-88.8	2.5	1.56e+00	0	48	104	0	60	1048575
2026-01-17 23:55:37.26	224.09	21.67	-85.2	-88.8	2.8	1.56e+00	0	48	104	0	60	1048574
2026-01-17 23:55:40.28	223.95	21.25	-85.2	-88.8	2.8	1.56e+00	0	48	104	0	60	1048572
2026-01-17 23:55:43.30	223.80	20.85	-84.7	-88.8	2.5	1.56e+00	0	47	104	0	60	1048575
2026-01-17 23:55:46.31	223.66	20.45	-85.2	-88.8	2.6	1.56e+00	0	48	104	0	60	1048568
2026-01-17 23:55:49.33	223.53	20.06	-85.2	-88.8	2.6	1.56e+00	0	47	104	0	60	1048572
2026-01-17 23:55:52.36	223.40	19.67	-85.2	-88.8	2.7	1.56e+00	0	47	104	0	60	1048574
2026-01-17 23:55:55.37	223.27	19.29	-85.2	-88.8	2.7	1.56e+00	0	47	104	0	60	1048575
2026-01-17 23:55:58.39	223.14	18.91	-85.2	-88.8	2.6	1.56e+00	0	48	104	0	60	1048573
2026-01-17 23:56:01.41	223.02	18.54	-85.2	-88.8	2.7	1.56e+00	0	48	104	0	60	1048575
2026-01-17 23:56:04.43	222.90	18.18	-82.8	-88.8	2.8	1.56e+00	0	48	104	0	60	1048575
2026-01-17 23:56:07.45	222.78	17.82	-85.2	-88.8	2.6	1.56e+00	0	47	104	0	60	1048575
2026-01-17 23:56:10.47	222.67	17.46	-85.2	-88.8	2.7	1.56e+00	0	47	104	0	60	1048574
2026-01-17 23:56:13.49	222.56	17.11	-85.2	-88.8	2.6	1.56e+00	0	48	104	0	60	1048574
2026-01-17 23:56:16.52	222.45	16.76	-85.2	-88.8	2.8	1.56e+00	0	48	104	0	60	1048573
2026-01-17 23:56:19.54	222.35	16.42	-83.9	-88.8	2.7	1.56e+00	0	47	104	0	60	1048573
2026-01-17 23:56:22.57	222.25	16.09	-85.2	-88.8	2.6	1.56e+00	0	47	104	0	60	1048572
2026-01-17 23:56:25.58	222.15	15.76	-85.2	-88.8	2.7	1.56e+00	0	48	104	0	60	1048574
2026-01-17 23:56:28.60	222.05	15.43	-85.2	-88.8	2.7	1.56e+00	0	48	104	0	60	1048575
2026-01-17 23:56:31.62	221.95	15.11	-85.2	-88.8	2.7	1.56e+00	0	48	104	0	60	1048574
2026-01-17 23:56:34.64	221.86	14.79	-85.2	-88.8	2.8	1.56e+00	0	48	104	0	60	1048573
2026-01-17 23:56:37.66	221.77	14.47	-84.7	-88.8	2.4	1.56e+00	0	48	104	0	60	1048574
2026-01-17 23:56:40.69	221.68	14.16	-85.2	-88.8	2.9	1.56e+00	0	48	104	0	60	1048574
2026-01-17 23:56:43.71	221.60	13.85	-85.2	-88.8	2.6	1.56e+00	0	48	104	0	60	1048571
2026-01-17 23:56:46.73	221.51	13.55	-84.3	-88.8	2.6	1.56e+00	0	48	104	0	60	1048575
2026-01-17 23:56:49.74	221.43	13.25	-85.2	-88.8	2.8	1.56e+00	0	48	104	0	60	1048575
2026-01-17 23:56:52.76	221.35	12.96	-84.3	-88.8	2.7	1.56e+00	0	48	104	0	60	1048574
2026-01-17 23:56:55.78	221.27	12.66	-85.2	-88.8	2.6	1.56e+00	0	48	104	0	60	1048572
2026-01-17 23:56:58.79	221.19	12.38	-85.2	-88.8	2.8	1.56e+00	0	48	104	0	60	1048574
2026-01-17 23:57:01.81	221.12	12.09	-85.2	-88.8	2.7	1.56e+00	0	48	104	0	60	1048572
2026-01-17 23:57:04.82	221.04	11.81	-84.3	-88.8	2.8	1.56e+00	0	48	104	0	60	1048568
2026-01-17 23:57:07.84	220.97	11.53	-85.2	-88.8	2.6	1.56e+00	0	48	104	0	60	1048568
2026-01-17 23:57:10.87	220.90	11.25	-85.2	-88.8	2.5	1.56e+00	0	48	104	0	60	1048569
2026-01-17 23:57:13.90	220.83	10.98	-83.5	-88.8	2.8	1.56e+00	0	48	104	0	60	1048574
2026-01-17 23:57:16.91	220.76	10.71	-85.2	-88.8	2.7	1.56e+00	0	48	104	0	60	1048573
2026-01-17 23:57:19.93	220.69	10.44	-84.3	-88.8	2.8	1.56e+00	0	48	104	0	60	1048575
2026-01-17 23:57:22.95	220.63	10.18	-85.2	-88.8	2.6	1.56e+00	0	48	104	0	60	1048573
2026-01-17 23:57:25.97	220.56	9.91	-85.2	-88.8	2.9	1.56e+00	0	47	104	0	60	1048574
2026-01-17 23:57:29.00	220.50	9.65	-84.3	-88.8	2.9	1.56e+00	0	48	104	0	60	1048564
2026-01-17 23:57:32.02	220.44	9.40	-85.2	-88.8	2.6	1.56e+00	0	48	104	0	60	1048571
2026-01-17 23:57:35.03	220.38	9.15	-84.3	-88.8	2.8	1.56e+00	0	48	104	0	60	1048574
2026-01-17 23:57:38.05	220.32	8.89	-85.2	-88.8	2.6	1.56e+00	0	48	104	0	60	1048575
2026-01-17 23:57:41.07	220.26	8.65	-84.7	-88.8	2.6	1.56e+00	0	48	104	0	60	1048575
2026-01-17 23:57:44.08	220.21	8.40	-84.3	-88.8	2.8	1.56e+00	0	48	104	0	60	1048571
2026-01-17 23:57:47.10	220.15	8.16	-85.2	-88.8	2.5	1.56e+00	0	48	104	0	60	1048574
2026-01-17 23:57:50.12	220.10	7.91	-85.2	-88.8	2.9	1.56e+00	0	47	104	0	60	1048574
2026-01-17 23:57:53.14	220.04	7.67	-84.7	-88.8	2.7	1.56e+00	0	48	104	0	60	1048575
2026-01-17 23:57:56.15	219.99	7.44	-85.2	-88.8	2.7	1.56e+00	0	48	104	0	60	1048574
2026-01-17 23:57:59.17	219.94	7.20	-84.7	-88.8	2.5	1.56e+00	0	48	104	0	60	1048571
2026-01-17 23:58:02.19	219.89	6.97	-84.7	-88.8	2.8	1.56e+00	0	47	104	0	60	1048574
2026-01-17 23:58:05.21	219.84	6.74	-84.7	-88.8	2.8	1.56e+00	0	48	104	0	60	1048573
2026-01-17 23:58:08.23	219.79	6.51	-84.3	-88.8	2.8	1.56e+00	0	47	104	0	60	1048573
2026-01-17 23:58:11.24	219.74	6.28	-85.2	-88.8	2.6	1.56e+00	0	47	104	0	60	1048571
2026-01-17 23:58:14.24	219.70	6.06	-84.7	-88.8	2.7	1.56e+00	0	48	104	0	60	1048572
2026-01-17 23:58:17.26	219.65	5.84	-84.7	-88.8	2.8	1.56e+00	0	48	104	0	60	1048574
2026-01-17 23:58:20.28	219.61	5.61	-84.3	-88.8	2.8	1.56e+00	0	47	104	0	60	1048574
2026-01-17 23:58:23.31	219.56	5.39	-85.2	-88.8	2.6	1.56e+00	0	47	104	0	60	1048573
2026-01-17 23:58:26.32	219.52	5.18	-85.2	-88.8	2.6	1.56e+00	0	48	104	0	60	1048573
2026-01-17 23:58:29.35	219.48	4.96	-84.3	-88.8	2.7	1.56e+00	0	48	104	0	60	1048575
2026-01-17 23:58:32.37	219.44	4.75	-83.9	-88.8	2.5	1.56e+00	0	48	104	0	60	1048574
2026-01-17 23:58:35.40	219.39	4.53	-84.7	-88.8	2.9	1.56e+00	0	48	104	0	60	1048575
2026-01-17 23:58:38.41	219.35	4.32	-85.2	-88.8	2.6	1.56e+00	0	48	104	0	60	1048574
2026-01-17 23:58:41.44	219.31	4.11	-85.2	-88.8	2.7	1.56e+00	0	48	104	0	60	1048573
2026-01-17 23:58:44.45	219.27	3.91	-85.2	-88.8	2.8	1.56e+00	0	48	104	0	60	1048575
2026-01-17 23:58:47.47	219.24	3.70	-85.2	-88.8	2.8	1.56e+00	0	48	104	0	60	1048575
2026-01-17 23:58:50.49	219.20	3.50	-84.3	-88.8	2.4	1.56e+00	0	47	104	0	60	1048575
2026-01-17 23:58:53.52	219.16	3.29	-83.5	-88.8	2.5	1.56e+00	0	48	104	0	60	1048574
2026-01-17 23:58:56.53	219.13	3.09	-83.9	-88.8	2.7	1.56e+00	0	48	104	0	60	1048575
2026-01-17 23:58:59.54	219.09	2.89	-84.7	-88.8	2.8	1.56e+00	0	48	104	0	60	1048572
2026-01-17 23:59:02.57	219.05	2.69	-85.2	-88.8	2.7	1.56e+00	0	48	104	0	60	1048574
2026-01-17 23:59:05.58	219.02	2.50	-85.2	-88.8	2.9	1.56e+00	0	48	104	0	60	1048575
2026-01-17 23:59:08.61	218.99	2.30	-85.2	-88.8	2.7	1.56e+00	0	48	104	0	60	1048574
2026-01-17 23:59:11.63	218.95	2.10	-84.3	-88.8	2.7	1.56e+00	0	48	104	0	60	1048574
2026-01-17 23:59:14.65	218.92	1.91	-84.7	-88.8	2.8	1.56e+00	0	48	104	0	60	1048575
2026-01-17 23:59:17.67	218.89	1.72	-83.9	-88.8	2.6	1.56e+00	0	48	104	0	60	1048572
2026-01-17 23:59:20.68	218.86	1.53	-84.7	-88.8	2.6	1.56e+00	0	48	104	0	60	1048575
2026-01-17 23:59:23.70	218.82	1.34	-83.5	-88.8	2.6	1.56e+00	0	48	104	0	60	1048567
2026-01-17 23:59:26.73	218.79	1.15	-83.5	-88.8	2.7	1.56e+00	0	48	104	0	60	1048575
2026-01-17 23:59:29.74	218.76	0.96	-84.7	-88.8	2.8	1.56e+00	0	48	104	0	60	1048574
2026-01-17 23:59:32.76	218.73	0.78	-84.7	-88.8	2.7	1.56e+00	0	48	104	0	60	1048574
2026-01-17 23:59:35.77	218.71	0.59	-85.2	-88.8	2.7	1.56e+00	0	48	104	0	60	1048567
2026-01-17 23:59:38.79	218.68	0.41	-84.3	-88.8	2.8	1.56e+00	0	48	104	0	60	1048568
2026-01-17 23:59:41.82	218.65	0.23	-84.7	-88.8	2.6	1.56e+00	0	48	104	0	60	1048574
2026-01-17 23:59:44.84	218.62	0.04	-83.5	-88.8	2.7	1.56e+00	0	48	104	0	60	1048575

#Closed at: 2026-01-17 23:59:45
#Recorded file [0 MB]: D:/Data/35015_260118_024648.dat