passes_logs/2026/01/17/R3.2S-Naryan-Mar/R3.2S-Naryan-Mar__20260117_103057_SUOMI_NPP_rec.log

#Pass ID: 20260117_103057_SUOMI NPP
#Satellite: SUOMI NPP
#Configuration: NPP
#almurnet v.1.7.20240730
#Start time: 2026-01-17 10:31:02

#Version: 2.2.20231116
#Station: R3.2S-Naryan-Mar
#Location: 53.008057 lon 67.646978 lat
#TLE: 1 37849U 11061A   26016.23176763  .00000061  00000+0  49926-4 0  9990
#TLE: 2 37849  98.7812 318.2698 0002434  61.5135 298.6286 14.19525545736883

#Time	Az	El	Level	Level2	SNR	BER	BlckErr	Temp	State	Recorded	gain1	gain2
2026-01-17 10:31:02.10	206.48	0.23	-83.1	-79.0	2.4	0.00e+00	0	44	0	0	60	1048575
2026-01-17 10:31:06.13	206.73	0.44	-85.2	-88.6	3.1	1.56e+00	0	46	104	0	60	1048575
2026-01-17 10:31:10.15	206.98	0.66	-85.2	-88.6	3.0	1.55e+00	0	46	104	0	60	1048575
2026-01-17 10:31:14.18	207.23	0.88	-85.2	-88.6	3.1	1.56e+00	0	46	104	0	60	1048575
2026-01-17 10:31:18.20	207.48	1.10	-85.2	-88.6	3.0	1.55e+00	0	46	104	0	60	1048575
2026-01-17 10:31:22.22	207.74	1.32	-85.2	-88.6	3.0	1.56e+00	0	46	104	0	60	1048575
2026-01-17 10:31:26.25	208.00	1.54	-84.7	-88.6	2.7	1.56e+00	0	46	104	0	60	1048575
2026-01-17 10:31:30.28	208.27	1.77	-85.2	-88.6	2.9	1.55e+00	0	46	104	0	60	1048575
2026-01-17 10:31:34.31	208.54	1.99	-85.2	-88.6	3.0	1.56e+00	0	46	104	0	60	1048573
2026-01-17 10:31:38.34	208.81	2.22	-85.2	-88.6	3.1	1.55e+00	0	46	104	0	60	1048575
2026-01-17 10:31:42.37	209.09	2.44	-85.2	-88.6	3.0	1.56e+00	0	46	104	0	60	1048573
2026-01-17 10:31:46.41	209.37	2.67	-85.2	-88.6	3.1	1.55e+00	0	46	104	0	60	1048575
2026-01-17 10:31:50.42	209.65	2.90	-85.2	-88.6	2.9	1.55e+00	0	46	104	0	60	1048574
2026-01-17 10:31:54.43	209.94	3.13	-85.2	-88.6	3.0	1.56e+00	0	46	104	0	60	1048575
2026-01-17 10:31:58.46	210.24	3.37	-85.2	-88.6	3.1	1.56e+00	0	46	104	0	60	1048575
2026-01-17 10:32:02.49	210.53	3.60	-85.2	-88.6	2.9	1.55e+00	0	46	104	0	60	1048572
2026-01-17 10:32:06.51	210.84	3.84	-85.2	-88.6	3.1	1.56e+00	0	46	104	0	60	1048575
2026-01-17 10:32:10.53	211.14	4.07	-85.2	-88.6	3.0	1.56e+00	0	46	104	0	60	1048575
2026-01-17 10:32:14.56	211.46	4.31	-85.2	-88.6	3.0	1.56e+00	0	46	104	0	60	1048574
2026-01-17 10:32:18.59	211.77	4.55	-85.2	-88.6	2.9	1.56e+00	0	46	104	0	60	1048573
2026-01-17 10:32:22.61	212.10	4.79	-85.2	-88.6	3.1	1.56e+00	0	46	104	0	60	1048572
2026-01-17 10:32:26.64	212.42	5.04	-85.2	-88.6	3.0	1.56e+00	0	46	104	0	60	1048572
2026-01-17 10:32:30.67	212.76	5.28	-85.2	-88.6	3.0	1.56e+00	0	46	104	0	60	1048574
2026-01-17 10:32:34.70	213.10	5.53	-85.2	-88.6	3.1	1.56e+00	0	46	104	0	60	1048575
2026-01-17 10:32:38.73	213.44	5.77	-85.2	-88.6	2.9	1.56e+00	0	47	104	0	60	1048574
2026-01-17 10:32:42.75	213.79	6.02	-85.2	-88.6	3.1	1.56e+00	0	46	104	0	60	1048573
2026-01-17 10:32:46.78	214.14	6.27	-85.2	-88.6	3.1	1.56e+00	0	46	104	0	60	1048575
2026-01-17 10:32:50.80	214.50	6.52	-85.2	-88.6	3.1	1.56e+00	0	46	104	0	60	1048571
2026-01-17 10:32:54.82	214.87	6.78	-85.2	-88.6	2.9	1.55e+00	0	46	104	0	60	1048575
2026-01-17 10:32:58.83	215.24	7.03	-85.2	-88.6	3.1	1.56e+00	0	46	104	0	60	1048575
2026-01-17 10:33:02.83	215.62	7.29	-85.2	-88.6	3.0	1.56e+00	0	47	104	0	60	1048570
2026-01-17 10:33:06.87	216.00	7.55	-85.2	-88.6	2.9	1.56e+00	0	46	104	0	60	1048574
2026-01-17 10:33:10.89	216.40	7.80	-85.2	-88.6	2.9	1.56e+00	0	46	104	0	60	1048575
2026-01-17 10:33:14.92	216.79	8.07	-85.2	-88.6	3.0	1.56e+00	0	46	104	0	60	1048575
2026-01-17 10:33:18.94	217.20	8.33	-85.2	-88.6	3.0	1.55e+00	0	46	104	0	60	1048575
2026-01-17 10:33:22.96	217.61	8.59	-85.2	-88.6	3.1	1.55e+00	0	46	104	0	60	1048572
2026-01-17 10:33:26.98	218.03	8.86	-85.2	-88.6	2.9	1.56e+00	0	47	104	0	60	1048575
2026-01-17 10:33:31.00	218.46	9.12	-85.2	-88.6	2.8	1.56e+00	0	46	104	0	60	1048574
2026-01-17 10:33:35.02	218.89	9.39	-85.2	-88.6	3.0	1.55e+00	0	47	104	0	60	1048569
2026-01-17 10:33:39.03	219.33	9.66	-85.2	-88.6	2.9	1.56e+00	0	47	104	0	60	1048575
2026-01-17 10:33:43.05	219.78	9.93	-85.2	-88.6	3.1	1.56e+00	0	47	104	0	60	1048575
2026-01-17 10:33:47.07	220.24	10.21	-85.2	-88.6	3.1	1.55e+00	0	47	104	0	60	1048575
2026-01-17 10:33:51.11	220.71	10.48	-85.2	-88.6	2.9	1.55e+00	0	47	104	0	60	1048574
2026-01-17 10:33:55.13	221.19	10.76	-85.2	-88.6	3.0	1.56e+00	0	47	104	0	60	1048575
2026-01-17 10:33:59.15	221.67	11.03	-85.2	-88.6	3.0	1.55e+00	0	47	104	0	60	1048573
2026-01-17 10:34:03.18	222.16	11.31	-85.2	-88.6	2.9	1.56e+00	0	47	104	0	60	1048575
2026-01-17 10:34:07.21	222.67	11.59	-85.2	-88.6	3.1	1.56e+00	0	47	104	0	60	1048575
2026-01-17 10:34:11.24	223.18	11.87	-85.2	-88.6	2.9	1.56e+00	0	47	104	0	60	1048574
2026-01-17 10:34:15.27	223.70	12.16	-85.2	-88.6	3.0	1.56e+00	0	47	104	0	60	1048575
2026-01-17 10:34:19.28	224.23	12.44	-85.2	-88.6	3.0	1.56e+00	0	47	104	0	60	1048570
2026-01-17 10:34:23.30	224.77	12.72	-85.2	-88.6	3.0	1.55e+00	0	47	104	0	60	1048572
2026-01-17 10:34:27.33	225.32	13.01	-85.2	-88.6	3.1	1.56e+00	0	47	104	0	60	1048574
2026-01-17 10:34:31.36	225.88	13.30	-85.2	-88.6	2.9	1.56e+00	0	47	104	0	60	1048575
2026-01-17 10:34:35.39	226.46	13.58	-85.2	-88.6	2.9	1.55e+00	0	47	104	0	60	1048575
2026-01-17 10:34:39.41	227.04	13.87	-85.2	-88.6	3.0	1.56e+00	0	47	104	0	60	1048575
2026-01-17 10:34:43.44	227.63	14.16	-85.2	-88.6	3.1	1.56e+00	0	47	104	0	60	1048575
2026-01-17 10:34:47.47	228.24	14.45	-85.2	-88.6	3.0	1.55e+00	0	47	104	0	60	1048570
2026-01-17 10:34:51.50	228.86	14.74	-85.2	-88.6	3.0	1.56e+00	0	47	104	0	60	1048574
2026-01-17 10:34:55.53	229.49	15.03	-85.2	-88.6	3.1	1.56e+00	0	47	104	0	60	1048575
2026-01-17 10:34:59.55	230.13	15.32	-85.2	-88.6	3.2	1.56e+00	0	47	104	0	60	1048574
2026-01-17 10:35:03.58	230.78	15.61	-85.2	-88.6	3.0	1.56e+00	0	47	104	0	60	1048574
2026-01-17 10:35:07.61	231.44	15.90	-85.2	-88.6	3.0	1.55e+00	0	47	104	0	60	1048575
2026-01-17 10:35:11.63	232.12	16.19	-85.2	-88.6	3.1	1.55e+00	0	47	104	0	60	1048575
2026-01-17 10:35:15.67	232.81	16.48	-85.2	-88.6	3.2	1.55e+00	0	47	104	0	60	1048571
2026-01-17 10:35:19.69	233.52	16.77	-85.2	-88.6	3.0	1.55e+00	0	47	104	0	60	1048575
2026-01-17 10:35:23.72	234.23	17.06	-85.2	-88.6	2.9	1.56e+00	0	47	104	0	60	1048575
2026-01-17 10:35:27.74	234.96	17.35	-85.2	-88.6	3.1	1.55e+00	0	47	104	0	60	1048572
2026-01-17 10:35:31.76	235.71	17.63	-85.2	-88.6	3.0	1.56e+00	0	47	104	0	60	1048575
2026-01-17 10:35:35.79	236.46	17.92	-85.2	-88.6	3.0	1.56e+00	0	47	104	0	60	1048571
2026-01-17 10:35:39.82	237.24	18.20	-85.2	-88.6	3.2	1.55e+00	0	47	104	0	60	1048575
2026-01-17 10:35:43.84	238.02	18.48	-85.2	-88.6	3.1	1.56e+00	0	47	104	0	60	1048574
2026-01-17 10:35:47.86	238.82	18.76	-85.2	-88.6	2.9	1.56e+00	0	47	104	0	60	1048575
2026-01-17 10:35:51.90	239.64	19.04	-85.2	-88.6	3.0	1.55e+00	0	47	104	0	60	1048575
2026-01-17 10:35:55.92	240.46	19.32	-85.2	-88.6	2.9	1.56e+00	0	47	104	0	60	1048574
2026-01-17 10:35:59.95	241.31	19.59	-85.2	-88.6	3.0	1.56e+00	0	47	104	0	60	1048575
2026-01-17 10:36:03.97	242.16	19.86	-85.2	-88.6	2.8	1.55e+00	0	47	104	0	60	1048572
2026-01-17 10:36:08.00	243.04	20.12	-85.2	-88.6	3.1	1.56e+00	0	47	104	0	60	1048575
2026-01-17 10:36:12.04	243.93	20.38	-85.2	-88.6	3.0	1.55e+00	0	47	104	0	60	1048574
2026-01-17 10:36:16.07	244.83	20.64	-85.2	-88.6	3.0	1.55e+00	0	47	104	0	60	1048575
2026-01-17 10:36:20.09	245.75	20.89	-85.2	-88.6	3.0	1.56e+00	0	47	104	0	60	1048572
2026-01-17 10:36:24.12	246.68	21.14	-85.2	-88.6	3.1	1.55e+00	0	47	104	0	60	1048573
2026-01-17 10:36:28.15	247.62	21.38	-85.2	-88.6	3.0	1.55e+00	0	47	104	0	60	1048574
2026-01-17 10:36:32.18	248.58	21.62	-84.3	-88.6	2.9	1.56e+00	0	47	104	0	60	1048574
2026-01-17 10:36:36.20	249.56	21.85	-84.7	-88.6	3.1	1.56e+00	0	47	104	0	60	1048574
2026-01-17 10:36:40.23	250.55	22.07	-85.2	-88.6	3.1	1.56e+00	0	47	104	0	60	1048571
2026-01-17 10:36:44.26	251.55	22.29	-85.2	-88.6	2.8	1.56e+00	0	47	104	0	60	1048575
2026-01-17 10:36:48.29	252.56	22.50	-85.2	-88.6	3.0	1.55e+00	0	47	104	0	60	1048574
2026-01-17 10:36:52.31	253.59	22.70	-85.2	-88.6	3.1	1.55e+00	0	47	104	0	60	1048575
2026-01-17 10:36:56.33	254.63	22.90	-83.9	-88.6	3.0	1.55e+00	0	47	104	0	60	1048575
2026-01-17 10:37:00.37	255.69	23.08	-85.2	-88.6	2.9	1.56e+00	0	47	104	0	60	1048574
2026-01-17 10:37:04.39	256.75	23.26	-85.2	-88.6	2.9	1.56e+00	0	47	104	0	60	1048571
2026-01-17 10:37:08.41	257.83	23.43	-84.7	-88.6	2.8	1.56e+00	0	47	104	0	60	1048575
2026-01-17 10:37:12.44	258.92	23.59	-85.2	-88.6	3.3	1.55e+00	0	47	104	0	60	1048574
2026-01-17 10:37:16.47	260.02	23.74	-85.2	-88.6	3.1	1.55e+00	0	47	104	0	60	1048574
2026-01-17 10:37:20.51	261.13	23.88	-85.2	-88.6	3.1	1.55e+00	0	47	104	0	60	1048575
2026-01-17 10:37:24.54	262.25	24.01	-85.2	-88.6	3.0	1.56e+00	0	47	104	0	60	1048574
2026-01-17 10:37:28.56	263.37	24.12	-85.2	-88.6	3.2	1.56e+00	0	47	104	0	60	1048575
2026-01-17 10:37:32.59	264.51	24.23	-85.2	-88.6	3.2	1.56e+00	0	47	104	0	60	1048574
2026-01-17 10:37:36.63	265.65	24.33	-85.2	-88.6	3.2	1.55e+00	0	47	104	0	60	1048575
2026-01-17 10:37:40.66	266.80	24.41	-85.2	-88.6	3.2	1.56e+00	0	47	104	0	60	1048575
2026-01-17 10:37:44.69	267.95	24.49	-85.2	-88.6	2.9	1.55e+00	0	47	104	0	60	1048575
2026-01-17 10:37:48.72	269.11	24.55	-85.2	-88.6	3.0	1.56e+00	0	47	104	0	60	1048574
2026-01-17 10:37:52.75	270.28	24.60	-85.2	-88.6	2.9	1.56e+00	0	47	104	0	60	1048575
2026-01-17 10:37:56.77	271.44	24.63	-85.2	-88.6	3.0	1.56e+00	0	47	104	0	60	1048575
2026-01-17 10:38:00.80	272.61	24.66	-85.2	-88.6	3.0	1.56e+00	0	47	104	0	60	1048575
2026-01-17 10:38:04.83	273.78	24.67	-85.2	-88.6	2.9	1.56e+00	0	47	104	0	60	1048575
2026-01-17 10:38:08.85	274.94	24.67	-85.2	-88.6	3.1	1.55e+00	0	47	104	0	60	1048575
2026-01-17 10:38:12.88	276.11	24.66	-85.2	-88.6	3.0	1.56e+00	0	47	104	0	60	1048575
2026-01-17 10:38:16.90	277.28	24.64	-85.2	-88.6	3.0	1.56e+00	0	47	104	0	60	1048572
2026-01-17 10:38:20.93	278.44	24.60	-85.2	-88.6	2.9	1.56e+00	0	47	104	0	60	1048574
2026-01-17 10:38:24.96	279.60	24.55	-85.2	-88.6	2.9	1.56e+00	0	47	104	0	60	1048574
2026-01-17 10:38:28.99	280.76	24.49	-85.2	-88.6	3.0	1.56e+00	0	47	104	0	60	1048574
2026-01-17 10:38:33.01	281.91	24.42	-85.2	-88.6	2.8	1.56e+00	0	47	104	0	60	1048573
2026-01-17 10:38:37.05	283.06	24.33	-85.2	-88.6	3.0	1.56e+00	0	47	104	0	60	1048573
2026-01-17 10:38:41.08	284.20	24.24	-85.2	-88.6	2.9	1.56e+00	0	47	104	0	60	1048574
2026-01-17 10:38:45.09	285.33	24.13	-85.2	-88.6	2.8	1.56e+00	0	47	104	0	60	1048575
2026-01-17 10:38:49.12	286.46	24.01	-85.2	-88.6	2.9	1.55e+00	0	47	104	0	60	1048574
2026-01-17 10:38:53.15	287.58	23.89	-85.2	-88.6	3.1	1.55e+00	0	47	104	0	60	1048574
2026-01-17 10:38:57.18	288.68	23.75	-85.2	-88.6	3.0	1.55e+00	0	47	104	0	60	1048574
2026-01-17 10:39:01.20	289.78	23.60	-85.2	-88.6	2.9	1.56e+00	0	47	104	0	60	1048569
2026-01-17 10:39:05.22	290.86	23.44	-85.2	-88.6	2.9	1.56e+00	0	47	104	0	60	1048570
2026-01-17 10:39:09.24	291.94	23.27	-85.2	-88.6	2.9	1.55e+00	0	47	104	0	60	1048575
2026-01-17 10:39:13.28	293.00	23.10	-85.2	-88.6	2.9	1.56e+00	0	47	104	0	60	1048575
2026-01-17 10:39:17.31	294.06	22.91	-85.2	-88.6	3.0	1.56e+00	0	47	104	0	60	1048575
2026-01-17 10:39:21.33	295.09	22.72	-85.2	-88.6	3.1	1.56e+00	0	47	104	0	60	1048575
2026-01-17 10:39:25.36	296.12	22.52	-85.2	-88.6	3.1	1.56e+00	0	47	104	0	60	1048575
2026-01-17 10:39:29.39	297.13	22.31	-85.2	-88.6	3.0	1.56e+00	0	47	104	0	60	1048574
2026-01-17 10:39:33.42	298.13	22.09	-84.3	-88.6	2.9	1.56e+00	0	47	104	0	60	1048574
2026-01-17 10:39:37.43	299.12	21.87	-85.2	-88.6	3.0	1.55e+00	0	47	104	0	60	1048573
2026-01-17 10:39:41.46	300.09	21.64	-85.2	-88.6	2.9	1.56e+00	0	47	104	0	60	1048575
2026-01-17 10:39:45.49	301.05	21.41	-85.2	-88.6	3.1	1.56e+00	0	47	104	0	60	1048575
2026-01-17 10:39:49.52	301.99	21.17	-85.2	-88.6	2.9	1.56e+00	0	47	104	0	60	1048570
2026-01-17 10:39:53.53	302.92	20.92	-84.7	-88.6	2.8	1.56e+00	0	47	104	0	60	1048575
2026-01-17 10:39:57.55	303.83	20.67	-85.2	-88.6	2.9	1.56e+00	0	47	104	0	60	1048575
2026-01-17 10:40:01.57	304.73	20.42	-85.2	-88.6	3.0	1.56e+00	0	47	104	0	60	1048575
2026-01-17 10:40:05.60	305.61	20.16	-85.2	-88.6	2.9	1.55e+00	0	47	104	0	60	1048575
2026-01-17 10:40:09.62	306.48	19.90	-85.2	-88.6	2.9	1.55e+00	0	47	104	0	60	1048575
2026-01-17 10:40:13.65	307.34	19.63	-84.7	-88.6	3.1	1.55e+00	0	47	104	0	60	1048575
2026-01-17 10:40:17.66	308.18	19.36	-85.2	-88.6	3.0	1.56e+00	0	47	104	0	60	1048574
2026-01-17 10:40:21.69	309.00	19.09	-85.2	-88.6	3.0	1.55e+00	0	47	104	0	60	1048574
2026-01-17 10:40:25.71	309.81	18.81	-85.2	-88.6	3.0	1.56e+00	0	47	104	0	60	1048575
2026-01-17 10:40:29.73	310.61	18.54	-85.2	-88.6	3.1	1.56e+00	0	47	104	0	60	1048575
2026-01-17 10:40:33.76	311.40	18.26	-85.2	-88.6	3.0	1.56e+00	0	47	104	0	60	1048573
2026-01-17 10:40:37.79	312.17	17.98	-85.2	-88.6	2.9	1.55e+00	0	47	104	0	60	1048574
2026-01-17 10:40:41.82	312.92	17.69	-85.2	-88.6	2.7	1.55e+00	0	47	104	0	60	1048575
2026-01-17 10:40:45.85	313.67	17.41	-85.2	-88.6	2.9	1.56e+00	0	47	104	0	60	1048574
2026-01-17 10:40:49.88	314.40	17.12	-85.2	-88.6	3.0	1.56e+00	0	47	104	0	60	1048571
2026-01-17 10:40:53.91	315.11	16.84	-85.2	-88.6	3.0	1.55e+00	0	47	104	0	60	1048575
2026-01-17 10:40:57.92	315.81	16.55	-85.2	-88.6	2.8	1.56e+00	0	47	104	0	60	1048573
2026-01-17 10:41:01.95	316.50	16.26	-85.2	-88.6	3.0	1.56e+00	0	47	104	0	60	1048573
2026-01-17 10:41:05.98	317.18	15.97	-85.2	-88.6	3.0	1.56e+00	0	47	104	0	60	1048573
2026-01-17 10:41:10.02	317.85	15.68	-85.2	-88.6	2.9	1.56e+00	0	47	104	0	60	1048574
2026-01-17 10:41:14.04	318.50	15.40	-85.2	-88.6	3.0	1.56e+00	0	47	104	0	60	1048570
2026-01-17 10:41:18.07	319.14	15.11	-85.2	-88.6	3.0	1.56e+00	0	47	104	0	60	1048575
2026-01-17 10:41:22.10	319.77	14.82	-85.2	-88.6	3.1	1.55e+00	0	47	104	0	60	1048575
2026-01-17 10:41:26.13	320.38	14.53	-85.2	-88.6	2.9	1.55e+00	0	47	104	0	60	1048575
2026-01-17 10:41:30.16	320.99	14.24	-83.9	-88.6	2.8	1.56e+00	0	47	104	0	60	1048573
2026-01-17 10:41:34.18	321.58	13.96	-85.2	-88.6	3.1	1.56e+00	0	47	104	0	60	1048574
2026-01-17 10:41:38.21	322.16	13.67	-85.2	-88.6	2.9	1.55e+00	0	47	104	0	60	1048574
2026-01-17 10:41:42.23	322.74	13.39	-85.2	-88.6	3.0	1.55e+00	0	47	104	0	60	1048573
2026-01-17 10:41:46.26	323.30	13.10	-85.2	-88.6	3.1	1.55e+00	0	47	104	0	60	1048573
2026-01-17 10:41:50.28	323.85	12.82	-85.2	-88.6	2.9	1.56e+00	0	47	104	0	60	1048574
2026-01-17 10:41:54.30	324.39	12.54	-85.2	-88.6	3.0	1.56e+00	0	47	104	0	60	1048575
2026-01-17 10:41:58.33	324.92	12.25	-85.2	-88.6	3.0	1.56e+00	0	47	104	0	60	1048574
2026-01-17 10:42:02.36	325.44	11.97	-85.2	-88.6	3.2	1.55e+00	0	47	104	0	60	1048573
2026-01-17 10:42:06.39	325.95	11.69	-85.2	-88.6	3.1	1.56e+00	0	47	104	0	60	1048575
2026-01-17 10:42:10.42	326.46	11.42	-85.2	-88.6	3.0	1.56e+00	0	47	104	0	60	1048575
2026-01-17 10:42:14.44	326.95	11.14	-85.2	-88.6	3.1	1.56e+00	0	47	104	0	60	1048573
2026-01-17 10:42:18.47	327.44	10.86	-85.2	-88.6	3.1	1.56e+00	0	47	104	0	60	1048574
2026-01-17 10:42:22.50	327.91	10.59	-85.2	-88.6	3.1	1.56e+00	0	47	104	0	60	1048575
2026-01-17 10:42:26.53	328.38	10.32	-85.2	-88.6	3.1	1.55e+00	0	47	104	0	60	1048575
2026-01-17 10:42:30.56	328.84	10.05	-85.2	-88.6	3.0	1.56e+00	0	47	104	0	60	1048575
2026-01-17 10:42:34.60	329.29	9.78	-85.2	-88.6	3.1	1.55e+00	0	47	104	0	60	1048574
2026-01-17 10:42:38.62	329.74	9.51	-85.2	-88.6	2.9	1.56e+00	0	47	104	0	60	1048573
2026-01-17 10:42:42.64	330.17	9.24	-85.2	-88.6	3.0	1.55e+00	0	47	104	0	60	1048575
2026-01-17 10:42:46.66	330.60	8.98	-85.2	-88.6	2.8	1.56e+00	0	47	104	0	60	1048575
2026-01-17 10:42:50.69	331.02	8.71	-85.2	-88.6	3.0	1.56e+00	0	47	104	0	60	1048574
2026-01-17 10:42:54.72	331.43	8.45	-85.2	-88.6	3.0	1.55e+00	0	47	104	0	60	1048569
2026-01-17 10:42:58.72	331.84	8.19	-85.2	-88.6	3.1	1.56e+00	0	47	104	0	60	1048573
2026-01-17 10:43:02.73	332.24	7.93	-85.2	-88.6	3.0	1.56e+00	0	47	104	0	60	1048574
2026-01-17 10:43:06.76	332.63	7.67	-85.2	-88.6	2.9	1.56e+00	0	47	104	0	60	1048575
2026-01-17 10:43:10.79	333.02	7.42	-85.2	-88.6	3.2	1.55e+00	0	47	104	0	60	1048573
2026-01-17 10:43:14.82	333.40	7.16	-85.2	-88.6	2.8	1.55e+00	0	47	104	0	60	1048575
2026-01-17 10:43:18.83	333.77	6.91	-85.2	-88.6	3.0	1.55e+00	0	47	104	0	60	1048575
2026-01-17 10:43:22.85	334.14	6.66	-85.2	-88.6	3.0	1.56e+00	0	47	104	0	60	1048575
2026-01-17 10:43:26.87	334.50	6.41	-85.2	-88.6	3.0	1.55e+00	0	47	104	0	60	1048573
2026-01-17 10:43:30.90	334.86	6.16	-85.2	-88.6	3.2	1.55e+00	0	47	104	0	60	1048573
2026-01-17 10:43:34.92	335.21	5.91	-85.2	-88.6	3.0	1.55e+00	0	47	104	0	60	1048575
2026-01-17 10:43:38.95	335.55	5.67	-85.2	-88.6	3.2	1.56e+00	0	47	104	0	60	1048573
2026-01-17 10:43:42.97	335.89	5.43	-85.2	-88.6	2.9	1.56e+00	0	47	104	0	60	1048575
2026-01-17 10:43:47.00	336.23	5.18	-85.2	-88.6	3.1	1.56e+00	0	47	104	0	60	1048575
2026-01-17 10:43:51.01	336.56	4.94	-85.2	-88.6	3.2	1.56e+00	0	47	104	0	60	1048575
2026-01-17 10:43:55.04	336.88	4.70	-85.2	-88.6	3.0	1.56e+00	0	47	104	0	60	1048574
2026-01-17 10:43:59.07	337.20	4.46	-84.3	-88.6	3.2	1.56e+00	0	47	104	0	60	1048574
2026-01-17 10:44:03.09	337.51	4.23	-85.2	-88.6	3.0	1.56e+00	0	47	104	0	60	1048575
2026-01-17 10:44:07.12	337.82	3.99	-85.2	-88.6	3.0	1.56e+00	0	47	104	0	60	1048575
2026-01-17 10:44:11.14	338.13	3.76	-85.2	-88.6	3.1	1.55e+00	0	47	104	0	60	1048575
2026-01-17 10:44:15.17	338.43	3.52	-85.2	-88.6	2.9	1.56e+00	0	47	104	0	60	1048575
2026-01-17 10:44:19.20	338.73	3.29	-85.2	-88.6	2.9	1.55e+00	0	47	104	0	60	1048574
2026-01-17 10:44:23.23	339.02	3.06	-85.2	-88.6	2.8	1.56e+00	0	47	104	0	60	1048574
2026-01-17 10:44:27.27	339.31	2.83	-85.2	-88.6	3.1	1.56e+00	0	47	104	0	60	1048575
2026-01-17 10:44:31.30	339.59	2.61	-85.2	-88.6	3.2	1.56e+00	0	47	104	0	60	1048575
2026-01-17 10:44:35.33	339.87	2.38	-85.2	-88.6	2.8	1.56e+00	0	47	104	0	60	1048570
2026-01-17 10:44:39.35	340.15	2.16	-85.2	-88.6	3.0	1.56e+00	0	47	104	0	60	1048575
2026-01-17 10:44:43.38	340.42	1.93	-85.2	-88.6	3.0	1.56e+00	0	47	104	0	60	1048575
2026-01-17 10:44:47.40	340.69	1.71	-85.2	-88.6	3.0	1.56e+00	0	47	104	0	60	1048575
2026-01-17 10:44:51.41	340.95	1.49	-85.2	-88.6	2.8	1.56e+00	0	47	104	0	60	1048575
2026-01-17 10:44:55.44	341.21	1.27	-85.2	-88.6	3.2	1.56e+00	0	47	104	0	60	1048574
2026-01-17 10:44:59.47	341.47	1.05	-85.2	-88.6	2.8	1.56e+00	0	47	104	0	60	1048571
2026-01-17 10:45:03.49	341.72	0.84	-83.5	-88.6	3.1	1.55e+00	0	47	104	0	60	1048574
2026-01-17 10:45:07.53	341.97	0.62	-83.5	-88.6	2.9	1.56e+00	0	47	104	0	60	1048574
2026-01-17 10:45:11.55	342.22	0.40	-85.2	-88.6	3.1	1.56e+00	0	47	104	0	60	1048575
2026-01-17 10:45:15.57	342.46	0.19	-85.2	-88.6	2.7	1.55e+00	0	47	104	0	60	1048574

#Closed at: 2026-01-17 10:45:19
#Recorded file [0 MB]: D:/Data/35015_260117_133102.dat