passes_logs/2026/01/17/R3.2S-Naryan-Mar/R3.2S-Naryan-Mar__20260117_113740_TY-42_rec.log

#Pass ID: 20260117_113740_TY-42
#Satellite: TY-42
#Configuration: TY-42
#almurnet v.1.7.20240730
#Start time: 2026-01-17 11:43:54

#Version: 2.2.20231116
#Station: R3.2S-Naryan-Mar
#Location: 53.008057 lon 67.646978 lat
#TLE: 1 64048U 25103A   26017.16855324  .00008007  00000-0  38191-3 0 09993
#TLE: 2 64048 097.4122 092.5453 0001842 092.3417 060.2488 15.19155566 37145

#Time	Az	El	Level	Level2	SNR	BER	BlckErr	Temp	State	Recorded	gain1	gain2
2026-01-17 11:43:54.32	317.76	8.45	-84.7	-88.6	3.7	7.64e-01	0	47	0	0	60	1048574
2026-01-17 11:43:55.33	317.54	8.40	-83.5	-79.0	2.5	0.00e+00	0	47	104	0	60	1048573
2026-01-17 11:43:56.34	317.32	8.36	-83.5	-79.0	2.4	0.00e+00	0	47	104	0	60	1048569
2026-01-17 11:43:57.35	317.10	8.32	-83.1	-79.0	2.3	0.00e+00	0	47	104	0	60	1048571
2026-01-17 11:43:58.35	316.89	8.28	-82.8	-79.0	2.4	0.00e+00	0	47	104	0	60	1048573
2026-01-17 11:43:59.36	316.67	8.24	-83.1	-79.0	2.4	0.00e+00	0	47	104	0	60	1048574
2026-01-17 11:44:00.36	316.46	8.20	-83.5	-79.0	2.4	0.00e+00	0	47	104	0	60	1048575
2026-01-17 11:44:01.37	316.25	8.15	-83.5	-79.0	2.4	0.00e+00	0	47	104	0	60	1048575
2026-01-17 11:44:02.37	316.03	8.11	-83.1	-79.0	2.4	0.00e+00	0	47	104	0	60	1048571
2026-01-17 11:44:03.38	315.82	8.07	-83.1	-79.0	2.5	0.00e+00	0	47	104	0	60	1048572
2026-01-17 11:44:04.39	315.61	8.03	-83.5	-79.0	2.5	0.00e+00	0	47	104	0	60	1048573
2026-01-17 11:44:05.40	315.40	7.98	-83.5	-79.0	2.3	0.00e+00	0	47	104	0	60	1048572
2026-01-17 11:44:06.40	315.19	7.94	-83.5	-79.0	2.3	0.00e+00	0	47	104	0	60	1048573
2026-01-17 11:44:07.41	314.98	7.89	-83.1	-79.0	2.4	0.00e+00	0	47	104	0	60	1048569
2026-01-17 11:44:08.41	314.77	7.85	-83.5	-79.0	2.3	0.00e+00	0	47	104	0	60	1048574
2026-01-17 11:44:09.42	314.56	7.81	-83.1	-79.0	2.4	0.00e+00	0	47	104	0	60	1048566
2026-01-17 11:44:10.43	314.36	7.76	-83.1	-79.0	2.4	0.00e+00	0	47	104	0	60	1048575
2026-01-17 11:44:11.43	314.15	7.72	-83.5	-79.0	2.3	0.00e+00	0	47	104	0	60	1048574
2026-01-17 11:44:12.44	313.95	7.67	-83.1	-79.0	2.4	0.00e+00	0	47	104	0	60	1048570
2026-01-17 11:44:13.45	313.74	7.63	-83.5	-79.0	2.4	0.00e+00	0	47	104	0	60	1048575
2026-01-17 11:44:14.46	313.54	7.58	-83.5	-79.0	2.4	0.00e+00	0	47	104	0	60	1048575
2026-01-17 11:44:15.46	313.33	7.54	-83.1	-79.0	2.4	0.00e+00	0	47	104	0	60	1048570
2026-01-17 11:44:16.47	313.13	7.49	-83.1	-79.0	2.4	0.00e+00	0	47	104	0	60	1048563
2026-01-17 11:44:17.48	312.93	7.45	-83.1	-79.0	2.5	0.00e+00	0	47	104	0	60	1048574
2026-01-17 11:44:18.49	312.73	7.40	-83.5	-79.0	2.5	0.00e+00	0	47	104	0	60	1048575
2026-01-17 11:44:19.49	312.53	7.36	-83.5	-79.0	2.4	0.00e+00	0	47	104	0	60	1048572
2026-01-17 11:44:20.50	312.33	7.31	-83.5	-79.0	2.4	0.00e+00	0	48	104	0	60	1048574
2026-01-17 11:44:21.51	312.13	7.26	-83.5	-79.0	2.4	0.00e+00	0	48	104	0	60	1048575
2026-01-17 11:44:22.51	311.94	7.22	-83.1	-79.0	2.4	0.00e+00	0	48	104	0	60	1048572
2026-01-17 11:44:23.52	311.74	7.17	-83.5	-79.0	2.5	0.00e+00	0	48	104	0	60	1048572
2026-01-17 11:44:24.53	311.54	7.12	-83.5	-79.0	2.4	0.00e+00	0	47	104	0	60	1048574
2026-01-17 11:44:25.53	311.35	7.08	-83.5	-79.0	2.5	0.00e+00	0	48	104	0	60	1048575
2026-01-17 11:44:26.53	311.16	7.03	-83.1	-79.0	2.3	0.00e+00	0	48	104	0	60	1048574
2026-01-17 11:44:27.54	310.96	6.98	-83.5	-79.0	2.5	0.00e+00	0	48	104	0	60	1048573
2026-01-17 11:44:28.55	310.77	6.94	-83.5	-79.0	2.4	0.00e+00	0	48	104	0	60	1048571
2026-01-17 11:44:29.55	310.58	6.89	-83.5	-79.0	2.3	0.00e+00	0	48	104	0	60	1048574
2026-01-17 11:44:30.56	310.39	6.84	-83.1	-79.0	2.4	0.00e+00	0	48	104	0	60	1048574
2026-01-17 11:44:31.57	310.20	6.79	-83.1	-79.0	2.5	0.00e+00	0	48	104	0	60	1048573
2026-01-17 11:44:32.57	310.01	6.75	-83.5	-79.0	2.4	0.00e+00	0	48	104	0	60	1048573
2026-01-17 11:44:33.58	309.82	6.70	-83.5	-79.0	2.4	0.00e+00	0	48	104	0	60	1048574
2026-01-17 11:44:34.59	309.63	6.65	-83.5	-79.0	2.4	0.00e+00	0	48	104	0	60	1048566
2026-01-17 11:44:35.60	309.44	6.60	-83.1	-79.0	2.4	0.00e+00	0	48	104	0	60	1048570
2026-01-17 11:44:36.61	309.25	6.55	-83.1	-79.0	2.4	0.00e+00	0	48	104	0	60	1048572
2026-01-17 11:44:37.61	309.07	6.50	-83.5	-79.0	2.4	0.00e+00	0	48	104	0	60	1048573
2026-01-17 11:44:38.62	308.88	6.46	-83.5	-79.0	2.4	0.00e+00	0	48	104	0	60	1048570
2026-01-17 11:44:39.63	308.70	6.41	-83.5	-79.0	2.4	0.00e+00	0	48	104	0	60	1048575
2026-01-17 11:44:40.63	308.52	6.36	-82.8	-79.0	2.4	0.00e+00	0	48	104	0	60	1048575
2026-01-17 11:44:41.64	308.34	6.31	-83.1	-79.0	2.4	0.00e+00	0	48	104	0	60	1048572
2026-01-17 11:44:42.65	308.15	6.26	-83.5	-79.0	2.4	0.00e+00	0	48	104	0	60	1048574
2026-01-17 11:44:43.65	307.97	6.21	-83.5	-79.0	2.4	0.00e+00	0	48	104	0	60	1048574
2026-01-17 11:44:44.66	307.79	6.16	-83.5	-79.0	2.3	0.00e+00	0	48	104	0	60	1048574
2026-01-17 11:44:45.67	307.61	6.11	-82.8	-79.0	2.4	0.00e+00	0	48	104	0	60	1048574
2026-01-17 11:44:46.68	307.43	6.06	-83.5	-79.0	2.3	0.00e+00	0	48	104	0	60	1048573
2026-01-17 11:44:47.69	307.26	6.01	-83.5	-79.0	2.4	0.00e+00	0	48	104	0	60	1048575
2026-01-17 11:44:48.69	307.08	5.96	-83.5	-79.0	2.4	0.00e+00	0	48	104	0	60	1048572
2026-01-17 11:44:49.69	306.90	5.91	-83.1	-79.0	2.4	0.00e+00	0	48	104	0	60	1048569
2026-01-17 11:44:50.70	306.73	5.86	-82.8	-79.0	2.4	0.00e+00	0	48	104	0	60	1048572
2026-01-17 11:44:51.70	306.55	5.81	-83.5	-79.0	2.4	0.00e+00	0	48	104	0	60	1048575
2026-01-17 11:44:52.71	306.38	5.76	-83.5	-79.0	2.4	0.00e+00	0	48	104	0	60	1048574
2026-01-17 11:44:53.72	306.21	5.71	-83.5	-79.0	2.4	0.00e+00	0	48	104	0	60	1048570
2026-01-17 11:44:54.72	306.03	5.66	-83.1	-79.0	2.4	0.00e+00	0	48	104	0	60	1048572
2026-01-17 11:44:55.73	305.86	5.61	-83.1	-79.0	2.4	0.00e+00	0	48	104	0	60	1048572
2026-01-17 11:44:56.74	305.69	5.56	-83.5	-79.0	2.4	0.00e+00	0	48	104	0	60	1048573
2026-01-17 11:44:57.74	305.52	5.51	-83.5	-79.0	2.4	0.00e+00	0	48	104	0	60	1048575
2026-01-17 11:44:58.75	305.35	5.46	-83.5	-79.0	2.4	0.00e+00	0	48	104	0	60	1048570
2026-01-17 11:44:59.75	305.18	5.41	-83.1	-79.0	2.4	0.00e+00	0	48	104	0	60	1048575
2026-01-17 11:45:00.76	305.02	5.36	-83.5	-79.0	2.4	0.00e+00	0	48	104	0	60	1048573
2026-01-17 11:45:01.77	304.85	5.31	-83.5	-79.0	2.5	0.00e+00	0	48	104	0	60	1048570
2026-01-17 11:45:02.78	304.68	5.26	-83.5	-79.0	2.4	0.00e+00	0	48	104	0	60	1048569
2026-01-17 11:45:03.78	304.52	5.21	-83.5	-79.0	2.4	0.00e+00	0	48	104	0	60	1048572
2026-01-17 11:45:04.79	304.35	5.16	-83.1	-79.0	2.3	0.00e+00	0	48	104	0	60	1048574
2026-01-17 11:45:05.80	304.19	5.11	-83.5	-79.0	2.4	0.00e+00	0	48	104	0	60	1048565
2026-01-17 11:45:06.80	304.02	5.06	-83.5	-79.0	2.4	0.00e+00	0	48	104	0	60	1048575
2026-01-17 11:45:07.81	303.86	5.01	-83.5	-79.0	2.4	0.00e+00	0	48	104	0	60	1048571
2026-01-17 11:45:08.80	303.70	4.96	-83.1	-79.0	2.3	0.00e+00	0	48	104	0	60	1048575
2026-01-17 11:45:09.82	303.54	4.91	-83.1	-79.0	2.5	0.00e+00	0	48	104	0	60	1048574
2026-01-17 11:45:10.82	303.38	4.86	-83.5	-79.0	2.4	0.00e+00	0	48	104	0	60	1048565
2026-01-17 11:45:11.83	303.22	4.80	-83.5	-79.0	2.3	0.00e+00	0	48	104	0	60	1048569
2026-01-17 11:45:12.84	303.06	4.75	-83.5	-79.0	2.5	0.00e+00	0	48	104	0	60	1048569
2026-01-17 11:45:13.85	302.90	4.70	-82.8	-79.0	2.4	0.00e+00	0	48	104	0	60	1048575
2026-01-17 11:45:14.85	302.74	4.65	-83.1	-79.0	2.4	0.00e+00	0	48	104	0	60	1048575
2026-01-17 11:45:15.86	302.58	4.60	-83.5	-79.0	2.4	0.00e+00	0	48	104	0	60	1048575
2026-01-17 11:45:16.87	302.43	4.55	-83.5	-79.0	2.5	0.00e+00	0	48	104	0	60	1048573
2026-01-17 11:45:17.87	302.27	4.50	-83.5	-79.0	2.3	0.00e+00	0	48	104	0	60	1048564
2026-01-17 11:45:18.88	302.12	4.45	-83.1	-79.0	2.4	0.00e+00	0	48	104	0	60	1048574
2026-01-17 11:45:19.89	301.96	4.39	-83.5	-79.0	2.3	0.00e+00	0	48	104	0	60	1048572
2026-01-17 11:45:20.90	301.81	4.34	-83.5	-79.0	2.3	0.00e+00	0	48	104	0	60	1048575
2026-01-17 11:45:21.90	301.65	4.29	-83.5	-79.0	2.4	0.00e+00	0	48	104	0	60	1048572
2026-01-17 11:45:22.90	301.50	4.24	-83.5	-79.0	2.5	0.00e+00	0	48	104	0	60	1048565
2026-01-17 11:45:23.91	301.35	4.19	-83.1	-79.0	2.4	0.00e+00	0	48	104	0	60	1048575
2026-01-17 11:45:24.92	301.20	4.14	-83.5	-79.0	2.4	0.00e+00	0	48	104	0	60	1048570
2026-01-17 11:45:25.92	301.05	4.09	-83.5	-79.0	2.5	0.00e+00	0	48	104	0	60	1048567
2026-01-17 11:45:26.92	300.90	4.03	-83.5	-79.0	2.5	0.00e+00	0	48	104	0	60	1048574
2026-01-17 11:45:27.93	300.75	3.98	-83.1	-79.0	2.5	0.00e+00	0	48	104	0	60	1048575
2026-01-17 11:45:28.93	300.61	3.93	-83.1	-79.0	2.4	0.00e+00	0	48	104	0	60	1048575
2026-01-17 11:45:29.94	300.46	3.88	-83.5	-79.0	2.3	0.00e+00	0	48	104	0	60	1048575
2026-01-17 11:45:30.95	300.31	3.83	-83.5	-79.0	2.3	0.00e+00	0	48	104	0	60	1048574
2026-01-17 11:45:31.96	300.16	3.78	-83.5	-79.0	2.3	0.00e+00	0	48	104	0	60	1048572
2026-01-17 11:45:32.97	300.02	3.72	-83.1	-79.0	2.4	0.00e+00	0	48	104	0	60	1048573
2026-01-17 11:45:33.97	299.87	3.67	-83.1	-79.0	2.4	0.00e+00	0	48	104	0	60	1048571
2026-01-17 11:45:34.98	299.73	3.62	-83.5	-79.0	2.4	0.00e+00	0	48	104	0	60	1048575
2026-01-17 11:45:35.99	299.59	3.57	-83.5	-79.0	2.4	0.00e+00	0	48	104	0	60	1048575
2026-01-17 11:45:37.00	299.44	3.52	-83.5	-79.0	2.4	0.00e+00	0	48	104	0	60	1048571
2026-01-17 11:45:38.01	299.30	3.47	-82.8	-79.0	2.4	0.00e+00	0	48	104	0	60	1048572
2026-01-17 11:45:39.01	299.16	3.41	-83.5	-79.0	2.3	0.00e+00	0	48	104	0	60	1048569
2026-01-17 11:45:40.02	299.02	3.36	-83.5	-79.0	2.3	0.00e+00	0	48	104	0	60	1048574
2026-01-17 11:45:41.03	298.88	3.31	-83.5	-79.0	2.5	0.00e+00	0	48	104	0	60	1048572
2026-01-17 11:45:42.04	298.74	3.26	-83.5	-79.0	2.5	0.00e+00	0	48	104	0	60	1048573
2026-01-17 11:45:43.04	298.60	3.21	-83.1	-79.0	2.4	0.00e+00	0	48	104	0	60	1048574
2026-01-17 11:45:44.05	298.46	3.15	-83.5	-79.0	2.4	0.00e+00	0	48	104	0	60	1048573
2026-01-17 11:45:45.06	298.32	3.10	-83.5	-79.0	2.4	0.00e+00	0	48	104	0	60	1048570
2026-01-17 11:45:46.06	298.19	3.05	-83.5	-79.0	2.4	0.00e+00	0	48	104	0	60	1048567
2026-01-17 11:45:47.07	298.05	3.00	-83.1	-79.0	2.4	0.00e+00	0	48	104	0	60	1048575
2026-01-17 11:45:48.08	297.91	2.95	-83.1	-79.0	2.4	0.00e+00	0	48	104	0	60	1048574
2026-01-17 11:45:49.09	297.78	2.90	-83.5	-79.0	2.4	0.00e+00	0	48	104	0	60	1048572
2026-01-17 11:45:50.09	297.64	2.84	-83.5	-79.0	2.4	0.00e+00	0	48	104	0	60	1048562
2026-01-17 11:45:51.10	297.51	2.79	-83.5	-79.0	2.3	0.00e+00	0	48	104	0	60	1048570
2026-01-17 11:45:52.10	297.38	2.74	-83.1	-79.0	2.4	0.00e+00	0	48	104	0	60	1048567
2026-01-17 11:45:53.11	297.24	2.69	-83.1	-79.0	2.4	0.00e+00	0	48	104	0	60	1048574
2026-01-17 11:45:54.12	297.11	2.64	-83.5	-79.0	2.5	0.00e+00	0	48	104	0	60	1048572
2026-01-17 11:45:55.13	296.98	2.59	-83.5	-79.0	2.5	0.00e+00	0	48	104	0	60	1048574
2026-01-17 11:45:56.13	296.85	2.53	-83.5	-79.0	2.3	0.00e+00	0	48	104	0	60	1048572
2026-01-17 11:45:57.14	296.72	2.48	-83.1	-79.0	2.5	0.00e+00	0	48	104	0	60	1048575
2026-01-17 11:45:58.14	296.59	2.43	-83.5	-79.0	2.5	0.00e+00	0	48	104	0	60	1048575
2026-01-17 11:45:59.15	296.46	2.38	-83.5	-79.0	2.4	0.00e+00	0	48	104	0	60	1048569
2026-01-17 11:46:00.16	296.33	2.33	-83.5	-79.0	2.4	0.00e+00	0	48	104	0	60	1048569
2026-01-17 11:46:01.16	296.20	2.28	-83.5	-79.0	2.3	0.00e+00	0	48	104	0	60	1048569
2026-01-17 11:46:02.16	296.07	2.22	-83.5	-79.0	2.4	0.00e+00	0	48	104	0	60	1048565
2026-01-17 11:46:03.17	295.95	2.17	-83.5	-79.0	2.4	0.00e+00	0	48	104	0	60	1048575
2026-01-17 11:46:04.18	295.82	2.12	-83.5	-79.0	2.4	0.00e+00	0	48	104	0	60	1048575
2026-01-17 11:46:05.19	295.69	2.07	-83.5	-79.0	2.4	0.00e+00	0	48	104	0	60	1048575
2026-01-17 11:46:06.19	295.57	2.02	-83.1	-79.0	2.5	0.00e+00	0	48	104	0	60	1048573
2026-01-17 11:46:07.20	295.45	1.97	-83.1	-79.0	2.5	0.00e+00	0	48	104	0	60	1048572
2026-01-17 11:46:08.21	295.32	1.91	-83.5	-79.0	2.4	0.00e+00	0	48	104	0	60	1048575
2026-01-17 11:46:09.22	295.20	1.86	-83.5	-79.0	2.4	0.00e+00	0	48	104	0	60	1048575
2026-01-17 11:46:10.22	295.07	1.81	-83.5	-79.0	2.4	0.00e+00	0	48	104	0	60	1048572
2026-01-17 11:46:11.23	294.95	1.76	-83.1	-79.0	2.5	0.00e+00	0	48	104	0	60	1048574
2026-01-17 11:46:12.23	294.83	1.71	-83.5	-79.0	2.4	0.00e+00	0	48	104	0	60	1048575
2026-01-17 11:46:13.24	294.71	1.66	-83.1	-79.0	2.4	0.00e+00	0	48	104	0	60	1048575
2026-01-17 11:46:14.25	294.59	1.61	-83.5	-79.0	2.5	0.00e+00	0	48	104	0	60	1048574
2026-01-17 11:46:15.25	294.47	1.55	-83.5	-79.0	2.4	0.00e+00	0	48	104	0	60	1048575
2026-01-17 11:46:16.26	294.35	1.50	-83.1	-79.0	2.4	0.00e+00	0	48	104	0	60	1048567
2026-01-17 11:46:17.27	294.23	1.45	-83.5	-79.0	2.5	0.00e+00	0	48	104	0	60	1048561
2026-01-17 11:46:18.28	294.11	1.40	-83.5	-79.0	2.4	0.00e+00	0	48	104	0	60	1048574
2026-01-17 11:46:19.28	293.99	1.35	-83.5	-79.0	2.4	0.00e+00	0	48	104	0	60	1048575
2026-01-17 11:46:20.29	293.88	1.30	-83.1	-79.0	2.4	0.00e+00	0	48	104	0	60	1048575
2026-01-17 11:46:21.30	293.76	1.25	-83.1	-79.0	2.4	0.00e+00	0	48	104	0	60	1048575
2026-01-17 11:46:22.30	293.64	1.20	-83.5	-79.0	2.4	0.00e+00	0	48	104	0	60	1048565
2026-01-17 11:46:23.31	293.53	1.14	-83.5	-79.0	2.4	0.00e+00	0	48	104	0	60	1048574
2026-01-17 11:46:24.31	293.41	1.09	-83.5	-79.0	2.5	0.00e+00	0	48	104	0	60	1048567
2026-01-17 11:46:25.32	293.30	1.04	-83.1	-79.0	2.4	0.00e+00	0	48	104	0	60	1048573
2026-01-17 11:46:26.33	293.18	0.99	-83.1	-79.0	2.5	0.00e+00	0	48	104	0	60	1048572
2026-01-17 11:46:27.34	293.07	0.94	-83.5	-79.0	2.5	0.00e+00	0	48	104	0	60	1048572
2026-01-17 11:46:28.34	292.95	0.89	-83.5	-79.0	2.3	0.00e+00	0	48	104	0	60	1048572
2026-01-17 11:46:29.35	292.84	0.84	-83.5	-79.0	2.4	0.00e+00	0	48	104	0	60	1048571
2026-01-17 11:46:30.35	292.73	0.79	-83.1	-79.0	2.4	0.00e+00	0	48	104	0	60	1048573
2026-01-17 11:46:31.35	292.62	0.74	-83.5	-79.0	2.4	0.00e+00	0	48	104	0	60	1048575
2026-01-17 11:46:32.36	292.51	0.69	-83.5	-79.0	2.4	0.00e+00	0	48	104	0	60	1048572
2026-01-17 11:46:33.37	292.40	0.63	-83.5	-79.0	2.5	0.00e+00	0	48	104	0	60	1048575
2026-01-17 11:46:34.37	292.29	0.58	-83.5	-79.0	2.4	0.00e+00	0	48	104	0	60	1048574
2026-01-17 11:46:35.38	292.18	0.53	-83.1	-79.0	2.4	0.00e+00	0	48	104	0	60	1048574
2026-01-17 11:46:36.39	292.07	0.48	-83.1	-79.0	2.4	0.00e+00	0	48	104	0	60	1048569
2026-01-17 11:46:37.40	291.96	0.43	-83.5	-79.0	2.4	0.00e+00	0	48	104	0	60	1048575
2026-01-17 11:46:38.41	291.85	0.38	-83.5	-79.0	2.4	0.00e+00	0	48	104	0	60	1048568
2026-01-17 11:46:39.42	291.74	0.33	-83.1	-79.0	2.4	0.00e+00	0	48	104	0	60	1048571
2026-01-17 11:46:40.42	291.63	0.28	-83.1	-79.0	2.4	0.00e+00	0	48	104	0	60	1048574
2026-01-17 11:46:41.43	291.53	0.23	-83.5	-79.0	2.3	0.00e+00	0	48	104	0	60	1048568
2026-01-17 11:46:42.44	291.42	0.18	-83.1	-79.0	2.4	0.00e+00	0	48	104	0	60	1048569
2026-01-17 11:46:43.45	291.31	0.13	-83.5	-79.0	2.4	0.00e+00	0	48	104	0	60	1048574
2026-01-17 11:46:44.45	291.21	0.08	-83.1	-79.0	2.4	0.00e+00	0	48	104	0	60	1048574
2026-01-17 11:46:45.46	291.10	0.03	-83.1	-79.0	2.5	0.00e+00	0	48	104	0	60	1048575
2026-01-17 11:46:46.46	291.00	-0.02	-83.5	-79.0	2.4	0.00e+00	0	48	104	0	60	1048572

#Closed at: 2026-01-17 11:46:46
#Recorded file [0 MB]: D:/Data/35015_260117_144354.dat