passes_logs/2026/01/17/R3.2S-Naryan-Mar/R3.2S-Naryan-Mar__20260117_094755_FENGYUN_3D_rec.log

#Pass ID: 20260117_094755_FENGYUN 3D
#Satellite: FENGYUN 3D
#Configuration: FENGYUN 3D
#almurnet v.1.7.20240730
#Start time: 2026-01-17 09:56:27

#Version: 2.2.20231116
#Station: R3.2S-Naryan-Mar
#Location: 53.008057 lon 67.646978 lat
#TLE: 1 43010U 17072A   26016.27214855  .00000192  00000+0  11235-3 0  9990
#TLE: 2 43010  98.9932 348.1078 0002365 105.5031 254.6406 14.19695933423435

#Time	Az	El	Level	Level2	SNR	BER	BlckErr	Temp	State	Recorded	gain1	gain2
2026-01-17 09:56:27.11	9.28	58.25	-83.5	-79.0	2.5	0.00e+00	0	48	0	0	60	1048571
2026-01-17 09:56:29.12	8.16	57.66	-84.7	-88.6	5.9	2.33e-01	0	48	0	0	60	1048572
2026-01-17 09:56:31.12	7.10	57.06	-84.7	-88.6	5.8	2.76e-01	0	48	0	0	60	1048575
2026-01-17 09:56:33.14	6.08	56.46	-84.7	-88.6	6.1	2.76e-01	0	48	0	0	60	1048573
2026-01-17 09:56:35.15	5.10	55.85	-84.7	-88.6	5.9	2.78e-01	0	48	0	0	60	1048567
2026-01-17 09:56:37.16	4.16	55.25	-84.7	-88.6	5.9	2.74e-01	0	48	0	0	60	1048573
2026-01-17 09:56:39.17	3.27	54.64	-84.7	-88.6	5.8	2.76e-01	0	48	0	0	60	1048574
2026-01-17 09:56:41.18	2.41	54.04	-84.7	-88.6	6.0	2.74e-01	0	48	0	0	60	1048573
2026-01-17 09:56:43.20	1.58	53.43	-85.2	-88.6	5.7	2.72e-01	0	48	0	0	60	1048575
2026-01-17 09:56:45.21	0.80	52.83	-85.2	-88.6	6.4	2.74e-01	0	48	0	0	60	1048571
2026-01-17 09:56:47.23	0.04	52.23	-85.2	-88.6	6.1	2.77e-01	0	48	0	0	60	1048570
2026-01-17 09:56:49.24	359.31	51.63	-84.7	-88.6	5.8	2.76e-01	0	48	0	0	60	1048567
2026-01-17 09:56:51.25	358.61	51.03	-84.7	-88.6	6.2	2.76e-01	0	48	0	0	60	1048572
2026-01-17 09:56:53.26	357.94	50.44	-85.2	-88.6	6.3	2.76e-01	0	48	0	0	60	1048570
2026-01-17 09:56:55.28	357.29	49.85	-84.7	-88.6	6.2	2.73e-01	0	48	0	0	60	1048573
2026-01-17 09:56:57.29	356.67	49.26	-84.7	-88.6	6.1	2.77e-01	0	48	0	0	60	1048575
2026-01-17 09:56:59.30	356.08	48.68	-84.7	-88.6	6.0	2.74e-01	0	48	0	0	60	1048575
2026-01-17 09:57:01.32	355.50	48.10	-85.2	-88.6	6.3	2.79e-01	0	48	0	0	60	1048575
2026-01-17 09:57:03.34	354.95	47.53	-85.2	-88.6	6.0	2.79e-01	0	48	0	0	60	1048572
2026-01-17 09:57:05.34	354.42	46.97	-84.7	-88.6	6.0	2.73e-01	0	48	0	0	60	1048575
2026-01-17 09:57:07.35	353.90	46.40	-85.2	-88.6	6.1	2.73e-01	0	48	0	0	60	1048575
2026-01-17 09:57:09.37	353.41	45.85	-84.7	-88.6	6.1	2.74e-01	0	48	0	0	60	1048572
2026-01-17 09:57:11.39	352.93	45.29	-85.2	-88.6	6.3	2.73e-01	0	48	0	0	60	1048569
2026-01-17 09:57:13.40	352.47	44.74	-84.7	-88.6	6.3	2.71e-01	0	48	0	0	60	1048575
2026-01-17 09:57:15.42	352.02	44.20	-85.2	-88.6	6.5	2.74e-01	0	48	0	0	60	1048569
2026-01-17 09:57:17.43	351.59	43.67	-84.7	-88.6	5.7	2.72e-01	0	48	0	0	60	1048575
2026-01-17 09:57:19.44	351.17	43.14	-84.7	-88.6	6.5	2.74e-01	0	48	0	0	60	1048574
2026-01-17 09:57:21.46	350.77	42.61	-84.7	-88.6	6.4	2.72e-01	0	48	0	0	60	1048575
2026-01-17 09:57:23.47	350.38	42.09	-84.7	-88.6	6.0	2.68e-01	0	48	0	0	60	1048574
2026-01-17 09:57:25.49	350.00	41.58	-85.2	-88.6	6.2	2.76e-01	0	48	0	0	60	1048575
2026-01-17 09:57:27.50	349.64	41.07	-84.7	-88.6	6.1	2.73e-01	0	48	0	0	60	1048574
2026-01-17 09:57:29.52	349.28	40.57	-84.7	-88.6	5.7	2.72e-01	0	48	0	0	60	1048573
2026-01-17 09:57:31.53	348.94	40.07	-84.7	-88.6	6.4	2.72e-01	0	48	0	0	60	1048575
2026-01-17 09:57:33.55	348.61	39.58	-84.7	-88.6	6.1	2.73e-01	0	48	0	0	60	1048573
2026-01-17 09:57:35.57	348.28	39.10	-84.7	-88.6	5.9	2.76e-01	0	48	0	0	60	1048572
2026-01-17 09:57:37.58	347.97	38.62	-84.7	-88.6	6.0	2.78e-01	0	48	0	0	60	1048574
2026-01-17 09:57:39.58	347.67	38.15	-85.2	-88.6	6.0	2.75e-01	0	48	0	0	60	1048572
2026-01-17 09:57:41.59	347.37	37.68	-84.7	-88.6	5.7	2.79e-01	0	48	0	0	60	1048575
2026-01-17 09:57:43.60	347.09	37.22	-84.7	-88.6	6.3	2.76e-01	0	48	0	0	60	1048575
2026-01-17 09:57:45.61	346.81	36.76	-85.2	-88.6	6.3	2.72e-01	0	48	0	0	60	1048575
2026-01-17 09:57:47.62	346.54	36.31	-84.7	-88.6	6.2	2.77e-01	0	47	0	0	60	1048570
2026-01-17 09:57:49.63	346.28	35.87	-84.3	-88.6	6.0	2.73e-01	0	48	0	0	60	1048574
2026-01-17 09:57:51.65	346.02	35.43	-84.7	-88.6	6.1	2.78e-01	0	48	0	0	60	1048575
2026-01-17 09:57:53.66	345.78	34.99	-85.2	-88.6	5.6	2.79e-01	0	48	0	0	60	1048575
2026-01-17 09:57:55.67	345.53	34.57	-85.2	-88.6	6.2	2.74e-01	0	47	0	0	60	1048573
2026-01-17 09:57:57.68	345.30	34.14	-84.7	-88.6	6.2	2.76e-01	0	47	0	0	60	1048575
2026-01-17 09:57:59.70	345.07	33.72	-84.7	-88.6	5.9	2.74e-01	0	48	0	0	60	1048572
2026-01-17 09:58:01.71	344.85	33.31	-84.7	-88.6	6.1	2.77e-01	0	47	0	0	60	1048569
2026-01-17 09:58:03.73	344.63	32.90	-84.7	-88.6	5.9	2.74e-01	0	47	0	0	60	1048573
2026-01-17 09:58:05.74	344.42	32.50	-84.7	-88.6	6.1	2.76e-01	0	47	0	0	60	1048575
2026-01-17 09:58:07.75	344.21	32.10	-84.7	-88.6	5.9	2.76e-01	0	47	0	0	60	1048575
2026-01-17 09:58:09.77	344.01	31.71	-84.7	-88.6	5.9	2.74e-01	0	47	0	0	60	1048573
2026-01-17 09:58:11.78	343.81	31.32	-84.7	-88.6	6.2	2.76e-01	0	47	0	0	60	1048572
2026-01-17 09:58:13.79	343.62	30.93	-85.2	-88.6	6.4	2.76e-01	0	47	0	0	60	1048574
2026-01-17 09:58:15.80	343.43	30.55	-84.7	-88.6	6.0	2.76e-01	0	47	0	0	60	1048574
2026-01-17 09:58:17.81	343.25	30.18	-85.2	-88.6	6.0	2.77e-01	0	47	0	0	60	1048570
2026-01-17 09:58:19.82	343.07	29.81	-85.2	-88.6	6.0	2.75e-01	0	47	0	0	60	1048573
2026-01-17 09:58:21.84	342.90	29.44	-84.7	-88.6	5.8	2.77e-01	0	48	0	0	60	1048572
2026-01-17 09:58:23.85	342.73	29.08	-85.2	-88.6	6.5	2.77e-01	0	48	0	0	60	1048574
2026-01-17 09:58:25.87	342.56	28.72	-84.7	-88.6	5.9	2.75e-01	0	47	0	0	60	1048575
2026-01-17 09:58:27.88	342.40	28.37	-85.2	-88.6	6.2	2.79e-01	0	48	0	0	60	1048575
2026-01-17 09:58:29.89	342.24	28.02	-84.7	-88.6	6.2	2.75e-01	0	47	0	0	60	1048568
2026-01-17 09:58:31.90	342.09	27.68	-84.7	-88.6	5.5	2.75e-01	0	48	0	0	60	1048575
2026-01-17 09:58:33.92	341.94	27.34	-84.7	-88.6	5.8	2.76e-01	0	47	0	0	60	1048575
2026-01-17 09:58:35.93	341.79	27.00	-85.2	-88.6	6.2	2.72e-01	0	48	0	0	60	1048573
2026-01-17 09:58:37.95	341.64	26.67	-84.7	-88.6	6.0	2.79e-01	0	47	0	0	60	1048574
2026-01-17 09:58:39.96	341.50	26.34	-84.7	-88.6	5.8	2.77e-01	0	47	0	0	60	1048573
2026-01-17 09:58:41.98	341.36	26.01	-84.7	-88.6	6.1	2.74e-01	0	47	0	0	60	1048573
2026-01-17 09:58:43.99	341.23	25.69	-85.2	-88.6	6.3	2.77e-01	0	47	0	0	60	1048575
2026-01-17 09:58:46.01	341.09	25.37	-84.7	-88.6	5.6	2.80e-01	0	47	0	0	60	1048570
2026-01-17 09:58:48.02	340.96	25.06	-84.7	-88.6	6.0	2.73e-01	0	47	0	0	60	1048562
2026-01-17 09:58:50.03	340.84	24.75	-84.7	-88.6	6.0	2.76e-01	0	47	0	0	60	1048575
2026-01-17 09:58:52.04	340.71	24.44	-85.2	-88.6	6.1	2.78e-01	0	47	0	0	60	1048568
2026-01-17 09:58:54.06	340.59	24.14	-84.7	-88.6	6.1	2.73e-01	0	47	0	0	60	1048570
2026-01-17 09:58:56.07	340.47	23.84	-85.2	-88.6	6.2	2.77e-01	0	47	0	0	60	1048574
2026-01-17 09:58:58.09	340.35	23.54	-84.7	-88.6	5.6	2.76e-01	0	47	0	0	60	1048573
2026-01-17 09:59:00.10	340.24	23.24	-84.7	-88.6	6.2	2.76e-01	0	47	0	0	60	1048572
2026-01-17 09:59:02.11	340.13	22.95	-85.2	-88.6	6.2	2.72e-01	0	47	0	0	60	1048575
2026-01-17 09:59:04.13	340.01	22.67	-84.7	-88.6	6.1	2.75e-01	0	47	0	0	60	1048572
2026-01-17 09:59:06.13	339.91	22.38	-85.2	-88.6	6.3	2.80e-01	0	47	0	0	60	1048574
2026-01-17 09:59:08.14	339.80	22.10	-84.7	-88.6	6.3	2.77e-01	0	47	0	0	60	1048573
2026-01-17 09:59:10.15	339.70	21.82	-84.7	-88.6	5.6	2.75e-01	0	47	0	0	60	1048572
2026-01-17 09:59:12.16	339.59	21.55	-84.7	-88.6	6.1	2.78e-01	0	47	0	0	60	1048573
2026-01-17 09:59:14.18	339.49	21.28	-85.2	-88.6	6.0	2.75e-01	0	47	0	0	60	1048563
2026-01-17 09:59:16.19	339.40	21.01	-84.7	-88.6	5.7	2.79e-01	0	47	0	0	60	1048573
2026-01-17 09:59:18.21	339.30	20.74	-84.7	-88.6	5.7	2.74e-01	0	47	0	0	60	1048572
2026-01-17 09:59:20.21	339.20	20.48	-84.7	-88.6	6.0	2.75e-01	0	47	0	0	60	1048575
2026-01-17 09:59:22.22	339.11	20.21	-84.7	-88.6	6.1	2.77e-01	0	47	0	0	60	1048570
2026-01-17 09:59:24.24	339.02	19.95	-84.7	-88.6	6.5	2.78e-01	0	47	0	0	60	1048575
2026-01-17 09:59:26.25	338.93	19.70	-84.7	-88.6	5.7	2.75e-01	0	47	0	0	60	1048572
2026-01-17 09:59:28.25	338.84	19.45	-84.7	-88.6	6.3	2.77e-01	0	47	0	0	60	1048574
2026-01-17 09:59:30.27	338.76	19.19	-84.7	-88.6	5.8	2.79e-01	0	47	0	0	60	1048575
2026-01-17 09:59:32.29	338.67	18.94	-84.7	-88.6	6.2	2.83e-01	0	47	0	0	60	1048574
2026-01-17 09:59:34.30	338.59	18.70	-84.7	-88.6	6.1	2.77e-01	0	47	0	0	60	1048569
2026-01-17 09:59:36.31	338.51	18.45	-84.7	-88.6	6.5	2.75e-01	0	47	0	0	60	1048574
2026-01-17 09:59:38.32	338.43	18.21	-84.7	-88.6	6.4	2.78e-01	0	47	0	0	60	1048573
2026-01-17 09:59:40.33	338.35	17.97	-84.7	-88.6	5.8	2.81e-01	0	47	0	0	60	1048572
2026-01-17 09:59:42.35	338.27	17.73	-85.2	-88.6	5.7	2.82e-01	0	47	0	0	60	1048574
2026-01-17 09:59:44.36	338.19	17.50	-85.2	-88.6	6.1	2.78e-01	0	47	0	0	60	1048572
2026-01-17 09:59:46.38	338.12	17.27	-84.7	-88.6	6.1	2.80e-01	0	47	0	0	60	1048570
2026-01-17 09:59:48.39	338.04	17.03	-83.5	-88.6	5.8	2.76e-01	0	47	0	0	60	1048571
2026-01-17 09:59:50.39	337.97	16.81	-84.7	-88.6	5.8	2.78e-01	0	47	0	0	60	1048573
2026-01-17 09:59:52.40	337.90	16.58	-85.2	-88.6	6.0	2.75e-01	0	47	0	0	60	1048575
2026-01-17 09:59:54.41	337.83	16.36	-85.2	-88.6	5.8	2.76e-01	0	47	0	0	60	1048571
2026-01-17 09:59:56.43	337.76	16.13	-84.7	-88.6	6.0	2.74e-01	0	47	0	0	60	1048572
2026-01-17 09:59:58.44	337.69	15.91	-84.7	-88.6	5.9	2.71e-01	0	47	0	0	60	1048575
2026-01-17 10:00:00.45	337.62	15.69	-84.7	-88.6	6.1	2.74e-01	0	47	0	0	60	1048574
2026-01-17 10:00:02.47	337.56	15.48	-84.7	-88.6	6.0	2.76e-01	0	47	0	0	60	1048575
2026-01-17 10:00:04.48	337.49	15.26	-84.7	-88.6	5.8	2.76e-01	0	47	0	0	60	1048574
2026-01-17 10:00:06.50	337.43	15.05	-84.7	-88.6	5.7	2.76e-01	0	47	0	0	60	1048575
2026-01-17 10:00:08.51	337.37	14.84	-84.7	-88.6	6.3	2.77e-01	0	47	0	0	60	1048572
2026-01-17 10:00:10.53	337.31	14.63	-84.7	-88.6	6.0	2.76e-01	0	47	0	0	60	1048570
2026-01-17 10:00:12.54	337.24	14.42	-85.2	-88.6	6.1	2.78e-01	0	47	0	0	60	1048575
2026-01-17 10:00:14.56	337.18	14.21	-84.7	-88.6	5.9	2.79e-01	0	47	0	0	60	1048573
2026-01-17 10:00:16.57	337.13	14.01	-84.7	-88.6	6.3	2.78e-01	0	47	0	0	60	1048575
2026-01-17 10:00:18.59	337.07	13.81	-84.7	-88.6	5.9	2.78e-01	0	47	0	0	60	1048575
2026-01-17 10:00:20.60	337.01	13.61	-84.7	-88.6	6.5	2.77e-01	0	47	0	0	60	1048571
2026-01-17 10:00:22.62	336.95	13.41	-84.7	-88.6	5.8	2.76e-01	0	47	0	0	60	1048575
2026-01-17 10:00:24.63	336.90	13.21	-84.7	-88.6	5.7	2.78e-01	0	47	0	0	60	1048573
2026-01-17 10:00:26.64	336.85	13.01	-84.7	-88.6	6.0	2.81e-01	0	47	0	0	60	1048574
2026-01-17 10:00:28.65	336.79	12.82	-84.7	-88.6	6.5	2.75e-01	0	47	0	0	60	1048573
2026-01-17 10:00:30.66	336.74	12.62	-84.7	-88.6	6.0	2.73e-01	0	47	0	0	60	1048573
2026-01-17 10:00:32.68	336.69	12.43	-84.7	-88.6	6.1	2.77e-01	0	47	0	0	60	1048575
2026-01-17 10:00:34.69	336.64	12.24	-84.7	-88.6	6.0	2.77e-01	0	47	0	0	60	1048573
2026-01-17 10:00:36.71	336.58	12.05	-84.7	-88.6	5.9	2.77e-01	0	47	0	0	60	1048573
2026-01-17 10:00:38.72	336.54	11.87	-84.7	-88.6	5.4	2.78e-01	0	47	0	0	60	1048574
2026-01-17 10:00:40.74	336.49	11.68	-85.2	-88.6	6.3	2.77e-01	0	47	0	0	60	1048574
2026-01-17 10:00:42.74	336.44	11.50	-85.2	-88.6	6.4	2.78e-01	0	47	0	0	60	1048575
2026-01-17 10:00:44.76	336.39	11.31	-84.7	-88.6	6.2	2.78e-01	0	47	0	0	60	1048574
2026-01-17 10:00:46.77	336.34	11.13	-84.7	-88.6	6.4	2.76e-01	0	47	0	0	60	1048566
2026-01-17 10:00:48.79	336.30	10.95	-84.7	-88.6	6.0	2.73e-01	0	47	0	0	60	1048574
2026-01-17 10:00:50.80	336.25	10.77	-84.7	-88.6	6.4	2.77e-01	0	47	0	0	60	1048575
2026-01-17 10:00:52.82	336.21	10.59	-84.7	-88.6	6.5	2.75e-01	0	47	0	0	60	1048575
2026-01-17 10:00:54.84	336.16	10.41	-85.2	-88.6	5.9	2.77e-01	0	47	0	0	60	1048568
2026-01-17 10:00:56.85	336.12	10.24	-84.7	-88.6	5.8	2.76e-01	0	47	0	0	60	1048574
2026-01-17 10:00:58.86	336.08	10.07	-85.2	-88.6	6.4	2.75e-01	0	47	0	0	60	1048570
2026-01-17 10:01:00.87	336.03	9.89	-84.7	-88.6	6.2	2.76e-01	0	47	0	0	60	1048574
2026-01-17 10:01:02.88	335.99	9.72	-84.7	-88.6	6.1	2.76e-01	0	47	0	0	60	1048569
2026-01-17 10:01:04.90	335.95	9.55	-84.7	-88.6	5.7	2.78e-01	0	47	0	0	60	1048571
2026-01-17 10:01:06.91	335.91	9.38	-84.7	-88.6	6.1	2.81e-01	0	47	0	0	60	1048573
2026-01-17 10:01:08.93	335.87	9.21	-84.7	-88.6	5.7	2.77e-01	0	47	0	0	60	1048575
2026-01-17 10:01:10.95	335.83	9.04	-85.2	-88.6	6.4	2.75e-01	0	47	0	0	60	1048574
2026-01-17 10:01:12.96	335.79	8.88	-84.7	-88.6	5.7	2.78e-01	0	47	0	0	60	1048574
2026-01-17 10:01:14.98	335.75	8.71	-84.7	-88.6	6.2	2.77e-01	0	47	0	0	60	1048571
2026-01-17 10:01:16.99	335.71	8.55	-84.7	-88.6	5.9	2.73e-01	0	47	0	0	60	1048571
2026-01-17 10:01:19.01	335.68	8.38	-84.7	-88.6	6.4	2.75e-01	0	47	0	0	60	1048564
2026-01-17 10:01:21.01	335.64	8.22	-84.7	-88.6	6.2	2.74e-01	0	47	0	0	60	1048573
2026-01-17 10:01:23.03	335.60	8.06	-85.2	-88.6	5.9	2.78e-01	0	47	0	0	60	1048574
2026-01-17 10:01:25.05	335.57	7.90	-84.7	-88.6	6.1	2.74e-01	0	47	0	0	60	1048574
2026-01-17 10:01:27.06	335.53	7.74	-84.7	-88.6	6.1	2.74e-01	0	47	0	0	60	1048573
2026-01-17 10:01:29.08	335.50	7.58	-85.2	-88.6	5.7	2.76e-01	0	47	0	0	60	1048575
2026-01-17 10:01:31.09	335.46	7.43	-84.7	-88.6	6.1	2.77e-01	0	47	0	0	60	1048574
2026-01-17 10:01:33.11	335.43	7.27	-85.2	-88.6	6.0	2.78e-01	0	47	0	0	60	1048575
2026-01-17 10:01:35.13	335.40	7.12	-84.7	-88.6	6.2	2.74e-01	0	47	0	0	60	1048572
2026-01-17 10:01:37.15	335.36	6.96	-84.7	-88.6	6.6	2.76e-01	0	47	0	0	60	1048575
2026-01-17 10:01:39.16	335.33	6.81	-84.7	-88.6	5.9	2.80e-01	0	47	0	0	60	1048574
2026-01-17 10:01:41.18	335.30	6.65	-84.7	-88.6	6.1	2.76e-01	0	47	0	0	60	1048575
2026-01-17 10:01:43.20	335.27	6.50	-84.7	-88.6	6.1	2.75e-01	0	47	0	0	60	1048571
2026-01-17 10:01:45.21	335.23	6.35	-84.7	-88.6	5.9	2.78e-01	0	47	0	0	60	1048575
2026-01-17 10:01:47.23	335.20	6.20	-84.7	-88.6	5.6	2.80e-01	0	47	0	0	60	1048573
2026-01-17 10:01:49.24	335.17	6.05	-84.7	-88.6	6.2	2.77e-01	0	47	0	0	60	1048569
2026-01-17 10:01:51.24	335.14	5.91	-84.7	-88.6	5.5	2.77e-01	0	47	0	0	60	1048575
2026-01-17 10:01:53.26	335.11	5.76	-84.7	-88.6	6.0	2.78e-01	0	47	0	0	60	1048573
2026-01-17 10:01:55.27	335.08	5.61	-84.7	-88.6	5.8	2.75e-01	0	47	0	0	60	1048573
2026-01-17 10:01:57.28	335.05	5.47	-84.7	-88.6	6.2	2.79e-01	0	47	0	0	60	1048575
2026-01-17 10:01:59.29	335.03	5.32	-85.2	-88.6	6.5	2.79e-01	0	47	0	0	60	1048574
2026-01-17 10:02:01.31	335.00	5.18	-84.7	-88.6	6.4	2.79e-01	0	47	0	0	60	1048574
2026-01-17 10:02:03.32	334.97	5.03	-85.2	-88.6	6.1	2.77e-01	0	47	0	0	60	1048574
2026-01-17 10:02:05.34	334.94	4.89	-85.2	-88.6	6.2	2.74e-01	0	47	0	0	60	1048575
2026-01-17 10:02:07.35	334.91	4.75	-84.7	-88.6	6.0	2.77e-01	0	47	0	0	60	1048574
2026-01-17 10:02:09.37	334.89	4.61	-84.7	-88.6	5.8	2.77e-01	0	47	0	0	60	1048575
2026-01-17 10:02:11.38	334.86	4.47	-84.7	-88.6	6.2	2.80e-01	0	47	0	0	60	1048575
2026-01-17 10:02:13.39	334.84	4.33	-84.7	-88.6	5.6	2.79e-01	0	47	0	0	60	1048574
2026-01-17 10:02:15.41	334.81	4.19	-85.2	-88.6	5.8	2.76e-01	0	47	0	0	60	1048567
2026-01-17 10:02:17.42	334.78	4.05	-84.7	-88.6	5.8	2.75e-01	0	47	0	0	60	1048575
2026-01-17 10:02:19.43	334.76	3.91	-84.7	-88.6	6.0	2.74e-01	0	47	0	0	60	1048575
2026-01-17 10:02:21.44	334.73	3.78	-84.7	-88.6	6.5	2.72e-01	0	47	0	0	60	1048575
2026-01-17 10:02:23.45	334.71	3.64	-84.7	-88.6	6.4	2.78e-01	0	47	0	0	60	1048575
2026-01-17 10:02:25.47	334.69	3.51	-83.5	-88.6	5.3	2.80e-01	0	47	0	0	60	1048573
2026-01-17 10:02:27.48	334.66	3.37	-84.7	-88.6	6.5	2.74e-01	0	47	0	0	60	1048575
2026-01-17 10:02:29.49	334.64	3.24	-84.7	-88.6	6.4	2.80e-01	0	47	0	0	60	1048572
2026-01-17 10:02:31.51	334.61	3.10	-84.7	-88.6	5.8	2.78e-01	0	47	0	0	60	1048570
2026-01-17 10:02:33.52	334.59	2.97	-84.7	-88.6	5.6	2.75e-01	0	47	0	0	60	1048573
2026-01-17 10:02:35.53	334.57	2.84	-84.7	-88.6	6.1	2.77e-01	0	47	0	0	60	1048574
2026-01-17 10:02:37.55	334.55	2.71	-84.7	-88.6	3.8	7.62e-01	0	47	104	0	60	1048574
2026-01-17 10:02:39.55	334.52	2.58	-85.2	-88.6	2.8	7.64e-01	0	47	104	0	60	1048571
2026-01-17 10:02:41.56	334.50	2.45	-85.2	-88.6	3.7	7.62e-01	0	47	104	0	60	1048575
2026-01-17 10:02:43.58	334.48	2.32	-85.2	-88.6	2.9	7.63e-01	0	47	104	0	60	1048575
2026-01-17 10:02:45.60	334.46	2.19	-85.2	-88.6	3.1	7.65e-01	0	47	104	0	60	1048566
2026-01-17 10:02:47.61	334.44	2.06	-84.7	-88.6	3.4	7.63e-01	0	47	104	0	60	1048573
2026-01-17 10:02:49.62	334.42	1.93	-85.2	-88.6	3.4	7.63e-01	0	47	104	0	60	1048564
2026-01-17 10:02:51.64	334.40	1.80	-85.2	-88.6	3.7	7.63e-01	0	47	104	0	60	1048575
2026-01-17 10:02:53.65	334.38	1.67	-85.2	-88.6	3.1	7.63e-01	0	47	104	0	60	1048572
2026-01-17 10:02:55.66	334.36	1.55	-85.2	-88.6	3.5	7.63e-01	0	47	104	0	60	1048575
2026-01-17 10:02:57.67	334.34	1.42	-85.2	-88.6	3.0	7.65e-01	0	47	104	0	60	1048572
2026-01-17 10:02:59.68	334.32	1.30	-84.7	-88.6	3.1	7.63e-01	0	47	104	0	60	1048574
2026-01-17 10:03:01.69	334.30	1.17	-84.7	-88.6	3.1	7.62e-01	0	47	104	0	60	1048575
2026-01-17 10:03:03.70	334.28	1.05	-85.2	-88.6	2.7	7.62e-01	0	47	104	0	60	1048572
2026-01-17 10:03:05.71	334.26	0.92	-84.7	-88.6	3.1	7.63e-01	0	47	104	0	60	1048572
2026-01-17 10:03:07.72	334.24	0.80	-85.2	-88.6	3.3	7.64e-01	0	47	104	0	60	1048573
2026-01-17 10:03:09.73	334.22	0.68	-85.2	-88.6	2.6	7.64e-01	0	47	104	0	60	1048575
2026-01-17 10:03:11.74	334.20	0.56	-85.2	-88.6	3.3	7.63e-01	0	47	104	0	60	1048574
2026-01-17 10:03:13.75	334.19	0.44	-85.2	-88.6	3.0	7.62e-01	0	47	104	0	60	1048572
2026-01-17 10:03:15.76	334.17	0.31	-84.7	-88.6	3.4	7.64e-01	0	47	104	0	60	1048575
2026-01-17 10:03:17.77	334.15	0.19	-85.2	-88.6	3.0	7.63e-01	0	47	104	0	60	1048575
2026-01-17 10:03:19.79	334.13	0.07	-85.2	-88.6	3.1	7.64e-01	0	47	104	0	60	1048570
2026-01-17 10:03:21.80	334.12	-0.05	-85.2	-88.6	3.1	7.63e-01	0	47	104	0	60	1048574

#Closed at: 2026-01-17 10:03:23
#Recorded file [0 MB]: D:/Data/35015_260117_125627.dat