passes_logs/2026/01/17/R3.2S-Naryan-Mar/R3.2S-Naryan-Mar__20260117_070247_TY-40_rec.log

#Pass ID: 20260117_070247_TY-40
#Satellite: TY-40
#Configuration: TY-39
#almurnet v.1.7.20240730
#Start time: 2026-01-17 07:07:36

#Version: 2.2.20231116
#Station: R3.2S-Naryan-Mar
#Location: 53.008057 lon 67.646978 lat
#TLE: 1 56846U 23081A   26016.61953149  .00002313  00000-0  10506-3 0  9990
#TLE: 2 56846  97.3892  89.5057 0001765  75.2099 284.9333 15.21769873144958

#Time	Az	El	Level	Level2	SNR	BER	BlckErr	Temp	State	Recorded	gain1	gain2
2026-01-17 07:07:36.50	60.65	35.80	-83.5	-79.0	2.3	0.00e+00	0	48	0	0	60	1048570
2026-01-17 07:07:38.51	61.69	36.25	-83.1	-79.0	2.4	0.00e+00	0	48	104	0	60	1048573
2026-01-17 07:07:40.52	62.77	36.69	-83.5	-79.0	2.4	0.00e+00	0	48	104	0	60	1048568
2026-01-17 07:07:42.53	63.88	37.13	-83.5	-79.0	2.3	0.00e+00	0	48	104	0	60	1048573
2026-01-17 07:07:44.55	65.02	37.57	-83.1	-79.0	2.4	0.00e+00	0	48	104	0	60	1048571
2026-01-17 07:07:46.55	66.19	38.00	-83.5	-79.0	2.5	0.00e+00	0	48	104	0	60	1048575
2026-01-17 07:07:48.57	67.40	38.43	-83.1	-79.0	2.5	0.00e+00	0	48	104	0	60	1048574
2026-01-17 07:07:50.58	68.63	38.84	-83.5	-79.0	2.6	0.00e+00	0	48	104	0	60	1048571
2026-01-17 07:07:52.60	69.91	39.25	-83.1	-79.0	2.5	0.00e+00	0	48	104	0	60	1048569
2026-01-17 07:07:54.62	71.22	39.65	-83.5	-79.0	2.4	0.00e+00	0	48	104	0	60	1048574
2026-01-17 07:07:56.63	72.56	40.03	-83.5	-79.0	2.5	0.00e+00	0	48	104	0	60	1048572
2026-01-17 07:07:58.64	73.93	40.41	-83.5	-79.0	2.4	0.00e+00	0	48	104	0	60	1048569
2026-01-17 07:08:00.65	75.33	40.77	-83.5	-79.0	2.4	0.00e+00	0	48	104	0	60	1048575
2026-01-17 07:08:02.67	76.77	41.11	-82.8	-79.0	2.3	0.00e+00	0	48	104	0	60	1048574
2026-01-17 07:08:04.69	78.25	41.44	-83.5	-79.0	2.3	0.00e+00	0	49	104	0	60	1048574
2026-01-17 07:08:06.70	79.74	41.76	-83.5	-79.0	2.5	0.00e+00	0	48	104	0	60	1048575
2026-01-17 07:08:08.72	81.28	42.05	-83.5	-79.0	2.4	0.00e+00	0	48	104	0	60	1048568
2026-01-17 07:08:10.73	82.83	42.32	-83.5	-79.0	2.5	0.00e+00	0	48	104	0	60	1048572
2026-01-17 07:08:12.75	84.42	42.58	-83.5	-79.0	2.5	0.00e+00	0	49	104	0	60	1048574
2026-01-17 07:08:14.76	86.03	42.81	-83.5	-79.0	2.4	0.00e+00	0	49	104	0	60	1048575
2026-01-17 07:08:16.78	87.67	43.02	-82.8	-79.0	2.5	0.00e+00	0	49	104	0	60	1048575
2026-01-17 07:08:18.79	89.32	43.20	-83.5	-79.0	2.4	0.00e+00	0	49	104	0	60	1048575
2026-01-17 07:08:20.80	90.99	43.36	-83.5	-79.0	2.4	0.00e+00	0	49	104	0	60	1048575
2026-01-17 07:08:22.82	92.68	43.50	-83.5	-79.0	2.3	0.00e+00	0	49	104	0	60	1048575
2026-01-17 07:08:24.83	94.38	43.60	-83.5	-79.0	2.4	0.00e+00	0	49	104	0	60	1048574
2026-01-17 07:08:26.85	96.09	43.68	-83.1	-79.0	2.5	0.00e+00	0	49	104	0	60	1048571
2026-01-17 07:08:28.85	97.80	43.74	-83.5	-79.0	2.5	0.00e+00	0	49	104	0	60	1048573
2026-01-17 07:08:30.86	99.52	43.76	-83.1	-79.0	2.5	0.00e+00	0	49	104	0	60	1048574
2026-01-17 07:08:32.88	101.25	43.76	-83.5	-79.0	2.4	0.00e+00	0	49	104	0	60	1048571
2026-01-17 07:08:34.89	102.98	43.74	-83.5	-79.0	2.4	0.00e+00	0	49	104	0	60	1048573
2026-01-17 07:08:36.91	104.70	43.68	-83.5	-79.0	2.4	0.00e+00	0	49	104	0	60	1048574
2026-01-17 07:08:38.92	106.41	43.60	-83.5	-79.0	2.6	0.00e+00	0	49	104	0	60	1048575
2026-01-17 07:08:40.93	108.11	43.49	-83.1	-79.0	2.5	0.00e+00	0	49	104	0	60	1048574
2026-01-17 07:08:42.95	109.80	43.35	-83.5	-79.0	2.3	0.00e+00	0	49	104	0	60	1048572
2026-01-17 07:08:44.96	111.47	43.19	-83.1	-79.0	2.4	0.00e+00	0	49	104	0	60	1048571
2026-01-17 07:08:46.97	113.12	43.00	-83.5	-79.0	2.3	0.00e+00	0	48	104	0	60	1048573
2026-01-17 07:08:48.99	114.76	42.79	-83.5	-79.0	2.2	0.00e+00	0	49	104	0	60	1048575
2026-01-17 07:08:51.00	116.37	42.56	-83.5	-79.0	2.2	0.00e+00	0	49	104	0	60	1048565
2026-01-17 07:08:53.01	117.95	42.31	-83.5	-79.0	2.1	0.00e+00	0	49	104	0	60	1048568
2026-01-17 07:08:55.03	119.51	42.03	-83.1	-79.0	2.5	0.00e+00	0	49	104	0	60	1048575
2026-01-17 07:08:57.04	121.04	41.74	-83.5	-79.0	2.5	0.00e+00	0	48	104	0	60	1048573
2026-01-17 07:08:59.06	122.54	41.42	-83.1	-79.0	2.5	0.00e+00	0	49	104	0	60	1048575
2026-01-17 07:09:01.07	124.01	41.09	-83.5	-79.0	2.1	0.00e+00	0	48	104	0	60	1048575
2026-01-17 07:09:03.07	125.44	40.74	-83.5	-79.0	2.2	0.00e+00	0	48	104	0	60	1048573
2026-01-17 07:09:05.08	126.84	40.38	-83.1	-79.0	2.4	0.00e+00	0	48	104	0	60	1048574
2026-01-17 07:09:07.09	128.22	40.01	-83.1	-79.0	2.5	0.00e+00	0	48	104	0	60	1048575
2026-01-17 07:09:09.10	129.55	39.62	-83.1	-79.0	2.2	0.00e+00	0	49	104	0	60	1048575
2026-01-17 07:09:11.11	130.86	39.22	-83.5	-79.0	2.5	0.00e+00	0	49	104	0	60	1048573
2026-01-17 07:09:13.13	132.14	38.81	-83.1	-79.0	2.3	0.00e+00	0	49	104	0	60	1048575
2026-01-17 07:09:15.15	133.38	38.39	-83.5	-79.0	2.2	0.00e+00	0	48	104	0	60	1048574
2026-01-17 07:09:17.15	134.58	37.97	-83.5	-79.0	2.5	0.00e+00	0	49	104	0	60	1048575
2026-01-17 07:09:19.15	135.75	37.54	-83.1	-79.0	2.4	0.00e+00	0	49	104	0	60	1048565
2026-01-17 07:09:21.16	136.89	37.10	-83.5	-79.0	2.3	0.00e+00	0	49	104	0	60	1048570
2026-01-17 07:09:23.18	138.01	36.66	-82.8	-79.0	2.4	0.00e+00	0	48	104	0	60	1048567
2026-01-17 07:09:25.19	139.08	36.21	-83.5	-79.0	2.5	0.00e+00	0	48	104	0	60	1048565
2026-01-17 07:09:27.20	140.13	35.76	-83.5	-79.0	2.4	0.00e+00	0	49	104	0	60	1048573
2026-01-17 07:09:29.21	141.15	35.31	-83.5	-79.0	2.5	0.00e+00	0	49	104	0	60	1048574
2026-01-17 07:09:31.22	142.14	34.85	-83.5	-79.0	2.3	0.00e+00	0	48	104	0	60	1048572
2026-01-17 07:09:33.24	143.10	34.39	-83.1	-79.0	2.5	0.00e+00	0	49	104	0	60	1048573
2026-01-17 07:09:35.25	144.03	33.94	-83.5	-79.0	2.4	0.00e+00	0	48	104	0	60	1048573
2026-01-17 07:09:37.27	144.94	33.48	-83.1	-79.0	2.4	0.00e+00	0	49	104	0	60	1048575
2026-01-17 07:09:39.28	145.82	33.03	-83.5	-79.0	2.4	0.00e+00	0	48	104	0	60	1048575
2026-01-17 07:09:41.29	146.67	32.57	-83.5	-79.0	2.4	0.00e+00	0	49	104	0	60	1048570
2026-01-17 07:09:43.31	147.51	32.12	-83.5	-79.0	2.4	0.00e+00	0	49	104	0	60	1048575
2026-01-17 07:09:45.32	148.31	31.67	-83.5	-79.0	2.3	0.00e+00	0	49	104	0	60	1048573
2026-01-17 07:09:47.34	149.09	31.22	-83.1	-79.0	2.3	0.00e+00	0	49	104	0	60	1048573
2026-01-17 07:09:49.35	149.85	30.77	-83.5	-79.0	2.4	0.00e+00	0	49	104	0	60	1048542
2026-01-17 07:09:51.37	150.59	30.33	-83.5	-79.0	2.5	0.00e+00	0	49	104	0	60	1048575
2026-01-17 07:09:53.38	151.31	29.89	-83.5	-79.0	2.6	0.00e+00	0	49	104	0	60	1048575
2026-01-17 07:09:55.39	152.00	29.46	-83.5	-79.0	2.4	0.00e+00	0	49	104	0	60	1048575
2026-01-17 07:09:57.41	152.68	29.02	-83.1	-79.0	2.5	0.00e+00	0	49	104	0	60	1048571
2026-01-17 07:09:59.42	153.34	28.60	-83.5	-79.0	2.5	0.00e+00	0	49	104	0	60	1048565
2026-01-17 07:10:01.43	153.97	28.17	-83.1	-79.0	2.5	0.00e+00	0	49	104	0	60	1048574
2026-01-17 07:10:03.45	154.60	27.75	-83.5	-79.0	2.4	0.00e+00	0	48	104	0	60	1048571
2026-01-17 07:10:05.46	155.20	27.34	-82.8	-79.0	2.3	0.00e+00	0	49	104	0	60	1048572
2026-01-17 07:10:07.48	155.79	26.93	-83.5	-79.0	2.4	0.00e+00	0	48	104	0	60	1048575
2026-01-17 07:10:09.49	156.36	26.52	-83.5	-79.0	2.5	0.00e+00	0	49	104	0	60	1048574
2026-01-17 07:10:11.50	156.91	26.12	-83.5	-79.0	2.6	0.00e+00	0	49	104	0	60	1048574
2026-01-17 07:10:13.51	157.45	25.72	-83.5	-79.0	2.5	0.00e+00	0	49	104	0	60	1048574
2026-01-17 07:10:15.53	157.98	25.33	-83.1	-79.0	2.4	0.00e+00	0	48	104	0	60	1048574
2026-01-17 07:10:17.54	158.49	24.94	-83.5	-79.0	2.6	0.00e+00	0	49	104	0	60	1048569
2026-01-17 07:10:19.55	158.99	24.56	-83.5	-79.0	2.4	0.00e+00	0	49	104	0	60	1048568
2026-01-17 07:10:21.57	159.48	24.18	-83.5	-79.0	2.5	0.00e+00	0	48	104	0	60	1048574
2026-01-17 07:10:23.58	159.95	23.81	-83.5	-79.0	2.4	0.00e+00	0	49	104	0	60	1048573
2026-01-17 07:10:25.59	160.41	23.44	-83.1	-79.0	2.5	0.00e+00	0	49	104	0	60	1048564
2026-01-17 07:10:27.60	160.86	23.08	-83.5	-79.0	2.5	0.00e+00	0	49	104	0	60	1048575
2026-01-17 07:10:29.60	161.29	22.72	-83.1	-79.0	2.2	0.00e+00	0	49	104	0	60	1048575
2026-01-17 07:10:31.61	161.72	22.37	-83.5	-79.0	2.0	0.00e+00	0	49	104	0	60	1048575
2026-01-17 07:10:33.62	162.14	22.02	-83.5	-79.0	2.5	0.00e+00	0	49	104	0	60	1048575
2026-01-17 07:10:35.63	162.54	21.67	-83.5	-79.0	2.5	0.00e+00	0	48	104	0	60	1048574
2026-01-17 07:10:37.64	162.94	21.33	-83.5	-79.0	2.4	0.00e+00	0	49	104	0	60	1048575
2026-01-17 07:10:39.65	163.33	21.00	-82.8	-79.0	2.5	0.00e+00	0	49	104	0	60	1048572
2026-01-17 07:10:41.67	163.71	20.66	-83.5	-79.0	2.1	0.00e+00	0	49	104	0	60	1048574
2026-01-17 07:10:43.69	164.08	20.34	-83.5	-79.0	2.1	0.00e+00	0	49	104	0	60	1048570
2026-01-17 07:10:45.70	164.44	20.01	-83.5	-79.0	2.5	0.00e+00	0	49	104	0	60	1048575
2026-01-17 07:10:47.70	164.79	19.70	-83.5	-79.0	2.6	0.00e+00	0	48	104	0	60	1048574
2026-01-17 07:10:49.70	165.13	19.38	-83.1	-79.0	2.5	0.00e+00	0	49	104	0	60	1048575
2026-01-17 07:10:51.71	165.47	19.07	-83.5	-79.0	2.5	0.00e+00	0	49	104	0	60	1048572
2026-01-17 07:10:53.73	165.80	18.76	-83.1	-79.0	2.3	0.00e+00	0	49	104	0	60	1048574
2026-01-17 07:10:55.75	166.12	18.46	-83.5	-79.0	2.4	0.00e+00	0	49	104	0	60	1048574
2026-01-17 07:10:57.76	166.43	18.16	-83.5	-79.0	2.5	0.00e+00	0	49	104	0	60	1048575
2026-01-17 07:10:59.78	166.74	17.87	-83.5	-79.0	2.5	0.00e+00	0	49	104	0	60	1048574
2026-01-17 07:11:01.79	167.04	17.58	-83.5	-79.0	2.4	0.00e+00	0	49	104	0	60	1048570
2026-01-17 07:11:03.81	167.34	17.29	-83.1	-79.0	2.4	0.00e+00	0	49	104	0	60	1048572
2026-01-17 07:11:05.83	167.63	17.00	-83.5	-79.0	2.2	0.00e+00	0	49	104	0	60	1048574
2026-01-17 07:11:07.84	167.91	16.72	-83.1	-79.0	2.3	0.00e+00	0	49	104	0	60	1048566
2026-01-17 07:11:09.86	168.19	16.44	-83.5	-79.0	2.4	0.00e+00	0	49	104	0	60	1048574
2026-01-17 07:11:11.87	168.46	16.17	-83.5	-79.0	2.4	0.00e+00	0	49	104	0	60	1048566
2026-01-17 07:11:13.89	168.73	15.90	-83.5	-79.0	2.4	0.00e+00	0	49	104	0	60	1048574
2026-01-17 07:11:15.90	168.99	15.63	-83.5	-79.0	2.5	0.00e+00	0	49	104	0	60	1048572
2026-01-17 07:11:17.91	169.24	15.37	-82.8	-79.0	2.5	0.00e+00	0	49	104	0	60	1048574
2026-01-17 07:11:19.92	169.49	15.11	-83.5	-79.0	2.5	0.00e+00	0	49	104	0	60	1048564
2026-01-17 07:11:21.94	169.74	14.85	-83.1	-79.0	2.5	0.00e+00	0	48	104	0	60	1048572
2026-01-17 07:11:23.95	169.98	14.60	-83.5	-79.0	2.4	0.00e+00	0	49	104	0	60	1048573
2026-01-17 07:11:25.97	170.21	14.35	-83.5	-79.0	2.4	0.00e+00	0	49	104	0	60	1048575
2026-01-17 07:11:27.99	170.44	14.10	-83.1	-79.0	2.4	0.00e+00	0	49	104	0	60	1048574
2026-01-17 07:11:30.00	170.67	13.86	-83.5	-79.0	2.4	0.00e+00	0	49	104	0	60	1048573
2026-01-17 07:11:32.01	170.89	13.61	-83.1	-79.0	2.4	0.00e+00	0	49	104	0	60	1048572
2026-01-17 07:11:34.02	171.11	13.37	-83.1	-79.0	2.4	0.00e+00	0	49	104	0	60	1048575
2026-01-17 07:11:36.03	171.33	13.14	-83.1	-79.0	2.4	0.00e+00	0	48	104	0	60	1048574
2026-01-17 07:11:38.05	171.54	12.90	-83.5	-79.0	2.4	0.00e+00	0	49	104	0	60	1048575
2026-01-17 07:11:40.06	171.74	12.67	-83.5	-79.0	2.5	0.00e+00	0	49	104	0	60	1048575
2026-01-17 07:11:42.07	171.95	12.44	-83.5	-79.0	2.5	0.00e+00	0	49	104	0	60	1048574
2026-01-17 07:11:44.09	172.15	12.22	-83.5	-79.0	2.5	0.00e+00	0	49	104	0	60	1048575
2026-01-17 07:11:46.11	172.34	11.99	-82.8	-79.0	2.5	0.00e+00	0	49	104	0	60	1048574
2026-01-17 07:11:48.12	172.53	11.77	-83.5	-79.0	2.4	0.00e+00	0	49	104	0	60	1048574
2026-01-17 07:11:50.12	172.72	11.55	-83.1	-79.0	2.4	0.00e+00	0	49	104	0	60	1048573
2026-01-17 07:11:52.13	172.91	11.34	-83.1	-79.0	2.4	0.00e+00	0	49	104	0	60	1048569
2026-01-17 07:11:54.15	173.09	11.12	-83.5	-79.0	2.4	0.00e+00	0	49	104	0	60	1048573
2026-01-17 07:11:56.16	173.27	10.91	-83.5	-79.0	2.4	0.00e+00	0	48	104	0	60	1048575
2026-01-17 07:11:58.17	173.45	10.70	-83.5	-79.0	2.4	0.00e+00	0	49	104	0	60	1048570
2026-01-17 07:12:00.19	173.62	10.49	-83.1	-79.0	2.5	0.00e+00	0	48	104	0	60	1048571
2026-01-17 07:12:02.20	173.79	10.29	-83.5	-79.0	2.6	0.00e+00	0	49	104	0	60	1048574
2026-01-17 07:12:04.21	173.96	10.09	-83.5	-79.0	2.6	0.00e+00	0	48	104	0	60	1048573
2026-01-17 07:12:06.22	174.13	9.88	-83.5	-79.0	2.6	0.00e+00	0	49	104	0	60	1048567
2026-01-17 07:12:08.23	174.29	9.68	-83.5	-79.0	2.6	0.00e+00	0	49	104	0	60	1048570
2026-01-17 07:12:10.23	174.45	9.49	-83.1	-79.0	2.5	0.00e+00	0	49	104	0	60	1048567
2026-01-17 07:12:12.25	174.61	9.29	-83.5	-79.0	2.4	0.00e+00	0	48	104	0	60	1048574
2026-01-17 07:12:14.26	174.76	9.10	-83.1	-79.0	2.5	0.00e+00	0	49	104	0	60	1048575
2026-01-17 07:12:16.28	174.92	8.91	-83.5	-79.0	2.4	0.00e+00	0	49	104	0	60	1048571
2026-01-17 07:12:18.29	175.07	8.72	-83.5	-79.0	2.2	0.00e+00	0	49	104	0	60	1048575
2026-01-17 07:12:20.31	175.22	8.53	-83.5	-79.0	2.2	0.00e+00	0	49	104	0	60	1048575
2026-01-17 07:12:22.32	175.36	8.34	-83.5	-79.0	2.4	0.00e+00	0	49	104	0	60	1048569
2026-01-17 07:12:24.34	175.51	8.16	-83.1	-79.0	2.6	0.00e+00	0	49	104	0	60	1048574
2026-01-17 07:12:26.35	175.65	7.97	-83.5	-79.0	2.5	0.00e+00	0	49	104	0	60	1048574
2026-01-17 07:12:28.36	175.79	7.79	-83.1	-79.0	2.6	0.00e+00	0	49	104	0	60	1048572
2026-01-17 07:12:30.37	175.92	7.61	-83.5	-79.0	2.2	0.00e+00	0	49	104	0	60	1048555
2026-01-17 07:12:32.39	176.06	7.43	-83.5	-79.0	2.3	0.00e+00	0	49	104	0	60	1048574
2026-01-17 07:12:34.41	176.20	7.26	-83.5	-79.0	2.4	0.00e+00	0	49	104	0	60	1048569
2026-01-17 07:12:36.42	176.33	7.08	-83.5	-79.0	2.3	0.00e+00	0	49	104	0	60	1048573
2026-01-17 07:12:38.43	176.46	6.91	-83.1	-79.0	2.4	0.00e+00	0	49	104	0	60	1048575
2026-01-17 07:12:40.45	176.59	6.73	-83.5	-79.0	2.2	0.00e+00	0	49	104	0	60	1048574
2026-01-17 07:12:42.46	176.71	6.56	-83.5	-79.0	2.3	0.00e+00	0	49	104	0	60	1048574
2026-01-17 07:12:44.48	176.84	6.39	-83.1	-79.0	2.0	0.00e+00	0	49	104	0	60	1048570
2026-01-17 07:12:46.49	176.96	6.23	-83.5	-79.0	2.4	0.00e+00	0	49	104	0	60	1048571
2026-01-17 07:12:48.50	177.08	6.06	-83.1	-79.0	2.4	0.00e+00	0	49	104	0	60	1048574
2026-01-17 07:12:50.52	177.20	5.89	-83.5	-79.0	2.5	0.00e+00	0	49	104	0	60	1048575
2026-01-17 07:12:52.54	177.32	5.73	-83.1	-79.0	2.5	0.00e+00	0	49	104	0	60	1048575
2026-01-17 07:12:54.55	177.44	5.57	-83.5	-79.0	2.2	0.00e+00	0	49	104	0	60	1048573
2026-01-17 07:12:56.55	177.55	5.41	-83.5	-79.0	2.4	0.00e+00	0	49	104	0	60	1048572
2026-01-17 07:12:58.56	177.66	5.25	-83.5	-79.0	2.4	0.00e+00	0	49	104	0	60	1048575
2026-01-17 07:13:00.57	177.78	5.09	-83.5	-79.0	2.4	0.00e+00	0	49	104	0	60	1048574
2026-01-17 07:13:02.58	177.89	4.93	-83.1	-79.0	2.5	0.00e+00	0	49	104	0	60	1048575
2026-01-17 07:13:04.60	178.00	4.77	-83.5	-79.0	2.4	0.00e+00	0	49	104	0	60	1048572
2026-01-17 07:13:06.61	178.11	4.62	-83.1	-79.0	2.4	0.00e+00	0	49	104	0	60	1048573
2026-01-17 07:13:08.63	178.21	4.46	-83.5	-79.0	2.5	0.00e+00	0	49	104	0	60	1048575
2026-01-17 07:13:10.64	178.32	4.31	-83.5	-79.0	2.4	0.00e+00	0	49	104	0	60	1048572
2026-01-17 07:13:12.66	178.42	4.16	-83.5	-79.0	2.4	0.00e+00	0	49	104	0	60	1048571
2026-01-17 07:13:14.67	178.52	4.01	-83.5	-79.0	2.4	0.00e+00	0	48	104	0	60	1048574
2026-01-17 07:13:16.67	178.63	3.86	-83.1	-79.0	2.5	0.00e+00	0	49	104	0	60	1048574
2026-01-17 07:13:18.68	178.73	3.71	-83.5	-79.0	2.4	0.00e+00	0	49	104	0	60	1048572
2026-01-17 07:13:20.69	178.82	3.56	-83.1	-79.0	2.6	0.00e+00	0	49	104	0	60	1048573
2026-01-17 07:13:22.70	178.92	3.41	-83.5	-79.0	2.5	0.00e+00	0	49	104	0	60	1048574
2026-01-17 07:13:24.71	179.02	3.27	-83.5	-79.0	2.5	0.00e+00	0	49	104	0	60	1048575
2026-01-17 07:13:26.72	179.11	3.12	-83.1	-79.0	2.5	0.00e+00	0	49	104	0	60	1048575
2026-01-17 07:13:28.73	179.21	2.98	-83.5	-79.0	2.5	0.00e+00	0	49	104	0	60	1048575
2026-01-17 07:13:30.74	179.30	2.84	-83.1	-79.0	2.4	0.00e+00	0	49	104	0	60	1048573
2026-01-17 07:13:32.75	179.39	2.69	-83.5	-79.0	2.4	0.00e+00	0	48	104	0	60	1048572
2026-01-17 07:13:34.76	179.49	2.55	-83.5	-79.0	2.4	0.00e+00	0	49	104	0	60	1048574
2026-01-17 07:13:36.77	179.58	2.41	-83.5	-79.0	2.5	0.00e+00	0	49	104	0	60	1048571
2026-01-17 07:13:38.78	179.67	2.27	-83.5	-79.0	2.5	0.00e+00	0	49	104	0	60	1048572
2026-01-17 07:13:40.79	179.75	2.14	-83.1	-79.0	2.5	0.00e+00	0	49	104	0	60	1048575
2026-01-17 07:13:42.81	179.84	2.00	-83.5	-79.0	2.4	0.00e+00	0	49	104	0	60	1048572
2026-01-17 07:13:44.82	179.93	1.86	-83.1	-79.0	2.4	0.00e+00	0	49	104	0	60	1048574
2026-01-17 07:13:46.83	180.01	1.72	-83.5	-79.0	2.5	0.00e+00	0	49	104	0	60	1048573
2026-01-17 07:13:48.85	180.10	1.59	-83.5	-79.0	2.4	0.00e+00	0	49	104	0	60	1048575
2026-01-17 07:13:50.86	180.18	1.45	-83.5	-79.0	2.4	0.00e+00	0	49	104	0	60	1048575
2026-01-17 07:13:52.87	180.26	1.32	-83.5	-79.0	2.4	0.00e+00	0	49	104	0	60	1048573
2026-01-17 07:13:54.88	180.35	1.19	-83.1	-79.0	2.5	0.00e+00	0	49	104	0	60	1048575
2026-01-17 07:13:56.90	180.43	1.05	-83.5	-79.0	2.3	0.00e+00	0	49	104	0	60	1048573
2026-01-17 07:13:58.92	180.51	0.92	-83.1	-79.0	2.4	0.00e+00	0	49	104	0	60	1048573
2026-01-17 07:14:00.93	180.59	0.79	-83.5	-79.0	2.5	0.00e+00	0	49	104	0	60	1048575
2026-01-17 07:14:02.94	180.67	0.66	-83.5	-79.0	2.5	0.00e+00	0	48	104	0	60	1048570
2026-01-17 07:14:04.96	180.74	0.53	-83.5	-79.0	2.4	0.00e+00	0	49	104	0	60	1048575
2026-01-17 07:14:06.97	180.82	0.40	-83.5	-79.0	2.4	0.00e+00	0	49	104	0	60	1048575
2026-01-17 07:14:08.98	180.90	0.28	-83.1	-79.0	2.3	0.00e+00	0	48	104	0	60	1048573
2026-01-17 07:14:10.99	180.97	0.15	-83.5	-79.0	2.2	0.00e+00	0	49	104	0	60	1048573
2026-01-17 07:14:13.01	181.05	0.02	-83.5	-79.0	2.5	0.00e+00	0	48	104	0	60	1048575

#Closed at: 2026-01-17 07:14:14
#Recorded file [0 MB]: D:/Data/35015_260117_100736.dat