passes_logs/2026/01/17/R3.2S-Naryan-Mar/R3.2S-Naryan-Mar__20260117_113811_AQUA_rec.log

#Pass ID: 20260117_113811_AQUA
#Satellite: AQUA
#Configuration: AQUA
#almurnet v.1.7.20240730
#Start time: 2026-01-17 11:46:52

#Version: 2.2.20231116
#Station: R3.2S-Naryan-Mar
#Location: 53.008057 lon 67.646978 lat
#TLE: 1 27424U 02022A   26016.26443506  .00000711  00000+0  15228-3 0  9999
#TLE: 2 27424  98.4083 342.7130 0002022  76.7284  27.4473 14.61823291261073

#Time	Az	El	Level	Level2	SNR	BER	BlckErr	Temp	State	Recorded	gain1	gain2
2026-01-17 11:46:52.67	309.41	21.75	-83.1	-79.0	2.3	0.00e+00	0	48	0	0	60	1048573
2026-01-17 11:46:54.67	309.88	21.54	-83.9	-88.8	2.5	6.30e+00	0	48	104	0	60	1048568
2026-01-17 11:46:56.69	310.35	21.34	-84.3	-88.8	2.4	6.30e+00	0	48	104	0	60	1048568
2026-01-17 11:46:58.70	310.80	21.13	-83.9	-88.8	2.5	6.30e+00	0	48	104	0	60	1048568
2026-01-17 11:47:00.72	311.26	20.92	-84.3	-88.8	2.7	6.30e+00	0	48	104	0	60	1048568
2026-01-17 11:47:02.73	311.70	20.72	-84.3	-88.8	2.6	6.30e+00	0	48	104	0	60	1048568
2026-01-17 11:47:04.74	312.14	20.51	-84.3	-88.8	2.5	6.30e+00	0	48	104	0	60	1048569
2026-01-17 11:47:06.74	312.57	20.31	-84.3	-88.8	2.4	6.30e+00	0	48	104	0	60	1048569
2026-01-17 11:47:08.76	313.00	20.10	-83.9	-88.8	2.7	6.30e+00	0	48	104	0	60	1048569
2026-01-17 11:47:10.77	313.43	19.90	-84.3	-88.8	2.8	6.30e+00	0	48	104	0	60	1048569
2026-01-17 11:47:12.79	313.84	19.69	-83.9	-88.8	2.5	6.30e+00	0	48	104	0	60	1048569
2026-01-17 11:47:14.80	314.25	19.49	-84.3	-88.8	2.5	6.30e+00	0	48	104	0	60	1048569
2026-01-17 11:47:16.81	314.66	19.29	-84.3	-88.8	2.5	6.30e+00	0	48	104	0	60	1048569
2026-01-17 11:47:18.83	315.06	19.08	-84.3	-88.8	2.6	6.30e+00	0	48	104	0	60	1048569
2026-01-17 11:47:20.84	315.45	18.88	-84.3	-88.8	2.6	6.30e+00	0	48	104	0	60	1048569
2026-01-17 11:47:22.85	315.84	18.68	-83.9	-88.8	2.5	6.30e+00	0	48	104	0	60	1048569
2026-01-17 11:47:24.86	316.22	18.48	-84.3	-88.8	2.5	6.30e+00	0	48	104	0	60	1048569
2026-01-17 11:47:26.88	316.60	18.28	-83.9	-88.8	2.6	6.30e+00	0	48	104	0	60	1048569
2026-01-17 11:47:28.89	316.98	18.08	-84.3	-88.8	2.7	6.30e+00	0	48	104	0	60	1048569
2026-01-17 11:47:30.90	317.35	17.88	-84.3	-88.8	2.7	6.30e+00	0	48	104	0	60	1048569
2026-01-17 11:47:32.92	317.71	17.68	-84.3	-88.8	2.7	6.30e+00	0	48	104	0	60	1048569
2026-01-17 11:47:34.93	318.07	17.48	-84.3	-88.8	2.7	6.30e+00	0	48	104	0	60	1048569
2026-01-17 11:47:36.95	318.42	17.29	-83.9	-88.8	2.6	6.30e+00	0	47	104	0	60	1048569
2026-01-17 11:47:38.95	318.77	17.09	-84.3	-88.8	2.7	6.30e+00	0	48	104	0	60	1048569
2026-01-17 11:47:40.96	319.11	16.90	-84.3	-88.8	2.7	6.30e+00	0	48	104	0	60	1048569
2026-01-17 11:47:42.98	319.45	16.70	-84.3	-88.8	2.6	6.30e+00	0	47	104	0	60	1048569
2026-01-17 11:47:44.99	319.79	16.51	-84.3	-88.8	2.6	6.30e+00	0	48	104	0	60	1048569
2026-01-17 11:47:47.00	320.12	16.32	-83.9	-88.8	2.4	6.30e+00	0	48	104	0	60	1048573
2026-01-17 11:47:49.01	320.45	16.12	-84.3	-88.8	2.5	6.30e+00	0	47	104	0	60	1048573
2026-01-17 11:47:51.02	320.77	15.93	-83.9	-88.8	2.4	6.30e+00	0	47	104	0	60	1048573
2026-01-17 11:47:53.04	321.09	15.74	-84.3	-88.8	2.5	6.30e+00	0	48	104	0	60	1048573
2026-01-17 11:47:55.05	321.40	15.55	-84.3	-88.8	2.6	6.30e+00	0	48	104	0	60	1048573
2026-01-17 11:47:57.07	321.71	15.36	-84.3	-88.8	2.5	6.30e+00	0	47	104	0	60	1048573
2026-01-17 11:47:59.07	322.02	15.18	-84.3	-88.8	2.5	6.30e+00	0	47	104	0	60	1048573
2026-01-17 11:48:01.08	322.32	14.99	-83.9	-88.8	2.5	6.30e+00	0	48	104	0	60	1048573
2026-01-17 11:48:03.10	322.62	14.81	-84.3	-88.8	2.5	6.30e+00	0	47	104	0	60	1048573
2026-01-17 11:48:05.11	322.91	14.62	-83.9	-88.8	2.7	6.30e+00	0	47	104	0	60	1048573
2026-01-17 11:48:07.13	323.20	14.44	-84.3	-88.8	2.7	6.30e+00	0	47	104	0	60	1048573
2026-01-17 11:48:09.14	323.49	14.25	-84.3	-88.8	2.4	6.30e+00	0	47	104	0	60	1048573
2026-01-17 11:48:11.15	323.77	14.07	-84.3	-88.8	2.7	6.30e+00	0	47	104	0	60	1048573
2026-01-17 11:48:13.17	324.05	13.89	-84.3	-88.8	2.7	6.30e+00	0	47	104	0	60	1048573
2026-01-17 11:48:15.18	324.33	13.71	-83.9	-88.8	2.5	6.30e+00	0	47	104	0	60	1048573
2026-01-17 11:48:17.20	324.60	13.53	-84.3	-88.8	2.6	6.30e+00	0	47	104	0	60	1048573
2026-01-17 11:48:19.21	324.87	13.35	-83.9	-88.8	2.6	6.30e+00	0	47	104	0	60	1048573
2026-01-17 11:48:21.23	325.14	13.17	-83.9	-88.8	2.4	6.30e+00	0	47	104	0	60	1048573
2026-01-17 11:48:23.24	325.40	13.00	-83.5	-88.8	2.6	6.30e+00	0	47	104	0	60	1048573
2026-01-17 11:48:25.26	325.66	12.82	-83.9	-88.8	2.5	6.30e+00	0	47	104	0	60	1048573
2026-01-17 11:48:27.27	325.91	12.65	-84.3	-88.8	2.5	6.30e+00	0	47	104	0	60	1048573
2026-01-17 11:48:29.29	326.17	12.47	-83.9	-88.8	2.6	6.30e+00	0	47	104	0	60	1048573
2026-01-17 11:48:31.30	326.42	12.30	-84.3	-88.8	2.6	6.30e+00	0	47	104	0	60	1048573
2026-01-17 11:48:33.31	326.66	12.13	-84.3	-88.8	2.5	6.30e+00	0	47	104	0	60	1048573
2026-01-17 11:48:35.33	326.91	11.95	-83.9	-88.8	2.6	6.30e+00	0	47	104	0	60	1048573
2026-01-17 11:48:37.35	327.15	11.78	-84.3	-88.8	2.5	6.30e+00	0	47	104	0	60	1048573
2026-01-17 11:48:39.36	327.39	11.61	-83.9	-88.8	2.6	6.30e+00	0	47	104	0	60	1048573
2026-01-17 11:48:41.38	327.63	11.45	-84.3	-88.8	2.4	6.30e+00	0	47	104	0	60	1048573
2026-01-17 11:48:43.39	327.86	11.28	-83.9	-88.8	2.4	6.30e+00	0	47	104	0	60	1048573
2026-01-17 11:48:45.41	328.09	11.11	-84.3	-88.8	2.5	6.30e+00	0	47	104	0	60	1048573
2026-01-17 11:48:47.42	328.32	10.95	-84.3	-88.8	2.4	6.30e+00	0	47	104	0	60	1048573
2026-01-17 11:48:49.43	328.54	10.78	-83.9	-88.8	2.4	6.30e+00	0	47	104	0	60	1048573
2026-01-17 11:48:51.45	328.76	10.62	-84.3	-88.8	2.7	6.30e+00	0	47	104	0	60	1048573
2026-01-17 11:48:53.47	328.98	10.45	-83.9	-88.8	2.5	6.30e+00	0	47	104	0	60	1048573
2026-01-17 11:48:55.48	329.20	10.29	-84.3	-88.8	2.5	6.30e+00	0	47	104	0	60	1048573
2026-01-17 11:48:57.49	329.41	10.13	-83.9	-88.8	2.7	6.30e+00	0	47	104	0	60	1048573
2026-01-17 11:48:59.50	329.63	9.97	-84.3	-88.8	2.7	6.30e+00	0	47	104	0	60	1048573
2026-01-17 11:49:01.52	329.84	9.81	-83.9	-88.8	2.6	6.30e+00	0	47	104	0	60	1048573
2026-01-17 11:49:03.53	330.04	9.65	-83.9	-88.8	2.7	6.30e+00	0	47	104	0	60	1048573
2026-01-17 11:49:05.53	330.25	9.49	-84.3	-88.8	2.7	6.30e+00	0	47	104	0	60	1048573
2026-01-17 11:49:07.53	330.45	9.34	-83.9	-88.8	2.6	6.30e+00	0	47	104	0	60	1048573
2026-01-17 11:49:09.54	330.65	9.18	-84.3	-88.8	2.6	6.30e+00	0	47	104	0	60	1048573
2026-01-17 11:49:11.55	330.85	9.02	-83.9	-88.8	2.7	6.30e+00	0	47	104	0	60	1048573
2026-01-17 11:49:13.57	331.05	8.87	-84.3	-88.8	2.7	6.30e+00	0	47	104	0	60	1048573
2026-01-17 11:49:15.59	331.24	8.71	-84.3	-88.8	2.7	6.30e+00	0	47	104	0	60	1048573
2026-01-17 11:49:17.60	331.43	8.56	-83.9	-88.8	2.6	6.30e+00	0	47	104	0	60	1048573
2026-01-17 11:49:19.62	331.62	8.41	-84.3	-88.8	2.5	6.30e+00	0	47	104	0	60	1048573
2026-01-17 11:49:21.63	331.81	8.26	-83.9	-88.8	2.6	6.30e+00	0	47	104	0	60	1048573
2026-01-17 11:49:23.64	332.00	8.11	-84.3	-88.8	2.7	6.30e+00	0	47	104	0	60	1048573
2026-01-17 11:49:25.65	332.18	7.96	-83.9	-88.8	2.7	6.30e+00	0	47	104	0	60	1048573
2026-01-17 11:49:27.67	332.36	7.81	-83.9	-88.8	2.6	6.30e+00	0	47	104	0	60	1048573
2026-01-17 11:49:29.68	332.54	7.66	-84.3	-88.8	2.8	6.30e+00	0	47	104	0	60	1048573
2026-01-17 11:49:31.70	332.72	7.51	-84.3	-88.8	2.5	6.30e+00	0	47	104	0	60	1048573
2026-01-17 11:49:33.72	332.90	7.36	-83.9	-88.8	2.6	6.30e+00	0	47	104	0	60	1048573
2026-01-17 11:49:35.73	333.07	7.22	-83.9	-88.8	2.8	6.30e+00	0	47	104	0	60	1048573
2026-01-17 11:49:37.74	333.25	7.07	-84.3	-88.8	2.9	6.30e+00	0	47	104	0	60	1048573
2026-01-17 11:49:39.75	333.42	6.93	-84.3	-88.8	2.7	6.30e+00	0	47	104	0	60	1048573
2026-01-17 11:49:41.77	333.59	6.78	-83.9	-88.8	2.5	6.30e+00	0	47	104	0	60	1048573
2026-01-17 11:49:43.78	333.75	6.64	-84.3	-88.8	2.5	6.30e+00	0	47	104	0	60	1048573
2026-01-17 11:49:45.80	333.92	6.50	-84.3	-88.8	2.5	6.30e+00	0	47	104	0	60	1048573
2026-01-17 11:49:47.82	334.08	6.35	-84.3	-88.8	2.5	6.30e+00	0	47	104	0	60	1048573
2026-01-17 11:49:49.82	334.25	6.21	-83.9	-88.8	2.6	6.30e+00	0	47	104	0	60	1048573
2026-01-17 11:49:51.83	334.41	6.07	-84.3	-88.8	2.4	6.30e+00	0	47	104	0	60	1048573
2026-01-17 11:49:53.84	334.57	5.93	-84.3	-88.8	2.6	6.30e+00	0	47	104	0	60	1048573
2026-01-17 11:49:55.85	334.72	5.79	-84.3	-88.8	2.5	6.30e+00	0	47	104	0	60	1048573
2026-01-17 11:49:57.87	334.88	5.65	-84.3	-88.8	2.5	6.30e+00	0	47	104	0	60	1048573
2026-01-17 11:49:59.89	335.04	5.52	-83.9	-88.8	2.7	6.30e+00	0	47	104	0	60	1048573
2026-01-17 11:50:01.90	335.19	5.38	-84.3	-88.8	2.7	6.30e+00	0	47	104	0	60	1048573
2026-01-17 11:50:03.92	335.34	5.24	-84.3	-88.8	2.6	6.30e+00	0	47	104	0	60	1048573
2026-01-17 11:50:05.93	335.49	5.11	-84.3	-88.8	2.6	6.30e+00	0	47	104	0	60	1048568
2026-01-17 11:50:07.94	335.64	4.97	-84.3	-88.8	2.4	6.30e+00	0	47	104	0	60	1048568
2026-01-17 11:50:09.95	335.79	4.84	-83.9	-88.8	2.5	6.30e+00	0	47	104	0	60	1048568
2026-01-17 11:50:11.96	335.93	4.70	-84.3	-88.8	2.6	6.30e+00	0	47	104	0	60	1048568
2026-01-17 11:50:13.97	336.08	4.57	-83.9	-88.8	2.5	6.30e+00	0	47	104	0	60	1048568
2026-01-17 11:50:15.98	336.22	4.44	-84.3	-88.8	2.4	6.30e+00	0	47	104	0	60	1048568
2026-01-17 11:50:18.00	336.37	4.30	-83.9	-88.8	2.6	6.30e+00	0	47	104	0	60	1048568
2026-01-17 11:50:20.01	336.51	4.17	-84.3	-88.8	2.6	6.30e+00	0	47	104	0	60	1048575
2026-01-17 11:50:22.02	336.65	4.04	-84.3	-88.8	2.6	6.30e+00	0	47	104	0	60	1048575
2026-01-17 11:50:24.04	336.78	3.91	-83.9	-88.8	2.6	6.30e+00	0	47	104	0	60	1048575
2026-01-17 11:50:26.05	336.92	3.78	-84.3	-88.8	2.6	6.30e+00	0	47	104	0	60	1048575
2026-01-17 11:50:28.05	337.06	3.65	-83.9	-88.8	2.5	6.30e+00	0	47	104	0	60	1048575
2026-01-17 11:50:30.06	337.19	3.52	-84.3	-88.8	2.6	6.30e+00	0	47	104	0	60	1048575
2026-01-17 11:50:32.07	337.32	3.39	-84.3	-88.8	2.4	6.30e+00	0	47	104	0	60	1048575
2026-01-17 11:50:34.09	337.46	3.27	-84.3	-88.8	2.6	6.30e+00	0	47	104	0	60	1048575
2026-01-17 11:50:36.10	337.59	3.14	-84.3	-88.8	2.6	6.30e+00	0	47	104	0	60	1048575
2026-01-17 11:50:38.12	337.72	3.01	-83.9	-88.8	2.5	6.30e+00	0	47	104	0	60	1048575
2026-01-17 11:50:40.13	337.85	2.89	-84.3	-88.8	2.7	6.30e+00	0	47	104	0	60	1048575
2026-01-17 11:50:42.14	337.98	2.76	-83.9	-88.8	2.6	6.30e+00	0	47	104	0	60	1048575
2026-01-17 11:50:44.16	338.10	2.64	-84.3	-88.8	2.7	6.30e+00	0	47	104	0	60	1048575
2026-01-17 11:50:46.17	338.23	2.51	-84.3	-88.8	2.6	6.30e+00	0	47	104	0	60	1048575
2026-01-17 11:50:48.18	338.35	2.39	-84.3	-88.8	2.5	6.30e+00	0	47	104	0	60	1048575
2026-01-17 11:50:50.20	338.48	2.26	-84.3	-88.8	2.5	6.30e+00	0	47	104	0	60	1048575
2026-01-17 11:50:52.21	338.60	2.14	-83.9	-88.8	2.6	6.30e+00	0	47	104	0	60	1048575
2026-01-17 11:50:54.23	338.72	2.02	-84.3	-88.8	2.5	6.30e+00	0	47	104	0	60	1048575
2026-01-17 11:50:56.25	338.84	1.89	-83.9	-88.8	2.6	6.30e+00	0	47	104	0	60	1048575
2026-01-17 11:50:58.26	338.96	1.77	-84.3	-88.8	2.6	6.30e+00	0	47	104	0	60	1048575
2026-01-17 11:51:00.27	339.08	1.65	-84.3	-88.8	2.6	6.30e+00	0	47	104	0	60	1048575
2026-01-17 11:51:02.29	339.20	1.53	-84.3	-88.8	2.6	6.30e+00	0	47	104	0	60	1048575
2026-01-17 11:51:04.29	339.31	1.41	-84.3	-88.8	2.5	6.30e+00	0	47	104	0	60	1048575
2026-01-17 11:51:06.31	339.43	1.29	-83.9	-88.8	2.5	6.30e+00	0	47	104	0	60	1048575
2026-01-17 11:51:08.32	339.54	1.17	-84.3	-88.8	2.4	6.30e+00	0	47	104	0	60	1048575
2026-01-17 11:51:10.34	339.66	1.05	-83.9	-88.8	2.4	6.30e+00	0	47	104	0	60	1048575
2026-01-17 11:51:12.35	339.77	0.94	-84.3	-88.8	2.4	6.30e+00	0	47	104	0	60	1048575
2026-01-17 11:51:14.36	339.88	0.82	-84.3	-88.8	2.5	6.30e+00	0	47	104	0	60	1048575
2026-01-17 11:51:16.38	339.99	0.70	-84.3	-88.8	2.4	6.30e+00	0	47	104	0	60	1048575
2026-01-17 11:51:18.39	340.10	0.58	-84.3	-88.8	2.6	6.30e+00	0	47	104	0	60	1048575
2026-01-17 11:51:20.41	340.21	0.47	-83.9	-88.8	2.6	6.30e+00	0	47	104	0	60	1048575
2026-01-17 11:51:22.42	340.32	0.35	-84.3	-88.8	2.5	6.30e+00	0	47	104	0	60	1048575
2026-01-17 11:51:24.44	340.43	0.23	-84.3	-88.8	2.6	6.30e+00	0	47	104	0	60	1048575
2026-01-17 11:51:26.45	340.54	0.12	-84.3	-88.8	2.7	6.30e+00	0	47	104	0	60	1048575
2026-01-17 11:51:28.47	340.64	0.00	-84.3	-88.8	2.6	6.30e+00	0	47	104	0	60	1048575

#Closed at: 2026-01-17 11:51:29
#Recorded file [0 MB]: D:/Data/35015_260117_144652.dat