passes_logs/2026/01/17/R3.2S-Naryan-Mar/R3.2S-Naryan-Mar__20260117_173448_TY-39_rec.log

#Pass ID: 20260117_173448_TY-39
#Satellite: TY-39
#Configuration: TY-39
#almurnet v.1.7.20240730
#Start time: 2026-01-17 17:41:27

#Version: 2.2.20231116
#Station: R3.2S-Naryan-Mar
#Location: 53.008057 lon 67.646978 lat
#TLE: 1 51832U 22019J   26016.93397770  .00000681  00000-0  35057-4 0  9992
#TLE: 2 51832  97.3651  83.5773 0009934  46.4665 313.7394 15.19639081214821

#Time	Az	El	Level	Level2	SNR	BER	BlckErr	Temp	State	Recorded	gain1	gain2
2026-01-17 17:41:27.52	303.86	39.93	-83.5	-79.0	2.4	0.00e+00	0	48	0	0	60	1048573
2026-01-17 17:41:29.52	304.89	39.35	-83.5	-79.0	2.4	0.00e+00	0	49	104	0	60	1048574
2026-01-17 17:41:31.54	305.89	38.76	-83.1	-79.0	2.4	0.00e+00	0	49	104	0	60	1048570
2026-01-17 17:41:33.55	306.85	38.18	-83.5	-79.0	2.4	0.00e+00	0	49	104	0	60	1048568
2026-01-17 17:41:35.57	307.78	37.60	-83.5	-79.0	2.6	0.00e+00	0	49	104	0	60	1048571
2026-01-17 17:41:37.58	308.68	37.02	-83.5	-79.0	2.3	0.00e+00	0	49	104	0	60	1048572
2026-01-17 17:41:39.59	309.54	36.45	-83.5	-79.0	2.4	0.00e+00	0	49	104	0	60	1048573
2026-01-17 17:41:41.61	310.37	35.89	-83.1	-79.0	2.4	0.00e+00	0	49	104	0	60	1048575
2026-01-17 17:41:43.62	311.17	35.33	-83.5	-79.0	2.4	0.00e+00	0	49	104	0	60	1048573
2026-01-17 17:41:45.63	311.94	34.77	-83.1	-79.0	2.4	0.00e+00	0	49	104	0	60	1048574
2026-01-17 17:41:47.65	312.69	34.22	-83.5	-79.0	2.3	0.00e+00	0	49	104	0	60	1048573
2026-01-17 17:41:49.66	313.41	33.68	-83.5	-79.0	2.3	0.00e+00	0	49	104	0	60	1048564
2026-01-17 17:41:51.67	314.10	33.14	-83.1	-79.0	2.4	0.00e+00	0	49	104	0	60	1048572
2026-01-17 17:41:53.68	314.77	32.62	-83.5	-79.0	2.4	0.00e+00	0	49	104	0	60	1048573
2026-01-17 17:41:55.69	315.42	32.09	-83.1	-79.0	2.4	0.00e+00	0	49	104	0	60	1048575
2026-01-17 17:41:57.70	316.05	31.58	-83.5	-79.0	2.4	0.00e+00	0	49	104	0	60	1048575
2026-01-17 17:41:59.72	316.65	31.07	-83.1	-79.0	2.4	0.00e+00	0	49	104	0	60	1048575
2026-01-17 17:42:01.73	317.24	30.57	-83.5	-79.0	2.4	0.00e+00	0	49	104	0	60	1048572
2026-01-17 17:42:03.75	317.81	30.07	-83.5	-79.0	2.4	0.00e+00	0	49	104	0	60	1048570
2026-01-17 17:42:05.75	318.36	29.59	-83.5	-79.0	2.3	0.00e+00	0	49	104	0	60	1048574
2026-01-17 17:42:07.76	318.89	29.11	-83.5	-79.0	2.4	0.00e+00	0	49	104	0	60	1048575
2026-01-17 17:42:09.78	319.41	28.64	-83.1	-79.0	2.5	0.00e+00	0	49	104	0	60	1048575
2026-01-17 17:42:11.79	319.90	28.18	-83.1	-79.0	2.3	0.00e+00	0	49	104	0	60	1048573
2026-01-17 17:42:13.81	320.39	27.72	-83.5	-79.0	2.4	0.00e+00	0	49	104	0	60	1048575
2026-01-17 17:42:15.83	320.86	27.26	-83.1	-79.0	2.4	0.00e+00	0	49	104	0	60	1048575
2026-01-17 17:42:17.83	321.32	26.82	-83.1	-79.0	2.5	0.00e+00	0	49	104	0	60	1048560
2026-01-17 17:42:19.85	321.76	26.39	-83.1	-79.0	2.4	0.00e+00	0	49	104	0	60	1048575
2026-01-17 17:42:21.87	322.19	25.96	-83.5	-79.0	2.4	0.00e+00	0	49	104	0	60	1048574
2026-01-17 17:42:23.88	322.61	25.53	-83.1	-79.0	2.4	0.00e+00	0	49	104	0	60	1048571
2026-01-17 17:42:25.90	323.02	25.12	-83.5	-79.0	2.4	0.00e+00	0	49	104	0	60	1048572
2026-01-17 17:42:27.91	323.41	24.71	-83.5	-79.0	2.4	0.00e+00	0	49	104	0	60	1048573
2026-01-17 17:42:29.93	323.79	24.30	-83.5	-79.0	2.5	0.00e+00	0	49	104	0	60	1048572
2026-01-17 17:42:31.94	324.17	23.91	-83.5	-79.0	2.5	0.00e+00	0	49	104	0	60	1048575
2026-01-17 17:42:33.95	324.53	23.52	-83.1	-79.0	2.3	0.00e+00	0	49	104	0	60	1048573
2026-01-17 17:42:35.96	324.88	23.13	-83.5	-79.0	2.4	0.00e+00	0	49	104	0	60	1048575
2026-01-17 17:42:37.97	325.23	22.76	-83.5	-79.0	2.3	0.00e+00	0	49	104	0	60	1048574
2026-01-17 17:42:39.99	325.56	22.38	-83.5	-79.0	2.4	0.00e+00	0	49	104	0	60	1048571
2026-01-17 17:42:42.01	325.89	22.01	-83.5	-79.0	2.3	0.00e+00	0	49	104	0	60	1048572
2026-01-17 17:42:44.02	326.21	21.65	-83.5	-79.0	2.3	0.00e+00	0	49	104	0	60	1048564
2026-01-17 17:42:46.04	326.52	21.30	-83.5	-79.0	2.5	0.00e+00	0	49	104	0	60	1048573
2026-01-17 17:42:48.06	326.82	20.95	-82.8	-79.0	2.4	0.00e+00	0	49	104	0	60	1048575
2026-01-17 17:42:50.06	327.11	20.60	-83.5	-79.0	2.3	0.00e+00	0	49	104	0	60	1048575
2026-01-17 17:42:52.07	327.40	20.27	-83.5	-79.0	2.5	0.00e+00	0	49	104	0	60	1048573
2026-01-17 17:42:54.08	327.68	19.93	-83.5	-79.0	2.5	0.00e+00	0	49	104	0	60	1048574
2026-01-17 17:42:56.09	327.96	19.60	-83.5	-79.0	2.4	0.00e+00	0	49	104	0	60	1048575
2026-01-17 17:42:58.09	328.22	19.28	-83.1	-79.0	2.5	0.00e+00	0	49	104	0	60	1048575
2026-01-17 17:43:00.10	328.48	18.96	-83.5	-79.0	2.4	0.00e+00	0	49	104	0	60	1048572
2026-01-17 17:43:02.11	328.74	18.65	-83.1	-79.0	2.4	0.00e+00	0	49	104	0	60	1048572
2026-01-17 17:43:04.12	328.99	18.34	-83.5	-79.0	2.3	0.00e+00	0	49	104	0	60	1048574
2026-01-17 17:43:06.13	329.23	18.03	-83.5	-79.0	2.4	0.00e+00	0	49	104	0	60	1048575
2026-01-17 17:43:08.14	329.47	17.73	-83.5	-79.0	2.4	0.00e+00	0	49	104	0	60	1048571
2026-01-17 17:43:10.15	329.70	17.43	-83.1	-79.0	2.5	0.00e+00	0	49	104	0	60	1048570
2026-01-17 17:43:12.16	329.93	17.14	-83.1	-79.0	2.4	0.00e+00	0	49	104	0	60	1048572
2026-01-17 17:43:14.17	330.16	16.85	-83.5	-79.0	2.5	0.00e+00	0	49	104	0	60	1048572
2026-01-17 17:43:16.17	330.37	16.57	-83.5	-79.0	2.4	0.00e+00	0	49	104	0	60	1048574
2026-01-17 17:43:18.18	330.59	16.29	-83.5	-79.0	2.4	0.00e+00	0	49	104	0	60	1048575
2026-01-17 17:43:20.19	330.80	16.01	-83.5	-79.0	2.3	0.00e+00	0	49	104	0	60	1048575
2026-01-17 17:43:22.20	331.00	15.74	-83.1	-79.0	2.3	0.00e+00	0	49	104	0	60	1048575
2026-01-17 17:43:24.21	331.20	15.47	-83.5	-79.0	2.4	0.00e+00	0	49	104	0	60	1048574
2026-01-17 17:43:26.21	331.40	15.21	-82.8	-79.0	2.4	0.00e+00	0	49	104	0	60	1048574
2026-01-17 17:43:28.23	331.59	14.94	-83.1	-79.0	2.4	0.00e+00	0	49	104	0	60	1048573
2026-01-17 17:43:30.23	331.78	14.68	-83.1	-79.0	2.5	0.00e+00	0	49	104	0	60	1048574
2026-01-17 17:43:32.25	331.97	14.43	-83.5	-79.0	2.4	0.00e+00	0	49	104	0	60	1048575
2026-01-17 17:43:34.26	332.15	14.17	-83.1	-79.0	2.3	0.00e+00	0	49	104	0	60	1048571
2026-01-17 17:43:36.28	332.33	13.92	-83.5	-79.0	2.4	0.00e+00	0	49	104	0	60	1048555
2026-01-17 17:43:38.29	332.51	13.68	-83.5	-79.0	2.3	0.00e+00	0	49	104	0	60	1048575
2026-01-17 17:43:40.30	332.68	13.43	-83.1	-79.0	2.4	0.00e+00	0	49	104	0	60	1048571
2026-01-17 17:43:42.30	332.85	13.19	-83.5	-79.0	2.4	0.00e+00	0	49	104	0	60	1048568
2026-01-17 17:43:44.32	333.01	12.96	-83.5	-79.0	2.3	0.00e+00	0	49	104	0	60	1048575
2026-01-17 17:43:46.33	333.18	12.72	-83.1	-79.0	2.4	0.00e+00	0	49	104	0	60	1048573
2026-01-17 17:43:48.34	333.34	12.49	-83.5	-79.0	2.4	0.00e+00	0	49	104	0	60	1048574
2026-01-17 17:43:50.36	333.50	12.26	-83.1	-79.0	2.5	0.00e+00	0	49	104	0	60	1048569
2026-01-17 17:43:52.37	333.65	12.03	-83.1	-79.0	2.3	0.00e+00	0	49	104	0	60	1048572
2026-01-17 17:43:54.39	333.80	11.81	-83.1	-79.0	2.4	0.00e+00	0	49	104	0	60	1048565
2026-01-17 17:43:56.41	333.95	11.59	-83.5	-79.0	2.4	0.00e+00	0	49	104	0	60	1048575
2026-01-17 17:43:58.41	334.10	11.37	-83.5	-79.0	2.4	0.00e+00	0	49	104	0	60	1048575
2026-01-17 17:44:00.43	334.24	11.15	-83.5	-79.0	2.4	0.00e+00	0	49	104	0	60	1048575
2026-01-17 17:44:02.44	334.39	10.94	-83.5	-79.0	2.4	0.00e+00	0	49	104	0	60	1048570
2026-01-17 17:44:04.46	334.53	10.72	-83.1	-79.0	2.4	0.00e+00	0	49	104	0	60	1048575
2026-01-17 17:44:06.47	334.66	10.52	-83.5	-79.0	2.4	0.00e+00	0	49	104	0	60	1048575
2026-01-17 17:44:08.48	334.80	10.31	-83.1	-79.0	2.4	0.00e+00	0	49	104	0	60	1048575
2026-01-17 17:44:10.50	334.93	10.10	-83.5	-79.0	2.5	0.00e+00	0	49	104	0	60	1048573
2026-01-17 17:44:12.52	335.06	9.90	-83.5	-79.0	2.3	0.00e+00	0	49	104	0	60	1048574
2026-01-17 17:44:14.53	335.19	9.70	-83.5	-79.0	2.3	0.00e+00	0	49	104	0	60	1048566
2026-01-17 17:44:16.54	335.32	9.50	-83.5	-79.0	2.3	0.00e+00	0	49	104	0	60	1048575
2026-01-17 17:44:18.55	335.44	9.30	-82.8	-79.0	2.5	0.00e+00	0	49	104	0	60	1048572
2026-01-17 17:44:20.57	335.57	9.11	-83.5	-79.0	2.3	0.00e+00	0	49	104	0	60	1048575
2026-01-17 17:44:22.58	335.69	8.91	-83.1	-79.0	2.3	0.00e+00	0	49	104	0	60	1048573
2026-01-17 17:44:24.60	335.81	8.72	-83.5	-79.0	2.4	0.00e+00	0	49	104	0	60	1048572
2026-01-17 17:44:26.62	335.92	8.53	-83.5	-79.0	2.4	0.00e+00	0	49	104	0	60	1048574
2026-01-17 17:44:28.63	336.04	8.35	-83.1	-79.0	2.4	0.00e+00	0	49	104	0	60	1048574
2026-01-17 17:44:30.64	336.15	8.16	-83.5	-79.0	2.4	0.00e+00	0	49	104	0	60	1048570
2026-01-17 17:44:32.65	336.27	7.98	-82.8	-79.0	2.3	0.00e+00	0	49	104	0	60	1048574
2026-01-17 17:44:34.66	336.38	7.79	-83.5	-79.0	2.4	0.00e+00	0	49	104	0	60	1048570
2026-01-17 17:44:36.67	336.49	7.61	-83.5	-79.0	2.4	0.00e+00	0	49	104	0	60	1048574
2026-01-17 17:44:38.68	336.59	7.44	-83.5	-79.0	2.4	0.00e+00	0	49	104	0	60	1048573
2026-01-17 17:44:40.69	336.70	7.26	-83.5	-79.0	2.4	0.00e+00	0	49	104	0	60	1048561
2026-01-17 17:44:42.71	336.80	7.08	-83.1	-79.0	2.4	0.00e+00	0	49	104	0	60	1048574
2026-01-17 17:44:44.72	336.91	6.91	-83.1	-79.0	2.4	0.00e+00	0	49	104	0	60	1048575
2026-01-17 17:44:46.74	337.01	6.74	-83.1	-79.0	2.4	0.00e+00	0	49	104	0	60	1048573
2026-01-17 17:44:48.75	337.11	6.56	-83.5	-79.0	2.3	0.00e+00	0	49	104	0	60	1048575
2026-01-17 17:44:50.76	337.21	6.39	-83.5	-79.0	2.4	0.00e+00	0	49	104	0	60	1048570
2026-01-17 17:44:52.77	337.31	6.23	-83.5	-79.0	2.4	0.00e+00	0	49	104	0	60	1048575
2026-01-17 17:44:54.78	337.40	6.06	-83.5	-79.0	2.4	0.00e+00	0	49	104	0	60	1048573
2026-01-17 17:44:56.80	337.50	5.89	-82.8	-79.0	2.4	0.00e+00	0	49	104	0	60	1048574
2026-01-17 17:44:58.81	337.59	5.73	-83.5	-79.0	2.3	0.00e+00	0	49	104	0	60	1048574
2026-01-17 17:45:00.82	337.69	5.57	-83.1	-79.0	2.5	0.00e+00	0	49	104	0	60	1048572
2026-01-17 17:45:02.83	337.78	5.41	-83.5	-79.0	2.3	0.00e+00	0	49	104	0	60	1048575
2026-01-17 17:45:04.85	337.87	5.24	-83.5	-79.0	2.5	0.00e+00	0	49	104	0	60	1048571
2026-01-17 17:45:06.86	337.96	5.09	-83.1	-79.0	2.4	0.00e+00	0	49	104	0	60	1048573
2026-01-17 17:45:08.87	338.05	4.93	-83.5	-79.0	2.4	0.00e+00	0	49	104	0	60	1048573
2026-01-17 17:45:10.88	338.14	4.77	-82.8	-79.0	2.4	0.00e+00	0	49	104	0	60	1048574
2026-01-17 17:45:12.89	338.22	4.62	-83.5	-79.0	2.4	0.00e+00	0	49	104	0	60	1048573
2026-01-17 17:45:14.91	338.31	4.46	-83.5	-79.0	2.4	0.00e+00	0	49	104	0	60	1048575
2026-01-17 17:45:16.92	338.39	4.31	-83.5	-79.0	2.3	0.00e+00	0	49	104	0	60	1048572
2026-01-17 17:45:18.94	338.47	4.16	-83.5	-79.0	2.4	0.00e+00	0	49	104	0	60	1048568
2026-01-17 17:45:20.96	338.56	4.00	-83.1	-79.0	2.3	0.00e+00	0	49	104	0	60	1048575
2026-01-17 17:45:22.97	338.64	3.85	-83.5	-79.0	2.4	0.00e+00	0	49	104	0	60	1048575
2026-01-17 17:45:24.99	338.72	3.70	-83.1	-79.0	2.4	0.00e+00	0	49	104	0	60	1048573
2026-01-17 17:45:27.00	338.80	3.56	-83.5	-79.0	2.4	0.00e+00	0	49	104	0	60	1048570
2026-01-17 17:45:29.01	338.88	3.41	-83.5	-79.0	2.5	0.00e+00	0	49	104	0	60	1048574
2026-01-17 17:45:31.03	338.96	3.26	-83.5	-79.0	2.5	0.00e+00	0	49	104	0	60	1048570
2026-01-17 17:45:33.04	339.03	3.12	-83.5	-79.0	2.4	0.00e+00	0	49	104	0	60	1048572
2026-01-17 17:45:35.05	339.11	2.98	-83.1	-79.0	2.4	0.00e+00	0	49	104	0	60	1048572
2026-01-17 17:45:37.07	339.18	2.83	-83.5	-79.0	2.5	0.00e+00	0	49	104	0	60	1048575
2026-01-17 17:45:39.09	339.26	2.69	-83.1	-79.0	2.3	0.00e+00	0	49	104	0	60	1048573
2026-01-17 17:45:41.09	339.33	2.55	-83.5	-79.0	2.5	0.00e+00	0	49	104	0	60	1048575
2026-01-17 17:45:43.10	339.40	2.41	-83.1	-79.0	2.4	0.00e+00	0	49	104	0	60	1048571
2026-01-17 17:45:45.11	339.48	2.27	-83.5	-79.0	2.4	0.00e+00	0	49	104	0	60	1048574
2026-01-17 17:45:47.12	339.55	2.13	-83.5	-79.0	2.4	0.00e+00	0	49	104	0	60	1048571
2026-01-17 17:45:49.13	339.62	2.00	-82.8	-79.0	2.4	0.00e+00	0	49	104	0	60	1048573
2026-01-17 17:45:51.15	339.69	1.86	-83.5	-79.0	2.5	0.00e+00	0	49	104	0	60	1048575
2026-01-17 17:45:53.16	339.76	1.72	-83.1	-79.0	2.5	0.00e+00	0	49	104	0	60	1048566
2026-01-17 17:45:55.17	339.83	1.59	-83.5	-79.0	2.5	0.00e+00	0	49	104	0	60	1048573
2026-01-17 17:45:57.18	339.89	1.45	-83.5	-79.0	2.5	0.00e+00	0	49	104	0	60	1048574
2026-01-17 17:45:59.19	339.96	1.32	-83.1	-79.0	2.3	0.00e+00	0	49	104	0	60	1048575
2026-01-17 17:46:01.20	340.03	1.19	-83.5	-79.0	2.4	0.00e+00	0	49	104	0	60	1048572
2026-01-17 17:46:03.21	340.09	1.06	-83.1	-79.0	2.4	0.00e+00	0	49	104	0	60	1048575
2026-01-17 17:46:05.23	340.16	0.92	-83.5	-79.0	2.5	0.00e+00	0	49	104	0	60	1048574
2026-01-17 17:46:07.25	340.22	0.79	-83.5	-79.0	2.4	0.00e+00	0	49	104	0	60	1048575
2026-01-17 17:46:09.26	340.29	0.66	-83.1	-79.0	2.5	0.00e+00	0	49	104	0	60	1048573
2026-01-17 17:46:11.26	340.35	0.54	-83.5	-79.0	2.4	0.00e+00	0	49	104	0	60	1048569
2026-01-17 17:46:13.27	340.41	0.41	-82.8	-79.0	2.4	0.00e+00	0	49	104	0	60	1048572
2026-01-17 17:46:15.28	340.47	0.28	-83.5	-79.0	2.3	0.00e+00	0	49	104	0	60	1048572
2026-01-17 17:46:17.30	340.53	0.15	-82.8	-79.0	2.4	0.00e+00	0	49	104	0	60	1048572
2026-01-17 17:46:19.30	340.60	0.03	-83.5	-79.0	2.5	0.00e+00	0	49	104	0	60	1048575

#Closed at: 2026-01-17 17:46:20
#Recorded file [0 MB]: D:/Data/35015_260117_204127.dat