passes_logs/2026/01/27/R2M6_AANII_01/R2M6_AANII_01__20260127_225127_SUOMI_NPP_rec.log

#Pass ID: 20260127_225127_SUOMI NPP
#Satellite: SUOMI NPP
#Configuration: NPP
#almurnet v.1.7.20240730
#Start time: 2026-01-27 22:51:27

#Version: 2.2.20231116
#Station: R2M6_AANII_01
#Location: 30.233357 lon 59.946436 lat
#TLE: 1 37849U 11061A   26027.50945616  .00000185  00000+0  10897-3 0  9994
#TLE: 2 37849  98.7823 329.4511 0002105  42.1421 317.9917 14.19530771738482

#Time	Az	El	Level	Level2	SNR	BER	BlckErr	Temp	State	Recorded	gain1	gain2
2026-01-27 22:51:27.00	29.53	6.98	-31.6	-35.2	5.3	1.19e+00	0	40	0	0	23	5483
2026-01-27 22:51:30.02	29.80	7.17	-32.1	-36.7	7.8	9.45e-02	0	41	0	1048576	24	6095
2026-01-27 22:51:33.03	30.08	7.36	-31.8	-36.0	8.8	3.90e-02	0	41	0	7340032	23	5825
2026-01-27 22:51:36.03	30.37	7.55	-31.3	-34.6	10.3	8.55e-03	0	41	0	12582912	22	5238
2026-01-27 22:51:39.05	30.65	7.75	-30.9	-33.3	11.3	2.60e-03	0	41	0	17825792	22	4715
2026-01-27 22:51:42.06	30.95	7.94	-30.9	-33.7	11.4	1.05e-03	0	41	0	24117248	21	4945
2026-01-27 22:51:45.07	31.24	8.14	-30.7	-33.0	11.8	8.13e-04	0	41	0	29360128	21	4689
2026-01-27 22:51:48.08	31.54	8.33	-30.7	-33.1	11.8	1.47e-03	0	41	0	35651584	21	4729
2026-01-27 22:51:51.09	31.84	8.53	-30.8	-33.4	11.6	1.26e-03	0	41	0	40894464	21	4824
2026-01-27 22:51:54.10	32.15	8.73	-30.9	-33.6	11.4	1.08e-03	0	41	0	46137344	21	4914
2026-01-27 22:51:57.11	32.46	8.92	-31.1	-33.7	11.0	1.68e-03	0	41	0	52428800	22	4862
2026-01-27 22:52:00.12	32.77	9.12	-31.3	-34.2	10.7	2.93e-03	0	41	0	57671680	22	5034
2026-01-27 22:52:03.13	33.09	9.32	-31.0	-33.3	11.4	1.63e-03	0	41	0	63963136	22	4703
2026-01-27 22:52:06.14	33.41	9.53	-31.1	-33.7	11.2	1.27e-03	0	41	0	69206016	22	4855
2026-01-27 22:52:09.15	33.74	9.73	-31.0	-33.4	11.5	1.11e-03	0	42	0	74448896	22	4713
2026-01-27 22:52:12.16	34.07	9.93	-31.1	-33.4	11.3	7.85e-04	0	42	0	80740352	22	4740
2026-01-27 22:52:15.17	34.41	10.13	-31.0	-33.4	11.5	9.71e-04	0	42	0	85983232	22	4706
2026-01-27 22:52:18.19	34.75	10.34	-31.1	-33.5	11.4	8.89e-04	0	42	0	91226112	22	4775
2026-01-27 22:52:21.20	35.09	10.55	-31.0	-33.2	11.6	6.13e-04	0	42	0	97517568	22	4638
2026-01-27 22:52:24.20	35.44	10.75	-30.7	-32.5	12.1	3.41e-04	0	42	0	102760448	22	4392
2026-01-27 22:52:27.21	35.79	10.96	-30.4	-32.1	12.7	1.76e-04	0	42	0	109051904	21	4353
2026-01-27 22:52:30.20	36.15	11.17	-30.3	-31.8	12.9	3.28e-05	0	42	0	114294784	21	4263
2026-01-27 22:52:33.21	36.52	11.37	-30.3	-31.7	13.0	3.28e-05	0	42	0	119537664	21	4217
2026-01-27 22:52:36.22	36.88	11.58	-30.4	-31.9	12.9	6.40e-05	0	42	0	125829120	21	4279
2026-01-27 22:52:39.22	37.26	11.79	-30.4	-31.9	12.9	4.04e-05	0	42	0	131072000	21	4295
2026-01-27 22:52:42.24	37.64	12.01	-30.6	-32.6	12.5	1.19e-04	0	42	0	136314880	21	4509
2026-01-27 22:52:45.24	38.02	12.22	-30.3	-31.6	13.1	2.36e-05	0	42	0	142606336	21	4195
2026-01-27 22:52:48.26	38.41	12.43	-30.3	-31.5	13.2	2.89e-05	0	42	0	147849216	21	4164
2026-01-27 22:52:51.27	38.81	12.64	-30.3	-31.6	13.2	2.82e-05	0	42	0	154140672	21	4195
2026-01-27 22:52:54.28	39.21	12.86	-30.5	-32.2	12.7	1.31e-04	0	42	0	159383552	21	4382
2026-01-27 22:52:57.29	39.62	13.07	-30.6	-32.5	12.6	1.24e-04	0	43	0	164626432	21	4465
2026-01-27 22:53:00.30	40.03	13.29	-30.5	-32.2	12.8	8.69e-05	0	42	0	170917888	21	4366
2026-01-27 22:53:03.31	40.45	13.50	-30.6	-32.3	12.8	1.07e-04	0	42	0	176160768	21	4408
2026-01-27 22:53:06.30	40.87	13.72	-30.2	-31.2	13.5	8.30e-06	0	42	0	181403648	21	4059
2026-01-27 22:53:09.30	41.30	13.93	-29.9	-30.6	13.9	5.30e-06	0	42	0	187695104	21	3878
2026-01-27 22:53:12.31	41.73	14.15	-29.9	-31.0	14.0	1.50e-06	0	43	0	192937984	20	4087
2026-01-27 22:53:15.32	42.18	14.37	-29.9	-31.0	14.0	3.00e-06	0	43	0	199229440	20	4089
2026-01-27 22:53:18.34	42.63	14.59	-29.8	-30.8	14.1	3.00e-06	0	43	0	204472320	20	4033
2026-01-27 22:53:21.36	43.08	14.80	-29.8	-30.8	14.1	3.00e-06	0	43	0	209715200	20	4020
2026-01-27 22:53:24.37	43.54	15.02	-30.0	-31.2	13.9	2.20e-06	0	43	0	216006656	20	4133
2026-01-27 22:53:27.38	44.01	15.24	-30.1	-31.6	13.7	6.80e-06	0	43	0	221249536	20	4260
2026-01-27 22:53:30.40	44.49	15.46	-30.3	-31.9	13.5	3.00e-06	0	43	0	227540992	20	4353
2026-01-27 22:53:33.40	44.97	15.68	-30.0	-31.2	13.9	6.10e-06	0	43	0	232783872	20	4141
2026-01-27 22:53:36.40	45.46	15.90	-30.0	-31.1	14.0	3.00e-06	0	43	0	238026752	20	4115
2026-01-27 22:53:39.41	45.95	16.12	-30.0	-31.3	13.9	2.20e-06	0	43	0	244318208	20	4172
2026-01-27 22:53:42.43	46.46	16.34	-29.9	-30.9	14.2	2.20e-06	0	43	0	249561088	20	4035
2026-01-27 22:53:45.44	46.97	16.56	-29.8	-30.7	14.3	0.00e+00	0	43	0	254803968	20	3974
2026-01-27 22:53:48.45	47.49	16.78	-29.7	-30.8	14.6	0.00e+00	0	43	0	261095424	19	4092
2026-01-27 22:53:51.46	48.01	17.00	-29.8	-31.0	14.5	1.50e-06	0	43	0	266338304	19	4160
2026-01-27 22:53:54.47	48.54	17.21	-29.5	-30.5	14.8	7.00e-07	0	43	0	272629760	19	4003
2026-01-27 22:53:57.49	49.09	17.43	-29.6	-30.7	14.7	0.00e+00	0	43	0	277872640	19	4068
2026-01-27 22:54:00.51	49.63	17.65	-29.8	-31.2	14.4	7.00e-07	0	43	0	283115520	19	4221
2026-01-27 22:54:03.53	50.19	17.87	-29.8	-31.2	14.4	7.00e-07	0	43	0	289406976	19	4216
2026-01-27 22:54:06.53	50.75	18.08	-29.8	-31.0	14.6	7.00e-07	0	43	0	294649856	19	4145
2026-01-27 22:54:09.54	51.32	18.30	-29.9	-31.0	14.2	7.00e-07	0	43	0	300941312	20	4058
2026-01-27 22:54:12.55	51.90	18.51	-29.9	-30.8	14.3	1.50e-06	0	43	0	306184192	20	4001
2026-01-27 22:54:15.58	52.49	18.73	-30.1	-31.5	13.8	7.00e-07	0	43	0	311427072	20	4229
2026-01-27 22:54:18.59	53.09	18.94	-30.2	-31.6	13.8	5.30e-06	0	43	0	317718528	20	4232
2026-01-27 22:54:21.58	53.69	19.15	-30.1	-31.4	13.9	3.00e-06	0	43	0	322961408	20	4180
2026-01-27 22:54:24.58	54.30	19.36	-30.1	-31.4	13.9	0.00e+00	0	43	0	329252864	20	4173
2026-01-27 22:54:27.59	54.92	19.57	-30.5	-32.1	13.2	4.42e-05	0	43	0	334495744	21	4291
2026-01-27 22:54:30.60	55.55	19.78	-30.7	-32.5	12.9	2.97e-05	0	43	0	339738624	21	4442
2026-01-27 22:54:33.62	56.18	19.98	-30.2	-31.0	13.9	6.10e-06	0	43	0	346030080	21	3981
2026-01-27 22:54:36.62	56.83	20.18	-30.4	-31.8	13.4	8.30e-06	0	43	0	351272960	21	4197
2026-01-27 22:54:39.63	57.48	20.39	-30.2	-31.3	13.7	8.30e-06	0	43	0	356515840	21	4056
2026-01-27 22:54:42.64	58.14	20.58	-30.3	-31.5	13.6	1.29e-05	0	43	0	362807296	21	4114
2026-01-27 22:54:45.65	58.81	20.78	-31.0	-33.3	12.4	6.40e-05	0	43	0	368050176	21	4686
2026-01-27 22:54:48.66	59.49	20.98	-30.9	-32.7	12.6	1.27e-04	0	43	0	374341632	22	4385
2026-01-27 22:54:51.67	60.18	21.17	-30.7	-32.0	13.0	3.43e-05	0	43	0	379584512	22	4165
2026-01-27 22:54:54.69	60.87	21.36	-30.6	-31.6	13.3	1.29e-05	0	43	0	384827392	22	4056
2026-01-27 22:54:57.69	61.57	21.55	-30.0	-30.7	14.1	2.20e-06	0	43	0	391118848	21	3882
2026-01-27 22:55:00.71	62.29	21.73	-30.5	-31.9	13.3	9.90e-06	0	43	0	396361728	21	4244
2026-01-27 22:55:03.71	63.01	21.91	-30.6	-32.3	13.2	3.05e-05	0	43	0	402653184	21	4348
2026-01-27 22:55:06.71	63.73	22.09	-30.3	-31.4	13.7	3.17e-04	0	43	0	407896064	21	4073
2026-01-27 22:55:09.73	64.47	22.26	-30.5	-32.3	13.4	4.50e-06	0	43	0	413138944	20	4458
2026-01-27 22:55:12.73	65.21	22.43	-31.3	-33.7	11.8	1.06e-04	0	43	0	419430400	22	4744
2026-01-27 22:55:15.73	65.96	22.60	-31.6	-34.1	11.2	2.65e-03	0	43	0	424673280	23	4792
2026-01-27 22:55:18.73	66.72	22.76	-30.4	-31.1	13.6	9.10e-06	0	43	0	429916160	22	3899
2026-01-27 22:55:21.75	67.49	22.92	-30.2	-31.8	13.8	3.46e-04	0	43	0	436207616	20	4283
2026-01-27 22:55:24.76	68.27	23.07	-31.0	-32.8	12.4	6.71e-05	0	43	0	441450496	22	4440
2026-01-27 22:55:27.75	69.04	23.22	-30.6	-31.6	13.3	2.05e-05	0	43	0	446693376	22	4064
2026-01-27 22:55:30.75	69.83	23.36	-30.8	-32.2	12.9	2.63e-04	0	43	0	452984832	22	4242
2026-01-27 22:55:33.76	70.63	23.50	-30.5	-32.0	13.4	4.80e-05	0	43	0	458227712	21	4255
2026-01-27 22:55:36.76	71.43	23.64	-31.5	-34.1	11.6	1.85e-04	0	43	0	464519168	22	4899
2026-01-27 22:55:39.77	72.24	23.77	-32.3	-35.9	9.6	1.16e-02	0	43	0	469762048	24	5453
2026-01-27 22:55:42.78	73.06	23.89	-31.5	-33.3	11.5	8.80e-04	0	43	0	475004928	24	4418
2026-01-27 22:55:45.79	73.88	24.01	-31.6	-33.7	11.2	1.00e-03	0	43	0	481296384	24	4559
2026-01-27 22:55:48.80	74.71	24.13	-31.2	-33.0	12.1	2.88e-04	0	43	0	486539264	23	4399
2026-01-27 22:55:51.81	75.55	24.23	-31.5	-33.7	11.6	7.35e-04	0	43	0	492830720	23	4652
2026-01-27 22:55:54.82	76.39	24.34	-31.6	-34.0	11.3	1.21e-03	0	43	0	498073600	23	4754
2026-01-27 22:55:57.83	77.24	24.43	-31.7	-34.5	11.0	2.15e-03	0	43	0	503316480	23	4945
2026-01-27 22:56:00.84	78.09	24.52	-31.5	-33.9	11.4	1.77e-03	0	43	0	509607936	23	4731
2026-01-27 22:56:03.84	78.94	24.60	-30.6	-31.7	13.3	1.11e-04	0	43	0	514850816	22	4073
2026-01-27 22:56:06.86	79.80	24.68	-29.8	-30.2	14.5	3.80e-06	0	43	0	520093696	21	3743
2026-01-27 22:56:09.86	80.67	24.75	-30.7	-32.6	12.9	1.98e-05	0	43	0	526385152	21	4462
2026-01-27 22:56:12.87	81.53	24.82	-30.5	-32.0	13.4	4.04e-05	0	43	0	531628032	21	4270
2026-01-27 22:56:15.89	82.41	24.87	-30.8	-32.7	12.8	2.67e-05	0	43	0	537919488	21	4512
2026-01-27 22:56:18.89	83.28	24.92	-31.0	-32.8	12.4	1.53e-04	0	43	0	543162368	22	4434
2026-01-27 22:56:21.90	84.16	24.97	-30.8	-32.4	12.8	6.63e-05	0	43	0	548405248	22	4289
2026-01-27 22:56:24.92	85.04	25.01	-30.2	-31.1	14.0	4.50e-06	0	43	0	554696704	21	3984
2026-01-27 22:56:27.91	85.92	25.04	-29.4	-29.5	15.3	8.30e-06	0	43	0	559939584	20	3643
2026-01-27 22:56:30.93	86.80	25.06	-30.1	-31.4	14.1	7.00e-07	0	43	0	565182464	20	4168
2026-01-27 22:56:33.94	87.69	25.07	-30.1	-31.4	14.1	1.50e-06	0	43	0	571473920	20	4164
2026-01-27 22:56:36.94	88.57	25.08	-29.7	-30.4	14.7	7.00e-07	0	43	0	576716800	20	3887
2026-01-27 22:56:39.95	89.45	25.08	-30.0	-31.0	14.3	7.00e-07	0	43	0	583008256	20	4071
2026-01-27 22:56:42.96	90.34	25.08	-30.3	-31.9	13.7	6.10e-06	0	43	0	588251136	20	4320
2026-01-27 22:56:45.97	91.22	25.07	-30.4	-31.7	13.4	1.90e-05	0	43	0	593494016	21	4176
2026-01-27 22:56:48.98	92.11	25.05	-30.6	-32.2	13.2	1.44e-05	0	43	0	599785472	21	4333
2026-01-27 22:56:51.99	92.99	25.02	-29.8	-30.2	14.5	2.36e-05	0	43	0	605028352	21	3755
2026-01-27 22:56:55.00	93.87	24.99	-30.0	-31.1	14.3	7.00e-07	0	43	0	610271232	20	4079
2026-01-27 22:56:58.00	94.75	24.95	-29.8	-30.7	14.5	0.00e+00	0	43	0	616562688	20	3976
2026-01-27 22:57:01.01	95.62	24.90	-29.6	-30.2	14.8	0.00e+00	0	43	0	621805568	20	3825
2026-01-27 22:57:04.02	96.50	24.85	-29.7	-30.3	14.7	0.00e+00	0	43	0	628097024	20	3863
2026-01-27 22:57:07.02	97.37	24.79	-29.4	-29.6	15.1	2.20e-06	0	43	0	633339904	20	3675
2026-01-27 22:57:10.04	98.24	24.72	-29.5	-30.3	14.9	0.00e+00	0	43	0	638582784	19	3947
2026-01-27 22:57:13.04	99.10	24.64	-29.6	-30.5	14.8	0.00e+00	0	43	0	644874240	19	4020
2026-01-27 22:57:16.06	99.96	24.56	-29.6	-30.5	14.9	0.00e+00	0	43	0	650117120	19	4003
2026-01-27 22:57:19.07	100.82	24.48	-29.4	-30.0	15.2	0.00e+00	0	43	0	656408576	19	3887
2026-01-27 22:57:22.08	101.67	24.38	-29.2	-29.6	15.5	0.00e+00	0	43	0	661651456	19	3764
2026-01-27 22:57:25.08	102.51	24.28	-29.4	-30.2	15.1	4.42e-05	0	43	0	666894336	19	3922
2026-01-27 22:57:28.09	103.35	24.18	-29.0	-29.1	15.7	6.33e-05	0	43	0	673185792	19	3654
2026-01-27 22:57:31.09	104.18	24.07	-28.5	-28.8	16.4	1.14e-04	0	43	0	678428672	17	3756
2026-01-27 22:57:34.11	105.01	23.95	-28.7	-29.4	16.1	1.44e-05	0	43	0	683671552	17	3902
2026-01-27 22:57:37.12	105.84	23.83	-28.3	-28.5	16.6	1.85e-04	0	43	0	689963008	17	3674
2026-01-27 22:57:40.12	106.65	23.70	-28.4	-28.8	16.3	0.00e+00	0	43	0	695205888	17	3765
2026-01-27 22:57:43.13	107.46	23.57	-28.8	-29.6	15.9	0.00e+00	0	43	0	701497344	17	3961
2026-01-27 22:57:46.13	108.26	23.43	-27.9	-27.7	17.0	0.00e+00	0	43	0	706740224	17	3484
2026-01-27 22:57:49.14	109.06	23.29	-28.6	-29.2	16.1	7.00e-07	0	43	0	711983104	17	3865
2026-01-27 22:57:52.16	109.85	23.14	-29.0	-29.7	15.5	2.48e-04	0	43	0	718274560	18	3898
2026-01-27 22:57:55.17	110.63	22.98	-28.3	-28.4	16.5	1.82e-04	0	43	0	723517440	17	3671
2026-01-27 22:57:58.18	111.40	22.83	-28.6	-29.2	16.0	0.00e+00	0	43	0	728760320	17	3868
2026-01-27 22:58:01.19	112.17	22.67	-28.5	-29.0	16.2	0.00e+00	0	43	0	735051776	17	3810
2026-01-27 22:58:04.18	112.92	22.50	-29.0	-30.2	15.5	0.00e+00	0	43	0	740294656	17	4129
2026-01-27 22:58:07.19	113.67	22.33	-29.2	-30.3	15.1	0.00e+00	0	43	0	746586112	18	4067
2026-01-27 22:58:10.20	114.42	22.16	-29.6	-30.7	14.6	0.00e+00	0	43	0	751828992	19	4082
2026-01-27 22:58:13.20	115.15	21.98	-29.6	-30.8	14.4	2.66e-04	0	43	0	757071872	19	4137
2026-01-27 22:58:16.21	115.87	21.80	-29.7	-30.9	14.3	0.00e+00	0	43	0	763363328	19	4167
2026-01-27 22:58:19.21	116.59	21.62	-29.3	-30.5	14.9	2.20e-06	0	43	0	768606208	18	4135
2026-01-27 22:58:22.23	117.30	21.43	-30.2	-31.8	13.4	7.60e-06	0	43	0	773849088	20	4356
2026-01-27 22:58:25.24	118.00	21.24	-30.2	-31.3	13.4	2.51e-05	0	43	0	780140544	21	4104
2026-01-27 22:58:28.24	118.69	21.05	-29.0	-29.2	15.5	0.00e+00	0	43	0	785383424	19	3676
2026-01-27 22:58:31.25	119.38	20.86	-28.9	-29.4	15.7	0.00e+00	0	43	0	791674880	18	3815
2026-01-27 22:58:34.26	120.06	20.66	-29.6	-30.8	14.4	1.50e-06	0	43	0	796917760	19	4129
2026-01-27 22:58:37.26	120.72	20.46	-29.8	-31.2	14.2	3.80e-06	0	43	0	802160640	19	4222
2026-01-27 22:58:40.28	121.38	20.26	-29.8	-30.8	14.1	3.80e-06	0	43	0	808452096	20	4020
2026-01-27 22:58:43.29	122.03	20.06	-29.6	-30.3	14.3	0.00e+00	0	43	0	813694976	20	3903
2026-01-27 22:58:46.30	122.68	19.85	-29.7	-30.5	14.3	0.00e+00	0	43	0	818937856	20	3950
2026-01-27 22:58:49.31	123.31	19.64	-30.2	-32.0	13.2	1.29e-05	0	43	0	825229312	20	4415
2026-01-27 22:58:52.33	123.94	19.43	-30.0	-31.2	13.8	8.30e-06	0	43	0	830472192	20	4156
2026-01-27 22:58:55.34	124.56	19.22	-29.8	-30.7	14.1	3.00e-06	0	43	0	836763648	20	3996
2026-01-27 22:58:58.36	125.17	19.01	-30.2	-31.9	13.3	1.06e-05	0	43	0	842006528	20	4367
2026-01-27 22:59:01.37	125.77	18.79	-30.5	-32.4	12.6	7.17e-05	0	43	0	847249408	21	4458
2026-01-27 22:59:04.37	126.36	18.58	-30.9	-33.3	12.0	3.67e-04	0	43	0	853540864	21	4767
2026-01-27 22:59:07.37	126.94	18.37	-30.3	-31.7	13.1	3.28e-05	0	43	0	858783744	21	4205
2026-01-27 22:59:10.38	127.52	18.15	-30.3	-31.8	13.0	4.73e-05	0	43	0	865075200	21	4253
2026-01-27 22:59:13.39	128.09	17.93	-29.6	-30.3	14.1	3.00e-06	0	43	0	870318080	20	3931
2026-01-27 22:59:16.40	128.65	17.71	-29.9	-31.2	13.6	2.20e-06	0	43	0	875560960	20	4178
2026-01-27 22:59:19.41	129.20	17.49	-29.7	-30.6	14.0	5.30e-06	0	43	0	881852416	20	3981
2026-01-27 22:59:22.41	129.75	17.28	-29.2	-29.8	14.8	0.00e+00	0	43	0	887095296	19	3862
2026-01-27 22:59:25.42	130.28	17.06	-29.7	-31.1	14.0	0.00e+00	0	43	0	892338176	19	4228
2026-01-27 22:59:28.44	130.81	16.83	-30.1	-31.7	13.2	2.51e-05	0	43	0	898629632	20	4353
2026-01-27 22:59:31.45	131.34	16.61	-29.7	-30.7	13.8	3.80e-06	0	43	0	903872512	20	4024
2026-01-27 22:59:34.46	131.85	16.39	-29.6	-30.5	14.0	7.00e-07	0	43	0	910163968	20	3969
2026-01-27 22:59:37.48	132.36	16.17	-29.8	-31.3	13.8	2.20e-06	0	43	0	915406848	19	4313
2026-01-27 22:59:40.48	132.86	15.95	-29.4	-30.5	14.3	1.50e-06	0	43	0	920649728	19	4059
2026-01-27 22:59:43.49	133.35	15.73	-29.6	-31.0	13.9	0.00e+00	0	43	0	926941184	19	4207
2026-01-27 22:59:46.48	133.84	15.51	-30.2	-32.2	12.7	8.46e-05	0	43	0	932184064	20	4541
2026-01-27 22:59:49.49	134.32	15.29	-30.6	-33.3	11.3	8.03e-04	0	43	0	937426944	21	4918
2026-01-27 22:59:52.50	134.79	15.07	-30.3	-32.3	12.1	3.96e-04	0	43	0	943718400	21	4533
2026-01-27 22:59:55.51	135.26	14.85	-30.2	-31.7	12.6	6.33e-05	0	43	0	948961280	21	4272
2026-01-27 22:59:58.53	135.72	14.63	-29.8	-31.0	13.4	1.90e-05	0	43	0	955252736	20	4125
2026-01-27 23:00:01.53	136.17	14.41	-29.6	-30.5	13.7	9.10e-06	0	43	0	960495616	20	4002
2026-01-27 23:00:04.53	136.61	14.19	-29.4	-29.9	14.0	1.50e-06	0	43	0	965738496	20	3841
2026-01-27 23:00:07.54	137.05	13.97	-29.6	-31.1	13.6	5.30e-06	0	43	0	972029952	19	4271
2026-01-27 23:00:10.55	137.49	13.75	-30.0	-31.8	12.7	4.88e-05	0	43	0	977272832	20	4411
2026-01-27 23:00:13.56	137.92	13.53	-30.3	-32.7	12.1	1.91e-04	0	43	0	983564288	20	4728
2026-01-27 23:00:16.58	138.34	13.31	-30.3	-32.7	12.1	3.84e-04	0	43	0	988807168	20	4741
2026-01-27 23:00:19.59	138.75	13.10	-30.1	-32.2	12.4	1.67e-04	0	43	0	994050048	20	4553
2026-01-27 23:00:22.60	139.16	12.88	-30.1	-32.1	12.4	1.43e-04	0	43	0	1000341504	20	4530
2026-01-27 23:00:25.60	139.57	12.67	-30.0	-31.7	12.4	7.47e-05	0	43	0	1005584384	20	4395
2026-01-27 23:00:28.62	139.97	12.45	-29.9	-31.4	12.9	7.62e-05	0	43	0	1010827264	20	4301
2026-01-27 23:00:31.62	140.36	12.24	-29.7	-31.5	13.2	3.50e-05	0	43	0	1017118720	19	4426
2026-01-27 23:00:34.63	140.75	12.02	-29.8	-31.7	13.0	4.50e-05	0	43	0	1022361600	19	4473
2026-01-27 23:00:37.64	141.13	11.81	-30.2	-32.5	12.0	4.05e-04	0	43	0	1028653056	20	4678
2026-01-27 23:00:40.65	141.50	11.60	-30.5	-33.2	11.5	1.43e-03	0	43	0	1033895936	20	4956
2026-01-27 23:00:43.66	141.88	11.38	-30.7	-33.8	10.5	3.97e-03	0	43	0	1039138816	21	5146
2026-01-27 23:00:46.66	142.24	11.17	-30.9	-34.4	10.0	6.68e-03	0	43	0	1045430272	21	5391
2026-01-27 23:00:49.67	142.60	10.96	-30.9	-34.5	10.0	8.07e-03	0	43	0	1050673152	21	5431
2026-01-27 23:00:52.68	142.96	10.75	-30.4	-33.3	11.2	1.83e-03	0	43	0	1055916032	20	5011
2026-01-27 23:00:55.69	143.31	10.55	-30.2	-32.8	11.5	9.78e-04	0	43	0	1062207488	20	4841
2026-01-27 23:00:58.69	143.66	10.34	-30.2	-32.8	11.4	2.75e-03	0	43	0	1067450368	20	4864
2026-01-27 23:01:01.70	144.00	10.13	-30.0	-32.2	11.8	2.45e-03	0	43	0	1073741824	20	4654
2026-01-27 23:01:04.72	144.34	9.92	-30.0	-32.2	11.9	2.17e-03	0	43	0	1078984704	20	4637
2026-01-27 23:01:07.72	144.67	9.72	-30.0	-32.3	11.8	2.30e-03	0	43	0	1084227584	20	4688
2026-01-27 23:01:10.74	145.00	9.52	-30.2	-32.8	11.5	2.83e-03	0	43	0	1090519040	20	4843
2026-01-27 23:01:13.75	145.32	9.31	-30.6	-33.6	10.5	4.99e-03	0	43	0	1095761920	21	5075
2026-01-27 23:01:16.75	145.64	9.11	-30.6	-33.6	10.5	6.20e-03	0	43	0	1101004800	21	5099
2026-01-27 23:01:19.76	145.96	8.91	-30.2	-33.2	11.0	5.54e-03	0	43	0	1107296256	20	5087
2026-01-27 23:01:22.77	146.27	8.71	-30.0	-32.4	11.6	2.74e-03	0	43	0	1112539136	20	4772
2026-01-27 23:01:25.78	146.57	8.51	-29.9	-32.2	11.7	3.15e-03	0	43	0	1118830592	20	4711
2026-01-27 23:01:28.79	146.88	8.31	-29.9	-32.4	11.4	3.37e-03	0	43	0	1124073472	20	4823
2026-01-27 23:01:31.81	147.18	8.11	-30.1	-33.6	10.3	5.66e-03	0	43	0	1129316352	20	5426
2026-01-27 23:01:34.82	147.47	7.91	-30.3	-34.7	9.4	1.22e-02	0	43	0	1135607808	20	5968
2026-01-27 23:01:37.83	147.76	7.72	-30.4	-35.1	9.2	2.07e-02	0	43	0	1140850688	20	6164
2026-01-27 23:01:40.84	148.05	7.52	-30.5	-34.4	9.3	1.91e-02	0	43	0	1147142144	21	5679
2026-01-27 23:01:43.86	148.34	7.33	-30.6	-34.3	9.5	1.35e-02	0	43	0	1152385024	21	5545
2026-01-27 23:01:46.88	148.62	7.13	-30.4	-33.9	9.8	1.54e-02	0	43	0	1157627904	21	5357

#Closed at: 2026-01-27 23:01:49
#Recorded file [1158 MB]: D:/data/31010_260128_015128.dat