passes_logs/2026/01/27/R2M6_AANII_01/R2M6_AANII_01__20260127_164603_FENGYUN_3E_rec.log

#Pass ID: 20260127_164603_FENGYUN 3E
#Satellite: FENGYUN 3E
#Configuration: FENGYUN 3E
#almurnet v.1.7.20240730
#Start time: 2026-01-27 16:46:02

#Version: 2.2.20231116
#Station: R2M6_AANII_01
#Location: 30.233357 lon 59.946436 lat
#TLE: 1 49008U 21062A   26026.84429991  .00000247  00000+0  13693-3 0  9991
#TLE: 2 49008  98.7501  31.8345 0002501 116.3456 243.7977 14.19887781236522

#Time	Az	El	Level	Level2	SNR	BER	BlckErr	Temp	State	Recorded	gain1	gain2
2026-01-27 16:46:02.89	234.22	6.97	-28.3	-30.0	5.6	7.24e-01	0	41	0	0	16	4376
2026-01-27 16:46:05.90	234.59	7.12	-30.0	-32.5	8.7	3.83e-02	0	41	0	7340032	20	4773
2026-01-27 16:46:08.90	234.97	7.27	-29.8	-32.4	9.2	2.43e-02	0	41	0	28311552	19	4824
2026-01-27 16:46:11.91	235.35	7.42	-29.4	-31.3	9.9	1.03e-02	0	41	0	50331648	19	4459
2026-01-27 16:46:14.93	235.73	7.57	-28.7	-30.5	11.1	1.27e-03	0	41	0	72351744	17	4397
2026-01-27 16:46:17.94	236.12	7.72	-29.1	-31.3	10.6	2.57e-03	0	41	0	94371840	17	4650
2026-01-27 16:46:20.95	236.52	7.87	-27.9	-28.9	12.4	1.83e-04	0	41	0	115343360	16	4054
2026-01-27 16:46:23.96	236.91	8.02	-26.9	-28.2	13.6	5.70e-06	0	41	0	137363456	13	4171
2026-01-27 16:46:26.97	237.31	8.17	-27.2	-28.4	13.2	2.74e-05	0	41	0	159383552	14	4135
2026-01-27 16:46:29.98	237.72	8.32	-26.9	-28.2	13.6	2.20e-06	0	42	0	180355072	13	4171
2026-01-27 16:46:32.98	238.12	8.47	-26.6	-27.5	14.0	1.10e-06	0	42	0	202375168	13	3982
2026-01-27 16:46:35.98	238.54	8.62	-26.7	-27.7	13.9	2.20e-06	0	42	0	224395264	13	4050
2026-01-27 16:46:39.00	238.95	8.77	-26.8	-27.9	13.8	3.40e-06	0	42	0	246415360	13	4099
2026-01-27 16:46:42.02	239.38	8.91	-26.8	-28.0	13.8	3.40e-06	0	42	0	267386880	13	4115
2026-01-27 16:46:45.04	239.80	9.06	-26.7	-27.7	13.9	0.00e+00	0	42	0	289406976	13	4050
2026-01-27 16:46:48.06	240.23	9.21	-26.5	-27.7	14.2	1.10e-06	0	42	0	311427072	12	4154
2026-01-27 16:46:51.06	240.67	9.36	-26.5	-27.3	14.2	0.00e+00	0	42	0	333447168	13	3940
2026-01-27 16:46:54.07	241.10	9.50	-26.5	-27.7	14.3	0.00e+00	0	42	0	354418688	12	4135
2026-01-27 16:46:57.07	241.54	9.65	-26.4	-27.6	14.3	1.10e-06	0	42	0	376438784	12	4125
2026-01-27 16:47:00.09	241.99	9.79	-26.4	-27.6	14.3	1.35e-03	0	42	0	398458880	12	4129
2026-01-27 16:47:03.10	242.44	9.94	-26.3	-27.4	14.4	1.10e-06	0	42	0	420478976	12	4069
2026-01-27 16:47:06.12	242.90	10.08	-26.3	-27.3	14.5	0.00e+00	0	42	0	441450496	12	4045
2026-01-27 16:47:09.12	243.36	10.22	-26.3	-27.4	14.5	0.00e+00	0	42	0	463470592	12	4061
2026-01-27 16:47:12.14	243.82	10.36	-26.4	-27.5	14.4	1.47e-03	0	42	0	485490688	12	4106
2026-01-27 16:47:15.15	244.29	10.50	-26.4	-27.5	14.4	1.96e-03	0	42	0	506462208	12	4084
2026-01-27 16:47:18.17	244.76	10.64	-26.3	-27.2	14.6	1.65e-03	0	42	0	528482304	12	4018
2026-01-27 16:47:21.16	245.24	10.78	-26.1	-27.0	14.8	0.00e+00	0	42	0	550502400	12	3957
2026-01-27 16:47:24.16	245.72	10.92	-26.1	-26.9	14.8	0.00e+00	0	43	0	571473920	12	3948
2026-01-27 16:47:27.17	246.20	11.06	-26.0	-26.7	14.9	1.94e-03	0	43	0	593494016	12	3900
2026-01-27 16:47:30.19	246.69	11.19	-26.1	-26.8	14.9	2.25e-03	0	42	0	615514112	12	3906
2026-01-27 16:47:33.20	247.19	11.33	-26.1	-26.8	14.9	0.00e+00	0	42	0	637534208	12	3920
2026-01-27 16:47:36.20	247.68	11.46	-26.1	-26.9	14.8	0.00e+00	0	43	0	658505728	12	3943
2026-01-27 16:47:39.21	248.19	11.59	-26.0	-26.6	15.0	0.00e+00	0	43	0	680525824	12	3870
2026-01-27 16:47:42.23	248.70	11.72	-26.0	-26.6	15.0	1.10e-06	0	43	0	702545920	12	3869
2026-01-27 16:47:45.23	249.21	11.85	-26.0	-27.0	15.1	0.00e+00	0	43	0	723517440	11	4068
2026-01-27 16:47:48.24	249.72	11.98	-25.8	-26.7	15.3	0.00e+00	0	43	0	745537536	11	3985
2026-01-27 16:47:51.25	250.24	12.11	-25.9	-26.8	15.3	0.00e+00	0	43	0	767557632	11	4021
2026-01-27 16:47:54.26	250.77	12.23	-25.9	-26.8	15.3	0.00e+00	0	43	0	789577728	11	4003
2026-01-27 16:47:57.28	251.30	12.36	-25.8	-26.7	15.4	0.00e+00	0	43	0	810549248	11	3989
2026-01-27 16:48:00.29	251.83	12.48	-25.6	-26.2	15.6	0.00e+00	0	43	0	832569344	11	3873
2026-01-27 16:48:03.30	252.37	12.60	-25.5	-25.9	15.8	0.00e+00	0	43	0	854589440	11	3791
2026-01-27 16:48:06.32	252.91	12.72	-25.5	-26.1	15.7	0.00e+00	0	43	0	876609536	11	3836
2026-01-27 16:48:09.33	253.46	12.84	-25.6	-26.6	15.7	0.00e+00	0	43	0	897581056	10	4072
2026-01-27 16:48:12.34	254.01	12.95	-25.9	-26.8	15.3	0.00e+00	0	43	0	919601152	11	4008
2026-01-27 16:48:15.35	254.56	13.06	-25.5	-26.1	15.7	0.00e+00	0	43	0	941621248	11	3827
2026-01-27 16:48:18.36	255.12	13.18	-25.6	-26.3	15.6	0.00e+00	0	43	0	963641344	11	3897
2026-01-27 16:48:21.36	255.68	13.29	-25.7	-26.4	15.6	0.00e+00	0	43	0	984612864	11	3917
2026-01-27 16:48:24.37	256.25	13.39	-25.7	-26.5	15.5	0.00e+00	0	43	0	1006632960	11	3940
2026-01-27 16:48:27.38	256.82	13.50	-25.7	-26.4	15.6	0.00e+00	0	43	0	1028653056	11	3912
2026-01-27 16:48:30.39	257.39	13.60	-25.6	-26.3	15.6	0.00e+00	0	43	0	1050673152	11	3874
2026-01-27 16:48:33.40	257.97	13.70	-25.6	-26.2	15.6	0.00e+00	0	43	0	1071644672	11	3857
2026-01-27 16:48:36.40	258.55	13.80	-25.5	-26.5	15.8	0.00e+00	0	43	0	1093664768	10	4049
2026-01-27 16:48:39.42	259.14	13.90	-25.3	-26.0	16.1	0.00e+00	0	43	0	1114636288	10	3911
2026-01-27 16:48:42.43	259.73	13.99	-25.4	-26.3	14.6	0.00e+00	0	43	0	1136656384	10	3995
2026-01-27 16:48:45.42	260.32	14.08	-25.3	-26.2	16.0	5.83e-05	0	43	0	1158676480	10	3965
2026-01-27 16:48:48.42	260.91	14.17	-25.3	-26.1	16.0	0.00e+00	0	43	0	1179648000	10	3940
2026-01-27 16:48:51.44	261.51	14.26	-25.3	-26.0	16.1	5.03e-05	0	43	0	1201668096	10	3927
2026-01-27 16:48:54.44	262.11	14.34	-25.4	-26.3	16.0	1.14e-05	0	43	0	1223688192	10	3991
2026-01-27 16:48:57.45	262.72	14.42	-25.4	-26.2	16.0	4.71e-04	0	43	0	1245708288	10	3967
2026-01-27 16:49:00.45	263.33	14.50	-25.2	-25.9	16.1	9.41e-04	0	43	0	1266679808	10	3893
2026-01-27 16:49:03.46	263.94	14.57	-25.2	-25.8	16.2	1.61e-04	0	43	0	1288699904	10	3860
2026-01-27 16:49:06.46	264.55	14.65	-25.2	-25.9	16.1	1.60e-04	0	43	0	1310720000	10	3902
2026-01-27 16:49:09.47	265.17	14.72	-25.2	-25.9	16.2	0.00e+00	0	43	0	1331691520	10	3903
2026-01-27 16:49:12.49	265.79	14.78	-25.3	-26.1	16.1	1.01e-03	0	43	0	1353711616	10	3927
2026-01-27 16:49:15.50	266.42	14.85	-25.2	-25.9	16.2	1.30e-03	0	43	0	1375731712	10	3899
2026-01-27 16:49:18.51	267.04	14.91	-25.2	-25.8	16.2	0.00e+00	0	43	0	1397751808	10	3868
2026-01-27 16:49:21.52	267.67	14.97	-25.3	-26.1	16.1	0.00e+00	0	43	0	1418723328	10	3934
2026-01-27 16:49:24.52	268.30	15.02	-25.4	-26.2	16.1	0.00e+00	0	43	0	1440743424	10	3947
2026-01-27 16:49:27.54	268.93	15.07	-25.2	-25.9	16.2	0.00e+00	0	43	0	1462763520	10	3902
2026-01-27 16:49:30.56	269.57	15.12	-25.3	-26.1	16.1	0.00e+00	0	43	0	1484783616	10	3931
2026-01-27 16:49:33.56	270.21	15.17	-25.0	-25.5	16.4	0.00e+00	0	43	0	1505755136	10	3803
2026-01-27 16:49:36.58	270.85	15.21	-25.2	-25.8	16.3	0.00e+00	0	43	0	1527775232	10	3862
2026-01-27 16:49:39.59	271.49	15.25	-25.0	-25.5	16.4	0.00e+00	0	43	0	1549795328	10	3791
2026-01-27 16:49:42.59	272.13	15.28	-25.1	-25.7	16.3	0.00e+00	0	43	0	1571815424	10	3852
2026-01-27 16:49:45.61	272.77	15.31	-25.3	-26.1	16.1	0.00e+00	0	43	0	1592786944	10	3942
2026-01-27 16:49:48.62	273.42	15.34	-25.3	-26.1	16.1	0.00e+00	0	43	0	1614807040	10	3947
2026-01-27 16:49:51.64	274.06	15.37	-25.1	-25.6	16.4	0.00e+00	0	43	0	1636827136	10	3806
2026-01-27 16:49:54.65	274.71	15.39	-25.2	-25.8	16.3	0.00e+00	0	43	0	1658847232	10	3865
2026-01-27 16:49:57.67	275.36	15.41	-25.2	-25.8	16.3	0.00e+00	0	43	0	1679818752	10	3869
2026-01-27 16:50:00.68	276.01	15.43	-25.1	-25.7	16.4	0.00e+00	0	43	0	1701838848	10	3832
2026-01-27 16:50:03.70	276.66	15.44	-25.1	-25.7	16.3	0.00e+00	0	43	0	1723858944	10	3845
2026-01-27 16:50:06.72	277.31	15.45	-25.1	-25.6	16.4	0.00e+00	0	43	0	1744830464	10	3808
2026-01-27 16:50:09.72	277.96	15.45	-24.6	-25.1	16.2	0.00e+00	0	43	0	1766850560	10	3839
2026-01-27 16:50:12.74	278.61	15.45	-25.2	-25.9	16.2	1.45e-03	0	43	0	1788870656	10	3890
2026-01-27 16:50:15.75	279.26	15.45	-25.1	-25.7	16.3	9.52e-04	0	43	0	1810890752	10	3842
2026-01-27 16:50:18.76	279.91	15.44	-25.0	-25.9	16.4	0.00e+00	0	43	0	1831862272	9	4004
2026-01-27 16:50:21.77	280.56	15.44	-25.0	-25.9	16.5	0.00e+00	0	43	0	1853882368	9	3995
2026-01-27 16:50:24.79	281.21	15.42	-25.1	-25.7	16.3	0.00e+00	0	43	0	1875902464	10	3841
2026-01-27 16:50:27.80	281.85	15.41	-25.1	-25.6	16.3	1.85e-03	0	43	0	1897922560	10	3834
2026-01-27 16:50:30.80	282.50	15.39	-25.1	-25.7	16.3	1.86e-03	0	43	0	1918894080	10	3850
2026-01-27 16:50:33.81	283.14	15.37	-25.3	-26.0	16.1	2.41e-03	0	43	0	1940914176	10	3925
2026-01-27 16:50:36.82	283.79	15.34	-25.3	-26.1	16.1	0.00e+00	0	43	0	1962934272	10	3943
2026-01-27 16:50:39.83	284.43	15.31	-25.2	-25.8	16.3	0.00e+00	0	43	0	1983905792	10	3865
2026-01-27 16:50:42.84	285.07	15.28	-25.3	-26.0	16.2	1.67e-03	0	43	0	2005925888	10	3915
2026-01-27 16:50:45.84	285.71	15.24	-25.1	-25.7	16.3	2.03e-03	0	43	0	2027945984	10	3829
2026-01-27 16:50:48.85	286.35	15.20	-25.3	-26.1	16.1	0.00e+00	0	43	0	2049966080	10	3938
2026-01-27 16:50:51.86	286.99	15.16	-26.0	-27.1	15.3	0.00e+00	0	43	0	2070937600	11	4078
2026-01-27 16:50:54.88	287.63	15.11	-25.4	-26.2	16.1	0.00e+00	0	43	0	2092957696	10	3952
2026-01-27 16:50:57.89	288.26	15.07	-25.4	-26.2	16.0	0.00e+00	0	44	0	2114977792	10	3975
2026-01-27 16:51:00.90	288.89	15.01	-25.6	-26.3	15.7	0.00e+00	0	43	0	2136997888	11	3881
2026-01-27 16:51:03.91	289.52	14.96	-25.5	-26.1	15.8	0.00e+00	0	44	0	2157969408	11	3834
2026-01-27 16:51:06.93	290.15	14.90	-25.5	-26.4	15.9	0.00e+00	0	43	0	2179989504	10	4018
2026-01-27 16:51:09.94	290.77	14.84	-25.5	-26.6	15.8	0.00e+00	0	44	0	2202009600	10	4062
2026-01-27 16:51:12.96	291.40	14.78	-25.7	-26.3	15.7	0.00e+00	0	43	0	2224029696	11	3888
2026-01-27 16:51:15.98	292.02	14.71	-25.5	-26.4	15.9	0.00e+00	0	43	0	2245001216	10	4015
2026-01-27 16:51:18.99	292.64	14.64	-25.4	-25.8	16.0	0.00e+00	0	43	0	2267021312	11	3758
2026-01-27 16:51:22.00	293.25	14.57	-25.3	-26.1	16.1	0.00e+00	0	43	0	2289041408	10	3945
2026-01-27 16:51:25.02	293.86	14.49	-25.4	-26.3	16.0	0.00e+00	0	43	0	2311061504	10	3985
2026-01-27 16:51:28.03	294.47	14.41	-25.6	-26.2	15.7	1.10e-06	0	44	0	2332033024	11	3867
2026-01-27 16:51:31.05	295.07	14.33	-25.5	-26.4	15.9	0.00e+00	0	43	0	2354053120	10	4017
2026-01-27 16:51:34.06	295.68	14.25	-25.4	-26.3	16.0	0.00e+00	0	43	0	2376073216	10	4001
2026-01-27 16:51:37.07	296.27	14.16	-25.5	-26.5	15.9	0.00e+00	0	43	0	2397044736	10	4047
2026-01-27 16:51:40.08	296.87	14.07	-25.8	-26.6	15.6	0.00e+00	0	43	0	2419064832	11	3954
2026-01-27 16:51:43.09	297.46	13.98	-25.6	-26.1	15.8	0.00e+00	0	44	0	2441084928	11	3840
2026-01-27 16:51:46.10	298.04	13.89	-25.6	-26.2	15.7	0.00e+00	0	43	0	2463105024	11	3863
2026-01-27 16:51:49.11	298.63	13.79	-25.5	-26.4	15.9	0.00e+00	0	43	0	2484076544	10	4022
2026-01-27 16:51:52.12	299.21	13.69	-25.4	-26.3	15.9	0.00e+00	0	43	0	2506096640	10	3985
2026-01-27 16:51:55.13	299.78	13.59	-25.5	-26.5	15.9	1.02e-03	0	43	0	2528116736	10	4027
2026-01-27 16:51:58.14	300.35	13.49	-25.9	-26.9	15.3	1.10e-03	0	44	0	2549088256	11	4033
2026-01-27 16:52:01.16	300.92	13.38	-25.8	-26.6	15.5	1.37e-03	0	44	0	2571108352	11	3945
2026-01-27 16:52:04.16	301.48	13.28	-25.8	-26.7	15.5	1.20e-03	0	43	0	2593128448	11	3974
2026-01-27 16:52:07.16	302.04	13.17	-25.8	-26.7	15.4	0.00e+00	0	44	0	2615148544	11	3987
2026-01-27 16:52:10.18	302.60	13.06	-26.0	-27.0	15.3	9.09e-04	0	43	0	2636120064	11	4056
2026-01-27 16:52:13.19	303.15	12.94	-25.9	-26.9	15.3	8.78e-04	0	43	0	2658140160	11	4022
2026-01-27 16:52:16.21	303.70	12.83	-26.0	-27.0	15.2	1.11e-03	0	43	0	2680160256	11	4052
2026-01-27 16:52:19.22	304.24	12.71	-26.0	-27.1	15.2	0.00e+00	0	43	0	2702180352	11	4093
2026-01-27 16:52:22.22	304.78	12.60	-26.0	-27.0	15.3	0.00e+00	0	43	0	2723151872	11	4056
2026-01-27 16:52:25.23	305.32	12.48	-26.1	-26.9	15.0	0.00e+00	0	43	0	2745171968	12	3927
2026-01-27 16:52:28.24	305.85	12.35	-26.1	-26.8	15.0	0.00e+00	0	43	0	2767192064	12	3894
2026-01-27 16:52:31.25	306.37	12.23	-26.1	-26.8	15.0	5.70e-06	0	43	0	2789212160	12	3916
2026-01-27 16:52:34.26	306.89	12.11	-26.0	-27.1	15.2	0.00e+00	0	43	0	2810183680	11	4095
2026-01-27 16:52:37.28	307.41	11.98	-26.6	-27.4	14.4	0.00e+00	0	43	0	2832203776	13	3957
2026-01-27 16:52:40.29	307.93	11.85	-26.4	-27.6	14.6	0.00e+00	0	43	0	2854223872	12	4098
2026-01-27 16:52:43.30	308.44	11.72	-26.3	-27.2	14.8	2.20e-06	0	43	0	2876243968	12	4018
2026-01-27 16:52:46.30	308.94	11.59	-26.3	-27.4	14.7	0.00e+00	0	44	0	2897215488	12	4047
2026-01-27 16:52:49.32	309.44	11.46	-26.5	-27.7	14.5	1.10e-06	0	43	0	2919235584	12	4144
2026-01-27 16:52:52.33	309.94	11.33	-26.7	-27.7	14.2	0.00e+00	0	43	0	2940207104	13	4029
2026-01-27 16:52:55.34	310.43	11.20	-26.3	-27.4	14.7	0.00e+00	0	44	0	2962227200	12	4050
2026-01-27 16:52:58.35	310.92	11.06	-26.4	-27.5	14.6	0.00e+00	0	44	0	2984247296	12	4078
2026-01-27 16:53:01.36	311.40	10.93	-26.6	-27.5	14.2	2.20e-06	0	43	0	3006267392	13	3987
2026-01-27 16:53:04.38	311.88	10.79	-26.8	-27.9	14.1	3.40e-06	0	44	0	3027238912	13	4086
2026-01-27 16:53:07.40	312.35	10.65	-26.7	-27.7	14.2	2.20e-06	0	43	0	3049259008	13	4034
2026-01-27 16:53:10.41	312.82	10.51	-26.9	-28.1	13.9	1.10e-06	0	43	0	3071279104	13	4135
2026-01-27 16:53:13.42	313.29	10.37	-26.8	-27.8	14.1	2.20e-06	0	43	0	3093299200	13	4057
2026-01-27 16:53:16.43	313.75	10.23	-25.9	-26.9	13.9	1.10e-06	0	43	0	3114270720	13	4037
2026-01-27 16:53:19.44	314.21	10.09	-26.9	-28.2	13.6	3.40e-06	0	43	0	3136290816	13	4172
2026-01-27 16:53:22.46	314.66	9.95	-26.8	-27.9	14.1	1.10e-06	0	43	0	3158310912	13	4069
2026-01-27 16:53:25.47	315.11	9.81	-26.7	-27.7	14.1	1.10e-06	0	43	0	3180331008	13	4033
2026-01-27 16:53:28.47	315.55	9.66	-26.5	-27.2	14.4	6.75e-05	0	43	0	3201302528	13	3902
2026-01-27 16:53:31.48	315.99	9.52	-26.6	-27.8	14.3	1.53e-04	0	44	0	3223322624	12	4173
2026-01-27 16:53:34.48	316.43	9.37	-26.8	-27.8	14.0	1.10e-06	0	43	0	3245342720	13	4071
2026-01-27 16:53:37.49	316.86	9.23	-27.0	-28.3	13.8	9.10e-06	0	44	0	3266314240	13	4180
2026-01-27 16:53:40.50	317.28	9.08	-27.1	-28.5	13.6	1.60e-05	0	44	0	3288334336	13	4243
2026-01-27 16:53:43.51	317.71	8.94	-27.0	-28.0	13.7	1.51e-04	0	44	0	3310354432	14	4001
2026-01-27 16:53:46.50	318.12	8.79	-26.9	-28.1	13.8	1.92e-04	0	44	0	3332374528	13	4151
2026-01-27 16:53:49.52	318.54	8.64	-26.9	-28.1	13.8	5.70e-06	0	43	0	3353346048	13	4141
2026-01-27 16:53:52.53	318.95	8.50	-26.6	-27.5	14.1	1.10e-06	0	43	0	3375366144	13	3992
2026-01-27 16:53:55.54	319.36	8.35	-26.7	-27.8	14.0	2.20e-06	0	44	0	3397386240	13	4052
2026-01-27 16:53:58.55	319.76	8.20	-26.9	-28.1	13.8	4.50e-06	0	43	0	3419406336	13	4147
2026-01-27 16:54:01.56	320.16	8.05	-27.0	-28.3	13.6	5.70e-06	0	44	0	3440377856	13	4209
2026-01-27 16:54:04.57	320.56	7.90	-27.3	-28.6	13.2	1.71e-05	0	44	0	3462397952	14	4182
2026-01-27 16:54:07.59	320.95	7.76	-27.3	-28.7	13.2	3.08e-05	0	44	0	3484418048	14	4196
2026-01-27 16:54:10.61	321.34	7.61	-27.4	-28.7	13.1	1.94e-05	0	44	0	3506438144	14	4204
2026-01-27 16:54:13.62	321.72	7.46	-27.2	-28.3	13.4	1.14e-05	0	44	0	3527409664	14	4081
2026-01-27 16:54:16.64	322.10	7.31	-27.2	-28.4	13.3	1.71e-05	0	44	0	3549429760	14	4110
2026-01-27 16:54:19.64	322.48	7.16	-27.2	-28.3	13.3	1.14e-05	0	44	0	3571449856	14	4087
2026-01-27 16:54:22.65	322.85	7.01	-33.8	-43.5	3.8	8.46e-01	0	44	104	3584032768	27	10955

#Closed at: 2026-01-27 16:54:25
#Recorded file [3584 MB]: D:/data/31010_260127_194604.dat