passes_logs/2026/01/27/R2M6_AANII_01/R2M6_AANII_01__20260127_150255_FENGYUN_3E_rec.log

#Pass ID: 20260127_150255_FENGYUN 3E
#Satellite: FENGYUN 3E
#Configuration: FENGYUN 3E
#almurnet v.1.7.20240730
#Start time: 2026-01-27 15:02:56

#Version: 2.2.20231116
#Station: R2M6_AANII_01
#Location: 30.233357 lon 59.946436 lat
#TLE: 1 49008U 21062A   26026.84429991  .00000247  00000+0  13693-3 0  9991
#TLE: 2 49008  98.7501  31.8345 0002501 116.3456 243.7977 14.19887781236522

#Time	Az	El	Level	Level2	SNR	BER	BlckErr	Temp	State	Recorded	gain1	gain2
2026-01-27 15:02:56.78	174.14	7.09	-27.5	-29.7	5.6	7.63e-01	0	41	0	0	14	4670
2026-01-27 15:02:59.79	174.23	7.32	-28.6	-30.7	10.4	5.61e-03	0	41	0	7340032	17	4608
2026-01-27 15:03:02.79	174.32	7.55	-26.7	-27.9	12.9	7.20e-05	0	41	0	28311552	14	4115
2026-01-27 15:03:05.78	174.41	7.78	-26.0	-26.7	13.9	6.80e-06	0	41	0	50331648	13	3910
2026-01-27 15:03:08.80	174.50	8.02	-26.2	-27.6	13.6	3.40e-06	0	41	0	72351744	12	4260
2026-01-27 15:03:11.82	174.60	8.26	-25.9	-27.1	13.9	4.50e-06	0	41	0	93323264	12	4106
2026-01-27 15:03:14.83	174.70	8.50	-25.9	-27.0	14.0	4.50e-06	0	41	0	115343360	12	4083
2026-01-27 15:03:17.83	174.80	8.75	-26.2	-27.7	13.7	1.25e-05	0	42	0	137363456	12	4270
2026-01-27 15:03:20.84	174.90	8.99	-26.3	-27.9	13.5	1.14e-05	0	42	0	159383552	12	4334
2026-01-27 15:03:23.86	175.00	9.24	-26.1	-27.5	13.8	1.10e-06	0	42	0	180355072	12	4206
2026-01-27 15:03:26.87	175.10	9.50	-25.9	-27.0	14.1	3.40e-06	0	42	0	202375168	12	4096
2026-01-27 15:03:29.89	175.21	9.75	-25.8	-26.7	14.3	1.10e-06	0	42	0	224395264	12	4008
2026-01-27 15:03:32.89	175.31	10.01	-25.6	-26.4	14.5	0.00e+00	0	42	0	246415360	12	3920
2026-01-27 15:03:35.90	175.42	10.27	-25.8	-26.7	14.3	1.10e-06	0	42	0	267386880	12	4007
2026-01-27 15:03:38.92	175.53	10.53	-25.8	-26.7	14.3	3.40e-06	0	42	0	289406976	12	4016
2026-01-27 15:03:41.93	175.64	10.79	-25.8	-26.7	14.4	1.10e-06	0	42	0	311427072	12	4000
2026-01-27 15:03:44.94	175.76	11.06	-25.7	-26.4	14.5	0.00e+00	0	42	0	333447168	12	3942
2026-01-27 15:03:47.96	175.87	11.33	-25.5	-26.0	14.7	0.00e+00	0	42	0	354418688	12	3842
2026-01-27 15:03:50.97	175.99	11.61	-25.5	-26.6	14.8	0.00e+00	0	42	0	376438784	11	4075
2026-01-27 15:03:53.98	176.11	11.88	-25.6	-26.7	14.7	1.10e-06	0	42	0	398458880	11	4105
2026-01-27 15:03:56.98	176.23	12.16	-25.1	-25.8	15.2	5.70e-06	0	42	0	420478976	11	3887
2026-01-27 15:04:00.00	176.36	12.44	-25.2	-25.9	15.2	8.00e-06	0	42	0	441450496	11	3900
2026-01-27 15:04:03.01	176.48	12.73	-25.1	-25.6	15.3	1.25e-05	0	42	0	463470592	11	3847
2026-01-27 15:04:06.02	176.61	13.02	-24.7	-25.5	15.7	0.00e+00	0	43	0	484442112	10	3910
2026-01-27 15:04:09.01	176.74	13.31	-24.8	-25.6	15.6	0.00e+00	0	43	0	506462208	10	3939
2026-01-27 15:04:12.03	176.87	13.61	-25.2	-26.5	15.2	0.00e+00	0	42	0	528482304	10	4162
2026-01-27 15:04:15.03	177.01	13.90	-24.6	-25.2	15.8	0.00e+00	0	43	0	549453824	10	3859
2026-01-27 15:04:18.05	177.15	14.21	-24.6	-25.2	15.8	0.00e+00	0	43	0	571473920	10	3863
2026-01-27 15:04:21.06	177.29	14.51	-24.6	-25.3	15.8	0.00e+00	0	43	0	593494016	10	3883
2026-01-27 15:04:24.07	177.43	14.82	-24.6	-25.2	15.8	0.00e+00	0	43	0	615514112	10	3879
2026-01-27 15:04:27.07	177.58	15.14	-24.6	-25.2	15.9	0.00e+00	0	43	0	636485632	10	3857
2026-01-27 15:04:30.08	177.73	15.46	-24.5	-25.1	15.9	0.00e+00	0	43	0	658505728	10	3843
2026-01-27 15:04:33.09	177.88	15.78	-24.6	-25.3	15.8	0.00e+00	0	43	0	680525824	10	3907
2026-01-27 15:04:36.10	178.04	16.10	-24.5	-25.1	15.9	0.00e+00	0	43	0	702545920	10	3851
2026-01-27 15:04:39.11	178.20	16.44	-24.4	-25.5	15.9	0.00e+00	0	43	0	723517440	9	4057
2026-01-27 15:04:42.12	178.36	16.77	-24.3	-25.1	16.1	0.00e+00	0	43	0	745537536	9	3955
2026-01-27 15:04:45.13	178.52	17.11	-24.1	-24.8	16.3	0.00e+00	0	43	0	767557632	9	3895
2026-01-27 15:04:48.15	178.69	17.46	-24.2	-24.9	16.2	0.00e+00	0	43	0	789577728	9	3908
2026-01-27 15:04:51.17	178.87	17.81	-23.9	-24.8	16.5	0.00e+00	0	43	0	810549248	8	3993
2026-01-27 15:04:54.18	179.04	18.16	-23.7	-24.4	16.7	0.00e+00	0	43	0	832569344	8	3900
2026-01-27 15:04:57.19	179.23	18.52	-23.7	-24.3	16.8	0.00e+00	0	43	0	854589440	8	3878
2026-01-27 15:05:00.20	179.41	18.88	-23.6	-24.2	16.9	0.00e+00	0	43	0	876609536	8	3844
2026-01-27 15:05:03.21	179.60	19.25	-23.4	-24.3	17.1	0.00e+00	0	43	0	897581056	7	3987
2026-01-27 15:05:06.22	179.79	19.62	-23.4	-24.2	17.1	0.00e+00	0	43	0	919601152	7	3945
2026-01-27 15:05:09.23	179.99	20.00	-23.4	-24.2	17.1	0.00e+00	0	43	0	941621248	7	3956
2026-01-27 15:05:12.23	180.19	20.39	-23.6	-24.8	16.8	0.00e+00	0	43	0	962592768	7	4107
2026-01-27 15:05:15.23	180.40	20.78	-23.6	-24.7	16.9	0.00e+00	0	43	0	984612864	7	4094
2026-01-27 15:05:18.24	180.61	21.17	-23.6	-24.7	16.9	0.00e+00	0	43	0	1006632960	7	4095
2026-01-27 15:05:21.25	180.83	21.57	-23.5	-24.6	17.0	0.00e+00	0	43	0	1028653056	7	4050
2026-01-27 15:05:24.28	181.06	21.98	-23.6	-24.6	17.0	0.00e+00	0	43	0	1049624576	7	4049
2026-01-27 15:05:27.29	181.28	22.40	-23.3	-23.8	17.4	0.00e+00	0	43	0	1071644672	7	3852
2026-01-27 15:05:30.30	181.52	22.82	-23.0	-23.2	17.8	0.00e+00	0	43	0	1093664768	7	3698
2026-01-27 15:05:33.30	181.76	23.25	-23.0	-23.3	17.8	0.00e+00	0	43	0	1114636288	7	3720
2026-01-27 15:05:36.32	182.01	23.68	-23.1	-23.4	17.7	0.00e+00	0	43	0	1136656384	7	3746
2026-01-27 15:05:39.33	182.26	24.12	-23.1	-23.5	17.7	0.00e+00	0	43	0	1158676480	7	3769
2026-01-27 15:05:42.34	182.52	24.57	-23.3	-24.0	17.4	0.00e+00	0	43	0	1180696576	7	3880
2026-01-27 15:05:45.35	182.79	25.03	-23.5	-24.4	17.2	0.00e+00	0	43	0	1201668096	7	3994
2026-01-27 15:05:48.37	183.07	25.49	-23.5	-24.4	17.2	0.00e+00	0	43	0	1223688192	7	3990
2026-01-27 15:05:51.38	183.35	25.96	-22.9	-23.7	17.8	0.00e+00	0	43	0	1245708288	6	3924
2026-01-27 15:05:54.39	183.65	26.44	-22.8	-23.5	17.9	0.00e+00	0	43	0	1267728384	6	3881
2026-01-27 15:05:57.40	183.95	26.93	-22.6	-22.9	18.1	0.00e+00	0	43	0	1288699904	6	3755
2026-01-27 15:06:00.40	184.26	27.42	-22.4	-23.0	18.3	0.00e+00	0	43	0	1310720000	5	3885
2026-01-27 15:06:03.41	184.58	27.92	-22.6	-23.4	18.2	0.00e+00	0	43	0	1332740096	5	3972
2026-01-27 15:06:06.41	184.91	28.43	-22.4	-23.1	18.3	0.00e+00	0	43	0	1353711616	5	3909
2026-01-27 15:06:09.41	185.24	28.94	-22.7	-23.6	18.1	0.00e+00	0	43	0	1375731712	5	4019
2026-01-27 15:06:12.43	185.60	29.47	-22.7	-23.6	18.2	0.00e+00	0	43	0	1397751808	5	3999
2026-01-27 15:06:15.44	185.96	30.01	-22.7	-23.7	18.2	0.00e+00	0	43	0	1419771904	5	4019
2026-01-27 15:06:18.45	186.33	30.56	-22.6	-23.4	18.4	0.00e+00	0	43	0	1440743424	5	3942
2026-01-27 15:06:21.47	186.72	31.11	-22.6	-23.5	18.4	0.00e+00	0	43	0	1462763520	5	3972
2026-01-27 15:06:24.49	187.12	31.68	-22.6	-23.4	18.4	0.00e+00	0	43	0	1484783616	5	3962
2026-01-27 15:06:27.51	187.54	32.25	-22.4	-23.0	18.5	0.00e+00	0	43	0	1506803712	5	3864
2026-01-27 15:06:30.52	187.96	32.84	-22.4	-23.0	18.5	0.00e+00	0	43	0	1527775232	5	3859
2026-01-27 15:06:33.54	188.41	33.43	-22.4	-23.1	18.4	0.00e+00	0	43	0	1549795328	5	3910
2026-01-27 15:06:36.56	188.87	34.03	-22.4	-23.2	18.4	0.00e+00	0	43	0	1571815424	5	3923
2026-01-27 15:06:39.57	189.35	34.65	-22.7	-23.7	18.1	0.00e+00	0	43	0	1593835520	5	4059
2026-01-27 15:06:42.58	189.84	35.27	-22.5	-23.4	18.2	0.00e+00	0	43	0	1614807040	5	3991
2026-01-27 15:06:45.59	190.35	35.90	-22.7	-23.8	18.0	0.00e+00	0	43	0	1636827136	5	4094
2026-01-27 15:06:48.61	190.89	36.55	-23.1	-24.1	17.7	0.00e+00	0	43	0	1658847232	6	4045
2026-01-27 15:06:51.62	191.44	37.20	-23.6	-23.9	18.4	0.00e+00	0	43	0	1680867328	7	3724
2026-01-27 15:06:54.63	192.02	37.86	-23.5	-23.8	18.4	0.00e+00	0	43	0	1701838848	7	3705
2026-01-27 15:06:57.63	192.62	38.53	-23.5	-23.7	18.5	0.00e+00	0	43	0	1723858944	7	3700
2026-01-27 15:07:00.64	193.25	39.21	-23.5	-23.3	18.5	0.00e+00	0	43	0	1745879040	8	3502
2026-01-27 15:07:03.66	193.90	39.91	-23.6	-23.9	18.3	0.00e+00	0	43	0	1766850560	7	3732
2026-01-27 15:07:06.67	194.58	40.61	-23.6	-24.0	18.3	0.00e+00	0	44	0	1788870656	7	3760
2026-01-27 15:07:09.68	195.29	41.32	-23.4	-23.4	18.6	0.00e+00	0	43	0	1810890752	7	3627
2026-01-27 15:07:12.69	196.03	42.04	-23.6	-23.9	18.4	0.00e+00	0	43	0	1832910848	7	3743
2026-01-27 15:07:15.70	196.81	42.77	-23.6	-23.3	18.5	0.00e+00	0	43	0	1853882368	8	3512
2026-01-27 15:07:18.71	197.62	43.51	-23.8	-23.8	18.3	0.00e+00	0	43	0	1875902464	8	3610
2026-01-27 15:07:21.72	198.46	44.25	-23.7	-24.0	18.3	0.00e+00	0	43	0	1897922560	7	3760
2026-01-27 15:07:24.74	199.36	45.01	-22.8	-22.7	19.1	0.00e+00	0	43	0	1919942656	6	3573
2026-01-27 15:07:27.75	200.29	45.77	-23.7	-24.1	18.4	0.00e+00	0	44	0	1940914176	7	3769
2026-01-27 15:07:30.76	201.26	46.53	-24.0	-24.4	18.0	0.00e+00	0	43	0	1962934272	8	3737
2026-01-27 15:07:33.76	202.29	47.30	-24.0	-24.3	18.0	0.00e+00	0	43	0	1984954368	8	3716
2026-01-27 15:07:36.77	203.36	48.08	-24.3	-25.0	17.7	0.00e+00	0	43	0	2005925888	8	3873
2026-01-27 15:07:39.78	204.49	48.85	-24.3	-24.9	17.7	0.00e+00	0	44	0	2027945984	8	3855
2026-01-27 15:07:42.80	205.68	49.63	-24.8	-25.4	17.2	0.00e+00	0	43	0	2049966080	9	3878
2026-01-27 15:07:45.81	206.93	50.41	-24.0	-23.6	18.1	0.00e+00	0	43	0	2071986176	9	3467
2026-01-27 15:07:48.81	208.25	51.19	-24.6	-24.4	17.5	0.00e+00	0	44	0	2092957696	10	3543
2026-01-27 15:07:51.82	209.63	51.96	-24.7	-25.3	17.4	0.00e+00	0	43	0	2114977792	9	3835
2026-01-27 15:07:54.85	211.10	52.73	-24.5	-24.7	17.6	0.00e+00	0	43	0	2136997888	9	3712
2026-01-27 15:07:57.85	212.63	53.49	-25.0	-25.3	17.1	0.00e+00	0	43	0	2159017984	10	3725
2026-01-27 15:08:00.86	214.24	54.24	-25.0	-25.3	17.1	0.00e+00	0	44	0	2179989504	10	3753
2026-01-27 15:08:03.87	215.94	54.97	-24.6	-24.5	17.6	0.00e+00	0	43	0	2202009600	10	3552
2026-01-27 15:08:06.88	217.73	55.69	-24.8	-24.8	17.4	0.00e+00	0	43	0	2224029696	10	3641
2026-01-27 15:08:09.91	219.62	56.40	-24.6	-24.6	17.6	0.00e+00	0	43	0	2246049792	10	3574
2026-01-27 15:08:12.91	221.60	57.08	-24.6	-25.1	17.5	0.00e+00	0	43	0	2267021312	9	3794
2026-01-27 15:08:15.93	223.68	57.73	-24.2	-24.2	18.0	0.00e+00	0	44	0	2289041408	9	3588
2026-01-27 15:08:18.94	225.85	58.35	-24.8	-25.4	17.4	0.00e+00	0	43	0	2311061504	9	3859
2026-01-27 15:08:21.95	228.13	58.94	-24.8	-24.9	17.4	0.00e+00	0	44	0	2333081600	10	3649
2026-01-27 15:08:24.96	230.50	59.49	-25.2	-25.7	17.0	0.00e+00	0	43	0	2354053120	10	3825
2026-01-27 15:08:27.98	232.98	60.01	-24.8	-25.0	17.3	0.00e+00	0	44	0	2376073216	10	3683
2026-01-27 15:08:31.00	235.56	60.47	-24.8	-24.9	17.4	0.00e+00	0	43	0	2398093312	10	3646
2026-01-27 15:08:34.01	238.22	60.89	-25.1	-25.5	17.1	0.00e+00	0	43	0	2419064832	10	3786
2026-01-27 15:08:37.03	240.97	61.25	-24.5	-24.3	17.8	0.00e+00	0	44	0	2441084928	10	3496
2026-01-27 15:08:40.04	243.79	61.56	-24.6	-25.1	17.6	0.00e+00	0	44	0	2463105024	9	3787
2026-01-27 15:08:43.07	246.68	61.81	-23.9	-24.1	18.4	0.00e+00	0	43	0	2485125120	8	3652
2026-01-27 15:08:46.08	249.61	61.99	-24.4	-25.0	18.0	0.00e+00	0	44	0	2506096640	8	3860
2026-01-27 15:08:49.09	252.58	62.11	-24.0	-24.2	18.3	0.00e+00	0	44	0	2528116736	8	3674
2026-01-27 15:08:52.10	255.57	62.16	-24.4	-25.0	17.9	0.00e+00	0	43	0	2550136832	8	3881
2026-01-27 15:08:55.11	258.56	62.15	-24.2	-24.6	18.1	0.00e+00	0	43	0	2572156928	8	3780
2026-01-27 15:08:58.12	261.54	62.08	-24.2	-24.6	18.1	0.00e+00	0	43	0	2593128448	8	3767
2026-01-27 15:09:01.13	264.49	61.94	-24.1	-24.3	18.3	0.00e+00	0	44	0	2615148544	8	3709
2026-01-27 15:09:04.13	267.39	61.73	-24.3	-24.8	18.0	0.00e+00	0	43	0	2637168640	8	3828
2026-01-27 15:09:07.14	270.25	61.47	-24.7	-25.1	17.6	0.00e+00	0	43	0	2659188736	9	3791
2026-01-27 15:09:10.16	273.05	61.14	-25.0	-25.3	17.3	0.00e+00	0	43	0	2680160256	10	3738
2026-01-27 15:09:13.17	275.77	60.76	-25.0	-25.2	17.3	0.00e+00	0	43	0	2702180352	10	3718
2026-01-27 15:09:16.18	278.39	60.33	-25.3	-26.0	16.9	0.00e+00	0	43	0	2724200448	10	3906
2026-01-27 15:09:19.19	280.93	59.85	-24.7	-24.6	17.6	0.00e+00	0	43	0	2746220544	10	3576
2026-01-27 15:09:22.19	283.36	59.33	-25.0	-25.4	17.2	0.00e+00	0	44	0	2767192064	10	3745
2026-01-27 15:09:25.20	285.70	58.77	-25.1	-25.5	17.2	0.00e+00	0	43	0	2789212160	10	3773
2026-01-27 15:09:28.21	287.94	58.17	-25.4	-26.2	16.8	0.00e+00	0	44	0	2811232256	10	3939
2026-01-27 15:09:31.22	290.08	57.54	-25.4	-25.7	16.8	0.00e+00	0	43	0	2832203776	11	3716
2026-01-27 15:09:34.23	292.13	56.88	-25.3	-25.4	17.0	0.00e+00	0	44	0	2854223872	11	3661
2026-01-27 15:09:37.24	294.07	56.19	-25.7	-26.3	16.5	0.00e+00	0	43	0	2876243968	11	3855
2026-01-27 15:09:40.25	295.92	55.49	-24.3	-24.3	18.0	0.00e+00	0	43	0	2898264064	9	3606
2026-01-27 15:09:43.25	297.67	54.77	-25.2	-25.7	16.9	0.00e+00	0	44	0	2919235584	10	3830
2026-01-27 15:09:46.26	299.35	54.03	-25.2	-25.8	17.1	0.00e+00	0	43	0	2941255680	10	3841
2026-01-27 15:09:49.27	300.94	53.28	-25.2	-25.7	17.1	0.00e+00	0	44	0	2963275776	10	3816
2026-01-27 15:09:52.27	302.44	52.52	-25.2	-25.7	17.1	0.00e+00	0	43	0	2984247296	10	3813
2026-01-27 15:09:55.28	303.87	51.76	-25.0	-25.3	17.3	0.00e+00	0	43	0	3006267392	10	3732
2026-01-27 15:09:58.28	305.23	50.99	-24.9	-25.1	17.4	0.00e+00	0	43	0	3028287488	10	3674
2026-01-27 15:10:01.28	306.52	50.22	-24.8	-25.0	17.5	0.00e+00	0	43	0	3049259008	10	3658
2026-01-27 15:10:04.31	307.76	49.44	-25.0	-25.3	17.3	0.00e+00	0	43	0	3071279104	10	3733
2026-01-27 15:10:07.32	308.93	48.66	-25.0	-25.4	17.3	0.00e+00	0	44	0	3093299200	10	3754
2026-01-27 15:10:10.34	310.05	47.89	-24.6	-24.6	17.7	0.00e+00	0	44	0	3115319296	10	3570
2026-01-27 15:10:13.34	311.10	47.12	-24.3	-24.3	18.0	0.00e+00	0	44	0	3136290816	9	3619
2026-01-27 15:10:16.35	312.11	46.35	-24.4	-24.5	17.9	0.00e+00	0	44	0	3158310912	9	3662
2026-01-27 15:10:19.36	313.07	45.59	-23.9	-23.9	18.5	0.00e+00	0	43	0	3180331008	8	3629
2026-01-27 15:10:22.37	313.99	44.84	-23.2	-23.1	19.1	0.00e+00	0	43	0	3201302528	7	3555
2026-01-27 15:10:25.38	314.87	44.09	-23.6	-23.9	18.7	0.00e+00	0	44	0	3223322624	7	3731
2026-01-27 15:10:28.40	315.70	43.35	-24.1	-24.4	18.1	0.00e+00	0	43	0	3245342720	8	3736
2026-01-27 15:10:31.41	316.50	42.62	-23.7	-23.7	18.6	0.00e+00	0	44	0	3267362816	8	3575
2026-01-27 15:10:34.41	317.27	41.89	-23.8	-23.9	18.5	0.00e+00	0	44	0	3288334336	8	3623
2026-01-27 15:10:37.43	318.00	41.18	-24.1	-24.4	18.2	0.00e+00	0	44	0	3310354432	8	3728
2026-01-27 15:10:40.44	318.70	40.47	-23.8	-23.7	18.6	0.00e+00	0	43	0	3332374528	8	3587
2026-01-27 15:10:43.44	319.37	39.78	-24.0	-24.1	18.3	0.00e+00	0	43	0	3354394624	8	3673
2026-01-27 15:10:46.45	320.01	39.09	-23.9	-23.9	18.4	0.00e+00	0	44	0	3375366144	8	3632
2026-01-27 15:10:49.46	320.63	38.41	-23.9	-24.0	18.3	0.00e+00	0	44	0	3397386240	8	3650
2026-01-27 15:10:52.47	321.23	37.75	-23.7	-23.6	18.6	0.00e+00	0	44	0	3419406336	8	3573
2026-01-27 15:10:55.48	321.80	37.09	-23.7	-23.6	18.6	0.00e+00	0	43	0	3441426432	8	3556
2026-01-27 15:10:58.50	322.35	36.44	-23.5	-23.2	18.8	0.00e+00	0	44	0	3462397952	8	3477
2026-01-27 15:11:01.51	322.88	35.80	-23.3	-23.3	19.0	0.00e+00	0	44	0	3484418048	7	3593
2026-01-27 15:11:04.53	323.39	35.17	-23.4	-23.5	18.9	0.00e+00	0	43	0	3506438144	7	3641
2026-01-27 15:11:07.54	323.88	34.56	-23.7	-24.1	18.5	0.00e+00	0	43	0	3528458240	7	3770
2026-01-27 15:11:10.55	324.35	33.95	-23.8	-24.4	18.4	0.00e+00	0	43	0	3549429760	7	3843
2026-01-27 15:11:13.56	324.80	33.35	-23.3	-23.4	18.9	0.00e+00	0	44	0	3571449856	7	3608
2026-01-27 15:11:16.57	325.24	32.77	-23.3	-23.2	19.0	0.00e+00	0	43	0	3593469952	7	3572
2026-01-27 15:11:19.58	325.67	32.19	-23.2	-23.1	19.0	0.00e+00	0	44	0	3614441472	7	3560
2026-01-27 15:11:22.58	326.08	31.62	-23.3	-23.3	18.9	0.00e+00	0	43	0	3636461568	7	3585
2026-01-27 15:11:25.59	326.47	31.06	-23.4	-23.4	18.8	0.00e+00	0	44	0	3658481664	7	3624
2026-01-27 15:11:28.60	326.86	30.51	-23.5	-23.7	18.7	0.00e+00	0	43	0	3679453184	7	3677
2026-01-27 15:11:31.62	327.23	29.97	-23.6	-23.8	18.7	0.00e+00	0	44	0	3701473280	7	3711
2026-01-27 15:11:34.63	327.59	29.44	-23.6	-24.0	18.6	0.00e+00	0	44	0	3723493376	7	3747
2026-01-27 15:11:37.64	327.94	28.92	-23.7	-24.1	18.5	0.00e+00	0	44	0	3745513472	7	3763
2026-01-27 15:11:40.66	328.28	28.40	-23.7	-24.2	18.5	0.00e+00	0	44	0	3766484992	7	3784
2026-01-27 15:11:43.66	328.60	27.90	-23.9	-24.5	18.3	0.00e+00	0	44	0	3788505088	7	3867
2026-01-27 15:11:46.67	328.92	27.40	-23.7	-24.1	18.5	0.00e+00	0	43	0	3810525184	7	3779
2026-01-27 15:11:49.67	329.23	26.91	-23.7	-24.0	18.5	0.00e+00	0	44	0	3831496704	7	3757
2026-01-27 15:11:52.67	329.53	26.43	-23.6	-23.9	18.6	0.00e+00	0	44	0	3853516800	7	3719
2026-01-27 15:11:55.69	329.82	25.96	-23.5	-23.8	18.6	0.00e+00	0	44	0	3875536896	7	3697
2026-01-27 15:11:58.70	330.10	25.49	-23.6	-23.9	18.6	0.00e+00	0	43	0	3897556992	7	3727
2026-01-27 15:12:01.69	330.38	25.03	-23.5	-23.8	18.6	0.00e+00	0	44	0	3918528512	7	3704
2026-01-27 15:12:04.71	330.65	24.58	-23.7	-24.0	18.5	0.00e+00	0	44	0	3940548608	7	3755
2026-01-27 15:12:07.72	330.91	24.14	-23.7	-24.1	18.4	0.00e+00	0	44	0	3962568704	7	3781
2026-01-27 15:12:10.74	331.16	23.70	-23.9	-24.6	18.2	0.00e+00	0	44	0	3984588800	7	3879
2026-01-27 15:12:13.74	331.41	23.27	-24.1	-24.5	18.0	0.00e+00	0	44	0	4005560320	8	3751
2026-01-27 15:12:16.75	331.65	22.84	-24.2	-24.7	17.8	0.00e+00	0	44	0	4027580416	8	3808
2026-01-27 15:12:19.77	331.89	22.42	-24.3	-24.8	17.8	0.00e+00	0	44	0	4049600512	8	3833
2026-01-27 15:12:22.79	332.12	22.01	-24.4	-25.0	17.6	0.00e+00	0	44	0	4071620608	8	3887
2026-01-27 15:12:25.79	332.34	21.61	-24.6	-25.4	17.4	0.00e+00	0	44	0	4092592128	8	3976
2026-01-27 15:12:28.78	332.56	21.21	-24.3	-24.5	17.7	0.00e+00	0	44	0	4114612224	9	3649
2026-01-27 15:12:31.79	332.77	20.82	-24.4	-24.6	17.6	0.00e+00	0	43	0	4136632320	9	3675
2026-01-27 15:12:34.79	332.98	20.43	-24.4	-24.7	17.5	0.00e+00	0	44	0	4157603840	9	3694
2026-01-27 15:12:37.80	333.18	20.05	-24.5	-24.7	17.5	0.00e+00	0	44	0	4179623936	9	3713
2026-01-27 15:12:40.82	333.38	19.67	-24.6	-24.9	17.4	0.00e+00	0	43	0	4201644032	9	3757
2026-01-27 15:12:43.82	333.57	19.30	-24.7	-25.3	17.2	0.00e+00	0	44	0	4222615552	9	3853
2026-01-27 15:12:46.82	333.76	18.94	-24.9	-25.7	16.9	0.00e+00	0	44	0	4244635648	9	3947
2026-01-27 15:12:49.81	333.94	18.58	-25.2	-25.7	16.7	0.00e+00	0	44	0	4266655744	10	3833
2026-01-27 15:12:52.83	334.13	18.22	-25.2	-25.9	16.6	0.00e+00	0	44	0	4287627264	10	3876
2026-01-27 15:12:55.84	334.30	17.87	-25.3	-26.1	16.5	0.00e+00	0	44	0	4309647360	10	3917
2026-01-27 15:12:58.85	334.48	17.52	-25.2	-25.9	16.6	0.00e+00	0	44	0	4331667456	10	3874
2026-01-27 15:13:01.86	334.65	17.18	-25.2	-25.8	16.6	0.00e+00	0	44	0	4353687552	10	3862
2026-01-27 15:13:04.87	334.82	16.84	-25.3	-25.9	16.5	0.00e+00	0	44	0	4374659072	10	3890
2026-01-27 15:13:07.88	334.98	16.51	-25.3	-25.9	16.5	0.00e+00	0	44	0	4396679168	10	3880
2026-01-27 15:13:10.90	335.14	16.18	-25.3	-25.9	16.5	0.00e+00	0	44	0	4418699264	10	3888
2026-01-27 15:13:13.90	335.30	15.86	-25.3	-26.0	16.4	0.00e+00	0	44	0	4439670784	10	3909
2026-01-27 15:13:16.90	335.45	15.54	-25.5	-26.4	16.2	1.10e-06	0	43	0	4461690880	10	4009
2026-01-27 15:13:19.91	335.60	15.22	-25.5	-26.5	16.2	0.00e+00	0	43	0	4483710976	10	4028
2026-01-27 15:13:22.93	335.75	14.91	-25.5	-26.5	16.2	1.10e-06	0	43	0	4505731072	10	4015
2026-01-27 15:13:25.93	335.89	14.60	-25.6	-26.2	16.0	0.00e+00	0	44	0	4526702592	11	3842
2026-01-27 15:13:28.94	336.04	14.30	-25.6	-26.3	16.0	0.00e+00	0	44	0	4548722688	11	3865
2026-01-27 15:13:31.95	336.18	14.00	-25.8	-26.6	15.7	0.00e+00	0	44	0	4570742784	11	3958
2026-01-27 15:13:34.96	336.31	13.70	-25.9	-26.9	15.6	0.00e+00	0	44	0	4592762880	11	4020
2026-01-27 15:13:37.97	336.45	13.40	-25.9	-26.9	15.6	1.10e-06	0	44	0	4613734400	11	4018
2026-01-27 15:13:40.98	336.58	13.11	-26.0	-27.0	15.5	0.00e+00	0	44	0	4635754496	11	4055
2026-01-27 15:13:43.99	336.71	12.83	-26.2	-26.9	15.2	0.00e+00	0	44	0	4657774592	12	3928
2026-01-27 15:13:47.01	336.84	12.54	-26.2	-27.1	15.1	0.00e+00	0	44	0	4678746112	12	3975
2026-01-27 15:13:50.03	336.97	12.26	-26.3	-27.2	15.0	0.00e+00	0	44	0	4700766208	12	4004
2026-01-27 15:13:53.03	337.09	11.98	-26.2	-27.1	15.1	1.10e-06	0	44	0	4722786304	12	3966
2026-01-27 15:13:56.04	337.21	11.71	-26.3	-27.3	14.9	0.00e+00	0	44	0	4744806400	12	4030
2026-01-27 15:13:59.05	337.33	11.44	-26.3	-27.3	14.9	2.20e-06	0	44	0	4765777920	12	4032
2026-01-27 15:14:02.06	337.45	11.17	-26.4	-27.5	14.8	0.00e+00	0	44	0	4787798016	12	4086
2026-01-27 15:14:05.08	337.57	10.90	-26.4	-27.4	14.8	2.20e-06	0	44	0	4809818112	12	4054
2026-01-27 15:14:08.09	337.68	10.64	-26.5	-27.7	14.7	2.20e-06	0	44	0	4830789632	12	4131
2026-01-27 15:14:11.08	337.79	10.38	-26.7	-27.6	14.4	2.20e-06	0	44	0	4852809728	13	3996
2026-01-27 15:14:14.10	337.90	10.12	-26.9	-28.2	14.1	5.70e-06	0	44	0	4874829824	13	4148
2026-01-27 15:14:17.10	338.01	9.87	-26.8	-27.9	14.2	3.40e-06	0	43	0	4895801344	13	4076
2026-01-27 15:14:20.10	338.12	9.61	-26.8	-27.3	14.3	0.00e+00	0	44	0	4917821440	14	3824
2026-01-27 15:14:23.11	338.22	9.36	-26.9	-27.5	14.1	2.20e-06	0	43	0	4939841536	14	3879
2026-01-27 15:14:26.11	338.33	9.12	-26.9	-27.5	14.1	1.10e-06	0	44	0	4961861632	14	3867
2026-01-27 15:14:29.12	338.43	8.87	-26.9	-27.7	14.0	8.00e-06	0	44	0	4982833152	14	3928
2026-01-27 15:14:32.14	338.53	8.63	-27.1	-28.1	13.7	5.70e-06	0	44	0	5004853248	14	4020
2026-01-27 15:14:35.16	338.63	8.39	-27.1	-28.0	13.8	4.50e-06	0	44	0	5026873344	14	4005
2026-01-27 15:14:38.17	338.73	8.15	-27.1	-28.1	13.7	6.80e-06	0	44	0	5048893440	14	4026
2026-01-27 15:14:41.17	338.83	7.91	-27.2	-28.2	13.5	1.83e-05	0	44	0	5069864960	14	4063
2026-01-27 15:14:44.18	338.92	7.68	-27.3	-28.5	13.4	2.05e-05	0	44	0	5091885056	14	4128
2026-01-27 15:14:47.19	339.02	7.45	-27.4	-28.7	13.2	2.97e-05	0	43	0	5113905152	14	4204
2026-01-27 15:14:50.20	339.11	7.22	-27.4	-28.7	13.2	1.83e-05	0	44	0	5134876672	14	4202
2026-01-27 15:14:53.22	339.20	6.99	-33.7	-43.3	3.8	8.47e-01	0	44	104	5151653888	27	10861

#Closed at: 2026-01-27 15:14:55
#Recorded file [5151 MB]: D:/data/31010_260127_180258.dat