passes_logs/2026/01/27/R2M6_AANII_01/R2M6_AANII_01__20260127_014716_FENGYUN_3D_rec.log

#Pass ID: 20260127_014716_FENGYUN 3D
#Satellite: FENGYUN 3D
#Configuration: FENGYUN 3D
#almurnet v.1.7.20240730
#Start time: 2026-01-27 01:47:17

#Version: 2.2.20231116
#Station: R2M6_AANII_01
#Location: 30.233357 lon 59.946436 lat
#TLE: 1 43010U 17072A   26026.49129444  .00000151  00000+0  93391-4 0  9993
#TLE: 2 43010  98.9962 358.4866 0002525  88.1664 271.9801 14.19700337424889

#Time	Az	El	Level	Level2	SNR	BER	BlckErr	Temp	State	Recorded	gain1	gain2
2026-01-27 01:47:17.58	22.54	7.06	-28.5	-31.4	5.6	7.78e-01	0	41	0	0	16	5074
2026-01-27 01:47:20.59	22.67	7.29	-28.8	-31.7	11.0	3.19e-03	0	42	0	5242880	17	5037
2026-01-27 01:47:23.59	22.79	7.52	-29.3	-32.5	10.2	5.22e-03	0	41	0	22020096	18	5214
2026-01-27 01:47:26.60	22.92	7.74	-29.5	-32.5	9.8	9.43e-03	0	42	0	38797312	19	5116
2026-01-27 01:47:29.61	23.05	7.98	-28.4	-31.2	11.6	1.74e-03	0	42	0	55574528	16	4978
2026-01-27 01:47:32.62	23.18	8.21	-27.7	-30.1	12.5	1.20e-03	0	42	0	73400320	15	4719
2026-01-27 01:47:35.64	23.31	8.44	-28.0	-30.3	12.2	1.91e-04	0	42	0	90177536	16	4658
2026-01-27 01:47:38.65	23.45	8.68	-26.6	-28.0	14.1	1.10e-06	0	42	0	106954752	14	4207
2026-01-27 01:47:41.65	23.59	8.92	-26.3	-27.7	14.5	3.86e-04	0	42	0	123731968	13	4234
2026-01-27 01:47:44.67	23.73	9.16	-26.3	-28.2	14.5	0.00e+00	0	42	0	140509184	12	4495
2026-01-27 01:47:47.67	23.87	9.41	-26.5	-28.6	14.3	0.00e+00	0	42	0	157286400	12	4614
2026-01-27 01:47:50.69	24.01	9.65	-26.0	-27.5	15.0	0.00e+00	0	42	0	175112192	12	4278
2026-01-27 01:47:53.70	24.16	9.90	-25.9	-27.2	15.2	0.00e+00	0	42	0	191889408	12	4205
2026-01-27 01:47:56.71	24.31	10.15	-25.7	-26.9	15.4	0.00e+00	0	42	0	208666624	12	4122
2026-01-27 01:47:59.71	24.46	10.40	-25.6	-27.1	15.6	0.00e+00	0	42	0	225443840	11	4297
2026-01-27 01:48:02.71	24.61	10.66	-25.6	-27.2	15.6	0.00e+00	0	43	0	242221056	11	4306
2026-01-27 01:48:05.71	24.77	10.92	-25.6	-27.0	15.7	0.00e+00	0	43	0	258998272	11	4266
2026-01-27 01:48:08.73	24.92	11.18	-25.5	-26.9	15.8	0.00e+00	0	42	0	275775488	11	4229
2026-01-27 01:48:11.74	25.09	11.44	-25.4	-27.2	15.9	0.00e+00	0	43	0	293601280	10	4408
2026-01-27 01:48:14.75	25.25	11.71	-25.7	-27.3	14.0	0.00e+00	0	43	0	310378496	11	4337
2026-01-27 01:48:17.75	25.41	11.98	-25.3	-26.9	16.0	0.00e+00	0	43	0	327155712	10	4340
2026-01-27 01:48:20.76	25.58	12.25	-25.3	-27.0	16.0	3.52e-04	0	43	0	343932928	10	4357
2026-01-27 01:48:23.77	25.76	12.52	-25.3	-26.9	16.1	0.00e+00	0	43	0	360710144	10	4340
2026-01-27 01:48:26.78	25.93	12.80	-25.3	-26.9	16.1	0.00e+00	0	43	0	377487360	10	4323
2026-01-27 01:48:29.78	26.11	13.08	-25.3	-26.9	16.1	6.90e-04	0	43	0	394264576	10	4348
2026-01-27 01:48:32.79	26.29	13.36	-25.2	-26.7	16.2	6.73e-04	0	43	0	411041792	10	4275
2026-01-27 01:48:35.80	26.47	13.65	-25.3	-27.0	16.1	0.00e+00	0	43	0	428867584	10	4372
2026-01-27 01:48:38.82	26.66	13.94	-25.2	-26.6	16.3	7.49e-04	0	43	0	445644800	10	4264
2026-01-27 01:48:41.83	26.85	14.23	-25.1	-26.4	16.4	7.17e-04	0	43	0	462422016	10	4208
2026-01-27 01:48:44.83	27.05	14.53	-25.1	-26.4	16.4	7.26e-04	0	43	0	479199232	10	4213
2026-01-27 01:48:47.84	27.25	14.83	-24.9	-26.6	16.6	0.00e+00	0	43	0	495976448	9	4382
2026-01-27 01:48:50.85	27.45	15.13	-24.9	-26.6	16.6	4.57e-04	0	43	0	512753664	9	4370
2026-01-27 01:48:53.86	27.65	15.44	-24.8	-26.4	16.8	4.05e-04	0	43	0	529530880	9	4308
2026-01-27 01:48:56.88	27.87	15.75	-24.7	-26.0	16.9	0.00e+00	0	43	0	547356672	9	4219
2026-01-27 01:48:59.89	28.08	16.07	-24.5	-25.7	17.2	0.00e+00	0	43	0	564133888	9	4121
2026-01-27 01:49:02.90	28.30	16.38	-24.2	-25.5	17.5	6.24e-04	0	43	0	580911104	8	4184
2026-01-27 01:49:05.92	28.52	16.71	-24.1	-25.3	17.7	0.00e+00	0	43	0	597688320	8	4138
2026-01-27 01:49:08.93	28.75	17.03	-24.3	-25.7	17.5	0.00e+00	0	43	0	614465536	8	4233
2026-01-27 01:49:11.94	28.98	17.36	-24.2	-25.5	17.6	0.00e+00	0	43	0	631242752	8	4184
2026-01-27 01:49:14.95	29.22	17.70	-24.1	-25.3	17.7	0.00e+00	0	43	0	649068544	8	4136
2026-01-27 01:49:17.97	29.46	18.03	-24.2	-25.6	17.5	0.00e+00	0	43	0	665845760	8	4224
2026-01-27 01:49:20.97	29.71	18.38	-23.9	-24.8	17.9	0.00e+00	0	43	0	682622976	8	4024
2026-01-27 01:49:23.99	29.96	18.72	-23.9	-25.3	17.9	0.00e+00	0	44	0	699400192	7	4257
2026-01-27 01:49:26.99	30.22	19.07	-24.3	-25.8	17.5	0.00e+00	0	43	0	716177408	8	4263
2026-01-27 01:49:30.00	30.49	19.43	-24.2	-25.4	17.7	0.00e+00	0	43	0	732954624	8	4171
2026-01-27 01:49:33.01	30.76	19.79	-23.8	-24.7	18.0	0.00e+00	0	43	0	749731840	8	3995
2026-01-27 01:49:36.03	31.03	20.16	-23.6	-24.7	18.3	0.00e+00	0	44	0	766509056	7	4085
2026-01-27 01:49:39.03	31.31	20.52	-23.6	-24.8	18.2	0.00e+00	0	43	0	784334848	7	4131
2026-01-27 01:49:42.02	31.60	20.90	-23.7	-24.9	18.2	0.00e+00	0	43	0	801112064	7	4141
2026-01-27 01:49:45.04	31.90	21.28	-23.5	-24.5	18.4	0.00e+00	0	43	0	817889280	7	4058
2026-01-27 01:49:48.05	32.20	21.66	-23.5	-24.5	18.4	0.00e+00	0	44	0	834666496	7	4054
2026-01-27 01:49:51.06	32.51	22.05	-23.3	-24.0	18.7	0.00e+00	0	44	0	851443712	7	3931
2026-01-27 01:49:54.06	32.83	22.44	-23.2	-23.8	18.8	0.00e+00	0	43	0	868220928	7	3890
2026-01-27 01:49:57.07	33.16	22.84	-23.2	-24.4	18.1	0.00e+00	0	43	0	884998144	6	4130
2026-01-27 01:50:00.07	33.49	23.25	-23.3	-24.5	18.7	0.00e+00	0	44	0	902823936	6	4171
2026-01-27 01:50:03.09	33.83	23.66	-23.0	-24.1	19.0	0.00e+00	0	44	0	919601152	6	4055
2026-01-27 01:50:06.10	34.18	24.08	-23.1	-24.2	18.9	0.00e+00	0	44	0	936378368	6	4081
2026-01-27 01:50:09.11	34.54	24.50	-23.1	-24.2	18.9	1.56e-04	0	43	0	953155584	6	4084
2026-01-27 01:50:12.12	34.91	24.93	-22.9	-23.8	19.2	7.89e-05	0	44	0	969932800	6	3976
2026-01-27 01:50:15.13	35.30	25.36	-22.9	-23.7	19.2	0.00e+00	0	44	0	986710016	6	3964
2026-01-27 01:50:18.14	35.69	25.80	-22.8	-23.5	19.3	1.83e-04	0	44	0	1004535808	6	3922
2026-01-27 01:50:21.16	36.09	26.25	-22.7	-23.2	19.4	1.69e-04	0	44	0	1021313024	6	3857
2026-01-27 01:50:24.17	36.50	26.70	-22.8	-23.7	19.3	2.10e-04	0	44	0	1038090240	6	3951
2026-01-27 01:50:27.18	36.92	27.16	-23.1	-24.1	19.0	0.00e+00	0	44	0	1054867456	6	4060
2026-01-27 01:50:30.20	37.36	27.63	-22.8	-23.6	19.3	1.28e-04	0	44	0	1071644672	6	3934
2026-01-27 01:50:33.20	37.81	28.10	-22.8	-23.5	19.4	1.05e-04	0	44	0	1088421888	6	3908
2026-01-27 01:50:36.21	38.27	28.57	-22.5	-22.8	19.7	0.00e+00	0	44	0	1105199104	6	3762
2026-01-27 01:50:39.23	38.75	29.06	-22.6	-23.2	19.5	0.00e+00	0	44	0	1123024896	6	3847
2026-01-27 01:50:42.24	39.24	29.55	-22.7	-23.5	19.4	8.46e-05	0	44	0	1139802112	6	3908
2026-01-27 01:50:45.25	39.74	30.05	-22.7	-23.3	19.5	0.00e+00	0	44	0	1156579328	6	3859
2026-01-27 01:50:48.26	40.26	30.55	-22.5	-23.0	19.6	0.00e+00	0	44	0	1173356544	6	3793
2026-01-27 01:50:51.26	40.79	31.06	-22.6	-23.0	19.6	0.00e+00	0	44	0	1190133760	6	3808
2026-01-27 01:50:54.27	41.35	31.57	-22.6	-23.2	19.6	9.10e-06	0	44	0	1206910976	6	3847
2026-01-27 01:50:57.29	41.92	32.09	-22.5	-22.9	19.7	1.27e-04	0	44	0	1224736768	6	3781
2026-01-27 01:51:00.29	42.51	32.62	-22.4	-22.8	19.8	0.00e+00	0	44	0	1241513984	6	3746
2026-01-27 01:51:03.31	43.11	33.16	-22.6	-23.2	19.6	2.86e-05	0	44	0	1258291200	6	3839
2026-01-27 01:51:06.32	43.74	33.70	-22.6	-23.1	19.7	1.56e-04	0	44	0	1275068416	6	3814
2026-01-27 01:51:09.32	44.39	34.24	-22.7	-23.4	19.5	1.33e-04	0	44	0	1291845632	6	3892
2026-01-27 01:51:12.34	45.06	34.79	-22.4	-22.7	19.9	6.80e-06	0	44	0	1308622848	6	3720
2026-01-27 01:51:15.35	45.75	35.35	-22.1	-22.6	20.1	0.00e+00	0	44	0	1325400064	5	3816
2026-01-27 01:51:18.37	46.47	35.91	-22.3	-22.9	20.0	0.00e+00	0	44	0	1343225856	5	3882
2026-01-27 01:51:21.37	47.21	36.48	-22.1	-22.5	20.2	0.00e+00	0	44	0	1360003072	5	3784
2026-01-27 01:51:24.38	47.98	37.05	-22.2	-22.9	20.0	4.23e-05	0	44	0	1376780288	5	3876
2026-01-27 01:51:27.39	48.77	37.63	-22.3	-23.1	19.9	1.83e-05	0	44	0	1393557504	5	3929
2026-01-27 01:51:30.41	49.60	38.21	-22.0	-22.4	20.3	0.00e+00	0	44	0	1410334720	5	3760
2026-01-27 01:51:33.43	50.45	38.79	-22.0	-22.3	20.4	0.00e+00	0	44	0	1427111936	5	3738
2026-01-27 01:51:36.44	51.34	39.38	-22.2	-22.7	20.2	1.54e-04	0	44	0	1444937728	5	3836
2026-01-27 01:51:39.45	52.25	39.97	-22.2	-22.8	20.1	0.00e+00	0	44	0	1461714944	5	3871
2026-01-27 01:51:42.47	53.20	40.56	-22.1	-22.6	20.2	0.00e+00	0	44	0	1478492160	5	3812
2026-01-27 01:51:45.48	54.19	41.15	-22.4	-23.2	20.0	0.00e+00	0	44	0	1495269376	5	3939
2026-01-27 01:51:48.49	55.21	41.74	-22.3	-23.1	20.0	0.00e+00	0	44	0	1512046592	5	3917
2026-01-27 01:51:51.49	56.26	42.33	-22.2	-22.8	20.2	0.00e+00	0	44	0	1528823808	5	3859
2026-01-27 01:51:54.49	57.35	42.92	-22.4	-23.2	20.0	0.00e+00	0	44	0	1545601024	5	3939
2026-01-27 01:51:57.50	58.49	43.50	-22.3	-22.9	20.1	0.00e+00	0	44	0	1563426816	5	3880
2026-01-27 01:52:00.52	59.67	44.09	-22.3	-23.1	20.0	0.00e+00	0	44	0	1580204032	5	3915
2026-01-27 01:52:03.52	60.89	44.67	-22.4	-23.2	20.0	0.00e+00	0	44	0	1596981248	5	3935
2026-01-27 01:52:06.53	62.15	45.24	-22.8	-24.1	19.6	0.00e+00	0	44	0	1613758464	5	4162
2026-01-27 01:52:09.54	63.46	45.80	-22.7	-23.7	19.7	0.00e+00	0	44	0	1630535680	5	4074
2026-01-27 01:52:12.54	64.82	46.35	-23.1	-24.2	19.3	0.00e+00	0	44	0	1647312896	6	4069
2026-01-27 01:52:15.55	66.22	46.90	-22.7	-23.3	19.7	0.00e+00	0	44	0	1664090112	6	3874
2026-01-27 01:52:18.56	67.68	47.43	-22.6	-23.1	19.9	0.00e+00	0	44	0	1680867328	6	3815
2026-01-27 01:52:21.56	69.18	47.95	-22.5	-22.8	20.0	0.00e+00	0	44	0	1698693120	6	3749
2026-01-27 01:52:24.57	70.73	48.45	-22.2	-22.9	20.2	0.00e+00	0	44	0	1715470336	5	3862
2026-01-27 01:52:27.57	72.33	48.94	-22.6	-23.8	19.6	0.00e+00	0	44	0	1732247552	5	4094
2026-01-27 01:52:30.58	73.99	49.41	-22.2	-22.9	20.1	0.00e+00	0	44	0	1749024768	5	3879
2026-01-27 01:52:33.59	75.70	49.85	-22.6	-23.7	19.7	8.00e-06	0	44	0	1765801984	5	4062
2026-01-27 01:52:36.61	77.46	50.28	-22.9	-23.8	19.4	0.00e+00	0	44	0	1782579200	6	3992
2026-01-27 01:52:39.62	79.26	50.68	-22.8	-23.5	19.5	0.00e+00	0	44	0	1799356416	6	3922
2026-01-27 01:52:42.63	81.11	51.05	-22.8	-23.6	19.5	8.00e-06	0	44	0	1817182208	6	3951
2026-01-27 01:52:45.64	83.00	51.39	-22.4	-22.7	20.0	0.00e+00	0	44	0	1833959424	6	3733
2026-01-27 01:52:48.64	84.93	51.70	-22.9	-23.7	19.4	0.00e+00	0	44	0	1850736640	6	3980
2026-01-27 01:52:51.66	86.91	51.98	-22.8	-23.6	19.5	2.63e-05	0	44	0	1867513856	6	3944
2026-01-27 01:52:54.67	88.92	52.23	-22.9	-23.8	19.4	0.00e+00	0	44	0	1884291072	6	4004
2026-01-27 01:52:57.68	90.96	52.44	-22.9	-23.8	19.4	1.60e-05	0	44	0	1902116864	6	3989
2026-01-27 01:53:00.70	93.03	52.61	-22.9	-23.9	19.4	2.13e-04	0	44	0	1918894080	6	4023
2026-01-27 01:53:03.70	95.12	52.75	-23.2	-24.5	19.1	0.00e+00	0	44	0	1935671296	6	4158
2026-01-27 01:53:06.72	97.23	52.85	-22.7	-23.4	19.6	4.69e-05	0	44	0	1952448512	6	3885
2026-01-27 01:53:09.74	99.35	52.91	-23.2	-24.5	19.1	0.00e+00	0	44	0	1969225728	6	4167
2026-01-27 01:53:12.74	101.47	52.93	-23.1	-24.3	19.2	0.00e+00	0	44	0	1986002944	6	4110
2026-01-27 01:53:15.75	103.60	52.91	-22.9	-23.9	19.4	0.00e+00	0	44	0	2002780160	6	4020
2026-01-27 01:53:18.77	105.72	52.85	-23.3	-24.6	19.1	0.00e+00	0	44	0	2019557376	6	4190
2026-01-27 01:53:21.77	107.82	52.75	-23.0	-24.1	19.3	0.00e+00	0	44	0	2037383168	6	4059
2026-01-27 01:53:24.80	109.92	52.61	-22.6	-23.1	19.8	0.00e+00	0	44	0	2054160384	6	3818
2026-01-27 01:53:27.81	111.99	52.44	-23.1	-24.2	19.3	0.00e+00	0	44	0	2070937600	6	4081
2026-01-27 01:53:30.83	114.04	52.23	-23.5	-24.6	18.8	0.00e+00	0	44	0	2087714816	7	4068
2026-01-27 01:53:33.85	116.06	51.98	-23.4	-24.4	18.9	0.00e+00	0	44	0	2104492032	7	4023
2026-01-27 01:53:36.86	118.04	51.70	-23.2	-23.9	19.2	0.00e+00	0	44	0	2122317824	7	3915
2026-01-27 01:53:39.87	119.97	51.38	-23.3	-24.0	19.1	0.00e+00	0	44	0	2139095040	7	3940
2026-01-27 01:53:42.88	121.87	51.04	-22.7	-23.3	19.7	0.00e+00	0	44	0	2155872256	6	3873
2026-01-27 01:53:45.89	123.72	50.67	-23.1	-24.2	19.2	0.00e+00	0	44	0	2172649472	6	4106
2026-01-27 01:53:48.90	125.53	50.27	-23.0	-24.1	19.3	0.00e+00	0	44	0	2189426688	6	4063
2026-01-27 01:53:51.90	127.28	49.85	-22.7	-23.3	19.7	0.00e+00	0	44	0	2206203904	6	3879
2026-01-27 01:53:54.91	128.98	49.40	-22.6	-23.2	19.7	0.00e+00	0	44	0	2222981120	6	3847
2026-01-27 01:53:57.91	130.64	48.93	-22.7	-23.4	19.7	0.00e+00	0	44	0	2239758336	6	3897
2026-01-27 01:54:00.93	132.25	48.44	-22.3	-22.9	20.0	0.00e+00	0	44	0	2257584128	5	3897
2026-01-27 01:54:03.93	133.80	47.94	-23.1	-24.3	19.2	0.00e+00	0	44	0	2274361344	6	4116
2026-01-27 01:54:06.95	135.32	47.41	-22.5	-22.9	19.9	0.00e+00	0	44	0	2291138560	6	3769
2026-01-27 01:54:09.96	136.77	46.88	-22.6	-23.3	19.6	0.00e+00	0	44	0	2307915776	6	3873
2026-01-27 01:54:12.97	138.18	46.33	-22.5	-23.0	19.8	0.00e+00	0	44	0	2324692992	6	3809
2026-01-27 01:54:16.00	139.55	45.77	-23.0	-24.1	19.2	0.00e+00	0	44	0	2342518784	6	4069
2026-01-27 01:54:19.01	140.86	45.20	-23.0	-24.1	19.2	0.00e+00	0	44	0	2359296000	6	4063
2026-01-27 01:54:22.03	142.14	44.63	-22.7	-23.4	19.5	0.00e+00	0	44	0	2376073216	6	3918
2026-01-27 01:54:25.04	143.36	44.05	-22.5	-23.0	19.7	0.00e+00	0	44	0	2392850432	6	3807
2026-01-27 01:54:28.06	144.54	43.46	-22.4	-22.8	19.8	0.00e+00	0	44	0	2409627648	6	3769
2026-01-27 01:54:31.08	145.68	42.87	-22.7	-23.4	19.5	0.00e+00	0	44	0	2426404864	6	3908
2026-01-27 01:54:34.08	146.77	42.28	-22.8	-23.7	19.3	0.00e+00	0	44	0	2444230656	6	3958
2026-01-27 01:54:37.09	147.83	41.68	-22.1	-22.6	20.1	0.00e+00	0	44	0	2461007872	5	3836
2026-01-27 01:54:40.10	148.85	41.09	-22.1	-22.6	20.1	0.00e+00	0	44	0	2477785088	5	3821
2026-01-27 01:54:43.10	149.83	40.50	-22.4	-23.2	19.7	0.00e+00	0	44	0	2494562304	5	3974
2026-01-27 01:54:46.12	150.78	39.90	-22.5	-23.5	19.6	0.00e+00	0	44	0	2511339520	5	4049
2026-01-27 01:54:49.13	151.70	39.31	-22.2	-23.0	19.9	0.00e+00	0	44	0	2528116736	5	3906
2026-01-27 01:54:52.14	152.58	38.72	-22.0	-22.4	20.2	0.00e+00	0	44	0	2544893952	5	3772
2026-01-27 01:54:55.15	153.44	38.14	-22.5	-23.5	19.6	0.00e+00	0	44	0	2562719744	5	4050
2026-01-27 01:54:58.16	154.26	37.55	-22.9	-24.3	19.2	0.00e+00	0	44	0	2579496960	5	4242
2026-01-27 01:55:01.16	155.05	36.98	-22.5	-23.0	19.6	0.00e+00	0	44	0	2596274176	6	3807
2026-01-27 01:55:04.18	155.82	36.40	-22.3	-23.2	19.8	0.00e+00	0	44	0	2613051392	5	3959
2026-01-27 01:55:07.19	156.56	35.83	-22.1	-22.7	20.0	0.00e+00	0	44	0	2629828608	5	3857
2026-01-27 01:55:10.19	157.28	35.27	-21.9	-22.3	20.2	0.00e+00	0	44	0	2646605824	5	3764
2026-01-27 01:55:13.20	157.97	34.71	-22.2	-22.8	19.9	0.00e+00	0	44	0	2663383040	5	3881
2026-01-27 01:55:16.19	158.64	34.16	-22.3	-23.0	19.8	0.00e+00	0	44	0	2680160256	5	3927
2026-01-27 01:55:19.21	159.29	33.61	-22.3	-23.0	19.8	5.60e-05	0	44	0	2697986048	5	3932
2026-01-27 01:55:22.22	159.91	33.07	-22.2	-22.9	19.8	0.00e+00	0	44	0	2714763264	5	3904
2026-01-27 01:55:25.23	160.52	32.53	-22.3	-23.1	19.8	0.00e+00	0	44	0	2731540480	5	3935
2026-01-27 01:55:28.24	161.11	32.00	-22.4	-23.4	19.6	1.58e-04	0	44	0	2748317696	5	4011
2026-01-27 01:55:31.25	161.68	31.48	-22.7	-23.9	19.3	0.00e+00	0	44	0	2765094912	5	4153
2026-01-27 01:55:34.26	162.23	30.96	-22.8	-24.1	19.2	0.00e+00	0	44	0	2781872128	5	4185
2026-01-27 01:55:37.27	162.77	30.45	-22.5	-23.5	19.5	0.00e+00	0	44	0	2798649344	5	4030
2026-01-27 01:55:40.29	163.29	29.94	-22.8	-24.1	19.3	0.00e+00	0	44	0	2816475136	5	4180
2026-01-27 01:55:43.31	163.79	29.44	-22.8	-24.1	19.2	0.00e+00	0	44	0	2833252352	5	4201
2026-01-27 01:55:46.33	164.28	28.95	-23.2	-24.4	18.8	0.00e+00	0	44	0	2850029568	6	4159
2026-01-27 01:55:49.34	164.76	28.46	-22.7	-23.5	19.3	0.00e+00	0	44	0	2866806784	6	3943
2026-01-27 01:55:52.35	165.22	27.98	-22.5	-23.6	19.4	0.00e+00	0	44	0	2883584000	5	4064
2026-01-27 01:55:55.36	165.67	27.51	-22.5	-23.5	19.5	0.00e+00	0	44	0	2900361216	5	4049
2026-01-27 01:55:58.37	166.10	27.04	-22.5	-23.5	19.5	0.00e+00	0	44	0	2918187008	5	4049
2026-01-27 01:56:01.39	166.53	26.58	-22.5	-23.6	19.4	0.00e+00	0	44	0	2934964224	5	4074
2026-01-27 01:56:04.41	166.94	26.12	-22.6	-23.7	19.3	0.00e+00	0	44	0	2951741440	5	4104
2026-01-27 01:56:07.42	167.34	25.67	-22.7	-24.0	19.2	0.00e+00	0	44	0	2968518656	5	4166
2026-01-27 01:56:10.43	167.73	25.23	-22.9	-24.3	19.1	0.00e+00	0	44	0	2985295872	5	4239
2026-01-27 01:56:13.44	168.11	24.80	-23.0	-24.5	19.0	0.00e+00	0	44	0	3003121664	5	4286
2026-01-27 01:56:16.45	168.48	24.37	-23.1	-24.4	18.8	0.00e+00	0	44	0	3019898880	6	4141
2026-01-27 01:56:19.46	168.84	23.94	-23.0	-24.1	18.9	0.00e+00	0	44	0	3036676096	6	4078
2026-01-27 01:56:22.47	169.19	23.52	-23.0	-24.1	18.9	0.00e+00	0	44	0	3053453312	6	4086
2026-01-27 01:56:25.48	169.53	23.11	-23.0	-24.1	18.9	0.00e+00	0	44	0	3070230528	6	4073
2026-01-27 01:56:28.50	169.86	22.70	-23.2	-24.5	18.7	0.00e+00	0	44	0	3087007744	6	4173
2026-01-27 01:56:31.51	170.19	22.30	-23.3	-24.7	18.6	0.00e+00	0	44	0	3103784960	6	4228
2026-01-27 01:56:34.52	170.50	21.90	-23.6	-24.8	18.3	0.00e+00	0	44	0	3121610752	7	4137
2026-01-27 01:56:37.53	170.81	21.51	-23.5	-24.6	18.3	0.00e+00	0	44	0	3138387968	7	4088
2026-01-27 01:56:40.55	171.11	21.12	-23.6	-24.8	18.2	0.00e+00	0	44	0	3155165184	7	4153
2026-01-27 01:56:43.57	171.41	20.74	-23.6	-24.9	18.2	0.00e+00	0	44	0	3171942400	7	4173
2026-01-27 01:56:46.58	171.70	20.37	-23.6	-24.9	18.2	0.00e+00	0	44	0	3188719616	7	4178
2026-01-27 01:56:49.58	171.98	20.00	-23.5	-24.6	18.3	0.00e+00	0	44	0	3205496832	7	4102
2026-01-27 01:56:52.59	172.25	19.63	-23.5	-24.7	18.3	0.00e+00	0	44	0	3223322624	7	4103
2026-01-27 01:56:55.61	172.52	19.27	-23.6	-24.9	18.1	0.00e+00	0	44	0	3240099840	7	4167
2026-01-27 01:56:58.62	172.78	18.91	-23.8	-25.1	18.0	0.00e+00	0	44	0	3256877056	7	4228
2026-01-27 01:57:01.63	173.04	18.56	-23.9	-25.4	17.9	0.00e+00	0	44	0	3273654272	7	4303
2026-01-27 01:57:04.64	173.29	18.21	-24.1	-25.3	17.7	0.00e+00	0	44	0	3290431488	8	4150
2026-01-27 01:57:07.65	173.54	17.87	-24.2	-25.6	17.6	0.00e+00	0	44	0	3307208704	8	4228
2026-01-27 01:57:10.67	173.78	17.53	-24.3	-25.8	17.4	0.00e+00	0	44	0	3323985920	8	4292
2026-01-27 01:57:13.67	174.01	17.19	-24.4	-26.1	17.3	0.00e+00	0	44	0	3341811712	8	4372
2026-01-27 01:57:16.69	174.24	16.86	-24.5	-25.8	17.2	0.00e+00	0	44	0	3358588928	9	4174
2026-01-27 01:57:19.71	174.47	16.53	-24.6	-26.1	17.0	0.00e+00	0	44	0	3375366144	9	4249
2026-01-27 01:57:22.71	174.69	16.21	-24.9	-26.6	16.7	0.00e+00	0	44	0	3392143360	9	4376
2026-01-27 01:57:25.72	174.91	15.89	-25.1	-26.7	16.4	0.00e+00	0	44	0	3408920576	10	4294
2026-01-27 01:57:28.73	175.12	15.58	-25.2	-26.7	16.3	0.00e+00	0	44	0	3426746368	10	4312
2026-01-27 01:57:31.74	175.33	15.27	-25.2	-26.8	16.3	0.00e+00	0	44	0	3443523584	10	4333
2026-01-27 01:57:34.75	175.53	14.96	-25.1	-26.7	16.4	0.00e+00	0	44	0	3460300800	10	4292
2026-01-27 01:57:37.76	175.73	14.65	-25.0	-26.4	16.5	0.00e+00	0	44	0	3477078016	10	4229
2026-01-27 01:57:40.77	175.93	14.35	-24.9	-26.2	16.6	0.00e+00	0	44	0	3493855232	10	4169
2026-01-27 01:57:43.77	176.12	14.06	-25.0	-26.4	16.4	0.00e+00	0	44	0	3510632448	10	4230
2026-01-27 01:57:46.78	176.31	13.76	-25.2	-26.9	16.2	0.00e+00	0	44	0	3527409664	10	4343
2026-01-27 01:57:49.79	176.49	13.47	-25.3	-26.9	16.1	0.00e+00	0	44	0	3544186880	10	4365
2026-01-27 01:57:52.81	176.68	13.18	-25.3	-27.0	16.1	0.00e+00	0	44	0	3562012672	10	4392
2026-01-27 01:57:55.81	176.86	12.90	-25.2	-27.0	15.8	0.00e+00	0	44	0	3578789888	10	4418
2026-01-27 01:57:58.81	177.03	12.62	-25.5	-27.0	15.7	0.00e+00	0	44	0	3595567104	11	4277
2026-01-27 01:58:01.81	177.20	12.34	-25.6	-27.1	15.7	0.00e+00	0	44	0	3612344320	11	4295
2026-01-27 01:58:04.82	177.37	12.06	-25.8	-27.6	15.4	0.00e+00	0	44	0	3629121536	11	4444
2026-01-27 01:58:07.83	177.54	11.79	-25.8	-27.8	15.3	0.00e+00	0	44	0	3645898752	11	4483
2026-01-27 01:58:10.86	177.70	11.52	-25.9	-27.5	15.1	3.79e-04	0	44	0	3662675968	12	4286
2026-01-27 01:58:13.86	177.86	11.25	-25.9	-27.4	15.1	4.70e-04	0	44	0	3679453184	12	4271
2026-01-27 01:58:16.88	178.02	10.99	-26.0	-28.0	15.1	4.24e-04	0	44	0	3697278976	11	4563
2026-01-27 01:58:19.88	178.18	10.73	-26.1	-27.9	14.8	4.66e-04	0	44	0	3714056192	12	4415
2026-01-27 01:58:22.89	178.33	10.47	-26.0	-27.7	14.9	5.65e-04	0	44	0	3730833408	12	4347
2026-01-27 01:58:25.90	178.48	10.21	-26.1	-27.9	14.8	6.42e-04	0	44	0	3747610624	12	4408
2026-01-27 01:58:28.91	178.63	9.96	-25.9	-27.5	15.0	5.26e-04	0	44	0	3764387840	12	4301
2026-01-27 01:58:31.92	178.78	9.71	-26.1	-27.8	14.9	5.89e-04	0	44	0	3781165056	12	4377
2026-01-27 01:58:34.93	178.92	9.46	-26.0	-27.6	14.9	4.02e-04	0	44	0	3798990848	12	4342
2026-01-27 01:58:37.94	179.06	9.21	-26.2	-28.0	14.7	1.83e-05	0	44	0	3815768064	12	4460
2026-01-27 01:58:40.94	179.20	8.97	-26.1	-27.8	14.8	2.17e-05	0	44	0	3832545280	12	4399
2026-01-27 01:58:43.94	179.33	8.72	-26.0	-27.7	14.8	3.86e-04	0	44	0	3849322496	12	4364
2026-01-27 01:58:46.95	179.47	8.48	-26.2	-28.1	14.6	3.96e-04	0	44	0	3866099712	12	4472
2026-01-27 01:58:49.95	179.60	8.25	-26.1	-27.9	14.7	1.71e-05	0	44	0	3882876928	12	4403
2026-01-27 01:58:52.96	179.73	8.01	-26.2	-28.1	14.5	1.48e-05	0	44	0	3899654144	12	4491
2026-01-27 01:58:55.97	179.86	7.78	-26.4	-28.6	14.2	2.17e-05	0	44	0	3916431360	12	4621
2026-01-27 01:58:58.98	179.99	7.54	-26.6	-28.6	13.9	1.10e-06	0	44	0	3933208576	13	4509
2026-01-27 01:59:01.99	180.11	7.32	-26.8	-29.1	13.6	1.10e-06	0	44	0	3951034368	13	4650
2026-01-27 01:59:05.00	180.24	7.09	-27.1	-29.2	13.3	2.05e-05	0	44	0	3967811584	14	4570

#Closed at: 2026-01-27 01:59:07
#Recorded file [3969 MB]: D:/data/31010_260127_044719.dat