passes_logs/2026/01/27/R2M6_AANII_01/R2M6_AANII_01__20260127_002030_NOAA_21_JPSS-2_rec.log

#Pass ID: 20260127_002030_NOAA 21 (JPSS-2)
#Satellite: NOAA 21 (JPSS-2)
#Configuration: NOAA 21
#almurnet v.1.7.20240730
#Start time: 2026-01-27 00:23:56

#Version: 2.2.20231116
#Station: R2M6_AANII_01
#Location: 30.233357 lon 59.946436 lat
#TLE: 1 54234U 22150A   26026.43130734  .00000179  00000+0  10559-3 0  9998
#TLE: 2 54234  98.7509 327.1934 0000805 209.8356 150.2774 14.19539635166435

#Time	Az	El	Level	Level2	SNR	BER	BlckErr	Temp	State	Recorded	gain1	gain2
2026-01-27 00:23:56.39	18.81	31.99	-34.0	-53.7	3.8	7.44e-01	0	44	0	0	28	34770
2026-01-27 00:23:59.39	18.81	32.60	-34.3	-46.5	3.8	1.49e+00	0	44	104	0	28	14636
2026-01-27 00:24:02.40	18.82	33.24	-34.4	-46.7	3.8	1.49e+00	0	44	104	0	28	14750
2026-01-27 00:24:05.42	18.83	33.89	-34.3	-46.5	3.8	1.49e+00	0	44	104	0	28	14656
2026-01-27 00:24:08.44	18.84	34.55	-34.3	-46.4	3.8	1.49e+00	0	44	104	0	28	14573
2026-01-27 00:24:11.45	18.84	35.22	-34.3	-46.4	3.8	1.49e+00	0	44	104	0	28	14534
2026-01-27 00:24:14.47	18.85	35.91	-34.5	-46.8	3.8	1.49e+00	0	44	104	0	28	14865
2026-01-27 00:24:17.49	18.86	36.62	-34.5	-46.4	3.8	1.49e+00	0	44	104	0	29	14056
2026-01-27 00:24:20.50	18.86	37.34	-34.4	-46.2	3.8	1.49e+00	0	44	104	0	29	14032
2026-01-27 00:24:23.51	18.87	38.07	-34.4	-46.6	3.8	1.49e+00	0	44	104	0	28	14704
2026-01-27 00:24:26.53	18.88	38.83	-34.3	-46.3	3.8	1.49e+00	0	44	104	0	28	14304
2026-01-27 00:24:29.54	18.88	39.60	-34.3	-46.1	3.8	1.49e+00	0	44	104	0	28	14019
2026-01-27 00:24:32.55	18.89	40.39	-34.2	-45.2	3.8	1.49e+00	0	44	104	0	28	12744
2026-01-27 00:24:35.56	18.89	41.19	-34.3	-46.0	3.8	1.49e+00	0	44	104	0	28	13963
2026-01-27 00:24:38.57	18.90	42.01	-34.2	-46.0	3.9	1.49e+00	0	44	104	0	28	13893
2026-01-27 00:24:41.59	18.90	42.86	-34.3	-46.2	3.8	1.49e+00	0	44	104	0	28	14252
2026-01-27 00:24:44.60	18.91	43.72	-33.6	-41.7	4.0	1.48e+00	0	44	104	0	27	9081
2026-01-27 00:24:47.61	18.91	44.60	-30.6	-33.0	11.6	2.25e-03	0	44	0	5242880	22	4711
2026-01-27 00:24:50.63	18.91	45.51	-31.0	-34.0	11.0	6.37e-04	0	44	0	14680064	22	5064
2026-01-27 00:24:53.65	18.92	46.43	-31.6	-35.2	9.7	7.90e-03	0	44	0	24117248	23	5430
2026-01-27 00:24:56.66	18.92	47.37	-30.6	-33.0	11.5	1.46e-03	0	44	0	33554432	22	4703
2026-01-27 00:24:59.68	18.92	48.34	-29.3	-31.1	13.7	5.19e-04	0	44	0	42991616	19	4437
2026-01-27 00:25:02.70	18.92	49.33	-28.6	-30.0	14.6	2.89e-04	0	44	0	52428800	18	4229
2026-01-27 00:25:05.72	18.92	50.35	-28.1	-29.4	15.2	2.79e-04	0	44	0	61865984	17	4145
2026-01-27 00:25:08.74	18.92	51.38	-28.3	-29.7	15.1	2.10e-04	0	44	0	71303168	17	4235
2026-01-27 00:25:11.75	18.92	52.44	-28.5	-30.1	14.9	6.17e-05	0	44	0	80740352	17	4344
2026-01-27 00:25:14.76	18.92	53.52	-28.3	-29.8	15.0	8.77e-05	0	44	0	90177536	17	4279
2026-01-27 00:25:17.77	18.91	54.62	-28.3	-29.8	15.0	0.00e+00	0	44	0	99614720	17	4262
2026-01-27 00:25:20.78	18.91	55.74	-27.8	-28.7	15.6	1.50e-04	0	44	0	109051904	17	3979
2026-01-27 00:25:23.80	18.90	56.90	-27.9	-29.3	15.5	0.00e+00	0	44	0	118489088	16	4253
2026-01-27 00:25:26.81	18.89	58.07	-28.4	-30.5	14.9	8.77e-05	0	44	0	127926272	16	4610
2026-01-27 00:25:29.82	18.88	59.27	-28.0	-29.6	15.4	0.00e+00	0	44	0	137363456	16	4327
2026-01-27 00:25:32.83	18.87	60.49	-27.6	-28.7	15.9	0.00e+00	0	44	0	146800640	16	4072
2026-01-27 00:25:35.84	18.86	61.74	-26.7	-27.8	16.8	0.00e+00	0	44	0	156237824	14	4065
2026-01-27 00:25:38.85	18.84	63.01	-26.6	-27.5	16.9	0.00e+00	0	44	0	165675008	14	3984
2026-01-27 00:25:41.85	18.82	64.30	-26.6	-28.1	16.8	0.00e+00	0	44	0	175112192	13	4265
2026-01-27 00:25:44.87	18.80	65.62	-25.9	-26.5	17.6	0.00e+00	0	44	0	184549376	13	3862
2026-01-27 00:25:47.88	18.77	66.96	-26.4	-28.1	17.1	0.00e+00	0	44	0	193986560	12	4379
2026-01-27 00:25:50.88	18.74	68.32	-26.2	-27.7	17.3	0.00e+00	0	44	0	203423744	12	4272
2026-01-27 00:25:53.89	18.70	69.70	-26.0	-27.2	17.5	0.00e+00	0	44	0	212860928	12	4138
2026-01-27 00:25:56.89	18.65	71.10	-26.0	-27.6	17.7	0.00e+00	0	44	0	222298112	11	4344
2026-01-27 00:25:59.90	18.60	72.52	-25.7	-27.0	18.0	0.00e+00	0	44	0	231735296	11	4192
2026-01-27 00:26:02.92	18.53	73.97	-26.2	-27.6	17.4	0.00e+00	0	44	0	241172480	12	4236
2026-01-27 00:26:05.93	18.44	75.42	-26.4	-28.0	17.2	0.00e+00	0	44	0	250609664	12	4329
2026-01-27 00:26:08.94	18.33	76.90	-26.2	-27.6	17.3	0.00e+00	0	44	0	260046848	12	4244
2026-01-27 00:26:11.95	18.19	78.39	-26.4	-28.1	17.1	0.00e+00	0	44	0	269484032	12	4371
2026-01-27 00:26:14.96	18.00	79.89	-26.5	-27.7	17.1	0.00e+00	0	44	0	278921216	13	4155
2026-01-27 00:26:17.97	17.74	81.41	-26.4	-27.6	17.1	0.00e+00	0	44	0	288358400	13	4131
2026-01-27 00:26:20.98	17.36	82.93	-26.5	-27.8	17.0	0.00e+00	0	44	0	297795584	13	4176
2026-01-27 00:26:24.00	16.76	84.47	-27.5	-28.9	15.9	0.00e+00	0	44	0	307232768	15	4259
2026-01-27 00:26:27.01	15.69	86.01	-28.3	-30.2	15.0	0.00e+00	0	44	0	316669952	16	4495
2026-01-27 00:26:30.03	13.25	87.55	-28.4	-29.9	15.0	7.00e-07	0	44	0	326107136	17	4304
2026-01-27 00:26:33.05	2.53	89.08	-28.4	-29.9	15.2	0.00e+00	0	44	0	335544320	17	4276
2026-01-27 00:26:36.06	221.47	89.28	-31.4	-35.0	10.4	2.90e-03	0	44	0	344981504	22	5465
2026-01-27 00:26:39.06	206.53	87.77	-26.8	-27.5	16.4	2.03e-04	0	44	0	354418688	15	3905
2026-01-27 00:26:42.07	203.70	86.23	-26.8	-28.0	16.4	0.00e+00	0	44	0	363855872	14	4121
2026-01-27 00:26:45.08	202.52	84.69	-26.6	-27.9	16.7	0.00e+00	0	44	0	372244480	13	4215
2026-01-27 00:26:48.08	201.88	83.16	-26.6	-28.0	16.6	0.00e+00	0	44	0	381681664	13	4238
2026-01-27 00:26:51.10	201.48	81.63	-26.7	-27.8	16.4	0.00e+00	0	44	0	392167424	14	4092
2026-01-27 00:26:54.09	201.20	80.12	-26.0	-26.7	17.3	0.00e+00	0	44	0	400556032	13	3899
2026-01-27 00:26:57.10	201.01	78.61	-26.0	-27.3	17.2	0.00e+00	0	44	0	409993216	12	4164
2026-01-27 00:27:00.12	200.86	77.11	-26.6	-28.0	16.5	0.00e+00	0	44	0	419430400	13	4254
2026-01-27 00:27:03.13	200.74	75.63	-25.2	-26.0	18.2	0.00e+00	0	44	0	428867584	11	3950
2026-01-27 00:27:06.14	200.65	74.17	-25.4	-27.0	17.9	1.22e-05	0	44	0	438304768	10	4309
2026-01-27 00:27:09.14	200.58	72.73	-25.6	-26.9	17.6	0.00e+00	0	44	0	447741952	11	4175
2026-01-27 00:27:12.16	200.52	71.29	-25.8	-27.4	17.5	2.28e-05	0	44	0	457179136	11	4295
2026-01-27 00:27:15.17	200.47	69.89	-26.2	-27.2	16.9	0.00e+00	0	44	0	466616320	13	4044
2026-01-27 00:27:18.18	200.43	68.50	-25.2	-25.9	18.2	0.00e+00	0	44	0	476053504	11	3929
2026-01-27 00:27:21.19	200.39	67.13	-26.6	-28.2	16.4	0.00e+00	0	44	0	485490688	13	4287
2026-01-27 00:27:24.20	200.37	65.78	-26.0	-26.7	17.1	0.00e+00	0	44	0	494927872	13	3910
2026-01-27 00:27:27.20	200.34	64.46	-25.7	-26.9	17.6	0.00e+00	0	44	0	504365056	11	4177
2026-01-27 00:27:30.20	200.32	63.17	-27.7	-29.6	15.1	0.00e+00	0	44	0	513802240	15	4471
2026-01-27 00:27:33.20	200.30	61.89	-27.6	-29.2	15.2	0.00e+00	0	44	0	523239424	15	4360
2026-01-27 00:27:36.21	200.29	60.64	-26.4	-27.5	16.8	0.00e+00	0	44	0	532676608	13	4117
2026-01-27 00:27:39.22	200.28	59.41	-28.4	-30.6	14.5	0.00e+00	0	44	0	542113792	16	4651
2026-01-27 00:27:42.23	200.27	58.20	-27.1	-28.1	15.8	0.00e+00	0	44	0	551550976	15	4061
2026-01-27 00:27:45.24	200.26	57.02	-28.0	-30.2	14.7	0.00e+00	0	44	0	560988160	15	4659
2026-01-27 00:27:48.23	200.25	55.87	-29.3	-31.7	13.2	2.44e-05	0	44	0	570425344	18	4757
2026-01-27 00:27:51.24	200.25	54.74	-29.7	-31.9	12.4	3.23e-04	0	44	0	579862528	20	4626
2026-01-27 00:27:54.25	200.24	53.63	-27.3	-28.5	15.7	0.00e+00	0	44	0	589299712	15	4165
2026-01-27 00:27:57.27	200.24	52.54	-27.8	-29.7	14.9	0.00e+00	0	44	0	598736896	15	4508
2026-01-27 00:28:00.27	200.24	51.48	-28.8	-31.2	13.8	2.20e-06	0	44	0	608174080	17	4717
2026-01-27 00:28:03.28	200.23	50.44	-29.6	-32.0	12.7	9.61e-05	0	44	0	617611264	19	4764
2026-01-27 00:28:06.30	200.23	49.42	-28.7	-30.3	13.9	6.80e-06	0	44	0	627048448	18	4331
2026-01-27 00:28:09.31	200.23	48.43	-28.5	-30.3	14.2	1.50e-06	0	44	0	636485632	17	4447
2026-01-27 00:28:12.32	200.23	47.45	-29.8	-32.6	12.2	1.89e-04	0	44	0	645922816	19	4973
2026-01-27 00:28:15.34	200.24	46.50	-29.4	-31.4	13.0	4.19e-05	0	44	0	654311424	19	4566
2026-01-27 00:28:18.34	200.24	45.57	-29.3	-31.7	13.1	2.28e-05	0	44	0	664797184	18	4746
2026-01-27 00:28:21.35	200.24	44.67	-29.4	-32.2	12.7	7.40e-05	0	44	0	673185792	18	4923
2026-01-27 00:28:24.35	200.24	43.78	-28.8	-30.6	13.7	1.66e-04	0	44	0	682622976	18	4432
2026-01-27 00:28:27.37	200.25	42.91	-28.6	-30.7	13.9	3.00e-06	0	44	0	692060160	17	4548
2026-01-27 00:28:30.39	200.25	42.06	-29.2	-31.6	13.0	2.66e-04	0	44	0	701497344	18	4743
2026-01-27 00:28:33.41	200.25	41.23	-29.4	-32.0	12.9	4.34e-05	0	44	0	710934528	18	4861
2026-01-27 00:28:36.42	200.26	40.42	-29.1	-31.3	13.4	6.13e-04	0	44	0	720371712	18	4630
2026-01-27 00:28:39.43	200.26	39.62	-29.5	-31.8	12.8	6.97e-04	0	44	0	729808896	19	4694
2026-01-27 00:28:42.45	200.27	38.85	-29.3	-31.9	13.0	6.81e-04	0	44	0	739246080	18	4831
2026-01-27 00:28:45.47	200.27	38.08	-28.2	-29.8	14.5	4.62e-04	0	44	0	748683264	17	4285
2026-01-27 00:28:48.47	200.28	37.35	-28.0	-29.6	14.9	0.00e+00	0	44	0	758120448	16	4339
2026-01-27 00:28:51.49	200.28	36.62	-28.2	-30.2	14.6	7.56e-04	0	44	0	767557632	16	4530
2026-01-27 00:28:54.50	200.29	35.91	-28.3	-30.0	14.3	3.00e-06	0	44	0	776994816	17	4365
2026-01-27 00:28:57.51	200.29	35.22	-27.8	-29.9	14.8	5.49e-04	0	44	0	786432000	15	4556
2026-01-27 00:29:00.53	200.30	34.53	-27.5	-29.2	15.2	0.00e+00	0	44	0	795869184	15	4357
2026-01-27 00:29:03.55	200.30	33.87	-27.6	-29.4	15.1	0.00e+00	0	44	0	805306368	15	4423
2026-01-27 00:29:06.56	200.31	33.22	-27.8	-29.7	14.9	0.00e+00	0	44	0	814743552	15	4516
2026-01-27 00:29:09.57	200.32	32.58	-27.5	-29.1	15.2	0.00e+00	0	44	0	824180736	15	4329
2026-01-27 00:29:12.58	200.32	31.96	-27.3	-29.2	15.4	0.00e+00	0	44	0	833617920	14	4487
2026-01-27 00:29:15.59	200.33	31.35	-27.4	-29.4	15.3	7.00e-07	0	44	0	843055104	14	4532
2026-01-27 00:29:18.61	200.34	30.74	-27.5	-29.1	15.2	0.00e+00	0	44	0	852492288	15	4323
2026-01-27 00:29:21.61	200.34	30.16	-27.5	-29.2	15.1	0.00e+00	0	44	0	861929472	15	4358
2026-01-27 00:29:24.62	200.35	29.59	-27.7	-29.7	14.8	0.00e+00	0	44	0	871366656	15	4511
2026-01-27 00:29:27.63	200.36	29.02	-27.7	-29.7	14.8	0.00e+00	0	44	0	880803840	15	4528
2026-01-27 00:29:30.65	200.37	28.47	-26.9	-28.4	15.8	0.00e+00	0	44	0	890241024	14	4249
2026-01-27 00:29:33.67	200.37	27.93	-26.7	-28.5	16.0	0.00e+00	0	44	0	899678208	13	4384
2026-01-27 00:29:36.69	200.38	27.39	-26.6	-28.1	16.1	0.00e+00	0	44	0	909115392	13	4297
2026-01-27 00:29:39.70	200.39	26.87	-26.5	-28.4	16.2	0.00e+00	0	44	0	918552576	12	4475
2026-01-27 00:29:42.70	200.39	26.36	-26.5	-27.9	16.2	0.00e+00	0	44	0	927989760	13	4232
2026-01-27 00:29:45.71	200.40	25.86	-26.2	-27.9	16.5	0.00e+00	0	44	0	937426944	12	4344
2026-01-27 00:29:48.72	200.41	25.37	-26.2	-27.8	16.5	0.00e+00	0	44	0	946864128	12	4318
2026-01-27 00:29:51.74	200.42	24.88	-26.3	-28.0	16.5	0.00e+00	0	44	0	956301312	12	4364
2026-01-27 00:29:54.75	200.43	24.41	-26.2	-27.7	16.6	0.00e+00	0	44	0	965738496	12	4296
2026-01-27 00:29:57.77	200.43	23.94	-26.1	-27.6	16.6	0.00e+00	0	44	0	975175680	12	4272
2026-01-27 00:30:00.78	200.44	23.48	-26.2	-27.7	14.8	0.00e+00	0	44	0	984612864	12	4288
2026-01-27 00:30:03.79	200.45	23.03	-26.2	-27.7	14.2	0.00e+00	0	44	0	994050048	12	4298
2026-01-27 00:30:06.80	200.46	22.59	-26.3	-27.9	16.5	0.00e+00	0	44	0	1003487232	12	4351
2026-01-27 00:30:09.81	200.46	22.16	-26.5	-28.3	16.2	0.00e+00	0	44	0	1012924416	12	4465
2026-01-27 00:30:12.81	200.47	21.73	-26.6	-28.2	16.0	0.00e+00	0	44	0	1022361600	13	4321
2026-01-27 00:30:15.82	200.48	21.31	-26.8	-28.6	15.7	3.65e-03	0	44	0	1031798784	13	4444
2026-01-27 00:30:18.83	200.49	20.90	-26.9	-28.8	15.7	0.00e+00	0	44	0	1041235968	13	4482
2026-01-27 00:30:21.84	200.50	20.49	-26.8	-28.6	15.8	3.20e-03	0	44	0	1049624576	13	4428
2026-01-27 00:30:24.86	200.50	20.09	-26.9	-28.8	15.6	2.44e-03	0	44	0	1060110336	13	4507
2026-01-27 00:30:27.88	200.51	19.69	-27.0	-29.0	15.5	3.48e-03	0	44	0	1068498944	13	4558
2026-01-27 00:30:30.89	200.52	19.31	-27.0	-29.0	15.5	2.96e-03	0	44	0	1077936128	13	4547
2026-01-27 00:30:33.89	200.53	18.93	-26.9	-28.9	15.5	3.18e-03	0	44	0	1088421888	13	4519
2026-01-27 00:30:36.91	200.54	18.55	-26.9	-28.9	15.5	2.68e-03	0	44	0	1096810496	13	4511
2026-01-27 00:30:39.92	200.55	18.18	-27.1	-28.8	15.3	0.00e+00	0	44	0	1106247680	14	4382
2026-01-27 00:30:42.93	200.55	17.81	-27.1	-28.7	15.3	2.44e-03	0	44	0	1115684864	14	4360
2026-01-27 00:30:45.95	200.56	17.45	-27.1	-28.9	15.2	0.00e+00	0	44	0	1125122048	14	4398
2026-01-27 00:30:48.94	200.57	17.10	-27.3	-29.2	15.0	5.55e-04	0	44	0	1134559232	14	4501
2026-01-27 00:30:51.95	200.58	16.75	-27.4	-29.4	14.9	0.00e+00	0	44	0	1143996416	14	4572
2026-01-27 00:30:54.97	200.59	16.41	-27.5	-29.3	14.7	0.00e+00	0	44	0	1153433600	15	4408
2026-01-27 00:30:57.98	200.60	16.07	-27.4	-29.6	14.7	7.00e-07	0	44	0	1162870784	14	4619
2026-01-27 00:31:00.98	200.60	15.73	-27.5	-29.4	14.6	0.00e+00	0	44	0	1172307968	15	4438
2026-01-27 00:31:03.99	200.61	15.40	-27.7	-29.7	14.4	0.00e+00	0	44	0	1181745152	15	4539
2026-01-27 00:31:06.99	200.62	15.08	-27.9	-30.2	14.1	3.00e-06	0	44	0	1191182336	15	4680
2026-01-27 00:31:10.01	200.63	14.75	-27.9	-30.3	14.0	2.20e-06	0	44	0	1200619520	15	4714
2026-01-27 00:31:13.02	200.64	14.44	-27.7	-29.8	14.3	1.50e-06	0	44	0	1210056704	15	4560
2026-01-27 00:31:16.03	200.65	14.12	-27.9	-30.3	14.0	1.50e-06	0	44	0	1219493888	15	4727
2026-01-27 00:31:19.04	200.66	13.81	-27.9	-30.3	13.9	1.50e-06	0	44	0	1228931072	15	4735
2026-01-27 00:31:22.05	200.66	13.51	-28.2	-30.3	13.8	4.50e-06	0	44	0	1238368256	16	4605
2026-01-27 00:31:25.05	200.67	13.21	-27.9	-30.2	14.0	4.50e-06	0	44	0	1247805440	15	4693
2026-01-27 00:31:28.07	200.68	12.91	-28.0	-30.4	13.8	3.80e-06	0	44	0	1257242624	15	4770
2026-01-27 00:31:31.07	200.69	12.62	-27.8	-30.0	14.0	7.00e-07	0	44	0	1266679808	15	4651
2026-01-27 00:31:34.08	200.70	12.32	-27.8	-30.1	14.0	1.50e-06	0	44	0	1276116992	15	4658
2026-01-27 00:31:37.09	200.71	12.04	-27.8	-30.1	14.0	2.20e-06	0	44	0	1285554176	15	4670
2026-01-27 00:31:40.09	200.72	11.75	-28.2	-30.4	13.6	8.30e-06	0	44	0	1294991360	16	4648
2026-01-27 00:31:43.10	200.72	11.47	-27.9	-30.2	13.9	2.20e-06	0	44	0	1304428544	15	4709
2026-01-27 00:31:46.11	200.73	11.20	-28.1	-30.2	13.7	3.80e-06	0	44	0	1313865728	16	4595
2026-01-27 00:31:49.12	200.74	10.92	-28.1	-30.3	13.7	2.74e-05	0	44	0	1323302912	16	4606
2026-01-27 00:31:52.12	200.75	10.65	-28.3	-30.7	13.4	9.90e-06	0	44	0	1332740096	16	4732
2026-01-27 00:31:55.13	200.76	10.38	-28.4	-31.0	13.2	4.19e-05	0	44	0	1341128704	16	4827
2026-01-27 00:31:58.15	200.77	10.12	-28.4	-31.0	13.2	3.66e-05	0	44	0	1351614464	16	4846
2026-01-27 00:32:01.17	200.78	9.85	-28.4	-30.4	13.2	3.89e-05	0	44	0	1361051648	17	4539
2026-01-27 00:32:04.18	200.78	9.59	-28.4	-30.9	13.2	3.81e-05	0	44	0	1369440256	16	4806
2026-01-27 00:32:07.19	200.79	9.34	-28.5	-31.1	13.0	3.35e-05	0	44	0	1379926016	16	4884
2026-01-27 00:32:10.21	200.80	9.08	-28.6	-30.9	12.9	5.03e-05	0	44	0	1388314624	17	4697
2026-01-27 00:32:13.23	200.81	8.83	-28.5	-30.9	12.8	5.41e-05	0	44	0	1397751808	17	4700
2026-01-27 00:32:16.24	200.82	8.58	-28.7	-31.2	12.6	7.85e-05	0	44	0	1407188992	17	4796
2026-01-27 00:32:19.25	200.83	8.33	-28.6	-31.1	12.7	9.30e-05	0	44	0	1416626176	17	4773
2026-01-27 00:32:22.26	200.84	8.09	-28.8	-31.5	12.4	1.20e-04	0	44	0	1426063360	17	4899
2026-01-27 00:32:25.27	200.85	7.84	-28.9	-31.8	12.2	2.57e-04	0	44	0	1435500544	17	5022
2026-01-27 00:32:28.28	200.85	7.60	-29.0	-31.4	12.0	3.38e-04	0	44	0	1444937728	18	4792
2026-01-27 00:32:31.29	200.86	7.37	-29.0	-31.6	11.9	3.65e-04	0	44	0	1454374912	18	4839
2026-01-27 00:32:34.30	200.87	7.13	-31.2	-36.2	7.9	4.15e-04	0	44	0	1463812096	22	6411

#Closed at: 2026-01-27 00:32:37
#Recorded file [1464 MB]: D:/data/31010_260127_032445.dat