passes_logs/2026/01/27/R2M6_AANII_01/R2M6_AANII_01__20260127_101316_NOAA_21_JPSS-2_rec.log

#Pass ID: 20260127_101316_NOAA 21 (JPSS-2)
#Satellite: NOAA 21 (JPSS-2)
#Configuration: NOAA 21
#almurnet v.1.7.20240730
#Start time: 2026-01-27 10:13:16

#Version: 2.2.20231116
#Station: R2M6_AANII_01
#Location: 30.233357 lon 59.946436 lat
#TLE: 1 54234U 22150A   26026.78373243  .00000177  00000+0  10458-3 0  9996
#TLE: 2 54234  98.7509 327.5416 0000822 208.1870 151.9262 14.19539807166482

#Time	Az	El	Level	Level2	SNR	BER	BlckErr	Temp	State	Recorded	gain1	gain2
2026-01-27 10:13:16.77	157.06	7.05	-29.8	-34.0	4.8	1.38e+00	0	43	0	0	20	5883
2026-01-27 10:13:19.77	157.05	7.28	-30.1	-34.1	9.5	1.36e-02	0	43	0	3145728	20	5713
2026-01-27 10:13:22.79	157.05	7.52	-30.0	-33.3	10.2	6.20e-03	0	43	0	12582912	20	5297
2026-01-27 10:13:25.80	157.05	7.76	-29.6	-32.2	11.0	2.37e-03	0	43	0	22020096	20	4863
2026-01-27 10:13:28.80	157.04	8.00	-29.3	-31.8	11.7	5.65e-04	0	43	0	30408704	19	4817
2026-01-27 10:13:31.82	157.04	8.25	-29.1	-31.3	12.1	3.16e-04	0	43	0	40894464	19	4641
2026-01-27 10:13:34.83	157.04	8.49	-28.9	-30.7	12.5	1.17e-04	0	43	0	49283072	19	4454
2026-01-27 10:13:37.84	157.03	8.74	-28.8	-30.5	12.6	8.39e-05	0	43	0	58720256	19	4386
2026-01-27 10:13:40.85	157.03	8.99	-28.8	-30.8	12.8	7.70e-05	0	43	0	68157440	18	4569
2026-01-27 10:13:43.86	157.03	9.25	-28.7	-30.8	12.9	4.65e-05	0	43	0	77594624	18	4542
2026-01-27 10:13:46.87	157.02	9.50	-28.8	-30.9	12.8	5.95e-05	0	43	0	87031808	18	4585
2026-01-27 10:13:49.86	157.02	9.76	-28.6	-30.3	13.3	1.83e-05	0	43	0	96468992	18	4377
2026-01-27 10:13:52.86	157.01	10.02	-28.4	-29.9	13.5	1.67e-05	0	43	0	105906176	18	4281
2026-01-27 10:13:55.88	157.01	10.28	-28.6	-30.3	13.3	2.21e-05	0	43	0	115343360	18	4403
2026-01-27 10:13:58.89	157.00	10.55	-28.5	-30.1	13.4	1.44e-05	0	44	0	124780544	18	4320
2026-01-27 10:14:01.88	157.00	10.82	-28.4	-29.8	13.6	1.60e-05	0	43	0	134217728	18	4234
2026-01-27 10:14:04.90	156.99	11.09	-28.3	-30.0	13.8	6.80e-06	0	43	0	143654912	17	4417
2026-01-27 10:14:07.91	156.98	11.37	-28.3	-30.0	13.8	5.30e-06	0	44	0	153092096	17	4422
2026-01-27 10:14:10.93	156.98	11.65	-28.0	-29.5	14.1	0.00e+00	0	43	0	162529280	17	4256
2026-01-27 10:14:13.93	156.97	11.93	-28.1	-29.6	14.1	3.00e-06	0	44	0	171966464	17	4286
2026-01-27 10:14:16.94	156.96	12.22	-27.9	-29.3	14.3	7.00e-07	0	44	0	181403648	17	4199
2026-01-27 10:14:19.95	156.96	12.51	-28.0	-29.3	14.3	2.20e-06	0	44	0	190840832	17	4210
2026-01-27 10:14:22.97	156.95	12.80	-28.1	-29.6	14.1	0.00e+00	0	44	0	200278016	17	4307
2026-01-27 10:14:25.97	156.94	13.10	-27.8	-29.0	14.5	0.00e+00	0	44	0	209715200	17	4126
2026-01-27 10:14:28.98	156.93	13.40	-27.9	-29.7	14.4	7.00e-07	0	44	0	219152384	16	4428
2026-01-27 10:14:31.98	156.92	13.70	-27.8	-29.5	14.5	7.00e-07	0	44	0	228589568	16	4357
2026-01-27 10:14:34.99	156.91	14.01	-27.8	-29.4	14.6	0.00e+00	0	44	0	238026752	16	4337
2026-01-27 10:14:37.99	156.90	14.32	-27.9	-29.6	14.5	7.00e-07	0	44	0	247463936	16	4371
2026-01-27 10:14:41.00	156.89	14.63	-27.9	-29.5	14.6	7.00e-07	0	44	0	256901120	16	4354
2026-01-27 10:14:44.02	156.88	14.95	-27.8	-29.3	14.7	0.00e+00	0	44	0	266338304	16	4306
2026-01-27 10:14:47.04	156.87	15.28	-27.9	-29.5	14.6	0.00e+00	0	44	0	275775488	16	4352
2026-01-27 10:14:50.05	156.86	15.61	-27.9	-29.4	14.7	7.00e-07	0	44	0	285212672	16	4323
2026-01-27 10:14:53.05	156.85	15.94	-28.0	-29.7	14.6	0.00e+00	0	44	0	294649856	16	4404
2026-01-27 10:14:56.05	156.84	16.28	-27.9	-29.6	14.7	7.00e-07	0	44	0	303038464	16	4361
2026-01-27 10:14:59.05	156.83	16.62	-28.0	-29.7	14.7	0.00e+00	0	44	0	312475648	16	4379
2026-01-27 10:15:02.05	156.81	16.96	-28.0	-29.8	14.6	0.00e+00	0	44	0	321912832	16	4415
2026-01-27 10:15:05.05	156.80	17.31	-28.0	-29.8	14.6	0.00e+00	0	44	0	331350016	16	4433
2026-01-27 10:15:08.05	156.79	17.67	-28.0	-29.7	14.7	7.00e-07	0	44	0	340787200	16	4406
2026-01-27 10:15:11.06	156.77	18.03	-28.0	-29.8	14.6	0.00e+00	0	44	0	350224384	16	4424
2026-01-27 10:15:14.07	156.76	18.40	-27.9	-29.6	14.8	0.00e+00	0	44	0	359661568	16	4352
2026-01-27 10:15:17.07	156.74	18.77	-27.9	-29.4	14.9	0.00e+00	0	44	0	369098752	16	4317
2026-01-27 10:15:20.07	156.72	19.15	-28.0	-29.6	14.8	0.00e+00	0	44	0	378535936	16	4373
2026-01-27 10:15:23.07	156.71	19.53	-28.0	-29.6	14.8	0.00e+00	0	44	0	387973120	16	4371
2026-01-27 10:15:26.05	156.69	19.92	-27.9	-29.4	15.0	0.00e+00	0	44	0	397410304	16	4298
2026-01-27 10:15:29.05	156.67	20.32	-27.8	-29.3	15.1	0.00e+00	0	44	0	406847488	16	4269
2026-01-27 10:15:32.06	156.65	20.72	-27.7	-29.1	15.2	0.00e+00	0	44	0	416284672	16	4204
2026-01-27 10:15:35.08	156.63	21.13	-27.7	-29.1	15.2	0.00e+00	0	44	0	425721856	16	4210
2026-01-27 10:15:38.10	156.61	21.55	-27.3	-28.2	15.7	0.00e+00	0	44	0	435159040	16	3983
2026-01-27 10:15:41.12	156.59	21.98	-27.3	-28.6	15.6	0.00e+00	0	44	0	444596224	15	4197
2026-01-27 10:15:44.12	156.57	22.41	-26.9	-27.8	16.1	0.00e+00	0	44	0	454033408	15	3975
2026-01-27 10:15:47.13	156.54	22.84	-27.0	-27.9	16.0	0.00e+00	0	44	0	463470592	15	3995
2026-01-27 10:15:50.13	156.52	23.29	-26.7	-27.7	16.4	0.00e+00	0	44	0	472907776	14	4066
2026-01-27 10:15:53.14	156.50	23.74	-27.2	-28.8	15.8	0.00e+00	0	44	0	482344960	14	4359
2026-01-27 10:15:56.15	156.47	24.20	-26.9	-28.3	16.1	0.00e+00	0	44	0	491782144	14	4218
2026-01-27 10:15:59.16	156.44	24.67	-27.1	-28.8	15.9	7.00e-07	0	44	0	501219328	14	4342
2026-01-27 10:16:02.17	156.41	25.15	-26.6	-27.6	16.5	0.00e+00	0	44	0	509607936	14	4041
2026-01-27 10:16:05.17	156.38	25.64	-26.8	-28.1	16.3	0.00e+00	0	44	0	519045120	14	4162
2026-01-27 10:16:08.18	156.35	26.14	-26.8	-28.0	16.3	0.00e+00	0	44	0	529530880	14	4131
2026-01-27 10:16:11.19	156.32	26.64	-27.1	-28.6	16.0	0.00e+00	0	44	0	537919488	14	4283
2026-01-27 10:16:14.20	156.29	27.16	-27.3	-29.2	15.7	0.00e+00	0	44	0	547356672	14	4455
2026-01-27 10:16:17.21	156.25	27.68	-27.3	-29.1	15.8	0.00e+00	0	44	0	556793856	14	4423
2026-01-27 10:16:20.19	156.22	28.21	-27.4	-29.3	15.7	0.00e+00	0	44	0	566231040	14	4490
2026-01-27 10:16:23.21	156.18	28.76	-27.6	-29.3	15.4	7.00e-07	0	44	0	575668224	15	4371
2026-01-27 10:16:26.21	156.14	29.32	-27.5	-29.1	15.5	0.00e+00	0	44	0	585105408	15	4320
2026-01-27 10:16:29.22	156.10	29.88	-27.6	-29.3	15.4	0.00e+00	0	44	0	594542592	15	4380
2026-01-27 10:16:32.22	156.05	30.46	-27.5	-29.1	15.5	0.00e+00	0	44	0	603979776	15	4320
2026-01-27 10:16:35.22	156.01	31.05	-27.5	-29.1	15.6	0.00e+00	0	44	0	613416960	15	4320
2026-01-27 10:16:38.22	155.96	31.65	-27.4	-28.8	15.8	0.00e+00	0	44	0	622854144	15	4229
2026-01-27 10:16:41.24	155.91	32.27	-27.4	-28.9	15.7	0.00e+00	0	44	0	632291328	15	4259
2026-01-27 10:16:44.23	155.86	32.90	-27.7	-29.4	15.4	0.00e+00	0	44	0	641728512	15	4395
2026-01-27 10:16:47.22	155.81	33.53	-27.8	-29.8	15.2	0.00e+00	0	44	0	651165696	15	4502
2026-01-27 10:16:50.22	155.75	34.19	-28.2	-30.1	15.0	0.00e+00	0	44	0	660602880	16	4466
2026-01-27 10:16:53.21	155.69	34.85	-28.4	-30.6	14.7	0.00e+00	0	44	0	670040064	16	4622
2026-01-27 10:16:56.22	155.63	35.54	-28.5	-30.3	14.6	7.00e-07	0	44	0	679477248	17	4434
2026-01-27 10:16:59.23	155.57	36.24	-29.0	-31.4	14.0	1.50e-06	0	44	0	688914432	17	4742
2026-01-27 10:17:02.24	155.50	36.95	-29.2	-31.4	13.7	3.00e-06	0	44	0	698351616	18	4628
2026-01-27 10:17:05.25	155.42	37.68	-29.1	-31.1	13.9	3.80e-06	0	44	0	707788800	18	4552
2026-01-27 10:17:08.25	155.35	38.43	-29.0	-31.1	13.9	4.50e-06	0	44	0	716177408	18	4537
2026-01-27 10:17:11.26	155.27	39.19	-29.1	-31.2	13.9	3.80e-06	0	44	0	725614592	18	4573
2026-01-27 10:17:14.27	155.18	39.97	-29.1	-31.2	13.9	6.10e-06	0	44	0	736100352	18	4564
2026-01-27 10:17:17.28	155.09	40.77	-29.1	-31.1	13.9	3.00e-06	0	44	0	744488960	18	4558
2026-01-27 10:17:20.28	155.00	41.58	-29.3	-31.5	13.7	4.50e-06	0	44	0	753926144	18	4678
2026-01-27 10:17:23.30	154.90	42.42	-29.6	-32.0	13.1	3.20e-05	0	44	0	763363328	19	4710
2026-01-27 10:17:26.30	154.80	43.27	-29.6	-31.9	13.1	3.20e-05	0	44	0	772800512	19	4694
2026-01-27 10:17:29.29	154.68	44.14	-29.4	-31.4	13.4	1.98e-05	0	44	0	782237696	19	4532
2026-01-27 10:17:32.31	154.57	45.04	-29.8	-32.4	12.9	3.89e-05	0	44	0	791674880	19	4841
2026-01-27 10:17:35.32	154.44	45.95	-29.7	-31.7	12.9	3.81e-05	0	44	0	801112064	20	4522
2026-01-27 10:17:38.33	154.30	46.88	-29.6	-31.4	13.2	3.43e-05	0	44	0	810549248	20	4418
2026-01-27 10:17:41.35	154.16	47.84	-29.4	-31.3	13.5	7.60e-06	0	44	0	819986432	19	4498
2026-01-27 10:17:44.36	154.01	48.82	-29.2	-30.8	13.9	3.80e-06	0	44	0	829423616	19	4338
2026-01-27 10:17:47.38	153.84	49.82	-29.3	-31.2	13.5	8.30e-06	0	44	0	838860800	19	4483
2026-01-27 10:17:50.40	153.67	50.85	-29.4	-31.4	13.5	9.90e-06	0	44	0	848297984	19	4536
2026-01-27 10:17:53.41	153.48	51.89	-29.1	-30.6	14.0	4.50e-06	0	44	0	857735168	19	4290
2026-01-27 10:17:56.42	153.27	52.95	-28.3	-29.3	15.0	7.00e-07	0	44	0	867172352	18	4036
2026-01-27 10:17:59.43	153.05	54.04	-28.0	-29.0	15.5	0.00e+00	0	44	0	876609536	17	4073
2026-01-27 10:18:02.44	152.81	55.15	-27.5	-28.5	16.0	0.00e+00	0	44	0	886046720	16	4034
2026-01-27 10:18:05.45	152.55	56.29	-27.3	-27.9	16.3	0.00e+00	0	44	0	895483904	16	3886
2026-01-27 10:18:08.46	152.27	57.45	-27.0	-27.9	16.5	0.00e+00	0	44	0	904921088	15	3973
2026-01-27 10:18:11.47	151.96	58.63	-26.7	-27.6	16.9	0.00e+00	0	44	0	914358272	14	4019
2026-01-27 10:18:14.48	151.62	59.83	-26.5	-27.2	17.1	0.00e+00	0	44	0	923795456	14	3920
2026-01-27 10:18:17.50	151.25	61.06	-26.8	-27.9	16.8	0.00e+00	0	44	0	933232640	14	4086
2026-01-27 10:18:20.51	150.84	62.31	-26.5	-27.2	17.1	0.00e+00	0	44	0	942669824	14	3915
2026-01-27 10:18:23.52	150.38	63.58	-26.4	-27.0	17.3	0.00e+00	0	44	0	952107008	14	3859
2026-01-27 10:18:26.53	149.86	64.87	-26.0	-26.7	17.7	0.00e+00	0	44	0	961544192	13	3893
2026-01-27 10:18:29.53	149.29	66.17	-25.8	-26.6	18.0	0.00e+00	0	44	0	970981376	12	3983
2026-01-27 10:18:32.54	148.63	67.50	-25.8	-26.8	17.8	0.00e+00	0	44	0	980418560	12	4035
2026-01-27 10:18:35.54	147.89	68.85	-26.1	-27.3	17.6	0.00e+00	0	44	0	989855744	12	4162
2026-01-27 10:18:38.57	147.03	70.22	-26.2	-27.7	17.4	0.00e+00	0	44	0	999292928	12	4244
2026-01-27 10:18:41.57	146.03	71.59	-26.2	-27.7	17.5	0.00e+00	0	44	0	1008730112	12	4253
2026-01-27 10:18:44.58	144.86	72.98	-26.3	-27.8	17.4	0.00e+00	0	44	0	1018167296	12	4275
2026-01-27 10:18:47.59	143.47	74.38	-26.7	-28.3	16.9	0.00e+00	0	44	0	1027604480	13	4314
2026-01-27 10:18:50.59	141.80	75.78	-27.0	-28.4	16.6	0.00e+00	0	44	0	1037041664	14	4212
2026-01-27 10:18:53.62	139.72	77.19	-26.2	-27.2	17.5	0.00e+00	0	44	0	1045430272	13	4002
2026-01-27 10:18:56.62	137.13	78.58	-26.7	-27.7	16.9	0.00e+00	0	45	0	1055916032	14	4043
2026-01-27 10:18:59.64	133.79	79.96	-26.4	-27.5	17.3	0.00e+00	0	45	0	1064304640	13	4079
2026-01-27 10:19:02.66	129.38	81.31	-26.0	-26.6	17.8	0.00e+00	0	44	0	1073741824	13	3857
2026-01-27 10:19:05.67	123.40	82.59	-26.5	-27.8	17.2	0.00e+00	0	45	0	1083179008	13	4159
2026-01-27 10:19:08.68	115.02	83.76	-26.8	-28.5	16.9	0.00e+00	0	44	0	1092616192	13	4342
2026-01-27 10:19:11.70	103.09	84.74	-27.3	-29.0	16.5	0.00e+00	0	45	0	1102053376	14	4374
2026-01-27 10:19:14.72	86.72	85.41	-27.3	-29.0	16.6	0.00e+00	0	45	0	1111490560	14	4361
2026-01-27 10:19:17.73	67.04	85.61	-27.0	-27.7	17.0	0.00e+00	0	44	0	1120927744	15	3911
2026-01-27 10:19:20.74	47.92	85.28	-27.3	-28.8	16.7	0.00e+00	0	45	0	1130364928	14	4314
2026-01-27 10:19:23.75	32.71	84.53	-27.4	-29.1	16.5	0.00e+00	0	45	0	1139802112	14	4400
2026-01-27 10:19:26.77	21.76	83.48	-27.7	-29.4	16.1	0.00e+00	0	45	0	1149239296	15	4357
2026-01-27 10:19:29.78	14.06	82.28	-27.1	-27.9	16.8	0.00e+00	0	45	0	1158676480	15	3964
2026-01-27 10:19:32.79	8.53	80.98	-27.3	-28.5	16.5	0.00e+00	0	45	0	1168113664	15	4127
2026-01-27 10:19:35.80	4.43	79.63	-26.5	-27.3	17.4	0.00e+00	0	44	0	1177550848	14	3914
2026-01-27 10:19:38.81	1.31	78.25	-26.8	-27.8	17.1	0.00e+00	0	45	0	1186988032	14	4058
2026-01-27 10:19:41.83	358.85	76.85	-26.3	-27.2	17.7	0.00e+00	0	45	0	1196425216	13	3996
2026-01-27 10:19:44.85	356.88	75.45	-27.1	-28.6	16.7	0.00e+00	0	45	0	1205862400	14	4252
2026-01-27 10:19:47.87	355.28	74.04	-26.8	-27.9	17.0	0.00e+00	0	45	0	1215299584	14	4080
2026-01-27 10:19:50.88	353.95	72.65	-27.8	-29.2	15.9	0.00e+00	0	45	0	1224736768	16	4190
2026-01-27 10:19:53.89	352.82	71.27	-26.1	-26.8	17.8	0.00e+00	0	45	0	1234173952	13	3911
2026-01-27 10:19:56.90	351.86	69.89	-26.7	-28.2	17.0	0.00e+00	0	45	0	1243611136	13	4261
2026-01-27 10:19:59.90	351.04	68.54	-26.9	-27.6	16.7	0.00e+00	0	45	0	1253048320	15	3892
2026-01-27 10:20:02.91	350.32	67.20	-25.5	-26.1	18.3	0.00e+00	0	45	0	1262485504	12	3843
2026-01-27 10:20:05.92	349.69	65.88	-27.7	-29.3	16.0	0.00e+00	0	45	0	1271922688	15	4357
2026-01-27 10:20:08.93	349.13	64.58	-25.5	-26.1	18.2	0.00e+00	0	45	0	1281359872	12	3845
2026-01-27 10:20:11.95	348.63	63.29	-26.7	-28.2	17.0	0.00e+00	0	45	0	1290797056	13	4274
2026-01-27 10:20:14.96	348.18	62.03	-27.7	-28.8	15.9	0.00e+00	0	45	0	1300234240	16	4092
2026-01-27 10:20:17.98	347.78	60.79	-27.1	-28.1	16.5	0.00e+00	0	45	0	1309671424	15	4043
2026-01-27 10:20:20.99	347.41	59.57	-27.6	-29.1	15.9	0.00e+00	0	45	0	1319108608	15	4298
2026-01-27 10:20:24.00	347.08	58.38	-28.7	-30.6	14.7	0.00e+00	0	45	0	1328545792	17	4502
2026-01-27 10:20:27.01	346.78	57.20	-28.6	-30.3	15.0	0.00e+00	0	45	0	1337982976	17	4383
2026-01-27 10:20:30.02	346.51	56.06	-29.7	-32.1	13.4	1.22e-05	0	45	0	1347420160	19	4707
2026-01-27 10:20:33.03	346.25	54.93	-30.5	-33.0	12.0	3.32e-04	0	45	0	1356857344	21	4817
2026-01-27 10:20:36.05	346.02	53.82	-29.9	-31.6	12.9	1.39e-04	0	45	0	1366294528	21	4352
2026-01-27 10:20:39.05	345.80	52.75	-28.0	-28.9	15.6	0.00e+00	0	45	0	1375731712	17	4012
2026-01-27 10:20:42.06	345.60	51.69	-30.0	-32.3	12.9	2.51e-05	0	45	0	1385168896	20	4668
2026-01-27 10:20:45.06	345.42	50.66	-29.5	-31.0	13.5	1.44e-05	0	45	0	1394606080	20	4281
2026-01-27 10:20:48.07	345.25	49.65	-29.5	-31.1	13.4	2.21e-05	0	45	0	1404043264	20	4322
2026-01-27 10:20:51.09	345.09	48.65	-29.3	-30.6	13.8	4.50e-06	0	45	0	1413480448	20	4165
2026-01-27 10:20:54.10	344.94	47.69	-29.9	-32.1	12.8	3.50e-05	0	45	0	1422917632	20	4617
2026-01-27 10:20:57.11	344.79	46.74	-30.1	-32.5	12.6	7.09e-05	0	45	0	1432354816	20	4757
2026-01-27 10:21:00.12	344.66	45.81	-30.2	-32.7	12.5	1.21e-04	0	45	0	1441792000	20	4811
2026-01-27 10:21:03.13	344.54	44.91	-30.1	-32.6	12.6	1.22e-04	0	45	0	1451229184	20	4784
2026-01-27 10:21:06.15	344.42	44.02	-30.1	-32.5	12.6	1.21e-04	0	45	0	1459617792	20	4754
2026-01-27 10:21:09.17	344.31	43.15	-29.4	-30.8	13.6	7.60e-06	0	44	0	1469054976	20	4243
2026-01-27 10:21:12.18	344.21	42.31	-30.0	-32.4	12.6	5.26e-05	0	45	0	1479540736	20	4723
2026-01-27 10:21:15.19	344.11	41.48	-30.0	-32.2	12.7	7.93e-05	0	45	0	1487929344	20	4673
2026-01-27 10:21:18.20	344.02	40.67	-29.6	-31.4	13.3	2.51e-05	0	44	0	1497366528	20	4393
2026-01-27 10:21:21.21	343.93	39.88	-29.6	-31.2	13.4	2.44e-05	0	44	0	1506803712	20	4357
2026-01-27 10:21:24.23	343.85	39.10	-29.6	-31.3	13.3	2.05e-05	0	45	0	1516240896	20	4383
2026-01-27 10:21:27.25	343.77	38.34	-29.4	-30.9	13.6	8.30e-06	0	45	0	1525678080	20	4261
2026-01-27 10:21:30.26	343.70	37.60	-28.6	-30.0	14.7	7.00e-07	0	45	0	1535115264	18	4197
2026-01-27 10:21:33.27	343.63	36.88	-28.0	-29.0	15.5	0.00e+00	0	44	0	1544552448	17	4036
2026-01-27 10:21:36.28	343.56	36.17	-28.8	-30.9	14.5	7.00e-07	0	45	0	1553989632	17	4573
2026-01-27 10:21:39.29	343.50	35.47	-29.1	-31.1	14.1	1.50e-06	0	45	0	1563426816	18	4523
2026-01-27 10:21:42.32	343.44	34.79	-28.9	-30.6	14.3	1.50e-06	0	45	0	1572864000	18	4388
2026-01-27 10:21:45.33	343.38	34.13	-28.7	-30.1	14.7	0.00e+00	0	45	0	1582301184	18	4238
2026-01-27 10:21:48.33	343.33	33.48	-28.6	-29.9	14.8	0.00e+00	0	45	0	1591738368	18	4171
2026-01-27 10:21:51.33	343.27	32.85	-28.3	-29.8	15.1	0.00e+00	0	45	0	1601175552	17	4249
2026-01-27 10:21:54.35	343.22	32.22	-28.3	-29.8	15.1	0.00e+00	0	45	0	1610612736	17	4252
2026-01-27 10:21:57.37	343.18	31.61	-28.2	-29.5	15.2	0.00e+00	0	45	0	1620049920	17	4182
2026-01-27 10:22:00.39	343.13	31.01	-28.2	-29.5	15.2	0.00e+00	0	45	0	1629487104	17	4193
2026-01-27 10:22:03.39	343.09	30.42	-28.2	-29.6	15.2	0.00e+00	0	44	0	1638924288	17	4208
2026-01-27 10:22:06.40	343.05	29.85	-28.4	-29.9	15.0	0.00e+00	0	45	0	1648361472	17	4315
2026-01-27 10:22:09.40	343.01	29.29	-28.5	-30.2	14.8	7.00e-07	0	44	0	1657798656	17	4386
2026-01-27 10:22:12.42	342.97	28.73	-28.3	-29.9	14.9	0.00e+00	0	45	0	1667235840	17	4296
2026-01-27 10:22:15.43	342.93	28.19	-28.2	-29.6	15.1	0.00e+00	0	45	0	1676673024	17	4212
2026-01-27 10:22:18.44	342.90	27.66	-28.3	-29.9	15.0	0.00e+00	0	45	0	1686110208	17	4297
2026-01-27 10:22:21.46	342.87	27.14	-28.0	-29.1	15.4	0.00e+00	0	44	0	1695547392	17	4074
2026-01-27 10:22:24.46	342.84	26.63	-27.5	-28.6	16.0	0.00e+00	0	44	0	1704984576	16	4048
2026-01-27 10:22:27.48	342.81	26.13	-27.3	-28.1	16.2	0.00e+00	0	45	0	1714421760	16	3919
2026-01-27 10:22:30.50	342.78	25.63	-27.0	-27.8	16.5	0.00e+00	0	44	0	1723858944	15	3967
2026-01-27 10:22:33.51	342.75	25.15	-26.9	-27.6	16.6	0.00e+00	0	45	0	1733296128	15	3914
2026-01-27 10:22:36.53	342.72	24.67	-27.1	-28.1	16.3	0.00e+00	0	44	0	1742733312	15	4041
2026-01-27 10:22:39.54	342.70	24.21	-27.0	-28.0	16.3	0.00e+00	0	45	0	1752170496	15	4066
2026-01-27 10:22:42.54	342.67	23.75	-27.3	-28.5	16.1	0.00e+00	0	45	0	1761607680	15	4134
2026-01-27 10:22:45.55	342.65	23.30	-27.4	-28.9	15.8	0.00e+00	0	44	0	1771044864	15	4239
2026-01-27 10:22:48.57	342.63	22.85	-27.6	-29.2	15.7	0.00e+00	0	44	0	1780482048	15	4321
2026-01-27 10:22:51.57	342.61	22.42	-27.6	-29.2	15.6	0.00e+00	0	45	0	1789919232	15	4348
2026-01-27 10:22:54.58	342.59	21.99	-27.6	-29.3	15.5	0.00e+00	0	44	0	1799356416	15	4369
2026-01-27 10:22:57.58	342.57	21.57	-27.4	-28.8	15.8	0.00e+00	0	45	0	1808793600	15	4227
2026-01-27 10:23:00.58	342.55	21.16	-27.3	-28.6	15.9	0.00e+00	0	44	0	1818230784	15	4172
2026-01-27 10:23:03.60	342.53	20.75	-27.3	-28.7	15.8	0.00e+00	0	45	0	1826619392	15	4207
2026-01-27 10:23:06.62	342.51	20.35	-27.3	-28.6	15.9	0.00e+00	0	45	0	1836056576	15	4179
2026-01-27 10:23:09.63	342.50	19.96	-27.4	-28.8	15.8	0.00e+00	0	44	0	1846542336	15	4222
2026-01-27 10:23:12.64	342.48	19.57	-27.5	-29.0	15.7	0.00e+00	0	44	0	1854930944	15	4272
2026-01-27 10:23:15.64	342.47	19.19	-27.5	-29.1	15.6	0.00e+00	0	44	0	1864368128	15	4307
2026-01-27 10:23:18.66	342.45	18.81	-27.6	-29.3	15.5	0.00e+00	0	44	0	1873805312	15	4359
2026-01-27 10:23:21.67	342.44	18.44	-27.6	-29.3	15.4	0.00e+00	0	44	0	1883242496	15	4379
2026-01-27 10:23:24.68	342.43	18.08	-27.7	-29.6	15.2	0.00e+00	0	44	0	1892679680	15	4455
2026-01-27 10:23:27.69	342.41	17.72	-27.8	-29.7	15.1	0.00e+00	0	44	0	1902116864	15	4496
2026-01-27 10:23:30.69	342.40	17.36	-28.1	-29.8	15.0	0.00e+00	0	44	0	1911554048	16	4401
2026-01-27 10:23:33.70	342.39	17.01	-28.1	-30.0	14.9	0.00e+00	0	44	0	1920991232	16	4453
2026-01-27 10:23:36.70	342.38	16.67	-28.2	-30.1	14.8	7.00e-07	0	45	0	1930428416	16	4469
2026-01-27 10:23:39.71	342.37	16.33	-28.1	-29.9	14.9	0.00e+00	0	44	0	1939865600	16	4425
2026-01-27 10:23:42.72	342.36	15.99	-28.0	-29.7	15.0	0.00e+00	0	45	0	1949302784	16	4378
2026-01-27 10:23:45.74	342.35	15.66	-28.0	-29.7	15.0	0.00e+00	0	44	0	1958739968	16	4366
2026-01-27 10:23:48.75	342.34	15.34	-28.1	-30.0	14.8	0.00e+00	0	44	0	1968177152	16	4457
2026-01-27 10:23:51.76	342.33	15.02	-28.3	-30.4	14.6	7.00e-07	0	44	0	1977614336	16	4585
2026-01-27 10:23:54.78	342.33	14.70	-28.3	-30.4	14.6	7.00e-07	0	44	0	1987051520	16	4572
2026-01-27 10:23:57.79	342.32	14.38	-28.4	-30.6	14.4	0.00e+00	0	44	0	1996488704	16	4629
2026-01-27 10:24:00.80	342.31	14.07	-28.2	-30.2	14.6	0.00e+00	0	44	0	2005925888	16	4518
2026-01-27 10:24:03.81	342.30	13.77	-28.3	-30.3	14.6	7.00e-07	0	44	0	2015363072	16	4537
2026-01-27 10:24:06.82	342.30	13.47	-28.3	-30.3	14.5	1.50e-06	0	44	0	2024800256	16	4551
2026-01-27 10:24:09.83	342.29	13.17	-28.4	-30.5	14.4	0.00e+00	0	44	0	2034237440	16	4620
2026-01-27 10:24:12.85	342.29	12.87	-28.4	-30.7	14.3	2.20e-06	0	44	0	2043674624	16	4670
2026-01-27 10:24:15.86	342.28	12.58	-28.4	-30.2	14.2	1.50e-06	0	44	0	2053111808	17	4424
2026-01-27 10:24:18.88	342.28	12.29	-28.1	-29.5	14.6	1.50e-06	0	45	0	2062548992	17	4224
2026-01-27 10:24:21.89	342.27	12.01	-28.1	-29.5	14.6	7.00e-07	0	44	0	2071986176	17	4207
2026-01-27 10:24:24.89	342.27	11.73	-28.2	-29.6	14.6	0.00e+00	0	44	0	2081423360	17	4236
2026-01-27 10:24:27.92	342.26	11.45	-28.3	-30.0	14.3	7.00e-07	0	44	0	2090860544	17	4377
2026-01-27 10:24:30.93	342.26	11.18	-28.4	-30.2	14.1	7.00e-07	0	44	0	2100297728	17	4432
2026-01-27 10:24:33.94	342.26	10.90	-28.4	-30.3	14.1	2.20e-06	0	44	0	2109734912	17	4435
2026-01-27 10:24:36.95	342.26	10.64	-28.5	-30.5	14.0	3.00e-06	0	44	0	2119172096	17	4493
2026-01-27 10:24:39.95	342.25	10.37	-28.7	-30.8	13.8	4.50e-06	0	44	0	2128609280	17	4596
2026-01-27 10:24:42.97	342.25	10.11	-28.7	-30.9	13.7	9.10e-06	0	44	0	2138046464	17	4644
2026-01-27 10:24:45.98	342.25	9.85	-28.9	-31.3	13.4	1.60e-05	0	44	0	2147483648	17	4772
2026-01-27 10:24:49.00	342.25	9.59	-28.8	-31.1	13.5	1.14e-05	0	44	0	2156920832	17	4701
2026-01-27 10:24:52.01	342.25	9.33	-28.9	-31.4	13.3	1.67e-05	0	44	0	2166358016	17	4794
2026-01-27 10:24:55.03	342.24	9.08	-28.9	-31.4	13.3	1.52e-05	0	44	0	2175795200	17	4816
2026-01-27 10:24:58.05	342.24	8.83	-29.2	-31.6	12.9	4.04e-05	0	44	0	2185232384	18	4749
2026-01-27 10:25:01.07	342.24	8.58	-29.2	-31.7	12.8	5.72e-05	0	44	0	2194669568	18	4807
2026-01-27 10:25:04.07	342.24	8.34	-29.3	-32.0	12.5	8.92e-05	0	45	0	2204106752	18	4905
2026-01-27 10:25:07.08	342.24	8.10	-29.4	-32.2	12.4	1.54e-04	0	44	0	2213543936	18	4973
2026-01-27 10:25:10.08	342.24	7.86	-29.4	-32.1	12.4	1.68e-04	0	44	0	2221932544	18	4957
2026-01-27 10:25:13.08	342.24	7.62	-29.5	-31.9	12.2	2.27e-04	0	44	0	2231369728	19	4750
2026-01-27 10:25:16.09	342.24	7.38	-29.6	-32.1	12.0	3.11e-04	0	45	0	2240806912	19	4842
2026-01-27 10:25:19.11	342.24	7.15	-29.7	-32.6	11.7	4.09e-04	0	44	0	2250244096	19	5023

#Closed at: 2026-01-27 10:25:21
#Recorded file [2254 MB]: D:/data/31010_260127_131318.dat