passes_logs/2026/01/27/R2M6_AANII_01/R2M6_AANII_01__20260127_090338_SUOMI_NPP_rec.log

#Pass ID: 20260127_090338_SUOMI NPP
#Satellite: SUOMI NPP
#Configuration: NPP
#almurnet v.1.7.20240730
#Start time: 2026-01-27 09:03:39

#Version: 2.2.20231116
#Station: R2M6_AANII_01
#Location: 30.233357 lon 59.946436 lat
#TLE: 1 37849U 11061A   26026.87508736  .00000176  00000+0  10464-3 0  9991
#TLE: 2 37849  98.7822 328.8221 0002127  43.3055 316.8288 14.19530452738397

#Time	Az	El	Level	Level2	SNR	BER	BlckErr	Temp	State	Recorded	gain1	gain2
2026-01-27 09:03:39.08	118.81	7.07	-32.7	-38.9	4.4	1.43e+00	0	41	0	0	26	7416
2026-01-27 09:03:42.10	118.61	7.29	-32.3	-37.0	7.2	1.13e-01	0	41	0	1048576	25	6195
2026-01-27 09:03:45.11	118.41	7.50	-32.6	-38.7	6.1	2.71e-01	0	41	0	7340032	25	7248
2026-01-27 09:03:48.12	118.20	7.72	-32.4	-37.2	7.1	1.97e-01	0	42	0	12582912	25	6280
2026-01-27 09:03:51.12	117.99	7.94	-31.3	-33.8	10.5	6.75e-03	0	42	0	17825792	23	4832
2026-01-27 09:03:54.12	117.78	8.16	-31.0	-32.8	11.3	9.81e-04	0	42	0	24117248	23	4425
2026-01-27 09:03:57.13	117.57	8.38	-31.7	-35.3	9.4	8.54e-03	0	42	0	29360128	23	5455
2026-01-27 09:04:00.13	117.35	8.61	-31.5	-34.5	10.1	1.17e-02	0	42	0	35651584	23	5074
2026-01-27 09:04:03.13	117.13	8.83	-31.2	-33.5	10.9	2.33e-03	0	42	0	40894464	23	4696
2026-01-27 09:04:06.15	116.91	9.06	-31.2	-33.4	11.0	1.81e-03	0	42	0	46137344	23	4648
2026-01-27 09:04:09.16	116.68	9.29	-31.6	-34.6	10.2	5.58e-03	0	42	0	52428800	23	5100
2026-01-27 09:04:12.17	116.45	9.52	-31.5	-34.2	10.6	4.65e-03	0	42	0	57671680	23	4910
2026-01-27 09:04:15.18	116.21	9.75	-31.3	-33.5	11.0	1.89e-03	0	42	0	62914560	23	4675
2026-01-27 09:04:18.19	115.97	9.98	-31.4	-33.8	10.8	1.95e-03	0	42	0	69206016	23	4774
2026-01-27 09:04:21.21	115.72	10.22	-31.5	-34.1	10.6	3.53e-03	0	42	0	74448896	23	4883
2026-01-27 09:04:24.22	115.48	10.46	-31.3	-33.6	11.1	2.50e-03	0	42	0	80740352	23	4678
2026-01-27 09:04:27.23	115.22	10.70	-31.4	-33.8	11.0	1.60e-03	0	42	0	85983232	23	4747
2026-01-27 09:04:30.25	114.97	10.94	-31.3	-33.5	11.2	1.30e-03	0	43	0	91226112	23	4657
2026-01-27 09:04:33.25	114.71	11.18	-31.2	-33.3	11.4	8.64e-04	0	43	0	97517568	23	4578
2026-01-27 09:04:36.26	114.44	11.43	-31.3	-33.4	11.3	1.22e-03	0	43	0	102760448	23	4598
2026-01-27 09:04:39.27	114.17	11.67	-31.2	-33.0	11.6	1.05e-03	0	43	0	109051904	23	4466
2026-01-27 09:04:42.28	113.90	11.92	-30.9	-32.4	12.2	2.12e-04	0	43	0	114294784	23	4244
2026-01-27 09:04:45.29	113.62	12.17	-30.8	-32.6	12.3	1.99e-04	0	43	0	119537664	22	4402
2026-01-27 09:04:48.30	113.33	12.42	-30.8	-32.4	12.4	1.69e-04	0	43	0	125829120	22	4335
2026-01-27 09:04:51.32	113.04	12.68	-30.7	-32.3	12.6	1.65e-04	0	43	0	131072000	22	4297
2026-01-27 09:04:54.33	112.75	12.93	-30.8	-32.6	12.4	8.69e-05	0	43	0	136314880	22	4387
2026-01-27 09:04:57.33	112.45	13.19	-30.9	-32.6	12.4	1.57e-04	0	43	0	142606336	22	4400
2026-01-27 09:05:00.34	112.14	13.45	-30.4	-31.2	13.3	2.13e-05	0	43	0	147849216	22	3964
2026-01-27 09:05:03.35	111.83	13.71	-30.7	-32.0	12.8	6.17e-05	0	43	0	154140672	22	4202
2026-01-27 09:05:06.36	111.51	13.98	-31.0	-32.9	12.2	3.49e-04	0	43	0	159383552	22	4504
2026-01-27 09:05:09.37	111.19	14.24	-30.8	-32.3	12.6	1.72e-04	0	43	0	164626432	22	4296
2026-01-27 09:05:12.37	110.86	14.51	-31.0	-32.9	12.2	7.40e-05	0	43	0	170917888	22	4482
2026-01-27 09:05:15.38	110.53	14.78	-31.3	-34.0	11.5	8.57e-04	0	43	0	176160768	22	4862
2026-01-27 09:05:18.39	110.19	15.05	-30.7	-31.9	13.0	4.19e-05	0	43	0	182452224	22	4151
2026-01-27 09:05:21.40	109.84	15.33	-30.9	-32.5	12.7	5.87e-05	0	43	0	187695104	22	4335
2026-01-27 09:05:24.41	109.49	15.60	-30.9	-32.7	12.5	9.84e-05	0	43	0	192937984	22	4392
2026-01-27 09:05:27.43	109.12	15.88	-30.8	-32.2	12.7	6.25e-05	0	43	0	199229440	22	4251
2026-01-27 09:05:30.44	108.76	16.16	-30.7	-32.1	12.9	6.02e-05	0	43	0	204472320	22	4210
2026-01-27 09:05:33.46	108.38	16.44	-30.7	-31.9	13.1	3.20e-05	0	43	0	209715200	22	4145
2026-01-27 09:05:36.46	108.00	16.73	-30.7	-31.9	13.1	1.14e-05	0	43	0	216006656	22	4127
2026-01-27 09:05:39.48	107.61	17.01	-30.8	-32.3	12.9	3.43e-05	0	43	0	221249536	22	4257
2026-01-27 09:05:42.48	107.21	17.30	-30.9	-32.4	12.9	4.80e-05	0	43	0	227540992	22	4292
2026-01-27 09:05:45.49	106.81	17.59	-31.3	-33.8	11.8	3.82e-04	0	43	0	232783872	22	4776
2026-01-27 09:05:48.50	106.39	17.88	-31.3	-33.8	11.9	3.02e-04	0	43	0	238026752	22	4756
2026-01-27 09:05:51.51	105.97	18.17	-31.5	-33.8	11.5	1.07e-03	0	44	0	244318208	23	4677
2026-01-27 09:05:54.51	105.54	18.47	-31.0	-32.2	12.7	7.70e-05	0	44	0	249561088	23	4150
2026-01-27 09:05:57.53	105.11	18.77	-31.3	-33.1	12.1	9.68e-05	0	43	0	254803968	23	4418
2026-01-27 09:06:00.54	104.66	19.06	-30.9	-31.9	12.9	1.29e-04	0	44	0	261095424	23	4060
2026-01-27 09:06:03.55	104.20	19.37	-30.9	-32.6	12.8	5.72e-05	0	43	0	266338304	22	4342
2026-01-27 09:06:06.56	103.74	19.67	-31.2	-33.4	12.2	2.75e-04	0	43	0	272629760	22	4632
2026-01-27 09:06:09.58	103.26	19.97	-31.0	-32.8	12.7	5.34e-05	0	44	0	277872640	22	4419
2026-01-27 09:06:12.60	102.78	20.28	-31.1	-33.0	12.6	9.99e-05	0	44	0	283115520	22	4490
2026-01-27 09:06:15.61	102.28	20.59	-31.0	-32.7	12.7	2.67e-05	0	44	0	289406976	22	4403
2026-01-27 09:06:18.61	101.78	20.89	-30.9	-32.5	12.8	6.71e-05	0	44	0	294649856	22	4347
2026-01-27 09:06:21.62	101.26	21.20	-31.1	-33.1	12.4	1.09e-04	0	44	0	300941312	22	4545
2026-01-27 09:06:24.63	100.74	21.52	-31.1	-33.1	12.4	1.52e-04	0	44	0	306184192	22	4564
2026-01-27 09:06:27.64	100.20	21.83	-31.3	-33.8	12.0	2.50e-04	0	44	0	311427072	22	4796
2026-01-27 09:06:30.65	99.66	22.14	-31.2	-33.3	12.3	1.86e-04	0	44	0	317718528	22	4619
2026-01-27 09:06:33.66	99.10	22.46	-30.8	-32.1	13.1	4.04e-05	0	44	0	322961408	22	4222
2026-01-27 09:06:36.67	98.53	22.77	-30.8	-32.2	13.1	2.36e-05	0	44	0	329252864	22	4252
2026-01-27 09:06:39.68	97.95	23.09	-30.8	-32.1	13.2	8.30e-06	0	44	0	334495744	22	4190
2026-01-27 09:06:42.69	97.35	23.41	-30.7	-31.8	13.4	6.80e-06	0	44	0	339738624	22	4106
2026-01-27 09:06:45.70	96.75	23.72	-30.6	-31.6	13.6	6.10e-06	0	44	0	346030080	22	4031
2026-01-27 09:06:48.72	96.13	24.04	-30.9	-32.4	13.1	1.37e-05	0	43	0	351272960	22	4270
2026-01-27 09:06:51.72	95.50	24.36	-30.8	-32.1	13.3	1.98e-05	0	43	0	356515840	22	4191
2026-01-27 09:06:54.73	94.86	24.68	-30.9	-32.4	13.1	2.89e-05	0	44	0	362807296	22	4280
2026-01-27 09:06:57.73	94.20	24.99	-31.1	-32.9	12.8	2.74e-05	0	44	0	368050176	22	4437
2026-01-27 09:07:00.74	93.53	25.31	-30.9	-32.3	13.1	4.73e-05	0	44	0	374341632	22	4254
2026-01-27 09:07:03.74	92.85	25.63	-31.1	-32.9	12.8	1.05e-04	0	43	0	379584512	22	4452
2026-01-27 09:07:06.75	92.15	25.94	-31.2	-33.3	12.5	7.55e-05	0	44	0	384827392	22	4568
2026-01-27 09:07:09.76	91.44	26.26	-31.4	-33.7	12.3	2.20e-04	0	44	0	391118848	22	4694
2026-01-27 09:07:12.77	90.71	26.57	-30.6	-31.6	13.7	1.67e-05	0	43	0	396361728	22	4031
2026-01-27 09:07:15.78	89.97	26.88	-30.1	-30.8	14.4	0.00e+00	0	44	0	401604608	21	3904
2026-01-27 09:07:18.80	89.21	27.19	-30.0	-30.6	14.5	7.00e-07	0	44	0	407896064	21	3857
2026-01-27 09:07:21.81	88.44	27.50	-30.5	-32.0	13.7	3.00e-06	0	44	0	413138944	21	4253
2026-01-27 09:07:24.82	87.65	27.81	-31.0	-33.2	13.0	2.28e-05	0	44	0	419430400	21	4635
2026-01-27 09:07:27.82	86.86	28.11	-31.3	-33.5	12.4	7.85e-05	0	44	0	424673280	22	4666
2026-01-27 09:07:30.83	86.04	28.41	-31.8	-34.5	11.4	9.69e-04	0	44	0	429916160	23	4943
2026-01-27 09:07:33.84	85.21	28.70	-31.5	-33.7	12.0	2.46e-04	0	44	0	436207616	23	4628
2026-01-27 09:07:36.85	84.36	29.00	-31.3	-33.1	12.4	1.52e-04	0	44	0	441450496	23	4407
2026-01-27 09:07:39.87	83.50	29.29	-31.8	-34.7	11.2	8.06e-04	0	44	0	447741952	23	5043
2026-01-27 09:07:42.88	82.62	29.57	-32.1	-35.1	10.5	4.16e-03	0	44	0	452984832	24	5133
2026-01-27 09:07:45.89	81.72	29.85	-32.4	-35.7	9.6	1.43e-02	0	44	0	458227712	25	5276
2026-01-27 09:07:48.90	80.82	30.12	-32.9	-37.6	8.3	3.50e-02	0	44	0	464519168	25	6185
2026-01-27 09:07:51.91	79.89	30.39	-32.5	-36.1	9.4	3.67e-02	0	44	0	469762048	25	5458
2026-01-27 09:07:54.92	78.95	30.65	-32.1	-34.7	10.6	4.14e-03	0	44	0	475004928	25	4825
2026-01-27 09:07:57.93	78.00	30.91	-32.3	-35.2	10.1	4.93e-03	0	44	0	481296384	25	5046
2026-01-27 09:08:00.93	77.03	31.15	-31.8	-34.2	11.2	1.45e-03	0	44	0	486539264	24	4762
2026-01-27 09:08:03.94	76.04	31.39	-32.2	-35.4	10.3	4.62e-03	0	44	0	492830720	24	5256
2026-01-27 09:08:06.96	75.04	31.63	-32.1	-35.2	10.5	4.05e-03	0	44	0	498073600	24	5148
2026-01-27 09:08:09.97	74.03	31.85	-31.9	-34.6	11.0	1.71e-03	0	44	0	503316480	24	4890
2026-01-27 09:08:12.97	73.00	32.07	-31.9	-34.6	11.0	2.16e-03	0	44	0	509607936	24	4867
2026-01-27 09:08:15.99	71.96	32.28	-31.7	-33.8	11.6	4.65e-04	0	44	0	514850816	24	4586
2026-01-27 09:08:19.01	70.90	32.47	-31.9	-34.5	11.2	8.21e-04	0	44	0	521142272	24	4841
2026-01-27 09:08:22.01	69.84	32.66	-31.7	-33.6	11.7	9.34e-04	0	44	0	526385152	24	4517
2026-01-27 09:08:25.02	68.76	32.84	-31.4	-33.4	12.3	6.17e-05	0	44	0	531628032	23	4501
2026-01-27 09:08:28.03	67.67	33.01	-32.0	-34.5	11.2	1.77e-03	0	44	0	537919488	24	4837
2026-01-27 09:08:31.04	66.57	33.16	-31.5	-33.2	12.1	4.46e-04	0	44	0	543162368	24	4380
2026-01-27 09:08:34.06	65.46	33.31	-31.4	-33.3	12.4	7.55e-05	0	44	0	548405248	23	4474
2026-01-27 09:08:37.07	64.33	33.44	-31.0	-32.2	13.2	2.13e-05	0	44	0	554696704	23	4114
2026-01-27 09:08:40.09	63.20	33.56	-31.8	-34.5	11.6	2.30e-04	0	44	0	559939584	23	4902
2026-01-27 09:08:43.10	62.06	33.67	-32.0	-34.7	11.0	1.79e-03	0	44	0	566231040	24	4910
2026-01-27 09:08:46.12	60.92	33.76	-31.4	-33.1	12.6	1.07e-04	0	44	0	571473920	23	4414
2026-01-27 09:08:49.12	59.77	33.85	-31.5	-33.5	12.3	2.09e-04	0	44	0	576716800	23	4536
2026-01-27 09:08:52.13	58.61	33.92	-31.0	-31.9	13.3	1.44e-05	0	44	0	583008256	23	4030
2026-01-27 09:08:55.14	57.45	33.97	-31.1	-32.8	13.1	2.36e-05	0	43	0	588251136	22	4399
2026-01-27 09:08:58.16	56.28	34.02	-31.6	-33.9	11.8	3.91e-04	0	44	0	594542592	23	4671
2026-01-27 09:09:01.17	55.12	34.05	-32.1	-34.9	10.9	2.06e-03	0	44	0	599785472	24	4973
2026-01-27 09:09:04.16	53.96	34.06	-32.0	-34.7	11.0	1.25e-03	0	44	0	605028352	24	4904
2026-01-27 09:09:07.17	52.79	34.07	-31.4	-33.2	12.4	1.20e-04	0	44	0	611319808	23	4432
2026-01-27 09:09:10.18	51.62	34.06	-31.5	-33.5	12.2	6.86e-05	0	44	0	616562688	23	4562
2026-01-27 09:09:13.20	50.45	34.03	-31.8	-34.5	11.4	1.10e-03	0	44	0	621805568	23	4930
2026-01-27 09:09:16.21	49.29	33.99	-31.0	-32.3	13.1	4.27e-05	0	44	0	628097024	23	4154
2026-01-27 09:09:19.23	48.12	33.94	-32.1	-35.0	10.8	1.38e-03	0	44	0	633339904	24	5045
2026-01-27 09:09:22.23	46.97	33.88	-32.2	-35.5	10.6	3.88e-03	0	44	0	639631360	24	5276
2026-01-27 09:09:25.25	45.81	33.80	-31.5	-33.1	12.1	7.09e-04	0	44	0	644874240	24	4343
2026-01-27 09:09:28.26	44.66	33.71	-31.8	-33.9	11.5	2.69e-04	0	44	0	650117120	24	4608
2026-01-27 09:09:31.27	43.53	33.61	-32.0	-34.7	11.0	2.14e-03	0	44	0	656408576	24	4912
2026-01-27 09:09:34.28	42.39	33.49	-32.0	-34.5	11.2	1.82e-03	0	44	0	661651456	24	4822
2026-01-27 09:09:37.30	41.27	33.37	-31.7	-33.7	11.7	3.84e-04	0	44	0	667942912	24	4542
2026-01-27 09:09:40.30	40.16	33.23	-31.6	-33.3	11.9	1.03e-03	0	44	0	673185792	24	4406
2026-01-27 09:09:43.31	39.05	33.08	-31.2	-32.8	12.6	1.40e-04	0	44	0	678428672	23	4318
2026-01-27 09:09:46.32	37.96	32.92	-30.6	-31.7	13.6	1.14e-05	0	44	0	684720128	22	4054
2026-01-27 09:09:49.34	36.88	32.74	-31.7	-34.2	11.7	2.77e-04	0	44	0	689963008	23	4795
2026-01-27 09:09:52.34	35.81	32.56	-31.4	-33.4	12.2	3.23e-04	0	44	0	695205888	23	4515
2026-01-27 09:09:55.35	34.75	32.37	-31.2	-32.7	12.7	1.01e-04	0	44	0	701497344	23	4267
2026-01-27 09:09:58.36	33.71	32.16	-31.4	-33.4	12.1	1.72e-04	0	44	0	706740224	23	4533
2026-01-27 09:10:01.38	32.67	31.95	-32.2	-35.4	10.4	3.61e-03	0	44	0	713031680	24	5192
2026-01-27 09:10:04.40	31.65	31.73	-32.3	-35.8	10.1	7.74e-03	0	44	0	718274560	24	5363
2026-01-27 09:10:07.40	30.65	31.50	-32.5	-35.9	9.7	7.47e-03	0	44	0	723517440	25	5300
2026-01-27 09:10:10.41	29.67	31.27	-32.6	-36.0	9.6	1.04e-02	0	44	0	729808896	25	5352
2026-01-27 09:10:13.42	28.69	31.02	-32.3	-35.2	10.2	8.03e-03	0	44	0	735051776	25	5005
2026-01-27 09:10:16.43	27.73	30.77	-32.0	-34.0	11.1	3.04e-03	0	44	0	740294656	25	4526
2026-01-27 09:10:19.43	26.79	30.51	-32.1	-35.0	10.8	1.28e-03	0	44	0	746586112	24	4994
2026-01-27 09:10:22.43	25.87	30.25	-33.3	-38.4	7.4	8.31e-02	0	44	0	751828992	26	6486
2026-01-27 09:10:25.43	24.96	29.98	-31.9	-33.6	11.3	2.31e-03	0	44	0	758120448	25	4402
2026-01-27 09:10:28.43	24.06	29.71	-31.6	-34.0	11.8	2.91e-04	0	44	0	763363328	23	4722
2026-01-27 09:10:31.44	23.18	29.43	-32.9	-37.5	8.5	4.69e-02	0	44	0	768606208	25	6112
2026-01-27 09:10:34.44	22.32	29.14	-32.4	-35.6	9.8	7.53e-03	0	44	0	774897664	25	5178
2026-01-27 09:10:37.45	21.47	28.85	-32.3	-35.3	10.1	7.08e-03	0	44	0	780140544	25	5068
2026-01-27 09:10:40.46	20.63	28.56	-32.3	-35.3	10.1	8.22e-03	0	44	0	785383424	25	5063
2026-01-27 09:10:43.45	19.82	28.26	-31.6	-33.3	11.9	1.02e-03	0	44	0	791674880	24	4379
2026-01-27 09:10:46.46	19.01	27.96	-30.9	-31.8	13.1	4.57e-05	0	44	0	796917760	23	4006
2026-01-27 09:10:49.47	18.22	27.66	-31.2	-32.8	12.5	8.77e-05	0	44	0	803209216	23	4318
2026-01-27 09:10:52.48	17.45	27.36	-31.4	-33.3	12.1	3.87e-04	0	44	0	808452096	23	4467
2026-01-27 09:10:55.50	16.69	27.05	-30.4	-31.1	13.9	0.00e+00	0	44	0	813694976	22	3879
2026-01-27 09:10:58.51	15.94	26.74	-30.7	-31.8	13.5	9.10e-06	0	44	0	819986432	22	4087
2026-01-27 09:11:01.52	15.21	26.43	-30.9	-32.2	13.2	1.83e-05	0	44	0	825229312	22	4207
2026-01-27 09:11:04.53	14.49	26.11	-30.5	-31.3	13.8	3.80e-06	0	44	0	830472192	22	3929
2026-01-27 09:11:07.54	13.79	25.80	-30.2	-30.9	14.3	3.00e-06	0	44	0	836763648	21	3909
2026-01-27 09:11:10.56	13.10	25.48	-30.9	-32.9	12.9	2.36e-05	0	44	0	842006528	21	4532
2026-01-27 09:11:13.56	12.43	25.17	-31.0	-32.7	12.8	5.41e-05	0	44	0	848297984	22	4367
2026-01-27 09:11:16.57	11.77	24.85	-30.5	-31.3	13.7	5.30e-06	0	44	0	853540864	22	3936
2026-01-27 09:11:19.58	11.12	24.54	-30.3	-31.4	13.9	3.00e-06	0	44	0	858783744	21	4061
2026-01-27 09:11:22.59	10.49	24.22	-30.0	-30.4	14.5	0.00e+00	0	44	0	865075200	21	3796
2026-01-27 09:11:25.60	9.87	23.90	-29.8	-30.6	14.8	0.00e+00	0	44	0	870318080	20	3921
2026-01-27 09:11:28.62	9.26	23.59	-29.7	-30.3	14.7	7.00e-07	0	44	0	876609536	20	3846
2026-01-27 09:11:31.62	8.66	23.27	-30.2	-31.6	13.7	1.50e-06	0	44	0	881852416	20	4217
2026-01-27 09:11:34.62	8.08	22.96	-30.1	-31.5	12.9	2.89e-05	0	44	0	887095296	20	4203
2026-01-27 09:11:37.63	7.51	22.64	-30.1	-31.3	13.5	1.44e-05	0	44	0	893386752	20	4153
2026-01-27 09:11:40.65	6.95	22.33	-30.5	-32.0	13.4	1.37e-05	0	44	0	898629632	21	4252
2026-01-27 09:11:43.67	6.40	22.01	-30.6	-32.2	13.3	1.83e-05	0	44	0	903872512	21	4311
2026-01-27 09:11:46.68	5.86	21.70	-30.3	-31.5	13.8	3.00e-06	0	44	0	910163968	21	4090
2026-01-27 09:11:49.68	5.33	21.39	-30.8	-33.0	9.6	4.92e-03	0	44	0	915406848	21	4651
2026-01-27 09:11:52.69	4.82	21.08	-30.6	-32.6	9.1	3.62e-02	0	44	0	921698304	21	4528
2026-01-27 09:11:55.70	4.31	20.78	-30.9	-32.6	11.7	6.36e-04	0	44	0	926941184	22	4380
2026-01-27 09:11:58.71	3.82	20.47	-31.0	-32.8	12.4	1.94e-04	0	44	0	932184064	22	4442
2026-01-27 09:12:01.71	3.33	20.16	-30.7	-32.1	12.4	2.59e-04	0	44	0	938475520	22	4206
2026-01-27 09:12:04.72	2.86	19.86	-30.0	-30.6	13.0	3.43e-05	0	44	0	943718400	21	3890
2026-01-27 09:12:07.73	2.39	19.56	-30.3	-31.5	12.6	3.58e-05	0	44	0	950009856	21	4140
2026-01-27 09:12:10.73	1.93	19.26	-30.4	-31.6	13.5	9.10e-06	0	44	0	955252736	21	4153
2026-01-27 09:12:13.73	1.49	18.96	-30.2	-31.1	13.3	1.37e-05	0	44	0	960495616	21	4013
2026-01-27 09:12:16.74	1.05	18.67	-30.1	-30.8	13.9	3.00e-06	0	44	0	966787072	21	3919
2026-01-27 09:12:19.75	0.62	18.37	-30.2	-31.3	13.8	6.10e-06	0	44	0	972029952	21	4048
2026-01-27 09:12:22.76	0.19	18.08	-30.9	-33.0	12.5	4.19e-05	0	44	0	977272832	21	4592
2026-01-27 09:12:25.76	359.78	17.79	-31.6	-34.4	10.8	2.31e-03	0	44	0	983564288	23	4921
2026-01-27 09:12:28.77	359.38	17.50	-32.1	-35.5	9.6	1.22e-02	0	44	0	988807168	24	5319
2026-01-27 09:12:31.77	358.98	17.21	-31.7	-34.1	10.8	3.72e-03	0	44	0	994050048	24	4734
2026-01-27 09:12:34.79	358.59	16.93	-31.7	-34.0	10.9	1.78e-03	0	44	0	1000341504	24	4694
2026-01-27 09:12:37.80	358.20	16.64	-31.2	-32.9	12.1	3.42e-04	0	44	0	1005584384	23	4393
2026-01-27 09:12:40.80	357.83	16.36	-31.7	-34.4	10.9	1.66e-03	0	44	0	1011875840	23	4946
2026-01-27 09:12:43.81	357.46	16.08	-32.3	-36.3	9.1	1.10e-02	0	44	0	1017118720	24	5676
2026-01-27 09:12:46.82	357.10	15.80	-31.4	-33.0	11.4	1.85e-03	0	44	0	1022361600	24	4362
2026-01-27 09:12:49.83	356.75	15.53	-31.2	-32.9	12.0	4.75e-04	0	44	0	1028653056	23	4382
2026-01-27 09:12:52.84	356.40	15.26	-31.1	-32.8	12.0	4.73e-04	0	44	0	1033895936	23	4373
2026-01-27 09:12:55.85	356.06	14.98	-31.2	-33.0	11.8	5.52e-04	0	44	0	1040187392	23	4427
2026-01-27 09:12:58.86	355.72	14.71	-30.9	-32.1	12.4	1.50e-04	0	44	0	1045430272	23	4159
2026-01-27 09:13:01.87	355.39	14.45	-30.9	-32.3	12.3	1.66e-04	0	44	0	1050673152	23	4207
2026-01-27 09:13:04.88	355.07	14.18	-31.0	-32.5	12.1	2.31e-04	0	44	0	1056964608	23	4280
2026-01-27 09:13:07.89	354.75	13.92	-30.9	-32.3	12.3	2.04e-04	0	44	0	1062207488	23	4208
2026-01-27 09:13:10.90	354.44	13.66	-30.8	-31.9	12.5	2.20e-04	0	44	0	1067450368	23	4101
2026-01-27 09:13:13.91	354.13	13.40	-30.9	-32.6	12.4	9.53e-05	0	44	0	1073741824	22	4406
2026-01-27 09:13:16.91	353.84	13.14	-31.3	-33.8	11.6	4.41e-04	0	44	0	1078984704	22	4804
2026-01-27 09:13:19.91	353.54	12.88	-31.8	-35.0	10.3	4.06e-03	0	44	0	1085276160	23	5209
2026-01-27 09:13:22.92	353.25	12.63	-32.1	-35.9	9.1	1.82e-02	0	44	0	1090519040	24	5551
2026-01-27 09:13:25.93	352.97	12.38	-32.3	-36.5	8.7	3.42e-02	0	44	0	1095761920	24	5828
2026-01-27 09:13:28.93	352.69	12.13	-32.3	-36.4	8.7	2.98e-02	0	44	0	1102053376	24	5798
2026-01-27 09:13:31.94	352.41	11.88	-31.8	-34.6	10.1	7.32e-03	0	44	0	1107296256	24	4970
2026-01-27 09:13:34.95	352.14	11.63	-31.6	-34.0	10.5	3.79e-03	0	44	0	1112539136	24	4755
2026-01-27 09:13:37.95	351.88	11.39	-31.6	-33.9	10.5	6.26e-03	0	44	0	1118830592	24	4723
2026-01-27 09:13:40.97	351.62	11.15	-31.3	-33.6	11.1	9.53e-04	0	44	0	1124073472	23	4689
2026-01-27 09:13:43.97	351.36	10.91	-31.0	-32.7	11.7	5.23e-04	0	44	0	1130364928	23	4381
2026-01-27 09:13:46.99	351.11	10.67	-31.0	-32.5	11.9	4.09e-04	0	44	0	1135607808	23	4311
2026-01-27 09:13:49.99	350.86	10.43	-31.0	-33.3	11.7	4.09e-04	0	44	0	1140850688	22	4648
2026-01-27 09:13:53.00	350.62	10.19	-31.1	-33.4	11.6	7.70e-04	0	44	0	1147142144	22	4713
2026-01-27 09:13:56.00	350.38	9.96	-31.3	-34.0	11.1	1.43e-03	0	44	0	1152385024	22	4916
2026-01-27 09:13:59.02	350.15	9.73	-31.4	-34.5	10.7	2.55e-03	0	44	0	1157627904	22	5140
2026-01-27 09:14:02.03	349.91	9.50	-31.7	-35.1	9.9	8.32e-03	0	44	0	1163919360	23	5307
2026-01-27 09:14:05.03	349.69	9.27	-31.4	-34.0	10.7	3.36e-03	0	44	0	1169162240	23	4844
2026-01-27 09:14:08.04	349.46	9.04	-31.3	-33.7	10.8	2.66e-03	0	44	0	1175453696	23	4756
2026-01-27 09:14:11.05	349.24	8.81	-31.5	-34.5	10.3	4.33e-03	0	44	0	1180696576	23	5054
2026-01-27 09:14:14.07	349.03	8.59	-31.7	-34.9	9.9	8.60e-03	0	44	0	1185939456	23	5246
2026-01-27 09:14:17.08	348.81	8.37	-31.9	-35.9	9.2	1.81e-02	0	44	0	1192230912	23	5685
2026-01-27 09:14:20.09	348.60	8.15	-32.1	-36.2	8.5	4.01e-02	0	44	0	1197473792	24	5761
2026-01-27 09:14:23.10	348.40	7.93	-32.0	-36.0	8.6	4.48e-02	0	44	0	1203765248	24	5670
2026-01-27 09:14:26.11	348.19	7.71	-32.1	-36.2	8.4	4.46e-02	0	44	0	1209008128	24	5800
2026-01-27 09:14:29.12	347.99	7.49	-31.7	-34.8	9.4	2.69e-02	0	44	0	1214251008	24	5148
2026-01-27 09:14:32.13	347.80	7.28	-31.5	-34.0	10.0	8.31e-03	0	44	0	1220542464	24	4802
2026-01-27 09:14:35.14	347.60	7.06	-31.1	-33.3	10.8	6.52e-03	0	44	0	1225785344	23	4623

#Closed at: 2026-01-27 09:14:37
#Recorded file [1226 MB]: D:/data/31010_260127_120340.dat