passes_logs/2026/01/27/R2M6_AANII_01/R2M6_AANII_01__20260127_130639_AQUA_rec.log

#Pass ID: 20260127_130639_AQUA
#Satellite: AQUA
#Configuration: AQUA
#almurnet v.1.7.20240730
#Start time: 2026-01-27 13:06:41

#Version: 2.2.20231116
#Station: R2M6_AANII_01
#Location: 30.233357 lon 59.946436 lat
#TLE: 1 27424U 02022A   26026.85810808  .00001813  00000+0  37258-3 0  9999
#TLE: 2 27424  98.4101 353.4861 0001866  64.3332 317.5249 14.61864179262622

#Time	Az	El	Level	Level2	SNR	BER	BlckErr	Temp	State	Recorded	gain1	gain2
2026-01-27 13:06:41.30	195.91	7.13	-30.9	-35.7	5.2	7.08e-01	0	41	0	0	23	6284
2026-01-27 13:06:44.30	196.15	7.35	-31.1	-35.9	5.2	7.10e-01	0	41	0	0	24	6229
2026-01-27 13:06:47.32	196.39	7.58	-31.0	-35.8	5.2	7.06e-01	0	41	0	0	23	6296
2026-01-27 13:06:50.33	196.63	7.82	-31.0	-36.0	5.2	7.09e-01	0	41	0	0	23	6368
2026-01-27 13:06:53.35	196.87	8.05	-30.8	-35.4	5.2	7.08e-01	0	41	0	0	23	6053
2026-01-27 13:06:56.37	197.13	8.28	-30.8	-35.1	5.2	7.11e-01	0	41	0	0	23	5930
2026-01-27 13:06:59.38	197.38	8.52	-30.3	-34.3	5.3	7.07e-01	0	41	0	0	22	5672
2026-01-27 13:07:02.39	197.64	8.76	-30.3	-34.3	5.3	7.07e-01	0	41	0	0	22	5666
2026-01-27 13:07:05.40	197.90	9.00	-30.2	-34.0	5.3	7.06e-01	0	41	0	0	22	5545
2026-01-27 13:07:08.41	198.17	9.24	-30.3	-34.0	5.3	7.08e-01	0	41	0	0	22	5565
2026-01-27 13:07:11.42	198.44	9.49	-30.5	-34.7	5.3	7.04e-01	0	41	0	0	22	5846
2026-01-27 13:07:14.43	198.72	9.74	-30.1	-33.7	5.3	7.05e-01	0	42	0	0	22	5427
2026-01-27 13:07:17.44	199.00	9.99	-30.1	-33.6	5.3	7.06e-01	0	42	0	0	22	5362
2026-01-27 13:07:20.45	199.29	10.24	-30.1	-33.6	5.3	7.07e-01	0	41	0	0	22	5379
2026-01-27 13:07:23.47	199.58	10.50	-30.1	-33.5	5.3	7.06e-01	0	41	0	0	22	5355
2026-01-27 13:07:26.48	199.88	10.75	-30.2	-33.7	5.3	7.04e-01	0	41	0	0	22	5431
2026-01-27 13:07:29.50	200.19	11.01	-30.1	-33.6	5.3	7.09e-01	0	42	0	0	22	5353
2026-01-27 13:07:32.52	200.50	11.27	-30.0	-33.3	5.3	7.06e-01	0	41	0	0	22	5247
2026-01-27 13:07:35.52	200.81	11.54	-29.9	-33.4	5.3	7.07e-01	0	42	0	0	21	5423
2026-01-27 13:07:38.54	201.13	11.80	-30.0	-33.8	5.3	7.03e-01	0	42	0	0	21	5558
2026-01-27 13:07:41.56	201.46	12.07	-29.9	-33.4	5.3	7.06e-01	0	42	0	0	21	5411
2026-01-27 13:07:44.57	201.80	12.35	-30.0	-33.6	5.3	7.05e-01	0	42	0	0	21	5487
2026-01-27 13:07:47.58	202.14	12.62	-29.8	-33.3	5.3	7.06e-01	0	42	0	0	21	5360
2026-01-27 13:07:50.60	202.48	12.90	-29.8	-33.1	5.3	7.06e-01	0	42	0	0	21	5301
2026-01-27 13:07:53.61	202.84	13.18	-29.6	-32.8	5.3	7.08e-01	0	42	0	0	21	5151
2026-01-27 13:07:56.63	203.20	13.46	-29.7	-32.9	5.3	7.05e-01	0	42	0	0	21	5207
2026-01-27 13:07:59.63	203.57	13.74	-29.7	-32.9	5.3	7.07e-01	0	42	0	0	21	5180
2026-01-27 13:08:02.63	203.94	14.03	-29.6	-32.7	5.3	7.08e-01	0	42	0	0	21	5116
2026-01-27 13:08:05.64	204.32	14.32	-29.6	-32.7	5.3	7.08e-01	0	42	0	0	21	5138
2026-01-27 13:08:08.65	204.71	14.61	-29.6	-32.6	5.3	7.03e-01	0	42	0	0	21	5078
2026-01-27 13:08:11.67	205.11	14.91	-29.6	-32.6	5.3	7.09e-01	0	42	0	0	21	5072
2026-01-27 13:08:14.69	205.52	15.21	-29.5	-32.4	5.3	7.06e-01	0	42	0	0	21	5017
2026-01-27 13:08:17.72	205.94	15.51	-29.6	-32.5	5.3	7.06e-01	0	42	0	0	21	5053
2026-01-27 13:08:20.73	206.36	15.81	-29.5	-32.5	5.3	7.06e-01	0	42	0	0	21	5037
2026-01-27 13:08:23.75	206.80	16.12	-29.6	-32.7	5.3	7.08e-01	0	42	0	0	21	5105
2026-01-27 13:08:26.77	207.24	16.43	-29.9	-33.3	5.3	7.04e-01	0	42	0	0	21	5327
2026-01-27 13:08:29.79	207.70	16.75	-29.5	-32.3	5.3	7.07e-01	0	42	0	0	21	4984
2026-01-27 13:08:32.81	208.16	17.06	-29.5	-32.3	5.3	7.06e-01	0	42	0	0	21	4983
2026-01-27 13:08:35.82	208.63	17.38	-29.5	-32.4	5.3	7.05e-01	0	42	0	0	21	5004
2026-01-27 13:08:38.83	209.12	17.70	-29.7	-32.9	5.3	7.04e-01	0	42	0	0	21	5183
2026-01-27 13:08:41.83	209.61	18.02	-29.7	-32.7	5.3	7.09e-01	0	42	0	0	21	5131
2026-01-27 13:08:44.85	210.11	18.35	-29.6	-32.6	5.3	7.04e-01	0	42	0	0	21	5093
2026-01-27 13:08:47.86	210.63	18.68	-29.5	-32.2	5.3	7.07e-01	0	43	0	0	21	4930
2026-01-27 13:08:50.89	211.16	19.01	-29.5	-32.3	5.3	7.06e-01	0	42	0	0	21	4959
2026-01-27 13:08:53.90	211.70	19.35	-29.5	-32.2	5.3	7.02e-01	0	42	0	0	21	4918
2026-01-27 13:08:56.92	212.25	19.68	-29.5	-32.2	5.4	7.06e-01	0	42	0	0	21	4945
2026-01-27 13:08:59.93	212.82	20.02	-29.5	-32.4	5.3	7.06e-01	0	42	0	0	21	4998
2026-01-27 13:09:02.94	213.40	20.36	-29.8	-33.0	5.3	7.06e-01	0	43	0	0	21	5234
2026-01-27 13:09:05.95	213.99	20.71	-29.7	-32.8	5.3	7.08e-01	0	42	0	0	21	5144
2026-01-27 13:09:08.97	214.59	21.06	-29.6	-32.5	5.4	7.04e-01	0	42	0	0	21	5033
2026-01-27 13:09:11.98	215.21	21.40	-29.8	-33.0	5.3	7.06e-01	0	42	0	0	21	5238
2026-01-27 13:09:15.00	215.85	21.76	-29.5	-32.3	5.3	7.06e-01	0	42	0	0	21	4959
2026-01-27 13:09:18.02	216.50	22.11	-29.7	-32.7	5.3	7.04e-01	0	42	0	0	21	5093
2026-01-27 13:09:21.04	217.16	22.46	-29.6	-32.5	5.3	7.05e-01	0	42	0	0	21	5042
2026-01-27 13:09:24.05	217.84	22.82	-29.7	-32.8	5.3	7.04e-01	0	42	0	0	21	5122
2026-01-27 13:09:27.06	218.54	23.17	-29.7	-32.8	5.3	7.04e-01	0	42	0	0	21	5145
2026-01-27 13:09:30.07	219.25	23.53	-29.7	-32.7	5.3	7.07e-01	0	42	0	0	21	5097
2026-01-27 13:09:33.08	219.98	23.89	-29.7	-32.7	5.3	7.08e-01	0	42	0	0	21	5093
2026-01-27 13:09:36.09	220.72	24.25	-29.7	-32.7	5.3	7.08e-01	0	42	0	0	21	5082
2026-01-27 13:09:39.11	221.49	24.61	-29.6	-32.4	5.3	7.09e-01	0	42	0	0	21	4990
2026-01-27 13:09:42.13	222.27	24.97	-29.7	-32.7	5.3	7.10e-01	0	43	0	0	21	5114
2026-01-27 13:09:45.13	223.07	25.33	-30.2	-34.1	5.3	7.12e-01	0	43	0	0	21	5655
2026-01-27 13:09:48.14	223.89	25.69	-30.2	-34.1	5.3	7.09e-01	0	42	0	0	21	5618
2026-01-27 13:09:51.16	224.73	26.05	-30.2	-33.9	5.3	7.08e-01	0	42	0	0	21	5561
2026-01-27 13:09:54.17	225.59	26.40	-29.9	-33.3	5.3	7.07e-01	0	42	0	0	21	5325
2026-01-27 13:09:57.18	226.46	26.76	-29.6	-32.5	5.3	7.07e-01	0	43	0	0	21	5024
2026-01-27 13:10:00.19	227.36	27.11	-29.6	-32.5	5.3	7.10e-01	0	42	0	0	21	5010
2026-01-27 13:10:03.21	228.28	27.47	-29.7	-32.7	5.3	7.09e-01	0	43	0	0	21	5084
2026-01-27 13:10:06.21	229.22	27.81	-29.7	-32.8	5.3	7.06e-01	0	43	0	0	21	5099
2026-01-27 13:10:09.22	230.18	28.16	-29.8	-32.8	5.3	7.07e-01	0	42	0	0	21	5108
2026-01-27 13:10:12.23	231.16	28.50	-29.8	-33.0	5.3	7.08e-01	0	42	0	0	21	5174
2026-01-27 13:10:15.24	232.16	28.83	-29.9	-33.3	5.3	7.06e-01	0	42	0	0	21	5280
2026-01-27 13:10:18.26	233.18	29.17	-29.7	-32.6	5.3	7.07e-01	0	43	0	0	21	5018
2026-01-27 13:10:21.28	234.23	29.49	-29.8	-32.9	5.3	7.07e-01	0	43	0	0	21	5116
2026-01-27 13:10:24.28	235.29	29.81	-29.7	-32.7	5.3	7.07e-01	0	43	0	0	21	5044
2026-01-27 13:10:27.29	236.38	30.12	-29.7	-32.5	5.3	7.07e-01	0	43	0	0	21	4978
2026-01-27 13:10:30.31	237.49	30.43	-29.7	-32.5	5.3	7.04e-01	0	43	0	0	21	4980
2026-01-27 13:10:33.33	238.63	30.72	-29.8	-32.9	5.3	7.04e-01	0	42	0	0	21	5106
2026-01-27 13:10:36.34	239.78	31.01	-29.8	-32.7	5.3	7.07e-01	0	42	0	0	21	5051
2026-01-27 13:10:39.35	240.95	31.29	-29.6	-32.3	5.3	7.07e-01	0	42	0	0	21	4916
2026-01-27 13:10:42.37	242.14	31.56	-29.6	-32.3	5.3	7.08e-01	0	42	0	0	21	4892
2026-01-27 13:10:45.38	243.35	31.82	-29.6	-32.4	5.3	7.07e-01	0	43	0	0	21	4948
2026-01-27 13:10:48.39	244.58	32.06	-29.5	-32.1	5.3	7.08e-01	0	43	0	0	21	4834
2026-01-27 13:10:51.40	245.83	32.30	-29.5	-32.0	5.3	7.09e-01	0	43	0	0	21	4815
2026-01-27 13:10:54.41	247.10	32.52	-29.4	-31.8	5.3	7.06e-01	0	42	0	0	21	4747
2026-01-27 13:10:57.43	248.39	32.72	-29.6	-32.2	5.3	7.08e-01	0	43	0	0	21	4858
2026-01-27 13:11:00.44	249.68	32.92	-29.4	-32.2	5.3	7.07e-01	0	43	0	0	20	4973
2026-01-27 13:11:03.46	251.00	33.09	-29.5	-32.5	5.3	7.07e-01	0	42	0	0	20	5083
2026-01-27 13:11:06.47	252.33	33.26	-29.5	-32.5	5.3	7.06e-01	0	43	0	0	20	5082
2026-01-27 13:11:09.49	253.68	33.40	-29.4	-32.3	5.3	7.11e-01	0	43	0	0	20	5007
2026-01-27 13:11:12.49	255.02	33.53	-29.4	-32.4	5.3	7.10e-01	0	42	0	0	20	5037
2026-01-27 13:11:15.51	256.39	33.65	-29.6	-32.8	5.3	7.06e-01	0	43	0	0	20	5201
2026-01-27 13:11:18.53	257.77	33.75	-29.5	-32.4	5.3	7.03e-01	0	43	0	0	20	5058
2026-01-27 13:11:21.55	259.15	33.83	-29.6	-32.7	5.3	7.08e-01	0	43	0	0	20	5148
2026-01-27 13:11:24.56	260.54	33.89	-29.5	-32.6	5.3	7.07e-01	0	43	0	0	20	5112
2026-01-27 13:11:27.55	261.92	33.93	-29.6	-32.9	5.3	7.08e-01	0	43	0	0	20	5214
2026-01-27 13:11:30.56	263.31	33.95	-29.7	-32.9	5.3	7.07e-01	0	43	0	0	20	5219
2026-01-27 13:11:33.57	264.70	33.96	-29.6	-32.8	5.3	7.09e-01	0	43	0	0	20	5178
2026-01-27 13:11:36.57	266.09	33.95	-29.8	-33.2	5.3	7.05e-01	0	42	0	0	20	5318
2026-01-27 13:11:39.58	267.48	33.92	-29.4	-32.4	5.3	7.06e-01	0	43	0	0	20	5036
2026-01-27 13:11:42.59	268.87	33.87	-29.3	-31.9	5.3	7.05e-01	0	43	0	0	20	4895
2026-01-27 13:11:45.60	270.25	33.81	-29.5	-32.4	5.3	7.10e-01	0	43	0	0	20	5048
2026-01-27 13:11:48.61	271.63	33.73	-29.3	-31.9	5.3	7.09e-01	0	43	0	0	20	4871
2026-01-27 13:11:51.63	273.00	33.63	-29.4	-32.3	5.3	7.09e-01	0	43	0	0	20	5015
2026-01-27 13:11:54.64	274.36	33.51	-29.3	-32.1	5.3	7.07e-01	0	43	0	0	20	4928
2026-01-27 13:11:57.63	275.70	33.38	-29.5	-32.6	5.3	7.06e-01	0	43	0	0	20	5109
2026-01-27 13:12:00.65	277.04	33.23	-29.4	-32.3	5.3	7.06e-01	0	43	0	0	20	5016
2026-01-27 13:12:03.66	278.36	33.06	-29.4	-32.3	5.3	7.09e-01	0	43	0	0	20	5012
2026-01-27 13:12:06.68	279.67	32.88	-29.1	-31.6	5.3	7.05e-01	0	43	0	0	20	4785
2026-01-27 13:12:09.69	280.97	32.69	-29.3	-32.0	5.3	7.06e-01	0	43	0	0	20	4921
2026-01-27 13:12:12.71	282.25	32.48	-29.1	-31.5	5.3	7.10e-01	0	43	0	0	20	4756
2026-01-27 13:12:15.72	283.51	32.25	-29.3	-32.1	5.3	7.04e-01	0	43	0	0	20	4949
2026-01-27 13:12:18.73	284.75	32.02	-30.1	-42.2	3.8	7.47e-01	0	43	104	0	21	14487
2026-01-27 13:12:21.74	285.97	31.77	-31.5	-44.9	3.8	7.46e-01	0	43	104	0	23	16870
2026-01-27 13:12:24.76	287.18	31.51	-32.0	-45.7	3.8	7.44e-01	0	43	104	0	24	17455
2026-01-27 13:12:27.78	288.37	31.24	-32.5	-46.2	3.8	7.46e-01	0	43	104	0	26	17463
2026-01-27 13:12:30.79	289.53	30.96	-33.4	-48.8	3.8	7.42e-01	0	43	104	0	27	21231
2026-01-27 13:12:33.81	290.68	30.67	-33.2	-47.8	3.8	7.45e-01	0	43	104	0	28	19358
2026-01-27 13:12:36.82	291.80	30.38	-32.8	-46.7	3.8	7.45e-01	0	43	104	0	27	17762
2026-01-27 13:12:39.83	292.90	30.07	-32.7	-46.2	3.8	7.43e-01	0	43	104	0	27	16953
2026-01-27 13:12:42.84	293.98	29.76	-32.1	-45.0	3.8	7.45e-01	0	43	104	0	26	15813
2026-01-27 13:12:45.86	295.04	29.44	-30.8	-42.8	3.8	7.49e-01	0	43	104	0	23	14389
2026-01-27 13:12:48.88	296.08	29.12	-30.9	-43.1	3.8	7.48e-01	0	43	104	0	23	14679
2026-01-27 13:12:51.89	297.09	28.79	-31.4	-43.7	3.8	7.46e-01	0	43	104	0	24	14923
2026-01-27 13:12:54.90	298.08	28.45	-30.6	-42.6	3.8	7.43e-01	0	43	104	0	23	14288
2026-01-27 13:12:57.91	299.06	28.11	-30.6	-42.3	3.8	7.44e-01	0	43	104	0	23	13893
2026-01-27 13:13:00.91	300.01	27.77	-30.2	-41.9	3.8	7.44e-01	0	43	104	0	22	13842
2026-01-27 13:13:03.93	300.94	27.42	-30.1	-41.6	3.8	7.45e-01	0	43	104	0	22	13583
2026-01-27 13:13:06.94	301.85	27.07	-30.7	-43.1	3.8	7.45e-01	0	43	104	0	22	14982
2026-01-27 13:13:09.96	302.74	26.72	-31.7	-44.9	3.8	7.44e-01	0	43	104	0	24	16379
2026-01-27 13:13:12.98	303.61	26.37	-32.8	-47.1	3.8	7.48e-01	0	43	104	0	26	18697
2026-01-27 13:13:15.99	304.46	26.01	-33.0	-47.5	3.8	7.47e-01	0	43	104	0	27	19042
2026-01-27 13:13:19.01	305.30	25.66	-33.0	-47.4	3.8	7.42e-01	0	43	104	0	27	18911
2026-01-27 13:13:22.02	306.11	25.30	-33.7	-49.7	3.8	7.48e-01	0	43	104	0	28	22767
2026-01-27 13:13:25.02	306.90	24.94	-33.1	-47.6	3.8	7.42e-01	0	43	104	0	28	19017
2026-01-27 13:13:28.04	307.68	24.59	-33.1	-47.3	3.8	7.46e-01	0	43	104	0	28	18517
2026-01-27 13:13:31.05	308.43	24.23	-32.7	-46.7	3.8	7.46e-01	0	43	104	0	27	18121
2026-01-27 13:13:34.06	309.17	23.87	-32.2	-45.4	3.8	7.48e-01	0	43	104	0	26	16499
2026-01-27 13:13:37.07	309.90	23.52	-31.4	-43.6	3.8	7.44e-01	0	43	104	0	25	14691
2026-01-27 13:13:40.08	310.60	23.16	-31.7	-44.2	3.8	7.44e-01	0	43	104	0	25	15300
2026-01-27 13:13:43.09	311.29	22.81	-31.0	-43.0	3.8	7.46e-01	0	43	104	0	24	14321
2026-01-27 13:13:46.10	311.97	22.46	-30.3	-42.3	3.8	7.43e-01	0	43	104	0	22	14254
2026-01-27 13:13:49.11	312.62	22.11	-30.4	-42.5	3.8	7.46e-01	0	43	104	0	22	14397
2026-01-27 13:13:52.12	313.27	21.76	-30.4	-42.3	3.8	7.42e-01	0	43	104	0	22	14231
2026-01-27 13:13:55.13	313.90	21.41	-31.0	-44.1	3.8	7.42e-01	0	43	104	0	22	16228
2026-01-27 13:13:58.15	314.51	21.06	-31.9	-45.4	3.8	7.44e-01	0	43	104	0	24	17084
2026-01-27 13:14:01.16	315.11	20.72	-32.8	-47.6	3.8	7.47e-01	0	43	104	0	26	19798
2026-01-27 13:14:04.17	315.70	20.38	-33.1	-47.9	3.8	7.46e-01	0	43	104	0	27	19937
2026-01-27 13:14:07.19	316.28	20.04	-32.6	-46.4	3.8	7.44e-01	0	43	104	0	27	17509
2026-01-27 13:14:10.20	316.84	19.70	-33.2	-48.3	3.8	7.45e-01	0	43	104	0	27	20459
2026-01-27 13:14:13.22	317.39	19.37	-33.3	-48.8	3.8	7.45e-01	0	43	104	0	27	21360
2026-01-27 13:14:16.22	317.92	19.04	-33.1	-48.0	3.8	7.46e-01	0	43	104	0	27	20090
2026-01-27 13:14:19.23	318.44	18.71	-33.3	-48.8	3.8	7.43e-01	0	43	104	0	27	21407
2026-01-27 13:14:22.26	318.96	18.38	-33.3	-48.9	3.8	7.44e-01	0	43	104	0	27	21705
2026-01-27 13:14:25.28	319.46	18.06	-32.4	-45.4	3.8	7.44e-01	0	43	104	0	27	16186
2026-01-27 13:14:28.28	319.95	17.74	-31.5	-43.9	3.8	7.47e-01	0	43	104	0	25	15012
2026-01-27 13:14:31.31	320.44	17.42	-30.9	-42.9	3.8	7.45e-01	0	43	104	0	24	14380
2026-01-27 13:14:34.32	320.91	17.10	-30.4	-42.2	3.8	7.43e-01	0	43	104	0	23	13922
2026-01-27 13:14:37.35	321.37	16.79	-30.0	-41.5	3.8	7.46e-01	0	43	104	0	22	13522
2026-01-27 13:14:40.36	321.82	16.48	-30.4	-42.4	3.8	7.49e-01	0	43	104	0	22	14330
2026-01-27 13:14:43.37	322.26	16.17	-31.0	-44.2	3.8	7.44e-01	0	43	104	0	22	16356
2026-01-27 13:14:46.38	322.69	15.87	-31.3	-44.6	3.8	7.41e-01	0	43	104	0	23	16582
2026-01-27 13:14:49.37	323.11	15.57	-32.3	-46.5	3.8	7.44e-01	0	43	104	0	25	18399
2026-01-27 13:14:52.38	323.52	15.27	-33.0	-48.5	3.8	7.44e-01	0	43	104	0	26	21297
2026-01-27 13:14:55.39	323.93	14.98	-32.6	-47.0	3.8	7.45e-01	0	43	104	0	26	18887
2026-01-27 13:14:58.41	324.33	14.68	-32.7	-47.2	3.8	7.41e-01	0	43	104	0	26	19221
2026-01-27 13:15:01.41	324.72	14.39	-33.3	-49.2	3.8	7.42e-01	0	43	104	0	27	22554
2026-01-27 13:15:04.43	325.10	14.11	-33.1	-48.4	3.8	7.45e-01	0	43	104	0	27	21002
2026-01-27 13:15:07.44	325.47	13.82	-33.3	-49.2	3.8	7.44e-01	0	43	104	0	27	22564
2026-01-27 13:15:10.46	325.84	13.54	-33.3	-49.3	3.8	7.52e-01	0	43	104	0	27	22802
2026-01-27 13:15:13.47	326.20	13.26	-32.6	-46.7	3.8	7.45e-01	0	43	104	0	27	18127
2026-01-27 13:15:16.48	326.55	12.98	-31.6	-44.4	3.8	7.43e-01	0	43	104	0	25	15620
2026-01-27 13:15:19.48	326.90	12.71	-31.2	-43.5	3.8	7.46e-01	0	43	104	0	24	14954
2026-01-27 13:15:22.50	327.24	12.44	-31.4	-44.1	3.8	7.45e-01	0	43	104	0	24	15575
2026-01-27 13:15:25.52	327.57	12.17	-30.7	-42.9	3.8	7.46e-01	0	43	104	0	23	14618
2026-01-27 13:15:28.52	327.90	11.90	-30.8	-43.0	3.8	7.47e-01	0	43	104	0	23	14822
2026-01-27 13:15:31.54	328.22	11.63	-31.5	-45.1	3.8	7.43e-01	0	43	104	0	23	17211
2026-01-27 13:15:34.56	328.54	11.37	-31.5	-44.7	3.8	7.47e-01	0	43	104	0	24	16466
2026-01-27 13:15:37.57	328.85	11.11	-31.6	-45.2	3.8	7.45e-01	0	43	104	0	24	17084
2026-01-27 13:15:40.58	329.15	10.86	-32.5	-47.7	3.8	7.47e-01	0	43	104	0	25	20637
2026-01-27 13:15:43.60	329.45	10.60	-32.8	-48.2	3.8	7.44e-01	0	43	104	0	26	21106
2026-01-27 13:15:46.61	329.74	10.35	-32.7	-47.8	3.8	7.44e-01	0	43	104	0	26	20480
2026-01-27 13:15:49.63	330.03	10.10	-33.1	-49.0	3.8	7.45e-01	0	43	104	0	27	22373
2026-01-27 13:15:52.65	330.32	9.85	-33.3	-49.9	3.8	7.45e-01	0	43	104	0	27	24248
2026-01-27 13:15:55.67	330.59	9.60	-33.3	-49.8	3.8	7.47e-01	0	43	104	0	27	24079
2026-01-27 13:15:58.68	330.87	9.36	-33.2	-49.7	3.8	7.47e-01	0	43	104	0	27	23888
2026-01-27 13:16:01.69	331.14	9.12	-33.0	-48.8	3.8	7.42e-01	0	43	104	0	27	22066
2026-01-27 13:16:04.71	331.40	8.88	-32.3	-46.5	3.8	7.43e-01	0	43	104	0	26	18373
2026-01-27 13:16:07.71	331.66	8.64	-31.7	-44.8	3.8	7.45e-01	0	43	104	0	25	16338
2026-01-27 13:16:10.72	331.92	8.41	-31.9	-45.4	3.8	7.45e-01	0	43	104	0	25	17160
2026-01-27 13:16:13.74	332.17	8.17	-32.1	-46.3	3.8	7.41e-01	0	43	104	0	25	18440
2026-01-27 13:16:16.76	332.42	7.94	-31.5	-44.3	3.8	7.48e-01	0	43	104	0	25	15849
2026-01-27 13:16:19.78	332.66	7.71	-31.9	-45.8	3.8	7.47e-01	0	43	104	0	25	17899
2026-01-27 13:16:22.78	332.90	7.48	-32.0	-46.1	3.8	7.43e-01	0	43	104	0	25	18236
2026-01-27 13:16:25.80	333.13	7.26	-31.5	-44.6	3.8	7.42e-01	0	43	104	0	25	16200
2026-01-27 13:16:28.80	333.37	7.03	-33.8	-53.0	3.8	7.44e-01	0	43	104	0	28	32675

#Closed at: 2026-01-27 13:16:30
#Recorded file [0 MB]: D:/data/31010_260127_161216.dat