passes_logs/2026/01/27/R2M6_AANII_01/R2M6_AANII_01__20260127_083429_NOAA_21_JPSS-2_rec.log

#Pass ID: 20260127_083429_NOAA 21 (JPSS-2)
#Satellite: NOAA 21 (JPSS-2)
#Configuration: NOAA 21
#almurnet v.1.7.20240730
#Start time: 2026-01-27 08:34:31

#Version: 2.2.20231116
#Station: R2M6_AANII_01
#Location: 30.233357 lon 59.946436 lat
#TLE: 1 54234U 22150A   26026.78373243  .00000177  00000+0  10458-3 0  9996
#TLE: 2 54234  98.7509 327.5416 0000822 208.1870 151.9262 14.19539807166482

#Time	Az	El	Level	Level2	SNR	BER	BlckErr	Temp	State	Recorded	gain1	gain2
2026-01-27 08:34:31.41	106.06	7.12	-31.6	-36.9	4.4	1.42e+00	0	41	0	0	24	6642
2026-01-27 08:34:34.42	105.80	7.32	-31.4	-35.5	7.7	1.01e-01	0	41	0	3145728	24	5742
2026-01-27 08:34:37.44	105.54	7.52	-31.2	-35.1	8.3	7.69e-02	0	41	0	12582912	23	5669
2026-01-27 08:34:40.45	105.28	7.72	-30.1	-32.8	10.7	3.32e-03	0	41	0	22020096	21	4889
2026-01-27 08:34:43.46	105.01	7.93	-29.2	-31.2	12.5	2.04e-04	0	41	0	30408704	19	4569
2026-01-27 08:34:46.47	104.74	8.13	-29.2	-31.4	12.4	1.63e-04	0	42	0	40894464	19	4629
2026-01-27 08:34:49.48	104.47	8.34	-29.2	-31.2	12.5	1.11e-04	0	42	0	49283072	19	4542
2026-01-27 08:34:52.50	104.19	8.54	-29.2	-31.3	12.5	1.33e-04	0	42	0	58720256	19	4560
2026-01-27 08:34:55.50	103.91	8.75	-28.9	-31.0	13.0	2.21e-05	0	42	0	68157440	18	4600
2026-01-27 08:34:58.51	103.62	8.96	-28.8	-30.7	13.3	1.67e-05	0	42	0	77594624	18	4475
2026-01-27 08:35:01.52	103.33	9.17	-28.7	-30.5	13.4	1.67e-05	0	42	0	87031808	18	4434
2026-01-27 08:35:04.53	103.03	9.38	-28.7	-30.4	13.4	9.90e-06	0	42	0	96468992	18	4416
2026-01-27 08:35:07.54	102.73	9.59	-28.8	-30.7	13.2	1.06e-05	0	42	0	105906176	18	4506
2026-01-27 08:35:10.55	102.43	9.81	-28.5	-30.1	13.7	7.60e-06	0	42	0	115343360	18	4313
2026-01-27 08:35:13.56	102.12	10.02	-28.4	-29.6	14.0	6.80e-06	0	42	0	124780544	18	4177
2026-01-27 08:35:16.56	101.81	10.23	-28.3	-29.6	14.0	7.00e-07	0	42	0	134217728	18	4178
2026-01-27 08:35:19.58	101.49	10.45	-28.3	-30.1	14.0	1.50e-06	0	42	0	143654912	17	4399
2026-01-27 08:35:22.60	101.16	10.67	-28.2	-29.8	14.2	3.80e-06	0	42	0	153092096	17	4328
2026-01-27 08:35:25.60	100.84	10.89	-28.2	-29.8	14.2	0.00e+00	0	42	0	162529280	17	4319
2026-01-27 08:35:28.61	100.50	11.10	-28.2	-29.7	14.3	7.00e-07	0	42	0	171966464	17	4293
2026-01-27 08:35:31.61	100.17	11.32	-28.2	-29.7	14.3	7.00e-07	0	42	0	181403648	17	4293
2026-01-27 08:35:34.62	99.82	11.55	-28.2	-29.9	14.2	7.00e-07	0	43	0	190840832	17	4337
2026-01-27 08:35:37.64	99.47	11.77	-28.2	-29.8	14.3	7.00e-07	0	43	0	200278016	17	4308
2026-01-27 08:35:40.65	99.12	11.99	-28.2	-29.8	14.3	7.00e-07	0	43	0	209715200	17	4322
2026-01-27 08:35:43.67	98.76	12.22	-28.3	-29.9	14.3	0.00e+00	0	43	0	219152384	17	4343
2026-01-27 08:35:46.67	98.39	12.44	-28.2	-29.7	14.4	7.00e-07	0	43	0	228589568	17	4281
2026-01-27 08:35:49.69	98.02	12.67	-28.0	-29.2	14.7	0.00e+00	0	43	0	238026752	17	4141
2026-01-27 08:35:52.70	97.64	12.89	-28.1	-29.4	14.6	0.00e+00	0	43	0	247463936	17	4197
2026-01-27 08:35:55.72	97.26	13.12	-28.1	-29.4	14.6	1.50e-06	0	43	0	256901120	17	4216
2026-01-27 08:35:58.73	96.87	13.35	-28.1	-29.5	14.6	0.00e+00	0	43	0	266338304	17	4220
2026-01-27 08:36:01.73	96.47	13.58	-28.0	-29.2	14.8	0.00e+00	0	43	0	275775488	17	4147
2026-01-27 08:36:04.73	96.07	13.81	-28.0	-29.2	14.8	0.00e+00	0	43	0	285212672	17	4154
2026-01-27 08:36:07.73	95.67	14.04	-27.9	-29.0	14.9	0.00e+00	0	43	0	294649856	17	4086
2026-01-27 08:36:10.75	95.25	14.27	-28.1	-29.5	14.7	7.00e-07	0	43	0	304087040	17	4220
2026-01-27 08:36:13.76	94.83	14.50	-28.3	-29.8	14.5	0.00e+00	0	43	0	313524224	17	4307
2026-01-27 08:36:16.76	94.40	14.73	-28.3	-29.9	14.5	0.00e+00	0	43	0	322961408	17	4336
2026-01-27 08:36:19.76	93.97	14.97	-28.3	-29.8	14.6	0.00e+00	0	43	0	331350016	17	4315
2026-01-27 08:36:22.75	93.53	15.20	-28.2	-29.7	14.6	0.00e+00	0	43	0	340787200	17	4277
2026-01-27 08:36:25.77	93.08	15.43	-28.3	-29.9	14.5	7.00e-07	0	43	0	350224384	17	4336
2026-01-27 08:36:28.80	92.62	15.67	-28.4	-30.1	14.5	0.00e+00	0	43	0	359661568	17	4386
2026-01-27 08:36:31.80	92.16	15.90	-28.6	-30.6	14.2	7.60e-06	0	43	0	369098752	17	4518
2026-01-27 08:36:34.81	91.69	16.14	-28.5	-30.4	14.4	7.00e-07	0	43	0	378535936	17	4469
2026-01-27 08:36:37.82	91.21	16.37	-28.7	-30.8	14.1	7.00e-07	0	43	0	387973120	17	4577
2026-01-27 08:36:40.84	90.72	16.61	-28.4	-30.2	14.5	7.00e-07	0	43	0	397410304	17	4397
2026-01-27 08:36:43.84	90.23	16.85	-28.4	-30.0	14.6	7.00e-07	0	43	0	406847488	17	4359
2026-01-27 08:36:46.85	89.73	17.08	-28.4	-30.1	14.6	0.00e+00	0	43	0	416284672	17	4381
2026-01-27 08:36:49.86	89.22	17.32	-28.3	-29.8	14.8	0.00e+00	0	43	0	425721856	17	4296
2026-01-27 08:36:52.86	88.71	17.55	-28.0	-29.2	15.2	7.00e-07	0	43	0	435159040	17	4115
2026-01-27 08:36:55.87	88.18	17.79	-28.0	-29.1	15.2	0.00e+00	0	43	0	444596224	17	4098
2026-01-27 08:36:58.88	87.65	18.03	-27.9	-29.0	15.3	0.00e+00	0	43	0	454033408	17	4056
2026-01-27 08:37:01.90	87.10	18.26	-27.9	-28.9	15.4	0.00e+00	0	43	0	463470592	17	4042
2026-01-27 08:37:04.90	86.55	18.50	-27.9	-28.9	15.4	0.00e+00	0	43	0	472907776	17	4032
2026-01-27 08:37:07.91	85.99	18.73	-28.2	-29.6	15.0	0.00e+00	0	43	0	482344960	17	4219
2026-01-27 08:37:10.93	85.42	18.96	-28.3	-29.8	14.9	0.00e+00	0	43	0	491782144	17	4276
2026-01-27 08:37:13.94	84.85	19.20	-28.0	-29.0	15.4	7.00e-07	0	43	0	501219328	17	4072
2026-01-27 08:37:16.95	84.26	19.43	-27.9	-29.0	15.4	1.50e-06	0	43	0	510656512	17	4057
2026-01-27 08:37:19.96	83.66	19.66	-27.7	-29.0	15.6	1.50e-06	0	43	0	520093696	16	4174
2026-01-27 08:37:22.97	83.06	19.89	-27.5	-28.5	15.9	0.00e+00	0	43	0	529530880	16	4039
2026-01-27 08:37:25.97	82.45	20.12	-27.5	-28.5	15.9	0.00e+00	0	43	0	538968064	16	4030
2026-01-27 08:37:28.98	81.83	20.34	-27.7	-28.9	15.7	0.00e+00	0	43	0	548405248	16	4141
2026-01-27 08:37:32.00	81.19	20.57	-27.5	-28.5	16.0	0.00e+00	0	43	0	557842432	16	4029
2026-01-27 08:37:35.01	80.55	20.79	-27.6	-28.7	15.8	0.00e+00	0	44	0	567279616	16	4093
2026-01-27 08:37:38.02	79.90	21.01	-27.6	-28.7	15.8	0.00e+00	0	43	0	576716800	16	4096
2026-01-27 08:37:41.04	79.24	21.23	-27.7	-28.9	15.8	0.00e+00	0	43	0	586153984	16	4140
2026-01-27 08:37:44.05	78.57	21.45	-27.5	-28.6	15.9	0.00e+00	0	43	0	595591168	16	4050
2026-01-27 08:37:47.06	77.89	21.66	-27.7	-28.8	15.8	0.00e+00	0	43	0	605028352	16	4124
2026-01-27 08:37:50.07	77.20	21.88	-27.5	-28.5	16.0	0.00e+00	0	43	0	614465536	16	4035
2026-01-27 08:37:53.09	76.50	22.09	-27.6	-28.7	15.9	0.00e+00	0	43	0	623902720	16	4071
2026-01-27 08:37:56.11	75.79	22.29	-27.5	-28.5	16.0	0.00e+00	0	43	0	633339904	16	4024
2026-01-27 08:37:59.11	75.07	22.50	-27.6	-28.8	15.9	0.00e+00	0	43	0	642777088	16	4100
2026-01-27 08:38:02.11	74.35	22.70	-27.6	-28.8	15.9	0.00e+00	0	43	0	652214272	16	4096
2026-01-27 08:38:05.13	73.61	22.89	-27.5	-28.4	16.1	0.00e+00	0	43	0	661651456	16	4001
2026-01-27 08:38:08.14	72.87	23.09	-27.6	-28.7	15.9	0.00e+00	0	43	0	671088640	16	4087
2026-01-27 08:38:11.17	72.11	23.28	-27.5	-28.5	16.1	0.00e+00	0	43	0	680525824	16	4022
2026-01-27 08:38:14.18	71.34	23.46	-27.7	-29.0	15.8	0.00e+00	0	44	0	689963008	16	4152
2026-01-27 08:38:17.19	70.57	23.64	-27.6	-28.6	16.0	0.00e+00	0	43	0	698351616	16	4051
2026-01-27 08:38:20.20	69.79	23.82	-27.8	-29.2	15.7	0.00e+00	0	43	0	707788800	16	4218
2026-01-27 08:38:23.20	69.00	23.99	-27.7	-28.8	15.9	0.00e+00	0	43	0	717225984	16	4111
2026-01-27 08:38:26.21	68.21	24.16	-27.5	-28.4	16.1	0.00e+00	0	44	0	726663168	16	3995
2026-01-27 08:38:29.22	67.40	24.32	-27.5	-28.5	16.1	0.00e+00	0	43	0	736100352	16	4026
2026-01-27 08:38:32.22	66.59	24.47	-27.5	-28.5	16.1	0.00e+00	0	43	0	745537536	16	4013
2026-01-27 08:38:35.24	65.76	24.63	-27.5	-28.5	16.1	0.00e+00	0	43	0	754974720	16	4020
2026-01-27 08:38:38.25	64.93	24.77	-27.5	-28.5	16.1	0.00e+00	0	43	0	764411904	16	4036
2026-01-27 08:38:41.27	64.09	24.91	-27.5	-28.6	16.1	0.00e+00	0	44	0	773849088	16	4042
2026-01-27 08:38:44.28	63.24	25.04	-27.4	-28.3	16.2	0.00e+00	0	44	0	783286272	16	3969
2026-01-27 08:38:47.29	62.39	25.17	-27.4	-28.3	16.2	0.00e+00	0	44	0	792723456	16	3960
2026-01-27 08:38:50.31	61.53	25.29	-27.1	-28.0	16.5	0.00e+00	0	43	0	802160640	15	4006
2026-01-27 08:38:53.31	60.66	25.41	-27.2	-28.4	16.3	0.00e+00	0	44	0	811597824	15	4101
2026-01-27 08:38:56.32	59.79	25.51	-27.4	-28.8	16.1	0.00e+00	0	44	0	821035008	15	4208
2026-01-27 08:38:59.34	58.91	25.61	-27.3	-28.5	16.2	0.00e+00	0	44	0	830472192	15	4132
2026-01-27 08:39:02.34	58.03	25.71	-27.3	-28.5	16.2	0.00e+00	0	44	0	839909376	15	4143
2026-01-27 08:39:05.36	57.14	25.79	-27.5	-29.0	16.0	0.00e+00	0	44	0	849346560	15	4263
2026-01-27 08:39:08.37	56.25	25.87	-27.2	-28.4	16.3	0.00e+00	0	43	0	858783744	15	4113
2026-01-27 08:39:11.37	55.35	25.94	-27.3	-28.4	16.2	0.00e+00	0	43	0	868220928	15	4110
2026-01-27 08:39:14.38	54.45	26.01	-27.4	-28.8	16.0	0.00e+00	0	43	0	877658112	15	4229
2026-01-27 08:39:17.40	53.55	26.06	-27.7	-29.3	15.8	0.00e+00	0	44	0	887095296	15	4358
2026-01-27 08:39:20.41	52.64	26.11	-27.6	-29.2	15.9	0.00e+00	0	43	0	896532480	15	4317
2026-01-27 08:39:23.42	51.73	26.15	-27.8	-29.0	15.8	0.00e+00	0	44	0	905969664	16	4159
2026-01-27 08:39:26.43	50.82	26.18	-28.0	-29.6	15.6	0.00e+00	0	44	0	915406848	16	4311
2026-01-27 08:39:29.44	49.90	26.21	-27.9	-29.3	15.7	0.00e+00	0	44	0	924844032	16	4244
2026-01-27 08:39:32.45	48.99	26.23	-27.8	-29.2	15.7	0.00e+00	0	44	0	934281216	16	4219
2026-01-27 08:39:35.46	48.07	26.23	-27.9	-29.3	15.7	0.00e+00	0	43	0	943718400	16	4248
2026-01-27 08:39:38.47	47.16	26.23	-27.7	-28.8	16.0	0.00e+00	0	44	0	953155584	16	4092
2026-01-27 08:39:41.49	46.24	26.23	-27.4	-28.3	16.2	0.00e+00	0	44	0	962592768	16	3977
2026-01-27 08:39:44.50	45.33	26.21	-27.3	-28.0	16.4	0.00e+00	0	43	0	972029952	16	3902
2026-01-27 08:39:47.50	44.42	26.19	-27.2	-28.2	16.4	0.00e+00	0	44	0	981467136	15	4067
2026-01-27 08:39:50.51	43.51	26.16	-27.5	-29.0	16.0	0.00e+00	0	43	0	990904320	15	4273
2026-01-27 08:39:53.53	42.59	26.12	-27.4	-28.8	16.1	0.00e+00	0	44	0	1000341504	15	4215
2026-01-27 08:39:56.54	41.69	26.07	-27.4	-28.8	16.1	0.00e+00	0	44	0	1009778688	15	4205
2026-01-27 08:39:59.55	40.78	26.01	-27.5	-29.0	15.9	0.00e+00	0	43	0	1019215872	15	4282
2026-01-27 08:40:02.56	39.88	25.95	-27.4	-28.8	16.0	0.00e+00	0	44	0	1028653056	15	4220
2026-01-27 08:40:05.58	38.98	25.88	-27.3	-28.5	16.2	0.00e+00	0	44	0	1038090240	15	4134
2026-01-27 08:40:08.59	38.09	25.80	-27.2	-28.4	16.3	0.00e+00	0	44	0	1046478848	15	4109
2026-01-27 08:40:11.60	37.20	25.72	-27.3	-28.6	16.1	0.00e+00	0	44	0	1055916032	15	4171
2026-01-27 08:40:14.60	36.32	25.63	-27.4	-28.8	16.0	0.00e+00	0	44	0	1065353216	15	4221
2026-01-27 08:40:17.61	35.45	25.53	-27.3	-28.6	16.1	0.00e+00	0	44	0	1074790400	15	4172
2026-01-27 08:40:20.63	34.57	25.42	-27.2	-28.4	16.3	0.00e+00	0	44	0	1084227584	15	4102
2026-01-27 08:40:23.64	33.71	25.31	-27.3	-28.5	16.2	0.00e+00	0	44	0	1093664768	15	4130
2026-01-27 08:40:26.66	32.84	25.19	-27.2	-28.2	16.3	0.00e+00	0	44	0	1103101952	15	4065
2026-01-27 08:40:29.66	31.99	25.06	-27.3	-28.6	16.1	0.00e+00	0	43	0	1112539136	15	4165
2026-01-27 08:40:32.68	31.15	24.93	-27.3	-28.4	16.2	0.00e+00	0	43	0	1121976320	15	4118
2026-01-27 08:40:35.68	30.31	24.79	-27.1	-28.2	16.4	0.00e+00	0	44	0	1131413504	15	4054
2026-01-27 08:40:38.70	29.48	24.65	-27.4	-28.8	16.0	0.00e+00	0	43	0	1140850688	15	4219
2026-01-27 08:40:41.71	28.66	24.50	-27.7	-29.4	15.7	0.00e+00	0	43	0	1150287872	15	4396
2026-01-27 08:40:44.72	27.84	24.34	-27.6	-29.1	15.8	0.00e+00	0	44	0	1159725056	15	4313
2026-01-27 08:40:47.73	27.04	24.18	-27.7	-29.4	15.7	0.00e+00	0	44	0	1169162240	15	4376
2026-01-27 08:40:50.72	26.24	24.02	-27.5	-28.9	16.0	0.00e+00	0	44	0	1178599424	15	4243
2026-01-27 08:40:53.74	25.45	23.85	-27.5	-28.9	15.9	0.00e+00	0	44	0	1188036608	15	4253
2026-01-27 08:40:56.75	24.67	23.67	-27.7	-29.5	15.6	0.00e+00	0	44	0	1197473792	15	4411
2026-01-27 08:40:59.77	23.90	23.49	-27.4	-28.7	16.0	0.00e+00	0	44	0	1206910976	15	4197
2026-01-27 08:41:02.77	23.14	23.31	-27.3	-28.5	16.1	0.00e+00	0	43	0	1216348160	15	4139
2026-01-27 08:41:05.78	22.39	23.12	-27.3	-28.6	16.1	0.00e+00	0	44	0	1225785344	15	4159
2026-01-27 08:41:08.79	21.64	22.93	-27.8	-29.7	15.5	0.00e+00	0	43	0	1235222528	15	4466
2026-01-27 08:41:11.80	20.91	22.73	-28.2	-29.9	15.2	0.00e+00	0	44	0	1244659712	16	4423
2026-01-27 08:41:14.81	20.18	22.53	-27.5	-28.5	16.0	0.00e+00	0	44	0	1254096896	16	4031
2026-01-27 08:41:17.82	19.47	22.33	-27.4	-28.2	16.1	0.00e+00	0	44	0	1263534080	16	3960
2026-01-27 08:41:20.83	18.76	22.12	-27.3	-28.1	16.2	0.00e+00	0	44	0	1272971264	16	3918
2026-01-27 08:41:23.83	18.07	21.92	-27.0	-27.8	16.5	0.00e+00	0	44	0	1282408448	15	3949
2026-01-27 08:41:26.85	17.38	21.70	-27.4	-28.8	15.9	0.00e+00	0	44	0	1291845632	15	4213
2026-01-27 08:41:29.87	16.70	21.49	-27.4	-28.8	15.9	0.00e+00	0	44	0	1301282816	15	4210
2026-01-27 08:41:32.89	16.03	21.27	-27.5	-29.0	15.8	0.00e+00	0	44	0	1310720000	15	4266
2026-01-27 08:41:35.90	15.37	21.05	-27.0	-27.8	16.5	0.00e+00	0	44	0	1320157184	15	3951
2026-01-27 08:41:38.91	14.72	20.83	-27.6	-29.2	15.7	0.00e+00	0	43	0	1329594368	15	4321
2026-01-27 08:41:41.93	14.07	20.61	-27.6	-29.2	15.7	0.00e+00	0	44	0	1339031552	15	4329
2026-01-27 08:41:44.95	13.44	20.39	-27.5	-28.9	15.8	0.00e+00	0	44	0	1348468736	15	4253
2026-01-27 08:41:47.96	12.82	20.16	-27.7	-29.4	15.6	0.00e+00	0	44	0	1357905920	15	4377
2026-01-27 08:41:50.96	12.21	19.93	-27.5	-29.0	15.7	0.00e+00	0	44	0	1367343104	15	4291
2026-01-27 08:41:53.96	11.61	19.71	-27.2	-28.4	16.1	0.00e+00	0	44	0	1376780288	15	4108
2026-01-27 08:41:56.97	11.02	19.48	-27.2	-28.4	16.0	0.00e+00	0	44	0	1386217472	15	4125
2026-01-27 08:41:59.97	10.43	19.25	-27.7	-29.4	15.5	0.00e+00	0	44	0	1394606080	15	4383
2026-01-27 08:42:02.98	9.86	19.02	-28.2	-30.0	15.1	0.00e+00	0	44	0	1404043264	16	4444
2026-01-27 08:42:05.97	9.29	18.78	-28.1	-30.0	15.0	7.00e-07	0	44	0	1413480448	16	4437
2026-01-27 08:42:08.97	8.74	18.55	-28.0	-29.7	15.2	0.00e+00	0	44	0	1422917632	16	4368
2026-01-27 08:42:11.99	8.19	18.32	-28.0	-29.7	15.1	0.00e+00	0	44	0	1432354816	16	4376
2026-01-27 08:42:14.98	7.65	18.09	-28.0	-29.6	15.2	7.00e-07	0	44	0	1441792000	16	4339
2026-01-27 08:42:17.99	7.11	17.85	-28.0	-29.5	15.2	0.00e+00	0	44	0	1451229184	16	4318
2026-01-27 08:42:21.01	6.59	17.61	-27.9	-29.4	15.3	0.00e+00	0	44	0	1460666368	16	4288
2026-01-27 08:42:24.02	6.07	17.38	-27.6	-28.8	15.6	0.00e+00	0	44	0	1470103552	16	4110
2026-01-27 08:42:27.03	5.56	17.14	-27.6	-28.7	15.7	0.00e+00	0	44	0	1479540736	16	4084
2026-01-27 08:42:30.05	5.06	16.91	-27.8	-29.3	15.3	7.00e-07	0	44	0	1488977920	16	4248
2026-01-27 08:42:33.06	4.57	16.67	-27.9	-29.4	15.3	0.00e+00	0	44	0	1498415104	16	4268
2026-01-27 08:42:36.07	4.09	16.44	-27.9	-29.3	15.3	0.00e+00	0	44	0	1507852288	16	4259
2026-01-27 08:42:39.09	3.61	16.20	-27.7	-28.9	15.5	0.00e+00	0	44	0	1517289472	16	4144
2026-01-27 08:42:42.08	3.14	15.97	-27.7	-28.9	15.5	0.00e+00	0	44	0	1526726656	16	4150
2026-01-27 08:42:45.08	2.68	15.74	-28.0	-29.8	15.1	0.00e+00	0	44	0	1536163840	16	4389
2026-01-27 08:42:48.08	2.23	15.50	-28.4	-30.5	14.5	0.00e+00	0	44	0	1545601024	16	4617
2026-01-27 08:42:51.09	1.78	15.27	-28.1	-29.8	14.9	0.00e+00	0	44	0	1555038208	16	4395
2026-01-27 08:42:54.10	1.34	15.04	-28.3	-30.4	14.6	0.00e+00	0	44	0	1564475392	16	4571
2026-01-27 08:42:57.09	0.91	14.81	-28.3	-29.8	14.6	0.00e+00	0	44	0	1573912576	17	4290
2026-01-27 08:43:00.11	0.48	14.57	-28.6	-30.5	14.2	7.00e-07	0	44	0	1583349760	17	4501
2026-01-27 08:43:03.11	0.07	14.34	-28.6	-30.5	14.2	2.20e-06	0	44	0	1592786944	17	4508
2026-01-27 08:43:06.12	359.65	14.11	-28.5	-30.2	14.4	7.00e-07	0	44	0	1602224128	17	4418
2026-01-27 08:43:09.12	359.25	13.88	-28.4	-30.1	14.4	0.00e+00	0	44	0	1611661312	17	4375
2026-01-27 08:43:12.13	358.85	13.65	-28.2	-29.6	14.7	7.00e-07	0	44	0	1621098496	17	4247
2026-01-27 08:43:15.14	358.45	13.42	-28.4	-30.1	14.4	1.50e-06	0	44	0	1629487104	17	4376
2026-01-27 08:43:18.15	358.07	13.20	-28.6	-30.5	14.1	7.00e-07	0	44	0	1638924288	17	4507
2026-01-27 08:43:21.17	357.68	12.97	-28.6	-30.5	14.1	1.50e-06	0	44	0	1648361472	17	4507
2026-01-27 08:43:24.18	357.31	12.74	-28.3	-29.9	14.4	0.00e+00	0	44	0	1657798656	17	4336
2026-01-27 08:43:27.19	356.94	12.52	-28.2	-29.6	14.6	1.50e-06	0	44	0	1667235840	17	4252
2026-01-27 08:43:30.21	356.57	12.29	-28.2	-29.7	14.6	1.50e-06	0	44	0	1676673024	17	4265
2026-01-27 08:43:33.22	356.21	12.07	-28.4	-30.1	14.3	7.00e-07	0	44	0	1686110208	17	4398
2026-01-27 08:43:36.21	355.86	11.85	-28.6	-30.7	13.9	7.00e-07	0	44	0	1695547392	17	4554
2026-01-27 08:43:39.23	355.52	11.63	-28.8	-31.2	13.6	3.80e-06	0	44	0	1704984576	17	4715
2026-01-27 08:43:42.25	355.17	11.41	-28.7	-30.8	13.8	3.80e-06	0	44	0	1714421760	17	4597
2026-01-27 08:43:45.25	354.84	11.19	-28.6	-30.6	13.9	3.00e-06	0	44	0	1723858944	17	4529
2026-01-27 08:43:48.26	354.51	10.97	-28.4	-30.2	14.2	1.50e-06	0	44	0	1733296128	17	4423
2026-01-27 08:43:51.27	354.18	10.75	-28.4	-30.3	14.1	3.00e-06	0	44	0	1742733312	17	4437
2026-01-27 08:43:54.29	353.86	10.53	-28.7	-30.9	13.8	4.50e-06	0	44	0	1752170496	17	4630
2026-01-27 08:43:57.30	353.54	10.32	-28.9	-31.3	13.5	1.44e-05	0	44	0	1761607680	17	4779
2026-01-27 08:44:00.31	353.23	10.10	-29.1	-31.3	13.2	2.05e-05	0	44	0	1771044864	18	4664
2026-01-27 08:44:03.32	352.92	9.89	-29.1	-31.2	13.2	1.60e-05	0	44	0	1780482048	18	4632
2026-01-27 08:44:06.33	352.62	9.68	-29.1	-31.3	13.1	4.04e-05	0	43	0	1789919232	18	4650
2026-01-27 08:44:09.34	352.32	9.47	-28.9	-30.9	13.4	1.14e-05	0	44	0	1799356416	18	4528
2026-01-27 08:44:12.37	352.02	9.25	-29.1	-31.4	13.1	2.13e-05	0	44	0	1808793600	18	4688
2026-01-27 08:44:15.39	351.73	9.04	-29.0	-31.2	13.2	2.74e-05	0	44	0	1818230784	18	4632
2026-01-27 08:44:18.39	351.45	8.84	-29.3	-31.9	12.7	7.40e-05	0	44	0	1827667968	18	4849
2026-01-27 08:44:21.40	351.17	8.63	-29.3	-32.0	12.6	6.71e-05	0	44	0	1837105152	18	4891
2026-01-27 08:44:24.41	350.89	8.42	-29.5	-32.0	12.3	1.91e-04	0	44	0	1846542336	19	4800
2026-01-27 08:44:27.43	350.62	8.22	-29.6	-32.3	12.1	3.78e-04	0	43	0	1855979520	19	4886
2026-01-27 08:44:30.44	350.35	8.01	-29.6	-32.2	12.1	2.98e-04	0	44	0	1865416704	19	4864
2026-01-27 08:44:33.44	350.09	7.81	-29.7	-32.4	12.0	3.86e-04	0	44	0	1874853888	19	4913
2026-01-27 08:44:36.45	349.83	7.61	-29.4	-31.7	12.4	1.25e-04	0	44	0	1884291072	19	4698
2026-01-27 08:44:39.46	349.57	7.41	-29.6	-32.2	12.0	2.55e-04	0	44	0	1893728256	19	4867
2026-01-27 08:44:42.46	349.32	7.21	-29.4	-31.8	12.3	1.60e-04	0	44	0	1903165440	19	4715
2026-01-27 08:44:45.47	349.07	7.01	-33.7	-45.5	3.8	1.49e+00	0	44	104	1909456896	27	13957

#Closed at: 2026-01-27 08:44:47
#Recorded file [1909 MB]: D:/data/31010_260127_113433.dat