passes_logs/2026/01/27/R2M6_AANII_01/R2M6_AANII_01__20260127_114012_FENGYUN_3D_rec.log

#Pass ID: 20260127_114012_FENGYUN 3D
#Satellite: FENGYUN 3D
#Configuration: FENGYUN 3D
#almurnet v.1.7.20240730
#Start time: 2026-01-27 11:40:14

#Version: 2.2.20231116
#Station: R2M6_AANII_01
#Location: 30.233357 lon 59.946436 lat
#TLE: 1 43010U 17072A   26026.91415486  .00000072  00000+0  55983-4 0  9991
#TLE: 2 43010  98.9962 358.9161 0002508  89.0320 271.1142 14.19700283424949

#Time	Az	El	Level	Level2	SNR	BER	BlckErr	Temp	State	Recorded	gain1	gain2
2026-01-27 11:40:14.56	137.87	7.15	-30.2	-33.6	5.2	7.95e-01	0	44	0	0	21	5331
2026-01-27 11:40:17.57	137.76	7.38	-30.3	-33.9	8.6	4.60e-02	0	44	0	5242880	21	5462
2026-01-27 11:40:20.58	137.66	7.61	-29.6	-32.7	9.7	7.82e-03	0	44	0	22020096	20	5139
2026-01-27 11:40:23.58	137.55	7.85	-29.4	-32.4	10.3	4.15e-03	0	44	0	38797312	19	5139
2026-01-27 11:40:26.59	137.45	8.08	-28.3	-30.2	12.2	1.68e-04	0	44	0	55574528	18	4448
2026-01-27 11:40:29.61	137.34	8.32	-27.8	-29.3	13.2	2.40e-05	0	44	0	73400320	17	4271
2026-01-27 11:40:32.62	137.22	8.56	-27.9	-29.9	13.2	1.37e-05	0	44	0	90177536	16	4546
2026-01-27 11:40:35.63	137.11	8.81	-27.7	-29.5	13.4	4.50e-06	0	44	0	106954752	16	4425
2026-01-27 11:40:38.64	137.00	9.05	-27.7	-29.4	13.5	1.25e-05	0	44	0	123731968	16	4375
2026-01-27 11:40:41.64	136.88	9.30	-27.6	-29.2	13.7	4.50e-06	0	44	0	140509184	16	4328
2026-01-27 11:40:44.66	136.76	9.55	-27.6	-29.1	13.8	4.50e-06	0	44	0	158334976	16	4280
2026-01-27 11:40:47.68	136.64	9.81	-27.4	-28.6	14.1	1.10e-06	0	44	0	175112192	16	4135
2026-01-27 11:40:50.68	136.51	10.06	-27.4	-28.6	14.2	1.10e-06	0	44	0	191889408	16	4144
2026-01-27 11:40:53.68	136.38	10.32	-27.3	-28.4	14.2	0.00e+00	0	44	0	208666624	16	4093
2026-01-27 11:40:56.69	136.26	10.58	-27.0	-28.2	14.5	0.00e+00	0	44	0	225443840	15	4149
2026-01-27 11:40:59.70	136.12	10.84	-26.9	-27.9	14.7	0.00e+00	0	44	0	242221056	15	4076
2026-01-27 11:41:02.70	135.99	11.11	-26.8	-28.4	14.7	0.00e+00	0	44	0	258998272	14	4324
2026-01-27 11:41:05.72	135.85	11.37	-26.7	-28.1	14.9	0.00e+00	0	44	0	275775488	14	4220
2026-01-27 11:41:08.74	135.71	11.65	-26.7	-28.1	14.9	0.00e+00	0	44	0	293601280	14	4231
2026-01-27 11:41:11.76	135.57	11.92	-26.9	-28.5	14.7	0.00e+00	0	44	0	310378496	14	4327
2026-01-27 11:41:14.76	135.43	12.20	-26.9	-28.5	14.8	0.00e+00	0	44	0	327155712	14	4328
2026-01-27 11:41:17.77	135.28	12.48	-27.1	-29.0	14.5	0.00e+00	0	44	0	343932928	14	4473
2026-01-27 11:41:20.78	135.13	12.76	-26.5	-27.5	15.3	0.00e+00	0	44	0	360710144	14	4064
2026-01-27 11:41:23.80	134.97	13.05	-26.4	-27.4	15.4	0.00e+00	0	44	0	377487360	14	4034
2026-01-27 11:41:26.81	134.81	13.34	-26.4	-27.5	15.4	0.00e+00	0	44	0	395313152	14	4047
2026-01-27 11:41:29.81	134.65	13.63	-26.5	-27.5	15.4	0.00e+00	0	44	0	412090368	14	4062
2026-01-27 11:41:32.82	134.49	13.92	-26.4	-27.4	15.4	0.00e+00	0	44	0	428867584	14	4029
2026-01-27 11:41:35.83	134.32	14.22	-26.4	-27.4	15.5	1.10e-06	0	44	0	445644800	14	4023
2026-01-27 11:41:38.85	134.15	14.53	-26.3	-27.7	15.5	1.10e-06	0	44	0	462422016	13	4228
2026-01-27 11:41:41.86	133.98	14.83	-26.1	-27.2	15.8	0.00e+00	0	44	0	479199232	13	4093
2026-01-27 11:41:44.87	133.80	15.14	-26.3	-27.7	15.6	0.00e+00	0	44	0	495976448	13	4214
2026-01-27 11:41:47.88	133.62	15.46	-25.9	-26.7	16.2	0.00e+00	0	44	0	513802240	13	3936
2026-01-27 11:41:50.89	133.43	15.78	-25.9	-26.6	16.3	0.00e+00	0	44	0	530579456	13	3910
2026-01-27 11:41:53.90	133.24	16.10	-25.8	-27.0	16.4	0.00e+00	0	44	0	547356672	12	4121
2026-01-27 11:41:56.90	133.04	16.42	-25.8	-27.0	16.3	0.00e+00	0	44	0	564133888	12	4133
2026-01-27 11:41:59.91	132.84	16.75	-25.7	-26.7	16.5	1.10e-06	0	44	0	580911104	12	4050
2026-01-27 11:42:02.91	132.64	17.08	-25.6	-26.6	16.6	0.00e+00	0	44	0	597688320	12	4033
2026-01-27 11:42:05.93	132.43	17.42	-25.4	-26.0	17.0	0.00e+00	0	44	0	614465536	12	3882
2026-01-27 11:42:08.93	132.22	17.76	-25.3	-25.9	17.1	0.00e+00	0	44	0	631242752	12	3842
2026-01-27 11:42:11.95	132.00	18.11	-25.1	-25.9	17.4	0.00e+00	0	44	0	649068544	11	3957
2026-01-27 11:42:14.94	131.77	18.46	-25.1	-25.9	17.4	0.00e+00	0	44	0	665845760	11	3964
2026-01-27 11:42:17.96	131.54	18.81	-24.9	-25.5	17.6	0.00e+00	0	44	0	682622976	11	3859
2026-01-27 11:42:20.96	131.31	19.17	-24.9	-25.5	17.7	0.00e+00	0	44	0	699400192	11	3864
2026-01-27 11:42:23.96	131.07	19.54	-25.0	-25.7	17.6	0.00e+00	0	44	0	716177408	11	3906
2026-01-27 11:42:26.98	130.82	19.91	-24.9	-25.6	17.6	0.00e+00	0	44	0	732954624	11	3887
2026-01-27 11:42:30.00	130.57	20.28	-24.9	-25.6	17.7	0.00e+00	0	44	0	750780416	11	3871
2026-01-27 11:42:33.01	130.31	20.66	-24.6	-25.3	18.1	0.00e+00	0	44	0	767557632	10	3907
2026-01-27 11:42:36.01	130.04	21.05	-24.5	-25.2	18.2	0.00e+00	0	44	0	784334848	10	3873
2026-01-27 11:42:39.00	129.77	21.43	-24.8	-25.8	17.9	0.00e+00	0	44	0	801112064	10	4037
2026-01-27 11:42:42.01	129.49	21.83	-24.7	-25.5	18.0	0.00e+00	0	44	0	817889280	10	3957
2026-01-27 11:42:45.02	129.20	22.23	-24.8	-25.7	17.9	0.00e+00	0	44	0	834666496	10	4007
2026-01-27 11:42:48.03	128.90	22.64	-24.7	-25.5	18.1	0.00e+00	0	44	0	851443712	10	3961
2026-01-27 11:42:51.03	128.60	23.05	-24.3	-25.1	18.5	0.00e+00	0	44	0	868220928	9	3978
2026-01-27 11:42:54.03	128.29	23.46	-24.3	-25.1	18.5	0.00e+00	0	44	0	884998144	9	3981
2026-01-27 11:42:57.04	127.96	23.89	-24.1	-24.8	18.7	0.00e+00	0	44	0	902823936	9	3883
2026-01-27 11:43:00.05	127.63	24.32	-24.4	-25.5	18.4	0.00e+00	0	44	0	919601152	9	4068
2026-01-27 11:43:03.07	127.29	24.75	-24.1	-24.7	18.8	0.00e+00	0	44	0	936378368	9	3877
2026-01-27 11:43:06.08	126.94	25.20	-24.1	-24.8	18.8	0.00e+00	0	44	0	953155584	9	3889
2026-01-27 11:43:09.09	126.58	25.64	-24.0	-24.6	18.9	0.00e+00	0	44	0	969932800	9	3859
2026-01-27 11:43:12.10	126.21	26.10	-23.8	-24.7	19.1	0.00e+00	0	44	0	987758592	8	3968
2026-01-27 11:43:15.11	125.83	26.56	-23.9	-24.9	19.0	0.00e+00	0	44	0	1004535808	8	4036
2026-01-27 11:43:18.13	125.44	27.03	-23.8	-24.7	19.1	0.00e+00	0	44	0	1021313024	8	3991
2026-01-27 11:43:21.13	125.03	27.50	-24.0	-25.1	18.9	0.00e+00	0	44	0	1038090240	8	4068
2026-01-27 11:43:24.13	124.62	27.98	-24.0	-25.0	19.0	0.00e+00	0	44	0	1054867456	8	4053
2026-01-27 11:43:27.14	124.18	28.47	-23.7	-24.5	19.2	0.00e+00	0	44	0	1071644672	8	3930
2026-01-27 11:43:30.15	123.74	28.96	-23.9	-24.9	19.0	0.00e+00	0	44	0	1088421888	8	4029
2026-01-27 11:43:33.17	123.28	29.46	-23.9	-24.8	19.1	0.00e+00	0	44	0	1105199104	8	4003
2026-01-27 11:43:36.18	122.81	29.97	-24.0	-25.0	19.0	0.00e+00	0	44	0	1123024896	8	4046
2026-01-27 11:43:39.19	122.32	30.49	-23.9	-24.9	19.1	0.00e+00	0	44	0	1139802112	8	4029
2026-01-27 11:43:42.19	121.81	31.00	-23.9	-24.8	19.1	0.00e+00	0	44	0	1156579328	8	4002
2026-01-27 11:43:45.21	121.29	31.53	-23.8	-24.6	19.2	0.00e+00	0	44	0	1173356544	8	3966
2026-01-27 11:43:48.23	120.75	32.07	-23.6	-24.2	19.5	0.00e+00	0	44	0	1190133760	8	3855
2026-01-27 11:43:51.23	120.19	32.61	-23.7	-24.5	19.3	0.00e+00	0	44	0	1206910976	8	3928
2026-01-27 11:43:54.25	119.61	33.16	-23.4	-23.7	19.7	0.00e+00	0	44	0	1224736768	8	3753
2026-01-27 11:43:57.26	119.02	33.72	-23.3	-23.6	19.8	0.00e+00	0	44	0	1241513984	8	3730
2026-01-27 11:44:00.27	118.40	34.28	-23.2	-24.0	19.8	0.00e+00	0	44	0	1258291200	7	3910
2026-01-27 11:44:03.28	117.76	34.85	-23.4	-24.3	19.7	0.00e+00	0	44	0	1275068416	7	3979
2026-01-27 11:44:06.30	117.09	35.42	-23.4	-24.4	19.6	0.00e+00	0	44	0	1291845632	7	4014
2026-01-27 11:44:09.31	116.40	36.00	-23.6	-24.6	19.5	0.00e+00	0	44	0	1308622848	7	4079
2026-01-27 11:44:12.33	115.69	36.59	-23.5	-24.4	19.7	0.00e+00	0	44	0	1325400064	7	4021
2026-01-27 11:44:15.32	114.95	37.17	-23.4	-24.3	19.7	0.00e+00	0	44	0	1343225856	7	3994
2026-01-27 11:44:18.34	114.18	37.77	-23.4	-24.2	19.8	0.00e+00	0	44	0	1360003072	7	3965
2026-01-27 11:44:21.34	113.39	38.37	-23.3	-24.1	19.9	0.00e+00	0	44	0	1376780288	7	3935
2026-01-27 11:44:24.35	112.56	38.97	-23.2	-23.8	20.0	0.00e+00	0	44	0	1393557504	7	3869
2026-01-27 11:44:27.36	111.70	39.58	-23.4	-24.3	19.8	0.00e+00	0	44	0	1410334720	7	3990
2026-01-27 11:44:30.37	110.81	40.19	-23.3	-24.1	19.9	0.00e+00	0	44	0	1427111936	7	3947
2026-01-27 11:44:33.37	109.89	40.80	-23.5	-24.6	19.7	0.00e+00	0	44	0	1443889152	7	4050
2026-01-27 11:44:36.38	108.93	41.42	-23.5	-24.5	19.7	0.00e+00	0	44	0	1460666368	7	4039
2026-01-27 11:44:39.38	107.93	42.03	-23.3	-24.0	20.0	0.00e+00	0	44	0	1478492160	7	3910
2026-01-27 11:44:42.40	106.89	42.65	-23.7	-24.8	19.6	0.00e+00	0	44	0	1495269376	7	4115
2026-01-27 11:44:45.41	105.81	43.26	-23.3	-24.0	20.0	0.00e+00	0	44	0	1512046592	7	3911
2026-01-27 11:44:48.42	104.69	43.87	-23.6	-24.6	19.7	0.00e+00	0	44	0	1528823808	7	4067
2026-01-27 11:44:51.42	103.53	44.48	-23.6	-24.6	19.7	0.00e+00	0	44	0	1545601024	7	4068
2026-01-27 11:44:54.41	102.33	45.08	-23.9	-25.3	19.4	0.00e+00	0	44	0	1562378240	7	4221
2026-01-27 11:44:57.43	101.07	45.68	-24.2	-25.0	19.1	0.00e+00	0	44	0	1579155456	9	3918
2026-01-27 11:45:00.43	99.77	46.27	-23.8	-24.1	19.5	0.00e+00	0	44	0	1595932672	9	3726
2026-01-27 11:45:03.44	98.41	46.85	-24.2	-24.9	19.2	0.00e+00	0	44	0	1613758464	9	3901
2026-01-27 11:45:06.44	97.01	47.42	-23.7	-24.3	19.7	0.00e+00	0	44	0	1630535680	8	3879
2026-01-27 11:45:09.45	95.55	47.99	-24.1	-25.1	19.3	0.00e+00	0	44	0	1647312896	8	4079
2026-01-27 11:45:12.47	94.04	48.53	-24.1	-25.2	19.3	0.00e+00	0	44	0	1664090112	8	4092
2026-01-27 11:45:15.48	92.47	49.07	-24.7	-26.1	18.6	0.00e+00	0	44	0	1680867328	9	4191
2026-01-27 11:45:18.49	90.85	49.58	-24.6	-25.8	18.8	0.00e+00	0	44	0	1697644544	9	4116
2026-01-27 11:45:21.49	89.18	50.07	-24.3	-25.0	19.2	0.00e+00	0	44	0	1714421760	9	3930
2026-01-27 11:45:24.49	87.46	50.54	-24.7	-26.1	18.6	0.00e+00	0	44	0	1732247552	9	4198
2026-01-27 11:45:27.52	85.67	50.99	-24.7	-25.9	18.7	0.00e+00	0	44	0	1749024768	9	4155
2026-01-27 11:45:30.54	83.83	51.41	-24.5	-25.5	18.9	0.00e+00	0	44	0	1765801984	9	4054
2026-01-27 11:45:33.55	81.94	51.81	-24.2	-24.9	19.3	0.00e+00	0	44	0	1782579200	9	3893
2026-01-27 11:45:36.56	80.01	52.17	-24.2	-24.9	19.2	0.00e+00	0	44	0	1799356416	9	3909
2026-01-27 11:45:39.57	78.02	52.50	-24.8	-26.3	18.6	0.00e+00	0	44	0	1817182208	9	4236
2026-01-27 11:45:42.57	76.01	52.80	-24.0	-24.4	19.5	0.00e+00	0	44	0	1833959424	9	3780
2026-01-27 11:45:45.58	73.95	53.06	-23.9	-24.4	19.5	0.00e+00	0	44	0	1850736640	9	3773
2026-01-27 11:45:48.60	71.84	53.28	-24.4	-25.3	19.1	0.00e+00	0	44	0	1867513856	9	3987
2026-01-27 11:45:51.61	69.72	53.47	-24.3	-25.1	19.2	0.00e+00	0	44	0	1884291072	9	3937
2026-01-27 11:45:54.61	67.58	53.61	-24.1	-24.7	19.5	0.00e+00	0	44	0	1901068288	9	3837
2026-01-27 11:45:57.62	65.41	53.71	-24.5	-25.5	19.1	0.00e+00	0	44	0	1917845504	9	4031
2026-01-27 11:46:00.63	63.23	53.77	-24.5	-25.5	19.1	0.00e+00	0	44	0	1934622720	9	4034
2026-01-27 11:46:03.63	61.05	53.79	-24.6	-25.7	19.0	0.00e+00	0	44	0	1952448512	9	4080
2026-01-27 11:46:06.64	58.86	53.77	-24.3	-25.0	19.4	0.00e+00	0	44	0	1969225728	9	3907
2026-01-27 11:46:09.65	56.68	53.71	-24.6	-25.7	19.1	0.00e+00	0	44	0	1986002944	9	4073
2026-01-27 11:46:12.66	54.52	53.60	-24.1	-24.6	19.6	0.00e+00	0	44	0	2002780160	9	3825
2026-01-27 11:46:15.66	52.38	53.45	-24.5	-25.4	19.1	0.00e+00	0	44	0	2019557376	9	4023
2026-01-27 11:46:18.67	50.26	53.26	-24.3	-25.1	19.3	0.00e+00	0	44	0	2036334592	9	3931
2026-01-27 11:46:21.68	48.17	53.04	-23.9	-24.1	19.8	0.00e+00	0	44	0	2053111808	9	3710
2026-01-27 11:46:24.69	46.11	52.77	-24.3	-25.0	19.3	0.00e+00	0	44	0	2069889024	9	3911
2026-01-27 11:46:27.71	44.09	52.47	-24.4	-25.2	19.2	0.00e+00	0	44	0	2087714816	9	3971
2026-01-27 11:46:30.71	42.12	52.14	-24.1	-24.6	19.5	0.00e+00	0	44	0	2104492032	9	3813
2026-01-27 11:46:33.73	40.18	51.77	-23.8	-24.6	19.8	0.00e+00	0	44	0	2121269248	8	3918
2026-01-27 11:46:36.74	38.31	51.38	-23.9	-24.6	19.7	0.00e+00	0	44	0	2138046464	8	3936
2026-01-27 11:46:39.76	36.47	50.95	-24.1	-25.1	19.6	0.00e+00	0	44	0	2154823680	8	4039
2026-01-27 11:46:42.77	34.70	50.51	-24.0	-24.9	19.6	0.00e+00	0	44	0	2172649472	8	4001
2026-01-27 11:46:45.78	32.98	50.03	-23.9	-24.7	19.8	0.00e+00	0	44	0	2189426688	8	3939
2026-01-27 11:46:48.80	31.31	49.54	-24.5	-25.5	19.1	0.00e+00	0	44	0	2206203904	9	4041
2026-01-27 11:46:51.81	29.69	49.02	-23.9	-24.3	19.7	0.00e+00	0	44	0	2222981120	9	3748
2026-01-27 11:46:54.83	28.13	48.49	-23.7	-24.3	19.9	0.00e+00	0	44	0	2239758336	8	3852
2026-01-27 11:46:57.84	26.63	47.94	-23.7	-24.2	20.0	0.00e+00	0	44	0	2256535552	8	3841
2026-01-27 11:47:00.85	25.18	47.38	-23.5	-23.9	20.1	0.00e+00	0	44	0	2274361344	8	3771
2026-01-27 11:47:03.86	23.78	46.81	-23.2	-23.7	20.4	0.00e+00	0	44	0	2291138560	7	3823
2026-01-27 11:47:06.87	22.43	46.23	-23.5	-24.4	20.1	0.00e+00	0	44	0	2307915776	7	3988
2026-01-27 11:47:09.88	21.13	45.64	-23.5	-24.4	20.1	0.00e+00	0	44	0	2324692992	7	3994
2026-01-27 11:47:12.90	19.88	45.04	-23.5	-24.3	20.1	0.00e+00	0	44	0	2341470208	7	3964
2026-01-27 11:47:15.90	18.68	44.44	-24.0	-25.0	19.5	0.00e+00	0	44	0	2358247424	8	4017
2026-01-27 11:47:18.90	17.53	43.83	-24.0	-24.9	19.6	0.00e+00	0	44	0	2375024640	8	4009
2026-01-27 11:47:21.91	16.42	43.22	-23.8	-24.4	19.8	0.00e+00	0	44	0	2392850432	8	3879
2026-01-27 11:47:24.93	15.34	42.61	-23.3	-24.0	20.2	0.00e+00	0	44	0	2409627648	7	3896
2026-01-27 11:47:27.93	14.31	42.00	-23.5	-24.3	20.0	0.00e+00	0	44	0	2426404864	7	3974
2026-01-27 11:47:30.95	13.32	41.38	-23.5	-24.4	20.0	0.00e+00	0	44	0	2443182080	7	3982
2026-01-27 11:47:33.97	12.36	40.77	-23.3	-23.9	20.2	0.00e+00	0	44	0	2459959296	7	3871
2026-01-27 11:47:36.97	11.44	40.16	-22.9	-23.1	20.6	0.00e+00	0	44	0	2476736512	7	3687
2026-01-27 11:47:39.96	10.56	39.56	-23.2	-23.8	20.3	0.00e+00	0	44	0	2493513728	7	3845
2026-01-27 11:47:42.98	9.71	38.95	-23.3	-24.0	20.2	0.00e+00	0	44	0	2510290944	7	3902
2026-01-27 11:47:46.00	8.89	38.35	-23.3	-23.9	20.2	0.00e+00	0	44	0	2528116736	7	3884
2026-01-27 11:47:49.02	8.09	37.75	-23.3	-24.0	20.2	0.00e+00	0	44	0	2544893952	7	3891
2026-01-27 11:47:52.02	7.33	37.16	-23.2	-23.8	20.2	0.00e+00	0	44	0	2561671168	7	3847
2026-01-27 11:47:55.02	6.60	36.57	-23.4	-24.2	20.0	0.00e+00	0	44	0	2578448384	7	3938
2026-01-27 11:47:58.03	5.89	35.99	-23.3	-23.9	20.1	0.00e+00	0	44	0	2595225600	7	3880
2026-01-27 11:48:01.05	5.21	35.41	-23.3	-24.0	20.1	0.00e+00	0	44	0	2613051392	7	3903
2026-01-27 11:48:04.06	4.55	34.84	-23.4	-24.1	20.0	0.00e+00	0	44	0	2629828608	7	3921
2026-01-27 11:48:07.07	3.91	34.27	-23.5	-24.5	19.8	0.00e+00	0	44	0	2646605824	7	4011
2026-01-27 11:48:10.08	3.30	33.72	-23.1	-23.7	20.2	0.00e+00	0	44	0	2663383040	7	3820
2026-01-27 11:48:13.09	2.71	33.16	-23.1	-23.6	20.3	0.00e+00	0	44	0	2680160256	7	3801
2026-01-27 11:48:16.10	2.13	32.62	-23.3	-23.9	20.1	0.00e+00	0	44	0	2696937472	7	3876
2026-01-27 11:48:19.12	1.58	32.08	-23.4	-24.3	19.9	0.00e+00	0	44	0	2713714688	7	3976
2026-01-27 11:48:22.12	1.04	31.55	-23.5	-24.5	19.8	0.00e+00	0	44	0	2730491904	7	4008
2026-01-27 11:48:25.12	0.53	31.02	-23.3	-24.1	20.0	0.00e+00	0	44	0	2748317696	7	3924
2026-01-27 11:48:28.14	0.02	30.50	-23.4	-24.2	19.9	0.00e+00	0	44	0	2765094912	7	3951
2026-01-27 11:48:31.15	359.54	29.99	-23.7	-24.9	19.6	0.00e+00	0	44	0	2781872128	7	4116
2026-01-27 11:48:34.16	359.07	29.49	-23.8	-25.1	19.4	0.00e+00	0	44	0	2798649344	7	4170
2026-01-27 11:48:37.17	358.61	28.99	-23.9	-25.3	19.3	0.00e+00	0	44	0	2815426560	7	4220
2026-01-27 11:48:40.18	358.17	28.50	-24.0	-24.9	19.3	0.00e+00	0	44	0	2832203776	8	4013
2026-01-27 11:48:43.19	357.74	28.01	-23.7	-24.3	19.6	0.00e+00	0	44	0	2848980992	8	3864
2026-01-27 11:48:46.19	357.33	27.53	-23.7	-24.3	19.6	0.00e+00	0	44	0	2866806784	8	3867
2026-01-27 11:48:49.20	356.93	27.06	-23.6	-24.2	19.6	0.00e+00	0	44	0	2883584000	8	3839
2026-01-27 11:48:52.21	356.54	26.60	-23.7	-24.3	19.6	0.00e+00	0	44	0	2900361216	8	3863
2026-01-27 11:48:55.22	356.16	26.14	-23.7	-24.4	19.5	0.00e+00	0	44	0	2917138432	8	3898
2026-01-27 11:48:58.23	355.79	25.69	-23.9	-24.6	19.4	0.00e+00	0	44	0	2933915648	8	3944
2026-01-27 11:49:01.23	355.44	25.24	-23.7	-24.4	19.5	0.00e+00	0	44	0	2950692864	8	3888
2026-01-27 11:49:04.23	355.09	24.80	-24.1	-25.1	19.2	0.00e+00	0	44	0	2967470080	8	4056
2026-01-27 11:49:07.23	354.75	24.37	-24.0	-25.1	19.1	0.00e+00	0	44	0	2984247296	8	4050
2026-01-27 11:49:10.24	354.43	23.94	-24.1	-25.2	19.1	0.00e+00	0	44	0	3002073088	8	4087
2026-01-27 11:49:13.25	354.11	23.52	-24.2	-25.3	19.0	0.00e+00	0	44	0	3018850304	8	4113
2026-01-27 11:49:16.26	353.80	23.11	-24.1	-25.2	19.0	0.00e+00	0	44	0	3035627520	8	4086
2026-01-27 11:49:19.26	353.50	22.70	-24.0	-24.9	19.2	0.00e+00	0	44	0	3052404736	8	4008
2026-01-27 11:49:22.27	353.20	22.29	-24.0	-25.0	19.1	0.00e+00	0	44	0	3069181952	8	4021
2026-01-27 11:49:25.29	352.92	21.89	-24.1	-25.2	19.1	0.00e+00	0	44	0	3085959168	8	4074
2026-01-27 11:49:28.31	352.64	21.50	-24.2	-25.3	19.0	0.00e+00	0	44	0	3103784960	8	4100
2026-01-27 11:49:31.31	352.37	21.11	-24.3	-25.5	18.9	0.00e+00	0	44	0	3120562176	8	4156
2026-01-27 11:49:34.32	352.10	20.73	-24.4	-25.9	18.7	0.00e+00	0	44	0	3137339392	8	4250
2026-01-27 11:49:37.34	351.84	20.35	-24.8	-26.1	18.3	0.00e+00	0	44	0	3154116608	9	4190
2026-01-27 11:49:40.35	351.59	19.98	-25.0	-26.1	18.0	0.00e+00	0	44	0	3170893824	10	4094
2026-01-27 11:49:43.37	351.35	19.61	-25.2	-26.6	17.9	0.00e+00	0	44	0	3187671040	10	4210
2026-01-27 11:49:46.37	351.11	19.24	-25.1	-26.2	17.9	0.00e+00	0	44	0	3204448256	10	4120
2026-01-27 11:49:49.38	350.88	18.89	-25.2	-26.5	17.9	0.00e+00	0	44	0	3222274048	10	4174
2026-01-27 11:49:52.38	350.65	18.53	-25.4	-26.9	17.6	0.00e+00	0	44	0	3239051264	10	4272
2026-01-27 11:49:55.39	350.43	18.18	-25.3	-26.8	17.6	0.00e+00	0	44	0	3255828480	10	4264
2026-01-27 11:49:58.40	350.21	17.84	-25.7	-27.0	17.3	0.00e+00	0	44	0	3272605696	11	4188
2026-01-27 11:50:01.41	350.00	17.50	-25.4	-26.5	17.5	0.00e+00	0	44	0	3289382912	11	4060
2026-01-27 11:50:04.41	349.79	17.16	-25.7	-27.1	17.2	0.00e+00	0	44	0	3306160128	11	4219
2026-01-27 11:50:07.41	349.59	16.83	-25.8	-27.4	17.0	0.00e+00	0	44	0	3322937344	11	4309
2026-01-27 11:50:10.43	349.40	16.50	-25.8	-27.4	17.0	0.00e+00	0	44	0	3339714560	11	4305
2026-01-27 11:50:13.43	349.20	16.18	-25.8	-27.3	17.0	0.00e+00	0	44	0	3357540352	11	4272
2026-01-27 11:50:16.45	349.01	15.86	-25.9	-27.4	16.9	0.00e+00	0	44	0	3374317568	11	4318
2026-01-27 11:50:19.45	348.83	15.55	-25.8	-27.3	17.0	0.00e+00	0	44	0	3391094784	11	4266
2026-01-27 11:50:22.46	348.65	15.23	-26.1	-27.4	16.6	0.00e+00	0	44	0	3407872000	12	4206
2026-01-27 11:50:25.47	348.47	14.92	-26.0	-27.2	16.7	0.00e+00	0	44	0	3424649216	12	4136
2026-01-27 11:50:28.48	348.30	14.62	-26.2	-27.6	16.4	0.00e+00	0	44	0	3441426432	12	4255
2026-01-27 11:50:31.48	348.13	14.32	-26.0	-27.3	16.6	0.00e+00	0	44	0	3458203648	12	4170
2026-01-27 11:50:34.50	347.97	14.02	-26.1	-27.5	16.5	0.00e+00	0	44	0	3474980864	12	4223
2026-01-27 11:50:37.50	347.81	13.72	-26.1	-27.6	16.4	0.00e+00	0	44	0	3492806656	12	4253
2026-01-27 11:50:40.51	347.65	13.43	-26.3	-28.0	16.2	0.00e+00	0	44	0	3509583872	12	4353
2026-01-27 11:50:43.52	347.50	13.15	-26.4	-28.1	16.1	0.00e+00	0	44	0	3526361088	12	4380
2026-01-27 11:50:46.54	347.34	12.86	-26.7	-28.4	15.6	0.00e+00	0	44	0	3543138304	13	4364
2026-01-27 11:50:49.55	347.20	12.58	-26.5	-28.0	15.9	0.00e+00	0	44	0	3559915520	13	4240
2026-01-27 11:50:52.55	347.05	12.30	-26.5	-27.9	15.9	0.00e+00	0	44	0	3577741312	13	4220
2026-01-27 11:50:55.56	346.91	12.02	-26.6	-28.1	15.7	0.00e+00	0	44	0	3594518528	13	4272
2026-01-27 11:50:58.55	346.77	11.75	-26.7	-28.4	15.5	0.00e+00	0	44	0	3611295744	13	4354
2026-01-27 11:51:01.57	346.63	11.48	-26.6	-28.2	15.6	0.00e+00	0	44	0	3628072960	13	4309
2026-01-27 11:51:04.58	346.50	11.21	-26.8	-28.7	15.4	0.00e+00	0	44	0	3644850176	13	4437
2026-01-27 11:51:07.60	346.37	10.95	-27.2	-28.9	14.9	1.10e-06	0	44	0	3661627392	14	4401
2026-01-27 11:51:10.61	346.24	10.69	-26.9	-28.3	15.3	0.00e+00	0	44	0	3678404608	14	4221
2026-01-27 11:51:13.61	346.11	10.43	-26.9	-28.3	15.3	0.00e+00	0	44	0	3695181824	14	4217
2026-01-27 11:51:16.61	345.99	10.17	-27.0	-28.4	15.2	0.00e+00	0	44	0	3713007616	14	4263
2026-01-27 11:51:19.63	345.87	9.92	-27.0	-28.6	15.0	0.00e+00	0	44	0	3729784832	14	4322
2026-01-27 11:51:22.65	345.75	9.66	-27.1	-28.8	14.9	0.00e+00	0	44	0	3746562048	14	4378
2026-01-27 11:51:25.65	345.63	9.41	-27.3	-29.1	14.7	0.00e+00	0	44	0	3763339264	14	4455
2026-01-27 11:51:28.66	345.51	9.17	-27.2	-29.0	14.8	1.10e-06	0	44	0	3780116480	14	4417
2026-01-27 11:51:31.68	345.40	8.92	-27.3	-29.2	14.6	1.10e-06	0	44	0	3796893696	14	4501
2026-01-27 11:51:34.70	345.29	8.68	-27.3	-29.3	14.6	0.00e+00	0	44	0	3813670912	14	4507
2026-01-27 11:51:37.71	345.18	8.44	-27.4	-29.5	14.4	0.00e+00	0	44	0	3831496704	14	4571
2026-01-27 11:51:40.72	345.07	8.20	-27.4	-29.1	14.3	0.00e+00	0	44	0	3848273920	15	4344
2026-01-27 11:51:43.73	344.97	7.96	-27.4	-29.0	14.4	2.20e-06	0	44	0	3865051136	15	4310
2026-01-27 11:51:46.73	344.87	7.73	-27.5	-29.1	14.3	0.00e+00	0	44	0	3881828352	15	4339
2026-01-27 11:51:49.74	344.77	7.50	-27.5	-29.1	14.3	1.10e-06	0	44	0	3898605568	15	4353
2026-01-27 11:51:52.75	344.67	7.27	-27.6	-29.5	14.0	0.00e+00	0	44	0	3915382784	15	4477
2026-01-27 11:51:55.77	344.57	7.04	-31.4	-35.8	8.2	7.90e-03	0	44	0	3933208576	22	5955

#Closed at: 2026-01-27 11:51:58
#Recorded file [3933 MB]: D:/data/31010_260127_144016.dat