passes_logs/2026/01/27/R2M6_AANII_01/R2M6_AANII_01__20260127_222200_NOAA_21_JPSS-2_rec.log

#Pass ID: 20260127_222200_NOAA 21 (JPSS-2)
#Satellite: NOAA 21 (JPSS-2)
#Configuration: NOAA 21
#almurnet v.1.7.20240730
#Start time: 2026-01-27 22:22:01

#Version: 2.2.20231116
#Station: R2M6_AANII_01
#Location: 30.233357 lon 59.946436 lat
#TLE: 1 54234U 22150A   26027.41809747  .00000179  00000+0  10565-3 0  9991
#TLE: 2 54234  98.7510 328.1683 0000854 205.0798 155.0336 14.19540145166571

#Time	Az	El	Level	Level2	SNR	BER	BlckErr	Temp	State	Recorded	gain1	gain2
2026-01-27 22:22:01.25	34.59	7.04	-31.4	-37.2	4.5	1.41e+00	0	41	0	0	22	7033
2026-01-27 22:22:04.26	34.93	7.20	-32.1	-38.1	6.0	3.65e-01	0	41	0	3145728	24	7213
2026-01-27 22:22:07.28	35.28	7.37	-31.6	-36.1	7.4	1.41e-01	0	41	0	12582912	24	6029
2026-01-27 22:22:10.29	35.64	7.53	-31.2	-35.1	8.4	4.70e-02	0	41	0	22020096	23	5668
2026-01-27 22:22:13.30	36.00	7.70	-30.9	-34.1	9.2	2.22e-02	0	41	0	30408704	23	5210
2026-01-27 22:22:16.32	36.36	7.86	-30.4	-33.0	10.3	6.15e-03	0	41	0	40894464	22	4860
2026-01-27 22:22:19.33	36.72	8.02	-29.3	-31.7	12.3	2.49e-04	0	41	0	49283072	19	4714
2026-01-27 22:22:22.34	37.09	8.19	-28.9	-30.6	13.0	3.81e-05	0	41	0	58720256	19	4352
2026-01-27 22:22:25.36	37.46	8.35	-29.0	-30.7	12.9	3.96e-05	0	41	0	69206016	19	4391
2026-01-27 22:22:28.37	37.84	8.52	-29.0	-30.8	12.9	5.26e-05	0	41	0	77594624	19	4429
2026-01-27 22:22:31.37	38.22	8.68	-29.1	-31.1	12.7	8.62e-05	0	42	0	87031808	19	4500
2026-01-27 22:22:34.39	38.61	8.85	-28.8	-30.7	13.3	1.67e-05	0	42	0	96468992	18	4496
2026-01-27 22:22:37.41	39.00	9.01	-28.8	-30.7	13.3	2.05e-05	0	42	0	105906176	18	4478
2026-01-27 22:22:40.42	39.39	9.18	-28.9	-31.1	13.0	2.67e-05	0	42	0	115343360	18	4631
2026-01-27 22:22:43.42	39.79	9.34	-29.0	-31.1	13.1	3.43e-05	0	42	0	124780544	18	4615
2026-01-27 22:22:46.43	40.19	9.51	-29.0	-31.3	12.9	3.96e-05	0	42	0	134217728	18	4680
2026-01-27 22:22:49.45	40.60	9.67	-28.9	-31.0	13.1	2.44e-05	0	42	0	143654912	18	4584
2026-01-27 22:22:52.46	41.01	9.83	-28.9	-31.0	13.1	3.73e-05	0	42	0	153092096	18	4594
2026-01-27 22:22:55.48	41.43	10.00	-29.0	-31.3	13.0	4.57e-05	0	42	0	162529280	18	4684
2026-01-27 22:22:58.48	41.85	10.16	-28.6	-30.1	13.7	2.20e-04	0	42	0	171966464	18	4325
2026-01-27 22:23:01.49	42.27	10.32	-28.4	-29.8	13.9	4.50e-06	0	42	0	181403648	18	4215
2026-01-27 22:23:04.50	42.70	10.49	-28.4	-29.7	14.0	2.20e-06	0	42	0	190840832	18	4193
2026-01-27 22:23:07.51	43.13	10.65	-28.5	-30.1	13.7	1.60e-05	0	42	0	200278016	18	4296
2026-01-27 22:23:10.53	43.57	10.81	-28.6	-30.3	13.6	6.10e-05	0	42	0	209715200	18	4360
2026-01-27 22:23:13.54	44.02	10.97	-28.5	-30.0	13.8	5.79e-05	0	42	0	219152384	18	4267
2026-01-27 22:23:16.55	44.46	11.14	-28.4	-29.8	14.0	3.80e-06	0	42	0	228589568	18	4206
2026-01-27 22:23:19.57	44.92	11.30	-28.5	-30.0	13.9	1.49e-04	0	42	0	238026752	18	4272
2026-01-27 22:23:22.57	45.38	11.46	-28.4	-29.7	14.0	3.00e-06	0	42	0	247463936	18	4183
2026-01-27 22:23:25.57	45.84	11.62	-28.2	-29.7	14.3	7.00e-07	0	42	0	256901120	17	4277
2026-01-27 22:23:28.58	46.30	11.78	-28.3	-29.9	14.2	2.20e-06	0	42	0	266338304	17	4355
2026-01-27 22:23:31.59	46.78	11.93	-28.2	-29.7	14.4	7.00e-07	0	42	0	275775488	17	4280
2026-01-27 22:23:34.60	47.25	12.09	-28.3	-29.9	14.2	3.43e-05	0	42	0	285212672	17	4351
2026-01-27 22:23:37.61	47.74	12.25	-28.2	-29.7	14.4	7.00e-07	0	43	0	294649856	17	4274
2026-01-27 22:23:40.62	48.22	12.41	-28.3	-29.9	14.3	7.00e-07	0	43	0	304087040	17	4346
2026-01-27 22:23:43.63	48.72	12.56	-28.4	-30.7	14.1	1.50e-06	0	43	0	313524224	16	4703
2026-01-27 22:23:46.64	49.21	12.72	-28.5	-30.4	14.0	7.00e-07	0	43	0	322961408	17	4483
2026-01-27 22:23:49.64	49.71	12.87	-28.6	-30.6	13.9	1.50e-06	0	43	0	332398592	17	4556
2026-01-27 22:23:52.65	50.22	13.02	-28.3	-30.0	14.2	3.00e-06	0	43	0	341835776	17	4377
2026-01-27 22:23:55.66	50.73	13.17	-28.4	-30.7	14.1	7.00e-07	0	42	0	351272960	16	4696
2026-01-27 22:23:58.67	51.25	13.32	-28.8	-31.0	13.6	5.30e-06	0	42	0	360710144	17	4685
2026-01-27 22:24:01.68	51.78	13.47	-28.6	-30.6	13.9	5.30e-06	0	43	0	370147328	17	4563
2026-01-27 22:24:04.68	52.30	13.62	-28.4	-30.1	14.2	1.50e-06	0	43	0	378535936	17	4397
2026-01-27 22:24:07.71	52.84	13.77	-28.3	-30.4	14.3	7.00e-07	0	43	0	389021696	16	4583
2026-01-27 22:24:10.72	53.38	13.91	-28.3	-30.4	14.3	7.00e-07	0	43	0	397410304	16	4608
2026-01-27 22:24:13.74	53.92	14.05	-28.6	-30.6	14.0	4.50e-06	0	43	0	406847488	17	4546
2026-01-27 22:24:16.75	54.47	14.20	-28.5	-30.5	14.0	4.50e-06	0	43	0	416284672	17	4528
2026-01-27 22:24:19.76	55.03	14.34	-28.2	-30.2	14.5	0.00e+00	0	43	0	425721856	16	4529
2026-01-27 22:24:22.78	55.59	14.48	-28.4	-30.8	14.1	7.00e-07	0	43	0	435159040	16	4703
2026-01-27 22:24:25.78	56.15	14.61	-28.5	-30.4	14.1	3.80e-06	0	43	0	444596224	17	4487
2026-01-27 22:24:28.80	56.72	14.75	-28.5	-30.4	14.0	3.00e-06	0	43	0	454033408	17	4478
2026-01-27 22:24:31.81	57.29	14.88	-28.3	-30.4	14.4	0.00e+00	0	43	0	463470592	16	4588
2026-01-27 22:24:34.83	57.88	15.01	-28.2	-30.2	14.5	1.50e-06	0	43	0	472907776	16	4542
2026-01-27 22:24:37.85	58.46	15.14	-28.3	-30.3	14.4	7.00e-07	0	43	0	482344960	16	4571
2026-01-27 22:24:40.87	59.05	15.27	-28.3	-30.4	14.4	1.50e-06	0	43	0	491782144	16	4593
2026-01-27 22:24:43.87	59.65	15.40	-28.1	-30.1	14.6	7.00e-07	0	43	0	501219328	16	4491
2026-01-27 22:24:46.87	60.24	15.52	-28.0	-29.7	14.8	7.00e-07	0	43	0	510656512	16	4384
2026-01-27 22:24:49.89	60.85	15.64	-27.8	-29.1	15.2	0.00e+00	0	43	0	520093696	16	4221
2026-01-27 22:24:52.89	61.45	15.76	-27.9	-29.5	15.0	0.00e+00	0	43	0	529530880	16	4315
2026-01-27 22:24:55.90	62.07	15.87	-28.0	-29.8	14.8	0.00e+00	0	43	0	538968064	16	4418
2026-01-27 22:24:58.91	62.69	15.98	-28.0	-29.6	14.9	0.00e+00	0	43	0	548405248	16	4357
2026-01-27 22:25:01.92	63.31	16.09	-27.7	-29.5	15.1	7.00e-07	0	43	0	557842432	15	4440
2026-01-27 22:25:04.92	63.93	16.20	-27.6	-29.3	15.2	0.00e+00	0	43	0	567279616	15	4390
2026-01-27 22:25:07.94	64.57	16.31	-27.5	-29.2	15.3	0.00e+00	0	43	0	576716800	15	4344
2026-01-27 22:25:10.95	65.20	16.41	-27.7	-29.5	15.1	0.00e+00	0	43	0	586153984	15	4454
2026-01-27 22:25:13.95	65.84	16.51	-27.6	-29.3	15.2	0.00e+00	0	43	0	595591168	15	4393
2026-01-27 22:25:16.97	66.48	16.60	-27.5	-29.2	15.3	0.00e+00	0	43	0	605028352	15	4344
2026-01-27 22:25:19.97	67.13	16.70	-27.5	-29.2	15.3	0.00e+00	0	43	0	614465536	15	4353
2026-01-27 22:25:22.99	67.78	16.79	-27.5	-29.6	15.3	0.00e+00	0	43	0	623902720	14	4575
2026-01-27 22:25:26.00	68.44	16.87	-27.7	-29.6	15.0	0.00e+00	0	43	0	633339904	15	4462
2026-01-27 22:25:29.01	69.10	16.96	-27.7	-29.5	15.1	0.00e+00	0	43	0	642777088	15	4434
2026-01-27 22:25:32.02	69.76	17.04	-27.5	-29.0	15.3	0.00e+00	0	43	0	652214272	15	4308
2026-01-27 22:25:35.02	70.43	17.11	-27.5	-29.0	15.3	0.00e+00	0	43	0	661651456	15	4304
2026-01-27 22:25:38.03	71.09	17.18	-27.5	-29.0	15.4	0.00e+00	0	43	0	671088640	15	4310
2026-01-27 22:25:41.05	71.77	17.25	-27.6	-29.2	15.2	0.00e+00	0	43	0	680525824	15	4374
2026-01-27 22:25:44.06	72.44	17.32	-27.7	-29.5	15.0	0.00e+00	0	43	0	689963008	15	4459
2026-01-27 22:25:47.06	73.12	17.38	-27.7	-29.5	15.1	0.00e+00	0	43	0	699400192	15	4459
2026-01-27 22:25:50.08	73.80	17.44	-27.7	-29.6	15.0	0.00e+00	0	43	0	708837376	15	4486
2026-01-27 22:25:53.09	74.49	17.50	-27.8	-29.9	14.8	0.00e+00	0	43	0	718274560	15	4561
2026-01-27 22:25:56.10	75.17	17.55	-28.0	-30.2	14.7	7.00e-07	0	43	0	726663168	15	4634
2026-01-27 22:25:59.12	75.86	17.59	-27.6	-29.4	15.1	0.00e+00	0	43	0	737148928	15	4406
2026-01-27 22:26:02.14	76.56	17.64	-27.6	-29.4	15.1	0.00e+00	0	43	0	745537536	15	4431
2026-01-27 22:26:05.14	77.25	17.68	-27.4	-29.0	15.4	0.00e+00	0	43	0	754974720	15	4294
2026-01-27 22:26:08.15	77.94	17.71	-27.5	-29.1	15.3	0.00e+00	0	43	0	764411904	15	4327
2026-01-27 22:26:11.15	78.63	17.74	-27.6	-29.4	15.1	7.00e-07	0	43	0	773849088	15	4430
2026-01-27 22:26:14.16	79.33	17.77	-27.4	-28.8	15.4	0.00e+00	0	43	0	783286272	15	4248
2026-01-27 22:26:17.17	80.03	17.79	-27.5	-29.1	15.2	2.14e-04	0	43	0	792723456	15	4337
2026-01-27 22:26:20.18	80.73	17.81	-27.3	-28.7	15.5	0.00e+00	0	43	0	802160640	15	4223
2026-01-27 22:26:23.19	81.43	17.83	-27.4	-28.8	15.4	7.09e-05	0	43	0	811597824	15	4262
2026-01-27 22:26:26.20	82.13	17.84	-27.4	-29.0	15.3	0.00e+00	0	43	0	821035008	15	4300
2026-01-27 22:26:29.20	82.83	17.85	-27.4	-29.0	15.3	0.00e+00	0	43	0	830472192	15	4299
2026-01-27 22:26:32.22	83.53	17.85	-27.5	-29.2	15.2	7.60e-06	0	43	0	839909376	15	4369
2026-01-27 22:26:35.23	84.23	17.85	-27.4	-28.9	15.4	7.00e-07	0	43	0	849346560	15	4276
2026-01-27 22:26:38.25	84.93	17.84	-27.5	-29.2	15.2	1.52e-05	0	43	0	858783744	15	4351
2026-01-27 22:26:41.25	85.63	17.83	-27.7	-29.5	15.0	0.00e+00	0	43	0	868220928	15	4459
2026-01-27 22:26:44.27	86.34	17.82	-27.4	-28.8	15.4	0.00e+00	0	43	0	877658112	15	4251
2026-01-27 22:26:47.28	87.04	17.80	-27.5	-29.2	15.1	0.00e+00	0	43	0	887095296	15	4378
2026-01-27 22:26:50.30	87.74	17.78	-27.5	-29.1	15.2	1.14e-05	0	43	0	896532480	15	4353
2026-01-27 22:26:53.29	88.43	17.75	-27.3	-28.6	15.5	7.85e-05	0	43	0	905969664	15	4202
2026-01-27 22:26:56.31	89.13	17.72	-27.7	-29.6	14.9	7.00e-07	0	43	0	915406848	15	4491
2026-01-27 22:26:59.32	89.82	17.69	-27.7	-29.5	15.0	0.00e+00	0	43	0	924844032	15	4465
2026-01-27 22:27:02.33	90.52	17.65	-27.6	-29.5	15.0	0.00e+00	0	43	0	934281216	15	4443
2026-01-27 22:27:05.35	91.21	17.61	-27.7	-29.5	14.9	0.00e+00	0	43	0	943718400	15	4456
2026-01-27 22:27:08.36	91.90	17.56	-27.4	-28.9	15.3	0.00e+00	0	43	0	953155584	15	4275
2026-01-27 22:27:11.37	92.59	17.51	-27.6	-29.3	15.0	0.00e+00	0	43	0	962592768	15	4400
2026-01-27 22:27:14.38	93.28	17.46	-27.2	-28.5	15.5	0.00e+00	0	43	0	972029952	15	4166
2026-01-27 22:27:17.40	93.96	17.40	-27.1	-28.2	15.7	0.00e+00	0	43	0	981467136	15	4091
2026-01-27 22:27:20.42	94.64	17.34	-27.4	-28.9	15.3	0.00e+00	0	43	0	990904320	15	4271
2026-01-27 22:27:23.43	95.32	17.27	-27.5	-29.1	15.1	0.00e+00	0	43	0	1000341504	15	4346
2026-01-27 22:27:26.45	96.00	17.20	-27.6	-29.4	14.9	0.00e+00	0	43	0	1009778688	15	4431
2026-01-27 22:27:29.45	96.67	17.13	-27.3	-28.7	15.4	0.00e+00	0	43	0	1019215872	15	4219
2026-01-27 22:27:32.46	97.34	17.05	-27.1	-28.3	15.6	0.00e+00	0	43	0	1028653056	15	4128
2026-01-27 22:27:35.46	98.00	16.97	-27.2	-28.4	15.5	0.00e+00	0	43	0	1038090240	15	4139
2026-01-27 22:27:38.48	98.67	16.89	-27.3	-28.6	15.4	0.00e+00	0	43	0	1047527424	15	4205
2026-01-27 22:27:41.49	99.32	16.81	-27.2	-28.6	15.4	0.00e+00	0	43	0	1056964608	15	4189
2026-01-27 22:27:44.50	99.98	16.72	-27.4	-28.9	15.2	0.00e+00	0	43	0	1066401792	15	4276
2026-01-27 22:27:47.49	100.63	16.62	-27.4	-28.9	15.2	0.00e+00	0	43	0	1074790400	15	4281
2026-01-27 22:27:50.50	101.27	16.53	-27.4	-28.9	15.2	0.00e+00	0	43	0	1084227584	15	4296
2026-01-27 22:27:53.52	101.92	16.43	-27.2	-28.6	15.4	0.00e+00	0	43	0	1093664768	15	4199
2026-01-27 22:27:56.54	102.56	16.33	-27.4	-29.4	14.7	0.00e+00	0	43	0	1103101952	14	4542
2026-01-27 22:27:59.55	103.19	16.22	-27.3	-28.6	15.4	0.00e+00	0	43	0	1112539136	15	4205
2026-01-27 22:28:02.55	103.82	16.12	-27.3	-28.7	15.3	3.07e-04	0	43	0	1121976320	15	4224
2026-01-27 22:28:05.55	104.45	16.01	-27.1	-28.7	15.6	0.00e+00	0	43	0	1131413504	14	4346
2026-01-27 22:28:08.57	105.07	15.89	-27.3	-29.2	15.3	3.55e-04	0	43	0	1140850688	14	4485
2026-01-27 22:28:11.58	105.69	15.78	-27.4	-29.5	15.1	0.00e+00	0	43	0	1150287872	14	4572
2026-01-27 22:28:14.59	106.30	15.66	-27.7	-29.7	14.7	6.02e-04	0	43	0	1159725056	15	4533
2026-01-27 22:28:17.60	106.91	15.54	-27.6	-29.5	14.8	7.54e-04	0	43	0	1169162240	15	4462
2026-01-27 22:28:20.60	107.51	15.42	-27.5	-29.2	15.0	0.00e+00	0	43	0	1178599424	15	4382
2026-01-27 22:28:23.61	108.10	15.29	-27.6	-29.5	14.8	6.25e-05	0	43	0	1188036608	15	4467
2026-01-27 22:28:26.62	108.70	15.16	-27.8	-30.0	14.5	7.00e-07	0	43	0	1197473792	15	4594
2026-01-27 22:28:29.65	109.29	15.03	-27.7	-29.7	14.7	1.47e-04	0	43	0	1206910976	15	4529
2026-01-27 22:28:32.66	109.87	14.90	-27.8	-29.9	14.6	7.00e-07	0	43	0	1216348160	15	4573
2026-01-27 22:28:35.68	110.45	14.77	-27.6	-29.5	14.8	2.61e-04	0	43	0	1225785344	15	4451
2026-01-27 22:28:38.69	111.03	14.63	-27.8	-29.9	14.5	3.49e-04	0	43	0	1235222528	15	4590
2026-01-27 22:28:41.71	111.60	14.49	-28.2	-30.2	14.2	9.90e-06	0	43	0	1244659712	16	4565
2026-01-27 22:28:44.73	112.16	14.35	-28.1	-30.0	14.4	9.10e-06	0	43	0	1254096896	16	4481
2026-01-27 22:28:47.75	112.72	14.21	-28.0	-29.9	14.4	1.50e-06	0	43	0	1263534080	16	4461
2026-01-27 22:28:50.74	113.27	14.07	-28.0	-29.8	14.4	7.00e-07	0	43	0	1272971264	16	4439
2026-01-27 22:28:53.75	113.82	13.92	-28.0	-29.9	14.3	7.00e-07	0	43	0	1282408448	16	4469
2026-01-27 22:28:56.76	114.36	13.78	-28.1	-30.2	14.2	2.20e-06	0	43	0	1291845632	16	4542
2026-01-27 22:28:59.78	114.90	13.63	-28.2	-30.2	14.1	1.50e-06	0	43	0	1301282816	16	4561
2026-01-27 22:29:02.80	115.43	13.48	-28.0	-29.9	14.3	2.20e-06	0	43	0	1310720000	16	4466
2026-01-27 22:29:05.81	115.96	13.33	-27.9	-30.2	14.3	0.00e+00	0	43	0	1320157184	15	4687
2026-01-27 22:29:08.81	116.48	13.18	-27.8	-30.0	14.4	7.00e-07	0	43	0	1329594368	15	4612
2026-01-27 22:29:11.82	117.00	13.03	-27.9	-30.1	14.2	1.50e-06	0	43	0	1339031552	15	4665
2026-01-27 22:29:14.84	117.51	12.87	-28.0	-30.3	14.1	3.80e-06	0	43	0	1348468736	15	4722
2026-01-27 22:29:17.85	118.01	12.72	-28.2	-30.4	14.0	3.80e-06	0	43	0	1357905920	16	4612
2026-01-27 22:29:20.85	118.51	12.56	-28.2	-30.3	14.1	7.00e-07	0	43	0	1367343104	16	4571
2026-01-27 22:29:23.86	119.01	12.41	-28.1	-30.1	14.1	7.00e-07	0	43	0	1376780288	16	4523
2026-01-27 22:29:26.87	119.50	12.25	-28.1	-30.0	14.2	3.00e-06	0	43	0	1386217472	16	4502
2026-01-27 22:29:29.88	119.99	12.09	-28.0	-29.8	14.3	0.00e+00	0	43	0	1395654656	16	4451
2026-01-27 22:29:32.89	120.47	11.93	-28.2	-30.3	14.0	3.80e-06	0	43	0	1405091840	16	4598
2026-01-27 22:29:35.91	120.94	11.77	-28.2	-30.3	14.0	2.20e-06	0	43	0	1414529024	16	4601
2026-01-27 22:29:38.92	121.41	11.61	-28.4	-30.8	13.6	6.10e-06	0	43	0	1423966208	16	4743
2026-01-27 22:29:41.92	121.88	11.45	-28.7	-31.0	13.2	2.28e-05	0	43	0	1433403392	17	4718
2026-01-27 22:29:44.94	122.34	11.29	-28.6	-30.8	13.3	2.44e-05	0	43	0	1441792000	17	4645
2026-01-27 22:29:47.96	122.80	11.12	-28.4	-30.3	13.6	1.22e-05	0	43	0	1452277760	17	4501
2026-01-27 22:29:50.97	123.25	10.96	-28.3	-30.1	13.7	8.30e-06	0	43	0	1461714944	17	4445
2026-01-27 22:29:53.99	123.70	10.80	-28.6	-30.9	13.2	1.90e-05	0	43	0	1470103552	17	4683
2026-01-27 22:29:57.00	124.14	10.63	-28.2	-30.0	13.8	3.00e-06	0	43	0	1479540736	17	4385
2026-01-27 22:30:00.02	124.58	10.47	-28.4	-30.4	13.5	1.52e-05	0	43	0	1488977920	17	4530
2026-01-27 22:30:03.02	125.01	10.30	-28.4	-30.4	13.5	9.10e-06	0	43	0	1498415104	17	4528
2026-01-27 22:30:06.02	125.43	10.14	-28.5	-30.7	13.2	1.98e-05	0	43	0	1507852288	17	4643
2026-01-27 22:30:09.03	125.86	9.97	-28.5	-30.7	13.3	2.51e-05	0	43	0	1517289472	17	4622
2026-01-27 22:30:12.05	126.28	9.81	-28.7	-31.2	12.9	5.56e-05	0	43	0	1526726656	17	4795
2026-01-27 22:30:15.05	126.69	9.64	-28.8	-31.4	12.8	5.64e-05	0	43	0	1536163840	17	4855
2026-01-27 22:30:18.06	127.10	9.48	-28.7	-31.0	13.0	3.96e-05	0	43	0	1545601024	17	4738
2026-01-27 22:30:21.06	127.50	9.31	-28.6	-31.0	13.0	3.73e-05	0	43	0	1555038208	17	4715
2026-01-27 22:30:24.08	127.90	9.14	-28.8	-31.3	12.8	5.11e-05	0	43	0	1564475392	17	4826
2026-01-27 22:30:27.10	128.30	8.98	-28.6	-31.0	12.9	4.19e-05	0	43	0	1573912576	17	4724
2026-01-27 22:30:30.11	128.69	8.81	-28.9	-31.6	12.5	1.11e-04	0	43	0	1583349760	17	4946
2026-01-27 22:30:33.12	129.08	8.65	-28.8	-31.1	12.5	1.48e-04	0	43	0	1592786944	18	4656
2026-01-27 22:30:36.13	129.46	8.48	-29.1	-31.7	12.1	2.89e-04	0	43	0	1602224128	18	4889
2026-01-27 22:30:39.15	129.84	8.31	-28.8	-31.1	12.5	1.61e-04	0	43	0	1611661312	18	4671
2026-01-27 22:30:42.16	130.21	8.15	-28.8	-31.1	12.4	1.20e-04	0	43	0	1621098496	18	4684
2026-01-27 22:30:45.16	130.58	7.98	-28.8	-31.0	12.4	1.34e-04	0	43	0	1630535680	18	4652
2026-01-27 22:30:48.17	130.95	7.81	-28.8	-31.1	12.4	1.91e-04	0	43	0	1639972864	18	4683
2026-01-27 22:30:51.17	131.31	7.65	-28.9	-31.2	12.3	1.94e-04	0	43	0	1649410048	18	4714
2026-01-27 22:30:54.19	131.67	7.48	-28.9	-31.4	12.1	2.67e-04	0	43	0	1658847232	18	4784
2026-01-27 22:30:57.20	132.03	7.32	-28.9	-31.9	12.0	2.78e-04	0	43	0	1668284416	17	5103
2026-01-27 22:31:00.21	132.38	7.15	-29.2	-32.2	11.5	5.38e-04	0	43	0	1677721600	18	5081
2026-01-27 22:31:03.23	132.72	6.98	-33.7	-45.7	3.8	1.49e+00	0	43	104	1680867328	27	14401

#Closed at: 2026-01-27 22:31:05
#Recorded file [1680 MB]: D:/data/31010_260128_012203.dat