passes_logs/2026/01/27/R2M6_AANII_01/R2M6_AANII_01__20260127_074608_NOAA_20_JPSS-1_rec.log

#Pass ID: 20260127_074608_NOAA 20 (JPSS-1)
#Satellite: NOAA 20 (JPSS-1)
#Configuration: NOAA 20
#almurnet v.1.7.20240730
#Start time: 2026-01-27 07:46:07

#Version: 2.2.20231116
#Station: R2M6_AANII_01
#Location: 30.233357 lon 59.946436 lat
#TLE: 1 43013U 17073A   26026.81907703  .00000149  00000+0  91399-4 0  9998
#TLE: 2 43013  98.7647 327.6343 0000991  22.4130 337.7089 14.19540778424411

#Time	Az	El	Level	Level2	SNR	BER	BlckErr	Temp	State	Recorded	gain1	gain2
2026-01-27 07:46:07.81	80.68	6.97	-32.9	-43.1	3.9	1.48e+00	0	41	0	0	27	11647
2026-01-27 07:46:09.80	80.45	7.07	-32.2	-38.8	6.9	1.79e-01	0	41	0	0	25	7706
2026-01-27 07:46:11.81	80.22	7.18	-32.2	-38.6	7.1	1.56e-01	0	41	0	3145728	25	7521
2026-01-27 07:46:13.83	79.98	7.29	-32.1	-38.2	7.4	1.30e-01	0	41	0	7340032	25	7282
2026-01-27 07:46:15.83	79.74	7.40	-32.1	-38.2	7.3	1.27e-01	0	41	0	10485760	25	7267
2026-01-27 07:46:17.84	79.50	7.51	-31.9	-37.0	8.4	5.12e-02	0	41	0	14680064	25	6481
2026-01-27 07:46:19.85	79.26	7.62	-31.5	-36.1	9.4	1.86e-02	0	41	0	17825792	24	6092
2026-01-27 07:46:21.85	79.02	7.72	-31.3	-35.3	10.1	7.70e-03	0	41	0	22020096	24	5687
2026-01-27 07:46:23.86	78.77	7.83	-31.3	-35.2	10.2	6.31e-03	0	41	0	26214400	24	5642
2026-01-27 07:46:25.86	78.53	7.94	-31.3	-35.6	10.3	5.39e-03	0	42	0	29360128	23	5920
2026-01-27 07:46:27.87	78.28	8.05	-31.3	-35.5	10.4	4.77e-03	0	42	0	33554432	23	5897
2026-01-27 07:46:29.87	78.03	8.16	-31.3	-35.5	10.4	5.80e-03	0	42	0	36700160	23	5861
2026-01-27 07:46:31.88	77.77	8.26	-31.3	-35.6	10.3	5.26e-03	0	42	0	40894464	23	5909
2026-01-27 07:46:33.88	77.52	8.37	-31.4	-36.0	10.1	9.22e-03	0	42	0	45088768	23	6092
2026-01-27 07:46:35.89	77.26	8.48	-31.4	-35.8	10.2	8.08e-03	0	42	0	48234496	23	6014
2026-01-27 07:46:37.90	77.00	8.59	-31.2	-35.1	10.7	3.40e-03	0	42	0	52428800	23	5693
2026-01-27 07:46:39.91	76.74	8.70	-31.2	-35.3	10.6	3.44e-03	0	42	0	55574528	23	5760
2026-01-27 07:46:41.92	76.48	8.80	-31.2	-35.2	10.7	2.41e-03	0	42	0	59768832	23	5722
2026-01-27 07:46:43.92	76.21	8.91	-31.3	-35.5	10.5	3.23e-03	0	42	0	63963136	23	5859
2026-01-27 07:46:45.93	75.95	9.02	-31.2	-35.3	10.7	2.85e-03	0	42	0	67108864	23	5749
2026-01-27 07:46:47.94	75.68	9.13	-31.3	-35.7	10.4	4.03e-03	0	42	0	71303168	23	5947
2026-01-27 07:46:49.94	75.41	9.23	-31.2	-35.2	10.8	2.77e-03	0	42	0	74448896	23	5682
2026-01-27 07:46:51.95	75.13	9.34	-31.2	-35.1	10.9	2.27e-03	0	42	0	78643200	23	5661
2026-01-27 07:46:53.95	74.86	9.45	-31.2	-35.0	11.0	1.87e-03	0	42	0	81788928	23	5585
2026-01-27 07:46:55.95	74.59	9.55	-31.2	-35.1	11.0	1.95e-03	0	42	0	85983232	23	5615
2026-01-27 07:46:57.96	74.31	9.66	-31.3	-35.4	10.8	2.55e-03	0	42	0	90177536	23	5772
2026-01-27 07:46:59.97	74.02	9.77	-31.2	-35.0	11.0	1.88e-03	0	42	0	93323264	23	5609
2026-01-27 07:47:01.97	73.74	9.87	-31.2	-35.1	11.0	2.10e-03	0	43	0	97517568	23	5620
2026-01-27 07:47:03.98	73.46	9.98	-31.2	-35.0	11.0	1.77e-03	0	42	0	100663296	23	5586
2026-01-27 07:47:06.00	73.17	10.08	-31.2	-35.1	10.9	2.24e-03	0	43	0	104857600	23	5659
2026-01-27 07:47:08.00	72.88	10.19	-31.3	-35.4	10.8	2.74e-03	0	42	0	109051904	23	5751
2026-01-27 07:47:10.01	72.59	10.29	-31.3	-35.3	10.9	3.19e-03	0	43	0	112197632	23	5716
2026-01-27 07:47:12.02	72.29	10.40	-31.2	-35.1	11.0	1.89e-03	0	43	0	116391936	23	5645
2026-01-27 07:47:14.01	72.00	10.50	-31.2	-35.1	11.0	2.34e-03	0	43	0	119537664	23	5625
2026-01-27 07:47:16.02	71.70	10.61	-31.3	-35.3	10.9	1.92e-03	0	43	0	123731968	23	5724
2026-01-27 07:47:18.03	71.40	10.71	-31.1	-34.5	11.4	1.22e-03	0	43	0	127926272	23	5378
2026-01-27 07:47:20.04	71.10	10.81	-31.1	-34.8	11.3	1.02e-03	0	43	0	131072000	23	5474
2026-01-27 07:47:22.05	70.79	10.92	-31.0	-34.4	11.6	7.22e-04	0	43	0	135266304	23	5296
2026-01-27 07:47:24.06	70.49	11.02	-31.1	-34.7	11.4	7.21e-04	0	43	0	138412032	23	5441
2026-01-27 07:47:26.07	70.18	11.12	-31.0	-34.5	11.5	8.74e-04	0	43	0	142606336	23	5351
2026-01-27 07:47:28.07	69.87	11.23	-30.8	-33.6	12.1	3.85e-04	0	43	0	146800640	23	5008
2026-01-27 07:47:30.08	69.56	11.33	-30.7	-33.9	12.3	1.85e-04	0	43	0	149946368	22	5221
2026-01-27 07:47:32.09	69.24	11.43	-30.7	-33.9	12.3	1.40e-04	0	43	0	154140672	22	5203
2026-01-27 07:47:34.10	68.92	11.53	-30.6	-33.6	12.6	9.15e-05	0	43	0	157286400	22	5086
2026-01-27 07:47:36.11	68.60	11.63	-30.5	-33.3	12.8	7.09e-05	0	43	0	161480704	22	4972
2026-01-27 07:47:38.11	68.28	11.73	-30.6	-33.6	12.6	5.95e-05	0	43	0	164626432	22	5071
2026-01-27 07:47:40.12	67.96	11.83	-30.6	-33.7	12.5	1.21e-04	0	43	0	168820736	22	5144
2026-01-27 07:47:42.12	67.63	11.93	-30.8	-34.0	12.3	1.66e-04	0	43	0	173015040	22	5249
2026-01-27 07:47:44.13	67.30	12.03	-30.5	-33.4	12.7	9.30e-05	0	43	0	176160768	22	5011
2026-01-27 07:47:46.13	66.97	12.12	-30.5	-33.4	12.7	7.55e-05	0	43	0	180355072	22	5004
2026-01-27 07:47:48.13	66.64	12.22	-30.6	-33.6	12.6	6.02e-05	0	43	0	183500800	22	5095
2026-01-27 07:47:50.14	66.30	12.32	-30.6	-33.4	12.7	9.15e-05	0	43	0	187695104	22	4999
2026-01-27 07:47:52.15	65.97	12.41	-30.3	-33.1	13.3	1.52e-05	0	43	0	191889408	21	5002
2026-01-27 07:47:54.17	65.62	12.51	-30.4	-33.4	13.1	3.89e-05	0	43	0	195035136	21	5105
2026-01-27 07:47:56.18	65.28	12.61	-30.3	-33.2	13.3	2.51e-05	0	43	0	199229440	21	5037
2026-01-27 07:47:58.19	64.94	12.70	-30.2	-33.0	13.4	1.29e-05	0	43	0	202375168	21	4928
2026-01-27 07:48:00.20	64.59	12.79	-30.2	-32.8	13.5	9.90e-06	0	43	0	206569472	21	4891
2026-01-27 07:48:02.20	64.24	12.89	-30.2	-32.9	13.5	1.06e-05	0	43	0	209715200	21	4901
2026-01-27 07:48:04.21	63.89	12.98	-30.1	-32.6	13.7	9.10e-06	0	43	0	213909504	21	4799
2026-01-27 07:48:06.22	63.54	13.07	-30.1	-32.6	13.6	8.30e-06	0	43	0	218103808	21	4820
2026-01-27 07:48:08.23	63.18	13.16	-30.1	-32.7	13.6	1.22e-05	0	43	0	221249536	21	4835
2026-01-27 07:48:10.24	62.82	13.25	-30.3	-33.1	13.4	1.29e-05	0	43	0	225443840	21	4985
2026-01-27 07:48:12.25	62.46	13.34	-30.4	-33.4	13.2	2.67e-05	0	43	0	228589568	21	5089
2026-01-27 07:48:14.25	62.10	13.43	-30.4	-33.4	13.1	2.74e-05	0	43	0	232783872	21	5105
2026-01-27 07:48:16.26	61.74	13.52	-30.5	-33.7	13.0	3.66e-05	0	43	0	236978176	21	5217
2026-01-27 07:48:18.27	61.37	13.60	-30.4	-33.5	13.1	2.89e-05	0	43	0	240123904	21	5150
2026-01-27 07:48:20.28	61.00	13.69	-30.5	-33.9	12.9	5.34e-05	0	43	0	244318208	21	5267
2026-01-27 07:48:22.29	60.63	13.77	-30.6	-34.0	12.8	6.71e-05	0	43	0	247463936	21	5307
2026-01-27 07:48:24.30	60.26	13.86	-30.4	-33.4	13.2	2.59e-05	0	43	0	251658240	21	5105
2026-01-27 07:48:26.30	59.89	13.94	-30.4	-33.5	13.1	2.05e-05	0	43	0	255852544	21	5128
2026-01-27 07:48:28.31	59.51	14.02	-30.5	-33.7	13.0	4.11e-05	0	43	0	258998272	21	5217
2026-01-27 07:48:30.32	59.13	14.10	-30.4	-33.3	13.3	1.67e-05	0	43	0	263192576	21	5030
2026-01-27 07:48:32.33	58.75	14.19	-30.4	-33.4	13.2	1.52e-05	0	43	0	266338304	21	5066
2026-01-27 07:48:34.33	58.37	14.26	-30.5	-33.6	13.2	2.59e-05	0	43	0	270532608	21	5145
2026-01-27 07:48:36.34	57.98	14.34	-30.4	-33.5	13.2	2.13e-05	0	43	0	274726912	21	5123
2026-01-27 07:48:38.34	57.60	14.42	-30.3	-33.2	13.3	2.13e-05	0	43	0	277872640	21	5019
2026-01-27 07:48:40.35	57.21	14.50	-30.2	-32.7	13.7	5.30e-06	0	43	0	282066944	21	4826
2026-01-27 07:48:42.36	56.81	14.57	-30.3	-32.9	13.6	1.29e-05	0	43	0	285212672	21	4906
2026-01-27 07:48:44.37	56.42	14.64	-30.4	-33.2	13.4	1.98e-05	0	43	0	289406976	21	5016
2026-01-27 07:48:46.37	56.03	14.72	-30.0	-32.3	14.0	2.20e-06	0	43	0	293601280	21	4681
2026-01-27 07:48:48.38	55.63	14.79	-30.0	-32.3	14.0	3.00e-06	0	43	0	296747008	21	4690
2026-01-27 07:48:50.38	55.23	14.86	-29.9	-32.1	14.2	3.00e-06	0	43	0	300941312	21	4613
2026-01-27 07:48:52.40	54.83	14.93	-30.0	-32.3	14.0	1.50e-06	0	43	0	304087040	21	4683
2026-01-27 07:48:54.41	54.42	15.00	-30.0	-32.2	14.1	1.50e-06	0	43	0	308281344	21	4654
2026-01-27 07:48:56.41	54.02	15.06	-29.9	-32.0	14.2	7.00e-07	0	44	0	312475648	21	4588
2026-01-27 07:48:58.42	53.61	15.13	-29.9	-32.0	14.2	0.00e+00	0	43	0	315621376	21	4577
2026-01-27 07:49:00.43	53.21	15.19	-30.1	-32.4	14.0	3.80e-06	0	43	0	319815680	21	4706
2026-01-27 07:49:02.45	52.79	15.26	-30.0	-32.2	14.1	1.50e-06	0	44	0	322961408	21	4646
2026-01-27 07:49:04.44	52.39	15.32	-29.9	-32.1	14.2	2.20e-06	0	44	0	327155712	21	4614
2026-01-27 07:49:06.45	51.97	15.38	-30.2	-32.7	13.8	3.00e-06	0	43	0	330301440	21	4830
2026-01-27 07:49:08.46	51.56	15.44	-30.2	-32.8	13.7	3.00e-06	0	43	0	334495744	21	4847
2026-01-27 07:49:10.46	51.14	15.49	-30.3	-32.9	13.6	9.10e-06	0	44	0	338690048	21	4900
2026-01-27 07:49:12.48	50.72	15.55	-30.3	-33.1	13.6	1.14e-05	0	43	0	341835776	21	4950
2026-01-27 07:49:14.49	50.30	15.61	-30.4	-33.2	13.5	6.10e-06	0	43	0	346030080	21	4992
2026-01-27 07:49:16.50	49.88	15.66	-30.2	-32.9	13.7	9.10e-06	0	43	0	349175808	21	4868
2026-01-27 07:49:18.50	49.46	15.71	-30.4	-33.3	13.4	1.37e-05	0	43	0	353370112	21	5011
2026-01-27 07:49:20.50	49.03	15.76	-30.5	-33.5	13.3	1.90e-05	0	43	0	357564416	21	5100
2026-01-27 07:49:22.50	48.61	15.81	-30.5	-33.5	13.3	2.97e-05	0	43	0	360710144	21	5095
2026-01-27 07:49:24.50	48.18	15.86	-30.6	-33.7	13.1	3.50e-05	0	43	0	364904448	21	5200
2026-01-27 07:49:26.51	47.76	15.90	-30.6	-33.8	13.1	4.42e-05	0	43	0	368050176	21	5220
2026-01-27 07:49:28.52	47.33	15.95	-30.4	-33.4	13.4	1.52e-05	0	43	0	372244480	21	5049
2026-01-27 07:49:30.53	46.89	15.99	-30.4	-33.3	13.4	9.90e-06	0	43	0	375390208	21	5023
2026-01-27 07:49:32.54	46.46	16.03	-30.3	-32.9	13.7	1.22e-05	0	44	0	379584512	21	4872
2026-01-27 07:49:34.55	46.03	16.07	-30.4	-33.4	13.3	1.44e-05	0	43	0	383778816	21	5073
2026-01-27 07:49:36.55	45.60	16.11	-30.5	-33.7	13.2	2.05e-05	0	43	0	386924544	21	5185
2026-01-27 07:49:38.56	45.16	16.14	-30.4	-33.3	13.4	1.83e-05	0	43	0	391118848	21	5051
2026-01-27 07:49:40.56	44.72	16.18	-30.5	-33.6	13.2	2.28e-05	0	43	0	394264576	21	5138
2026-01-27 07:49:42.56	44.29	16.21	-30.7	-34.0	13.0	6.33e-05	0	43	0	398458880	21	5302
2026-01-27 07:49:44.57	43.85	16.24	-30.4	-33.3	13.4	1.14e-05	0	44	0	402653184	21	5035
2026-01-27 07:49:46.56	43.41	16.27	-30.6	-33.7	13.2	1.52e-05	0	43	0	405798912	21	5195
2026-01-27 07:49:48.57	42.97	16.30	-30.6	-33.8	13.1	1.67e-05	0	44	0	409993216	21	5226
2026-01-27 07:49:50.58	42.53	16.33	-30.5	-33.5	13.3	2.13e-05	0	44	0	413138944	21	5091
2026-01-27 07:49:52.59	42.09	16.35	-30.5	-33.7	13.2	1.22e-05	0	44	0	417333248	21	5178
2026-01-27 07:49:54.59	41.65	16.38	-30.6	-33.9	13.0	3.12e-05	0	43	0	420478976	21	5250
2026-01-27 07:49:56.60	41.21	16.40	-30.5	-33.7	13.2	2.82e-05	0	43	0	424673280	21	5166
2026-01-27 07:49:58.60	40.76	16.42	-30.5	-33.5	13.3	1.52e-05	0	44	0	428867584	21	5095
2026-01-27 07:50:00.60	40.32	16.43	-30.6	-33.8	13.1	3.58e-05	0	44	0	432013312	21	5229
2026-01-27 07:50:02.61	39.88	16.45	-30.6	-33.9	13.0	3.50e-05	0	44	0	436207616	21	5246
2026-01-27 07:50:04.63	39.43	16.46	-30.7	-34.2	12.8	5.49e-05	0	44	0	439353344	21	5375
2026-01-27 07:50:06.64	38.98	16.48	-30.8	-34.3	12.7	4.42e-05	0	44	0	443547648	21	5422
2026-01-27 07:50:08.65	38.54	16.49	-30.8	-34.5	12.6	5.41e-05	0	43	0	447741952	21	5481
2026-01-27 07:50:10.66	38.09	16.50	-30.7	-34.1	12.9	5.64e-05	0	43	0	450887680	21	5339
2026-01-27 07:50:12.67	37.64	16.50	-30.7	-34.2	12.8	5.95e-05	0	44	0	455081984	21	5387
2026-01-27 07:50:14.67	37.20	16.51	-30.8	-34.5	12.6	1.05e-04	0	44	0	458227712	21	5503
2026-01-27 07:50:16.67	36.75	16.51	-30.9	-34.8	12.4	1.07e-04	0	44	0	462422016	21	5626
2026-01-27 07:50:18.68	36.31	16.51	-30.6	-33.2	13.1	3.50e-05	0	44	0	466616320	22	4896
2026-01-27 07:50:20.69	35.86	16.52	-30.4	-32.7	13.5	1.75e-05	0	43	0	469762048	22	4708
2026-01-27 07:50:22.69	35.41	16.51	-30.5	-33.0	13.3	1.83e-05	0	44	0	473956352	22	4830
2026-01-27 07:50:24.70	34.97	16.51	-30.5	-33.1	13.3	1.67e-05	0	44	0	477102080	22	4840
2026-01-27 07:50:26.70	34.52	16.51	-30.6	-33.4	13.1	2.05e-05	0	44	0	481296384	22	4958
2026-01-27 07:50:28.70	34.08	16.50	-30.4	-32.8	13.4	1.60e-05	0	44	0	484442112	22	4758
2026-01-27 07:50:30.70	33.63	16.49	-30.4	-32.8	13.4	9.90e-06	0	44	0	488636416	22	4760
2026-01-27 07:50:32.71	33.19	16.48	-30.4	-32.9	13.3	1.29e-05	0	44	0	492830720	22	4776
2026-01-27 07:50:34.70	32.75	16.47	-30.5	-33.0	13.3	1.90e-05	0	44	0	495976448	22	4804
2026-01-27 07:50:36.72	32.30	16.45	-30.2	-32.8	13.8	9.90e-06	0	44	0	500170752	21	4854
2026-01-27 07:50:38.73	31.85	16.44	-30.3	-33.1	13.5	9.90e-06	0	43	0	503316480	21	4972
2026-01-27 07:50:40.74	31.41	16.42	-30.5	-33.4	13.3	1.75e-05	0	43	0	507510784	21	5083
2026-01-27 07:50:42.74	30.97	16.40	-30.3	-33.1	13.6	9.90e-06	0	43	0	511705088	21	4946
2026-01-27 07:50:44.75	30.52	16.38	-30.3	-33.0	13.6	9.90e-06	0	44	0	514850816	21	4900
2026-01-27 07:50:46.74	30.08	16.36	-30.3	-33.0	13.6	1.44e-05	0	44	0	519045120	21	4908
2026-01-27 07:50:48.75	29.64	16.33	-30.1	-32.4	14.0	3.00e-06	0	44	0	522190848	21	4720
2026-01-27 07:50:50.76	29.20	16.31	-30.0	-32.3	14.1	1.50e-06	0	44	0	526385152	21	4665
2026-01-27 07:50:52.76	28.76	16.28	-30.0	-32.2	14.1	7.00e-07	0	44	0	530579456	21	4635
2026-01-27 07:50:54.76	28.33	16.25	-30.0	-32.3	14.1	2.20e-06	0	44	0	533725184	21	4663
2026-01-27 07:50:56.77	27.89	16.22	-29.9	-31.9	14.3	0.00e+00	0	43	0	537919488	21	4551
2026-01-27 07:50:58.78	27.45	16.19	-30.0	-32.1	14.2	1.50e-06	0	43	0	541065216	21	4605
2026-01-27 07:51:00.78	27.01	16.15	-30.0	-32.2	14.1	7.00e-07	0	44	0	545259520	21	4629
2026-01-27 07:51:02.77	26.58	16.12	-30.0	-32.1	14.1	3.00e-06	0	44	0	548405248	21	4603
2026-01-27 07:51:04.78	26.15	16.08	-30.1	-32.4	14.0	4.50e-06	0	43	0	552599552	21	4725
2026-01-27 07:51:06.79	25.72	16.04	-30.1	-32.6	13.8	5.30e-06	0	44	0	556793856	21	4782
2026-01-27 07:51:08.79	25.29	16.00	-30.2	-32.8	13.7	5.30e-06	0	44	0	559939584	21	4857
2026-01-27 07:51:10.80	24.85	15.96	-30.2	-32.9	13.7	2.20e-06	0	44	0	564133888	21	4868
2026-01-27 07:51:12.81	24.42	15.91	-30.1	-32.5	13.7	5.30e-06	0	43	0	567279616	21	4763
2026-01-27 07:51:14.82	24.00	15.87	-30.0	-32.3	13.9	3.00e-06	0	43	0	571473920	21	4692
2026-01-27 07:51:16.82	23.57	15.82	-30.0	-32.4	13.9	5.30e-06	0	44	0	575668224	21	4694
2026-01-27 07:51:18.84	23.14	15.77	-30.2	-32.7	13.7	7.60e-06	0	44	0	578813952	21	4828
2026-01-27 07:51:20.84	22.72	15.72	-30.4	-33.2	13.4	1.22e-05	0	44	0	583008256	21	4997
2026-01-27 07:51:22.84	22.30	15.67	-30.5	-33.5	13.3	2.28e-05	0	44	0	586153984	21	5091
2026-01-27 07:51:24.85	21.88	15.62	-30.5	-33.6	13.2	1.60e-05	0	43	0	590348288	21	5125
2026-01-27 07:51:26.86	21.46	15.57	-30.4	-33.4	13.3	1.22e-05	0	43	0	593494016	21	5085
2026-01-27 07:51:28.86	21.04	15.51	-30.4	-33.2	13.5	1.06e-05	0	43	0	597688320	21	4991
2026-01-27 07:51:30.87	20.63	15.45	-30.4	-33.3	13.3	1.83e-05	0	44	0	601882624	21	5028
2026-01-27 07:51:32.88	20.21	15.39	-30.4	-33.3	13.3	2.21e-05	0	44	0	605028352	21	5033
2026-01-27 07:51:34.88	19.80	15.33	-30.4	-33.3	13.0	3.58e-05	0	44	0	609222656	21	5052
2026-01-27 07:51:36.89	19.39	15.27	-30.3	-33.1	13.0	3.35e-05	0	44	0	612368384	21	4961
2026-01-27 07:51:38.90	18.98	15.21	-30.2	-32.9	13.2	2.82e-05	0	44	0	616562688	21	4891
2026-01-27 07:51:40.91	18.57	15.15	-30.2	-32.8	13.1	3.81e-05	0	44	0	620756992	21	4869
2026-01-27 07:51:42.92	18.16	15.08	-30.1	-32.5	13.2	2.59e-05	0	44	0	623902720	21	4783
2026-01-27 07:51:44.93	17.76	15.02	-30.2	-32.8	13.1	3.58e-05	0	44	0	628097024	21	4876
2026-01-27 07:51:46.93	17.36	14.95	-30.3	-33.0	13.3	1.37e-05	0	43	0	631242752	21	4938
2026-01-27 07:51:48.94	16.96	14.88	-30.4	-33.4	13.2	1.44e-05	0	44	0	635437056	21	5069
2026-01-27 07:51:50.95	16.56	14.81	-30.4	-33.5	12.9	3.50e-05	0	44	0	639631360	21	5121
2026-01-27 07:51:52.96	16.16	14.74	-30.4	-33.4	12.8	5.49e-05	0	44	0	642777088	21	5085
2026-01-27 07:51:54.96	15.77	14.67	-30.5	-33.7	12.9	4.42e-05	0	44	0	646971392	21	5207
2026-01-27 07:51:56.97	15.38	14.59	-30.2	-32.8	13.6	1.37e-05	0	44	0	650117120	21	4870
2026-01-27 07:51:58.97	14.99	14.52	-30.2	-32.7	13.5	1.44e-05	0	44	0	654311424	21	4821
2026-01-27 07:52:00.98	14.60	14.44	-30.2	-32.8	13.5	1.60e-05	0	44	0	658505728	21	4873
2026-01-27 07:52:02.98	14.21	14.37	-30.3	-33.1	13.5	1.37e-05	0	43	0	661651456	21	4943
2026-01-27 07:52:05.00	13.83	14.29	-30.4	-33.2	13.4	1.29e-05	0	43	0	665845760	21	5009
2026-01-27 07:52:07.01	13.44	14.21	-30.4	-33.2	13.4	9.90e-06	0	44	0	668991488	21	5007
2026-01-27 07:52:09.02	13.06	14.13	-30.3	-32.9	13.5	1.29e-05	0	43	0	673185792	21	4906
2026-01-27 07:52:11.02	12.68	14.05	-30.2	-32.8	13.6	5.30e-06	0	44	0	676331520	21	4850
2026-01-27 07:52:13.03	12.31	13.97	-30.3	-33.0	13.5	6.80e-06	0	44	0	680525824	21	4943
2026-01-27 07:52:15.04	11.93	13.88	-30.5	-33.6	13.1	2.13e-05	0	43	0	684720128	21	5131
2026-01-27 07:52:17.05	11.56	13.80	-30.6	-33.8	12.9	4.04e-05	0	44	0	687865856	21	5243
2026-01-27 07:52:19.06	11.19	13.71	-30.6	-33.9	12.9	5.34e-05	0	43	0	692060160	21	5258
2026-01-27 07:52:21.07	10.82	13.63	-30.6	-34.0	12.8	6.40e-05	0	44	0	695205888	21	5307
2026-01-27 07:52:23.08	10.46	13.54	-30.8	-34.5	12.4	1.59e-04	0	44	0	699400192	21	5529
2026-01-27 07:52:25.09	10.09	13.45	-30.7	-34.3	12.6	9.38e-05	0	44	0	703594496	21	5435
2026-01-27 07:52:27.09	9.73	13.37	-30.8	-34.5	12.5	1.30e-04	0	44	0	706740224	21	5529
2026-01-27 07:52:29.09	9.38	13.28	-31.0	-34.7	11.9	2.13e-04	0	44	0	710934528	22	5513
2026-01-27 07:52:31.09	9.02	13.19	-31.0	-34.6	12.0	2.66e-04	0	44	0	714080256	22	5463
2026-01-27 07:52:33.10	8.67	13.10	-31.0	-34.8	11.7	5.48e-04	0	44	0	718274560	22	5541
2026-01-27 07:52:35.10	8.31	13.01	-31.2	-35.2	11.5	7.29e-04	0	44	0	721420288	22	5723
2026-01-27 07:52:37.11	7.96	12.92	-31.3	-35.4	11.4	8.81e-04	0	43	0	725614592	22	5809
2026-01-27 07:52:39.12	7.62	12.82	-31.4	-35.7	11.2	9.55e-04	0	44	0	729808896	22	5956
2026-01-27 07:52:41.12	7.27	12.73	-31.3	-35.5	11.4	1.31e-03	0	44	0	732954624	22	5841
2026-01-27 07:52:43.12	6.93	12.64	-31.1	-34.8	11.9	4.74e-04	0	43	0	737148928	22	5555
2026-01-27 07:52:45.13	6.59	12.54	-31.1	-35.0	11.6	5.64e-04	0	43	0	740294656	22	5641
2026-01-27 07:52:47.14	6.25	12.45	-31.3	-35.7	11.2	1.11e-03	0	44	0	744488960	22	5944
2026-01-27 07:52:49.14	5.91	12.35	-31.4	-35.6	10.9	2.26e-03	0	44	0	748683264	23	5786
2026-01-27 07:52:51.15	5.58	12.26	-31.6	-35.9	10.6	2.52e-03	0	44	0	751828992	23	5963
2026-01-27 07:52:53.16	5.25	12.16	-31.4	-35.5	11.0	1.90e-03	0	44	0	756023296	23	5750
2026-01-27 07:52:55.16	4.92	12.06	-31.5	-35.7	10.8	2.38e-03	0	44	0	759169024	23	5863
2026-01-27 07:52:57.17	4.59	11.96	-31.6	-36.0	10.6	3.60e-03	0	44	0	763363328	23	6018
2026-01-27 07:52:59.18	4.26	11.86	-31.5	-35.9	10.6	4.06e-03	0	44	0	767557632	23	5949
2026-01-27 07:53:01.18	3.94	11.77	-31.7	-36.4	10.3	5.17e-03	0	44	0	770703360	23	6199
2026-01-27 07:53:03.18	3.62	11.67	-31.5	-35.9	10.6	3.34e-03	0	44	0	774897664	23	5960
2026-01-27 07:53:05.19	3.30	11.57	-31.5	-35.9	10.6	3.35e-03	0	44	0	778043392	23	5964
2026-01-27 07:53:07.19	2.99	11.47	-31.5	-35.8	10.7	3.03e-03	0	44	0	782237696	23	5904
2026-01-27 07:53:09.19	2.67	11.37	-31.4	-35.6	10.8	2.41e-03	0	44	0	785383424	23	5836
2026-01-27 07:53:11.21	2.36	11.26	-31.5	-35.9	10.6	3.49e-03	0	44	0	789577728	23	5962
2026-01-27 07:53:13.21	2.05	11.16	-31.7	-36.4	10.2	5.76e-03	0	44	0	793772032	23	6218
2026-01-27 07:53:15.21	1.74	11.06	-31.6	-36.3	10.2	6.09e-03	0	44	0	796917760	23	6191
2026-01-27 07:53:17.22	1.44	10.96	-31.8	-36.8	9.9	7.94e-03	0	44	0	801112064	23	6425
2026-01-27 07:53:19.24	1.13	10.86	-31.6	-36.3	10.3	7.59e-03	0	44	0	804257792	23	6146
2026-01-27 07:53:21.23	0.83	10.75	-31.5	-35.7	10.7	2.96e-03	0	44	0	808452096	23	5890
2026-01-27 07:53:23.24	0.53	10.65	-31.4	-35.5	10.8	3.03e-03	0	44	0	812646400	23	5790
2026-01-27 07:53:25.24	0.24	10.55	-31.4	-35.7	10.7	3.03e-03	0	44	0	815792128	23	5861
2026-01-27 07:53:27.25	359.94	10.44	-31.7	-36.6	9.9	6.47e-03	0	44	0	819986432	23	6353
2026-01-27 07:53:29.25	359.65	10.34	-31.3	-35.2	11.0	2.77e-03	0	44	0	823132160	23	5648
2026-01-27 07:53:31.26	359.36	10.23	-31.0	-34.5	11.5	8.18e-04	0	44	0	827326464	23	5333
2026-01-27 07:53:33.27	359.07	10.13	-31.0	-34.3	11.7	6.24e-04	0	44	0	831520768	23	5245
2026-01-27 07:53:35.27	358.78	10.02	-30.9	-34.1	11.8	4.75e-04	0	44	0	834666496	23	5202
2026-01-27 07:53:37.27	358.50	9.92	-30.8	-33.7	12.0	5.44e-04	0	44	0	838860800	23	5036
2026-01-27 07:53:39.29	358.22	9.81	-30.8	-34.2	12.0	3.60e-04	0	44	0	842006528	22	5336
2026-01-27 07:53:41.30	357.94	9.71	-30.8	-34.3	11.9	3.29e-04	0	44	0	846200832	22	5379
2026-01-27 07:53:43.31	357.66	9.60	-30.9	-34.5	11.8	5.09e-04	0	44	0	850395136	22	5447
2026-01-27 07:53:45.32	357.38	9.49	-30.6	-33.7	12.3	1.92e-04	0	44	0	853540864	22	5152
2026-01-27 07:53:47.33	357.11	9.39	-30.6	-33.6	12.4	9.76e-05	0	44	0	857735168	22	5102
2026-01-27 07:53:49.34	356.84	9.28	-30.5	-33.4	12.5	1.20e-04	0	44	0	860880896	22	5019
2026-01-27 07:53:51.34	356.57	9.17	-30.4	-33.1	12.7	9.23e-05	0	44	0	865075200	22	4896
2026-01-27 07:53:53.35	356.30	9.07	-30.4	-33.1	12.7	1.17e-04	0	44	0	868220928	22	4922
2026-01-27 07:53:55.35	356.03	8.96	-30.4	-33.1	12.7	8.62e-05	0	44	0	872415232	22	4922
2026-01-27 07:53:57.35	355.77	8.85	-30.4	-33.0	12.7	9.38e-05	0	44	0	876609536	22	4895
2026-01-27 07:53:59.36	355.51	8.74	-30.4	-33.0	12.7	7.55e-05	0	44	0	879755264	22	4884
2026-01-27 07:54:01.37	355.25	8.64	-30.3	-32.9	12.7	5.72e-05	0	44	0	883949568	22	4861
2026-01-27 07:54:03.38	354.99	8.53	-30.5	-33.3	12.5	1.14e-04	0	44	0	887095296	22	5008
2026-01-27 07:54:05.38	354.74	8.42	-30.3	-32.9	12.7	7.01e-05	0	44	0	891289600	22	4869
2026-01-27 07:54:07.39	354.48	8.31	-30.5	-33.4	12.4	1.10e-04	0	44	0	895483904	22	5030
2026-01-27 07:54:09.38	354.23	8.21	-30.3	-33.4	12.7	6.02e-05	0	44	0	898629632	21	5151
2026-01-27 07:54:11.39	353.98	8.10	-30.5	-34.0	12.2	1.83e-04	0	44	0	902823936	21	5397
2026-01-27 07:54:13.39	353.73	7.99	-30.4	-33.7	12.4	1.33e-04	0	44	0	905969664	21	5255
2026-01-27 07:54:15.40	353.49	7.88	-30.5	-34.0	12.2	1.98e-04	0	44	0	910163968	21	5404
2026-01-27 07:54:17.40	353.24	7.78	-30.7	-34.5	11.9	2.49e-04	0	44	0	913309696	21	5613
2026-01-27 07:54:19.41	353.00	7.67	-30.7	-34.6	11.8	5.05e-04	0	44	0	917504000	21	5668
2026-01-27 07:54:21.42	352.76	7.56	-30.6	-34.4	11.9	4.12e-04	0	44	0	921698304	21	5570
2026-01-27 07:54:23.42	352.52	7.45	-30.6	-34.3	12.0	3.71e-04	0	44	0	924844032	21	5525
2026-01-27 07:54:25.41	352.29	7.34	-30.7	-34.6	11.8	4.68e-04	0	44	0	929038336	21	5645
2026-01-27 07:54:27.42	352.05	7.24	-30.6	-34.4	11.9	2.94e-04	0	44	0	932184064	21	5577
2026-01-27 07:54:29.43	351.82	7.13	-30.4	-33.9	12.1	2.89e-04	0	44	0	936378368	21	5388
2026-01-27 07:54:31.43	351.59	7.02	-33.7	-48.0	3.8	1.49e+00	0	44	104	938475520	27	18604

#Closed at: 2026-01-27 07:54:33
#Recorded file [938 MB]: D:/data/31010_260127_104609.dat