passes_logs/2026/01/27/R2M6_AANII_01/R2M6_AANII_01__20260127_122553_SUOMI_NPP_rec.log

#Pass ID: 20260127_122553_SUOMI NPP
#Satellite: SUOMI NPP
#Configuration: NPP
#almurnet v.1.7.20240730
#Start time: 2026-01-27 12:25:55

#Version: 2.2.20231116
#Station: R2M6_AANII_01
#Location: 30.233357 lon 59.946436 lat
#TLE: 1 37849U 11061A   26026.87508736  .00000176  00000+0  10464-3 0  9991
#TLE: 2 37849  98.7822 328.8221 0002127  43.3055 316.8288 14.19530452738397

#Time	Az	El	Level	Level2	SNR	BER	BlckErr	Temp	State	Recorded	gain1	gain2
2026-01-27 12:25:55.58	229.18	7.11	-31.3	-34.4	5.3	1.13e+00	0	41	0	0	23	5161
2026-01-27 12:25:58.57	229.53	7.27	-31.7	-35.1	8.8	2.43e-02	0	41	0	1048576	24	5348
2026-01-27 12:26:01.58	229.89	7.43	-31.5	-34.6	9.2	2.32e-02	0	41	0	7340032	24	5140
2026-01-27 12:26:04.60	230.26	7.60	-31.6	-34.8	9.0	1.78e-02	0	41	0	12582912	24	5228
2026-01-27 12:26:07.60	230.63	7.76	-31.3	-33.7	9.9	9.97e-03	0	41	0	17825792	24	4750
2026-01-27 12:26:10.62	231.00	7.92	-31.1	-33.4	10.6	4.36e-03	0	41	0	24117248	23	4683
2026-01-27 12:26:13.61	231.38	8.08	-30.8	-32.8	11.4	1.30e-03	0	42	0	29360128	22	4573
2026-01-27 12:26:16.62	231.76	8.24	-30.9	-33.4	11.0	2.35e-03	0	42	0	35651584	22	4783
2026-01-27 12:26:19.63	232.14	8.41	-30.7	-32.6	11.7	6.06e-04	0	42	0	40894464	22	4468
2026-01-27 12:26:22.63	232.53	8.57	-30.7	-32.6	11.7	6.43e-04	0	42	0	46137344	22	4487
2026-01-27 12:26:25.64	232.92	8.73	-30.7	-32.4	11.9	5.30e-04	0	42	0	52428800	22	4379
2026-01-27 12:26:28.65	233.32	8.89	-30.6	-32.3	12.0	4.52e-04	0	42	0	57671680	22	4359
2026-01-27 12:26:31.66	233.72	9.05	-30.5	-31.9	12.2	3.50e-04	0	42	0	62914560	22	4242
2026-01-27 12:26:34.66	234.13	9.22	-30.2	-31.6	12.7	1.01e-04	0	42	0	69206016	21	4239
2026-01-27 12:26:37.68	234.54	9.38	-30.4	-32.1	12.4	9.68e-05	0	42	0	74448896	21	4390
2026-01-27 12:26:40.70	234.95	9.54	-30.5	-32.5	12.2	1.81e-04	0	42	0	80740352	21	4519
2026-01-27 12:26:43.71	235.37	9.70	-30.4	-32.1	12.4	1.26e-04	0	42	0	85983232	21	4390
2026-01-27 12:26:46.71	235.80	9.86	-30.7	-32.9	11.9	2.45e-04	0	42	0	91226112	21	4642
2026-01-27 12:26:49.72	236.22	10.02	-30.6	-32.7	12.1	3.45e-04	0	42	0	97517568	21	4596
2026-01-27 12:26:52.73	236.66	10.18	-30.8	-33.2	11.7	4.96e-04	0	42	0	102760448	21	4745
2026-01-27 12:26:55.75	237.10	10.34	-31.2	-34.1	10.8	1.70e-03	0	42	0	109051904	22	5013
2026-01-27 12:26:58.76	237.54	10.50	-30.9	-33.2	11.4	1.28e-03	0	42	0	114294784	22	4654
2026-01-27 12:27:01.75	237.98	10.66	-30.8	-32.9	11.7	7.97e-04	0	43	0	119537664	22	4542
2026-01-27 12:27:04.76	238.43	10.82	-30.6	-32.0	12.3	2.52e-04	0	42	0	125829120	22	4229
2026-01-27 12:27:07.76	238.89	10.97	-30.4	-31.4	12.7	6.40e-05	0	43	0	131072000	22	4065
2026-01-27 12:27:10.78	239.35	11.13	-30.3	-31.7	12.8	4.50e-05	0	43	0	136314880	21	4243
2026-01-27 12:27:13.78	239.81	11.29	-30.1	-31.3	13.1	3.35e-05	0	43	0	142606336	21	4126
2026-01-27 12:27:16.79	240.28	11.44	-29.9	-30.7	13.5	1.06e-05	0	43	0	147849216	21	3940
2026-01-27 12:27:19.80	240.76	11.60	-29.8	-30.7	13.8	4.50e-06	0	43	0	154140672	20	4024
2026-01-27 12:27:22.81	241.24	11.75	-30.1	-31.7	13.2	6.80e-06	0	43	0	159383552	20	4333
2026-01-27 12:27:25.83	241.73	11.91	-30.2	-31.9	13.2	1.22e-05	0	43	0	164626432	20	4375
2026-01-27 12:27:28.85	242.22	12.06	-30.3	-32.3	12.9	3.89e-05	0	43	0	170917888	20	4514
2026-01-27 12:27:31.86	242.71	12.21	-30.1	-31.6	13.3	1.67e-05	0	43	0	176160768	20	4278
2026-01-27 12:27:34.86	243.21	12.36	-30.1	-31.5	13.4	1.67e-05	0	43	0	181403648	20	4271
2026-01-27 12:27:37.87	243.72	12.51	-30.1	-31.7	13.3	2.82e-05	0	43	0	187695104	20	4311
2026-01-27 12:27:40.88	244.23	12.66	-30.0	-31.3	13.6	9.10e-06	0	43	0	192937984	20	4179
2026-01-27 12:27:43.89	244.74	12.80	-30.1	-31.6	13.3	1.52e-05	0	43	0	199229440	20	4295
2026-01-27 12:27:46.89	245.26	12.95	-30.1	-31.7	13.3	1.60e-05	0	43	0	204472320	20	4318
2026-01-27 12:27:49.90	245.78	13.09	-30.1	-31.6	13.4	1.90e-05	0	43	0	209715200	20	4288
2026-01-27 12:27:52.90	246.31	13.24	-30.3	-31.7	13.0	5.64e-05	0	43	0	216006656	21	4218
2026-01-27 12:27:55.91	246.84	13.38	-30.3	-31.5	13.2	1.29e-05	0	43	0	221249536	21	4158
2026-01-27 12:27:58.92	247.38	13.52	-30.5	-32.1	12.8	9.15e-05	0	43	0	226492416	21	4338
2026-01-27 12:28:01.93	247.93	13.66	-30.5	-32.1	12.8	3.89e-05	0	43	0	232783872	21	4336
2026-01-27 12:28:04.94	248.48	13.79	-30.6	-32.5	12.5	7.01e-05	0	43	0	238026752	21	4467
2026-01-27 12:28:07.96	249.03	13.93	-30.7	-32.8	12.3	1.59e-04	0	43	0	244318208	21	4587
2026-01-27 12:28:10.96	249.59	14.06	-30.7	-32.8	12.3	1.16e-04	0	43	0	249561088	21	4571
2026-01-27 12:28:13.97	250.16	14.19	-30.6	-32.3	12.7	1.13e-04	0	43	0	254803968	21	4413
2026-01-27 12:28:16.98	250.72	14.32	-30.5	-32.3	12.7	4.27e-05	0	43	0	261095424	21	4393
2026-01-27 12:28:19.98	251.30	14.45	-30.5	-32.2	12.7	5.18e-05	0	43	0	266338304	21	4373
2026-01-27 12:28:22.99	251.87	14.58	-30.7	-32.8	12.3	1.52e-04	0	43	0	272629760	21	4585
2026-01-27 12:28:26.00	252.46	14.70	-30.8	-33.0	12.2	2.17e-04	0	43	0	277872640	21	4658
2026-01-27 12:28:29.01	253.04	14.82	-30.6	-32.4	12.6	8.46e-05	0	43	0	283115520	21	4445
2026-01-27 12:28:32.02	253.64	14.94	-30.8	-33.2	12.2	1.34e-04	0	43	0	289406976	21	4699
2026-01-27 12:28:35.04	254.24	15.06	-31.1	-33.3	11.8	4.27e-04	0	43	0	294649856	22	4639
2026-01-27 12:28:38.04	254.84	15.18	-31.0	-33.1	11.9	3.49e-04	0	43	0	299892736	22	4566
2026-01-27 12:28:41.04	255.44	15.29	-31.2	-33.6	11.5	6.37e-04	0	43	0	306184192	22	4765
2026-01-27 12:28:44.03	256.05	15.40	-31.1	-33.4	11.7	8.46e-04	0	43	0	311427072	22	4685
2026-01-27 12:28:47.06	256.66	15.50	-30.9	-32.8	12.2	2.45e-04	0	43	0	317718528	22	4456
2026-01-27 12:28:50.06	257.28	15.61	-30.9	-32.7	12.2	2.91e-04	0	43	0	322961408	22	4437
2026-01-27 12:28:53.07	257.90	15.71	-31.2	-33.6	11.5	8.77e-04	0	44	0	328204288	22	4748
2026-01-27 12:28:56.07	258.53	15.81	-30.9	-32.8	12.1	2.53e-04	0	43	0	334495744	22	4491
2026-01-27 12:28:59.08	259.16	15.91	-30.9	-32.8	12.1	2.86e-04	0	43	0	339738624	22	4462
2026-01-27 12:29:02.09	259.79	16.00	-30.3	-31.1	13.2	2.44e-05	0	43	0	346030080	22	3956
2026-01-27 12:29:05.09	260.43	16.09	-30.2	-31.2	13.5	9.90e-06	0	44	0	351272960	21	4065
2026-01-27 12:29:08.10	261.07	16.18	-30.2	-31.4	13.4	1.14e-05	0	43	0	356515840	21	4111
2026-01-27 12:29:11.10	261.72	16.26	-30.2	-31.3	13.4	1.06e-05	0	43	0	362807296	21	4077
2026-01-27 12:29:14.11	262.37	16.34	-30.1	-31.2	13.5	1.06e-05	0	43	0	368050176	21	4050
2026-01-27 12:29:17.12	263.02	16.42	-30.5	-32.0	13.0	3.28e-05	0	43	0	373293056	21	4293
2026-01-27 12:29:20.12	263.67	16.49	-30.6	-32.5	12.7	5.56e-05	0	43	0	379584512	21	4452
2026-01-27 12:29:23.13	264.33	16.57	-30.6	-32.4	12.7	8.23e-05	0	43	0	384827392	21	4438
2026-01-27 12:29:26.13	264.99	16.63	-30.3	-31.5	13.4	1.98e-05	0	43	0	391118848	21	4142
2026-01-27 12:29:29.15	265.66	16.70	-30.0	-30.8	13.8	3.80e-06	0	43	0	396361728	21	3923
2026-01-27 12:29:32.15	266.32	16.76	-30.4	-31.7	13.3	1.29e-05	0	43	0	401604608	21	4192
2026-01-27 12:29:35.15	266.99	16.82	-30.6	-32.4	12.8	7.47e-05	0	43	0	407896064	21	4423
2026-01-27 12:29:38.16	267.66	16.87	-30.5	-32.0	13.0	4.04e-05	0	43	0	413138944	21	4303
2026-01-27 12:29:41.17	268.34	16.92	-30.5	-32.2	12.9	5.18e-05	0	43	0	418381824	21	4352
2026-01-27 12:29:44.18	269.01	16.97	-30.2	-31.2	13.5	9.90e-06	0	43	0	424673280	21	4055
2026-01-27 12:29:47.18	269.69	17.01	-30.5	-32.0	13.0	3.28e-05	0	43	0	429916160	21	4303
2026-01-27 12:29:50.20	270.37	17.05	-30.8	-33.0	12.3	1.70e-04	0	44	0	436207616	21	4636
2026-01-27 12:29:53.21	271.05	17.08	-31.1	-33.3	11.8	3.99e-04	0	43	0	441450496	22	4635
2026-01-27 12:29:56.21	271.73	17.11	-31.2	-33.7	11.7	6.36e-04	0	43	0	446693376	22	4766
2026-01-27 12:29:59.21	272.41	17.14	-31.5	-34.0	11.0	2.04e-03	0	44	0	452984832	23	4787
2026-01-27 12:30:02.21	273.10	17.16	-31.3	-33.4	11.4	1.22e-03	0	44	0	458227712	23	4595
2026-01-27 12:30:05.23	273.78	17.18	-31.4	-33.9	11.1	1.86e-03	0	43	0	463470592	23	4753
2026-01-27 12:30:08.24	274.47	17.20	-31.1	-32.7	11.9	4.90e-04	0	43	0	469762048	23	4346
2026-01-27 12:30:11.26	275.16	17.21	-31.2	-33.1	11.6	6.14e-04	0	43	0	475004928	23	4488
2026-01-27 12:30:14.27	275.85	17.22	-31.2	-33.1	11.6	7.05e-04	0	43	0	481296384	23	4481
2026-01-27 12:30:17.28	276.54	17.22	-30.7	-32.2	12.6	1.12e-04	0	44	0	486539264	22	4254
2026-01-27 12:30:20.29	277.23	17.22	-30.9	-32.6	12.3	1.78e-04	0	44	0	491782144	22	4394
2026-01-27 12:30:23.30	277.91	17.22	-30.8	-32.4	12.4	1.53e-04	0	44	0	498073600	22	4324
2026-01-27 12:30:26.31	278.60	17.21	-30.7	-32.1	12.7	4.80e-05	0	43	0	503316480	22	4222
2026-01-27 12:30:29.33	279.29	17.20	-30.6	-31.8	12.9	7.78e-05	0	43	0	509607936	22	4126
2026-01-27 12:30:32.34	279.98	17.18	-30.4	-31.2	13.3	1.44e-05	0	43	0	514850816	22	3952
2026-01-27 12:30:35.34	280.66	17.16	-30.5	-31.7	12.9	4.34e-05	0	43	0	520093696	22	4103
2026-01-27 12:30:38.35	281.34	17.14	-30.6	-31.7	12.9	6.79e-05	0	44	0	526385152	22	4120
2026-01-27 12:30:41.36	282.03	17.11	-30.6	-31.9	12.8	4.50e-05	0	44	0	531628032	22	4154
2026-01-27 12:30:44.37	282.71	17.08	-30.8	-32.5	12.3	1.52e-04	0	44	0	536870912	22	4372
2026-01-27 12:30:47.39	283.39	17.04	-30.8	-32.5	12.4	1.21e-04	0	44	0	543162368	22	4360
2026-01-27 12:30:50.40	284.07	17.00	-31.0	-33.0	12.0	2.82e-04	0	43	0	548405248	22	4531
2026-01-27 12:30:53.41	284.75	16.96	-31.2	-33.5	11.7	5.98e-04	0	44	0	554696704	22	4702
2026-01-27 12:30:56.42	285.42	16.91	-31.1	-33.1	11.9	6.52e-04	0	44	0	559939584	22	4583
2026-01-27 12:30:59.43	286.09	16.86	-30.3	-31.5	13.4	1.29e-05	0	43	0	565182464	21	4133
2026-01-27 12:31:02.43	286.76	16.81	-30.0	-30.9	13.7	5.30e-06	0	44	0	571473920	21	3952
2026-01-27 12:31:05.45	287.43	16.75	-30.3	-31.6	13.3	1.29e-05	0	44	0	576716800	21	4158
2026-01-27 12:31:08.46	288.10	16.69	-30.5	-32.0	13.0	4.57e-05	0	43	0	581959680	21	4290
2026-01-27 12:31:11.47	288.76	16.63	-30.6	-32.3	12.8	6.33e-05	0	44	0	588251136	21	4397
2026-01-27 12:31:14.48	289.42	16.56	-30.6	-32.3	12.8	6.63e-05	0	44	0	593494016	21	4378
2026-01-27 12:31:17.49	290.08	16.49	-30.0	-30.8	13.8	1.29e-05	0	43	0	599785472	21	3924
2026-01-27 12:31:20.50	290.73	16.41	-30.2	-31.3	13.4	1.22e-05	0	44	0	605028352	21	4093
2026-01-27 12:31:23.50	291.38	16.34	-30.3	-31.5	13.3	1.75e-05	0	44	0	610271232	21	4141
2026-01-27 12:31:26.52	292.03	16.25	-30.2	-31.4	13.4	1.14e-05	0	43	0	616562688	21	4111
2026-01-27 12:31:29.53	292.67	16.17	-30.6	-32.3	12.8	6.25e-05	0	43	0	621805568	21	4410
2026-01-27 12:31:32.54	293.31	16.08	-30.5	-32.1	12.9	4.42e-05	0	44	0	628097024	21	4328
2026-01-27 12:31:35.56	293.95	15.99	-30.3	-31.7	13.1	2.67e-05	0	43	0	633339904	21	4199
2026-01-27 12:31:38.56	294.58	15.90	-30.5	-32.0	12.9	2.67e-05	0	44	0	638582784	21	4313
2026-01-27 12:31:41.56	295.20	15.80	-30.0	-30.9	13.7	6.80e-06	0	44	0	644874240	21	3954
2026-01-27 12:31:44.57	295.83	15.70	-29.6	-30.1	14.4	0.00e+00	0	44	0	650117120	20	3848
2026-01-27 12:31:47.59	296.45	15.60	-29.6	-30.2	14.5	0.00e+00	0	44	0	655360000	20	3850
2026-01-27 12:31:50.59	297.06	15.50	-29.7	-30.6	14.2	7.00e-07	0	44	0	661651456	20	3978
2026-01-27 12:31:53.61	297.68	15.39	-29.9	-31.0	13.9	5.30e-06	0	44	0	666894336	20	4075
2026-01-27 12:31:56.62	298.29	15.28	-30.0	-31.3	13.7	2.20e-06	0	44	0	673185792	20	4180
2026-01-27 12:31:59.63	298.89	15.17	-30.0	-31.4	13.6	6.10e-06	0	44	0	678428672	20	4212
2026-01-27 12:32:02.63	299.48	15.06	-30.0	-31.2	13.7	6.80e-06	0	44	0	683671552	20	4154
2026-01-27 12:32:05.64	300.08	14.94	-29.8	-30.7	14.1	3.80e-06	0	44	0	689963008	20	4001
2026-01-27 12:32:08.66	300.67	14.82	-29.8	-30.6	14.1	3.80e-06	0	43	0	695205888	20	3980
2026-01-27 12:32:11.68	301.26	14.70	-29.6	-30.2	14.4	7.00e-07	0	44	0	701497344	20	3876
2026-01-27 12:32:14.69	301.84	14.57	-29.9	-31.0	13.9	2.20e-06	0	43	0	706740224	20	4087
2026-01-27 12:32:17.71	302.41	14.45	-29.9	-30.9	13.9	7.60e-06	0	44	0	711983104	20	4075
2026-01-27 12:32:20.71	302.98	14.32	-30.2	-31.8	13.3	1.37e-05	0	44	0	718274560	20	4342
2026-01-27 12:32:23.72	303.55	14.19	-30.7	-32.7	12.4	1.31e-04	0	44	0	723517440	21	4546
2026-01-27 12:32:26.73	304.11	14.06	-30.9	-33.3	12.0	2.92e-04	0	43	0	728760320	21	4751
2026-01-27 12:32:29.74	304.66	13.93	-30.5	-32.1	12.8	1.23e-04	0	44	0	735051776	21	4332
2026-01-27 12:32:32.75	305.21	13.80	-30.4	-32.0	12.9	4.34e-05	0	43	0	740294656	21	4297
2026-01-27 12:32:35.76	305.76	13.66	-30.7	-32.7	12.4	1.63e-04	0	43	0	746586112	21	4531
2026-01-27 12:32:38.77	306.30	13.52	-30.9	-33.2	12.1	2.24e-04	0	43	0	751828992	21	4701
2026-01-27 12:32:41.77	306.84	13.38	-30.8	-33.1	12.1	4.16e-04	0	44	0	757071872	21	4686
2026-01-27 12:32:44.79	307.37	13.24	-30.8	-33.0	12.2	1.54e-04	0	44	0	763363328	21	4651
2026-01-27 12:32:47.81	307.90	13.10	-31.2	-33.6	11.4	7.30e-04	0	44	0	768606208	22	4753
2026-01-27 12:32:50.82	308.42	12.96	-31.3	-34.1	11.0	1.89e-03	0	44	0	773849088	22	4970
2026-01-27 12:32:53.82	308.93	12.81	-31.6	-34.4	10.5	3.13e-03	0	44	0	780140544	23	4982
2026-01-27 12:32:56.82	309.44	12.67	-31.5	-34.3	10.5	5.72e-03	0	43	0	785383424	23	4961
2026-01-27 12:32:59.83	309.95	12.52	-31.1	-32.8	11.6	1.25e-03	0	44	0	791674880	23	4407
2026-01-27 12:33:02.81	310.45	12.37	-30.8	-32.5	12.2	2.62e-04	0	43	0	796917760	22	4372
2026-01-27 12:33:05.83	310.95	12.22	-30.9	-32.8	11.8	3.35e-04	0	44	0	802160640	22	4503
2026-01-27 12:33:08.83	311.44	12.07	-31.1	-33.3	11.6	5.76e-04	0	43	0	808452096	22	4680
2026-01-27 12:33:11.84	311.92	11.92	-31.1	-33.4	11.5	1.09e-03	0	43	0	813694976	22	4700
2026-01-27 12:33:14.86	312.41	11.77	-31.3	-34.0	11.0	1.20e-03	0	43	0	818937856	22	4938
2026-01-27 12:33:17.87	312.88	11.62	-31.3	-34.2	10.9	2.10e-03	0	43	0	825229312	22	5002
2026-01-27 12:33:20.89	313.36	11.46	-31.3	-34.2	10.9	2.05e-03	0	43	0	830472192	22	5022
2026-01-27 12:33:23.90	313.83	11.31	-31.6	-34.7	10.1	6.97e-03	0	43	0	836763648	23	5139
2026-01-27 12:33:26.91	314.29	11.16	-31.0	-32.8	11.5	1.14e-03	0	43	0	842006528	23	4417
2026-01-27 12:33:29.91	314.75	11.00	-30.7	-32.2	12.3	2.21e-04	0	43	0	847249408	22	4295
2026-01-27 12:33:32.93	315.20	10.84	-30.4	-31.5	12.7	1.12e-04	0	43	0	853540864	22	4091
2026-01-27 12:33:35.93	315.65	10.69	-30.6	-31.9	12.4	1.23e-04	0	44	0	858783744	22	4213
2026-01-27 12:33:38.93	316.09	10.53	-30.6	-32.0	12.4	1.65e-04	0	43	0	865075200	22	4227
2026-01-27 12:33:41.94	316.53	10.37	-30.6	-31.9	12.4	1.77e-04	0	44	0	870318080	22	4218
2026-01-27 12:33:44.94	316.97	10.22	-30.4	-31.5	12.7	9.53e-05	0	44	0	875560960	22	4088
2026-01-27 12:33:47.95	317.40	10.06	-30.5	-31.6	12.6	1.06e-04	0	43	0	881852416	22	4119
2026-01-27 12:33:50.96	317.82	9.90	-30.6	-32.0	12.3	1.62e-04	0	43	0	887095296	22	4246
2026-01-27 12:33:53.97	318.24	9.74	-30.7	-32.3	12.1	2.65e-04	0	43	0	892338176	22	4341
2026-01-27 12:33:56.97	318.66	9.58	-30.4	-31.5	12.6	1.74e-04	0	43	0	898629632	22	4091
2026-01-27 12:33:59.98	319.07	9.42	-30.1	-31.3	13.0	5.03e-05	0	43	0	903872512	21	4106
2026-01-27 12:34:02.99	319.48	9.26	-30.2	-31.4	13.0	7.47e-05	0	44	0	910163968	21	4154
2026-01-27 12:34:05.99	319.88	9.10	-30.2	-31.5	12.9	7.01e-05	0	43	0	915406848	21	4174
2026-01-27 12:34:09.01	320.28	8.94	-30.5	-32.4	12.3	1.59e-04	0	43	0	920649728	21	4466
2026-01-27 12:34:12.02	320.68	8.78	-30.6	-32.6	12.0	3.07e-04	0	44	0	926941184	21	4552
2026-01-27 12:34:15.02	321.07	8.62	-30.8	-33.1	11.7	5.37e-04	0	44	0	932184064	21	4736
2026-01-27 12:34:18.03	321.46	8.46	-30.8	-33.4	11.5	8.62e-04	0	43	0	937426944	21	4831
2026-01-27 12:34:21.04	321.84	8.30	-30.6	-32.8	11.8	5.41e-04	0	44	0	943718400	21	4631
2026-01-27 12:34:24.05	322.22	8.14	-30.5	-32.4	12.0	3.10e-04	0	44	0	948961280	21	4502
2026-01-27 12:34:27.05	322.60	7.98	-30.4	-32.1	12.0	4.18e-04	0	44	0	955252736	21	4403
2026-01-27 12:34:30.06	322.97	7.82	-30.4	-32.4	11.5	8.64e-04	0	43	0	960495616	21	4487
2026-01-27 12:34:33.06	323.33	7.66	-30.8	-33.6	10.9	1.41e-03	0	44	0	965738496	21	4922
2026-01-27 12:34:36.07	323.70	7.50	-30.9	-33.3	11.0	2.02e-03	0	44	0	972029952	22	4735
2026-01-27 12:34:39.08	324.06	7.34	-30.8	-32.9	10.9	1.64e-03	0	43	0	977272832	22	4571
2026-01-27 12:34:42.09	324.41	7.18	-30.9	-33.4	10.8	2.23e-03	0	44	0	982515712	22	4763
2026-01-27 12:34:45.10	324.76	7.02	-33.7	-45.8	3.8	1.49e+00	0	44	104	986710016	27	14484

#Closed at: 2026-01-27 12:34:47
#Recorded file [986 MB]: D:/data/31010_260127_152557.dat