passes_logs/2026/01/27/R2M6_AANII_01/R2M6_AANII_01__20260127_095340_AQUA_rec.log

#Pass ID: 20260127_095340_AQUA
#Satellite: AQUA
#Configuration: AQUA
#almurnet v.1.7.20240730
#Start time: 2026-01-27 09:53:42

#Version: 2.2.20231116
#Station: R2M6_AANII_01
#Location: 30.233357 lon 59.946436 lat
#TLE: 1 27424U 02022A   26026.85810808  .00001813  00000+0  37258-3 0  9999
#TLE: 2 27424  98.4101 353.4861 0001866  64.3332 317.5249 14.61864179262622

#Time	Az	El	Level	Level2	SNR	BER	BlckErr	Temp	State	Recorded	gain1	gain2
2026-01-27 09:53:42.04	86.20	7.07	-32.9	-42.2	4.7	7.16e-01	0	41	0	0	27	10539
2026-01-27 09:53:44.04	85.94	7.18	-32.6	-39.2	12.1	6.14e-01	0	41	0	0	27	7659
2026-01-27 09:53:46.05	85.67	7.30	-32.6	-39.1	12.1	6.11e-01	0	41	0	3670016	27	7596
2026-01-27 09:53:48.05	85.40	7.41	-32.6	-39.0	12.3	6.11e-01	0	41	0	7340032	27	7502
2026-01-27 09:53:50.06	85.12	7.53	-32.1	-37.2	14.2	6.07e-01	0	41	0	11010048	26	6461
2026-01-27 09:53:52.06	84.85	7.64	-31.4	-35.4	15.8	6.05e-01	0	42	0	14680064	25	5682
2026-01-27 09:53:54.07	84.57	7.76	-31.0	-34.3	16.9	6.07e-01	0	42	0	18350080	24	5308
2026-01-27 09:53:56.08	84.29	7.87	-30.8	-34.4	17.3	6.04e-01	0	42	0	22544384	23	5414
2026-01-27 09:53:58.08	84.01	7.99	-30.8	-34.3	17.3	6.06e-01	0	42	0	26214400	23	5387
2026-01-27 09:54:00.09	83.72	8.10	-30.9	-34.5	17.3	6.07e-01	0	42	0	29884416	23	5446
2026-01-27 09:54:02.08	83.44	8.22	-30.9	-34.6	17.2	6.07e-01	0	42	0	33554432	23	5488
2026-01-27 09:54:04.09	83.14	8.33	-31.0	-34.8	17.1	6.06e-01	0	42	0	37224448	23	5566
2026-01-27 09:54:06.11	82.85	8.45	-30.9	-34.7	17.1	6.06e-01	0	42	0	41418752	23	5528
2026-01-27 09:54:08.11	82.55	8.56	-30.6	-33.8	17.7	6.05e-01	0	42	0	45088768	23	5154
2026-01-27 09:54:10.11	82.26	8.68	-30.8	-34.2	17.5	6.05e-01	0	42	0	48758784	23	5309
2026-01-27 09:54:12.13	81.95	8.79	-30.6	-33.7	17.7	6.04e-01	0	42	0	52428800	23	5148
2026-01-27 09:54:14.13	81.65	8.91	-30.6	-33.7	17.8	6.06e-01	0	42	0	56098816	23	5124
2026-01-27 09:54:16.14	81.34	9.02	-30.7	-33.7	17.8	6.07e-01	0	42	0	59768832	23	5129
2026-01-27 09:54:18.15	81.04	9.13	-30.7	-33.8	17.7	6.07e-01	0	42	0	63963136	23	5161
2026-01-27 09:54:20.15	80.73	9.25	-30.6	-33.6	17.9	6.04e-01	0	42	0	67633152	23	5085
2026-01-27 09:54:22.16	80.41	9.36	-30.8	-34.1	17.6	6.04e-01	0	42	0	71303168	23	5257
2026-01-27 09:54:24.16	80.09	9.48	-30.6	-33.4	18.0	6.06e-01	0	42	0	74973184	23	5009
2026-01-27 09:54:26.17	79.77	9.59	-30.6	-33.5	18.0	6.04e-01	0	42	0	78643200	23	5020
2026-01-27 09:54:28.18	79.45	9.70	-30.6	-33.6	17.9	6.07e-01	0	42	0	82313216	23	5083
2026-01-27 09:54:30.19	79.13	9.82	-30.7	-33.7	17.9	6.08e-01	0	42	0	86507520	23	5100
2026-01-27 09:54:32.19	78.80	9.93	-30.7	-33.7	18.0	6.03e-01	0	42	0	90177536	23	5091
2026-01-27 09:54:34.20	78.47	10.04	-30.7	-33.9	17.8	6.07e-01	0	42	0	93847552	23	5174
2026-01-27 09:54:36.20	78.14	10.15	-30.6	-33.4	18.2	6.04e-01	0	42	0	97517568	23	4998
2026-01-27 09:54:38.21	77.80	10.26	-30.5	-33.4	18.2	6.06e-01	0	43	0	101187584	23	4970
2026-01-27 09:54:40.21	77.46	10.37	-30.5	-33.3	18.3	6.06e-01	0	42	0	104857600	23	4941
2026-01-27 09:54:42.21	77.12	10.49	-30.5	-33.3	18.3	6.05e-01	0	42	0	109051904	23	4941
2026-01-27 09:54:44.23	76.77	10.60	-30.7	-33.9	17.9	6.07e-01	0	43	0	112721920	23	5149
2026-01-27 09:54:46.24	76.43	10.71	-30.8	-33.9	17.9	6.07e-01	0	42	0	116391936	23	5178
2026-01-27 09:54:48.24	76.08	10.82	-30.6	-33.5	18.1	6.05e-01	0	43	0	120061952	23	5016
2026-01-27 09:54:50.24	75.73	10.93	-30.6	-33.4	18.3	6.07e-01	0	43	0	123731968	23	4961
2026-01-27 09:54:52.25	75.37	11.03	-30.5	-33.2	18.4	6.06e-01	0	43	0	127926272	23	4896
2026-01-27 09:54:54.26	75.01	11.14	-30.6	-33.5	18.2	6.05e-01	0	43	0	131596288	23	5018
2026-01-27 09:54:56.26	74.65	11.25	-30.6	-33.4	18.3	6.07e-01	0	42	0	135266304	23	4981
2026-01-27 09:54:58.27	74.28	11.36	-30.6	-33.3	18.4	6.07e-01	0	43	0	138936320	23	4926
2026-01-27 09:55:00.28	73.92	11.47	-30.5	-33.3	18.4	6.07e-01	0	43	0	142606336	23	4918
2026-01-27 09:55:02.28	73.55	11.57	-30.6	-33.5	18.3	6.05e-01	0	43	0	146276352	23	5005
2026-01-27 09:55:04.29	73.17	11.68	-30.4	-32.9	18.6	6.05e-01	0	43	0	150470656	23	4807
2026-01-27 09:55:06.30	72.80	11.78	-30.5	-33.2	18.5	6.05e-01	0	43	0	154140672	23	4881
2026-01-27 09:55:08.30	72.42	11.89	-30.6	-33.3	18.4	6.06e-01	0	43	0	157810688	23	4929
2026-01-27 09:55:10.32	72.03	11.99	-30.6	-33.5	18.3	6.06e-01	0	43	0	161480704	23	4985
2026-01-27 09:55:12.32	71.65	12.09	-30.5	-33.0	18.6	6.06e-01	0	43	0	165150720	23	4825
2026-01-27 09:55:14.33	71.26	12.20	-30.5	-33.1	18.5	6.07e-01	0	43	0	168820736	23	4843
2026-01-27 09:55:16.34	70.87	12.30	-30.6	-33.4	18.4	6.06e-01	0	43	0	173015040	23	4950
2026-01-27 09:55:18.35	70.47	12.40	-30.6	-33.2	18.5	6.04e-01	0	43	0	176685056	23	4897
2026-01-27 09:55:20.35	70.08	12.50	-30.6	-33.4	18.4	6.05e-01	0	43	0	180355072	23	4972
2026-01-27 09:55:22.35	69.68	12.60	-30.7	-33.6	18.3	6.08e-01	0	43	0	184025088	23	5030
2026-01-27 09:55:24.35	69.28	12.70	-30.6	-33.3	18.5	6.06e-01	0	43	0	187695104	23	4939
2026-01-27 09:55:26.35	68.87	12.79	-30.8	-33.8	18.2	6.04e-01	0	43	0	191889408	23	5112
2026-01-27 09:55:28.36	68.47	12.89	-30.6	-33.5	18.4	6.07e-01	0	43	0	195559424	23	4979
2026-01-27 09:55:30.36	68.06	12.98	-30.6	-33.3	18.6	6.05e-01	0	43	0	199229440	23	4928
2026-01-27 09:55:32.37	67.64	13.08	-30.5	-33.1	18.7	6.05e-01	0	43	0	202899456	23	4857
2026-01-27 09:55:34.38	67.22	13.17	-30.6	-33.4	18.4	6.04e-01	0	43	0	206569472	23	4963
2026-01-27 09:55:36.38	66.81	13.26	-30.7	-33.6	18.2	6.06e-01	0	43	0	210239488	23	5068
2026-01-27 09:55:38.38	66.38	13.36	-30.5	-33.2	18.5	6.06e-01	0	43	0	213909504	23	4883
2026-01-27 09:55:40.38	65.96	13.45	-30.4	-32.9	18.8	6.07e-01	0	43	0	218103808	23	4766
2026-01-27 09:55:42.40	65.53	13.54	-30.6	-33.2	18.6	6.05e-01	0	43	0	221773824	23	4883
2026-01-27 09:55:44.40	65.10	13.62	-30.5	-33.1	18.7	6.07e-01	0	43	0	225443840	23	4839
2026-01-27 09:55:46.41	64.66	13.71	-30.6	-33.2	18.7	6.04e-01	0	43	0	229113856	23	4860
2026-01-27 09:55:48.41	64.23	13.80	-30.5	-33.1	18.7	6.06e-01	0	43	0	232783872	23	4825
2026-01-27 09:55:50.42	63.79	13.88	-30.6	-33.4	18.6	6.04e-01	0	43	0	236978176	23	4930
2026-01-27 09:55:52.42	63.35	13.96	-30.5	-33.1	18.7	6.07e-01	0	43	0	240648192	23	4838
2026-01-27 09:55:54.44	62.90	14.05	-30.6	-33.1	18.7	6.07e-01	0	43	0	244318208	23	4841
2026-01-27 09:55:56.44	62.46	14.13	-30.7	-33.4	18.6	6.06e-01	0	43	0	247988224	23	4923
2026-01-27 09:55:58.45	62.01	14.21	-30.8	-43.1	3.8	7.43e-01	0	43	104	251133952	23	14737
2026-01-27 09:56:00.45	61.56	14.28	-30.8	-43.1	3.8	7.46e-01	0	43	104	251133952	23	14757
2026-01-27 09:56:02.46	61.10	14.36	-31.0	-43.4	3.8	7.48e-01	0	43	104	251133952	23	15150
2026-01-27 09:56:04.47	60.64	14.43	-31.3	-44.4	3.8	7.46e-01	0	43	104	251133952	23	16237
2026-01-27 09:56:06.48	60.18	14.51	-31.9	-45.7	3.8	7.46e-01	0	43	104	251133952	24	17543
2026-01-27 09:56:08.49	59.72	14.58	-32.5	-46.8	3.8	7.46e-01	0	43	104	251133952	25	18810
2026-01-27 09:56:10.49	59.26	14.65	-32.7	-47.0	3.8	7.43e-01	0	43	104	251133952	26	18820
2026-01-27 09:56:12.49	58.79	14.72	-33.0	-48.3	3.8	7.43e-01	0	43	104	251133952	26	20830
2026-01-27 09:56:14.50	58.32	14.79	-33.5	-49.6	3.8	7.46e-01	0	43	104	251133952	27	23109
2026-01-27 09:56:16.50	57.85	14.85	-33.3	-48.8	3.8	7.45e-01	0	43	104	251133952	27	21476
2026-01-27 09:56:18.51	57.38	14.92	-32.9	-47.1	3.8	7.48e-01	0	43	104	251133952	27	18621
2026-01-27 09:56:20.51	56.90	14.98	-32.6	-46.4	3.8	7.43e-01	0	43	104	251133952	27	17588
2026-01-27 09:56:22.52	56.42	15.04	-33.0	-47.7	3.8	7.45e-01	0	43	104	251133952	27	19541
2026-01-27 09:56:24.54	55.94	15.10	-33.4	-49.4	3.8	7.46e-01	0	43	104	251133952	27	22634
2026-01-27 09:56:26.55	55.46	15.15	-33.6	-50.0	3.8	7.42e-01	0	43	104	251133952	28	23688
2026-01-27 09:56:28.56	54.97	15.21	-33.7	-50.6	3.8	7.45e-01	0	43	104	251133952	28	25091
2026-01-27 09:56:30.57	54.49	15.26	-33.8	-50.8	3.8	7.44e-01	0	43	104	251133952	28	25510
2026-01-27 09:56:32.58	54.00	15.32	-33.8	-51.2	3.8	7.48e-01	0	43	104	251133952	28	26453
2026-01-27 09:56:34.58	53.51	15.36	-33.9	-51.4	3.8	7.45e-01	0	43	104	251133952	28	27065
2026-01-27 09:56:36.59	53.02	15.41	-33.8	-50.8	3.8	7.44e-01	0	43	104	251133952	28	25585
2026-01-27 09:56:38.60	52.53	15.46	-33.4	-49.0	3.8	7.43e-01	0	43	104	251133952	28	21768
2026-01-27 09:56:40.59	52.04	15.50	-33.0	-47.4	3.8	7.44e-01	0	43	104	251133952	28	18810
2026-01-27 09:56:42.60	51.54	15.54	-32.9	-47.2	3.8	7.45e-01	0	43	104	251133952	28	18612
2026-01-27 09:56:44.61	51.04	15.58	-33.0	-47.5	3.8	7.48e-01	0	43	104	251133952	28	19030
2026-01-27 09:56:46.63	50.54	15.62	-33.0	-47.5	3.8	7.43e-01	0	43	104	251133952	28	19034
2026-01-27 09:56:48.63	50.04	15.66	-32.5	-45.8	3.8	7.47e-01	0	44	104	251133952	27	16620
2026-01-27 09:56:50.63	49.54	15.69	-32.0	-44.8	3.8	7.45e-01	0	44	104	251133952	26	15709
2026-01-27 09:56:52.63	49.04	15.72	-31.8	-44.7	3.8	7.48e-01	0	43	104	251133952	25	15868
2026-01-27 09:56:54.64	48.54	15.75	-32.3	-46.2	3.8	7.44e-01	0	43	104	251133952	25	17776
2026-01-27 09:56:56.65	48.03	15.78	-33.0	-48.1	3.8	7.43e-01	0	43	104	251133952	26	20534
2026-01-27 09:56:58.66	47.53	15.81	-32.7	-46.3	3.8	7.46e-01	0	43	104	251133952	27	17416
2026-01-27 09:57:00.68	47.02	15.83	-32.5	-45.7	3.8	7.45e-01	0	43	104	251133952	27	16464
2026-01-27 09:57:02.69	46.51	15.85	-32.8	-46.9	3.8	7.45e-01	0	44	104	251133952	27	18242
2026-01-27 09:57:04.70	46.00	15.87	-33.2	-48.4	3.8	7.44e-01	0	43	104	251133952	27	20732
2026-01-27 09:57:06.71	45.49	15.89	-32.9	-47.5	3.8	7.49e-01	0	43	104	251133952	27	19154
2026-01-27 09:57:08.72	44.98	15.90	-32.6	-46.3	3.8	7.44e-01	0	43	104	251133952	27	17439
2026-01-27 09:57:10.73	44.47	15.92	-32.3	-45.9	3.8	7.42e-01	0	43	104	251133952	26	17092
2026-01-27 09:57:12.74	43.96	15.93	-32.9	-47.9	3.8	7.45e-01	0	44	104	251133952	26	20235
2026-01-27 09:57:14.74	43.45	15.93	-33.4	-49.5	3.8	7.44e-01	0	43	104	251133952	27	22818
2026-01-27 09:57:16.75	42.94	15.94	-33.6	-50.2	3.8	7.47e-01	0	43	104	251133952	28	24288
2026-01-27 09:57:18.76	42.43	15.94	-33.7	-50.7	3.8	7.48e-01	0	44	104	251133952	28	25386
2026-01-27 09:57:20.77	41.92	15.95	-33.8	-51.1	3.8	7.46e-01	0	43	104	251133952	28	26279
2026-01-27 09:57:22.78	41.41	15.95	-33.7	-50.6	3.8	7.43e-01	0	44	104	251133952	28	25261
2026-01-27 09:57:24.79	40.89	15.94	-33.8	-51.0	3.8	7.44e-01	0	43	104	251133952	28	26066
2026-01-27 09:57:26.81	40.38	15.94	-33.6	-50.1	3.8	7.45e-01	0	43	104	251133952	28	24052
2026-01-27 09:57:28.81	39.87	15.93	-33.2	-48.2	3.8	7.43e-01	0	44	104	251133952	28	20353
2026-01-27 09:57:30.81	39.36	15.92	-32.9	-47.6	3.8	7.44e-01	0	43	104	251133952	27	19568
2026-01-27 09:57:32.82	38.85	15.91	-33.1	-48.1	3.8	7.44e-01	0	43	104	251133952	27	20223
2026-01-27 09:57:34.83	38.34	15.90	-33.3	-48.8	3.8	7.46e-01	0	43	104	251133952	27	21617
2026-01-27 09:57:36.84	37.84	15.88	-33.3	-48.8	3.8	7.44e-01	0	43	104	251133952	27	21624
2026-01-27 09:57:38.84	37.33	15.86	-32.9	-47.3	3.8	7.45e-01	0	44	104	251133952	27	18856
2026-01-27 09:57:40.85	36.82	15.84	-32.5	-45.9	3.8	7.39e-01	0	43	104	251133952	27	16802
2026-01-27 09:57:42.85	36.32	15.82	-32.5	-46.4	3.8	7.43e-01	0	44	104	251133952	26	17753
2026-01-27 09:57:44.85	35.81	15.80	-33.2	-48.4	3.8	7.46e-01	0	44	104	251133952	27	20756
2026-01-27 09:57:46.87	35.31	15.77	-32.7	-46.5	3.8	7.43e-01	0	43	104	251133952	27	17647
2026-01-27 09:57:48.88	34.80	15.74	-32.0	-44.6	3.8	7.45e-01	0	44	104	251133952	26	15436
2026-01-27 09:57:50.88	34.30	15.71	-31.9	-45.1	3.8	7.46e-01	0	43	104	251133952	25	16507
2026-01-27 09:57:52.89	33.80	15.68	-32.3	-46.4	3.8	7.44e-01	0	44	104	251133952	25	18154
2026-01-27 09:57:54.90	33.30	15.65	-32.8	-47.6	3.8	7.44e-01	0	43	104	251133952	26	19679
2026-01-27 09:57:56.90	32.80	15.61	-32.5	-46.5	3.8	7.45e-01	0	44	104	251133952	26	18026
2026-01-27 09:57:58.91	32.30	15.57	-32.3	-45.8	3.8	7.43e-01	0	44	104	251133952	26	17057
2026-01-27 09:58:00.92	31.81	15.53	-32.2	-45.5	3.8	7.41e-01	0	44	104	251133952	26	16660
2026-01-27 09:58:02.93	31.31	15.49	-32.9	-47.7	3.8	7.43e-01	0	43	104	251133952	26	19863
2026-01-27 09:58:04.94	30.82	15.44	-33.4	-49.3	3.8	7.48e-01	0	44	104	251133952	27	22462
2026-01-27 09:58:06.95	30.32	15.40	-33.6	-50.4	3.8	7.46e-01	0	44	104	251133952	28	24699
2026-01-27 09:58:08.96	29.83	15.35	-33.7	-50.7	3.8	7.44e-01	0	44	104	251133952	28	25494
2026-01-27 09:58:10.96	29.35	15.30	-33.7	-50.5	3.8	7.48e-01	0	44	104	251133952	28	24954
2026-01-27 09:58:12.97	28.86	15.25	-33.7	-50.4	3.8	7.43e-01	0	44	104	251133952	28	24683
2026-01-27 09:58:14.98	28.38	15.19	-33.7	-50.8	3.8	7.46e-01	0	44	104	251133952	28	25701
2026-01-27 09:58:16.99	27.89	15.14	-33.5	-49.8	3.8	7.43e-01	0	43	104	251133952	28	23349
2026-01-27 09:58:19.01	27.41	15.08	-33.2	-48.0	3.8	7.45e-01	0	44	104	251133952	28	19988
2026-01-27 09:58:21.01	26.93	15.02	-33.0	-47.5	3.8	7.45e-01	0	44	104	251133952	28	19164
2026-01-27 09:58:23.02	26.46	14.96	-33.2	-48.2	3.8	7.45e-01	0	44	104	251133952	28	20194
2026-01-27 09:58:25.03	25.98	14.90	-33.4	-49.2	3.8	7.45e-01	0	44	104	251133952	28	22068
2026-01-27 09:58:27.04	25.51	14.83	-33.5	-49.5	3.8	7.45e-01	0	44	104	251133952	28	22678
2026-01-27 09:58:29.06	25.04	14.77	-33.3	-48.7	3.8	7.43e-01	0	43	104	251133952	28	21130
2026-01-27 09:58:31.08	24.57	14.70	-33.1	-47.6	3.8	7.46e-01	0	44	104	251133952	28	19146
2026-01-27 09:58:33.08	24.10	14.63	-33.3	-48.4	3.8	7.43e-01	0	43	104	251133952	28	20612
2026-01-27 09:58:35.10	23.64	14.56	-32.7	-46.4	3.8	7.43e-01	0	43	104	251133952	27	17565
2026-01-27 09:58:37.11	23.18	14.49	-32.0	-44.7	3.8	7.45e-01	0	43	104	251133952	26	15639
2026-01-27 09:58:39.11	22.72	14.41	-31.4	-43.7	3.8	7.43e-01	0	44	104	251133952	25	14791
2026-01-27 09:58:41.11	22.27	14.34	-31.4	-44.1	3.8	7.42e-01	0	43	104	251133952	24	15503
2026-01-27 09:58:43.12	21.81	14.26	-32.0	-45.8	3.8	7.41e-01	0	44	104	251133952	24	17821
2026-01-27 09:58:45.13	21.36	14.18	-32.5	-47.1	3.8	7.44e-01	0	43	104	251133952	25	19296
2026-01-27 09:58:47.14	20.92	14.10	-32.2	-46.0	3.8	7.45e-01	0	44	104	251133952	25	17707
2026-01-27 09:58:49.15	20.47	14.02	-32.0	-45.5	3.8	7.44e-01	0	44	104	251133952	25	17015
2026-01-27 09:58:51.16	20.03	13.94	-32.0	-45.6	3.8	7.47e-01	0	44	104	251133952	25	17220
2026-01-27 09:58:53.17	19.59	13.86	-32.8	-47.8	3.8	7.47e-01	0	44	104	251133952	26	20122
2026-01-27 09:58:55.18	19.15	13.77	-33.4	-49.5	3.8	7.44e-01	0	44	104	251133952	27	22979
2026-01-27 09:58:57.19	18.72	13.68	-33.6	-50.4	3.8	7.47e-01	0	43	104	251133952	28	24744
2026-01-27 09:58:59.19	18.29	13.60	-33.6	-50.3	3.8	7.45e-01	0	44	104	251133952	28	24540
2026-01-27 09:59:01.20	17.86	13.51	-33.6	-50.2	3.8	7.46e-01	0	44	104	251133952	28	24282
2026-01-27 09:59:03.21	17.43	13.42	-33.6	-50.2	3.8	7.45e-01	0	44	104	251133952	28	24429
2026-01-27 09:59:05.21	17.01	13.33	-33.7	-50.7	3.8	7.44e-01	0	44	104	251133952	28	25479
2026-01-27 09:59:07.22	16.59	13.24	-33.5	-49.7	3.8	7.45e-01	0	44	104	251133952	28	23233
2026-01-27 09:59:09.23	16.17	13.15	-33.2	-48.5	3.8	7.44e-01	0	44	104	251133952	28	20973
2026-01-27 09:59:11.25	15.75	13.05	-33.3	-48.6	3.8	7.48e-01	0	44	104	251133952	28	21107
2026-01-27 09:59:13.26	15.34	12.96	-33.4	-49.3	3.8	7.46e-01	0	44	104	251133952	28	22330
2026-01-27 09:59:15.26	14.93	12.86	-33.5	-49.8	3.8	7.45e-01	0	44	104	251133952	28	23573
2026-01-27 09:59:17.27	14.53	12.76	-33.4	-49.3	3.8	7.48e-01	0	44	104	251133952	28	22321
2026-01-27 09:59:19.28	14.12	12.67	-33.3	-48.8	3.8	7.45e-01	0	44	104	251133952	28	21434
2026-01-27 09:59:21.28	13.73	12.57	-33.1	-48.0	3.8	7.47e-01	0	44	104	251133952	28	20080
2026-01-27 09:59:23.29	13.33	12.47	-32.7	-46.8	3.8	7.45e-01	0	44	104	251133952	27	18240
2026-01-27 09:59:25.29	12.94	12.37	-32.1	-45.3	3.8	7.43e-01	0	44	104	251133952	26	16477
2026-01-27 09:59:27.31	12.54	12.27	-31.5	-44.1	3.8	7.45e-01	0	44	104	251133952	25	15376
2026-01-27 09:59:29.32	12.15	12.17	-31.1	-43.3	3.8	7.45e-01	0	44	104	251133952	24	14755
2026-01-27 09:59:31.33	11.77	12.06	-31.2	-43.8	3.8	7.44e-01	0	44	104	251133952	24	15325
2026-01-27 09:59:33.33	11.39	11.96	-31.8	-45.2	3.8	7.46e-01	0	44	104	251133952	24	16986
2026-01-27 09:59:35.34	11.01	11.86	-32.3	-46.2	3.8	7.45e-01	0	44	104	251133952	25	17938
2026-01-27 09:59:37.35	10.63	11.75	-32.1	-45.6	3.8	7.43e-01	0	44	104	251133952	25	17194
2026-01-27 09:59:39.35	10.26	11.65	-32.0	-45.6	3.8	7.43e-01	0	44	104	251133952	25	17194
2026-01-27 09:59:41.36	9.89	11.54	-32.3	-46.4	3.8	7.43e-01	0	44	104	251133952	25	18348
2026-01-27 09:59:43.37	9.52	11.44	-32.9	-48.0	3.8	7.47e-01	0	43	104	251133952	26	20418
2026-01-27 09:59:45.38	9.15	11.33	-33.3	-49.3	3.8	7.46e-01	0	44	104	251133952	27	22708
2026-01-27 09:59:47.38	8.79	11.22	-33.6	-50.6	3.8	7.45e-01	0	43	104	251133952	27	25546
2026-01-27 09:59:49.40	8.43	11.11	-33.5	-50.1	3.8	7.45e-01	0	44	104	251133952	28	24306
2026-01-27 09:59:51.40	8.08	11.01	-33.5	-50.1	3.8	7.46e-01	0	44	104	251133952	28	24332
2026-01-27 09:59:53.41	7.72	10.90	-33.5	-50.2	3.8	7.45e-01	0	44	104	251133952	28	24566
2026-01-27 09:59:55.42	7.37	10.79	-33.6	-50.4	3.8	7.48e-01	0	44	104	251133952	28	24941
2026-01-27 09:59:57.43	7.02	10.68	-33.4	-49.8	3.8	7.42e-01	0	44	104	251133952	28	23664
2026-01-27 09:59:59.44	6.68	10.57	-33.3	-49.3	3.8	7.41e-01	0	44	104	251133952	28	22708
2026-01-27 10:00:01.45	6.34	10.46	-33.4	-49.4	3.8	7.47e-01	0	44	104	251133952	28	22942
2026-01-27 10:00:03.45	6.00	10.35	-33.4	-49.7	3.8	7.45e-01	0	44	104	251133952	28	23513
2026-01-27 10:00:05.45	5.66	10.24	-33.3	-49.3	3.8	7.43e-01	0	44	104	251133952	28	22700
2026-01-27 10:00:07.45	5.33	10.13	-33.1	-48.5	3.8	7.47e-01	0	44	104	251133952	28	21008
2026-01-27 10:00:09.46	5.00	10.01	-32.9	-47.2	3.8	7.44e-01	0	44	104	251133952	28	18856
2026-01-27 10:00:11.46	4.67	9.90	-32.7	-47.1	3.8	7.42e-01	0	44	104	251133952	27	18807
2026-01-27 10:00:13.47	4.35	9.79	-32.2	-46.0	3.8	7.44e-01	0	44	104	251133952	26	17596
2026-01-27 10:00:15.47	4.03	9.68	-31.7	-44.8	3.8	7.44e-01	0	44	104	251133952	25	16233
2026-01-27 10:00:17.48	3.71	9.56	-31.3	-43.9	3.8	7.44e-01	0	44	104	251133952	24	15372
2026-01-27 10:00:19.49	3.39	9.45	-31.1	-43.5	3.8	7.45e-01	0	44	104	251133952	24	14892
2026-01-27 10:00:21.50	3.08	9.34	-31.2	-43.9	3.8	7.43e-01	0	44	104	251133952	24	15480
2026-01-27 10:00:23.52	2.76	9.22	-31.7	-45.3	3.8	7.45e-01	0	44	104	251133952	24	17230
2026-01-27 10:00:25.53	2.45	9.11	-32.2	-46.3	3.8	7.42e-01	0	44	104	251133952	25	18269
2026-01-27 10:00:27.54	2.15	9.00	-32.1	-46.2	3.8	7.45e-01	0	44	104	251133952	25	18227
2026-01-27 10:00:29.54	1.85	8.88	-32.3	-46.8	3.8	7.46e-01	0	44	104	251133952	25	19165
2026-01-27 10:00:31.55	1.54	8.77	-32.6	-47.7	3.8	7.43e-01	0	44	104	251133952	25	20570
2026-01-27 10:00:33.56	1.25	8.65	-33.1	-49.3	3.8	7.44e-01	0	44	104	251133952	26	23453
2026-01-27 10:00:35.57	0.95	8.54	-33.3	-50.2	3.8	7.44e-01	0	44	104	251133952	27	25063
2026-01-27 10:00:37.58	0.66	8.42	-33.5	-51.0	3.8	7.44e-01	0	44	104	251133952	27	27210
2026-01-27 10:00:39.58	0.37	8.31	-33.5	-51.2	3.8	7.47e-01	0	44	104	251133952	27	27640
2026-01-27 10:00:41.58	0.08	8.20	-33.5	-51.3	3.8	7.43e-01	0	44	104	251133952	27	27956
2026-01-27 10:00:43.57	359.80	8.08	-33.5	-51.3	3.8	7.47e-01	0	43	104	251133952	27	28022
2026-01-27 10:00:45.59	359.51	7.97	-33.5	-51.4	3.8	7.46e-01	0	44	104	251133952	27	28275
2026-01-27 10:00:47.59	359.23	7.85	-33.4	-50.9	3.8	7.45e-01	0	44	104	251133952	27	27166
2026-01-27 10:00:49.60	358.96	7.74	-33.3	-50.7	3.8	7.48e-01	0	44	104	251133952	27	26643
2026-01-27 10:00:51.60	358.68	7.62	-33.4	-50.6	3.8	7.47e-01	0	44	104	251133952	27	26300
2026-01-27 10:00:53.61	358.41	7.51	-33.2	-49.8	3.8	7.43e-01	0	44	104	251133952	27	24336
2026-01-27 10:00:55.60	358.14	7.39	-33.1	-49.3	3.8	7.47e-01	0	44	104	251133952	27	23179
2026-01-27 10:00:57.62	357.87	7.28	-32.9	-48.2	3.8	7.46e-01	0	44	104	251133952	27	21015
2026-01-27 10:00:59.63	357.60	7.16	-32.6	-46.8	3.8	7.43e-01	0	44	104	251133952	27	18503
2026-01-27 10:01:01.64	357.34	7.05	-33.8	-52.4	3.8	7.44e-01	0	44	104	251133952	28	30557
2026-01-27 10:01:03.64	357.08	6.93	-34.4	-53.9	3.8	7.48e-01	0	44	104	251133952	29	33694

#Closed at: 2026-01-27 10:01:04
#Recorded file [251 MB]: D:/data/31010_260127_125343.dat