passes_logs/2026/01/27/R2M6_AANII_01/R2M6_AANII_01__20260127_100220_FENGYUN_3D_rec.log

#Pass ID: 20260127_100220_FENGYUN 3D
#Satellite: FENGYUN 3D
#Configuration: FENGYUN 3D
#almurnet v.1.7.20240730
#Start time: 2026-01-27 10:02:20

#Version: 2.2.20231116
#Station: R2M6_AANII_01
#Location: 30.233357 lon 59.946436 lat
#TLE: 1 43010U 17072A   26026.91415486  .00000072  00000+0  55983-4 0  9991
#TLE: 2 43010  98.9962 358.9161 0002508  89.0320 271.1142 14.19700283424949

#Time	Az	El	Level	Level2	SNR	BER	BlckErr	Temp	State	Recorded	gain1	gain2
2026-01-27 10:02:20.20	87.41	6.96	-30.9	-34.1	5.1	7.94e-01	0	44	0	0	23	5259
2026-01-27 10:02:23.20	87.08	7.13	-29.4	-32.0	11.1	2.29e-03	0	43	0	5242880	19	4848
2026-01-27 10:02:26.22	86.75	7.31	-29.3	-31.7	11.3	1.83e-03	0	44	0	22020096	19	4736
2026-01-27 10:02:29.23	86.42	7.48	-28.5	-30.2	12.6	2.10e-04	0	44	0	38797312	18	4371
2026-01-27 10:02:32.25	86.08	7.66	-27.7	-29.3	13.7	1.14e-05	0	44	0	56623104	16	4329
2026-01-27 10:02:35.25	85.74	7.83	-27.8	-29.4	13.7	9.10e-06	0	44	0	73400320	16	4363
2026-01-27 10:02:38.26	85.40	8.01	-27.6	-29.1	13.9	1.02e-05	0	44	0	90177536	16	4277
2026-01-27 10:02:41.27	85.05	8.19	-27.7	-29.3	13.8	9.10e-06	0	44	0	106954752	16	4315
2026-01-27 10:02:44.28	84.69	8.36	-27.8	-29.5	13.7	1.02e-05	0	44	0	123731968	16	4371
2026-01-27 10:02:47.29	84.33	8.54	-28.0	-29.9	13.4	2.51e-05	0	44	0	140509184	16	4483
2026-01-27 10:02:50.30	83.97	8.72	-27.6	-29.1	13.9	2.20e-06	0	44	0	157286400	16	4252
2026-01-27 10:02:53.30	83.60	8.89	-27.6	-28.9	14.1	4.50e-06	0	44	0	175112192	16	4203
2026-01-27 10:02:56.31	83.23	9.07	-27.1	-28.3	14.5	1.10e-06	0	44	0	191889408	15	4162
2026-01-27 10:02:59.33	82.85	9.25	-27.0	-28.2	14.6	1.10e-06	0	44	0	208666624	15	4135
2026-01-27 10:03:02.33	82.47	9.42	-26.9	-28.0	14.8	0.00e+00	0	44	0	225443840	15	4072
2026-01-27 10:03:05.35	82.09	9.60	-26.8	-27.7	14.9	1.10e-06	0	44	0	242221056	15	3991
2026-01-27 10:03:08.37	81.70	9.78	-26.9	-28.5	14.8	1.10e-06	0	44	0	258998272	14	4323
2026-01-27 10:03:11.38	81.30	9.95	-27.2	-29.2	14.4	0.00e+00	0	44	0	275775488	14	4505
2026-01-27 10:03:14.40	80.90	10.13	-27.2	-29.1	14.4	0.00e+00	0	44	0	293601280	14	4480
2026-01-27 10:03:17.41	80.49	10.31	-27.2	-29.2	14.4	2.20e-06	0	44	0	310378496	14	4506
2026-01-27 10:03:20.42	80.08	10.48	-26.9	-28.4	14.8	0.00e+00	0	44	0	327155712	14	4294
2026-01-27 10:03:23.42	79.67	10.66	-27.0	-28.5	14.8	1.10e-06	0	44	0	343932928	14	4324
2026-01-27 10:03:26.43	79.25	10.84	-26.9	-28.4	14.9	0.00e+00	0	44	0	360710144	14	4274
2026-01-27 10:03:29.43	78.82	11.01	-26.8	-28.1	15.1	0.00e+00	0	44	0	377487360	14	4200
2026-01-27 10:03:32.43	78.39	11.19	-26.7	-27.9	15.2	0.00e+00	0	44	0	394264576	14	4149
2026-01-27 10:03:35.44	77.96	11.36	-26.8	-28.2	15.1	1.10e-06	0	44	0	411041792	14	4228
2026-01-27 10:03:38.45	77.51	11.54	-26.7	-27.9	15.2	0.00e+00	0	44	0	428867584	14	4143
2026-01-27 10:03:41.46	77.07	11.71	-26.6	-27.8	15.3	0.00e+00	0	44	0	445644800	14	4110
2026-01-27 10:03:44.47	76.61	11.89	-26.5	-27.5	15.4	0.00e+00	0	44	0	462422016	14	4054
2026-01-27 10:03:47.49	76.16	12.06	-26.5	-27.5	15.4	0.00e+00	0	44	0	479199232	14	4052
2026-01-27 10:03:50.49	75.69	12.23	-26.3	-27.1	15.7	0.00e+00	0	44	0	495976448	14	3946
2026-01-27 10:03:53.50	75.22	12.40	-26.5	-27.5	15.5	0.00e+00	0	44	0	513802240	14	4044
2026-01-27 10:03:56.52	74.75	12.58	-26.6	-27.8	15.3	0.00e+00	0	44	0	530579456	14	4105
2026-01-27 10:03:59.53	74.27	12.75	-26.7	-28.1	15.2	0.00e+00	0	44	0	547356672	14	4189
2026-01-27 10:04:02.53	73.78	12.92	-26.5	-27.4	15.5	0.00e+00	0	44	0	564133888	14	4028
2026-01-27 10:04:05.55	73.29	13.09	-26.1	-27.2	16.0	0.00e+00	0	44	0	580911104	13	4066
2026-01-27 10:04:08.55	72.79	13.25	-26.1	-27.1	16.0	0.00e+00	0	44	0	597688320	13	4053
2026-01-27 10:04:11.57	72.29	13.42	-25.7	-26.8	16.5	0.00e+00	0	44	0	614465536	12	4074
2026-01-27 10:04:14.57	71.78	13.59	-25.9	-27.1	16.3	0.00e+00	0	44	0	631242752	12	4143
2026-01-27 10:04:17.57	71.27	13.75	-25.9	-27.1	16.3	0.00e+00	0	44	0	649068544	12	4157
2026-01-27 10:04:20.60	70.75	13.92	-26.0	-27.2	16.3	0.00e+00	0	44	0	665845760	12	4163
2026-01-27 10:04:23.61	70.22	14.08	-26.1	-27.5	16.2	0.00e+00	0	44	0	682622976	12	4244
2026-01-27 10:04:26.61	69.69	14.24	-25.9	-27.0	16.5	0.00e+00	0	44	0	699400192	12	4104
2026-01-27 10:04:29.63	69.15	14.40	-25.9	-27.0	16.5	0.00e+00	0	44	0	716177408	12	4113
2026-01-27 10:04:32.64	68.61	14.56	-26.0	-27.3	16.3	0.00e+00	0	44	0	732954624	12	4183
2026-01-27 10:04:35.66	68.06	14.71	-25.9	-27.1	16.4	0.00e+00	0	44	0	750780416	12	4136
2026-01-27 10:04:38.67	67.50	14.87	-25.7	-26.7	16.7	0.00e+00	0	44	0	767557632	12	4023
2026-01-27 10:04:41.69	66.94	15.02	-25.8	-26.8	16.7	0.00e+00	0	44	0	784334848	12	4058
2026-01-27 10:04:44.71	66.37	15.17	-25.9	-27.1	16.5	0.00e+00	0	44	0	801112064	12	4138
2026-01-27 10:04:47.72	65.80	15.32	-25.9	-27.0	16.5	0.00e+00	0	44	0	817889280	12	4108
2026-01-27 10:04:50.73	65.22	15.47	-25.8	-26.9	16.7	0.00e+00	0	44	0	834666496	12	4067
2026-01-27 10:04:53.74	64.63	15.62	-25.6	-26.4	16.9	0.00e+00	0	44	0	851443712	12	3952
2026-01-27 10:04:56.76	64.04	15.76	-25.6	-26.3	17.0	0.00e+00	0	44	0	869269504	12	3938
2026-01-27 10:04:59.77	63.44	15.90	-25.5	-26.2	17.1	0.00e+00	0	44	0	886046720	12	3905
2026-01-27 10:05:02.78	62.84	16.04	-25.6	-26.3	17.0	0.00e+00	0	44	0	902823936	12	3934
2026-01-27 10:05:05.78	62.24	16.17	-25.6	-26.4	17.0	0.00e+00	0	44	0	919601152	12	3962
2026-01-27 10:05:08.79	61.63	16.31	-25.4	-25.9	17.3	0.00e+00	0	44	0	936378368	12	3828
2026-01-27 10:05:11.80	61.01	16.44	-25.3	-26.3	17.4	0.00e+00	0	44	0	954204160	11	4023
2026-01-27 10:05:14.81	60.38	16.57	-25.4	-26.4	17.4	0.00e+00	0	44	0	970981376	11	4047
2026-01-27 10:05:17.82	59.76	16.69	-25.4	-26.4	17.3	0.00e+00	0	44	0	987758592	11	4058
2026-01-27 10:05:20.83	59.12	16.81	-25.3	-26.2	17.4	0.00e+00	0	44	0	1004535808	11	4001
2026-01-27 10:05:23.82	58.49	16.93	-25.3	-26.3	17.4	0.00e+00	0	44	0	1021313024	11	4015
2026-01-27 10:05:26.84	57.84	17.05	-24.8	-25.3	18.0	0.00e+00	0	44	0	1038090240	11	3783
2026-01-27 10:05:29.84	57.20	17.16	-25.0	-25.7	17.8	0.00e+00	0	44	0	1054867456	11	3873
2026-01-27 10:05:32.85	56.54	17.27	-25.1	-25.9	17.6	0.00e+00	0	44	0	1072693248	11	3934
2026-01-27 10:05:35.86	55.88	17.38	-25.3	-26.2	17.5	0.00e+00	0	44	0	1089470464	11	4012
2026-01-27 10:05:38.87	55.22	17.48	-25.4	-26.5	17.4	0.00e+00	0	44	0	1106247680	11	4066
2026-01-27 10:05:41.88	54.55	17.58	-25.0	-25.6	17.8	0.00e+00	0	44	0	1123024896	11	3856
2026-01-27 10:05:44.89	53.88	17.67	-25.1	-25.9	17.7	0.00e+00	0	44	0	1139802112	11	3918
2026-01-27 10:05:47.89	53.21	17.77	-25.1	-25.8	17.7	0.00e+00	0	44	0	1156579328	11	3910
2026-01-27 10:05:50.90	52.53	17.85	-25.1	-25.8	17.7	0.00e+00	0	44	0	1173356544	11	3910
2026-01-27 10:05:53.91	51.84	17.94	-25.0	-25.6	17.8	0.00e+00	0	44	0	1190133760	11	3845
2026-01-27 10:05:56.91	51.16	18.02	-24.8	-25.6	18.1	0.00e+00	0	44	0	1207959552	10	3963
2026-01-27 10:05:59.91	50.47	18.09	-24.8	-25.7	18.0	0.00e+00	0	44	0	1224736768	10	3983
2026-01-27 10:06:02.92	49.77	18.17	-24.7	-25.4	18.2	0.00e+00	0	44	0	1241513984	10	3910
2026-01-27 10:06:05.93	49.08	18.23	-24.7	-25.4	18.2	0.00e+00	0	44	0	1258291200	10	3915
2026-01-27 10:06:08.94	48.38	18.30	-24.7	-25.5	18.1	0.00e+00	0	44	0	1275068416	10	3937
2026-01-27 10:06:11.95	47.67	18.36	-24.6	-25.2	18.3	0.00e+00	0	44	0	1291845632	10	3877
2026-01-27 10:06:14.97	46.96	18.41	-24.5	-25.0	18.4	0.00e+00	0	44	0	1308622848	10	3815
2026-01-27 10:06:17.98	46.25	18.46	-24.7	-25.5	18.2	0.00e+00	0	44	0	1325400064	10	3943
2026-01-27 10:06:20.99	45.54	18.51	-24.7	-25.5	18.1	0.00e+00	0	44	0	1343225856	10	3951
2026-01-27 10:06:24.00	44.83	18.55	-24.9	-25.8	18.0	0.00e+00	0	44	0	1360003072	10	4015
2026-01-27 10:06:27.01	44.12	18.59	-24.7	-25.5	18.1	0.00e+00	0	44	0	1376780288	10	3945
2026-01-27 10:06:30.02	43.40	18.62	-24.9	-25.9	17.9	0.00e+00	0	44	0	1393557504	10	4042
2026-01-27 10:06:33.03	42.68	18.65	-24.4	-24.9	18.4	0.00e+00	0	44	0	1410334720	10	3805
2026-01-27 10:06:36.03	41.96	18.67	-24.3	-24.7	18.6	0.00e+00	0	44	0	1427111936	10	3745
2026-01-27 10:06:39.04	41.24	18.69	-24.6	-25.3	18.3	0.00e+00	0	44	0	1443889152	10	3883
2026-01-27 10:06:42.06	40.52	18.71	-24.7	-25.5	18.1	0.00e+00	0	44	0	1461714944	10	3937
2026-01-27 10:06:45.07	39.80	18.72	-24.6	-25.3	18.2	0.00e+00	0	44	0	1478492160	10	3895
2026-01-27 10:06:48.08	39.08	18.72	-24.7	-25.5	18.1	0.00e+00	0	44	0	1495269376	10	3938
2026-01-27 10:06:51.08	38.36	18.72	-24.7	-25.6	18.1	0.00e+00	0	44	0	1512046592	10	3954
2026-01-27 10:06:54.09	37.64	18.72	-24.7	-25.6	18.1	0.00e+00	0	44	0	1528823808	10	3960
2026-01-27 10:06:57.10	36.92	18.71	-24.7	-25.4	18.1	0.00e+00	0	44	0	1545601024	10	3921
2026-01-27 10:07:00.11	36.19	18.69	-24.3	-24.7	18.5	0.00e+00	0	44	0	1563426816	10	3759
2026-01-27 10:07:03.12	35.47	18.67	-24.3	-25.0	18.6	0.00e+00	0	44	0	1580204032	9	3933
2026-01-27 10:07:06.12	34.76	18.65	-24.2	-24.9	18.7	0.00e+00	0	44	0	1596981248	9	3904
2026-01-27 10:07:09.13	34.04	18.62	-24.4	-25.3	18.4	0.00e+00	0	44	0	1613758464	9	4005
2026-01-27 10:07:12.13	33.33	18.59	-24.6	-25.8	18.2	0.00e+00	0	44	0	1630535680	9	4129
2026-01-27 10:07:15.14	32.61	18.55	-24.6	-25.7	18.2	0.00e+00	0	44	0	1647312896	9	4111
2026-01-27 10:07:18.15	31.90	18.51	-24.5	-25.6	18.3	0.00e+00	0	44	0	1664090112	9	4078
2026-01-27 10:07:21.15	31.19	18.46	-24.4	-25.4	18.4	0.00e+00	0	44	0	1680867328	9	4017
2026-01-27 10:07:24.16	30.48	18.41	-24.6	-25.8	18.2	0.00e+00	0	44	0	1698693120	9	4119
2026-01-27 10:07:27.17	29.78	18.36	-24.7	-25.9	18.2	0.00e+00	0	44	0	1715470336	9	4144
2026-01-27 10:07:30.18	29.08	18.30	-24.5	-25.6	18.3	0.00e+00	0	44	0	1732247552	9	4084
2026-01-27 10:07:33.20	28.37	18.23	-24.5	-25.6	18.3	0.00e+00	0	44	0	1749024768	9	4082
2026-01-27 10:07:36.21	27.68	18.17	-24.8	-26.2	18.0	0.00e+00	0	44	0	1765801984	9	4218
2026-01-27 10:07:39.23	26.98	18.09	-25.1	-26.4	17.6	0.00e+00	0	44	0	1782579200	10	4154
2026-01-27 10:07:42.23	26.29	18.02	-24.7	-25.4	18.2	0.00e+00	0	44	0	1799356416	10	3912
2026-01-27 10:07:45.24	25.61	17.94	-24.9	-25.9	17.9	0.00e+00	0	44	0	1816133632	10	4041
2026-01-27 10:07:48.26	24.92	17.85	-24.5	-25.0	18.3	0.00e+00	0	44	0	1833959424	10	3821
2026-01-27 10:07:51.28	24.24	17.76	-25.0	-26.0	17.8	0.00e+00	0	44	0	1850736640	10	4067
2026-01-27 10:07:54.28	23.57	17.67	-25.0	-26.1	17.8	0.00e+00	0	44	0	1867513856	10	4081
2026-01-27 10:07:57.30	22.90	17.58	-24.9	-25.9	17.8	0.00e+00	0	44	0	1884291072	10	4044
2026-01-27 10:08:00.31	22.23	17.48	-24.7	-25.5	18.0	0.00e+00	0	44	0	1901068288	10	3939
2026-01-27 10:08:03.31	21.57	17.37	-24.8	-25.8	17.9	0.00e+00	0	44	0	1918894080	10	4009
2026-01-27 10:08:06.31	20.92	17.27	-25.0	-26.0	17.7	0.00e+00	0	44	0	1935671296	10	4071
2026-01-27 10:08:09.32	20.26	17.16	-25.1	-26.3	17.6	0.00e+00	0	44	0	1952448512	10	4128
2026-01-27 10:08:12.32	19.62	17.05	-24.8	-25.7	17.9	0.00e+00	0	44	0	1969225728	10	3997
2026-01-27 10:08:15.33	18.98	16.93	-25.2	-26.5	17.5	0.00e+00	0	44	0	1986002944	10	4195
2026-01-27 10:08:18.34	18.34	16.81	-25.5	-26.6	17.2	0.00e+00	0	44	0	2002780160	11	4098
2026-01-27 10:08:21.36	17.71	16.69	-25.3	-26.3	17.4	0.00e+00	0	44	0	2019557376	11	4035
2026-01-27 10:08:24.37	17.08	16.56	-25.6	-26.8	17.1	0.00e+00	0	44	0	2037383168	11	4164
2026-01-27 10:08:27.38	16.46	16.44	-25.0	-25.7	17.6	0.00e+00	0	44	0	2054160384	11	3882
2026-01-27 10:08:30.39	15.84	16.31	-25.2	-26.0	17.5	0.00e+00	0	44	0	2070937600	11	3964
2026-01-27 10:08:33.41	15.23	16.17	-25.6	-26.9	17.0	0.00e+00	0	44	0	2087714816	11	4173
2026-01-27 10:08:36.42	14.62	16.04	-25.7	-27.2	16.8	0.00e+00	0	44	0	2104492032	11	4259
2026-01-27 10:08:39.43	14.03	15.90	-25.6	-26.9	16.9	0.00e+00	0	44	0	2121269248	11	4190
2026-01-27 10:08:42.43	13.43	15.76	-25.5	-26.8	17.1	0.00e+00	0	44	0	2138046464	11	4150
2026-01-27 10:08:45.44	12.85	15.62	-25.6	-26.9	17.0	0.00e+00	0	44	0	2154823680	11	4189
2026-01-27 10:08:48.44	12.27	15.47	-25.6	-26.9	17.0	0.00e+00	0	44	0	2172649472	11	4186
2026-01-27 10:08:51.45	11.69	15.32	-25.4	-26.6	17.1	0.00e+00	0	44	0	2189426688	11	4096
2026-01-27 10:08:54.47	11.12	15.17	-25.5	-26.7	17.0	0.00e+00	0	44	0	2206203904	11	4142
2026-01-27 10:08:57.48	10.55	15.02	-25.6	-26.9	16.9	0.00e+00	0	44	0	2222981120	11	4195
2026-01-27 10:09:00.50	9.99	14.87	-25.6	-27.0	16.8	0.00e+00	0	44	0	2239758336	11	4265
2026-01-27 10:09:03.51	9.44	14.72	-25.2	-26.4	17.0	0.00e+00	0	44	0	2257584128	11	4144
2026-01-27 10:09:06.52	8.89	14.56	-25.4	-26.8	16.8	0.00e+00	0	44	0	2274361344	11	4239
2026-01-27 10:09:09.54	8.35	14.40	-25.4	-26.6	17.1	0.00e+00	0	44	0	2291138560	11	4119
2026-01-27 10:09:12.56	7.81	14.24	-25.6	-26.9	16.9	0.00e+00	0	44	0	2307915776	11	4200
2026-01-27 10:09:15.58	7.28	14.08	-25.9	-27.6	16.5	0.00e+00	0	44	0	2324692992	11	4386
2026-01-27 10:09:18.59	6.75	13.92	-25.8	-27.4	16.6	0.00e+00	0	44	0	2341470208	11	4306
2026-01-27 10:09:21.60	6.24	13.75	-25.8	-27.4	16.6	0.00e+00	0	44	0	2359296000	11	4312
2026-01-27 10:09:24.62	5.72	13.59	-25.8	-27.4	16.6	0.00e+00	0	44	0	2376073216	11	4317
2026-01-27 10:09:27.65	5.21	13.42	-25.7	-27.2	16.7	0.00e+00	0	44	0	2392850432	11	4273
2026-01-27 10:09:30.65	4.71	13.26	-25.9	-27.2	16.3	0.00e+00	0	44	0	2409627648	12	4157
2026-01-27 10:09:33.66	4.22	13.09	-26.1	-27.5	16.2	0.00e+00	0	44	0	2426404864	12	4251
2026-01-27 10:09:36.67	3.73	12.92	-26.2	-27.7	16.0	0.00e+00	0	44	0	2443182080	12	4290
2026-01-27 10:09:39.68	3.25	12.75	-26.3	-28.1	15.8	0.00e+00	0	44	0	2459959296	12	4390
2026-01-27 10:09:42.69	2.77	12.58	-26.5	-28.4	15.6	0.00e+00	0	44	0	2477785088	12	4484
2026-01-27 10:09:45.71	2.29	12.41	-26.0	-26.9	16.2	0.00e+00	0	44	0	2494562304	13	3981
2026-01-27 10:09:48.72	1.83	12.24	-26.2	-27.2	16.0	0.00e+00	0	44	0	2511339520	13	4055
2026-01-27 10:09:51.73	1.37	12.06	-26.4	-27.6	15.8	0.00e+00	0	44	0	2528116736	13	4165
2026-01-27 10:09:54.74	0.91	11.89	-26.4	-27.6	15.8	0.00e+00	0	44	0	2544893952	13	4152
2026-01-27 10:09:57.75	0.46	11.72	-26.5	-27.9	15.6	0.00e+00	0	44	0	2562719744	13	4238
2026-01-27 10:10:00.76	0.02	11.54	-26.5	-28.0	15.6	0.00e+00	0	44	0	2579496960	13	4254
2026-01-27 10:10:03.77	359.58	11.37	-26.4	-27.6	15.7	0.00e+00	0	44	0	2596274176	13	4165
2026-01-27 10:10:06.78	359.14	11.19	-26.5	-27.8	15.6	0.00e+00	0	44	0	2613051392	13	4220
2026-01-27 10:10:09.79	358.71	11.02	-26.5	-28.0	15.5	0.00e+00	0	44	0	2629828608	13	4253
2026-01-27 10:10:12.80	358.29	10.84	-26.4	-27.6	15.7	0.00e+00	0	44	0	2646605824	13	4163
2026-01-27 10:10:15.82	357.87	10.67	-26.4	-27.8	15.6	0.00e+00	0	44	0	2663383040	13	4200
2026-01-27 10:10:18.84	357.46	10.49	-26.8	-28.6	15.2	0.00e+00	0	44	0	2680160256	13	4431
2026-01-27 10:10:21.85	357.05	10.31	-26.9	-28.3	15.0	0.00e+00	0	44	0	2697986048	14	4224
2026-01-27 10:10:24.86	356.65	10.14	-27.0	-28.6	14.8	1.10e-06	0	44	0	2714763264	14	4316
2026-01-27 10:10:27.86	356.25	9.96	-27.2	-29.1	14.5	0.00e+00	0	44	0	2731540480	14	4454
2026-01-27 10:10:30.87	355.86	9.79	-26.9	-28.4	14.9	1.10e-06	0	44	0	2748317696	14	4274
2026-01-27 10:10:33.88	355.47	9.61	-27.0	-28.5	14.8	1.10e-06	0	44	0	2765094912	14	4288
2026-01-27 10:10:36.90	355.08	9.43	-26.9	-28.2	15.0	1.10e-06	0	44	0	2781872128	14	4222
2026-01-27 10:10:39.90	354.71	9.26	-26.8	-28.2	15.0	0.00e+00	0	44	0	2799697920	14	4222
2026-01-27 10:10:42.90	354.33	9.08	-27.0	-28.6	14.8	0.00e+00	0	44	0	2816475136	14	4320
2026-01-27 10:10:45.93	353.96	8.90	-27.0	-28.5	14.8	2.20e-06	0	44	0	2833252352	14	4294
2026-01-27 10:10:48.94	353.60	8.73	-27.2	-28.9	14.5	2.20e-06	0	44	0	2850029568	14	4422
2026-01-27 10:10:51.95	353.24	8.55	-27.2	-29.1	14.4	1.10e-06	0	44	0	2866806784	14	4454
2026-01-27 10:10:54.97	352.88	8.37	-27.2	-29.0	14.5	1.10e-06	0	44	0	2883584000	14	4424
2026-01-27 10:10:57.98	352.53	8.20	-27.3	-29.3	14.3	1.10e-06	0	44	0	2900361216	14	4522
2026-01-27 10:11:00.98	352.18	8.02	-27.4	-29.4	14.1	1.10e-06	0	44	0	2918187008	14	4571
2026-01-27 10:11:04.00	351.84	7.85	-27.3	-28.8	14.2	4.50e-06	0	44	0	2934964224	15	4281
2026-01-27 10:11:07.01	351.50	7.67	-27.5	-29.2	14.0	8.00e-06	0	44	0	2951741440	15	4373
2026-01-27 10:11:10.03	351.16	7.50	-27.5	-29.3	13.9	5.70e-06	0	44	0	2968518656	15	4410
2026-01-27 10:11:13.03	350.83	7.32	-27.7	-29.7	13.7	1.60e-05	0	44	0	2985295872	15	4531
2026-01-27 10:11:16.04	350.51	7.15	-27.4	-28.9	14.1	6.80e-06	0	44	0	3002073088	15	4314
2026-01-27 10:11:19.05	350.19	6.97	-33.8	-44.7	3.8	8.46e-01	0	44	104	3010461696	27	12665

#Closed at: 2026-01-27 10:11:21
#Recorded file [3010 MB]: D:/data/31010_260127_130222.dat