passes_logs/2026/01/27/R2M6_AANII_01/R2M6_AANII_01__20260127_231148_NOAA_20_JPSS-1_rec.log

#Pass ID: 20260127_231148_NOAA 20 (JPSS-1)
#Satellite: NOAA 20 (JPSS-1)
#Configuration: NOAA 20
#almurnet v.1.7.20240730
#Start time: 2026-01-27 23:11:48

#Version: 2.2.20231116
#Station: R2M6_AANII_01
#Location: 30.233357 lon 59.946436 lat
#TLE: 1 43013U 17073A   26027.45344144  .00000161  00000+0  97205-4 0  9999
#TLE: 2 43013  98.7647 328.2621 0000962  21.7793 338.3424 14.19541101424503

#Time	Az	El	Level	Level2	SNR	BER	BlckErr	Temp	State	Recorded	gain1	gain2
2026-01-27 23:11:48.97	25.61	7.00	-31.8	-37.5	5.2	1.22e+00	0	40	0	0	23	6980
2026-01-27 23:11:51.98	25.82	7.21	-32.4	-40.1	6.5	1.92e-01	0	40	0	1048576	24	8677
2026-01-27 23:11:54.98	26.03	7.43	-32.0	-37.8	8.3	5.47e-02	0	41	0	7340032	24	6991
2026-01-27 23:11:57.99	26.24	7.64	-31.5	-36.0	10.2	9.92e-03	0	41	0	12582912	23	6096
2026-01-27 23:12:00.99	26.45	7.85	-31.2	-35.5	10.9	2.90e-03	0	41	0	17825792	22	5939
2026-01-27 23:12:04.01	26.67	8.07	-31.1	-35.3	11.1	1.52e-03	0	41	0	24117248	22	5831
2026-01-27 23:12:07.01	26.89	8.29	-31.0	-35.4	11.4	1.09e-03	0	41	0	29360128	21	5991
2026-01-27 23:12:10.02	27.12	8.51	-31.1	-35.1	11.3	1.07e-03	0	41	0	35651584	22	5744
2026-01-27 23:12:13.02	27.34	8.73	-31.2	-35.5	11.1	1.17e-03	0	41	0	40894464	22	5898
2026-01-27 23:12:16.02	27.57	8.95	-30.9	-35.0	11.8	7.83e-04	0	41	0	46137344	21	5796
2026-01-27 23:12:18.94	27.80	9.16	-30.8	-34.8	12.0	6.63e-04	0	41	0	52428800	21	5688
2026-01-27 23:12:21.94	28.04	9.39	-30.6	-34.2	12.4	1.31e-04	0	41	0	57671680	21	5441
2026-01-27 23:12:24.96	28.28	9.62	-30.5	-33.9	12.6	9.91e-05	0	42	0	62914560	21	5299
2026-01-27 23:12:27.97	28.52	9.85	-30.7	-34.5	12.2	1.58e-04	0	42	0	69206016	21	5572
2026-01-27 23:12:30.98	28.77	10.08	-30.5	-34.2	12.9	3.93e-04	0	42	0	74448896	20	5515
2026-01-27 23:12:33.98	29.02	10.31	-30.4	-34.0	12.9	4.20e-04	0	42	0	80740352	20	5458
2026-01-27 23:12:37.00	29.27	10.54	-30.3	-33.8	12.8	4.39e-04	0	42	0	85983232	20	5379
2026-01-27 23:12:40.01	29.53	10.78	-30.4	-34.0	12.8	4.32e-04	0	42	0	91226112	20	5439
2026-01-27 23:12:43.02	29.80	11.02	-30.4	-34.0	13.0	4.13e-04	0	42	0	97517568	20	5454
2026-01-27 23:12:46.03	30.06	11.26	-30.4	-34.0	13.0	3.71e-04	0	42	0	102760448	20	5448
2026-01-27 23:12:49.02	30.33	11.50	-30.7	-34.2	12.6	4.52e-04	0	42	0	109051904	21	5414
2026-01-27 23:12:52.04	30.61	11.74	-30.3	-33.7	13.3	3.81e-04	0	42	0	114294784	20	5313
2026-01-27 23:12:55.04	30.89	11.98	-30.2	-33.4	13.5	3.35e-04	0	42	0	119537664	20	5183
2026-01-27 23:12:58.05	31.17	12.23	-30.3	-33.6	13.4	2.88e-04	0	42	0	125829120	20	5277
2026-01-27 23:13:01.04	31.46	12.48	-30.4	-33.8	13.2	5.62e-04	0	42	0	131072000	20	5365
2026-01-27 23:13:04.06	31.76	12.73	-30.3	-33.6	13.4	4.27e-05	0	42	0	136314880	20	5266
2026-01-27 23:13:07.07	32.05	12.98	-30.4	-34.0	13.2	1.90e-05	0	42	0	142606336	20	5414
2026-01-27 23:13:10.08	32.36	13.24	-30.2	-33.3	13.6	5.56e-05	0	42	0	147849216	20	5137
2026-01-27 23:13:13.09	32.67	13.49	-30.1	-33.1	13.8	1.05e-04	0	42	0	154140672	20	5064
2026-01-27 23:13:16.10	32.98	13.75	-30.1	-33.1	13.8	2.46e-04	0	42	0	159383552	20	5063
2026-01-27 23:13:19.11	33.30	14.01	-30.3	-33.6	13.4	3.05e-04	0	42	0	164626432	20	5254
2026-01-27 23:13:22.12	33.62	14.27	-30.3	-33.7	13.5	2.21e-04	0	42	0	170917888	20	5280
2026-01-27 23:13:25.14	33.95	14.54	-30.6	-33.9	13.0	2.22e-04	0	42	0	176160768	21	5261
2026-01-27 23:13:28.14	34.29	14.81	-30.4	-33.4	13.3	1.89e-04	0	42	0	181403648	21	5083
2026-01-27 23:13:31.14	34.63	15.07	-30.6	-33.8	13.0	2.55e-04	0	42	0	187695104	21	5226
2026-01-27 23:13:34.14	34.98	15.34	-30.6	-33.7	13.1	1.38e-04	0	43	0	192937984	21	5191
2026-01-27 23:13:37.14	35.33	15.61	-30.8	-34.4	12.7	7.09e-05	0	42	0	199229440	21	5461
2026-01-27 23:13:40.14	35.69	15.89	-30.9	-34.2	12.5	1.34e-04	0	43	0	204472320	22	5281
2026-01-27 23:13:43.15	36.05	16.17	-30.8	-33.8	12.9	5.49e-05	0	42	0	209715200	22	5105
2026-01-27 23:13:46.16	36.43	16.44	-30.8	-34.0	12.7	9.30e-05	0	43	0	216006656	22	5170
2026-01-27 23:13:49.16	36.80	16.73	-31.1	-34.6	12.3	1.94e-04	0	42	0	221249536	22	5437
2026-01-27 23:13:52.17	37.19	17.01	-31.0	-34.6	12.4	1.42e-04	0	43	0	226492416	22	5405
2026-01-27 23:13:55.18	37.59	17.29	-30.9	-34.0	12.8	8.01e-05	0	42	0	232783872	22	5181
2026-01-27 23:13:58.19	37.99	17.58	-30.9	-34.1	12.7	7.01e-05	0	43	0	238026752	22	5208
2026-01-27 23:14:01.21	38.40	17.87	-31.0	-34.3	12.5	1.17e-04	0	43	0	244318208	22	5303
2026-01-27 23:14:04.21	38.81	18.16	-31.0	-34.3	12.7	1.55e-04	0	43	0	249561088	22	5284
2026-01-27 23:14:07.21	39.23	18.45	-30.8	-33.8	13.0	5.49e-05	0	42	0	254803968	22	5088
2026-01-27 23:14:10.23	39.67	18.75	-30.8	-33.8	13.0	3.73e-05	0	43	0	261095424	22	5098
2026-01-27 23:14:13.23	40.10	19.05	-30.8	-33.7	13.1	3.05e-05	0	43	0	266338304	22	5040
2026-01-27 23:14:16.25	40.55	19.35	-30.7	-33.5	13.2	3.28e-05	0	42	0	272629760	22	4969
2026-01-27 23:14:19.26	41.01	19.65	-30.6	-33.1	13.4	1.37e-05	0	43	0	277872640	22	4830
2026-01-27 23:14:22.26	41.48	19.95	-30.6	-33.3	13.4	1.83e-05	0	43	0	283115520	22	4892
2026-01-27 23:14:25.27	41.95	20.26	-30.6	-33.7	13.4	1.90e-05	0	42	0	289406976	21	5155
2026-01-27 23:14:28.28	42.44	20.57	-30.3	-33.4	13.9	3.80e-06	0	43	0	294649856	20	5151
2026-01-27 23:14:31.28	42.93	20.87	-30.2	-33.2	14.1	7.00e-07	0	43	0	299892736	20	5070
2026-01-27 23:14:34.28	43.43	21.18	-30.2	-33.2	14.1	0.00e+00	0	43	0	306184192	20	5057
2026-01-27 23:14:37.29	43.94	21.50	-29.9	-32.4	14.6	7.00e-07	0	43	0	311427072	20	4791
2026-01-27 23:14:40.30	44.47	21.81	-29.8	-32.0	14.9	0.00e+00	0	43	0	317718528	20	4641
2026-01-27 23:14:43.31	45.00	22.12	-30.0	-32.5	14.5	0.00e+00	0	43	0	322961408	20	4824
2026-01-27 23:14:46.32	45.55	22.44	-29.9	-32.7	14.8	7.00e-07	0	43	0	328204288	19	4985
2026-01-27 23:14:49.34	46.10	22.76	-29.4	-31.2	15.4	0.00e+00	0	43	0	334495744	20	4390
2026-01-27 23:14:52.34	46.67	23.08	-29.3	-30.9	15.5	0.00e+00	0	43	0	339738624	20	4322
2026-01-27 23:14:55.35	47.25	23.40	-29.2	-30.9	15.9	0.00e+00	0	43	0	344981504	19	4419
2026-01-27 23:14:58.35	47.84	23.72	-28.9	-30.4	16.2	0.00e+00	0	43	0	351272960	19	4255
2026-01-27 23:15:01.36	48.44	24.04	-28.8	-30.2	16.3	0.00e+00	0	43	0	356515840	19	4194
2026-01-27 23:15:04.37	49.05	24.37	-29.1	-30.8	16.0	0.00e+00	0	43	0	362807296	19	4363
2026-01-27 23:15:07.39	49.68	24.69	-29.3	-31.4	15.7	0.00e+00	0	43	0	368050176	19	4543
2026-01-27 23:15:10.40	50.32	25.01	-29.4	-31.5	15.6	0.00e+00	0	43	0	373293056	19	4573
2026-01-27 23:15:13.41	50.97	25.34	-29.2	-31.0	15.9	0.00e+00	0	43	0	379584512	19	4425
2026-01-27 23:15:16.43	51.64	25.66	-29.6	-32.1	15.3	0.00e+00	0	42	0	384827392	19	4775
2026-01-27 23:15:19.44	52.32	25.99	-29.8	-32.5	15.0	0.00e+00	0	43	0	391118848	19	4908
2026-01-27 23:15:22.44	53.01	26.31	-30.2	-33.0	14.3	0.00e+00	0	43	0	396361728	20	4995
2026-01-27 23:15:25.46	53.72	26.64	-30.6	-33.6	13.7	6.10e-06	0	43	0	401604608	21	5084
2026-01-27 23:15:28.47	54.44	26.96	-30.7	-34.0	13.3	1.29e-05	0	42	0	407896064	21	5240
2026-01-27 23:15:31.47	55.18	27.28	-30.8	-34.2	13.2	2.36e-05	0	43	0	413138944	21	5325
2026-01-27 23:15:34.48	55.93	27.60	-31.1	-34.6	12.7	9.07e-05	0	43	0	418381824	22	5364
2026-01-27 23:15:37.50	56.69	27.92	-31.3	-35.2	12.2	1.54e-04	0	43	0	424673280	22	5620
2026-01-27 23:15:40.51	57.48	28.24	-31.0	-34.3	12.9	6.10e-05	0	43	0	429916160	22	5267
2026-01-27 23:15:43.53	58.27	28.56	-31.3	-35.2	12.3	1.65e-04	0	43	0	436207616	22	5596
2026-01-27 23:15:46.53	59.08	28.87	-31.8	-36.0	11.3	1.02e-03	0	43	0	441450496	23	5869
2026-01-27 23:15:49.53	59.91	29.18	-32.2	-37.1	10.2	5.62e-03	0	43	0	446693376	24	6303
2026-01-27 23:15:52.55	60.75	29.48	-32.3	-37.2	10.1	9.59e-03	0	43	0	452984832	24	6366
2026-01-27 23:15:55.56	61.61	29.79	-32.3	-37.5	9.9	7.22e-03	0	43	0	458227712	24	6494
2026-01-27 23:15:58.57	62.49	30.09	-32.7	-38.3	8.9	2.76e-02	0	43	0	463470592	25	6864
2026-01-27 23:16:01.59	63.38	30.38	-32.8	-38.8	8.5	4.81e-02	0	43	0	469762048	25	7152
2026-01-27 23:16:04.60	64.29	30.68	-31.8	-37.1	9.3	2.02e-02	0	43	0	475004928	25	6575
2026-01-27 23:16:07.61	65.21	30.96	-32.5	-37.6	9.4	1.84e-02	0	43	0	481296384	25	6469
2026-01-27 23:16:10.62	66.15	31.24	-32.7	-38.2	9.0	2.50e-02	0	43	0	486539264	25	6832
2026-01-27 23:16:13.63	67.11	31.52	-31.9	-35.5	10.9	2.84e-03	0	43	0	491782144	25	5457
2026-01-27 23:16:16.63	68.07	31.79	-31.4	-34.3	12.2	2.46e-04	0	43	0	498073600	24	5032
2026-01-27 23:16:19.65	69.06	32.05	-31.4	-34.7	12.3	2.14e-04	0	43	0	503316480	23	5301
2026-01-27 23:16:22.65	70.06	32.30	-31.3	-34.5	12.5	1.50e-04	0	43	0	509607936	23	5191
2026-01-27 23:16:25.66	71.08	32.55	-31.2	-34.2	12.7	1.31e-04	0	43	0	514850816	23	5084
2026-01-27 23:16:28.67	72.11	32.79	-30.9	-33.9	13.2	1.83e-05	0	43	0	520093696	22	5104
2026-01-27 23:16:31.68	73.16	33.02	-31.0	-34.1	13.1	9.91e-05	0	43	0	526385152	22	5152
2026-01-27 23:16:34.69	74.23	33.24	-31.1	-34.5	12.8	4.65e-05	0	43	0	531628032	22	5302
2026-01-27 23:16:37.70	75.30	33.46	-31.3	-35.1	12.4	1.04e-04	0	43	0	536870912	22	5566
2026-01-27 23:16:40.72	76.40	33.66	-31.7	-35.7	11.6	4.84e-04	0	43	0	543162368	23	5721
2026-01-27 23:16:43.73	77.50	33.85	-32.3	-37.2	10.2	4.82e-03	0	43	0	548405248	24	6357
2026-01-27 23:16:46.75	78.62	34.04	-32.2	-36.9	10.3	5.66e-03	0	43	0	554696704	24	6192
2026-01-27 23:16:49.77	79.76	34.21	-32.2	-36.8	10.4	3.39e-03	0	43	0	559939584	24	6176
2026-01-27 23:16:52.78	80.90	34.37	-32.1	-36.8	10.4	5.43e-03	0	43	0	565182464	24	6167
2026-01-27 23:16:55.79	82.05	34.52	-31.9	-35.8	11.1	3.30e-03	0	43	0	571473920	24	5658
2026-01-27 23:16:58.81	83.21	34.65	-31.6	-35.5	11.7	4.20e-04	0	43	0	576716800	23	5621
2026-01-27 23:17:01.82	84.38	34.78	-32.0	-36.6	11.0	9.90e-04	0	43	0	583008256	23	6143
2026-01-27 23:17:04.83	85.56	34.89	-31.7	-35.4	11.4	1.06e-03	0	43	0	588251136	24	5494
2026-01-27 23:17:07.84	86.75	34.99	-31.7	-35.9	11.4	9.23e-04	0	43	0	593494016	23	5806
2026-01-27 23:17:10.86	87.95	35.07	-31.6	-35.3	11.8	6.10e-04	0	43	0	599785472	23	5549
2026-01-27 23:17:13.86	89.14	35.14	-31.6	-35.6	11.7	4.95e-04	0	43	0	605028352	23	5655
2026-01-27 23:17:16.86	90.34	35.20	-32.1	-36.6	10.5	3.49e-03	0	43	0	610271232	24	6040
2026-01-27 23:17:19.88	91.55	35.24	-31.7	-35.4	11.4	1.16e-03	0	43	0	616562688	24	5492
2026-01-27 23:17:22.89	92.76	35.27	-31.5	-34.6	12.1	2.87e-04	0	43	0	621805568	24	5150
2026-01-27 23:17:25.89	93.97	35.29	-31.4	-34.2	12.3	2.26e-04	0	43	0	628097024	24	5005
2026-01-27 23:17:28.90	95.18	35.29	-31.4	-34.3	12.2	2.32e-04	0	43	0	633339904	24	5035
2026-01-27 23:17:31.91	96.40	35.28	-31.2	-34.2	12.7	6.71e-05	0	43	0	638582784	23	5084
2026-01-27 23:17:34.92	97.61	35.25	-31.8	-36.1	11.3	1.01e-03	0	43	0	644874240	23	5919
2026-01-27 23:17:37.93	98.82	35.21	-31.0	-33.7	12.9	1.14e-04	0	43	0	650117120	23	4909
2026-01-27 23:17:40.93	100.02	35.15	-30.7	-33.4	13.4	1.37e-05	0	43	0	656408576	22	4919
2026-01-27 23:17:43.93	101.22	35.09	-31.8	-36.0	11.3	5.71e-04	0	43	0	661651456	23	5859
2026-01-27 23:17:46.94	102.41	35.00	-32.1	-36.7	10.5	3.32e-03	0	43	0	666894336	24	6107
2026-01-27 23:17:49.96	103.61	34.91	-32.5	-37.5	9.5	1.76e-02	0	43	0	673185792	25	6398
2026-01-27 23:17:52.97	104.79	34.80	-32.0	-35.6	10.8	2.15e-03	0	43	0	678428672	25	5505
2026-01-27 23:17:55.98	105.96	34.68	-31.9	-35.5	10.9	1.72e-03	0	43	0	683671552	25	5425
2026-01-27 23:17:58.99	107.13	34.54	-31.6	-35.1	11.6	6.54e-04	0	43	0	689963008	24	5357
2026-01-27 23:18:02.00	108.28	34.40	-32.1	-36.5	10.5	3.41e-03	0	43	0	695205888	24	6018
2026-01-27 23:18:05.01	109.43	34.24	-31.3	-34.5	12.3	2.55e-04	0	43	0	701497344	23	5246
2026-01-27 23:18:08.02	110.56	34.07	-31.6	-35.7	11.5	4.47e-04	0	43	0	706740224	23	5725
2026-01-27 23:18:11.04	111.69	33.89	-31.3	-34.6	12.2	4.05e-04	0	43	0	711983104	23	5277
2026-01-27 23:18:14.04	112.79	33.70	-31.2	-34.3	12.4	2.30e-04	0	43	0	718274560	23	5135
2026-01-27 23:18:17.06	113.89	33.50	-31.2	-34.5	12.2	1.68e-04	0	43	0	723517440	23	5251
2026-01-27 23:18:20.07	114.97	33.28	-31.7	-36.0	11.2	1.00e-03	0	43	0	728760320	23	5887
2026-01-27 23:18:23.08	116.04	33.06	-31.2	-34.5	12.2	4.25e-04	0	43	0	735051776	23	5239
2026-01-27 23:18:26.10	117.10	32.83	-31.1	-34.1	12.5	8.46e-05	0	43	0	740294656	23	5106
2026-01-27 23:18:29.10	118.14	32.59	-30.7	-33.6	13.1	4.27e-05	0	43	0	746586112	22	5022
2026-01-27 23:18:32.11	119.16	32.35	-31.4	-35.4	11.9	3.22e-04	0	43	0	751828992	22	5757
2026-01-27 23:18:35.12	120.17	32.09	-31.2	-34.9	12.2	2.34e-04	0	43	0	757071872	22	5537
2026-01-27 23:18:38.12	121.16	31.83	-31.9	-36.8	10.5	1.34e-03	0	43	0	763363328	23	6275
2026-01-27 23:18:41.14	122.14	31.56	-31.5	-34.9	11.4	3.43e-03	0	43	0	768606208	24	5338
2026-01-27 23:18:44.14	123.10	31.29	-31.3	-34.7	12.0	2.29e-04	0	43	0	774897664	23	5341
2026-01-27 23:18:47.15	124.04	31.01	-31.4	-35.0	11.8	8.73e-04	0	43	0	780140544	23	5465
2026-01-27 23:18:50.16	124.97	30.72	-31.1	-34.1	12.3	9.61e-05	0	43	0	785383424	23	5120
2026-01-27 23:18:53.18	125.89	30.43	-32.0	-36.7	10.1	7.43e-03	0	43	0	791674880	24	6177
2026-01-27 23:18:56.18	126.78	30.13	-31.3	-34.9	11.8	3.66e-04	0	43	0	796917760	23	5413
2026-01-27 23:18:59.18	127.66	29.83	-32.4	-38.0	9.1	1.76e-02	0	43	0	802160640	24	6882
2026-01-27 23:19:02.19	128.53	29.53	-30.5	-33.1	13.3	2.97e-05	0	43	0	808452096	22	4830
2026-01-27 23:19:05.20	129.38	29.22	-31.3	-35.3	11.9	1.68e-04	0	43	0	813694976	22	5713
2026-01-27 23:19:08.21	130.21	28.91	-30.8	-33.4	12.9	1.08e-04	0	43	0	819986432	23	4827
2026-01-27 23:19:11.22	131.03	28.59	-31.2	-35.0	12.0	1.02e-04	0	43	0	825229312	22	5579
2026-01-27 23:19:14.23	131.83	28.28	-31.7	-35.7	10.8	6.29e-03	0	43	0	830472192	24	5701
2026-01-27 23:19:17.24	132.61	27.96	-31.1	-34.3	12.1	1.56e-04	0	43	0	836763648	23	5206
2026-01-27 23:19:20.25	133.39	27.64	-31.7	-36.5	10.5	3.43e-03	0	43	0	842006528	23	6225
2026-01-27 23:19:23.24	134.14	27.32	-30.5	-33.3	13.0	5.34e-05	0	43	0	847249408	22	4970
2026-01-27 23:19:26.25	134.88	26.99	-30.9	-35.2	12.0	1.63e-04	0	43	0	853540864	21	5879
2026-01-27 23:19:29.26	135.61	26.67	-31.2	-35.6	11.4	1.34e-03	0	43	0	858783744	22	5966
2026-01-27 23:19:32.28	136.32	26.34	-30.8	-34.2	12.4	2.27e-04	0	43	0	865075200	22	5304
2026-01-27 23:19:35.30	137.02	26.01	-31.4	-35.9	11.2	1.12e-03	0	43	0	870318080	22	6057
2026-01-27 23:19:38.31	137.70	25.69	-30.5	-33.4	12.9	1.16e-04	0	43	0	875560960	22	5021
2026-01-27 23:19:41.32	138.38	25.36	-30.5	-33.8	12.9	4.34e-05	0	43	0	881852416	21	5275
2026-01-27 23:19:44.33	139.03	25.03	-30.7	-33.7	12.7	1.25e-04	0	43	0	887095296	22	5084
2026-01-27 23:19:47.34	139.68	24.71	-29.2	-31.1	15.3	0.00e+00	0	43	0	893386752	19	4502
2026-01-27 23:19:50.36	140.31	24.38	-29.1	-31.6	15.3	0.00e+00	0	42	0	898629632	18	4779
2026-01-27 23:19:53.36	140.93	24.05	-29.5	-32.0	14.7	0.00e+00	0	43	0	903872512	19	4823
2026-01-27 23:19:56.37	141.53	23.73	-28.7	-30.5	16.0	0.00e+00	0	43	0	910163968	18	4434
2026-01-27 23:19:59.37	142.13	23.41	-28.8	-31.2	15.8	0.00e+00	0	43	0	915406848	17	4748
2026-01-27 23:20:02.37	142.71	23.08	-29.2	-31.9	15.1	0.00e+00	0	43	0	920649728	18	4876
2026-01-27 23:20:05.38	143.28	22.76	-29.3	-32.2	14.9	0.00e+00	0	43	0	926941184	18	4987
2026-01-27 23:20:08.39	143.84	22.44	-29.5	-32.2	14.5	0.00e+00	0	43	0	932184064	19	4876
2026-01-27 23:20:11.39	144.38	22.12	-29.9	-33.2	13.8	3.00e-06	0	43	0	938475520	19	5267
2026-01-27 23:20:14.39	144.92	21.81	-30.3	-33.9	13.0	6.86e-05	0	43	0	943718400	20	5432
2026-01-27 23:20:17.40	145.44	21.49	-29.3	-31.6	14.8	7.00e-07	0	43	0	948961280	19	4705
2026-01-27 23:20:20.42	145.96	21.17	-29.2	-31.9	15.0	0.00e+00	0	43	0	955252736	18	4877
2026-01-27 23:20:23.43	146.47	20.86	-29.3	-32.0	14.9	0.00e+00	0	43	0	960495616	18	4942
2026-01-27 23:20:26.45	146.97	20.55	-29.1	-31.6	15.1	0.00e+00	0	43	0	965738496	18	4784
2026-01-27 23:20:29.44	147.45	20.24	-29.2	-31.9	14.9	0.00e+00	0	43	0	972029952	18	4905
2026-01-27 23:20:32.45	147.93	19.93	-29.8	-32.8	13.9	3.80e-06	0	43	0	977272832	19	5131
2026-01-27 23:20:35.45	148.40	19.63	-29.6	-32.5	14.2	2.20e-06	0	43	0	983564288	19	5003
2026-01-27 23:20:38.47	148.86	19.32	-29.4	-32.3	14.6	7.00e-07	0	43	0	988807168	18	5049
2026-01-27 23:20:41.49	149.31	19.02	-29.6	-32.3	14.3	7.00e-07	0	43	0	994050048	19	4929
2026-01-27 23:20:44.51	149.75	18.72	-30.1	-33.3	13.2	1.52e-05	0	43	0	1000341504	20	5225
2026-01-27 23:20:47.51	150.18	18.42	-30.1	-33.4	13.1	3.28e-05	0	43	0	1005584384	20	5264
2026-01-27 23:20:50.52	150.61	18.12	-30.1	-33.3	13.0	2.33e-04	0	43	0	1010827264	20	5250
2026-01-27 23:20:53.53	151.03	17.83	-30.2	-33.7	12.8	5.26e-05	0	43	0	1017118720	20	5411
2026-01-27 23:20:56.55	151.44	17.54	-30.6	-34.4	11.9	3.71e-04	0	43	0	1022361600	21	5593
2026-01-27 23:20:59.56	151.84	17.25	-30.7	-34.6	11.7	4.34e-04	0	43	0	1028653056	21	5690
2026-01-27 23:21:02.57	152.24	16.96	-30.2	-33.4	12.6	1.74e-04	0	43	0	1033895936	21	5184
2026-01-27 23:21:05.58	152.62	16.67	-29.9	-33.0	13.2	2.82e-05	0	43	0	1039138816	20	5135
2026-01-27 23:21:08.58	153.00	16.39	-30.1	-33.6	12.7	6.63e-05	0	43	0	1045430272	20	5364
2026-01-27 23:21:11.60	153.38	16.11	-29.4	-33.0	12.6	1.04e-04	0	43	0	1050673152	20	5498
2026-01-27 23:21:14.62	153.75	15.83	-30.0	-33.6	11.6	8.62e-05	0	43	0	1056964608	20	5416
2026-01-27 23:21:17.62	154.11	15.55	-29.9	-33.6	12.9	6.86e-05	0	43	0	1062207488	19	5514
2026-01-27 23:21:20.62	154.46	15.28	-29.8	-33.2	13.3	1.98e-05	0	43	0	1067450368	19	5354
2026-01-27 23:21:23.63	154.81	15.00	-30.0	-33.7	13.0	3.66e-05	0	43	0	1073741824	19	5498
2026-01-27 23:21:26.64	155.15	14.73	-30.2	-33.8	12.6	9.30e-05	0	43	0	1078984704	20	5436
2026-01-27 23:21:29.65	155.49	14.46	-30.3	-34.1	12.4	1.43e-04	0	43	0	1084227584	20	5550
2026-01-27 23:21:32.66	155.82	14.20	-30.2	-33.9	12.5	1.01e-03	0	43	0	1090519040	20	5474
2026-01-27 23:21:35.67	156.14	13.93	-30.1	-33.6	12.7	2.18e-03	0	43	0	1095761920	20	5355
2026-01-27 23:21:38.68	156.46	13.67	-29.9	-33.6	13.1	2.28e-03	0	43	0	1102053376	19	5478
2026-01-27 23:21:41.68	156.77	13.41	-29.8	-33.4	13.1	2.23e-03	0	43	0	1107296256	19	5444
2026-01-27 23:21:44.70	157.08	13.15	-30.0	-33.9	12.7	7.01e-05	0	43	0	1112539136	19	5659
2026-01-27 23:21:47.70	157.38	12.89	-30.1	-33.9	12.3	1.72e-04	0	43	0	1118830592	20	5566
2026-01-27 23:21:50.70	157.68	12.64	-30.2	-34.2	12.1	2.53e-03	0	43	0	1124073472	20	5686
2026-01-27 23:21:53.70	157.97	12.39	-30.3	-34.3	12.0	2.36e-03	0	43	0	1129316352	20	5718
2026-01-27 23:21:56.71	158.26	12.14	-30.4	-34.5	11.9	2.59e-03	0	43	0	1135607808	20	5790
2026-01-27 23:21:59.71	158.55	11.89	-30.2	-33.8	12.4	2.34e-03	0	43	0	1140850688	20	5491
2026-01-27 23:22:02.71	158.82	11.64	-30.2	-34.1	12.2	2.26e-03	0	43	0	1147142144	20	5593
2026-01-27 23:22:05.73	159.10	11.40	-30.1	-33.6	12.5	2.24e-03	0	43	0	1152385024	20	5419
2026-01-27 23:22:08.74	159.37	11.16	-30.1	-33.8	12.3	1.87e-04	0	43	0	1157627904	20	5524
2026-01-27 23:22:11.75	159.64	10.91	-30.1	-33.9	12.1	2.23e-03	0	43	0	1163919360	20	5596
2026-01-27 23:22:14.76	159.90	10.67	-30.1	-33.9	12.0	2.80e-03	0	43	0	1169162240	20	5632
2026-01-27 23:22:17.78	160.16	10.44	-30.1	-34.1	12.0	2.65e-03	0	43	0	1175453696	20	5676
2026-01-27 23:22:20.79	160.41	10.20	-30.3	-34.6	11.6	2.89e-03	0	43	0	1180696576	20	5875
2026-01-27 23:22:23.80	160.66	9.97	-30.4	-34.7	11.5	3.31e-03	0	43	0	1185939456	20	5959
2026-01-27 23:22:26.81	160.91	9.73	-30.5	-35.0	10.8	1.95e-03	0	43	0	1192230912	21	6022
2026-01-27 23:22:29.81	161.15	9.50	-30.4	-35.5	10.7	3.44e-03	0	43	0	1197473792	20	6465
2026-01-27 23:22:32.83	161.39	9.27	-30.6	-35.7	10.1	5.82e-03	0	43	0	1202716672	21	6481
2026-01-27 23:22:35.84	161.63	9.05	-30.7	-35.6	10.2	5.19e-03	0	43	0	1209008128	21	6376
2026-01-27 23:22:38.85	161.86	8.82	-30.7	-35.6	10.3	8.19e-03	0	43	0	1214251008	21	6329
2026-01-27 23:22:41.85	162.09	8.60	-30.8	-35.8	10.2	8.84e-03	0	43	0	1220542464	21	6371
2026-01-27 23:22:44.87	162.32	8.37	-30.8	-35.8	10.2	6.18e-03	0	43	0	1225785344	21	6391
2026-01-27 23:22:47.87	162.54	8.15	-30.9	-36.2	9.8	9.20e-03	0	43	0	1231028224	21	6650
2026-01-27 23:22:50.88	162.76	7.94	-30.8	-36.1	9.8	1.18e-02	0	43	0	1237319680	21	6614
2026-01-27 23:22:53.88	162.97	7.72	-30.8	-36.2	9.7	1.06e-02	0	43	0	1242562560	21	6697
2026-01-27 23:22:56.89	163.18	7.50	-30.7	-35.9	9.8	1.12e-02	0	43	0	1248854016	21	6559
2026-01-27 23:22:59.89	163.39	7.29	-30.7	-36.1	9.6	1.37e-02	0	43	0	1254096896	21	6680
2026-01-27 23:23:02.90	163.60	7.08	-32.7	-46.9	3.8	7.89e-01	0	43	104	1258291200	25	18526

#Closed at: 2026-01-27 23:23:05
#Recorded file [1258 MB]: D:/data/31010_260128_021150.dat