passes_logs/2026/01/27/R2M6_AANII_01/R2M6_AANII_01__20260127_132044_FENGYUN_3D_rec.log

#Pass ID: 20260127_132044_FENGYUN 3D
#Satellite: FENGYUN 3D
#Configuration: FENGYUN 3D
#almurnet v.1.7.20240730
#Start time: 2026-01-27 13:20:44

#Version: 2.2.20231116
#Station: R2M6_AANII_01
#Location: 30.233357 lon 59.946436 lat
#TLE: 1 43010U 17072A   26026.91415486  .00000072  00000+0  55983-4 0  9991
#TLE: 2 43010  98.9962 358.9161 0002508  89.0320 271.1142 14.19700283424949

#Time	Az	El	Level	Level2	SNR	BER	BlckErr	Temp	State	Recorded	gain1	gain2
2026-01-27 13:20:44.22	190.47	6.98	-28.2	-30.5	5.7	7.69e-01	0	41	0	0	16	4702
2026-01-27 13:20:47.23	190.65	7.20	-29.7	-32.3	10.2	7.35e-03	0	41	0	5242880	20	4874
2026-01-27 13:20:50.24	190.83	7.42	-29.1	-31.2	11.3	2.00e-03	0	41	0	22020096	19	4602
2026-01-27 13:20:53.25	191.01	7.64	-27.8	-29.1	13.3	2.86e-05	0	41	0	38797312	17	4166
2026-01-27 13:20:56.26	191.20	7.87	-27.3	-28.5	14.0	9.10e-06	0	42	0	55574528	16	4095
2026-01-27 13:20:59.28	191.39	8.09	-27.0	-28.2	14.2	4.50e-06	0	41	0	73400320	15	4149
2026-01-27 13:21:02.29	191.58	8.32	-26.9	-28.0	14.4	5.70e-06	0	41	0	90177536	15	4094
2026-01-27 13:21:05.29	191.78	8.55	-26.7	-28.1	14.7	1.10e-06	0	42	0	106954752	14	4213
2026-01-27 13:21:08.31	191.98	8.78	-26.7	-28.1	14.6	0.00e+00	0	42	0	123731968	14	4216
2026-01-27 13:21:11.31	192.18	9.01	-26.4	-27.3	15.1	1.10e-06	0	42	0	140509184	14	4017
2026-01-27 13:21:14.33	192.38	9.25	-26.6	-27.7	14.9	0.00e+00	0	42	0	158334976	14	4109
2026-01-27 13:21:17.35	192.59	9.48	-26.4	-27.8	15.2	0.00e+00	0	42	0	175112192	13	4231
2026-01-27 13:21:20.36	192.80	9.72	-26.3	-27.6	15.3	0.00e+00	0	42	0	191889408	13	4198
2026-01-27 13:21:23.37	193.02	9.96	-26.5	-28.1	15.0	0.00e+00	0	42	0	208666624	13	4310
2026-01-27 13:21:26.37	193.23	10.20	-26.3	-27.5	15.4	0.00e+00	0	42	0	225443840	13	4158
2026-01-27 13:21:29.38	193.45	10.45	-26.4	-27.8	15.2	0.00e+00	0	42	0	242221056	13	4224
2026-01-27 13:21:32.39	193.68	10.69	-26.4	-27.8	15.2	0.00e+00	0	42	0	258998272	13	4228
2026-01-27 13:21:35.41	193.91	10.94	-26.4	-27.8	15.2	0.00e+00	0	42	0	275775488	13	4233
2026-01-27 13:21:38.41	194.14	11.19	-26.3	-27.6	15.4	9.10e-06	0	42	0	293601280	13	4174
2026-01-27 13:21:41.42	194.37	11.45	-26.2	-27.5	15.4	9.10e-06	0	42	0	310378496	13	4156
2026-01-27 13:21:44.43	194.61	11.70	-26.2	-27.4	15.5	0.00e+00	0	42	0	327155712	13	4133
2026-01-27 13:21:47.44	194.86	11.96	-26.2	-27.4	15.5	1.37e-05	0	42	0	343932928	13	4127
2026-01-27 13:21:50.44	195.10	12.22	-26.1	-27.2	15.6	1.25e-05	0	42	0	360710144	13	4088
2026-01-27 13:21:53.45	195.36	12.48	-26.2	-27.4	15.5	1.25e-05	0	42	0	377487360	13	4131
2026-01-27 13:21:56.47	195.61	12.74	-25.9	-26.7	15.9	0.00e+00	0	42	0	394264576	13	3956
2026-01-27 13:21:59.48	195.87	13.01	-25.8	-27.1	16.0	0.00e+00	0	42	0	412090368	12	4162
2026-01-27 13:22:02.48	196.14	13.28	-25.8	-27.0	16.1	6.80e-06	0	42	0	428867584	12	4133
2026-01-27 13:22:05.49	196.41	13.55	-25.7	-26.9	16.1	0.00e+00	0	42	0	445644800	12	4103
2026-01-27 13:22:08.51	196.68	13.82	-25.7	-26.8	16.2	0.00e+00	0	42	0	462422016	12	4090
2026-01-27 13:22:11.52	196.96	14.10	-25.6	-26.5	16.4	0.00e+00	0	43	0	479199232	12	4003
2026-01-27 13:22:14.52	197.25	14.38	-25.5	-26.3	16.5	0.00e+00	0	43	0	495976448	12	3955
2026-01-27 13:22:17.53	197.54	14.66	-25.5	-26.4	16.5	0.00e+00	0	43	0	513802240	12	3976
2026-01-27 13:22:20.53	197.83	14.94	-25.5	-26.2	16.6	0.00e+00	0	43	0	530579456	12	3936
2026-01-27 13:22:23.54	198.13	15.23	-25.5	-26.4	16.5	0.00e+00	0	43	0	547356672	12	3974
2026-01-27 13:22:26.55	198.44	15.52	-25.3	-26.4	16.7	0.00e+00	0	43	0	564133888	11	4081
2026-01-27 13:22:29.57	198.75	15.81	-25.1	-25.8	17.1	0.00e+00	0	43	0	580911104	11	3938
2026-01-27 13:22:32.58	199.07	16.11	-25.1	-25.9	17.1	0.00e+00	0	43	0	597688320	11	3956
2026-01-27 13:22:35.59	199.39	16.41	-25.2	-26.1	17.0	0.00e+00	0	43	0	614465536	11	3999
2026-01-27 13:22:38.60	199.73	16.71	-25.0	-25.7	17.2	0.00e+00	0	43	0	631242752	11	3915
2026-01-27 13:22:41.61	200.06	17.01	-25.0	-25.6	17.3	0.00e+00	0	43	0	649068544	11	3890
2026-01-27 13:22:44.62	200.41	17.32	-24.8	-25.7	17.5	0.00e+00	0	43	0	665845760	10	4026
2026-01-27 13:22:47.63	200.76	17.63	-24.8	-25.8	17.4	0.00e+00	0	43	0	682622976	10	4050
2026-01-27 13:22:50.64	201.11	17.94	-24.9	-26.1	17.3	0.00e+00	0	43	0	699400192	10	4104
2026-01-27 13:22:53.66	201.48	18.25	-24.8	-25.8	17.5	0.00e+00	0	43	0	716177408	10	4037
2026-01-27 13:22:56.67	201.85	18.57	-24.7	-25.7	17.6	0.00e+00	0	43	0	734003200	10	3998
2026-01-27 13:22:59.70	202.24	18.90	-24.3	-25.2	18.1	0.00e+00	0	43	0	750780416	9	3989
2026-01-27 13:23:02.71	202.62	19.22	-24.4	-25.5	17.9	0.00e+00	0	43	0	767557632	9	4085
2026-01-27 13:23:05.72	203.02	19.55	-24.5	-25.8	17.8	0.00e+00	0	43	0	784334848	9	4140
2026-01-27 13:23:08.72	203.42	19.88	-24.6	-25.8	17.8	0.00e+00	0	43	0	801112064	9	4146
2026-01-27 13:23:11.74	203.84	20.21	-24.5	-25.7	17.9	0.00e+00	0	43	0	817889280	9	4122
2026-01-27 13:23:14.74	204.26	20.54	-24.3	-25.3	18.1	0.00e+00	0	43	0	834666496	9	4015
2026-01-27 13:23:17.75	204.69	20.88	-24.2	-25.1	18.2	0.00e+00	0	43	0	851443712	9	3975
2026-01-27 13:23:20.76	205.13	21.23	-24.1	-24.7	18.4	0.00e+00	0	43	0	869269504	9	3886
2026-01-27 13:23:23.78	205.58	21.57	-24.2	-25.0	18.3	0.00e+00	0	43	0	886046720	9	3956
2026-01-27 13:23:26.80	206.04	21.92	-24.4	-25.4	18.1	0.00e+00	0	43	0	902823936	9	4039
2026-01-27 13:23:29.80	206.51	22.27	-24.2	-25.0	18.3	0.00e+00	0	43	0	919601152	9	3958
2026-01-27 13:23:32.81	206.99	22.62	-24.1	-24.8	18.4	0.00e+00	0	43	0	936378368	9	3899
2026-01-27 13:23:35.81	207.48	22.98	-23.9	-24.4	18.6	0.00e+00	0	43	0	953155584	9	3799
2026-01-27 13:23:38.82	207.98	23.34	-23.7	-24.4	18.9	0.00e+00	0	43	0	969932800	8	3906
2026-01-27 13:23:41.82	208.49	23.70	-23.5	-24.1	19.0	0.00e+00	0	43	0	987758592	8	3849
2026-01-27 13:23:44.84	209.02	24.07	-23.6	-24.2	19.0	0.00e+00	0	43	0	1004535808	8	3874
2026-01-27 13:23:47.87	209.56	24.44	-23.6	-24.3	18.9	0.00e+00	0	43	0	1021313024	8	3893
2026-01-27 13:23:50.89	210.11	24.81	-23.9	-24.9	18.8	0.00e+00	0	43	0	1038090240	8	4015
2026-01-27 13:23:53.89	210.67	25.18	-23.8	-24.5	19.0	0.00e+00	0	43	0	1054867456	8	3930
2026-01-27 13:23:56.89	211.24	25.55	-23.8	-24.7	18.9	0.00e+00	0	43	0	1072693248	8	3962
2026-01-27 13:23:59.90	211.83	25.93	-23.7	-24.3	19.1	0.00e+00	0	43	0	1089470464	8	3873
2026-01-27 13:24:02.91	212.43	26.31	-23.6	-24.2	19.2	0.00e+00	0	43	0	1106247680	8	3845
2026-01-27 13:24:05.92	213.05	26.69	-23.5	-24.0	19.3	0.00e+00	0	43	0	1123024896	8	3812
2026-01-27 13:24:08.93	213.68	27.08	-23.3	-23.6	19.5	0.00e+00	0	43	0	1139802112	8	3721
2026-01-27 13:24:11.94	214.33	27.46	-23.1	-23.6	19.7	0.00e+00	0	43	0	1156579328	7	3819
2026-01-27 13:24:14.94	214.99	27.85	-23.1	-23.6	19.8	0.00e+00	0	43	0	1173356544	7	3815
2026-01-27 13:24:17.95	215.67	28.23	-23.1	-23.7	19.7	0.00e+00	0	43	0	1190133760	7	3843
2026-01-27 13:24:20.96	216.36	28.62	-23.1	-23.6	19.8	0.00e+00	0	43	0	1207959552	7	3811
2026-01-27 13:24:23.98	217.08	29.01	-23.0	-23.5	19.8	0.00e+00	0	43	0	1224736768	7	3789
2026-01-27 13:24:26.99	217.80	29.40	-22.9	-23.1	20.0	0.00e+00	0	43	0	1241513984	7	3713
2026-01-27 13:24:30.00	218.55	29.80	-23.0	-23.4	19.9	0.00e+00	0	43	0	1258291200	7	3776
2026-01-27 13:24:33.01	219.31	30.19	-23.1	-23.7	19.7	0.00e+00	0	43	0	1275068416	7	3848
2026-01-27 13:24:36.03	220.10	30.58	-23.0	-23.4	19.9	0.00e+00	0	43	0	1292894208	7	3764
2026-01-27 13:24:39.05	220.90	30.97	-23.0	-23.5	19.9	0.00e+00	0	43	0	1309671424	7	3786
2026-01-27 13:24:42.06	221.72	31.36	-22.9	-23.2	20.0	0.00e+00	0	43	0	1326448640	7	3737
2026-01-27 13:24:45.07	222.56	31.75	-23.1	-23.6	19.8	0.00e+00	0	43	0	1343225856	7	3819
2026-01-27 13:24:48.07	223.42	32.13	-22.8	-23.6	20.1	1.10e-06	0	43	0	1360003072	6	3920
2026-01-27 13:24:51.08	224.30	32.51	-23.0	-23.9	19.9	0.00e+00	0	43	0	1376780288	6	4003
2026-01-27 13:24:54.10	225.20	32.90	-22.8	-23.5	20.1	0.00e+00	0	43	0	1393557504	6	3909
2026-01-27 13:24:57.11	226.12	33.28	-22.6	-23.0	20.4	0.00e+00	0	43	0	1410334720	6	3793
2026-01-27 13:25:00.12	227.06	33.65	-22.9	-23.8	20.1	0.00e+00	0	43	0	1428160512	6	3966
2026-01-27 13:25:03.13	228.03	34.02	-23.1	-24.1	19.9	0.00e+00	0	43	0	1444937728	6	4042
2026-01-27 13:25:06.14	229.01	34.39	-22.9	-23.6	20.1	0.00e+00	0	43	0	1461714944	6	3926
2026-01-27 13:25:09.15	230.02	34.75	-22.7	-23.3	20.3	0.00e+00	0	43	0	1478492160	6	3843
2026-01-27 13:25:12.16	231.05	35.10	-22.9	-23.6	20.1	0.00e+00	0	43	0	1495269376	6	3927
2026-01-27 13:25:15.16	232.10	35.45	-22.7	-23.2	20.3	0.00e+00	0	43	0	1512046592	6	3836
2026-01-27 13:25:18.17	233.17	35.79	-22.6	-23.1	20.4	0.00e+00	0	43	0	1529872384	6	3806
2026-01-27 13:25:21.19	234.27	36.12	-22.9	-23.7	20.1	0.00e+00	0	43	0	1546649600	6	3938
2026-01-27 13:25:24.20	235.39	36.45	-22.6	-23.1	20.4	0.00e+00	0	43	0	1563426816	6	3816
2026-01-27 13:25:27.21	236.53	36.77	-22.6	-23.1	20.4	0.00e+00	0	43	0	1580204032	6	3816
2026-01-27 13:25:30.21	237.68	37.07	-22.6	-23.1	20.4	0.00e+00	0	43	0	1596981248	6	3803
2026-01-27 13:25:33.23	238.87	37.37	-22.7	-23.4	20.3	0.00e+00	0	43	0	1613758464	6	3866
2026-01-27 13:25:36.25	240.07	37.65	-22.6	-23.0	20.5	0.00e+00	0	43	0	1630535680	6	3785
2026-01-27 13:25:39.27	241.30	37.93	-22.5	-22.9	20.5	0.00e+00	0	43	0	1648361472	6	3753
2026-01-27 13:25:42.28	242.55	38.19	-22.5	-22.9	20.6	0.00e+00	0	43	0	1665138688	6	3755
2026-01-27 13:25:45.29	243.81	38.44	-22.5	-22.8	20.6	0.00e+00	0	43	0	1681915904	6	3736
2026-01-27 13:25:48.30	245.09	38.67	-22.6	-23.1	20.5	0.00e+00	0	43	0	1698693120	6	3804
2026-01-27 13:25:51.31	246.39	38.89	-22.8	-23.5	20.3	0.00e+00	0	43	0	1715470336	6	3888
2026-01-27 13:25:54.32	247.70	39.09	-23.1	-24.0	20.0	0.00e+00	0	43	0	1733296128	6	4018
2026-01-27 13:25:57.33	249.03	39.28	-22.8	-23.5	20.3	0.00e+00	0	43	0	1750073344	6	3896
2026-01-27 13:26:00.34	250.38	39.45	-22.8	-23.4	20.3	0.00e+00	0	43	0	1766850560	6	3874
2026-01-27 13:26:03.35	251.74	39.61	-22.7	-23.3	20.4	0.00e+00	0	43	0	1783627776	6	3855
2026-01-27 13:26:06.34	253.10	39.74	-22.6	-23.1	20.5	0.00e+00	0	43	0	1800404992	6	3797
2026-01-27 13:26:09.35	254.48	39.86	-22.9	-23.7	20.2	0.00e+00	0	43	0	1817182208	6	3934
2026-01-27 13:26:12.34	255.86	39.96	-22.3	-22.5	20.8	0.00e+00	0	43	0	1833959424	6	3669
2026-01-27 13:26:15.34	257.25	40.05	-22.8	-23.4	20.3	0.00e+00	0	43	0	1850736640	6	3876
2026-01-27 13:26:18.34	258.65	40.11	-22.6	-23.0	20.5	0.00e+00	0	43	0	1867513856	6	3786
2026-01-27 13:26:21.36	260.07	40.16	-22.6	-23.1	20.5	0.00e+00	0	43	0	1884291072	6	3808
2026-01-27 13:26:24.36	261.48	40.19	-22.8	-23.5	20.3	0.00e+00	0	43	0	1902116864	6	3908
2026-01-27 13:26:27.38	262.89	40.19	-22.6	-23.0	20.5	0.00e+00	0	43	0	1918894080	6	3789
2026-01-27 13:26:30.39	264.31	40.18	-22.6	-23.1	20.5	0.00e+00	0	43	0	1935671296	6	3793
2026-01-27 13:26:33.40	265.72	40.15	-22.6	-23.0	20.5	0.00e+00	0	43	0	1952448512	6	3790
2026-01-27 13:26:36.40	267.12	40.10	-22.7	-23.4	20.4	0.00e+00	0	43	0	1969225728	6	3870
2026-01-27 13:26:39.42	268.53	40.03	-22.9	-23.6	20.2	1.10e-06	0	43	0	1987051520	6	3924
2026-01-27 13:26:42.43	269.92	39.95	-22.7	-23.2	20.4	0.00e+00	0	43	0	2003828736	6	3841
2026-01-27 13:26:45.43	271.31	39.84	-22.6	-22.9	20.6	0.00e+00	0	43	0	2020605952	6	3768
2026-01-27 13:26:48.42	272.68	39.72	-22.7	-23.2	20.4	0.00e+00	0	43	0	2037383168	6	3829
2026-01-27 13:26:51.44	274.05	39.58	-22.8	-23.5	20.3	0.00e+00	0	43	0	2054160384	6	3887
2026-01-27 13:26:54.44	275.40	39.42	-22.8	-23.5	20.3	0.00e+00	0	43	0	2070937600	6	3906
2026-01-27 13:26:57.46	276.74	39.24	-22.5	-22.9	20.6	0.00e+00	0	43	0	2087714816	6	3768
2026-01-27 13:27:00.47	278.07	39.05	-22.7	-23.2	20.5	0.00e+00	0	43	0	2104492032	6	3825
2026-01-27 13:27:03.48	279.38	38.85	-22.5	-22.8	20.7	0.00e+00	0	43	0	2122317824	6	3735
2026-01-27 13:27:06.49	280.67	38.63	-22.7	-23.3	20.4	0.00e+00	0	43	0	2139095040	6	3845
2026-01-27 13:27:09.50	281.94	38.39	-22.6	-23.0	20.6	0.00e+00	0	43	0	2155872256	6	3784
2026-01-27 13:27:12.51	283.20	38.14	-22.8	-23.5	20.3	0.00e+00	0	43	0	2172649472	6	3895
2026-01-27 13:27:15.53	284.44	37.88	-22.3	-22.4	20.9	0.00e+00	0	43	0	2189426688	6	3641
2026-01-27 13:27:18.54	285.66	37.60	-22.7	-23.4	20.4	0.00e+00	0	43	0	2206203904	6	3866
2026-01-27 13:27:21.54	286.85	37.32	-22.8	-23.4	20.4	0.00e+00	0	43	0	2222981120	6	3870
2026-01-27 13:27:24.55	288.02	37.02	-22.9	-23.8	20.2	0.00e+00	0	43	0	2239758336	6	3966
2026-01-27 13:27:27.56	289.18	36.72	-22.9	-23.7	20.2	0.00e+00	0	43	0	2257584128	6	3932
2026-01-27 13:27:30.57	290.31	36.40	-22.8	-23.5	20.3	0.00e+00	0	43	0	2274361344	6	3887
2026-01-27 13:27:33.58	291.42	36.07	-22.9	-23.8	20.2	0.00e+00	0	43	0	2291138560	6	3959
2026-01-27 13:27:36.59	292.51	35.74	-23.0	-23.8	20.2	0.00e+00	0	43	0	2307915776	6	3971
2026-01-27 13:27:39.60	293.57	35.40	-22.8	-23.5	20.3	0.00e+00	0	43	0	2324692992	6	3902
2026-01-27 13:27:42.61	294.62	35.05	-23.1	-24.1	20.0	0.00e+00	0	43	0	2341470208	6	4054
2026-01-27 13:27:45.62	295.64	34.70	-23.3	-24.5	19.8	0.00e+00	0	43	0	2359296000	6	4140
2026-01-27 13:27:48.63	296.64	34.34	-23.2	-24.3	20.0	0.00e+00	0	43	0	2376073216	6	4088
2026-01-27 13:27:51.65	297.62	33.97	-23.3	-24.6	19.8	0.00e+00	0	43	0	2392850432	6	4159
2026-01-27 13:27:54.65	298.58	33.60	-23.3	-24.4	19.9	0.00e+00	0	43	0	2409627648	6	4115
2026-01-27 13:27:57.67	299.51	33.23	-23.4	-24.8	19.7	0.00e+00	0	43	0	2426404864	6	4211
2026-01-27 13:28:00.68	300.43	32.85	-23.8	-24.6	19.3	0.00e+00	0	43	0	2443182080	8	3946
2026-01-27 13:28:03.68	301.32	32.48	-23.2	-23.8	19.9	0.00e+00	0	43	0	2459959296	7	3853
2026-01-27 13:28:06.69	302.19	32.09	-23.5	-24.5	19.6	0.00e+00	0	43	0	2477785088	7	4026
2026-01-27 13:28:09.71	303.05	31.71	-23.5	-24.5	19.6	0.00e+00	0	43	0	2494562304	7	4025
2026-01-27 13:28:12.71	303.88	31.32	-23.7	-25.0	19.3	0.00e+00	0	43	0	2511339520	7	4137
2026-01-27 13:28:15.73	304.70	30.93	-23.4	-24.1	19.8	0.00e+00	0	43	0	2528116736	7	3933
2026-01-27 13:28:18.74	305.49	30.55	-23.3	-24.0	19.8	0.00e+00	0	43	0	2544893952	7	3895
2026-01-27 13:28:21.75	306.27	30.16	-23.5	-24.5	19.5	0.00e+00	0	43	0	2561671168	7	4036
2026-01-27 13:28:24.76	307.03	29.77	-23.4	-24.3	19.6	0.00e+00	0	43	0	2578448384	7	3977
2026-01-27 13:28:27.77	307.77	29.38	-23.6	-24.7	19.4	0.00e+00	0	43	0	2595225600	7	4084
2026-01-27 13:28:30.78	308.49	28.99	-24.0	-25.4	19.1	0.00e+00	0	43	0	2613051392	7	4260
2026-01-27 13:28:33.80	309.20	28.61	-23.8	-25.1	19.2	0.00e+00	0	43	0	2629828608	7	4180
2026-01-27 13:28:36.80	309.89	28.22	-23.6	-24.7	19.4	0.00e+00	0	43	0	2646605824	7	4068
2026-01-27 13:28:39.81	310.56	27.84	-23.7	-24.8	19.4	0.00e+00	0	43	0	2663383040	7	4097
2026-01-27 13:28:42.83	311.22	27.45	-23.4	-24.3	19.6	0.00e+00	0	43	0	2680160256	7	3976
2026-01-27 13:28:45.84	311.86	27.07	-23.4	-24.3	19.6	0.00e+00	0	43	0	2697986048	7	3985
2026-01-27 13:28:48.86	312.49	26.69	-23.5	-24.5	19.5	0.00e+00	0	43	0	2714763264	7	4033
2026-01-27 13:28:51.87	313.11	26.31	-23.7	-24.8	19.3	0.00e+00	0	43	0	2731540480	7	4108
2026-01-27 13:28:54.88	313.71	25.93	-23.9	-25.3	19.1	0.00e+00	0	43	0	2748317696	7	4217
2026-01-27 13:28:57.90	314.29	25.55	-23.6	-24.6	19.4	0.00e+00	0	43	0	2765094912	7	4054
2026-01-27 13:29:00.91	314.87	25.18	-23.9	-25.3	19.1	0.00e+00	0	43	0	2781872128	7	4217
2026-01-27 13:29:03.92	315.42	24.81	-24.0	-25.1	18.9	0.00e+00	0	43	0	2798649344	8	4060
2026-01-27 13:29:06.92	315.97	24.45	-23.9	-24.8	19.1	0.00e+00	0	43	0	2816475136	8	3980
2026-01-27 13:29:09.94	316.51	24.08	-24.0	-25.0	19.0	0.00e+00	0	43	0	2833252352	8	4031
2026-01-27 13:29:12.96	317.03	23.72	-24.0	-24.9	19.0	0.00e+00	0	43	0	2850029568	8	4021
2026-01-27 13:29:15.97	317.54	23.36	-24.2	-25.4	18.8	0.00e+00	0	43	0	2866806784	8	4128
2026-01-27 13:29:18.97	318.04	23.00	-24.2	-25.4	18.8	0.00e+00	0	43	0	2883584000	8	4125
2026-01-27 13:29:21.99	318.53	22.65	-24.1	-25.2	18.8	0.00e+00	0	43	0	2900361216	8	4086
2026-01-27 13:29:25.01	319.01	22.29	-24.2	-25.3	18.8	0.00e+00	0	43	0	2918187008	8	4093
2026-01-27 13:29:28.02	319.48	21.95	-24.5	-26.0	18.4	0.00e+00	0	43	0	2934964224	8	4288
2026-01-27 13:29:31.03	319.93	21.60	-24.7	-26.0	18.1	0.00e+00	0	43	0	2951741440	9	4189
2026-01-27 13:29:34.04	320.38	21.26	-24.7	-26.1	18.1	0.00e+00	0	43	0	2968518656	9	4193
2026-01-27 13:29:37.06	320.82	20.92	-24.7	-25.9	18.2	0.00e+00	0	43	0	2985295872	9	4158
2026-01-27 13:29:40.07	321.25	20.58	-25.0	-26.5	17.9	0.00e+00	0	43	0	3003121664	9	4302
2026-01-27 13:29:43.08	321.67	20.25	-25.3	-26.7	17.5	0.00e+00	0	43	0	3019898880	10	4243
2026-01-27 13:29:46.10	322.08	19.92	-25.4	-26.5	17.4	0.00e+00	0	43	0	3036676096	11	4075
2026-01-27 13:29:49.12	322.49	19.59	-25.3	-26.2	17.5	0.00e+00	0	43	0	3053453312	11	4006
2026-01-27 13:29:52.13	322.88	19.27	-25.1	-25.8	17.7	0.00e+00	0	43	0	3070230528	11	3902
2026-01-27 13:29:55.15	323.27	18.94	-25.2	-26.0	17.6	0.00e+00	0	43	0	3087007744	11	3959
2026-01-27 13:29:58.16	323.65	18.62	-25.2	-26.1	17.6	0.00e+00	0	43	0	3103784960	11	3967
2026-01-27 13:30:01.17	324.02	18.31	-25.3	-26.2	17.5	0.00e+00	0	43	0	3121610752	11	3995
2026-01-27 13:30:04.17	324.38	18.00	-25.2	-26.0	17.5	0.00e+00	0	43	0	3138387968	11	3959
2026-01-27 13:30:07.16	324.74	17.69	-25.4	-26.4	17.4	0.00e+00	0	43	0	3155165184	11	4054
2026-01-27 13:30:10.17	325.09	17.38	-25.4	-26.5	17.3	0.00e+00	0	43	0	3171942400	11	4077
2026-01-27 13:30:13.19	325.43	17.08	-25.5	-26.7	17.2	0.00e+00	0	43	0	3188719616	11	4126
2026-01-27 13:30:16.20	325.77	16.78	-25.7	-27.0	17.0	0.00e+00	0	43	0	3205496832	11	4221
2026-01-27 13:30:19.21	326.10	16.48	-25.6	-26.9	17.0	0.00e+00	0	43	0	3222274048	11	4183
2026-01-27 13:30:22.23	326.42	16.18	-25.6	-26.9	17.0	1.10e-06	0	43	0	3240099840	11	4179
2026-01-27 13:30:25.24	326.74	15.89	-25.7	-27.0	16.9	0.00e+00	0	43	0	3256877056	11	4220
2026-01-27 13:30:28.26	327.05	15.60	-25.7	-27.1	16.9	0.00e+00	0	43	0	3273654272	11	4232
2026-01-27 13:30:31.27	327.36	15.31	-25.8	-27.4	16.7	0.00e+00	0	43	0	3290431488	11	4307
2026-01-27 13:30:34.28	327.66	15.03	-25.8	-26.9	16.6	0.00e+00	0	43	0	3307208704	12	4071
2026-01-27 13:30:37.29	327.96	14.74	-26.0	-27.3	16.4	0.00e+00	0	43	0	3323985920	12	4170
2026-01-27 13:30:40.31	328.25	14.46	-26.1	-27.5	16.3	0.00e+00	0	43	0	3341811712	12	4231
2026-01-27 13:30:43.33	328.53	14.19	-26.1	-27.6	16.2	0.00e+00	0	43	0	3358588928	12	4269
2026-01-27 13:30:46.35	328.82	13.91	-26.2	-27.8	16.0	0.00e+00	0	43	0	3375366144	12	4331
2026-01-27 13:30:49.35	329.09	13.64	-26.4	-28.1	15.8	0.00e+00	0	43	0	3392143360	12	4408
2026-01-27 13:30:52.36	329.36	13.37	-26.4	-28.3	15.7	0.00e+00	0	43	0	3408920576	12	4457
2026-01-27 13:30:55.36	329.63	13.10	-26.6	-28.2	15.5	0.00e+00	0	43	0	3425697792	13	4306
2026-01-27 13:30:58.36	329.89	12.84	-26.7	-28.3	15.4	0.00e+00	0	43	0	3442475008	13	4336
2026-01-27 13:31:01.39	330.14	12.58	-26.6	-28.1	15.5	0.00e+00	0	43	0	3460300800	13	4300
2026-01-27 13:31:04.40	330.40	12.32	-27.3	-29.1	14.7	0.00e+00	0	43	0	3477078016	14	4466
2026-01-27 13:31:07.41	330.65	12.06	-26.9	-28.2	15.2	0.00e+00	0	43	0	3493855232	14	4213
2026-01-27 13:31:10.43	330.89	11.80	-26.8	-28.1	15.3	0.00e+00	0	43	0	3510632448	14	4186
2026-01-27 13:31:13.45	331.13	11.55	-26.7	-27.9	15.4	0.00e+00	0	43	0	3527409664	14	4119
2026-01-27 13:31:16.47	331.37	11.30	-26.7	-27.9	15.3	0.00e+00	0	43	0	3544186880	14	4137
2026-01-27 13:31:19.48	331.60	11.05	-26.8	-28.1	15.2	0.00e+00	0	43	0	3562012672	14	4180
2026-01-27 13:31:22.50	331.83	10.80	-26.8	-28.1	15.2	0.00e+00	0	43	0	3578789888	14	4180
2026-01-27 13:31:25.52	332.06	10.56	-26.8	-28.2	15.1	0.00e+00	0	43	0	3595567104	14	4209
2026-01-27 13:31:28.53	332.28	10.31	-26.9	-28.3	15.1	0.00e+00	0	43	0	3612344320	14	4232
2026-01-27 13:31:31.53	332.50	10.07	-26.9	-28.3	15.0	1.10e-06	0	43	0	3629121536	14	4245
2026-01-27 13:31:34.54	332.72	9.84	-27.0	-28.5	14.9	0.00e+00	0	43	0	3646947328	14	4287
2026-01-27 13:31:37.56	332.93	9.60	-27.1	-28.9	14.7	2.20e-06	0	43	0	3663724544	14	4408
2026-01-27 13:31:40.57	333.14	9.36	-27.0	-28.6	14.8	0.00e+00	0	43	0	3680501760	14	4330
2026-01-27 13:31:43.58	333.34	9.13	-27.2	-29.0	14.5	1.10e-06	0	43	0	3697278976	14	4448
2026-01-27 13:31:46.59	333.55	8.90	-27.2	-29.1	14.5	1.10e-06	0	43	0	3714056192	14	4456
2026-01-27 13:31:49.60	333.75	8.67	-27.4	-29.4	14.3	0.00e+00	0	43	0	3730833408	14	4560
2026-01-27 13:31:52.61	333.94	8.44	-27.4	-29.4	14.2	0.00e+00	0	43	0	3747610624	14	4551
2026-01-27 13:31:55.62	334.14	8.22	-27.5	-29.3	14.0	2.20e-06	0	43	0	3764387840	15	4403
2026-01-27 13:31:58.62	334.33	8.00	-27.8	-30.0	13.6	1.37e-05	0	43	0	3782213632	15	4615
2026-01-27 13:32:01.63	334.52	7.77	-27.4	-29.0	14.1	6.80e-06	0	43	0	3798990848	15	4323
2026-01-27 13:32:04.64	334.70	7.55	-27.6	-29.4	13.9	2.40e-05	0	43	0	3815768064	15	4436
2026-01-27 13:32:07.65	334.89	7.34	-27.5	-29.2	14.0	9.49e-05	0	43	0	3832545280	15	4398
2026-01-27 13:32:10.65	335.07	7.12	-27.5	-29.2	14.0	1.14e-05	0	43	0	3849322496	15	4390

#Closed at: 2026-01-27 13:32:12
#Recorded file [3853 MB]: D:/data/31010_260127_162046.dat