passes_logs/2026/01/27/R2M6_AANII_01/R2M6_AANII_01__20260127_104304_SUOMI_NPP_rec.log

#Pass ID: 20260127_104304_SUOMI NPP
#Satellite: SUOMI NPP
#Configuration: NPP
#almurnet v.1.7.20240730
#Start time: 2026-01-27 10:43:06

#Version: 2.2.20231116
#Station: R2M6_AANII_01
#Location: 30.233357 lon 59.946436 lat
#TLE: 1 37849U 11061A   26026.87508736  .00000176  00000+0  10464-3 0  9991
#TLE: 2 37849  98.7822 328.8221 0002127  43.3055 316.8288 14.19530452738397

#Time	Az	El	Level	Level2	SNR	BER	BlckErr	Temp	State	Recorded	gain1	gain2
2026-01-27 10:43:06.84	170.17	7.16	-31.4	-35.9	5.1	1.28e+00	0	41	0	0	22	6079
2026-01-27 10:43:09.85	170.23	7.39	-31.4	-34.6	8.8	2.97e-02	0	42	0	1048576	24	5226
2026-01-27 10:43:12.85	170.30	7.63	-30.7	-33.2	10.8	4.28e-03	0	42	0	7340032	22	4787
2026-01-27 10:43:15.86	170.38	7.86	-30.7	-33.0	11.0	1.15e-03	0	42	0	12582912	22	4690
2026-01-27 10:43:18.88	170.45	8.11	-30.4	-32.0	11.7	5.32e-04	0	42	0	17825792	22	4327
2026-01-27 10:43:21.90	170.52	8.35	-30.3	-32.3	11.9	4.86e-04	0	42	0	24117248	21	4508
2026-01-27 10:43:24.91	170.60	8.59	-30.3	-32.2	12.0	3.97e-04	0	42	0	29360128	21	4470
2026-01-27 10:43:27.92	170.67	8.84	-30.3	-32.2	12.0	3.51e-04	0	42	0	35651584	21	4462
2026-01-27 10:43:30.93	170.75	9.09	-30.4	-32.4	11.9	2.52e-04	0	42	0	40894464	21	4541
2026-01-27 10:43:33.94	170.83	9.34	-30.3	-32.1	12.1	2.23e-04	0	42	0	46137344	21	4420
2026-01-27 10:43:36.96	170.91	9.60	-30.4	-32.3	12.0	3.74e-04	0	42	0	52428800	21	4499
2026-01-27 10:43:39.97	170.99	9.86	-30.4	-32.4	12.0	6.19e-04	0	43	0	57671680	21	4515
2026-01-27 10:43:42.97	171.07	10.12	-30.4	-32.4	12.0	4.01e-04	0	43	0	63963136	21	4512
2026-01-27 10:43:45.98	171.15	10.38	-30.4	-32.5	12.0	5.09e-04	0	42	0	69206016	21	4545
2026-01-27 10:43:48.98	171.23	10.64	-30.1	-31.4	12.7	6.86e-05	0	43	0	74448896	21	4185
2026-01-27 10:43:51.99	171.32	10.91	-30.1	-31.6	12.6	6.86e-05	0	43	0	80740352	21	4236
2026-01-27 10:43:55.00	171.41	11.18	-29.9	-30.9	13.1	3.12e-05	0	43	0	85983232	21	4011
2026-01-27 10:43:57.99	171.49	11.45	-30.0	-31.0	13.1	2.97e-05	0	43	0	91226112	21	4051
2026-01-27 10:44:01.01	171.58	11.73	-29.8	-31.0	13.5	1.44e-05	0	43	0	97517568	20	4128
2026-01-27 10:44:04.01	171.67	12.01	-29.9	-31.2	13.3	1.14e-05	0	43	0	102760448	20	4186
2026-01-27 10:44:07.02	171.77	12.30	-29.5	-30.3	13.9	1.50e-06	0	43	0	109051904	20	3937
2026-01-27 10:44:10.03	171.86	12.58	-29.6	-30.6	13.8	2.20e-06	0	43	0	114294784	20	4006
2026-01-27 10:44:13.05	171.96	12.87	-29.4	-29.9	14.1	0.00e+00	0	43	0	119537664	20	3836
2026-01-27 10:44:16.06	172.06	13.17	-29.4	-29.9	14.2	3.00e-06	0	43	0	125829120	20	3829
2026-01-27 10:44:19.06	172.16	13.46	-29.3	-29.8	14.3	2.20e-06	0	43	0	131072000	20	3804
2026-01-27 10:44:22.07	172.26	13.77	-29.5	-30.4	13.9	3.00e-06	0	43	0	136314880	20	3964
2026-01-27 10:44:25.06	172.36	14.07	-29.5	-30.2	14.0	2.20e-06	0	43	0	142606336	20	3927
2026-01-27 10:44:28.09	172.47	14.38	-29.5	-30.2	14.0	7.00e-07	0	43	0	147849216	20	3925
2026-01-27 10:44:31.10	172.57	14.69	-29.4	-30.4	14.3	0.00e+00	0	43	0	154140672	19	4067
2026-01-27 10:44:34.12	172.68	15.01	-29.4	-30.6	14.2	0.00e+00	0	43	0	159383552	19	4101
2026-01-27 10:44:37.12	172.80	15.33	-29.4	-30.6	14.2	3.00e-06	0	43	0	164626432	19	4116
2026-01-27 10:44:40.14	172.91	15.65	-29.8	-31.6	13.6	1.22e-05	0	43	0	170917888	19	4439
2026-01-27 10:44:43.14	173.03	15.98	-30.0	-31.5	13.2	1.60e-05	0	43	0	176160768	20	4324
2026-01-27 10:44:46.16	173.15	16.32	-30.1	-32.0	13.0	3.12e-05	0	43	0	182452224	20	4460
2026-01-27 10:44:49.16	173.27	16.65	-30.0	-31.6	13.3	3.35e-05	0	44	0	187695104	20	4332
2026-01-27 10:44:52.17	173.39	16.99	-30.0	-31.6	13.3	2.13e-05	0	44	0	192937984	20	4319
2026-01-27 10:44:55.17	173.52	17.34	-30.1	-31.8	13.3	1.98e-05	0	43	0	199229440	20	4365
2026-01-27 10:44:58.19	173.65	17.69	-30.1	-31.6	13.3	2.74e-05	0	44	0	204472320	20	4305
2026-01-27 10:45:01.21	173.78	18.05	-30.4	-32.5	12.9	4.27e-05	0	43	0	209715200	20	4579
2026-01-27 10:45:04.22	173.91	18.41	-30.6	-32.4	12.6	7.09e-05	0	43	0	216006656	21	4451
2026-01-27 10:45:07.23	174.05	18.78	-30.7	-32.6	12.5	1.43e-04	0	43	0	221249536	21	4509
2026-01-27 10:45:10.25	174.19	19.16	-30.9	-33.2	12.1	2.78e-04	0	44	0	227540992	21	4718
2026-01-27 10:45:13.26	174.34	19.54	-30.9	-32.8	12.1	2.40e-04	0	44	0	232783872	22	4476
2026-01-27 10:45:16.27	174.48	19.92	-30.8	-32.5	12.3	1.26e-04	0	44	0	238026752	22	4366
2026-01-27 10:45:19.28	174.63	20.31	-30.6	-31.9	12.7	1.36e-04	0	43	0	244318208	22	4189
2026-01-27 10:45:22.29	174.79	20.71	-30.7	-32.0	12.6	7.55e-05	0	44	0	249561088	22	4221
2026-01-27 10:45:25.30	174.95	21.11	-30.7	-32.1	12.7	1.07e-04	0	44	0	255852544	22	4221
2026-01-27 10:45:28.32	175.11	21.52	-30.8	-32.3	12.6	9.68e-05	0	44	0	261095424	22	4293
2026-01-27 10:45:31.33	175.28	21.93	-30.7	-32.1	12.7	6.33e-05	0	44	0	266338304	22	4232
2026-01-27 10:45:34.34	175.45	22.35	-30.8	-32.5	12.4	6.25e-05	0	44	0	272629760	22	4365
2026-01-27 10:45:37.34	175.62	22.78	-30.7	-32.0	12.8	6.79e-05	0	44	0	277872640	22	4215
2026-01-27 10:45:40.35	175.80	23.22	-30.7	-32.0	12.8	5.49e-05	0	44	0	283115520	22	4183
2026-01-27 10:45:43.37	175.99	23.66	-30.6	-31.8	12.9	5.64e-05	0	44	0	289406976	22	4146
2026-01-27 10:45:46.38	176.18	24.11	-30.5	-31.5	13.2	3.05e-05	0	44	0	294649856	22	4030
2026-01-27 10:45:49.40	176.37	24.57	-30.3	-31.5	13.5	1.60e-05	0	44	0	300941312	21	4136
2026-01-27 10:45:52.41	176.57	25.04	-30.3	-31.4	13.6	1.67e-05	0	44	0	306184192	21	4086
2026-01-27 10:45:55.42	176.78	25.51	-30.2	-31.1	13.8	6.10e-06	0	44	0	311427072	21	4005
2026-01-27 10:45:58.42	176.99	25.99	-29.9	-30.4	14.2	3.80e-06	0	44	0	317718528	21	3814
2026-01-27 10:46:01.43	177.21	26.48	-29.7	-30.4	14.5	7.00e-07	0	44	0	322961408	20	3898
2026-01-27 10:46:04.45	177.44	26.98	-30.0	-31.1	14.2	1.50e-06	0	44	0	329252864	20	4088
2026-01-27 10:46:07.46	177.67	27.49	-30.0	-31.0	14.3	2.20e-06	0	44	0	334495744	20	4078
2026-01-27 10:46:10.48	177.91	28.01	-29.9	-30.8	14.3	1.50e-06	0	44	0	339738624	20	4004
2026-01-27 10:46:13.48	178.15	28.53	-29.7	-30.3	14.7	0.00e+00	0	44	0	346030080	20	3854
2026-01-27 10:46:16.49	178.41	29.07	-29.9	-30.9	14.3	7.00e-07	0	44	0	351272960	20	4043
2026-01-27 10:46:19.51	178.67	29.62	-30.2	-31.5	13.9	3.00e-06	0	44	0	357564416	20	4212
2026-01-27 10:46:22.52	178.94	30.17	-30.2	-31.0	13.9	6.10e-06	0	44	0	362807296	21	3974
2026-01-27 10:46:25.53	179.22	30.74	-30.4	-31.6	13.5	5.30e-06	0	44	0	368050176	21	4156
2026-01-27 10:46:28.54	179.51	31.31	-30.8	-32.9	12.7	2.74e-05	0	44	0	374341632	21	4544
2026-01-27 10:46:31.55	179.81	31.90	-31.2	-33.3	12.3	1.44e-04	0	44	0	379584512	22	4576
2026-01-27 10:46:34.57	180.13	32.50	-31.4	-33.4	11.7	6.15e-04	0	44	0	384827392	23	4533
2026-01-27 10:46:37.58	180.45	33.11	-31.2	-32.7	12.2	6.68e-04	0	44	0	391118848	23	4315
2026-01-27 10:46:40.59	180.78	33.73	-31.0	-32.3	12.5	1.05e-04	0	44	0	396361728	23	4183
2026-01-27 10:46:43.60	181.13	34.36	-30.5	-31.5	13.4	2.44e-05	0	44	0	402653184	22	4004
2026-01-27 10:46:46.61	181.49	35.01	-30.8	-32.2	13.0	2.82e-05	0	44	0	407896064	22	4215
2026-01-27 10:46:49.63	181.87	35.67	-31.3	-33.8	11.9	2.73e-04	0	44	0	413138944	22	4761
2026-01-27 10:46:52.63	182.26	36.34	-31.8	-34.8	10.8	1.32e-03	0	44	0	419430400	23	5072
2026-01-27 10:46:55.65	182.67	37.02	-31.8	-34.5	11.0	2.31e-03	0	44	0	424673280	23	4954
2026-01-27 10:46:58.67	183.09	37.72	-31.7	-34.2	11.2	1.69e-03	0	44	0	430964736	23	4816
2026-01-27 10:47:01.67	183.53	38.42	-31.9	-34.6	10.6	1.86e-03	0	44	0	436207616	24	4893
2026-01-27 10:47:04.68	183.99	39.14	-32.5	-36.1	9.0	2.11e-02	0	44	0	441450496	25	5473
2026-01-27 10:47:07.67	184.47	39.87	-32.6	-36.5	8.9	2.25e-02	0	44	0	447741952	25	5654
2026-01-27 10:47:10.67	184.97	40.62	-32.7	-36.8	8.6	1.76e-02	0	44	0	452984832	25	5778
2026-01-27 10:47:13.68	185.50	41.38	-32.2	-35.1	9.8	1.26e-02	0	44	0	458227712	25	5019
2026-01-27 10:47:16.69	186.05	42.15	-31.8	-33.8	10.9	3.23e-03	0	44	0	464519168	25	4499
2026-01-27 10:47:19.70	186.62	42.94	-31.4	-32.9	11.9	9.61e-04	0	44	0	469762048	24	4272
2026-01-27 10:47:22.71	187.23	43.74	-31.9	-34.4	10.7	3.01e-03	0	44	0	476053504	24	4802
2026-01-27 10:47:25.72	187.87	44.55	-31.2	-32.8	12.4	7.30e-04	0	44	0	481296384	23	4312
2026-01-27 10:47:28.74	188.54	45.38	-30.7	-31.9	13.2	5.18e-05	0	44	0	486539264	22	4137
2026-01-27 10:47:31.75	189.25	46.23	-30.5	-31.4	13.5	4.50e-06	0	44	0	492830720	22	3989
2026-01-27 10:47:34.77	189.99	47.08	-30.6	-32.0	13.5	3.80e-06	0	44	0	498073600	21	4260
2026-01-27 10:47:37.77	190.78	47.94	-31.1	-33.0	12.5	8.92e-05	0	44	0	503316480	22	4479
2026-01-27 10:47:40.78	191.61	48.82	-31.8	-34.6	11.0	8.86e-04	0	44	0	509607936	23	4985
2026-01-27 10:47:43.80	192.49	49.71	-31.0	-32.3	12.6	9.68e-05	0	44	0	514850816	23	4164
2026-01-27 10:47:46.82	193.42	50.61	-30.2	-31.1	14.0	2.97e-05	0	44	0	521142272	21	3994
2026-01-27 10:47:49.82	194.41	51.52	-30.8	-32.6	13.1	1.14e-05	0	44	0	526385152	21	4447
2026-01-27 10:47:52.83	195.45	52.43	-30.5	-31.3	13.7	6.63e-05	0	44	0	531628032	22	3949
2026-01-27 10:47:55.84	196.57	53.35	-29.3	-29.3	15.5	0.00e+00	0	44	0	537919488	20	3595
2026-01-27 10:47:58.86	197.76	54.28	-29.2	-29.5	15.9	0.00e+00	0	44	0	543162368	19	3735
2026-01-27 10:48:01.85	199.02	55.21	-29.2	-29.6	15.7	0.00e+00	0	44	0	549453824	19	3748
2026-01-27 10:48:04.86	200.37	56.14	-28.8	-29.1	16.2	0.00e+00	0	44	0	554696704	18	3708
2026-01-27 10:48:07.87	201.82	57.08	-29.0	-29.4	16.2	0.00e+00	0	44	0	559939584	18	3794
2026-01-27 10:48:10.87	203.36	58.00	-29.0	-29.4	16.2	0.00e+00	0	44	0	566231040	18	3782
2026-01-27 10:48:13.89	205.02	58.93	-29.5	-30.6	15.6	0.00e+00	0	44	0	571473920	18	4103
2026-01-27 10:48:16.89	206.78	59.84	-29.7	-30.1	15.1	7.00e-07	0	44	0	576716800	20	3795
2026-01-27 10:48:19.91	208.69	60.75	-30.4	-31.6	14.0	3.00e-06	0	44	0	583008256	21	4117
2026-01-27 10:48:22.92	210.73	61.63	-30.2	-31.0	14.3	2.20e-06	0	44	0	588251136	21	3939
2026-01-27 10:48:25.92	212.91	62.49	-29.6	-30.5	15.3	0.00e+00	0	44	0	594542592	19	3961
2026-01-27 10:48:28.92	215.25	63.33	-29.5	-29.7	15.2	0.00e+00	0	44	0	599785472	20	3698
2026-01-27 10:48:31.92	217.75	64.13	-29.4	-29.9	15.7	0.00e+00	0	44	0	605028352	19	3818
2026-01-27 10:48:34.93	220.44	64.89	-29.5	-30.2	15.5	0.00e+00	0	44	0	611319808	19	3903
2026-01-27 10:48:37.95	223.32	65.61	-29.5	-30.2	15.4	0.00e+00	0	44	0	616562688	19	3895
2026-01-27 10:48:40.97	226.39	66.28	-29.7	-30.6	15.3	0.00e+00	0	44	0	621805568	19	4009
2026-01-27 10:48:43.98	229.63	66.89	-29.5	-29.6	15.5	0.00e+00	0	44	0	628097024	20	3655
2026-01-27 10:48:46.98	233.04	67.43	-30.8	-32.0	13.3	8.30e-06	0	44	0	633339904	22	4145
2026-01-27 10:48:49.98	236.62	67.89	-30.1	-30.7	14.6	0.00e+00	0	44	0	639631360	21	3860
2026-01-27 10:48:53.00	240.37	68.28	-31.4	-33.5	12.6	7.40e-05	0	44	0	644874240	22	4609
2026-01-27 10:48:56.00	244.23	68.58	-31.6	-33.9	12.0	1.94e-04	0	44	0	650117120	23	4645
2026-01-27 10:48:59.00	248.19	68.79	-31.8	-33.4	11.6	4.45e-03	0	44	0	656408576	25	4310
2026-01-27 10:49:02.01	252.23	68.90	-31.5	-33.4	12.3	1.20e-04	0	44	0	661651456	23	4496
2026-01-27 10:49:05.03	256.30	68.92	-30.5	-31.6	14.1	0.00e+00	0	44	0	666894336	21	4095
2026-01-27 10:49:08.03	260.34	68.83	-30.7	-31.7	13.8	6.10e-06	0	44	0	673185792	22	4036
2026-01-27 10:49:11.05	264.35	68.66	-31.1	-32.1	13.1	7.85e-05	0	44	0	678428672	23	4064
2026-01-27 10:49:14.06	268.25	68.39	-29.8	-30.0	15.0	7.00e-07	0	44	0	684720128	21	3651
2026-01-27 10:49:17.06	272.02	68.03	-31.1	-32.8	13.0	1.90e-05	0	44	0	689963008	22	4366
2026-01-27 10:49:20.06	275.65	67.59	-30.8	-32.4	13.6	5.30e-06	0	44	0	695205888	21	4322
2026-01-27 10:49:23.08	279.13	67.07	-31.1	-32.8	13.0	1.75e-05	0	44	0	701497344	22	4369
2026-01-27 10:49:26.09	282.43	66.48	-31.3	-32.7	12.8	5.23e-04	0	44	0	706740224	23	4237
2026-01-27 10:49:29.10	285.54	65.84	-30.1	-30.6	14.7	7.00e-07	0	44	0	713031680	21	3820
2026-01-27 10:49:32.10	288.46	65.14	-27.9	-27.4	17.7	0.00e+00	0	44	0	718274560	17	3390
2026-01-27 10:49:35.12	291.21	64.38	-29.4	-30.0	15.8	0.00e+00	0	44	0	723517440	19	3824
2026-01-27 10:49:38.12	293.76	63.60	-29.5	-30.1	15.6	0.00e+00	0	44	0	729808896	19	3881
2026-01-27 10:49:41.13	296.16	62.77	-27.5	-27.9	16.6	0.00e+00	0	44	0	735051776	16	3757
2026-01-27 10:49:44.14	298.39	61.92	-28.6	-29.3	16.1	0.00e+00	0	44	0	740294656	17	3929
2026-01-27 10:49:47.15	300.48	61.04	-28.0	-27.7	17.6	0.00e+00	0	44	0	746586112	17	3456
2026-01-27 10:49:50.16	302.42	60.15	-29.4	-30.4	15.9	0.00e+00	0	44	0	751828992	18	4044
2026-01-27 10:49:53.17	304.23	59.24	-29.1	-29.6	16.3	0.00e+00	0	44	0	758120448	18	3821
2026-01-27 10:49:56.18	305.92	58.32	-28.8	-28.4	16.7	0.00e+00	0	44	0	763363328	19	3446
2026-01-27 10:49:59.18	307.49	57.40	-28.5	-28.2	17.1	0.00e+00	0	44	0	768606208	18	3497
2026-01-27 10:50:02.19	308.96	56.47	-29.0	-29.5	16.3	0.00e+00	0	44	0	774897664	18	3809
2026-01-27 10:50:05.20	310.34	55.54	-28.7	-28.7	16.8	0.00e+00	0	44	0	780140544	18	3588
2026-01-27 10:50:08.21	311.63	54.61	-28.7	-29.3	16.7	0.00e+00	0	44	0	785383424	17	3828
2026-01-27 10:50:11.22	312.85	53.69	-30.2	-31.4	14.5	0.00e+00	0	44	0	791674880	20	4138
2026-01-27 10:50:14.24	313.99	52.76	-29.7	-30.4	15.5	0.00e+00	0	44	0	796917760	19	3944
2026-01-27 10:50:17.26	315.06	51.85	-31.3	-33.2	12.9	1.67e-05	0	44	0	803209216	22	4497
2026-01-27 10:50:20.27	316.06	50.94	-31.5	-33.4	12.3	2.34e-04	0	44	0	808452096	23	4476
2026-01-27 10:50:23.27	317.01	50.05	-32.0	-34.3	11.4	8.17e-04	0	44	0	813694976	24	4695
2026-01-27 10:50:26.28	317.90	49.16	-31.8	-33.7	11.8	7.04e-04	0	44	0	819986432	24	4490
2026-01-27 10:50:29.29	318.75	48.28	-29.7	-30.2	15.2	1.50e-06	0	44	0	825229312	20	3792
2026-01-27 10:50:32.30	319.54	47.42	-31.5	-33.9	12.3	1.60e-05	0	44	0	831520768	22	4752
2026-01-27 10:50:35.31	320.30	46.56	-29.9	-30.2	14.8	3.80e-06	0	44	0	836763648	21	3718
2026-01-27 10:50:38.31	321.02	45.73	-29.5	-30.1	15.7	0.00e+00	0	44	0	842006528	19	3842
2026-01-27 10:50:41.31	321.70	44.90	-30.8	-32.6	13.4	6.80e-06	0	44	0	848297984	21	4396
2026-01-27 10:50:44.32	322.34	44.09	-30.2	-30.8	14.6	5.30e-06	0	44	0	853540864	21	3866
2026-01-27 10:50:47.34	322.96	43.28	-29.2	-29.4	16.1	0.00e+00	0	44	0	858783744	19	3682
2026-01-27 10:50:50.35	323.55	42.49	-31.0	-32.6	13.1	4.04e-05	0	44	0	865075200	22	4301
2026-01-27 10:50:53.36	324.11	41.72	-28.8	-28.5	16.5	0.00e+00	0	44	0	870318080	19	3463
2026-01-27 10:50:56.36	324.64	40.96	-29.6	-30.3	15.6	0.00e+00	0	44	0	876609536	19	3902
2026-01-27 10:50:59.37	325.15	40.21	-32.5	-36.0	10.0	2.19e-03	0	44	0	881852416	24	5421
2026-01-27 10:51:02.38	325.64	39.47	-31.9	-33.8	11.2	5.28e-03	0	44	0	887095296	25	4475
2026-01-27 10:51:05.40	326.11	38.75	-29.5	-29.6	15.6	1.50e-06	0	44	0	893386752	20	3645
2026-01-27 10:51:08.42	326.56	38.04	-30.3	-31.6	14.3	0.00e+00	0	44	0	898629632	20	4205
2026-01-27 10:51:11.42	326.99	37.35	-31.8	-34.5	11.5	6.45e-04	0	44	0	903872512	23	4890
2026-01-27 10:51:14.43	327.40	36.66	-30.6	-31.3	13.9	1.14e-05	0	44	0	910163968	22	3935
2026-01-27 10:51:17.44	327.79	35.99	-30.2	-31.0	14.4	7.00e-07	0	44	0	915406848	21	3923
2026-01-27 10:51:20.45	328.18	35.33	-30.0	-30.5	14.7	0.00e+00	0	44	0	921698304	21	3794
2026-01-27 10:51:23.46	328.54	34.69	-30.3	-31.1	14.4	3.00e-06	0	44	0	926941184	21	3969
2026-01-27 10:51:26.47	328.89	34.06	-31.7	-34.0	11.8	2.66e-04	0	44	0	932184064	23	4705
2026-01-27 10:51:29.48	329.23	33.43	-32.6	-36.2	9.4	8.45e-03	0	44	0	938475520	25	5422
2026-01-27 10:51:32.48	329.56	32.82	-32.5	-35.7	9.8	1.48e-02	0	44	0	943718400	25	5214
2026-01-27 10:51:35.49	329.88	32.22	-31.3	-32.4	12.4	1.90e-04	0	44	0	948961280	24	4071
2026-01-27 10:51:38.50	330.18	31.64	-30.7	-31.7	13.6	4.50e-06	0	44	0	955252736	22	4038
2026-01-27 10:51:41.51	330.48	31.06	-30.3	-31.1	14.3	1.50e-06	0	44	0	960495616	21	3954
2026-01-27 10:51:44.53	330.76	30.49	-31.3	-33.3	12.5	9.76e-05	0	44	0	966787072	22	4558
2026-01-27 10:51:47.53	331.04	29.94	-31.8	-34.5	11.4	8.83e-04	0	44	0	972029952	23	4885
2026-01-27 10:51:50.53	331.30	29.39	-32.1	-34.9	10.7	1.56e-03	0	44	0	977272832	24	4977
2026-01-27 10:51:53.54	331.56	28.85	-31.6	-33.3	11.8	7.03e-04	0	44	0	983564288	24	4387
2026-01-27 10:51:56.55	331.81	28.33	-30.9	-31.9	13.0	4.73e-05	0	44	0	988807168	23	4014
2026-01-27 10:51:59.56	332.05	27.81	-30.2	-30.8	14.2	3.80e-06	0	44	0	995098624	21	3889
2026-01-27 10:52:02.57	332.29	27.30	-29.6	-29.9	15.3	0.00e+00	0	44	0	1000341504	20	3728
2026-01-27 10:52:05.58	332.52	26.80	-29.9	-30.6	14.8	0.00e+00	0	44	0	1005584384	20	3922
2026-01-27 10:52:08.60	332.74	26.31	-30.4	-31.6	13.6	6.50e-04	0	44	0	1011875840	21	4141
2026-01-27 10:52:11.61	332.96	25.82	-30.5	-32.0	13.3	4.53e-03	0	44	0	1017118720	21	4273
2026-01-27 10:52:14.62	333.17	25.35	-30.3	-31.4	13.6	2.06e-03	0	44	0	1022361600	21	4075
2026-01-27 10:52:17.63	333.37	24.88	-30.1	-30.6	14.4	0.00e+00	0	44	0	1028653056	21	3839
2026-01-27 10:52:20.64	333.57	24.42	-30.1	-30.6	14.3	0.00e+00	0	44	0	1033895936	21	3846
2026-01-27 10:52:23.65	333.76	23.97	-30.0	-30.5	14.4	7.00e-07	0	44	0	1040187392	21	3815
2026-01-27 10:52:26.66	333.95	23.53	-29.9	-30.2	14.5	5.30e-06	0	44	0	1045430272	21	3747
2026-01-27 10:52:29.67	334.13	23.09	-29.7	-30.2	14.8	3.43e-05	0	44	0	1050673152	20	3817
2026-01-27 10:52:32.68	334.31	22.66	-29.8	-30.6	14.7	0.00e+00	0	44	0	1056964608	20	3937
2026-01-27 10:52:35.69	334.48	22.24	-29.7	-30.3	14.9	0.00e+00	0	44	0	1062207488	20	3858
2026-01-27 10:52:38.71	334.65	21.82	-29.5	-29.7	15.2	0.00e+00	0	44	0	1068498944	20	3694
2026-01-27 10:52:41.72	334.82	21.42	-29.1	-29.4	15.7	0.00e+00	0	44	0	1073741824	19	3695
2026-01-27 10:52:44.72	334.98	21.01	-28.9	-28.8	16.0	0.00e+00	0	44	0	1078984704	19	3562
2026-01-27 10:52:47.75	335.14	20.61	-28.6	-28.6	16.4	0.00e+00	0	44	0	1085276160	18	3607
2026-01-27 10:52:50.75	335.29	20.23	-28.9	-29.2	16.0	0.00e+00	0	44	0	1090519040	18	3745
2026-01-27 10:52:53.76	335.44	19.84	-29.0	-29.5	15.7	0.00e+00	0	44	0	1095761920	18	3834
2026-01-27 10:52:56.76	335.59	19.46	-29.1	-29.7	15.7	0.00e+00	0	44	0	1102053376	18	3876
2026-01-27 10:52:59.77	335.74	19.09	-29.4	-30.0	15.2	0.00e+00	0	44	0	1107296256	19	3858
2026-01-27 10:53:02.79	335.88	18.72	-29.7	-30.7	14.7	0.00e+00	0	44	0	1113587712	19	4070
2026-01-27 10:53:05.81	336.01	18.36	-30.0	-31.2	13.9	7.00e-07	0	44	0	1118830592	20	4122
2026-01-27 10:53:08.82	336.15	18.00	-30.2	-31.7	13.6	1.75e-05	0	44	0	1124073472	20	4274
2026-01-27 10:53:11.83	336.28	17.65	-30.3	-32.0	13.1	1.06e-05	0	44	0	1130364928	20	4374
2026-01-27 10:53:14.84	336.41	17.30	-29.7	-30.5	12.4	5.72e-05	0	44	0	1135607808	20	3943
2026-01-27 10:53:17.85	336.54	16.95	-29.7	-30.5	14.0	3.66e-05	0	44	0	1141899264	20	3921
2026-01-27 10:53:20.86	336.66	16.62	-26.5	-28.3	4.0	7.21e-01	0	44	0	1147142144	14	4430
2026-01-27 10:53:23.88	336.78	16.28	-26.3	-29.1	3.8	1.48e+00	0	44	104	1147142144	12	4977
2026-01-27 10:53:26.89	336.90	15.95	-29.3	-30.6	12.1	5.90e-04	0	44	0	3145728	18	4167
2026-01-27 10:53:29.90	337.02	15.63	-29.5	-30.5	12.1	7.09e-05	0	44	0	9437184	19	4042
2026-01-27 10:53:32.91	337.13	15.31	-29.9	-31.3	13.3	1.83e-05	0	44	0	14680064	19	4260
2026-01-27 10:53:35.92	337.25	14.99	-30.0	-31.6	13.8	4.50e-06	0	44	0	19922944	19	4338
2026-01-27 10:53:38.93	337.36	14.68	-30.0	-31.3	13.6	1.14e-05	0	44	0	26214400	20	4157
2026-01-27 10:53:41.95	337.47	14.37	-30.2	-31.7	13.4	1.60e-05	0	44	0	31457280	20	4290
2026-01-27 10:53:44.96	337.57	14.06	-30.3	-32.0	13.3	1.29e-05	0	44	0	37748736	20	4388
2026-01-27 10:53:47.96	337.68	13.76	-30.4	-32.3	13.0	2.97e-05	0	44	0	42991616	20	4475
2026-01-27 10:53:50.97	337.78	13.46	-30.5	-32.0	12.8	6.17e-05	0	44	0	48234496	21	4308
2026-01-27 10:53:53.99	337.88	13.17	-30.7	-32.7	12.4	9.23e-05	0	44	0	54525952	21	4518
2026-01-27 10:53:57.00	337.98	12.88	-30.6	-32.4	12.7	9.30e-05	0	44	0	59768832	21	4427
2026-01-27 10:54:00.01	338.08	12.59	-30.5	-32.1	12.8	6.86e-05	0	44	0	65011712	21	4336
2026-01-27 10:54:03.02	338.17	12.31	-30.5	-32.3	12.7	8.16e-05	0	44	0	71303168	21	4406
2026-01-27 10:54:06.04	338.27	12.03	-30.6	-32.6	12.5	1.79e-04	0	44	0	76546048	21	4498
2026-01-27 10:54:09.05	338.36	11.75	-30.6	-32.6	12.4	1.40e-04	0	44	0	82837504	21	4494
2026-01-27 10:54:12.06	338.45	11.47	-30.6	-32.6	12.4	1.56e-04	0	44	0	88080384	21	4504
2026-01-27 10:54:15.07	338.54	11.20	-30.5	-32.5	12.4	1.81e-04	0	44	0	93323264	21	4504
2026-01-27 10:54:18.07	338.63	10.94	-30.8	-33.4	11.6	4.42e-04	0	44	0	99614720	21	4858
2026-01-27 10:54:21.07	338.72	10.67	-30.4	-32.2	12.5	1.25e-04	0	44	0	104857600	21	4449
2026-01-27 10:54:24.08	338.80	10.41	-30.6	-32.7	12.3	1.30e-04	0	44	0	110100480	21	4553
2026-01-27 10:54:27.08	338.89	10.15	-30.7	-33.0	12.0	1.99e-04	0	44	0	116391936	21	4669
2026-01-27 10:54:30.08	338.97	9.89	-30.9	-33.4	11.7	3.96e-04	0	44	0	121634816	21	4827
2026-01-27 10:54:33.10	339.05	9.64	-30.8	-33.3	11.8	3.48e-04	0	44	0	127926272	21	4756
2026-01-27 10:54:36.11	339.14	9.38	-30.8	-33.1	11.9	4.62e-04	0	44	0	133169152	21	4705
2026-01-27 10:54:39.13	339.22	9.13	-30.3	-31.7	12.8	9.00e-05	0	44	0	138412032	21	4247
2026-01-27 10:54:42.15	339.29	8.89	-30.2	-31.6	12.9	6.48e-05	0	44	0	144703488	21	4190
2026-01-27 10:54:45.15	339.37	8.64	-30.3	-31.7	12.8	6.40e-05	0	44	0	149946368	21	4231
2026-01-27 10:54:48.15	339.45	8.40	-30.4	-32.1	12.5	9.15e-05	0	44	0	156237824	21	4378
2026-01-27 10:54:51.16	339.52	8.16	-30.3	-31.9	12.6	1.10e-04	0	44	0	161480704	21	4313
2026-01-27 10:54:54.17	339.60	7.92	-30.4	-32.1	12.4	1.26e-04	0	44	0	166723584	21	4382
2026-01-27 10:54:57.19	339.67	7.68	-30.4	-32.2	12.4	2.46e-04	0	44	0	173015040	21	4404
2026-01-27 10:55:00.20	339.74	7.45	-30.6	-32.6	12.0	4.64e-04	0	44	0	178257920	21	4567
2026-01-27 10:55:03.21	339.82	7.22	-30.6	-32.8	11.9	2.89e-04	0	44	0	183500800	21	4631
2026-01-27 10:55:06.22	339.89	6.99	-33.7	-46.1	3.8	1.49e+00	0	44	104	187695104	27	15012

#Closed at: 2026-01-27 10:55:08
#Recorded file [187 MB]: D:/data/31010_260127_135324.dat