passes_logs/2026/01/27/R2M6_AANII_01/R2M6_AANII_01__20260127_092342_NOAA_20_JPSS-1_rec.log

#Pass ID: 20260127_092342_NOAA 20 (JPSS-1)
#Satellite: NOAA 20 (JPSS-1)
#Configuration: NOAA 20
#almurnet v.1.7.20240730
#Start time: 2026-01-27 09:23:42

#Version: 2.2.20231116
#Station: R2M6_AANII_01
#Location: 30.233357 lon 59.946436 lat
#TLE: 1 43013U 17073A   26026.81907703  .00000149  00000+0  91399-4 0  9998
#TLE: 2 43013  98.7647 327.6343 0000991  22.4130 337.7089 14.19540778424411

#Time	Az	El	Level	Level2	SNR	BER	BlckErr	Temp	State	Recorded	gain1	gain2
2026-01-27 09:23:42.91	131.49	7.04	-32.2	-39.1	4.8	1.33e+00	0	41	0	0	25	7896
2026-01-27 09:23:45.92	131.35	7.26	-32.2	-38.9	6.9	1.64e-01	0	41	0	1048576	25	7719
2026-01-27 09:23:48.93	131.21	7.49	-32.0	-37.8	7.7	8.69e-02	0	42	0	7340032	25	6975
2026-01-27 09:23:51.93	131.07	7.72	-32.2	-38.4	7.2	1.55e-01	0	42	0	12582912	25	7413
2026-01-27 09:23:54.94	130.93	7.95	-31.6	-36.6	9.1	2.65e-02	0	42	0	17825792	24	6357
2026-01-27 09:23:57.95	130.78	8.18	-31.5	-36.1	9.5	1.90e-02	0	42	0	24117248	24	6138
2026-01-27 09:24:00.97	130.63	8.42	-31.4	-35.8	9.7	8.46e-03	0	42	0	29360128	24	5980
2026-01-27 09:24:03.98	130.48	8.65	-31.4	-35.5	10.0	1.00e-02	0	42	0	35651584	24	5804
2026-01-27 09:24:06.98	130.33	8.89	-31.3	-35.7	10.3	6.01e-03	0	42	0	40894464	23	5965
2026-01-27 09:24:09.99	130.17	9.13	-31.4	-36.1	10.1	7.14e-03	0	42	0	46137344	23	6182
2026-01-27 09:24:13.02	130.01	9.38	-31.5	-36.3	10.0	7.59e-03	0	42	0	52428800	23	6256
2026-01-27 09:24:16.01	129.85	9.62	-31.1	-35.0	10.9	2.27e-03	0	42	0	57671680	23	5637
2026-01-27 09:24:19.02	129.69	9.87	-31.1	-34.9	11.0	2.85e-03	0	42	0	63963136	23	5578
2026-01-27 09:24:22.03	129.52	10.12	-30.9	-34.6	11.6	5.06e-04	0	42	0	69206016	22	5552
2026-01-27 09:24:25.04	129.35	10.37	-30.8	-34.3	11.9	3.73e-04	0	42	0	74448896	22	5394
2026-01-27 09:24:28.05	129.18	10.63	-30.7	-33.9	12.3	1.95e-04	0	42	0	80740352	22	5207
2026-01-27 09:24:31.07	129.00	10.88	-30.7	-34.0	12.3	2.22e-04	0	42	0	85983232	22	5230
2026-01-27 09:24:34.07	128.82	11.14	-30.7	-33.9	12.3	1.28e-04	0	42	0	91226112	22	5193
2026-01-27 09:24:37.08	128.64	11.40	-30.7	-34.0	12.3	1.97e-04	0	43	0	97517568	22	5238
2026-01-27 09:24:40.10	128.45	11.67	-30.6	-33.7	12.5	1.18e-04	0	43	0	102760448	22	5120
2026-01-27 09:24:43.10	128.26	11.93	-30.6	-33.7	12.5	1.07e-04	0	43	0	109051904	22	5145
2026-01-27 09:24:46.11	128.06	12.20	-30.5	-33.3	12.8	5.41e-05	0	43	0	114294784	22	4987
2026-01-27 09:24:49.12	127.87	12.48	-30.5	-33.4	12.8	7.24e-05	0	43	0	119537664	22	5020
2026-01-27 09:24:52.12	127.67	12.75	-30.5	-33.3	12.8	4.95e-05	0	43	0	125829120	22	4998
2026-01-27 09:24:55.13	127.46	13.03	-30.5	-33.3	12.9	5.03e-05	0	43	0	131072000	22	4960
2026-01-27 09:24:58.13	127.25	13.31	-30.6	-33.5	12.8	6.94e-05	0	43	0	136314880	22	5024
2026-01-27 09:25:01.14	127.04	13.59	-30.7	-33.6	12.7	6.63e-05	0	43	0	142606336	22	5072
2026-01-27 09:25:04.15	126.82	13.88	-30.6	-33.3	13.0	4.88e-05	0	43	0	147849216	22	4937
2026-01-27 09:25:07.17	126.59	14.17	-30.5	-33.1	13.1	2.05e-05	0	43	0	154140672	22	4883
2026-01-27 09:25:10.17	126.37	14.46	-30.7	-33.8	12.7	6.63e-05	0	43	0	159383552	22	5126
2026-01-27 09:25:13.18	126.14	14.75	-30.6	-33.4	12.9	5.56e-05	0	43	0	164626432	22	5005
2026-01-27 09:25:16.19	125.90	15.05	-30.8	-34.1	12.4	8.23e-05	0	43	0	170917888	22	5237
2026-01-27 09:25:19.20	125.66	15.35	-30.5	-33.2	13.2	2.28e-05	0	43	0	176160768	22	4892
2026-01-27 09:25:22.21	125.41	15.66	-30.6	-33.4	13.0	3.12e-05	0	43	0	181403648	22	4981
2026-01-27 09:25:25.22	125.16	15.96	-30.4	-32.8	13.5	1.44e-05	0	43	0	187695104	22	4733
2026-01-27 09:25:28.23	124.90	16.28	-30.6	-33.2	13.2	1.37e-05	0	43	0	192937984	22	4891
2026-01-27 09:25:31.24	124.64	16.59	-30.7	-33.6	12.9	4.11e-05	0	43	0	199229440	22	5052
2026-01-27 09:25:34.25	124.37	16.91	-30.5	-33.0	13.4	9.10e-06	0	43	0	204472320	22	4802
2026-01-27 09:25:37.26	124.09	17.23	-30.4	-32.9	13.4	2.13e-05	0	43	0	209715200	22	4798
2026-01-27 09:25:40.28	123.81	17.56	-30.5	-33.3	13.2	9.10e-06	0	43	0	216006656	22	4937
2026-01-27 09:25:43.29	123.52	17.89	-30.5	-33.2	13.2	2.67e-05	0	43	0	221249536	22	4935
2026-01-27 09:25:46.29	123.23	18.22	-30.5	-33.2	13.2	2.44e-05	0	43	0	227540992	22	4932
2026-01-27 09:25:49.30	122.93	18.55	-30.5	-33.2	13.3	1.67e-05	0	43	0	232783872	22	4891
2026-01-27 09:25:52.31	122.62	18.89	-30.6	-33.2	13.3	1.90e-05	0	43	0	238026752	22	4890
2026-01-27 09:25:55.32	122.31	19.24	-30.6	-33.4	13.3	1.29e-05	0	43	0	244318208	22	4956
2026-01-27 09:25:58.34	121.99	19.59	-30.6	-33.4	13.3	2.36e-05	0	43	0	249561088	22	4956
2026-01-27 09:26:01.35	121.66	19.94	-30.6	-33.3	13.3	1.22e-05	0	43	0	254803968	22	4927
2026-01-27 09:26:04.36	121.32	20.29	-30.8	-33.8	13.1	2.67e-05	0	43	0	261095424	22	5068
2026-01-27 09:26:07.36	120.98	20.65	-30.9	-34.0	12.9	3.96e-05	0	43	0	266338304	22	5165
2026-01-27 09:26:10.38	120.62	21.02	-30.9	-34.0	13.0	3.43e-05	0	43	0	272629760	22	5132
2026-01-27 09:26:13.39	120.26	21.39	-31.0	-34.4	12.8	7.17e-05	0	43	0	277872640	22	5303
2026-01-27 09:26:16.40	119.89	21.76	-30.9	-34.0	13.0	2.28e-05	0	44	0	283115520	22	5141
2026-01-27 09:26:19.41	119.51	22.13	-30.9	-34.0	13.1	3.58e-05	0	44	0	289406976	22	5138
2026-01-27 09:26:22.42	119.11	22.51	-30.8	-33.8	13.2	1.75e-05	0	43	0	294649856	22	5079
2026-01-27 09:26:25.43	118.71	22.90	-30.7	-33.5	13.4	1.22e-05	0	43	0	300941312	22	4943
2026-01-27 09:26:28.44	118.30	23.29	-30.8	-33.6	13.4	1.52e-05	0	44	0	306184192	22	4964
2026-01-27 09:26:31.45	117.88	23.68	-30.9	-34.1	13.1	2.44e-05	0	44	0	311427072	22	5158
2026-01-27 09:26:34.45	117.45	24.08	-31.0	-34.3	12.9	4.27e-05	0	44	0	317718528	22	5271
2026-01-27 09:26:37.46	117.01	24.48	-31.0	-34.3	12.8	5.87e-05	0	44	0	322961408	22	5273
2026-01-27 09:26:40.47	116.56	24.88	-31.1	-34.4	12.8	7.78e-05	0	44	0	329252864	22	5302
2026-01-27 09:26:43.49	116.09	25.29	-31.1	-34.4	12.9	5.03e-05	0	44	0	334495744	22	5268
2026-01-27 09:26:46.49	115.61	25.71	-30.9	-34.0	13.2	2.05e-05	0	44	0	339738624	22	5108
2026-01-27 09:26:49.50	115.12	26.13	-31.1	-34.5	12.9	6.48e-05	0	44	0	346030080	22	5329
2026-01-27 09:26:52.51	114.61	26.55	-31.0	-34.2	13.2	2.82e-05	0	44	0	351272960	22	5183
2026-01-27 09:26:55.52	114.09	26.98	-31.2	-34.6	12.9	2.89e-05	0	44	0	356515840	22	5351
2026-01-27 09:26:58.53	113.56	27.41	-31.1	-34.4	13.0	3.50e-05	0	44	0	362807296	22	5245
2026-01-27 09:27:01.54	113.01	27.84	-31.4	-35.1	12.6	6.71e-05	0	44	0	368050176	22	5526
2026-01-27 09:27:04.54	112.45	28.28	-31.3	-34.9	12.7	7.32e-05	0	44	0	374341632	22	5443
2026-01-27 09:27:07.56	111.86	28.72	-31.5	-35.1	12.3	1.55e-04	0	44	0	379584512	23	5400
2026-01-27 09:27:10.57	111.27	29.17	-31.8	-36.0	11.7	6.12e-04	0	44	0	384827392	23	5791
2026-01-27 09:27:13.57	110.66	29.62	-32.0	-36.4	11.4	9.35e-04	0	44	0	391118848	23	5979
2026-01-27 09:27:16.59	110.02	30.07	-32.2	-36.7	10.8	2.80e-03	0	44	0	396361728	24	6010
2026-01-27 09:27:19.60	109.37	30.53	-32.4	-37.5	10.3	5.20e-03	0	44	0	401604608	24	6428
2026-01-27 09:27:22.59	108.71	30.98	-32.6	-37.6	9.7	9.70e-03	0	44	0	407896064	25	6395
2026-01-27 09:27:25.59	108.03	31.44	-32.5	-37.2	10.1	9.28e-03	0	44	0	413138944	25	6162
2026-01-27 09:27:28.59	107.32	31.91	-32.5	-37.2	10.0	6.70e-03	0	44	0	419430400	25	6192
2026-01-27 09:27:31.59	106.60	32.37	-32.7	-37.7	9.7	1.39e-02	0	44	0	424673280	25	6415
2026-01-27 09:27:34.60	105.85	32.84	-32.7	-38.0	9.5	1.45e-02	0	44	0	429916160	25	6599
2026-01-27 09:27:37.62	105.07	33.31	-32.5	-37.1	10.2	9.25e-03	0	44	0	436207616	25	6122
2026-01-27 09:27:40.63	104.28	33.78	-32.3	-36.5	10.7	3.27e-03	0	44	0	441450496	25	5797
2026-01-27 09:27:43.64	103.46	34.25	-32.3	-36.3	10.9	2.52e-03	0	44	0	446693376	25	5693
2026-01-27 09:27:46.64	102.62	34.72	-31.9	-35.1	11.7	7.25e-04	0	44	0	452984832	25	5199
2026-01-27 09:27:49.66	101.75	35.20	-31.7	-35.0	12.1	2.84e-04	0	44	0	458227712	24	5263
2026-01-27 09:27:52.65	100.87	35.66	-31.6	-34.6	12.4	2.67e-04	0	44	0	464519168	24	5087
2026-01-27 09:27:55.66	99.95	36.13	-31.4	-34.5	12.8	3.28e-05	0	44	0	469762048	23	5172
2026-01-27 09:27:58.67	99.00	36.60	-31.4	-34.5	12.9	6.79e-05	0	44	0	475004928	23	5150
2026-01-27 09:28:01.67	98.03	37.07	-31.6	-35.1	12.5	9.30e-05	0	44	0	481296384	23	5405
2026-01-27 09:28:04.68	97.03	37.53	-31.7	-35.5	12.1	1.75e-04	0	44	0	486539264	23	5573
2026-01-27 09:28:07.69	96.00	37.99	-31.7	-35.5	12.2	2.49e-04	0	44	0	491782144	23	5573
2026-01-27 09:28:10.71	94.94	38.44	-31.9	-35.9	12.0	3.72e-04	0	44	0	498073600	23	5723
2026-01-27 09:28:13.71	93.85	38.89	-31.6	-35.2	12.4	1.11e-04	0	44	0	503316480	23	5438
2026-01-27 09:28:16.73	92.73	39.33	-31.9	-36.0	11.9	4.51e-04	0	44	0	509607936	23	5778
2026-01-27 09:28:19.74	91.58	39.76	-31.7	-35.4	12.3	2.68e-04	0	44	0	514850816	23	5506
2026-01-27 09:28:22.76	90.39	40.19	-31.6	-35.0	12.5	1.52e-04	0	44	0	520093696	23	5362
2026-01-27 09:28:25.76	89.19	40.61	-31.3	-34.1	13.1	4.88e-05	0	44	0	526385152	23	5005
2026-01-27 09:28:28.78	87.94	41.01	-30.8	-32.9	13.9	4.50e-06	0	44	0	531628032	23	4570
2026-01-27 09:28:31.79	86.66	41.41	-30.8	-33.3	14.1	3.00e-06	0	44	0	537919488	22	4804
2026-01-27 09:28:34.80	85.36	41.79	-30.8	-33.3	14.0	7.00e-07	0	44	0	543162368	22	4812
2026-01-27 09:28:37.80	84.03	42.16	-30.6	-32.8	14.3	1.50e-06	0	44	0	548405248	22	4657
2026-01-27 09:28:40.82	82.65	42.52	-30.9	-33.7	13.8	3.80e-06	0	44	0	554696704	22	4945
2026-01-27 09:28:43.83	81.26	42.86	-31.1	-34.2	13.5	9.90e-06	0	44	0	559939584	22	5112
2026-01-27 09:28:46.83	79.84	43.18	-31.0	-33.9	13.7	1.52e-05	0	44	0	565182464	22	5017
2026-01-27 09:28:49.83	78.39	43.48	-30.7	-33.1	14.2	2.20e-06	0	44	0	571473920	22	4754
2026-01-27 09:28:52.84	76.91	43.77	-30.7	-33.2	14.2	7.00e-07	0	44	0	576716800	22	4768
2026-01-27 09:28:55.86	75.39	44.03	-30.7	-33.2	14.2	2.20e-06	0	44	0	583008256	22	4767
2026-01-27 09:28:58.87	73.86	44.28	-31.0	-33.8	13.8	2.20e-06	0	44	0	588251136	22	4984
2026-01-27 09:29:01.86	72.32	44.50	-31.0	-33.8	13.7	2.20e-06	0	44	0	593494016	22	5001
2026-01-27 09:29:04.87	70.74	44.70	-31.5	-34.8	12.8	5.79e-05	0	44	0	599785472	23	5255
2026-01-27 09:29:07.88	69.15	44.88	-31.5	-34.8	12.8	5.49e-05	0	44	0	605028352	23	5237
2026-01-27 09:29:10.89	67.54	45.03	-31.7	-35.3	12.5	9.23e-05	0	44	0	610271232	23	5471
2026-01-27 09:29:13.89	65.92	45.16	-31.9	-36.0	12.0	3.33e-04	0	44	0	616562688	23	5774
2026-01-27 09:29:16.91	64.28	45.26	-31.8	-35.1	12.3	3.65e-04	0	44	0	621805568	24	5259
2026-01-27 09:29:19.93	62.63	45.34	-31.4	-33.9	13.1	3.58e-05	0	44	0	628097024	24	4814
2026-01-27 09:29:22.93	60.98	45.39	-31.4	-34.0	13.0	3.12e-05	0	44	0	633339904	24	4843
2026-01-27 09:29:25.95	59.32	45.42	-31.5	-34.2	12.9	4.95e-05	0	44	0	638582784	24	4935
2026-01-27 09:29:28.95	57.67	45.41	-31.7	-34.7	12.6	1.01e-04	0	44	0	644874240	24	5098
2026-01-27 09:29:31.95	56.02	45.38	-32.1	-35.9	11.7	3.90e-04	0	44	0	650117120	24	5578
2026-01-27 09:29:34.95	54.37	45.33	-32.0	-35.8	11.8	3.52e-04	0	44	0	655360000	24	5564
2026-01-27 09:29:37.96	52.73	45.25	-32.0	-35.7	11.9	3.56e-04	0	44	0	661651456	24	5511
2026-01-27 09:29:40.96	51.10	45.14	-32.8	-37.8	10.0	5.29e-03	0	44	0	666894336	25	6390
2026-01-27 09:29:43.97	49.48	45.01	-32.5	-36.8	10.7	1.95e-03	0	44	0	673185792	25	5895
2026-01-27 09:29:46.98	47.88	44.85	-32.6	-37.3	10.4	4.30e-03	0	44	0	678428672	25	6133
2026-01-27 09:29:49.99	46.29	44.67	-32.2	-35.7	11.6	8.31e-04	0	44	0	683671552	25	5398
2026-01-27 09:29:52.99	44.72	44.47	-32.2	-35.7	11.5	8.06e-04	0	44	0	689963008	25	5412
2026-01-27 09:29:56.00	43.17	44.24	-31.7	-34.7	12.6	9.61e-05	0	44	0	695205888	24	5091
2026-01-27 09:29:59.01	41.65	43.99	-31.3	-34.1	13.2	1.60e-05	0	44	0	700448768	23	4988
2026-01-27 09:30:02.01	40.15	43.72	-31.0	-33.4	13.7	6.10e-06	0	44	0	706740224	23	4745
2026-01-27 09:30:05.03	38.67	43.43	-30.7	-33.1	14.2	2.20e-06	0	44	0	711983104	22	4741
2026-01-27 09:30:08.04	37.23	43.13	-30.7	-33.1	14.3	3.80e-06	0	44	0	718274560	22	4731
2026-01-27 09:30:11.06	35.81	42.80	-30.2	-32.3	15.0	0.00e+00	0	44	0	723517440	21	4581
2026-01-27 09:30:14.07	34.42	42.46	-29.6	-31.3	15.9	0.00e+00	0	44	0	728760320	20	4372
2026-01-27 09:30:17.08	33.06	42.10	-29.8	-31.7	15.7	0.00e+00	0	44	0	735051776	20	4500
2026-01-27 09:30:20.11	31.72	41.73	-29.5	-31.2	15.9	0.00e+00	0	44	0	740294656	20	4348
2026-01-27 09:30:23.11	30.43	41.35	-29.4	-30.8	16.1	0.00e+00	0	44	0	746586112	20	4244
2026-01-27 09:30:26.12	29.16	40.95	-30.1	-32.5	15.2	0.00e+00	0	44	0	751828992	20	4774
2026-01-27 09:30:29.14	27.92	40.54	-29.3	-31.0	16.4	0.00e+00	0	44	0	757071872	19	4394
2026-01-27 09:30:32.15	26.72	40.12	-29.5	-31.5	16.1	0.00e+00	0	44	0	763363328	19	4561
2026-01-27 09:30:35.16	25.55	39.70	-29.7	-32.1	15.7	0.00e+00	0	44	0	768606208	19	4749
2026-01-27 09:30:38.18	24.40	39.26	-30.1	-32.6	15.0	0.00e+00	0	44	0	774897664	20	4801
2026-01-27 09:30:41.19	23.29	38.82	-30.2	-32.9	14.8	0.00e+00	0	44	0	780140544	20	4906
2026-01-27 09:30:44.19	22.22	38.38	-30.5	-33.5	14.4	7.00e-07	0	44	0	785383424	20	5125
2026-01-27 09:30:47.20	21.17	37.92	-30.9	-34.2	13.6	3.00e-06	0	44	0	791674880	21	5265
2026-01-27 09:30:50.21	20.15	37.47	-30.2	-32.3	14.9	7.00e-07	0	44	0	796917760	21	4597
2026-01-27 09:30:53.22	19.15	37.01	-30.5	-33.1	14.4	7.00e-07	0	44	0	802160640	21	4842
2026-01-27 09:30:56.23	18.19	36.54	-30.9	-34.1	13.7	3.80e-06	0	44	0	808452096	21	5237
2026-01-27 09:30:59.23	17.25	36.08	-31.2	-34.6	13.1	1.90e-05	0	44	0	813694976	22	5307
2026-01-27 09:31:02.23	16.35	35.61	-31.5	-34.9	12.6	7.17e-05	0	44	0	819986432	23	5298
2026-01-27 09:31:05.25	15.46	35.14	-31.9	-36.1	11.7	3.36e-04	0	44	0	825229312	23	5830
2026-01-27 09:31:08.26	14.60	34.67	-32.2	-36.5	11.0	1.61e-03	0	44	0	830472192	24	5908
2026-01-27 09:31:11.27	13.77	34.20	-32.3	-36.8	10.8	2.27e-03	0	44	0	836763648	24	6084
2026-01-27 09:31:14.29	12.95	33.73	-32.6	-37.3	10.0	6.43e-03	0	44	0	842006528	25	6236
2026-01-27 09:31:17.30	12.17	33.26	-32.8	-38.1	9.4	1.61e-02	0	44	0	847249408	25	6643
2026-01-27 09:31:20.31	11.40	32.79	-32.5	-37.3	10.0	1.05e-02	0	44	0	853540864	25	6199
2026-01-27 09:31:23.32	10.66	32.33	-32.3	-36.5	10.6	3.26e-03	0	44	0	858783744	25	5827
2026-01-27 09:31:26.32	9.94	31.87	-32.2	-36.2	10.8	3.46e-03	0	44	0	865075200	25	5691
2026-01-27 09:31:29.34	9.24	31.40	-32.2	-36.2	10.9	1.97e-03	0	44	0	870318080	25	5670
2026-01-27 09:31:32.34	8.56	30.95	-31.7	-35.1	11.9	8.37e-04	0	44	0	875560960	24	5313
2026-01-27 09:31:35.36	7.89	30.49	-31.6	-34.7	12.2	2.24e-04	0	44	0	881852416	24	5149
2026-01-27 09:31:38.37	7.25	30.03	-31.6	-34.8	12.1	3.17e-04	0	44	0	887095296	24	5211
2026-01-27 09:31:41.37	6.63	29.59	-31.7	-35.0	11.9	3.54e-04	0	44	0	893386752	24	5289
2026-01-27 09:31:44.38	6.02	29.14	-31.8	-35.3	11.7	6.05e-04	0	44	0	898629632	24	5423
2026-01-27 09:31:47.40	5.43	28.69	-31.5	-34.6	12.1	2.91e-04	0	44	0	903872512	24	5147
2026-01-27 09:31:50.41	4.85	28.25	-31.7	-35.1	11.9	3.94e-04	0	44	0	910163968	24	5316
2026-01-27 09:31:53.41	4.30	27.82	-31.7	-35.2	11.8	6.74e-04	0	44	0	915406848	24	5362
2026-01-27 09:31:56.42	3.75	27.39	-31.7	-35.2	11.7	4.64e-04	0	44	0	920649728	24	5379
2026-01-27 09:31:59.43	3.23	26.96	-31.7	-35.1	11.7	5.98e-04	0	44	0	926941184	24	5361
2026-01-27 09:32:02.41	2.72	26.54	-31.4	-34.3	12.3	2.43e-04	0	44	0	932184064	24	5022
2026-01-27 09:32:05.43	2.21	26.12	-31.3	-34.5	12.5	1.08e-04	0	44	0	938475520	23	5187
2026-01-27 09:32:08.43	1.73	25.70	-31.1	-34.0	12.8	6.33e-05	0	44	0	943718400	23	5023
2026-01-27 09:32:11.44	1.25	25.29	-31.2	-34.2	12.7	6.17e-05	0	44	0	948961280	23	5068
2026-01-27 09:32:14.45	0.79	24.88	-31.3	-34.5	12.5	9.91e-05	0	44	0	955252736	23	5193
2026-01-27 09:32:17.46	0.34	24.48	-31.3	-34.5	12.4	2.10e-04	0	44	0	960495616	23	5226
2026-01-27 09:32:20.48	359.90	24.08	-31.2	-34.2	12.6	1.30e-04	0	44	0	965738496	23	5102
2026-01-27 09:32:23.50	359.47	23.68	-31.1	-34.0	12.8	7.47e-05	0	44	0	972029952	23	5015
2026-01-27 09:32:26.50	359.06	23.29	-30.8	-33.2	13.3	2.05e-05	0	44	0	977272832	23	4725
2026-01-27 09:32:29.51	358.65	22.91	-30.8	-33.5	13.4	1.29e-05	0	44	0	983564288	22	4948
2026-01-27 09:32:32.53	358.25	22.52	-31.0	-34.1	13.1	2.28e-05	0	44	0	988807168	22	5143
2026-01-27 09:32:35.54	357.87	22.15	-30.8	-33.7	13.3	2.21e-05	0	44	0	994050048	22	5019
2026-01-27 09:32:38.55	357.49	21.77	-30.8	-33.6	13.4	1.44e-05	0	44	0	1000341504	22	4977
2026-01-27 09:32:41.56	357.12	21.40	-30.8	-33.7	13.3	1.22e-05	0	44	0	1005584384	22	5024
2026-01-27 09:32:44.56	356.77	21.04	-30.9	-34.0	13.1	2.28e-05	0	44	0	1010827264	22	5120
2026-01-27 09:32:47.58	356.42	20.68	-31.1	-34.4	12.8	6.94e-05	0	44	0	1017118720	22	5288
2026-01-27 09:32:50.59	356.07	20.32	-31.1	-34.5	12.7	5.11e-05	0	44	0	1022361600	22	5336
2026-01-27 09:32:53.60	355.74	19.97	-31.1	-34.4	12.8	6.40e-05	0	44	0	1028653056	22	5292
2026-01-27 09:32:56.60	355.42	19.62	-30.9	-34.0	13.0	4.27e-05	0	44	0	1033895936	22	5138
2026-01-27 09:32:59.60	355.10	19.27	-31.0	-34.3	12.8	6.79e-05	0	44	0	1039138816	22	5246
2026-01-27 09:33:02.61	354.79	18.93	-30.9	-34.0	13.0	4.11e-05	0	44	0	1045430272	22	5139
2026-01-27 09:33:05.63	354.48	18.59	-31.0	-34.2	12.9	4.88e-05	0	44	0	1050673152	22	5210
2026-01-27 09:33:08.63	354.19	18.26	-31.0	-34.1	12.9	5.56e-05	0	44	0	1056964608	22	5186
2026-01-27 09:33:11.64	353.90	17.93	-31.1	-34.4	12.7	9.46e-05	0	44	0	1062207488	22	5310
2026-01-27 09:33:14.65	353.61	17.60	-31.2	-34.9	12.4	1.16e-04	0	44	0	1067450368	22	5490
2026-01-27 09:33:17.66	353.34	17.28	-31.4	-35.4	12.0	3.38e-04	0	44	0	1073741824	22	5727
2026-01-27 09:33:20.67	353.06	16.96	-31.6	-35.7	11.4	8.39e-04	0	44	0	1078984704	23	5759
2026-01-27 09:33:23.67	352.80	16.64	-31.4	-34.9	11.9	4.38e-04	0	44	0	1084227584	23	5394
2026-01-27 09:33:26.67	352.54	16.33	-31.5	-35.2	11.7	5.07e-04	0	44	0	1090519040	23	5556
2026-01-27 09:33:29.69	352.29	16.02	-31.2	-34.3	12.3	1.91e-04	0	44	0	1095761920	23	5165
2026-01-27 09:33:32.69	352.04	15.71	-31.1	-34.0	12.5	1.14e-04	0	44	0	1102053376	23	5066
2026-01-27 09:33:35.71	351.79	15.41	-30.9	-33.7	12.6	1.19e-04	0	44	0	1107296256	23	4933
2026-01-27 09:33:38.73	351.55	15.11	-31.0	-33.9	12.5	1.42e-04	0	44	0	1112539136	23	5026
2026-01-27 09:33:41.74	351.32	14.81	-31.2	-34.6	12.1	2.27e-04	0	44	0	1118830592	23	5287
2026-01-27 09:33:44.75	351.09	14.52	-31.3	-34.8	11.8	5.19e-04	0	44	0	1124073472	23	5399
2026-01-27 09:33:47.76	350.87	14.23	-31.5	-35.3	11.5	6.01e-04	0	44	0	1129316352	23	5599
2026-01-27 09:33:50.77	350.65	13.94	-31.3	-34.9	11.7	6.55e-04	0	44	0	1135607808	23	5422
2026-01-27 09:33:53.77	350.43	13.66	-31.5	-35.6	11.3	9.99e-04	0	44	0	1140850688	23	5737
2026-01-27 09:33:56.79	350.22	13.37	-31.4	-35.2	11.5	8.24e-04	0	44	0	1147142144	23	5545
2026-01-27 09:33:59.80	350.02	13.10	-31.4	-35.3	11.4	1.05e-03	0	44	0	1152385024	23	5631
2026-01-27 09:34:02.79	349.81	12.82	-31.4	-35.2	11.4	9.99e-04	0	44	0	1157627904	23	5575
2026-01-27 09:34:05.80	349.62	12.55	-31.7	-36.1	10.7	1.88e-03	0	44	0	1163919360	23	6020
2026-01-27 09:34:08.81	349.42	12.28	-31.6	-36.0	10.8	3.09e-03	0	44	0	1169162240	23	5945
2026-01-27 09:34:11.82	349.23	12.01	-31.5	-35.7	10.9	1.80e-03	0	44	0	1175453696	23	5815
2026-01-27 09:34:14.84	349.04	11.74	-31.5	-35.7	10.8	2.70e-03	0	44	0	1180696576	23	5817
2026-01-27 09:34:17.86	348.86	11.48	-31.4	-35.4	11.1	1.56e-03	0	44	0	1185939456	23	5684
2026-01-27 09:34:20.86	348.68	11.22	-31.3	-34.9	11.5	8.71e-04	0	44	0	1192230912	23	5470
2026-01-27 09:34:23.87	348.50	10.96	-31.3	-34.9	11.5	8.88e-04	0	44	0	1197473792	23	5461
2026-01-27 09:34:26.88	348.33	10.71	-31.4	-35.2	11.1	1.41e-03	0	44	0	1202716672	23	5610
2026-01-27 09:34:29.89	348.16	10.45	-31.5	-35.6	10.9	2.22e-03	0	44	0	1209008128	23	5778
2026-01-27 09:34:32.90	347.99	10.20	-31.6	-36.1	10.5	3.55e-03	0	44	0	1214251008	23	6019
2026-01-27 09:34:35.91	347.82	9.95	-31.7	-36.3	10.3	4.05e-03	0	44	0	1220542464	23	6137
2026-01-27 09:34:38.92	347.66	9.71	-31.8	-36.8	9.9	7.19e-03	0	44	0	1225785344	23	6403
2026-01-27 09:34:41.93	347.50	9.46	-31.5	-35.9	10.6	3.99e-03	0	44	0	1231028224	23	5973
2026-01-27 09:34:44.93	347.35	9.22	-31.6	-36.3	10.3	4.52e-03	0	44	0	1237319680	23	6168
2026-01-27 09:34:47.94	347.20	8.98	-31.5	-35.9	10.5	3.86e-03	0	44	0	1242562560	23	5948
2026-01-27 09:34:50.94	347.05	8.74	-31.4	-35.6	10.7	3.70e-03	0	44	0	1248854016	23	5828
2026-01-27 09:34:53.95	346.90	8.51	-31.6	-36.1	10.3	4.53e-03	0	44	0	1254096896	23	6059
2026-01-27 09:34:56.96	346.75	8.27	-31.4	-35.7	10.6	3.02e-03	0	44	0	1259339776	23	5887
2026-01-27 09:34:59.97	346.61	8.04	-31.6	-36.2	10.2	4.22e-03	0	44	0	1265631232	23	6156
2026-01-27 09:35:02.96	346.47	7.81	-31.7	-36.5	9.9	7.70e-03	0	44	0	1270874112	23	6327
2026-01-27 09:35:05.98	346.33	7.58	-31.6	-36.5	9.9	7.95e-03	0	44	0	1276116992	23	6333
2026-01-27 09:35:08.99	346.20	7.36	-31.6	-36.5	9.9	8.59e-03	0	44	0	1282408448	23	6314
2026-01-27 09:35:11.99	346.06	7.13	-31.6	-36.4	9.9	7.72e-03	0	44	0	1287651328	23	6252

#Closed at: 2026-01-27 09:35:14
#Recorded file [1288 MB]: D:/data/31010_260127_122344.dat