passes_logs/2026/01/27/R2M6_AANII_01/R2M6_AANII_01__20260127_110351_NOAA_20_JPSS-1_rec.log

#Pass ID: 20260127_110351_NOAA 20 (JPSS-1)
#Satellite: NOAA 20 (JPSS-1)
#Configuration: NOAA 20
#almurnet v.1.7.20240730
#Start time: 2026-01-27 11:03:52

#Version: 2.2.20231116
#Station: R2M6_AANII_01
#Location: 30.233357 lon 59.946436 lat
#TLE: 1 43013U 17073A   26026.81907703  .00000149  00000+0  91399-4 0  9998
#TLE: 2 43013  98.7647 327.6343 0000991  22.4130 337.7089 14.19540778424411

#Time	Az	El	Level	Level2	SNR	BER	BlckErr	Temp	State	Recorded	gain1	gain2
2026-01-27 11:03:52.59	183.54	7.05	-31.5	-36.9	5.2	1.23e+00	0	41	0	0	23	6721
2026-01-27 11:03:55.60	183.68	7.27	-32.0	-38.3	7.5	1.18e-01	0	41	0	1048576	24	7465
2026-01-27 11:03:58.61	183.83	7.50	-31.4	-35.8	9.6	2.19e-02	0	42	0	7340032	24	5944
2026-01-27 11:04:01.61	183.97	7.73	-30.8	-34.2	11.1	2.36e-03	0	42	0	12582912	23	5303
2026-01-27 11:04:04.62	184.12	7.96	-30.7	-34.3	11.5	1.52e-03	0	42	0	17825792	22	5447
2026-01-27 11:04:07.63	184.27	8.19	-30.8	-34.7	11.2	1.28e-03	0	42	0	24117248	22	5613
2026-01-27 11:04:10.64	184.42	8.43	-30.8	-34.6	11.3	8.79e-04	0	42	0	29360128	22	5566
2026-01-27 11:04:13.65	184.57	8.66	-30.9	-34.8	11.3	1.40e-03	0	42	0	35651584	22	5630
2026-01-27 11:04:16.66	184.73	8.90	-30.8	-34.7	11.4	1.03e-03	0	42	0	40894464	22	5590
2026-01-27 11:04:19.67	184.88	9.14	-30.7	-34.2	11.7	6.68e-04	0	42	0	46137344	22	5386
2026-01-27 11:04:22.69	185.05	9.39	-30.8	-34.4	11.6	5.77e-04	0	42	0	52428800	22	5449
2026-01-27 11:04:25.70	185.21	9.63	-30.7	-34.0	11.9	3.95e-04	0	42	0	57671680	22	5294
2026-01-27 11:04:28.72	185.38	9.88	-30.7	-34.0	11.9	3.12e-04	0	42	0	63963136	22	5282
2026-01-27 11:04:31.73	185.55	10.13	-30.5	-33.6	12.3	1.93e-04	0	43	0	69206016	22	5105
2026-01-27 11:04:34.74	185.72	10.38	-30.5	-33.5	12.3	1.64e-04	0	43	0	74448896	22	5064
2026-01-27 11:04:37.75	185.89	10.64	-30.6	-33.8	12.1	2.44e-04	0	43	0	80740352	22	5202
2026-01-27 11:04:40.76	186.07	10.90	-30.4	-33.0	12.6	6.63e-05	0	43	0	85983232	22	4903
2026-01-27 11:04:43.78	186.25	11.16	-30.3	-33.0	12.7	7.70e-05	0	43	0	91226112	22	4900
2026-01-27 11:04:46.80	186.43	11.42	-30.3	-32.9	12.7	7.85e-05	0	43	0	97517568	22	4868
2026-01-27 11:04:49.80	186.62	11.69	-30.2	-33.3	12.8	6.86e-05	0	43	0	102760448	21	5113
2026-01-27 11:04:52.81	186.81	11.95	-30.3	-33.3	12.8	6.25e-05	0	43	0	109051904	21	5134
2026-01-27 11:04:55.82	187.00	12.22	-30.2	-33.2	12.8	3.96e-05	0	43	0	114294784	21	5084
2026-01-27 11:04:58.83	187.20	12.50	-30.2	-33.2	12.9	4.19e-05	0	43	0	119537664	21	5071
2026-01-27 11:05:01.85	187.40	12.77	-30.1	-32.8	13.3	2.13e-05	0	43	0	125829120	21	4903
2026-01-27 11:05:04.85	187.60	13.05	-30.2	-32.9	13.2	2.21e-05	0	43	0	131072000	21	4954
2026-01-27 11:05:07.85	187.81	13.33	-30.1	-32.7	13.4	2.44e-05	0	43	0	137363456	21	4850
2026-01-27 11:05:10.87	188.02	13.62	-29.9	-32.1	13.7	3.80e-06	0	43	0	142606336	21	4664
2026-01-27 11:05:13.86	188.23	13.90	-30.0	-32.5	13.4	1.60e-05	0	43	0	147849216	21	4801
2026-01-27 11:05:16.88	188.45	14.19	-29.8	-32.0	13.7	5.30e-06	0	43	0	154140672	21	4646
2026-01-27 11:05:19.89	188.67	14.49	-29.8	-32.6	13.6	5.30e-06	0	43	0	159383552	20	4951
2026-01-27 11:05:22.88	188.90	14.78	-29.6	-32.1	13.9	3.80e-06	0	43	0	164626432	20	4784
2026-01-27 11:05:25.89	189.13	15.08	-29.8	-32.5	13.7	6.80e-06	0	43	0	170917888	20	4912
2026-01-27 11:05:28.89	189.37	15.39	-29.8	-32.6	13.6	1.14e-05	0	43	0	176160768	20	4968
2026-01-27 11:05:31.91	189.61	15.69	-29.7	-32.3	13.8	6.80e-06	0	43	0	182452224	20	4850
2026-01-27 11:05:34.91	189.85	16.00	-29.6	-31.9	14.2	0.00e+00	0	43	0	187695104	20	4695
2026-01-27 11:05:37.92	190.10	16.32	-29.5	-31.5	14.5	3.00e-06	0	43	0	192937984	20	4560
2026-01-27 11:05:40.92	190.36	16.63	-29.5	-31.6	14.4	8.30e-06	0	43	0	199229440	20	4582
2026-01-27 11:05:43.94	190.62	16.96	-29.4	-31.4	14.6	7.60e-06	0	43	0	204472320	20	4525
2026-01-27 11:05:46.95	190.89	17.28	-29.5	-31.6	14.5	7.00e-07	0	43	0	209715200	20	4584
2026-01-27 11:05:49.97	191.16	17.61	-29.4	-31.3	14.8	3.00e-06	0	44	0	216006656	20	4486
2026-01-27 11:05:52.96	191.43	17.94	-29.5	-31.4	14.8	9.10e-06	0	43	0	221249536	20	4489
2026-01-27 11:05:55.97	191.72	18.28	-29.4	-31.3	14.9	5.30e-06	0	43	0	227540992	20	4466
2026-01-27 11:05:58.98	192.01	18.62	-29.3	-31.1	15.0	3.80e-06	0	43	0	232783872	20	4414
2026-01-27 11:06:01.99	192.30	18.96	-29.4	-31.3	14.9	1.50e-06	0	43	0	238026752	20	4487
2026-01-27 11:06:05.00	192.60	19.31	-29.4	-31.2	15.0	0.00e+00	0	43	0	244318208	20	4444
2026-01-27 11:06:08.01	192.91	19.66	-29.5	-31.4	14.9	0.00e+00	0	44	0	249561088	20	4503
2026-01-27 11:06:11.02	193.23	20.02	-29.6	-31.7	14.6	0.00e+00	0	43	0	254803968	20	4608
2026-01-27 11:06:14.03	193.55	20.38	-29.4	-31.2	15.0	3.80e-06	0	44	0	261095424	20	4438
2026-01-27 11:06:17.03	193.88	20.75	-29.3	-31.5	15.2	0.00e+00	0	44	0	266338304	19	4612
2026-01-27 11:06:20.05	194.22	21.12	-29.5	-32.0	14.9	0.00e+00	0	43	0	272629760	19	4802
2026-01-27 11:06:23.06	194.57	21.49	-29.6	-32.2	14.8	0.00e+00	0	44	0	277872640	19	4867
2026-01-27 11:06:26.06	194.92	21.87	-29.5	-32.0	14.9	0.00e+00	0	44	0	283115520	19	4797
2026-01-27 11:06:29.07	195.28	22.26	-29.7	-32.6	14.6	0.00e+00	0	44	0	289406976	19	4975
2026-01-27 11:06:32.08	195.66	22.64	-29.4	-31.7	15.2	0.00e+00	0	44	0	294649856	19	4692
2026-01-27 11:06:35.09	196.04	23.04	-29.5	-32.0	15.0	0.00e+00	0	44	0	300941312	19	4773
2026-01-27 11:06:38.11	196.43	23.44	-29.6	-32.2	14.9	7.00e-07	0	44	0	306184192	19	4854
2026-01-27 11:06:41.12	196.83	23.84	-29.8	-32.8	14.5	0.00e+00	0	44	0	311427072	19	5059
2026-01-27 11:06:44.12	197.24	24.25	-29.9	-32.9	14.5	0.00e+00	0	44	0	317718528	19	5108
2026-01-27 11:06:47.12	197.66	24.66	-29.6	-32.1	15.0	0.00e+00	0	44	0	322961408	19	4818
2026-01-27 11:06:50.14	198.09	25.08	-29.7	-32.5	14.7	0.00e+00	0	44	0	328204288	19	4948
2026-01-27 11:06:53.14	198.53	25.50	-29.9	-33.0	14.5	7.00e-07	0	44	0	334495744	19	5114
2026-01-27 11:06:56.16	198.99	25.93	-30.1	-33.0	14.1	3.00e-06	0	44	0	339738624	20	5044
2026-01-27 11:06:59.16	199.45	26.36	-29.9	-32.5	14.4	7.00e-07	0	44	0	346030080	20	4862
2026-01-27 11:07:02.15	199.93	26.79	-30.1	-33.1	14.1	1.50e-06	0	44	0	351272960	20	5050
2026-01-27 11:07:05.17	200.42	27.24	-30.3	-33.5	13.8	3.00e-06	0	44	0	356515840	20	5209
2026-01-27 11:07:08.18	200.93	27.69	-30.3	-33.6	13.8	4.50e-06	0	44	0	362807296	20	5225
2026-01-27 11:07:11.19	201.45	28.14	-30.4	-33.6	13.8	3.80e-06	0	44	0	368050176	20	5241
2026-01-27 11:07:14.20	201.99	28.60	-30.5	-33.6	13.5	1.29e-05	0	44	0	374341632	21	5128
2026-01-27 11:07:17.21	202.54	29.06	-31.0	-34.8	12.6	6.63e-05	0	44	0	379584512	21	5611
2026-01-27 11:07:20.22	203.10	29.53	-31.3	-35.4	11.9	3.20e-04	0	44	0	384827392	22	5745
2026-01-27 11:07:23.23	203.68	30.00	-31.7	-36.1	11.1	1.29e-03	0	44	0	391118848	23	5956
2026-01-27 11:07:26.23	204.28	30.47	-31.9	-36.5	10.7	3.26e-03	0	44	0	396361728	23	6173
2026-01-27 11:07:29.25	204.90	30.96	-31.8	-36.4	10.9	2.19e-03	0	44	0	401604608	23	6110
2026-01-27 11:07:32.26	205.53	31.44	-31.6	-35.7	11.4	1.34e-03	0	44	0	407896064	23	5742
2026-01-27 11:07:35.26	206.18	31.93	-31.5	-35.3	11.7	7.80e-04	0	44	0	413138944	23	5576
2026-01-27 11:07:38.28	206.86	32.43	-31.3	-34.6	12.2	3.39e-04	0	44	0	419430400	23	5272
2026-01-27 11:07:41.29	207.55	32.92	-31.1	-34.2	12.5	1.67e-04	0	44	0	424673280	23	5122
2026-01-27 11:07:44.30	208.27	33.42	-30.8	-33.2	13.2	3.28e-05	0	44	0	429916160	23	4771
2026-01-27 11:07:47.32	209.01	33.93	-30.3	-32.3	14.1	3.80e-06	0	44	0	436207616	22	4565
2026-01-27 11:07:50.32	209.77	34.44	-30.3	-33.0	14.0	1.50e-06	0	44	0	441450496	21	4873
2026-01-27 11:07:53.34	210.55	34.95	-29.9	-31.8	14.7	7.00e-07	0	44	0	447741952	21	4500
2026-01-27 11:07:56.34	211.36	35.46	-30.2	-32.5	14.3	3.80e-06	0	44	0	452984832	21	4723
2026-01-27 11:07:59.35	212.19	35.97	-30.7	-33.9	13.4	1.67e-05	0	44	0	458227712	21	5235
2026-01-27 11:08:02.35	213.05	36.49	-30.6	-33.8	13.5	1.83e-05	0	44	0	464519168	21	5155
2026-01-27 11:08:05.36	213.93	37.00	-30.3	-32.8	14.1	2.20e-06	0	44	0	469762048	21	4804
2026-01-27 11:08:08.37	214.85	37.52	-30.1	-32.3	14.5	7.00e-07	0	44	0	475004928	21	4627
2026-01-27 11:08:11.37	215.79	38.04	-30.1	-32.2	14.5	0.00e+00	0	44	0	481296384	21	4603
2026-01-27 11:08:14.37	216.76	38.55	-30.2	-32.6	14.3	1.50e-06	0	44	0	486539264	21	4736
2026-01-27 11:08:17.38	217.76	39.06	-29.7	-31.8	15.1	0.00e+00	0	44	0	491782144	20	4591
2026-01-27 11:08:20.40	218.80	39.58	-29.6	-31.6	15.3	0.00e+00	0	44	0	498073600	20	4504
2026-01-27 11:08:23.41	219.87	40.09	-30.0	-32.6	14.6	1.50e-06	0	44	0	503316480	20	4859
2026-01-27 11:08:26.41	220.97	40.59	-30.4	-33.6	14.0	0.00e+00	0	44	0	509607936	20	5193
2026-01-27 11:08:29.43	222.11	41.09	-30.6	-33.5	13.7	7.00e-07	0	44	0	514850816	21	5063
2026-01-27 11:08:32.43	223.27	41.58	-30.6	-33.7	13.7	7.60e-06	0	44	0	520093696	21	5131
2026-01-27 11:08:35.46	224.49	42.07	-30.9	-34.4	13.2	2.13e-05	0	44	0	526385152	21	5396
2026-01-27 11:08:38.47	225.73	42.55	-30.9	-34.5	13.1	2.59e-05	0	44	0	531628032	21	5449
2026-01-27 11:08:41.48	227.01	43.02	-31.1	-34.4	13.0	3.66e-05	0	44	0	537919488	22	5290
2026-01-27 11:08:44.50	228.33	43.48	-30.8	-33.7	13.4	2.28e-05	0	44	0	543162368	22	4994
2026-01-27 11:08:47.51	229.68	43.93	-31.3	-35.1	12.5	1.38e-04	0	44	0	548405248	22	5562
2026-01-27 11:08:50.51	231.07	44.36	-31.0	-34.3	13.0	3.96e-05	0	44	0	554696704	22	5227
2026-01-27 11:08:53.52	232.50	44.79	-31.1	-34.4	12.9	2.28e-05	0	44	0	559939584	22	5288
2026-01-27 11:08:56.52	233.96	45.19	-31.6	-35.4	11.9	5.12e-04	0	44	0	565182464	23	5600
2026-01-27 11:08:59.53	235.46	45.58	-31.0	-33.6	13.2	2.28e-05	0	44	0	571473920	23	4860
2026-01-27 11:09:02.54	237.00	45.95	-31.8	-36.0	11.6	6.45e-04	0	44	0	576716800	23	5808
2026-01-27 11:09:05.54	238.57	46.30	-32.2	-36.7	10.6	4.50e-03	0	44	0	583008256	24	6055
2026-01-27 11:09:08.56	240.18	46.63	-31.7	-35.1	11.8	4.37e-04	0	44	0	588251136	24	5341
2026-01-27 11:09:11.57	241.82	46.94	-31.9	-35.8	11.3	1.35e-03	0	44	0	593494016	24	5609
2026-01-27 11:09:14.58	243.49	47.22	-31.3	-34.0	12.6	1.10e-04	0	44	0	599785472	24	4888
2026-01-27 11:09:17.59	245.19	47.48	-31.5	-35.0	12.2	2.21e-04	0	44	0	605028352	23	5385
2026-01-27 11:09:20.59	246.91	47.71	-31.3	-34.5	12.7	5.26e-05	0	44	0	611319808	23	5185
2026-01-27 11:09:23.60	248.66	47.92	-31.6	-35.4	11.9	3.30e-04	0	44	0	616562688	23	5586
2026-01-27 11:09:26.61	250.43	48.10	-31.2	-34.2	12.8	1.52e-04	0	44	0	621805568	23	5094
2026-01-27 11:09:29.62	252.22	48.25	-31.0	-33.7	13.1	2.21e-05	0	44	0	628097024	23	4890
2026-01-27 11:09:32.64	254.04	48.37	-31.3	-34.6	12.5	1.01e-04	0	44	0	633339904	23	5214
2026-01-27 11:09:35.65	255.85	48.46	-31.1	-33.8	13.1	2.51e-05	0	44	0	638582784	23	4908
2026-01-27 11:09:38.66	257.68	48.52	-30.7	-33.3	13.7	6.80e-06	0	44	0	644874240	22	4841
2026-01-27 11:09:41.67	259.51	48.55	-30.8	-33.6	13.6	9.90e-06	0	44	0	650117120	22	4939
2026-01-27 11:09:44.68	261.35	48.55	-30.7	-33.3	13.7	3.00e-06	0	44	0	656408576	22	4866
2026-01-27 11:09:47.68	263.17	48.52	-30.6	-32.9	14.0	3.00e-06	0	44	0	661651456	22	4693
2026-01-27 11:09:50.68	264.99	48.45	-30.6	-32.9	14.1	2.20e-06	0	44	0	666894336	22	4695
2026-01-27 11:09:53.69	266.81	48.36	-31.0	-33.9	13.4	1.90e-05	0	44	0	673185792	22	5075
2026-01-27 11:09:56.71	268.62	48.23	-31.1	-34.4	13.2	1.67e-05	0	44	0	678428672	22	5229
2026-01-27 11:09:59.72	270.40	48.08	-31.8	-35.9	11.7	3.23e-04	0	44	0	683671552	23	5760
2026-01-27 11:10:02.73	272.17	47.90	-31.8	-35.8	11.8	4.19e-04	0	44	0	689963008	23	5709
2026-01-27 11:10:05.74	273.92	47.69	-31.9	-35.6	11.6	1.41e-03	0	44	0	695205888	24	5532
2026-01-27 11:10:08.73	275.63	47.46	-31.2	-34.2	12.9	3.66e-05	0	44	0	701497344	23	5081
2026-01-27 11:10:11.75	277.33	47.19	-32.0	-35.9	11.4	1.34e-03	0	44	0	706740224	24	5647
2026-01-27 11:10:14.77	279.00	46.91	-32.1	-36.2	11.1	3.57e-04	0	44	0	711983104	24	5790
2026-01-27 11:10:17.78	280.63	46.60	-31.9	-35.6	11.6	1.41e-03	0	44	0	718274560	24	5529
2026-01-27 11:10:20.77	282.22	46.27	-32.1	-36.4	11.1	1.35e-03	0	44	0	723517440	24	5865
2026-01-27 11:10:23.79	283.79	45.92	-31.8	-35.2	11.9	6.16e-04	0	44	0	728760320	24	5364
2026-01-27 11:10:26.79	285.32	45.55	-32.7	-38.0	9.4	7.41e-03	0	44	0	735051776	25	6626
2026-01-27 11:10:29.80	286.81	45.16	-30.8	-33.5	13.7	1.14e-05	0	44	0	740294656	22	4892
2026-01-27 11:10:32.80	288.27	44.75	-31.0	-33.9	13.4	2.51e-05	0	44	0	746586112	22	5066
2026-01-27 11:10:35.82	289.69	44.33	-30.6	-32.9	14.2	1.50e-06	0	44	0	751828992	22	4699
2026-01-27 11:10:38.82	291.07	43.90	-30.8	-33.3	13.9	9.90e-06	0	44	0	757071872	22	4847
2026-01-27 11:10:41.84	292.42	43.45	-30.3	-32.7	14.6	7.00e-07	0	44	0	763363328	21	4741
2026-01-27 11:10:44.84	293.73	42.99	-30.0	-31.9	15.0	1.50e-06	0	44	0	768606208	21	4472
2026-01-27 11:10:47.85	295.00	42.52	-30.6	-33.4	14.2	0.00e+00	0	44	0	774897664	21	4965
2026-01-27 11:10:50.86	296.23	42.05	-29.9	-31.6	15.2	0.00e+00	0	44	0	780140544	21	4379
2026-01-27 11:10:53.86	297.43	41.56	-30.8	-34.0	13.7	7.00e-07	0	44	0	785383424	21	5214
2026-01-27 11:10:56.87	298.59	41.07	-30.6	-32.8	14.2	2.20e-06	0	44	0	791674880	22	4674
2026-01-27 11:10:59.88	299.72	40.57	-31.4	-35.0	12.7	6.25e-05	0	44	0	796917760	22	5492
2026-01-27 11:11:02.88	300.82	40.07	-30.4	-32.3	14.4	0.00e+00	0	44	0	802160640	22	4509
2026-01-27 11:11:05.89	301.88	39.57	-31.6	-35.3	12.2	1.13e-04	0	44	0	808452096	23	5499
2026-01-27 11:11:08.90	302.91	39.06	-31.1	-33.8	13.2	5.11e-05	0	44	0	813694976	23	4916
2026-01-27 11:11:11.91	303.91	38.54	-32.1	-36.2	11.1	5.79e-04	0	44	0	819986432	24	5801
2026-01-27 11:11:14.93	304.88	38.03	-31.6	-34.7	12.2	4.59e-04	0	44	0	825229312	24	5143
2026-01-27 11:11:17.93	305.81	37.52	-32.4	-37.1	10.5	2.06e-03	0	44	0	830472192	24	6235
2026-01-27 11:11:20.94	306.72	37.00	-32.9	-38.2	9.0	5.69e-02	0	44	0	836763648	26	6589
2026-01-27 11:11:23.96	307.61	36.49	-32.1	-35.8	11.1	1.24e-03	0	44	0	842006528	25	5517
2026-01-27 11:11:26.96	308.46	35.98	-33.0	-38.4	8.7	3.52e-02	0	44	0	847249408	26	6735
2026-01-27 11:11:29.97	309.29	35.47	-31.3	-33.8	12.8	1.33e-04	0	44	0	853540864	24	4801
2026-01-27 11:11:32.97	310.09	34.96	-30.9	-33.7	13.6	1.50e-06	0	44	0	858783744	22	4985
2026-01-27 11:11:35.98	310.87	34.45	-31.8	-35.2	11.8	1.03e-03	0	44	0	865075200	24	5356
2026-01-27 11:11:38.99	311.63	33.95	-31.2	-33.9	13.1	9.10e-06	0	44	0	870318080	23	4953
2026-01-27 11:11:42.00	312.36	33.45	-31.9	-36.1	11.6	4.63e-04	0	44	0	875560960	23	5878
2026-01-27 11:11:44.99	313.07	32.95	-32.6	-37.5	9.7	1.38e-02	0	44	0	881852416	25	6353
2026-01-27 11:11:48.01	313.76	32.46	-32.3	-36.4	10.6	2.94e-03	0	44	0	887095296	25	5796
2026-01-27 11:11:51.01	314.43	31.97	-32.6	-37.4	9.9	5.01e-03	0	44	0	892338176	25	6289
2026-01-27 11:11:54.03	315.08	31.48	-33.5	-40.6	6.7	2.26e-01	0	44	0	898629632	27	8133
2026-01-27 11:11:57.02	315.71	31.00	-31.8	-35.0	11.6	4.88e-03	0	44	0	903872512	25	5161
2026-01-27 11:12:00.02	316.32	30.52	-30.6	-32.9	14.1	0.00e+00	0	44	0	910163968	22	4686
2026-01-27 11:12:03.02	316.92	30.05	-31.6	-35.3	12.1	9.00e-05	0	44	0	915406848	23	5497
2026-01-27 11:12:06.03	317.50	29.58	-32.1	-36.4	10.9	2.65e-03	0	44	0	920649728	24	5920
2026-01-27 11:12:09.03	318.06	29.12	-31.2	-34.2	12.9	7.47e-05	0	44	0	926941184	23	5054
2026-01-27 11:12:12.05	318.61	28.66	-31.3	-34.4	12.7	7.09e-05	0	44	0	932184064	23	5136
2026-01-27 11:12:15.06	319.14	28.21	-31.8	-36.0	11.6	6.53e-04	0	44	0	937426944	23	5797
2026-01-27 11:12:18.07	319.66	27.76	-31.0	-33.6	13.2	3.28e-05	0	44	0	943718400	23	4853
2026-01-27 11:12:21.07	320.17	27.31	-30.2	-32.4	14.5	7.00e-07	0	44	0	948961280	21	4644
2026-01-27 11:12:24.06	320.65	26.88	-30.2	-32.3	14.6	0.00e+00	0	44	0	955252736	21	4630
2026-01-27 11:12:27.08	321.13	26.44	-30.8	-34.1	13.5	3.80e-06	0	44	0	960495616	21	5241
2026-01-27 11:12:30.09	321.60	26.01	-30.9	-33.8	13.4	2.05e-05	0	44	0	965738496	22	5011
2026-01-27 11:12:33.09	322.05	25.59	-30.6	-33.1	13.8	6.80e-06	0	44	0	972029952	22	4770
2026-01-27 11:12:36.10	322.50	25.17	-30.5	-32.7	14.1	1.50e-06	0	44	0	977272832	22	4651
2026-01-27 11:12:39.11	322.93	24.75	-30.4	-32.5	14.2	7.00e-07	0	44	0	982515712	22	4586
2026-01-27 11:12:42.11	323.35	24.34	-30.5	-32.7	14.0	3.00e-06	0	44	0	988807168	22	4666
2026-01-27 11:12:45.11	323.75	23.94	-30.8	-33.5	13.5	1.14e-05	0	44	0	994050048	22	4916
2026-01-27 11:12:48.13	324.16	23.54	-31.2	-34.8	12.6	7.24e-05	0	44	0	1000341504	22	5421
2026-01-27 11:12:51.14	324.55	23.14	-31.2	-34.7	12.7	6.10e-05	0	44	0	1005584384	22	5380
2026-01-27 11:12:54.15	324.93	22.75	-30.8	-33.7	13.3	1.06e-05	0	44	0	1010827264	22	4990
2026-01-27 11:12:57.15	325.30	22.37	-30.6	-32.9	13.8	4.50e-06	0	44	0	1017118720	22	4739
2026-01-27 11:13:00.16	325.66	21.98	-30.9	-33.9	13.1	2.21e-05	0	44	0	1022361600	22	5101
2026-01-27 11:13:03.18	326.02	21.61	-30.9	-33.8	13.3	1.90e-05	0	44	0	1028653056	22	5053
2026-01-27 11:13:06.20	326.37	21.23	-30.6	-33.2	13.7	3.80e-06	0	44	0	1033895936	22	4834
2026-01-27 11:13:09.22	326.71	20.86	-30.5	-32.8	13.9	4.50e-06	0	44	0	1039138816	22	4695
2026-01-27 11:13:12.23	327.04	20.50	-30.6	-33.2	13.6	8.30e-06	0	44	0	1045430272	22	4827
2026-01-27 11:13:15.24	327.36	20.14	-30.8	-33.7	13.3	2.21e-05	0	44	0	1050673152	22	5020
2026-01-27 11:13:18.25	327.68	19.79	-31.1	-34.4	12.7	5.18e-05	0	44	0	1055916032	22	5301
2026-01-27 11:13:21.26	327.99	19.44	-30.9	-34.0	13.1	3.12e-05	0	44	0	1062207488	22	5121
2026-01-27 11:13:24.27	328.29	19.09	-31.1	-34.4	12.7	4.88e-05	0	44	0	1067450368	22	5298
2026-01-27 11:13:27.27	328.58	18.75	-30.9	-34.0	13.0	3.35e-05	0	44	0	1073741824	22	5120
2026-01-27 11:13:30.29	328.88	18.41	-31.0	-34.2	12.8	6.40e-05	0	44	0	1078984704	22	5224
2026-01-27 11:13:33.29	329.16	18.08	-31.2	-34.8	12.4	1.43e-04	0	44	0	1084227584	22	5454
2026-01-27 11:13:36.30	329.44	17.74	-31.0	-34.2	12.8	6.71e-05	0	44	0	1090519040	22	5200
2026-01-27 11:13:39.31	329.71	17.42	-30.9	-34.0	12.9	5.72e-05	0	44	0	1095761920	22	5145
2026-01-27 11:13:42.31	329.98	17.10	-31.0	-34.2	12.8	5.95e-05	0	44	0	1101004800	22	5203
2026-01-27 11:13:45.32	330.24	16.78	-31.0	-34.4	12.6	7.70e-05	0	44	0	1107296256	22	5311
2026-01-27 11:13:48.33	330.49	16.46	-31.0	-34.4	12.6	9.15e-05	0	44	0	1112539136	22	5312
2026-01-27 11:13:51.34	330.75	16.15	-31.0	-34.4	12.6	7.70e-05	0	44	0	1118830592	22	5315
2026-01-27 11:13:54.34	330.99	15.84	-30.8	-33.8	13.0	5.18e-05	0	44	0	1124073472	22	5072
2026-01-27 11:13:57.35	331.23	15.54	-30.8	-33.9	12.9	4.27e-05	0	44	0	1129316352	22	5108
2026-01-27 11:14:00.36	331.47	15.23	-30.9	-33.9	12.9	4.57e-05	0	44	0	1135607808	22	5120
2026-01-27 11:14:03.36	331.70	14.94	-30.9	-34.1	12.7	7.40e-05	0	44	0	1140850688	22	5186
2026-01-27 11:14:06.37	331.93	14.64	-31.0	-34.4	12.4	1.23e-04	0	44	0	1146093568	22	5339
2026-01-27 11:14:09.39	332.16	14.35	-31.2	-35.0	12.0	2.97e-04	0	44	0	1152385024	22	5597
2026-01-27 11:14:12.40	332.38	14.06	-31.3	-35.3	11.8	4.30e-04	0	44	0	1157627904	22	5691
2026-01-27 11:14:15.41	332.59	13.77	-31.3	-35.3	11.8	5.34e-04	0	44	0	1163919360	22	5735
2026-01-27 11:14:18.42	332.81	13.49	-31.3	-35.4	11.7	5.42e-04	0	44	0	1169162240	22	5748
2026-01-27 11:14:21.43	333.02	13.21	-31.2	-35.1	11.9	3.15e-04	0	44	0	1174405120	22	5629
2026-01-27 11:14:24.44	333.22	12.93	-30.9	-34.3	12.5	1.39e-04	0	44	0	1180696576	22	5275
2026-01-27 11:14:27.46	333.42	12.66	-30.8	-34.0	12.6	8.92e-05	0	44	0	1185939456	22	5161
2026-01-27 11:14:30.47	333.62	12.39	-30.8	-33.8	12.8	7.55e-05	0	44	0	1192230912	22	5101
2026-01-27 11:14:33.48	333.82	12.12	-30.8	-34.0	12.5	1.27e-04	0	44	0	1197473792	22	5202
2026-01-27 11:14:36.48	334.01	11.85	-30.8	-34.0	12.5	1.39e-04	0	44	0	1202716672	22	5205
2026-01-27 11:14:39.49	334.20	11.59	-31.0	-34.6	12.1	1.73e-04	0	44	0	1209008128	22	5449
2026-01-27 11:14:42.50	334.38	11.33	-31.2	-35.2	11.6	6.01e-04	0	44	0	1214251008	22	5699
2026-01-27 11:14:45.51	334.56	11.07	-31.3	-35.6	11.2	1.14e-03	0	44	0	1220542464	22	5900
2026-01-27 11:14:48.51	334.74	10.81	-31.4	-36.1	10.6	3.17e-03	0	44	0	1225785344	22	6146
2026-01-27 11:14:51.52	334.92	10.56	-31.6	-36.0	10.4	3.89e-03	0	44	0	1231028224	23	5984
2026-01-27 11:14:54.52	335.09	10.31	-31.8	-36.6	10.1	5.66e-03	0	44	0	1237319680	23	6317
2026-01-27 11:14:57.54	335.26	10.06	-31.5	-35.9	10.0	7.18e-03	0	44	0	1242562560	23	5972
2026-01-27 11:15:00.56	335.43	9.81	-31.4	-35.7	10.4	5.18e-03	0	44	0	1247805440	23	5853
2026-01-27 11:15:03.56	335.60	9.57	-31.4	-35.4	10.5	4.22e-03	0	44	0	1254096896	23	5751
2026-01-27 11:15:06.58	335.76	9.33	-31.4	-35.6	10.6	3.74e-03	0	44	0	1259339776	23	5825
2026-01-27 11:15:09.59	335.92	9.09	-31.4	-35.6	10.5	3.58e-03	0	44	0	1265631232	23	5850
2026-01-27 11:15:12.60	336.08	8.85	-31.4	-35.4	10.8	3.20e-03	0	44	0	1270874112	23	5710
2026-01-27 11:15:15.61	336.24	8.61	-31.3	-35.2	10.9	2.79e-03	0	44	0	1276116992	23	5661
2026-01-27 11:15:18.62	336.39	8.38	-31.2	-34.9	10.8	2.14e-03	0	44	0	1282408448	23	5519
2026-01-27 11:15:21.63	336.54	8.15	-31.2	-35.1	10.7	3.71e-03	0	44	0	1287651328	23	5615
2026-01-27 11:15:24.64	336.69	7.92	-31.2	-35.0	10.9	2.13e-03	0	44	0	1293942784	23	5566
2026-01-27 11:15:27.65	336.84	7.69	-31.2	-35.0	10.8	2.45e-03	0	44	0	1299185664	23	5574
2026-01-27 11:15:30.66	336.98	7.47	-31.3	-35.2	10.7	2.42e-03	0	44	0	1304428544	23	5680
2026-01-27 11:15:33.66	337.13	7.24	-31.3	-35.6	10.4	4.38e-03	0	44	0	1310720000	23	5850
2026-01-27 11:15:36.66	337.27	7.02	-34.0	-48.5	3.8	1.49e+00	0	44	104	1313865728	27	19147

#Closed at: 2026-01-27 11:15:39
#Recorded file [1313 MB]: D:/data/31010_260127_140354.dat