passes_logs/2026/01/27/R2M6_AANII_01/R2M6_AANII_01__20260127_115504_NOAA_21_JPSS-2_rec.log

#Pass ID: 20260127_115504_NOAA 21 (JPSS-2)
#Satellite: NOAA 21 (JPSS-2)
#Configuration: NOAA 21
#almurnet v.1.7.20240730
#Start time: 2026-01-27 11:55:05

#Version: 2.2.20231116
#Station: R2M6_AANII_01
#Location: 30.233357 lon 59.946436 lat
#TLE: 1 54234U 22150A   26026.78373243  .00000177  00000+0  10458-3 0  9996
#TLE: 2 54234  98.7509 327.5416 0000822 208.1870 151.9262 14.19539807166482

#Time	Az	El	Level	Level2	SNR	BER	BlckErr	Temp	State	Recorded	gain1	gain2
2026-01-27 11:55:05.65	212.57	7.09	-29.5	-32.5	5.0	1.29e+00	0	42	0	0	20	5093
2026-01-27 11:55:08.66	212.86	7.28	-30.3	-33.3	10.3	6.23e-03	0	43	0	3145728	21	5105
2026-01-27 11:55:11.66	213.15	7.47	-29.4	-31.4	11.9	4.15e-04	0	43	0	12582912	20	4537
2026-01-27 11:55:14.69	213.44	7.67	-29.1	-31.1	12.5	1.17e-04	0	43	0	22020096	19	4536
2026-01-27 11:55:17.69	213.74	7.86	-29.1	-30.9	12.7	8.46e-05	0	43	0	30408704	19	4471
2026-01-27 11:55:20.70	214.04	8.05	-29.1	-30.9	12.7	6.71e-05	0	43	0	40894464	19	4472
2026-01-27 11:55:23.71	214.34	8.25	-28.9	-30.5	13.0	6.63e-05	0	43	0	49283072	19	4344
2026-01-27 11:55:26.72	214.65	8.45	-28.7	-30.4	13.4	1.60e-05	0	43	0	58720256	18	4404
2026-01-27 11:55:29.73	214.96	8.64	-28.7	-30.6	13.3	1.98e-05	0	43	0	68157440	18	4460
2026-01-27 11:55:32.74	215.27	8.84	-28.7	-30.6	13.3	2.13e-05	0	43	0	77594624	18	4471
2026-01-27 11:55:35.75	215.60	9.04	-28.8	-30.7	13.3	2.51e-05	0	44	0	87031808	18	4482
2026-01-27 11:55:38.76	215.92	9.24	-28.6	-30.3	13.6	8.30e-06	0	43	0	96468992	18	4359
2026-01-27 11:55:41.76	216.25	9.44	-28.6	-30.1	13.7	6.10e-06	0	43	0	105906176	18	4321
2026-01-27 11:55:44.77	216.58	9.64	-28.6	-30.2	13.6	5.30e-06	0	43	0	115343360	18	4355
2026-01-27 11:55:47.79	216.92	9.85	-28.5	-29.9	13.8	6.10e-06	0	43	0	124780544	18	4260
2026-01-27 11:55:50.79	217.26	10.05	-28.4	-29.6	14.0	3.80e-06	0	43	0	134217728	18	4173
2026-01-27 11:55:53.80	217.61	10.25	-28.4	-29.7	13.9	2.20e-06	0	43	0	143654912	18	4199
2026-01-27 11:55:56.80	217.96	10.46	-28.2	-29.7	14.2	0.00e+00	0	44	0	153092096	17	4290
2026-01-27 11:55:59.81	218.31	10.66	-28.2	-29.8	14.2	3.00e-06	0	43	0	162529280	17	4336
2026-01-27 11:56:02.83	218.67	10.87	-28.1	-29.5	14.4	0.00e+00	0	43	0	171966464	17	4229
2026-01-27 11:56:05.83	219.04	11.07	-28.1	-29.5	14.4	2.20e-06	0	43	0	181403648	17	4243
2026-01-27 11:56:08.84	219.41	11.28	-28.1	-29.5	14.4	1.50e-06	0	44	0	190840832	17	4231
2026-01-27 11:56:11.85	219.79	11.49	-28.1	-29.5	14.4	7.00e-07	0	44	0	200278016	17	4235
2026-01-27 11:56:14.85	220.17	11.70	-28.0	-29.3	14.6	1.50e-06	0	44	0	209715200	17	4182
2026-01-27 11:56:17.87	220.55	11.91	-28.0	-29.3	14.5	0.00e+00	0	44	0	219152384	17	4188
2026-01-27 11:56:20.87	220.94	12.12	-28.1	-29.6	14.4	1.50e-06	0	44	0	228589568	17	4257
2026-01-27 11:56:23.88	221.34	12.33	-28.1	-29.6	14.4	1.50e-06	0	44	0	238026752	17	4255
2026-01-27 11:56:26.87	221.74	12.54	-27.8	-28.8	14.9	1.50e-06	0	44	0	247463936	17	4047
2026-01-27 11:56:29.86	222.15	12.75	-27.7	-29.0	15.1	0.00e+00	0	44	0	256901120	16	4211
2026-01-27 11:56:32.86	222.56	12.96	-27.7	-29.0	15.1	0.00e+00	0	44	0	266338304	16	4203
2026-01-27 11:56:35.86	222.98	13.17	-27.9	-29.4	14.9	0.00e+00	0	44	0	275775488	16	4321
2026-01-27 11:56:38.88	223.41	13.39	-27.7	-29.1	15.1	0.00e+00	0	44	0	284164096	16	4210
2026-01-27 11:56:41.88	223.84	13.60	-27.7	-29.1	15.1	0.00e+00	0	44	0	293601280	16	4228
2026-01-27 11:56:44.89	224.27	13.82	-27.6	-28.7	15.3	0.00e+00	0	44	0	303038464	16	4121
2026-01-27 11:56:47.90	224.72	14.03	-27.7	-29.1	15.1	0.00e+00	0	44	0	312475648	16	4223
2026-01-27 11:56:50.92	225.17	14.25	-27.7	-29.1	15.1	0.00e+00	0	44	0	321912832	16	4222
2026-01-27 11:56:53.93	225.63	14.46	-27.9	-29.5	14.9	0.00e+00	0	44	0	331350016	16	4332
2026-01-27 11:56:56.93	226.09	14.68	-28.1	-29.9	14.7	7.00e-07	0	44	0	340787200	16	4434
2026-01-27 11:56:59.94	226.56	14.89	-27.8	-29.4	15.0	0.00e+00	0	44	0	350224384	16	4289
2026-01-27 11:57:02.93	227.03	15.10	-27.9	-29.6	14.9	0.00e+00	0	44	0	359661568	16	4346
2026-01-27 11:57:05.94	227.51	15.32	-27.9	-29.4	15.0	0.00e+00	0	44	0	369098752	16	4305
2026-01-27 11:57:08.93	228.00	15.53	-27.9	-29.5	15.0	0.00e+00	0	44	0	378535936	16	4317
2026-01-27 11:57:11.95	228.50	15.75	-28.0	-29.7	14.9	7.00e-07	0	44	0	387973120	16	4372
2026-01-27 11:57:14.97	229.00	15.97	-27.9	-29.6	15.0	0.00e+00	0	44	0	397410304	16	4347
2026-01-27 11:57:17.99	229.52	16.18	-28.1	-29.9	14.7	0.00e+00	0	44	0	406847488	16	4452
2026-01-27 11:57:21.00	230.03	16.40	-28.1	-30.0	14.7	7.00e-07	0	44	0	416284672	16	4483
2026-01-27 11:57:24.00	230.56	16.61	-28.4	-30.5	14.4	0.00e+00	0	44	0	425721856	16	4629
2026-01-27 11:57:27.00	231.09	16.83	-28.0	-29.7	14.9	7.00e-07	0	44	0	435159040	16	4380
2026-01-27 11:57:30.00	231.62	17.04	-28.1	-30.0	14.8	2.20e-06	0	44	0	444596224	16	4472
2026-01-27 11:57:32.99	232.17	17.25	-27.9	-29.4	15.1	0.00e+00	0	44	0	454033408	16	4287
2026-01-27 11:57:35.99	232.72	17.46	-27.8	-29.3	15.2	0.00e+00	0	44	0	463470592	16	4279
2026-01-27 11:57:38.99	233.28	17.67	-27.9	-29.5	15.1	0.00e+00	0	44	0	472907776	16	4316
2026-01-27 11:57:42.00	233.85	17.88	-27.7	-29.1	15.3	0.00e+00	0	44	0	482344960	16	4197
2026-01-27 11:57:45.01	234.43	18.09	-27.6	-28.8	15.5	0.00e+00	0	44	0	491782144	16	4115
2026-01-27 11:57:48.03	235.02	18.30	-27.7	-28.9	15.5	0.00e+00	0	44	0	501219328	16	4135
2026-01-27 11:57:51.03	235.61	18.51	-27.7	-29.0	15.4	0.00e+00	0	44	0	509607936	16	4175
2026-01-27 11:57:54.04	236.21	18.72	-27.6	-28.7	15.5	0.00e+00	0	44	0	519045120	16	4105
2026-01-27 11:57:57.05	236.82	18.92	-27.5	-28.4	15.7	0.00e+00	0	44	0	528482304	16	4020
2026-01-27 11:58:00.05	237.43	19.12	-27.5	-28.6	15.6	0.00e+00	0	44	0	537919488	16	4057
2026-01-27 11:58:03.04	238.05	19.32	-27.7	-29.0	15.5	0.00e+00	0	44	0	547356672	16	4163
2026-01-27 11:58:06.05	238.69	19.52	-27.8	-29.1	15.4	7.00e-07	0	44	0	556793856	16	4211
2026-01-27 11:58:09.06	239.33	19.72	-27.9	-29.3	15.3	0.00e+00	0	44	0	566231040	16	4254
2026-01-27 11:58:12.06	239.97	19.92	-27.7	-29.0	15.5	0.00e+00	0	44	0	575668224	16	4163
2026-01-27 11:58:15.07	240.63	20.11	-27.8	-29.3	15.3	0.00e+00	0	44	0	585105408	16	4244
2026-01-27 11:58:18.09	241.30	20.30	-28.0	-29.6	15.2	0.00e+00	0	44	0	594542592	16	4330
2026-01-27 11:58:21.09	241.97	20.49	-27.9	-29.5	15.2	0.00e+00	0	44	0	603979776	16	4299
2026-01-27 11:58:24.09	242.65	20.68	-27.7	-28.9	15.5	0.00e+00	0	44	0	613416960	16	4159
2026-01-27 11:58:27.10	243.34	20.86	-27.7	-28.9	15.5	0.00e+00	0	44	0	622854144	16	4145
2026-01-27 11:58:30.09	244.03	21.04	-28.0	-29.6	15.1	0.00e+00	0	44	0	632291328	16	4352
2026-01-27 11:58:33.09	244.73	21.22	-27.6	-28.7	15.6	0.00e+00	0	44	0	641728512	16	4090
2026-01-27 11:58:36.11	245.45	21.39	-27.5	-28.5	15.8	0.00e+00	0	44	0	651165696	16	4047
2026-01-27 11:58:39.12	246.17	21.57	-27.5	-28.5	15.8	0.00e+00	0	44	0	660602880	16	4035
2026-01-27 11:58:42.12	246.90	21.73	-27.5	-28.6	15.7	0.00e+00	0	44	0	670040064	16	4070
2026-01-27 11:58:45.13	247.63	21.90	-27.3	-28.1	16.0	0.00e+00	0	44	0	679477248	16	3942
2026-01-27 11:58:48.14	248.38	22.06	-27.1	-28.1	16.1	0.00e+00	0	44	0	688914432	15	4045
2026-01-27 11:58:51.15	249.13	22.22	-27.3	-28.6	15.8	0.00e+00	0	44	0	698351616	15	4188
2026-01-27 11:58:54.15	249.88	22.37	-27.3	-28.5	15.9	0.00e+00	0	44	0	707788800	15	4149
2026-01-27 11:58:57.14	250.65	22.52	-27.0	-27.9	16.3	0.00e+00	0	44	0	716177408	15	3994
2026-01-27 11:59:00.15	251.42	22.66	-26.9	-27.7	16.3	0.00e+00	0	44	0	726663168	15	3939
2026-01-27 11:59:03.15	252.20	22.80	-27.1	-28.2	16.1	0.00e+00	0	44	0	736100352	15	4074
2026-01-27 11:59:06.16	252.98	22.93	-27.2	-28.3	16.1	0.00e+00	0	44	0	744488960	15	4084
2026-01-27 11:59:09.18	253.78	23.07	-27.2	-28.4	16.0	0.00e+00	0	44	0	753926144	15	4111
2026-01-27 11:59:12.19	254.58	23.19	-27.4	-28.8	15.8	0.00e+00	0	44	0	763363328	15	4238
2026-01-27 11:59:15.20	255.38	23.31	-27.3	-28.5	16.0	0.00e+00	0	44	0	772800512	15	4135
2026-01-27 11:59:18.21	256.19	23.42	-27.4	-28.7	15.9	0.00e+00	0	44	0	782237696	15	4196
2026-01-27 11:59:21.21	257.01	23.53	-27.5	-29.1	15.6	0.00e+00	0	44	0	791674880	15	4320
2026-01-27 11:59:24.21	257.83	23.64	-27.2	-28.3	16.1	0.00e+00	0	44	0	801112064	15	4092
2026-01-27 11:59:27.21	258.65	23.73	-27.1	-28.2	16.1	0.00e+00	0	44	0	810549248	15	4058
2026-01-27 11:59:30.22	259.48	23.83	-27.1	-28.2	16.2	0.00e+00	0	44	0	819986432	15	4058
2026-01-27 11:59:33.22	260.32	23.91	-27.1	-28.1	16.2	7.60e-06	0	44	0	829423616	15	4058
2026-01-27 11:59:36.21	261.15	23.99	-27.1	-28.0	16.2	4.50e-06	0	44	0	838860800	15	4030
2026-01-27 11:59:39.22	262.00	24.07	-26.8	-27.4	16.5	1.50e-06	0	44	0	848297984	15	3878
2026-01-27 11:59:42.23	262.85	24.14	-27.0	-28.0	16.3	0.00e+00	0	44	0	857735168	15	4008
2026-01-27 11:59:45.24	263.70	24.20	-26.9	-27.6	16.4	0.00e+00	0	44	0	867172352	15	3929
2026-01-27 11:59:48.25	264.55	24.25	-26.8	-27.5	16.5	0.00e+00	0	44	0	876609536	15	3900
2026-01-27 11:59:51.25	265.41	24.30	-26.8	-27.4	16.5	0.00e+00	0	44	0	886046720	15	3875
2026-01-27 11:59:54.25	266.27	24.34	-26.9	-28.1	16.4	0.00e+00	0	44	0	895483904	14	4144
2026-01-27 11:59:57.27	267.13	24.38	-26.9	-28.1	16.4	0.00e+00	0	44	0	904921088	14	4143
2026-01-27 12:00:00.27	267.99	24.41	-26.7	-27.7	16.6	0.00e+00	0	44	0	914358272	14	4050
2026-01-27 12:00:03.29	268.86	24.43	-27.3	-29.1	15.9	0.00e+00	0	44	0	923795456	14	4423
2026-01-27 12:00:06.30	269.73	24.44	-27.3	-29.0	15.9	0.00e+00	0	44	0	933232640	14	4401
2026-01-27 12:00:09.30	270.59	24.45	-27.5	-29.4	15.7	0.00e+00	0	44	0	942669824	14	4514
2026-01-27 12:00:12.31	271.46	24.45	-27.3	-28.7	15.9	0.00e+00	0	44	0	952107008	15	4194
2026-01-27 12:00:15.32	272.33	24.45	-26.7	-27.7	16.7	0.00e+00	0	44	0	961544192	14	4047
2026-01-27 12:00:18.34	273.19	24.44	-27.0	-28.5	16.2	0.00e+00	0	44	0	969932800	14	4261
2026-01-27 12:00:21.34	274.06	24.42	-26.9	-28.2	16.4	0.00e+00	0	44	0	979369984	14	4185
2026-01-27 12:00:24.35	274.92	24.40	-27.1	-28.7	16.1	0.00e+00	0	44	0	989855744	14	4328
2026-01-27 12:00:27.37	275.79	24.36	-26.9	-28.3	16.3	0.00e+00	0	44	0	998244352	14	4204
2026-01-27 12:00:30.38	276.65	24.33	-26.8	-28.1	16.5	0.00e+00	0	44	0	1007681536	14	4141
2026-01-27 12:00:33.37	277.50	24.28	-26.8	-27.9	16.6	0.00e+00	0	44	0	1017118720	14	4097
2026-01-27 12:00:36.39	278.36	24.23	-26.6	-27.6	16.7	0.00e+00	0	44	0	1026555904	14	4010
2026-01-27 12:00:39.40	279.21	24.17	-26.6	-27.6	16.7	0.00e+00	0	44	0	1035993088	14	4016
2026-01-27 12:00:42.42	280.06	24.11	-26.9	-28.1	16.4	0.00e+00	0	44	0	1045430272	14	4150
2026-01-27 12:00:45.42	280.91	24.04	-27.0	-28.4	16.3	0.00e+00	0	44	0	1054867456	14	4227
2026-01-27 12:00:48.43	281.75	23.96	-26.9	-28.2	16.4	0.00e+00	0	44	0	1064304640	14	4177
2026-01-27 12:00:51.44	282.59	23.88	-26.8	-28.0	16.5	0.00e+00	0	45	0	1073741824	14	4123
2026-01-27 12:00:54.44	283.42	23.79	-26.7	-27.8	16.6	0.00e+00	0	44	0	1083179008	14	4070
2026-01-27 12:00:57.46	284.25	23.69	-26.8	-27.9	16.5	0.00e+00	0	44	0	1092616192	14	4110
2026-01-27 12:01:00.46	285.07	23.59	-26.8	-27.9	16.6	0.00e+00	0	45	0	1102053376	14	4084
2026-01-27 12:01:03.48	285.89	23.49	-26.8	-27.9	16.5	0.00e+00	0	45	0	1111490560	14	4106
2026-01-27 12:01:06.49	286.70	23.38	-26.9	-28.1	16.4	0.00e+00	0	44	0	1120927744	14	4153
2026-01-27 12:01:09.50	287.51	23.26	-27.0	-28.5	16.3	0.00e+00	0	45	0	1130364928	14	4247
2026-01-27 12:01:12.50	288.31	23.14	-26.8	-27.9	16.5	0.00e+00	0	45	0	1139802112	14	4100
2026-01-27 12:01:15.50	289.10	23.01	-26.8	-28.1	16.5	0.00e+00	0	45	0	1149239296	14	4137
2026-01-27 12:01:18.52	289.89	22.88	-27.2	-28.8	16.1	0.00e+00	0	44	0	1158676480	14	4341
2026-01-27 12:01:21.54	290.67	22.74	-27.3	-29.1	15.9	0.00e+00	0	45	0	1168113664	14	4428
2026-01-27 12:01:24.55	291.45	22.60	-27.1	-28.1	16.2	0.00e+00	0	45	0	1177550848	15	4044
2026-01-27 12:01:27.56	292.21	22.46	-27.0	-27.9	16.3	0.00e+00	0	45	0	1186988032	15	4005
2026-01-27 12:01:30.56	292.97	22.31	-27.2	-28.3	16.1	0.00e+00	0	45	0	1196425216	15	4100
2026-01-27 12:01:33.57	293.72	22.15	-27.3	-28.6	15.9	0.00e+00	0	45	0	1205862400	15	4169
2026-01-27 12:01:36.59	294.47	22.00	-27.4	-28.8	15.8	0.00e+00	0	44	0	1215299584	15	4225
2026-01-27 12:01:39.60	295.21	21.83	-27.4	-28.7	15.8	0.00e+00	0	45	0	1224736768	15	4205
2026-01-27 12:01:42.62	295.94	21.67	-27.5	-29.0	15.7	0.00e+00	0	45	0	1234173952	15	4290
2026-01-27 12:01:45.62	296.66	21.50	-27.4	-28.8	15.8	0.00e+00	0	44	0	1243611136	15	4245
2026-01-27 12:01:48.63	297.38	21.33	-27.5	-29.0	15.7	0.00e+00	0	44	0	1253048320	15	4276
2026-01-27 12:01:51.64	298.08	21.15	-27.3	-28.6	15.9	0.00e+00	0	45	0	1262485504	15	4175
2026-01-27 12:01:54.65	298.78	20.97	-27.3	-28.7	15.8	0.00e+00	0	45	0	1271922688	15	4190
2026-01-27 12:01:57.66	299.47	20.79	-27.4	-28.8	15.8	7.00e-07	0	45	0	1281359872	15	4237
2026-01-27 12:02:00.67	300.16	20.61	-27.0	-27.9	16.3	0.00e+00	0	45	0	1289748480	15	3985
2026-01-27 12:02:03.68	300.83	20.42	-27.1	-28.2	16.1	0.00e+00	0	45	0	1299185664	15	4065
2026-01-27 12:02:06.70	301.50	20.23	-27.3	-28.5	15.9	0.00e+00	0	45	0	1309671424	15	4158
2026-01-27 12:02:09.70	302.16	20.04	-27.3	-28.5	15.9	0.00e+00	0	45	0	1318060032	15	4155
2026-01-27 12:02:12.72	302.81	19.85	-27.2	-28.4	16.0	0.00e+00	0	45	0	1327497216	15	4128
2026-01-27 12:02:15.72	303.45	19.65	-27.3	-28.6	15.9	0.00e+00	0	45	0	1336934400	15	4164
2026-01-27 12:02:18.74	304.09	19.46	-27.5	-29.1	15.6	0.00e+00	0	45	0	1346371584	15	4307
2026-01-27 12:02:21.74	304.71	19.26	-27.5	-29.0	15.6	0.00e+00	0	45	0	1355808768	15	4289
2026-01-27 12:02:24.74	305.33	19.06	-27.5	-28.9	15.6	0.00e+00	0	44	0	1365245952	15	4267
2026-01-27 12:02:27.76	305.94	18.85	-27.4	-28.8	15.7	0.00e+00	0	45	0	1374683136	15	4236
2026-01-27 12:02:30.78	306.55	18.65	-27.3	-28.6	15.8	0.00e+00	0	45	0	1384120320	15	4170
2026-01-27 12:02:33.79	307.14	18.44	-27.4	-28.8	15.7	0.00e+00	0	45	0	1393557504	15	4242
2026-01-27 12:02:36.79	307.73	18.24	-27.5	-29.0	15.6	0.00e+00	0	45	0	1402994688	15	4278
2026-01-27 12:02:39.80	308.31	18.03	-27.5	-29.0	15.6	0.00e+00	0	44	0	1412431872	15	4282
2026-01-27 12:02:42.81	308.88	17.82	-27.5	-29.1	15.5	0.00e+00	0	45	0	1421869056	15	4323
2026-01-27 12:02:45.82	309.44	17.61	-27.6	-29.3	15.4	0.00e+00	0	45	0	1431306240	15	4383
2026-01-27 12:02:48.82	310.00	17.40	-27.7	-29.4	15.3	0.00e+00	0	45	0	1440743424	15	4405
2026-01-27 12:02:51.84	310.55	17.19	-27.8	-29.7	15.1	0.00e+00	0	45	0	1450180608	15	4504
2026-01-27 12:02:54.85	311.09	16.98	-27.7	-29.5	15.3	0.00e+00	0	44	0	1459617792	15	4441
2026-01-27 12:02:57.86	311.62	16.77	-27.6	-29.3	15.4	0.00e+00	0	45	0	1469054976	15	4360
2026-01-27 12:03:00.88	312.15	16.55	-27.6	-29.2	15.4	0.00e+00	0	44	0	1478492160	15	4342
2026-01-27 12:03:03.89	312.67	16.34	-27.6	-29.2	15.4	0.00e+00	0	44	0	1487929344	15	4336
2026-01-27 12:03:06.89	313.18	16.13	-27.6	-29.4	15.4	0.00e+00	0	45	0	1497366528	15	4390
2026-01-27 12:03:09.91	313.69	15.92	-27.9	-29.9	15.0	0.00e+00	0	45	0	1506803712	15	4547
2026-01-27 12:03:12.92	314.19	15.70	-27.7	-29.6	15.2	0.00e+00	0	44	0	1516240896	15	4446
2026-01-27 12:03:15.93	314.68	15.49	-27.6	-29.3	15.3	0.00e+00	0	44	0	1525678080	15	4379
2026-01-27 12:03:18.94	315.16	15.27	-27.7	-29.6	15.2	0.00e+00	0	44	0	1535115264	15	4461
2026-01-27 12:03:21.95	315.64	15.06	-28.2	-30.2	14.7	0.00e+00	0	45	0	1544552448	16	4524
2026-01-27 12:03:24.96	316.11	14.85	-28.6	-30.5	14.2	7.00e-07	0	44	0	1553989632	17	4497
2026-01-27 12:03:27.97	316.58	14.63	-28.4	-30.1	14.4	7.00e-07	0	45	0	1563426816	17	4389
2026-01-27 12:03:30.97	317.04	14.42	-28.5	-30.4	14.2	0.00e+00	0	44	0	1572864000	17	4480
2026-01-27 12:03:33.98	317.49	14.21	-28.6	-30.6	14.1	3.80e-06	0	44	0	1582301184	17	4538
2026-01-27 12:03:37.00	317.93	13.99	-28.5	-30.3	14.3	0.00e+00	0	45	0	1591738368	17	4452
2026-01-27 12:03:40.02	318.38	13.78	-28.8	-30.9	13.9	4.50e-06	0	45	0	1601175552	17	4628
2026-01-27 12:03:43.03	318.81	13.57	-28.8	-31.0	13.9	3.80e-06	0	44	0	1610612736	17	4657
2026-01-27 12:03:46.04	319.24	13.36	-28.5	-30.3	14.2	1.50e-06	0	45	0	1619001344	17	4448
2026-01-27 12:03:49.05	319.66	13.15	-28.4	-30.0	14.4	1.50e-06	0	45	0	1629487104	17	4357
2026-01-27 12:03:52.06	320.08	12.94	-28.7	-30.8	13.9	2.20e-06	0	44	0	1637875712	17	4603
2026-01-27 12:03:55.08	320.49	12.72	-28.6	-30.7	14.0	3.00e-06	0	45	0	1647312896	17	4561
2026-01-27 12:03:58.09	320.89	12.51	-28.8	-31.1	13.8	2.20e-06	0	45	0	1656750080	17	4671
2026-01-27 12:04:01.10	321.29	12.31	-28.9	-31.3	13.7	4.50e-06	0	45	0	1666187264	17	4729
2026-01-27 12:04:04.11	321.69	12.10	-28.9	-31.4	13.5	6.10e-06	0	45	0	1675624448	17	4779
2026-01-27 12:04:07.12	322.07	11.89	-29.1	-31.2	13.4	2.05e-05	0	44	0	1685061632	18	4597
2026-01-27 12:04:10.13	322.46	11.68	-28.6	-30.2	14.0	3.80e-06	0	44	0	1694498816	18	4300
2026-01-27 12:04:13.13	322.83	11.48	-29.0	-31.0	13.5	1.22e-05	0	45	0	1703936000	18	4558
2026-01-27 12:04:16.13	323.21	11.27	-29.0	-31.0	13.4	1.37e-05	0	45	0	1713373184	18	4560
2026-01-27 12:04:19.15	323.58	11.06	-29.1	-31.3	13.3	2.67e-05	0	45	0	1722810368	18	4640
2026-01-27 12:04:22.14	323.94	10.86	-29.1	-31.3	13.2	1.60e-05	0	44	0	1732247552	18	4639
2026-01-27 12:04:25.15	324.30	10.66	-29.0	-31.1	13.3	1.37e-05	0	45	0	1741684736	18	4596
2026-01-27 12:04:28.17	324.65	10.45	-29.1	-31.5	13.1	2.28e-05	0	44	0	1751121920	18	4697
2026-01-27 12:04:31.17	325.00	10.25	-29.1	-31.3	13.2	1.90e-05	0	45	0	1760559104	18	4639
2026-01-27 12:04:34.18	325.34	10.05	-29.1	-31.5	13.1	2.97e-05	0	45	0	1769996288	18	4705
2026-01-27 12:04:37.19	325.68	9.85	-29.1	-31.4	13.1	3.12e-05	0	44	0	1779433472	18	4680
2026-01-27 12:04:40.21	326.02	9.65	-29.1	-31.4	13.1	3.28e-05	0	44	0	1788870656	18	4669
2026-01-27 12:04:43.22	326.35	9.45	-28.9	-31.0	13.4	1.06e-05	0	45	0	1798307840	18	4546
2026-01-27 12:04:46.23	326.68	9.25	-29.0	-31.1	13.3	1.14e-05	0	45	0	1807745024	18	4573
2026-01-27 12:04:49.23	327.00	9.05	-29.1	-31.4	13.0	2.59e-05	0	45	0	1817182208	18	4690
2026-01-27 12:04:52.24	327.32	8.86	-29.1	-31.3	13.1	3.35e-05	0	44	0	1826619392	18	4663
2026-01-27 12:04:55.25	327.63	8.66	-28.9	-30.9	13.4	2.51e-05	0	45	0	1836056576	18	4519
2026-01-27 12:04:58.27	327.94	8.46	-28.9	-30.8	13.4	1.75e-05	0	44	0	1845493760	18	4492
2026-01-27 12:05:01.28	328.25	8.27	-28.9	-31.0	13.2	1.22e-05	0	44	0	1854930944	18	4556
2026-01-27 12:05:04.29	328.55	8.08	-29.0	-31.2	13.1	3.43e-05	0	44	0	1864368128	18	4630
2026-01-27 12:05:07.30	328.85	7.88	-29.2	-31.6	12.8	4.88e-05	0	44	0	1873805312	18	4749
2026-01-27 12:05:10.31	329.15	7.69	-29.2	-31.6	12.8	4.19e-05	0	44	0	1883242496	18	4770
2026-01-27 12:05:13.34	329.44	7.50	-29.2	-31.7	12.7	5.95e-05	0	44	0	1892679680	18	4807
2026-01-27 12:05:16.35	329.73	7.31	-29.4	-32.3	12.3	1.54e-04	0	44	0	1902116864	18	5009
2026-01-27 12:05:19.35	330.01	7.12	-29.3	-32.1	12.4	1.04e-04	0	44	0	1911554048	18	4927

#Closed at: 2026-01-27 12:05:22
#Recorded file [1914 MB]: D:/data/31010_260127_145507.dat