passes_logs/2026/01/27/R2M6_AANII_01/R2M6_AANII_01__20260127_025135_NOAA_20_JPSS-1_rec.log

#Pass ID: 20260127_025135_NOAA 20 (JPSS-1)
#Satellite: NOAA 20 (JPSS-1)
#Configuration: NOAA 20
#almurnet v.1.7.20240730
#Start time: 2026-01-27 02:51:37

#Version: 2.2.20231116
#Station: R2M6_AANII_01
#Location: 30.233357 lon 59.946436 lat
#TLE: 1 43013U 17073A   26026.46665230  .00000148  00000+0  91302-4 0  9998
#TLE: 2 43013  98.7646 327.2856 0001008  22.9532 337.1688 14.19540616424360

#Time	Az	El	Level	Level2	SNR	BER	BlckErr	Temp	State	Recorded	gain1	gain2
2026-01-27 02:51:37.08	8.52	7.06	-32.4	-42.4	4.0	1.46e+00	0	41	0	0	25	11446
2026-01-27 02:51:40.09	8.18	7.23	-32.2	-41.3	5.1	6.68e-01	0	42	0	1048576	24	10209
2026-01-27 02:51:43.10	7.83	7.40	-32.1	-40.3	5.7	5.74e-01	0	42	0	7340032	24	9188
2026-01-27 02:51:46.12	7.48	7.56	-31.6	-37.2	7.9	1.06e-01	0	42	0	12582912	24	6868
2026-01-27 02:51:49.13	7.13	7.73	-31.1	-35.4	9.8	1.48e-02	0	42	0	18874368	23	5958
2026-01-27 02:51:52.14	6.77	7.89	-30.9	-35.4	10.3	4.95e-03	0	42	0	24117248	22	6009
2026-01-27 02:51:55.15	6.40	8.06	-30.8	-35.1	10.5	3.94e-03	0	42	0	29360128	22	5869
2026-01-27 02:51:58.16	6.04	8.23	-30.8	-35.0	10.6	3.69e-03	0	42	0	35651584	22	5827
2026-01-27 02:52:01.16	5.67	8.39	-30.7	-35.0	10.9	2.30e-03	0	42	0	40894464	21	5922
2026-01-27 02:52:04.18	5.29	8.56	-30.7	-35.0	10.9	2.05e-03	0	42	0	46137344	21	5939
2026-01-27 02:52:07.19	4.91	8.72	-30.8	-35.5	10.6	3.71e-03	0	42	0	52428800	21	6184
2026-01-27 02:52:10.20	4.53	8.89	-30.9	-35.6	10.6	3.42e-03	0	42	0	57671680	21	6211
2026-01-27 02:52:13.22	4.14	9.05	-30.9	-35.8	10.5	4.20e-03	0	42	0	63963136	21	6301
2026-01-27 02:52:16.23	3.74	9.22	-30.9	-35.7	10.6	3.74e-03	0	42	0	69206016	21	6229
2026-01-27 02:52:19.24	3.34	9.39	-30.8	-35.5	10.7	2.97e-03	0	42	0	74448896	21	6133
2026-01-27 02:52:22.25	2.94	9.55	-30.7	-34.9	11.1	2.06e-03	0	42	0	80740352	21	5882
2026-01-27 02:52:25.26	2.53	9.71	-30.6	-34.8	11.2	1.30e-03	0	42	0	85983232	21	5813
2026-01-27 02:52:28.25	2.13	9.88	-30.5	-34.5	11.5	8.71e-04	0	43	0	91226112	21	5672
2026-01-27 02:52:31.27	1.71	10.04	-30.6	-34.7	11.3	1.14e-03	0	43	0	97517568	21	5758
2026-01-27 02:52:34.28	1.29	10.20	-30.7	-34.9	11.2	1.28e-03	0	43	0	102760448	21	5846
2026-01-27 02:52:37.28	0.86	10.37	-30.7	-34.8	11.3	1.27e-03	0	43	0	109051904	21	5804
2026-01-27 02:52:40.29	0.43	10.53	-30.8	-35.1	11.1	1.41e-03	0	43	0	114294784	21	5942
2026-01-27 02:52:43.30	359.99	10.69	-30.9	-35.5	10.8	2.45e-03	0	43	0	119537664	21	6109
2026-01-27 02:52:46.30	359.55	10.85	-31.0	-35.4	10.5	3.78e-03	0	43	0	125829120	22	5960
2026-01-27 02:52:49.31	359.11	11.01	-31.0	-35.4	10.6	3.71e-03	0	43	0	131072000	22	5966
2026-01-27 02:52:52.31	358.66	11.17	-31.2	-35.9	10.2	6.20e-03	0	43	0	136314880	22	6223
2026-01-27 02:52:55.31	358.20	11.33	-31.0	-35.2	10.7	2.59e-03	0	43	0	142606336	22	5846
2026-01-27 02:52:58.31	357.74	11.49	-30.8	-35.2	11.1	1.84e-03	0	43	0	147849216	21	5988
2026-01-27 02:53:01.32	357.28	11.65	-30.9	-35.4	10.9	1.72e-03	0	43	0	154140672	21	6053
2026-01-27 02:53:04.34	356.80	11.80	-30.8	-35.3	11.1	2.00e-03	0	43	0	159383552	21	6010
2026-01-27 02:53:07.35	356.33	11.96	-30.8	-35.2	11.1	1.89e-03	0	43	0	164626432	21	5955
2026-01-27 02:53:10.36	355.84	12.11	-30.7	-34.8	11.4	1.00e-03	0	43	0	170917888	21	5776
2026-01-27 02:53:13.37	355.36	12.27	-30.7	-34.7	11.5	7.87e-04	0	43	0	176160768	21	5728
2026-01-27 02:53:16.38	354.86	12.42	-30.7	-34.8	11.4	1.09e-03	0	43	0	182452224	21	5797
2026-01-27 02:53:19.39	354.37	12.57	-30.5	-34.3	11.9	4.09e-04	0	43	0	187695104	21	5533
2026-01-27 02:53:22.40	353.86	12.72	-30.4	-33.9	12.1	2.70e-04	0	43	0	192937984	21	5364
2026-01-27 02:53:25.42	353.35	12.87	-30.2	-33.8	12.5	1.59e-04	0	43	0	199229440	20	5465
2026-01-27 02:53:28.42	352.84	13.02	-30.1	-33.6	12.6	1.12e-04	0	43	0	204472320	20	5366
2026-01-27 02:53:31.42	352.33	13.17	-29.5	-33.2	12.4	1.69e-04	0	43	0	209715200	20	5503
2026-01-27 02:53:34.42	351.80	13.31	-30.4	-34.2	12.0	2.36e-04	0	43	0	216006656	20	5633
2026-01-27 02:53:37.44	351.27	13.45	-30.1	-33.4	12.9	5.87e-05	0	43	0	221249536	20	5271
2026-01-27 02:53:40.45	350.74	13.59	-30.0	-33.6	13.1	3.35e-05	0	43	0	227540992	19	5448
2026-01-27 02:53:43.45	350.20	13.73	-29.8	-33.1	13.4	1.75e-05	0	43	0	232783872	19	5253
2026-01-27 02:53:46.46	349.66	13.87	-29.8	-33.2	13.4	2.19e-04	0	43	0	238026752	19	5300
2026-01-27 02:53:49.46	349.11	14.01	-29.7	-32.8	13.7	2.58e-04	0	43	0	244318208	19	5148
2026-01-27 02:53:52.47	348.55	14.14	-29.6	-32.6	13.8	2.89e-04	0	44	0	249561088	19	5061
2026-01-27 02:53:55.48	347.99	14.28	-29.6	-32.6	13.8	3.26e-04	0	44	0	254803968	19	5075
2026-01-27 02:53:58.49	347.43	14.41	-29.9	-33.2	13.5	7.60e-06	0	43	0	261095424	19	5293
2026-01-27 02:54:01.50	346.86	14.53	-29.9	-32.8	13.3	1.22e-05	0	43	0	266338304	20	5048
2026-01-27 02:54:04.51	346.29	14.66	-30.0	-33.2	13.0	2.41e-04	0	44	0	272629760	20	5199
2026-01-27 02:54:07.51	345.71	14.78	-30.0	-33.2	13.0	2.49e-04	0	44	0	277872640	20	5207
2026-01-27 02:54:10.53	345.12	14.91	-29.9	-33.3	13.3	2.65e-04	0	44	0	283115520	19	5347
2026-01-27 02:54:13.53	344.53	15.02	-29.9	-32.8	13.3	2.72e-04	0	43	0	289406976	20	5039
2026-01-27 02:54:16.54	343.94	15.14	-29.8	-33.2	13.5	2.31e-04	0	44	0	294649856	19	5266
2026-01-27 02:54:19.55	343.34	15.25	-29.8	-33.1	13.5	6.80e-06	0	44	0	300941312	19	5259
2026-01-27 02:54:22.56	342.74	15.37	-29.5	-32.2	14.1	1.01e-04	0	43	0	306184192	19	4928
2026-01-27 02:54:25.57	342.13	15.47	-29.4	-32.1	14.2	1.12e-04	0	44	0	311427072	19	4876
2026-01-27 02:54:28.59	341.51	15.58	-29.5	-32.3	14.1	1.92e-04	0	43	0	317718528	19	4931
2026-01-27 02:54:31.59	340.90	15.68	-29.8	-32.9	13.7	2.07e-04	0	44	0	322961408	19	5178
2026-01-27 02:54:34.60	340.28	15.78	-29.7	-32.7	13.8	3.89e-05	0	44	0	328204288	19	5107
2026-01-27 02:54:37.61	339.65	15.88	-29.8	-32.9	13.7	9.10e-06	0	44	0	334495744	19	5161
2026-01-27 02:54:40.63	339.02	15.97	-29.5	-32.3	14.1	1.50e-06	0	44	0	339738624	19	4961
2026-01-27 02:54:43.64	338.39	16.06	-29.7	-32.6	13.9	5.30e-06	0	44	0	346030080	19	5061
2026-01-27 02:54:46.65	337.75	16.15	-29.5	-32.2	14.2	1.50e-06	0	44	0	351272960	19	4908
2026-01-27 02:54:49.67	337.11	16.24	-29.5	-32.1	14.2	7.00e-07	0	44	0	356515840	19	4871
2026-01-27 02:54:52.68	336.46	16.32	-29.5	-32.3	14.1	3.80e-06	0	44	0	362807296	19	4949
2026-01-27 02:54:55.69	335.81	16.39	-29.4	-32.0	14.3	0.00e+00	0	44	0	368050176	19	4836
2026-01-27 02:54:58.70	335.16	16.47	-29.7	-32.7	13.8	1.50e-06	0	44	0	374341632	19	5096
2026-01-27 02:55:01.70	334.51	16.54	-29.4	-32.0	14.3	0.00e+00	0	44	0	379584512	19	4839
2026-01-27 02:55:04.72	333.85	16.60	-29.5	-32.1	14.3	2.20e-06	0	44	0	384827392	19	4884
2026-01-27 02:55:07.73	333.19	16.67	-29.5	-32.3	14.0	1.50e-06	0	44	0	391118848	19	4940
2026-01-27 02:55:10.74	332.53	16.72	-29.9	-33.3	13.5	1.37e-05	0	44	0	396361728	19	5315
2026-01-27 02:55:13.74	331.86	16.78	-29.9	-33.2	13.5	3.25e-04	0	44	0	401604608	19	5294
2026-01-27 02:55:16.74	331.20	16.83	-29.9	-33.1	13.6	7.60e-06	0	44	0	407896064	19	5233
2026-01-27 02:55:19.75	330.53	16.88	-29.8	-33.0	13.7	3.80e-06	0	44	0	413138944	19	5208
2026-01-27 02:55:22.76	329.86	16.92	-29.8	-33.0	13.7	6.80e-06	0	44	0	419430400	19	5207
2026-01-27 02:55:25.77	329.18	16.96	-29.9	-33.3	13.5	1.06e-05	0	44	0	424673280	19	5299
2026-01-27 02:55:28.77	328.51	17.00	-30.1	-33.3	13.1	2.28e-05	0	44	0	429916160	20	5205
2026-01-27 02:55:31.77	327.83	17.03	-30.0	-33.0	13.3	3.12e-04	0	44	0	436207616	20	5088
2026-01-27 02:55:34.79	327.15	17.06	-29.9	-33.2	13.6	3.86e-04	0	44	0	441450496	19	5273
2026-01-27 02:55:37.79	326.47	17.08	-30.2	-33.6	12.9	6.35e-04	0	44	0	446693376	20	5316
2026-01-27 02:55:40.80	325.79	17.10	-30.0	-33.1	13.2	3.05e-04	0	44	0	452984832	20	5126
2026-01-27 02:55:43.82	325.11	17.11	-30.1	-33.3	13.0	2.82e-05	0	44	0	458227712	20	5219
2026-01-27 02:55:46.83	324.43	17.12	-30.0	-33.1	13.2	2.15e-04	0	44	0	464519168	20	5131
2026-01-27 02:55:49.83	323.74	17.13	-30.1	-33.4	13.0	5.30e-04	0	44	0	469762048	20	5250
2026-01-27 02:55:52.85	323.06	17.13	-30.1	-33.2	13.1	5.07e-04	0	44	0	475004928	20	5189
2026-01-27 02:55:55.86	322.38	17.13	-30.1	-33.3	13.1	3.17e-04	0	44	0	481296384	20	5214
2026-01-27 02:55:58.87	321.69	17.13	-30.1	-33.4	13.0	3.28e-05	0	44	0	486539264	20	5255
2026-01-27 02:56:01.88	321.01	17.12	-30.0	-33.0	13.3	1.11e-04	0	44	0	492830720	20	5108
2026-01-27 02:56:04.90	320.33	17.10	-29.8	-32.6	13.5	1.14e-05	0	44	0	498073600	20	4961
2026-01-27 02:56:07.91	319.64	17.08	-29.9	-32.8	13.4	1.60e-05	0	44	0	503316480	20	5046
2026-01-27 02:56:10.92	318.96	17.06	-30.0	-33.0	13.3	1.69e-04	0	44	0	509607936	20	5088
2026-01-27 02:56:13.93	318.28	17.04	-29.8	-32.6	13.5	3.81e-05	0	44	0	514850816	20	4955
2026-01-27 02:56:16.94	317.61	17.00	-29.9	-32.7	13.4	3.12e-05	0	44	0	520093696	20	5006
2026-01-27 02:56:19.95	316.93	16.97	-29.8	-32.4	13.6	8.30e-06	0	44	0	526385152	20	4895
2026-01-27 02:56:22.97	316.25	16.93	-29.7	-32.1	13.8	6.10e-06	0	44	0	531628032	20	4796
2026-01-27 02:56:25.98	315.58	16.89	-29.7	-32.2	13.8	5.30e-06	0	44	0	537919488	20	4816
2026-01-27 02:56:28.99	314.91	16.84	-29.6	-32.0	13.9	3.80e-06	0	44	0	543162368	20	4745
2026-01-27 02:56:31.99	314.24	16.79	-29.6	-32.4	14.0	1.50e-06	0	44	0	548405248	19	4984
2026-01-27 02:56:35.00	313.57	16.74	-29.4	-32.4	14.3	7.00e-07	0	44	0	554696704	18	5115
2026-01-27 02:56:38.01	312.91	16.68	-29.3	-32.1	14.6	7.00e-07	0	44	0	559939584	18	4984
2026-01-27 02:56:41.01	312.25	16.62	-29.3	-32.2	14.4	0.00e+00	0	44	0	565182464	18	5033
2026-01-27 02:56:44.03	311.59	16.55	-29.4	-32.3	14.4	0.00e+00	0	44	0	571473920	18	5073
2026-01-27 02:56:47.03	310.93	16.48	-29.5	-32.3	14.0	1.50e-06	0	44	0	576716800	19	4959
2026-01-27 02:56:50.04	310.28	16.41	-29.4	-32.6	14.2	3.80e-06	0	44	0	583008256	18	5156
2026-01-27 02:56:53.06	309.63	16.33	-29.5	-32.2	14.1	1.50e-06	0	44	0	588251136	19	4927
2026-01-27 02:56:56.07	308.98	16.25	-29.6	-32.5	13.9	1.50e-06	0	44	0	593494016	19	5016
2026-01-27 02:56:59.08	308.34	16.17	-29.6	-32.6	13.9	5.30e-06	0	44	0	599785472	19	5066
2026-01-27 02:57:02.09	307.70	16.08	-29.8	-32.9	13.7	5.30e-06	0	44	0	605028352	19	5182
2026-01-27 02:57:05.10	307.06	15.99	-30.0	-33.5	13.3	1.83e-05	0	44	0	611319808	19	5394
2026-01-27 02:57:08.10	306.43	15.90	-29.8	-32.9	13.6	6.80e-06	0	44	0	616562688	19	5186
2026-01-27 02:57:11.10	305.81	15.81	-29.9	-33.4	13.3	1.14e-05	0	44	0	621805568	19	5351
2026-01-27 02:57:14.12	305.18	15.71	-29.9	-32.8	13.3	1.44e-05	0	44	0	628097024	20	5034
2026-01-27 02:57:17.13	304.56	15.60	-29.8	-32.7	13.3	1.83e-05	0	44	0	633339904	20	5022
2026-01-27 02:57:20.15	303.95	15.50	-29.8	-33.0	13.5	4.50e-06	0	44	0	638582784	19	5218
2026-01-27 02:57:23.16	303.34	15.39	-29.8	-32.6	13.4	1.67e-05	0	44	0	644874240	20	4966
2026-01-27 02:57:26.16	302.73	15.28	-29.9	-33.4	13.3	2.51e-05	0	44	0	650117120	19	5362
2026-01-27 02:57:29.17	302.13	15.17	-30.1	-33.4	12.8	6.40e-05	0	44	0	656408576	20	5277
2026-01-27 02:57:32.19	301.53	15.05	-29.9	-33.0	13.1	4.88e-05	0	44	0	661651456	20	5130
2026-01-27 02:57:35.20	300.94	14.93	-29.7	-32.8	13.6	1.06e-05	0	44	0	666894336	19	5149
2026-01-27 02:57:38.22	300.35	14.81	-29.6	-32.5	13.8	5.30e-06	0	44	0	673185792	19	5051
2026-01-27 02:57:41.23	299.77	14.69	-29.6	-32.6	13.7	6.80e-06	0	44	0	678428672	19	5056
2026-01-27 02:57:44.24	299.19	14.56	-29.8	-33.1	13.4	9.10e-06	0	44	0	684720128	19	5256
2026-01-27 02:57:47.26	298.62	14.43	-29.8	-33.2	13.3	1.29e-05	0	44	0	689963008	19	5306
2026-01-27 02:57:50.27	298.05	14.30	-29.7	-32.9	13.5	1.14e-05	0	44	0	695205888	19	5185
2026-01-27 02:57:53.27	297.49	14.17	-29.7	-32.7	13.6	9.10e-06	0	44	0	701497344	19	5117
2026-01-27 02:57:56.28	296.93	14.04	-29.6	-32.5	13.7	3.80e-06	0	44	0	706740224	19	5053
2026-01-27 02:57:59.28	296.38	13.90	-29.8	-33.1	13.4	1.52e-05	0	44	0	711983104	19	5252
2026-01-27 02:58:02.29	295.83	13.76	-29.9	-33.4	13.1	2.36e-05	0	44	0	718274560	19	5370
2026-01-27 02:58:05.30	295.29	13.62	-30.0	-33.3	12.8	3.89e-05	0	44	0	723517440	20	5260
2026-01-27 02:58:08.31	294.75	13.48	-30.2	-33.8	12.4	1.37e-04	0	44	0	729808896	20	5469
2026-01-27 02:58:11.31	294.22	13.34	-30.4	-34.3	12.1	2.69e-04	0	44	0	735051776	20	5690
2026-01-27 02:58:14.32	293.70	13.19	-30.4	-34.4	11.9	3.49e-04	0	44	0	740294656	20	5714
2026-01-27 02:58:17.33	293.17	13.05	-30.7	-35.0	11.1	1.61e-03	0	44	0	746586112	21	5888
2026-01-27 02:58:20.35	292.66	12.90	-30.6	-34.6	11.4	8.19e-04	0	44	0	751828992	21	5709
2026-01-27 02:58:23.36	292.14	12.75	-30.7	-35.1	11.0	2.01e-03	0	44	0	757071872	21	5942
2026-01-27 02:58:26.38	291.64	12.60	-30.6	-34.7	11.0	1.49e-03	0	44	0	763363328	21	5788
2026-01-27 02:58:29.38	291.14	12.45	-30.6	-34.6	11.4	1.01e-03	0	44	0	768606208	21	5716
2026-01-27 02:58:32.38	290.64	12.30	-30.8	-35.3	10.9	1.85e-03	0	44	0	774897664	21	6033
2026-01-27 02:58:35.39	290.15	12.14	-31.1	-35.7	10.1	6.53e-03	0	44	0	780140544	22	6172
2026-01-27 02:58:38.41	289.67	11.99	-30.9	-35.7	10.5	4.49e-03	0	44	0	785383424	21	6269
2026-01-27 02:58:41.42	289.19	11.83	-30.9	-35.7	10.5	4.25e-03	0	44	0	791674880	21	6237
2026-01-27 02:58:44.43	288.71	11.67	-30.7	-34.9	11.0	3.96e-03	0	44	0	796917760	21	5891
2026-01-27 02:58:47.43	288.25	11.52	-30.8	-35.3	10.8	4.27e-03	0	44	0	803209216	21	6059
2026-01-27 02:58:50.45	287.78	11.36	-30.8	-35.4	10.6	4.06e-03	0	44	0	808452096	21	6141
2026-01-27 02:58:53.45	287.32	11.20	-30.8	-35.4	10.6	4.43e-03	0	44	0	813694976	21	6157
2026-01-27 02:58:56.46	286.87	11.04	-30.6	-34.8	11.0	1.76e-03	0	44	0	819986432	21	5856
2026-01-27 02:58:59.46	286.42	10.88	-30.8	-35.4	10.6	3.69e-03	0	44	0	825229312	21	6158
2026-01-27 02:59:02.47	285.97	10.72	-30.7	-35.3	10.7	5.09e-03	0	44	0	830472192	21	6083
2026-01-27 02:59:05.48	285.53	10.55	-30.5	-34.7	11.1	4.27e-03	0	44	0	836763648	21	5791
2026-01-27 02:59:08.49	285.10	10.39	-30.5	-34.5	11.2	3.60e-03	0	44	0	842006528	21	5731
2026-01-27 02:59:11.50	284.67	10.23	-30.3	-34.4	11.6	2.67e-03	0	44	0	848297984	20	5788
2026-01-27 02:59:14.51	284.25	10.06	-30.4	-34.6	11.4	2.22e-03	0	44	0	853540864	20	5893
2026-01-27 02:59:17.51	283.83	9.90	-30.4	-34.8	11.3	1.24e-03	0	44	0	858783744	20	5982
2026-01-27 02:59:20.52	283.41	9.74	-30.5	-35.0	11.1	4.18e-03	0	44	0	865075200	20	6083
2026-01-27 02:59:23.52	283.00	9.57	-30.4	-34.9	11.1	3.70e-03	0	44	0	870318080	20	6023
2026-01-27 02:59:26.54	282.60	9.41	-30.2	-34.1	11.7	2.88e-03	0	44	0	875560960	20	5666
2026-01-27 02:59:29.55	282.19	9.24	-30.3	-34.4	11.4	3.27e-03	0	44	0	881852416	20	5811
2026-01-27 02:59:32.56	281.80	9.08	-29.9	-33.4	12.1	2.64e-04	0	44	0	887095296	20	5381
2026-01-27 02:59:35.56	281.41	8.91	-29.9	-33.7	12.4	1.72e-04	0	44	0	893386752	19	5580
2026-01-27 02:59:38.57	281.02	8.74	-29.7	-33.3	12.6	1.11e-04	0	44	0	898629632	19	5447
2026-01-27 02:59:41.57	280.64	8.58	-29.7	-33.3	12.6	1.10e-04	0	44	0	903872512	19	5422
2026-01-27 02:59:44.57	280.26	8.41	-29.8	-33.7	12.3	2.63e-03	0	44	0	910163968	19	5577
2026-01-27 02:59:47.58	279.89	8.25	-29.7	-33.3	12.6	2.43e-03	0	44	0	915406848	19	5422
2026-01-27 02:59:50.58	279.52	8.08	-29.7	-33.2	12.6	1.22e-04	0	44	0	920649728	19	5407
2026-01-27 02:59:53.59	279.15	7.92	-29.7	-33.1	12.7	8.62e-05	0	44	0	926941184	19	5364
2026-01-27 02:59:56.60	278.79	7.75	-29.8	-33.7	12.2	2.35e-04	0	44	0	932184064	19	5627
2026-01-27 02:59:59.60	278.43	7.58	-29.8	-33.3	12.1	3.10e-04	0	44	0	938475520	20	5336
2026-01-27 03:00:02.62	278.08	7.42	-30.0	-33.6	11.8	3.80e-04	0	44	0	943718400	20	5491
2026-01-27 03:00:05.64	277.73	7.25	-29.0	-32.8	11.9	2.04e-04	0	44	0	948961280	19	5593
2026-01-27 03:00:08.65	277.38	7.08	-29.8	-33.7	11.6	2.22e-04	0	44	0	955252736	19	5614

#Closed at: 2026-01-27 03:00:11
#Recorded file [956 MB]: D:/data/31010_260127_055138.dat