passes_logs/2026/01/27/R2M6_AANII_01/R2M6_AANII_01__20260127_051015_FENGYUN_3E_rec.log

#Pass ID: 20260127_051015_FENGYUN 3E
#Satellite: FENGYUN 3E
#Configuration: FENGYUN 3E
#almurnet v.1.7.20240730
#Start time: 2026-01-27 05:16:36

#Version: 2.2.20231116
#Station: R2M6_AANII_01
#Location: 30.233357 lon 59.946436 lat
#TLE: 1 49008U 21062A   26026.84429991  .00000247  00000+0  13693-3 0  9991
#TLE: 2 49008  98.7501  31.8345 0002501 116.3456 243.7977 14.19887781236522

#Time	Az	El	Level	Level2	SNR	BER	BlckErr	Temp	State	Recorded	gain1	gain2
2026-01-27 05:16:36.27	275.81	57.54	-33.9	-45.3	3.8	8.47e-01	0	42	0	0	27	13418
2026-01-27 05:16:38.27	274.27	57.25	-34.5	-43.4	3.8	8.45e-01	0	43	104	0	30	10060
2026-01-27 05:16:40.29	272.75	56.94	-34.5	-43.5	3.8	8.47e-01	0	43	104	0	30	10079
2026-01-27 05:16:42.29	271.29	56.61	-34.6	-43.5	3.8	8.46e-01	0	43	104	0	30	10118
2026-01-27 05:16:44.30	269.84	56.27	-34.5	-43.4	3.8	8.46e-01	0	43	104	0	30	10040
2026-01-27 05:16:46.30	268.45	55.91	-34.5	-43.4	3.8	8.47e-01	0	43	104	0	30	10024
2026-01-27 05:16:48.30	267.09	55.54	-34.4	-43.3	3.8	8.46e-01	0	43	104	0	30	10002
2026-01-27 05:16:50.31	265.75	55.16	-34.4	-43.2	3.8	8.46e-01	0	43	104	0	30	9925
2026-01-27 05:16:52.31	264.46	54.76	-34.4	-43.3	3.8	8.46e-01	0	43	104	0	30	9960
2026-01-27 05:16:54.32	263.20	54.36	-34.4	-43.2	3.8	8.46e-01	0	43	104	0	30	9928
2026-01-27 05:16:56.32	261.99	53.94	-34.4	-43.3	3.8	8.45e-01	0	43	104	0	30	9951
2026-01-27 05:16:58.33	260.80	53.51	-34.5	-43.4	3.8	8.45e-01	0	43	104	0	30	10024
2026-01-27 05:17:00.33	259.65	53.08	-34.4	-43.2	3.8	8.46e-01	0	43	104	0	30	9952
2026-01-27 05:17:02.33	258.54	52.64	-34.3	-43.4	3.8	8.46e-01	0	43	104	0	29	10259
2026-01-27 05:17:04.33	257.45	52.19	-34.2	-43.8	3.8	8.46e-01	0	43	104	0	28	10809
2026-01-27 05:17:06.35	256.40	51.73	-34.1	-43.6	3.8	8.47e-01	0	43	104	0	28	10640
2026-01-27 05:17:08.35	255.38	51.27	-34.1	-43.4	3.8	8.46e-01	0	43	104	0	28	10560
2026-01-27 05:17:10.35	254.40	50.81	-34.1	-43.6	3.8	8.47e-01	0	43	104	0	28	10771
2026-01-27 05:17:12.36	253.44	50.33	-34.1	-43.6	3.8	8.48e-01	0	43	104	0	28	10725
2026-01-27 05:17:14.37	252.51	49.86	-34.0	-42.4	3.8	8.46e-01	0	43	104	0	28	9539
2026-01-27 05:17:16.37	251.61	49.38	-34.0	-42.7	3.8	8.46e-01	0	43	104	0	28	9791
2026-01-27 05:17:18.37	250.74	48.91	-34.0	-42.7	3.8	8.46e-01	0	43	104	0	28	9838
2026-01-27 05:17:20.38	249.89	48.43	-33.6	-40.1	3.9	8.45e-01	0	43	104	0	28	7583
2026-01-27 05:17:22.39	249.07	47.94	-33.5	-39.4	3.9	8.41e-01	0	43	104	0	28	7108
2026-01-27 05:17:24.39	248.28	47.46	-32.7	-36.6	5.7	7.05e-01	0	43	0	0	26	5626
2026-01-27 05:17:26.40	247.51	46.98	-31.3	-33.6	8.5	4.71e-02	0	43	0	13631488	23	4692
2026-01-27 05:17:28.40	246.77	46.50	-29.0	-29.7	12.3	1.85e-03	0	43	0	28311552	19	3910
2026-01-27 05:17:30.42	246.04	46.01	-24.4	-24.1	17.7	0.00e+00	0	43	0	42991616	10	3468
2026-01-27 05:17:32.41	245.34	45.53	-24.6	-25.1	17.5	1.10e-06	0	43	0	57671680	9	3784
2026-01-27 05:17:34.42	244.66	45.05	-24.1	-24.0	18.0	0.00e+00	0	43	0	71303168	9	3544
2026-01-27 05:17:36.43	244.00	44.57	-23.9	-23.5	18.2	0.00e+00	0	43	0	87031808	9	3435
2026-01-27 05:17:38.44	243.36	44.09	-23.6	-23.5	18.5	0.00e+00	0	43	0	100663296	8	3546
2026-01-27 05:17:40.45	242.74	43.62	-23.3	-23.3	18.8	0.00e+00	0	43	0	115343360	7	3607
2026-01-27 05:17:42.46	242.14	43.14	-23.2	-23.1	18.9	0.00e+00	0	43	0	130023424	7	3543
2026-01-27 05:17:44.47	241.55	42.67	-23.3	-23.4	18.8	0.00e+00	0	43	0	144703488	7	3621
2026-01-27 05:17:46.49	240.98	42.20	-23.4	-23.4	18.7	0.00e+00	0	43	0	159383552	7	3616
2026-01-27 05:17:48.50	240.43	41.73	-23.3	-23.3	18.8	0.00e+00	0	43	0	173015040	7	3589
2026-01-27 05:17:50.51	239.89	41.27	-22.8	-22.7	19.2	0.00e+00	0	43	0	187695104	6	3554
2026-01-27 05:17:52.52	239.37	40.81	-23.3	-23.7	18.8	0.00e+00	0	43	0	202375168	6	3794
2026-01-27 05:17:54.52	238.86	40.35	-23.6	-24.0	18.4	0.00e+00	0	42	0	217055232	7	3752
2026-01-27 05:17:56.53	238.37	39.90	-23.7	-24.1	18.4	0.00e+00	0	42	0	231735296	7	3763
2026-01-27 05:17:58.54	237.89	39.45	-23.4	-23.4	18.6	0.00e+00	0	42	0	246415360	7	3626
2026-01-27 05:18:00.54	237.43	39.00	-23.4	-23.4	18.7	0.00e+00	0	43	0	260046848	7	3621
2026-01-27 05:18:02.55	236.97	38.56	-23.5	-23.6	18.6	0.00e+00	0	43	0	274726912	7	3669
2026-01-27 05:18:04.53	236.54	38.13	-23.4	-23.4	18.7	0.00e+00	0	43	0	289406976	7	3630
2026-01-27 05:18:06.53	236.11	37.69	-23.3	-23.3	18.7	0.00e+00	0	43	0	304087040	7	3596
2026-01-27 05:18:08.53	235.70	37.26	-23.4	-23.6	18.5	0.00e+00	0	43	0	317718528	7	3667
2026-01-27 05:18:10.53	235.29	36.84	-23.5	-23.8	18.5	0.00e+00	0	42	0	332398592	7	3718
2026-01-27 05:18:12.52	234.90	36.42	-23.2	-23.2	18.8	0.00e+00	0	43	0	347078656	7	3570
2026-01-27 05:18:14.53	234.51	36.00	-23.2	-23.0	18.8	0.00e+00	0	43	0	361758720	7	3537
2026-01-27 05:18:16.53	234.14	35.58	-23.1	-23.0	18.9	0.00e+00	0	43	0	376438784	7	3526
2026-01-27 05:18:18.53	233.77	35.17	-23.2	-23.0	18.8	0.00e+00	0	43	0	390070272	7	3541
2026-01-27 05:18:20.53	233.42	34.77	-23.1	-22.8	18.9	0.00e+00	0	43	0	404750336	7	3506
2026-01-27 05:18:22.52	233.07	34.36	-22.8	-22.7	19.2	0.00e+00	0	43	0	419430400	6	3574
2026-01-27 05:18:24.52	232.73	33.97	-22.6	-22.3	19.4	0.00e+00	0	43	0	433061888	6	3492
2026-01-27 05:18:26.53	232.40	33.57	-22.9	-23.4	19.1	0.00e+00	0	43	0	447741952	5	3838
2026-01-27 05:18:28.53	232.08	33.18	-23.2	-23.7	18.7	0.00e+00	0	43	0	462422016	6	3796
2026-01-27 05:18:30.54	231.76	32.79	-23.4	-24.0	18.5	0.00e+00	0	43	0	477102080	6	3869
2026-01-27 05:18:32.55	231.46	32.41	-23.4	-24.0	18.5	0.00e+00	0	43	0	491782144	6	3864
2026-01-27 05:18:34.56	231.16	32.02	-23.2	-23.6	18.7	0.00e+00	0	43	0	505413632	6	3763
2026-01-27 05:18:36.57	230.86	31.65	-23.4	-23.9	18.5	0.00e+00	0	43	0	520093696	6	3845
2026-01-27 05:18:38.56	230.58	31.28	-23.4	-24.0	18.5	0.00e+00	0	43	0	534773760	6	3858
2026-01-27 05:18:40.58	230.29	30.91	-23.1	-23.5	18.7	1.10e-06	0	43	0	549453824	6	3747
2026-01-27 05:18:42.59	230.02	30.54	-23.0	-23.3	18.9	0.00e+00	0	43	0	564133888	6	3693
2026-01-27 05:18:44.59	229.75	30.18	-23.1	-23.3	18.8	0.00e+00	0	43	0	578813952	6	3702
2026-01-27 05:18:46.59	229.49	29.83	-22.8	-22.9	19.1	0.00e+00	0	43	0	592445440	6	3605
2026-01-27 05:18:48.61	229.24	29.47	-23.0	-23.2	18.9	0.00e+00	0	43	0	607125504	6	3671
2026-01-27 05:18:50.62	228.98	29.12	-23.1	-23.4	18.8	0.00e+00	0	43	0	621805568	6	3717
2026-01-27 05:18:52.62	228.74	28.78	-23.0	-23.7	18.8	0.00e+00	0	43	0	636485632	5	3909
2026-01-27 05:18:54.63	228.50	28.43	-23.2	-23.5	18.7	0.00e+00	0	43	0	651165696	6	3752
2026-01-27 05:18:56.64	228.27	28.10	-23.3	-23.9	18.5	0.00e+00	0	43	0	665845760	6	3834
2026-01-27 05:18:58.65	228.04	27.76	-23.4	-23.9	18.5	0.00e+00	0	43	0	679477248	6	3847
2026-01-27 05:19:00.66	227.81	27.43	-23.4	-24.1	18.3	0.00e+00	0	43	0	694157312	6	3876
2026-01-27 05:19:02.66	227.59	27.10	-23.5	-24.2	18.3	4.08e-04	0	43	0	708837376	6	3917
2026-01-27 05:19:04.67	227.38	26.78	-24.0	-24.9	17.7	0.00e+00	0	43	0	723517440	7	3962
2026-01-27 05:19:06.68	227.17	26.45	-23.6	-23.9	18.2	0.00e+00	0	43	0	738197504	7	3738
2026-01-27 05:19:08.69	226.96	26.14	-23.3	-23.3	18.5	0.00e+00	0	43	0	752877568	7	3598
2026-01-27 05:19:10.70	226.76	25.82	-23.3	-23.8	18.5	0.00e+00	0	43	0	766509056	6	3810
2026-01-27 05:19:12.70	226.56	25.51	-23.2	-23.7	18.5	2.18e-04	0	43	0	781189120	6	3795
2026-01-27 05:19:14.70	226.37	25.20	-23.2	-23.6	18.6	1.04e-04	0	43	0	795869184	6	3785
2026-01-27 05:19:16.70	226.18	24.90	-23.2	-23.6	18.6	0.00e+00	0	43	0	810549248	6	3767
2026-01-27 05:19:18.71	225.99	24.60	-23.2	-23.6	18.6	0.00e+00	0	43	0	824180736	6	3783
2026-01-27 05:19:20.70	225.81	24.30	-23.3	-23.8	18.4	0.00e+00	0	43	0	838860800	6	3830
2026-01-27 05:19:22.70	225.63	24.01	-23.4	-24.0	18.3	0.00e+00	0	43	0	853540864	6	3860
2026-01-27 05:19:24.71	225.45	23.71	-23.5	-24.2	18.2	0.00e+00	0	43	0	868220928	6	3919
2026-01-27 05:19:26.71	225.28	23.43	-23.7	-24.2	18.0	0.00e+00	0	43	0	881852416	7	3800
2026-01-27 05:19:28.72	225.11	23.14	-23.7	-24.1	18.0	0.00e+00	0	43	0	896532480	7	3796
2026-01-27 05:19:30.73	224.94	22.85	-23.7	-24.1	18.0	0.00e+00	0	43	0	911212544	7	3792
2026-01-27 05:19:32.74	224.78	22.57	-23.7	-24.2	17.9	0.00e+00	0	43	0	925892608	7	3810
2026-01-27 05:19:34.74	224.62	22.30	-23.6	-23.9	18.1	0.00e+00	0	43	0	940572672	7	3746
2026-01-27 05:19:36.74	224.46	22.02	-23.6	-24.0	18.0	2.20e-06	0	43	0	955252736	7	3763
2026-01-27 05:19:38.75	224.31	21.75	-23.6	-24.0	18.0	0.00e+00	0	44	0	968884224	7	3758
2026-01-27 05:19:40.76	224.15	21.48	-23.6	-24.0	18.0	0.00e+00	0	43	0	983564288	7	3757
2026-01-27 05:19:42.77	224.01	21.21	-23.6	-23.9	18.0	1.10e-06	0	43	0	998244352	7	3747
2026-01-27 05:19:44.77	223.86	20.95	-23.8	-24.4	17.8	0.00e+00	0	43	0	1012924416	7	3847
2026-01-27 05:19:46.78	223.72	20.68	-23.9	-24.5	17.7	0.00e+00	0	43	0	1027604480	7	3878
2026-01-27 05:19:48.78	223.57	20.43	-23.9	-24.7	17.6	0.00e+00	0	43	0	1042284544	7	3913
2026-01-27 05:19:50.78	223.44	20.17	-24.0	-24.8	17.6	0.00e+00	0	43	0	1055916032	7	3948
2026-01-27 05:19:52.78	223.30	19.91	-24.2	-24.8	17.3	0.00e+00	0	43	0	1070596096	8	3831
2026-01-27 05:19:54.79	223.16	19.66	-24.1	-24.6	17.4	0.00e+00	0	43	0	1085276160	8	3786
2026-01-27 05:19:56.80	223.03	19.41	-24.2	-24.8	17.3	0.00e+00	0	43	0	1099956224	8	3837
2026-01-27 05:19:58.81	222.90	19.16	-24.4	-25.2	17.0	0.00e+00	0	43	0	1113587712	8	3945
2026-01-27 05:20:00.81	222.78	18.92	-24.5	-25.3	17.0	0.00e+00	0	43	0	1128267776	8	3956
2026-01-27 05:20:02.82	222.65	18.68	-24.6	-25.5	16.9	0.00e+00	0	43	0	1142947840	8	4019
2026-01-27 05:20:04.81	222.53	18.44	-24.8	-25.6	16.6	0.00e+00	0	43	0	1157627904	9	3927
2026-01-27 05:20:06.82	222.41	18.20	-24.7	-25.4	16.6	0.00e+00	0	43	0	1172307968	9	3876
2026-01-27 05:20:08.83	222.29	17.96	-24.8	-25.5	16.6	0.00e+00	0	43	0	1186988032	9	3907
2026-01-27 05:20:10.83	222.17	17.73	-24.8	-25.6	16.5	0.00e+00	0	43	0	1200619520	9	3925
2026-01-27 05:20:12.85	222.05	17.49	-24.6	-25.2	16.8	0.00e+00	0	43	0	1215299584	9	3825
2026-01-27 05:20:14.86	221.94	17.26	-24.7	-25.3	16.6	0.00e+00	0	43	0	1229979648	9	3862
2026-01-27 05:20:16.87	221.83	17.03	-25.0	-25.9	16.4	0.00e+00	0	43	0	1244659712	9	3990
2026-01-27 05:20:18.88	221.72	16.81	-24.9	-25.8	16.4	0.00e+00	0	43	0	1259339776	9	3978
2026-01-27 05:20:20.89	221.61	16.58	-25.0	-25.9	16.3	0.00e+00	0	43	0	1274019840	9	4005
2026-01-27 05:20:22.90	221.50	16.36	-25.3	-26.1	16.0	0.00e+00	0	43	0	1287651328	10	3944
2026-01-27 05:20:24.90	221.40	16.14	-24.9	-25.2	16.4	0.00e+00	0	43	0	1302331392	10	3736
2026-01-27 05:20:26.90	221.29	15.92	-24.8	-24.9	16.6	0.00e+00	0	43	0	1317011456	10	3675
2026-01-27 05:20:28.92	221.19	15.70	-24.9	-25.6	16.4	0.00e+00	0	43	0	1331691520	9	3939
2026-01-27 05:20:30.91	221.09	15.49	-24.9	-25.7	16.4	0.00e+00	0	43	0	1345323008	9	3961
2026-01-27 05:20:32.91	220.99	15.28	-25.0	-25.9	16.2	0.00e+00	0	43	0	1360003072	9	4015
2026-01-27 05:20:34.92	220.89	15.07	-25.0	-25.9	16.2	0.00e+00	0	43	0	1374683136	9	4006
2026-01-27 05:20:36.92	220.80	14.86	-25.1	-25.6	16.1	0.00e+00	0	43	0	1389363200	10	3830
2026-01-27 05:20:38.92	220.70	14.65	-25.2	-25.9	15.9	0.00e+00	0	43	0	1404043264	10	3897
2026-01-27 05:20:40.94	220.61	14.44	-25.1	-25.7	16.0	0.00e+00	0	43	0	1418723328	10	3862
2026-01-27 05:20:42.94	220.52	14.24	-25.1	-25.8	16.0	0.00e+00	0	43	0	1432354816	10	3871
2026-01-27 05:20:44.95	220.43	14.04	-25.3	-26.1	15.8	0.00e+00	0	43	0	1447034880	10	3944
2026-01-27 05:20:46.95	220.34	13.84	-25.2	-25.9	15.9	0.00e+00	0	43	0	1461714944	10	3908
2026-01-27 05:20:48.95	220.25	13.64	-25.2	-26.0	15.8	0.00e+00	0	43	0	1476395008	10	3923
2026-01-27 05:20:50.95	220.16	13.44	-25.4	-26.2	15.7	2.40e-04	0	43	0	1490026496	10	3973
2026-01-27 05:20:52.96	220.08	13.24	-25.4	-26.3	15.7	2.86e-04	0	43	0	1504706560	10	4004
2026-01-27 05:20:54.97	219.99	13.05	-25.5	-26.0	15.5	0.00e+00	0	43	0	1519386624	11	3829
2026-01-27 05:20:56.97	219.91	12.85	-25.6	-26.3	15.4	0.00e+00	0	43	0	1534066688	11	3895
2026-01-27 05:20:58.98	219.83	12.66	-25.8	-26.7	15.1	4.32e-04	0	44	0	1548746752	11	4006
2026-01-27 05:21:00.98	219.75	12.47	-25.7	-26.6	15.2	0.00e+00	0	43	0	1563426816	11	3960
2026-01-27 05:21:03.00	219.67	12.28	-25.8	-26.6	15.2	4.00e-04	0	43	0	1577058304	11	3981
2026-01-27 05:21:05.00	219.59	12.09	-25.8	-26.7	15.1	3.70e-04	0	43	0	1591738368	11	4008
2026-01-27 05:21:06.99	219.51	11.91	-25.9	-26.9	15.0	0.00e+00	0	43	0	1606418432	11	4045
2026-01-27 05:21:09.00	219.44	11.72	-25.9	-27.1	14.9	2.82e-04	0	43	0	1621098496	11	4089
2026-01-27 05:21:11.00	219.36	11.54	-26.0	-27.1	14.9	2.01e-04	0	43	0	1634729984	11	4100
2026-01-27 05:21:13.00	219.29	11.36	-26.0	-27.2	14.8	0.00e+00	0	43	0	1649410048	11	4120
2026-01-27 05:21:15.01	219.21	11.18	-26.3	-27.4	14.3	1.75e-04	0	43	0	1664090112	12	4090
2026-01-27 05:21:17.02	219.14	11.00	-26.2	-27.0	14.5	1.77e-04	0	44	0	1678770176	12	3988
2026-01-27 05:21:19.03	219.07	10.82	-26.2	-27.0	14.5	1.10e-06	0	43	0	1693450240	12	3985
2026-01-27 05:21:21.04	219.00	10.64	-26.3	-27.4	14.3	1.38e-04	0	43	0	1708130304	12	4074
2026-01-27 05:21:23.04	218.93	10.47	-26.6	-27.5	13.9	1.62e-04	0	43	0	1721761792	13	4010
2026-01-27 05:21:25.04	218.86	10.29	-26.5	-27.2	14.0	4.50e-06	0	43	0	1736441856	13	3938
2026-01-27 05:21:27.06	218.79	10.12	-26.4	-27.6	14.1	0.00e+00	0	44	0	1751121920	12	4138
2026-01-27 05:21:29.06	218.72	9.94	-26.3	-27.3	14.3	3.40e-06	0	43	0	1765801984	12	4042
2026-01-27 05:21:31.06	218.66	9.77	-26.3	-27.4	14.2	1.10e-06	0	43	0	1780482048	12	4087
2026-01-27 05:21:33.07	218.59	9.60	-26.4	-27.5	14.1	3.40e-06	0	43	0	1794113536	12	4113
2026-01-27 05:21:35.06	218.53	9.43	-26.3	-27.4	14.2	1.10e-06	0	43	0	1808793600	12	4092
2026-01-27 05:21:37.07	218.46	9.27	-26.3	-27.4	14.2	3.40e-06	0	43	0	1823473664	12	4067
2026-01-27 05:21:39.08	218.40	9.10	-26.4	-27.6	14.0	1.10e-06	0	43	0	1838153728	12	4137
2026-01-27 05:21:41.08	218.34	8.93	-26.5	-27.7	13.9	4.50e-06	0	43	0	1852833792	12	4173
2026-01-27 05:21:43.09	218.28	8.77	-26.4	-27.7	13.9	1.10e-06	0	44	0	1866465280	12	4171
2026-01-27 05:21:45.10	218.22	8.60	-26.5	-27.8	13.9	3.40e-06	0	43	0	1881145344	12	4178
2026-01-27 05:21:47.11	218.16	8.44	-26.5	-27.8	13.8	3.40e-06	0	44	0	1895825408	12	4192
2026-01-27 05:21:49.11	218.10	8.28	-26.7	-27.8	13.5	2.20e-06	0	43	0	1910505472	13	4095
2026-01-27 05:21:51.12	218.04	8.12	-26.7	-27.9	13.5	6.80e-06	0	43	0	1925185536	13	4105
2026-01-27 05:21:53.13	217.98	7.96	-26.7	-27.8	13.5	1.37e-05	0	44	0	1939865600	13	4098
2026-01-27 05:21:55.14	217.92	7.80	-26.7	-27.7	13.6	9.10e-06	0	44	0	1953497088	13	4067
2026-01-27 05:21:57.15	217.87	7.64	-26.8	-27.9	13.4	1.48e-05	0	44	0	1968177152	13	4124
2026-01-27 05:21:59.16	217.81	7.49	-26.7	-27.8	13.5	1.48e-05	0	43	0	1982857216	13	4082
2026-01-27 05:22:01.16	217.76	7.33	-27.2	-28.5	12.8	6.29e-05	0	44	0	1997537280	14	4164
2026-01-27 05:22:03.17	217.70	7.17	-27.2	-28.3	12.8	8.35e-05	0	44	0	2011168768	14	4131
2026-01-27 05:22:05.17	217.65	7.02	-33.1	-43.1	3.8	8.45e-01	0	44	104	2020605952	25	11394
2026-01-27 05:22:07.18	217.59	6.87	-33.8	-43.5	3.8	8.46e-01	0	44	104	2020605952	27	11007

#Closed at: 2026-01-27 05:22:07
#Recorded file [2020 MB]: D:/data/31010_260127_081723.dat