passes_logs/2026/01/27/R2M6_AANII_01/R2M6_AANII_01__20260127_065054_FENGYUN_3E_rec.log

#Pass ID: 20260127_065054_FENGYUN 3E
#Satellite: FENGYUN 3E
#Configuration: FENGYUN 3E
#almurnet v.1.7.20240730
#Start time: 2026-01-27 06:50:56

#Version: 2.2.20231116
#Station: R2M6_AANII_01
#Location: 30.233357 lon 59.946436 lat
#TLE: 1 49008U 21062A   26026.84429991  .00000247  00000+0  13693-3 0  9991
#TLE: 2 49008  98.7501  31.8345 0002501 116.3456 243.7977 14.19887781236522

#Time	Az	El	Level	Level2	SNR	BER	BlckErr	Temp	State	Recorded	gain1	gain2
2026-01-27 06:50:56.17	9.17	7.10	-31.7	-35.5	4.5	8.19e-01	0	41	0	0	24	5608
2026-01-27 06:50:59.19	8.85	7.28	-30.9	-33.8	7.6	8.65e-02	0	41	0	7340032	22	5000
2026-01-27 06:51:02.21	8.54	7.46	-30.9	-33.6	7.8	9.09e-02	0	41	0	28311552	22	4908
2026-01-27 06:51:05.22	8.22	7.64	-29.4	-30.5	10.5	4.74e-03	0	41	0	50331648	20	4092
2026-01-27 06:51:08.23	7.89	7.82	-28.5	-29.2	12.0	3.10e-04	0	42	0	72351744	18	3918
2026-01-27 06:51:11.24	7.56	8.00	-28.3	-29.4	12.2	1.51e-04	0	42	0	94371840	17	4059
2026-01-27 06:51:14.26	7.23	8.19	-27.9	-28.5	12.8	6.52e-05	0	42	0	115343360	17	3816
2026-01-27 06:51:17.28	6.89	8.37	-28.0	-29.1	12.7	6.40e-05	0	42	0	137363456	16	4075
2026-01-27 06:51:20.28	6.55	8.55	-28.1	-29.3	12.6	4.00e-05	0	42	0	159383552	16	4129
2026-01-27 06:51:23.29	6.20	8.73	-28.0	-29.1	12.7	5.37e-05	0	42	0	181403648	16	4070
2026-01-27 06:51:26.31	5.85	8.92	-27.5	-28.4	13.2	2.28e-05	0	42	0	202375168	15	4008
2026-01-27 06:51:29.31	5.50	9.10	-27.4	-28.8	13.4	1.48e-05	0	42	0	224395264	14	4215
2026-01-27 06:51:32.33	5.14	9.28	-27.4	-28.3	13.4	1.25e-05	0	42	0	246415360	15	3966
2026-01-27 06:51:35.33	4.77	9.46	-27.5	-28.9	13.3	1.02e-05	0	42	0	268435456	14	4236
2026-01-27 06:51:38.34	4.40	9.65	-27.4	-28.6	13.4	8.00e-06	0	42	0	289406976	14	4168
2026-01-27 06:51:41.35	4.03	9.83	-27.6	-29.2	13.1	1.02e-05	0	43	0	311427072	14	4311
2026-01-27 06:51:44.36	3.65	10.02	-27.6	-28.7	13.2	2.97e-05	0	43	0	333447168	15	4073
2026-01-27 06:51:47.38	3.26	10.20	-27.6	-28.7	13.1	2.51e-05	0	43	0	355467264	15	4087
2026-01-27 06:51:50.39	2.87	10.39	-27.6	-28.7	13.2	1.71e-05	0	43	0	376438784	15	4067
2026-01-27 06:51:53.40	2.48	10.57	-27.5	-28.5	13.3	1.25e-05	0	43	0	398458880	15	4027
2026-01-27 06:51:56.41	2.08	10.75	-27.0	-27.3	14.0	1.10e-06	0	43	0	420478976	15	3725
2026-01-27 06:51:59.42	1.68	10.94	-26.8	-27.4	14.3	0.00e+00	0	43	0	442499072	14	3846
2026-01-27 06:52:02.43	1.27	11.12	-26.7	-27.1	14.4	0.00e+00	0	43	0	463470592	14	3776
2026-01-27 06:52:05.45	0.85	11.31	-26.8	-27.9	14.3	0.00e+00	0	43	0	485490688	13	4080
2026-01-27 06:52:08.45	0.43	11.49	-27.1	-27.9	14.0	2.20e-06	0	43	0	506462208	14	3981
2026-01-27 06:52:11.46	0.00	11.68	-27.0	-27.8	14.1	1.10e-06	0	43	0	528482304	14	3950
2026-01-27 06:52:14.48	359.57	11.86	-27.0	-27.8	14.1	0.00e+00	0	43	0	550502400	14	3941
2026-01-27 06:52:17.49	359.13	12.04	-26.8	-27.8	14.4	1.10e-06	0	43	0	572522496	13	4047
2026-01-27 06:52:20.49	358.69	12.23	-26.8	-27.7	14.4	0.00e+00	0	43	0	593494016	13	4026
2026-01-27 06:52:23.51	358.24	12.41	-26.3	-26.8	14.9	0.00e+00	0	43	0	615514112	13	3787
2026-01-27 06:52:26.53	357.79	12.59	-26.2	-27.0	15.1	3.16e-04	0	43	0	637534208	12	3953
2026-01-27 06:52:29.54	357.33	12.78	-26.3	-27.2	15.0	3.47e-04	0	43	0	659554304	12	3996
2026-01-27 06:52:32.56	356.86	12.96	-26.3	-27.2	15.0	2.59e-04	0	43	0	680525824	12	3994
2026-01-27 06:52:35.55	356.39	13.14	-26.5	-27.7	14.8	3.76e-04	0	43	0	702545920	12	4114
2026-01-27 06:52:38.57	355.91	13.32	-26.6	-27.4	14.7	4.23e-04	0	43	0	724566016	13	3941
2026-01-27 06:52:41.58	355.43	13.50	-26.5	-27.6	14.8	4.47e-04	0	43	0	746586112	12	4098
2026-01-27 06:52:44.59	354.94	13.68	-26.9	-28.0	14.3	4.11e-04	0	43	0	767557632	13	4102
2026-01-27 06:52:47.59	354.45	13.86	-26.3	-27.2	15.0	0.00e+00	0	43	0	789577728	12	4003
2026-01-27 06:52:50.61	353.94	14.04	-26.6	-27.3	14.8	0.00e+00	0	43	0	811597824	13	3915
2026-01-27 06:52:53.61	353.44	14.21	-26.5	-27.3	14.8	0.00e+00	0	43	0	832569344	13	3907
2026-01-27 06:52:56.62	352.92	14.39	-26.5	-27.6	14.9	0.00e+00	0	43	0	854589440	12	4087
2026-01-27 06:52:59.62	352.40	14.56	-26.4	-27.4	15.0	0.00e+00	0	43	0	876609536	12	4058
2026-01-27 06:53:02.63	351.88	14.73	-26.1	-26.8	15.3	0.00e+00	0	43	0	898629632	12	3901
2026-01-27 06:53:05.64	351.34	14.91	-26.3	-27.2	15.2	0.00e+00	0	43	0	919601152	12	3980
2026-01-27 06:53:08.65	350.80	15.08	-25.9	-26.4	15.6	0.00e+00	0	43	0	941621248	12	3791
2026-01-27 06:53:11.67	350.26	15.25	-25.9	-26.9	15.7	0.00e+00	0	44	0	963641344	11	4015
2026-01-27 06:53:14.68	349.71	15.42	-25.8	-26.6	15.8	0.00e+00	0	43	0	985661440	11	3940
2026-01-27 06:53:17.70	349.15	15.58	-25.6	-26.1	16.1	0.00e+00	0	43	0	1006632960	11	3826
2026-01-27 06:53:20.71	348.58	15.75	-25.8	-26.6	15.9	0.00e+00	0	44	0	1028653056	11	3941
2026-01-27 06:53:23.72	348.01	15.91	-25.8	-26.7	15.8	0.00e+00	0	44	0	1050673152	11	3965
2026-01-27 06:53:26.74	347.43	16.07	-25.9	-26.8	15.8	0.00e+00	0	44	0	1072693248	11	3985
2026-01-27 06:53:29.76	346.85	16.23	-25.7	-26.3	16.0	0.00e+00	0	44	0	1093664768	11	3867
2026-01-27 06:53:32.77	346.26	16.39	-25.9	-26.7	15.8	0.00e+00	0	44	0	1115684864	11	3979
2026-01-27 06:53:35.79	345.66	16.54	-25.5	-25.8	16.3	0.00e+00	0	44	0	1137704960	11	3765
2026-01-27 06:53:38.80	345.05	16.70	-25.6	-26.1	16.1	0.00e+00	0	44	0	1158676480	11	3832
2026-01-27 06:53:41.81	344.45	16.85	-25.7	-26.3	16.0	0.00e+00	0	44	0	1180696576	11	3872
2026-01-27 06:53:44.83	343.83	17.00	-25.3	-25.6	16.3	0.00e+00	0	44	0	1202716672	11	3703
2026-01-27 06:53:47.85	343.21	17.14	-25.5	-25.9	16.2	0.00e+00	0	44	0	1224736768	11	3776
2026-01-27 06:53:50.85	342.58	17.28	-25.5	-25.9	16.2	0.00e+00	0	44	0	1245708288	11	3789
2026-01-27 06:53:53.86	341.95	17.42	-25.5	-25.9	16.2	0.00e+00	0	44	0	1267728384	11	3768
2026-01-27 06:53:56.88	341.31	17.56	-25.2	-25.4	16.6	7.78e-05	0	44	0	1289748480	11	3653
2026-01-27 06:53:59.89	340.66	17.70	-25.3	-25.9	16.5	9.72e-05	0	44	0	1311768576	10	3890
2026-01-27 06:54:02.90	340.01	17.83	-25.3	-26.1	16.4	0.00e+00	0	44	0	1332740096	10	3927
2026-01-27 06:54:05.91	339.36	17.96	-25.2	-25.7	16.6	0.00e+00	0	44	0	1354760192	10	3834
2026-01-27 06:54:08.93	338.69	18.08	-24.9	-25.2	16.9	1.68e-04	0	44	0	1376780288	10	3714
2026-01-27 06:54:11.94	338.02	18.20	-24.8	-25.4	17.0	3.50e-04	0	44	0	1398800384	9	3870
2026-01-27 06:54:14.94	337.35	18.32	-24.8	-25.5	17.0	1.48e-04	0	44	0	1419771904	9	3900
2026-01-27 06:54:17.96	336.67	18.43	-24.7	-25.2	17.1	0.00e+00	0	44	0	1441792000	9	3822
2026-01-27 06:54:20.97	335.99	18.54	-24.6	-25.0	17.3	0.00e+00	0	44	0	1463812096	9	3779
2026-01-27 06:54:23.98	335.30	18.65	-24.7	-25.1	17.2	0.00e+00	0	44	0	1485832192	9	3808
2026-01-27 06:54:26.99	334.61	18.75	-24.5	-24.9	17.3	0.00e+00	0	44	0	1506803712	9	3754
2026-01-27 06:54:30.00	333.91	18.85	-24.4	-24.7	17.4	0.00e+00	0	44	0	1528823808	9	3712
2026-01-27 06:54:33.01	333.21	18.95	-24.4	-25.2	17.4	0.00e+00	0	44	0	1550843904	8	3927
2026-01-27 06:54:36.02	332.50	19.04	-24.7	-25.2	17.2	0.00e+00	0	44	0	1572864000	9	3818
2026-01-27 06:54:39.04	331.79	19.13	-24.8	-25.4	17.1	0.00e+00	0	44	0	1593835520	9	3862
2026-01-27 06:54:42.04	331.08	19.21	-25.0	-25.8	16.8	0.00e+00	0	44	0	1615855616	9	3973
2026-01-27 06:54:45.04	330.36	19.29	-24.7	-25.2	17.2	0.00e+00	0	44	0	1637875712	9	3825
2026-01-27 06:54:48.06	329.64	19.36	-24.6	-24.9	17.4	0.00e+00	0	44	0	1658847232	9	3753
2026-01-27 06:54:51.07	328.91	19.43	-24.5	-25.2	17.4	0.00e+00	0	44	0	1680867328	8	3936
2026-01-27 06:54:54.09	328.18	19.49	-24.6	-25.1	17.2	0.00e+00	0	44	0	1702887424	9	3799
2026-01-27 06:54:57.09	327.45	19.55	-24.8	-25.4	17.1	0.00e+00	0	44	0	1724907520	9	3867
2026-01-27 06:55:00.10	326.71	19.61	-24.7	-25.2	17.2	0.00e+00	0	44	0	1745879040	9	3811
2026-01-27 06:55:03.10	325.98	19.66	-24.5	-24.8	17.4	0.00e+00	0	44	0	1767899136	9	3731
2026-01-27 06:55:06.12	325.24	19.70	-24.4	-24.7	17.5	0.00e+00	0	44	0	1789919232	9	3708
2026-01-27 06:55:09.13	324.49	19.74	-24.5	-24.8	17.4	0.00e+00	0	44	0	1810890752	9	3716
2026-01-27 06:55:12.15	323.75	19.78	-24.4	-24.6	17.5	0.00e+00	0	44	0	1832910848	9	3687
2026-01-27 06:55:15.16	323.00	19.81	-24.4	-25.2	17.5	0.00e+00	0	44	0	1854930944	8	3921
2026-01-27 06:55:18.17	322.26	19.83	-24.5	-25.4	17.4	0.00e+00	0	44	0	1876951040	8	3970
2026-01-27 06:55:21.17	321.51	19.85	-24.4	-25.1	17.5	0.00e+00	0	44	0	1897922560	8	3900
2026-01-27 06:55:24.19	320.76	19.87	-24.3	-25.0	17.6	0.00e+00	0	44	0	1919942656	8	3869
2026-01-27 06:55:27.21	320.01	19.88	-24.3	-24.8	17.7	0.00e+00	0	44	0	1941962752	8	3836
2026-01-27 06:55:30.23	319.25	19.88	-24.4	-25.0	17.5	0.00e+00	0	44	0	1963982848	8	3886
2026-01-27 06:55:33.24	318.50	19.88	-24.3	-24.9	17.6	0.00e+00	0	44	0	1984954368	8	3865
2026-01-27 06:55:36.24	317.76	19.87	-24.5	-25.4	17.3	0.00e+00	0	44	0	2006974464	8	3969
2026-01-27 06:55:39.24	317.01	19.86	-24.2	-24.7	17.7	0.00e+00	0	44	0	2028994560	8	3820
2026-01-27 06:55:42.25	316.26	19.85	-24.4	-25.0	17.5	0.00e+00	0	44	0	2049966080	8	3887
2026-01-27 06:55:45.26	315.51	19.83	-24.5	-25.3	17.4	0.00e+00	0	44	0	2071986176	8	3955
2026-01-27 06:55:48.26	314.77	19.80	-24.8	-25.5	17.0	0.00e+00	0	44	0	2094006272	9	3897
2026-01-27 06:55:51.27	314.02	19.77	-24.4	-24.7	17.5	0.00e+00	0	44	0	2116026368	9	3699
2026-01-27 06:55:54.28	313.28	19.73	-24.4	-25.2	17.4	0.00e+00	0	44	0	2136997888	8	3921
2026-01-27 06:55:57.30	312.53	19.69	-24.3	-25.0	17.6	0.00e+00	0	44	0	2159017984	8	3867
2026-01-27 06:56:00.32	311.79	19.65	-24.2	-24.6	17.7	0.00e+00	0	44	0	2181038080	8	3793
2026-01-27 06:56:03.33	311.05	19.59	-24.2	-24.6	17.8	0.00e+00	0	44	0	2203058176	8	3782
2026-01-27 06:56:06.33	310.32	19.54	-24.5	-25.3	17.4	0.00e+00	0	44	0	2224029696	8	3938
2026-01-27 06:56:09.34	309.59	19.48	-24.7	-25.3	17.1	0.00e+00	0	44	0	2246049792	9	3837
2026-01-27 06:56:12.35	308.86	19.41	-24.3	-24.9	17.6	0.00e+00	0	44	0	2268069888	8	3856
2026-01-27 06:56:15.36	308.13	19.34	-24.2	-24.8	17.6	0.00e+00	0	44	0	2289041408	8	3829
2026-01-27 06:56:18.36	307.41	19.27	-24.2	-24.7	17.6	0.00e+00	0	44	0	2311061504	8	3816
2026-01-27 06:56:21.38	306.69	19.19	-24.3	-24.8	17.6	0.00e+00	0	44	0	2333081600	8	3838
2026-01-27 06:56:24.39	305.98	19.11	-24.1	-24.5	17.8	0.00e+00	0	44	0	2355101696	8	3766
2026-01-27 06:56:27.40	305.27	19.02	-24.2	-24.7	17.7	0.00e+00	0	44	0	2376073216	8	3803
2026-01-27 06:56:30.41	304.56	18.93	-24.4	-25.1	17.5	0.00e+00	0	44	0	2398093312	8	3894
2026-01-27 06:56:33.43	303.85	18.83	-24.3	-24.9	17.5	0.00e+00	0	44	0	2420113408	8	3865
2026-01-27 06:56:36.45	303.15	18.73	-24.5	-25.3	17.3	0.00e+00	0	44	0	2441084928	8	3943
2026-01-27 06:56:39.47	302.46	18.62	-24.9	-25.1	16.8	0.00e+00	0	44	0	2463105024	10	3702
2026-01-27 06:56:42.49	301.77	18.52	-25.2	-25.9	16.5	0.00e+00	0	44	0	2485125120	10	3876
2026-01-27 06:56:45.49	301.09	18.40	-24.8	-24.9	17.0	0.00e+00	0	44	0	2507145216	10	3661
2026-01-27 06:56:48.51	300.41	18.29	-24.6	-24.6	17.2	0.00e+00	0	44	0	2528116736	10	3581
2026-01-27 06:56:51.52	299.73	18.17	-24.6	-24.6	17.2	0.00e+00	0	44	0	2550136832	10	3580
2026-01-27 06:56:54.53	299.06	18.05	-24.8	-24.9	17.0	0.00e+00	0	44	0	2572156928	10	3660
2026-01-27 06:56:57.55	298.40	17.92	-24.8	-25.0	16.9	0.00e+00	0	44	0	2594177024	10	3668
2026-01-27 06:57:00.56	297.74	17.79	-24.8	-25.5	16.8	0.00e+00	0	44	0	2615148544	9	3894
2026-01-27 06:57:03.58	297.09	17.66	-24.8	-25.4	16.9	0.00e+00	0	44	0	2637168640	9	3871
2026-01-27 06:57:06.59	296.44	17.52	-24.7	-25.2	15.7	0.00e+00	0	44	0	2659188736	9	3829
2026-01-27 06:57:09.61	295.80	17.38	-24.8	-25.4	16.9	0.00e+00	0	44	0	2681208832	9	3862
2026-01-27 06:57:12.63	295.17	17.24	-24.8	-25.4	16.9	0.00e+00	0	44	0	2703228928	9	3873
2026-01-27 06:57:15.64	294.54	17.10	-24.8	-25.4	16.9	2.61e-04	0	44	0	2724200448	9	3858
2026-01-27 06:57:18.65	293.92	16.95	-24.7	-25.3	16.9	0.00e+00	0	44	0	2746220544	9	3861
2026-01-27 06:57:21.65	293.31	16.80	-24.8	-25.5	16.8	8.44e-04	0	44	0	2768240640	9	3907
2026-01-27 06:57:24.67	292.69	16.65	-24.9	-25.7	16.7	0.00e+00	0	44	0	2790260736	9	3949
2026-01-27 06:57:27.68	292.09	16.50	-25.3	-26.1	16.2	9.33e-04	0	44	0	2811232256	10	3938
2026-01-27 06:57:30.68	291.50	16.34	-25.5	-26.4	16.1	4.95e-04	0	44	0	2833252352	10	4008
2026-01-27 06:57:33.69	290.91	16.18	-25.9	-26.8	15.6	8.01e-05	0	44	0	2855272448	11	3989
2026-01-27 06:57:36.70	290.32	16.02	-26.0	-26.7	15.3	0.00e+00	0	44	0	2876243968	12	3865
2026-01-27 06:57:39.71	289.74	15.86	-25.4	-25.2	16.1	0.00e+00	0	44	0	2898264064	12	3530
2026-01-27 06:57:42.70	289.18	15.70	-25.6	-26.2	15.9	1.10e-06	0	44	0	2920284160	11	3844
2026-01-27 06:57:45.70	288.61	15.53	-25.7	-26.3	15.8	8.88e-04	0	44	0	2941255680	11	3887
2026-01-27 06:57:48.70	288.06	15.37	-25.9	-26.8	15.5	8.56e-04	0	44	0	2963275776	11	3998
2026-01-27 06:57:51.70	287.50	15.20	-25.6	-26.1	15.9	7.45e-04	0	44	0	2984247296	11	3830
2026-01-27 06:57:54.72	286.96	15.03	-26.0	-27.0	15.4	0.00e+00	0	44	0	3006267392	11	4053
2026-01-27 06:57:57.74	286.41	14.86	-25.6	-26.1	15.9	0.00e+00	0	44	0	3028287488	11	3842
2026-01-27 06:58:00.75	285.88	14.68	-25.5	-26.5	15.9	0.00e+00	0	44	0	3050307584	10	4031
2026-01-27 06:58:03.75	285.36	14.51	-25.4	-26.2	16.1	0.00e+00	0	44	0	3071279104	10	3968
2026-01-27 06:58:06.75	284.84	14.33	-25.5	-26.4	15.9	0.00e+00	0	44	0	3093299200	10	4013
2026-01-27 06:58:09.76	284.32	14.16	-25.4	-26.4	16.0	0.00e+00	0	44	0	3115319296	10	4007
2026-01-27 06:58:12.78	283.81	13.98	-25.9	-26.8	15.4	0.00e+00	0	44	0	3137339392	11	4017
2026-01-27 06:58:15.80	283.31	13.80	-26.0	-27.0	15.3	0.00e+00	0	44	0	3158310912	11	4062
2026-01-27 06:58:18.80	282.81	13.62	-26.0	-27.1	15.2	0.00e+00	0	44	0	3180331008	11	4073
2026-01-27 06:58:21.81	282.32	13.44	-25.6	-26.3	15.7	0.00e+00	0	44	0	3202351104	11	3875
2026-01-27 06:58:24.82	281.83	13.26	-25.7	-26.5	15.6	0.00e+00	0	44	0	3224371200	11	3935
2026-01-27 06:58:27.83	281.36	13.08	-25.8	-26.6	15.5	0.00e+00	0	44	0	3245342720	11	3953
2026-01-27 06:58:30.84	280.88	12.90	-25.9	-26.8	15.4	0.00e+00	0	44	0	3267362816	11	4001
2026-01-27 06:58:33.85	280.42	12.72	-26.4	-27.5	14.6	0.00e+00	0	44	0	3289382912	12	4082
2026-01-27 06:58:36.86	279.96	12.53	-26.1	-26.9	15.0	0.00e+00	0	44	0	3310354432	12	3942
2026-01-27 06:58:39.87	279.50	12.35	-26.2	-27.1	14.8	0.00e+00	0	44	0	3332374528	12	3995
2026-01-27 06:58:42.88	279.05	12.17	-25.8	-26.6	15.4	0.00e+00	0	44	0	3354394624	11	3958
2026-01-27 06:58:45.90	278.61	11.98	-25.9	-26.8	15.3	0.00e+00	0	44	0	3376414720	11	4018
2026-01-27 06:58:48.90	278.17	11.80	-26.0	-26.7	15.0	0.00e+00	0	44	0	3397386240	12	3882
2026-01-27 06:58:51.92	277.73	11.61	-26.5	-27.7	14.5	0.00e+00	0	44	0	3419406336	12	4128
2026-01-27 06:58:54.92	277.31	11.43	-26.4	-27.6	14.5	0.00e+00	0	44	0	3441426432	12	4109
2026-01-27 06:58:57.94	276.89	11.24	-26.3	-27.3	14.6	0.00e+00	0	44	0	3463446528	12	4033
2026-01-27 06:59:00.94	276.47	11.06	-26.2	-27.0	14.8	0.00e+00	0	44	0	3484418048	12	3961
2026-01-27 06:59:03.95	276.06	10.87	-25.3	-26.0	13.8	0.00e+00	0	44	0	3506438144	12	3921
2026-01-27 06:59:06.97	275.65	10.69	-26.2	-27.0	14.8	1.10e-06	0	44	0	3528458240	12	3956
2026-01-27 06:59:09.97	275.25	10.50	-26.1	-26.8	14.8	0.00e+00	0	44	0	3550478336	12	3914
2026-01-27 06:59:12.97	274.86	10.32	-26.1	-26.9	14.8	2.83e-04	0	44	0	3571449856	12	3939
2026-01-27 06:59:15.99	274.47	10.13	-26.3	-27.3	14.6	1.09e-03	0	44	0	3593469952	12	4037
2026-01-27 06:59:19.00	274.08	9.95	-26.5	-27.7	14.3	1.22e-03	0	44	0	3614441472	12	4153
2026-01-27 06:59:22.01	273.70	9.76	-27.0	-28.3	13.7	2.20e-06	0	44	0	3636461568	13	4197
2026-01-27 06:59:25.02	273.32	9.58	-26.9	-28.2	13.7	1.76e-03	0	44	0	3658481664	13	4169
2026-01-27 06:59:28.02	272.96	9.40	-27.0	-28.4	13.6	1.99e-03	0	44	0	3680501760	13	4220
2026-01-27 06:59:31.04	272.59	9.21	-26.8	-28.0	13.8	1.83e-03	0	44	0	3701473280	13	4123
2026-01-27 06:59:34.04	272.23	9.03	-26.6	-27.5	14.1	1.91e-03	0	44	0	3723493376	13	3979
2026-01-27 06:59:37.06	271.87	8.84	-26.6	-27.6	14.0	2.20e-06	0	44	0	3745513472	13	4004
2026-01-27 06:59:40.07	271.52	8.66	-26.6	-27.5	14.1	3.40e-06	0	44	0	3767533568	13	3996
2026-01-27 06:59:43.08	271.17	8.48	-26.4	-27.6	14.2	6.41e-04	0	44	0	3788505088	12	4123
2026-01-27 06:59:46.09	270.83	8.29	-26.9	-28.2	13.5	4.59e-04	0	44	0	3810525184	13	4186
2026-01-27 06:59:49.10	270.49	8.11	-26.9	-28.1	13.6	9.10e-06	0	44	0	3832545280	13	4163
2026-01-27 06:59:52.11	270.15	7.93	-26.9	-28.2	13.5	1.14e-05	0	44	0	3853516800	13	4187
2026-01-27 06:59:55.12	269.82	7.75	-27.3	-28.6	13.0	1.48e-05	0	44	0	3875536896	14	4192
2026-01-27 06:59:58.13	269.50	7.57	-26.9	-28.2	13.5	1.83e-05	0	44	0	3897556992	13	4172
2026-01-27 07:00:01.15	269.17	7.39	-26.8	-27.9	13.7	5.70e-06	0	44	0	3919577088	13	4085
2026-01-27 07:00:04.15	268.86	7.21	-26.9	-28.3	13.4	1.02e-05	0	44	0	3940548608	13	4216
2026-01-27 07:00:07.16	268.54	7.03	-33.4	-43.1	3.8	8.46e-01	0	44	104	3957325824	26	11044

#Closed at: 2026-01-27 07:00:09
#Recorded file [3957 MB]: D:/data/31010_260127_095058.dat