passes_logs/2026/01/27/R2M6_AANII_01/R2M6_AANII_01__20260127_011054_NOAA_20_JPSS-1_rec.log

#Pass ID: 20260127_011054_NOAA 20 (JPSS-1)
#Satellite: NOAA 20 (JPSS-1)
#Configuration: NOAA 20
#almurnet v.1.7.20240730
#Start time: 2026-01-27 01:10:53

#Version: 2.2.20231116
#Station: R2M6_AANII_01
#Location: 30.233357 lon 59.946436 lat
#TLE: 1 43013U 17073A   26026.46665230  .00000148  00000+0  91302-4 0  9998
#TLE: 2 43013  98.7646 327.2856 0001008  22.9532 337.1688 14.19540616424360

#Time	Az	El	Level	Level2	SNR	BER	BlckErr	Temp	State	Recorded	gain1	gain2
2026-01-27 01:10:53.57	14.33	6.95	-31.4	-37.4	5.1	1.25e+00	0	41	0	0	22	7220
2026-01-27 01:10:56.58	14.21	7.17	-31.6	-38.0	7.7	1.03e-01	0	41	0	1048576	23	7463
2026-01-27 01:10:59.59	14.09	7.40	-31.5	-37.3	8.3	5.35e-02	0	41	0	7340032	23	6993
2026-01-27 01:11:02.60	13.96	7.62	-31.2	-36.5	9.4	1.88e-02	0	42	0	12582912	22	6596
2026-01-27 01:11:05.60	13.83	7.85	-30.3	-35.1	9.8	1.28e-02	0	42	0	17825792	22	6302
2026-01-27 01:11:08.61	13.70	8.09	-30.4	-34.4	11.4	7.64e-04	0	42	0	24117248	20	5767
2026-01-27 01:11:11.62	13.57	8.32	-30.0	-33.3	12.6	8.77e-05	0	42	0	29360128	20	5261
2026-01-27 01:11:14.63	13.44	8.56	-29.9	-33.5	12.9	4.27e-05	0	42	0	35651584	19	5440
2026-01-27 01:11:17.64	13.30	8.79	-30.1	-33.6	12.5	9.38e-05	0	42	0	40894464	20	5378
2026-01-27 01:11:20.64	13.16	9.03	-29.9	-33.4	13.0	6.26e-04	0	42	0	46137344	19	5399
2026-01-27 01:11:23.64	13.02	9.27	-30.0	-33.2	12.7	6.67e-04	0	42	0	52428800	20	5233
2026-01-27 01:11:26.64	12.88	9.52	-29.9	-33.0	12.8	8.08e-05	0	42	0	57671680	20	5155
2026-01-27 01:11:29.65	12.73	9.76	-29.9	-33.4	13.1	3.89e-05	0	42	0	62914560	19	5393
2026-01-27 01:11:32.65	12.58	10.01	-29.9	-33.5	13.0	5.95e-05	0	42	0	69206016	19	5448
2026-01-27 01:11:35.65	12.43	10.26	-29.8	-33.2	13.2	2.21e-05	0	42	0	74448896	19	5331
2026-01-27 01:11:38.65	12.28	10.52	-29.8	-33.2	13.2	4.58e-04	0	42	0	80740352	19	5325
2026-01-27 01:11:41.66	12.12	10.77	-29.8	-33.1	13.3	4.51e-04	0	42	0	85983232	19	5287
2026-01-27 01:11:44.68	11.96	11.03	-29.9	-33.3	13.2	4.32e-04	0	43	0	91226112	19	5357
2026-01-27 01:11:47.68	11.80	11.29	-29.8	-33.1	13.4	4.58e-04	0	43	0	97517568	19	5252
2026-01-27 01:11:50.69	11.63	11.55	-29.9	-33.3	13.2	1.75e-05	0	43	0	102760448	19	5361
2026-01-27 01:11:53.69	11.46	11.82	-29.7	-32.9	13.5	9.90e-06	0	43	0	108003328	19	5190
2026-01-27 01:11:56.70	11.29	12.09	-29.8	-33.1	13.4	4.92e-04	0	43	0	114294784	19	5270
2026-01-27 01:11:59.71	11.11	12.36	-29.7	-32.9	13.5	4.71e-04	0	43	0	119537664	19	5192
2026-01-27 01:12:02.73	10.93	12.63	-29.7	-32.9	13.5	4.10e-04	0	43	0	125829120	19	5167
2026-01-27 01:12:05.74	10.74	12.91	-29.7	-32.9	13.5	3.75e-04	0	43	0	131072000	19	5184
2026-01-27 01:12:08.75	10.55	13.19	-29.7	-32.7	13.7	3.81e-04	0	43	0	136314880	19	5124
2026-01-27 01:12:11.76	10.36	13.47	-29.6	-32.6	13.8	4.50e-06	0	43	0	142606336	19	5059
2026-01-27 01:12:14.77	10.17	13.76	-29.5	-32.3	14.0	4.50e-06	0	43	0	147849216	19	4969
2026-01-27 01:12:17.78	9.97	14.05	-29.6	-32.5	13.9	5.30e-06	0	43	0	154140672	19	5030
2026-01-27 01:12:20.79	9.76	14.34	-29.6	-32.5	13.9	2.19e-04	0	43	0	159383552	19	5006
2026-01-27 01:12:23.79	9.56	14.64	-29.6	-32.6	13.9	2.17e-04	0	43	0	164626432	19	5050
2026-01-27 01:12:26.80	9.34	14.93	-29.6	-32.5	13.6	2.06e-04	0	43	0	170917888	19	5017
2026-01-27 01:12:29.80	9.13	15.23	-29.6	-32.4	14.0	2.59e-05	0	43	0	176160768	19	4967
2026-01-27 01:12:32.80	8.91	15.54	-29.5	-32.3	14.2	0.00e+00	0	43	0	181403648	19	4934
2026-01-27 01:12:35.82	8.68	15.85	-29.5	-32.1	14.3	1.50e-06	0	43	0	187695104	19	4871
2026-01-27 01:12:38.81	8.45	16.16	-29.5	-32.1	14.3	2.51e-04	0	43	0	192937984	19	4870
2026-01-27 01:12:41.82	8.21	16.47	-29.5	-32.3	14.2	3.80e-04	0	43	0	199229440	19	4930
2026-01-27 01:12:44.82	7.97	16.79	-29.7	-32.6	14.0	1.83e-04	0	43	0	204472320	19	5033
2026-01-27 01:12:47.83	7.72	17.11	-29.7	-32.6	14.0	2.20e-06	0	43	0	209715200	19	5047
2026-01-27 01:12:50.85	7.47	17.44	-29.5	-32.2	14.2	2.20e-06	0	43	0	216006656	19	4907
2026-01-27 01:12:53.86	7.21	17.77	-29.5	-32.2	14.3	3.80e-06	0	43	0	221249536	19	4888
2026-01-27 01:12:56.88	6.94	18.10	-29.5	-32.1	14.4	1.53e-04	0	43	0	226492416	19	4875
2026-01-27 01:12:59.89	6.67	18.44	-29.6	-32.3	14.2	1.56e-04	0	43	0	232783872	19	4947
2026-01-27 01:13:02.90	6.39	18.78	-29.6	-32.3	14.3	2.14e-04	0	43	0	238026752	19	4934
2026-01-27 01:13:05.90	6.11	19.13	-29.8	-32.8	14.0	4.94e-04	0	43	0	244318208	19	5099
2026-01-27 01:13:08.92	5.82	19.48	-29.8	-32.9	12.5	4.00e-04	0	44	0	249561088	19	5139
2026-01-27 01:13:11.93	5.52	19.83	-29.9	-33.1	13.0	4.50e-06	0	44	0	254803968	19	5233
2026-01-27 01:13:14.94	5.22	20.19	-29.9	-33.3	13.7	2.10e-04	0	43	0	261095424	19	5280
2026-01-27 01:13:17.96	4.90	20.56	-30.0	-32.8	13.6	3.73e-04	0	43	0	266338304	20	5007
2026-01-27 01:13:20.97	4.58	20.92	-30.1	-33.2	13.4	2.15e-04	0	43	0	272629760	20	5143
2026-01-27 01:13:23.99	4.25	21.29	-30.3	-33.7	13.0	1.21e-04	0	43	0	277872640	20	5357
2026-01-27 01:13:27.00	3.92	21.67	-30.4	-34.0	12.9	1.39e-04	0	43	0	283115520	20	5464
2026-01-27 01:13:30.01	3.57	22.05	-30.3	-33.8	13.0	2.77e-03	0	44	0	289406976	20	5382
2026-01-27 01:13:33.02	3.22	22.44	-30.4	-33.6	12.8	2.67e-03	0	44	0	294649856	21	5188
2026-01-27 01:13:36.03	2.85	22.83	-30.7	-34.3	12.4	2.53e-03	0	44	0	300941312	21	5460
2026-01-27 01:13:39.04	2.48	23.22	-30.6	-34.0	12.7	1.20e-04	0	44	0	306184192	21	5330
2026-01-27 01:13:42.05	2.10	23.62	-30.5	-34.1	12.9	7.93e-05	0	44	0	311427072	20	5492
2026-01-27 01:13:45.05	1.70	24.02	-30.6	-34.1	12.5	7.24e-05	0	44	0	317718528	21	5385
2026-01-27 01:13:48.05	1.30	24.43	-30.6	-34.1	12.6	2.69e-03	0	43	0	322961408	21	5368
2026-01-27 01:13:51.06	0.89	24.84	-30.8	-34.6	12.2	2.71e-03	0	44	0	328204288	21	5594
2026-01-27 01:13:54.07	0.46	25.26	-30.7	-34.2	12.6	2.47e-03	0	44	0	334495744	21	5421
2026-01-27 01:13:57.08	0.02	25.68	-30.7	-34.3	12.6	2.70e-03	0	43	0	339738624	21	5450
2026-01-27 01:14:00.09	359.57	26.11	-31.0	-35.1	12.0	2.78e-03	0	44	0	346030080	21	5779
2026-01-27 01:14:03.11	359.11	26.54	-30.7	-34.4	12.5	2.41e-03	0	44	0	351272960	21	5492
2026-01-27 01:14:06.12	358.63	26.98	-30.8	-34.5	12.4	1.14e-04	0	43	0	356515840	21	5517
2026-01-27 01:14:09.13	358.14	27.43	-30.6	-34.0	12.7	2.46e-03	0	44	0	362807296	21	5332
2026-01-27 01:14:12.13	357.64	27.87	-30.5	-33.7	12.9	2.28e-03	0	43	0	368050176	21	5222
2026-01-27 01:14:15.14	357.12	28.32	-30.4	-33.9	13.1	2.44e-03	0	43	0	373293056	20	5403
2026-01-27 01:14:18.13	356.60	28.78	-30.5	-33.7	13.0	2.34e-03	0	43	0	379584512	21	5178
2026-01-27 01:14:21.14	356.05	29.24	-30.3	-33.6	13.4	2.04e-03	0	43	0	384827392	20	5245
2026-01-27 01:14:24.15	355.48	29.70	-30.5	-33.7	13.0	3.81e-05	0	43	0	391118848	21	5205
2026-01-27 01:14:27.16	354.90	30.17	-30.8	-34.4	12.5	1.05e-04	0	43	0	396361728	21	5482
2026-01-27 01:14:30.18	354.30	30.65	-30.9	-34.9	12.2	1.41e-04	0	43	0	401604608	21	5705
2026-01-27 01:14:33.18	353.68	31.13	-31.2	-35.2	11.8	2.43e-03	0	44	0	407896064	22	5682
2026-01-27 01:14:36.19	353.04	31.61	-31.1	-34.9	11.9	2.18e-03	0	44	0	413138944	22	5566
2026-01-27 01:14:39.21	352.39	32.10	-31.4	-35.6	11.4	1.40e-03	0	44	0	418381824	22	5873
2026-01-27 01:14:42.21	351.71	32.59	-31.5	-35.7	11.0	2.55e-03	0	44	0	424673280	23	5804
2026-01-27 01:14:45.22	351.01	33.08	-31.5	-35.9	11.3	1.14e-03	0	44	0	429916160	22	6008
2026-01-27 01:14:48.22	350.29	33.58	-31.4	-35.2	11.4	1.25e-03	0	44	0	436207616	23	5576
2026-01-27 01:14:51.23	349.55	34.08	-30.8	-34.3	12.7	1.11e-04	0	44	0	441450496	21	5418
2026-01-27 01:14:54.24	348.79	34.58	-31.0	-34.6	12.2	1.45e-04	0	44	0	446693376	22	5439
2026-01-27 01:14:57.24	348.00	35.08	-31.1	-34.9	12.0	9.70e-04	0	44	0	452984832	22	5534
2026-01-27 01:15:00.25	347.18	35.59	-31.6	-35.9	11.0	1.61e-03	0	44	0	458227712	23	5880
2026-01-27 01:15:03.25	346.34	36.09	-31.8	-36.4	10.6	2.78e-03	0	44	0	463470592	23	6111
2026-01-27 01:15:06.27	345.47	36.60	-31.8	-36.6	10.4	4.37e-03	0	44	0	469762048	23	6258
2026-01-27 01:15:09.26	344.58	37.11	-31.3	-35.5	11.7	8.02e-04	0	44	0	475004928	22	5784
2026-01-27 01:15:12.26	343.66	37.61	-30.1	-33.5	12.5	2.12e-04	0	44	0	481296384	22	5311
2026-01-27 01:15:15.28	342.70	38.12	-31.2	-35.0	11.3	2.72e-04	0	44	0	486539264	22	5617
2026-01-27 01:15:18.28	341.72	38.62	-31.2	-34.9	11.8	3.90e-04	0	44	0	491782144	22	5555
2026-01-27 01:15:21.29	340.71	39.13	-30.9	-34.7	12.5	2.23e-03	0	44	0	498073600	21	5593
2026-01-27 01:15:24.29	339.66	39.62	-31.0	-34.8	12.4	1.37e-04	0	44	0	503316480	21	5621
2026-01-27 01:15:27.30	338.58	40.12	-31.4	-35.7	11.5	7.86e-04	0	44	0	508559360	22	5882
2026-01-27 01:15:30.31	337.47	40.61	-31.4	-35.8	11.5	1.15e-03	0	44	0	514850816	22	5948
2026-01-27 01:15:33.32	336.32	41.09	-31.7	-36.1	10.8	2.39e-03	0	44	0	520093696	23	5984
2026-01-27 01:15:36.34	335.13	41.57	-31.8	-36.4	10.7	3.30e-03	0	44	0	526385152	23	6112
2026-01-27 01:15:39.35	333.91	42.03	-31.7	-36.2	10.8	3.49e-03	0	44	0	531628032	23	6025
2026-01-27 01:15:42.36	332.66	42.49	-31.8	-36.5	10.6	4.67e-03	0	44	0	536870912	23	6182
2026-01-27 01:15:45.38	331.36	42.94	-30.7	-34.0	13.0	4.07e-04	0	44	0	543162368	21	5289
2026-01-27 01:15:48.39	330.03	43.38	-30.0	-32.8	14.1	1.30e-03	0	44	0	548405248	20	4938
2026-01-27 01:15:51.40	328.67	43.80	-29.9	-32.4	14.4	2.69e-04	0	44	0	554696704	20	4784
2026-01-27 01:15:54.42	327.27	44.21	-29.9	-32.9	14.4	1.79e-04	0	44	0	559939584	19	5084
2026-01-27 01:15:57.43	325.83	44.61	-30.1	-32.9	14.1	2.68e-03	0	44	0	565182464	20	4993
2026-01-27 01:16:00.45	324.35	44.99	-30.2	-33.3	13.9	2.64e-03	0	44	0	571473920	20	5106
2026-01-27 01:16:03.46	322.85	45.34	-30.6	-33.7	13.3	1.57e-03	0	44	0	576716800	21	5178
2026-01-27 01:16:06.47	321.31	45.68	-31.3	-35.4	11.7	2.79e-03	0	44	0	583008256	22	5753
2026-01-27 01:16:09.47	319.74	46.00	-30.9	-34.6	12.7	1.84e-03	0	44	0	588251136	21	5508
2026-01-27 01:16:12.48	318.13	46.30	-31.0	-34.5	12.4	3.40e-04	0	44	0	593494016	22	5356
2026-01-27 01:16:15.49	316.50	46.57	-31.4	-35.5	11.7	6.00e-04	0	44	0	599785472	22	5812
2026-01-27 01:16:18.50	314.84	46.82	-31.4	-35.8	11.5	1.43e-03	0	44	0	605028352	22	5917
2026-01-27 01:16:21.50	313.16	47.04	-31.5	-35.4	11.4	3.13e-03	0	44	0	610271232	23	5670
2026-01-27 01:16:24.51	311.45	47.24	-31.7	-36.1	11.0	4.52e-03	0	44	0	616562688	23	5987
2026-01-27 01:16:27.52	309.71	47.41	-31.3	-35.2	12.0	2.27e-03	0	44	0	621805568	22	5644
2026-01-27 01:16:30.54	307.96	47.55	-31.3	-35.1	12.0	1.71e-03	0	44	0	628097024	22	5634
2026-01-27 01:16:33.55	306.20	47.66	-31.2	-35.1	12.1	1.99e-04	0	44	0	633339904	22	5623
2026-01-27 01:16:36.55	304.43	47.75	-31.4	-35.5	11.7	6.18e-04	0	44	0	638582784	22	5797
2026-01-27 01:16:39.55	302.65	47.80	-31.7	-36.0	11.1	1.65e-03	0	44	0	644874240	23	5905
2026-01-27 01:16:42.55	300.87	47.82	-31.7	-36.0	10.9	3.29e-03	0	44	0	650117120	23	5936
2026-01-27 01:16:45.56	299.09	47.81	-31.6	-35.7	11.2	1.73e-03	0	44	0	655360000	23	5778
2026-01-27 01:16:48.57	297.30	47.78	-31.5	-35.4	11.4	1.69e-03	0	44	0	661651456	23	5646
2026-01-27 01:16:51.57	295.53	47.71	-31.4	-35.6	11.7	3.33e-04	0	44	0	666894336	22	5837
2026-01-27 01:16:54.58	293.76	47.61	-31.0	-34.4	12.5	1.97e-04	0	44	0	673185792	22	5313
2026-01-27 01:16:57.58	292.01	47.48	-31.2	-35.1	12.0	2.13e-04	0	44	0	678428672	22	5626
2026-01-27 01:17:00.58	290.27	47.33	-31.4	-35.5	11.6	7.29e-04	0	44	0	683671552	22	5815
2026-01-27 01:17:03.59	288.55	47.15	-31.2	-35.1	11.9	4.86e-04	0	44	0	689963008	22	5608
2026-01-27 01:17:06.59	286.85	46.94	-31.2	-34.9	12.1	2.58e-04	0	44	0	695205888	22	5529
2026-01-27 01:17:09.60	285.18	46.70	-31.6	-35.9	11.1	1.45e-03	0	44	0	700448768	23	5889
2026-01-27 01:17:12.61	283.53	46.44	-31.5	-35.4	11.4	1.13e-03	0	44	0	706740224	23	5670
2026-01-27 01:17:15.62	281.91	46.15	-31.2	-34.9	12.0	5.07e-04	0	44	0	711983104	22	5534
2026-01-27 01:17:18.63	280.31	45.84	-31.4	-35.2	11.5	1.14e-03	0	44	0	718274560	23	5580
2026-01-27 01:17:21.64	278.75	45.51	-31.4	-35.6	11.5	4.83e-04	0	44	0	723517440	22	5866
2026-01-27 01:17:24.65	277.23	45.16	-30.5	-33.7	13.2	4.57e-05	0	44	0	728760320	21	5161
2026-01-27 01:17:27.67	275.73	44.79	-30.1	-33.1	13.9	7.00e-07	0	44	0	735051776	20	5057
2026-01-27 01:17:30.68	274.27	44.41	-30.2	-33.3	13.8	3.80e-06	0	44	0	740294656	20	5122
2026-01-27 01:17:33.70	272.85	44.00	-29.6	-32.2	14.8	0.00e+00	0	44	0	745537536	19	4828
2026-01-27 01:17:36.72	271.46	43.58	-29.1	-31.3	15.7	0.00e+00	0	44	0	751828992	18	4655
2026-01-27 01:17:39.73	270.11	43.15	-29.6	-32.2	14.8	0.00e+00	0	44	0	757071872	19	4836
2026-01-27 01:17:42.74	268.80	42.71	-28.8	-30.7	15.9	0.00e+00	0	44	0	763363328	18	4480
2026-01-27 01:17:45.75	267.52	42.25	-28.8	-31.2	16.0	0.00e+00	0	44	0	768606208	17	4739
2026-01-27 01:17:48.75	266.29	41.79	-29.1	-31.5	15.6	3.20e-05	0	44	0	773849088	18	4719
2026-01-27 01:17:51.77	265.08	41.31	-28.9	-30.8	15.9	1.31e-04	0	44	0	780140544	18	4512
2026-01-27 01:17:54.78	263.91	40.83	-29.3	-31.9	15.3	1.63e-04	0	44	0	785383424	18	4859
2026-01-27 01:17:57.78	262.78	40.35	-29.4	-31.8	15.0	1.50e-04	0	44	0	791674880	19	4705
2026-01-27 01:18:00.78	261.68	39.85	-29.3	-31.9	15.2	1.06e-05	0	44	0	796917760	18	4880
2026-01-27 01:18:03.78	260.62	39.36	-29.4	-32.1	15.0	7.00e-07	0	44	0	802160640	18	4945
2026-01-27 01:18:06.80	259.58	38.85	-29.3	-31.9	15.2	0.00e+00	0	44	0	808452096	18	4876
2026-01-27 01:18:09.82	258.58	38.35	-29.3	-32.0	15.2	0.00e+00	0	44	0	813694976	18	4891
2026-01-27 01:18:12.82	257.61	37.84	-29.4	-31.7	15.0	0.00e+00	0	44	0	818937856	19	4683
2026-01-27 01:18:15.82	256.67	37.33	-29.8	-32.8	14.3	7.00e-07	0	44	0	825229312	19	5071
2026-01-27 01:18:18.82	255.76	36.83	-30.2	-33.3	13.6	3.00e-06	0	44	0	830472192	20	5136
2026-01-27 01:18:21.83	254.87	36.32	-30.4	-33.8	13.3	1.60e-05	0	44	0	836763648	20	5354
2026-01-27 01:18:24.85	254.01	35.81	-30.7	-34.4	12.5	8.01e-05	0	44	0	842006528	21	5462
2026-01-27 01:18:27.86	253.18	35.30	-31.1	-34.8	11.8	3.75e-04	0	44	0	847249408	22	5553
2026-01-27 01:18:30.87	252.38	34.79	-31.2	-35.1	11.6	7.29e-04	0	44	0	853540864	22	5691
2026-01-27 01:18:33.88	251.59	34.29	-31.7	-36.3	10.4	3.06e-03	0	44	0	858783744	23	6149
2026-01-27 01:18:36.90	250.84	33.78	-31.7	-36.5	10.3	3.94e-03	0	44	0	864026624	23	6241
2026-01-27 01:18:39.91	250.10	33.28	-31.8	-36.9	10.0	7.58e-03	0	44	0	870318080	23	6438
2026-01-27 01:18:42.91	249.39	32.78	-31.8	-36.7	10.1	8.53e-03	0	44	0	875560960	23	6345
2026-01-27 01:18:45.91	248.71	32.29	-31.6	-36.1	10.5	4.29e-03	0	44	0	881852416	23	6044
2026-01-27 01:18:48.91	248.04	31.80	-31.3	-35.5	11.3	1.61e-03	0	44	0	887095296	22	5877
2026-01-27 01:18:51.92	247.39	31.32	-31.3	-35.6	11.2	1.30e-03	0	44	0	892338176	22	5920
2026-01-27 01:18:54.93	246.76	30.83	-31.1	-35.0	11.6	7.54e-04	0	44	0	898629632	22	5669
2026-01-27 01:18:57.94	246.15	30.35	-30.8	-34.2	12.2	4.25e-04	0	44	0	903872512	22	5307
2026-01-27 01:19:00.96	245.55	29.88	-30.9	-35.1	11.9	2.99e-04	0	44	0	909115392	21	5788
2026-01-27 01:19:03.96	244.98	29.41	-31.3	-35.7	11.1	9.93e-04	0	44	0	915406848	22	5967
2026-01-27 01:19:06.97	244.42	28.94	-31.2	-35.0	11.2	1.28e-03	0	44	0	920649728	23	5546
2026-01-27 01:19:09.98	243.88	28.48	-31.0	-34.8	11.7	8.99e-04	0	44	0	926941184	22	5565
2026-01-27 01:19:12.99	243.35	28.03	-30.7	-34.3	11.9	6.33e-04	0	44	0	932184064	22	5451
2026-01-27 01:19:16.00	242.84	27.58	-30.9	-35.0	11.5	8.35e-04	0	44	0	937426944	21	5766
2026-01-27 01:19:19.01	242.34	27.13	-30.7	-34.5	11.9	3.40e-04	0	44	0	943718400	21	5542
2026-01-27 01:19:22.01	241.86	26.69	-30.7	-34.5	12.2	1.78e-04	0	44	0	948961280	21	5576
2026-01-27 01:19:25.01	241.39	26.25	-30.5	-34.2	12.7	7.09e-05	0	44	0	955252736	20	5552
2026-01-27 01:19:28.02	240.93	25.82	-30.2	-33.6	13.1	1.43e-03	0	44	0	960495616	20	5302
2026-01-27 01:19:31.03	240.48	25.40	-30.3	-34.0	12.8	4.97e-04	0	44	0	965738496	20	5461
2026-01-27 01:19:34.02	240.05	24.98	-30.3	-33.8	12.9	1.90e-04	0	44	0	972029952	20	5395
2026-01-27 01:19:37.04	239.63	24.56	-30.3	-33.9	12.8	4.50e-05	0	44	0	977272832	20	5424
2026-01-27 01:19:40.03	239.22	24.15	-30.2	-33.5	13.1	1.11e-03	0	44	0	982515712	20	5289
2026-01-27 01:19:43.03	238.82	23.74	-30.3	-34.0	12.7	1.77e-03	0	44	0	988807168	20	5462
2026-01-27 01:19:46.04	238.43	23.34	-30.3	-33.8	12.9	1.68e-03	0	44	0	994050048	20	5396
2026-01-27 01:19:49.05	238.05	22.94	-30.2	-33.6	13.0	1.70e-03	0	44	0	999292928	20	5332
2026-01-27 01:19:52.06	237.68	22.55	-30.3	-34.0	12.7	2.04e-03	0	44	0	1005584384	20	5490
2026-01-27 01:19:55.07	237.32	22.16	-30.1	-33.3	13.1	1.75e-03	0	44	0	1010827264	20	5216
2026-01-27 01:19:58.08	236.97	21.77	-30.1	-33.3	13.1	2.14e-03	0	44	0	1017118720	20	5221
2026-01-27 01:20:01.08	236.63	21.40	-30.0	-33.1	13.2	2.63e-03	0	44	0	1022361600	20	5149
2026-01-27 01:20:04.09	236.29	21.02	-29.9	-33.2	13.6	2.40e-03	0	44	0	1027604480	19	5269
2026-01-27 01:20:07.10	235.96	20.65	-30.1	-33.4	13.0	2.86e-03	0	44	0	1033895936	20	5246
2026-01-27 01:20:10.12	235.64	20.28	-30.2	-33.6	12.9	2.83e-03	0	44	0	1039138816	20	5348
2026-01-27 01:20:13.12	235.33	19.92	-30.3	-33.8	12.7	3.23e-03	0	44	0	1045430272	20	5428
2026-01-27 01:20:16.13	235.03	19.57	-30.8	-35.0	11.5	4.17e-03	0	44	0	1050673152	21	5818
2026-01-27 01:20:19.15	234.73	19.21	-30.2	-33.6	12.8	3.17e-03	0	44	0	1055916032	20	5346
2026-01-27 01:20:22.17	234.44	18.86	-30.0	-33.1	13.1	2.99e-03	0	44	0	1062207488	20	5168
2026-01-27 01:20:25.18	234.16	18.52	-30.0	-33.1	13.1	2.81e-03	0	44	0	1067450368	20	5158
2026-01-27 01:20:28.19	233.88	18.18	-30.0	-33.2	13.0	2.46e-03	0	44	0	1072693248	20	5196
2026-01-27 01:20:31.19	233.61	17.84	-30.0	-33.1	13.1	2.31e-03	0	44	0	1078984704	20	5173
2026-01-27 01:20:34.19	233.35	17.51	-29.9	-33.1	13.1	3.05e-05	0	44	0	1084227584	20	5151
2026-01-27 01:20:37.19	233.09	17.18	-30.0	-33.2	13.0	4.04e-05	0	44	0	1090519040	20	5204
2026-01-27 01:20:40.20	232.84	16.86	-30.1	-33.4	12.8	2.47e-03	0	44	0	1095761920	20	5287
2026-01-27 01:20:43.21	232.59	16.53	-30.2	-33.7	12.6	2.46e-03	0	44	0	1101004800	20	5394
2026-01-27 01:20:46.21	232.35	16.22	-30.3	-34.1	12.3	2.51e-03	0	44	0	1107296256	20	5556
2026-01-27 01:20:49.21	232.12	15.90	-30.3	-34.1	12.3	2.91e-03	0	44	0	1112539136	20	5582
2026-01-27 01:20:52.21	231.89	15.59	-30.2	-33.9	12.4	1.40e-04	0	44	0	1117782016	20	5491
2026-01-27 01:20:55.23	231.66	15.28	-30.2	-33.8	12.4	1.52e-04	0	44	0	1124073472	20	5477
2026-01-27 01:20:58.23	231.44	14.98	-30.3	-34.3	12.1	2.81e-04	0	44	0	1129316352	20	5657
2026-01-27 01:21:01.24	231.22	14.68	-30.4	-34.4	12.0	3.46e-04	0	44	0	1135607808	20	5736
2026-01-27 01:21:04.25	231.01	14.38	-30.3	-34.2	12.0	2.71e-03	0	44	0	1140850688	20	5656
2026-01-27 01:21:07.25	230.80	14.09	-30.2	-33.9	12.3	2.86e-03	0	44	0	1146093568	20	5496
2026-01-27 01:21:10.27	230.59	13.80	-30.2	-34.1	12.1	2.48e-04	0	44	0	1152385024	20	5614
2026-01-27 01:21:13.28	230.39	13.51	-30.0	-33.5	12.5	1.23e-04	0	44	0	1157627904	20	5363
2026-01-27 01:21:16.29	230.20	13.22	-30.1	-33.7	12.3	1.84e-04	0	44	0	1163919360	20	5465
2026-01-27 01:21:19.30	230.01	12.94	-30.3	-34.2	11.9	4.64e-04	0	44	0	1169162240	20	5685
2026-01-27 01:21:22.31	229.82	12.66	-30.4	-34.8	11.5	7.97e-04	0	44	0	1174405120	20	5942
2026-01-27 01:21:25.32	229.63	12.39	-30.6	-34.9	11.0	1.95e-03	0	44	0	1180696576	21	5900
2026-01-27 01:21:28.33	229.45	12.11	-30.6	-34.7	11.1	1.82e-03	0	44	0	1185939456	21	5805
2026-01-27 01:21:31.35	229.27	11.84	-30.6	-34.7	11.2	1.82e-03	0	44	0	1191182336	21	5787
2026-01-27 01:21:34.36	229.10	11.57	-30.5	-35.0	11.0	1.24e-03	0	44	0	1197473792	20	6052
2026-01-27 01:21:37.37	228.93	11.31	-30.4	-34.8	11.4	1.35e-03	0	44	0	1202716672	20	5937
2026-01-27 01:21:40.38	228.76	11.04	-30.4	-34.8	11.4	1.16e-03	0	44	0	1209008128	20	5969
2026-01-27 01:21:43.40	228.59	10.78	-30.4	-34.8	11.3	1.00e-03	0	44	0	1214251008	20	5968
2026-01-27 01:21:46.41	228.43	10.53	-30.5	-35.0	11.2	1.47e-03	0	44	0	1219493888	20	6047
2026-01-27 01:21:49.42	228.27	10.27	-30.5	-34.8	10.9	2.03e-03	0	44	0	1225785344	21	5881
2026-01-27 01:21:52.42	228.12	10.02	-30.7	-35.4	10.5	4.48e-03	0	44	0	1231028224	21	6162
2026-01-27 01:21:55.42	227.96	9.77	-30.6	-35.1	10.7	3.91e-03	0	44	0	1237319680	21	6003
2026-01-27 01:21:58.43	227.81	9.52	-30.6	-35.0	10.7	3.77e-03	0	44	0	1242562560	21	5981
2026-01-27 01:22:01.43	227.67	9.27	-30.6	-35.0	10.6	2.93e-03	0	44	0	1247805440	21	6005
2026-01-27 01:22:04.44	227.52	9.03	-30.7	-35.3	10.4	4.40e-03	0	44	0	1254096896	21	6152
2026-01-27 01:22:07.44	227.38	8.79	-30.7	-35.4	10.3	5.12e-03	0	44	0	1259339776	21	6190
2026-01-27 01:22:10.46	227.24	8.55	-30.6	-35.2	10.4	6.25e-03	0	44	0	1264582656	21	6099
2026-01-27 01:22:13.46	227.10	8.31	-30.5	-34.9	10.6	5.34e-03	0	44	0	1270874112	21	5967
2026-01-27 01:22:16.48	226.96	8.08	-30.7	-35.4	10.2	6.25e-03	0	44	0	1276116992	21	6221
2026-01-27 01:22:19.48	226.83	7.84	-30.7	-35.5	10.1	8.47e-03	0	44	0	1282408448	21	6291
2026-01-27 01:22:22.50	226.70	7.61	-30.7	-35.7	9.9	1.14e-02	0	44	0	1287651328	21	6381
2026-01-27 01:22:25.50	226.57	7.38	-30.7	-35.7	9.9	1.08e-02	0	44	0	1292894208	21	6387
2026-01-27 01:22:28.50	226.45	7.16	-30.7	-35.8	9.8	1.12e-02	0	44	0	1299185664	21	6475

#Closed at: 2026-01-27 01:22:31
#Recorded file [1300 MB]: D:/data/31010_260127_041055.dat