passes_logs/2026/01/27/R2M6_AANII_01/R2M6_AANII_01__20260127_020105_NOAA_21_JPSS-2_rec.log

#Pass ID: 20260127_020105_NOAA 21 (JPSS-2)
#Satellite: NOAA 21 (JPSS-2)
#Configuration: NOAA 21
#almurnet v.1.7.20240730
#Start time: 2026-01-27 02:03:27

#Version: 2.2.20231116
#Station: R2M6_AANII_01
#Location: 30.233357 lon 59.946436 lat
#TLE: 1 54234U 22150A   26026.43130734  .00000179  00000+0  10559-3 0  9998
#TLE: 2 54234  98.7509 327.1934 0000805 209.8356 150.2774 14.19539635166435

#Time	Az	El	Level	Level2	SNR	BER	BlckErr	Temp	State	Recorded	gain1	gain2
2026-01-27 02:03:27.66	354.52	17.67	-33.4	-52.0	3.8	7.43e-01	0	44	0	0	27	30494
2026-01-27 02:03:29.66	354.18	17.83	-34.0	-45.8	3.8	1.49e+00	0	44	104	0	28	14035
2026-01-27 02:03:31.67	353.84	18.00	-34.1	-46.0	3.8	1.49e+00	0	44	104	0	28	14173
2026-01-27 02:03:33.68	353.49	18.16	-34.1	-46.0	3.8	1.49e+00	0	44	104	0	28	14241
2026-01-27 02:03:35.68	353.14	18.32	-34.0	-45.9	3.8	1.49e+00	0	44	104	0	28	14157
2026-01-27 02:03:37.69	352.79	18.49	-34.0	-45.8	3.8	1.49e+00	0	44	104	0	28	14055
2026-01-27 02:03:39.70	352.43	18.65	-34.0	-45.8	3.8	1.49e+00	0	44	104	0	28	14017
2026-01-27 02:03:41.71	352.07	18.81	-34.0	-45.7	3.8	1.49e+00	0	44	104	0	28	13988
2026-01-27 02:03:43.71	351.70	18.98	-34.0	-45.7	3.8	1.49e+00	0	44	104	0	28	13989
2026-01-27 02:03:45.71	351.34	19.14	-34.0	-45.9	3.8	1.49e+00	0	44	104	0	28	14106
2026-01-27 02:03:47.72	350.96	19.30	-34.1	-45.9	3.8	1.49e+00	0	44	104	0	28	14141
2026-01-27 02:03:49.71	350.59	19.46	-34.1	-46.0	3.8	1.49e+00	0	44	104	0	28	14143
2026-01-27 02:03:51.73	350.21	19.63	-34.1	-46.0	3.8	1.49e+00	0	44	104	0	28	14231
2026-01-27 02:03:53.74	349.82	19.79	-34.0	-45.8	3.8	1.49e+00	0	44	104	0	28	14034
2026-01-27 02:03:55.74	349.43	19.95	-34.0	-45.7	3.8	1.49e+00	0	44	104	0	28	13952
2026-01-27 02:03:57.74	349.04	20.11	-33.9	-46.1	3.8	1.49e+00	0	44	104	0	27	14684
2026-01-27 02:03:59.75	348.64	20.27	-33.7	-45.6	3.8	1.49e+00	0	44	104	0	27	14167
2026-01-27 02:04:01.76	348.24	20.43	-33.5	-44.4	3.8	1.49e+00	0	44	104	0	27	12591
2026-01-27 02:04:03.76	347.83	20.59	-33.5	-44.7	3.8	1.49e+00	0	44	104	0	27	13076
2026-01-27 02:04:05.76	347.42	20.75	-33.5	-45.0	3.8	1.49e+00	0	44	104	0	27	13417
2026-01-27 02:04:07.76	347.01	20.91	-33.6	-45.2	3.8	1.49e+00	0	44	104	0	27	13792
2026-01-27 02:04:09.76	346.59	21.07	-33.5	-45.0	3.8	1.49e+00	0	44	104	0	27	13521
2026-01-27 02:04:11.75	346.17	21.22	-33.5	-44.8	3.8	1.49e+00	0	44	104	0	27	13198
2026-01-27 02:04:13.76	345.74	21.38	-33.5	-44.6	3.8	1.49e+00	0	44	104	0	27	12877
2026-01-27 02:04:15.77	345.31	21.54	-33.6	-45.3	3.8	1.49e+00	0	44	104	0	27	13979
2026-01-27 02:04:17.77	344.87	21.69	-33.0	-40.7	4.1	1.48e+00	0	44	104	0	27	8768
2026-01-27 02:04:19.78	344.43	21.84	-31.1	-34.4	9.3	4.16e-02	0	44	0	3145728	23	5262
2026-01-27 02:04:21.79	343.98	22.00	-30.0	-32.3	11.4	1.17e-03	0	44	0	9437184	21	4690
2026-01-27 02:04:23.79	343.53	22.15	-30.0	-32.2	11.5	8.06e-04	0	44	0	15728640	21	4651
2026-01-27 02:04:25.80	343.08	22.30	-29.9	-32.1	11.6	7.57e-04	0	44	0	22020096	21	4609
2026-01-27 02:04:27.80	342.62	22.45	-29.9	-32.0	11.6	6.87e-04	0	44	0	28311552	21	4579
2026-01-27 02:04:29.81	342.15	22.60	-28.9	-30.3	13.4	1.75e-05	0	44	0	34603008	19	4252
2026-01-27 02:04:31.82	341.68	22.75	-27.7	-29.1	15.0	0.00e+00	0	44	0	40894464	16	4217
2026-01-27 02:04:33.82	341.21	22.90	-27.0	-28.0	15.7	0.00e+00	0	44	0	47185920	15	4046
2026-01-27 02:04:35.83	340.73	23.04	-26.6	-27.6	16.2	0.00e+00	0	44	0	53477376	14	4049
2026-01-27 02:04:37.84	340.25	23.19	-26.6	-27.7	16.1	0.00e+00	0	44	0	59768832	14	4072
2026-01-27 02:04:39.84	339.77	23.33	-26.6	-27.7	16.1	0.00e+00	0	44	0	66060288	14	4061
2026-01-27 02:04:41.83	339.28	23.47	-26.6	-27.7	16.1	0.00e+00	0	44	0	72351744	14	4071
2026-01-27 02:04:43.84	338.78	23.61	-26.6	-28.1	16.2	0.00e+00	0	44	0	78643200	13	4282
2026-01-27 02:04:45.85	338.28	23.75	-26.7	-28.3	16.0	0.00e+00	0	44	0	84934656	13	4350
2026-01-27 02:04:47.86	337.78	23.88	-26.9	-28.7	15.8	0.00e+00	0	44	0	91226112	13	4467
2026-01-27 02:04:49.86	337.27	24.02	-27.1	-28.8	15.5	0.00e+00	0	44	0	96468992	14	4369
2026-01-27 02:04:51.87	336.75	24.15	-27.2	-29.0	15.4	0.00e+00	0	44	0	103809024	14	4423
2026-01-27 02:04:53.87	336.24	24.28	-27.1	-28.8	15.5	0.00e+00	0	44	0	110100480	14	4368
2026-01-27 02:04:55.88	335.72	24.41	-27.1	-28.8	15.5	0.00e+00	0	44	0	116391936	14	4370
2026-01-27 02:04:57.88	335.19	24.54	-27.2	-28.9	15.5	0.00e+00	0	44	0	121634816	14	4398
2026-01-27 02:04:59.88	334.66	24.66	-26.9	-28.7	15.8	0.00e+00	0	44	0	127926272	13	4464
2026-01-27 02:05:01.89	334.13	24.79	-27.1	-28.7	15.6	0.00e+00	0	44	0	134217728	14	4325
2026-01-27 02:05:03.90	333.59	24.91	-27.0	-28.4	15.7	0.00e+00	0	44	0	140509184	14	4267
2026-01-27 02:05:05.91	333.04	25.03	-26.9	-28.8	15.8	0.00e+00	0	44	0	146800640	13	4468
2026-01-27 02:05:07.92	332.49	25.14	-27.1	-28.6	15.6	0.00e+00	0	44	0	153092096	14	4317
2026-01-27 02:05:09.92	331.94	25.26	-27.1	-28.7	15.6	0.00e+00	0	44	0	159383552	14	4346
2026-01-27 02:05:11.93	331.39	25.37	-27.0	-28.6	15.7	0.00e+00	0	44	0	165675008	14	4301
2026-01-27 02:05:13.93	330.83	25.48	-26.7	-27.9	16.0	0.00e+00	0	44	0	171966464	14	4113
2026-01-27 02:05:15.93	330.27	25.58	-27.0	-28.6	15.7	0.00e+00	0	44	0	178257920	14	4300
2026-01-27 02:05:17.94	329.70	25.69	-27.0	-28.5	15.0	0.00e+00	0	44	0	184549376	14	4292
2026-01-27 02:05:19.94	329.13	25.79	-27.0	-28.5	15.4	0.00e+00	0	44	0	190840832	14	4290
2026-01-27 02:05:21.95	328.55	25.89	-26.8	-28.7	15.9	0.00e+00	0	44	0	197132288	13	4442
2026-01-27 02:05:23.95	327.98	25.98	-26.8	-28.6	15.9	0.00e+00	0	44	0	203423744	13	4414
2026-01-27 02:05:25.96	327.40	26.07	-26.7	-28.2	16.1	0.00e+00	0	44	0	209715200	13	4315
2026-01-27 02:05:27.96	326.81	26.16	-26.4	-27.6	16.4	0.00e+00	0	44	0	216006656	13	4142
2026-01-27 02:05:29.98	326.22	26.25	-26.3	-27.5	16.5	0.00e+00	0	44	0	222298112	13	4114
2026-01-27 02:05:31.98	325.63	26.33	-26.5	-27.9	16.3	2.59e-05	0	44	0	228589568	13	4216
2026-01-27 02:05:33.98	325.04	26.41	-26.5	-28.0	16.2	0.00e+00	0	44	0	234881024	13	4251
2026-01-27 02:05:35.99	324.44	26.49	-26.5	-27.9	16.3	1.53e-03	0	44	0	241172480	13	4241
2026-01-27 02:05:38.01	323.83	26.56	-26.3	-27.9	16.5	1.43e-03	0	44	0	247463936	12	4346
2026-01-27 02:05:40.01	323.23	26.64	-26.3	-27.9	16.6	0.00e+00	0	44	0	253755392	12	4330
2026-01-27 02:05:42.02	322.63	26.70	-26.3	-27.9	16.6	2.01e-03	0	44	0	260046848	12	4331
2026-01-27 02:05:44.03	322.02	26.77	-26.5	-28.0	16.2	2.00e-03	0	44	0	266338304	13	4246
2026-01-27 02:05:46.04	321.40	26.83	-26.7	-28.3	16.1	0.00e+00	0	44	0	272629760	13	4329
2026-01-27 02:05:48.05	320.79	26.88	-26.5	-27.9	16.3	6.90e-04	0	44	0	278921216	13	4234
2026-01-27 02:05:50.06	320.17	26.94	-26.5	-27.8	16.3	0.00e+00	0	44	0	285212672	13	4212
2026-01-27 02:05:52.07	319.55	26.99	-26.5	-28.0	16.2	0.00e+00	0	44	0	291504128	13	4259
2026-01-27 02:05:54.08	318.93	27.03	-26.4	-27.7	16.4	4.39e-04	0	44	0	297795584	13	4181
2026-01-27 02:05:56.08	318.31	27.08	-26.3	-27.9	16.5	0.00e+00	0	44	0	304087040	12	4347
2026-01-27 02:05:58.10	317.69	27.12	-26.7	-28.4	16.0	0.00e+00	0	44	0	310378496	13	4367
2026-01-27 02:06:00.11	317.06	27.15	-26.6	-28.0	16.2	0.00e+00	0	44	0	316669952	13	4267
2026-01-27 02:06:02.12	316.44	27.18	-26.5	-27.9	16.3	0.00e+00	0	44	0	322961408	13	4225
2026-01-27 02:06:04.12	315.81	27.21	-26.7	-28.3	16.1	0.00e+00	0	44	0	329252864	13	4349
2026-01-27 02:06:06.13	315.18	27.23	-26.8	-28.5	16.0	0.00e+00	0	45	0	335544320	13	4386
2026-01-27 02:06:08.14	314.55	27.25	-26.7	-28.4	16.0	0.00e+00	0	44	0	341835776	13	4358
2026-01-27 02:06:10.15	313.92	27.27	-26.8	-28.5	15.9	0.00e+00	0	44	0	348127232	13	4403
2026-01-27 02:06:12.15	313.29	27.28	-26.8	-28.6	15.9	0.00e+00	0	44	0	354418688	13	4431
2026-01-27 02:06:14.16	312.66	27.29	-26.6	-28.1	16.2	0.00e+00	0	44	0	360710144	13	4291
2026-01-27 02:06:16.17	312.03	27.30	-26.5	-28.0	16.3	0.00e+00	0	44	0	367001600	13	4256
2026-01-27 02:06:18.17	311.40	27.30	-26.5	-28.0	16.2	0.00e+00	0	44	0	373293056	13	4258
2026-01-27 02:06:20.17	310.77	27.30	-26.5	-28.0	16.3	0.00e+00	0	44	0	379584512	13	4258
2026-01-27 02:06:22.18	310.14	27.29	-26.5	-28.0	16.2	0.00e+00	0	44	0	385875968	13	4258
2026-01-27 02:06:24.18	309.51	27.28	-26.6	-28.1	16.2	0.00e+00	0	44	0	392167424	13	4295
2026-01-27 02:06:26.20	308.88	27.26	-26.7	-28.3	16.1	0.00e+00	0	44	0	398458880	13	4334
2026-01-27 02:06:28.20	308.25	27.25	-26.6	-28.2	16.2	0.00e+00	0	44	0	404750336	13	4303
2026-01-27 02:06:30.21	307.62	27.22	-26.6	-28.1	16.2	0.00e+00	0	44	0	411041792	13	4293
2026-01-27 02:06:32.21	306.99	27.20	-26.4	-27.7	16.4	0.00e+00	0	45	0	417333248	13	4180
2026-01-27 02:06:34.22	306.37	27.17	-26.4	-27.7	16.4	0.00e+00	0	44	0	423624704	13	4170
2026-01-27 02:06:36.23	305.74	27.13	-26.6	-28.1	16.2	0.00e+00	0	44	0	429916160	13	4284
2026-01-27 02:06:38.24	305.11	27.10	-26.6	-28.2	16.1	0.00e+00	0	44	0	436207616	13	4300
2026-01-27 02:06:40.24	304.49	27.06	-26.6	-28.0	16.3	0.00e+00	0	44	0	442499072	13	4261
2026-01-27 02:06:42.26	303.87	27.01	-26.6	-28.1	16.2	0.00e+00	0	44	0	447741952	13	4277
2026-01-27 02:06:44.26	303.25	26.96	-26.9	-28.7	15.9	0.00e+00	0	44	0	454033408	13	4451
2026-01-27 02:06:46.28	302.63	26.91	-26.7	-28.4	16.0	0.00e+00	0	44	0	461373440	13	4368
2026-01-27 02:06:48.29	302.01	26.86	-26.7	-28.4	16.0	0.00e+00	0	44	0	466616320	13	4369
2026-01-27 02:06:50.30	301.40	26.80	-26.7	-28.4	16.0	0.00e+00	0	44	0	472907776	13	4358
2026-01-27 02:06:52.31	300.79	26.74	-26.8	-28.7	15.8	7.00e-07	0	44	0	479199232	13	4445
2026-01-27 02:06:54.32	300.18	26.67	-26.8	-28.6	15.9	0.00e+00	0	44	0	486539264	13	4436
2026-01-27 02:06:56.33	299.57	26.60	-26.7	-28.4	16.0	1.07e-04	0	44	0	491782144	13	4378
2026-01-27 02:06:58.33	298.97	26.53	-26.7	-28.4	16.0	0.00e+00	0	44	0	498073600	13	4377
2026-01-27 02:07:00.34	298.37	26.45	-26.9	-28.4	15.7	0.00e+00	0	44	0	504365056	14	4252
2026-01-27 02:07:02.35	297.77	26.37	-26.5	-27.3	16.3	0.00e+00	0	44	0	510656512	14	3969
2026-01-27 02:07:04.36	297.18	26.29	-26.3	-27.0	16.5	0.00e+00	0	45	0	516947968	14	3896
2026-01-27 02:07:06.36	296.59	26.21	-26.2	-27.3	16.6	4.50e-06	0	44	0	523239424	13	4079
2026-01-27 02:07:08.36	296.00	26.12	-26.3	-27.9	16.5	0.00e+00	0	44	0	529530880	12	4345
2026-01-27 02:07:10.37	295.41	26.03	-26.5	-28.3	16.3	0.00e+00	0	44	0	535822336	12	4457
2026-01-27 02:07:12.38	294.83	25.93	-26.5	-27.9	16.2	7.00e-07	0	45	0	542113792	13	4229
2026-01-27 02:07:14.39	294.25	25.84	-26.2	-27.7	16.6	0.00e+00	0	45	0	548405248	12	4282
2026-01-27 02:07:16.40	293.68	25.74	-26.2	-27.8	16.5	1.21e-03	0	44	0	554696704	12	4319
2026-01-27 02:07:18.41	293.11	25.63	-26.3	-28.0	16.4	0.00e+00	0	45	0	560988160	12	4380
2026-01-27 02:07:20.41	292.54	25.53	-26.4	-28.1	16.4	9.83e-04	0	44	0	567279616	12	4392
2026-01-27 02:07:22.41	291.98	25.42	-26.7	-28.3	16.0	3.16e-04	0	44	0	573571072	13	4333
2026-01-27 02:07:24.42	291.42	25.31	-26.4	-27.7	16.3	0.00e+00	0	44	0	579862528	13	4179
2026-01-27 02:07:26.42	290.87	25.20	-26.3	-27.4	16.5	0.00e+00	0	44	0	586153984	13	4091
2026-01-27 02:07:28.43	290.31	25.08	-26.3	-27.4	16.5	0.00e+00	0	44	0	592445440	13	4101
2026-01-27 02:07:30.44	289.77	24.96	-26.4	-27.6	16.4	0.00e+00	0	44	0	598736896	13	4145
2026-01-27 02:07:32.45	289.22	24.84	-26.5	-27.9	16.2	0.00e+00	0	44	0	605028352	13	4227
2026-01-27 02:07:34.45	288.69	24.72	-26.6	-28.2	16.0	0.00e+00	0	44	0	611319808	13	4317
2026-01-27 02:07:36.46	288.15	24.60	-26.8	-28.6	15.8	0.00e+00	0	44	0	617611264	13	4427
2026-01-27 02:07:38.47	287.62	24.47	-26.6	-28.1	16.0	0.00e+00	0	44	0	623902720	13	4297
2026-01-27 02:07:40.47	287.09	24.34	-26.7	-28.3	15.9	0.00e+00	0	44	0	630194176	13	4340
2026-01-27 02:07:42.48	286.57	24.21	-26.6	-28.1	16.1	0.00e+00	0	44	0	636485632	13	4274
2026-01-27 02:07:44.48	286.06	24.08	-26.5	-27.8	16.2	0.00e+00	0	44	0	642777088	13	4216
2026-01-27 02:07:46.49	285.54	23.95	-26.7	-28.4	15.9	0.00e+00	0	44	0	649068544	13	4385
2026-01-27 02:07:48.49	285.03	23.81	-26.9	-28.8	15.7	0.00e+00	0	44	0	655360000	13	4483
2026-01-27 02:07:50.50	284.53	23.67	-26.4	-27.7	16.2	0.00e+00	0	45	0	661651456	13	4178
2026-01-27 02:07:52.50	284.03	23.53	-25.9	-26.5	16.8	0.00e+00	0	44	0	667942912	13	3887
2026-01-27 02:07:54.51	283.54	23.39	-25.8	-26.8	16.9	0.00e+00	0	45	0	674234368	12	4061
2026-01-27 02:07:56.52	283.04	23.25	-26.0	-27.4	16.6	0.00e+00	0	44	0	680525824	12	4204
2026-01-27 02:07:58.53	282.56	23.10	-26.4	-28.3	16.1	0.00e+00	0	44	0	686817280	12	4451
2026-01-27 02:08:00.54	282.07	22.96	-26.7	-28.5	15.8	0.00e+00	0	45	0	693108736	13	4393
2026-01-27 02:08:02.54	281.60	22.81	-26.6	-28.2	15.9	0.00e+00	0	44	0	699400192	13	4319
2026-01-27 02:08:04.55	281.13	22.66	-26.5	-27.9	16.1	0.00e+00	0	44	0	705691648	13	4224
2026-01-27 02:08:06.55	280.66	22.52	-26.0	-26.9	16.6	0.00e+00	0	44	0	711983104	13	3970
2026-01-27 02:08:08.56	280.19	22.36	-25.9	-27.2	16.7	0.00e+00	0	44	0	718274560	12	4156
2026-01-27 02:08:10.57	279.73	22.21	-26.0	-27.3	16.6	0.00e+00	0	44	0	724566016	12	4191
2026-01-27 02:08:12.57	279.28	22.06	-26.0	-27.3	16.6	0.00e+00	0	44	0	730857472	12	4185
2026-01-27 02:08:14.58	278.83	21.91	-26.0	-27.8	16.7	0.00e+00	0	44	0	737148928	11	4434
2026-01-27 02:08:16.58	278.39	21.75	-26.1	-27.6	16.4	0.00e+00	0	45	0	743440384	12	4283
2026-01-27 02:08:18.60	277.94	21.60	-26.4	-28.2	16.1	0.00e+00	0	44	0	749731840	12	4440
2026-01-27 02:08:20.61	277.50	21.44	-26.4	-28.2	16.1	0.00e+00	0	44	0	756023296	12	4441
2026-01-27 02:08:22.63	277.07	21.28	-26.4	-28.3	16.1	0.00e+00	0	44	0	762314752	12	4452
2026-01-27 02:08:24.65	276.64	21.12	-26.4	-28.1	16.1	0.00e+00	0	44	0	768606208	12	4417
2026-01-27 02:08:26.65	276.22	20.97	-26.9	-28.9	15.4	0.00e+00	0	44	0	774897664	13	4533
2026-01-27 02:08:28.66	275.80	20.81	-26.9	-28.4	15.5	0.00e+00	0	45	0	781189120	14	4265
2026-01-27 02:08:30.66	275.38	20.65	-26.8	-28.2	15.6	0.00e+00	0	44	0	787480576	14	4213
2026-01-27 02:08:32.67	274.97	20.49	-27.0	-28.5	15.4	3.80e-06	0	44	0	793772032	14	4300
2026-01-27 02:08:34.68	274.56	20.33	-26.4	-27.8	16.0	0.00e+00	0	44	0	800063488	13	4220
2026-01-27 02:08:36.68	274.16	20.17	-26.1	-27.0	16.4	0.00e+00	0	45	0	806354944	13	4014
2026-01-27 02:08:38.70	273.76	20.00	-26.3	-27.9	16.2	3.80e-06	0	44	0	812646400	12	4363
2026-01-27 02:08:40.71	273.37	19.84	-26.3	-28.3	15.5	0.00e+00	0	44	0	817889280	12	4494
2026-01-27 02:08:42.72	272.98	19.68	-26.7	-28.4	15.7	0.00e+00	0	44	0	825229312	13	4374
2026-01-27 02:08:44.73	272.59	19.51	-26.3	-27.6	16.1	8.30e-06	0	44	0	831520768	13	4156
2026-01-27 02:08:46.73	272.21	19.35	-26.3	-28.0	16.1	1.37e-03	0	45	0	836763648	12	4377
2026-01-27 02:08:48.73	271.84	19.19	-26.5	-28.0	15.9	0.00e+00	0	44	0	843055104	13	4278
2026-01-27 02:08:50.74	271.46	19.03	-26.8	-28.7	15.5	4.50e-06	0	44	0	849346560	13	4469
2026-01-27 02:08:52.74	271.10	18.86	-27.1	-28.9	15.1	1.88e-03	0	44	0	855638016	14	4414
2026-01-27 02:08:54.75	270.73	18.70	-27.2	-29.1	15.0	0.00e+00	0	44	0	861929472	14	4466
2026-01-27 02:08:56.76	270.37	18.53	-27.3	-29.3	14.8	0.00e+00	0	44	0	868220928	14	4545
2026-01-27 02:08:58.77	270.01	18.37	-27.2	-29.1	15.0	2.72e-03	0	44	0	874512384	14	4481
2026-01-27 02:09:00.77	269.66	18.21	-27.2	-29.2	14.9	3.24e-03	0	44	0	880803840	14	4500
2026-01-27 02:09:02.77	269.31	18.04	-27.4	-29.5	14.7	7.00e-07	0	44	0	887095296	14	4605
2026-01-27 02:09:04.77	268.97	17.88	-27.0	-28.7	15.2	3.50e-03	0	44	0	893386752	14	4352
2026-01-27 02:09:06.79	268.62	17.71	-26.9	-28.9	15.3	3.47e-03	0	44	0	899678208	13	4527
2026-01-27 02:09:08.80	268.28	17.55	-26.9	-28.8	15.3	0.00e+00	0	44	0	905969664	13	4517
2026-01-27 02:09:10.79	267.95	17.39	-27.1	-28.8	15.1	3.61e-03	0	44	0	912261120	14	4390
2026-01-27 02:09:12.81	267.62	17.22	-26.9	-28.5	15.2	3.54e-03	0	44	0	918552576	14	4312
2026-01-27 02:09:14.82	267.29	17.06	-26.9	-28.3	15.4	0.00e+00	0	44	0	924844032	14	4255
2026-01-27 02:09:16.83	266.97	16.89	-26.5	-28.1	15.8	0.00e+00	0	44	0	931135488	13	4289
2026-01-27 02:09:18.84	266.65	16.73	-26.7	-28.5	15.5	3.57e-03	0	44	0	937426944	13	4426
2026-01-27 02:09:20.85	266.33	16.57	-26.5	-27.9	15.8	0.00e+00	0	44	0	943718400	13	4254
2026-01-27 02:09:22.85	266.02	16.41	-26.5	-28.5	15.7	3.09e-03	0	44	0	950009856	12	4532
2026-01-27 02:09:24.86	265.71	16.24	-26.7	-28.4	15.5	0.00e+00	0	44	0	956301312	13	4383
2026-01-27 02:09:26.87	265.40	16.08	-26.8	-28.7	15.4	0.00e+00	0	44	0	962592768	13	4463
2026-01-27 02:09:28.89	265.09	15.92	-26.8	-28.8	15.3	2.16e-03	0	44	0	968884224	13	4493
2026-01-27 02:09:30.89	264.80	15.75	-26.8	-28.7	15.3	0.00e+00	0	44	0	975175680	13	4491
2026-01-27 02:09:32.89	264.50	15.59	-26.7	-28.5	15.4	0.00e+00	0	44	0	981467136	13	4433
2026-01-27 02:09:34.90	264.21	15.43	-26.8	-28.8	15.3	0.00e+00	0	44	0	987758592	13	4498
2026-01-27 02:09:36.91	263.92	15.27	-26.9	-29.0	15.1	0.00e+00	0	44	0	994050048	13	4577
2026-01-27 02:09:38.91	263.63	15.11	-27.0	-28.6	15.1	0.00e+00	0	44	0	1000341504	14	4339
2026-01-27 02:09:40.91	263.35	14.95	-27.2	-29.1	14.8	7.00e-07	0	44	0	1006632960	14	4498
2026-01-27 02:09:42.92	263.07	14.79	-27.3	-29.4	14.6	0.00e+00	0	44	0	1012924416	14	4581
2026-01-27 02:09:44.94	262.79	14.63	-27.3	-29.5	14.5	0.00e+00	0	45	0	1019215872	14	4605
2026-01-27 02:09:46.95	262.51	14.47	-27.1	-28.9	14.8	0.00e+00	0	44	0	1025507328	14	4433
2026-01-27 02:09:48.96	262.24	14.31	-27.1	-28.9	14.9	0.00e+00	0	44	0	1031798784	14	4420
2026-01-27 02:09:50.97	261.97	14.15	-26.9	-28.6	15.0	0.00e+00	0	44	0	1038090240	14	4332
2026-01-27 02:09:52.97	261.71	13.99	-27.0	-29.2	15.0	0.00e+00	0	44	0	1044381696	13	4619
2026-01-27 02:09:54.97	261.44	13.84	-27.3	-29.3	14.6	7.00e-07	0	44	0	1050673152	14	4548
2026-01-27 02:09:56.98	261.18	13.68	-27.7	-29.9	14.0	2.20e-06	0	44	0	1056964608	15	4619
2026-01-27 02:09:58.99	260.93	13.52	-27.8	-30.0	13.9	0.00e+00	0	44	0	1063256064	15	4652
2026-01-27 02:10:01.00	260.67	13.36	-27.9	-30.3	13.7	1.14e-05	0	44	0	1069547520	15	4736
2026-01-27 02:10:03.00	260.42	13.21	-27.7	-29.9	13.9	3.80e-06	0	45	0	1075838976	15	4639
2026-01-27 02:10:05.01	260.17	13.05	-27.8	-30.0	13.9	7.60e-06	0	45	0	1082130432	15	4662
2026-01-27 02:10:07.01	259.92	12.90	-27.2	-28.7	14.6	1.50e-06	0	44	0	1088421888	15	4272
2026-01-27 02:10:09.03	259.68	12.74	-27.1	-29.0	14.7	7.00e-07	0	45	0	1094713344	14	4470
2026-01-27 02:10:11.03	259.44	12.59	-27.2	-29.1	14.6	1.14e-05	0	44	0	1101004800	14	4499
2026-01-27 02:10:13.04	259.20	12.43	-27.4	-29.7	14.3	1.50e-06	0	44	0	1107296256	14	4675
2026-01-27 02:10:15.05	258.96	12.28	-27.8	-30.0	13.8	1.50e-06	0	44	0	1113587712	15	4668
2026-01-27 02:10:17.07	258.73	12.13	-27.7	-30.0	13.8	1.14e-05	0	44	0	1119879168	15	4649
2026-01-27 02:10:19.07	258.50	11.98	-27.8	-30.0	13.8	5.30e-06	0	44	0	1126170624	15	4653
2026-01-27 02:10:21.08	258.27	11.82	-27.7	-29.8	13.9	3.66e-03	0	44	0	1132462080	15	4608
2026-01-27 02:10:23.09	258.04	11.67	-27.2	-28.6	14.6	0.00e+00	0	44	0	1138753536	15	4241
2026-01-27 02:10:25.09	257.82	11.52	-26.9	-28.5	14.9	7.00e-07	0	44	0	1145044992	14	4334
2026-01-27 02:10:27.10	257.60	11.37	-26.7	-28.6	15.1	2.09e-03	0	44	0	1151336448	13	4465
2026-01-27 02:10:29.11	257.38	11.22	-26.8	-28.7	15.0	0.00e+00	0	44	0	1157627904	13	4486
2026-01-27 02:10:31.11	257.16	11.07	-27.0	-29.1	14.8	3.65e-04	0	44	0	1162870784	13	4627
2026-01-27 02:10:33.11	256.94	10.92	-27.2	-29.3	14.4	2.27e-04	0	44	0	1170210816	14	4565
2026-01-27 02:10:35.12	256.73	10.77	-27.6	-29.6	13.9	3.80e-06	0	44	0	1176502272	15	4541
2026-01-27 02:10:37.12	256.52	10.63	-27.8	-30.1	13.6	4.85e-04	0	44	0	1182793728	15	4704
2026-01-27 02:10:39.13	256.31	10.48	-28.1	-30.4	13.3	1.83e-05	0	44	0	1188036608	16	4652
2026-01-27 02:10:41.14	256.11	10.33	-28.1	-30.4	13.3	2.13e-05	0	44	0	1194328064	16	4670
2026-01-27 02:10:43.15	255.90	10.19	-27.9	-30.4	13.4	6.26e-04	0	44	0	1200619520	15	4802
2026-01-27 02:10:45.15	255.70	10.04	-27.7	-30.0	13.6	4.87e-04	0	44	0	1206910976	15	4666
2026-01-27 02:10:47.16	255.50	9.90	-27.7	-30.0	13.6	6.10e-06	0	45	0	1213202432	15	4681
2026-01-27 02:10:49.17	255.30	9.75	-27.3	-29.0	14.2	7.00e-07	0	44	0	1219493888	15	4369
2026-01-27 02:10:51.18	255.11	9.61	-27.5	-29.3	14.0	2.20e-06	0	44	0	1225785344	15	4469
2026-01-27 02:10:53.19	254.91	9.46	-27.4	-29.1	14.1	0.00e+00	0	44	0	1232076800	15	4408
2026-01-27 02:10:55.20	254.72	9.32	-27.5	-29.4	13.9	7.00e-07	0	44	0	1238368256	15	4484
2026-01-27 02:10:57.20	254.53	9.18	-27.7	-29.9	13.6	6.67e-04	0	44	0	1244659712	15	4629
2026-01-27 02:10:59.21	254.34	9.03	-28.0	-30.6	13.2	1.67e-05	0	44	0	1250951168	15	4860
2026-01-27 02:11:01.22	254.15	8.89	-28.3	-30.8	13.0	4.80e-05	0	44	0	1257242624	16	4800
2026-01-27 02:11:03.23	253.97	8.75	-28.3	-30.9	12.9	2.00e-03	0	44	0	1263534080	16	4841
2026-01-27 02:11:05.24	253.79	8.61	-28.4	-31.1	12.7	7.32e-05	0	44	0	1269825536	16	4924
2026-01-27 02:11:07.26	253.60	8.47	-28.5	-30.8	12.6	1.15e-04	0	44	0	1276116992	17	4700
2026-01-27 02:11:09.26	253.43	8.33	-28.3	-30.9	12.8	5.11e-05	0	45	0	1282408448	16	4847
2026-01-27 02:11:11.27	253.25	8.19	-28.2	-30.7	12.9	5.72e-05	0	44	0	1288699904	16	4773
2026-01-27 02:11:13.28	253.07	8.05	-28.2	-30.7	12.9	5.26e-05	0	45	0	1294991360	16	4794
2026-01-27 02:11:15.28	252.90	7.91	-28.2	-30.6	12.9	5.03e-05	0	44	0	1301282816	16	4754
2026-01-27 02:11:17.29	252.73	7.78	-28.2	-30.8	12.8	5.41e-05	0	44	0	1307574272	16	4808
2026-01-27 02:11:19.29	252.56	7.64	-28.2	-30.6	12.9	3.58e-05	0	44	0	1313865728	16	4758
2026-01-27 02:11:21.30	252.39	7.50	-28.2	-30.6	12.9	5.56e-05	0	44	0	1320157184	16	4753
2026-01-27 02:11:23.31	252.22	7.37	-28.4	-31.0	12.6	1.19e-04	0	44	0	1326448640	16	4903
2026-01-27 02:11:25.32	252.05	7.23	-28.3	-30.9	12.6	9.68e-05	0	44	0	1332740096	16	4860
2026-01-27 02:11:27.33	251.89	7.09	-30.7	-35.3	8.5	8.08e-05	0	44	0	1339031552	21	6152

#Closed at: 2026-01-27 02:11:29
#Recorded file [1339 MB]: D:/data/31010_260127_050418.dat