passes_logs/2026/01/27/R2M6_AANII_01/R2M6_AANII_01__20260127_112846_AQUA_rec.log

#Pass ID: 20260127_112846_AQUA
#Satellite: AQUA
#Configuration: AQUA
#almurnet v.1.7.20240730
#Start time: 2026-01-27 11:28:48

#Version: 2.2.20231116
#Station: R2M6_AANII_01
#Location: 30.233357 lon 59.946436 lat
#TLE: 1 27424U 02022A   26026.85810808  .00001813  00000+0  37258-3 0  9999
#TLE: 2 27424  98.4101 353.4861 0001866  64.3332 317.5249 14.61864179262622

#Time	Az	El	Level	Level2	SNR	BER	BlckErr	Temp	State	Recorded	gain1	gain2
2026-01-27 11:28:48.02	140.46	7.10	-32.1	-39.8	4.9	7.15e-01	0	41	0	0	26	8737
2026-01-27 11:28:51.02	140.35	7.34	-32.2	-39.8	11.2	6.17e-01	0	42	0	1572864	26	8637
2026-01-27 11:28:54.03	140.23	7.58	-32.0	-38.2	12.7	6.11e-01	0	42	0	7340032	26	7393
2026-01-27 11:28:57.05	140.11	7.83	-32.0	-37.8	13.1	6.10e-01	0	42	0	13107200	26	7064
2026-01-27 11:29:00.05	139.99	8.09	-31.4	-36.1	14.8	6.07e-01	0	42	0	18350080	25	6178
2026-01-27 11:29:03.07	139.86	8.34	-30.6	-34.4	16.8	6.06e-01	0	42	0	24117248	23	5558
2026-01-27 11:29:06.08	139.74	8.60	-30.4	-34.3	17.2	6.07e-01	0	42	0	29884416	22	5644
2026-01-27 11:29:09.09	139.61	8.86	-30.2	-34.0	17.4	6.08e-01	0	42	0	35651584	22	5546
2026-01-27 11:29:12.09	139.48	9.12	-30.2	-34.0	17.4	6.06e-01	0	42	0	41418752	22	5531
2026-01-27 11:29:15.11	139.34	9.39	-30.3	-34.3	17.1	6.05e-01	0	42	0	46661632	22	5692
2026-01-27 11:29:18.11	139.20	9.66	-30.1	-33.5	17.8	6.05e-01	0	42	0	52428800	22	5313
2026-01-27 11:29:21.13	139.06	9.93	-30.1	-33.5	17.8	6.07e-01	0	42	0	58195968	22	5305
2026-01-27 11:29:24.13	138.92	10.20	-30.1	-33.3	18.1	6.04e-01	0	42	0	63963136	22	5195
2026-01-27 11:29:27.15	138.77	10.48	-30.1	-33.2	18.1	6.07e-01	0	42	0	69206016	22	5153
2026-01-27 11:29:30.16	138.62	10.76	-30.0	-33.1	18.2	6.05e-01	0	43	0	74973184	22	5116
2026-01-27 11:29:33.16	138.47	11.05	-30.1	-33.4	18.0	6.07e-01	0	42	0	80740352	22	5256
2026-01-27 11:29:36.17	138.31	11.34	-30.3	-33.6	17.9	6.06e-01	0	42	0	86507520	22	5305
2026-01-27 11:29:39.17	138.15	11.63	-30.2	-33.2	18.3	6.05e-01	0	43	0	91750400	22	5085
2026-01-27 11:29:42.19	137.99	11.93	-30.1	-33.0	18.3	6.07e-01	0	43	0	97517568	22	5037
2026-01-27 11:29:45.21	137.82	12.23	-29.8	-32.8	18.7	6.05e-01	0	43	0	103284736	21	5089
2026-01-27 11:29:48.23	137.65	12.53	-29.8	-33.1	18.5	6.05e-01	0	43	0	109051904	21	5248
2026-01-27 11:29:51.23	137.47	12.84	-29.8	-33.1	18.5	6.04e-01	0	43	0	114819072	21	5248
2026-01-27 11:29:54.25	137.29	13.15	-29.9	-33.1	18.6	6.07e-01	0	43	0	120061952	21	5197
2026-01-27 11:29:57.25	137.11	13.47	-29.9	-32.8	19.0	6.07e-01	0	43	0	125829120	21	5014
2026-01-27 11:30:00.26	136.92	13.79	-30.0	-32.9	19.0	6.06e-01	0	43	0	131596288	21	5048
2026-01-27 11:30:03.27	136.73	14.12	-30.0	-33.0	18.8	6.05e-01	0	43	0	136839168	21	5107
2026-01-27 11:30:06.27	136.53	14.44	-29.9	-32.8	19.0	6.05e-01	0	43	0	142606336	21	5032
2026-01-27 11:30:09.27	136.33	14.78	-30.0	-33.0	18.9	6.05e-01	0	43	0	148373504	21	5098
2026-01-27 11:30:12.29	136.12	15.12	-29.8	-32.3	19.4	6.06e-01	0	43	0	154140672	21	4826
2026-01-27 11:30:15.31	135.90	15.46	-29.8	-32.3	19.5	6.06e-01	0	43	0	159907840	21	4826
2026-01-27 11:30:18.32	135.68	15.81	-29.7	-32.2	19.5	6.07e-01	0	43	0	165150720	21	4801
2026-01-27 11:30:21.33	135.46	16.17	-29.8	-32.5	19.2	6.07e-01	0	43	0	170917888	21	4916
2026-01-27 11:30:24.32	135.23	16.53	-30.1	-33.0	19.0	6.06e-01	0	43	0	176685056	21	5071
2026-01-27 11:30:27.33	134.99	16.89	-30.0	-32.7	19.3	6.06e-01	0	43	0	182452224	21	4951
2026-01-27 11:30:30.34	134.75	17.26	-30.0	-32.9	19.2	6.05e-01	0	43	0	187695104	21	5000
2026-01-27 11:30:33.36	134.50	17.64	-30.0	-32.7	19.4	6.07e-01	0	43	0	193462272	21	4930
2026-01-27 11:30:36.39	134.24	18.02	-30.0	-32.8	19.5	6.07e-01	0	43	0	199229440	21	4944
2026-01-27 11:30:39.40	133.97	18.41	-30.0	-32.6	19.5	6.05e-01	0	43	0	204996608	21	4906
2026-01-27 11:30:42.41	133.70	18.81	-29.9	-32.6	19.5	6.06e-01	0	43	0	210239488	21	4889
2026-01-27 11:30:45.42	133.42	19.21	-29.6	-31.8	20.0	6.06e-01	0	43	0	216006656	21	4640
2026-01-27 11:30:48.44	133.13	19.62	-29.7	-32.0	20.0	6.07e-01	0	43	0	221773824	21	4660
2026-01-27 11:30:51.45	132.83	20.03	-29.9	-32.5	19.7	6.05e-01	0	43	0	227540992	21	4837
2026-01-27 11:30:54.45	132.53	20.45	-30.1	-32.9	19.4	6.06e-01	0	43	0	233308160	21	4996
2026-01-27 11:30:57.45	132.22	20.88	-30.1	-33.0	19.4	6.06e-01	0	44	0	238551040	21	5049
2026-01-27 11:31:00.46	131.89	21.31	-30.0	-32.8	19.6	6.05e-01	0	43	0	244318208	21	4958
2026-01-27 11:31:03.47	131.56	21.76	-30.0	-32.6	19.7	6.08e-01	0	43	0	250085376	21	4866
2026-01-27 11:31:06.49	131.21	22.21	-30.1	-32.8	19.6	6.07e-01	0	43	0	255852544	21	4949
2026-01-27 11:31:09.50	130.85	22.66	-30.1	-33.0	19.5	6.05e-01	0	44	0	261095424	21	5026
2026-01-27 11:31:12.51	130.49	23.13	-30.3	-33.5	19.3	6.06e-01	0	44	0	266862592	21	5171
2026-01-27 11:31:15.52	130.11	23.60	-30.3	-33.5	19.3	6.06e-01	0	43	0	272629760	21	5179
2026-01-27 11:31:18.53	129.72	24.09	-30.1	-32.9	19.7	6.09e-01	0	43	0	278396928	21	4965
2026-01-27 11:31:21.55	129.31	24.58	-30.1	-32.9	19.7	6.06e-01	0	44	0	283639808	21	4974
2026-01-27 11:31:24.56	128.89	25.08	-30.2	-33.2	19.5	6.09e-01	0	44	0	289406976	21	5055
2026-01-27 11:31:27.58	128.46	25.58	-29.8	-32.1	20.2	6.07e-01	0	44	0	295174144	21	4695
2026-01-27 11:31:30.59	128.01	26.10	-29.9	-32.4	20.1	6.09e-01	0	43	0	300941312	21	4777
2026-01-27 11:31:33.61	127.54	26.63	-30.1	-32.9	19.8	6.09e-01	0	44	0	306708480	21	4949
2026-01-27 11:31:36.62	127.06	27.16	-30.0	-32.5	20.0	6.07e-01	0	44	0	311951360	21	4813
2026-01-27 11:31:39.63	126.56	27.70	-29.9	-32.4	20.1	6.06e-01	0	44	0	317718528	21	4759
2026-01-27 11:31:42.63	126.05	28.26	-29.8	-32.0	20.4	6.07e-01	0	43	0	323485696	21	4636
2026-01-27 11:31:45.64	125.51	28.82	-29.9	-32.2	20.3	6.06e-01	0	43	0	329252864	21	4710
2026-01-27 11:31:48.64	124.96	29.39	-30.0	-32.5	20.1	6.06e-01	0	44	0	334495744	21	4807
2026-01-27 11:31:51.64	124.38	29.96	-29.6	-31.5	20.7	6.07e-01	0	44	0	340262912	21	4497
2026-01-27 11:31:54.66	123.78	30.56	-29.4	-31.1	21.0	6.03e-01	0	44	0	346030080	21	4360
2026-01-27 11:31:57.67	123.16	31.16	-29.7	-31.8	20.6	6.06e-01	0	44	0	351797248	21	4576
2026-01-27 11:32:00.67	122.51	31.76	-29.7	-31.8	20.6	6.06e-01	0	44	0	357040128	21	4572
2026-01-27 11:32:03.69	121.84	32.38	-29.7	-31.8	20.6	6.06e-01	0	44	0	362807296	21	4584
2026-01-27 11:32:06.69	121.14	33.01	-29.6	-31.6	20.7	6.07e-01	0	44	0	368574464	21	4503
2026-01-27 11:32:09.71	120.41	33.65	-30.2	-33.0	19.9	6.07e-01	0	43	0	374341632	21	4959
2026-01-27 11:32:12.73	119.65	34.30	-30.0	-32.5	20.2	6.07e-01	0	44	0	380108800	21	4784
2026-01-27 11:32:15.74	118.85	34.95	-30.3	-33.2	19.8	6.07e-01	0	44	0	385351680	21	5044
2026-01-27 11:32:18.74	118.03	35.61	-30.6	-33.5	19.4	6.07e-01	0	44	0	391118848	22	5020
2026-01-27 11:32:21.74	117.17	36.28	-30.6	-33.4	19.5	6.08e-01	0	44	0	396886016	22	4969
2026-01-27 11:32:24.75	116.27	36.96	-31.1	-34.3	18.6	6.05e-01	0	44	0	402653184	23	5210
2026-01-27 11:32:27.76	115.34	37.64	-31.2	-34.6	18.5	6.05e-01	0	44	0	407896064	23	5297
2026-01-27 11:32:30.77	114.36	38.33	-31.6	-35.6	17.8	6.06e-01	0	44	0	413663232	23	5729
2026-01-27 11:32:33.78	113.33	39.02	-31.7	-35.4	17.7	6.06e-01	0	44	0	419430400	24	5517
2026-01-27 11:32:36.79	112.26	39.72	-31.4	-34.6	18.2	6.08e-01	0	44	0	425197568	24	5185
2026-01-27 11:32:39.79	111.15	40.42	-31.6	-35.2	17.8	6.07e-01	0	44	0	430440448	24	5447
2026-01-27 11:32:42.79	109.99	41.13	-31.3	-34.2	18.5	6.05e-01	0	44	0	436207616	24	5038
2026-01-27 11:32:45.81	108.76	41.83	-31.2	-33.9	18.7	6.05e-01	0	44	0	441974784	24	4912
2026-01-27 11:32:48.81	107.49	42.53	-31.3	-34.3	18.4	6.06e-01	0	44	0	447741952	24	5077
2026-01-27 11:32:51.83	106.15	43.24	-30.9	-33.2	19.1	6.06e-01	0	44	0	452984832	24	4698
2026-01-27 11:32:54.83	104.76	43.93	-30.9	-33.3	19.0	6.05e-01	0	44	0	458752000	24	4710
2026-01-27 11:32:57.83	103.30	44.62	-30.9	-33.6	19.2	6.08e-01	0	44	0	464519168	23	4911
2026-01-27 11:33:00.83	101.79	45.30	-30.9	-33.7	19.1	6.08e-01	0	44	0	470286336	23	4974
2026-01-27 11:33:03.84	100.20	45.96	-31.2	-34.3	18.8	6.06e-01	0	44	0	475529216	23	5185
2026-01-27 11:33:06.85	98.54	46.62	-31.2	-34.4	18.8	6.06e-01	0	43	0	481296384	23	5195
2026-01-27 11:33:09.85	96.81	47.26	-31.1	-34.3	18.8	6.08e-01	0	44	0	487063552	23	5163
2026-01-27 11:33:12.86	95.01	47.88	-31.1	-34.2	18.9	6.05e-01	0	44	0	492830720	23	5121
2026-01-27 11:33:15.88	93.12	48.47	-31.0	-33.8	19.2	6.07e-01	0	44	0	498073600	23	4987
2026-01-27 11:33:18.90	91.17	49.04	-31.1	-34.2	18.9	6.05e-01	0	44	0	503840768	23	5146
2026-01-27 11:33:21.90	89.15	49.58	-31.2	-34.4	18.8	6.07e-01	0	44	0	509607936	23	5220
2026-01-27 11:33:24.90	87.07	50.09	-31.4	-35.1	18.4	6.08e-01	0	44	0	515375104	23	5470
2026-01-27 11:33:27.90	84.91	50.56	-31.1	-34.0	19.1	6.04e-01	0	44	0	520617984	23	5053
2026-01-27 11:33:30.92	82.67	50.99	-31.1	-34.2	19.0	6.06e-01	0	44	0	526385152	23	5120
2026-01-27 11:33:33.92	80.39	51.38	-30.9	-43.0	3.8	7.44e-01	0	44	104	526909440	23	14499
2026-01-27 11:33:36.93	78.04	51.72	-31.3	-44.0	3.8	7.47e-01	0	44	104	526909440	23	15558
2026-01-27 11:33:39.95	75.63	52.02	-31.7	-44.5	3.8	7.43e-01	0	44	104	526909440	24	15686
2026-01-27 11:33:42.96	73.19	52.26	-31.9	-44.4	3.7	7.47e-01	0	44	104	526909440	25	15106
2026-01-27 11:33:45.96	70.71	52.45	-32.0	-44.6	3.7	7.49e-01	0	44	104	526909440	25	15425
2026-01-27 11:33:48.98	68.20	52.58	-33.2	-47.3	3.8	7.45e-01	0	44	104	526909440	27	18278
2026-01-27 11:33:51.99	65.67	52.66	-33.7	-49.1	3.8	7.45e-01	0	44	104	526909440	28	21088
2026-01-27 11:33:55.00	63.14	52.68	-33.9	-49.4	3.8	7.44e-01	0	44	104	526909440	28	21575
2026-01-27 11:33:58.02	60.60	52.65	-34.0	-50.2	3.8	7.46e-01	0	44	104	526909440	28	23099
2026-01-27 11:34:01.03	58.07	52.55	-34.0	-49.6	3.8	7.45e-01	0	44	104	526909440	29	21760
2026-01-27 11:34:04.05	55.57	52.40	-33.9	-49.2	3.8	7.42e-01	0	44	104	526909440	29	20917
2026-01-27 11:34:07.06	53.10	52.20	-34.1	-49.7	3.8	7.43e-01	0	44	104	526909440	29	21858
2026-01-27 11:34:10.08	50.66	51.94	-33.5	-47.9	3.8	7.45e-01	0	44	104	526909440	29	18776
2026-01-27 11:34:13.10	48.26	51.63	-32.9	-46.3	3.8	7.46e-01	0	44	104	526909440	27	16980
2026-01-27 11:34:16.12	45.93	51.28	-32.3	-45.0	3.8	7.48e-01	0	44	104	526909440	26	15618
2026-01-27 11:34:19.13	43.66	50.87	-30.8	-42.5	3.8	7.45e-01	0	44	104	526909440	23	13844
2026-01-27 11:34:22.14	41.45	50.43	-30.2	-41.6	3.8	7.45e-01	0	44	104	526909440	22	13304
2026-01-27 11:34:25.16	39.30	49.95	-30.3	-42.0	3.8	7.42e-01	0	44	104	526909440	22	13882
2026-01-27 11:34:28.17	37.23	49.43	-30.9	-43.5	3.8	7.43e-01	0	44	104	526909440	22	15371
2026-01-27 11:34:31.19	35.23	48.88	-30.7	-42.6	3.8	7.47e-01	0	44	104	526909440	22	14192
2026-01-27 11:34:34.19	33.31	48.31	-31.2	-43.6	3.8	7.41e-01	0	44	104	526909440	23	14979
2026-01-27 11:34:37.22	31.45	47.71	-32.3	-45.9	3.8	7.46e-01	0	44	104	526909440	25	17093
2026-01-27 11:34:40.22	29.67	47.08	-33.4	-48.3	3.8	7.46e-01	0	44	104	526909440	27	20004
2026-01-27 11:34:43.23	27.97	46.44	-33.7	-49.1	3.8	7.40e-01	0	44	104	526909440	28	20977
2026-01-27 11:34:46.24	26.33	45.79	-34.0	-50.3	3.8	7.47e-01	0	44	104	526909440	28	23476
2026-01-27 11:34:49.25	24.77	45.12	-34.2	-50.7	3.8	7.49e-01	0	44	104	526909440	29	24162
2026-01-27 11:34:52.27	23.26	44.43	-33.9	-49.5	3.8	7.41e-01	0	44	104	526909440	29	21580
2026-01-27 11:34:55.28	21.82	43.74	-33.9	-49.3	3.8	7.46e-01	0	44	104	526909440	29	21218
2026-01-27 11:34:58.29	20.45	43.05	-33.5	-47.9	3.8	7.44e-01	0	44	104	526909440	29	18869
2026-01-27 11:35:01.30	19.14	42.35	-32.9	-46.4	3.8	7.45e-01	0	44	104	526909440	28	16937
2026-01-27 11:35:04.31	17.88	41.65	-32.6	-45.3	3.8	7.45e-01	0	44	104	526909440	27	15698
2026-01-27 11:35:07.32	16.68	40.95	-32.1	-44.8	3.8	7.47e-01	0	44	104	526909440	26	15632
2026-01-27 11:35:10.34	15.53	40.24	-31.2	-43.4	3.8	7.44e-01	0	44	104	526909440	24	14761
2026-01-27 11:35:13.36	14.43	39.54	-31.1	-43.2	3.8	7.44e-01	0	44	104	526909440	24	14435
2026-01-27 11:35:16.37	13.37	38.85	-31.1	-43.0	3.8	7.44e-01	0	44	104	526909440	24	14268
2026-01-27 11:35:19.38	12.37	38.16	-31.4	-43.6	3.8	7.43e-01	0	44	104	526909440	24	14690
2026-01-27 11:35:22.40	11.40	37.47	-32.3	-45.5	3.8	7.43e-01	0	44	104	526909440	25	16489
2026-01-27 11:35:25.43	10.47	36.79	-33.4	-48.4	3.8	7.47e-01	0	44	104	526909440	27	20240
2026-01-27 11:35:28.44	9.59	36.12	-33.6	-48.9	3.8	7.45e-01	0	44	104	526909440	28	20970
2026-01-27 11:35:31.46	8.74	35.45	-33.9	-50.3	3.8	7.45e-01	0	44	104	526909440	28	23631
2026-01-27 11:35:34.46	7.93	34.79	-34.1	-50.5	3.8	7.44e-01	0	44	104	526909440	29	23657
2026-01-27 11:35:37.48	7.15	34.14	-34.2	-51.0	3.8	7.47e-01	0	44	104	526909440	29	25004
2026-01-27 11:35:40.49	6.40	33.50	-34.1	-50.9	3.8	7.44e-01	0	44	104	526909440	29	24847
2026-01-27 11:35:43.51	5.68	32.87	-33.8	-49.4	3.8	7.41e-01	0	44	104	526909440	29	21611
2026-01-27 11:35:46.52	4.99	32.25	-33.4	-47.8	3.8	7.44e-01	0	44	104	526909440	29	18911
2026-01-27 11:35:49.55	4.33	31.63	-32.6	-45.7	3.8	7.42e-01	0	44	104	526909440	27	16231
2026-01-27 11:35:52.56	3.69	31.03	-31.8	-44.5	3.8	7.45e-01	0	44	104	526909440	25	15534
2026-01-27 11:35:55.57	3.08	30.43	-31.4	-43.4	3.8	7.45e-01	0	44	104	526909440	25	14342
2026-01-27 11:35:58.59	2.49	29.85	-30.4	-42.1	3.8	7.44e-01	0	44	104	526909440	22	13969
2026-01-27 11:36:01.61	1.92	29.27	-30.4	-42.6	3.9	7.45e-01	0	44	104	526909440	22	14512
2026-01-27 11:36:04.62	1.37	28.71	-30.8	-43.4	3.8	7.45e-01	0	44	104	526909440	22	15396
2026-01-27 11:36:07.63	0.85	28.15	-30.8	-43.4	3.8	7.42e-01	0	44	104	526909440	22	15387
2026-01-27 11:36:10.65	0.34	27.60	-31.9	-45.5	3.8	7.46e-01	0	44	104	526909440	24	17138
2026-01-27 11:36:13.65	359.85	27.06	-33.2	-47.8	3.8	7.47e-01	0	44	104	526909440	27	19338
2026-01-27 11:36:16.66	359.37	26.54	-33.5	-49.3	3.8	7.47e-01	0	44	104	526909440	27	21988
2026-01-27 11:36:19.67	358.92	26.02	-33.7	-49.8	3.8	7.46e-01	0	44	104	526909440	28	23053
2026-01-27 11:36:22.67	358.48	25.51	-33.9	-50.8	3.8	7.44e-01	0	44	104	526909440	28	25251
2026-01-27 11:36:25.68	358.05	25.01	-33.9	-50.6	3.8	7.48e-01	0	44	104	526909440	28	24630
2026-01-27 11:36:28.70	357.64	24.51	-34.0	-51.2	3.8	7.49e-01	0	44	104	526909440	28	26048
2026-01-27 11:36:31.72	357.24	24.02	-33.8	-50.0	3.8	7.45e-01	0	44	104	526909440	28	23268
2026-01-27 11:36:34.73	356.85	23.55	-33.4	-48.6	3.8	7.47e-01	0	44	104	526909440	28	20719
2026-01-27 11:36:37.74	356.48	23.08	-32.8	-46.8	3.8	7.45e-01	0	44	104	526909440	27	18033
2026-01-27 11:36:40.76	356.12	22.61	-31.9	-44.4	3.8	7.42e-01	0	44	104	526909440	26	15164
2026-01-27 11:36:43.77	355.77	22.16	-31.3	-43.8	3.8	7.45e-01	0	44	104	526909440	24	15194
2026-01-27 11:36:46.79	355.43	21.71	-31.1	-43.3	3.8	7.45e-01	0	44	104	526909440	24	14601
2026-01-27 11:36:49.80	355.10	21.28	-31.2	-44.0	3.8	7.43e-01	0	44	104	526909440	23	15657
2026-01-27 11:36:52.81	354.78	20.84	-32.2	-45.7	3.8	7.44e-01	0	44	104	526909440	25	17120
2026-01-27 11:36:55.83	354.47	20.42	-32.1	-45.7	3.8	7.46e-01	0	44	104	526909440	25	17170
2026-01-27 11:36:58.85	354.17	20.00	-32.4	-46.6	3.8	7.45e-01	0	44	104	526909440	25	18383
2026-01-27 11:37:01.86	353.87	19.59	-33.4	-49.0	3.8	7.44e-01	0	44	104	526909440	27	21600
2026-01-27 11:37:04.86	353.59	19.19	-33.6	-49.8	3.8	7.44e-01	0	44	104	526909440	28	23129
2026-01-27 11:37:07.88	353.32	18.79	-33.7	-49.9	3.8	7.42e-01	0	44	104	526909440	28	23290
2026-01-27 11:37:10.90	353.05	18.40	-33.8	-50.8	3.8	7.45e-01	0	44	104	526909440	28	25443
2026-01-27 11:37:13.91	352.79	18.01	-33.8	-50.7	3.8	7.41e-01	0	44	104	526909440	28	25141
2026-01-27 11:37:16.93	352.53	17.63	-33.5	-49.4	3.8	7.41e-01	0	44	104	526909440	28	22385
2026-01-27 11:37:19.95	352.29	17.26	-33.6	-49.9	3.8	7.44e-01	0	44	104	526909440	28	23485
2026-01-27 11:37:22.97	352.05	16.89	-33.3	-48.5	3.8	7.44e-01	0	44	104	526909440	28	20683
2026-01-27 11:37:25.98	351.81	16.53	-32.6	-46.5	3.8	7.50e-01	0	44	104	526909440	27	17762
2026-01-27 11:37:28.99	351.59	16.17	-31.7	-44.4	3.9	7.42e-01	0	44	104	526909440	25	15603
2026-01-27 11:37:31.99	351.37	15.82	-31.0	-43.0	3.8	7.44e-01	0	44	104	526909440	24	14374
2026-01-27 11:37:35.00	351.15	15.47	-30.8	-42.9	3.8	7.46e-01	0	44	104	526909440	23	14521
2026-01-27 11:37:38.02	350.94	15.13	-31.4	-44.6	3.8	7.46e-01	0	44	104	526909440	23	16508
2026-01-27 11:37:41.02	350.74	14.80	-32.5	-47.1	3.8	7.42e-01	0	44	104	526909440	25	19295
2026-01-27 11:37:44.04	350.54	14.46	-33.1	-48.7	3.8	7.44e-01	0	44	104	526909440	26	21629
2026-01-27 11:37:47.05	350.34	14.13	-32.9	-47.9	3.8	7.45e-01	0	44	104	526909440	26	20251
2026-01-27 11:37:50.07	350.15	13.81	-33.3	-49.1	3.8	7.45e-01	0	44	104	526909440	27	22214
2026-01-27 11:37:53.08	349.97	13.49	-33.6	-50.2	3.8	7.43e-01	0	44	104	526909440	27	24462
2026-01-27 11:37:56.10	349.79	13.18	-33.5	-50.2	3.8	7.47e-01	0	44	104	526909440	27	24527
2026-01-27 11:37:59.11	349.61	12.87	-33.6	-50.7	3.8	7.46e-01	0	44	104	526909440	27	25862
2026-01-27 11:38:02.13	349.44	12.56	-33.6	-50.6	3.8	7.44e-01	0	44	104	526909440	28	25494
2026-01-27 11:38:05.14	349.27	12.26	-33.3	-49.5	3.8	7.48e-01	0	44	104	526909440	28	23074
2026-01-27 11:38:08.14	349.11	11.96	-33.2	-48.9	3.8	7.43e-01	0	44	104	526909440	28	21845
2026-01-27 11:38:11.15	348.95	11.67	-33.0	-48.1	3.8	7.46e-01	0	44	104	526909440	28	20461
2026-01-27 11:38:14.17	348.79	11.38	-32.6	-46.8	3.8	7.45e-01	0	44	104	526909440	27	18370
2026-01-27 11:38:17.19	348.63	11.09	-31.7	-44.8	3.8	7.43e-01	0	44	104	526909440	25	16179
2026-01-27 11:38:20.21	348.48	10.80	-32.0	-45.7	3.8	7.43e-01	0	44	104	526909440	25	17401
2026-01-27 11:38:23.23	348.34	10.52	-31.7	-44.7	3.8	7.45e-01	0	44	104	526909440	25	16123
2026-01-27 11:38:26.24	348.19	10.25	-31.8	-45.3	3.8	7.45e-01	0	44	104	526909440	25	16895
2026-01-27 11:38:29.25	348.05	9.97	-32.7	-48.0	3.8	7.43e-01	0	44	104	526909440	26	20852
2026-01-27 11:38:32.26	347.92	9.70	-33.3	-49.9	3.8	7.46e-01	0	44	104	526909440	27	24149
2026-01-27 11:38:35.28	347.78	9.44	-33.3	-50.0	3.8	7.46e-01	0	44	104	526909440	27	24623
2026-01-27 11:38:38.30	347.65	9.17	-33.2	-49.6	3.8	7.46e-01	0	44	104	526909440	27	23892
2026-01-27 11:38:41.32	347.52	8.91	-33.3	-50.1	3.8	7.46e-01	0	44	104	526909440	27	24934
2026-01-27 11:38:44.33	347.40	8.65	-33.3	-50.1	3.8	7.46e-01	0	44	104	526909440	27	24847
2026-01-27 11:38:47.34	347.27	8.39	-33.3	-50.1	3.8	7.47e-01	0	44	104	526909440	27	24823
2026-01-27 11:38:50.36	347.15	8.14	-33.4	-50.6	3.8	7.47e-01	0	44	104	526909440	27	26222
2026-01-27 11:38:53.38	347.03	7.89	-33.2	-50.1	3.8	7.43e-01	0	44	104	526909440	27	25035
2026-01-27 11:38:56.39	346.92	7.64	-32.9	-48.4	3.8	7.47e-01	0	44	104	526909440	27	21430
2026-01-27 11:38:59.40	346.80	7.40	-32.9	-48.8	3.8	7.45e-01	0	44	104	526909440	27	22261
2026-01-27 11:39:02.41	346.69	7.15	-32.5	-46.9	3.8	7.45e-01	0	44	104	526909440	27	18971

#Closed at: 2026-01-27 11:39:04
#Recorded file [526 MB]: D:/data/31010_260127_142849.dat