passes_logs/2026/01/27/R2M6_AANII_01/R2M6_AANII_01__20260127_050818_FENGYUN_3D_rec.log

#Pass ID: 20260127_050818_FENGYUN 3D
#Satellite: FENGYUN 3D
#Configuration: FENGYUN 3D
#almurnet v.1.7.20240730
#Start time: 2026-01-27 05:08:19

#Version: 2.2.20231116
#Station: R2M6_AANII_01
#Location: 30.233357 lon 59.946436 lat
#TLE: 1 43010U 17072A   26026.91415486  .00000072  00000+0  55983-4 0  9991
#TLE: 2 43010  98.9962 358.9161 0002508  89.0320 271.1142 14.19700283424949

#Time	Az	El	Level	Level2	SNR	BER	BlckErr	Temp	State	Recorded	gain1	gain2
2026-01-27 05:08:19.16	8.88	7.03	-31.6	-36.4	4.6	8.13e-01	0	40	0	0	24	6251
2026-01-27 05:08:21.16	8.65	7.13	-31.2	-35.7	7.4	9.73e-02	0	40	0	0	22	6060
2026-01-27 05:08:23.17	8.41	7.24	-31.2	-35.8	7.3	9.80e-02	0	40	0	11534336	22	6103
2026-01-27 05:08:25.18	8.16	7.34	-31.4	-36.2	7.1	1.16e-01	0	40	0	22020096	22	6278
2026-01-27 05:08:27.18	7.92	7.45	-31.2	-35.1	7.5	1.10e-01	0	41	0	33554432	23	5650
2026-01-27 05:08:29.19	7.68	7.55	-30.2	-33.0	9.6	1.42e-02	0	41	0	45088768	21	4972
2026-01-27 05:08:31.19	7.43	7.66	-29.2	-31.3	11.5	9.21e-04	0	41	0	55574528	19	4593
2026-01-27 05:08:33.20	7.18	7.76	-28.4	-29.8	12.8	4.34e-05	0	41	0	67108864	18	4247
2026-01-27 05:08:35.21	6.93	7.87	-27.8	-28.9	13.7	4.50e-06	0	41	0	78643200	17	4104
2026-01-27 05:08:37.21	6.68	7.97	-27.5	-28.8	14.1	0.00e+00	0	41	0	90177536	16	4153
2026-01-27 05:08:39.21	6.43	8.08	-27.6	-29.0	14.0	1.10e-06	0	41	0	100663296	16	4206
2026-01-27 05:08:41.21	6.17	8.18	-27.7	-29.1	13.9	3.40e-06	0	41	0	112197632	16	4248
2026-01-27 05:08:43.22	5.91	8.29	-27.7	-29.2	13.9	1.11e-04	0	41	0	123731968	16	4286
2026-01-27 05:08:45.23	5.65	8.39	-27.6	-28.8	14.1	2.20e-06	0	41	0	135266304	16	4166
2026-01-27 05:08:47.24	5.39	8.50	-27.5	-29.2	14.0	1.10e-06	0	41	0	146800640	15	4387
2026-01-27 05:08:49.24	5.13	8.60	-27.4	-29.0	14.2	0.00e+00	0	41	0	157286400	15	4334
2026-01-27 05:08:51.25	4.86	8.70	-27.4	-29.0	14.2	2.20e-06	0	41	0	168820736	15	4334
2026-01-27 05:08:53.26	4.59	8.81	-27.4	-29.0	14.2	1.10e-06	0	41	0	180355072	15	4326
2026-01-27 05:08:55.27	4.32	8.91	-27.4	-28.9	14.2	0.00e+00	0	41	0	191889408	15	4317
2026-01-27 05:08:57.27	4.05	9.02	-27.3	-28.7	14.3	1.10e-06	0	41	0	202375168	15	4250
2026-01-27 05:08:59.27	3.78	9.12	-27.2	-28.5	14.5	0.00e+00	0	41	0	213909504	15	4199
2026-01-27 05:09:01.28	3.50	9.22	-27.0	-28.1	14.8	2.20e-06	0	41	0	225443840	15	4092
2026-01-27 05:09:03.29	3.22	9.33	-27.1	-28.4	14.6	0.00e+00	0	41	0	236978176	15	4160
2026-01-27 05:09:05.30	2.94	9.43	-27.4	-28.9	14.3	6.80e-06	0	42	0	247463936	15	4311
2026-01-27 05:09:07.31	2.66	9.53	-27.2	-29.0	14.5	1.60e-05	0	42	0	258998272	14	4440
2026-01-27 05:09:09.32	2.38	9.63	-27.3	-29.2	14.4	0.00e+00	0	42	0	270532608	14	4503
2026-01-27 05:09:11.33	2.09	9.74	-27.2	-29.0	14.5	0.00e+00	0	42	0	282066944	14	4450
2026-01-27 05:09:13.34	1.80	9.84	-27.0	-28.7	14.8	1.10e-06	0	42	0	293601280	14	4350
2026-01-27 05:09:15.35	1.51	9.94	-27.0	-28.7	14.8	1.10e-06	0	42	0	304087040	14	4338
2026-01-27 05:09:17.35	1.22	10.04	-27.0	-28.5	14.9	0.00e+00	0	42	0	315621376	14	4294
2026-01-27 05:09:19.37	0.92	10.14	-26.9	-28.4	14.9	0.00e+00	0	42	0	327155712	14	4263
2026-01-27 05:09:21.37	0.63	10.24	-27.0	-28.7	14.8	0.00e+00	0	42	0	338690048	14	4354
2026-01-27 05:09:23.39	0.33	10.34	-26.8	-28.2	15.0	0.00e+00	0	42	0	349175808	14	4222
2026-01-27 05:09:25.39	0.03	10.44	-26.9	-28.3	15.0	0.00e+00	0	42	0	360710144	14	4234
2026-01-27 05:09:27.40	359.73	10.54	-26.8	-28.1	15.1	0.00e+00	0	42	0	372244480	14	4197
2026-01-27 05:09:29.41	359.42	10.64	-26.6	-27.7	15.4	0.00e+00	0	42	0	383778816	14	4078
2026-01-27 05:09:31.42	359.11	10.74	-26.6	-28.1	15.4	0.00e+00	0	42	0	395313152	13	4287
2026-01-27 05:09:33.42	358.81	10.84	-26.6	-28.1	15.4	0.00e+00	0	42	0	405798912	13	4287
2026-01-27 05:09:35.42	358.50	10.93	-26.6	-28.2	15.3	2.20e-06	0	42	0	417333248	13	4322
2026-01-27 05:09:37.42	358.18	11.03	-26.7	-28.5	15.2	0.00e+00	0	42	0	428867584	13	4399
2026-01-27 05:09:39.43	357.87	11.13	-26.7	-28.5	15.2	0.00e+00	0	42	0	440401920	13	4404
2026-01-27 05:09:41.44	357.55	11.22	-26.6	-28.1	15.4	0.00e+00	0	42	0	450887680	13	4296
2026-01-27 05:09:43.45	357.23	11.32	-26.5	-27.9	15.5	0.00e+00	0	42	0	462422016	13	4246
2026-01-27 05:09:45.46	356.91	11.42	-26.5	-27.8	15.6	0.00e+00	0	42	0	473956352	13	4218
2026-01-27 05:09:47.47	356.58	11.51	-26.5	-27.9	15.5	0.00e+00	0	42	0	485490688	13	4237
2026-01-27 05:09:49.46	356.26	11.60	-26.4	-27.8	15.6	2.02e-04	0	42	0	495976448	13	4209
2026-01-27 05:09:51.46	355.93	11.70	-26.5	-27.9	15.6	0.00e+00	0	42	0	507510784	13	4231
2026-01-27 05:09:53.46	355.60	11.79	-26.3	-27.6	15.8	0.00e+00	0	42	0	519045120	13	4145
2026-01-27 05:09:55.48	355.27	11.88	-26.3	-28.0	15.8	0.00e+00	0	42	0	530579456	12	4380
2026-01-27 05:09:57.49	354.94	11.98	-26.3	-28.0	15.8	2.97e-04	0	42	0	541065216	12	4373
2026-01-27 05:09:59.50	354.60	12.07	-26.3	-28.1	15.7	0.00e+00	0	42	0	552599552	12	4392
2026-01-27 05:10:01.51	354.26	12.16	-26.3	-28.0	15.8	2.30e-04	0	42	0	564133888	12	4386
2026-01-27 05:10:03.51	353.92	12.25	-26.3	-27.9	15.9	1.99e-04	0	43	0	575668224	12	4340
2026-01-27 05:10:05.52	353.58	12.34	-26.2	-27.8	15.9	0.00e+00	0	42	0	587202560	12	4328
2026-01-27 05:10:07.53	353.23	12.43	-26.2	-27.9	15.9	0.00e+00	0	42	0	597688320	12	4335
2026-01-27 05:10:09.54	352.88	12.51	-26.4	-28.1	15.7	0.00e+00	0	42	0	609222656	12	4413
2026-01-27 05:10:11.54	352.53	12.60	-26.4	-28.2	15.7	0.00e+00	0	42	0	620756992	12	4439
2026-01-27 05:10:13.56	352.18	12.69	-26.3	-27.9	15.9	2.46e-04	0	42	0	632291328	12	4354
2026-01-27 05:10:15.57	351.83	12.77	-26.2	-27.7	16.0	2.54e-04	0	42	0	642777088	12	4300
2026-01-27 05:10:17.58	351.47	12.86	-26.1	-27.5	16.1	0.00e+00	0	42	0	654311424	12	4235
2026-01-27 05:10:19.58	351.11	12.94	-26.1	-27.5	16.1	0.00e+00	0	42	0	665845760	12	4235
2026-01-27 05:10:21.60	350.75	13.03	-26.2	-27.7	16.0	0.00e+00	0	42	0	677380096	12	4293
2026-01-27 05:10:23.60	350.39	13.11	-26.3	-28.0	15.8	0.00e+00	0	42	0	687865856	12	4379
2026-01-27 05:10:25.60	350.03	13.19	-26.4	-28.1	15.8	0.00e+00	0	42	0	699400192	12	4411
2026-01-27 05:10:27.61	349.66	13.27	-26.3	-27.9	15.9	1.10e-06	0	42	0	710934528	12	4348
2026-01-27 05:10:29.63	349.29	13.35	-26.2	-27.8	16.0	0.00e+00	0	43	0	722468864	12	4325
2026-01-27 05:10:31.64	348.92	13.43	-26.1	-27.5	16.1	2.20e-06	0	42	0	734003200	12	4246
2026-01-27 05:10:33.64	348.55	13.51	-26.0	-27.3	16.3	1.10e-06	0	42	0	744488960	12	4184
2026-01-27 05:10:35.65	348.18	13.59	-25.8	-27.0	16.4	1.10e-06	0	42	0	756023296	12	4105
2026-01-27 05:10:37.66	347.80	13.66	-25.9	-27.0	16.4	0.00e+00	0	42	0	767557632	12	4120
2026-01-27 05:10:39.66	347.42	13.74	-25.9	-27.0	16.4	0.00e+00	0	42	0	778043392	12	4105
2026-01-27 05:10:41.67	347.04	13.81	-26.0	-27.2	16.3	1.10e-06	0	42	0	789577728	12	4170
2026-01-27 05:10:43.67	346.66	13.88	-25.8	-27.3	16.6	0.00e+00	0	42	0	801112064	11	4288
2026-01-27 05:10:45.68	346.28	13.96	-25.6	-26.9	16.8	0.00e+00	0	42	0	812646400	11	4175
2026-01-27 05:10:47.68	345.89	14.03	-25.5	-26.8	16.9	1.10e-06	0	43	0	824180736	11	4166
2026-01-27 05:10:49.68	345.51	14.10	-25.6	-27.0	16.8	1.10e-06	0	42	0	834666496	11	4211
2026-01-27 05:10:51.69	345.12	14.17	-25.8	-27.4	16.6	0.00e+00	0	42	0	846200832	11	4315
2026-01-27 05:10:53.70	344.72	14.23	-25.7	-27.1	16.7	0.00e+00	0	43	0	857735168	11	4247
2026-01-27 05:10:55.70	344.33	14.30	-25.6	-26.9	16.8	0.00e+00	0	42	0	869269504	11	4183
2026-01-27 05:10:57.71	343.94	14.37	-25.6	-26.9	16.9	0.00e+00	0	42	0	879755264	11	4186
2026-01-27 05:10:59.71	343.54	14.43	-25.7	-27.2	16.6	0.00e+00	0	42	0	891289600	11	4277
2026-01-27 05:11:01.72	343.14	14.49	-25.7	-27.2	16.7	0.00e+00	0	42	0	902823936	11	4266
2026-01-27 05:11:03.73	342.74	14.55	-25.8	-27.3	16.6	0.00e+00	0	43	0	914358272	11	4292
2026-01-27 05:11:05.74	342.34	14.61	-25.6	-27.0	16.8	0.00e+00	0	43	0	924844032	11	4205
2026-01-27 05:11:07.74	341.94	14.67	-25.7	-27.2	16.7	0.00e+00	0	42	0	936378368	11	4274
2026-01-27 05:11:09.75	341.53	14.73	-25.8	-27.4	15.9	0.00e+00	0	43	0	947912704	11	4316
2026-01-27 05:11:11.76	341.13	14.79	-25.7	-27.2	16.7	0.00e+00	0	43	0	959447040	11	4260
2026-01-27 05:11:13.77	340.72	14.84	-25.6	-27.0	16.8	0.00e+00	0	43	0	970981376	11	4214
2026-01-27 05:11:15.77	340.31	14.90	-25.7	-27.0	16.7	0.00e+00	0	43	0	981467136	11	4229
2026-01-27 05:11:17.78	339.90	14.95	-25.6	-27.0	16.8	0.00e+00	0	43	0	993001472	11	4219
2026-01-27 05:11:19.79	339.49	15.00	-25.6	-26.9	16.8	0.00e+00	0	43	0	1004535808	11	4193
2026-01-27 05:11:21.80	339.07	15.05	-25.4	-26.4	17.1	1.69e-04	0	42	0	1016070144	11	4064
2026-01-27 05:11:23.81	338.65	15.10	-25.3	-26.3	17.1	0.00e+00	0	43	0	1026555904	11	4040
2026-01-27 05:11:25.81	338.24	15.15	-25.3	-26.8	17.2	0.00e+00	0	43	0	1038090240	10	4266
2026-01-27 05:11:27.82	337.82	15.19	-25.5	-27.1	16.9	0.00e+00	0	43	0	1049624576	10	4365
2026-01-27 05:11:29.83	337.40	15.24	-25.6	-27.0	16.8	0.00e+00	0	42	0	1061158912	11	4208
2026-01-27 05:11:31.84	336.98	15.28	-25.4	-26.5	17.0	0.00e+00	0	43	0	1072693248	11	4086
2026-01-27 05:11:33.84	336.56	15.32	-25.4	-26.5	17.1	5.95e-05	0	43	0	1083179008	11	4079
2026-01-27 05:11:35.85	336.14	15.36	-25.5	-26.6	16.9	2.52e-04	0	43	0	1094713344	11	4122
2026-01-27 05:11:37.86	335.71	15.40	-25.5	-27.1	17.0	0.00e+00	0	43	0	1106247680	10	4356
2026-01-27 05:11:39.86	335.29	15.43	-25.2	-26.5	17.3	0.00e+00	0	43	0	1116733440	10	4208
2026-01-27 05:11:41.85	334.87	15.47	-25.4	-27.0	17.0	2.01e-04	0	42	0	1128267776	10	4334
2026-01-27 05:11:43.86	334.44	15.50	-25.6	-27.0	16.7	0.00e+00	0	43	0	1139802112	11	4219
2026-01-27 05:11:45.86	334.01	15.53	-25.6	-27.0	16.7	6.63e-05	0	42	0	1151336448	11	4223
2026-01-27 05:11:47.87	333.58	15.56	-25.2	-26.0	17.3	2.24e-04	0	43	0	1162870784	11	3969
2026-01-27 05:11:49.88	333.15	15.59	-25.2	-26.0	17.3	0.00e+00	0	43	0	1173356544	11	3969
2026-01-27 05:11:51.89	332.72	15.62	-25.0	-26.1	17.5	0.00e+00	0	43	0	1184890880	10	4108
2026-01-27 05:11:53.89	332.29	15.64	-25.2	-26.5	17.3	0.00e+00	0	43	0	1196425216	10	4193
2026-01-27 05:11:55.90	331.86	15.67	-24.9	-25.9	17.6	1.10e-06	0	43	0	1207959552	10	4042
2026-01-27 05:11:57.90	331.42	15.69	-24.9	-26.5	17.5	0.00e+00	0	43	0	1219493888	9	4314
2026-01-27 05:11:59.91	330.99	15.71	-25.1	-26.4	17.3	0.00e+00	0	43	0	1229979648	10	4177
2026-01-27 05:12:01.91	330.56	15.73	-25.2	-26.5	17.3	0.00e+00	0	43	0	1241513984	10	4194
2026-01-27 05:12:03.93	330.12	15.75	-25.1	-26.3	17.4	0.00e+00	0	43	0	1253048320	10	4152
2026-01-27 05:12:05.93	329.69	15.76	-25.2	-26.5	17.2	0.00e+00	0	43	0	1263534080	10	4199
2026-01-27 05:12:07.94	329.25	15.78	-25.0	-26.2	17.4	0.00e+00	0	43	0	1275068416	10	4128
2026-01-27 05:12:09.95	328.81	15.79	-25.2	-26.5	17.2	0.00e+00	0	43	0	1286602752	10	4203
2026-01-27 05:12:11.96	328.38	15.80	-25.1	-26.3	17.3	0.00e+00	0	42	0	1298137088	10	4146
2026-01-27 05:12:13.96	327.94	15.81	-25.0	-26.2	17.4	0.00e+00	0	43	0	1309671424	10	4110
2026-01-27 05:12:15.97	327.50	15.82	-25.1	-26.4	17.3	0.00e+00	0	42	0	1320157184	10	4162
2026-01-27 05:12:17.97	327.07	15.82	-25.0	-26.2	17.4	0.00e+00	0	43	0	1331691520	10	4124
2026-01-27 05:12:19.98	326.63	15.83	-25.1	-26.4	17.3	0.00e+00	0	43	0	1343225856	10	4168
2026-01-27 05:12:21.98	326.20	15.83	-25.1	-26.3	17.3	0.00e+00	0	43	0	1354760192	10	4152
2026-01-27 05:12:23.99	325.76	15.83	-24.9	-26.0	17.5	0.00e+00	0	43	0	1365245952	10	4068
2026-01-27 05:12:26.00	325.32	15.83	-25.1	-26.3	17.3	0.00e+00	0	43	0	1376780288	10	4140
2026-01-27 05:12:28.01	324.88	15.82	-25.1	-26.4	17.3	0.00e+00	0	43	0	1388314624	10	4186
2026-01-27 05:12:30.01	324.45	15.82	-25.2	-26.7	17.1	0.00e+00	0	43	0	1399848960	10	4245
2026-01-27 05:12:32.03	324.01	15.81	-25.4	-27.1	16.9	0.00e+00	0	43	0	1410334720	10	4349
2026-01-27 05:12:34.03	323.57	15.81	-25.2	-26.5	17.3	0.00e+00	0	43	0	1421869056	10	4189
2026-01-27 05:12:36.04	323.13	15.80	-25.1	-26.4	17.3	0.00e+00	0	43	0	1433403392	10	4170
2026-01-27 05:12:38.04	322.70	15.79	-25.2	-26.5	17.2	0.00e+00	0	43	0	1444937728	10	4194
2026-01-27 05:12:40.05	322.26	15.77	-25.1	-26.3	17.4	0.00e+00	0	43	0	1455423488	10	4142
2026-01-27 05:12:42.06	321.82	15.76	-25.0	-26.1	17.1	0.00e+00	0	43	0	1466957824	10	4098
2026-01-27 05:12:44.06	321.39	15.74	-25.1	-26.3	17.3	0.00e+00	0	43	0	1478492160	10	4140
2026-01-27 05:12:46.05	320.96	15.72	-25.1	-26.3	17.3	0.00e+00	0	43	0	1490026496	10	4141
2026-01-27 05:12:48.06	320.52	15.70	-24.9	-26.0	17.5	0.00e+00	0	43	0	1501560832	10	4082
2026-01-27 05:12:50.06	320.09	15.68	-25.1	-26.3	17.3	0.00e+00	0	43	0	1512046592	10	4141
2026-01-27 05:12:52.07	319.66	15.66	-25.2	-26.6	17.2	0.00e+00	0	43	0	1523580928	10	4225
2026-01-27 05:12:54.08	319.23	15.64	-25.1	-26.4	17.3	1.86e-04	0	43	0	1535115264	10	4172
2026-01-27 05:12:56.08	318.80	15.61	-25.1	-26.4	17.3	0.00e+00	0	43	0	1545601024	10	4170
2026-01-27 05:12:58.08	318.37	15.58	-25.1	-26.4	17.2	0.00e+00	0	43	0	1557135360	10	4182
2026-01-27 05:13:00.10	317.93	15.55	-25.0	-26.3	17.3	0.00e+00	0	43	0	1568669696	10	4137
2026-01-27 05:13:02.11	317.50	15.52	-25.0	-26.3	17.3	0.00e+00	0	43	0	1580204032	10	4145
2026-01-27 05:13:04.12	317.08	15.49	-25.0	-26.2	17.3	0.00e+00	0	43	0	1591738368	10	4127
2026-01-27 05:13:06.13	316.65	15.46	-25.0	-26.2	17.4	4.34e-05	0	43	0	1602224128	10	4124
2026-01-27 05:13:08.14	316.22	15.42	-24.9	-26.0	17.4	9.26e-05	0	43	0	1613758464	10	4077
2026-01-27 05:13:10.14	315.80	15.38	-24.9	-26.0	17.5	0.00e+00	0	43	0	1625292800	10	4066
2026-01-27 05:13:12.14	315.37	15.35	-25.0	-26.1	17.4	0.00e+00	0	43	0	1636827136	10	4105
2026-01-27 05:13:14.15	314.95	15.31	-24.9	-25.8	17.5	0.00e+00	0	43	0	1647312896	10	4029
2026-01-27 05:13:16.15	314.53	15.26	-25.1	-26.4	17.2	0.00e+00	0	43	0	1658847232	10	4181
2026-01-27 05:13:18.16	314.11	15.22	-25.4	-27.0	16.9	2.73e-04	0	43	0	1670381568	10	4339
2026-01-27 05:13:20.16	313.69	15.18	-25.2	-26.6	17.1	3.92e-04	0	43	0	1681915904	10	4223
2026-01-27 05:13:22.17	313.27	15.13	-25.2	-26.6	17.1	0.00e+00	0	43	0	1692401664	10	4237
2026-01-27 05:13:24.17	312.86	15.08	-25.3	-26.8	17.0	2.13e-04	0	43	0	1703936000	10	4272
2026-01-27 05:13:26.17	312.44	15.03	-25.1	-26.4	17.2	0.00e+00	0	43	0	1715470336	10	4169
2026-01-27 05:13:28.19	312.03	14.98	-25.1	-26.3	17.3	0.00e+00	0	43	0	1727004672	10	4144
2026-01-27 05:13:30.18	311.62	14.93	-25.3	-26.9	16.9	2.59e-04	0	43	0	1737490432	10	4312
2026-01-27 05:13:32.20	311.20	14.88	-25.8	-27.4	16.4	3.33e-04	0	43	0	1749024768	11	4336
2026-01-27 05:13:34.21	310.79	14.82	-25.4	-26.6	16.8	0.00e+00	0	43	0	1760559104	11	4108
2026-01-27 05:13:36.21	310.39	14.77	-25.3	-26.9	16.9	6.84e-04	0	43	0	1772093440	10	4304
2026-01-27 05:13:38.21	309.98	14.71	-25.2	-26.6	17.1	0.00e+00	0	43	0	1783627776	10	4229
2026-01-27 05:13:40.22	309.57	14.65	-25.4	-27.0	16.8	0.00e+00	0	43	0	1794113536	10	4344
2026-01-27 05:13:42.23	309.17	14.59	-25.5	-26.7	16.8	0.00e+00	0	43	0	1805647872	11	4131
2026-01-27 05:13:44.23	308.77	14.53	-25.7	-27.1	16.6	0.00e+00	0	43	0	1817182208	11	4239
2026-01-27 05:13:46.24	308.37	14.47	-25.9	-27.5	16.3	0.00e+00	0	43	0	1827667968	11	4363
2026-01-27 05:13:48.25	307.97	14.41	-25.9	-27.2	16.1	3.13e-04	0	43	0	1839202304	12	4167
2026-01-27 05:13:50.25	307.57	14.34	-25.7	-26.6	16.4	0.00e+00	0	43	0	1850736640	12	4014
2026-01-27 05:13:52.25	307.18	14.28	-25.6	-26.9	16.6	0.00e+00	0	43	0	1862270976	11	4198
2026-01-27 05:13:54.25	306.79	14.21	-25.6	-27.0	16.6	0.00e+00	0	43	0	1873805312	11	4218
2026-01-27 05:13:56.25	306.40	14.14	-25.6	-26.9	16.6	0.00e+00	0	43	0	1884291072	11	4210
2026-01-27 05:13:58.26	306.01	14.07	-25.4	-26.6	16.7	0.00e+00	0	43	0	1895825408	11	4125
2026-01-27 05:14:00.26	305.62	14.00	-25.4	-26.6	16.7	0.00e+00	0	43	0	1907359744	11	4130
2026-01-27 05:14:02.26	305.24	13.93	-25.5	-26.7	16.7	0.00e+00	0	43	0	1918894080	11	4140
2026-01-27 05:14:04.27	304.85	13.86	-25.5	-26.7	16.7	0.00e+00	0	43	0	1929379840	11	4136
2026-01-27 05:14:06.28	304.47	13.79	-25.6	-27.0	16.5	0.00e+00	0	43	0	1940914176	11	4228
2026-01-27 05:14:08.28	304.09	13.71	-25.6	-27.0	16.5	1.10e-06	0	43	0	1952448512	11	4229
2026-01-27 05:14:10.28	303.71	13.64	-25.7	-27.2	16.4	0.00e+00	0	43	0	1963982848	11	4272
2026-01-27 05:14:12.29	303.34	13.56	-25.7	-27.3	16.4	0.00e+00	0	43	0	1974468608	11	4298
2026-01-27 05:14:14.29	302.96	13.48	-25.9	-27.6	16.2	1.10e-06	0	43	0	1986002944	11	4400
2026-01-27 05:14:16.30	302.59	13.41	-25.8	-27.5	16.2	0.00e+00	0	43	0	1997537280	11	4361
2026-01-27 05:14:18.30	302.22	13.33	-25.8	-27.5	16.2	0.00e+00	0	43	0	2008023040	11	4352
2026-01-27 05:14:20.31	301.85	13.25	-25.9	-27.6	16.2	0.00e+00	0	43	0	2019557376	11	4374
2026-01-27 05:14:22.32	301.49	13.16	-25.6	-26.9	16.5	0.00e+00	0	43	0	2031091712	11	4198
2026-01-27 05:14:24.33	301.12	13.08	-25.6	-27.1	16.4	0.00e+00	0	43	0	2042626048	11	4244
2026-01-27 05:14:26.33	300.76	13.00	-25.9	-27.6	16.1	0.00e+00	0	43	0	2054160384	11	4389
2026-01-27 05:14:28.33	300.40	12.92	-25.8	-27.4	16.3	0.00e+00	0	43	0	2064646144	11	4323
2026-01-27 05:14:30.34	300.04	12.83	-25.8	-27.5	16.2	0.00e+00	0	43	0	2076180480	11	4361
2026-01-27 05:14:32.34	299.69	12.75	-25.7	-27.2	16.3	0.00e+00	0	43	0	2087714816	11	4290
2026-01-27 05:14:34.35	299.33	12.66	-25.7	-27.2	16.4	0.00e+00	0	43	0	2099249152	11	4275
2026-01-27 05:14:36.36	298.98	12.57	-25.6	-27.1	16.4	0.00e+00	0	43	0	2110783488	11	4245
2026-01-27 05:14:38.37	298.63	12.48	-25.7	-27.2	16.3	0.00e+00	0	43	0	2121269248	11	4288
2026-01-27 05:14:40.38	298.28	12.40	-25.4	-27.0	14.7	0.00e+00	0	43	0	2132803584	11	4327
2026-01-27 05:14:42.38	297.94	12.31	-25.7	-27.1	16.4	0.00e+00	0	43	0	2144337920	11	4246
2026-01-27 05:14:44.39	297.59	12.22	-25.7	-27.2	16.2	0.00e+00	0	43	0	2154823680	11	4279
2026-01-27 05:14:46.39	297.25	12.13	-25.9	-27.7	16.0	0.00e+00	0	43	0	2166358016	11	4405
2026-01-27 05:14:48.40	296.91	12.04	-26.0	-27.4	15.8	0.00e+00	0	43	0	2177892352	12	4234
2026-01-27 05:14:50.41	296.58	11.94	-26.0	-27.8	15.9	0.00e+00	0	43	0	2189426688	11	4449
2026-01-27 05:14:52.42	296.24	11.85	-25.9	-27.6	16.1	7.90e-04	0	43	0	2200961024	11	4382
2026-01-27 05:14:54.42	295.91	11.76	-25.8	-27.5	16.1	0.00e+00	0	43	0	2211446784	11	4369
2026-01-27 05:14:56.44	295.57	11.67	-25.9	-27.2	15.9	5.58e-04	0	43	0	2222981120	12	4171
2026-01-27 05:14:58.43	295.25	11.57	-25.9	-27.7	16.0	0.00e+00	0	43	0	2234515456	11	4416
2026-01-27 05:15:00.45	294.92	11.48	-26.0	-27.8	15.9	1.10e-06	0	43	0	2246049792	11	4453
2026-01-27 05:15:02.45	294.60	11.38	-26.2	-27.9	15.5	0.00e+00	0	43	0	2256535552	12	4356
2026-01-27 05:15:04.46	294.27	11.29	-26.0	-27.5	15.7	8.33e-04	0	43	0	2268069888	12	4248
2026-01-27 05:15:06.46	293.96	11.19	-26.1	-27.7	15.6	0.00e+00	0	43	0	2279604224	12	4301
2026-01-27 05:15:08.47	293.64	11.09	-26.1	-27.5	15.6	9.01e-04	0	43	0	2291138560	12	4266
2026-01-27 05:15:10.48	293.32	11.00	-26.0	-27.5	15.7	9.77e-04	0	43	0	2301624320	12	4260
2026-01-27 05:15:12.49	293.01	10.90	-26.1	-27.6	15.6	0.00e+00	0	43	0	2313158656	12	4295
2026-01-27 05:15:14.49	292.70	10.80	-26.1	-27.6	15.6	1.10e-03	0	43	0	2324692992	12	4290
2026-01-27 05:15:16.49	292.39	10.70	-26.1	-27.6	15.6	9.20e-04	0	43	0	2336227328	12	4292
2026-01-27 05:15:18.50	292.08	10.60	-26.0	-27.4	15.7	0.00e+00	0	43	0	2346713088	12	4219
2026-01-27 05:15:20.51	291.77	10.50	-26.0	-27.4	15.7	3.26e-04	0	43	0	2358247424	12	4226
2026-01-27 05:15:22.51	291.47	10.40	-26.1	-27.7	15.5	2.18e-04	0	43	0	2369781760	12	4314
2026-01-27 05:15:24.52	291.17	10.30	-26.2	-27.8	15.4	0.00e+00	0	43	0	2381316096	12	4334
2026-01-27 05:15:26.52	290.87	10.20	-26.3	-28.0	15.3	2.97e-05	0	43	0	2392850432	12	4411
2026-01-27 05:15:28.53	290.58	10.10	-26.2	-27.8	15.4	0.00e+00	0	43	0	2403336192	12	4341
2026-01-27 05:15:30.54	290.28	10.00	-26.3	-28.2	15.2	0.00e+00	0	43	0	2414870528	12	4433
2026-01-27 05:15:32.55	289.99	9.90	-26.6	-28.2	14.9	5.43e-04	0	43	0	2426404864	13	4337
2026-01-27 05:15:34.56	289.70	9.80	-26.7	-28.5	14.7	0.00e+00	0	43	0	2437939200	13	4432
2026-01-27 05:15:36.57	289.41	9.70	-26.6	-28.3	14.8	0.00e+00	0	43	0	2448424960	13	4370
2026-01-27 05:15:38.58	289.12	9.59	-26.7	-28.6	14.6	0.00e+00	0	43	0	2459959296	13	4451
2026-01-27 05:15:40.58	288.84	9.49	-26.8	-28.8	14.4	0.00e+00	0	43	0	2471493632	13	4533
2026-01-27 05:15:42.58	288.55	9.39	-26.7	-28.6	14.6	0.00e+00	0	43	0	2483027968	13	4455
2026-01-27 05:15:44.58	288.27	9.29	-26.7	-28.6	14.5	1.10e-06	0	43	0	2493513728	13	4472
2026-01-27 05:15:46.59	288.00	9.18	-26.5	-28.1	14.8	0.00e+00	0	43	0	2505048064	13	4321
2026-01-27 05:15:48.59	287.72	9.08	-26.4	-28.4	14.9	0.00e+00	0	43	0	2516582400	12	4515
2026-01-27 05:15:50.59	287.45	8.98	-26.7	-28.6	14.5	0.00e+00	0	43	0	2528116736	13	4460
2026-01-27 05:15:52.60	287.17	8.87	-26.8	-28.7	14.4	0.00e+00	0	43	0	2538602496	13	4492
2026-01-27 05:15:54.61	286.90	8.77	-26.9	-28.5	14.2	0.00e+00	0	43	0	2550136832	14	4336
2026-01-27 05:15:56.61	286.63	8.67	-26.8	-28.8	14.3	0.00e+00	0	43	0	2561671168	13	4520
2026-01-27 05:15:58.62	286.37	8.56	-26.6	-28.3	14.6	0.00e+00	0	43	0	2573205504	13	4385
2026-01-27 05:16:00.63	286.10	8.46	-26.8	-28.7	14.4	1.10e-06	0	43	0	2583691264	13	4504
2026-01-27 05:16:02.64	285.84	8.35	-26.9	-29.1	14.1	1.10e-06	0	43	0	2595225600	13	4634
2026-01-27 05:16:04.65	285.58	8.25	-27.3	-29.4	13.6	3.40e-06	0	43	0	2606759936	14	4603
2026-01-27 05:16:06.65	285.32	8.14	-27.0	-28.7	14.0	3.40e-06	0	43	0	2618294272	14	4395
2026-01-27 05:16:08.66	285.06	8.04	-26.9	-29.1	14.1	3.40e-06	0	43	0	2629828608	13	4617
2026-01-27 05:16:10.67	284.81	7.93	-27.0	-28.7	14.0	0.00e+00	0	43	0	2640314368	14	4383
2026-01-27 05:16:12.68	284.55	7.83	-27.0	-29.2	13.9	1.10e-06	0	43	0	2651848704	13	4665
2026-01-27 05:16:14.69	284.30	7.72	-27.2	-29.3	13.6	4.50e-06	0	43	0	2663383040	14	4582
2026-01-27 05:16:16.70	284.05	7.62	-27.2	-29.2	13.7	6.80e-06	0	43	0	2674917376	14	4552
2026-01-27 05:16:18.72	283.80	7.51	-27.3	-29.0	13.5	1.37e-05	0	43	0	2686451712	15	4388
2026-01-27 05:16:20.74	283.55	7.40	-27.1	-29.0	13.8	3.40e-06	0	43	0	2696937472	14	4486
2026-01-27 05:16:22.73	283.31	7.30	-27.0	-28.8	13.9	2.20e-06	0	43	0	2708471808	14	4428
2026-01-27 05:16:24.74	283.07	7.19	-27.3	-29.4	13.5	4.50e-06	0	43	0	2720006144	14	4610
2026-01-27 05:16:26.74	282.83	7.09	-27.2	-29.2	13.7	5.70e-06	0	43	0	2730491904	14	4529
2026-01-27 05:16:28.75	282.59	6.98	-33.1	-44.1	3.8	8.45e-01	0	43	104	2734686208	27	12789

#Closed at: 2026-01-27 05:16:29
#Recorded file [2734 MB]: D:/data/31010_260127_080821.dat