passes_logs/2026/01/27/R2M6_AANII_01/R2M6_AANII_01__20260127_001554_AQUA_rec.log

#Pass ID: 20260127_001554_AQUA
#Satellite: AQUA
#Configuration: AQUA
#almurnet v.1.7.20240730
#Start time: 2026-01-27 00:15:54

#Version: 2.2.20231116
#Station: R2M6_AANII_01
#Location: 30.233357 lon 59.946436 lat
#TLE: 1 27424U 02022A   26026.53345137  .00001758  00000+0  36150-3 0  9990
#TLE: 2 27424  98.4100 353.1559 0001880  64.8012  49.4917 14.61862630262575

#Time	Az	El	Level	Level2	SNR	BER	BlckErr	Temp	State	Recorded	gain1	gain2
2026-01-27 00:15:54.37	36.68	7.00	-31.5	-38.2	5.1	7.08e-01	0	41	0	0	23	7860
2026-01-27 00:15:56.38	36.94	7.11	-32.1	-39.3	12.0	6.08e-01	0	41	0	0	25	8299
2026-01-27 00:15:58.39	37.20	7.23	-32.0	-39.5	12.2	6.04e-01	0	41	0	3670016	24	8550
2026-01-27 00:16:00.39	37.46	7.35	-31.8	-38.1	13.3	6.03e-01	0	41	0	7340032	24	7460
2026-01-27 00:16:02.39	37.73	7.46	-31.6	-37.1	14.3	6.03e-01	0	41	0	11010048	24	6771
2026-01-27 00:16:04.40	37.99	7.58	-31.5	-37.5	14.4	6.04e-01	0	42	0	14680064	23	7136
2026-01-27 00:16:06.41	38.27	7.70	-31.1	-36.0	15.5	6.01e-01	0	42	0	18350080	23	6282
2026-01-27 00:16:08.42	38.54	7.81	-30.5	-33.9	17.0	6.03e-01	0	42	0	22544384	23	5337
2026-01-27 00:16:10.42	38.81	7.93	-30.1	-33.2	17.8	6.05e-01	0	42	0	26214400	22	5148
2026-01-27 00:16:12.43	39.09	8.05	-30.2	-33.5	17.7	6.03e-01	0	42	0	29884416	22	5251
2026-01-27 00:16:14.44	39.37	8.17	-30.3	-33.7	17.6	6.03e-01	0	42	0	33554432	22	5334
2026-01-27 00:16:16.44	39.65	8.28	-30.2	-33.4	17.7	6.04e-01	0	42	0	37224448	22	5225
2026-01-27 00:16:18.44	39.93	8.40	-30.2	-33.4	17.7	6.01e-01	0	42	0	41418752	22	5206
2026-01-27 00:16:20.45	40.22	8.52	-30.3	-33.6	17.6	6.03e-01	0	42	0	45088768	22	5282
2026-01-27 00:16:22.45	40.51	8.63	-30.3	-33.6	17.7	6.03e-01	0	42	0	48758784	22	5264
2026-01-27 00:16:24.46	40.80	8.75	-30.5	-34.2	17.2	6.03e-01	0	42	0	52428800	22	5497
2026-01-27 00:16:26.46	41.09	8.87	-30.2	-33.2	17.9	6.02e-01	0	42	0	56098816	22	5113
2026-01-27 00:16:28.46	41.39	8.99	-30.1	-33.1	18.0	6.02e-01	0	42	0	59768832	22	5068
2026-01-27 00:16:30.48	41.69	9.10	-30.1	-32.9	18.1	6.02e-01	0	42	0	63963136	22	4976
2026-01-27 00:16:32.48	41.99	9.22	-30.3	-33.4	18.2	6.03e-01	0	42	0	67633152	22	5120
2026-01-27 00:16:34.49	42.30	9.34	-30.2	-33.1	18.2	6.03e-01	0	42	0	71303168	22	5041
2026-01-27 00:16:36.49	42.60	9.45	-30.3	-33.5	17.9	6.02e-01	0	42	0	74973184	22	5178
2026-01-27 00:16:38.50	42.91	9.57	-30.2	-33.2	18.0	6.03e-01	0	42	0	78643200	22	5082
2026-01-27 00:16:40.50	43.22	9.69	-30.3	-33.4	17.9	6.02e-01	0	42	0	82313216	22	5152
2026-01-27 00:16:42.50	43.54	9.81	-30.3	-33.3	18.0	6.03e-01	0	42	0	86507520	22	5119
2026-01-27 00:16:44.52	43.86	9.92	-30.3	-33.3	18.1	6.03e-01	0	42	0	90177536	22	5082
2026-01-27 00:16:46.53	44.18	10.04	-30.2	-33.6	18.1	6.03e-01	0	43	0	93847552	21	5324
2026-01-27 00:16:48.54	44.50	10.16	-30.2	-33.7	18.1	6.03e-01	0	43	0	97517568	21	5379
2026-01-27 00:16:50.55	44.83	10.27	-30.1	-33.4	18.3	6.03e-01	0	43	0	101187584	21	5241
2026-01-27 00:16:52.54	45.15	10.39	-30.1	-33.3	18.3	6.02e-01	0	43	0	104857600	21	5225
2026-01-27 00:16:54.55	45.48	10.51	-30.1	-33.2	18.5	6.00e-01	0	43	0	109051904	21	5185
2026-01-27 00:16:56.55	45.81	10.62	-30.1	-33.3	18.3	6.02e-01	0	43	0	112721920	21	5214
2026-01-27 00:16:58.57	46.15	10.74	-30.2	-33.7	18.2	6.00e-01	0	43	0	116391936	21	5353
2026-01-27 00:17:00.58	46.49	10.85	-30.0	-33.0	18.6	6.05e-01	0	43	0	120061952	21	5109
2026-01-27 00:17:02.59	46.84	10.97	-30.0	-33.4	18.7	6.05e-01	0	43	0	123731968	20	5368
2026-01-27 00:17:04.59	47.18	11.08	-29.9	-33.3	18.8	6.04e-01	0	43	0	127926272	20	5305
2026-01-27 00:17:06.59	47.53	11.20	-29.9	-33.3	18.9	5.98e-01	0	43	0	131596288	20	5311
2026-01-27 00:17:08.59	47.88	11.31	-29.8	-33.1	19.0	6.04e-01	0	43	0	135266304	20	5254
2026-01-27 00:17:10.61	48.23	11.43	-29.9	-33.3	18.9	6.03e-01	0	43	0	138936320	20	5309
2026-01-27 00:17:12.62	48.59	11.54	-29.9	-33.3	18.8	6.03e-01	0	43	0	142606336	20	5337
2026-01-27 00:17:14.62	48.95	11.66	-29.9	-33.2	18.9	6.01e-01	0	43	0	146800640	20	5292
2026-01-27 00:17:16.63	49.31	11.77	-30.0	-33.5	18.9	6.05e-01	0	43	0	150470656	20	5370
2026-01-27 00:17:18.62	49.67	11.88	-29.8	-33.0	19.1	6.03e-01	0	43	0	154140672	20	5212
2026-01-27 00:17:20.63	50.04	11.99	-29.9	-33.3	18.9	6.00e-01	0	43	0	157810688	20	5297
2026-01-27 00:17:22.64	50.41	12.11	-29.9	-33.3	18.9	6.03e-01	0	43	0	161480704	20	5314
2026-01-27 00:17:24.65	50.79	12.22	-30.0	-32.9	18.8	6.02e-01	0	43	0	165150720	21	5061
2026-01-27 00:17:26.65	51.16	12.33	-29.8	-32.4	19.1	5.99e-01	0	43	0	168820736	21	4880
2026-01-27 00:17:28.66	51.54	12.44	-29.8	-32.5	19.1	6.03e-01	0	43	0	173015040	21	4889
2026-01-27 00:17:30.67	51.93	12.55	-29.9	-33.2	19.0	6.02e-01	0	43	0	176685056	20	5262
2026-01-27 00:17:32.67	52.31	12.66	-29.7	-32.8	19.3	6.01e-01	0	43	0	180355072	20	5119
2026-01-27 00:17:34.68	52.70	12.77	-29.7	-32.8	19.3	5.99e-01	0	43	0	184025088	20	5141
2026-01-27 00:17:36.68	53.09	12.88	-29.8	-32.9	19.2	6.04e-01	0	43	0	187695104	20	5155
2026-01-27 00:17:38.69	53.49	12.98	-29.7	-32.8	19.3	6.03e-01	0	43	0	191889408	20	5136
2026-01-27 00:17:40.70	53.89	13.09	-29.6	-32.5	19.4	6.01e-01	0	43	0	195559424	20	5026
2026-01-27 00:17:42.71	54.29	13.20	-29.7	-32.6	19.4	6.05e-01	0	43	0	199229440	20	5042
2026-01-27 00:17:44.72	54.69	13.30	-29.8	-32.9	19.2	6.05e-01	0	43	0	202899456	20	5145
2026-01-27 00:17:46.73	55.10	13.41	-29.7	-32.7	19.3	6.03e-01	0	43	0	206569472	20	5096
2026-01-27 00:17:48.73	55.51	13.51	-29.8	-32.9	19.1	5.99e-01	0	43	0	210239488	20	5173
2026-01-27 00:17:50.74	55.92	13.61	-30.0	-33.4	18.8	6.04e-01	0	43	0	214433792	20	5332
2026-01-27 00:17:52.75	56.34	13.72	-29.8	-32.9	19.1	6.03e-01	0	43	0	218103808	20	5143
2026-01-27 00:17:54.76	56.76	13.82	-29.7	-32.6	19.3	6.00e-01	0	43	0	221773824	20	5040
2026-01-27 00:17:56.77	57.18	13.92	-29.8	-33.0	19.0	5.99e-01	0	43	0	225443840	20	5185
2026-01-27 00:17:58.77	57.61	14.02	-29.6	-32.3	19.5	6.00e-01	0	43	0	229113856	20	4945
2026-01-27 00:18:00.78	58.04	14.12	-29.6	-32.4	19.5	6.00e-01	0	43	0	233308160	20	4973
2026-01-27 00:18:02.79	58.47	14.22	-29.6	-32.5	19.5	6.04e-01	0	43	0	236978176	20	4995
2026-01-27 00:18:04.79	58.90	14.31	-29.8	-32.9	19.2	6.05e-01	0	43	0	240648192	20	5163
2026-01-27 00:18:06.80	59.34	14.41	-29.9	-33.2	19.0	6.05e-01	0	43	0	244318208	20	5272
2026-01-27 00:18:08.81	59.78	14.50	-29.6	-32.4	19.5	6.04e-01	0	43	0	247988224	20	4980
2026-01-27 00:18:10.82	60.22	14.60	-29.6	-32.5	19.4	6.03e-01	0	43	0	252182528	20	4997
2026-01-27 00:18:12.83	60.67	14.69	-29.6	-32.5	19.5	6.00e-01	0	43	0	255852544	20	4986
2026-01-27 00:18:14.83	61.12	14.78	-29.8	-33.0	19.2	6.00e-01	0	44	0	259522560	20	5177
2026-01-27 00:18:16.84	61.57	14.87	-29.8	-33.0	19.1	6.03e-01	0	43	0	263192576	20	5181
2026-01-27 00:18:18.85	62.03	14.96	-29.6	-32.2	19.7	6.03e-01	0	43	0	266862592	20	4905
2026-01-27 00:18:20.85	62.48	15.05	-29.7	-32.5	19.4	6.02e-01	0	43	0	270532608	20	4992
2026-01-27 00:18:22.86	62.94	15.14	-29.6	-32.3	19.6	6.02e-01	0	43	0	274202624	20	4933
2026-01-27 00:18:24.87	63.41	15.22	-29.6	-33.2	18.7	6.03e-01	0	43	0	278396928	18	5483
2026-01-27 00:18:26.88	63.88	15.31	-29.6	-32.3	19.6	6.05e-01	0	43	0	282066944	20	4925
2026-01-27 00:18:28.89	64.34	15.39	-29.5	-32.2	18.0	6.05e-01	0	43	0	285736960	20	4889
2026-01-27 00:18:30.90	64.82	15.47	-29.7	-32.6	18.2	6.03e-01	0	44	0	289406976	20	5003
2026-01-27 00:18:32.91	65.29	15.55	-29.6	-32.4	19.5	6.03e-01	0	43	0	293076992	20	4937
2026-01-27 00:18:34.92	65.77	15.63	-29.5	-32.1	19.6	6.02e-01	0	43	0	297271296	20	4861
2026-01-27 00:18:36.93	66.25	15.70	-29.8	-32.7	19.3	6.01e-01	0	44	0	300941312	20	5065
2026-01-27 00:18:38.94	66.73	15.78	-29.6	-32.3	19.5	6.05e-01	0	43	0	304611328	20	4911
2026-01-27 00:18:40.93	67.21	15.85	-29.6	-32.5	19.2	6.05e-01	0	43	0	308281344	20	4989
2026-01-27 00:18:42.95	67.70	15.92	-29.6	-32.7	19.6	6.02e-01	0	44	0	311951360	19	5187
2026-01-27 00:18:44.96	68.19	15.99	-29.6	-32.3	19.5	6.04e-01	0	44	0	315621376	20	4941
2026-01-27 00:18:46.96	68.68	16.06	-29.6	-32.3	19.6	6.03e-01	0	44	0	319815680	20	4930
2026-01-27 00:18:48.98	69.18	16.13	-29.7	-32.6	19.4	6.02e-01	0	44	0	323485696	20	5046
2026-01-27 00:18:50.98	69.68	16.19	-29.6	-32.4	19.6	6.03e-01	0	44	0	327155712	20	4966
2026-01-27 00:18:52.99	70.18	16.26	-29.6	-32.5	19.5	6.06e-01	0	44	0	330825728	20	4984
2026-01-27 00:18:54.99	70.67	16.32	-29.6	-32.4	19.6	6.01e-01	0	43	0	334495744	20	4961
2026-01-27 00:18:56.99	71.18	16.38	-29.6	-32.4	19.5	6.02e-01	0	44	0	338690048	20	4967
2026-01-27 00:18:59.00	71.68	16.44	-30.0	-33.4	18.9	6.02e-01	0	43	0	342360064	20	5330
2026-01-27 00:19:01.01	72.19	16.49	-30.1	-33.3	18.7	6.00e-01	0	43	0	346030080	21	5156
2026-01-27 00:19:03.01	72.70	16.55	-30.2	-33.3	18.7	6.03e-01	0	43	0	349700096	21	5195
2026-01-27 00:19:05.02	73.21	16.60	-30.0	-33.5	18.9	6.03e-01	0	44	0	353370112	20	5378
2026-01-27 00:19:07.01	73.72	16.65	-30.0	-33.5	18.9	6.02e-01	0	43	0	357040128	20	5389
2026-01-27 00:19:09.02	74.23	16.70	-30.5	-34.3	18.1	6.02e-01	0	43	0	360710144	21	5593
2026-01-27 00:19:11.02	74.75	16.74	-29.9	-32.5	19.3	6.00e-01	0	44	0	364904448	21	4892
2026-01-27 00:19:13.03	75.27	16.79	-29.6	-31.9	19.6	6.03e-01	0	44	0	368574464	21	4669
2026-01-27 00:19:15.04	75.79	16.83	-29.7	-32.1	19.5	6.02e-01	0	44	0	372244480	21	4740
2026-01-27 00:19:17.05	76.31	16.87	-29.6	-31.9	19.6	6.04e-01	0	44	0	375914496	21	4676
2026-01-27 00:19:19.06	76.83	16.91	-29.7	-32.0	19.5	6.04e-01	0	44	0	379584512	21	4728
2026-01-27 00:19:21.07	77.36	16.94	-29.9	-32.6	19.2	6.04e-01	0	44	0	383778816	21	4906
2026-01-27 00:19:23.07	77.88	16.98	-29.9	-32.8	19.0	6.03e-01	0	44	0	387448832	21	4980
2026-01-27 00:19:25.07	78.40	17.01	-29.9	-32.6	19.1	6.05e-01	0	43	0	391118848	21	4919
2026-01-27 00:19:27.07	78.93	17.04	-29.8	-32.5	19.1	5.99e-01	0	44	0	394788864	21	4903
2026-01-27 00:19:29.08	79.46	17.06	-29.8	-32.5	19.1	6.02e-01	0	44	0	398458880	21	4880
2026-01-27 00:19:31.09	79.99	17.09	-29.6	-32.4	19.5	6.01e-01	0	44	0	402653184	20	4962
2026-01-27 00:19:33.09	80.52	17.11	-29.9	-33.2	19.0	6.03e-01	0	43	0	406323200	20	5239
2026-01-27 00:19:35.10	81.05	17.13	-29.7	-32.7	19.4	6.02e-01	0	43	0	409993216	20	5062
2026-01-27 00:19:37.11	81.58	17.15	-29.8	-32.9	19.2	6.01e-01	0	44	0	413663232	20	5148
2026-01-27 00:19:39.12	82.12	17.16	-29.7	-32.8	19.3	6.02e-01	0	43	0	417333248	20	5093
2026-01-27 00:19:41.12	82.65	17.18	-29.7	-32.6	19.5	6.00e-01	0	44	0	421003264	20	5027
2026-01-27 00:19:43.13	83.18	17.19	-29.6	-32.4	19.5	6.03e-01	0	44	0	425197568	20	4953
2026-01-27 00:19:45.14	83.72	17.20	-29.7	-32.7	19.4	6.04e-01	0	44	0	428867584	20	5076
2026-01-27 00:19:47.15	84.25	17.21	-29.6	-32.3	19.7	6.01e-01	0	44	0	432537600	20	4917
2026-01-27 00:19:49.15	84.79	17.21	-29.7	-32.6	19.5	6.03e-01	0	44	0	436207616	20	5023
2026-01-27 00:19:51.16	85.32	17.21	-29.8	-32.8	19.3	6.03e-01	0	44	0	439877632	20	5111
2026-01-27 00:19:53.17	85.86	17.21	-29.7	-32.6	19.4	6.02e-01	0	43	0	443547648	20	5025
2026-01-27 00:19:55.17	86.39	17.21	-29.6	-32.3	19.6	6.04e-01	0	44	0	447741952	20	4938
2026-01-27 00:19:57.18	86.92	17.20	-29.7	-32.7	19.5	6.01e-01	0	44	0	451411968	20	5071
2026-01-27 00:19:59.18	87.46	17.20	-29.8	-33.0	19.2	6.03e-01	0	44	0	455081984	20	5190
2026-01-27 00:20:01.19	87.99	17.19	-29.9	-33.1	19.2	6.03e-01	0	44	0	458752000	20	5239
2026-01-27 00:20:03.19	88.52	17.18	-29.9	-33.3	19.1	6.03e-01	0	44	0	462422016	20	5293
2026-01-27 00:20:05.20	89.06	17.16	-29.9	-33.2	19.1	6.04e-01	0	44	0	466092032	20	5272
2026-01-27 00:20:07.21	89.59	17.15	-29.7	-32.7	19.5	6.06e-01	0	43	0	470286336	20	5081
2026-01-27 00:20:09.21	90.12	17.13	-29.7	-32.7	19.4	6.05e-01	0	44	0	473956352	20	5083
2026-01-27 00:20:11.21	90.65	17.11	-29.7	-32.7	19.4	6.01e-01	0	44	0	477626368	20	5080
2026-01-27 00:20:13.21	91.18	17.08	-29.8	-33.0	19.2	6.02e-01	0	44	0	481296384	20	5184
2026-01-27 00:20:15.21	91.71	17.06	-29.6	-32.5	19.5	6.04e-01	0	44	0	484966400	20	5001
2026-01-27 00:20:17.20	92.24	17.03	-29.7	-32.6	19.6	6.02e-01	0	44	0	488636416	20	5026
2026-01-27 00:20:19.21	92.76	17.00	-29.8	-33.0	19.2	6.01e-01	0	44	0	492830720	20	5186
2026-01-27 00:20:21.20	93.29	16.97	-29.9	-33.3	19.0	6.02e-01	0	44	0	496500736	20	5306
2026-01-27 00:20:23.20	93.81	16.94	-29.9	-33.1	19.2	6.02e-01	0	44	0	500170752	20	5236
2026-01-27 00:20:25.21	94.34	16.90	-30.1	-33.6	18.7	6.01e-01	0	44	0	503840768	20	5446
2026-01-27 00:20:27.22	94.86	16.86	-30.1	-33.2	18.8	6.03e-01	0	44	0	507510784	21	5171
2026-01-27 00:20:29.23	95.38	16.82	-29.7	-32.1	19.5	6.03e-01	0	44	0	511180800	21	4762
2026-01-27 00:20:31.23	95.90	16.78	-29.8	-32.4	19.4	5.99e-01	0	44	0	515375104	21	4846
2026-01-27 00:20:33.23	96.42	16.74	-29.8	-32.5	19.3	6.02e-01	0	44	0	519045120	21	4908
2026-01-27 00:20:35.24	96.94	16.69	-29.7	-32.2	19.4	6.04e-01	0	43	0	522715136	21	4796
2026-01-27 00:20:37.23	97.45	16.64	-29.7	-32.1	19.5	6.02e-01	0	44	0	526385152	21	4744
2026-01-27 00:20:39.24	97.96	16.59	-29.7	-32.2	19.4	6.01e-01	0	44	0	530055168	21	4794
2026-01-27 00:20:41.26	98.48	16.54	-29.7	-32.1	19.5	6.01e-01	0	44	0	533725184	21	4745
2026-01-27 00:20:43.26	98.99	16.49	-29.7	-32.2	19.4	5.99e-01	0	44	0	537919488	21	4810
2026-01-27 00:20:45.27	99.50	16.43	-29.7	-32.2	19.5	6.02e-01	0	44	0	541589504	21	4790
2026-01-27 00:20:47.27	100.00	16.37	-29.6	-31.9	19.6	6.02e-01	0	44	0	545259520	21	4699
2026-01-27 00:20:49.27	100.50	16.31	-29.6	-32.0	19.5	5.99e-01	0	44	0	548929536	21	4730
2026-01-27 00:20:51.27	101.00	16.25	-29.8	-32.4	19.2	6.02e-01	0	44	0	552599552	21	4881
2026-01-27 00:20:53.29	101.51	16.19	-29.7	-32.3	19.3	6.02e-01	0	44	0	556269568	21	4842
2026-01-27 00:20:55.29	102.00	16.12	-29.8	-32.5	19.2	6.03e-01	0	44	0	560463872	21	4893
2026-01-27 00:20:57.30	102.50	16.05	-29.8	-32.5	19.2	6.00e-01	0	44	0	564133888	21	4904
2026-01-27 00:20:59.31	102.99	15.98	-29.8	-33.1	19.1	5.99e-01	0	44	0	567803904	20	5237
2026-01-27 00:21:01.30	103.48	15.91	-29.7	-32.8	19.2	6.01e-01	0	44	0	571473920	20	5151
2026-01-27 00:21:03.31	103.97	15.84	-29.6	-32.4	19.5	6.01e-01	0	44	0	575143936	20	4969
2026-01-27 00:21:05.32	104.46	15.77	-29.6	-32.5	19.5	6.00e-01	0	44	0	578813952	20	5012
2026-01-27 00:21:07.33	104.94	15.69	-29.7	-32.7	19.3	6.04e-01	0	44	0	583008256	20	5116
2026-01-27 00:21:09.33	105.42	15.61	-29.6	-32.5	19.4	6.02e-01	0	44	0	586678272	20	5019
2026-01-27 00:21:11.34	105.90	15.54	-29.7	-32.7	19.4	6.04e-01	0	44	0	590348288	20	5089
2026-01-27 00:21:13.36	106.38	15.45	-29.6	-32.5	19.5	6.03e-01	0	44	0	594018304	20	5019
2026-01-27 00:21:15.36	106.85	15.37	-29.7	-32.8	19.2	6.04e-01	0	43	0	597688320	20	5129
2026-01-27 00:21:17.36	107.32	15.29	-29.8	-32.9	19.2	6.01e-01	0	44	0	601358336	20	5157
2026-01-27 00:21:19.37	107.79	15.21	-29.8	-33.1	19.0	6.04e-01	0	44	0	605552640	20	5230
2026-01-27 00:21:21.37	108.25	15.12	-29.9	-33.2	19.0	6.01e-01	0	44	0	609222656	20	5280
2026-01-27 00:21:23.38	108.71	15.03	-29.7	-32.7	19.3	6.01e-01	0	44	0	612892672	20	5098
2026-01-27 00:21:25.38	109.17	14.95	-29.7	-32.8	19.3	6.00e-01	0	44	0	616562688	20	5114
2026-01-27 00:21:27.38	109.63	14.86	-29.8	-33.1	19.0	6.02e-01	0	44	0	620232704	20	5232
2026-01-27 00:21:29.39	110.08	14.76	-29.6	-32.6	19.3	6.02e-01	0	44	0	624427008	20	5041
2026-01-27 00:21:31.39	110.53	14.67	-29.6	-32.4	19.4	6.02e-01	0	44	0	628097024	20	4974
2026-01-27 00:21:33.40	110.98	14.58	-29.5	-32.2	19.4	6.02e-01	0	44	0	631767040	20	4935
2026-01-27 00:21:35.40	111.42	14.49	-29.7	-32.7	19.1	6.05e-01	0	44	0	635437056	20	5105
2026-01-27 00:21:37.41	111.86	14.39	-29.8	-33.0	19.0	6.03e-01	0	44	0	639107072	20	5191
2026-01-27 00:21:39.42	112.30	14.29	-29.7	-32.8	19.0	6.02e-01	0	44	0	643301376	20	5149
2026-01-27 00:21:41.43	112.74	14.19	-29.7	-32.9	18.9	6.03e-01	0	44	0	646971392	20	5199
2026-01-27 00:21:43.44	113.17	14.10	-29.6	-32.7	19.1	6.02e-01	0	44	0	650641408	20	5108
2026-01-27 00:21:45.45	113.61	14.00	-29.8	-33.1	18.8	6.02e-01	0	44	0	654311424	20	5247
2026-01-27 00:21:47.45	114.03	13.90	-29.7	-32.8	19.1	6.04e-01	0	44	0	657981440	20	5141
2026-01-27 00:21:49.46	114.46	13.79	-29.8	-33.0	18.9	6.03e-01	0	44	0	661651456	20	5214
2026-01-27 00:21:51.46	114.88	13.69	-29.7	-32.9	19.0	6.04e-01	0	44	0	665321472	20	5181
2026-01-27 00:21:53.47	115.29	13.59	-29.7	-32.8	18.8	6.03e-01	0	44	0	669515776	20	5168
2026-01-27 00:21:55.48	115.71	13.48	-29.6	-32.7	19.0	6.01e-01	0	44	0	673185792	20	5126
2026-01-27 00:21:57.49	116.12	13.38	-29.6	-32.7	18.8	6.05e-01	0	44	0	676855808	20	5111
2026-01-27 00:21:59.49	116.53	13.27	-29.8	-33.1	18.6	6.03e-01	0	44	0	680525824	20	5261
2026-01-27 00:22:01.50	116.94	13.17	-29.8	-33.2	18.6	6.02e-01	0	44	0	684195840	20	5284
2026-01-27 00:22:03.51	117.34	13.06	-29.9	-33.4	18.6	6.00e-01	0	44	0	688390144	20	5385
2026-01-27 00:22:05.52	117.74	12.95	-29.9	-33.5	18.5	6.00e-01	0	44	0	692060160	20	5426
2026-01-27 00:22:07.52	118.13	12.84	-29.8	-33.1	18.9	6.03e-01	0	44	0	695730176	20	5254
2026-01-27 00:22:09.53	118.53	12.73	-29.7	-32.9	19.0	6.03e-01	0	44	0	699400192	20	5171
2026-01-27 00:22:11.53	118.92	12.62	-29.8	-33.1	18.9	6.03e-01	0	44	0	703070208	20	5240
2026-01-27 00:22:13.54	119.31	12.51	-29.8	-33.1	18.8	6.03e-01	0	44	0	706740224	20	5264
2026-01-27 00:22:15.55	119.69	12.40	-29.8	-33.1	18.8	6.07e-01	0	44	0	710934528	20	5270
2026-01-27 00:22:17.56	120.07	12.29	-29.8	-33.1	18.8	6.01e-01	0	44	0	714604544	20	5296
2026-01-27 00:22:19.57	120.45	12.18	-29.8	-33.1	18.7	6.02e-01	0	44	0	718274560	20	5290
2026-01-27 00:22:21.58	120.83	12.06	-29.8	-33.1	18.7	6.02e-01	0	44	0	721944576	20	5255
2026-01-27 00:22:23.60	121.20	11.95	-29.7	-32.8	18.9	6.02e-01	0	44	0	725614592	20	5143
2026-01-27 00:22:25.60	121.57	11.84	-29.8	-33.1	18.8	6.03e-01	0	44	0	729808896	20	5270
2026-01-27 00:22:27.61	121.94	11.72	-29.7	-32.9	18.8	6.03e-01	0	44	0	733478912	20	5211
2026-01-27 00:22:29.62	122.30	11.61	-29.7	-32.9	18.9	5.99e-01	0	44	0	737148928	20	5218
2026-01-27 00:22:31.62	122.66	11.50	-29.8	-33.1	18.7	6.00e-01	0	44	0	740818944	20	5297
2026-01-27 00:22:33.62	123.02	11.38	-29.7	-33.0	18.8	6.02e-01	0	44	0	744488960	20	5231
2026-01-27 00:22:35.63	123.37	11.27	-29.7	-33.0	18.8	6.02e-01	0	44	0	748683264	20	5248
2026-01-27 00:22:37.64	123.73	11.15	-29.9	-33.4	18.5	6.02e-01	0	44	0	752353280	20	5375
2026-01-27 00:22:39.64	124.07	11.03	-29.8	-33.2	18.6	6.03e-01	0	44	0	756023296	20	5323
2026-01-27 00:22:41.66	124.42	10.92	-29.8	-33.3	18.5	6.03e-01	0	44	0	759693312	20	5344
2026-01-27 00:22:43.66	124.77	10.80	-29.8	-33.3	18.5	6.03e-01	0	44	0	763363328	20	5363
2026-01-27 00:22:45.67	125.11	10.68	-29.8	-33.2	18.5	6.01e-01	0	44	0	767033344	20	5348
2026-01-27 00:22:47.67	125.44	10.57	-29.8	-33.2	18.5	6.02e-01	0	44	0	771227648	20	5350
2026-01-27 00:22:49.68	125.78	10.45	-29.9	-33.5	18.3	6.03e-01	0	44	0	774897664	20	5493
2026-01-27 00:22:51.69	126.11	10.33	-29.9	-33.6	18.2	6.02e-01	0	44	0	778567680	20	5504
2026-01-27 00:22:53.69	126.44	10.21	-29.9	-33.5	18.3	6.01e-01	0	44	0	782237696	20	5438
2026-01-27 00:22:55.70	126.76	10.10	-29.8	-33.3	18.4	6.04e-01	0	44	0	785907712	20	5372
2026-01-27 00:22:57.71	127.09	9.98	-29.9	-33.5	18.2	6.02e-01	0	44	0	789577728	20	5475
2026-01-27 00:22:59.71	127.41	9.86	-29.8	-33.4	18.2	6.03e-01	0	44	0	793772032	20	5426
2026-01-27 00:23:01.72	127.73	9.74	-30.0	-33.8	18.0	6.01e-01	0	44	0	797442048	20	5612
2026-01-27 00:23:03.72	128.04	9.63	-30.0	-34.1	17.8	6.06e-01	0	44	0	801112064	20	5725
2026-01-27 00:23:05.73	128.36	9.51	-30.1	-34.2	17.7	6.03e-01	0	44	0	804782080	20	5790
2026-01-27 00:23:07.74	128.67	9.39	-30.0	-33.5	17.8	6.01e-01	0	44	0	808452096	21	5385
2026-01-27 00:23:09.75	128.97	9.27	-30.0	-34.1	17.8	6.00e-01	0	44	0	812122112	20	5721
2026-01-27 00:23:11.74	129.28	9.15	-30.1	-33.9	17.6	6.02e-01	0	44	0	816316416	21	5562
2026-01-27 00:23:13.74	129.58	9.03	-30.2	-34.0	17.5	6.03e-01	0	44	0	819986432	21	5625
2026-01-27 00:23:15.74	129.88	8.92	-29.9	-33.2	18.0	5.99e-01	0	44	0	823656448	21	5299
2026-01-27 00:23:17.75	130.17	8.80	-29.9	-33.2	17.9	6.03e-01	0	44	0	827326464	21	5296
2026-01-27 00:23:19.76	130.47	8.68	-30.0	-33.6	17.7	6.02e-01	0	44	0	830996480	21	5423
2026-01-27 00:23:21.76	130.76	8.56	-30.0	-33.7	17.6	6.03e-01	0	44	0	834666496	21	5471
2026-01-27 00:23:23.77	131.05	8.44	-30.2	-34.1	17.3	6.01e-01	0	44	0	838860800	21	5662
2026-01-27 00:23:25.77	131.34	8.32	-30.2	-34.3	17.1	6.04e-01	0	44	0	842530816	21	5738
2026-01-27 00:23:27.78	131.62	8.21	-30.2	-34.4	17.1	6.02e-01	0	44	0	846200832	21	5810
2026-01-27 00:23:29.78	131.90	8.09	-30.3	-34.7	16.8	6.03e-01	0	44	0	849870848	21	6016
2026-01-27 00:23:31.79	132.18	7.97	-30.4	-35.1	16.5	6.02e-01	0	44	0	853540864	21	6190
2026-01-27 00:23:33.80	132.46	7.85	-30.1	-34.2	17.0	6.00e-01	0	44	0	857210880	21	5762
2026-01-27 00:23:35.81	132.74	7.73	-30.3	-34.5	16.9	6.03e-01	0	44	0	861405184	21	5873
2026-01-27 00:23:37.82	133.01	7.61	-30.4	-34.9	16.7	6.02e-01	0	44	0	865075200	21	6020
2026-01-27 00:23:39.83	133.28	7.50	-30.1	-34.1	17.1	6.01e-01	0	44	0	868745216	21	5714
2026-01-27 00:23:41.84	133.55	7.38	-30.1	-34.3	16.9	6.05e-01	0	44	0	872415232	21	5865
2026-01-27 00:23:43.84	133.82	7.26	-30.0	-34.3	16.8	6.02e-01	0	44	0	876085248	21	5872
2026-01-27 00:23:45.85	134.08	7.14	-30.1	-34.5	16.7	6.03e-01	0	44	0	880279552	21	5948
2026-01-27 00:23:47.85	134.34	7.03	-33.0	-51.1	3.8	7.45e-01	0	44	104	882900992	27	28951

#Closed at: 2026-01-27 00:23:49
#Recorded file [882 MB]: D:/data/31010_260127_031556.dat