passes_logs/2026/01/27/R2M6_AANII_01/R2M6_AANII_01__20260127_005017_SUOMI_NPP_rec.log

#Pass ID: 20260127_005017_SUOMI NPP
#Satellite: SUOMI NPP
#Configuration: NPP
#almurnet v.1.7.20240730
#Start time: 2026-01-27 00:50:19

#Version: 2.2.20231116
#Station: R2M6_AANII_01
#Location: 30.233357 lon 59.946436 lat
#TLE: 1 37849U 11061A   26026.52266023  .00000173  00000+0  10323-3 0  9994
#TLE: 2 37849  98.7822 328.4727 0002140  43.9411 316.1934 14.19530258738341

#Time	Az	El	Level	Level2	SNR	BER	BlckErr	Temp	State	Recorded	gain1	gain2
2026-01-27 00:50:19.48	16.12	7.13	-32.0	-37.7	4.8	1.35e+00	0	42	0	0	23	6997
2026-01-27 00:50:22.48	16.07	7.36	-31.9	-37.0	7.4	1.21e-01	0	42	0	1048576	23	6477
2026-01-27 00:50:25.49	16.01	7.59	-31.4	-35.3	9.2	2.25e-02	0	42	0	7340032	22	5629
2026-01-27 00:50:28.50	15.95	7.83	-31.6	-35.5	8.7	3.95e-02	0	42	0	12582912	23	5646
2026-01-27 00:50:31.51	15.89	8.07	-31.1	-34.0	10.3	7.44e-03	0	42	0	17825792	22	5045
2026-01-27 00:50:34.51	15.83	8.31	-30.7	-33.2	11.3	1.13e-03	0	42	0	24117248	21	4806
2026-01-27 00:50:37.51	15.77	8.55	-30.5	-32.8	11.5	1.32e-03	0	42	0	29360128	21	4679
2026-01-27 00:50:40.52	15.71	8.79	-30.4	-32.5	11.8	8.26e-04	0	42	0	35651584	21	4548
2026-01-27 00:50:43.53	15.64	9.04	-30.3	-32.6	12.2	7.84e-04	0	42	0	40894464	20	4667
2026-01-27 00:50:46.53	15.57	9.29	-30.3	-32.6	12.1	7.18e-04	0	42	0	46137344	20	4675
2026-01-27 00:50:49.53	15.51	9.54	-30.2	-32.2	12.4	8.52e-04	0	42	0	52428800	20	4545
2026-01-27 00:50:52.54	15.44	9.80	-30.3	-32.6	12.1	7.65e-04	0	42	0	57671680	20	4662
2026-01-27 00:50:55.55	15.37	10.05	-30.3	-32.4	12.3	1.10e-03	0	42	0	62914560	20	4587
2026-01-27 00:50:58.56	15.30	10.31	-29.8	-31.9	12.3	8.30e-04	0	43	0	69206016	20	4605
2026-01-27 00:51:01.57	15.22	10.58	-30.1	-32.0	11.7	8.52e-04	0	43	0	74448896	20	4459
2026-01-27 00:51:04.57	15.15	10.84	-30.1	-31.8	12.2	6.97e-04	0	43	0	80740352	20	4383
2026-01-27 00:51:07.58	15.07	11.11	-30.0	-31.7	12.9	5.61e-04	0	43	0	85983232	20	4347
2026-01-27 00:51:10.60	15.00	11.38	-30.0	-32.0	13.2	2.30e-03	0	43	0	91226112	19	4523
2026-01-27 00:51:13.60	14.92	11.66	-29.9	-31.8	13.2	2.10e-03	0	43	0	97517568	19	4480
2026-01-27 00:51:16.62	14.83	11.94	-29.8	-31.6	13.4	4.90e-04	0	43	0	102760448	19	4402
2026-01-27 00:51:19.63	14.75	12.22	-29.8	-31.4	13.5	4.73e-04	0	43	0	109051904	19	4329
2026-01-27 00:51:22.64	14.67	12.50	-29.7	-31.1	13.7	5.00e-04	0	43	0	114294784	19	4242
2026-01-27 00:51:25.65	14.58	12.79	-29.8	-31.4	13.6	7.70e-04	0	43	0	119537664	19	4332
2026-01-27 00:51:28.67	14.49	13.08	-29.5	-30.8	14.0	2.19e-03	0	43	0	125829120	19	4140
2026-01-27 00:51:31.67	14.40	13.37	-29.6	-30.9	13.9	2.01e-03	0	43	0	131072000	19	4194
2026-01-27 00:51:34.68	14.31	13.67	-29.5	-30.8	14.0	2.26e-03	0	43	0	136314880	19	4140
2026-01-27 00:51:37.69	14.21	13.97	-29.6	-30.9	13.9	2.21e-03	0	43	0	142606336	19	4170
2026-01-27 00:51:40.70	14.11	14.27	-29.7	-31.1	13.8	2.04e-03	0	43	0	147849216	19	4247
2026-01-27 00:51:43.71	14.02	14.58	-29.4	-30.8	14.4	4.72e-04	0	43	0	154140672	18	4226
2026-01-27 00:51:46.72	13.91	14.89	-29.3	-30.5	14.6	2.19e-03	0	43	0	159383552	18	4154
2026-01-27 00:51:49.73	13.81	15.21	-29.3	-30.5	14.5	1.96e-03	0	43	0	164626432	18	4167
2026-01-27 00:51:52.74	13.70	15.53	-29.4	-30.9	14.3	2.24e-03	0	43	0	170917888	18	4285
2026-01-27 00:51:55.74	13.59	15.85	-29.2	-30.5	14.6	2.19e-03	0	43	0	176160768	18	4149
2026-01-27 00:51:58.75	13.48	16.18	-29.3	-30.5	14.6	1.94e-03	0	43	0	181403648	18	4145
2026-01-27 00:52:01.77	13.37	16.52	-29.3	-30.6	14.6	2.30e-03	0	43	0	187695104	18	4167
2026-01-27 00:52:04.77	13.25	16.85	-29.2	-30.3	14.8	0.00e+00	0	43	0	192937984	18	4100
2026-01-27 00:52:07.78	13.13	17.19	-29.2	-30.2	14.8	0.00e+00	0	43	0	199229440	18	4054
2026-01-27 00:52:10.80	13.00	17.54	-29.1	-30.1	14.9	0.00e+00	0	43	0	204472320	18	4022
2026-01-27 00:52:13.82	12.88	17.90	-29.2	-30.3	14.8	2.17e-03	0	43	0	209715200	18	4080
2026-01-27 00:52:16.83	12.75	18.25	-29.2	-30.4	14.8	2.00e-03	0	43	0	216006656	18	4103
2026-01-27 00:52:19.84	12.61	18.61	-29.3	-30.6	14.7	2.23e-03	0	43	0	221249536	18	4175
2026-01-27 00:52:22.85	12.48	18.98	-29.2	-30.2	14.9	0.00e+00	0	43	0	227540992	18	4041
2026-01-27 00:52:25.85	12.34	19.35	-29.3	-30.5	14.8	0.00e+00	0	43	0	232783872	18	4122
2026-01-27 00:52:28.87	12.19	19.73	-29.1	-30.1	15.1	0.00e+00	0	43	0	238026752	18	4013
2026-01-27 00:52:31.87	12.04	20.11	-28.9	-29.5	15.4	0.00e+00	0	43	0	244318208	18	3848
2026-01-27 00:52:34.89	11.89	20.50	-29.0	-29.6	15.3	0.00e+00	0	43	0	249561088	18	3888
2026-01-27 00:52:37.90	11.73	20.90	-28.9	-29.9	15.5	0.00e+00	0	43	0	254803968	17	4041
2026-01-27 00:52:40.91	11.57	21.30	-28.9	-30.0	15.4	0.00e+00	0	43	0	261095424	17	4070
2026-01-27 00:52:43.93	11.41	21.71	-29.1	-30.0	15.1	0.00e+00	0	43	0	266338304	18	3991
2026-01-27 00:52:46.94	11.23	22.12	-29.4	-30.8	13.9	0.00e+00	0	43	0	272629760	18	4198
2026-01-27 00:52:49.96	11.06	22.54	-29.2	-30.3	14.5	0.00e+00	0	43	0	277872640	18	4055
2026-01-27 00:52:52.96	10.88	22.97	-29.3	-30.5	14.8	0.00e+00	0	43	0	283115520	18	4122
2026-01-27 00:52:55.97	10.69	23.40	-29.7	-31.0	14.3	0.00e+00	0	43	0	289406976	19	4165
2026-01-27 00:52:58.98	10.50	23.84	-29.5	-30.4	14.7	0.00e+00	0	44	0	294649856	19	3989
2026-01-27 00:53:01.99	10.30	24.29	-29.6	-30.6	14.6	1.22e-03	0	44	0	300941312	19	4054
2026-01-27 00:53:05.00	10.10	24.74	-30.2	-31.9	13.4	1.09e-03	0	43	0	306184192	20	4346
2026-01-27 00:53:08.02	9.89	25.21	-30.8	-32.9	12.4	4.95e-05	0	43	0	311427072	21	4580
2026-01-27 00:53:11.03	9.67	25.68	-30.2	-31.7	13.5	9.10e-06	0	44	0	317718528	20	4287
2026-01-27 00:53:14.03	9.45	26.16	-30.2	-31.7	13.6	9.10e-06	0	43	0	322961408	20	4296
2026-01-27 00:53:17.04	9.22	26.64	-30.2	-31.9	13.4	1.42e-04	0	44	0	329252864	20	4352
2026-01-27 00:53:20.04	8.98	27.14	-31.0	-33.4	12.1	6.69e-04	0	44	0	334495744	21	4775
2026-01-27 00:53:23.05	8.74	27.64	-30.9	-33.1	12.3	7.97e-04	0	44	0	339738624	21	4650
2026-01-27 00:53:26.07	8.48	28.16	-31.0	-33.0	11.9	8.16e-04	0	44	0	346030080	22	4542
2026-01-27 00:53:29.08	8.22	28.68	-30.8	-32.9	12.4	7.57e-04	0	44	0	351272960	21	4597
2026-01-27 00:53:32.09	7.95	29.21	-31.1	-33.4	11.8	1.44e-03	0	43	0	356515840	22	4663
2026-01-27 00:53:35.10	7.66	29.75	-31.4	-34.1	11.2	1.77e-03	0	44	0	362807296	22	4939
2026-01-27 00:53:38.12	7.37	30.30	-31.3	-33.7	11.5	1.20e-03	0	44	0	368050176	22	4789
2026-01-27 00:53:41.12	7.07	30.86	-31.1	-33.3	11.9	1.35e-03	0	44	0	374341632	22	4631
2026-01-27 00:53:44.13	6.76	31.43	-31.3	-33.9	11.5	1.62e-03	0	44	0	379584512	22	4865
2026-01-27 00:53:47.14	6.43	32.01	-31.5	-34.1	11.1	5.06e-03	0	44	0	384827392	23	4813
2026-01-27 00:53:50.15	6.09	32.60	-31.8	-34.3	10.5	6.70e-03	0	44	0	391118848	24	4822
2026-01-27 00:53:53.15	5.74	33.20	-31.9	-35.2	10.2	6.23e-03	0	44	0	396361728	23	5277
2026-01-27 00:53:56.17	5.38	33.81	-32.3	-36.3	9.0	2.69e-02	0	44	0	401604608	24	5698
2026-01-27 00:53:59.18	5.00	34.43	-32.3	-36.1	9.1	2.06e-02	0	44	0	407896064	24	5606
2026-01-27 00:54:02.18	4.61	35.07	-32.3	-36.3	8.9	1.80e-02	0	44	0	413138944	24	5695
2026-01-27 00:54:05.20	4.19	35.71	-32.5	-37.0	8.5	1.56e-02	0	44	0	419430400	24	6021
2026-01-27 00:54:08.21	3.77	36.37	-32.8	-37.9	7.4	1.57e-01	0	44	0	424673280	25	6454
2026-01-27 00:54:11.23	3.32	37.04	-32.5	-36.4	8.5	6.71e-02	0	44	0	429916160	25	5670
2026-01-27 00:54:14.24	2.85	37.72	-32.1	-35.5	9.7	1.04e-02	0	44	0	436207616	24	5285
2026-01-27 00:54:17.25	2.37	38.41	-32.1	-35.5	9.7	8.34e-03	0	44	0	441450496	24	5301
2026-01-27 00:54:20.26	1.86	39.12	-32.2	-35.9	9.5	1.22e-02	0	44	0	447741952	24	5462
2026-01-27 00:54:23.28	1.33	39.84	-32.1	-35.5	9.7	1.09e-02	0	44	0	452984832	24	5306
2026-01-27 00:54:26.29	0.77	40.56	-32.0	-35.1	9.9	1.07e-02	0	44	0	458227712	24	5150
2026-01-27 00:54:29.28	0.20	41.30	-31.4	-33.4	11.7	1.23e-03	0	44	0	464519168	23	4547
2026-01-27 00:54:32.29	359.59	42.05	-31.1	-33.2	12.2	2.01e-04	0	44	0	469762048	22	4567
2026-01-27 00:54:35.30	358.95	42.81	-30.7	-32.0	12.9	8.01e-05	0	44	0	475004928	22	4182
2026-01-27 00:54:38.32	358.27	43.59	-30.6	-32.3	13.1	7.01e-05	0	44	0	481296384	21	4362
2026-01-27 00:54:41.33	357.57	44.38	-30.1	-31.4	13.9	6.10e-06	0	44	0	486539264	20	4183
2026-01-27 00:54:44.34	356.83	45.17	-30.1	-31.2	14.1	1.50e-06	0	44	0	492830720	20	4119
2026-01-27 00:54:47.35	356.05	45.98	-30.0	-31.0	14.3	7.00e-07	0	44	0	498073600	20	4048
2026-01-27 00:54:50.35	355.23	46.79	-29.8	-30.6	14.5	0.00e+00	0	44	0	503316480	20	3933
2026-01-27 00:54:53.36	354.36	47.62	-30.1	-31.4	14.1	2.20e-06	0	44	0	509607936	20	4170
2026-01-27 00:54:56.36	353.45	48.45	-30.2	-31.7	13.8	1.50e-06	0	44	0	514850816	20	4260
2026-01-27 00:54:59.38	352.48	49.30	-29.7	-30.8	14.7	0.00e+00	0	44	0	521142272	19	4095
2026-01-27 00:55:02.39	351.46	50.15	-28.7	-28.9	16.2	0.00e+00	0	44	0	526385152	18	3665
2026-01-27 00:55:05.40	350.37	51.00	-29.2	-30.0	15.6	0.00e+00	0	44	0	531628032	18	3957
2026-01-27 00:55:08.41	349.23	51.86	-29.4	-30.0	15.3	7.00e-07	0	44	0	537919488	19	3875
2026-01-27 00:55:11.42	348.01	52.72	-30.5	-32.4	13.6	7.60e-06	0	44	0	543162368	20	4483
2026-01-27 00:55:14.42	346.73	53.58	-30.2	-31.0	13.9	6.80e-06	0	44	0	548405248	21	3976
2026-01-27 00:55:17.43	345.36	54.45	-30.0	-31.2	14.2	0.00e+00	0	44	0	554696704	20	4108
2026-01-27 00:55:20.43	343.91	55.30	-29.9	-31.2	14.6	0.00e+00	0	44	0	559939584	19	4199
2026-01-27 00:55:23.44	342.36	56.16	-30.0	-31.1	14.3	1.43e-04	0	44	0	566231040	20	4079
2026-01-27 00:55:26.45	340.72	57.00	-30.0	-31.2	14.2	1.67e-05	0	44	0	571473920	20	4095
2026-01-27 00:55:29.47	338.96	57.83	-30.6	-32.1	13.3	1.06e-05	0	44	0	576716800	21	4282
2026-01-27 00:55:32.48	337.10	58.65	-29.9	-30.3	14.5	0.00e+00	0	44	0	583008256	21	3776
2026-01-27 00:55:35.49	335.13	59.45	-30.3	-31.4	13.9	8.30e-06	0	44	0	588251136	21	4093
2026-01-27 00:55:38.51	333.02	60.23	-28.6	-28.6	16.3	0.00e+00	0	44	0	593494016	18	3609
2026-01-27 00:55:41.52	330.79	60.98	-29.6	-30.6	14.9	0.00e+00	0	44	0	599785472	19	4039
2026-01-27 00:55:44.54	328.41	61.69	-29.4	-30.0	15.3	2.20e-06	0	44	0	605028352	19	3872
2026-01-27 00:55:47.55	325.91	62.37	-29.4	-29.5	15.2	0.00e+00	0	44	0	611319808	20	3662
2026-01-27 00:55:50.56	323.26	63.00	-29.3	-29.9	15.4	0.00e+00	0	44	0	616562688	19	3838
2026-01-27 00:55:53.57	320.48	63.59	-28.8	-28.7	16.1	7.00e-07	0	44	0	621805568	19	3532
2026-01-27 00:55:56.59	317.55	64.12	-29.8	-31.2	14.6	7.00e-07	0	44	0	628097024	19	4191
2026-01-27 00:55:59.60	314.50	64.60	-29.7	-30.8	14.8	0.00e+00	0	44	0	633339904	19	4077
2026-01-27 00:56:02.61	311.33	65.00	-28.4	-28.1	16.6	2.20e-06	0	44	0	639631360	18	3490
2026-01-27 00:56:05.62	308.05	65.34	-29.3	-30.3	15.5	1.50e-06	0	44	0	644874240	18	4031
2026-01-27 00:56:08.63	304.68	65.60	-29.8	-31.1	14.6	0.00e+00	0	44	0	650117120	19	4164
2026-01-27 00:56:11.65	301.23	65.79	-28.9	-28.9	15.9	0.00e+00	0	44	0	656408576	19	3591
2026-01-27 00:56:14.67	297.73	65.90	-28.5	-28.9	16.5	2.55e-04	0	44	0	661651456	17	3779
2026-01-27 00:56:17.68	294.22	65.92	-28.0	-28.2	17.1	3.41e-04	0	44	0	667942912	16	3687
2026-01-27 00:56:20.69	290.72	65.86	-29.1	-29.8	15.6	0.00e+00	0	44	0	673185792	18	3916
2026-01-27 00:56:23.70	287.25	65.72	-28.2	-28.7	16.8	0.00e+00	0	44	0	678428672	16	3798
2026-01-27 00:56:26.71	283.84	65.50	-28.9	-29.7	16.0	0.00e+00	0	44	0	684720128	17	3979
2026-01-27 00:56:29.72	280.50	65.20	-29.1	-29.8	15.7	0.00e+00	0	44	0	689963008	18	3905
2026-01-27 00:56:32.73	277.26	64.84	-29.3	-30.4	15.3	2.40e-04	0	44	0	695205888	18	4065
2026-01-27 00:56:35.73	274.15	64.40	-28.5	-28.9	16.4	1.78e-04	0	44	0	701497344	17	3776
2026-01-27 00:56:38.75	271.14	63.90	-28.3	-29.0	16.6	5.48e-04	0	44	0	706740224	16	3875
2026-01-27 00:56:41.76	268.27	63.35	-26.6	-26.6	18.5	5.03e-04	0	44	0	713031680	13	3608
2026-01-27 00:56:44.77	265.55	62.74	-27.8	-28.4	17.1	9.41e-04	0	44	0	718274560	15	3828
2026-01-27 00:56:47.79	262.95	62.08	-29.7	-30.9	14.7	9.97e-04	0	44	0	723517440	19	4124
2026-01-27 00:56:50.80	260.50	61.39	-30.4	-32.2	13.6	3.91e-04	0	44	0	729808896	20	4440
2026-01-27 00:56:53.81	258.19	60.65	-30.4	-32.3	13.5	2.02e-04	0	44	0	735051776	20	4443
2026-01-27 00:56:56.83	256.01	59.89	-31.9	-35.0	10.6	1.87e-03	0	44	0	741343232	23	5163
2026-01-27 00:56:59.84	253.95	59.10	-31.1	-32.5	12.4	2.94e-03	0	44	0	746586112	23	4241
2026-01-27 00:57:02.86	252.02	58.29	-30.5	-31.9	13.2	1.74e-03	0	44	0	751828992	21	4243
2026-01-27 00:57:05.88	250.20	57.46	-31.2	-32.9	11.9	1.82e-03	0	44	0	758120448	23	4377
2026-01-27 00:57:08.88	248.50	56.63	-31.8	-34.8	10.6	2.18e-03	0	44	0	763363328	23	5125
2026-01-27 00:57:11.89	246.90	55.77	-31.1	-32.7	12.1	3.24e-03	0	44	0	768606208	23	4323
2026-01-27 00:57:14.90	245.39	54.92	-31.8	-35.1	10.3	5.01e-03	0	44	0	774897664	23	5235
2026-01-27 00:57:17.91	243.97	54.05	-30.6	-32.2	13.0	4.07e-04	0	44	0	780140544	21	4339
2026-01-27 00:57:20.92	242.63	53.19	-30.9	-33.3	12.3	2.34e-04	0	44	0	786432000	21	4738
2026-01-27 00:57:23.92	241.38	52.33	-31.1	-33.2	12.0	1.47e-03	0	44	0	791674880	22	4591
2026-01-27 00:57:26.92	240.19	51.47	-30.4	-31.8	13.1	4.01e-04	0	44	0	796917760	21	4234
2026-01-27 00:57:29.92	239.08	50.61	-29.5	-30.3	14.8	4.11e-05	0	44	0	803209216	19	3962
2026-01-27 00:57:32.93	238.02	49.75	-30.0	-31.3	13.8	1.50e-06	0	44	0	808452096	20	4159
2026-01-27 00:57:35.94	237.02	48.90	-30.9	-32.8	12.1	1.85e-04	0	44	0	813694976	22	4481
2026-01-27 00:57:38.93	236.08	48.07	-31.0	-32.5	12.0	5.02e-04	0	44	0	819986432	23	4275
2026-01-27 00:57:41.94	235.18	47.23	-30.7	-32.6	12.6	6.46e-04	0	44	0	825229312	21	4504
2026-01-27 00:57:44.94	234.33	46.41	-30.4	-32.3	13.1	4.80e-04	0	44	0	831520768	20	4496
2026-01-27 00:57:47.94	233.53	45.60	-31.7	-34.9	10.2	2.69e-03	0	44	0	836763648	23	5216
2026-01-27 00:57:50.95	232.77	44.79	-31.5	-34.3	10.6	4.47e-03	0	44	0	842006528	23	4965
2026-01-27 00:57:53.96	232.04	44.00	-31.7	-34.9	10.2	4.08e-03	0	44	0	848297984	23	5225
2026-01-27 00:57:56.97	231.35	43.21	-30.2	-31.7	13.4	1.22e-05	0	44	0	853540864	20	4316
2026-01-27 00:57:59.98	230.69	42.44	-30.5	-32.2	12.8	5.34e-05	0	44	0	858783744	21	4379
2026-01-27 00:58:02.99	230.06	41.68	-31.5	-34.7	10.9	7.21e-04	0	44	0	865075200	22	5228
2026-01-27 00:58:06.00	229.46	40.93	-32.3	-36.9	8.3	5.38e-02	0	44	0	870318080	24	6074
2026-01-27 00:58:09.01	228.89	40.19	-32.0	-35.0	9.3	4.41e-02	0	44	0	876609536	25	5065
2026-01-27 00:58:12.01	228.34	39.47	-31.0	-33.0	11.8	5.61e-04	0	44	0	881852416	22	4561
2026-01-27 00:58:15.01	227.82	38.76	-30.9	-32.8	12.0	6.36e-04	0	44	0	887095296	22	4477
2026-01-27 00:58:18.02	227.32	38.06	-31.1	-33.5	11.4	8.58e-04	0	44	0	893386752	22	4739
2026-01-27 00:58:21.03	226.85	37.37	-31.7	-35.2	9.6	2.03e-02	0	44	0	898629632	23	5337
2026-01-27 00:58:24.04	226.39	36.69	-31.5	-34.3	10.4	7.53e-03	0	44	0	903872512	23	4986
2026-01-27 00:58:27.05	225.95	36.03	-31.7	-35.2	9.8	1.17e-02	0	44	0	910163968	23	5342
2026-01-27 00:58:30.06	225.53	35.37	-31.3	-34.1	11.0	3.50e-03	0	44	0	915406848	22	5003
2026-01-27 00:58:33.06	225.12	34.73	-31.2	-33.9	11.2	1.43e-03	0	44	0	921698304	22	4903
2026-01-27 00:58:36.07	224.73	34.10	-30.4	-31.9	12.9	6.79e-05	0	44	0	926941184	21	4300
2026-01-27 00:58:39.07	224.36	33.48	-30.8	-33.0	12.1	5.41e-05	0	44	0	932184064	21	4682
2026-01-27 00:58:42.07	224.00	32.87	-31.1	-33.6	11.4	1.89e-03	0	44	0	938475520	22	4786
2026-01-27 00:58:45.08	223.65	32.28	-30.8	-33.1	12.0	3.94e-04	0	44	0	943718400	21	4696
2026-01-27 00:58:48.09	223.32	31.69	-31.0	-33.3	11.5	2.74e-03	0	44	0	948961280	22	4673
2026-01-27 00:58:51.09	223.00	31.11	-29.7	-30.7	13.9	2.21e-05	0	44	0	955252736	20	4011
2026-01-27 00:58:54.09	222.69	30.55	-29.8	-30.9	13.8	7.70e-05	0	44	0	960495616	20	4072
2026-01-27 00:58:57.09	222.39	29.99	-30.3	-32.2	12.9	1.83e-05	0	44	0	966787072	20	4479
2026-01-27 00:59:00.10	222.10	29.44	-30.3	-32.4	12.8	6.33e-05	0	44	0	972029952	20	4551
2026-01-27 00:59:03.12	221.82	28.90	-31.6	-34.7	10.1	2.75e-03	0	44	0	977272832	23	5147
2026-01-27 00:59:06.13	221.55	28.37	-31.9	-35.8	9.1	2.67e-02	0	44	0	983564288	23	5690
2026-01-27 00:59:09.14	221.29	27.85	-31.6	-34.9	9.9	1.11e-02	0	44	0	988807168	23	5239
2026-01-27 00:59:12.14	221.04	27.35	-31.1	-33.1	11.2	2.48e-03	0	44	0	994050048	23	4552
2026-01-27 00:59:15.15	220.79	26.84	-30.6	-32.2	12.2	3.59e-04	0	44	0	1000341504	22	4324
2026-01-27 00:59:18.16	220.55	26.35	-30.4	-32.7	12.4	1.55e-03	0	44	0	1005584384	20	4677
2026-01-27 00:59:21.17	220.32	25.86	-30.1	-31.8	13.0	2.36e-05	0	44	0	1011875840	20	4391
2026-01-27 00:59:24.17	220.10	25.39	-30.5	-32.5	12.2	2.21e-03	0	44	0	1017118720	21	4543
2026-01-27 00:59:27.18	219.89	24.92	-30.6	-32.8	12.0	2.80e-03	0	44	0	1022361600	21	4642
2026-01-27 00:59:30.19	219.68	24.46	-30.3	-31.9	12.5	2.53e-03	0	44	0	1028653056	21	4334
2026-01-27 00:59:33.22	219.47	24.00	-30.3	-31.9	12.6	2.39e-03	0	44	0	1033895936	21	4327
2026-01-27 00:59:36.24	219.28	23.55	-31.1	-33.9	10.8	4.87e-03	0	44	0	1040187392	22	4969
2026-01-27 00:59:39.25	219.09	23.12	-31.5	-34.7	9.8	9.70e-03	0	44	0	1045430272	23	5206
2026-01-27 00:59:42.26	218.90	22.68	-31.5	-34.7	9.8	1.06e-02	0	44	0	1050673152	23	5215
2026-01-27 00:59:45.27	218.72	22.26	-30.5	-32.4	12.1	4.50e-04	0	44	0	1056964608	21	4516
2026-01-27 00:59:48.27	218.55	21.84	-29.7	-31.3	13.6	1.29e-05	0	44	0	1062207488	19	4331
2026-01-27 00:59:51.28	218.37	21.43	-29.7	-31.2	13.7	1.37e-05	0	44	0	1067450368	19	4276
2026-01-27 00:59:54.29	218.21	21.02	-29.7	-31.2	13.6	1.37e-05	0	44	0	1073741824	19	4287
2026-01-27 00:59:57.29	218.05	20.62	-29.9	-31.7	13.4	1.83e-05	0	44	0	1078984704	19	4456
2026-01-27 01:00:00.30	217.89	20.23	-29.9	-31.3	13.2	1.98e-05	0	44	0	1085276160	20	4245
2026-01-27 01:00:03.30	217.74	19.84	-29.8	-31.2	13.2	3.96e-05	0	44	0	1090519040	20	4207
2026-01-27 01:00:06.32	217.59	19.46	-29.8	-31.3	13.1	4.34e-05	0	44	0	1095761920	20	4239
2026-01-27 01:00:09.32	217.45	19.09	-30.0	-31.7	12.8	5.41e-05	0	44	0	1102053376	20	4371
2026-01-27 01:00:12.33	217.30	18.72	-30.1	-32.0	12.2	7.62e-05	0	44	0	1107296256	20	4473
2026-01-27 01:00:15.33	217.17	18.35	-30.3	-32.6	12.2	6.07e-04	0	44	0	1112539136	20	4698
2026-01-27 01:00:18.34	217.03	17.99	-30.5	-32.7	11.7	4.24e-04	0	44	0	1118830592	21	4635
2026-01-27 01:00:21.36	216.90	17.63	-30.9	-34.0	10.7	1.32e-03	0	44	0	1124073472	21	5166
2026-01-27 01:00:24.37	216.77	17.28	-31.0	-33.7	10.7	3.18e-03	0	44	0	1130364928	22	4941
2026-01-27 01:00:27.37	216.65	16.94	-31.0	-34.3	10.5	4.90e-03	0	44	0	1135607808	21	5276
2026-01-27 01:00:30.38	216.53	16.60	-30.5	-32.6	11.7	9.75e-04	0	44	0	1140850688	21	4623
2026-01-27 01:00:33.39	216.41	16.26	-30.5	-33.1	11.7	1.24e-03	0	44	0	1147142144	20	4881
2026-01-27 01:00:36.41	216.29	15.93	-29.9	-32.0	12.9	4.68e-04	0	44	0	1152385024	19	4563
2026-01-27 01:00:39.43	216.18	15.60	-29.7	-31.4	13.2	2.95e-04	0	44	0	1158676480	19	4372
2026-01-27 01:00:42.44	216.07	15.28	-29.5	-30.9	13.6	8.46e-05	0	44	0	1163919360	19	4210
2026-01-27 01:00:45.44	215.96	14.96	-29.6	-31.1	13.4	9.10e-06	0	44	0	1169162240	19	4302
2026-01-27 01:00:48.45	215.85	14.64	-29.9	-32.1	12.7	6.56e-05	0	44	0	1175453696	19	4630
2026-01-27 01:00:51.45	215.75	14.33	-30.1	-32.1	12.2	1.58e-04	0	44	0	1180696576	20	4542
2026-01-27 01:00:54.47	215.65	14.02	-30.4	-33.0	11.6	7.56e-04	0	44	0	1185939456	20	4861
2026-01-27 01:00:57.48	215.55	13.72	-30.4	-33.0	11.6	6.86e-04	0	44	0	1192230912	20	4867
2026-01-27 01:01:00.48	215.46	13.42	-30.3	-32.6	11.8	4.46e-04	0	44	0	1197473792	20	4739
2026-01-27 01:01:03.49	215.36	13.12	-30.1	-32.1	12.1	3.71e-04	0	44	0	1203765248	20	4542
2026-01-27 01:01:06.51	215.27	12.83	-30.0	-32.0	12.1	3.26e-04	0	44	0	1209008128	20	4526
2026-01-27 01:01:09.52	215.18	12.54	-30.0	-31.9	12.2	3.35e-04	0	44	0	1214251008	20	4489
2026-01-27 01:01:12.53	215.09	12.25	-30.0	-31.8	12.3	2.53e-04	0	44	0	1220542464	20	4464
2026-01-27 01:01:15.54	215.00	11.97	-30.1	-32.2	11.9	4.55e-04	0	44	0	1225785344	20	4604
2026-01-27 01:01:18.54	214.92	11.69	-30.2	-32.6	11.7	7.52e-04	0	44	0	1231028224	20	4741
2026-01-27 01:01:21.55	214.84	11.41	-30.3	-32.8	11.5	7.96e-04	0	44	0	1237319680	20	4824
2026-01-27 01:01:24.56	214.75	11.14	-30.3	-32.9	11.4	8.71e-04	0	44	0	1242562560	20	4873
2026-01-27 01:01:27.57	214.67	10.87	-30.2	-32.6	11.5	7.34e-04	0	44	0	1248854016	20	4766
2026-01-27 01:01:30.58	214.60	10.60	-30.4	-33.4	11.0	1.51e-03	0	44	0	1254096896	20	5064
2026-01-27 01:01:33.60	214.52	10.34	-30.4	-33.3	11.1	1.43e-03	0	44	0	1259339776	20	5014
2026-01-27 01:01:36.60	214.44	10.07	-30.3	-33.0	11.2	1.48e-03	0	44	0	1265631232	20	4927
2026-01-27 01:01:39.61	214.37	9.81	-30.6	-33.6	10.4	2.73e-03	0	44	0	1270874112	21	5059
2026-01-27 01:01:42.61	214.30	9.56	-30.6	-33.4	10.5	3.32e-03	0	44	0	1276116992	21	5007
2026-01-27 01:01:45.61	214.23	9.30	-30.7	-34.0	10.1	5.82e-03	0	44	0	1282408448	21	5234
2026-01-27 01:01:48.61	214.16	9.05	-30.6	-33.5	10.4	4.87e-03	0	44	0	1287651328	21	5042
2026-01-27 01:01:51.62	214.09	8.80	-30.5	-33.3	10.5	5.00e-03	0	44	0	1293942784	21	4949
2026-01-27 01:01:54.62	214.02	8.56	-30.5	-33.4	10.4	4.52e-03	0	44	0	1299185664	21	5014
2026-01-27 01:01:57.63	213.96	8.31	-30.7	-33.9	10.0	5.91e-03	0	44	0	1304428544	21	5226
2026-01-27 01:02:00.64	213.89	8.07	-30.5	-33.2	10.5	3.80e-03	0	44	0	1310720000	21	4938
2026-01-27 01:02:03.66	213.83	7.83	-30.6	-33.7	10.1	5.68e-03	0	44	0	1315962880	21	5148
2026-01-27 01:02:06.67	213.77	7.59	-30.6	-33.6	10.1	5.79e-03	0	44	0	1321205760	21	5130
2026-01-27 01:02:09.69	213.71	7.36	-29.5	-32.4	10.3	5.79e-03	0	44	0	1327497216	21	5010
2026-01-27 01:02:12.70	213.65	7.12	-30.6	-33.9	9.7	8.71e-03	0	44	0	1332740096	21	5254

#Closed at: 2026-01-27 01:02:15
#Recorded file [1334 MB]: D:/data/31010_260127_035021.dat