passes_logs/2026/01/27/R2M6_AANII_01/R2M6_AANII_01__20260127_023056_SUOMI_NPP_rec.log

#Pass ID: 20260127_023056_SUOMI NPP
#Satellite: SUOMI NPP
#Configuration: NPP
#almurnet v.1.7.20240730
#Start time: 2026-01-27 02:30:56

#Version: 2.2.20231116
#Station: R2M6_AANII_01
#Location: 30.233357 lon 59.946436 lat
#TLE: 1 37849U 11061A   26026.52266023  .00000173  00000+0  10323-3 0  9994
#TLE: 2 37849  98.7822 328.4727 0002140  43.9411 316.1934 14.19530258738341

#Time	Az	El	Level	Level2	SNR	BER	BlckErr	Temp	State	Recorded	gain1	gain2
2026-01-27 02:30:56.97	9.85	7.04	-32.0	-39.4	4.2	1.42e+00	0	42	0	0	24	8412
2026-01-27 02:30:59.98	9.55	7.22	-31.9	-38.7	5.7	4.27e-01	0	41	0	1048576	23	7847
2026-01-27 02:31:02.97	9.26	7.41	-31.9	-38.3	6.0	3.57e-01	0	42	0	7340032	23	7527
2026-01-27 02:31:05.98	8.96	7.59	-31.8	-37.3	6.7	2.65e-01	0	42	0	12582912	23	6842
2026-01-27 02:31:08.99	8.65	7.78	-31.1	-35.0	8.9	3.20e-02	0	42	0	17825792	22	5628
2026-01-27 02:31:12.00	8.34	7.97	-30.4	-33.1	10.8	3.74e-03	0	42	0	24117248	21	4858
2026-01-27 02:31:15.02	8.02	8.16	-30.5	-33.4	10.5	4.60e-03	0	42	0	29360128	21	4981
2026-01-27 02:31:18.03	7.71	8.34	-30.7	-33.9	10.1	6.61e-03	0	42	0	35651584	21	5211
2026-01-27 02:31:21.04	7.38	8.53	-30.9	-33.9	9.8	1.21e-02	0	42	0	40894464	22	5124
2026-01-27 02:31:24.06	7.05	8.72	-30.8	-33.6	10.1	6.55e-03	0	42	0	46137344	22	4986
2026-01-27 02:31:27.07	6.72	8.92	-30.9	-34.0	9.8	1.01e-02	0	42	0	52428800	22	5156
2026-01-27 02:31:30.09	6.38	9.11	-31.0	-34.4	9.5	1.35e-02	0	42	0	57671680	22	5321
2026-01-27 02:31:33.10	6.04	9.30	-31.0	-34.5	9.5	1.29e-02	0	42	0	63963136	22	5335
2026-01-27 02:31:36.11	5.70	9.49	-30.8	-34.1	10.2	6.24e-03	0	43	0	69206016	21	5245
2026-01-27 02:31:39.12	5.35	9.68	-30.5	-33.2	10.8	2.30e-03	0	43	0	74448896	21	4893
2026-01-27 02:31:42.13	4.99	9.88	-30.4	-32.9	11.1	1.95e-03	0	42	0	80740352	21	4771
2026-01-27 02:31:45.13	4.63	10.07	-30.6	-33.4	10.8	2.73e-03	0	43	0	85983232	21	4952
2026-01-27 02:31:48.13	4.27	10.26	-30.7	-33.8	10.4	4.62e-03	0	43	0	91226112	21	5117
2026-01-27 02:31:51.14	3.90	10.46	-30.5	-33.1	11.0	2.33e-03	0	43	0	97517568	21	4847
2026-01-27 02:31:54.15	3.53	10.65	-30.6	-33.2	10.9	2.10e-03	0	43	0	102760448	21	4880
2026-01-27 02:31:57.16	3.15	10.84	-30.6	-33.2	10.9	1.66e-03	0	43	0	109051904	21	4881
2026-01-27 02:32:00.18	2.76	11.04	-30.4	-32.8	11.3	1.99e-03	0	43	0	114294784	21	4716
2026-01-27 02:32:03.19	2.37	11.24	-30.3	-32.4	11.6	7.33e-04	0	43	0	119537664	21	4565
2026-01-27 02:32:06.20	1.97	11.43	-30.2	-32.0	11.9	3.33e-04	0	43	0	125829120	21	4422
2026-01-27 02:32:09.21	1.57	11.63	-30.3	-32.8	11.6	5.58e-04	0	43	0	131072000	20	4822
2026-01-27 02:32:12.22	1.17	11.82	-30.2	-32.7	11.7	5.12e-04	0	43	0	136314880	20	4779
2026-01-27 02:32:15.23	0.75	12.02	-30.2	-32.6	11.8	4.86e-04	0	43	0	142606336	20	4738
2026-01-27 02:32:18.24	0.34	12.21	-30.4	-33.2	11.4	1.03e-03	0	43	0	147849216	20	4980
2026-01-27 02:32:21.25	359.91	12.41	-30.4	-32.5	11.5	1.25e-03	0	43	0	154140672	21	4622
2026-01-27 02:32:24.26	359.48	12.61	-30.2	-32.7	11.7	6.83e-04	0	43	0	159383552	20	4784
2026-01-27 02:32:27.27	359.05	12.80	-30.2	-32.6	11.8	3.75e-04	0	43	0	164626432	20	4748
2026-01-27 02:32:30.27	358.61	13.00	-30.5	-32.9	11.3	9.05e-04	0	43	0	170917888	21	4747
2026-01-27 02:32:33.28	358.16	13.19	-30.3	-32.8	11.7	4.90e-04	0	43	0	176160768	20	4805
2026-01-27 02:32:36.29	357.71	13.39	-30.0	-32.1	12.2	2.43e-04	0	43	0	182452224	20	4552
2026-01-27 02:32:39.30	357.25	13.58	-30.1	-32.1	12.2	1.77e-04	0	43	0	187695104	20	4551
2026-01-27 02:32:42.31	356.78	13.78	-30.4	-33.1	11.5	4.45e-04	0	43	0	192937984	20	4928
2026-01-27 02:32:45.32	356.31	13.97	-30.3	-32.7	11.8	6.04e-04	0	43	0	199229440	20	4778
2026-01-27 02:32:48.33	355.83	14.17	-30.5	-32.8	11.4	8.52e-04	0	43	0	204472320	21	4738
2026-01-27 02:32:51.34	355.34	14.36	-30.6	-33.2	11.1	1.39e-03	0	43	0	209715200	21	4881
2026-01-27 02:32:54.35	354.85	14.56	-30.6	-33.2	11.2	1.58e-03	0	44	0	216006656	21	4846
2026-01-27 02:32:57.35	354.36	14.75	-30.8	-33.7	10.9	1.56e-03	0	44	0	221249536	21	5026
2026-01-27 02:33:00.37	353.85	14.94	-31.2	-34.5	10.0	6.05e-03	0	43	0	227540992	22	5272
2026-01-27 02:33:03.36	353.34	15.13	-30.7	-33.5	10.8	2.36e-03	0	44	0	232783872	21	4971
2026-01-27 02:33:06.37	352.82	15.32	-30.3	-32.7	11.9	6.35e-04	0	44	0	238026752	20	4769
2026-01-27 02:33:09.38	352.30	15.51	-30.7	-33.6	11.0	1.30e-03	0	44	0	244318208	21	4986
2026-01-27 02:33:12.39	351.77	15.70	-30.9	-34.2	10.6	4.68e-03	0	43	0	249561088	21	5226
2026-01-27 02:33:15.41	351.23	15.89	-30.9	-34.0	10.7	3.72e-03	0	44	0	254803968	21	5186
2026-01-27 02:33:18.41	350.68	16.07	-30.9	-34.1	10.6	2.40e-03	0	44	0	261095424	21	5205
2026-01-27 02:33:21.41	350.13	16.25	-30.6	-33.0	11.4	1.71e-03	0	44	0	266338304	21	4781
2026-01-27 02:33:24.41	349.57	16.44	-30.0	-31.8	12.6	9.38e-05	0	44	0	272629760	20	4440
2026-01-27 02:33:27.41	349.01	16.62	-30.0	-31.9	12.6	4.18e-04	0	44	0	277872640	20	4465
2026-01-27 02:33:30.41	348.44	16.80	-29.9	-32.0	12.8	2.81e-04	0	44	0	283115520	19	4604
2026-01-27 02:33:33.42	347.86	16.98	-29.5	-31.1	13.5	1.26e-04	0	44	0	289406976	19	4293
2026-01-27 02:33:36.42	347.27	17.15	-29.6	-31.2	13.4	7.93e-05	0	43	0	294649856	19	4336
2026-01-27 02:33:39.42	346.68	17.33	-29.6	-31.3	13.4	1.07e-04	0	44	0	299892736	19	4350
2026-01-27 02:33:42.42	346.08	17.50	-29.3	-30.3	14.0	0.00e+00	0	44	0	306184192	19	4048
2026-01-27 02:33:45.44	345.47	17.67	-29.4	-30.5	13.9	7.78e-05	0	44	0	311427072	19	4115
2026-01-27 02:33:48.45	344.86	17.84	-29.4	-30.6	13.8	3.50e-05	0	44	0	317718528	19	4130
2026-01-27 02:33:51.46	344.24	18.01	-28.9	-29.4	14.6	1.17e-04	0	44	0	322961408	19	3792
2026-01-27 02:33:54.48	343.61	18.17	-29.3	-30.8	14.0	1.17e-04	0	43	0	328204288	18	4295
2026-01-27 02:33:57.48	342.97	18.33	-29.2	-30.5	14.1	1.37e-05	0	44	0	334495744	18	4212
2026-01-27 02:34:00.49	342.33	18.49	-29.3	-30.8	14.0	1.50e-06	0	44	0	339738624	18	4301
2026-01-27 02:34:03.50	341.68	18.65	-29.7	-31.5	13.2	2.28e-05	0	44	0	346030080	19	4424
2026-01-27 02:34:06.51	341.02	18.80	-29.3	-30.2	14.1	1.50e-06	0	44	0	351272960	19	4026
2026-01-27 02:34:09.53	340.36	18.95	-29.2	-30.1	14.2	1.01e-04	0	44	0	356515840	19	3987
2026-01-27 02:34:12.53	339.69	19.10	-29.4	-30.6	13.9	5.56e-05	0	44	0	362807296	19	4141
2026-01-27 02:34:15.55	339.01	19.24	-28.6	-28.9	15.2	7.00e-07	0	44	0	368050176	18	3756
2026-01-27 02:34:18.56	338.33	19.38	-28.5	-28.8	15.3	0.00e+00	0	44	0	373293056	18	3715
2026-01-27 02:34:21.57	337.64	19.52	-28.9	-30.3	14.7	0.00e+00	0	44	0	379584512	17	4233
2026-01-27 02:34:24.56	336.95	19.65	-28.7	-29.8	15.0	0.00e+00	0	44	0	384827392	17	4091
2026-01-27 02:34:27.58	336.25	19.78	-29.0	-30.0	14.7	7.00e-07	0	44	0	391118848	18	4030
2026-01-27 02:34:30.59	335.54	19.91	-29.1	-30.2	14.5	7.00e-07	0	44	0	396361728	18	4101
2026-01-27 02:34:33.60	334.83	20.03	-28.7	-29.8	15.0	0.00e+00	0	44	0	401604608	17	4077
2026-01-27 02:34:36.61	334.11	20.15	-28.8	-30.0	15.0	0.00e+00	0	44	0	407896064	17	4122
2026-01-27 02:34:39.62	333.39	20.26	-28.6	-29.5	15.2	0.00e+00	0	44	0	413138944	17	4004
2026-01-27 02:34:42.64	332.66	20.37	-28.3	-28.8	15.7	0.00e+00	0	44	0	419430400	17	3802
2026-01-27 02:34:45.65	331.92	20.48	-28.8	-29.9	14.3	0.00e+00	0	44	0	424673280	17	4094
2026-01-27 02:34:48.66	331.18	20.58	-28.4	-29.5	14.8	0.00e+00	0	44	0	429916160	16	4075
2026-01-27 02:34:51.66	330.44	20.67	-28.7	-29.6	15.2	0.00e+00	0	44	0	436207616	17	4026
2026-01-27 02:34:54.66	329.69	20.76	-29.3	-30.8	14.2	1.50e-06	0	44	0	441450496	18	4264
2026-01-27 02:34:57.67	328.94	20.85	-29.4	-31.0	14.1	7.98e-04	0	44	0	446693376	18	4315
2026-01-27 02:35:00.68	328.18	20.93	-29.4	-31.1	14.0	4.49e-04	0	44	0	452984832	18	4368
2026-01-27 02:35:03.70	327.42	21.00	-29.8	-31.7	13.2	1.44e-05	0	44	0	458227712	19	4467
2026-01-27 02:35:06.71	326.66	21.07	-29.6	-30.9	13.8	8.30e-06	0	44	0	464519168	19	4211
2026-01-27 02:35:09.72	325.89	21.14	-29.4	-31.1	14.0	2.20e-06	0	44	0	469762048	18	4363
2026-01-27 02:35:12.73	325.12	21.20	-30.0	-31.8	12.8	2.12e-04	0	44	0	475004928	20	4406
2026-01-27 02:35:15.74	324.34	21.25	-30.3	-32.7	12.1	2.26e-04	0	44	0	481296384	20	4734
2026-01-27 02:35:18.76	323.56	21.30	-29.3	-29.9	14.0	3.20e-05	0	44	0	486539264	20	3837
2026-01-27 02:35:21.78	322.78	21.34	-29.8	-31.1	13.2	1.90e-05	0	44	0	492830720	20	4187
2026-01-27 02:35:24.80	322.00	21.38	-29.8	-31.1	13.3	1.38e-04	0	44	0	498073600	20	4194
2026-01-27 02:35:27.81	321.21	21.41	-29.4	-30.5	14.0	1.20e-04	0	44	0	503316480	19	4102
2026-01-27 02:35:30.81	320.43	21.44	-29.9	-31.9	13.1	3.76e-04	0	44	0	509607936	19	4552
2026-01-27 02:35:33.83	319.64	21.46	-30.3	-32.6	12.2	1.21e-03	0	44	0	514850816	20	4703
2026-01-27 02:35:36.85	318.85	21.48	-30.5	-32.8	11.6	1.12e-03	0	44	0	520093696	21	4699
2026-01-27 02:35:39.86	318.06	21.49	-30.1	-32.1	12.5	1.42e-03	0	44	0	526385152	20	4523
2026-01-27 02:35:42.87	317.28	21.49	-30.0	-31.9	12.7	1.92e-03	0	44	0	531628032	20	4440
2026-01-27 02:35:45.88	316.49	21.49	-29.7	-31.3	13.4	1.29e-05	0	44	0	537919488	19	4347
2026-01-27 02:35:48.88	315.70	21.48	-29.3	-30.8	14.0	1.50e-06	0	44	0	543162368	18	4285
2026-01-27 02:35:51.90	314.91	21.46	-29.4	-31.0	14.0	3.80e-06	0	44	0	548405248	18	4330
2026-01-27 02:35:54.92	314.12	21.44	-29.6	-31.1	13.6	6.10e-06	0	44	0	554696704	19	4279
2026-01-27 02:35:57.93	313.34	21.42	-30.0	-31.9	12.6	5.34e-05	0	44	0	559939584	20	4455
2026-01-27 02:36:00.92	312.56	21.39	-29.7	-31.3	13.4	1.42e-03	0	44	0	565182464	19	4349
2026-01-27 02:36:03.92	311.78	21.35	-29.0	-29.5	14.6	1.50e-06	0	44	0	571473920	19	3797
2026-01-27 02:36:06.94	311.00	21.31	-28.9	-29.3	14.7	0.00e+00	0	44	0	576716800	19	3760
2026-01-27 02:36:09.95	310.22	21.26	-29.0	-30.0	14.6	0.00e+00	0	44	0	583008256	18	4044
2026-01-27 02:36:12.96	309.44	21.21	-28.5	-29.3	15.3	0.00e+00	0	44	0	588251136	17	3943
2026-01-27 02:36:15.96	308.67	21.15	-28.7	-29.7	15.1	0.00e+00	0	44	0	593494016	17	4038
2026-01-27 02:36:18.96	307.91	21.09	-28.6	-29.4	15.3	0.00e+00	0	44	0	599785472	17	3959
2026-01-27 02:36:21.98	307.14	21.02	-28.3	-28.9	15.6	0.00e+00	0	44	0	605028352	17	3819
2026-01-27 02:36:24.99	306.38	20.94	-28.5	-29.2	15.4	7.00e-07	0	44	0	611319808	17	3908
2026-01-27 02:36:27.99	305.62	20.86	-28.8	-30.1	14.9	7.00e-07	0	44	0	616562688	17	4153
2026-01-27 02:36:30.99	304.87	20.78	-28.9	-29.7	14.8	0.00e+00	0	44	0	621805568	18	3942
2026-01-27 02:36:34.00	304.12	20.69	-28.8	-29.6	14.9	0.00e+00	0	44	0	628097024	18	3913
2026-01-27 02:36:37.01	303.37	20.60	-28.3	-28.6	15.7	0.00e+00	0	44	0	633339904	17	3759
2026-01-27 02:36:40.01	302.63	20.50	-28.6	-29.5	15.2	0.00e+00	0	44	0	638582784	17	3996
2026-01-27 02:36:43.02	301.89	20.39	-29.5	-30.9	13.7	7.00e-07	0	44	0	644874240	19	4219
2026-01-27 02:36:46.03	301.16	20.29	-29.3	-30.4	14.0	7.00e-07	0	44	0	650117120	19	4065
2026-01-27 02:36:49.04	300.43	20.17	-29.3	-30.3	14.1	0.00e+00	0	44	0	656408576	19	4037
2026-01-27 02:36:52.05	299.71	20.06	-29.7	-31.3	13.4	1.06e-05	0	44	0	661651456	19	4349
2026-01-27 02:36:55.05	299.00	19.94	-30.1	-31.9	12.6	6.25e-05	0	44	0	666894336	20	4463
2026-01-27 02:36:58.06	298.29	19.81	-30.0	-31.8	12.7	1.17e-04	0	44	0	673185792	20	4433
2026-01-27 02:37:01.07	297.59	19.68	-29.7	-30.9	13.3	3.50e-05	0	44	0	678428672	20	4126
2026-01-27 02:37:04.08	296.89	19.55	-29.5	-30.6	14.0	5.30e-06	0	44	0	683671552	19	4090
2026-01-27 02:37:07.10	296.20	19.41	-29.5	-30.8	13.9	4.50e-06	0	44	0	689963008	19	4159
2026-01-27 02:37:10.11	295.51	19.27	-29.5	-30.7	13.9	1.50e-06	0	44	0	695205888	19	4143
2026-01-27 02:37:13.11	294.83	19.13	-29.2	-30.4	14.4	7.00e-07	0	44	0	701497344	18	4142
2026-01-27 02:37:16.12	294.16	18.98	-28.9	-29.6	14.9	0.00e+00	0	44	0	706740224	18	3926
2026-01-27 02:37:19.13	293.49	18.83	-28.8	-29.9	14.9	7.00e-07	0	44	0	711983104	17	4100
2026-01-27 02:37:22.15	292.83	18.68	-29.0	-30.0	14.7	0.00e+00	0	44	0	718274560	18	4014
2026-01-27 02:37:25.14	292.18	18.53	-29.9	-31.9	13.1	1.83e-05	0	44	0	723517440	19	4515
2026-01-27 02:37:28.14	291.54	18.37	-30.3	-32.0	12.2	2.64e-04	0	44	0	728760320	21	4383
2026-01-27 02:37:31.16	290.90	18.21	-30.2	-32.3	12.3	1.49e-04	0	44	0	735051776	20	4587
2026-01-27 02:37:34.18	290.26	18.04	-30.6	-33.0	11.5	7.09e-04	0	44	0	740294656	21	4723
2026-01-27 02:37:37.19	289.64	17.88	-31.1	-34.1	10.4	3.66e-03	0	44	0	746586112	22	5076
2026-01-27 02:37:40.19	289.02	17.71	-30.5	-32.1	11.7	6.62e-04	0	44	0	751828992	22	4341
2026-01-27 02:37:43.19	288.41	17.54	-29.7	-30.8	13.3	2.59e-05	0	44	0	757071872	20	4112
2026-01-27 02:37:46.20	287.81	17.36	-29.5	-30.3	13.6	3.00e-06	0	44	0	763363328	20	3956
2026-01-27 02:37:49.22	287.21	17.19	-29.4	-30.6	13.8	8.30e-06	0	44	0	768606208	19	4128
2026-01-27 02:37:52.22	286.62	17.01	-30.0	-31.7	12.7	4.04e-05	0	44	0	773849088	20	4366
2026-01-27 02:37:55.22	286.04	16.83	-29.7	-31.0	13.1	5.64e-05	0	44	0	780140544	20	4148
2026-01-27 02:37:58.23	285.46	16.65	-29.6	-30.6	13.4	1.37e-05	0	44	0	785383424	20	4043
2026-01-27 02:38:01.24	284.89	16.47	-29.7	-30.8	13.3	1.75e-05	0	44	0	791674880	20	4087
2026-01-27 02:38:04.25	284.33	16.29	-30.5	-32.8	11.6	4.53e-04	0	44	0	796917760	21	4675
2026-01-27 02:38:07.27	283.77	16.10	-30.8	-33.6	11.0	3.04e-03	0	44	0	802160640	21	4984
2026-01-27 02:38:10.28	283.22	15.92	-30.4	-32.3	11.8	3.95e-04	0	44	0	808452096	21	4511
2026-01-27 02:38:13.30	282.68	15.73	-30.0	-31.9	12.5	1.08e-04	0	44	0	813694976	20	4453
2026-01-27 02:38:16.30	282.14	15.54	-30.0	-32.1	12.7	6.25e-05	0	44	0	819986432	19	4609
2026-01-27 02:38:19.31	281.62	15.35	-30.2	-32.4	12.1	2.84e-04	0	44	0	825229312	20	4625
2026-01-27 02:38:22.32	281.09	15.16	-30.3	-32.7	11.5	3.06e-04	0	44	0	830472192	20	4727
2026-01-27 02:38:25.32	280.58	14.97	-30.4	-33.1	11.6	8.81e-04	0	44	0	836763648	20	4906
2026-01-27 02:38:28.34	280.07	14.78	-30.7	-33.3	11.1	1.33e-03	0	44	0	842006528	21	4871
2026-01-27 02:38:31.35	279.57	14.58	-30.4	-33.0	11.6	7.55e-04	0	44	0	847249408	20	4872
2026-01-27 02:38:34.36	279.07	14.39	-30.3	-32.2	11.8	5.25e-04	0	44	0	853540864	21	4465
2026-01-27 02:38:37.38	278.58	14.20	-30.6	-33.1	11.1	1.79e-03	0	44	0	858783744	21	4817
2026-01-27 02:38:40.40	278.10	14.00	-30.3	-32.7	11.8	8.90e-04	0	44	0	865075200	20	4746
2026-01-27 02:38:43.41	277.62	13.80	-29.7	-31.5	13.0	7.01e-05	0	44	0	870318080	19	4431
2026-01-27 02:38:46.42	277.15	13.61	-29.6	-31.2	13.2	4.57e-05	0	44	0	875560960	19	4309
2026-01-27 02:38:49.42	276.69	13.41	-29.4	-31.2	13.5	1.51e-03	0	44	0	881852416	18	4411
2026-01-27 02:38:52.43	276.24	13.22	-29.3	-31.0	13.6	2.26e-03	0	44	0	887095296	18	4347
2026-01-27 02:38:55.44	275.78	13.02	-28.9	-30.2	14.3	2.34e-03	0	44	0	893386752	17	4220
2026-01-27 02:38:58.44	275.34	12.83	-29.0	-30.6	14.2	2.48e-03	0	44	0	898629632	17	4318
2026-01-27 02:39:01.46	274.90	12.63	-29.4	-30.8	13.4	2.38e-03	0	44	0	903872512	19	4193
2026-01-27 02:39:04.46	274.47	12.43	-29.5	-31.1	13.2	2.06e-03	0	44	0	910163968	19	4304
2026-01-27 02:39:07.48	274.04	12.24	-29.6	-31.2	13.1	1.30e-03	0	44	0	915406848	19	4345
2026-01-27 02:39:10.49	273.62	12.04	-29.3	-31.0	13.5	4.48e-04	0	44	0	920649728	18	4376
2026-01-27 02:39:13.50	273.20	11.84	-28.8	-29.7	14.3	3.80e-06	0	44	0	926941184	18	3978
2026-01-27 02:39:16.50	272.79	11.65	-29.0	-30.0	14.2	1.39e-03	0	44	0	932184064	18	4069
2026-01-27 02:39:19.50	272.39	11.45	-29.3	-30.8	13.6	4.86e-04	0	44	0	938475520	18	4304
2026-01-27 02:39:22.51	271.99	11.26	-29.6	-31.4	12.9	3.81e-05	0	44	0	943718400	19	4409
2026-01-27 02:39:25.52	271.60	11.06	-29.9	-32.0	12.5	1.41e-04	0	44	0	948961280	19	4614
2026-01-27 02:39:28.54	271.21	10.86	-30.2	-32.5	11.7	7.48e-04	0	44	0	955252736	20	4702
2026-01-27 02:39:31.55	270.82	10.67	-29.9	-31.7	12.2	2.71e-03	0	44	0	960495616	20	4432
2026-01-27 02:39:34.57	270.44	10.47	-29.5	-31.2	13.0	1.60e-03	0	44	0	965738496	19	4340
2026-01-27 02:39:37.59	270.07	10.28	-29.1	-30.0	13.7	6.00e-04	0	44	0	972029952	19	3986
2026-01-27 02:39:40.60	269.70	10.08	-29.0	-30.3	13.8	3.00e-06	0	44	0	977272832	18	4157
2026-01-27 02:39:43.61	269.34	9.89	-29.6	-31.3	12.8	5.34e-05	0	44	0	983564288	19	4401
2026-01-27 02:39:46.62	268.98	9.70	-30.1	-32.5	11.6	3.75e-04	0	44	0	988807168	20	4710
2026-01-27 02:39:49.62	268.63	9.50	-29.9	-31.9	11.9	3.68e-04	0	44	0	994050048	20	4520
2026-01-27 02:39:52.64	268.28	9.31	-30.0	-32.0	11.8	5.89e-04	0	44	0	1000341504	20	4554
2026-01-27 02:39:55.66	267.93	9.12	-29.6	-31.5	12.6	9.61e-05	0	44	0	1005584384	19	4475
2026-01-27 02:39:58.66	267.59	8.93	-29.7	-31.7	12.4	1.31e-04	0	44	0	1011875840	19	4545
2026-01-27 02:40:01.67	267.26	8.74	-29.8	-32.2	12.1	3.69e-04	0	44	0	1017118720	19	4706
2026-01-27 02:40:04.68	266.93	8.55	-29.7	-31.8	12.3	1.46e-04	0	44	0	1022361600	19	4563
2026-01-27 02:40:07.69	266.60	8.36	-29.8	-32.2	12.0	2.94e-04	0	44	0	1028653056	19	4720
2026-01-27 02:40:10.70	266.28	8.17	-30.1	-32.4	11.4	6.42e-04	0	44	0	1033895936	20	4724
2026-01-27 02:40:13.71	265.96	7.98	-30.0	-32.2	11.5	1.10e-03	0	44	0	1039138816	20	4652
2026-01-27 02:40:16.72	265.65	7.79	-30.0	-32.6	11.7	5.76e-04	0	44	0	1045430272	19	4860
2026-01-27 02:40:19.74	265.34	7.60	-30.0	-32.3	11.5	1.85e-03	0	44	0	1050673152	20	4672
2026-01-27 02:40:22.74	265.04	7.41	-30.3	-33.1	10.9	2.44e-03	0	44	0	1056964608	20	5007
2026-01-27 02:40:25.75	264.73	7.23	-30.6	-33.7	10.0	4.98e-03	0	44	0	1062207488	21	5170
2026-01-27 02:40:28.75	264.44	7.04	-32.7	-44.8	3.8	2.03e-01	0	44	104	1067450368	25	14610

#Closed at: 2026-01-27 02:40:31
#Recorded file [1067 MB]: D:/data/31010_260127_053058.dat