passes_logs/2026/01/27/R2M6_AANII_01/R2M6_AANII_01__20260127_032739_FENGYUN_3D_rec.log

#Pass ID: 20260127_032739_FENGYUN 3D
#Satellite: FENGYUN 3D
#Configuration: FENGYUN 3D
#almurnet v.1.7.20240730
#Start time: 2026-01-27 03:27:39

#Version: 2.2.20231116
#Station: R2M6_AANII_01
#Location: 30.233357 lon 59.946436 lat
#TLE: 1 43010U 17072A   26026.49129444  .00000151  00000+0  93391-4 0  9993
#TLE: 2 43010  98.9962 358.4866 0002525  88.1664 271.9801 14.19700337424889

#Time	Az	El	Level	Level2	SNR	BER	BlckErr	Temp	State	Recorded	gain1	gain2
2026-01-27 03:27:39.94	14.10	7.04	-30.5	-34.6	5.0	8.01e-01	0	42	0	0	21	5771
2026-01-27 03:27:42.95	13.96	7.26	-30.6	-34.8	7.8	6.40e-02	0	42	0	5242880	21	5816
2026-01-27 03:27:45.96	13.81	7.49	-30.5	-34.2	8.3	5.07e-02	0	42	0	22020096	21	5531
2026-01-27 03:27:48.97	13.65	7.71	-30.3	-34.1	8.8	2.35e-02	0	42	0	38797312	20	5602
2026-01-27 03:27:51.98	13.50	7.94	-29.8	-32.7	9.8	9.77e-03	0	42	0	55574528	20	5037
2026-01-27 03:27:54.99	13.34	8.17	-28.5	-30.2	12.2	2.16e-04	0	42	0	73400320	18	4383
2026-01-27 03:27:57.99	13.18	8.40	-27.1	-28.5	14.0	1.10e-06	0	42	0	90177536	15	4213
2026-01-27 03:28:00.99	13.02	8.63	-27.0	-28.7	14.1	0.00e+00	0	42	0	106954752	14	4393
2026-01-27 03:28:04.00	12.85	8.86	-26.9	-29.0	14.3	0.00e+00	0	42	0	123731968	13	4569
2026-01-27 03:28:07.01	12.69	9.10	-26.9	-29.1	14.3	0.00e+00	0	42	0	140509184	13	4604
2026-01-27 03:28:10.01	12.51	9.34	-27.1	-29.0	14.1	1.10e-06	0	42	0	157286400	14	4449
2026-01-27 03:28:13.03	12.34	9.58	-26.8	-28.6	14.5	0.00e+00	0	42	0	174063616	13	4477
2026-01-27 03:28:16.04	12.16	9.82	-26.9	-28.9	14.4	0.00e+00	0	42	0	191889408	13	4535
2026-01-27 03:28:19.05	11.98	10.07	-26.8	-28.8	14.5	0.00e+00	0	43	0	208666624	13	4509
2026-01-27 03:28:22.05	11.80	10.31	-26.9	-28.9	14.4	0.00e+00	0	43	0	225443840	13	4561
2026-01-27 03:28:25.06	11.61	10.56	-26.8	-28.7	14.6	0.00e+00	0	43	0	242221056	13	4475
2026-01-27 03:28:28.08	11.42	10.82	-26.7	-28.4	14.7	0.00e+00	0	43	0	258998272	13	4405
2026-01-27 03:28:31.09	11.22	11.07	-26.5	-28.0	15.0	0.00e+00	0	43	0	275775488	13	4278
2026-01-27 03:28:34.10	11.02	11.33	-26.3	-28.1	15.2	0.00e+00	0	43	0	293601280	12	4425
2026-01-27 03:28:37.12	10.82	11.58	-26.2	-27.8	15.4	0.00e+00	0	43	0	310378496	12	4341
2026-01-27 03:28:40.13	10.61	11.85	-26.2	-27.8	15.4	0.00e+00	0	43	0	327155712	12	4344
2026-01-27 03:28:43.13	10.41	12.11	-26.3	-28.0	15.4	0.00e+00	0	43	0	343932928	12	4400
2026-01-27 03:28:46.13	10.19	12.37	-26.2	-27.9	15.4	0.00e+00	0	43	0	360710144	12	4374
2026-01-27 03:28:49.14	9.97	12.64	-26.1	-27.7	15.6	0.00e+00	0	43	0	377487360	12	4317
2026-01-27 03:28:52.15	9.75	12.91	-26.1	-27.6	15.6	0.00e+00	0	43	0	394264576	12	4293
2026-01-27 03:28:55.17	9.52	13.19	-26.0	-27.4	15.8	0.00e+00	0	43	0	411041792	12	4238
2026-01-27 03:28:58.19	9.29	13.46	-26.0	-27.3	15.8	0.00e+00	0	43	0	428867584	12	4200
2026-01-27 03:29:01.19	9.06	13.74	-25.8	-27.0	16.0	0.00e+00	0	43	0	445644800	12	4130
2026-01-27 03:29:04.21	8.82	14.02	-25.8	-26.9	16.1	0.00e+00	0	43	0	462422016	12	4102
2026-01-27 03:29:07.21	8.57	14.31	-25.7	-27.3	16.2	0.00e+00	0	43	0	479199232	11	4312
2026-01-27 03:29:10.24	8.32	14.59	-25.7	-27.2	16.3	0.00e+00	0	43	0	495976448	11	4288
2026-01-27 03:29:13.25	8.07	14.88	-25.6	-27.1	16.4	0.00e+00	0	43	0	513802240	11	4253
2026-01-27 03:29:16.25	7.81	15.18	-25.6	-27.0	16.4	0.00e+00	0	43	0	530579456	11	4232
2026-01-27 03:29:19.25	7.54	15.47	-25.5	-26.8	16.5	0.00e+00	0	43	0	547356672	11	4179
2026-01-27 03:29:22.26	7.27	15.77	-25.5	-26.7	16.6	0.00e+00	0	43	0	564133888	11	4143
2026-01-27 03:29:25.27	6.99	16.07	-25.1	-26.0	17.0	0.00e+00	0	43	0	580911104	11	3968
2026-01-27 03:29:28.28	6.71	16.37	-25.0	-26.3	17.2	0.00e+00	0	43	0	597688320	10	4145
2026-01-27 03:29:31.30	6.42	16.68	-25.1	-26.3	17.1	0.00e+00	0	43	0	614465536	10	4162
2026-01-27 03:29:34.30	6.12	16.99	-25.0	-26.2	17.2	0.00e+00	0	43	0	631242752	10	4131
2026-01-27 03:29:37.31	5.82	17.31	-25.1	-26.5	17.1	0.00e+00	0	44	0	649068544	10	4202
2026-01-27 03:29:40.32	5.51	17.62	-25.0	-26.2	17.2	0.00e+00	0	43	0	665845760	10	4137
2026-01-27 03:29:43.34	5.20	17.95	-25.0	-26.1	17.3	0.00e+00	0	43	0	682622976	10	4100
2026-01-27 03:29:46.36	4.87	18.27	-24.6	-25.3	17.7	0.00e+00	0	44	0	699400192	10	3914
2026-01-27 03:29:49.37	4.54	18.60	-24.7	-26.0	17.6	0.00e+00	0	44	0	716177408	9	4192
2026-01-27 03:29:52.37	4.21	18.93	-24.7	-25.9	17.7	0.00e+00	0	44	0	732954624	9	4167
2026-01-27 03:29:55.38	3.86	19.26	-24.5	-25.6	17.8	0.00e+00	0	43	0	749731840	9	4096
2026-01-27 03:29:58.39	3.51	19.60	-24.7	-26.1	17.6	0.00e+00	0	43	0	767557632	9	4206
2026-01-27 03:30:01.40	3.15	19.94	-24.4	-25.5	18.0	0.00e+00	0	43	0	784334848	9	4050
2026-01-27 03:30:04.42	2.78	20.28	-24.5	-25.7	17.9	0.00e+00	0	43	0	801112064	9	4102
2026-01-27 03:30:07.43	2.40	20.63	-24.3	-25.2	18.1	0.00e+00	0	44	0	817889280	9	3979
2026-01-27 03:30:10.44	2.02	20.98	-24.3	-25.2	18.1	0.00e+00	0	43	0	834666496	9	3977
2026-01-27 03:30:13.45	1.62	21.34	-24.2	-25.0	18.3	0.00e+00	0	44	0	852492288	9	3932
2026-01-27 03:30:16.47	1.21	21.70	-24.0	-24.5	18.5	0.00e+00	0	43	0	869269504	9	3825
2026-01-27 03:30:19.47	0.80	22.06	-24.0	-24.6	18.5	0.00e+00	0	44	0	886046720	9	3838
2026-01-27 03:30:22.48	0.38	22.42	-24.0	-24.6	18.5	0.00e+00	0	44	0	902823936	9	3847
2026-01-27 03:30:25.49	359.94	22.79	-24.1	-24.8	18.4	0.00e+00	0	44	0	919601152	9	3894
2026-01-27 03:30:28.51	359.49	23.16	-23.9	-24.4	18.6	0.00e+00	0	44	0	936378368	9	3787
2026-01-27 03:30:31.51	359.04	23.54	-23.6	-24.2	19.0	0.00e+00	0	44	0	953155584	8	3852
2026-01-27 03:30:34.53	358.57	23.92	-23.7	-24.3	18.9	0.00e+00	0	43	0	969932800	8	3877
2026-01-27 03:30:37.52	358.09	24.30	-23.6	-24.2	19.0	0.00e+00	0	44	0	987758592	8	3863
2026-01-27 03:30:40.54	357.59	24.69	-23.8	-24.6	18.8	4.23e-05	0	44	0	1004535808	8	3940
2026-01-27 03:30:43.55	357.09	25.08	-23.7	-24.3	18.9	4.34e-05	0	44	0	1021313024	8	3885
2026-01-27 03:30:46.55	356.57	25.47	-23.5	-24.0	19.1	0.00e+00	0	44	0	1038090240	8	3815
2026-01-27 03:30:49.57	356.04	25.86	-23.4	-23.7	19.2	0.00e+00	0	44	0	1054867456	8	3747
2026-01-27 03:30:52.59	355.49	26.26	-23.4	-23.7	19.3	0.00e+00	0	44	0	1071644672	8	3734
2026-01-27 03:30:55.59	354.94	26.66	-23.4	-23.7	19.3	0.00e+00	0	44	0	1089470464	8	3748
2026-01-27 03:30:58.60	354.36	27.07	-23.2	-23.9	19.4	0.00e+00	0	44	0	1106247680	7	3893
2026-01-27 03:31:01.60	353.77	27.48	-23.3	-24.0	19.4	0.00e+00	0	44	0	1123024896	7	3923
2026-01-27 03:31:04.62	353.17	27.89	-23.3	-24.0	19.4	0.00e+00	0	44	0	1139802112	7	3918
2026-01-27 03:31:07.63	352.55	28.30	-23.2	-23.9	19.4	0.00e+00	0	44	0	1156579328	7	3880
2026-01-27 03:31:10.64	351.91	28.71	-23.1	-23.7	19.5	0.00e+00	0	44	0	1173356544	7	3852
2026-01-27 03:31:13.64	351.26	29.13	-23.3	-24.1	19.3	1.79e-04	0	44	0	1190133760	7	3927
2026-01-27 03:31:16.65	350.59	29.55	-23.2	-23.8	19.5	0.00e+00	0	44	0	1207959552	7	3856
2026-01-27 03:31:19.66	349.90	29.97	-22.9	-23.8	19.8	0.00e+00	0	44	0	1224736768	6	3964
2026-01-27 03:31:22.67	349.19	30.39	-23.0	-23.9	19.7	0.00e+00	0	44	0	1241513984	6	3988
2026-01-27 03:31:25.68	348.46	30.81	-23.1	-24.1	19.6	0.00e+00	0	44	0	1258291200	6	4058
2026-01-27 03:31:28.69	347.72	31.24	-23.0	-23.9	19.7	0.00e+00	0	44	0	1275068416	6	4004
2026-01-27 03:31:31.69	346.95	31.66	-22.9	-23.8	19.8	0.00e+00	0	44	0	1291845632	6	3968
2026-01-27 03:31:34.69	346.17	32.08	-23.0	-23.9	19.7	0.00e+00	0	44	0	1308622848	6	4011
2026-01-27 03:31:37.71	345.36	32.51	-22.6	-23.5	20.1	0.00e+00	0	44	0	1325400064	5	4016
2026-01-27 03:31:40.72	344.53	32.93	-22.8	-24.0	19.9	0.00e+00	0	44	0	1343225856	5	4146
2026-01-27 03:31:43.73	343.67	33.36	-23.0	-23.9	19.8	0.00e+00	0	44	0	1360003072	6	3990
2026-01-27 03:31:46.74	342.80	33.78	-22.7	-23.4	20.0	0.00e+00	0	44	0	1376780288	6	3869
2026-01-27 03:31:49.76	341.90	34.20	-22.7	-23.3	20.0	0.00e+00	0	44	0	1393557504	6	3865
2026-01-27 03:31:52.76	340.98	34.61	-22.4	-22.6	20.3	0.00e+00	0	44	0	1410334720	6	3704
2026-01-27 03:31:55.78	340.03	35.03	-22.3	-23.0	20.4	0.00e+00	0	44	0	1427111936	5	3893
2026-01-27 03:31:58.80	339.06	35.44	-22.7	-23.8	20.0	0.00e+00	0	44	0	1444937728	5	4093
2026-01-27 03:32:01.81	338.06	35.84	-22.5	-23.3	20.2	0.00e+00	0	44	0	1461714944	5	3962
2026-01-27 03:32:04.82	337.04	36.24	-22.4	-23.1	20.3	0.00e+00	0	44	0	1478492160	5	3930
2026-01-27 03:32:07.83	336.00	36.64	-22.4	-23.3	20.2	0.00e+00	0	44	0	1495269376	5	3960
2026-01-27 03:32:10.84	334.92	37.02	-22.8	-24.0	19.9	0.00e+00	0	44	0	1512046592	5	4138
2026-01-27 03:32:13.85	333.83	37.40	-23.0	-24.4	19.7	0.00e+00	0	44	0	1528823808	5	4230
2026-01-27 03:32:16.86	332.70	37.78	-22.9	-23.8	19.8	0.00e+00	0	44	0	1545601024	6	3973
2026-01-27 03:32:19.88	331.55	38.14	-23.0	-23.9	19.7	0.00e+00	0	44	0	1563426816	6	4006
2026-01-27 03:32:22.90	330.37	38.50	-22.7	-23.3	20.1	0.00e+00	0	44	0	1580204032	6	3843
2026-01-27 03:32:25.90	329.18	38.84	-22.8	-24.0	19.9	0.00e+00	0	44	0	1596981248	5	4137
2026-01-27 03:32:28.91	327.95	39.17	-22.6	-23.6	20.1	1.49e-04	0	44	0	1613758464	5	4044
2026-01-27 03:32:31.93	326.70	39.49	-22.6	-23.6	20.1	0.00e+00	0	44	0	1630535680	5	4027
2026-01-27 03:32:34.94	325.42	39.80	-22.4	-23.2	20.3	6.10e-04	0	44	0	1648361472	5	3942
2026-01-27 03:32:37.94	324.13	40.09	-22.6	-23.6	20.1	2.83e-04	0	44	0	1665138688	5	4043
2026-01-27 03:32:40.95	322.80	40.37	-22.3	-23.0	20.4	2.73e-04	0	44	0	1681915904	5	3902
2026-01-27 03:32:43.96	321.46	40.63	-22.4	-23.1	20.3	0.00e+00	0	44	0	1698693120	5	3917
2026-01-27 03:32:46.98	320.09	40.88	-22.4	-23.2	20.3	1.43e-04	0	44	0	1715470336	5	3953
2026-01-27 03:32:49.99	318.70	41.11	-22.5	-23.5	20.1	0.00e+00	0	44	0	1732247552	5	4007
2026-01-27 03:32:53.00	317.29	41.32	-22.7	-23.7	20.0	0.00e+00	0	44	0	1749024768	5	4069
2026-01-27 03:32:56.02	315.86	41.52	-22.5	-23.3	20.3	1.21e-04	0	44	0	1765801984	5	3962
2026-01-27 03:32:59.03	314.42	41.69	-22.3	-22.9	20.5	0.00e+00	0	44	0	1783627776	5	3866
2026-01-27 03:33:02.05	312.96	41.84	-22.6	-23.6	20.1	0.00e+00	0	44	0	1800404992	5	4028
2026-01-27 03:33:05.07	311.49	41.98	-22.7	-23.7	20.0	0.00e+00	0	44	0	1817182208	5	4061
2026-01-27 03:33:08.08	310.01	42.09	-22.5	-23.4	20.2	0.00e+00	0	44	0	1833959424	5	3986
2026-01-27 03:33:11.11	308.51	42.18	-21.9	-22.7	20.8	0.00e+00	0	44	0	1850736640	4	3927
2026-01-27 03:33:14.13	307.01	42.25	-22.3	-23.6	20.4	0.00e+00	0	44	0	1868562432	4	4138
2026-01-27 03:33:17.14	305.50	42.29	-22.3	-23.0	20.4	0.00e+00	0	44	0	1885339648	5	3896
2026-01-27 03:33:20.15	304.00	42.32	-22.3	-23.0	20.4	0.00e+00	0	44	0	1902116864	5	3893
2026-01-27 03:33:23.15	302.49	42.32	-23.1	-24.1	19.6	0.00e+00	0	44	0	1918894080	6	4055
2026-01-27 03:33:26.15	300.99	42.30	-23.0	-23.9	19.7	0.00e+00	0	44	0	1935671296	6	3991
2026-01-27 03:33:29.16	299.49	42.26	-22.5	-22.9	20.2	0.00e+00	0	44	0	1952448512	6	3772
2026-01-27 03:33:32.17	297.99	42.19	-22.4	-23.3	20.3	0.00e+00	0	44	0	1969225728	5	3961
2026-01-27 03:33:35.18	296.50	42.10	-22.7	-23.8	20.0	0.00e+00	0	44	0	1987051520	5	4080
2026-01-27 03:33:38.21	295.01	41.99	-22.5	-23.4	20.2	0.00e+00	0	44	0	2003828736	5	3993
2026-01-27 03:33:41.22	293.53	41.86	-22.4	-23.2	20.3	0.00e+00	0	44	0	2020605952	5	3942
2026-01-27 03:33:44.23	292.07	41.71	-22.0	-22.4	20.7	0.00e+00	0	44	0	2037383168	5	3763
2026-01-27 03:33:47.24	290.63	41.54	-22.2	-22.8	20.5	0.00e+00	0	44	0	2054160384	5	3860
2026-01-27 03:33:50.26	289.20	41.35	-22.2	-23.3	20.5	0.00e+00	0	44	0	2071986176	4	4067
2026-01-27 03:33:53.28	287.78	41.14	-22.3	-22.9	20.4	0.00e+00	0	44	0	2088763392	5	3868
2026-01-27 03:33:56.29	286.39	40.92	-22.0	-22.2	20.7	0.00e+00	0	44	0	2105540608	5	3721
2026-01-27 03:33:59.30	285.01	40.67	-22.0	-22.3	20.7	0.00e+00	0	44	0	2122317824	5	3730
2026-01-27 03:34:02.30	283.67	40.41	-21.8	-22.3	20.9	0.00e+00	0	44	0	2139095040	4	3847
2026-01-27 03:34:05.31	282.34	40.14	-22.1	-23.0	20.6	0.00e+00	0	44	0	2155872256	4	3996
2026-01-27 03:34:08.32	281.03	39.84	-22.1	-23.0	20.6	0.00e+00	0	44	0	2172649472	4	4012
2026-01-27 03:34:11.35	279.74	39.54	-22.1	-23.0	20.6	0.00e+00	0	44	0	2190475264	4	3995
2026-01-27 03:34:14.36	278.49	39.22	-22.1	-23.1	20.5	0.00e+00	0	44	0	2207252480	4	4041
2026-01-27 03:34:17.37	277.25	38.89	-21.9	-22.6	20.7	0.00e+00	0	44	0	2224029696	4	3916
2026-01-27 03:34:20.39	276.04	38.54	-22.0	-22.9	20.5	0.00e+00	0	44	0	2240806912	4	3987
2026-01-27 03:34:23.40	274.86	38.19	-22.4	-23.6	20.2	0.00e+00	0	44	0	2257584128	4	4160
2026-01-27 03:34:26.42	273.70	37.82	-22.3	-23.5	20.3	0.00e+00	0	44	0	2274361344	4	4130
2026-01-27 03:34:29.43	272.57	37.45	-22.3	-23.5	20.3	0.00e+00	0	44	0	2292187136	4	4115
2026-01-27 03:34:32.44	271.47	37.07	-22.3	-23.0	20.3	0.00e+00	0	44	0	2308964352	5	3887
2026-01-27 03:34:35.44	270.40	36.68	-22.1	-22.6	20.4	0.00e+00	0	44	0	2325741568	5	3806
2026-01-27 03:34:38.45	269.34	36.29	-22.2	-22.8	20.4	0.00e+00	0	44	0	2342518784	5	3845
2026-01-27 03:34:41.46	268.32	35.89	-22.2	-22.7	20.4	0.00e+00	0	44	0	2359296000	5	3832
2026-01-27 03:34:44.48	267.31	35.48	-22.1	-23.1	20.4	0.00e+00	0	44	0	2376073216	4	4038
2026-01-27 03:34:47.49	266.34	35.07	-22.3	-23.4	20.2	0.00e+00	0	44	0	2393899008	4	4114
2026-01-27 03:34:50.49	265.39	34.66	-22.2	-23.4	20.3	0.00e+00	0	44	0	2410676224	4	4103
2026-01-27 03:34:53.50	264.46	34.24	-21.9	-22.7	20.6	0.00e+00	0	44	0	2427453440	4	3937
2026-01-27 03:34:56.50	263.56	33.82	-22.0	-22.8	20.5	3.40e-06	0	44	0	2444230656	4	3972
2026-01-27 03:34:59.52	262.67	33.40	-21.9	-22.7	20.6	0.00e+00	0	44	0	2461007872	4	3927
2026-01-27 03:35:02.53	261.81	32.98	-22.0	-22.9	20.5	0.00e+00	0	44	0	2477785088	4	3983
2026-01-27 03:35:05.54	260.98	32.55	-22.3	-23.5	20.2	1.10e-06	0	44	0	2494562304	4	4123
2026-01-27 03:35:08.55	260.16	32.12	-22.2	-23.2	20.3	2.20e-06	0	44	0	2512388096	4	4066
2026-01-27 03:35:11.56	259.37	31.70	-22.3	-23.4	20.2	2.20e-06	0	44	0	2529165312	4	4111
2026-01-27 03:35:14.57	258.60	31.27	-22.5	-23.4	19.9	0.00e+00	0	44	0	2545942528	5	4002
2026-01-27 03:35:17.58	257.85	30.85	-22.6	-23.6	19.8	6.80e-06	0	44	0	2562719744	5	4051
2026-01-27 03:35:20.58	257.11	30.42	-22.8	-24.0	19.6	3.40e-06	0	44	0	2579496960	5	4148
2026-01-27 03:35:23.60	256.40	30.00	-22.8	-24.1	19.6	0.00e+00	0	44	0	2596274176	5	4166
2026-01-27 03:35:26.61	255.70	29.58	-22.7	-23.8	19.7	0.00e+00	0	44	0	2613051392	5	4090
2026-01-27 03:35:29.62	255.03	29.15	-22.7	-23.8	19.7	2.20e-06	0	44	0	2629828608	5	4093
2026-01-27 03:35:32.63	254.37	28.74	-22.6	-23.6	19.8	3.40e-06	0	44	0	2647654400	5	4049
2026-01-27 03:35:35.65	253.72	28.32	-22.6	-23.6	19.8	0.00e+00	0	44	0	2664431616	5	4048
2026-01-27 03:35:38.66	253.10	27.90	-22.7	-23.8	19.6	0.00e+00	0	44	0	2681208832	5	4096
2026-01-27 03:35:41.68	252.49	27.49	-22.7	-23.9	19.6	0.00e+00	0	44	0	2697986048	5	4116
2026-01-27 03:35:44.68	251.90	27.08	-22.3	-23.5	19.4	0.00e+00	0	44	0	2714763264	5	4123
2026-01-27 03:35:47.70	251.31	26.67	-22.8	-24.1	19.5	0.00e+00	0	44	0	2732589056	5	4171
2026-01-27 03:35:50.71	250.75	26.27	-22.9	-24.2	19.4	1.26e-04	0	44	0	2749366272	5	4177
2026-01-27 03:35:53.72	250.20	25.87	-22.9	-24.3	19.3	0.00e+00	0	44	0	2766143488	5	4229
2026-01-27 03:35:56.74	249.66	25.47	-23.1	-24.1	19.2	0.00e+00	0	44	0	2782920704	6	4053
2026-01-27 03:35:59.74	249.14	25.08	-22.8	-23.5	19.5	5.70e-06	0	44	0	2799697920	6	3896
2026-01-27 03:36:02.76	248.63	24.68	-22.9	-23.8	19.3	5.70e-06	0	44	0	2816475136	6	3989
2026-01-27 03:36:05.76	248.14	24.30	-23.0	-24.0	19.3	0.00e+00	0	44	0	2833252352	6	4034
2026-01-27 03:36:08.77	247.65	23.91	-22.9	-23.8	19.3	2.92e-04	0	44	0	2850029568	6	3986
2026-01-27 03:36:11.77	247.18	23.53	-22.9	-23.7	19.4	4.91e-04	0	44	0	2867855360	6	3960
2026-01-27 03:36:14.78	246.72	23.16	-23.0	-24.4	19.2	5.84e-04	0	44	0	2884632576	5	4237
2026-01-27 03:36:17.79	246.27	22.78	-22.9	-24.2	19.3	0.00e+00	0	44	0	2901409792	5	4205
2026-01-27 03:36:20.81	245.83	22.41	-23.3	-24.5	18.9	3.17e-04	0	44	0	2918187008	6	4161
2026-01-27 03:36:23.82	245.40	22.04	-23.3	-24.5	18.9	3.40e-06	0	44	0	2934964224	6	4167
2026-01-27 03:36:26.84	244.98	21.68	-23.3	-24.6	18.8	0.00e+00	0	44	0	2951741440	6	4178
2026-01-27 03:36:29.84	244.57	21.32	-23.7	-25.0	18.3	0.00e+00	0	44	0	2969567232	7	4177
2026-01-27 03:36:32.86	244.17	20.96	-23.5	-24.5	18.6	7.06e-04	0	44	0	2986344448	7	4034
2026-01-27 03:36:35.87	243.78	20.61	-23.4	-24.4	18.7	0.00e+00	0	44	0	3003121664	7	4022
2026-01-27 03:36:38.89	243.40	20.26	-23.6	-24.7	18.5	0.00e+00	0	44	0	3019898880	7	4084
2026-01-27 03:36:41.89	243.03	19.91	-23.9	-25.3	18.2	0.00e+00	0	44	0	3036676096	7	4247
2026-01-27 03:36:44.90	242.66	19.57	-23.7	-25.0	18.3	0.00e+00	0	44	0	3053453312	7	4161
2026-01-27 03:36:47.90	242.31	19.23	-23.8	-25.2	18.1	0.00e+00	0	44	0	3070230528	7	4235
2026-01-27 03:36:50.91	241.96	18.90	-23.8	-25.2	18.2	0.00e+00	0	44	0	3088056320	7	4228
2026-01-27 03:36:53.92	241.62	18.57	-23.7	-25.0	18.2	0.00e+00	0	44	0	3104833536	7	4179
2026-01-27 03:36:56.93	241.29	18.24	-23.8	-25.1	18.2	0.00e+00	0	44	0	3121610752	7	4203
2026-01-27 03:36:59.94	240.96	17.91	-24.1	-25.2	17.9	0.00e+00	0	44	0	3138387968	8	4110
2026-01-27 03:37:02.96	240.64	17.59	-24.3	-25.7	17.6	0.00e+00	0	44	0	3155165184	8	4231
2026-01-27 03:37:05.97	240.33	17.27	-24.4	-25.9	17.5	0.00e+00	0	44	0	3171942400	8	4301
2026-01-27 03:37:08.99	240.03	16.95	-24.4	-26.0	17.4	0.00e+00	0	44	0	3189768192	8	4314
2026-01-27 03:37:12.01	239.73	16.64	-24.6	-25.9	17.2	0.00e+00	0	44	0	3206545408	9	4169
2026-01-27 03:37:15.03	239.43	16.33	-24.7	-26.1	17.1	0.00e+00	0	44	0	3223322624	9	4240
2026-01-27 03:37:18.03	239.15	16.03	-24.7	-26.1	17.1	0.00e+00	0	44	0	3240099840	9	4239
2026-01-27 03:37:21.04	238.87	15.72	-24.7	-26.0	17.1	0.00e+00	0	44	0	3256877056	9	4200
2026-01-27 03:37:24.05	238.59	15.42	-24.7	-26.1	17.0	0.00e+00	0	44	0	3273654272	9	4241
2026-01-27 03:37:27.06	238.32	15.13	-24.8	-26.2	16.0	0.00e+00	0	44	0	3291480064	9	4267
2026-01-27 03:37:30.07	238.06	14.83	-24.9	-26.6	16.7	0.00e+00	0	44	0	3308257280	9	4375
2026-01-27 03:37:33.08	237.80	14.54	-25.1	-26.4	16.6	0.00e+00	0	44	0	3325034496	10	4208
2026-01-27 03:37:36.10	237.55	14.25	-25.1	-26.5	16.5	0.00e+00	0	44	0	3341811712	10	4215
2026-01-27 03:37:39.11	237.30	13.97	-25.1	-26.4	16.5	1.27e-04	0	44	0	3358588928	10	4207
2026-01-27 03:37:42.12	237.06	13.68	-25.1	-26.5	16.5	0.00e+00	0	44	0	3375366144	10	4212
2026-01-27 03:37:45.13	236.82	13.40	-25.1	-26.4	16.5	0.00e+00	0	44	0	3392143360	10	4206
2026-01-27 03:37:48.14	236.58	13.13	-25.1	-26.5	16.4	1.02e-04	0	44	0	3409969152	10	4227
2026-01-27 03:37:51.15	236.35	12.85	-25.3	-26.9	16.1	6.98e-05	0	44	0	3426746368	10	4348
2026-01-27 03:37:54.16	236.13	12.58	-25.2	-26.8	16.2	0.00e+00	0	44	0	3443523584	10	4308
2026-01-27 03:37:57.16	235.91	12.31	-25.5	-27.3	15.9	1.37e-04	0	44	0	3460300800	10	4442
2026-01-27 03:38:00.18	235.69	12.05	-25.8	-27.5	15.5	1.75e-04	0	44	0	3477078016	11	4399
2026-01-27 03:38:03.18	235.48	11.78	-25.5	-26.9	15.8	1.43e-04	0	44	0	3493855232	11	4230
2026-01-27 03:38:06.19	235.27	11.52	-25.6	-27.1	15.7	0.00e+00	0	44	0	3511681024	11	4288
2026-01-27 03:38:09.20	235.07	11.26	-25.6	-27.0	15.7	1.23e-04	0	44	0	3528458240	11	4258
2026-01-27 03:38:12.21	234.86	11.00	-25.6	-27.1	15.7	1.38e-04	0	44	0	3545235456	11	4280
2026-01-27 03:38:15.23	234.67	10.75	-25.6	-27.1	15.6	0.00e+00	0	44	0	3562012672	11	4291
2026-01-27 03:38:18.25	234.47	10.49	-25.6	-27.1	15.6	0.00e+00	0	44	0	3578789888	11	4291
2026-01-27 03:38:21.26	234.28	10.24	-25.7	-27.4	15.5	2.22e-04	0	44	0	3595567104	11	4364
2026-01-27 03:38:24.27	234.09	10.00	-25.8	-27.6	15.3	0.00e+00	0	44	0	3612344320	11	4406
2026-01-27 03:38:27.28	233.91	9.75	-25.8	-27.6	15.3	0.00e+00	0	44	0	3629121536	11	4438
2026-01-27 03:38:30.28	233.73	9.51	-25.8	-27.1	15.2	0.00e+00	0	44	0	3646947328	12	4179
2026-01-27 03:38:33.29	233.55	9.27	-26.0	-27.5	15.0	0.00e+00	0	44	0	3663724544	12	4277
2026-01-27 03:38:36.30	233.38	9.03	-26.0	-27.5	14.9	0.00e+00	0	44	0	3680501760	12	4302
2026-01-27 03:38:39.31	233.20	8.79	-26.0	-27.6	14.9	0.00e+00	0	44	0	3697278976	12	4304
2026-01-27 03:38:42.32	233.03	8.55	-26.2	-28.0	14.7	0.00e+00	0	44	0	3714056192	12	4419
2026-01-27 03:38:45.33	232.87	8.32	-26.1	-27.9	14.6	0.00e+00	0	44	0	3730833408	12	4409
2026-01-27 03:38:48.33	232.71	8.09	-26.2	-28.1	14.5	0.00e+00	0	44	0	3747610624	12	4478
2026-01-27 03:38:51.33	232.55	7.86	-26.4	-28.4	14.3	0.00e+00	0	44	0	3764387840	12	4559
2026-01-27 03:38:54.34	232.39	7.63	-26.3	-28.4	14.3	0.00e+00	0	44	0	3782213632	12	4547
2026-01-27 03:38:57.35	232.23	7.41	-26.4	-28.5	14.2	1.10e-06	0	44	0	3798990848	12	4576
2026-01-27 03:39:00.35	232.08	7.18	-26.4	-28.4	14.2	0.00e+00	0	44	0	3815768064	12	4566
2026-01-27 03:39:03.36	231.93	6.96	-33.3	-44.6	3.8	8.46e-01	0	44	104	3821010944	26	13265

#Closed at: 2026-01-27 03:39:05
#Recorded file [3821 MB]: D:/data/31010_260127_062741.dat