passes_logs/2026/01/08/R4.6S_Anadyr/R4.6S_Anadyr__20260108_180155_FENGYUN_3E_rec.log

#Pass ID: 20260108_180155_FENGYUN 3E
#Satellite: FENGYUN 3E
#Configuration: FENGYUN 3E
#almurnet v.1.7.20251203
#Start time: 2026-01-08 18:01:56

#Version: 2.2.20231116
#Station: R4.6S_Anadyr
#Location: 177.4865 lon 64.73178 lat
#TLE: 1 49008U 21062A   26008.31124991 -.00000020  00000+0  11209-4 0  9997
#TLE: 2 49008  98.7482  13.5177 0001702 150.1462 209.9812 14.19884205233892

#Time	Az	El	Level	Level2	SNR	BER	BlckErr	Temp	State	Recorded	gain1	gain2
2026-01-08 18:01:56.01	19.05	0.04	-48.7	-66.5	3.5	3.02e+01	0	29	0	0	60	81402
2026-01-08 18:02:00.04	19.18	0.27	-48.3	-59.6	3.6	8.45e-01	0	30	104	0	60	34621
2026-01-08 18:02:04.08	19.32	0.51	-48.3	-59.6	3.6	8.45e-01	0	31	104	0	60	34526
2026-01-08 18:02:08.12	19.46	0.74	-47.7	-59.1	3.6	8.45e-01	0	31	104	0	60	32480
2026-01-08 18:02:12.16	19.60	0.98	-46.8	-58.0	3.6	8.45e-01	0	31	104	0	60	28802
2026-01-08 18:02:16.20	19.74	1.22	-46.8	-58.0	3.6	8.45e-01	0	31	104	0	60	28603
2026-01-08 18:02:20.23	19.88	1.47	-46.8	-57.9	3.6	8.44e-01	0	31	104	0	60	28221
2026-01-08 18:02:24.27	20.03	1.71	-46.8	-57.9	3.6	8.43e-01	0	31	104	0	60	28516
2026-01-08 18:02:28.30	20.17	1.96	-46.8	-58.0	3.6	8.46e-01	0	31	104	0	60	28589
2026-01-08 18:02:32.34	20.32	2.20	-46.7	-56.9	3.6	8.45e-01	0	31	104	0	60	25345
2026-01-08 18:02:36.38	20.48	2.46	-46.6	-55.9	3.7	8.44e-01	0	31	104	0	60	22461
2026-01-08 18:02:40.42	20.63	2.71	-44.4	-47.7	9.0	4.20e-02	0	31	0	1048576	60	8731
2026-01-08 18:02:44.46	20.79	2.96	-37.1	-38.0	19.2	0.00e+00	0	31	0	30408704	48	5704
2026-01-08 18:02:48.50	20.95	3.22	-34.7	-35.5	21.5	0.00e+00	0	31	0	59768832	42	6051
2026-01-08 18:02:52.54	21.11	3.48	-38.0	-39.0	17.7	0.00e+00	0	31	0	89128960	48	6425
2026-01-08 18:02:56.57	21.27	3.74	-40.3	-41.6	15.0	1.00e-02	0	31	0	115343360	54	6124
2026-01-08 18:03:00.61	21.44	4.00	-38.4	-39.4	17.8	0.00e+00	0	31	0	136314880	50	5983
2026-01-08 18:03:04.65	21.61	4.27	-37.5	-38.4	18.9	0.00e+00	0	31	0	164626432	48	6005
2026-01-08 18:03:08.69	21.78	4.54	-34.5	-35.2	22.1	0.00e+00	0	31	0	193986560	42	5833
2026-01-08 18:03:12.73	21.96	4.81	-33.7	-34.4	22.8	0.00e+00	0	31	0	223346688	40	5987
2026-01-08 18:03:16.77	22.14	5.09	-33.3	-34.0	23.2	0.00e+00	0	32	0	252706816	40	5731
2026-01-08 18:03:20.81	22.32	5.36	-33.4	-34.1	23.2	0.00e+00	0	31	0	282066944	40	5803
2026-01-08 18:03:24.84	22.50	5.64	-33.4	-34.0	23.4	0.00e+00	0	32	0	311427072	40	5755
2026-01-08 18:03:28.88	22.69	5.92	-33.2	-33.9	23.4	0.00e+00	0	32	0	339738624	40	5664
2026-01-08 18:03:32.92	22.88	6.21	-33.2	-33.8	23.5	0.00e+00	0	32	0	369098752	40	5615
2026-01-08 18:03:36.96	23.07	6.50	-33.2	-33.9	23.5	0.00e+00	0	32	0	398458880	40	5643
2026-01-08 18:03:40.99	23.27	6.79	-33.0	-33.7	23.7	0.00e+00	0	32	0	427819008	38	6199
2026-01-08 18:03:45.03	23.47	7.08	-33.2	-33.8	23.7	0.00e+00	0	32	0	457179136	38	6303
2026-01-08 18:03:49.07	23.68	7.38	-33.2	-33.8	23.6	0.00e+00	0	32	0	485490688	38	6309
2026-01-08 18:03:53.11	23.89	7.68	-32.6	-33.3	24.2	0.00e+00	0	32	0	514850816	38	5916
2026-01-08 18:03:57.14	24.10	7.98	-32.8	-33.5	24.1	0.00e+00	0	32	0	544210944	38	6045
2026-01-08 18:04:01.18	24.32	8.29	-32.8	-33.5	24.0	0.00e+00	0	32	0	573571072	38	6034
2026-01-08 18:04:05.22	24.54	8.60	-32.8	-33.5	24.1	0.00e+00	0	32	0	601882624	38	6037
2026-01-08 18:04:09.25	24.76	8.91	-32.4	-33.1	24.4	0.00e+00	0	32	0	631242752	38	5787
2026-01-08 18:04:13.29	24.99	9.23	-32.6	-33.2	24.4	0.00e+00	0	32	0	660602880	38	5881
2026-01-08 18:04:17.33	25.23	9.55	-32.4	-33.0	24.6	0.00e+00	0	32	0	689963008	38	5747
2026-01-08 18:04:21.37	25.47	9.88	-32.3	-33.0	24.6	0.00e+00	0	32	0	718274560	38	5699
2026-01-08 18:04:25.40	25.71	10.21	-32.3	-33.0	24.6	0.00e+00	0	32	0	747634688	38	5700
2026-01-08 18:04:29.44	25.96	10.54	-32.1	-32.8	24.8	0.00e+00	0	32	0	776994816	38	5576
2026-01-08 18:04:33.48	26.22	10.88	-32.0	-32.6	24.9	0.00e+00	0	32	0	806354944	36	6155
2026-01-08 18:04:37.51	26.48	11.22	-31.7	-32.3	25.2	0.00e+00	0	32	0	835715072	36	5962
2026-01-08 18:04:41.54	26.75	11.56	-31.6	-32.2	25.3	0.00e+00	0	32	0	865075200	36	5893
2026-01-08 18:04:45.58	27.02	11.92	-31.1	-31.7	25.8	0.00e+00	0	32	0	893386752	36	5515
2026-01-08 18:04:49.61	27.30	12.27	-31.3	-31.9	25.6	0.00e+00	0	32	0	922746880	36	5665
2026-01-08 18:04:53.65	27.58	12.63	-31.3	-31.9	25.6	0.00e+00	0	32	0	952107008	36	5694
2026-01-08 18:04:57.68	27.87	12.99	-31.4	-32.0	25.5	0.00e+00	0	32	0	981467136	36	5758
2026-01-08 18:05:01.72	28.17	13.36	-31.2	-31.8	25.8	0.00e+00	0	32	0	1010827264	36	5622
2026-01-08 18:05:05.76	28.48	13.74	-31.0	-31.6	26.0	0.00e+00	0	32	0	1039138816	36	5502
2026-01-08 18:05:09.80	28.79	14.12	-31.3	-31.9	25.7	0.00e+00	0	32	0	1068498944	36	5643
2026-01-08 18:05:13.83	29.11	14.50	-31.2	-31.8	25.8	0.00e+00	0	32	0	1097859072	36	5584
2026-01-08 18:05:17.86	29.44	14.89	-31.0	-31.6	26.1	0.00e+00	0	32	0	1126170624	36	5462
2026-01-08 18:05:21.90	29.78	15.29	-30.7	-31.3	26.2	0.00e+00	0	32	0	1155530752	34	5956
2026-01-08 18:05:25.94	30.12	15.69	-30.4	-31.0	26.5	0.00e+00	0	32	0	1184890880	34	5746
2026-01-08 18:05:29.98	30.48	16.10	-30.6	-31.2	26.3	0.00e+00	0	32	0	1214251008	34	5879
2026-01-08 18:05:34.02	30.84	16.51	-30.4	-31.0	26.5	0.00e+00	0	32	0	1243611136	34	5759
2026-01-08 18:05:38.05	31.21	16.93	-29.8	-30.4	26.7	0.00e+00	0	32	0	1271922688	34	5322
2026-01-08 18:05:42.09	31.60	17.35	-30.0	-30.6	26.9	0.00e+00	0	32	0	1301282816	34	5471
2026-01-08 18:05:46.13	31.99	17.79	-29.9	-30.5	27.0	0.00e+00	0	32	0	1330642944	32	6065
2026-01-08 18:05:50.17	32.40	18.22	-29.7	-30.3	27.2	0.00e+00	0	32	0	1360003072	32	5949
2026-01-08 18:05:54.20	32.81	18.67	-29.6	-30.2	27.3	0.00e+00	0	32	0	1389363200	32	5866
2026-01-08 18:05:58.24	33.24	19.12	-29.6	-30.2	27.3	0.00e+00	0	32	0	1418723328	32	5854
2026-01-08 18:06:02.28	33.68	19.58	-29.5	-30.0	27.3	0.00e+00	0	32	0	1447034880	32	5755
2026-01-08 18:06:06.32	34.14	20.05	-29.3	-29.9	27.5	0.00e+00	0	32	0	1476395008	32	5643
2026-01-08 18:06:10.35	34.61	20.52	-29.5	-30.1	27.3	0.00e+00	0	32	0	1505755136	32	5804
2026-01-08 18:06:14.39	35.09	21.00	-29.7	-30.2	27.0	0.00e+00	0	32	0	1535115264	32	5894
2026-01-08 18:06:18.43	35.58	21.48	-29.5	-30.1	27.4	0.00e+00	0	32	0	1564475392	32	5774
2026-01-08 18:06:22.47	36.10	21.98	-29.6	-30.2	27.3	0.00e+00	0	32	0	1592786944	32	5867
2026-01-08 18:06:26.50	36.62	22.48	-29.2	-29.8	27.6	0.00e+00	0	32	0	1622147072	32	5590
2026-01-08 18:06:30.54	37.17	22.99	-29.1	-29.7	27.7	0.00e+00	0	32	0	1651507200	32	5558
2026-01-08 18:06:34.58	37.73	23.51	-29.2	-29.7	27.7	0.00e+00	0	32	0	1680867328	32	5565
2026-01-08 18:06:38.62	38.31	24.03	-29.1	-29.6	27.7	0.00e+00	0	32	0	1710227456	32	5494
2026-01-08 18:06:42.66	38.91	24.57	-29.2	-29.8	27.6	0.00e+00	0	32	0	1738539008	32	5620
2026-01-08 18:06:46.70	39.53	25.11	-29.2	-29.8	27.7	0.00e+00	0	32	0	1767899136	32	5573
2026-01-08 18:06:50.74	40.17	25.66	-29.2	-29.8	27.6	0.00e+00	0	32	0	1797259264	32	5616
2026-01-08 18:06:54.77	40.84	26.21	-28.9	-29.5	27.9	0.00e+00	0	32	0	1826619392	32	5411
2026-01-08 18:06:58.81	41.52	26.78	-28.7	-29.3	28.1	0.00e+00	0	32	0	1854930944	30	5940
2026-01-08 18:07:02.85	42.23	27.35	-28.2	-28.8	28.4	0.00e+00	0	32	0	1884291072	30	5580
2026-01-08 18:07:06.88	42.97	27.93	-28.3	-28.8	28.4	0.00e+00	0	32	0	1913651200	30	5612
2026-01-08 18:07:10.92	43.73	28.51	-28.4	-29.0	28.2	0.00e+00	0	32	0	1943011328	30	5740
2026-01-08 18:07:14.96	44.52	29.11	-28.7	-29.2	28.0	0.00e+00	0	32	0	1972371456	30	5887
2026-01-08 18:07:19.00	45.34	29.71	-28.8	-29.4	28.0	0.00e+00	0	32	0	2000683008	30	5966
2026-01-08 18:07:23.02	46.19	30.31	-29.0	-29.5	27.8	0.00e+00	0	32	0	2030043136	30	6098
2026-01-08 18:07:27.06	47.07	30.92	-28.7	-29.3	28.1	0.00e+00	0	32	0	2059403264	30	5915
2026-01-08 18:07:31.10	47.99	31.54	-28.5	-29.1	28.3	0.00e+00	0	33	0	2088763392	30	5796
2026-01-08 18:07:35.13	48.94	32.16	-28.5	-29.1	28.3	0.00e+00	0	33	0	2118123520	30	5800
2026-01-08 18:07:39.17	49.93	32.79	-28.3	-28.9	28.4	0.00e+00	0	33	0	2146435072	30	5632
2026-01-08 18:07:43.21	50.95	33.42	-28.4	-29.0	28.3	0.00e+00	0	33	0	2175795200	30	5737
2026-01-08 18:07:47.24	52.02	34.06	-28.4	-29.0	28.3	0.00e+00	0	33	0	2205155328	30	5731
2026-01-08 18:07:51.28	53.13	34.69	-28.7	-29.2	28.0	0.00e+00	0	33	0	2234515456	30	5885
2026-01-08 18:07:55.32	54.28	35.33	-28.5	-29.1	28.1	0.00e+00	0	32	0	2262827008	30	5772
2026-01-08 18:07:59.35	55.47	35.97	-28.3	-28.9	28.3	0.00e+00	0	33	0	2292187136	30	5653
2026-01-08 18:08:03.39	56.72	36.60	-28.4	-29.0	28.4	0.00e+00	0	33	0	2321547264	30	5698
2026-01-08 18:08:07.43	58.01	37.23	-28.5	-29.0	28.3	0.00e+00	0	33	0	2350907392	30	5756
2026-01-08 18:08:11.46	59.35	37.86	-28.4	-28.9	28.4	0.00e+00	0	32	0	2380267520	30	5687
2026-01-08 18:08:15.50	60.74	38.48	-28.9	-29.4	28.1	0.00e+00	0	33	0	2408579072	30	6021
2026-01-08 18:08:19.53	62.19	39.10	-28.9	-29.4	28.2	0.00e+00	0	33	0	2437939200	30	6013
2026-01-08 18:08:23.57	63.69	39.70	-29.0	-29.5	28.0	0.00e+00	0	33	0	2467299328	30	6098
2026-01-08 18:08:27.61	65.25	40.29	-28.5	-29.1	28.2	0.00e+00	0	33	0	2496659456	30	5803
2026-01-08 18:08:31.64	66.86	40.87	-28.5	-29.1	28.2	0.00e+00	0	33	0	2526019584	30	5797
2026-01-08 18:08:35.68	68.53	41.43	-28.6	-29.2	28.3	0.00e+00	0	33	0	2554331136	30	5864
2026-01-08 18:08:39.71	70.26	41.97	-28.4	-28.9	28.3	0.00e+00	0	33	0	2583691264	30	5672
2026-01-08 18:08:43.75	72.04	42.49	-28.7	-29.3	28.1	0.00e+00	0	33	0	2613051392	30	5946
2026-01-08 18:08:47.79	73.89	42.99	-28.9	-29.5	28.1	0.00e+00	0	33	0	2642411520	30	6059
2026-01-08 18:08:51.83	75.79	43.46	-29.3	-29.9	27.5	0.00e+00	0	33	0	2671771648	30	6366
2026-01-08 18:08:55.87	77.74	43.90	-29.0	-29.5	27.9	0.00e+00	0	33	0	2701131776	30	6093
2026-01-08 18:08:59.91	79.75	44.30	-29.2	-29.8	27.7	0.00e+00	0	33	0	2729443328	30	6271
2026-01-08 18:09:03.95	81.80	44.67	-29.2	-29.8	27.7	0.00e+00	0	33	0	2758803456	30	6279
2026-01-08 18:09:07.99	83.90	45.01	-29.2	-29.8	27.8	0.00e+00	0	33	0	2788163584	30	6247
2026-01-08 18:09:12.02	86.04	45.30	-29.0	-29.6	27.9	0.00e+00	0	33	0	2817523712	30	6145
2026-01-08 18:09:16.06	88.22	45.55	-29.0	-29.6	27.9	0.00e+00	0	33	0	2845835264	30	6125
2026-01-08 18:09:20.09	90.43	45.76	-29.1	-29.7	27.8	0.00e+00	0	33	0	2875195392	30	6180
2026-01-08 18:09:24.13	92.67	45.92	-29.4	-29.9	27.6	0.00e+00	0	33	0	2904555520	30	6377
2026-01-08 18:09:28.17	94.93	46.04	-29.1	-29.7	27.8	0.00e+00	0	33	0	2933915648	30	6183
2026-01-08 18:09:32.21	97.20	46.10	-29.5	-30.1	27.6	0.00e+00	0	33	0	2962227200	30	6502
2026-01-08 18:09:36.25	99.47	46.12	-29.2	-29.8	27.8	0.00e+00	0	33	0	2991587328	30	6285
2026-01-08 18:09:40.29	101.75	46.09	-29.4	-30.0	27.5	0.00e+00	0	33	0	3020947456	32	5734
2026-01-08 18:09:44.32	104.02	46.02	-28.9	-29.4	27.9	0.00e+00	0	33	0	3050307584	30	6025
2026-01-08 18:09:48.36	106.27	45.89	-29.2	-29.7	27.6	0.00e+00	0	33	0	3079667712	30	6237
2026-01-08 18:09:52.40	108.51	45.72	-29.1	-29.6	27.8	0.00e+00	0	33	0	3109027840	30	6165
2026-01-08 18:09:56.43	110.71	45.50	-29.5	-30.1	27.5	0.00e+00	0	33	0	3137339392	30	6488
2026-01-08 18:10:00.47	112.88	45.24	-29.7	-30.3	27.3	0.00e+00	0	33	0	3166699520	30	6656
2026-01-08 18:10:04.50	115.01	44.93	-29.0	-29.6	27.9	0.00e+00	0	33	0	3196059648	32	5460
2026-01-08 18:10:08.54	117.11	44.59	-29.3	-29.9	27.7	0.00e+00	0	33	0	3225419776	32	5636
2026-01-08 18:10:12.57	119.15	44.21	-29.1	-29.6	27.9	0.00e+00	0	33	0	3253731328	32	5492
2026-01-08 18:10:16.61	121.15	43.79	-29.3	-29.9	27.6	0.00e+00	0	33	0	3283091456	32	5632
2026-01-08 18:10:20.64	123.09	43.35	-28.7	-29.3	28.2	0.00e+00	0	33	0	3312451584	30	5916
2026-01-08 18:10:24.68	124.98	42.87	-29.0	-29.6	27.7	0.00e+00	0	33	0	3341811712	30	6131
2026-01-08 18:10:28.71	126.81	42.37	-28.8	-29.4	28.1	0.00e+00	0	33	0	3370123264	30	6012
2026-01-08 18:10:32.75	128.59	41.84	-29.1	-29.6	27.8	0.00e+00	0	33	0	3399483392	30	6158
2026-01-08 18:10:36.79	130.31	41.29	-28.8	-29.4	28.1	0.00e+00	0	33	0	3428843520	30	5992
2026-01-08 18:10:40.82	131.97	40.73	-28.8	-29.3	28.2	0.00e+00	0	33	0	3458203648	30	5937
2026-01-08 18:10:44.86	133.58	40.14	-28.6	-29.2	28.3	0.00e+00	0	33	0	3487563776	30	5853
2026-01-08 18:10:48.90	135.13	39.54	-29.0	-29.6	27.9	0.00e+00	0	33	0	3515875328	30	6163
2026-01-08 18:10:52.94	136.62	38.93	-28.7	-29.3	27.6	0.00e+00	0	33	0	3545235456	30	5911
2026-01-08 18:10:56.98	138.06	38.31	-28.4	-28.9	28.4	0.00e+00	0	33	0	3574595584	30	5684
2026-01-08 18:11:01.01	139.44	37.69	-28.6	-29.2	28.2	0.00e+00	0	33	0	3603955712	30	5876
2026-01-08 18:11:05.05	140.78	37.06	-28.3	-28.8	28.5	0.00e+00	0	33	0	3633315840	30	5615
2026-01-08 18:11:09.09	142.06	36.42	-28.3	-28.8	28.5	0.00e+00	0	33	0	3662675968	30	5630
2026-01-08 18:11:13.12	143.30	35.78	-28.9	-29.5	28.0	0.00e+00	0	33	0	3690987520	30	6061
2026-01-08 18:11:17.16	144.48	35.14	-28.7	-29.2	28.1	0.00e+00	0	33	0	3720347648	30	5887
2026-01-08 18:11:21.20	145.63	34.50	-28.2	-28.8	28.4	0.00e+00	0	33	0	3749707776	30	5575
2026-01-08 18:11:25.24	146.73	33.86	-28.1	-28.7	28.3	0.00e+00	0	33	0	3779067904	30	5546
2026-01-08 18:11:29.28	147.79	33.22	-28.6	-29.1	28.2	0.00e+00	0	33	0	3808428032	30	5816
2026-01-08 18:11:33.31	148.81	32.59	-28.5	-29.1	28.3	0.00e+00	0	33	0	3836739584	30	5797
2026-01-08 18:11:37.36	149.79	31.96	-28.4	-28.9	28.2	0.00e+00	0	33	0	3866099712	30	5681
2026-01-08 18:11:41.39	150.73	31.33	-28.2	-28.7	28.4	0.00e+00	0	33	0	3895459840	30	5563
2026-01-08 18:11:45.43	151.64	30.71	-28.3	-28.9	28.3	0.00e+00	0	33	0	3924819968	30	5653
2026-01-08 18:11:49.46	152.52	30.10	-28.9	-29.5	27.9	0.00e+00	0	33	0	3953131520	30	6036
2026-01-08 18:11:53.50	153.36	29.49	-28.9	-29.4	27.9	0.00e+00	0	33	0	3982491648	30	6018
2026-01-08 18:11:57.54	154.18	28.89	-28.5	-29.0	28.2	0.00e+00	0	33	0	4011851776	30	5748
2026-01-08 18:12:01.58	154.96	28.29	-28.6	-29.1	27.9	0.00e+00	0	33	0	4041211904	30	5819
2026-01-08 18:12:05.61	155.72	27.70	-28.6	-29.2	27.1	0.00e+00	0	33	0	4069523456	30	5872
2026-01-08 18:12:09.66	156.45	27.12	-28.8	-29.4	27.8	0.00e+00	0	33	0	4098883584	30	5999
2026-01-08 18:12:13.69	157.16	26.55	-29.1	-29.7	27.5	0.00e+00	0	33	0	4128243712	30	6195
2026-01-08 18:12:17.73	157.84	25.98	-28.8	-29.4	27.9	0.00e+00	0	33	0	4157603840	30	5970
2026-01-08 18:12:21.77	158.50	25.43	-28.8	-29.4	27.9	0.00e+00	0	33	0	4186963968	30	6008
2026-01-08 18:12:25.81	159.13	24.88	-28.9	-29.5	27.8	0.00e+00	0	33	0	4216324096	30	6051
2026-01-08 18:12:29.85	159.75	24.33	-29.0	-29.6	27.9	0.00e+00	0	33	0	4244635648	30	6137
2026-01-08 18:12:33.89	160.34	23.80	-29.0	-29.6	27.8	0.00e+00	0	33	0	4273995776	30	6112
2026-01-08 18:12:37.92	160.92	23.27	-28.9	-29.5	27.8	0.00e+00	0	34	0	4303355904	30	6056
2026-01-08 18:12:41.96	161.48	22.76	-29.0	-29.5	27.7	0.00e+00	0	33	0	4332716032	30	6092
2026-01-08 18:12:46.00	162.02	22.24	-29.1	-29.7	27.6	0.00e+00	0	34	0	4362076160	30	6180
2026-01-08 18:12:50.04	162.54	21.74	-29.2	-29.7	27.7	0.00e+00	0	34	0	4390387712	30	6238
2026-01-08 18:12:54.07	163.05	21.25	-29.4	-30.0	27.4	0.00e+00	0	34	0	4419747840	30	6412
2026-01-08 18:12:58.11	163.54	20.76	-29.5	-30.1	27.3	0.00e+00	0	33	0	4449107968	30	6508
2026-01-08 18:13:02.15	164.02	20.28	-29.6	-30.2	27.3	0.00e+00	0	33	0	4478468096	30	6583
2026-01-08 18:13:06.19	164.48	19.80	-29.7	-30.2	27.2	0.00e+00	0	33	0	4507828224	32	5892
2026-01-08 18:13:10.22	164.93	19.34	-29.8	-30.4	27.1	0.00e+00	0	34	0	4537188352	32	6004
2026-01-08 18:13:14.26	165.37	18.88	-29.6	-30.2	27.2	0.00e+00	0	33	0	4565499904	32	5867
2026-01-08 18:13:18.30	165.79	18.43	-29.7	-30.3	27.2	0.00e+00	0	33	0	4594860032	32	5934
2026-01-08 18:13:22.33	166.20	17.98	-29.9	-30.4	27.1	0.00e+00	0	34	0	4624220160	32	6032
2026-01-08 18:13:26.37	166.61	17.54	-29.9	-30.5	26.9	0.00e+00	0	33	0	4653580288	32	6067
2026-01-08 18:13:30.41	167.00	17.11	-29.9	-30.5	26.7	0.00e+00	0	33	0	4681891840	32	6042
2026-01-08 18:13:34.45	167.38	16.68	-30.1	-30.7	26.7	0.00e+00	0	34	0	4711251968	32	6213
2026-01-08 18:13:38.49	167.75	16.26	-30.1	-30.7	26.9	0.00e+00	0	34	0	4740612096	32	6212
2026-01-08 18:13:42.52	168.11	15.85	-30.3	-30.9	26.6	0.00e+00	0	34	0	4769972224	32	6347
2026-01-08 18:13:46.56	168.46	15.44	-30.4	-31.0	26.6	0.00e+00	0	34	0	4798283776	32	6446
2026-01-08 18:13:50.60	168.80	15.04	-30.5	-31.1	26.4	0.00e+00	0	34	0	4827643904	32	6507
2026-01-08 18:13:54.64	169.13	14.64	-30.6	-31.2	26.3	0.00e+00	0	34	0	4857004032	32	6549
2026-01-08 18:13:58.67	169.46	14.25	-30.7	-31.3	26.2	0.00e+00	0	34	0	4886364160	34	5901
2026-01-08 18:14:02.71	169.77	13.87	-30.9	-31.5	26.0	0.00e+00	0	34	0	4915724288	34	6057
2026-01-08 18:14:06.74	170.08	13.49	-31.1	-31.7	25.9	0.00e+00	0	34	0	4945084416	34	6216
2026-01-08 18:14:10.78	170.39	13.11	-31.1	-31.7	25.9	0.00e+00	0	34	0	4973395968	34	6201
2026-01-08 18:14:14.82	170.68	12.74	-31.2	-31.8	25.7	0.00e+00	0	34	0	5002756096	34	6273
2026-01-08 18:14:18.85	170.97	12.38	-31.3	-31.9	25.7	0.00e+00	0	34	0	5032116224	34	6358
2026-01-08 18:14:22.89	171.25	12.02	-31.5	-32.1	25.5	0.00e+00	0	34	0	5061476352	34	6511
2026-01-08 18:14:26.93	171.52	11.66	-31.8	-32.4	25.2	0.00e+00	0	34	0	5090836480	36	5983
2026-01-08 18:14:30.96	171.79	11.31	-32.0	-32.6	25.0	0.00e+00	0	34	0	5119148032	36	6126
2026-01-08 18:14:35.00	172.06	10.96	-32.0	-32.6	24.9	0.00e+00	0	34	0	5148508160	36	6153
2026-01-08 18:14:39.04	172.31	10.62	-32.2	-32.8	24.8	0.00e+00	0	34	0	5177868288	36	6264
2026-01-08 18:14:43.08	172.56	10.28	-32.2	-32.8	24.8	0.00e+00	0	34	0	5207228416	36	6286
2026-01-08 18:14:47.11	172.81	9.95	-32.3	-32.9	24.7	0.00e+00	0	34	0	5235539968	36	6341
2026-01-08 18:14:51.15	173.05	9.62	-32.5	-33.1	24.6	0.00e+00	0	34	0	5264900096	36	6490
2026-01-08 18:14:55.18	173.29	9.29	-32.6	-33.3	24.3	0.00e+00	0	34	0	5294260224	36	6629
2026-01-08 18:14:59.22	173.52	8.97	-32.6	-33.3	24.3	0.00e+00	0	34	0	5323620352	38	5911
2026-01-08 18:15:03.26	173.74	8.65	-32.8	-33.4	24.1	0.00e+00	0	34	0	5351931904	38	6018
2026-01-08 18:15:07.30	173.97	8.34	-32.7	-33.3	24.2	0.00e+00	0	34	0	5381292032	38	5948
2026-01-08 18:15:11.33	174.18	8.03	-32.7	-33.4	24.1	0.00e+00	0	34	0	5410652160	38	5989
2026-01-08 18:15:15.37	174.40	7.72	-33.1	-33.8	23.8	0.00e+00	0	34	0	5440012288	38	6263
2026-01-08 18:15:19.41	174.60	7.42	-32.9	-33.6	23.9	0.00e+00	0	34	0	5469372416	38	6120
2026-01-08 18:15:23.45	174.81	7.12	-33.0	-33.7	23.7	0.00e+00	0	34	0	5498732544	38	6177
2026-01-08 18:15:27.49	175.01	6.82	-33.2	-33.9	23.6	0.00e+00	0	34	0	5527044096	38	6330
2026-01-08 18:15:31.52	175.21	6.52	-33.3	-33.9	23.5	0.00e+00	0	34	0	5556404224	38	6380
2026-01-08 18:15:35.57	175.40	6.23	-33.4	-34.0	23.4	0.00e+00	0	34	0	5585764352	38	6450
2026-01-08 18:15:39.60	175.59	5.94	-33.4	-34.1	23.3	0.00e+00	0	34	0	5615124480	38	6493
2026-01-08 18:15:43.63	175.78	5.66	-33.5	-34.2	23.2	0.00e+00	0	34	0	5644484608	38	6574
2026-01-08 18:15:47.67	175.96	5.38	-33.6	-34.3	23.0	0.00e+00	0	34	0	5672796160	38	6628
2026-01-08 18:15:51.71	176.14	5.10	-33.6	-34.3	23.0	0.00e+00	0	34	0	5702156288	40	5931
2026-01-08 18:15:55.75	176.32	4.82	-33.7	-34.4	22.7	0.00e+00	0	34	0	5731516416	40	6000
2026-01-08 18:15:59.78	176.49	4.54	-33.8	-34.5	22.6	0.00e+00	0	34	0	5760876544	40	6084
2026-01-08 18:16:03.82	176.66	4.27	-33.8	-34.5	22.6	0.00e+00	0	34	0	5790236672	40	6095
2026-01-08 18:16:07.86	176.83	4.00	-33.9	-34.6	22.4	0.00e+00	0	34	0	5818548224	40	6159
2026-01-08 18:16:11.90	177.00	3.74	-34.0	-34.8	22.3	0.00e+00	0	34	0	5847908352	40	6256
2026-01-08 18:16:15.94	177.16	3.47	-34.2	-34.9	22.2	0.00e+00	0	34	0	5877268480	40	6351
2026-01-08 18:16:19.97	177.32	3.21	-34.7	-35.5	22.0	0.00e+00	0	34	0	5906628608	40	6789
2026-01-08 18:16:24.02	177.48	2.95	-47.2	-58.4	3.6	8.45e-01	0	34	104	5931794432	60	30141
2026-01-08 18:16:28.05	177.63	2.69	-48.2	-59.5	3.6	8.44e-01	0	34	104	5931794432	60	34228
2026-01-08 18:16:32.09	177.78	2.44	-48.5	-59.7	3.6	8.45e-01	0	34	104	5931794432	60	34895
2026-01-08 18:16:36.13	177.93	2.18	-48.5	-59.7	3.6	8.45e-01	0	34	104	5931794432	60	34843
2026-01-08 18:16:40.16	178.08	1.93	-48.4	-59.6	3.6	8.47e-01	0	34	104	5931794432	60	34601
2026-01-08 18:16:44.20	178.23	1.68	-48.4	-59.6	3.5	8.45e-01	0	34	104	5931794432	60	34617
2026-01-08 18:16:48.24	178.37	1.44	-48.4	-59.6	3.6	8.46e-01	0	34	104	5931794432	60	34431
2026-01-08 18:16:52.28	178.51	1.19	-48.4	-59.6	3.6	8.45e-01	0	34	104	5931794432	60	34454
2026-01-08 18:16:56.31	178.65	0.95	-48.4	-59.6	3.6	8.45e-01	0	34	104	5931794432	60	34458
2026-01-08 18:17:00.35	178.79	0.71	-48.4	-59.6	3.6	8.45e-01	0	34	104	5931794432	60	34486
2026-01-08 18:17:04.39	178.92	0.47	-48.4	-59.5	3.6	8.45e-01	0	34	104	5931794432	60	34277
2026-01-08 18:17:08.43	179.05	0.23	-48.4	-59.6	3.6	8.44e-01	0	34	104	5931794432	60	34544
2026-01-08 18:17:12.47	179.18	-0.01	-48.4	-59.6	3.6	8.45e-01	0	34	104	5931794432	60	34413

#Closed at: 2026-01-08 18:17:14
#Recorded file [5931 MB]: D:/lorett/data/35029_260109_060155.dat