passes_logs/2026/01/08/R4.6S_Anadyr/R4.6S_Anadyr__20260108_121541_NOAA_20_JPSS-1_rec.log

#Pass ID: 20260108_121541_NOAA 20 (JPSS-1)
#Satellite: NOAA 20 (JPSS-1)
#Configuration: NOAA 20
#almurnet v.1.7.20251203
#Start time: 2026-01-08 12:15:42

#Version: 2.2.20231116
#Station: R4.6S_Anadyr
#Location: 177.4865 lon 64.73178 lat
#TLE: 1 43013U 17073A   26007.92906311  .00000097  00000+0  67117-4 0  9996
#TLE: 2 43013  98.7630 308.9434 0001752  49.5597 310.5732 14.19534161421734

#Time	Az	El	Level	Level2	SNR	BER	BlckErr	Temp	State	Recorded	gain1	gain2
2026-01-08 12:15:42.97	19.26	0.07	-48.4	-63.3	3.6	1.51e+00	0	31	0	0	60	53148
2026-01-08 12:15:47.00	19.57	0.27	-48.6	-63.7	3.6	1.51e+00	0	32	104	0	60	55588
2026-01-08 12:15:51.04	19.89	0.46	-48.6	-63.8	3.6	1.51e+00	0	32	104	0	60	56009
2026-01-08 12:15:55.08	20.21	0.65	-48.3	-63.5	3.6	1.51e+00	0	32	104	0	60	54131
2026-01-08 12:15:59.12	20.53	0.85	-47.5	-62.6	3.6	1.51e+00	0	32	104	0	60	48673
2026-01-08 12:16:03.15	20.86	1.04	-46.9	-62.1	3.6	1.51e+00	0	32	104	0	60	46040
2026-01-08 12:16:07.19	21.19	1.24	-46.9	-62.1	3.6	1.51e+00	0	32	104	0	60	45829
2026-01-08 12:16:11.23	21.53	1.43	-46.9	-62.1	3.6	1.51e+00	0	32	104	0	60	46093
2026-01-08 12:16:15.27	21.87	1.63	-46.9	-62.1	3.6	1.51e+00	0	32	104	0	60	46118
2026-01-08 12:16:19.30	22.21	1.83	-46.9	-62.0	3.6	1.51e+00	0	32	104	0	60	45751
2026-01-08 12:16:23.34	22.56	2.03	-46.9	-62.0	3.6	1.51e+00	0	33	104	0	60	45734
2026-01-08 12:16:27.38	22.91	2.23	-46.9	-62.0	3.6	1.51e+00	0	33	104	0	60	45724
2026-01-08 12:16:31.41	23.27	2.42	-46.9	-61.0	3.6	1.51e+00	0	33	104	0	60	40790
2026-01-08 12:16:35.45	23.63	2.62	-45.8	-51.7	9.0	1.03e-01	0	33	0	1048576	60	13864
2026-01-08 12:16:39.49	24.00	2.83	-41.8	-43.8	17.0	0.00e+00	45	33	0	8388608	58	6268
2026-01-08 12:16:43.53	24.37	3.03	-44.6	-48.5	12.3	3.80e-06	42	33	0	15728640	60	9622
2026-01-08 12:16:47.57	24.75	3.23	-46.8	-60.2	3.6	1.51e+00	0	33	104	22020096	60	36912
2026-01-08 12:16:51.61	25.13	3.43	-42.3	-44.4	17.3	0.00e+00	7	33	0	27262976	58	6705
2026-01-08 12:16:55.65	25.52	3.63	-42.1	-44.0	17.8	0.00e+00	0	33	0	34603008	58	6462
2026-01-08 12:16:59.69	25.91	3.83	-41.4	-43.1	18.3	0.00e+00	92	32	0	41943040	56	6539
2026-01-08 12:17:03.73	26.31	4.04	-40.6	-42.2	19.0	0.00e+00	0	33	0	50331648	54	6563
2026-01-08 12:17:07.77	26.71	4.24	-40.2	-41.7	19.7	0.00e+00	43	33	0	57671680	54	6184
2026-01-08 12:17:11.80	27.12	4.45	-40.3	-41.7	19.7	0.00e+00	35	33	0	65011712	54	6231
2026-01-08 12:17:15.84	27.53	4.65	-39.7	-41.0	20.4	0.00e+00	92	33	0	72351744	52	6444
2026-01-08 12:17:19.87	27.95	4.85	-39.7	-41.0	20.4	0.00e+00	2	33	0	79691776	52	6462
2026-01-08 12:17:23.91	28.37	5.06	-39.7	-41.0	20.5	0.00e+00	0	33	0	88080384	52	6437
2026-01-08 12:17:27.95	28.80	5.27	-39.8	-41.1	20.4	0.00e+00	37	33	0	95420416	52	6476
2026-01-08 12:17:31.98	29.24	5.47	-39.5	-40.8	20.8	0.00e+00	92	33	0	102760448	52	6266
2026-01-08 12:17:36.02	29.68	5.68	-39.5	-40.7	20.8	0.00e+00	35	33	0	110100480	52	6225
2026-01-08 12:17:40.06	30.12	5.88	-39.4	-40.6	21.0	0.00e+00	0	33	0	118489088	52	6158
2026-01-08 12:17:44.10	30.58	6.09	-39.3	-40.4	21.2	0.00e+00	0	33	0	125829120	52	6032
2026-01-08 12:17:48.14	31.04	6.30	-39.0	-40.1	21.4	0.00e+00	91	33	0	133169152	52	5795
2026-01-08 12:17:52.17	31.50	6.50	-38.9	-40.0	21.6	0.00e+00	34	33	0	140509184	52	5708
2026-01-08 12:17:56.21	31.98	6.71	-38.7	-39.9	21.7	0.00e+00	40	33	0	147849216	50	6318
2026-01-08 12:18:00.25	32.45	6.92	-38.8	-39.9	21.8	0.00e+00	0	33	0	156237824	50	6320
2026-01-08 12:18:04.28	32.94	7.12	-38.8	-39.9	21.8	0.00e+00	11	33	0	163577856	50	6341
2026-01-08 12:18:08.31	33.43	7.33	-38.8	-39.9	21.8	0.00e+00	0	33	0	170917888	50	6355
2026-01-08 12:18:12.35	33.93	7.54	-38.9	-40.0	21.6	0.00e+00	41	33	0	178257920	50	6443
2026-01-08 12:18:16.38	34.43	7.74	-38.9	-40.0	21.6	0.00e+00	92	33	0	186646528	50	6439
2026-01-08 12:18:20.41	34.95	7.95	-38.8	-39.9	21.8	0.00e+00	6	33	0	193986560	50	6379
2026-01-08 12:18:24.45	35.47	8.16	-38.7	-39.8	21.9	0.00e+00	0	33	0	201326592	50	6285
2026-01-08 12:18:28.49	35.99	8.36	-38.6	-39.6	22.1	0.00e+00	0	33	0	208666624	50	6156
2026-01-08 12:18:32.53	36.53	8.57	-38.5	-39.5	22.2	0.00e+00	92	33	0	216006656	50	6101
2026-01-08 12:18:36.56	37.07	8.77	-38.1	-39.1	22.6	0.00e+00	46	33	0	224395264	50	5811
2026-01-08 12:18:40.60	37.61	8.98	-38.0	-39.0	22.8	0.00e+00	7	33	0	231735296	50	5699
2026-01-08 12:18:44.63	38.17	9.18	-37.9	-38.9	22.8	0.00e+00	0	33	0	239075328	50	5667
2026-01-08 12:18:48.67	38.73	9.38	-37.7	-38.7	23.0	0.00e+00	90	33	0	246415360	48	6216
2026-01-08 12:18:52.71	39.30	9.59	-37.5	-38.4	23.2	0.00e+00	47	33	0	253755392	48	5999
2026-01-08 12:18:56.74	39.88	9.79	-37.6	-38.5	22.9	0.00e+00	47	33	0	262144000	48	6080
2026-01-08 12:19:00.77	40.47	9.99	-37.6	-38.6	23.1	0.00e+00	49	33	0	269484032	48	6122
2026-01-08 12:19:04.81	41.06	10.19	-37.9	-38.8	23.0	0.00e+00	92	33	0	276824064	48	6317
2026-01-08 12:19:08.85	41.67	10.39	-37.6	-38.6	23.1	0.00e+00	0	33	0	284164096	48	6125
2026-01-08 12:19:12.89	42.28	10.59	-37.7	-38.7	23.0	0.00e+00	42	33	0	292552704	48	6204
2026-01-08 12:19:16.92	42.89	10.78	-37.6	-38.5	23.1	0.00e+00	0	33	0	299892736	48	6068
2026-01-08 12:19:20.96	43.52	10.98	-37.5	-38.5	23.3	0.00e+00	90	33	0	307232768	48	6045
2026-01-08 12:19:24.99	44.15	11.17	-37.8	-38.8	23.1	0.00e+00	32	33	0	314572800	48	6252
2026-01-08 12:19:29.03	44.80	11.36	-37.7	-38.7	23.1	0.00e+00	34	33	0	321912832	48	6200
2026-01-08 12:19:33.07	45.45	11.55	-37.7	-38.7	23.1	0.00e+00	0	33	0	330301440	48	6180
2026-01-08 12:19:37.10	46.10	11.74	-37.9	-38.9	22.9	0.00e+00	92	33	0	337641472	48	6327
2026-01-08 12:19:41.13	46.77	11.93	-38.1	-39.1	22.8	0.00e+00	37	33	0	344981504	48	6505
2026-01-08 12:19:45.17	47.44	12.11	-38.3	-39.3	22.7	0.00e+00	44	33	0	352321536	48	6636
2026-01-08 12:19:49.20	48.13	12.29	-38.5	-39.6	22.2	0.00e+00	74	33	0	359661568	48	6869
2026-01-08 12:19:53.24	48.82	12.47	-38.9	-40.0	21.9	0.00e+00	92	33	0	368050176	50	6426
2026-01-08 12:19:57.28	49.52	12.65	-39.2	-40.3	21.7	0.00e+00	0	33	0	375390208	50	6616
2026-01-08 12:20:01.31	50.23	12.82	-39.2	-40.3	21.7	0.00e+00	47	33	0	382730240	50	6633
2026-01-08 12:20:05.35	50.94	13.00	-39.3	-40.4	21.6	0.00e+00	48	33	0	390070272	50	6751
2026-01-08 12:20:09.39	51.67	13.17	-39.4	-40.5	21.5	0.00e+00	89	33	0	398458880	50	6805
2026-01-08 12:20:13.43	52.40	13.33	-39.3	-40.3	21.6	0.00e+00	5	33	0	405798912	50	6691
2026-01-08 12:20:17.46	53.14	13.49	-39.4	-40.6	21.4	0.00e+00	0	33	0	413138944	50	6873
2026-01-08 12:20:21.50	53.89	13.65	-39.9	-41.1	21.0	0.00e+00	92	33	0	420478976	52	6493
2026-01-08 12:20:25.54	54.64	13.81	-39.8	-41.0	21.2	0.00e+00	0	33	0	427819008	52	6400
2026-01-08 12:20:29.58	55.41	13.96	-39.2	-40.3	21.8	0.00e+00	47	33	0	436207616	52	5913
2026-01-08 12:20:33.61	56.18	14.11	-39.2	-40.3	21.8	0.00e+00	7	33	0	443547648	52	5912
2026-01-08 12:20:37.65	56.96	14.26	-39.2	-40.3	21.7	0.00e+00	92	33	0	450887680	52	5940
2026-01-08 12:20:41.69	57.74	14.40	-38.9	-40.0	22.0	0.00e+00	43	33	0	458227712	52	5720
2026-01-08 12:20:45.72	58.54	14.53	-37.9	-38.9	23.1	0.00e+00	0	33	0	466616320	50	5631
2026-01-08 12:20:49.76	59.34	14.67	-37.8	-38.7	23.2	0.00e+00	32	33	0	473956352	48	6205
2026-01-08 12:20:53.80	60.14	14.79	-37.8	-38.8	23.1	0.00e+00	92	33	0	481296384	48	6260
2026-01-08 12:20:57.83	60.96	14.92	-37.8	-38.8	23.1	0.00e+00	3	33	0	488636416	48	6262
2026-01-08 12:21:01.87	61.78	15.03	-37.8	-38.7	23.2	0.00e+00	0	33	0	495976448	48	6202
2026-01-08 12:21:05.91	62.60	15.15	-38.0	-38.9	23.0	0.00e+00	30	33	0	504365056	48	6366
2026-01-08 12:21:09.95	63.44	15.26	-38.3	-39.3	22.6	0.00e+00	92	33	0	511705088	48	6639
2026-01-08 12:21:13.98	64.28	15.36	-38.5	-39.5	22.4	0.00e+00	38	33	0	519045120	48	6821
2026-01-08 12:21:18.02	65.12	15.46	-38.6	-39.6	22.3	0.00e+00	0	33	0	526385152	48	6925
2026-01-08 12:21:22.05	65.97	15.55	-38.6	-39.6	22.4	0.00e+00	0	33	0	534773760	48	6924
2026-01-08 12:21:26.09	66.82	15.64	-38.3	-39.3	22.6	0.00e+00	92	33	0	542113792	48	6654
2026-01-08 12:21:30.13	67.68	15.72	-38.4	-39.4	22.5	0.00e+00	0	33	0	549453824	48	6766
2026-01-08 12:21:34.17	68.55	15.79	-38.3	-39.3	22.7	0.00e+00	31	33	0	556793856	48	6668
2026-01-08 12:21:38.20	69.41	15.86	-38.0	-39.0	22.9	0.00e+00	42	33	0	564133888	48	6418
2026-01-08 12:21:42.24	70.29	15.92	-38.2	-39.2	22.8	0.00e+00	40	33	0	572522496	48	6582
2026-01-08 12:21:46.27	71.16	15.98	-38.2	-39.2	22.8	0.00e+00	0	33	0	579862528	48	6557
2026-01-08 12:21:50.31	72.04	16.03	-38.3	-39.3	22.7	0.00e+00	0	33	0	587202560	48	6646
2026-01-08 12:21:54.35	72.92	16.08	-38.1	-39.1	22.8	0.00e+00	92	33	0	594542592	48	6492
2026-01-08 12:21:58.39	73.80	16.11	-38.2	-39.1	22.9	0.00e+00	6	33	0	602931200	48	6523
2026-01-08 12:22:02.43	74.69	16.15	-38.0	-38.9	22.9	0.00e+00	0	33	0	610271232	48	6367
2026-01-08 12:22:06.47	75.58	16.17	-38.2	-39.1	22.8	0.00e+00	7	33	0	617611264	48	6530
2026-01-08 12:22:10.51	76.47	16.19	-38.1	-39.1	22.9	0.00e+00	92	33	0	624951296	48	6496
2026-01-08 12:22:14.54	77.35	16.20	-37.5	-38.4	23.3	0.00e+00	45	33	0	632291328	48	6032
2026-01-08 12:22:18.58	78.25	16.21	-37.6	-38.6	23.3	0.00e+00	48	33	0	640679936	48	6104
2026-01-08 12:22:22.62	79.14	16.21	-37.8	-38.7	23.2	0.00e+00	39	33	0	648019968	48	6237
2026-01-08 12:22:26.65	80.03	16.20	-37.6	-38.5	23.4	0.00e+00	92	33	0	655360000	48	6085
2026-01-08 12:22:30.69	80.92	16.19	-37.6	-38.6	23.4	0.00e+00	0	33	0	662700032	48	6108
2026-01-08 12:22:34.73	81.80	16.17	-37.7	-38.6	23.3	0.00e+00	0	33	0	670040064	48	6149
2026-01-08 12:22:38.75	82.69	16.14	-38.0	-38.9	23.0	0.00e+00	39	33	0	678428672	48	6362
2026-01-08 12:22:42.79	83.58	16.11	-37.8	-38.7	23.2	0.00e+00	90	33	0	685768704	48	6223
2026-01-08 12:22:46.83	84.46	16.07	-37.3	-38.2	23.7	0.00e+00	0	33	0	693108736	48	5855
2026-01-08 12:22:50.87	85.34	16.02	-37.5	-38.5	23.3	0.00e+00	0	33	0	700448768	48	6058
2026-01-08 12:22:54.90	86.22	15.97	-37.3	-38.2	23.6	0.00e+00	0	33	0	708837376	48	5860
2026-01-08 12:22:58.94	87.10	15.91	-37.5	-38.4	23.4	0.00e+00	92	33	0	716177408	48	6011
2026-01-08 12:23:02.98	87.97	15.85	-37.3	-38.2	23.7	0.00e+00	33	33	0	723517440	48	5854
2026-01-08 12:23:07.01	88.84	15.78	-37.0	-37.9	23.9	0.00e+00	0	33	0	730857472	48	5656
2026-01-08 12:23:11.05	89.70	15.70	-36.9	-37.8	24.0	0.00e+00	0	33	0	738197504	48	5583
2026-01-08 12:23:15.09	90.56	15.62	-37.0	-37.8	24.0	0.00e+00	92	33	0	746586112	46	6305
2026-01-08 12:23:19.13	91.42	15.53	-37.2	-38.1	23.7	0.00e+00	0	33	0	753926144	46	6521
2026-01-08 12:23:23.16	92.27	15.44	-36.9	-37.7	24.1	0.00e+00	0	33	0	761266176	46	6232
2026-01-08 12:23:27.20	93.11	15.34	-36.3	-37.1	24.6	0.00e+00	90	33	0	768606208	46	5803
2026-01-08 12:23:31.24	93.95	15.24	-36.2	-37.0	24.7	0.00e+00	1	33	0	776994816	46	5715
2026-01-08 12:23:35.28	94.79	15.13	-36.3	-37.2	24.5	0.00e+00	2	33	0	784334848	46	5831
2026-01-08 12:23:39.31	95.61	15.01	-36.6	-37.4	24.3	0.00e+00	0	33	0	791674880	46	6004
2026-01-08 12:23:43.35	96.43	14.89	-36.1	-36.9	24.7	0.00e+00	76	33	0	799014912	46	5652
2026-01-08 12:23:47.39	97.25	14.77	-36.0	-36.8	24.7	0.00e+00	0	33	0	806354944	46	5623
2026-01-08 12:23:51.42	98.06	14.64	-36.8	-37.7	24.1	0.00e+00	6	33	0	814743552	46	6210
2026-01-08 12:23:55.46	98.86	14.50	-37.2	-38.1	23.8	0.00e+00	0	33	0	822083584	46	6484
2026-01-08 12:23:59.50	99.65	14.37	-37.0	-37.9	23.8	0.00e+00	92	33	0	829423616	46	6318
2026-01-08 12:24:03.54	100.44	14.22	-37.2	-38.0	23.7	0.00e+00	46	33	0	836763648	46	6460
2026-01-08 12:24:07.57	101.22	14.08	-36.9	-37.8	23.9	0.00e+00	45	33	0	844103680	46	6291
2026-01-08 12:24:11.61	101.99	13.93	-37.9	-38.8	22.9	0.00e+00	45	33	0	852492288	48	6299
2026-01-08 12:24:15.64	102.76	13.77	-38.8	-39.9	22.0	0.00e+00	92	33	0	859832320	50	6337
2026-01-08 12:24:19.67	103.51	13.62	-39.0	-40.1	21.8	0.00e+00	6	33	0	867172352	50	6531
2026-01-08 12:24:23.71	104.26	13.46	-39.0	-40.2	21.7	0.00e+00	46	33	0	874512384	50	6552
2026-01-08 12:24:27.75	105.00	13.29	-38.6	-39.7	22.3	0.00e+00	35	33	0	882900992	50	6178
2026-01-08 12:24:31.79	105.74	13.12	-38.5	-39.5	22.3	0.00e+00	92	33	0	890241024	50	6076
2026-01-08 12:24:35.82	106.46	12.95	-39.0	-40.1	21.9	0.00e+00	36	33	0	897581056	50	6484
2026-01-08 12:24:39.86	107.18	12.78	-39.5	-40.7	21.3	0.00e+00	0	33	0	904921088	50	6954
2026-01-08 12:24:43.90	107.89	12.60	-39.1	-40.2	21.6	0.00e+00	0	33	0	912261120	50	6590
2026-01-08 12:24:47.93	108.59	12.42	-39.1	-40.1	21.8	0.00e+00	92	33	0	920649728	50	6538
2026-01-08 12:24:51.97	109.28	12.24	-38.9	-40.0	21.9	0.00e+00	45	33	0	927989760	50	6404
2026-01-08 12:24:56.00	109.97	12.06	-37.9	-38.9	22.9	0.00e+00	2	33	0	935329792	50	5659
2026-01-08 12:25:00.04	110.64	11.87	-38.2	-39.2	22.6	0.00e+00	0	33	0	942669824	50	5850
2026-01-08 12:25:04.07	111.31	11.68	-38.4	-39.5	22.2	0.00e+00	92	33	0	950009856	50	6064
2026-01-08 12:25:08.11	111.97	11.49	-38.8	-39.9	21.9	0.00e+00	0	33	0	958398464	50	6319
2026-01-08 12:25:12.14	112.62	11.30	-38.5	-39.6	22.3	0.00e+00	40	33	0	965738496	50	6140
2026-01-08 12:25:16.18	113.26	11.11	-37.7	-38.7	23.0	0.00e+00	0	33	0	973078528	50	5518
2026-01-08 12:25:20.22	113.90	10.91	-37.5	-38.4	23.2	0.00e+00	92	33	0	980418560	48	5995
2026-01-08 12:25:24.25	114.52	10.72	-38.0	-38.9	22.7	0.00e+00	0	33	0	988807168	48	6383
2026-01-08 12:25:28.29	115.14	10.52	-37.8	-38.8	22.9	0.00e+00	0	33	0	996147200	48	6257
2026-01-08 12:25:32.32	115.75	10.32	-38.0	-39.0	22.7	0.00e+00	90	33	0	1003487232	48	6448
2026-01-08 12:25:36.37	116.36	10.12	-37.8	-38.8	22.9	0.00e+00	38	33	0	1010827264	48	6281
2026-01-08 12:25:40.40	116.95	9.92	-37.4	-38.4	23.2	0.00e+00	42	33	0	1018167296	48	5974
2026-01-08 12:25:44.44	117.54	9.71	-37.9	-38.9	22.7	0.00e+00	0	33	0	1026555904	48	6381
2026-01-08 12:25:48.47	118.11	9.51	-38.1	-39.2	22.5	0.00e+00	91	33	0	1033895936	48	6548
2026-01-08 12:25:52.51	118.69	9.31	-37.7	-38.7	22.9	0.00e+00	0	33	0	1041235968	48	6210
2026-01-08 12:25:56.55	119.25	9.10	-37.9	-38.9	22.7	0.00e+00	43	33	0	1048576000	48	6364
2026-01-08 12:26:00.58	119.81	8.89	-38.4	-39.5	22.2	0.00e+00	42	33	0	1056964608	48	6809
2026-01-08 12:26:04.62	120.35	8.69	-38.2	-39.2	22.5	0.00e+00	92	33	0	1064304640	48	6604
2026-01-08 12:26:08.66	120.90	8.48	-37.9	-38.9	22.7	0.00e+00	0	33	0	1071644672	48	6339
2026-01-08 12:26:12.69	121.43	8.27	-38.4	-39.5	22.1	0.00e+00	0	33	0	1078984704	48	6805
2026-01-08 12:26:16.73	121.95	8.07	-38.6	-39.6	21.9	0.00e+00	42	33	0	1086324736	48	6927
2026-01-08 12:26:20.77	122.47	7.86	-38.6	-39.6	21.9	0.00e+00	91	33	0	1094713344	48	6916
2026-01-08 12:26:24.81	122.99	7.65	-39.0	-40.1	21.4	0.00e+00	37	33	0	1102053376	50	6524
2026-01-08 12:26:28.84	123.49	7.44	-39.1	-40.3	21.4	0.00e+00	0	33	0	1109393408	50	6618
2026-01-08 12:26:32.88	123.99	7.23	-39.0	-40.2	21.3	0.00e+00	0	33	0	1116733440	50	6568
2026-01-08 12:26:36.92	124.48	7.02	-39.3	-40.5	21.1	0.00e+00	90	33	0	1125122048	50	6831
2026-01-08 12:26:40.96	124.97	6.81	-39.6	-40.9	20.6	0.00e+00	45	33	0	1132462080	50	7119
2026-01-08 12:26:44.99	125.44	6.61	-39.6	-40.9	20.6	0.00e+00	2	33	0	1139802112	50	7104
2026-01-08 12:26:49.03	125.92	6.40	-39.3	-40.5	20.9	0.00e+00	0	33	0	1147142144	50	6787
2026-01-08 12:26:53.07	126.38	6.19	-39.4	-40.6	20.8	0.00e+00	92	33	0	1154482176	50	6894
2026-01-08 12:26:57.10	126.84	5.98	-39.9	-41.2	20.2	0.00e+00	0	33	0	1162870784	52	6584
2026-01-08 12:27:01.14	127.29	5.77	-40.0	-41.4	20.1	0.00e+00	43	33	0	1170210816	52	6703
2026-01-08 12:27:05.18	127.74	5.56	-40.0	-41.3	20.1	0.00e+00	0	33	0	1177550848	52	6681
2026-01-08 12:27:09.21	128.18	5.36	-40.0	-41.4	20.0	0.00e+00	80	33	0	1184890880	52	6742
2026-01-08 12:27:13.25	128.61	5.15	-40.2	-41.6	19.8	0.00e+00	2	33	0	1193279488	52	6921
2026-01-08 12:27:17.29	129.04	4.94	-40.3	-41.7	19.6	0.00e+00	41	33	0	1200619520	52	6964
2026-01-08 12:27:21.33	129.46	4.73	-40.1	-41.5	19.8	0.00e+00	20	33	0	1207959552	52	6846
2026-01-08 12:27:25.36	129.88	4.53	-40.4	-41.8	19.4	0.00e+00	73	33	0	1215299584	52	7076
2026-01-08 12:27:29.40	130.29	4.32	-40.9	-42.5	18.8	0.00e+00	5	33	0	1222639616	54	6800
2026-01-08 12:27:33.44	130.70	4.11	-41.0	-42.7	18.5	0.00e+00	5	33	0	1231028224	54	6957
2026-01-08 12:27:37.47	131.10	3.91	-40.8	-42.4	18.7	0.00e+00	92	33	0	1238368256	54	6766
2026-01-08 12:27:41.51	131.49	3.70	-41.0	-42.8	18.5	0.00e+00	35	33	0	1245708288	54	7015
2026-01-08 12:27:45.55	131.88	3.50	-41.1	-42.8	18.2	0.00e+00	5	33	0	1253048320	54	7032
2026-01-08 12:27:49.58	132.27	3.30	-41.4	-43.3	17.8	0.00e+00	5	33	0	1261436928	54	7441
2026-01-08 12:27:53.62	132.65	3.09	-41.5	-43.4	17.5	0.00e+00	92	33	0	1268776960	54	7550
2026-01-08 12:27:57.66	133.02	2.89	-48.0	-63.2	3.6	1.51e+00	0	33	104	1271922688	60	52255
2026-01-08 12:28:01.70	133.39	2.69	-48.5	-63.6	3.6	1.51e+00	0	33	104	1271922688	60	54959
2026-01-08 12:28:05.74	133.76	2.48	-48.5	-63.7	3.6	1.51e+00	0	33	104	1271922688	60	55324
2026-01-08 12:28:09.77	134.12	2.28	-48.5	-63.7	3.6	1.51e+00	0	33	104	1271922688	60	55181
2026-01-08 12:28:13.81	134.47	2.08	-48.5	-63.6	3.6	1.51e+00	0	33	104	1271922688	60	54897
2026-01-08 12:28:17.84	134.82	1.88	-48.5	-63.6	3.6	1.51e+00	0	33	104	1271922688	60	54972
2026-01-08 12:28:21.88	135.17	1.68	-48.4	-63.6	3.6	1.51e+00	0	33	104	1271922688	60	54886
2026-01-08 12:28:25.92	135.51	1.48	-48.4	-63.6	3.6	1.51e+00	0	33	104	1271922688	60	54809
2026-01-08 12:28:29.96	135.85	1.28	-48.4	-63.6	3.6	1.51e+00	0	33	104	1271922688	60	54747
2026-01-08 12:28:33.99	136.18	1.09	-48.4	-63.6	3.6	1.51e+00	0	33	104	1271922688	60	54846
2026-01-08 12:28:38.03	136.51	0.89	-48.4	-63.6	3.6	1.51e+00	0	33	104	1271922688	60	54502
2026-01-08 12:28:42.07	136.84	0.69	-48.4	-63.6	3.6	1.51e+00	0	33	104	1271922688	60	54767
2026-01-08 12:28:46.11	137.16	0.49	-48.4	-63.6	3.6	1.51e+00	0	33	104	1271922688	60	54638
2026-01-08 12:28:50.15	137.48	0.30	-48.4	-63.6	3.6	1.51e+00	0	33	104	1271922688	60	54495
2026-01-08 12:28:54.19	137.79	0.10	-48.4	-63.6	3.6	1.51e+00	0	33	104	1271922688	60	54863

#Closed at: 2026-01-08 12:28:56
#Recorded file [1271 MB]: D:/lorett/data/35029_260109_001542.dat