passes_logs/2026/01/08/R4.6S_Anadyr/R4.6S_Anadyr__20260108_165558_SUOMI_NPP_rec.log

#Pass ID: 20260108_165558_SUOMI NPP
#Satellite: SUOMI NPP
#Configuration: NPP
#almurnet v.1.7.20251203
#Start time: 2026-01-08 16:56:00

#Version: 2.2.20231116
#Station: R4.6S_Anadyr
#Location: 177.4865 lon 64.73178 lat
#TLE: 1 37849U 11061A   26008.05542337  .00000108  00000+0  71976-4 0  9997
#TLE: 2 37849  98.7805 310.1641 0002540  75.6410 284.5048 14.19523335735721

#Time	Az	El	Level	Level2	SNR	BER	BlckErr	Temp	State	Recorded	gain1	gain2
2026-01-08 16:56:00.21	28.26	0.09	-48.4	-60.0	3.5	8.45e-01	0	29	0	0	60	36265
2026-01-08 16:56:04.24	28.06	0.32	-48.4	-63.5	3.6	1.51e+00	0	30	104	0	60	54330
2026-01-08 16:56:08.28	27.86	0.54	-48.4	-63.6	3.6	1.51e+00	0	30	104	0	60	54458
2026-01-08 16:56:12.32	27.66	0.77	-48.4	-63.5	3.6	1.51e+00	0	30	104	0	60	54386
2026-01-08 16:56:16.35	27.45	1.00	-48.4	-63.6	3.6	1.51e+00	0	30	104	0	60	54574
2026-01-08 16:56:20.39	27.24	1.23	-48.4	-63.5	3.6	1.51e+00	0	31	104	0	60	54372
2026-01-08 16:56:24.43	27.03	1.46	-48.4	-63.6	3.5	1.51e+00	0	31	104	0	60	54415
2026-01-08 16:56:28.46	26.81	1.69	-48.4	-63.6	3.6	1.51e+00	0	31	104	0	60	54646
2026-01-08 16:56:32.50	26.59	1.93	-48.4	-63.6	3.6	1.51e+00	0	31	104	0	60	54638
2026-01-08 16:56:36.54	26.37	2.16	-48.4	-63.6	3.6	1.51e+00	0	31	104	0	60	54811
2026-01-08 16:56:40.57	26.14	2.40	-48.4	-63.6	3.6	1.51e+00	0	31	104	0	60	54417
2026-01-08 16:56:44.61	25.90	2.64	-48.4	-63.6	3.6	1.51e+00	0	31	104	0	60	54707
2026-01-08 16:56:48.65	25.67	2.88	-48.4	-63.6	3.6	1.51e+00	0	31	104	0	60	54423
2026-01-08 16:56:52.69	25.43	3.12	-48.4	-63.6	3.6	1.51e+00	0	31	104	0	60	54654
2026-01-08 16:56:56.73	25.18	3.37	-48.4	-63.6	3.6	1.51e+00	0	31	104	0	60	54683
2026-01-08 16:57:00.76	24.93	3.61	-48.4	-63.6	3.6	1.51e+00	0	31	104	0	60	54594
2026-01-08 16:57:04.80	24.68	3.86	-48.4	-63.6	3.6	1.51e+00	0	31	104	0	60	54535
2026-01-08 16:57:08.84	24.42	4.11	-48.4	-63.6	3.6	1.51e+00	0	31	104	0	60	54649
2026-01-08 16:57:12.88	24.16	4.36	-48.4	-63.6	3.6	1.51e+00	0	31	104	0	60	54432
2026-01-08 16:57:16.92	23.89	4.61	-48.4	-63.6	3.6	1.51e+00	0	31	104	0	60	54806
2026-01-08 16:57:20.96	23.62	4.86	-48.4	-63.6	3.6	1.51e+00	0	31	104	0	60	54678
2026-01-08 16:57:25.00	23.34	5.12	-48.4	-63.6	3.6	1.51e+00	0	31	104	0	60	54775
2026-01-08 16:57:29.03	23.06	5.38	-48.4	-63.6	3.6	1.51e+00	0	31	104	0	60	54436
2026-01-08 16:57:33.07	22.77	5.64	-48.4	-63.6	3.6	1.51e+00	0	31	104	0	60	54864
2026-01-08 16:57:37.11	22.47	5.90	-48.4	-63.6	3.6	1.51e+00	0	31	104	0	60	54683
2026-01-08 16:57:41.15	22.17	6.16	-48.4	-63.6	3.6	1.51e+00	0	31	104	0	60	54809
2026-01-08 16:57:45.19	21.87	6.43	-48.4	-63.6	3.6	1.51e+00	0	31	104	0	60	54672
2026-01-08 16:57:49.22	21.56	6.69	-48.4	-63.6	3.6	1.51e+00	0	31	104	0	60	54902
2026-01-08 16:57:53.26	21.24	6.96	-48.4	-63.6	3.6	1.51e+00	0	31	104	0	60	54970
2026-01-08 16:57:57.30	20.91	7.23	-48.4	-63.6	3.6	1.51e+00	0	31	104	0	60	54657
2026-01-08 16:58:01.34	20.58	7.50	-48.4	-63.6	3.6	1.51e+00	0	31	104	0	60	54661
2026-01-08 16:58:05.37	20.25	7.78	-48.4	-63.6	3.6	1.51e+00	0	31	104	0	60	54825
2026-01-08 16:58:09.41	19.91	8.06	-48.4	-63.6	3.6	1.51e+00	0	31	104	0	60	54569
2026-01-08 16:58:13.45	19.56	8.33	-48.5	-63.7	3.6	1.51e+00	0	31	104	0	60	55088
2026-01-08 16:58:17.49	19.20	8.62	-48.4	-63.6	3.6	1.51e+00	0	31	104	0	60	54732
2026-01-08 16:58:21.52	18.83	8.90	-48.4	-63.6	3.6	1.51e+00	0	31	104	0	60	55025
2026-01-08 16:58:25.57	18.46	9.18	-48.4	-63.6	3.6	1.51e+00	0	31	104	0	60	55011
2026-01-08 16:58:29.60	18.08	9.47	-48.4	-63.6	3.6	1.51e+00	0	31	104	0	60	54842
2026-01-08 16:58:33.65	17.69	9.76	-48.4	-63.6	3.6	1.51e+00	0	31	104	0	60	54615
2026-01-08 16:58:37.68	17.30	10.05	-48.4	-63.6	3.6	1.51e+00	0	31	104	0	60	54856
2026-01-08 16:58:41.72	16.89	10.34	-48.4	-63.6	3.6	1.51e+00	0	31	104	0	60	54966
2026-01-08 16:58:45.76	16.48	10.64	-48.5	-63.6	3.6	1.51e+00	0	31	104	0	60	54774
2026-01-08 16:58:49.80	16.06	10.94	-48.5	-63.6	3.6	1.51e+00	0	31	104	0	60	54933
2026-01-08 16:58:53.83	15.63	11.23	-48.5	-63.6	3.6	1.51e+00	0	31	104	0	60	54809
2026-01-08 16:58:57.87	15.19	11.54	-48.4	-63.6	3.6	1.51e+00	0	31	104	0	60	54601
2026-01-08 16:59:01.90	14.74	11.84	-48.4	-63.6	3.6	1.51e+00	0	31	104	0	60	54713
2026-01-08 16:59:05.94	14.29	12.14	-48.4	-63.6	3.6	1.51e+00	0	31	104	0	60	54727
2026-01-08 16:59:09.98	13.82	12.45	-48.4	-63.6	3.6	1.51e+00	0	31	104	0	60	54655
2026-01-08 16:59:14.02	13.34	12.76	-48.4	-63.6	3.6	1.51e+00	0	31	104	0	60	54804
2026-01-08 16:59:18.06	12.85	13.07	-48.4	-63.6	3.6	1.51e+00	0	31	104	0	60	54591
2026-01-08 16:59:22.10	12.35	13.39	-48.4	-63.6	3.6	1.51e+00	0	31	104	0	60	54816
2026-01-08 16:59:26.14	11.84	13.70	-48.4	-63.6	3.6	1.51e+00	0	31	104	0	60	54975
2026-01-08 16:59:30.18	11.32	14.02	-48.5	-63.6	3.6	1.51e+00	0	31	104	0	60	54957
2026-01-08 16:59:34.21	10.78	14.33	-48.4	-63.6	3.6	1.51e+00	0	31	104	0	60	54672
2026-01-08 16:59:38.25	10.24	14.65	-48.4	-63.6	3.6	1.51e+00	0	31	104	0	60	54780
2026-01-08 16:59:42.29	9.68	14.98	-48.5	-63.6	3.6	1.51e+00	0	31	104	0	60	54930
2026-01-08 16:59:46.33	9.11	15.30	-48.4	-63.6	3.6	1.51e+00	0	32	104	0	60	54749
2026-01-08 16:59:50.36	8.53	15.62	-48.5	-63.6	3.6	1.51e+00	0	32	104	0	60	54873
2026-01-08 16:59:54.39	7.93	15.95	-48.5	-63.6	3.6	1.51e+00	0	31	104	0	60	54937
2026-01-08 16:59:58.43	7.32	16.27	-48.4	-63.6	3.6	1.51e+00	0	31	104	0	60	54794
2026-01-08 17:00:02.47	6.70	16.60	-48.4	-63.6	3.6	1.51e+00	0	32	104	0	60	54882
2026-01-08 17:00:06.51	6.06	16.93	-48.5	-63.6	3.6	1.51e+00	0	32	104	0	60	54968
2026-01-08 17:00:10.54	5.41	17.26	-48.5	-63.6	3.6	1.51e+00	0	32	104	0	60	54963
2026-01-08 17:00:14.59	4.75	17.59	-48.5	-63.7	3.6	1.51e+00	0	31	104	0	60	55070
2026-01-08 17:00:18.63	4.06	17.92	-48.5	-63.6	3.6	1.51e+00	0	32	104	0	60	54955
2026-01-08 17:00:22.67	3.37	18.25	-48.4	-63.6	3.6	1.51e+00	0	32	104	0	60	54867
2026-01-08 17:00:26.71	2.66	18.58	-48.4	-63.6	3.6	1.51e+00	0	32	104	0	60	54963
2026-01-08 17:00:30.75	1.93	18.91	-48.4	-63.7	3.6	1.51e+00	0	32	104	0	60	55083
2026-01-08 17:00:34.78	1.19	19.23	-48.5	-63.6	3.6	1.51e+00	0	32	104	0	60	54670
2026-01-08 17:00:38.82	0.42	19.56	-48.4	-63.6	3.5	1.51e+00	0	32	104	0	60	54816
2026-01-08 17:00:42.86	359.65	19.89	-48.4	-63.7	3.6	1.51e+00	0	31	104	0	60	55041
2026-01-08 17:00:46.89	358.85	20.21	-48.4	-63.6	3.6	1.51e+00	0	32	104	0	60	54830
2026-01-08 17:00:50.93	358.04	20.54	-48.4	-63.6	3.5	1.51e+00	0	32	104	0	60	54768
2026-01-08 17:00:54.97	357.21	20.86	-48.4	-63.6	3.6	1.51e+00	0	31	104	0	60	54538
2026-01-08 17:00:59.00	356.37	21.18	-48.4	-63.6	3.6	1.51e+00	0	32	104	0	60	54750
2026-01-08 17:01:03.04	355.50	21.49	-48.4	-63.6	3.6	1.51e+00	0	32	104	0	60	54909
2026-01-08 17:01:07.08	354.62	21.81	-48.4	-63.6	3.6	1.51e+00	0	32	104	0	60	54959
2026-01-08 17:01:11.11	353.72	22.11	-48.4	-63.6	3.6	1.51e+00	0	32	104	0	60	54697
2026-01-08 17:01:15.15	352.80	22.42	-48.4	-63.6	3.6	1.51e+00	0	32	104	0	60	54540
2026-01-08 17:01:19.19	351.87	22.72	-48.4	-63.6	3.6	1.51e+00	0	31	104	0	60	54582
2026-01-08 17:01:23.23	350.91	23.02	-48.4	-63.6	3.6	1.51e+00	0	32	104	0	60	54890
2026-01-08 17:01:27.26	349.94	23.31	-48.4	-63.6	3.6	1.51e+00	0	32	104	0	60	54447
2026-01-08 17:01:31.30	348.95	23.59	-48.4	-63.5	3.6	1.51e+00	0	32	104	0	60	54309
2026-01-08 17:01:35.34	347.94	23.87	-48.4	-63.5	3.6	1.51e+00	0	31	104	0	60	54270
2026-01-08 17:01:39.38	346.91	24.14	-48.4	-63.6	3.6	1.51e+00	0	32	104	0	60	54577
2026-01-08 17:01:43.42	345.86	24.41	-48.4	-63.5	3.6	1.51e+00	0	32	104	0	60	54192
2026-01-08 17:01:47.45	344.80	24.66	-48.4	-63.5	3.6	1.51e+00	0	31	104	0	60	54316
2026-01-08 17:01:51.49	343.72	24.91	-48.4	-63.6	3.6	1.51e+00	0	32	104	0	60	54445
2026-01-08 17:01:55.53	342.62	25.15	-48.3	-63.5	3.6	1.51e+00	0	32	104	0	60	54145
2026-01-08 17:01:59.56	341.51	25.37	-48.3	-63.5	3.6	1.51e+00	0	32	104	0	60	54173
2026-01-08 17:02:03.60	340.37	25.59	-48.3	-63.5	3.6	1.51e+00	0	32	104	0	60	54025
2026-01-08 17:02:07.64	339.23	25.80	-48.3	-63.5	3.6	1.51e+00	0	32	104	0	60	54343
2026-01-08 17:02:11.68	338.07	26.00	-48.3	-63.5	3.6	1.51e+00	0	31	104	0	60	54177
2026-01-08 17:02:15.71	336.89	26.18	-48.3	-63.5	3.6	1.51e+00	0	31	104	0	60	53939
2026-01-08 17:02:19.75	335.70	26.35	-48.3	-63.5	3.6	1.51e+00	0	32	104	0	60	54123
2026-01-08 17:02:23.79	334.50	26.51	-48.3	-63.4	3.6	1.51e+00	0	31	104	0	60	53694
2026-01-08 17:02:27.82	333.29	26.66	-48.3	-63.4	3.6	1.51e+00	0	31	104	0	60	53636
2026-01-08 17:02:31.86	332.07	26.79	-48.3	-63.4	3.6	1.51e+00	0	31	104	0	60	53772
2026-01-08 17:02:35.90	330.83	26.91	-48.3	-63.5	3.6	1.51e+00	0	32	104	0	60	53828
2026-01-08 17:02:39.94	329.59	27.01	-48.3	-63.5	3.6	1.51e+00	0	32	104	0	60	53792
2026-01-08 17:02:43.97	328.34	27.10	-48.3	-63.4	3.6	1.51e+00	0	32	104	0	60	53577
2026-01-08 17:02:48.01	327.08	27.18	-48.3	-63.4	3.6	1.51e+00	0	32	104	0	60	53385
2026-01-08 17:02:52.05	325.82	27.24	-48.3	-63.4	3.6	1.51e+00	0	32	104	0	60	53375
2026-01-08 17:02:56.09	324.55	27.28	-48.2	-63.4	3.6	1.51e+00	0	32	104	0	60	53416
2026-01-08 17:03:00.12	323.29	27.31	-48.2	-63.4	3.6	1.51e+00	0	32	104	0	60	53568
2026-01-08 17:03:04.16	322.02	27.33	-48.2	-63.4	3.6	1.51e+00	0	31	104	0	60	53598
2026-01-08 17:03:08.19	320.75	27.32	-48.2	-63.4	3.6	1.51e+00	0	32	104	0	60	53326
2026-01-08 17:03:12.23	319.47	27.31	-48.2	-63.3	3.6	1.51e+00	0	31	104	0	60	53118
2026-01-08 17:03:16.27	318.21	27.27	-48.2	-63.4	3.6	1.51e+00	0	31	104	0	60	53675
2026-01-08 17:03:20.31	316.94	27.22	-48.2	-63.3	3.6	1.51e+00	0	31	104	0	60	53147
2026-01-08 17:03:24.34	315.68	27.16	-48.2	-63.4	3.6	1.51e+00	0	32	104	0	60	53338
2026-01-08 17:03:28.38	314.42	27.08	-48.1	-63.3	3.6	1.51e+00	0	32	104	0	60	53042
2026-01-08 17:03:32.42	313.17	26.99	-48.1	-63.3	3.6	1.51e+00	0	31	104	0	60	52874
2026-01-08 17:03:36.46	311.93	26.88	-48.1	-63.3	3.6	1.51e+00	0	32	104	0	60	52974
2026-01-08 17:03:40.49	310.70	26.75	-48.2	-63.3	3.6	1.51e+00	0	32	104	0	60	53051
2026-01-08 17:03:44.53	309.48	26.62	-48.1	-63.3	3.6	1.51e+00	0	32	104	0	60	53049
2026-01-08 17:03:48.56	308.27	26.47	-48.1	-63.3	3.6	1.51e+00	0	32	104	0	60	52725
2026-01-08 17:03:52.60	307.07	26.30	-48.1	-63.2	3.6	1.51e+00	0	32	104	0	60	52507
2026-01-08 17:03:56.64	305.88	26.13	-48.1	-63.2	3.6	1.51e+00	0	32	104	0	60	52423
2026-01-08 17:04:00.68	304.71	25.94	-48.1	-63.2	3.6	1.51e+00	0	32	104	0	60	52494
2026-01-08 17:04:04.71	303.56	25.74	-48.1	-63.2	3.6	1.51e+00	0	32	104	0	60	52307
2026-01-08 17:04:08.75	302.41	25.53	-48.0	-63.2	3.6	1.51e+00	0	32	104	0	60	52380
2026-01-08 17:04:12.79	301.28	25.31	-48.0	-63.2	3.6	1.51e+00	0	32	104	0	60	52192
2026-01-08 17:04:16.83	300.17	25.07	-48.0	-63.2	3.6	1.51e+00	0	32	104	0	60	52256
2026-01-08 17:04:20.87	299.08	24.83	-48.0	-63.2	3.6	1.51e+00	0	32	104	0	60	52509
2026-01-08 17:04:24.91	298.00	24.58	-48.0	-63.2	3.6	1.51e+00	0	32	104	0	60	51972
2026-01-08 17:04:28.95	296.94	24.32	-48.0	-63.1	3.6	1.51e+00	0	32	104	0	60	51895
2026-01-08 17:04:32.99	295.89	24.06	-47.9	-63.1	3.6	1.51e+00	0	32	104	0	60	51905
2026-01-08 17:04:37.03	294.87	23.78	-47.9	-63.1	3.6	1.51e+00	0	32	104	0	60	51900
2026-01-08 17:04:41.06	293.86	23.50	-48.0	-63.1	3.6	1.51e+00	0	32	104	0	60	51502
2026-01-08 17:04:45.10	292.87	23.22	-47.9	-63.1	3.6	1.51e+00	0	32	104	0	60	51628
2026-01-08 17:04:49.15	291.90	22.92	-47.9	-63.1	3.6	1.51e+00	0	32	104	0	60	51901
2026-01-08 17:04:53.18	290.95	22.62	-47.9	-63.1	3.6	1.51e+00	0	32	104	0	60	51731
2026-01-08 17:04:57.22	290.01	22.32	-47.9	-63.1	3.6	1.51e+00	0	32	104	0	60	51533
2026-01-08 17:05:01.26	289.10	22.01	-47.9	-63.0	3.6	1.51e+00	0	32	104	0	60	51278
2026-01-08 17:05:05.30	288.20	21.70	-47.9	-63.1	3.6	1.51e+00	0	32	104	0	60	51673
2026-01-08 17:05:09.34	287.32	21.39	-47.8	-63.0	3.6	1.51e+00	0	32	104	0	60	50988
2026-01-08 17:05:13.38	286.46	21.07	-47.8	-63.0	3.6	1.51e+00	0	32	104	0	60	51301
2026-01-08 17:05:17.41	285.62	20.75	-47.8	-63.0	3.6	1.51e+00	0	32	104	0	60	51238
2026-01-08 17:05:21.45	284.79	20.43	-47.8	-63.0	3.6	1.51e+00	0	32	104	0	60	51008
2026-01-08 17:05:25.49	283.98	20.10	-47.8	-63.0	3.6	1.51e+00	0	32	104	0	60	50936
2026-01-08 17:05:29.52	283.19	19.78	-47.8	-62.9	3.6	1.51e+00	0	32	104	0	60	50738
2026-01-08 17:05:33.56	282.42	19.45	-47.8	-62.9	3.6	1.51e+00	0	32	104	0	60	50638
2026-01-08 17:05:37.60	281.66	19.12	-47.7	-62.9	3.6	1.51e+00	0	32	104	0	60	50510
2026-01-08 17:05:41.64	280.92	18.79	-47.7	-62.9	3.6	1.51e+00	0	32	104	0	60	50449
2026-01-08 17:05:45.68	280.19	18.46	-47.7	-62.9	3.6	1.51e+00	0	32	104	0	60	50369
2026-01-08 17:05:49.72	279.48	18.13	-47.7	-62.8	3.6	1.51e+00	0	32	104	0	60	50125
2026-01-08 17:05:53.76	278.79	17.80	-47.7	-62.8	3.6	1.51e+00	0	32	104	0	60	50109
2026-01-08 17:05:57.80	278.11	17.47	-47.6	-62.8	3.6	1.51e+00	0	32	104	0	60	50046
2026-01-08 17:06:01.84	277.44	17.14	-47.6	-62.8	3.6	1.51e+00	0	32	104	0	60	49824
2026-01-08 17:06:05.88	276.79	16.81	-47.6	-62.8	3.6	1.51e+00	0	32	104	0	60	49644
2026-01-08 17:06:09.92	276.16	16.48	-47.6	-62.7	3.6	1.51e+00	0	32	104	0	60	49463
2026-01-08 17:06:13.95	275.54	16.15	-47.5	-62.7	3.6	1.51e+00	0	32	104	0	60	49475
2026-01-08 17:06:17.99	274.93	15.82	-47.5	-62.7	3.6	1.51e+00	0	32	104	0	60	49268
2026-01-08 17:06:22.03	274.34	15.50	-47.4	-62.7	3.6	1.51e+00	0	32	104	0	60	49243
2026-01-08 17:06:26.06	273.76	15.17	-47.4	-62.6	3.6	1.51e+00	0	32	104	0	60	48981
2026-01-08 17:06:30.10	273.19	14.85	-47.4	-62.6	3.6	1.51e+00	0	32	104	0	60	48801
2026-01-08 17:06:34.14	272.63	14.53	-47.4	-62.6	3.6	1.51e+00	0	32	104	0	60	48595
2026-01-08 17:06:38.18	272.09	14.21	-47.3	-62.5	3.6	1.51e+00	0	32	104	0	60	48078
2026-01-08 17:06:42.22	271.55	13.89	-47.3	-62.5	3.6	1.51e+00	0	32	104	0	60	47973
2026-01-08 17:06:46.26	271.03	13.57	-47.2	-62.4	3.6	1.51e+00	0	32	104	0	60	47624
2026-01-08 17:06:50.29	270.52	13.26	-47.2	-62.4	3.6	1.51e+00	0	32	104	0	60	47466
2026-01-08 17:06:54.33	270.03	12.95	-47.1	-62.3	3.6	1.51e+00	0	32	104	0	60	47276
2026-01-08 17:06:58.36	269.54	12.64	-47.1	-62.2	3.6	1.51e+00	0	32	104	0	60	46801
2026-01-08 17:07:02.40	269.06	12.33	-47.0	-62.2	3.6	1.51e+00	0	32	104	0	60	46415
2026-01-08 17:07:06.44	268.59	12.02	-46.9	-62.1	3.5	1.51e+00	0	32	104	0	60	45950
2026-01-08 17:07:10.48	268.13	11.71	-48.2	-63.4	3.6	1.51e+00	0	32	104	0	60	53553
2026-01-08 17:07:14.51	267.69	11.41	-48.5	-63.7	3.6	1.51e+00	0	32	104	0	60	55597
2026-01-08 17:07:18.55	267.25	11.11	-48.6	-63.8	3.6	1.51e+00	0	32	104	0	60	55836
2026-01-08 17:07:22.59	266.82	10.81	-48.5	-63.7	3.6	1.51e+00	0	32	104	0	60	55307
2026-01-08 17:07:26.63	266.40	10.51	-48.5	-63.6	3.5	1.51e+00	0	32	104	0	60	54885
2026-01-08 17:07:30.67	265.98	10.22	-48.4	-63.8	3.6	1.51e+00	0	32	104	0	60	55666
2026-01-08 17:07:34.71	265.58	9.92	-48.7	-63.9	3.6	1.51e+00	0	32	104	0	60	56483
2026-01-08 17:07:38.74	265.19	9.63	-48.4	-63.6	3.6	1.51e+00	0	32	104	0	60	54552
2026-01-08 17:07:42.78	264.80	9.34	-41.0	-42.5	19.0	0.00e+00	0	32	0	3145728	52	7654
2026-01-08 17:07:46.82	264.42	9.06	-41.1	-42.5	19.4	0.00e+00	12	32	0	9437184	56	6089
2026-01-08 17:07:50.86	264.05	8.77	-40.9	-42.4	19.6	0.00e+00	0	32	0	16777216	54	6718
2026-01-08 17:07:54.89	263.68	8.49	-40.5	-41.8	19.9	0.00e+00	0	32	0	25165824	54	6290
2026-01-08 17:07:58.93	263.32	8.21	-40.2	-41.6	20.2	0.00e+00	0	32	0	32505856	54	6104
2026-01-08 17:08:02.97	262.97	7.93	-40.3	-41.7	20.1	0.00e+00	49	32	0	39845888	54	6179
2026-01-08 17:08:07.01	262.63	7.65	-40.8	-42.3	19.4	0.00e+00	0	32	0	47185920	54	6645
2026-01-08 17:08:11.04	262.29	7.38	-41.1	-42.6	18.9	0.00e+00	0	31	0	54525952	54	6880
2026-01-08 17:08:15.08	261.96	7.11	-40.9	-42.4	19.2	0.00e+00	8	32	0	62914560	54	6761
2026-01-08 17:08:19.11	261.64	6.84	-40.3	-41.7	19.9	0.00e+00	71	31	0	70254592	54	6232
2026-01-08 17:08:23.15	261.32	6.57	-39.5	-40.8	20.8	0.00e+00	0	31	0	77594624	52	6264
2026-01-08 17:08:27.18	261.01	6.30	-39.0	-40.1	21.2	0.00e+00	0	31	0	84934656	52	5798
2026-01-08 17:08:31.22	260.70	6.04	-39.2	-40.4	20.9	0.00e+00	55	31	0	93323264	52	6028
2026-01-08 17:08:35.26	260.40	5.77	-39.8	-41.2	20.4	0.00e+00	92	31	0	100663296	52	6541
2026-01-08 17:08:39.29	260.11	5.51	-40.5	-41.9	19.5	0.00e+00	0	31	0	108003328	52	7141
2026-01-08 17:08:43.33	259.82	5.25	-41.0	-42.6	18.8	0.00e+00	0	32	0	115343360	54	6904
2026-01-08 17:08:47.37	259.53	5.00	-41.4	-43.1	18.4	0.00e+00	11	31	0	122683392	54	7261
2026-01-08 17:08:51.41	259.25	4.74	-41.4	-43.1	18.3	0.00e+00	0	31	0	131072000	54	7261
2026-01-08 17:08:55.45	258.98	4.49	-41.4	-43.1	18.2	0.00e+00	0	32	0	138412032	54	7300
2026-01-08 17:08:59.48	258.71	4.24	-41.3	-43.0	18.2	0.00e+00	0	31	0	145752064	54	7248
2026-01-08 17:09:03.52	258.45	3.99	-41.4	-43.2	18.2	0.00e+00	89	31	0	153092096	54	7371
2026-01-08 17:09:07.56	258.19	3.74	-41.2	-43.0	18.2	0.00e+00	0	31	0	160432128	54	7175
2026-01-08 17:09:11.59	257.93	3.49	-41.3	-43.1	18.0	0.00e+00	0	31	0	168820736	54	7266
2026-01-08 17:09:15.63	257.68	3.25	-41.4	-43.2	17.8	0.00e+00	8	31	0	176160768	54	7343
2026-01-08 17:09:19.67	257.44	3.00	-47.5	-62.6	3.6	0.00e+00	0	31	104	183500800	60	48770
2026-01-08 17:09:23.71	257.19	2.76	-48.6	-63.8	3.6	1.51e+00	0	32	104	183500800	60	55933
2026-01-08 17:09:27.75	256.95	2.52	-48.6	-63.8	3.6	1.51e+00	0	32	104	183500800	60	56250
2026-01-08 17:09:31.79	256.72	2.28	-48.5	-63.7	3.6	1.51e+00	0	32	104	183500800	60	55454
2026-01-08 17:09:35.83	256.49	2.04	-48.5	-63.7	3.6	1.51e+00	0	31	104	183500800	60	55273
2026-01-08 17:09:39.86	256.26	1.81	-48.6	-63.7	3.6	1.51e+00	0	32	104	183500800	60	55388
2026-01-08 17:09:43.89	256.04	1.57	-48.5	-63.7	3.6	1.51e+00	0	32	104	183500800	60	55196
2026-01-08 17:09:47.93	255.82	1.34	-48.5	-63.7	3.6	1.51e+00	0	32	104	183500800	60	55047
2026-01-08 17:09:51.97	255.61	1.11	-48.5	-63.7	3.6	1.51e+00	0	32	104	183500800	60	55238
2026-01-08 17:09:56.01	255.40	0.88	-48.5	-63.7	3.6	1.51e+00	0	32	104	183500800	60	55073
2026-01-08 17:10:00.05	255.19	0.65	-48.5	-63.6	3.6	1.51e+00	0	32	104	183500800	60	54931
2026-01-08 17:10:04.09	254.98	0.42	-48.5	-63.6	3.6	1.51e+00	0	32	104	183500800	60	54968
2026-01-08 17:10:08.13	254.78	0.20	-48.5	-63.6	3.6	1.51e+00	0	32	104	183500800	60	54788
2026-01-08 17:10:12.16	254.58	-0.02	-48.5	-63.6	3.6	1.51e+00	0	32	104	183500800	60	54854

#Closed at: 2026-01-08 17:10:12
#Recorded file [183 MB]: D:/lorett/data/35029_260109_045600.dat