passes_logs/2026/01/08/R4.6S_Anadyr/R4.6S_Anadyr__20260108_144609_NOAA_21_JPSS-2_rec.log

#Pass ID: 20260108_144609_NOAA 21 (JPSS-2)
#Satellite: NOAA 21 (JPSS-2)
#Configuration: NOAA-21
#almurnet v.1.7.20251203
#Start time: 2026-01-08 14:46:11

#Version: 2.2.20231116
#Station: R4.6S_Anadyr
#Location: 177.4865 lon 64.73178 lat
#TLE: 1 54234U 22150A   26007.89369592  .00000099  00000+0  67922-4 0  9991
#TLE: 2 54234  98.7493 308.8796 0000921 330.6018  29.5106 14.19533030163804

#Time	Az	El	Level	Level2	SNR	BER	BlckErr	Temp	State	Recorded	gain1	gain2
2026-01-08 14:46:11.01	20.58	0.10	-48.7	-66.5	3.5	3.02e+01	0	29	0	0	60	80885
2026-01-08 14:46:15.04	20.60	0.34	-48.5	-61.3	3.5	1.52e+00	0	31	104	0	60	40970
2026-01-08 14:46:19.08	20.61	0.59	-48.5	-61.4	3.5	1.52e+00	0	31	104	0	60	41101
2026-01-08 14:46:23.12	20.62	0.83	-48.0	-60.8	3.5	1.52e+00	0	31	104	0	60	38627
2026-01-08 14:46:27.16	20.63	1.08	-47.1	-59.8	3.5	1.52e+00	0	31	104	0	60	34340
2026-01-08 14:46:31.20	20.65	1.33	-47.1	-59.8	3.5	1.52e+00	0	31	104	0	60	34385
2026-01-08 14:46:35.23	20.66	1.58	-47.0	-59.6	3.5	1.52e+00	0	31	104	0	60	33355
2026-01-08 14:46:39.27	20.67	1.84	-47.0	-59.8	3.5	1.52e+00	0	31	104	0	60	34314
2026-01-08 14:46:43.31	20.68	2.10	-47.0	-59.8	3.5	1.52e+00	0	31	104	0	60	34377
2026-01-08 14:46:47.34	20.69	2.36	-47.0	-58.9	3.5	1.51e+00	0	31	104	0	60	30892
2026-01-08 14:46:51.38	20.71	2.62	-46.8	-57.3	3.6	1.49e+00	0	31	104	0	60	25763
2026-01-08 14:46:55.42	20.72	2.88	-46.5	-55.1	4.9	8.08e-01	122	32	104	0	60	19926
2026-01-08 14:46:59.46	20.73	3.15	-43.4	-46.2	13.0	9.00e-05	123	32	0	8388608	60	7151
2026-01-08 14:47:03.49	20.74	3.42	-40.6	-42.2	16.7	0.00e+00	120	32	0	20971520	54	6421
2026-01-08 14:47:07.53	20.75	3.69	-41.4	-43.3	15.6	0.00e+00	122	32	0	33554432	54	7270
2026-01-08 14:47:11.56	20.76	3.96	-41.0	-42.9	13.8	0.00e+00	120	32	0	46137344	52	7764
2026-01-08 14:47:15.60	20.77	4.24	-40.0	-42.2	16.1	1.19e-02	123	32	104	47185920	52	7138
2026-01-08 14:47:19.64	20.78	4.52	-40.3	-42.1	16.6	9.61e-03	122	32	0	58720256	52	7056
2026-01-08 14:47:23.68	20.79	4.81	-39.3	-40.7	18.6	0.00e+00	124	32	0	71303168	52	6048
2026-01-08 14:47:27.72	20.80	5.09	-36.9	-38.0	21.0	0.00e+00	122	32	0	83886080	48	5547
2026-01-08 14:47:31.75	20.81	5.38	-36.8	-37.9	21.2	0.00e+00	121	32	0	96468992	46	6144
2026-01-08 14:47:35.79	20.82	5.67	-36.7	-37.8	21.2	0.00e+00	123	32	0	109051904	46	6114
2026-01-08 14:47:39.83	20.83	5.97	-36.6	-37.7	21.4	0.00e+00	123	32	0	122683392	46	6047
2026-01-08 14:47:43.86	20.84	6.27	-36.7	-37.8	21.5	0.00e+00	122	32	0	134217728	46	6074
2026-01-08 14:47:47.90	20.85	6.57	-36.4	-37.5	21.7	0.00e+00	123	32	0	147849216	46	5859
2026-01-08 14:47:51.94	20.86	6.88	-36.2	-37.3	21.9	0.00e+00	123	32	0	160432128	46	5745
2026-01-08 14:47:55.98	20.87	7.19	-36.1	-37.1	22.0	0.00e+00	123	32	0	173015040	46	5658
2026-01-08 14:48:00.01	20.88	7.50	-35.9	-36.9	22.3	0.00e+00	123	32	0	185597952	46	5495
2026-01-08 14:48:04.05	20.89	7.82	-35.7	-36.7	22.4	0.00e+00	122	32	0	198180864	44	6056
2026-01-08 14:48:08.09	20.90	8.14	-35.7	-36.7	22.5	0.00e+00	123	32	0	210763776	44	6014
2026-01-08 14:48:12.12	20.91	8.47	-35.8	-36.9	22.3	0.00e+00	123	32	0	223346688	44	6140
2026-01-08 14:48:16.16	20.92	8.80	-35.5	-36.4	22.8	0.00e+00	122	32	0	235929600	44	5846
2026-01-08 14:48:20.20	20.92	9.14	-35.4	-36.4	22.8	0.00e+00	122	32	0	248512512	44	5796
2026-01-08 14:48:24.24	20.93	9.48	-35.2	-36.2	23.0	0.00e+00	122	32	0	261095424	44	5693
2026-01-08 14:48:28.27	20.94	9.82	-32.8	-36.1	19.3	1.82e-02	122	32	0	273678336	40	7102
2026-01-08 14:48:32.31	20.95	10.17	-35.0	-36.0	23.3	0.00e+00	120	32	0	286261248	42	6213
2026-01-08 14:48:36.35	20.95	10.52	-35.1	-36.0	23.1	0.00e+00	121	32	0	298844160	42	6263
2026-01-08 14:48:40.39	20.96	10.88	-34.9	-35.9	23.3	0.00e+00	120	32	0	311427072	42	6144
2026-01-08 14:48:44.42	20.97	11.25	-34.8	-35.7	23.5	0.00e+00	122	32	0	324009984	42	6026
2026-01-08 14:48:48.46	20.97	11.62	-34.6	-35.6	23.6	0.00e+00	122	32	0	336592896	42	5927
2026-01-08 14:48:52.50	20.98	11.99	-34.5	-35.4	23.7	0.00e+00	122	32	0	349175808	42	5854
2026-01-08 14:48:56.55	20.99	12.37	-34.6	-35.5	23.7	0.00e+00	123	32	0	361758720	42	5897
2026-01-08 14:49:00.58	20.99	12.76	-34.4	-35.3	23.9	0.00e+00	123	32	0	374341632	42	5776
2026-01-08 14:49:04.62	21.00	13.16	-34.3	-35.2	23.9	0.00e+00	123	32	0	386924544	42	5691
2026-01-08 14:49:08.66	21.00	13.56	-34.3	-35.2	23.9	0.00e+00	123	32	0	399507456	42	5721
2026-01-08 14:49:12.70	21.00	13.96	-34.2	-35.1	24.0	0.00e+00	122	32	0	412090368	42	5636
2026-01-08 14:49:16.73	21.01	14.38	-34.3	-35.2	24.0	0.00e+00	127	32	0	424673280	42	5661
2026-01-08 14:49:20.77	21.01	14.80	-34.1	-35.0	24.1	0.00e+00	123	32	0	437256192	42	5584
2026-01-08 14:49:24.81	21.02	15.23	-34.2	-35.1	24.1	0.00e+00	123	32	0	449839104	42	5605
2026-01-08 14:49:28.84	21.02	15.66	-34.2	-35.1	24.1	0.00e+00	122	32	0	462422016	42	5642
2026-01-08 14:49:32.88	21.02	16.11	-34.1	-35.0	24.1	0.00e+00	122	32	0	475004928	42	5574
2026-01-08 14:49:36.92	21.02	16.56	-34.1	-35.0	24.2	0.00e+00	123	32	0	487587840	42	5575
2026-01-08 14:49:40.96	21.03	17.02	-34.3	-35.2	24.0	0.00e+00	123	32	0	500170752	42	5688
2026-01-08 14:49:45.00	21.03	17.49	-34.2	-35.1	24.1	0.00e+00	123	32	0	513802240	42	5627
2026-01-08 14:49:49.04	21.03	17.97	-34.3	-35.3	24.0	0.00e+00	123	32	0	526385152	42	5733
2026-01-08 14:49:53.07	21.03	18.46	-34.3	-35.2	23.9	0.00e+00	123	32	0	538968064	42	5721
2026-01-08 14:49:57.11	21.03	18.96	-34.2	-35.2	24.1	0.00e+00	123	32	0	551550976	42	5666
2026-01-08 14:50:01.15	21.03	19.47	-34.2	-35.1	24.1	0.00e+00	122	32	0	564133888	42	5651
2026-01-08 14:50:05.18	21.02	19.99	-34.1	-35.0	24.3	0.00e+00	122	32	0	576716800	42	5535
2026-01-08 14:50:09.22	21.02	20.52	-33.8	-34.7	24.4	0.00e+00	122	32	0	589299712	40	6004
2026-01-08 14:50:13.26	21.02	21.06	-33.6	-34.5	24.6	0.00e+00	122	32	0	601882624	40	5863
2026-01-08 14:50:17.29	21.01	21.61	-33.4	-34.3	24.8	0.00e+00	123	32	0	614465536	40	5750
2026-01-08 14:50:21.32	21.01	22.18	-33.1	-34.0	24.9	0.00e+00	123	32	0	627048448	40	5579
2026-01-08 14:50:25.36	21.01	22.76	-32.7	-33.5	25.3	0.00e+00	123	32	0	639631360	38	5900
2026-01-08 14:50:29.39	21.00	23.35	-32.6	-33.5	25.4	0.00e+00	122	32	0	652214272	38	5869
2026-01-08 14:50:33.42	20.99	23.96	-32.6	-33.5	25.4	0.00e+00	122	32	0	664797184	38	5868
2026-01-08 14:50:37.46	20.98	24.58	-32.8	-33.6	25.3	0.00e+00	123	32	0	677380096	38	5981
2026-01-08 14:50:41.50	20.98	25.22	-32.8	-33.7	25.1	0.00e+00	123	32	0	689963008	38	6017
2026-01-08 14:50:45.53	20.97	25.87	-33.0	-33.9	25.0	0.00e+00	122	32	0	702545920	38	6171
2026-01-08 14:50:49.57	20.95	26.54	-33.4	-34.2	24.8	0.00e+00	123	32	0	715128832	38	6423
2026-01-08 14:50:53.60	20.94	27.22	-33.9	-34.7	24.4	0.00e+00	123	32	0	727711744	40	6062
2026-01-08 14:50:57.64	20.93	27.92	-34.1	-35.1	24.2	0.00e+00	122	32	0	740294656	40	6278
2026-01-08 14:51:01.69	20.91	28.65	-34.3	-35.2	24.1	0.00e+00	122	32	0	752877568	40	6408
2026-01-08 14:51:05.72	20.90	29.39	-34.4	-35.3	24.1	0.00e+00	122	32	0	765460480	40	6430
2026-01-08 14:51:09.76	20.88	30.15	-34.1	-35.0	24.4	0.00e+00	122	32	0	778043392	40	6245
2026-01-08 14:51:13.79	20.86	30.93	-33.5	-34.4	24.9	0.00e+00	123	32	0	790626304	40	5801
2026-01-08 14:51:17.83	20.84	31.73	-33.5	-34.4	24.9	0.00e+00	123	32	0	803209216	40	5793
2026-01-08 14:51:21.87	20.82	32.56	-33.5	-34.4	24.8	0.00e+00	121	32	0	815792128	40	5805
2026-01-08 14:51:25.90	20.79	33.40	-34.1	-35.0	24.3	0.00e+00	120	32	0	828375040	40	6210
2026-01-08 14:51:29.94	20.76	34.28	-34.6	-35.6	23.8	0.00e+00	123	32	0	840957952	40	6650
2026-01-08 14:51:33.97	20.73	35.18	-35.4	-36.3	23.4	0.00e+00	123	32	0	853540864	42	6473
2026-01-08 14:51:38.01	20.70	36.10	-36.1	-37.1	22.7	0.00e+00	122	32	0	866123776	44	6281
2026-01-08 14:51:42.04	20.66	37.05	-36.0	-37.0	22.9	0.00e+00	123	32	0	878706688	44	6220
2026-01-08 14:51:46.08	20.63	38.03	-35.5	-36.5	23.3	0.00e+00	123	32	0	891289600	44	5863
2026-01-08 14:51:50.12	20.58	39.04	-35.2	-36.1	23.5	0.00e+00	122	32	0	903872512	44	5643
2026-01-08 14:51:54.15	20.54	40.08	-35.1	-36.1	23.3	0.00e+00	123	32	0	916455424	44	5616
2026-01-08 14:51:58.19	20.49	41.16	-35.5	-36.5	23.3	0.00e+00	120	32	0	930086912	44	5898
2026-01-08 14:52:02.23	20.43	42.26	-36.2	-37.1	22.8	0.00e+00	123	32	0	942669824	44	6350
2026-01-08 14:52:06.27	20.37	43.40	-36.2	-37.2	22.7	0.00e+00	123	32	0	955252736	44	6351
2026-01-08 14:52:10.30	20.31	44.58	-36.6	-37.6	22.4	0.00e+00	120	32	0	967835648	44	6692
2026-01-08 14:52:14.34	20.23	45.79	-37.1	-38.2	21.8	0.00e+00	120	32	0	980418560	46	6405
2026-01-08 14:52:18.38	20.16	47.04	-36.3	-37.3	22.6	0.00e+00	122	32	0	993001472	46	5739
2026-01-08 14:52:22.42	20.07	48.32	-35.5	-36.4	23.3	0.00e+00	120	32	0	1005584384	44	5841
2026-01-08 14:52:26.46	19.97	49.65	-35.4	-36.4	23.5	0.00e+00	120	32	0	1018167296	44	5804
2026-01-08 14:52:30.50	19.87	51.02	-35.5	-36.4	23.3	0.00e+00	123	32	0	1030750208	44	5854
2026-01-08 14:52:34.53	19.75	52.42	-35.3	-36.2	23.6	0.00e+00	123	32	0	1043333120	44	5693
2026-01-08 14:52:38.57	19.62	53.87	-34.3	-35.2	24.4	0.00e+00	120	32	0	1055916032	42	5660
2026-01-08 14:52:42.60	19.47	55.36	-34.0	-34.8	24.6	0.00e+00	123	32	0	1068498944	42	5465
2026-01-08 14:52:46.64	19.30	56.89	-33.9	-34.8	24.5	0.00e+00	120	32	0	1081081856	40	6103
2026-01-08 14:52:50.68	19.11	58.47	-33.3	-34.2	24.9	0.00e+00	120	32	0	1093664768	40	5687
2026-01-08 14:52:54.72	18.90	60.09	-32.9	-33.8	25.3	0.00e+00	123	32	0	1106247680	40	5436
2026-01-08 14:52:58.75	18.66	61.74	-32.9	-33.7	24.8	0.00e+00	122	32	0	1118830592	38	6064
2026-01-08 14:53:02.78	18.37	63.44	-32.3	-33.1	25.3	0.00e+00	122	32	0	1131413504	38	5644
2026-01-08 14:53:06.82	18.04	65.19	-32.3	-33.1	25.4	0.00e+00	120	32	0	1143996416	38	5654
2026-01-08 14:53:10.86	17.65	66.97	-32.2	-33.0	25.7	0.00e+00	120	32	0	1156579328	38	5585
2026-01-08 14:53:14.90	17.19	68.79	-31.7	-32.5	25.9	0.00e+00	123	32	0	1169162240	36	5871
2026-01-08 14:53:18.93	16.62	70.64	-32.1	-32.9	25.8	0.00e+00	123	32	0	1181745152	36	6204
2026-01-08 14:53:22.97	15.92	72.53	-32.4	-33.2	25.5	0.00e+00	123	32	0	1194328064	36	6412
2026-01-08 14:53:27.00	15.04	74.45	-31.7	-32.6	25.8	0.00e+00	122	32	0	1206910976	36	5937
2026-01-08 14:53:31.04	13.89	76.39	-31.8	-32.6	25.9	0.00e+00	123	32	0	1219493888	36	5948
2026-01-08 14:53:35.07	12.34	78.35	-31.8	-32.6	25.9	0.00e+00	123	32	0	1232076800	36	5936
2026-01-08 14:53:39.11	10.12	80.33	-32.4	-33.3	25.4	0.00e+00	123	32	0	1244659712	36	6431
2026-01-08 14:53:43.14	6.75	82.30	-32.6	-33.5	25.2	0.00e+00	122	32	0	1257242624	36	6607
2026-01-08 14:53:47.18	1.04	84.24	-32.7	-33.6	24.9	0.00e+00	120	32	0	1269825536	38	5957
2026-01-08 14:53:51.21	349.73	86.07	-32.6	-33.5	25.3	0.00e+00	123	32	0	1282408448	38	5893
2026-01-08 14:53:55.25	322.37	87.53	-32.6	-33.5	25.4	0.00e+00	122	32	0	1294991360	38	5874
2026-01-08 14:53:59.29	271.12	87.68	-32.2	-33.0	25.4	0.00e+00	123	32	0	1307574272	38	5586
2026-01-08 14:54:03.33	239.19	86.36	-32.2	-33.0	25.7	0.00e+00	127	32	0	1320157184	38	5589
2026-01-08 14:54:07.37	226.21	84.55	-32.6	-33.4	25.4	0.00e+00	120	32	0	1332740096	38	5846
2026-01-08 14:54:11.41	219.88	82.62	-33.4	-34.3	24.9	0.00e+00	120	32	0	1345323008	38	6482
2026-01-08 14:54:15.45	216.22	80.65	-32.0	-32.8	25.8	0.00e+00	123	32	0	1358954496	38	5436
2026-01-08 14:54:19.48	213.86	78.68	-32.1	-33.0	25.6	0.00e+00	123	32	0	1371537408	38	5553
2026-01-08 14:54:23.52	212.22	76.71	-32.4	-33.3	25.4	0.00e+00	122	32	0	1384120320	38	5747
2026-01-08 14:54:27.56	211.01	74.76	-31.7	-32.5	25.4	0.00e+00	123	32	0	1396703232	36	5907
2026-01-08 14:54:31.60	210.09	72.83	-33.0	-33.9	25.2	0.00e+00	120	32	0	1409286144	38	6140
2026-01-08 14:54:35.63	209.37	70.94	-32.6	-33.5	25.5	0.00e+00	122	32	0	1421869056	38	5900
2026-01-08 14:54:39.67	208.78	69.07	-33.0	-33.8	25.2	0.00e+00	122	32	0	1434451968	38	6123
2026-01-08 14:54:43.71	208.30	67.24	-32.1	-32.9	25.8	0.00e+00	123	32	0	1447034880	36	6178
2026-01-08 14:54:47.75	207.90	65.44	-32.8	-33.6	25.1	0.00e+00	123	32	0	1459617792	38	5968
2026-01-08 14:54:51.78	207.56	63.70	-32.6	-33.4	25.4	0.00e+00	122	32	0	1472200704	36	6541
2026-01-08 14:54:55.82	207.27	61.98	-33.5	-34.4	23.4	0.00e+00	122	32	0	1484783616	40	5849
2026-01-08 14:54:59.85	207.02	60.31	-32.3	-33.1	25.7	0.00e+00	121	32	0	1497366528	38	5627
2026-01-08 14:55:03.88	206.80	58.69	-34.7	-35.7	23.7	0.00e+00	122	32	0	1509949440	42	6003
2026-01-08 14:55:07.91	206.61	57.10	-32.8	-33.7	25.0	0.00e+00	123	32	0	1522532352	40	5344
2026-01-08 14:55:11.95	206.44	55.56	-35.6	-36.6	23.2	0.00e+00	121	32	0	1535115264	42	6664
2026-01-08 14:55:15.99	206.29	54.06	-35.2	-36.3	22.0	0.00e+00	123	32	0	1547698176	44	5762
2026-01-08 14:55:20.03	206.15	52.60	-33.8	-34.7	24.6	0.00e+00	123	32	0	1560281088	40	6012
2026-01-08 14:55:24.06	206.03	51.18	-35.7	-36.6	22.8	0.00e+00	120	32	0	1572864000	44	5983
2026-01-08 14:55:28.09	205.92	49.81	-36.0	-37.0	21.7	0.00e+00	122	32	0	1585446912	44	6245
2026-01-08 14:55:32.14	205.82	48.47	-35.2	-36.2	23.4	0.00e+00	123	32	0	1598029824	44	5666
2026-01-08 14:55:36.17	205.73	47.18	-36.9	-38.0	22.0	0.00e+00	122	32	0	1610612736	46	6212
2026-01-08 14:55:40.21	205.65	45.92	-37.6	-38.8	20.9	0.00e+00	123	32	0	1623195648	46	6835
2026-01-08 14:55:44.25	205.58	44.70	-36.8	-37.9	21.9	0.00e+00	123	32	0	1635778560	46	6151
2026-01-08 14:55:48.29	205.51	43.51	-36.5	-37.6	22.2	0.00e+00	122	32	0	1648361472	46	5936
2026-01-08 14:55:52.33	205.45	42.36	-35.3	-36.3	23.3	0.00e+00	122	32	0	1660944384	44	5729
2026-01-08 14:55:56.37	205.39	41.25	-36.4	-37.5	22.5	0.00e+00	123	32	0	1673527296	44	6599
2026-01-08 14:56:00.41	205.34	40.17	-36.9	-38.0	21.9	0.00e+00	123	32	0	1686110208	46	6237
2026-01-08 14:56:04.44	205.29	39.12	-36.7	-37.8	22.1	0.00e+00	123	32	0	1698693120	46	6109
2026-01-08 14:56:08.48	205.25	38.10	-36.0	-37.0	22.7	0.00e+00	122	32	0	1711276032	46	5574
2026-01-08 14:56:12.51	205.21	37.11	-35.3	-36.3	23.4	0.00e+00	123	32	0	1723858944	44	5732
2026-01-08 14:56:16.55	205.17	36.15	-34.7	-35.6	23.9	0.00e+00	122	32	0	1736441856	42	5973
2026-01-08 14:56:20.59	205.14	35.22	-34.4	-35.3	24.0	0.00e+00	123	32	0	1750073344	42	5750
2026-01-08 14:56:24.63	205.10	34.31	-34.5	-35.4	24.0	0.00e+00	120	32	0	1762656256	42	5797
2026-01-08 14:56:28.66	205.07	33.44	-34.5	-35.5	24.1	0.00e+00	123	32	0	1775239168	42	5868
2026-01-08 14:56:32.70	205.05	32.58	-34.4	-35.3	24.2	0.00e+00	123	32	0	1787822080	42	5734
2026-01-08 14:56:36.73	205.02	31.75	-34.3	-35.2	24.2	0.00e+00	123	33	0	1800404992	42	5720
2026-01-08 14:56:40.77	205.00	30.94	-34.1	-35.0	24.4	0.00e+00	120	32	0	1812987904	42	5551
2026-01-08 14:56:44.81	204.98	30.15	-34.2	-35.1	24.2	0.00e+00	120	32	0	1825570816	42	5642
2026-01-08 14:56:48.85	204.96	29.39	-34.2	-35.1	24.1	0.00e+00	123	32	0	1838153728	42	5646
2026-01-08 14:56:52.89	204.94	28.64	-33.6	-34.5	24.1	0.00e+00	123	33	0	1850736640	40	5921
2026-01-08 14:56:56.93	204.92	27.91	-33.3	-34.2	23.9	0.00e+00	123	32	0	1863319552	40	5686
2026-01-08 14:57:00.97	204.91	27.21	-33.6	-34.5	23.7	0.00e+00	120	33	0	1875902464	40	5921
2026-01-08 14:57:05.00	204.89	26.52	-33.7	-34.6	23.8	0.00e+00	122	32	0	1888485376	40	5992
2026-01-08 14:57:09.04	204.88	25.84	-33.6	-34.5	24.1	0.00e+00	122	33	0	1901068288	40	5916
2026-01-08 14:57:13.07	204.87	25.19	-33.3	-34.2	24.7	0.00e+00	123	32	0	1913651200	40	5712
2026-01-08 14:57:17.11	204.86	24.55	-33.2	-34.1	24.9	0.00e+00	122	32	0	1926234112	40	5599
2026-01-08 14:57:21.15	204.85	23.92	-33.0	-33.8	25.1	0.00e+00	120	32	0	1938817024	40	5446
2026-01-08 14:57:25.19	204.84	23.31	-33.0	-33.8	25.2	0.00e+00	123	32	0	1951399936	40	5436
2026-01-08 14:57:29.23	204.83	22.71	-33.1	-34.0	25.0	0.00e+00	123	32	0	1963982848	40	5533
2026-01-08 14:57:33.26	204.82	22.13	-33.2	-34.0	25.0	0.00e+00	122	32	0	1976565760	40	5573
2026-01-08 14:57:37.30	204.82	21.56	-33.3	-34.2	24.8	0.00e+00	123	32	0	1989148672	40	5694
2026-01-08 14:57:41.34	204.81	21.00	-33.4	-34.2	24.9	0.00e+00	123	32	0	2001731584	40	5713
2026-01-08 14:57:45.37	204.81	20.46	-33.4	-34.3	24.8	0.00e+00	123	32	0	2014314496	40	5759
2026-01-08 14:57:49.41	204.80	19.93	-33.5	-34.4	24.8	0.00e+00	123	32	0	2026897408	40	5799
2026-01-08 14:57:53.45	204.80	19.40	-33.7	-34.6	24.6	0.00e+00	122	32	0	2039480320	40	5938
2026-01-08 14:57:57.48	204.79	18.89	-33.7	-34.5	24.6	0.00e+00	123	32	0	2052063232	40	5923
2026-01-08 14:58:01.52	204.79	18.39	-33.7	-34.6	24.5	0.00e+00	123	32	0	2064646144	40	5975
2026-01-08 14:58:05.56	204.79	17.90	-34.1	-35.0	24.3	0.00e+00	122	32	0	2077229056	40	6232
2026-01-08 14:58:09.60	204.79	17.42	-34.3	-35.2	24.0	0.00e+00	122	33	0	2089811968	40	6405
2026-01-08 14:58:13.63	204.79	16.94	-34.5	-35.5	23.9	0.00e+00	123	32	0	2102394880	40	6595
2026-01-08 14:58:17.67	204.79	16.48	-34.5	-35.4	23.9	0.00e+00	123	32	0	2116026368	42	5840
2026-01-08 14:58:21.71	204.79	16.03	-34.5	-35.4	23.9	0.00e+00	123	32	0	2127560704	42	5839
2026-01-08 14:58:25.75	204.79	15.58	-34.6	-35.5	23.8	0.00e+00	123	32	0	2141192192	42	5918
2026-01-08 14:58:29.79	204.79	15.14	-34.7	-35.7	23.7	0.00e+00	123	32	0	2153775104	42	6027
2026-01-08 14:58:33.82	204.79	14.71	-34.8	-35.7	23.7	0.00e+00	123	32	0	2165309440	42	6046
2026-01-08 14:58:37.85	204.79	14.29	-34.8	-35.8	23.6	0.00e+00	122	32	0	2178940928	42	6073
2026-01-08 14:58:41.89	204.79	13.87	-35.0	-36.0	23.5	0.00e+00	122	32	0	2191523840	42	6222
2026-01-08 14:58:45.93	204.79	13.46	-34.9	-35.8	23.5	0.00e+00	120	32	0	2204106752	42	6125
2026-01-08 14:58:49.97	204.79	13.06	-34.9	-35.9	23.5	0.00e+00	122	32	0	2216689664	42	6149
2026-01-08 14:58:54.01	204.79	12.66	-34.9	-35.8	23.5	0.00e+00	123	32	0	2229272576	42	6089
2026-01-08 14:58:58.04	204.80	12.28	-34.9	-35.8	23.5	0.00e+00	122	32	0	2241855488	42	6112
2026-01-08 14:59:02.08	204.80	11.89	-34.9	-35.8	23.5	0.00e+00	122	32	0	2254438400	42	6103
2026-01-08 14:59:06.12	204.80	11.51	-35.0	-36.0	23.4	0.00e+00	123	32	0	2267021312	42	6211
2026-01-08 14:59:10.16	204.81	11.14	-35.3	-36.2	23.2	0.00e+00	123	32	0	2279604224	42	6395
2026-01-08 14:59:14.20	204.81	10.78	-35.3	-36.2	23.1	0.00e+00	122	32	0	2292187136	42	6402
2026-01-08 14:59:18.23	204.81	10.42	-35.3	-36.2	23.0	0.00e+00	122	32	0	2304770048	42	6422
2026-01-08 14:59:22.27	204.82	10.06	-35.5	-36.5	22.8	0.00e+00	123	32	0	2317352960	42	6575
2026-01-08 14:59:26.30	204.82	9.71	-35.7	-36.7	22.6	0.00e+00	123	32	0	2329935872	42	6762
2026-01-08 14:59:30.34	204.83	9.36	-35.7	-36.7	22.6	0.00e+00	123	32	0	2342518784	44	6024
2026-01-08 14:59:34.38	204.83	9.02	-35.6	-36.7	22.5	0.00e+00	123	32	0	2355101696	44	5995
2026-01-08 14:59:38.41	204.84	8.69	-35.9	-36.9	22.4	0.00e+00	122	32	0	2367684608	44	6183
2026-01-08 14:59:42.46	204.84	8.36	-35.9	-36.9	22.3	0.00e+00	122	32	0	2380267520	44	6199
2026-01-08 14:59:46.49	204.85	8.03	-36.2	-37.2	22.0	0.00e+00	122	32	0	2392850432	44	6420
2026-01-08 14:59:50.53	204.85	7.70	-36.3	-37.4	21.9	0.00e+00	123	33	0	2405433344	44	6531
2026-01-08 14:59:54.57	204.86	7.39	-36.4	-37.5	21.8	0.00e+00	123	32	0	2418016256	44	6597
2026-01-08 14:59:58.60	204.86	7.07	-36.5	-37.6	21.6	0.00e+00	123	32	0	2430599168	44	6663
2026-01-08 15:00:02.64	204.87	6.76	-36.8	-37.9	21.3	0.00e+00	123	33	0	2443182080	46	6156
2026-01-08 15:00:06.68	204.88	6.45	-36.8	-37.9	21.3	0.00e+00	122	32	0	2455764992	46	6183
2026-01-08 15:00:10.71	204.88	6.15	-37.0	-38.1	21.1	0.00e+00	123	32	0	2468347904	46	6303
2026-01-08 15:00:14.75	204.89	5.85	-37.3	-38.4	20.8	0.00e+00	123	32	0	2480930816	46	6551
2026-01-08 15:00:18.79	204.89	5.55	-37.3	-38.5	20.8	0.00e+00	123	32	0	2493513728	46	6587
2026-01-08 15:00:22.83	204.90	5.26	-37.4	-38.5	20.7	0.00e+00	120	32	0	2506096640	46	6612
2026-01-08 15:00:26.87	204.91	4.96	-37.6	-38.8	20.4	0.00e+00	123	32	0	2518679552	46	6858
2026-01-08 15:00:30.90	204.91	4.68	-37.7	-38.9	20.3	0.00e+00	122	32	0	2531262464	48	6142
2026-01-08 15:00:34.94	204.92	4.39	-37.9	-39.1	20.0	0.00e+00	123	32	0	2544893952	48	6290
2026-01-08 15:00:38.98	204.93	4.11	-37.9	-39.1	19.9	0.00e+00	122	32	0	2557476864	48	6341
2026-01-08 15:00:43.02	204.93	3.83	-38.1	-39.3	19.7	0.00e+00	122	32	0	2570059776	48	6486
2026-01-08 15:00:47.06	204.94	3.56	-38.5	-39.9	19.1	0.00e+00	123	32	0	2582642688	48	6889
2026-01-08 15:00:51.10	204.95	3.28	-38.7	-40.1	18.9	0.00e+00	123	32	0	2595225600	48	7048
2026-01-08 15:00:55.14	204.96	3.01	-38.8	-40.2	18.6	0.00e+00	121	33	0	2607808512	50	6353
2026-01-08 15:00:59.18	204.96	2.75	-48.3	-61.2	3.5	1.52e+00	0	33	104	2608857088	60	40144
2026-01-08 15:01:03.22	204.97	2.48	-48.5	-61.4	3.5	1.52e+00	0	33	104	2608857088	60	41313
2026-01-08 15:01:07.25	204.98	2.22	-48.4	-61.3	3.5	1.52e+00	0	33	104	2608857088	60	40939
2026-01-08 15:01:11.29	204.99	1.96	-48.5	-61.3	3.5	1.52e+00	0	33	104	2608857088	60	40725
2026-01-08 15:01:15.33	204.99	1.70	-48.5	-61.3	3.5	1.52e+00	0	33	104	2608857088	60	40969
2026-01-08 15:01:19.37	205.00	1.44	-48.5	-61.3	3.5	1.52e+00	0	33	104	2608857088	60	40879
2026-01-08 15:01:23.41	205.01	1.19	-48.5	-61.3	3.5	1.52e+00	0	33	104	2608857088	60	40871
2026-01-08 15:01:27.45	205.02	0.94	-48.5	-61.3	3.5	1.52e+00	0	32	104	2608857088	60	40901
2026-01-08 15:01:31.49	205.03	0.69	-48.4	-61.3	3.5	1.52e+00	0	33	104	2608857088	60	40775
2026-01-08 15:01:35.53	205.03	0.44	-48.4	-61.3	3.5	1.52e+00	0	33	104	2608857088	60	40626
2026-01-08 15:01:39.56	205.04	0.20	-48.4	-61.3	3.5	1.52e+00	0	32	104	2608857088	60	40636
2026-01-08 15:01:43.60	205.05	-0.04	-48.4	-61.3	3.5	1.52e+00	0	33	104	2608857088	60	40544

#Closed at: 2026-01-08 15:01:45
#Recorded file [2608 MB]: D:/lorett/data/35029_260109_024610.dat