passes_logs/2026/01/08/R4.6S_Anadyr/R4.6S_Anadyr__20260108_023006_FENGYUN_3D_rec.log

#Pass ID: 20260108_023006_FENGYUN 3D
#Satellite: FENGYUN 3D
#Configuration: FENGYUN 3D
#almurnet v.1.7.20251203
#Start time: 2026-01-08 02:30:09

#Version: 2.2.20231116
#Station: R4.6S_Anadyr
#Location: 177.4865 lon 64.73178 lat
#TLE: 1 43010U 17072A   26005.48915933 -.00000051  00000+0 -21983-5 0  9995
#TLE: 2 43010  98.9919 337.1582 0002001 124.6377 235.4988 14.19691925421909

#Time	Az	El	Level	Level2	SNR	BER	BlckErr	Temp	State	Recorded	gain1	gain2
2026-01-08 02:30:09.80	162.54	0.19	-48.9	-59.6	3.3	8.39e-01	0	36	0	0	60	34423
2026-01-08 02:30:13.84	162.59	0.43	-49.0	-61.1	3.6	8.45e-01	0	37	104	0	60	41168
2026-01-08 02:30:17.88	162.64	0.68	-48.8	-60.8	3.6	8.45e-01	0	37	104	0	60	39861
2026-01-08 02:30:21.92	162.69	0.93	-47.8	-59.9	3.6	8.45e-01	0	37	104	0	60	35911
2026-01-08 02:30:25.96	162.73	1.18	-47.5	-59.6	3.6	8.44e-01	0	37	104	0	60	34529
2026-01-08 02:30:30.00	162.78	1.43	-47.5	-59.1	3.6	8.46e-01	0	37	104	0	60	32459
2026-01-08 02:30:34.04	162.83	1.68	-47.5	-59.0	3.6	8.47e-01	0	37	104	0	60	32031
2026-01-08 02:30:38.08	162.89	1.94	-47.5	-59.5	3.6	8.45e-01	0	37	104	0	60	34314
2026-01-08 02:30:42.12	162.94	2.20	-47.5	-59.4	3.6	8.46e-01	0	37	104	0	60	33869
2026-01-08 02:30:46.15	162.99	2.46	-47.3	-57.1	3.6	8.43e-01	0	37	104	0	60	25900
2026-01-08 02:30:50.20	163.04	2.72	-47.2	-56.8	3.8	8.43e-01	0	37	104	0	60	25026
2026-01-08 02:30:54.24	163.10	2.99	-43.5	-45.8	12.8	1.11e-03	0	37	0	12582912	60	7040
2026-01-08 02:30:58.28	163.15	3.26	-37.7	-38.7	20.0	0.00e+00	0	37	0	35651584	50	5519
2026-01-08 02:31:02.31	163.21	3.53	-36.2	-37.0	21.5	0.00e+00	0	37	0	58720256	46	5755
2026-01-08 02:31:06.35	163.26	3.81	-37.4	-38.3	20.5	0.00e+00	0	37	0	80740352	52	4719
2026-01-08 02:31:10.39	163.32	4.08	-47.1	-55.4	4.4	8.42e-01	0	37	104	100663296	60	21399
2026-01-08 02:31:14.43	163.38	4.36	-37.1	-38.0	20.7	0.00e+00	0	37	0	119537664	48	5713
2026-01-08 02:31:18.47	163.43	4.65	-36.9	-37.8	21.1	0.00e+00	0	37	0	142606336	46	6248
2026-01-08 02:31:22.51	163.49	4.93	-36.6	-37.4	21.4	0.00e+00	0	37	0	164626432	46	6012
2026-01-08 02:31:26.55	163.55	5.22	-36.5	-37.4	20.9	0.00e+00	0	37	0	187695104	46	5966
2026-01-08 02:31:30.58	163.62	5.51	-36.4	-37.2	21.5	0.00e+00	0	37	0	210763776	46	5887
2026-01-08 02:31:34.62	163.68	5.81	-35.6	-36.4	22.3	0.00e+00	0	37	0	233832448	44	6008
2026-01-08 02:31:38.66	163.74	6.11	-35.1	-35.8	22.7	0.00e+00	0	37	0	255852544	44	5619
2026-01-08 02:31:42.70	163.81	6.41	-35.3	-36.1	22.7	0.00e+00	0	37	0	278921216	44	5783
2026-01-08 02:31:46.74	163.87	6.72	-35.7	-36.5	22.7	0.00e+00	0	37	0	300941312	44	6082
2026-01-08 02:31:50.77	163.94	7.03	-35.9	-36.7	22.3	0.00e+00	0	37	0	324009984	44	6199
2026-01-08 02:31:54.81	164.01	7.34	-35.3	-36.0	22.9	0.00e+00	0	37	0	347078656	44	5720
2026-01-08 02:31:58.85	164.07	7.66	-34.8	-35.6	23.5	0.00e+00	0	37	0	369098752	42	6117
2026-01-08 02:32:02.89	164.14	7.98	-34.2	-34.9	24.0	0.00e+00	0	37	0	392167424	42	5691
2026-01-08 02:32:06.92	164.22	8.30	-34.2	-34.9	24.0	0.00e+00	0	37	0	415236096	42	5684
2026-01-08 02:32:10.96	164.29	8.63	-34.1	-34.8	24.1	0.00e+00	0	37	0	437256192	42	5583
2026-01-08 02:32:14.99	164.36	8.97	-34.1	-34.8	24.3	0.00e+00	0	37	0	460324864	42	5599
2026-01-08 02:32:19.03	164.44	9.30	-34.0	-34.7	24.3	0.00e+00	0	37	0	483393536	42	5534
2026-01-08 02:32:23.07	164.52	9.65	-33.8	-34.5	24.5	0.00e+00	0	37	0	505413632	42	5437
2026-01-08 02:32:27.11	164.59	10.00	-33.8	-34.5	24.5	0.00e+00	0	37	0	528482304	42	5394
2026-01-08 02:32:31.15	164.67	10.35	-33.6	-34.3	24.7	0.00e+00	0	37	0	551550976	40	5949
2026-01-08 02:32:35.19	164.76	10.71	-33.5	-34.2	24.8	0.00e+00	0	37	0	573571072	40	5885
2026-01-08 02:32:39.22	164.84	11.07	-33.6	-34.3	24.8	0.00e+00	0	37	0	596639744	40	5926
2026-01-08 02:32:43.26	164.92	11.44	-33.5	-34.2	24.8	0.00e+00	0	37	0	619708416	40	5863
2026-01-08 02:32:47.30	165.01	11.81	-33.5	-34.2	24.5	0.00e+00	0	38	0	641728512	40	5895
2026-01-08 02:32:51.34	165.10	12.19	-33.4	-34.1	24.9	0.00e+00	0	38	0	664797184	40	5785
2026-01-08 02:32:55.37	165.19	12.58	-33.2	-33.9	25.1	0.00e+00	0	38	0	687865856	40	5663
2026-01-08 02:32:59.41	165.28	12.97	-33.0	-33.6	25.4	0.00e+00	0	38	0	709885952	40	5498
2026-01-08 02:33:03.45	165.38	13.37	-32.8	-33.6	25.5	0.00e+00	0	38	0	732954624	40	5440
2026-01-08 02:33:07.48	165.48	13.77	-32.5	-33.2	25.9	0.00e+00	0	38	0	756023296	38	5868
2026-01-08 02:33:11.52	165.58	14.19	-32.5	-33.1	25.9	0.00e+00	0	37	0	778043392	38	5828
2026-01-08 02:33:15.56	165.68	14.61	-32.2	-32.9	26.1	0.00e+00	0	37	0	801112064	38	5642
2026-01-08 02:33:19.60	165.78	15.03	-32.2	-32.8	26.1	0.00e+00	0	38	0	824180736	38	5606
2026-01-08 02:33:23.64	165.89	15.47	-32.0	-32.6	26.4	0.00e+00	0	38	0	846200832	38	5476
2026-01-08 02:33:27.68	166.00	15.91	-31.7	-32.4	26.4	0.00e+00	0	37	0	869269504	38	5342
2026-01-08 02:33:31.72	166.11	16.36	-31.7	-32.4	26.5	0.00e+00	0	37	0	892338176	36	5977
2026-01-08 02:33:35.76	166.23	16.82	-31.6	-32.2	26.6	0.00e+00	0	38	0	914358272	36	5879
2026-01-08 02:33:39.80	166.35	17.28	-31.6	-32.2	26.8	0.00e+00	0	38	0	937426944	36	5862
2026-01-08 02:33:43.83	166.47	17.76	-31.4	-32.1	26.9	0.00e+00	0	38	0	960495616	36	5772
2026-01-08 02:33:47.87	166.60	18.24	-31.4	-32.0	27.0	0.00e+00	0	37	0	982515712	36	5720
2026-01-08 02:33:51.91	166.73	18.74	-31.2	-31.9	27.0	0.00e+00	0	37	0	1005584384	36	5641
2026-01-08 02:33:55.95	166.86	19.24	-31.1	-31.7	27.2	0.00e+00	0	38	0	1028653056	36	5561
2026-01-08 02:33:59.99	167.00	19.76	-30.9	-31.5	27.4	0.00e+00	0	37	0	1050673152	36	5419
2026-01-08 02:34:04.02	167.14	20.28	-30.7	-31.3	27.4	0.00e+00	0	38	0	1073741824	34	5962
2026-01-08 02:34:08.06	167.29	20.82	-30.4	-31.1	27.8	0.00e+00	0	37	0	1095761920	34	5784
2026-01-08 02:34:12.10	167.44	21.37	-30.4	-31.0	27.8	0.00e+00	0	38	0	1118830592	34	5739
2026-01-08 02:34:16.14	167.60	21.93	-30.3	-30.9	27.8	0.00e+00	0	38	0	1141899264	34	5687
2026-01-08 02:34:20.18	167.76	22.50	-30.4	-31.0	27.7	0.00e+00	0	37	0	1164967936	34	5740
2026-01-08 02:34:24.22	167.93	23.09	-30.5	-31.1	27.7	0.00e+00	0	38	0	1186988032	34	5794
2026-01-08 02:34:28.26	168.10	23.69	-30.1	-30.7	28.0	0.00e+00	0	38	0	1210056704	34	5531
2026-01-08 02:34:32.30	168.28	24.30	-29.9	-30.6	28.2	0.00e+00	0	38	0	1233125376	34	5451
2026-01-08 02:34:36.34	168.46	24.93	-30.0	-30.6	28.1	0.00e+00	0	38	0	1255145472	34	5494
2026-01-08 02:34:40.38	168.66	25.57	-30.1	-30.7	28.2	0.00e+00	0	38	0	1278214144	34	5526
2026-01-08 02:34:44.42	168.86	26.23	-29.8	-30.4	28.3	0.00e+00	0	38	0	1301282816	32	6008
2026-01-08 02:34:48.46	169.06	26.91	-29.9	-30.5	28.1	0.00e+00	0	38	0	1323302912	32	6071
2026-01-08 02:34:52.49	169.28	27.60	-30.0	-30.7	28.1	0.00e+00	0	38	0	1346371584	32	6194
2026-01-08 02:34:56.53	169.51	28.31	-29.7	-30.4	28.3	0.00e+00	0	38	0	1369440256	32	5965
2026-01-08 02:35:00.58	169.74	29.03	-29.6	-30.2	28.4	0.00e+00	0	38	0	1391460352	32	5876
2026-01-08 02:35:04.62	169.99	29.78	-29.7	-30.4	28.3	0.00e+00	0	38	0	1414529024	32	5981
2026-01-08 02:35:08.66	170.25	30.55	-29.7	-30.3	28.4	0.00e+00	0	38	0	1437597696	32	5941
2026-01-08 02:35:12.69	170.51	31.33	-29.2	-29.8	28.6	0.00e+00	0	37	0	1459617792	32	5616
2026-01-08 02:35:16.74	170.80	32.14	-29.4	-30.0	28.6	0.00e+00	0	38	0	1482686464	32	5725
2026-01-08 02:35:20.78	171.09	32.97	-29.6	-30.2	28.5	0.00e+00	0	38	0	1505755136	32	5863
2026-01-08 02:35:24.82	171.40	33.82	-29.1	-29.7	28.8	0.00e+00	0	38	0	1527775232	32	5550
2026-01-08 02:35:28.86	171.73	34.69	-28.8	-29.5	28.9	0.00e+00	0	38	0	1550843904	30	6035
2026-01-08 02:35:32.86	172.07	35.58	-29.3	-29.9	28.6	0.00e+00	0	38	0	1573912576	30	6352
2026-01-08 02:35:36.90	172.43	36.51	-29.3	-29.9	28.7	0.00e+00	0	38	0	1595932672	30	6368
2026-01-08 02:35:40.94	172.81	37.45	-28.8	-29.3	29.1	0.00e+00	0	38	0	1619001344	30	5960
2026-01-08 02:35:44.98	173.21	38.43	-29.1	-29.7	28.9	0.00e+00	0	38	0	1642070016	30	6183
2026-01-08 02:35:49.02	173.64	39.43	-29.3	-29.9	28.7	0.00e+00	0	38	0	1665138688	30	6361
2026-01-08 02:35:53.06	174.10	40.46	-29.3	-29.9	28.7	0.00e+00	0	38	0	1687158784	30	6355
2026-01-08 02:35:57.10	174.58	41.52	-29.4	-30.0	28.6	0.00e+00	0	38	0	1710227456	30	6457
2026-01-08 02:36:01.13	175.10	42.61	-29.4	-30.0	28.6	0.00e+00	0	38	0	1732247552	30	6461
2026-01-08 02:36:05.17	175.65	43.72	-29.8	-30.4	28.4	0.00e+00	0	38	0	1755316224	32	5988
2026-01-08 02:36:09.21	176.24	44.87	-29.7	-30.4	28.4	0.00e+00	0	38	0	1778384896	32	5976
2026-01-08 02:36:13.25	176.88	46.05	-29.5	-30.2	28.5	0.00e+00	0	38	0	1800404992	32	5838
2026-01-08 02:36:17.29	177.56	47.26	-29.8	-30.4	28.3	0.00e+00	0	38	0	1823473664	32	5997
2026-01-08 02:36:21.33	178.30	48.50	-29.4	-30.0	28.6	0.00e+00	0	38	0	1846542336	32	5696
2026-01-08 02:36:25.37	179.10	49.77	-30.1	-30.7	28.1	0.00e+00	0	38	0	1869611008	32	6211
2026-01-08 02:36:29.40	179.97	51.07	-30.2	-30.8	28.1	0.00e+00	0	38	0	1891631104	32	6282
2026-01-08 02:36:33.44	180.92	52.40	-30.4	-31.1	27.8	0.00e+00	0	38	0	1914699776	32	6508
2026-01-08 02:36:37.48	181.95	53.76	-30.4	-31.0	27.9	0.00e+00	0	38	0	1936719872	34	5751
2026-01-08 02:36:41.52	183.09	55.15	-30.8	-31.4	27.6	0.00e+00	0	38	0	1959788544	34	6011
2026-01-08 02:36:45.56	184.34	56.56	-30.6	-31.2	27.8	0.00e+00	0	38	0	1982857216	34	5880
2026-01-08 02:36:49.60	185.73	57.99	-30.0	-30.5	28.2	0.00e+00	0	38	0	2004877312	34	5439
2026-01-08 02:36:53.63	187.27	59.44	-30.0	-30.6	28.0	0.00e+00	0	38	0	2027945984	32	6168
2026-01-08 02:36:57.67	188.99	60.91	-29.5	-30.1	28.6	0.00e+00	0	38	0	2051014656	32	5811
2026-01-08 02:37:01.72	190.94	62.38	-29.5	-30.1	28.6	0.00e+00	0	38	0	2073034752	32	5787
2026-01-08 02:37:05.75	193.11	63.85	-28.7	-29.3	29.1	0.00e+00	0	38	0	2096103424	30	5919
2026-01-08 02:37:09.79	195.59	65.32	-29.2	-29.9	28.8	0.00e+00	0	38	0	2119172096	30	6334
2026-01-08 02:37:13.83	198.41	66.76	-29.1	-29.7	28.8	0.00e+00	0	38	0	2141192192	30	6199
2026-01-08 02:37:17.87	201.63	68.18	-28.8	-29.4	29.1	0.00e+00	0	38	0	2164260864	30	5988
2026-01-08 02:37:21.91	205.33	69.54	-28.5	-29.0	29.3	0.00e+00	0	38	0	2187329536	30	5735
2026-01-08 02:37:25.95	209.58	70.83	-28.7	-29.3	29.2	0.00e+00	0	38	0	2209349632	30	5914
2026-01-08 02:37:29.99	214.46	72.02	-27.9	-28.6	29.6	0.00e+00	0	38	0	2232418304	30	5440
2026-01-08 02:37:34.03	220.02	73.09	-28.2	-28.8	29.5	0.00e+00	0	38	0	2255486976	30	5602
2026-01-08 02:37:38.07	226.31	73.99	-28.2	-28.8	29.4	0.00e+00	0	38	0	2278555648	30	5595
2026-01-08 02:37:42.11	233.28	74.69	-27.9	-28.6	29.6	0.00e+00	0	38	0	2300575744	30	5449
2026-01-08 02:37:46.15	240.83	75.16	-27.9	-28.5	29.6	0.00e+00	0	38	0	2323644416	28	6074
2026-01-08 02:37:50.19	248.74	75.37	-27.8	-28.4	29.6	0.00e+00	0	38	0	2345664512	28	5982
2026-01-08 02:37:54.23	256.73	75.30	-27.8	-28.4	29.6	0.00e+00	0	38	0	2368733184	28	6025
2026-01-08 02:37:58.27	264.50	74.97	-27.7	-28.3	29.4	0.00e+00	0	38	0	2391801856	28	5958
2026-01-08 02:38:02.30	271.78	74.39	-28.1	-28.7	29.4	0.00e+00	0	38	0	2413821952	28	6219
2026-01-08 02:38:06.34	278.43	73.59	-27.8	-28.5	29.6	0.00e+00	0	38	0	2436890624	28	6055
2026-01-08 02:38:10.38	284.38	72.61	-28.1	-28.7	29.4	0.00e+00	0	38	0	2459959296	28	6230
2026-01-08 02:38:14.42	289.61	71.48	-28.4	-29.0	29.2	0.00e+00	0	38	0	2483027968	28	6409
2026-01-08 02:38:18.45	294.17	70.25	-28.6	-29.2	29.0	0.00e+00	0	38	0	2505048064	30	5894
2026-01-08 02:38:22.48	298.14	68.92	-28.5	-29.0	29.2	0.00e+00	0	38	0	2528116736	30	5760
2026-01-08 02:38:26.52	301.61	67.54	-29.2	-29.8	28.7	0.00e+00	0	38	0	2550136832	30	6304
2026-01-08 02:38:30.56	304.64	66.11	-28.8	-29.4	28.8	0.00e+00	0	38	0	2573205504	30	5997
2026-01-08 02:38:34.60	307.29	64.66	-29.0	-29.5	28.9	0.00e+00	0	38	0	2596274176	30	6083
2026-01-08 02:38:38.64	309.62	63.19	-28.8	-29.5	28.9	0.00e+00	0	38	0	2618294272	30	6049
2026-01-08 02:38:42.68	311.69	61.72	-29.4	-30.0	28.5	0.00e+00	0	38	0	2641362944	30	6392
2026-01-08 02:38:46.72	313.52	60.25	-30.0	-30.7	28.2	0.00e+00	0	38	0	2664431616	32	6180
2026-01-08 02:38:50.75	315.15	58.80	-29.9	-30.6	28.1	0.00e+00	0	38	0	2686451712	32	6151
2026-01-08 02:38:54.79	316.62	57.36	-30.3	-30.8	27.9	0.00e+00	0	38	0	2709520384	32	6311
2026-01-08 02:38:58.83	317.95	55.94	-30.4	-31.1	27.7	0.00e+00	0	38	0	2732589056	32	6515
2026-01-08 02:39:02.87	319.14	54.54	-30.8	-31.5	27.4	0.00e+00	0	38	0	2754609152	34	6089
2026-01-08 02:39:06.91	320.23	53.17	-30.2	-30.9	27.8	0.00e+00	0	38	0	2777677824	34	5690
2026-01-08 02:39:10.95	321.23	51.83	-30.1	-30.6	28.0	0.00e+00	0	38	0	2800746496	34	5478
2026-01-08 02:39:14.99	322.14	50.52	-29.9	-30.5	28.2	0.00e+00	0	38	0	2822766592	34	5412
2026-01-08 02:39:19.02	322.97	49.24	-29.5	-30.0	28.6	0.00e+00	0	38	0	2845835264	32	5727
2026-01-08 02:39:23.06	323.74	47.98	-29.4	-30.0	28.5	0.00e+00	0	38	0	2868903936	32	5704
2026-01-08 02:39:27.10	324.45	46.76	-29.4	-29.9	28.6	0.00e+00	0	38	0	2890924032	32	5656
2026-01-08 02:39:31.14	325.12	45.57	-29.6	-30.2	28.4	0.00e+00	0	38	0	2913992704	32	5847
2026-01-08 02:39:35.18	325.73	44.41	-30.0	-30.5	28.2	0.00e+00	0	38	0	2937061376	32	6081
2026-01-08 02:39:39.21	326.30	43.28	-29.6	-30.2	28.4	0.00e+00	0	38	0	2959081472	32	5853
2026-01-08 02:39:43.25	326.84	42.18	-29.1	-29.7	28.7	0.00e+00	0	38	0	2982150144	32	5532
2026-01-08 02:39:47.29	327.34	41.11	-28.8	-29.5	29.0	0.00e+00	0	38	0	3005218816	32	5421
2026-01-08 02:39:51.33	327.82	40.07	-28.9	-29.4	28.9	0.00e+00	0	38	0	3027238912	30	5994
2026-01-08 02:39:55.37	328.26	39.05	-29.0	-29.7	28.9	0.00e+00	0	38	0	3050307584	30	6186
2026-01-08 02:39:59.41	328.68	38.06	-29.4	-30.2	28.5	0.00e+00	0	38	0	3073376256	30	6551
2026-01-08 02:40:03.45	329.07	37.10	-29.2	-29.7	28.7	0.00e+00	0	38	0	3095396352	30	6211
2026-01-08 02:40:07.49	329.45	36.17	-29.3	-30.0	28.7	0.00e+00	0	38	0	3118465024	30	6406
2026-01-08 02:40:11.53	329.80	35.26	-29.1	-29.7	28.8	0.00e+00	0	38	0	3141533696	30	6180
2026-01-08 02:40:15.57	330.14	34.38	-29.1	-29.8	28.8	0.00e+00	0	38	0	3163553792	30	6270
2026-01-08 02:40:19.61	330.46	33.52	-29.2	-29.9	28.7	0.00e+00	0	38	0	3186622464	30	6325
2026-01-08 02:40:23.65	330.76	32.68	-29.6	-30.3	28.5	0.00e+00	0	38	0	3209691136	30	6655
2026-01-08 02:40:27.69	331.05	31.86	-29.7	-30.2	28.3	0.00e+00	0	38	0	3231711232	32	5886
2026-01-08 02:40:31.73	331.33	31.07	-29.6	-30.1	28.3	0.00e+00	0	38	0	3254779904	32	5826
2026-01-08 02:40:35.77	331.59	30.29	-29.4	-29.9	28.5	0.00e+00	0	38	0	3277848576	32	5662
2026-01-08 02:40:39.80	331.84	29.54	-29.5	-30.0	28.5	0.00e+00	0	38	0	3299868672	32	5723
2026-01-08 02:40:43.84	332.09	28.81	-29.4	-29.9	28.5	0.00e+00	0	38	0	3322937344	32	5692
2026-01-08 02:40:47.88	332.32	28.09	-29.4	-29.9	28.5	0.00e+00	0	38	0	3346006016	32	5681
2026-01-08 02:40:51.92	332.54	27.39	-29.4	-30.0	28.4	0.00e+00	0	38	0	3368026112	32	5729
2026-01-08 02:40:55.96	332.76	26.71	-29.7	-30.3	28.2	0.00e+00	0	38	0	3391094784	32	5929
2026-01-08 02:40:59.99	332.96	26.05	-30.0	-30.7	27.9	0.00e+00	0	38	0	3414163456	32	6240
2026-01-08 02:41:04.03	333.16	25.40	-30.2	-30.8	27.9	0.00e+00	0	38	0	3436183552	32	6255
2026-01-08 02:41:08.07	333.35	24.76	-30.3	-31.1	27.7	0.00e+00	0	38	0	3459252224	32	6465
2026-01-08 02:41:12.11	333.54	24.14	-30.3	-31.0	27.8	0.00e+00	0	38	0	3482320896	32	6413
2026-01-08 02:41:16.15	333.71	23.54	-30.3	-30.8	27.8	0.00e+00	0	38	0	3504340992	32	6296
2026-01-08 02:41:20.19	333.89	22.94	-30.2	-30.8	27.8	0.00e+00	0	38	0	3527409664	32	6256
2026-01-08 02:41:24.22	334.05	22.37	-30.2	-30.9	27.8	0.00e+00	0	38	0	3550478336	32	6379
2026-01-08 02:41:28.26	334.21	21.80	-30.3	-30.9	27.7	0.00e+00	0	38	0	3572498432	32	6335
2026-01-08 02:41:32.31	334.37	21.25	-30.6	-31.2	27.4	0.00e+00	0	38	0	3595567104	32	6582
2026-01-08 02:41:36.35	334.52	20.70	-30.7	-31.4	27.5	0.00e+00	0	38	0	3618635776	34	6012
2026-01-08 02:41:40.39	334.67	20.17	-30.9	-31.5	27.1	0.00e+00	0	38	0	3640655872	34	6076
2026-01-08 02:41:44.42	334.81	19.66	-31.1	-31.7	26.7	0.00e+00	0	38	0	3663724544	34	6207
2026-01-08 02:41:48.46	334.95	19.15	-31.3	-32.0	26.6	0.00e+00	0	38	0	3685744640	34	6423
2026-01-08 02:41:52.50	335.08	18.65	-31.3	-31.9	26.3	0.00e+00	0	38	0	3708813312	34	6378
2026-01-08 02:41:56.54	335.21	18.16	-31.5	-32.1	26.4	0.00e+00	0	38	0	3731881984	34	6474
2026-01-08 02:42:00.57	335.34	17.68	-31.6	-32.2	26.6	0.00e+00	0	38	0	3754950656	34	6559
2026-01-08 02:42:04.61	335.46	17.21	-31.5	-32.1	26.5	0.00e+00	0	38	0	3776970752	34	6509
2026-01-08 02:42:08.65	335.58	16.75	-31.6	-32.3	26.6	0.00e+00	0	38	0	3800039424	36	5962
2026-01-08 02:42:12.69	335.70	16.29	-32.0	-32.5	26.2	0.00e+00	0	38	0	3823108096	36	6087
2026-01-08 02:42:16.72	335.81	15.85	-31.8	-32.5	26.1	0.00e+00	0	38	0	3845128192	36	6061
2026-01-08 02:42:20.76	335.93	15.41	-32.0	-32.7	26.3	0.00e+00	0	38	0	3868196864	36	6182
2026-01-08 02:42:24.80	336.03	14.98	-32.3	-33.0	26.0	0.00e+00	0	38	0	3890216960	36	6414
2026-01-08 02:42:28.84	336.14	14.56	-32.4	-33.1	25.9	0.00e+00	0	38	0	3913285632	36	6493
2026-01-08 02:42:32.87	336.24	14.15	-32.4	-33.1	25.7	0.00e+00	0	38	0	3936354304	36	6529
2026-01-08 02:42:36.91	336.35	13.74	-32.7	-33.5	25.6	0.00e+00	0	38	0	3958374400	36	6771
2026-01-08 02:42:40.95	336.44	13.34	-32.7	-33.5	25.5	0.00e+00	0	38	0	3981443072	38	6058
2026-01-08 02:42:44.99	336.54	12.94	-32.9	-33.7	25.2	0.00e+00	0	38	0	4004511744	38	6186
2026-01-08 02:42:49.02	336.64	12.55	-33.1	-33.8	25.1	0.00e+00	0	38	0	4027580416	38	6311
2026-01-08 02:42:53.07	336.73	12.17	-33.3	-34.1	24.8	0.00e+00	0	38	0	4049600512	38	6530
2026-01-08 02:42:57.11	336.82	11.79	-33.3	-33.9	24.8	0.00e+00	0	38	0	4072669184	38	6384
2026-01-08 02:43:01.15	336.91	11.42	-33.5	-34.1	24.7	0.00e+00	0	38	0	4094689280	38	6536
2026-01-08 02:43:05.19	337.00	11.06	-33.5	-34.3	24.6	0.00e+00	0	38	0	4117757952	38	6658
2026-01-08 02:43:09.22	337.08	10.70	-33.5	-34.2	24.6	0.00e+00	0	38	0	4140826624	38	6579
2026-01-08 02:43:13.26	337.17	10.34	-33.5	-34.2	24.6	0.00e+00	0	38	0	4162846720	40	5861
2026-01-08 02:43:17.30	337.25	9.99	-33.8	-34.4	24.3	0.00e+00	0	38	0	4185915392	40	6016
2026-01-08 02:43:21.33	337.33	9.65	-33.7	-34.4	24.3	0.00e+00	0	38	0	4208984064	40	5980
2026-01-08 02:43:25.37	337.41	9.31	-34.0	-34.8	24.1	0.00e+00	0	38	0	4231004160	40	6310
2026-01-08 02:43:29.41	337.49	8.97	-34.1	-34.9	24.0	0.00e+00	0	38	0	4254072832	40	6330
2026-01-08 02:43:33.45	337.56	8.64	-34.0	-34.7	24.0	0.00e+00	0	38	0	4277141504	40	6211
2026-01-08 02:43:37.48	337.64	8.32	-34.0	-34.7	23.9	0.00e+00	0	38	0	4299161600	40	6195
2026-01-08 02:43:41.52	337.71	7.99	-34.3	-35.0	23.7	0.00e+00	0	38	0	4322230272	40	6413
2026-01-08 02:43:45.56	337.79	7.67	-34.2	-34.9	23.8	0.00e+00	0	38	0	4345298944	40	6349
2026-01-08 02:43:49.60	337.86	7.36	-34.3	-35.1	23.7	0.00e+00	0	38	0	4367319040	40	6495
2026-01-08 02:43:53.64	337.93	7.05	-34.6	-35.3	23.2	0.00e+00	0	38	0	4390387712	40	6673
2026-01-08 02:43:57.68	338.00	6.74	-34.6	-35.3	23.3	0.00e+00	0	38	0	4413456384	40	6641
2026-01-08 02:44:01.72	338.07	6.44	-34.6	-35.3	23.3	0.00e+00	0	38	0	4435476480	40	6621
2026-01-08 02:44:05.75	338.13	6.14	-34.6	-35.3	23.2	0.00e+00	0	38	0	4458545152	40	6622
2026-01-08 02:44:09.79	338.20	5.84	-34.9	-35.7	22.9	0.00e+00	0	38	0	4481613824	42	6206
2026-01-08 02:44:13.83	338.27	5.55	-35.4	-36.1	21.9	0.00e+00	0	38	0	4503633920	42	6522
2026-01-08 02:44:17.87	338.33	5.26	-36.5	-37.4	20.4	0.00e+00	0	38	0	4526702592	44	6763
2026-01-08 02:44:21.90	338.39	4.97	-37.9	-39.1	18.1	0.00e+00	0	38	0	4549771264	48	6515
2026-01-08 02:44:25.94	338.46	4.69	-39.9	-41.7	14.5	0.00e+00	0	38	0	4571791360	52	6937
2026-01-08 02:44:29.98	338.52	4.40	-41.8	-44.7	10.8	2.84e-03	0	38	0	4594860032	56	7843
2026-01-08 02:44:34.02	338.58	4.13	-43.1	-48.0	6.2	2.70e-01	0	38	0	4617928704	58	10199
2026-01-08 02:44:38.06	338.64	3.85	-43.6	-52.6	3.7	8.36e-01	0	38	104	4624220160	58	17353
2026-01-08 02:44:42.10	338.70	3.58	-43.8	-54.8	3.6	8.45e-01	0	38	104	4624220160	60	19901
2026-01-08 02:44:46.13	338.76	3.31	-44.0	-56.0	3.6	8.45e-01	0	38	104	4624220160	60	22814
2026-01-08 02:44:50.17	338.82	3.04	-43.8	-55.8	3.6	8.45e-01	0	38	104	4624220160	60	22306
2026-01-08 02:44:54.21	338.87	2.78	-48.7	-60.9	3.6	8.46e-01	0	38	104	4624220160	60	39896
2026-01-08 02:44:58.24	338.93	2.52	-49.0	-61.0	3.6	8.46e-01	0	38	104	4624220160	60	40785
2026-01-08 02:45:02.28	338.99	2.26	-48.7	-60.9	3.6	8.46e-01	0	38	104	4624220160	60	39919
2026-01-08 02:45:06.32	339.04	2.00	-49.0	-61.2	3.6	8.45e-01	0	38	104	4624220160	60	41357
2026-01-08 02:45:10.36	339.10	1.74	-49.0	-61.1	3.6	8.45e-01	0	38	104	4624220160	60	40847
2026-01-08 02:45:14.40	339.15	1.49	-49.0	-61.0	3.6	8.45e-01	0	38	104	4624220160	60	40595
2026-01-08 02:45:18.44	339.20	1.24	-48.9	-61.0	3.6	8.45e-01	0	38	104	4624220160	60	40677
2026-01-08 02:45:22.48	339.26	0.99	-48.9	-61.0	3.6	8.46e-01	0	38	104	4624220160	60	40684
2026-01-08 02:45:26.52	339.31	0.74	-48.9	-61.0	3.6	8.46e-01	0	38	104	4624220160	60	40673
2026-01-08 02:45:30.55	339.36	0.50	-48.9	-61.0	3.6	8.45e-01	0	38	104	4624220160	60	40633
2026-01-08 02:45:34.60	339.41	0.26	-48.9	-61.0	3.6	8.44e-01	0	38	104	4624220160	60	40639
2026-01-08 02:45:38.63	339.46	0.02	-48.9	-61.0	3.6	8.45e-01	0	38	104	4624220160	60	40668

#Closed at: 2026-01-08 02:45:40
#Recorded file [4624 MB]: D:/lorett/data/35029_260108_143009.dat