passes_logs/2026/01/08/R4.6S_Anadyr/R4.6S_Anadyr__20260108_191047_AQUA_rec.log

#Pass ID: 20260108_191047_AQUA
#Satellite: AQUA
#Configuration: AQUA
#almurnet v.1.7.20251203
#Start time: 2026-01-08 19:10:49

#Version: 2.2.20231116
#Station: R4.6S_Anadyr
#Location: 177.4865 lon 64.73178 lat
#TLE: 1 27424U 02022A   26004.96787593  .00001598  00000+0  32997-3 0  9996
#TLE: 2 27424  98.4069 331.2279 0002002  90.2377   0.6092 14.61798176259425

#Time	Az	El	Level	Level2	SNR	BER	BlckErr	Temp	State	Recorded	gain1	gain2
2026-01-08 19:10:49.60	28.46	0.12	-48.4	-63.3	3.5	1.51e+00	0	29	0	0	60	52617
2026-01-08 19:10:52.63	28.23	0.28	-48.8	-66.7	3.5	3.02e+01	0	31	104	0	60	82994
2026-01-08 19:10:55.66	28.01	0.44	-48.9	-66.7	3.5	3.02e+01	0	31	104	0	60	83430
2026-01-08 19:10:58.69	27.77	0.60	-48.7	-66.6	3.5	3.02e+01	0	31	104	0	60	82200
2026-01-08 19:11:01.72	27.54	0.76	-48.4	-66.3	3.5	3.02e+01	0	31	104	0	60	79162
2026-01-08 19:11:04.75	27.30	0.92	-47.8	-65.7	3.5	3.02e+01	0	31	104	0	60	74196
2026-01-08 19:11:07.77	27.06	1.08	-47.2	-65.1	3.5	3.02e+01	0	31	104	0	60	69212
2026-01-08 19:11:10.80	26.82	1.25	-47.2	-65.1	3.5	3.02e+01	0	31	104	0	60	68851
2026-01-08 19:11:13.83	26.57	1.41	-47.2	-65.0	3.5	3.02e+01	0	31	104	0	60	68796
2026-01-08 19:11:16.86	26.32	1.57	-47.2	-65.0	3.5	3.02e+01	0	31	104	0	60	68454
2026-01-08 19:11:19.88	26.07	1.74	-47.2	-65.0	3.5	3.02e+01	0	31	104	0	60	68807
2026-01-08 19:11:22.91	25.82	1.90	-47.1	-65.0	3.5	3.02e+01	0	31	104	0	60	68625
2026-01-08 19:11:25.94	25.56	2.07	-47.2	-65.1	3.5	3.02e+01	0	31	104	0	60	68979
2026-01-08 19:11:28.97	25.29	2.23	-47.1	-64.9	3.5	3.02e+01	0	31	104	0	60	67806
2026-01-08 19:11:32.00	25.03	2.40	-47.1	-64.7	3.5	3.02e+01	0	31	104	0	60	66414
2026-01-08 19:11:35.03	24.76	2.57	-47.1	-65.0	3.5	3.02e+01	0	31	104	0	60	68773
2026-01-08 19:11:38.06	24.49	2.74	-47.1	-64.9	3.5	3.02e+01	0	31	104	0	60	67879
2026-01-08 19:11:41.09	24.21	2.90	-47.0	-64.1	3.5	3.02e+01	0	31	104	0	60	61595
2026-01-08 19:11:44.12	23.93	3.07	-46.8	-63.2	3.5	3.02e+01	0	31	104	0	60	55570
2026-01-08 19:11:47.14	23.65	3.24	-44.1	-56.4	3.5	3.02e+01	0	31	104	0	60	25292
2026-01-08 19:11:50.17	23.36	3.41	-47.0	-64.7	3.5	3.02e+01	0	31	104	0	60	65837
2026-01-08 19:11:53.19	23.07	3.58	-39.7	-50.5	3.5	3.02e+01	0	31	104	0	54	18156
2026-01-08 19:11:56.22	22.77	3.75	-38.2	-48.7	3.5	3.02e+01	0	31	104	0	52	16570
2026-01-08 19:11:59.24	22.47	3.92	-47.2	-64.2	3.5	3.02e+01	0	31	104	0	60	62456
2026-01-08 19:12:02.27	22.17	4.10	-43.9	-55.9	3.5	3.02e+01	0	31	104	0	60	23872
2026-01-08 19:12:05.30	21.86	4.27	-41.4	-52.4	3.5	3.02e+01	0	31	104	0	58	18065
2026-01-08 19:12:08.32	21.55	4.44	-47.3	-65.0	3.5	3.02e+01	0	31	104	0	60	68235
2026-01-08 19:12:11.35	21.24	4.62	-38.7	-49.3	3.5	3.02e+01	0	31	104	0	52	17869
2026-01-08 19:12:14.38	20.92	4.79	-37.5	-47.9	3.6	3.02e+01	0	31	104	0	50	16903
2026-01-08 19:12:17.40	20.60	4.96	-45.2	-58.0	3.6	3.02e+01	0	31	104	0	60	30742
2026-01-08 19:12:20.43	20.27	5.14	-38.4	-48.9	3.5	3.02e+01	0	31	104	0	52	16900
2026-01-08 19:12:23.46	19.93	5.31	-37.5	-47.8	3.6	3.02e+01	0	31	104	0	50	16884
2026-01-08 19:12:26.48	19.60	5.49	-47.4	-64.8	3.5	3.02e+01	0	31	104	0	60	67066
2026-01-08 19:12:29.51	19.25	5.67	-41.6	-52.6	3.5	3.02e+01	0	31	104	0	58	18445
2026-01-08 19:12:32.54	18.91	5.84	-40.3	-51.0	3.5	3.02e+01	0	31	104	0	56	17156
2026-01-08 19:12:35.57	18.56	6.02	-42.1	-53.3	3.6	3.02e+01	0	31	104	0	60	17823
2026-01-08 19:12:38.60	18.20	6.20	-41.2	-52.1	3.5	3.02e+01	0	31	104	0	56	19421
2026-01-08 19:12:41.62	17.84	6.37	-43.2	-54.8	3.5	3.02e+01	0	31	104	0	56	26695
2026-01-08 19:12:44.65	17.47	6.55	-47.3	-63.4	3.5	3.02e+01	0	31	104	0	60	56926
2026-01-08 19:12:47.67	17.10	6.73	-36.9	-47.2	3.4	3.02e+01	0	31	104	0	50	15670
2026-01-08 19:12:50.70	16.73	6.91	-37.8	-48.2	3.5	3.02e+01	0	31	104	0	48	19738
2026-01-08 19:12:53.73	16.34	7.09	-43.5	-55.1	3.5	3.02e+01	0	32	104	0	60	21950
2026-01-08 19:12:56.75	15.96	7.27	-43.9	-55.7	3.5	3.02e+01	0	31	104	0	60	23441
2026-01-08 19:12:59.78	15.57	7.44	-46.9	-61.6	3.5	3.02e+01	0	31	104	0	60	46401
2026-01-08 19:13:02.81	15.17	7.62	-36.5	-46.8	3.5	3.02e+01	0	31	104	0	46	18936
2026-01-08 19:13:05.83	14.77	7.80	-36.9	-47.3	3.5	3.02e+01	0	31	104	0	48	17699
2026-01-08 19:13:08.86	14.36	7.98	-44.8	-57.1	3.5	3.02e+01	0	32	104	0	60	27539
2026-01-08 19:13:11.88	13.94	8.16	-40.0	-50.6	3.5	3.02e+01	0	32	104	0	56	16442
2026-01-08 19:13:14.91	13.52	8.34	-37.5	-47.9	3.5	3.02e+01	0	32	104	0	50	16901
2026-01-08 19:13:17.94	13.10	8.52	-46.6	-61.0	3.5	3.02e+01	0	32	104	0	60	43035
2026-01-08 19:13:20.97	12.66	8.70	-48.0	-65.7	3.5	3.02e+01	0	32	104	0	60	74522
2026-01-08 19:13:23.99	12.23	8.88	-41.1	-52.0	3.5	3.02e+01	0	32	104	0	56	19372
2026-01-08 19:13:27.02	11.78	9.06	-40.0	-50.6	3.5	3.02e+01	0	31	104	0	56	16461
2026-01-08 19:13:30.04	11.34	9.24	-39.4	-50.0	3.5	3.02e+01	0	32	104	0	54	17241
2026-01-08 19:13:33.07	10.88	9.42	-37.3	-47.6	3.5	3.02e+01	0	32	104	0	50	16453
2026-01-08 19:13:36.10	10.42	9.60	-47.9	-65.1	3.5	3.02e+01	0	31	104	0	60	69200
2026-01-08 19:13:39.13	9.95	9.78	-47.2	-62.1	3.5	3.02e+01	0	32	104	0	60	49273
2026-01-08 19:13:42.15	9.47	9.96	-36.2	-46.5	3.5	3.02e+01	0	31	104	0	48	16222
2026-01-08 19:13:45.18	8.99	10.14	-36.2	-46.5	3.5	3.02e+01	0	32	104	0	46	18182
2026-01-08 19:13:48.21	8.50	10.31	-47.7	-63.7	3.5	3.02e+01	0	32	104	0	60	59236
2026-01-08 19:13:51.24	8.01	10.49	-40.2	-50.8	3.5	3.02e+01	0	32	104	0	54	18928
2026-01-08 19:13:54.27	7.51	10.67	-43.2	-54.5	3.5	3.02e+01	0	32	104	0	60	20356
2026-01-08 19:13:57.29	7.00	10.84	-36.4	-46.7	3.5	3.02e+01	0	32	104	0	48	16581
2026-01-08 19:14:00.32	6.49	11.02	-37.0	-47.3	3.5	3.02e+01	0	31	104	0	48	17842
2026-01-08 19:14:03.35	5.97	11.19	-46.4	-60.0	3.5	3.02e+01	0	32	104	0	60	38474
2026-01-08 19:14:06.38	5.44	11.37	-39.8	-50.4	3.4	3.02e+01	0	32	104	0	60	12752
2026-01-08 19:14:09.40	4.90	11.54	-36.6	-46.9	3.5	3.02e+01	0	32	104	0	48	17003
2026-01-08 19:14:12.43	4.36	11.71	-37.3	-47.6	3.5	3.02e+01	0	32	104	0	46	20723
2026-01-08 19:14:15.45	3.81	11.88	-39.5	-50.1	3.5	3.02e+01	0	32	104	0	50	21868
2026-01-08 19:14:18.48	3.26	12.05	-41.5	-52.3	3.5	3.02e+01	0	32	104	0	58	17867
2026-01-08 19:14:21.51	2.69	12.22	-48.2	-66.0	3.5	3.02e+01	0	32	104	0	60	76369
2026-01-08 19:14:24.54	2.12	12.39	-39.1	-49.5	3.4	3.02e+01	0	32	104	0	46	25830
2026-01-08 19:14:27.56	1.55	12.55	-36.2	-46.4	3.5	3.02e+01	0	32	104	0	46	17989
2026-01-08 19:14:30.59	0.96	12.72	-36.2	-46.4	3.5	3.02e+01	0	32	104	0	46	17942
2026-01-08 19:14:33.62	0.37	12.88	-46.7	-60.5	3.4	3.02e+01	0	32	104	0	56	51114
2026-01-08 19:14:36.64	359.78	13.04	-35.5	-45.8	3.6	3.02e+01	0	32	104	0	46	16740
2026-01-08 19:14:39.67	359.17	13.20	-37.8	-48.2	3.5	3.02e+01	0	32	104	0	52	15668
2026-01-08 19:14:42.70	358.56	13.36	-39.5	-50.0	3.5	3.02e+01	0	32	104	0	54	17287
2026-01-08 19:14:45.73	357.94	13.51	-40.9	-51.6	3.5	3.02e+01	0	32	104	0	56	18379
2026-01-08 19:14:48.75	357.31	13.66	-41.3	-52.0	3.4	3.02e+01	0	32	104	0	54	21742
2026-01-08 19:14:51.78	356.68	13.81	-48.1	-65.3	3.5	3.02e+01	0	32	104	0	60	70755
2026-01-08 19:14:54.81	356.04	13.96	-36.5	-46.8	3.5	3.02e+01	0	32	104	0	48	16802
2026-01-08 19:14:57.84	355.39	14.11	-38.3	-48.6	3.5	3.02e+01	0	32	104	0	52	16440
2026-01-08 19:15:00.87	354.73	14.25	-40.0	-50.6	3.4	3.02e+01	0	32	104	0	52	20632
2026-01-08 19:15:03.90	354.07	14.39	-35.4	-45.6	3.5	3.02e+01	0	32	104	0	46	16491
2026-01-08 19:15:06.92	353.41	14.53	-37.8	-48.1	3.5	3.02e+01	0	32	104	0	50	17457
2026-01-08 19:15:09.95	352.73	14.67	-44.6	-56.4	3.5	3.02e+01	0	32	104	0	60	25554
2026-01-08 19:15:12.98	352.05	14.80	-37.5	-47.9	3.5	3.02e+01	0	32	104	0	50	16916
2026-01-08 19:15:16.01	351.36	14.93	-45.7	-58.4	3.5	3.02e+01	0	32	104	0	60	31938
2026-01-08 19:15:19.03	350.67	15.05	-48.1	-65.2	3.5	3.02e+01	0	32	104	0	60	70411
2026-01-08 19:15:22.06	349.97	15.18	-35.6	-45.8	3.5	3.02e+01	0	32	104	0	46	16837
2026-01-08 19:15:25.09	349.26	15.30	-37.3	-47.6	3.3	3.02e+01	0	32	104	0	52	14645
2026-01-08 19:15:28.11	348.55	15.41	-43.1	-54.5	3.5	3.02e+01	0	32	104	0	58	22866
2026-01-08 19:15:31.15	347.83	15.52	-37.4	-47.7	3.5	3.02e+01	0	32	104	0	50	16580
2026-01-08 19:15:34.17	347.11	15.63	-37.2	-47.5	3.5	3.02e+01	0	32	104	0	50	16180
2026-01-08 19:15:37.20	346.38	15.73	-45.7	-58.3	3.5	3.02e+01	0	32	104	0	60	31730
2026-01-08 19:15:40.23	345.64	15.83	-37.7	-48.0	3.5	3.02e+01	0	32	104	0	50	17236
2026-01-08 19:15:43.25	344.90	15.93	-37.0	-47.2	3.5	3.02e+01	0	32	104	0	50	15763
2026-01-08 19:15:46.28	344.15	16.02	-45.0	-57.3	3.5	3.02e+01	0	32	104	0	60	28119
2026-01-08 19:15:49.30	343.41	16.11	-36.2	-46.5	3.5	3.02e+01	0	32	104	0	48	16214
2026-01-08 19:15:52.33	342.65	16.19	-35.6	-45.8	3.5	3.02e+01	0	32	104	0	48	14972
2026-01-08 19:15:55.36	341.89	16.27	-44.5	-56.5	3.5	3.02e+01	0	32	104	0	60	25869
2026-01-08 19:15:58.39	341.13	16.34	-36.3	-46.5	3.6	3.02e+01	0	32	104	0	48	16161
2026-01-08 19:16:01.42	340.36	16.41	-35.3	-36.6	28.1	3.02e+01	0	32	0	524288	44	6532
2026-01-08 19:16:04.44	339.59	16.48	-42.1	-44.2	22.0	3.02e+01	0	32	0	3670016	60	6242
2026-01-08 19:16:07.47	338.81	16.54	-36.3	-37.6	27.8	3.02e+01	0	32	0	9437184	48	5804
2026-01-08 19:16:10.49	338.04	16.59	-35.9	-37.2	27.9	3.02e+01	0	32	0	15204352	46	6261
2026-01-08 19:16:13.52	337.26	16.64	-36.1	-37.4	27.8	3.02e+01	0	32	0	20971520	46	6351
2026-01-08 19:16:16.55	336.47	16.68	-35.8	-37.0	28.4	3.02e+01	0	32	0	26214400	46	6119
2026-01-08 19:16:19.58	335.69	16.72	-35.3	-36.5	28.7	3.02e+01	0	32	0	31981568	46	5759
2026-01-08 19:16:22.60	334.90	16.76	-35.0	-36.2	29.1	3.02e+01	0	32	0	37748736	44	6227
2026-01-08 19:16:25.63	334.11	16.78	-35.1	-36.3	28.9	3.02e+01	0	32	0	43515904	44	6344
2026-01-08 19:16:28.66	333.32	16.81	-34.9	-36.2	29.0	3.02e+01	0	32	0	49283072	44	6214
2026-01-08 19:16:31.69	332.53	16.83	-35.2	-36.4	28.8	3.02e+01	0	32	0	54525952	44	6392
2026-01-08 19:16:34.71	331.74	16.84	-35.1	-36.3	28.8	3.02e+01	0	32	0	60293120	44	6346
2026-01-08 19:16:37.74	330.94	16.85	-35.0	-36.2	28.9	3.02e+01	0	32	0	66060288	44	6266
2026-01-08 19:16:40.76	330.15	16.85	-35.1	-36.3	28.9	3.02e+01	0	32	0	71827456	44	6335
2026-01-08 19:16:43.79	329.36	16.84	-35.0	-36.3	28.9	3.02e+01	0	32	0	77594624	44	6289
2026-01-08 19:16:46.82	328.56	16.84	-35.2	-36.5	28.8	3.02e+01	0	32	0	83361792	44	6425
2026-01-08 19:16:49.85	327.77	16.82	-35.4	-36.6	28.7	3.02e+01	0	32	0	88604672	44	6561
2026-01-08 19:16:52.88	326.98	16.80	-35.1	-36.3	28.8	3.02e+01	0	32	0	94371840	44	6323
2026-01-08 19:16:55.90	326.19	16.78	-35.2	-36.5	28.7	3.02e+01	0	32	0	100139008	44	6454
2026-01-08 19:16:58.93	325.40	16.75	-35.0	-36.3	28.9	3.02e+01	0	32	0	105906176	44	6301
2026-01-08 19:17:01.95	324.61	16.71	-35.2	-36.5	28.7	3.02e+01	0	32	0	111673344	44	6450
2026-01-08 19:17:04.98	323.83	16.67	-34.8	-36.0	29.1	3.02e+01	0	32	0	117440512	44	6116
2026-01-08 19:17:08.01	323.04	16.63	-34.6	-35.8	29.3	3.02e+01	0	32	0	122683392	44	5959
2026-01-08 19:17:11.03	322.26	16.58	-34.9	-36.1	29.0	3.02e+01	0	32	0	128450560	44	6164
2026-01-08 19:17:14.06	321.48	16.52	-35.1	-36.3	28.9	3.02e+01	0	32	0	134217728	44	6298
2026-01-08 19:17:17.09	320.71	16.46	-36.0	-37.3	28.0	3.02e+01	0	32	0	139984896	46	6338
2026-01-08 19:17:20.12	319.94	16.40	-36.5	-37.8	27.6	3.02e+01	0	32	0	145752064	46	6661
2026-01-08 19:17:23.15	319.17	16.33	-35.2	-36.4	28.8	3.02e+01	0	32	0	150994944	46	5677
2026-01-08 19:17:26.18	318.41	16.25	-36.0	-37.3	28.2	3.02e+01	0	32	0	156762112	46	6288
2026-01-08 19:17:29.20	317.65	16.17	-35.2	-36.4	28.8	3.02e+01	0	32	0	162529280	46	5674
2026-01-08 19:17:32.23	316.89	16.09	-34.9	-36.1	28.9	3.02e+01	0	32	0	168296448	44	6174
2026-01-08 19:17:35.25	316.14	16.00	-35.9	-37.2	28.2	3.02e+01	0	32	0	174063616	46	6242
2026-01-08 19:17:38.27	315.40	15.91	-34.8	-36.0	29.1	3.02e+01	0	32	0	179830784	44	6067
2026-01-08 19:17:41.30	314.66	15.81	-36.1	-37.4	27.7	3.02e+01	0	32	0	185073664	46	6416
2026-01-08 19:17:44.33	313.92	15.71	-34.6	-35.8	29.3	3.02e+01	0	32	0	190840832	44	5965
2026-01-08 19:17:47.36	313.19	15.61	-36.3	-37.7	27.7	3.02e+01	0	32	0	196608000	46	6577
2026-01-08 19:17:50.39	312.47	15.50	-34.4	-35.6	29.3	3.02e+01	0	32	0	202375168	44	5820
2026-01-08 19:17:53.41	311.75	15.39	-35.0	-36.2	28.9	3.02e+01	0	32	0	208142336	44	6256
2026-01-08 19:17:56.44	311.04	15.27	-35.9	-37.2	27.5	3.02e+01	0	32	0	213909504	46	6246
2026-01-08 19:17:59.47	310.33	15.15	-35.1	-36.3	28.7	3.02e+01	0	32	0	219152384	44	6306
2026-01-08 19:18:02.49	309.63	15.03	-36.1	-37.4	27.9	3.02e+01	0	32	0	224919552	46	6367
2026-01-08 19:18:05.52	308.94	14.90	-36.1	-37.4	27.7	3.02e+01	0	32	0	230686720	46	6411
2026-01-08 19:18:08.55	308.25	14.77	-35.4	-36.6	28.6	3.02e+01	0	32	0	236453888	46	5852
2026-01-08 19:18:11.58	307.57	14.64	-35.0	-36.1	28.9	3.02e+01	0	32	0	242221056	44	6203
2026-01-08 19:18:14.61	306.89	14.50	-35.5	-36.8	28.5	3.02e+01	0	32	0	247463936	44	6674
2026-01-08 19:18:17.63	306.23	14.36	-36.1	-37.4	28.0	3.02e+01	0	32	0	253231104	46	6371
2026-01-08 19:18:20.66	305.57	14.22	-35.2	-36.5	28.7	3.02e+01	0	32	0	258998272	44	6465
2026-01-08 19:18:23.69	304.91	14.08	-35.1	-36.3	28.8	3.02e+01	0	32	0	264765440	44	6320
2026-01-08 19:18:26.72	304.26	13.93	-35.0	-36.2	28.9	3.02e+01	0	32	0	270532608	44	6249
2026-01-08 19:18:29.74	303.62	13.78	-35.7	-36.9	28.2	3.02e+01	0	32	0	276299776	44	6787
2026-01-08 19:18:32.77	302.99	13.63	-35.3	-36.6	28.6	3.02e+01	0	32	0	282066944	46	5808
2026-01-08 19:18:35.80	302.36	13.47	-35.4	-36.7	28.5	3.02e+01	0	32	0	287309824	46	5901
2026-01-08 19:18:38.83	301.74	13.32	-35.4	-36.7	28.2	3.02e+01	0	32	0	293076992	46	5885
2026-01-08 19:18:41.86	301.13	13.16	-34.9	-36.1	28.9	3.02e+01	0	32	0	298844160	46	5492
2026-01-08 19:18:44.89	300.52	13.00	-34.8	-36.0	29.0	3.02e+01	0	32	0	304611328	44	6081
2026-01-08 19:18:47.91	299.93	12.84	-35.0	-36.2	28.9	3.02e+01	0	32	0	310378496	46	5590
2026-01-08 19:18:50.94	299.33	12.68	-35.1	-36.3	28.8	3.02e+01	0	32	0	315621376	46	5609
2026-01-08 19:18:53.97	298.75	12.51	-35.5	-36.8	28.4	3.02e+01	0	32	0	321388544	46	5960
2026-01-08 19:18:57.00	298.17	12.34	-35.2	-36.5	28.6	3.02e+01	0	32	0	327155712	44	6444
2026-01-08 19:19:00.03	297.60	12.18	-35.5	-36.7	28.5	3.02e+01	0	32	0	332922880	44	6608
2026-01-08 19:19:03.06	297.04	12.01	-35.5	-36.8	28.4	3.02e+01	0	32	0	338690048	44	6674
2026-01-08 19:19:06.08	296.48	11.84	-35.4	-36.6	28.5	3.02e+01	0	32	0	344457216	46	5844
2026-01-08 19:19:09.11	295.93	11.67	-35.4	-36.7	28.5	3.02e+01	0	32	0	349700096	46	5861
2026-01-08 19:19:12.14	295.39	11.49	-35.4	-36.6	28.4	3.02e+01	0	32	0	355467264	46	5847
2026-01-08 19:19:15.17	294.86	11.32	-35.7	-37.0	28.1	3.02e+01	0	32	0	361234432	46	6098
2026-01-08 19:19:18.19	294.33	11.15	-35.6	-36.9	28.3	3.02e+01	0	32	0	367001600	46	6008
2026-01-08 19:19:21.22	293.81	10.97	-35.6	-36.9	28.3	3.02e+01	0	32	0	372768768	46	6008
2026-01-08 19:19:24.25	293.29	10.80	-35.4	-36.7	28.4	3.02e+01	0	32	0	378535936	46	5875
2026-01-08 19:19:27.27	292.79	10.62	-35.7	-37.0	28.1	3.02e+01	0	32	0	383778816	46	6094
2026-01-08 19:19:30.30	292.28	10.44	-35.7	-37.0	28.1	3.02e+01	0	32	0	389545984	46	6088
2026-01-08 19:19:33.33	291.79	10.26	-35.8	-37.1	27.9	3.02e+01	0	32	0	395313152	46	6205
2026-01-08 19:19:36.35	291.30	10.09	-35.5	-36.7	28.3	3.02e+01	0	32	0	401080320	46	5896
2026-01-08 19:19:39.38	290.82	9.91	-35.8	-37.1	28.0	3.02e+01	0	32	0	406847488	46	6153
2026-01-08 19:19:42.41	290.35	9.73	-35.9	-37.2	27.9	3.02e+01	0	32	0	412090368	46	6245
2026-01-08 19:19:45.43	289.88	9.55	-35.9	-37.2	27.8	3.02e+01	0	32	0	417857536	46	6247
2026-01-08 19:19:48.46	289.41	9.37	-35.9	-37.2	27.8	3.02e+01	0	32	0	423624704	46	6234
2026-01-08 19:19:51.48	288.96	9.19	-35.9	-37.2	27.9	3.02e+01	0	32	0	429391872	46	6248
2026-01-08 19:19:54.50	288.51	9.01	-36.0	-37.2	27.7	3.02e+01	0	32	0	435159040	46	6275
2026-01-08 19:19:57.53	288.07	8.83	-36.1	-37.4	27.6	3.02e+01	0	32	0	440926208	46	6387
2026-01-08 19:20:00.56	287.63	8.65	-36.2	-37.5	27.5	3.02e+01	0	32	0	446169088	46	6452
2026-01-08 19:20:03.58	287.20	8.47	-36.1	-37.4	27.5	3.02e+01	0	32	0	451936256	46	6383
2026-01-08 19:20:06.61	286.77	8.29	-36.1	-37.4	27.6	3.02e+01	0	32	0	457703424	46	6380
2026-01-08 19:20:09.64	286.35	8.11	-36.4	-37.7	27.2	3.02e+01	0	32	0	463470592	46	6603
2026-01-08 19:20:12.67	285.93	7.93	-36.2	-37.5	27.4	3.02e+01	0	32	0	469237760	46	6494
2026-01-08 19:20:15.70	285.52	7.75	-36.3	-37.6	27.3	3.02e+01	0	32	0	475004928	46	6553
2026-01-08 19:20:18.72	285.12	7.57	-36.4	-37.8	27.1	3.02e+01	0	32	0	480247808	46	6681
2026-01-08 19:20:21.75	284.72	7.39	-36.5	-37.8	27.1	3.02e+01	0	33	0	486014976	46	6699
2026-01-08 19:20:24.78	284.33	7.21	-36.5	-37.9	27.0	3.02e+01	0	33	0	491782144	46	6756
2026-01-08 19:20:27.80	283.94	7.03	-36.5	-37.9	27.0	3.02e+01	0	32	0	497549312	46	6739
2026-01-08 19:20:30.83	283.56	6.85	-36.6	-37.9	26.9	3.02e+01	0	32	0	503316480	46	6801
2026-01-08 19:20:33.86	283.18	6.67	-36.7	-38.1	26.7	3.02e+01	0	32	0	508559360	46	6927
2026-01-08 19:20:36.89	282.81	6.49	-36.8	-38.2	26.6	3.02e+01	0	32	0	514326528	46	7004
2026-01-08 19:20:39.92	282.44	6.32	-36.9	-38.3	26.5	3.02e+01	0	32	0	520093696	48	6287
2026-01-08 19:20:42.95	282.08	6.14	-36.8	-38.2	26.6	3.02e+01	0	32	0	525860864	48	6229
2026-01-08 19:20:45.97	281.73	5.96	-37.0	-38.4	26.3	3.02e+01	0	32	0	531628032	48	6395
2026-01-08 19:20:49.00	281.37	5.78	-36.8	-38.2	26.5	3.02e+01	0	32	0	537395200	48	6221
2026-01-08 19:20:52.03	281.03	5.61	-36.9	-38.2	26.4	3.02e+01	0	32	0	542638080	48	6276
2026-01-08 19:20:55.06	280.68	5.43	-37.0	-38.4	26.2	3.02e+01	0	33	0	548405248	48	6413
2026-01-08 19:20:58.08	280.35	5.26	-37.2	-38.6	26.0	3.02e+01	0	32	0	554172416	48	6543
2026-01-08 19:21:01.11	280.01	5.08	-37.2	-38.6	26.0	3.02e+01	0	32	0	559939584	48	6534
2026-01-08 19:21:04.13	279.68	4.90	-37.0	-38.4	26.1	3.02e+01	0	33	0	565706752	48	6401
2026-01-08 19:21:07.16	279.36	4.73	-37.1	-38.6	26.1	3.02e+01	0	32	0	570949632	48	6506
2026-01-08 19:21:10.19	279.04	4.56	-37.3	-38.8	25.8	3.02e+01	0	32	0	576716800	48	6653
2026-01-08 19:21:13.22	278.72	4.38	-37.4	-38.8	25.6	3.02e+01	0	32	0	582483968	48	6717
2026-01-08 19:21:16.24	278.41	4.21	-37.3	-38.7	25.7	3.02e+01	0	32	0	588251136	48	6646
2026-01-08 19:21:19.27	278.10	4.04	-37.3	-38.8	25.6	3.02e+01	0	32	0	594018304	48	6669
2026-01-08 19:21:22.30	277.80	3.86	-37.6	-39.1	25.4	3.02e+01	0	32	0	599785472	48	6920
2026-01-08 19:21:25.33	277.50	3.69	-37.6	-39.1	25.2	3.02e+01	0	33	0	605552640	48	6951
2026-01-08 19:21:28.35	277.20	3.52	-37.8	-39.3	25.0	3.02e+01	0	33	0	610795520	48	7125
2026-01-08 19:21:31.37	276.91	3.35	-37.9	-39.5	24.9	3.02e+01	0	32	0	616562688	50	6448
2026-01-08 19:21:34.40	276.62	3.18	-37.7	-39.2	25.0	3.02e+01	0	33	0	622329856	50	6246
2026-01-08 19:21:37.43	276.34	3.01	-43.5	-47.0	3.9	3.02e+01	23	32	0	628097024	50	15348
2026-01-08 19:21:40.46	276.06	2.84	-48.4	-66.3	3.5	3.02e+01	0	33	104	628097024	60	79399
2026-01-08 19:21:43.48	275.78	2.67	-48.6	-66.5	3.5	3.02e+01	0	33	104	628097024	60	81059
2026-01-08 19:21:46.51	275.51	2.51	-48.6	-66.5	3.5	3.02e+01	0	33	104	628097024	60	81334
2026-01-08 19:21:49.54	275.24	2.34	-48.5	-66.4	3.5	3.02e+01	0	33	104	628097024	60	80284
2026-01-08 19:21:52.57	274.97	2.17	-48.5	-66.3	3.5	3.02e+01	0	33	104	628097024	60	79841
2026-01-08 19:21:55.60	274.71	2.01	-48.5	-66.4	3.5	3.02e+01	0	33	104	628097024	60	80499
2026-01-08 19:21:58.63	274.45	1.84	-48.5	-66.4	3.5	3.02e+01	0	33	104	628097024	60	80186
2026-01-08 19:22:01.65	274.19	1.68	-48.5	-66.3	3.5	3.02e+01	0	33	104	628097024	60	79830
2026-01-08 19:22:04.68	273.94	1.51	-48.5	-66.3	3.5	3.02e+01	0	33	104	628097024	60	79692
2026-01-08 19:22:07.71	273.68	1.35	-48.5	-66.4	3.5	3.02e+01	0	33	104	628097024	60	80018
2026-01-08 19:22:10.74	273.44	1.18	-48.4	-66.3	3.5	3.02e+01	0	33	104	628097024	60	79612
2026-01-08 19:22:13.77	273.19	1.02	-48.4	-66.3	3.5	3.02e+01	0	33	104	628097024	60	79230
2026-01-08 19:22:16.80	272.95	0.86	-48.5	-66.3	3.5	3.02e+01	0	33	104	628097024	60	79607
2026-01-08 19:22:19.83	272.71	0.69	-48.4	-66.3	3.5	3.02e+01	0	33	104	628097024	60	79746
2026-01-08 19:22:22.86	272.48	0.53	-48.4	-66.3	3.5	3.02e+01	0	33	104	628097024	60	79486
2026-01-08 19:22:25.88	272.25	0.37	-48.4	-66.3	3.5	3.02e+01	0	33	104	628097024	60	79249
2026-01-08 19:22:28.91	272.02	0.21	-48.4	-66.3	3.5	3.02e+01	0	33	104	628097024	60	79626
2026-01-08 19:22:31.94	271.79	0.05	-48.4	-66.2	3.5	3.02e+01	0	33	104	628097024	60	78903

#Closed at: 2026-01-08 19:22:34
#Recorded file [628 MB]: D:/lorett/data/35029_260109_071049.dat