passes_logs/2026/01/08/R4.6S_Anadyr/R4.6S_Anadyr__20260108_141827_AQUA_rec.log

#Pass ID: 20260108_141827_AQUA
#Satellite: AQUA
#Configuration: AQUA
#almurnet v.1.7.20251203
#Start time: 2026-01-08 14:18:30

#Version: 2.2.20231116
#Station: R4.6S_Anadyr
#Location: 177.4865 lon 64.73178 lat
#TLE: 1 27424U 02022A   26004.96787593  .00001598  00000+0  32997-3 0  9996
#TLE: 2 27424  98.4069 331.2279 0002002  90.2377   0.6092 14.61798176259425

#Time	Az	El	Level	Level2	SNR	BER	BlckErr	Temp	State	Recorded	gain1	gain2
2026-01-08 14:18:30.32	21.25	0.16	-48.8	-65.2	3.3	3.02e+01	0	31	0	0	60	70074
2026-01-08 14:18:33.35	21.49	0.31	-48.7	-66.8	3.5	3.02e+01	0	31	104	0	60	84058
2026-01-08 14:18:36.38	21.73	0.47	-48.6	-66.6	3.5	3.02e+01	0	31	104	0	60	82239
2026-01-08 14:18:39.41	21.98	0.63	-48.4	-66.3	3.5	3.02e+01	0	31	104	0	60	79565
2026-01-08 14:18:42.44	22.22	0.79	-47.6	-65.4	3.5	3.02e+01	0	31	104	0	60	72007
2026-01-08 14:18:45.46	22.47	0.94	-47.2	-65.0	3.5	3.02e+01	0	31	104	0	60	68630
2026-01-08 14:18:48.49	22.72	1.10	-47.2	-65.1	3.5	3.02e+01	0	31	104	0	60	69468
2026-01-08 14:18:51.52	22.98	1.26	-47.2	-64.9	3.5	3.02e+01	0	31	104	0	60	67826
2026-01-08 14:18:54.55	23.24	1.42	-47.2	-64.9	3.5	3.02e+01	0	31	104	0	60	67539
2026-01-08 14:18:57.57	23.50	1.58	-47.2	-65.0	3.5	3.02e+01	0	32	104	0	60	68622
2026-01-08 14:19:00.60	23.76	1.74	-47.2	-65.0	3.5	3.02e+01	0	31	104	0	60	68737
2026-01-08 14:19:03.63	24.03	1.91	-47.2	-64.7	3.5	3.02e+01	0	31	104	0	60	66182
2026-01-08 14:19:06.66	24.30	2.07	-47.2	-65.0	3.5	3.02e+01	0	31	104	0	60	68765
2026-01-08 14:19:09.69	24.57	2.23	-47.2	-65.1	3.5	3.02e+01	0	32	104	0	60	69079
2026-01-08 14:19:12.71	24.84	2.39	-47.1	-64.4	3.5	3.02e+01	0	32	104	0	60	64068
2026-01-08 14:19:15.74	25.12	2.56	-46.6	-62.3	3.5	3.02e+01	0	32	104	0	60	50129
2026-01-08 14:19:18.77	25.41	2.72	-41.2	-52.1	4.0	3.02e+01	0	31	104	0	58	17351
2026-01-08 14:19:21.80	25.69	2.89	-39.2	-49.7	4.0	3.02e+01	0	32	104	0	52	18662
2026-01-08 14:19:24.83	25.98	3.05	-43.5	-55.4	3.6	3.02e+01	0	32	104	0	60	22673
2026-01-08 14:19:27.85	26.27	3.22	-43.6	-55.6	3.5	3.02e+01	0	32	104	0	60	23253
2026-01-08 14:19:30.88	26.57	3.39	-43.6	-55.5	3.5	3.02e+01	0	32	104	0	60	23048
2026-01-08 14:19:33.91	26.87	3.55	-42.8	-54.3	3.5	3.02e+01	0	32	104	0	60	19897
2026-01-08 14:19:36.94	27.17	3.72	-47.0	-64.5	3.5	3.02e+01	0	32	104	0	60	64269
2026-01-08 14:19:39.96	27.47	3.89	-40.2	-51.1	3.5	3.02e+01	0	32	104	0	56	17399
2026-01-08 14:19:42.99	27.78	4.06	-38.3	-48.8	3.5	3.02e+01	0	32	104	0	52	16707
2026-01-08 14:19:46.01	28.10	4.23	-47.1	-64.8	3.5	3.02e+01	0	32	104	0	60	66794
2026-01-08 14:19:49.04	28.42	4.40	-38.5	-49.0	3.5	3.02e+01	0	32	104	0	52	17265
2026-01-08 14:19:52.07	28.74	4.57	-38.1	-48.6	3.5	3.02e+01	0	32	104	0	52	16348
2026-01-08 14:19:55.09	29.06	4.74	-47.3	-64.4	3.5	3.02e+01	0	32	104	0	60	64107
2026-01-08 14:19:58.12	29.39	4.91	-40.3	-51.0	3.5	3.02e+01	0	32	104	0	56	17197
2026-01-08 14:20:01.14	29.72	5.08	-41.4	-52.3	3.5	3.02e+01	0	32	104	0	56	20017
2026-01-08 14:20:04.17	30.06	5.25	-47.4	-64.6	3.5	3.02e+01	0	32	104	0	60	65433
2026-01-08 14:20:07.20	30.40	5.43	-40.4	-51.2	3.5	3.02e+01	0	32	104	0	56	17512
2026-01-08 14:20:10.23	30.75	5.60	-39.3	-49.9	3.5	3.02e+01	0	32	104	0	54	17002
2026-01-08 14:20:13.25	31.10	5.77	-47.5	-64.9	3.5	3.02e+01	0	32	104	0	60	67482
2026-01-08 14:20:16.28	31.45	5.95	-38.4	-48.8	3.5	3.02e+01	0	32	104	0	52	16817
2026-01-08 14:20:19.31	31.81	6.12	-37.7	-48.1	3.5	3.02e+01	0	32	104	0	50	17451
2026-01-08 14:20:22.34	32.18	6.30	-47.6	-65.0	3.5	3.02e+01	0	32	104	0	60	68430
2026-01-08 14:20:25.36	32.55	6.47	-40.3	-50.9	3.5	3.02e+01	0	32	104	0	56	17059
2026-01-08 14:20:28.39	32.92	6.65	-42.9	-54.3	3.5	3.02e+01	0	32	104	0	58	22378
2026-01-08 14:20:31.41	33.30	6.83	-47.7	-65.2	3.5	3.02e+01	0	32	104	0	60	69859
2026-01-08 14:20:34.44	33.68	7.00	-41.2	-52.0	3.5	3.02e+01	0	32	104	0	56	19293
2026-01-08 14:20:37.47	34.07	7.18	-42.3	-53.7	3.5	3.02e+01	0	32	104	0	56	23348
2026-01-08 14:20:40.49	34.46	7.36	-47.6	-64.8	3.5	3.02e+01	0	32	104	0	60	66934
2026-01-08 14:20:43.52	34.86	7.54	-38.2	-48.6	3.5	3.02e+01	0	32	104	0	50	18365
2026-01-08 14:20:46.55	35.26	7.72	-37.6	-48.0	3.5	3.02e+01	0	32	104	0	50	17102
2026-01-08 14:20:49.58	35.67	7.89	-47.5	-64.7	3.5	3.02e+01	0	32	104	0	60	66419
2026-01-08 14:20:52.60	36.08	8.07	-40.6	-51.4	3.5	3.02e+01	0	32	104	0	56	17922
2026-01-08 14:20:55.63	36.50	8.25	-38.5	-49.0	3.5	3.02e+01	0	32	104	0	52	17132
2026-01-08 14:20:58.66	36.92	8.43	-40.7	-51.5	3.5	3.02e+01	0	32	104	0	60	14478
2026-01-08 14:21:01.69	37.35	8.61	-37.4	-47.9	3.5	3.02e+01	0	32	104	0	50	17043
2026-01-08 14:21:04.71	37.79	8.79	-45.2	-57.9	3.5	3.02e+01	0	32	104	0	58	34101
2026-01-08 14:21:07.74	38.23	8.97	-45.2	-58.1	3.5	3.02e+01	0	32	104	0	60	30944
2026-01-08 14:21:10.77	38.67	9.15	-37.2	-47.5	3.5	3.02e+01	0	32	104	0	50	16189
2026-01-08 14:21:13.80	39.13	9.33	-38.2	-48.6	3.5	3.02e+01	0	32	104	0	48	20674
2026-01-08 14:21:16.82	39.58	9.51	-46.3	-60.6	3.5	3.02e+01	0	32	104	0	60	41343
2026-01-08 14:21:19.85	40.05	9.69	-41.2	-52.0	3.5	3.02e+01	0	32	104	0	56	19325
2026-01-08 14:21:22.88	40.52	9.87	-37.6	-48.0	3.6	3.02e+01	0	32	104	0	52	15352
2026-01-08 14:21:25.90	40.99	10.05	-37.5	-47.8	3.5	3.02e+01	0	32	104	0	50	16843
2026-01-08 14:21:28.93	41.48	10.22	-36.8	-47.1	3.5	3.02e+01	0	32	104	0	48	17354
2026-01-08 14:21:31.96	41.96	10.40	-47.1	-62.0	3.5	3.02e+01	0	32	104	0	60	48557
2026-01-08 14:21:34.99	42.46	10.58	-45.6	-58.4	3.5	3.02e+01	0	32	104	0	60	32126
2026-01-08 14:21:38.01	42.96	10.76	-37.1	-47.3	3.5	3.02e+01	0	32	104	0	50	15939
2026-01-08 14:21:41.04	43.47	10.94	-37.7	-48.2	3.6	3.02e+01	0	32	104	0	48	19645
2026-01-08 14:21:44.06	43.98	11.12	-46.5	-60.4	3.5	3.02e+01	0	32	104	0	60	40467
2026-01-08 14:21:47.09	44.50	11.29	-41.4	-52.3	3.5	3.02e+01	0	32	104	0	56	19894
2026-01-08 14:21:50.11	45.03	11.47	-47.1	-61.8	3.5	3.02e+01	0	32	104	0	60	47456
2026-01-08 14:21:53.14	45.56	11.64	-38.5	-48.9	3.5	3.02e+01	0	32	104	0	52	17081
2026-01-08 14:21:56.17	46.10	11.82	-38.5	-48.9	3.5	3.02e+01	0	32	104	0	52	17004
2026-01-08 14:21:59.20	46.65	11.99	-47.9	-64.8	3.5	3.02e+01	0	32	104	0	60	67101
2026-01-08 14:22:02.22	47.20	12.17	-45.0	-57.4	3.5	3.02e+01	0	32	104	0	60	28514
2026-01-08 14:22:05.25	47.76	12.34	-37.0	-47.3	3.6	3.02e+01	0	32	104	0	48	17840
2026-01-08 14:22:08.28	48.33	12.51	-39.6	-50.2	3.6	3.02e+01	0	32	104	0	54	17501
2026-01-08 14:22:11.31	48.91	12.68	-43.2	-54.7	3.6	3.02e+01	0	32	104	0	60	20977
2026-01-08 14:22:14.33	49.49	12.85	-41.5	-52.2	3.5	3.02e+01	0	32	104	0	56	19850
2026-01-08 14:22:17.36	50.08	13.02	-37.1	-47.3	3.6	3.02e+01	0	32	104	0	46	20046
2026-01-08 14:22:20.39	50.67	13.18	-38.3	-48.5	3.5	3.02e+01	0	32	104	0	52	16320
2026-01-08 14:22:23.42	51.28	13.35	-37.4	-47.6	3.5	3.02e+01	0	32	104	0	50	16486
2026-01-08 14:22:26.44	51.89	13.51	-45.5	-58.2	3.6	3.02e+01	0	32	104	0	60	31234
2026-01-08 14:22:29.47	52.50	13.67	-36.3	-46.5	3.2	3.02e+01	0	32	104	0	52	12927
2026-01-08 14:22:32.50	53.13	13.83	-35.8	-46.0	3.6	3.02e+01	0	32	104	0	46	17155
2026-01-08 14:22:35.52	53.76	13.99	-36.4	-46.7	3.5	3.02e+01	0	32	104	0	48	16599
2026-01-08 14:22:38.55	54.40	14.15	-36.7	-47.0	3.6	3.02e+01	0	32	104	0	52	13731
2026-01-08 14:22:41.58	55.04	14.30	-41.1	-51.9	3.5	3.02e+01	0	32	104	0	56	19101
2026-01-08 14:22:44.61	55.70	14.45	-47.4	-62.3	3.5	3.02e+01	0	32	104	0	60	50369
2026-01-08 14:22:47.63	56.35	14.60	-41.3	-52.2	3.5	3.02e+01	0	32	104	0	52	24956
2026-01-08 14:22:50.66	57.02	14.75	-36.3	-46.5	3.5	3.02e+01	0	32	104	0	48	16317
2026-01-08 14:22:53.68	57.69	14.89	-38.2	-48.7	3.5	3.02e+01	0	32	104	0	54	14823
2026-01-08 14:22:56.71	58.37	15.04	-37.3	-47.7	3.5	3.02e+01	0	32	104	0	46	20888
2026-01-08 14:22:59.74	59.06	15.18	-35.4	-45.7	3.5	3.02e+01	0	32	104	0	46	16636
2026-01-08 14:23:02.77	59.75	15.31	-36.6	-47.0	3.5	3.02e+01	0	32	104	0	48	17105
2026-01-08 14:23:05.80	60.45	15.45	-42.3	-53.4	3.5	3.02e+01	0	32	104	0	52	28652
2026-01-08 14:23:08.82	61.16	15.58	-40.1	-51.3	3.5	3.02e+01	0	32	104	0	56	17897
2026-01-08 14:23:11.85	61.87	15.70	-44.1	-60.4	3.5	3.02e+01	0	32	104	0	60	40236
2026-01-08 14:23:14.88	62.59	15.83	-46.2	-65.6	3.5	3.02e+01	0	32	104	0	60	73734
2026-01-08 14:23:17.91	63.32	15.95	-38.0	-48.3	3.5	3.02e+01	0	32	104	0	50	17860
2026-01-08 14:23:20.94	64.05	16.07	-36.0	-46.3	3.5	3.02e+01	0	32	104	0	48	15846
2026-01-08 14:23:23.97	64.79	16.18	-46.8	-60.5	3.5	3.02e+01	0	32	104	0	60	40981
2026-01-08 14:23:26.99	65.53	16.29	-37.4	-47.7	3.5	3.02e+01	0	32	104	0	48	18671
2026-01-08 14:23:30.02	66.28	16.40	-35.7	-46.0	3.5	3.02e+01	0	32	104	0	46	17287
2026-01-08 14:23:33.05	67.03	16.50	-45.9	-61.5	3.5	3.02e+01	0	32	104	0	60	45843
2026-01-08 14:23:36.08	67.79	16.60	-37.7	-48.2	3.5	3.02e+01	0	32	104	0	50	17490
2026-01-08 14:23:39.11	68.56	16.69	-35.6	-45.8	3.5	3.02e+01	0	32	104	0	46	16886
2026-01-08 14:23:42.13	69.33	16.78	-47.3	-62.2	3.5	3.02e+01	0	32	104	0	60	49379
2026-01-08 14:23:45.16	70.10	16.87	-37.4	-47.7	3.5	3.02e+01	0	32	104	0	50	16686
2026-01-08 14:23:48.19	70.88	16.95	-35.3	-45.7	3.5	3.02e+01	0	32	104	0	46	16538
2026-01-08 14:23:51.22	71.66	17.02	-45.8	-62.0	3.5	3.02e+01	0	32	104	0	60	48701
2026-01-08 14:23:54.25	72.45	17.09	-36.7	-46.9	3.5	3.02e+01	0	32	104	0	48	16990
2026-01-08 14:23:57.27	73.24	17.16	-35.3	-45.4	3.5	3.02e+01	0	32	104	0	46	16053
2026-01-08 14:24:00.30	74.04	17.22	-46.9	-61.0	3.5	3.02e+01	0	32	104	0	60	43404
2026-01-08 14:24:03.33	74.84	17.28	-37.4	-47.8	3.5	3.02e+01	0	32	104	0	48	18833
2026-01-08 14:24:06.35	75.63	17.33	-35.1	-45.3	3.5	3.02e+01	0	32	104	0	46	15889
2026-01-08 14:24:09.38	76.44	17.38	-46.8	-60.9	3.5	3.02e+01	0	32	104	0	60	42694
2026-01-08 14:24:12.41	77.25	17.42	-35.7	-46.0	3.5	3.02e+01	0	32	104	0	46	17228
2026-01-08 14:24:15.44	78.05	17.46	-35.9	-46.2	3.5	3.02e+01	0	32	104	0	46	17662
2026-01-08 14:24:18.47	78.87	17.49	-45.4	-59.5	3.5	3.02e+01	0	32	104	0	60	36347
2026-01-08 14:24:21.50	79.68	17.51	-34.9	-45.0	3.5	3.02e+01	0	32	104	0	44	17185
2026-01-08 14:24:24.53	80.49	17.53	-36.5	-46.7	3.5	3.02e+01	0	32	104	0	46	18695
2026-01-08 14:24:27.55	81.30	17.55	-44.1	-56.1	3.5	3.02e+01	0	32	104	0	60	24537
2026-01-08 14:24:30.58	82.12	17.56	-37.7	-48.0	3.5	3.02e+01	0	32	104	0	50	17143
2026-01-08 14:24:33.61	82.94	17.56	-37.3	-47.7	3.4	3.02e+01	0	32	104	0	46	20931
2026-01-08 14:24:36.64	83.75	17.56	-43.6	-55.1	3.6	3.02e+01	0	32	104	0	60	21890
2026-01-08 14:24:39.66	84.57	17.56	-36.0	-46.2	3.5	3.02e+01	0	32	104	0	46	17646
2026-01-08 14:24:42.69	85.38	17.55	-41.9	-52.7	3.5	3.02e+01	0	32	104	0	50	29688
2026-01-08 14:24:45.72	86.20	17.53	-39.8	-50.4	3.5	3.02e+01	0	32	104	0	60	12732
2026-01-08 14:24:48.75	87.01	17.51	-36.6	-47.0	3.5	3.02e+01	0	32	104	0	48	17270
2026-01-08 14:24:51.78	87.83	17.48	-43.3	-54.8	3.5	3.02e+01	0	32	104	0	52	33384
2026-01-08 14:24:54.81	88.64	17.45	-38.5	-48.9	3.4	3.02e+01	0	32	104	0	54	15123
2026-01-08 14:24:57.83	89.44	17.41	-36.9	-47.1	3.5	3.02e+01	0	32	104	0	48	17397
2026-01-08 14:25:00.86	90.25	17.37	-47.2	-62.3	3.5	3.02e+01	0	32	104	0	60	50145
2026-01-08 14:25:03.89	91.06	17.32	-38.1	-48.4	3.5	3.02e+01	0	32	104	0	52	16114
2026-01-08 14:25:06.91	91.86	17.27	-35.3	-45.4	3.5	3.02e+01	0	32	104	0	46	16034
2026-01-08 14:25:09.94	92.66	17.21	-48.4	-66.0	3.5	3.02e+01	0	32	104	0	60	76488
2026-01-08 14:25:12.97	93.45	17.14	-41.3	-52.2	3.5	3.02e+01	0	32	104	0	60	15641
2026-01-08 14:25:16.00	94.24	17.08	-41.8	-52.7	3.5	3.02e+01	0	32	104	0	56	20939
2026-01-08 14:25:19.03	95.03	17.00	-46.0	-59.0	3.5	3.02e+01	0	32	104	0	60	34369
2026-01-08 14:25:22.06	95.82	16.93	-37.9	-48.2	3.5	3.02e+01	0	32	104	0	52	15667
2026-01-08 14:25:25.08	96.59	16.84	-35.3	-45.5	3.5	3.02e+01	0	32	104	0	46	16246
2026-01-08 14:25:28.11	97.37	16.76	-48.0	-65.8	3.5	3.02e+01	0	32	104	0	60	74710
2026-01-08 14:25:31.14	98.14	16.67	-36.8	-47.2	3.6	3.02e+01	0	32	104	0	48	17606
2026-01-08 14:25:34.17	98.91	16.57	-35.1	-45.3	3.4	3.02e+01	0	32	104	0	46	15909
2026-01-08 14:25:37.19	99.67	16.47	-47.7	-63.0	3.8	3.02e+01	0	32	104	0	60	54311
2026-01-08 14:25:40.22	100.42	16.37	-39.4	-41.0	24.7	3.02e+01	0	32	0	5242880	54	6122
2026-01-08 14:25:43.25	101.17	16.26	-40.6	-42.4	23.4	3.02e+01	0	32	0	11010048	56	6391
2026-01-08 14:25:46.28	101.92	16.15	-42.0	-44.2	21.5	3.02e+01	0	32	0	16252928	58	6981
2026-01-08 14:25:49.30	102.65	16.04	-43.3	-45.9	20.0	3.02e+01	0	32	0	22020096	60	7612
2026-01-08 14:25:52.33	103.39	15.92	-42.5	-44.9	20.7	3.02e+01	0	32	0	27787264	60	6751
2026-01-08 14:25:55.36	104.11	15.79	-42.6	-44.9	21.2	3.02e+01	0	32	0	33554432	58	7614
2026-01-08 14:25:58.39	104.83	15.67	-42.6	-45.0	21.0	3.02e+01	0	32	0	39321600	60	6845
2026-01-08 14:26:01.42	105.55	15.54	-38.9	-40.4	25.3	3.02e+01	0	32	0	44564480	54	5716
2026-01-08 14:26:04.44	106.25	15.41	-35.9	-37.1	28.1	3.02e+01	0	32	0	50331648	46	6194
2026-01-08 14:26:07.47	106.96	15.27	-35.3	-36.6	28.7	3.02e+01	0	32	0	56098816	46	5815
2026-01-08 14:26:10.50	107.65	15.13	-34.4	-35.6	29.4	3.02e+01	0	32	0	61865984	44	5843
2026-01-08 14:26:13.53	108.34	14.99	-34.2	-35.4	29.6	3.02e+01	0	32	0	67633152	44	5663
2026-01-08 14:26:16.56	109.02	14.85	-34.0	-35.2	29.7	3.02e+01	0	32	0	73400320	44	5573
2026-01-08 14:26:19.58	109.69	14.70	-34.6	-35.8	29.2	3.02e+01	0	32	0	78643200	44	5949
2026-01-08 14:26:22.61	110.36	14.55	-34.3	-35.5	29.4	3.02e+01	0	32	0	84410368	44	5760
2026-01-08 14:26:25.64	111.02	14.40	-34.0	-35.2	29.6	3.02e+01	0	32	0	90177536	44	5537
2026-01-08 14:26:28.67	111.68	14.25	-34.1	-35.3	29.6	3.02e+01	0	32	0	95944704	42	6334
2026-01-08 14:26:31.69	112.32	14.09	-34.1	-35.3	29.5	3.02e+01	0	32	0	101711872	42	6336
2026-01-08 14:26:34.72	112.96	13.93	-34.2	-35.4	29.6	3.02e+01	0	32	0	107479040	42	6372
2026-01-08 14:26:37.75	113.59	13.78	-34.2	-35.4	29.5	3.02e+01	0	32	0	112721920	42	6416
2026-01-08 14:26:40.78	114.22	13.61	-34.2	-35.4	29.5	3.02e+01	0	32	0	118489088	42	6373
2026-01-08 14:26:43.81	114.84	13.45	-34.3	-35.5	29.5	3.02e+01	0	32	0	124256256	42	6433
2026-01-08 14:26:46.84	115.45	13.28	-34.2	-35.4	29.5	3.02e+01	0	32	0	130023424	42	6368
2026-01-08 14:26:49.86	116.05	13.12	-34.2	-35.5	29.5	3.02e+01	0	32	0	135790592	42	6425
2026-01-08 14:26:52.89	116.65	12.95	-34.2	-35.4	29.5	3.02e+01	0	32	0	141557760	42	6411
2026-01-08 14:26:55.92	117.24	12.78	-34.2	-35.4	29.6	3.02e+01	0	32	0	146800640	42	6360
2026-01-08 14:26:58.95	117.82	12.61	-34.3	-35.6	29.4	3.02e+01	0	32	0	152567808	42	6505
2026-01-08 14:27:01.98	118.40	12.44	-34.3	-35.6	29.4	3.02e+01	0	32	0	158334976	42	6503
2026-01-08 14:27:05.00	118.96	12.27	-34.5	-35.7	29.3	3.02e+01	0	32	0	164102144	42	6588
2026-01-08 14:27:08.03	119.53	12.09	-34.6	-35.8	29.2	3.02e+01	0	32	0	169869312	42	6684
2026-01-08 14:27:11.05	120.08	11.92	-34.4	-35.6	29.3	3.02e+01	0	32	0	175636480	42	6570
2026-01-08 14:27:14.08	120.63	11.74	-34.5	-35.7	29.2	3.02e+01	0	32	0	180879360	42	6629
2026-01-08 14:27:17.11	121.17	11.57	-34.5	-35.8	29.2	3.02e+01	0	32	0	186646528	42	6657
2026-01-08 14:27:20.13	121.70	11.39	-34.6	-35.9	29.1	3.02e+01	0	32	0	192413696	42	6735
2026-01-08 14:27:23.16	122.23	11.21	-34.6	-35.9	29.1	3.02e+01	0	32	0	198180864	42	6744
2026-01-08 14:27:26.19	122.75	11.03	-34.6	-35.8	29.0	3.02e+01	0	32	0	203948032	42	6709
2026-01-08 14:27:29.22	123.27	10.85	-34.5	-35.7	29.2	3.02e+01	0	32	0	209190912	42	6639
2026-01-08 14:27:32.25	123.77	10.67	-34.7	-35.9	29.1	3.02e+01	0	32	0	214958080	42	6755
2026-01-08 14:27:35.27	124.27	10.49	-34.7	-35.9	29.0	3.02e+01	0	32	0	220725248	42	6793
2026-01-08 14:27:38.30	124.77	10.31	-34.7	-36.0	29.0	3.02e+01	0	32	0	226492416	42	6818
2026-01-08 14:27:41.33	125.26	10.13	-34.7	-35.9	29.0	3.02e+01	0	32	0	232259584	42	6753
2026-01-08 14:27:44.36	125.74	9.95	-34.8	-36.0	28.9	3.02e+01	0	32	0	238026752	42	6882
2026-01-08 14:27:47.38	126.22	9.77	-35.1	-36.3	28.7	3.02e+01	0	32	0	243269632	44	6319
2026-01-08 14:27:50.41	126.69	9.59	-35.0	-36.2	28.7	3.02e+01	0	32	0	249036800	44	6263
2026-01-08 14:27:53.44	127.15	9.41	-35.1	-36.3	28.5	3.02e+01	0	32	0	254803968	44	6340
2026-01-08 14:27:56.47	127.61	9.23	-34.9	-36.1	28.7	3.02e+01	0	32	0	260571136	44	6202
2026-01-08 14:27:59.50	128.06	9.05	-35.0	-36.3	28.6	3.02e+01	0	32	0	266338304	44	6287
2026-01-08 14:28:02.53	128.51	8.87	-35.0	-36.3	28.6	3.02e+01	0	32	0	272105472	44	6299
2026-01-08 14:28:05.56	128.95	8.68	-35.2	-36.4	28.5	3.02e+01	0	32	0	277348352	44	6401
2026-01-08 14:28:08.58	129.38	8.50	-35.2	-36.4	28.5	3.02e+01	0	32	0	283115520	44	6391
2026-01-08 14:28:11.61	129.81	8.32	-35.2	-36.4	28.4	3.02e+01	0	32	0	288882688	44	6418
2026-01-08 14:28:14.63	130.23	8.14	-35.3	-36.5	28.3	3.02e+01	0	32	0	294649856	44	6486
2026-01-08 14:28:17.66	130.65	7.96	-35.3	-36.6	28.2	3.02e+01	0	32	0	300417024	44	6528
2026-01-08 14:28:20.69	131.07	7.78	-35.3	-36.6	28.3	3.02e+01	0	32	0	306184192	44	6507
2026-01-08 14:28:23.72	131.47	7.60	-35.5	-36.8	28.0	3.02e+01	0	32	0	311427072	44	6678
2026-01-08 14:28:26.75	131.88	7.42	-35.7	-37.0	27.9	3.02e+01	0	32	0	317194240	44	6820
2026-01-08 14:28:29.78	132.27	7.24	-35.6	-36.9	27.9	3.02e+01	0	32	0	322961408	44	6801
2026-01-08 14:28:32.81	132.67	7.06	-35.6	-36.9	27.9	3.02e+01	0	32	0	328728576	44	6754
2026-01-08 14:28:35.83	133.05	6.88	-35.8	-37.1	27.7	3.02e+01	0	32	0	334495744	44	6957
2026-01-08 14:28:38.86	133.43	6.71	-36.0	-37.3	27.5	3.02e+01	0	32	0	340262912	46	6313
2026-01-08 14:28:41.89	133.81	6.53	-35.9	-37.2	27.6	3.02e+01	0	32	0	345505792	46	6236
2026-01-08 14:28:44.91	134.18	6.35	-35.9	-37.2	27.6	3.02e+01	0	32	0	351272960	46	6226
2026-01-08 14:28:47.94	134.55	6.17	-35.8	-37.1	27.7	3.02e+01	0	32	0	357040128	46	6153
2026-01-08 14:28:50.97	134.91	6.00	-36.0	-37.4	27.4	3.02e+01	0	32	0	362807296	46	6354
2026-01-08 14:28:53.99	135.27	5.82	-35.9	-37.2	27.5	3.02e+01	0	32	0	368574464	46	6275
2026-01-08 14:28:57.02	135.63	5.64	-36.1	-37.5	27.2	3.02e+01	0	32	0	373817344	46	6443
2026-01-08 14:29:00.05	135.98	5.47	-36.4	-37.8	26.9	3.02e+01	0	32	0	379584512	46	6670
2026-01-08 14:29:03.08	136.32	5.29	-36.4	-37.8	27.0	3.02e+01	0	32	0	385351680	46	6674
2026-01-08 14:29:06.11	136.66	5.12	-36.4	-37.7	27.0	3.02e+01	0	32	0	391118848	46	6624
2026-01-08 14:29:09.14	137.00	4.95	-36.5	-37.9	26.8	3.02e+01	0	32	0	396886016	46	6739
2026-01-08 14:29:12.17	137.33	4.77	-36.4	-37.7	26.9	3.02e+01	0	32	0	402653184	46	6648
2026-01-08 14:29:15.19	137.66	4.60	-36.5	-37.8	26.7	3.02e+01	0	32	0	408420352	46	6726
2026-01-08 14:29:18.22	137.98	4.43	-36.6	-38.0	26.6	3.02e+01	0	32	0	413663232	46	6857
2026-01-08 14:29:21.25	138.30	4.25	-36.9	-38.3	26.2	3.02e+01	0	32	0	419430400	46	7079
2026-01-08 14:29:24.27	138.62	4.08	-37.4	-38.9	25.6	3.02e+01	0	32	0	425197568	48	6739
2026-01-08 14:29:27.30	138.93	3.91	-38.2	-39.8	24.5	3.02e+01	0	32	0	430964736	50	6710
2026-01-08 14:29:30.33	139.24	3.74	-39.1	-41.0	23.0	3.02e+01	0	32	0	436731904	52	6867
2026-01-08 14:29:33.36	139.55	3.57	-40.2	-42.4	21.4	3.02e+01	0	32	0	441974784	54	7187
2026-01-08 14:29:36.39	139.85	3.40	-41.3	-44.0	19.6	3.02e+01	0	32	0	447741952	56	7698
2026-01-08 14:29:39.42	140.14	3.24	-42.3	-45.8	17.5	3.02e+01	0	32	0	453509120	58	8434
2026-01-08 14:29:42.44	140.44	3.07	-43.2	-47.8	15.4	3.02e+01	0	32	0	459276288	60	9433
2026-01-08 14:29:45.47	140.73	2.90	-47.9	-66.0	3.5	3.02e+01	0	32	104	461373440	60	76924
2026-01-08 14:29:48.50	141.02	2.73	-48.5	-66.6	3.5	3.02e+01	0	32	104	461373440	60	82145
2026-01-08 14:29:51.53	141.30	2.57	-48.8	-66.7	3.5	3.02e+01	0	32	104	461373440	60	83105
2026-01-08 14:29:54.56	141.58	2.40	-48.8	-66.8	3.5	3.02e+01	0	32	104	461373440	60	83934
2026-01-08 14:29:57.59	141.86	2.24	-48.8	-66.7	3.5	3.02e+01	0	32	104	461373440	60	83030
2026-01-08 14:30:00.61	142.13	2.07	-48.7	-66.6	3.5	3.02e+01	0	32	104	461373440	60	82620
2026-01-08 14:30:03.64	142.40	1.91	-48.7	-66.6	3.5	3.02e+01	0	32	104	461373440	60	82370
2026-01-08 14:30:06.67	142.67	1.74	-48.7	-66.6	3.5	3.02e+01	0	32	104	461373440	60	82069
2026-01-08 14:30:09.69	142.93	1.58	-48.7	-66.6	3.5	3.02e+01	0	32	104	461373440	60	82448
2026-01-08 14:30:12.72	143.19	1.42	-48.7	-66.6	3.5	3.02e+01	0	32	104	461373440	60	82241
2026-01-08 14:30:15.75	143.45	1.26	-48.7	-66.6	3.5	3.02e+01	0	32	104	461373440	60	81972
2026-01-08 14:30:18.78	143.71	1.10	-48.7	-66.6	3.5	3.02e+01	0	32	104	461373440	60	81985
2026-01-08 14:30:21.81	143.96	0.94	-48.7	-66.6	3.5	3.02e+01	0	32	104	461373440	60	82404
2026-01-08 14:30:24.84	144.21	0.78	-48.7	-66.6	3.5	3.02e+01	0	32	104	461373440	60	82128
2026-01-08 14:30:27.87	144.46	0.62	-48.7	-66.6	3.5	3.02e+01	0	32	104	461373440	60	82306
2026-01-08 14:30:30.90	144.70	0.46	-48.7	-66.6	3.5	3.02e+01	0	32	104	461373440	60	82250
2026-01-08 14:30:33.93	144.95	0.30	-48.7	-66.6	3.5	3.02e+01	0	32	104	461373440	60	81917
2026-01-08 14:30:36.96	145.19	0.14	-48.7	-66.6	3.5	3.02e+01	0	32	104	461373440	60	81965
2026-01-08 14:30:39.99	145.42	-0.02	-48.7	-66.5	3.5	3.02e+01	0	33	104	461373440	60	81611

#Closed at: 2026-01-08 14:30:40
#Recorded file [461 MB]: D:/lorett/data/35029_260109_021830.dat