passes_logs/2026/01/08/R4.6S_Anadyr/R4.6S_Anadyr__20260108_115459_SUOMI_NPP_rec.log

#Pass ID: 20260108_115459_SUOMI NPP
#Satellite: SUOMI NPP
#Configuration: NPP
#almurnet v.1.7.20251203
#Start time: 2026-01-08 11:55:00

#Version: 2.2.20231116
#Station: R4.6S_Anadyr
#Location: 177.4865 lon 64.73178 lat
#TLE: 1 37849U 11061A   26005.94084933  .00000134  00000+0  84554-4 0  9990
#TLE: 2 37849  98.7803 308.0679 0002567  79.1029 281.0436 14.19522657735426

#Time	Az	El	Level	Level2	SNR	BER	BlckErr	Temp	State	Recorded	gain1	gain2
2026-01-08 11:55:00.68	20.03	0.04	-48.4	-60.9	3.4	1.52e+00	0	32	0	0	60	39147
2026-01-08 11:55:03.70	20.30	0.17	-48.6	-63.8	3.6	1.51e+00	0	33	104	0	60	55673
2026-01-08 11:55:06.72	20.57	0.30	-48.7	-63.9	3.6	1.51e+00	0	34	104	0	60	56613
2026-01-08 11:55:09.75	20.84	0.43	-48.5	-63.7	3.6	1.51e+00	0	34	104	0	60	55391
2026-01-08 11:55:12.78	21.12	0.56	-48.3	-63.4	3.6	1.51e+00	0	34	104	0	60	53716
2026-01-08 11:55:15.81	21.40	0.69	-47.7	-62.8	3.6	1.51e+00	0	34	104	0	60	50047
2026-01-08 11:55:18.84	21.68	0.82	-47.0	-62.1	3.6	1.51e+00	0	34	104	0	60	45880
2026-01-08 11:55:21.87	21.96	0.95	-47.0	-62.1	3.6	1.51e+00	0	34	104	0	60	46081
2026-01-08 11:55:24.90	22.25	1.09	-47.0	-62.1	3.6	1.51e+00	0	34	104	0	60	45896
2026-01-08 11:55:27.93	22.53	1.22	-46.9	-62.1	3.6	1.51e+00	0	34	104	0	60	46155
2026-01-08 11:55:30.95	22.82	1.35	-46.9	-62.1	3.6	1.51e+00	0	34	104	0	60	46115
2026-01-08 11:55:33.98	23.11	1.48	-46.9	-62.1	3.5	1.51e+00	0	34	104	0	60	45899
2026-01-08 11:55:37.00	23.41	1.61	-46.9	-62.1	3.6	1.51e+00	0	34	104	0	60	45823
2026-01-08 11:55:40.03	23.70	1.74	-46.9	-62.0	3.5	1.51e+00	0	34	104	0	60	45717
2026-01-08 11:55:43.06	24.00	1.87	-46.9	-62.1	3.6	1.51e+00	0	34	104	0	60	45860
2026-01-08 11:55:46.09	24.30	2.00	-46.9	-62.1	3.6	1.51e+00	0	34	104	0	60	46021
2026-01-08 11:55:49.12	24.61	2.13	-46.9	-61.9	3.6	1.51e+00	0	34	104	0	60	44960
2026-01-08 11:55:52.15	24.92	2.26	-46.9	-62.0	3.6	1.51e+00	0	34	104	0	60	45600
2026-01-08 11:55:55.18	25.23	2.39	-46.9	-62.1	3.6	1.51e+00	0	34	104	0	60	45865
2026-01-08 11:55:58.20	25.54	2.53	-46.9	-61.0	3.5	1.51e+00	0	34	104	0	60	40429
2026-01-08 11:56:01.23	25.85	2.66	-46.7	-58.3	3.9	1.51e+00	0	34	104	0	60	29597
2026-01-08 11:56:04.26	26.17	2.79	-43.1	-45.8	15.2	7.00e-07	0	34	0	3145728	60	7023
2026-01-08 11:56:07.29	26.49	2.92	-41.7	-43.7	17.3	0.00e+00	0	34	0	9437184	56	6964
2026-01-08 11:56:10.31	26.81	3.05	-43.8	-46.9	14.9	1.90e-04	77	34	0	14680064	60	7990
2026-01-08 11:56:13.34	27.14	3.18	-46.9	-61.8	3.6	1.51e+00	0	34	104	18874368	60	44532
2026-01-08 11:56:16.37	27.47	3.31	-40.9	-42.6	18.4	0.00e+00	0	34	0	19922944	56	6140
2026-01-08 11:56:19.40	27.80	3.44	-40.5	-42.0	19.0	0.00e+00	72	34	0	26214400	54	6463
2026-01-08 11:56:22.42	28.13	3.57	-40.0	-41.5	19.5	0.00e+00	0	34	0	31457280	54	6052
2026-01-08 11:56:25.45	28.47	3.70	-40.1	-41.5	19.5	0.00e+00	0	34	0	36700160	54	6087
2026-01-08 11:56:28.47	28.81	3.83	-39.7	-41.1	19.9	0.00e+00	0	34	0	42991616	52	6492
2026-01-08 11:56:31.50	29.15	3.96	-39.4	-40.7	20.3	0.00e+00	47	34	0	48234496	52	6207
2026-01-08 11:56:34.53	29.50	4.09	-39.3	-40.6	20.4	0.00e+00	0	34	0	54525952	52	6140
2026-01-08 11:56:37.56	29.84	4.22	-39.3	-40.6	20.4	0.00e+00	0	34	0	59768832	52	6109
2026-01-08 11:56:40.59	30.20	4.35	-39.4	-40.7	20.4	0.00e+00	92	34	0	65011712	52	6205
2026-01-08 11:56:43.61	30.55	4.47	-39.5	-40.8	20.3	0.00e+00	0	34	0	71303168	52	6277
2026-01-08 11:56:46.64	30.91	4.60	-39.2	-40.4	20.7	0.00e+00	0	34	0	76546048	52	5993
2026-01-08 11:56:49.67	31.27	4.73	-39.0	-40.2	20.8	0.00e+00	92	34	0	82837504	52	5860
2026-01-08 11:56:52.70	31.63	4.86	-39.1	-40.3	20.8	0.00e+00	0	34	0	88080384	52	5905
2026-01-08 11:56:55.73	32.00	4.99	-39.2	-40.4	20.7	0.00e+00	0	34	0	93323264	52	6009
2026-01-08 11:56:58.75	32.36	5.11	-39.4	-40.7	20.5	0.00e+00	0	34	0	99614720	52	6182
2026-01-08 11:57:01.78	32.74	5.24	-39.4	-40.7	20.5	0.00e+00	51	34	0	104857600	52	6174
2026-01-08 11:57:04.81	33.11	5.37	-39.3	-40.5	20.6	0.00e+00	0	34	0	111149056	52	6070
2026-01-08 11:57:07.83	33.49	5.49	-39.2	-40.5	20.8	0.00e+00	0	34	0	116391936	52	6036
2026-01-08 11:57:10.86	33.87	5.62	-39.4	-40.6	20.7	0.00e+00	92	34	0	122683392	52	6166
2026-01-08 11:57:13.89	34.26	5.74	-39.5	-40.8	20.6	0.00e+00	0	34	0	127926272	52	6251
2026-01-08 11:57:16.91	34.65	5.87	-39.5	-40.7	20.6	0.00e+00	0	34	0	133169152	52	6222
2026-01-08 11:57:19.94	35.04	5.99	-39.8	-41.1	20.3	0.00e+00	92	34	0	139460608	52	6475
2026-01-08 11:57:22.97	35.43	6.12	-39.1	-40.3	21.0	0.00e+00	0	34	0	144703488	52	5957
2026-01-08 11:57:25.99	35.83	6.24	-39.2	-40.4	20.9	0.00e+00	0	34	0	150994944	52	6004
2026-01-08 11:57:29.02	36.23	6.36	-39.3	-40.5	20.7	0.00e+00	0	34	0	156237824	52	6062
2026-01-08 11:57:32.04	36.63	6.48	-39.2	-40.4	20.8	0.00e+00	45	34	0	161480704	52	6019
2026-01-08 11:57:35.07	37.04	6.60	-39.3	-40.5	20.8	0.00e+00	0	34	0	167772160	52	6058
2026-01-08 11:57:38.10	37.45	6.73	-39.4	-40.6	20.8	0.00e+00	0	34	0	173015040	52	6135
2026-01-08 11:57:41.13	37.87	6.85	-39.7	-41.0	20.4	0.00e+00	92	34	0	179306496	52	6455
2026-01-08 11:57:44.16	38.28	6.96	-39.8	-41.1	20.3	0.00e+00	0	35	0	184549376	52	6515
2026-01-08 11:57:47.18	38.70	7.08	-39.4	-40.7	20.8	0.00e+00	0	34	0	189792256	52	6179
2026-01-08 11:57:50.21	39.13	7.20	-39.3	-40.5	21.0	0.00e+00	50	34	0	196083712	52	6038
2026-01-08 11:57:53.24	39.56	7.32	-39.5	-40.7	20.6	0.00e+00	0	35	0	201326592	52	6207
2026-01-08 11:57:56.26	39.99	7.43	-39.7	-41.0	20.5	0.00e+00	0	35	0	207618048	52	6421
2026-01-08 11:57:59.29	40.42	7.55	-40.0	-41.4	20.1	0.00e+00	0	35	0	212860928	52	6718
2026-01-08 11:58:02.32	40.86	7.66	-39.7	-40.9	20.5	0.00e+00	19	35	0	219152384	52	6367
2026-01-08 11:58:05.35	41.30	7.78	-39.4	-40.7	20.9	0.00e+00	0	35	0	224395264	52	6178
2026-01-08 11:58:08.38	41.74	7.89	-39.3	-40.5	20.9	0.00e+00	0	35	0	229638144	52	6096
2026-01-08 11:58:11.41	42.19	8.00	-39.7	-41.0	20.6	0.00e+00	92	34	0	235929600	52	6414
2026-01-08 11:58:14.43	42.64	8.11	-39.9	-41.3	20.3	0.00e+00	0	35	0	241172480	52	6618
2026-01-08 11:58:17.47	43.10	8.22	-40.0	-41.3	20.3	0.00e+00	0	35	0	247463936	52	6655
2026-01-08 11:58:20.49	43.55	8.33	-40.0	-41.4	20.2	0.00e+00	71	34	0	252706816	52	6702
2026-01-08 11:58:23.52	44.01	8.44	-40.2	-41.6	20.0	0.00e+00	0	35	0	257949696	52	6874
2026-01-08 11:58:26.55	44.48	8.55	-40.1	-41.4	20.2	0.00e+00	0	35	0	264241152	52	6738
2026-01-08 11:58:29.58	44.95	8.65	-39.7	-40.9	20.6	0.00e+00	0	35	0	269484032	52	6380
2026-01-08 11:58:32.60	45.41	8.76	-39.5	-40.8	20.8	0.00e+00	53	35	0	275775488	52	6252
2026-01-08 11:58:35.63	45.89	8.86	-39.5	-40.7	20.7	0.00e+00	0	35	0	281018368	52	6181
2026-01-08 11:58:38.66	46.37	8.96	-39.5	-40.7	20.9	0.00e+00	0	34	0	287309824	52	6180
2026-01-08 11:58:41.68	46.84	9.06	-39.6	-40.8	20.8	0.00e+00	92	35	0	292552704	52	6270
2026-01-08 11:58:44.71	47.33	9.16	-39.8	-41.0	20.5	0.00e+00	0	35	0	297795584	52	6456
2026-01-08 11:58:47.74	47.82	9.26	-39.2	-40.3	21.3	0.00e+00	0	35	0	304087040	52	5948
2026-01-08 11:58:50.77	48.31	9.35	-38.7	-39.8	21.6	0.00e+00	0	35	0	309329920	50	6292
2026-01-08 11:58:53.79	48.80	9.45	-39.2	-40.4	21.2	0.00e+00	0	35	0	315621376	50	6707
2026-01-08 11:58:56.82	49.29	9.54	-39.4	-40.6	21.0	0.00e+00	0	35	0	320864256	50	6921
2026-01-08 11:58:59.85	49.79	9.63	-39.4	-40.6	20.9	0.00e+00	0	35	0	326107136	50	6878
2026-01-08 11:59:02.87	50.29	9.72	-39.4	-40.6	21.0	0.00e+00	73	35	0	332398592	50	6914
2026-01-08 11:59:05.90	50.80	9.81	-39.5	-40.7	21.0	0.00e+00	0	35	0	337641472	50	7001
2026-01-08 11:59:08.92	51.30	9.90	-39.2	-40.3	21.2	0.00e+00	0	35	0	343932928	50	6687
2026-01-08 11:59:11.96	51.82	9.99	-39.0	-40.1	21.4	0.00e+00	72	35	0	349175808	50	6523
2026-01-08 11:59:14.98	52.33	10.07	-38.8	-39.9	21.6	0.00e+00	0	35	0	354418688	50	6356
2026-01-08 11:59:18.01	52.85	10.15	-39.4	-40.6	21.1	0.00e+00	0	35	0	360710144	50	6872
2026-01-08 11:59:21.03	53.37	10.23	-40.1	-41.4	20.2	0.00e+00	0	35	0	365953024	52	6755
2026-01-08 11:59:24.06	53.89	10.31	-39.9	-41.1	20.6	0.00e+00	27	34	0	372244480	52	6530
2026-01-08 11:59:27.09	54.41	10.39	-39.0	-40.1	21.2	0.00e+00	33	35	0	377487360	52	5777
2026-01-08 11:59:30.12	54.94	10.46	-39.1	-40.3	21.3	0.00e+00	0	35	0	383778816	52	5924
2026-01-08 11:59:33.14	55.47	10.53	-39.3	-40.4	21.2	0.00e+00	55	35	0	389021696	52	6032
2026-01-08 11:59:36.17	56.00	10.60	-38.5	-39.6	21.9	0.00e+00	0	35	0	394264576	50	6111
2026-01-08 11:59:39.20	56.54	10.67	-38.2	-39.2	22.0	0.00e+00	0	34	0	400556032	50	5883
2026-01-08 11:59:42.23	57.08	10.74	-39.0	-40.1	21.4	0.00e+00	84	34	0	405798912	50	6493
2026-01-08 11:59:45.25	57.62	10.80	-39.1	-40.2	21.3	0.00e+00	0	35	0	412090368	50	6585
2026-01-08 11:59:48.28	58.16	10.87	-38.8	-39.9	21.6	0.00e+00	0	35	0	417333248	50	6339
2026-01-08 11:59:51.31	58.70	10.93	-39.9	-41.1	20.6	0.00e+00	0	35	0	422576128	52	6515
2026-01-08 11:59:54.33	59.25	10.99	-40.0	-41.3	20.4	0.00e+00	55	35	0	428867584	52	6633
2026-01-08 11:59:57.36	59.80	11.04	-39.3	-40.4	21.1	0.00e+00	0	35	0	434110464	52	6010
2026-01-08 12:00:00.39	60.35	11.10	-39.3	-40.5	21.1	0.00e+00	0	35	0	440401920	52	6049
2026-01-08 12:00:03.42	60.90	11.15	-40.0	-41.2	20.5	0.00e+00	65	35	0	445644800	52	6597
2026-01-08 12:00:06.45	61.46	11.20	-39.9	-41.2	20.6	0.00e+00	0	35	0	451936256	52	6571
2026-01-08 12:00:09.47	62.01	11.24	-40.5	-41.8	19.9	0.00e+00	0	35	0	457179136	52	7083
2026-01-08 12:00:12.50	62.57	11.29	-41.6	-43.3	18.6	0.00e+00	91	35	0	462422016	54	7455
2026-01-08 12:00:15.52	63.13	11.33	-41.3	-42.8	19.2	0.00e+00	0	35	0	468713472	54	7059
2026-01-08 12:00:18.55	63.69	11.37	-40.1	-41.4	20.5	0.00e+00	0	35	0	473956352	54	5967
2026-01-08 12:00:21.58	64.25	11.41	-40.0	-41.2	20.5	0.00e+00	0	35	0	480247808	54	5893
2026-01-08 12:00:24.60	64.82	11.45	-39.8	-41.0	20.8	0.00e+00	13	35	0	485490688	54	5722
2026-01-08 12:00:27.63	65.38	11.48	-39.3	-40.4	21.2	0.00e+00	0	35	0	490733568	52	6003
2026-01-08 12:00:30.66	65.95	11.51	-38.7	-39.7	21.7	0.00e+00	0	35	0	497025024	50	6236
2026-01-08 12:00:33.68	66.52	11.54	-38.9	-40.0	21.6	0.00e+00	44	35	0	502267904	50	6399
2026-01-08 12:00:36.71	67.09	11.56	-38.4	-39.5	22.0	0.00e+00	0	35	0	508559360	50	6053
2026-01-08 12:00:39.74	67.66	11.59	-38.4	-39.4	22.0	0.00e+00	0	35	0	513802240	50	5998
2026-01-08 12:00:42.77	68.23	11.61	-38.8	-39.9	21.7	0.00e+00	92	35	0	519045120	50	6342
2026-01-08 12:00:45.79	68.80	11.62	-38.7	-39.8	21.7	0.00e+00	0	35	0	525336576	50	6274
2026-01-08 12:00:48.82	69.37	11.64	-38.5	-39.5	22.0	0.00e+00	0	35	0	530579456	50	6079
2026-01-08 12:00:51.85	69.94	11.65	-38.6	-39.7	21.7	0.00e+00	0	35	0	536870912	50	6230
2026-01-08 12:00:54.88	70.52	11.66	-38.3	-39.3	22.2	0.00e+00	54	35	0	542113792	50	5936
2026-01-08 12:00:57.91	71.09	11.67	-38.2	-39.2	22.2	0.00e+00	0	35	0	548405248	50	5841
2026-01-08 12:01:00.93	71.66	11.68	-38.5	-39.6	22.0	0.00e+00	0	35	0	553648128	50	6104
2026-01-08 12:01:03.96	72.24	11.68	-38.0	-39.0	22.4	0.00e+00	50	35	0	558891008	50	5740
2026-01-08 12:01:06.99	72.81	11.68	-38.1	-39.1	22.4	0.00e+00	0	35	0	565182464	50	5819
2026-01-08 12:01:10.01	73.39	11.68	-38.5	-39.6	21.8	0.00e+00	0	35	0	570425344	50	6169
2026-01-08 12:01:13.04	73.96	11.67	-38.4	-39.5	22.0	0.00e+00	56	34	0	576716800	50	6083
2026-01-08 12:01:16.07	74.53	11.66	-37.5	-38.5	22.6	0.00e+00	0	35	0	581959680	48	6098
2026-01-08 12:01:19.10	75.11	11.65	-37.4	-38.4	22.8	0.00e+00	0	35	0	587202560	48	6022
2026-01-08 12:01:22.12	75.68	11.64	-37.7	-38.8	22.5	0.00e+00	0	35	0	593494016	48	6266
2026-01-08 12:01:25.15	76.25	11.63	-37.4	-38.3	22.8	0.00e+00	22	35	0	598736896	48	5963
2026-01-08 12:01:28.18	76.83	11.61	-37.4	-38.3	22.9	0.00e+00	0	35	0	605028352	48	5942
2026-01-08 12:01:31.21	77.40	11.59	-37.5	-38.5	22.7	0.00e+00	0	35	0	610271232	48	6060
2026-01-08 12:01:34.24	77.97	11.57	-37.5	-38.4	22.8	0.00e+00	91	35	0	615514112	48	5996
2026-01-08 12:01:37.26	78.54	11.54	-37.2	-38.1	23.0	0.00e+00	0	35	0	621805568	48	5815
2026-01-08 12:01:40.29	79.11	11.51	-37.4	-38.3	22.9	0.00e+00	0	35	0	627048448	48	5928
2026-01-08 12:01:43.32	79.67	11.48	-37.7	-38.7	22.6	0.00e+00	85	35	0	633339904	48	6192
2026-01-08 12:01:46.34	80.24	11.45	-37.5	-38.5	22.8	0.00e+00	9	35	0	638582784	48	6049
2026-01-08 12:01:49.37	80.80	11.42	-37.2	-38.1	23.0	0.00e+00	0	35	0	644874240	48	5828
2026-01-08 12:01:52.40	81.37	11.38	-37.3	-38.2	23.0	0.00e+00	0	35	0	650117120	48	5880
2026-01-08 12:01:55.42	81.93	11.34	-37.4	-38.3	22.8	0.00e+00	48	35	0	655360000	48	5938
2026-01-08 12:01:58.45	82.49	11.30	-37.4	-38.3	22.9	0.00e+00	0	35	0	661651456	48	5941
2026-01-08 12:02:01.47	83.05	11.25	-37.5	-38.5	22.7	0.00e+00	0	35	0	666894336	48	6034
2026-01-08 12:02:04.50	83.61	11.20	-37.7	-38.7	22.5	0.00e+00	89	35	0	673185792	48	6227
2026-01-08 12:02:07.52	84.16	11.15	-37.7	-38.7	22.6	0.00e+00	0	35	0	678428672	48	6187
2026-01-08 12:02:10.55	84.72	11.10	-37.1	-38.1	22.8	0.00e+00	0	35	0	683671552	48	5779
2026-01-08 12:02:13.58	85.27	11.05	-36.8	-37.7	23.5	0.00e+00	91	35	0	689963008	48	5507
2026-01-08 12:02:16.61	85.82	10.99	-36.8	-37.7	23.3	0.00e+00	0	35	0	695205888	46	6231
2026-01-08 12:02:19.64	86.37	10.93	-36.5	-37.4	23.6	0.00e+00	0	35	0	701497344	46	6002
2026-01-08 12:02:22.67	86.92	10.87	-36.6	-37.5	23.6	0.00e+00	0	35	0	706740224	46	6042
2026-01-08 12:02:25.70	87.46	10.81	-37.0	-37.9	23.2	0.00e+00	53	35	0	713031680	46	6330
2026-01-08 12:02:28.73	88.00	10.75	-37.1	-38.0	23.3	0.00e+00	0	35	0	718274560	46	6434
2026-01-08 12:02:31.76	88.54	10.68	-36.6	-37.5	23.5	0.00e+00	0	35	0	723517440	46	6095
2026-01-08 12:02:34.79	89.08	10.61	-36.5	-37.4	23.6	0.00e+00	92	35	0	729808896	46	6017
2026-01-08 12:02:37.82	89.61	10.54	-36.7	-37.6	23.5	0.00e+00	0	35	0	735051776	46	6137
2026-01-08 12:02:40.84	90.14	10.47	-36.6	-37.5	23.5	0.00e+00	0	35	0	741343232	46	6083
2026-01-08 12:02:43.87	90.67	10.39	-36.5	-37.4	23.6	0.00e+00	91	35	0	746586112	46	5972
2026-01-08 12:02:46.90	91.20	10.32	-36.6	-37.5	23.6	0.00e+00	0	35	0	751828992	46	6039
2026-01-08 12:02:49.92	91.72	10.24	-36.9	-37.8	23.3	0.00e+00	0	35	0	758120448	46	6283
2026-01-08 12:02:52.95	92.25	10.16	-37.0	-38.0	23.2	0.00e+00	0	35	0	763363328	46	6400
2026-01-08 12:02:55.98	92.76	10.07	-37.0	-37.9	23.1	0.00e+00	50	35	0	769654784	46	6353
2026-01-08 12:02:59.01	93.28	9.99	-37.3	-38.3	22.9	0.00e+00	0	35	0	774897664	46	6660
2026-01-08 12:03:02.03	93.79	9.91	-37.8	-38.8	22.4	0.00e+00	0	35	0	780140544	48	6314
2026-01-08 12:03:05.06	94.30	9.82	-38.3	-39.4	21.9	0.00e+00	92	35	0	786432000	48	6726
2026-01-08 12:03:08.09	94.81	9.73	-38.1	-39.2	22.2	0.00e+00	0	35	0	791674880	48	6587
2026-01-08 12:03:11.12	95.31	9.64	-38.3	-39.4	22.0	0.00e+00	0	35	0	797966336	48	6732
2026-01-08 12:03:14.14	95.81	9.55	-38.3	-39.3	21.9	0.00e+00	57	35	0	803209216	48	6669
2026-01-08 12:03:17.17	96.31	9.45	-38.8	-40.0	21.5	0.00e+00	47	35	0	809500672	48	7176
2026-01-08 12:03:20.20	96.81	9.36	-39.3	-40.5	20.8	0.00e+00	0	35	0	814743552	50	6832
2026-01-08 12:03:23.23	97.30	9.26	-39.7	-40.9	20.6	0.00e+00	0	35	0	819986432	52	6357
2026-01-08 12:03:26.26	97.79	9.16	-39.1	-40.3	21.1	0.00e+00	49	35	0	826277888	52	5902
2026-01-08 12:03:29.29	98.27	9.06	-39.6	-40.9	20.7	0.00e+00	0	35	0	831520768	52	6354
2026-01-08 12:03:32.32	98.76	8.96	-40.1	-41.5	20.1	0.00e+00	0	35	0	837812224	52	6841
2026-01-08 12:03:35.35	99.24	8.86	-39.8	-41.0	20.5	0.00e+00	92	35	0	843055104	52	6452
2026-01-08 12:03:38.38	99.71	8.75	-39.7	-40.9	20.5	0.00e+00	0	35	0	848297984	52	6382
2026-01-08 12:03:41.40	100.18	8.65	-39.7	-41.0	20.4	0.00e+00	0	35	0	854589440	52	6436
2026-01-08 12:03:44.43	100.65	8.54	-39.7	-40.9	20.5	0.00e+00	11	35	0	859832320	52	6387
2026-01-08 12:03:47.46	101.12	8.44	-40.0	-41.3	20.2	0.00e+00	36	35	0	866123776	52	6647
2026-01-08 12:03:50.49	101.58	8.33	-40.0	-41.3	20.2	0.00e+00	0	35	0	871366656	52	6679
2026-01-08 12:03:53.52	102.04	8.22	-40.1	-41.5	20.0	0.00e+00	0	35	0	877658112	52	6785
2026-01-08 12:03:56.54	102.50	8.11	-40.0	-41.5	20.1	0.00e+00	90	35	0	882900992	52	6770
2026-01-08 12:03:59.57	102.95	8.00	-40.1	-41.4	20.1	0.00e+00	0	35	0	888143872	52	6769
2026-01-08 12:04:02.60	103.40	7.88	-39.7	-41.0	20.4	0.00e+00	0	35	0	894435328	52	6425
2026-01-08 12:04:05.63	103.85	7.77	-39.7	-41.0	20.5	0.00e+00	92	35	0	899678208	52	6404
2026-01-08 12:04:08.66	104.29	7.66	-39.1	-40.2	21.1	0.00e+00	0	35	0	905969664	52	5889
2026-01-08 12:04:11.69	104.73	7.54	-39.0	-40.1	21.2	0.00e+00	0	35	0	911212544	52	5813
2026-01-08 12:04:14.72	105.16	7.42	-39.2	-40.4	21.0	0.00e+00	0	35	0	916455424	52	5985
2026-01-08 12:04:17.74	105.60	7.31	-39.7	-41.0	20.4	0.00e+00	47	35	0	922746880	52	6450
2026-01-08 12:04:20.77	106.02	7.19	-39.8	-41.1	20.4	0.00e+00	0	35	0	927989760	52	6496
2026-01-08 12:04:23.79	106.45	7.07	-39.5	-40.7	20.6	0.00e+00	0	35	0	934281216	52	6201
2026-01-08 12:04:26.82	106.87	6.95	-39.1	-40.5	20.7	0.00e+00	82	35	0	939524096	52	6060
2026-01-08 12:04:29.84	107.29	6.83	-39.2	-40.5	20.8	0.00e+00	0	35	0	945815552	52	6053
2026-01-08 12:04:32.87	107.71	6.71	-39.1	-40.4	20.9	0.00e+00	0	35	0	951058432	52	6002
2026-01-08 12:04:35.90	108.12	6.59	-39.1	-40.5	20.8	0.00e+00	92	35	0	956301312	52	6065
2026-01-08 12:04:38.93	108.53	6.46	-38.8	-40.1	21.1	0.00e+00	9	35	0	962592768	52	5774
2026-01-08 12:04:41.96	108.93	6.34	-38.9	-40.0	21.0	0.00e+00	0	35	0	967835648	50	6463
2026-01-08 12:04:44.99	109.34	6.22	-38.7	-39.9	21.2	0.00e+00	0	35	0	974127104	50	6376
2026-01-08 12:04:48.02	109.74	6.09	-38.5	-39.7	21.4	0.00e+00	10	35	0	979369984	50	6196
2026-01-08 12:04:51.05	110.13	5.97	-38.3	-39.4	21.6	0.00e+00	0	35	0	984612864	50	6021
2026-01-08 12:04:54.07	110.53	5.84	-38.2	-39.4	21.7	0.00e+00	0	35	0	990904320	50	5972
2026-01-08 12:04:57.09	110.91	5.72	-38.6	-39.8	21.3	0.00e+00	81	35	0	996147200	50	6254
2026-01-08 12:05:00.12	111.30	5.59	-38.9	-40.1	21.0	0.00e+00	0	35	0	1002438656	50	6493
2026-01-08 12:05:03.14	111.68	5.47	-39.1	-40.3	20.8	0.00e+00	0	35	0	1007681536	50	6629
2026-01-08 12:05:06.17	112.06	5.34	-39.0	-40.2	20.8	0.00e+00	72	35	0	1012924416	50	6558
2026-01-08 12:05:09.20	112.44	5.21	-39.0	-40.3	20.8	0.00e+00	0	35	0	1019215872	50	6634
2026-01-08 12:05:12.22	112.81	5.08	-39.3	-40.6	20.4	0.00e+00	0	35	0	1024458752	50	6854
2026-01-08 12:05:15.25	113.18	4.95	-39.0	-40.3	20.7	0.00e+00	0	35	0	1030750208	50	6642
2026-01-08 12:05:18.28	113.55	4.83	-38.8	-40.0	21.0	0.00e+00	48	35	0	1035993088	50	6421
2026-01-08 12:05:21.31	113.92	4.70	-38.7	-39.9	21.0	0.00e+00	0	35	0	1042284544	50	6320
2026-01-08 12:05:24.34	114.28	4.57	-38.8	-40.0	20.9	0.00e+00	0	35	0	1047527424	50	6437
2026-01-08 12:05:27.37	114.64	4.44	-39.4	-40.7	20.2	0.00e+00	88	35	0	1052770304	50	6944
2026-01-08 12:05:30.40	114.99	4.31	-39.7	-41.1	19.8	0.00e+00	0	35	0	1059061760	50	7285
2026-01-08 12:05:33.42	115.34	4.18	-39.8	-41.3	19.6	0.00e+00	0	35	0	1064304640	52	6655
2026-01-08 12:05:36.46	115.69	4.05	-39.7	-41.2	19.6	0.00e+00	36	35	0	1070596096	52	6615
2026-01-08 12:05:39.49	116.04	3.92	-39.7	-41.1	19.7	0.00e+00	25	35	0	1075838976	52	6513
2026-01-08 12:05:42.51	116.38	3.79	-39.8	-41.2	19.7	0.00e+00	0	35	0	1081081856	52	6571
2026-01-08 12:05:45.54	116.72	3.65	-39.8	-41.3	19.4	0.00e+00	0	35	0	1087373312	52	6653
2026-01-08 12:05:48.57	117.06	3.52	-39.8	-41.3	19.4	0.00e+00	92	35	0	1092616192	52	6671
2026-01-08 12:05:51.60	117.40	3.39	-39.7	-41.2	19.6	0.00e+00	0	35	0	1098907648	52	6588
2026-01-08 12:05:54.62	117.73	3.26	-39.8	-41.3	19.4	0.00e+00	0	35	0	1104150528	52	6686
2026-01-08 12:05:57.65	118.06	3.13	-40.3	-41.9	18.8	0.00e+00	92	35	0	1110441984	52	7121
2026-01-08 12:06:00.68	118.38	3.00	-46.8	-62.4	3.6	0.00e+00	0	35	104	1114636288	60	47437
2026-01-08 12:06:03.71	118.70	2.87	-48.2	-63.5	3.6	1.51e+00	0	35	104	1114636288	60	53793
2026-01-08 12:06:06.74	119.03	2.73	-48.5	-63.7	3.6	1.51e+00	0	35	104	1114636288	60	55398
2026-01-08 12:06:09.77	119.34	2.60	-48.6	-63.8	3.6	1.51e+00	0	35	104	1114636288	60	55931
2026-01-08 12:06:12.79	119.66	2.47	-48.3	-63.7	3.6	1.51e+00	0	35	104	1114636288	60	55328
2026-01-08 12:06:15.82	119.97	2.34	-48.5	-63.7	3.6	1.51e+00	0	35	104	1114636288	60	55661
2026-01-08 12:06:18.85	120.28	2.20	-48.5	-63.6	3.6	1.51e+00	0	35	104	1114636288	60	55019
2026-01-08 12:06:21.88	120.59	2.07	-48.5	-63.6	3.5	1.51e+00	0	35	104	1114636288	60	54942
2026-01-08 12:06:24.91	120.89	1.94	-48.5	-63.6	3.6	1.51e+00	0	35	104	1114636288	60	54909
2026-01-08 12:06:27.93	121.19	1.81	-48.5	-63.7	3.6	1.51e+00	0	35	104	1114636288	60	55140
2026-01-08 12:06:30.96	121.49	1.68	-48.5	-63.6	3.6	1.51e+00	0	35	104	1114636288	60	54944
2026-01-08 12:06:33.99	121.79	1.54	-48.5	-63.6	3.6	1.51e+00	0	35	104	1114636288	60	54858
2026-01-08 12:06:37.02	122.08	1.41	-48.5	-63.7	3.6	1.51e+00	0	35	104	1114636288	60	55091
2026-01-08 12:06:40.05	122.38	1.28	-48.5	-63.7	3.6	1.51e+00	0	35	104	1114636288	60	55064
2026-01-08 12:06:43.08	122.67	1.15	-48.5	-63.6	3.6	1.51e+00	0	35	104	1114636288	60	54912
2026-01-08 12:06:46.11	122.95	1.01	-48.5	-63.6	3.6	1.51e+00	0	35	104	1114636288	60	54629
2026-01-08 12:06:49.14	123.24	0.88	-48.5	-63.6	3.6	1.51e+00	0	35	104	1114636288	60	55011
2026-01-08 12:06:52.17	123.52	0.75	-48.5	-63.6	3.6	1.51e+00	0	35	104	1114636288	60	54869
2026-01-08 12:06:55.19	123.80	0.62	-48.5	-63.6	3.6	1.51e+00	0	35	104	1114636288	60	54815
2026-01-08 12:06:58.22	124.08	0.48	-48.5	-63.6	3.6	1.51e+00	0	35	104	1114636288	60	54746
2026-01-08 12:07:01.25	124.35	0.35	-48.5	-63.6	3.6	1.51e+00	0	35	104	1114636288	60	55016
2026-01-08 12:07:04.28	124.62	0.22	-48.5	-63.6	3.6	1.51e+00	0	35	104	1114636288	60	54861
2026-01-08 12:07:07.31	124.89	0.09	-48.5	-63.6	3.6	1.51e+00	0	35	104	1114636288	60	54919
2026-01-08 12:07:10.34	125.16	-0.04	-48.5	-63.6	3.6	1.51e+00	0	35	104	1114636288	60	54988

#Closed at: 2026-01-08 12:07:11
#Recorded file [1114 MB]: D:/lorett/data/35029_260108_235500.dat