passes_logs/2026/01/08/R4.6S_Anadyr/R4.6S_Anadyr__20260108_230135_NOAA_21_JPSS-2_rec.log

#Pass ID: 20260108_230135_NOAA 21 (JPSS-2)
#Satellite: NOAA 21 (JPSS-2)
#Configuration: NOAA-21
#almurnet v.1.7.20251203
#Start time: 2026-01-08 23:01:38

#Version: 2.2.20231116
#Station: R4.6S_Anadyr
#Location: 177.4865 lon 64.73178 lat
#TLE: 1 54234U 22150A   26008.31660796  .00000118  00000+0  76746-4 0  9995
#TLE: 2 54234  98.7494 309.2974 0000900 328.8845  31.2277 14.19533293163868

#Time	Az	El	Level	Level2	SNR	BER	BlckErr	Temp	State	Recorded	gain1	gain2
2026-01-08 23:01:38.27	127.11	0.19	-48.1	-59.5	3.3	1.54e+00	0	32	0	0	60	33243
2026-01-08 23:01:42.30	127.00	0.42	-48.3	-61.2	3.5	1.52e+00	0	32	104	0	60	40425
2026-01-08 23:01:46.33	126.88	0.66	-48.1	-61.0	3.5	1.52e+00	0	32	104	0	60	39437
2026-01-08 23:01:50.37	126.76	0.91	-47.7	-60.5	3.5	1.52e+00	0	32	104	0	60	37276
2026-01-08 23:01:54.41	126.63	1.15	-46.2	-59.5	3.5	1.52e+00	0	33	104	0	60	33069
2026-01-08 23:01:58.45	126.51	1.40	-46.2	-59.5	3.5	1.52e+00	0	33	104	0	60	32966
2026-01-08 23:02:02.48	126.38	1.64	-46.2	-59.5	3.5	1.52e+00	0	33	104	0	60	33218
2026-01-08 23:02:06.52	126.25	1.89	-46.1	-59.2	3.5	1.52e+00	0	33	104	0	60	32021
2026-01-08 23:02:10.56	126.11	2.15	-46.1	-59.4	3.5	1.51e+00	0	33	104	0	60	32607
2026-01-08 23:02:14.61	125.98	2.40	-46.1	-59.4	3.5	1.52e+00	0	33	104	0	60	32913
2026-01-08 23:02:18.65	125.84	2.66	-46.1	-59.1	3.5	1.52e+00	0	33	104	0	60	31532
2026-01-08 23:02:22.68	125.70	2.91	-46.1	-58.9	3.5	1.52e+00	0	33	104	0	60	31006
2026-01-08 23:02:26.72	125.56	3.17	-45.5	-53.8	5.4	7.84e-01	122	33	104	0	60	17282
2026-01-08 23:02:30.76	125.41	3.44	-41.7	-44.1	14.6	0.00e+00	123	33	0	11534336	56	7119
2026-01-08 23:02:34.80	125.26	3.70	-40.5	-42.3	17.2	8.30e-06	122	33	0	24117248	56	5739
2026-01-08 23:02:38.84	125.11	3.97	-41.2	-43.2	15.8	2.49e-04	123	33	0	30408704	56	6380
2026-01-08 23:02:42.88	124.95	4.24	-38.7	-40.1	18.7	0.00e+00	123	33	0	42991616	52	5618
2026-01-08 23:02:46.92	124.79	4.51	-36.6	-37.7	20.9	0.00e+00	123	33	0	55574528	46	6037
2026-01-08 23:02:50.96	124.63	4.79	-36.6	-37.7	21.0	0.00e+00	123	33	0	68157440	46	6033
2026-01-08 23:02:54.99	124.47	5.07	-36.4	-37.5	21.2	0.00e+00	122	33	0	80740352	46	5883
2026-01-08 23:02:59.03	124.30	5.35	-36.3	-37.4	21.4	0.00e+00	123	33	0	93323264	46	5817
2026-01-08 23:03:03.07	124.13	5.63	-36.0	-37.1	21.5	0.00e+00	123	33	0	105906176	46	5654
2026-01-08 23:03:07.11	123.95	5.92	-36.1	-37.2	21.5	0.00e+00	123	33	0	118489088	46	5722
2026-01-08 23:03:11.15	123.77	6.21	-35.9	-37.0	21.8	0.00e+00	123	33	0	131072000	46	5572
2026-01-08 23:03:15.19	123.59	6.50	-35.9	-37.0	21.8	0.00e+00	123	34	0	143654912	46	5541
2026-01-08 23:03:19.22	123.40	6.79	-35.8	-36.9	22.0	0.00e+00	120	33	0	156237824	44	6135
2026-01-08 23:03:23.25	123.21	7.09	-35.4	-36.4	22.3	0.00e+00	123	33	0	168820736	44	5853
2026-01-08 23:03:27.29	123.02	7.39	-35.4	-36.4	22.3	0.00e+00	123	33	0	181403648	44	5804
2026-01-08 23:03:31.32	122.82	7.69	-35.3	-36.3	22.4	0.00e+00	123	34	0	193986560	44	5782
2026-01-08 23:03:35.36	122.61	8.00	-35.5	-36.5	22.3	0.00e+00	122	34	0	206569472	44	5873
2026-01-08 23:03:39.40	122.41	8.31	-35.4	-36.4	22.4	0.00e+00	123	33	0	219152384	44	5855
2026-01-08 23:03:43.44	122.19	8.63	-35.4	-36.5	22.4	0.00e+00	120	34	0	231735296	44	5860
2026-01-08 23:03:47.47	121.97	8.95	-35.2	-36.2	22.7	0.00e+00	123	34	0	244318208	44	5720
2026-01-08 23:03:51.51	121.75	9.27	-35.2	-36.2	22.7	0.00e+00	122	34	0	256901120	44	5717
2026-01-08 23:03:55.55	121.52	9.59	-34.9	-35.9	23.1	0.00e+00	123	34	0	269484032	44	5468
2026-01-08 23:03:59.59	121.29	9.92	-34.5	-35.5	23.4	0.00e+00	123	34	0	283115520	42	5886
2026-01-08 23:04:03.63	121.05	10.26	-34.5	-35.4	23.5	0.00e+00	120	34	0	295698432	42	5827
2026-01-08 23:04:07.66	120.80	10.59	-34.1	-35.0	23.8	0.00e+00	123	34	0	308281344	42	5581
2026-01-08 23:04:11.70	120.55	10.94	-34.1	-35.0	23.7	0.00e+00	123	34	0	320864256	42	5581
2026-01-08 23:04:15.74	120.29	11.28	-34.1	-35.0	23.7	0.00e+00	123	34	0	333447168	42	5571
2026-01-08 23:04:19.77	120.03	11.63	-34.1	-35.0	23.8	0.00e+00	120	34	0	346030080	42	5561
2026-01-08 23:04:23.81	119.76	11.99	-34.2	-35.1	23.7	0.00e+00	122	34	0	358612992	42	5652
2026-01-08 23:04:27.85	119.48	12.35	-34.0	-35.0	23.9	0.00e+00	123	34	0	371195904	42	5547
2026-01-08 23:04:31.89	119.19	12.71	-33.9	-34.8	24.1	0.00e+00	123	34	0	383778816	40	6099
2026-01-08 23:04:35.93	118.90	13.08	-33.6	-34.5	24.2	0.00e+00	123	34	0	396361728	40	5896
2026-01-08 23:04:39.97	118.60	13.45	-33.8	-34.7	24.0	0.00e+00	122	34	0	408944640	40	6051
2026-01-08 23:04:44.01	118.29	13.83	-33.7	-34.7	24.0	0.00e+00	123	34	0	421527552	40	6009
2026-01-08 23:04:48.04	117.98	14.21	-33.7	-34.7	24.1	0.00e+00	123	34	0	434110464	40	6005
2026-01-08 23:04:52.07	117.65	14.60	-33.9	-34.9	24.1	0.00e+00	122	34	0	446693376	40	6155
2026-01-08 23:04:56.11	117.32	15.00	-33.7	-34.7	24.3	0.00e+00	122	34	0	459276288	40	5996
2026-01-08 23:05:00.15	116.97	15.40	-33.6	-34.5	24.3	0.00e+00	122	34	0	471859200	40	5906
2026-01-08 23:05:04.19	116.62	15.80	-33.6	-34.5	24.3	0.00e+00	122	34	0	484442112	40	5876
2026-01-08 23:05:08.22	116.26	16.21	-33.6	-34.5	24.3	0.00e+00	120	34	0	497025024	40	5907
2026-01-08 23:05:12.26	115.88	16.63	-34.1	-35.1	23.8	0.00e+00	122	34	0	509607936	40	6298
2026-01-08 23:05:16.30	115.50	17.05	-34.0	-34.9	24.0	0.00e+00	123	34	0	522190848	40	6187
2026-01-08 23:05:20.34	115.10	17.48	-34.0	-34.9	24.1	0.00e+00	123	34	0	534773760	40	6186
2026-01-08 23:05:24.38	114.69	17.91	-34.0	-34.9	24.1	0.00e+00	123	34	0	547356672	40	6185
2026-01-08 23:05:28.41	114.28	18.35	-33.8	-34.7	24.2	0.00e+00	123	34	0	559939584	40	6049
2026-01-08 23:05:32.45	113.84	18.80	-33.8	-34.7	24.2	0.00e+00	123	34	0	572522496	40	6029
2026-01-08 23:05:36.49	113.40	19.25	-33.9	-34.8	24.2	0.00e+00	122	34	0	585105408	40	6081
2026-01-08 23:05:40.52	112.94	19.71	-33.5	-34.4	24.5	0.00e+00	123	34	0	597688320	40	5846
2026-01-08 23:05:44.56	112.46	20.18	-33.2	-34.1	24.7	0.00e+00	120	34	0	610271232	40	5640
2026-01-08 23:05:48.60	111.97	20.65	-32.8	-33.7	24.9	0.00e+00	122	34	0	622854144	38	6023
2026-01-08 23:05:52.63	111.47	21.13	-32.7	-33.6	24.9	0.00e+00	122	34	0	635437056	38	5956
2026-01-08 23:05:56.67	110.95	21.61	-32.5	-33.4	25.2	0.00e+00	123	34	0	648019968	38	5804
2026-01-08 23:06:00.71	110.41	22.11	-32.2	-33.1	25.5	0.00e+00	120	34	0	660602880	38	5598
2026-01-08 23:06:04.75	109.85	22.61	-32.2	-33.1	25.3	0.00e+00	123	34	0	674234368	38	5620
2026-01-08 23:06:08.78	109.28	23.11	-32.2	-33.0	25.4	0.00e+00	123	34	0	686817280	38	5589
2026-01-08 23:06:12.82	108.69	23.63	-32.0	-32.9	25.6	0.00e+00	122	34	0	698351616	38	5494
2026-01-08 23:06:16.86	108.07	24.15	-32.3	-33.2	25.4	0.00e+00	122	34	0	711983104	38	5674
2026-01-08 23:06:20.89	107.44	24.67	-32.2	-33.0	25.5	0.00e+00	122	34	0	724566016	38	5584
2026-01-08 23:06:24.93	106.78	25.21	-32.4	-33.3	25.3	0.00e+00	122	34	0	737148928	38	5756
2026-01-08 23:06:28.97	106.10	25.75	-33.0	-33.9	24.9	0.00e+00	120	34	0	749731840	38	6141
2026-01-08 23:06:33.01	105.39	26.29	-33.7	-34.6	24.5	0.00e+00	123	34	0	762314752	38	6675
2026-01-08 23:06:37.05	104.66	26.85	-33.6	-34.5	24.5	0.00e+00	123	34	0	774897664	40	5907
2026-01-08 23:06:41.09	103.91	27.41	-33.5	-34.4	24.6	0.00e+00	120	34	0	787480576	40	5801
2026-01-08 23:06:45.12	103.13	27.97	-33.9	-34.9	24.3	0.00e+00	120	34	0	800063488	40	6144
2026-01-08 23:06:49.16	102.31	28.54	-33.6	-34.5	24.5	0.00e+00	122	34	0	812646400	40	5895
2026-01-08 23:06:53.20	101.47	29.11	-33.2	-34.1	24.8	0.00e+00	123	34	0	825229312	40	5609
2026-01-08 23:06:57.23	100.60	29.69	-33.4	-34.3	24.6	0.00e+00	123	34	0	837812224	40	5741
2026-01-08 23:07:01.27	99.70	30.27	-33.0	-33.8	25.0	0.00e+00	120	34	0	850395136	40	5462
2026-01-08 23:07:05.31	98.76	30.86	-33.2	-34.1	24.6	0.00e+00	123	34	0	862978048	40	5645
2026-01-08 23:07:09.35	97.78	31.45	-33.0	-33.9	25.0	0.00e+00	123	34	0	875560960	40	5477
2026-01-08 23:07:13.38	96.78	32.04	-33.3	-34.2	24.7	0.00e+00	123	34	0	888143872	40	5663
2026-01-08 23:07:17.43	95.73	32.64	-33.5	-34.4	24.4	0.00e+00	123	34	0	900726784	40	5813
2026-01-08 23:07:21.46	94.64	33.23	-34.3	-35.2	24.0	0.00e+00	123	34	0	913309696	40	6397
2026-01-08 23:07:25.50	93.51	33.82	-34.4	-35.4	23.9	0.00e+00	122	34	0	925892608	40	6499
2026-01-08 23:07:29.54	92.34	34.41	-34.6	-35.5	23.9	0.00e+00	122	34	0	938475520	40	6598
2026-01-08 23:07:33.57	91.13	35.00	-34.6	-35.5	23.8	0.00e+00	123	34	0	951058432	40	6624
2026-01-08 23:07:37.61	89.87	35.58	-35.1	-36.1	23.4	0.00e+00	123	34	0	963641344	42	6290
2026-01-08 23:07:41.65	88.57	36.16	-35.4	-36.4	23.1	0.00e+00	123	34	0	976224256	42	6567
2026-01-08 23:07:45.69	87.22	36.73	-35.2	-36.2	23.3	0.00e+00	123	34	0	988807168	42	6396
2026-01-08 23:07:49.72	85.82	37.29	-35.2	-36.1	23.3	0.00e+00	123	34	0	1001390080	42	6317
2026-01-08 23:07:53.76	84.38	37.84	-35.4	-36.4	23.2	0.00e+00	120	34	0	1013972992	42	6549
2026-01-08 23:07:57.80	82.88	38.37	-35.1	-36.1	23.3	0.00e+00	121	34	0	1026555904	44	5615
2026-01-08 23:08:01.84	81.34	38.90	-35.3	-36.3	23.2	0.00e+00	120	34	0	1039138816	44	5749
2026-01-08 23:08:05.88	79.74	39.40	-35.9	-36.9	22.6	0.00e+00	122	34	0	1051721728	44	6165
2026-01-08 23:08:09.91	78.10	39.89	-36.2	-37.2	22.4	0.00e+00	122	34	0	1064304640	44	6413
2026-01-08 23:08:13.95	76.40	40.35	-36.8	-37.9	22.0	0.00e+00	122	34	0	1077936128	46	6164
2026-01-08 23:08:17.99	74.66	40.79	-36.8	-37.8	22.0	0.00e+00	120	34	0	1090519040	46	6116
2026-01-08 23:08:22.03	72.87	41.21	-35.5	-36.5	23.0	0.00e+00	120	34	0	1103101952	44	5889
2026-01-08 23:08:26.07	71.04	41.60	-35.6	-36.5	23.0	0.00e+00	123	34	0	1115684864	44	5905
2026-01-08 23:08:30.10	69.16	41.95	-35.5	-36.5	23.0	0.00e+00	123	34	0	1128267776	44	5880
2026-01-08 23:08:34.14	67.25	42.28	-35.9	-36.9	22.8	0.00e+00	123	34	0	1140850688	44	6191
2026-01-08 23:08:38.18	65.29	42.57	-35.2	-36.2	23.2	0.00e+00	123	34	0	1153433600	44	5684
2026-01-08 23:08:42.22	63.30	42.82	-35.4	-36.3	23.0	0.00e+00	122	34	0	1166016512	44	5766
2026-01-08 23:08:46.26	61.29	43.04	-36.3	-37.3	22.1	0.00e+00	123	34	0	1178599424	44	6485
2026-01-08 23:08:50.30	59.25	43.22	-36.9	-38.0	21.9	0.00e+00	122	34	0	1191182336	46	6240
2026-01-08 23:08:54.34	57.18	43.35	-36.1	-37.0	22.7	0.00e+00	123	34	0	1203765248	46	5593
2026-01-08 23:08:58.37	55.11	43.45	-36.0	-36.9	22.7	0.00e+00	120	34	0	1216348160	44	6197
2026-01-08 23:09:02.41	53.03	43.50	-35.9	-36.9	22.6	0.00e+00	122	34	0	1228931072	44	6168
2026-01-08 23:09:06.45	50.94	43.51	-35.6	-36.5	23.0	0.00e+00	123	34	0	1241513984	44	5898
2026-01-08 23:09:10.48	48.85	43.48	-36.1	-37.1	22.6	0.00e+00	123	34	0	1254096896	44	6319
2026-01-08 23:09:14.52	46.77	43.40	-36.9	-37.9	21.9	0.00e+00	122	34	0	1266679808	46	6193
2026-01-08 23:09:18.56	44.70	43.28	-38.1	-39.3	20.5	0.00e+00	123	34	0	1279262720	48	6433
2026-01-08 23:09:22.60	42.65	43.12	-36.3	-37.3	22.3	0.00e+00	123	34	0	1291845632	46	5742
2026-01-08 23:09:26.64	40.63	42.92	-36.2	-37.2	22.4	0.00e+00	120	34	0	1304428544	44	6364
2026-01-08 23:09:30.68	38.63	42.69	-36.6	-37.7	21.8	0.00e+00	122	34	0	1317011456	46	6041
2026-01-08 23:09:34.72	36.66	42.41	-35.5	-36.4	23.2	0.00e+00	122	34	0	1329594368	44	5857
2026-01-08 23:09:38.75	34.73	42.11	-35.8	-36.8	22.7	0.00e+00	123	34	0	1342177280	44	6065
2026-01-08 23:09:42.79	32.84	41.76	-36.9	-38.0	21.8	0.00e+00	122	34	0	1354760192	46	6222
2026-01-08 23:09:46.83	30.99	41.39	-36.3	-37.3	22.5	0.00e+00	122	34	0	1367343104	46	5738
2026-01-08 23:09:50.86	29.19	40.99	-36.3	-37.3	22.4	0.00e+00	122	34	0	1379926016	46	5769
2026-01-08 23:09:54.89	27.43	40.56	-35.3	-36.3	23.0	0.00e+00	123	34	0	1392508928	44	5758
2026-01-08 23:09:58.93	25.72	40.11	-37.0	-38.1	21.3	0.00e+00	122	34	0	1405091840	46	6279
2026-01-08 23:10:02.97	24.05	39.63	-34.3	-35.1	24.2	0.00e+00	122	34	0	1417674752	42	5650
2026-01-08 23:10:07.00	22.44	39.14	-36.2	-37.2	22.5	0.00e+00	123	34	0	1430257664	44	6361
2026-01-08 23:10:11.05	20.87	38.62	-35.6	-36.6	22.7	0.00e+00	123	34	0	1443889152	44	5946
2026-01-08 23:10:15.09	19.36	38.09	-35.3	-36.3	22.9	0.00e+00	122	34	0	1456472064	44	5788
2026-01-08 23:10:19.12	17.90	37.55	-33.8	-34.7	24.1	0.00e+00	123	34	0	1469054976	40	6034
2026-01-08 23:10:23.16	16.48	37.00	-36.2	-37.3	22.2	0.00e+00	120	34	0	1481637888	44	6463
2026-01-08 23:10:27.20	15.11	36.43	-33.5	-34.4	24.7	0.00e+00	122	34	0	1494220800	40	5816
2026-01-08 23:10:31.24	13.79	35.86	-35.4	-36.4	23.1	0.00e+00	123	34	0	1506803712	42	6553
2026-01-08 23:10:35.28	12.52	35.28	-34.6	-35.5	23.5	0.00e+00	122	34	0	1519386624	42	5898
2026-01-08 23:10:39.32	11.29	34.70	-35.6	-36.5	23.1	0.00e+00	123	34	0	1531969536	42	6643
2026-01-08 23:10:43.36	10.10	34.11	-34.3	-35.2	24.1	0.00e+00	120	34	0	1544552448	42	5682
2026-01-08 23:10:47.39	8.96	33.52	-35.1	-36.0	23.4	0.00e+00	123	34	0	1557135360	42	6266
2026-01-08 23:10:51.43	7.86	32.93	-34.6	-35.5	24.0	0.00e+00	123	34	0	1569718272	42	5905
2026-01-08 23:10:55.46	6.80	32.34	-34.2	-35.1	24.2	0.00e+00	122	34	0	1582301184	42	5634
2026-01-08 23:10:59.50	5.77	31.75	-34.6	-35.6	23.7	0.00e+00	120	34	0	1594884096	42	5934
2026-01-08 23:11:03.53	4.79	31.16	-33.3	-34.1	24.7	0.00e+00	123	34	0	1607467008	40	5656
2026-01-08 23:11:07.57	3.84	30.58	-34.3	-35.3	23.9	0.00e+00	122	34	0	1620049920	40	6431
2026-01-08 23:11:11.61	2.92	30.00	-33.9	-34.8	24.4	0.00e+00	123	34	0	1632632832	40	6105
2026-01-08 23:11:15.64	2.04	29.42	-32.6	-33.4	25.4	0.00e+00	123	34	0	1645215744	38	5855
2026-01-08 23:11:19.68	1.19	28.84	-33.3	-34.1	24.9	0.00e+00	121	34	0	1657798656	38	6327
2026-01-08 23:11:23.72	0.36	28.27	-33.5	-34.4	24.6	0.00e+00	123	34	0	1670381568	38	6522
2026-01-08 23:11:27.76	359.57	27.71	-33.0	-33.9	24.9	0.00e+00	123	34	0	1682964480	38	6172
2026-01-08 23:11:31.80	358.80	27.15	-33.6	-34.5	24.5	0.00e+00	122	35	0	1695547392	38	6640
2026-01-08 23:11:35.83	358.07	26.60	-33.3	-34.2	24.7	0.00e+00	123	34	0	1708130304	40	5706
2026-01-08 23:11:39.87	357.35	26.05	-32.8	-33.7	25.2	0.00e+00	120	34	0	1720713216	40	5349
2026-01-08 23:11:43.91	356.66	25.51	-32.6	-33.5	25.2	0.00e+00	122	34	0	1733296128	38	5868
2026-01-08 23:11:47.95	356.00	24.97	-32.7	-33.6	25.1	0.00e+00	123	35	0	1745879040	38	5981
2026-01-08 23:11:51.99	355.36	24.45	-32.8	-33.6	24.9	0.00e+00	123	34	0	1758461952	38	5993
2026-01-08 23:11:56.02	354.74	23.93	-33.0	-33.9	24.9	0.00e+00	120	34	0	1771044864	38	6178
2026-01-08 23:12:00.06	354.14	23.41	-33.4	-34.4	24.6	0.00e+00	122	34	0	1783627776	38	6505
2026-01-08 23:12:04.10	353.56	22.90	-33.2	-34.1	24.7	0.00e+00	123	34	0	1796210688	38	6332
2026-01-08 23:12:08.13	352.99	22.40	-32.8	-33.7	25.2	0.00e+00	123	34	0	1809842176	38	6010
2026-01-08 23:12:12.16	352.45	21.91	-32.7	-33.6	25.2	0.00e+00	123	34	0	1821376512	38	5947
2026-01-08 23:12:16.20	351.93	21.42	-33.0	-33.9	25.0	0.00e+00	123	35	0	1835008000	38	6160
2026-01-08 23:12:20.24	351.42	20.94	-33.1	-34.0	24.9	0.00e+00	123	34	0	1847590912	38	6236
2026-01-08 23:12:24.28	350.92	20.47	-33.2	-34.1	24.6	0.00e+00	120	34	0	1860173824	38	6309
2026-01-08 23:12:28.32	350.44	20.00	-32.7	-33.6	25.0	0.00e+00	123	34	0	1872756736	38	5942
2026-01-08 23:12:32.35	349.98	19.54	-32.6	-33.5	25.2	0.00e+00	123	34	0	1885339648	38	5879
2026-01-08 23:12:36.39	349.53	19.09	-33.1	-34.0	24.8	0.00e+00	123	34	0	1897922560	38	6227
2026-01-08 23:12:40.43	349.09	18.64	-33.5	-34.4	24.6	0.00e+00	123	34	0	1910505472	38	6524
2026-01-08 23:12:44.47	348.67	18.19	-33.5	-34.4	24.5	0.00e+00	121	35	0	1923088384	38	6546
2026-01-08 23:12:48.51	348.26	17.76	-33.6	-34.4	24.4	0.00e+00	123	34	0	1935671296	38	6567
2026-01-08 23:12:52.55	347.86	17.33	-33.3	-34.2	24.7	0.00e+00	122	34	0	1948254208	38	6375
2026-01-08 23:12:56.59	347.47	16.91	-33.6	-34.4	24.3	0.00e+00	121	34	0	1960837120	38	6570
2026-01-08 23:13:00.62	347.10	16.49	-33.9	-34.9	24.1	0.00e+00	123	34	0	1973420032	40	6144
2026-01-08 23:13:04.66	346.73	16.08	-34.1	-35.1	23.9	0.00e+00	122	34	0	1986002944	40	6291
2026-01-08 23:13:08.70	346.38	15.67	-34.2	-35.1	23.8	0.00e+00	122	34	0	1998585856	40	6347
2026-01-08 23:13:12.73	346.03	15.27	-34.4	-35.3	23.8	0.00e+00	120	34	0	2011168768	40	6457
2026-01-08 23:13:16.77	345.70	14.88	-34.5	-35.4	23.5	0.00e+00	120	34	0	2023751680	40	6566
2026-01-08 23:13:20.81	345.37	14.49	-34.6	-35.6	23.4	0.00e+00	122	35	0	2036334592	40	6653
2026-01-08 23:13:24.84	345.05	14.10	-34.5	-35.5	23.4	0.00e+00	122	35	0	2048917504	40	6589
2026-01-08 23:13:28.88	344.74	13.72	-34.3	-35.2	23.6	0.00e+00	122	35	0	2061500416	40	6406
2026-01-08 23:13:32.91	344.44	13.35	-34.6	-35.6	23.4	0.00e+00	122	34	0	2074083328	40	6659
2026-01-08 23:13:36.95	344.15	12.98	-34.4	-35.4	23.6	0.00e+00	123	34	0	2086666240	40	6507
2026-01-08 23:13:40.99	343.86	12.61	-34.6	-35.6	23.4	0.00e+00	122	35	0	2099249152	40	6677
2026-01-08 23:13:45.03	343.58	12.25	-34.9	-35.8	23.2	0.00e+00	121	35	0	2111832064	42	6128
2026-01-08 23:13:49.07	343.31	11.90	-35.1	-36.1	22.9	0.00e+00	120	34	0	2124414976	42	6290
2026-01-08 23:13:53.10	343.05	11.55	-35.3	-36.4	22.7	0.00e+00	123	34	0	2136997888	42	6508
2026-01-08 23:13:57.14	342.79	11.20	-35.6	-36.7	22.4	0.00e+00	122	35	0	2149580800	42	6734
2026-01-08 23:14:01.18	342.54	10.86	-35.4	-36.4	22.6	0.00e+00	123	34	0	2162163712	44	5819
2026-01-08 23:14:05.21	342.29	10.52	-35.3	-36.3	22.6	0.00e+00	122	35	0	2174746624	44	5779
2026-01-08 23:14:09.25	342.05	10.18	-35.3	-36.3	22.5	0.00e+00	122	34	0	2187329536	44	5771
2026-01-08 23:14:13.29	341.82	9.85	-35.5	-36.5	22.3	0.00e+00	122	35	0	2199912448	44	5891
2026-01-08 23:14:17.32	341.59	9.53	-35.4	-36.4	22.4	0.00e+00	122	35	0	2212495360	44	5812
2026-01-08 23:14:21.36	341.37	9.20	-35.5	-36.5	22.4	0.00e+00	122	34	0	2225078272	44	5907
2026-01-08 23:14:25.40	341.15	8.88	-35.5	-36.5	22.4	0.00e+00	123	34	0	2238709760	44	5889
2026-01-08 23:14:29.44	340.94	8.57	-35.5	-36.5	22.3	0.00e+00	123	35	0	2251292672	44	5924
2026-01-08 23:14:33.47	340.73	8.26	-35.6	-36.6	22.3	0.00e+00	123	34	0	2263875584	44	5956
2026-01-08 23:14:37.51	340.53	7.95	-35.7	-36.8	22.1	0.00e+00	120	35	0	2276458496	44	6077
2026-01-08 23:14:41.55	340.33	7.64	-36.0	-37.1	21.9	0.00e+00	123	35	0	2289041408	44	6298
2026-01-08 23:14:45.58	340.13	7.34	-36.0	-37.0	21.9	0.00e+00	122	34	0	2301624320	44	6277
2026-01-08 23:14:49.62	339.94	7.04	-36.1	-37.1	21.7	0.00e+00	123	34	0	2314207232	44	6342
2026-01-08 23:14:53.66	339.76	6.75	-36.3	-37.4	21.4	0.00e+00	120	35	0	2326790144	44	6511
2026-01-08 23:14:57.70	339.58	6.45	-36.2	-37.3	21.4	0.00e+00	120	34	0	2339373056	44	6452
2026-01-08 23:15:01.74	339.40	6.16	-36.1	-37.2	21.4	0.00e+00	122	34	0	2351955968	44	6411
2026-01-08 23:15:05.78	339.22	5.88	-36.2	-37.3	21.3	0.00e+00	123	35	0	2364538880	44	6476
2026-01-08 23:15:09.81	339.05	5.59	-36.8	-37.9	20.5	0.00e+00	122	34	0	2377121792	46	6190
2026-01-08 23:15:13.85	338.89	5.31	-37.8	-39.1	19.1	0.00e+00	122	34	0	2389704704	48	6338
2026-01-08 23:15:17.89	338.72	5.03	-38.8	-40.5	16.9	0.00e+00	120	34	0	2402287616	50	6608
2026-01-08 23:15:21.92	338.56	4.76	-40.4	-42.8	13.8	7.00e-07	122	35	0	2414870528	52	7659
2026-01-08 23:15:25.95	338.41	4.49	-41.7	-45.4	10.5	3.22e-03	123	34	0	2427453440	54	9239
2026-01-08 23:15:29.99	338.26	4.22	-42.7	-48.5	6.3	2.20e-01	120	35	0	2440036352	56	11698
2026-01-08 23:15:34.03	338.10	3.95	-43.0	-53.1	4.0	1.48e+00	0	35	104	2442133504	58	17781
2026-01-08 23:15:38.06	337.96	3.68	-43.0	-55.6	3.5	1.51e+00	0	35	104	2442133504	58	23850
2026-01-08 23:15:42.10	337.81	3.42	-42.9	-55.6	3.5	1.52e+00	0	35	104	2442133504	58	23817
2026-01-08 23:15:46.13	337.67	3.16	-43.0	-55.7	3.5	1.52e+00	0	35	104	2442133504	58	24040
2026-01-08 23:15:50.17	337.53	2.90	-47.5	-60.3	3.5	1.52e+00	0	35	104	2442133504	60	36452
2026-01-08 23:15:54.21	337.40	2.64	-48.3	-61.2	3.5	1.52e+00	0	35	104	2442133504	60	40121
2026-01-08 23:15:58.25	337.26	2.39	-48.1	-61.3	3.5	1.52e+00	0	35	104	2442133504	60	40556
2026-01-08 23:16:02.29	337.13	2.13	-48.2	-61.1	3.5	1.52e+00	0	35	104	2442133504	60	39926
2026-01-08 23:16:06.33	337.00	1.88	-48.3	-61.1	3.6	1.52e+00	0	35	104	2442133504	60	40007
2026-01-08 23:16:10.36	336.88	1.64	-48.3	-61.1	3.5	1.52e+00	0	35	104	2442133504	60	39857
2026-01-08 23:16:14.41	336.76	1.39	-48.3	-61.2	3.5	1.52e+00	0	35	104	2442133504	60	40112
2026-01-08 23:16:18.44	336.63	1.14	-48.3	-61.1	3.5	1.52e+00	0	35	104	2442133504	60	39870
2026-01-08 23:16:22.47	336.52	0.90	-48.3	-61.1	3.5	1.52e+00	0	35	104	2442133504	60	39817
2026-01-08 23:16:26.51	336.40	0.66	-48.2	-61.1	3.5	1.51e+00	0	35	104	2442133504	60	39767
2026-01-08 23:16:30.55	336.28	0.42	-48.2	-61.1	3.5	1.52e+00	0	35	104	2442133504	60	39736
2026-01-08 23:16:34.59	336.17	0.18	-48.2	-61.0	3.5	1.52e+00	0	35	104	2442133504	60	39518
2026-01-08 23:16:38.62	336.06	-0.05	-48.2	-61.0	3.5	1.52e+00	0	35	104	2442133504	60	39541

#Closed at: 2026-01-08 23:16:39
#Recorded file [2442 MB]: D:/lorett/data/35029_260109_110138.dat