passes_logs/2026/01/08/R4.6S_Anadyr/R4.6S_Anadyr__20260108_233055_SUOMI_NPP_rec.log

#Pass ID: 20260108_233055_SUOMI NPP
#Satellite: SUOMI NPP
#Configuration: NPP
#almurnet v.1.7.20251203
#Start time: 2026-01-08 23:30:58

#Version: 2.2.20231116
#Station: R4.6S_Anadyr
#Location: 177.4865 lon 64.73178 lat
#TLE: 1 37849U 11061A   26008.05542337  .00000108  00000+0  71976-4 0  9997
#TLE: 2 37849  98.7805 310.1641 0002540  75.6410 284.5048 14.19523335735721

#Time	Az	El	Level	Level2	SNR	BER	BlckErr	Temp	State	Recorded	gain1	gain2
2026-01-08 23:30:58.54	137.17	0.20	-48.3	-62.0	3.3	1.54e+00	0	33	0	0	60	45708
2026-01-08 23:31:02.58	137.09	0.44	-48.4	-63.6	3.6	1.51e+00	0	33	104	0	60	54702
2026-01-08 23:31:06.62	137.02	0.69	-48.1	-63.4	3.6	1.51e+00	0	33	104	0	60	53214
2026-01-08 23:31:10.65	136.94	0.93	-47.3	-62.7	3.6	1.51e+00	0	33	104	0	60	49187
2026-01-08 23:31:14.69	136.86	1.18	-46.7	-61.9	3.6	1.51e+00	0	33	104	0	60	45034
2026-01-08 23:31:18.72	136.79	1.43	-46.7	-62.0	3.6	1.51e+00	0	34	104	0	60	45381
2026-01-08 23:31:22.77	136.70	1.69	-46.6	-61.6	3.6	1.51e+00	0	33	104	0	60	43610
2026-01-08 23:31:26.80	136.62	1.94	-46.6	-61.5	3.6	1.51e+00	0	34	104	0	60	42843
2026-01-08 23:31:30.85	136.54	2.20	-46.7	-61.9	3.6	1.51e+00	0	34	104	0	60	44943
2026-01-08 23:31:34.88	136.45	2.46	-46.6	-61.5	3.6	1.51e+00	0	34	104	0	60	42892
2026-01-08 23:31:38.93	136.36	2.72	-46.6	-60.3	3.6	1.51e+00	0	34	104	0	60	37404
2026-01-08 23:31:42.97	136.27	2.98	-46.6	-61.4	3.6	1.51e+00	0	34	104	0	60	42593
2026-01-08 23:31:47.01	136.18	3.25	-45.1	-50.1	10.5	1.72e-02	92	34	0	3145728	60	11518
2026-01-08 23:31:51.05	136.09	3.52	-41.9	-44.1	16.7	0.00e+00	92	34	0	10485760	58	6503
2026-01-08 23:31:55.09	135.99	3.79	-39.4	-40.8	18.7	1.46e+00	0	34	104	15728640	52	6251
2026-01-08 23:31:59.13	135.90	4.07	-40.7	-42.4	18.5	1.56e-04	81	34	0	17825792	56	5975
2026-01-08 23:32:03.17	135.80	4.34	-38.7	-39.9	20.6	0.00e+00	83	34	0	25165824	50	6390
2026-01-08 23:32:07.20	135.69	4.62	-38.3	-39.4	21.1	0.00e+00	92	34	0	32505856	50	6011
2026-01-08 23:32:11.24	135.59	4.91	-38.1	-39.3	21.3	0.00e+00	0	34	0	40894464	50	5915
2026-01-08 23:32:15.27	135.49	5.19	-38.0	-39.1	21.5	0.00e+00	92	34	0	48234496	50	5810
2026-01-08 23:32:19.31	135.38	5.48	-37.8	-38.8	21.8	0.00e+00	92	34	0	55574528	50	5608
2026-01-08 23:32:23.34	135.27	5.77	-37.6	-38.6	22.1	0.00e+00	30	34	0	62914560	48	6136
2026-01-08 23:32:27.38	135.15	6.07	-37.8	-38.9	21.9	0.00e+00	0	34	0	70254592	48	6323
2026-01-08 23:32:31.42	135.04	6.36	-37.5	-38.6	22.1	0.00e+00	91	34	0	78643200	48	6127
2026-01-08 23:32:35.46	134.92	6.67	-37.5	-38.5	22.2	0.00e+00	91	34	0	85983232	48	6084
2026-01-08 23:32:39.50	134.80	6.97	-37.2	-38.2	22.6	0.00e+00	0	34	0	93323264	48	5852
2026-01-08 23:32:43.53	134.67	7.28	-37.3	-38.3	22.4	0.00e+00	0	34	0	100663296	48	5920
2026-01-08 23:32:47.57	134.55	7.59	-37.3	-38.3	22.3	0.00e+00	90	34	0	109051904	48	5960
2026-01-08 23:32:51.60	134.42	7.91	-37.4	-38.5	22.3	0.00e+00	92	34	0	116391936	48	6063
2026-01-08 23:32:55.64	134.28	8.23	-37.8	-38.9	22.1	0.00e+00	0	34	0	123731968	48	6352
2026-01-08 23:32:59.68	134.15	8.55	-37.1	-38.1	22.7	0.00e+00	92	34	0	131072000	48	5820
2026-01-08 23:33:03.71	134.01	8.88	-37.3	-38.3	22.6	0.00e+00	92	34	0	138412032	48	5901
2026-01-08 23:33:07.74	133.86	9.21	-37.2	-38.2	22.7	0.00e+00	92	34	0	146800640	48	5843
2026-01-08 23:33:11.77	133.72	9.54	-37.0	-37.9	22.9	0.00e+00	0	34	0	154140672	48	5683
2026-01-08 23:33:15.81	133.57	9.89	-37.2	-38.2	22.7	0.00e+00	92	34	0	161480704	48	5874
2026-01-08 23:33:19.85	133.41	10.23	-36.8	-37.7	23.1	0.00e+00	91	34	0	168820736	46	6228
2026-01-08 23:33:23.88	133.25	10.58	-36.8	-37.7	23.1	0.00e+00	0	34	0	176160768	46	6214
2026-01-08 23:33:27.92	133.09	10.93	-36.5	-37.4	23.3	0.00e+00	0	34	0	184549376	46	6016
2026-01-08 23:33:31.96	132.92	11.29	-36.4	-37.3	23.5	0.00e+00	64	34	0	191889408	46	5903
2026-01-08 23:33:36.00	132.75	11.66	-36.2	-37.1	23.7	0.00e+00	92	34	0	199229440	46	5772
2026-01-08 23:33:40.03	132.58	12.03	-36.1	-37.0	23.6	0.00e+00	0	34	0	206569472	46	5732
2026-01-08 23:33:44.07	132.40	12.40	-36.0	-36.9	23.8	0.00e+00	15	34	0	214958080	46	5653
2026-01-08 23:33:48.11	132.21	12.78	-36.1	-37.0	23.7	0.00e+00	92	34	0	222298112	46	5697
2026-01-08 23:33:52.14	132.02	13.17	-36.0	-36.8	23.9	0.00e+00	90	34	0	229638144	46	5623
2026-01-08 23:33:56.18	131.82	13.56	-35.9	-36.8	23.9	0.00e+00	0	34	0	236978176	44	6247
2026-01-08 23:34:00.22	131.62	13.96	-35.9	-36.7	23.9	0.00e+00	92	34	0	244318208	44	6223
2026-01-08 23:34:04.25	131.41	14.37	-36.0	-36.9	23.8	0.00e+00	92	34	0	252706816	44	6337
2026-01-08 23:34:08.29	131.20	14.78	-35.9	-36.7	24.1	0.00e+00	0	34	0	260046848	44	6239
2026-01-08 23:34:12.33	130.98	15.19	-35.9	-36.8	24.0	0.00e+00	0	34	0	267386880	44	6273
2026-01-08 23:34:16.36	130.75	15.62	-35.9	-36.7	24.0	0.00e+00	92	34	0	274726912	44	6215
2026-01-08 23:34:20.39	130.52	16.05	-35.8	-36.6	24.1	0.00e+00	92	34	0	282066944	44	6140
2026-01-08 23:34:24.43	130.28	16.49	-35.8	-36.6	24.1	0.00e+00	0	34	0	290455552	44	6169
2026-01-08 23:34:28.46	130.03	16.93	-35.9	-36.7	24.1	0.00e+00	22	34	0	297795584	44	6225
2026-01-08 23:34:32.50	129.77	17.39	-35.7	-36.5	24.2	0.00e+00	92	34	0	305135616	44	6073
2026-01-08 23:34:36.54	129.51	17.85	-35.8	-36.7	24.0	0.00e+00	91	34	0	312475648	44	6209
2026-01-08 23:34:40.58	129.23	18.32	-36.4	-37.3	23.6	0.00e+00	0	34	0	320864256	44	6675
2026-01-08 23:34:44.61	128.95	18.80	-35.9	-36.8	24.1	0.00e+00	92	34	0	328204288	44	6249
2026-01-08 23:34:48.65	128.66	19.29	-36.0	-36.8	24.0	0.00e+00	71	34	0	335544320	44	6277
2026-01-08 23:34:52.69	128.36	19.78	-36.1	-37.0	23.9	0.00e+00	92	34	0	342884352	44	6394
2026-01-08 23:34:56.72	128.05	20.29	-36.4	-37.2	23.6	0.00e+00	0	34	0	350224384	44	6596
2026-01-08 23:35:00.76	127.72	20.80	-36.7	-37.6	23.7	0.00e+00	92	34	0	358612992	46	6124
2026-01-08 23:35:04.80	127.39	21.32	-37.0	-38.0	23.2	0.00e+00	92	34	0	365953024	46	6415
2026-01-08 23:35:08.83	127.04	21.86	-37.0	-37.9	23.2	0.00e+00	0	34	0	373293056	46	6375
2026-01-08 23:35:12.87	126.68	22.40	-37.4	-38.3	23.0	0.00e+00	0	34	0	380633088	48	5957
2026-01-08 23:35:16.91	126.31	22.96	-37.1	-38.0	23.3	0.00e+00	90	34	0	389021696	48	5732
2026-01-08 23:35:20.95	125.92	23.52	-36.9	-37.8	23.4	0.00e+00	90	34	0	396361728	46	6296
2026-01-08 23:35:24.98	125.52	24.10	-38.0	-39.0	22.4	0.00e+00	0	34	0	403701760	48	6451
2026-01-08 23:35:29.02	125.10	24.69	-38.0	-39.0	22.5	0.00e+00	27	34	0	411041792	48	6430
2026-01-08 23:35:32.96	124.68	25.27	-37.9	-38.9	22.5	0.00e+00	44	34	0	418381824	48	6373
2026-01-08 23:35:37.00	124.23	25.88	-37.1	-38.0	23.3	0.00e+00	92	34	0	426770432	48	5726
2026-01-08 23:35:41.04	123.76	26.51	-38.2	-39.3	22.0	0.00e+00	14	34	0	434110464	48	6619
2026-01-08 23:35:45.08	123.27	27.15	-37.8	-38.7	22.7	0.00e+00	88	34	0	441450496	48	6239
2026-01-08 23:35:49.12	122.76	27.79	-37.7	-38.6	22.9	0.00e+00	90	35	0	448790528	48	6141
2026-01-08 23:35:53.16	122.23	28.46	-37.2	-38.1	23.3	0.00e+00	0	35	0	456130560	48	5799
2026-01-08 23:35:57.20	121.68	29.13	-37.9	-38.8	22.9	0.00e+00	0	34	0	464519168	48	6284
2026-01-08 23:36:01.23	121.10	29.82	-37.7	-38.6	22.8	0.00e+00	92	34	0	471859200	48	6156
2026-01-08 23:36:05.27	120.49	30.52	-39.1	-40.2	21.7	0.00e+00	92	35	0	479199232	50	6559
2026-01-08 23:36:09.30	119.86	31.23	-39.0	-40.1	21.7	0.00e+00	0	34	0	486539264	50	6515
2026-01-08 23:36:13.34	119.20	31.96	-39.0	-40.1	21.7	0.00e+00	0	35	0	494927872	50	6528
2026-01-08 23:36:17.37	118.51	32.70	-39.8	-41.1	20.8	0.00e+00	90	34	0	502267904	52	6470
2026-01-08 23:36:21.41	117.79	33.46	-39.8	-41.0	21.0	0.00e+00	91	35	0	509607936	52	6419
2026-01-08 23:36:25.45	117.03	34.23	-41.0	-42.4	19.7	0.00e+00	0	35	0	516947968	54	6708
2026-01-08 23:36:29.48	116.23	35.01	-40.9	-42.3	19.9	0.00e+00	59	35	0	524288000	56	5929
2026-01-08 23:36:33.52	115.39	35.80	-39.7	-40.8	20.7	0.00e+00	90	35	0	532676608	52	6293
2026-01-08 23:36:37.56	114.51	36.61	-38.2	-39.2	22.5	0.00e+00	92	34	0	540016640	50	5855
2026-01-08 23:36:41.59	113.59	37.43	-38.1	-39.1	22.5	0.00e+00	0	35	0	547356672	48	6472
2026-01-08 23:36:45.63	112.61	38.26	-39.2	-40.3	21.3	0.00e+00	92	35	0	554696704	50	6665
2026-01-08 23:36:49.67	111.58	39.10	-39.6	-40.7	21.2	0.00e+00	92	35	0	563085312	52	6222
2026-01-08 23:36:53.70	110.50	39.95	-41.2	-42.7	19.6	0.00e+00	0	35	0	570425344	54	6962
2026-01-08 23:36:57.74	109.36	40.81	-39.5	-40.8	21.1	0.00e+00	0	35	0	577765376	52	6257
2026-01-08 23:37:01.78	108.16	41.68	-39.8	-41.1	20.9	0.00e+00	92	35	0	585105408	54	5796
2026-01-08 23:37:05.82	106.88	42.55	-37.9	-38.8	22.7	0.00e+00	91	35	0	592445440	50	5611
2026-01-08 23:37:09.85	105.54	43.43	-38.6	-39.6	22.1	0.00e+00	0	34	0	600834048	50	6147
2026-01-08 23:37:13.88	104.13	44.30	-40.3	-41.5	20.5	0.00e+00	30	35	0	608174080	52	6833
2026-01-08 23:37:17.92	102.63	45.18	-40.2	-41.5	20.5	0.00e+00	46	35	0	615514112	54	6057
2026-01-08 23:37:21.96	101.04	46.05	-39.1	-40.2	21.6	0.00e+00	92	35	0	622854144	52	5850
2026-01-08 23:37:26.00	99.37	46.91	-38.0	-39.0	22.7	0.00e+00	0	35	0	631242752	48	6391
2026-01-08 23:37:30.03	97.60	47.77	-39.2	-40.3	21.2	0.00e+00	15	35	0	638582784	50	6675
2026-01-08 23:37:34.06	95.73	48.60	-38.3	-39.3	22.4	0.00e+00	24	35	0	645922816	50	5927
2026-01-08 23:37:38.10	93.76	49.42	-37.4	-38.4	23.2	0.00e+00	80	35	0	653262848	48	6032
2026-01-08 23:37:42.13	91.68	50.22	-36.3	-37.1	23.8	0.00e+00	0	35	0	660602880	44	6488
2026-01-08 23:37:46.17	89.49	50.98	-35.5	-36.3	24.4	0.00e+00	92	35	0	668991488	44	5897
2026-01-08 23:37:50.21	87.19	51.71	-37.2	-38.1	23.4	0.00e+00	90	35	0	676331520	46	6539
2026-01-08 23:37:54.24	84.77	52.40	-37.2	-38.2	23.1	0.00e+00	0	35	0	683671552	46	6570
2026-01-08 23:37:58.28	82.24	53.05	-36.2	-37.0	24.1	0.00e+00	9	34	0	691011584	46	5726
2026-01-08 23:38:02.32	79.60	53.64	-35.9	-36.7	24.2	0.00e+00	92	35	0	699400192	44	6219
2026-01-08 23:38:06.36	76.86	54.18	-36.8	-37.8	23.6	0.00e+00	91	35	0	706740224	46	6248
2026-01-08 23:38:10.39	74.03	54.65	-36.4	-37.2	24.0	0.00e+00	0	35	0	714080256	46	5852
2026-01-08 23:38:14.42	71.10	55.05	-35.6	-36.4	24.5	0.00e+00	0	34	0	721420288	46	5344
2026-01-08 23:38:18.45	68.10	55.37	-33.8	-34.5	25.7	0.00e+00	92	35	0	728760320	40	6095
2026-01-08 23:38:22.48	65.04	55.62	-34.4	-35.1	25.4	0.00e+00	0	34	0	737148928	42	5804
2026-01-08 23:38:26.52	61.93	55.79	-34.0	-34.8	25.5	0.00e+00	0	35	0	744488960	40	6251
2026-01-08 23:38:30.55	58.79	55.88	-34.1	-34.8	25.5	0.00e+00	92	35	0	751828992	42	5602
2026-01-08 23:38:34.59	55.64	55.88	-34.4	-35.2	25.3	0.00e+00	89	35	0	759169024	42	5857
2026-01-08 23:38:38.63	52.50	55.79	-34.8	-35.5	25.1	0.00e+00	0	35	0	766509056	42	6098
2026-01-08 23:38:42.66	49.39	55.62	-34.2	-34.9	25.5	0.00e+00	0	35	0	774897664	42	5669
2026-01-08 23:38:46.70	46.33	55.37	-33.2	-33.9	26.0	0.00e+00	81	35	0	782237696	38	6376
2026-01-08 23:38:50.74	43.32	55.05	-33.1	-33.8	26.3	0.00e+00	92	35	0	789577728	38	6279
2026-01-08 23:38:54.78	40.39	54.64	-33.8	-34.5	25.8	0.00e+00	0	35	0	796917760	40	6073
2026-01-08 23:38:58.81	37.56	54.18	-34.4	-35.1	25.4	0.00e+00	0	34	0	804257792	42	5799
2026-01-08 23:39:02.85	34.82	53.64	-36.4	-37.2	23.9	0.00e+00	92	35	0	812646400	44	6596
2026-01-08 23:39:06.89	32.18	53.05	-36.4	-37.2	24.0	0.00e+00	0	35	0	819986432	46	5865
2026-01-08 23:39:10.93	29.66	52.41	-36.5	-37.3	24.0	0.00e+00	0	35	0	827326464	46	5947
2026-01-08 23:39:14.96	27.25	51.72	-37.8	-38.8	22.9	0.00e+00	31	35	0	834666496	48	6273
2026-01-08 23:39:19.00	24.95	50.99	-35.2	-36.0	24.7	0.00e+00	24	35	0	843055104	44	5711
2026-01-08 23:39:23.03	22.77	50.22	-36.4	-37.2	23.7	0.00e+00	0	35	0	850395136	44	6592
2026-01-08 23:39:27.07	20.69	49.43	-38.2	-39.2	22.4	0.00e+00	0	35	0	857735168	48	6603
2026-01-08 23:39:31.11	18.72	48.61	-39.0	-40.1	21.7	0.00e+00	73	35	0	865075200	50	6478
2026-01-08 23:39:35.15	16.85	47.78	-40.4	-41.7	20.3	0.00e+00	92	35	0	872415232	54	6218
2026-01-08 23:39:39.19	15.09	46.93	-38.5	-39.5	22.3	0.00e+00	0	35	0	880803840	50	6053
2026-01-08 23:39:43.23	13.41	46.06	-38.4	-39.3	22.5	0.00e+00	0	35	0	888143872	50	5954
2026-01-08 23:39:47.27	11.83	45.19	-40.6	-42.1	19.9	0.00e+00	90	35	0	895483904	52	7284
2026-01-08 23:39:51.31	10.34	44.32	-39.3	-40.5	21.5	0.00e+00	92	35	0	902823936	52	6046
2026-01-08 23:39:55.34	8.92	43.45	-38.6	-39.6	22.2	0.00e+00	0	35	0	911212544	50	6130
2026-01-08 23:39:59.38	7.58	42.58	-37.3	-38.2	23.0	0.00e+00	25	35	0	918552576	46	6584
2026-01-08 23:40:03.41	6.32	41.71	-40.2	-41.6	20.2	0.00e+00	80	35	0	925892608	52	6876
2026-01-08 23:40:07.45	5.12	40.84	-39.4	-40.5	21.4	0.00e+00	0	35	0	933232640	52	6091
2026-01-08 23:40:11.49	3.98	39.99	-39.9	-41.1	20.8	0.00e+00	0	35	0	940572672	52	6515
2026-01-08 23:40:15.53	2.90	39.14	-40.0	-41.2	21.1	0.00e+00	76	35	0	948961280	52	6581
2026-01-08 23:40:19.57	1.87	38.30	-40.0	-41.3	20.6	0.00e+00	91	35	0	956301312	54	5957
2026-01-08 23:40:23.60	0.90	37.47	-37.9	-38.8	22.7	0.00e+00	0	35	0	963641344	50	5605
2026-01-08 23:40:27.64	359.98	36.65	-39.2	-40.3	21.5	0.00e+00	0	35	0	970981376	50	6632
2026-01-08 23:40:31.68	359.10	35.85	-38.5	-39.6	22.2	0.00e+00	29	35	0	979369984	50	6111
2026-01-08 23:40:35.71	358.27	35.06	-40.5	-41.9	20.2	0.00e+00	68	35	0	986710016	52	7122
2026-01-08 23:40:39.75	357.47	34.28	-39.3	-40.5	21.8	0.00e+00	0	35	0	994050048	52	6045
2026-01-08 23:40:43.78	356.72	33.51	-40.1	-41.5	20.5	0.00e+00	0	35	0	1001390080	52	6808
2026-01-08 23:40:47.82	355.99	32.76	-39.3	-40.5	21.3	0.00e+00	6	35	0	1008730112	52	6099
2026-01-08 23:40:51.86	355.30	32.02	-37.5	-38.4	23.0	0.00e+00	0	35	0	1017118720	48	6008
2026-01-08 23:40:55.90	354.64	31.29	-39.6	-40.9	20.8	0.00e+00	0	35	0	1024458752	50	7122
2026-01-08 23:40:59.93	354.02	30.58	-37.5	-38.4	23.0	0.00e+00	85	35	0	1031798784	48	6018
2026-01-08 23:41:03.96	353.41	29.89	-37.9	-38.8	22.8	0.00e+00	0	35	0	1039138816	48	6295
2026-01-08 23:41:08.00	352.84	29.20	-36.8	-37.7	23.6	0.00e+00	0	35	0	1046478848	46	6174
2026-01-08 23:41:12.03	352.29	28.53	-38.6	-39.7	22.1	0.00e+00	0	35	0	1054867456	50	6197
2026-01-08 23:41:16.07	351.76	27.87	-38.1	-39.1	22.4	0.00e+00	83	35	0	1062207488	50	5809
2026-01-08 23:41:20.11	351.25	27.22	-38.1	-39.2	22.5	0.00e+00	0	35	0	1069547520	50	5862
2026-01-08 23:41:24.14	350.77	26.59	-37.3	-38.2	23.1	0.00e+00	0	35	0	1076887552	48	5864
2026-01-08 23:41:28.18	350.30	25.97	-38.2	-39.3	22.2	0.00e+00	17	35	0	1085276160	48	6651
2026-01-08 23:41:32.22	349.85	25.36	-38.9	-40.1	21.6	0.00e+00	92	35	0	1092616192	50	6476
2026-01-08 23:41:36.26	349.42	24.76	-38.9	-40.0	21.6	0.00e+00	0	35	0	1099956224	50	6462
2026-01-08 23:41:40.29	349.01	24.18	-38.7	-39.8	21.9	0.00e+00	0	35	0	1107296256	50	6255
2026-01-08 23:41:44.33	348.61	23.60	-38.3	-39.3	22.3	0.00e+00	70	35	0	1114636288	50	5907
2026-01-08 23:41:48.36	348.22	23.04	-38.6	-39.7	21.8	0.00e+00	70	35	0	1123024896	50	6205
2026-01-08 23:41:52.40	347.85	22.48	-37.7	-38.6	22.7	0.00e+00	0	35	0	1130364928	48	6170
2026-01-08 23:41:56.43	347.49	21.94	-36.9	-37.8	23.4	0.00e+00	0	35	0	1137704960	48	5570
2026-01-08 23:42:00.46	347.15	21.41	-37.8	-38.8	22.6	0.00e+00	20	35	0	1145044992	48	6303
2026-01-08 23:42:04.50	346.82	20.89	-39.4	-40.7	21.0	0.00e+00	0	35	0	1153433600	50	6975
2026-01-08 23:42:08.53	346.50	20.38	-39.4	-40.7	20.9	0.00e+00	0	35	0	1160773632	52	6179
2026-01-08 23:42:12.56	346.19	19.87	-38.4	-39.4	22.1	0.00e+00	0	35	0	1168113664	50	6013
2026-01-08 23:42:16.60	345.89	19.38	-37.7	-38.7	22.6	0.00e+00	92	35	0	1175453696	48	6182
2026-01-08 23:42:20.64	345.60	18.89	-36.7	-37.6	23.5	0.00e+00	0	35	0	1182793728	46	6123
2026-01-08 23:42:24.67	345.32	18.42	-36.2	-37.0	23.9	0.00e+00	0	35	0	1191182336	46	5732
2026-01-08 23:42:28.71	345.05	17.95	-36.0	-36.9	24.0	0.00e+00	21	35	0	1198522368	46	5637
2026-01-08 23:42:32.74	344.79	17.49	-36.7	-37.6	23.5	0.00e+00	37	35	0	1205862400	46	6144
2026-01-08 23:42:36.78	344.53	17.04	-37.7	-38.7	22.6	0.00e+00	6	35	0	1213202432	46	6999
2026-01-08 23:42:40.81	344.29	16.59	-37.9	-39.0	22.3	0.00e+00	9	35	0	1220542464	48	6395
2026-01-08 23:42:44.85	344.05	16.15	-38.1	-39.2	22.0	0.00e+00	59	35	0	1228931072	48	6561
2026-01-08 23:42:48.89	343.82	15.72	-38.6	-39.8	21.7	0.00e+00	0	35	0	1236271104	48	7013
2026-01-08 23:42:52.92	343.59	15.30	-38.9	-40.0	21.2	0.00e+00	0	35	0	1243611136	50	6435
2026-01-08 23:42:56.96	343.37	14.88	-39.2	-40.3	21.1	0.00e+00	0	35	0	1250951168	50	6688
2026-01-08 23:43:01.00	343.16	14.47	-38.6	-39.7	21.6	0.00e+00	92	35	0	1259339776	50	6236
2026-01-08 23:43:05.03	342.96	14.07	-38.1	-39.2	22.1	0.00e+00	0	35	0	1266679808	50	5831
2026-01-08 23:43:09.07	342.76	13.67	-37.7	-38.7	22.5	0.00e+00	0	35	0	1274019840	48	6221
2026-01-08 23:43:13.11	342.56	13.28	-37.8	-38.9	22.2	0.00e+00	0	35	0	1281359872	48	6328
2026-01-08 23:43:17.15	342.38	12.90	-38.1	-39.1	22.0	0.00e+00	92	35	0	1288699904	48	6524
2026-01-08 23:43:21.18	342.19	12.52	-38.5	-39.6	21.7	0.00e+00	0	35	0	1297088512	48	6899
2026-01-08 23:43:25.22	342.01	12.14	-38.4	-39.6	21.7	0.00e+00	0	35	0	1304428544	48	6856
2026-01-08 23:43:29.25	341.84	11.77	-38.5	-39.6	21.7	0.00e+00	17	35	0	1311768576	48	6858
2026-01-08 23:43:33.29	341.67	11.41	-38.5	-39.7	21.5	0.00e+00	90	35	0	1319108608	48	6946
2026-01-08 23:43:37.33	341.51	11.05	-38.7	-39.9	21.1	0.00e+00	0	35	0	1327497216	50	6323
2026-01-08 23:43:41.36	341.35	10.70	-39.0	-40.1	21.1	0.00e+00	0	35	0	1334837248	50	6530
2026-01-08 23:43:45.40	341.19	10.35	-39.2	-40.4	20.9	0.00e+00	16	35	0	1342177280	50	6743
2026-01-08 23:43:49.44	341.04	10.01	-38.8	-40.0	21.2	0.00e+00	0	35	0	1349517312	50	6429
2026-01-08 23:43:53.48	340.89	9.67	-39.0	-40.3	21.0	0.00e+00	0	35	0	1356857344	50	6620
2026-01-08 23:43:57.51	340.75	9.33	-39.5	-40.8	20.5	0.00e+00	0	35	0	1365245952	50	7026
2026-01-08 23:44:01.55	340.61	9.00	-39.5	-40.8	20.4	0.00e+00	37	35	0	1372585984	50	7038
2026-01-08 23:44:05.58	340.47	8.67	-39.9	-41.3	20.1	0.00e+00	0	35	0	1379926016	52	6692
2026-01-08 23:44:09.62	340.34	8.35	-40.0	-41.4	19.8	0.00e+00	0	35	0	1387266048	52	6768
2026-01-08 23:44:13.66	340.21	8.03	-40.2	-41.7	19.7	0.00e+00	0	35	0	1394606080	52	6933
2026-01-08 23:44:17.70	340.08	7.72	-40.3	-41.8	19.4	0.00e+00	92	35	0	1402994688	52	7014
2026-01-08 23:44:21.73	339.96	7.40	-40.2	-41.7	19.4	0.00e+00	0	35	0	1410334720	52	6947
2026-01-08 23:44:25.77	339.84	7.10	-40.5	-42.0	19.1	0.00e+00	0	35	0	1417674752	52	7244
2026-01-08 23:44:29.81	339.72	6.79	-40.5	-42.0	19.2	0.00e+00	49	35	0	1425014784	52	7201
2026-01-08 23:44:33.85	339.61	6.49	-40.6	-42.2	18.9	0.00e+00	0	35	0	1433403392	52	7391
2026-01-08 23:44:37.88	339.49	6.19	-40.8	-42.5	18.6	0.00e+00	0	35	0	1440743424	54	6803
2026-01-08 23:44:41.91	339.38	5.90	-40.3	-41.9	18.9	0.00e+00	0	35	0	1448083456	54	6344
2026-01-08 23:44:45.95	339.28	5.61	-40.5	-42.2	18.4	0.00e+00	18	35	0	1455423488	54	6540
2026-01-08 23:44:49.98	339.17	5.32	-41.2	-43.3	17.0	0.00e+00	0	35	0	1462763520	54	7432
2026-01-08 23:44:54.01	339.07	5.04	-41.9	-44.7	14.9	0.00e+00	0	34	0	1471152128	56	7774
2026-01-08 23:44:58.04	338.97	4.75	-42.6	-46.8	11.7	3.78e-04	0	35	0	1478492160	56	9985
2026-01-08 23:45:02.07	338.87	4.48	-43.1	-49.6	7.5	6.66e-02	79	35	0	1485832192	58	12287
2026-01-08 23:45:06.11	338.77	4.20	-43.2	-52.2	4.5	6.42e-01	0	35	0	1493172224	58	16579
2026-01-08 23:45:10.15	338.68	3.93	-43.2	-56.2	3.7	1.49e+00	0	35	104	1496317952	58	26065
2026-01-08 23:45:14.18	338.59	3.65	-43.1	-57.5	3.6	1.51e+00	0	35	104	1496317952	58	30582
2026-01-08 23:45:18.22	338.50	3.39	-43.2	-58.2	3.6	1.51e+00	0	35	104	1496317952	58	32780
2026-01-08 23:45:22.25	338.41	3.12	-43.2	-58.2	3.6	1.51e+00	0	34	104	1496317952	58	33033
2026-01-08 23:45:26.29	338.33	2.86	-47.6	-62.8	3.6	1.51e+00	0	35	104	1496317952	60	49976
2026-01-08 23:45:30.33	338.24	2.59	-48.3	-63.5	3.6	1.51e+00	0	35	104	1496317952	60	54244
2026-01-08 23:45:34.37	338.16	2.34	-48.2	-63.6	3.5	1.51e+00	0	35	104	1496317952	60	54694
2026-01-08 23:45:38.41	338.08	2.08	-48.2	-63.5	3.6	1.51e+00	0	35	104	1496317952	60	54238
2026-01-08 23:45:42.45	338.00	1.82	-48.4	-63.6	3.6	1.51e+00	0	35	104	1496317952	60	54564
2026-01-08 23:45:46.49	337.92	1.57	-48.3	-63.5	3.6	1.51e+00	0	35	104	1496317952	60	54395
2026-01-08 23:45:50.53	337.85	1.32	-48.3	-63.5	3.6	1.51e+00	0	35	104	1496317952	60	54169
2026-01-08 23:45:54.57	337.77	1.07	-48.3	-63.5	3.6	1.51e+00	0	35	104	1496317952	60	54007
2026-01-08 23:45:58.61	337.70	0.83	-48.3	-63.5	3.6	1.51e+00	0	35	104	1496317952	60	54232
2026-01-08 23:46:02.65	337.63	0.58	-48.3	-63.5	3.6	1.51e+00	0	35	104	1496317952	60	53949
2026-01-08 23:46:06.68	337.56	0.34	-48.3	-63.5	3.6	1.51e+00	0	35	104	1496317952	60	53881
2026-01-08 23:46:10.72	337.49	0.10	-48.3	-63.5	3.6	1.51e+00	0	35	104	1496317952	60	53933
2026-01-08 23:46:14.76	337.42	-0.14	-48.3	-63.5	3.6	1.51e+00	0	35	104	1496317952	60	53878

#Closed at: 2026-01-08 23:46:15
#Recorded file [1496 MB]: D:/lorett/data/35029_260109_113058.dat