passes_logs/2026/01/08/R4.6S_Anadyr/R4.6S_Anadyr__20260108_155558_AQUA_rec.log

#Pass ID: 20260108_155558_AQUA
#Satellite: AQUA
#Configuration: AQUA
#almurnet v.1.7.20251203
#Start time: 2026-01-08 15:56:01

#Version: 2.2.20231116
#Station: R4.6S_Anadyr
#Location: 177.4865 lon 64.73178 lat
#TLE: 1 27424U 02022A   26004.96787593  .00001598  00000+0  32997-3 0  9996
#TLE: 2 27424  98.4069 331.2279 0002002  90.2377   0.6092 14.61798176259425

#Time	Az	El	Level	Level2	SNR	BER	BlckErr	Temp	State	Recorded	gain1	gain2
2026-01-08 15:56:01.43	19.62	0.20	-48.8	-65.2	3.3	3.02e+01	0	30	0	0	60	69820
2026-01-08 15:56:05.47	19.70	0.45	-48.7	-66.8	3.5	3.02e+01	0	31	104	0	60	83935
2026-01-08 15:56:09.51	19.79	0.70	-48.4	-66.5	3.5	3.02e+01	0	31	104	0	60	81089
2026-01-08 15:56:13.55	19.87	0.95	-47.8	-65.6	3.5	3.02e+01	0	31	104	0	60	72981
2026-01-08 15:56:17.59	19.95	1.21	-47.5	-65.2	3.5	3.02e+01	0	31	104	0	60	70383
2026-01-08 15:56:21.63	20.04	1.47	-47.4	-65.1	3.5	3.02e+01	0	31	104	0	60	68856
2026-01-08 15:56:25.67	20.13	1.73	-47.4	-65.2	3.5	3.02e+01	0	31	104	0	60	69695
2026-01-08 15:56:29.71	20.22	1.99	-47.4	-64.9	3.5	3.02e+01	0	31	104	0	60	67838
2026-01-08 15:56:33.75	20.31	2.25	-47.4	-64.8	3.5	3.02e+01	0	31	104	0	60	66723
2026-01-08 15:56:37.78	20.40	2.52	-47.2	-58.9	5.6	3.02e+01	0	31	0	0	60	33747
2026-01-08 15:56:41.81	20.49	2.79	-46.8	-55.2	8.8	3.02e+01	59	31	0	4718592	60	22220
2026-01-08 15:56:45.85	20.59	3.07	-42.0	-44.4	20.5	3.02e+01	60	31	0	12582912	60	6406
2026-01-08 15:56:49.89	20.68	3.34	-38.7	-40.4	24.4	3.02e+01	57	31	0	19922944	52	6353
2026-01-08 15:56:53.93	20.78	3.62	-40.5	-42.5	22.1	3.02e+01	58	31	0	27262976	54	7236
2026-01-08 15:56:57.96	20.88	3.90	-45.3	-58.6	3.5	3.02e+01	0	31	104	27787264	60	32885
2026-01-08 15:57:02.00	20.98	4.19	-41.8	-52.8	3.4	3.02e+01	0	31	104	27787264	60	16892
2026-01-08 15:57:06.04	21.09	4.48	-44.9	-57.6	3.5	3.02e+01	0	31	104	27787264	60	29054
2026-01-08 15:57:10.08	21.19	4.77	-47.5	-64.3	3.5	3.02e+01	0	31	104	27787264	60	63302
2026-01-08 15:57:14.12	21.30	5.07	-37.7	-48.0	4.1	3.02e+01	0	31	104	27787264	50	17243
2026-01-08 15:57:18.15	21.41	5.37	-40.7	-51.5	3.5	3.02e+01	0	31	104	27787264	56	18167
2026-01-08 15:57:22.19	21.52	5.67	-38.0	-48.5	3.5	3.02e+01	0	31	104	27787264	52	16258
2026-01-08 15:57:26.23	21.63	5.98	-47.6	-65.2	3.5	3.02e+01	0	31	104	27787264	60	70411
2026-01-08 15:57:30.26	21.75	6.29	-38.5	-48.9	3.5	3.02e+01	0	31	104	27787264	52	17046
2026-01-08 15:57:34.30	21.87	6.61	-38.4	-48.9	3.5	3.02e+01	0	31	104	27787264	52	16919
2026-01-08 15:57:38.34	21.99	6.93	-38.5	-49.0	3.5	3.02e+01	0	31	104	27787264	52	17180
2026-01-08 15:57:42.38	22.11	7.25	-39.7	-50.4	3.5	3.02e+01	0	31	104	27787264	54	17899
2026-01-08 15:57:46.41	22.24	7.58	-46.6	-60.6	3.5	3.02e+01	0	31	104	27787264	60	41049
2026-01-08 15:57:50.44	22.36	7.92	-37.9	-48.3	3.5	3.02e+01	0	31	104	27787264	50	17795
2026-01-08 15:57:54.48	22.49	8.26	-40.5	-51.2	3.5	3.02e+01	0	32	104	27787264	56	17584
2026-01-08 15:57:58.52	22.63	8.60	-42.3	-53.3	3.5	3.02e+01	0	31	104	27787264	60	17873
2026-01-08 15:58:02.55	22.76	8.95	-37.3	-47.7	3.5	3.02e+01	0	31	104	27787264	52	14781
2026-01-08 15:58:06.59	22.90	9.30	-37.3	-47.6	3.5	3.02e+01	0	31	104	27787264	48	18525
2026-01-08 15:58:10.62	23.05	9.66	-41.8	-52.7	3.5	3.02e+01	0	32	104	27787264	56	20956
2026-01-08 15:58:14.66	23.19	10.03	-37.9	-48.3	3.5	3.02e+01	0	32	104	27787264	50	17866
2026-01-08 15:58:18.70	23.34	10.40	-42.2	-53.3	3.5	3.02e+01	0	32	104	27787264	60	17834
2026-01-08 15:58:22.73	23.50	10.78	-44.3	-56.0	3.5	3.02e+01	0	31	104	27787264	60	24413
2026-01-08 15:58:26.77	23.66	11.17	-38.7	-49.1	3.5	3.02e+01	0	31	104	27787264	54	15581
2026-01-08 15:58:30.81	23.82	11.56	-47.5	-65.5	3.5	3.02e+01	0	32	104	27787264	60	72716
2026-01-08 15:58:34.84	23.98	11.95	-35.5	-45.7	3.5	3.02e+01	0	32	104	27787264	46	16540
2026-01-08 15:58:38.88	24.15	12.36	-38.9	-49.4	3.4	3.02e+01	0	32	104	27787264	54	16103
2026-01-08 15:58:42.92	24.33	12.77	-37.2	-47.6	3.5	3.02e+01	0	32	104	27787264	50	16371
2026-01-08 15:58:46.96	24.51	13.20	-47.9	-64.5	3.5	3.02e+01	0	32	104	27787264	60	64484
2026-01-08 15:58:51.00	24.69	13.62	-38.9	-49.3	3.4	3.02e+01	0	32	104	27787264	54	15827
2026-01-08 15:58:55.04	24.88	14.06	-39.6	-50.1	3.5	3.02e+01	0	32	104	27787264	54	17481
2026-01-08 15:58:59.07	25.08	14.51	-36.9	-47.2	3.5	3.02e+01	0	32	104	27787264	50	15642
2026-01-08 15:59:03.11	25.28	14.96	-39.4	-50.0	3.5	3.02e+01	0	32	104	27787264	52	19216
2026-01-08 15:59:07.15	25.49	15.43	-48.0	-64.1	3.5	3.02e+01	0	32	104	27787264	60	61896
2026-01-08 15:59:11.18	25.70	15.90	-35.6	-45.7	3.6	3.02e+01	0	32	104	27787264	46	16687
2026-01-08 15:59:15.22	25.93	16.38	-41.2	-52.0	3.5	3.02e+01	0	32	104	27787264	60	15299
2026-01-08 15:59:19.26	26.15	16.88	-39.7	-50.2	3.6	3.02e+01	0	32	104	27787264	54	17517
2026-01-08 15:59:23.29	26.39	17.38	-48.0	-64.2	3.5	3.02e+01	0	32	104	27787264	60	62501
2026-01-08 15:59:27.33	26.63	17.90	-36.5	-46.7	3.5	3.02e+01	0	32	104	27787264	48	16587
2026-01-08 15:59:31.37	26.89	18.43	-36.7	-47.0	3.4	3.02e+01	0	32	104	27787264	50	15308
2026-01-08 15:59:35.40	27.15	18.97	-36.4	-46.6	3.5	3.02e+01	0	32	104	27787264	48	16464
2026-01-08 15:59:39.44	27.42	19.52	-39.6	-50.2	3.6	3.02e+01	0	32	104	27787264	54	17517
2026-01-08 15:59:43.48	27.70	20.09	-48.1	-64.1	3.5	3.02e+01	0	32	104	27787264	60	61740
2026-01-08 15:59:47.52	27.99	20.67	-38.9	-49.2	3.5	3.02e+01	0	32	104	27787264	52	17604
2026-01-08 15:59:51.55	28.29	21.27	-37.2	-47.5	3.5	3.02e+01	0	32	104	27787264	46	20532
2026-01-08 15:59:55.59	28.61	21.88	-36.2	-46.4	3.5	3.02e+01	0	32	104	27787264	48	16033
2026-01-08 15:59:59.63	28.93	22.50	-44.2	-55.9	3.6	3.02e+01	0	32	104	27787264	60	23882
2026-01-08 16:00:03.66	29.27	23.14	-35.8	-46.0	3.5	3.02e+01	0	32	104	27787264	46	17254
2026-01-08 16:00:07.69	29.63	23.80	-43.1	-54.2	3.5	3.02e+01	0	32	104	27787264	52	31376
2026-01-08 16:00:11.73	30.00	24.48	-42.1	-52.9	3.5	3.02e+01	0	32	104	27787264	60	17006
2026-01-08 16:00:15.76	30.38	25.17	-39.2	-49.7	3.5	3.02e+01	0	32	104	27787264	50	20977
2026-01-08 16:00:19.80	30.79	25.89	-38.8	-49.1	3.5	3.02e+01	0	32	104	27787264	54	15463
2026-01-08 16:00:23.83	31.21	26.62	-36.8	-47.2	3.5	3.02e+01	0	32	104	27787264	46	19705
2026-01-08 16:00:27.87	31.65	27.38	-47.8	-62.9	3.5	3.02e+01	0	32	104	27787264	60	53813
2026-01-08 16:00:31.91	32.12	28.15	-36.2	-46.4	3.5	3.02e+01	0	32	104	27787264	48	16051
2026-01-08 16:00:35.94	32.61	28.95	-42.2	-53.2	3.5	3.02e+01	0	32	104	27787264	60	17592
2026-01-08 16:00:39.98	33.12	29.77	-36.8	-47.0	3.5	3.02e+01	0	32	104	27787264	48	17249
2026-01-08 16:00:44.02	33.66	30.62	-48.0	-63.8	3.5	3.02e+01	0	32	104	27787264	60	59755
2026-01-08 16:00:48.06	34.23	31.49	-36.2	-46.3	3.5	3.02e+01	0	32	104	27787264	48	15918
2026-01-08 16:00:52.09	34.83	32.38	-39.5	-50.1	3.5	3.02e+01	0	32	104	27787264	54	17297
2026-01-08 16:00:56.13	35.47	33.30	-36.9	-47.2	3.5	3.02e+01	0	32	104	27787264	50	15672
2026-01-08 16:01:00.16	36.14	34.25	-38.5	-48.8	3.5	3.02e+01	0	32	104	27787264	50	18828
2026-01-08 16:01:04.20	36.86	35.22	-48.5	-65.7	3.5	3.02e+01	0	32	104	27787264	60	74526
2026-01-08 16:01:08.24	37.62	36.22	-41.1	-51.7	3.6	3.02e+01	0	32	104	27787264	58	16565
2026-01-08 16:01:12.28	38.42	37.26	-37.0	-47.3	3.5	3.02e+01	0	32	104	27787264	50	15910
2026-01-08 16:01:16.32	39.29	38.32	-37.1	-47.5	3.5	3.02e+01	0	32	104	27787264	48	18122
2026-01-08 16:01:20.35	40.21	39.40	-47.4	-63.7	3.5	3.02e+01	0	32	104	27787264	60	58938
2026-01-08 16:01:24.39	41.19	40.52	-38.9	-49.3	3.5	3.02e+01	0	32	104	27787264	54	15902
2026-01-08 16:01:28.43	42.25	41.67	-37.6	-47.8	3.5	3.02e+01	0	32	104	27787264	50	16852
2026-01-08 16:01:32.46	43.39	42.84	-38.7	-49.1	3.5	3.02e+01	0	32	104	27787264	52	17304
2026-01-08 16:01:36.50	44.61	44.04	-43.4	-54.8	3.6	3.02e+01	0	32	104	27787264	60	21042
2026-01-08 16:01:40.54	45.93	45.27	-46.2	-58.9	3.5	3.02e+01	0	32	104	27787264	60	33835
2026-01-08 16:01:44.57	47.36	46.51	-35.0	-45.1	3.5	3.02e+01	0	32	104	27787264	44	17398
2026-01-08 16:01:48.61	48.90	47.78	-37.4	-47.7	3.5	3.02e+01	0	32	104	27787264	44	23591
2026-01-08 16:01:52.64	50.58	49.06	-39.0	-49.4	3.5	3.02e+01	0	32	104	27787264	54	16115
2026-01-08 16:01:56.68	52.41	50.36	-44.2	-55.9	3.5	3.02e+01	0	32	104	27787264	60	23901
2026-01-08 16:02:00.72	54.40	51.66	-39.1	-49.6	3.5	3.02e+01	0	32	104	27787264	54	16358
2026-01-08 16:02:04.76	56.58	52.96	-46.2	-59.0	3.4	3.02e+01	0	32	104	27787264	58	38399
2026-01-08 16:02:08.80	58.95	54.25	-35.2	-45.2	3.5	3.02e+01	0	32	104	27787264	46	15740
2026-01-08 16:02:12.83	61.55	55.52	-43.3	-54.5	3.5	3.02e+01	0	32	104	27787264	60	20499
2026-01-08 16:02:16.87	64.39	56.76	-42.4	-53.2	3.6	3.02e+01	0	32	104	27787264	60	17671
2026-01-08 16:02:20.91	67.49	57.95	-47.3	-61.4	3.5	3.02e+01	0	32	104	27787264	60	45125
2026-01-08 16:02:24.94	70.87	59.08	-48.4	-65.1	3.5	3.02e+01	0	32	104	27787264	60	69224
2026-01-08 16:02:28.98	74.55	60.14	-41.4	-52.2	3.5	3.02e+01	0	32	104	27787264	58	17569
2026-01-08 16:02:33.02	78.54	61.10	-42.2	-53.0	3.5	3.02e+01	0	32	104	27787264	56	21586
2026-01-08 16:02:37.05	82.81	61.95	-37.7	-47.8	3.5	3.02e+01	0	32	104	27787264	50	16876
2026-01-08 16:02:41.09	87.38	62.66	-48.4	-65.1	3.5	3.02e+01	0	32	104	27787264	60	69270
2026-01-08 16:02:45.13	92.19	63.21	-41.1	-51.8	3.5	3.02e+01	0	32	104	27787264	58	16881
2026-01-08 16:02:49.16	97.18	63.60	-42.2	-53.2	3.5	3.02e+01	0	32	104	27787264	60	17687
2026-01-08 16:02:53.20	102.32	63.81	-43.2	-54.4	3.5	3.02e+01	0	32	104	27787264	60	20223
2026-01-08 16:02:57.24	107.51	63.83	-44.7	-56.6	3.5	3.02e+01	0	32	104	27787264	60	25960
2026-01-08 16:03:01.28	112.67	63.66	-48.4	-64.9	3.5	3.02e+01	0	32	104	27787264	60	67540
2026-01-08 16:03:05.32	117.71	63.31	-37.3	-47.4	3.5	3.02e+01	0	32	104	27787264	50	16011
2026-01-08 16:03:09.36	122.58	62.79	-37.9	-48.3	3.5	3.02e+01	0	32	104	27787264	52	15823
2026-01-08 16:03:13.40	127.20	62.11	-37.3	-47.5	3.5	3.02e+01	0	32	104	27787264	50	16321
2026-01-08 16:03:17.44	131.55	61.29	-48.5	-65.8	3.5	3.02e+01	0	32	104	27787264	60	74934
2026-01-08 16:03:21.48	135.61	60.35	-38.7	-49.2	3.5	3.02e+01	0	32	104	27787264	54	15590
2026-01-08 16:03:25.52	139.36	59.31	-37.8	-48.2	3.5	3.02e+01	0	32	104	27787264	54	13967
2026-01-08 16:03:29.56	142.81	58.19	-39.1	-40.8	22.8	3.02e+01	57	32	104	27787264	52	6717
2026-01-08 16:03:33.59	145.97	57.01	-36.1	-37.4	28.3	3.02e+01	54	32	0	35127296	48	5676
2026-01-08 16:03:37.63	148.87	55.77	-34.8	-36.0	29.4	3.02e+01	61	32	0	42467328	44	6113
2026-01-08 16:03:41.67	151.53	54.50	-34.5	-35.7	29.7	3.02e+01	61	32	0	50331648	42	6595
2026-01-08 16:03:45.70	153.95	53.21	-33.9	-35.1	30.2	3.02e+01	58	32	0	57671680	42	6162
2026-01-08 16:03:49.74	156.17	51.91	-34.6	-35.8	29.6	3.02e+01	58	32	0	65011712	42	6680
2026-01-08 16:03:53.77	158.19	50.61	-34.9	-36.1	29.3	3.02e+01	58	32	0	72876032	42	6938
2026-01-08 16:03:57.81	160.06	49.30	-34.6	-35.8	29.6	3.02e+01	56	31	0	80216064	44	5955
2026-01-08 16:04:01.85	161.77	48.01	-34.9	-36.1	29.3	3.02e+01	55	32	0	88080384	44	6174
2026-01-08 16:04:05.89	163.35	46.74	-34.9	-36.1	29.3	3.02e+01	58	32	0	95420416	44	6192
2026-01-08 16:04:09.92	164.80	45.48	-34.7	-35.9	29.5	3.02e+01	56	32	0	103284736	44	6020
2026-01-08 16:04:13.96	166.14	44.25	-34.8	-36.1	29.4	3.02e+01	57	32	0	110624768	44	6143
2026-01-08 16:04:18.00	167.39	43.04	-35.0	-36.2	29.1	3.02e+01	64	32	0	118489088	44	6242
2026-01-08 16:04:22.04	168.54	41.85	-35.1	-36.4	29.1	3.02e+01	57	32	0	125829120	44	6361
2026-01-08 16:04:26.08	169.62	40.70	-35.3	-36.5	29.0	3.02e+01	58	32	0	133169152	44	6498
2026-01-08 16:04:30.12	170.62	39.57	-35.2	-36.4	29.0	3.02e+01	58	32	0	141033472	44	6402
2026-01-08 16:04:34.15	171.55	38.47	-35.7	-37.0	28.6	3.02e+01	57	32	0	148373504	44	6806
2026-01-08 16:04:38.19	172.43	37.40	-34.9	-36.1	29.4	3.02e+01	45	32	0	156237824	44	6173
2026-01-08 16:04:42.22	173.25	36.36	-34.5	-35.7	29.7	3.02e+01	60	32	0	163577856	44	5884
2026-01-08 16:04:46.26	174.02	35.35	-34.5	-35.7	29.6	3.02e+01	53	32	0	171442176	44	5890
2026-01-08 16:04:50.30	174.74	34.36	-33.8	-35.0	30.3	3.02e+01	56	32	0	178782208	42	6096
2026-01-08 16:04:54.34	175.42	33.41	-33.8	-34.9	30.2	3.02e+01	55	32	0	186122240	42	6054
2026-01-08 16:04:58.38	176.07	32.48	-33.6	-34.7	30.3	3.02e+01	59	32	0	193986560	42	5909
2026-01-08 16:05:02.42	176.67	31.57	-33.5	-34.6	30.4	3.02e+01	52	32	0	201326592	42	5837
2026-01-08 16:05:06.46	177.25	30.69	-33.3	-34.4	30.7	3.02e+01	60	32	0	209190912	42	5709
2026-01-08 16:05:10.49	177.80	29.84	-33.3	-34.5	30.6	3.02e+01	51	32	0	216530944	42	5746
2026-01-08 16:05:14.53	178.31	29.01	-33.8	-35.0	30.1	3.02e+01	60	32	0	224395264	42	6071
2026-01-08 16:05:18.56	178.81	28.21	-33.5	-34.7	30.3	3.02e+01	47	31	0	231735296	42	5886
2026-01-08 16:05:22.60	179.27	27.42	-33.8	-35.0	30.2	3.02e+01	60	32	0	239599616	42	6099
2026-01-08 16:05:26.64	179.72	26.66	-34.3	-35.4	29.8	3.02e+01	47	32	0	246939648	42	6409
2026-01-08 16:05:30.68	180.15	25.92	-34.5	-35.7	29.6	3.02e+01	60	32	0	254279680	42	6636
2026-01-08 16:05:34.71	180.55	25.20	-34.5	-35.7	29.6	3.02e+01	38	32	0	262144000	42	6629
2026-01-08 16:05:38.75	180.94	24.50	-34.6	-35.8	29.5	3.02e+01	58	32	0	269484032	42	6712
2026-01-08 16:05:42.78	181.31	23.82	-34.7	-36.0	29.4	3.02e+01	46	32	0	277348352	42	6812
2026-01-08 16:05:46.82	181.67	23.15	-34.7	-35.9	29.3	3.02e+01	63	32	0	284688384	44	6042
2026-01-08 16:05:50.86	182.01	22.51	-34.4	-35.5	29.7	3.02e+01	56	32	0	292552704	44	5791
2026-01-08 16:05:54.90	182.34	21.87	-34.3	-35.5	29.8	3.02e+01	59	32	0	299892736	44	5742
2026-01-08 16:05:58.94	182.66	21.26	-34.3	-35.5	29.7	3.02e+01	56	32	0	307232768	44	5773
2026-01-08 16:06:02.97	182.96	20.66	-34.4	-35.6	29.6	3.02e+01	59	32	0	315097088	44	5833
2026-01-08 16:06:07.01	183.25	20.07	-34.5	-35.7	29.5	3.02e+01	56	32	0	322437120	44	5874
2026-01-08 16:06:11.05	183.53	19.50	-34.3	-35.5	29.6	3.02e+01	60	32	0	330301440	44	5777
2026-01-08 16:06:15.09	183.80	18.94	-34.3	-35.5	29.6	3.02e+01	57	32	0	337641472	44	5743
2026-01-08 16:06:19.12	184.06	18.40	-34.2	-35.4	29.8	3.02e+01	61	32	0	345505792	44	5685
2026-01-08 16:06:23.16	184.32	17.87	-34.1	-35.3	29.8	3.02e+01	56	32	0	352845824	44	5646
2026-01-08 16:06:27.20	184.56	17.34	-34.1	-35.3	29.8	3.02e+01	58	32	0	360710144	44	5647
2026-01-08 16:06:31.23	184.79	16.84	-34.1	-35.3	29.9	3.02e+01	59	31	0	368050176	44	5616
2026-01-08 16:06:35.27	185.02	16.34	-34.2	-35.4	29.8	3.02e+01	59	31	0	375390208	44	5685
2026-01-08 16:06:39.30	185.24	15.85	-34.2	-35.4	29.7	3.02e+01	60	31	0	383254528	44	5663
2026-01-08 16:06:43.34	185.46	15.37	-34.1	-35.4	29.7	3.02e+01	62	32	0	390594560	44	5662
2026-01-08 16:06:47.38	185.66	14.91	-34.3	-35.5	29.6	3.02e+01	57	32	0	398458880	44	5775
2026-01-08 16:06:51.42	185.86	14.45	-34.2	-35.5	29.6	3.02e+01	57	32	0	405798912	44	5735
2026-01-08 16:06:55.46	186.06	14.00	-34.2	-35.5	29.6	3.02e+01	62	32	0	413663232	44	5732
2026-01-08 16:06:59.49	186.25	13.56	-34.3	-35.5	29.5	3.02e+01	60	32	0	421003264	44	5752
2026-01-08 16:07:03.53	186.43	13.13	-34.3	-35.5	29.5	3.02e+01	57	32	0	428343296	44	5744
2026-01-08 16:07:07.57	186.61	12.70	-34.4	-35.6	29.4	3.02e+01	48	32	0	436207616	44	5842
2026-01-08 16:07:11.61	186.78	12.29	-34.6	-35.8	29.2	3.02e+01	59	32	0	443547648	44	5972
2026-01-08 16:07:15.65	186.95	11.88	-34.6	-35.8	29.2	3.02e+01	56	32	0	451411968	44	5968
2026-01-08 16:07:19.69	187.12	11.48	-34.6	-35.9	29.2	3.02e+01	59	32	0	458752000	44	6018
2026-01-08 16:07:23.72	187.28	11.08	-34.6	-35.8	29.2	3.02e+01	58	32	0	466616320	44	5946
2026-01-08 16:07:27.76	187.43	10.70	-34.6	-35.8	29.2	3.02e+01	59	31	0	473956352	44	5978
2026-01-08 16:07:31.80	187.59	10.32	-34.8	-36.0	29.1	3.02e+01	51	31	0	481820672	44	6081
2026-01-08 16:07:35.83	187.73	9.94	-34.8	-36.0	28.9	3.02e+01	55	32	0	489160704	44	6084
2026-01-08 16:07:39.87	187.88	9.57	-34.9	-36.2	28.8	3.02e+01	53	31	0	496500736	44	6222
2026-01-08 16:07:43.91	188.02	9.21	-35.0	-36.2	28.7	3.02e+01	58	31	0	504365056	44	6262
2026-01-08 16:07:47.95	188.16	8.85	-35.2	-36.4	28.7	3.02e+01	47	31	0	511705088	44	6385
2026-01-08 16:07:51.98	188.29	8.50	-35.3	-36.5	28.5	3.02e+01	59	32	0	519569408	44	6486
2026-01-08 16:07:56.02	188.42	8.16	-35.3	-36.6	28.4	3.02e+01	50	32	0	526909440	44	6506
2026-01-08 16:08:00.06	188.55	7.82	-35.5	-36.8	28.2	3.02e+01	60	32	0	534773760	44	6700
2026-01-08 16:08:04.10	188.68	7.48	-35.4	-36.7	28.2	3.02e+01	45	32	0	542113792	44	6615
2026-01-08 16:08:08.14	188.80	7.15	-35.5	-36.8	28.1	3.02e+01	58	32	0	549453824	44	6685
2026-01-08 16:08:12.17	188.92	6.82	-35.7	-37.0	27.9	3.02e+01	59	31	0	557318144	44	6863
2026-01-08 16:08:16.21	189.04	6.50	-35.7	-37.0	27.9	3.02e+01	58	32	0	564658176	44	6834
2026-01-08 16:08:20.24	189.15	6.18	-35.8	-37.1	27.8	3.02e+01	55	31	0	572522496	46	6158
2026-01-08 16:08:24.27	189.27	5.87	-36.1	-37.4	27.5	3.02e+01	56	32	0	579862528	46	6382
2026-01-08 16:08:28.31	189.38	5.56	-36.0	-37.3	27.5	3.02e+01	60	31	0	587726848	46	6321
2026-01-08 16:08:32.35	189.48	5.26	-36.1	-37.4	27.4	3.02e+01	60	32	0	595066880	46	6405
2026-01-08 16:08:36.39	189.59	4.95	-36.3	-37.7	27.1	3.02e+01	59	32	0	602406912	46	6594
2026-01-08 16:08:40.42	189.69	4.66	-36.6	-37.9	26.9	3.02e+01	59	32	0	610271232	46	6762
2026-01-08 16:08:44.46	189.80	4.36	-36.6	-38.0	26.7	3.02e+01	60	31	0	617611264	46	6845
2026-01-08 16:08:48.49	189.90	4.07	-36.7	-38.1	26.6	3.02e+01	56	32	0	625475584	46	6926
2026-01-08 16:08:52.53	190.00	3.78	-36.9	-38.3	26.3	3.02e+01	62	31	0	632815616	46	7099
2026-01-08 16:08:56.56	190.09	3.50	-37.0	-38.5	26.1	3.02e+01	60	32	0	640679936	48	6426
2026-01-08 16:09:00.60	190.19	3.22	-37.2	-38.6	25.8	3.02e+01	61	32	0	648019968	48	6570
2026-01-08 16:09:04.64	190.28	2.94	-48.0	-65.9	3.5	3.02e+01	0	32	104	653262848	60	75819
2026-01-08 16:09:08.68	190.37	2.67	-48.7	-66.6	3.5	3.02e+01	0	32	104	653262848	60	82290
2026-01-08 16:09:12.72	190.46	2.40	-48.8	-66.8	3.5	3.02e+01	0	32	104	653262848	60	84185
2026-01-08 16:09:16.76	190.55	2.13	-48.8	-66.7	3.5	3.02e+01	0	32	104	653262848	60	83144
2026-01-08 16:09:20.79	190.64	1.86	-48.8	-66.7	3.5	3.02e+01	0	32	104	653262848	60	83300
2026-01-08 16:09:24.83	190.72	1.60	-48.8	-66.7	3.5	3.02e+01	0	32	104	653262848	60	83039
2026-01-08 16:09:28.87	190.81	1.34	-48.8	-66.7	3.5	3.02e+01	0	32	104	653262848	60	83072
2026-01-08 16:09:32.90	190.89	1.08	-48.8	-66.7	3.5	3.02e+01	0	32	104	653262848	60	83193
2026-01-08 16:09:36.94	190.97	0.82	-48.7	-66.7	3.5	3.02e+01	0	32	104	653262848	60	82822
2026-01-08 16:09:40.98	191.05	0.57	-48.7	-66.6	3.5	3.02e+01	0	32	104	653262848	60	82265
2026-01-08 16:09:45.01	191.13	0.32	-48.7	-66.6	3.5	3.02e+01	0	32	104	653262848	60	82500
2026-01-08 16:09:49.05	191.21	0.07	-48.7	-66.7	3.5	3.02e+01	0	32	104	653262848	60	82803

#Closed at: 2026-01-08 16:09:51
#Recorded file [653 MB]: D:/lorett/data/35029_260109_035601.dat