passes_logs/2026/01/08/R4.6S_Anadyr/R4.6S_Anadyr__20260108_000226_TY-42_rec.log

#Pass ID: 20260108_000226_TY-42
#Satellite: TY-42
#Configuration: TY-42_900M
#almurnet v.1.7.20251203
#Start time: 2026-01-08 00:02:58

#Version: 2.2.20231116
#Station: R4.6S_Anadyr
#Location: 177.4865 lon 64.73178 lat
#TLE: 1 64048U 25103A   26005.68684028  .00008011  00000-0  38191-3 0 09993
#TLE: 2 64048 097.4106 081.2795 0001725 092.4682 306.5290 15.19173644 35407

#Time	Az	El	Level	Level2	SNR	BER	BlckErr	Temp	State	Recorded	gain1	gain2
2026-01-08 00:02:58.45	16.40	2.10	-49.5	-62.0	3.4	1.52e+00	0	36	0	0	60	44272
2026-01-08 00:03:01.47	16.33	2.31	-48.3	-50.7	6.1	0.00e+00	0	37	104	0	60	42054
2026-01-08 00:03:04.50	16.26	2.52	-48.3	-50.8	6.1	0.00e+00	0	37	104	0	60	42325
2026-01-08 00:03:07.52	16.18	2.74	-48.3	-50.7	6.1	0.00e+00	0	37	104	0	60	42111
2026-01-08 00:03:10.55	16.10	2.95	-48.3	-50.7	6.1	0.00e+00	0	37	104	0	60	42167
2026-01-08 00:03:13.58	16.02	3.17	-48.3	-50.7	6.1	0.00e+00	0	38	104	0	60	41941
2026-01-08 00:03:16.61	15.94	3.39	-48.3	-50.8	6.1	0.00e+00	0	38	104	0	60	42260
2026-01-08 00:03:19.64	15.86	3.62	-48.3	-50.8	6.1	0.00e+00	0	38	104	0	60	42234
2026-01-08 00:03:22.67	15.77	3.84	-48.3	-50.8	6.1	0.00e+00	0	38	104	0	60	42232
2026-01-08 00:03:25.70	15.69	4.07	-48.3	-50.7	6.1	0.00e+00	0	38	104	0	60	42128
2026-01-08 00:03:28.73	15.60	4.30	-48.3	-50.8	6.0	0.00e+00	0	38	104	0	60	42448
2026-01-08 00:03:31.76	15.51	4.53	-48.4	-50.9	6.1	0.00e+00	0	38	104	0	60	42898
2026-01-08 00:03:34.79	15.41	4.77	-48.4	-50.8	6.1	0.00e+00	0	38	104	0	60	42564
2026-01-08 00:03:37.82	15.32	5.01	-48.5	-51.0	6.1	0.00e+00	0	38	104	0	60	43467
2026-01-08 00:03:40.84	15.22	5.25	-48.4	-50.9	6.1	0.00e+00	0	38	104	0	60	43134
2026-01-08 00:03:43.87	15.12	5.49	-48.6	-51.1	6.1	0.00e+00	0	38	104	0	60	43792
2026-01-08 00:03:46.90	15.02	5.74	-48.5	-51.0	6.0	0.00e+00	0	38	104	0	60	43227
2026-01-08 00:03:49.93	14.91	5.99	-48.6	-51.1	6.1	0.00e+00	0	38	104	0	60	43868
2026-01-08 00:03:52.96	14.80	6.25	-48.6	-51.0	6.1	0.00e+00	0	38	104	0	60	43576
2026-01-08 00:03:55.98	14.70	6.50	-48.7	-51.1	6.1	0.00e+00	0	39	104	0	60	44128
2026-01-08 00:03:59.01	14.58	6.76	-48.6	-51.1	6.1	0.00e+00	0	39	104	0	60	43744
2026-01-08 00:04:02.04	14.47	7.02	-48.6	-51.1	6.1	0.00e+00	0	39	104	0	60	44010
2026-01-08 00:04:05.07	14.35	7.29	-32.2	-32.6	14.5	2.13e-01	0	39	0	192937984	40	16615
2026-01-08 00:04:08.10	14.23	7.56	-31.2	-31.7	14.7	1.52e-02	0	39	0	528482304	38	16783
2026-01-08 00:04:11.13	14.10	7.84	-30.7	-31.2	15.3	8.07e-03	0	39	0	872415232	36	17712
2026-01-08 00:04:14.15	13.97	8.11	-30.1	-30.6	15.5	4.53e-03	0	39	0	1207959552	36	16554
2026-01-08 00:04:17.18	13.84	8.40	-29.1	-29.6	15.8	3.04e-03	0	39	0	1551892480	34	16549
2026-01-08 00:04:20.21	13.71	8.68	-28.2	-28.8	16.0	5.07e-04	0	39	0	1895825408	32	16813
2026-01-08 00:04:23.24	13.57	8.97	-27.9	-28.4	16.2	3.49e-04	0	39	0	2231369728	32	16104
2026-01-08 00:04:26.26	13.43	9.27	-27.7	-28.2	16.2	3.00e-04	0	39	0	2575302656	30	17805
2026-01-08 00:04:29.29	13.28	9.57	-27.6	-28.1	16.3	2.56e-04	0	40	0	2910846976	30	17574
2026-01-08 00:04:32.32	13.13	9.87	-27.4	-27.9	16.3	2.18e-04	0	39	0	3254779904	30	17151
2026-01-08 00:04:35.35	12.98	10.18	-27.3	-27.8	16.3	1.42e-04	0	40	0	3590324224	30	16976
2026-01-08 00:04:38.38	12.82	10.49	-27.4	-27.9	16.2	2.34e-04	0	40	0	3934257152	30	17070
2026-01-08 00:04:41.40	12.66	10.81	-27.0	-27.5	16.4	1.52e-04	0	40	0	4278190080	30	16298
2026-01-08 00:04:44.44	12.49	11.14	-26.7	-27.3	16.5	9.26e-05	0	40	0	4613734400	30	15890
2026-01-08 00:04:47.47	12.31	11.47	-26.6	-27.1	16.6	4.90e-05	0	40	0	4957667328	28	17492
2026-01-08 00:04:50.49	12.14	11.80	-26.2	-26.7	16.6	1.63e-05	0	40	0	5301600256	28	16775
2026-01-08 00:04:53.52	11.95	12.14	-26.1	-26.6	16.6	2.17e-05	0	40	0	5637144576	28	16521
2026-01-08 00:04:56.55	11.76	12.49	-25.9	-26.4	16.7	2.17e-05	0	40	0	5981077504	28	16198
2026-01-08 00:04:59.58	11.57	12.85	-25.8	-26.3	16.7	1.08e-05	0	40	0	6325010432	26	17883
2026-01-08 00:05:02.61	11.37	13.21	-25.5	-26.1	16.9	5.40e-06	0	40	0	6660554752	26	17415
2026-01-08 00:05:05.63	11.16	13.57	-25.3	-25.9	16.8	0.00e+00	0	40	0	7004487680	26	17023
2026-01-08 00:05:08.65	10.95	13.95	-25.2	-25.8	16.9	0.00e+00	0	40	0	7340032000	26	16819
2026-01-08 00:05:11.67	10.73	14.33	-25.0	-25.5	16.9	1.08e-05	0	40	0	7683964928	26	16345
2026-01-08 00:05:14.71	10.50	14.72	-24.7	-25.2	16.9	5.40e-06	0	40	0	8019509248	24	17720
2026-01-08 00:05:17.73	10.26	15.11	-24.5	-25.1	17.0	0.00e+00	0	40	0	8363442176	24	17454
2026-01-08 00:05:20.76	10.02	15.52	-24.4	-24.9	17.1	0.00e+00	0	40	0	8707375104	24	17098
2026-01-08 00:05:23.79	9.77	15.93	-24.1	-24.6	17.0	0.00e+00	0	40	0	9042919424	24	16599
2026-01-08 00:05:26.82	9.51	16.35	-23.8	-24.4	16.9	0.00e+00	0	40	0	9386852352	24	16091
2026-01-08 00:05:29.85	9.24	16.78	-23.7	-24.2	16.9	0.00e+00	0	40	0	9722396672	22	17744
2026-01-08 00:05:32.88	8.96	17.22	-23.8	-24.3	17.0	0.00e+00	0	40	0	10066329600	22	17851
2026-01-08 00:05:35.91	8.67	17.67	-23.6	-24.1	17.1	0.00e+00	0	40	0	10401873920	22	17563
2026-01-08 00:05:38.93	8.37	18.13	-23.2	-23.7	17.1	0.00e+00	0	40	0	10745806848	22	16740
2026-01-08 00:05:41.96	8.05	18.60	-23.1	-23.6	17.1	0.00e+00	0	40	0	11089739776	22	16540
2026-01-08 00:05:44.99	7.73	19.08	-22.9	-23.4	17.3	0.00e+00	0	40	0	11425284096	22	16185
2026-01-08 00:05:48.02	7.40	19.57	-22.7	-23.2	17.4	0.00e+00	0	40	0	11769217024	20	17744
2026-01-08 00:05:51.05	7.05	20.08	-22.5	-23.0	17.4	0.00e+00	0	40	0	12113149952	20	17400
2026-01-08 00:05:54.08	6.68	20.59	-22.2	-22.7	17.4	0.00e+00	0	40	0	12457082880	20	16776
2026-01-08 00:05:57.11	6.30	21.12	-21.7	-22.3	17.4	0.00e+00	0	41	0	12792627200	18	17810
2026-01-08 00:06:00.13	5.91	21.66	-21.5	-22.0	17.4	0.00e+00	0	41	0	13136560128	18	17343
2026-01-08 00:06:03.17	5.50	22.22	-21.2	-21.7	17.5	0.00e+00	0	40	0	13480493056	18	16761
2026-01-08 00:06:06.19	5.08	22.78	-21.2	-21.7	17.5	0.00e+00	0	41	0	13816037376	18	16661
2026-01-08 00:06:09.22	4.63	23.36	-21.1	-21.6	17.6	0.00e+00	0	41	0	14159970304	18	16511
2026-01-08 00:06:12.25	4.16	23.96	-21.1	-21.6	17.6	0.00e+00	0	41	0	14495514624	18	16533
2026-01-08 00:06:15.28	3.68	24.57	-20.9	-21.4	17.7	0.00e+00	0	41	0	14839447552	18	16106
2026-01-08 00:06:18.31	3.17	25.20	-20.7	-21.2	17.5	0.00e+00	0	41	0	15183380480	16	17760
2026-01-08 00:06:21.34	2.64	25.84	-20.2	-20.7	17.5	0.00e+00	0	41	0	15518924800	16	16702
2026-01-08 00:06:24.37	2.08	26.50	-19.9	-20.4	17.6	0.00e+00	0	41	0	15862857728	16	16194
2026-01-08 00:06:27.40	1.50	27.18	-19.5	-20.1	17.7	0.00e+00	0	41	0	16198402048	14	17445
2026-01-08 00:06:30.42	0.88	27.87	-19.3	-19.8	17.7	0.00e+00	0	41	0	16542334976	14	16911
2026-01-08 00:06:33.45	0.24	28.59	-18.9	-19.4	17.7	0.00e+00	0	41	0	16877879296	14	16148
2026-01-08 00:06:36.48	359.56	29.32	-18.6	-19.1	17.7	0.00e+00	0	41	0	17221812224	12	17516
2026-01-08 00:06:39.51	358.85	30.07	-18.3	-18.8	17.6	0.00e+00	0	41	0	17565745152	12	16859
2026-01-08 00:06:42.54	358.10	30.84	-18.0	-18.5	17.7	0.00e+00	0	41	0	17901289472	12	16316
2026-01-08 00:06:45.56	357.32	31.62	-17.8	-18.3	17.7	0.00e+00	0	41	0	18245222400	12	15961
2026-01-08 00:06:48.59	356.48	32.43	-17.5	-17.9	17.7	0.00e+00	0	41	0	18580766720	10	17135
2026-01-08 00:06:51.62	355.60	33.25	-17.3	-17.7	17.7	0.00e+00	0	41	0	18924699648	10	16795
2026-01-08 00:06:54.65	354.67	34.10	-17.2	-17.7	17.8	0.00e+00	0	41	0	19268632576	10	16664
2026-01-08 00:06:57.68	353.69	34.96	-16.8	-17.3	17.8	0.00e+00	0	41	0	19604176896	10	15906
2026-01-08 00:07:00.70	352.65	35.84	-16.7	-17.1	17.8	0.00e+00	0	41	0	19948109824	8	17500
2026-01-08 00:07:03.73	351.55	36.74	-16.5	-16.9	17.8	0.00e+00	0	41	0	20292042752	8	17137
2026-01-08 00:07:06.76	350.37	37.66	-16.3	-16.7	17.9	0.00e+00	0	41	0	20635975680	8	16724
2026-01-08 00:07:09.79	349.13	38.59	-16.2	-16.6	17.8	0.00e+00	0	41	0	20971520000	8	16516
2026-01-08 00:07:12.82	347.80	39.53	-15.8	-16.2	17.8	0.00e+00	0	41	0	21315452928	8	15788
2026-01-08 00:07:15.85	346.40	40.49	-15.7	-16.1	17.8	0.00e+00	0	41	0	21650997248	6	17428
2026-01-08 00:07:18.87	344.90	41.45	-15.5	-16.0	17.7	0.00e+00	0	41	0	21994930176	6	17222
2026-01-08 00:07:21.90	343.30	42.43	-15.4	-15.8	17.7	0.00e+00	0	41	0	22330474496	6	16928
2026-01-08 00:07:24.93	341.60	43.40	-15.3	-15.7	17.7	0.00e+00	0	41	0	22674407424	6	16772
2026-01-08 00:07:27.96	339.79	44.38	-15.5	-15.9	17.7	0.00e+00	0	41	0	23018340352	6	17127
2026-01-08 00:07:30.98	337.87	45.34	-15.9	-16.3	17.7	0.00e+00	0	41	0	23353884672	6	17986
2026-01-08 00:07:34.01	335.81	46.30	-16.1	-16.5	17.7	0.00e+00	0	41	0	23697817600	6	18356
2026-01-08 00:07:37.04	333.62	47.24	-16.8	-17.2	17.7	0.00e+00	0	41	0	24033361920	8	17800
2026-01-08 00:07:40.07	331.29	48.16	-17.9	-18.3	17.6	0.00e+00	0	41	0	24377294848	12	15912
2026-01-08 00:07:43.10	328.81	49.04	-19.7	-20.1	17.5	0.00e+00	0	41	0	24712839168	14	17414
2026-01-08 00:07:46.13	326.19	49.88	-20.5	-20.9	17.4	0.00e+00	0	41	0	25056772096	14	19167
2026-01-08 00:07:49.15	323.43	50.67	-22.1	-22.5	17.3	0.00e+00	0	41	0	25392316416	18	18350
2026-01-08 00:07:52.18	320.51	51.40	-24.5	-24.9	17.0	0.00e+00	0	41	0	25736249344	22	19237
2026-01-08 00:07:55.21	317.45	52.07	-25.0	-25.3	17.0	5.40e-06	0	41	0	26080182272	24	17959
2026-01-08 00:07:58.24	314.25	52.66	-27.5	-27.8	16.7	5.40e-06	0	41	0	26424115200	28	19072
2026-01-08 00:08:01.27	310.92	53.15	-28.5	-28.9	16.0	7.08e-05	0	41	0	26759659520	30	19138
2026-01-08 00:08:04.30	307.49	53.56	-28.4	-28.8	16.1	5.01e-04	0	41	0	27103592448	34	15136
2026-01-08 00:08:07.33	303.98	53.86	-30.5	-30.9	15.5	8.77e-04	0	41	0	27447525376	36	17008
2026-01-08 00:08:10.36	300.40	54.05	-33.0	-33.3	14.8	6.92e-03	0	41	0	27783069696	38	20115
2026-01-08 00:08:13.38	296.79	54.14	-33.3	-33.7	14.6	1.42e-02	0	41	0	28127002624	42	16619
2026-01-08 00:08:16.41	293.17	54.11	-33.8	-34.0	14.8	1.77e-02	0	41	0	28462546944	40	19421
2026-01-08 00:08:19.43	289.58	53.96	-34.7	-35.0	14.5	2.11e-02	0	41	0	28806479872	42	19357
2026-01-08 00:08:22.46	286.03	53.71	-33.3	-33.6	14.5	1.85e-02	0	41	0	29150412800	40	18619
2026-01-08 00:08:25.49	282.56	53.35	-31.5	-31.8	15.4	6.96e-03	0	41	0	29485957120	40	15114
2026-01-08 00:08:28.52	279.18	52.89	-29.5	-29.9	15.7	2.14e-03	0	41	0	29829890048	34	17169
2026-01-08 00:08:31.55	275.92	52.35	-28.2	-28.6	16.5	1.20e-03	0	41	0	30165434368	32	16560
2026-01-08 00:08:34.57	272.80	51.72	-27.1	-27.4	17.1	3.43e-04	0	41	0	30509367296	30	16197
2026-01-08 00:08:37.60	269.81	51.01	-26.1	-26.5	17.3	1.63e-05	0	41	0	30844911616	26	18248
2026-01-08 00:08:40.63	266.96	50.24	-24.4	-24.7	17.3	0.00e+00	0	41	0	31188844544	24	16791
2026-01-08 00:08:43.66	264.27	49.42	-23.0	-23.4	17.4	0.00e+00	0	41	0	31532777472	22	16150
2026-01-08 00:08:46.69	261.72	48.55	-21.7	-22.1	17.6	0.00e+00	0	41	0	31868321792	20	15555
2026-01-08 00:08:49.71	259.33	47.65	-20.1	-20.5	17.7	0.00e+00	0	41	0	32212254720	16	16351
2026-01-08 00:08:52.74	257.07	46.72	-19.7	-20.1	17.7	0.00e+00	0	41	0	32547799040	14	17424
2026-01-08 00:08:55.77	254.95	45.77	-18.0	-18.4	17.8	0.00e+00	0	41	0	32891731968	12	16173
2026-01-08 00:08:58.80	252.96	44.80	-17.5	-17.9	17.8	0.00e+00	0	41	0	33235664896	10	17164
2026-01-08 00:09:01.82	251.09	43.83	-17.1	-17.5	17.9	0.00e+00	0	41	0	33571209216	8	18287
2026-01-08 00:09:04.85	249.34	42.85	-16.1	-16.5	17.9	0.00e+00	0	41	0	33915142144	8	16334
2026-01-08 00:09:07.89	247.68	41.87	-15.8	-16.2	17.9	0.00e+00	0	41	0	34259075072	8	15857
2026-01-08 00:09:10.92	246.14	40.89	-15.6	-16.0	17.9	0.00e+00	0	41	0	34594619392	6	17305
2026-01-08 00:09:13.95	244.69	39.93	-15.6	-16.0	18.0	0.00e+00	0	41	0	34938552320	6	17395
2026-01-08 00:09:16.97	243.33	38.97	-15.6	-16.0	17.9	0.00e+00	0	41	0	35282485248	6	17322
2026-01-08 00:09:20.00	242.04	38.03	-15.6	-16.0	18.0	0.00e+00	0	41	0	35618029568	6	17376
2026-01-08 00:09:23.03	240.84	37.11	-16.0	-16.4	18.0	0.00e+00	0	41	0	35961962496	6	18109
2026-01-08 00:09:26.06	239.70	36.19	-16.4	-16.8	17.9	0.00e+00	0	41	0	36305895424	6	19055
2026-01-08 00:09:29.09	238.63	35.30	-16.6	-17.0	17.9	0.00e+00	0	41	0	36641439744	6	19356
2026-01-08 00:09:32.12	237.61	34.43	-17.0	-17.4	17.9	0.00e+00	0	41	0	36985372672	8	18087
2026-01-08 00:09:35.15	236.66	33.57	-17.1	-17.5	17.8	0.00e+00	0	41	0	37320916992	8	18384
2026-01-08 00:09:38.18	235.75	32.73	-17.3	-17.7	17.8	0.00e+00	0	41	0	37664849920	8	18735
2026-01-08 00:09:41.21	234.90	31.91	-17.6	-17.9	17.8	0.00e+00	0	41	0	38000394240	8	19265
2026-01-08 00:09:44.23	234.09	31.12	-17.8	-18.2	17.7	0.00e+00	0	41	0	38344327168	10	17656
2026-01-08 00:09:47.26	233.32	30.34	-18.1	-18.5	17.7	0.00e+00	0	41	0	38688260096	10	18367
2026-01-08 00:09:50.29	232.59	29.58	-49.6	-52.1	6.1	0.00e+00	0	41	104	38914752512	60	49331
2026-01-08 00:09:53.32	231.90	28.83	-49.6	-52.1	6.1	0.00e+00	0	41	104	38914752512	60	49201
2026-01-08 00:09:56.35	231.24	28.11	-49.6	-52.1	6.1	0.00e+00	0	41	104	38914752512	60	49231
2026-01-08 00:09:59.38	230.61	27.40	-49.6	-52.1	6.1	0.00e+00	0	41	104	38914752512	60	49321
2026-01-08 00:10:02.40	230.01	26.72	-49.6	-52.1	6.1	0.00e+00	0	41	104	38914752512	60	49312
2026-01-08 00:10:05.43	229.44	26.05	-49.6	-52.1	6.1	0.00e+00	0	41	104	38914752512	60	49195
2026-01-08 00:10:08.47	228.89	25.39	-49.6	-52.0	6.1	0.00e+00	0	41	104	38914752512	60	49024
2026-01-08 00:10:11.50	228.37	24.76	-49.6	-52.1	6.1	0.00e+00	0	41	104	38914752512	60	49337
2026-01-08 00:10:14.53	227.87	24.14	-49.6	-52.0	6.1	0.00e+00	0	41	104	38914752512	60	48981
2026-01-08 00:10:17.55	227.40	23.53	-49.5	-52.0	6.1	0.00e+00	0	41	104	38914752512	60	48697
2026-01-08 00:10:20.58	226.94	22.94	-49.6	-52.1	6.1	0.00e+00	0	41	104	38914752512	60	49173
2026-01-08 00:10:23.61	226.51	22.37	-49.6	-52.0	6.1	0.00e+00	0	41	104	38914752512	60	49039
2026-01-08 00:10:26.64	226.09	21.80	-49.5	-52.0	6.1	0.00e+00	0	41	104	38914752512	60	48612
2026-01-08 00:10:29.67	225.69	21.26	-49.4	-51.9	6.1	0.00e+00	0	41	104	38914752512	60	48249
2026-01-08 00:10:32.70	225.30	20.72	-49.5	-52.0	6.1	0.00e+00	0	41	104	38914752512	60	48853
2026-01-08 00:10:35.73	224.93	20.20	-49.5	-52.0	6.1	0.00e+00	0	41	104	38914752512	60	48964
2026-01-08 00:10:38.75	224.57	19.69	-49.5	-52.0	6.1	0.00e+00	0	41	104	38914752512	60	48650
2026-01-08 00:10:41.78	224.23	19.19	-49.4	-51.9	6.1	0.00e+00	0	41	104	38914752512	60	48184
2026-01-08 00:10:44.81	223.90	18.70	-49.4	-51.9	6.1	0.00e+00	0	41	104	38914752512	60	48295
2026-01-08 00:10:47.84	223.58	18.23	-49.5	-52.0	6.1	0.00e+00	0	41	104	38914752512	60	48644
2026-01-08 00:10:50.86	223.27	17.76	-49.4	-51.9	6.1	0.00e+00	0	41	104	38914752512	60	48293
2026-01-08 00:10:53.89	222.98	17.31	-49.5	-52.0	6.1	0.00e+00	0	41	104	38914752512	60	48624
2026-01-08 00:10:56.92	222.69	16.86	-49.4	-51.9	6.1	0.00e+00	0	41	104	38914752512	60	48244
2026-01-08 00:10:59.95	222.42	16.42	-49.4	-51.9	6.1	0.00e+00	0	41	104	38914752512	60	48261
2026-01-08 00:11:02.98	222.15	16.00	-49.4	-51.9	6.1	0.00e+00	0	41	104	38914752512	60	48382
2026-01-08 00:11:06.01	221.89	15.58	-49.4	-51.9	6.1	0.00e+00	0	41	104	38914752512	60	48335
2026-01-08 00:11:09.03	221.64	15.17	-49.4	-51.9	6.1	0.00e+00	0	41	104	38914752512	60	47999
2026-01-08 00:11:12.06	221.40	14.77	-49.4	-51.8	6.1	0.00e+00	0	41	104	38914752512	60	47633
2026-01-08 00:11:15.08	221.17	14.38	-49.3	-51.8	6.1	0.00e+00	0	41	104	38914752512	60	47798
2026-01-08 00:11:18.11	220.94	13.99	-49.1	-51.6	6.1	0.00e+00	0	41	104	38914752512	60	46500
2026-01-08 00:11:21.14	220.73	13.61	-49.2	-51.7	6.1	0.00e+00	0	41	104	38914752512	60	47238
2026-01-08 00:11:24.17	220.51	13.24	-49.2	-51.7	6.1	0.00e+00	0	41	104	38914752512	60	47183
2026-01-08 00:11:27.20	220.31	12.88	-49.1	-51.6	6.1	0.00e+00	0	41	104	38914752512	60	46698
2026-01-08 00:11:30.22	220.11	12.52	-49.3	-51.7	6.1	0.00e+00	0	41	104	38914752512	60	47229
2026-01-08 00:11:33.25	219.92	12.17	-49.3	-51.7	6.1	0.00e+00	0	41	104	38914752512	60	47300
2026-01-08 00:11:36.28	219.73	11.82	-49.3	-51.7	6.1	0.00e+00	0	41	104	38914752512	60	47225
2026-01-08 00:11:39.30	219.55	11.49	-49.2	-51.7	6.1	0.00e+00	0	41	104	38914752512	60	47298
2026-01-08 00:11:42.32	219.37	11.15	-49.2	-51.7	6.1	0.00e+00	0	41	104	38914752512	60	46904
2026-01-08 00:11:45.35	219.20	10.83	-49.2	-51.7	6.1	0.00e+00	0	41	104	38914752512	60	46922
2026-01-08 00:11:48.38	219.03	10.50	-49.2	-51.7	6.1	0.00e+00	0	41	104	38914752512	60	47057
2026-01-08 00:11:51.40	218.87	10.19	-49.2	-51.7	6.1	0.00e+00	0	41	104	38914752512	60	47146
2026-01-08 00:11:54.43	218.71	9.87	-49.1	-51.6	6.1	0.00e+00	0	41	104	38914752512	60	46656
2026-01-08 00:11:57.45	218.56	9.57	-49.1	-51.6	6.1	0.00e+00	0	41	104	38914752512	60	46486
2026-01-08 00:12:00.48	218.41	9.27	-49.0	-51.6	6.1	0.00e+00	0	41	104	38914752512	60	46582
2026-01-08 00:12:03.51	218.26	8.97	-49.0	-51.5	6.1	0.00e+00	0	41	104	38914752512	60	46110
2026-01-08 00:12:06.53	218.12	8.68	-48.9	-51.4	6.1	0.00e+00	0	41	104	38914752512	60	45582
2026-01-08 00:12:09.56	217.98	8.39	-49.0	-51.5	6.1	0.00e+00	0	41	104	38914752512	60	46082
2026-01-08 00:12:12.59	217.85	8.10	-49.0	-51.4	6.1	0.00e+00	0	41	104	38914752512	60	45688
2026-01-08 00:12:15.61	217.72	7.82	-48.8	-51.3	6.1	0.00e+00	0	41	104	38914752512	60	44986
2026-01-08 00:12:18.65	217.59	7.55	-49.0	-51.4	6.1	0.00e+00	0	41	104	38914752512	60	45523
2026-01-08 00:12:21.68	217.46	7.27	-48.9	-51.3	6.1	0.00e+00	0	41	104	38914752512	60	45231
2026-01-08 00:12:24.71	217.34	7.00	-48.9	-51.3	6.1	0.00e+00	0	41	104	38914752512	60	45166
2026-01-08 00:12:27.74	217.22	6.74	-48.9	-51.4	6.0	0.00e+00	0	41	104	38914752512	60	45283
2026-01-08 00:12:30.76	217.11	6.48	-48.9	-51.3	6.1	0.00e+00	0	41	104	38914752512	60	44914
2026-01-08 00:12:33.79	216.99	6.22	-48.5	-51.0	6.1	0.00e+00	0	41	104	38914752512	60	43469
2026-01-08 00:12:36.81	216.88	5.96	-48.5	-51.0	6.1	0.00e+00	0	41	104	38914752512	60	43436
2026-01-08 00:12:39.84	216.78	5.71	-48.6	-51.1	6.1	0.00e+00	0	41	104	38914752512	60	44043
2026-01-08 00:12:42.87	216.67	5.46	-48.5	-51.1	6.1	0.00e+00	0	41	104	38914752512	60	43850
2026-01-08 00:12:45.90	216.57	5.22	-48.5	-51.0	6.1	0.00e+00	0	41	104	38914752512	60	43603
2026-01-08 00:12:48.93	216.47	4.97	-48.5	-51.0	6.1	0.00e+00	0	41	104	38914752512	60	43320
2026-01-08 00:12:51.94	216.37	4.73	-48.5	-51.0	6.1	0.00e+00	0	41	104	38914752512	60	43490
2026-01-08 00:12:54.97	216.27	4.50	-48.5	-51.0	6.1	0.00e+00	0	41	104	38914752512	60	43472
2026-01-08 00:12:57.99	216.18	4.26	-48.3	-50.8	6.0	0.00e+00	0	41	104	38914752512	60	42426
2026-01-08 00:13:01.02	216.09	4.03	-48.3	-50.7	6.1	0.00e+00	0	41	104	38914752512	60	42108
2026-01-08 00:13:04.05	216.00	3.80	-48.3	-50.8	6.1	0.00e+00	0	41	104	38914752512	60	42543
2026-01-08 00:13:07.07	215.91	3.57	-48.4	-50.9	6.1	0.00e+00	0	41	104	38914752512	60	42878
2026-01-08 00:13:10.10	215.82	3.35	-48.0	-50.5	6.1	0.00e+00	0	41	104	38914752512	60	41081
2026-01-08 00:13:13.13	215.74	3.13	-48.1	-50.5	6.0	0.00e+00	0	41	104	38914752512	60	41232
2026-01-08 00:13:16.16	215.65	2.91	-49.1	-51.6	6.1	0.00e+00	0	41	104	38914752512	60	46466
2026-01-08 00:13:19.19	215.57	2.69	-49.6	-52.0	6.1	0.00e+00	0	41	104	38914752512	60	48826
2026-01-08 00:13:22.22	215.49	2.47	-49.7	-52.2	6.1	0.00e+00	0	41	104	38914752512	60	50062
2026-01-08 00:13:25.25	215.42	2.26	-49.4	-51.9	6.1	0.00e+00	0	41	104	38914752512	60	48168
2026-01-08 00:13:28.27	215.34	2.05	-49.5	-52.0	6.1	0.00e+00	0	41	104	38914752512	60	49036
2026-01-08 00:13:31.31	215.27	1.84	-49.5	-52.0	6.1	0.00e+00	0	41	104	38914752512	60	48861
2026-01-08 00:13:34.33	215.19	1.63	-49.6	-52.1	6.1	0.00e+00	0	41	104	38914752512	60	49405
2026-01-08 00:13:37.36	215.12	1.42	-49.6	-52.1	6.1	0.00e+00	0	41	104	38914752512	60	49241
2026-01-08 00:13:40.40	215.05	1.22	-49.6	-52.1	6.1	0.00e+00	0	41	104	38914752512	60	49316
2026-01-08 00:13:43.43	214.98	1.02	-49.6	-52.1	6.1	0.00e+00	0	41	104	38914752512	60	49358
2026-01-08 00:13:46.46	214.92	0.82	-49.6	-52.1	6.1	0.00e+00	0	41	104	38914752512	60	49417
2026-01-08 00:13:49.49	214.85	0.62	-49.6	-52.0	6.1	0.00e+00	0	41	104	38914752512	60	48972
2026-01-08 00:13:52.52	214.78	0.42	-49.6	-52.1	6.1	0.00e+00	0	41	104	38914752512	60	49258
2026-01-08 00:13:55.55	214.72	0.22	-49.6	-52.0	6.1	0.00e+00	0	40	104	38914752512	60	48877
2026-01-08 00:13:58.57	214.66	0.03	-49.6	-52.1	6.1	0.00e+00	0	41	104	38914752512	60	49110

#Closed at: 2026-01-08 00:14:00
#Recorded file [38914 MB]: D:/lorett/data/35029_260108_120258.dat