passes_logs/2026/01/08/R4.6S_Anadyr/R4.6S_Anadyr__20260108_130541_NOAA_21_JPSS-2_rec.log

#Pass ID: 20260108_130541_NOAA 21 (JPSS-2)
#Satellite: NOAA 21 (JPSS-2)
#Configuration: NOAA-21
#almurnet v.1.7.20251203
#Start time: 2026-01-08 13:05:44

#Version: 2.2.20231116
#Station: R4.6S_Anadyr
#Location: 177.4865 lon 64.73178 lat
#TLE: 1 54234U 22150A   26007.89369592  .00000099  00000+0  67922-4 0  9991
#TLE: 2 54234  98.7493 308.8796 0000921 330.6018  29.5106 14.19533030163804

#Time	Az	El	Level	Level2	SNR	BER	BlckErr	Temp	State	Recorded	gain1	gain2
2026-01-08 13:05:44.87	18.83	0.18	-48.5	-59.9	3.3	1.54e+00	0	31	0	0	60	34627
2026-01-08 13:05:48.90	19.04	0.40	-48.6	-61.5	3.5	1.52e+00	0	32	104	0	60	41641
2026-01-08 13:05:52.94	19.26	0.63	-48.3	-61.1	3.5	1.51e+00	0	32	104	0	60	39978
2026-01-08 13:05:56.98	19.48	0.85	-47.6	-60.4	3.5	1.52e+00	0	32	104	0	60	36620
2026-01-08 13:06:01.01	19.71	1.07	-47.0	-59.7	3.5	1.52e+00	0	32	104	0	60	34088
2026-01-08 13:06:05.05	19.93	1.30	-47.0	-59.8	3.5	1.52e+00	0	32	104	0	60	34298
2026-01-08 13:06:09.09	20.16	1.53	-47.0	-59.8	3.5	1.52e+00	0	32	104	0	60	34117
2026-01-08 13:06:13.13	20.40	1.76	-47.0	-59.6	3.5	1.52e+00	0	32	104	0	60	33614
2026-01-08 13:06:17.17	20.63	1.99	-47.0	-59.8	3.5	1.52e+00	0	32	104	0	60	34229
2026-01-08 13:06:21.21	20.87	2.22	-46.9	-59.5	3.5	1.51e+00	0	32	104	0	60	33182
2026-01-08 13:06:25.24	21.12	2.46	-46.9	-59.0	3.5	1.51e+00	0	32	104	0	60	31230
2026-01-08 13:06:29.29	21.36	2.69	-44.6	-48.4	10.5	1.17e-02	123	32	0	2097152	60	9205
2026-01-08 13:06:33.32	21.62	2.93	-38.7	-40.0	18.9	0.00e+00	122	32	0	14680064	52	5572
2026-01-08 13:06:37.36	21.87	3.17	-38.7	-40.1	18.7	0.00e+00	122	32	0	27262976	50	6282
2026-01-08 13:06:41.40	22.13	3.41	-39.7	-41.3	17.7	0.00e+00	120	32	0	39845888	52	6446
2026-01-08 13:06:45.43	22.39	3.65	-47.0	-58.5	3.5	1.51e+00	0	32	104	44040192	60	29525
2026-01-08 13:06:49.47	22.66	3.89	-42.6	-45.0	14.3	7.00e-07	123	32	0	54525952	58	6995
2026-01-08 13:06:53.51	22.93	4.14	-38.3	-39.6	19.5	0.00e+00	120	33	0	67108864	50	5979
2026-01-08 13:06:57.54	23.20	4.39	-37.3	-38.5	20.5	0.00e+00	122	33	0	79691776	48	5865
2026-01-08 13:07:01.57	23.48	4.64	-37.1	-38.3	20.8	0.00e+00	122	32	0	92274688	48	5734
2026-01-08 13:07:05.61	23.76	4.89	-36.9	-38.0	21.0	0.00e+00	122	33	0	104857600	48	5565
2026-01-08 13:07:09.65	24.05	5.14	-36.7	-37.8	21.2	0.00e+00	123	33	0	117440512	46	6122
2026-01-08 13:07:13.69	24.35	5.39	-36.6	-37.7	21.4	0.00e+00	123	33	0	130023424	46	6052
2026-01-08 13:07:17.73	24.64	5.65	-36.6	-37.7	21.4	0.00e+00	123	33	0	142606336	46	6021
2026-01-08 13:07:21.76	24.95	5.91	-36.8	-37.9	21.2	0.00e+00	123	32	0	155189248	46	6137
2026-01-08 13:07:25.80	25.25	6.17	-36.6	-37.7	21.4	0.00e+00	121	33	0	167772160	46	6024
2026-01-08 13:07:29.83	25.57	6.43	-36.7	-37.8	21.3	0.00e+00	123	33	0	180355072	46	6132
2026-01-08 13:07:33.86	25.88	6.70	-36.6	-37.6	21.5	0.00e+00	122	33	0	192937984	46	5991
2026-01-08 13:07:37.90	26.21	6.96	-36.6	-37.7	21.5	0.00e+00	121	33	0	205520896	46	6062
2026-01-08 13:07:41.94	26.54	7.23	-36.3	-37.4	21.8	0.00e+00	123	33	0	218103808	46	5821
2026-01-08 13:07:45.98	26.87	7.50	-36.2	-37.3	21.9	0.00e+00	120	33	0	230686720	46	5738
2026-01-08 13:07:50.02	27.21	7.77	-36.2	-37.3	21.9	0.00e+00	123	33	0	243269632	46	5745
2026-01-08 13:07:54.05	27.56	8.05	-36.1	-37.2	22.1	0.00e+00	122	33	0	255852544	46	5680
2026-01-08 13:07:58.09	27.91	8.32	-35.9	-36.9	22.3	0.00e+00	120	33	0	268435456	46	5490
2026-01-08 13:08:02.13	28.27	8.60	-35.6	-36.6	22.5	0.00e+00	123	33	0	281018368	44	5957
2026-01-08 13:08:06.16	28.64	8.88	-35.4	-36.4	22.9	0.00e+00	123	33	0	293601280	44	5800
2026-01-08 13:08:10.19	29.01	9.17	-35.3	-36.3	22.9	0.00e+00	122	33	0	307232768	44	5764
2026-01-08 13:08:14.23	29.39	9.45	-35.2	-36.1	23.1	0.00e+00	121	33	0	319815680	44	5640
2026-01-08 13:08:18.26	29.78	9.74	-35.1	-36.1	23.0	0.00e+00	123	33	0	332398592	44	5612
2026-01-08 13:08:22.30	30.17	10.03	-34.8	-35.8	23.4	0.00e+00	123	33	0	344981504	44	5415
2026-01-08 13:08:26.34	30.58	10.32	-34.8	-35.8	23.5	0.00e+00	123	33	0	357564416	42	6081
2026-01-08 13:08:30.37	30.99	10.62	-34.8	-35.7	23.5	0.00e+00	122	33	0	370147328	42	6040
2026-01-08 13:08:34.41	31.40	10.91	-34.8	-35.8	23.5	0.00e+00	123	33	0	382730240	42	6070
2026-01-08 13:08:38.45	31.83	11.21	-34.6	-35.6	23.6	0.00e+00	123	33	0	395313152	42	5944
2026-01-08 13:08:42.48	32.26	11.52	-34.6	-35.5	23.7	0.00e+00	123	33	0	407896064	42	5889
2026-01-08 13:08:46.52	32.71	11.82	-34.3	-35.3	23.9	0.00e+00	120	33	0	420478976	42	5736
2026-01-08 13:08:50.56	33.16	12.13	-34.3	-35.2	23.9	0.00e+00	122	33	0	433061888	42	5674
2026-01-08 13:08:54.59	33.62	12.43	-34.2	-35.1	24.0	0.00e+00	123	33	0	445644800	42	5626
2026-01-08 13:08:58.63	34.09	12.74	-34.1	-35.0	23.9	0.00e+00	120	33	0	458227712	42	5592
2026-01-08 13:09:02.67	34.57	13.06	-34.2	-35.1	24.0	0.00e+00	120	33	0	470810624	42	5614
2026-01-08 13:09:06.71	35.06	13.37	-34.2	-35.2	23.9	0.00e+00	123	33	0	483393536	42	5664
2026-01-08 13:09:10.75	35.56	13.69	-34.5	-35.4	23.8	0.00e+00	123	33	0	495976448	42	5836
2026-01-08 13:09:14.78	36.07	14.01	-34.5	-35.4	23.8	0.00e+00	120	33	0	508559360	42	5835
2026-01-08 13:09:18.82	36.59	14.33	-34.6	-35.5	23.9	0.00e+00	122	33	0	521142272	42	5887
2026-01-08 13:09:22.86	37.13	14.66	-34.8	-35.7	23.6	0.00e+00	123	33	0	533725184	42	6042
2026-01-08 13:09:26.89	37.67	14.98	-34.5	-35.5	23.9	0.00e+00	120	33	0	546308096	42	5873
2026-01-08 13:09:30.93	38.22	15.31	-34.6	-35.6	23.8	0.00e+00	123	33	0	558891008	42	5937
2026-01-08 13:09:34.97	38.79	15.64	-34.6	-35.5	23.9	0.00e+00	123	33	0	571473920	42	5886
2026-01-08 13:09:39.01	39.37	15.97	-34.6	-35.5	23.7	0.00e+00	123	33	0	584056832	42	5907
2026-01-08 13:09:43.05	39.96	16.31	-34.8	-35.8	23.6	0.00e+00	122	33	0	596639744	42	6075
2026-01-08 13:09:47.08	40.57	16.64	-34.7	-35.7	23.7	0.00e+00	120	33	0	609222656	42	5996
2026-01-08 13:09:51.11	41.19	16.98	-35.0	-36.0	23.4	0.00e+00	123	33	0	621805568	42	6224
2026-01-08 13:09:55.14	41.82	17.32	-35.1	-36.0	23.4	0.00e+00	122	33	0	634388480	42	6256
2026-01-08 13:09:59.18	42.46	17.66	-35.0	-35.9	23.6	0.00e+00	122	33	0	646971392	42	6192
2026-01-08 13:10:03.22	43.12	18.00	-34.9	-35.8	23.6	0.00e+00	122	33	0	659554304	42	6098
2026-01-08 13:10:07.26	43.80	18.34	-34.9	-35.9	23.6	0.00e+00	123	33	0	672137216	42	6149
2026-01-08 13:10:11.30	44.49	18.68	-34.6	-35.5	23.8	0.00e+00	123	33	0	684720128	42	5909
2026-01-08 13:10:15.34	45.19	19.03	-34.4	-35.3	24.0	0.00e+00	122	33	0	698351616	42	5770
2026-01-08 13:10:19.38	45.91	19.37	-34.0	-34.9	24.2	0.00e+00	122	33	0	709885952	42	5524
2026-01-08 13:10:23.42	46.65	19.72	-33.9	-34.8	24.3	0.00e+00	123	33	0	723517440	42	5442
2026-01-08 13:10:27.46	47.40	20.06	-33.9	-34.8	24.3	0.00e+00	123	33	0	736100352	42	5454
2026-01-08 13:10:31.49	48.17	20.41	-33.7	-34.6	24.5	0.00e+00	120	33	0	748683264	40	5928
2026-01-08 13:10:35.53	48.96	20.75	-33.7	-34.6	24.5	0.00e+00	123	33	0	761266176	40	5951
2026-01-08 13:10:39.57	49.76	21.10	-33.2	-34.1	24.8	0.00e+00	120	33	0	773849088	40	5616
2026-01-08 13:10:43.60	50.58	21.44	-32.7	-33.6	25.2	0.00e+00	123	33	0	786432000	38	5944
2026-01-08 13:10:47.64	51.42	21.78	-32.9	-33.7	25.1	0.00e+00	123	33	0	799014912	38	6053
2026-01-08 13:10:51.68	52.28	22.12	-32.7	-33.6	25.4	0.00e+00	120	33	0	811597824	38	5928
2026-01-08 13:10:55.72	53.16	22.46	-32.5	-33.4	25.5	0.00e+00	122	33	0	824180736	38	5808
2026-01-08 13:10:59.76	54.05	22.79	-32.7	-33.5	25.4	0.00e+00	122	33	0	836763648	38	5908
2026-01-08 13:11:03.79	54.96	23.12	-32.7	-33.6	25.3	0.00e+00	123	33	0	849346560	38	5957
2026-01-08 13:11:07.83	55.90	23.45	-32.9	-33.8	25.2	0.00e+00	123	33	0	861929472	38	6065
2026-01-08 13:11:11.87	56.85	23.78	-33.1	-34.0	25.0	0.00e+00	120	33	0	874512384	38	6253
2026-01-08 13:11:15.91	57.82	24.10	-33.1	-34.0	24.9	0.00e+00	122	33	0	887095296	38	6215
2026-01-08 13:11:19.94	58.81	24.42	-33.1	-34.0	24.9	0.00e+00	120	33	0	899678208	38	6256
2026-01-08 13:11:23.98	59.82	24.73	-33.4	-34.2	24.8	0.00e+00	123	33	0	912261120	38	6417
2026-01-08 13:11:28.02	60.86	25.03	-33.9	-34.9	24.2	0.00e+00	121	33	0	924844032	40	6144
2026-01-08 13:11:32.05	61.90	25.33	-33.7	-34.6	24.6	0.00e+00	123	33	0	937426944	40	5949
2026-01-08 13:11:36.09	62.97	25.63	-33.4	-34.3	24.6	0.00e+00	120	33	0	950009856	40	5760
2026-01-08 13:11:40.13	64.06	25.91	-33.6	-34.5	24.7	0.00e+00	123	33	0	962592768	40	5859
2026-01-08 13:11:44.16	65.17	26.19	-33.1	-33.9	25.0	0.00e+00	123	33	0	975175680	40	5505
2026-01-08 13:11:48.20	66.30	26.46	-33.5	-34.4	24.8	0.00e+00	123	33	0	987758592	40	5831
2026-01-08 13:11:52.24	67.45	26.72	-33.2	-34.0	24.9	0.00e+00	122	33	0	1000341504	40	5588
2026-01-08 13:11:56.27	68.61	26.97	-33.3	-34.2	24.8	0.00e+00	123	33	0	1012924416	40	5699
2026-01-08 13:12:00.31	69.79	27.21	-33.1	-34.0	24.9	0.00e+00	120	33	0	1025507328	40	5535
2026-01-08 13:12:04.35	70.99	27.44	-33.5	-34.4	24.7	0.00e+00	123	33	0	1038090240	40	5797
2026-01-08 13:12:08.39	72.21	27.65	-33.3	-34.2	24.8	0.00e+00	122	33	0	1050673152	40	5700
2026-01-08 13:12:12.43	73.44	27.86	-33.6	-34.5	24.7	0.00e+00	120	33	0	1063256064	40	5894
2026-01-08 13:12:16.46	74.68	28.05	-33.6	-34.4	24.5	0.00e+00	122	33	0	1075838976	40	5844
2026-01-08 13:12:20.50	75.95	28.23	-33.3	-34.2	24.8	0.00e+00	122	33	0	1088421888	40	5681
2026-01-08 13:12:24.54	77.22	28.39	-33.5	-34.3	24.7	0.00e+00	123	33	0	1102053376	40	5785
2026-01-08 13:12:28.58	78.51	28.55	-33.5	-34.3	24.7	0.00e+00	122	33	0	1113587712	40	5775
2026-01-08 13:12:32.62	79.81	28.68	-33.7	-34.6	24.6	0.00e+00	124	33	0	1127219200	40	5964
2026-01-08 13:12:36.66	81.12	28.80	-33.6	-34.5	24.5	0.00e+00	123	33	0	1139802112	40	5907
2026-01-08 13:12:40.69	82.44	28.91	-33.5	-34.4	24.8	0.00e+00	123	33	0	1152385024	40	5801
2026-01-08 13:12:44.73	83.76	29.00	-33.6	-34.4	24.5	0.00e+00	123	33	0	1164967936	40	5852
2026-01-08 13:12:48.77	85.10	29.07	-33.3	-34.1	24.8	0.00e+00	122	33	0	1177550848	40	5637
2026-01-08 13:12:52.80	86.43	29.13	-33.5	-34.4	24.7	0.00e+00	123	33	0	1190133760	40	5846
2026-01-08 13:12:56.84	87.78	29.17	-33.6	-34.5	24.5	0.00e+00	123	33	0	1202716672	40	5862
2026-01-08 13:13:00.88	89.12	29.19	-33.2	-34.1	24.8	0.00e+00	127	33	0	1215299584	40	5603
2026-01-08 13:13:04.92	90.47	29.20	-33.7	-34.5	24.6	0.00e+00	123	33	0	1227882496	40	5924
2026-01-08 13:13:08.96	91.82	29.18	-33.6	-34.5	24.6	0.00e+00	123	33	0	1240465408	40	5916
2026-01-08 13:13:13.00	93.16	29.16	-33.6	-34.5	24.6	0.00e+00	123	33	0	1253048320	40	5913
2026-01-08 13:13:17.04	94.51	29.11	-33.6	-34.5	24.6	0.00e+00	123	33	0	1265631232	40	5894
2026-01-08 13:13:21.07	95.84	29.05	-33.6	-34.5	24.7	0.00e+00	122	33	0	1278214144	40	5910
2026-01-08 13:13:25.11	97.18	28.97	-33.7	-34.6	24.6	0.00e+00	122	33	0	1290797056	40	5993
2026-01-08 13:13:29.15	98.50	28.88	-33.8	-34.7	24.5	0.00e+00	123	33	0	1303379968	40	6044
2026-01-08 13:13:33.18	99.82	28.77	-33.7	-34.6	24.6	0.00e+00	122	33	0	1315962880	40	5953
2026-01-08 13:13:37.22	101.13	28.65	-33.6	-34.5	24.5	0.00e+00	123	33	0	1328545792	40	5924
2026-01-08 13:13:41.27	102.43	28.51	-33.2	-34.1	24.7	0.00e+00	122	33	0	1341128704	40	5629
2026-01-08 13:13:45.30	103.71	28.35	-33.6	-34.5	24.3	0.00e+00	120	33	0	1353711616	40	5875
2026-01-08 13:13:49.35	104.99	28.18	-33.4	-34.3	24.3	0.00e+00	123	33	0	1366294528	40	5784
2026-01-08 13:13:53.39	106.25	28.00	-33.3	-34.2	24.5	0.00e+00	123	33	0	1378877440	40	5712
2026-01-08 13:13:57.42	107.50	27.80	-33.4	-34.3	24.7	0.00e+00	123	33	0	1391460352	40	5749
2026-01-08 13:14:01.46	108.73	27.59	-33.2	-34.1	24.9	0.00e+00	122	33	0	1404043264	40	5600
2026-01-08 13:14:05.49	109.94	27.37	-33.3	-34.1	24.8	0.00e+00	122	33	0	1416626176	40	5641
2026-01-08 13:14:09.53	111.14	27.14	-33.2	-34.0	24.9	0.00e+00	122	33	0	1429209088	40	5581
2026-01-08 13:14:13.57	112.32	26.90	-33.2	-34.1	25.0	0.00e+00	123	33	0	1441792000	40	5607
2026-01-08 13:14:17.61	113.48	26.64	-33.2	-34.0	24.9	0.00e+00	121	33	0	1454374912	40	5580
2026-01-08 13:14:21.65	114.63	26.38	-33.1	-34.0	25.0	0.00e+00	122	33	0	1468006400	40	5565
2026-01-08 13:14:25.69	115.75	26.10	-33.4	-34.2	24.8	0.00e+00	122	33	0	1480589312	40	5712
2026-01-08 13:14:29.73	116.86	25.82	-33.5	-34.4	24.5	0.00e+00	123	33	0	1493172224	40	5828
2026-01-08 13:14:33.76	117.95	25.54	-33.2	-34.0	25.0	0.00e+00	122	33	0	1505755136	40	5593
2026-01-08 13:14:37.80	119.01	25.24	-33.4	-34.2	24.7	0.00e+00	120	33	0	1518338048	40	5724
2026-01-08 13:14:41.84	120.06	24.94	-33.1	-34.0	24.9	0.00e+00	123	33	0	1530920960	40	5563
2026-01-08 13:14:45.88	121.09	24.63	-32.7	-33.6	25.3	0.00e+00	122	33	0	1543503872	38	5940
2026-01-08 13:14:49.92	122.10	24.31	-33.2	-34.0	25.0	0.00e+00	123	33	0	1556086784	38	6277
2026-01-08 13:14:53.95	123.09	23.99	-33.2	-34.1	24.8	0.00e+00	123	33	0	1568669696	38	6303
2026-01-08 13:14:57.99	124.06	23.67	-33.2	-34.1	24.8	0.00e+00	122	33	0	1581252608	38	6327
2026-01-08 13:15:02.03	125.01	23.34	-33.3	-34.2	24.8	0.00e+00	120	33	0	1593835520	38	6385
2026-01-08 13:15:06.06	125.94	23.01	-33.1	-33.9	25.0	0.00e+00	122	33	0	1606418432	38	6194
2026-01-08 13:15:10.10	126.85	22.67	-33.1	-34.0	24.9	0.00e+00	123	33	0	1619001344	38	6216
2026-01-08 13:15:14.14	127.75	22.33	-32.9	-33.8	25.1	0.00e+00	123	33	0	1631584256	38	6093
2026-01-08 13:15:18.17	128.62	21.99	-32.9	-33.7	25.1	0.00e+00	122	33	0	1644167168	38	6052
2026-01-08 13:15:22.21	129.47	21.65	-33.3	-34.2	24.8	0.00e+00	123	33	0	1656750080	38	6382
2026-01-08 13:15:26.25	130.31	21.30	-33.3	-34.2	24.7	0.00e+00	122	33	0	1669332992	38	6386
2026-01-08 13:15:30.28	131.13	20.96	-33.3	-34.2	24.7	0.00e+00	123	33	0	1681915904	38	6360
2026-01-08 13:15:34.31	131.93	20.61	-33.3	-34.1	24.6	0.00e+00	123	33	0	1694498816	38	6350
2026-01-08 13:15:38.35	132.71	20.27	-33.5	-34.4	24.6	0.00e+00	123	33	0	1707081728	38	6527
2026-01-08 13:15:42.39	133.48	19.92	-33.5	-34.4	24.6	0.00e+00	120	33	0	1719664640	38	6527
2026-01-08 13:15:46.43	134.23	19.57	-33.6	-34.4	24.6	0.00e+00	123	33	0	1732247552	38	6573
2026-01-08 13:15:50.47	134.97	19.22	-33.7	-34.6	24.4	0.00e+00	120	33	0	1744830464	38	6674
2026-01-08 13:15:54.50	135.68	18.88	-33.9	-34.9	24.2	0.00e+00	123	33	0	1757413376	40	6152
2026-01-08 13:15:58.54	136.39	18.53	-33.9	-34.8	24.2	0.00e+00	122	33	0	1769996288	40	6087
2026-01-08 13:16:02.58	137.07	18.19	-33.8	-34.8	24.0	0.00e+00	122	33	0	1782579200	40	6071
2026-01-08 13:16:06.62	137.75	17.84	-33.8	-34.7	24.2	0.00e+00	123	33	0	1795162112	40	6055
2026-01-08 13:16:10.66	138.40	17.50	-33.6	-34.5	24.4	0.00e+00	122	33	0	1807745024	40	5879
2026-01-08 13:16:14.70	139.05	17.15	-33.5	-34.3	24.6	0.00e+00	121	33	0	1820327936	40	5776
2026-01-08 13:16:18.74	139.68	16.81	-33.7	-34.6	24.3	0.00e+00	123	33	0	1833959424	40	5932
2026-01-08 13:16:22.78	140.29	16.47	-33.8	-34.7	24.2	0.00e+00	123	33	0	1845493760	40	6014
2026-01-08 13:16:26.82	140.89	16.14	-33.8	-34.7	24.3	0.00e+00	122	33	0	1859125248	40	6019
2026-01-08 13:16:30.86	141.48	15.80	-33.7	-34.6	24.2	0.00e+00	123	33	0	1871708160	40	5973
2026-01-08 13:16:34.89	142.06	15.47	-34.1	-35.0	23.9	0.00e+00	123	33	0	1884291072	40	6241
2026-01-08 13:16:38.93	142.62	15.14	-34.4	-35.3	23.8	0.00e+00	123	33	0	1896873984	40	6464
2026-01-08 13:16:42.97	143.18	14.80	-34.4	-35.4	23.7	0.00e+00	118	33	0	1909456896	40	6513
2026-01-08 13:16:47.00	143.72	14.48	-34.7	-35.6	23.5	0.00e+00	123	33	0	1922039808	42	5964
2026-01-08 13:16:51.04	144.25	14.15	-34.7	-35.7	23.5	0.00e+00	122	33	0	1934622720	42	6002
2026-01-08 13:16:55.08	144.77	13.83	-34.5	-35.5	23.6	0.00e+00	123	33	0	1947205632	42	5862
2026-01-08 13:16:59.12	145.27	13.51	-34.8	-35.8	23.3	0.00e+00	123	33	0	1959788544	42	6076
2026-01-08 13:17:03.15	145.77	13.19	-34.9	-35.9	23.3	0.00e+00	122	33	0	1972371456	42	6142
2026-01-08 13:17:07.19	146.26	12.87	-34.7	-35.7	23.4	0.00e+00	123	33	0	1984954368	42	6013
2026-01-08 13:17:11.23	146.74	12.56	-34.7	-35.7	23.5	0.00e+00	123	33	0	1997537280	42	6012
2026-01-08 13:17:15.27	147.20	12.24	-34.8	-35.7	23.5	0.00e+00	122	33	0	2010120192	42	6028
2026-01-08 13:17:19.31	147.66	11.93	-34.8	-35.8	23.4	0.00e+00	122	33	0	2022703104	42	6094
2026-01-08 13:17:23.34	148.11	11.63	-34.7	-35.7	23.4	0.00e+00	122	33	0	2035286016	42	5998
2026-01-08 13:17:27.38	148.55	11.32	-34.8	-35.8	23.2	0.00e+00	123	33	0	2047868928	42	6085
2026-01-08 13:17:31.42	148.98	11.02	-34.8	-35.7	23.3	0.00e+00	123	33	0	2060451840	42	6019
2026-01-08 13:17:35.46	149.40	10.72	-35.1	-36.0	23.1	0.00e+00	120	33	0	2073034752	42	6246
2026-01-08 13:17:39.50	149.82	10.42	-35.1	-36.1	23.0	0.00e+00	120	33	0	2085617664	42	6308
2026-01-08 13:17:43.54	150.23	10.12	-35.3	-36.3	22.9	0.00e+00	120	33	0	2098200576	42	6468
2026-01-08 13:17:47.58	150.63	9.83	-35.3	-36.3	22.9	0.00e+00	123	33	0	2110783488	42	6433
2026-01-08 13:17:51.62	151.02	9.53	-35.4	-36.4	22.7	0.00e+00	123	33	0	2123366400	42	6508
2026-01-08 13:17:55.66	151.40	9.25	-35.6	-36.6	22.6	0.00e+00	122	33	0	2135949312	42	6663
2026-01-08 13:17:59.69	151.78	8.96	-35.3	-36.3	22.7	0.00e+00	120	33	0	2148532224	42	6485
2026-01-08 13:18:03.73	152.15	8.67	-35.3	-36.2	22.8	0.00e+00	123	33	0	2161115136	42	6415
2026-01-08 13:18:07.76	152.51	8.39	-35.5	-36.5	22.5	0.00e+00	123	33	0	2173698048	42	6609
2026-01-08 13:18:11.81	152.87	8.11	-36.0	-37.0	21.9	0.00e+00	122	33	0	2186280960	44	6256
2026-01-08 13:18:15.84	153.22	7.83	-37.0	-38.1	20.7	0.00e+00	123	33	0	2199912448	46	6308
2026-01-08 13:18:19.88	153.56	7.56	-37.9	-39.2	19.5	0.00e+00	120	33	0	2212495360	48	6389
2026-01-08 13:18:23.92	153.90	7.28	-38.7	-40.2	18.1	0.00e+00	122	33	0	2224029696	48	7130
2026-01-08 13:18:27.96	154.23	7.01	-39.3	-40.8	17.5	0.00e+00	123	33	0	2237661184	50	6856
2026-01-08 13:18:32.00	154.56	6.74	-39.8	-41.6	16.6	0.00e+00	122	34	0	2250244096	52	6712
2026-01-08 13:18:36.03	154.88	6.47	-40.2	-42.1	16.1	0.00e+00	120	34	0	2262827008	52	7090
2026-01-08 13:18:40.07	155.19	6.21	-40.3	-42.2	16.2	0.00e+00	123	33	0	2275409920	52	7182
2026-01-08 13:18:44.11	155.50	5.95	-40.1	-41.8	16.7	0.00e+00	120	33	0	2287992832	52	6865
2026-01-08 13:18:48.15	155.80	5.68	-39.9	-41.6	17.0	0.00e+00	123	34	0	2300575744	52	6705
2026-01-08 13:18:52.18	156.10	5.42	-39.3	-40.8	17.8	0.00e+00	122	34	0	2313158656	52	6134
2026-01-08 13:18:56.22	156.40	5.17	-39.0	-40.4	18.4	0.00e+00	123	33	0	2325741568	52	5857
2026-01-08 13:19:00.26	156.68	4.91	-38.8	-40.2	18.6	0.00e+00	123	33	0	2338324480	50	6391
2026-01-08 13:19:04.30	156.97	4.66	-38.3	-39.6	19.3	0.00e+00	120	33	0	2350907392	50	5927
2026-01-08 13:19:08.33	157.25	4.41	-38.1	-39.4	19.4	0.00e+00	122	33	0	2363490304	50	5838
2026-01-08 13:19:12.37	157.52	4.15	-38.1	-39.3	19.5	0.00e+00	122	34	0	2376073216	50	5784
2026-01-08 13:19:16.41	157.79	3.91	-37.9	-39.2	19.7	0.00e+00	122	33	0	2388656128	50	5666
2026-01-08 13:19:20.45	158.06	3.66	-37.8	-39.0	19.6	0.00e+00	123	33	0	2401239040	48	6271
2026-01-08 13:19:24.49	158.32	3.41	-37.7	-39.0	19.6	0.00e+00	123	33	0	2413821952	48	6245
2026-01-08 13:19:28.53	158.58	3.17	-37.9	-39.1	19.4	0.00e+00	123	33	0	2426404864	48	6340
2026-01-08 13:19:32.56	158.84	2.93	-46.0	-58.9	3.5	1.52e+00	0	34	104	2436890624	60	30806
2026-01-08 13:19:36.60	159.09	2.69	-48.3	-61.1	3.5	1.52e+00	0	33	104	2436890624	60	39757
2026-01-08 13:19:40.64	159.33	2.45	-48.5	-61.4	3.5	1.52e+00	0	34	104	2436890624	60	41019
2026-01-08 13:19:44.68	159.58	2.21	-48.8	-61.7	3.5	1.52e+00	0	33	104	2436890624	60	42634
2026-01-08 13:19:48.71	159.82	1.98	-48.4	-61.2	3.5	1.52e+00	0	34	104	2436890624	60	40387
2026-01-08 13:19:52.75	160.05	1.75	-48.4	-61.2	3.5	1.52e+00	0	33	104	2436890624	60	40319
2026-01-08 13:19:56.79	160.28	1.51	-48.4	-61.2	3.5	1.52e+00	0	34	104	2436890624	60	40485
2026-01-08 13:20:00.83	160.51	1.28	-48.4	-61.2	3.5	1.52e+00	0	34	104	2436890624	60	40428
2026-01-08 13:20:04.87	160.74	1.05	-48.4	-61.2	3.5	1.52e+00	0	34	104	2436890624	60	40436
2026-01-08 13:20:08.90	160.96	0.83	-48.4	-61.3	3.5	1.51e+00	0	34	104	2436890624	60	40609
2026-01-08 13:20:12.94	161.18	0.60	-48.4	-61.2	3.5	1.52e+00	0	34	104	2436890624	60	40463
2026-01-08 13:20:16.98	161.40	0.38	-48.4	-61.2	3.5	1.52e+00	0	34	104	2436890624	60	40321
2026-01-08 13:20:21.01	161.61	0.15	-48.4	-61.2	3.5	1.52e+00	0	34	104	2436890624	60	40180
2026-01-08 13:20:25.05	161.82	-0.07	-48.4	-61.2	3.5	1.52e+00	0	34	104	2436890624	60	40417

#Closed at: 2026-01-08 13:20:25
#Recorded file [2436 MB]: D:/lorett/data/35029_260109_010544.dat