passes_logs/2026/01/08/R4.6S_Anadyr/R4.6S_Anadyr__20260108_133519_SUOMI_NPP_rec.log

#Pass ID: 20260108_133519_SUOMI NPP
#Satellite: SUOMI NPP
#Configuration: NPP
#almurnet v.1.7.20251203
#Start time: 2026-01-08 13:35:22

#Version: 2.2.20231116
#Station: R4.6S_Anadyr
#Location: 177.4865 lon 64.73178 lat
#TLE: 1 37849U 11061A   26005.94084933  .00000134  00000+0  84554-4 0  9990
#TLE: 2 37849  98.7803 308.0679 0002567  79.1029 281.0436 14.19522657735426

#Time	Az	El	Level	Level2	SNR	BER	BlckErr	Temp	State	Recorded	gain1	gain2
2026-01-08 13:35:22.11	19.01	0.14	-48.4	-60.8	3.4	1.52e+00	0	30	0	0	60	38486
2026-01-08 13:35:26.14	19.17	0.37	-48.5	-63.7	3.6	1.51e+00	0	31	104	0	60	55521
2026-01-08 13:35:30.18	19.34	0.60	-48.5	-63.7	3.6	1.51e+00	0	32	104	0	60	55074
2026-01-08 13:35:34.00	19.50	0.82	-48.0	-63.2	3.6	1.51e+00	0	32	104	0	60	52191
2026-01-08 13:35:38.04	19.67	1.06	-47.0	-62.2	3.6	1.51e+00	0	32	104	0	60	46449
2026-01-08 13:35:42.09	19.85	1.29	-47.0	-62.1	3.6	1.51e+00	0	32	104	0	60	46239
2026-01-08 13:35:46.13	20.02	1.53	-47.0	-62.1	3.6	1.51e+00	0	32	104	0	60	45919
2026-01-08 13:35:50.16	20.20	1.77	-47.0	-62.0	3.6	1.51e+00	0	32	104	0	60	45579
2026-01-08 13:35:54.20	20.38	2.01	-47.0	-62.2	3.6	1.51e+00	0	32	104	0	60	46299
2026-01-08 13:35:58.24	20.57	2.26	-47.0	-62.1	3.6	1.51e+00	0	32	104	0	60	46139
2026-01-08 13:36:02.27	20.75	2.50	-46.9	-61.3	3.6	1.51e+00	0	32	104	0	60	41866
2026-01-08 13:36:06.31	20.94	2.75	-46.9	-60.2	3.6	1.51e+00	0	32	104	0	60	36845
2026-01-08 13:36:10.35	21.13	3.00	-44.4	-48.1	13.0	1.09e-04	0	32	0	5242880	60	9233
2026-01-08 13:36:14.39	21.33	3.25	-42.0	-44.1	16.9	0.00e+00	0	32	0	12582912	58	6499
2026-01-08 13:36:18.42	21.53	3.51	-43.4	-46.4	14.4	0.00e+00	0	32	0	19922944	58	8457
2026-01-08 13:36:22.45	21.73	3.76	-45.9	-52.5	9.5	1.25e+00	0	32	104	26214400	60	15262
2026-01-08 13:36:26.50	21.93	4.02	-44.6	-48.5	12.2	8.87e-01	0	32	104	28311552	60	9627
2026-01-08 13:36:30.53	22.14	4.28	-44.9	-49.0	12.6	7.40e-05	0	32	0	34603008	60	10133
2026-01-08 13:36:34.57	22.35	4.54	-42.6	-44.9	16.3	0.00e+00	0	32	0	42991616	60	6353
2026-01-08 13:36:38.60	22.57	4.81	-42.4	-44.5	16.8	0.00e+00	0	32	0	50331648	58	6837
2026-01-08 13:36:42.64	22.79	5.08	-41.5	-43.4	17.9	0.00e+00	0	32	0	57671680	56	6696
2026-01-08 13:36:46.68	23.01	5.35	-41.0	-42.7	18.7	0.00e+00	0	32	0	65011712	56	6187
2026-01-08 13:36:50.71	23.23	5.62	-40.7	-42.3	19.1	0.00e+00	0	32	0	73400320	54	6621
2026-01-08 13:36:54.75	23.46	5.89	-40.6	-42.1	19.2	0.00e+00	0	32	0	80740352	54	6490
2026-01-08 13:36:58.79	23.70	6.17	-40.2	-41.6	19.7	0.00e+00	0	32	0	88080384	54	6114
2026-01-08 13:37:02.82	23.94	6.45	-40.2	-41.7	19.6	0.00e+00	0	32	0	95420416	54	6181
2026-01-08 13:37:06.86	24.18	6.73	-39.8	-41.1	20.1	0.00e+00	0	32	0	102760448	54	5799
2026-01-08 13:37:10.90	24.43	7.02	-39.8	-41.1	20.2	0.00e+00	0	32	0	111149056	52	6510
2026-01-08 13:37:14.94	24.68	7.31	-39.4	-40.7	20.7	0.00e+00	0	32	0	118489088	52	6178
2026-01-08 13:37:18.97	24.93	7.60	-39.2	-40.4	20.9	0.00e+00	0	32	0	125829120	52	6020
2026-01-08 13:37:23.01	25.19	7.89	-39.2	-40.4	20.9	0.00e+00	0	32	0	133169152	52	6004
2026-01-08 13:37:27.05	25.46	8.19	-39.2	-40.4	21.1	0.00e+00	0	32	0	141557760	52	5981
2026-01-08 13:37:31.08	25.73	8.49	-39.4	-40.6	20.8	0.00e+00	0	32	0	148897792	52	6169
2026-01-08 13:37:35.12	26.01	8.79	-39.1	-40.2	21.1	0.00e+00	0	32	0	156237824	52	5891
2026-01-08 13:37:39.16	26.29	9.10	-39.0	-40.2	21.3	0.00e+00	0	32	0	163577856	52	5843
2026-01-08 13:37:43.19	26.57	9.41	-39.0	-40.2	21.2	0.00e+00	0	32	0	170917888	52	5852
2026-01-08 13:37:47.23	26.87	9.72	-38.8	-40.0	21.5	0.00e+00	0	33	0	179306496	50	6401
2026-01-08 13:37:51.27	27.17	10.04	-38.7	-39.8	21.6	0.00e+00	0	32	0	186646528	50	6313
2026-01-08 13:37:55.30	27.47	10.36	-38.6	-39.7	21.7	0.00e+00	0	32	0	193986560	50	6213
2026-01-08 13:37:59.34	27.78	10.68	-38.2	-39.2	22.1	0.00e+00	0	32	0	201326592	50	5887
2026-01-08 13:38:03.38	28.10	11.01	-38.0	-39.0	22.2	0.00e+00	0	32	0	208666624	50	5754
2026-01-08 13:38:07.41	28.42	11.34	-37.8	-38.8	22.5	0.00e+00	0	32	0	217055232	48	6272
2026-01-08 13:38:11.45	28.75	11.67	-37.6	-38.6	22.7	0.00e+00	0	32	0	224395264	48	6105
2026-01-08 13:38:15.49	29.09	12.01	-37.9	-39.0	22.3	0.00e+00	0	32	0	231735296	48	6408
2026-01-08 13:38:19.52	29.44	12.35	-37.9	-38.9	22.3	0.00e+00	0	32	0	239075328	48	6364
2026-01-08 13:38:23.56	29.79	12.70	-37.5	-38.5	22.8	0.00e+00	0	32	0	247463936	48	6078
2026-01-08 13:38:27.60	30.16	13.05	-37.4	-38.3	22.9	0.00e+00	0	32	0	254803968	48	5955
2026-01-08 13:38:31.63	30.53	13.40	-37.5	-38.5	22.8	0.00e+00	0	33	0	262144000	48	6052
2026-01-08 13:38:35.67	30.90	13.76	-37.6	-38.5	22.8	0.00e+00	0	32	0	269484032	48	6096
2026-01-08 13:38:39.71	31.29	14.12	-37.5	-38.5	22.9	0.00e+00	0	33	0	276824064	48	6051
2026-01-08 13:38:43.74	31.69	14.49	-37.7	-38.7	22.7	0.00e+00	0	33	0	285212672	48	6235
2026-01-08 13:38:47.77	32.09	14.86	-37.8	-38.8	22.6	0.00e+00	0	32	0	292552704	48	6267
2026-01-08 13:38:51.81	32.51	15.23	-37.7	-38.7	22.7	0.00e+00	0	33	0	299892736	48	6199
2026-01-08 13:38:55.84	32.94	15.61	-37.8	-38.8	22.6	0.00e+00	0	32	0	307232768	48	6306
2026-01-08 13:38:59.88	33.37	16.00	-37.8	-38.8	22.6	0.00e+00	0	33	0	314572800	48	6269
2026-01-08 13:39:03.92	33.82	16.39	-37.7	-38.7	22.6	0.00e+00	0	32	0	322961408	48	6222
2026-01-08 13:39:07.95	34.28	16.78	-37.6	-38.6	22.8	0.00e+00	0	32	0	330301440	48	6127
2026-01-08 13:39:11.99	34.75	17.18	-37.6	-38.6	22.8	0.00e+00	0	33	0	337641472	48	6149
2026-01-08 13:39:16.02	35.23	17.58	-37.5	-38.5	22.8	0.00e+00	0	32	0	344981504	48	6083
2026-01-08 13:39:20.06	35.73	17.99	-37.8	-38.9	22.6	0.00e+00	0	32	0	353370112	48	6320
2026-01-08 13:39:24.09	36.24	18.40	-38.2	-39.3	22.2	0.00e+00	0	33	0	360710144	48	6665
2026-01-08 13:39:28.13	36.76	18.82	-37.9	-38.9	22.6	0.00e+00	0	32	0	368050176	48	6334
2026-01-08 13:39:32.17	37.30	19.24	-37.7	-38.6	22.8	0.00e+00	0	32	0	375390208	48	6163
2026-01-08 13:39:36.20	37.85	19.67	-37.7	-38.6	22.8	0.00e+00	0	33	0	382730240	48	6142
2026-01-08 13:39:40.24	38.41	20.10	-37.7	-38.6	22.8	0.00e+00	0	32	0	391118848	48	6171
2026-01-08 13:39:44.27	38.99	20.54	-38.1	-39.1	22.6	0.00e+00	0	32	0	398458880	48	6511
2026-01-08 13:39:48.31	39.59	20.98	-38.2	-39.2	22.4	0.00e+00	0	32	0	405798912	48	6599
2026-01-08 13:39:52.34	40.21	21.43	-37.6	-38.5	23.0	0.00e+00	0	32	0	413138944	48	6096
2026-01-08 13:39:56.38	40.84	21.88	-37.5	-38.4	22.7	0.00e+00	0	32	0	421527552	48	5990
2026-01-08 13:40:00.42	41.49	22.34	-37.7	-38.6	22.8	0.00e+00	0	32	0	428867584	48	6151
2026-01-08 13:40:04.45	42.16	22.80	-37.8	-38.8	22.9	0.00e+00	0	32	0	436207616	48	6251
2026-01-08 13:40:08.49	42.85	23.26	-37.1	-37.9	23.4	0.00e+00	0	33	0	443547648	48	5694
2026-01-08 13:40:12.52	43.56	23.73	-36.9	-37.7	23.6	0.00e+00	0	33	0	450887680	48	5561
2026-01-08 13:40:16.56	44.29	24.21	-37.8	-38.8	22.8	0.00e+00	0	32	0	459276288	48	6246
2026-01-08 13:40:20.60	45.04	24.68	-37.8	-38.7	22.9	0.00e+00	0	33	0	466616320	48	6222
2026-01-08 13:40:24.63	45.81	25.16	-36.7	-37.6	23.8	0.00e+00	0	33	0	473956352	46	6120
2026-01-08 13:40:28.67	46.61	25.65	-36.7	-37.5	23.7	0.00e+00	0	33	0	481296384	46	6080
2026-01-08 13:40:32.71	47.44	26.14	-36.8	-37.7	23.4	0.00e+00	0	33	0	489684992	46	6192
2026-01-08 13:40:36.75	48.29	26.63	-36.8	-37.7	23.6	0.00e+00	0	32	0	497025024	46	6214
2026-01-08 13:40:40.78	49.16	27.12	-36.9	-37.8	23.6	0.00e+00	0	33	0	504365056	46	6282
2026-01-08 13:40:44.82	50.06	27.61	-36.5	-37.3	23.9	0.00e+00	0	32	0	511705088	46	5964
2026-01-08 13:40:48.85	50.99	28.11	-36.5	-37.4	23.9	0.00e+00	0	33	0	519045120	46	5972
2026-01-08 13:40:52.89	51.95	28.60	-36.9	-37.8	23.6	0.00e+00	0	33	0	527433728	46	6271
2026-01-08 13:40:56.93	52.93	29.10	-37.6	-38.6	23.2	0.00e+00	0	33	0	534773760	46	6851
2026-01-08 13:41:00.97	53.95	29.59	-38.1	-39.1	22.6	0.00e+00	0	33	0	542113792	48	6497
2026-01-08 13:41:05.00	55.00	30.09	-38.9	-40.0	21.8	0.00e+00	0	33	0	549453824	50	6435
2026-01-08 13:41:09.04	56.08	30.58	-39.0	-40.1	21.9	0.00e+00	0	33	0	557842432	50	6493
2026-01-08 13:41:13.08	57.19	31.07	-40.6	-41.9	20.2	0.00e+00	0	33	0	565182464	52	7160
2026-01-08 13:41:17.12	58.34	31.56	-41.3	-42.8	19.5	0.00e+00	0	33	0	572522496	54	7051
2026-01-08 13:41:21.16	59.52	32.04	-41.1	-42.5	19.6	0.00e+00	0	33	0	579862528	54	6785
2026-01-08 13:41:25.19	60.74	32.51	-41.7	-43.2	19.1	0.00e+00	0	33	0	587202560	56	6584
2026-01-08 13:41:29.23	61.99	32.98	-41.5	-43.0	19.6	0.00e+00	0	33	0	595591168	56	6455
2026-01-08 13:41:33.27	63.28	33.44	-42.6	-44.4	18.3	0.00e+00	0	33	0	602931200	58	6722
2026-01-08 13:41:37.30	64.60	33.90	-41.2	-42.6	19.6	0.00e+00	0	33	0	610271232	56	6157
2026-01-08 13:41:41.35	65.96	34.34	-41.1	-42.5	19.5	0.00e+00	0	33	0	617611264	56	6062
2026-01-08 13:41:45.38	67.35	34.77	-41.8	-43.4	18.9	0.00e+00	0	33	0	624951296	58	5985
2026-01-08 13:41:49.42	68.79	35.18	-38.6	-39.6	22.3	0.00e+00	0	33	0	633339904	50	6172
2026-01-08 13:41:53.46	70.26	35.58	-40.3	-41.6	20.6	0.00e+00	0	33	0	640679936	54	6119
2026-01-08 13:41:57.49	71.76	35.97	-37.8	-38.8	22.8	0.00e+00	0	33	0	648019968	48	6272
2026-01-08 13:42:01.53	73.29	36.33	-38.7	-39.7	22.2	0.00e+00	0	33	0	655360000	48	6969
2026-01-08 13:42:05.56	74.86	36.68	-37.3	-38.2	23.4	0.00e+00	0	33	0	663748608	48	5867
2026-01-08 13:42:09.60	76.47	37.01	-38.1	-39.1	22.6	0.00e+00	0	33	0	671088640	48	6517
2026-01-08 13:42:13.64	78.10	37.31	-38.2	-39.1	22.6	0.00e+00	0	33	0	678428672	48	6523
2026-01-08 13:42:17.67	79.77	37.59	-38.0	-39.0	22.9	0.00e+00	0	33	0	685768704	50	5699
2026-01-08 13:42:21.71	81.46	37.85	-37.6	-38.5	22.9	0.00e+00	0	33	0	693108736	48	6074
2026-01-08 13:42:25.74	83.17	38.08	-38.9	-39.9	22.2	0.00e+00	0	33	0	701497344	50	6374
2026-01-08 13:42:29.78	84.91	38.28	-37.7	-38.7	22.9	0.00e+00	0	33	0	708837376	50	5527
2026-01-08 13:42:33.82	86.68	38.46	-38.0	-39.0	22.7	0.00e+00	0	33	0	716177408	48	6464
2026-01-08 13:42:37.86	88.46	38.61	-39.7	-40.9	21.2	0.00e+00	0	33	0	723517440	50	7107
2026-01-08 13:42:41.90	90.25	38.72	-38.9	-39.9	22.0	0.00e+00	0	33	0	731906048	52	5676
2026-01-08 13:42:45.93	92.05	38.81	-39.1	-40.2	21.7	0.00e+00	0	33	0	739246080	50	6593
2026-01-08 13:42:49.96	93.86	38.86	-41.2	-42.7	19.7	0.00e+00	0	33	0	746586112	56	6200
2026-01-08 13:42:54.00	95.67	38.88	-38.3	-39.3	22.6	0.00e+00	0	33	0	753926144	50	5940
2026-01-08 13:42:58.04	97.49	38.87	-37.8	-38.7	22.9	0.00e+00	0	32	0	761266176	48	6214
2026-01-08 13:43:02.07	99.30	38.83	-37.5	-38.4	23.3	0.00e+00	0	33	0	769654784	48	5979
2026-01-08 13:43:06.11	101.11	38.76	-37.8	-38.8	22.9	0.00e+00	0	33	0	776994816	48	6256
2026-01-08 13:43:10.14	102.91	38.65	-37.7	-38.7	23.1	0.00e+00	0	32	0	784334848	48	6179
2026-01-08 13:43:14.18	104.69	38.52	-38.0	-39.0	22.6	0.00e+00	0	33	0	791674880	50	5733
2026-01-08 13:43:18.21	106.46	38.36	-37.1	-38.0	23.5	0.00e+00	0	32	0	799014912	48	5716
2026-01-08 13:43:22.25	108.21	38.16	-38.6	-39.6	22.2	0.00e+00	0	32	0	807403520	48	6913
2026-01-08 13:43:26.28	109.94	37.94	-36.4	-37.2	23.9	0.00e+00	0	33	0	814743552	46	5892
2026-01-08 13:43:30.32	111.64	37.70	-36.5	-37.3	24.0	0.00e+00	0	32	0	822083584	46	5919
2026-01-08 13:43:34.36	113.32	37.42	-38.9	-40.1	21.7	0.00e+00	0	32	0	829423616	50	6476
2026-01-08 13:43:38.40	114.97	37.13	-36.6	-37.4	24.0	0.00e+00	0	33	0	837812224	46	6032
2026-01-08 13:43:42.43	116.59	36.81	-34.5	-35.2	25.3	0.00e+00	0	33	0	845152256	44	5247
2026-01-08 13:43:46.47	118.18	36.47	-37.3	-38.2	23.4	0.00e+00	0	33	0	852492288	46	6573
2026-01-08 13:43:50.50	119.73	36.11	-35.5	-36.2	24.8	0.00e+00	0	33	0	859832320	44	5892
2026-01-08 13:43:54.54	121.25	35.73	-34.4	-35.1	25.3	0.00e+00	0	33	0	867172352	42	5827
2026-01-08 13:43:58.58	122.74	35.33	-37.3	-38.1	23.0	0.00e+00	0	33	0	875560960	46	6534
2026-01-08 13:44:02.61	124.18	34.92	-38.1	-39.0	22.9	0.00e+00	0	33	0	882900992	48	6438
2026-01-08 13:44:06.65	125.60	34.49	-37.9	-38.8	22.8	0.00e+00	0	33	0	890241024	50	5612
2026-01-08 13:44:10.69	126.98	34.06	-40.9	-42.2	20.0	0.00e+00	0	33	0	897581056	54	6593
2026-01-08 13:44:14.73	128.32	33.61	-41.0	-42.3	19.9	0.00e+00	0	33	0	904921088	54	6686
2026-01-08 13:44:18.77	129.62	33.15	-41.5	-43.1	19.5	0.00e+00	0	33	0	913309696	56	6478
2026-01-08 13:44:22.80	130.89	32.68	-42.6	-44.4	18.0	0.00e+00	0	33	0	920649728	56	7574
2026-01-08 13:44:26.83	132.12	32.20	-42.6	-44.4	18.2	0.00e+00	0	33	0	927989760	58	6739
2026-01-08 13:44:30.87	133.32	31.72	-40.5	-41.8	20.5	0.00e+00	0	33	0	935329792	54	6263
2026-01-08 13:44:34.91	134.48	31.24	-39.8	-41.0	21.1	0.00e+00	0	33	0	943718400	50	7220
2026-01-08 13:44:38.94	135.61	30.75	-39.0	-40.1	21.9	0.00e+00	0	33	0	951058432	52	5799
2026-01-08 13:44:42.98	136.70	30.25	-40.0	-41.2	20.9	0.00e+00	0	33	0	958398464	52	6594
2026-01-08 13:44:47.02	137.77	29.75	-36.6	-37.4	24.0	0.00e+00	0	33	0	965738496	46	6028
2026-01-08 13:44:51.05	138.80	29.26	-38.8	-39.9	21.8	0.00e+00	0	33	0	973078528	50	6335
2026-01-08 13:44:55.09	139.80	28.76	-36.2	-37.0	24.2	0.00e+00	0	33	0	981467136	46	5749
2026-01-08 13:44:59.12	140.77	28.26	-37.5	-38.5	23.0	0.00e+00	0	33	0	988807168	48	6042
2026-01-08 13:45:03.15	141.71	27.76	-35.1	-35.9	24.9	0.00e+00	0	33	0	996147200	44	5648
2026-01-08 13:45:07.19	142.62	27.26	-36.1	-37.0	24.1	0.00e+00	0	33	0	1003487232	44	6410
2026-01-08 13:45:11.22	143.51	26.77	-34.5	-35.2	25.3	0.00e+00	0	33	0	1011875840	42	5883
2026-01-08 13:45:15.26	144.37	26.28	-36.0	-36.8	24.2	0.00e+00	0	33	0	1019215872	44	6314
2026-01-08 13:45:19.30	145.20	25.78	-35.1	-35.9	24.9	0.00e+00	0	33	0	1026555904	44	5673
2026-01-08 13:45:23.33	146.01	25.30	-34.9	-35.6	25.2	0.00e+00	0	33	0	1033895936	42	6152
2026-01-08 13:45:27.36	146.80	24.81	-35.4	-36.2	24.7	0.00e+00	0	33	0	1041235968	42	6577
2026-01-08 13:45:31.39	147.56	24.33	-34.2	-34.9	25.3	0.00e+00	0	33	0	1049624576	42	5639
2026-01-08 13:45:35.43	148.30	23.85	-34.9	-35.7	24.3	0.00e+00	0	33	0	1056964608	42	6176
2026-01-08 13:45:39.47	149.02	23.38	-35.4	-36.2	24.9	0.00e+00	0	33	0	1064304640	42	6568
2026-01-08 13:45:43.50	149.71	22.91	-35.9	-36.7	24.3	0.00e+00	0	33	0	1071644672	44	6226
2026-01-08 13:45:47.54	150.39	22.45	-35.2	-36.0	24.8	0.00e+00	0	33	0	1080033280	44	5715
2026-01-08 13:45:51.58	151.05	21.98	-35.5	-36.3	24.6	0.00e+00	0	33	0	1087373312	44	5936
2026-01-08 13:45:55.62	151.69	21.53	-35.9	-36.8	24.2	0.00e+00	0	33	0	1094713344	44	6255
2026-01-08 13:45:59.65	152.31	21.08	-35.7	-36.4	24.5	0.00e+00	0	33	0	1102053376	44	6021
2026-01-08 13:46:03.69	152.92	20.63	-36.6	-37.5	23.7	0.00e+00	0	33	0	1109393408	44	6809
2026-01-08 13:46:07.73	153.51	20.19	-38.1	-39.2	22.4	0.00e+00	0	33	0	1117782016	48	6551
2026-01-08 13:46:11.77	154.08	19.75	-37.8	-38.8	22.7	0.00e+00	0	33	0	1125122048	48	6249
2026-01-08 13:46:15.80	154.64	19.32	-37.8	-38.8	22.4	0.00e+00	0	33	0	1132462080	48	6281
2026-01-08 13:46:19.85	155.18	18.89	-39.0	-40.1	21.3	0.00e+00	0	33	0	1139802112	50	6523
2026-01-08 13:46:23.88	155.71	18.47	-38.9	-40.1	21.1	0.00e+00	0	33	0	1147142144	50	6465
2026-01-08 13:46:27.92	156.22	18.05	-37.4	-38.3	22.9	0.00e+00	0	33	0	1155530752	48	5945
2026-01-08 13:46:31.96	156.72	17.64	-37.3	-38.2	23.1	0.00e+00	0	33	0	1162870784	48	5891
2026-01-08 13:46:35.99	157.21	17.23	-37.3	-38.2	23.0	0.00e+00	0	33	0	1170210816	48	5887
2026-01-08 13:46:40.03	157.68	16.83	-37.1	-38.0	23.2	0.00e+00	0	33	0	1177550848	48	5747
2026-01-08 13:46:44.07	158.14	16.43	-36.3	-37.2	23.8	0.00e+00	0	33	0	1185939456	46	5829
2026-01-08 13:46:48.10	158.59	16.04	-36.8	-37.7	23.4	0.00e+00	0	33	0	1193279488	46	6228
2026-01-08 13:46:52.14	159.03	15.65	-37.4	-38.3	23.0	0.00e+00	0	33	0	1200619520	46	6667
2026-01-08 13:46:56.18	159.46	15.27	-38.1	-39.1	22.4	0.00e+00	0	33	0	1207959552	48	6495
2026-01-08 13:47:00.22	159.88	14.89	-37.5	-38.5	22.8	0.00e+00	0	33	0	1215299584	48	6046
2026-01-08 13:47:04.26	160.29	14.51	-37.9	-38.9	22.5	0.00e+00	0	33	0	1223688192	48	6359
2026-01-08 13:47:08.29	160.69	14.14	-38.0	-38.9	22.3	0.00e+00	0	33	0	1231028224	48	6389
2026-01-08 13:47:12.32	161.08	13.78	-38.2	-39.3	22.3	0.00e+00	0	33	0	1238368256	48	6632
2026-01-08 13:47:16.35	161.46	13.42	-38.1	-39.2	22.2	0.00e+00	0	33	0	1245708288	48	6540
2026-01-08 13:47:20.39	161.83	13.06	-37.6	-38.6	22.7	0.00e+00	0	33	0	1253048320	48	6108
2026-01-08 13:47:24.42	162.19	12.71	-37.5	-38.4	22.8	0.00e+00	0	33	0	1261436928	48	6024
2026-01-08 13:47:28.46	162.55	12.36	-37.1	-38.0	23.1	0.00e+00	0	33	0	1268776960	48	5718
2026-01-08 13:47:32.51	162.90	12.01	-37.0	-37.9	23.2	0.00e+00	0	33	0	1276116992	48	5650
2026-01-08 13:47:36.54	163.24	11.67	-37.3	-38.3	22.9	0.00e+00	0	33	0	1283457024	48	5899
2026-01-08 13:47:40.58	163.57	11.33	-38.0	-39.0	22.3	0.00e+00	0	33	0	1291845632	48	6408
2026-01-08 13:47:44.62	163.89	11.00	-38.5	-39.6	21.7	0.00e+00	0	33	0	1299185664	48	6899
2026-01-08 13:47:48.65	164.21	10.67	-39.0	-40.1	21.3	0.00e+00	0	33	0	1306525696	50	6524
2026-01-08 13:47:52.69	164.52	10.34	-39.4	-40.6	20.9	0.00e+00	0	33	0	1313865728	50	6881
2026-01-08 13:47:56.72	164.83	10.02	-39.1	-40.2	21.1	0.00e+00	0	33	0	1321205760	50	6601
2026-01-08 13:48:00.75	165.13	9.70	-39.3	-40.4	20.9	0.00e+00	0	33	0	1329594368	50	6763
2026-01-08 13:48:04.79	165.42	9.39	-38.9	-40.0	21.5	0.00e+00	0	33	0	1336934400	50	6436
2026-01-08 13:48:08.83	165.71	9.07	-38.7	-39.7	21.5	0.00e+00	0	33	0	1344274432	50	6239
2026-01-08 13:48:12.87	165.99	8.76	-38.8	-39.9	21.3	0.00e+00	0	33	0	1351614464	50	6324
2026-01-08 13:48:16.90	166.26	8.46	-39.0	-40.2	21.2	0.00e+00	0	33	0	1360003072	50	6540
2026-01-08 13:48:20.94	166.53	8.16	-39.3	-40.5	20.8	0.00e+00	0	32	0	1367343104	50	6843
2026-01-08 13:48:24.98	166.80	7.86	-39.3	-40.6	20.8	0.00e+00	0	33	0	1374683136	50	6854
2026-01-08 13:48:29.01	167.06	7.56	-39.4	-40.7	20.6	0.00e+00	0	33	0	1382023168	50	6942
2026-01-08 13:48:33.04	167.31	7.27	-39.4	-40.7	20.7	0.00e+00	0	33	0	1389363200	50	6932
2026-01-08 13:48:37.07	167.56	6.98	-39.4	-40.7	20.6	0.00e+00	0	33	0	1397751808	50	6953
2026-01-08 13:48:41.10	167.81	6.69	-39.3	-40.5	20.7	0.00e+00	0	33	0	1405091840	50	6795
2026-01-08 13:48:45.14	168.05	6.40	-39.4	-40.6	20.6	0.00e+00	0	33	0	1412431872	50	6894
2026-01-08 13:48:49.17	168.28	6.12	-39.7	-41.0	20.2	0.00e+00	0	33	0	1419771904	50	7231
2026-01-08 13:48:53.21	168.52	5.84	-40.1	-41.5	19.7	0.00e+00	0	33	0	1427111936	52	6807
2026-01-08 13:48:57.25	168.75	5.57	-40.4	-41.9	19.4	0.00e+00	0	33	0	1435500544	52	7156
2026-01-08 13:49:01.28	168.97	5.29	-40.9	-42.5	18.7	0.00e+00	0	33	0	1442840576	54	6819
2026-01-08 13:49:05.32	169.19	5.02	-41.0	-42.7	18.4	0.00e+00	0	33	0	1450180608	54	6983
2026-01-08 13:49:09.36	169.41	4.75	-41.3	-43.1	18.0	0.00e+00	0	33	0	1457520640	54	7313
2026-01-08 13:49:13.39	169.62	4.48	-41.5	-43.3	17.8	0.00e+00	0	33	0	1465909248	54	7480
2026-01-08 13:49:17.43	169.83	4.22	-41.8	-43.7	17.4	0.00e+00	0	33	0	1473249280	56	6989
2026-01-08 13:49:21.46	170.03	3.96	-41.8	-43.8	17.3	0.00e+00	0	33	0	1480589312	56	7067
2026-01-08 13:49:25.50	170.24	3.70	-41.6	-43.5	17.5	0.00e+00	0	33	0	1487929344	56	6814
2026-01-08 13:49:29.54	170.44	3.44	-41.7	-43.7	17.3	0.00e+00	0	33	0	1495269376	56	6939
2026-01-08 13:49:33.58	170.63	3.18	-42.0	-44.1	16.8	0.00e+00	0	33	0	1503657984	56	7317
2026-01-08 13:49:37.61	170.82	2.93	-47.6	-62.8	3.6	1.51e+00	0	33	104	1508900864	60	49839
2026-01-08 13:49:41.65	171.01	2.68	-48.4	-63.6	3.6	1.51e+00	0	33	104	1508900864	60	54839
2026-01-08 13:49:45.69	171.20	2.43	-48.5	-63.7	3.6	1.51e+00	0	33	104	1508900864	60	55200
2026-01-08 13:49:49.73	171.39	2.18	-48.5	-63.7	3.6	1.51e+00	0	33	104	1508900864	60	55139
2026-01-08 13:49:53.76	171.57	1.93	-48.4	-63.6	3.6	1.51e+00	0	33	104	1508900864	60	54864
2026-01-08 13:49:57.80	171.74	1.69	-48.4	-63.6	3.6	1.51e+00	0	33	104	1508900864	60	54721
2026-01-08 13:50:01.85	171.92	1.45	-48.4	-63.6	3.6	1.51e+00	0	33	104	1508900864	60	54599
2026-01-08 13:50:05.88	172.09	1.21	-48.4	-63.5	3.6	1.51e+00	0	33	104	1508900864	60	54322
2026-01-08 13:50:09.92	172.26	0.97	-48.4	-63.6	3.6	1.51e+00	0	33	104	1508900864	60	54457
2026-01-08 13:50:13.96	172.43	0.73	-48.4	-63.6	3.6	1.51e+00	0	33	104	1508900864	60	54469
2026-01-08 13:50:18.00	172.60	0.49	-48.4	-63.6	3.6	1.51e+00	0	33	104	1508900864	60	54459
2026-01-08 13:50:22.04	172.76	0.26	-48.4	-63.5	3.6	1.51e+00	0	33	104	1508900864	60	54338
2026-01-08 13:50:26.08	172.92	0.03	-48.4	-63.6	3.6	1.51e+00	0	33	104	1508900864	60	54487

#Closed at: 2026-01-08 13:50:28
#Recorded file [1508 MB]: D:/lorett/data/35029_260109_013522.dat