passes_logs/2026/01/08/R4.6S_Anadyr/R4.6S_Anadyr__20260108_015133_NOAA_20_JPSS-1_rec.log

#Pass ID: 20260108_015133_NOAA 20 (JPSS-1)
#Satellite: NOAA 20 (JPSS-1)
#Configuration: NOAA 20
#almurnet v.1.7.20251203
#Start time: 2026-01-08 01:51:34

#Version: 2.2.20231116
#Station: R4.6S_Anadyr
#Location: 177.4865 lon 64.73178 lat
#TLE: 1 43013U 17073A   26005.46207808  .00000128  00000+0  81791-4 0  9997
#TLE: 2 43013  98.7627 306.5027 0001826  53.0458 307.0885 14.19533487421381

#Time	Az	El	Level	Level2	SNR	BER	BlckErr	Temp	State	Recorded	gain1	gain2
2026-01-08 01:51:34.62	198.50	0.06	-49.1	-64.0	3.5	1.51e+00	0	36	0	0	60	57605
2026-01-08 01:51:38.66	198.71	0.29	-49.1	-64.3	3.6	1.51e+00	0	37	104	0	60	59479
2026-01-08 01:51:42.70	198.93	0.51	-49.1	-64.3	3.6	1.51e+00	0	37	104	0	60	59050
2026-01-08 01:51:46.74	199.15	0.74	-48.7	-63.9	3.6	1.51e+00	0	37	104	0	60	56339
2026-01-08 01:51:50.78	199.37	0.96	-47.7	-62.9	3.6	1.51e+00	0	37	104	0	60	50414
2026-01-08 01:51:54.82	199.60	1.19	-47.6	-62.8	3.6	1.51e+00	0	37	104	0	60	49701
2026-01-08 01:51:58.86	199.82	1.42	-47.6	-62.8	3.6	1.51e+00	0	37	104	0	60	49915
2026-01-08 01:52:02.88	200.06	1.65	-47.6	-62.8	3.6	1.51e+00	0	38	104	0	60	49805
2026-01-08 01:52:06.92	200.29	1.88	-47.6	-62.7	3.6	1.51e+00	0	37	104	0	60	49178
2026-01-08 01:52:10.96	200.53	2.12	-47.6	-62.7	3.6	1.51e+00	0	38	104	0	60	49526
2026-01-08 01:52:15.00	200.77	2.35	-47.6	-62.6	3.6	1.51e+00	0	37	104	0	60	48677
2026-01-08 01:52:19.04	201.02	2.59	-47.6	-61.5	3.6	1.51e+00	0	38	104	0	60	43039
2026-01-08 01:52:23.08	201.27	2.83	-47.0	-55.1	6.0	7.61e-01	92	38	0	0	60	20468
2026-01-08 01:52:27.12	201.53	3.07	-43.7	-46.3	15.6	0.00e+00	92	38	0	7340032	60	7446
2026-01-08 01:52:31.16	201.79	3.31	-43.8	-46.5	15.3	0.00e+00	0	38	0	15728640	60	7626
2026-01-08 01:52:35.19	202.05	3.56	-47.5	-62.4	3.6	1.19e+00	0	38	104	22020096	60	47923
2026-01-08 01:52:39.23	202.31	3.80	-42.5	-44.5	17.6	0.00e+00	90	38	0	24117248	58	6778
2026-01-08 01:52:43.27	202.58	4.05	-42.0	-43.8	18.3	0.00e+00	92	38	0	32505856	58	6253
2026-01-08 01:52:47.29	202.86	4.30	-41.8	-43.4	18.7	0.00e+00	22	38	0	39845888	58	6029
2026-01-08 01:52:51.33	203.14	4.55	-41.6	-43.2	19.0	0.00e+00	91	38	0	47185920	56	6566
2026-01-08 01:52:55.37	203.42	4.80	-41.8	-43.4	18.8	0.00e+00	90	38	0	54525952	56	6761
2026-01-08 01:52:59.40	203.71	5.06	-41.8	-43.4	19.0	0.00e+00	0	38	0	62914560	56	6695
2026-01-08 01:53:03.44	204.01	5.32	-41.4	-42.9	19.4	0.00e+00	80	38	0	70254592	56	6363
2026-01-08 01:53:07.47	204.30	5.57	-41.2	-42.6	19.7	0.00e+00	92	38	0	77594624	56	6135
2026-01-08 01:53:11.51	204.61	5.83	-40.9	-42.3	20.0	0.00e+00	92	38	0	84934656	56	5945
2026-01-08 01:53:15.55	204.92	6.10	-40.9	-42.3	20.0	0.00e+00	10	38	0	92274688	56	5944
2026-01-08 01:53:19.58	205.23	6.36	-40.5	-41.7	20.5	0.00e+00	67	38	0	100663296	54	6241
2026-01-08 01:53:23.62	205.55	6.63	-40.3	-41.6	20.8	0.00e+00	92	38	0	108003328	54	6113
2026-01-08 01:53:27.66	205.88	6.90	-40.4	-41.6	20.7	0.00e+00	90	38	0	115343360	54	6162
2026-01-08 01:53:31.70	206.21	7.17	-39.8	-41.0	21.4	0.00e+00	6	38	0	122683392	52	6391
2026-01-08 01:53:35.73	206.55	7.44	-39.5	-40.7	21.7	0.00e+00	90	38	0	130023424	52	6174
2026-01-08 01:53:39.77	206.89	7.71	-39.3	-40.4	22.0	0.00e+00	90	38	0	138412032	52	5982
2026-01-08 01:53:43.81	207.24	7.99	-39.2	-40.2	22.1	0.00e+00	92	38	0	145752064	52	5885
2026-01-08 01:53:47.85	207.60	8.27	-39.2	-40.2	22.2	0.00e+00	0	38	0	153092096	52	5858
2026-01-08 01:53:51.89	207.96	8.55	-39.0	-40.0	22.4	0.00e+00	92	38	0	160432128	52	5720
2026-01-08 01:53:55.92	208.33	8.83	-39.1	-40.1	22.4	0.00e+00	92	38	0	168820736	52	5790
2026-01-08 01:53:59.95	208.70	9.12	-38.8	-39.8	22.6	0.00e+00	90	38	0	176160768	52	5616
2026-01-08 01:54:03.99	209.09	9.41	-38.7	-39.6	22.6	0.00e+00	79	38	0	183500800	50	6169
2026-01-08 01:54:08.02	209.48	9.70	-38.5	-39.5	22.9	0.00e+00	90	38	0	190840832	50	6051
2026-01-08 01:54:12.06	209.88	9.99	-38.5	-39.5	23.0	0.00e+00	92	38	0	198180864	50	6041
2026-01-08 01:54:16.10	210.28	10.29	-38.5	-39.5	22.9	0.00e+00	90	38	0	206569472	50	6037
2026-01-08 01:54:20.14	210.70	10.58	-38.4	-39.4	23.1	0.00e+00	0	38	0	213909504	50	5975
2026-01-08 01:54:24.17	211.12	10.88	-38.3	-39.2	23.2	0.00e+00	91	38	0	221249536	50	5879
2026-01-08 01:54:28.20	211.55	11.18	-38.3	-39.2	23.2	0.00e+00	91	38	0	228589568	50	5862
2026-01-08 01:54:32.24	211.99	11.49	-38.0	-38.9	23.5	0.00e+00	92	38	0	235929600	50	5679
2026-01-08 01:54:36.27	212.43	11.79	-38.0	-39.0	23.4	0.00e+00	0	38	0	244318208	50	5702
2026-01-08 01:54:40.31	212.89	12.10	-38.2	-39.1	23.2	0.00e+00	92	38	0	251658240	50	5818
2026-01-08 01:54:44.34	213.36	12.41	-38.2	-39.1	23.3	0.00e+00	92	38	0	258998272	50	5796
2026-01-08 01:54:48.38	213.83	12.72	-38.3	-39.3	23.2	0.00e+00	92	38	0	266338304	50	5909
2026-01-08 01:54:52.42	214.32	13.04	-38.4	-39.3	23.1	0.00e+00	12	38	0	274726912	50	5950
2026-01-08 01:54:56.45	214.82	13.36	-38.4	-39.3	23.1	0.00e+00	92	38	0	282066944	50	5956
2026-01-08 01:55:00.49	215.32	13.68	-38.4	-39.3	23.2	0.00e+00	92	38	0	289406976	50	5949
2026-01-08 01:55:04.53	215.84	14.00	-38.3	-39.2	23.3	0.00e+00	92	38	0	296747008	50	5890
2026-01-08 01:55:08.57	216.37	14.32	-38.4	-39.3	23.2	0.00e+00	70	38	0	304087040	50	5951
2026-01-08 01:55:12.60	216.91	14.65	-38.4	-39.3	23.1	0.00e+00	92	38	0	312475648	50	5950
2026-01-08 01:55:16.64	217.46	14.98	-38.4	-39.4	23.1	0.00e+00	91	38	0	319815680	50	5968
2026-01-08 01:55:20.67	218.02	15.31	-38.5	-39.4	23.0	0.00e+00	92	38	0	327155712	50	6017
2026-01-08 01:55:24.71	218.60	15.64	-38.4	-39.3	23.2	0.00e+00	92	38	0	334495744	50	5930
2026-01-08 01:55:28.75	219.18	15.97	-38.3	-39.2	23.3	0.00e+00	90	38	0	342884352	50	5893
2026-01-08 01:55:32.79	219.79	16.31	-38.3	-39.3	23.2	0.00e+00	92	38	0	350224384	50	5899
2026-01-08 01:55:36.82	220.40	16.65	-38.4	-39.4	23.0	0.00e+00	2	38	0	357564416	50	5987
2026-01-08 01:55:40.86	221.03	16.98	-38.4	-39.4	23.2	0.00e+00	92	38	0	364904448	50	5990
2026-01-08 01:55:44.90	221.67	17.32	-38.1	-39.1	23.5	0.00e+00	92	38	0	372244480	50	5768
2026-01-08 01:55:48.94	222.32	17.67	-37.8	-38.7	23.8	0.00e+00	92	38	0	380633088	50	5551
2026-01-08 01:55:52.97	222.99	18.01	-37.4	-38.3	24.2	0.00e+00	13	38	0	387973120	48	5908
2026-01-08 01:55:57.01	223.68	18.35	-37.0	-37.8	24.5	0.00e+00	92	38	0	395313152	48	5609
2026-01-08 01:56:01.05	224.38	18.70	-37.1	-37.9	24.5	0.00e+00	92	38	0	402653184	48	5662
2026-01-08 01:56:05.08	225.09	19.04	-36.9	-37.8	24.5	0.00e+00	92	38	0	411041792	48	5571
2026-01-08 01:56:09.12	225.82	19.39	-37.0	-37.9	24.4	0.00e+00	8	38	0	418381824	48	5646
2026-01-08 01:56:13.15	226.57	19.73	-36.9	-37.7	24.6	0.00e+00	92	38	0	425721856	48	5564
2026-01-08 01:56:17.18	227.33	20.08	-36.8	-37.6	24.7	0.00e+00	92	38	0	433061888	46	6136
2026-01-08 01:56:21.22	228.11	20.42	-36.6	-37.4	24.8	0.00e+00	91	38	0	440401920	46	6014
2026-01-08 01:56:25.26	228.91	20.77	-36.2	-37.0	25.3	0.00e+00	0	38	0	448790528	46	5744
2026-01-08 01:56:29.29	229.72	21.11	-36.1	-36.8	25.4	0.00e+00	91	38	0	456130560	46	5611
2026-01-08 01:56:33.33	230.56	21.45	-35.8	-36.6	25.6	0.00e+00	92	38	0	463470592	46	5457
2026-01-08 01:56:37.37	231.41	21.79	-36.0	-36.7	25.5	0.00e+00	92	38	0	470810624	44	6231
2026-01-08 01:56:41.41	232.28	22.13	-36.4	-37.2	25.1	0.00e+00	85	38	0	479199232	44	6581
2026-01-08 01:56:45.44	233.17	22.47	-36.7	-37.6	24.8	0.00e+00	92	38	0	486539264	46	6113
2026-01-08 01:56:49.48	234.08	22.80	-36.7	-37.5	24.9	0.00e+00	92	38	0	493879296	46	6088
2026-01-08 01:56:53.52	235.00	23.13	-36.7	-37.5	24.9	0.00e+00	92	38	0	501219328	46	6066
2026-01-08 01:56:57.56	235.95	23.46	-36.9	-37.7	24.7	0.00e+00	92	38	0	508559360	46	6207
2026-01-08 01:57:01.59	236.91	23.78	-37.0	-37.9	24.6	0.00e+00	90	38	0	516947968	46	6320
2026-01-08 01:57:05.63	237.90	24.10	-37.3	-38.1	24.4	0.00e+00	92	38	0	524288000	46	6529
2026-01-08 01:57:09.67	238.90	24.41	-37.6	-38.4	23.5	0.00e+00	60	38	0	531628032	46	6746
2026-01-08 01:57:13.71	239.92	24.72	-37.4	-38.2	24.3	0.00e+00	92	38	0	538968064	46	6610
2026-01-08 01:57:17.74	240.97	25.02	-37.7	-38.6	24.0	0.00e+00	92	38	0	547356672	46	6861
2026-01-08 01:57:21.78	242.03	25.32	-38.1	-39.0	23.7	0.00e+00	92	38	0	554696704	48	6392
2026-01-08 01:57:25.81	243.11	25.61	-38.5	-39.4	23.2	0.00e+00	0	38	0	562036736	48	6768
2026-01-08 01:57:29.86	244.21	25.89	-39.0	-40.0	22.7	0.00e+00	92	38	0	569376768	50	6438
2026-01-08 01:57:33.89	245.33	26.16	-39.4	-40.4	22.4	0.00e+00	92	38	0	576716800	50	6717
2026-01-08 01:57:37.93	246.47	26.42	-39.5	-40.5	22.3	0.00e+00	92	38	0	585105408	50	6806
2026-01-08 01:57:41.97	247.63	26.68	-39.8	-40.8	21.4	0.00e+00	72	38	0	592445440	52	6297
2026-01-08 01:57:46.01	248.80	26.92	-39.4	-40.4	22.4	0.00e+00	92	38	0	599785472	52	6016
2026-01-08 01:57:50.05	249.99	27.15	-39.5	-40.5	22.3	0.00e+00	92	38	0	607125504	52	6083
2026-01-08 01:57:54.09	251.20	27.37	-39.5	-40.6	22.3	0.00e+00	92	38	0	614465536	52	6114
2026-01-08 01:57:58.12	252.42	27.58	-39.7	-40.8	22.1	0.00e+00	7	38	0	622854144	52	6276
2026-01-08 01:58:02.15	253.66	27.78	-39.7	-40.8	22.1	0.00e+00	92	38	0	630194176	52	6264
2026-01-08 01:58:06.19	254.91	27.96	-40.3	-41.4	21.4	0.00e+00	92	38	0	637534208	52	6740
2026-01-08 01:58:10.23	256.18	28.13	-41.3	-42.6	20.3	0.00e+00	0	38	0	644874240	54	6919
2026-01-08 01:58:14.27	257.46	28.29	-40.9	-42.1	20.8	0.00e+00	79	38	0	653262848	54	6528
2026-01-08 01:58:18.31	258.76	28.43	-39.9	-41.0	21.8	0.00e+00	90	38	0	660602880	54	5748
2026-01-08 01:58:22.34	260.05	28.56	-40.1	-41.2	21.7	0.00e+00	92	38	0	667942912	54	5834
2026-01-08 01:58:26.38	261.37	28.67	-40.5	-41.7	21.2	0.00e+00	0	38	0	675282944	54	6200
2026-01-08 01:58:30.42	262.69	28.77	-40.7	-41.9	21.3	0.00e+00	92	38	0	682622976	54	6336
2026-01-08 01:58:34.46	264.02	28.85	-40.2	-41.3	21.6	0.00e+00	90	38	0	691011584	54	5940
2026-01-08 01:58:38.50	265.35	28.91	-39.8	-40.8	22.0	0.00e+00	92	38	0	698351616	54	5622
2026-01-08 01:58:42.54	266.69	28.96	-39.9	-41.0	21.9	0.00e+00	16	38	0	705691648	52	6431
2026-01-08 01:58:46.58	268.03	28.99	-39.4	-40.4	22.4	0.00e+00	92	38	0	713031680	52	5979
2026-01-08 01:58:50.62	269.37	29.00	-39.4	-40.4	22.4	0.00e+00	92	38	0	721420288	50	6732
2026-01-08 01:58:54.66	270.71	29.00	-40.0	-41.1	21.8	0.00e+00	92	38	0	728760320	52	6492
2026-01-08 01:58:58.69	272.05	28.98	-38.8	-39.7	23.0	0.00e+00	12	38	0	736100352	52	5551
2026-01-08 01:59:02.73	273.39	28.94	-38.8	-39.8	23.0	0.00e+00	90	38	0	743440384	50	6247
2026-01-08 01:59:06.77	274.72	28.89	-39.4	-40.4	22.4	0.00e+00	92	38	0	750780416	50	6744
2026-01-08 01:59:10.81	276.05	28.82	-38.7	-39.6	23.1	0.00e+00	90	38	0	759169024	50	6147
2026-01-08 01:59:14.85	277.38	28.73	-39.9	-41.0	21.8	0.00e+00	0	38	0	766509056	52	6445
2026-01-08 01:59:18.89	278.69	28.63	-39.8	-40.9	21.9	0.00e+00	92	38	0	773849088	52	6370
2026-01-08 01:59:22.92	280.00	28.51	-40.3	-41.5	21.4	0.00e+00	92	38	0	781189120	52	6794
2026-01-08 01:59:26.96	281.29	28.38	-41.7	-43.1	20.0	0.00e+00	66	38	0	789577728	56	6495
2026-01-08 01:59:30.99	282.58	28.23	-39.7	-40.7	22.2	0.00e+00	0	38	0	796917760	52	6225
2026-01-08 01:59:35.03	283.85	28.07	-39.6	-40.6	22.3	0.00e+00	90	38	0	804257792	52	6153
2026-01-08 01:59:39.06	285.11	27.90	-39.0	-40.0	22.7	0.00e+00	92	38	0	811597824	52	5702
2026-01-08 01:59:43.10	286.35	27.71	-39.1	-40.1	22.7	0.00e+00	10	38	0	818937856	52	5790
2026-01-08 01:59:47.14	287.58	27.51	-38.0	-38.9	23.7	0.00e+00	92	38	0	827326464	50	5647
2026-01-08 01:59:51.18	288.80	27.30	-37.5	-38.4	24.2	0.00e+00	92	38	0	834666496	48	5988
2026-01-08 01:59:55.21	290.00	27.07	-37.6	-38.4	24.1	0.00e+00	92	38	0	842006528	48	6015
2026-01-08 01:59:59.25	291.18	26.84	-37.6	-38.4	24.1	0.00e+00	1	38	0	849346560	48	6000
2026-01-08 02:00:03.29	292.34	26.59	-37.6	-38.5	24.0	0.00e+00	92	38	0	857735168	48	6060
2026-01-08 02:00:07.33	293.49	26.33	-37.8	-38.7	23.8	0.00e+00	90	38	0	865075200	48	6222
2026-01-08 02:00:11.36	294.61	26.07	-37.9	-38.8	23.6	0.00e+00	0	38	0	872415232	48	6262
2026-01-08 02:00:15.40	295.72	25.80	-38.0	-38.9	23.7	0.00e+00	66	38	0	879755264	48	6377
2026-01-08 02:00:19.44	296.81	25.51	-38.2	-39.1	23.5	0.00e+00	91	38	0	887095296	48	6491
2026-01-08 02:00:23.47	297.88	25.22	-37.5	-38.3	24.1	0.00e+00	92	38	0	895483904	48	5943
2026-01-08 02:00:27.50	298.93	24.93	-38.2	-39.1	23.5	0.00e+00	6	38	0	902823936	48	6503
2026-01-08 02:00:31.54	299.97	24.63	-38.5	-39.4	23.3	0.00e+00	15	38	0	910163968	48	6721
2026-01-08 02:00:35.58	300.98	24.32	-38.0	-38.9	23.7	0.00e+00	92	38	0	917504000	48	6366
2026-01-08 02:00:39.62	301.97	24.00	-37.5	-38.3	24.2	0.00e+00	92	38	0	924844032	48	5956
2026-01-08 02:00:43.65	302.94	23.69	-37.4	-38.3	24.1	0.00e+00	2	38	0	933232640	48	5907
2026-01-08 02:00:47.69	303.90	23.36	-38.1	-39.0	23.6	0.00e+00	4	38	0	940572672	48	6424
2026-01-08 02:00:51.73	304.83	23.04	-37.3	-38.1	24.4	0.00e+00	93	38	0	947912704	48	5791
2026-01-08 02:00:55.77	305.75	22.71	-37.9	-38.8	23.8	0.00e+00	92	38	0	955252736	48	6269
2026-01-08 02:00:59.81	306.65	22.38	-37.5	-38.4	23.8	0.00e+00	66	38	0	963641344	48	5999
2026-01-08 02:01:03.84	307.53	22.04	-39.2	-40.2	22.5	0.00e+00	2	38	0	970981376	50	6571
2026-01-08 02:01:07.88	308.39	21.70	-38.3	-39.3	23.4	0.00e+00	91	38	0	978321408	50	5901
2026-01-08 02:01:11.92	309.23	21.36	-39.6	-40.6	22.0	0.00e+00	92	38	0	985661440	50	6893
2026-01-08 02:01:15.97	310.05	21.02	-38.9	-39.9	22.8	0.00e+00	16	38	0	993001472	50	6326
2026-01-08 02:01:20.00	310.86	20.68	-39.0	-40.0	22.7	0.00e+00	10	38	0	1001390080	50	6436
2026-01-08 02:01:24.04	311.65	20.34	-38.2	-39.1	23.5	0.00e+00	90	38	0	1008730112	50	5771
2026-01-08 02:01:28.07	312.42	20.00	-38.3	-39.2	23.3	0.00e+00	92	38	0	1016070144	48	6597
2026-01-08 02:01:32.11	313.18	19.66	-39.4	-40.5	22.2	0.00e+00	0	38	0	1023410176	50	6777
2026-01-08 02:01:36.15	313.91	19.31	-38.4	-39.3	23.3	0.00e+00	90	38	0	1031798784	50	5926
2026-01-08 02:01:40.19	314.64	18.97	-39.4	-40.5	22.2	0.00e+00	92	38	0	1039138816	50	6801
2026-01-08 02:01:44.23	315.35	18.63	-38.8	-39.8	22.4	0.00e+00	0	38	0	1046478848	50	6283
2026-01-08 02:01:48.26	316.04	18.29	-38.2	-39.1	23.1	0.00e+00	0	38	0	1053818880	50	5776
2026-01-08 02:01:52.30	316.71	17.95	-38.3	-39.3	23.3	0.00e+00	90	38	0	1061158912	50	5897
2026-01-08 02:01:56.33	317.38	17.61	-38.0	-38.9	23.7	0.00e+00	92	38	0	1069547520	50	5631
2026-01-08 02:02:00.37	318.02	17.27	-38.6	-39.5	23.1	0.00e+00	67	38	0	1076887552	50	6081
2026-01-08 02:02:04.41	318.66	16.93	-38.1	-39.0	23.5	0.00e+00	0	38	0	1084227584	50	5736
2026-01-08 02:02:08.45	319.28	16.60	-37.6	-38.5	23.8	0.00e+00	92	38	0	1091567616	48	6078
2026-01-08 02:02:12.49	319.89	16.26	-37.9	-38.8	23.7	0.00e+00	0	38	0	1098907648	48	6255
2026-01-08 02:02:16.53	320.48	15.93	-38.0	-38.9	23.5	0.00e+00	12	38	0	1107296256	48	6368
2026-01-08 02:02:20.56	321.06	15.60	-37.8	-38.7	23.8	0.00e+00	73	38	0	1114636288	48	6212
2026-01-08 02:02:24.60	321.63	15.27	-37.8	-38.7	23.7	0.00e+00	92	38	0	1121976320	48	6231
2026-01-08 02:02:28.64	322.19	14.94	-38.1	-39.0	23.4	0.00e+00	76	38	0	1129316352	48	6449
2026-01-08 02:02:32.67	322.74	14.62	-38.3	-39.2	23.3	0.00e+00	0	38	0	1137704960	48	6570
2026-01-08 02:02:36.71	323.27	14.30	-38.2	-39.2	23.2	0.00e+00	5	38	0	1145044992	48	6560
2026-01-08 02:02:40.74	323.80	13.98	-38.4	-39.3	23.1	0.00e+00	90	38	0	1152385024	48	6663
2026-01-08 02:02:44.78	324.31	13.66	-38.4	-39.3	23.1	0.00e+00	70	38	0	1159725056	48	6679
2026-01-08 02:02:48.81	324.81	13.34	-38.3	-39.3	23.1	0.00e+00	70	38	0	1167065088	48	6657
2026-01-08 02:02:52.85	325.30	13.03	-38.7	-39.7	22.7	0.00e+00	0	38	0	1175453696	48	6957
2026-01-08 02:02:56.89	325.79	12.71	-39.3	-40.3	22.1	0.00e+00	92	38	0	1182793728	50	6681
2026-01-08 02:03:00.93	326.26	12.40	-40.0	-41.1	21.5	0.00e+00	10	38	0	1190133760	52	6520
2026-01-08 02:03:04.97	326.72	12.10	-40.0	-41.1	21.4	0.00e+00	70	38	0	1197473792	52	6517
2026-01-08 02:03:09.00	327.18	11.79	-39.9	-41.1	21.4	0.00e+00	75	39	0	1205862400	52	6488
2026-01-08 02:03:13.04	327.62	11.49	-40.0	-41.2	21.3	0.00e+00	92	38	0	1213202432	52	6558
2026-01-08 02:03:17.07	328.06	11.19	-40.0	-41.2	21.3	0.00e+00	0	38	0	1220542464	52	6576
2026-01-08 02:03:21.11	328.49	10.89	-39.8	-40.9	21.5	0.00e+00	10	38	0	1227882496	52	6359
2026-01-08 02:03:25.14	328.91	10.59	-39.8	-40.9	21.6	0.00e+00	56	38	0	1235222528	52	6336
2026-01-08 02:03:29.17	329.32	10.30	-39.7	-40.8	21.6	0.00e+00	92	38	0	1243611136	52	6303
2026-01-08 02:03:33.20	329.72	10.01	-40.0	-41.1	21.1	0.00e+00	70	38	0	1250951168	52	6517
2026-01-08 02:03:37.24	330.12	9.72	-40.0	-41.3	21.1	0.00e+00	0	38	0	1258291200	52	6621
2026-01-08 02:03:41.28	330.51	9.43	-39.8	-40.9	21.4	0.00e+00	78	38	0	1265631232	52	6378
2026-01-08 02:03:45.32	330.89	9.15	-39.0	-40.0	22.2	0.00e+00	0	38	0	1274019840	52	5751
2026-01-08 02:03:49.35	331.26	8.86	-39.3	-40.4	22.0	0.00e+00	73	38	0	1281359872	52	5965
2026-01-08 02:03:53.39	331.63	8.58	-39.2	-40.3	22.0	0.00e+00	6	38	0	1288699904	52	5932
2026-01-08 02:03:57.43	331.99	8.31	-39.8	-41.0	21.3	0.00e+00	92	38	0	1296039936	52	6420
2026-01-08 02:04:01.46	332.35	8.03	-39.9	-41.2	21.0	0.00e+00	0	38	0	1303379968	52	6543
2026-01-08 02:04:05.48	332.70	7.76	-39.9	-41.1	21.1	0.00e+00	5	38	0	1311768576	52	6520
2026-01-08 02:04:09.52	333.04	7.48	-39.6	-40.8	21.3	0.00e+00	4	38	0	1319108608	52	6259
2026-01-08 02:04:13.56	333.38	7.21	-39.5	-40.7	21.5	0.00e+00	92	38	0	1326448640	52	6196
2026-01-08 02:04:17.60	333.71	6.95	-39.5	-40.6	21.5	0.00e+00	0	38	0	1333788672	52	6139
2026-01-08 02:04:21.64	334.03	6.68	-39.6	-40.8	21.2	0.00e+00	0	38	0	1342177280	52	6304
2026-01-08 02:04:25.68	334.35	6.42	-40.0	-41.3	20.6	0.00e+00	6	38	0	1349517312	52	6685
2026-01-08 02:04:29.72	334.67	6.15	-40.5	-41.9	19.7	0.00e+00	92	38	0	1356857344	52	7130
2026-01-08 02:04:33.75	334.98	5.90	-40.9	-42.5	18.5	0.00e+00	7	38	0	1364197376	54	6845
2026-01-08 02:04:37.79	335.28	5.64	-41.5	-43.6	16.9	0.00e+00	72	38	0	1371537408	54	7734
2026-01-08 02:04:41.83	335.58	5.38	-42.3	-45.0	15.0	0.00e+00	0	38	0	1379926016	56	8098
2026-01-08 02:04:45.86	335.88	5.13	-43.0	-46.9	12.2	5.79e-05	91	38	0	1387266048	58	8995
2026-01-08 02:04:49.90	336.17	4.87	-43.6	-49.3	8.9	2.00e-02	7	39	0	1394606080	58	11890
2026-01-08 02:04:53.94	336.45	4.62	-43.9	-51.4	6.0	2.40e-01	6	39	0	1401946112	60	13419
2026-01-08 02:04:57.97	336.73	4.38	-43.9	-53.8	4.0	9.19e-01	27	39	0	1409286144	60	17724
2026-01-08 02:05:02.01	337.01	4.13	-44.0	-56.8	3.7	1.49e+00	0	39	104	1411383296	60	25040
2026-01-08 02:05:06.05	337.28	3.88	-44.0	-57.4	3.6	1.51e+00	0	39	104	1411383296	60	26800
2026-01-08 02:05:10.09	337.55	3.64	-44.2	-59.1	3.6	1.51e+00	0	38	104	1411383296	60	32633
2026-01-08 02:05:14.13	337.81	3.40	-44.0	-58.8	3.6	1.51e+00	0	39	104	1411383296	60	31478
2026-01-08 02:05:18.16	338.07	3.16	-44.0	-59.1	3.6	1.51e+00	0	39	104	1411383296	60	32698
2026-01-08 02:05:22.20	338.33	2.92	-48.3	-63.4	3.6	1.51e+00	0	39	104	1411383296	60	53628
2026-01-08 02:05:26.24	338.58	2.68	-49.0	-64.2	3.6	1.51e+00	0	39	104	1411383296	60	58520
2026-01-08 02:05:30.29	338.83	2.45	-49.0	-64.3	3.6	1.51e+00	0	39	104	1411383296	60	59394
2026-01-08 02:05:34.32	339.07	2.21	-49.0	-64.2	3.6	1.51e+00	0	39	104	1411383296	60	58711
2026-01-08 02:05:38.36	339.31	1.98	-49.1	-64.2	3.6	1.51e+00	0	39	104	1411383296	60	58917
2026-01-08 02:05:42.41	339.55	1.75	-49.0	-64.2	3.6	1.51e+00	0	39	104	1411383296	60	58611
2026-01-08 02:05:46.44	339.79	1.52	-49.0	-64.2	3.6	1.51e+00	0	39	104	1411383296	60	58615
2026-01-08 02:05:50.48	340.02	1.29	-49.0	-64.2	3.6	1.51e+00	0	38	104	1411383296	60	58868
2026-01-08 02:05:54.52	340.25	1.07	-49.0	-64.2	3.6	1.51e+00	0	39	104	1411383296	60	58633
2026-01-08 02:05:58.56	340.47	0.84	-49.0	-64.2	3.6	1.51e+00	0	38	104	1411383296	60	58559
2026-01-08 02:06:02.60	340.69	0.62	-49.0	-64.2	3.6	1.51e+00	0	39	104	1411383296	60	58322
2026-01-08 02:06:06.64	340.91	0.40	-49.0	-64.1	3.6	1.51e+00	0	39	104	1411383296	60	58269
2026-01-08 02:06:10.68	341.13	0.18	-49.0	-64.2	3.6	1.51e+00	0	39	104	1411383296	60	58451

#Closed at: 2026-01-08 02:06:14
#Recorded file [1411 MB]: D:/lorett/data/35029_260108_135134.dat