passes_logs/2026/01/08/R4.6S_Anadyr/R4.6S_Anadyr__20260108_171635_NOAA_20_JPSS-1_rec.log

#Pass ID: 20260108_171635_NOAA 20 (JPSS-1)
#Satellite: NOAA 20 (JPSS-1)
#Configuration: NOAA 20
#almurnet v.1.7.20251203
#Start time: 2026-01-08 17:16:36

#Version: 2.2.20231116
#Station: R4.6S_Anadyr
#Location: 177.4865 lon 64.73178 lat
#TLE: 1 43013U 17073A   26008.28148939  .00000118  00000+0  77102-4 0  9999
#TLE: 2 43013  98.7631 309.2920 0001742  49.0100 311.1227 14.19534407421787

#Time	Az	El	Level	Level2	SNR	BER	BlckErr	Temp	State	Recorded	gain1	gain2
2026-01-08 17:16:36.62	30.83	0.04	-48.5	-63.3	3.5	1.51e+00	0	29	0	0	60	53066
2026-01-08 17:16:40.66	30.60	0.26	-48.6	-63.7	3.6	1.51e+00	0	30	104	0	60	55632
2026-01-08 17:16:44.70	30.37	0.48	-48.6	-63.7	3.6	1.51e+00	0	31	104	0	60	55523
2026-01-08 17:16:48.74	30.13	0.70	-48.2	-63.4	3.6	1.51e+00	0	31	104	0	60	53301
2026-01-08 17:16:52.77	29.90	0.92	-47.2	-62.4	3.6	1.51e+00	0	31	104	0	60	47631
2026-01-08 17:16:56.81	29.66	1.14	-47.0	-62.0	3.6	1.51e+00	0	31	104	0	60	45688
2026-01-08 17:17:00.85	29.41	1.36	-47.0	-62.0	3.6	1.51e+00	0	31	104	0	60	45540
2026-01-08 17:17:04.90	29.16	1.59	-47.0	-62.1	3.6	1.51e+00	0	31	104	0	60	45883
2026-01-08 17:17:08.93	28.91	1.81	-47.0	-62.2	3.6	1.51e+00	0	31	104	0	60	46380
2026-01-08 17:17:12.97	28.65	2.04	-47.0	-61.9	3.6	1.51e+00	0	31	104	0	60	45192
2026-01-08 17:17:17.01	28.39	2.27	-46.9	-62.1	3.6	1.51e+00	0	31	104	0	60	45932
2026-01-08 17:17:21.05	28.12	2.50	-46.9	-62.1	3.6	1.51e+00	0	31	104	0	60	45978
2026-01-08 17:17:25.09	27.85	2.73	-46.9	-61.5	3.6	1.51e+00	0	31	104	0	60	43189
2026-01-08 17:17:29.13	27.58	2.96	-46.9	-60.7	3.6	1.51e+00	0	31	104	0	60	39081
2026-01-08 17:17:33.17	27.30	3.20	-45.6	-51.1	9.5	3.22e-02	41	31	0	4194304	60	12962
2026-01-08 17:17:37.21	27.01	3.43	-46.1	-53.4	8.2	1.01e+00	91	31	104	7340032	60	16872
2026-01-08 17:17:41.24	26.72	3.67	-41.4	-43.1	18.1	0.00e+00	0	31	0	10485760	56	6509
2026-01-08 17:17:45.27	26.43	3.90	-41.2	-42.8	18.5	0.00e+00	2	31	0	17825792	56	6311
2026-01-08 17:17:49.31	26.13	4.14	-41.0	-42.7	18.7	0.00e+00	0	31	0	25165824	56	6175
2026-01-08 17:17:53.34	25.83	4.38	-41.1	-42.8	18.5	0.00e+00	92	31	0	32505856	56	6277
2026-01-08 17:17:57.38	25.52	4.62	-41.0	-42.6	18.9	0.00e+00	41	31	0	40894464	56	6135
2026-01-08 17:18:01.42	25.20	4.87	-40.6	-42.1	19.3	0.00e+00	40	31	0	48234496	54	6497
2026-01-08 17:18:05.45	24.88	5.11	-40.6	-42.0	19.4	0.00e+00	0	31	0	55574528	54	6463
2026-01-08 17:18:09.49	24.55	5.36	-40.6	-42.1	19.4	0.00e+00	92	31	0	62914560	54	6514
2026-01-08 17:18:13.52	24.22	5.60	-40.7	-42.2	19.3	0.00e+00	0	31	0	70254592	54	6607
2026-01-08 17:18:17.56	23.88	5.85	-40.6	-42.1	19.4	0.00e+00	5	31	0	78643200	54	6504
2026-01-08 17:18:21.60	23.54	6.10	-40.6	-42.0	19.6	0.00e+00	92	31	0	85983232	54	6439
2026-01-08 17:18:25.63	23.19	6.35	-40.5	-41.9	19.6	0.00e+00	41	31	0	93323264	54	6344
2026-01-08 17:18:29.67	22.83	6.60	-40.3	-41.7	19.9	0.00e+00	0	31	0	100663296	54	6217
2026-01-08 17:18:33.70	22.47	6.86	-40.4	-41.7	19.9	0.00e+00	0	31	0	109051904	54	6243
2026-01-08 17:18:37.74	22.10	7.11	-40.4	-41.7	20.0	0.00e+00	90	31	0	116391936	54	6239
2026-01-08 17:18:41.78	21.72	7.37	-40.5	-41.9	19.9	0.00e+00	36	31	0	123731968	54	6378
2026-01-08 17:18:45.81	21.34	7.63	-40.4	-41.7	19.9	0.00e+00	0	31	0	131072000	54	6240
2026-01-08 17:18:49.85	20.95	7.89	-40.3	-41.7	20.1	0.00e+00	0	31	0	138412032	54	6176
2026-01-08 17:18:53.89	20.55	8.15	-40.3	-41.6	20.1	0.00e+00	92	31	0	146800640	54	6146
2026-01-08 17:18:57.92	20.15	8.41	-40.1	-41.3	20.4	0.00e+00	0	31	0	154140672	54	5955
2026-01-08 17:19:01.96	19.73	8.67	-39.8	-41.1	20.6	0.00e+00	44	31	0	161480704	54	5762
2026-01-08 17:19:06.00	19.31	8.94	-39.7	-41.0	20.9	0.00e+00	0	31	0	168820736	52	6391
2026-01-08 17:19:10.03	18.88	9.20	-39.7	-41.0	20.9	0.00e+00	92	31	0	177209344	52	6392
2026-01-08 17:19:14.07	18.44	9.47	-39.7	-40.9	21.0	0.00e+00	0	31	0	184549376	52	6318
2026-01-08 17:19:18.11	18.00	9.74	-39.7	-40.9	21.0	0.00e+00	44	31	0	191889408	52	6343
2026-01-08 17:19:22.14	17.55	10.01	-39.9	-41.2	20.7	0.00e+00	2	31	0	199229440	52	6542
2026-01-08 17:19:26.18	17.08	10.28	-39.9	-41.1	20.8	0.00e+00	91	31	0	206569472	52	6495
2026-01-08 17:19:30.21	16.61	10.55	-39.8	-41.0	21.0	0.00e+00	0	31	0	214958080	52	6415
2026-01-08 17:19:34.25	16.13	10.82	-39.6	-40.8	21.1	0.00e+00	0	31	0	222298112	52	6264
2026-01-08 17:19:38.28	15.64	11.10	-39.6	-40.8	21.2	0.00e+00	2	31	0	229638144	52	6247
2026-01-08 17:19:42.32	15.14	11.37	-39.4	-40.6	21.4	0.00e+00	92	31	0	236978176	52	6126
2026-01-08 17:19:46.35	14.63	11.65	-39.2	-40.3	21.7	0.00e+00	0	31	0	245366784	52	5930
2026-01-08 17:19:50.39	14.11	11.92	-39.0	-40.1	21.8	0.00e+00	6	31	0	252706816	52	5820
2026-01-08 17:19:54.43	13.58	12.20	-39.1	-40.2	21.7	0.00e+00	0	31	0	260046848	52	5882
2026-01-08 17:19:58.46	13.04	12.48	-39.1	-40.3	21.7	0.00e+00	90	31	0	267386880	52	5899
2026-01-08 17:20:02.50	12.49	12.76	-39.0	-40.1	21.9	0.00e+00	0	31	0	274726912	52	5806
2026-01-08 17:20:06.54	11.93	13.03	-38.8	-39.9	22.1	0.00e+00	44	31	0	283115520	50	6340
2026-01-08 17:20:10.58	11.36	13.31	-38.4	-39.4	22.5	0.00e+00	0	31	0	290455552	50	6023
2026-01-08 17:20:14.61	10.78	13.59	-38.4	-39.4	22.6	0.00e+00	13	31	0	297795584	50	5997
2026-01-08 17:20:18.64	10.18	13.87	-38.5	-39.5	22.5	0.00e+00	0	31	0	305135616	50	6047
2026-01-08 17:20:22.68	9.58	14.15	-38.7	-39.7	22.3	0.00e+00	6	31	0	312475648	50	6236
2026-01-08 17:20:26.71	8.96	14.43	-38.8	-39.8	22.1	0.00e+00	92	31	0	320864256	50	6310
2026-01-08 17:20:30.74	8.33	14.71	-39.0	-40.1	21.9	0.00e+00	35	31	0	328204288	50	6465
2026-01-08 17:20:34.77	7.69	14.99	-39.0	-40.0	22.0	0.00e+00	40	31	0	335544320	50	6436
2026-01-08 17:20:38.80	7.04	15.27	-39.2	-40.3	21.8	0.00e+00	0	31	0	342884352	50	6685
2026-01-08 17:20:42.84	6.37	15.55	-39.1	-40.2	21.8	0.00e+00	90	31	0	351272960	50	6559
2026-01-08 17:20:46.88	5.69	15.82	-39.0	-40.1	22.0	0.00e+00	0	31	0	358612992	50	6508
2026-01-08 17:20:50.92	5.00	16.10	-39.1	-40.2	22.0	0.00e+00	4	31	0	365953024	50	6555
2026-01-08 17:20:54.95	4.29	16.37	-39.2	-40.2	21.9	0.00e+00	46	31	0	373293056	50	6596
2026-01-08 17:20:58.99	3.58	16.65	-39.0	-40.0	22.1	0.00e+00	90	31	0	380633088	50	6461
2026-01-08 17:21:03.03	2.84	16.92	-39.1	-40.2	22.0	0.00e+00	37	31	0	389021696	50	6579
2026-01-08 17:21:07.06	2.10	17.19	-39.1	-40.2	22.1	0.00e+00	0	31	0	396361728	50	6549
2026-01-08 17:21:11.10	1.34	17.45	-38.8	-39.8	22.4	0.00e+00	44	32	0	403701760	50	6260
2026-01-08 17:21:15.13	0.57	17.72	-38.4	-39.4	22.6	0.00e+00	90	32	0	411041792	50	6017
2026-01-08 17:21:19.17	359.78	17.98	-37.9	-38.8	23.3	0.00e+00	34	31	0	418381824	50	5611
2026-01-08 17:21:23.20	358.98	18.24	-37.2	-38.1	23.9	0.00e+00	0	31	0	426770432	48	5764
2026-01-08 17:21:27.24	358.17	18.50	-36.9	-37.8	24.1	0.00e+00	0	31	0	434110464	48	5570
2026-01-08 17:21:31.28	357.34	18.75	-36.8	-37.6	24.2	0.00e+00	92	31	0	441450496	48	5481
2026-01-08 17:21:35.32	356.49	19.00	-36.8	-37.6	24.2	0.00e+00	45	31	0	448790528	46	6142
2026-01-08 17:21:39.36	355.64	19.24	-36.5	-37.3	24.1	0.00e+00	0	32	0	457179136	46	5947
2026-01-08 17:21:43.39	354.77	19.48	-36.5	-37.3	24.6	0.00e+00	57	31	0	464519168	46	5921
2026-01-08 17:21:47.43	353.88	19.72	-36.2	-37.0	24.8	0.00e+00	0	31	0	471859200	46	5713
2026-01-08 17:21:51.47	352.98	19.95	-36.5	-37.3	24.5	0.00e+00	5	31	0	479199232	46	5910
2026-01-08 17:21:55.50	352.07	20.17	-36.6	-37.5	24.5	0.00e+00	0	31	0	486539264	46	6040
2026-01-08 17:21:59.54	351.15	20.39	-36.7	-37.5	24.4	0.00e+00	90	32	0	494927872	46	6080
2026-01-08 17:22:03.58	350.21	20.61	-36.9	-37.7	24.2	0.00e+00	41	32	0	502267904	46	6227
2026-01-08 17:22:07.61	349.26	20.81	-36.7	-37.6	24.4	0.00e+00	6	31	0	509607936	46	6115
2026-01-08 17:22:11.65	348.30	21.01	-36.3	-37.1	24.9	0.00e+00	6	32	0	516947968	46	5782
2026-01-08 17:22:15.68	347.32	21.21	-36.2	-37.0	24.8	0.00e+00	91	32	0	525336576	46	5732
2026-01-08 17:22:19.72	346.33	21.39	-36.2	-37.0	24.8	0.00e+00	0	32	0	532676608	46	5751
2026-01-08 17:22:23.75	345.33	21.57	-36.0	-36.8	25.0	0.00e+00	47	32	0	540016640	46	5577
2026-01-08 17:22:27.79	344.32	21.74	-35.7	-36.4	25.3	0.00e+00	36	32	0	547356672	44	6019
2026-01-08 17:22:31.83	343.30	21.90	-35.8	-36.5	25.2	0.00e+00	92	31	0	554696704	44	6091
2026-01-08 17:22:35.86	342.27	22.05	-35.9	-36.7	24.9	0.00e+00	0	32	0	563085312	44	6221
2026-01-08 17:22:39.90	341.22	22.19	-36.3	-37.1	24.7	0.00e+00	0	31	0	570425344	44	6487
2026-01-08 17:22:43.94	340.17	22.32	-36.3	-37.1	24.7	0.00e+00	45	31	0	577765376	44	6538
2026-01-08 17:22:47.97	339.11	22.45	-37.1	-38.0	24.0	0.00e+00	92	32	0	585105408	46	6425
2026-01-08 17:22:52.01	338.04	22.56	-37.6	-38.5	23.6	0.00e+00	35	32	0	592445440	46	6790
2026-01-08 17:22:56.05	336.96	22.66	-37.9	-38.8	23.3	0.00e+00	0	32	0	600834048	48	6276
2026-01-08 17:23:00.08	335.88	22.75	-37.6	-38.5	23.5	0.00e+00	37	31	0	608174080	48	6063
2026-01-08 17:23:04.12	334.79	22.83	-38.0	-39.0	23.1	0.00e+00	92	32	0	615514112	48	6411
2026-01-08 17:23:08.15	333.69	22.90	-38.5	-39.5	22.7	0.00e+00	46	32	0	622854144	48	6839
2026-01-08 17:23:12.19	332.59	22.96	-38.2	-39.2	23.0	0.00e+00	0	32	0	631242752	48	6547
2026-01-08 17:23:16.23	331.49	23.01	-38.2	-39.2	23.0	0.00e+00	34	32	0	638582784	48	6563
2026-01-08 17:23:20.27	330.38	23.05	-38.2	-39.1	23.0	0.00e+00	92	31	0	645922816	48	6522
2026-01-08 17:23:24.30	329.27	23.07	-38.1	-39.1	23.1	0.00e+00	46	32	0	653262848	48	6488
2026-01-08 17:23:28.34	328.16	23.08	-38.0	-38.9	23.2	0.00e+00	46	31	0	660602880	48	6363
2026-01-08 17:23:32.38	327.05	23.09	-38.0	-38.9	23.2	0.00e+00	45	31	0	668991488	48	6360
2026-01-08 17:23:36.42	325.94	23.08	-37.7	-38.6	23.4	0.00e+00	92	32	0	676331520	48	6162
2026-01-08 17:23:40.45	324.83	23.05	-37.3	-38.2	23.9	0.00e+00	7	31	0	683671552	48	5843
2026-01-08 17:23:44.49	323.72	23.02	-37.0	-37.9	24.2	0.00e+00	39	31	0	691011584	48	5631
2026-01-08 17:23:48.53	322.62	22.98	-36.7	-37.5	24.5	0.00e+00	44	32	0	699400192	46	6054
2026-01-08 17:23:52.56	321.52	22.92	-36.3	-37.2	24.8	0.00e+00	87	31	0	706740224	46	5829
2026-01-08 17:23:56.60	320.42	22.85	-36.0	-36.8	25.1	0.00e+00	41	31	0	714080256	46	5591
2026-01-08 17:24:00.64	319.32	22.77	-35.5	-36.3	25.6	0.00e+00	7	31	0	721420288	44	5907
2026-01-08 17:24:04.68	318.24	22.68	-35.5	-36.3	25.4	0.00e+00	90	31	0	728760320	44	5933
2026-01-08 17:24:08.71	317.16	22.59	-35.2	-35.9	25.7	0.00e+00	41	32	0	737148928	44	5695
2026-01-08 17:24:12.75	316.09	22.47	-35.4	-36.2	25.5	0.00e+00	42	31	0	744488960	44	5864
2026-01-08 17:24:16.79	315.02	22.35	-35.8	-36.6	25.2	0.00e+00	0	31	0	751828992	44	6107
2026-01-08 17:24:20.82	313.97	22.22	-35.7	-36.5	25.3	0.00e+00	91	31	0	759169024	44	6070
2026-01-08 17:24:24.85	312.92	22.08	-36.3	-37.1	24.8	0.00e+00	0	31	0	767557632	44	6509
2026-01-08 17:24:28.88	311.89	21.94	-36.9	-37.7	24.3	0.00e+00	45	32	0	774897664	46	6224
2026-01-08 17:24:32.92	310.86	21.78	-37.1	-37.9	24.1	0.00e+00	0	31	0	782237696	46	6373
2026-01-08 17:24:36.96	309.84	21.61	-37.2	-38.0	24.0	0.00e+00	91	31	0	789577728	46	6444
2026-01-08 17:24:41.00	308.84	21.44	-37.6	-38.5	23.6	0.00e+00	2	32	0	796917760	46	6842
2026-01-08 17:24:45.03	307.85	21.25	-37.7	-38.6	23.4	0.00e+00	0	31	0	805306368	48	6127
2026-01-08 17:24:49.07	306.86	21.06	-37.8	-38.7	23.4	0.00e+00	0	31	0	812646400	48	6193
2026-01-08 17:24:53.11	305.89	20.86	-37.9	-38.9	23.3	0.00e+00	90	31	0	819986432	48	6319
2026-01-08 17:24:57.15	304.94	20.66	-38.0	-38.9	23.2	0.00e+00	45	31	0	827326464	48	6346
2026-01-08 17:25:01.19	303.99	20.45	-37.6	-38.5	23.6	0.00e+00	36	31	0	835715072	48	6095
2026-01-08 17:25:05.22	303.06	20.23	-38.1	-39.1	23.1	0.00e+00	2	31	0	843055104	48	6490
2026-01-08 17:25:09.26	302.15	20.00	-37.8	-38.7	23.4	0.00e+00	92	31	0	850395136	48	6191
2026-01-08 17:25:13.30	301.24	19.77	-37.6	-38.5	23.6	0.00e+00	0	31	0	857735168	48	6071
2026-01-08 17:25:17.34	300.35	19.54	-37.8	-38.7	23.4	0.00e+00	37	31	0	865075200	48	6232
2026-01-08 17:25:21.37	299.48	19.30	-37.5	-38.4	23.7	0.00e+00	0	31	0	873463808	48	6008
2026-01-08 17:25:25.41	298.62	19.06	-37.7	-38.6	23.5	0.00e+00	92	32	0	880803840	48	6127
2026-01-08 17:25:29.45	297.77	18.81	-37.7	-38.6	23.5	0.00e+00	6	31	0	888143872	48	6134
2026-01-08 17:25:33.49	296.93	18.56	-37.6	-38.5	23.6	0.00e+00	0	32	0	895483904	48	6070
2026-01-08 17:25:37.52	296.12	18.30	-37.7	-38.6	23.6	0.00e+00	41	31	0	902823936	48	6148
2026-01-08 17:25:41.56	295.31	18.04	-37.5	-38.4	23.7	0.00e+00	87	31	0	911212544	48	5990
2026-01-08 17:25:45.60	294.52	17.78	-37.7	-38.6	23.5	0.00e+00	0	31	0	918552576	48	6169
2026-01-08 17:25:49.64	293.74	17.51	-37.9	-38.8	23.3	0.00e+00	6	31	0	925892608	48	6315
2026-01-08 17:25:53.67	292.97	17.25	-37.9	-38.8	23.3	0.00e+00	61	31	0	933232640	48	6288
2026-01-08 17:25:57.71	292.22	16.98	-37.8	-38.8	23.3	0.00e+00	42	31	0	941621248	48	6247
2026-01-08 17:26:01.75	291.48	16.70	-37.9	-38.9	23.2	0.00e+00	39	31	0	948961280	48	6325
2026-01-08 17:26:05.78	290.76	16.43	-38.3	-39.3	22.9	0.00e+00	0	32	0	956301312	48	6631
2026-01-08 17:26:09.82	290.05	16.16	-37.8	-38.7	23.3	0.00e+00	92	32	0	963641344	48	6240
2026-01-08 17:26:13.86	289.35	15.88	-37.5	-38.4	23.6	0.00e+00	0	32	0	970981376	48	6030
2026-01-08 17:26:17.89	288.67	15.60	-37.6	-38.5	23.5	0.00e+00	40	31	0	979369984	48	6080
2026-01-08 17:26:21.92	288.00	15.33	-37.7	-38.6	23.4	0.00e+00	0	31	0	986710016	48	6157
2026-01-08 17:26:25.96	287.34	15.05	-37.2	-38.1	23.8	0.00e+00	92	31	0	994050048	48	5796
2026-01-08 17:26:29.99	286.69	14.77	-36.9	-37.7	24.2	0.00e+00	0	31	0	1001390080	48	5542
2026-01-08 17:26:34.03	286.06	14.49	-36.8	-37.7	24.2	0.00e+00	2	31	0	1008730112	46	6201
2026-01-08 17:26:38.06	285.44	14.21	-36.9	-37.8	24.0	0.00e+00	0	31	0	1017118720	46	6268
2026-01-08 17:26:42.10	284.82	13.93	-36.7	-37.5	24.2	0.00e+00	91	31	0	1024458752	46	6097
2026-01-08 17:26:46.14	284.22	13.65	-36.8	-37.6	24.2	0.00e+00	44	32	0	1031798784	46	6156
2026-01-08 17:26:50.17	283.64	13.37	-36.9	-37.7	24.0	0.00e+00	0	32	0	1039138816	46	6238
2026-01-08 17:26:54.21	283.06	13.09	-36.9	-37.7	24.1	0.00e+00	0	31	0	1047527424	46	6238
2026-01-08 17:26:58.25	282.49	12.81	-37.0	-37.9	24.0	0.00e+00	92	32	0	1054867456	46	6330
2026-01-08 17:27:02.29	281.94	12.53	-37.3	-38.2	23.6	0.00e+00	0	31	0	1062207488	46	6559
2026-01-08 17:27:06.32	281.40	12.25	-37.5	-38.4	23.5	0.00e+00	0	31	0	1069547520	46	6699
2026-01-08 17:27:10.35	280.86	11.97	-37.3	-38.2	23.6	0.00e+00	15	31	0	1076887552	46	6611
2026-01-08 17:27:14.39	280.34	11.70	-37.3	-38.2	23.6	0.00e+00	81	31	0	1085276160	46	6586
2026-01-08 17:27:18.43	279.82	11.42	-37.6	-38.5	23.3	0.00e+00	0	31	0	1092616192	46	6835
2026-01-08 17:27:22.47	279.32	11.14	-37.9	-38.8	23.0	0.00e+00	0	32	0	1099956224	48	6298
2026-01-08 17:27:26.51	278.82	10.87	-38.0	-38.9	22.9	0.00e+00	83	31	0	1107296256	48	6381
2026-01-08 17:27:30.54	278.34	10.60	-38.1	-39.1	22.8	0.00e+00	39	32	0	1115684864	48	6492
2026-01-08 17:27:34.58	277.86	10.32	-38.2	-39.2	22.7	0.00e+00	54	31	0	1123024896	48	6567
2026-01-08 17:27:38.61	277.40	10.05	-38.3	-39.3	22.5	0.00e+00	7	32	0	1130364928	48	6667
2026-01-08 17:27:42.65	276.94	9.78	-38.5	-39.5	22.3	0.00e+00	91	31	0	1137704960	48	6816
2026-01-08 17:27:46.69	276.49	9.51	-38.7	-39.7	22.1	0.00e+00	0	31	0	1145044992	48	6983
2026-01-08 17:27:50.72	276.05	9.25	-38.9	-40.0	21.9	0.00e+00	0	31	0	1153433600	50	6408
2026-01-08 17:27:54.76	275.61	8.98	-38.9	-40.0	21.9	0.00e+00	38	31	0	1160773632	50	6430
2026-01-08 17:27:58.79	275.19	8.71	-38.8	-39.9	21.9	0.00e+00	92	31	0	1168113664	50	6351
2026-01-08 17:28:02.83	274.77	8.45	-38.8	-39.9	21.9	0.00e+00	0	32	0	1175453696	50	6328
2026-01-08 17:28:06.86	274.36	8.19	-39.5	-40.6	21.2	0.00e+00	0	31	0	1182793728	50	6904
2026-01-08 17:28:10.90	273.96	7.93	-39.6	-40.8	21.0	0.00e+00	0	32	0	1191182336	50	7065
2026-01-08 17:28:14.93	273.57	7.67	-39.7	-40.9	20.8	0.00e+00	92	32	0	1198522368	52	6385
2026-01-08 17:28:18.97	273.18	7.41	-39.8	-41.1	20.7	0.00e+00	4	32	0	1205862400	52	6487
2026-01-08 17:28:23.00	272.80	7.15	-39.9	-41.2	20.5	0.00e+00	44	31	0	1213202432	52	6579
2026-01-08 17:28:27.05	272.42	6.89	-40.1	-41.4	20.3	0.00e+00	0	31	0	1221591040	52	6731
2026-01-08 17:28:31.08	272.06	6.64	-40.2	-41.5	20.3	0.00e+00	90	31	0	1228931072	52	6798
2026-01-08 17:28:35.11	271.70	6.39	-40.2	-41.5	20.1	0.00e+00	0	31	0	1236271104	52	6821
2026-01-08 17:28:39.15	271.34	6.14	-40.2	-41.5	20.2	0.00e+00	30	31	0	1243611136	52	6806
2026-01-08 17:28:43.19	271.00	5.88	-40.4	-41.8	19.8	0.00e+00	0	31	0	1250951168	52	7081
2026-01-08 17:28:47.23	270.65	5.64	-40.5	-41.9	19.6	0.00e+00	90	31	0	1259339776	52	7148
2026-01-08 17:28:51.26	270.32	5.39	-40.7	-42.1	19.4	0.00e+00	0	32	0	1266679808	54	6531
2026-01-08 17:28:55.30	269.99	5.14	-40.9	-42.4	19.1	0.00e+00	0	31	0	1274019840	54	6737
2026-01-08 17:28:59.33	269.66	4.90	-41.1	-42.7	18.8	0.00e+00	0	32	0	1281359872	54	6934
2026-01-08 17:29:03.37	269.34	4.65	-40.9	-42.5	19.0	0.00e+00	90	31	0	1289748480	54	6791
2026-01-08 17:29:07.40	269.03	4.41	-41.1	-42.7	18.7	0.00e+00	0	31	0	1297088512	54	6964
2026-01-08 17:29:11.44	268.72	4.17	-41.4	-43.1	18.3	0.00e+00	0	31	0	1304428544	54	7289
2026-01-08 17:29:15.48	268.42	3.93	-41.3	-43.0	18.2	0.00e+00	0	32	0	1311768576	54	7238
2026-01-08 17:29:19.51	268.12	3.69	-41.7	-43.5	17.8	0.00e+00	38	32	0	1319108608	54	7663
2026-01-08 17:29:23.55	267.83	3.46	-41.6	-43.5	17.6	0.00e+00	57	32	0	1327497216	54	7652
2026-01-08 17:29:27.59	267.54	3.22	-41.5	-43.3	17.8	0.00e+00	8	31	0	1334837248	54	7493
2026-01-08 17:29:31.62	267.26	2.99	-47.3	-62.3	3.6	2.76e-01	0	31	104	1342177280	60	47010
2026-01-08 17:29:35.66	266.98	2.76	-48.5	-63.7	3.6	1.51e+00	0	32	104	1342177280	60	55088
2026-01-08 17:29:39.70	266.71	2.52	-48.6	-63.8	3.6	1.51e+00	0	32	104	1342177280	60	55709
2026-01-08 17:29:43.74	266.44	2.29	-48.5	-63.7	3.6	1.51e+00	0	32	104	1342177280	60	55319
2026-01-08 17:29:47.78	266.17	2.06	-48.4	-63.6	3.6	1.51e+00	0	32	104	1342177280	60	54723
2026-01-08 17:29:51.82	265.91	1.84	-48.5	-63.6	3.6	1.51e+00	0	32	104	1342177280	60	54924
2026-01-08 17:29:55.86	265.65	1.61	-48.5	-63.6	3.6	1.51e+00	0	32	104	1342177280	60	55010
2026-01-08 17:29:59.90	265.40	1.39	-48.5	-63.6	3.6	1.51e+00	0	32	104	1342177280	60	54569
2026-01-08 17:30:03.95	265.15	1.16	-48.5	-63.6	3.6	1.51e+00	0	32	104	1342177280	60	54773
2026-01-08 17:30:07.99	264.91	0.94	-48.5	-63.6	3.5	1.51e+00	0	32	104	1342177280	60	54792
2026-01-08 17:30:12.03	264.66	0.72	-48.5	-63.6	3.6	1.51e+00	0	32	104	1342177280	60	54864
2026-01-08 17:30:16.07	264.43	0.50	-48.4	-63.6	3.6	1.51e+00	0	32	104	1342177280	60	54720
2026-01-08 17:30:20.11	264.19	0.28	-48.4	-63.6	3.6	1.51e+00	0	32	104	1342177280	60	54935
2026-01-08 17:30:24.15	263.96	0.06	-48.4	-63.6	3.6	1.51e+00	0	32	104	1342177280	60	54822

#Closed at: 2026-01-08 17:30:27
#Recorded file [1342 MB]: D:/lorett/data/35029_260109_051636.dat