passes_logs/2026/01/08/R4.6S_Anadyr/R4.6S_Anadyr__20260108_235129_NOAA_20_JPSS-1_rec.log

#Pass ID: 20260108_235129_NOAA 20 (JPSS-1)
#Satellite: NOAA 20 (JPSS-1)
#Configuration: NOAA 20
#almurnet v.1.7.20251203
#Start time: 2026-01-08 23:51:30

#Version: 2.2.20231116
#Station: R4.6S_Anadyr
#Location: 177.4865 lon 64.73178 lat
#TLE: 1 43013U 17073A   26008.28148939  .00000118  00000+0  77102-4 0  9999
#TLE: 2 43013  98.7631 309.2920 0001742  49.0100 311.1227 14.19534407421787

#Time	Az	El	Level	Level2	SNR	BER	BlckErr	Temp	State	Recorded	gain1	gain2
2026-01-08 23:51:30.47	147.37	0.08	-48.3	-63.2	3.5	1.51e+00	0	31	0	0	60	52149
2026-01-08 23:51:34.51	147.34	0.33	-48.3	-63.5	3.6	1.51e+00	0	32	104	0	60	54227
2026-01-08 23:51:38.54	147.31	0.57	-48.4	-63.6	3.6	1.51e+00	0	32	104	0	60	54921
2026-01-08 23:51:42.59	147.28	0.82	-47.9	-63.1	3.6	1.51e+00	0	32	104	0	60	51594
2026-01-08 23:51:46.62	147.25	1.07	-46.6	-61.8	3.6	1.51e+00	0	32	104	0	60	44221
2026-01-08 23:51:50.66	147.22	1.32	-46.4	-61.6	3.6	1.51e+00	0	33	104	0	60	43487
2026-01-08 23:51:54.70	147.19	1.58	-46.4	-61.4	3.6	1.51e+00	0	33	104	0	60	42707
2026-01-08 23:51:58.74	147.16	1.83	-46.4	-61.4	3.6	1.51e+00	0	33	104	0	60	42268
2026-01-08 23:52:02.78	147.13	2.09	-46.4	-61.4	3.6	1.51e+00	0	33	104	0	60	42495
2026-01-08 23:52:06.82	147.10	2.35	-46.4	-61.5	3.6	1.51e+00	0	33	104	0	60	42882
2026-01-08 23:52:10.86	147.06	2.62	-46.4	-61.5	3.6	1.51e+00	0	33	104	0	60	42929
2026-01-08 23:52:14.90	147.03	2.88	-46.4	-61.5	3.6	1.51e+00	0	33	104	0	60	43074
2026-01-08 23:52:18.93	146.99	3.15	-46.1	-55.5	4.5	1.14e+00	90	33	0	0	60	21446
2026-01-08 23:52:22.97	146.96	3.42	-44.7	-49.4	11.0	6.77e-03	92	33	0	8388608	60	10613
2026-01-08 23:52:27.01	146.92	3.70	-43.3	-46.4	14.1	3.00e-06	0	33	0	15728640	60	7555
2026-01-08 23:52:31.05	146.88	3.97	-46.2	-61.2	3.6	7.71e-01	0	33	104	18874368	60	41574
2026-01-08 23:52:35.08	146.84	4.25	-41.3	-43.2	17.7	0.00e+00	92	33	0	24117248	56	6599
2026-01-08 23:52:39.11	146.80	4.53	-40.5	-42.1	18.8	0.00e+00	92	33	0	31457280	54	6524
2026-01-08 23:52:43.15	146.76	4.82	-40.0	-41.5	19.4	0.00e+00	0	33	0	39845888	54	6083
2026-01-08 23:52:47.19	146.72	5.11	-39.7	-41.1	19.9	0.00e+00	92	33	0	47185920	52	6539
2026-01-08 23:52:51.23	146.68	5.40	-39.7	-41.1	20.0	0.00e+00	90	33	0	54525952	52	6531
2026-01-08 23:52:55.27	146.63	5.69	-39.5	-40.9	20.3	0.00e+00	92	33	0	61865984	52	6331
2026-01-08 23:52:59.31	146.59	5.99	-39.4	-40.7	20.5	0.00e+00	48	33	0	69206016	52	6201
2026-01-08 23:53:03.34	146.54	6.29	-39.3	-40.6	20.7	0.00e+00	92	33	0	77594624	52	6126
2026-01-08 23:53:07.38	146.49	6.60	-39.5	-40.8	20.5	0.00e+00	92	33	0	84934656	52	6287
2026-01-08 23:53:11.41	146.44	6.91	-39.0	-40.3	21.0	0.00e+00	92	33	0	92274688	52	5919
2026-01-08 23:53:15.45	146.39	7.22	-39.0	-40.1	21.1	0.00e+00	92	33	0	99614720	52	5828
2026-01-08 23:53:19.49	146.34	7.54	-38.8	-40.0	21.3	0.00e+00	92	33	0	108003328	52	5721
2026-01-08 23:53:23.52	146.29	7.86	-38.7	-39.8	21.5	0.00e+00	90	33	0	115343360	50	6256
2026-01-08 23:53:27.56	146.23	8.18	-38.6	-39.7	21.6	0.00e+00	92	33	0	122683392	50	6243
2026-01-08 23:53:31.60	146.18	8.51	-38.5	-39.6	21.7	0.00e+00	92	33	0	130023424	50	6125
2026-01-08 23:53:35.64	146.12	8.84	-38.4	-39.4	22.0	0.00e+00	92	33	0	137363456	50	6022
2026-01-08 23:53:39.67	146.06	9.18	-38.4	-39.4	21.9	0.00e+00	91	33	0	145752064	50	6026
2026-01-08 23:53:43.71	146.00	9.52	-38.3	-39.4	22.0	0.00e+00	57	33	0	153092096	50	6000
2026-01-08 23:53:47.74	145.94	9.87	-38.2	-39.2	22.3	0.00e+00	92	33	0	160432128	50	5879
2026-01-08 23:53:51.78	145.87	10.22	-37.8	-38.8	22.6	0.00e+00	90	33	0	167772160	50	5623
2026-01-08 23:53:55.82	145.81	10.58	-37.6	-38.6	22.8	0.00e+00	92	33	0	175112192	48	6137
2026-01-08 23:53:59.85	145.74	10.94	-37.6	-38.6	22.9	0.00e+00	0	33	0	183500800	48	6137
2026-01-08 23:54:03.89	145.67	11.31	-37.5	-38.5	22.9	0.00e+00	92	33	0	190840832	48	6063
2026-01-08 23:54:07.92	145.59	11.68	-37.4	-38.3	23.0	0.00e+00	92	33	0	198180864	48	5958
2026-01-08 23:54:11.95	145.52	12.06	-37.2	-38.1	23.3	0.00e+00	92	33	0	205520896	48	5808
2026-01-08 23:54:15.98	145.44	12.44	-37.0	-37.9	23.5	0.00e+00	44	33	0	213909504	48	5674
2026-01-08 23:54:20.02	145.36	12.83	-36.9	-37.8	23.6	0.00e+00	90	33	0	221249536	48	5590
2026-01-08 23:54:24.06	145.28	13.23	-36.9	-37.8	23.6	0.00e+00	92	33	0	228589568	48	5580
2026-01-08 23:54:28.09	145.20	13.63	-36.8	-37.7	23.8	0.00e+00	52	33	0	235929600	46	6190
2026-01-08 23:54:32.13	145.11	14.04	-36.5	-37.4	24.0	0.00e+00	48	33	0	243269632	46	6000
2026-01-08 23:54:36.16	145.02	14.46	-36.4	-37.2	24.2	0.00e+00	91	33	0	251658240	46	5860
2026-01-08 23:54:40.20	144.93	14.88	-36.4	-37.2	24.3	0.00e+00	92	33	0	258998272	46	5878
2026-01-08 23:54:44.23	144.83	15.31	-36.2	-37.1	24.4	0.00e+00	0	33	0	266338304	46	5772
2026-01-08 23:54:48.27	144.73	15.75	-36.2	-37.0	24.5	0.00e+00	79	33	0	273678336	46	5722
2026-01-08 23:54:52.30	144.63	16.20	-36.0	-36.8	24.6	0.00e+00	92	33	0	282066944	46	5576
2026-01-08 23:54:56.33	144.52	16.65	-36.0	-36.8	24.6	0.00e+00	92	33	0	289406976	46	5622
2026-01-08 23:55:00.36	144.41	17.11	-35.9	-36.7	24.9	0.00e+00	52	33	0	296747008	46	5525
2026-01-08 23:55:04.40	144.30	17.59	-35.6	-36.4	25.0	0.00e+00	92	33	0	304087040	44	6018
2026-01-08 23:55:08.44	144.18	18.07	-35.7	-36.5	24.9	0.00e+00	91	33	0	311427072	44	6044
2026-01-08 23:55:12.48	144.06	18.56	-35.5	-36.3	25.1	0.00e+00	92	33	0	319815680	44	5927
2026-01-08 23:55:16.52	143.93	19.06	-35.3	-36.1	25.3	0.00e+00	0	33	0	327155712	44	5776
2026-01-08 23:55:20.56	143.80	19.58	-35.3	-36.1	25.3	0.00e+00	92	33	0	334495744	44	5772
2026-01-08 23:55:24.59	143.66	20.10	-35.2	-36.0	25.4	0.00e+00	92	33	0	341835776	44	5704
2026-01-08 23:55:28.63	143.52	20.63	-35.0	-35.8	25.6	0.00e+00	92	33	0	350224384	44	5588
2026-01-08 23:55:32.67	143.37	21.17	-35.1	-35.8	25.6	0.00e+00	0	33	0	357564416	44	5603
2026-01-08 23:55:36.70	143.22	21.73	-35.2	-35.9	25.5	0.00e+00	92	33	0	364904448	44	5686
2026-01-08 23:55:40.74	143.06	22.30	-35.2	-35.9	25.5	0.00e+00	90	33	0	372244480	44	5672
2026-01-08 23:55:44.78	142.90	22.88	-35.0	-35.8	25.6	0.00e+00	92	33	0	379584512	44	5598
2026-01-08 23:55:48.81	142.73	23.47	-35.1	-35.9	25.6	0.00e+00	0	33	0	387973120	44	5647
2026-01-08 23:55:52.85	142.55	24.08	-35.3	-36.0	25.4	0.00e+00	90	33	0	395313152	44	5753
2026-01-08 23:55:56.89	142.36	24.70	-35.6	-36.4	25.2	0.00e+00	90	33	0	402653184	44	5982
2026-01-08 23:56:00.92	142.16	25.34	-36.0	-36.8	24.8	0.00e+00	92	33	0	409993216	44	6283
2026-01-08 23:56:04.96	141.96	25.99	-36.4	-37.3	24.5	0.00e+00	60	33	0	417333248	44	6634
2026-01-08 23:56:09.00	141.75	26.66	-36.8	-37.7	24.2	0.00e+00	91	33	0	425721856	46	6201
2026-01-08 23:56:13.04	141.53	27.34	-37.1	-38.0	23.8	0.00e+00	92	33	0	433061888	46	6404
2026-01-08 23:56:17.07	141.29	28.04	-37.4	-38.3	23.3	0.00e+00	92	33	0	440401920	46	6635
2026-01-08 23:56:21.11	141.05	28.76	-37.9	-38.9	23.1	0.00e+00	63	33	0	447741952	48	6320
2026-01-08 23:56:25.15	140.79	29.50	-38.6	-39.6	22.4	0.00e+00	92	33	0	456130560	48	6884
2026-01-08 23:56:29.19	140.52	30.25	-39.0	-40.1	22.0	0.00e+00	90	33	0	463470592	50	6507
2026-01-08 23:56:33.23	140.24	31.03	-39.3	-40.4	21.7	0.00e+00	63	33	0	470810624	50	6726
2026-01-08 23:56:37.26	139.94	31.82	-39.8	-41.0	21.2	0.00e+00	76	33	0	478150656	52	6411
2026-01-08 23:56:41.30	139.63	32.64	-39.9	-41.1	21.1	0.00e+00	92	33	0	485490688	52	6473
2026-01-08 23:56:45.33	139.30	33.47	-40.3	-41.5	20.7	0.00e+00	92	33	0	493879296	52	6822
2026-01-08 23:56:49.37	138.95	34.34	-40.2	-41.5	20.8	0.00e+00	24	33	0	501219328	52	6775
2026-01-08 23:56:53.40	138.59	35.22	-40.1	-41.3	21.0	0.00e+00	92	33	0	508559360	52	6659
2026-01-08 23:56:57.44	138.20	36.12	-39.4	-40.5	21.7	0.00e+00	92	33	0	515899392	52	6101
2026-01-08 23:57:01.46	137.78	37.05	-39.4	-40.5	21.8	0.00e+00	92	33	0	523239424	52	6053
2026-01-08 23:57:05.49	137.35	38.01	-39.7	-40.8	21.4	0.00e+00	12	33	0	531628032	52	6272
2026-01-08 23:57:09.52	136.88	38.99	-40.3	-41.5	20.8	0.00e+00	90	33	0	538968064	52	6806
2026-01-08 23:57:13.56	136.39	40.00	-40.0	-41.2	21.2	0.00e+00	92	33	0	546308096	52	6567
2026-01-08 23:57:17.60	135.86	41.03	-39.9	-41.0	21.2	0.00e+00	92	33	0	553648128	52	6437
2026-01-08 23:57:21.64	135.29	42.10	-39.6	-40.7	21.6	0.00e+00	0	33	0	562036736	52	6241
2026-01-08 23:57:25.67	134.69	43.19	-39.3	-40.4	21.9	0.00e+00	92	33	0	569376768	52	5984
2026-01-08 23:57:29.71	134.04	44.31	-38.9	-40.0	22.3	0.00e+00	92	33	0	576716800	52	5703
2026-01-08 23:57:33.75	133.34	45.45	-38.3	-39.3	22.8	0.00e+00	92	33	0	584056832	50	5932
2026-01-08 23:57:37.78	132.59	46.63	-38.3	-39.2	22.7	0.00e+00	8	33	0	591396864	50	5880
2026-01-08 23:57:41.82	131.78	47.83	-38.2	-39.2	22.8	0.00e+00	90	33	0	599785472	50	5856
2026-01-08 23:57:45.86	130.90	49.06	-38.1	-39.1	23.0	0.00e+00	92	33	0	607125504	50	5769
2026-01-08 23:57:49.89	129.95	50.32	-37.5	-38.4	23.6	0.00e+00	92	33	0	614465536	48	5986
2026-01-08 23:57:53.92	128.91	51.60	-36.3	-37.1	24.6	0.00e+00	0	33	0	621805568	46	5783
2026-01-08 23:57:57.96	127.78	52.91	-36.2	-37.0	24.8	0.00e+00	92	32	0	630194176	44	6440
2026-01-08 23:58:02.00	126.53	54.24	-36.0	-36.8	24.9	0.00e+00	92	32	0	637534208	44	6284
2026-01-08 23:58:06.04	125.17	55.59	-36.7	-37.5	24.3	0.00e+00	92	32	0	644874240	46	6055
2026-01-08 23:58:10.08	123.66	56.95	-38.9	-40.0	22.2	0.00e+00	0	33	0	652214272	50	6423
2026-01-08 23:58:14.11	122.00	58.33	-40.4	-41.7	20.7	0.00e+00	92	32	0	659554304	52	6969
2026-01-08 23:58:18.15	120.15	59.71	-38.6	-39.6	22.6	0.00e+00	92	32	0	667942912	50	6150
2026-01-08 23:58:22.19	118.10	61.10	-37.3	-38.2	23.6	0.00e+00	7	32	0	675282944	48	5888
2026-01-08 23:58:26.22	115.80	62.47	-36.2	-37.0	24.8	0.00e+00	65	32	0	682622976	46	5728
2026-01-08 23:58:30.26	113.23	63.83	-36.6	-37.4	24.4	0.00e+00	92	32	0	689963008	46	6006
2026-01-08 23:58:34.30	110.33	65.17	-37.9	-38.9	23.1	0.00e+00	92	32	0	698351616	48	6318
2026-01-08 23:58:38.33	107.09	66.45	-39.1	-40.1	22.0	0.00e+00	62	32	0	705691648	50	6535
2026-01-08 23:58:42.37	103.42	67.69	-39.9	-41.0	21.2	0.00e+00	74	32	0	713031680	52	6453
2026-01-08 23:58:46.41	99.31	68.84	-39.1	-40.2	22.0	0.00e+00	90	32	0	720371712	52	5829
2026-01-08 23:58:50.44	94.71	69.89	-37.6	-38.5	23.4	0.00e+00	92	32	0	727711744	50	5418
2026-01-08 23:58:54.48	89.60	70.81	-37.4	-38.3	23.6	0.00e+00	57	32	0	736100352	48	5903
2026-01-08 23:58:58.52	83.97	71.59	-37.2	-38.0	23.8	0.00e+00	92	32	0	743440384	48	5751
2026-01-08 23:59:02.56	77.88	72.18	-37.8	-38.8	23.1	0.00e+00	92	32	0	750780416	48	6256
2026-01-08 23:59:06.59	71.45	72.58	-39.4	-40.5	21.7	0.00e+00	21	32	0	758120448	50	6826
2026-01-08 23:59:10.63	64.77	72.75	-38.5	-39.5	22.6	0.00e+00	6	32	0	766509056	50	6059
2026-01-08 23:59:14.67	58.04	72.70	-37.5	-38.4	23.4	0.00e+00	92	32	0	773849088	48	5975
2026-01-08 23:59:18.70	51.45	72.43	-37.4	-38.3	23.8	0.00e+00	92	32	0	781189120	48	5899
2026-01-08 23:59:22.74	45.15	71.94	-36.3	-37.1	24.7	0.00e+00	30	32	0	788529152	46	5805
2026-01-08 23:59:26.78	39.26	71.27	-37.7	-38.7	23.3	0.00e+00	58	32	0	795869184	48	6176
2026-01-08 23:59:30.81	33.88	70.43	-38.9	-39.9	22.2	0.00e+00	92	32	0	804257792	50	6348
2026-01-08 23:59:34.85	28.99	69.44	-39.3	-40.4	21.6	0.00e+00	90	32	0	811597824	50	6750
2026-01-08 23:59:38.89	24.61	68.34	-40.4	-41.7	20.6	0.00e+00	0	32	0	818937856	52	6975
2026-01-08 23:59:42.92	20.71	67.16	-39.0	-40.1	22.0	0.00e+00	0	32	0	826277888	52	5780
2026-01-08 23:59:46.95	17.24	65.91	-38.2	-39.2	23.0	0.00e+00	90	32	0	833617920	50	5836
2026-01-08 23:59:50.99	14.16	64.60	-35.4	-36.2	25.3	0.00e+00	90	32	0	842006528	44	5860
2026-01-08 23:59:55.02	11.42	63.26	-34.8	-35.5	25.9	0.00e+00	0	32	0	849346560	42	6084
2026-01-08 23:59:59.06	8.97	61.89	-35.1	-35.8	25.6	0.00e+00	0	32	0	856686592	42	6315
2026-01-09 00:00:03.10	6.78	60.51	-37.1	-37.9	23.8	0.00e+00	90	32	0	864026624	46	6351
2026-01-09 00:00:07.14	4.82	59.13	-39.0	-40.1	22.1	0.00e+00	92	32	0	872415232	50	6487
2026-01-09 00:00:11.17	3.07	57.75	-40.7	-42.0	20.3	0.00e+00	0	32	0	879755264	54	6417
2026-01-09 00:00:15.20	1.48	56.39	-38.2	-39.2	22.9	0.00e+00	29	32	0	887095296	50	5844
2026-01-09 00:00:19.24	0.04	55.03	-36.5	-37.3	24.5	0.00e+00	92	32	0	894435328	46	5951
2026-01-09 00:00:23.28	358.73	53.69	-36.2	-37.1	24.6	0.00e+00	92	32	0	901775360	46	5763
2026-01-09 00:00:27.31	357.54	52.38	-36.2	-37.0	24.8	0.00e+00	0	32	0	910163968	46	5714
2026-01-09 00:00:31.35	356.45	51.09	-37.5	-38.4	23.5	0.00e+00	92	32	0	917504000	46	6730
2026-01-09 00:00:35.39	355.45	49.82	-38.6	-39.7	22.4	0.00e+00	92	32	0	924844032	50	6183
2026-01-09 00:00:39.42	354.53	48.58	-39.5	-40.6	21.6	0.00e+00	18	32	0	932184064	50	6899
2026-01-09 00:00:43.46	353.69	47.36	-38.8	-39.8	22.4	0.00e+00	0	32	0	939524096	50	6280
2026-01-09 00:00:47.50	352.90	46.17	-38.5	-39.5	22.5	0.00e+00	92	32	0	947912704	50	6063
2026-01-09 00:00:51.53	352.18	45.02	-38.9	-39.9	22.1	0.00e+00	91	32	0	955252736	50	6379
2026-01-09 00:00:55.57	351.50	43.88	-38.7	-39.8	22.4	0.00e+00	62	32	0	962592768	50	6265
2026-01-09 00:00:59.60	350.88	42.78	-40.0	-41.2	21.1	0.00e+00	7	32	0	969932800	52	6560
2026-01-09 00:01:03.64	350.29	41.71	-39.8	-41.0	21.3	0.00e+00	96	32	0	978321408	52	6402
2026-01-09 00:01:07.67	349.74	40.66	-39.7	-40.9	21.3	0.00e+00	92	32	0	985661440	52	6357
2026-01-09 00:01:11.71	349.23	39.64	-39.8	-40.9	21.3	0.00e+00	62	32	0	993001472	52	6387
2026-01-09 00:01:15.75	348.75	38.65	-39.0	-40.1	22.2	0.00e+00	61	32	0	1000341504	52	5792
2026-01-09 00:01:19.78	348.30	37.68	-38.6	-39.6	22.5	0.00e+00	90	32	0	1007681536	50	6167
2026-01-09 00:01:23.82	347.87	36.74	-38.6	-39.6	22.4	0.00e+00	92	33	0	1016070144	50	6150
2026-01-09 00:01:27.86	347.47	35.82	-38.9	-40.0	22.2	0.00e+00	0	33	0	1023410176	50	6423
2026-01-09 00:01:31.89	347.09	34.93	-39.6	-40.7	21.4	0.00e+00	0	32	0	1030750208	50	6997
2026-01-09 00:01:35.93	346.74	34.05	-39.3	-40.4	21.7	0.00e+00	91	33	0	1038090240	50	6747
2026-01-09 00:01:39.97	346.40	33.21	-39.5	-40.7	21.5	0.00e+00	62	32	0	1045430272	50	6955
2026-01-09 00:01:44.01	346.08	32.38	-39.7	-40.9	21.2	0.00e+00	20	32	0	1053818880	52	6372
2026-01-09 00:01:48.04	345.77	31.58	-40.6	-41.9	20.3	0.00e+00	36	33	0	1061158912	52	7161
2026-01-09 00:01:52.08	345.48	30.79	-40.5	-41.8	20.4	0.00e+00	92	33	0	1068498944	54	6300
2026-01-09 00:01:56.12	345.21	30.03	-40.4	-41.6	20.6	0.00e+00	0	32	0	1075838976	54	6173
2026-01-09 00:02:00.16	344.95	29.28	-39.5	-40.6	21.4	0.00e+00	61	32	0	1084227584	52	6159
2026-01-09 00:02:04.19	344.70	28.56	-39.6	-40.8	21.3	0.00e+00	92	33	0	1091567616	52	6248
2026-01-09 00:02:08.23	344.46	27.85	-39.2	-40.3	21.8	0.00e+00	12	32	0	1098907648	52	5938
2026-01-09 00:02:12.27	344.23	27.16	-38.6	-39.6	22.4	0.00e+00	0	33	0	1106247680	50	6137
2026-01-09 00:02:16.30	344.02	26.48	-38.3	-39.3	22.6	0.00e+00	58	32	0	1113587712	50	5948
2026-01-09 00:02:20.34	343.81	25.83	-38.4	-39.5	22.5	0.00e+00	92	33	0	1121976320	50	6035
2026-01-09 00:02:24.38	343.61	25.18	-38.2	-39.3	22.7	0.00e+00	6	32	0	1129316352	50	5903
2026-01-09 00:02:28.41	343.42	24.55	-38.0	-39.0	22.9	0.00e+00	25	33	0	1136656384	50	5749
2026-01-09 00:02:32.45	343.24	23.94	-37.4	-38.3	23.5	0.00e+00	6	32	0	1143996416	48	5940
2026-01-09 00:02:36.49	343.07	23.34	-37.3	-38.2	23.6	0.00e+00	91	32	0	1152385024	48	5839
2026-01-09 00:02:40.52	342.90	22.75	-37.4	-38.3	23.5	0.00e+00	0	32	0	1159725056	48	5921
2026-01-09 00:02:44.55	342.74	22.18	-37.6	-38.5	23.2	0.00e+00	27	33	0	1167065088	48	6087
2026-01-09 00:02:48.59	342.59	21.62	-37.7	-38.7	23.0	0.00e+00	5	32	0	1174405120	48	6179
2026-01-09 00:02:52.63	342.44	21.07	-38.0	-39.0	22.9	0.00e+00	92	32	0	1181745152	48	6414
2026-01-09 00:02:56.66	342.30	20.53	-38.3	-39.3	22.5	0.00e+00	6	32	0	1190133760	48	6625
2026-01-09 00:03:00.70	342.16	20.01	-38.5	-39.6	22.2	0.00e+00	0	32	0	1197473792	48	6872
2026-01-09 00:03:04.73	342.03	19.49	-38.9	-39.9	21.9	0.00e+00	47	32	0	1204813824	50	6389
2026-01-09 00:03:08.77	341.90	18.99	-39.0	-40.1	21.7	0.00e+00	90	32	0	1212153856	50	6539
2026-01-09 00:03:12.80	341.78	18.49	-38.9	-40.0	21.8	0.00e+00	23	32	0	1219493888	50	6443
2026-01-09 00:03:16.83	341.66	18.01	-38.7	-39.7	22.1	0.00e+00	0	32	0	1227882496	50	6227
2026-01-09 00:03:20.87	341.55	17.53	-38.8	-39.9	22.0	0.00e+00	0	32	0	1235222528	50	6346
2026-01-09 00:03:24.91	341.44	17.06	-39.0	-40.1	21.7	0.00e+00	92	32	0	1242562560	50	6504
2026-01-09 00:03:28.95	341.33	16.60	-39.1	-40.3	21.5	0.00e+00	26	33	0	1249902592	50	6655
2026-01-09 00:03:32.99	341.23	16.15	-39.5	-40.7	21.1	0.00e+00	2	32	0	1258291200	50	6974
2026-01-09 00:03:37.02	341.13	15.71	-39.3	-40.6	21.2	0.00e+00	79	32	0	1265631232	50	6851
2026-01-09 00:03:41.06	341.03	15.27	-39.4	-40.7	21.1	0.00e+00	52	33	0	1272971264	50	6934
2026-01-09 00:03:45.09	340.94	14.85	-39.6	-40.9	20.9	0.00e+00	0	33	0	1280311296	50	7095
2026-01-09 00:03:49.13	340.85	14.43	-39.4	-40.7	21.1	0.00e+00	49	32	0	1287651328	50	6941
2026-01-09 00:03:53.16	340.76	14.01	-39.5	-40.8	21.0	0.00e+00	92	32	0	1296039936	50	7025
2026-01-09 00:03:57.19	340.68	13.61	-39.2	-40.4	21.3	0.00e+00	0	32	0	1303379968	50	6723
2026-01-09 00:04:01.23	340.60	13.21	-39.3	-40.5	21.2	0.00e+00	0	32	0	1310720000	50	6827
2026-01-09 00:04:05.27	340.52	12.81	-39.1	-40.3	21.4	0.00e+00	0	32	0	1318060032	50	6639
2026-01-09 00:04:09.30	340.45	12.43	-39.2	-40.4	21.3	0.00e+00	92	32	0	1326448640	50	6733
2026-01-09 00:04:13.33	340.37	12.05	-39.1	-40.3	21.4	0.00e+00	49	32	0	1333788672	50	6634
2026-01-09 00:04:17.37	340.30	11.67	-39.1	-40.3	21.3	0.00e+00	35	33	0	1341128704	50	6670
2026-01-09 00:04:21.41	340.23	11.30	-39.4	-40.6	21.0	0.00e+00	29	33	0	1348468736	50	6880
2026-01-09 00:04:25.44	340.17	10.94	-39.3	-40.6	21.0	0.00e+00	92	32	0	1355808768	50	6872
2026-01-09 00:04:29.48	340.10	10.58	-39.6	-40.8	20.7	0.00e+00	5	33	0	1364197376	50	7075
2026-01-09 00:04:33.50	340.04	10.23	-39.7	-41.0	20.5	0.00e+00	5	33	0	1371537408	50	7220
2026-01-09 00:04:37.53	339.98	9.88	-40.0	-41.3	20.2	0.00e+00	33	33	0	1378877440	52	6682
2026-01-09 00:04:41.57	339.92	9.54	-40.0	-41.3	20.2	0.00e+00	92	33	0	1386217472	52	6692
2026-01-09 00:04:45.61	339.86	9.20	-40.2	-41.6	19.8	0.00e+00	39	33	0	1393557504	52	6915
2026-01-09 00:04:49.64	339.81	8.86	-40.0	-41.4	20.1	0.00e+00	0	33	0	1401946112	52	6745
2026-01-09 00:04:53.67	339.75	8.53	-40.2	-41.6	19.9	0.00e+00	0	33	0	1409286144	52	6881
2026-01-09 00:04:57.71	339.70	8.21	-40.1	-41.6	19.9	0.00e+00	92	33	0	1416626176	52	6852
2026-01-09 00:05:01.74	339.65	7.88	-40.2	-41.6	19.9	0.00e+00	29	33	0	1423966208	52	6888
2026-01-09 00:05:05.78	339.60	7.57	-40.1	-41.5	19.9	0.00e+00	0	33	0	1432354816	52	6797
2026-01-09 00:05:09.82	339.55	7.25	-40.3	-41.8	19.6	0.00e+00	0	33	0	1439694848	52	7017
2026-01-09 00:05:13.86	339.50	6.94	-40.3	-41.7	19.6	0.00e+00	91	33	0	1447034880	52	6986
2026-01-09 00:05:17.89	339.46	6.64	-40.1	-41.6	19.7	0.00e+00	47	33	0	1454374912	52	6869
2026-01-09 00:05:21.93	339.42	6.33	-40.0	-41.4	19.8	0.00e+00	49	33	0	1461714944	52	6742
2026-01-09 00:05:25.96	339.37	6.03	-40.3	-41.7	19.5	0.00e+00	0	32	0	1470103552	52	7000
2026-01-09 00:05:30.00	339.33	5.74	-40.2	-41.8	19.1	0.00e+00	92	33	0	1477443584	52	7056
2026-01-09 00:05:34.04	339.29	5.44	-40.6	-42.5	17.9	0.00e+00	0	33	0	1484783616	52	7599
2026-01-09 00:05:38.07	339.25	5.15	-41.4	-43.8	16.0	0.00e+00	0	33	0	1492123648	54	7927
2026-01-09 00:05:42.11	339.21	4.87	-42.4	-45.9	13.2	7.60e-06	2	33	0	1499463680	56	8992
2026-01-09 00:05:46.15	339.18	4.58	-42.9	-48.5	9.4	1.15e-02	0	33	0	1507852288	58	10763
2026-01-09 00:05:50.18	339.14	4.30	-43.2	-51.1	5.9	2.71e-01	40	33	0	1515192320	58	14481
2026-01-09 00:05:54.22	339.11	4.03	-43.2	-53.7	3.8	1.31e+00	0	33	0	1521483776	58	19694
2026-01-09 00:05:58.25	339.07	3.75	-43.1	-57.1	3.6	1.51e+00	0	33	104	1521483776	58	28908
2026-01-09 00:06:02.29	339.04	3.48	-43.1	-58.3	3.6	1.51e+00	0	33	104	1521483776	58	33170
2026-01-09 00:06:06.32	339.01	3.21	-43.0	-58.1	3.6	1.51e+00	0	33	104	1521483776	58	32541
2026-01-09 00:06:10.36	338.98	2.94	-47.0	-62.1	3.6	1.51e+00	0	33	104	1521483776	60	46205
2026-01-09 00:06:14.40	338.95	2.68	-48.2	-63.4	3.6	1.51e+00	0	33	104	1521483776	60	53628
2026-01-09 00:06:18.43	338.92	2.42	-48.3	-63.5	3.6	1.51e+00	0	33	104	1521483776	60	54297
2026-01-09 00:06:22.47	338.89	2.16	-48.2	-63.5	3.6	1.51e+00	0	33	104	1521483776	60	54037
2026-01-09 00:06:26.51	338.86	1.90	-48.3	-63.5	3.6	1.51e+00	0	33	104	1521483776	60	54068
2026-01-09 00:06:30.55	338.83	1.64	-48.3	-63.5	3.6	1.51e+00	0	33	104	1521483776	60	53793
2026-01-09 00:06:34.59	338.81	1.39	-48.2	-63.4	3.6	1.51e+00	0	33	104	1521483776	60	53738
2026-01-09 00:06:38.63	338.78	1.14	-48.2	-63.4	3.6	1.51e+00	0	33	104	1521483776	60	53771
2026-01-09 00:06:42.67	338.76	0.89	-48.2	-63.5	3.6	1.51e+00	0	33	104	1521483776	60	53808
2026-01-09 00:06:46.72	338.73	0.64	-48.2	-63.4	3.6	1.51e+00	0	33	104	1521483776	60	53546
2026-01-09 00:06:50.76	338.71	0.40	-48.2	-63.4	3.6	1.51e+00	0	33	104	1521483776	60	53621
2026-01-09 00:06:54.80	338.69	0.16	-48.2	-63.4	3.6	1.51e+00	0	33	104	1521483776	60	53389
2026-01-09 00:06:58.83	338.67	-0.08	-48.2	-63.4	3.5	1.51e+00	0	33	104	1521483776	60	53713

#Closed at: 2026-01-09 00:06:59
#Recorded file [1521 MB]: D:/lorett/data/35029_260109_115130.dat