passes_logs/2026/01/08/R4.6S_Anadyr/R4.6S_Anadyr__20260108_041616_FENGYUN_3E_rec.log

#Pass ID: 20260108_041616_FENGYUN 3E
#Satellite: FENGYUN 3E
#Configuration: FENGYUN 3E
#almurnet v.1.7.20251203
#Start time: 2026-01-08 04:16:17

#Version: 2.2.20231116
#Station: R4.6S_Anadyr
#Location: 177.4865 lon 64.73178 lat
#TLE: 1 49008U 21062A   26005.56299987  .00000339  00000+0  18069-3 0  9991
#TLE: 2 49008  98.7472  10.8019 0001562 158.0357 202.0886 14.19884907233502

#Time	Az	El	Level	Level2	SNR	BER	BlckErr	Temp	State	Recorded	gain1	gain2
2026-01-08 04:16:17.96	150.64	0.08	-48.9	-63.8	3.5	1.51e+00	0	34	0	0	60	56251
2026-01-08 04:16:22.00	150.63	0.32	-48.7	-60.0	3.6	8.45e-01	0	35	104	0	60	36107
2026-01-08 04:16:26.04	150.62	0.57	-48.8	-60.0	3.6	8.46e-01	0	35	104	0	60	36297
2026-01-08 04:16:30.08	150.61	0.82	-48.3	-59.6	3.6	8.46e-01	0	36	104	0	60	34661
2026-01-08 04:16:34.11	150.59	1.07	-47.3	-58.6	3.6	8.46e-01	0	36	104	0	60	30616
2026-01-08 04:16:38.15	150.58	1.32	-47.2	-58.4	3.6	8.45e-01	0	36	104	0	60	30183
2026-01-08 04:16:42.19	150.57	1.57	-47.2	-58.4	3.6	8.45e-01	0	36	104	0	60	29931
2026-01-08 04:16:46.23	150.55	1.83	-47.2	-58.3	3.6	8.45e-01	0	36	104	0	60	29756
2026-01-08 04:16:50.27	150.54	2.09	-47.1	-58.0	3.6	8.45e-01	0	36	104	0	60	28733
2026-01-08 04:16:54.31	150.52	2.35	-47.1	-57.9	3.6	8.46e-01	0	36	104	0	60	28444
2026-01-08 04:16:58.34	150.50	2.62	-47.1	-57.5	3.6	8.46e-01	0	36	104	0	60	26956
2026-01-08 04:17:02.38	150.49	2.88	-47.2	-58.1	3.6	8.45e-01	0	36	104	0	60	29199
2026-01-08 04:17:06.42	150.47	3.15	-44.8	-48.0	8.8	6.12e-02	0	36	0	8388608	60	9127
2026-01-08 04:17:10.46	150.45	3.42	-39.0	-40.1	17.6	0.00e+00	0	36	0	37748736	52	5769
2026-01-08 04:17:14.50	150.43	3.70	-36.0	-36.9	20.5	0.00e+00	0	36	0	67108864	46	5639
2026-01-08 04:17:18.54	150.42	3.97	-36.3	-37.2	18.9	0.00e+00	0	36	0	94371840	44	6587
2026-01-08 04:17:22.58	150.40	4.25	-37.1	-38.0	19.4	0.00e+00	0	36	0	121634816	48	5703
2026-01-08 04:17:26.61	150.38	4.54	-35.5	-36.2	21.3	0.00e+00	0	36	0	150994944	44	5893
2026-01-08 04:17:30.65	150.36	4.82	-34.4	-35.1	22.4	0.00e+00	0	36	0	180355072	42	5819
2026-01-08 04:17:34.69	150.33	5.11	-34.4	-35.1	22.4	0.00e+00	0	36	0	209715200	42	5817
2026-01-08 04:17:38.73	150.31	5.40	-34.1	-34.8	22.9	0.00e+00	0	36	0	238026752	42	5573
2026-01-08 04:17:42.77	150.29	5.70	-33.9	-34.6	23.1	0.00e+00	0	36	0	267386880	40	6125
2026-01-08 04:17:46.80	150.27	6.00	-33.8	-34.5	23.2	0.00e+00	0	36	0	296747008	40	6082
2026-01-08 04:17:50.85	150.24	6.30	-33.5	-34.2	23.5	0.00e+00	0	36	0	326107136	40	5879
2026-01-08 04:17:54.89	150.22	6.61	-33.7	-34.4	23.4	0.00e+00	0	36	0	355467264	40	5984
2026-01-08 04:17:58.92	150.19	6.92	-33.4	-34.1	23.7	0.00e+00	0	36	0	383778816	40	5789
2026-01-08 04:18:02.96	150.17	7.23	-33.5	-34.1	23.7	0.00e+00	0	36	0	413138944	40	5816
2026-01-08 04:18:06.99	150.14	7.55	-33.2	-33.9	24.0	0.00e+00	0	36	0	442499072	40	5638
2026-01-08 04:18:11.03	150.11	7.87	-33.0	-33.7	24.1	0.00e+00	0	36	0	471859200	40	5548
2026-01-08 04:18:15.07	150.08	8.19	-33.3	-34.0	23.8	0.00e+00	0	37	0	500170752	40	5716
2026-01-08 04:18:19.11	150.05	8.52	-32.9	-33.6	24.2	0.00e+00	0	36	0	529530880	38	6131
2026-01-08 04:18:23.14	150.02	8.85	-32.6	-33.3	24.6	0.00e+00	0	37	0	558891008	38	5919
2026-01-08 04:18:27.17	149.99	9.19	-32.6	-33.2	24.7	0.00e+00	0	37	0	588251136	38	5882
2026-01-08 04:18:31.21	149.95	9.54	-32.5	-33.2	24.8	0.00e+00	0	37	0	617611264	38	5838
2026-01-08 04:18:35.25	149.92	9.88	-32.4	-33.0	25.0	0.00e+00	0	37	0	645922816	38	5739
2026-01-08 04:18:39.29	149.89	10.24	-32.4	-33.1	24.9	0.00e+00	0	37	0	675282944	38	5791
2026-01-08 04:18:43.32	149.85	10.59	-32.1	-32.7	25.2	0.00e+00	0	37	0	704643072	38	5526
2026-01-08 04:18:47.37	149.81	10.96	-32.3	-32.9	25.1	0.00e+00	0	37	0	734003200	38	5673
2026-01-08 04:18:51.40	149.77	11.33	-31.9	-32.5	25.4	0.00e+00	0	37	0	763363328	36	6084
2026-01-08 04:18:55.44	149.73	11.70	-31.9	-32.6	25.4	0.00e+00	0	37	0	791674880	36	6126
2026-01-08 04:18:59.48	149.69	12.08	-31.8	-32.4	25.6	0.00e+00	0	37	0	821035008	36	6010
2026-01-08 04:19:03.52	149.65	12.47	-31.7	-32.3	25.7	0.00e+00	0	37	0	850395136	36	5911
2026-01-08 04:19:07.56	149.60	12.86	-31.6	-32.3	25.6	0.00e+00	0	37	0	879755264	36	5902
2026-01-08 04:19:11.60	149.56	13.26	-31.5	-32.1	25.8	0.00e+00	0	37	0	909115392	36	5810
2026-01-08 04:19:15.63	149.51	13.66	-31.7	-32.3	25.7	0.00e+00	0	37	0	938475520	36	5933
2026-01-08 04:19:19.67	149.46	14.07	-32.0	-32.7	25.4	0.00e+00	0	37	0	966787072	36	6178
2026-01-08 04:19:23.71	149.41	14.49	-31.2	-31.8	26.1	0.00e+00	0	37	0	996147200	36	5619
2026-01-08 04:19:27.74	149.35	14.92	-31.2	-31.9	26.1	0.00e+00	0	37	0	1025507328	36	5636
2026-01-08 04:19:31.78	149.30	15.35	-31.0	-31.7	26.3	0.00e+00	0	37	0	1054867456	36	5524
2026-01-08 04:19:35.83	149.24	15.80	-30.9	-31.5	26.4	0.00e+00	0	37	0	1083179008	36	5416
2026-01-08 04:19:39.87	149.18	16.25	-30.8	-31.5	26.4	0.00e+00	0	37	0	1112539136	36	5378
2026-01-08 04:19:43.90	149.12	16.70	-30.4	-31.1	26.8	0.00e+00	0	37	0	1141899264	34	5770
2026-01-08 04:19:47.94	149.06	17.17	-30.4	-31.0	26.9	0.00e+00	0	37	0	1171259392	34	5737
2026-01-08 04:19:51.97	148.99	17.65	-30.4	-31.0	26.9	0.00e+00	0	37	0	1199570944	34	5750
2026-01-08 04:19:56.01	148.92	18.13	-30.0	-30.6	27.2	0.00e+00	0	37	0	1228931072	34	5475
2026-01-08 04:20:00.05	148.85	18.63	-30.0	-30.6	27.2	0.00e+00	0	37	0	1258291200	34	5475
2026-01-08 04:20:04.09	148.78	19.13	-30.1	-30.7	27.1	0.00e+00	0	37	0	1287651328	34	5525
2026-01-08 04:20:08.13	148.70	19.65	-30.3	-30.9	27.0	0.00e+00	0	37	0	1317011456	34	5691
2026-01-08 04:20:12.17	148.62	20.18	-30.0	-30.6	27.3	0.00e+00	0	37	0	1346371584	34	5468
2026-01-08 04:20:16.21	148.53	20.71	-29.9	-30.5	27.3	0.00e+00	0	37	0	1374683136	34	5429
2026-01-08 04:20:20.25	148.45	21.26	-29.9	-30.6	27.2	0.00e+00	0	37	0	1404043264	34	5440
2026-01-08 04:20:24.28	148.36	21.82	-30.1	-30.7	27.1	0.00e+00	0	37	0	1433403392	34	5540
2026-01-08 04:20:28.32	148.26	22.40	-30.0	-30.6	27.4	0.00e+00	0	37	0	1462763520	34	5464
2026-01-08 04:20:32.36	148.16	22.99	-30.1	-30.7	27.3	0.00e+00	0	37	0	1492123648	34	5516
2026-01-08 04:20:36.40	148.06	23.59	-29.6	-30.2	27.7	0.00e+00	0	37	0	1520435200	32	5839
2026-01-08 04:20:40.44	147.95	24.20	-29.3	-29.9	27.8	0.00e+00	0	37	0	1549795328	32	5665
2026-01-08 04:20:44.47	147.84	24.83	-29.2	-29.8	28.0	0.00e+00	0	37	0	1579155456	32	5594
2026-01-08 04:20:48.51	147.72	25.48	-28.9	-29.5	28.2	0.00e+00	0	37	0	1608515584	32	5410
2026-01-08 04:20:52.54	147.60	26.14	-28.9	-29.4	28.2	0.00e+00	0	37	0	1637875712	30	6027
2026-01-08 04:20:56.58	147.47	26.82	-28.7	-29.3	28.4	0.00e+00	0	37	0	1667235840	30	5898
2026-01-08 04:21:00.62	147.33	27.51	-28.9	-29.5	28.2	0.00e+00	0	37	0	1695547392	30	6076
2026-01-08 04:21:04.66	147.19	28.22	-28.9	-29.5	28.2	0.00e+00	0	37	0	1724907520	30	6059
2026-01-08 04:21:08.70	147.04	28.95	-28.8	-29.4	28.3	0.00e+00	0	37	0	1754267648	30	5994
2026-01-08 04:21:12.73	146.89	29.70	-28.7	-29.3	28.5	0.00e+00	0	37	0	1783627776	30	5899
2026-01-08 04:21:16.77	146.72	30.47	-28.5	-29.1	28.4	0.00e+00	0	37	0	1811939328	30	5779
2026-01-08 04:21:20.81	146.55	31.27	-28.7	-29.3	28.4	0.00e+00	0	37	0	1841299456	30	5958
2026-01-08 04:21:24.84	146.36	32.08	-29.0	-29.6	28.0	0.00e+00	0	37	0	1870659584	30	6112
2026-01-08 04:21:28.88	146.17	32.91	-28.9	-29.5	28.3	0.00e+00	0	37	0	1900019712	30	6039
2026-01-08 04:21:32.92	145.97	33.77	-29.0	-29.6	28.2	0.00e+00	0	37	0	1928331264	30	6143
2026-01-08 04:21:36.96	145.75	34.65	-29.0	-29.6	28.3	0.00e+00	0	37	0	1957691392	30	6125
2026-01-08 04:21:40.99	145.52	35.56	-28.6	-29.2	28.5	0.00e+00	0	37	0	1987051520	30	5884
2026-01-08 04:21:45.03	145.28	36.49	-29.0	-29.6	28.1	0.00e+00	0	37	0	2016411648	30	6139
2026-01-08 04:21:49.07	145.02	37.46	-29.2	-29.8	28.0	0.00e+00	0	37	0	2045771776	30	6276
2026-01-08 04:21:53.10	144.74	38.44	-29.1	-29.7	28.1	0.00e+00	0	37	0	2074083328	30	6198
2026-01-08 04:21:57.14	144.45	39.46	-29.1	-29.7	28.2	0.00e+00	0	37	0	2103443456	30	6234
2026-01-08 04:22:01.18	144.13	40.51	-29.0	-29.5	28.2	0.00e+00	0	37	0	2132803584	30	6099
2026-01-08 04:22:05.22	143.80	41.58	-28.9	-29.4	28.3	0.00e+00	0	37	0	2162163712	30	6033
2026-01-08 04:22:09.26	143.43	42.69	-28.8	-29.4	28.3	0.00e+00	0	37	0	2191523840	30	5979
2026-01-08 04:22:13.30	143.05	43.83	-29.2	-29.8	28.1	0.00e+00	0	37	0	2220883968	30	6283
2026-01-08 04:22:17.34	142.63	45.01	-29.8	-30.4	27.7	0.00e+00	0	37	0	2249195520	32	6003
2026-01-08 04:22:21.38	142.18	46.22	-29.8	-30.4	27.7	0.00e+00	0	37	0	2278555648	32	5992
2026-01-08 04:22:25.42	141.69	47.46	-29.9	-30.5	27.7	0.00e+00	0	37	0	2307915776	32	6047
2026-01-08 04:22:29.45	141.15	48.73	-30.4	-31.0	27.1	0.00e+00	0	37	0	2337275904	32	6410
2026-01-08 04:22:33.49	140.58	50.04	-30.2	-30.8	27.2	0.00e+00	0	37	0	2366636032	34	5624
2026-01-08 04:22:37.53	139.94	51.39	-30.1	-30.7	27.1	0.00e+00	0	37	0	2394947584	34	5542
2026-01-08 04:22:41.57	139.24	52.77	-30.3	-30.9	27.1	0.00e+00	0	37	0	2424307712	34	5652
2026-01-08 04:22:45.61	138.48	54.19	-30.4	-31.1	26.9	0.00e+00	0	37	0	2453667840	34	5768
2026-01-08 04:22:49.65	137.63	55.64	-30.2	-30.8	27.3	0.00e+00	0	37	0	2483027968	34	5604
2026-01-08 04:22:53.69	136.69	57.12	-30.8	-31.4	26.8	0.00e+00	0	37	0	2512388096	34	5980
2026-01-08 04:22:57.73	135.63	58.64	-30.6	-31.2	27.0	0.00e+00	0	37	0	2541748224	34	5854
2026-01-08 04:23:01.77	134.44	60.18	-30.5	-31.1	27.1	0.00e+00	0	37	0	2570059776	34	5766
2026-01-08 04:23:05.81	133.10	61.75	-29.9	-30.5	27.5	0.00e+00	0	37	0	2599419904	34	5387
2026-01-08 04:23:09.85	131.58	63.34	-29.2	-29.8	27.9	0.00e+00	0	37	0	2628780032	32	5599
2026-01-08 04:23:13.89	129.83	64.94	-28.9	-29.5	28.2	0.00e+00	0	37	0	2658140160	32	5378
2026-01-08 04:23:17.93	127.81	66.56	-29.4	-30.0	28.0	0.00e+00	0	37	0	2687500288	30	6459
2026-01-08 04:23:21.96	125.46	68.17	-28.9	-29.4	28.3	0.00e+00	0	37	0	2715811840	30	6030
2026-01-08 04:23:26.00	122.70	69.77	-29.6	-30.2	27.7	0.00e+00	0	37	0	2745171968	30	6594
2026-01-08 04:23:30.04	119.43	71.35	-29.5	-30.1	27.7	0.00e+00	0	37	0	2774532096	32	5775
2026-01-08 04:23:34.08	115.52	72.88	-28.8	-29.4	28.3	0.00e+00	0	37	0	2802843648	32	5349
2026-01-08 04:23:38.12	110.81	74.34	-29.0	-29.6	27.8	0.00e+00	0	37	0	2832203776	30	6160
2026-01-08 04:23:42.15	105.15	75.69	-28.1	-28.7	28.6	0.00e+00	0	37	0	2861563904	30	5551
2026-01-08 04:23:46.19	98.32	76.89	-28.4	-29.0	28.6	0.00e+00	0	37	0	2890924032	30	5711
2026-01-08 04:23:50.23	90.21	77.88	-27.6	-28.1	29.1	0.00e+00	0	37	0	2920284160	28	5826
2026-01-08 04:23:54.27	80.83	78.60	-27.6	-28.2	29.3	0.00e+00	0	37	0	2949644288	28	5837
2026-01-08 04:23:58.31	70.48	78.99	-27.8	-28.4	28.8	0.00e+00	0	37	0	2977955840	28	5985
2026-01-08 04:24:02.34	59.77	79.00	-27.2	-27.8	29.3	0.00e+00	0	37	0	3007315968	28	5580
2026-01-08 04:24:06.38	49.36	78.64	-27.4	-28.0	29.2	0.00e+00	0	37	0	3036676096	28	5729
2026-01-08 04:24:10.42	39.90	77.95	-27.7	-28.3	28.6	0.00e+00	0	37	0	3066036224	28	5938
2026-01-08 04:24:14.46	31.68	76.98	-28.2	-28.8	28.6	0.00e+00	0	37	0	3095396352	28	6275
2026-01-08 04:24:18.50	24.76	75.79	-28.5	-29.1	28.7	0.00e+00	0	37	0	3123707904	28	6480
2026-01-08 04:24:22.53	19.02	74.46	-28.8	-29.4	28.3	0.00e+00	0	37	0	3153068032	30	6007
2026-01-08 04:24:26.56	14.26	73.01	-28.7	-29.3	28.2	0.00e+00	0	37	0	3182428160	30	5947
2026-01-08 04:24:30.60	10.29	71.48	-29.2	-29.9	27.9	0.00e+00	0	37	0	3211788288	30	6329
2026-01-08 04:24:34.64	6.98	69.91	-28.8	-29.4	28.3	0.00e+00	0	37	0	3241148416	30	5972
2026-01-08 04:24:38.68	4.18	68.31	-29.0	-29.6	28.2	0.00e+00	0	37	0	3269459968	30	6163
2026-01-08 04:24:42.71	1.80	66.70	-28.7	-29.3	28.0	0.00e+00	0	37	0	3298820096	30	5904
2026-01-08 04:24:46.75	359.76	65.09	-29.2	-29.8	27.9	0.00e+00	0	37	0	3328180224	30	6296
2026-01-08 04:24:50.79	357.99	63.49	-29.8	-30.4	27.5	0.00e+00	0	37	0	3357540352	30	6712
2026-01-08 04:24:54.82	356.46	61.90	-30.2	-30.8	27.2	0.00e+00	0	37	0	3385851904	32	6251
2026-01-08 04:24:58.86	355.10	60.34	-30.3	-30.9	27.1	0.00e+00	0	37	0	3415212032	32	6384
2026-01-08 04:25:02.90	353.91	58.79	-30.6	-31.2	27.0	0.00e+00	0	37	0	3444572160	32	6580
2026-01-08 04:25:06.94	352.84	57.28	-30.2	-30.8	27.3	0.00e+00	0	37	0	3473932288	34	5596
2026-01-08 04:25:10.98	351.89	55.80	-30.6	-31.2	26.8	0.00e+00	0	37	0	3503292416	34	5831
2026-01-08 04:25:15.02	351.04	54.35	-30.6	-31.2	27.0	0.00e+00	0	37	0	3531603968	34	5881
2026-01-08 04:25:19.06	350.26	52.93	-30.1	-30.7	27.1	0.00e+00	0	37	0	3560964096	34	5539
2026-01-08 04:25:23.10	349.56	51.55	-30.2	-30.8	26.9	0.00e+00	0	37	0	3590324224	34	5616
2026-01-08 04:25:27.14	348.93	50.21	-30.2	-30.9	27.0	0.00e+00	0	37	0	3619684352	34	5637
2026-01-08 04:25:31.17	348.34	48.90	-30.0	-30.6	27.4	0.00e+00	0	37	0	3649044480	34	5458
2026-01-08 04:25:35.21	347.81	47.62	-29.9	-30.5	27.3	0.00e+00	0	37	0	3677356032	34	5382
2026-01-08 04:25:39.25	347.32	46.38	-29.4	-30.0	27.5	0.00e+00	0	37	0	3706716160	32	5730
2026-01-08 04:25:43.28	346.86	45.18	-29.2	-29.8	27.7	0.00e+00	0	37	0	3736076288	32	5606
2026-01-08 04:25:47.32	346.44	44.00	-29.1	-29.7	28.0	0.00e+00	0	37	0	3765436416	32	5529
2026-01-08 04:25:51.36	346.05	42.86	-28.9	-29.5	27.7	0.00e+00	0	37	0	3794796544	32	5415
2026-01-08 04:25:55.39	345.69	41.75	-28.9	-29.5	27.4	0.00e+00	0	37	0	3824156672	32	5398
2026-01-08 04:25:59.43	345.36	40.68	-29.2	-29.8	27.6	0.00e+00	0	37	0	3852468224	32	5591
2026-01-08 04:26:03.47	345.04	39.63	-29.3	-29.9	27.9	0.00e+00	0	37	0	3881828352	32	5695
2026-01-08 04:26:07.51	344.75	38.61	-29.1	-29.7	28.0	0.00e+00	0	37	0	3911188480	32	5550
2026-01-08 04:26:11.55	344.47	37.62	-29.1	-29.7	28.0	0.00e+00	0	37	0	3940548608	32	5547
2026-01-08 04:26:15.59	344.21	36.66	-29.1	-29.7	27.9	0.00e+00	0	37	0	3969908736	32	5533
2026-01-08 04:26:19.63	343.97	35.73	-29.0	-29.6	28.2	0.00e+00	0	37	0	3998220288	32	5460
2026-01-08 04:26:23.67	343.74	34.82	-28.4	-29.0	28.6	0.00e+00	0	37	0	4027580416	30	5741
2026-01-08 04:26:27.71	343.52	33.94	-28.2	-28.8	28.8	0.00e+00	0	37	0	4056940544	30	5596
2026-01-08 04:26:31.75	343.32	33.08	-28.4	-29.0	28.6	0.00e+00	0	37	0	4086300672	30	5721
2026-01-08 04:26:35.79	343.12	32.24	-28.7	-29.3	28.4	0.00e+00	0	37	0	4115660800	30	5937
2026-01-08 04:26:39.83	342.94	31.43	-28.8	-29.3	28.3	0.00e+00	0	37	0	4145020928	30	5956
2026-01-08 04:26:43.86	342.77	30.64	-28.8	-29.4	28.2	0.00e+00	0	37	0	4173332480	30	5988
2026-01-08 04:26:47.90	342.60	29.87	-28.9	-29.5	28.1	0.00e+00	0	37	0	4202692608	30	6099
2026-01-08 04:26:51.93	342.45	29.12	-29.0	-29.6	28.0	0.00e+00	0	37	0	4232052736	30	6131
2026-01-08 04:26:55.97	342.30	28.39	-29.1	-29.7	28.0	0.00e+00	0	37	0	4260364288	30	6174
2026-01-08 04:27:00.01	342.16	27.68	-29.1	-29.7	28.0	0.00e+00	0	37	0	4289724416	30	6187
2026-01-08 04:27:04.04	342.02	26.99	-29.1	-29.7	28.1	0.00e+00	0	37	0	4319084544	30	6209
2026-01-08 04:27:08.09	341.89	26.31	-29.3	-29.9	27.8	0.00e+00	0	37	0	4348444672	30	6362
2026-01-08 04:27:12.12	341.77	25.65	-29.4	-30.0	27.6	0.00e+00	0	37	0	4377804800	30	6419
2026-01-08 04:27:16.16	341.66	25.00	-29.4	-30.1	27.7	0.00e+00	0	37	0	4406116352	30	6465
2026-01-08 04:27:20.20	341.54	24.37	-29.5	-30.1	27.6	0.00e+00	0	37	0	4435476480	30	6507
2026-01-08 04:27:24.24	341.44	23.76	-29.4	-30.0	27.7	0.00e+00	0	37	0	4464836608	30	6406
2026-01-08 04:27:28.28	341.34	23.15	-29.4	-30.0	27.6	0.00e+00	0	37	0	4494196736	30	6431
2026-01-08 04:27:32.32	341.24	22.57	-29.5	-30.1	27.6	0.00e+00	0	37	0	4523556864	30	6471
2026-01-08 04:27:36.36	341.15	21.99	-29.5	-30.1	27.7	0.00e+00	0	37	0	4551868416	32	5797
2026-01-08 04:27:40.40	341.06	21.43	-29.6	-30.2	27.6	0.00e+00	0	37	0	4581228544	32	5839
2026-01-08 04:27:44.44	340.97	20.88	-29.7	-30.3	27.5	0.00e+00	0	37	0	4610588672	32	5933
2026-01-08 04:27:48.47	340.89	20.34	-29.7	-30.3	27.4	0.00e+00	0	37	0	4639948800	32	5924
2026-01-08 04:27:52.52	340.81	19.82	-29.8	-30.4	27.2	0.00e+00	0	37	0	4669308928	32	5987
2026-01-08 04:27:56.56	340.74	19.30	-30.0	-30.6	27.2	0.00e+00	0	37	0	4698669056	32	6130
2026-01-08 04:28:00.59	340.66	18.80	-30.0	-30.6	27.2	0.00e+00	0	37	0	4726980608	32	6167
2026-01-08 04:28:04.63	340.59	18.30	-30.4	-31.0	26.9	0.00e+00	0	37	0	4756340736	32	6399
2026-01-08 04:28:08.67	340.53	17.82	-30.2	-30.8	27.0	0.00e+00	0	37	0	4785700864	32	6296
2026-01-08 04:28:12.70	340.46	17.34	-30.4	-31.1	26.8	0.00e+00	0	37	0	4815060992	32	6476
2026-01-08 04:28:16.74	340.40	16.87	-30.6	-31.2	26.7	0.00e+00	0	37	0	4844421120	32	6560
2026-01-08 04:28:20.78	340.34	16.41	-30.8	-31.4	26.5	0.00e+00	0	37	0	4872732672	34	6002
2026-01-08 04:28:24.82	340.29	15.96	-30.8	-31.4	26.5	0.00e+00	0	37	0	4902092800	34	6014
2026-01-08 04:28:28.86	340.23	15.52	-30.9	-31.5	26.3	0.00e+00	0	37	0	4931452928	34	6096
2026-01-08 04:28:32.89	340.18	15.09	-31.2	-31.8	26.1	0.00e+00	0	37	0	4960813056	34	6281
2026-01-08 04:28:36.93	340.13	14.66	-31.3	-31.9	26.0	0.00e+00	0	37	0	4990173184	34	6359
2026-01-08 04:28:40.97	340.08	14.24	-31.5	-32.2	25.3	0.00e+00	0	37	0	5018484736	34	6542
2026-01-08 04:28:45.01	340.03	13.83	-31.6	-32.2	25.6	0.00e+00	0	37	0	5047844864	34	6603
2026-01-08 04:28:49.04	339.99	13.43	-31.9	-32.6	25.5	0.00e+00	0	37	0	5077204992	36	6122
2026-01-08 04:28:53.08	339.94	13.03	-31.8	-32.4	25.6	0.00e+00	0	37	0	5106565120	36	6007
2026-01-08 04:28:57.12	339.90	12.64	-32.1	-32.7	25.3	0.00e+00	0	37	0	5134876672	36	6200
2026-01-08 04:29:01.16	339.86	12.25	-32.0	-32.7	25.3	0.00e+00	0	37	0	5164236800	36	6191
2026-01-08 04:29:05.20	339.82	11.87	-32.1	-32.7	25.3	0.00e+00	0	37	0	5193596928	36	6213
2026-01-08 04:29:09.23	339.78	11.50	-32.1	-32.8	25.2	0.00e+00	0	37	0	5222957056	36	6254
2026-01-08 04:29:13.27	339.75	11.13	-32.3	-32.9	24.9	0.00e+00	0	37	0	5252317184	36	6381
2026-01-08 04:29:17.31	339.71	10.77	-32.4	-33.1	24.9	0.00e+00	0	37	0	5280628736	36	6477
2026-01-08 04:29:21.35	339.68	10.41	-32.5	-33.1	24.9	0.00e+00	0	37	0	5309988864	36	6508
2026-01-08 04:29:25.39	339.64	10.06	-32.5	-33.2	24.7	0.00e+00	0	37	0	5339348992	36	6590
2026-01-08 04:29:29.42	339.61	9.71	-32.8	-33.5	24.4	0.00e+00	0	37	0	5368709120	38	6049
2026-01-08 04:29:33.46	339.58	9.37	-32.9	-33.6	24.2	0.00e+00	0	37	0	5398069248	38	6132
2026-01-08 04:29:37.50	339.55	9.03	-32.9	-33.5	24.5	0.00e+00	0	37	0	5426380800	38	6078
2026-01-08 04:29:41.54	339.53	8.69	-32.9	-33.5	24.3	0.00e+00	0	37	0	5455740928	38	6079
2026-01-08 04:29:45.58	339.50	8.36	-32.9	-33.6	24.3	0.00e+00	0	37	0	5485101056	38	6110
2026-01-08 04:29:49.62	339.47	8.04	-33.0	-33.6	24.2	0.00e+00	0	37	0	5514461184	38	6163
2026-01-08 04:29:53.66	339.45	7.72	-33.1	-33.8	24.0	0.00e+00	0	37	0	5543821312	38	6271
2026-01-08 04:29:57.70	339.42	7.40	-33.2	-33.9	23.8	0.00e+00	0	37	0	5573181440	38	6363
2026-01-08 04:30:01.73	339.40	7.09	-33.3	-34.0	23.8	0.00e+00	0	37	0	5601492992	38	6416
2026-01-08 04:30:05.77	339.38	6.78	-33.4	-34.0	23.7	0.00e+00	0	37	0	5630853120	38	6458
2026-01-08 04:30:09.82	339.36	6.47	-33.3	-34.0	23.6	0.00e+00	0	37	0	5660213248	38	6431
2026-01-08 04:30:13.85	339.34	6.17	-33.4	-34.1	23.6	0.00e+00	0	37	0	5689573376	38	6475
2026-01-08 04:30:17.88	339.32	5.87	-33.6	-34.3	23.1	0.00e+00	0	37	0	5718933504	38	6675
2026-01-08 04:30:21.92	339.30	5.58	-34.2	-35.0	22.3	0.00e+00	0	37	0	5747245056	40	6397
2026-01-08 04:30:25.96	339.28	5.29	-35.1	-35.9	20.9	0.00e+00	0	37	0	5776605184	42	6374
2026-01-08 04:30:29.99	339.26	5.00	-36.7	-37.7	18.4	0.00e+00	0	37	0	5805965312	44	6951
2026-01-08 04:30:34.03	339.24	4.71	-38.8	-40.2	15.4	0.00e+00	0	37	0	5835325440	48	7408
2026-01-08 04:30:38.07	339.23	4.43	-40.8	-43.3	11.0	8.41e-04	0	37	0	5863636992	54	7429
2026-01-08 04:30:42.10	339.21	4.15	-42.6	-47.1	6.0	2.24e-01	0	37	0	5892997120	56	10302
2026-01-08 04:30:46.14	339.20	3.87	-43.3	-51.7	3.7	8.38e-01	0	37	104	5899288576	58	15564
2026-01-08 04:30:50.18	339.18	3.60	-43.5	-53.9	3.6	8.45e-01	0	37	104	5899288576	58	19981
2026-01-08 04:30:54.22	339.17	3.33	-43.7	-54.6	3.6	8.45e-01	0	37	104	5899288576	60	19337
2026-01-08 04:30:58.26	339.15	3.06	-43.6	-54.8	3.6	8.44e-01	0	37	104	5899288576	60	19809
2026-01-08 04:31:02.29	339.14	2.79	-48.4	-59.6	3.6	8.46e-01	0	37	104	5899288576	60	34631
2026-01-08 04:31:06.33	339.13	2.53	-48.8	-60.0	3.6	8.46e-01	0	37	104	5899288576	60	36091
2026-01-08 04:31:10.36	339.12	2.27	-48.6	-60.0	3.6	8.45e-01	0	37	104	5899288576	60	36250
2026-01-08 04:31:14.40	339.11	2.01	-48.7	-59.9	3.6	8.46e-01	0	37	104	5899288576	60	35859
2026-01-08 04:31:18.44	339.10	1.75	-48.8	-60.0	3.6	8.45e-01	0	37	104	5899288576	60	36146
2026-01-08 04:31:22.48	339.09	1.50	-48.8	-60.0	3.6	8.46e-01	0	37	104	5899288576	60	36011
2026-01-08 04:31:26.52	339.08	1.25	-48.8	-59.9	3.6	8.44e-01	0	37	104	5899288576	60	35856
2026-01-08 04:31:30.56	339.07	1.00	-48.8	-60.0	3.6	8.45e-01	0	37	104	5899288576	60	35981
2026-01-08 04:31:34.60	339.06	0.75	-48.7	-60.0	3.6	8.45e-01	0	37	104	5899288576	60	36019
2026-01-08 04:31:38.64	339.05	0.50	-48.7	-59.9	3.6	8.45e-01	0	37	104	5899288576	60	35740
2026-01-08 04:31:42.68	339.04	0.26	-48.7	-59.9	3.6	8.44e-01	0	37	104	5899288576	60	35919
2026-01-08 04:31:46.72	339.03	0.02	-48.7	-59.9	3.6	8.45e-01	0	37	104	5899288576	60	35884

#Closed at: 2026-01-08 04:31:49
#Recorded file [5899 MB]: D:/lorett/data/35029_260108_161617.dat