passes_logs/2026/01/08/R4.6S_Anadyr/R4.6S_Anadyr__20260108_112528_NOAA_21_JPSS-2_rec.log

#Pass ID: 20260108_112528_NOAA 21 (JPSS-2)
#Satellite: NOAA 21 (JPSS-2)
#Configuration: NOAA-21
#almurnet v.1.7.20251203
#Start time: 2026-01-08 11:25:32

#Version: 2.2.20231116
#Station: R4.6S_Anadyr
#Location: 177.4865 lon 64.73178 lat
#TLE: 1 54234U 22150A   26007.89369592  .00000099  00000+0  67922-4 0  9991
#TLE: 2 54234  98.7493 308.8796 0000921 330.6018  29.5106 14.19533030163804

#Time	Az	El	Level	Level2	SNR	BER	BlckErr	Temp	State	Recorded	gain1	gain2
2026-01-08 11:25:32.75	21.43	0.15	-48.7	-50.1	3.4	0.00e+00	0	32	0	0	60	39194
2026-01-08 11:25:35.78	21.73	0.26	-48.6	-61.5	3.6	1.52e+00	0	34	104	0	60	41541
2026-01-08 11:25:38.81	22.03	0.37	-48.5	-61.3	3.5	1.52e+00	0	34	104	0	60	40863
2026-01-08 11:25:41.83	22.34	0.49	-48.3	-61.1	3.5	1.52e+00	0	34	104	0	60	39763
2026-01-08 11:25:44.86	22.65	0.60	-47.7	-60.6	3.5	1.52e+00	0	34	104	0	60	37427
2026-01-08 11:25:47.89	22.96	0.71	-47.0	-59.7	3.5	1.52e+00	0	34	104	0	60	34037
2026-01-08 11:25:50.92	23.27	0.83	-46.9	-59.8	3.5	1.52e+00	0	34	104	0	60	34154
2026-01-08 11:25:53.95	23.59	0.94	-47.0	-59.8	3.5	1.51e+00	0	34	104	0	60	34137
2026-01-08 11:25:56.98	23.91	1.05	-47.0	-59.8	3.5	1.52e+00	0	34	104	0	60	34264
2026-01-08 11:26:00.02	24.23	1.16	-46.9	-59.8	3.5	1.52e+00	0	34	104	0	60	34262
2026-01-08 11:26:03.04	24.55	1.27	-46.9	-59.7	3.5	1.52e+00	0	34	104	0	60	34080
2026-01-08 11:26:06.07	24.88	1.39	-46.9	-59.7	3.5	1.52e+00	0	34	104	0	60	33912
2026-01-08 11:26:09.10	25.20	1.50	-46.9	-59.8	3.5	1.52e+00	0	34	104	0	60	34118
2026-01-08 11:26:12.12	25.53	1.61	-46.9	-59.7	3.5	1.52e+00	0	34	104	0	60	34014
2026-01-08 11:26:15.15	25.86	1.72	-46.9	-59.7	3.5	1.52e+00	0	35	104	0	60	34072
2026-01-08 11:26:18.18	26.20	1.83	-46.9	-59.8	3.5	1.52e+00	0	35	104	0	60	34186
2026-01-08 11:26:21.21	26.54	1.94	-46.9	-59.7	3.5	1.52e+00	0	35	104	0	60	33852
2026-01-08 11:26:24.24	26.87	2.05	-46.9	-59.7	3.5	1.51e+00	0	35	104	0	60	33880
2026-01-08 11:26:27.27	27.22	2.16	-46.9	-59.7	3.5	1.51e+00	0	35	104	0	60	33951
2026-01-08 11:26:30.30	27.56	2.26	-46.9	-59.8	3.5	1.51e+00	0	35	104	0	60	34175
2026-01-08 11:26:33.33	27.91	2.37	-46.9	-59.6	3.5	1.52e+00	0	35	104	0	60	33616
2026-01-08 11:26:36.36	28.26	2.48	-46.9	-59.7	3.5	1.51e+00	0	35	104	0	60	33758
2026-01-08 11:26:39.38	28.61	2.59	-46.9	-59.6	3.5	1.52e+00	0	35	104	0	60	33476
2026-01-08 11:26:42.41	28.96	2.69	-46.9	-58.9	3.5	1.52e+00	0	35	104	0	60	30787
2026-01-08 11:26:45.44	29.32	2.80	-44.5	-48.5	10.8	4.03e-02	0	35	0	0	60	9336
2026-01-08 11:26:48.47	29.67	2.91	-39.5	-41.0	17.9	0.00e+00	0	35	0	9437184	52	6212
2026-01-08 11:26:51.51	30.04	3.01	-41.7	-43.8	15.0	0.00e+00	0	35	0	18874368	54	7669
2026-01-08 11:26:54.53	30.40	3.12	-42.9	-46.0	5.0	1.51e+00	0	35	104	23068672	60	6977
2026-01-08 11:26:57.56	30.77	3.22	-43.9	-47.4	5.0	1.48e+00	0	35	104	26214400	60	8274
2026-01-08 11:27:00.60	31.14	3.33	-38.4	-39.7	19.4	0.00e+00	0	35	0	31457280	50	6037
2026-01-08 11:27:03.62	31.51	3.43	-38.0	-39.3	19.7	0.00e+00	0	35	0	40894464	50	5758
2026-01-08 11:27:06.65	31.88	3.53	-38.2	-39.5	19.6	0.00e+00	0	35	0	50331648	50	5876
2026-01-08 11:27:09.68	32.26	3.64	-38.0	-39.3	19.7	0.00e+00	0	35	0	59768832	50	5755
2026-01-08 11:27:12.70	32.63	3.74	-37.7	-38.9	20.0	0.00e+00	0	35	0	69206016	48	6167
2026-01-08 11:27:15.73	33.01	3.84	-37.4	-38.6	20.4	0.00e+00	0	35	0	78643200	48	5968
2026-01-08 11:27:18.76	33.40	3.94	-37.4	-38.5	20.4	0.00e+00	0	35	0	88080384	48	5893
2026-01-08 11:27:21.79	33.78	4.04	-37.4	-38.6	20.4	0.00e+00	0	35	0	97517568	48	5952
2026-01-08 11:27:24.82	34.17	4.14	-37.4	-38.6	20.5	0.00e+00	0	35	0	106954752	48	5976
2026-01-08 11:27:27.84	34.56	4.24	-37.7	-38.9	20.2	0.00e+00	0	35	0	116391936	48	6197
2026-01-08 11:27:30.86	34.95	4.33	-37.5	-38.6	20.4	0.00e+00	0	35	0	125829120	48	5979
2026-01-08 11:27:33.89	35.35	4.43	-37.4	-38.6	20.5	0.00e+00	0	35	0	135266304	48	5948
2026-01-08 11:27:36.92	35.75	4.53	-37.3	-38.4	20.6	0.00e+00	0	35	0	144703488	48	5830
2026-01-08 11:27:39.94	36.15	4.62	-37.1	-38.3	20.8	0.00e+00	0	35	0	155189248	48	5732
2026-01-08 11:27:42.97	36.55	4.72	-37.2	-38.3	20.8	0.00e+00	0	35	0	164626432	48	5740
2026-01-08 11:27:46.00	36.96	4.81	-37.4	-38.6	20.5	0.00e+00	0	35	0	174063616	48	5932
2026-01-08 11:27:49.03	37.37	4.90	-37.2	-38.3	20.9	0.00e+00	0	35	0	183500800	48	5749
2026-01-08 11:27:52.05	37.78	4.99	-37.3	-38.4	20.7	0.00e+00	0	35	0	192937984	48	5843
2026-01-08 11:27:55.08	38.19	5.09	-37.1	-38.2	21.0	0.00e+00	0	35	0	202375168	48	5704
2026-01-08 11:27:58.10	38.61	5.17	-37.0	-38.1	21.1	0.00e+00	0	35	0	211812352	48	5649
2026-01-08 11:28:01.13	39.03	5.26	-36.9	-38.0	21.2	0.00e+00	0	35	0	221249536	48	5569
2026-01-08 11:28:04.16	39.45	5.35	-36.8	-37.9	21.2	0.00e+00	0	35	0	230686720	48	5494
2026-01-08 11:28:07.19	39.87	5.44	-37.0	-38.1	21.1	0.00e+00	0	35	0	240123904	46	6289
2026-01-08 11:28:10.22	40.30	5.53	-37.1	-38.2	21.0	0.00e+00	0	35	0	249561088	46	6393
2026-01-08 11:28:13.24	40.73	5.61	-36.9	-38.1	21.1	0.00e+00	0	35	0	258998272	46	6278
2026-01-08 11:28:16.27	41.16	5.70	-36.9	-38.0	21.2	0.00e+00	0	35	0	268435456	46	6240
2026-01-08 11:28:19.30	41.59	5.78	-37.0	-38.2	21.1	0.00e+00	0	35	0	277872640	46	6351
2026-01-08 11:28:22.33	42.03	5.86	-36.9	-38.1	21.2	0.00e+00	0	35	0	287309824	46	6288
2026-01-08 11:28:25.36	42.46	5.94	-36.9	-38.0	21.2	0.00e+00	0	35	0	296747008	46	6273
2026-01-08 11:28:28.38	42.90	6.02	-36.8	-37.9	21.4	0.00e+00	0	35	0	306184192	46	6158
2026-01-08 11:28:31.41	43.35	6.10	-36.8	-37.8	21.5	0.00e+00	0	35	0	315621376	46	6127
2026-01-08 11:28:34.44	43.79	6.18	-36.5	-37.5	21.6	0.00e+00	0	35	0	325058560	46	5904
2026-01-08 11:28:37.47	44.24	6.25	-36.5	-37.6	21.7	0.00e+00	0	35	0	334495744	46	5932
2026-01-08 11:28:40.50	44.69	6.33	-36.4	-37.5	21.8	0.00e+00	0	35	0	343932928	46	5865
2026-01-08 11:28:43.53	45.14	6.40	-36.6	-37.6	21.5	0.00e+00	0	35	0	353370112	46	5986
2026-01-08 11:28:46.55	45.59	6.47	-36.5	-37.6	21.7	0.00e+00	0	35	0	362807296	46	5945
2026-01-08 11:28:49.58	46.05	6.55	-36.5	-37.5	21.7	0.00e+00	0	35	0	372244480	46	5892
2026-01-08 11:28:52.61	46.51	6.62	-36.5	-37.6	21.6	0.00e+00	0	35	0	381681664	46	5963
2026-01-08 11:28:55.64	46.97	6.68	-36.3	-37.4	21.8	0.00e+00	0	35	0	391118848	46	5816
2026-01-08 11:28:58.67	47.43	6.75	-36.6	-37.6	21.7	0.00e+00	0	35	0	400556032	46	5977
2026-01-08 11:29:01.70	47.89	6.82	-36.3	-37.4	21.8	0.00e+00	0	35	0	409993216	46	5815
2026-01-08 11:29:04.73	48.36	6.88	-36.4	-37.5	21.8	0.00e+00	0	35	0	419430400	46	5873
2026-01-08 11:29:07.76	48.83	6.94	-36.5	-37.5	21.7	0.00e+00	0	35	0	428867584	46	5913
2026-01-08 11:29:10.79	49.30	7.01	-36.5	-37.6	21.7	0.00e+00	0	35	0	438304768	46	5969
2026-01-08 11:29:13.82	49.77	7.07	-36.4	-37.5	21.8	0.00e+00	0	35	0	447741952	46	5900
2026-01-08 11:29:16.85	50.25	7.12	-36.2	-37.2	22.0	0.00e+00	0	35	0	457179136	46	5698
2026-01-08 11:29:19.88	50.72	7.18	-36.2	-37.2	22.0	0.00e+00	0	35	0	466616320	46	5702
2026-01-08 11:29:22.91	51.20	7.24	-36.3	-37.4	21.9	0.00e+00	0	35	0	476053504	46	5792
2026-01-08 11:29:25.94	51.68	7.29	-36.5	-37.6	21.7	0.00e+00	0	35	0	485490688	46	5952
2026-01-08 11:29:28.96	52.16	7.34	-36.7	-37.7	21.5	0.00e+00	0	35	0	494927872	46	6063
2026-01-08 11:29:31.99	52.65	7.39	-36.6	-37.7	21.6	0.00e+00	0	35	0	504365056	46	6009
2026-01-08 11:29:35.02	53.13	7.44	-36.3	-37.4	21.9	0.00e+00	0	35	0	514850816	46	5815
2026-01-08 11:29:38.05	53.62	7.49	-36.2	-37.2	22.0	0.00e+00	0	35	0	523239424	46	5705
2026-01-08 11:29:41.08	54.10	7.53	-36.2	-37.2	22.0	0.00e+00	0	35	0	533725184	46	5724
2026-01-08 11:29:44.11	54.59	7.58	-36.4	-37.4	21.8	0.00e+00	0	35	0	543162368	46	5816
2026-01-08 11:29:47.13	55.08	7.62	-36.2	-37.3	21.9	0.00e+00	0	35	0	552599552	46	5737
2026-01-08 11:29:50.16	55.57	7.66	-36.5	-37.5	21.7	0.00e+00	0	35	0	562036736	46	5913
2026-01-08 11:29:53.18	56.07	7.70	-36.4	-37.4	21.9	0.00e+00	0	35	0	571473920	46	5857
2026-01-08 11:29:56.21	56.56	7.74	-36.1	-37.2	22.1	0.00e+00	0	35	0	580911104	46	5674
2026-01-08 11:29:59.24	57.06	7.77	-36.0	-37.0	22.2	0.00e+00	0	35	0	590348288	46	5581
2026-01-08 11:30:02.26	57.55	7.81	-36.1	-37.1	22.1	0.00e+00	0	35	0	599785472	46	5656
2026-01-08 11:30:05.29	58.05	7.84	-36.4	-37.4	21.9	0.00e+00	0	35	0	609222656	46	5836
2026-01-08 11:30:08.32	58.55	7.87	-36.2	-37.2	22.1	0.00e+00	0	35	0	618659840	46	5684
2026-01-08 11:30:11.35	59.05	7.90	-36.1	-37.2	22.1	0.00e+00	0	35	0	628097024	46	5672
2026-01-08 11:30:14.37	59.55	7.92	-36.4	-37.4	21.9	0.00e+00	0	35	0	637534208	46	5830
2026-01-08 11:30:17.40	60.05	7.95	-36.2	-37.3	22.0	0.00e+00	0	35	0	646971392	46	5752
2026-01-08 11:30:20.43	60.55	7.97	-36.2	-37.2	22.1	0.00e+00	0	35	0	656408576	46	5691
2026-01-08 11:30:23.45	61.06	7.99	-36.1	-37.1	22.1	0.00e+00	0	35	0	665845760	46	5638
2026-01-08 11:30:26.48	61.56	8.01	-36.1	-37.2	22.0	0.00e+00	0	35	0	675282944	46	5683
2026-01-08 11:30:29.51	62.07	8.03	-36.1	-37.1	22.1	0.00e+00	0	35	0	684720128	46	5651
2026-01-08 11:30:32.54	62.57	8.04	-36.1	-37.2	22.0	0.00e+00	0	35	0	694157312	46	5675
2026-01-08 11:30:35.56	63.08	8.05	-36.0	-37.1	22.2	0.00e+00	0	35	0	703594496	46	5599
2026-01-08 11:30:38.59	63.58	8.06	-36.1	-37.1	22.0	0.00e+00	0	35	0	713031680	46	5644
2026-01-08 11:30:41.62	64.09	8.07	-36.3	-37.3	21.9	0.00e+00	0	35	0	722468864	46	5786
2026-01-08 11:30:44.65	64.60	8.08	-36.1	-37.1	22.2	0.00e+00	0	35	0	731906048	46	5623
2026-01-08 11:30:47.67	65.10	8.09	-36.1	-37.1	22.0	0.00e+00	0	35	0	741343232	46	5638
2026-01-08 11:30:50.70	65.61	8.09	-36.2	-37.2	22.0	0.00e+00	0	35	0	750780416	46	5720
2026-01-08 11:30:53.73	66.12	8.09	-36.1	-37.1	22.1	0.00e+00	0	35	0	760217600	46	5624
2026-01-08 11:30:56.76	66.62	8.09	-35.9	-36.9	22.2	0.00e+00	0	35	0	769654784	46	5511
2026-01-08 11:30:59.79	67.13	8.09	-35.9	-36.9	22.3	0.00e+00	0	35	0	779091968	46	5523
2026-01-08 11:31:02.82	67.64	8.09	-35.9	-36.9	22.2	0.00e+00	0	35	0	788529152	46	5484
2026-01-08 11:31:05.85	68.15	8.08	-36.0	-37.1	22.2	0.00e+00	0	35	0	797966336	46	5602
2026-01-08 11:31:08.88	68.65	8.07	-35.8	-36.8	22.3	0.00e+00	0	35	0	807403520	46	5467
2026-01-08 11:31:11.90	69.16	8.06	-35.9	-36.9	22.3	0.00e+00	0	35	0	816840704	46	5499
2026-01-08 11:31:14.93	69.66	8.05	-35.7	-36.7	22.5	0.00e+00	0	35	0	826277888	46	5389
2026-01-08 11:31:17.96	70.17	8.04	-35.6	-36.6	22.5	0.00e+00	0	35	0	835715072	44	5957
2026-01-08 11:31:20.99	70.68	8.02	-35.8	-36.8	22.4	0.00e+00	0	35	0	845152256	44	6078
2026-01-08 11:31:24.02	71.18	8.00	-35.9	-36.9	22.3	0.00e+00	0	35	0	854589440	44	6150
2026-01-08 11:31:27.05	71.69	7.99	-35.7	-36.7	22.4	0.00e+00	0	35	0	864026624	44	6048
2026-01-08 11:31:30.08	72.19	7.96	-35.9	-36.9	22.3	0.00e+00	0	35	0	873463808	44	6149
2026-01-08 11:31:33.10	72.69	7.94	-36.1	-37.1	22.2	0.00e+00	0	35	0	882900992	44	6292
2026-01-08 11:31:36.13	73.19	7.92	-36.0	-37.0	22.2	0.00e+00	0	35	0	892338176	44	6253
2026-01-08 11:31:39.15	73.69	7.89	-35.9	-36.9	22.2	0.00e+00	0	35	0	901775360	44	6196
2026-01-08 11:31:42.17	74.19	7.86	-36.1	-37.2	22.0	0.00e+00	0	35	0	911212544	44	6379
2026-01-08 11:31:45.20	74.69	7.83	-36.4	-37.4	21.7	0.00e+00	0	35	0	920649728	44	6558
2026-01-08 11:31:48.23	75.19	7.80	-36.3	-37.4	21.8	0.00e+00	0	35	0	931135488	44	6536
2026-01-08 11:31:51.25	75.69	7.77	-36.2	-37.3	21.8	0.00e+00	0	35	0	939524096	44	6452
2026-01-08 11:31:54.28	76.18	7.73	-36.3	-37.4	21.8	0.00e+00	0	35	0	950009856	44	6521
2026-01-08 11:31:57.31	76.68	7.69	-36.5	-37.6	21.6	0.00e+00	0	35	0	958398464	44	6659
2026-01-08 11:32:00.34	77.17	7.65	-36.4	-37.5	21.7	0.00e+00	0	35	0	968884224	44	6583
2026-01-08 11:32:03.37	77.67	7.61	-36.5	-37.5	21.6	0.00e+00	0	35	0	978321408	44	6641
2026-01-08 11:32:06.40	78.16	7.57	-36.4	-37.5	21.6	0.00e+00	0	35	0	987758592	44	6597
2026-01-08 11:32:09.42	78.65	7.52	-36.3	-37.3	21.8	0.00e+00	0	35	0	997195776	44	6483
2026-01-08 11:32:12.45	79.14	7.48	-36.3	-37.4	21.7	0.00e+00	0	35	0	1006632960	44	6534
2026-01-08 11:32:15.48	79.62	7.43	-36.2	-37.3	21.7	0.00e+00	0	35	0	1016070144	44	6496
2026-01-08 11:32:18.51	80.11	7.38	-36.2	-37.3	21.8	0.00e+00	0	35	0	1025507328	44	6465
2026-01-08 11:32:21.54	80.59	7.33	-36.2	-37.3	21.8	0.00e+00	0	35	0	1034944512	44	6477
2026-01-08 11:32:24.57	81.08	7.28	-36.2	-37.3	21.8	0.00e+00	0	35	0	1044381696	44	6494
2026-01-08 11:32:27.60	81.56	7.22	-36.0	-37.1	22.0	0.00e+00	0	35	0	1053818880	44	6311
2026-01-08 11:32:30.62	82.03	7.17	-36.1	-37.2	21.9	0.00e+00	0	35	0	1063256064	44	6360
2026-01-08 11:32:33.65	82.51	7.11	-35.9	-37.0	22.1	0.00e+00	0	35	0	1072693248	44	6227
2026-01-08 11:32:36.68	82.99	7.05	-36.1	-37.2	22.0	0.00e+00	0	35	0	1082130432	44	6351
2026-01-08 11:32:39.71	83.46	6.99	-36.0	-37.1	22.0	0.00e+00	0	35	0	1091567616	44	6288
2026-01-08 11:32:42.74	83.93	6.93	-35.9	-37.0	22.2	0.00e+00	0	35	0	1101004800	44	6214
2026-01-08 11:32:45.76	84.40	6.86	-36.1	-37.2	22.1	0.00e+00	0	35	0	1110441984	44	6370
2026-01-08 11:32:48.80	84.87	6.80	-35.9	-37.0	22.1	0.00e+00	0	35	0	1119879168	44	6229
2026-01-08 11:32:51.83	85.33	6.73	-36.3	-37.3	21.8	0.00e+00	0	35	0	1129316352	44	6473
2026-01-08 11:32:54.85	85.80	6.67	-36.2	-37.2	21.8	0.00e+00	0	35	0	1138753536	44	6390
2026-01-08 11:32:57.87	86.26	6.60	-36.3	-37.3	21.7	0.00e+00	0	35	0	1148190720	44	6471
2026-01-08 11:33:00.90	86.72	6.53	-36.2	-37.3	21.8	0.00e+00	0	35	0	1157627904	44	6463
2026-01-08 11:33:03.93	87.17	6.45	-36.1	-37.1	21.9	0.00e+00	0	35	0	1167065088	44	6309
2026-01-08 11:33:06.96	87.63	6.38	-36.1	-37.2	21.9	0.00e+00	0	35	0	1176502272	44	6355
2026-01-08 11:33:09.99	88.08	6.31	-36.4	-37.5	21.5	0.00e+00	0	35	0	1185939456	44	6596
2026-01-08 11:33:13.02	88.53	6.23	-36.4	-37.5	21.5	0.00e+00	0	35	0	1195376640	44	6606
2026-01-08 11:33:16.04	88.98	6.15	-36.4	-37.5	21.4	0.00e+00	0	35	0	1204813824	44	6636
2026-01-08 11:33:19.07	89.43	6.08	-36.3	-37.4	21.5	0.00e+00	0	35	0	1214251008	44	6546
2026-01-08 11:33:22.10	89.87	6.00	-36.1	-37.2	21.8	0.00e+00	0	35	0	1223688192	44	6363
2026-01-08 11:33:25.13	90.31	5.92	-36.1	-37.2	21.8	0.00e+00	0	35	0	1233125376	44	6356
2026-01-08 11:33:28.16	90.75	5.83	-36.3	-37.4	21.6	0.00e+00	0	35	0	1242562560	44	6500
2026-01-08 11:33:31.19	91.19	5.75	-36.5	-37.6	21.5	0.00e+00	0	35	0	1251999744	44	6663
2026-01-08 11:33:34.22	91.62	5.67	-36.9	-38.1	21.0	0.00e+00	0	36	0	1261436928	46	6282
2026-01-08 11:33:37.24	92.05	5.58	-36.9	-38.1	21.1	0.00e+00	0	35	0	1270874112	46	6287
2026-01-08 11:33:40.27	92.48	5.50	-36.6	-37.7	21.3	0.00e+00	0	35	0	1280311296	46	6060
2026-01-08 11:33:43.29	92.91	5.41	-36.5	-37.6	21.5	0.00e+00	0	35	0	1289748480	46	5930
2026-01-08 11:33:46.33	93.33	5.32	-36.7	-37.8	21.3	0.00e+00	0	35	0	1299185664	46	6099
2026-01-08 11:33:49.36	93.76	5.23	-36.8	-38.0	21.1	0.00e+00	0	35	0	1308622848	46	6218
2026-01-08 11:33:52.38	94.18	5.14	-36.8	-38.0	21.0	0.00e+00	0	35	0	1319108608	46	6217
2026-01-08 11:33:55.41	94.59	5.05	-37.0	-38.3	20.7	0.00e+00	0	35	0	1327497216	46	6471
2026-01-08 11:33:58.44	95.01	4.96	-37.1	-38.3	20.7	0.00e+00	0	35	0	1337982976	46	6454
2026-01-08 11:34:01.47	95.42	4.86	-36.8	-38.0	21.0	0.00e+00	0	35	0	1347420160	46	6238
2026-01-08 11:34:04.50	95.83	4.77	-36.9	-38.0	20.9	0.00e+00	0	35	0	1356857344	46	6266
2026-01-08 11:34:07.53	96.24	4.68	-36.8	-38.0	21.0	0.00e+00	0	35	0	1366294528	46	6219
2026-01-08 11:34:10.56	96.64	4.58	-36.9	-38.1	20.9	0.00e+00	0	35	0	1375731712	46	6300
2026-01-08 11:34:13.58	97.04	4.48	-37.5	-38.7	20.3	0.00e+00	0	35	0	1385168896	46	6771
2026-01-08 11:34:16.61	97.44	4.39	-37.3	-38.5	20.5	0.00e+00	0	35	0	1394606080	46	6596
2026-01-08 11:34:19.64	97.84	4.29	-37.2	-38.4	20.4	0.00e+00	0	35	0	1404043264	46	6543
2026-01-08 11:34:22.66	98.23	4.19	-37.3	-38.5	20.3	0.00e+00	0	35	0	1413480448	46	6641
2026-01-08 11:34:25.69	98.63	4.09	-36.9	-38.3	20.4	0.00e+00	0	35	0	1422917632	46	6447
2026-01-08 11:34:28.72	99.02	3.99	-37.1	-38.4	20.2	0.00e+00	0	35	0	1432354816	46	6573
2026-01-08 11:34:31.75	99.40	3.89	-37.1	-38.4	20.3	0.00e+00	0	35	0	1441792000	46	6550
2026-01-08 11:34:34.78	99.79	3.79	-36.9	-38.2	20.3	0.00e+00	0	35	0	1451229184	46	6401
2026-01-08 11:34:37.81	100.17	3.69	-37.1	-38.3	20.1	0.00e+00	0	35	0	1460666368	46	6469
2026-01-08 11:34:40.84	100.55	3.58	-37.5	-38.8	19.8	0.00e+00	0	35	0	1470103552	46	6829
2026-01-08 11:34:43.87	100.93	3.48	-37.6	-38.8	20.0	0.00e+00	0	35	0	1479540736	46	6847
2026-01-08 11:34:46.90	101.30	3.38	-37.2	-38.7	19.9	0.00e+00	0	35	0	1488977920	46	6738
2026-01-08 11:34:49.93	101.67	3.27	-37.6	-39.0	19.6	0.00e+00	0	35	0	1498415104	46	6969
2026-01-08 11:34:52.96	102.04	3.17	-37.6	-38.9	19.6	0.00e+00	0	35	0	1507852288	46	6904
2026-01-08 11:34:55.99	102.41	3.06	-37.6	-38.9	19.6	0.00e+00	0	36	0	1517289472	46	6923
2026-01-08 11:34:59.02	102.77	2.95	-48.0	-60.8	3.5	1.52e+00	0	35	104	1521483776	60	38560
2026-01-08 11:35:02.06	103.13	2.85	-48.4	-61.2	3.5	1.52e+00	0	36	104	1521483776	60	40437
2026-01-08 11:35:05.08	103.49	2.74	-48.5	-61.3	3.5	1.52e+00	0	36	104	1521483776	60	40987
2026-01-08 11:35:08.12	103.85	2.63	-48.5	-61.4	3.5	1.52e+00	0	35	104	1521483776	60	41166
2026-01-08 11:35:11.15	104.20	2.52	-48.5	-61.3	3.5	1.52e+00	0	35	104	1521483776	60	40895
2026-01-08 11:35:14.17	104.56	2.42	-48.5	-61.3	3.5	1.52e+00	0	36	104	1521483776	60	40904
2026-01-08 11:35:17.20	104.90	2.31	-48.5	-61.3	3.5	1.52e+00	0	36	104	1521483776	60	40753
2026-01-08 11:35:20.23	105.25	2.20	-48.5	-61.3	3.5	1.52e+00	0	36	104	1521483776	60	40711
2026-01-08 11:35:23.26	105.60	2.09	-48.4	-61.3	3.5	1.52e+00	0	36	104	1521483776	60	40691
2026-01-08 11:35:26.29	105.94	1.98	-48.5	-61.3	3.5	1.52e+00	0	36	104	1521483776	60	40595
2026-01-08 11:35:29.31	106.28	1.87	-48.4	-61.3	3.5	1.52e+00	0	36	104	1521483776	60	40601
2026-01-08 11:35:32.32	106.61	1.76	-48.4	-61.3	3.5	1.52e+00	0	35	104	1521483776	60	40688
2026-01-08 11:35:35.35	106.95	1.64	-48.4	-61.3	3.5	1.52e+00	0	36	104	1521483776	60	40677
2026-01-08 11:35:38.38	107.28	1.53	-48.4	-61.3	3.5	1.52e+00	0	36	104	1521483776	60	40654
2026-01-08 11:35:41.41	107.61	1.42	-48.4	-61.2	3.5	1.52e+00	0	36	104	1521483776	60	40525
2026-01-08 11:35:44.43	107.93	1.31	-48.4	-61.3	3.5	1.52e+00	0	36	104	1521483776	60	40623
2026-01-08 11:35:47.46	108.26	1.20	-48.4	-61.3	3.5	1.52e+00	0	36	104	1521483776	60	40579
2026-01-08 11:35:50.50	108.58	1.08	-48.2	-61.3	3.5	1.52e+00	0	36	104	1521483776	60	40629
2026-01-08 11:35:53.53	108.90	0.97	-48.4	-61.3	3.5	1.52e+00	0	36	104	1521483776	60	40603
2026-01-08 11:35:56.55	109.22	0.86	-48.4	-61.2	3.5	1.52e+00	0	36	104	1521483776	60	40528
2026-01-08 11:35:59.57	109.54	0.74	-48.4	-61.2	3.5	1.52e+00	0	36	104	1521483776	60	40396
2026-01-08 11:36:02.60	109.85	0.63	-48.4	-61.3	3.5	1.52e+00	0	36	104	1521483776	60	40545
2026-01-08 11:36:05.64	110.16	0.51	-48.4	-61.3	3.5	1.52e+00	0	36	104	1521483776	60	40719
2026-01-08 11:36:08.66	110.47	0.40	-48.4	-61.3	3.5	1.52e+00	0	36	104	1521483776	60	40816
2026-01-08 11:36:11.69	110.78	0.29	-48.4	-61.2	3.5	1.52e+00	0	36	104	1521483776	60	40388
2026-01-08 11:36:14.72	111.08	0.17	-48.4	-61.3	3.5	1.52e+00	0	36	104	1521483776	60	40657
2026-01-08 11:36:17.75	111.38	0.06	-48.4	-61.2	3.5	1.52e+00	0	36	104	1521483776	60	40417

#Closed at: 2026-01-08 11:36:20
#Recorded file [1521 MB]: D:/lorett/data/35029_260108_232532.dat