passes_logs/2026/01/08/R4.6S_Anadyr/R4.6S_Anadyr__20260108_010025_NOAA_21_JPSS-2_rec.log

#Pass ID: 20260108_010025_NOAA 21 (JPSS-2)
#Satellite: NOAA 21 (JPSS-2)
#Configuration: NOAA-21
#almurnet v.1.7.20251203
#Start time: 2026-01-08 01:00:31

#Version: 2.2.20231116
#Station: R4.6S_Anadyr
#Location: 177.4865 lon 64.73178 lat
#TLE: 1 54234U 22150A   26005.42670836  .00000142  00000+0  88292-4 0  9996
#TLE: 2 54234  98.7490 306.4427 0001045 340.6622  19.4514 14.19532269163451

#Time	Az	El	Level	Level2	SNR	BER	BlckErr	Temp	State	Recorded	gain1	gain2
2026-01-08 01:00:31.68	176.36	0.36	-49.6	-51.2	5.7	0.00e+00	0	36	0	0	60	44329
2026-01-08 01:00:35.59	176.47	0.60	-49.5	-62.3	3.5	1.52e+00	0	37	104	0	60	45922
2026-01-08 01:00:39.50	176.58	0.83	-49.3	-62.2	3.5	1.51e+00	0	37	104	0	60	45469
2026-01-08 01:00:43.42	176.69	1.07	-48.9	-61.8	3.5	1.52e+00	0	38	104	0	60	43041
2026-01-08 01:00:47.32	176.80	1.31	-48.1	-60.9	3.5	1.52e+00	0	38	104	0	60	38867
2026-01-08 01:00:51.24	176.91	1.55	-48.1	-60.9	3.5	1.52e+00	0	38	104	0	60	39031
2026-01-08 01:00:55.14	177.03	1.79	-48.1	-60.8	3.5	1.52e+00	0	38	104	0	60	38626
2026-01-08 01:00:59.05	177.15	2.03	-48.1	-60.8	3.5	1.52e+00	0	38	104	0	60	38496
2026-01-08 01:01:02.97	177.27	2.28	-48.1	-60.8	3.5	1.52e+00	0	38	104	0	60	38443
2026-01-08 01:01:06.87	177.39	2.53	-48.0	-60.2	3.5	1.52e+00	0	38	104	0	60	35732
2026-01-08 01:01:10.77	177.51	2.78	-47.9	-59.2	3.5	1.51e+00	0	38	104	0	60	31833
2026-01-08 01:01:14.68	177.63	3.03	-47.2	-53.6	6.3	4.33e-01	0	38	0	0	60	16720
2026-01-08 01:01:18.59	177.76	3.29	-41.5	-43.1	17.1	0.00e+00	0	38	0	12582912	56	6347
2026-01-08 01:01:22.50	177.89	3.55	-38.5	-39.7	20.0	0.00e+00	0	38	0	24117248	50	6050
2026-01-08 01:01:26.41	178.02	3.81	-39.3	-40.5	19.7	0.00e+00	0	38	0	36700160	52	5903
2026-01-08 01:01:30.32	178.15	4.07	-44.7	-48.1	13.2	3.04e-01	0	38	104	44040192	60	8922
2026-01-08 01:01:34.22	178.29	4.33	-41.0	-42.5	17.6	0.00e+00	0	38	0	54525952	54	6623
2026-01-08 01:01:38.13	178.43	4.60	-40.4	-41.8	18.5	0.00e+00	0	38	0	66060288	54	6125
2026-01-08 01:01:42.05	178.57	4.87	-39.2	-40.4	19.6	0.00e+00	0	38	0	78643200	52	5846
2026-01-08 01:01:45.96	178.71	5.14	-37.9	-39.0	21.1	0.00e+00	0	38	0	91226112	50	5537
2026-01-08 01:01:49.86	178.85	5.42	-37.7	-38.7	21.3	0.00e+00	0	38	0	103809024	48	6063
2026-01-08 01:01:53.78	179.00	5.70	-37.6	-38.7	21.3	0.00e+00	0	38	0	115343360	48	6038
2026-01-08 01:01:57.69	179.15	5.98	-37.5	-38.6	21.5	0.00e+00	0	38	0	127926272	48	5960
2026-01-08 01:02:01.60	179.30	6.26	-37.7	-38.8	21.3	0.00e+00	0	38	0	140509184	48	6095
2026-01-08 01:02:05.51	179.46	6.55	-37.5	-38.5	21.6	0.00e+00	0	38	0	152043520	48	5914
2026-01-08 01:02:09.42	179.61	6.84	-37.2	-38.2	21.8	0.00e+00	0	38	0	164626432	48	5710
2026-01-08 01:02:13.32	179.78	7.13	-37.1	-38.2	21.9	0.00e+00	0	38	0	176160768	48	5663
2026-01-08 01:02:17.23	179.94	7.42	-36.9	-37.9	22.2	0.00e+00	0	38	0	188743680	48	5526
2026-01-08 01:02:21.14	180.11	7.72	-36.8	-37.8	22.3	0.00e+00	0	38	0	201326592	48	5466
2026-01-08 01:02:25.04	180.28	8.03	-36.7	-37.7	22.4	0.00e+00	0	38	0	212860928	46	6039
2026-01-08 01:02:28.95	180.45	8.33	-36.5	-37.5	22.5	0.00e+00	0	38	0	225443840	46	5914
2026-01-08 01:02:32.86	180.63	8.64	-36.4	-37.4	22.6	0.00e+00	0	38	0	238026752	46	5832
2026-01-08 01:02:36.77	180.81	8.96	-36.4	-37.4	22.8	0.00e+00	0	38	0	249561088	46	5814
2026-01-08 01:02:40.69	180.99	9.27	-36.3	-37.3	22.8	0.00e+00	0	38	0	262144000	46	5769
2026-01-08 01:02:44.61	181.18	9.60	-36.2	-37.2	22.8	0.00e+00	0	38	0	274726912	46	5680
2026-01-08 01:02:48.52	181.37	9.92	-36.0	-36.9	23.1	0.00e+00	0	38	0	286261248	46	5496
2026-01-08 01:02:52.43	181.57	10.25	-35.9	-36.8	23.2	0.00e+00	0	38	0	298844160	46	5444
2026-01-08 01:02:56.35	181.77	10.58	-35.7	-36.6	23.3	0.00e+00	0	38	0	311427072	44	5968
2026-01-08 01:03:00.26	181.97	10.92	-35.4	-36.3	23.6	0.00e+00	0	38	0	322961408	44	5769
2026-01-08 01:03:04.18	182.18	11.26	-35.3	-36.2	23.6	0.00e+00	0	39	0	335544320	44	5689
2026-01-08 01:03:08.09	182.39	11.61	-35.3	-36.3	23.6	0.00e+00	0	39	0	348127232	44	5726
2026-01-08 01:03:11.99	182.61	11.96	-35.2	-36.2	23.7	0.00e+00	0	39	0	359661568	44	5668
2026-01-08 01:03:15.89	182.83	12.32	-35.3	-36.2	23.6	0.00e+00	0	39	0	372244480	44	5707
2026-01-08 01:03:19.80	183.06	12.68	-35.2	-36.1	23.8	0.00e+00	0	38	0	384827392	44	5614
2026-01-08 01:03:23.71	183.29	13.04	-35.0	-36.0	23.9	0.00e+00	0	39	0	396361728	44	5533
2026-01-08 01:03:27.62	183.53	13.41	-35.0	-35.9	23.9	0.00e+00	0	38	0	408944640	44	5519
2026-01-08 01:03:31.54	183.78	13.79	-34.9	-35.8	24.1	0.00e+00	0	39	0	420478976	44	5456
2026-01-08 01:03:35.45	184.03	14.17	-34.9	-35.8	24.1	0.00e+00	0	39	0	433061888	44	5447
2026-01-08 01:03:39.36	184.28	14.56	-35.0	-35.9	24.0	0.00e+00	0	39	0	445644800	44	5489
2026-01-08 01:03:43.27	184.55	14.95	-35.0	-35.9	24.1	0.00e+00	0	39	0	457179136	44	5490
2026-01-08 01:03:47.17	184.82	15.35	-34.8	-35.7	24.3	0.00e+00	0	39	0	469762048	42	6027
2026-01-08 01:03:51.08	185.09	15.76	-34.7	-35.6	24.3	0.00e+00	0	39	0	482344960	42	5990
2026-01-08 01:03:54.99	185.38	16.17	-34.8	-35.7	24.3	0.00e+00	0	39	0	493879296	42	6037
2026-01-08 01:03:58.89	185.67	16.58	-34.9	-35.8	24.1	0.00e+00	0	39	0	506462208	42	6099
2026-01-08 01:04:02.80	185.97	17.01	-35.0	-35.9	24.1	0.00e+00	0	39	0	519045120	42	6192
2026-01-08 01:04:06.71	186.28	17.44	-35.0	-35.9	24.1	0.00e+00	0	39	0	530579456	42	6179
2026-01-08 01:04:10.62	186.59	17.88	-34.9	-35.8	24.1	0.00e+00	0	39	0	543162368	42	6097
2026-01-08 01:04:14.53	186.92	18.32	-35.0	-36.0	24.1	0.00e+00	0	39	0	555745280	42	6208
2026-01-08 01:04:18.44	187.25	18.77	-35.2	-36.1	24.0	0.00e+00	0	39	0	567279616	42	6345
2026-01-08 01:04:22.35	187.59	19.23	-35.1	-36.1	23.9	0.00e+00	0	39	0	579862528	42	6292
2026-01-08 01:04:26.26	187.95	19.70	-35.0	-35.9	24.0	0.00e+00	0	39	0	592445440	42	6179
2026-01-08 01:04:30.16	188.31	20.18	-34.9	-35.8	24.1	0.00e+00	0	39	0	603979776	42	6069
2026-01-08 01:04:34.07	188.69	20.66	-34.6	-35.5	24.3	0.00e+00	0	39	0	616562688	42	5893
2026-01-08 01:04:37.99	189.08	21.15	-34.4	-35.3	24.5	0.00e+00	0	39	0	629145600	42	5748
2026-01-08 01:04:41.90	189.47	21.65	-34.4	-35.3	24.5	0.00e+00	0	39	0	640679936	42	5784
2026-01-08 01:04:45.82	189.89	22.16	-33.9	-34.8	24.9	0.00e+00	0	39	0	653262848	42	5419
2026-01-08 01:04:49.73	190.31	22.68	-33.8	-34.6	25.0	0.00e+00	0	39	0	665845760	40	5992
2026-01-08 01:04:53.64	190.75	23.21	-33.7	-34.6	25.1	0.00e+00	0	39	0	677380096	40	5937
2026-01-08 01:04:57.55	191.21	23.74	-33.6	-34.5	25.2	0.00e+00	0	39	0	689963008	40	5877
2026-01-08 01:05:01.46	191.67	24.29	-33.5	-34.3	25.3	0.00e+00	0	39	0	702545920	40	5780
2026-01-08 01:05:05.37	192.16	24.84	-33.5	-34.3	25.3	0.00e+00	0	39	0	714080256	40	5766
2026-01-08 01:05:09.28	192.66	25.41	-33.6	-34.5	25.2	0.00e+00	0	39	0	726663168	40	5877
2026-01-08 01:05:13.19	193.18	25.98	-34.1	-35.0	25.0	0.00e+00	0	39	0	739246080	40	6212
2026-01-08 01:05:17.10	193.72	26.57	-34.2	-35.1	24.8	0.00e+00	0	39	0	750780416	40	6301
2026-01-08 01:05:21.01	194.28	27.16	-34.3	-35.2	24.9	0.00e+00	0	39	0	763363328	40	6365
2026-01-08 01:05:24.91	194.86	27.76	-34.6	-35.5	24.6	0.00e+00	0	39	0	774897664	40	6591
2026-01-08 01:05:28.82	195.46	28.38	-34.7	-35.6	24.3	0.00e+00	0	39	0	787480576	42	5933
2026-01-08 01:05:32.73	196.08	29.01	-34.7	-35.6	24.4	0.00e+00	0	39	0	800063488	42	5954
2026-01-08 01:05:36.65	196.73	29.64	-35.0	-35.9	24.2	0.00e+00	0	39	0	811597824	42	6142
2026-01-08 01:05:40.55	197.40	30.29	-35.1	-36.0	24.0	0.00e+00	0	39	0	824180736	42	6246
2026-01-08 01:05:44.46	198.10	30.95	-34.5	-35.4	24.5	0.00e+00	0	39	0	836763648	42	5843
2026-01-08 01:05:48.37	198.83	31.61	-34.8	-35.8	24.5	0.00e+00	0	39	0	848297984	42	6069
2026-01-08 01:05:52.28	199.59	32.29	-34.9	-35.8	24.5	0.00e+00	0	39	0	860880896	42	6086
2026-01-08 01:05:56.20	200.38	32.98	-34.7	-35.6	24.6	0.00e+00	0	39	0	873463808	42	5951
2026-01-08 01:06:00.11	201.21	33.68	-35.5	-36.4	24.0	0.00e+00	0	39	0	884998144	42	6565
2026-01-08 01:06:04.02	202.07	34.38	-35.7	-36.6	23.8	0.00e+00	0	39	0	897581056	44	5947
2026-01-08 01:06:07.93	202.96	35.10	-36.1	-37.0	23.5	0.00e+00	0	39	0	910163968	44	6240
2026-01-08 01:06:11.85	203.90	35.83	-36.5	-37.4	23.2	0.00e+00	0	39	0	921698304	44	6553
2026-01-08 01:06:15.75	204.88	36.56	-36.8	-37.8	22.8	0.00e+00	0	39	0	934281216	46	6100
2026-01-08 01:06:19.66	205.90	37.30	-36.6	-37.6	23.1	0.00e+00	0	39	0	946864128	46	5948
2026-01-08 01:06:23.58	206.98	38.04	-36.3	-37.2	23.3	0.00e+00	0	39	0	958398464	46	5707
2026-01-08 01:06:27.49	208.10	38.79	-36.7	-37.7	23.0	0.00e+00	0	39	0	970981376	46	6038
2026-01-08 01:06:31.39	209.26	39.54	-36.7	-37.6	23.0	0.00e+00	0	39	0	982515712	46	5988
2026-01-08 01:06:35.31	210.49	40.30	-37.1	-38.2	22.4	0.00e+00	0	39	0	995098624	46	6357
2026-01-08 01:06:39.22	211.78	41.06	-36.9	-38.0	22.7	0.00e+00	0	39	0	1007681536	46	6207
2026-01-08 01:06:43.13	213.12	41.82	-37.3	-38.3	22.3	0.00e+00	0	39	0	1019215872	46	6452
2026-01-08 01:06:47.04	214.53	42.57	-37.3	-38.3	22.5	0.00e+00	0	39	0	1031798784	46	6473
2026-01-08 01:06:50.96	216.01	43.33	-38.3	-39.3	21.5	0.00e+00	0	39	0	1044381696	48	6480
2026-01-08 01:06:54.86	217.55	44.07	-37.8	-38.8	21.8	0.00e+00	0	39	0	1056964608	48	6127
2026-01-08 01:06:58.78	219.17	44.80	-37.7	-38.7	22.0	0.00e+00	0	39	0	1068498944	48	6049
2026-01-08 01:07:02.68	220.85	45.52	-37.8	-38.9	21.8	0.00e+00	0	39	0	1081081856	48	6154
2026-01-08 01:07:06.59	222.62	46.23	-37.8	-38.9	21.8	0.00e+00	0	39	0	1092616192	48	6183
2026-01-08 01:07:10.50	224.47	46.92	-37.4	-38.4	22.3	0.00e+00	0	39	0	1105199104	48	5842
2026-01-08 01:07:14.40	226.39	47.58	-37.2	-38.2	22.5	0.00e+00	0	39	0	1117782016	48	5697
2026-01-08 01:07:18.32	228.40	48.22	-37.1	-38.1	22.7	0.00e+00	0	39	0	1129316352	48	5600
2026-01-08 01:07:22.22	230.49	48.83	-37.0	-38.0	22.7	0.00e+00	0	39	0	1141899264	48	5567
2026-01-08 01:07:26.13	232.66	49.40	-36.9	-37.9	22.8	0.00e+00	0	39	0	1154482176	46	6154
2026-01-08 01:07:30.03	234.90	49.94	-37.1	-38.1	22.4	0.00e+00	0	39	0	1166016512	46	6345
2026-01-08 01:07:33.95	237.23	50.44	-37.0	-38.0	22.6	0.00e+00	0	39	0	1178599424	46	6233
2026-01-08 01:07:37.86	239.63	50.89	-36.1	-37.1	23.4	0.00e+00	0	39	0	1191182336	46	5597
2026-01-08 01:07:41.77	242.10	51.29	-36.1	-37.0	23.6	0.00e+00	0	39	0	1202716672	46	5591
2026-01-08 01:07:45.68	244.63	51.63	-36.6	-37.6	23.0	0.00e+00	0	39	0	1215299584	46	5980
2026-01-08 01:07:49.59	247.22	51.93	-36.2	-37.2	23.0	0.00e+00	0	39	0	1227882496	46	5679
2026-01-08 01:07:53.50	249.85	52.16	-35.7	-36.6	23.2	0.00e+00	0	39	0	1239416832	44	5987
2026-01-08 01:07:57.41	252.51	52.33	-36.5	-37.5	23.0	0.00e+00	0	39	0	1251999744	44	6644
2026-01-08 01:08:01.32	255.20	52.44	-35.9	-36.8	23.7	0.00e+00	0	39	0	1264582656	44	6089
2026-01-08 01:08:05.23	257.91	52.48	-35.7	-36.6	23.7	0.00e+00	0	39	0	1276116992	44	5980
2026-01-08 01:08:09.13	260.60	52.46	-35.7	-36.6	23.9	0.00e+00	0	39	0	1288699904	44	5960
2026-01-08 01:08:13.05	263.31	52.37	-35.3	-36.3	23.8	0.00e+00	0	39	0	1301282816	44	5730
2026-01-08 01:08:16.96	265.98	52.23	-36.1	-37.1	23.5	0.00e+00	0	39	0	1312817152	44	6303
2026-01-08 01:08:20.87	268.62	52.01	-36.1	-37.0	23.2	0.00e+00	0	39	0	1325400064	44	6242
2026-01-08 01:08:24.78	271.22	51.74	-36.9	-37.9	22.7	0.00e+00	0	39	0	1336934400	46	6149
2026-01-08 01:08:28.68	273.76	51.42	-36.3	-37.3	23.5	0.00e+00	0	39	0	1349517312	46	5742
2026-01-08 01:08:32.60	276.26	51.04	-36.1	-37.1	23.1	0.00e+00	0	39	0	1362100224	46	5635
2026-01-08 01:08:36.51	278.68	50.60	-36.9	-37.9	22.7	0.00e+00	0	39	0	1373634560	46	6195
2026-01-08 01:08:40.42	281.03	50.12	-37.4	-38.5	21.5	0.00e+00	0	39	0	1386217472	46	6646
2026-01-08 01:08:44.33	283.30	49.60	-36.6	-37.6	23.0	0.00e+00	0	39	0	1398800384	46	5953
2026-01-08 01:08:48.24	285.50	49.04	-37.0	-38.0	22.4	0.00e+00	0	39	0	1410334720	46	6236
2026-01-08 01:08:52.15	287.61	48.45	-37.2	-38.2	22.5	0.00e+00	0	39	0	1422917632	46	6367
2026-01-08 01:08:56.05	289.64	47.82	-37.5	-38.5	21.8	0.00e+00	0	39	0	1435500544	46	6642
2026-01-08 01:08:59.97	291.60	47.17	-37.3	-38.4	22.5	0.00e+00	0	39	0	1447034880	46	6503
2026-01-08 01:09:03.88	293.47	46.49	-37.8	-38.8	21.8	0.00e+00	0	39	0	1459617792	46	6853
2026-01-08 01:09:07.78	295.25	45.79	-36.8	-37.8	23.0	0.00e+00	0	39	0	1472200704	46	6073
2026-01-08 01:09:11.68	296.96	45.08	-37.1	-38.2	22.2	0.00e+00	0	39	0	1483735040	46	6357
2026-01-08 01:09:15.58	298.60	44.36	-37.4	-38.5	22.1	0.00e+00	0	39	0	1496317952	46	6588
2026-01-08 01:09:19.49	300.16	43.62	-38.7	-39.8	21.2	0.00e+00	0	39	0	1507852288	48	6872
2026-01-08 01:09:23.40	301.66	42.88	-38.3	-39.3	21.7	0.00e+00	0	39	0	1520435200	50	5758
2026-01-08 01:09:27.31	303.09	42.13	-37.6	-38.7	22.1	0.00e+00	0	39	0	1533018112	48	6008
2026-01-08 01:09:31.22	304.45	41.37	-36.7	-37.6	23.0	0.00e+00	0	39	0	1544552448	48	5332
2026-01-08 01:09:35.13	305.76	40.62	-37.2	-38.2	22.6	0.00e+00	0	39	0	1557135360	46	6409
2026-01-08 01:09:39.04	307.00	39.87	-38.2	-39.3	21.7	0.00e+00	0	39	0	1569718272	48	6465
2026-01-08 01:09:42.95	308.19	39.11	-37.4	-38.4	22.1	0.00e+00	0	39	0	1581252608	48	5853
2026-01-08 01:09:46.86	309.32	38.37	-36.8	-37.8	23.0	0.00e+00	0	39	0	1593835520	48	5433
2026-01-08 01:09:50.77	310.41	37.62	-37.1	-38.2	22.5	0.00e+00	0	39	0	1606418432	46	6376
2026-01-08 01:09:54.68	311.45	36.89	-36.1	-37.0	23.5	0.00e+00	0	39	0	1617952768	46	5548
2026-01-08 01:09:58.59	312.44	36.16	-36.0	-37.0	23.0	0.00e+00	0	39	0	1630535680	44	6228
2026-01-08 01:10:02.50	313.39	35.43	-36.3	-37.3	23.2	0.00e+00	0	39	0	1643118592	44	6465
2026-01-08 01:10:06.42	314.31	34.72	-36.2	-37.2	23.3	0.00e+00	0	39	0	1654652928	44	6375
2026-01-08 01:10:10.33	315.18	34.01	-36.9	-37.9	22.8	0.00e+00	0	39	0	1667235840	46	6197
2026-01-08 01:10:14.24	316.01	33.31	-36.0	-36.9	23.5	0.00e+00	0	39	0	1679818752	46	5528
2026-01-08 01:10:18.15	316.82	32.62	-35.5	-36.4	23.9	0.00e+00	0	39	0	1691353088	44	5848
2026-01-08 01:10:22.05	317.58	31.95	-34.7	-35.6	24.5	0.00e+00	0	39	0	1703936000	42	5957
2026-01-08 01:10:25.96	318.32	31.28	-34.8	-35.7	24.3	0.00e+00	0	39	0	1716518912	42	6055
2026-01-08 01:10:29.87	319.03	30.62	-34.7	-35.6	24.5	0.00e+00	0	39	0	1728053248	42	5951
2026-01-08 01:10:33.77	319.72	29.98	-34.4	-35.3	24.7	0.00e+00	0	39	0	1740636160	42	5732
2026-01-08 01:10:37.68	320.37	29.34	-34.5	-35.4	24.7	0.00e+00	0	39	0	1752170496	42	5825
2026-01-08 01:10:41.59	321.00	28.71	-35.1	-36.0	24.2	0.00e+00	0	39	0	1764753408	42	6276
2026-01-08 01:10:45.50	321.61	28.10	-34.8	-35.7	24.5	0.00e+00	0	39	0	1777336320	42	6060
2026-01-08 01:10:49.40	322.20	27.49	-34.3	-35.2	24.8	0.00e+00	0	39	0	1789919232	42	5691
2026-01-08 01:10:53.31	322.77	26.90	-34.3	-35.2	24.9	0.00e+00	0	39	0	1801453568	42	5678
2026-01-08 01:10:57.22	323.31	26.31	-34.2	-35.1	25.0	0.00e+00	0	39	0	1814036480	42	5613
2026-01-08 01:11:01.13	323.84	25.74	-34.1	-34.9	24.9	0.00e+00	0	39	0	1825570816	42	5522
2026-01-08 01:11:05.04	324.35	25.17	-34.3	-35.2	24.7	0.00e+00	0	39	0	1838153728	42	5700
2026-01-08 01:11:08.96	324.84	24.61	-34.6	-35.4	24.7	0.00e+00	0	39	0	1850736640	42	5853
2026-01-08 01:11:12.87	325.32	24.07	-34.5	-35.4	24.7	0.00e+00	0	39	0	1862270976	42	5806
2026-01-08 01:11:16.78	325.78	23.53	-34.8	-35.7	24.3	0.00e+00	0	39	0	1874853888	42	6021
2026-01-08 01:11:20.69	326.22	23.00	-34.9	-35.8	24.1	0.00e+00	0	39	0	1887436800	42	6122
2026-01-08 01:11:24.60	326.65	22.49	-34.9	-35.8	24.2	0.00e+00	0	39	0	1898971136	42	6120
2026-01-08 01:11:28.51	327.07	21.98	-34.8	-35.7	24.2	0.00e+00	0	39	0	1911554048	42	6003
2026-01-08 01:11:32.42	327.48	21.48	-34.7	-35.6	24.3	0.00e+00	0	39	0	1924136960	42	5936
2026-01-08 01:11:36.32	327.87	20.98	-34.7	-35.6	24.5	0.00e+00	0	39	0	1935671296	42	5964
2026-01-08 01:11:40.23	328.25	20.50	-34.6	-35.5	24.6	0.00e+00	0	39	0	1948254208	42	5913
2026-01-08 01:11:44.15	328.62	20.02	-34.8	-35.7	24.4	0.00e+00	0	39	0	1960837120	42	6001
2026-01-08 01:11:48.06	328.98	19.55	-35.0	-35.9	24.2	0.00e+00	0	39	0	1972371456	42	6183
2026-01-08 01:11:51.96	329.33	19.09	-35.2	-36.2	23.9	0.00e+00	0	39	0	1984954368	42	6368
2026-01-08 01:11:55.86	329.67	18.64	-35.1	-36.0	24.0	0.00e+00	0	39	0	1997537280	42	6248
2026-01-08 01:11:59.77	330.00	18.20	-34.8	-35.8	23.9	0.00e+00	0	39	0	2009071616	42	6076
2026-01-08 01:12:03.68	330.32	17.76	-34.9	-35.8	23.9	0.00e+00	0	39	0	2021654528	42	6134
2026-01-08 01:12:07.59	330.63	17.33	-34.7	-35.6	24.4	0.00e+00	0	39	0	2033188864	42	5936
2026-01-08 01:12:11.49	330.93	16.90	-34.7	-35.6	24.4	0.00e+00	0	39	0	2045771776	42	5977
2026-01-08 01:12:15.40	331.23	16.48	-34.8	-35.6	24.4	0.00e+00	0	39	0	2058354688	42	5989
2026-01-08 01:12:19.31	331.52	16.07	-34.9	-35.7	24.3	0.00e+00	0	39	0	2069889024	42	6059
2026-01-08 01:12:23.22	331.80	15.67	-34.9	-35.8	24.2	0.00e+00	0	39	0	2082471936	42	6117
2026-01-08 01:12:27.13	332.07	15.27	-35.4	-36.3	23.8	0.00e+00	0	39	0	2095054848	42	6477
2026-01-08 01:12:31.03	332.34	14.87	-35.8	-36.7	23.6	0.00e+00	0	39	0	2106589184	44	6042
2026-01-08 01:12:34.94	332.60	14.49	-35.6	-36.6	23.6	0.00e+00	0	39	0	2119172096	44	5935
2026-01-08 01:12:38.84	332.86	14.10	-35.6	-36.5	23.5	0.00e+00	0	39	0	2131755008	44	5894
2026-01-08 01:12:42.75	333.11	13.73	-35.7	-36.6	23.4	0.00e+00	0	39	0	2143289344	44	5977
2026-01-08 01:12:46.66	333.35	13.36	-35.9	-36.8	23.2	0.00e+00	0	39	0	2155872256	44	6116
2026-01-08 01:12:50.57	333.59	12.99	-35.8	-36.8	23.2	0.00e+00	0	39	0	2168455168	44	6081
2026-01-08 01:12:54.48	333.82	12.63	-36.1	-37.1	23.0	0.00e+00	0	39	0	2179989504	44	6319
2026-01-08 01:12:58.39	334.05	12.27	-36.1	-37.1	22.9	0.00e+00	0	39	0	2192572416	44	6321
2026-01-08 01:13:02.29	334.27	11.92	-36.0	-37.0	23.0	0.00e+00	0	39	0	2205155328	44	6255
2026-01-08 01:13:06.19	334.49	11.58	-36.2	-37.1	22.8	0.00e+00	0	39	0	2216689664	44	6338
2026-01-08 01:13:10.10	334.70	11.23	-36.2	-37.2	22.8	0.00e+00	0	39	0	2229272576	44	6392
2026-01-08 01:13:14.01	334.91	10.90	-36.3	-37.3	22.7	0.00e+00	0	39	0	2240806912	44	6481
2026-01-08 01:13:17.92	335.11	10.56	-36.5	-37.5	22.6	0.00e+00	0	39	0	2253389824	44	6602
2026-01-08 01:13:21.83	335.31	10.23	-36.6	-37.6	22.5	0.00e+00	0	39	0	2265972736	44	6651
2026-01-08 01:13:25.74	335.51	9.91	-36.6	-37.6	22.6	0.00e+00	0	39	0	2277507072	44	6656
2026-01-08 01:13:29.64	335.70	9.59	-36.8	-37.8	22.3	0.00e+00	0	39	0	2290089984	44	6838
2026-01-08 01:13:33.56	335.89	9.27	-36.4	-37.4	22.6	0.00e+00	0	39	0	2302672896	46	5843
2026-01-08 01:13:37.47	336.07	8.95	-36.5	-37.5	22.5	0.00e+00	0	39	0	2314207232	46	5902
2026-01-08 01:13:41.39	336.25	8.64	-36.6	-37.6	22.4	0.00e+00	0	39	0	2326790144	46	5964
2026-01-08 01:13:45.30	336.43	8.34	-36.8	-37.8	22.3	0.00e+00	0	39	0	2339373056	46	6076
2026-01-08 01:13:49.21	336.61	8.03	-37.0	-38.0	22.1	0.00e+00	0	39	0	2350907392	46	6259
2026-01-08 01:13:53.12	336.78	7.74	-37.1	-38.2	21.9	0.00e+00	0	39	0	2363490304	46	6354
2026-01-08 01:13:57.03	336.95	7.44	-37.3	-38.3	21.8	0.00e+00	0	39	0	2376073216	46	6495
2026-01-08 01:14:00.94	337.11	7.15	-37.3	-38.4	21.7	0.00e+00	0	39	0	2387607552	46	6522
2026-01-08 01:14:04.85	337.27	6.86	-37.5	-38.5	21.6	0.00e+00	0	39	0	2400190464	46	6635
2026-01-08 01:14:08.75	337.43	6.57	-37.5	-38.5	21.5	0.00e+00	0	39	0	2412773376	46	6645
2026-01-08 01:14:12.66	337.59	6.29	-37.5	-38.6	21.4	0.00e+00	0	39	0	2424307712	46	6678
2026-01-08 01:14:16.58	337.74	6.00	-37.6	-38.7	21.1	0.00e+00	0	39	0	2436890624	46	6803
2026-01-08 01:14:20.49	337.89	5.73	-38.0	-39.2	20.5	0.00e+00	0	39	0	2448424960	48	6361
2026-01-08 01:14:24.40	338.04	5.45	-38.7	-39.9	19.6	0.00e+00	0	39	0	2461007872	48	6959
2026-01-08 01:14:28.31	338.19	5.18	-39.8	-41.4	17.7	0.00e+00	0	39	0	2473590784	52	6512
2026-01-08 01:14:32.21	338.33	4.91	-41.0	-43.0	15.4	0.00e+00	0	39	0	2485125120	54	7027
2026-01-08 01:14:36.12	338.48	4.64	-42.6	-45.7	12.0	1.72e-04	0	39	0	2497708032	56	8536
2026-01-08 01:14:40.04	338.62	4.38	-43.6	-48.3	8.2	3.78e-02	0	39	0	2510290944	58	10249
2026-01-08 01:14:43.94	338.75	4.12	-44.2	-52.7	4.8	1.13e+00	0	39	104	2517630976	60	15214
2026-01-08 01:14:47.85	338.89	3.86	-44.5	-55.1	3.8	1.49e+00	0	39	104	2517630976	60	19885
2026-01-08 01:14:51.77	339.02	3.60	-44.6	-56.3	3.5	1.51e+00	0	39	104	2517630976	60	23005
2026-01-08 01:14:55.68	339.15	3.34	-44.5	-57.0	3.5	1.52e+00	0	39	104	2517630976	60	24800
2026-01-08 01:14:59.60	339.28	3.09	-44.5	-57.3	3.5	1.51e+00	0	39	104	2517630976	60	25751
2026-01-08 01:15:03.51	339.41	2.84	-49.1	-61.9	3.5	1.52e+00	0	39	104	2517630976	60	43861
2026-01-08 01:15:07.42	339.54	2.59	-49.4	-62.2	3.5	1.52e+00	0	39	104	2517630976	60	45461
2026-01-08 01:15:11.33	339.66	2.34	-49.4	-62.3	3.5	1.52e+00	0	39	104	2517630976	60	45663
2026-01-08 01:15:15.24	339.78	2.10	-49.4	-62.2	3.5	1.52e+00	0	39	104	2517630976	60	45296
2026-01-08 01:15:19.15	339.90	1.86	-49.4	-62.2	3.5	1.52e+00	0	39	104	2517630976	60	45173
2026-01-08 01:15:23.05	340.02	1.62	-49.4	-62.2	3.5	1.52e+00	0	39	104	2517630976	60	45098
2026-01-08 01:15:26.95	340.14	1.38	-49.4	-62.2	3.5	1.52e+00	0	39	104	2517630976	60	45064
2026-01-08 01:15:30.87	340.25	1.14	-49.3	-62.2	3.5	1.52e+00	0	39	104	2517630976	60	45088
2026-01-08 01:15:34.78	340.37	0.91	-49.3	-62.2	3.5	1.52e+00	0	39	104	2517630976	60	45185
2026-01-08 01:15:38.70	340.48	0.67	-49.3	-62.2	3.5	1.52e+00	0	39	104	2517630976	60	45144
2026-01-08 01:15:42.62	340.59	0.44	-49.3	-62.2	3.5	1.52e+00	0	39	104	2517630976	60	45181
2026-01-08 01:15:46.53	340.70	0.21	-49.3	-62.2	3.6	1.51e+00	0	39	104	2517630976	60	45270
2026-01-08 01:15:50.45	340.81	-0.02	-49.3	-62.2	3.5	1.52e+00	0	39	104	2517630976	60	45307

#Closed at: 2026-01-08 01:15:50
#Recorded file [2517 MB]: D:/lorett/data/35029_260108_130031.dat