passes_logs/2026/01/08/R4.6S_Anadyr/R4.6S_Anadyr__20260108_031338_SUOMI_NPP_rec.log

#Pass ID: 20260108_031338_SUOMI NPP
#Satellite: SUOMI NPP
#Configuration: NPP
#almurnet v.1.7.20251203
#Start time: 2026-01-08 03:13:39

#Version: 2.2.20231116
#Station: R4.6S_Anadyr
#Location: 177.4865 lon 64.73178 lat
#TLE: 1 37849U 11061A   26004.95404768  .00000136  00000+0  85334-4 0  9991
#TLE: 2 37849  98.7801 307.0898 0002575  80.6707 279.4760 14.19522289735281

#Time	Az	El	Level	Level2	SNR	BER	BlckErr	Temp	State	Recorded	gain1	gain2
2026-01-08 03:13:39.81	235.22	0.06	-48.9	-60.6	3.5	8.47e-01	0	35	0	0	60	38605
2026-01-08 03:13:42.84	235.49	0.20	-48.9	-64.1	3.6	1.51e+00	0	36	104	0	60	58081
2026-01-08 03:13:45.87	235.77	0.33	-48.9	-64.2	3.6	1.51e+00	0	36	104	0	60	58393
2026-01-08 03:13:48.90	236.04	0.46	-49.0	-64.2	3.6	1.51e+00	0	36	104	0	60	58882
2026-01-08 03:13:51.93	236.32	0.59	-49.0	-64.2	3.6	1.51e+00	0	36	104	0	60	58769
2026-01-08 03:13:54.96	236.60	0.72	-48.3	-63.5	3.6	1.51e+00	0	36	104	0	60	54045
2026-01-08 03:13:57.99	236.88	0.86	-46.8	-61.9	3.6	1.51e+00	0	36	104	0	60	45114
2026-01-08 03:14:01.02	237.17	0.99	-46.8	-61.9	3.6	1.51e+00	0	36	104	0	60	45228
2026-01-08 03:14:04.05	237.45	1.12	-46.8	-61.9	3.6	1.51e+00	0	36	104	0	60	45003
2026-01-08 03:14:07.08	237.74	1.25	-46.8	-61.9	3.6	1.51e+00	0	36	104	0	60	44767
2026-01-08 03:14:10.11	238.04	1.38	-46.8	-61.9	3.6	1.51e+00	0	37	104	0	60	44791
2026-01-08 03:14:13.14	238.33	1.52	-46.8	-61.8	3.6	1.51e+00	0	37	104	0	60	44517
2026-01-08 03:14:16.17	238.63	1.65	-46.8	-61.9	3.6	1.51e+00	0	36	104	0	60	44833
2026-01-08 03:14:19.20	238.93	1.78	-46.8	-61.8	3.6	1.51e+00	0	37	104	0	60	44391
2026-01-08 03:14:22.23	239.23	1.91	-46.8	-61.8	3.6	1.51e+00	0	37	104	0	60	44467
2026-01-08 03:14:25.26	239.53	2.05	-46.8	-61.7	3.6	1.51e+00	0	37	104	0	60	44105
2026-01-08 03:14:28.29	239.84	2.18	-46.7	-61.5	3.6	1.51e+00	0	37	104	0	60	43067
2026-01-08 03:14:31.32	240.15	2.31	-46.7	-61.2	3.6	1.51e+00	0	37	104	0	60	41689
2026-01-08 03:14:34.35	240.46	2.44	-46.7	-60.6	3.6	1.51e+00	0	37	104	0	60	38557
2026-01-08 03:14:37.38	240.78	2.57	-46.6	-59.6	3.6	1.50e+00	0	37	104	0	60	34560
2026-01-08 03:14:40.41	241.10	2.71	-46.6	-58.5	3.8	1.45e+00	0	37	0	0	60	30483
2026-01-08 03:14:43.44	241.42	2.84	-46.5	-56.3	4.1	1.10e+00	8	37	0	2097152	60	23535
2026-01-08 03:14:46.46	241.74	2.97	-46.4	-55.6	4.4	8.39e-01	30	37	0	7340032	60	21743
2026-01-08 03:14:49.49	242.07	3.10	-46.4	-54.8	5.0	5.08e-01	91	37	0	13631488	60	19899
2026-01-08 03:14:52.52	242.40	3.23	-46.0	-52.0	7.9	4.02e-02	70	37	0	14680064	60	14417
2026-01-08 03:14:55.54	242.73	3.36	-45.9	-51.3	9.2	2.21e-02	0	37	0	20971520	60	13338
2026-01-08 03:14:58.57	243.06	3.49	-44.9	-48.9	12.1	2.75e-04	91	37	0	26214400	60	10126
2026-01-08 03:15:01.60	243.40	3.63	-44.5	-47.9	13.3	2.44e-05	92	37	0	32505856	60	8999
2026-01-08 03:15:04.63	243.74	3.76	-44.4	-47.7	13.6	1.22e-05	0	37	0	37748736	60	8732
2026-01-08 03:15:07.66	244.09	3.89	-44.2	-47.3	14.3	7.00e-07	92	37	0	42991616	60	8351
2026-01-08 03:15:10.69	244.43	4.02	-43.9	-46.7	14.8	7.00e-07	92	37	0	49283072	60	7821
2026-01-08 03:15:13.71	244.78	4.15	-43.5	-46.1	15.4	0.00e+00	22	37	0	54525952	60	7288
2026-01-08 03:15:16.74	245.13	4.28	-43.1	-45.5	16.3	0.00e+00	0	37	0	60817408	60	6782
2026-01-08 03:15:19.77	245.49	4.41	-42.8	-44.9	16.9	0.00e+00	92	37	0	66060288	60	6377
2026-01-08 03:15:22.80	245.85	4.54	-42.4	-44.4	17.3	0.00e+00	92	37	0	71303168	58	6736
2026-01-08 03:15:25.82	246.21	4.67	-42.0	-43.7	18.0	0.00e+00	0	37	0	77594624	58	6236
2026-01-08 03:15:28.86	246.57	4.79	-41.8	-43.5	18.4	0.00e+00	92	37	0	82837504	56	6807
2026-01-08 03:15:31.88	246.94	4.92	-41.4	-43.0	18.8	0.00e+00	92	37	0	89128960	56	6429
2026-01-08 03:15:34.90	247.31	5.05	-41.1	-42.5	19.3	0.00e+00	0	37	0	94371840	56	6085
2026-01-08 03:15:37.93	247.68	5.18	-40.3	-41.7	20.1	0.00e+00	90	37	0	100663296	54	6174
2026-01-08 03:15:40.96	248.06	5.31	-40.3	-41.7	20.2	0.00e+00	92	37	0	105906176	54	6174
2026-01-08 03:15:43.99	248.44	5.43	-39.9	-41.1	20.6	0.00e+00	0	37	0	111149056	54	5828
2026-01-08 03:15:47.02	248.83	5.56	-40.0	-41.2	20.6	0.00e+00	0	37	0	117440512	54	5877
2026-01-08 03:15:50.05	249.21	5.69	-39.9	-41.1	20.7	0.00e+00	80	37	0	122683392	52	6502
2026-01-08 03:15:53.08	249.60	5.81	-39.8	-41.0	20.9	0.00e+00	92	37	0	128974848	52	6437
2026-01-08 03:15:56.11	250.00	5.94	-39.8	-41.0	20.8	0.00e+00	0	37	0	134217728	52	6433
2026-01-08 03:15:59.13	250.39	6.06	-39.7	-40.9	21.0	0.00e+00	91	37	0	139460608	52	6327
2026-01-08 03:16:02.16	250.79	6.18	-39.8	-41.0	21.0	0.00e+00	90	37	0	145752064	52	6432
2026-01-08 03:16:05.19	251.19	6.31	-39.7	-40.9	20.8	0.00e+00	0	37	0	150994944	52	6345
2026-01-08 03:16:08.22	251.60	6.43	-39.6	-40.7	21.1	0.00e+00	78	37	0	157286400	52	6207
2026-01-08 03:16:11.25	252.01	6.55	-39.6	-40.8	21.2	0.00e+00	92	37	0	162529280	52	6287
2026-01-08 03:16:14.28	252.42	6.67	-39.8	-41.0	21.0	0.00e+00	74	37	0	168820736	52	6405
2026-01-08 03:16:17.30	252.84	6.79	-39.8	-40.9	21.0	0.00e+00	0	37	0	174063616	52	6385
2026-01-08 03:16:20.33	253.26	6.92	-39.8	-41.0	21.0	0.00e+00	91	37	0	179306496	52	6418
2026-01-08 03:16:23.35	253.68	7.03	-39.5	-40.6	21.3	0.00e+00	92	37	0	185597952	52	6164
2026-01-08 03:16:26.38	254.10	7.15	-39.5	-40.7	21.2	0.00e+00	0	37	0	190840832	52	6186
2026-01-08 03:16:29.41	254.53	7.27	-39.7	-40.8	21.1	0.00e+00	91	37	0	197132288	52	6302
2026-01-08 03:16:32.43	254.96	7.39	-39.7	-40.9	21.2	0.00e+00	92	37	0	202375168	52	6363
2026-01-08 03:16:35.46	255.40	7.50	-39.7	-40.8	21.2	0.00e+00	0	37	0	207618048	52	6308
2026-01-08 03:16:38.49	255.84	7.62	-39.7	-40.9	21.2	0.00e+00	92	37	0	213909504	52	6335
2026-01-08 03:16:41.52	256.28	7.73	-39.9	-41.0	21.0	0.00e+00	92	37	0	219152384	52	6459
2026-01-08 03:16:44.55	256.73	7.85	-39.8	-41.0	21.1	0.00e+00	21	37	0	225443840	52	6445
2026-01-08 03:16:47.57	257.18	7.96	-39.7	-40.8	21.3	0.00e+00	0	37	0	230686720	52	6290
2026-01-08 03:16:50.60	257.63	8.07	-39.7	-40.9	21.1	0.00e+00	92	37	0	235929600	52	6345
2026-01-08 03:16:53.63	258.09	8.18	-40.1	-41.4	20.7	0.00e+00	92	37	0	242221056	52	6700
2026-01-08 03:16:56.66	258.55	8.29	-40.4	-41.7	20.4	0.00e+00	0	37	0	247463936	52	6979
2026-01-08 03:16:59.69	259.01	8.40	-40.3	-41.5	20.6	0.00e+00	92	37	0	253755392	52	6818
2026-01-08 03:17:02.71	259.47	8.50	-40.2	-41.4	20.8	0.00e+00	64	37	0	258998272	52	6716
2026-01-08 03:17:05.74	259.94	8.61	-39.8	-41.0	21.1	0.00e+00	0	37	0	265289728	52	6429
2026-01-08 03:17:08.76	260.41	8.71	-40.0	-41.2	20.6	0.00e+00	0	37	0	270532608	52	6562
2026-01-08 03:17:11.79	260.89	8.82	-40.3	-41.5	20.7	0.00e+00	92	37	0	275775488	52	6835
2026-01-08 03:17:14.82	261.37	8.92	-40.6	-41.9	20.3	0.00e+00	74	37	0	282066944	52	7125
2026-01-08 03:17:17.85	261.85	9.02	-40.6	-41.9	20.4	0.00e+00	0	37	0	287309824	52	7148
2026-01-08 03:17:20.88	262.34	9.12	-40.7	-42.0	20.3	0.00e+00	92	37	0	293601280	54	6401
2026-01-08 03:17:23.91	262.83	9.22	-40.8	-42.2	20.1	0.00e+00	92	37	0	298844160	54	6548
2026-01-08 03:17:26.94	263.32	9.31	-40.2	-41.4	20.6	0.00e+00	0	37	0	304087040	54	6008
2026-01-08 03:17:29.97	263.81	9.41	-40.2	-41.4	20.8	0.00e+00	92	37	0	310378496	54	6025
2026-01-08 03:17:33.00	264.31	9.50	-39.9	-41.1	21.0	0.00e+00	92	37	0	315621376	52	6479
2026-01-08 03:17:36.03	264.81	9.59	-40.3	-41.5	20.9	0.00e+00	0	37	0	321912832	54	6068
2026-01-08 03:17:39.06	265.32	9.69	-40.2	-41.5	20.7	0.00e+00	0	37	0	327155712	54	6057
2026-01-08 03:17:42.09	265.82	9.77	-40.3	-41.5	20.7	0.00e+00	92	37	0	333447168	54	6100
2026-01-08 03:17:45.12	266.33	9.86	-39.5	-40.6	21.4	0.00e+00	92	37	0	338690048	52	6162
2026-01-08 03:17:48.15	266.85	9.95	-39.4	-40.5	21.6	0.00e+00	22	37	0	343932928	52	6048
2026-01-08 03:17:51.17	267.36	10.03	-40.0	-41.2	21.0	0.00e+00	92	37	0	350224384	52	6561
2026-01-08 03:17:54.20	267.88	10.11	-40.2	-41.4	20.9	0.00e+00	87	37	0	355467264	52	6724
2026-01-08 03:17:57.23	268.40	10.19	-39.9	-41.0	21.1	0.00e+00	0	37	0	361758720	52	6446
2026-01-08 03:18:00.26	268.92	10.27	-39.9	-41.1	20.8	0.00e+00	91	37	0	367001600	52	6480
2026-01-08 03:18:03.28	269.45	10.35	-39.7	-40.8	21.3	0.00e+00	92	37	0	372244480	52	6284
2026-01-08 03:18:06.31	269.98	10.42	-39.8	-41.0	21.2	0.00e+00	0	37	0	378535936	52	6406
2026-01-08 03:18:09.34	270.51	10.49	-39.4	-40.5	21.6	0.00e+00	0	37	0	383778816	52	6082
2026-01-08 03:18:12.37	271.05	10.56	-39.6	-40.7	21.3	0.00e+00	92	37	0	390070272	52	6232
2026-01-08 03:18:15.40	271.58	10.63	-40.3	-41.5	20.7	0.00e+00	92	37	0	395313152	52	6846
2026-01-08 03:18:18.43	272.12	10.70	-40.1	-41.3	20.9	0.00e+00	0	37	0	401604608	52	6617
2026-01-08 03:18:21.46	272.66	10.76	-39.4	-40.5	21.7	0.00e+00	90	37	0	406847488	52	6086
2026-01-08 03:18:24.49	273.21	10.83	-39.8	-40.9	21.2	0.00e+00	29	37	0	412090368	52	6364
2026-01-08 03:18:27.52	273.75	10.89	-39.6	-40.8	21.5	0.00e+00	0	37	0	418381824	52	6246
2026-01-08 03:18:30.55	274.30	10.94	-38.8	-39.8	22.2	0.00e+00	0	37	0	423624704	52	5594
2026-01-08 03:18:33.58	274.85	11.00	-38.8	-39.8	22.1	0.00e+00	91	37	0	429916160	50	6262
2026-01-08 03:18:36.61	275.40	11.05	-39.6	-40.7	21.3	0.00e+00	24	37	0	435159040	50	6973
2026-01-08 03:18:39.64	275.96	11.11	-39.5	-40.6	21.5	0.00e+00	0	37	0	440401920	52	6144
2026-01-08 03:18:42.66	276.51	11.15	-39.5	-40.7	21.5	0.00e+00	57	37	0	446693376	52	6176
2026-01-08 03:18:45.69	277.07	11.20	-40.7	-41.9	20.3	0.00e+00	92	37	0	451936256	52	7169
2026-01-08 03:18:48.72	277.63	11.25	-40.4	-41.6	20.7	0.00e+00	0	37	0	458227712	54	6150
2026-01-08 03:18:51.75	278.19	11.29	-39.5	-40.5	21.6	0.00e+00	92	37	0	463470592	52	6099
2026-01-08 03:18:54.77	278.75	11.33	-40.1	-41.3	20.9	0.00e+00	92	37	0	468713472	52	6658
2026-01-08 03:18:57.80	279.31	11.36	-40.6	-41.8	20.5	0.00e+00	0	37	0	475004928	52	7082
2026-01-08 03:19:00.83	279.88	11.40	-40.3	-41.5	20.6	0.00e+00	0	37	0	480247808	52	6848
2026-01-08 03:19:03.86	280.45	11.43	-41.2	-42.7	19.6	0.00e+00	56	37	0	486539264	54	6930
2026-01-08 03:19:06.89	281.01	11.46	-42.1	-43.7	18.9	0.00e+00	92	37	0	491782144	56	6955
2026-01-08 03:19:09.92	281.58	11.49	-41.0	-42.3	20.2	0.00e+00	0	37	0	498073600	56	5936
2026-01-08 03:19:12.95	282.15	11.52	-40.3	-41.5	20.6	0.00e+00	92	38	0	503316480	54	6100
2026-01-08 03:19:15.98	282.72	11.54	-40.3	-41.5	20.7	0.00e+00	92	37	0	508559360	54	6079
2026-01-08 03:19:19.00	283.29	11.56	-39.8	-41.0	21.2	0.00e+00	0	37	0	514850816	54	5709
2026-01-08 03:19:22.03	283.86	11.58	-39.5	-40.6	21.6	0.00e+00	29	37	0	520093696	52	6118
2026-01-08 03:19:25.06	284.43	11.59	-39.4	-40.6	21.6	0.00e+00	82	37	0	526385152	52	6106
2026-01-08 03:19:28.09	285.01	11.60	-39.1	-40.2	21.8	0.00e+00	23	37	0	531628032	52	5875
2026-01-08 03:19:31.12	285.58	11.61	-38.9	-39.9	22.1	0.00e+00	0	37	0	536870912	52	5682
2026-01-08 03:19:34.15	286.15	11.62	-39.1	-40.2	21.8	0.00e+00	92	37	0	543162368	52	5851
2026-01-08 03:19:37.18	286.73	11.62	-39.2	-40.3	21.8	0.00e+00	90	37	0	548405248	52	5932
2026-01-08 03:19:40.21	287.30	11.63	-39.0	-40.0	22.1	0.00e+00	0	37	0	554696704	52	5719
2026-01-08 03:19:43.24	287.88	11.63	-39.2	-40.3	21.8	0.00e+00	90	37	0	559939584	52	5897
2026-01-08 03:19:46.26	288.45	11.62	-39.1	-40.2	21.9	0.00e+00	90	37	0	566231040	52	5843
2026-01-08 03:19:49.29	289.02	11.62	-38.7	-39.8	22.2	0.00e+00	0	37	0	571473920	50	6263
2026-01-08 03:19:52.32	289.59	11.61	-38.9	-39.9	22.1	0.00e+00	40	37	0	576716800	50	6365
2026-01-08 03:19:55.35	290.17	11.60	-38.6	-39.6	22.3	0.00e+00	47	37	0	583008256	50	6163
2026-01-08 03:19:58.38	290.74	11.59	-38.5	-39.4	22.5	0.00e+00	19	37	0	588251136	50	6029
2026-01-08 03:20:01.40	291.31	11.57	-38.8	-39.8	22.0	0.00e+00	0	37	0	594542592	50	6314
2026-01-08 03:20:04.43	291.88	11.55	-39.2	-40.3	21.7	0.00e+00	92	37	0	599785472	50	6648
2026-01-08 03:20:07.46	292.45	11.53	-38.6	-39.6	22.4	0.00e+00	55	37	0	605028352	50	6111
2026-01-08 03:20:10.49	293.02	11.51	-38.2	-39.2	22.6	0.00e+00	0	37	0	611319808	50	5887
2026-01-08 03:20:13.52	293.59	11.48	-38.3	-39.4	22.4	0.00e+00	90	37	0	616562688	50	5966
2026-01-08 03:20:16.54	294.15	11.46	-38.5	-39.5	22.5	0.00e+00	91	37	0	622854144	50	6071
2026-01-08 03:20:19.57	294.72	11.42	-37.8	-38.8	23.0	0.00e+00	0	37	0	628097024	48	6249
2026-01-08 03:20:22.60	295.29	11.39	-38.1	-39.1	22.8	0.00e+00	0	38	0	634388480	48	6483
2026-01-08 03:20:25.63	295.85	11.36	-38.2	-39.2	22.7	0.00e+00	74	37	0	639631360	48	6552
2026-01-08 03:20:28.66	296.41	11.32	-37.7	-38.6	23.0	0.00e+00	23	38	0	644874240	48	6118
2026-01-08 03:20:31.69	296.97	11.28	-37.5	-38.4	23.3	0.00e+00	0	37	0	651165696	48	5985
2026-01-08 03:20:34.71	297.53	11.24	-38.0	-38.9	22.9	0.00e+00	82	37	0	656408576	48	6387
2026-01-08 03:20:37.74	298.09	11.19	-38.2	-39.2	22.7	0.00e+00	92	37	0	662700032	48	6544
2026-01-08 03:20:40.77	298.64	11.14	-37.8	-38.8	23.0	0.00e+00	0	38	0	667942912	48	6263
2026-01-08 03:20:43.80	299.20	11.09	-37.8	-38.7	22.8	0.00e+00	0	37	0	673185792	48	6199
2026-01-08 03:20:46.83	299.75	11.04	-37.9	-38.9	22.9	0.00e+00	92	37	0	679477248	48	6339
2026-01-08 03:20:49.86	300.30	10.99	-38.1	-39.1	22.7	0.00e+00	0	37	0	684720128	48	6510
2026-01-08 03:20:52.89	300.85	10.93	-38.3	-39.3	22.6	1.50e-06	0	37	0	691011584	48	6630
2026-01-08 03:20:55.92	301.40	10.87	-38.5	-39.5	22.5	0.00e+00	61	37	0	696254464	48	6776
2026-01-08 03:20:58.94	301.94	10.81	-38.8	-39.9	22.1	0.00e+00	25	37	0	702545920	50	6321
2026-01-08 03:21:01.97	302.48	10.75	-38.2	-39.2	22.7	0.00e+00	0	37	0	707788800	50	5873
2026-01-08 03:21:05.00	303.02	10.69	-37.7	-38.7	23.1	0.00e+00	44	38	0	713031680	50	5507
2026-01-08 03:21:08.03	303.56	10.62	-37.5	-38.4	23.3	0.00e+00	57	37	0	719323136	48	5998
2026-01-08 03:21:11.06	304.09	10.55	-37.3	-38.2	23.5	0.00e+00	0	37	0	724566016	48	5830
2026-01-08 03:21:14.08	304.62	10.48	-36.9	-37.7	23.6	0.00e+00	22	37	0	730857472	48	5551
2026-01-08 03:21:17.11	305.15	10.41	-37.1	-38.0	23.5	0.00e+00	84	37	0	736100352	48	5702
2026-01-08 03:21:20.14	305.68	10.33	-37.5	-38.4	23.2	0.00e+00	0	37	0	741343232	48	6029
2026-01-08 03:21:23.17	306.20	10.26	-37.8	-38.7	22.9	0.00e+00	0	37	0	747634688	48	6238
2026-01-08 03:21:26.20	306.73	10.18	-37.7	-38.6	23.1	0.00e+00	92	37	0	752877568	48	6125
2026-01-08 03:21:29.23	307.24	10.10	-37.6	-38.4	23.3	0.00e+00	92	37	0	759169024	48	6031
2026-01-08 03:21:32.26	307.76	10.02	-37.6	-38.5	23.1	0.00e+00	0	38	0	764411904	48	6046
2026-01-08 03:21:35.28	308.27	9.93	-37.8	-38.7	22.9	0.00e+00	70	37	0	770703360	48	6228
2026-01-08 03:21:38.31	308.78	9.85	-37.3	-38.2	23.4	0.00e+00	92	37	0	775946240	48	5855
2026-01-08 03:21:41.34	309.29	9.76	-37.2	-38.1	23.3	0.00e+00	0	37	0	781189120	48	5798
2026-01-08 03:21:44.36	309.79	9.67	-37.5	-38.5	22.9	0.00e+00	0	37	0	787480576	48	6051
2026-01-08 03:21:47.39	310.30	9.58	-37.6	-38.6	23.0	0.00e+00	73	37	0	792723456	48	6118
2026-01-08 03:21:50.42	310.79	9.49	-38.0	-39.0	22.7	0.00e+00	0	37	0	799014912	48	6396
2026-01-08 03:21:53.45	311.29	9.40	-38.0	-39.0	22.5	0.00e+00	0	37	0	804257792	48	6404
2026-01-08 03:21:56.47	311.78	9.30	-38.5	-39.6	22.1	0.00e+00	92	37	0	809500672	48	6856
2026-01-08 03:21:59.50	312.27	9.21	-39.2	-40.3	21.5	0.00e+00	92	37	0	815792128	50	6630
2026-01-08 03:22:02.54	312.76	9.11	-39.6	-40.7	21.2	0.00e+00	0	37	0	821035008	50	6988
2026-01-08 03:22:05.56	313.24	9.01	-39.7	-40.9	20.9	0.00e+00	30	37	0	827326464	52	6326
2026-01-08 03:22:08.59	313.72	8.91	-39.7	-40.9	20.9	0.00e+00	20	37	0	832569344	52	6323
2026-01-08 03:22:11.62	314.19	8.81	-39.3	-40.4	21.2	0.00e+00	0	37	0	837812224	52	5981
2026-01-08 03:22:14.64	314.67	8.71	-39.4	-40.6	21.3	0.00e+00	0	37	0	844103680	52	6107
2026-01-08 03:22:17.67	315.14	8.60	-39.8	-41.0	21.0	7.00e-07	92	37	0	849346560	52	6451
2026-01-08 03:22:20.70	315.60	8.50	-40.3	-41.5	20.7	0.00e+00	20	37	0	855638016	52	6844
2026-01-08 03:22:23.73	316.07	8.39	-39.9	-41.1	20.6	0.00e+00	0	37	0	860880896	52	6527
2026-01-08 03:22:26.75	316.53	8.28	-40.3	-41.5	20.5	0.00e+00	92	38	0	867172352	52	6841
2026-01-08 03:22:29.79	316.98	8.17	-41.0	-42.4	19.5	0.00e+00	69	37	0	872415232	54	6705
2026-01-08 03:22:32.82	317.44	8.06	-41.7	-43.3	18.9	0.00e+00	0	37	0	877658112	56	6644
2026-01-08 03:22:35.84	317.89	7.95	-41.1	-42.6	19.6	0.00e+00	0	37	0	883949568	56	6128
2026-01-08 03:22:38.87	318.33	7.84	-40.6	-42.0	19.8	0.00e+00	92	37	0	889192448	54	6412
2026-01-08 03:22:41.90	318.78	7.73	-40.7	-42.1	20.0	0.00e+00	0	37	0	895483904	54	6496
2026-01-08 03:22:44.93	319.22	7.62	-40.6	-41.9	20.1	0.00e+00	0	37	0	900726784	54	6376
2026-01-08 03:22:47.96	319.65	7.50	-40.7	-42.1	19.9	0.00e+00	0	37	0	905969664	54	6533
2026-01-08 03:22:50.98	320.09	7.39	-41.2	-42.7	19.1	0.00e+00	50	37	0	912261120	54	6967
2026-01-08 03:22:54.00	320.52	7.27	-41.3	-42.9	19.1	0.00e+00	0	38	0	917504000	54	7090
2026-01-08 03:22:57.03	320.94	7.15	-41.2	-42.6	19.4	0.00e+00	0	37	0	923795456	54	6911
2026-01-08 03:23:00.06	321.37	7.04	-40.9	-42.3	19.7	0.00e+00	0	38	0	929038336	54	6684
2026-01-08 03:23:03.08	321.79	6.92	-40.7	-42.0	20.0	0.00e+00	0	37	0	935329792	54	6448
2026-01-08 03:23:06.11	322.20	6.80	-40.5	-41.9	20.0	0.00e+00	19	37	0	940572672	54	6322
2026-01-08 03:23:09.13	322.62	6.68	-40.2	-41.5	20.0	0.00e+00	81	37	0	945815552	54	6071
2026-01-08 03:23:12.16	323.03	6.56	-40.1	-41.4	20.2	0.00e+00	21	37	0	952107008	54	6014
2026-01-08 03:23:15.19	323.43	6.44	-40.3	-41.6	20.1	0.00e+00	0	38	0	957349888	54	6166
2026-01-08 03:23:18.22	323.84	6.32	-40.1	-41.4	20.4	0.00e+00	23	37	0	963641344	54	5981
2026-01-08 03:23:21.25	324.24	6.19	-40.4	-41.8	20.0	0.00e+00	20	37	0	968884224	54	6268
2026-01-08 03:23:24.28	324.64	6.07	-40.3	-41.7	19.9	0.00e+00	0	37	0	974127104	54	6193
2026-01-08 03:23:27.31	325.03	5.95	-40.5	-41.9	20.0	0.00e+00	0	37	0	980418560	54	6336
2026-01-08 03:23:30.33	325.42	5.82	-40.5	-41.9	19.9	0.00e+00	92	37	0	985661440	54	6328
2026-01-08 03:23:33.36	325.81	5.70	-40.5	-41.9	19.8	0.00e+00	0	37	0	991952896	54	6380
2026-01-08 03:23:36.39	326.19	5.57	-40.1	-41.4	20.3	0.00e+00	0	37	0	997195776	54	6030
2026-01-08 03:23:39.42	326.57	5.45	-39.8	-41.0	20.7	0.00e+00	88	37	0	1002438656	52	6449
2026-01-08 03:23:42.45	326.95	5.32	-39.6	-40.8	20.8	0.00e+00	0	37	0	1008730112	52	6259
2026-01-08 03:23:45.47	327.33	5.20	-39.7	-41.0	20.5	0.00e+00	0	37	0	1013972992	52	6392
2026-01-08 03:23:48.50	327.70	5.07	-39.8	-41.1	20.6	0.00e+00	0	37	0	1020264448	52	6518
2026-01-08 03:23:51.52	328.07	4.94	-39.8	-41.1	20.5	0.00e+00	18	37	0	1025507328	52	6486
2026-01-08 03:23:54.55	328.43	4.82	-39.5	-40.7	20.9	0.00e+00	0	37	0	1031798784	52	6180
2026-01-08 03:23:57.58	328.80	4.69	-39.4	-40.6	21.1	0.00e+00	0	37	0	1037041664	52	6124
2026-01-08 03:24:00.61	329.16	4.56	-39.5	-40.7	20.6	0.00e+00	92	37	0	1042284544	52	6195
2026-01-08 03:24:03.64	329.51	4.43	-39.9	-41.2	20.4	0.00e+00	0	37	0	1048576000	52	6587
2026-01-08 03:24:06.67	329.87	4.30	-39.8	-41.0	20.2	0.00e+00	0	37	0	1053818880	52	6450
2026-01-08 03:24:09.70	330.22	4.18	-39.7	-41.0	20.3	0.00e+00	79	37	0	1060110336	52	6425
2026-01-08 03:24:12.74	330.57	4.05	-39.8	-41.1	20.2	0.00e+00	9	37	0	1065353216	52	6534
2026-01-08 03:24:15.76	330.91	3.92	-40.6	-42.1	19.1	0.00e+00	0	37	0	1070596096	52	7264
2026-01-08 03:24:18.79	331.26	3.79	-41.3	-43.1	17.7	0.00e+00	0	37	0	1076887552	54	7323
2026-01-08 03:24:21.82	331.59	3.66	-42.2	-44.8	15.5	0.00e+00	79	37	0	1082130432	56	7886
2026-01-08 03:24:24.85	331.93	3.53	-43.0	-47.2	11.5	3.44e-04	0	37	0	1088421888	58	9329
2026-01-08 03:24:27.87	332.26	3.40	-43.6	-50.8	6.4	1.73e-01	0	38	0	1093664768	58	14059
2026-01-08 03:24:30.90	332.60	3.27	-43.8	-56.2	3.9	1.50e+00	0	37	104	1097859072	60	23328
2026-01-08 03:24:33.93	332.92	3.14	-43.8	-58.4	3.6	1.51e+00	0	38	104	1097859072	60	29979
2026-01-08 03:24:36.96	333.25	3.01	-43.8	-58.9	3.6	1.51e+00	0	38	104	1097859072	60	32016
2026-01-08 03:24:39.98	333.57	2.88	-48.5	-63.7	3.6	1.51e+00	0	37	104	1097859072	60	55411
2026-01-08 03:24:43.02	333.89	2.75	-49.0	-64.1	3.6	1.51e+00	0	38	104	1097859072	60	57967
2026-01-08 03:24:46.05	334.21	2.62	-49.0	-64.2	3.6	1.51e+00	0	38	104	1097859072	60	58531
2026-01-08 03:24:49.08	334.52	2.49	-48.8	-64.1	3.6	1.51e+00	0	38	104	1097859072	60	58017
2026-01-08 03:24:52.11	334.84	2.36	-48.9	-64.1	3.6	1.51e+00	0	38	104	1097859072	60	57760
2026-01-08 03:24:55.13	335.14	2.23	-49.0	-64.2	3.6	1.51e+00	0	37	104	1097859072	60	58768
2026-01-08 03:24:58.16	335.45	2.10	-49.0	-64.2	3.6	1.51e+00	0	38	104	1097859072	60	58379
2026-01-08 03:25:01.19	335.75	1.96	-49.0	-64.2	3.6	1.51e+00	0	38	104	1097859072	60	58563
2026-01-08 03:25:04.22	336.06	1.83	-49.0	-64.2	3.6	1.51e+00	0	38	104	1097859072	60	58289
2026-01-08 03:25:07.25	336.36	1.70	-49.0	-64.1	3.6	1.51e+00	0	38	104	1097859072	60	58114
2026-01-08 03:25:10.28	336.65	1.57	-49.0	-64.2	3.6	1.51e+00	0	38	104	1097859072	60	58373
2026-01-08 03:25:13.30	336.95	1.44	-49.0	-64.1	3.6	1.51e+00	0	38	104	1097859072	60	58170
2026-01-08 03:25:16.33	337.24	1.31	-49.0	-64.1	3.6	1.51e+00	0	38	104	1097859072	60	58269
2026-01-08 03:25:19.36	337.53	1.18	-49.0	-64.1	3.6	1.51e+00	0	38	104	1097859072	60	57973
2026-01-08 03:25:22.39	337.81	1.05	-49.0	-64.1	3.6	1.51e+00	0	38	104	1097859072	60	58045
2026-01-08 03:25:25.42	338.10	0.92	-49.0	-64.1	3.6	1.51e+00	0	38	104	1097859072	60	57818
2026-01-08 03:25:28.45	338.38	0.79	-49.0	-64.1	3.6	1.51e+00	0	38	104	1097859072	60	57806
2026-01-08 03:25:31.48	338.66	0.66	-49.0	-64.2	3.6	1.51e+00	0	38	104	1097859072	60	58306
2026-01-08 03:25:34.50	338.94	0.53	-48.9	-64.1	3.6	1.51e+00	0	38	104	1097859072	60	58099
2026-01-08 03:25:37.53	339.21	0.40	-49.0	-64.2	3.6	1.51e+00	0	38	104	1097859072	60	58417
2026-01-08 03:25:40.56	339.49	0.27	-48.9	-64.1	3.6	1.51e+00	0	38	104	1097859072	60	58074
2026-01-08 03:25:43.59	339.76	0.14	-48.9	-64.1	3.6	1.51e+00	0	38	104	1097859072	60	58070
2026-01-08 03:25:46.62	340.03	0.01	-48.9	-64.1	3.6	1.51e+00	0	38	104	1097859072	60	58213

#Closed at: 2026-01-08 03:25:46
#Recorded file [1097 MB]: D:/lorett/data/35029_260108_151339.dat