passes_logs/2026/01/08/R4.6S_Anadyr/R4.6S_Anadyr__20260108_135606_NOAA_20_JPSS-1_rec.log

#Pass ID: 20260108_135606_NOAA 20 (JPSS-1)
#Satellite: NOAA 20 (JPSS-1)
#Configuration: NOAA 20
#almurnet v.1.7.20251203
#Start time: 2026-01-08 13:56:08

#Version: 2.2.20231116
#Station: R4.6S_Anadyr
#Location: 177.4865 lon 64.73178 lat
#TLE: 1 43013U 17073A   26007.92906311  .00000097  00000+0  67117-4 0  9996
#TLE: 2 43013  98.7630 308.9434 0001752  49.5597 310.5732 14.19534161421734

#Time	Az	El	Level	Level2	SNR	BER	BlckErr	Temp	State	Recorded	gain1	gain2
2026-01-08 13:56:08.51	19.31	0.14	-48.4	-63.3	3.5	1.51e+00	0	30	0	0	60	52688
2026-01-08 13:56:12.54	19.42	0.38	-48.5	-63.7	3.6	1.51e+00	0	31	104	0	60	55198
2026-01-08 13:56:16.58	19.54	0.62	-48.5	-63.6	3.6	1.51e+00	0	31	104	0	60	54645
2026-01-08 13:56:20.62	19.65	0.86	-47.8	-63.1	3.6	1.51e+00	0	32	104	0	60	51578
2026-01-08 13:56:24.66	19.77	1.10	-47.0	-62.2	3.6	1.51e+00	0	31	104	0	60	46487
2026-01-08 13:56:28.70	19.89	1.34	-47.0	-62.2	3.6	1.51e+00	0	32	104	0	60	46372
2026-01-08 13:56:32.74	20.01	1.59	-47.0	-62.1	3.6	1.51e+00	0	32	104	0	60	45837
2026-01-08 13:56:36.78	20.13	1.84	-47.0	-62.1	3.6	1.51e+00	0	32	104	0	60	46207
2026-01-08 13:56:40.81	20.26	2.09	-47.0	-62.1	3.5	1.51e+00	0	32	104	0	60	46277
2026-01-08 13:56:44.85	20.38	2.34	-47.0	-61.4	3.6	1.51e+00	0	32	104	0	60	42600
2026-01-08 13:56:48.90	20.51	2.60	-47.0	-60.9	3.6	1.51e+00	0	32	104	0	60	40115
2026-01-08 13:56:52.93	20.64	2.85	-46.3	-53.1	7.2	2.22e-01	0	32	0	1048576	60	16381
2026-01-08 13:56:56.97	20.77	3.11	-43.0	-45.5	15.8	0.00e+00	0	32	0	8388608	60	6780
2026-01-08 13:57:01.01	20.90	3.38	-41.3	-43.1	18.0	0.00e+00	0	32	0	15728640	56	6517
2026-01-08 13:57:05.05	21.04	3.64	-43.6	-46.6	14.3	0.00e+00	0	32	0	24117248	58	8679
2026-01-08 13:57:09.09	21.18	3.91	-46.9	-61.2	3.6	3.79e-02	0	32	104	30408704	60	41485
2026-01-08 13:57:13.13	21.32	4.18	-41.1	-42.8	18.6	0.00e+00	0	32	0	35651584	56	6252
2026-01-08 13:57:17.16	21.46	4.45	-40.5	-42.0	19.2	0.00e+00	0	32	0	44040192	54	6445
2026-01-08 13:57:21.20	21.60	4.72	-40.4	-41.8	19.5	0.00e+00	0	32	0	51380224	54	6302
2026-01-08 13:57:25.24	21.75	5.00	-40.1	-41.6	19.8	0.00e+00	0	32	0	58720256	54	6104
2026-01-08 13:57:29.28	21.90	5.28	-40.1	-41.5	19.9	0.00e+00	0	32	0	66060288	54	6072
2026-01-08 13:57:33.31	22.05	5.56	-40.0	-41.4	20.1	0.00e+00	0	32	0	73400320	54	5965
2026-01-08 13:57:37.35	22.21	5.85	-40.0	-41.4	20.1	0.00e+00	0	32	0	81788928	54	5978
2026-01-08 13:57:41.39	22.37	6.14	-39.8	-41.1	20.4	0.00e+00	0	32	0	89128960	54	5778
2026-01-08 13:57:45.42	22.52	6.43	-39.7	-40.9	20.6	0.00e+00	0	32	0	96468992	52	6383
2026-01-08 13:57:49.46	22.69	6.72	-39.7	-41.0	20.6	0.00e+00	0	32	0	103809024	52	6405
2026-01-08 13:57:53.50	22.85	7.02	-39.5	-40.7	20.9	0.00e+00	0	32	0	112197632	52	6210
2026-01-08 13:57:57.54	23.02	7.32	-39.6	-40.8	20.8	0.00e+00	0	32	0	119537664	52	6295
2026-01-08 13:58:01.58	23.20	7.63	-39.4	-40.6	21.0	0.00e+00	0	32	0	126877696	52	6113
2026-01-08 13:58:05.62	23.37	7.94	-39.4	-40.6	21.0	0.00e+00	0	32	0	134217728	52	6157
2026-01-08 13:58:09.65	23.55	8.25	-39.3	-40.4	21.3	0.00e+00	0	32	0	141557760	52	6010
2026-01-08 13:58:13.68	23.73	8.56	-39.2	-40.4	21.3	0.00e+00	0	32	0	149946368	52	5975
2026-01-08 13:58:17.71	23.92	8.88	-39.1	-40.2	21.5	0.00e+00	0	32	0	157286400	52	5866
2026-01-08 13:58:21.75	24.11	9.21	-39.0	-40.1	21.7	0.00e+00	0	32	0	164626432	52	5766
2026-01-08 13:58:25.78	24.30	9.53	-38.9	-40.0	21.8	0.00e+00	0	32	0	171966464	52	5710
2026-01-08 13:58:29.82	24.50	9.86	-38.7	-39.8	22.0	0.00e+00	0	32	0	180355072	50	6283
2026-01-08 13:58:33.85	24.70	10.20	-38.6	-39.7	22.0	0.00e+00	0	32	0	187695104	50	6208
2026-01-08 13:58:37.89	24.90	10.54	-38.5	-39.5	22.2	0.00e+00	0	32	0	195035136	50	6099
2026-01-08 13:58:41.92	25.11	10.88	-38.3	-39.3	22.4	0.00e+00	0	32	0	202375168	50	5933
2026-01-08 13:58:45.95	25.33	11.23	-38.2	-39.2	22.6	0.00e+00	0	32	0	209715200	50	5854
2026-01-08 13:58:49.99	25.55	11.59	-38.0	-39.0	22.7	0.00e+00	0	32	0	218103808	50	5743
2026-01-08 13:58:54.03	25.77	11.95	-37.9	-38.8	23.0	0.00e+00	0	32	0	225443840	50	5618
2026-01-08 13:58:58.06	26.00	12.31	-37.7	-38.6	23.1	0.00e+00	0	32	0	232783872	48	6159
2026-01-08 13:59:02.10	26.24	12.68	-37.6	-38.5	23.3	0.00e+00	0	32	0	240123904	48	6078
2026-01-08 13:59:06.14	26.48	13.05	-37.3	-38.2	23.5	0.00e+00	0	32	0	248512512	48	5854
2026-01-08 13:59:10.18	26.72	13.43	-37.1	-38.0	23.7	0.00e+00	0	32	0	255852544	48	5727
2026-01-08 13:59:14.22	26.98	13.82	-36.9	-37.7	24.0	0.00e+00	0	32	0	263192576	48	5555
2026-01-08 13:59:18.26	27.23	14.21	-37.0	-37.9	23.9	0.00e+00	0	32	0	270532608	48	5647
2026-01-08 13:59:22.29	27.50	14.61	-36.7	-37.6	24.2	0.00e+00	0	32	0	277872640	46	6112
2026-01-08 13:59:26.33	27.77	15.01	-36.8	-37.6	24.1	0.00e+00	0	32	0	286261248	46	6145
2026-01-08 13:59:30.37	28.05	15.42	-36.7	-37.6	24.1	0.00e+00	0	32	0	293601280	46	6111
2026-01-08 13:59:34.40	28.33	15.83	-36.5	-37.4	24.4	0.00e+00	0	32	0	300941312	46	5980
2026-01-08 13:59:38.44	28.63	16.26	-36.5	-37.4	24.4	0.00e+00	0	32	0	308281344	46	5978
2026-01-08 13:59:42.48	28.93	16.69	-36.6	-37.4	24.3	0.00e+00	0	32	0	316669952	46	6027
2026-01-08 13:59:46.52	29.24	17.12	-36.5	-37.3	24.5	0.00e+00	0	32	0	324009984	46	5960
2026-01-08 13:59:50.55	29.56	17.57	-36.4	-37.2	24.5	0.00e+00	0	32	0	331350016	46	5843
2026-01-08 13:59:54.58	29.88	18.01	-36.3	-37.1	24.6	0.00e+00	0	33	0	338690048	46	5785
2026-01-08 13:59:58.61	30.22	18.47	-36.3	-37.1	24.6	0.00e+00	0	32	0	346030080	46	5801
2026-01-08 14:00:02.65	30.56	18.94	-36.4	-37.2	24.6	0.00e+00	0	32	0	354418688	46	5890
2026-01-08 14:00:06.69	30.92	19.41	-36.6	-37.4	24.4	0.00e+00	0	32	0	361758720	46	5992
2026-01-08 14:00:10.73	31.29	19.89	-36.5	-37.3	24.5	0.00e+00	0	32	0	369098752	46	5956
2026-01-08 14:00:14.76	31.67	20.38	-36.4	-37.2	24.5	0.00e+00	0	32	0	376438784	46	5844
2026-01-08 14:00:18.80	32.06	20.88	-36.5	-37.3	24.5	0.00e+00	0	32	0	383778816	46	5928
2026-01-08 14:00:22.84	32.46	21.39	-36.6	-37.4	24.4	0.00e+00	0	32	0	392167424	46	5987
2026-01-08 14:00:26.87	32.87	21.91	-36.5	-37.3	24.6	0.00e+00	0	32	0	399507456	46	5933
2026-01-08 14:00:30.90	33.30	22.43	-36.3	-37.1	24.6	0.00e+00	0	32	0	406847488	46	5799
2026-01-08 14:00:34.94	33.75	22.97	-36.4	-37.3	24.5	0.00e+00	0	32	0	414187520	46	5905
2026-01-08 14:00:38.98	34.20	23.51	-36.7	-37.5	24.3	0.00e+00	0	32	0	422576128	46	6065
2026-01-08 14:00:43.01	34.68	24.07	-36.8	-37.6	24.2	0.00e+00	0	32	0	429916160	46	6161
2026-01-08 14:00:47.05	35.17	24.63	-36.5	-37.3	24.5	0.00e+00	0	32	0	437256192	46	5963
2026-01-08 14:00:51.09	35.68	25.21	-36.7	-37.5	24.4	0.00e+00	0	32	0	444596224	46	6067
2026-01-08 14:00:55.12	36.20	25.79	-36.9	-37.8	24.1	0.00e+00	0	32	0	451936256	46	6268
2026-01-08 14:00:59.16	36.75	26.39	-37.0	-37.8	24.2	0.00e+00	0	32	0	460324864	46	6281
2026-01-08 14:01:03.19	37.31	27.00	-37.1	-38.0	24.1	0.00e+00	0	32	0	467664896	46	6402
2026-01-08 14:01:07.22	37.90	27.61	-37.7	-38.6	23.5	0.00e+00	0	32	0	475004928	46	6884
2026-01-08 14:01:11.26	38.51	28.24	-37.9	-38.8	23.2	0.00e+00	0	32	0	482344960	48	6284
2026-01-08 14:01:15.30	39.14	28.88	-38.2	-39.2	23.0	0.00e+00	0	32	0	489684992	48	6561
2026-01-08 14:01:19.33	39.80	29.54	-38.8	-39.8	22.4	0.00e+00	0	32	0	498073600	50	6282
2026-01-08 14:01:23.37	40.49	30.20	-39.3	-40.4	22.0	0.00e+00	0	32	0	505413632	50	6727
2026-01-08 14:01:27.41	41.20	30.87	-39.3	-40.3	22.0	0.00e+00	0	32	0	512753664	50	6685
2026-01-08 14:01:31.44	41.94	31.56	-39.0	-40.0	22.3	0.00e+00	0	32	0	520093696	50	6449
2026-01-08 14:01:35.48	42.72	32.25	-39.0	-40.0	22.3	0.00e+00	0	32	0	528482304	50	6423
2026-01-08 14:01:39.52	43.53	32.96	-38.8	-39.8	22.5	0.00e+00	0	32	0	535822336	50	6292
2026-01-08 14:01:43.55	44.37	33.67	-38.1	-39.0	23.2	0.00e+00	0	32	0	543162368	50	5748
2026-01-08 14:01:47.58	45.25	34.40	-37.9	-38.8	23.4	0.00e+00	0	33	0	550502400	48	6272
2026-01-08 14:01:51.62	46.17	35.14	-37.2	-38.0	24.1	0.00e+00	0	32	0	557842432	48	5748
2026-01-08 14:01:55.66	47.13	35.88	-37.4	-38.3	23.8	0.00e+00	0	32	0	566231040	48	5902
2026-01-08 14:01:59.70	48.14	36.64	-36.3	-37.0	24.8	0.00e+00	0	32	0	573571072	46	5760
2026-01-08 14:02:03.73	49.20	37.40	-36.5	-37.3	24.5	0.00e+00	0	32	0	580911104	46	5937
2026-01-08 14:02:07.77	50.30	38.17	-36.8	-37.6	24.4	0.00e+00	0	32	0	588251136	46	6169
2026-01-08 14:02:11.80	51.45	38.94	-36.5	-37.3	24.7	0.00e+00	0	32	0	595591168	46	5928
2026-01-08 14:02:15.84	52.67	39.72	-37.0	-37.9	23.9	0.00e+00	0	32	0	603979776	46	6333
2026-01-08 14:02:19.88	53.94	40.50	-37.1	-37.9	24.1	0.00e+00	0	32	0	611319808	46	6385
2026-01-08 14:02:23.92	55.27	41.28	-36.9	-37.7	24.3	0.00e+00	0	32	0	618659840	46	6231
2026-01-08 14:02:27.95	56.67	42.06	-37.6	-38.4	23.7	0.00e+00	0	32	0	625999872	46	6766
2026-01-08 14:02:31.99	58.14	42.84	-37.0	-37.9	24.2	0.00e+00	0	32	0	634388480	46	6340
2026-01-08 14:02:36.03	59.68	43.61	-38.0	-38.9	23.3	0.00e+00	0	32	0	641728512	48	6353
2026-01-08 14:02:40.06	61.29	44.38	-37.0	-37.8	24.3	0.00e+00	0	32	0	649068544	48	5616
2026-01-08 14:02:44.10	62.98	45.13	-38.9	-39.9	22.4	0.00e+00	0	32	0	656408576	50	6366
2026-01-08 14:02:48.14	64.75	45.87	-38.2	-39.1	23.0	0.00e+00	0	32	0	663748608	50	5821
2026-01-08 14:02:52.18	66.61	46.60	-38.5	-39.5	22.7	0.00e+00	0	32	0	672137216	50	6075
2026-01-08 14:02:56.21	68.55	47.29	-37.8	-38.7	23.5	0.00e+00	0	32	0	679477248	48	6196
2026-01-08 14:03:00.25	70.58	47.97	-38.0	-39.0	23.3	0.00e+00	0	33	0	686817280	48	6401
2026-01-08 14:03:04.29	72.70	48.62	-37.1	-38.0	23.2	0.00e+00	0	32	0	694157312	48	5701
2026-01-08 14:03:08.33	74.90	49.23	-37.5	-38.3	23.8	0.00e+00	0	32	0	702545920	48	5962
2026-01-08 14:03:12.36	77.19	49.80	-37.4	-38.3	23.8	0.00e+00	0	32	0	709885952	46	6664
2026-01-08 14:03:16.40	79.56	50.34	-37.6	-38.5	23.6	0.00e+00	0	32	0	717225984	48	6091
2026-01-08 14:03:20.44	82.02	50.82	-38.2	-39.2	23.1	0.00e+00	0	33	0	724566016	48	6564
2026-01-08 14:03:24.47	84.54	51.25	-37.4	-38.3	23.9	0.00e+00	0	32	0	731906048	48	5913
2026-01-08 14:03:28.51	87.15	51.63	-36.8	-37.6	24.4	0.00e+00	0	32	0	740294656	48	5502
2026-01-08 14:03:32.55	89.81	51.95	-37.5	-38.4	23.7	0.00e+00	0	32	0	747634688	46	6744
2026-01-08 14:03:36.58	92.52	52.21	-36.4	-37.2	24.7	0.00e+00	0	32	0	754974720	46	5847
2026-01-08 14:03:40.61	95.27	52.40	-36.2	-37.0	25.0	0.00e+00	0	32	0	762314752	46	5700
2026-01-08 14:03:44.65	98.05	52.52	-36.6	-37.4	24.5	0.00e+00	0	32	0	770703360	46	6015
2026-01-08 14:03:48.69	100.86	52.58	-36.4	-37.2	24.7	0.00e+00	0	32	0	778043392	44	6599
2026-01-08 14:03:52.72	103.66	52.57	-36.0	-36.8	24.9	0.00e+00	0	32	0	785383424	44	6304
2026-01-08 14:03:56.76	106.45	52.48	-35.9	-36.7	25.1	0.00e+00	0	32	0	792723456	44	6187
2026-01-08 14:04:00.79	109.22	52.33	-35.6	-36.4	25.4	0.00e+00	0	32	0	800063488	44	5999
2026-01-08 14:04:04.83	111.97	52.11	-35.6	-36.4	25.3	0.00e+00	0	32	0	808452096	44	5985
2026-01-08 14:04:08.87	114.66	51.83	-36.9	-37.7	24.3	0.00e+00	0	32	0	815792128	46	6202
2026-01-08 14:04:12.90	117.30	51.49	-38.0	-39.0	23.3	0.00e+00	0	32	0	823132160	48	6401
2026-01-08 14:04:16.94	119.88	51.09	-38.5	-39.4	22.6	0.00e+00	0	32	0	830472192	48	6752
2026-01-08 14:04:20.98	122.38	50.63	-37.5	-38.3	23.8	0.00e+00	0	32	0	838860800	48	5940
2026-01-08 14:04:25.02	124.81	50.13	-38.7	-39.7	22.6	0.00e+00	0	33	0	846200832	50	6187
2026-01-08 14:04:29.05	127.15	49.58	-40.2	-41.4	21.0	0.00e+00	0	33	0	853540864	52	6697
2026-01-08 14:04:33.09	129.41	48.98	-41.7	-43.3	19.4	0.00e+00	0	32	0	860880896	54	7427
2026-01-08 14:04:37.12	131.58	48.36	-40.3	-41.5	21.0	0.00e+00	0	32	0	868220928	54	6067
2026-01-08 14:04:41.16	133.66	47.70	-40.4	-41.7	20.7	0.00e+00	0	32	0	876609536	54	6202
2026-01-08 14:04:45.19	135.66	47.01	-41.2	-42.6	19.8	0.00e+00	0	33	0	883949568	54	6922
2026-01-08 14:04:49.23	137.57	46.30	-39.7	-40.8	21.7	0.00e+00	0	32	0	891289600	54	5619
2026-01-08 14:04:53.27	139.40	45.56	-38.0	-38.9	23.5	0.00e+00	0	32	0	898629632	50	5655
2026-01-08 14:04:57.31	141.14	44.81	-38.4	-39.3	22.9	0.00e+00	0	32	0	905969664	48	6655
2026-01-08 14:05:01.35	142.80	44.05	-38.1	-39.0	23.2	0.00e+00	0	32	0	914358272	50	5733
2026-01-08 14:05:05.38	144.39	43.28	-39.8	-41.0	21.4	0.00e+00	0	32	0	921698304	52	6404
2026-01-08 14:05:09.42	145.90	42.50	-37.9	-38.8	23.5	0.00e+00	0	32	0	929038336	50	5588
2026-01-08 14:05:13.46	147.34	41.72	-42.3	-43.9	18.8	0.00e+00	0	32	0	936378368	56	7166
2026-01-08 14:05:17.50	148.72	40.93	-40.3	-41.5	21.0	0.00e+00	0	33	0	944766976	52	6773
2026-01-08 14:05:21.54	150.03	40.15	-39.8	-40.9	21.5	0.00e+00	0	32	0	952107008	54	5669
2026-01-08 14:05:25.57	151.28	39.37	-42.2	-43.9	18.3	0.00e+00	0	32	0	959447040	56	7136
2026-01-08 14:05:29.61	152.47	38.58	-41.8	-43.3	19.4	0.00e+00	0	33	0	966787072	56	6625
2026-01-08 14:05:33.64	153.60	37.81	-41.6	-43.0	19.5	0.00e+00	0	33	0	974127104	54	7242
2026-01-08 14:05:37.68	154.69	37.04	-39.1	-40.1	22.4	0.00e+00	0	32	0	982515712	52	5810
2026-01-08 14:05:41.71	155.72	36.28	-38.6	-39.6	22.7	0.00e+00	0	32	0	989855744	48	6886
2026-01-08 14:05:45.74	156.71	35.53	-39.4	-40.5	21.9	0.00e+00	0	32	0	997195776	52	6076
2026-01-08 14:05:49.78	157.66	34.78	-38.3	-39.2	23.0	0.00e+00	0	33	0	1004535808	50	5875
2026-01-08 14:05:53.82	158.57	34.05	-40.5	-41.8	20.7	0.00e+00	0	32	0	1012924416	52	7041
2026-01-08 14:05:57.85	159.43	33.32	-38.4	-39.4	22.8	0.00e+00	0	33	0	1020264448	50	5965
2026-01-08 14:06:01.89	160.26	32.60	-40.3	-41.6	20.8	0.00e+00	0	32	0	1027604480	52	6858
2026-01-08 14:06:05.93	161.06	31.90	-41.2	-42.6	20.0	0.00e+00	0	33	0	1034944512	56	6142
2026-01-08 14:06:09.97	161.82	31.20	-38.7	-39.7	22.6	0.00e+00	0	33	0	1042284544	52	5543
2026-01-08 14:06:14.01	162.55	30.52	-39.9	-41.1	21.3	0.00e+00	0	32	0	1050673152	52	6465
2026-01-08 14:06:18.04	163.25	29.85	-39.5	-40.5	21.8	0.00e+00	0	32	0	1058013184	52	6101
2026-01-08 14:06:22.08	163.93	29.19	-38.6	-39.5	22.6	0.00e+00	0	32	0	1065353216	50	6101
2026-01-08 14:06:26.11	164.58	28.54	-37.7	-38.6	23.5	0.00e+00	0	32	0	1072693248	48	6158
2026-01-08 14:06:30.15	165.20	27.90	-38.5	-39.5	22.6	0.00e+00	0	32	0	1080033280	48	6788
2026-01-08 14:06:34.19	165.80	27.27	-39.7	-40.9	21.4	0.00e+00	0	33	0	1088421888	50	7100
2026-01-08 14:06:38.23	166.38	26.66	-38.4	-39.4	22.9	0.00e+00	0	32	0	1095761920	50	5979
2026-01-08 14:06:42.26	166.93	26.05	-37.8	-38.7	23.4	0.00e+00	0	32	0	1103101952	48	6192
2026-01-08 14:06:46.30	167.47	25.46	-38.8	-39.9	22.3	0.00e+00	0	32	0	1110441984	50	6352
2026-01-08 14:06:50.34	167.99	24.87	-38.8	-39.8	22.4	0.00e+00	0	32	0	1118830592	50	6311
2026-01-08 14:06:54.38	168.49	24.30	-38.5	-39.5	22.7	0.00e+00	0	32	0	1126170624	50	6070
2026-01-08 14:06:58.41	168.97	23.74	-38.1	-39.0	23.1	0.00e+00	0	32	0	1133510656	50	5724
2026-01-08 14:07:02.45	169.44	23.18	-37.7	-38.6	23.4	0.00e+00	0	33	0	1140850688	48	6159
2026-01-08 14:07:06.49	169.89	22.64	-38.3	-39.3	22.8	0.00e+00	0	33	0	1148190720	48	6680
2026-01-08 14:07:10.53	170.33	22.10	-38.7	-39.8	22.4	0.00e+00	0	32	0	1156579328	50	6284
2026-01-08 14:07:14.56	170.75	21.58	-37.7	-38.6	23.5	0.00e+00	0	32	0	1163919360	48	6125
2026-01-08 14:07:18.60	171.16	21.06	-37.2	-38.0	23.9	0.00e+00	0	32	0	1171259392	48	5759
2026-01-08 14:07:22.64	171.55	20.56	-37.3	-38.2	23.6	0.00e+00	0	32	0	1178599424	48	5879
2026-01-08 14:07:26.67	171.93	20.06	-37.7	-38.6	23.4	0.00e+00	0	32	0	1186988032	48	6149
2026-01-08 14:07:30.71	172.31	19.57	-37.6	-38.6	23.3	0.00e+00	0	33	0	1194328064	48	6123
2026-01-08 14:07:34.74	172.67	19.09	-36.8	-37.7	24.1	0.00e+00	0	32	0	1201668096	48	5534
2026-01-08 14:07:38.78	173.02	18.62	-36.4	-37.2	24.5	0.00e+00	0	32	0	1209008128	46	5894
2026-01-08 14:07:42.82	173.36	18.16	-36.3	-37.1	24.7	0.00e+00	0	32	0	1216348160	46	5763
2026-01-08 14:07:46.85	173.69	17.70	-36.1	-36.9	24.8	0.00e+00	0	32	0	1224736768	46	5631
2026-01-08 14:07:50.88	174.01	17.25	-36.5	-37.3	24.4	0.00e+00	0	32	0	1232076800	46	5951
2026-01-08 14:07:54.92	174.32	16.81	-37.1	-38.0	23.8	0.00e+00	0	32	0	1239416832	46	6412
2026-01-08 14:07:58.96	174.63	16.37	-37.4	-38.3	23.5	0.00e+00	0	32	0	1246756864	46	6657
2026-01-08 14:08:02.99	174.92	15.95	-37.5	-38.5	23.3	0.00e+00	0	32	0	1254096896	46	6783
2026-01-08 14:08:07.03	175.21	15.53	-37.0	-37.8	23.9	0.00e+00	0	32	0	1262485504	46	6307
2026-01-08 14:08:11.07	175.49	15.11	-36.7	-37.6	24.1	0.00e+00	0	32	0	1269825536	46	6121
2026-01-08 14:08:15.10	175.76	14.70	-36.6	-37.5	23.8	0.00e+00	0	33	0	1277165568	46	6057
2026-01-08 14:08:19.14	176.03	14.30	-36.8	-37.7	24.0	0.00e+00	0	32	0	1284505600	46	6195
2026-01-08 14:08:23.18	176.29	13.90	-37.1	-38.0	23.8	0.00e+00	0	32	0	1292894208	46	6429
2026-01-08 14:08:27.21	176.54	13.51	-37.5	-38.4	23.4	0.00e+00	0	32	0	1300234240	46	6708
2026-01-08 14:08:31.25	176.79	13.13	-37.9	-38.8	23.0	0.00e+00	0	32	0	1307574272	48	6306
2026-01-08 14:08:35.29	177.03	12.75	-38.0	-39.0	22.9	0.00e+00	0	32	0	1314914304	48	6407
2026-01-08 14:08:39.33	177.27	12.38	-38.0	-39.0	22.8	0.00e+00	0	32	0	1322254336	48	6459
2026-01-08 14:08:43.36	177.50	12.01	-37.9	-38.8	22.9	0.00e+00	0	32	0	1330642944	48	6315
2026-01-08 14:08:47.39	177.72	11.65	-37.9	-38.9	22.9	0.00e+00	0	32	0	1337982976	48	6325
2026-01-08 14:08:51.43	177.94	11.29	-37.8	-38.7	23.0	0.00e+00	0	32	0	1345323008	48	6236
2026-01-08 14:08:55.46	178.16	10.94	-37.7	-38.6	23.0	0.00e+00	0	32	0	1352663040	48	6167
2026-01-08 14:08:59.50	178.37	10.59	-37.8	-38.7	22.9	0.00e+00	0	32	0	1361051648	48	6231
2026-01-08 14:09:03.53	178.57	10.24	-37.8	-38.8	22.9	0.00e+00	0	32	0	1368391680	48	6272
2026-01-08 14:09:07.57	178.77	9.90	-37.9	-38.9	22.8	0.00e+00	0	32	0	1375731712	48	6323
2026-01-08 14:09:11.61	178.97	9.57	-38.1	-39.1	22.5	0.00e+00	0	32	0	1383071744	48	6480
2026-01-08 14:09:15.65	179.16	9.24	-38.3	-39.3	22.3	0.00e+00	0	32	0	1390411776	48	6662
2026-01-08 14:09:19.69	179.35	8.91	-38.5	-39.6	22.1	0.00e+00	0	32	0	1398800384	48	6856
2026-01-08 14:09:23.72	179.54	8.59	-38.8	-39.9	21.7	0.00e+00	0	32	0	1406140416	50	6357
2026-01-08 14:09:27.76	179.72	8.27	-38.8	-40.0	21.7	0.00e+00	0	32	0	1413480448	50	6399
2026-01-08 14:09:31.79	179.89	7.95	-39.0	-40.1	21.5	0.00e+00	0	32	0	1420820480	50	6528
2026-01-08 14:09:35.83	180.07	7.64	-39.0	-40.1	21.4	0.00e+00	0	32	0	1429209088	50	6539
2026-01-08 14:09:39.87	180.24	7.33	-38.9	-40.0	21.4	0.00e+00	0	32	0	1436549120	50	6454
2026-01-08 14:09:43.91	180.41	7.03	-38.9	-40.0	21.5	0.00e+00	0	32	0	1443889152	50	6454
2026-01-08 14:09:47.94	180.57	6.73	-38.8	-40.0	21.5	0.00e+00	0	32	0	1451229184	50	6398
2026-01-08 14:09:51.98	180.73	6.43	-38.9	-40.0	21.4	0.00e+00	0	32	0	1458569216	50	6454
2026-01-08 14:09:56.01	180.89	6.14	-39.0	-40.1	21.3	0.00e+00	0	32	0	1466957824	50	6531
2026-01-08 14:10:00.05	181.05	5.85	-38.9	-40.0	21.4	0.00e+00	0	32	0	1474297856	50	6432
2026-01-08 14:10:04.09	181.20	5.56	-38.9	-40.1	21.4	0.00e+00	0	32	0	1481637888	50	6470
2026-01-08 14:10:08.13	181.35	5.27	-39.0	-40.1	21.3	0.00e+00	0	32	0	1488977920	50	6531
2026-01-08 14:10:12.17	181.50	4.99	-39.1	-40.3	21.1	0.00e+00	0	33	0	1496317952	50	6616
2026-01-08 14:10:16.21	181.64	4.71	-39.2	-40.4	20.9	0.00e+00	0	32	0	1504706560	50	6714
2026-01-08 14:10:20.24	181.78	4.43	-39.2	-40.4	20.9	0.00e+00	0	33	0	1512046592	50	6709
2026-01-08 14:10:24.27	181.92	4.16	-39.3	-40.5	20.7	0.00e+00	0	32	0	1519386624	50	6817
2026-01-08 14:10:28.31	182.06	3.89	-39.5	-40.8	20.4	0.00e+00	0	32	0	1526726656	50	7025
2026-01-08 14:10:32.34	182.19	3.62	-39.4	-40.7	20.5	0.00e+00	0	32	0	1535115264	52	6192
2026-01-08 14:10:36.38	182.33	3.35	-39.6	-40.9	20.1	0.00e+00	0	32	0	1542455296	52	6390
2026-01-08 14:10:40.41	182.46	3.09	-39.7	-41.1	19.9	0.00e+00	0	32	0	1549795328	52	6513
2026-01-08 14:10:44.45	182.59	2.83	-48.1	-63.3	3.6	1.51e+00	0	33	104	1551892480	60	53019
2026-01-08 14:10:48.49	182.71	2.57	-48.5	-63.6	3.6	1.51e+00	0	33	104	1551892480	60	54989
2026-01-08 14:10:52.53	182.84	2.31	-48.5	-63.7	3.6	1.51e+00	0	33	104	1551892480	60	55488
2026-01-08 14:10:56.57	182.96	2.05	-48.5	-63.7	3.6	1.51e+00	0	33	104	1551892480	60	55196
2026-01-08 14:11:00.61	183.08	1.80	-48.5	-63.6	3.6	1.51e+00	0	33	104	1551892480	60	54978
2026-01-08 14:11:04.65	183.20	1.55	-48.5	-63.7	3.6	1.51e+00	0	33	104	1551892480	60	55074
2026-01-08 14:11:08.69	183.32	1.30	-48.5	-63.7	3.6	1.51e+00	0	33	104	1551892480	60	55086
2026-01-08 14:11:12.73	183.43	1.06	-48.4	-63.6	3.6	1.51e+00	0	33	104	1551892480	60	54761
2026-01-08 14:11:16.77	183.55	0.81	-48.4	-63.6	3.6	1.51e+00	0	33	104	1551892480	60	54539
2026-01-08 14:11:20.80	183.66	0.57	-48.4	-63.6	3.6	1.51e+00	0	33	104	1551892480	60	54432
2026-01-08 14:11:24.84	183.77	0.33	-48.4	-63.6	3.6	1.51e+00	0	33	104	1551892480	60	54788
2026-01-08 14:11:28.88	183.88	0.09	-48.4	-63.6	3.6	1.51e+00	0	33	104	1551892480	60	54784

#Closed at: 2026-01-08 14:11:30
#Recorded file [1551 MB]: D:/lorett/data/35029_260109_015608.dat