passes_logs/2026/01/08/R4.6S_Anadyr/R4.6S_Anadyr__20260108_033539_NOAA_20_JPSS-1_rec.log

#Pass ID: 20260108_033539_NOAA 20 (JPSS-1)
#Satellite: NOAA 20 (JPSS-1)
#Configuration: NOAA 20
#almurnet v.1.7.20251203
#Start time: 2026-01-08 03:35:40

#Version: 2.2.20231116
#Station: R4.6S_Anadyr
#Location: 177.4865 lon 64.73178 lat
#TLE: 1 43013U 17073A   26005.46207808  .00000128  00000+0  81791-4 0  9997
#TLE: 2 43013  98.7627 306.5027 0001826  53.0458 307.0885 14.19533487421381

#Time	Az	El	Level	Level2	SNR	BER	BlckErr	Temp	State	Recorded	gain1	gain2
2026-01-08 03:35:40.46	248.91	0.06	-48.9	-63.8	3.5	1.51e+00	0	34	0	0	60	56200
2026-01-08 03:35:43.48	249.21	0.17	-49.0	-64.2	3.6	1.51e+00	0	36	104	0	60	58542
2026-01-08 03:35:46.51	249.51	0.28	-48.8	-64.2	3.6	1.51e+00	0	36	104	0	60	58484
2026-01-08 03:35:49.54	249.82	0.40	-49.1	-64.3	3.6	1.51e+00	0	36	104	0	60	59287
2026-01-08 03:35:52.57	250.13	0.51	-49.1	-64.2	3.6	1.51e+00	0	36	104	0	60	58697
2026-01-08 03:35:55.60	250.45	0.63	-48.8	-63.9	3.6	1.51e+00	0	36	104	0	60	56931
2026-01-08 03:35:58.63	250.76	0.74	-47.5	-62.6	3.6	1.51e+00	0	36	104	0	60	48730
2026-01-08 03:36:01.66	251.08	0.85	-47.5	-62.6	3.6	1.51e+00	0	36	104	0	60	49000
2026-01-08 03:36:04.69	251.40	0.97	-47.5	-62.6	3.6	1.51e+00	0	36	104	0	60	48949
2026-01-08 03:36:07.72	251.72	1.08	-47.5	-62.6	3.6	1.51e+00	0	36	104	0	60	48716
2026-01-08 03:36:10.75	252.04	1.19	-47.5	-62.7	3.6	1.51e+00	0	36	104	0	60	49127
2026-01-08 03:36:13.78	252.37	1.30	-47.5	-62.6	3.6	1.51e+00	0	36	104	0	60	49035
2026-01-08 03:36:16.81	252.70	1.42	-47.5	-62.5	3.6	1.51e+00	0	36	104	0	60	48395
2026-01-08 03:36:19.84	253.03	1.53	-47.5	-62.6	3.6	1.51e+00	0	37	104	0	60	48856
2026-01-08 03:36:22.87	253.36	1.64	-47.5	-62.6	3.6	1.51e+00	0	37	104	0	60	48787
2026-01-08 03:36:25.90	253.70	1.75	-47.5	-62.6	3.6	1.51e+00	0	37	104	0	60	48593
2026-01-08 03:36:28.93	254.04	1.86	-47.5	-62.6	3.6	1.51e+00	0	37	104	0	60	49020
2026-01-08 03:36:31.96	254.38	1.97	-47.5	-62.6	3.6	1.51e+00	0	37	104	0	60	48561
2026-01-08 03:36:34.99	254.72	2.08	-47.5	-62.6	3.6	1.51e+00	0	37	104	0	60	48777
2026-01-08 03:36:38.02	255.07	2.19	-47.5	-62.6	3.6	1.51e+00	0	37	104	0	60	48981
2026-01-08 03:36:41.05	255.42	2.30	-47.5	-62.6	3.6	1.51e+00	0	37	104	0	60	48786
2026-01-08 03:36:44.08	255.77	2.41	-47.5	-62.5	3.6	1.51e+00	0	37	104	0	60	48346
2026-01-08 03:36:47.11	256.12	2.52	-47.5	-62.5	3.6	1.51e+00	0	37	104	0	60	48153
2026-01-08 03:36:50.14	256.48	2.62	-47.5	-62.5	3.6	1.51e+00	0	37	104	0	60	48438
2026-01-08 03:36:53.17	256.83	2.73	-47.4	-61.7	3.6	1.51e+00	0	37	104	0	60	43900
2026-01-08 03:36:56.20	257.19	2.84	-46.6	-53.4	7.5	2.43e-01	92	37	0	0	60	16912
2026-01-08 03:36:59.23	257.56	2.94	-44.2	-47.3	14.3	2.20e-06	90	37	0	5242880	60	8338
2026-01-08 03:37:02.26	257.92	3.05	-48.0	-63.1	3.6	1.37e+00	0	37	104	9437184	60	51570
2026-01-08 03:37:05.29	258.29	3.15	-40.7	-42.1	19.6	0.00e+00	62	37	0	12582912	56	5794
2026-01-08 03:37:08.32	258.66	3.26	-40.7	-42.1	19.6	0.00e+00	92	37	0	17825792	54	6520
2026-01-08 03:37:11.34	259.03	3.36	-40.6	-42.0	19.7	0.00e+00	91	37	0	24117248	54	6432
2026-01-08 03:37:14.37	259.41	3.47	-40.5	-41.9	19.9	0.00e+00	12	37	0	29360128	54	6355
2026-01-08 03:37:17.40	259.79	3.57	-40.2	-41.5	20.2	0.00e+00	90	37	0	34603008	54	6044
2026-01-08 03:37:20.43	260.17	3.67	-40.4	-41.7	20.0	0.00e+00	91	37	0	40894464	54	6220
2026-01-08 03:37:23.46	260.55	3.77	-40.4	-41.8	20.0	0.00e+00	0	37	0	46137344	54	6281
2026-01-08 03:37:26.49	260.94	3.87	-40.6	-42.0	19.8	0.00e+00	91	37	0	52428800	54	6408
2026-01-08 03:37:29.51	261.32	3.97	-40.8	-42.2	19.7	0.00e+00	92	37	0	57671680	54	6563
2026-01-08 03:37:32.54	261.72	4.07	-40.7	-42.1	19.7	0.00e+00	37	37	0	62914560	54	6536
2026-01-08 03:37:35.57	262.11	4.17	-40.6	-42.0	19.8	0.00e+00	91	37	0	69206016	54	6440
2026-01-08 03:37:38.60	262.51	4.27	-40.6	-42.0	19.9	0.00e+00	92	37	0	74448896	54	6415
2026-01-08 03:37:41.63	262.90	4.37	-40.7	-42.1	19.8	0.00e+00	91	37	0	80740352	54	6473
2026-01-08 03:37:44.66	263.30	4.46	-40.5	-41.9	19.7	0.00e+00	91	37	0	85983232	54	6344
2026-01-08 03:37:47.69	263.71	4.56	-40.5	-41.9	20.2	0.00e+00	92	37	0	92274688	54	6319
2026-01-08 03:37:50.72	264.11	4.65	-40.3	-41.6	20.3	0.00e+00	91	37	0	97517568	54	6131
2026-01-08 03:37:53.75	264.52	4.75	-40.6	-41.9	20.2	9.16e-02	55	37	0	102760448	58	5043
2026-01-08 03:37:56.78	264.93	4.84	-40.3	-41.5	20.5	0.00e+00	91	37	0	109051904	54	6095
2026-01-08 03:37:59.81	265.35	4.93	-40.4	-41.7	20.3	0.00e+00	91	37	0	114294784	54	6188
2026-01-08 03:38:02.84	265.76	5.02	-40.1	-41.3	20.6	0.00e+00	0	37	0	120586240	54	5964
2026-01-08 03:38:05.87	266.18	5.11	-40.0	-41.3	20.7	0.00e+00	92	37	0	125829120	54	5919
2026-01-08 03:38:08.90	266.60	5.20	-40.0	-41.2	20.8	0.00e+00	90	37	0	131072000	54	5881
2026-01-08 03:38:11.93	267.03	5.29	-40.2	-41.5	20.5	0.00e+00	92	37	0	137363456	54	6078
2026-01-08 03:38:14.95	267.45	5.38	-40.4	-41.7	20.3	0.00e+00	90	37	0	142606336	54	6213
2026-01-08 03:38:17.98	267.88	5.46	-40.4	-41.7	20.4	0.00e+00	92	37	0	148897792	54	6186
2026-01-08 03:38:21.01	268.31	5.55	-40.2	-41.5	20.6	0.00e+00	92	37	0	154140672	54	6037
2026-01-08 03:38:24.04	268.74	5.63	-40.4	-41.7	20.4	0.00e+00	92	37	0	160432128	54	6215
2026-01-08 03:38:27.07	269.18	5.72	-40.4	-41.7	20.5	0.00e+00	92	37	0	165675008	54	6202
2026-01-08 03:38:30.10	269.62	5.80	-40.4	-41.7	20.4	0.00e+00	92	37	0	170917888	54	6203
2026-01-08 03:38:33.12	270.06	5.88	-40.5	-41.8	20.3	0.00e+00	75	37	0	177209344	54	6308
2026-01-08 03:38:36.16	270.50	5.96	-40.6	-41.9	20.2	0.00e+00	92	37	0	182452224	54	6362
2026-01-08 03:38:39.18	270.94	6.04	-40.9	-42.4	19.9	0.00e+00	92	37	0	188743680	54	6699
2026-01-08 03:38:42.21	271.39	6.11	-40.8	-42.2	20.0	0.00e+00	39	37	0	193986560	54	6579
2026-01-08 03:38:45.24	271.84	6.19	-40.9	-42.3	19.9	0.00e+00	91	37	0	199229440	54	6677
2026-01-08 03:38:48.26	272.29	6.26	-40.8	-42.2	19.9	0.00e+00	90	37	0	205520896	54	6564
2026-01-08 03:38:51.29	272.74	6.34	-40.7	-42.1	20.1	0.00e+00	90	37	0	210763776	54	6497
2026-01-08 03:38:54.32	273.20	6.41	-40.5	-41.8	20.4	0.00e+00	46	37	0	217055232	54	6305
2026-01-08 03:38:57.35	273.66	6.48	-40.6	-41.9	20.3	0.00e+00	92	37	0	222298112	54	6335
2026-01-08 03:39:00.37	274.12	6.55	-40.8	-42.1	20.1	0.00e+00	92	37	0	228589568	54	6508
2026-01-08 03:39:03.40	274.58	6.62	-40.8	-42.1	20.1	0.00e+00	11	37	0	233832448	54	6539
2026-01-08 03:39:06.43	275.04	6.69	-40.8	-42.2	20.0	0.00e+00	92	37	0	239075328	54	6544
2026-01-08 03:39:09.46	275.51	6.75	-40.8	-42.1	20.1	0.00e+00	92	37	0	245366784	54	6523
2026-01-08 03:39:12.49	275.98	6.81	-40.5	-41.8	20.4	0.00e+00	0	37	0	250609664	54	6282
2026-01-08 03:39:15.52	276.45	6.88	-40.5	-41.7	20.5	0.00e+00	32	37	0	256901120	54	6237
2026-01-08 03:39:18.54	276.92	6.94	-40.6	-41.9	20.3	0.00e+00	92	37	0	262144000	54	6384
2026-01-08 03:39:21.57	277.39	7.00	-40.7	-42.1	20.1	0.00e+00	92	37	0	267386880	54	6476
2026-01-08 03:39:24.60	277.87	7.05	-40.7	-42.0	20.2	0.00e+00	74	37	0	273678336	54	6425
2026-01-08 03:39:27.63	278.35	7.11	-40.7	-42.0	20.3	0.00e+00	92	37	0	278921216	54	6417
2026-01-08 03:39:30.66	278.83	7.17	-40.6	-41.9	20.3	0.00e+00	92	37	0	285212672	54	6345
2026-01-08 03:39:33.68	279.31	7.22	-40.8	-42.1	20.2	0.00e+00	0	37	0	290455552	54	6495
2026-01-08 03:39:36.71	279.79	7.27	-40.7	-42.1	20.2	0.00e+00	92	37	0	295698432	54	6477
2026-01-08 03:39:39.74	280.27	7.32	-40.8	-42.1	20.1	0.00e+00	92	37	0	301989888	54	6515
2026-01-08 03:39:42.77	280.76	7.37	-40.9	-42.3	20.0	0.00e+00	0	37	0	307232768	54	6639
2026-01-08 03:39:45.80	281.25	7.42	-40.9	-42.2	20.1	0.00e+00	92	37	0	313524224	54	6577
2026-01-08 03:39:48.83	281.74	7.46	-40.9	-42.2	20.0	0.00e+00	92	37	0	318767104	54	6604
2026-01-08 03:39:51.85	282.22	7.50	-40.7	-42.1	20.2	0.00e+00	2	37	0	325058560	54	6465
2026-01-08 03:39:54.88	282.72	7.55	-40.7	-42.0	20.2	0.00e+00	12	37	0	330301440	54	6456
2026-01-08 03:39:57.91	283.21	7.59	-40.8	-42.1	20.2	0.00e+00	92	37	0	335544320	54	6493
2026-01-08 03:40:00.94	283.70	7.62	-40.8	-42.1	20.2	0.00e+00	90	37	0	341835776	54	6500
2026-01-08 03:40:03.97	284.20	7.66	-40.6	-41.9	20.4	0.00e+00	53	37	0	347078656	54	6384
2026-01-08 03:40:07.00	284.70	7.69	-40.7	-42.0	20.3	0.00e+00	92	37	0	353370112	54	6452
2026-01-08 03:40:10.02	285.19	7.73	-40.5	-41.8	20.4	0.00e+00	91	37	0	358612992	54	6294
2026-01-08 03:40:13.05	285.69	7.76	-40.7	-42.0	20.3	0.00e+00	0	37	0	363855872	54	6430
2026-01-08 03:40:16.08	286.19	7.79	-40.9	-42.2	20.1	0.00e+00	91	37	0	370147328	54	6584
2026-01-08 03:40:19.11	286.69	7.81	-41.0	-42.4	19.9	0.00e+00	92	37	0	375390208	54	6722
2026-01-08 03:40:22.14	287.19	7.84	-41.1	-42.5	19.9	0.00e+00	34	37	0	381681664	54	6771
2026-01-08 03:40:25.17	287.69	7.86	-41.2	-42.7	19.7	0.00e+00	91	37	0	386924544	54	6950
2026-01-08 03:40:28.19	288.19	7.89	-41.4	-42.9	19.4	0.00e+00	90	37	0	393216000	54	7136
2026-01-08 03:40:31.22	288.70	7.91	-41.2	-42.6	19.7	0.00e+00	92	37	0	398458880	54	6912
2026-01-08 03:40:34.25	289.20	7.92	-41.1	-42.5	19.8	0.00e+00	2	37	0	403701760	54	6814
2026-01-08 03:40:37.28	289.71	7.94	-41.3	-42.7	19.7	0.00e+00	92	37	0	409993216	54	6938
2026-01-08 03:40:40.31	290.21	7.95	-41.6	-43.1	19.3	0.00e+00	96	37	0	415236096	54	7334
2026-01-08 03:40:43.34	290.72	7.97	-41.9	-43.4	19.0	0.00e+00	7	37	0	421527552	56	6769
2026-01-08 03:40:46.37	291.22	7.98	-41.7	-43.2	19.2	0.00e+00	90	37	0	426770432	56	6605
2026-01-08 03:40:49.40	291.73	7.99	-41.5	-43.0	19.4	0.00e+00	92	37	0	432013312	56	6443
2026-01-08 03:40:52.42	292.24	7.99	-41.3	-42.8	19.9	0.00e+00	0	37	0	438304768	56	6260
2026-01-08 03:40:55.45	292.74	8.00	-41.1	-42.5	20.0	0.00e+00	92	37	0	443547648	56	6071
2026-01-08 03:40:58.48	293.25	8.00	-41.1	-42.4	20.1	0.00e+00	92	37	0	449839104	56	6008
2026-01-08 03:41:01.50	293.75	8.00	-41.1	-42.5	20.0	0.00e+00	0	37	0	455081984	56	6087
2026-01-08 03:41:04.53	294.26	8.00	-41.2	-42.5	20.0	0.00e+00	39	37	0	461373440	56	6097
2026-01-08 03:41:07.56	294.77	8.00	-40.8	-42.1	20.4	0.00e+00	91	37	0	466616320	54	6506
2026-01-08 03:41:10.59	295.27	7.99	-40.5	-41.8	20.6	0.00e+00	92	37	0	471859200	54	6263
2026-01-08 03:41:13.61	295.78	7.99	-40.3	-41.5	20.8	0.00e+00	13	37	0	478150656	54	6080
2026-01-08 03:41:16.65	296.29	7.98	-40.2	-41.4	20.9	0.00e+00	92	37	0	483393536	54	6019
2026-01-08 03:41:19.67	296.79	7.97	-40.3	-41.5	20.9	0.00e+00	92	37	0	489684992	54	6100
2026-01-08 03:41:22.70	297.30	7.95	-40.3	-41.5	20.8	0.00e+00	34	37	0	494927872	54	6092
2026-01-08 03:41:25.73	297.80	7.94	-40.0	-41.2	21.2	0.00e+00	92	37	0	500170752	54	5854
2026-01-08 03:41:28.76	298.31	7.92	-39.9	-41.0	21.2	0.00e+00	92	37	0	506462208	52	6440
2026-01-08 03:41:31.78	298.81	7.91	-39.9	-41.1	21.2	0.00e+00	0	37	0	511705088	52	6480
2026-01-08 03:41:34.82	299.31	7.89	-40.0	-41.2	21.2	0.00e+00	42	37	0	517996544	52	6588
2026-01-08 03:41:37.84	299.81	7.86	-39.8	-41.0	21.2	0.00e+00	92	37	0	523239424	52	6444
2026-01-08 03:41:40.87	300.32	7.84	-39.7	-40.8	21.4	0.00e+00	92	37	0	529530880	52	6281
2026-01-08 03:41:43.90	300.82	7.82	-39.8	-41.0	21.4	0.00e+00	38	37	0	534773760	52	6411
2026-01-08 03:41:46.93	301.32	7.79	-39.6	-40.7	21.6	0.00e+00	95	37	0	540016640	52	6231
2026-01-08 03:41:49.96	301.81	7.76	-39.9	-41.0	21.4	0.00e+00	92	37	0	546308096	52	6449
2026-01-08 03:41:52.99	302.31	7.73	-39.9	-41.1	21.2	0.00e+00	2	37	0	551550976	52	6480
2026-01-08 03:41:56.02	302.81	7.70	-39.8	-41.0	21.3	0.00e+00	0	37	0	557842432	52	6391
2026-01-08 03:41:59.05	303.31	7.66	-39.8	-40.9	21.4	0.00e+00	92	37	0	563085312	52	6364
2026-01-08 03:42:02.08	303.80	7.63	-39.7	-40.9	21.4	0.00e+00	0	37	0	568328192	52	6343
2026-01-08 03:42:05.11	304.29	7.59	-39.9	-41.1	21.1	0.00e+00	0	37	0	574619648	52	6511
2026-01-08 03:42:08.14	304.78	7.55	-39.9	-41.1	21.2	0.00e+00	90	37	0	579862528	52	6475
2026-01-08 03:42:11.17	305.28	7.51	-39.9	-41.1	21.2	0.00e+00	39	37	0	586153984	52	6494
2026-01-08 03:42:14.20	305.76	7.46	-40.1	-41.3	20.9	0.00e+00	42	37	0	591396864	52	6639
2026-01-08 03:42:17.23	306.25	7.42	-40.0	-41.3	20.9	0.00e+00	92	37	0	597688320	52	6621
2026-01-08 03:42:20.25	306.74	7.37	-39.9	-41.0	21.1	0.00e+00	92	37	0	602931200	52	6448
2026-01-08 03:42:23.28	307.22	7.32	-39.8	-41.0	21.3	0.00e+00	0	37	0	608174080	52	6403
2026-01-08 03:42:26.31	307.70	7.27	-39.8	-40.9	21.4	0.00e+00	2	37	0	614465536	52	6369
2026-01-08 03:42:29.34	308.19	7.22	-40.1	-41.3	21.1	0.00e+00	92	37	0	619708416	52	6621
2026-01-08 03:42:32.36	308.66	7.17	-40.3	-41.6	20.9	0.00e+00	37	37	0	625999872	52	6860
2026-01-08 03:42:35.39	309.14	7.12	-40.2	-41.5	20.9	0.00e+00	5	37	0	631242752	52	6783
2026-01-08 03:42:38.41	309.62	7.06	-40.0	-41.1	21.0	0.00e+00	92	37	0	636485632	52	6537
2026-01-08 03:42:41.44	310.09	7.00	-39.8	-41.0	21.2	0.00e+00	0	37	0	642777088	52	6404
2026-01-08 03:42:44.47	310.56	6.94	-39.6	-40.7	21.5	0.00e+00	36	37	0	648019968	52	6205
2026-01-08 03:42:47.49	311.03	6.88	-39.5	-40.6	21.5	0.00e+00	92	37	0	654311424	52	6161
2026-01-08 03:42:50.52	311.50	6.82	-39.3	-40.4	21.6	0.00e+00	43	37	0	659554304	52	6030
2026-01-08 03:42:53.55	311.97	6.76	-39.2	-40.2	21.9	0.00e+00	37	37	0	664797184	52	5893
2026-01-08 03:42:56.58	312.43	6.69	-39.4	-40.5	21.6	0.00e+00	92	37	0	671088640	52	6085
2026-01-08 03:42:59.61	312.90	6.63	-39.7	-40.9	21.2	0.00e+00	92	37	0	676331520	52	6352
2026-01-08 03:43:02.63	313.36	6.56	-39.7	-40.8	21.3	0.00e+00	0	37	0	682622976	52	6312
2026-01-08 03:43:05.66	313.82	6.49	-39.6	-40.8	21.4	0.00e+00	18	37	0	687865856	52	6286
2026-01-08 03:43:08.69	314.27	6.42	-39.8	-41.0	21.2	0.00e+00	92	37	0	694157312	52	6433
2026-01-08 03:43:11.72	314.73	6.35	-39.5	-40.7	21.3	0.00e+00	37	37	0	699400192	52	6202
2026-01-08 03:43:14.75	315.18	6.28	-39.4	-40.6	21.5	0.00e+00	38	37	0	704643072	52	6112
2026-01-08 03:43:17.78	315.63	6.20	-39.3	-40.4	21.7	0.00e+00	90	37	0	710934528	52	6007
2026-01-08 03:43:20.80	316.08	6.13	-39.7	-40.8	21.4	0.00e+00	50	37	0	716177408	52	6307
2026-01-08 03:43:23.83	316.52	6.05	-40.2	-41.5	20.7	1.50e-06	2	37	0	722468864	52	6774
2026-01-08 03:43:26.86	316.96	5.97	-40.5	-41.8	20.3	7.00e-07	92	37	0	727711744	52	7030
2026-01-08 03:43:29.89	317.41	5.89	-40.4	-41.7	20.4	0.00e+00	92	37	0	732954624	52	6976
2026-01-08 03:43:32.92	317.84	5.81	-40.1	-41.3	20.8	0.00e+00	0	37	0	739246080	52	6691
2026-01-08 03:43:35.94	318.28	5.73	-40.1	-41.3	20.8	0.00e+00	36	37	0	744488960	52	6652
2026-01-08 03:43:38.97	318.71	5.65	-40.1	-41.4	20.6	0.00e+00	92	37	0	750780416	52	6716
2026-01-08 03:43:41.99	319.14	5.57	-40.2	-41.5	20.6	0.00e+00	46	37	0	756023296	52	6798
2026-01-08 03:43:45.02	319.57	5.48	-40.4	-41.8	20.2	0.00e+00	2	37	0	762314752	52	7008
2026-01-08 03:43:48.05	320.00	5.40	-41.1	-42.5	19.4	0.00e+00	92	37	0	767557632	54	6836
2026-01-08 03:43:51.08	320.42	5.31	-41.8	-43.4	18.8	0.00e+00	0	37	0	772800512	54	7595
2026-01-08 03:43:54.10	320.84	5.22	-42.3	-44.1	18.2	0.00e+00	0	37	0	779091968	56	7286
2026-01-08 03:43:57.13	321.26	5.13	-42.1	-43.8	18.2	0.00e+00	36	37	0	784334848	56	7085
2026-01-08 03:44:00.16	321.68	5.04	-41.9	-43.6	18.4	0.00e+00	2	37	0	790626304	56	6870
2026-01-08 03:44:03.18	322.09	4.95	-41.8	-43.4	18.7	0.00e+00	2	37	0	795869184	56	6747
2026-01-08 03:44:06.22	322.51	4.86	-41.5	-43.1	19.1	0.00e+00	0	37	0	801112064	56	6470
2026-01-08 03:44:09.25	322.92	4.77	-41.4	-43.0	19.2	0.00e+00	92	37	0	807403520	56	6399
2026-01-08 03:44:12.27	323.32	4.68	-41.7	-43.3	18.5	0.00e+00	0	37	0	812646400	56	6656
2026-01-08 03:44:15.30	323.73	4.58	-42.4	-44.2	17.5	0.00e+00	0	37	0	818937856	56	7397
2026-01-08 03:44:18.33	324.13	4.49	-43.0	-45.2	16.9	0.00e+00	92	37	0	824180736	58	7356
2026-01-08 03:44:21.36	324.53	4.39	-43.3	-45.6	16.5	0.00e+00	45	37	0	829423616	58	7688
2026-01-08 03:44:24.39	324.92	4.30	-43.2	-45.4	16.5	0.00e+00	7	37	0	835715072	58	7546
2026-01-08 03:44:27.42	325.32	4.20	-43.1	-45.3	16.6	0.00e+00	5	37	0	840957952	58	7504
2026-01-08 03:44:30.44	325.71	4.10	-43.1	-45.3	16.4	0.00e+00	0	37	0	847249408	58	7445
2026-01-08 03:44:33.47	326.10	4.01	-42.7	-44.7	17.2	0.00e+00	6	38	0	852492288	58	6998
2026-01-08 03:44:36.50	326.49	3.91	-42.5	-44.5	17.3	0.00e+00	33	37	0	858783744	58	6824
2026-01-08 03:44:39.52	326.87	3.81	-42.3	-44.2	17.3	0.00e+00	90	37	0	864026624	58	6613
2026-01-08 03:44:42.55	327.25	3.71	-42.5	-44.5	17.3	0.00e+00	54	37	0	869269504	58	6798
2026-01-08 03:44:45.58	327.63	3.61	-42.2	-44.1	17.6	0.00e+00	7	37	0	875560960	58	6513
2026-01-08 03:44:48.61	328.01	3.50	-42.1	-44.1	17.7	0.00e+00	92	37	0	880803840	58	6470
2026-01-08 03:44:51.64	328.38	3.40	-42.1	-44.1	17.3	0.00e+00	0	37	0	887095296	58	6475
2026-01-08 03:44:54.67	328.75	3.30	-42.7	-45.0	16.5	0.00e+00	0	37	0	892338176	58	7182
2026-01-08 03:44:57.69	329.12	3.20	-43.2	-45.8	15.2	0.00e+00	92	37	0	897581056	58	7953
2026-01-08 03:45:00.72	329.49	3.09	-43.4	-46.7	13.7	6.80e-06	34	37	0	903872512	58	8741
2026-01-08 03:45:03.75	329.85	2.99	-47.7	-62.8	3.6	4.52e-01	0	37	104	909115392	60	50039
2026-01-08 03:45:06.78	330.22	2.88	-48.8	-64.0	3.6	1.51e+00	0	37	104	909115392	60	57005
2026-01-08 03:45:09.81	330.58	2.78	-49.0	-64.2	3.6	1.51e+00	0	37	104	909115392	60	58869
2026-01-08 03:45:12.84	330.93	2.67	-49.0	-64.3	3.6	1.51e+00	0	37	104	909115392	60	59037
2026-01-08 03:45:15.88	331.29	2.56	-49.1	-64.3	3.6	1.51e+00	0	38	104	909115392	60	59185
2026-01-08 03:45:18.91	331.64	2.46	-49.0	-64.2	3.6	1.51e+00	0	37	104	909115392	60	58458
2026-01-08 03:45:21.93	331.99	2.35	-49.0	-64.2	3.6	1.51e+00	0	37	104	909115392	60	58731
2026-01-08 03:45:24.96	332.34	2.24	-49.0	-64.1	3.6	1.51e+00	0	37	104	909115392	60	58198
2026-01-08 03:45:28.00	332.68	2.13	-49.0	-64.2	3.6	1.51e+00	0	37	104	909115392	60	58940
2026-01-08 03:45:31.03	333.02	2.03	-49.0	-64.2	3.6	1.51e+00	0	37	104	909115392	60	58611
2026-01-08 03:45:34.05	333.36	1.92	-49.0	-64.2	3.6	1.51e+00	0	37	104	909115392	60	58471
2026-01-08 03:45:37.08	333.70	1.81	-49.0	-64.2	3.6	1.51e+00	0	37	104	909115392	60	58295
2026-01-08 03:45:40.11	334.04	1.70	-49.0	-64.2	3.6	1.51e+00	0	37	104	909115392	60	58379
2026-01-08 03:45:43.14	334.37	1.59	-49.0	-64.1	3.6	1.51e+00	0	37	104	909115392	60	58237
2026-01-08 03:45:46.17	334.70	1.48	-49.0	-64.2	3.6	1.51e+00	0	37	104	909115392	60	58437
2026-01-08 03:45:49.20	335.03	1.37	-48.9	-64.1	3.6	1.51e+00	0	37	104	909115392	60	58261
2026-01-08 03:45:52.23	335.35	1.26	-48.9	-64.1	3.6	1.51e+00	0	37	104	909115392	60	58199
2026-01-08 03:45:55.26	335.68	1.14	-48.9	-64.1	3.6	1.51e+00	0	37	104	909115392	60	58170
2026-01-08 03:45:58.29	336.00	1.03	-48.9	-64.1	3.6	1.51e+00	0	37	104	909115392	60	58079
2026-01-08 03:46:01.32	336.32	0.92	-48.9	-64.1	3.6	1.51e+00	0	37	104	909115392	60	58243
2026-01-08 03:46:04.34	336.63	0.81	-48.9	-64.1	3.6	1.51e+00	0	37	104	909115392	60	58254
2026-01-08 03:46:07.37	336.95	0.70	-48.9	-64.1	3.6	1.51e+00	0	37	104	909115392	60	58084
2026-01-08 03:46:10.40	337.26	0.59	-48.9	-64.1	3.6	1.51e+00	0	37	104	909115392	60	58054
2026-01-08 03:46:13.42	337.57	0.47	-48.9	-64.1	3.6	1.51e+00	0	37	104	909115392	60	58156
2026-01-08 03:46:16.45	337.88	0.36	-48.9	-64.2	3.6	1.51e+00	0	37	104	909115392	60	58468
2026-01-08 03:46:19.48	338.18	0.25	-48.9	-64.1	3.6	1.51e+00	0	37	104	909115392	60	57898
2026-01-08 03:46:22.51	338.49	0.13	-48.9	-64.1	3.6	1.51e+00	0	37	104	909115392	60	58154
2026-01-08 03:46:25.54	338.79	0.02	-48.9	-64.1	3.6	1.51e+00	0	37	104	909115392	60	58012

#Closed at: 2026-01-08 03:46:26
#Recorded file [909 MB]: D:/lorett/data/35029_260108_153540.dat