passes_logs/2026/01/08/R4.6S_Anadyr/R4.6S_Anadyr__20260108_183531_SUOMI_NPP_rec.log

#Pass ID: 20260108_183531_SUOMI NPP
#Satellite: SUOMI NPP
#Configuration: NPP
#almurnet v.1.7.20251203
#Start time: 2026-01-08 18:35:34

#Version: 2.2.20231116
#Station: R4.6S_Anadyr
#Location: 177.4865 lon 64.73178 lat
#TLE: 1 37849U 11061A   26008.05542337  .00000108  00000+0  71976-4 0  9997
#TLE: 2 37849  98.7805 310.1641 0002540  75.6410 284.5048 14.19523335735721

#Time	Az	El	Level	Level2	SNR	BER	BlckErr	Temp	State	Recorded	gain1	gain2
2026-01-08 18:35:34.08	41.45	0.13	-48.4	-59.1	3.4	8.46e-01	0	30	0	0	60	32411
2026-01-08 18:35:37.11	41.23	0.28	-48.5	-63.7	3.6	1.51e+00	0	31	104	0	60	55567
2026-01-08 18:35:40.13	41.01	0.43	-48.7	-63.8	3.6	1.51e+00	0	31	104	0	60	56186
2026-01-08 18:35:43.16	40.79	0.58	-48.5	-63.7	3.6	1.51e+00	0	31	104	0	60	55517
2026-01-08 18:35:46.19	40.56	0.73	-48.4	-63.6	3.6	1.51e+00	0	32	104	0	60	54633
2026-01-08 18:35:49.22	40.34	0.88	-48.0	-63.1	3.6	1.51e+00	0	32	104	0	60	51744
2026-01-08 18:35:52.25	40.10	1.04	-46.9	-62.1	3.6	1.51e+00	0	32	104	0	60	45931
2026-01-08 18:35:55.28	39.87	1.19	-46.9	-62.0	3.6	1.51e+00	0	32	104	0	60	45651
2026-01-08 18:35:58.31	39.64	1.34	-46.9	-62.1	3.6	1.51e+00	0	32	104	0	60	45898
2026-01-08 18:36:01.33	39.40	1.50	-46.9	-62.1	3.6	1.51e+00	0	32	104	0	60	45919
2026-01-08 18:36:04.36	39.16	1.65	-46.9	-62.0	3.6	1.51e+00	0	32	104	0	60	45415
2026-01-08 18:36:07.39	38.92	1.80	-46.9	-62.0	3.6	1.51e+00	0	32	104	0	60	45741
2026-01-08 18:36:10.43	38.67	1.96	-46.9	-62.0	3.6	1.51e+00	0	32	104	0	60	45612
2026-01-08 18:36:13.46	38.42	2.11	-46.9	-61.7	3.6	1.51e+00	0	32	104	0	60	44102
2026-01-08 18:36:16.49	38.17	2.27	-46.9	-61.9	3.6	1.51e+00	0	32	104	0	60	45113
2026-01-08 18:36:19.51	37.92	2.42	-46.9	-61.9	3.6	1.51e+00	0	32	104	0	60	45115
2026-01-08 18:36:22.54	37.66	2.58	-46.9	-62.0	3.6	1.51e+00	0	32	104	0	60	45460
2026-01-08 18:36:25.57	37.40	2.74	-46.8	-60.8	3.6	1.51e+00	0	32	104	0	60	39442
2026-01-08 18:36:28.59	37.14	2.89	-46.8	-59.5	3.7	1.51e+00	0	32	104	0	60	33989
2026-01-08 18:36:31.62	36.87	3.05	-45.5	-50.9	9.7	2.71e-02	0	32	0	3145728	60	12693
2026-01-08 18:36:34.65	36.60	3.21	-45.0	-49.7	5.5	1.50e+00	0	32	104	5242880	60	11074
2026-01-08 18:36:37.68	36.33	3.36	-44.5	-48.5	5.8	1.51e+00	0	32	104	7340032	60	9587
2026-01-08 18:36:40.71	36.06	3.52	-42.0	-44.1	17.0	0.00e+00	0	32	0	10485760	58	6465
2026-01-08 18:36:43.73	35.78	3.68	-41.4	-43.3	17.8	0.00e+00	0	32	0	16777216	56	6616
2026-01-08 18:36:46.76	35.50	3.84	-41.2	-42.9	18.2	0.00e+00	0	32	0	22020096	56	6342
2026-01-08 18:36:49.79	35.22	4.00	-41.0	-42.6	18.5	0.00e+00	0	32	0	28311552	56	6172
2026-01-08 18:36:52.82	34.93	4.16	-41.0	-42.7	18.4	0.00e+00	0	32	0	33554432	56	6196
2026-01-08 18:36:55.85	34.64	4.31	-41.0	-42.6	18.6	0.00e+00	0	32	0	38797312	56	6128
2026-01-08 18:36:58.87	34.35	4.47	-41.0	-42.7	18.6	0.00e+00	0	32	0	45088768	56	6178
2026-01-08 18:37:01.90	34.05	4.63	-41.3	-43.0	18.2	0.00e+00	0	32	0	50331648	56	6433
2026-01-08 18:37:04.93	33.75	4.79	-41.3	-43.0	18.1	0.00e+00	0	32	0	56623104	56	6446
2026-01-08 18:37:07.95	33.45	4.95	-41.4	-43.1	18.3	0.00e+00	0	32	0	61865984	56	6518
2026-01-08 18:37:10.98	33.14	5.11	-41.4	-43.2	18.1	0.00e+00	0	32	0	67108864	56	6587
2026-01-08 18:37:14.01	32.83	5.27	-41.5	-43.3	18.1	0.00e+00	0	32	0	73400320	56	6687
2026-01-08 18:37:17.04	32.51	5.43	-41.2	-42.9	18.5	0.00e+00	0	32	0	78643200	56	6378
2026-01-08 18:37:20.06	32.20	5.59	-41.0	-42.6	18.8	0.00e+00	0	32	0	84934656	56	6112
2026-01-08 18:37:23.09	31.87	5.75	-41.0	-42.7	18.7	0.00e+00	0	32	0	90177536	56	6176
2026-01-08 18:37:26.12	31.55	5.92	-41.1	-42.8	18.6	0.00e+00	0	32	0	96468992	56	6271
2026-01-08 18:37:29.15	31.22	6.08	-40.5	-42.1	19.2	0.00e+00	0	32	0	101711872	54	6473
2026-01-08 18:37:32.18	30.89	6.24	-40.7	-42.2	19.2	0.00e+00	0	32	0	106954752	54	6570
2026-01-08 18:37:35.20	30.55	6.40	-40.6	-42.1	19.0	0.00e+00	0	32	0	113246208	54	6521
2026-01-08 18:37:38.23	30.21	6.56	-40.8	-42.4	19.0	0.00e+00	0	32	0	118489088	54	6720
2026-01-08 18:37:41.26	29.87	6.72	-40.6	-42.1	19.3	0.00e+00	0	32	0	124780544	54	6507
2026-01-08 18:37:44.29	29.52	6.88	-40.9	-42.5	18.9	0.00e+00	0	32	0	130023424	54	6843
2026-01-08 18:37:47.32	29.17	7.04	-40.8	-42.3	19.1	0.00e+00	0	32	0	135266304	54	6682
2026-01-08 18:37:50.35	28.81	7.21	-40.3	-41.7	19.7	0.00e+00	0	32	0	141557760	54	6193
2026-01-08 18:37:53.38	28.45	7.37	-40.0	-41.4	20.0	0.00e+00	0	32	0	146800640	54	5995
2026-01-08 18:37:56.41	28.09	7.53	-39.9	-41.2	20.1	0.00e+00	0	32	0	153092096	54	5890
2026-01-08 18:37:59.43	27.72	7.69	-39.6	-40.9	20.6	0.00e+00	0	32	0	158334976	52	6348
2026-01-08 18:38:02.46	27.35	7.85	-39.7	-41.0	19.9	0.00e+00	0	32	0	164626432	52	6449
2026-01-08 18:38:05.48	26.97	8.01	-39.9	-41.2	20.4	0.00e+00	0	32	0	169869312	52	6558
2026-01-08 18:38:08.51	26.59	8.17	-39.6	-40.8	20.6	0.00e+00	0	32	0	175112192	52	6310
2026-01-08 18:38:11.54	26.20	8.33	-40.2	-41.6	20.0	0.00e+00	0	32	0	181403648	52	6858
2026-01-08 18:38:14.57	25.81	8.49	-40.4	-41.8	19.7	0.00e+00	0	32	0	186646528	52	7024
2026-01-08 18:38:17.60	25.42	8.65	-40.0	-41.3	20.3	0.00e+00	0	32	0	192937984	52	6649
2026-01-08 18:38:20.63	25.02	8.81	-39.9	-41.3	20.2	0.00e+00	0	32	0	198180864	52	6616
2026-01-08 18:38:23.65	24.62	8.97	-40.0	-41.3	20.2	0.00e+00	0	32	0	203423744	52	6649
2026-01-08 18:38:26.68	24.21	9.13	-40.0	-41.3	20.2	0.00e+00	0	32	0	209715200	52	6658
2026-01-08 18:38:29.71	23.80	9.29	-39.7	-40.9	20.6	0.00e+00	0	32	0	214958080	52	6371
2026-01-08 18:38:32.73	23.38	9.44	-39.8	-41.0	20.5	0.00e+00	0	32	0	221249536	52	6460
2026-01-08 18:38:35.76	22.96	9.60	-39.9	-41.2	20.3	0.00e+00	0	32	0	226492416	52	6574
2026-01-08 18:38:38.79	22.53	9.76	-39.5	-40.8	20.8	0.00e+00	0	32	0	231735296	52	6255
2026-01-08 18:38:41.81	22.10	9.92	-40.0	-41.3	20.3	0.00e+00	0	33	0	238026752	52	6663
2026-01-08 18:38:44.84	21.67	10.07	-40.2	-41.6	20.1	0.00e+00	0	32	0	243269632	52	6851
2026-01-08 18:38:47.86	21.23	10.23	-39.9	-41.3	20.3	0.00e+00	0	32	0	249561088	52	6618
2026-01-08 18:38:50.89	20.78	10.38	-40.2	-41.6	20.0	0.00e+00	0	32	0	254803968	52	6878
2026-01-08 18:38:53.91	20.33	10.53	-39.8	-41.1	20.6	0.00e+00	0	32	0	261095424	52	6521
2026-01-08 18:38:56.94	19.88	10.69	-39.5	-40.7	20.8	0.00e+00	0	32	0	266338304	52	6199
2026-01-08 18:38:59.97	19.42	10.84	-39.2	-40.4	21.1	0.00e+00	0	32	0	271581184	52	5989
2026-01-08 18:39:02.99	18.95	10.99	-38.7	-39.9	21.6	0.00e+00	0	32	0	277872640	52	5644
2026-01-08 18:39:06.02	18.49	11.14	-38.6	-39.7	21.3	0.00e+00	0	32	0	283115520	50	6219
2026-01-08 18:39:09.05	18.01	11.29	-38.4	-39.5	21.8	0.00e+00	0	32	0	289406976	50	6064
2026-01-08 18:39:12.08	17.53	11.44	-37.9	-38.9	22.4	0.00e+00	0	32	0	294649856	50	5691
2026-01-08 18:39:15.11	17.05	11.59	-37.7	-38.6	22.5	0.00e+00	0	32	0	299892736	48	6169
2026-01-08 18:39:18.13	16.56	11.73	-38.1	-39.1	22.3	0.00e+00	0	32	0	306184192	48	6510
2026-01-08 18:39:21.16	16.06	11.88	-38.1	-39.1	22.2	0.00e+00	0	33	0	311427072	48	6522
2026-01-08 18:39:24.19	15.56	12.02	-38.0	-39.0	22.1	0.00e+00	0	32	0	317718528	48	6447
2026-01-08 18:39:27.22	15.06	12.16	-37.8	-38.9	22.4	0.00e+00	0	32	0	322961408	48	6335
2026-01-08 18:39:30.25	14.55	12.30	-37.6	-38.5	22.6	0.00e+00	0	32	0	329252864	48	6092
2026-01-08 18:39:33.27	14.04	12.44	-37.8	-38.8	22.6	0.00e+00	0	32	0	334495744	48	6268
2026-01-08 18:39:36.30	13.52	12.58	-37.6	-38.5	22.7	0.00e+00	0	32	0	339738624	48	6092
2026-01-08 18:39:39.33	13.00	12.72	-37.9	-38.9	22.4	0.00e+00	0	32	0	346030080	48	6385
2026-01-08 18:39:42.35	12.47	12.85	-37.6	-38.6	22.8	0.00e+00	0	32	0	351272960	48	6131
2026-01-08 18:39:45.38	11.93	12.98	-36.8	-37.6	23.4	0.00e+00	0	32	0	357564416	48	5494
2026-01-08 18:39:48.41	11.40	13.12	-36.8	-37.7	23.4	0.00e+00	0	32	0	362807296	46	6208
2026-01-08 18:39:51.43	10.85	13.24	-36.7	-37.6	23.5	0.00e+00	0	32	0	368050176	46	6172
2026-01-08 18:39:54.46	10.30	13.37	-37.3	-38.2	22.8	0.00e+00	0	32	0	374341632	46	6588
2026-01-08 18:39:57.49	9.75	13.50	-38.1	-39.1	22.3	0.00e+00	0	33	0	379584512	48	6533
2026-01-08 18:40:00.51	9.20	13.62	-37.8	-38.8	22.5	0.00e+00	0	32	0	385875968	48	6288
2026-01-08 18:40:03.54	8.63	13.74	-37.6	-38.6	22.8	0.00e+00	0	33	0	391118848	48	6160
2026-01-08 18:40:06.57	8.06	13.86	-38.1	-39.1	22.3	0.00e+00	0	33	0	396361728	48	6508
2026-01-08 18:40:09.59	7.49	13.98	-37.8	-38.9	22.4	0.00e+00	0	32	0	402653184	48	6343
2026-01-08 18:40:12.62	6.92	14.09	-37.8	-38.8	22.6	0.00e+00	0	32	0	407896064	48	6279
2026-01-08 18:40:15.65	6.34	14.20	-37.4	-38.3	23.0	0.00e+00	0	32	0	414187520	48	5930
2026-01-08 18:40:18.68	5.75	14.31	-37.3	-38.3	23.0	0.00e+00	0	32	0	419430400	48	5903
2026-01-08 18:40:21.71	5.16	14.42	-37.4	-38.3	23.0	0.00e+00	0	32	0	425721856	48	5950
2026-01-08 18:40:24.73	4.57	14.53	-37.0	-37.9	23.3	0.00e+00	0	32	0	430964736	48	5646
2026-01-08 18:40:27.76	3.97	14.63	-37.8	-38.8	22.5	0.00e+00	0	33	0	436207616	48	6316
2026-01-08 18:40:30.79	3.37	14.73	-37.5	-38.6	22.8	0.00e+00	0	32	0	442499072	48	6107
2026-01-08 18:40:33.82	2.76	14.82	-37.0	-37.9	23.3	0.00e+00	0	33	0	447741952	48	5667
2026-01-08 18:40:36.84	2.15	14.92	-36.7	-37.6	23.3	0.00e+00	0	32	0	454033408	46	6154
2026-01-08 18:40:39.87	1.54	15.01	-36.3	-37.1	23.9	0.00e+00	0	32	0	459276288	46	5820
2026-01-08 18:40:42.90	0.92	15.10	-36.8	-37.7	23.7	0.00e+00	0	32	0	464519168	46	6195
2026-01-08 18:40:45.93	0.30	15.18	-36.8	-37.7	23.5	0.00e+00	0	32	0	470810624	46	6192
2026-01-08 18:40:48.95	359.68	15.26	-36.6	-37.5	23.4	0.00e+00	0	32	0	476053504	46	6060
2026-01-08 18:40:51.98	359.05	15.34	-37.2	-38.1	23.1	0.00e+00	0	32	0	482344960	46	6531
2026-01-08 18:40:55.01	358.42	15.42	-37.5	-38.5	22.8	0.00e+00	0	32	0	487587840	46	6820
2026-01-08 18:40:58.03	357.78	15.49	-37.5	-38.5	22.9	0.00e+00	0	33	0	492830720	46	6810
2026-01-08 18:41:01.06	357.15	15.55	-37.8	-38.8	22.7	0.00e+00	0	32	0	499122176	48	6259
2026-01-08 18:41:04.09	356.50	15.62	-37.6	-38.6	22.8	0.00e+00	0	32	0	504365056	48	6118
2026-01-08 18:41:07.12	355.86	15.68	-37.1	-38.0	23.2	0.00e+00	0	32	0	510656512	48	5722
2026-01-08 18:41:10.14	355.22	15.74	-37.3	-38.3	23.1	0.00e+00	0	33	0	515899392	48	5920
2026-01-08 18:41:13.17	354.57	15.79	-36.5	-37.4	23.7	0.00e+00	0	32	0	522190848	46	5975
2026-01-08 18:41:16.20	353.92	15.84	-36.6	-37.5	23.6	0.00e+00	0	32	0	527433728	46	6051
2026-01-08 18:41:19.22	353.27	15.89	-36.9	-37.8	23.5	0.00e+00	0	32	0	532676608	46	6284
2026-01-08 18:41:22.25	352.61	15.93	-37.1	-38.0	23.2	0.00e+00	0	32	0	538968064	46	6443
2026-01-08 18:41:25.27	351.96	15.97	-37.5	-38.5	23.0	0.00e+00	0	32	0	544210944	46	6793
2026-01-08 18:41:28.30	351.30	16.01	-37.8	-38.8	22.7	0.00e+00	0	33	0	550502400	48	6311
2026-01-08 18:41:31.33	350.64	16.04	-37.9	-38.9	22.5	0.00e+00	0	32	0	555745280	48	6381
2026-01-08 18:41:34.36	349.98	16.07	-37.7	-38.7	22.7	0.00e+00	0	32	0	560988160	48	6210
2026-01-08 18:41:37.39	349.31	16.09	-37.6	-38.6	22.8	0.00e+00	0	32	0	567279616	48	6111
2026-01-08 18:41:40.41	348.65	16.12	-37.5	-38.5	22.9	0.00e+00	0	33	0	572522496	48	6050
2026-01-08 18:41:43.44	347.99	16.13	-37.2	-38.1	23.1	0.00e+00	0	33	0	578813952	48	5786
2026-01-08 18:41:46.47	347.32	16.14	-37.1	-38.0	23.1	0.00e+00	0	32	0	584056832	48	5752
2026-01-08 18:41:49.50	346.65	16.15	-37.5	-38.5	22.9	0.00e+00	0	32	0	590348288	48	6045
2026-01-08 18:41:52.53	345.99	16.16	-37.7	-38.7	22.6	0.00e+00	0	32	0	595591168	48	6191
2026-01-08 18:41:55.56	345.32	16.16	-38.0	-39.0	22.5	0.00e+00	0	32	0	600834048	48	6426
2026-01-08 18:41:58.59	344.66	16.16	-38.1	-39.1	22.3	0.00e+00	0	32	0	607125504	48	6496
2026-01-08 18:42:01.62	343.99	16.15	-37.2	-38.1	23.2	0.00e+00	0	32	0	612368384	48	5800
2026-01-08 18:42:04.65	343.32	16.14	-36.9	-37.8	23.4	0.00e+00	0	33	0	618659840	48	5604
2026-01-08 18:42:07.68	342.66	16.12	-37.3	-38.2	23.1	0.00e+00	0	32	0	623902720	48	5896
2026-01-08 18:42:10.71	342.00	16.11	-37.7	-38.7	21.8	0.00e+00	0	32	0	629145600	48	6194
2026-01-08 18:42:13.74	341.33	16.08	-38.2	-39.3	22.1	0.00e+00	0	32	0	635437056	48	6629
2026-01-08 18:42:16.77	340.67	16.06	-37.9	-38.9	22.5	0.00e+00	0	32	0	640679936	48	6356
2026-01-08 18:42:19.80	340.01	16.03	-37.3	-38.3	23.0	0.00e+00	0	32	0	646971392	48	5920
2026-01-08 18:42:22.82	339.35	15.99	-37.2	-38.1	23.1	0.00e+00	0	32	0	652214272	48	5808
2026-01-08 18:42:25.85	338.69	15.95	-37.3	-38.3	23.0	0.00e+00	0	32	0	658505728	48	5937
2026-01-08 18:42:28.88	338.04	15.91	-37.5	-38.5	22.8	0.00e+00	0	32	0	663748608	48	6094
2026-01-08 18:42:31.91	337.38	15.87	-36.8	-37.7	23.5	0.00e+00	0	32	0	668991488	48	5548
2026-01-08 18:42:34.94	336.73	15.82	-36.4	-37.3	23.7	0.00e+00	0	33	0	675282944	46	5909
2026-01-08 18:42:37.97	336.08	15.77	-36.8	-37.7	23.6	0.00e+00	0	32	0	680525824	46	6180
2026-01-08 18:42:41.00	335.43	15.71	-37.0	-37.9	23.4	0.00e+00	0	32	0	686817280	46	6343
2026-01-08 18:42:44.03	334.79	15.65	-37.2	-38.2	23.1	0.00e+00	0	32	0	692060160	46	6562
2026-01-08 18:42:47.06	334.14	15.59	-37.3	-38.2	23.0	0.00e+00	0	32	0	697303040	46	6584
2026-01-08 18:42:50.08	333.51	15.52	-37.4	-38.4	22.8	0.00e+00	0	32	0	703594496	46	6740
2026-01-08 18:42:53.11	332.87	15.45	-37.5	-38.5	22.8	0.00e+00	0	32	0	708837376	46	6820
2026-01-08 18:42:56.14	332.24	15.38	-37.0	-37.9	23.3	0.00e+00	0	32	0	715128832	46	6354
2026-01-08 18:42:59.17	331.61	15.30	-36.9	-37.8	23.3	0.00e+00	0	32	0	720371712	46	6291
2026-01-08 18:43:02.19	330.98	15.22	-37.0	-37.9	23.3	0.00e+00	0	32	0	726663168	46	6345
2026-01-08 18:43:05.22	330.36	15.14	-36.9	-37.7	23.5	0.00e+00	0	32	0	731906048	46	6230
2026-01-08 18:43:08.25	329.74	15.05	-37.4	-38.3	23.1	0.00e+00	0	32	0	737148928	46	6653
2026-01-08 18:43:11.28	329.12	14.96	-37.2	-38.1	23.1	0.00e+00	0	32	0	743440384	46	6517
2026-01-08 18:43:14.30	328.51	14.87	-37.6	-38.6	22.8	0.00e+00	0	32	0	748683264	46	6902
2026-01-08 18:43:17.33	327.90	14.77	-37.6	-38.5	22.8	0.00e+00	0	32	0	754974720	46	6840
2026-01-08 18:43:20.35	327.30	14.68	-38.0	-39.0	22.4	0.00e+00	0	32	0	760217600	48	6410
2026-01-08 18:43:23.38	326.70	14.58	-38.0	-39.0	22.5	0.00e+00	0	32	0	765460480	48	6415
2026-01-08 18:43:26.41	326.10	14.47	-37.7	-38.7	22.7	0.00e+00	0	33	0	771751936	48	6192
2026-01-08 18:43:29.43	325.51	14.37	-37.6	-38.5	22.9	0.00e+00	0	32	0	776994816	48	6090
2026-01-08 18:43:32.46	324.92	14.26	-37.4	-38.3	22.9	0.00e+00	0	33	0	783286272	48	5944
2026-01-08 18:43:35.49	324.34	14.15	-37.0	-37.9	23.3	0.00e+00	0	32	0	788529152	48	5643
2026-01-08 18:43:38.52	323.76	14.03	-37.0	-37.9	23.3	0.00e+00	0	32	0	793772032	46	6333
2026-01-08 18:43:41.54	323.19	13.92	-37.7	-38.6	22.7	0.00e+00	0	32	0	800063488	46	6908
2026-01-08 18:43:44.57	322.62	13.80	-37.3	-38.3	23.0	0.00e+00	0	32	0	805306368	46	6645
2026-01-08 18:43:47.60	322.05	13.68	-38.1	-39.2	22.3	0.00e+00	0	32	0	811597824	48	6597
2026-01-08 18:43:50.62	321.49	13.56	-38.7	-39.8	21.8	0.00e+00	0	32	0	816840704	48	7052
2026-01-08 18:43:53.65	320.94	13.43	-38.3	-39.4	22.1	0.00e+00	0	32	0	823132160	48	6721
2026-01-08 18:43:56.68	320.38	13.30	-37.8	-38.8	22.6	0.00e+00	0	32	0	828375040	48	6310
2026-01-08 18:43:59.71	319.84	13.18	-38.1	-39.2	22.4	0.00e+00	0	32	0	833617920	48	6560
2026-01-08 18:44:02.74	319.30	13.05	-38.1	-39.2	22.3	0.00e+00	0	32	0	839909376	48	6558
2026-01-08 18:44:05.77	318.76	12.91	-38.0	-39.1	22.4	0.00e+00	0	32	0	845152256	48	6475
2026-01-08 18:44:08.80	318.23	12.78	-38.5	-39.5	22.0	0.00e+00	0	32	0	851443712	48	6826
2026-01-08 18:44:11.83	317.70	12.64	-38.2	-39.2	22.2	0.00e+00	0	32	0	856686592	48	6595
2026-01-08 18:44:14.85	317.18	12.51	-37.7	-38.6	22.7	0.00e+00	0	32	0	861929472	48	6165
2026-01-08 18:44:17.88	316.66	12.37	-37.5	-38.4	22.9	0.00e+00	0	32	0	868220928	48	6024
2026-01-08 18:44:20.91	316.15	12.23	-38.1	-39.1	22.3	0.00e+00	0	32	0	873463808	48	6503
2026-01-08 18:44:23.94	315.64	12.09	-38.7	-39.8	21.7	0.00e+00	0	32	0	879755264	50	6293
2026-01-08 18:44:26.96	315.14	11.94	-38.6	-39.6	21.9	0.00e+00	0	32	0	884998144	50	6172
2026-01-08 18:44:29.99	314.65	11.80	-38.1	-39.1	22.4	0.00e+00	0	33	0	890241024	50	5773
2026-01-08 18:44:33.02	314.15	11.65	-39.1	-40.2	21.5	0.00e+00	0	32	0	896532480	50	6600
2026-01-08 18:44:36.05	313.67	11.51	-41.1	-42.7	19.0	0.00e+00	0	32	0	901775360	54	6944
2026-01-08 18:44:39.08	313.18	11.36	-42.2	-44.2	17.8	0.00e+00	0	33	0	908066816	56	7345
2026-01-08 18:44:42.11	312.71	11.21	-41.1	-42.7	19.0	0.00e+00	0	33	0	913309696	56	6224
2026-01-08 18:44:45.13	312.23	11.06	-40.9	-42.5	19.3	0.00e+00	0	32	0	919601152	54	6784
2026-01-08 18:44:48.16	311.77	10.91	-40.2	-41.6	20.1	0.00e+00	0	32	0	924844032	54	6126
2026-01-08 18:44:51.18	311.31	10.76	-39.6	-40.7	20.9	0.00e+00	0	32	0	930086912	52	6240
2026-01-08 18:44:54.21	310.85	10.60	-39.5	-40.7	20.9	0.00e+00	0	32	0	936378368	52	6191
2026-01-08 18:44:57.23	310.40	10.45	-39.4	-40.5	21.0	0.00e+00	0	33	0	941621248	52	6090
2026-01-08 18:45:00.27	309.95	10.30	-39.3	-40.5	21.2	0.00e+00	0	32	0	947912704	52	6056
2026-01-08 18:45:03.30	309.50	10.14	-38.9	-40.0	21.5	0.00e+00	0	32	0	953155584	52	5719
2026-01-08 18:45:06.32	309.06	9.99	-38.6	-39.6	21.9	0.00e+00	0	32	0	958398464	50	6149
2026-01-08 18:45:09.35	308.63	9.83	-38.4	-39.5	22.0	0.00e+00	0	32	0	964689920	50	6037
2026-01-08 18:45:12.38	308.20	9.67	-38.7	-39.7	21.7	0.00e+00	0	32	0	969932800	50	6232
2026-01-08 18:45:15.41	307.78	9.52	-39.0	-40.1	21.4	0.00e+00	0	32	0	976224256	50	6503
2026-01-08 18:45:18.43	307.36	9.36	-39.1	-40.3	21.1	0.00e+00	0	33	0	981467136	50	6627
2026-01-08 18:45:21.46	306.94	9.20	-39.2	-40.3	21.2	0.00e+00	0	32	0	987758592	50	6684
2026-01-08 18:45:24.49	306.53	9.04	-39.0	-40.1	21.4	0.00e+00	0	32	0	993001472	50	6482
2026-01-08 18:45:27.52	306.13	8.88	-38.8	-39.9	21.5	0.00e+00	0	32	0	998244352	50	6388
2026-01-08 18:45:30.55	305.72	8.72	-38.3	-39.4	21.9	0.00e+00	0	32	0	1004535808	50	6011
2026-01-08 18:45:33.58	305.33	8.56	-37.7	-38.6	22.5	0.00e+00	0	32	0	1009778688	48	6164
2026-01-08 18:45:36.61	304.93	8.40	-37.7	-38.7	22.6	0.00e+00	0	32	0	1016070144	48	6179
2026-01-08 18:45:39.64	304.55	8.24	-37.8	-38.8	22.5	0.00e+00	0	32	0	1021313024	48	6271
2026-01-08 18:45:42.67	304.16	8.08	-37.8	-38.8	22.4	0.00e+00	0	32	0	1026555904	48	6256
2026-01-08 18:45:45.70	303.78	7.92	-37.6	-38.6	22.5	0.00e+00	0	32	0	1032847360	48	6134
2026-01-08 18:45:48.72	303.41	7.76	-37.4	-38.4	22.7	0.00e+00	0	32	0	1038090240	48	5975
2026-01-08 18:45:51.76	303.03	7.60	-37.3	-38.3	22.7	0.00e+00	0	32	0	1044381696	48	5908
2026-01-08 18:45:54.78	302.67	7.44	-38.1	-39.2	22.1	0.00e+00	0	32	0	1049624576	48	6564
2026-01-08 18:45:57.82	302.30	7.27	-38.2	-39.3	21.9	0.00e+00	0	32	0	1055916032	48	6654
2026-01-08 18:46:00.84	301.95	7.11	-38.5	-39.6	21.7	0.00e+00	0	32	0	1061158912	48	6859
2026-01-08 18:46:03.87	301.59	6.95	-38.8	-39.9	21.5	0.00e+00	0	32	0	1066401792	50	6378
2026-01-08 18:46:06.90	301.24	6.79	-38.9	-40.0	21.3	0.00e+00	0	32	0	1072693248	50	6435
2026-01-08 18:46:09.92	300.90	6.63	-38.9	-40.1	21.3	0.00e+00	0	32	0	1077936128	50	6465
2026-01-08 18:46:12.95	300.55	6.47	-38.8	-39.9	21.2	0.00e+00	0	32	0	1084227584	50	6354
2026-01-08 18:46:15.98	300.21	6.31	-38.7	-39.8	21.2	0.00e+00	0	32	0	1089470464	50	6300
2026-01-08 18:46:19.00	299.88	6.15	-38.4	-39.5	21.7	0.00e+00	0	32	0	1094713344	50	6039
2026-01-08 18:46:22.03	299.55	5.99	-38.3	-39.3	21.6	0.00e+00	0	32	0	1101004800	50	5955
2026-01-08 18:46:25.05	299.22	5.82	-38.7	-39.8	21.3	0.00e+00	0	32	0	1106247680	50	6280
2026-01-08 18:46:28.08	298.90	5.66	-39.0	-40.2	21.0	0.00e+00	0	32	0	1112539136	50	6599
2026-01-08 18:46:31.11	298.58	5.50	-39.3	-40.5	20.7	0.00e+00	0	32	0	1117782016	50	6820
2026-01-08 18:46:34.13	298.26	5.34	-39.3	-40.5	20.7	0.00e+00	0	32	0	1123024896	50	6800
2026-01-08 18:46:37.16	297.95	5.18	-39.0	-40.2	21.0	0.00e+00	0	32	0	1129316352	50	6560
2026-01-08 18:46:40.19	297.64	5.02	-38.7	-39.9	21.2	0.00e+00	0	32	0	1134559232	50	6327
2026-01-08 18:46:43.22	297.33	4.86	-38.2	-39.3	21.6	0.00e+00	0	32	0	1140850688	50	5939
2026-01-08 18:46:46.25	297.03	4.70	-38.5	-39.6	21.3	0.00e+00	0	32	0	1146093568	50	6128
2026-01-08 18:46:49.27	296.73	4.54	-38.8	-40.0	21.0	0.00e+00	0	32	0	1152385024	50	6393
2026-01-08 18:46:52.30	296.44	4.38	-39.3	-40.5	20.4	0.00e+00	0	32	0	1157627904	50	6842
2026-01-08 18:46:55.33	296.14	4.22	-39.7	-41.0	20.1	0.00e+00	0	32	0	1162870784	50	7225
2026-01-08 18:46:58.36	295.85	4.06	-40.2	-41.6	19.5	0.00e+00	0	32	0	1169162240	52	6902
2026-01-08 18:47:01.38	295.57	3.91	-40.6	-42.1	19.0	0.00e+00	0	32	0	1174405120	52	7286
2026-01-08 18:47:04.41	295.28	3.75	-40.3	-41.8	19.3	0.00e+00	0	32	0	1180696576	52	7059
2026-01-08 18:47:07.44	295.00	3.59	-40.3	-41.8	19.2	0.00e+00	0	32	0	1185939456	52	7050
2026-01-08 18:47:10.46	294.73	3.43	-40.1	-41.6	19.4	0.00e+00	0	32	0	1191182336	52	6863
2026-01-08 18:47:13.49	294.46	3.27	-40.4	-41.9	19.0	0.00e+00	0	32	0	1197473792	52	7115
2026-01-08 18:47:16.52	294.18	3.12	-40.9	-42.6	18.3	0.00e+00	0	32	0	1202716672	54	6905
2026-01-08 18:47:19.55	293.92	2.96	-47.9	-63.1	3.6	1.51e+00	0	32	104	1206910976	60	51392
2026-01-08 18:47:22.57	293.65	2.80	-48.5	-63.7	3.6	1.51e+00	0	32	104	1206910976	60	55288
2026-01-08 18:47:25.60	293.39	2.65	-48.6	-63.8	3.6	1.51e+00	0	32	104	1206910976	60	55821
2026-01-08 18:47:28.63	293.13	2.49	-48.7	-63.8	3.6	1.51e+00	0	32	104	1206910976	60	56243
2026-01-08 18:47:31.66	292.88	2.33	-48.4	-63.6	3.6	1.51e+00	0	32	104	1206910976	60	54741
2026-01-08 18:47:34.68	292.62	2.18	-48.5	-63.7	3.6	1.51e+00	0	32	104	1206910976	60	55057
2026-01-08 18:47:37.71	292.37	2.02	-48.5	-63.7	3.6	1.51e+00	0	33	104	1206910976	60	55180
2026-01-08 18:47:40.74	292.12	1.87	-48.5	-63.7	3.6	1.51e+00	0	32	104	1206910976	60	55205
2026-01-08 18:47:43.76	291.88	1.72	-48.5	-63.7	3.6	1.51e+00	0	32	104	1206910976	60	55140
2026-01-08 18:47:46.79	291.64	1.56	-48.5	-63.7	3.6	1.51e+00	0	32	104	1206910976	60	55156
2026-01-08 18:47:49.82	291.40	1.41	-48.4	-63.6	3.6	1.51e+00	0	32	104	1206910976	60	54985
2026-01-08 18:47:52.85	291.16	1.25	-48.4	-63.6	3.6	1.51e+00	0	32	104	1206910976	60	54595
2026-01-08 18:47:55.87	290.93	1.10	-48.4	-63.6	3.6	1.51e+00	0	33	104	1206910976	60	54938
2026-01-08 18:47:58.90	290.69	0.95	-48.4	-63.6	3.6	1.51e+00	0	33	104	1206910976	60	54920
2026-01-08 18:48:01.93	290.46	0.80	-48.4	-63.6	3.6	1.51e+00	0	32	104	1206910976	60	54820
2026-01-08 18:48:04.96	290.24	0.64	-48.4	-63.6	3.6	1.51e+00	0	32	104	1206910976	60	54714
2026-01-08 18:48:07.99	290.01	0.49	-48.4	-63.6	3.6	1.51e+00	0	32	104	1206910976	60	54825
2026-01-08 18:48:11.02	289.79	0.34	-48.4	-63.6	3.6	1.51e+00	0	32	104	1206910976	60	54843
2026-01-08 18:48:14.05	289.57	0.19	-48.4	-63.6	3.6	1.51e+00	0	32	104	1206910976	60	54663
2026-01-08 18:48:17.08	289.35	0.04	-48.4	-63.6	3.6	1.51e+00	0	32	104	1206910976	60	54830

#Closed at: 2026-01-08 18:48:18
#Recorded file [1206 MB]: D:/lorett/data/35029_260109_063534.dat