passes_logs/2026/01/08/R4.6S_Anadyr/R4.6S_Anadyr__20260108_173331_AQUA_rec.log

#Pass ID: 20260108_173331_AQUA
#Satellite: AQUA
#Configuration: AQUA
#almurnet v.1.7.20251203
#Start time: 2026-01-08 17:33:35

#Version: 2.2.20231116
#Station: R4.6S_Anadyr
#Location: 177.4865 lon 64.73178 lat
#TLE: 1 27424U 02022A   26004.96787593  .00001598  00000+0  32997-3 0  9996
#TLE: 2 27424  98.4069 331.2279 0002002  90.2377   0.6092 14.61798176259425

#Time	Az	El	Level	Level2	SNR	BER	BlckErr	Temp	State	Recorded	gain1	gain2
2026-01-08 17:33:35.14	21.70	0.19	-48.7	-65.1	3.3	3.02e+01	0	30	0	0	60	69418
2026-01-08 17:33:39.17	21.56	0.44	-48.8	-66.8	3.5	3.02e+01	0	31	104	0	60	83874
2026-01-08 17:33:43.21	21.41	0.68	-48.8	-66.7	3.5	3.02e+01	0	31	104	0	60	83021
2026-01-08 17:33:47.25	21.27	0.93	-48.3	-66.3	3.5	3.02e+01	0	31	104	0	60	79283
2026-01-08 17:33:51.29	21.12	1.18	-47.4	-65.3	3.5	3.02e+01	0	31	104	0	60	71162
2026-01-08 17:33:55.33	20.97	1.43	-47.4	-65.3	3.5	3.02e+01	0	31	104	0	60	70879
2026-01-08 17:33:59.36	20.81	1.68	-47.4	-65.3	3.5	3.02e+01	0	31	104	0	60	71002
2026-01-08 17:34:03.39	20.66	1.94	-47.4	-65.2	3.5	3.02e+01	0	31	104	0	60	70284
2026-01-08 17:34:07.44	20.49	2.20	-47.4	-65.2	3.5	3.02e+01	0	31	104	0	60	69790
2026-01-08 17:34:11.47	20.33	2.46	-47.4	-65.3	3.5	3.02e+01	0	31	104	0	60	70759
2026-01-08 17:34:15.52	20.16	2.72	-47.4	-65.1	3.5	3.02e+01	0	31	104	0	60	69446
2026-01-08 17:34:19.55	19.99	2.99	-47.3	-64.7	3.5	3.02e+01	0	31	104	0	60	65963
2026-01-08 17:34:23.59	19.81	3.26	-47.1	-63.7	3.5	3.02e+01	0	31	104	0	60	59134
2026-01-08 17:34:27.63	19.63	3.53	-44.3	-56.6	3.5	3.02e+01	0	31	104	0	60	25919
2026-01-08 17:34:31.67	19.45	3.80	-47.4	-64.4	3.5	3.02e+01	0	31	104	0	60	63573
2026-01-08 17:34:35.70	19.26	4.08	-38.9	-49.4	3.5	3.02e+01	0	31	104	0	56	14314
2026-01-08 17:34:39.74	19.07	4.36	-47.4	-63.8	3.5	3.02e+01	0	31	104	0	60	59754
2026-01-08 17:34:43.77	18.87	4.64	-39.7	-50.4	3.5	3.02e+01	0	31	104	0	50	22598
2026-01-08 17:34:47.81	18.67	4.92	-37.8	-48.3	3.5	3.02e+01	0	31	104	0	50	17717
2026-01-08 17:34:51.85	18.46	5.21	-46.2	-52.4	11.9	3.02e+01	43	31	104	0	60	16053
2026-01-08 17:34:55.89	18.25	5.50	-39.2	-40.8	24.2	3.02e+01	57	31	0	7340032	52	6693
2026-01-08 17:34:59.92	18.04	5.80	-38.0	-39.6	25.0	3.02e+01	50	31	0	14680064	50	6504
2026-01-08 17:35:03.96	17.82	6.10	-36.6	-37.9	27.0	3.02e+01	57	31	0	22544384	48	6045
2026-01-08 17:35:08.00	17.59	6.40	-36.1	-37.4	27.6	3.02e+01	50	31	0	29884416	46	6405
2026-01-08 17:35:12.04	17.36	6.70	-35.8	-37.1	27.9	3.02e+01	59	31	0	37224448	46	6146
2026-01-08 17:35:16.08	17.12	7.01	-35.8	-37.1	27.9	3.02e+01	46	31	0	45088768	46	6180
2026-01-08 17:35:20.11	16.88	7.32	-35.4	-36.7	28.2	3.02e+01	59	31	0	52428800	46	5902
2026-01-08 17:35:24.15	16.63	7.64	-35.3	-36.6	28.4	3.02e+01	62	31	0	60293120	46	5824
2026-01-08 17:35:28.19	16.37	7.96	-35.1	-36.4	28.6	3.02e+01	57	31	0	67633152	46	5687
2026-01-08 17:35:32.21	16.11	8.28	-35.2	-36.4	28.6	3.02e+01	57	31	0	75497472	46	5706
2026-01-08 17:35:36.24	15.84	8.61	-35.0	-36.3	28.7	3.02e+01	61	31	0	82837504	46	5618
2026-01-08 17:35:40.28	15.56	8.94	-35.2	-36.4	28.6	3.02e+01	58	31	0	90177536	46	5715
2026-01-08 17:35:44.32	15.28	9.28	-35.2	-36.4	28.6	3.02e+01	60	31	0	98041856	46	5721
2026-01-08 17:35:48.36	14.98	9.62	-35.3	-36.5	28.5	3.02e+01	60	31	0	105381888	46	5790
2026-01-08 17:35:52.39	14.69	9.97	-35.1	-36.3	28.7	3.02e+01	57	31	0	113246208	46	5643
2026-01-08 17:35:56.43	14.38	10.32	-34.9	-36.1	28.9	3.02e+01	61	31	0	120586240	44	6197
2026-01-08 17:36:00.47	14.06	10.67	-34.6	-35.9	29.2	3.02e+01	61	31	0	128450560	44	6000
2026-01-08 17:36:04.50	13.74	11.03	-34.6	-35.8	29.3	3.02e+01	54	31	0	135790592	44	5966
2026-01-08 17:36:08.54	13.40	11.40	-34.5	-35.8	29.3	3.02e+01	62	31	0	143654912	44	5929
2026-01-08 17:36:12.57	13.06	11.77	-34.6	-35.8	29.2	3.02e+01	57	31	0	150994944	44	5992
2026-01-08 17:36:16.60	12.70	12.14	-34.5	-35.7	29.3	3.02e+01	57	31	0	158334976	44	5925
2026-01-08 17:36:20.64	12.34	12.52	-34.5	-35.7	29.4	3.02e+01	60	31	0	166199296	44	5879
2026-01-08 17:36:24.68	11.96	12.91	-34.3	-35.4	29.6	3.02e+01	60	31	0	173539328	44	5722
2026-01-08 17:36:28.71	11.58	13.30	-34.3	-35.5	29.6	3.02e+01	58	31	0	181403648	44	5746
2026-01-08 17:36:32.75	11.18	13.70	-34.4	-35.6	29.6	3.02e+01	57	31	0	188743680	44	5794
2026-01-08 17:36:36.78	10.77	14.10	-34.3	-35.5	29.6	3.02e+01	58	31	0	196083712	44	5770
2026-01-08 17:36:40.82	10.35	14.51	-34.2	-35.4	29.7	3.02e+01	44	31	0	203948032	44	5706
2026-01-08 17:36:44.85	9.91	14.93	-34.1	-35.3	29.8	3.02e+01	58	31	0	211288064	44	5638
2026-01-08 17:36:48.89	9.46	15.35	-34.1	-35.3	29.8	3.02e+01	50	31	0	219152384	44	5642
2026-01-08 17:36:52.93	9.00	15.78	-34.2	-35.4	29.7	3.02e+01	59	31	0	226492416	44	5690
2026-01-08 17:36:56.96	8.52	16.21	-34.1	-35.3	29.8	3.02e+01	60	31	0	234356736	44	5627
2026-01-08 17:37:01.00	8.02	16.66	-34.0	-35.2	29.9	3.02e+01	61	31	0	241696768	44	5576
2026-01-08 17:37:05.04	7.51	17.11	-34.1	-35.3	29.9	3.02e+01	47	31	0	249561088	42	6291
2026-01-08 17:37:09.08	6.99	17.56	-34.1	-35.2	30.0	3.02e+01	59	31	0	256901120	42	6277
2026-01-08 17:37:13.12	6.44	18.03	-34.0	-35.2	30.0	3.02e+01	53	32	0	264241152	42	6237
2026-01-08 17:37:17.15	5.88	18.49	-34.1	-35.3	30.0	3.02e+01	62	32	0	272105472	42	6291
2026-01-08 17:37:21.19	5.29	18.97	-34.0	-35.2	30.0	3.02e+01	46	31	0	279445504	42	6261
2026-01-08 17:37:25.23	4.69	19.46	-34.3	-35.5	29.9	3.02e+01	60	32	0	287309824	42	6437
2026-01-08 17:37:29.26	4.06	19.95	-34.5	-35.7	29.7	3.02e+01	44	31	0	294649856	42	6619
2026-01-08 17:37:33.30	3.42	20.44	-34.5	-35.7	29.7	3.02e+01	62	31	0	302514176	42	6578
2026-01-08 17:37:37.34	2.75	20.95	-34.5	-35.7	29.7	3.02e+01	46	31	0	309854208	42	6609
2026-01-08 17:37:41.38	2.05	21.46	-34.4	-35.6	29.7	3.02e+01	56	31	0	317194240	42	6557
2026-01-08 17:37:45.41	1.33	21.98	-34.3	-35.5	29.8	3.02e+01	46	31	0	325058560	42	6464
2026-01-08 17:37:49.44	0.59	22.51	-34.4	-35.6	29.8	3.02e+01	59	31	0	332398592	42	6545
2026-01-08 17:37:53.47	359.82	23.04	-34.7	-35.9	29.5	3.02e+01	51	31	0	340262912	42	6728
2026-01-08 17:37:57.51	359.01	23.58	-34.6	-35.8	29.6	3.02e+01	58	31	0	347602944	42	6666
2026-01-08 17:38:01.55	358.18	24.12	-34.6	-35.7	29.6	3.02e+01	60	31	0	355467264	42	6642
2026-01-08 17:38:05.58	357.32	24.67	-34.3	-35.5	29.9	3.02e+01	61	31	0	362807296	42	6428
2026-01-08 17:38:09.61	356.42	25.23	-34.5	-35.6	29.7	3.02e+01	58	31	0	370147328	42	6564
2026-01-08 17:38:13.65	355.49	25.79	-34.5	-35.7	29.8	3.02e+01	59	31	0	378011648	42	6603
2026-01-08 17:38:17.69	354.53	26.36	-34.1	-35.3	30.1	3.02e+01	60	31	0	385351680	42	6302
2026-01-08 17:38:21.73	353.52	26.93	-34.1	-35.3	30.1	3.02e+01	58	31	0	393216000	42	6308
2026-01-08 17:38:25.77	352.48	27.50	-34.3	-35.4	29.9	3.02e+01	60	31	0	400556032	42	6407
2026-01-08 17:38:29.80	351.40	28.08	-34.1	-35.3	30.0	3.02e+01	61	31	0	408420352	42	6298
2026-01-08 17:38:33.84	350.27	28.66	-33.9	-35.1	30.2	3.02e+01	58	31	0	415760384	42	6176
2026-01-08 17:38:37.88	349.11	29.23	-33.7	-34.9	30.5	3.02e+01	59	31	0	423100416	42	6037
2026-01-08 17:38:41.91	347.90	29.81	-33.8	-35.0	30.4	3.02e+01	59	31	0	430964736	42	6076
2026-01-08 17:38:45.95	346.64	30.38	-33.6	-34.7	30.6	3.02e+01	56	31	0	438304768	42	5894
2026-01-08 17:38:49.99	345.33	30.96	-33.7	-34.8	30.5	3.02e+01	55	32	0	446169088	42	5974
2026-01-08 17:38:54.03	343.98	31.52	-33.5	-34.6	30.7	3.02e+01	60	31	0	453509120	42	5827
2026-01-08 17:38:58.06	342.58	32.08	-33.9	-35.1	30.2	3.02e+01	58	31	0	461373440	42	6178
2026-01-08 17:39:02.10	341.12	32.63	-33.6	-34.7	30.6	3.02e+01	47	32	0	468713472	42	5913
2026-01-08 17:39:06.14	339.61	33.17	-33.8	-35.0	30.4	3.02e+01	60	31	0	476577792	42	6065
2026-01-08 17:39:10.18	338.05	33.70	-34.2	-35.4	30.1	3.02e+01	47	31	0	483917824	42	6369
2026-01-08 17:39:14.21	336.45	34.21	-34.4	-35.6	29.9	3.02e+01	57	31	0	491257856	42	6520
2026-01-08 17:39:18.25	334.78	34.71	-34.3	-35.5	30.0	3.02e+01	54	31	0	499122176	42	6470
2026-01-08 17:39:22.29	333.07	35.18	-34.6	-35.8	29.7	3.02e+01	59	31	0	506462208	42	6657
2026-01-08 17:39:26.32	331.30	35.64	-34.8	-36.0	29.5	3.02e+01	47	31	0	514326528	44	6112
2026-01-08 17:39:30.36	329.49	36.06	-35.0	-36.2	29.2	3.02e+01	61	31	0	521666560	44	6263
2026-01-08 17:39:34.40	327.62	36.47	-34.9	-36.1	29.4	3.02e+01	52	31	0	529530880	44	6205
2026-01-08 17:39:38.43	325.71	36.84	-35.1	-36.3	29.3	3.02e+01	58	31	0	536870912	44	6301
2026-01-08 17:39:42.47	323.76	37.18	-35.2	-36.5	29.1	3.02e+01	51	31	0	544735232	44	6430
2026-01-08 17:39:46.51	321.76	37.48	-35.3	-36.5	29.1	3.02e+01	59	31	0	552075264	44	6434
2026-01-08 17:39:50.54	319.73	37.75	-35.3	-36.5	29.1	3.02e+01	38	32	0	559415296	44	6476
2026-01-08 17:39:54.58	317.67	37.98	-35.3	-36.6	29.1	3.02e+01	59	31	0	567279616	44	6502
2026-01-08 17:39:58.62	315.58	38.16	-35.3	-36.6	29.1	3.02e+01	45	31	0	574619648	44	6505
2026-01-08 17:40:02.65	313.47	38.31	-35.6	-36.8	28.8	3.02e+01	59	32	0	582483968	44	6703
2026-01-08 17:40:06.69	311.34	38.41	-35.3	-36.6	29.0	3.02e+01	48	32	0	589824000	44	6501
2026-01-08 17:40:10.72	309.20	38.47	-35.3	-36.5	29.2	3.02e+01	61	31	0	597688320	46	5781
2026-01-08 17:40:14.76	307.05	38.48	-35.2	-36.4	29.2	3.02e+01	57	31	0	605028352	46	5680
2026-01-08 17:40:18.80	304.91	38.45	-35.5	-36.8	28.8	3.02e+01	58	31	0	612892672	46	5937
2026-01-08 17:40:22.83	302.78	38.37	-36.0	-37.3	28.3	3.02e+01	57	32	0	620232704	46	6287
2026-01-08 17:40:26.87	300.65	38.25	-35.9	-37.2	28.5	3.02e+01	59	32	0	627572736	46	6232
2026-01-08 17:40:30.90	298.55	38.09	-34.7	-35.8	27.0	3.02e+01	60	31	0	635437056	46	5335
2026-01-08 17:40:34.94	296.47	37.88	-35.2	-36.4	29.0	3.02e+01	55	31	0	642777088	44	6409
2026-01-08 17:40:38.98	294.41	37.64	-36.1	-37.4	28.2	3.02e+01	59	31	0	650641408	44	7166
2026-01-08 17:40:43.02	292.39	37.35	-35.2	-36.4	29.0	3.02e+01	58	32	0	657981440	44	6359
2026-01-08 17:40:47.05	290.42	37.03	-35.4	-36.6	29.0	3.02e+01	61	31	0	665845760	46	5858
2026-01-08 17:40:51.09	288.48	36.68	-35.3	-36.5	28.8	3.02e+01	60	31	0	673185792	46	5778
2026-01-08 17:40:55.12	286.58	36.30	-35.7	-36.9	28.6	3.02e+01	58	32	0	680525824	44	6787
2026-01-08 17:40:59.16	284.74	35.88	-35.6	-36.8	28.9	3.02e+01	57	31	0	688390144	46	5967
2026-01-08 17:41:03.20	282.94	35.44	-36.3	-37.6	27.9	3.02e+01	58	31	0	695730176	46	6571
2026-01-08 17:41:07.24	281.19	34.98	-35.6	-36.8	28.7	3.02e+01	59	32	0	703594496	46	5987
2026-01-08 17:41:11.28	279.49	34.49	-34.4	-35.6	29.6	3.02e+01	62	31	0	710934528	44	5801
2026-01-08 17:41:15.31	277.85	33.99	-34.5	-35.7	28.7	3.02e+01	59	31	0	718798848	44	5888
2026-01-08 17:41:19.35	276.25	33.47	-35.2	-36.4	28.3	3.02e+01	60	31	0	726138880	44	6391
2026-01-08 17:41:23.38	274.72	32.93	-34.3	-35.4	29.5	3.02e+01	56	32	0	734003200	44	5708
2026-01-08 17:41:27.42	273.23	32.39	-35.4	-36.6	27.9	3.02e+01	59	31	0	741343232	46	5839
2026-01-08 17:41:31.46	271.79	31.83	-36.2	-37.5	28.0	3.02e+01	55	31	0	748683264	46	6450
2026-01-08 17:41:35.50	270.40	31.26	-35.1	-36.3	28.9	3.02e+01	58	32	0	756547584	46	5655
2026-01-08 17:41:39.53	269.07	30.69	-35.4	-36.6	29.0	3.02e+01	46	31	0	763887616	44	6562
2026-01-08 17:41:43.57	267.78	30.12	-35.6	-36.8	29.0	3.02e+01	59	31	0	771751936	44	6704
2026-01-08 17:41:47.61	266.54	29.54	-34.6	-35.7	29.7	3.02e+01	59	31	0	779091968	44	5918
2026-01-08 17:41:51.65	265.34	28.96	-34.8	-35.9	29.6	3.02e+01	51	31	0	786956288	44	6048
2026-01-08 17:41:55.69	264.19	28.38	-34.8	-36.0	29.5	3.02e+01	56	32	0	794296320	44	6067
2026-01-08 17:41:59.72	263.08	27.80	-34.7	-35.9	29.5	3.02e+01	60	31	0	801636352	44	6015
2026-01-08 17:42:03.76	262.01	27.23	-35.2	-36.4	29.2	3.02e+01	53	31	0	809500672	44	6371
2026-01-08 17:42:07.79	260.99	26.65	-35.2	-36.4	29.2	3.02e+01	61	32	0	816840704	44	6386
2026-01-08 17:42:11.82	260.00	26.08	-35.1	-36.3	29.2	3.02e+01	52	31	0	824705024	44	6350
2026-01-08 17:42:15.86	259.04	25.52	-35.0	-36.2	29.3	3.02e+01	58	31	0	832045056	44	6253
2026-01-08 17:42:19.90	258.12	24.95	-35.0	-36.2	29.3	3.02e+01	44	31	0	839909376	44	6236
2026-01-08 17:42:23.93	257.24	24.40	-34.9	-36.1	29.4	3.02e+01	59	31	0	847249408	44	6165
2026-01-08 17:42:27.97	256.38	23.85	-35.4	-36.6	28.9	3.02e+01	48	31	0	854589440	44	6544
2026-01-08 17:42:32.01	255.56	23.30	-34.9	-36.1	29.4	3.02e+01	61	32	0	862453760	44	6153
2026-01-08 17:42:36.05	254.77	22.76	-35.3	-36.6	28.9	3.02e+01	49	31	0	869793792	44	6523
2026-01-08 17:42:40.08	254.01	22.23	-35.0	-36.2	29.3	3.02e+01	60	31	0	877658112	44	6211
2026-01-08 17:42:44.12	253.27	21.71	-35.2	-36.5	29.0	3.02e+01	63	31	0	884998144	44	6431
2026-01-08 17:42:48.16	252.56	21.19	-34.8	-36.0	29.3	3.02e+01	61	32	0	892862464	44	6130
2026-01-08 17:42:52.19	251.87	20.68	-35.0	-36.2	29.1	3.02e+01	58	32	0	900202496	44	6257
2026-01-08 17:42:56.23	251.21	20.17	-34.9	-36.1	29.2	3.02e+01	58	32	0	907542528	44	6180
2026-01-08 17:43:00.27	250.57	19.67	-34.9	-36.1	29.2	3.02e+01	57	32	0	915406848	44	6172
2026-01-08 17:43:04.30	249.95	19.19	-34.9	-36.1	29.3	3.02e+01	56	32	0	922746880	44	6166
2026-01-08 17:43:08.33	249.35	18.70	-34.9	-36.1	29.2	3.02e+01	58	32	0	930611200	44	6136
2026-01-08 17:43:12.37	248.77	18.23	-35.1	-36.3	29.0	3.02e+01	56	32	0	937951232	44	6326
2026-01-08 17:43:16.41	248.21	17.76	-34.7	-35.9	29.3	3.02e+01	60	31	0	945815552	44	6050
2026-01-08 17:43:20.44	247.67	17.30	-34.8	-36.0	29.4	3.02e+01	60	32	0	953155584	44	6077
2026-01-08 17:43:24.48	247.15	16.85	-34.9	-36.1	29.2	3.02e+01	60	32	0	960495616	44	6180
2026-01-08 17:43:28.52	246.64	16.40	-35.0	-36.2	29.1	3.02e+01	62	32	0	968359936	44	6263
2026-01-08 17:43:32.55	246.15	15.96	-34.9	-36.1	29.2	3.02e+01	62	32	0	975699968	44	6183
2026-01-08 17:43:36.59	245.68	15.52	-35.0	-36.2	29.1	3.02e+01	60	32	0	983564288	44	6226
2026-01-08 17:43:40.63	245.22	15.10	-35.0	-36.2	29.0	3.02e+01	58	32	0	990904320	44	6251
2026-01-08 17:43:44.67	244.77	14.67	-35.0	-36.2	29.0	3.02e+01	58	32	0	998768640	44	6235
2026-01-08 17:43:48.70	244.34	14.26	-35.3	-36.5	28.8	3.02e+01	59	32	0	1006108672	44	6462
2026-01-08 17:43:52.74	243.92	13.85	-35.2	-36.4	28.7	3.02e+01	61	32	0	1013972992	44	6390
2026-01-08 17:43:56.77	243.51	13.45	-35.2	-36.4	28.8	3.02e+01	63	31	0	1021313024	44	6380
2026-01-08 17:44:00.81	243.12	13.05	-35.4	-36.7	28.5	3.02e+01	54	31	0	1028653056	44	6596
2026-01-08 17:44:04.84	242.73	12.66	-35.8	-37.1	28.1	3.02e+01	59	32	0	1036517376	44	6887
2026-01-08 17:44:08.88	242.36	12.28	-36.3	-37.6	27.6	3.02e+01	46	32	0	1043857408	46	6525
2026-01-08 17:44:12.91	242.00	11.90	-36.4	-37.7	27.5	3.02e+01	59	32	0	1051721728	46	6625
2026-01-08 17:44:16.94	241.65	11.52	-36.7	-38.1	27.1	3.02e+01	58	32	0	1059061760	46	6916
2026-01-08 17:44:20.98	241.30	11.16	-37.2	-38.6	26.5	3.02e+01	59	32	0	1066926080	48	6545
2026-01-08 17:44:25.02	240.97	10.79	-37.6	-39.0	26.1	3.02e+01	53	32	0	1074266112	48	6853
2026-01-08 17:44:29.06	240.65	10.43	-38.1	-39.6	25.6	3.02e+01	60	32	0	1081606144	50	6509
2026-01-08 17:44:33.09	240.33	10.08	-38.7	-40.3	24.9	3.02e+01	50	32	0	1089470464	50	7050
2026-01-08 17:44:37.12	240.02	9.73	-39.4	-41.1	24.1	3.02e+01	61	32	0	1096810496	52	6940
2026-01-08 17:44:41.15	239.73	9.39	-40.0	-41.8	23.3	3.02e+01	50	32	0	1104674816	54	6715
2026-01-08 17:44:45.19	239.43	9.05	-40.3	-42.2	22.9	3.02e+01	60	32	0	1112014848	54	7036
2026-01-08 17:44:49.23	239.15	8.71	-40.9	-42.9	22.3	3.02e+01	47	32	0	1119879168	54	7557
2026-01-08 17:44:53.26	238.87	8.38	-41.7	-43.9	21.4	3.02e+01	61	32	0	1127219200	56	7573
2026-01-08 17:44:57.30	238.60	8.05	-42.2	-44.8	20.4	3.02e+01	53	32	0	1135083520	58	7466
2026-01-08 17:45:01.33	238.34	7.73	-42.9	-45.7	19.4	3.02e+01	60	32	0	1142423552	58	8333
2026-01-08 17:45:05.37	238.09	7.41	-43.7	-46.8	18.4	3.02e+01	45	32	0	1149763584	60	8392
2026-01-08 17:45:09.41	237.84	7.09	-44.3	-48.0	17.1	3.02e+01	60	32	0	1157627904	60	9623
2026-01-08 17:45:13.44	237.59	6.78	-44.8	-49.2	15.8	3.02e+01	53	32	0	1164967936	60	11058
2026-01-08 17:45:17.48	237.35	6.48	-45.2	-50.2	14.5	3.02e+01	58	32	0	1172832256	60	12487
2026-01-08 17:45:21.52	237.12	6.17	-45.4	-51.4	13.3	3.02e+01	58	32	0	1180172288	60	14278
2026-01-08 17:45:25.56	236.89	5.87	-45.7	-52.7	11.7	3.02e+01	56	32	0	1188036608	60	16682
2026-01-08 17:45:29.59	236.67	5.57	-46.0	-53.9	10.4	3.02e+01	60	32	0	1195376640	60	19088
2026-01-08 17:45:33.63	236.46	5.28	-46.3	-55.0	9.0	3.02e+01	60	32	0	1202716672	60	21682
2026-01-08 17:45:37.67	236.24	4.99	-46.7	-56.2	7.4	3.02e+01	90	32	0	1210580992	60	24903
2026-01-08 17:45:41.71	236.04	4.70	-46.7	-57.2	5.9	3.02e+01	39	32	0	1217921024	60	27978
2026-01-08 17:45:45.75	235.83	4.42	-46.7	-59.9	5.0	3.02e+01	0	32	104	1218969600	60	37881
2026-01-08 17:45:49.78	235.64	4.14	-46.7	-60.6	4.5	3.02e+01	0	32	104	1218969600	60	41013
2026-01-08 17:45:53.82	235.44	3.86	-46.1	-63.6	3.5	3.02e+01	0	32	104	1218969600	60	58509
2026-01-08 17:45:57.86	235.25	3.58	-46.5	-62.8	3.5	3.02e+01	0	32	104	1218969600	60	53099
2026-01-08 17:46:01.89	235.07	3.31	-46.0	-64.1	3.5	3.02e+01	0	32	104	1218969600	60	62040
2026-01-08 17:46:05.93	234.89	3.04	-45.8	-63.8	3.5	3.02e+01	0	32	104	1218969600	60	59722
2026-01-08 17:46:09.97	234.71	2.77	-48.8	-66.6	3.5	3.02e+01	0	32	104	1218969600	60	82560
2026-01-08 17:46:14.01	234.54	2.51	-48.9	-66.8	3.5	3.02e+01	0	32	104	1218969600	60	84226
2026-01-08 17:46:18.05	234.37	2.24	-48.7	-66.7	3.5	3.02e+01	0	32	104	1218969600	60	83586
2026-01-08 17:46:22.09	234.20	1.98	-48.7	-66.6	3.5	3.02e+01	0	32	104	1218969600	60	82368
2026-01-08 17:46:26.12	234.04	1.73	-48.8	-66.7	3.5	3.02e+01	0	32	104	1218969600	60	82791
2026-01-08 17:46:30.16	233.88	1.47	-48.8	-66.7	3.5	3.02e+01	0	32	104	1218969600	60	83316
2026-01-08 17:46:34.20	233.72	1.22	-48.8	-66.7	3.5	3.02e+01	0	32	104	1218969600	60	83278
2026-01-08 17:46:38.24	233.56	0.97	-48.8	-66.7	3.5	3.02e+01	0	32	104	1218969600	60	83641
2026-01-08 17:46:42.28	233.41	0.72	-48.8	-66.7	3.5	3.02e+01	0	32	104	1218969600	60	83104
2026-01-08 17:46:46.31	233.27	0.47	-48.7	-66.6	3.5	3.02e+01	0	32	104	1218969600	60	82372
2026-01-08 17:46:50.35	233.12	0.23	-48.7	-66.6	3.5	3.02e+01	0	32	104	1218969600	60	82427
2026-01-08 17:46:54.39	232.98	-0.02	-48.7	-66.7	3.5	3.02e+01	0	32	104	1218969600	60	82847

#Closed at: 2026-01-08 17:46:57
#Recorded file [1218 MB]: D:/lorett/data/35029_260109_053335.dat