passes_logs/2026/01/08/R4.6S_Anadyr/R4.6S_Anadyr__20260108_161554_FENGYUN_3D_rec.log

#Pass ID: 20260108_161554_FENGYUN 3D
#Satellite: FENGYUN 3D
#Configuration: FENGYUN 3D
#almurnet v.1.7.20251203
#Start time: 2026-01-08 16:15:56

#Version: 2.2.20231116
#Station: R4.6S_Anadyr
#Location: 177.4865 lon 64.73178 lat
#TLE: 1 43010U 17072A   26008.23776554  .00000457  00000+0  23766-3 0  9992
#TLE: 2 43010  98.9934 339.9493 0002110 120.0616 240.0769 14.19695192422296

#Time	Az	El	Level	Level2	SNR	BER	BlckErr	Temp	State	Recorded	gain1	gain2
2026-01-08 16:15:56.51	20.15	0.12	-48.7	-66.5	3.5	3.02e+01	0	29	0	0	60	80977
2026-01-08 16:16:00.55	20.24	0.36	-48.4	-60.5	3.6	8.46e-01	0	30	104	0	60	38464
2026-01-08 16:16:04.58	20.32	0.60	-48.4	-60.6	3.6	8.46e-01	0	30	104	0	60	38536
2026-01-08 16:16:08.62	20.40	0.84	-48.0	-60.1	3.6	8.45e-01	0	31	104	0	60	36682
2026-01-08 16:16:12.67	20.49	1.09	-47.0	-59.0	3.6	8.46e-01	0	31	104	0	60	32197
2026-01-08 16:16:16.70	20.58	1.33	-46.9	-58.9	3.6	8.46e-01	0	31	104	0	60	31773
2026-01-08 16:16:20.74	20.66	1.58	-46.9	-58.8	3.6	8.44e-01	0	31	104	0	60	31509
2026-01-08 16:16:24.78	20.75	1.84	-46.9	-59.0	3.6	8.46e-01	0	31	104	0	60	32080
2026-01-08 16:16:28.81	20.84	2.09	-46.9	-59.0	3.6	8.46e-01	0	31	104	0	60	32265
2026-01-08 16:16:32.85	20.94	2.34	-46.7	-56.5	3.7	8.44e-01	0	31	104	0	60	24092
2026-01-08 16:16:36.88	21.03	2.60	-46.6	-54.5	3.7	8.38e-01	0	31	0	0	60	19288
2026-01-08 16:16:40.93	21.12	2.86	-43.7	-46.4	11.7	7.71e-03	0	31	0	10485760	60	7580
2026-01-08 16:16:44.96	21.22	3.13	-37.9	-39.0	19.1	0.00e+00	0	31	0	32505856	50	5737
2026-01-08 16:16:49.00	21.31	3.39	-36.4	-37.3	20.6	0.00e+00	0	31	0	55574528	46	5927
2026-01-08 16:16:53.04	21.41	3.66	-39.7	-41.0	16.8	0.00e+00	0	31	0	78643200	50	7232
2026-01-08 16:16:57.07	21.51	3.93	-46.7	-57.4	3.6	8.37e-01	0	31	104	98566144	60	26881
2026-01-08 16:17:01.11	21.61	4.20	-39.0	-40.1	18.2	0.00e+00	0	31	0	112197632	50	6535
2026-01-08 16:17:05.15	21.72	4.48	-36.9	-37.8	20.4	0.00e+00	0	31	0	135266304	48	5600
2026-01-08 16:17:09.19	21.82	4.76	-34.7	-35.5	22.6	0.00e+00	0	31	0	157286400	44	5408
2026-01-08 16:17:13.23	21.93	5.04	-34.9	-35.7	22.5	0.00e+00	0	31	0	180355072	42	6224
2026-01-08 16:17:17.27	22.04	5.33	-34.4	-35.1	23.0	0.00e+00	0	31	0	202375168	42	5803
2026-01-08 16:17:21.30	22.15	5.61	-34.4	-35.2	23.1	0.00e+00	0	31	0	225443840	42	5862
2026-01-08 16:17:25.34	22.26	5.90	-34.1	-34.9	23.4	0.00e+00	0	31	0	248512512	42	5652
2026-01-08 16:17:29.38	22.37	6.20	-34.0	-34.7	23.5	0.00e+00	0	31	0	270532608	42	5540
2026-01-08 16:17:33.42	22.49	6.50	-33.9	-34.6	23.6	0.00e+00	0	31	0	293601280	42	5489
2026-01-08 16:17:37.46	22.60	6.80	-33.8	-34.5	23.8	0.00e+00	0	31	0	316669952	40	6053
2026-01-08 16:17:41.50	22.72	7.10	-33.8	-34.5	23.8	0.00e+00	0	31	0	339738624	40	6058
2026-01-08 16:17:45.53	22.84	7.41	-33.6	-34.3	24.0	0.00e+00	0	31	0	361758720	40	5958
2026-01-08 16:17:49.57	22.97	7.72	-33.5	-34.2	24.1	0.00e+00	0	31	0	384827392	40	5848
2026-01-08 16:17:53.60	23.09	8.03	-33.6	-34.3	24.1	0.00e+00	0	31	0	406847488	40	5920
2026-01-08 16:17:57.64	23.22	8.35	-33.1	-33.8	24.5	0.00e+00	0	31	0	429916160	40	5623
2026-01-08 16:18:01.68	23.35	8.68	-33.1	-33.8	24.6	0.00e+00	0	31	0	452984832	40	5582
2026-01-08 16:18:05.72	23.49	9.00	-32.8	-33.5	24.7	0.00e+00	0	31	0	475004928	40	5406
2026-01-08 16:18:09.75	23.62	9.34	-32.7	-33.4	25.0	0.00e+00	0	31	0	498073600	38	5996
2026-01-08 16:18:13.79	23.76	9.67	-32.8	-33.4	25.0	0.00e+00	0	31	0	521142272	38	6022
2026-01-08 16:18:17.83	23.90	10.01	-32.7	-33.4	25.0	0.00e+00	0	31	0	544210944	38	5994
2026-01-08 16:18:21.87	24.05	10.36	-32.8	-33.5	25.0	0.00e+00	0	31	0	566231040	38	6090
2026-01-08 16:18:25.91	24.20	10.71	-32.8	-33.5	24.8	0.00e+00	0	31	0	589299712	38	6036
2026-01-08 16:18:29.94	24.35	11.06	-32.7	-33.4	25.1	0.00e+00	0	31	0	611319808	38	6008
2026-01-08 16:18:33.98	24.50	11.42	-32.7	-33.4	25.1	0.00e+00	0	31	0	634388480	38	5996
2026-01-08 16:18:38.02	24.66	11.79	-32.6	-33.2	25.2	0.00e+00	0	31	0	657457152	38	5855
2026-01-08 16:18:42.05	24.82	12.16	-32.7	-33.4	25.1	0.00e+00	0	31	0	679477248	38	5987
2026-01-08 16:18:46.09	24.98	12.53	-32.4	-33.1	25.3	0.00e+00	0	31	0	702545920	38	5792
2026-01-08 16:18:50.12	25.15	12.92	-32.1	-32.8	25.6	0.00e+00	0	31	0	725614592	38	5603
2026-01-08 16:18:54.16	25.32	13.30	-31.9	-32.6	25.9	0.00e+00	0	31	0	747634688	38	5457
2026-01-08 16:18:58.20	25.50	13.70	-31.8	-32.5	25.9	0.00e+00	0	31	0	770703360	38	5388
2026-01-08 16:19:02.24	25.68	14.10	-31.8	-32.5	25.9	0.00e+00	0	31	0	793772032	36	6042
2026-01-08 16:19:06.27	25.87	14.50	-31.9	-32.5	25.9	0.00e+00	0	31	0	815792128	36	6085
2026-01-08 16:19:10.30	26.06	14.92	-31.8	-32.5	26.0	0.00e+00	0	31	0	838860800	36	6058
2026-01-08 16:19:14.34	26.25	15.34	-31.6	-32.2	26.2	0.00e+00	0	31	0	861929472	36	5883
2026-01-08 16:19:18.38	26.45	15.76	-31.7	-32.4	26.2	0.00e+00	0	31	0	883949568	36	5976
2026-01-08 16:19:22.42	26.66	16.20	-31.3	-32.0	26.6	0.00e+00	0	32	0	907018240	36	5710
2026-01-08 16:19:26.46	26.87	16.64	-31.0	-31.6	26.8	0.00e+00	0	31	0	930086912	36	5453
2026-01-08 16:19:30.49	27.08	17.09	-30.7	-31.3	27.1	0.00e+00	0	31	0	952107008	34	5898
2026-01-08 16:19:34.53	27.31	17.55	-30.8	-31.4	27.0	0.00e+00	0	31	0	975175680	34	5994
2026-01-08 16:19:38.57	27.54	18.02	-30.8	-31.4	27.0	0.00e+00	0	31	0	997195776	34	5997
2026-01-08 16:19:42.61	27.77	18.49	-30.5	-31.1	27.2	0.00e+00	0	31	0	1020264448	34	5792
2026-01-08 16:19:46.65	28.01	18.98	-30.2	-30.8	27.5	0.00e+00	0	31	0	1043333120	34	5618
2026-01-08 16:19:50.69	28.26	19.47	-30.3	-30.9	27.4	0.00e+00	0	31	0	1066401792	34	5650
2026-01-08 16:19:54.73	28.52	19.97	-30.2	-30.9	27.4	0.00e+00	0	32	0	1088421888	34	5638
2026-01-08 16:19:58.77	28.79	20.49	-30.3	-30.9	27.5	0.00e+00	0	31	0	1111490560	34	5660
2026-01-08 16:20:02.81	29.06	21.01	-30.3	-30.9	27.4	0.00e+00	0	31	0	1134559232	34	5683
2026-01-08 16:20:06.85	29.35	21.54	-30.3	-30.9	27.3	0.00e+00	0	31	0	1156579328	34	5650
2026-01-08 16:20:10.88	29.64	22.09	-30.1	-30.7	27.6	0.00e+00	0	31	0	1179648000	34	5527
2026-01-08 16:20:14.91	29.94	22.64	-30.0	-30.6	27.7	0.00e+00	0	32	0	1201668096	34	5451
2026-01-08 16:20:18.95	30.25	23.21	-29.7	-30.3	27.9	0.00e+00	0	32	0	1224736768	32	5930
2026-01-08 16:20:22.99	30.58	23.79	-29.4	-30.0	28.2	0.00e+00	0	31	0	1247805440	32	5739
2026-01-08 16:20:27.02	30.91	24.38	-29.6	-30.2	28.1	0.00e+00	0	31	0	1269825536	32	5851
2026-01-08 16:20:31.06	31.26	24.98	-29.5	-30.1	28.0	0.00e+00	0	32	0	1292894208	32	5764
2026-01-08 16:20:35.10	31.62	25.60	-29.2	-29.8	28.3	0.00e+00	0	31	0	1315962880	32	5605
2026-01-08 16:20:39.13	32.00	26.23	-29.5	-30.1	28.1	0.00e+00	0	31	0	1339031552	32	5776
2026-01-08 16:20:43.18	32.39	26.88	-29.6	-30.2	28.0	0.00e+00	0	31	0	1361051648	32	5837
2026-01-08 16:20:47.22	32.79	27.54	-29.3	-29.9	28.2	0.00e+00	0	31	0	1384120320	32	5647
2026-01-08 16:20:51.26	33.21	28.21	-29.2	-29.8	28.4	0.00e+00	0	31	0	1406140416	32	5567
2026-01-08 16:20:55.29	33.65	28.90	-29.1	-29.7	28.4	0.00e+00	0	31	0	1429209088	32	5552
2026-01-08 16:20:59.33	34.11	29.60	-29.0	-29.6	28.5	0.00e+00	0	31	0	1452277760	32	5484
2026-01-08 16:21:03.37	34.59	30.32	-29.1	-29.7	28.5	0.00e+00	0	31	0	1474297856	32	5521
2026-01-08 16:21:07.40	35.08	31.06	-29.1	-29.7	28.4	0.00e+00	0	31	0	1497366528	32	5523
2026-01-08 16:21:11.44	35.61	31.81	-29.3	-29.9	28.3	0.00e+00	0	32	0	1520435200	32	5668
2026-01-08 16:21:15.48	36.15	32.59	-29.1	-29.7	28.4	0.00e+00	0	31	0	1542455296	32	5527
2026-01-08 16:21:19.51	36.72	33.37	-29.2	-29.8	28.4	0.00e+00	0	31	0	1565523968	32	5577
2026-01-08 16:21:23.55	37.32	34.18	-28.7	-29.3	28.7	0.00e+00	0	31	0	1588592640	30	5959
2026-01-08 16:21:27.58	37.95	35.00	-29.0	-29.6	28.5	0.00e+00	0	31	0	1610612736	30	6122
2026-01-08 16:21:31.62	38.61	35.85	-28.7	-29.3	28.7	0.00e+00	0	31	0	1633681408	30	5943
2026-01-08 16:21:35.66	39.31	36.71	-28.5	-29.1	28.8	0.00e+00	0	31	0	1656750080	30	5782
2026-01-08 16:21:39.70	40.04	37.59	-28.3	-28.9	29.0	0.00e+00	0	32	0	1678770176	30	5695
2026-01-08 16:21:43.73	40.82	38.49	-28.7	-29.3	28.7	0.00e+00	0	31	0	1701838848	30	5955
2026-01-08 16:21:47.77	41.63	39.40	-29.0	-29.6	28.4	0.00e+00	0	31	0	1724907520	30	6128
2026-01-08 16:21:51.81	42.50	40.34	-28.7	-29.2	28.7	0.00e+00	0	31	0	1746927616	30	5884
2026-01-08 16:21:55.85	43.41	41.29	-28.9	-29.5	28.6	0.00e+00	0	31	0	1769996288	30	6076
2026-01-08 16:21:59.89	44.38	42.26	-29.1	-29.7	28.5	0.00e+00	0	31	0	1793064960	30	6174
2026-01-08 16:22:03.93	45.41	43.25	-29.0	-29.6	28.5	0.00e+00	0	31	0	1815085056	30	6158
2026-01-08 16:22:07.96	46.50	44.25	-29.4	-30.0	28.3	0.00e+00	0	31	0	1838153728	30	6402
2026-01-08 16:22:12.01	47.67	45.27	-29.1	-29.8	28.5	0.00e+00	0	31	0	1861222400	30	6255
2026-01-08 16:22:16.04	48.91	46.30	-29.2	-29.8	28.5	0.00e+00	0	31	0	1883242496	30	6253
2026-01-08 16:22:20.08	50.23	47.34	-28.9	-29.5	28.7	0.00e+00	0	31	0	1906311168	30	6100
2026-01-08 16:22:24.11	51.65	48.38	-29.1	-29.7	28.5	0.00e+00	0	31	0	1929379840	30	6189
2026-01-08 16:22:28.15	53.16	49.44	-29.5	-30.1	28.2	0.00e+00	0	32	0	1951399936	30	6496
2026-01-08 16:22:32.19	54.78	50.50	-29.7	-30.3	28.0	0.00e+00	0	32	0	1974468608	30	6671
2026-01-08 16:22:36.23	56.52	51.55	-29.5	-30.1	28.0	0.00e+00	0	31	0	1997537280	32	5790
2026-01-08 16:22:40.27	58.38	52.61	-29.8	-30.4	27.8	0.00e+00	0	31	0	2019557376	32	6014
2026-01-08 16:22:44.31	60.39	53.65	-29.7	-30.2	27.9	0.00e+00	0	31	0	2042626048	32	5888
2026-01-08 16:22:48.35	62.53	54.67	-29.6	-30.2	28.0	0.00e+00	0	31	0	2065694720	32	5883
2026-01-08 16:22:52.38	64.83	55.67	-30.4	-31.1	27.5	0.00e+00	0	31	0	2087714816	32	6493
2026-01-08 16:22:56.42	67.30	56.65	-30.0	-30.6	27.8	0.00e+00	0	32	0	2110783488	32	6109
2026-01-08 16:23:00.46	69.95	57.58	-29.6	-30.2	28.1	0.00e+00	0	31	0	2133852160	32	5882
2026-01-08 16:23:04.49	72.78	58.47	-29.8	-30.4	27.9	0.00e+00	0	32	0	2155872256	32	6002
2026-01-08 16:23:08.54	75.80	59.31	-29.2	-29.9	28.3	0.00e+00	0	31	0	2178940928	32	5632
2026-01-08 16:23:12.58	79.01	60.08	-29.2	-29.7	28.4	0.00e+00	0	32	0	2200961024	32	5546
2026-01-08 16:23:16.62	82.41	60.77	-28.9	-29.4	28.6	0.00e+00	0	31	0	2224029696	32	5374
2026-01-08 16:23:20.66	85.99	61.37	-29.1	-29.8	28.4	0.00e+00	0	32	0	2247098368	30	6252
2026-01-08 16:23:24.70	89.73	61.88	-28.9	-29.5	28.6	0.00e+00	0	31	0	2270167040	30	6073
2026-01-08 16:23:28.73	93.60	62.29	-28.6	-29.2	28.8	0.00e+00	0	31	0	2292187136	30	5836
2026-01-08 16:23:32.76	97.59	62.58	-28.9	-29.5	28.6	0.00e+00	0	31	0	2315255808	30	6076
2026-01-08 16:23:36.80	101.66	62.76	-28.5	-29.0	28.9	0.00e+00	0	32	0	2338324480	30	5749
2026-01-08 16:23:40.83	105.76	62.82	-28.6	-29.2	28.8	0.00e+00	0	31	0	2360344576	30	5883
2026-01-08 16:23:44.87	109.88	62.75	-28.6	-29.2	28.8	0.00e+00	0	31	0	2383413248	30	5837
2026-01-08 16:23:48.91	113.95	62.56	-28.7	-29.3	28.6	0.00e+00	0	31	0	2405433344	30	5906
2026-01-08 16:23:52.94	117.93	62.26	-28.6	-29.3	28.8	0.00e+00	0	32	0	2428502016	30	5902
2026-01-08 16:23:56.98	121.80	61.84	-28.5	-29.1	28.9	0.00e+00	0	32	0	2451570688	30	5810
2026-01-08 16:24:01.02	125.53	61.32	-29.0	-29.5	28.6	0.00e+00	0	32	0	2473590784	30	6059
2026-01-08 16:24:05.06	129.09	60.71	-28.8	-29.4	28.6	0.00e+00	0	32	0	2496659456	30	6006
2026-01-08 16:24:09.09	132.47	60.01	-29.2	-29.8	28.4	0.00e+00	0	31	0	2519728128	30	6272
2026-01-08 16:24:13.13	135.67	59.23	-29.4	-30.1	28.2	0.00e+00	0	31	0	2542796800	30	6479
2026-01-08 16:24:17.17	138.68	58.39	-29.7	-30.4	28.1	0.00e+00	0	31	0	2564816896	30	6736
2026-01-08 16:24:21.21	141.50	57.49	-29.2	-29.8	28.4	0.00e+00	0	31	0	2587885568	32	5611
2026-01-08 16:24:25.24	144.12	56.55	-29.7	-30.3	28.1	0.00e+00	0	31	0	2609905664	32	5963
2026-01-08 16:24:29.28	146.59	55.58	-30.1	-30.8	27.7	0.00e+00	0	32	0	2632974336	32	6281
2026-01-08 16:24:33.31	148.87	54.57	-30.3	-31.0	27.5	0.00e+00	0	32	0	2656043008	32	6439
2026-01-08 16:24:37.35	151.01	53.54	-30.2	-30.7	27.6	0.00e+00	0	31	0	2678063104	32	6231
2026-01-08 16:24:41.39	153.00	52.49	-30.1	-30.8	27.7	0.00e+00	0	32	0	2701131776	32	6274
2026-01-08 16:24:45.43	154.86	51.44	-29.4	-30.0	28.2	0.00e+00	0	31	0	2724200448	32	5744
2026-01-08 16:24:49.47	156.59	50.37	-29.6	-30.3	28.1	0.00e+00	0	32	0	2746220544	32	5923
2026-01-08 16:24:53.51	158.20	49.31	-29.5	-30.2	28.0	0.00e+00	0	31	0	2769289216	32	5848
2026-01-08 16:24:57.54	159.71	48.26	-28.8	-29.5	28.6	0.00e+00	0	32	0	2792357888	32	5388
2026-01-08 16:25:01.58	161.12	47.20	-29.3	-30.0	27.9	0.00e+00	0	31	0	2814377984	32	5699
2026-01-08 16:25:05.62	162.43	46.16	-28.9	-29.6	28.3	0.00e+00	0	31	0	2837446656	32	5469
2026-01-08 16:25:09.66	163.67	45.13	-29.0	-29.7	28.5	0.00e+00	0	32	0	2860515328	32	5517
2026-01-08 16:25:13.70	164.83	44.11	-28.8	-29.3	28.7	0.00e+00	0	32	0	2882535424	30	5918
2026-01-08 16:25:17.73	165.92	43.10	-29.0	-29.6	28.5	0.00e+00	0	31	0	2905604096	30	6126
2026-01-08 16:25:21.77	166.94	42.11	-28.8	-29.4	28.8	0.00e+00	0	31	0	2928672768	30	6002
2026-01-08 16:25:25.81	167.91	41.14	-29.0	-29.5	28.5	0.00e+00	0	31	0	2950692864	30	6101
2026-01-08 16:25:29.85	168.82	40.18	-28.4	-28.9	28.9	0.00e+00	0	31	0	2973761536	30	5659
2026-01-08 16:25:33.89	169.68	39.25	-28.7	-29.3	28.7	0.00e+00	0	31	0	2996830208	30	5901
2026-01-08 16:25:37.93	170.49	38.33	-28.7	-29.2	28.6	0.00e+00	0	31	0	3018850304	30	5878
2026-01-08 16:25:41.97	171.26	37.43	-28.4	-29.1	28.8	0.00e+00	0	32	0	3041918976	30	5763
2026-01-08 16:25:46.01	171.99	36.54	-28.3	-29.0	28.9	0.00e+00	0	31	0	3064987648	30	5722
2026-01-08 16:25:50.05	172.68	35.68	-28.3	-29.0	28.9	0.00e+00	0	32	0	3087007744	30	5708
2026-01-08 16:25:54.09	173.34	34.84	-28.6	-29.1	28.8	0.00e+00	0	32	0	3110076416	30	5793
2026-01-08 16:25:58.12	173.97	34.01	-28.5	-29.0	28.8	0.00e+00	0	31	0	3133145088	30	5760
2026-01-08 16:26:02.16	174.56	33.20	-28.8	-29.3	28.7	0.00e+00	0	31	0	3155165184	30	5933
2026-01-08 16:26:06.19	175.13	32.41	-28.7	-29.2	28.7	0.00e+00	0	31	0	3178233856	30	5874
2026-01-08 16:26:10.23	175.67	31.64	-28.7	-29.3	28.6	0.00e+00	0	32	0	3201302528	30	5907
2026-01-08 16:26:14.27	176.19	30.88	-29.0	-29.6	28.5	0.00e+00	0	32	0	3223322624	30	6169
2026-01-08 16:26:18.31	176.69	30.14	-29.1	-29.8	28.4	0.00e+00	0	32	0	3246391296	30	6262
2026-01-08 16:26:22.34	177.16	29.42	-28.9	-29.4	28.5	0.00e+00	0	32	0	3269459968	30	5997
2026-01-08 16:26:26.38	177.62	28.72	-28.9	-29.4	28.6	0.00e+00	0	32	0	3291480064	30	5992
2026-01-08 16:26:30.42	178.05	28.03	-29.1	-29.6	28.5	0.00e+00	0	32	0	3314548736	30	6136
2026-01-08 16:26:34.46	178.47	27.35	-29.2	-29.7	28.3	0.00e+00	0	32	0	3337617408	30	6221
2026-01-08 16:26:38.50	178.88	26.69	-28.8	-29.3	28.6	0.00e+00	0	31	0	3359637504	30	5935
2026-01-08 16:26:42.54	179.26	26.04	-28.8	-29.3	28.5	0.00e+00	0	32	0	3382706176	30	5957
2026-01-08 16:26:46.58	179.64	25.41	-28.9	-29.4	28.5	0.00e+00	0	31	0	3404726272	30	5988
2026-01-08 16:26:50.62	179.99	24.79	-29.1	-29.6	28.4	0.00e+00	0	32	0	3427794944	30	6123
2026-01-08 16:26:54.65	180.34	24.19	-29.3	-30.0	28.2	0.00e+00	0	32	0	3450863616	30	6400
2026-01-08 16:26:58.69	180.67	23.60	-29.5	-30.1	28.0	0.00e+00	0	31	0	3473932288	30	6534
2026-01-08 16:27:02.73	180.99	23.02	-29.7	-30.4	27.8	0.00e+00	0	32	0	3495952384	32	5982
2026-01-08 16:27:06.77	181.30	22.45	-29.7	-30.4	27.8	0.00e+00	0	31	0	3519021056	32	6023
2026-01-08 16:27:10.81	181.60	21.89	-29.7	-30.4	27.8	0.00e+00	0	31	0	3542089728	32	5992
2026-01-08 16:27:14.85	181.89	21.35	-29.9	-30.6	27.6	0.00e+00	0	32	0	3564109824	32	6125
2026-01-08 16:27:18.88	182.17	20.81	-29.9	-30.5	27.6	0.00e+00	0	32	0	3587178496	32	6073
2026-01-08 16:27:22.92	182.45	20.29	-30.1	-30.7	27.5	0.00e+00	0	32	0	3609198592	32	6178
2026-01-08 16:27:26.96	182.71	19.77	-30.4	-30.9	27.3	0.00e+00	0	32	0	3632267264	32	6373
2026-01-08 16:27:31.00	182.96	19.27	-30.5	-31.2	27.2	0.00e+00	0	32	0	3655335936	32	6583
2026-01-08 16:27:35.04	183.21	18.78	-30.6	-31.3	27.1	0.00e+00	0	32	0	3678404608	32	6679
2026-01-08 16:27:39.08	183.45	18.29	-30.7	-31.4	27.0	0.00e+00	0	32	0	3700424704	32	6704
2026-01-08 16:27:43.12	183.68	17.81	-30.8	-31.5	27.0	0.00e+00	0	32	0	3723493376	34	6034
2026-01-08 16:27:47.16	183.91	17.35	-30.8	-31.3	27.0	0.00e+00	0	32	0	3745513472	34	5941
2026-01-08 16:27:51.19	184.13	16.89	-31.0	-31.5	26.7	0.00e+00	0	32	0	3768582144	34	6087
2026-01-08 16:27:55.23	184.34	16.44	-30.9	-31.5	26.8	0.00e+00	0	31	0	3791650816	34	6068
2026-01-08 16:27:59.26	184.55	16.00	-31.2	-31.7	26.6	0.00e+00	0	32	0	3813670912	34	6238
2026-01-08 16:28:03.30	184.75	15.56	-31.3	-31.9	26.4	0.00e+00	0	32	0	3836739584	34	6343
2026-01-08 16:28:07.34	184.95	15.13	-31.4	-32.2	26.3	0.00e+00	0	32	0	3859808256	34	6544
2026-01-08 16:28:11.37	185.14	14.71	-31.5	-32.1	26.3	0.00e+00	0	32	0	3881828352	34	6481
2026-01-08 16:28:15.41	185.33	14.30	-31.8	-32.4	26.0	0.00e+00	0	32	0	3904897024	36	5995
2026-01-08 16:28:19.45	185.51	13.89	-31.8	-32.4	26.0	0.00e+00	0	32	0	3927965696	36	6008
2026-01-08 16:28:23.48	185.69	13.49	-31.8	-32.4	25.8	0.00e+00	0	31	0	3949985792	36	6029
2026-01-08 16:28:27.52	185.86	13.10	-32.0	-32.6	25.7	0.00e+00	0	31	0	3973054464	36	6144
2026-01-08 16:28:31.56	186.03	12.71	-32.1	-32.8	25.7	0.00e+00	0	31	0	3996123136	36	6307
2026-01-08 16:28:35.59	186.20	12.33	-32.1	-32.7	25.7	0.00e+00	0	32	0	4018143232	36	6219
2026-01-08 16:28:39.63	186.36	11.95	-32.3	-33.0	25.5	0.00e+00	0	32	0	4041211904	36	6436
2026-01-08 16:28:43.66	186.52	11.58	-32.4	-33.0	25.3	0.00e+00	0	32	0	4064280576	36	6431
2026-01-08 16:28:47.70	186.67	11.21	-32.4	-33.0	25.3	0.00e+00	0	32	0	4086300672	36	6436
2026-01-08 16:28:51.74	186.82	10.85	-32.5	-33.1	25.3	0.00e+00	0	32	0	4109369344	36	6517
2026-01-08 16:28:55.78	186.97	10.50	-32.6	-33.2	25.2	0.00e+00	0	32	0	4131389440	36	6590
2026-01-08 16:28:59.81	187.11	10.15	-32.7	-33.3	25.2	0.00e+00	0	32	0	4154458112	38	5903
2026-01-08 16:29:03.85	187.25	9.80	-32.9	-33.6	24.9	0.00e+00	0	32	0	4177526784	38	6152
2026-01-08 16:29:07.89	187.39	9.46	-32.9	-33.6	24.9	0.00e+00	0	32	0	4200595456	38	6138
2026-01-08 16:29:11.93	187.53	9.12	-32.9	-33.7	24.9	0.00e+00	0	32	0	4222615552	38	6184
2026-01-08 16:29:15.97	187.66	8.79	-33.2	-33.8	24.6	0.00e+00	0	32	0	4245684224	38	6278
2026-01-08 16:29:20.01	187.79	8.46	-33.2	-33.8	24.5	0.00e+00	0	32	0	4268752896	38	6299
2026-01-08 16:29:24.04	187.92	8.14	-33.3	-33.9	24.4	0.00e+00	0	32	0	4290772992	38	6383
2026-01-08 16:29:28.07	188.04	7.82	-33.4	-34.0	24.3	0.00e+00	0	32	0	4313841664	38	6449
2026-01-08 16:29:32.11	188.17	7.50	-33.6	-34.3	24.1	0.00e+00	0	32	0	4335861760	38	6629
2026-01-08 16:29:36.14	188.29	7.19	-33.8	-34.6	23.9	0.00e+00	0	32	0	4358930432	40	6108
2026-01-08 16:29:40.17	188.40	6.88	-33.7	-34.5	23.9	0.00e+00	0	32	0	4381999104	40	6088
2026-01-08 16:29:44.21	188.52	6.58	-33.9	-34.7	23.7	0.00e+00	0	32	0	4404019200	40	6217
2026-01-08 16:29:48.25	188.63	6.28	-34.0	-34.6	23.6	0.00e+00	0	32	0	4427087872	40	6153
2026-01-08 16:29:52.29	188.74	5.98	-33.9	-34.6	23.6	0.00e+00	0	32	0	4450156544	40	6148
2026-01-08 16:29:56.33	188.85	5.68	-34.1	-34.8	23.4	0.00e+00	0	32	0	4473225216	40	6252
2026-01-08 16:30:00.37	188.96	5.39	-34.2	-34.9	23.3	0.00e+00	0	31	0	4495245312	40	6349
2026-01-08 16:30:04.41	189.07	5.10	-34.6	-35.3	22.8	0.00e+00	0	32	0	4518313984	40	6672
2026-01-08 16:30:08.45	189.17	4.82	-34.6	-35.3	22.8	0.00e+00	0	32	0	4540334080	40	6677
2026-01-08 16:30:12.49	189.27	4.54	-34.5	-35.3	22.9	0.00e+00	0	31	0	4563402752	42	5964
2026-01-08 16:30:16.53	189.37	4.26	-34.8	-35.5	22.5	0.00e+00	0	32	0	4586471424	42	6065
2026-01-08 16:30:20.57	189.47	3.98	-35.3	-36.0	22.0	0.00e+00	0	32	0	4608491520	42	6415
2026-01-08 16:30:24.61	189.57	3.71	-35.0	-35.9	22.2	0.00e+00	0	32	0	4631560192	42	6339
2026-01-08 16:30:28.65	189.67	3.44	-35.3	-36.1	21.8	0.00e+00	0	32	0	4654628864	42	6510
2026-01-08 16:30:32.69	189.76	3.17	-35.5	-36.5	21.5	0.00e+00	0	32	0	4677697536	42	6772
2026-01-08 16:30:36.73	189.85	2.90	-47.5	-59.7	3.6	8.47e-01	0	32	104	4693426176	60	34889
2026-01-08 16:30:40.77	189.95	2.64	-48.3	-60.5	3.6	8.44e-01	0	32	104	4693426176	60	38189
2026-01-08 16:30:44.81	190.04	2.38	-48.4	-60.6	3.6	8.45e-01	0	32	104	4693426176	60	38534
2026-01-08 16:30:48.85	190.12	2.12	-48.4	-60.6	3.6	8.46e-01	0	32	104	4693426176	60	38813
2026-01-08 16:30:52.89	190.21	1.86	-48.5	-60.6	3.6	8.45e-01	0	32	104	4693426176	60	38641
2026-01-08 16:30:56.92	190.30	1.61	-48.5	-60.5	3.6	8.46e-01	0	32	104	4693426176	60	38250
2026-01-08 16:31:00.96	190.38	1.35	-48.4	-60.5	3.6	8.45e-01	0	32	104	4693426176	60	38341
2026-01-08 16:31:05.01	190.47	1.10	-48.4	-60.6	3.6	8.45e-01	0	32	104	4693426176	60	38614
2026-01-08 16:31:09.04	190.55	0.86	-48.4	-60.5	3.6	8.45e-01	0	32	104	4693426176	60	38160
2026-01-08 16:31:13.08	190.63	0.61	-48.4	-60.5	3.6	8.46e-01	0	32	104	4693426176	60	38315
2026-01-08 16:31:17.12	190.71	0.37	-48.4	-60.5	3.6	8.45e-01	0	32	104	4693426176	60	38207
2026-01-08 16:31:21.16	190.79	0.12	-48.4	-60.5	3.6	8.44e-01	0	32	104	4693426176	60	38450
2026-01-08 16:31:25.20	190.87	-0.12	-48.4	-60.5	3.6	8.46e-01	0	32	104	4693426176	60	38095

#Closed at: 2026-01-08 16:31:26
#Recorded file [4693 MB]: D:/lorett/data/35029_260109_041556.dat