passes_logs/2026/01/08/R4.6S_Anadyr/R4.6S_Anadyr__20260108_194220_FENGYUN_3E_rec.log

#Pass ID: 20260108_194220_FENGYUN 3E
#Satellite: FENGYUN 3E
#Configuration: FENGYUN 3E
#almurnet v.1.7.20251203
#Start time: 2026-01-08 19:42:23

#Version: 2.2.20231116
#Station: R4.6S_Anadyr
#Location: 177.4865 lon 64.73178 lat
#TLE: 1 49008U 21062A   26008.31124991 -.00000020  00000+0  11209-4 0  9997
#TLE: 2 49008  98.7482  13.5177 0001702 150.1462 209.9812 14.19884205233892

#Time	Az	El	Level	Level2	SNR	BER	BlckErr	Temp	State	Recorded	gain1	gain2
2026-01-08 19:42:23.12	22.20	0.18	-47.9	-57.7	3.4	8.40e-01	0	32	0	0	60	27836
2026-01-08 19:42:27.15	22.14	0.42	-48.1	-59.3	3.6	8.46e-01	0	32	104	0	60	33253
2026-01-08 19:42:31.19	22.08	0.67	-47.8	-59.0	3.6	8.46e-01	0	32	104	0	60	32219
2026-01-08 19:42:35.23	22.01	0.91	-47.1	-58.3	3.6	8.45e-01	0	32	104	0	60	29645
2026-01-08 19:42:39.26	21.95	1.16	-46.5	-57.6	3.6	8.46e-01	0	33	104	0	60	27547
2026-01-08 19:42:43.30	21.88	1.41	-46.4	-57.2	3.6	8.44e-01	0	33	104	0	60	26160
2026-01-08 19:42:47.34	21.81	1.66	-46.3	-56.9	3.6	8.45e-01	0	33	104	0	60	25166
2026-01-08 19:42:51.38	21.74	1.91	-46.4	-57.6	3.6	8.45e-01	0	33	104	0	60	27385
2026-01-08 19:42:55.42	21.67	2.17	-46.4	-57.2	3.6	8.46e-01	0	33	104	0	60	26256
2026-01-08 19:42:59.46	21.60	2.43	-46.2	-55.9	3.6	8.45e-01	0	33	104	0	60	22483
2026-01-08 19:43:03.50	21.52	2.69	-46.2	-55.6	3.6	8.44e-01	0	33	104	0	60	21667
2026-01-08 19:43:07.54	21.45	2.95	-45.4	-50.2	5.5	7.30e-01	0	33	0	0	60	11698
2026-01-08 19:43:11.58	21.37	3.22	-41.4	-43.1	13.6	2.28e-05	0	33	0	28311552	56	6537
2026-01-08 19:43:15.61	21.29	3.48	-39.5	-40.8	15.8	0.00e+00	0	33	0	57671680	52	6290
2026-01-08 19:43:19.65	21.21	3.75	-45.0	-49.7	5.1	8.35e-01	0	33	104	78643200	60	11070
2026-01-08 19:43:23.69	21.13	4.03	-35.3	-36.0	19.7	2.67e-03	0	33	104	78643200	48	4554
2026-01-08 19:43:27.72	21.04	4.30	-33.4	-34.0	22.6	0.00e+00	0	33	0	106954752	40	5719
2026-01-08 19:43:31.76	20.95	4.58	-33.3	-33.9	22.7	0.00e+00	0	33	0	135266304	40	5634
2026-01-08 19:43:35.80	20.86	4.86	-33.0	-33.6	23.1	0.00e+00	0	33	0	164626432	40	5480
2026-01-08 19:43:39.83	20.77	5.14	-33.0	-33.6	23.1	0.00e+00	0	33	0	193986560	40	5447
2026-01-08 19:43:43.87	20.68	5.43	-33.0	-33.6	23.1	0.00e+00	0	33	0	223346688	40	5481
2026-01-08 19:43:47.90	20.58	5.72	-32.8	-33.4	23.4	0.00e+00	0	33	0	252706816	38	6004
2026-01-08 19:43:51.94	20.49	6.01	-32.7	-33.3	23.6	0.00e+00	0	33	0	281018368	38	5905
2026-01-08 19:43:55.98	20.39	6.31	-32.6	-33.2	23.6	0.00e+00	0	33	0	310378496	38	5847
2026-01-08 19:44:00.02	20.28	6.61	-32.7	-33.3	23.6	0.00e+00	0	33	0	339738624	38	5915
2026-01-08 19:44:04.06	20.18	6.91	-32.8	-33.4	23.6	0.00e+00	0	33	0	369098752	38	5966
2026-01-08 19:44:08.09	20.07	7.22	-32.5	-33.0	23.9	0.00e+00	0	33	0	398458880	38	5751
2026-01-08 19:44:12.13	19.96	7.53	-32.4	-32.9	23.9	0.00e+00	0	33	0	427819008	38	5691
2026-01-08 19:44:16.17	19.85	7.84	-32.3	-32.8	24.1	0.00e+00	0	33	0	456130560	38	5605
2026-01-08 19:44:20.21	19.73	8.16	-32.3	-32.8	24.1	0.00e+00	0	33	0	485490688	38	5607
2026-01-08 19:44:24.24	19.61	8.48	-32.3	-32.9	24.2	0.00e+00	0	33	0	514850816	38	5648
2026-01-08 19:44:28.28	19.49	8.81	-32.1	-32.6	24.3	0.00e+00	0	33	0	544210944	38	5476
2026-01-08 19:44:32.32	19.37	9.14	-32.0	-32.5	24.5	0.00e+00	0	33	0	572522496	38	5427
2026-01-08 19:44:36.36	19.24	9.47	-31.8	-32.4	24.6	0.00e+00	0	33	0	601882624	38	5318
2026-01-08 19:44:40.40	19.11	9.81	-31.8	-32.3	24.7	0.00e+00	0	33	0	631242752	36	5938
2026-01-08 19:44:44.44	18.97	10.16	-31.4	-31.9	25.0	0.00e+00	0	33	0	660602880	36	5649
2026-01-08 19:44:48.47	18.83	10.50	-31.2	-31.7	25.3	0.00e+00	0	33	0	688914432	36	5565
2026-01-08 19:44:52.51	18.69	10.85	-31.3	-31.8	25.3	0.00e+00	0	33	0	718274560	36	5595
2026-01-08 19:44:56.55	18.54	11.21	-31.2	-31.7	25.3	0.00e+00	0	33	0	747634688	36	5531
2026-01-08 19:45:00.59	18.39	11.58	-30.8	-31.3	25.6	0.00e+00	0	33	0	776994816	36	5305
2026-01-08 19:45:04.63	18.24	11.94	-30.9	-31.4	25.6	0.00e+00	0	33	0	806354944	34	6016
2026-01-08 19:45:08.67	18.08	12.32	-30.7	-31.2	25.8	0.00e+00	0	33	0	835715072	34	5893
2026-01-08 19:45:12.71	17.91	12.70	-30.5	-31.0	25.9	0.00e+00	0	33	0	864026624	34	5732
2026-01-08 19:45:16.75	17.75	13.08	-30.5	-31.0	26.0	0.00e+00	0	33	0	893386752	34	5697
2026-01-08 19:45:20.79	17.57	13.47	-30.3	-30.8	26.2	0.00e+00	0	33	0	922746880	34	5591
2026-01-08 19:45:24.83	17.39	13.87	-30.3	-30.8	26.2	0.00e+00	0	33	0	952107008	34	5587
2026-01-08 19:45:28.88	17.21	14.27	-30.2	-30.7	26.3	0.00e+00	0	33	0	981467136	34	5538
2026-01-08 19:45:32.91	17.02	14.68	-30.1	-30.6	26.3	0.00e+00	0	33	0	1009778688	34	5483
2026-01-08 19:45:36.95	16.83	15.09	-30.1	-30.6	26.4	0.00e+00	0	33	0	1039138816	34	5475
2026-01-08 19:45:40.99	16.62	15.52	-29.9	-30.4	26.5	0.00e+00	0	33	0	1068498944	34	5369
2026-01-08 19:45:45.03	16.42	15.95	-29.9	-30.4	26.6	0.00e+00	0	33	0	1097859072	34	5344
2026-01-08 19:45:49.06	16.20	16.38	-30.1	-30.6	26.5	0.00e+00	0	33	0	1127219200	34	5471
2026-01-08 19:45:53.10	15.98	16.83	-29.7	-30.1	26.9	0.00e+00	0	33	0	1156579328	32	5818
2026-01-08 19:45:57.14	15.75	17.28	-29.3	-29.7	27.1	0.00e+00	0	33	0	1184890880	32	5551
2026-01-08 19:46:01.17	15.52	17.74	-29.3	-29.8	27.1	0.00e+00	0	33	0	1214251008	32	5599
2026-01-08 19:46:05.21	15.28	18.21	-29.3	-29.8	27.2	0.00e+00	0	33	0	1243611136	32	5576
2026-01-08 19:46:09.24	15.03	18.68	-29.4	-29.8	27.0	0.00e+00	0	33	0	1272971264	32	5627
2026-01-08 19:46:13.28	14.77	19.17	-29.3	-29.8	27.1	0.00e+00	0	33	0	1302331392	32	5567
2026-01-08 19:46:17.32	14.50	19.67	-29.3	-29.8	27.2	0.00e+00	0	33	0	1330642944	32	5584
2026-01-08 19:46:21.35	14.22	20.17	-29.3	-29.8	27.1	0.00e+00	0	33	0	1360003072	32	5619
2026-01-08 19:46:25.39	13.93	20.68	-29.3	-29.8	27.2	0.00e+00	0	33	0	1389363200	32	5606
2026-01-08 19:46:29.43	13.63	21.21	-29.3	-29.8	27.4	0.00e+00	0	33	0	1418723328	32	5577
2026-01-08 19:46:33.47	13.32	21.74	-28.9	-29.3	27.6	0.00e+00	0	33	0	1447034880	32	5299
2026-01-08 19:46:37.50	13.00	22.28	-28.7	-29.2	27.7	0.00e+00	0	33	0	1476395008	30	5835
2026-01-08 19:46:41.54	12.67	22.84	-28.4	-28.9	27.9	0.00e+00	0	33	0	1505755136	30	5651
2026-01-08 19:46:45.58	12.32	23.40	-28.4	-28.8	27.9	0.00e+00	0	33	0	1535115264	30	5611
2026-01-08 19:46:49.62	11.96	23.98	-28.2	-28.6	28.2	0.00e+00	0	33	0	1564475392	30	5484
2026-01-08 19:46:53.66	11.59	24.57	-28.2	-28.7	28.1	0.00e+00	0	33	0	1592786944	30	5508
2026-01-08 19:46:57.70	11.20	25.17	-28.3	-28.7	28.1	0.00e+00	0	33	0	1622147072	30	5562
2026-01-08 19:47:01.73	10.80	25.79	-28.3	-28.7	28.2	0.00e+00	0	33	0	1651507200	30	5551
2026-01-08 19:47:05.77	10.37	26.41	-28.1	-28.6	28.2	0.00e+00	0	33	0	1680867328	30	5478
2026-01-08 19:47:09.81	9.94	27.05	-28.2	-28.7	28.2	0.00e+00	0	33	0	1710227456	30	5535
2026-01-08 19:47:13.85	9.48	27.71	-28.2	-28.7	28.2	0.00e+00	0	33	0	1738539008	30	5535
2026-01-08 19:47:17.89	9.00	28.37	-28.4	-28.9	28.1	0.00e+00	0	33	0	1767899136	30	5671
2026-01-08 19:47:21.93	8.50	29.05	-28.7	-29.2	27.9	0.00e+00	0	33	0	1797259264	30	5847
2026-01-08 19:47:25.97	7.98	29.75	-28.2	-28.6	28.1	0.00e+00	0	33	0	1826619392	30	5493
2026-01-08 19:47:30.01	7.43	30.46	-27.7	-28.1	28.6	0.00e+00	0	33	0	1855979520	28	5804
2026-01-08 19:47:34.04	6.86	31.18	-27.5	-28.0	28.6	0.00e+00	0	33	0	1885339648	28	5714
2026-01-08 19:47:38.08	6.27	31.92	-27.7	-28.1	28.5	0.00e+00	0	33	0	1913651200	28	5828
2026-01-08 19:47:42.11	5.64	32.67	-27.8	-28.2	28.4	0.00e+00	0	33	0	1943011328	28	5894
2026-01-08 19:47:46.15	4.98	33.44	-27.8	-28.3	28.5	0.00e+00	0	33	0	1972371456	28	5910
2026-01-08 19:47:50.19	4.29	34.23	-27.8	-28.2	28.5	0.00e+00	0	33	0	2001731584	28	5866
2026-01-08 19:47:54.22	3.57	35.03	-27.9	-28.4	28.4	0.00e+00	0	33	0	2030043136	28	5979
2026-01-08 19:47:58.26	2.81	35.84	-27.6	-28.0	28.5	0.00e+00	0	33	0	2059403264	28	5745
2026-01-08 19:48:02.31	2.00	36.68	-27.8	-28.3	28.5	0.00e+00	0	33	0	2088763392	28	5932
2026-01-08 19:48:06.35	1.16	37.52	-27.6	-28.1	28.6	0.00e+00	0	33	0	2118123520	28	5767
2026-01-08 19:48:10.38	0.27	38.38	-27.9	-28.3	28.3	0.00e+00	0	33	0	2147483648	28	5963
2026-01-08 19:48:14.42	359.32	39.25	-28.2	-28.6	28.3	0.00e+00	0	33	0	2175795200	28	6152
2026-01-08 19:48:18.46	358.33	40.14	-28.2	-28.7	28.1	0.00e+00	0	33	0	2205155328	28	6207
2026-01-08 19:48:22.49	357.28	41.03	-28.7	-29.2	27.8	0.00e+00	0	33	0	2234515456	30	5845
2026-01-08 19:48:26.53	356.17	41.94	-28.2	-28.6	28.2	0.00e+00	0	33	0	2263875584	30	5500
2026-01-08 19:48:30.57	354.99	42.86	-27.9	-28.3	28.5	0.00e+00	0	33	0	2292187136	28	5962
2026-01-08 19:48:34.60	353.74	43.78	-27.2	-27.6	28.8	0.00e+00	0	33	0	2321547264	28	5476
2026-01-08 19:48:38.64	352.42	44.72	-28.5	-28.9	27.9	0.00e+00	0	33	0	2350907392	28	6383
2026-01-08 19:48:42.68	351.01	45.65	-28.3	-28.8	28.1	0.00e+00	0	33	0	2380267520	30	5569
2026-01-08 19:48:46.71	349.52	46.59	-28.3	-28.8	28.1	0.00e+00	0	33	0	2409627648	30	5586
2026-01-08 19:48:50.75	347.93	47.53	-29.6	-30.0	27.0	0.00e+00	0	33	0	2438987776	30	6454
2026-01-08 19:48:54.79	346.25	48.46	-29.7	-30.1	26.9	0.00e+00	0	33	0	2467299328	32	5818
2026-01-08 19:48:58.83	344.46	49.38	-29.8	-30.3	27.0	0.00e+00	0	33	0	2496659456	32	5921
2026-01-08 19:49:02.87	342.56	50.29	-29.8	-30.3	27.0	0.00e+00	0	33	0	2526019584	32	5902
2026-01-08 19:49:06.91	340.54	51.18	-29.3	-29.8	27.4	0.00e+00	0	33	0	2555379712	32	5591
2026-01-08 19:49:10.94	338.40	52.05	-29.7	-30.1	27.0	0.00e+00	0	33	0	2584739840	32	5820
2026-01-08 19:49:14.98	336.13	52.89	-29.6	-30.1	27.1	0.00e+00	0	33	0	2613051392	32	5815
2026-01-08 19:49:19.02	333.73	53.69	-29.9	-30.3	26.9	0.00e+00	0	33	0	2642411520	32	5964
2026-01-08 19:49:23.06	331.19	54.45	-29.2	-29.6	27.5	0.00e+00	0	33	0	2671771648	32	5496
2026-01-08 19:49:27.09	328.52	55.16	-30.0	-30.4	26.9	0.00e+00	0	33	0	2701131776	32	6016
2026-01-08 19:49:31.13	325.72	55.82	-29.4	-29.9	27.2	0.00e+00	0	33	0	2730491904	32	5655
2026-01-08 19:49:35.17	322.79	56.41	-29.5	-30.0	27.1	0.00e+00	0	33	0	2758803456	32	5736
2026-01-08 19:49:39.21	319.73	56.94	-29.5	-30.0	27.1	0.00e+00	0	33	0	2788163584	32	5715
2026-01-08 19:49:43.25	316.57	57.38	-29.5	-30.0	27.2	0.00e+00	0	33	0	2817523712	32	5704
2026-01-08 19:49:47.28	313.31	57.74	-29.3	-29.7	27.4	0.00e+00	0	33	0	2846883840	32	5566
2026-01-08 19:49:51.32	309.97	58.02	-29.5	-30.0	27.1	0.00e+00	0	33	0	2875195392	32	5705
2026-01-08 19:49:55.36	306.57	58.20	-30.0	-30.5	26.8	0.00e+00	0	33	0	2904555520	32	6095
2026-01-08 19:49:59.39	303.15	58.29	-30.1	-30.6	26.6	0.00e+00	0	33	0	2933915648	32	6121
2026-01-08 19:50:03.43	299.71	58.28	-29.6	-30.0	27.2	0.00e+00	0	33	0	2963275776	32	5727
2026-01-08 19:50:07.47	296.28	58.17	-29.6	-30.0	27.1	0.00e+00	0	33	0	2992635904	32	5747
2026-01-08 19:50:11.51	292.89	57.97	-29.5	-30.0	26.8	0.00e+00	0	33	0	3020947456	32	5720
2026-01-08 19:50:15.55	289.56	57.67	-29.9	-30.4	26.7	0.00e+00	0	33	0	3050307584	32	6004
2026-01-08 19:50:19.58	286.32	57.29	-29.8	-30.3	27.0	0.00e+00	0	33	0	3079667712	32	5902
2026-01-08 19:50:23.62	283.18	56.83	-29.4	-29.9	27.3	0.00e+00	0	33	0	3109027840	32	5675
2026-01-08 19:50:27.65	280.15	56.29	-29.4	-29.9	27.3	0.00e+00	0	33	0	3138387968	32	5639
2026-01-08 19:50:31.70	277.23	55.68	-29.4	-29.9	27.2	0.00e+00	0	33	0	3167748096	32	5656
2026-01-08 19:50:35.74	274.45	55.01	-29.3	-29.8	27.4	0.00e+00	0	33	0	3196059648	32	5571
2026-01-08 19:50:39.78	271.81	54.29	-29.6	-30.1	26.8	0.00e+00	0	33	0	3225419776	32	5813
2026-01-08 19:50:43.81	269.30	53.52	-29.6	-30.0	27.2	0.00e+00	0	33	0	3254779904	32	5760
2026-01-08 19:50:47.84	266.93	52.70	-29.5	-30.0	27.2	0.00e+00	0	33	0	3284140032	32	5719
2026-01-08 19:50:51.88	264.68	51.86	-29.5	-30.0	27.2	0.00e+00	0	33	0	3313500160	32	5720
2026-01-08 19:50:55.92	262.56	50.98	-29.1	-29.6	27.5	0.00e+00	0	33	0	3341811712	32	5477
2026-01-08 19:50:59.96	260.56	50.08	-29.2	-29.6	27.5	0.00e+00	0	33	0	3371171840	32	5489
2026-01-08 19:51:03.99	258.69	49.17	-29.6	-30.1	27.1	0.00e+00	0	33	0	3400531968	32	5762
2026-01-08 19:51:08.03	256.91	48.24	-29.1	-29.6	27.5	0.00e+00	0	33	0	3429892096	32	5456
2026-01-08 19:51:12.07	255.25	47.30	-29.0	-29.5	27.7	0.00e+00	0	33	0	3458203648	30	6038
2026-01-08 19:51:16.11	253.68	46.36	-29.3	-29.7	27.2	0.00e+00	0	33	0	3487563776	30	6239
2026-01-08 19:51:20.14	252.20	45.43	-28.3	-28.7	28.1	0.00e+00	0	33	0	3516923904	30	5547
2026-01-08 19:51:24.18	250.81	44.49	-28.0	-28.4	28.4	0.00e+00	0	33	0	3546284032	30	5370
2026-01-08 19:51:28.22	249.50	43.55	-28.3	-28.8	28.2	0.00e+00	0	33	0	3574595584	30	5577
2026-01-08 19:51:32.25	248.27	42.62	-28.3	-28.8	28.1	0.00e+00	0	33	0	3603955712	30	5618
2026-01-08 19:51:36.29	247.10	41.70	-28.5	-28.9	28.1	0.00e+00	0	33	0	3633315840	30	5691
2026-01-08 19:51:40.33	246.00	40.79	-28.1	-28.6	28.2	0.00e+00	0	33	0	3662675968	30	5465
2026-01-08 19:51:44.36	244.96	39.90	-28.4	-28.9	28.1	0.00e+00	0	33	0	3692036096	30	5644
2026-01-08 19:51:48.40	243.97	39.01	-28.0	-28.4	28.2	0.00e+00	0	33	0	3721396224	30	5372
2026-01-08 19:51:52.44	243.04	38.14	-28.1	-28.5	28.4	0.00e+00	0	33	0	3749707776	30	5427
2026-01-08 19:51:56.48	242.15	37.28	-28.1	-28.5	28.4	0.00e+00	0	33	0	3779067904	30	5417
2026-01-08 19:52:00.52	241.31	36.43	-28.3	-28.7	28.2	0.00e+00	0	33	0	3808428032	30	5549
2026-01-08 19:52:04.56	240.52	35.60	-27.8	-28.3	28.4	0.00e+00	0	33	0	3837788160	30	5272
2026-01-08 19:52:08.59	239.76	34.79	-27.7	-28.1	28.3	0.00e+00	0	33	0	3867148288	28	5827
2026-01-08 19:52:12.63	239.04	33.99	-27.8	-28.3	28.4	0.00e+00	0	33	0	3895459840	28	5907
2026-01-08 19:52:16.67	238.36	33.20	-27.8	-28.2	28.2	0.00e+00	0	33	0	3924819968	28	5867
2026-01-08 19:52:20.71	237.70	32.44	-28.2	-28.7	28.1	0.00e+00	0	33	0	3954180096	28	6179
2026-01-08 19:52:24.75	237.08	31.68	-28.0	-28.5	28.3	0.00e+00	0	33	0	3983540224	28	6066
2026-01-08 19:52:28.80	236.49	30.94	-28.0	-28.5	27.8	0.00e+00	0	33	0	4012900352	28	6065
2026-01-08 19:52:32.83	235.92	30.22	-27.9	-28.4	28.1	0.00e+00	0	33	0	4042260480	28	5984
2026-01-08 19:52:36.87	235.38	29.51	-27.9	-28.3	28.3	0.00e+00	0	33	0	4070572032	28	5936
2026-01-08 19:52:40.91	234.86	28.82	-28.1	-28.6	28.2	0.00e+00	0	33	0	4099932160	28	6115
2026-01-08 19:52:44.94	234.36	28.14	-28.2	-28.7	28.2	0.00e+00	0	33	0	4129292288	28	6181
2026-01-08 19:52:48.99	233.89	27.47	-28.0	-28.6	24.1	0.00e+00	0	33	0	4158652416	28	6131
2026-01-08 19:52:53.03	233.43	26.82	-28.2	-28.9	23.9	0.00e+00	0	33	0	4188012544	28	6324
2026-01-08 19:52:57.06	233.00	26.18	-28.1	-28.7	23.9	0.00e+00	0	33	0	4216324096	28	6226
2026-01-08 19:53:01.10	232.58	25.55	-27.9	-28.6	24.2	0.00e+00	0	33	0	4245684224	28	6104
2026-01-08 19:53:05.14	232.17	24.94	-27.8	-28.4	24.3	0.00e+00	0	33	0	4275044352	28	6030
2026-01-08 19:53:09.18	231.79	24.34	-28.0	-28.6	24.3	0.00e+00	0	33	0	4303355904	28	6155
2026-01-08 19:53:13.22	231.41	23.75	-28.2	-28.8	24.1	0.00e+00	0	33	0	4332716032	28	6315
2026-01-08 19:53:17.25	231.06	23.17	-28.5	-29.1	23.7	0.00e+00	0	33	0	4362076160	28	6531
2026-01-08 19:53:21.29	230.71	22.61	-28.5	-29.2	23.6	0.00e+00	0	33	0	4391436288	28	6584
2026-01-08 19:53:25.33	230.38	22.05	-28.5	-29.2	23.5	0.00e+00	0	33	0	4420796416	28	6599
2026-01-08 19:53:29.37	230.06	21.51	-28.8	-29.5	23.5	0.00e+00	0	33	0	4449107968	30	6051
2026-01-08 19:53:33.41	229.75	20.98	-28.7	-29.4	23.7	0.00e+00	0	33	0	4478468096	30	5965
2026-01-08 19:53:37.44	229.45	20.45	-28.7	-29.3	23.7	0.00e+00	0	33	0	4507828224	30	5948
2026-01-08 19:53:41.47	229.16	19.94	-28.8	-29.5	23.6	0.00e+00	0	33	0	4537188352	30	6072
2026-01-08 19:53:45.51	228.88	19.44	-29.1	-29.7	23.5	0.00e+00	0	33	0	4566548480	30	6237
2026-01-08 19:53:49.55	228.61	18.94	-29.3	-30.0	23.4	0.00e+00	0	32	0	4595908608	30	6433
2026-01-08 19:53:53.58	228.35	18.46	-29.7	-30.3	23.3	0.00e+00	0	33	0	4624220160	32	5958
2026-01-08 19:53:57.62	228.10	17.98	-29.8	-30.5	23.3	0.00e+00	0	33	0	4653580288	32	6082
2026-01-08 19:54:01.66	227.86	17.51	-29.8	-30.5	23.3	0.00e+00	0	33	0	4682940416	32	6066
2026-01-08 19:54:05.70	227.62	17.05	-29.7	-30.4	23.7	0.00e+00	0	33	0	4712300544	32	5987
2026-01-08 19:54:09.73	227.39	16.60	-29.7	-30.3	24.0	0.00e+00	0	33	0	4741660672	32	5949
2026-01-08 19:54:13.77	227.17	16.16	-29.9	-30.5	23.9	0.00e+00	0	33	0	4769972224	32	6100
2026-01-08 19:54:17.81	226.96	15.72	-29.9	-30.5	23.7	0.00e+00	0	33	0	4799332352	32	6068
2026-01-08 19:54:21.85	226.75	15.29	-30.1	-30.8	23.5	0.00e+00	0	33	0	4828692480	32	6267
2026-01-08 19:54:25.89	226.55	14.87	-30.1	-30.8	23.3	0.00e+00	0	33	0	4858052608	32	6252
2026-01-08 19:54:29.93	226.35	14.46	-30.3	-31.0	23.2	0.00e+00	0	33	0	4887412736	32	6404
2026-01-08 19:54:33.97	226.16	14.05	-30.4	-31.1	23.2	0.00e+00	0	32	0	4915724288	32	6483
2026-01-08 19:54:38.01	225.97	13.64	-30.5	-31.2	23.2	0.00e+00	0	33	0	4945084416	32	6562
2026-01-08 19:54:42.05	225.79	13.25	-30.6	-31.3	23.1	0.00e+00	0	33	0	4974444544	32	6632
2026-01-08 19:54:46.09	225.62	12.86	-30.8	-31.5	23.0	0.00e+00	0	33	0	5003804672	34	6036
2026-01-08 19:54:50.12	225.45	12.48	-31.1	-31.8	22.8	0.00e+00	0	32	0	5032116224	34	6295
2026-01-08 19:54:54.16	225.28	12.10	-31.2	-31.9	22.6	0.00e+00	0	33	0	5061476352	34	6388
2026-01-08 19:54:58.20	225.12	11.72	-31.5	-32.2	22.5	0.00e+00	0	33	0	5090836480	34	6606
2026-01-08 19:55:02.23	224.97	11.36	-31.6	-32.3	22.4	0.00e+00	0	33	0	5120196608	34	6683
2026-01-08 19:55:06.26	224.81	11.00	-31.8	-32.6	22.2	0.00e+00	0	32	0	5149556736	36	6116
2026-01-08 19:55:10.30	224.67	10.64	-31.9	-32.7	22.1	0.00e+00	0	33	0	5177868288	36	6188
2026-01-08 19:55:14.34	224.52	10.29	-32.1	-32.9	22.0	0.00e+00	0	33	0	5207228416	36	6319
2026-01-08 19:55:18.38	224.38	9.94	-32.3	-33.1	21.9	0.00e+00	0	33	0	5236588544	36	6477
2026-01-08 19:55:22.41	224.24	9.60	-32.4	-33.2	21.8	0.00e+00	0	33	0	5265948672	36	6555
2026-01-08 19:55:26.45	224.11	9.26	-32.7	-33.5	21.6	0.00e+00	0	33	0	5295308800	36	6806
2026-01-08 19:55:30.48	223.98	8.92	-32.7	-33.5	21.5	0.00e+00	0	33	0	5323620352	38	6049
2026-01-08 19:55:34.52	223.85	8.59	-32.8	-33.6	21.4	0.00e+00	0	32	0	5352980480	38	6135
2026-01-08 19:55:38.56	223.73	8.27	-32.8	-33.6	21.3	0.00e+00	0	33	0	5382340608	38	6132
2026-01-08 19:55:42.60	223.61	7.95	-33.0	-33.8	21.3	0.00e+00	0	33	0	5411700736	38	6286
2026-01-08 19:55:46.64	223.49	7.63	-33.1	-33.9	21.2	0.00e+00	0	32	0	5441060864	38	6368
2026-01-08 19:55:50.67	223.37	7.32	-33.4	-34.1	23.0	0.00e+00	0	33	0	5469372416	38	6473
2026-01-08 19:55:54.71	223.26	7.01	-33.4	-34.1	22.9	0.00e+00	0	33	0	5498732544	38	6499
2026-01-08 19:55:58.75	223.15	6.70	-33.5	-34.2	22.8	0.00e+00	0	33	0	5528092672	38	6557
2026-01-08 19:56:02.79	223.04	6.40	-33.7	-34.4	22.5	0.00e+00	0	33	0	5557452800	38	6727
2026-01-08 19:56:06.83	222.94	6.10	-33.8	-34.5	22.3	0.00e+00	0	33	0	5585764352	40	6047
2026-01-08 19:56:10.86	222.83	5.80	-33.8	-34.6	22.2	0.00e+00	0	32	0	5615124480	40	6119
2026-01-08 19:56:14.90	222.73	5.51	-33.9	-34.8	21.9	0.00e+00	0	33	0	5644484608	40	6299
2026-01-08 19:56:18.94	222.63	5.22	-34.1	-35.0	21.6	0.00e+00	0	32	0	5673844736	40	6435
2026-01-08 19:56:22.98	222.54	4.93	-34.4	-35.2	21.4	0.00e+00	0	32	0	5703204864	40	6555
2026-01-08 19:56:27.02	222.44	4.65	-34.4	-35.3	21.3	0.00e+00	0	33	0	5731516416	40	6660
2026-01-08 19:56:31.06	222.35	4.36	-34.7	-35.5	21.0	0.00e+00	0	32	0	5760876544	40	6822
2026-01-08 19:56:35.09	222.26	4.09	-34.8	-35.7	20.8	0.00e+00	0	33	0	5790236672	42	6183
2026-01-08 19:56:39.13	222.17	3.81	-34.9	-35.7	20.6	0.00e+00	0	32	0	5819596800	42	6217
2026-01-08 19:56:43.17	222.09	3.54	-35.1	-36.0	20.4	0.00e+00	0	33	0	5848956928	42	6409
2026-01-08 19:56:47.20	222.00	3.27	-35.1	-36.0	20.3	0.00e+00	0	32	0	5878317056	42	6427
2026-01-08 19:56:51.24	221.92	3.00	-35.8	-36.8	19.8	0.00e+00	0	32	0	5906628608	44	6281
2026-01-08 19:56:55.28	221.84	2.74	-48.0	-59.2	3.6	8.46e-01	0	32	104	5908725760	60	33078
2026-01-08 19:56:59.32	221.76	2.47	-48.1	-59.3	3.6	8.45e-01	0	32	104	5908725760	60	33513
2026-01-08 19:57:03.35	221.68	2.21	-47.9	-59.3	3.6	8.45e-01	0	33	104	5908725760	60	33279
2026-01-08 19:57:07.39	221.61	1.96	-47.7	-59.2	3.6	8.46e-01	0	32	104	5908725760	60	33013
2026-01-08 19:57:11.43	221.53	1.70	-48.0	-59.3	3.6	8.46e-01	0	33	104	5908725760	60	33300
2026-01-08 19:57:15.47	221.46	1.45	-48.0	-59.2	3.6	8.46e-01	0	32	104	5908725760	60	33091
2026-01-08 19:57:19.51	221.39	1.19	-48.0	-59.3	3.6	8.45e-01	0	33	104	5908725760	60	33321
2026-01-08 19:57:23.55	221.32	0.95	-48.0	-59.2	3.6	8.46e-01	0	33	104	5908725760	60	32969
2026-01-08 19:57:27.58	221.25	0.70	-48.0	-59.2	3.6	8.46e-01	0	33	104	5908725760	60	32996
2026-01-08 19:57:31.62	221.18	0.45	-48.0	-59.2	3.6	8.44e-01	0	33	104	5908725760	60	33150
2026-01-08 19:57:35.65	221.11	0.21	-48.0	-59.2	3.6	8.46e-01	0	33	104	5908725760	60	32989
2026-01-08 19:57:39.69	221.05	-0.03	-48.0	-59.2	3.6	8.45e-01	0	33	104	5908725760	60	33014

#Closed at: 2026-01-08 19:57:42
#Recorded file [5908 MB]: D:/lorett/data/35029_260109_074223.dat