passes_logs/2026/01/08/R4.6S_Anadyr/R4.6S_Anadyr__20260108_185555_NOAA_20_JPSS-1_rec.log

#Pass ID: 20260108_185555_NOAA 20 (JPSS-1)
#Satellite: NOAA 20 (JPSS-1)
#Configuration: NOAA 20
#almurnet v.1.7.20251203
#Start time: 2026-01-08 18:55:56

#Version: 2.2.20231116
#Station: R4.6S_Anadyr
#Location: 177.4865 lon 64.73178 lat
#TLE: 1 43013U 17073A   26008.28148939  .00000118  00000+0  77102-4 0  9999
#TLE: 2 43013  98.7631 309.2920 0001742  49.0100 311.1227 14.19534407421787

#Time	Az	El	Level	Level2	SNR	BER	BlckErr	Temp	State	Recorded	gain1	gain2
2026-01-08 18:55:56.54	46.33	0.07	-48.4	-63.3	3.5	1.51e+00	0	30	0	0	60	52869
2026-01-08 18:55:59.56	46.11	0.22	-48.5	-63.6	3.6	1.51e+00	0	30	104	0	60	54807
2026-01-08 18:56:02.59	45.88	0.36	-48.6	-63.7	3.6	1.51e+00	0	31	104	0	60	55553
2026-01-08 18:56:05.62	45.65	0.51	-48.4	-63.5	3.6	1.51e+00	0	31	104	0	60	54384
2026-01-08 18:56:08.65	45.42	0.66	-48.3	-63.5	3.6	1.51e+00	0	31	104	0	60	54018
2026-01-08 18:56:11.67	45.18	0.81	-47.8	-63.0	3.6	1.51e+00	0	31	104	0	60	50998
2026-01-08 18:56:14.70	44.95	0.96	-46.8	-62.0	3.6	1.51e+00	0	31	104	0	60	45350
2026-01-08 18:56:17.73	44.71	1.11	-46.8	-61.9	3.6	1.51e+00	0	31	104	0	60	44982
2026-01-08 18:56:20.76	44.46	1.26	-46.8	-62.0	3.6	1.51e+00	0	31	104	0	60	45278
2026-01-08 18:56:23.79	44.22	1.41	-46.8	-61.9	3.6	1.51e+00	0	31	104	0	60	45097
2026-01-08 18:56:26.82	43.97	1.56	-46.8	-62.0	3.6	1.51e+00	0	31	104	0	60	45322
2026-01-08 18:56:29.85	43.72	1.71	-46.8	-61.9	3.6	1.51e+00	0	31	104	0	60	45059
2026-01-08 18:56:32.88	43.47	1.86	-46.8	-61.9	3.6	1.51e+00	0	31	104	0	60	44885
2026-01-08 18:56:35.91	43.21	2.02	-46.8	-61.9	3.6	1.51e+00	0	31	104	0	60	44831
2026-01-08 18:56:38.93	42.95	2.17	-46.8	-61.6	3.6	1.51e+00	0	31	104	0	60	43645
2026-01-08 18:56:41.97	42.69	2.32	-46.8	-61.9	3.6	1.51e+00	0	31	104	0	60	45057
2026-01-08 18:56:44.99	42.43	2.47	-46.8	-61.8	3.6	1.51e+00	0	31	104	0	60	44338
2026-01-08 18:56:48.02	42.16	2.62	-46.7	-61.5	3.6	1.51e+00	0	32	104	0	60	42878
2026-01-08 18:56:51.05	41.89	2.78	-46.7	-61.6	3.6	1.51e+00	0	31	104	0	60	43428
2026-01-08 18:56:54.08	41.62	2.93	-46.2	-54.4	6.1	5.56e-01	0	31	0	0	60	18911
2026-01-08 18:56:57.11	41.34	3.08	-46.5	-54.6	5.9	3.14e-01	0	31	0	5242880	60	19428
2026-01-08 18:57:00.13	41.06	3.24	-46.8	-60.0	3.7	1.51e+00	0	31	104	8388608	60	36137
2026-01-08 18:57:03.16	40.78	3.39	-45.1	-49.9	11.3	2.31e-03	0	31	0	11534336	60	11312
2026-01-08 18:57:06.19	40.50	3.54	-45.0	-49.6	10.8	2.79e-03	0	31	0	16777216	60	10930
2026-01-08 18:57:09.21	40.21	3.70	-45.0	-49.4	11.7	6.44e-04	0	31	0	22020096	60	10669
2026-01-08 18:57:12.24	39.92	3.85	-42.0	-44.1	17.0	0.00e+00	0	32	0	28311552	58	6498
2026-01-08 18:57:15.27	39.62	4.01	-41.7	-43.6	17.6	0.00e+00	0	32	0	33554432	56	6903
2026-01-08 18:57:18.30	39.32	4.16	-41.7	-43.5	17.8	0.00e+00	0	32	0	39845888	56	6805
2026-01-08 18:57:21.32	39.02	4.31	-41.8	-43.6	17.7	0.00e+00	0	31	0	45088768	56	6921
2026-01-08 18:57:24.35	38.72	4.47	-41.6	-43.5	17.9	0.00e+00	0	32	0	51380224	56	6773
2026-01-08 18:57:27.38	38.41	4.62	-41.5	-43.3	18.1	0.00e+00	0	31	0	56623104	56	6630
2026-01-08 18:57:30.41	38.10	4.78	-41.8	-43.7	17.7	0.00e+00	0	32	0	61865984	56	6933
2026-01-08 18:57:33.43	37.79	4.93	-41.2	-42.9	18.4	0.00e+00	0	31	0	68157440	56	6374
2026-01-08 18:57:36.46	37.47	5.09	-41.0	-42.7	18.7	0.00e+00	0	32	0	73400320	56	6189
2026-01-08 18:57:39.49	37.15	5.25	-41.0	-42.7	18.7	0.00e+00	0	32	0	79691776	56	6185
2026-01-08 18:57:42.51	36.83	5.40	-40.8	-42.3	19.1	0.00e+00	0	31	0	84934656	56	5955
2026-01-08 18:57:45.55	36.50	5.56	-40.7	-42.2	19.2	0.00e+00	0	32	0	90177536	54	6560
2026-01-08 18:57:48.57	36.16	5.71	-40.7	-42.2	19.1	0.00e+00	0	31	0	96468992	54	6581
2026-01-08 18:57:51.60	35.83	5.87	-40.4	-41.9	19.6	0.00e+00	0	32	0	101711872	54	6342
2026-01-08 18:57:54.63	35.49	6.02	-40.6	-42.1	19.4	0.00e+00	0	31	0	108003328	54	6492
2026-01-08 18:57:57.66	35.15	6.18	-40.3	-41.7	19.7	0.00e+00	0	32	0	113246208	54	6191
2026-01-08 18:58:00.68	34.80	6.33	-40.1	-41.5	20.0	0.00e+00	0	32	0	119537664	54	6056
2026-01-08 18:58:03.71	34.45	6.49	-40.1	-41.5	20.1	0.00e+00	0	32	0	124780544	54	6034
2026-01-08 18:58:06.74	34.10	6.64	-40.3	-41.7	19.8	0.00e+00	0	31	0	130023424	54	6232
2026-01-08 18:58:09.77	33.74	6.80	-40.3	-41.6	19.9	0.00e+00	0	32	0	136314880	54	6163
2026-01-08 18:58:12.80	33.37	6.95	-40.2	-41.6	19.9	0.00e+00	0	32	0	141557760	54	6148
2026-01-08 18:58:15.82	33.01	7.11	-40.3	-41.7	19.9	0.00e+00	0	32	0	147849216	54	6174
2026-01-08 18:58:18.85	32.64	7.26	-40.1	-41.4	20.3	0.00e+00	0	32	0	153092096	54	5994
2026-01-08 18:58:21.88	32.26	7.42	-40.2	-41.5	20.2	0.00e+00	0	32	0	158334976	54	6075
2026-01-08 18:58:24.91	31.88	7.57	-40.0	-41.3	20.3	0.00e+00	0	31	0	164626432	54	5961
2026-01-08 18:58:27.94	31.50	7.72	-39.9	-41.2	20.4	0.00e+00	0	32	0	169869312	54	5843
2026-01-08 18:58:30.96	31.12	7.88	-39.9	-41.2	20.4	0.00e+00	0	32	0	176160768	54	5879
2026-01-08 18:58:33.99	30.73	8.03	-39.9	-41.1	20.5	0.00e+00	0	32	0	181403648	54	5827
2026-01-08 18:58:37.02	30.33	8.18	-39.7	-41.0	20.7	0.00e+00	0	32	0	187695104	52	6424
2026-01-08 18:58:40.05	29.93	8.34	-39.9	-41.2	20.6	0.00e+00	0	32	0	192937984	52	6550
2026-01-08 18:58:43.07	29.53	8.49	-39.8	-41.0	20.6	0.00e+00	0	32	0	198180864	52	6440
2026-01-08 18:58:46.10	29.12	8.64	-39.6	-40.8	20.9	0.00e+00	0	32	0	204472320	52	6263
2026-01-08 18:58:49.13	28.71	8.79	-39.6	-40.8	20.9	0.00e+00	0	32	0	209715200	52	6313
2026-01-08 18:58:52.16	28.29	8.94	-39.5	-40.6	21.1	0.00e+00	0	32	0	216006656	52	6167
2026-01-08 18:58:55.18	27.87	9.09	-39.5	-40.7	21.0	0.00e+00	0	32	0	221249536	52	6235
2026-01-08 18:58:58.22	27.44	9.24	-39.5	-40.7	21.0	0.00e+00	0	32	0	226492416	52	6218
2026-01-08 18:59:01.25	27.01	9.39	-39.6	-40.8	20.9	0.00e+00	0	32	0	232783872	52	6290
2026-01-08 18:59:04.28	26.58	9.54	-39.6	-40.9	20.9	0.00e+00	0	32	0	238026752	52	6325
2026-01-08 18:59:07.30	26.14	9.68	-39.7	-40.9	21.0	0.00e+00	0	32	0	244318208	52	6349
2026-01-08 18:59:10.33	25.70	9.83	-39.5	-40.7	21.0	0.00e+00	0	32	0	249561088	52	6209
2026-01-08 18:59:13.36	25.25	9.98	-39.3	-40.5	21.3	0.00e+00	0	32	0	255852544	52	6068
2026-01-08 18:59:16.39	24.80	10.12	-39.0	-40.1	21.6	0.00e+00	0	32	0	261095424	52	5804
2026-01-08 18:59:19.41	24.34	10.26	-38.9	-40.0	21.6	0.00e+00	0	32	0	266338304	52	5750
2026-01-08 18:59:22.44	23.88	10.41	-38.9	-40.0	21.8	0.00e+00	0	32	0	272629760	52	5707
2026-01-08 18:59:25.47	23.41	10.55	-38.5	-39.5	22.1	0.00e+00	0	32	0	277872640	50	6091
2026-01-08 18:59:28.49	22.94	10.69	-38.3	-39.3	22.4	0.00e+00	0	32	0	284164096	50	5951
2026-01-08 18:59:31.52	22.47	10.83	-38.1	-39.1	22.5	0.00e+00	0	32	0	289406976	50	5824
2026-01-08 18:59:34.55	21.98	10.97	-38.1	-39.1	22.6	0.00e+00	0	32	0	294649856	50	5767
2026-01-08 18:59:37.57	21.50	11.10	-38.0	-39.0	22.6	0.00e+00	0	32	0	300941312	50	5738
2026-01-08 18:59:40.60	21.01	11.24	-37.9	-38.9	22.8	0.00e+00	0	32	0	306184192	50	5641
2026-01-08 18:59:43.63	20.52	11.38	-37.9	-38.8	22.8	0.00e+00	0	32	0	312475648	48	6312
2026-01-08 18:59:46.66	20.02	11.51	-37.6	-38.5	23.2	0.00e+00	0	32	0	317718528	48	6068
2026-01-08 18:59:49.69	19.51	11.64	-37.5	-38.5	23.1	0.00e+00	0	32	0	322961408	48	6048
2026-01-08 18:59:52.71	19.01	11.77	-37.5	-38.4	23.1	0.00e+00	0	32	0	329252864	48	6007
2026-01-08 18:59:55.74	18.50	11.90	-37.0	-37.9	23.7	0.00e+00	0	32	0	334495744	48	5662
2026-01-08 18:59:58.76	17.98	12.03	-37.1	-38.0	23.6	0.00e+00	0	32	0	340787200	48	5738
2026-01-08 19:00:01.79	17.46	12.15	-37.2	-38.1	23.5	0.00e+00	0	32	0	346030080	48	5797
2026-01-08 19:00:04.81	16.93	12.28	-37.2	-38.1	23.5	0.00e+00	0	32	0	352321536	48	5820
2026-01-08 19:00:07.83	16.40	12.40	-37.5	-38.4	23.3	0.00e+00	0	32	0	357564416	48	5998
2026-01-08 19:00:10.86	15.87	12.52	-37.3	-38.2	23.4	0.00e+00	0	32	0	362807296	48	5876
2026-01-08 19:00:13.89	15.33	12.64	-37.7	-38.6	23.1	0.00e+00	0	32	0	369098752	48	6160
2026-01-08 19:00:16.93	14.78	12.75	-37.6	-38.5	23.2	0.00e+00	0	32	0	374341632	48	6099
2026-01-08 19:00:19.96	14.24	12.87	-37.7	-38.6	23.1	0.00e+00	0	32	0	380633088	48	6146
2026-01-08 19:00:22.98	13.68	12.98	-37.5	-38.4	23.3	0.00e+00	0	32	0	385875968	48	5992
2026-01-08 19:00:26.01	13.13	13.09	-37.6	-38.5	23.1	0.00e+00	0	32	0	391118848	48	6071
2026-01-08 19:00:29.04	12.57	13.20	-37.5	-38.4	23.3	0.00e+00	0	32	0	397410304	48	6020
2026-01-08 19:00:32.07	12.00	13.31	-37.3	-38.2	23.5	0.00e+00	0	32	0	402653184	48	5844
2026-01-08 19:00:35.09	11.43	13.41	-37.3	-38.2	23.4	0.00e+00	0	32	0	408944640	48	5885
2026-01-08 19:00:38.12	10.86	13.51	-37.4	-38.3	22.7	0.00e+00	0	32	0	414187520	48	5961
2026-01-08 19:00:41.15	10.28	13.61	-37.3	-38.2	23.4	0.00e+00	0	32	0	419430400	48	5875
2026-01-08 19:00:44.18	9.70	13.70	-37.3	-38.2	23.4	0.00e+00	0	32	0	425721856	48	5895
2026-01-08 19:00:47.21	9.12	13.80	-37.3	-38.2	23.5	0.00e+00	0	32	0	430964736	48	5848
2026-01-08 19:00:50.23	8.53	13.89	-37.2	-38.1	23.5	0.00e+00	0	32	0	437256192	48	5827
2026-01-08 19:00:53.26	7.94	13.98	-37.0	-37.9	23.7	0.00e+00	0	32	0	442499072	48	5680
2026-01-08 19:00:56.29	7.34	14.06	-37.1	-38.0	23.7	0.00e+00	0	32	0	448790528	48	5710
2026-01-08 19:00:59.32	6.74	14.15	-37.1	-38.0	23.6	0.00e+00	0	32	0	454033408	48	5729
2026-01-08 19:01:02.35	6.14	14.22	-37.0	-37.9	23.8	0.00e+00	0	32	0	459276288	48	5640
2026-01-08 19:01:05.37	5.54	14.30	-37.2	-38.1	23.6	0.00e+00	0	32	0	465567744	48	5803
2026-01-08 19:01:08.40	4.93	14.38	-37.4	-38.3	23.4	0.00e+00	0	32	0	470810624	48	5956
2026-01-08 19:01:11.43	4.31	14.45	-37.3	-38.2	23.6	0.00e+00	0	32	0	477102080	48	5852
2026-01-08 19:01:14.46	3.70	14.51	-37.5	-38.4	23.3	0.00e+00	0	32	0	482344960	48	6002
2026-01-08 19:01:17.49	3.08	14.58	-37.6	-38.5	23.2	0.00e+00	0	32	0	487587840	48	6072
2026-01-08 19:01:20.51	2.46	14.64	-37.7	-38.7	23.2	0.00e+00	0	32	0	493879296	48	6200
2026-01-08 19:01:23.54	1.84	14.70	-38.2	-39.2	22.8	0.00e+00	0	32	0	499122176	48	6577
2026-01-08 19:01:26.57	1.22	14.75	-37.9	-38.9	23.0	0.00e+00	0	32	0	505413632	48	6340
2026-01-08 19:01:29.60	0.59	14.80	-37.6	-38.5	23.2	0.00e+00	0	32	0	510656512	48	6064
2026-01-08 19:01:32.62	359.96	14.85	-37.6	-38.6	23.2	0.00e+00	0	32	0	516947968	48	6113
2026-01-08 19:01:35.65	359.33	14.90	-37.4	-38.3	23.5	0.00e+00	0	32	0	522190848	48	5941
2026-01-08 19:01:38.68	358.70	14.94	-37.5	-38.4	23.4	0.00e+00	0	32	0	527433728	48	5983
2026-01-08 19:01:41.70	358.06	14.98	-37.6	-38.6	23.2	0.00e+00	0	32	0	533725184	48	6120
2026-01-08 19:01:44.73	357.43	15.01	-37.4	-38.3	23.4	0.00e+00	0	32	0	538968064	48	5964
2026-01-08 19:01:47.76	356.79	15.04	-37.5	-38.4	23.3	0.00e+00	0	32	0	545259520	48	6031
2026-01-08 19:01:50.79	356.15	15.07	-37.6	-38.5	23.3	0.00e+00	0	32	0	550502400	48	6058
2026-01-08 19:01:53.82	355.51	15.09	-37.5	-38.4	23.3	0.00e+00	0	32	0	555745280	48	5980
2026-01-08 19:01:56.85	354.87	15.11	-37.6	-38.6	23.2	0.00e+00	0	32	0	562036736	48	6125
2026-01-08 19:01:59.87	354.23	15.13	-37.5	-38.5	23.3	0.00e+00	0	32	0	567279616	48	6038
2026-01-08 19:02:02.90	353.58	15.14	-37.4	-38.3	23.4	0.00e+00	0	32	0	573571072	48	5952
2026-01-08 19:02:05.93	352.94	15.15	-37.7	-38.6	23.2	0.00e+00	0	32	0	578813952	48	6172
2026-01-08 19:02:08.95	352.30	15.16	-37.5	-38.4	23.4	0.00e+00	0	32	0	584056832	48	6003
2026-01-08 19:02:11.98	351.66	15.16	-37.5	-38.4	23.4	0.00e+00	0	32	0	590348288	48	6026
2026-01-08 19:02:15.00	351.01	15.16	-37.5	-38.4	23.4	0.00e+00	0	32	0	595591168	48	6023
2026-01-08 19:02:18.03	350.37	15.15	-37.3	-38.2	22.9	0.00e+00	0	32	0	601882624	48	5878
2026-01-08 19:02:21.06	349.73	15.14	-37.5	-38.4	23.3	0.00e+00	0	32	0	607125504	48	6001
2026-01-08 19:02:24.09	349.08	15.13	-37.5	-38.4	23.3	0.00e+00	0	32	0	613416960	48	6019
2026-01-08 19:02:27.11	348.44	15.12	-37.6	-38.5	23.3	0.00e+00	0	32	0	618659840	48	6073
2026-01-08 19:02:30.14	347.80	15.10	-38.0	-39.0	22.9	0.00e+00	0	32	0	623902720	48	6405
2026-01-08 19:02:33.16	347.16	15.07	-37.9	-38.9	23.0	0.00e+00	0	32	0	630194176	48	6348
2026-01-08 19:02:36.19	346.52	15.05	-37.7	-38.6	23.2	0.00e+00	0	32	0	635437056	48	6158
2026-01-08 19:02:39.22	345.89	15.02	-37.4	-38.4	23.4	0.00e+00	0	32	0	641728512	48	5977
2026-01-08 19:02:42.25	345.25	14.98	-37.7	-38.7	23.1	0.00e+00	0	32	0	646971392	48	6182
2026-01-08 19:02:45.28	344.61	14.94	-37.9	-38.9	22.9	0.00e+00	0	32	0	652214272	48	6363
2026-01-08 19:02:48.31	343.98	14.90	-37.9	-38.9	23.0	0.00e+00	0	32	0	658505728	48	6329
2026-01-08 19:02:51.33	343.35	14.86	-37.5	-38.4	23.4	0.00e+00	0	32	0	663748608	48	6009
2026-01-08 19:02:54.36	342.72	14.81	-37.5	-38.5	23.3	0.00e+00	0	32	0	670040064	48	6043
2026-01-08 19:02:57.38	342.09	14.76	-37.5	-38.5	23.3	0.00e+00	0	32	0	675282944	48	6043
2026-01-08 19:03:00.41	341.47	14.71	-37.2	-38.1	23.6	0.00e+00	0	32	0	681574400	48	5821
2026-01-08 19:03:03.44	340.84	14.65	-37.3	-38.2	23.4	0.00e+00	0	32	0	686817280	48	5870
2026-01-08 19:03:06.46	340.23	14.59	-37.5	-38.4	23.3	0.00e+00	0	32	0	692060160	48	6026
2026-01-08 19:03:09.49	339.61	14.52	-37.5	-38.4	23.4	0.00e+00	0	32	0	698351616	48	6015
2026-01-08 19:03:12.52	338.99	14.46	-37.3	-38.3	23.4	0.00e+00	0	32	0	703594496	48	5897
2026-01-08 19:03:15.55	338.38	14.39	-37.4	-38.3	23.5	0.00e+00	0	32	0	709885952	48	5921
2026-01-08 19:03:18.58	337.77	14.31	-37.6	-38.5	23.3	0.00e+00	0	32	0	715128832	48	6065
2026-01-08 19:03:21.60	337.17	14.24	-37.8	-38.7	23.0	0.00e+00	0	32	0	720371712	48	6245
2026-01-08 19:03:24.63	336.56	14.16	-37.8	-38.7	23.0	0.00e+00	0	32	0	726663168	48	6243
2026-01-08 19:03:27.65	335.96	14.08	-37.9	-38.9	22.8	0.00e+00	0	32	0	731906048	48	6350
2026-01-08 19:03:30.68	335.37	13.99	-38.1	-39.1	22.7	0.00e+00	0	32	0	738197504	48	6475
2026-01-08 19:03:33.71	334.78	13.90	-38.0	-39.0	22.8	0.00e+00	0	32	0	743440384	48	6426
2026-01-08 19:03:36.73	334.19	13.81	-38.1	-39.1	22.7	0.00e+00	0	32	0	748683264	48	6533
2026-01-08 19:03:39.76	333.60	13.72	-37.7	-38.6	23.2	0.00e+00	0	32	0	754974720	48	6151
2026-01-08 19:03:42.79	333.02	13.62	-37.5	-38.4	23.3	0.00e+00	0	32	0	760217600	48	6021
2026-01-08 19:03:45.81	332.44	13.53	-37.5	-38.5	23.2	0.00e+00	0	32	0	766509056	48	6034
2026-01-08 19:03:48.84	331.87	13.43	-37.6	-38.6	23.0	0.00e+00	0	32	0	771751936	48	6118
2026-01-08 19:03:51.87	331.30	13.32	-37.7	-38.6	23.2	0.00e+00	0	32	0	778043392	48	6142
2026-01-08 19:03:54.90	330.73	13.22	-37.4	-38.4	23.4	0.00e+00	0	32	0	783286272	48	5978
2026-01-08 19:03:57.93	330.17	13.11	-37.6	-38.5	23.2	0.00e+00	0	32	0	788529152	48	6056
2026-01-08 19:04:00.96	329.61	13.00	-37.6	-38.5	23.2	0.00e+00	0	32	0	794820608	48	6092
2026-01-08 19:04:03.99	329.06	12.89	-37.5	-38.4	23.2	0.00e+00	0	32	0	800063488	48	5987
2026-01-08 19:04:07.02	328.51	12.77	-37.5	-38.4	23.4	0.00e+00	0	32	0	806354944	48	6015
2026-01-08 19:04:10.04	327.97	12.66	-37.5	-38.4	23.4	0.00e+00	0	32	0	811597824	48	5979
2026-01-08 19:04:13.07	327.43	12.54	-37.3	-38.2	23.4	0.00e+00	0	32	0	816840704	48	5878
2026-01-08 19:04:16.10	326.89	12.42	-37.5	-38.4	23.3	0.00e+00	0	31	0	823132160	48	5989
2026-01-08 19:04:19.12	326.36	12.30	-37.7	-38.6	23.1	0.00e+00	0	32	0	828375040	48	6134
2026-01-08 19:04:22.15	325.83	12.17	-38.0	-39.0	22.7	0.00e+00	0	32	0	834666496	48	6410
2026-01-08 19:04:25.18	325.31	12.05	-38.2	-39.2	22.6	0.00e+00	0	32	0	839909376	48	6608
2026-01-08 19:04:28.21	324.79	11.92	-38.3	-39.3	22.5	0.00e+00	0	32	0	846200832	48	6659
2026-01-08 19:04:31.24	324.28	11.79	-38.5	-39.5	22.4	0.00e+00	0	32	0	851443712	48	6795
2026-01-08 19:04:34.26	323.77	11.66	-38.7	-39.8	22.0	0.00e+00	0	31	0	856686592	48	7049
2026-01-08 19:04:37.29	323.27	11.53	-39.0	-40.1	21.8	0.00e+00	0	32	0	862978048	50	6487
2026-01-08 19:04:40.32	322.77	11.40	-39.2	-40.3	21.5	0.00e+00	0	32	0	868220928	50	6685
2026-01-08 19:04:43.34	322.27	11.26	-39.5	-40.6	21.3	0.00e+00	0	32	0	874512384	50	6915
2026-01-08 19:04:46.37	321.78	11.13	-39.6	-40.8	21.1	0.00e+00	0	32	0	879755264	50	7068
2026-01-08 19:04:49.40	321.30	10.99	-39.5	-40.6	21.1	0.00e+00	0	32	0	884998144	50	6916
2026-01-08 19:04:52.43	320.81	10.85	-39.7	-40.9	20.9	0.00e+00	0	32	0	891289600	50	7160
2026-01-08 19:04:55.46	320.34	10.71	-40.2	-41.5	20.4	0.00e+00	0	32	0	896532480	52	6812
2026-01-08 19:04:58.48	319.87	10.57	-40.4	-41.7	20.2	0.00e+00	0	32	0	902823936	52	6992
2026-01-08 19:05:01.51	319.40	10.43	-40.1	-41.4	20.5	0.00e+00	0	32	0	908066816	52	6702
2026-01-08 19:05:04.53	318.94	10.29	-40.2	-41.4	20.5	0.00e+00	0	32	0	913309696	52	6748
2026-01-08 19:05:07.56	318.48	10.14	-40.4	-41.7	20.1	0.00e+00	0	32	0	919601152	52	6969
2026-01-08 19:05:10.59	318.03	10.00	-40.5	-41.8	20.1	0.00e+00	0	32	0	924844032	52	7063
2026-01-08 19:05:13.62	317.58	9.85	-40.6	-42.0	19.9	0.00e+00	0	32	0	931135488	52	7220
2026-01-08 19:05:16.64	317.13	9.71	-40.7	-42.1	19.9	0.00e+00	0	31	0	936378368	52	7279
2026-01-08 19:05:19.67	316.69	9.56	-40.4	-41.8	20.1	0.00e+00	0	32	0	942669824	52	7009
2026-01-08 19:05:22.70	316.26	9.41	-40.5	-41.8	20.1	0.00e+00	0	32	0	947912704	52	7086
2026-01-08 19:05:25.72	315.83	9.26	-40.5	-41.9	20.0	0.00e+00	0	32	0	953155584	52	7106
2026-01-08 19:05:28.75	315.40	9.11	-40.2	-41.5	20.4	0.00e+00	0	32	0	959447040	52	6808
2026-01-08 19:05:31.78	314.98	8.96	-40.0	-41.2	20.6	0.00e+00	0	32	0	964689920	52	6594
2026-01-08 19:05:34.81	314.56	8.81	-39.9	-41.1	20.7	0.00e+00	0	32	0	970981376	52	6534
2026-01-08 19:05:37.84	314.15	8.66	-39.8	-41.0	20.8	0.00e+00	0	32	0	976224256	52	6440
2026-01-08 19:05:40.86	313.74	8.51	-39.8	-41.1	20.8	0.00e+00	0	32	0	981467136	52	6480
2026-01-08 19:05:43.88	313.33	8.36	-39.6	-40.8	21.0	0.00e+00	0	32	0	987758592	52	6248
2026-01-08 19:05:46.91	312.93	8.21	-39.5	-40.7	21.1	0.00e+00	0	32	0	993001472	52	6175
2026-01-08 19:05:49.94	312.54	8.06	-39.2	-40.4	21.3	0.00e+00	0	32	0	999292928	52	5991
2026-01-08 19:05:52.97	312.15	7.90	-38.9	-40.0	21.7	0.00e+00	0	32	0	1004535808	52	5703
2026-01-08 19:05:55.99	311.76	7.75	-38.9	-40.1	21.7	0.00e+00	0	32	0	1009778688	52	5768
2026-01-08 19:05:59.02	311.38	7.60	-38.7	-39.7	21.9	0.00e+00	0	32	0	1016070144	50	6228
2026-01-08 19:06:02.05	311.00	7.44	-38.5	-39.6	22.0	0.00e+00	0	32	0	1021313024	50	6120
2026-01-08 19:06:05.08	310.62	7.29	-38.7	-39.7	21.8	0.00e+00	0	32	0	1027604480	50	6232
2026-01-08 19:06:08.10	310.25	7.13	-38.4	-39.4	22.1	0.00e+00	0	32	0	1032847360	50	6020
2026-01-08 19:06:11.13	309.88	6.98	-38.4	-39.4	22.1	0.00e+00	0	32	0	1039138816	50	5997
2026-01-08 19:06:14.15	309.52	6.82	-38.3	-39.3	21.7	0.00e+00	0	32	0	1044381696	50	5921
2026-01-08 19:06:17.18	309.16	6.67	-38.2	-39.2	22.2	0.00e+00	0	32	0	1049624576	50	5883
2026-01-08 19:06:20.21	308.80	6.51	-38.5	-39.6	21.9	0.00e+00	0	32	0	1055916032	50	6121
2026-01-08 19:06:23.24	308.45	6.36	-38.5	-39.6	21.9	0.00e+00	0	32	0	1061158912	50	6136
2026-01-08 19:06:26.27	308.11	6.20	-38.7	-39.8	21.7	0.00e+00	0	32	0	1067450368	50	6260
2026-01-08 19:06:29.29	307.76	6.05	-38.6	-39.7	21.8	0.00e+00	0	32	0	1072693248	50	6205
2026-01-08 19:06:32.32	307.42	5.89	-38.6	-39.7	21.8	0.00e+00	0	32	0	1077936128	50	6216
2026-01-08 19:06:35.35	307.08	5.74	-38.5	-39.6	21.7	0.00e+00	0	32	0	1084227584	50	6130
2026-01-08 19:06:38.38	306.75	5.58	-39.0	-40.2	21.3	0.00e+00	0	32	0	1089470464	50	6548
2026-01-08 19:06:41.41	306.42	5.43	-39.0	-40.1	21.3	0.00e+00	0	32	0	1095761920	50	6519
2026-01-08 19:06:44.44	306.10	5.27	-38.8	-40.0	21.4	0.00e+00	0	32	0	1101004800	50	6420
2026-01-08 19:06:47.47	305.77	5.12	-39.0	-40.1	21.2	0.00e+00	0	32	0	1107296256	50	6519
2026-01-08 19:06:50.50	305.46	4.96	-38.8	-40.0	21.3	0.00e+00	0	32	0	1112539136	50	6420
2026-01-08 19:06:53.52	305.14	4.81	-38.8	-40.0	21.4	0.00e+00	0	32	0	1117782016	50	6405
2026-01-08 19:06:56.55	304.83	4.65	-39.1	-40.3	21.0	0.00e+00	0	32	0	1124073472	50	6654
2026-01-08 19:06:59.58	304.52	4.49	-39.4	-40.6	20.7	0.00e+00	0	31	0	1129316352	50	6887
2026-01-08 19:07:02.61	304.22	4.34	-39.6	-40.9	20.3	0.00e+00	0	32	0	1135607808	50	7110
2026-01-08 19:07:05.64	303.91	4.19	-39.7	-41.0	20.2	0.00e+00	0	32	0	1140850688	52	6428
2026-01-08 19:07:08.66	303.62	4.03	-39.8	-41.1	20.1	0.00e+00	0	32	0	1146093568	52	6524
2026-01-08 19:07:11.68	303.32	3.88	-40.0	-41.4	19.7	0.00e+00	0	32	0	1152385024	52	6720
2026-01-08 19:07:14.71	303.03	3.72	-40.2	-41.6	19.6	0.00e+00	0	32	0	1157627904	52	6914
2026-01-08 19:07:17.74	302.74	3.57	-40.1	-41.5	19.6	0.00e+00	0	32	0	1163919360	52	6847
2026-01-08 19:07:20.77	302.45	3.41	-40.3	-41.8	19.3	0.00e+00	0	32	0	1169162240	52	7081
2026-01-08 19:07:23.80	302.17	3.26	-40.6	-42.1	18.9	0.00e+00	0	32	0	1174405120	52	7308
2026-01-08 19:07:26.83	301.89	3.11	-40.7	-42.3	18.8	0.00e+00	0	32	0	1180696576	54	6646
2026-01-08 19:07:29.86	301.62	2.95	-48.0	-63.1	3.6	1.51e+00	0	32	104	1183842304	60	51723
2026-01-08 19:07:32.89	301.34	2.80	-48.4	-63.6	3.6	1.51e+00	0	32	104	1183842304	60	54894
2026-01-08 19:07:35.91	301.07	2.65	-48.5	-63.7	3.6	1.51e+00	0	32	104	1183842304	60	55576
2026-01-08 19:07:38.94	300.80	2.50	-48.5	-63.7	3.6	1.51e+00	0	32	104	1183842304	60	55500
2026-01-08 19:07:41.97	300.54	2.34	-48.4	-63.6	3.5	1.51e+00	0	32	104	1183842304	60	54780
2026-01-08 19:07:45.00	300.28	2.19	-48.4	-63.6	3.6	1.51e+00	0	32	104	1183842304	60	54889
2026-01-08 19:07:48.02	300.02	2.04	-48.4	-63.7	3.6	1.51e+00	0	32	104	1183842304	60	55034
2026-01-08 19:07:51.05	299.76	1.89	-48.4	-63.6	3.6	1.51e+00	0	32	104	1183842304	60	54647
2026-01-08 19:07:54.08	299.51	1.74	-48.4	-63.6	3.6	1.51e+00	0	32	104	1183842304	60	54724
2026-01-08 19:07:57.10	299.26	1.59	-48.4	-63.6	3.6	1.51e+00	0	32	104	1183842304	60	54530
2026-01-08 19:08:00.13	299.01	1.44	-48.4	-63.6	3.6	1.51e+00	0	32	104	1183842304	60	54621
2026-01-08 19:08:03.16	298.76	1.29	-48.4	-63.6	3.6	1.51e+00	0	32	104	1183842304	60	54531
2026-01-08 19:08:06.18	298.52	1.14	-48.4	-63.6	3.6	1.51e+00	0	32	104	1183842304	60	54817
2026-01-08 19:08:09.21	298.28	0.99	-48.4	-63.6	3.6	1.51e+00	0	32	104	1183842304	60	54826
2026-01-08 19:08:12.25	298.04	0.84	-48.4	-63.6	3.6	1.51e+00	0	32	104	1183842304	60	54456
2026-01-08 19:08:15.27	297.80	0.69	-48.4	-63.6	3.6	1.51e+00	0	32	104	1183842304	60	54665
2026-01-08 19:08:18.30	297.57	0.54	-48.4	-63.6	3.6	1.51e+00	0	32	104	1183842304	60	54490
2026-01-08 19:08:21.33	297.34	0.39	-48.4	-63.6	3.6	1.51e+00	0	32	104	1183842304	60	54489
2026-01-08 19:08:24.36	297.11	0.24	-48.4	-63.6	3.6	1.51e+00	0	32	104	1183842304	60	54463
2026-01-08 19:08:27.39	296.88	0.09	-48.4	-63.6	3.6	1.51e+00	0	32	104	1183842304	60	54434
2026-01-08 19:08:30.41	296.66	-0.05	-48.4	-63.6	3.6	1.51e+00	0	32	104	1183842304	60	54803

#Closed at: 2026-01-08 19:08:30
#Recorded file [1183 MB]: D:/lorett/data/35029_260109_065556.dat