passes_logs/2026/01/08/R4.6S_Anadyr/R4.6S_Anadyr__20260108_074102_FENGYUN_3E_rec.log

#Pass ID: 20260108_074102_FENGYUN 3E
#Satellite: FENGYUN 3E
#Configuration: FENGYUN 3E
#almurnet v.1.7.20251203
#Start time: 2026-01-08 07:41:03

#Version: 2.2.20231116
#Station: R4.6S_Anadyr
#Location: 177.4865 lon 64.73178 lat
#TLE: 1 49008U 21062A   26007.95891030 -.00000304  00000+0 -12253-3 0  9996
#TLE: 2 49008  98.7481  13.1693 0001696 152.0823 208.0445 14.19883474233848

#Time	Az	El	Level	Level2	SNR	BER	BlckErr	Temp	State	Recorded	gain1	gain2
2026-01-08 07:41:03.28	242.72	0.02	-48.7	-59.4	3.5	8.45e-01	0	30	0	0	60	33843
2026-01-08 07:41:06.31	243.01	0.14	-48.3	-59.6	3.6	8.44e-01	0	32	104	0	60	34583
2026-01-08 07:41:09.34	243.30	0.26	-48.1	-59.6	3.6	8.45e-01	0	32	104	0	60	34327
2026-01-08 07:41:12.37	243.60	0.38	-48.4	-59.6	3.6	8.46e-01	0	32	104	0	60	34707
2026-01-08 07:41:15.40	243.89	0.51	-48.4	-59.6	3.6	8.46e-01	0	32	104	0	60	34496
2026-01-08 07:41:18.43	244.19	0.63	-48.1	-59.3	3.6	8.44e-01	0	32	104	0	60	33324
2026-01-08 07:41:21.46	244.49	0.75	-46.8	-58.0	3.6	8.46e-01	0	32	104	0	60	28566
2026-01-08 07:41:24.49	244.79	0.87	-46.8	-57.9	3.6	8.45e-01	0	32	104	0	60	28396
2026-01-08 07:41:27.51	245.10	0.99	-46.8	-57.9	3.6	8.45e-01	0	32	104	0	60	28462
2026-01-08 07:41:30.54	245.40	1.11	-46.8	-57.9	3.6	8.45e-01	0	32	104	0	60	28326
2026-01-08 07:41:33.57	245.71	1.24	-46.8	-57.9	3.6	8.46e-01	0	32	104	0	60	28260
2026-01-08 07:41:36.60	246.02	1.36	-46.8	-57.9	3.6	8.45e-01	0	33	104	0	60	28226
2026-01-08 07:41:39.63	246.34	1.48	-46.8	-57.9	3.6	8.46e-01	0	32	104	0	60	28254
2026-01-08 07:41:42.66	246.66	1.60	-46.8	-57.9	3.6	8.45e-01	0	33	104	0	60	28247
2026-01-08 07:41:45.68	246.97	1.72	-46.8	-57.9	3.6	8.45e-01	0	33	104	0	60	28285
2026-01-08 07:41:48.71	247.30	1.84	-46.8	-57.8	3.6	8.45e-01	0	32	104	0	60	28169
2026-01-08 07:41:51.74	247.62	1.96	-46.8	-57.8	3.6	8.46e-01	0	33	104	0	60	28202
2026-01-08 07:41:54.77	247.95	2.08	-46.8	-57.9	3.6	8.45e-01	0	33	104	0	60	28398
2026-01-08 07:41:57.80	248.28	2.20	-46.8	-57.9	3.6	8.45e-01	0	33	104	0	60	28364
2026-01-08 07:42:00.83	248.61	2.32	-46.8	-57.7	3.6	8.46e-01	0	33	104	0	60	27836
2026-01-08 07:42:03.85	248.94	2.44	-46.8	-57.7	3.6	8.45e-01	0	33	104	0	60	27786
2026-01-08 07:42:06.89	249.28	2.56	-46.8	-57.7	3.6	8.45e-01	0	33	104	0	60	27800
2026-01-08 07:42:09.91	249.62	2.68	-46.6	-56.2	3.6	8.45e-01	0	33	104	0	60	23349
2026-01-08 07:42:12.94	249.96	2.80	-46.7	-57.1	3.6	8.46e-01	0	33	104	0	60	25745
2026-01-08 07:42:15.97	250.31	2.92	-41.6	-43.4	13.3	1.43e-04	0	33	0	11534336	58	5968
2026-01-08 07:42:19.01	250.65	3.03	-40.3	-41.8	14.6	0.00e+00	0	33	0	33554432	54	6262
2026-01-08 07:42:22.03	251.00	3.15	-35.5	-36.5	19.5	0.00e+00	0	33	104	45088768	42	6798
2026-01-08 07:42:25.06	251.36	3.27	-35.9	-36.9	19.3	0.00e+00	0	33	0	66060288	46	5679
2026-01-08 07:42:28.09	251.71	3.39	-35.1	-36.0	20.0	0.00e+00	0	33	0	88080384	44	5754
2026-01-08 07:42:31.13	252.07	3.50	-34.7	-35.7	20.2	0.00e+00	0	33	0	110100480	42	6186
2026-01-08 07:42:34.15	252.43	3.62	-34.7	-35.6	20.3	0.00e+00	0	33	0	132120576	42	6170
2026-01-08 07:42:37.17	252.80	3.73	-34.3	-35.2	20.7	0.00e+00	0	33	0	154140672	42	5848
2026-01-08 07:42:40.20	253.16	3.85	-34.3	-35.2	20.7	0.00e+00	0	33	0	176160768	42	5855
2026-01-08 07:42:43.23	253.53	3.96	-34.3	-35.2	20.7	0.00e+00	0	33	0	197132288	42	5888
2026-01-08 07:42:46.26	253.90	4.08	-34.4	-35.3	20.6	0.00e+00	0	33	0	219152384	42	5951
2026-01-08 07:42:49.29	254.28	4.19	-34.5	-35.4	20.6	0.00e+00	0	33	0	241172480	42	6015
2026-01-08 07:42:52.32	254.66	4.30	-34.3	-35.2	20.7	0.00e+00	0	33	0	263192576	42	5869
2026-01-08 07:42:55.35	255.04	4.42	-34.1	-35.0	21.0	0.00e+00	0	33	0	285212672	42	5710
2026-01-08 07:42:58.38	255.42	4.53	-33.9	-34.8	21.1	0.00e+00	0	33	0	307232768	42	5571
2026-01-08 07:43:01.41	255.81	4.64	-34.0	-34.9	20.9	0.00e+00	0	33	0	329252864	42	5662
2026-01-08 07:43:04.44	256.20	4.75	-34.0	-34.9	20.9	0.00e+00	0	33	0	350224384	42	5644
2026-01-08 07:43:07.47	256.59	4.86	-34.0	-34.9	20.9	0.00e+00	0	33	0	372244480	42	5695
2026-01-08 07:43:10.50	256.98	4.97	-34.0	-34.9	21.0	0.00e+00	0	33	0	394264576	42	5636
2026-01-08 07:43:13.52	257.38	5.08	-34.0	-34.9	21.1	0.00e+00	0	33	0	416284672	42	5667
2026-01-08 07:43:16.56	257.78	5.19	-33.9	-34.8	21.2	0.00e+00	0	33	0	438304768	42	5584
2026-01-08 07:43:19.59	258.18	5.30	-33.7	-34.6	21.4	0.00e+00	0	33	0	460324864	40	6143
2026-01-08 07:43:22.61	258.59	5.40	-33.7	-34.5	21.4	0.00e+00	0	33	0	482344960	40	6077
2026-01-08 07:43:25.64	259.00	5.51	-33.6	-34.5	21.5	0.00e+00	0	33	0	503316480	40	6068
2026-01-08 07:43:28.67	259.41	5.61	-33.5	-34.4	21.6	0.00e+00	0	33	0	525336576	40	5982
2026-01-08 07:43:31.70	259.82	5.72	-33.5	-34.4	21.5	0.00e+00	0	33	0	547356672	40	6004
2026-01-08 07:43:34.73	260.24	5.82	-33.5	-34.3	21.5	0.00e+00	0	33	0	569376768	40	5957
2026-01-08 07:43:37.76	260.66	5.92	-33.6	-34.4	21.6	0.00e+00	0	33	0	591396864	40	6018
2026-01-08 07:43:40.79	261.08	6.02	-33.3	-34.2	21.7	0.00e+00	0	33	0	612368384	40	5850
2026-01-08 07:43:43.82	261.51	6.13	-33.2	-34.1	21.8	0.00e+00	0	33	0	634388480	40	5769
2026-01-08 07:43:46.84	261.94	6.23	-33.3	-34.2	21.7	0.00e+00	0	33	0	656408576	40	5834
2026-01-08 07:43:49.87	262.37	6.32	-33.1	-33.9	21.8	0.00e+00	0	33	0	678428672	40	5687
2026-01-08 07:43:52.90	262.80	6.42	-33.2	-34.1	21.8	0.00e+00	0	33	0	700448768	40	5766
2026-01-08 07:43:55.93	263.24	6.52	-33.3	-34.1	21.7	0.00e+00	0	33	0	722468864	40	5823
2026-01-08 07:43:58.96	263.68	6.61	-33.1	-34.0	21.7	0.00e+00	0	33	0	744488960	40	5704
2026-01-08 07:44:01.99	264.12	6.71	-33.0	-33.8	21.8	0.00e+00	0	33	0	765460480	40	5613
2026-01-08 07:44:05.02	264.57	6.80	-40.6	-41.5	19.7	1.23e-03	0	33	0	787480576	46	9578
2026-01-08 07:44:08.05	265.02	6.90	-33.5	-34.4	21.8	0.00e+00	0	33	0	809500672	40	6009
2026-01-08 07:44:11.07	265.47	6.99	-33.2	-34.1	21.8	0.00e+00	0	33	0	831520768	40	5790
2026-01-08 07:44:14.10	265.92	7.08	-33.2	-34.1	21.7	0.00e+00	0	33	0	853540864	40	5774
2026-01-08 07:44:17.13	266.38	7.17	-33.0	-33.9	21.9	0.00e+00	0	33	0	874512384	40	5632
2026-01-08 07:44:20.16	266.84	7.25	-32.9	-33.7	22.0	0.00e+00	0	33	0	896532480	40	5564
2026-01-08 07:44:23.19	267.30	7.34	-32.9	-33.7	22.0	0.00e+00	0	33	0	918552576	38	6235
2026-01-08 07:44:26.22	267.76	7.43	-32.8	-33.7	22.1	0.00e+00	0	33	0	940572672	38	6184
2026-01-08 07:44:29.24	268.23	7.51	-33.0	-33.8	22.0	0.00e+00	0	33	0	962592768	38	6279
2026-01-08 07:44:32.27	268.70	7.59	-32.5	-33.3	22.3	0.00e+00	0	33	0	984612864	38	5925
2026-01-08 07:44:35.30	269.17	7.67	-32.3	-33.1	22.5	0.00e+00	0	33	0	1006632960	38	5810
2026-01-08 07:44:38.33	269.64	7.75	-32.3	-33.1	22.6	0.00e+00	0	33	0	1027604480	38	5791
2026-01-08 07:44:41.36	270.12	7.83	-32.5	-33.3	22.4	0.00e+00	0	33	0	1049624576	38	5961
2026-01-08 07:44:44.38	270.60	7.91	-32.8	-33.7	22.1	0.00e+00	0	33	0	1071644672	38	6176
2026-01-08 07:44:47.41	271.08	7.98	-32.7	-33.5	22.1	0.00e+00	0	33	0	1093664768	38	6070
2026-01-08 07:44:50.44	271.57	8.06	-32.4	-33.3	22.3	0.00e+00	0	33	0	1115684864	38	5914
2026-01-08 07:44:53.47	272.05	8.13	-32.5	-33.3	22.2	0.00e+00	0	33	0	1137704960	38	5919
2026-01-08 07:44:56.50	272.54	8.20	-32.6	-33.5	22.2	0.00e+00	0	33	0	1159725056	38	6052
2026-01-08 07:44:59.52	273.03	8.27	-32.6	-33.5	22.1	0.00e+00	0	33	0	1180696576	38	6044
2026-01-08 07:45:02.55	273.52	8.34	-32.6	-33.4	22.1	0.00e+00	0	33	0	1202716672	38	6015
2026-01-08 07:45:05.58	274.02	8.40	-32.5	-33.3	22.2	0.00e+00	0	33	0	1224736768	38	5957
2026-01-08 07:45:08.61	274.52	8.47	-32.6	-33.4	22.3	0.00e+00	0	33	0	1246756864	38	6025
2026-01-08 07:45:11.64	275.02	8.53	-32.7	-33.5	22.3	0.00e+00	0	33	0	1267728384	38	6081
2026-01-08 07:45:14.66	275.52	8.59	-32.5	-33.3	22.2	0.00e+00	0	33	0	1289748480	38	5958
2026-01-08 07:45:17.69	276.02	8.65	-32.3	-33.1	22.4	0.00e+00	0	33	0	1311768576	38	5800
2026-01-08 07:45:20.72	276.53	8.71	-32.2	-33.0	22.6	0.00e+00	0	33	0	1333788672	38	5728
2026-01-08 07:45:23.75	277.03	8.76	-32.3	-33.1	22.5	0.00e+00	0	33	0	1355808768	38	5780
2026-01-08 07:45:26.78	277.54	8.82	-32.3	-33.1	22.4	0.00e+00	0	33	0	1377828864	38	5820
2026-01-08 07:45:29.81	278.05	8.87	-32.2	-33.1	22.6	0.00e+00	0	33	0	1399848960	38	5771
2026-01-08 07:45:32.84	278.57	8.92	-32.1	-32.9	22.5	0.00e+00	0	33	0	1420820480	38	5687
2026-01-08 07:45:35.87	279.08	8.97	-32.3	-33.1	22.4	0.00e+00	0	33	0	1442840576	38	5793
2026-01-08 07:45:38.90	279.60	9.01	-32.1	-33.0	22.5	0.00e+00	0	33	0	1464860672	38	5704
2026-01-08 07:45:41.93	280.12	9.06	-32.0	-32.8	22.6	0.00e+00	0	33	0	1486880768	38	5604
2026-01-08 07:45:44.96	280.63	9.10	-32.0	-32.8	22.7	0.00e+00	0	33	0	1508900864	38	5613
2026-01-08 07:45:47.99	281.15	9.14	-31.9	-32.7	22.8	0.00e+00	0	33	0	1530920960	38	5547
2026-01-08 07:45:51.02	281.68	9.18	-31.9	-32.7	22.7	0.00e+00	0	33	0	1552941056	38	5547
2026-01-08 07:45:54.05	282.20	9.21	-32.0	-32.8	22.6	0.00e+00	0	33	0	1574961152	38	5622
2026-01-08 07:45:57.08	282.72	9.25	-32.1	-32.9	22.5	0.00e+00	0	33	0	1595932672	38	5678
2026-01-08 07:46:00.10	283.25	9.28	-31.9	-32.7	22.7	0.00e+00	0	33	0	1617952768	38	5532
2026-01-08 07:46:03.13	283.77	9.31	-32.0	-32.8	22.7	0.00e+00	0	34	0	1639972864	38	5591
2026-01-08 07:46:06.16	284.30	9.34	-31.9	-32.7	22.7	0.00e+00	0	33	0	1661992960	38	5546
2026-01-08 07:46:09.19	284.83	9.36	-32.0	-32.8	22.5	0.00e+00	0	34	0	1684013056	38	5619
2026-01-08 07:46:12.22	285.36	9.39	-31.9	-32.7	22.6	0.00e+00	0	34	0	1706033152	38	5553
2026-01-08 07:46:15.25	285.89	9.41	-32.0	-32.8	22.6	0.00e+00	0	33	0	1728053248	38	5584
2026-01-08 07:46:18.28	286.42	9.43	-32.0	-32.8	22.5	0.00e+00	0	34	0	1749024768	38	5622
2026-01-08 07:46:21.30	286.95	9.45	-32.1	-33.0	22.4	0.00e+00	0	33	0	1771044864	38	5722
2026-01-08 07:46:24.33	287.48	9.46	-32.1	-33.0	22.4	0.00e+00	0	34	0	1793064960	38	5705
2026-01-08 07:46:27.36	288.01	9.47	-32.4	-33.2	22.2	0.00e+00	0	33	0	1815085056	38	5878
2026-01-08 07:46:30.39	288.55	9.49	-32.5	-33.4	22.1	0.00e+00	0	34	0	1837105152	38	5982
2026-01-08 07:46:33.42	289.08	9.49	-32.2	-33.1	22.4	0.00e+00	0	33	0	1859125248	38	5770
2026-01-08 07:46:36.45	289.61	9.50	-31.9	-32.8	22.5	0.00e+00	0	33	0	1881145344	38	5577
2026-01-08 07:46:39.48	290.15	9.51	-31.9	-32.7	22.6	0.00e+00	0	34	0	1902116864	38	5509
2026-01-08 07:46:42.51	290.68	9.51	-31.9	-32.7	22.7	0.00e+00	0	34	0	1924136960	38	5515
2026-01-08 07:46:45.53	291.21	9.51	-31.9	-32.7	22.7	0.00e+00	0	33	0	1946157056	38	5516
2026-01-08 07:46:48.56	291.74	9.51	-31.8	-32.6	22.8	0.00e+00	0	33	0	1968177152	38	5487
2026-01-08 07:46:51.59	292.28	9.50	-32.0	-32.8	22.5	0.00e+00	0	33	0	1990197248	38	5597
2026-01-08 07:46:54.62	292.81	9.50	-32.0	-32.8	22.4	0.00e+00	0	33	0	2012217344	38	5613
2026-01-08 07:46:57.65	293.34	9.49	-31.9	-32.7	22.6	0.00e+00	0	33	0	2034237440	38	5524
2026-01-08 07:47:00.67	293.88	9.48	-31.8	-32.7	22.5	0.00e+00	0	33	0	2055208960	36	6186
2026-01-08 07:47:03.71	294.41	9.47	-31.8	-32.6	22.5	0.00e+00	0	33	0	2077229056	36	6167
2026-01-08 07:47:06.74	294.94	9.45	-31.9	-32.7	22.4	0.00e+00	0	33	0	2099249152	36	6234
2026-01-08 07:47:09.76	295.47	9.43	-32.0	-32.8	22.2	0.00e+00	0	34	0	2121269248	36	6295
2026-01-08 07:47:12.79	296.00	9.42	-32.0	-32.9	22.4	0.00e+00	0	33	0	2143289344	36	6319
2026-01-08 07:47:15.82	296.53	9.39	-31.9	-32.7	22.5	0.00e+00	0	34	0	2165309440	36	6234
2026-01-08 07:47:18.86	297.06	9.37	-32.0	-32.9	22.4	0.00e+00	0	34	0	2187329536	36	6335
2026-01-08 07:47:21.88	297.59	9.35	-32.1	-33.0	22.3	0.00e+00	0	34	0	2208301056	36	6391
2026-01-08 07:47:24.91	298.11	9.32	-32.3	-33.1	22.3	0.00e+00	0	34	0	2230321152	36	6508
2026-01-08 07:47:27.94	298.64	9.29	-32.2	-33.0	22.5	0.00e+00	0	34	0	2252341248	36	6416
2026-01-08 07:47:30.97	299.17	9.26	-31.8	-32.6	22.7	0.00e+00	0	34	0	2274361344	36	6163
2026-01-08 07:47:34.00	299.69	9.23	-31.9	-32.8	22.6	0.00e+00	0	34	0	2296381440	36	6249
2026-01-08 07:47:37.02	300.21	9.19	-31.9	-32.7	22.7	0.00e+00	0	34	0	2317352960	36	6222
2026-01-08 07:47:40.05	300.73	9.15	-32.0	-32.8	22.6	0.00e+00	0	34	0	2339373056	36	6288
2026-01-08 07:47:43.08	301.25	9.11	-32.3	-33.1	22.5	0.00e+00	0	34	0	2361393152	36	6483
2026-01-08 07:47:46.11	301.77	9.07	-32.0	-32.8	22.6	0.00e+00	0	34	0	2383413248	36	6288
2026-01-08 07:47:49.15	302.29	9.03	-32.2	-33.0	22.4	0.00e+00	0	34	0	2405433344	36	6411
2026-01-08 07:47:52.17	302.80	8.98	-32.4	-33.2	22.2	0.00e+00	0	34	0	2427453440	36	6592
2026-01-08 07:47:55.20	303.32	8.94	-32.5	-33.4	22.1	0.00e+00	0	33	0	2449473536	36	6731
2026-01-08 07:47:58.24	303.83	8.89	-32.7	-33.4	24.1	0.00e+00	0	34	0	2470445056	38	5970
2026-01-08 07:48:01.27	304.34	8.84	-32.6	-33.3	24.4	0.00e+00	0	34	0	2492465152	38	5924
2026-01-08 07:48:04.29	304.85	8.78	-32.4	-33.1	24.5	0.00e+00	0	34	0	2514485248	38	5784
2026-01-08 07:48:07.33	305.36	8.73	-32.5	-33.1	24.5	0.00e+00	0	34	0	2536505344	38	5804
2026-01-08 07:48:10.35	305.86	8.67	-32.4	-33.0	24.5	0.00e+00	0	34	0	2558525440	38	5745
2026-01-08 07:48:13.38	306.36	8.61	-32.4	-33.0	24.5	0.00e+00	0	34	0	2580545536	38	5755
2026-01-08 07:48:16.41	306.87	8.55	-32.5	-33.1	24.5	0.00e+00	0	34	0	2602565632	38	5828
2026-01-08 07:48:19.44	307.36	8.49	-32.7	-33.3	24.2	0.00e+00	0	34	0	2623537152	38	5952
2026-01-08 07:48:22.47	307.86	8.43	-32.6	-33.3	24.3	0.00e+00	0	34	0	2645557248	38	5903
2026-01-08 07:48:25.50	308.36	8.36	-32.6	-33.2	24.4	0.00e+00	0	34	0	2667577344	38	5873
2026-01-08 07:48:28.52	308.85	8.30	-32.8	-33.4	24.2	0.00e+00	0	34	0	2689597440	38	6004
2026-01-08 07:48:31.55	309.34	8.23	-32.8	-33.5	24.1	0.00e+00	0	34	0	2711617536	38	6068
2026-01-08 07:48:34.58	309.83	8.16	-33.0	-33.7	23.9	0.00e+00	0	33	0	2733637632	38	6201
2026-01-08 07:48:37.61	310.31	8.09	-33.1	-33.7	23.9	0.00e+00	0	34	0	2755657728	38	6217
2026-01-08 07:48:40.64	310.80	8.02	-32.9	-33.5	24.0	0.00e+00	0	34	0	2776629248	38	6073
2026-01-08 07:48:43.67	311.28	7.94	-32.8	-33.4	24.1	0.00e+00	0	34	0	2798649344	38	6013
2026-01-08 07:48:46.69	311.75	7.87	-32.6	-33.3	24.3	0.00e+00	0	34	0	2820669440	38	5913
2026-01-08 07:48:49.72	312.23	7.79	-32.6	-33.3	24.1	0.00e+00	0	34	0	2842689536	38	5907
2026-01-08 07:48:52.75	312.71	7.71	-32.7	-33.4	24.1	0.00e+00	0	34	0	2864709632	38	5991
2026-01-08 07:48:55.78	313.18	7.63	-32.9	-33.5	24.0	0.00e+00	0	34	0	2886729728	38	6057
2026-01-08 07:48:58.81	313.65	7.55	-32.9	-33.6	23.8	0.00e+00	0	34	0	2908749824	38	6127
2026-01-08 07:49:01.84	314.11	7.47	-33.1	-33.7	23.8	0.00e+00	0	34	0	2929721344	38	6226
2026-01-08 07:49:04.86	314.57	7.38	-33.1	-33.8	23.7	0.00e+00	0	34	0	2951741440	38	6253
2026-01-08 07:49:07.89	315.04	7.30	-33.1	-33.7	23.7	0.00e+00	0	34	0	2973761536	38	6243
2026-01-08 07:49:10.92	315.49	7.21	-33.1	-33.8	23.8	0.00e+00	0	34	0	2995781632	38	6266
2026-01-08 07:49:13.95	315.95	7.12	-33.2	-33.9	23.7	0.00e+00	0	34	0	3017801728	38	6365
2026-01-08 07:49:16.98	316.40	7.03	-33.0	-33.6	23.9	0.00e+00	0	34	0	3039821824	38	6141
2026-01-08 07:49:20.01	316.85	6.94	-33.0	-33.7	23.9	0.00e+00	0	33	0	3061841920	38	6207
2026-01-08 07:49:23.03	317.30	6.85	-33.2	-33.8	23.6	0.00e+00	0	33	0	3082813440	38	6315
2026-01-08 07:49:26.06	317.75	6.76	-33.6	-34.2	23.3	0.00e+00	0	34	0	3104833536	38	6591
2026-01-08 07:49:29.09	318.19	6.66	-33.5	-34.1	23.4	0.00e+00	0	34	0	3126853632	38	6527
2026-01-08 07:49:32.12	318.63	6.57	-33.6	-34.3	23.2	0.00e+00	0	34	0	3148873728	38	6648
2026-01-08 07:49:35.15	319.06	6.47	-33.5	-34.1	23.3	0.00e+00	0	34	0	3170893824	38	6525
2026-01-08 07:49:38.18	319.50	6.38	-33.3	-34.0	23.4	0.00e+00	0	33	0	3191865344	38	6399
2026-01-08 07:49:41.21	319.93	6.28	-33.1	-33.8	23.4	0.00e+00	0	34	0	3213885440	38	6279
2026-01-08 07:49:44.24	320.36	6.18	-33.3	-34.0	23.3	0.00e+00	0	34	0	3235905536	38	6412
2026-01-08 07:49:47.27	320.78	6.08	-33.5	-34.1	23.2	0.00e+00	0	34	0	3257925632	38	6518
2026-01-08 07:49:50.30	321.21	5.98	-33.8	-34.4	23.0	0.00e+00	0	34	0	3279945728	38	6760
2026-01-08 07:49:53.33	321.63	5.88	-33.6	-34.3	22.9	0.00e+00	0	34	0	3301965824	40	5928
2026-01-08 07:49:56.36	322.04	5.78	-33.8	-34.4	22.9	0.00e+00	0	34	0	3323985920	40	6030
2026-01-08 07:49:59.40	322.46	5.67	-33.8	-34.5	22.8	0.00e+00	0	34	0	3346006016	40	6071
2026-01-08 07:50:02.42	322.87	5.57	-34.0	-34.8	22.5	0.00e+00	0	34	0	3366977536	40	6246
2026-01-08 07:50:05.46	323.28	5.46	-34.0	-34.7	22.7	0.00e+00	0	34	0	3388997632	40	6190
2026-01-08 07:50:08.49	323.68	5.36	-33.9	-34.6	22.7	0.00e+00	0	34	0	3411017728	40	6146
2026-01-08 07:50:11.52	324.09	5.25	-34.1	-34.8	22.4	0.00e+00	0	33	0	3433037824	40	6316
2026-01-08 07:50:14.55	324.49	5.15	-34.1	-34.8	22.4	0.00e+00	0	34	0	3455057920	40	6314
2026-01-08 07:50:17.58	324.89	5.04	-34.0	-34.7	22.6	0.00e+00	0	34	0	3477078016	40	6198
2026-01-08 07:50:20.61	325.28	4.93	-33.9	-34.6	22.6	0.00e+00	0	34	0	3499098112	40	6127
2026-01-08 07:50:23.64	325.67	4.82	-33.9	-34.6	22.5	0.00e+00	0	34	0	3520069632	40	6169
2026-01-08 07:50:26.67	326.06	4.71	-34.2	-34.9	22.2	0.00e+00	0	34	0	3542089728	40	6351
2026-01-08 07:50:29.70	326.45	4.60	-34.3	-35.0	22.1	0.00e+00	0	34	0	3564109824	40	6418
2026-01-08 07:50:32.73	326.83	4.49	-34.4	-35.1	22.1	0.00e+00	0	34	0	3586129920	40	6494
2026-01-08 07:50:35.76	327.21	4.38	-34.4	-35.2	22.0	0.00e+00	0	34	0	3608150016	40	6545
2026-01-08 07:50:38.79	327.59	4.27	-34.4	-35.2	21.9	0.00e+00	0	34	0	3630170112	40	6549
2026-01-08 07:50:41.82	327.96	4.15	-34.1	-34.8	22.2	0.00e+00	0	34	0	3652190208	40	6283
2026-01-08 07:50:44.85	328.34	4.04	-34.0	-34.7	22.3	0.00e+00	0	34	0	3674210304	40	6201
2026-01-08 07:50:47.88	328.71	3.93	-33.9	-34.6	22.4	0.00e+00	0	34	0	3695181824	40	6125
2026-01-08 07:50:50.91	329.07	3.81	-34.0	-34.7	22.0	0.00e+00	0	34	0	3717201920	40	6242
2026-01-08 07:50:53.94	329.44	3.70	-34.3	-35.0	21.7	0.00e+00	0	34	0	3739222016	40	6428
2026-01-08 07:50:56.96	329.80	3.59	-34.7	-35.4	21.2	0.00e+00	0	34	0	3761242112	40	6762
2026-01-08 07:50:59.99	330.16	3.47	-35.3	-36.1	20.3	0.00e+00	0	34	0	3783262208	42	6498
2026-01-08 07:51:03.03	330.51	3.35	-36.1	-37.1	19.0	0.00e+00	0	34	0	3805282304	44	6467
2026-01-08 07:51:06.06	330.87	3.24	-37.5	-38.6	16.9	0.00e+00	0	34	0	3827302400	46	6878
2026-01-08 07:51:09.09	331.22	3.12	-39.1	-40.7	13.7	1.10e-06	0	34	0	3848273920	50	6958
2026-01-08 07:51:12.12	331.56	3.01	-40.9	-43.7	9.2	7.17e-03	0	34	0	3870294016	54	7821
2026-01-08 07:51:15.15	331.91	2.89	-48.0	-59.1	3.6	8.44e-01	0	34	104	3873439744	60	32729
2026-01-08 07:51:18.18	332.25	2.77	-48.0	-59.5	3.6	8.46e-01	0	34	104	3873439744	60	34307
2026-01-08 07:51:21.21	332.59	2.65	-48.3	-59.6	3.6	8.46e-01	0	34	104	3873439744	60	34586
2026-01-08 07:51:24.24	332.93	2.54	-48.2	-59.5	3.6	8.45e-01	0	34	104	3873439744	60	34029
2026-01-08 07:51:27.27	333.27	2.42	-48.3	-59.6	3.6	8.45e-01	0	34	104	3873439744	60	34483
2026-01-08 07:51:30.29	333.60	2.30	-48.4	-59.6	3.6	8.45e-01	0	34	104	3873439744	60	34575
2026-01-08 07:51:33.33	333.93	2.18	-48.4	-59.5	3.5	8.45e-01	0	34	104	3873439744	60	34310
2026-01-08 07:51:36.35	334.25	2.06	-48.3	-59.5	3.6	8.45e-01	0	34	104	3873439744	60	34307
2026-01-08 07:51:39.38	334.58	1.94	-48.3	-59.5	3.6	8.46e-01	0	34	104	3873439744	60	34258
2026-01-08 07:51:42.41	334.90	1.82	-48.3	-59.5	3.6	8.45e-01	0	34	104	3873439744	60	34183
2026-01-08 07:51:45.43	335.22	1.70	-48.3	-59.5	3.6	8.45e-01	0	34	104	3873439744	60	34154
2026-01-08 07:51:48.46	335.54	1.59	-48.3	-59.6	3.6	8.46e-01	0	34	104	3873439744	60	34330
2026-01-08 07:51:51.49	335.85	1.47	-48.3	-59.5	3.6	8.46e-01	0	34	104	3873439744	60	34177
2026-01-08 07:51:54.52	336.17	1.35	-48.3	-59.5	3.6	8.46e-01	0	34	104	3873439744	60	34250
2026-01-08 07:51:57.55	336.48	1.22	-48.3	-59.5	3.6	8.45e-01	0	34	104	3873439744	60	34130
2026-01-08 07:52:00.58	336.78	1.10	-48.3	-59.5	3.6	8.45e-01	0	34	104	3873439744	60	34151
2026-01-08 07:52:03.61	337.09	0.98	-48.3	-59.5	3.6	8.46e-01	0	34	104	3873439744	60	33999
2026-01-08 07:52:06.64	337.39	0.86	-48.3	-59.5	3.6	8.44e-01	0	34	104	3873439744	60	34080
2026-01-08 07:52:09.67	337.69	0.74	-48.3	-59.5	3.6	8.45e-01	0	34	104	3873439744	60	34226
2026-01-08 07:52:12.70	337.99	0.62	-48.3	-59.5	3.6	8.45e-01	0	34	104	3873439744	60	34126
2026-01-08 07:52:15.73	338.29	0.50	-48.3	-59.5	3.6	8.46e-01	0	34	104	3873439744	60	34137
2026-01-08 07:52:18.76	338.58	0.38	-48.3	-59.5	3.6	8.45e-01	0	34	104	3873439744	60	33974
2026-01-08 07:52:21.79	338.87	0.26	-48.3	-59.5	3.6	8.46e-01	0	34	104	3873439744	60	34165
2026-01-08 07:52:24.82	339.16	0.14	-48.3	-59.5	3.6	8.45e-01	0	34	104	3873439744	60	34110
2026-01-08 07:52:27.84	339.45	0.02	-48.3	-59.5	3.6	8.46e-01	0	34	104	3873439744	60	34085

#Closed at: 2026-01-08 07:52:28
#Recorded file [3873 MB]: D:/lorett/data/35029_260108_194103.dat