passes_logs/2026/01/08/R4.6S_Anadyr/R4.6S_Anadyr__20260108_212226_FENGYUN_3E_rec.log

#Pass ID: 20260108_212226_FENGYUN 3E
#Satellite: FENGYUN 3E
#Configuration: FENGYUN 3E
#almurnet v.1.7.20251203
#Start time: 2026-01-08 21:22:29

#Version: 2.2.20231116
#Station: R4.6S_Anadyr
#Location: 177.4865 lon 64.73178 lat
#TLE: 1 49008U 21062A   26008.31124991 -.00000020  00000+0  11209-4 0  9997
#TLE: 2 49008  98.7482  13.5177 0001702 150.1462 209.9812 14.19884205233892

#Time	Az	El	Level	Level2	SNR	BER	BlckErr	Temp	State	Recorded	gain1	gain2
2026-01-08 21:22:29.96	29.48	0.18	-48.0	-57.8	3.3	8.40e-01	0	33	0	0	60	27966
2026-01-08 21:22:33.99	29.26	0.40	-47.9	-59.3	3.6	8.44e-01	0	33	104	0	60	33310
2026-01-08 21:22:38.03	29.04	0.62	-47.7	-59.0	3.6	8.47e-01	0	33	104	0	60	32064
2026-01-08 21:22:42.06	28.82	0.85	-46.9	-58.2	3.6	8.45e-01	0	33	104	0	60	29503
2026-01-08 21:22:46.10	28.59	1.07	-46.2	-57.4	3.6	8.45e-01	0	33	104	0	60	26878
2026-01-08 21:22:50.14	28.36	1.30	-46.2	-57.3	3.6	8.45e-01	0	34	104	0	60	26624
2026-01-08 21:22:54.18	28.12	1.53	-46.2	-57.4	3.6	8.47e-01	0	34	104	0	60	26788
2026-01-08 21:22:58.23	27.89	1.76	-46.2	-57.5	3.6	8.45e-01	0	34	104	0	60	27227
2026-01-08 21:23:02.26	27.64	1.98	-46.2	-57.3	3.6	8.45e-01	0	34	104	0	60	26485
2026-01-08 21:23:06.30	27.40	2.22	-46.1	-56.8	3.6	8.45e-01	0	34	104	0	60	24934
2026-01-08 21:23:10.33	27.15	2.45	-46.2	-57.4	3.6	8.45e-01	0	34	104	0	60	26698
2026-01-08 21:23:14.37	26.89	2.68	-46.2	-57.3	3.6	8.45e-01	0	34	104	0	60	26418
2026-01-08 21:23:18.41	26.63	2.92	-46.2	-57.0	3.6	8.45e-01	0	34	104	0	60	25616
2026-01-08 21:23:22.45	26.37	3.16	-43.5	-46.3	9.7	2.40e-02	0	34	0	8388608	60	7477
2026-01-08 21:23:26.49	26.10	3.39	-43.1	-45.6	10.6	1.28e-01	0	34	0	36700160	60	6854
2026-01-08 21:23:30.52	25.83	3.63	-39.0	-40.3	16.3	0.00e+00	0	34	0	51380224	50	6677
2026-01-08 21:23:34.56	25.55	3.87	-35.7	-36.6	20.0	0.00e+00	0	34	0	80740352	46	5456
2026-01-08 21:23:38.59	25.27	4.12	-35.9	-36.8	20.6	0.00e+00	0	34	0	110100480	44	6253
2026-01-08 21:23:42.63	24.98	4.36	-33.9	-34.6	22.1	0.00e+00	0	34	0	138412032	42	5476
2026-01-08 21:23:46.68	24.69	4.61	-33.9	-34.6	22.2	0.00e+00	0	34	0	167772160	40	6163
2026-01-08 21:23:50.72	24.39	4.86	-33.3	-34.0	22.8	0.00e+00	0	34	0	197132288	40	5750
2026-01-08 21:23:54.75	24.09	5.10	-33.3	-34.0	22.9	0.00e+00	0	34	0	226492416	40	5736
2026-01-08 21:23:58.79	23.78	5.35	-33.7	-34.4	22.6	0.00e+00	0	34	0	255852544	40	5980
2026-01-08 21:24:02.83	23.46	5.61	-33.3	-34.0	22.9	0.00e+00	0	34	0	285212672	40	5719
2026-01-08 21:24:06.86	23.14	5.86	-33.0	-33.7	23.2	0.00e+00	0	34	0	313524224	40	5544
2026-01-08 21:24:10.90	22.82	6.12	-33.0	-33.7	23.3	0.00e+00	0	34	0	342884352	40	5536
2026-01-08 21:24:14.93	22.48	6.37	-33.1	-33.8	23.2	0.00e+00	0	34	0	372244480	40	5571
2026-01-08 21:24:18.97	22.15	6.63	-33.0	-33.7	23.3	0.00e+00	0	34	0	401604608	40	5533
2026-01-08 21:24:23.00	21.80	6.89	-32.8	-33.5	23.6	0.00e+00	0	34	0	429916160	38	6036
2026-01-08 21:24:27.04	21.45	7.15	-32.5	-33.1	23.8	0.00e+00	0	34	0	459276288	38	5825
2026-01-08 21:24:31.07	21.09	7.41	-32.1	-32.8	24.4	0.00e+00	0	34	0	488636416	38	5589
2026-01-08 21:24:35.12	20.73	7.68	-32.2	-32.9	24.1	0.00e+00	0	34	0	517996544	38	5643
2026-01-08 21:24:39.15	20.36	7.95	-32.2	-32.8	24.2	0.00e+00	0	34	0	546308096	38	5598
2026-01-08 21:24:43.19	19.98	8.21	-32.3	-32.9	24.2	0.00e+00	0	34	0	575668224	38	5666
2026-01-08 21:24:47.23	19.59	8.48	-32.3	-32.9	24.2	0.00e+00	0	34	0	605028352	38	5684
2026-01-08 21:24:51.27	19.20	8.76	-32.1	-32.7	24.5	0.00e+00	0	34	0	634388480	38	5541
2026-01-08 21:24:55.30	18.80	9.03	-32.0	-32.6	24.6	0.00e+00	0	34	0	663748608	38	5470
2026-01-08 21:24:59.34	18.39	9.30	-31.7	-32.4	24.8	0.00e+00	0	34	0	693108736	36	5973
2026-01-08 21:25:03.38	17.97	9.58	-32.1	-32.8	24.4	0.00e+00	0	35	0	721420288	36	6248
2026-01-08 21:25:07.42	17.54	9.86	-31.7	-32.3	24.9	0.00e+00	0	34	0	750780416	36	5933
2026-01-08 21:25:11.45	17.11	10.14	-32.0	-32.7	24.6	0.00e+00	0	34	0	780140544	36	6202
2026-01-08 21:25:15.49	16.67	10.42	-31.9	-32.6	24.6	0.00e+00	0	35	0	809500672	36	6130
2026-01-08 21:25:19.52	16.22	10.70	-31.6	-32.3	24.8	0.00e+00	0	34	0	838860800	36	5907
2026-01-08 21:25:23.56	15.76	10.98	-31.3	-32.0	25.1	0.00e+00	0	35	0	867172352	36	5708
2026-01-08 21:25:27.61	15.28	11.27	-31.3	-31.9	25.3	0.00e+00	0	34	0	896532480	36	5654
2026-01-08 21:25:31.65	14.80	11.55	-31.4	-32.0	25.2	0.00e+00	0	34	0	925892608	36	5707
2026-01-08 21:25:35.69	14.31	11.84	-31.3	-31.9	25.3	0.00e+00	0	34	0	955252736	36	5644
2026-01-08 21:25:39.72	13.82	12.13	-31.2	-31.8	25.4	0.00e+00	0	34	0	984612864	36	5627
2026-01-08 21:25:43.76	13.31	12.42	-31.2	-31.9	25.4	0.00e+00	0	34	0	1012924416	36	5635
2026-01-08 21:25:47.80	12.79	12.71	-31.2	-31.8	25.4	0.00e+00	0	34	0	1042284544	36	5623
2026-01-08 21:25:51.83	12.26	13.01	-31.2	-31.8	25.5	0.00e+00	0	34	0	1071644672	36	5592
2026-01-08 21:25:55.87	11.71	13.30	-30.9	-31.5	25.7	0.00e+00	0	34	0	1101004800	36	5382
2026-01-08 21:25:59.91	11.16	13.59	-30.8	-31.4	25.9	0.00e+00	0	34	0	1129316352	34	6010
2026-01-08 21:26:03.95	10.60	13.89	-30.5	-31.1	26.0	0.00e+00	0	34	0	1158676480	34	5806
2026-01-08 21:26:07.98	10.02	14.18	-30.4	-31.0	26.1	0.00e+00	0	34	0	1188036608	34	5731
2026-01-08 21:26:12.02	9.43	14.48	-30.5	-31.1	26.0	0.00e+00	0	34	0	1217396736	34	5821
2026-01-08 21:26:16.05	8.84	14.78	-30.6	-31.2	25.9	0.00e+00	0	34	0	1246756864	34	5892
2026-01-08 21:26:20.09	8.22	15.08	-30.6	-31.2	26.0	0.00e+00	0	35	0	1275068416	34	5856
2026-01-08 21:26:24.13	7.60	15.37	-30.6	-31.2	26.0	0.00e+00	0	35	0	1304428544	34	5861
2026-01-08 21:26:28.17	6.96	15.67	-30.3	-30.9	26.3	0.00e+00	0	34	0	1333788672	34	5668
2026-01-08 21:26:32.20	6.31	15.97	-30.3	-30.9	26.3	0.00e+00	0	34	0	1363148800	34	5641
2026-01-08 21:26:36.24	5.65	16.27	-29.9	-30.5	26.7	0.00e+00	0	35	0	1392508928	34	5414
2026-01-08 21:26:40.28	4.97	16.56	-29.8	-30.4	26.7	0.00e+00	0	34	0	1420820480	32	5986
2026-01-08 21:26:44.31	4.28	16.86	-29.8	-30.4	26.8	0.00e+00	0	34	0	1450180608	32	5981
2026-01-08 21:26:48.36	3.57	17.16	-29.9	-30.5	26.7	0.00e+00	0	34	0	1479540736	32	6074
2026-01-08 21:26:52.39	2.85	17.45	-29.9	-30.5	26.7	0.00e+00	0	34	0	1508900864	32	6071
2026-01-08 21:26:56.43	2.12	17.75	-29.9	-30.5	26.8	0.00e+00	0	35	0	1538260992	32	6055
2026-01-08 21:27:00.46	1.37	18.04	-29.5	-30.1	26.8	0.00e+00	0	34	0	1566572544	32	5815
2026-01-08 21:27:04.50	0.61	18.33	-29.3	-29.9	27.2	0.00e+00	0	34	0	1595932672	32	5676
2026-01-08 21:27:08.54	359.83	18.62	-29.3	-29.9	27.0	0.00e+00	0	34	0	1625292800	32	5669
2026-01-08 21:27:12.57	359.03	18.90	-29.8	-30.4	26.7	0.00e+00	0	34	0	1654652928	32	5999
2026-01-08 21:27:16.61	358.23	19.18	-29.8	-30.4	26.7	0.00e+00	0	34	0	1682964480	32	6007
2026-01-08 21:27:20.65	357.40	19.47	-29.7	-30.3	26.9	0.00e+00	0	34	0	1712324608	32	5926
2026-01-08 21:27:24.68	356.56	19.74	-29.2	-29.8	27.3	0.00e+00	0	34	0	1741684736	32	5607
2026-01-08 21:27:28.72	355.71	20.02	-29.4	-29.9	27.2	0.00e+00	0	34	0	1771044864	32	5691
2026-01-08 21:27:32.75	354.84	20.29	-29.7	-30.3	26.9	0.00e+00	0	34	0	1800404992	32	5929
2026-01-08 21:27:36.80	353.95	20.55	-29.4	-30.0	27.1	0.00e+00	0	34	0	1828716544	32	5741
2026-01-08 21:27:40.84	353.05	20.81	-29.3	-29.9	27.3	0.00e+00	0	34	0	1858076672	32	5639
2026-01-08 21:27:44.87	352.13	21.07	-29.0	-29.6	27.4	0.00e+00	0	34	0	1887436800	32	5494
2026-01-08 21:27:48.91	351.20	21.32	-28.8	-29.3	27.7	0.00e+00	0	34	0	1916796928	32	5312
2026-01-08 21:27:52.95	350.25	21.57	-29.1	-29.6	27.4	0.00e+00	0	34	0	1946157056	30	6172
2026-01-08 21:27:56.99	349.29	21.80	-29.2	-29.8	27.3	0.00e+00	0	34	0	1975517184	30	6259
2026-01-08 21:28:01.03	348.31	22.04	-29.2	-29.7	27.4	0.00e+00	0	34	0	2003828736	30	6237
2026-01-08 21:28:05.06	347.32	22.26	-29.1	-29.7	27.5	0.00e+00	0	34	0	2033188864	30	6177
2026-01-08 21:28:09.10	346.31	22.48	-29.0	-29.6	27.6	0.00e+00	0	34	0	2062548992	30	6147
2026-01-08 21:28:13.14	345.29	22.69	-29.0	-29.6	27.5	0.00e+00	0	34	0	2091909120	30	6145
2026-01-08 21:28:17.17	344.26	22.89	-28.7	-29.3	27.7	0.00e+00	0	34	0	2121269248	30	5918
2026-01-08 21:28:21.21	343.21	23.08	-28.5	-29.1	27.9	0.00e+00	0	34	0	2149580800	30	5807
2026-01-08 21:28:25.25	342.15	23.27	-28.5	-29.0	27.9	0.00e+00	0	34	0	2178940928	30	5752
2026-01-08 21:28:29.29	341.07	23.44	-28.9	-29.4	27.7	0.00e+00	0	34	0	2208301056	30	6022
2026-01-08 21:28:33.33	339.98	23.61	-28.9	-29.5	27.5	0.00e+00	0	34	0	2237661184	30	6090
2026-01-08 21:28:37.37	338.89	23.76	-29.3	-29.9	27.4	0.00e+00	0	34	0	2265972736	30	6324
2026-01-08 21:28:41.41	337.78	23.90	-28.8	-29.4	27.7	0.00e+00	0	34	0	2295332864	30	5986
2026-01-08 21:28:45.45	336.66	24.04	-28.6	-29.2	27.7	0.00e+00	0	34	0	2324692992	30	5868
2026-01-08 21:28:49.49	335.53	24.16	-28.7	-29.3	27.7	0.00e+00	0	34	0	2354053120	30	5946
2026-01-08 21:28:53.52	334.40	24.27	-28.7	-29.2	27.8	0.00e+00	0	34	0	2383413248	30	5896
2026-01-08 21:28:57.56	333.26	24.36	-28.7	-29.3	27.7	0.00e+00	0	34	0	2411724800	30	5936
2026-01-08 21:29:01.60	332.11	24.45	-28.9	-29.5	27.6	0.00e+00	0	34	0	2441084928	30	6034
2026-01-08 21:29:05.64	330.95	24.52	-28.8	-29.3	27.7	0.00e+00	0	34	0	2470445056	30	5955
2026-01-08 21:29:09.67	329.79	24.58	-28.6	-29.2	27.7	0.00e+00	0	34	0	2499805184	30	5871
2026-01-08 21:29:13.71	328.63	24.63	-28.4	-29.0	28.0	0.00e+00	0	34	0	2529165312	30	5748
2026-01-08 21:29:17.75	327.46	24.67	-28.7	-29.3	27.7	0.00e+00	0	34	0	2557476864	30	5934
2026-01-08 21:29:21.79	326.29	24.69	-28.8	-29.4	27.6	0.00e+00	0	34	0	2586836992	30	6000
2026-01-08 21:29:25.82	325.12	24.70	-29.0	-29.5	27.6	0.00e+00	0	34	0	2616197120	30	6103
2026-01-08 21:29:29.86	323.95	24.69	-28.8	-29.4	27.7	0.00e+00	0	34	0	2645557248	30	5971
2026-01-08 21:29:33.90	322.78	24.68	-28.7	-29.2	27.8	0.00e+00	0	34	0	2674917376	30	5892
2026-01-08 21:29:37.94	321.61	24.65	-28.7	-29.2	27.7	0.00e+00	0	34	0	2703228928	30	5891
2026-01-08 21:29:41.98	320.44	24.60	-28.7	-29.3	27.7	0.00e+00	0	34	0	2732589056	30	5938
2026-01-08 21:29:46.01	319.28	24.55	-28.8	-29.4	27.5	0.00e+00	0	34	0	2761949184	30	5965
2026-01-08 21:29:50.05	318.12	24.48	-28.7	-29.3	27.7	0.00e+00	0	34	0	2791309312	30	5906
2026-01-08 21:29:54.09	316.97	24.40	-28.8	-29.4	27.7	0.00e+00	0	34	0	2820669440	30	6010
2026-01-08 21:29:58.13	315.82	24.31	-28.6	-29.1	27.9	0.00e+00	0	34	0	2850029568	30	5817
2026-01-08 21:30:02.17	314.68	24.20	-28.5	-29.1	27.9	0.00e+00	0	34	0	2878341120	30	5763
2026-01-08 21:30:06.20	313.55	24.08	-28.6	-29.1	27.9	0.00e+00	0	34	0	2907701248	30	5816
2026-01-08 21:30:10.24	312.43	23.96	-28.5	-29.1	27.9	0.00e+00	0	34	0	2937061376	30	5806
2026-01-08 21:30:14.28	311.31	23.82	-28.4	-29.0	27.9	0.00e+00	0	34	0	2966421504	30	5744
2026-01-08 21:30:18.32	310.21	23.67	-28.6	-29.1	27.8	0.00e+00	0	34	0	2994733056	30	5822
2026-01-08 21:30:22.35	309.12	23.51	-28.5	-29.0	28.0	0.00e+00	0	34	0	3024093184	30	5750
2026-01-08 21:30:26.40	308.04	23.34	-28.7	-29.3	27.7	0.00e+00	0	34	0	3053453312	30	5938
2026-01-08 21:30:30.43	306.97	23.15	-28.5	-29.1	27.9	0.00e+00	0	34	0	3082813440	30	5790
2026-01-08 21:30:34.47	305.91	22.97	-28.6	-29.2	27.8	0.00e+00	0	34	0	3112173568	30	5840
2026-01-08 21:30:38.51	304.87	22.77	-28.7	-29.2	27.9	0.00e+00	0	34	0	3140485120	30	5881
2026-01-08 21:30:42.54	303.84	22.56	-28.5	-29.1	27.9	0.00e+00	0	34	0	3169845248	30	5797
2026-01-08 21:30:46.58	302.83	22.34	-28.9	-29.5	27.6	0.00e+00	0	34	0	3199205376	30	6077
2026-01-08 21:30:50.61	301.83	22.12	-28.8	-29.4	27.7	0.00e+00	0	34	0	3228565504	30	6011
2026-01-08 21:30:54.65	300.84	21.89	-28.5	-29.1	27.9	0.00e+00	0	34	0	3256877056	30	5786
2026-01-08 21:30:58.69	299.87	21.66	-28.8	-29.4	27.7	0.00e+00	0	34	0	3286237184	30	6011
2026-01-08 21:31:02.72	298.92	21.41	-28.7	-29.3	27.5	0.00e+00	0	34	0	3315597312	30	5941
2026-01-08 21:31:06.76	297.98	21.16	-28.9	-29.5	27.6	0.00e+00	0	34	0	3344957440	30	6067
2026-01-08 21:31:10.80	297.05	20.91	-28.8	-29.4	27.7	0.00e+00	0	34	0	3374317568	30	5966
2026-01-08 21:31:14.84	296.14	20.65	-28.8	-29.4	27.7	0.00e+00	0	34	0	3403677696	30	5982
2026-01-08 21:31:18.88	295.24	20.38	-28.8	-29.4	27.6	0.00e+00	0	34	0	3431989248	30	5965
2026-01-08 21:31:22.93	294.36	20.11	-29.1	-29.7	27.5	0.00e+00	0	34	0	3461349376	30	6187
2026-01-08 21:31:26.97	293.50	19.84	-28.8	-29.6	24.1	0.00e+00	0	34	0	3490709504	30	6140
2026-01-08 21:31:31.00	292.65	19.56	-28.9	-29.7	24.0	0.00e+00	0	34	0	3520069632	30	6202
2026-01-08 21:31:35.04	291.82	19.28	-29.1	-29.8	23.8	0.00e+00	0	34	0	3549429760	30	6310
2026-01-08 21:31:39.07	291.00	19.00	-29.1	-29.9	23.8	0.00e+00	0	34	0	3577741312	30	6328
2026-01-08 21:31:43.11	290.20	18.71	-29.1	-29.9	24.0	0.00e+00	0	34	0	3607101440	30	6332
2026-01-08 21:31:47.15	289.41	18.43	-29.1	-29.9	24.1	0.00e+00	0	34	0	3636461568	30	6371
2026-01-08 21:31:51.19	288.64	18.14	-29.3	-30.1	23.9	0.00e+00	0	34	0	3665821696	30	6485
2026-01-08 21:31:55.23	287.88	17.84	-29.4	-30.2	23.8	0.00e+00	0	34	0	3695181824	30	6562
2026-01-08 21:31:59.26	287.14	17.55	-29.4	-30.2	24.1	0.00e+00	0	34	0	3723493376	30	6544
2026-01-08 21:32:03.30	286.41	17.25	-29.6	-30.4	23.9	0.00e+00	0	34	0	3752853504	30	6707
2026-01-08 21:32:07.34	285.70	16.96	-29.9	-30.6	23.8	0.00e+00	0	34	0	3782213632	32	6158
2026-01-08 21:32:11.38	285.00	16.66	-30.0	-30.8	23.6	0.00e+00	0	34	0	3811573760	32	6253
2026-01-08 21:32:15.41	284.31	16.36	-30.2	-31.0	23.4	0.00e+00	0	34	0	3839885312	32	6426
2026-01-08 21:32:19.45	283.64	16.06	-29.9	-30.7	23.5	0.00e+00	0	34	0	3869245440	32	6183
2026-01-08 21:32:23.49	282.98	15.76	-30.0	-30.7	23.4	0.00e+00	0	34	0	3898605568	32	6237
2026-01-08 21:32:27.52	282.34	15.47	-30.1	-30.9	23.4	0.00e+00	0	34	0	3927965696	32	6350
2026-01-08 21:32:31.56	281.70	15.17	-30.1	-30.9	23.5	0.00e+00	0	34	0	3957325824	32	6344
2026-01-08 21:32:35.60	281.08	14.87	-30.3	-31.1	23.2	0.00e+00	0	34	0	3985637376	32	6529
2026-01-08 21:32:39.63	280.48	14.57	-30.6	-31.4	23.0	0.00e+00	0	34	0	4014997504	32	6750
2026-01-08 21:32:43.67	279.88	14.27	-30.7	-31.5	23.0	0.00e+00	0	34	0	4044357632	34	6051
2026-01-08 21:32:47.71	279.30	13.98	-30.5	-31.3	23.1	0.00e+00	0	34	0	4073717760	34	5941
2026-01-08 21:32:51.74	278.73	13.68	-30.6	-31.4	23.0	0.00e+00	0	34	0	4103077888	34	5991
2026-01-08 21:32:55.78	278.17	13.38	-30.6	-31.4	23.0	0.00e+00	0	34	0	4132438016	34	6014
2026-01-08 21:32:59.82	277.62	13.09	-31.0	-31.8	22.8	0.00e+00	0	34	0	4160749568	34	6295
2026-01-08 21:33:03.86	277.08	12.79	-31.5	-32.3	22.5	0.00e+00	0	34	0	4190109696	34	6654
2026-01-08 21:33:07.89	276.55	12.50	-31.3	-32.2	22.4	0.00e+00	0	34	0	4219469824	34	6560
2026-01-08 21:33:11.93	276.04	12.21	-31.1	-31.9	22.7	0.00e+00	0	34	0	4248829952	34	6343
2026-01-08 21:33:15.97	275.53	11.92	-30.8	-31.6	23.0	0.00e+00	0	33	0	4277141504	34	6163
2026-01-08 21:33:20.01	275.04	11.63	-31.4	-32.3	22.4	0.00e+00	0	34	0	4306501632	34	6638
2026-01-08 21:33:24.04	274.55	11.34	-31.9	-32.8	21.9	0.00e+00	0	34	0	4335861760	36	6273
2026-01-08 21:33:28.08	274.07	11.06	-31.8	-32.6	22.2	0.00e+00	0	34	0	4365221888	36	6164
2026-01-08 21:33:32.11	273.61	10.77	-31.3	-32.1	22.6	0.00e+00	0	34	0	4393533440	36	5776
2026-01-08 21:33:36.15	273.15	10.49	-31.3	-32.1	22.7	0.00e+00	0	34	0	4422893568	36	5782
2026-01-08 21:33:40.19	272.70	10.21	-31.3	-32.1	22.7	0.00e+00	0	34	0	4452253696	36	5779
2026-01-08 21:33:44.22	272.26	9.93	-31.4	-32.2	22.6	0.00e+00	0	34	0	4481613824	36	5860
2026-01-08 21:33:48.26	271.83	9.65	-31.7	-32.5	22.5	0.00e+00	0	34	0	4510973952	36	6056
2026-01-08 21:33:52.30	271.41	9.37	-31.9	-32.7	22.2	0.00e+00	0	34	0	4539285504	36	6211
2026-01-08 21:33:56.33	270.99	9.09	-32.1	-33.0	22.1	0.00e+00	0	34	0	4568645632	36	6411
2026-01-08 21:34:00.37	270.58	8.82	-32.5	-33.4	21.8	0.00e+00	0	34	0	4598005760	36	6709
2026-01-08 21:34:04.41	270.18	8.55	-32.2	-33.1	21.8	0.00e+00	0	34	0	4627365888	36	6491
2026-01-08 21:34:08.44	269.79	8.28	-31.9	-32.7	22.1	0.00e+00	0	34	0	4656726016	36	6221
2026-01-08 21:34:12.48	269.41	8.01	-31.8	-32.6	22.3	0.00e+00	0	34	0	4686086144	36	6122
2026-01-08 21:34:16.51	269.03	7.74	-31.9	-32.7	22.2	0.00e+00	0	34	0	4714397696	36	6228
2026-01-08 21:34:20.55	268.66	7.47	-32.1	-33.0	22.0	0.00e+00	0	34	0	4743757824	36	6409
2026-01-08 21:34:24.59	268.30	7.21	-32.6	-33.4	21.5	0.00e+00	0	34	0	4773117952	36	6768
2026-01-08 21:34:28.63	267.94	6.94	-32.9	-33.8	21.3	0.00e+00	0	34	0	4802478080	38	6255
2026-01-08 21:34:32.66	267.59	6.68	-33.0	-33.9	21.2	0.00e+00	0	33	0	4830789632	38	6329
2026-01-08 21:34:36.70	267.25	6.42	-33.1	-34.0	21.2	0.00e+00	0	34	0	4860149760	38	6403
2026-01-08 21:34:40.73	266.91	6.17	-33.2	-34.1	21.2	0.00e+00	0	34	0	4889509888	38	6495
2026-01-08 21:34:44.77	266.58	5.91	-33.2	-34.1	21.1	0.00e+00	0	34	0	4918870016	38	6539
2026-01-08 21:34:48.81	266.26	5.65	-33.3	-34.2	21.0	0.00e+00	0	34	0	4947181568	38	6545
2026-01-08 21:34:52.84	265.94	5.40	-33.1	-34.0	21.1	0.00e+00	0	33	0	4976541696	38	6439
2026-01-08 21:34:56.87	265.62	5.15	-33.2	-34.0	21.3	0.00e+00	0	33	0	5005901824	38	6460
2026-01-08 21:35:00.91	265.32	4.90	-33.2	-34.1	21.3	0.00e+00	0	34	0	5035261952	38	6494
2026-01-08 21:35:04.95	265.01	4.65	-33.2	-34.0	21.2	0.00e+00	0	33	0	5064622080	38	6461
2026-01-08 21:35:08.99	264.72	4.41	-33.4	-34.2	21.0	0.00e+00	0	34	0	5092933632	38	6609
2026-01-08 21:35:13.02	264.42	4.16	-33.4	-34.3	20.9	0.00e+00	0	33	0	5122293760	40	5940
2026-01-08 21:35:17.06	264.14	3.92	-33.7	-34.6	20.7	0.00e+00	0	33	0	5151653888	40	6127
2026-01-08 21:35:21.10	263.85	3.67	-33.6	-34.5	20.6	0.00e+00	0	33	0	5181014016	40	6087
2026-01-08 21:35:25.14	263.58	3.43	-33.9	-34.9	20.3	0.00e+00	0	33	0	5210374144	40	6342
2026-01-08 21:35:29.17	263.30	3.19	-34.3	-35.2	20.0	0.00e+00	0	33	0	5239734272	40	6582
2026-01-08 21:35:32.92	263.05	2.97	-46.9	-57.9	3.6	8.45e-01	0	33	104	5264900096	60	28425
2026-01-08 21:35:36.96	262.79	2.74	-47.9	-59.1	3.6	8.45e-01	0	33	104	5264900096	60	32472
2026-01-08 21:35:41.00	262.53	2.50	-47.9	-59.2	3.6	8.46e-01	0	34	104	5264900096	60	32918
2026-01-08 21:35:45.04	262.27	2.27	-47.7	-59.3	3.6	8.45e-01	0	33	104	5264900096	60	33417
2026-01-08 21:35:49.08	262.02	2.03	-47.9	-59.1	3.6	8.45e-01	0	34	104	5264900096	60	32685
2026-01-08 21:35:53.12	261.78	1.80	-48.0	-59.2	3.6	8.46e-01	0	33	104	5264900096	60	32910
2026-01-08 21:35:57.15	261.53	1.57	-47.9	-59.1	3.6	8.45e-01	0	34	104	5264900096	60	32741
2026-01-08 21:36:01.19	261.29	1.34	-47.9	-59.1	3.6	8.45e-01	0	33	104	5264900096	60	32721
2026-01-08 21:36:05.23	261.06	1.12	-47.9	-59.1	3.6	8.45e-01	0	33	104	5264900096	60	32621
2026-01-08 21:36:09.27	260.83	0.89	-47.9	-59.1	3.5	8.45e-01	0	33	104	5264900096	60	32554
2026-01-08 21:36:13.31	260.60	0.67	-47.9	-59.1	3.5	8.46e-01	0	33	104	5264900096	60	32599
2026-01-08 21:36:17.34	260.38	0.44	-47.9	-59.1	3.6	8.46e-01	0	33	104	5264900096	60	32552
2026-01-08 21:36:21.38	260.15	0.22	-47.9	-59.1	3.6	8.45e-01	0	33	104	5264900096	60	32480
2026-01-08 21:36:25.43	259.94	0.00	-47.8	-59.1	3.6	8.45e-01	0	33	104	5264900096	60	32574

#Closed at: 2026-01-08 21:36:28
#Recorded file [5264 MB]: D:/lorett/data/35029_260109_092229.dat