passes_logs/2026/01/08/R4.6S_Anadyr/R4.6S_Anadyr__20260108_221123_TY-42_rec.log

#Pass ID: 20260108_221123_TY-42
#Satellite: TY-42
#Configuration: TY-42_900M
#almurnet v.1.7.20251203
#Start time: 2026-01-08 22:11:55

#Version: 2.2.20231116
#Station: R4.6S_Anadyr
#Location: 177.4865 lon 64.73178 lat
#TLE: 1 64048U 25103A   26008.20953704  .00008011  00000-0  38191-3 0 09994
#TLE: 2 64048 097.4112 083.7544 0001714 091.7459 055.1126 15.19173368 35784

#Time	Az	El	Level	Level2	SNR	BER	BlckErr	Temp	State	Recorded	gain1	gain2
2026-01-08 22:11:55.11	23.21	1.88	-48.1	-63.0	3.5	1.51e+00	0	31	0	0	60	51108
2026-01-08 22:11:58.13	23.46	2.07	-46.7	-49.2	6.0	0.00e+00	0	33	104	0	60	35475
2026-01-08 22:12:01.16	23.70	2.26	-46.7	-49.1	6.1	0.00e+00	0	33	104	0	60	34921
2026-01-08 22:12:04.19	23.95	2.45	-46.6	-49.1	6.1	0.00e+00	0	33	104	0	60	35046
2026-01-08 22:12:07.22	24.21	2.64	-46.7	-49.2	6.1	0.00e+00	0	34	104	0	60	35327
2026-01-08 22:12:10.24	24.47	2.84	-46.7	-49.2	6.1	0.00e+00	0	34	104	0	60	35249
2026-01-08 22:12:13.27	24.73	3.03	-46.7	-49.2	6.1	0.00e+00	0	34	104	0	60	35137
2026-01-08 22:12:16.30	25.00	3.23	-46.7	-49.1	6.1	0.00e+00	0	34	104	0	60	35082
2026-01-08 22:12:19.33	25.27	3.43	-46.7	-49.1	6.1	0.00e+00	0	34	104	0	60	34911
2026-01-08 22:12:22.36	25.54	3.63	-30.8	-31.1	14.0	0.00e+00	0	34	0	58720256	34	19743
2026-01-08 22:12:25.39	25.82	3.83	-42.5	-43.5	9.1	0.00e+00	0	34	104	209715200	60	18313
2026-01-08 22:12:28.42	26.11	4.03	-46.1	-48.3	6.1	7.30e-02	0	34	104	352321536	60	31743
2026-01-08 22:12:31.45	26.40	4.23	-32.0	-32.4	13.5	4.59e-02	0	35	0	578813952	38	18033
2026-01-08 22:12:34.48	26.69	4.44	-27.5	-27.9	15.7	1.56e-02	0	35	0	922746880	30	17057
2026-01-08 22:12:37.50	26.99	4.65	-26.1	-26.5	16.1	6.81e-04	0	35	0	1258291200	28	16304
2026-01-08 22:12:40.53	27.30	4.86	-26.0	-26.4	16.3	1.47e-04	0	35	0	1602224128	28	16237
2026-01-08 22:12:43.56	27.61	5.07	-26.1	-26.5	16.2	2.12e-04	0	35	0	1946157056	28	16342
2026-01-08 22:12:46.59	27.92	5.28	-26.0	-26.4	16.3	1.69e-04	0	35	0	2290089984	28	16077
2026-01-08 22:12:49.61	28.24	5.49	-25.9	-26.3	16.3	2.07e-04	0	35	0	2625634304	26	17826
2026-01-08 22:12:52.65	28.57	5.71	-25.9	-26.3	16.4	1.52e-04	0	35	0	2969567232	26	18007
2026-01-08 22:12:55.67	28.90	5.92	-25.9	-26.3	16.4	2.07e-04	0	35	0	3313500160	26	17889
2026-01-08 22:12:58.70	29.24	6.14	-26.0	-26.4	16.3	1.91e-04	0	35	0	3649044480	26	18140
2026-01-08 22:13:01.73	29.58	6.36	-25.9	-26.3	16.3	1.42e-04	0	35	0	3992977408	26	17995
2026-01-08 22:13:04.76	29.93	6.59	-25.8	-26.3	16.4	2.29e-04	0	36	0	4328521728	26	17834
2026-01-08 22:13:07.78	30.29	6.81	-25.8	-26.2	16.3	1.31e-04	0	36	0	4672454656	26	17739
2026-01-08 22:13:10.81	30.66	7.04	-25.7	-26.1	16.4	1.63e-04	0	36	0	5007998976	26	17514
2026-01-08 22:13:13.84	31.03	7.26	-25.7	-26.1	16.5	1.47e-04	0	36	0	5351931904	26	17563
2026-01-08 22:13:16.87	31.41	7.49	-25.4	-25.8	16.6	1.47e-04	0	36	0	5695864832	26	16998
2026-01-08 22:13:19.90	31.79	7.72	-25.4	-25.8	16.5	6.53e-05	0	36	0	6031409152	26	16871
2026-01-08 22:13:22.93	32.18	7.96	-25.3	-25.8	16.5	5.99e-05	0	36	0	6375342080	26	16871
2026-01-08 22:13:25.96	32.58	8.19	-25.3	-25.8	16.6	4.90e-05	0	36	0	6710886400	26	16824
2026-01-08 22:13:28.99	32.99	8.43	-25.2	-25.6	16.7	4.35e-05	0	36	0	7054819328	26	16518
2026-01-08 22:13:32.01	33.41	8.67	-24.9	-25.3	16.7	1.63e-05	0	36	0	7390363648	26	16008
2026-01-08 22:13:35.04	33.83	8.91	-24.8	-25.2	16.3	2.17e-05	0	36	0	7734296576	24	17759
2026-01-08 22:13:38.06	34.26	9.15	-24.8	-25.3	16.2	1.14e-04	0	36	0	8078229504	24	17829
2026-01-08 22:13:41.08	34.71	9.40	-24.7	-25.1	16.5	1.96e-04	0	36	0	8413773824	24	17565
2026-01-08 22:13:44.11	35.16	9.64	-24.7	-25.2	16.7	5.44e-05	0	36	0	8757706752	24	17645
2026-01-08 22:13:47.14	35.62	9.89	-24.5	-25.0	16.8	2.17e-05	0	36	0	9101639680	24	17255
2026-01-08 22:13:50.17	36.09	10.14	-24.6	-25.0	16.7	2.17e-05	0	36	0	9437184000	24	17326
2026-01-08 22:13:53.20	36.56	10.40	-24.4	-24.9	16.8	2.72e-05	0	36	0	9781116928	24	17090
2026-01-08 22:13:56.22	37.05	10.65	-24.4	-24.8	16.8	0.00e+00	0	36	0	10125049856	24	16978
2026-01-08 22:13:59.25	37.55	10.91	-23.9	-24.3	16.9	5.40e-06	0	36	0	10460594176	24	16027
2026-01-08 22:14:02.28	38.06	11.17	-23.8	-24.3	17.0	5.40e-06	0	36	0	10804527104	22	17913
2026-01-08 22:14:05.30	38.58	11.42	-23.6	-24.1	17.0	0.00e+00	0	36	0	11140071424	22	17499
2026-01-08 22:14:08.33	39.11	11.69	-23.5	-23.9	17.1	5.40e-06	0	36	0	11484004352	22	17163
2026-01-08 22:14:11.35	39.65	11.95	-23.2	-23.7	17.0	0.00e+00	0	36	0	11819548672	22	16719
2026-01-08 22:14:14.37	40.20	12.21	-23.1	-23.6	16.7	0.00e+00	0	37	0	12163481600	22	16442
2026-01-08 22:14:17.40	40.77	12.48	-23.1	-23.6	16.8	5.40e-06	0	36	0	12499025920	22	16544
2026-01-08 22:14:20.43	41.35	12.75	-22.9	-23.4	17.2	0.00e+00	0	37	0	12842958848	22	16114
2026-01-08 22:14:23.46	41.94	13.02	-22.9	-23.4	17.1	0.00e+00	0	37	0	13178503168	22	16066
2026-01-08 22:14:26.48	42.54	13.29	-22.9	-23.4	17.2	5.40e-06	0	36	0	13522436096	22	16068
2026-01-08 22:14:29.51	43.16	13.57	-22.5	-23.0	17.3	0.00e+00	0	37	0	13866369024	20	17325
2026-01-08 22:14:32.54	43.79	13.84	-22.5	-23.0	17.2	0.00e+00	0	37	0	14201913344	20	17217
2026-01-08 22:14:35.57	44.43	14.12	-22.4	-22.9	17.2	0.00e+00	0	37	0	14545846272	20	17075
2026-01-08 22:14:38.60	45.09	14.39	-22.2	-22.7	17.2	0.00e+00	0	37	0	14889779200	20	16636
2026-01-08 22:14:41.63	45.76	14.67	-22.1	-22.6	17.3	0.00e+00	0	37	0	15233712128	20	16556
2026-01-08 22:14:44.66	46.45	14.95	-21.9	-22.4	17.3	0.00e+00	0	37	0	15569256448	20	16117
2026-01-08 22:14:47.69	47.15	15.23	-22.1	-22.6	17.3	0.00e+00	0	37	0	15913189376	20	16453
2026-01-08 22:14:50.71	47.87	15.51	-22.0	-22.5	17.3	0.00e+00	0	37	0	16248733696	20	16276
2026-01-08 22:14:53.74	48.60	15.79	-21.6	-22.1	17.4	0.00e+00	0	37	0	16592666624	18	17535
2026-01-08 22:14:56.77	49.35	16.07	-21.5	-22.0	17.4	0.00e+00	0	37	0	16936599552	18	17220
2026-01-08 22:14:59.80	50.12	16.35	-21.4	-21.9	17.4	0.00e+00	0	37	0	17272143872	18	17074
2026-01-08 22:15:02.82	50.90	16.63	-21.3	-21.8	17.4	0.00e+00	0	37	0	17616076800	18	16892
2026-01-08 22:15:05.85	51.70	16.91	-21.4	-21.9	17.4	5.40e-06	0	37	0	17951621120	18	17033
2026-01-08 22:15:08.88	52.51	17.19	-21.2	-21.7	17.3	0.00e+00	0	37	0	18295554048	18	16673
2026-01-08 22:15:11.91	53.35	17.47	-21.0	-21.5	17.3	0.00e+00	0	37	0	18631098368	18	16263
2026-01-08 22:15:14.94	54.20	17.74	-20.9	-21.4	17.3	0.00e+00	0	37	0	18975031296	18	16131
2026-01-08 22:15:17.96	55.07	18.02	-20.8	-21.3	17.3	0.00e+00	0	37	0	19310575616	18	15922
2026-01-08 22:15:20.99	55.95	18.29	-20.6	-21.1	17.3	0.00e+00	0	37	0	19654508544	16	17593
2026-01-08 22:15:24.02	56.86	18.56	-20.6	-21.1	17.0	0.00e+00	0	37	0	19998441472	16	17462
2026-01-08 22:15:27.05	57.78	18.83	-20.5	-21.0	17.1	0.00e+00	0	37	0	20333985792	16	17227
2026-01-08 22:15:30.07	58.72	19.10	-20.4	-20.9	17.4	0.00e+00	0	37	0	20677918720	16	17045
2026-01-08 22:15:33.10	59.68	19.36	-20.3	-20.8	17.1	0.00e+00	0	37	0	21021851648	16	16865
2026-01-08 22:15:36.13	60.66	19.61	-20.3	-20.8	17.3	5.40e-06	0	37	0	21357395968	16	16851
2026-01-08 22:15:39.16	61.66	19.87	-20.3	-20.8	17.3	0.00e+00	0	37	0	21701328896	16	16862
2026-01-08 22:15:42.19	62.68	20.12	-20.1	-20.6	17.3	0.00e+00	0	37	0	22045261824	16	16576
2026-01-08 22:15:45.22	63.72	20.36	-20.0	-20.5	17.4	0.00e+00	0	37	0	22380806144	16	16252
2026-01-08 22:15:48.24	64.77	20.60	-19.8	-20.3	17.4	0.00e+00	0	37	0	22724739072	16	15974
2026-01-08 22:15:51.27	65.84	20.83	-19.8	-20.2	17.0	0.00e+00	0	37	0	23068672000	14	17789
2026-01-08 22:15:54.30	66.93	21.06	-19.5	-20.0	17.4	0.00e+00	0	37	0	23404216320	14	17248
2026-01-08 22:15:57.32	68.04	21.27	-19.4	-19.9	17.5	0.00e+00	0	37	0	23748149248	14	17046
2026-01-08 22:16:00.35	69.16	21.48	-19.4	-19.9	17.5	0.00e+00	0	37	0	24083693568	14	17027
2026-01-08 22:16:03.38	70.31	21.69	-19.3	-19.8	17.4	0.00e+00	0	37	0	24427626496	14	16867
2026-01-08 22:16:06.41	71.47	21.88	-19.3	-19.7	17.5	0.00e+00	0	37	0	24763170816	14	16797
2026-01-08 22:16:09.44	72.64	22.06	-19.3	-19.8	17.3	0.00e+00	0	37	0	25107103744	14	16815
2026-01-08 22:16:12.47	73.83	22.24	-19.3	-19.8	17.2	0.00e+00	0	37	0	25451036672	14	16970
2026-01-08 22:16:15.50	75.04	22.40	-19.4	-19.9	17.4	0.00e+00	0	37	0	25786580992	14	17158
2026-01-08 22:16:18.53	76.26	22.56	-19.2	-19.7	17.4	0.00e+00	0	37	0	26130513920	14	16798
2026-01-08 22:16:21.55	77.48	22.70	-19.1	-19.6	17.4	0.00e+00	0	37	0	26466058240	14	16539
2026-01-08 22:16:24.58	78.73	22.83	-19.2	-19.6	17.4	0.00e+00	0	37	0	26809991168	14	16577
2026-01-08 22:16:27.61	79.98	22.95	-19.1	-19.6	17.3	0.00e+00	0	37	0	27145535488	14	16519
2026-01-08 22:16:30.64	81.25	23.06	-19.1	-19.5	17.1	0.00e+00	0	37	0	27489468416	14	16411
2026-01-08 22:16:33.66	82.52	23.15	-19.1	-19.6	17.3	0.00e+00	0	37	0	27833401344	14	16457
2026-01-08 22:16:36.69	83.80	23.23	-19.2	-19.6	17.3	0.00e+00	0	37	0	28168945664	14	16594
2026-01-08 22:16:39.72	85.09	23.30	-19.3	-19.8	17.3	0.00e+00	0	37	0	28512878592	14	16849
2026-01-08 22:16:42.75	86.39	23.35	-19.1	-19.6	17.2	0.00e+00	0	37	0	28856811520	14	16512
2026-01-08 22:16:45.77	87.69	23.39	-18.9	-19.4	17.3	0.00e+00	0	37	0	29192355840	14	16099
2026-01-08 22:16:48.80	88.99	23.42	-19.0	-19.5	17.2	0.00e+00	0	37	0	29536288768	14	16243
2026-01-08 22:16:51.83	90.29	23.43	-19.0	-19.4	17.0	0.00e+00	0	37	0	29880221696	14	16220
2026-01-08 22:16:54.85	91.60	23.43	-19.1	-19.6	17.2	0.00e+00	0	38	0	30215766016	14	16429
2026-01-08 22:16:57.88	92.90	23.42	-19.1	-19.6	17.1	0.00e+00	0	38	0	30559698944	14	16554
2026-01-08 22:17:00.90	94.20	23.39	-19.2	-19.6	17.1	0.00e+00	0	37	0	30895243264	14	16577
2026-01-08 22:17:03.93	95.50	23.34	-19.5	-19.9	17.1	0.00e+00	0	38	0	31239176192	14	17153
2026-01-08 22:17:06.96	96.80	23.29	-19.1	-19.6	17.0	0.00e+00	0	38	0	31574720512	14	16479
2026-01-08 22:17:09.98	98.08	23.22	-19.3	-19.8	17.1	0.00e+00	0	37	0	31918653440	14	16843
2026-01-08 22:17:13.00	99.36	23.13	-19.2	-19.7	17.1	0.00e+00	0	37	0	32254197760	14	16657
2026-01-08 22:17:16.03	100.64	23.04	-19.3	-19.7	17.1	0.00e+00	0	37	0	32598130688	14	16770
2026-01-08 22:17:19.06	101.90	22.93	-19.2	-19.6	17.1	0.00e+00	0	37	0	32933675008	14	16595
2026-01-08 22:17:22.08	103.16	22.80	-19.4	-19.8	17.1	0.00e+00	0	37	0	33277607936	14	16870
2026-01-08 22:17:25.11	104.40	22.67	-19.4	-19.9	17.2	0.00e+00	0	38	0	33621540864	14	17023
2026-01-08 22:17:28.13	105.63	22.53	-19.7	-20.1	17.2	0.00e+00	0	37	0	33957085184	14	17562
2026-01-08 22:17:31.16	106.85	22.37	-19.6	-20.0	17.3	0.00e+00	0	37	0	34301018112	14	17379
2026-01-08 22:17:34.19	108.05	22.20	-19.4	-19.8	17.2	0.00e+00	0	37	0	34644951040	14	16970
2026-01-08 22:17:37.22	109.25	22.02	-19.5	-19.9	17.3	0.00e+00	0	38	0	34980495360	14	17142
2026-01-08 22:17:40.25	110.42	21.84	-19.6	-20.0	17.3	0.00e+00	0	38	0	35324428288	14	17374
2026-01-08 22:17:43.28	111.58	21.64	-19.8	-20.2	17.3	0.00e+00	0	38	0	35668361216	14	17614
2026-01-08 22:17:46.30	112.72	21.44	-19.8	-20.2	17.4	0.00e+00	0	38	0	36003905536	14	17676
2026-01-08 22:17:49.33	113.85	21.22	-19.9	-20.3	17.4	0.00e+00	0	38	0	36347838464	14	17994
2026-01-08 22:17:52.36	114.96	21.00	-19.9	-20.3	17.4	0.00e+00	0	38	0	36683382784	14	17873
2026-01-08 22:17:55.39	116.05	20.77	-20.0	-20.4	17.5	0.00e+00	0	38	0	37027315712	14	18195
2026-01-08 22:17:58.42	117.12	20.54	-19.9	-20.4	17.5	0.00e+00	0	38	0	37371248640	14	18013
2026-01-08 22:18:01.45	118.18	20.30	-20.1	-20.5	17.6	0.00e+00	0	38	0	37706792960	14	18302
2026-01-08 22:18:04.48	119.21	20.05	-20.2	-20.6	17.7	0.00e+00	0	38	0	38050725888	14	18466
2026-01-08 22:18:07.50	120.23	19.80	-20.1	-20.6	17.7	0.00e+00	0	38	0	38386270208	14	18456
2026-01-08 22:18:10.53	121.23	19.54	-20.1	-20.5	17.7	0.00e+00	0	38	0	38730203136	14	18310
2026-01-08 22:18:13.56	122.21	19.28	-20.2	-20.6	17.7	0.00e+00	0	38	0	39065747456	14	18631
2026-01-08 22:18:16.59	123.17	19.02	-20.4	-20.8	17.7	0.00e+00	0	38	0	39409680384	14	18989
2026-01-08 22:18:19.62	124.11	18.75	-20.5	-20.9	17.7	0.00e+00	0	38	0	39753613312	14	19127
2026-01-08 22:18:22.64	125.03	18.48	-20.6	-21.0	17.7	1.08e-05	0	38	0	40089157632	14	19512
2026-01-08 22:18:25.67	125.94	18.21	-20.7	-21.1	17.7	0.00e+00	0	38	0	40433090560	14	19678
2026-01-08 22:18:28.70	126.83	17.93	-20.9	-21.3	17.7	0.00e+00	0	38	0	40768634880	16	17910
2026-01-08 22:18:31.73	127.70	17.66	-20.9	-21.3	17.7	0.00e+00	0	38	0	41112567808	16	17944
2026-01-08 22:18:34.75	128.55	17.38	-21.0	-21.4	17.7	0.00e+00	0	38	0	41456500736	16	18219
2026-01-08 22:18:37.78	129.38	17.10	-20.9	-21.4	17.7	0.00e+00	0	38	0	41792045056	16	18050
2026-01-08 22:18:40.81	130.20	16.82	-21.1	-21.5	17.7	0.00e+00	0	38	0	42135977984	16	18351
2026-01-08 22:18:43.84	131.00	16.53	-21.2	-21.7	17.7	0.00e+00	0	38	0	42479910912	16	18766
2026-01-08 22:18:46.86	131.78	16.25	-21.2	-21.7	17.7	0.00e+00	0	38	0	42815455232	16	18659
2026-01-08 22:18:49.89	132.54	15.97	-21.0	-21.4	17.7	0.00e+00	0	38	0	43159388160	16	18217
2026-01-08 22:18:52.92	133.29	15.69	-21.2	-21.6	17.7	0.00e+00	0	38	0	43503321088	16	18576
2026-01-08 22:18:55.95	134.03	15.40	-21.2	-21.7	17.7	0.00e+00	0	38	0	43838865408	16	18709
2026-01-08 22:18:58.97	134.74	15.12	-21.4	-21.9	17.6	0.00e+00	0	38	0	44182798336	16	19097
2026-01-08 22:19:02.00	135.44	14.84	-21.5	-22.0	17.6	0.00e+00	0	38	0	44518342656	16	19398
2026-01-08 22:19:05.02	136.13	14.56	-21.7	-22.1	17.5	0.00e+00	0	38	0	44862275584	16	19702
2026-01-08 22:19:08.05	136.80	14.28	-21.7	-22.2	17.5	0.00e+00	0	38	0	45197819904	18	17700
2026-01-08 22:19:11.08	137.46	14.00	-21.9	-22.4	17.4	0.00e+00	0	38	0	45541752832	18	18036
2026-01-08 22:19:14.11	138.10	13.72	-21.9	-22.4	17.4	0.00e+00	0	38	0	45877297152	18	18111
2026-01-08 22:19:17.13	138.73	13.45	-22.1	-22.5	17.3	0.00e+00	0	38	0	46221230080	18	18328
2026-01-08 22:19:20.16	139.35	13.17	-22.4	-22.9	17.3	0.00e+00	0	38	0	46556774400	18	19174
2026-01-08 22:19:23.19	139.95	12.90	-23.0	-23.5	17.1	0.00e+00	0	38	0	46900707328	20	18249
2026-01-08 22:19:26.22	140.54	12.63	-23.9	-24.4	16.9	0.00e+00	0	38	0	47244640256	22	18111
2026-01-08 22:19:29.25	141.12	12.36	-24.8	-25.2	16.7	1.08e-05	0	38	0	47580184576	24	17706
2026-01-08 22:19:32.28	141.69	12.09	-25.0	-25.4	16.6	1.08e-05	0	38	0	47924117504	24	18181
2026-01-08 22:19:35.31	142.24	11.82	-24.5	-24.9	16.8	2.72e-05	0	38	0	48268050432	24	17071
2026-01-08 22:19:38.34	142.78	11.55	-24.1	-24.5	16.9	1.08e-05	0	38	0	48611983360	24	16330
2026-01-08 22:19:41.37	143.31	11.29	-24.2	-24.6	16.9	5.40e-06	0	38	0	48947527680	24	16538
2026-01-08 22:19:44.39	143.83	11.03	-23.8	-24.2	17.0	5.40e-06	0	38	0	49291460608	22	17744
2026-01-08 22:19:47.42	144.34	10.77	-23.6	-24.0	16.9	5.40e-06	0	38	0	49635393536	22	17382
2026-01-08 22:19:50.45	144.84	10.51	-23.6	-24.1	17.0	0.00e+00	0	38	0	49970937856	22	17457
2026-01-08 22:19:53.48	145.33	10.25	-23.4	-23.8	17.0	0.00e+00	0	38	0	50314870784	22	16902
2026-01-08 22:19:56.51	145.80	10.00	-23.3	-23.8	17.0	5.40e-06	0	38	0	50650415104	22	16901
2026-01-08 22:19:59.53	146.27	9.75	-23.3	-23.8	17.0	5.40e-06	0	38	0	50994348032	22	16915
2026-01-08 22:20:02.56	146.73	9.50	-23.1	-23.5	17.0	0.00e+00	0	38	0	51329892352	22	16406
2026-01-08 22:20:05.58	147.18	9.25	-23.0	-23.5	17.0	0.00e+00	0	38	0	51673825280	22	16298
2026-01-08 22:20:08.61	147.62	9.00	-23.2	-23.6	17.0	0.00e+00	0	38	0	52009369600	22	16555
2026-01-08 22:20:11.64	148.05	8.76	-23.1	-23.6	17.0	5.40e-06	0	38	0	52353302528	22	16481
2026-01-08 22:20:14.66	148.47	8.52	-23.2	-23.7	16.9	5.40e-06	0	38	0	52688846848	22	16657
2026-01-08 22:20:17.69	148.89	8.28	-23.4	-23.8	16.9	0.00e+00	0	38	0	53032779776	22	16970
2026-01-08 22:20:20.72	149.30	8.04	-23.6	-24.0	16.9	0.00e+00	0	38	0	53376712704	22	17381
2026-01-08 22:20:23.74	149.69	7.80	-23.6	-24.1	16.9	2.17e-05	0	38	0	53712257024	22	17517
2026-01-08 22:20:26.77	150.09	7.57	-23.8	-24.2	16.9	0.00e+00	0	38	0	54056189952	22	17786
2026-01-08 22:20:29.80	150.47	7.34	-23.9	-24.4	16.8	5.40e-06	0	38	0	54400122880	22	18163
2026-01-08 22:20:32.83	150.85	7.11	-24.1	-24.6	16.8	2.72e-05	0	38	0	54735667200	22	18470
2026-01-08 22:20:35.86	151.22	6.88	-24.1	-24.6	16.8	2.72e-05	0	38	0	55079600128	22	18534
2026-01-08 22:20:38.89	151.58	6.65	-24.2	-24.7	16.8	5.44e-05	0	38	0	55423533056	22	18715
2026-01-08 22:20:41.91	151.94	6.42	-24.6	-25.1	16.7	2.72e-05	0	38	0	55759077376	22	19659
2026-01-08 22:20:44.94	152.28	6.20	-25.0	-25.5	16.6	3.26e-05	0	38	0	56103010304	24	18241
2026-01-08 22:20:47.97	152.63	5.98	-25.5	-26.0	16.5	1.69e-04	0	38	0	56446943232	24	19362
2026-01-08 22:20:51.00	152.97	5.76	-26.2	-26.7	16.3	2.51e-04	0	38	0	56782487552	26	18674
2026-01-08 22:20:54.03	153.30	5.54	-27.3	-27.8	15.7	5.07e-04	0	38	0	57126420480	28	18895
2026-01-08 22:20:57.06	153.62	5.32	-28.2	-28.7	15.2	1.58e-03	0	38	0	57461964800	30	18717
2026-01-08 22:21:00.09	153.94	5.11	-29.4	-29.9	14.6	8.00e-03	0	38	0	57805897728	32	19095
2026-01-08 22:21:03.12	154.25	4.90	-30.2	-30.7	14.0	1.42e-02	0	38	0	58141442048	34	18702
2026-01-08 22:21:06.14	154.56	4.69	-31.2	-31.6	13.4	4.49e-02	0	38	0	58485374976	36	18609
2026-01-08 22:21:09.17	154.87	4.48	-31.5	-32.0	13.2	6.11e-02	0	38	0	58829307904	38	17226
2026-01-08 22:21:12.20	155.16	4.27	-31.2	-31.6	13.2	6.77e-02	0	38	0	59164852224	38	16571
2026-01-08 22:21:15.22	155.45	4.06	-30.7	-31.1	13.8	4.42e-02	0	38	0	59508785152	36	17479
2026-01-08 22:21:18.25	155.74	3.86	-29.8	-30.3	14.3	2.96e-02	0	38	0	59844329472	34	17918
2026-01-08 22:21:21.28	156.03	3.65	-29.1	-29.6	14.8	1.84e-02	0	38	0	60188262400	34	16495
2026-01-08 22:21:24.31	156.30	3.45	-28.8	-29.3	14.9	1.07e-02	0	38	0	60523806720	32	17885
2026-01-08 22:21:27.34	156.58	3.25	-28.4	-28.8	15.0	8.77e-03	0	38	0	60867739648	32	16993
2026-01-08 22:21:30.36	156.85	3.05	-28.5	-29.0	15.0	7.37e-03	0	38	0	61211672576	32	17332
2026-01-08 22:21:33.40	157.11	2.85	-47.7	-50.2	6.1	2.73e-03	0	38	104	61329113088	60	39454
2026-01-08 22:21:36.42	157.37	2.66	-48.2	-50.7	6.1	2.73e-03	0	38	104	61329113088	60	41885
2026-01-08 22:21:39.46	157.63	2.46	-48.5	-51.0	6.1	2.73e-03	0	38	104	61329113088	60	43233
2026-01-08 22:21:42.48	157.88	2.27	-48.5	-50.9	6.1	0.00e+00	0	38	104	61329113088	60	43120
2026-01-08 22:21:45.51	158.13	2.08	-48.4	-50.9	6.1	0.00e+00	0	38	104	61329113088	60	43023
2026-01-08 22:21:48.55	158.37	1.89	-48.4	-50.8	6.1	0.00e+00	0	38	104	61329113088	60	42565
2026-01-08 22:21:51.58	158.61	1.70	-48.3	-50.8	6.1	0.00e+00	0	38	104	61329113088	60	42347
2026-01-08 22:21:54.61	158.85	1.51	-48.4	-50.8	6.1	0.00e+00	0	38	104	61329113088	60	42627
2026-01-08 22:21:57.64	159.08	1.32	-48.3	-50.8	6.1	0.00e+00	0	38	104	61329113088	60	42604
2026-01-08 22:22:00.67	159.31	1.14	-48.3	-50.7	6.1	0.00e+00	0	38	104	61329113088	60	42193
2026-01-08 22:22:03.70	159.54	0.95	-48.3	-50.8	6.1	0.00e+00	0	38	104	61329113088	60	42488
2026-01-08 22:22:06.72	159.76	0.77	-48.3	-50.8	6.1	0.00e+00	0	38	104	61329113088	60	42279
2026-01-08 22:22:09.76	159.98	0.59	-48.3	-50.8	6.1	0.00e+00	0	38	104	61329113088	60	42267
2026-01-08 22:22:12.78	160.20	0.41	-48.3	-50.7	6.1	0.00e+00	0	38	104	61329113088	60	42059
2026-01-08 22:22:15.81	160.41	0.23	-48.3	-50.8	6.1	0.00e+00	0	38	104	61329113088	60	42413
2026-01-08 22:22:18.84	160.62	0.05	-48.3	-50.8	6.1	0.00e+00	0	38	104	61329113088	60	42427
2026-01-08 22:22:21.87	160.83	-0.13	-48.3	-50.7	6.1	0.00e+00	0	38	104	61329113088	60	42142

#Closed at: 2026-01-08 22:22:22
#Recorded file [61329 MB]: D:/lorett/data/35029_260109_101155.dat