passes_logs/2026/01/08/R4.6S_Anadyr/R4.6S_Anadyr__20260108_203417_NOAA_20_JPSS-1_rec.log

#Pass ID: 20260108_203417_NOAA 20 (JPSS-1)
#Satellite: NOAA 20 (JPSS-1)
#Configuration: NOAA 20
#almurnet v.1.7.20251203
#Start time: 2026-01-08 20:34:18

#Version: 2.2.20231116
#Station: R4.6S_Anadyr
#Location: 177.4865 lon 64.73178 lat
#TLE: 1 43013U 17073A   26008.28148939  .00000118  00000+0  77102-4 0  9999
#TLE: 2 43013  98.7631 309.2920 0001742  49.0100 311.1227 14.19534407421787

#Time	Az	El	Level	Level2	SNR	BER	BlckErr	Temp	State	Recorded	gain1	gain2
2026-01-08 20:34:18.11	72.64	0.06	-48.4	-63.3	3.5	1.51e+00	0	30	0	0	60	52719
2026-01-08 20:34:22.14	72.35	0.26	-48.3	-63.6	3.6	1.51e+00	0	31	104	0	60	54743
2026-01-08 20:34:26.18	72.05	0.46	-48.5	-63.7	3.6	1.51e+00	0	32	104	0	60	55198
2026-01-08 20:34:30.22	71.76	0.66	-48.3	-63.5	3.6	1.51e+00	0	32	104	0	60	53842
2026-01-08 20:34:34.25	71.46	0.87	-47.2	-62.4	3.6	1.51e+00	0	32	104	0	60	47769
2026-01-08 20:34:38.29	71.15	1.07	-46.7	-61.9	3.6	1.51e+00	0	32	104	0	60	45063
2026-01-08 20:34:42.33	70.84	1.28	-46.7	-61.9	3.6	1.51e+00	0	32	104	0	60	44913
2026-01-08 20:34:46.37	70.53	1.48	-46.7	-61.8	3.6	1.51e+00	0	32	104	0	60	44688
2026-01-08 20:34:50.40	70.21	1.69	-46.7	-61.8	3.6	1.51e+00	0	32	104	0	60	44652
2026-01-08 20:34:54.44	69.89	1.90	-46.7	-61.8	3.6	1.51e+00	0	32	104	0	60	44594
2026-01-08 20:34:58.48	69.56	2.11	-46.7	-61.6	3.6	1.51e+00	0	32	104	0	60	43239
2026-01-08 20:35:02.52	69.23	2.31	-46.7	-61.8	3.6	1.51e+00	0	32	104	0	60	44419
2026-01-08 20:35:06.55	68.89	2.52	-46.7	-61.8	3.6	1.51e+00	0	32	104	0	60	44439
2026-01-08 20:35:10.59	68.55	2.73	-46.6	-61.5	3.6	1.51e+00	0	32	104	0	60	42717
2026-01-08 20:35:14.63	68.20	2.94	-45.6	-51.6	8.8	1.10e-01	0	32	0	1048576	60	13755
2026-01-08 20:35:18.67	67.84	3.15	-46.6	-59.8	3.6	4.50e-06	0	32	104	8388608	60	35273
2026-01-08 20:35:22.71	67.49	3.37	-42.1	-44.3	16.7	0.00e+00	0	32	0	11534336	58	6617
2026-01-08 20:35:26.75	67.12	3.58	-41.5	-43.5	17.6	0.00e+00	0	32	0	19922944	56	6778
2026-01-08 20:35:30.78	66.75	3.79	-41.5	-43.3	17.7	0.00e+00	0	32	0	27262976	56	6676
2026-01-08 20:35:35.11	66.35	4.02	-41.4	-43.2	18.0	0.00e+00	0	32	0	34603008	56	6544
2026-01-08 20:35:39.15	65.97	4.23	-41.8	-43.7	17.4	0.00e+00	0	32	0	41943040	56	7007
2026-01-08 20:35:43.19	65.58	4.45	-41.7	-43.6	17.7	0.00e+00	0	32	0	49283072	56	6866
2026-01-08 20:35:47.23	65.19	4.66	-41.5	-43.2	18.0	0.00e+00	0	32	0	57671680	56	6611
2026-01-08 20:35:51.26	64.79	4.88	-41.3	-43.0	18.3	0.00e+00	0	32	0	65011712	56	6417
2026-01-08 20:35:55.30	64.39	5.09	-41.4	-43.1	18.1	0.00e+00	0	32	0	72351744	56	6525
2026-01-08 20:35:59.34	63.98	5.31	-41.2	-42.9	18.4	0.00e+00	0	32	0	79691776	56	6387
2026-01-08 20:36:03.38	63.56	5.53	-41.0	-42.6	18.8	0.00e+00	0	32	0	88080384	56	6129
2026-01-08 20:36:07.41	63.14	5.74	-40.9	-42.5	18.9	0.00e+00	0	32	0	95420416	56	6086
2026-01-08 20:36:11.45	62.70	5.96	-40.6	-42.0	19.3	0.00e+00	0	32	0	102760448	54	6462
2026-01-08 20:36:15.49	62.27	6.18	-40.4	-41.9	19.5	0.00e+00	0	32	0	110100480	54	6348
2026-01-08 20:36:19.53	61.82	6.39	-40.3	-41.7	19.7	0.00e+00	0	32	0	117440512	54	6204
2026-01-08 20:36:23.57	61.37	6.61	-40.2	-41.6	19.8	0.00e+00	0	32	0	125829120	54	6134
2026-01-08 20:36:27.60	60.92	6.83	-40.4	-41.8	19.2	0.00e+00	0	32	0	133169152	54	6292
2026-01-08 20:36:31.64	60.45	7.05	-40.1	-41.4	20.0	0.00e+00	0	32	0	140509184	54	6026
2026-01-08 20:36:35.67	59.98	7.27	-39.9	-41.2	20.3	0.00e+00	0	32	0	147849216	54	5845
2026-01-08 20:36:39.71	59.50	7.48	-39.8	-41.1	20.4	0.00e+00	0	32	0	155189248	52	6506
2026-01-08 20:36:43.74	59.02	7.70	-39.8	-41.0	20.6	0.00e+00	0	32	0	163577856	52	6454
2026-01-08 20:36:47.78	58.52	7.92	-39.9	-41.2	20.3	0.00e+00	0	32	0	170917888	52	6578
2026-01-08 20:36:51.82	58.02	8.14	-39.9	-41.2	20.4	0.00e+00	0	32	0	178257920	52	6551
2026-01-08 20:36:55.86	57.51	8.35	-39.7	-41.0	20.6	0.00e+00	0	32	0	185597952	52	6419
2026-01-08 20:36:59.89	57.00	8.57	-39.5	-40.8	20.8	0.00e+00	0	32	0	193986560	52	6261
2026-01-08 20:37:03.93	56.47	8.79	-39.5	-40.7	21.0	0.00e+00	0	32	0	201326592	52	6184
2026-01-08 20:37:07.97	55.94	9.00	-39.6	-40.8	20.8	0.00e+00	0	32	0	208666624	52	6271
2026-01-08 20:37:12.00	55.40	9.22	-39.4	-40.6	21.0	0.00e+00	0	32	0	216006656	52	6158
2026-01-08 20:37:16.04	54.85	9.43	-39.5	-40.7	20.9	0.00e+00	0	32	0	223346688	52	6235
2026-01-08 20:37:20.07	54.29	9.65	-39.5	-40.8	20.9	0.00e+00	0	32	0	231735296	52	6254
2026-01-08 20:37:24.11	53.73	9.86	-39.4	-40.5	21.1	0.00e+00	0	32	0	239075328	52	6092
2026-01-08 20:37:28.14	53.15	10.07	-39.6	-40.8	21.0	0.00e+00	0	33	0	246415360	52	6264
2026-01-08 20:37:32.18	52.57	10.28	-39.4	-40.6	21.1	0.00e+00	0	33	0	253755392	52	6139
2026-01-08 20:37:36.22	51.98	10.49	-39.5	-40.8	20.9	0.00e+00	0	32	0	262144000	52	6248
2026-01-08 20:37:40.26	51.38	10.70	-39.4	-40.6	21.1	0.00e+00	0	32	0	269484032	52	6164
2026-01-08 20:37:44.30	50.77	10.91	-39.0	-40.2	21.5	0.00e+00	0	32	0	276824064	52	5843
2026-01-08 20:37:48.33	50.15	11.12	-38.9	-40.0	21.7	0.00e+00	0	32	0	284164096	52	5725
2026-01-08 20:37:52.37	49.53	11.32	-38.5	-39.6	22.1	0.00e+00	0	32	0	291504128	50	6129
2026-01-08 20:37:56.41	48.89	11.52	-38.2	-39.2	22.3	0.00e+00	0	32	0	299892736	50	5880
2026-01-08 20:38:00.45	48.25	11.73	-37.8	-38.7	22.8	0.00e+00	0	32	0	307232768	50	5565
2026-01-08 20:38:04.49	47.59	11.92	-37.7	-38.6	22.9	0.00e+00	0	33	0	314572800	48	6151
2026-01-08 20:38:08.52	46.93	12.12	-37.8	-38.8	22.8	0.00e+00	0	33	0	321912832	48	6261
2026-01-08 20:38:12.56	46.26	12.32	-37.7	-38.7	22.9	0.00e+00	0	33	0	329252864	48	6180
2026-01-08 20:38:16.60	45.58	12.51	-37.4	-38.4	23.2	0.00e+00	0	32	0	337641472	48	5988
2026-01-08 20:38:20.63	44.89	12.70	-37.2	-38.1	23.4	0.00e+00	0	32	0	344981504	48	5789
2026-01-08 20:38:24.67	44.19	12.89	-36.9	-37.8	23.7	0.00e+00	0	32	0	352321536	48	5599
2026-01-08 20:38:28.71	43.49	13.07	-36.9	-37.8	23.6	0.00e+00	0	32	0	359661568	48	5567
2026-01-08 20:38:32.75	42.77	13.25	-36.9	-37.8	23.7	0.00e+00	0	32	0	368050176	46	6292
2026-01-08 20:38:36.78	42.05	13.43	-37.0	-37.9	23.7	0.00e+00	0	32	0	375390208	46	6333
2026-01-08 20:38:40.82	41.31	13.60	-37.3	-38.2	23.3	0.00e+00	0	32	0	382730240	46	6586
2026-01-08 20:38:44.86	40.57	13.78	-37.3	-38.2	23.2	0.00e+00	0	32	0	390070272	46	6593
2026-01-08 20:38:48.90	39.82	13.94	-37.3	-38.2	23.4	0.00e+00	0	32	0	397410304	46	6612
2026-01-08 20:38:52.93	39.06	14.11	-37.2	-38.1	23.5	0.00e+00	0	33	0	405798912	46	6528
2026-01-08 20:38:56.97	38.29	14.27	-37.0	-37.9	23.7	0.00e+00	0	32	0	413138944	46	6355
2026-01-08 20:39:01.01	37.52	14.42	-37.0	-37.9	23.6	0.00e+00	0	32	0	420478976	46	6359
2026-01-08 20:39:05.04	36.73	14.57	-37.0	-37.8	23.8	0.00e+00	0	32	0	427819008	46	6317
2026-01-08 20:39:09.08	35.94	14.72	-36.9	-37.7	23.8	0.00e+00	0	32	0	436207616	46	6238
2026-01-08 20:39:13.12	35.14	14.86	-36.8	-37.6	23.7	0.00e+00	0	32	0	443547648	46	6165
2026-01-08 20:39:17.15	34.33	15.00	-36.5	-37.3	24.2	0.00e+00	0	32	0	450887680	46	5930
2026-01-08 20:39:21.19	33.52	15.13	-36.5	-37.4	24.2	0.00e+00	0	32	0	458227712	46	5978
2026-01-08 20:39:25.22	32.70	15.26	-37.1	-38.1	23.5	0.00e+00	0	32	0	465567744	46	6467
2026-01-08 20:39:29.25	31.87	15.38	-36.8	-37.7	23.9	0.00e+00	0	32	0	473956352	46	6216
2026-01-08 20:39:33.29	31.03	15.49	-37.0	-37.8	23.8	0.00e+00	0	32	0	481296384	46	6302
2026-01-08 20:39:37.33	30.19	15.61	-37.0	-37.9	23.4	0.00e+00	0	32	0	488636416	46	6338
2026-01-08 20:39:41.37	29.34	15.71	-37.0	-37.8	23.8	0.00e+00	0	32	0	495976448	46	6314
2026-01-08 20:39:45.41	28.49	15.81	-37.1	-38.0	23.6	0.00e+00	0	32	0	504365056	46	6451
2026-01-08 20:39:49.45	27.63	15.90	-37.4	-38.3	23.3	0.00e+00	0	32	0	511705088	46	6660
2026-01-08 20:39:53.48	26.76	15.99	-37.6	-38.5	23.2	0.00e+00	0	32	0	519045120	46	6832
2026-01-08 20:39:57.52	25.89	16.07	-37.4	-38.3	23.4	0.00e+00	0	32	0	526385152	46	6654
2026-01-08 20:40:01.56	25.02	16.14	-37.1	-38.0	23.4	0.00e+00	0	32	0	533725184	46	6440
2026-01-08 20:40:05.59	24.14	16.21	-37.2	-38.1	23.6	0.00e+00	0	32	0	542113792	46	6479
2026-01-08 20:40:09.62	23.26	16.27	-37.5	-38.4	23.3	0.00e+00	0	32	0	549453824	46	6730
2026-01-08 20:40:13.66	22.38	16.32	-37.4	-38.3	23.3	0.00e+00	0	32	0	556793856	46	6665
2026-01-08 20:40:17.70	21.49	16.37	-37.4	-38.3	23.4	0.00e+00	0	32	0	564133888	46	6667
2026-01-08 20:40:21.73	20.60	16.40	-37.6	-38.5	23.2	0.00e+00	0	32	0	572522496	46	6811
2026-01-08 20:40:25.77	19.71	16.44	-37.6	-38.6	23.2	0.00e+00	0	32	0	579862528	46	6852
2026-01-08 20:40:29.81	18.81	16.46	-37.6	-38.5	23.2	0.00e+00	0	32	0	587202560	46	6821
2026-01-08 20:40:33.84	17.92	16.48	-37.3	-38.2	23.5	0.00e+00	0	32	0	594542592	46	6596
2026-01-08 20:40:37.87	17.02	16.49	-37.7	-38.6	23.1	0.00e+00	0	32	0	601882624	46	6923
2026-01-08 20:40:41.91	16.12	16.50	-37.7	-38.6	23.2	0.00e+00	0	32	0	610271232	48	6138
2026-01-08 20:40:45.95	15.23	16.49	-37.3	-38.2	23.4	0.00e+00	0	32	0	617611264	48	5869
2026-01-08 20:40:49.98	14.33	16.48	-37.5	-38.4	23.2	0.00e+00	0	32	0	624951296	48	6023
2026-01-08 20:40:54.01	13.44	16.46	-37.5	-38.4	23.3	0.00e+00	0	32	0	632291328	48	6009
2026-01-08 20:40:58.05	12.54	16.44	-37.6	-38.6	23.1	0.00e+00	0	32	0	639631360	48	6132
2026-01-08 20:41:02.09	11.65	16.41	-37.1	-38.0	23.6	0.00e+00	0	32	0	648019968	48	5755
2026-01-08 20:41:06.12	10.76	16.37	-37.1	-38.0	23.6	0.00e+00	0	32	0	655360000	48	5740
2026-01-08 20:41:10.16	9.87	16.32	-37.3	-38.2	23.2	0.00e+00	0	32	0	662700032	48	5871
2026-01-08 20:41:14.19	8.99	16.27	-36.9	-37.7	23.8	0.00e+00	0	32	0	670040064	48	5557
2026-01-08 20:41:18.23	8.11	16.21	-36.8	-37.7	24.0	0.00e+00	0	32	0	678428672	46	6225
2026-01-08 20:41:22.27	7.23	16.15	-36.8	-37.7	23.9	0.00e+00	0	32	0	685768704	46	6207
2026-01-08 20:41:26.31	6.35	16.07	-36.4	-37.3	24.2	0.00e+00	0	32	0	693108736	46	5920
2026-01-08 20:41:30.35	5.48	15.99	-36.8	-37.6	23.9	0.00e+00	0	32	0	700448768	46	6159
2026-01-08 20:41:34.38	4.62	15.91	-36.9	-37.8	23.8	0.00e+00	0	32	0	707788800	46	6258
2026-01-08 20:41:38.42	3.76	15.82	-36.9	-37.8	23.9	0.00e+00	0	32	0	716177408	46	6259
2026-01-08 20:41:42.46	2.91	15.72	-36.9	-37.8	23.9	0.00e+00	0	32	0	723517440	46	6260
2026-01-08 20:41:46.50	2.06	15.61	-37.3	-38.2	23.5	0.00e+00	0	32	0	730857472	46	6564
2026-01-08 20:41:50.54	1.21	15.50	-37.5	-38.5	23.3	0.00e+00	0	32	0	738197504	46	6780
2026-01-08 20:41:54.58	0.38	15.39	-37.4	-38.3	23.4	0.00e+00	0	32	0	746586112	46	6646
2026-01-08 20:41:58.61	359.55	15.27	-37.4	-38.4	23.4	0.00e+00	0	32	0	753926144	46	6701
2026-01-08 20:42:02.65	358.73	15.14	-37.3	-38.2	23.4	0.00e+00	0	32	0	761266176	46	6611
2026-01-08 20:42:06.69	357.91	15.01	-37.1	-37.9	23.7	0.00e+00	0	32	0	768606208	46	6389
2026-01-08 20:42:10.73	357.11	14.87	-37.2	-38.1	23.4	0.00e+00	0	32	0	775946240	46	6468
2026-01-08 20:42:14.77	356.31	14.73	-37.1	-38.0	23.6	0.00e+00	0	32	0	784334848	46	6407
2026-01-08 20:42:18.81	355.51	14.59	-37.2	-38.1	23.5	0.00e+00	0	32	0	791674880	46	6528
2026-01-08 20:42:22.85	354.73	14.43	-37.0	-37.9	23.7	0.00e+00	0	32	0	799014912	46	6325
2026-01-08 20:42:26.88	353.95	14.28	-37.0	-37.9	23.6	0.00e+00	0	32	0	806354944	46	6371
2026-01-08 20:42:30.92	353.19	14.12	-37.4	-38.3	23.4	0.00e+00	0	32	0	814743552	46	6630
2026-01-08 20:42:34.96	352.43	13.96	-37.3	-38.2	23.5	0.00e+00	0	32	0	822083584	46	6577
2026-01-08 20:42:38.99	351.68	13.79	-37.3	-38.2	23.4	0.00e+00	0	32	0	829423616	46	6609
2026-01-08 20:42:43.03	350.94	13.62	-37.6	-38.6	23.1	0.00e+00	0	32	0	836763648	46	6875
2026-01-08 20:42:47.07	350.20	13.45	-37.8	-38.8	22.8	0.00e+00	0	32	0	844103680	48	6263
2026-01-08 20:42:51.10	349.48	13.27	-38.1	-39.1	22.5	0.00e+00	0	32	0	852492288	48	6477
2026-01-08 20:42:55.14	348.76	13.09	-38.2	-39.2	22.4	0.00e+00	0	32	0	859832320	48	6612
2026-01-08 20:42:59.18	348.06	12.90	-38.6	-39.7	22.0	0.00e+00	0	32	0	867172352	48	6980
2026-01-08 20:43:03.22	347.36	12.72	-39.1	-40.2	21.6	0.00e+00	0	32	0	874512384	50	6590
2026-01-08 20:43:07.25	346.67	12.53	-39.2	-40.3	21.4	0.00e+00	0	32	0	881852416	50	6656
2026-01-08 20:43:11.29	345.99	12.34	-39.0	-40.1	21.5	0.00e+00	0	32	0	890241024	50	6494
2026-01-08 20:43:15.33	345.32	12.14	-39.6	-40.9	20.8	0.00e+00	0	32	0	897581056	50	7102
2026-01-08 20:43:19.36	344.66	11.94	-39.6	-40.8	20.9	0.00e+00	0	32	0	904921088	50	7046
2026-01-08 20:43:23.40	344.01	11.75	-39.8	-41.0	20.8	0.00e+00	0	32	0	912261120	52	6456
2026-01-08 20:43:27.44	343.37	11.55	-39.8	-41.1	20.7	0.00e+00	0	32	0	920649728	52	6477
2026-01-08 20:43:31.47	342.73	11.34	-39.9	-41.1	20.6	0.00e+00	0	32	0	927989760	52	6513
2026-01-08 20:43:35.50	342.11	11.14	-39.8	-41.0	20.7	0.00e+00	0	32	0	935329792	52	6456
2026-01-08 20:43:39.55	341.49	10.93	-39.9	-41.1	20.6	0.00e+00	0	32	0	942669824	52	6524
2026-01-08 20:43:43.58	340.88	10.73	-39.6	-40.9	20.8	0.00e+00	0	32	0	950009856	52	6319
2026-01-08 20:43:47.62	340.28	10.52	-39.4	-40.6	21.0	0.00e+00	0	32	0	958398464	52	6152
2026-01-08 20:43:51.66	339.69	10.31	-39.2	-40.4	21.2	0.00e+00	0	32	0	965738496	52	6024
2026-01-08 20:43:55.70	339.11	10.10	-39.0	-40.1	21.4	0.00e+00	0	32	0	973078528	52	5817
2026-01-08 20:43:59.73	338.54	9.89	-38.8	-40.0	21.6	0.00e+00	0	32	0	980418560	52	5703
2026-01-08 20:44:03.77	337.97	9.67	-38.5	-39.6	21.8	0.00e+00	0	32	0	988807168	50	6154
2026-01-08 20:44:07.80	337.42	9.46	-38.3	-39.4	22.0	0.00e+00	0	32	0	996147200	50	5978
2026-01-08 20:44:11.84	336.87	9.24	-38.1	-39.2	22.2	0.00e+00	0	32	0	1003487232	50	5858
2026-01-08 20:44:15.88	336.33	9.03	-37.8	-38.8	22.6	0.00e+00	0	32	0	1010827264	50	5629
2026-01-08 20:44:19.92	335.80	8.81	-37.8	-38.9	22.5	0.00e+00	0	32	0	1018167296	48	6322
2026-01-08 20:44:23.95	335.27	8.60	-37.6	-38.6	22.7	0.00e+00	0	32	0	1026555904	48	6128
2026-01-08 20:44:27.99	334.76	8.38	-37.4	-38.4	22.8	0.00e+00	0	32	0	1033895936	48	5976
2026-01-08 20:44:32.03	334.25	8.16	-37.5	-38.5	22.7	0.00e+00	0	32	0	1041235968	48	6082
2026-01-08 20:44:36.07	333.75	7.95	-37.7	-38.7	22.5	0.00e+00	0	32	0	1048576000	48	6233
2026-01-08 20:44:40.11	333.25	7.73	-37.7	-38.7	22.5	0.00e+00	0	32	0	1055916032	48	6242
2026-01-08 20:44:44.14	332.77	7.51	-37.8	-38.8	22.5	0.00e+00	0	32	0	1064304640	48	6311
2026-01-08 20:44:48.18	332.29	7.29	-38.1	-39.1	22.1	0.00e+00	0	32	0	1071644672	48	6517
2026-01-08 20:44:52.22	331.82	7.08	-38.2	-39.3	22.0	0.00e+00	0	32	0	1078984704	48	6652
2026-01-08 20:44:56.26	331.36	6.86	-38.2	-39.3	21.9	0.00e+00	0	32	0	1086324736	48	6680
2026-01-08 20:45:00.29	330.90	6.64	-38.1	-39.1	22.1	0.00e+00	0	32	0	1094713344	48	6526
2026-01-08 20:45:04.33	330.45	6.42	-38.5	-39.6	21.7	0.00e+00	0	32	0	1102053376	48	6868
2026-01-08 20:45:08.36	330.01	6.21	-38.4	-39.5	21.6	0.00e+00	0	32	0	1109393408	48	6796
2026-01-08 20:45:12.39	329.57	5.99	-38.8	-39.9	21.3	0.00e+00	0	32	0	1116733440	50	6385
2026-01-08 20:45:16.43	329.14	5.77	-39.0	-40.2	21.0	0.00e+00	0	32	0	1124073472	50	6596
2026-01-08 20:45:20.46	328.72	5.56	-39.1	-40.3	20.8	0.00e+00	0	32	0	1132462080	50	6658
2026-01-08 20:45:24.49	328.31	5.34	-39.3	-40.6	20.5	0.00e+00	0	32	0	1139802112	50	6883
2026-01-08 20:45:28.53	327.90	5.13	-39.5	-40.9	20.3	0.00e+00	0	32	0	1147142144	50	7089
2026-01-08 20:45:32.57	327.49	4.91	-39.8	-41.2	19.9	0.00e+00	0	32	0	1154482176	52	6571
2026-01-08 20:45:36.61	327.09	4.70	-39.9	-41.3	19.7	0.00e+00	0	32	0	1162870784	52	6679
2026-01-08 20:45:40.65	326.70	4.48	-39.9	-41.3	19.9	0.00e+00	0	32	0	1170210816	52	6641
2026-01-08 20:45:44.69	326.32	4.27	-40.0	-41.5	19.6	0.00e+00	0	32	0	1177550848	52	6788
2026-01-08 20:45:48.72	325.94	4.05	-40.2	-41.8	19.3	0.00e+00	0	32	0	1184890880	52	7012
2026-01-08 20:45:52.76	325.56	3.84	-40.5	-42.1	18.9	0.00e+00	0	32	0	1192230912	52	7267
2026-01-08 20:45:56.80	325.19	3.63	-40.6	-42.2	18.7	0.00e+00	0	32	0	1200619520	52	7390
2026-01-08 20:46:00.83	324.83	3.42	-40.9	-42.6	18.2	0.00e+00	0	32	0	1207959552	54	6913
2026-01-08 20:46:04.86	324.47	3.21	-40.9	-42.6	18.2	0.00e+00	0	32	0	1215299584	54	6907
2026-01-08 20:46:08.89	324.12	3.00	-46.9	-61.9	3.6	0.00e+00	0	32	104	1222639616	60	45056
2026-01-08 20:46:12.93	323.78	2.78	-48.2	-63.4	3.6	1.51e+00	0	32	104	1222639616	60	53702
2026-01-08 20:46:16.96	323.43	2.58	-48.4	-63.6	3.6	1.51e+00	0	32	104	1222639616	60	54398
2026-01-08 20:46:21.00	323.10	2.37	-48.2	-63.6	3.6	1.51e+00	0	32	104	1222639616	60	54499
2026-01-08 20:46:25.04	322.76	2.16	-48.6	-63.8	3.6	1.51e+00	0	32	104	1222639616	60	56031
2026-01-08 20:46:29.08	322.44	1.95	-48.3	-63.5	3.6	1.51e+00	0	32	104	1222639616	60	53919
2026-01-08 20:46:33.12	322.11	1.74	-48.3	-63.5	3.6	1.51e+00	0	32	104	1222639616	60	53884
2026-01-08 20:46:37.15	321.80	1.54	-48.3	-63.4	3.6	1.51e+00	0	32	104	1222639616	60	53760
2026-01-08 20:46:41.19	321.48	1.33	-48.3	-63.4	3.6	1.51e+00	0	32	104	1222639616	60	53680
2026-01-08 20:46:45.23	321.17	1.12	-48.3	-63.4	3.6	1.51e+00	0	32	104	1222639616	60	53661
2026-01-08 20:46:49.27	320.87	0.92	-48.2	-63.4	3.6	1.51e+00	0	32	104	1222639616	60	53542
2026-01-08 20:46:53.30	320.57	0.72	-48.2	-63.4	3.6	1.51e+00	0	32	104	1222639616	60	53665
2026-01-08 20:46:57.34	320.27	0.51	-48.2	-63.4	3.6	1.51e+00	0	32	104	1222639616	60	53341
2026-01-08 20:47:01.38	319.98	0.31	-48.2	-63.3	3.6	1.51e+00	0	32	104	1222639616	60	53081
2026-01-08 20:47:05.42	319.69	0.11	-48.2	-63.4	3.6	1.51e+00	0	32	104	1222639616	60	53191
2026-01-08 20:47:09.45	319.41	-0.09	-48.2	-63.4	3.6	1.51e+00	0	32	104	1222639616	60	53303

#Closed at: 2026-01-08 20:47:10
#Recorded file [1222 MB]: D:/lorett/data/35029_260109_083418.dat