passes_logs/2026/01/08/R4.6S_Anadyr/R4.6S_Anadyr__20260108_151546_SUOMI_NPP_rec.log

#Pass ID: 20260108_151546_SUOMI NPP
#Satellite: SUOMI NPP
#Configuration: NPP
#almurnet v.1.7.20251203
#Start time: 2026-01-08 15:15:48

#Version: 2.2.20231116
#Station: R4.6S_Anadyr
#Location: 177.4865 lon 64.73178 lat
#TLE: 1 37849U 11061A   26005.94084933  .00000134  00000+0  84554-4 0  9990
#TLE: 2 37849  98.7803 308.0679 0002567  79.1029 281.0436 14.19522657735426

#Time	Az	El	Level	Level2	SNR	BER	BlckErr	Temp	State	Recorded	gain1	gain2
2026-01-08 15:15:48.88	21.63	0.13	-48.4	-60.9	3.4	1.52e+00	0	29	0	0	60	39110
2026-01-08 15:15:52.91	21.59	0.38	-48.5	-63.6	3.6	1.51e+00	0	30	104	0	60	54977
2026-01-08 15:15:56.95	21.56	0.62	-48.6	-63.8	3.6	1.51e+00	0	31	104	0	60	55734
2026-01-08 15:16:00.98	21.52	0.86	-48.4	-63.6	3.6	1.51e+00	0	31	104	0	60	54867
2026-01-08 15:16:05.02	21.48	1.11	-47.9	-63.1	3.6	1.51e+00	0	31	104	0	60	51641
2026-01-08 15:16:09.06	21.45	1.36	-47.1	-62.2	3.6	1.51e+00	0	31	104	0	60	46456
2026-01-08 15:16:13.10	21.41	1.62	-47.1	-61.9	3.6	1.51e+00	0	31	104	0	60	44797
2026-01-08 15:16:17.13	21.37	1.87	-47.1	-62.0	3.6	1.51e+00	0	31	104	0	60	45677
2026-01-08 15:16:21.17	21.33	2.13	-47.1	-62.2	3.6	1.51e+00	0	31	104	0	60	46699
2026-01-08 15:16:25.21	21.28	2.39	-47.0	-61.9	3.6	1.51e+00	0	31	104	0	60	45019
2026-01-08 15:16:29.25	21.24	2.65	-47.0	-60.7	3.6	1.51e+00	0	31	104	0	60	39210
2026-01-08 15:16:33.29	21.20	2.91	-47.0	-61.0	3.6	1.51e+00	0	31	104	0	60	40369
2026-01-08 15:16:37.33	21.15	3.18	-46.2	-52.7	7.5	1.56e-01	0	31	0	3145728	60	15660
2026-01-08 15:16:41.37	21.10	3.45	-44.3	-47.9	13.2	4.65e-05	0	31	0	10485760	60	8967
2026-01-08 15:16:45.41	21.06	3.72	-44.3	-47.8	13.1	1.06e-05	41	31	0	18874368	60	8900
2026-01-08 15:16:49.44	21.01	3.99	-43.8	-46.8	13.9	3.02e-02	0	31	0	26214400	60	7904
2026-01-08 15:16:53.48	20.96	4.27	-40.8	-42.5	17.7	1.20e-01	0	31	104	26214400	56	6052
2026-01-08 15:16:57.51	20.90	4.55	-40.3	-41.8	19.2	0.00e+00	0	31	0	32505856	54	6305
2026-01-08 15:17:01.55	20.85	4.83	-40.3	-41.7	19.4	0.00e+00	84	31	0	40894464	54	6243
2026-01-08 15:17:05.59	20.80	5.12	-40.4	-41.9	19.1	0.00e+00	0	31	0	48234496	54	6364
2026-01-08 15:17:09.63	20.74	5.41	-39.8	-41.2	19.9	0.00e+00	0	31	0	55574528	54	5872
2026-01-08 15:17:13.67	20.68	5.70	-39.6	-40.9	20.3	0.00e+00	0	31	0	62914560	52	6375
2026-01-08 15:17:17.70	20.62	6.00	-39.6	-40.9	20.5	0.00e+00	77	31	0	70254592	52	6335
2026-01-08 15:17:21.74	20.56	6.30	-39.4	-40.7	20.6	0.00e+00	0	31	0	78643200	52	6184
2026-01-08 15:17:25.78	20.50	6.60	-39.4	-40.6	20.6	0.00e+00	0	31	0	85983232	52	6139
2026-01-08 15:17:29.82	20.44	6.90	-39.1	-40.3	21.0	0.00e+00	0	31	0	93323264	52	5955
2026-01-08 15:17:33.85	20.37	7.21	-39.0	-40.1	21.1	0.00e+00	0	31	0	100663296	52	5817
2026-01-08 15:17:37.89	20.30	7.53	-38.9	-40.0	21.3	0.00e+00	0	31	0	109051904	52	5734
2026-01-08 15:17:41.93	20.24	7.84	-39.0	-40.2	21.2	0.00e+00	0	31	0	116391936	52	5853
2026-01-08 15:17:45.96	20.16	8.16	-38.6	-39.7	21.6	0.00e+00	90	31	0	123731968	50	6187
2026-01-08 15:17:50.00	20.09	8.49	-38.5	-39.6	21.7	0.00e+00	0	31	0	131072000	50	6123
2026-01-08 15:17:54.04	20.02	8.82	-38.3	-39.3	21.9	0.00e+00	0	31	0	138412032	50	5961
2026-01-08 15:17:58.08	19.94	9.15	-38.2	-39.3	22.0	0.00e+00	0	31	0	146800640	50	5921
2026-01-08 15:18:02.11	19.86	9.49	-38.3	-39.3	22.0	0.00e+00	84	31	0	154140672	50	5960
2026-01-08 15:18:06.15	19.78	9.83	-38.2	-39.3	22.0	0.00e+00	3	31	0	161480704	50	5911
2026-01-08 15:18:10.19	19.69	10.18	-38.1	-39.2	22.1	0.00e+00	0	31	0	168820736	50	5843
2026-01-08 15:18:14.23	19.61	10.53	-38.0	-39.1	22.2	0.00e+00	0	31	0	176160768	50	5779
2026-01-08 15:18:18.27	19.52	10.89	-37.9	-38.9	22.4	0.00e+00	0	31	0	184549376	50	5632
2026-01-08 15:18:22.30	19.43	11.25	-37.8	-38.9	22.5	0.00e+00	0	31	0	191889408	48	6327
2026-01-08 15:18:26.33	19.33	11.62	-37.6	-38.6	22.7	0.00e+00	0	31	0	199229440	48	6124
2026-01-08 15:18:30.37	19.24	11.99	-37.5	-38.5	22.7	0.00e+00	89	32	0	206569472	48	6051
2026-01-08 15:18:34.41	19.14	12.37	-37.4	-38.4	22.8	0.00e+00	0	31	0	214958080	48	5975
2026-01-08 15:18:38.44	19.03	12.75	-37.4	-38.3	22.9	0.00e+00	0	31	0	222298112	48	5955
2026-01-08 15:18:42.48	18.93	13.15	-37.2	-38.2	23.0	0.00e+00	0	32	0	229638144	48	5843
2026-01-08 15:18:46.52	18.82	13.54	-37.1	-38.1	23.1	0.00e+00	47	32	0	236978176	48	5769
2026-01-08 15:18:50.56	18.70	13.95	-37.0	-38.0	23.1	0.00e+00	0	31	0	244318208	48	5718
2026-01-08 15:18:54.60	18.59	14.36	-36.9	-37.8	23.2	0.00e+00	0	32	0	252706816	48	5589
2026-01-08 15:18:58.64	18.47	14.77	-36.6	-37.6	23.0	0.00e+00	0	32	0	260046848	46	6104
2026-01-08 15:19:02.67	18.34	15.20	-36.6	-37.5	23.6	0.00e+00	89	32	0	267386880	46	6094
2026-01-08 15:19:06.71	18.21	15.63	-36.2	-37.1	23.9	0.00e+00	0	32	0	274726912	46	5767
2026-01-08 15:19:10.74	18.08	16.07	-36.1	-36.9	24.1	0.00e+00	0	32	0	283115520	46	5667
2026-01-08 15:19:14.77	17.94	16.51	-35.8	-36.7	24.2	0.00e+00	0	32	0	290455552	46	5518
2026-01-08 15:19:18.81	17.80	16.97	-35.9	-36.7	24.2	0.00e+00	0	32	0	297795584	44	6206
2026-01-08 15:19:22.85	17.65	17.43	-36.0	-36.9	24.1	0.00e+00	0	32	0	305135616	44	6326
2026-01-08 15:19:26.89	17.50	17.91	-36.2	-37.1	24.0	0.00e+00	0	32	0	312475648	44	6480
2026-01-08 15:19:30.93	17.34	18.39	-36.1	-37.0	24.0	0.00e+00	79	32	0	320864256	44	6392
2026-01-08 15:19:34.96	17.18	18.88	-36.2	-37.1	24.1	0.00e+00	0	32	0	328204288	44	6471
2026-01-08 15:19:39.00	17.01	19.38	-36.1	-36.9	24.0	0.00e+00	0	32	0	335544320	44	6374
2026-01-08 15:19:43.04	16.84	19.89	-36.0	-36.8	24.3	0.00e+00	0	32	0	342884352	44	6283
2026-01-08 15:19:47.08	16.65	20.41	-36.0	-36.8	24.1	0.00e+00	74	32	0	351272960	44	6292
2026-01-08 15:19:51.12	16.47	20.94	-35.6	-36.4	24.5	0.00e+00	0	32	0	358612992	44	6003
2026-01-08 15:19:55.15	16.27	21.49	-35.7	-36.5	24.5	0.00e+00	0	32	0	365953024	44	6045
2026-01-08 15:19:59.19	16.07	22.04	-35.7	-36.5	24.5	0.00e+00	5	32	0	373293056	44	6100
2026-01-08 15:20:03.23	15.85	22.61	-36.0	-36.8	24.3	0.00e+00	20	32	0	380633088	44	6277
2026-01-08 15:20:07.26	15.64	23.18	-35.9	-36.7	24.3	0.00e+00	0	32	0	389021696	44	6235
2026-01-08 15:20:11.29	15.41	23.77	-35.6	-36.4	24.6	0.00e+00	0	32	0	396361728	44	5980
2026-01-08 15:20:15.33	15.17	24.38	-36.0	-36.9	24.2	0.00e+00	92	32	0	403701760	44	6328
2026-01-08 15:20:19.36	14.92	25.00	-36.8	-37.7	23.7	0.00e+00	0	32	0	411041792	46	6225
2026-01-08 15:20:23.40	14.66	25.63	-37.2	-38.1	23.4	0.00e+00	0	32	0	419430400	46	6488
2026-01-08 15:20:27.44	14.39	26.28	-37.1	-38.0	23.4	0.00e+00	0	32	0	426770432	46	6463
2026-01-08 15:20:31.47	14.11	26.94	-37.7	-38.7	22.9	0.00e+00	57	32	0	434110464	48	6181
2026-01-08 15:20:35.51	13.81	27.62	-38.8	-40.0	21.9	0.00e+00	0	32	0	441450496	50	6396
2026-01-08 15:20:39.55	13.50	28.31	-38.4	-39.5	22.3	0.00e+00	0	32	0	448790528	50	6037
2026-01-08 15:20:43.58	13.18	29.02	-38.0	-39.0	22.7	0.00e+00	0	32	0	457179136	48	6438
2026-01-08 15:20:47.61	12.84	29.75	-38.6	-39.7	22.1	0.00e+00	88	32	0	464519168	48	6970
2026-01-08 15:20:51.64	12.49	30.49	-38.7	-39.8	22.1	0.00e+00	0	32	0	471859200	50	6267
2026-01-08 15:20:55.67	12.11	31.25	-39.1	-40.3	21.7	0.00e+00	0	32	0	479199232	50	6653
2026-01-08 15:20:59.71	11.72	32.04	-39.4	-40.5	21.6	0.00e+00	90	32	0	486539264	52	6093
2026-01-08 15:21:03.75	11.31	32.84	-40.5	-41.8	20.9	0.00e+00	0	32	0	494927872	52	7008
2026-01-08 15:21:07.78	10.87	33.66	-40.1	-41.2	20.8	0.00e+00	0	32	0	502267904	52	6614
2026-01-08 15:21:11.82	10.41	34.51	-40.8	-42.1	20.2	0.00e+00	0	32	0	509607936	54	6492
2026-01-08 15:21:15.86	9.93	35.37	-39.4	-40.5	21.6	0.00e+00	73	32	0	516947968	52	6054
2026-01-08 15:21:19.89	9.42	36.26	-39.8	-40.9	21.4	0.00e+00	0	32	0	525336576	52	6385
2026-01-08 15:21:23.93	8.88	37.17	-40.8	-42.1	20.2	0.00e+00	0	32	0	532676608	54	6530
2026-01-08 15:21:27.98	8.30	38.10	-39.1	-40.1	21.8	0.00e+00	0	32	0	540016640	52	5802
2026-01-08 15:21:32.01	7.70	39.05	-40.3	-41.6	20.5	0.00e+00	54	32	0	547356672	52	6851
2026-01-08 15:21:36.05	7.05	40.03	-40.8	-42.3	20.1	0.00e+00	0	32	0	554696704	54	6625
2026-01-08 15:21:40.09	6.36	41.03	-39.5	-40.7	21.2	0.00e+00	0	32	0	563085312	52	6204
2026-01-08 15:21:44.12	5.63	42.06	-39.0	-40.0	22.2	0.00e+00	57	32	0	570425344	50	6447
2026-01-08 15:21:48.16	4.85	43.10	-39.0	-40.1	21.8	0.00e+00	24	32	0	577765376	50	6491
2026-01-08 15:21:52.19	4.01	44.17	-38.3	-39.3	22.5	0.00e+00	0	32	0	585105408	50	5915
2026-01-08 15:21:56.23	3.11	45.27	-37.2	-38.0	23.4	0.00e+00	33	32	0	592445440	48	5757
2026-01-08 15:22:00.26	2.15	46.38	-38.3	-39.3	22.4	0.00e+00	92	32	0	600834048	48	6627
2026-01-08 15:22:04.30	1.11	47.52	-37.8	-38.8	22.9	0.00e+00	0	32	0	608174080	48	6259
2026-01-08 15:22:08.33	360.00	48.67	-37.6	-38.5	23.2	0.00e+00	0	32	0	615514112	48	6042
2026-01-08 15:22:12.37	358.79	49.84	-37.1	-37.9	23.6	0.00e+00	0	32	0	622854144	46	6375
2026-01-08 15:22:16.40	357.49	51.03	-36.2	-37.0	24.3	0.00e+00	92	32	0	631242752	46	5733
2026-01-08 15:22:20.43	356.08	52.23	-37.0	-37.8	23.8	0.00e+00	0	32	0	638582784	46	6311
2026-01-08 15:22:24.47	354.55	53.45	-37.6	-38.6	21.9	0.00e+00	0	32	0	645922816	46	6879
2026-01-08 15:22:28.51	352.88	54.67	-36.6	-37.4	24.0	0.00e+00	1	32	0	653262848	46	5985
2026-01-08 15:22:32.54	351.06	55.89	-37.7	-38.6	23.1	0.00e+00	92	32	0	660602880	48	6142
2026-01-08 15:22:36.58	349.07	57.11	-39.6	-40.8	21.3	0.00e+00	0	32	0	668991488	52	6273
2026-01-08 15:22:40.61	346.90	58.31	-38.5	-39.5	22.4	0.00e+00	0	32	0	676331520	50	6060
2026-01-08 15:22:44.65	344.52	59.50	-38.2	-39.3	22.4	0.00e+00	61	32	0	683671552	48	6628
2026-01-08 15:22:48.68	341.92	60.66	-37.2	-38.1	23.5	0.00e+00	0	32	0	691011584	48	5779
2026-01-08 15:22:52.72	339.07	61.79	-35.6	-36.3	24.7	0.00e+00	0	32	0	698351616	44	5958
2026-01-08 15:22:56.75	335.95	62.86	-36.3	-37.2	23.1	0.00e+00	0	32	0	706740224	44	6579
2026-01-08 15:23:00.78	332.55	63.88	-36.1	-37.0	24.1	0.00e+00	19	32	0	714080256	44	6422
2026-01-08 15:23:04.81	328.85	64.81	-36.7	-37.5	23.8	0.00e+00	0	32	0	721420288	46	6091
2026-01-08 15:23:08.85	324.83	65.66	-35.9	-36.7	24.5	0.00e+00	0	32	0	728760320	44	6224
2026-01-08 15:23:12.88	320.53	66.39	-37.5	-38.4	23.1	0.00e+00	0	32	0	737148928	46	6712
2026-01-08 15:23:16.92	315.93	67.00	-38.0	-39.2	22.2	0.00e+00	83	32	0	744488960	48	6558
2026-01-08 15:23:20.96	311.09	67.47	-37.3	-38.2	23.3	0.00e+00	0	32	0	751828992	48	5848
2026-01-08 15:23:24.99	306.08	67.79	-36.5	-37.3	23.9	0.00e+00	0	32	0	759169024	46	5953
2026-01-08 15:23:29.03	300.93	67.95	-37.4	-38.2	23.2	0.00e+00	10	32	0	766509056	48	5883
2026-01-08 15:23:33.07	295.74	67.94	-37.9	-38.9	22.7	0.00e+00	92	32	0	774897664	48	6335
2026-01-08 15:23:37.10	290.62	67.77	-38.3	-39.3	22.3	0.00e+00	0	32	0	782237696	48	6631
2026-01-08 15:23:41.14	285.60	67.43	-38.1	-39.1	22.4	0.00e+00	0	32	0	789577728	50	5794
2026-01-08 15:23:45.18	280.78	66.95	-40.2	-41.4	20.7	0.00e+00	12	32	0	796917760	52	6727
2026-01-08 15:23:49.22	276.21	66.32	-38.0	-39.0	22.9	0.00e+00	14	32	0	805306368	50	5696
2026-01-08 15:23:53.25	271.93	65.57	-37.9	-38.9	22.6	0.00e+00	0	32	0	812646400	48	6376
2026-01-08 15:23:57.29	267.94	64.72	-34.7	-35.4	25.3	0.00e+00	0	32	0	819986432	42	6025
2026-01-08 15:24:01.33	264.26	63.77	-35.7	-36.5	24.3	0.00e+00	30	32	0	827326464	44	6100
2026-01-08 15:24:05.37	260.88	62.75	-36.4	-37.2	24.2	0.00e+00	0	32	0	834666496	46	5871
2026-01-08 15:24:09.40	257.79	61.67	-37.4	-38.3	23.4	0.00e+00	0	32	0	843055104	48	5961
2026-01-08 15:24:13.44	254.96	60.53	-37.2	-38.0	23.1	0.00e+00	0	32	0	850395136	48	5759
2026-01-08 15:24:17.48	252.37	59.36	-39.5	-40.7	21.5	0.00e+00	63	32	0	857735168	50	6945
2026-01-08 15:24:21.51	250.02	58.17	-38.2	-39.2	22.2	0.00e+00	0	32	0	865075200	48	6564
2026-01-08 15:24:25.55	247.86	56.96	-35.0	-35.8	25.0	0.00e+00	0	32	0	873463808	44	5568
2026-01-08 15:24:29.59	245.89	55.73	-36.3	-37.2	24.1	0.00e+00	0	32	0	880803840	44	6543
2026-01-08 15:24:33.62	244.09	54.51	-36.9	-37.8	23.7	0.00e+00	92	32	0	888143872	46	6258
2026-01-08 15:24:37.66	242.43	53.29	-37.0	-37.9	23.6	0.00e+00	0	32	0	895483904	46	6347
2026-01-08 15:24:41.70	240.91	52.07	-38.0	-38.9	22.8	0.00e+00	0	32	0	902823936	48	6383
2026-01-08 15:24:45.74	239.51	50.87	-38.3	-39.3	22.6	0.00e+00	90	32	0	911212544	48	6680
2026-01-08 15:24:49.78	238.21	49.67	-36.7	-37.6	23.8	0.00e+00	0	32	0	918552576	48	5447
2026-01-08 15:24:53.82	237.02	48.50	-36.8	-37.7	23.9	0.00e+00	0	32	0	925892608	46	6209
2026-01-08 15:24:57.85	235.91	47.34	-38.5	-39.6	22.3	0.00e+00	0	32	0	933232640	48	6884
2026-01-08 15:25:01.89	234.88	46.21	-39.0	-40.1	21.9	0.00e+00	90	32	0	941621248	52	5821
2026-01-08 15:25:05.93	233.92	45.09	-38.6	-39.6	22.2	0.00e+00	0	32	0	948961280	50	6164
2026-01-08 15:25:09.96	233.03	44.00	-37.3	-38.2	23.5	0.00e+00	0	32	0	956301312	46	6579
2026-01-08 15:25:14.00	232.20	42.93	-38.7	-39.8	22.1	0.00e+00	21	32	0	963641344	50	6255
2026-01-08 15:25:18.03	231.42	41.88	-41.8	-43.4	19.1	0.00e+00	66	32	0	970981376	56	6728
2026-01-08 15:25:22.07	230.69	40.86	-38.9	-39.9	21.5	0.00e+00	0	32	0	979369984	52	5644
2026-01-08 15:25:26.11	230.01	39.86	-39.1	-40.1	22.0	0.00e+00	0	32	0	986710016	50	6518
2026-01-08 15:25:30.15	229.36	38.88	-41.3	-42.9	19.6	0.00e+00	63	32	0	994050048	54	7128
2026-01-08 15:25:34.19	228.76	37.92	-40.3	-41.6	20.4	0.00e+00	49	32	0	1001390080	54	6123
2026-01-08 15:25:38.22	228.19	36.99	-41.6	-43.1	19.6	0.00e+00	0	32	0	1008730112	56	6491
2026-01-08 15:25:42.26	227.65	36.08	-37.9	-38.8	22.9	0.00e+00	0	32	0	1017118720	48	6311
2026-01-08 15:25:46.30	227.14	35.20	-37.9	-38.8	22.8	0.00e+00	90	32	0	1024458752	48	6307
2026-01-08 15:25:50.34	226.66	34.33	-40.8	-42.3	19.9	0.00e+00	0	32	0	1031798784	54	6632
2026-01-08 15:25:54.38	226.20	33.49	-39.1	-40.1	21.8	0.00e+00	0	32	0	1039138816	52	5820
2026-01-08 15:25:58.41	225.77	32.67	-39.5	-40.7	21.4	0.00e+00	0	32	0	1047527424	52	6188
2026-01-08 15:26:02.45	225.35	31.86	-39.5	-40.8	21.3	0.00e+00	92	32	0	1054867456	52	6247
2026-01-08 15:26:06.48	224.96	31.08	-39.4	-40.6	21.6	0.00e+00	0	32	0	1062207488	52	6111
2026-01-08 15:26:10.52	224.59	30.32	-39.6	-40.8	21.2	0.00e+00	0	32	0	1069547520	52	6260
2026-01-08 15:26:14.56	224.23	29.57	-42.3	-44.2	18.1	0.00e+00	41	32	0	1076887552	56	7415
2026-01-08 15:26:18.59	223.90	28.84	-40.8	-42.2	20.1	0.00e+00	38	32	0	1085276160	56	5870
2026-01-08 15:26:22.63	223.57	28.13	-40.9	-42.3	19.8	0.00e+00	0	32	0	1092616192	54	6688
2026-01-08 15:26:26.66	223.26	27.44	-40.3	-41.7	20.4	0.00e+00	0	32	0	1099956224	54	6178
2026-01-08 15:26:30.70	222.97	26.76	-39.8	-41.1	21.0	0.00e+00	91	32	0	1107296256	52	6494
2026-01-08 15:26:34.74	222.69	26.10	-39.5	-40.8	21.2	0.00e+00	0	32	0	1114636288	52	6296
2026-01-08 15:26:38.77	222.41	25.45	-40.2	-41.7	20.2	0.00e+00	0	32	0	1123024896	52	6946
2026-01-08 15:26:42.81	222.15	24.82	-40.7	-42.4	19.6	0.00e+00	0	32	0	1130364928	54	6702
2026-01-08 15:26:46.84	221.91	24.20	-39.4	-40.7	21.2	0.00e+00	88	32	0	1137704960	52	6230
2026-01-08 15:26:50.88	221.67	23.60	-38.8	-40.0	21.9	0.00e+00	0	32	0	1145044992	50	6413
2026-01-08 15:26:54.92	221.44	23.01	-39.2	-40.4	21.5	0.00e+00	0	32	0	1153433600	50	6747
2026-01-08 15:26:58.95	221.22	22.43	-39.0	-40.2	21.5	0.00e+00	0	32	0	1160773632	50	6591
2026-01-08 15:27:02.99	221.00	21.86	-38.3	-39.4	22.3	0.00e+00	92	32	0	1168113664	50	5979
2026-01-08 15:27:07.03	220.80	21.31	-38.4	-39.5	22.2	0.00e+00	0	32	0	1175453696	50	6091
2026-01-08 15:27:11.06	220.60	20.77	-39.2	-40.3	21.5	0.00e+00	0	32	0	1182793728	50	6673
2026-01-08 15:27:15.10	220.41	20.24	-39.7	-41.0	21.0	0.00e+00	55	32	0	1191182336	52	6392
2026-01-08 15:27:19.14	220.23	19.72	-38.9	-40.0	21.9	0.00e+00	11	32	0	1198522368	52	5702
2026-01-08 15:27:23.18	220.05	19.21	-38.8	-39.8	21.7	0.00e+00	0	32	0	1205862400	50	6313
2026-01-08 15:27:27.21	219.88	18.71	-38.8	-39.9	21.9	0.00e+00	0	32	0	1213202432	50	6372
2026-01-08 15:27:31.25	219.72	18.21	-39.1	-40.2	21.5	0.00e+00	86	32	0	1221591040	50	6610
2026-01-08 15:27:35.29	219.56	17.73	-39.0	-40.0	21.7	0.00e+00	0	32	0	1228931072	50	6461
2026-01-08 15:27:39.33	219.40	17.26	-38.1	-39.1	22.5	0.00e+00	0	32	0	1236271104	50	5800
2026-01-08 15:27:43.36	219.26	16.80	-37.7	-38.6	22.8	0.00e+00	0	32	0	1243611136	48	6124
2026-01-08 15:27:47.40	219.11	16.34	-37.6	-38.5	22.9	0.00e+00	85	32	0	1250951168	48	6083
2026-01-08 15:27:51.44	218.97	15.89	-38.1	-39.1	22.4	0.00e+00	0	32	0	1259339776	48	6491
2026-01-08 15:27:55.48	218.84	15.46	-38.7	-39.7	21.9	0.00e+00	0	32	0	1266679808	48	6995
2026-01-08 15:27:59.51	218.71	15.02	-38.7	-39.8	21.7	0.00e+00	57	32	0	1274019840	50	6283
2026-01-08 15:28:03.55	218.58	14.60	-38.9	-40.0	21.6	0.00e+00	92	32	0	1281359872	50	6441
2026-01-08 15:28:07.59	218.46	14.18	-39.1	-40.2	21.5	0.00e+00	0	32	0	1288699904	50	6583
2026-01-08 15:28:11.63	218.34	13.77	-39.2	-40.3	21.4	0.00e+00	0	32	0	1297088512	50	6679
2026-01-08 15:28:15.66	218.23	13.37	-39.2	-40.4	21.4	0.00e+00	81	32	0	1304428544	50	6697
2026-01-08 15:28:19.70	218.11	12.97	-39.4	-40.5	21.2	0.00e+00	0	32	0	1311768576	50	6845
2026-01-08 15:28:23.74	218.00	12.58	-39.2	-40.4	21.3	0.00e+00	0	32	0	1319108608	50	6706
2026-01-08 15:28:27.77	217.90	12.20	-39.6	-40.8	20.9	0.00e+00	0	32	0	1327497216	50	7016
2026-01-08 15:28:31.81	217.80	11.82	-39.1	-40.2	21.3	0.00e+00	85	32	0	1334837248	50	6611
2026-01-08 15:28:35.84	217.70	11.45	-39.1	-40.2	21.4	0.00e+00	0	32	0	1342177280	50	6610
2026-01-08 15:28:39.88	217.60	11.08	-39.0	-40.1	21.5	0.00e+00	0	32	0	1349517312	50	6517
2026-01-08 15:28:43.91	217.51	10.72	-39.0	-40.1	21.5	0.00e+00	0	32	0	1356857344	50	6489
2026-01-08 15:28:47.95	217.41	10.36	-39.1	-40.2	21.4	0.00e+00	90	32	0	1365245952	50	6543
2026-01-08 15:28:51.99	217.33	10.01	-38.8	-39.9	21.6	0.00e+00	0	32	0	1372585984	50	6366
2026-01-08 15:28:56.02	217.24	9.66	-39.0	-40.1	21.4	0.00e+00	0	32	0	1379926016	50	6504
2026-01-08 15:29:00.06	217.15	9.32	-39.1	-40.2	21.3	0.00e+00	65	32	0	1387266048	50	6601
2026-01-08 15:29:04.10	217.07	8.98	-39.4	-40.6	20.9	0.00e+00	13	32	0	1395654656	50	6895
2026-01-08 15:29:08.13	216.99	8.65	-39.3	-40.5	21.0	0.00e+00	0	32	0	1402994688	50	6816
2026-01-08 15:29:12.17	216.92	8.32	-39.6	-40.8	20.6	0.00e+00	0	32	0	1410334720	52	6255
2026-01-08 15:29:16.20	216.84	7.99	-39.8	-41.1	20.4	0.00e+00	80	32	0	1417674752	52	6494
2026-01-08 15:29:20.24	216.77	7.67	-40.1	-41.4	20.1	0.00e+00	0	32	0	1425014784	52	6753
2026-01-08 15:29:24.28	216.69	7.35	-40.4	-41.8	19.7	0.00e+00	33	32	0	1433403392	52	7034
2026-01-08 15:29:28.32	216.62	7.04	-40.6	-42.1	19.5	0.00e+00	0	32	0	1440743424	52	7268
2026-01-08 15:29:32.35	216.55	6.73	-40.6	-42.1	19.4	0.00e+00	43	32	0	1448083456	54	6471
2026-01-08 15:29:36.38	216.49	6.43	-40.8	-42.4	19.1	0.00e+00	0	32	0	1455423488	54	6694
2026-01-08 15:29:40.41	216.42	6.12	-40.7	-42.2	19.2	0.00e+00	0	32	0	1463812096	54	6578
2026-01-08 15:29:44.45	216.36	5.83	-40.9	-42.5	19.0	0.00e+00	0	32	0	1471152128	54	6785
2026-01-08 15:29:48.49	216.30	5.53	-41.1	-42.7	18.7	0.00e+00	80	32	0	1478492160	54	6941
2026-01-08 15:29:52.53	216.24	5.24	-40.9	-42.5	18.8	0.00e+00	0	32	0	1485832192	54	6815
2026-01-08 15:29:56.55	216.18	4.95	-41.2	-42.9	18.4	0.00e+00	0	32	0	1493172224	54	7093
2026-01-08 15:30:00.58	216.12	4.66	-41.4	-43.2	18.0	0.00e+00	65	32	0	1501560832	54	7375
2026-01-08 15:30:04.62	216.06	4.38	-41.7	-43.6	17.6	0.00e+00	12	32	0	1508900864	56	6888
2026-01-08 15:30:08.66	216.01	4.10	-41.9	-43.8	17.4	0.00e+00	0	32	0	1516240896	56	7048
2026-01-08 15:30:12.69	215.95	3.82	-41.7	-43.6	17.6	0.00e+00	0	32	0	1523580928	56	6897
2026-01-08 15:30:16.73	215.90	3.55	-41.7	-43.6	17.5	0.00e+00	76	32	0	1530920960	56	6905
2026-01-08 15:30:20.77	215.85	3.28	-42.0	-44.1	17.0	0.00e+00	0	32	0	1539309568	56	7274
2026-01-08 15:30:24.81	215.80	3.01	-47.3	-62.4	3.6	6.65e-01	0	32	104	1545601024	60	47479
2026-01-08 15:30:28.85	215.75	2.74	-48.4	-63.6	3.6	1.51e+00	0	32	104	1545601024	60	54894
2026-01-08 15:30:32.89	215.70	2.48	-48.5	-63.8	3.6	1.51e+00	0	32	104	1545601024	60	55718
2026-01-08 15:30:36.92	215.66	2.22	-48.5	-63.7	3.6	1.51e+00	0	32	104	1545601024	60	55477
2026-01-08 15:30:40.96	215.61	1.96	-48.4	-63.6	3.6	1.51e+00	0	32	104	1545601024	60	55002
2026-01-08 15:30:45.01	215.56	1.70	-48.5	-63.6	3.6	1.51e+00	0	32	104	1545601024	60	54813
2026-01-08 15:30:49.04	215.52	1.45	-48.5	-63.6	3.6	1.51e+00	0	32	104	1545601024	60	54901
2026-01-08 15:30:53.08	215.48	1.19	-48.5	-63.6	3.6	1.51e+00	0	32	104	1545601024	60	54936
2026-01-08 15:30:57.12	215.43	0.94	-48.4	-63.6	3.6	1.51e+00	0	32	104	1545601024	60	54790
2026-01-08 15:31:01.16	215.39	0.69	-48.4	-63.6	3.6	1.51e+00	0	32	104	1545601024	60	54762
2026-01-08 15:31:05.20	215.35	0.45	-48.4	-63.6	3.6	1.51e+00	0	32	104	1545601024	60	55002
2026-01-08 15:31:09.23	215.31	0.20	-48.4	-63.6	3.6	1.51e+00	0	32	104	1545601024	60	54782
2026-01-08 15:31:13.27	215.27	-0.04	-48.4	-63.6	3.6	1.51e+00	0	32	104	1545601024	60	55025

#Closed at: 2026-01-08 15:31:14
#Recorded file [1545 MB]: D:/lorett/data/35029_260109_031548.dat