passes_logs/2026/01/08/R4.6S_Anadyr/R4.6S_Anadyr__20260108_222248_AQUA_rec.log

#Pass ID: 20260108_222248_AQUA
#Satellite: AQUA
#Configuration: AQUA
#almurnet v.1.7.20251203
#Start time: 2026-01-08 22:22:53

#Version: 2.2.20231116
#Station: R4.6S_Anadyr
#Location: 177.4865 lon 64.73178 lat
#TLE: 1 27424U 02022A   26004.96787593  .00001598  00000+0  32997-3 0  9996
#TLE: 2 27424  98.4069 331.2279 0002002  90.2377   0.6092 14.61798176259425

#Time	Az	El	Level	Level2	SNR	BER	BlckErr	Temp	State	Recorded	gain1	gain2
2026-01-08 22:22:53.51	70.02	0.25	-48.3	-49.8	5.7	0.00e+00	0	35	0	0	60	37890
2026-01-08 22:22:56.54	69.75	0.40	-48.6	-66.5	3.5	7.66e-01	0	36	104	0	60	81024
2026-01-08 22:22:59.57	69.48	0.55	-48.6	-66.5	3.5	7.66e-01	0	37	104	0	60	80992
2026-01-08 22:23:02.60	69.21	0.70	-48.3	-66.4	3.5	7.66e-01	0	36	104	0	60	80025
2026-01-08 22:23:05.64	68.93	0.85	-47.3	-65.9	3.5	7.66e-01	0	36	104	0	60	76177
2026-01-08 22:23:08.66	68.65	1.00	-43.8	-64.8	3.5	7.66e-01	0	36	104	0	60	66801
2026-01-08 22:23:11.69	68.36	1.15	-43.7	-64.7	3.5	7.66e-01	0	36	104	0	60	66092
2026-01-08 22:23:14.72	68.08	1.30	-43.6	-64.7	3.5	7.66e-01	0	36	104	0	60	66101
2026-01-08 22:23:17.75	67.79	1.45	-43.6	-64.7	3.5	7.66e-01	0	36	104	0	60	65972
2026-01-08 22:23:20.78	67.49	1.60	-43.6	-64.7	3.5	7.66e-01	0	36	104	0	60	65891
2026-01-08 22:23:23.80	67.20	1.75	-43.6	-64.6	3.5	7.66e-01	0	36	104	0	60	65722
2026-01-08 22:23:26.83	66.90	1.90	-43.6	-64.7	3.5	7.66e-01	0	36	104	0	60	65974
2026-01-08 22:23:29.86	66.59	2.06	-43.6	-64.7	3.5	7.66e-01	0	36	104	0	60	65842
2026-01-08 22:23:32.89	66.28	2.21	-43.6	-64.5	3.5	7.66e-01	0	36	104	0	60	64530
2026-01-08 22:23:35.92	65.97	2.36	-43.5	-64.5	3.5	7.66e-01	0	36	104	0	60	64326
2026-01-08 22:23:38.95	65.66	2.51	-43.6	-64.5	3.5	7.66e-01	0	36	104	0	60	64736
2026-01-08 22:23:41.98	65.34	2.66	-43.5	-64.5	3.5	7.66e-01	0	36	104	0	60	64604
2026-01-08 22:23:45.01	65.02	2.82	-43.6	-64.1	3.5	7.66e-01	0	36	104	0	60	61993
2026-01-08 22:23:48.03	64.69	2.97	-42.2	-56.6	3.5	7.66e-01	0	36	104	0	60	25930
2026-01-08 22:23:51.06	64.36	3.12	-40.4	-53.3	3.5	7.66e-01	0	36	104	0	56	22374
2026-01-08 22:23:54.09	64.03	3.27	-38.7	-53.4	3.5	7.66e-01	0	36	104	0	52	28620
2026-01-08 22:23:57.11	63.69	3.42	-36.8	-48.6	3.5	7.66e-01	0	36	104	0	50	18345
2026-01-08 22:24:00.14	63.35	3.58	-40.4	-53.7	3.5	7.66e-01	0	36	104	0	54	26415
2026-01-08 22:24:03.17	63.00	3.73	-42.3	-64.3	3.5	7.66e-01	0	36	104	0	60	62876
2026-01-08 22:24:06.20	62.65	3.88	-38.4	-50.7	3.5	7.66e-01	0	36	104	0	52	20965
2026-01-08 22:24:09.23	62.30	4.03	-39.0	-51.7	3.6	7.66e-01	0	36	104	0	52	23541
2026-01-08 22:24:12.26	61.94	4.19	-43.5	-64.5	3.5	7.66e-01	0	36	104	0	60	64744
2026-01-08 22:24:15.29	61.58	4.34	-38.3	-49.1	3.5	7.66e-01	0	36	104	0	52	17484
2026-01-08 22:24:18.31	61.21	4.49	-39.5	-50.4	3.5	7.66e-01	0	36	104	0	58	14285
2026-01-08 22:24:21.34	60.84	4.64	-39.7	-51.2	3.5	7.66e-01	0	36	104	0	52	22219
2026-01-08 22:24:24.35	60.47	4.80	-38.2	-50.0	3.5	7.66e-01	0	36	104	0	52	19284
2026-01-08 22:24:27.38	60.09	4.95	-38.4	-50.0	3.5	7.66e-01	0	36	104	0	50	21689
2026-01-08 22:24:30.41	59.70	5.10	-45.2	-64.4	3.5	7.66e-01	0	36	104	0	60	64008
2026-01-08 22:24:33.43	59.32	5.25	-37.2	-49.2	3.5	7.66e-01	0	36	104	0	50	19726
2026-01-08 22:24:36.38	58.93	5.40	-38.6	-49.6	3.6	7.66e-01	0	36	104	0	50	20684
2026-01-08 22:24:39.31	58.55	5.55	-46.7	-64.8	3.5	7.66e-01	0	36	104	0	60	67171
2026-01-08 22:24:42.25	58.16	5.69	-37.6	-49.1	3.5	7.66e-01	0	36	104	0	50	19614
2026-01-08 22:24:45.18	57.77	5.84	-38.2	-50.0	3.5	7.66e-01	0	36	104	0	50	21628
2026-01-08 22:24:48.11	57.37	5.99	-45.9	-64.7	3.5	7.66e-01	0	36	104	0	60	66451
2026-01-08 22:24:51.03	56.97	6.13	-37.8	-48.5	3.5	7.66e-01	0	36	104	0	50	18265
2026-01-08 22:24:53.96	56.56	6.28	-38.3	-49.2	3.5	7.66e-01	0	36	104	0	50	19634
2026-01-08 22:24:56.89	56.15	6.42	-46.7	-65.2	3.5	7.66e-01	0	36	104	0	60	69707
2026-01-08 22:24:59.81	55.74	6.57	-38.6	-49.2	3.6	7.66e-01	0	36	104	0	52	17615
2026-01-08 22:25:02.74	55.32	6.71	-42.5	-55.7	3.5	7.66e-01	0	36	104	0	60	23470
2026-01-08 22:25:05.68	54.89	6.85	-41.2	-52.5	3.5	7.66e-01	0	36	104	0	60	16170
2026-01-08 22:25:08.61	54.46	7.00	-38.6	-49.3	3.5	7.66e-01	0	36	104	0	52	17807
2026-01-08 22:25:11.54	54.03	7.14	-36.3	-46.6	3.5	7.66e-01	0	36	104	0	48	16408
2026-01-08 22:25:14.47	53.59	7.28	-37.6	-48.1	3.6	7.66e-01	0	36	104	0	52	15493
2026-01-08 22:25:17.40	53.14	7.42	-39.0	-49.5	3.5	7.66e-01	0	36	104	0	52	18307
2026-01-08 22:25:20.33	52.70	7.56	-43.7	-56.0	3.5	7.66e-01	0	36	104	0	60	24367
2026-01-08 22:25:23.27	52.24	7.70	-46.2	-62.0	3.5	7.66e-01	0	36	104	0	60	48193
2026-01-08 22:25:26.20	51.78	7.84	-37.1	-47.5	3.5	7.66e-01	0	36	104	0	48	18258
2026-01-08 22:25:29.13	51.32	7.98	-42.7	-54.2	3.5	7.66e-01	0	36	104	0	58	22023
2026-01-08 22:25:32.06	50.85	8.12	-43.1	-54.8	3.6	7.66e-01	0	36	104	0	60	21266
2026-01-08 22:25:34.98	50.38	8.25	-38.2	-48.7	3.6	7.66e-01	0	36	104	0	52	16520
2026-01-08 22:25:37.91	49.90	8.39	-37.9	-48.4	3.5	7.66e-01	0	36	104	0	48	20121
2026-01-08 22:25:40.84	49.42	8.52	-40.5	-51.2	3.5	7.66e-01	0	36	104	0	56	17671
2026-01-08 22:25:43.76	48.94	8.66	-36.6	-46.9	3.5	7.66e-01	0	36	104	0	48	17074
2026-01-08 22:25:46.70	48.44	8.79	-37.2	-47.6	3.5	7.66e-01	0	36	104	0	46	20667
2026-01-08 22:25:49.63	47.95	8.92	-43.6	-55.3	3.5	7.66e-01	0	36	104	0	60	22301
2026-01-08 22:25:52.56	47.44	9.05	-38.4	-48.9	3.5	7.66e-01	0	36	104	0	52	16929
2026-01-08 22:25:55.51	46.93	9.18	-35.6	-45.8	3.5	7.66e-01	0	36	104	0	46	16883
2026-01-08 22:25:58.44	46.42	9.31	-43.8	-55.7	3.5	7.66e-01	0	36	104	0	60	23556
2026-01-08 22:26:01.36	45.91	9.43	-36.3	-46.7	3.5	7.66e-01	0	36	104	0	48	16563
2026-01-08 22:26:04.30	45.38	9.56	-35.2	-45.4	3.5	7.66e-01	0	36	104	0	46	16050
2026-01-08 22:26:07.23	44.86	9.68	-46.7	-65.0	3.5	7.66e-01	0	36	104	0	60	68425
2026-01-08 22:26:10.16	44.33	9.80	-38.2	-48.8	3.5	7.66e-01	0	36	104	0	52	16736
2026-01-08 22:26:13.09	43.79	9.93	-36.1	-46.5	3.5	7.66e-01	0	36	104	0	48	16151
2026-01-08 22:26:16.02	43.25	10.04	-47.6	-65.3	3.5	7.66e-01	0	36	104	0	60	70804
2026-01-08 22:26:18.95	42.70	10.16	-36.8	-47.2	3.6	7.66e-01	0	36	104	0	48	17513
2026-01-08 22:26:21.88	42.15	10.28	-36.1	-46.3	3.5	7.66e-01	0	36	104	0	46	17846
2026-01-08 22:26:24.82	41.59	10.39	-46.4	-61.5	3.5	7.66e-01	0	36	104	0	60	45672
2026-01-08 22:26:27.75	41.03	10.50	-44.9	-57.5	3.5	7.66e-01	0	36	104	0	60	28721
2026-01-08 22:26:30.68	40.47	10.61	-41.9	-52.9	3.5	7.66e-01	0	36	104	0	58	18967
2026-01-08 22:26:33.62	39.90	10.72	-39.5	-50.1	3.6	7.66e-01	0	36	104	0	60	12294
2026-01-08 22:26:36.55	39.33	10.82	-36.0	-46.3	3.5	7.66e-01	0	36	104	0	46	17781
2026-01-08 22:26:39.48	38.75	10.93	-35.8	-46.0	3.5	7.66e-01	0	36	104	0	46	17251
2026-01-08 22:26:42.41	38.16	11.03	-36.4	-46.7	3.5	7.66e-01	0	36	104	0	48	16702
2026-01-08 22:26:45.34	37.58	11.13	-47.7	-65.5	3.5	7.66e-01	0	36	104	0	60	72681
2026-01-08 22:26:48.26	36.99	11.22	-42.7	-54.0	3.5	7.66e-01	0	36	104	0	60	19384
2026-01-08 22:26:51.20	36.39	11.32	-47.8	-65.6	3.5	7.66e-01	0	36	104	0	60	73492
2026-01-08 22:26:54.13	35.79	11.41	-36.2	-46.6	3.5	7.66e-01	0	36	104	0	46	18339
2026-01-08 22:26:57.06	35.19	11.50	-35.4	-45.7	3.5	7.66e-01	0	36	104	0	46	16537
2026-01-08 22:27:00.00	34.58	11.58	-36.9	-47.3	3.5	7.66e-01	0	36	104	0	46	19858
2026-01-08 22:27:02.93	33.97	11.67	-47.7	-65.0	3.5	7.66e-01	0	36	104	0	60	68825
2026-01-08 22:27:05.85	33.36	11.75	-41.4	-52.3	3.5	7.66e-01	0	36	104	0	56	19976
2026-01-08 22:27:08.78	32.74	11.83	-47.5	-65.1	3.5	7.66e-01	0	36	104	0	60	69217
2026-01-08 22:27:11.72	32.11	11.90	-37.1	-47.6	3.6	7.66e-01	0	36	104	0	54	12991
2026-01-08 22:27:14.65	31.49	11.97	-35.3	-45.5	3.6	7.66e-01	0	36	104	0	46	16319
2026-01-08 22:27:17.58	30.86	12.04	-34.7	-35.9	28.5	7.66e-01	0	36	0	1048576	44	6063
2026-01-08 22:27:20.52	30.22	12.11	-34.9	-36.5	24.0	7.66e-01	0	35	104	3145728	46	5736
2026-01-08 22:27:23.46	29.59	12.17	-36.0	-37.3	27.4	7.66e-01	0	36	0	5767168	46	6308
2026-01-08 22:27:26.39	28.95	12.23	-36.5	-37.9	27.1	7.66e-01	0	35	0	11534336	46	6731
2026-01-08 22:27:29.33	28.31	12.29	-36.9	-38.3	26.7	7.66e-01	0	36	0	16777216	48	6303
2026-01-08 22:27:32.26	27.66	12.35	-34.4	-35.7	29.0	7.66e-01	0	35	0	22020096	44	5861
2026-01-08 22:27:35.19	27.02	12.40	-34.4	-35.6	29.0	7.66e-01	0	35	0	27787264	44	5855
2026-01-08 22:27:38.12	26.37	12.44	-34.4	-35.6	29.0	7.66e-01	0	35	0	33030144	44	5826
2026-01-08 22:27:41.05	25.72	12.49	-34.4	-35.6	29.0	7.66e-01	0	35	0	38797312	44	5854
2026-01-08 22:27:43.99	25.06	12.53	-34.5	-35.8	28.9	7.66e-01	0	35	0	44040192	44	5931
2026-01-08 22:27:46.92	24.41	12.57	-34.6	-35.8	28.9	7.66e-01	0	35	0	49807360	44	5971
2026-01-08 22:27:49.85	23.76	12.60	-34.5	-35.7	28.9	7.66e-01	0	36	0	55050240	44	5922
2026-01-08 22:27:52.79	23.10	12.63	-34.5	-35.7	28.9	7.66e-01	0	35	0	60817408	44	5900
2026-01-08 22:27:55.72	22.44	12.66	-34.5	-35.7	28.9	7.66e-01	0	35	0	66060288	44	5889
2026-01-08 22:27:58.64	21.78	12.68	-34.5	-35.7	29.0	7.66e-01	0	35	0	71827456	44	5874
2026-01-08 22:28:01.58	21.12	12.70	-34.4	-35.6	29.0	7.66e-01	0	35	0	77070336	44	5851
2026-01-08 22:28:04.51	20.45	12.72	-34.4	-35.7	29.0	7.66e-01	0	35	0	82837504	44	5877
2026-01-08 22:28:07.44	19.79	12.73	-34.6	-35.8	28.8	7.66e-01	0	35	0	88080384	44	5991
2026-01-08 22:28:10.37	19.13	12.74	-34.5	-35.7	28.9	7.66e-01	0	35	0	93847552	44	5890
2026-01-08 22:28:13.30	18.46	12.75	-34.3	-35.5	29.0	7.66e-01	0	35	0	99090432	44	5782
2026-01-08 22:28:16.24	17.80	12.75	-34.5	-35.8	28.9	7.66e-01	0	35	0	104857600	44	5934
2026-01-08 22:28:19.18	17.13	12.75	-34.6	-35.8	28.9	7.66e-01	0	35	0	110100480	44	5963
2026-01-08 22:28:22.12	16.47	12.74	-34.5	-35.7	28.9	7.66e-01	0	35	0	115867648	44	5911
2026-01-08 22:28:25.06	15.80	12.73	-34.4	-35.7	29.0	7.66e-01	0	35	0	121110528	44	5875
2026-01-08 22:28:27.99	15.14	12.72	-34.4	-35.6	29.0	7.66e-01	0	35	0	126877696	44	5853
2026-01-08 22:28:30.92	14.48	12.71	-34.4	-35.6	29.1	7.66e-01	0	35	0	132120576	44	5832
2026-01-08 22:28:33.85	13.82	12.69	-34.5	-35.8	29.0	7.66e-01	0	35	0	137887744	44	5933
2026-01-08 22:28:36.78	13.16	12.67	-34.5	-35.7	28.9	7.66e-01	0	35	0	143130624	44	5924
2026-01-08 22:28:39.71	12.50	12.64	-34.5	-35.7	28.9	7.66e-01	0	35	0	148897792	44	5910
2026-01-08 22:28:42.65	11.84	12.61	-34.4	-35.6	29.0	7.66e-01	0	35	0	154140672	44	5839
2026-01-08 22:28:45.58	11.18	12.58	-34.5	-35.7	28.9	7.66e-01	0	35	0	159907840	44	5912
2026-01-08 22:28:48.52	10.52	12.54	-34.7	-35.9	28.7	7.66e-01	0	35	0	165150720	44	6047
2026-01-08 22:28:51.45	9.87	12.50	-34.5	-35.7	29.0	7.66e-01	0	35	0	170917888	44	5917
2026-01-08 22:28:54.38	9.22	12.46	-34.6	-35.8	28.9	7.66e-01	0	35	0	176160768	44	5967
2026-01-08 22:28:57.31	8.57	12.41	-34.5	-35.8	28.9	7.66e-01	0	35	0	181927936	44	5935
2026-01-08 22:29:00.25	7.92	12.36	-34.6	-35.8	28.8	7.66e-01	0	35	0	187170816	44	5972
2026-01-08 22:29:03.18	7.28	12.31	-34.6	-35.8	28.8	7.66e-01	0	35	0	192937984	44	5979
2026-01-08 22:29:06.12	6.64	12.25	-34.6	-35.8	28.8	7.66e-01	0	35	0	198180864	44	5982
2026-01-08 22:29:09.06	6.00	12.19	-34.7	-35.9	28.7	7.66e-01	0	35	0	203948032	44	6046
2026-01-08 22:29:11.99	5.36	12.13	-34.6	-35.8	28.8	7.66e-01	0	35	0	209190912	44	5959
2026-01-08 22:29:14.92	4.73	12.06	-34.6	-35.8	28.9	7.66e-01	0	35	0	214958080	44	5954
2026-01-08 22:29:17.84	4.10	11.99	-34.6	-35.8	28.9	7.66e-01	0	35	0	220200960	44	5983
2026-01-08 22:29:20.78	3.48	11.92	-34.6	-35.8	28.8	7.66e-01	0	35	0	225968128	44	5982
2026-01-08 22:29:23.71	2.85	11.85	-34.5	-35.7	28.9	7.66e-01	0	35	0	231211008	44	5921
2026-01-08 22:29:26.65	2.23	11.77	-34.6	-35.8	28.8	7.66e-01	0	35	0	236978176	44	5993
2026-01-08 22:29:29.58	1.62	11.69	-34.6	-35.8	28.8	7.66e-01	0	35	0	242221056	44	5983
2026-01-08 22:29:32.52	1.00	11.61	-34.7	-35.9	28.8	7.66e-01	0	35	0	247463936	44	6022
2026-01-08 22:29:35.46	0.39	11.52	-34.8	-36.1	28.7	7.66e-01	0	35	0	253231104	44	6138
2026-01-08 22:29:38.39	359.79	11.43	-34.8	-36.0	28.7	7.66e-01	0	35	0	258998272	44	6110
2026-01-08 22:29:41.32	359.19	11.34	-34.5	-35.8	28.9	7.66e-01	0	35	0	264241152	44	5947
2026-01-08 22:29:44.25	358.59	11.25	-34.9	-36.1	28.5	7.66e-01	0	35	0	270008320	44	6176
2026-01-08 22:29:47.18	358.00	11.16	-35.2	-36.5	28.3	7.66e-01	0	35	0	275251200	44	6455
2026-01-08 22:29:50.11	357.42	11.06	-35.2	-36.5	28.2	7.66e-01	0	35	0	280494080	44	6448
2026-01-08 22:29:53.04	356.83	10.96	-34.7	-35.9	28.7	7.66e-01	0	35	0	286261248	44	6057
2026-01-08 22:29:55.97	356.25	10.85	-34.9	-36.1	28.4	7.66e-01	0	35	0	291504128	44	6169
2026-01-08 22:29:58.90	355.68	10.75	-35.9	-37.3	27.5	7.66e-01	0	35	0	297271296	44	7063
2026-01-08 22:30:01.82	355.11	10.64	-34.3	-35.6	29.0	7.66e-01	0	35	0	302514176	44	5800
2026-01-08 22:30:04.75	354.55	10.54	-35.6	-36.9	27.7	7.66e-01	0	35	0	308281344	44	6768
2026-01-08 22:30:07.67	353.99	10.43	-34.7	-35.9	28.5	7.66e-01	0	35	0	313524224	44	6025
2026-01-08 22:30:10.61	353.43	10.31	-36.6	-38.0	26.7	7.66e-01	0	35	0	319291392	46	6827
2026-01-08 22:30:13.54	352.88	10.20	-37.4	-38.8	25.9	7.66e-01	0	35	0	324534272	48	6682
2026-01-08 22:30:16.47	352.33	10.08	-37.3	-38.8	26.3	7.66e-01	0	35	0	330301440	50	5933
2026-01-08 22:30:19.40	351.79	9.96	-36.4	-37.7	26.9	7.66e-01	0	35	0	335544320	46	6602
2026-01-08 22:30:22.33	351.26	9.84	-36.3	-37.6	27.0	7.66e-01	0	35	0	341311488	46	6537
2026-01-08 22:30:25.26	350.72	9.72	-37.1	-38.5	26.4	7.66e-01	0	35	0	346554368	48	6481
2026-01-08 22:30:28.20	350.19	9.60	-36.7	-38.1	26.7	7.66e-01	0	35	0	352321536	48	6162
2026-01-08 22:30:31.12	349.67	9.48	-36.1	-37.4	27.2	7.66e-01	0	35	0	357564416	46	6370
2026-01-08 22:30:34.05	349.16	9.35	-35.5	-36.8	27.8	7.66e-01	0	35	0	363331584	46	5962
2026-01-08 22:30:36.98	348.64	9.22	-35.4	-36.7	27.9	7.66e-01	0	35	0	368574464	46	5901
2026-01-08 22:30:39.92	348.14	9.09	-35.6	-36.9	27.8	7.66e-01	0	35	0	374341632	46	6037
2026-01-08 22:30:42.85	347.63	8.97	-35.7	-37.1	27.6	7.66e-01	0	35	0	379584512	46	6144
2026-01-08 22:30:45.79	347.13	8.83	-35.6	-36.9	27.6	7.66e-01	0	35	0	385351680	46	5995
2026-01-08 22:30:48.72	346.64	8.70	-36.0	-37.4	27.2	7.66e-01	0	35	0	390594560	46	6364
2026-01-08 22:30:51.65	346.15	8.57	-36.4	-37.8	26.8	7.66e-01	0	35	0	396361728	46	6677
2026-01-08 22:30:54.59	345.67	8.43	-36.0	-37.3	27.1	7.66e-01	0	35	0	401604608	46	6320
2026-01-08 22:30:57.52	345.19	8.30	-37.7	-39.2	25.5	7.66e-01	0	35	0	406847488	48	7008
2026-01-08 22:31:00.45	344.72	8.16	-36.2	-37.5	27.1	7.66e-01	0	35	0	412614656	48	5765
2026-01-08 22:31:03.38	344.25	8.03	-36.3	-37.7	26.8	7.66e-01	0	35	0	418381824	46	6635
2026-01-08 22:31:06.31	343.79	7.89	-36.2	-37.5	27.0	7.66e-01	0	35	0	423624704	46	6431
2026-01-08 22:31:09.25	343.33	7.75	-35.7	-37.0	27.5	7.66e-01	0	35	0	428867584	46	6096
2026-01-08 22:31:12.19	342.87	7.61	-36.1	-37.4	27.1	7.66e-01	0	35	0	434634752	46	6404
2026-01-08 22:31:15.12	342.42	7.47	-36.3	-37.6	27.0	7.66e-01	0	35	0	439877632	46	6513
2026-01-08 22:31:18.05	341.98	7.33	-36.0	-37.3	27.0	7.66e-01	0	35	0	445644800	46	6347
2026-01-08 22:31:20.98	341.54	7.19	-36.4	-37.8	26.8	7.66e-01	0	35	0	451411968	46	6665
2026-01-08 22:31:23.91	341.11	7.04	-36.1	-37.4	27.0	7.66e-01	0	35	0	456654848	46	6419
2026-01-08 22:31:26.83	340.68	6.90	-36.4	-37.8	26.7	7.66e-01	0	35	0	461897728	46	6665
2026-01-08 22:31:29.77	340.25	6.76	-36.4	-37.8	26.6	7.66e-01	0	35	0	467664896	48	5953
2026-01-08 22:31:32.70	339.83	6.62	-36.1	-37.5	26.9	7.66e-01	0	35	0	472907776	48	5742
2026-01-08 22:31:35.63	339.42	6.47	-36.4	-37.7	26.6	7.66e-01	0	35	0	478674944	46	6648
2026-01-08 22:31:38.56	339.00	6.33	-37.1	-38.6	25.6	7.66e-01	0	35	0	483917824	48	6537
2026-01-08 22:31:41.49	338.60	6.18	-36.6	-38.1	26.2	7.66e-01	0	35	0	489684992	48	6152
2026-01-08 22:31:44.43	338.19	6.04	-36.5	-38.0	26.3	7.66e-01	0	35	0	494927872	46	6826
2026-01-08 22:31:47.36	337.80	5.89	-37.0	-38.5	25.8	7.66e-01	0	35	0	500695040	46	7238
2026-01-08 22:31:50.29	337.40	5.74	-37.2	-38.7	25.3	7.66e-01	0	35	0	505937920	48	6610
2026-01-08 22:31:53.23	337.01	5.60	-37.7	-39.4	24.1	7.66e-01	0	35	0	511705088	48	7141
2026-01-08 22:31:56.16	336.63	5.45	-38.7	-40.6	22.6	7.66e-01	0	35	0	516947968	50	7313
2026-01-08 22:31:59.10	336.25	5.30	-39.9	-42.3	20.6	7.66e-01	0	35	0	522715136	52	7935
2026-01-08 22:32:02.03	335.87	5.16	-41.0	-44.1	18.2	7.66e-01	0	35	0	527958016	54	8732
2026-01-08 22:32:04.96	335.50	5.01	-41.8	-46.2	15.4	7.66e-01	0	35	0	533725184	56	9919
2026-01-08 22:32:07.88	335.13	4.86	-42.6	-49.7	11.0	7.66e-01	0	35	0	538968064	58	13155
2026-01-08 22:32:10.82	334.77	4.72	-43.1	-52.8	7.0	7.66e-01	92	35	0	544735232	60	16769
2026-01-08 22:32:13.75	334.41	4.57	-43.1	-53.0	6.7	7.66e-01	93	35	0	549978112	60	17134
2026-01-08 22:32:16.67	334.05	4.42	-43.1	-53.2	6.6	7.66e-01	91	35	0	555745280	60	17583
2026-01-08 22:32:19.60	333.70	4.27	-43.2	-53.0	6.8	7.66e-01	91	35	0	560463872	60	17261
2026-01-08 22:32:22.54	333.35	4.13	-43.3	-53.1	7.0	7.66e-01	93	35	0	566231040	60	17341
2026-01-08 22:32:25.47	333.01	3.98	-43.3	-51.6	9.0	7.66e-01	0	35	0	571473920	60	14675
2026-01-08 22:32:28.40	332.67	3.83	-43.1	-48.6	13.4	7.66e-01	0	35	0	577241088	60	10350
2026-01-08 22:32:31.33	332.34	3.68	-42.4	-47.2	14.7	7.66e-01	0	35	0	582483968	60	8774
2026-01-08 22:32:34.25	332.00	3.54	-42.2	-46.6	15.4	7.66e-01	0	35	0	588251136	60	8220
2026-01-08 22:32:37.18	331.68	3.39	-41.2	-44.6	17.5	7.66e-01	0	35	0	593494016	58	7345
2026-01-08 22:32:40.11	331.35	3.24	-41.1	-44.1	18.7	7.66e-01	0	35	0	599261184	58	6896
2026-01-08 22:32:43.05	331.03	3.09	-41.0	-44.1	18.6	7.66e-01	0	35	0	604504064	56	7726
2026-01-08 22:32:45.97	330.71	2.95	-47.8	-65.7	3.5	7.66e-01	0	35	104	607125504	60	74092
2026-01-08 22:32:48.90	330.40	2.80	-48.2	-66.2	3.5	7.66e-01	0	35	104	607125504	60	78590
2026-01-08 22:32:51.85	330.09	2.65	-48.3	-66.4	3.5	7.66e-01	0	35	104	607125504	60	80417
2026-01-08 22:32:54.79	329.78	2.51	-48.5	-66.4	3.5	7.66e-01	0	35	104	607125504	60	80766
2026-01-08 22:32:57.73	329.48	2.36	-48.3	-66.3	3.5	7.66e-01	0	35	104	607125504	60	79663
2026-01-08 22:33:00.67	329.18	2.21	-48.6	-66.5	3.5	7.66e-01	0	35	104	607125504	60	81720
2026-01-08 22:33:03.59	328.88	2.07	-48.5	-66.3	3.5	7.66e-01	0	35	104	607125504	60	79663
2026-01-08 22:33:06.52	328.59	1.92	-48.5	-66.3	3.5	7.66e-01	0	35	104	607125504	60	79673
2026-01-08 22:33:09.45	328.30	1.77	-48.5	-66.3	3.5	7.66e-01	0	35	104	607125504	60	79912
2026-01-08 22:33:12.38	328.01	1.63	-48.4	-66.3	3.5	7.66e-01	0	35	104	607125504	60	79661
2026-01-08 22:33:15.31	327.73	1.48	-48.4	-66.2	3.6	7.66e-01	0	35	104	607125504	60	79013
2026-01-08 22:33:18.24	327.45	1.34	-48.5	-66.3	3.5	7.66e-01	0	35	104	607125504	60	79547
2026-01-08 22:33:21.18	327.17	1.19	-48.4	-66.3	3.5	7.66e-01	0	35	104	607125504	60	79465
2026-01-08 22:33:24.11	326.89	1.05	-48.4	-66.3	3.5	7.66e-01	0	35	104	607125504	60	79474
2026-01-08 22:33:27.05	326.62	0.90	-48.4	-66.2	3.5	7.66e-01	0	35	104	607125504	60	79007
2026-01-08 22:33:29.98	326.35	0.76	-48.4	-66.2	3.5	7.66e-01	0	35	104	607125504	60	78865
2026-01-08 22:33:32.91	326.09	0.61	-48.4	-66.3	3.5	7.66e-01	0	35	104	607125504	60	79522
2026-01-08 22:33:35.84	325.83	0.47	-48.4	-66.2	3.5	7.66e-01	0	35	104	607125504	60	78976
2026-01-08 22:33:38.78	325.57	0.32	-48.4	-66.2	3.5	7.66e-01	0	35	104	607125504	60	78949
2026-01-08 22:33:41.70	325.31	0.18	-48.4	-66.2	3.5	7.66e-01	0	35	104	607125504	60	78592
2026-01-08 22:33:44.64	325.06	0.04	-48.4	-66.2	3.5	7.66e-01	0	35	104	607125504	60	78903

#Closed at: 2026-01-08 22:33:46
#Recorded file [607 MB]: D:/lorett/data/35029_260109_102253.dat