passes_logs/2026/01/08/R4.6S_Anadyr/R4.6S_Anadyr__20260108_201406_SUOMI_NPP_rec.log

#Pass ID: 20260108_201406_SUOMI NPP
#Satellite: SUOMI NPP
#Configuration: NPP
#almurnet v.1.7.20251203
#Start time: 2026-01-08 20:14:08

#Version: 2.2.20231116
#Station: R4.6S_Anadyr
#Location: 177.4865 lon 64.73178 lat
#TLE: 1 37849U 11061A   26008.05542337  .00000108  00000+0  71976-4 0  9997
#TLE: 2 37849  98.7805 310.1641 0002540  75.6410 284.5048 14.19523335735721

#Time	Az	El	Level	Level2	SNR	BER	BlckErr	Temp	State	Recorded	gain1	gain2
2026-01-08 20:14:08.24	65.01	0.10	-48.0	-58.7	3.5	8.45e-01	0	31	0	0	60	31151
2026-01-08 20:14:11.26	64.79	0.24	-48.4	-63.7	3.6	1.51e+00	0	32	104	0	60	55478
2026-01-08 20:14:14.30	64.56	0.39	-48.5	-63.7	3.6	1.51e+00	0	32	104	0	60	55297
2026-01-08 20:14:17.32	64.33	0.54	-48.5	-63.7	3.6	1.51e+00	0	32	104	0	60	55539
2026-01-08 20:14:20.35	64.10	0.69	-48.3	-63.5	3.6	1.51e+00	0	32	104	0	60	54235
2026-01-08 20:14:23.38	63.86	0.84	-47.8	-63.0	3.6	1.51e+00	0	32	104	0	60	50996
2026-01-08 20:14:26.42	63.63	0.99	-46.8	-62.0	3.6	1.51e+00	0	32	104	0	60	45708
2026-01-08 20:14:29.45	63.39	1.14	-46.8	-62.0	3.6	1.51e+00	0	32	104	0	60	45432
2026-01-08 20:14:32.47	63.14	1.29	-46.8	-62.0	3.6	1.51e+00	0	32	104	0	60	45696
2026-01-08 20:14:35.50	62.90	1.45	-46.8	-62.0	3.6	1.51e+00	0	32	104	0	60	45716
2026-01-08 20:14:38.53	62.65	1.60	-46.8	-62.0	3.6	1.51e+00	0	32	104	0	60	45256
2026-01-08 20:14:41.56	62.40	1.75	-46.8	-62.0	3.6	1.51e+00	0	32	104	0	60	45309
2026-01-08 20:14:44.59	62.15	1.90	-46.8	-61.9	3.6	1.51e+00	0	32	104	0	60	45126
2026-01-08 20:14:47.62	61.89	2.05	-46.8	-61.8	3.6	1.51e+00	0	33	104	0	60	44575
2026-01-08 20:14:50.64	61.64	2.21	-46.8	-61.8	3.6	1.51e+00	0	33	104	0	60	44312
2026-01-08 20:14:53.67	61.38	2.36	-46.8	-62.0	3.6	1.51e+00	0	33	104	0	60	45361
2026-01-08 20:14:56.71	61.11	2.51	-46.8	-62.0	3.6	1.51e+00	0	33	104	0	60	45488
2026-01-08 20:14:59.73	60.84	2.67	-46.8	-60.9	3.6	1.51e+00	0	33	104	0	60	40323
2026-01-08 20:15:02.76	60.58	2.82	-46.8	-61.4	3.6	1.51e+00	0	33	104	0	60	42559
2026-01-08 20:15:05.79	60.30	2.97	-45.7	-51.4	9.1	9.18e-02	0	33	0	2097152	60	13499
2026-01-08 20:15:08.81	60.03	3.13	-44.7	-48.7	12.5	1.49e+00	0	33	104	5242880	60	9835
2026-01-08 20:15:11.84	59.75	3.28	-42.6	-45.0	15.7	1.06e-01	0	33	0	5242880	58	7234
2026-01-08 20:15:14.87	59.47	3.44	-42.1	-44.3	17.0	0.00e+00	0	33	0	10485760	58	6659
2026-01-08 20:15:17.90	59.18	3.59	-41.9	-44.0	17.0	0.00e+00	0	33	0	16777216	58	6420
2026-01-08 20:15:20.93	58.90	3.75	-41.8	-43.8	17.3	0.00e+00	0	33	0	22020096	56	7014
2026-01-08 20:15:23.95	58.61	3.90	-42.0	-44.0	17.0	0.00e+00	0	33	0	28311552	56	7220
2026-01-08 20:15:26.98	58.31	4.06	-41.7	-43.7	17.5	0.00e+00	0	33	0	33554432	56	6933
2026-01-08 20:15:30.01	58.02	4.21	-41.4	-43.2	17.9	0.00e+00	0	33	0	38797312	56	6569
2026-01-08 20:15:33.04	57.71	4.37	-41.5	-43.3	18.0	0.00e+00	0	33	0	45088768	56	6623
2026-01-08 20:15:36.07	57.41	4.52	-41.2	-42.9	18.3	0.00e+00	0	33	0	50331648	56	6390
2026-01-08 20:15:39.09	57.10	4.68	-41.4	-43.1	18.1	0.00e+00	0	33	0	56623104	56	6534
2026-01-08 20:15:42.12	56.79	4.84	-41.2	-42.9	18.4	0.00e+00	0	33	0	61865984	56	6357
2026-01-08 20:15:45.15	56.48	4.99	-41.0	-42.6	18.8	0.00e+00	0	33	0	67108864	56	6160
2026-01-08 20:15:48.18	56.16	5.15	-41.0	-42.7	18.6	0.00e+00	0	33	0	73400320	56	6212
2026-01-08 20:15:51.20	55.84	5.31	-41.2	-42.9	18.4	0.00e+00	0	33	0	78643200	56	6381
2026-01-08 20:15:54.24	55.52	5.46	-41.1	-42.8	18.4	0.00e+00	0	33	0	84934656	56	6246
2026-01-08 20:15:57.26	55.19	5.62	-41.4	-43.1	18.3	0.00e+00	0	33	0	90177536	56	6507
2026-01-08 20:16:00.28	54.86	5.78	-41.3	-43.0	18.4	0.00e+00	0	33	0	96468992	56	6415
2026-01-08 20:16:03.31	54.52	5.93	-41.1	-42.7	18.8	0.00e+00	0	33	0	101711872	56	6193
2026-01-08 20:16:06.34	54.18	6.09	-40.5	-41.9	19.4	0.00e+00	0	33	0	106954752	54	6368
2026-01-08 20:16:09.37	53.84	6.25	-40.1	-41.5	19.7	0.00e+00	0	33	0	113246208	54	6081
2026-01-08 20:16:12.39	53.49	6.40	-39.9	-41.3	20.1	0.00e+00	0	33	0	118489088	54	5913
2026-01-08 20:16:15.42	53.14	6.56	-40.1	-41.4	20.1	0.00e+00	0	33	0	124780544	54	5988
2026-01-08 20:16:18.45	52.79	6.72	-39.7	-41.0	20.4	0.00e+00	0	33	0	130023424	52	6418
2026-01-08 20:16:21.48	52.43	6.87	-39.8	-41.1	20.3	0.00e+00	0	33	0	135266304	52	6525
2026-01-08 20:16:24.51	52.07	7.03	-39.9	-41.2	20.1	0.00e+00	0	33	0	141557760	52	6568
2026-01-08 20:16:27.54	51.70	7.19	-39.9	-41.2	20.1	0.00e+00	0	33	0	146800640	52	6548
2026-01-08 20:16:30.56	51.33	7.34	-40.0	-41.3	20.1	0.00e+00	0	33	0	153092096	52	6647
2026-01-08 20:16:33.58	50.96	7.50	-40.2	-41.6	19.9	0.00e+00	0	33	0	158334976	52	6874
2026-01-08 20:16:36.61	50.58	7.65	-40.0	-41.4	20.1	0.00e+00	0	33	0	164626432	52	6701
2026-01-08 20:16:39.63	50.20	7.81	-40.2	-41.6	19.9	0.00e+00	0	33	0	169869312	52	6905
2026-01-08 20:16:42.66	49.81	7.96	-40.2	-41.6	20.0	0.00e+00	0	33	0	175112192	52	6849
2026-01-08 20:16:45.69	49.42	8.12	-40.0	-41.3	20.2	0.00e+00	0	33	0	181403648	52	6670
2026-01-08 20:16:48.72	49.02	8.27	-39.9	-41.2	20.3	0.00e+00	0	33	0	186646528	52	6590
2026-01-08 20:16:51.74	48.63	8.43	-39.7	-41.0	20.5	0.00e+00	0	33	0	192937984	52	6422
2026-01-08 20:16:54.77	48.22	8.58	-39.8	-41.0	20.5	0.00e+00	0	33	0	198180864	52	6443
2026-01-08 20:16:57.81	47.81	8.73	-39.6	-40.9	20.7	0.00e+00	0	33	0	203423744	52	6325
2026-01-08 20:17:00.83	47.40	8.89	-39.9	-41.2	20.2	0.00e+00	0	33	0	209715200	52	6592
2026-01-08 20:17:03.86	46.98	9.04	-40.2	-41.5	20.1	0.00e+00	0	33	0	214958080	52	6843
2026-01-08 20:17:06.89	46.56	9.19	-40.3	-41.7	19.9	0.00e+00	0	33	0	221249536	52	6953
2026-01-08 20:17:09.92	46.13	9.34	-40.4	-41.8	19.8	0.00e+00	0	33	0	226492416	52	7037
2026-01-08 20:17:12.95	45.70	9.49	-40.0	-41.3	20.2	0.00e+00	0	33	0	232783872	52	6691
2026-01-08 20:17:15.98	45.27	9.64	-39.7	-41.0	20.6	0.00e+00	0	33	0	238026752	52	6400
2026-01-08 20:17:19.00	44.83	9.79	-39.3	-40.4	21.1	0.00e+00	0	33	0	243269632	52	6019
2026-01-08 20:17:22.03	44.38	9.94	-39.1	-40.3	21.1	0.00e+00	0	33	0	249561088	52	5902
2026-01-08 20:17:25.06	43.93	10.09	-38.6	-39.7	21.6	0.00e+00	0	33	0	254803968	50	6226
2026-01-08 20:17:28.09	43.48	10.23	-38.4	-39.5	21.7	0.00e+00	0	33	0	261095424	50	6081
2026-01-08 20:17:31.12	43.02	10.38	-38.0	-39.0	22.2	0.00e+00	0	33	0	266338304	50	5719
2026-01-08 20:17:34.14	42.56	10.52	-38.2	-39.3	22.0	0.00e+00	0	33	0	271581184	50	5909
2026-01-08 20:17:37.16	42.09	10.67	-37.9	-39.0	22.3	0.00e+00	0	33	0	277872640	50	5711
2026-01-08 20:17:40.19	41.62	10.81	-38.2	-39.3	22.0	0.00e+00	0	34	0	283115520	50	5909
2026-01-08 20:17:43.21	41.15	10.95	-38.5	-39.6	21.7	0.00e+00	0	34	0	289406976	50	6128
2026-01-08 20:17:46.25	40.66	11.09	-38.1	-39.1	22.1	0.00e+00	0	33	0	294649856	50	5797
2026-01-08 20:17:49.27	40.18	11.23	-37.9	-38.9	22.2	0.00e+00	0	33	0	299892736	50	5657
2026-01-08 20:17:52.30	39.69	11.37	-37.3	-38.3	22.8	0.00e+00	0	34	0	306184192	48	5906
2026-01-08 20:17:55.33	39.19	11.51	-37.2	-38.1	22.9	0.00e+00	0	33	0	311427072	48	5826
2026-01-08 20:17:58.36	38.69	11.64	-37.4	-38.3	22.8	0.00e+00	0	33	0	317718528	48	5960
2026-01-08 20:18:01.39	38.18	11.78	-37.5	-38.5	22.8	0.00e+00	0	34	0	322961408	48	6051
2026-01-08 20:18:04.41	37.68	11.91	-37.1	-38.1	23.0	0.00e+00	0	33	0	329252864	48	5791
2026-01-08 20:18:07.43	37.16	12.04	-36.7	-37.5	23.5	0.00e+00	0	33	0	334495744	46	6103
2026-01-08 20:18:10.46	36.64	12.17	-36.5	-37.4	23.6	0.00e+00	0	33	0	339738624	46	6013
2026-01-08 20:18:13.49	36.12	12.30	-37.1	-38.0	23.0	0.00e+00	0	34	0	346030080	46	6429
2026-01-08 20:18:16.52	35.59	12.42	-37.6	-38.6	22.6	0.00e+00	0	34	0	351272960	46	6880
2026-01-08 20:18:19.54	35.06	12.55	-37.7	-38.7	22.5	0.00e+00	0	34	0	357564416	48	6239
2026-01-08 20:18:22.57	34.52	12.67	-37.6	-38.6	22.6	0.00e+00	0	34	0	362807296	48	6144
2026-01-08 20:18:25.59	33.98	12.79	-37.7	-38.7	22.7	0.00e+00	0	34	0	368050176	48	6180
2026-01-08 20:18:28.62	33.43	12.91	-38.1	-39.1	22.2	0.00e+00	0	33	0	374341632	48	6532
2026-01-08 20:18:31.65	32.88	13.03	-37.9	-39.0	22.3	0.00e+00	0	33	0	379584512	48	6428
2026-01-08 20:18:34.68	32.33	13.14	-37.2	-38.1	23.1	0.00e+00	0	34	0	385875968	48	5816
2026-01-08 20:18:37.71	31.77	13.25	-37.0	-37.9	23.2	0.00e+00	0	34	0	391118848	48	5671
2026-01-08 20:18:40.74	31.20	13.36	-37.2	-38.2	23.1	0.00e+00	0	33	0	396361728	48	5839
2026-01-08 20:18:43.77	30.64	13.47	-37.3	-38.3	22.9	0.00e+00	0	33	0	402653184	48	5915
2026-01-08 20:18:46.79	30.07	13.58	-37.0	-38.0	23.2	0.00e+00	0	34	0	407896064	48	5710
2026-01-08 20:18:49.82	29.49	13.68	-37.3	-38.2	22.7	0.00e+00	0	34	0	414187520	48	5872
2026-01-08 20:18:52.85	28.91	13.78	-37.9	-39.0	22.4	0.00e+00	0	34	0	419430400	48	6416
2026-01-08 20:18:55.87	28.33	13.88	-37.6	-38.7	22.7	0.00e+00	0	34	0	425721856	48	6183
2026-01-08 20:18:58.91	27.74	13.97	-37.3	-38.3	23.0	0.00e+00	0	34	0	430964736	48	5935
2026-01-08 20:19:01.93	27.14	14.07	-36.3	-37.1	23.8	0.00e+00	0	34	0	436207616	46	5814
2026-01-08 20:19:04.96	26.55	14.16	-36.6	-37.4	23.5	0.00e+00	0	34	0	442499072	46	6030
2026-01-08 20:19:07.99	25.95	14.24	-36.7	-37.6	23.4	0.00e+00	0	34	0	447741952	46	6105
2026-01-08 20:19:11.01	25.35	14.33	-36.8	-37.7	23.4	0.00e+00	0	34	0	454033408	46	6188
2026-01-08 20:19:14.04	24.74	14.41	-36.8	-37.6	23.4	0.00e+00	0	34	0	459276288	46	6161
2026-01-08 20:19:17.07	24.13	14.49	-37.2	-38.1	23.0	0.00e+00	0	34	0	464519168	46	6525
2026-01-08 20:19:20.10	23.52	14.56	-37.9	-38.9	22.4	0.00e+00	0	34	0	470810624	48	6384
2026-01-08 20:19:23.13	22.90	14.64	-37.9	-38.9	22.4	0.00e+00	0	34	0	476053504	48	6363
2026-01-08 20:19:26.16	22.28	14.71	-37.8	-38.8	22.5	0.00e+00	0	34	0	482344960	48	6311
2026-01-08 20:19:29.19	21.66	14.77	-38.0	-39.0	22.1	0.00e+00	0	34	0	487587840	48	6439
2026-01-08 20:19:32.22	21.04	14.84	-37.4	-38.3	22.8	0.00e+00	0	34	0	493879296	48	5940
2026-01-08 20:19:35.25	20.41	14.89	-37.6	-38.5	22.8	0.00e+00	0	34	0	499122176	48	6086
2026-01-08 20:19:38.27	19.78	14.95	-36.9	-37.8	23.4	0.00e+00	0	34	0	504365056	48	5575
2026-01-08 20:19:41.30	19.15	15.00	-36.6	-37.5	23.4	0.00e+00	0	34	0	510656512	46	6065
2026-01-08 20:19:44.33	18.52	15.05	-37.1	-38.0	23.1	0.00e+00	0	34	0	515899392	46	6463
2026-01-08 20:19:47.36	17.88	15.10	-37.3	-38.2	23.1	0.00e+00	0	34	0	522190848	46	6598
2026-01-08 20:19:50.39	17.24	15.14	-37.5	-38.5	22.8	0.00e+00	0	34	0	527433728	46	6816
2026-01-08 20:19:53.41	16.60	15.18	-37.5	-38.5	22.6	0.00e+00	0	34	0	532676608	48	6041
2026-01-08 20:19:56.44	15.96	15.22	-37.7	-38.6	22.6	0.00e+00	0	34	0	538968064	48	6170
2026-01-08 20:19:59.47	15.32	15.25	-37.9	-38.9	22.4	0.00e+00	0	34	0	544210944	48	6356
2026-01-08 20:20:02.50	14.67	15.28	-37.4	-38.4	22.8	0.00e+00	0	34	0	550502400	48	5966
2026-01-08 20:20:05.53	14.03	15.30	-37.4	-38.3	22.9	0.00e+00	0	34	0	555745280	48	5933
2026-01-08 20:20:08.55	13.38	15.32	-37.4	-38.4	22.9	0.00e+00	0	34	0	562036736	48	5971
2026-01-08 20:20:11.58	12.74	15.34	-37.3	-38.2	23.0	0.00e+00	0	34	0	567279616	48	5880
2026-01-08 20:20:14.60	12.09	15.36	-37.2	-38.1	23.1	0.00e+00	0	34	0	572522496	48	5793
2026-01-08 20:20:17.63	11.44	15.37	-37.8	-38.8	22.5	0.00e+00	0	34	0	578813952	48	6263
2026-01-08 20:20:20.65	10.80	15.37	-37.7	-38.7	22.7	0.00e+00	0	34	0	584056832	48	6178
2026-01-08 20:20:23.68	10.15	15.37	-37.3	-38.2	23.0	0.00e+00	0	34	0	590348288	48	5861
2026-01-08 20:20:26.71	9.50	15.37	-36.9	-37.8	23.2	0.00e+00	0	34	0	595591168	48	5608
2026-01-08 20:20:29.74	8.85	15.37	-37.0	-37.9	23.2	0.00e+00	0	34	0	600834048	48	5674
2026-01-08 20:20:32.76	8.20	15.36	-37.1	-38.0	23.1	0.00e+00	0	34	0	607125504	48	5740
2026-01-08 20:20:35.79	7.55	15.35	-37.7	-38.7	22.6	0.00e+00	0	34	0	612368384	48	6238
2026-01-08 20:20:38.82	6.91	15.33	-38.1	-39.1	22.3	0.00e+00	0	34	0	618659840	48	6537
2026-01-08 20:20:41.84	6.26	15.31	-38.1	-39.1	22.2	0.00e+00	0	34	0	623902720	48	6502
2026-01-08 20:20:44.87	5.62	15.29	-37.8	-38.8	22.5	0.00e+00	0	34	0	629145600	48	6316
2026-01-08 20:20:47.89	4.97	15.26	-37.5	-38.5	22.9	0.00e+00	0	34	0	635437056	48	6060
2026-01-08 20:20:50.92	4.33	15.23	-37.2	-38.1	23.2	0.00e+00	0	34	0	640679936	48	5803
2026-01-08 20:20:53.95	3.69	15.20	-37.3	-38.2	23.0	0.00e+00	0	34	0	646971392	48	5882
2026-01-08 20:20:56.97	3.05	15.16	-37.5	-38.5	22.8	0.00e+00	0	34	0	652214272	48	6084
2026-01-08 20:21:00.01	2.41	15.12	-37.0	-37.9	23.3	0.00e+00	0	34	0	658505728	48	5693
2026-01-08 20:21:03.03	1.77	15.08	-36.6	-37.5	23.6	0.00e+00	0	34	0	663748608	46	6072
2026-01-08 20:21:06.06	1.14	15.03	-37.0	-38.0	23.3	0.00e+00	0	34	0	668991488	46	6395
2026-01-08 20:21:09.09	0.50	14.98	-37.1	-38.1	23.2	0.00e+00	0	34	0	675282944	46	6478
2026-01-08 20:21:12.12	359.87	14.92	-37.5	-38.5	22.8	0.00e+00	0	34	0	680525824	46	6816
2026-01-08 20:21:15.15	359.25	14.87	-37.8	-38.8	22.6	0.00e+00	0	34	0	686817280	48	6267
2026-01-08 20:21:18.17	358.62	14.80	-38.0	-39.0	22.4	0.00e+00	0	34	0	692060160	48	6436
2026-01-08 20:21:21.19	358.00	14.74	-37.6	-38.6	22.6	0.00e+00	0	34	0	697303040	48	6138
2026-01-08 20:21:24.22	357.38	14.67	-36.8	-37.7	23.5	0.00e+00	0	34	0	703594496	46	6231
2026-01-08 20:21:27.24	356.76	14.60	-36.8	-37.7	23.4	0.00e+00	0	34	0	708837376	46	6208
2026-01-08 20:21:30.27	356.15	14.53	-37.2	-38.1	23.1	0.00e+00	0	34	0	715128832	46	6503
2026-01-08 20:21:33.30	355.54	14.45	-36.7	-37.6	23.5	0.00e+00	0	34	0	720371712	46	6140
2026-01-08 20:21:36.33	354.93	14.37	-37.2	-38.1	23.0	0.00e+00	0	34	0	725614592	46	6514
2026-01-08 20:21:39.35	354.33	14.29	-37.4	-38.3	23.0	0.00e+00	0	34	0	731906048	46	6659
2026-01-08 20:21:42.38	353.73	14.20	-37.5	-38.5	22.8	0.00e+00	0	34	0	737148928	46	6798
2026-01-08 20:21:45.41	353.13	14.11	-37.6	-38.6	22.7	0.00e+00	0	34	0	743440384	48	6167
2026-01-08 20:21:48.44	352.54	14.02	-37.9	-39.0	22.5	0.00e+00	0	34	0	748683264	48	6396
2026-01-08 20:21:51.47	351.95	13.93	-37.6	-38.6	22.9	0.00e+00	0	34	0	754974720	48	6138
2026-01-08 20:21:54.50	351.36	13.83	-37.5	-38.5	22.8	0.00e+00	0	34	0	760217600	48	6035
2026-01-08 20:21:57.53	350.78	13.73	-37.5	-38.5	22.7	0.00e+00	0	34	0	765460480	48	6038
2026-01-08 20:22:00.56	350.20	13.63	-37.3	-38.2	23.1	0.00e+00	0	34	0	771751936	48	5880
2026-01-08 20:22:03.58	349.63	13.53	-36.8	-37.7	23.5	0.00e+00	0	34	0	776994816	48	5543
2026-01-08 20:22:06.61	349.06	13.42	-36.5	-37.4	23.6	0.00e+00	0	34	0	783286272	46	5972
2026-01-08 20:22:09.63	348.49	13.31	-37.2	-38.1	23.0	0.00e+00	0	34	0	788529152	46	6496
2026-01-08 20:22:12.66	347.93	13.20	-37.4	-38.4	22.7	0.00e+00	0	34	0	793772032	46	6705
2026-01-08 20:22:15.69	347.38	13.09	-38.0	-39.1	22.3	0.00e+00	0	34	0	800063488	48	6468
2026-01-08 20:22:18.71	346.82	12.97	-38.2	-39.3	22.1	0.00e+00	0	34	0	805306368	48	6654
2026-01-08 20:22:21.74	346.28	12.85	-38.0	-39.1	22.2	0.00e+00	0	34	0	811597824	48	6481
2026-01-08 20:22:24.77	345.73	12.73	-38.2	-39.2	22.1	0.00e+00	0	34	0	816840704	48	6593
2026-01-08 20:22:27.80	345.19	12.61	-38.1	-39.1	22.1	0.00e+00	0	34	0	822083584	48	6532
2026-01-08 20:22:30.83	344.66	12.49	-38.2	-39.3	22.0	0.00e+00	0	34	0	828375040	48	6633
2026-01-08 20:22:33.86	344.13	12.36	-38.1	-39.2	22.2	0.00e+00	0	34	0	833617920	48	6560
2026-01-08 20:22:36.88	343.60	12.24	-38.2	-39.2	22.2	0.00e+00	0	34	0	839909376	48	6563
2026-01-08 20:22:39.91	343.08	12.11	-38.3	-39.4	21.8	0.00e+00	0	34	0	845152256	48	6727
2026-01-08 20:22:42.94	342.57	11.98	-37.9	-38.8	22.4	0.00e+00	0	34	0	851443712	48	6311
2026-01-08 20:22:45.96	342.06	11.85	-37.8	-38.8	22.5	0.00e+00	0	34	0	856686592	48	6263
2026-01-08 20:22:48.99	341.55	11.71	-38.5	-39.6	21.7	0.00e+00	0	34	0	861929472	48	6892
2026-01-08 20:22:52.02	341.05	11.58	-39.3	-40.5	21.0	0.00e+00	0	34	0	868220928	50	6842
2026-01-08 20:22:55.05	340.55	11.44	-39.1	-40.3	21.2	0.00e+00	0	34	0	873463808	50	6665
2026-01-08 20:22:58.08	340.06	11.30	-38.5	-39.6	21.8	0.00e+00	0	34	0	879755264	50	6163
2026-01-08 20:23:01.10	339.57	11.17	-39.2	-40.4	21.2	0.00e+00	0	34	0	884998144	50	6700
2026-01-08 20:23:04.13	339.08	11.03	-40.4	-41.9	19.7	0.00e+00	0	34	0	890241024	52	7105
2026-01-08 20:23:07.16	338.61	10.89	-41.5	-43.4	18.4	0.00e+00	0	34	0	896532480	54	7527
2026-01-08 20:23:10.19	338.13	10.74	-41.1	-42.8	18.9	0.00e+00	0	34	0	901775360	54	7033
2026-01-08 20:23:13.22	337.66	10.60	-40.9	-42.5	19.2	0.00e+00	0	34	0	908066816	54	6806
2026-01-08 20:23:16.25	337.20	10.46	-40.7	-42.2	19.4	0.00e+00	0	34	0	913309696	54	6569
2026-01-08 20:23:19.27	336.74	10.31	-39.9	-41.3	20.4	0.00e+00	0	34	0	919601152	54	5914
2026-01-08 20:23:22.30	336.28	10.16	-39.6	-40.8	20.7	0.00e+00	0	34	0	924844032	52	6315
2026-01-08 20:23:25.33	335.83	10.02	-39.8	-41.1	20.5	0.00e+00	0	34	0	930086912	52	6492
2026-01-08 20:23:28.36	335.39	9.87	-39.6	-40.9	20.6	0.00e+00	0	34	0	936378368	52	6319
2026-01-08 20:23:31.39	334.94	9.72	-39.2	-40.4	21.0	0.00e+00	0	34	0	941621248	52	6009
2026-01-08 20:23:34.41	334.51	9.57	-39.0	-40.2	21.2	0.00e+00	0	34	0	947912704	52	5844
2026-01-08 20:23:37.44	334.08	9.42	-39.1	-40.3	21.2	0.00e+00	0	34	0	953155584	52	5916
2026-01-08 20:23:40.47	333.65	9.27	-39.2	-40.4	21.0	0.00e+00	0	34	0	958398464	52	5983
2026-01-08 20:23:43.50	333.22	9.12	-39.4	-40.7	20.7	0.00e+00	0	34	0	964689920	52	6204
2026-01-08 20:23:46.53	332.80	8.97	-39.6	-40.9	20.5	0.00e+00	0	34	0	969932800	52	6357
2026-01-08 20:23:49.55	332.39	8.82	-39.6	-40.8	20.6	0.00e+00	0	34	0	976224256	52	6289
2026-01-08 20:23:52.58	331.98	8.66	-39.2	-40.4	20.8	0.00e+00	0	34	0	981467136	52	6017
2026-01-08 20:23:55.61	331.58	8.51	-39.3	-40.5	20.9	0.00e+00	0	34	0	987758592	52	6050
2026-01-08 20:23:58.63	331.17	8.36	-39.1	-40.3	21.1	0.00e+00	0	34	0	993001472	52	5923
2026-01-08 20:24:01.66	330.78	8.20	-38.6	-39.7	21.6	0.00e+00	0	34	0	998244352	50	6207
2026-01-08 20:24:04.69	330.38	8.05	-37.8	-38.9	22.3	0.00e+00	0	34	0	1004535808	50	5634
2026-01-08 20:24:07.71	330.00	7.89	-37.8	-38.8	22.3	0.00e+00	0	34	0	1009778688	48	6266
2026-01-08 20:24:10.74	329.61	7.74	-38.3	-39.4	21.8	0.00e+00	0	34	0	1016070144	48	6699
2026-01-08 20:24:13.77	329.23	7.58	-38.1	-39.2	21.9	0.00e+00	0	34	0	1021313024	48	6585
2026-01-08 20:24:16.79	328.86	7.43	-37.9	-38.9	22.2	0.00e+00	0	34	0	1026555904	48	6353
2026-01-08 20:24:19.82	328.49	7.27	-37.9	-38.9	22.0	0.00e+00	0	34	0	1032847360	48	6388
2026-01-08 20:24:22.85	328.12	7.11	-38.5	-39.7	21.4	0.00e+00	0	34	0	1038090240	48	6931
2026-01-08 20:24:25.88	327.75	6.96	-38.4	-39.5	21.6	0.00e+00	0	34	0	1044381696	48	6836
2026-01-08 20:24:28.90	327.40	6.80	-38.7	-39.9	21.3	0.00e+00	0	34	0	1049624576	48	7144
2026-01-08 20:24:31.93	327.04	6.65	-38.9	-40.0	21.2	0.00e+00	0	34	0	1054867456	50	6449
2026-01-08 20:24:34.96	326.69	6.49	-38.8	-39.9	21.2	0.00e+00	0	34	0	1061158912	50	6363
2026-01-08 20:24:37.98	326.34	6.33	-38.9	-40.1	21.0	0.00e+00	0	34	0	1066401792	50	6502
2026-01-08 20:24:41.01	326.00	6.18	-38.7	-39.8	21.3	0.00e+00	0	34	0	1072693248	50	6292
2026-01-08 20:24:44.04	325.66	6.02	-38.6	-39.7	21.3	0.00e+00	0	34	0	1077936128	50	6206
2026-01-08 20:24:47.07	325.32	5.86	-38.3	-39.4	21.5	0.00e+00	0	34	0	1084227584	50	6009
2026-01-08 20:24:50.10	324.99	5.71	-38.2	-39.3	21.2	0.00e+00	0	34	0	1089470464	50	5940
2026-01-08 20:24:53.12	324.66	5.55	-38.3	-39.4	21.5	0.00e+00	0	34	0	1094713344	50	6031
2026-01-08 20:24:56.15	324.33	5.39	-38.6	-39.8	21.2	0.00e+00	0	34	0	1101004800	50	6269
2026-01-08 20:24:59.18	324.01	5.24	-39.2	-40.5	20.6	0.00e+00	0	34	0	1106247680	50	6797
2026-01-08 20:25:02.21	323.69	5.08	-39.6	-40.9	20.2	0.00e+00	0	34	0	1112539136	50	7162
2026-01-08 20:25:05.23	323.38	4.92	-39.4	-40.7	20.4	0.00e+00	0	34	0	1117782016	52	6187
2026-01-08 20:25:08.26	323.06	4.77	-39.1	-40.3	20.8	0.00e+00	0	34	0	1123024896	52	5928
2026-01-08 20:25:11.29	322.76	4.61	-38.5	-39.7	21.3	0.00e+00	0	34	0	1129316352	50	6183
2026-01-08 20:25:14.32	322.45	4.46	-38.4	-39.5	21.3	0.00e+00	0	34	0	1134559232	50	6074
2026-01-08 20:25:17.35	322.15	4.30	-38.4	-39.5	21.4	0.00e+00	0	34	0	1140850688	50	6075
2026-01-08 20:25:20.37	321.85	4.14	-38.7	-39.9	20.9	0.00e+00	0	34	0	1146093568	50	6322
2026-01-08 20:25:23.40	321.56	3.99	-39.3	-40.6	20.3	0.00e+00	0	34	0	1152385024	50	6911
2026-01-08 20:25:26.43	321.27	3.83	-39.8	-41.2	19.7	0.00e+00	0	34	0	1157627904	52	6594
2026-01-08 20:25:29.46	320.98	3.68	-40.3	-41.8	19.1	0.00e+00	0	34	0	1162870784	52	7017
2026-01-08 20:25:32.48	320.69	3.52	-40.5	-42.0	18.9	0.00e+00	0	34	0	1169162240	52	7227
2026-01-08 20:25:35.51	320.41	3.37	-40.5	-42.1	18.9	0.00e+00	0	34	0	1174405120	52	7287
2026-01-08 20:25:38.54	320.13	3.21	-40.4	-42.0	18.9	0.00e+00	0	34	0	1180696576	52	7195
2026-01-08 20:25:41.56	319.86	3.06	-40.2	-41.7	19.1	0.00e+00	0	34	0	1185939456	52	6996
2026-01-08 20:25:44.59	319.58	2.91	-48.1	-63.3	3.6	1.51e+00	0	34	104	1188036608	60	52794
2026-01-08 20:25:47.61	319.31	2.75	-48.5	-63.7	3.6	1.51e+00	0	34	104	1188036608	60	55140
2026-01-08 20:25:50.64	319.04	2.60	-48.5	-63.7	3.6	1.51e+00	0	34	104	1188036608	60	55476
2026-01-08 20:25:53.67	318.78	2.45	-48.3	-63.7	3.6	1.51e+00	0	34	104	1188036608	60	55178
2026-01-08 20:25:56.70	318.52	2.29	-48.4	-63.7	3.6	1.51e+00	0	34	104	1188036608	60	55051
2026-01-08 20:25:59.73	318.26	2.14	-48.6	-63.8	3.6	1.51e+00	0	34	104	1188036608	60	55896
2026-01-08 20:26:02.76	318.00	1.99	-48.5	-63.7	3.6	1.51e+00	0	34	104	1188036608	60	55274
2026-01-08 20:26:05.79	317.75	1.84	-48.5	-63.6	3.6	1.51e+00	0	34	104	1188036608	60	54866
2026-01-08 20:26:08.82	317.50	1.68	-48.5	-63.6	3.6	1.51e+00	0	34	104	1188036608	60	54782
2026-01-08 20:26:11.84	317.25	1.53	-48.4	-63.7	3.6	1.51e+00	0	34	104	1188036608	60	55028
2026-01-08 20:26:14.87	317.01	1.38	-48.4	-63.6	3.6	1.51e+00	0	34	104	1188036608	60	54944
2026-01-08 20:26:17.90	316.76	1.23	-48.4	-63.6	3.6	1.51e+00	0	34	104	1188036608	60	54616
2026-01-08 20:26:20.93	316.52	1.08	-48.4	-63.6	3.6	1.51e+00	0	34	104	1188036608	60	54779
2026-01-08 20:26:23.96	316.29	0.93	-48.4	-63.6	3.6	1.51e+00	0	34	104	1188036608	60	54535
2026-01-08 20:26:26.99	316.05	0.78	-48.4	-63.6	3.6	1.51e+00	0	34	104	1188036608	60	54760
2026-01-08 20:26:30.02	315.82	0.63	-48.4	-63.6	3.6	1.51e+00	0	34	104	1188036608	60	54720
2026-01-08 20:26:33.05	315.59	0.48	-48.4	-63.6	3.6	1.51e+00	0	34	104	1188036608	60	54587
2026-01-08 20:26:36.08	315.36	0.33	-48.4	-63.6	3.6	1.51e+00	0	34	104	1188036608	60	54496
2026-01-08 20:26:39.11	315.13	0.18	-48.4	-63.5	3.6	1.51e+00	0	34	104	1188036608	60	54367
2026-01-08 20:26:42.14	314.91	0.03	-48.4	-63.6	3.6	1.51e+00	0	34	104	1188036608	60	54945

#Closed at: 2026-01-08 20:26:44
#Recorded file [1188 MB]: D:/lorett/data/35029_260109_081408.dat