passes_logs/2026/01/08/R4.6S_Anadyr/R4.6S_Anadyr__20260108_090933_TY-39_rec.log

#Pass ID: 20260108_090933_TY-39
#Satellite: TY-39
#Configuration: TY-39
#almurnet v.1.7.20251203
#Start time: 2026-01-08 09:09:38

#Version: 2.2.20231116
#Station: R4.6S_Anadyr
#Location: 177.4865 lon 64.73178 lat
#TLE: 1 51832U 22019J   26005.60812338  .00003126  00000-0  14986-3 0  9990
#TLE: 2 51832  97.3660  72.5273 0010440  80.2600 279.9813 15.19590096213104

#Time	Az	El	Level	Level2	SNR	BER	BlckErr	Temp	State	Recorded	gain1	gain2
2026-01-08 09:09:38.28	169.16	0.29	-48.3	-58.9	3.5	8.46e-01	0	30	0	0	60	31860
2026-01-08 09:09:41.31	169.22	0.48	-48.9	-51.3	3.6	0.00e+00	0	32	104	0	60	45102
2026-01-08 09:09:44.34	169.28	0.68	-48.7	-51.2	3.6	0.00e+00	0	32	104	0	60	44371
2026-01-08 09:09:47.37	169.34	0.88	-48.4	-50.9	3.6	0.00e+00	0	32	104	0	60	42868
2026-01-08 09:09:50.40	169.41	1.08	-47.5	-50.0	3.6	0.00e+00	0	32	104	0	60	38787
2026-01-08 09:09:53.43	169.47	1.29	-47.5	-50.0	3.6	0.00e+00	0	32	104	0	60	38630
2026-01-08 09:09:56.46	169.53	1.49	-47.5	-50.0	3.6	0.00e+00	0	32	104	0	60	38835
2026-01-08 09:09:59.49	169.60	1.70	-47.5	-50.0	3.6	0.00e+00	0	33	104	0	60	38696
2026-01-08 09:10:02.52	169.66	1.91	-47.5	-50.0	3.6	0.00e+00	0	33	104	0	60	38835
2026-01-08 09:10:05.55	169.73	2.12	-47.5	-50.0	3.6	0.00e+00	0	33	104	0	60	38880
2026-01-08 09:10:08.58	169.80	2.33	-47.5	-50.0	3.6	0.00e+00	0	33	104	0	60	38709
2026-01-08 09:10:11.60	169.86	2.55	-47.5	-50.0	3.6	0.00e+00	0	33	104	0	60	38567
2026-01-08 09:10:14.63	169.93	2.77	-47.5	-50.0	3.6	0.00e+00	0	33	104	0	60	38845
2026-01-08 09:10:17.66	170.01	2.99	-47.5	-50.0	3.6	0.00e+00	0	33	104	0	60	38705
2026-01-08 09:10:20.69	170.08	3.21	-47.5	-49.9	3.6	0.00e+00	0	33	104	0	60	38506
2026-01-08 09:10:23.72	170.15	3.43	-47.5	-50.0	3.6	0.00e+00	0	33	104	0	60	38613
2026-01-08 09:10:26.74	170.23	3.66	-47.5	-50.0	3.6	0.00e+00	0	33	104	0	60	38704
2026-01-08 09:10:29.77	170.30	3.89	-47.5	-50.0	3.6	0.00e+00	0	33	104	0	60	38643
2026-01-08 09:10:32.81	170.38	4.12	-47.6	-50.1	3.6	0.00e+00	0	33	104	0	60	38970
2026-01-08 09:10:35.83	170.46	4.36	-47.6	-50.2	3.6	0.00e+00	0	33	104	0	60	39497
2026-01-08 09:10:38.86	170.54	4.60	-44.2	-44.5	3.6	5.53e-02	1772	34	0	50331648	56	25877
2026-01-08 09:10:41.89	170.62	4.84	-30.7	-31.1	14.8	4.70e-02	0	34	0	201326592	38	15623
2026-01-08 09:10:44.92	170.70	5.08	-29.9	-30.3	15.1	0.00e+00	0	34	0	427819008	36	16035
2026-01-08 09:10:47.94	170.79	5.33	-29.5	-30.0	15.2	0.00e+00	0	34	0	654311424	34	17242
2026-01-08 09:10:50.97	170.87	5.57	-28.8	-29.2	15.6	0.00e+00	0	34	0	880803840	32	17767
2026-01-08 09:10:54.00	170.96	5.83	-28.6	-29.0	15.6	0.00e+00	0	34	0	1115684864	32	17350
2026-01-08 09:10:57.03	171.05	6.08	-28.5	-28.9	15.7	0.00e+00	0	34	0	1342177280	32	17130
2026-01-08 09:11:00.05	171.14	6.34	-28.5	-28.9	15.7	0.00e+00	0	34	0	1568669696	32	17194
2026-01-08 09:11:03.08	171.23	6.60	-28.6	-29.0	15.7	0.00e+00	0	34	0	1795162112	32	17359
2026-01-08 09:11:06.11	171.33	6.87	-28.1	-28.6	15.8	0.00e+00	0	34	0	2021654528	32	16433
2026-01-08 09:11:09.14	171.43	7.14	-28.0	-28.5	15.9	0.00e+00	0	34	0	2248146944	32	16270
2026-01-08 09:11:12.16	171.52	7.41	-27.9	-28.3	15.9	0.00e+00	0	34	0	2474639360	32	16025
2026-01-08 09:11:15.19	171.63	7.69	-27.9	-28.4	15.9	0.00e+00	0	35	0	2701131776	32	16078
2026-01-08 09:11:18.22	171.73	7.97	-27.8	-28.2	16.0	0.00e+00	0	34	0	2927624192	30	17742
2026-01-08 09:11:21.24	171.84	8.26	-27.9	-28.3	16.0	0.00e+00	0	34	0	3154116608	30	17961
2026-01-08 09:11:24.27	171.94	8.55	-27.6	-28.1	16.0	0.00e+00	0	35	0	3380609024	30	17498
2026-01-08 09:11:27.30	172.05	8.85	-27.5	-27.9	16.1	0.00e+00	0	35	0	3607101440	30	17121
2026-01-08 09:11:30.32	172.17	9.14	-27.3	-27.8	16.1	0.00e+00	0	35	0	3833593856	30	16831
2026-01-08 09:11:33.35	172.28	9.45	-27.1	-27.6	16.2	0.00e+00	0	35	0	4068474880	30	16462
2026-01-08 09:11:36.38	172.40	9.76	-27.0	-27.5	16.2	0.00e+00	0	35	0	4286578688	30	16357
2026-01-08 09:11:39.41	172.52	10.07	-27.0	-27.4	16.2	0.00e+00	0	35	0	4521459712	30	16199
2026-01-08 09:11:42.44	172.65	10.39	-26.9	-27.4	16.2	0.00e+00	0	35	0	4739563520	30	16138
2026-01-08 09:11:45.47	172.77	10.72	-26.7	-27.2	16.2	0.00e+00	0	35	0	4974444544	28	17636
2026-01-08 09:11:48.49	172.90	11.05	-26.5	-27.0	16.4	0.00e+00	0	35	0	5200936960	28	17257
2026-01-08 09:11:51.52	173.04	11.39	-26.5	-27.0	16.4	0.00e+00	0	35	0	5427429376	28	17323
2026-01-08 09:11:54.54	173.18	11.73	-26.4	-26.9	16.3	0.00e+00	0	35	0	5653921792	28	17074
2026-01-08 09:11:57.57	173.32	12.08	-26.3	-26.7	16.4	0.00e+00	0	35	0	5880414208	28	16792
2026-01-08 09:12:00.60	173.46	12.43	-26.1	-26.5	16.5	0.00e+00	0	35	0	6106906624	28	16406
2026-01-08 09:12:03.63	173.61	12.80	-26.1	-26.6	16.4	0.00e+00	0	35	0	6333399040	28	16449
2026-01-08 09:12:06.65	173.76	13.17	-25.9	-26.4	16.5	0.00e+00	0	35	0	6559891456	28	16095
2026-01-08 09:12:09.68	173.92	13.54	-25.8	-26.2	16.5	0.00e+00	0	35	0	6786383872	26	17755
2026-01-08 09:12:12.71	174.08	13.93	-25.6	-26.1	16.6	0.00e+00	0	35	0	7012876288	26	17411
2026-01-08 09:12:15.74	174.25	14.32	-25.7	-26.2	16.5	0.00e+00	0	35	0	7239368704	26	17671
2026-01-08 09:12:18.76	174.42	14.72	-25.6	-26.0	16.6	0.00e+00	0	35	0	7474249728	26	17367
2026-01-08 09:12:21.79	174.60	15.13	-25.3	-25.7	16.6	0.00e+00	0	35	0	7692353536	26	16785
2026-01-08 09:12:24.81	174.78	15.55	-25.2	-25.6	16.7	0.00e+00	0	35	0	7927234560	26	16557
2026-01-08 09:12:27.84	174.97	15.98	-25.0	-25.5	16.7	0.00e+00	0	35	0	8145338368	26	16285
2026-01-08 09:12:30.87	175.17	16.42	-24.9	-25.4	16.7	0.00e+00	0	35	0	8380219392	26	16119
2026-01-08 09:12:33.90	175.37	16.87	-24.8	-25.2	16.7	0.00e+00	0	35	0	8606711808	26	15829
2026-01-08 09:12:36.93	175.58	17.33	-24.6	-25.1	16.8	0.00e+00	0	35	0	8833204224	24	17421
2026-01-08 09:12:39.96	175.79	17.80	-24.6	-25.1	16.8	0.00e+00	0	35	0	9059696640	24	17471
2026-01-08 09:12:42.99	176.01	18.28	-24.4	-24.8	16.8	0.00e+00	0	35	0	9286189056	24	16969
2026-01-08 09:12:46.02	176.25	18.77	-24.3	-24.8	16.8	0.00e+00	0	35	0	9512681472	24	16827
2026-01-08 09:12:49.05	176.49	19.28	-24.1	-24.5	16.8	0.00e+00	0	35	0	9739173888	24	16416
2026-01-08 09:12:52.08	176.73	19.80	-24.0	-24.5	16.8	0.00e+00	0	35	0	9965666304	24	16280
2026-01-08 09:12:55.11	176.99	20.33	-23.9	-24.3	16.9	0.00e+00	0	35	0	10200547328	24	16018
2026-01-08 09:12:58.14	177.26	20.87	-23.8	-24.2	16.9	0.00e+00	0	35	0	10418651136	22	17716
2026-01-08 09:13:01.17	177.54	21.44	-23.5	-24.0	16.9	0.00e+00	0	35	0	10653532160	22	17276
2026-01-08 09:13:04.20	177.83	22.01	-23.5	-23.9	16.9	0.00e+00	0	35	0	10880024576	22	17157
2026-01-08 09:13:07.23	178.13	22.60	-23.4	-23.8	16.9	0.00e+00	0	35	0	11106516992	22	16960
2026-01-08 09:13:10.26	178.44	23.21	-23.2	-23.6	17.0	0.00e+00	0	35	0	11333009408	22	16545
2026-01-08 09:13:13.29	178.77	23.84	-23.1	-23.5	17.0	0.00e+00	0	35	0	11559501824	22	16387
2026-01-08 09:13:16.32	179.12	24.48	-22.8	-23.3	16.9	0.00e+00	0	35	0	11785994240	22	15946
2026-01-08 09:13:19.35	179.47	25.15	-22.8	-23.3	17.0	0.00e+00	0	35	0	12012486656	22	15879
2026-01-08 09:13:22.38	179.85	25.83	-22.5	-22.9	17.1	0.00e+00	0	35	0	12238979072	20	17177
2026-01-08 09:13:25.41	180.24	26.54	-22.5	-23.0	17.0	0.00e+00	0	35	0	12465471488	20	17203
2026-01-08 09:13:28.43	180.66	27.26	-22.3	-22.8	17.0	0.00e+00	0	35	0	12691963904	20	16864
2026-01-08 09:13:31.45	181.09	28.01	-22.1	-22.5	17.0	0.00e+00	0	35	0	12926844928	20	16404
2026-01-08 09:13:34.48	181.54	28.78	-22.0	-22.5	17.1	0.00e+00	0	35	0	13144948736	20	16333
2026-01-08 09:13:37.50	182.02	29.57	-21.8	-22.2	17.1	0.00e+00	0	35	0	13379829760	20	15845
2026-01-08 09:13:40.53	182.53	30.39	-21.6	-22.1	17.1	0.00e+00	0	35	0	13597933568	18	17468
2026-01-08 09:13:43.56	183.06	31.24	-21.4	-21.9	17.1	0.00e+00	0	35	0	13832814592	18	17055
2026-01-08 09:13:46.59	183.63	32.11	-21.3	-21.8	17.2	0.00e+00	0	36	0	14059307008	18	16874
2026-01-08 09:13:49.62	184.23	33.02	-21.0	-21.4	17.2	0.00e+00	0	35	0	14285799424	18	16201
2026-01-08 09:13:52.65	184.86	33.95	-21.1	-21.5	17.2	0.00e+00	0	35	0	14512291840	18	16360
2026-01-08 09:13:55.67	185.54	34.91	-20.7	-21.2	17.1	0.00e+00	0	36	0	14738784256	16	17673
2026-01-08 09:13:58.69	186.25	35.90	-20.6	-21.0	17.2	0.00e+00	0	36	0	14965276672	16	17344
2026-01-08 09:14:01.72	187.02	36.92	-20.4	-20.8	17.2	0.00e+00	0	36	0	15191769088	16	16973
2026-01-08 09:14:04.75	187.84	37.97	-20.1	-20.6	17.2	0.00e+00	0	36	0	15418261504	16	16462
2026-01-08 09:14:07.78	188.71	39.06	-20.1	-20.5	17.2	0.00e+00	0	36	0	15644753920	16	16416
2026-01-08 09:14:10.81	189.65	40.19	-19.8	-20.3	17.2	0.00e+00	0	36	0	15871246336	16	15972
2026-01-08 09:14:13.84	190.66	41.34	-19.6	-20.0	17.3	0.00e+00	0	36	0	16097738752	14	17370
2026-01-08 09:14:16.87	191.75	42.53	-19.5	-20.0	17.2	0.00e+00	0	36	0	16324231168	14	17236
2026-01-08 09:14:19.90	192.93	43.75	-19.3	-19.7	17.3	0.00e+00	0	36	0	16559112192	14	16766
2026-01-08 09:14:22.93	194.20	44.99	-19.2	-19.6	17.3	0.00e+00	0	36	0	16785604608	14	16564
2026-01-08 09:14:25.96	195.58	46.27	-18.9	-19.4	17.2	0.00e+00	0	36	0	17012097024	14	16118
2026-01-08 09:14:28.99	197.08	47.58	-18.8	-19.3	17.3	0.00e+00	0	36	0	17238589440	14	15971
2026-01-08 09:14:32.02	198.72	48.90	-18.6	-19.1	17.3	0.00e+00	0	36	0	17465081856	12	17513
2026-01-08 09:14:35.05	200.51	50.25	-18.4	-18.9	17.2	0.00e+00	0	36	0	17691574272	12	17106
2026-01-08 09:14:38.08	202.47	51.61	-18.4	-18.9	17.2	0.00e+00	0	36	0	17918066688	12	17034
2026-01-08 09:14:41.10	204.61	52.97	-18.2	-18.7	17.3	0.00e+00	0	36	0	18144559104	12	16657
2026-01-08 09:14:44.13	206.97	54.33	-18.1	-18.6	17.3	0.00e+00	0	36	0	18371051520	12	16513
2026-01-08 09:14:47.16	209.57	55.68	-18.0	-18.5	17.3	0.00e+00	0	36	0	18597543936	12	16351
2026-01-08 09:14:50.19	212.43	57.00	-17.9	-18.4	17.3	0.00e+00	0	36	0	18824036352	12	16095
2026-01-08 09:14:53.22	215.58	58.29	-17.9	-18.3	17.3	0.00e+00	0	36	0	19050528768	12	15973
2026-01-08 09:14:56.24	219.03	59.51	-17.7	-18.2	17.3	0.00e+00	0	36	0	19277021184	10	17684
2026-01-08 09:14:59.27	222.83	60.65	-17.5	-18.0	17.3	0.00e+00	0	36	0	19503513600	10	17297
2026-01-08 09:15:02.30	226.97	61.70	-17.5	-17.9	17.3	0.00e+00	0	36	0	19738394624	10	17142
2026-01-08 09:15:05.33	231.47	62.63	-17.5	-17.9	17.4	0.00e+00	0	36	0	19964887040	10	17179
2026-01-08 09:15:08.36	236.29	63.41	-17.4	-17.9	17.3	0.00e+00	0	36	0	20191379456	10	17056
2026-01-08 09:15:11.39	241.41	64.02	-17.5	-17.9	17.3	0.00e+00	0	36	0	20417871872	10	17121
2026-01-08 09:15:14.41	246.74	64.45	-17.4	-17.9	17.4	0.00e+00	0	36	0	20644364288	10	17039
2026-01-08 09:15:17.44	252.25	64.67	-17.3	-17.8	17.2	0.00e+00	0	36	0	20870856704	10	16824
2026-01-08 09:15:20.47	257.82	64.68	-17.3	-17.8	17.3	0.00e+00	0	36	0	21097349120	10	16916
2026-01-08 09:15:23.50	263.34	64.49	-17.3	-17.8	17.3	0.00e+00	0	36	0	21323841536	10	16881
2026-01-08 09:15:26.52	268.70	64.09	-17.4	-17.9	17.3	0.00e+00	0	36	0	21550333952	10	17081
2026-01-08 09:15:29.55	273.85	63.51	-17.4	-17.8	17.3	0.00e+00	0	36	0	21776826368	10	16935
2026-01-08 09:15:32.58	278.71	62.75	-17.5	-17.9	17.3	0.00e+00	0	36	0	22003318784	10	17163
2026-01-08 09:15:35.61	283.25	61.84	-17.4	-17.9	17.3	0.00e+00	0	36	0	22229811200	10	17073
2026-01-08 09:15:38.63	287.42	60.82	-17.6	-18.1	17.3	0.00e+00	0	36	0	22456303616	10	17442
2026-01-08 09:15:41.66	291.27	59.69	-17.6	-18.1	17.3	0.00e+00	0	36	0	22691184640	10	17474
2026-01-08 09:15:44.69	294.77	58.48	-17.8	-18.2	17.3	0.00e+00	0	36	0	22909288448	10	17755
2026-01-08 09:15:47.72	297.96	57.20	-17.9	-18.3	17.3	0.00e+00	0	36	0	23144169472	10	17978
2026-01-08 09:15:50.74	300.85	55.89	-17.9	-18.4	17.3	0.00e+00	0	36	0	23362273280	10	18105
2026-01-08 09:15:53.77	303.48	54.55	-18.1	-18.5	17.3	0.00e+00	0	36	0	23597154304	10	18313
2026-01-08 09:15:56.79	305.87	53.20	-18.3	-18.7	17.3	0.00e+00	0	36	0	23823646720	10	18819
2026-01-08 09:15:59.82	308.04	51.84	-18.4	-18.9	17.3	0.00e+00	0	36	0	24050139136	10	19211
2026-01-08 09:16:02.85	310.03	50.48	-18.6	-19.1	17.2	0.00e+00	0	36	0	24276631552	10	19535
2026-01-08 09:16:05.88	311.84	49.14	-18.7	-19.1	17.3	0.00e+00	0	36	0	24503123968	10	19699
2026-01-08 09:16:08.90	313.49	47.82	-18.9	-19.3	17.3	0.00e+00	0	36	0	24729616384	12	17997
2026-01-08 09:16:11.93	315.01	46.52	-19.0	-19.4	17.3	0.00e+00	0	36	0	24956108800	12	18154
2026-01-08 09:16:14.96	316.40	45.24	-19.2	-19.7	17.3	0.00e+00	0	36	0	25182601216	12	18728
2026-01-08 09:16:17.99	317.69	43.99	-19.4	-19.8	17.3	0.00e+00	0	36	0	25409093632	12	19046
2026-01-08 09:16:21.02	318.88	42.77	-19.5	-20.0	17.2	0.00e+00	0	36	0	25635586048	12	19372
2026-01-08 09:16:24.04	319.98	41.59	-19.7	-20.2	17.2	0.00e+00	0	36	0	25870467072	14	17654
2026-01-08 09:16:27.07	321.00	40.43	-19.8	-20.3	17.2	0.00e+00	0	36	0	26088570880	14	17870
2026-01-08 09:16:30.09	321.94	39.31	-20.1	-20.6	17.2	0.00e+00	0	36	0	26323451904	14	18483
2026-01-08 09:16:33.12	322.83	38.22	-20.2	-20.7	17.2	0.00e+00	0	36	0	26549944320	14	18684
2026-01-08 09:16:36.15	323.66	37.17	-20.3	-20.8	17.2	0.00e+00	0	36	0	26776436736	14	18961
2026-01-08 09:16:39.18	324.43	36.14	-20.6	-21.1	17.2	0.00e+00	0	36	0	27002929152	14	19550
2026-01-08 09:16:42.21	325.15	35.15	-20.7	-21.2	17.2	0.00e+00	0	36	0	27229421568	16	17611
2026-01-08 09:16:45.23	325.83	34.19	-20.9	-21.3	17.2	0.00e+00	0	36	0	27455913984	16	17977
2026-01-08 09:16:48.26	326.47	33.25	-21.1	-21.6	17.2	0.00e+00	0	36	0	27682406400	16	18451
2026-01-08 09:16:51.28	327.08	32.35	-21.2	-21.7	17.1	0.00e+00	0	36	0	27908898816	16	18713
2026-01-08 09:16:54.31	327.65	31.48	-21.4	-21.9	17.1	0.00e+00	0	36	0	28135391232	16	19090
2026-01-08 09:16:57.34	328.19	30.63	-21.5	-22.0	17.1	0.00e+00	0	36	0	28361883648	16	19398
2026-01-08 09:17:00.37	328.70	29.81	-21.8	-22.2	17.1	0.00e+00	0	36	0	28588376064	18	17794
2026-01-08 09:17:03.40	329.18	29.01	-21.9	-22.3	17.1	0.00e+00	0	36	0	28814868480	18	18010
2026-01-08 09:17:06.43	329.64	28.24	-22.0	-22.5	17.0	0.00e+00	0	36	0	29041360896	18	18328
2026-01-08 09:17:09.46	330.08	27.49	-22.2	-22.7	17.1	0.00e+00	0	36	0	29276241920	18	18774
2026-01-08 09:17:12.48	330.50	26.76	-22.3	-22.8	17.0	0.00e+00	0	36	0	29494345728	18	18955
2026-01-08 09:17:15.51	330.89	26.06	-22.6	-23.0	17.1	0.00e+00	0	36	0	29729226752	18	19480
2026-01-08 09:17:18.54	331.27	25.37	-22.7	-23.2	17.0	0.00e+00	0	36	0	29947330560	18	19824
2026-01-08 09:17:21.56	331.63	24.71	-22.9	-23.4	17.0	0.00e+00	0	36	0	30182211584	20	18125
2026-01-08 09:17:24.59	331.98	24.07	-23.0	-23.5	17.0	0.00e+00	0	36	0	30408704000	20	18285
2026-01-08 09:17:27.62	332.31	23.44	-23.2	-23.6	17.0	0.00e+00	0	36	0	30635196416	20	18638
2026-01-08 09:17:30.65	332.63	22.83	-23.3	-23.8	16.9	0.00e+00	0	36	0	30861688832	20	18865
2026-01-08 09:17:33.68	332.93	22.24	-23.5	-24.0	16.9	0.00e+00	0	36	0	31088181248	20	19354
2026-01-08 09:17:36.71	333.22	21.66	-23.7	-24.1	16.9	0.00e+00	0	36	0	31314673664	20	19699
2026-01-08 09:17:39.74	333.51	21.10	-23.8	-24.2	16.9	0.00e+00	0	36	0	31541166080	22	17779
2026-01-08 09:17:42.77	333.78	20.55	-23.9	-24.4	16.9	0.00e+00	0	36	0	31767658496	22	18040
2026-01-08 09:17:45.79	334.04	20.02	-24.1	-24.6	16.4	0.00e+00	0	36	0	32002539520	22	18558
2026-01-08 09:17:48.82	334.29	19.50	-24.2	-24.7	16.8	0.00e+00	0	36	0	32220643328	22	18795
2026-01-08 09:17:51.84	334.53	18.99	-24.3	-24.8	16.8	0.00e+00	0	36	0	32447135744	22	18990
2026-01-08 09:17:54.87	334.76	18.50	-24.5	-24.9	16.8	0.00e+00	0	36	0	32673628160	22	19233
2026-01-08 09:17:57.90	334.99	18.02	-24.6	-25.1	16.7	0.00e+00	0	36	0	32908509184	22	19556
2026-01-08 09:18:00.93	335.20	17.55	-24.9	-25.4	16.7	0.00e+00	0	36	0	33135001600	24	18040
2026-01-08 09:18:03.96	335.41	17.09	-24.9	-25.4	16.7	0.00e+00	0	36	0	33361494016	24	18020
2026-01-08 09:18:06.98	335.62	16.64	-25.0	-25.5	16.7	0.00e+00	0	36	0	33587986432	24	18355
2026-01-08 09:18:10.01	335.81	16.20	-25.2	-25.6	16.7	0.00e+00	0	36	0	33814478848	24	18618
2026-01-08 09:18:13.04	336.01	15.77	-25.4	-25.8	16.6	0.00e+00	0	36	0	34040971264	24	19028
2026-01-08 09:18:16.07	336.19	15.35	-25.5	-25.9	16.6	0.00e+00	0	36	0	34267463680	24	19261
2026-01-08 09:18:19.10	336.37	14.94	-25.6	-26.1	16.6	0.00e+00	0	36	0	34493956096	24	19602
2026-01-08 09:18:22.12	336.54	14.54	-25.7	-26.2	16.6	0.00e+00	0	36	0	34720448512	26	17638
2026-01-08 09:18:25.15	336.71	14.15	-25.8	-26.3	16.5	0.00e+00	0	36	0	34946940928	26	17877
2026-01-08 09:18:28.18	336.88	13.76	-25.9	-26.4	16.6	0.00e+00	0	36	0	35173433344	26	18049
2026-01-08 09:18:31.21	337.04	13.38	-26.1	-26.6	16.5	0.00e+00	0	36	0	35399925760	26	18458
2026-01-08 09:18:34.23	337.19	13.01	-26.3	-26.8	16.3	0.00e+00	0	36	0	35626418176	26	18863
2026-01-08 09:18:37.26	337.34	12.65	-48.0	-50.5	3.6	0.00e+00	0	36	104	35693527040	60	41186
2026-01-08 09:18:40.28	337.49	12.29	-48.0	-50.5	3.6	0.00e+00	0	36	104	35693527040	60	41075
2026-01-08 09:18:43.31	337.63	11.94	-48.1	-50.6	3.6	0.00e+00	0	36	104	35693527040	60	41732
2026-01-08 09:18:46.34	337.77	11.60	-48.1	-50.6	3.6	0.00e+00	0	36	104	35693527040	60	41719
2026-01-08 09:18:49.37	337.91	11.26	-48.1	-50.6	3.6	0.00e+00	0	36	104	35693527040	60	41596
2026-01-08 09:18:52.40	338.04	10.93	-48.1	-50.6	3.6	0.00e+00	0	36	104	35693527040	60	41624
2026-01-08 09:18:55.43	338.17	10.61	-48.1	-50.6	3.6	0.00e+00	0	35	104	35693527040	60	41509
2026-01-08 09:18:58.46	338.30	10.29	-48.1	-50.6	3.6	0.00e+00	0	36	104	35693527040	60	41509
2026-01-08 09:19:01.49	338.42	9.97	-48.1	-50.6	3.6	0.00e+00	0	36	104	35693527040	60	41487
2026-01-08 09:19:04.52	338.54	9.66	-48.0	-50.5	3.6	0.00e+00	0	36	104	35693527040	60	41187
2026-01-08 09:19:07.54	338.66	9.36	-48.0	-50.5	3.6	0.00e+00	0	36	104	35693527040	60	41120
2026-01-08 09:19:10.57	338.78	9.06	-48.0	-50.6	3.6	0.00e+00	0	36	104	35693527040	60	41331
2026-01-08 09:19:13.60	338.89	8.76	-48.0	-50.5	3.6	0.00e+00	0	35	104	35693527040	60	41077
2026-01-08 09:19:16.63	339.00	8.47	-48.0	-50.5	3.6	0.00e+00	0	36	104	35693527040	60	41209
2026-01-08 09:19:19.65	339.11	8.19	-48.0	-50.5	3.6	0.00e+00	0	36	104	35693527040	60	40891
2026-01-08 09:19:22.68	339.21	7.90	-48.0	-50.5	3.6	0.00e+00	0	36	104	35693527040	60	41060
2026-01-08 09:19:25.71	339.32	7.63	-47.9	-50.4	3.6	0.00e+00	0	35	104	35693527040	60	40692
2026-01-08 09:19:28.73	339.42	7.35	-47.9	-50.4	3.6	0.00e+00	0	35	104	35693527040	60	40566
2026-01-08 09:19:31.76	339.52	7.08	-47.8	-50.2	3.6	0.00e+00	0	35	104	35693527040	60	39830
2026-01-08 09:19:34.79	339.61	6.82	-47.8	-50.3	3.6	0.00e+00	0	36	104	35693527040	60	40256
2026-01-08 09:19:37.82	339.71	6.55	-47.7	-50.2	3.6	0.00e+00	0	35	104	35693527040	60	39790
2026-01-08 09:19:40.84	339.80	6.30	-47.8	-50.3	3.6	0.00e+00	0	35	104	35693527040	60	39866
2026-01-08 09:19:43.87	339.89	6.04	-46.8	-49.3	3.6	0.00e+00	0	35	104	35693527040	60	35558
2026-01-08 09:19:46.89	339.98	5.79	-46.5	-48.9	3.6	0.00e+00	0	36	104	35693527040	60	34278
2026-01-08 09:19:49.92	340.07	5.54	-44.7	-47.2	3.6	0.00e+00	0	35	104	35693527040	60	27957
2026-01-08 09:19:52.95	340.16	5.29	-45.4	-47.8	3.6	0.00e+00	0	35	104	35693527040	60	30230
2026-01-08 09:19:55.97	340.25	5.05	-46.3	-48.8	3.6	0.00e+00	0	35	104	35693527040	60	33692
2026-01-08 09:19:59.00	340.33	4.81	-44.1	-46.6	3.6	0.00e+00	0	35	104	35693527040	60	26284
2026-01-08 09:20:02.03	340.41	4.57	-44.3	-46.8	3.6	0.00e+00	0	36	104	35693527040	60	26769
2026-01-08 09:20:05.05	340.49	4.34	-44.4	-46.9	3.6	0.00e+00	0	35	104	35693527040	60	27006
2026-01-08 09:20:08.08	340.57	4.10	-44.1	-46.6	3.6	0.00e+00	0	35	104	35693527040	60	26297
2026-01-08 09:20:11.11	340.65	3.87	-44.0	-46.5	3.6	0.00e+00	0	35	104	35693527040	60	25969
2026-01-08 09:20:14.13	340.73	3.65	-44.2	-46.7	3.6	0.00e+00	0	35	104	35693527040	60	26634
2026-01-08 09:20:17.16	340.80	3.42	-44.2	-46.6	3.6	0.00e+00	0	35	104	35693527040	60	26326
2026-01-08 09:20:20.19	340.88	3.20	-44.3	-46.7	3.6	0.00e+00	0	35	104	35693527040	60	26513
2026-01-08 09:20:23.22	340.95	2.98	-46.5	-49.0	3.6	0.00e+00	0	35	104	35693527040	60	34612
2026-01-08 09:20:26.25	341.02	2.76	-48.6	-51.1	3.6	0.00e+00	0	35	104	35693527040	60	43904
2026-01-08 09:20:29.28	341.09	2.55	-48.8	-51.3	3.6	0.00e+00	0	35	104	35693527040	60	45095
2026-01-08 09:20:32.31	341.17	2.33	-48.5	-51.1	3.6	0.00e+00	0	35	104	35693527040	60	43716
2026-01-08 09:20:35.34	341.23	2.12	-48.8	-51.3	3.6	0.00e+00	0	35	104	35693527040	60	44751
2026-01-08 09:20:38.37	341.30	1.91	-48.9	-51.4	3.6	0.00e+00	0	35	104	35693527040	60	45398
2026-01-08 09:20:41.40	341.37	1.71	-48.8	-51.3	3.6	0.00e+00	0	35	104	35693527040	60	45106
2026-01-08 09:20:44.42	341.44	1.50	-48.8	-51.3	3.6	0.00e+00	0	35	104	35693527040	60	44757
2026-01-08 09:20:47.45	341.50	1.30	-48.8	-51.3	3.6	0.00e+00	0	35	104	35693527040	60	44993
2026-01-08 09:20:50.47	341.57	1.10	-48.8	-51.3	3.6	0.00e+00	0	35	104	35693527040	60	44754
2026-01-08 09:20:53.50	341.63	0.90	-48.8	-51.3	3.6	0.00e+00	0	35	104	35693527040	60	44967
2026-01-08 09:20:56.53	341.69	0.70	-48.8	-51.2	3.6	0.00e+00	0	35	104	35693527040	60	44613
2026-01-08 09:20:59.56	341.75	0.50	-48.7	-51.2	3.6	0.00e+00	0	35	104	35693527040	60	44707
2026-01-08 09:21:02.59	341.81	0.31	-48.7	-51.2	3.6	0.00e+00	0	35	104	35693527040	60	44723
2026-01-08 09:21:05.62	341.87	0.11	-48.7	-51.2	3.6	0.00e+00	0	35	104	35693527040	60	44623
2026-01-08 09:21:08.65	341.93	-0.08	-48.7	-51.3	3.6	0.00e+00	0	35	104	35693527040	60	44983

#Closed at: 2026-01-08 09:21:09
#Recorded file [35693 MB]: D:/lorett/data/35029_260108_210938.dat