passes_logs/2026/01/08/R4.6S_Anadyr/R4.6S_Anadyr__20260108_153631_NOAA_20_JPSS-1_rec.log

#Pass ID: 20260108_153631_NOAA 20 (JPSS-1)
#Satellite: NOAA 20 (JPSS-1)
#Configuration: NOAA 20
#almurnet v.1.7.20251203
#Start time: 2026-01-08 15:36:34

#Version: 2.2.20231116
#Station: R4.6S_Anadyr
#Location: 177.4865 lon 64.73178 lat
#TLE: 1 43013U 17073A   26008.28148939  .00000118  00000+0  77102-4 0  9999
#TLE: 2 43013  98.7631 309.2920 0001742  49.0100 311.1227 14.19534407421787

#Time	Az	El	Level	Level2	SNR	BER	BlckErr	Temp	State	Recorded	gain1	gain2
2026-01-08 15:36:34.72	22.79	0.21	-48.3	-62.1	3.3	1.54e+00	0	31	0	0	60	45988
2026-01-08 15:36:38.76	22.70	0.45	-48.5	-63.7	3.6	1.51e+00	0	31	104	0	60	55331
2026-01-08 15:36:42.79	22.62	0.69	-48.5	-63.7	3.6	1.51e+00	0	31	104	0	60	55340
2026-01-08 15:36:46.83	22.54	0.93	-48.1	-63.2	3.6	1.51e+00	0	31	104	0	60	52399
2026-01-08 15:36:50.87	22.45	1.18	-47.0	-62.2	3.6	1.51e+00	0	31	104	0	60	46504
2026-01-08 15:36:54.90	22.36	1.43	-47.0	-62.1	3.6	1.51e+00	0	31	104	0	60	46081
2026-01-08 15:36:58.94	22.27	1.68	-47.0	-61.7	3.6	1.51e+00	0	31	104	0	60	44043
2026-01-08 15:37:02.98	22.18	1.93	-47.0	-62.1	3.6	1.51e+00	0	31	104	0	60	46114
2026-01-08 15:37:07.02	22.09	2.18	-47.0	-62.0	3.6	1.51e+00	0	31	104	0	60	45388
2026-01-08 15:37:11.06	22.00	2.44	-46.9	-61.0	3.6	1.51e+00	0	31	104	0	60	40598
2026-01-08 15:37:15.10	21.90	2.70	-46.9	-60.8	3.6	1.51e+00	0	31	104	0	60	39566
2026-01-08 15:37:19.13	21.80	2.96	-46.8	-58.2	4.2	1.48e+00	42	31	104	0	60	29448
2026-01-08 15:37:23.17	21.70	3.22	-44.9	-49.0	12.0	1.64e-03	0	31	0	7340032	60	10142
2026-01-08 15:37:27.21	21.60	3.49	-43.7	-46.7	14.5	7.00e-07	92	31	0	14680064	60	7823
2026-01-08 15:37:31.25	21.49	3.76	-39.1	-40.3	20.5	0.00e+00	0	31	0	19922944	52	5957
2026-01-08 15:37:35.29	21.38	4.03	-40.3	-41.7	19.4	0.00e+00	0	31	0	23068672	54	6243
2026-01-08 15:37:39.33	21.27	4.30	-39.4	-40.7	20.5	0.00e+00	0	31	0	30408704	52	6181
2026-01-08 15:37:43.37	21.16	4.58	-39.0	-40.2	21.1	0.00e+00	92	31	0	37748736	50	6598
2026-01-08 15:37:47.41	21.04	4.86	-38.7	-39.9	21.4	0.00e+00	0	31	0	45088768	50	6324
2026-01-08 15:37:51.45	20.93	5.14	-38.4	-39.5	21.8	0.00e+00	17	31	0	52428800	50	6037
2026-01-08 15:37:55.49	20.81	5.43	-38.4	-39.4	21.9	0.00e+00	90	31	0	60817408	50	6032
2026-01-08 15:37:59.52	20.68	5.71	-38.2	-39.3	22.0	0.00e+00	22	31	0	68157440	50	5929
2026-01-08 15:38:03.56	20.56	6.00	-38.2	-39.3	22.1	0.00e+00	0	31	0	75497472	50	5902
2026-01-08 15:38:07.59	20.43	6.30	-38.3	-39.4	22.0	0.00e+00	27	31	0	82837504	50	6005
2026-01-08 15:38:11.63	20.30	6.60	-38.0	-39.0	22.4	0.00e+00	71	31	0	90177536	50	5747
2026-01-08 15:38:15.67	20.16	6.90	-37.9	-38.9	22.6	0.00e+00	6	31	0	98566144	50	5638
2026-01-08 15:38:19.70	20.03	7.20	-37.9	-38.9	22.6	0.00e+00	7	31	0	105906176	48	6348
2026-01-08 15:38:23.73	19.89	7.51	-37.7	-38.6	22.8	0.00e+00	0	31	0	113246208	48	6173
2026-01-08 15:38:27.77	19.74	7.82	-37.5	-38.5	23.0	0.00e+00	92	31	0	120586240	48	6069
2026-01-08 15:38:31.81	19.59	8.13	-37.7	-38.7	22.8	0.00e+00	67	32	0	128974848	48	6203
2026-01-08 15:38:35.85	19.44	8.45	-37.4	-38.3	23.2	0.00e+00	14	32	0	136314880	48	5929
2026-01-08 15:38:39.88	19.29	8.77	-37.4	-38.3	23.2	0.00e+00	0	31	0	143654912	48	5952
2026-01-08 15:38:43.92	19.13	9.10	-37.4	-38.3	23.3	0.00e+00	92	31	0	150994944	48	5925
2026-01-08 15:38:47.97	18.96	9.43	-37.2	-38.1	23.4	0.00e+00	0	31	0	158334976	48	5811
2026-01-08 15:38:52.01	18.80	9.76	-37.3	-38.2	23.4	0.00e+00	67	32	0	166723584	48	5862
2026-01-08 15:38:56.04	18.62	10.10	-37.3	-38.3	23.3	0.00e+00	18	31	0	174063616	48	5899
2026-01-08 15:39:00.08	18.45	10.44	-37.2	-38.1	23.5	0.00e+00	92	31	0	181403648	48	5791
2026-01-08 15:39:04.12	18.27	10.79	-37.1	-38.0	23.6	0.00e+00	0	31	0	188743680	48	5751
2026-01-08 15:39:08.15	18.08	11.14	-37.1	-38.0	23.7	0.00e+00	69	31	0	197132288	48	5700
2026-01-08 15:39:12.19	17.89	11.50	-37.0	-37.9	23.7	0.00e+00	0	31	0	204472320	48	5658
2026-01-08 15:39:16.23	17.70	11.86	-37.0	-37.9	23.7	0.00e+00	91	31	0	211812352	48	5670
2026-01-08 15:39:20.27	17.50	12.23	-37.1	-38.0	23.7	0.00e+00	23	32	0	219152384	48	5751
2026-01-08 15:39:24.30	17.29	12.60	-36.9	-37.8	23.9	0.00e+00	0	32	0	226492416	48	5571
2026-01-08 15:39:28.34	17.08	12.98	-37.0	-37.9	23.9	0.00e+00	63	31	0	234881024	46	6326
2026-01-08 15:39:32.38	16.86	13.36	-36.8	-37.7	24.0	0.00e+00	92	32	0	242221056	46	6196
2026-01-08 15:39:36.41	16.64	13.75	-36.9	-37.7	24.0	0.00e+00	62	32	0	249561088	46	6218
2026-01-08 15:39:40.45	16.41	14.14	-36.8	-37.7	24.1	0.00e+00	5	32	0	256901120	46	6177
2026-01-08 15:39:44.49	16.17	14.54	-36.8	-37.6	24.1	0.00e+00	92	32	0	265289728	46	6166
2026-01-08 15:39:48.53	15.93	14.95	-36.7	-37.5	24.2	0.00e+00	0	32	0	272629760	46	6092
2026-01-08 15:39:52.57	15.67	15.36	-36.8	-37.6	24.1	0.00e+00	62	32	0	279969792	46	6172
2026-01-08 15:39:56.60	15.42	15.78	-36.9	-37.8	24.0	0.00e+00	66	32	0	287309824	46	6287
2026-01-08 15:40:00.64	15.15	16.21	-36.6	-37.5	24.2	0.00e+00	92	31	0	294649856	46	6044
2026-01-08 15:40:04.68	14.87	16.64	-36.8	-37.6	24.1	0.00e+00	17	32	0	303038464	46	6158
2026-01-08 15:40:08.72	14.59	17.08	-36.6	-37.5	24.3	0.00e+00	0	32	0	310378496	46	6037
2026-01-08 15:40:12.75	14.30	17.53	-36.6	-37.4	24.3	0.00e+00	0	32	0	317718528	46	6012
2026-01-08 15:40:16.79	14.00	17.98	-36.6	-37.5	24.3	0.00e+00	92	32	0	325058560	46	6040
2026-01-08 15:40:20.83	13.69	18.44	-36.6	-37.4	24.4	0.00e+00	12	32	0	332398592	46	6023
2026-01-08 15:40:24.86	13.37	18.91	-36.8	-37.7	24.2	0.00e+00	0	32	0	340787200	46	6216
2026-01-08 15:40:28.89	13.03	19.39	-36.5	-37.3	24.5	0.00e+00	0	32	0	348127232	46	5927
2026-01-08 15:40:32.93	12.69	19.88	-36.7	-37.6	24.3	0.00e+00	92	32	0	355467264	46	6115
2026-01-08 15:40:36.96	12.34	20.37	-36.6	-37.5	24.4	0.00e+00	69	32	0	362807296	46	6034
2026-01-08 15:40:41.00	11.97	20.88	-36.8	-37.6	24.2	0.00e+00	17	32	0	371195904	46	6165
2026-01-08 15:40:45.04	11.59	21.39	-36.8	-37.6	24.2	0.00e+00	12	32	0	378535936	46	6165
2026-01-08 15:40:49.08	11.20	21.91	-37.0	-37.9	24.1	0.00e+00	92	32	0	385875968	46	6324
2026-01-08 15:40:53.11	10.79	22.44	-37.1	-38.0	24.0	0.00e+00	0	32	0	393216000	46	6420
2026-01-08 15:40:57.15	10.37	22.98	-37.2	-38.1	23.9	0.00e+00	0	32	0	400556032	46	6512
2026-01-08 15:41:01.19	9.93	23.53	-37.6	-38.5	23.6	0.00e+00	0	32	0	408944640	46	6819
2026-01-08 15:41:05.22	9.48	24.09	-38.2	-39.2	22.9	0.00e+00	92	32	0	416284672	48	6570
2026-01-08 15:41:09.26	9.00	24.66	-38.7	-39.7	22.3	0.00e+00	10	32	0	423624704	50	6224
2026-01-08 15:41:13.29	8.52	25.24	-38.6	-39.6	22.6	0.00e+00	2	32	0	430964736	50	6121
2026-01-08 15:41:17.33	8.01	25.84	-38.7	-39.7	22.6	0.00e+00	0	32	0	438304768	50	6235
2026-01-08 15:41:21.37	7.48	26.44	-38.9	-39.9	22.3	0.00e+00	92	32	0	446693376	50	6368
2026-01-08 15:41:25.40	6.93	27.05	-39.2	-40.2	22.1	0.00e+00	70	32	0	454033408	50	6595
2026-01-08 15:41:29.44	6.36	27.67	-39.4	-40.5	21.8	0.00e+00	12	32	0	461373440	50	6787
2026-01-08 15:41:33.48	5.76	28.31	-39.4	-40.5	21.8	0.00e+00	56	32	0	468713472	50	6809
2026-01-08 15:41:37.51	5.14	28.95	-39.3	-40.3	22.0	0.00e+00	92	32	0	477102080	50	6686
2026-01-08 15:41:41.55	4.50	29.61	-38.9	-39.9	22.4	0.00e+00	0	32	0	484442112	50	6374
2026-01-08 15:41:45.59	3.82	30.28	-38.7	-39.7	22.6	0.00e+00	4	32	0	491782144	50	6199
2026-01-08 15:41:49.62	3.12	30.96	-39.1	-40.1	22.2	0.00e+00	92	32	0	499122176	50	6503
2026-01-08 15:41:53.66	2.39	31.65	-39.4	-40.4	21.9	0.00e+00	0	32	0	506462208	50	6768
2026-01-08 15:41:57.69	1.62	32.35	-39.7	-40.9	21.5	0.00e+00	0	32	0	514850816	50	7100
2026-01-08 15:42:01.73	0.82	33.06	-39.9	-41.0	21.4	0.00e+00	0	32	0	522190848	52	6451
2026-01-08 15:42:05.77	359.98	33.79	-40.2	-41.4	21.0	0.00e+00	91	32	0	529530880	52	6698
2026-01-08 15:42:09.80	359.10	34.52	-39.9	-41.0	21.3	0.00e+00	67	32	0	536870912	52	6445
2026-01-08 15:42:13.83	358.19	35.26	-40.2	-41.4	21.0	0.00e+00	68	32	0	545259520	52	6714
2026-01-08 15:42:17.87	357.22	36.01	-39.6	-40.8	21.7	0.00e+00	9	32	0	552599552	52	6251
2026-01-08 15:42:21.90	356.22	36.76	-38.8	-39.8	22.5	0.00e+00	91	32	0	559939584	52	5619
2026-01-08 15:42:25.94	355.16	37.53	-39.3	-40.4	21.9	0.00e+00	73	32	0	567279616	52	6015
2026-01-08 15:42:29.98	354.05	38.30	-39.4	-40.5	21.7	0.00e+00	74	31	0	574619648	52	6100
2026-01-08 15:42:34.01	352.89	39.07	-39.3	-40.4	22.0	0.00e+00	8	32	0	583008256	52	5999
2026-01-08 15:42:38.05	351.67	39.85	-39.5	-40.6	21.7	0.00e+00	92	32	0	590348288	52	6163
2026-01-08 15:42:42.09	350.39	40.63	-39.3	-40.4	22.0	0.00e+00	0	32	0	597688320	52	5980
2026-01-08 15:42:46.12	349.04	41.41	-39.1	-40.1	22.2	0.00e+00	0	32	0	605028352	52	5798
2026-01-08 15:42:50.15	347.63	42.19	-39.5	-40.6	21.8	0.00e+00	0	32	0	613416960	52	6145
2026-01-08 15:42:54.18	346.15	42.96	-40.5	-41.7	20.8	0.00e+00	90	32	0	620756992	52	7006
2026-01-08 15:42:58.22	344.59	43.73	-39.7	-40.8	21.7	0.00e+00	0	32	0	628097024	52	6296
2026-01-08 15:43:02.26	342.96	44.49	-39.8	-41.0	21.4	0.00e+00	0	32	0	635437056	52	6432
2026-01-08 15:43:06.30	341.25	45.23	-40.4	-41.6	20.8	0.00e+00	45	32	0	642777088	52	6917
2026-01-08 15:43:10.33	339.45	45.96	-39.7	-40.8	21.6	0.00e+00	92	32	0	651165696	52	6299
2026-01-08 15:43:14.37	337.57	46.67	-38.8	-39.8	22.6	0.00e+00	2	32	0	658505728	52	5582
2026-01-08 15:43:18.40	335.61	47.35	-38.9	-40.0	22.3	0.00e+00	9	32	0	665845760	50	6408
2026-01-08 15:43:22.44	333.56	48.01	-38.5	-39.5	22.8	0.00e+00	60	32	0	673185792	50	6052
2026-01-08 15:43:26.48	331.42	48.63	-38.5	-39.5	22.8	0.00e+00	92	32	0	680525824	50	6052
2026-01-08 15:43:30.52	329.19	49.22	-39.6	-40.7	21.6	0.00e+00	0	32	0	688914432	50	6981
2026-01-08 15:43:34.55	326.88	49.76	-39.9	-41.1	21.4	0.00e+00	72	32	0	696254464	52	6508
2026-01-08 15:43:38.59	324.49	50.26	-39.5	-40.6	21.8	0.00e+00	92	32	0	703594496	52	6117
2026-01-08 15:43:42.63	322.02	50.72	-39.7	-40.9	21.6	0.00e+00	65	32	0	710934528	52	6340
2026-01-08 15:43:46.67	319.48	51.11	-38.6	-39.7	22.6	0.00e+00	6	32	0	719323136	52	5537
2026-01-08 15:43:50.70	316.88	51.45	-37.8	-38.7	23.4	0.00e+00	0	32	0	726663168	50	5566
2026-01-08 15:43:54.74	314.22	51.73	-35.8	-36.6	25.2	0.00e+00	92	32	0	734003200	46	5458
2026-01-08 15:43:58.78	311.52	51.94	-34.9	-35.7	26.1	0.00e+00	0	32	0	741343232	44	5514
2026-01-08 15:44:02.81	308.79	52.09	-34.3	-35.0	26.6	0.00e+00	72	32	0	748683264	42	5714
2026-01-08 15:44:06.85	306.03	52.17	-34.9	-35.6	26.1	0.00e+00	6	32	0	757071872	42	6119
2026-01-08 15:44:10.89	303.26	52.18	-35.0	-35.7	25.9	0.00e+00	91	32	0	764411904	42	6204
2026-01-08 15:44:14.92	300.51	52.12	-35.5	-36.2	25.5	0.00e+00	0	32	0	771751936	42	6597
2026-01-08 15:44:18.97	297.75	51.99	-35.8	-36.5	25.3	0.00e+00	0	32	0	779091968	44	6098
2026-01-08 15:44:23.00	295.05	51.79	-36.0	-36.8	25.1	0.00e+00	10	32	0	787480576	44	6252
2026-01-08 15:44:27.04	292.37	51.53	-35.3	-36.1	25.5	0.00e+00	91	32	0	794820608	44	5777
2026-01-08 15:44:31.08	289.75	51.21	-36.0	-36.8	25.0	0.00e+00	0	32	0	802160640	44	6268
2026-01-08 15:44:35.12	287.19	50.83	-36.0	-36.8	25.0	0.00e+00	0	32	0	809500672	44	6300
2026-01-08 15:44:39.15	284.70	50.39	-37.5	-38.4	23.8	0.00e+00	0	32	0	816840704	46	6706
2026-01-08 15:44:43.19	282.28	49.90	-38.2	-39.2	23.1	0.00e+00	58	32	0	825229312	48	6543
2026-01-08 15:44:47.22	279.95	49.37	-39.6	-40.8	21.7	0.00e+00	73	32	0	832569344	50	7013
2026-01-08 15:44:51.26	277.70	48.79	-39.3	-40.4	22.0	0.00e+00	0	32	0	839909376	52	5995
2026-01-08 15:44:55.30	275.53	48.17	-39.5	-40.6	21.7	0.00e+00	33	32	0	847249408	52	6150
2026-01-08 15:44:59.34	273.45	47.52	-38.7	-39.7	22.7	0.00e+00	0	32	0	855638016	50	6209
2026-01-08 15:45:03.37	271.46	46.85	-39.2	-40.2	22.1	0.00e+00	65	32	0	862978048	50	6586
2026-01-08 15:45:07.41	269.56	46.14	-39.0	-40.0	22.5	0.00e+00	0	32	0	870318080	50	6433
2026-01-08 15:45:11.44	267.74	45.42	-39.1	-40.1	22.2	0.00e+00	70	32	0	877658112	50	6511
2026-01-08 15:45:15.48	266.00	44.68	-39.5	-40.6	21.8	0.00e+00	0	32	0	884998144	50	6907
2026-01-08 15:45:19.52	264.34	43.92	-38.7	-39.7	22.6	0.00e+00	0	32	0	893386752	50	6195
2026-01-08 15:45:23.56	262.76	43.15	-38.1	-39.0	23.3	0.00e+00	0	32	0	900726784	50	5707
2026-01-08 15:45:27.59	261.26	42.38	-38.6	-39.6	22.6	0.00e+00	92	32	0	908066816	50	6126
2026-01-08 15:45:31.63	259.82	41.60	-38.9	-39.9	22.3	0.00e+00	17	32	0	915406848	50	6386
2026-01-08 15:45:35.67	258.45	40.82	-40.3	-41.6	20.8	0.00e+00	17	32	0	922746880	52	6865
2026-01-08 15:45:39.70	257.16	40.04	-40.5	-41.8	20.8	0.00e+00	7	32	0	931135488	52	7056
2026-01-08 15:45:43.74	255.92	39.25	-40.5	-41.7	20.7	0.00e+00	90	32	0	938475520	52	6997
2026-01-08 15:45:47.78	254.73	38.47	-40.5	-41.8	20.7	0.00e+00	0	32	0	945815552	54	6264
2026-01-08 15:45:51.81	253.61	37.70	-40.5	-41.7	20.7	0.00e+00	10	32	0	953155584	54	6234
2026-01-08 15:45:55.85	252.54	36.93	-40.8	-42.1	20.4	0.00e+00	2	32	0	961544192	54	6493
2026-01-08 15:45:59.89	251.51	36.17	-40.6	-41.9	20.6	0.00e+00	92	32	0	968884224	54	6365
2026-01-08 15:46:03.93	250.53	35.41	-40.2	-41.4	21.0	0.00e+00	0	32	0	976224256	54	6027
2026-01-08 15:46:07.96	249.60	34.67	-39.7	-40.8	21.6	0.00e+00	71	32	0	983564288	52	6247
2026-01-08 15:46:12.00	248.71	33.93	-40.0	-41.2	21.3	0.00e+00	24	32	0	990904320	52	6575
2026-01-08 15:46:16.04	247.86	33.20	-39.0	-40.0	22.4	0.00e+00	92	32	0	999292928	52	5724
2026-01-08 15:46:20.08	247.05	32.49	-39.0	-40.0	22.3	0.00e+00	12	32	0	1006632960	52	5735
2026-01-08 15:46:24.11	246.27	31.78	-40.0	-41.1	21.4	0.00e+00	2	32	0	1013972992	52	6515
2026-01-08 15:46:28.15	245.53	31.09	-39.7	-40.8	21.6	0.00e+00	0	32	0	1021313024	52	6279
2026-01-08 15:46:32.19	244.81	30.40	-39.8	-41.0	21.6	0.00e+00	92	32	0	1029701632	52	6406
2026-01-08 15:46:36.23	244.13	29.73	-39.8	-40.9	21.5	0.00e+00	69	32	0	1037041664	52	6360
2026-01-08 15:46:40.26	243.47	29.07	-39.4	-40.5	21.8	0.00e+00	17	32	0	1044381696	52	6080
2026-01-08 15:46:44.30	242.84	28.42	-38.8	-39.8	22.4	0.00e+00	92	32	0	1051721728	52	5606
2026-01-08 15:46:48.34	242.24	27.77	-38.4	-39.4	22.8	0.00e+00	68	32	0	1059061760	50	6003
2026-01-08 15:46:52.37	241.66	27.15	-38.3	-39.3	22.9	0.00e+00	68	32	0	1067450368	50	5907
2026-01-08 15:46:56.41	241.10	26.53	-38.8	-39.8	22.4	0.00e+00	68	32	0	1074790400	50	6316
2026-01-08 15:47:00.44	240.57	25.92	-38.3	-39.3	22.9	0.00e+00	91	32	0	1082130432	50	5909
2026-01-08 15:47:04.47	240.06	25.33	-38.0	-38.9	23.3	0.00e+00	67	32	0	1089470464	50	5646
2026-01-08 15:47:08.51	239.56	24.74	-37.9	-38.8	23.3	0.00e+00	5	31	0	1096810496	50	5605
2026-01-08 15:47:12.55	239.08	24.17	-38.2	-39.1	23.0	0.00e+00	0	32	0	1105199104	50	5825
2026-01-08 15:47:16.59	238.62	23.60	-38.2	-39.1	23.1	0.00e+00	92	32	0	1112539136	50	5816
2026-01-08 15:47:20.62	238.18	23.05	-38.1	-39.0	23.1	0.00e+00	66	32	0	1119879168	50	5757
2026-01-08 15:47:24.66	237.75	22.50	-38.1	-39.0	23.2	0.00e+00	20	32	0	1127219200	50	5734
2026-01-08 15:47:28.69	237.34	21.97	-38.0	-39.0	23.2	0.00e+00	6	32	0	1135607808	50	5714
2026-01-08 15:47:32.73	236.94	21.44	-37.9	-38.8	23.3	0.00e+00	91	32	0	1142947840	50	5584
2026-01-08 15:47:36.77	236.55	20.93	-38.0	-38.9	23.2	0.00e+00	0	32	0	1150287872	50	5647
2026-01-08 15:47:40.80	236.18	20.42	-38.0	-38.9	23.1	0.00e+00	60	32	0	1157627904	50	5682
2026-01-08 15:47:44.84	235.82	19.92	-38.0	-38.9	23.1	0.00e+00	20	32	0	1164967936	50	5680
2026-01-08 15:47:48.87	235.47	19.43	-37.9	-38.9	23.2	0.00e+00	92	32	0	1173356544	50	5645
2026-01-08 15:47:52.90	235.14	18.95	-38.3	-39.2	22.9	0.00e+00	0	32	0	1180696576	50	5880
2026-01-08 15:47:56.94	234.81	18.48	-38.5	-39.5	22.7	0.00e+00	0	32	0	1188036608	50	6043
2026-01-08 15:48:00.98	234.49	18.01	-38.6	-39.6	22.5	0.00e+00	0	32	0	1195376640	50	6152
2026-01-08 15:48:05.01	234.19	17.56	-38.5	-39.5	22.6	0.00e+00	91	32	0	1203765248	50	6071
2026-01-08 15:48:09.05	233.89	17.11	-38.2	-39.2	22.8	0.00e+00	21	32	0	1211105280	50	5841
2026-01-08 15:48:13.09	233.60	16.66	-38.0	-39.0	23.0	0.00e+00	0	32	0	1218445312	50	5722
2026-01-08 15:48:17.12	233.32	16.23	-38.2	-39.1	22.8	0.00e+00	0	32	0	1225785344	50	5820
2026-01-08 15:48:21.16	233.05	15.80	-38.7	-39.7	22.4	0.00e+00	92	32	0	1233125376	50	6208
2026-01-08 15:48:25.20	232.79	15.38	-39.2	-40.3	21.8	0.00e+00	65	32	0	1241513984	50	6624
2026-01-08 15:48:29.23	232.53	14.96	-39.4	-40.6	21.5	0.00e+00	64	32	0	1248854016	50	6860
2026-01-08 15:48:33.26	232.29	14.55	-39.5	-40.7	21.4	0.00e+00	51	32	0	1256194048	50	6938
2026-01-08 15:48:37.30	232.04	14.15	-39.6	-40.8	21.3	0.00e+00	48	32	0	1263534080	50	7021
2026-01-08 15:48:41.34	231.81	13.75	-39.8	-41.0	21.1	0.00e+00	54	32	0	1271922688	52	6419
2026-01-08 15:48:45.37	231.58	13.36	-40.1	-41.4	20.7	0.00e+00	59	32	0	1279262720	52	6697
2026-01-08 15:48:49.41	231.36	12.98	-40.3	-41.5	20.5	0.00e+00	63	32	0	1286602752	52	6844
2026-01-08 15:48:53.45	231.14	12.60	-40.4	-41.7	20.4	0.00e+00	64	32	0	1293942784	52	6996
2026-01-08 15:48:57.49	230.93	12.22	-40.5	-41.8	20.2	0.00e+00	0	32	0	1301282816	52	7052
2026-01-08 15:49:01.53	230.73	11.86	-40.6	-41.9	20.1	0.00e+00	5	32	0	1309671424	52	7139
2026-01-08 15:49:05.57	230.53	11.49	-40.6	-42.0	19.9	0.00e+00	92	32	0	1317011456	54	6431
2026-01-08 15:49:09.60	230.33	11.13	-41.1	-42.5	19.4	0.00e+00	29	32	0	1324351488	54	6835
2026-01-08 15:49:13.64	230.15	10.78	-41.4	-43.0	18.9	0.00e+00	7	32	0	1331691520	54	7222
2026-01-08 15:49:17.67	229.96	10.43	-41.8	-43.4	18.5	0.00e+00	6	32	0	1339031552	54	7585
2026-01-08 15:49:21.70	229.78	10.09	-42.0	-43.7	18.2	0.00e+00	90	32	0	1347420160	56	6991
2026-01-08 15:49:25.74	229.61	9.75	-42.3	-44.1	17.9	0.00e+00	0	32	0	1354760192	56	7279
2026-01-08 15:49:29.78	229.43	9.41	-42.4	-44.2	17.7	0.00e+00	61	32	0	1362100224	56	7412
2026-01-08 15:49:33.81	229.27	9.08	-42.5	-44.5	17.3	0.00e+00	21	32	0	1369440256	56	7614
2026-01-08 15:49:37.85	229.11	8.75	-42.7	-44.8	17.1	0.00e+00	92	32	0	1377828864	56	7874
2026-01-08 15:49:41.88	228.95	8.43	-42.9	-45.1	16.6	0.00e+00	0	32	0	1385168896	58	7298
2026-01-08 15:49:45.92	228.79	8.11	-43.1	-45.4	16.4	0.00e+00	0	32	0	1392508928	58	7532
2026-01-08 15:49:49.95	228.64	7.79	-43.3	-45.7	16.0	0.00e+00	0	32	0	1399848960	58	7806
2026-01-08 15:49:53.99	228.49	7.48	-43.5	-46.1	15.5	0.00e+00	91	32	0	1407188992	58	8158
2026-01-08 15:49:58.03	228.35	7.17	-43.7	-46.4	15.1	0.00e+00	60	32	0	1415577600	58	8510
2026-01-08 15:50:02.06	228.20	6.87	-43.8	-46.6	14.9	0.00e+00	24	32	0	1422917632	60	7751
2026-01-08 15:50:06.10	228.07	6.57	-44.1	-47.2	14.2	3.80e-06	0	32	0	1430257664	60	8279
2026-01-08 15:50:10.14	227.93	6.27	-44.1	-47.3	14.0	0.00e+00	92	32	0	1437597696	60	8331
2026-01-08 15:50:14.18	227.80	5.97	-44.2	-47.5	13.7	7.60e-06	0	32	0	1444937728	60	8588
2026-01-08 15:50:18.21	227.67	5.68	-44.3	-47.8	13.3	1.75e-05	2	32	0	1453326336	60	8823
2026-01-08 15:50:22.24	227.54	5.39	-44.3	-47.9	13.2	2.67e-05	34	32	0	1460666368	60	8930
2026-01-08 15:50:26.28	227.42	5.11	-44.4	-48.2	12.6	8.77e-05	80	32	0	1468006400	60	9322
2026-01-08 15:50:30.32	227.30	4.82	-44.5	-48.4	12.2	1.56e-04	2	32	0	1475346432	60	9528
2026-01-08 15:50:34.35	227.18	4.54	-44.6	-48.8	11.6	4.02e-04	0	32	0	1483735040	60	10009
2026-01-08 15:50:38.39	227.06	4.26	-44.6	-49.2	11.0	2.06e-03	92	32	0	1491075072	60	10394
2026-01-08 15:50:42.43	226.95	3.99	-44.6	-49.4	10.7	2.54e-03	0	32	0	1498415104	60	10639
2026-01-08 15:50:46.46	226.83	3.72	-44.7	-49.7	10.1	5.69e-03	31	32	0	1505755136	60	11098
2026-01-08 15:50:50.50	226.73	3.45	-44.7	-49.9	9.9	7.60e-03	6	32	0	1513095168	60	11258
2026-01-08 15:50:54.54	226.62	3.18	-44.7	-50.0	9.7	1.22e-02	92	32	0	1521483776	60	11490
2026-01-08 15:50:58.58	226.51	2.92	-47.5	-62.7	3.6	1.51e+00	0	32	104	1526726656	60	49257
2026-01-08 15:51:02.61	226.41	2.65	-48.5	-63.7	3.6	1.51e+00	0	32	104	1526726656	60	55475
2026-01-08 15:51:06.65	226.31	2.39	-48.5	-63.7	3.6	1.51e+00	0	32	104	1526726656	60	55460
2026-01-08 15:51:10.69	226.21	2.14	-48.4	-63.6	3.6	1.51e+00	0	32	104	1526726656	60	54826
2026-01-08 15:51:14.72	226.11	1.88	-48.6	-63.8	3.6	1.51e+00	0	32	104	1526726656	60	55666
2026-01-08 15:51:18.76	226.02	1.63	-48.5	-63.7	3.6	1.51e+00	0	32	104	1526726656	60	55455
2026-01-08 15:51:22.80	225.92	1.38	-48.5	-63.7	3.6	1.51e+00	0	32	104	1526726656	60	55068
2026-01-08 15:51:26.84	225.83	1.13	-48.4	-63.6	3.6	1.51e+00	0	32	104	1526726656	60	54815
2026-01-08 15:51:30.87	225.74	0.88	-48.4	-63.6	3.6	1.51e+00	0	32	104	1526726656	60	54744
2026-01-08 15:51:34.91	225.65	0.64	-48.4	-63.6	3.6	1.51e+00	0	32	104	1526726656	60	54702
2026-01-08 15:51:38.95	225.57	0.39	-48.4	-63.6	3.6	1.51e+00	0	32	104	1526726656	60	54878
2026-01-08 15:51:42.98	225.48	0.15	-48.4	-63.6	3.6	1.51e+00	0	32	104	1526726656	60	54806

#Closed at: 2026-01-08 15:51:45
#Recorded file [1526 MB]: D:/lorett/data/35029_260109_033634.dat