passes_logs/2026/01/08/R4.6S_Anadyr/R4.6S_Anadyr__20260108_215210_SUOMI_NPP_rec.log

#Pass ID: 20260108_215210_SUOMI NPP
#Satellite: SUOMI NPP
#Configuration: NPP
#almurnet v.1.7.20251203
#Start time: 2026-01-08 21:52:13

#Version: 2.2.20231116
#Station: R4.6S_Anadyr
#Location: 177.4865 lon 64.73178 lat
#TLE: 1 37849U 11061A   26008.05542337  .00000108  00000+0  71976-4 0  9997
#TLE: 2 37849  98.7805 310.1641 0002540  75.6410 284.5048 14.19523335735721

#Time	Az	El	Level	Level2	SNR	BER	BlckErr	Temp	State	Recorded	gain1	gain2
2026-01-08 21:52:13.48	98.35	0.16	-48.1	-61.9	3.3	1.54e+00	0	31	0	0	60	45147
2026-01-08 21:52:17.51	98.13	0.38	-48.2	-63.4	3.6	1.51e+00	0	32	104	0	60	53353
2026-01-08 21:52:21.55	97.90	0.60	-48.2	-63.4	3.6	1.51e+00	0	32	104	0	60	53398
2026-01-08 21:52:25.59	97.67	0.82	-47.5	-62.9	3.6	1.51e+00	0	32	104	0	60	50500
2026-01-08 21:52:29.63	97.43	1.05	-46.4	-61.6	3.6	1.51e+00	0	32	104	0	60	43450
2026-01-08 21:52:33.67	97.19	1.27	-46.3	-61.5	3.6	1.51e+00	0	32	104	0	60	43039
2026-01-08 21:52:37.70	96.95	1.50	-46.3	-61.5	3.6	1.51e+00	0	32	104	0	60	43107
2026-01-08 21:52:41.74	96.71	1.73	-46.3	-61.5	3.6	1.51e+00	0	32	104	0	60	43180
2026-01-08 21:52:45.78	96.45	1.96	-46.3	-61.6	3.6	1.51e+00	0	32	104	0	60	43299
2026-01-08 21:52:49.82	96.20	2.19	-46.3	-61.5	3.6	1.51e+00	0	32	104	0	60	42834
2026-01-08 21:52:53.86	95.94	2.42	-46.3	-61.5	3.6	1.51e+00	0	32	104	0	60	43041
2026-01-08 21:52:57.90	95.68	2.65	-46.4	-61.3	3.6	1.51e+00	0	32	104	0	60	42135
2026-01-08 21:53:01.93	95.41	2.89	-46.3	-61.5	3.6	1.51e+00	0	32	104	0	60	42875
2026-01-08 21:53:05.98	95.14	3.12	-44.9	-50.2	10.0	1.90e-02	92	32	0	3145728	60	11644
2026-01-08 21:53:10.01	94.86	3.36	-46.3	-60.5	3.6	1.10e+00	0	32	104	9437184	60	38133
2026-01-08 21:53:14.04	94.58	3.60	-43.5	-46.9	13.5	1.29e+00	0	32	104	10485760	60	7969
2026-01-08 21:53:18.08	94.29	3.84	-43.5	-46.9	13.5	1.06e-05	51	32	0	16777216	60	7969
2026-01-08 21:53:22.11	94.00	4.08	-44.6	-48.9	11.6	5.22e-04	88	32	0	24117248	60	10092
2026-01-08 21:53:26.14	93.71	4.32	-44.5	-48.6	12.0	1.62e-04	0	32	0	31457280	60	9781
2026-01-08 21:53:30.18	93.40	4.57	-42.3	-44.8	16.4	0.00e+00	69	32	0	38797312	58	7033
2026-01-08 21:53:34.21	93.10	4.81	-41.2	-43.1	17.7	0.00e+00	87	32	0	47185920	56	6519
2026-01-08 21:53:38.25	92.78	5.06	-39.7	-41.1	19.8	0.00e+00	0	32	0	54525952	54	5812
2026-01-08 21:53:42.29	92.47	5.31	-39.7	-41.0	19.9	0.00e+00	0	32	0	61865984	52	6448
2026-01-08 21:53:46.33	92.14	5.56	-39.7	-41.1	19.8	0.00e+00	92	32	0	69206016	52	6471
2026-01-08 21:53:50.36	91.81	5.81	-39.7	-41.1	19.8	0.00e+00	91	32	0	76546048	52	6521
2026-01-08 21:53:54.40	91.48	6.07	-39.9	-41.4	19.6	0.00e+00	0	32	0	84934656	52	6702
2026-01-08 21:53:58.44	91.14	6.32	-40.0	-41.5	19.5	0.00e+00	9	33	0	92274688	52	6839
2026-01-08 21:54:02.48	90.79	6.58	-40.2	-41.9	19.2	0.00e+00	90	33	0	99614720	52	7149
2026-01-08 21:54:06.51	90.44	6.84	-39.8	-41.3	19.6	0.00e+00	92	33	0	106954752	52	6670
2026-01-08 21:54:10.55	90.07	7.10	-40.0	-41.4	19.7	0.00e+00	0	33	0	115343360	52	6718
2026-01-08 21:54:14.59	89.71	7.36	-39.7	-41.1	20.0	0.00e+00	0	33	0	122683392	52	6482
2026-01-08 21:54:18.62	89.33	7.62	-39.5	-40.8	20.2	0.00e+00	79	33	0	130023424	52	6301
2026-01-08 21:54:22.66	88.95	7.89	-39.7	-41.1	20.1	0.00e+00	92	33	0	137363456	52	6512
2026-01-08 21:54:26.70	88.56	8.15	-38.6	-39.7	21.2	0.00e+00	0	33	0	144703488	50	6225
2026-01-08 21:54:30.74	88.17	8.42	-39.0	-40.2	20.9	0.00e+00	92	33	0	153092096	50	6547
2026-01-08 21:54:34.78	87.76	8.69	-38.7	-39.9	21.1	0.00e+00	84	33	0	160432128	50	6342
2026-01-08 21:54:38.82	87.35	8.96	-38.7	-39.9	21.0	0.00e+00	0	33	0	167772160	50	6321
2026-01-08 21:54:42.85	86.93	9.23	-39.4	-40.7	20.5	0.00e+00	0	33	0	175112192	50	6996
2026-01-08 21:54:46.89	86.50	9.50	-39.7	-41.0	20.1	0.00e+00	91	33	0	183500800	52	6429
2026-01-08 21:54:50.93	86.07	9.78	-39.5	-40.8	20.3	0.00e+00	92	33	0	190840832	52	6291
2026-01-08 21:54:54.96	85.63	10.05	-39.3	-40.5	20.7	0.00e+00	0	33	0	198180864	52	6081
2026-01-08 21:54:59.00	85.17	10.33	-39.2	-40.5	20.8	0.00e+00	0	33	0	205520896	52	6040
2026-01-08 21:55:03.03	84.71	10.61	-38.8	-40.0	21.2	0.00e+00	92	33	0	212860928	52	5715
2026-01-08 21:55:07.07	84.24	10.89	-38.7	-39.9	21.2	0.00e+00	92	33	0	221249536	50	6319
2026-01-08 21:55:11.10	83.76	11.17	-38.8	-40.0	21.2	0.00e+00	0	33	0	228589568	50	6409
2026-01-08 21:55:15.13	83.27	11.46	-39.0	-40.2	20.9	0.00e+00	92	33	0	235929600	50	6548
2026-01-08 21:55:19.16	82.77	11.74	-38.1	-39.1	21.8	0.00e+00	92	33	0	243269632	50	5822
2026-01-08 21:55:23.19	82.27	12.02	-38.2	-39.2	21.8	0.00e+00	90	33	0	250609664	50	5894
2026-01-08 21:55:27.23	81.75	12.31	-37.8	-38.8	22.2	0.00e+00	29	33	0	258998272	50	5629
2026-01-08 21:55:31.26	81.22	12.60	-37.6	-38.6	22.4	0.00e+00	92	33	0	266338304	48	6110
2026-01-08 21:55:35.30	80.68	12.88	-37.7	-38.7	22.3	0.00e+00	91	33	0	273678336	48	6197
2026-01-08 21:55:39.34	80.12	13.17	-37.8	-38.8	22.2	0.00e+00	0	33	0	281018368	48	6296
2026-01-08 21:55:43.37	79.56	13.46	-38.0	-39.1	22.0	0.00e+00	0	33	0	288358400	48	6525
2026-01-08 21:55:47.41	78.99	13.75	-38.1	-39.1	22.1	0.00e+00	92	33	0	296747008	48	6523
2026-01-08 21:55:51.44	78.40	14.04	-38.6	-39.8	21.5	0.00e+00	92	33	0	304087040	48	7012
2026-01-08 21:55:55.48	77.81	14.34	-38.3	-39.3	21.9	0.00e+00	0	33	0	311427072	48	6667
2026-01-08 21:55:59.52	77.20	14.63	-38.2	-39.3	21.8	0.00e+00	0	33	0	318767104	48	6652
2026-01-08 21:56:03.54	76.58	14.92	-37.7	-38.7	22.4	0.00e+00	92	33	0	327155712	48	6212
2026-01-08 21:56:07.58	75.94	15.21	-38.7	-39.8	21.3	0.00e+00	92	33	0	334495744	48	7072
2026-01-08 21:56:11.61	75.30	15.50	-38.8	-39.9	21.4	0.00e+00	0	33	0	341835776	50	6371
2026-01-08 21:56:15.65	74.64	15.79	-38.4	-39.4	21.9	0.00e+00	92	33	0	349175808	50	6016
2026-01-08 21:56:19.68	73.97	16.08	-38.4	-39.5	21.8	0.00e+00	92	33	0	356515840	50	6064
2026-01-08 21:56:23.72	73.28	16.37	-38.6	-39.7	21.6	0.00e+00	0	33	0	364904448	50	6187
2026-01-08 21:56:27.76	72.58	16.66	-38.0	-39.0	22.2	0.00e+00	0	33	0	372244480	50	5755
2026-01-08 21:56:31.80	71.87	16.95	-38.4	-39.5	21.8	0.00e+00	66	33	0	379584512	48	6770
2026-01-08 21:56:35.83	71.14	17.24	-38.5	-39.6	21.7	0.00e+00	92	33	0	386924544	48	6872
2026-01-08 21:56:39.86	70.40	17.52	-38.6	-39.7	21.6	0.00e+00	0	33	0	394264576	50	6194
2026-01-08 21:56:43.90	69.64	17.81	-37.7	-38.7	22.5	0.00e+00	0	33	0	402653184	48	6178
2026-01-08 21:56:47.93	68.88	18.09	-37.5	-38.4	22.7	0.00e+00	29	33	0	409993216	48	6026
2026-01-08 21:56:51.97	68.09	18.37	-37.4	-38.4	22.7	0.00e+00	92	33	0	417333248	48	5998
2026-01-08 21:56:56.01	67.29	18.64	-36.6	-37.6	23.4	0.00e+00	0	33	0	424673280	46	6114
2026-01-08 21:57:00.04	66.48	18.92	-36.3	-37.2	23.5	0.00e+00	0	33	0	433061888	46	5858
2026-01-08 21:57:04.08	65.65	19.19	-36.4	-37.3	23.5	0.00e+00	46	33	0	440401920	46	5933
2026-01-08 21:57:08.11	64.81	19.45	-36.2	-37.1	23.7	0.00e+00	0	33	0	447741952	46	5793
2026-01-08 21:57:12.15	63.95	19.72	-36.0	-36.9	23.9	0.00e+00	0	33	0	455081984	46	5669
2026-01-08 21:57:16.19	63.07	19.98	-36.3	-37.2	23.8	0.00e+00	92	33	0	462422016	46	5847
2026-01-08 21:57:20.22	62.19	20.23	-35.8	-36.7	24.0	0.00e+00	90	33	0	470810624	46	5535
2026-01-08 21:57:24.26	61.28	20.48	-35.7	-36.6	24.2	0.00e+00	0	33	0	478150656	44	6113
2026-01-08 21:57:28.30	60.37	20.73	-35.6	-36.4	24.4	0.00e+00	0	33	0	485490688	44	5993
2026-01-08 21:57:32.33	59.44	20.97	-35.7	-36.6	24.1	0.00e+00	6	33	0	492830720	44	6104
2026-01-08 21:57:36.37	58.49	21.20	-35.5	-36.3	24.4	0.00e+00	92	33	0	501219328	44	5956
2026-01-08 21:57:40.41	57.53	21.43	-35.6	-36.4	24.3	0.00e+00	0	33	0	508559360	44	6007
2026-01-08 21:57:44.44	56.55	21.65	-35.4	-36.2	24.4	0.00e+00	0	33	0	515899392	44	5870
2026-01-08 21:57:48.48	55.56	21.86	-35.6	-36.5	24.2	0.00e+00	73	33	0	523239424	44	6046
2026-01-08 21:57:52.51	54.56	22.07	-35.3	-36.1	24.4	0.00e+00	0	33	0	530579456	44	5805
2026-01-08 21:57:56.55	53.55	22.26	-35.4	-36.2	24.3	0.00e+00	0	33	0	538968064	44	5879
2026-01-08 21:58:00.59	52.52	22.45	-35.4	-36.2	24.4	0.00e+00	91	33	0	546308096	44	5884
2026-01-08 21:58:04.62	51.48	22.63	-35.1	-35.9	24.6	0.00e+00	90	33	0	553648128	44	5683
2026-01-08 21:58:08.66	50.42	22.81	-34.9	-35.7	24.8	0.00e+00	0	33	0	560988160	44	5532
2026-01-08 21:58:12.69	49.36	22.97	-35.8	-36.6	24.2	0.00e+00	0	33	0	569376768	44	6173
2026-01-08 21:58:16.73	48.29	23.12	-37.2	-38.1	23.0	0.00e+00	71	33	0	576716800	46	6533
2026-01-08 21:58:20.76	47.20	23.26	-37.3	-38.3	23.0	0.00e+00	85	33	0	584056832	48	5899
2026-01-08 21:58:24.80	46.11	23.39	-37.1	-38.1	23.0	0.00e+00	0	33	0	591396864	48	5763
2026-01-08 21:58:28.83	45.00	23.51	-36.7	-37.6	23.4	0.00e+00	0	33	0	598736896	46	6173
2026-01-08 21:58:32.87	43.89	23.62	-36.6	-37.5	23.4	0.00e+00	0	33	0	607125504	46	6098
2026-01-08 21:58:36.91	42.77	23.72	-37.6	-38.5	22.9	0.00e+00	73	33	0	614465536	46	6848
2026-01-08 21:58:40.95	41.64	23.81	-37.7	-38.7	22.6	0.00e+00	0	33	0	621805568	46	6960
2026-01-08 21:58:44.98	40.52	23.89	-37.7	-38.7	22.6	0.00e+00	80	33	0	629145600	48	6179
2026-01-08 21:58:49.02	39.38	23.95	-37.6	-38.6	22.7	0.00e+00	66	33	0	636485632	48	6117
2026-01-08 21:58:53.05	38.24	24.00	-38.4	-39.5	21.9	0.00e+00	0	33	0	644874240	48	6818
2026-01-08 21:58:57.09	37.09	24.04	-37.6	-38.5	22.8	0.00e+00	0	33	0	652214272	48	6083
2026-01-08 21:59:01.13	35.95	24.07	-36.4	-37.2	23.7	0.00e+00	46	33	0	659554304	46	5896
2026-01-08 21:59:05.17	34.80	24.08	-37.6	-38.5	22.7	0.00e+00	91	34	0	666894336	48	6088
2026-01-08 21:59:09.20	33.65	24.08	-36.9	-37.8	23.4	0.00e+00	0	33	0	675282944	48	5588
2026-01-08 21:59:13.24	32.50	24.07	-36.7	-37.6	23.5	0.00e+00	0	33	0	682622976	46	6126
2026-01-08 21:59:17.28	31.35	24.05	-36.7	-37.6	23.4	0.00e+00	92	33	0	689963008	46	6108
2026-01-08 21:59:21.31	30.21	24.01	-36.1	-37.0	23.7	0.00e+00	0	33	0	697303040	46	5701
2026-01-08 21:59:25.34	29.07	23.96	-36.4	-37.3	23.7	0.00e+00	0	33	0	704643072	46	5906
2026-01-08 21:59:29.37	27.94	23.90	-35.6	-36.5	24.2	0.00e+00	25	33	0	713031680	44	6058
2026-01-08 21:59:33.41	26.80	23.83	-34.7	-35.5	25.0	0.00e+00	90	33	0	720371712	42	6039
2026-01-08 21:59:37.45	25.68	23.75	-34.6	-35.3	25.1	0.00e+00	0	34	0	727711744	42	5959
2026-01-08 21:59:41.49	24.56	23.65	-35.2	-36.0	24.5	0.00e+00	0	33	0	735051776	42	6408
2026-01-08 21:59:45.52	23.44	23.55	-35.6	-36.5	24.2	0.00e+00	17	33	0	742391808	42	6771
2026-01-08 21:59:49.56	22.34	23.43	-34.9	-35.7	24.6	0.00e+00	0	33	0	750780416	42	6196
2026-01-08 21:59:53.59	21.25	23.30	-36.2	-37.1	23.8	0.00e+00	0	33	0	758120448	44	6504
2026-01-08 21:59:57.63	20.16	23.16	-35.7	-36.5	24.1	0.00e+00	0	33	0	765460480	44	6100
2026-01-08 22:00:01.67	19.08	23.01	-36.4	-37.3	23.6	0.00e+00	72	33	0	772800512	44	6632
2026-01-08 22:00:05.70	18.02	22.85	-37.1	-38.1	23.1	0.00e+00	0	33	0	781189120	46	6467
2026-01-08 22:00:09.74	16.96	22.68	-37.6	-38.7	22.6	0.00e+00	0	33	0	788529152	48	6184
2026-01-08 22:00:13.77	15.92	22.50	-37.1	-38.1	23.0	0.00e+00	0	33	0	795869184	48	5767
2026-01-08 22:00:17.80	14.89	22.32	-37.7	-38.7	22.5	0.00e+00	88	33	0	803209216	48	6223
2026-01-08 22:00:21.84	13.88	22.12	-37.0	-37.9	23.1	0.00e+00	0	33	0	810549248	48	5682
2026-01-08 22:00:25.88	12.87	21.92	-37.1	-38.1	23.1	0.00e+00	0	34	0	818937856	48	5764
2026-01-08 22:00:29.91	11.88	21.71	-37.4	-38.4	22.7	0.00e+00	33	34	0	826277888	48	5968
2026-01-08 22:00:33.95	10.90	21.49	-37.6	-38.6	22.4	0.00e+00	0	34	0	833617920	48	6121
2026-01-08 22:00:37.98	9.94	21.27	-37.5	-38.6	22.7	0.00e+00	0	34	0	840957952	48	6114
2026-01-08 22:00:42.02	8.99	21.03	-39.0	-40.3	20.9	0.00e+00	0	34	0	848297984	50	6670
2026-01-08 22:00:46.06	8.06	20.80	-37.7	-38.8	22.5	0.00e+00	46	34	0	856686592	50	5579
2026-01-08 22:00:50.09	7.14	20.55	-36.6	-37.6	23.4	0.00e+00	0	33	0	864026624	46	6140
2026-01-08 22:00:54.13	6.24	20.31	-36.8	-37.8	23.3	0.00e+00	0	34	0	871366656	46	6247
2026-01-08 22:00:58.17	5.35	20.05	-35.8	-36.7	24.1	0.00e+00	0	34	0	878706688	46	5505
2026-01-08 22:01:02.21	4.47	19.80	-35.0	-35.8	24.7	0.00e+00	92	34	0	887095296	44	5616
2026-01-08 22:01:06.24	3.61	19.53	-36.1	-37.0	23.8	0.00e+00	0	34	0	894435328	44	6392
2026-01-08 22:01:10.28	2.77	19.27	-37.0	-38.0	23.0	0.00e+00	0	34	0	901775360	46	6400
2026-01-08 22:01:14.31	1.94	19.00	-37.1	-38.1	23.1	0.00e+00	0	34	0	909115392	46	6495
2026-01-08 22:01:18.35	1.12	18.73	-36.4	-37.4	23.6	0.00e+00	90	34	0	916455424	46	5979
2026-01-08 22:01:22.38	0.32	18.45	-35.8	-36.6	24.1	0.00e+00	0	34	0	924844032	44	6134
2026-01-08 22:01:26.42	359.54	18.17	-36.8	-37.8	23.2	0.00e+00	0	34	0	932184064	46	6265
2026-01-08 22:01:30.46	358.76	17.89	-36.3	-37.1	23.6	0.00e+00	69	34	0	939524096	46	5828
2026-01-08 22:01:34.49	358.01	17.61	-36.9	-37.9	23.1	0.00e+00	0	34	0	946864128	46	6320
2026-01-08 22:01:38.53	357.27	17.33	-36.4	-37.4	23.5	0.00e+00	0	34	0	955252736	46	5966
2026-01-08 22:01:42.56	356.54	17.04	-36.2	-37.1	23.7	0.00e+00	0	34	0	962592768	46	5820
2026-01-08 22:01:46.60	355.82	16.75	-35.9	-36.8	23.9	0.00e+00	71	34	0	969932800	46	5606
2026-01-08 22:01:50.63	355.12	16.47	-36.3	-37.2	23.6	0.00e+00	0	34	0	977272832	46	5851
2026-01-08 22:01:54.67	354.44	16.18	-35.2	-36.0	24.4	0.00e+00	0	34	0	984612864	44	5759
2026-01-08 22:01:58.71	353.76	15.89	-35.6	-36.5	24.1	0.00e+00	0	34	0	993001472	44	6045
2026-01-08 22:02:02.75	353.10	15.60	-35.8	-36.7	23.9	0.00e+00	90	34	0	1000341504	44	6204
2026-01-08 22:02:06.78	352.45	15.31	-35.9	-36.8	24.0	0.00e+00	0	34	0	1007681536	44	6260
2026-01-08 22:02:10.82	351.82	15.02	-35.1	-35.9	24.5	0.00e+00	0	34	0	1015021568	44	5639
2026-01-08 22:02:14.85	351.20	14.72	-36.5	-37.4	23.4	0.00e+00	0	34	0	1023410176	44	6738
2026-01-08 22:02:18.89	350.59	14.43	-37.5	-38.5	22.6	0.00e+00	33	34	0	1030750208	46	6776
2026-01-08 22:02:22.93	349.99	14.14	-36.2	-37.1	23.6	0.00e+00	0	34	0	1038090240	46	5816
2026-01-08 22:02:26.96	349.40	13.85	-35.9	-36.8	23.9	0.00e+00	0	34	0	1045430272	46	5591
2026-01-08 22:02:31.00	348.83	13.56	-35.9	-36.8	23.2	0.00e+00	8	34	0	1052770304	44	6262
2026-01-08 22:02:35.03	348.27	13.28	-37.2	-38.2	22.6	0.00e+00	0	34	0	1061158912	46	6571
2026-01-08 22:02:39.07	347.71	12.99	-37.3	-38.4	22.6	0.00e+00	0	34	0	1068498944	48	5972
2026-01-08 22:02:43.11	347.17	12.70	-36.4	-37.3	23.3	0.00e+00	0	34	0	1075838976	46	5963
2026-01-08 22:02:47.14	346.64	12.41	-36.7	-37.6	23.1	0.00e+00	92	34	0	1083179008	46	6166
2026-01-08 22:02:51.18	346.12	12.13	-36.8	-37.7	23.1	0.00e+00	0	33	0	1090519040	46	6206
2026-01-08 22:02:55.22	345.61	11.84	-36.8	-37.7	23.0	0.00e+00	0	34	0	1098907648	46	6210
2026-01-08 22:02:59.25	345.11	11.56	-37.4	-38.5	22.4	0.00e+00	0	34	0	1106247680	46	6779
2026-01-08 22:03:03.29	344.62	11.28	-37.5	-38.6	22.3	0.00e+00	91	34	0	1113587712	46	6881
2026-01-08 22:03:07.33	344.14	10.99	-37.6	-38.6	22.2	0.00e+00	0	33	0	1120927744	46	6914
2026-01-08 22:03:11.36	343.67	10.72	-38.3	-39.4	21.5	0.00e+00	0	34	0	1129316352	48	6763
2026-01-08 22:03:15.40	343.21	10.44	-38.5	-39.7	21.4	0.00e+00	0	33	0	1136656384	48	6938
2026-01-08 22:03:19.43	342.76	10.16	-37.6	-38.6	22.2	0.00e+00	77	34	0	1143996416	48	6137
2026-01-08 22:03:23.47	342.32	9.88	-37.4	-38.4	22.3	0.00e+00	0	34	0	1151336448	48	6011
2026-01-08 22:03:27.50	341.88	9.61	-38.0	-39.0	21.8	0.00e+00	0	34	0	1158676480	48	6464
2026-01-08 22:03:31.54	341.45	9.34	-38.3	-39.5	21.4	0.00e+00	65	34	0	1167065088	48	6806
2026-01-08 22:03:35.58	341.04	9.06	-38.4	-39.6	21.4	0.00e+00	0	34	0	1174405120	48	6876
2026-01-08 22:03:39.62	340.62	8.79	-38.1	-39.2	21.7	0.00e+00	0	34	0	1181745152	48	6553
2026-01-08 22:03:43.65	340.22	8.53	-38.3	-39.5	21.4	0.00e+00	0	34	0	1189085184	48	6798
2026-01-08 22:03:47.69	339.83	8.26	-38.6	-39.8	21.1	0.00e+00	59	34	0	1197473792	48	7071
2026-01-08 22:03:51.73	339.44	7.99	-39.5	-40.9	20.1	0.00e+00	0	34	0	1204813824	50	7127
2026-01-08 22:03:55.77	339.06	7.73	-40.0	-41.5	19.5	0.00e+00	0	34	0	1212153856	52	6770
2026-01-08 22:03:59.80	338.68	7.47	-39.9	-41.3	19.7	0.00e+00	0	34	0	1219493888	52	6647
2026-01-08 22:04:03.84	338.32	7.20	-39.7	-41.1	19.9	0.00e+00	92	34	0	1226833920	52	6493
2026-01-08 22:04:07.88	337.96	6.94	-39.7	-41.1	19.8	0.00e+00	0	34	0	1235222528	52	6479
2026-01-08 22:04:11.92	337.60	6.69	-40.1	-41.5	19.4	0.00e+00	0	34	0	1242562560	52	6841
2026-01-08 22:04:15.95	337.26	6.43	-40.5	-42.1	18.8	0.00e+00	0	34	0	1249902592	52	7305
2026-01-08 22:04:19.99	336.92	6.17	-40.6	-42.3	18.6	0.00e+00	0	34	0	1257242624	52	7437
2026-01-08 22:04:24.03	336.58	5.92	-40.7	-42.5	18.2	0.00e+00	0	34	0	1264582656	54	6786
2026-01-08 22:04:28.06	336.25	5.67	-40.7	-42.6	17.5	0.00e+00	0	34	0	1272971264	54	6890
2026-01-08 22:04:32.10	335.93	5.42	-41.0	-43.4	15.8	0.00e+00	92	34	0	1280311296	54	7567
2026-01-08 22:04:36.13	335.61	5.17	-42.1	-46.0	12.4	4.11e-05	0	34	0	1287651328	56	9050
2026-01-08 22:04:40.17	335.30	4.92	-42.7	-49.5	7.3	8.86e-02	0	34	0	1294991360	56	13599
2026-01-08 22:04:44.20	335.00	4.68	-42.8	-53.1	3.8	1.20e+00	43	34	0	1302331392	58	18257
2026-01-08 22:04:48.24	334.70	4.43	-42.8	-56.4	3.6	1.51e+00	0	34	104	1302331392	58	26846
2026-01-08 22:04:52.28	334.40	4.19	-42.8	-57.7	3.6	1.51e+00	0	34	104	1302331392	58	31202
2026-01-08 22:04:56.31	334.11	3.95	-42.8	-57.7	3.6	1.51e+00	0	34	104	1302331392	58	31107
2026-01-08 22:05:00.35	333.83	3.71	-42.8	-57.9	3.6	1.51e+00	0	34	104	1302331392	58	31776
2026-01-08 22:05:04.39	333.55	3.47	-42.8	-57.9	3.6	1.51e+00	0	34	104	1302331392	58	31897
2026-01-08 22:05:08.42	333.27	3.23	-42.8	-57.9	3.6	1.51e+00	0	34	104	1302331392	58	31954
2026-01-08 22:05:12.46	333.00	2.99	-42.9	-58.0	3.6	1.51e+00	0	34	104	1302331392	58	32119
2026-01-08 22:05:16.49	332.73	2.76	-48.0	-63.2	3.6	1.51e+00	0	34	104	1302331392	60	52141
2026-01-08 22:05:20.53	332.47	2.53	-48.2	-63.5	3.6	1.51e+00	0	34	104	1302331392	60	53776
2026-01-08 22:05:24.57	332.21	2.29	-48.2	-63.5	3.6	1.51e+00	0	34	104	1302331392	60	54059
2026-01-08 22:05:28.60	331.96	2.06	-48.2	-63.4	3.6	1.51e+00	0	34	104	1302331392	60	53610
2026-01-08 22:05:32.64	331.71	1.83	-48.2	-63.4	3.6	1.51e+00	0	34	104	1302331392	60	53247
2026-01-08 22:05:36.68	331.47	1.61	-48.2	-63.4	3.6	1.51e+00	0	34	104	1302331392	60	53223
2026-01-08 22:05:40.71	331.23	1.38	-48.1	-63.4	3.6	1.51e+00	0	34	104	1302331392	60	53212
2026-01-08 22:05:44.75	330.99	1.16	-48.1	-63.3	3.6	1.51e+00	0	34	104	1302331392	60	53094
2026-01-08 22:05:48.79	330.76	0.93	-48.1	-63.3	3.6	1.51e+00	0	34	104	1302331392	60	52933
2026-01-08 22:05:52.83	330.53	0.71	-48.1	-63.3	3.6	1.51e+00	0	34	104	1302331392	60	52915
2026-01-08 22:05:56.87	330.30	0.49	-48.2	-63.4	3.6	1.51e+00	0	34	104	1302331392	60	53266
2026-01-08 22:06:00.91	330.08	0.27	-48.1	-63.3	3.6	1.51e+00	0	34	104	1302331392	60	52904
2026-01-08 22:06:04.94	329.86	0.05	-48.1	-63.3	3.6	1.51e+00	0	34	104	1302331392	60	52839

#Closed at: 2026-01-08 22:06:06
#Recorded file [1302 MB]: D:/lorett/data/35029_260109_095213.dat