passes_logs/2026/01/08/R4.6S_Anadyr/R4.6S_Anadyr__20260108_013020_SUOMI_NPP_rec.log

#Pass ID: 20260108_013020_SUOMI NPP
#Satellite: SUOMI NPP
#Configuration: NPP
#almurnet v.1.7.20251203
#Start time: 2026-01-08 01:30:22

#Version: 2.2.20231116
#Station: R4.6S_Anadyr
#Location: 177.4865 lon 64.73178 lat
#TLE: 1 37849U 11061A   26004.95404768  .00000136  00000+0  85334-4 0  9991
#TLE: 2 37849  98.7801 307.0898 0002575  80.6707 279.4760 14.19522289735281

#Time	Az	El	Level	Level2	SNR	BER	BlckErr	Temp	State	Recorded	gain1	gain2
2026-01-08 01:30:22.57	187.27	0.11	-49.3	-61.8	3.4	1.52e+00	0	36	0	0	60	43310
2026-01-08 01:30:26.61	187.43	0.35	-49.3	-64.5	3.6	1.51e+00	0	37	104	0	60	60807
2026-01-08 01:30:30.65	187.59	0.58	-49.3	-64.5	3.6	1.51e+00	0	37	104	0	60	60781
2026-01-08 01:30:34.69	187.76	0.82	-49.0	-64.1	3.6	1.51e+00	0	37	104	0	60	58266
2026-01-08 01:30:38.72	187.93	1.05	-48.0	-63.1	3.6	1.51e+00	0	37	104	0	60	51814
2026-01-08 01:30:42.76	188.10	1.29	-48.0	-63.2	3.6	1.51e+00	0	37	104	0	60	52127
2026-01-08 01:30:46.80	188.28	1.53	-48.0	-63.2	3.6	1.51e+00	0	37	104	0	60	51959
2026-01-08 01:30:50.84	188.45	1.78	-48.0	-63.0	3.6	1.51e+00	0	37	104	0	60	51151
2026-01-08 01:30:54.88	188.63	2.02	-48.0	-63.1	3.6	1.51e+00	0	37	104	0	60	51834
2026-01-08 01:30:58.92	188.82	2.27	-48.0	-63.2	3.6	1.51e+00	0	37	104	0	60	51970
2026-01-08 01:31:02.96	189.00	2.52	-48.0	-62.9	3.6	1.51e+00	0	37	104	0	60	50255
2026-01-08 01:31:07.00	189.19	2.77	-48.0	-62.8	3.6	1.51e+00	0	38	104	0	60	49729
2026-01-08 01:31:11.04	189.38	3.02	-46.7	-52.1	9.7	4.93e-02	91	38	0	2097152	60	14556
2026-01-08 01:31:15.08	189.58	3.27	-43.3	-45.6	16.6	0.00e+00	92	38	0	9437184	60	6869
2026-01-08 01:31:19.12	189.78	3.53	-43.4	-45.6	16.5	0.00e+00	0	38	0	16777216	60	6893
2026-01-08 01:31:23.16	189.98	3.79	-48.0	-63.0	3.6	6.74e-01	0	38	104	24117248	60	51162
2026-01-08 01:31:27.20	190.18	4.05	-43.0	-45.1	17.1	0.00e+00	90	38	0	28311552	60	6482
2026-01-08 01:31:31.24	190.39	4.32	-42.7	-44.6	17.6	0.00e+00	0	38	0	35651584	58	6915
2026-01-08 01:31:35.28	190.60	4.58	-42.2	-44.0	18.1	0.00e+00	0	38	0	42991616	58	6392
2026-01-08 01:31:39.32	190.82	4.85	-41.8	-43.3	18.9	0.00e+00	92	38	0	50331648	56	6668
2026-01-08 01:31:43.35	191.04	5.12	-41.5	-43.0	19.3	0.00e+00	92	38	0	58720256	56	6427
2026-01-08 01:31:47.39	191.26	5.39	-41.7	-43.2	19.2	0.00e+00	0	38	0	66060288	56	6562
2026-01-08 01:31:51.43	191.49	5.67	-41.4	-42.8	19.4	0.00e+00	59	38	0	73400320	56	6302
2026-01-08 01:31:55.47	191.72	5.95	-41.3	-42.8	19.5	0.00e+00	90	38	0	80740352	56	6265
2026-01-08 01:31:59.50	191.95	6.23	-41.1	-42.5	19.9	0.00e+00	92	38	0	89128960	56	6071
2026-01-08 01:32:03.54	192.19	6.51	-41.2	-42.7	19.8	0.00e+00	0	38	0	96468992	56	6186
2026-01-08 01:32:07.57	192.44	6.80	-41.1	-42.6	19.8	0.00e+00	92	38	0	103809024	56	6108
2026-01-08 01:32:11.61	192.68	7.08	-41.3	-42.7	19.7	0.00e+00	92	38	0	111149056	56	6225
2026-01-08 01:32:15.64	192.94	7.38	-41.2	-42.6	19.8	0.00e+00	0	38	0	118489088	56	6172
2026-01-08 01:32:19.69	193.20	7.67	-41.3	-42.7	19.8	0.00e+00	9	38	0	126877696	56	6195
2026-01-08 01:32:23.72	193.46	7.97	-40.8	-42.2	20.3	0.00e+00	91	38	0	134217728	56	5838
2026-01-08 01:32:27.76	193.73	8.27	-40.7	-42.0	20.4	0.00e+00	92	38	0	141557760	54	6391
2026-01-08 01:32:31.80	194.00	8.57	-40.5	-41.8	20.5	0.00e+00	0	38	0	148897792	54	6254
2026-01-08 01:32:35.84	194.28	8.88	-40.4	-41.6	20.9	0.00e+00	92	38	0	157286400	54	6117
2026-01-08 01:32:39.87	194.56	9.19	-40.6	-41.8	20.7	0.00e+00	92	38	0	164626432	54	6300
2026-01-08 01:32:43.91	194.85	9.50	-40.2	-41.4	21.0	0.00e+00	92	38	0	171966464	54	5983
2026-01-08 01:32:47.95	195.15	9.82	-40.1	-41.3	21.1	0.00e+00	0	38	0	179306496	54	5902
2026-01-08 01:32:51.98	195.45	10.14	-39.9	-41.0	21.3	0.00e+00	92	38	0	186646528	52	6450
2026-01-08 01:32:56.01	195.76	10.46	-39.3	-40.4	22.0	0.00e+00	92	38	0	195035136	52	6002
2026-01-08 01:33:00.05	196.08	10.79	-38.8	-39.8	22.4	0.00e+00	38	38	0	202375168	50	6254
2026-01-08 01:33:04.09	196.40	11.12	-38.7	-39.6	22.5	0.00e+00	0	38	0	209715200	50	6169
2026-01-08 01:33:08.13	196.73	11.46	-38.6	-39.6	22.6	0.00e+00	91	38	0	217055232	50	6146
2026-01-08 01:33:12.17	197.07	11.80	-38.3	-39.2	22.8	0.00e+00	61	38	0	224395264	50	5881
2026-01-08 01:33:16.20	197.41	12.14	-38.6	-39.5	22.6	0.00e+00	0	38	0	232783872	50	6094
2026-01-08 01:33:20.24	197.76	12.49	-38.4	-39.4	22.8	0.00e+00	9	38	0	240123904	50	5993
2026-01-08 01:33:24.28	198.12	12.84	-38.4	-39.3	22.9	0.00e+00	92	38	0	247463936	50	5940
2026-01-08 01:33:28.32	198.49	13.19	-38.4	-39.3	22.9	0.00e+00	90	38	0	254803968	50	5938
2026-01-08 01:33:32.35	198.87	13.55	-38.6	-39.6	22.6	0.00e+00	0	38	0	263192576	50	6136
2026-01-08 01:33:36.39	199.25	13.91	-38.6	-39.5	22.7	0.00e+00	92	38	0	270532608	50	6100
2026-01-08 01:33:40.42	199.65	14.28	-38.8	-39.7	22.6	0.00e+00	82	38	0	277872640	50	6238
2026-01-08 01:33:44.46	200.05	14.65	-38.4	-39.4	22.8	0.00e+00	92	38	0	285212672	50	5971
2026-01-08 01:33:48.50	200.47	15.03	-38.3	-39.2	22.9	0.00e+00	0	38	0	292552704	50	5853
2026-01-08 01:33:52.53	200.89	15.41	-38.5	-39.5	22.9	0.00e+00	91	38	0	300941312	50	6057
2026-01-08 01:33:56.56	201.32	15.79	-38.5	-39.5	22.8	0.00e+00	91	38	0	308281344	50	6060
2026-01-08 01:34:00.59	201.77	16.18	-38.0	-38.9	23.2	0.00e+00	33	38	0	315621376	50	5684
2026-01-08 01:34:04.62	202.23	16.58	-38.1	-39.0	23.2	0.00e+00	0	38	0	322961408	50	5760
2026-01-08 01:34:08.66	202.70	16.98	-38.3	-39.3	23.0	0.00e+00	92	38	0	330301440	50	5901
2026-01-08 01:34:12.70	203.18	17.38	-38.8	-39.8	22.6	0.00e+00	92	38	0	338690048	50	6275
2026-01-08 01:34:16.73	203.67	17.79	-39.0	-40.0	22.4	0.00e+00	0	38	0	346030080	50	6445
2026-01-08 01:34:20.77	204.18	18.20	-39.1	-40.1	22.2	0.00e+00	0	38	0	353370112	50	6532
2026-01-08 01:34:24.81	204.70	18.62	-39.5	-40.6	22.0	0.00e+00	88	38	0	360710144	50	6904
2026-01-08 01:34:28.85	205.24	19.05	-39.2	-40.2	22.3	0.00e+00	92	38	0	369098752	50	6596
2026-01-08 01:34:32.89	205.79	19.47	-38.9	-39.9	22.5	0.00e+00	0	38	0	376438784	50	6340
2026-01-08 01:34:36.92	206.35	19.91	-39.2	-40.2	22.2	0.00e+00	90	38	0	383778816	50	6552
2026-01-08 01:34:40.95	206.93	20.34	-39.1	-40.1	22.4	0.00e+00	89	38	0	391118848	50	6533
2026-01-08 01:34:44.99	207.53	20.79	-39.4	-40.5	22.2	0.00e+00	58	38	0	398458880	50	6788
2026-01-08 01:34:49.03	208.14	21.24	-39.1	-40.1	22.2	0.00e+00	0	38	0	406847488	50	6502
2026-01-08 01:34:53.07	208.77	21.69	-38.5	-39.4	22.9	0.00e+00	90	38	0	414187520	50	6002
2026-01-08 01:34:57.11	209.42	22.15	-38.1	-39.0	23.1	0.00e+00	92	38	0	421527552	50	5737
2026-01-08 01:35:01.15	210.09	22.61	-38.2	-39.1	23.1	0.00e+00	0	38	0	428867584	50	5807
2026-01-08 01:35:05.19	210.78	23.07	-39.0	-40.0	22.5	0.00e+00	75	38	0	437256192	50	6429
2026-01-08 01:35:09.22	211.49	23.54	-39.0	-40.0	22.5	0.00e+00	35	38	0	444596224	50	6417
2026-01-08 01:35:13.27	212.22	24.02	-38.1	-39.0	23.2	0.00e+00	92	38	0	451936256	50	5744
2026-01-08 01:35:17.30	212.97	24.50	-38.1	-39.1	23.3	0.00e+00	0	38	0	459276288	50	5766
2026-01-08 01:35:21.34	213.75	24.98	-38.2	-39.1	23.2	0.00e+00	92	38	0	466616320	50	5811
2026-01-08 01:35:25.37	214.54	25.46	-37.3	-38.1	24.0	0.00e+00	92	38	0	475004928	48	5795
2026-01-08 01:35:29.41	215.36	25.95	-37.6	-38.4	23.6	0.00e+00	86	38	0	482344960	48	6020
2026-01-08 01:35:33.40	216.20	26.44	-38.5	-39.5	22.9	0.00e+00	0	38	0	489684992	48	6827
2026-01-08 01:35:37.43	217.07	26.93	-38.3	-39.3	22.9	0.00e+00	92	38	0	497025024	48	6642
2026-01-08 01:35:41.47	217.97	27.42	-39.2	-40.3	22.3	0.00e+00	69	38	0	504365056	50	6623
2026-01-08 01:35:45.51	218.90	27.92	-38.9	-39.9	22.6	0.00e+00	0	38	0	512753664	50	6335
2026-01-08 01:35:49.54	219.85	28.41	-38.5	-39.4	23.0	0.00e+00	0	38	0	520093696	50	6002
2026-01-08 01:35:53.58	220.84	28.91	-39.0	-40.0	22.4	0.00e+00	92	38	0	527433728	50	6421
2026-01-08 01:35:57.62	221.86	29.41	-38.6	-39.5	23.0	0.00e+00	92	38	0	534773760	50	6082
2026-01-08 01:36:01.66	222.90	29.90	-38.7	-39.7	22.7	0.00e+00	0	38	0	543162368	50	6212
2026-01-08 01:36:05.70	223.98	30.40	-39.9	-41.1	21.5	0.00e+00	0	38	0	550502400	52	6509
2026-01-08 01:36:09.73	225.09	30.89	-40.3	-41.5	21.5	0.00e+00	84	38	0	557842432	52	6785
2026-01-08 01:36:13.77	226.24	31.37	-40.4	-41.6	21.1	0.00e+00	91	38	0	565182464	52	6882
2026-01-08 01:36:17.81	227.42	31.86	-41.6	-43.0	19.8	0.00e+00	0	38	0	572522496	56	6427
2026-01-08 01:36:21.85	228.63	32.33	-42.6	-44.3	18.8	0.00e+00	90	38	0	580911104	58	6645
2026-01-08 01:36:25.89	229.88	32.80	-42.0	-43.5	19.7	0.00e+00	91	38	0	588251136	56	6780
2026-01-08 01:36:29.92	231.16	33.26	-43.7	-45.8	17.4	0.00e+00	32	38	0	595591168	60	7017
2026-01-08 01:36:33.96	232.48	33.72	-43.2	-45.0	18.4	0.00e+00	0	38	0	602931200	60	6416
2026-01-08 01:36:38.00	233.84	34.16	-43.9	-45.9	17.3	0.00e+00	92	38	0	611319808	60	7150
2026-01-08 01:36:42.04	235.23	34.59	-44.2	-46.3	17.1	0.00e+00	91	38	0	618659840	60	7472
2026-01-08 01:36:46.07	236.66	35.00	-42.9	-44.6	18.6	0.00e+00	0	38	0	625999872	60	6108
2026-01-08 01:36:50.11	238.12	35.41	-43.4	-45.3	17.5	0.00e+00	0	38	0	633339904	58	7430
2026-01-08 01:36:54.15	239.62	35.79	-40.8	-42.0	20.8	0.00e+00	77	39	0	640679936	56	5717
2026-01-08 01:36:58.18	241.15	36.16	-40.7	-41.8	21.1	0.00e+00	91	38	0	649068544	54	6308
2026-01-08 01:37:02.22	242.72	36.51	-38.9	-39.8	22.2	0.00e+00	33	38	0	656408576	52	5626
2026-01-08 01:37:06.25	244.31	36.84	-39.2	-40.2	22.4	0.00e+00	81	38	0	663748608	50	6580
2026-01-08 01:37:10.29	245.94	37.15	-38.9	-39.9	22.6	0.00e+00	81	38	0	671088640	50	6352
2026-01-08 01:37:14.33	247.60	37.43	-38.8	-39.7	22.8	0.00e+00	52	38	0	679477248	50	6211
2026-01-08 01:37:18.36	249.29	37.69	-39.4	-40.4	22.3	0.00e+00	0	38	0	686817280	52	5985
2026-01-08 01:37:22.40	251.00	37.92	-39.5	-40.6	22.1	0.00e+00	92	38	0	694157312	52	6132
2026-01-08 01:37:26.44	252.73	38.13	-38.7	-39.6	22.9	0.00e+00	92	38	0	701497344	50	6156
2026-01-08 01:37:30.47	254.49	38.30	-39.6	-40.7	22.2	0.00e+00	0	38	0	708837376	52	6213
2026-01-08 01:37:34.51	256.26	38.45	-39.0	-40.0	22.6	0.00e+00	0	38	0	717225984	52	5709
2026-01-08 01:37:38.55	258.05	38.57	-38.9	-39.9	22.6	0.00e+00	77	38	0	724566016	50	6321
2026-01-08 01:37:42.59	259.84	38.66	-40.4	-41.5	21.2	0.00e+00	92	38	0	731906048	52	6844
2026-01-08 01:37:46.63	261.65	38.72	-39.6	-40.6	22.1	0.00e+00	0	38	0	739246080	52	6129
2026-01-08 01:37:50.67	263.46	38.74	-40.4	-41.6	21.2	0.00e+00	0	38	0	747634688	52	6867
2026-01-08 01:37:54.70	265.27	38.74	-41.2	-42.5	20.6	0.00e+00	92	38	0	754974720	56	6086
2026-01-08 01:37:58.74	267.08	38.70	-38.5	-39.4	23.0	0.00e+00	27	38	0	762314752	50	6023
2026-01-08 01:38:02.78	268.88	38.63	-38.4	-39.3	23.1	0.00e+00	0	38	0	769654784	50	5957
2026-01-08 01:38:06.81	270.67	38.53	-38.4	-39.3	23.1	0.00e+00	90	38	0	776994816	50	5954
2026-01-08 01:38:10.85	272.45	38.40	-37.9	-38.8	23.5	0.00e+00	80	38	0	785383424	50	5573
2026-01-08 01:38:14.89	274.21	38.24	-37.8	-38.6	23.7	0.00e+00	0	38	0	792723456	48	6157
2026-01-08 01:38:18.93	275.96	38.06	-39.0	-40.0	22.5	0.00e+00	0	38	0	800063488	50	6460
2026-01-08 01:38:22.97	277.68	37.84	-39.5	-40.6	22.2	0.00e+00	91	38	0	807403520	50	6852
2026-01-08 01:38:27.00	279.38	37.60	-40.6	-41.9	21.0	0.00e+00	90	38	0	815792128	52	7108
2026-01-08 01:38:31.04	281.06	37.33	-38.1	-39.1	23.3	0.00e+00	0	38	0	823132160	50	5764
2026-01-08 01:38:35.08	282.70	37.04	-38.2	-39.1	23.5	0.00e+00	0	38	0	830472192	50	5763
2026-01-08 01:38:39.12	284.32	36.73	-40.4	-41.5	21.3	0.00e+00	46	38	0	837812224	52	6816
2026-01-08 01:38:43.16	285.90	36.39	-38.4	-39.3	23.2	0.00e+00	91	38	0	845152256	50	5911
2026-01-08 01:38:47.19	287.45	36.04	-37.6	-38.5	23.7	0.00e+00	0	38	0	853540864	48	6068
2026-01-08 01:38:51.23	288.97	35.66	-37.9	-38.8	23.3	0.00e+00	92	38	0	860880896	48	6281
2026-01-08 01:38:55.27	290.45	35.27	-38.4	-39.3	23.1	0.00e+00	92	38	0	868220928	48	6683
2026-01-08 01:38:59.31	291.90	34.87	-42.4	-44.0	19.2	0.00e+00	0	38	0	875560960	56	7196
2026-01-08 01:39:03.35	293.31	34.45	-41.5	-42.8	20.0	0.00e+00	0	38	0	883949568	54	7079
2026-01-08 01:39:07.38	294.69	34.02	-39.7	-40.8	22.0	0.00e+00	21	38	0	891289600	52	6261
2026-01-08 01:39:11.42	296.03	33.57	-43.1	-44.8	18.2	0.00e+00	91	38	0	898629632	58	7050
2026-01-08 01:39:15.45	297.33	33.12	-39.8	-40.9	21.9	0.00e+00	0	38	0	905969664	54	5667
2026-01-08 01:39:19.49	298.60	32.66	-41.3	-42.6	20.5	0.00e+00	0	38	0	913309696	56	6155
2026-01-08 01:39:23.53	299.83	32.19	-38.8	-39.8	22.6	0.00e+00	74	38	0	921698304	50	6263
2026-01-08 01:39:27.56	301.02	31.71	-40.1	-41.2	21.7	0.00e+00	86	38	0	929038336	52	6595
2026-01-08 01:39:31.59	302.18	31.23	-38.9	-39.9	22.5	0.00e+00	0	38	0	936378368	52	5688
2026-01-08 01:39:35.63	303.32	30.75	-36.2	-37.0	24.7	0.00e+00	76	38	0	943718400	46	5740
2026-01-08 01:39:39.66	304.41	30.26	-39.4	-40.5	22.2	0.00e+00	77	38	0	951058432	50	6772
2026-01-08 01:39:43.70	305.47	29.77	-37.8	-38.7	23.5	0.00e+00	0	38	0	959447040	48	6187
2026-01-08 01:39:47.73	306.51	29.27	-39.3	-40.4	22.3	0.00e+00	0	38	0	966787072	50	6722
2026-01-08 01:39:51.77	307.51	28.78	-37.0	-37.8	24.2	0.00e+00	91	38	0	974127104	48	5620
2026-01-08 01:39:55.80	308.48	28.29	-38.9	-40.0	22.5	0.00e+00	85	38	0	981467136	50	6397
2026-01-08 01:39:59.84	309.42	27.79	-38.4	-39.3	22.9	0.00e+00	0	38	0	989855744	48	6675
2026-01-08 01:40:03.88	310.34	27.30	-37.0	-37.8	24.2	0.00e+00	0	38	0	997195776	48	5602
2026-01-08 01:40:07.91	311.22	26.81	-36.4	-37.2	24.6	0.00e+00	72	38	0	1004535808	44	6580
2026-01-08 01:40:11.95	312.09	26.32	-38.6	-39.5	23.0	0.00e+00	91	38	0	1011875840	50	6103
2026-01-08 01:40:15.98	312.92	25.84	-36.3	-37.1	24.7	0.00e+00	0	38	0	1019215872	46	5794
2026-01-08 01:40:20.01	313.73	25.35	-37.6	-38.5	23.7	0.00e+00	0	38	0	1027604480	46	6771
2026-01-08 01:40:24.05	314.52	24.87	-36.4	-37.2	24.5	0.00e+00	39	38	0	1034944512	46	5874
2026-01-08 01:40:28.08	315.28	24.39	-36.2	-37.0	24.6	0.00e+00	0	38	0	1042284544	44	6459
2026-01-08 01:40:32.12	316.03	23.92	-36.9	-37.8	24.0	0.00e+00	0	38	0	1049624576	46	6262
2026-01-08 01:40:36.16	316.75	23.45	-35.6	-36.3	25.0	0.00e+00	73	38	0	1056964608	44	5937
2026-01-08 01:40:40.19	317.45	22.99	-36.0	-36.7	24.8	0.00e+00	91	38	0	1065353216	44	6245
2026-01-08 01:40:44.23	318.13	22.52	-36.5	-37.3	24.5	0.00e+00	0	38	0	1072693248	44	6659
2026-01-08 01:40:48.26	318.79	22.07	-36.1	-36.9	24.7	0.00e+00	0	38	0	1080033280	44	6335
2026-01-08 01:40:52.30	319.43	21.61	-36.1	-36.9	24.7	0.00e+00	92	38	0	1087373312	44	6373
2026-01-08 01:40:56.34	320.06	21.17	-36.3	-37.1	24.5	0.00e+00	90	38	0	1095761920	44	6532
2026-01-08 01:41:00.38	320.66	20.72	-36.1	-36.9	24.6	0.00e+00	0	38	0	1103101952	44	6359
2026-01-08 01:41:04.42	321.26	20.28	-36.6	-37.4	24.3	0.00e+00	0	38	0	1110441984	44	6760
2026-01-08 01:41:08.45	321.83	19.85	-36.7	-37.5	24.2	0.00e+00	61	38	0	1117782016	46	6085
2026-01-08 01:41:12.49	322.39	19.42	-37.8	-38.7	23.3	0.00e+00	0	38	0	1125122048	48	6239
2026-01-08 01:41:16.52	322.93	19.00	-38.0	-39.0	23.1	0.00e+00	0	38	0	1133510656	48	6415
2026-01-08 01:41:20.56	323.46	18.58	-38.1	-39.0	23.1	0.00e+00	0	38	0	1140850688	48	6439
2026-01-08 01:41:24.60	323.98	18.16	-38.4	-39.3	22.7	0.00e+00	0	38	0	1148190720	48	6671
2026-01-08 01:41:28.63	324.48	17.76	-39.4	-40.6	21.8	0.00e+00	0	38	0	1155530752	50	6863
2026-01-08 01:41:32.67	324.97	17.35	-38.9	-40.0	22.3	0.00e+00	0	38	0	1162870784	50	6427
2026-01-08 01:41:36.71	325.45	16.95	-37.7	-38.7	23.4	0.00e+00	39	38	0	1171259392	48	6180
2026-01-08 01:41:40.75	325.92	16.55	-37.8	-38.8	23.1	0.00e+00	0	38	0	1178599424	48	6271
2026-01-08 01:41:44.78	326.37	16.16	-38.3	-39.3	22.8	0.00e+00	0	38	0	1185939456	48	6624
2026-01-08 01:41:48.82	326.82	15.78	-37.8	-38.8	23.2	0.00e+00	0	38	0	1193279488	48	6275
2026-01-08 01:41:52.85	327.25	15.40	-37.6	-38.5	23.4	0.00e+00	91	38	0	1201668096	48	6073
2026-01-08 01:41:56.89	327.67	15.02	-37.7	-38.6	23.4	0.00e+00	0	38	0	1209008128	48	6120
2026-01-08 01:42:00.93	328.08	14.65	-38.0	-39.0	22.9	0.00e+00	0	38	0	1216348160	48	6407
2026-01-08 01:42:04.96	328.48	14.28	-38.3	-39.3	22.9	0.00e+00	25	38	0	1223688192	48	6641
2026-01-08 01:42:09.00	328.88	13.92	-37.8	-38.7	23.1	0.00e+00	74	38	0	1231028224	48	6233
2026-01-08 01:42:13.04	329.26	13.56	-37.8	-38.7	23.1	0.00e+00	0	38	0	1239416832	48	6213
2026-01-08 01:42:17.08	329.64	13.20	-38.6	-39.6	22.3	0.00e+00	0	38	0	1246756864	48	6857
2026-01-08 01:42:21.12	330.00	12.85	-39.4	-40.5	21.5	0.00e+00	60	38	0	1254096896	50	6831
2026-01-08 01:42:25.15	330.36	12.50	-40.4	-41.7	20.6	0.00e+00	0	38	0	1261436928	52	6983
2026-01-08 01:42:29.19	330.71	12.16	-40.6	-41.9	20.4	0.00e+00	0	38	0	1269825536	54	6364
2026-01-08 01:42:33.23	331.06	11.82	-40.1	-41.4	20.9	0.00e+00	0	38	0	1277165568	54	6007
2026-01-08 01:42:37.26	331.39	11.48	-38.8	-39.9	22.2	0.00e+00	53	39	0	1284505600	52	5637
2026-01-08 01:42:41.30	331.72	11.15	-38.4	-39.4	22.5	0.00e+00	0	39	0	1291845632	50	6009
2026-01-08 01:42:45.34	332.04	10.82	-37.9	-38.9	23.0	0.00e+00	0	38	0	1299185664	50	5657
2026-01-08 01:42:49.38	332.36	10.50	-38.0	-39.0	22.8	0.00e+00	0	38	0	1307574272	50	5707
2026-01-08 01:42:53.41	332.67	10.18	-37.9	-38.8	22.9	0.00e+00	90	38	0	1314914304	50	5601
2026-01-08 01:42:57.45	332.97	9.86	-38.4	-39.4	22.5	0.00e+00	0	38	0	1322254336	50	5999
2026-01-08 01:43:01.49	333.27	9.55	-38.6	-39.6	22.4	0.00e+00	0	38	0	1329594368	50	6156
2026-01-08 01:43:05.52	333.56	9.24	-39.1	-40.2	21.8	0.00e+00	0	38	0	1336934400	50	6552
2026-01-08 01:43:09.56	333.84	8.93	-39.5	-40.6	21.4	0.00e+00	92	39	0	1345323008	50	6874
2026-01-08 01:43:13.60	334.12	8.62	-40.4	-41.6	20.6	0.00e+00	0	39	0	1352663040	52	6925
2026-01-08 01:43:17.63	334.40	8.32	-40.6	-42.0	20.2	0.00e+00	0	38	0	1360003072	54	6397
2026-01-08 01:43:21.67	334.66	8.03	-40.9	-42.3	19.9	0.00e+00	24	38	0	1367343104	54	6617
2026-01-08 01:43:25.71	334.93	7.73	-40.7	-42.1	20.1	0.00e+00	0	39	0	1375731712	54	6468
2026-01-08 01:43:29.74	335.19	7.44	-40.7	-42.1	19.9	0.00e+00	0	38	0	1383071744	54	6493
2026-01-08 01:43:33.78	335.44	7.15	-40.5	-41.9	20.1	0.00e+00	0	39	0	1390411776	54	6347
2026-01-08 01:43:37.82	335.69	6.86	-40.4	-41.7	20.0	0.00e+00	90	39	0	1397751808	54	6202
2026-01-08 01:43:41.86	335.94	6.58	-40.3	-41.6	20.2	0.00e+00	0	39	0	1405091840	54	6139
2026-01-08 01:43:45.89	336.18	6.30	-40.4	-41.7	20.1	0.00e+00	0	38	0	1413480448	54	6211
2026-01-08 01:43:49.93	336.41	6.02	-40.8	-42.3	19.3	0.00e+00	57	38	0	1420820480	54	6624
2026-01-08 01:43:53.97	336.65	5.74	-41.7	-43.5	17.9	0.00e+00	92	39	0	1428160512	54	7652
2026-01-08 01:43:58.01	336.87	5.47	-42.7	-45.1	15.8	0.00e+00	0	39	0	1435500544	56	8232
2026-01-08 01:44:02.04	337.10	5.20	-43.6	-47.2	13.1	1.44e-05	0	39	0	1443889152	58	9291
2026-01-08 01:44:06.07	337.32	4.93	-44.2	-49.3	10.2	3.02e-03	0	39	0	1451229184	60	10572
2026-01-08 01:44:10.11	337.54	4.67	-44.5	-51.3	7.2	1.10e-01	1	39	0	1458569216	60	13269
2026-01-08 01:44:14.14	337.75	4.40	-44.6	-53.3	4.9	5.28e-01	33	39	0	1465909248	60	16622
2026-01-08 01:44:18.18	337.96	4.14	-44.5	-56.7	3.7	1.41e+00	0	39	104	1472200704	60	24823
2026-01-08 01:44:22.21	338.17	3.88	-44.3	-58.2	3.6	1.51e+00	0	39	104	1472200704	60	29497
2026-01-08 01:44:26.25	338.37	3.63	-44.1	-59.3	3.6	1.51e+00	0	39	104	1472200704	60	33217
2026-01-08 01:44:30.29	338.57	3.37	-44.2	-59.3	3.6	1.51e+00	0	39	104	1472200704	60	33201
2026-01-08 01:44:34.32	338.77	3.12	-44.2	-59.4	3.6	1.51e+00	0	39	104	1472200704	60	33738
2026-01-08 01:44:38.36	338.96	2.87	-48.6	-63.8	3.6	1.51e+00	0	39	104	1472200704	60	56172
2026-01-08 01:44:42.40	339.16	2.62	-49.2	-64.4	3.6	1.51e+00	0	39	104	1472200704	60	59661
2026-01-08 01:44:46.44	339.34	2.37	-48.9	-64.3	3.6	1.51e+00	0	39	104	1472200704	60	59632
2026-01-08 01:44:50.48	339.53	2.13	-49.2	-64.4	3.6	1.51e+00	0	39	104	1472200704	60	59903
2026-01-08 01:44:54.52	339.71	1.88	-49.2	-64.4	3.6	1.51e+00	0	39	104	1472200704	60	59910
2026-01-08 01:44:58.56	339.89	1.64	-49.2	-64.4	3.6	1.51e+00	0	38	104	1472200704	60	60130
2026-01-08 01:45:02.60	340.07	1.40	-49.2	-64.4	3.6	1.51e+00	0	39	104	1472200704	60	59860
2026-01-08 01:45:06.63	340.25	1.17	-49.1	-64.4	3.6	1.51e+00	0	39	104	1472200704	60	59689
2026-01-08 01:45:10.67	340.42	0.93	-49.1	-64.3	3.6	1.51e+00	0	39	104	1472200704	60	59610
2026-01-08 01:45:14.71	340.59	0.70	-49.1	-64.4	3.6	1.51e+00	0	39	104	1472200704	60	59846
2026-01-08 01:45:18.75	340.76	0.47	-49.1	-64.4	3.6	1.51e+00	0	39	104	1472200704	60	59771
2026-01-08 01:45:22.79	340.92	0.23	-49.1	-64.3	3.6	1.51e+00	0	39	104	1472200704	60	59414
2026-01-08 01:45:26.82	341.09	0.01	-49.1	-64.3	3.6	1.51e+00	0	39	104	1472200704	60	59568

#Closed at: 2026-01-08 01:45:29
#Recorded file [1472 MB]: D:/lorett/data/35029_260108_133022.dat