passes_logs/2025/01/08/XPeterburg/XPeterburg__20250108_190632_FENGYUN_3F_rec.log

#Pass ID: 20250108_190632_FENGYUN 3F
#Satellite: FENGYUN 3F
#Configuration: FENGYUN 3F
#Start time: 2025-01-08 19:06:25

#Version: 1.5.20200625
#Station: XPeterburg
#Location: 30.318091 lon 59.932769 lat
#TLE: 1 57490U 23111A   24362.10123181  .00000257  00000+0  14143-3 0  9996
#TLE: 2 57490  98.7496  69.2589 0000397 146.4022 213.7180 14.19963369 72649

#Time	Az	El	Level	Level2	SNR	BER	Gain	Gain2
2025-01-08 19:06:25.89	152.03	67.10	-36.2	-39.0	3.3	8396129	89	6756
2025-01-08 19:06:26.29	151.96	67.27	-36.0	-47.3	3.5	8392066	73	18130
2025-01-08 19:06:26.69	151.89	67.45	-36.3	-39.1	3.3	8411853	89	6768
2025-01-08 19:06:27.09	151.83	67.63	-36.3	-40.3	3.6	8422164	89	7784
2025-01-08 19:06:27.50	151.76	67.82	-36.3	-39.1	3.3	8404655	89	6774
2025-01-08 19:06:27.90	151.69	68.00	-36.3	-40.5	3.6	8423641	89	8005
2025-01-08 19:06:28.30	151.62	68.18	-36.3	-39.1	3.3	8441528	89	6798
2025-01-08 19:06:28.70	151.54	68.36	-36.2	-40.5	3.6	8398704	89	8039
2025-01-08 19:06:29.10	151.47	68.54	-36.2	-39.0	3.3	8420185	89	6822
2025-01-08 19:06:29.50	151.40	68.73	-36.2	-40.4	3.6	8406246	89	8004
2025-01-08 19:06:29.91	151.32	68.91	-36.2	-39.0	3.3	8413341	89	6788
2025-01-08 19:06:30.31	151.24	69.10	-36.2	-40.4	3.6	8390762	89	8012
2025-01-08 19:06:30.71	151.16	69.28	-36.2	-39.3	3.4	8445339	89	6997
2025-01-08 19:06:31.11	151.08	69.46	-36.2	-40.3	3.6	8381732	89	7905
2025-01-08 19:06:31.51	151.00	69.65	-36.2	-39.1	3.4	8372646	90	6807
2025-01-08 19:06:31.92	150.91	69.83	-36.2	-38.5	3.3	8391838	90	6375
2025-01-08 19:06:32.32	150.82	70.02	-36.2	-39.1	3.4	8444847	90	6895
2025-01-08 19:06:32.72	150.74	70.20	-36.2	-38.4	3.3	8411075	90	6359
2025-01-08 19:06:33.12	150.65	70.39	-36.2	-39.6	3.6	8446758	90	7326
2025-01-08 19:06:33.52	150.56	70.57	-36.1	-38.4	3.3	8412643	90	6359
2025-01-08 19:06:33.93	150.46	70.76	-36.2	-39.8	3.6	8428836	90	7497
2025-01-08 19:06:34.33	150.37	70.95	-36.5	-38.7	3.3	8420345	91	6302
2025-01-08 19:06:34.73	150.27	71.13	-36.5	-39.9	3.6	8367679	91	7300
2025-01-08 19:06:35.13	150.17	71.32	-36.4	-38.4	3.3	8404563	91	6212
2025-01-08 19:06:35.53	150.07	71.51	-36.5	-39.9	3.6	8395706	91	7322
2025-01-08 19:06:35.93	149.96	71.69	-36.5	-38.7	3.3	8446517	91	6318
2025-01-08 19:06:36.34	149.85	71.89	-36.5	-40.1	3.6	8392478	91	7413
2025-01-08 19:06:36.74	149.75	72.07	-36.6	-39.0	3.4	8371879	91	6520
2025-01-08 19:06:37.14	149.64	72.26	-36.5	-40.0	3.6	8400215	91	7361
2025-01-08 19:06:37.54	149.52	72.45	-36.6	-39.4	3.4	8428356	91	6785
2025-01-08 19:06:37.94	149.41	72.64	-36.6	-38.8	3.3	8398761	91	6316
2025-01-08 19:06:38.35	149.28	72.83	-36.5	-39.6	3.5	8449035	91	7015
2025-01-08 19:06:38.75	149.16	73.02	-36.5	-38.5	3.3	8414783	91	6209
2025-01-08 19:06:39.15	149.04	73.21	-36.5	-39.8	3.6	8421798	91	7186
2025-01-08 19:06:39.55	148.91	73.40	-36.5	-38.5	3.3	8408580	91	6236
2025-01-08 19:06:39.95	148.78	73.59	-36.5	-40.0	3.6	8432281	91	7359
2025-01-08 19:06:40.35	148.65	73.78	-36.5	-38.4	3.3	8409896	91	6176
2025-01-08 19:06:40.76	148.50	73.97	-36.5	-39.8	3.6	8389801	91	7269
2025-01-08 19:06:41.16	148.36	74.16	-36.4	-38.5	3.3	8452983	91	6234
2025-01-08 19:06:41.56	148.22	74.35	-36.5	-39.9	3.6	8396759	91	7288
2025-01-08 19:06:41.96	148.07	74.54	-36.5	-38.6	3.3	8417278	91	6302
2025-01-08 19:06:42.36	147.92	74.73	-36.5	-39.9	3.6	8391918	91	7285
2025-01-08 19:06:42.77	147.76	74.93	-36.5	-38.8	3.4	8436183	91	6422
2025-01-08 19:06:43.17	147.60	75.12	-36.5	-40.0	3.6	8391838	91	7378
2025-01-08 19:06:43.57	147.43	75.31	-36.5	-39.0	3.4	8433769	91	6547
2025-01-08 19:06:43.97	147.26	75.50	-36.5	-38.5	3.3	8399036	91	6205
2025-01-08 19:06:44.37	147.09	75.69	-36.4	-39.1	3.4	8449459	91	6699
2025-01-08 19:06:44.77	146.91	75.88	-36.5	-38.5	3.3	8381057	91	6217
2025-01-08 19:06:45.18	146.72	76.08	-36.5	-39.4	3.5	8428894	91	6870
2025-01-08 19:06:45.58	146.53	76.27	-36.4	-38.4	3.3	8412334	91	6166
2025-01-08 19:06:45.98	146.34	76.46	-36.5	-39.4	3.5	8417667	91	6932
2025-01-08 19:06:46.38	146.14	76.65	-36.5	-38.5	3.3	8405319	91	6224
2025-01-08 19:06:46.78	145.93	76.85	-36.5	-39.7	3.6	8436973	91	7120
2025-01-08 19:06:47.18	145.72	77.04	-36.5	-38.4	3.3	8398246	91	6180
2025-01-08 19:06:47.59	145.49	77.24	-36.5	-40.0	3.6	8403270	91	7360
2025-01-08 19:06:47.99	145.26	77.43	-36.5	-38.5	3.3	8408351	91	6205
2025-01-08 19:06:48.39	145.03	77.62	-36.4	-39.8	3.6	8413101	91	7241
2025-01-08 19:06:48.79	144.79	77.81	-36.4	-38.4	3.3	8414154	91	6187
2025-01-08 19:06:49.19	144.54	78.00	-36.4	-39.9	3.6	8422405	91	7342
2025-01-08 19:06:49.59	144.28	78.20	-36.5	-38.6	3.3	8420757	91	6311
2025-01-08 19:06:50.00	144.00	78.39	-36.4	-39.9	3.6	8391689	91	7341
2025-01-08 19:06:50.40	143.73	78.59	-36.4	-38.7	3.4	8441528	91	6396
2025-01-08 19:06:50.80	143.44	78.78	-36.5	-39.9	3.6	8397640	91	7294
2025-01-08 19:06:51.20	143.14	78.97	-36.5	-39.0	3.4	8428539	91	6535
2025-01-08 19:06:51.60	142.84	79.16	-36.5	-38.6	3.3	8395660	91	6247
2025-01-08 19:06:52.01	142.51	79.36	-36.5	-39.2	3.4	8441001	91	6691
2025-01-08 19:06:52.41	142.18	79.55	-36.6	-38.8	3.3	8386997	91	6361
2025-01-08 19:06:52.81	141.83	79.74	-36.6	-39.8	3.5	8423915	91	7114
2025-01-08 19:06:53.21	141.48	79.93	-36.6	-38.8	3.3	8414039	91	6337
2025-01-08 19:06:53.61	141.10	80.12	-36.6	-40.2	3.6	8437980	91	7446
2025-01-08 19:06:54.02	140.71	80.32	-36.6	-38.9	3.3	8396598	91	6419
2025-01-08 19:06:54.42	140.31	80.51	-36.6	-40.3	3.6	8396621	91	7495
2025-01-08 19:06:54.82	139.89	80.70	-36.6	-38.9	3.3	8430965	91	6402
2025-01-08 19:06:55.22	139.45	80.89	-36.7	-40.4	3.6	8396667	91	7547
2025-01-08 19:06:55.62	138.99	81.08	-36.6	-39.0	3.3	8420059	91	6437
2025-01-08 19:06:56.02	138.52	81.27	-36.6	-40.3	3.6	8392353	91	7563
2025-01-08 19:06:56.43	138.01	81.46	-36.6	-39.0	3.4	8451004	91	6508
2025-01-08 19:06:56.83	137.49	81.65	-36.6	-40.4	3.6	8399608	91	7614
2025-01-08 19:06:57.23	136.94	81.84	-36.7	-39.3	3.4	8439090	91	6643
2025-01-08 19:06:57.63	136.37	82.02	-36.7	-40.5	3.6	8378688	91	7662
2025-01-08 19:06:58.03	135.77	82.21	-36.7	-39.5	3.4	8367645	91	6819
2025-01-08 19:06:58.43	135.14	82.40	-36.7	-39.1	3.3	8387638	91	6468
2025-01-08 19:06:58.84	134.46	82.59	-36.7	-39.8	3.4	8441791	91	7013
2025-01-08 19:06:59.24	133.77	82.77	-36.6	-39.0	3.3	8387054	91	6437
2025-01-08 19:06:59.64	133.04	82.95	-36.7	-40.3	3.6	8440166	91	7389
2025-01-08 19:07:00.04	132.27	83.13	-36.7	-38.9	3.3	8403911	91	6357
2025-01-08 19:07:00.44	131.45	83.31	-36.7	-40.5	3.6	8410549	91	7593
2025-01-08 19:07:00.84	130.59	83.49	-36.7	-39.0	3.3	8407264	91	6428
2025-01-08 19:07:01.25	129.66	83.68	-36.7	-40.4	3.6	8427211	91	7557
2025-01-08 19:07:01.65	128.70	83.85	-36.7	-39.0	3.3	8431880	91	6410
2025-01-08 19:07:02.05	127.68	84.03	-36.7	-40.4	3.6	8398338	91	7546
2025-01-08 19:07:02.45	126.60	84.20	-36.7	-39.0	3.3	8425575	91	6422
2025-01-08 19:07:02.85	125.46	84.37	-36.7	-40.3	3.6	8411041	91	7497
2025-01-08 19:07:03.26	124.21	84.54	-36.6	-39.0	3.3	8445533	91	6475
2025-01-08 19:07:03.66	122.91	84.71	-36.6	-40.2	3.6	8393978	91	7414
2025-01-08 19:07:04.06	121.53	84.87	-36.6	-39.1	3.4	8441287	91	6558
2025-01-08 19:07:04.46	120.06	85.03	-36.6	-38.7	3.3	8376640	91	6276
2025-01-08 19:07:04.86	118.50	85.18	-36.5	-39.2	3.4	8432979	91	6702
2025-01-08 19:07:05.26	116.83	85.34	-36.5	-38.5	3.3	8403018	91	6219
2025-01-08 19:07:05.67	115.00	85.49	-36.5	-39.4	3.5	8434970	91	6856
2025-01-08 19:07:06.07	113.09	85.63	-36.5	-38.4	3.3	8390441	91	6132
2025-01-08 19:07:06.47	111.06	85.77	-36.4	-39.5	3.6	8431926	91	7032
2025-01-08 19:07:06.87	108.89	85.90	-36.4	-38.3	3.3	8417095	91	6104
2025-01-08 19:07:07.27	106.58	86.03	-36.4	-39.7	3.6	8412288	91	7181
2025-01-08 19:07:07.68	104.06	86.15	-36.4	-38.3	3.3	8403625	91	6095
2025-01-08 19:07:08.08	101.45	86.26	-36.4	-39.7	3.6	8429889	91	7215
2025-01-08 19:07:08.48	98.68	86.37	-36.4	-38.3	3.3	8399539	91	6076
2025-01-08 19:07:08.88	95.75	86.46	-36.4	-39.8	3.6	8388690	91	7240
2025-01-08 19:07:09.29	92.60	86.55	-36.4	-38.4	3.3	8426342	91	6162
2025-01-08 19:07:09.69	89.37	86.62	-36.4	-39.8	3.6	8390613	91	7258
2025-01-08 19:07:10.09	86.01	86.69	-36.4	-38.5	3.3	8418079	91	6240
2025-01-08 19:07:10.49	82.52	86.74	-36.4	-39.9	3.6	8390716	91	7330
2025-01-08 19:07:10.89	78.94	86.78	-36.4	-38.7	3.3	8438461	91	6384
2025-01-08 19:07:11.30	75.20	86.80	-36.4	-39.9	3.6	8386344	91	7326
2025-01-08 19:07:11.70	71.50	86.82	-36.5	-39.1	3.4	8380828	91	6642
2025-01-08 19:07:12.10	67.79	86.82	-36.5	-38.7	3.3	8406154	91	6303
2025-01-08 19:07:12.50	64.09	86.80	-36.5	-39.3	3.5	8404209	91	6787
2025-01-08 19:07:12.90	60.44	86.78	-36.4	-38.4	3.3	8398292	91	6165
2025-01-08 19:07:13.31	56.78	86.73	-36.5	-39.9	3.6	8444904	91	7324
2025-01-08 19:07:13.71	53.31	86.68	-36.5	-38.5	3.3	8431640	91	6207
2025-01-08 19:07:14.11	49.96	86.62	-36.6	-40.1	3.6	8397583	91	7387
2025-01-08 19:07:14.51	46.74	86.54	-36.6	-38.6	3.3	8425632	91	6265
2025-01-08 19:07:14.91	43.68	86.46	-36.6	-40.1	3.6	8400730	91	7363
2025-01-08 19:07:15.32	40.69	86.36	-36.5	-38.7	3.3	8410034	91	6316
2025-01-08 19:07:15.72	37.94	86.25	-36.5	-40.1	3.6	8386493	91	7419
2025-01-08 19:07:16.12	35.34	86.14	-36.5	-38.8	3.4	8417530	91	6381
2025-01-08 19:07:16.52	32.89	86.02	-36.5	-39.9	3.6	8385967	91	7329
2025-01-08 19:07:16.92	30.59	85.89	-36.5	-39.0	3.4	8438358	91	6553
2025-01-08 19:07:17.33	28.38	85.76	-36.5	-38.4	3.3	8393291	91	6162
2025-01-08 19:07:17.73	26.36	85.62	-36.5	-39.1	3.4	8437843	91	6679
2025-01-08 19:07:18.13	24.47	85.48	-36.5	-38.4	3.3	8386276	91	6185
2025-01-08 19:07:18.53	22.70	85.33	-36.5	-39.4	3.5	8445476	91	6910
2025-01-08 19:07:18.93	21.03	85.17	-36.6	-38.7	3.3	8393074	91	6275
2025-01-08 19:07:19.33	19.47	85.02	-36.5	-39.5	3.5	8421581	91	6931
2025-01-08 19:07:19.73	18.01	84.86	-36.5	-38.6	3.3	8395729	91	6244
2025-01-08 19:07:20.14	16.60	84.69	-36.2	-39.8	3.6	8433048	90	7479
2025-01-08 19:07:20.54	15.32	84.53	-36.2	-38.4	3.3	8400718	90	6372
2025-01-08 19:07:20.94	14.10	84.36	-36.4	-39.9	3.6	8336711	91	7328
2025-01-08 19:07:21.34	12.96	84.19	-36.4	-38.4	3.3	8422931	91	6192
2025-01-08 19:07:21.74	11.89	84.01	-36.4	-39.9	3.6	8408100	91	7351
2025-01-08 19:07:22.14	10.87	83.84	-36.5	-38.9	3.3	8414817	91	6442
2025-01-08 19:07:22.55	9.89	83.66	-36.4	-39.9	3.6	8392787	91	7299
2025-01-08 19:07:22.95	8.99	83.48	-36.4	-38.7	3.4	8438335	91	6431
2025-01-08 19:07:23.35	8.13	83.30	-36.4	-39.8	3.6	8384639	91	7265
2025-01-08 19:07:23.75	7.32	83.12	-36.4	-38.8	3.4	8437099	91	6490
2025-01-08 19:07:24.15	6.56	82.94	-36.5	-38.5	3.3	8405788	91	6214
2025-01-08 19:07:24.56	5.81	82.75	-36.5	-39.0	3.4	8434799	91	6629
2025-01-08 19:07:24.96	5.12	82.57	-36.5	-38.4	3.3	8390384	91	6177
2025-01-08 19:07:25.36	4.46	82.39	-36.4	-39.3	3.5	8453052	91	6871
2025-01-08 19:07:25.76	3.83	82.20	-36.4	-38.5	3.3	8387020	91	6217
2025-01-08 19:07:26.16	3.24	82.01	-36.4	-39.6	3.6	8412197	91	7104
2025-01-08 19:07:26.57	2.65	81.82	-36.5	-38.5	3.3	8398921	91	6202
2025-01-08 19:07:26.97	2.11	81.64	-36.5	-40.0	3.6	8429420	91	7361
2025-01-08 19:07:27.37	1.59	81.45	-36.6	-38.7	3.3	8408821	91	6264
2025-01-08 19:07:27.77	1.09	81.26	-36.5	-40.0	3.6	8393497	91	7375
2025-01-08 19:07:28.17	0.62	81.07	-36.5	-38.7	3.3	8420162	91	6284
2025-01-08 19:07:28.57	0.17	80.88	-36.5	-40.0	3.6	8392913	91	7337
2025-01-08 19:07:28.97	359.73	80.69	-36.5	-38.7	3.4	8435451	91	6347
2025-01-08 19:07:29.38	359.30	80.50	-36.5	-40.0	3.6	8389652	91	7343
2025-01-08 19:07:29.78	358.90	80.31	-36.5	-38.9	3.4	8455307	91	6504
2025-01-08 19:07:30.18	358.51	80.12	-36.5	-39.9	3.6	8400032	91	7306
2025-01-08 19:07:30.58	358.14	79.92	-36.5	-38.8	3.4	8433837	91	6461
2025-01-08 19:07:30.98	357.79	79.73	-36.5	-38.5	3.3	8374992	91	6223
2025-01-08 19:07:31.39	357.44	79.54	-36.5	-39.1	3.4	8432212	91	6638
2025-01-08 19:07:31.79	357.11	79.35	-36.5	-38.5	3.3	8397502	91	6193
2025-01-08 19:07:32.19	356.79	79.15	-36.5	-39.4	3.5	8444274	91	6880
2025-01-08 19:07:32.59	356.48	78.96	-36.5	-38.5	3.3	8397708	91	6214
2025-01-08 19:07:32.99	356.19	78.77	-36.5	-39.7	3.6	8391895	91	7112
2025-01-08 19:07:33.40	355.89	78.57	-36.5	-38.5	3.3	8410217	91	6201
2025-01-08 19:07:33.80	355.62	78.38	-36.5	-39.8	3.6	8412643	91	7265
2025-01-08 19:07:34.20	355.35	78.19	-36.5	-38.4	3.3	8407413	91	6177
2025-01-08 19:07:34.60	355.09	78.00	-36.4	-39.8	3.6	8425060	91	7272
2025-01-08 19:07:35.00	354.84	77.81	-36.5	-38.5	3.3	8435989	91	6216
2025-01-08 19:07:35.41	354.59	77.61	-36.4	-39.8	3.6	8392204	91	7257
2025-01-08 19:07:35.81	354.36	77.42	-36.4	-38.4	3.3	8422840	91	6202
2025-01-08 19:07:36.21	354.13	77.23	-36.5	-40.0	3.6	8395202	91	7378
2025-01-08 19:07:36.61	353.92	77.03	-36.5	-38.7	3.3	8437213	91	6334
2025-01-08 19:07:37.01	353.70	76.84	-36.5	-40.0	3.6	8393554	91	7367
2025-01-08 19:07:37.41	353.50	76.65	-36.5	-39.0	3.4	8446449	91	6513
2025-01-08 19:07:37.82	353.29	76.45	-36.5	-38.5	3.3	8389629	91	6207
2025-01-08 19:07:38.22	353.10	76.26	-36.2	-39.1	3.5	8436000	90	6892
2025-01-08 19:07:38.62	352.91	76.07	-36.2	-38.5	3.3	8410297	90	6356
2025-01-08 19:07:39.02	352.72	75.88	-36.3	-39.6	3.5	8443347	90	7267
2025-01-08 19:07:39.42	352.54	75.69	-36.2	-38.6	3.3	8395957	90	6448
2025-01-08 19:07:39.83	352.37	75.49	-36.2	-39.8	3.6	8407962	90	7392
2025-01-08 19:07:40.23	352.20	75.30	-36.3	-38.6	3.3	8412620	90	6426
2025-01-08 19:07:40.63	352.03	75.11	-36.3	-39.9	3.6	8421638	90	7454
2025-01-08 19:07:41.03	351.87	74.92	-36.3	-38.7	3.3	8410068	90	6456
2025-01-08 19:07:41.43	351.72	74.73	-36.3	-40.0	3.6	8422084	90	7605
2025-01-08 19:07:41.84	351.56	74.53	-36.3	-38.6	3.3	8436115	90	6422
2025-01-08 19:07:42.24	351.41	74.34	-36.3	-40.1	3.6	8394710	90	7638
2025-01-08 19:07:42.64	351.27	74.16	-36.2	-38.5	3.3	8422153	90	6377
2025-01-08 19:07:43.04	351.13	73.97	-36.2	-39.9	3.6	8419235	90	7548
2025-01-08 19:07:43.44	350.99	73.78	-36.2	-38.5	3.3	8410984	90	6402
2025-01-08 19:07:43.85	350.86	73.58	-36.2	-39.9	3.6	8400798	90	7520
2025-01-08 19:07:44.25	350.73	73.39	-36.2	-38.6	3.4	8439857	90	6494
2025-01-08 19:07:44.65	350.60	73.20	-36.2	-39.8	3.6	8391941	90	7475
2025-01-08 19:07:45.05	350.47	73.02	-36.2	-38.9	3.4	8425106	90	6659
2025-01-08 19:07:45.45	350.35	72.83	-36.2	-38.5	3.3	8400650	90	6375
2025-01-08 19:07:45.86	350.23	72.63	-36.5	-39.2	3.5	8445728	91	6713
2025-01-08 19:07:46.26	350.12	72.45	-36.5	-38.4	3.3	8397502	91	6161
2025-01-08 19:07:46.66	350.00	72.26	-36.5	-39.5	3.5	8434844	91	6955
2025-01-08 19:07:47.06	349.89	72.07	-36.5	-38.4	3.3	8408523	91	6168
2025-01-08 19:07:47.46	349.78	71.89	-36.5	-39.9	3.6	8413009	91	7330
2025-01-08 19:07:47.86	349.68	71.70	-36.4	-38.4	3.3	8402721	91	6171
2025-01-08 19:07:48.26	349.57	71.51	-36.4	-39.9	3.6	8427143	91	7318
2025-01-08 19:07:48.67	349.47	71.32	-36.4	-38.5	3.3	8445522	91	6234
2025-01-08 19:07:49.07	349.37	71.14	-36.4	-39.8	3.6	8388839	91	7295
2025-01-08 19:07:49.47	349.27	70.95	-36.4	-38.6	3.3	8426273	91	6285
2025-01-08 19:07:49.87	349.18	70.76	-36.4	-39.8	3.6	8397743	91	7297
2025-01-08 19:07:50.28	349.08	70.57	-36.4	-38.6	3.4	8443805	91	6331
2025-01-08 19:07:50.68	348.99	70.39	-36.4	-39.8	3.6	8383335	91	7288

#Closed at: 2025-01-08 19:07:50