passes_logs/2025/01/08/SPB_Silybum_02/SPB_Silybum_02__20250108_022443_SUOMI_NPP_rec.log

#Pass ID: 20250108_022443_SUOMI NPP
#Satellite: SUOMI NPP
#Configuration: NPP
#Start time: 2025-01-08 02:26:32

#Version: 2.0.20230423
#Station: SPB_Silybum_02
#Location: 30.233357 lon 59.946436 lat
#TLE: 1 37849U 11061A   25007.16649885  .00000287  00000+0  15716-3 0  9990
#TLE: 2 37849  98.7438 308.2547 0001950  52.7817 307.3537 14.19534452683807

#Time	Az	El	Level	Level2	SNR	BER	Gain	Gain2
2025-01-08 02:26:34.33	3.05	10.80	
2025-01-08 02:26:35.36	2.92	10.87	
2025-01-08 02:26:36.38	2.79	10.93	
2025-01-08 02:26:37.43	2.65	11.00	
2025-01-08 02:26:38.45	2.52	11.07	
2025-01-08 02:26:39.47	2.39	11.13	
2025-01-08 02:26:40.50	2.25	11.20	
2025-01-08 02:26:41.53	2.12	11.27	
2025-01-08 02:26:42.55	1.98	11.33	
2025-01-08 02:26:43.58	1.85	11.40	
2025-01-08 02:26:44.62	1.71	11.47	
2025-01-08 02:26:45.64	1.57	11.53	
2025-01-08 02:26:46.67	1.43	11.60	
2025-01-08 02:26:47.69	1.30	11.67	
2025-01-08 02:26:48.72	1.16	11.73	
2025-01-08 02:26:49.75	1.02	11.80	
2025-01-08 02:26:50.79	0.87	11.87	
2025-01-08 02:26:51.80	0.73	11.93	
2025-01-08 02:26:52.82	0.59	12.00	
2025-01-08 02:26:53.85	0.45	12.07	
2025-01-08 02:26:54.88	0.31	12.13	
2025-01-08 02:26:55.91	0.16	12.20	
2025-01-08 02:26:56.93	0.02	12.26	
2025-01-08 02:26:57.96	359.87	12.33	
2025-01-08 02:26:58.99	359.73	12.40	
2025-01-08 02:27:00.01	359.58	12.46	
2025-01-08 02:27:01.04	359.44	12.53	
2025-01-08 02:27:02.06	359.29	12.60	
2025-01-08 02:27:03.09	359.14	12.66	
2025-01-08 02:27:04.11	358.99	12.73	
2025-01-08 02:27:05.14	358.84	12.80	
2025-01-08 02:27:06.17	358.69	12.86	
2025-01-08 02:27:07.19	358.54	12.93	
2025-01-08 02:27:08.21	358.39	13.00	
2025-01-08 02:27:09.23	358.24	13.06	
2025-01-08 02:27:10.26	358.08	13.13	
2025-01-08 02:27:11.28	357.93	13.19	
2025-01-08 02:27:12.31	357.78	13.26	
2025-01-08 02:27:13.33	357.62	13.33	
2025-01-08 02:27:14.35	357.47	13.39	
2025-01-08 02:27:15.38	357.31	13.46	
2025-01-08 02:27:16.41	357.15	13.53	
2025-01-08 02:27:17.43	356.99	13.59	
2025-01-08 02:27:18.46	356.84	13.66	
2025-01-08 02:27:19.48	356.68	13.72	
2025-01-08 02:27:20.51	356.52	13.79	
2025-01-08 02:27:21.55	356.35	13.86	
2025-01-08 02:27:22.57	356.19	13.92	
2025-01-08 02:27:23.60	356.03	13.99	
2025-01-08 02:27:24.62	355.87	14.05	
2025-01-08 02:27:25.65	355.70	14.12	
2025-01-08 02:27:26.68	355.54	14.19	
2025-01-08 02:27:27.70	355.37	14.25	
2025-01-08 02:27:28.75	355.20	14.32	
2025-01-08 02:27:29.78	355.03	14.38	
2025-01-08 02:27:30.80	354.87	14.45	
2025-01-08 02:27:31.83	354.70	14.52	
2025-01-08 02:27:32.86	354.53	14.58	
2025-01-08 02:27:33.88	354.36	14.65	
2025-01-08 02:27:34.91	354.19	14.71	
2025-01-08 02:27:35.93	354.02	14.78	
2025-01-08 02:27:36.96	353.84	14.84	
2025-01-08 02:27:37.99	353.67	14.91	
2025-01-08 02:27:39.01	353.50	14.97	
2025-01-08 02:27:40.03	353.32	15.04	
2025-01-08 02:27:41.08	353.14	15.10	
2025-01-08 02:27:42.12	352.97	15.17	
2025-01-08 02:27:43.14	352.79	15.23	
2025-01-08 02:27:44.17	352.61	15.30	
2025-01-08 02:27:45.19	352.43	15.36	
2025-01-08 02:27:46.22	352.25	15.42	
2025-01-08 02:27:47.27	352.07	15.49	
2025-01-08 02:27:48.29	351.89	15.55	
2025-01-08 02:27:49.31	351.71	15.62	
2025-01-08 02:27:50.35	351.52	15.68	
2025-01-08 02:27:51.38	351.34	15.74	
2025-01-08 02:27:52.40	351.16	15.81	
2025-01-08 02:27:53.44	350.97	15.87	
2025-01-08 02:27:54.48	350.78	15.93	
2025-01-08 02:27:55.50	350.60	16.00	
2025-01-08 02:27:56.52	350.41	16.06	
2025-01-08 02:27:57.55	350.22	16.12	
2025-01-08 02:27:58.57	350.03	16.18	
2025-01-08 02:27:59.60	349.84	16.25	
2025-01-08 02:28:00.63	349.65	16.31	
2025-01-08 02:28:01.65	349.46	16.37	
2025-01-08 02:28:02.68	349.27	16.43	
2025-01-08 02:28:03.70	349.08	16.49	
2025-01-08 02:28:04.73	348.88	16.56	
2025-01-08 02:28:05.75	348.69	16.62	
2025-01-08 02:28:06.78	348.49	16.68	
2025-01-08 02:28:07.80	348.30	16.74	
2025-01-08 02:28:08.84	348.10	16.80	
2025-01-08 02:28:09.86	347.90	16.86	
2025-01-08 02:28:10.89	347.70	16.92	
2025-01-08 02:28:11.91	347.51	16.98	
2025-01-08 02:28:12.95	347.30	17.04	
2025-01-08 02:28:13.98	347.10	17.10	
2025-01-08 02:28:15.00	346.90	17.16	
2025-01-08 02:28:16.03	346.70	17.22	
2025-01-08 02:28:17.06	346.49	17.28	
2025-01-08 02:28:18.08	346.29	17.34	
2025-01-08 02:28:19.12	346.08	17.40	
2025-01-08 02:28:20.15	345.88	17.46	
2025-01-08 02:28:21.17	345.67	17.51	
2025-01-08 02:28:22.20	345.46	17.57	
2025-01-08 02:28:23.23	345.25	17.63	
2025-01-08 02:28:24.25	345.05	17.69	
2025-01-08 02:28:25.28	344.83	17.74	
2025-01-08 02:28:26.31	344.62	17.80	
2025-01-08 02:28:27.33	344.41	17.86	
2025-01-08 02:28:28.36	344.20	17.91	
2025-01-08 02:28:29.39	343.99	17.97	
2025-01-08 02:28:30.41	343.77	18.02	
2025-01-08 02:28:31.44	343.56	18.08	
2025-01-08 02:28:32.46	343.34	18.13	
2025-01-08 02:28:33.49	343.13	18.19	
2025-01-08 02:28:34.52	342.91	18.24	
2025-01-08 02:28:35.56	342.69	18.30	
2025-01-08 02:28:36.58	342.47	18.35	
2025-01-08 02:28:37.62	342.25	18.41	
2025-01-08 02:28:38.65	342.03	18.46	
2025-01-08 02:28:39.67	341.81	18.51	
2025-01-08 02:28:40.70	341.59	18.56	
2025-01-08 02:28:41.72	341.36	18.62	
2025-01-08 02:28:42.75	341.14	18.67	
2025-01-08 02:28:43.78	340.91	18.72	
2025-01-08 02:28:44.80	340.69	18.77	
2025-01-08 02:28:45.83	340.46	18.82	
2025-01-08 02:28:46.86	340.24	18.87	
2025-01-08 02:28:47.89	340.01	18.92	
2025-01-08 02:28:48.91	339.78	18.97	
2025-01-08 02:28:49.95	339.55	19.02	
2025-01-08 02:28:50.98	339.32	19.07	
2025-01-08 02:28:52.00	339.09	19.12	
2025-01-08 02:28:53.03	338.86	19.17	
2025-01-08 02:28:54.05	338.63	19.22	
2025-01-08 02:28:55.09	338.39	19.26	
2025-01-08 02:28:56.12	338.16	19.31	
2025-01-08 02:28:57.14	337.93	19.36	
2025-01-08 02:28:58.17	337.69	19.40	
2025-01-08 02:28:59.19	337.46	19.45	
2025-01-08 02:29:00.22	337.22	19.49	
2025-01-08 02:29:01.24	336.99	19.54	
2025-01-08 02:29:02.28	336.75	19.58	
2025-01-08 02:29:03.31	336.51	19.63	
2025-01-08 02:29:04.33	336.27	19.67	
2025-01-08 02:29:05.36	336.03	19.71	
2025-01-08 02:29:06.38	335.79	19.76	
2025-01-08 02:29:07.41	335.55	19.80	
2025-01-08 02:29:08.45	335.30	19.84	
2025-01-08 02:29:09.48	335.06	19.88	
2025-01-08 02:29:10.51	334.82	19.92	
2025-01-08 02:29:11.53	334.58	19.96	
2025-01-08 02:29:12.56	334.33	20.00	
2025-01-08 02:29:13.58	334.09	20.04	
2025-01-08 02:29:14.61	333.84	20.08	
2025-01-08 02:29:15.64	333.59	20.12	
2025-01-08 02:29:16.67	333.35	20.16	
2025-01-08 02:29:17.69	333.10	20.19	
2025-01-08 02:29:18.73	332.85	20.23	
2025-01-08 02:29:19.75	332.60	20.27	
2025-01-08 02:29:20.78	332.35	20.30	
2025-01-08 02:29:21.82	332.10	20.34	
2025-01-08 02:29:22.85	331.85	20.37	
2025-01-08 02:29:23.87	331.60	20.41	
2025-01-08 02:29:24.90	331.35	20.44	
2025-01-08 02:29:25.93	331.09	20.48	
2025-01-08 02:29:26.95	330.84	20.51	
2025-01-08 02:29:27.98	330.59	20.54	
2025-01-08 02:29:29.02	330.33	20.57	
2025-01-08 02:29:30.05	330.08	20.60	
2025-01-08 02:29:31.07	329.82	20.63	
2025-01-08 02:29:32.10	329.57	20.66	
2025-01-08 02:29:33.13	329.31	20.69	
2025-01-08 02:29:34.15	329.06	20.72	
2025-01-08 02:29:35.18	328.80	20.75	
2025-01-08 02:29:36.22	328.54	20.78	
2025-01-08 02:29:37.24	328.28	20.80	
2025-01-08 02:29:38.27	328.02	20.83	
2025-01-08 02:29:39.30	327.76	20.86	
2025-01-08 02:29:40.32	327.51	20.88	
2025-01-08 02:29:41.34	327.25	20.91	
2025-01-08 02:29:42.38	326.99	20.93	
2025-01-08 02:29:43.41	326.72	20.95	
2025-01-08 02:29:44.43	326.47	20.98	
2025-01-08 02:29:45.46	326.20	21.00	
2025-01-08 02:29:46.49	325.94	21.02	
2025-01-08 02:29:47.51	325.68	21.04	
2025-01-08 02:29:48.54	325.42	21.06	
2025-01-08 02:29:49.58	325.15	21.08	
2025-01-08 02:29:50.61	324.89	21.10	
2025-01-08 02:29:51.63	324.63	21.12	
2025-01-08 02:29:52.66	324.36	21.14	
2025-01-08 02:29:53.69	324.10	21.15	
2025-01-08 02:29:54.72	323.83	21.17	
2025-01-08 02:29:55.74	323.57	21.19	
2025-01-08 02:29:56.77	323.31	21.20	
2025-01-08 02:29:57.79	323.04	21.22	
2025-01-08 02:29:58.81	322.78	21.23	
2025-01-08 02:29:59.84	322.51	21.24	
2025-01-08 02:30:00.87	322.25	21.26	
2025-01-08 02:30:01.91	321.98	21.27	
2025-01-08 02:30:02.93	321.71	21.28	
2025-01-08 02:30:03.96	321.45	21.29	
2025-01-08 02:30:04.99	321.18	21.30	
2025-01-08 02:30:06.01	320.91	21.31	
2025-01-08 02:30:07.06	320.64	21.32	
2025-01-08 02:30:08.08	320.38	21.33	
2025-01-08 02:30:09.11	320.11	21.34	
2025-01-08 02:30:10.13	319.84	21.34	
2025-01-08 02:30:11.15	319.58	21.35	
2025-01-08 02:30:12.19	319.31	21.35	
2025-01-08 02:30:13.21	319.04	21.36	
2025-01-08 02:30:14.24	318.77	21.36	
2025-01-08 02:30:15.27	318.50	21.37	
2025-01-08 02:30:16.29	318.24	21.37	
2025-01-08 02:30:17.33	317.97	21.37	
2025-01-08 02:30:18.36	317.70	21.37	
2025-01-08 02:30:19.38	317.43	21.37	
2025-01-08 02:30:20.41	317.16	21.37	
2025-01-08 02:30:21.43	316.90	21.37	
2025-01-08 02:30:22.46	316.63	21.37	
2025-01-08 02:30:23.48	316.36	21.37	
2025-01-08 02:30:24.50	316.10	21.37	
2025-01-08 02:30:25.53	315.83	21.37	
2025-01-08 02:30:26.55	315.56	21.36	
2025-01-08 02:30:27.58	315.29	21.36	
2025-01-08 02:30:28.60	315.03	21.35	
2025-01-08 02:30:29.63	314.76	21.35	
2025-01-08 02:30:30.66	314.49	21.34	
2025-01-08 02:30:31.67	314.23	21.33	
2025-01-08 02:30:32.70	313.96	21.32	
2025-01-08 02:30:33.72	313.69	21.32	
2025-01-08 02:30:34.77	313.42	21.31	
2025-01-08 02:30:35.79	313.16	21.30	
2025-01-08 02:30:36.83	312.89	21.29	
2025-01-08 02:30:37.86	312.62	21.28	
2025-01-08 02:30:38.88	312.36	21.26	
2025-01-08 02:30:39.91	312.09	21.25	
2025-01-08 02:30:40.93	311.82	21.24	
2025-01-08 02:30:41.96	311.56	21.23	
2025-01-08 02:30:42.98	311.29	21.21	
2025-01-08 02:30:44.01	311.03	21.20	
2025-01-08 02:30:45.05	310.76	21.18	
2025-01-08 02:30:46.08	310.50	21.16	
2025-01-08 02:30:47.11	310.23	21.15	
2025-01-08 02:30:48.13	309.97	21.13	
2025-01-08 02:30:49.16	309.70	21.11	
2025-01-08 02:30:50.19	309.44	21.09	
2025-01-08 02:30:51.21	309.18	21.07	
2025-01-08 02:30:52.25	308.91	21.05	
2025-01-08 02:30:53.28	308.65	21.03	
2025-01-08 02:30:54.30	308.39	21.01	
2025-01-08 02:30:55.32	308.13	20.99	
2025-01-08 02:30:56.35	307.87	20.97	
2025-01-08 02:30:57.37	307.61	20.95	
2025-01-08 02:30:58.40	307.35	20.92	
2025-01-08 02:30:59.43	307.09	20.90	
2025-01-08 02:31:00.45	306.83	20.87	
2025-01-08 02:31:01.48	306.57	20.85	
2025-01-08 02:31:02.50	306.31	20.82	
2025-01-08 02:31:03.53	306.05	20.79	
2025-01-08 02:31:04.56	305.79	20.77	
2025-01-08 02:31:05.58	305.54	20.74	
2025-01-08 02:31:06.61	305.28	20.71	
2025-01-08 02:31:07.64	305.02	20.68	
2025-01-08 02:31:08.68	304.76	20.65	
2025-01-08 02:31:09.71	304.51	20.62	
2025-01-08 02:31:10.75	304.25	20.59	
2025-01-08 02:31:11.79	303.99	20.56	
2025-01-08 02:31:12.82	303.74	20.53	
2025-01-08 02:31:13.84	303.48	20.50	
2025-01-08 02:31:14.88	303.23	20.46	
2025-01-08 02:31:15.91	302.98	20.43	
2025-01-08 02:31:16.93	302.73	20.39	
2025-01-08 02:31:17.96	302.47	20.36	
2025-01-08 02:31:18.98	302.22	20.33	
2025-01-08 02:31:20.01	301.97	20.29	
2025-01-08 02:31:21.04	301.72	20.25	
2025-01-08 02:31:22.07	301.47	20.22	
2025-01-08 02:31:23.09	301.23	20.18	
2025-01-08 02:31:24.12	300.98	20.14	
2025-01-08 02:31:25.14	300.73	20.10	
2025-01-08 02:31:26.17	300.49	20.07	
2025-01-08 02:31:27.20	300.24	20.03	
2025-01-08 02:31:28.22	300.00	19.99	
2025-01-08 02:31:29.25	299.75	19.95	
2025-01-08 02:31:30.28	299.51	19.91	
2025-01-08 02:31:31.30	299.26	19.87	
2025-01-08 02:31:32.32	299.02	19.82	
2025-01-08 02:31:33.35	298.78	19.78	
2025-01-08 02:31:34.37	298.54	19.74	
2025-01-08 02:31:35.40	298.30	19.70	
2025-01-08 02:31:36.43	298.06	19.65	
2025-01-08 02:31:37.45	297.82	19.61	
2025-01-08 02:31:38.48	297.58	19.57	
2025-01-08 02:31:39.51	297.34	19.52	
2025-01-08 02:31:40.55	297.10	19.48	
2025-01-08 02:31:41.57	296.87	19.43	
2025-01-08 02:31:42.62	296.63	19.38	
2025-01-08 02:31:43.65	296.39	19.34	
2025-01-08 02:31:44.68	296.16	19.29	
2025-01-08 02:31:45.70	295.93	19.24	
2025-01-08 02:31:46.73	295.69	19.19	
2025-01-08 02:31:47.75	295.46	19.15	
2025-01-08 02:31:48.78	295.23	19.10	
2025-01-08 02:31:49.81	295.00	19.05	
2025-01-08 02:31:50.85	294.76	19.00	
2025-01-08 02:31:51.88	294.53	18.95	
2025-01-08 02:31:52.90	294.31	18.90	
2025-01-08 02:31:53.92	294.08	18.85	
2025-01-08 02:31:54.95	293.85	18.80	
2025-01-08 02:31:55.97	293.63	18.75	
2025-01-08 02:31:57.00	293.40	18.70	
2025-01-08 02:31:58.02	293.18	18.65	
2025-01-08 02:31:59.05	292.96	18.59	
2025-01-08 02:32:00.07	292.73	18.54	
2025-01-08 02:32:01.11	292.51	18.49	
2025-01-08 02:32:02.13	292.29	18.44	
2025-01-08 02:32:03.16	292.07	18.38	
2025-01-08 02:32:04.18	291.85	18.33	
2025-01-08 02:32:05.21	291.63	18.27	
2025-01-08 02:32:06.23	291.41	18.22	
2025-01-08 02:32:07.26	291.19	18.17	
2025-01-08 02:32:08.29	290.98	18.11	
2025-01-08 02:32:09.31	290.76	18.05	
2025-01-08 02:32:10.33	290.55	18.00	
2025-01-08 02:32:11.35	290.34	17.94	
2025-01-08 02:32:12.38	290.12	17.89	
2025-01-08 02:32:13.42	289.91	17.83	
2025-01-08 02:32:14.46	289.69	17.77	
2025-01-08 02:32:15.48	289.48	17.72	
2025-01-08 02:32:16.51	289.27	17.66	
2025-01-08 02:32:17.54	289.06	17.60	
2025-01-08 02:32:18.56	288.85	17.54	
2025-01-08 02:32:19.59	288.64	17.49	
2025-01-08 02:32:20.62	288.44	17.43	
2025-01-08 02:32:21.64	288.23	17.37	
2025-01-08 02:32:22.67	288.03	17.31	
2025-01-08 02:32:23.70	287.82	17.25	
2025-01-08 02:32:24.72	287.62	17.19	
2025-01-08 02:32:25.75	287.41	17.13	
2025-01-08 02:32:26.78	287.21	17.07	
2025-01-08 02:32:27.80	287.01	17.01	
2025-01-08 02:32:28.82	286.81	16.95	
2025-01-08 02:32:29.85	286.61	16.89	
2025-01-08 02:32:30.89	286.41	16.83	
2025-01-08 02:32:31.92	286.21	16.77	
2025-01-08 02:32:32.95	286.01	16.71	
2025-01-08 02:32:33.98	285.81	16.65	
2025-01-08 02:32:35.00	285.62	16.59	
2025-01-08 02:32:36.03	285.42	16.53	
2025-01-08 02:32:37.05	285.23	16.46	
2025-01-08 02:32:38.08	285.04	16.40	
2025-01-08 02:32:39.10	284.85	16.34	
2025-01-08 02:32:40.13	284.65	16.28	
2025-01-08 02:32:41.15	284.46	16.22	
2025-01-08 02:32:42.19	284.27	16.15	
2025-01-08 02:32:43.22	284.08	16.09	
2025-01-08 02:32:44.25	283.89	16.03	
2025-01-08 02:32:45.27	283.71	15.96	
2025-01-08 02:32:46.30	283.52	15.90	
2025-01-08 02:32:47.32	283.33	15.84	
2025-01-08 02:32:48.35	283.15	15.77	
2025-01-08 02:32:49.38	282.96	15.71	
2025-01-08 02:32:50.40	282.78	15.65	
2025-01-08 02:32:51.43	282.60	15.58	
2025-01-08 02:32:52.45	282.41	15.52	
2025-01-08 02:32:53.48	282.23	15.46	
2025-01-08 02:32:54.50	282.05	15.39	
2025-01-08 02:32:55.53	281.87	15.33	
2025-01-08 02:32:56.56	281.69	15.26	
2025-01-08 02:32:57.59	281.51	15.20	
2025-01-08 02:32:58.63	281.33	15.13	
2025-01-08 02:32:59.65	281.16	15.07	
2025-01-08 02:33:00.68	280.98	15.00	
2025-01-08 02:33:01.70	280.81	14.94	
2025-01-08 02:33:02.73	280.63	14.87	
2025-01-08 02:33:03.75	280.46	14.81	
2025-01-08 02:33:04.78	280.29	14.74	
2025-01-08 02:33:05.80	280.12	14.68	
2025-01-08 02:33:06.84	279.94	14.61	
2025-01-08 02:33:07.88	279.77	14.55	
2025-01-08 02:33:08.92	279.60	14.48	
2025-01-08 02:33:09.95	279.43	14.41	
2025-01-08 02:33:10.97	279.26	14.35	
2025-01-08 02:33:12.00	279.09	14.28	
2025-01-08 02:33:13.02	278.93	14.22	
2025-01-08 02:33:14.04	278.76	14.15	
2025-01-08 02:33:15.07	278.60	14.08	
2025-01-08 02:33:16.09	278.43	14.02	
2025-01-08 02:33:17.12	278.27	13.95	
2025-01-08 02:33:18.15	278.10	13.89	
2025-01-08 02:33:19.17	277.94	13.82	
2025-01-08 02:33:20.20	277.78	13.75	
2025-01-08 02:33:21.22	277.62	13.69	
2025-01-08 02:33:22.25	277.46	13.62	
2025-01-08 02:33:23.27	277.30	13.56	
2025-01-08 02:33:24.30	277.14	13.49	
2025-01-08 02:33:25.33	276.98	13.42	
2025-01-08 02:33:26.35	276.83	13.36	
2025-01-08 02:33:27.37	276.67	13.29	
2025-01-08 02:33:28.40	276.51	13.22	
2025-01-08 02:33:29.43	276.36	13.16	
2025-01-08 02:33:30.45	276.21	13.09	
2025-01-08 02:33:31.48	276.05	13.02	
2025-01-08 02:33:32.50	275.90	12.96	
2025-01-08 02:33:33.53	275.75	12.89	
2025-01-08 02:33:34.56	275.59	12.82	
2025-01-08 02:33:35.58	275.44	12.76	
2025-01-08 02:33:36.61	275.29	12.69	
2025-01-08 02:33:37.63	275.14	12.62	
2025-01-08 02:33:38.66	275.00	12.56	
2025-01-08 02:33:39.69	274.85	12.49	
2025-01-08 02:33:40.71	274.70	12.42	
2025-01-08 02:33:41.74	274.55	12.36	
2025-01-08 02:33:42.77	274.41	12.29	
2025-01-08 02:33:43.79	274.26	12.22	
2025-01-08 02:33:44.82	274.12	12.16	
2025-01-08 02:33:45.85	273.97	12.09	
2025-01-08 02:33:46.89	273.83	12.02	
2025-01-08 02:33:47.91	273.68	11.96	
2025-01-08 02:33:48.94	273.54	11.89	
2025-01-08 02:33:49.97	273.40	11.82	
2025-01-08 02:33:50.99	273.26	11.76	
2025-01-08 02:33:52.01	273.12	11.69	
2025-01-08 02:33:53.04	272.98	11.62	
2025-01-08 02:33:54.07	272.84	11.56	
2025-01-08 02:33:55.09	272.70	11.49	
2025-01-08 02:33:56.13	272.56	11.42	
2025-01-08 02:33:57.17	272.42	11.35	
2025-01-08 02:33:58.20	272.29	11.29	
2025-01-08 02:33:59.23	272.15	11.22	
2025-01-08 02:34:00.25	272.02	11.15	
2025-01-08 02:34:01.28	271.88	11.09	
2025-01-08 02:34:02.30	271.75	11.02	
2025-01-08 02:34:03.33	271.62	10.96	
2025-01-08 02:34:04.35	271.48	10.89	
2025-01-08 02:34:05.38	271.35	10.82	
2025-01-08 02:34:06.40	271.22	10.76	
2025-01-08 02:34:07.42	271.09	10.69	
2025-01-08 02:34:08.45	270.96	10.62	
2025-01-08 02:34:09.49	270.83	10.56	
2025-01-08 02:34:10.52	270.70	10.49	
2025-01-08 02:34:11.54	270.57	10.42	
2025-01-08 02:34:12.57	270.44	10.36	
2025-01-08 02:34:13.59	270.32	10.29	
2025-01-08 02:34:14.63	270.19	10.23	
2025-01-08 02:34:15.66	270.06	10.16	
2025-01-08 02:34:16.69	269.94	10.09	
2025-01-08 02:34:17.71	269.81	10.03	
2025-01-08 02:34:18.74	269.69	9.96	
2025-01-08 02:34:19.76	269.56	9.90	
2025-01-08 02:34:20.79	269.44	9.83	
2025-01-08 02:34:21.83	269.32	9.76	
2025-01-08 02:34:22.85	269.19	9.70	
2025-01-08 02:34:23.88	269.07	9.63	
2025-01-08 02:34:24.92	268.95	9.57	
2025-01-08 02:34:25.95	268.83	9.50	
2025-01-08 02:34:26.97	268.71	9.43	
2025-01-08 02:34:28.00	268.59	9.37	
2025-01-08 02:34:29.02	268.47	9.30	
2025-01-08 02:34:30.06	268.35	9.24	
2025-01-08 02:34:31.10	268.23	9.17	
2025-01-08 02:34:32.13	268.11	9.11	
2025-01-08 02:34:33.15	268.00	9.04	
2025-01-08 02:34:34.18	267.88	8.98	
2025-01-08 02:34:35.21	267.77	8.91	
2025-01-08 02:34:36.25	267.65	8.84	
2025-01-08 02:34:37.28	267.53	8.78	
2025-01-08 02:34:38.30	267.42	8.72	
2025-01-08 02:34:39.33	267.31	8.65	
2025-01-08 02:34:40.36	267.19	8.59	
2025-01-08 02:34:41.38	267.08	8.52	
2025-01-08 02:34:42.41	266.97	8.46	
2025-01-08 02:34:43.43	266.86	8.39	
2025-01-08 02:34:44.45	266.75	8.33	
2025-01-08 02:34:45.48	266.64	8.26	
2025-01-08 02:34:46.51	266.53	8.20	
2025-01-08 02:34:47.54	266.42	8.13	
2025-01-08 02:34:48.56	266.31	8.07	
2025-01-08 02:34:49.59	266.20	8.01	
2025-01-08 02:34:50.61	266.09	7.94	
2025-01-08 02:34:51.64	265.99	7.88	
2025-01-08 02:34:52.66	265.88	7.81	
2025-01-08 02:34:53.70	265.77	7.75	
2025-01-08 02:34:54.73	265.67	7.68	
2025-01-08 02:34:55.75	265.56	7.62	
2025-01-08 02:34:56.78	265.45	7.56	
2025-01-08 02:34:57.81	265.35	7.49	
2025-01-08 02:34:58.83	265.25	7.43	
2025-01-08 02:34:59.86	265.14	7.37	
2025-01-08 02:35:00.88	265.04	7.30	
2025-01-08 02:35:01.91	264.94	7.24	
2025-01-08 02:35:02.94	264.83	7.18	
2025-01-08 02:35:03.96	264.73	7.11	
2025-01-08 02:35:05.00	264.63	7.05	
2025-01-08 02:35:06.02	264.53	6.99	
2025-01-08 02:35:07.05	264.43	6.92	
2025-01-08 02:35:08.08	264.33	6.86	
2025-01-08 02:35:09.11	264.23	6.80	
2025-01-08 02:35:10.13	264.13	6.73	
2025-01-08 02:35:11.16	264.03	6.67	
2025-01-08 02:35:12.18	263.93	6.61	
2025-01-08 02:35:13.21	263.83	6.55	
2025-01-08 02:35:14.25	263.74	6.48	
2025-01-08 02:35:15.28	263.64	6.42	
2025-01-08 02:35:16.30	263.54	6.36	
2025-01-08 02:35:17.32	263.45	6.30	
2025-01-08 02:35:18.35	263.35	6.23	
2025-01-08 02:35:19.38	263.26	6.17	
2025-01-08 02:35:20.40	263.16	6.11	
2025-01-08 02:35:21.43	263.07	6.05	
2025-01-08 02:35:22.46	262.97	5.99	
2025-01-08 02:35:23.48	262.88	5.92	
2025-01-08 02:35:24.51	262.79	5.86	
2025-01-08 02:35:25.54	262.69	5.80	
2025-01-08 02:35:26.58	262.60	5.74	
2025-01-08 02:35:27.60	262.51	5.68	
2025-01-08 02:35:28.63	262.41	5.61	
2025-01-08 02:35:29.65	262.32	5.55	
2025-01-08 02:35:30.68	262.23	5.49	
2025-01-08 02:35:31.71	262.14	5.43	
2025-01-08 02:35:32.74	262.05	5.37	
2025-01-08 02:35:33.77	261.96	5.31	
2025-01-08 02:35:34.79	261.87	5.25	
2025-01-08 02:35:35.82	261.78	5.19	
2025-01-08 02:35:36.84	261.70	5.13	
2025-01-08 02:35:37.88	261.61	5.06	
2025-01-08 02:35:38.91	261.52	5.00	
2025-01-08 02:35:39.94	261.43	4.94	
2025-01-08 02:35:40.98	261.34	4.88	
2025-01-08 02:35:42.01	261.26	4.82	
2025-01-08 02:35:43.03	261.17	4.76	
2025-01-08 02:35:44.05	261.08	4.70	
2025-01-08 02:35:45.08	261.00	4.64	
2025-01-08 02:35:46.12	260.91	4.58	
2025-01-08 02:35:47.15	260.83	4.52	
2025-01-08 02:35:48.17	260.74	4.46	
2025-01-08 02:35:49.20	260.66	4.40	
2025-01-08 02:35:50.23	260.57	4.34	
2025-01-08 02:35:51.25	260.49	4.28	
2025-01-08 02:35:52.27	260.41	4.22	
2025-01-08 02:35:53.30	260.33	4.16	
2025-01-08 02:35:54.33	260.24	4.10	
2025-01-08 02:35:55.35	260.16	4.04	

#Closed at: 2025-01-08 02:35:56