passes_logs/2025/01/08/SPB_Silybum_02/SPB_Silybum_02__20250108_063828_TERRA_rec.log

#Pass ID: 20250108_063828_TERRA
#Satellite: TERRA
#Configuration: TERRA
#Start time: 2025-01-08 06:38:27

#Version: 2.0.20230423
#Station: SPB_Silybum_02
#Location: 30.233357 lon 59.946436 lat
#TLE: 1 25994U 99068A   25007.79031535  .00001159  00000+0  24884-3 0  9992
#TLE: 2 25994  98.0229  71.0496 0003578  86.9116 340.1593 14.60381232333028

#Time	Az	El	Level	Level2	SNR	BER	Gain	Gain2
2025-01-08 06:38:29.76	29.49	4.09	
2025-01-08 06:38:30.79	29.60	4.15	
2025-01-08 06:38:31.81	29.70	4.21	
2025-01-08 06:38:32.84	29.81	4.26	
2025-01-08 06:38:33.87	29.92	4.32	
2025-01-08 06:38:34.89	30.02	4.38	
2025-01-08 06:38:35.92	30.13	4.44	
2025-01-08 06:38:36.95	30.24	4.50	
2025-01-08 06:38:37.98	30.35	4.55	
2025-01-08 06:38:39.01	30.46	4.61	
2025-01-08 06:38:40.03	30.57	4.67	
2025-01-08 06:38:41.06	30.68	4.73	
2025-01-08 06:38:42.08	30.78	4.79	
2025-01-08 06:38:43.11	30.90	4.85	
2025-01-08 06:38:44.13	31.01	4.90	
2025-01-08 06:38:45.16	31.12	4.96	
2025-01-08 06:38:46.18	31.23	5.02	
2025-01-08 06:38:47.22	31.34	5.08	
2025-01-08 06:38:48.25	31.46	5.14	
2025-01-08 06:38:49.27	31.57	5.20	
2025-01-08 06:38:50.30	31.68	5.26	
2025-01-08 06:38:51.34	31.80	5.32	
2025-01-08 06:38:52.36	31.91	5.37	
2025-01-08 06:38:53.39	32.03	5.43	
2025-01-08 06:38:54.43	32.14	5.49	
2025-01-08 06:38:55.45	32.26	5.55	
2025-01-08 06:38:56.48	32.38	5.61	
2025-01-08 06:38:57.50	32.49	5.67	
2025-01-08 06:38:58.52	32.61	5.73	
2025-01-08 06:38:59.55	32.73	5.79	
2025-01-08 06:39:00.57	32.85	5.85	
2025-01-08 06:39:01.60	32.97	5.91	
2025-01-08 06:39:02.64	33.09	5.97	
2025-01-08 06:39:03.68	33.21	6.03	
2025-01-08 06:39:04.69	33.33	6.09	
2025-01-08 06:39:05.72	33.45	6.15	
2025-01-08 06:39:06.75	33.57	6.21	
2025-01-08 06:39:07.78	33.69	6.27	
2025-01-08 06:39:08.81	33.82	6.33	
2025-01-08 06:39:09.83	33.94	6.38	
2025-01-08 06:39:10.86	34.06	6.45	
2025-01-08 06:39:11.88	34.19	6.50	
2025-01-08 06:39:12.90	34.31	6.56	
2025-01-08 06:39:13.93	34.44	6.62	
2025-01-08 06:39:14.96	34.56	6.68	
2025-01-08 06:39:15.98	34.69	6.74	
2025-01-08 06:39:17.01	34.82	6.80	
2025-01-08 06:39:18.03	34.95	6.86	
2025-01-08 06:39:19.07	35.07	6.93	
2025-01-08 06:39:20.10	35.20	6.99	
2025-01-08 06:39:21.14	35.34	7.05	
2025-01-08 06:39:22.16	35.46	7.11	
2025-01-08 06:39:23.19	35.60	7.17	
2025-01-08 06:39:24.21	35.73	7.23	
2025-01-08 06:39:25.24	35.86	7.29	
2025-01-08 06:39:26.26	35.99	7.35	
2025-01-08 06:39:27.29	36.12	7.41	
2025-01-08 06:39:28.31	36.25	7.47	
2025-01-08 06:39:29.34	36.39	7.53	
2025-01-08 06:39:30.38	36.52	7.59	
2025-01-08 06:39:31.40	36.66	7.65	
2025-01-08 06:39:32.43	36.80	7.71	
2025-01-08 06:39:33.45	36.93	7.77	
2025-01-08 06:39:34.47	37.07	7.83	
2025-01-08 06:39:35.50	37.20	7.90	
2025-01-08 06:39:36.52	37.34	7.96	
2025-01-08 06:39:37.55	37.48	8.02	
2025-01-08 06:39:38.57	37.62	8.08	
2025-01-08 06:39:39.59	37.76	8.14	
2025-01-08 06:39:40.62	37.90	8.20	
2025-01-08 06:39:41.64	38.04	8.26	
2025-01-08 06:39:42.66	38.18	8.32	
2025-01-08 06:39:43.69	38.32	8.38	
2025-01-08 06:39:44.72	38.47	8.44	
2025-01-08 06:39:45.75	38.61	8.51	
2025-01-08 06:39:46.78	38.76	8.57	
2025-01-08 06:39:47.81	38.90	8.63	
2025-01-08 06:39:48.84	39.05	8.69	
2025-01-08 06:39:49.86	39.19	8.75	
2025-01-08 06:39:50.89	39.34	8.81	
2025-01-08 06:39:51.91	39.49	8.87	
2025-01-08 06:39:52.95	39.64	8.93	
2025-01-08 06:39:53.98	39.78	9.00	
2025-01-08 06:39:55.00	39.93	9.06	
2025-01-08 06:39:56.02	40.08	9.12	
2025-01-08 06:39:57.06	40.24	9.18	
2025-01-08 06:39:58.09	40.39	9.24	
2025-01-08 06:39:59.12	40.54	9.30	
2025-01-08 06:40:00.15	40.69	9.36	
2025-01-08 06:40:01.18	40.85	9.43	
2025-01-08 06:40:02.22	41.00	9.49	
2025-01-08 06:40:03.24	41.16	9.55	
2025-01-08 06:40:04.27	41.31	9.61	
2025-01-08 06:40:05.29	41.47	9.67	
2025-01-08 06:40:06.32	41.63	9.73	
2025-01-08 06:40:07.34	41.78	9.79	
2025-01-08 06:40:08.37	41.94	9.86	
2025-01-08 06:40:09.40	42.10	9.92	
2025-01-08 06:40:10.42	42.26	9.98	
2025-01-08 06:40:11.46	42.42	10.04	
2025-01-08 06:40:12.50	42.58	10.10	
2025-01-08 06:40:13.53	42.75	10.16	
2025-01-08 06:40:14.55	42.91	10.22	
2025-01-08 06:40:15.57	43.07	10.29	
2025-01-08 06:40:16.60	43.23	10.35	
2025-01-08 06:40:17.62	43.40	10.41	
2025-01-08 06:40:18.65	43.56	10.47	
2025-01-08 06:40:19.67	43.73	10.53	
2025-01-08 06:40:20.70	43.90	10.59	
2025-01-08 06:40:21.73	44.06	10.65	
2025-01-08 06:40:22.75	44.23	10.71	
2025-01-08 06:40:23.78	44.40	10.77	
2025-01-08 06:40:24.80	44.57	10.83	
2025-01-08 06:40:25.82	44.74	10.90	
2025-01-08 06:40:26.86	44.91	10.96	
2025-01-08 06:40:27.90	45.09	11.02	
2025-01-08 06:40:28.92	45.26	11.08	
2025-01-08 06:40:29.96	45.43	11.14	
2025-01-08 06:40:31.00	45.61	11.20	
2025-01-08 06:40:32.03	45.79	11.26	
2025-01-08 06:40:33.05	45.96	11.32	
2025-01-08 06:40:34.08	46.14	11.38	
2025-01-08 06:40:35.11	46.32	11.44	
2025-01-08 06:40:36.15	46.50	11.50	
2025-01-08 06:40:37.17	46.67	11.56	
2025-01-08 06:40:38.20	46.85	11.63	
2025-01-08 06:40:39.22	47.03	11.68	
2025-01-08 06:40:40.25	47.21	11.75	
2025-01-08 06:40:41.29	47.40	11.81	
2025-01-08 06:40:42.31	47.58	11.87	
2025-01-08 06:40:43.34	47.76	11.93	
2025-01-08 06:40:44.36	47.95	11.98	
2025-01-08 06:40:45.38	48.13	12.04	
2025-01-08 06:40:46.41	48.32	12.10	
2025-01-08 06:40:47.43	48.50	12.16	
2025-01-08 06:40:48.46	48.69	12.22	
2025-01-08 06:40:49.49	48.88	12.28	
2025-01-08 06:40:50.51	49.07	12.34	
2025-01-08 06:40:51.54	49.26	12.40	
2025-01-08 06:40:52.56	49.45	12.46	
2025-01-08 06:40:53.58	49.64	12.52	
2025-01-08 06:40:54.62	49.83	12.58	
2025-01-08 06:40:55.64	50.02	12.63	
2025-01-08 06:40:56.67	50.22	12.69	
2025-01-08 06:40:57.70	50.41	12.75	
2025-01-08 06:40:58.72	50.61	12.81	
2025-01-08 06:40:59.75	50.80	12.87	
2025-01-08 06:41:00.78	51.00	12.93	
2025-01-08 06:41:01.81	51.20	12.98	
2025-01-08 06:41:02.83	51.40	13.04	
2025-01-08 06:41:03.85	51.60	13.10	
2025-01-08 06:41:04.87	51.80	13.15	
2025-01-08 06:41:05.90	52.00	13.21	
2025-01-08 06:41:06.92	52.20	13.27	
2025-01-08 06:41:07.95	52.40	13.33	
2025-01-08 06:41:08.98	52.61	13.38	
2025-01-08 06:41:10.00	52.81	13.44	
2025-01-08 06:41:11.03	53.01	13.50	
2025-01-08 06:41:12.05	53.22	13.55	
2025-01-08 06:41:13.08	53.43	13.61	
2025-01-08 06:41:14.10	53.63	13.66	
2025-01-08 06:41:15.13	53.84	13.72	
2025-01-08 06:41:16.15	54.05	13.77	
2025-01-08 06:41:17.18	54.26	13.83	
2025-01-08 06:41:18.20	54.47	13.88	
2025-01-08 06:41:19.23	54.68	13.94	
2025-01-08 06:41:20.25	54.89	13.99	
2025-01-08 06:41:21.28	55.11	14.05	
2025-01-08 06:41:22.30	55.32	14.10	
2025-01-08 06:41:23.33	55.54	14.16	
2025-01-08 06:41:24.35	55.75	14.21	
2025-01-08 06:41:25.38	55.97	14.26	
2025-01-08 06:41:26.40	56.18	14.32	
2025-01-08 06:41:27.43	56.40	14.37	
2025-01-08 06:41:28.46	56.62	14.42	
2025-01-08 06:41:29.48	56.84	14.47	
2025-01-08 06:41:30.50	57.06	14.53	
2025-01-08 06:41:31.53	57.28	14.58	
2025-01-08 06:41:32.55	57.50	14.63	
2025-01-08 06:41:33.57	57.72	14.68	
2025-01-08 06:41:34.60	57.95	14.73	
2025-01-08 06:41:35.62	58.17	14.78	
2025-01-08 06:41:36.65	58.40	14.83	
2025-01-08 06:41:37.67	58.62	14.88	
2025-01-08 06:41:38.69	58.85	14.93	
2025-01-08 06:41:39.72	59.08	14.98	
2025-01-08 06:41:40.74	59.31	15.03	
2025-01-08 06:41:41.77	59.54	15.08	
2025-01-08 06:41:42.79	59.76	15.13	
2025-01-08 06:41:43.82	60.00	15.18	
2025-01-08 06:41:44.84	60.23	15.23	
2025-01-08 06:41:45.88	60.46	15.28	
2025-01-08 06:41:46.90	60.69	15.32	
2025-01-08 06:41:47.93	60.93	15.37	
2025-01-08 06:41:48.95	61.16	15.42	
2025-01-08 06:41:49.98	61.40	15.47	
2025-01-08 06:41:51.01	61.64	15.51	
2025-01-08 06:41:52.03	61.87	15.56	
2025-01-08 06:41:53.06	62.11	15.60	
2025-01-08 06:41:54.08	62.35	15.65	
2025-01-08 06:41:55.11	62.59	15.69	
2025-01-08 06:41:56.13	62.83	15.74	
2025-01-08 06:41:57.16	63.07	15.78	
2025-01-08 06:41:58.19	63.31	15.83	
2025-01-08 06:41:59.22	63.56	15.87	
2025-01-08 06:42:00.25	63.80	15.92	
2025-01-08 06:42:01.28	64.05	15.96	
2025-01-08 06:42:02.30	64.29	16.00	
2025-01-08 06:42:03.33	64.53	16.04	
2025-01-08 06:42:04.35	64.78	16.08	
2025-01-08 06:42:05.38	65.03	16.13	
2025-01-08 06:42:06.42	65.28	16.17	
2025-01-08 06:42:07.44	65.52	16.21	
2025-01-08 06:42:08.48	65.78	16.25	
2025-01-08 06:42:09.50	66.03	16.29	
2025-01-08 06:42:10.53	66.28	16.33	
2025-01-08 06:42:11.56	66.53	16.36	
2025-01-08 06:42:12.58	66.78	16.40	
2025-01-08 06:42:13.60	67.03	16.44	
2025-01-08 06:42:14.63	67.28	16.48	
2025-01-08 06:42:15.66	67.54	16.52	
2025-01-08 06:42:16.68	67.79	16.55	
2025-01-08 06:42:17.71	68.05	16.59	
2025-01-08 06:42:18.73	68.30	16.62	
2025-01-08 06:42:19.77	68.56	16.66	
2025-01-08 06:42:20.80	68.82	16.69	
2025-01-08 06:42:21.82	69.08	16.73	
2025-01-08 06:42:22.84	69.33	16.76	
2025-01-08 06:42:23.87	69.59	16.79	
2025-01-08 06:42:24.89	69.85	16.83	
2025-01-08 06:42:25.92	70.11	16.86	
2025-01-08 06:42:26.94	70.37	16.89	
2025-01-08 06:42:27.97	70.63	16.92	
2025-01-08 06:42:28.99	70.89	16.95	
2025-01-08 06:42:30.01	71.15	16.98	
2025-01-08 06:42:31.04	71.42	17.01	
2025-01-08 06:42:32.06	71.68	17.04	
2025-01-08 06:42:33.08	71.94	17.07	
2025-01-08 06:42:34.11	72.20	17.10	
2025-01-08 06:42:35.14	72.47	17.13	
2025-01-08 06:42:36.16	72.73	17.15	
2025-01-08 06:42:37.19	73.00	17.18	
2025-01-08 06:42:38.21	73.27	17.21	
2025-01-08 06:42:39.24	73.53	17.23	
2025-01-08 06:42:40.26	73.80	17.26	
2025-01-08 06:42:41.29	74.07	17.28	
2025-01-08 06:42:42.31	74.34	17.31	
2025-01-08 06:42:43.35	74.61	17.33	
2025-01-08 06:42:44.38	74.88	17.35	
2025-01-08 06:42:45.41	75.15	17.37	
2025-01-08 06:42:46.43	75.42	17.40	
2025-01-08 06:42:47.46	75.69	17.42	
2025-01-08 06:42:48.48	75.96	17.44	
2025-01-08 06:42:49.51	76.23	17.46	
2025-01-08 06:42:50.53	76.50	17.48	
2025-01-08 06:42:51.55	76.77	17.50	
2025-01-08 06:42:52.58	77.04	17.51	
2025-01-08 06:42:53.61	77.32	17.53	
2025-01-08 06:42:54.64	77.59	17.55	
2025-01-08 06:42:55.68	77.87	17.57	
2025-01-08 06:42:56.70	78.14	17.58	
2025-01-08 06:42:57.73	78.41	17.60	
2025-01-08 06:42:58.75	78.69	17.61	
2025-01-08 06:42:59.77	78.96	17.63	
2025-01-08 06:43:00.81	79.24	17.64	
2025-01-08 06:43:01.84	79.51	17.65	
2025-01-08 06:43:02.87	79.79	17.66	
2025-01-08 06:43:03.89	80.06	17.68	
2025-01-08 06:43:04.91	80.34	17.69	
2025-01-08 06:43:05.94	80.61	17.70	
2025-01-08 06:43:06.96	80.89	17.71	
2025-01-08 06:43:07.99	81.17	17.72	
2025-01-08 06:43:09.02	81.44	17.73	
2025-01-08 06:43:10.04	81.72	17.73	
2025-01-08 06:43:11.07	82.00	17.74	
2025-01-08 06:43:12.09	82.27	17.75	
2025-01-08 06:43:13.11	82.55	17.75	
2025-01-08 06:43:14.14	82.83	17.76	
2025-01-08 06:43:15.16	83.10	17.76	
2025-01-08 06:43:16.19	83.38	17.77	
2025-01-08 06:43:17.23	83.66	17.77	
2025-01-08 06:43:18.27	83.94	17.78	
2025-01-08 06:43:19.29	84.22	17.78	
2025-01-08 06:43:20.32	84.50	17.78	
2025-01-08 06:43:21.36	84.78	17.78	
2025-01-08 06:43:22.40	85.06	17.78	
2025-01-08 06:43:23.44	85.34	17.78	
2025-01-08 06:43:24.46	85.62	17.78	
2025-01-08 06:43:25.49	85.89	17.78	
2025-01-08 06:43:26.51	86.17	17.78	
2025-01-08 06:43:27.54	86.45	17.77	
2025-01-08 06:43:28.58	86.73	17.77	
2025-01-08 06:43:29.60	87.01	17.77	
2025-01-08 06:43:30.63	87.29	17.76	
2025-01-08 06:43:31.66	87.56	17.76	
2025-01-08 06:43:32.68	87.84	17.75	
2025-01-08 06:43:33.70	88.11	17.75	
2025-01-08 06:43:34.73	88.39	17.74	
2025-01-08 06:43:35.75	88.67	17.73	
2025-01-08 06:43:36.78	88.95	17.72	
2025-01-08 06:43:37.81	89.22	17.71	
2025-01-08 06:43:38.84	89.50	17.71	
2025-01-08 06:43:39.87	89.78	17.69	
2025-01-08 06:43:40.89	90.05	17.68	
2025-01-08 06:43:41.92	90.33	17.67	
2025-01-08 06:43:42.94	90.60	17.66	
2025-01-08 06:43:43.97	90.88	17.65	
2025-01-08 06:43:45.00	91.16	17.64	
2025-01-08 06:43:46.03	91.43	17.62	
2025-01-08 06:43:47.05	91.70	17.61	
2025-01-08 06:43:48.08	91.98	17.59	
2025-01-08 06:43:49.11	92.26	17.58	
2025-01-08 06:43:50.15	92.53	17.56	
2025-01-08 06:43:51.18	92.81	17.54	
2025-01-08 06:43:52.20	93.08	17.53	
2025-01-08 06:43:53.24	93.36	17.51	
2025-01-08 06:43:54.26	93.63	17.49	
2025-01-08 06:43:55.29	93.90	17.47	
2025-01-08 06:43:56.32	94.17	17.45	
2025-01-08 06:43:57.34	94.44	17.43	
2025-01-08 06:43:58.37	94.72	17.41	
2025-01-08 06:43:59.40	94.99	17.39	
2025-01-08 06:44:00.42	95.26	17.37	
2025-01-08 06:44:01.44	95.52	17.35	
2025-01-08 06:44:02.47	95.79	17.32	
2025-01-08 06:44:03.51	96.07	17.30	
2025-01-08 06:44:04.54	96.34	17.27	
2025-01-08 06:44:05.56	96.60	17.25	
2025-01-08 06:44:06.59	96.87	17.22	
2025-01-08 06:44:07.62	97.14	17.20	
2025-01-08 06:44:08.64	97.41	17.17	
2025-01-08 06:44:09.67	97.67	17.15	
2025-01-08 06:44:10.69	97.94	17.12	
2025-01-08 06:44:11.72	98.20	17.09	
2025-01-08 06:44:12.74	98.47	17.06	
2025-01-08 06:44:13.77	98.73	17.03	
2025-01-08 06:44:14.79	99.00	17.00	
2025-01-08 06:44:15.82	99.26	16.97	
2025-01-08 06:44:16.85	99.52	16.94	
2025-01-08 06:44:17.87	99.78	16.91	
2025-01-08 06:44:18.90	100.05	16.88	
2025-01-08 06:44:19.94	100.31	16.85	
2025-01-08 06:44:20.97	100.57	16.82	
2025-01-08 06:44:21.99	100.83	16.78	
2025-01-08 06:44:23.02	101.09	16.75	
2025-01-08 06:44:24.05	101.35	16.71	
2025-01-08 06:44:25.09	101.61	16.68	
2025-01-08 06:44:26.12	101.87	16.64	
2025-01-08 06:44:27.14	102.13	16.61	
2025-01-08 06:44:28.17	102.38	16.57	
2025-01-08 06:44:29.19	102.64	16.54	
2025-01-08 06:44:30.22	102.89	16.50	
2025-01-08 06:44:31.24	103.15	16.46	
2025-01-08 06:44:32.27	103.40	16.42	
2025-01-08 06:44:33.29	103.65	16.39	
2025-01-08 06:44:34.32	103.91	16.35	
2025-01-08 06:44:35.34	104.16	16.31	
2025-01-08 06:44:36.37	104.41	16.27	
2025-01-08 06:44:37.39	104.66	16.23	
2025-01-08 06:44:38.42	104.91	16.19	
2025-01-08 06:44:39.45	105.16	16.15	
2025-01-08 06:44:40.47	105.40	16.11	
2025-01-08 06:44:41.49	105.65	16.07	
2025-01-08 06:44:42.54	105.90	16.02	
2025-01-08 06:44:43.58	106.15	15.98	
2025-01-08 06:44:44.60	106.40	15.94	
2025-01-08 06:44:45.62	106.64	15.89	
2025-01-08 06:44:46.65	106.88	15.85	
2025-01-08 06:44:47.68	107.13	15.81	
2025-01-08 06:44:48.71	107.37	15.76	
2025-01-08 06:44:49.73	107.61	15.72	
2025-01-08 06:44:50.76	107.85	15.67	
2025-01-08 06:44:51.78	108.09	15.63	
2025-01-08 06:44:52.81	108.33	15.58	
2025-01-08 06:44:53.83	108.57	15.54	
2025-01-08 06:44:54.86	108.81	15.49	
2025-01-08 06:44:55.88	109.04	15.44	
2025-01-08 06:44:56.91	109.28	15.40	
2025-01-08 06:44:57.94	109.52	15.35	
2025-01-08 06:44:58.96	109.75	15.30	
2025-01-08 06:44:59.98	109.98	15.25	
2025-01-08 06:45:01.01	110.22	15.20	
2025-01-08 06:45:02.04	110.45	15.15	
2025-01-08 06:45:03.06	110.68	15.11	
2025-01-08 06:45:04.09	110.91	15.06	
2025-01-08 06:45:05.13	111.15	15.01	
2025-01-08 06:45:06.15	111.37	14.96	
2025-01-08 06:45:07.18	111.60	14.91	
2025-01-08 06:45:08.22	111.83	14.85	
2025-01-08 06:45:09.24	112.06	14.80	
2025-01-08 06:45:10.28	112.29	14.75	
2025-01-08 06:45:11.30	112.51	14.70	
2025-01-08 06:45:12.33	112.74	14.65	
2025-01-08 06:45:13.36	112.96	14.60	
2025-01-08 06:45:14.38	113.18	14.54	
2025-01-08 06:45:15.41	113.41	14.49	
2025-01-08 06:45:16.45	113.63	14.44	
2025-01-08 06:45:17.47	113.85	14.38	
2025-01-08 06:45:18.50	114.07	14.33	
2025-01-08 06:45:19.53	114.29	14.28	
2025-01-08 06:45:20.56	114.51	14.22	
2025-01-08 06:45:21.59	114.73	14.17	
2025-01-08 06:45:22.63	114.95	14.11	
2025-01-08 06:45:23.66	115.16	14.06	
2025-01-08 06:45:24.68	115.38	14.01	
2025-01-08 06:45:25.71	115.59	13.95	
2025-01-08 06:45:26.73	115.80	13.90	
2025-01-08 06:45:27.75	116.01	13.84	
2025-01-08 06:45:28.78	116.23	13.78	
2025-01-08 06:45:29.81	116.44	13.73	
2025-01-08 06:45:30.85	116.65	13.67	
2025-01-08 06:45:31.87	116.86	13.62	
2025-01-08 06:45:32.90	117.07	13.56	
2025-01-08 06:45:33.93	117.27	13.50	
2025-01-08 06:45:34.95	117.48	13.45	
2025-01-08 06:45:35.97	117.68	13.39	
2025-01-08 06:45:37.00	117.89	13.33	
2025-01-08 06:45:38.02	118.09	13.28	
2025-01-08 06:45:39.05	118.30	13.22	
2025-01-08 06:45:40.08	118.50	13.16	
2025-01-08 06:45:41.10	118.70	13.10	
2025-01-08 06:45:42.13	118.90	13.05	
2025-01-08 06:45:43.16	119.10	12.99	
2025-01-08 06:45:44.20	119.30	12.93	
2025-01-08 06:45:45.23	119.50	12.87	
2025-01-08 06:45:46.25	119.70	12.81	
2025-01-08 06:45:47.28	119.90	12.75	
2025-01-08 06:45:48.32	120.09	12.69	
2025-01-08 06:45:49.35	120.29	12.63	
2025-01-08 06:45:50.37	120.48	12.58	
2025-01-08 06:45:51.40	120.68	12.52	
2025-01-08 06:45:52.42	120.87	12.46	
2025-01-08 06:45:53.45	121.06	12.40	
2025-01-08 06:45:54.48	121.25	12.34	
2025-01-08 06:45:55.50	121.44	12.28	
2025-01-08 06:45:56.53	121.63	12.22	
2025-01-08 06:45:57.57	121.82	12.16	
2025-01-08 06:45:58.61	122.01	12.10	
2025-01-08 06:45:59.64	122.20	12.04	
2025-01-08 06:46:00.66	122.38	11.98	
2025-01-08 06:46:01.70	122.57	11.92	
2025-01-08 06:46:02.72	122.76	11.86	
2025-01-08 06:46:03.77	122.94	11.80	
2025-01-08 06:46:04.79	123.13	11.74	
2025-01-08 06:46:05.82	123.31	11.68	
2025-01-08 06:46:06.85	123.49	11.61	
2025-01-08 06:46:07.88	123.67	11.55	
2025-01-08 06:46:08.91	123.85	11.49	
2025-01-08 06:46:09.93	124.03	11.43	
2025-01-08 06:46:10.96	124.21	11.37	
2025-01-08 06:46:11.98	124.39	11.31	
2025-01-08 06:46:13.01	124.56	11.25	
2025-01-08 06:46:14.03	124.74	11.19	
2025-01-08 06:46:15.06	124.91	11.13	
2025-01-08 06:46:16.10	125.09	11.07	
2025-01-08 06:46:17.13	125.27	11.00	
2025-01-08 06:46:18.15	125.44	10.94	
2025-01-08 06:46:19.18	125.61	10.88	
2025-01-08 06:46:20.22	125.78	10.82	
2025-01-08 06:46:21.26	125.96	10.76	
2025-01-08 06:46:22.29	126.13	10.69	
2025-01-08 06:46:23.32	126.30	10.63	
2025-01-08 06:46:24.35	126.47	10.57	
2025-01-08 06:46:25.38	126.63	10.51	
2025-01-08 06:46:26.40	126.80	10.45	
2025-01-08 06:46:27.43	126.97	10.39	
2025-01-08 06:46:28.47	127.13	10.32	
2025-01-08 06:46:29.49	127.30	10.26	
2025-01-08 06:46:30.51	127.46	10.20	
2025-01-08 06:46:31.54	127.63	10.14	
2025-01-08 06:46:32.56	127.79	10.08	
2025-01-08 06:46:33.59	127.95	10.02	
2025-01-08 06:46:34.61	128.11	9.95	
2025-01-08 06:46:35.64	128.27	9.89	
2025-01-08 06:46:36.67	128.43	9.83	
2025-01-08 06:46:37.69	128.59	9.77	
2025-01-08 06:46:38.71	128.75	9.71	
2025-01-08 06:46:39.76	128.91	9.64	
2025-01-08 06:46:40.78	129.06	9.58	
2025-01-08 06:46:41.81	129.22	9.52	
2025-01-08 06:46:42.83	129.37	9.46	
2025-01-08 06:46:43.86	129.53	9.40	
2025-01-08 06:46:44.90	129.69	9.33	
2025-01-08 06:46:45.92	129.84	9.27	
2025-01-08 06:46:46.94	129.99	9.21	
2025-01-08 06:46:47.97	130.14	9.15	
2025-01-08 06:46:49.00	130.30	9.09	
2025-01-08 06:46:50.02	130.45	9.03	
2025-01-08 06:46:51.05	130.60	8.96	
2025-01-08 06:46:52.07	130.74	8.90	
2025-01-08 06:46:53.09	130.89	8.84	
2025-01-08 06:46:54.12	131.04	8.78	
2025-01-08 06:46:55.15	131.19	8.72	
2025-01-08 06:46:56.17	131.33	8.65	
2025-01-08 06:46:57.19	131.48	8.59	
2025-01-08 06:46:58.22	131.63	8.53	
2025-01-08 06:46:59.24	131.77	8.47	
2025-01-08 06:47:00.28	131.92	8.41	
2025-01-08 06:47:01.31	132.06	8.35	
2025-01-08 06:47:02.34	132.20	8.28	
2025-01-08 06:47:03.36	132.35	8.22	
2025-01-08 06:47:04.39	132.49	8.16	
2025-01-08 06:47:05.42	132.63	8.10	
2025-01-08 06:47:06.44	132.77	8.04	
2025-01-08 06:47:07.48	132.91	7.97	
2025-01-08 06:47:08.50	133.05	7.91	
2025-01-08 06:47:09.53	133.19	7.85	
2025-01-08 06:47:10.55	133.33	7.79	
2025-01-08 06:47:11.59	133.46	7.73	
2025-01-08 06:47:12.62	133.60	7.67	
2025-01-08 06:47:13.65	133.74	7.61	
2025-01-08 06:47:14.67	133.87	7.54	
2025-01-08 06:47:15.69	134.01	7.48	
2025-01-08 06:47:16.72	134.14	7.42	
2025-01-08 06:47:17.76	134.28	7.36	
2025-01-08 06:47:18.78	134.41	7.30	
2025-01-08 06:47:19.81	134.54	7.24	
2025-01-08 06:47:20.84	134.68	7.18	
2025-01-08 06:47:21.86	134.81	7.12	
2025-01-08 06:47:22.90	134.94	7.05	
2025-01-08 06:47:23.92	135.07	6.99	
2025-01-08 06:47:24.96	135.20	6.93	
2025-01-08 06:47:25.99	135.33	6.87	
2025-01-08 06:47:27.01	135.46	6.81	
2025-01-08 06:47:28.04	135.59	6.75	
2025-01-08 06:47:29.06	135.71	6.69	
2025-01-08 06:47:30.09	135.84	6.63	
2025-01-08 06:47:31.12	135.97	6.57	
2025-01-08 06:47:32.15	136.09	6.51	
2025-01-08 06:47:33.17	136.22	6.45	
2025-01-08 06:47:34.21	136.34	6.38	
2025-01-08 06:47:35.25	136.47	6.32	
2025-01-08 06:47:36.28	136.59	6.26	
2025-01-08 06:47:37.30	136.72	6.20	
2025-01-08 06:47:38.33	136.84	6.14	
2025-01-08 06:47:39.35	136.96	6.08	
2025-01-08 06:47:40.39	137.08	6.02	
2025-01-08 06:47:41.42	137.20	5.96	
2025-01-08 06:47:42.44	137.32	5.90	
2025-01-08 06:47:43.47	137.44	5.84	
2025-01-08 06:47:44.50	137.56	5.78	
2025-01-08 06:47:45.54	137.68	5.72	
2025-01-08 06:47:46.56	137.80	5.66	
2025-01-08 06:47:47.59	137.92	5.60	
2025-01-08 06:47:48.61	138.04	5.54	
2025-01-08 06:47:49.64	138.15	5.48	
2025-01-08 06:47:50.66	138.27	5.42	
2025-01-08 06:47:51.69	138.39	5.36	
2025-01-08 06:47:52.71	138.50	5.30	
2025-01-08 06:47:53.75	138.62	5.24	
2025-01-08 06:47:54.77	138.73	5.18	
2025-01-08 06:47:55.80	138.84	5.12	
2025-01-08 06:47:56.84	138.96	5.06	
2025-01-08 06:47:57.87	139.07	5.00	
2025-01-08 06:47:58.89	139.18	4.95	
2025-01-08 06:47:59.92	139.30	4.89	
2025-01-08 06:48:00.94	139.41	4.83	
2025-01-08 06:48:01.98	139.52	4.77	
2025-01-08 06:48:03.00	139.63	4.71	
2025-01-08 06:48:04.03	139.74	4.65	
2025-01-08 06:48:05.06	139.85	4.59	
2025-01-08 06:48:06.08	139.96	4.53	
2025-01-08 06:48:07.11	140.07	4.47	
2025-01-08 06:48:08.13	140.18	4.42	
2025-01-08 06:48:09.17	140.28	4.36	
2025-01-08 06:48:10.19	140.39	4.30	
2025-01-08 06:48:11.22	140.50	4.24	
2025-01-08 06:48:12.24	140.60	4.18	
2025-01-08 06:48:13.26	140.71	4.12	
2025-01-08 06:48:14.29	140.82	4.07	
2025-01-08 06:48:15.31	140.92	4.01	

#Closed at: 2025-01-08 06:48:15