passes_logs/2025/01/08/SPB_Silybum_02/SPB_Silybum_02__20250108_040455_SUOMI_NPP_rec.log

#Pass ID: 20250108_040455_SUOMI NPP
#Satellite: SUOMI NPP
#Configuration: NPP
#Start time: 2025-01-08 04:04:55

#Version: 2.0.20230423
#Station: SPB_Silybum_02
#Location: 30.233357 lon 59.946436 lat
#TLE: 1 37849U 11061A   25007.16649885  .00000287  00000+0  15716-3 0  9990
#TLE: 2 37849  98.7438 308.2547 0001950  52.7817 307.3537 14.19534452683807

#Time	Az	El	Level	Level2	SNR	BER	Gain	Gain2
2025-01-08 04:04:57.34	16.52	4.06	
2025-01-08 04:04:58.15	16.43	4.09	
2025-01-08 04:04:58.99	16.33	4.13	
2025-01-08 04:04:59.81	16.23	4.16	
2025-01-08 04:05:00.63	16.13	4.19	
2025-01-08 04:05:01.45	16.03	4.22	
2025-01-08 04:05:02.26	15.93	4.25	
2025-01-08 04:05:03.08	15.83	4.29	
2025-01-08 04:05:03.92	15.73	4.32	
2025-01-08 04:05:04.74	15.63	4.35	
2025-01-08 04:05:05.56	15.53	4.38	
2025-01-08 04:05:06.38	15.43	4.42	
2025-01-08 04:05:07.21	15.33	4.45	
2025-01-08 04:05:08.03	15.23	4.48	
2025-01-08 04:05:08.85	15.13	4.51	
2025-01-08 04:05:09.67	15.03	4.54	
2025-01-08 04:05:10.49	14.93	4.58	
2025-01-08 04:05:11.31	14.82	4.61	
2025-01-08 04:05:12.13	14.72	4.64	
2025-01-08 04:05:12.95	14.62	4.67	
2025-01-08 04:05:13.77	14.52	4.70	
2025-01-08 04:05:14.59	14.42	4.73	
2025-01-08 04:05:15.41	14.31	4.77	
2025-01-08 04:05:16.23	14.21	4.80	
2025-01-08 04:05:17.05	14.11	4.83	
2025-01-08 04:05:17.88	14.00	4.86	
2025-01-08 04:05:18.70	13.90	4.89	
2025-01-08 04:05:19.52	13.79	4.92	
2025-01-08 04:05:20.34	13.69	4.95	
2025-01-08 04:05:21.16	13.59	4.98	
2025-01-08 04:05:21.99	13.48	5.02	
2025-01-08 04:05:22.81	13.37	5.05	
2025-01-08 04:05:23.65	13.27	5.08	
2025-01-08 04:05:24.47	13.16	5.11	
2025-01-08 04:05:25.29	13.06	5.14	
2025-01-08 04:05:26.11	12.95	5.17	
2025-01-08 04:05:26.92	12.85	5.20	
2025-01-08 04:05:27.74	12.74	5.23	
2025-01-08 04:05:28.58	12.63	5.26	
2025-01-08 04:05:29.40	12.52	5.29	
2025-01-08 04:05:30.22	12.42	5.33	
2025-01-08 04:05:31.04	12.31	5.36	
2025-01-08 04:05:31.86	12.20	5.39	
2025-01-08 04:05:32.68	12.10	5.42	
2025-01-08 04:05:33.50	11.99	5.45	
2025-01-08 04:05:34.33	11.88	5.48	
2025-01-08 04:05:35.16	11.77	5.51	
2025-01-08 04:05:35.98	11.66	5.54	
2025-01-08 04:05:36.81	11.55	5.57	
2025-01-08 04:05:37.64	11.44	5.60	
2025-01-08 04:05:38.46	11.33	5.63	
2025-01-08 04:05:39.28	11.22	5.66	
2025-01-08 04:05:40.11	11.11	5.69	
2025-01-08 04:05:40.93	11.00	5.72	
2025-01-08 04:05:41.75	10.89	5.75	
2025-01-08 04:05:42.57	10.78	5.78	
2025-01-08 04:05:43.39	10.67	5.81	
2025-01-08 04:05:44.21	10.56	5.84	
2025-01-08 04:05:45.03	10.45	5.87	
2025-01-08 04:05:45.85	10.34	5.90	
2025-01-08 04:05:46.68	10.22	5.93	
2025-01-08 04:05:47.50	10.11	5.96	
2025-01-08 04:05:48.33	10.00	5.98	
2025-01-08 04:05:49.15	9.89	6.01	
2025-01-08 04:05:49.98	9.77	6.04	
2025-01-08 04:05:50.81	9.66	6.07	
2025-01-08 04:05:51.62	9.55	6.10	
2025-01-08 04:05:52.44	9.43	6.13	
2025-01-08 04:05:53.26	9.32	6.16	
2025-01-08 04:05:54.08	9.21	6.19	
2025-01-08 04:05:54.90	9.09	6.22	
2025-01-08 04:05:55.72	8.98	6.24	
2025-01-08 04:05:56.56	8.86	6.27	
2025-01-08 04:05:57.38	8.75	6.30	
2025-01-08 04:05:58.20	8.63	6.33	
2025-01-08 04:05:59.02	8.52	6.36	
2025-01-08 04:05:59.85	8.40	6.39	
2025-01-08 04:06:00.67	8.29	6.41	
2025-01-08 04:06:01.49	8.17	6.44	
2025-01-08 04:06:02.32	8.05	6.47	
2025-01-08 04:06:03.13	7.94	6.50	
2025-01-08 04:06:03.96	7.82	6.53	
2025-01-08 04:06:04.78	7.70	6.55	
2025-01-08 04:06:05.59	7.59	6.58	
2025-01-08 04:06:06.42	7.47	6.61	
2025-01-08 04:06:07.24	7.35	6.64	
2025-01-08 04:06:08.06	7.23	6.66	
2025-01-08 04:06:08.88	7.12	6.69	
2025-01-08 04:06:09.70	7.00	6.72	
2025-01-08 04:06:10.52	6.88	6.75	
2025-01-08 04:06:11.34	6.76	6.77	
2025-01-08 04:06:12.16	6.64	6.80	
2025-01-08 04:06:12.98	6.53	6.83	
2025-01-08 04:06:13.81	6.40	6.85	
2025-01-08 04:06:14.63	6.29	6.88	
2025-01-08 04:06:15.45	6.17	6.91	
2025-01-08 04:06:16.28	6.05	6.93	
2025-01-08 04:06:17.10	5.93	6.96	
2025-01-08 04:06:17.91	5.81	6.99	
2025-01-08 04:06:18.75	5.68	7.01	
2025-01-08 04:06:19.57	5.56	7.04	
2025-01-08 04:06:20.38	5.44	7.06	
2025-01-08 04:06:21.20	5.32	7.09	
2025-01-08 04:06:22.02	5.20	7.12	
2025-01-08 04:06:22.84	5.08	7.14	
2025-01-08 04:06:23.66	4.96	7.17	
2025-01-08 04:06:24.48	4.84	7.19	
2025-01-08 04:06:25.31	4.71	7.22	
2025-01-08 04:06:26.14	4.59	7.24	
2025-01-08 04:06:26.96	4.47	7.27	
2025-01-08 04:06:27.78	4.34	7.29	
2025-01-08 04:06:28.60	4.22	7.32	
2025-01-08 04:06:29.42	4.10	7.34	
2025-01-08 04:06:30.25	3.97	7.37	
2025-01-08 04:06:31.08	3.85	7.39	
2025-01-08 04:06:31.91	3.72	7.42	
2025-01-08 04:06:32.73	3.60	7.44	
2025-01-08 04:06:33.55	3.47	7.47	
2025-01-08 04:06:34.37	3.35	7.49	
2025-01-08 04:06:35.19	3.22	7.52	
2025-01-08 04:06:36.01	3.10	7.54	
2025-01-08 04:06:36.83	2.97	7.56	
2025-01-08 04:06:37.66	2.85	7.59	
2025-01-08 04:06:38.48	2.72	7.61	
2025-01-08 04:06:39.29	2.60	7.64	
2025-01-08 04:06:40.12	2.47	7.66	
2025-01-08 04:06:40.94	2.34	7.68	
2025-01-08 04:06:41.76	2.22	7.71	
2025-01-08 04:06:42.58	2.09	7.73	
2025-01-08 04:06:43.40	1.96	7.75	
2025-01-08 04:06:44.22	1.84	7.78	
2025-01-08 04:06:45.04	1.71	7.80	
2025-01-08 04:06:45.86	1.58	7.82	
2025-01-08 04:06:46.68	1.46	7.84	
2025-01-08 04:06:47.50	1.33	7.87	
2025-01-08 04:06:48.32	1.20	7.89	
2025-01-08 04:06:49.14	1.07	7.91	
2025-01-08 04:06:49.96	0.94	7.93	
2025-01-08 04:06:50.78	0.81	7.96	
2025-01-08 04:06:51.60	0.69	7.98	
2025-01-08 04:06:52.42	0.56	8.00	
2025-01-08 04:06:53.25	0.43	8.02	
2025-01-08 04:06:54.07	0.30	8.04	
2025-01-08 04:06:54.89	0.17	8.06	
2025-01-08 04:06:55.71	0.04	8.09	
2025-01-08 04:06:56.53	359.91	8.11	
2025-01-08 04:06:57.36	359.77	8.13	
2025-01-08 04:06:58.19	359.64	8.15	
2025-01-08 04:06:59.01	359.51	8.17	
2025-01-08 04:06:59.83	359.38	8.19	
2025-01-08 04:07:00.66	359.25	8.21	
2025-01-08 04:07:01.48	359.12	8.23	
2025-01-08 04:07:02.31	358.99	8.25	
2025-01-08 04:07:03.13	358.85	8.27	
2025-01-08 04:07:03.95	358.72	8.29	
2025-01-08 04:07:04.77	358.59	8.31	
2025-01-08 04:07:05.60	358.46	8.33	
2025-01-08 04:07:06.42	358.32	8.35	
2025-01-08 04:07:07.24	358.19	8.37	
2025-01-08 04:07:08.06	358.06	8.39	
2025-01-08 04:07:08.89	357.92	8.41	
2025-01-08 04:07:09.72	357.79	8.43	
2025-01-08 04:07:10.54	357.66	8.45	
2025-01-08 04:07:11.36	357.52	8.47	
2025-01-08 04:07:12.18	357.39	8.49	
2025-01-08 04:07:13.00	357.26	8.51	
2025-01-08 04:07:13.82	357.12	8.53	
2025-01-08 04:07:14.64	356.99	8.54	
2025-01-08 04:07:15.46	356.85	8.56	
2025-01-08 04:07:16.28	356.72	8.58	
2025-01-08 04:07:17.10	356.59	8.60	
2025-01-08 04:07:17.92	356.45	8.62	
2025-01-08 04:07:18.74	356.32	8.63	
2025-01-08 04:07:19.56	356.18	8.65	
2025-01-08 04:07:20.38	356.05	8.67	
2025-01-08 04:07:21.21	355.91	8.69	
2025-01-08 04:07:22.04	355.77	8.70	
2025-01-08 04:07:22.86	355.64	8.72	
2025-01-08 04:07:23.69	355.50	8.74	
2025-01-08 04:07:24.51	355.36	8.75	
2025-01-08 04:07:25.33	355.23	8.77	
2025-01-08 04:07:26.16	355.09	8.79	
2025-01-08 04:07:26.98	354.95	8.80	
2025-01-08 04:07:27.81	354.81	8.82	
2025-01-08 04:07:28.63	354.68	8.84	
2025-01-08 04:07:29.45	354.54	8.85	
2025-01-08 04:07:30.27	354.40	8.87	
2025-01-08 04:07:31.09	354.26	8.88	
2025-01-08 04:07:31.91	354.13	8.90	
2025-01-08 04:07:32.73	353.99	8.91	
2025-01-08 04:07:33.55	353.85	8.93	
2025-01-08 04:07:34.37	353.71	8.94	
2025-01-08 04:07:35.19	353.58	8.96	
2025-01-08 04:07:36.01	353.44	8.97	
2025-01-08 04:07:36.83	353.30	8.99	
2025-01-08 04:07:37.65	353.16	9.00	
2025-01-08 04:07:38.47	353.02	9.02	
2025-01-08 04:07:39.29	352.88	9.03	
2025-01-08 04:07:40.11	352.75	9.04	
2025-01-08 04:07:40.93	352.61	9.06	
2025-01-08 04:07:41.75	352.47	9.07	
2025-01-08 04:07:42.57	352.33	9.09	
2025-01-08 04:07:43.40	352.19	9.10	
2025-01-08 04:07:44.22	352.05	9.11	
2025-01-08 04:07:45.04	351.91	9.13	
2025-01-08 04:07:45.86	351.77	9.14	
2025-01-08 04:07:46.68	351.63	9.15	
2025-01-08 04:07:47.50	351.49	9.16	
2025-01-08 04:07:48.33	351.35	9.18	
2025-01-08 04:07:49.16	351.20	9.19	
2025-01-08 04:07:49.98	351.06	9.20	
2025-01-08 04:07:50.80	350.92	9.21	
2025-01-08 04:07:51.61	350.78	9.22	
2025-01-08 04:07:52.43	350.64	9.24	
2025-01-08 04:07:53.26	350.50	9.25	
2025-01-08 04:07:54.08	350.36	9.26	
2025-01-08 04:07:54.90	350.22	9.27	
2025-01-08 04:07:55.72	350.08	9.28	
2025-01-08 04:07:56.54	349.94	9.29	
2025-01-08 04:07:57.36	349.80	9.30	
2025-01-08 04:07:58.18	349.65	9.31	
2025-01-08 04:07:59.00	349.51	9.32	
2025-01-08 04:07:59.82	349.37	9.33	
2025-01-08 04:08:00.64	349.23	9.34	
2025-01-08 04:08:01.46	349.09	9.35	
2025-01-08 04:08:02.28	348.95	9.36	
2025-01-08 04:08:03.10	348.80	9.37	
2025-01-08 04:08:03.92	348.66	9.38	
2025-01-08 04:08:04.74	348.52	9.39	
2025-01-08 04:08:05.56	348.38	9.40	
2025-01-08 04:08:06.38	348.23	9.41	
2025-01-08 04:08:07.20	348.09	9.42	
2025-01-08 04:08:08.02	347.95	9.42	
2025-01-08 04:08:08.84	347.81	9.43	
2025-01-08 04:08:09.66	347.66	9.44	
2025-01-08 04:08:10.48	347.52	9.45	
2025-01-08 04:08:11.30	347.38	9.46	
2025-01-08 04:08:12.12	347.23	9.46	
2025-01-08 04:08:12.94	347.09	9.47	
2025-01-08 04:08:13.77	346.95	9.48	
2025-01-08 04:08:14.59	346.80	9.49	
2025-01-08 04:08:15.41	346.66	9.49	
2025-01-08 04:08:16.23	346.52	9.50	
2025-01-08 04:08:17.05	346.37	9.51	
2025-01-08 04:08:17.87	346.23	9.51	
2025-01-08 04:08:18.69	346.09	9.52	
2025-01-08 04:08:19.51	345.94	9.53	
2025-01-08 04:08:20.34	345.80	9.53	
2025-01-08 04:08:21.18	345.65	9.54	
2025-01-08 04:08:22.00	345.51	9.54	
2025-01-08 04:08:22.82	345.36	9.55	
2025-01-08 04:08:23.65	345.22	9.55	
2025-01-08 04:08:24.47	345.07	9.56	
2025-01-08 04:08:25.29	344.93	9.56	
2025-01-08 04:08:26.13	344.78	9.57	
2025-01-08 04:08:26.95	344.64	9.57	
2025-01-08 04:08:27.77	344.49	9.58	
2025-01-08 04:08:28.60	344.35	9.58	
2025-01-08 04:08:29.42	344.20	9.59	
2025-01-08 04:08:30.24	344.06	9.59	
2025-01-08 04:08:31.06	343.91	9.59	
2025-01-08 04:08:31.88	343.77	9.60	
2025-01-08 04:08:32.71	343.62	9.60	
2025-01-08 04:08:33.53	343.48	9.60	
2025-01-08 04:08:34.35	343.33	9.61	
2025-01-08 04:08:35.17	343.19	9.61	
2025-01-08 04:08:35.99	343.05	9.61	
2025-01-08 04:08:36.81	342.90	9.61	
2025-01-08 04:08:37.63	342.76	9.62	
2025-01-08 04:08:38.45	342.61	9.62	
2025-01-08 04:08:39.27	342.47	9.62	
2025-01-08 04:08:40.09	342.32	9.62	
2025-01-08 04:08:40.91	342.18	9.62	
2025-01-08 04:08:41.73	342.03	9.63	
2025-01-08 04:08:42.55	341.89	9.63	
2025-01-08 04:08:43.37	341.74	9.63	
2025-01-08 04:08:44.19	341.60	9.63	
2025-01-08 04:08:45.01	341.45	9.63	
2025-01-08 04:08:45.84	341.31	9.63	
2025-01-08 04:08:46.65	341.17	9.63	
2025-01-08 04:08:47.49	341.02	9.63	
2025-01-08 04:08:48.32	340.87	9.63	
2025-01-08 04:08:49.14	340.73	9.63	
2025-01-08 04:08:49.96	340.58	9.63	
2025-01-08 04:08:50.78	340.44	9.63	
2025-01-08 04:08:51.60	340.29	9.63	
2025-01-08 04:08:52.42	340.15	9.63	
2025-01-08 04:08:53.24	340.00	9.63	
2025-01-08 04:08:54.05	339.86	9.63	
2025-01-08 04:08:54.89	339.71	9.62	
2025-01-08 04:08:55.71	339.57	9.62	
2025-01-08 04:08:56.53	339.42	9.62	
2025-01-08 04:08:57.35	339.28	9.62	
2025-01-08 04:08:58.18	339.13	9.62	
2025-01-08 04:08:59.02	338.98	9.61	
2025-01-08 04:08:59.84	338.84	9.61	
2025-01-08 04:09:00.68	338.69	9.61	
2025-01-08 04:09:01.50	338.55	9.61	
2025-01-08 04:09:02.32	338.40	9.60	
2025-01-08 04:09:03.14	338.26	9.60	
2025-01-08 04:09:03.96	338.11	9.60	
2025-01-08 04:09:04.78	337.97	9.59	
2025-01-08 04:09:05.60	337.82	9.59	
2025-01-08 04:09:06.42	337.68	9.59	
2025-01-08 04:09:07.24	337.54	9.58	
2025-01-08 04:09:08.06	337.39	9.58	
2025-01-08 04:09:08.88	337.25	9.57	
2025-01-08 04:09:09.70	337.10	9.57	
2025-01-08 04:09:10.52	336.96	9.56	
2025-01-08 04:09:11.34	336.81	9.56	
2025-01-08 04:09:12.16	336.67	9.55	
2025-01-08 04:09:12.98	336.53	9.55	
2025-01-08 04:09:13.80	336.38	9.54	
2025-01-08 04:09:14.62	336.24	9.54	
2025-01-08 04:09:15.44	336.09	9.53	
2025-01-08 04:09:16.28	335.95	9.53	
2025-01-08 04:09:17.10	335.80	9.52	
2025-01-08 04:09:17.92	335.66	9.51	
2025-01-08 04:09:18.75	335.51	9.51	
2025-01-08 04:09:19.56	335.37	9.50	
2025-01-08 04:09:20.40	335.23	9.49	
2025-01-08 04:09:21.22	335.08	9.49	
2025-01-08 04:09:22.04	334.94	9.48	
2025-01-08 04:09:22.86	334.80	9.47	
2025-01-08 04:09:23.70	334.65	9.47	
2025-01-08 04:09:24.52	334.51	9.46	
2025-01-08 04:09:25.34	334.36	9.45	
2025-01-08 04:09:26.16	334.22	9.44	
2025-01-08 04:09:26.98	334.08	9.43	
2025-01-08 04:09:27.80	333.94	9.43	
2025-01-08 04:09:28.63	333.79	9.42	
2025-01-08 04:09:29.45	333.65	9.41	
2025-01-08 04:09:30.26	333.51	9.40	
2025-01-08 04:09:31.08	333.36	9.39	
2025-01-08 04:09:31.90	333.22	9.38	
2025-01-08 04:09:32.72	333.08	9.37	
2025-01-08 04:09:33.54	332.94	9.36	
2025-01-08 04:09:34.36	332.80	9.35	
2025-01-08 04:09:35.18	332.65	9.34	
2025-01-08 04:09:36.01	332.51	9.33	
2025-01-08 04:09:36.83	332.37	9.32	
2025-01-08 04:09:37.64	332.23	9.31	
2025-01-08 04:09:38.46	332.09	9.30	
2025-01-08 04:09:39.29	331.94	9.29	
2025-01-08 04:09:40.10	331.80	9.28	
2025-01-08 04:09:40.92	331.66	9.27	
2025-01-08 04:09:41.74	331.52	9.26	
2025-01-08 04:09:42.57	331.38	9.25	
2025-01-08 04:09:43.39	331.24	9.24	
2025-01-08 04:09:44.20	331.10	9.23	
2025-01-08 04:09:45.02	330.96	9.21	
2025-01-08 04:09:45.85	330.82	9.20	
2025-01-08 04:09:46.67	330.68	9.19	
2025-01-08 04:09:47.48	330.54	9.18	
2025-01-08 04:09:48.30	330.40	9.17	
2025-01-08 04:09:49.12	330.26	9.15	
2025-01-08 04:09:49.94	330.12	9.14	
2025-01-08 04:09:50.76	329.98	9.13	
2025-01-08 04:09:51.58	329.84	9.12	
2025-01-08 04:09:52.40	329.70	9.10	
2025-01-08 04:09:53.22	329.56	9.09	
2025-01-08 04:09:54.04	329.42	9.08	
2025-01-08 04:09:54.88	329.28	9.06	
2025-01-08 04:09:55.70	329.14	9.05	
2025-01-08 04:09:56.51	329.00	9.03	
2025-01-08 04:09:57.34	328.86	9.02	
2025-01-08 04:09:58.16	328.72	9.01	
2025-01-08 04:09:58.98	328.58	8.99	
2025-01-08 04:09:59.79	328.45	8.98	
2025-01-08 04:10:00.61	328.31	8.96	
2025-01-08 04:10:01.43	328.17	8.95	
2025-01-08 04:10:02.25	328.03	8.93	
2025-01-08 04:10:03.07	327.89	8.92	
2025-01-08 04:10:03.89	327.76	8.90	
2025-01-08 04:10:04.71	327.62	8.89	
2025-01-08 04:10:05.53	327.48	8.87	
2025-01-08 04:10:06.35	327.34	8.86	
2025-01-08 04:10:07.17	327.21	8.84	
2025-01-08 04:10:07.99	327.07	8.82	
2025-01-08 04:10:08.81	326.93	8.81	
2025-01-08 04:10:09.64	326.79	8.79	
2025-01-08 04:10:10.47	326.66	8.77	
2025-01-08 04:10:11.29	326.52	8.76	
2025-01-08 04:10:12.11	326.38	8.74	
2025-01-08 04:10:12.93	326.25	8.72	
2025-01-08 04:10:13.76	326.11	8.71	
2025-01-08 04:10:14.58	325.97	8.69	
2025-01-08 04:10:15.41	325.84	8.67	
2025-01-08 04:10:16.23	325.70	8.66	
2025-01-08 04:10:17.05	325.57	8.64	
2025-01-08 04:10:17.87	325.43	8.62	
2025-01-08 04:10:18.69	325.30	8.60	
2025-01-08 04:10:19.51	325.16	8.58	
2025-01-08 04:10:20.33	325.03	8.57	
2025-01-08 04:10:21.15	324.89	8.55	
2025-01-08 04:10:21.98	324.76	8.53	
2025-01-08 04:10:22.80	324.62	8.51	
2025-01-08 04:10:23.62	324.49	8.49	
2025-01-08 04:10:24.44	324.36	8.47	
2025-01-08 04:10:25.26	324.22	8.45	
2025-01-08 04:10:26.09	324.09	8.44	
2025-01-08 04:10:26.91	323.95	8.42	
2025-01-08 04:10:27.74	323.82	8.40	
2025-01-08 04:10:28.55	323.69	8.38	
2025-01-08 04:10:29.38	323.55	8.36	
2025-01-08 04:10:30.20	323.42	8.34	
2025-01-08 04:10:31.02	323.29	8.32	
2025-01-08 04:10:31.84	323.16	8.30	
2025-01-08 04:10:32.66	323.02	8.28	
2025-01-08 04:10:33.49	322.89	8.26	
2025-01-08 04:10:34.31	322.76	8.24	
2025-01-08 04:10:35.13	322.63	8.22	
2025-01-08 04:10:35.95	322.50	8.20	
2025-01-08 04:10:36.79	322.36	8.18	
2025-01-08 04:10:37.61	322.23	8.15	
2025-01-08 04:10:38.45	322.10	8.13	
2025-01-08 04:10:39.27	321.97	8.11	
2025-01-08 04:10:40.09	321.84	8.09	
2025-01-08 04:10:40.91	321.71	8.07	
2025-01-08 04:10:41.73	321.58	8.05	
2025-01-08 04:10:42.55	321.45	8.03	
2025-01-08 04:10:43.37	321.32	8.00	
2025-01-08 04:10:44.19	321.19	7.98	
2025-01-08 04:10:45.01	321.06	7.96	
2025-01-08 04:10:45.82	320.93	7.94	
2025-01-08 04:10:46.64	320.81	7.92	
2025-01-08 04:10:47.47	320.68	7.89	
2025-01-08 04:10:48.29	320.55	7.87	
2025-01-08 04:10:49.11	320.42	7.85	
2025-01-08 04:10:49.93	320.29	7.83	
2025-01-08 04:10:50.75	320.16	7.80	
2025-01-08 04:10:51.57	320.04	7.78	
2025-01-08 04:10:52.39	319.91	7.76	
2025-01-08 04:10:53.21	319.78	7.73	
2025-01-08 04:10:54.03	319.66	7.71	
2025-01-08 04:10:54.86	319.53	7.69	
2025-01-08 04:10:55.68	319.40	7.66	
2025-01-08 04:10:56.50	319.27	7.64	
2025-01-08 04:10:57.33	319.15	7.62	
2025-01-08 04:10:58.15	319.02	7.59	
2025-01-08 04:10:58.97	318.90	7.57	
2025-01-08 04:10:59.79	318.77	7.55	
2025-01-08 04:11:00.61	318.65	7.52	
2025-01-08 04:11:01.43	318.52	7.50	
2025-01-08 04:11:02.24	318.40	7.47	
2025-01-08 04:11:03.08	318.27	7.45	
2025-01-08 04:11:03.90	318.15	7.42	
2025-01-08 04:11:04.72	318.02	7.40	
2025-01-08 04:11:05.55	317.90	7.37	
2025-01-08 04:11:06.37	317.77	7.35	
2025-01-08 04:11:07.19	317.65	7.32	
2025-01-08 04:11:08.01	317.53	7.30	
2025-01-08 04:11:08.83	317.40	7.27	
2025-01-08 04:11:09.65	317.28	7.25	
2025-01-08 04:11:10.47	317.16	7.22	
2025-01-08 04:11:11.29	317.03	7.20	
2025-01-08 04:11:12.11	316.91	7.17	
2025-01-08 04:11:12.93	316.79	7.15	
2025-01-08 04:11:13.75	316.67	7.12	
2025-01-08 04:11:14.57	316.55	7.10	
2025-01-08 04:11:15.40	316.42	7.07	
2025-01-08 04:11:16.22	316.30	7.04	
2025-01-08 04:11:17.06	316.18	7.02	
2025-01-08 04:11:17.89	316.06	6.99	
2025-01-08 04:11:18.71	315.94	6.96	
2025-01-08 04:11:19.53	315.82	6.94	
2025-01-08 04:11:20.37	315.69	6.91	
2025-01-08 04:11:21.19	315.57	6.88	
2025-01-08 04:11:22.01	315.46	6.86	
2025-01-08 04:11:22.83	315.34	6.83	
2025-01-08 04:11:23.67	315.21	6.80	
2025-01-08 04:11:24.50	315.09	6.78	
2025-01-08 04:11:25.32	314.98	6.75	
2025-01-08 04:11:26.14	314.86	6.72	
2025-01-08 04:11:26.96	314.74	6.70	
2025-01-08 04:11:27.78	314.62	6.67	
2025-01-08 04:11:28.60	314.50	6.64	
2025-01-08 04:11:29.42	314.39	6.61	
2025-01-08 04:11:30.25	314.27	6.59	
2025-01-08 04:11:31.07	314.15	6.56	
2025-01-08 04:11:31.89	314.03	6.53	
2025-01-08 04:11:32.70	313.92	6.50	
2025-01-08 04:11:33.52	313.80	6.48	
2025-01-08 04:11:34.34	313.69	6.45	
2025-01-08 04:11:35.16	313.57	6.42	
2025-01-08 04:11:35.98	313.45	6.39	
2025-01-08 04:11:36.80	313.34	6.36	
2025-01-08 04:11:37.63	313.22	6.34	
2025-01-08 04:11:38.45	313.11	6.31	
2025-01-08 04:11:39.28	312.99	6.28	
2025-01-08 04:11:40.11	312.87	6.25	
2025-01-08 04:11:40.93	312.76	6.22	
2025-01-08 04:11:41.75	312.65	6.19	
2025-01-08 04:11:42.57	312.53	6.16	
2025-01-08 04:11:43.39	312.42	6.13	
2025-01-08 04:11:44.21	312.31	6.11	
2025-01-08 04:11:45.03	312.19	6.08	
2025-01-08 04:11:45.85	312.08	6.05	
2025-01-08 04:11:46.67	311.97	6.02	
2025-01-08 04:11:47.49	311.85	5.99	
2025-01-08 04:11:48.32	311.74	5.96	
2025-01-08 04:11:49.14	311.63	5.93	
2025-01-08 04:11:49.95	311.52	5.90	
2025-01-08 04:11:50.79	311.40	5.87	
2025-01-08 04:11:51.61	311.29	5.84	
2025-01-08 04:11:52.43	311.18	5.81	
2025-01-08 04:11:53.25	311.07	5.78	
2025-01-08 04:11:54.07	310.96	5.75	
2025-01-08 04:11:54.89	310.85	5.72	
2025-01-08 04:11:55.71	310.74	5.69	
2025-01-08 04:11:56.53	310.63	5.67	
2025-01-08 04:11:57.35	310.52	5.64	
2025-01-08 04:11:58.17	310.41	5.61	
2025-01-08 04:11:58.99	310.30	5.58	
2025-01-08 04:11:59.81	310.19	5.55	
2025-01-08 04:12:00.63	310.08	5.51	
2025-01-08 04:12:01.46	309.97	5.48	
2025-01-08 04:12:02.28	309.87	5.45	
2025-01-08 04:12:03.10	309.76	5.42	
2025-01-08 04:12:03.92	309.65	5.39	
2025-01-08 04:12:04.74	309.54	5.36	
2025-01-08 04:12:05.56	309.43	5.33	
2025-01-08 04:12:06.38	309.33	5.30	
2025-01-08 04:12:07.21	309.22	5.27	
2025-01-08 04:12:08.03	309.11	5.24	
2025-01-08 04:12:08.85	309.01	5.21	
2025-01-08 04:12:09.67	308.90	5.18	
2025-01-08 04:12:10.49	308.79	5.15	
2025-01-08 04:12:11.31	308.69	5.12	
2025-01-08 04:12:12.13	308.58	5.09	
2025-01-08 04:12:12.96	308.47	5.05	
2025-01-08 04:12:13.78	308.37	5.02	
2025-01-08 04:12:14.60	308.26	4.99	
2025-01-08 04:12:15.42	308.16	4.96	
2025-01-08 04:12:16.24	308.06	4.93	
2025-01-08 04:12:17.06	307.95	4.90	
2025-01-08 04:12:17.88	307.85	4.87	
2025-01-08 04:12:18.70	307.74	4.84	
2025-01-08 04:12:19.52	307.64	4.80	
2025-01-08 04:12:20.34	307.54	4.77	
2025-01-08 04:12:21.16	307.43	4.74	
2025-01-08 04:12:21.99	307.33	4.71	
2025-01-08 04:12:22.81	307.23	4.68	
2025-01-08 04:12:23.63	307.12	4.65	
2025-01-08 04:12:24.47	307.02	4.61	
2025-01-08 04:12:25.29	306.92	4.58	
2025-01-08 04:12:26.11	306.82	4.55	
2025-01-08 04:12:26.93	306.71	4.52	
2025-01-08 04:12:27.75	306.61	4.49	
2025-01-08 04:12:28.59	306.51	4.45	
2025-01-08 04:12:29.41	306.41	4.42	
2025-01-08 04:12:30.23	306.31	4.39	
2025-01-08 04:12:31.05	306.21	4.36	
2025-01-08 04:12:31.87	306.11	4.33	
2025-01-08 04:12:32.69	306.01	4.29	
2025-01-08 04:12:33.51	305.91	4.26	
2025-01-08 04:12:34.33	305.81	4.23	
2025-01-08 04:12:35.15	305.71	4.20	
2025-01-08 04:12:35.98	305.61	4.16	
2025-01-08 04:12:36.80	305.51	4.13	
2025-01-08 04:12:37.62	305.41	4.10	
2025-01-08 04:12:38.44	305.31	4.07	
2025-01-08 04:12:39.25	305.22	4.04	
2025-01-08 04:12:40.07	305.12	4.00	

#Closed at: 2025-01-08 04:12:40