passes_logs/2025/01/08/SPB_Silybum_02/SPB_Silybum_02__20250108_004413_SUOMI_NPP_rec.log

#Pass ID: 20250108_004413_SUOMI NPP
#Satellite: SUOMI NPP
#Configuration: NPP
#Start time: 2025-01-08 00:49:10

#Version: 2.0.20230423
#Station: SPB_Silybum_02
#Location: 30.233357 lon 59.946436 lat
#TLE: 1 37849U 11061A   25007.16649885  .00000287  00000+0  15716-3 0  9990
#TLE: 2 37849  98.7438 308.2547 0001950  52.7817 307.3537 14.19534452683807

#Time	Az	El	Level	Level2	SNR	BER	Gain	Gain2
2025-01-08 00:49:12.96	358.46	42.85	
2025-01-08 00:49:13.98	358.23	43.11	
2025-01-08 00:49:15.00	358.00	43.37	
2025-01-08 00:49:16.03	357.76	43.64	
2025-01-08 00:49:17.06	357.52	43.90	
2025-01-08 00:49:18.09	357.27	44.17	
2025-01-08 00:49:19.12	357.02	44.44	
2025-01-08 00:49:20.14	356.77	44.71	
2025-01-08 00:49:21.17	356.51	44.98	
2025-01-08 00:49:22.20	356.25	45.25	
2025-01-08 00:49:23.23	355.98	45.53	
2025-01-08 00:49:24.26	355.70	45.80	
2025-01-08 00:49:25.28	355.43	46.07	
2025-01-08 00:49:26.31	355.15	46.35	
2025-01-08 00:49:27.35	354.85	46.63	
2025-01-08 00:49:28.38	354.56	46.91	
2025-01-08 00:49:29.41	354.26	47.19	
2025-01-08 00:49:30.44	353.96	47.48	
2025-01-08 00:49:31.48	353.65	47.76	
2025-01-08 00:49:32.50	353.33	48.04	
2025-01-08 00:49:33.53	353.01	48.33	
2025-01-08 00:49:34.55	352.69	48.61	
2025-01-08 00:49:35.58	352.35	48.90	
2025-01-08 00:49:36.61	352.01	49.18	
2025-01-08 00:49:37.63	351.67	49.47	
2025-01-08 00:49:38.65	351.32	49.75	
2025-01-08 00:49:39.67	350.96	50.04	
2025-01-08 00:49:40.71	350.59	50.33	
2025-01-08 00:49:41.75	350.21	50.62	
2025-01-08 00:49:42.78	349.83	50.92	
2025-01-08 00:49:43.82	349.44	51.21	
2025-01-08 00:49:44.86	349.04	51.50	
2025-01-08 00:49:45.91	348.63	51.80	
2025-01-08 00:49:46.94	348.21	52.09	
2025-01-08 00:49:47.97	347.79	52.39	
2025-01-08 00:49:49.01	347.36	52.68	
2025-01-08 00:49:50.05	346.91	52.98	
2025-01-08 00:49:51.08	346.46	53.27	
2025-01-08 00:49:52.09	346.02	53.55	
2025-01-08 00:49:53.11	345.56	53.84	
2025-01-08 00:49:54.12	345.09	54.13	
2025-01-08 00:49:55.14	344.61	54.42	
2025-01-08 00:49:56.15	344.12	54.70	
2025-01-08 00:49:57.16	343.63	54.99	
2025-01-08 00:49:58.17	343.12	55.27	
2025-01-08 00:49:59.19	342.60	55.56	
2025-01-08 00:50:00.20	342.07	55.84	
2025-01-08 00:50:01.22	341.53	56.12	
2025-01-08 00:50:02.23	340.98	56.41	
2025-01-08 00:50:03.24	340.42	56.68	
2025-01-08 00:50:04.26	339.85	56.96	
2025-01-08 00:50:05.27	339.26	57.24	
2025-01-08 00:50:06.28	338.67	57.52	
2025-01-08 00:50:07.30	338.05	57.79	
2025-01-08 00:50:08.32	337.43	58.07	
2025-01-08 00:50:09.33	336.79	58.34	
2025-01-08 00:50:10.34	336.15	58.60	
2025-01-08 00:50:11.38	335.47	58.87	
2025-01-08 00:50:12.39	334.80	59.14	
2025-01-08 00:50:13.41	334.10	59.40	
2025-01-08 00:50:14.44	333.39	59.66	
2025-01-08 00:50:15.51	332.63	59.93	
2025-01-08 00:50:16.58	331.86	60.20	
2025-01-08 00:50:17.59	331.12	60.44	
2025-01-08 00:50:18.63	330.33	60.69	
2025-01-08 00:50:19.65	329.55	60.94	
2025-01-08 00:50:20.66	328.76	61.17	
2025-01-08 00:50:21.67	327.96	61.40	
2025-01-08 00:50:22.70	327.12	61.64	
2025-01-08 00:50:23.73	326.27	61.86	
2025-01-08 00:50:24.76	325.40	62.09	
2025-01-08 00:50:25.79	324.52	62.31	
2025-01-08 00:50:26.84	323.60	62.52	
2025-01-08 00:50:27.89	322.67	62.73	
2025-01-08 00:50:28.90	321.75	62.93	
2025-01-08 00:50:29.93	320.81	63.13	
2025-01-08 00:50:30.95	319.85	63.31	
2025-01-08 00:50:31.97	318.88	63.50	
2025-01-08 00:50:33.01	317.88	63.67	
2025-01-08 00:50:34.02	316.89	63.84	
2025-01-08 00:50:35.06	315.86	64.01	
2025-01-08 00:50:36.07	314.85	64.16	
2025-01-08 00:50:37.09	313.81	64.31	
2025-01-08 00:50:38.10	312.76	64.44	
2025-01-08 00:50:39.11	311.71	64.58	
2025-01-08 00:50:40.12	310.64	64.70	
2025-01-08 00:50:41.13	309.56	64.81	
2025-01-08 00:50:42.14	308.47	64.92	
2025-01-08 00:50:43.16	307.36	65.02	
2025-01-08 00:50:44.17	306.26	65.11	
2025-01-08 00:50:45.21	305.10	65.20	
2025-01-08 00:50:46.25	303.95	65.27	
2025-01-08 00:50:47.26	302.81	65.34	
2025-01-08 00:50:48.27	301.67	65.40	
2025-01-08 00:50:49.30	300.51	65.44	
2025-01-08 00:50:50.33	299.33	65.48	
2025-01-08 00:50:51.35	298.17	65.51	
2025-01-08 00:50:52.36	297.02	65.53	
2025-01-08 00:50:53.38	295.85	65.55	
2025-01-08 00:50:54.39	294.69	65.55	
2025-01-08 00:50:55.40	293.53	65.54	
2025-01-08 00:50:56.41	292.37	65.52	
2025-01-08 00:50:57.45	291.19	65.50	
2025-01-08 00:50:58.46	290.04	65.46	
2025-01-08 00:50:59.50	288.85	65.42	
2025-01-08 00:51:00.52	287.70	65.37	
2025-01-08 00:51:01.54	286.55	65.30	
2025-01-08 00:51:02.55	285.42	65.23	
2025-01-08 00:51:03.56	284.30	65.16	
2025-01-08 00:51:04.59	283.17	65.07	
2025-01-08 00:51:05.60	282.06	64.97	
2025-01-08 00:51:06.61	280.97	64.87	
2025-01-08 00:51:07.63	279.87	64.76	
2025-01-08 00:51:08.65	278.79	64.63	
2025-01-08 00:51:09.69	277.70	64.50	
2025-01-08 00:51:10.70	276.65	64.37	
2025-01-08 00:51:11.71	275.61	64.23	
2025-01-08 00:51:12.73	274.58	64.07	
2025-01-08 00:51:13.76	273.55	63.91	
2025-01-08 00:51:14.78	272.54	63.75	
2025-01-08 00:51:15.80	271.55	63.58	
2025-01-08 00:51:16.83	270.57	63.40	
2025-01-08 00:51:17.85	269.60	63.21	
2025-01-08 00:51:18.87	268.66	63.02	
2025-01-08 00:51:19.90	267.72	62.82	
2025-01-08 00:51:20.93	266.80	62.62	
2025-01-08 00:51:21.96	265.89	62.40	
2025-01-08 00:51:23.00	264.99	62.19	
2025-01-08 00:51:24.04	264.10	61.96	
2025-01-08 00:51:25.08	263.23	61.74	
2025-01-08 00:51:26.10	262.40	61.51	
2025-01-08 00:51:27.13	261.57	61.27	
2025-01-08 00:51:28.15	260.76	61.03	
2025-01-08 00:51:29.17	259.97	60.79	
2025-01-08 00:51:30.20	259.19	60.55	
2025-01-08 00:51:31.24	258.42	60.29	
2025-01-08 00:51:32.26	257.67	60.04	
2025-01-08 00:51:33.30	256.93	59.78	
2025-01-08 00:51:34.33	256.21	59.52	
2025-01-08 00:51:35.36	255.50	59.25	
2025-01-08 00:51:36.39	254.81	58.99	
2025-01-08 00:51:37.41	254.13	58.72	
2025-01-08 00:51:38.43	253.47	58.45	
2025-01-08 00:51:39.46	252.82	58.18	
2025-01-08 00:51:40.49	252.18	57.90	
2025-01-08 00:51:41.53	251.55	57.62	
2025-01-08 00:51:42.56	250.94	57.34	
2025-01-08 00:51:43.60	250.33	57.05	
2025-01-08 00:51:44.62	249.75	56.77	
2025-01-08 00:51:45.65	249.17	56.49	
2025-01-08 00:51:46.68	248.61	56.20	
2025-01-08 00:51:47.70	248.06	55.92	
2025-01-08 00:51:48.73	247.52	55.63	
2025-01-08 00:51:49.76	246.99	55.34	
2025-01-08 00:51:50.79	246.47	55.05	
2025-01-08 00:51:51.82	245.96	54.76	
2025-01-08 00:51:52.84	245.47	54.47	
2025-01-08 00:51:53.87	244.98	54.18	
2025-01-08 00:51:54.89	244.50	53.89	
2025-01-08 00:51:55.92	244.04	53.60	
2025-01-08 00:51:56.95	243.58	53.30	
2025-01-08 00:51:57.99	243.12	53.01	
2025-01-08 00:51:59.01	242.68	52.72	
2025-01-08 00:52:00.03	242.25	52.43	
2025-01-08 00:52:01.06	241.83	52.13	
2025-01-08 00:52:02.09	241.41	51.84	
2025-01-08 00:52:03.12	241.01	51.55	
2025-01-08 00:52:04.14	240.61	51.26	
2025-01-08 00:52:05.17	240.22	50.97	
2025-01-08 00:52:06.20	239.83	50.67	
2025-01-08 00:52:07.22	239.46	50.39	
2025-01-08 00:52:08.24	239.10	50.10	
2025-01-08 00:52:09.27	238.73	49.81	
2025-01-08 00:52:10.30	238.38	49.52	
2025-01-08 00:52:11.32	238.03	49.23	
2025-01-08 00:52:12.34	237.69	48.95	
2025-01-08 00:52:13.37	237.35	48.66	
2025-01-08 00:52:14.41	237.02	48.37	
2025-01-08 00:52:15.44	236.70	48.08	
2025-01-08 00:52:16.47	236.38	47.80	
2025-01-08 00:52:17.49	236.07	47.52	
2025-01-08 00:52:18.52	235.76	47.24	
2025-01-08 00:52:19.55	235.46	46.95	
2025-01-08 00:52:20.58	235.17	46.67	
2025-01-08 00:52:21.61	234.88	46.39	
2025-01-08 00:52:22.63	234.59	46.12	
2025-01-08 00:52:23.67	234.31	45.84	
2025-01-08 00:52:24.70	234.04	45.56	
2025-01-08 00:52:25.72	233.77	45.29	
2025-01-08 00:52:26.76	233.50	45.01	
2025-01-08 00:52:27.78	233.24	44.74	
2025-01-08 00:52:28.82	232.98	44.47	
2025-01-08 00:52:29.84	232.73	44.20	
2025-01-08 00:52:30.87	232.48	43.93	
2025-01-08 00:52:31.90	232.24	43.66	
2025-01-08 00:52:32.92	232.00	43.40	
2025-01-08 00:52:33.95	231.77	43.13	
2025-01-08 00:52:34.97	231.54	42.87	
2025-01-08 00:52:36.00	231.31	42.61	
2025-01-08 00:52:37.03	231.08	42.35	
2025-01-08 00:52:38.05	230.87	42.09	
2025-01-08 00:52:39.08	230.65	41.83	
2025-01-08 00:52:40.12	230.43	41.57	
2025-01-08 00:52:41.14	230.22	41.31	
2025-01-08 00:52:42.17	230.02	41.06	
2025-01-08 00:52:43.20	229.81	40.81	
2025-01-08 00:52:44.23	229.61	40.55	
2025-01-08 00:52:45.25	229.42	40.31	
2025-01-08 00:52:46.28	229.22	40.06	
2025-01-08 00:52:47.31	229.03	39.81	
2025-01-08 00:52:48.33	228.84	39.56	
2025-01-08 00:52:49.36	228.66	39.32	
2025-01-08 00:52:50.38	228.48	39.08	
2025-01-08 00:52:51.41	228.30	38.84	
2025-01-08 00:52:52.45	228.12	38.59	
2025-01-08 00:52:53.47	227.95	38.35	
2025-01-08 00:52:54.50	227.77	38.12	
2025-01-08 00:52:55.53	227.60	37.88	
2025-01-08 00:52:56.55	227.44	37.65	
2025-01-08 00:52:57.58	227.27	37.41	
2025-01-08 00:52:58.61	227.11	37.18	
2025-01-08 00:52:59.64	226.95	36.95	
2025-01-08 00:53:00.67	226.79	36.72	
2025-01-08 00:53:01.69	226.64	36.49	
2025-01-08 00:53:02.72	226.49	36.26	
2025-01-08 00:53:03.74	226.34	36.04	
2025-01-08 00:53:04.77	226.19	35.81	
2025-01-08 00:53:05.79	226.04	35.59	
2025-01-08 00:53:06.82	225.90	35.37	
2025-01-08 00:53:07.86	225.75	35.15	
2025-01-08 00:53:08.90	225.61	34.93	
2025-01-08 00:53:09.92	225.47	34.71	
2025-01-08 00:53:10.95	225.33	34.49	
2025-01-08 00:53:11.98	225.20	34.28	
2025-01-08 00:53:13.01	225.07	34.06	
2025-01-08 00:53:14.06	224.93	33.85	
2025-01-08 00:53:15.09	224.80	33.64	
2025-01-08 00:53:16.13	224.67	33.42	
2025-01-08 00:53:17.16	224.55	33.21	
2025-01-08 00:53:18.19	224.42	33.01	
2025-01-08 00:53:19.21	224.30	32.80	
2025-01-08 00:53:20.25	224.18	32.59	
2025-01-08 00:53:21.27	224.06	32.39	
2025-01-08 00:53:22.30	223.94	32.19	
2025-01-08 00:53:23.33	223.82	31.99	
2025-01-08 00:53:24.35	223.71	31.79	
2025-01-08 00:53:25.38	223.59	31.59	
2025-01-08 00:53:26.41	223.48	31.39	
2025-01-08 00:53:27.44	223.37	31.20	
2025-01-08 00:53:28.46	223.26	31.00	
2025-01-08 00:53:29.49	223.15	30.81	
2025-01-08 00:53:30.51	223.04	30.62	
2025-01-08 00:53:31.54	222.94	30.42	
2025-01-08 00:53:32.57	222.83	30.23	
2025-01-08 00:53:33.60	222.73	30.04	
2025-01-08 00:53:34.63	222.63	29.86	
2025-01-08 00:53:35.67	222.52	29.67	
2025-01-08 00:53:36.70	222.42	29.48	
2025-01-08 00:53:37.72	222.33	29.30	
2025-01-08 00:53:38.74	222.23	29.11	
2025-01-08 00:53:39.77	222.13	28.93	
2025-01-08 00:53:40.79	222.04	28.75	
2025-01-08 00:53:41.82	221.94	28.57	
2025-01-08 00:53:42.86	221.85	28.39	
2025-01-08 00:53:43.89	221.76	28.21	
2025-01-08 00:53:44.92	221.67	28.03	
2025-01-08 00:53:45.95	221.58	27.86	
2025-01-08 00:53:46.99	221.49	27.68	
2025-01-08 00:53:48.02	221.40	27.50	
2025-01-08 00:53:49.05	221.31	27.33	
2025-01-08 00:53:50.07	221.23	27.16	
2025-01-08 00:53:51.10	221.14	26.99	
2025-01-08 00:53:52.13	221.06	26.82	
2025-01-08 00:53:53.16	220.97	26.65	
2025-01-08 00:53:54.18	220.89	26.48	
2025-01-08 00:53:55.22	220.81	26.31	
2025-01-08 00:53:56.25	220.73	26.15	
2025-01-08 00:53:57.27	220.65	25.98	
2025-01-08 00:53:58.31	220.57	25.82	
2025-01-08 00:53:59.34	220.49	25.65	
2025-01-08 00:54:00.36	220.42	25.49	
2025-01-08 00:54:01.39	220.34	25.33	
2025-01-08 00:54:02.42	220.27	25.17	
2025-01-08 00:54:03.45	220.19	25.01	
2025-01-08 00:54:04.47	220.12	24.85	
2025-01-08 00:54:05.50	220.04	24.69	
2025-01-08 00:54:06.53	219.97	24.54	
2025-01-08 00:54:07.55	219.90	24.38	
2025-01-08 00:54:08.58	219.83	24.22	
2025-01-08 00:54:09.60	219.76	24.07	
2025-01-08 00:54:10.63	219.69	23.92	
2025-01-08 00:54:11.65	219.62	23.77	
2025-01-08 00:54:12.68	219.55	23.61	
2025-01-08 00:54:13.71	219.49	23.46	
2025-01-08 00:54:14.73	219.42	23.31	
2025-01-08 00:54:15.76	219.35	23.16	
2025-01-08 00:54:16.78	219.29	23.02	
2025-01-08 00:54:17.81	219.22	22.87	
2025-01-08 00:54:18.84	219.16	22.72	
2025-01-08 00:54:19.87	219.10	22.58	
2025-01-08 00:54:20.91	219.03	22.43	
2025-01-08 00:54:21.94	218.97	22.28	
2025-01-08 00:54:22.96	218.91	22.14	
2025-01-08 00:54:23.99	218.85	22.00	
2025-01-08 00:54:25.01	218.79	21.86	
2025-01-08 00:54:26.04	218.73	21.72	
2025-01-08 00:54:27.07	218.67	21.57	
2025-01-08 00:54:28.10	218.61	21.43	
2025-01-08 00:54:29.14	218.55	21.29	
2025-01-08 00:54:30.17	218.49	21.15	
2025-01-08 00:54:31.20	218.44	21.02	
2025-01-08 00:54:32.22	218.38	20.88	
2025-01-08 00:54:33.25	218.32	20.74	
2025-01-08 00:54:34.29	218.27	20.61	
2025-01-08 00:54:35.31	218.21	20.47	
2025-01-08 00:54:36.34	218.16	20.34	
2025-01-08 00:54:37.37	218.10	20.20	
2025-01-08 00:54:38.39	218.05	20.07	
2025-01-08 00:54:39.42	218.00	19.94	
2025-01-08 00:54:40.44	217.95	19.81	
2025-01-08 00:54:41.47	217.89	19.68	
2025-01-08 00:54:42.50	217.84	19.55	
2025-01-08 00:54:43.53	217.79	19.42	
2025-01-08 00:54:44.55	217.74	19.29	
2025-01-08 00:54:45.58	217.69	19.16	
2025-01-08 00:54:46.61	217.64	19.03	
2025-01-08 00:54:47.64	217.59	18.91	
2025-01-08 00:54:48.67	217.54	18.78	
2025-01-08 00:54:49.71	217.49	18.65	
2025-01-08 00:54:50.73	217.44	18.53	
2025-01-08 00:54:51.76	217.40	18.40	
2025-01-08 00:54:52.79	217.35	18.28	
2025-01-08 00:54:53.82	217.30	18.16	
2025-01-08 00:54:54.84	217.26	18.03	
2025-01-08 00:54:55.87	217.21	17.91	
2025-01-08 00:54:56.90	217.16	17.79	
2025-01-08 00:54:57.93	217.12	17.67	
2025-01-08 00:54:58.95	217.07	17.55	
2025-01-08 00:54:59.98	217.03	17.43	
2025-01-08 00:55:01.00	216.99	17.31	
2025-01-08 00:55:02.03	216.94	17.19	
2025-01-08 00:55:03.06	216.90	17.07	
2025-01-08 00:55:04.08	216.86	16.96	
2025-01-08 00:55:05.13	216.81	16.84	
2025-01-08 00:55:06.16	216.77	16.72	
2025-01-08 00:55:07.20	216.73	16.60	
2025-01-08 00:55:08.22	216.69	16.49	
2025-01-08 00:55:09.25	216.64	16.37	
2025-01-08 00:55:10.27	216.60	16.26	
2025-01-08 00:55:11.31	216.56	16.15	
2025-01-08 00:55:12.34	216.52	16.03	
2025-01-08 00:55:13.36	216.48	15.92	
2025-01-08 00:55:14.39	216.44	15.81	
2025-01-08 00:55:15.42	216.40	15.70	
2025-01-08 00:55:16.44	216.37	15.59	
2025-01-08 00:55:17.47	216.33	15.47	
2025-01-08 00:55:18.50	216.29	15.36	
2025-01-08 00:55:19.53	216.25	15.25	
2025-01-08 00:55:20.55	216.21	15.14	
2025-01-08 00:55:21.58	216.17	15.04	
2025-01-08 00:55:22.60	216.14	14.93	
2025-01-08 00:55:23.61	216.10	14.82	
2025-01-08 00:55:24.64	216.06	14.71	
2025-01-08 00:55:25.66	216.03	14.61	
2025-01-08 00:55:26.70	215.99	14.50	
2025-01-08 00:55:27.73	215.96	14.39	
2025-01-08 00:55:28.76	215.92	14.29	
2025-01-08 00:55:29.78	215.89	14.18	
2025-01-08 00:55:30.81	215.85	14.08	
2025-01-08 00:55:31.83	215.82	13.98	
2025-01-08 00:55:32.86	215.78	13.87	
2025-01-08 00:55:33.89	215.75	13.77	
2025-01-08 00:55:34.91	215.71	13.66	
2025-01-08 00:55:35.93	215.68	13.56	
2025-01-08 00:55:36.96	215.65	13.46	
2025-01-08 00:55:38.00	215.61	13.36	
2025-01-08 00:55:39.03	215.58	13.26	
2025-01-08 00:55:40.06	215.55	13.15	
2025-01-08 00:55:41.09	215.51	13.05	
2025-01-08 00:55:42.11	215.48	12.95	
2025-01-08 00:55:43.14	215.45	12.85	
2025-01-08 00:55:44.17	215.42	12.76	
2025-01-08 00:55:45.21	215.39	12.65	
2025-01-08 00:55:46.25	215.35	12.56	
2025-01-08 00:55:47.29	215.32	12.46	
2025-01-08 00:55:48.31	215.29	12.36	
2025-01-08 00:55:49.34	215.26	12.26	
2025-01-08 00:55:50.37	215.23	12.16	
2025-01-08 00:55:51.40	215.20	12.07	
2025-01-08 00:55:52.42	215.17	11.97	
2025-01-08 00:55:53.45	215.14	11.88	
2025-01-08 00:55:54.48	215.11	11.78	
2025-01-08 00:55:55.50	215.08	11.69	
2025-01-08 00:55:56.53	215.05	11.59	
2025-01-08 00:55:57.55	215.03	11.50	
2025-01-08 00:55:58.58	215.00	11.40	
2025-01-08 00:55:59.60	214.97	11.31	
2025-01-08 00:56:00.65	214.94	11.21	
2025-01-08 00:56:01.68	214.91	11.12	
2025-01-08 00:56:02.70	214.88	11.03	
2025-01-08 00:56:03.73	214.86	10.94	
2025-01-08 00:56:04.77	214.83	10.84	
2025-01-08 00:56:05.79	214.80	10.75	
2025-01-08 00:56:06.82	214.77	10.66	
2025-01-08 00:56:07.85	214.75	10.57	
2025-01-08 00:56:08.88	214.72	10.48	
2025-01-08 00:56:09.90	214.69	10.39	
2025-01-08 00:56:10.92	214.67	10.30	
2025-01-08 00:56:11.95	214.64	10.21	
2025-01-08 00:56:12.97	214.61	10.12	
2025-01-08 00:56:14.00	214.59	10.03	
2025-01-08 00:56:15.03	214.56	9.94	
2025-01-08 00:56:16.05	214.54	9.85	
2025-01-08 00:56:17.08	214.51	9.77	
2025-01-08 00:56:18.10	214.49	9.68	
2025-01-08 00:56:19.14	214.46	9.59	
2025-01-08 00:56:20.19	214.44	9.50	
2025-01-08 00:56:21.23	214.41	9.41	
2025-01-08 00:56:22.25	214.39	9.33	
2025-01-08 00:56:23.29	214.36	9.24	
2025-01-08 00:56:24.31	214.34	9.15	
2025-01-08 00:56:25.34	214.31	9.07	
2025-01-08 00:56:26.37	214.29	8.98	
2025-01-08 00:56:27.39	214.27	8.90	
2025-01-08 00:56:28.42	214.24	8.81	
2025-01-08 00:56:29.46	214.22	8.73	
2025-01-08 00:56:30.48	214.20	8.64	
2025-01-08 00:56:31.50	214.17	8.56	
2025-01-08 00:56:32.52	214.15	8.48	
2025-01-08 00:56:33.55	214.13	8.39	
2025-01-08 00:56:34.58	214.11	8.31	
2025-01-08 00:56:35.62	214.08	8.23	
2025-01-08 00:56:36.65	214.06	8.14	
2025-01-08 00:56:37.69	214.04	8.06	
2025-01-08 00:56:38.71	214.02	7.98	
2025-01-08 00:56:39.74	213.99	7.90	
2025-01-08 00:56:40.76	213.97	7.81	
2025-01-08 00:56:41.79	213.95	7.73	
2025-01-08 00:56:42.82	213.93	7.65	
2025-01-08 00:56:43.85	213.91	7.57	
2025-01-08 00:56:44.87	213.89	7.49	
2025-01-08 00:56:45.90	213.86	7.41	
2025-01-08 00:56:46.93	213.84	7.33	
2025-01-08 00:56:47.97	213.82	7.25	
2025-01-08 00:56:48.99	213.80	7.17	
2025-01-08 00:56:50.02	213.78	7.09	
2025-01-08 00:56:51.05	213.76	7.01	
2025-01-08 00:56:52.08	213.74	6.93	
2025-01-08 00:56:53.10	213.72	6.85	
2025-01-08 00:56:54.13	213.70	6.78	
2025-01-08 00:56:55.16	213.68	6.70	
2025-01-08 00:56:56.18	213.66	6.62	
2025-01-08 00:56:57.21	213.64	6.54	
2025-01-08 00:56:58.24	213.62	6.46	
2025-01-08 00:56:59.26	213.60	6.39	
2025-01-08 00:57:00.29	213.58	6.31	
2025-01-08 00:57:01.32	213.56	6.23	
2025-01-08 00:57:02.34	213.54	6.16	
2025-01-08 00:57:03.38	213.52	6.08	
2025-01-08 00:57:04.41	213.50	6.00	
2025-01-08 00:57:05.43	213.49	5.93	
2025-01-08 00:57:06.46	213.47	5.85	
2025-01-08 00:57:07.48	213.45	5.78	
2025-01-08 00:57:08.51	213.43	5.70	
2025-01-08 00:57:09.54	213.41	5.63	
2025-01-08 00:57:10.56	213.39	5.55	
2025-01-08 00:57:11.59	213.38	5.48	
2025-01-08 00:57:12.62	213.36	5.40	
2025-01-08 00:57:13.66	213.34	5.33	
2025-01-08 00:57:14.70	213.32	5.25	
2025-01-08 00:57:15.73	213.30	5.18	
2025-01-08 00:57:16.76	213.29	5.11	
2025-01-08 00:57:17.80	213.27	5.03	
2025-01-08 00:57:18.83	213.25	4.96	
2025-01-08 00:57:19.85	213.23	4.88	
2025-01-08 00:57:20.88	213.22	4.81	
2025-01-08 00:57:21.91	213.20	4.74	
2025-01-08 00:57:22.94	213.18	4.67	
2025-01-08 00:57:23.96	213.17	4.59	
2025-01-08 00:57:24.99	213.15	4.52	
2025-01-08 00:57:26.02	213.13	4.45	
2025-01-08 00:57:27.05	213.11	4.38	
2025-01-08 00:57:28.07	213.10	4.31	
2025-01-08 00:57:29.10	213.08	4.24	
2025-01-08 00:57:30.15	213.06	4.16	
2025-01-08 00:57:31.17	213.05	4.09	
2025-01-08 00:57:32.20	213.03	4.02	

#Closed at: 2025-01-08 00:57:32