passes_logs/2025/01/08/SPB_Silybum_02/SPB_Silybum_02__20250108_133132_AQUA_rec.log

#Pass ID: 20250108_133132_AQUA
#Satellite: AQUA
#Configuration: AQUA
#Start time: 2025-01-08 13:31:33

#Version: 2.0.20230423
#Station: SPB_Silybum_02
#Location: 30.233357 lon 59.946436 lat
#TLE: 1 27424U 02022A   25007.87424311  .00002334  00000+0  48938-3 0  9995
#TLE: 2 27424  98.3576 324.4746 0001447 118.7932 262.7333 14.60655264206582

#Time	Az	El	Level	Level2	SNR	BER	Gain	Gain2
2025-01-08 13:31:35.90	233.34	4.14	
2025-01-08 13:31:36.93	233.47	4.19	
2025-01-08 13:31:37.95	233.60	4.24	
2025-01-08 13:31:38.98	233.72	4.29	
2025-01-08 13:31:40.01	233.85	4.34	
2025-01-08 13:31:41.04	233.98	4.39	
2025-01-08 13:31:42.08	234.11	4.44	
2025-01-08 13:31:43.10	234.24	4.49	
2025-01-08 13:31:44.15	234.37	4.54	
2025-01-08 13:31:45.17	234.50	4.59	
2025-01-08 13:31:46.20	234.64	4.64	
2025-01-08 13:31:47.22	234.77	4.69	
2025-01-08 13:31:48.25	234.90	4.74	
2025-01-08 13:31:49.27	235.03	4.79	
2025-01-08 13:31:50.30	235.16	4.84	
2025-01-08 13:31:51.32	235.30	4.89	
2025-01-08 13:31:52.35	235.43	4.94	
2025-01-08 13:31:53.38	235.56	4.99	
2025-01-08 13:31:54.40	235.70	5.04	
2025-01-08 13:31:55.44	235.84	5.09	
2025-01-08 13:31:56.46	235.97	5.14	
2025-01-08 13:31:57.48	236.11	5.19	
2025-01-08 13:31:58.51	236.24	5.24	
2025-01-08 13:31:59.53	236.38	5.29	
2025-01-08 13:32:00.56	236.52	5.34	
2025-01-08 13:32:01.59	236.66	5.38	
2025-01-08 13:32:02.61	236.79	5.43	
2025-01-08 13:32:03.63	236.93	5.48	
2025-01-08 13:32:04.66	237.07	5.53	
2025-01-08 13:32:05.68	237.21	5.58	
2025-01-08 13:32:06.71	237.35	5.63	
2025-01-08 13:32:07.73	237.49	5.68	
2025-01-08 13:32:08.76	237.63	5.73	
2025-01-08 13:32:09.78	237.78	5.78	
2025-01-08 13:32:10.81	237.92	5.83	
2025-01-08 13:32:11.83	238.06	5.87	
2025-01-08 13:32:12.86	238.21	5.92	
2025-01-08 13:32:13.88	238.35	5.97	
2025-01-08 13:32:14.90	238.49	6.02	
2025-01-08 13:32:15.94	238.64	6.07	
2025-01-08 13:32:16.96	238.78	6.12	
2025-01-08 13:32:17.98	238.93	6.17	
2025-01-08 13:32:19.01	239.08	6.22	
2025-01-08 13:32:20.03	239.22	6.26	
2025-01-08 13:32:21.06	239.37	6.31	
2025-01-08 13:32:22.08	239.52	6.36	
2025-01-08 13:32:23.11	239.67	6.41	
2025-01-08 13:32:24.13	239.82	6.46	
2025-01-08 13:32:25.16	239.97	6.51	
2025-01-08 13:32:26.18	240.12	6.55	
2025-01-08 13:32:27.21	240.27	6.60	
2025-01-08 13:32:28.24	240.42	6.65	
2025-01-08 13:32:29.26	240.57	6.70	
2025-01-08 13:32:30.29	240.72	6.75	
2025-01-08 13:32:31.31	240.88	6.79	
2025-01-08 13:32:32.33	241.03	6.84	
2025-01-08 13:32:33.37	241.18	6.89	
2025-01-08 13:32:34.40	241.34	6.94	
2025-01-08 13:32:35.43	241.49	6.99	
2025-01-08 13:32:36.46	241.65	7.03	
2025-01-08 13:32:37.48	241.81	7.08	
2025-01-08 13:32:38.51	241.96	7.13	
2025-01-08 13:32:39.53	242.12	7.18	
2025-01-08 13:32:40.56	242.28	7.22	
2025-01-08 13:32:41.59	242.44	7.27	
2025-01-08 13:32:42.63	242.60	7.32	
2025-01-08 13:32:43.65	242.76	7.37	
2025-01-08 13:32:44.67	242.91	7.41	
2025-01-08 13:32:45.70	243.08	7.46	
2025-01-08 13:32:46.72	243.24	7.51	
2025-01-08 13:32:47.75	243.40	7.55	
2025-01-08 13:32:48.77	243.56	7.60	
2025-01-08 13:32:49.81	243.72	7.65	
2025-01-08 13:32:50.84	243.89	7.69	
2025-01-08 13:32:51.86	244.05	7.74	
2025-01-08 13:32:52.89	244.21	7.79	
2025-01-08 13:32:53.91	244.38	7.83	
2025-01-08 13:32:54.95	244.55	7.88	
2025-01-08 13:32:55.97	244.71	7.92	
2025-01-08 13:32:57.00	244.88	7.97	
2025-01-08 13:32:58.03	245.05	8.02	
2025-01-08 13:32:59.06	245.21	8.06	
2025-01-08 13:33:00.08	245.38	8.11	
2025-01-08 13:33:01.11	245.55	8.15	
2025-01-08 13:33:02.13	245.72	8.20	
2025-01-08 13:33:03.16	245.89	8.24	
2025-01-08 13:33:04.19	246.06	8.29	
2025-01-08 13:33:05.21	246.23	8.33	
2025-01-08 13:33:06.24	246.40	8.38	
2025-01-08 13:33:07.27	246.57	8.42	
2025-01-08 13:33:08.29	246.75	8.47	
2025-01-08 13:33:09.31	246.92	8.51	
2025-01-08 13:33:10.34	247.09	8.56	
2025-01-08 13:33:11.36	247.26	8.60	
2025-01-08 13:33:12.39	247.44	8.65	
2025-01-08 13:33:13.42	247.62	8.69	
2025-01-08 13:33:14.44	247.79	8.73	
2025-01-08 13:33:15.46	247.97	8.78	
2025-01-08 13:33:16.49	248.14	8.82	
2025-01-08 13:33:17.51	248.32	8.86	
2025-01-08 13:33:18.54	248.50	8.91	
2025-01-08 13:33:19.58	248.68	8.95	
2025-01-08 13:33:20.60	248.86	8.99	
2025-01-08 13:33:21.64	249.04	9.04	
2025-01-08 13:33:22.67	249.22	9.08	
2025-01-08 13:33:23.70	249.40	9.12	
2025-01-08 13:33:24.72	249.58	9.16	
2025-01-08 13:33:25.75	249.77	9.21	
2025-01-08 13:33:26.77	249.95	9.25	
2025-01-08 13:33:27.81	250.13	9.29	
2025-01-08 13:33:28.84	250.32	9.33	
2025-01-08 13:33:29.86	250.50	9.37	
2025-01-08 13:33:30.89	250.68	9.42	
2025-01-08 13:33:31.93	250.87	9.46	
2025-01-08 13:33:32.96	251.06	9.50	
2025-01-08 13:33:33.98	251.24	9.54	
2025-01-08 13:33:35.01	251.43	9.58	
2025-01-08 13:33:36.05	251.62	9.62	
2025-01-08 13:33:37.09	251.81	9.66	
2025-01-08 13:33:38.12	252.00	9.70	
2025-01-08 13:33:39.15	252.19	9.74	
2025-01-08 13:33:40.17	252.38	9.78	
2025-01-08 13:33:41.20	252.57	9.82	
2025-01-08 13:33:42.22	252.76	9.86	
2025-01-08 13:33:43.25	252.95	9.90	
2025-01-08 13:33:44.28	253.14	9.94	
2025-01-08 13:33:45.30	253.33	9.98	
2025-01-08 13:33:46.33	253.53	10.02	
2025-01-08 13:33:47.36	253.72	10.06	
2025-01-08 13:33:48.38	253.91	10.09	
2025-01-08 13:33:49.40	254.11	10.13	
2025-01-08 13:33:50.43	254.30	10.17	
2025-01-08 13:33:51.45	254.50	10.21	
2025-01-08 13:33:52.48	254.69	10.24	
2025-01-08 13:33:53.52	254.89	10.28	
2025-01-08 13:33:54.54	255.09	10.32	
2025-01-08 13:33:55.56	255.29	10.36	
2025-01-08 13:33:56.59	255.48	10.39	
2025-01-08 13:33:57.61	255.68	10.43	
2025-01-08 13:33:58.64	255.88	10.46	
2025-01-08 13:33:59.66	256.08	10.50	
2025-01-08 13:34:00.69	256.28	10.54	
2025-01-08 13:34:01.71	256.48	10.57	
2025-01-08 13:34:02.73	256.68	10.61	
2025-01-08 13:34:03.76	256.88	10.64	
2025-01-08 13:34:04.78	257.08	10.67	
2025-01-08 13:34:05.80	257.28	10.71	
2025-01-08 13:34:06.83	257.49	10.74	
2025-01-08 13:34:07.86	257.69	10.78	
2025-01-08 13:34:08.89	257.90	10.81	
2025-01-08 13:34:09.91	258.10	10.84	
2025-01-08 13:34:10.94	258.31	10.88	
2025-01-08 13:34:11.96	258.51	10.91	
2025-01-08 13:34:12.99	258.72	10.94	
2025-01-08 13:34:14.01	258.92	10.97	
2025-01-08 13:34:15.04	259.13	11.01	
2025-01-08 13:34:16.06	259.34	11.04	
2025-01-08 13:34:17.09	259.54	11.07	
2025-01-08 13:34:18.11	259.75	11.10	
2025-01-08 13:34:19.13	259.96	11.13	
2025-01-08 13:34:20.16	260.17	11.16	
2025-01-08 13:34:21.19	260.38	11.19	
2025-01-08 13:34:22.21	260.59	11.22	
2025-01-08 13:34:23.24	260.80	11.25	
2025-01-08 13:34:24.27	261.01	11.28	
2025-01-08 13:34:25.29	261.22	11.31	
2025-01-08 13:34:26.31	261.43	11.34	
2025-01-08 13:34:27.34	261.64	11.37	
2025-01-08 13:34:28.38	261.86	11.40	
2025-01-08 13:34:29.41	262.07	11.42	
2025-01-08 13:34:30.43	262.29	11.45	
2025-01-08 13:34:31.46	262.50	11.48	
2025-01-08 13:34:32.48	262.71	11.51	
2025-01-08 13:34:33.51	262.93	11.53	
2025-01-08 13:34:34.53	263.14	11.56	
2025-01-08 13:34:35.56	263.36	11.58	
2025-01-08 13:34:36.58	263.57	11.61	
2025-01-08 13:34:37.60	263.79	11.64	
2025-01-08 13:34:38.63	264.01	11.66	
2025-01-08 13:34:39.65	264.22	11.69	
2025-01-08 13:34:40.68	264.44	11.71	
2025-01-08 13:34:41.71	264.66	11.73	
2025-01-08 13:34:42.74	264.88	11.76	
2025-01-08 13:34:43.76	265.10	11.78	
2025-01-08 13:34:44.79	265.32	11.81	
2025-01-08 13:34:45.81	265.53	11.83	
2025-01-08 13:34:46.84	265.75	11.85	
2025-01-08 13:34:47.86	265.97	11.87	
2025-01-08 13:34:48.88	266.19	11.89	
2025-01-08 13:34:49.91	266.41	11.92	
2025-01-08 13:34:50.93	266.63	11.94	
2025-01-08 13:34:51.96	266.86	11.96	
2025-01-08 13:34:52.99	267.08	11.98	
2025-01-08 13:34:54.03	267.30	12.00	
2025-01-08 13:34:55.05	267.52	12.02	
2025-01-08 13:34:56.09	267.75	12.04	
2025-01-08 13:34:57.11	267.97	12.06	
2025-01-08 13:34:58.14	268.19	12.08	
2025-01-08 13:34:59.17	268.42	12.09	
2025-01-08 13:35:00.19	268.64	12.11	
2025-01-08 13:35:01.22	268.87	12.13	
2025-01-08 13:35:02.25	269.09	12.15	
2025-01-08 13:35:03.27	269.31	12.16	
2025-01-08 13:35:04.29	269.54	12.18	
2025-01-08 13:35:05.33	269.77	12.20	
2025-01-08 13:35:06.37	269.99	12.21	
2025-01-08 13:35:07.40	270.22	12.23	
2025-01-08 13:35:08.43	270.45	12.24	
2025-01-08 13:35:09.45	270.67	12.26	
2025-01-08 13:35:10.48	270.90	12.27	
2025-01-08 13:35:11.50	271.12	12.28	
2025-01-08 13:35:12.52	271.35	12.30	
2025-01-08 13:35:13.56	271.58	12.31	
2025-01-08 13:35:14.59	271.81	12.32	
2025-01-08 13:35:15.62	272.04	12.34	
2025-01-08 13:35:16.65	272.26	12.35	
2025-01-08 13:35:17.68	272.49	12.36	
2025-01-08 13:35:18.70	272.72	12.37	
2025-01-08 13:35:19.73	272.95	12.38	
2025-01-08 13:35:20.77	273.18	12.39	
2025-01-08 13:35:21.80	273.41	12.40	
2025-01-08 13:35:22.82	273.64	12.41	
2025-01-08 13:35:23.84	273.86	12.42	
2025-01-08 13:35:24.87	274.09	12.43	
2025-01-08 13:35:25.89	274.32	12.44	
2025-01-08 13:35:26.92	274.55	12.45	
2025-01-08 13:35:27.96	274.78	12.46	
2025-01-08 13:35:28.98	275.01	12.46	
2025-01-08 13:35:30.01	275.24	12.47	
2025-01-08 13:35:31.03	275.47	12.48	
2025-01-08 13:35:32.06	275.70	12.48	
2025-01-08 13:35:33.08	275.93	12.49	
2025-01-08 13:35:34.11	276.16	12.49	
2025-01-08 13:35:35.14	276.39	12.50	
2025-01-08 13:35:36.16	276.62	12.50	
2025-01-08 13:35:37.18	276.85	12.51	
2025-01-08 13:35:38.21	277.08	12.51	
2025-01-08 13:35:39.24	277.31	12.51	
2025-01-08 13:35:40.26	277.54	12.52	
2025-01-08 13:35:41.29	277.77	12.52	
2025-01-08 13:35:42.31	278.00	12.52	
2025-01-08 13:35:43.34	278.23	12.52	
2025-01-08 13:35:44.37	278.46	12.52	
2025-01-08 13:35:45.39	278.69	12.52	
2025-01-08 13:35:46.43	278.92	12.53	
2025-01-08 13:35:47.47	279.15	12.53	
2025-01-08 13:35:48.50	279.39	12.53	
2025-01-08 13:35:49.52	279.61	12.52	
2025-01-08 13:35:50.55	279.85	12.52	
2025-01-08 13:35:51.57	280.07	12.52	
2025-01-08 13:35:52.61	280.31	12.52	
2025-01-08 13:35:53.64	280.54	12.52	
2025-01-08 13:35:54.67	280.77	12.52	
2025-01-08 13:35:55.69	281.00	12.51	
2025-01-08 13:35:56.72	281.23	12.51	
2025-01-08 13:35:57.75	281.46	12.50	
2025-01-08 13:35:58.77	281.69	12.50	
2025-01-08 13:35:59.80	281.92	12.50	
2025-01-08 13:36:00.84	282.15	12.49	
2025-01-08 13:36:01.86	282.38	12.49	
2025-01-08 13:36:02.89	282.61	12.48	
2025-01-08 13:36:03.91	282.84	12.47	
2025-01-08 13:36:04.94	283.07	12.47	
2025-01-08 13:36:05.98	283.30	12.46	
2025-01-08 13:36:07.01	283.53	12.45	
2025-01-08 13:36:08.04	283.76	12.44	
2025-01-08 13:36:09.06	283.99	12.44	
2025-01-08 13:36:10.09	284.22	12.43	
2025-01-08 13:36:11.11	284.44	12.42	
2025-01-08 13:36:12.15	284.68	12.41	
2025-01-08 13:36:13.18	284.91	12.40	
2025-01-08 13:36:14.19	285.13	12.39	
2025-01-08 13:36:15.22	285.36	12.38	
2025-01-08 13:36:16.25	285.59	12.37	
2025-01-08 13:36:17.28	285.81	12.36	
2025-01-08 13:36:18.30	286.04	12.34	
2025-01-08 13:36:19.33	286.27	12.33	
2025-01-08 13:36:20.36	286.50	12.32	
2025-01-08 13:36:21.38	286.72	12.31	
2025-01-08 13:36:22.41	286.95	12.29	
2025-01-08 13:36:23.43	287.17	12.28	
2025-01-08 13:36:24.46	287.40	12.27	
2025-01-08 13:36:25.48	287.62	12.25	
2025-01-08 13:36:26.51	287.85	12.24	
2025-01-08 13:36:27.54	288.08	12.22	
2025-01-08 13:36:28.58	288.31	12.21	
2025-01-08 13:36:29.61	288.53	12.19	
2025-01-08 13:36:30.63	288.75	12.17	
2025-01-08 13:36:31.66	288.98	12.16	
2025-01-08 13:36:32.68	289.20	12.14	
2025-01-08 13:36:33.71	289.43	12.12	
2025-01-08 13:36:34.73	289.65	12.11	
2025-01-08 13:36:35.76	289.87	12.09	
2025-01-08 13:36:36.79	290.10	12.07	
2025-01-08 13:36:37.83	290.32	12.05	
2025-01-08 13:36:38.86	290.54	12.03	
2025-01-08 13:36:39.88	290.76	12.01	
2025-01-08 13:36:40.91	290.99	11.99	
2025-01-08 13:36:41.94	291.21	11.97	
2025-01-08 13:36:42.97	291.43	11.95	
2025-01-08 13:36:44.01	291.65	11.93	
2025-01-08 13:36:45.04	291.88	11.91	
2025-01-08 13:36:46.06	292.09	11.89	
2025-01-08 13:36:47.08	292.31	11.86	
2025-01-08 13:36:48.11	292.53	11.84	
2025-01-08 13:36:49.14	292.75	11.82	
2025-01-08 13:36:50.16	292.97	11.80	
2025-01-08 13:36:51.19	293.19	11.77	
2025-01-08 13:36:52.23	293.41	11.75	
2025-01-08 13:36:53.25	293.63	11.73	
2025-01-08 13:36:54.28	293.84	11.70	
2025-01-08 13:36:55.32	294.06	11.68	
2025-01-08 13:36:56.35	294.28	11.65	
2025-01-08 13:36:57.37	294.49	11.63	
2025-01-08 13:36:58.40	294.71	11.60	
2025-01-08 13:36:59.43	294.93	11.58	
2025-01-08 13:37:00.45	295.14	11.55	
2025-01-08 13:37:01.47	295.35	11.52	
2025-01-08 13:37:02.50	295.57	11.50	
2025-01-08 13:37:03.53	295.78	11.47	
2025-01-08 13:37:04.55	295.99	11.44	
2025-01-08 13:37:05.57	296.20	11.42	
2025-01-08 13:37:06.60	296.42	11.39	
2025-01-08 13:37:07.62	296.63	11.36	
2025-01-08 13:37:08.65	296.84	11.33	
2025-01-08 13:37:09.68	297.05	11.30	
2025-01-08 13:37:10.70	297.26	11.27	
2025-01-08 13:37:11.74	297.47	11.24	
2025-01-08 13:37:12.78	297.69	11.21	
2025-01-08 13:37:13.82	297.90	11.18	
2025-01-08 13:37:14.85	298.11	11.15	
2025-01-08 13:37:15.87	298.31	11.12	
2025-01-08 13:37:16.90	298.52	11.09	
2025-01-08 13:37:17.93	298.73	11.06	
2025-01-08 13:37:18.95	298.94	11.03	
2025-01-08 13:37:19.98	299.14	11.00	
2025-01-08 13:37:21.01	299.35	10.96	
2025-01-08 13:37:22.03	299.55	10.93	
2025-01-08 13:37:23.06	299.76	10.90	
2025-01-08 13:37:24.08	299.96	10.87	
2025-01-08 13:37:25.12	300.17	10.83	
2025-01-08 13:37:26.15	300.37	10.80	
2025-01-08 13:37:27.17	300.57	10.77	
2025-01-08 13:37:28.19	300.78	10.73	
2025-01-08 13:37:29.22	300.98	10.70	
2025-01-08 13:37:30.24	301.18	10.67	
2025-01-08 13:37:31.26	301.38	10.63	
2025-01-08 13:37:32.29	301.58	10.60	
2025-01-08 13:37:33.31	301.78	10.56	
2025-01-08 13:37:34.34	301.98	10.53	
2025-01-08 13:37:35.36	302.18	10.49	
2025-01-08 13:37:36.39	302.38	10.46	
2025-01-08 13:37:37.41	302.57	10.42	
2025-01-08 13:37:38.43	302.77	10.38	
2025-01-08 13:37:39.47	302.97	10.35	
2025-01-08 13:37:40.50	303.17	10.31	
2025-01-08 13:37:41.52	303.36	10.28	
2025-01-08 13:37:42.55	303.56	10.24	
2025-01-08 13:37:43.57	303.75	10.20	
2025-01-08 13:37:44.60	303.94	10.16	
2025-01-08 13:37:45.62	304.14	10.13	
2025-01-08 13:37:46.65	304.33	10.09	
2025-01-08 13:37:47.67	304.52	10.05	
2025-01-08 13:37:48.70	304.72	10.01	
2025-01-08 13:37:49.72	304.91	9.97	
2025-01-08 13:37:50.75	305.10	9.94	
2025-01-08 13:37:51.78	305.29	9.90	
2025-01-08 13:37:52.81	305.48	9.86	
2025-01-08 13:37:53.83	305.67	9.82	
2025-01-08 13:37:54.85	305.86	9.78	
2025-01-08 13:37:55.88	306.05	9.74	
2025-01-08 13:37:56.90	306.23	9.70	
2025-01-08 13:37:57.93	306.42	9.66	
2025-01-08 13:37:58.95	306.61	9.62	
2025-01-08 13:37:59.98	306.79	9.58	
2025-01-08 13:38:01.00	306.98	9.54	
2025-01-08 13:38:02.03	307.16	9.50	
2025-01-08 13:38:03.05	307.35	9.46	
2025-01-08 13:38:04.07	307.53	9.42	
2025-01-08 13:38:05.10	307.71	9.38	
2025-01-08 13:38:06.12	307.90	9.34	
2025-01-08 13:38:07.15	308.08	9.29	
2025-01-08 13:38:08.18	308.26	9.25	
2025-01-08 13:38:09.21	308.44	9.21	
2025-01-08 13:38:10.23	308.62	9.17	
2025-01-08 13:38:11.26	308.80	9.13	
2025-01-08 13:38:12.29	308.98	9.08	
2025-01-08 13:38:13.31	309.16	9.04	
2025-01-08 13:38:14.33	309.34	9.00	
2025-01-08 13:38:15.37	309.52	8.96	
2025-01-08 13:38:16.40	309.70	8.91	
2025-01-08 13:38:17.42	309.87	8.87	
2025-01-08 13:38:18.45	310.05	8.83	
2025-01-08 13:38:19.47	310.23	8.78	
2025-01-08 13:38:20.50	310.40	8.74	
2025-01-08 13:38:21.54	310.58	8.70	
2025-01-08 13:38:22.56	310.75	8.65	
2025-01-08 13:38:23.59	310.93	8.61	
2025-01-08 13:38:24.61	311.10	8.57	
2025-01-08 13:38:25.63	311.27	8.52	
2025-01-08 13:38:26.66	311.44	8.48	
2025-01-08 13:38:27.68	311.61	8.43	
2025-01-08 13:38:28.71	311.79	8.39	
2025-01-08 13:38:29.73	311.95	8.34	
2025-01-08 13:38:30.78	312.13	8.30	
2025-01-08 13:38:31.80	312.30	8.25	
2025-01-08 13:38:32.84	312.47	8.21	
2025-01-08 13:38:33.87	312.64	8.16	
2025-01-08 13:38:34.90	312.80	8.12	
2025-01-08 13:38:35.92	312.97	8.07	
2025-01-08 13:38:36.95	313.14	8.03	
2025-01-08 13:38:37.98	313.30	7.98	
2025-01-08 13:38:39.00	313.47	7.94	
2025-01-08 13:38:40.03	313.63	7.89	
2025-01-08 13:38:41.05	313.80	7.85	
2025-01-08 13:38:42.07	313.96	7.80	
2025-01-08 13:38:43.10	314.12	7.75	
2025-01-08 13:38:44.12	314.29	7.71	
2025-01-08 13:38:45.15	314.45	7.66	
2025-01-08 13:38:46.18	314.61	7.62	
2025-01-08 13:38:47.20	314.77	7.57	
2025-01-08 13:38:48.22	314.93	7.52	
2025-01-08 13:38:49.25	315.09	7.48	
2025-01-08 13:38:50.28	315.25	7.43	
2025-01-08 13:38:51.30	315.41	7.38	
2025-01-08 13:38:52.34	315.57	7.34	
2025-01-08 13:38:53.38	315.73	7.29	
2025-01-08 13:38:54.40	315.89	7.24	
2025-01-08 13:38:55.42	316.04	7.20	
2025-01-08 13:38:56.45	316.20	7.15	
2025-01-08 13:38:57.48	316.36	7.10	
2025-01-08 13:38:58.50	316.51	7.06	
2025-01-08 13:38:59.53	316.67	7.01	
2025-01-08 13:39:00.55	316.82	6.96	
2025-01-08 13:39:01.58	316.97	6.91	
2025-01-08 13:39:02.60	317.12	6.87	
2025-01-08 13:39:03.62	317.28	6.82	
2025-01-08 13:39:04.65	317.43	6.77	
2025-01-08 13:39:05.67	317.58	6.72	
2025-01-08 13:39:06.70	317.73	6.68	
2025-01-08 13:39:07.73	317.88	6.63	
2025-01-08 13:39:08.75	318.03	6.58	
2025-01-08 13:39:09.78	318.18	6.53	
2025-01-08 13:39:10.81	318.33	6.49	
2025-01-08 13:39:11.83	318.48	6.44	
2025-01-08 13:39:12.86	318.63	6.39	
2025-01-08 13:39:13.89	318.78	6.34	
2025-01-08 13:39:14.92	318.92	6.29	
2025-01-08 13:39:15.95	319.07	6.25	
2025-01-08 13:39:16.99	319.22	6.20	
2025-01-08 13:39:18.03	319.36	6.15	
2025-01-08 13:39:19.06	319.51	6.10	
2025-01-08 13:39:20.08	319.65	6.05	
2025-01-08 13:39:21.11	319.80	6.00	
2025-01-08 13:39:22.13	319.94	5.95	
2025-01-08 13:39:23.15	320.08	5.91	
2025-01-08 13:39:24.18	320.23	5.86	
2025-01-08 13:39:25.22	320.37	5.81	
2025-01-08 13:39:26.25	320.51	5.76	
2025-01-08 13:39:27.28	320.65	5.71	
2025-01-08 13:39:28.31	320.79	5.66	
2025-01-08 13:39:29.33	320.93	5.61	
2025-01-08 13:39:30.36	321.07	5.57	
2025-01-08 13:39:31.38	321.21	5.52	
2025-01-08 13:39:32.41	321.35	5.47	
2025-01-08 13:39:33.43	321.49	5.42	
2025-01-08 13:39:34.46	321.62	5.37	
2025-01-08 13:39:35.48	321.76	5.32	
2025-01-08 13:39:36.50	321.90	5.27	
2025-01-08 13:39:37.53	322.03	5.22	
2025-01-08 13:39:38.56	322.17	5.18	
2025-01-08 13:39:39.59	322.30	5.13	
2025-01-08 13:39:40.63	322.44	5.08	
2025-01-08 13:39:41.67	322.58	5.03	
2025-01-08 13:39:42.70	322.71	4.98	
2025-01-08 13:39:43.73	322.84	4.93	
2025-01-08 13:39:44.76	322.98	4.88	
2025-01-08 13:39:45.79	323.11	4.83	
2025-01-08 13:39:46.84	323.24	4.78	
2025-01-08 13:39:47.86	323.38	4.73	
2025-01-08 13:39:48.88	323.51	4.68	
2025-01-08 13:39:49.91	323.64	4.63	
2025-01-08 13:39:50.93	323.77	4.59	
2025-01-08 13:39:51.96	323.90	4.54	
2025-01-08 13:39:52.99	324.02	4.49	
2025-01-08 13:39:54.01	324.15	4.44	
2025-01-08 13:39:55.04	324.28	4.39	
2025-01-08 13:39:56.07	324.41	4.34	
2025-01-08 13:39:57.09	324.54	4.29	
2025-01-08 13:39:58.12	324.66	4.24	
2025-01-08 13:39:59.15	324.79	4.19	
2025-01-08 13:40:00.17	324.91	4.14	
2025-01-08 13:40:01.19	325.04	4.09	
2025-01-08 13:40:02.23	325.17	4.04	

#Closed at: 2025-01-08 13:40:03