passes_logs/2025/01/08/SPB_Silybum_02/SPB_Silybum_02__20250108_233922_AQUA_rec.log

#Pass ID: 20250108_233922_AQUA
#Satellite: AQUA
#Configuration: AQUA
#Start time: 2025-01-08 23:39:22

#Version: 2.0.20230423
#Station: SPB_Silybum_02
#Location: 30.233357 lon 59.946436 lat
#TLE: 1 27424U 02022A   25008.15498937  .00002389  00000+0  50057-3 0  9997
#TLE: 2 27424  98.3576 324.7578 0001462 118.2546 298.6643 14.60656725206621

#Time	Az	El	Level	Level2	SNR	BER	Gain	Gain2
2025-01-08 23:39:25.00	29.29	4.13	
2025-01-08 23:39:26.04	29.39	4.19	
2025-01-08 23:39:27.06	29.49	4.25	
2025-01-08 23:39:28.08	29.59	4.31	
2025-01-08 23:39:29.11	29.69	4.37	
2025-01-08 23:39:30.13	29.80	4.43	
2025-01-08 23:39:31.16	29.90	4.49	
2025-01-08 23:39:32.18	30.00	4.55	
2025-01-08 23:39:33.21	30.10	4.61	
2025-01-08 23:39:34.23	30.21	4.67	
2025-01-08 23:39:35.26	30.31	4.73	
2025-01-08 23:39:36.28	30.42	4.79	
2025-01-08 23:39:37.31	30.52	4.85	
2025-01-08 23:39:38.33	30.63	4.91	
2025-01-08 23:39:39.36	30.73	4.97	
2025-01-08 23:39:40.38	30.84	5.03	
2025-01-08 23:39:41.41	30.95	5.09	
2025-01-08 23:39:42.45	31.06	5.15	
2025-01-08 23:39:43.47	31.16	5.21	
2025-01-08 23:39:44.50	31.27	5.27	
2025-01-08 23:39:45.53	31.38	5.33	
2025-01-08 23:39:46.56	31.49	5.40	
2025-01-08 23:39:47.59	31.60	5.46	
2025-01-08 23:39:48.61	31.71	5.52	
2025-01-08 23:39:49.64	31.82	5.58	
2025-01-08 23:39:50.67	31.94	5.64	
2025-01-08 23:39:51.71	32.05	5.70	
2025-01-08 23:39:52.75	32.16	5.76	
2025-01-08 23:39:53.78	32.28	5.83	
2025-01-08 23:39:54.82	32.39	5.89	
2025-01-08 23:39:55.84	32.50	5.95	
2025-01-08 23:39:56.87	32.62	6.01	
2025-01-08 23:39:57.90	32.73	6.07	
2025-01-08 23:39:58.93	32.85	6.13	
2025-01-08 23:39:59.97	32.97	6.20	
2025-01-08 23:40:01.00	33.08	6.26	
2025-01-08 23:40:02.04	33.20	6.32	
2025-01-08 23:40:03.06	33.32	6.38	
2025-01-08 23:40:04.09	33.44	6.45	
2025-01-08 23:40:05.12	33.56	6.51	
2025-01-08 23:40:06.14	33.68	6.57	
2025-01-08 23:40:07.17	33.80	6.63	
2025-01-08 23:40:08.20	33.92	6.70	
2025-01-08 23:40:09.22	34.04	6.76	
2025-01-08 23:40:10.24	34.16	6.82	
2025-01-08 23:40:11.27	34.28	6.88	
2025-01-08 23:40:12.29	34.40	6.94	
2025-01-08 23:40:13.33	34.52	7.01	
2025-01-08 23:40:14.36	34.65	7.07	
2025-01-08 23:40:15.38	34.77	7.13	
2025-01-08 23:40:16.40	34.90	7.20	
2025-01-08 23:40:17.43	35.02	7.26	
2025-01-08 23:40:18.46	35.15	7.32	
2025-01-08 23:40:19.49	35.27	7.39	
2025-01-08 23:40:20.51	35.40	7.45	
2025-01-08 23:40:21.54	35.53	7.51	
2025-01-08 23:40:22.56	35.65	7.58	
2025-01-08 23:40:23.59	35.78	7.64	
2025-01-08 23:40:24.63	35.91	7.70	
2025-01-08 23:40:25.65	36.04	7.77	
2025-01-08 23:40:26.68	36.17	7.83	
2025-01-08 23:40:27.71	36.31	7.89	
2025-01-08 23:40:28.73	36.44	7.96	
2025-01-08 23:40:29.76	36.57	8.02	
2025-01-08 23:40:30.78	36.70	8.08	
2025-01-08 23:40:31.82	36.84	8.15	
2025-01-08 23:40:32.85	36.97	8.21	
2025-01-08 23:40:33.88	37.11	8.28	
2025-01-08 23:40:34.90	37.24	8.34	
2025-01-08 23:40:35.93	37.38	8.41	
2025-01-08 23:40:36.96	37.51	8.47	
2025-01-08 23:40:37.98	37.65	8.53	
2025-01-08 23:40:39.01	37.79	8.60	
2025-01-08 23:40:40.03	37.92	8.66	
2025-01-08 23:40:41.07	38.07	8.73	
2025-01-08 23:40:42.09	38.20	8.79	
2025-01-08 23:40:43.14	38.35	8.86	
2025-01-08 23:40:44.16	38.49	8.92	
2025-01-08 23:40:45.19	38.63	8.99	
2025-01-08 23:40:46.21	38.77	9.05	
2025-01-08 23:40:47.24	38.91	9.12	
2025-01-08 23:40:48.26	39.06	9.18	
2025-01-08 23:40:49.29	39.20	9.24	
2025-01-08 23:40:50.31	39.35	9.31	
2025-01-08 23:40:51.34	39.49	9.37	
2025-01-08 23:40:52.37	39.64	9.44	
2025-01-08 23:40:53.39	39.78	9.50	
2025-01-08 23:40:54.42	39.93	9.57	
2025-01-08 23:40:55.45	40.08	9.63	
2025-01-08 23:40:56.47	40.23	9.70	
2025-01-08 23:40:57.50	40.38	9.76	
2025-01-08 23:40:58.53	40.53	9.83	
2025-01-08 23:40:59.57	40.68	9.89	
2025-01-08 23:41:00.61	40.84	9.96	
2025-01-08 23:41:01.63	40.99	10.02	
2025-01-08 23:41:02.66	41.14	10.09	
2025-01-08 23:41:03.70	41.30	10.16	
2025-01-08 23:41:04.73	41.45	10.22	
2025-01-08 23:41:05.75	41.61	10.29	
2025-01-08 23:41:06.78	41.77	10.35	
2025-01-08 23:41:07.80	41.92	10.42	
2025-01-08 23:41:08.83	42.08	10.48	
2025-01-08 23:41:09.87	42.24	10.55	
2025-01-08 23:41:10.89	42.40	10.61	
2025-01-08 23:41:11.92	42.56	10.68	
2025-01-08 23:41:12.94	42.72	10.74	
2025-01-08 23:41:13.97	42.88	10.81	
2025-01-08 23:41:15.00	43.04	10.87	
2025-01-08 23:41:16.03	43.21	10.94	
2025-01-08 23:41:17.05	43.37	11.00	
2025-01-08 23:41:18.08	43.53	11.07	
2025-01-08 23:41:19.10	43.70	11.14	
2025-01-08 23:41:20.13	43.86	11.20	
2025-01-08 23:41:21.15	44.03	11.27	
2025-01-08 23:41:22.18	44.20	11.33	
2025-01-08 23:41:23.20	44.36	11.40	
2025-01-08 23:41:24.23	44.53	11.46	
2025-01-08 23:41:25.27	44.71	11.53	
2025-01-08 23:41:26.29	44.88	11.59	
2025-01-08 23:41:27.32	45.05	11.66	
2025-01-08 23:41:28.34	45.22	11.72	
2025-01-08 23:41:29.36	45.39	11.79	
2025-01-08 23:41:30.39	45.56	11.85	
2025-01-08 23:41:31.41	45.74	11.92	
2025-01-08 23:41:32.45	45.92	11.98	
2025-01-08 23:41:33.47	46.09	12.05	
2025-01-08 23:41:34.50	46.27	12.11	
2025-01-08 23:41:35.52	46.45	12.18	
2025-01-08 23:41:36.55	46.62	12.24	
2025-01-08 23:41:37.58	46.80	12.31	
2025-01-08 23:41:38.60	46.98	12.37	
2025-01-08 23:41:39.63	47.17	12.44	
2025-01-08 23:41:40.65	47.35	12.50	
2025-01-08 23:41:41.68	47.53	12.57	
2025-01-08 23:41:42.70	47.71	12.63	
2025-01-08 23:41:43.72	47.90	12.69	
2025-01-08 23:41:44.76	48.08	12.76	
2025-01-08 23:41:45.79	48.27	12.82	
2025-01-08 23:41:46.81	48.46	12.89	
2025-01-08 23:41:47.84	48.64	12.95	
2025-01-08 23:41:48.87	48.83	13.02	
2025-01-08 23:41:49.89	49.02	13.08	
2025-01-08 23:41:50.92	49.21	13.14	
2025-01-08 23:41:51.94	49.40	13.21	
2025-01-08 23:41:52.97	49.60	13.27	
2025-01-08 23:41:53.99	49.79	13.34	
2025-01-08 23:41:55.02	49.98	13.40	
2025-01-08 23:41:56.05	50.18	13.46	
2025-01-08 23:41:57.07	50.37	13.53	
2025-01-08 23:41:58.09	50.57	13.59	
2025-01-08 23:41:59.12	50.77	13.65	
2025-01-08 23:42:00.14	50.96	13.71	
2025-01-08 23:42:01.17	51.16	13.78	
2025-01-08 23:42:02.20	51.36	13.84	
2025-01-08 23:42:03.23	51.57	13.90	
2025-01-08 23:42:04.25	51.77	13.97	
2025-01-08 23:42:05.28	51.97	14.03	
2025-01-08 23:42:06.30	52.17	14.09	
2025-01-08 23:42:07.33	52.38	14.15	
2025-01-08 23:42:08.35	52.58	14.21	
2025-01-08 23:42:09.38	52.79	14.28	
2025-01-08 23:42:10.40	53.00	14.34	
2025-01-08 23:42:11.44	53.21	14.40	
2025-01-08 23:42:12.47	53.42	14.46	
2025-01-08 23:42:13.50	53.63	14.52	
2025-01-08 23:42:14.52	53.84	14.58	
2025-01-08 23:42:15.54	54.05	14.64	
2025-01-08 23:42:16.57	54.26	14.71	
2025-01-08 23:42:17.60	54.47	14.77	
2025-01-08 23:42:18.62	54.69	14.83	
2025-01-08 23:42:19.65	54.90	14.89	
2025-01-08 23:42:20.67	55.12	14.95	
2025-01-08 23:42:21.69	55.33	15.01	
2025-01-08 23:42:22.72	55.55	15.07	
2025-01-08 23:42:23.75	55.77	15.12	
2025-01-08 23:42:24.77	55.99	15.18	
2025-01-08 23:42:25.80	56.21	15.24	
2025-01-08 23:42:26.82	56.43	15.30	
2025-01-08 23:42:27.84	56.65	15.36	
2025-01-08 23:42:28.87	56.88	15.42	
2025-01-08 23:42:29.89	57.10	15.47	
2025-01-08 23:42:30.93	57.33	15.53	
2025-01-08 23:42:31.96	57.56	15.59	
2025-01-08 23:42:32.99	57.79	15.65	
2025-01-08 23:42:34.02	58.01	15.71	
2025-01-08 23:42:35.04	58.24	15.76	
2025-01-08 23:42:36.07	58.47	15.82	
2025-01-08 23:42:37.09	58.70	15.87	
2025-01-08 23:42:38.12	58.93	15.93	
2025-01-08 23:42:39.14	59.17	15.99	
2025-01-08 23:42:40.17	59.40	16.04	
2025-01-08 23:42:41.19	59.63	16.10	
2025-01-08 23:42:42.23	59.87	16.15	
2025-01-08 23:42:43.26	60.11	16.21	
2025-01-08 23:42:44.29	60.35	16.26	
2025-01-08 23:42:45.32	60.59	16.31	
2025-01-08 23:42:46.34	60.82	16.37	
2025-01-08 23:42:47.36	61.06	16.42	
2025-01-08 23:42:48.38	61.30	16.47	
2025-01-08 23:42:49.41	61.54	16.53	
2025-01-08 23:42:50.45	61.79	16.58	
2025-01-08 23:42:51.48	62.03	16.63	
2025-01-08 23:42:52.49	62.27	16.68	
2025-01-08 23:42:53.52	62.52	16.73	
2025-01-08 23:42:54.56	62.77	16.78	
2025-01-08 23:42:55.59	63.02	16.83	
2025-01-08 23:42:56.61	63.26	16.88	
2025-01-08 23:42:57.64	63.51	16.93	
2025-01-08 23:42:58.66	63.76	16.98	
2025-01-08 23:42:59.69	64.01	17.03	
2025-01-08 23:43:00.71	64.26	17.08	
2025-01-08 23:43:01.73	64.51	17.13	
2025-01-08 23:43:02.76	64.76	17.18	
2025-01-08 23:43:03.78	65.02	17.22	
2025-01-08 23:43:04.81	65.27	17.27	
2025-01-08 23:43:05.83	65.53	17.32	
2025-01-08 23:43:06.86	65.78	17.36	
2025-01-08 23:43:07.89	66.04	17.41	
2025-01-08 23:43:08.91	66.30	17.45	
2025-01-08 23:43:09.94	66.56	17.50	
2025-01-08 23:43:10.96	66.81	17.54	
2025-01-08 23:43:11.99	67.07	17.58	
2025-01-08 23:43:13.01	67.33	17.63	
2025-01-08 23:43:14.03	67.59	17.67	
2025-01-08 23:43:15.06	67.86	17.71	
2025-01-08 23:43:16.09	68.12	17.76	
2025-01-08 23:43:17.11	68.38	17.80	
2025-01-08 23:43:18.14	68.65	17.84	
2025-01-08 23:43:19.17	68.92	17.88	
2025-01-08 23:43:20.19	69.18	17.92	
2025-01-08 23:43:21.23	69.45	17.96	
2025-01-08 23:43:22.25	69.72	18.00	
2025-01-08 23:43:23.28	69.99	18.03	
2025-01-08 23:43:24.31	70.26	18.07	
2025-01-08 23:43:25.33	70.52	18.11	
2025-01-08 23:43:26.37	70.80	18.15	
2025-01-08 23:43:27.41	71.07	18.18	
2025-01-08 23:43:28.43	71.34	18.22	
2025-01-08 23:43:29.46	71.62	18.25	
2025-01-08 23:43:30.49	71.89	18.29	
2025-01-08 23:43:31.51	72.16	18.32	
2025-01-08 23:43:32.53	72.44	18.36	
2025-01-08 23:43:33.56	72.71	18.39	
2025-01-08 23:43:34.59	72.99	18.42	
2025-01-08 23:43:35.61	73.26	18.45	
2025-01-08 23:43:36.64	73.54	18.49	
2025-01-08 23:43:37.68	73.82	18.52	
2025-01-08 23:43:38.70	74.10	18.55	
2025-01-08 23:43:39.73	74.38	18.58	
2025-01-08 23:43:40.77	74.66	18.61	
2025-01-08 23:43:41.79	74.94	18.63	
2025-01-08 23:43:42.82	75.22	18.66	
2025-01-08 23:43:43.84	75.50	18.69	
2025-01-08 23:43:44.87	75.78	18.71	
2025-01-08 23:43:45.89	76.06	18.74	
2025-01-08 23:43:46.91	76.34	18.77	
2025-01-08 23:43:47.94	76.63	18.79	
2025-01-08 23:43:48.97	76.91	18.81	
2025-01-08 23:43:49.99	77.19	18.84	
2025-01-08 23:43:51.02	77.48	18.86	
2025-01-08 23:43:52.04	77.76	18.88	
2025-01-08 23:43:53.07	78.05	18.90	
2025-01-08 23:43:54.11	78.34	18.92	
2025-01-08 23:43:55.13	78.62	18.94	
2025-01-08 23:43:56.17	78.91	18.96	
2025-01-08 23:43:57.20	79.20	18.98	
2025-01-08 23:43:58.22	79.48	19.00	
2025-01-08 23:43:59.25	79.77	19.02	
2025-01-08 23:44:00.27	80.06	19.03	
2025-01-08 23:44:01.30	80.35	19.05	
2025-01-08 23:44:02.32	80.64	19.07	
2025-01-08 23:44:03.35	80.93	19.08	
2025-01-08 23:44:04.39	81.22	19.10	
2025-01-08 23:44:05.41	81.51	19.11	
2025-01-08 23:44:06.43	81.79	19.12	
2025-01-08 23:44:07.46	82.08	19.13	
2025-01-08 23:44:08.48	82.37	19.14	
2025-01-08 23:44:09.51	82.66	19.16	
2025-01-08 23:44:10.53	82.95	19.17	
2025-01-08 23:44:11.56	83.24	19.17	
2025-01-08 23:44:12.58	83.53	19.18	
2025-01-08 23:44:13.62	83.83	19.19	
2025-01-08 23:44:14.64	84.12	19.20	
2025-01-08 23:44:15.67	84.41	19.20	
2025-01-08 23:44:16.69	84.70	19.21	
2025-01-08 23:44:17.72	84.99	19.22	
2025-01-08 23:44:18.75	85.29	19.22	
2025-01-08 23:44:19.78	85.58	19.22	
2025-01-08 23:44:20.82	85.87	19.23	
2025-01-08 23:44:21.84	86.16	19.23	
2025-01-08 23:44:22.88	86.46	19.23	
2025-01-08 23:44:23.91	86.75	19.23	
2025-01-08 23:44:24.93	87.04	19.23	
2025-01-08 23:44:25.95	87.33	19.23	
2025-01-08 23:44:26.98	87.63	19.23	
2025-01-08 23:44:28.01	87.92	19.23	
2025-01-08 23:44:29.03	88.21	19.23	
2025-01-08 23:44:30.06	88.50	19.22	
2025-01-08 23:44:31.08	88.79	19.22	
2025-01-08 23:44:32.11	89.09	19.21	
2025-01-08 23:44:33.13	89.38	19.21	
2025-01-08 23:44:34.15	89.67	19.20	
2025-01-08 23:44:35.18	89.96	19.20	
2025-01-08 23:44:36.20	90.25	19.19	
2025-01-08 23:44:37.23	90.54	19.18	
2025-01-08 23:44:38.26	90.83	19.17	
2025-01-08 23:44:39.28	91.12	19.16	
2025-01-08 23:44:40.30	91.41	19.15	
2025-01-08 23:44:41.33	91.70	19.14	
2025-01-08 23:44:42.35	91.99	19.13	
2025-01-08 23:44:43.37	92.28	19.12	
2025-01-08 23:44:44.40	92.57	19.10	
2025-01-08 23:44:45.43	92.86	19.09	
2025-01-08 23:44:46.46	93.15	19.07	
2025-01-08 23:44:47.50	93.44	19.06	
2025-01-08 23:44:48.52	93.73	19.04	
2025-01-08 23:44:49.54	94.02	19.03	
2025-01-08 23:44:50.57	94.31	19.01	
2025-01-08 23:44:51.60	94.59	18.99	
2025-01-08 23:44:52.62	94.88	18.97	
2025-01-08 23:44:53.66	95.17	18.95	
2025-01-08 23:44:54.69	95.46	18.93	
2025-01-08 23:44:55.71	95.74	18.91	
2025-01-08 23:44:56.73	96.03	18.89	
2025-01-08 23:44:57.77	96.32	18.87	
2025-01-08 23:44:58.80	96.60	18.85	
2025-01-08 23:44:59.82	96.89	18.83	
2025-01-08 23:45:00.84	97.17	18.80	
2025-01-08 23:45:01.87	97.45	18.78	
2025-01-08 23:45:02.90	97.74	18.75	
2025-01-08 23:45:03.92	98.02	18.73	
2025-01-08 23:45:04.94	98.30	18.70	
2025-01-08 23:45:05.97	98.58	18.67	
2025-01-08 23:45:06.99	98.86	18.65	
2025-01-08 23:45:08.01	99.14	18.62	
2025-01-08 23:45:09.05	99.42	18.59	
2025-01-08 23:45:10.08	99.71	18.56	
2025-01-08 23:45:11.10	99.98	18.53	
2025-01-08 23:45:12.13	100.26	18.50	
2025-01-08 23:45:13.15	100.54	18.47	
2025-01-08 23:45:14.18	100.82	18.44	
2025-01-08 23:45:15.22	101.10	18.41	
2025-01-08 23:45:16.24	101.37	18.37	
2025-01-08 23:45:17.26	101.65	18.34	
2025-01-08 23:45:18.29	101.92	18.31	
2025-01-08 23:45:19.32	102.20	18.27	
2025-01-08 23:45:20.34	102.47	18.24	
2025-01-08 23:45:21.36	102.74	18.20	
2025-01-08 23:45:22.39	103.01	18.16	
2025-01-08 23:45:23.41	103.28	18.13	
2025-01-08 23:45:24.43	103.55	18.09	
2025-01-08 23:45:25.46	103.83	18.05	
2025-01-08 23:45:26.49	104.10	18.01	
2025-01-08 23:45:27.52	104.37	17.98	
2025-01-08 23:45:28.55	104.63	17.94	
2025-01-08 23:45:29.58	104.90	17.90	
2025-01-08 23:45:30.62	105.17	17.86	
2025-01-08 23:45:31.64	105.44	17.81	
2025-01-08 23:45:32.67	105.70	17.77	
2025-01-08 23:45:33.69	105.97	17.73	
2025-01-08 23:45:34.72	106.23	17.69	
2025-01-08 23:45:35.74	106.49	17.65	
2025-01-08 23:45:36.76	106.75	17.60	
2025-01-08 23:45:37.79	107.02	17.56	
2025-01-08 23:45:38.82	107.28	17.52	
2025-01-08 23:45:39.84	107.54	17.47	
2025-01-08 23:45:40.87	107.80	17.43	
2025-01-08 23:45:41.91	108.06	17.38	
2025-01-08 23:45:42.93	108.31	17.33	
2025-01-08 23:45:43.96	108.57	17.29	
2025-01-08 23:45:44.99	108.83	17.24	
2025-01-08 23:45:46.01	109.08	17.19	
2025-01-08 23:45:47.04	109.34	17.15	
2025-01-08 23:45:48.06	109.59	17.10	
2025-01-08 23:45:49.10	109.85	17.05	
2025-01-08 23:45:50.13	110.10	17.00	
2025-01-08 23:45:51.15	110.35	16.95	
2025-01-08 23:45:52.18	110.60	16.90	
2025-01-08 23:45:53.22	110.85	16.85	
2025-01-08 23:45:54.26	111.10	16.80	
2025-01-08 23:45:55.30	111.35	16.75	
2025-01-08 23:45:56.33	111.60	16.69	
2025-01-08 23:45:57.37	111.85	16.64	
2025-01-08 23:45:58.39	112.09	16.59	
2025-01-08 23:45:59.42	112.34	16.54	
2025-01-08 23:46:00.44	112.58	16.49	
2025-01-08 23:46:01.48	112.83	16.43	
2025-01-08 23:46:02.51	113.07	16.38	
2025-01-08 23:46:03.53	113.31	16.33	
2025-01-08 23:46:04.56	113.55	16.27	
2025-01-08 23:46:05.60	113.79	16.22	
2025-01-08 23:46:06.62	114.03	16.16	
2025-01-08 23:46:07.66	114.27	16.11	
2025-01-08 23:46:08.69	114.50	16.05	
2025-01-08 23:46:09.71	114.74	15.99	
2025-01-08 23:46:10.74	114.97	15.94	
2025-01-08 23:46:11.76	115.20	15.88	
2025-01-08 23:46:12.79	115.44	15.83	
2025-01-08 23:46:13.82	115.67	15.77	
2025-01-08 23:46:14.86	115.90	15.71	
2025-01-08 23:46:15.89	116.13	15.65	
2025-01-08 23:46:16.93	116.36	15.60	
2025-01-08 23:46:17.96	116.59	15.54	
2025-01-08 23:46:18.98	116.82	15.48	
2025-01-08 23:46:20.00	117.04	15.42	
2025-01-08 23:46:21.03	117.27	15.36	
2025-01-08 23:46:22.05	117.49	15.30	
2025-01-08 23:46:23.08	117.71	15.25	
2025-01-08 23:46:24.10	117.94	15.19	
2025-01-08 23:46:25.13	118.16	15.13	
2025-01-08 23:46:26.17	118.38	15.07	
2025-01-08 23:46:27.19	118.60	15.01	
2025-01-08 23:46:28.22	118.82	14.95	
2025-01-08 23:46:29.24	119.04	14.89	
2025-01-08 23:46:30.26	119.25	14.83	
2025-01-08 23:46:31.29	119.47	14.76	
2025-01-08 23:46:32.31	119.68	14.70	
2025-01-08 23:46:33.34	119.90	14.64	
2025-01-08 23:46:34.36	120.11	14.58	
2025-01-08 23:46:35.39	120.32	14.52	
2025-01-08 23:46:36.41	120.53	14.46	
2025-01-08 23:46:37.43	120.74	14.40	
2025-01-08 23:46:38.46	120.95	14.34	
2025-01-08 23:46:39.49	121.16	14.27	
2025-01-08 23:46:40.51	121.37	14.21	
2025-01-08 23:46:41.53	121.57	14.15	
2025-01-08 23:46:42.56	121.78	14.09	
2025-01-08 23:46:43.59	121.98	14.02	
2025-01-08 23:46:44.61	122.19	13.96	
2025-01-08 23:46:45.63	122.39	13.90	
2025-01-08 23:46:46.65	122.59	13.83	
2025-01-08 23:46:47.68	122.79	13.77	
2025-01-08 23:46:48.70	122.99	13.71	
2025-01-08 23:46:49.73	123.19	13.64	
2025-01-08 23:46:50.75	123.39	13.58	
2025-01-08 23:46:51.78	123.59	13.52	
2025-01-08 23:46:52.81	123.79	13.45	
2025-01-08 23:46:53.83	123.98	13.39	
2025-01-08 23:46:54.86	124.18	13.32	
2025-01-08 23:46:55.88	124.37	13.26	
2025-01-08 23:46:56.92	124.57	13.20	
2025-01-08 23:46:57.94	124.76	13.13	
2025-01-08 23:46:58.97	124.95	13.07	
2025-01-08 23:46:59.99	125.14	13.00	
2025-01-08 23:47:01.01	125.33	12.94	
2025-01-08 23:47:02.04	125.52	12.87	
2025-01-08 23:47:03.07	125.71	12.81	
2025-01-08 23:47:04.11	125.90	12.74	
2025-01-08 23:47:05.13	126.08	12.68	
2025-01-08 23:47:06.16	126.27	12.61	
2025-01-08 23:47:07.18	126.45	12.55	
2025-01-08 23:47:08.21	126.64	12.48	
2025-01-08 23:47:09.23	126.82	12.42	
2025-01-08 23:47:10.26	127.00	12.35	
2025-01-08 23:47:11.28	127.18	12.29	
2025-01-08 23:47:12.31	127.36	12.22	
2025-01-08 23:47:13.33	127.54	12.16	
2025-01-08 23:47:14.37	127.72	12.09	
2025-01-08 23:47:15.39	127.90	12.02	
2025-01-08 23:47:16.42	128.08	11.96	
2025-01-08 23:47:17.46	128.26	11.89	
2025-01-08 23:47:18.48	128.43	11.83	
2025-01-08 23:47:19.51	128.61	11.76	
2025-01-08 23:47:20.53	128.78	11.70	
2025-01-08 23:47:21.55	128.95	11.63	
2025-01-08 23:47:22.58	129.13	11.56	
2025-01-08 23:47:23.61	129.30	11.50	
2025-01-08 23:47:24.63	129.47	11.43	
2025-01-08 23:47:25.65	129.64	11.37	
2025-01-08 23:47:26.68	129.81	11.30	
2025-01-08 23:47:27.70	129.97	11.24	
2025-01-08 23:47:28.73	130.14	11.17	
2025-01-08 23:47:29.76	130.31	11.10	
2025-01-08 23:47:30.79	130.48	11.04	
2025-01-08 23:47:31.82	130.64	10.97	
2025-01-08 23:47:32.86	130.81	10.90	
2025-01-08 23:47:33.88	130.97	10.84	
2025-01-08 23:47:34.91	131.14	10.77	
2025-01-08 23:47:35.94	131.30	10.71	
2025-01-08 23:47:36.96	131.46	10.64	
2025-01-08 23:47:38.00	131.62	10.57	
2025-01-08 23:47:39.03	131.78	10.51	
2025-01-08 23:47:40.06	131.94	10.44	
2025-01-08 23:47:41.08	132.10	10.38	
2025-01-08 23:47:42.11	132.26	10.31	
2025-01-08 23:47:43.15	132.42	10.24	
2025-01-08 23:47:44.17	132.57	10.18	
2025-01-08 23:47:45.20	132.73	10.11	
2025-01-08 23:47:46.22	132.88	10.05	
2025-01-08 23:47:47.24	133.03	9.98	
2025-01-08 23:47:48.27	133.19	9.92	
2025-01-08 23:47:49.30	133.34	9.85	
2025-01-08 23:47:50.33	133.49	9.78	
2025-01-08 23:47:51.35	133.64	9.72	
2025-01-08 23:47:52.38	133.80	9.65	
2025-01-08 23:47:53.41	133.95	9.59	
2025-01-08 23:47:54.43	134.09	9.52	
2025-01-08 23:47:55.46	134.24	9.46	
2025-01-08 23:47:56.48	134.39	9.39	
2025-01-08 23:47:57.51	134.54	9.33	
2025-01-08 23:47:58.55	134.68	9.26	
2025-01-08 23:47:59.57	134.83	9.19	
2025-01-08 23:48:00.60	134.97	9.13	
2025-01-08 23:48:01.62	135.12	9.06	
2025-01-08 23:48:02.65	135.26	9.00	
2025-01-08 23:48:03.67	135.40	8.93	
2025-01-08 23:48:04.70	135.55	8.87	
2025-01-08 23:48:05.74	135.69	8.80	
2025-01-08 23:48:06.76	135.83	8.74	
2025-01-08 23:48:07.79	135.97	8.67	
2025-01-08 23:48:08.81	136.11	8.61	
2025-01-08 23:48:09.84	136.25	8.54	
2025-01-08 23:48:10.86	136.39	8.48	
2025-01-08 23:48:11.90	136.53	8.41	
2025-01-08 23:48:12.93	136.66	8.35	
2025-01-08 23:48:13.96	136.80	8.28	
2025-01-08 23:48:14.98	136.94	8.22	
2025-01-08 23:48:16.01	137.07	8.15	
2025-01-08 23:48:17.04	137.21	8.09	
2025-01-08 23:48:18.06	137.34	8.02	
2025-01-08 23:48:19.09	137.47	7.96	
2025-01-08 23:48:20.13	137.61	7.89	
2025-01-08 23:48:21.15	137.74	7.83	
2025-01-08 23:48:22.17	137.87	7.77	
2025-01-08 23:48:23.20	138.00	7.70	
2025-01-08 23:48:24.23	138.13	7.64	
2025-01-08 23:48:25.25	138.26	7.57	
2025-01-08 23:48:26.29	138.39	7.51	
2025-01-08 23:48:27.32	138.52	7.44	
2025-01-08 23:48:28.34	138.65	7.38	
2025-01-08 23:48:29.37	138.77	7.32	
2025-01-08 23:48:30.39	138.90	7.25	
2025-01-08 23:48:31.43	139.03	7.19	
2025-01-08 23:48:32.45	139.15	7.12	
2025-01-08 23:48:33.48	139.28	7.06	
2025-01-08 23:48:34.50	139.40	7.00	
2025-01-08 23:48:35.53	139.53	6.93	
2025-01-08 23:48:36.56	139.65	6.87	
2025-01-08 23:48:37.58	139.77	6.81	
2025-01-08 23:48:38.61	139.89	6.74	
2025-01-08 23:48:39.63	140.01	6.68	
2025-01-08 23:48:40.66	140.14	6.62	
2025-01-08 23:48:41.68	140.26	6.56	
2025-01-08 23:48:42.71	140.38	6.49	
2025-01-08 23:48:43.73	140.49	6.43	
2025-01-08 23:48:44.76	140.61	6.37	
2025-01-08 23:48:45.78	140.73	6.30	
2025-01-08 23:48:46.80	140.85	6.24	
2025-01-08 23:48:47.83	140.97	6.18	
2025-01-08 23:48:48.85	141.08	6.12	
2025-01-08 23:48:49.88	141.20	6.05	
2025-01-08 23:48:50.91	141.31	5.99	
2025-01-08 23:48:51.94	141.43	5.93	
2025-01-08 23:48:52.96	141.54	5.87	
2025-01-08 23:48:54.00	141.66	5.80	
2025-01-08 23:48:55.03	141.77	5.74	
2025-01-08 23:48:56.05	141.89	5.68	
2025-01-08 23:48:57.08	142.00	5.62	
2025-01-08 23:48:58.11	142.11	5.56	
2025-01-08 23:48:59.13	142.22	5.50	
2025-01-08 23:49:00.15	142.33	5.43	
2025-01-08 23:49:01.18	142.44	5.37	
2025-01-08 23:49:02.20	142.55	5.31	
2025-01-08 23:49:03.23	142.66	5.25	
2025-01-08 23:49:04.25	142.77	5.19	
2025-01-08 23:49:05.28	142.88	5.13	
2025-01-08 23:49:06.30	142.99	5.07	
2025-01-08 23:49:07.33	143.10	5.00	
2025-01-08 23:49:08.36	143.20	4.94	
2025-01-08 23:49:09.38	143.31	4.88	
2025-01-08 23:49:10.41	143.42	4.82	
2025-01-08 23:49:11.44	143.52	4.76	
2025-01-08 23:49:12.46	143.63	4.70	
2025-01-08 23:49:13.49	143.73	4.64	
2025-01-08 23:49:14.51	143.84	4.58	
2025-01-08 23:49:15.54	143.94	4.52	
2025-01-08 23:49:16.56	144.04	4.46	
2025-01-08 23:49:17.58	144.15	4.40	
2025-01-08 23:49:18.61	144.25	4.34	
2025-01-08 23:49:19.64	144.35	4.28	
2025-01-08 23:49:20.67	144.45	4.22	
2025-01-08 23:49:21.71	144.56	4.16	
2025-01-08 23:49:22.75	144.66	4.10	
2025-01-08 23:49:23.79	144.76	4.03	

#Closed at: 2025-01-08 23:49:24