passes_logs/2025/01/08/SPB_Silybum_02/SPB_Silybum_02__20250108_161658_TERRA_rec.log

#Pass ID: 20250108_161658_TERRA
#Satellite: TERRA
#Configuration: TERRA
#Start time: 2025-01-08 16:16:59

#Version: 2.0.20230423
#Station: SPB_Silybum_02
#Location: 30.233357 lon 59.946436 lat
#TLE: 1 25994U 99068A   25007.79031535  .00001159  00000+0  24884-3 0  9992
#TLE: 2 25994  98.0229  71.0496 0003578  86.9116 340.1593 14.60381232333028

#Time	Az	El	Level	Level2	SNR	BER	Gain	Gain2
2025-01-08 16:17:01.91	91.20	4.16	
2025-01-08 16:17:02.94	91.09	4.22	
2025-01-08 16:17:03.98	90.97	4.28	
2025-01-08 16:17:05.00	90.86	4.33	
2025-01-08 16:17:06.03	90.75	4.39	
2025-01-08 16:17:07.05	90.64	4.45	
2025-01-08 16:17:08.08	90.52	4.50	
2025-01-08 16:17:09.11	90.41	4.56	
2025-01-08 16:17:10.13	90.29	4.62	
2025-01-08 16:17:11.16	90.18	4.67	
2025-01-08 16:17:12.20	90.06	4.73	
2025-01-08 16:17:13.23	89.95	4.79	
2025-01-08 16:17:14.27	89.83	4.84	
2025-01-08 16:17:15.30	89.71	4.90	
2025-01-08 16:17:16.32	89.59	4.96	
2025-01-08 16:17:17.35	89.47	5.01	
2025-01-08 16:17:18.37	89.36	5.07	
2025-01-08 16:17:19.40	89.24	5.13	
2025-01-08 16:17:20.44	89.12	5.19	
2025-01-08 16:17:21.46	89.00	5.24	
2025-01-08 16:17:22.49	88.88	5.30	
2025-01-08 16:17:23.52	88.75	5.36	
2025-01-08 16:17:24.56	88.63	5.41	
2025-01-08 16:17:25.58	88.51	5.47	
2025-01-08 16:17:26.61	88.39	5.53	
2025-01-08 16:17:27.63	88.26	5.58	
2025-01-08 16:17:28.66	88.14	5.64	
2025-01-08 16:17:29.68	88.01	5.70	
2025-01-08 16:17:30.72	87.89	5.76	
2025-01-08 16:17:31.75	87.76	5.81	
2025-01-08 16:17:32.77	87.64	5.87	
2025-01-08 16:17:33.79	87.51	5.93	
2025-01-08 16:17:34.82	87.38	5.98	
2025-01-08 16:17:35.85	87.26	6.04	
2025-01-08 16:17:36.88	87.13	6.10	
2025-01-08 16:17:37.90	87.00	6.16	
2025-01-08 16:17:38.93	86.87	6.21	
2025-01-08 16:17:39.95	86.74	6.27	
2025-01-08 16:17:40.98	86.61	6.33	
2025-01-08 16:17:42.00	86.48	6.38	
2025-01-08 16:17:43.03	86.35	6.44	
2025-01-08 16:17:44.06	86.21	6.50	
2025-01-08 16:17:45.08	86.08	6.56	
2025-01-08 16:17:46.11	85.95	6.61	
2025-01-08 16:17:47.13	85.81	6.67	
2025-01-08 16:17:48.16	85.68	6.73	
2025-01-08 16:17:49.18	85.55	6.78	
2025-01-08 16:17:50.20	85.41	6.84	
2025-01-08 16:17:51.24	85.27	6.90	
2025-01-08 16:17:52.27	85.14	6.96	
2025-01-08 16:17:53.29	85.00	7.01	
2025-01-08 16:17:54.31	84.86	7.07	
2025-01-08 16:17:55.34	84.72	7.13	
2025-01-08 16:17:56.37	84.58	7.19	
2025-01-08 16:17:57.39	84.44	7.24	
2025-01-08 16:17:58.42	84.30	7.30	
2025-01-08 16:17:59.45	84.16	7.36	
2025-01-08 16:18:00.47	84.02	7.41	
2025-01-08 16:18:01.49	83.88	7.47	
2025-01-08 16:18:02.54	83.73	7.53	
2025-01-08 16:18:03.56	83.59	7.59	
2025-01-08 16:18:04.59	83.44	7.64	
2025-01-08 16:18:05.61	83.30	7.70	
2025-01-08 16:18:06.64	83.15	7.76	
2025-01-08 16:18:07.67	83.01	7.81	
2025-01-08 16:18:08.70	82.86	7.87	
2025-01-08 16:18:09.74	82.71	7.93	
2025-01-08 16:18:10.76	82.56	7.99	
2025-01-08 16:18:11.79	82.42	8.04	
2025-01-08 16:18:12.81	82.27	8.10	
2025-01-08 16:18:13.85	82.12	8.16	
2025-01-08 16:18:14.89	81.96	8.21	
2025-01-08 16:18:15.92	81.81	8.27	
2025-01-08 16:18:16.94	81.66	8.33	
2025-01-08 16:18:17.97	81.51	8.38	
2025-01-08 16:18:19.01	81.35	8.44	
2025-01-08 16:18:20.04	81.20	8.50	
2025-01-08 16:18:21.07	81.04	8.56	
2025-01-08 16:18:22.10	80.89	8.61	
2025-01-08 16:18:23.12	80.73	8.67	
2025-01-08 16:18:24.15	80.57	8.73	
2025-01-08 16:18:25.17	80.42	8.78	
2025-01-08 16:18:26.20	80.26	8.84	
2025-01-08 16:18:27.22	80.10	8.89	
2025-01-08 16:18:28.25	79.94	8.95	
2025-01-08 16:18:29.28	79.78	9.01	
2025-01-08 16:18:30.30	79.62	9.06	
2025-01-08 16:18:31.33	79.46	9.12	
2025-01-08 16:18:32.35	79.30	9.17	
2025-01-08 16:18:33.38	79.14	9.23	
2025-01-08 16:18:34.40	78.98	9.29	
2025-01-08 16:18:35.42	78.81	9.34	
2025-01-08 16:18:36.45	78.65	9.40	
2025-01-08 16:18:37.47	78.48	9.45	
2025-01-08 16:18:38.49	78.32	9.51	
2025-01-08 16:18:39.52	78.15	9.56	
2025-01-08 16:18:40.55	77.98	9.62	
2025-01-08 16:18:41.58	77.81	9.67	
2025-01-08 16:18:42.60	77.65	9.73	
2025-01-08 16:18:43.63	77.48	9.79	
2025-01-08 16:18:44.65	77.31	9.84	
2025-01-08 16:18:45.68	77.14	9.89	
2025-01-08 16:18:46.70	76.97	9.95	
2025-01-08 16:18:47.73	76.79	10.00	
2025-01-08 16:18:48.76	76.62	10.06	
2025-01-08 16:18:49.79	76.44	10.11	
2025-01-08 16:18:50.81	76.27	10.17	
2025-01-08 16:18:51.84	76.10	10.22	
2025-01-08 16:18:52.86	75.92	10.28	
2025-01-08 16:18:53.89	75.74	10.33	
2025-01-08 16:18:54.91	75.57	10.38	
2025-01-08 16:18:55.94	75.39	10.44	
2025-01-08 16:18:56.97	75.21	10.49	
2025-01-08 16:18:57.99	75.03	10.55	
2025-01-08 16:18:59.02	74.85	10.60	
2025-01-08 16:19:00.04	74.67	10.65	
2025-01-08 16:19:01.07	74.49	10.71	
2025-01-08 16:19:02.09	74.31	10.76	
2025-01-08 16:19:03.12	74.12	10.81	
2025-01-08 16:19:04.14	73.94	10.86	
2025-01-08 16:19:05.17	73.76	10.92	
2025-01-08 16:19:06.20	73.57	10.97	
2025-01-08 16:19:07.22	73.39	11.02	
2025-01-08 16:19:08.25	73.20	11.07	
2025-01-08 16:19:09.27	73.01	11.13	
2025-01-08 16:19:10.30	72.83	11.18	
2025-01-08 16:19:11.33	72.64	11.23	
2025-01-08 16:19:12.36	72.45	11.28	
2025-01-08 16:19:13.38	72.26	11.33	
2025-01-08 16:19:14.41	72.07	11.38	
2025-01-08 16:19:15.44	71.87	11.44	
2025-01-08 16:19:16.46	71.68	11.49	
2025-01-08 16:19:17.49	71.49	11.54	
2025-01-08 16:19:18.51	71.30	11.59	
2025-01-08 16:19:19.54	71.10	11.64	
2025-01-08 16:19:20.56	70.91	11.69	
2025-01-08 16:19:21.59	70.71	11.74	
2025-01-08 16:19:22.61	70.51	11.79	
2025-01-08 16:19:23.64	70.32	11.84	
2025-01-08 16:19:24.66	70.12	11.89	
2025-01-08 16:19:25.69	69.92	11.94	
2025-01-08 16:19:26.72	69.72	11.98	
2025-01-08 16:19:27.74	69.52	12.03	
2025-01-08 16:19:28.77	69.32	12.08	
2025-01-08 16:19:29.79	69.12	12.13	
2025-01-08 16:19:30.82	68.92	12.18	
2025-01-08 16:19:31.84	68.71	12.23	
2025-01-08 16:19:32.87	68.51	12.27	
2025-01-08 16:19:33.89	68.31	12.32	
2025-01-08 16:19:34.93	68.10	12.37	
2025-01-08 16:19:35.97	67.89	12.42	
2025-01-08 16:19:37.00	67.68	12.46	
2025-01-08 16:19:38.02	67.48	12.51	
2025-01-08 16:19:39.04	67.27	12.55	
2025-01-08 16:19:40.07	67.06	12.60	
2025-01-08 16:19:41.09	66.85	12.65	
2025-01-08 16:19:42.12	66.64	12.69	
2025-01-08 16:19:43.15	66.43	12.74	
2025-01-08 16:19:44.17	66.22	12.78	
2025-01-08 16:19:45.20	66.01	12.83	
2025-01-08 16:19:46.24	65.79	12.87	
2025-01-08 16:19:47.26	65.58	12.91	
2025-01-08 16:19:48.28	65.37	12.96	
2025-01-08 16:19:49.31	65.15	13.00	
2025-01-08 16:19:50.33	64.94	13.04	
2025-01-08 16:19:51.36	64.72	13.09	
2025-01-08 16:19:52.38	64.50	13.13	
2025-01-08 16:19:53.41	64.28	13.17	
2025-01-08 16:19:54.44	64.06	13.21	
2025-01-08 16:19:55.46	63.85	13.26	
2025-01-08 16:19:56.49	63.63	13.30	
2025-01-08 16:19:57.52	63.41	13.34	
2025-01-08 16:19:58.54	63.19	13.38	
2025-01-08 16:19:59.57	62.96	13.42	
2025-01-08 16:20:00.59	62.74	13.46	
2025-01-08 16:20:01.62	62.52	13.50	
2025-01-08 16:20:02.65	62.29	13.54	
2025-01-08 16:20:03.67	62.07	13.58	
2025-01-08 16:20:04.70	61.85	13.62	
2025-01-08 16:20:05.72	61.62	13.65	
2025-01-08 16:20:06.75	61.40	13.69	
2025-01-08 16:20:07.77	61.17	13.73	
2025-01-08 16:20:08.80	60.94	13.77	
2025-01-08 16:20:09.83	60.71	13.80	
2025-01-08 16:20:10.85	60.49	13.84	
2025-01-08 16:20:11.88	60.26	13.88	
2025-01-08 16:20:12.91	60.03	13.91	
2025-01-08 16:20:13.93	59.80	13.95	
2025-01-08 16:20:14.96	59.56	13.98	
2025-01-08 16:20:15.99	59.33	14.02	
2025-01-08 16:20:17.01	59.10	14.05	
2025-01-08 16:20:18.05	58.87	14.08	
2025-01-08 16:20:19.08	58.63	14.12	
2025-01-08 16:20:20.11	58.40	14.15	
2025-01-08 16:20:21.13	58.16	14.18	
2025-01-08 16:20:22.16	57.93	14.22	
2025-01-08 16:20:23.18	57.69	14.25	
2025-01-08 16:20:24.21	57.46	14.28	
2025-01-08 16:20:25.24	57.22	14.31	
2025-01-08 16:20:26.27	56.98	14.34	
2025-01-08 16:20:27.29	56.75	14.37	
2025-01-08 16:20:28.33	56.51	14.40	
2025-01-08 16:20:29.35	56.27	14.43	
2025-01-08 16:20:30.38	56.03	14.46	
2025-01-08 16:20:31.42	55.79	14.49	
2025-01-08 16:20:32.44	55.55	14.52	
2025-01-08 16:20:33.47	55.31	14.54	
2025-01-08 16:20:34.50	55.06	14.57	
2025-01-08 16:20:35.53	54.82	14.60	
2025-01-08 16:20:36.56	54.58	14.62	
2025-01-08 16:20:37.58	54.34	14.65	
2025-01-08 16:20:38.61	54.09	14.67	
2025-01-08 16:20:39.64	53.85	14.70	
2025-01-08 16:20:40.66	53.61	14.72	
2025-01-08 16:20:41.68	53.37	14.75	
2025-01-08 16:20:42.71	53.12	14.77	
2025-01-08 16:20:43.73	52.88	14.79	
2025-01-08 16:20:44.76	52.63	14.82	
2025-01-08 16:20:45.78	52.39	14.84	
2025-01-08 16:20:46.82	52.14	14.86	
2025-01-08 16:20:47.85	51.89	14.88	
2025-01-08 16:20:48.87	51.64	14.90	
2025-01-08 16:20:49.90	51.40	14.92	
2025-01-08 16:20:50.92	51.15	14.94	
2025-01-08 16:20:51.95	50.90	14.96	
2025-01-08 16:20:52.97	50.66	14.98	
2025-01-08 16:20:54.00	50.41	15.00	
2025-01-08 16:20:55.03	50.16	15.01	
2025-01-08 16:20:56.06	49.91	15.03	
2025-01-08 16:20:57.09	49.66	15.05	
2025-01-08 16:20:58.11	49.41	15.06	
2025-01-08 16:20:59.14	49.16	15.08	
2025-01-08 16:21:00.17	48.91	15.10	
2025-01-08 16:21:01.19	48.66	15.11	
2025-01-08 16:21:02.22	48.40	15.12	
2025-01-08 16:21:03.25	48.15	15.14	
2025-01-08 16:21:04.28	47.90	15.15	
2025-01-08 16:21:05.30	47.65	15.16	
2025-01-08 16:21:06.32	47.40	15.17	
2025-01-08 16:21:07.37	47.14	15.19	
2025-01-08 16:21:08.39	46.89	15.20	
2025-01-08 16:21:09.42	46.64	15.21	
2025-01-08 16:21:10.45	46.39	15.22	
2025-01-08 16:21:11.47	46.13	15.23	
2025-01-08 16:21:12.50	45.88	15.24	
2025-01-08 16:21:13.52	45.63	15.24	
2025-01-08 16:21:14.56	45.37	15.25	
2025-01-08 16:21:15.59	45.12	15.26	
2025-01-08 16:21:16.61	44.87	15.27	
2025-01-08 16:21:17.64	44.61	15.27	
2025-01-08 16:21:18.66	44.36	15.28	
2025-01-08 16:21:19.69	44.11	15.28	
2025-01-08 16:21:20.72	43.85	15.29	
2025-01-08 16:21:21.75	43.60	15.29	
2025-01-08 16:21:22.77	43.34	15.29	
2025-01-08 16:21:23.80	43.09	15.30	
2025-01-08 16:21:24.83	42.83	15.30	
2025-01-08 16:21:25.85	42.58	15.30	
2025-01-08 16:21:26.88	42.33	15.30	
2025-01-08 16:21:27.91	42.07	15.30	
2025-01-08 16:21:28.93	41.82	15.30	
2025-01-08 16:21:29.96	41.56	15.30	
2025-01-08 16:21:30.98	41.31	15.30	
2025-01-08 16:21:32.01	41.06	15.30	
2025-01-08 16:21:33.05	40.80	15.30	
2025-01-08 16:21:34.07	40.55	15.30	
2025-01-08 16:21:35.09	40.30	15.29	
2025-01-08 16:21:36.12	40.04	15.29	
2025-01-08 16:21:37.14	39.79	15.29	
2025-01-08 16:21:38.17	39.53	15.28	
2025-01-08 16:21:39.20	39.28	15.28	
2025-01-08 16:21:40.22	39.03	15.27	
2025-01-08 16:21:41.25	38.77	15.26	
2025-01-08 16:21:42.28	38.52	15.26	
2025-01-08 16:21:43.31	38.27	15.25	
2025-01-08 16:21:44.35	38.01	15.24	
2025-01-08 16:21:45.38	37.76	15.23	
2025-01-08 16:21:46.40	37.50	15.23	
2025-01-08 16:21:47.43	37.25	15.22	
2025-01-08 16:21:48.46	37.00	15.21	
2025-01-08 16:21:49.49	36.74	15.20	
2025-01-08 16:21:50.51	36.49	15.18	
2025-01-08 16:21:51.54	36.24	15.17	
2025-01-08 16:21:52.56	35.99	15.16	
2025-01-08 16:21:53.59	35.74	15.15	
2025-01-08 16:21:54.62	35.49	15.14	
2025-01-08 16:21:55.64	35.24	15.12	
2025-01-08 16:21:56.69	34.98	15.11	
2025-01-08 16:21:57.71	34.73	15.09	
2025-01-08 16:21:58.74	34.48	15.08	
2025-01-08 16:21:59.77	34.23	15.06	
2025-01-08 16:22:00.79	33.98	15.05	
2025-01-08 16:22:01.82	33.73	15.03	
2025-01-08 16:22:02.85	33.48	15.01	
2025-01-08 16:22:03.87	33.24	14.99	
2025-01-08 16:22:04.90	32.99	14.98	
2025-01-08 16:22:05.94	32.74	14.96	
2025-01-08 16:22:06.97	32.49	14.94	
2025-01-08 16:22:07.99	32.24	14.92	
2025-01-08 16:22:09.02	32.00	14.90	
2025-01-08 16:22:10.04	31.75	14.88	
2025-01-08 16:22:11.07	31.50	14.86	
2025-01-08 16:22:12.09	31.26	14.84	
2025-01-08 16:22:13.11	31.02	14.81	
2025-01-08 16:22:14.14	30.77	14.79	
2025-01-08 16:22:15.17	30.53	14.77	
2025-01-08 16:22:16.19	30.28	14.74	
2025-01-08 16:22:17.21	30.04	14.72	
2025-01-08 16:22:18.24	29.80	14.70	
2025-01-08 16:22:19.27	29.55	14.67	
2025-01-08 16:22:20.30	29.31	14.65	
2025-01-08 16:22:21.32	29.07	14.62	
2025-01-08 16:22:22.35	28.83	14.59	
2025-01-08 16:22:23.37	28.59	14.57	
2025-01-08 16:22:24.40	28.35	14.54	
2025-01-08 16:22:25.43	28.11	14.51	
2025-01-08 16:22:26.45	27.87	14.49	
2025-01-08 16:22:27.49	27.63	14.46	
2025-01-08 16:22:28.53	27.38	14.43	
2025-01-08 16:22:29.55	27.15	14.40	
2025-01-08 16:22:30.58	26.91	14.37	
2025-01-08 16:22:31.61	26.67	14.34	
2025-01-08 16:22:32.63	26.44	14.31	
2025-01-08 16:22:33.66	26.20	14.28	
2025-01-08 16:22:34.68	25.97	14.25	
2025-01-08 16:22:35.71	25.73	14.21	
2025-01-08 16:22:36.73	25.50	14.18	
2025-01-08 16:22:37.76	25.26	14.15	
2025-01-08 16:22:38.80	25.03	14.12	
2025-01-08 16:22:39.82	24.80	14.08	
2025-01-08 16:22:40.85	24.56	14.05	
2025-01-08 16:22:41.87	24.33	14.01	
2025-01-08 16:22:42.90	24.10	13.98	
2025-01-08 16:22:43.92	23.87	13.94	
2025-01-08 16:22:44.95	23.64	13.91	
2025-01-08 16:22:45.97	23.41	13.87	
2025-01-08 16:22:47.00	23.18	13.84	
2025-01-08 16:22:48.02	22.96	13.80	
2025-01-08 16:22:49.05	22.73	13.76	
2025-01-08 16:22:50.08	22.50	13.73	
2025-01-08 16:22:51.10	22.28	13.69	
2025-01-08 16:22:52.13	22.05	13.65	
2025-01-08 16:22:53.16	21.83	13.61	
2025-01-08 16:22:54.18	21.60	13.57	
2025-01-08 16:22:55.22	21.38	13.54	
2025-01-08 16:22:56.25	21.15	13.50	
2025-01-08 16:22:57.27	20.93	13.46	
2025-01-08 16:22:58.30	20.71	13.42	
2025-01-08 16:22:59.33	20.49	13.38	
2025-01-08 16:23:00.35	20.27	13.34	
2025-01-08 16:23:01.39	20.05	13.29	
2025-01-08 16:23:02.42	19.83	13.25	
2025-01-08 16:23:03.44	19.61	13.21	
2025-01-08 16:23:04.47	19.39	13.17	
2025-01-08 16:23:05.50	19.18	13.13	
2025-01-08 16:23:06.54	18.96	13.08	
2025-01-08 16:23:07.56	18.74	13.04	
2025-01-08 16:23:08.59	18.53	13.00	
2025-01-08 16:23:09.61	18.31	12.96	
2025-01-08 16:23:10.64	18.10	12.91	
2025-01-08 16:23:11.67	17.89	12.87	
2025-01-08 16:23:12.70	17.67	12.82	
2025-01-08 16:23:13.72	17.46	12.78	
2025-01-08 16:23:14.75	17.25	12.73	
2025-01-08 16:23:15.77	17.04	12.69	
2025-01-08 16:23:16.80	16.83	12.64	
2025-01-08 16:23:17.82	16.63	12.60	
2025-01-08 16:23:18.86	16.42	12.55	
2025-01-08 16:23:19.89	16.21	12.51	
2025-01-08 16:23:20.92	16.00	12.46	
2025-01-08 16:23:21.94	15.80	12.41	
2025-01-08 16:23:22.99	15.59	12.36	
2025-01-08 16:23:24.01	15.38	12.32	
2025-01-08 16:23:25.04	15.18	12.27	
2025-01-08 16:23:26.07	14.98	12.22	
2025-01-08 16:23:27.09	14.77	12.18	
2025-01-08 16:23:28.12	14.57	12.13	
2025-01-08 16:23:29.15	14.37	12.08	
2025-01-08 16:23:30.17	14.17	12.03	
2025-01-08 16:23:31.20	13.97	11.98	
2025-01-08 16:23:32.22	13.77	11.93	
2025-01-08 16:23:33.25	13.58	11.88	
2025-01-08 16:23:34.27	13.38	11.84	
2025-01-08 16:23:35.30	13.18	11.79	
2025-01-08 16:23:36.32	12.99	11.74	
2025-01-08 16:23:37.35	12.79	11.69	
2025-01-08 16:23:38.39	12.60	11.64	
2025-01-08 16:23:39.41	12.40	11.59	
2025-01-08 16:23:40.45	12.21	11.53	
2025-01-08 16:23:41.48	12.02	11.48	
2025-01-08 16:23:42.51	11.82	11.43	
2025-01-08 16:23:43.53	11.63	11.38	
2025-01-08 16:23:44.56	11.44	11.33	
2025-01-08 16:23:45.58	11.26	11.28	
2025-01-08 16:23:46.61	11.07	11.23	
2025-01-08 16:23:47.63	10.88	11.18	
2025-01-08 16:23:48.66	10.69	11.13	
2025-01-08 16:23:49.69	10.51	11.07	
2025-01-08 16:23:50.72	10.32	11.02	
2025-01-08 16:23:51.76	10.13	10.97	
2025-01-08 16:23:52.78	9.95	10.92	
2025-01-08 16:23:53.81	9.77	10.86	
2025-01-08 16:23:54.84	9.58	10.81	
2025-01-08 16:23:55.87	9.40	10.76	
2025-01-08 16:23:56.89	9.22	10.70	
2025-01-08 16:23:57.91	9.04	10.65	
2025-01-08 16:23:58.94	8.86	10.60	
2025-01-08 16:23:59.97	8.68	10.54	
2025-01-08 16:24:01.02	8.50	10.49	
2025-01-08 16:24:02.05	8.32	10.44	
2025-01-08 16:24:03.08	8.14	10.38	
2025-01-08 16:24:04.10	7.97	10.33	
2025-01-08 16:24:05.13	7.79	10.27	
2025-01-08 16:24:06.16	7.62	10.22	
2025-01-08 16:24:07.18	7.44	10.17	
2025-01-08 16:24:08.21	7.27	10.11	
2025-01-08 16:24:09.23	7.10	10.06	
2025-01-08 16:24:10.26	6.92	10.00	
2025-01-08 16:24:11.29	6.75	9.95	
2025-01-08 16:24:12.31	6.58	9.89	
2025-01-08 16:24:13.34	6.41	9.84	
2025-01-08 16:24:14.36	6.24	9.78	
2025-01-08 16:24:15.39	6.08	9.73	
2025-01-08 16:24:16.41	5.91	9.67	
2025-01-08 16:24:17.44	5.74	9.62	
2025-01-08 16:24:18.46	5.58	9.56	
2025-01-08 16:24:19.50	5.41	9.51	
2025-01-08 16:24:20.53	5.24	9.45	
2025-01-08 16:24:21.56	5.08	9.40	
2025-01-08 16:24:22.58	4.92	9.34	
2025-01-08 16:24:23.60	4.75	9.29	
2025-01-08 16:24:24.63	4.59	9.23	
2025-01-08 16:24:25.67	4.43	9.17	
2025-01-08 16:24:26.69	4.27	9.12	
2025-01-08 16:24:27.72	4.11	9.06	
2025-01-08 16:24:28.74	3.95	9.01	
2025-01-08 16:24:29.77	3.79	8.95	
2025-01-08 16:24:30.79	3.63	8.89	
2025-01-08 16:24:31.82	3.47	8.84	
2025-01-08 16:24:32.85	3.32	8.78	
2025-01-08 16:24:33.87	3.16	8.73	
2025-01-08 16:24:34.89	3.01	8.67	
2025-01-08 16:24:35.92	2.85	8.61	
2025-01-08 16:24:36.94	2.70	8.56	
2025-01-08 16:24:37.97	2.55	8.50	
2025-01-08 16:24:39.00	2.39	8.44	
2025-01-08 16:24:40.02	2.24	8.39	
2025-01-08 16:24:41.05	2.09	8.33	
2025-01-08 16:24:42.08	1.94	8.27	
2025-01-08 16:24:43.10	1.79	8.22	
2025-01-08 16:24:44.13	1.64	8.16	
2025-01-08 16:24:45.16	1.49	8.10	
2025-01-08 16:24:46.20	1.34	8.05	
2025-01-08 16:24:47.22	1.19	7.99	
2025-01-08 16:24:48.25	1.04	7.93	
2025-01-08 16:24:49.27	0.90	7.88	
2025-01-08 16:24:50.30	0.75	7.82	
2025-01-08 16:24:51.32	0.61	7.76	
2025-01-08 16:24:52.35	0.46	7.71	
2025-01-08 16:24:53.38	0.32	7.65	
2025-01-08 16:24:54.40	0.18	7.59	
2025-01-08 16:24:55.43	0.03	7.54	
2025-01-08 16:24:56.45	359.89	7.48	
2025-01-08 16:24:57.49	359.75	7.42	
2025-01-08 16:24:58.52	359.61	7.36	
2025-01-08 16:24:59.54	359.47	7.31	
2025-01-08 16:25:00.56	359.33	7.25	
2025-01-08 16:25:01.59	359.19	7.19	
2025-01-08 16:25:02.63	359.05	7.14	
2025-01-08 16:25:03.67	358.91	7.08	
2025-01-08 16:25:04.69	358.78	7.02	
2025-01-08 16:25:05.72	358.64	6.96	
2025-01-08 16:25:06.74	358.50	6.91	
2025-01-08 16:25:07.77	358.37	6.85	
2025-01-08 16:25:08.81	358.23	6.79	
2025-01-08 16:25:09.83	358.10	6.74	
2025-01-08 16:25:10.86	357.96	6.68	
2025-01-08 16:25:11.88	357.83	6.62	
2025-01-08 16:25:12.91	357.70	6.56	
2025-01-08 16:25:13.94	357.57	6.51	
2025-01-08 16:25:14.96	357.44	6.45	
2025-01-08 16:25:15.99	357.31	6.39	
2025-01-08 16:25:17.02	357.18	6.34	
2025-01-08 16:25:18.04	357.05	6.28	
2025-01-08 16:25:19.07	356.92	6.22	
2025-01-08 16:25:20.09	356.79	6.17	
2025-01-08 16:25:21.13	356.66	6.11	
2025-01-08 16:25:22.16	356.53	6.05	
2025-01-08 16:25:23.18	356.41	5.99	
2025-01-08 16:25:24.21	356.28	5.94	
2025-01-08 16:25:25.23	356.16	5.88	
2025-01-08 16:25:26.27	356.03	5.82	
2025-01-08 16:25:27.30	355.90	5.77	
2025-01-08 16:25:28.32	355.78	5.71	
2025-01-08 16:25:29.35	355.66	5.65	
2025-01-08 16:25:30.39	355.53	5.59	
2025-01-08 16:25:31.43	355.41	5.54	
2025-01-08 16:25:32.45	355.29	5.48	
2025-01-08 16:25:33.48	355.17	5.42	
2025-01-08 16:25:34.51	355.04	5.37	
2025-01-08 16:25:35.54	354.92	5.31	
2025-01-08 16:25:36.57	354.80	5.25	
2025-01-08 16:25:37.60	354.68	5.20	
2025-01-08 16:25:38.62	354.57	5.14	
2025-01-08 16:25:39.65	354.45	5.08	
2025-01-08 16:25:40.67	354.33	5.03	
2025-01-08 16:25:41.70	354.21	4.97	
2025-01-08 16:25:42.74	354.10	4.91	
2025-01-08 16:25:43.77	353.98	4.86	
2025-01-08 16:25:44.81	353.86	4.80	
2025-01-08 16:25:45.83	353.75	4.74	
2025-01-08 16:25:46.86	353.63	4.69	
2025-01-08 16:25:47.89	353.52	4.63	
2025-01-08 16:25:48.91	353.41	4.57	
2025-01-08 16:25:49.94	353.29	4.52	
2025-01-08 16:25:50.96	353.18	4.46	
2025-01-08 16:25:51.99	353.07	4.40	
2025-01-08 16:25:53.01	352.96	4.35	
2025-01-08 16:25:54.05	352.84	4.29	
2025-01-08 16:25:55.08	352.73	4.24	
2025-01-08 16:25:56.10	352.62	4.18	
2025-01-08 16:25:57.13	352.51	4.12	
2025-01-08 16:25:58.16	352.40	4.07	
2025-01-08 16:25:59.20	352.29	4.01	

#Closed at: 2025-01-08 16:25:59