passes_logs/2025/01/08/SPB_Silybum_02/SPB_Silybum_02__20250108_103700_SUOMI_NPP_rec.log

#Pass ID: 20250108_103700_SUOMI NPP
#Satellite: SUOMI NPP
#Configuration: NPP
#Start time: 2025-01-08 10:36:58

#Version: 2.0.20230423
#Station: SPB_Silybum_02
#Location: 30.233357 lon 59.946436 lat
#TLE: 1 37849U 11061A   25007.80086614  .00000261  00000+0  14474-3 0  9998
#TLE: 2 37849  98.7439 308.8810 0001922  51.6815 308.4534 14.19534813683891

#Time	Az	El	Level	Level2	SNR	BER	Gain	Gain2
2025-01-08 10:37:00.93	169.29	4.03	
2025-01-08 10:37:02.38	169.31	4.13	
2025-01-08 10:37:03.82	169.34	4.23	
2025-01-08 10:37:05.27	169.37	4.33	
2025-01-08 10:37:06.70	169.40	4.43	
2025-01-08 10:37:08.14	169.42	4.53	
2025-01-08 10:37:09.58	169.45	4.64	
2025-01-08 10:37:11.03	169.48	4.74	
2025-01-08 10:37:12.47	169.51	4.84	
2025-01-08 10:37:13.91	169.54	4.94	
2025-01-08 10:37:15.34	169.57	5.04	
2025-01-08 10:37:16.78	169.60	5.15	
2025-01-08 10:37:18.22	169.62	5.25	
2025-01-08 10:37:19.67	169.65	5.35	
2025-01-08 10:37:21.11	169.68	5.46	
2025-01-08 10:37:22.54	169.71	5.56	
2025-01-08 10:37:23.98	169.74	5.67	
2025-01-08 10:37:25.42	169.77	5.77	
2025-01-08 10:37:26.86	169.80	5.88	
2025-01-08 10:37:28.30	169.83	5.98	
2025-01-08 10:37:29.74	169.86	6.09	
2025-01-08 10:37:31.19	169.89	6.20	
2025-01-08 10:37:32.64	169.93	6.31	
2025-01-08 10:37:34.07	169.96	6.41	
2025-01-08 10:37:35.51	169.99	6.52	
2025-01-08 10:37:36.95	170.02	6.63	
2025-01-08 10:37:38.39	170.05	6.74	
2025-01-08 10:37:39.82	170.08	6.85	
2025-01-08 10:37:41.27	170.12	6.96	
2025-01-08 10:37:42.70	170.15	7.07	
2025-01-08 10:37:44.14	170.18	7.18	
2025-01-08 10:37:45.58	170.21	7.29	
2025-01-08 10:37:47.02	170.25	7.40	
2025-01-08 10:37:48.46	170.28	7.52	
2025-01-08 10:37:49.90	170.31	7.63	
2025-01-08 10:37:51.34	170.35	7.74	
2025-01-08 10:37:52.77	170.38	7.86	
2025-01-08 10:37:54.21	170.42	7.97	
2025-01-08 10:37:55.65	170.45	8.09	
2025-01-08 10:37:57.09	170.48	8.20	
2025-01-08 10:37:58.54	170.52	8.32	
2025-01-08 10:37:59.98	170.55	8.44	
2025-01-08 10:38:01.41	170.59	8.55	
2025-01-08 10:38:02.85	170.63	8.67	
2025-01-08 10:38:04.29	170.66	8.79	
2025-01-08 10:38:05.73	170.70	8.91	
2025-01-08 10:38:07.17	170.73	9.03	
2025-01-08 10:38:08.62	170.77	9.15	
2025-01-08 10:38:10.05	170.81	9.27	
2025-01-08 10:38:11.50	170.85	9.39	
2025-01-08 10:38:12.93	170.88	9.51	
2025-01-08 10:38:14.39	170.92	9.63	
2025-01-08 10:38:15.83	170.96	9.76	
2025-01-08 10:38:17.26	171.00	9.88	
2025-01-08 10:38:18.70	171.04	10.00	
2025-01-08 10:38:20.14	171.07	10.13	
2025-01-08 10:38:21.61	171.11	10.26	
2025-01-08 10:38:23.04	171.15	10.38	
2025-01-08 10:38:24.48	171.19	10.51	
2025-01-08 10:38:25.91	171.23	10.64	
2025-01-08 10:38:27.36	171.27	10.76	
2025-01-08 10:38:28.80	171.32	10.89	
2025-01-08 10:38:30.23	171.36	11.02	
2025-01-08 10:38:31.67	171.40	11.15	
2025-01-08 10:38:33.11	171.44	11.28	
2025-01-08 10:38:34.55	171.48	11.41	
2025-01-08 10:38:35.99	171.52	11.55	
2025-01-08 10:38:37.42	171.57	11.68	
2025-01-08 10:38:38.85	171.61	11.81	
2025-01-08 10:38:40.29	171.65	11.94	
2025-01-08 10:38:41.73	171.70	12.08	
2025-01-08 10:38:43.16	171.74	12.21	
2025-01-08 10:38:44.60	171.79	12.35	
2025-01-08 10:38:46.05	171.83	12.49	
2025-01-08 10:38:47.50	171.88	12.63	
2025-01-08 10:38:48.93	171.92	12.77	
2025-01-08 10:38:50.38	171.97	12.91	
2025-01-08 10:38:51.83	172.01	13.05	
2025-01-08 10:38:53.27	172.06	13.19	
2025-01-08 10:38:54.71	172.11	13.33	
2025-01-08 10:38:56.16	172.16	13.47	
2025-01-08 10:38:57.60	172.21	13.62	
2025-01-08 10:38:59.05	172.25	13.76	
2025-01-08 10:39:00.50	172.30	13.91	
2025-01-08 10:39:01.94	172.35	14.05	
2025-01-08 10:39:03.39	172.40	14.20	
2025-01-08 10:39:04.83	172.45	14.35	
2025-01-08 10:39:06.26	172.50	14.50	
2025-01-08 10:39:07.70	172.56	14.65	
2025-01-08 10:39:09.14	172.61	14.80	
2025-01-08 10:39:10.58	172.66	14.95	
2025-01-08 10:39:12.02	172.71	15.10	
2025-01-08 10:39:13.46	172.77	15.26	
2025-01-08 10:39:14.91	172.82	15.41	
2025-01-08 10:39:16.35	172.87	15.57	
2025-01-08 10:39:17.79	172.93	15.72	
2025-01-08 10:39:19.22	172.98	15.88	
2025-01-08 10:39:20.66	173.04	16.04	
2025-01-08 10:39:22.10	173.10	16.20	
2025-01-08 10:39:23.54	173.15	16.36	
2025-01-08 10:39:24.98	173.21	16.52	
2025-01-08 10:39:26.42	173.27	16.68	
2025-01-08 10:39:27.85	173.33	16.84	
2025-01-08 10:39:29.30	173.39	17.01	
2025-01-08 10:39:30.74	173.45	17.17	
2025-01-08 10:39:32.17	173.51	17.34	
2025-01-08 10:39:33.61	173.57	17.51	
2025-01-08 10:39:35.05	173.63	17.68	
2025-01-08 10:39:36.50	173.69	17.85	
2025-01-08 10:39:37.94	173.75	18.02	
2025-01-08 10:39:39.37	173.82	18.19	
2025-01-08 10:39:40.81	173.88	18.36	
2025-01-08 10:39:42.25	173.95	18.54	
2025-01-08 10:39:43.69	174.01	18.71	
2025-01-08 10:39:45.14	174.08	18.89	
2025-01-08 10:39:46.58	174.15	19.07	
2025-01-08 10:39:48.04	174.21	19.25	
2025-01-08 10:39:49.48	174.28	19.44	
2025-01-08 10:39:50.93	174.35	19.62	
2025-01-08 10:39:52.37	174.42	19.80	
2025-01-08 10:39:53.80	174.49	19.99	
2025-01-08 10:39:55.24	174.56	20.17	
2025-01-08 10:39:56.69	174.64	20.36	
2025-01-08 10:39:58.14	174.71	20.55	
2025-01-08 10:39:59.58	174.79	20.74	
2025-01-08 10:40:01.01	174.86	20.93	
2025-01-08 10:40:02.47	174.94	21.13	
2025-01-08 10:40:03.90	175.01	21.32	
2025-01-08 10:40:05.34	175.09	21.52	
2025-01-08 10:40:06.79	175.17	21.72	
2025-01-08 10:40:08.24	175.25	21.92	
2025-01-08 10:40:09.68	175.33	22.12	
2025-01-08 10:40:11.12	175.41	22.32	
2025-01-08 10:40:12.56	175.50	22.53	
2025-01-08 10:40:13.99	175.58	22.73	
2025-01-08 10:40:15.43	175.66	22.94	
2025-01-08 10:40:16.86	175.75	23.14	
2025-01-08 10:40:18.30	175.84	23.36	
2025-01-08 10:40:19.74	175.92	23.57	
2025-01-08 10:40:21.19	176.01	23.78	
2025-01-08 10:40:22.63	176.10	24.00	
2025-01-08 10:40:24.07	176.19	24.21	
2025-01-08 10:40:25.50	176.29	24.43	
2025-01-08 10:40:26.93	176.38	24.65	
2025-01-08 10:40:28.37	176.48	24.87	
2025-01-08 10:40:29.82	176.57	25.10	
2025-01-08 10:40:31.26	176.67	25.33	
2025-01-08 10:40:32.69	176.77	25.55	
2025-01-08 10:40:34.13	176.87	25.78	
2025-01-08 10:40:35.57	176.97	26.01	
2025-01-08 10:40:37.01	177.07	26.25	
2025-01-08 10:40:38.45	177.18	26.48	
2025-01-08 10:40:39.89	177.28	26.72	
2025-01-08 10:40:41.32	177.39	26.96	
2025-01-08 10:40:42.76	177.50	27.20	
2025-01-08 10:40:44.21	177.61	27.45	
2025-01-08 10:40:45.64	177.72	27.69	
2025-01-08 10:40:47.09	177.84	27.94	
2025-01-08 10:40:48.54	177.96	28.19	
2025-01-08 10:40:49.98	178.07	28.44	
2025-01-08 10:40:51.41	178.19	28.70	
2025-01-08 10:40:52.86	178.31	28.95	
2025-01-08 10:40:54.29	178.44	29.21	
2025-01-08 10:40:55.73	178.56	29.47	
2025-01-08 10:40:57.18	178.69	29.74	
2025-01-08 10:40:58.61	178.82	30.00	
2025-01-08 10:41:00.05	178.95	30.27	
2025-01-08 10:41:01.50	179.08	30.54	
2025-01-08 10:41:02.94	179.22	30.82	
2025-01-08 10:41:04.38	179.35	31.09	
2025-01-08 10:41:05.81	179.49	31.37	
2025-01-08 10:41:07.25	179.64	31.65	
2025-01-08 10:41:08.68	179.78	31.93	
2025-01-08 10:41:10.12	179.93	32.21	
2025-01-08 10:41:11.57	180.08	32.50	
2025-01-08 10:41:13.01	180.23	32.79	
2025-01-08 10:41:14.45	180.38	33.08	
2025-01-08 10:41:15.89	180.54	33.38	
2025-01-08 10:41:17.32	180.70	33.68	
2025-01-08 10:41:18.76	180.86	33.98	
2025-01-08 10:41:20.20	181.03	34.28	
2025-01-08 10:41:21.64	181.20	34.59	
2025-01-08 10:41:23.07	181.37	34.89	
2025-01-08 10:41:24.51	181.54	35.21	
2025-01-08 10:41:25.95	181.72	35.52	
2025-01-08 10:41:27.39	181.90	35.84	
2025-01-08 10:41:28.83	182.09	36.16	
2025-01-08 10:41:30.26	182.28	36.48	
2025-01-08 10:41:31.71	182.47	36.81	
2025-01-08 10:41:33.15	182.67	37.14	
2025-01-08 10:41:34.59	182.87	37.47	
2025-01-08 10:41:36.02	183.07	37.80	
2025-01-08 10:41:37.46	183.28	38.14	
2025-01-08 10:41:38.90	183.49	38.48	
2025-01-08 10:41:40.34	183.71	38.82	
2025-01-08 10:41:41.78	183.93	39.17	
2025-01-08 10:41:43.21	184.16	39.52	
2025-01-08 10:41:44.68	184.39	39.88	
2025-01-08 10:41:46.11	184.63	40.23	
2025-01-08 10:41:47.54	184.87	40.59	
2025-01-08 10:41:48.98	185.11	40.95	
2025-01-08 10:41:50.42	185.37	41.32	
2025-01-08 10:41:51.86	185.62	41.69	
2025-01-08 10:41:53.30	185.89	42.06	
2025-01-08 10:41:54.74	186.16	42.43	
2025-01-08 10:41:56.19	186.43	42.81	
2025-01-08 10:41:57.62	186.72	43.19	
2025-01-08 10:41:59.06	187.00	43.57	
2025-01-08 10:42:00.49	187.30	43.96	
2025-01-08 10:42:01.93	187.60	44.35	
2025-01-08 10:42:03.36	187.91	44.74	
2025-01-08 10:42:04.82	188.23	45.14	
2025-01-08 10:42:06.25	188.56	45.54	
2025-01-08 10:42:07.69	188.89	45.94	
2025-01-08 10:42:09.14	189.23	46.35	
2025-01-08 10:42:10.59	189.59	46.76	
2025-01-08 10:42:12.04	189.95	47.17	
2025-01-08 10:42:13.48	190.32	47.58	
2025-01-08 10:42:14.92	190.70	48.00	
2025-01-08 10:42:16.36	191.09	48.42	
2025-01-08 10:42:17.80	191.49	48.84	
2025-01-08 10:42:19.23	191.90	49.26	
2025-01-08 10:42:20.67	192.33	49.69	
2025-01-08 10:42:22.12	192.76	50.12	
2025-01-08 10:42:23.56	193.21	50.55	
2025-01-08 10:42:24.99	193.67	50.98	
2025-01-08 10:42:26.43	194.14	51.42	
2025-01-08 10:42:27.88	194.63	51.86	
2025-01-08 10:42:29.33	195.14	52.30	
2025-01-08 10:42:30.77	195.66	52.74	
2025-01-08 10:42:32.21	196.19	53.18	
2025-01-08 10:42:33.64	196.73	53.62	
2025-01-08 10:42:35.07	197.30	54.07	
2025-01-08 10:42:36.51	197.88	54.51	
2025-01-08 10:42:37.94	198.48	54.96	
2025-01-08 10:42:39.38	199.10	55.40	
2025-01-08 10:42:40.83	199.74	55.85	
2025-01-08 10:42:42.27	200.40	56.30	
2025-01-08 10:42:43.73	201.09	56.76	
2025-01-08 10:42:45.17	201.80	57.20	
2025-01-08 10:42:46.61	202.53	57.65	
2025-01-08 10:42:48.05	203.28	58.10	
2025-01-08 10:42:49.48	204.05	58.54	
2025-01-08 10:42:50.92	204.86	58.98	
2025-01-08 10:42:52.37	205.69	59.42	
2025-01-08 10:42:53.80	206.55	59.86	
2025-01-08 10:42:55.24	207.43	60.30	
2025-01-08 10:42:56.68	208.35	60.73	
2025-01-08 10:42:58.12	209.30	61.16	
2025-01-08 10:42:59.55	210.28	61.58	
2025-01-08 10:43:00.99	211.30	62.00	
2025-01-08 10:43:02.42	212.34	62.41	
2025-01-08 10:43:03.86	213.43	62.82	
2025-01-08 10:43:05.30	214.55	63.22	
2025-01-08 10:43:06.74	215.72	63.61	
2025-01-08 10:43:08.18	216.92	64.00	
2025-01-08 10:43:09.61	218.15	64.37	
2025-01-08 10:43:11.06	219.44	64.75	
2025-01-08 10:43:12.49	220.76	65.10	
2025-01-08 10:43:13.93	222.13	65.45	
2025-01-08 10:43:15.36	223.53	65.79	
2025-01-08 10:43:16.81	224.99	66.11	
2025-01-08 10:43:18.28	226.51	66.43	
2025-01-08 10:43:19.71	228.04	66.73	
2025-01-08 10:43:21.15	229.62	67.01	
2025-01-08 10:43:22.59	231.25	67.28	
2025-01-08 10:43:24.02	232.90	67.53	
2025-01-08 10:43:25.46	234.60	67.77	
2025-01-08 10:43:26.90	236.35	67.98	
2025-01-08 10:43:28.34	238.12	68.18	
2025-01-08 10:43:29.78	239.93	68.36	
2025-01-08 10:43:31.21	241.76	68.52	
2025-01-08 10:43:32.67	243.66	68.66	
2025-01-08 10:43:34.11	245.55	68.78	
2025-01-08 10:43:35.55	247.47	68.88	
2025-01-08 10:43:36.99	249.40	68.95	
2025-01-08 10:43:38.43	251.34	69.00	
2025-01-08 10:43:39.88	253.31	69.03	
2025-01-08 10:43:41.31	255.25	69.04	
2025-01-08 10:43:42.75	257.21	69.03	
2025-01-08 10:43:44.19	259.16	68.99	
2025-01-08 10:43:45.63	261.10	68.93	
2025-01-08 10:43:47.07	263.02	68.85	
2025-01-08 10:43:48.50	264.92	68.75	
2025-01-08 10:43:49.94	266.80	68.62	
2025-01-08 10:43:51.38	268.67	68.48	
2025-01-08 10:43:52.81	270.49	68.31	
2025-01-08 10:43:54.25	272.29	68.13	
2025-01-08 10:43:55.69	274.05	67.93	
2025-01-08 10:43:57.12	275.77	67.71	
2025-01-08 10:43:58.56	277.46	67.47	
2025-01-08 10:44:00.00	279.11	67.21	
2025-01-08 10:44:01.45	280.74	66.94	
2025-01-08 10:44:02.89	282.30	66.65	
2025-01-08 10:44:04.32	283.82	66.35	
2025-01-08 10:44:05.78	285.32	66.03	
2025-01-08 10:44:07.21	286.75	65.70	
2025-01-08 10:44:08.65	288.15	65.36	
2025-01-08 10:44:10.08	289.49	65.02	
2025-01-08 10:44:11.52	290.80	64.66	
2025-01-08 10:44:12.98	292.09	64.28	
2025-01-08 10:44:14.42	293.32	63.90	
2025-01-08 10:44:15.85	294.50	63.51	
2025-01-08 10:44:17.29	295.65	63.12	
2025-01-08 10:44:18.73	296.77	62.72	
2025-01-08 10:44:20.17	297.84	62.31	
2025-01-08 10:44:21.60	298.88	61.90	
2025-01-08 10:44:23.04	299.88	61.48	
2025-01-08 10:44:24.49	300.86	61.05	
2025-01-08 10:44:25.93	301.80	60.62	
2025-01-08 10:44:27.37	302.71	60.19	
2025-01-08 10:44:28.80	303.58	59.76	
2025-01-08 10:44:30.27	304.45	59.31	
2025-01-08 10:44:31.70	305.27	58.88	
2025-01-08 10:44:33.14	306.06	58.43	
2025-01-08 10:44:34.57	306.83	57.99	
2025-01-08 10:44:36.03	307.58	57.54	
2025-01-08 10:44:37.46	308.30	57.10	
2025-01-08 10:44:38.90	309.00	56.65	
2025-01-08 10:44:40.35	309.68	56.20	
2025-01-08 10:44:41.78	310.33	55.76	
2025-01-08 10:44:43.23	310.96	55.31	
2025-01-08 10:44:44.66	311.57	54.87	
2025-01-08 10:44:46.10	312.17	54.42	
2025-01-08 10:44:47.53	312.74	53.98	
2025-01-08 10:44:48.97	313.30	53.54	
2025-01-08 10:44:50.41	313.85	53.10	
2025-01-08 10:44:51.84	314.37	52.66	
2025-01-08 10:44:53.28	314.88	52.22	
2025-01-08 10:44:54.71	315.38	51.79	
2025-01-08 10:44:56.15	315.86	51.35	
2025-01-08 10:44:57.60	316.33	50.92	
2025-01-08 10:44:59.05	316.79	50.48	
2025-01-08 10:45:00.48	317.24	50.06	
2025-01-08 10:45:01.93	317.67	49.63	
2025-01-08 10:45:03.37	318.09	49.20	
2025-01-08 10:45:04.80	318.50	48.78	
2025-01-08 10:45:06.24	318.89	48.37	
2025-01-08 10:45:07.68	319.28	47.95	
2025-01-08 10:45:09.11	319.66	47.54	
2025-01-08 10:45:10.56	320.03	47.12	
2025-01-08 10:45:12.00	320.38	46.72	
2025-01-08 10:45:13.44	320.73	46.31	
2025-01-08 10:45:14.88	321.07	45.91	
2025-01-08 10:45:16.31	321.40	45.51	
2025-01-08 10:45:17.75	321.73	45.11	
2025-01-08 10:45:19.18	322.04	44.72	
2025-01-08 10:45:20.62	322.35	44.33	
2025-01-08 10:45:22.06	322.65	43.95	
2025-01-08 10:45:23.49	322.94	43.56	
2025-01-08 10:45:24.93	323.23	43.18	
2025-01-08 10:45:26.37	323.51	42.80	
2025-01-08 10:45:27.80	323.79	42.43	
2025-01-08 10:45:29.24	324.05	42.06	
2025-01-08 10:45:30.67	324.31	41.69	
2025-01-08 10:45:32.11	324.57	41.33	
2025-01-08 10:45:33.55	324.82	40.96	
2025-01-08 10:45:34.98	325.07	40.60	
2025-01-08 10:45:36.43	325.31	40.25	
2025-01-08 10:45:37.87	325.54	39.89	
2025-01-08 10:45:39.30	325.77	39.54	
2025-01-08 10:45:40.75	326.00	39.19	
2025-01-08 10:45:42.19	326.22	38.85	
2025-01-08 10:45:43.62	326.44	38.51	
2025-01-08 10:45:45.06	326.65	38.17	
2025-01-08 10:45:46.51	326.86	37.83	
2025-01-08 10:45:47.96	327.06	37.50	
2025-01-08 10:45:49.40	327.26	37.17	
2025-01-08 10:45:50.84	327.46	36.84	
2025-01-08 10:45:52.28	327.65	36.52	
2025-01-08 10:45:53.72	327.84	36.19	
2025-01-08 10:45:55.16	328.02	35.88	
2025-01-08 10:45:56.60	328.21	35.56	
2025-01-08 10:45:58.03	328.38	35.25	
2025-01-08 10:45:59.47	328.56	34.94	
2025-01-08 10:46:00.91	328.73	34.63	
2025-01-08 10:46:02.35	328.90	34.33	
2025-01-08 10:46:03.78	329.06	34.03	
2025-01-08 10:46:05.22	329.23	33.73	
2025-01-08 10:46:06.67	329.39	33.43	
2025-01-08 10:46:08.11	329.54	33.14	
2025-01-08 10:46:09.55	329.70	32.85	
2025-01-08 10:46:11.00	329.85	32.56	
2025-01-08 10:46:12.45	330.00	32.27	
2025-01-08 10:46:13.90	330.15	31.98	
2025-01-08 10:46:15.34	330.29	31.70	
2025-01-08 10:46:16.78	330.44	31.42	
2025-01-08 10:46:18.23	330.58	31.15	
2025-01-08 10:46:19.66	330.71	30.88	
2025-01-08 10:46:21.10	330.85	30.60	
2025-01-08 10:46:22.54	330.98	30.34	
2025-01-08 10:46:23.97	331.11	30.07	
2025-01-08 10:46:25.41	331.24	29.81	
2025-01-08 10:46:26.86	331.37	29.54	
2025-01-08 10:46:28.30	331.49	29.28	
2025-01-08 10:46:29.73	331.62	29.03	
2025-01-08 10:46:31.17	331.74	28.77	
2025-01-08 10:46:32.60	331.86	28.52	
2025-01-08 10:46:34.05	331.97	28.27	
2025-01-08 10:46:35.48	332.09	28.02	
2025-01-08 10:46:36.92	332.20	27.78	
2025-01-08 10:46:38.37	332.32	27.53	
2025-01-08 10:46:39.81	332.43	27.29	
2025-01-08 10:46:41.26	332.54	27.05	
2025-01-08 10:46:42.69	332.65	26.81	
2025-01-08 10:46:44.13	332.75	26.57	
2025-01-08 10:46:45.59	332.86	26.34	
2025-01-08 10:46:47.02	332.96	26.11	
2025-01-08 10:46:48.45	333.06	25.88	
2025-01-08 10:46:49.90	333.16	25.65	
2025-01-08 10:46:51.34	333.26	25.42	
2025-01-08 10:46:52.78	333.36	25.19	
2025-01-08 10:46:54.22	333.46	24.97	
2025-01-08 10:46:55.67	333.55	24.75	
2025-01-08 10:46:57.11	333.65	24.53	
2025-01-08 10:46:58.55	333.74	24.31	
2025-01-08 10:46:59.98	333.83	24.10	
2025-01-08 10:47:01.43	333.92	23.88	
2025-01-08 10:47:02.87	334.01	23.67	
2025-01-08 10:47:04.31	334.10	23.46	
2025-01-08 10:47:05.74	334.19	23.25	
2025-01-08 10:47:07.19	334.28	23.04	
2025-01-08 10:47:08.63	334.36	22.84	
2025-01-08 10:47:10.07	334.44	22.63	
2025-01-08 10:47:11.50	334.53	22.43	
2025-01-08 10:47:12.95	334.61	22.23	
2025-01-08 10:47:14.40	334.69	22.03	
2025-01-08 10:47:15.85	334.77	21.83	
2025-01-08 10:47:17.28	334.85	21.63	
2025-01-08 10:47:18.70	334.93	21.44	
2025-01-08 10:47:20.16	335.01	21.24	
2025-01-08 10:47:21.59	335.08	21.05	
2025-01-08 10:47:23.01	335.16	20.86	
2025-01-08 10:47:24.48	335.23	20.67	
2025-01-08 10:47:25.91	335.31	20.48	
2025-01-08 10:47:27.34	335.38	20.30	
2025-01-08 10:47:28.78	335.45	20.11	
2025-01-08 10:47:30.21	335.52	19.93	
2025-01-08 10:47:31.64	335.59	19.75	
2025-01-08 10:47:33.10	335.66	19.56	
2025-01-08 10:47:34.52	335.73	19.39	
2025-01-08 10:47:35.97	335.80	19.21	
2025-01-08 10:47:37.43	335.87	19.03	
2025-01-08 10:47:38.88	335.94	18.85	
2025-01-08 10:47:40.30	336.00	18.68	
2025-01-08 10:47:41.72	336.07	18.51	
2025-01-08 10:47:43.14	336.13	18.33	
2025-01-08 10:47:44.56	336.20	18.17	
2025-01-08 10:47:45.99	336.26	18.00	
2025-01-08 10:47:47.42	336.32	17.83	
2025-01-08 10:47:48.86	336.38	17.66	
2025-01-08 10:47:50.28	336.45	17.50	
2025-01-08 10:47:51.70	336.51	17.33	
2025-01-08 10:47:53.13	336.57	17.17	
2025-01-08 10:47:54.55	336.63	17.01	
2025-01-08 10:47:55.96	336.68	16.85	
2025-01-08 10:47:57.39	336.74	16.69	
2025-01-08 10:47:58.82	336.80	16.53	
2025-01-08 10:48:00.27	336.86	16.37	
2025-01-08 10:48:01.72	336.92	16.21	
2025-01-08 10:48:03.15	336.97	16.05	
2025-01-08 10:48:04.59	337.03	15.89	
2025-01-08 10:48:06.02	337.08	15.74	
2025-01-08 10:48:07.46	337.14	15.58	
2025-01-08 10:48:08.90	337.19	15.43	
2025-01-08 10:48:10.35	337.25	15.28	
2025-01-08 10:48:11.78	337.30	15.13	
2025-01-08 10:48:13.22	337.36	14.97	
2025-01-08 10:48:14.67	337.41	14.82	
2025-01-08 10:48:16.11	337.46	14.67	
2025-01-08 10:48:17.56	337.51	14.52	
2025-01-08 10:48:19.01	337.57	14.38	
2025-01-08 10:48:20.46	337.62	14.23	
2025-01-08 10:48:21.91	337.67	14.08	
2025-01-08 10:48:23.34	337.72	13.94	
2025-01-08 10:48:24.77	337.77	13.80	
2025-01-08 10:48:26.21	337.82	13.65	
2025-01-08 10:48:27.65	337.86	13.51	
2025-01-08 10:48:29.09	337.91	13.37	
2025-01-08 10:48:30.52	337.96	13.23	
2025-01-08 10:48:31.96	338.01	13.09	
2025-01-08 10:48:33.40	338.06	12.95	
2025-01-08 10:48:34.85	338.10	12.81	
2025-01-08 10:48:36.28	338.15	12.68	
2025-01-08 10:48:37.72	338.19	12.54	
2025-01-08 10:48:39.16	338.24	12.40	
2025-01-08 10:48:40.61	338.29	12.27	
2025-01-08 10:48:42.05	338.33	12.13	
2025-01-08 10:48:43.48	338.38	12.00	
2025-01-08 10:48:44.92	338.42	11.87	
2025-01-08 10:48:46.37	338.46	11.73	
2025-01-08 10:48:47.81	338.51	11.60	
2025-01-08 10:48:49.25	338.55	11.47	
2025-01-08 10:48:50.71	338.59	11.34	
2025-01-08 10:48:52.16	338.64	11.21	
2025-01-08 10:48:53.60	338.68	11.08	
2025-01-08 10:48:55.03	338.72	10.95	
2025-01-08 10:48:56.47	338.76	10.82	
2025-01-08 10:48:57.92	338.81	10.70	
2025-01-08 10:48:59.37	338.85	10.57	
2025-01-08 10:49:00.80	338.89	10.44	
2025-01-08 10:49:02.24	338.93	10.32	
2025-01-08 10:49:03.67	338.97	10.20	
2025-01-08 10:49:05.11	339.01	10.07	
2025-01-08 10:49:06.55	339.05	9.95	
2025-01-08 10:49:07.99	339.09	9.83	
2025-01-08 10:49:09.42	339.13	9.71	
2025-01-08 10:49:10.87	339.16	9.58	
2025-01-08 10:49:12.31	339.20	9.46	
2025-01-08 10:49:13.75	339.24	9.34	
2025-01-08 10:49:15.20	339.28	9.22	
2025-01-08 10:49:16.64	339.32	9.10	
2025-01-08 10:49:18.07	339.35	8.99	
2025-01-08 10:49:19.51	339.39	8.87	
2025-01-08 10:49:20.95	339.43	8.75	
2025-01-08 10:49:22.40	339.47	8.63	
2025-01-08 10:49:23.83	339.50	8.52	
2025-01-08 10:49:25.28	339.54	8.40	
2025-01-08 10:49:26.71	339.57	8.29	
2025-01-08 10:49:28.15	339.61	8.17	
2025-01-08 10:49:29.59	339.65	8.06	
2025-01-08 10:49:31.02	339.68	7.94	
2025-01-08 10:49:32.47	339.72	7.83	
2025-01-08 10:49:33.91	339.75	7.72	
2025-01-08 10:49:35.35	339.79	7.60	
2025-01-08 10:49:36.79	339.82	7.49	
2025-01-08 10:49:38.23	339.86	7.38	
2025-01-08 10:49:39.68	339.89	7.27	
2025-01-08 10:49:41.13	339.92	7.16	
2025-01-08 10:49:42.57	339.96	7.05	
2025-01-08 10:49:44.00	339.99	6.94	
2025-01-08 10:49:45.44	340.02	6.83	
2025-01-08 10:49:46.88	340.06	6.72	
2025-01-08 10:49:48.32	340.09	6.62	
2025-01-08 10:49:49.76	340.12	6.51	
2025-01-08 10:49:51.20	340.15	6.40	
2025-01-08 10:49:52.65	340.19	6.29	
2025-01-08 10:49:54.08	340.22	6.19	
2025-01-08 10:49:55.52	340.25	6.08	
2025-01-08 10:49:56.96	340.28	5.98	
2025-01-08 10:49:58.39	340.31	5.87	
2025-01-08 10:49:59.83	340.35	5.77	
2025-01-08 10:50:01.26	340.38	5.66	
2025-01-08 10:50:02.69	340.41	5.56	
2025-01-08 10:50:04.13	340.44	5.46	
2025-01-08 10:50:05.57	340.47	5.36	
2025-01-08 10:50:07.00	340.50	5.25	
2025-01-08 10:50:08.45	340.53	5.15	
2025-01-08 10:50:09.88	340.56	5.05	
2025-01-08 10:50:11.32	340.59	4.95	
2025-01-08 10:50:12.75	340.62	4.85	
2025-01-08 10:50:14.19	340.65	4.75	
2025-01-08 10:50:15.62	340.68	4.65	
2025-01-08 10:50:17.06	340.71	4.55	
2025-01-08 10:50:18.49	340.74	4.45	
2025-01-08 10:50:19.93	340.77	4.35	
2025-01-08 10:50:21.36	340.79	4.25	
2025-01-08 10:50:22.80	340.82	4.15	
2025-01-08 10:50:24.24	340.85	4.06	

#Closed at: 2025-01-08 10:50:25