passes_logs/2025/01/08/SPB_Silybum_02/SPB_Silybum_02__20250108_175220_TERRA_rec.log

#Pass ID: 20250108_175220_TERRA
#Satellite: TERRA
#Configuration: TERRA
#Start time: 2025-01-08 17:52:19

#Version: 2.0.20230423
#Station: SPB_Silybum_02
#Location: 30.233357 lon 59.946436 lat
#TLE: 1 25994U 99068A   25007.79031535  .00001159  00000+0  24884-3 0  9992
#TLE: 2 25994  98.0229  71.0496 0003578  86.9116 340.1593 14.60381232333028

#Time	Az	El	Level	Level2	SNR	BER	Gain	Gain2
2025-01-08 17:52:21.58	141.06	4.09	
2025-01-08 17:52:22.81	141.02	4.18	
2025-01-08 17:52:24.04	140.98	4.27	
2025-01-08 17:52:25.28	140.94	4.36	
2025-01-08 17:52:26.50	140.90	4.45	
2025-01-08 17:52:27.76	140.86	4.54	
2025-01-08 17:52:29.00	140.82	4.63	
2025-01-08 17:52:30.25	140.78	4.72	
2025-01-08 17:52:31.49	140.74	4.81	
2025-01-08 17:52:32.72	140.69	4.90	
2025-01-08 17:52:33.95	140.65	4.99	
2025-01-08 17:52:35.18	140.61	5.08	
2025-01-08 17:52:36.42	140.57	5.17	
2025-01-08 17:52:37.66	140.52	5.26	
2025-01-08 17:52:38.89	140.48	5.35	
2025-01-08 17:52:40.13	140.43	5.45	
2025-01-08 17:52:41.36	140.39	5.54	
2025-01-08 17:52:42.60	140.35	5.63	
2025-01-08 17:52:43.83	140.30	5.72	
2025-01-08 17:52:45.06	140.26	5.82	
2025-01-08 17:52:46.30	140.21	5.91	
2025-01-08 17:52:47.52	140.16	6.01	
2025-01-08 17:52:48.75	140.12	6.10	
2025-01-08 17:52:50.00	140.07	6.20	
2025-01-08 17:52:51.23	140.02	6.29	
2025-01-08 17:52:52.46	139.98	6.39	
2025-01-08 17:52:53.69	139.93	6.48	
2025-01-08 17:52:54.92	139.88	6.58	
2025-01-08 17:52:56.16	139.83	6.68	
2025-01-08 17:52:57.40	139.78	6.77	
2025-01-08 17:52:58.64	139.73	6.87	
2025-01-08 17:52:59.87	139.68	6.97	
2025-01-08 17:53:01.10	139.63	7.07	
2025-01-08 17:53:02.34	139.58	7.17	
2025-01-08 17:53:03.57	139.53	7.27	
2025-01-08 17:53:04.81	139.48	7.37	
2025-01-08 17:53:06.05	139.43	7.47	
2025-01-08 17:53:07.28	139.38	7.57	
2025-01-08 17:53:08.51	139.32	7.67	
2025-01-08 17:53:09.74	139.27	7.77	
2025-01-08 17:53:10.97	139.22	7.87	
2025-01-08 17:53:12.20	139.16	7.97	
2025-01-08 17:53:13.43	139.11	8.08	
2025-01-08 17:53:14.65	139.06	8.18	
2025-01-08 17:53:15.88	139.00	8.28	
2025-01-08 17:53:17.12	138.95	8.39	
2025-01-08 17:53:18.35	138.89	8.49	
2025-01-08 17:53:19.60	138.83	8.60	
2025-01-08 17:53:20.84	138.77	8.70	
2025-01-08 17:53:22.06	138.72	8.81	
2025-01-08 17:53:23.30	138.66	8.92	
2025-01-08 17:53:24.54	138.60	9.02	
2025-01-08 17:53:25.77	138.54	9.13	
2025-01-08 17:53:27.00	138.48	9.24	
2025-01-08 17:53:28.23	138.42	9.35	
2025-01-08 17:53:29.46	138.36	9.45	
2025-01-08 17:53:30.71	138.30	9.57	
2025-01-08 17:53:31.95	138.24	9.68	
2025-01-08 17:53:33.18	138.18	9.79	
2025-01-08 17:53:34.41	138.12	9.90	
2025-01-08 17:53:35.66	138.05	10.01	
2025-01-08 17:53:36.89	137.99	10.12	
2025-01-08 17:53:38.14	137.92	10.23	
2025-01-08 17:53:39.36	137.86	10.35	
2025-01-08 17:53:40.60	137.79	10.46	
2025-01-08 17:53:41.83	137.73	10.57	
2025-01-08 17:53:43.06	137.66	10.69	
2025-01-08 17:53:44.29	137.59	10.80	
2025-01-08 17:53:45.52	137.53	10.92	
2025-01-08 17:53:46.77	137.46	11.04	
2025-01-08 17:53:48.00	137.39	11.15	
2025-01-08 17:53:49.23	137.32	11.27	
2025-01-08 17:53:50.46	137.25	11.39	
2025-01-08 17:53:51.69	137.18	11.51	
2025-01-08 17:53:52.93	137.11	11.63	
2025-01-08 17:53:54.15	137.04	11.75	
2025-01-08 17:53:55.38	136.96	11.87	
2025-01-08 17:53:56.62	136.89	11.99	
2025-01-08 17:53:57.85	136.82	12.11	
2025-01-08 17:53:59.08	136.74	12.23	
2025-01-08 17:54:00.31	136.67	12.35	
2025-01-08 17:54:01.54	136.59	12.48	
2025-01-08 17:54:02.77	136.51	12.60	
2025-01-08 17:54:04.00	136.44	12.73	
2025-01-08 17:54:05.23	136.36	12.85	
2025-01-08 17:54:06.46	136.28	12.98	
2025-01-08 17:54:07.70	136.20	13.10	
2025-01-08 17:54:08.93	136.12	13.23	
2025-01-08 17:54:10.17	136.04	13.36	
2025-01-08 17:54:11.41	135.95	13.49	
2025-01-08 17:54:12.64	135.87	13.62	
2025-01-08 17:54:13.87	135.79	13.75	
2025-01-08 17:54:15.10	135.70	13.88	
2025-01-08 17:54:16.33	135.62	14.01	
2025-01-08 17:54:17.56	135.53	14.14	
2025-01-08 17:54:18.79	135.44	14.28	
2025-01-08 17:54:20.02	135.36	14.41	
2025-01-08 17:54:21.25	135.27	14.54	
2025-01-08 17:54:22.49	135.18	14.68	
2025-01-08 17:54:23.72	135.09	14.82	
2025-01-08 17:54:24.95	134.99	14.95	
2025-01-08 17:54:26.17	134.90	15.09	
2025-01-08 17:54:27.41	134.81	15.23	
2025-01-08 17:54:28.64	134.71	15.37	
2025-01-08 17:54:29.87	134.62	15.51	
2025-01-08 17:54:31.12	134.52	15.65	
2025-01-08 17:54:32.35	134.42	15.79	
2025-01-08 17:54:33.58	134.33	15.94	
2025-01-08 17:54:34.81	134.23	16.08	
2025-01-08 17:54:36.06	134.12	16.23	
2025-01-08 17:54:37.29	134.02	16.37	
2025-01-08 17:54:38.52	133.92	16.52	
2025-01-08 17:54:39.76	133.82	16.66	
2025-01-08 17:54:40.98	133.71	16.81	
2025-01-08 17:54:42.21	133.61	16.96	
2025-01-08 17:54:43.44	133.50	17.11	
2025-01-08 17:54:44.68	133.39	17.26	
2025-01-08 17:54:45.91	133.28	17.41	
2025-01-08 17:54:47.14	133.17	17.56	
2025-01-08 17:54:48.37	133.06	17.72	
2025-01-08 17:54:49.60	132.95	17.87	
2025-01-08 17:54:50.83	132.83	18.02	
2025-01-08 17:54:52.06	132.72	18.18	
2025-01-08 17:54:53.29	132.60	18.34	
2025-01-08 17:54:54.52	132.48	18.50	
2025-01-08 17:54:55.75	132.36	18.65	
2025-01-08 17:54:56.99	132.24	18.82	
2025-01-08 17:54:58.22	132.12	18.98	
2025-01-08 17:54:59.45	131.99	19.14	
2025-01-08 17:55:00.68	131.87	19.30	
2025-01-08 17:55:01.91	131.74	19.46	
2025-01-08 17:55:03.14	131.61	19.63	
2025-01-08 17:55:04.37	131.48	19.80	
2025-01-08 17:55:05.60	131.35	19.96	
2025-01-08 17:55:06.84	131.22	20.13	
2025-01-08 17:55:08.07	131.08	20.30	
2025-01-08 17:55:09.30	130.95	20.47	
2025-01-08 17:55:10.54	130.81	20.64	
2025-01-08 17:55:11.77	130.67	20.82	
2025-01-08 17:55:13.01	130.53	20.99	
2025-01-08 17:55:14.24	130.39	21.17	
2025-01-08 17:55:15.47	130.24	21.34	
2025-01-08 17:55:16.70	130.09	21.52	
2025-01-08 17:55:17.94	129.95	21.70	
2025-01-08 17:55:19.18	129.79	21.88	
2025-01-08 17:55:20.41	129.64	22.06	
2025-01-08 17:55:21.64	129.49	22.24	
2025-01-08 17:55:22.87	129.33	22.43	
2025-01-08 17:55:24.10	129.18	22.61	
2025-01-08 17:55:25.33	129.02	22.80	
2025-01-08 17:55:26.56	128.86	22.98	
2025-01-08 17:55:27.79	128.69	23.17	
2025-01-08 17:55:29.04	128.52	23.36	
2025-01-08 17:55:30.27	128.36	23.55	
2025-01-08 17:55:31.49	128.19	23.74	
2025-01-08 17:55:32.72	128.01	23.94	
2025-01-08 17:55:33.95	127.84	24.13	
2025-01-08 17:55:35.18	127.66	24.32	
2025-01-08 17:55:36.41	127.48	24.52	
2025-01-08 17:55:37.65	127.30	24.72	
2025-01-08 17:55:38.87	127.12	24.92	
2025-01-08 17:55:40.11	126.93	25.12	
2025-01-08 17:55:41.35	126.74	25.32	
2025-01-08 17:55:42.59	126.55	25.53	
2025-01-08 17:55:43.83	126.35	25.74	
2025-01-08 17:55:45.05	126.15	25.94	
2025-01-08 17:55:46.28	125.95	26.15	
2025-01-08 17:55:47.52	125.75	26.36	
2025-01-08 17:55:48.75	125.54	26.57	
2025-01-08 17:55:50.00	125.33	26.78	
2025-01-08 17:55:51.23	125.12	27.00	
2025-01-08 17:55:52.46	124.91	27.21	
2025-01-08 17:55:53.69	124.69	27.43	
2025-01-08 17:55:54.92	124.47	27.64	
2025-01-08 17:55:56.15	124.25	27.86	
2025-01-08 17:55:57.38	124.02	28.08	
2025-01-08 17:55:58.61	123.79	28.30	
2025-01-08 17:55:59.85	123.55	28.53	
2025-01-08 17:56:01.08	123.32	28.75	
2025-01-08 17:56:02.31	123.08	28.98	
2025-01-08 17:56:03.54	122.83	29.20	
2025-01-08 17:56:04.77	122.58	29.43	
2025-01-08 17:56:06.02	122.33	29.66	
2025-01-08 17:56:07.24	122.08	29.89	
2025-01-08 17:56:08.47	121.82	30.13	
2025-01-08 17:56:09.70	121.55	30.36	
2025-01-08 17:56:10.93	121.29	30.59	
2025-01-08 17:56:12.16	121.02	30.83	
2025-01-08 17:56:13.39	120.74	31.07	
2025-01-08 17:56:14.62	120.46	31.31	
2025-01-08 17:56:15.85	120.18	31.55	
2025-01-08 17:56:17.08	119.89	31.79	
2025-01-08 17:56:18.31	119.60	32.03	
2025-01-08 17:56:19.54	119.30	32.28	
2025-01-08 17:56:20.78	119.00	32.52	
2025-01-08 17:56:22.01	118.69	32.77	
2025-01-08 17:56:23.23	118.38	33.02	
2025-01-08 17:56:24.46	118.06	33.26	
2025-01-08 17:56:25.70	117.74	33.52	
2025-01-08 17:56:26.94	117.41	33.77	
2025-01-08 17:56:28.18	117.08	34.03	
2025-01-08 17:56:29.41	116.74	34.28	
2025-01-08 17:56:30.64	116.39	34.53	
2025-01-08 17:56:31.87	116.05	34.79	
2025-01-08 17:56:33.12	115.69	35.05	
2025-01-08 17:56:34.35	115.33	35.31	
2025-01-08 17:56:35.58	114.96	35.57	
2025-01-08 17:56:36.81	114.59	35.83	
2025-01-08 17:56:38.04	114.21	36.09	
2025-01-08 17:56:39.28	113.82	36.35	
2025-01-08 17:56:40.51	113.43	36.61	
2025-01-08 17:56:41.74	113.03	36.88	
2025-01-08 17:56:42.97	112.63	37.14	
2025-01-08 17:56:44.20	112.22	37.40	
2025-01-08 17:56:45.43	111.80	37.67	
2025-01-08 17:56:46.66	111.37	37.93	
2025-01-08 17:56:47.90	110.94	38.20	
2025-01-08 17:56:49.13	110.50	38.47	
2025-01-08 17:56:50.36	110.05	38.73	
2025-01-08 17:56:51.59	109.60	39.00	
2025-01-08 17:56:52.82	109.13	39.26	
2025-01-08 17:56:54.06	108.66	39.53	
2025-01-08 17:56:55.29	108.18	39.80	
2025-01-08 17:56:56.52	107.70	40.07	
2025-01-08 17:56:57.75	107.20	40.33	
2025-01-08 17:56:58.97	106.70	40.60	
2025-01-08 17:57:00.20	106.19	40.86	
2025-01-08 17:57:01.43	105.67	41.13	
2025-01-08 17:57:02.67	105.14	41.39	
2025-01-08 17:57:03.90	104.60	41.65	
2025-01-08 17:57:05.13	104.06	41.92	
2025-01-08 17:57:06.36	103.50	42.18	
2025-01-08 17:57:07.59	102.94	42.44	
2025-01-08 17:57:08.82	102.36	42.70	
2025-01-08 17:57:10.05	101.78	42.95	
2025-01-08 17:57:11.30	101.18	43.21	
2025-01-08 17:57:12.53	100.57	43.47	
2025-01-08 17:57:13.75	99.97	43.72	
2025-01-08 17:57:15.00	99.33	43.97	
2025-01-08 17:57:16.23	98.70	44.22	
2025-01-08 17:57:17.46	98.06	44.47	
2025-01-08 17:57:18.69	97.40	44.71	
2025-01-08 17:57:19.92	96.74	44.95	
2025-01-08 17:57:21.15	96.07	45.19	
2025-01-08 17:57:22.38	95.38	45.43	
2025-01-08 17:57:23.61	94.69	45.66	
2025-01-08 17:57:24.84	93.99	45.89	
2025-01-08 17:57:26.07	93.27	46.11	
2025-01-08 17:57:27.30	92.55	46.34	
2025-01-08 17:57:28.53	91.81	46.55	
2025-01-08 17:57:29.76	91.06	46.77	
2025-01-08 17:57:30.97	90.32	46.97	
2025-01-08 17:57:32.22	89.54	47.18	
2025-01-08 17:57:33.45	88.77	47.38	
2025-01-08 17:57:34.68	87.98	47.58	
2025-01-08 17:57:35.92	87.18	47.77	
2025-01-08 17:57:37.15	86.37	47.96	
2025-01-08 17:57:38.38	85.55	48.14	
2025-01-08 17:57:39.61	84.73	48.31	
2025-01-08 17:57:40.84	83.89	48.48	
2025-01-08 17:57:42.08	83.04	48.64	
2025-01-08 17:57:43.31	82.19	48.80	
2025-01-08 17:57:44.54	81.33	48.95	
2025-01-08 17:57:45.78	80.45	49.10	
2025-01-08 17:57:47.04	79.55	49.24	
2025-01-08 17:57:48.27	78.66	49.37	
2025-01-08 17:57:49.50	77.77	49.49	
2025-01-08 17:57:50.74	76.86	49.61	
2025-01-08 17:57:51.97	75.95	49.72	
2025-01-08 17:57:53.20	75.04	49.82	
2025-01-08 17:57:54.44	74.11	49.91	
2025-01-08 17:57:55.67	73.19	50.00	
2025-01-08 17:57:56.89	72.26	50.08	
2025-01-08 17:57:58.13	71.32	50.15	
2025-01-08 17:57:59.35	70.39	50.21	
2025-01-08 17:58:00.58	69.45	50.27	
2025-01-08 17:58:01.81	68.50	50.31	
2025-01-08 17:58:03.06	67.54	50.35	
2025-01-08 17:58:04.29	66.59	50.38	
2025-01-08 17:58:05.52	65.63	50.40	
2025-01-08 17:58:06.75	64.68	50.42	
2025-01-08 17:58:07.98	63.73	50.42	
2025-01-08 17:58:09.21	62.77	50.42	
2025-01-08 17:58:10.43	61.82	50.41	
2025-01-08 17:58:11.67	60.86	50.39	
2025-01-08 17:58:12.91	59.91	50.36	
2025-01-08 17:58:14.14	58.96	50.32	
2025-01-08 17:58:15.37	58.01	50.28	
2025-01-08 17:58:16.60	57.07	50.22	
2025-01-08 17:58:17.83	56.13	50.16	
2025-01-08 17:58:19.06	55.19	50.09	
2025-01-08 17:58:20.29	54.26	50.02	
2025-01-08 17:58:21.52	53.34	49.93	
2025-01-08 17:58:22.76	52.41	49.84	
2025-01-08 17:58:24.00	51.49	49.74	
2025-01-08 17:58:25.23	50.58	49.63	
2025-01-08 17:58:26.46	49.68	49.52	
2025-01-08 17:58:27.71	48.77	49.39	
2025-01-08 17:58:28.94	47.88	49.26	
2025-01-08 17:58:30.18	47.00	49.13	
2025-01-08 17:58:31.41	46.12	48.98	
2025-01-08 17:58:32.64	45.26	48.83	
2025-01-08 17:58:33.87	44.41	48.68	
2025-01-08 17:58:35.10	43.56	48.52	
2025-01-08 17:58:36.34	42.72	48.35	
2025-01-08 17:58:37.57	41.90	48.18	
2025-01-08 17:58:38.81	41.07	48.00	
2025-01-08 17:58:40.04	40.26	47.81	
2025-01-08 17:58:41.28	39.46	47.62	
2025-01-08 17:58:42.51	38.67	47.43	
2025-01-08 17:58:43.75	37.89	47.23	
2025-01-08 17:58:44.98	37.12	47.02	
2025-01-08 17:58:46.21	36.37	46.81	
2025-01-08 17:58:47.44	35.62	46.60	
2025-01-08 17:58:48.67	34.88	46.38	
2025-01-08 17:58:49.90	34.16	46.16	
2025-01-08 17:58:51.13	33.44	45.94	
2025-01-08 17:58:52.36	32.74	45.71	
2025-01-08 17:58:53.59	32.04	45.48	
2025-01-08 17:58:54.82	31.36	45.25	
2025-01-08 17:58:56.06	30.68	45.01	
2025-01-08 17:58:57.29	30.02	44.77	
2025-01-08 17:58:58.52	29.36	44.53	
2025-01-08 17:58:59.75	28.72	44.28	
2025-01-08 17:59:00.98	28.09	44.04	
2025-01-08 17:59:02.22	27.46	43.78	
2025-01-08 17:59:03.45	26.85	43.53	
2025-01-08 17:59:04.68	26.24	43.28	
2025-01-08 17:59:05.92	25.64	43.02	
2025-01-08 17:59:07.15	25.06	42.77	
2025-01-08 17:59:08.40	24.48	42.50	
2025-01-08 17:59:09.62	23.92	42.25	
2025-01-08 17:59:10.85	23.36	41.99	
2025-01-08 17:59:12.08	22.81	41.73	
2025-01-08 17:59:13.31	22.28	41.46	
2025-01-08 17:59:14.54	21.75	41.20	
2025-01-08 17:59:15.77	21.23	40.94	
2025-01-08 17:59:17.00	20.72	40.67	
2025-01-08 17:59:18.23	20.21	40.41	
2025-01-08 17:59:19.46	19.72	40.14	
2025-01-08 17:59:20.70	19.23	39.88	
2025-01-08 17:59:21.93	18.75	39.61	
2025-01-08 17:59:23.16	18.28	39.35	
2025-01-08 17:59:24.39	17.82	39.08	
2025-01-08 17:59:25.62	17.36	38.82	
2025-01-08 17:59:26.85	16.92	38.55	
2025-01-08 17:59:28.08	16.48	38.29	
2025-01-08 17:59:29.31	16.04	38.02	
2025-01-08 17:59:30.54	15.62	37.76	
2025-01-08 17:59:31.77	15.20	37.49	
2025-01-08 17:59:33.00	14.79	37.23	
2025-01-08 17:59:34.25	14.38	36.96	
2025-01-08 17:59:35.49	13.98	36.70	
2025-01-08 17:59:36.73	13.58	36.44	
2025-01-08 17:59:37.95	13.20	36.18	
2025-01-08 17:59:39.18	12.82	35.92	
2025-01-08 17:59:40.42	12.45	35.66	
2025-01-08 17:59:41.65	12.08	35.40	
2025-01-08 17:59:42.88	11.72	35.14	
2025-01-08 17:59:44.11	11.37	34.89	
2025-01-08 17:59:45.34	11.02	34.63	
2025-01-08 17:59:46.57	10.68	34.38	
2025-01-08 17:59:47.80	10.34	34.13	
2025-01-08 17:59:49.03	10.01	33.87	
2025-01-08 17:59:50.26	9.68	33.62	
2025-01-08 17:59:51.49	9.36	33.37	
2025-01-08 17:59:52.72	9.04	33.12	
2025-01-08 17:59:53.95	8.73	32.88	
2025-01-08 17:59:55.18	8.42	32.63	
2025-01-08 17:59:56.41	8.12	32.39	
2025-01-08 17:59:57.64	7.82	32.14	
2025-01-08 17:59:58.87	7.53	31.90	
2025-01-08 18:00:00.11	7.24	31.66	
2025-01-08 18:00:01.34	6.96	31.42	
2025-01-08 18:00:02.57	6.68	31.18	
2025-01-08 18:00:03.80	6.40	30.94	
2025-01-08 18:00:05.04	6.13	30.71	
2025-01-08 18:00:06.27	5.86	30.47	
2025-01-08 18:00:07.50	5.60	30.24	
2025-01-08 18:00:08.73	5.34	30.01	
2025-01-08 18:00:09.96	5.09	29.78	
2025-01-08 18:00:11.19	4.83	29.55	
2025-01-08 18:00:12.42	4.59	29.32	
2025-01-08 18:00:13.67	4.34	29.09	
2025-01-08 18:00:14.90	4.10	28.87	
2025-01-08 18:00:16.13	3.86	28.64	
2025-01-08 18:00:17.36	3.63	28.42	
2025-01-08 18:00:18.59	3.40	28.20	
2025-01-08 18:00:19.82	3.17	27.98	
2025-01-08 18:00:21.06	2.95	27.76	
2025-01-08 18:00:22.29	2.73	27.55	
2025-01-08 18:00:23.52	2.51	27.33	
2025-01-08 18:00:24.77	2.29	27.11	
2025-01-08 18:00:26.01	2.08	26.90	
2025-01-08 18:00:27.27	1.87	26.68	
2025-01-08 18:00:28.49	1.66	26.48	
2025-01-08 18:00:29.72	1.46	26.27	
2025-01-08 18:00:30.97	1.26	26.06	
2025-01-08 18:00:32.20	1.06	25.85	
2025-01-08 18:00:33.43	0.87	25.65	
2025-01-08 18:00:34.67	0.67	25.44	
2025-01-08 18:00:35.89	0.49	25.24	
2025-01-08 18:00:37.13	0.30	25.04	
2025-01-08 18:00:38.36	0.12	24.84	
2025-01-08 18:00:39.61	359.93	24.64	
2025-01-08 18:00:40.84	359.75	24.45	
2025-01-08 18:00:42.06	359.58	24.25	
2025-01-08 18:00:43.30	359.40	24.06	
2025-01-08 18:00:44.53	359.23	23.87	
2025-01-08 18:00:45.76	359.06	23.67	
2025-01-08 18:00:46.99	358.89	23.48	
2025-01-08 18:00:48.22	358.73	23.30	
2025-01-08 18:00:49.45	358.57	23.11	
2025-01-08 18:00:50.71	358.40	22.92	
2025-01-08 18:00:51.95	358.24	22.73	
2025-01-08 18:00:53.18	358.08	22.55	
2025-01-08 18:00:54.41	357.93	22.36	
2025-01-08 18:00:55.64	357.77	22.18	
2025-01-08 18:00:56.89	357.62	22.00	
2025-01-08 18:00:58.11	357.47	21.82	
2025-01-08 18:00:59.34	357.33	21.65	
2025-01-08 18:01:00.57	357.18	21.47	
2025-01-08 18:01:01.80	357.04	21.29	
2025-01-08 18:01:03.03	356.89	21.12	
2025-01-08 18:01:04.26	356.75	20.95	
2025-01-08 18:01:05.49	356.62	20.77	
2025-01-08 18:01:06.73	356.48	20.60	
2025-01-08 18:01:07.96	356.34	20.43	
2025-01-08 18:01:09.19	356.21	20.26	
2025-01-08 18:01:10.42	356.08	20.09	
2025-01-08 18:01:11.65	355.95	19.93	
2025-01-08 18:01:12.88	355.82	19.76	
2025-01-08 18:01:14.12	355.69	19.60	
2025-01-08 18:01:15.35	355.56	19.43	
2025-01-08 18:01:16.57	355.44	19.27	
2025-01-08 18:01:17.80	355.32	19.11	
2025-01-08 18:01:19.03	355.19	18.95	
2025-01-08 18:01:20.26	355.07	18.79	
2025-01-08 18:01:21.49	354.95	18.63	
2025-01-08 18:01:22.72	354.84	18.47	
2025-01-08 18:01:23.96	354.72	18.32	
2025-01-08 18:01:25.19	354.60	18.16	
2025-01-08 18:01:26.42	354.49	18.01	
2025-01-08 18:01:27.65	354.38	17.85	
2025-01-08 18:01:28.89	354.27	17.70	
2025-01-08 18:01:30.12	354.16	17.55	
2025-01-08 18:01:31.35	354.05	17.40	
2025-01-08 18:01:32.60	353.94	17.24	
2025-01-08 18:01:33.83	353.83	17.10	
2025-01-08 18:01:35.07	353.73	16.95	
2025-01-08 18:01:36.30	353.62	16.80	
2025-01-08 18:01:37.54	353.52	16.65	
2025-01-08 18:01:38.77	353.42	16.51	
2025-01-08 18:01:39.99	353.32	16.36	
2025-01-08 18:01:41.22	353.22	16.22	
2025-01-08 18:01:42.45	353.12	16.08	
2025-01-08 18:01:43.68	353.02	15.93	
2025-01-08 18:01:44.92	352.92	15.79	
2025-01-08 18:01:46.14	352.83	15.65	
2025-01-08 18:01:47.38	352.73	15.51	
2025-01-08 18:01:48.61	352.64	15.37	
2025-01-08 18:01:49.84	352.55	15.23	
2025-01-08 18:01:51.07	352.45	15.10	
2025-01-08 18:01:52.30	352.36	14.96	
2025-01-08 18:01:53.53	352.27	14.82	
2025-01-08 18:01:54.77	352.18	14.69	
2025-01-08 18:01:56.01	352.10	14.55	
2025-01-08 18:01:57.24	352.01	14.42	
2025-01-08 18:01:58.47	351.92	14.29	
2025-01-08 18:01:59.70	351.84	14.16	
2025-01-08 18:02:00.93	351.75	14.02	
2025-01-08 18:02:02.17	351.67	13.89	
2025-01-08 18:02:03.42	351.58	13.76	
2025-01-08 18:02:04.66	351.50	13.63	
2025-01-08 18:02:05.89	351.42	13.50	
2025-01-08 18:02:07.12	351.34	13.37	
2025-01-08 18:02:08.35	351.26	13.25	
2025-01-08 18:02:09.58	351.18	13.12	
2025-01-08 18:02:10.80	351.10	13.00	
2025-01-08 18:02:12.04	351.03	12.87	
2025-01-08 18:02:13.27	350.95	12.75	
2025-01-08 18:02:14.50	350.87	12.62	
2025-01-08 18:02:15.73	350.80	12.50	
2025-01-08 18:02:16.96	350.72	12.38	
2025-01-08 18:02:18.19	350.65	12.26	
2025-01-08 18:02:19.42	350.58	12.13	
2025-01-08 18:02:20.65	350.50	12.01	
2025-01-08 18:02:21.88	350.43	11.89	
2025-01-08 18:02:23.11	350.36	11.77	
2025-01-08 18:02:24.34	350.29	11.66	
2025-01-08 18:02:25.57	350.22	11.54	
2025-01-08 18:02:26.81	350.15	11.42	
2025-01-08 18:02:28.04	350.08	11.30	
2025-01-08 18:02:29.27	350.01	11.19	
2025-01-08 18:02:30.49	349.95	11.07	
2025-01-08 18:02:31.72	349.88	10.96	
2025-01-08 18:02:32.95	349.82	10.84	
2025-01-08 18:02:34.18	349.75	10.73	
2025-01-08 18:02:35.41	349.69	10.61	
2025-01-08 18:02:36.65	349.62	10.50	
2025-01-08 18:02:37.90	349.56	10.38	
2025-01-08 18:02:39.14	349.49	10.27	
2025-01-08 18:02:40.37	349.43	10.16	
2025-01-08 18:02:41.60	349.37	10.05	
2025-01-08 18:02:42.83	349.31	9.94	
2025-01-08 18:02:44.07	349.24	9.83	
2025-01-08 18:02:45.31	349.18	9.72	
2025-01-08 18:02:46.55	349.12	9.61	
2025-01-08 18:02:47.79	349.06	9.50	
2025-01-08 18:02:49.02	349.00	9.39	
2025-01-08 18:02:50.26	348.95	9.28	
2025-01-08 18:02:51.49	348.89	9.18	
2025-01-08 18:02:52.74	348.83	9.07	
2025-01-08 18:02:53.97	348.77	8.96	
2025-01-08 18:02:55.21	348.72	8.86	
2025-01-08 18:02:56.45	348.66	8.75	
2025-01-08 18:02:57.71	348.60	8.64	
2025-01-08 18:02:58.94	348.55	8.54	
2025-01-08 18:03:00.19	348.49	8.43	
2025-01-08 18:03:01.43	348.44	8.33	
2025-01-08 18:03:02.66	348.38	8.23	
2025-01-08 18:03:03.91	348.33	8.12	
2025-01-08 18:03:05.15	348.28	8.02	
2025-01-08 18:03:06.38	348.23	7.92	
2025-01-08 18:03:07.61	348.17	7.82	
2025-01-08 18:03:08.84	348.12	7.72	
2025-01-08 18:03:10.09	348.07	7.62	
2025-01-08 18:03:11.32	348.02	7.52	
2025-01-08 18:03:12.55	347.97	7.42	
2025-01-08 18:03:13.78	347.92	7.32	
2025-01-08 18:03:15.01	347.87	7.22	
2025-01-08 18:03:16.24	347.82	7.12	
2025-01-08 18:03:17.47	347.77	7.02	
2025-01-08 18:03:18.70	347.73	6.93	
2025-01-08 18:03:19.94	347.68	6.83	
2025-01-08 18:03:21.18	347.63	6.73	
2025-01-08 18:03:22.42	347.58	6.63	
2025-01-08 18:03:23.65	347.54	6.54	
2025-01-08 18:03:24.88	347.49	6.44	
2025-01-08 18:03:26.13	347.44	6.35	
2025-01-08 18:03:27.36	347.40	6.25	
2025-01-08 18:03:28.59	347.35	6.16	
2025-01-08 18:03:29.82	347.31	6.06	
2025-01-08 18:03:31.06	347.26	5.97	
2025-01-08 18:03:32.29	347.22	5.88	
2025-01-08 18:03:33.52	347.17	5.78	
2025-01-08 18:03:34.75	347.13	5.69	
2025-01-08 18:03:35.99	347.09	5.60	
2025-01-08 18:03:37.23	347.04	5.50	
2025-01-08 18:03:38.47	347.00	5.41	
2025-01-08 18:03:39.70	346.96	5.32	
2025-01-08 18:03:40.92	346.92	5.23	
2025-01-08 18:03:42.16	346.88	5.14	
2025-01-08 18:03:43.39	346.84	5.05	
2025-01-08 18:03:44.63	346.79	4.96	
2025-01-08 18:03:45.86	346.75	4.87	
2025-01-08 18:03:47.09	346.71	4.78	
2025-01-08 18:03:48.33	346.67	4.69	
2025-01-08 18:03:49.56	346.63	4.60	
2025-01-08 18:03:50.79	346.59	4.51	
2025-01-08 18:03:52.02	346.56	4.43	
2025-01-08 18:03:53.25	346.52	4.34	
2025-01-08 18:03:54.48	346.48	4.25	
2025-01-08 18:03:55.71	346.44	4.16	
2025-01-08 18:03:56.95	346.40	4.08	

#Closed at: 2025-01-08 18:03:58