passes_logs/2025/01/08/SPB_Silybum_02/SPB_Silybum_02__20250108_121934_SUOMI_NPP_rec.log

#Pass ID: 20250108_121934_SUOMI NPP
#Satellite: SUOMI NPP
#Configuration: NPP
#Start time: 2025-01-08 12:19:34

#Version: 2.0.20230423
#Station: SPB_Silybum_02
#Location: 30.233357 lon 59.946436 lat
#TLE: 1 37849U 11061A   25007.80086614  .00000261  00000+0  14474-3 0  9998
#TLE: 2 37849  98.7439 308.8810 0001922  51.6815 308.4534 14.19534813683891

#Time	Az	El	Level	Level2	SNR	BER	Gain	Gain2
2025-01-08 12:19:36.89	223.22	4.14	
2025-01-08 12:19:38.13	223.34	4.21	
2025-01-08 12:19:39.36	223.46	4.27	
2025-01-08 12:19:40.60	223.58	4.34	
2025-01-08 12:19:41.83	223.70	4.40	
2025-01-08 12:19:43.06	223.82	4.47	
2025-01-08 12:19:44.29	223.94	4.53	
2025-01-08 12:19:45.52	224.07	4.60	
2025-01-08 12:19:46.75	224.19	4.66	
2025-01-08 12:19:47.98	224.31	4.73	
2025-01-08 12:19:49.22	224.44	4.79	
2025-01-08 12:19:50.46	224.56	4.86	
2025-01-08 12:19:51.70	224.69	4.92	
2025-01-08 12:19:52.93	224.82	4.99	
2025-01-08 12:19:54.16	224.94	5.05	
2025-01-08 12:19:55.39	225.07	5.12	
2025-01-08 12:19:56.64	225.20	5.19	
2025-01-08 12:19:57.87	225.33	5.25	
2025-01-08 12:19:59.11	225.46	5.32	
2025-01-08 12:20:00.35	225.59	5.38	
2025-01-08 12:20:01.59	225.72	5.45	
2025-01-08 12:20:02.82	225.85	5.51	
2025-01-08 12:20:04.07	225.98	5.58	
2025-01-08 12:20:05.30	226.11	5.65	
2025-01-08 12:20:06.53	226.24	5.71	
2025-01-08 12:20:07.76	226.37	5.78	
2025-01-08 12:20:08.99	226.51	5.84	
2025-01-08 12:20:10.22	226.64	5.91	
2025-01-08 12:20:11.46	226.78	5.98	
2025-01-08 12:20:12.70	226.91	6.04	
2025-01-08 12:20:13.94	227.05	6.11	
2025-01-08 12:20:15.17	227.19	6.17	
2025-01-08 12:20:16.40	227.32	6.24	
2025-01-08 12:20:17.63	227.46	6.31	
2025-01-08 12:20:18.86	227.60	6.37	
2025-01-08 12:20:20.09	227.73	6.44	
2025-01-08 12:20:21.32	227.87	6.51	
2025-01-08 12:20:22.56	228.01	6.57	
2025-01-08 12:20:23.79	228.15	6.64	
2025-01-08 12:20:25.02	228.30	6.70	
2025-01-08 12:20:26.25	228.44	6.77	
2025-01-08 12:20:27.48	228.58	6.84	
2025-01-08 12:20:28.71	228.72	6.90	
2025-01-08 12:20:29.94	228.87	6.97	
2025-01-08 12:20:31.17	229.01	7.04	
2025-01-08 12:20:32.41	229.15	7.10	
2025-01-08 12:20:33.63	229.30	7.17	
2025-01-08 12:20:34.87	229.45	7.23	
2025-01-08 12:20:36.10	229.59	7.30	
2025-01-08 12:20:37.33	229.74	7.37	
2025-01-08 12:20:38.56	229.89	7.43	
2025-01-08 12:20:39.79	230.04	7.50	
2025-01-08 12:20:41.02	230.18	7.57	
2025-01-08 12:20:42.25	230.33	7.63	
2025-01-08 12:20:43.48	230.48	7.70	
2025-01-08 12:20:44.71	230.64	7.77	
2025-01-08 12:20:45.96	230.79	7.83	
2025-01-08 12:20:47.21	230.94	7.90	
2025-01-08 12:20:48.44	231.10	7.97	
2025-01-08 12:20:49.67	231.25	8.03	
2025-01-08 12:20:50.90	231.41	8.10	
2025-01-08 12:20:52.15	231.56	8.17	
2025-01-08 12:20:53.38	231.72	8.23	
2025-01-08 12:20:54.61	231.88	8.30	
2025-01-08 12:20:55.85	232.03	8.37	
2025-01-08 12:20:57.08	232.19	8.43	
2025-01-08 12:20:58.31	232.35	8.50	
2025-01-08 12:20:59.54	232.51	8.57	
2025-01-08 12:21:00.77	232.67	8.63	
2025-01-08 12:21:02.00	232.83	8.70	
2025-01-08 12:21:03.25	232.99	8.77	
2025-01-08 12:21:04.49	233.16	8.83	
2025-01-08 12:21:05.73	233.32	8.90	
2025-01-08 12:21:06.96	233.49	8.97	
2025-01-08 12:21:08.19	233.65	9.03	
2025-01-08 12:21:09.44	233.82	9.10	
2025-01-08 12:21:10.67	233.98	9.17	
2025-01-08 12:21:11.90	234.15	9.23	
2025-01-08 12:21:13.13	234.32	9.30	
2025-01-08 12:21:14.36	234.48	9.37	
2025-01-08 12:21:15.59	234.65	9.43	
2025-01-08 12:21:16.82	234.82	9.50	
2025-01-08 12:21:18.06	234.99	9.56	
2025-01-08 12:21:19.29	235.17	9.63	
2025-01-08 12:21:20.52	235.34	9.70	
2025-01-08 12:21:21.76	235.51	9.76	
2025-01-08 12:21:22.99	235.68	9.83	
2025-01-08 12:21:24.23	235.86	9.89	
2025-01-08 12:21:25.46	236.03	9.96	
2025-01-08 12:21:26.69	236.21	10.03	
2025-01-08 12:21:27.92	236.38	10.09	
2025-01-08 12:21:29.15	236.56	10.16	
2025-01-08 12:21:30.40	236.74	10.22	
2025-01-08 12:21:31.63	236.92	10.29	
2025-01-08 12:21:32.86	237.10	10.35	
2025-01-08 12:21:34.09	237.28	10.42	
2025-01-08 12:21:35.32	237.46	10.48	
2025-01-08 12:21:36.55	237.64	10.55	
2025-01-08 12:21:37.78	237.82	10.61	
2025-01-08 12:21:39.02	238.01	10.68	
2025-01-08 12:21:40.25	238.19	10.74	
2025-01-08 12:21:41.49	238.38	10.81	
2025-01-08 12:21:42.73	238.57	10.87	
2025-01-08 12:21:43.96	238.75	10.94	
2025-01-08 12:21:45.19	238.94	11.00	
2025-01-08 12:21:46.42	239.13	11.07	
2025-01-08 12:21:47.65	239.32	11.13	
2025-01-08 12:21:48.88	239.51	11.20	
2025-01-08 12:21:50.11	239.70	11.26	
2025-01-08 12:21:51.35	239.89	11.32	
2025-01-08 12:21:52.58	240.08	11.39	
2025-01-08 12:21:53.82	240.28	11.45	
2025-01-08 12:21:55.06	240.47	11.52	
2025-01-08 12:21:56.28	240.66	11.58	
2025-01-08 12:21:57.52	240.86	11.64	
2025-01-08 12:21:58.75	241.06	11.71	
2025-01-08 12:21:59.98	241.25	11.77	
2025-01-08 12:22:01.21	241.45	11.83	
2025-01-08 12:22:02.44	241.65	11.89	
2025-01-08 12:22:03.68	241.85	11.96	
2025-01-08 12:22:04.91	242.05	12.02	
2025-01-08 12:22:06.14	242.25	12.08	
2025-01-08 12:22:07.39	242.46	12.14	
2025-01-08 12:22:08.62	242.66	12.21	
2025-01-08 12:22:09.85	242.86	12.27	
2025-01-08 12:22:11.08	243.07	12.33	
2025-01-08 12:22:12.31	243.27	12.39	
2025-01-08 12:22:13.54	243.48	12.45	
2025-01-08 12:22:14.77	243.68	12.51	
2025-01-08 12:22:16.00	243.89	12.57	
2025-01-08 12:22:17.25	244.10	12.64	
2025-01-08 12:22:18.49	244.31	12.70	
2025-01-08 12:22:19.72	244.52	12.76	
2025-01-08 12:22:20.95	244.73	12.82	
2025-01-08 12:22:22.18	244.95	12.88	
2025-01-08 12:22:23.41	245.16	12.94	
2025-01-08 12:22:24.66	245.38	13.00	
2025-01-08 12:22:25.89	245.59	13.06	
2025-01-08 12:22:27.13	245.81	13.12	
2025-01-08 12:22:28.36	246.02	13.17	
2025-01-08 12:22:29.59	246.24	13.23	
2025-01-08 12:22:30.83	246.46	13.29	
2025-01-08 12:22:32.06	246.68	13.35	
2025-01-08 12:22:33.28	246.89	13.41	
2025-01-08 12:22:34.51	247.11	13.46	
2025-01-08 12:22:35.75	247.34	13.52	
2025-01-08 12:22:36.97	247.56	13.58	
2025-01-08 12:22:38.21	247.78	13.64	
2025-01-08 12:22:39.44	248.00	13.69	
2025-01-08 12:22:40.67	248.23	13.75	
2025-01-08 12:22:41.90	248.45	13.80	
2025-01-08 12:22:43.13	248.68	13.86	
2025-01-08 12:22:44.36	248.91	13.92	
2025-01-08 12:22:45.60	249.13	13.97	
2025-01-08 12:22:46.83	249.36	14.03	
2025-01-08 12:22:48.06	249.59	14.08	
2025-01-08 12:22:49.29	249.82	14.13	
2025-01-08 12:22:50.52	250.05	14.19	
2025-01-08 12:22:51.75	250.28	14.24	
2025-01-08 12:22:52.98	250.52	14.30	
2025-01-08 12:22:54.22	250.75	14.35	
2025-01-08 12:22:55.46	250.99	14.40	
2025-01-08 12:22:56.68	251.22	14.45	
2025-01-08 12:22:57.92	251.46	14.51	
2025-01-08 12:22:59.15	251.69	14.56	
2025-01-08 12:23:00.39	251.93	14.61	
2025-01-08 12:23:01.64	252.17	14.66	
2025-01-08 12:23:02.87	252.41	14.71	
2025-01-08 12:23:04.10	252.65	14.76	
2025-01-08 12:23:05.33	252.89	14.81	
2025-01-08 12:23:06.57	253.14	14.86	
2025-01-08 12:23:07.80	253.38	14.91	
2025-01-08 12:23:09.05	253.62	14.96	
2025-01-08 12:23:10.28	253.87	15.01	
2025-01-08 12:23:11.51	254.11	15.06	
2025-01-08 12:23:12.75	254.36	15.10	
2025-01-08 12:23:13.98	254.60	15.15	
2025-01-08 12:23:15.22	254.85	15.20	
2025-01-08 12:23:16.44	255.10	15.25	
2025-01-08 12:23:17.67	255.35	15.29	
2025-01-08 12:23:18.90	255.59	15.34	
2025-01-08 12:23:20.13	255.84	15.38	
2025-01-08 12:23:21.38	256.10	15.43	
2025-01-08 12:23:22.62	256.35	15.47	
2025-01-08 12:23:23.85	256.60	15.52	
2025-01-08 12:23:25.08	256.85	15.56	
2025-01-08 12:23:26.32	257.11	15.60	
2025-01-08 12:23:27.55	257.36	15.64	
2025-01-08 12:23:28.79	257.62	15.69	
2025-01-08 12:23:30.03	257.88	15.73	
2025-01-08 12:23:31.26	258.13	15.77	
2025-01-08 12:23:32.49	258.39	15.81	
2025-01-08 12:23:33.72	258.65	15.85	
2025-01-08 12:23:34.95	258.90	15.89	
2025-01-08 12:23:36.18	259.16	15.93	
2025-01-08 12:23:37.41	259.42	15.97	
2025-01-08 12:23:38.64	259.68	16.01	
2025-01-08 12:23:39.89	259.94	16.04	
2025-01-08 12:23:41.12	260.21	16.08	
2025-01-08 12:23:42.36	260.47	16.12	
2025-01-08 12:23:43.59	260.73	16.15	
2025-01-08 12:23:44.82	260.99	16.19	
2025-01-08 12:23:46.05	261.26	16.23	
2025-01-08 12:23:47.28	261.52	16.26	
2025-01-08 12:23:48.51	261.79	16.29	
2025-01-08 12:23:49.74	262.05	16.33	
2025-01-08 12:23:50.99	262.32	16.36	
2025-01-08 12:23:52.22	262.59	16.39	
2025-01-08 12:23:53.45	262.85	16.43	
2025-01-08 12:23:54.68	263.12	16.46	
2025-01-08 12:23:55.92	263.39	16.49	
2025-01-08 12:23:57.15	263.66	16.52	
2025-01-08 12:23:58.39	263.93	16.55	
2025-01-08 12:23:59.62	264.20	16.58	
2025-01-08 12:24:00.86	264.47	16.61	
2025-01-08 12:24:02.09	264.74	16.63	
2025-01-08 12:24:03.32	265.01	16.66	
2025-01-08 12:24:04.56	265.29	16.69	
2025-01-08 12:24:05.79	265.56	16.71	
2025-01-08 12:24:07.02	265.83	16.74	
2025-01-08 12:24:08.25	266.11	16.76	
2025-01-08 12:24:09.48	266.38	16.79	
2025-01-08 12:24:10.72	266.65	16.81	
2025-01-08 12:24:11.96	266.93	16.84	
2025-01-08 12:24:13.19	267.20	16.86	
2025-01-08 12:24:14.43	267.48	16.88	
2025-01-08 12:24:15.68	267.76	16.90	
2025-01-08 12:24:16.91	268.04	16.92	
2025-01-08 12:24:18.15	268.32	16.94	
2025-01-08 12:24:19.39	268.59	16.96	
2025-01-08 12:24:20.62	268.87	16.98	
2025-01-08 12:24:21.85	269.15	17.00	
2025-01-08 12:24:23.09	269.43	17.02	
2025-01-08 12:24:24.32	269.70	17.04	
2025-01-08 12:24:25.55	269.98	17.05	
2025-01-08 12:24:26.78	270.26	17.07	
2025-01-08 12:24:28.03	270.54	17.08	
2025-01-08 12:24:29.26	270.82	17.10	
2025-01-08 12:24:30.50	271.10	17.11	
2025-01-08 12:24:31.73	271.38	17.13	
2025-01-08 12:24:32.99	271.67	17.14	
2025-01-08 12:24:34.22	271.95	17.15	
2025-01-08 12:24:35.45	272.23	17.16	
2025-01-08 12:24:36.69	272.51	17.17	
2025-01-08 12:24:37.92	272.79	17.18	
2025-01-08 12:24:39.15	273.07	17.19	
2025-01-08 12:24:40.38	273.35	17.20	
2025-01-08 12:24:41.61	273.63	17.21	
2025-01-08 12:24:42.84	273.91	17.21	
2025-01-08 12:24:44.09	274.20	17.22	
2025-01-08 12:24:45.32	274.48	17.23	
2025-01-08 12:24:46.55	274.76	17.23	
2025-01-08 12:24:47.78	275.04	17.24	
2025-01-08 12:24:49.03	275.33	17.24	
2025-01-08 12:24:50.27	275.61	17.25	
2025-01-08 12:24:51.51	275.89	17.25	
2025-01-08 12:24:52.74	276.17	17.25	
2025-01-08 12:24:53.97	276.46	17.25	
2025-01-08 12:24:55.20	276.74	17.25	
2025-01-08 12:24:56.45	277.02	17.25	
2025-01-08 12:24:57.68	277.31	17.25	
2025-01-08 12:24:58.91	277.59	17.25	
2025-01-08 12:25:00.14	277.87	17.25	
2025-01-08 12:25:01.37	278.15	17.25	
2025-01-08 12:25:02.60	278.43	17.24	
2025-01-08 12:25:03.83	278.71	17.24	
2025-01-08 12:25:05.07	278.99	17.23	
2025-01-08 12:25:06.31	279.28	17.23	
2025-01-08 12:25:07.54	279.56	17.22	
2025-01-08 12:25:08.77	279.84	17.22	
2025-01-08 12:25:10.00	280.12	17.21	
2025-01-08 12:25:11.23	280.40	17.20	
2025-01-08 12:25:12.46	280.68	17.19	
2025-01-08 12:25:13.69	280.96	17.18	
2025-01-08 12:25:14.92	281.24	17.17	
2025-01-08 12:25:16.15	281.52	17.16	
2025-01-08 12:25:17.39	281.80	17.15	
2025-01-08 12:25:18.63	282.08	17.14	
2025-01-08 12:25:19.86	282.36	17.13	
2025-01-08 12:25:21.09	282.64	17.11	
2025-01-08 12:25:22.32	282.92	17.10	
2025-01-08 12:25:23.56	283.20	17.09	
2025-01-08 12:25:24.79	283.48	17.07	
2025-01-08 12:25:26.02	283.76	17.06	
2025-01-08 12:25:27.25	284.03	17.04	
2025-01-08 12:25:28.49	284.31	17.02	
2025-01-08 12:25:29.73	284.59	17.00	
2025-01-08 12:25:30.96	284.87	16.99	
2025-01-08 12:25:32.19	285.15	16.97	
2025-01-08 12:25:33.42	285.42	16.95	
2025-01-08 12:25:34.65	285.70	16.93	
2025-01-08 12:25:35.88	285.97	16.91	
2025-01-08 12:25:37.13	286.25	16.89	
2025-01-08 12:25:38.36	286.53	16.86	
2025-01-08 12:25:39.59	286.80	16.84	
2025-01-08 12:25:40.82	287.07	16.82	
2025-01-08 12:25:42.05	287.35	16.79	
2025-01-08 12:25:43.29	287.62	16.77	
2025-01-08 12:25:44.54	287.90	16.75	
2025-01-08 12:25:45.77	288.17	16.72	
2025-01-08 12:25:47.00	288.44	16.69	
2025-01-08 12:25:48.24	288.71	16.67	
2025-01-08 12:25:49.47	288.98	16.64	
2025-01-08 12:25:50.71	289.26	16.61	
2025-01-08 12:25:51.94	289.52	16.58	
2025-01-08 12:25:53.17	289.79	16.55	
2025-01-08 12:25:54.40	290.06	16.53	
2025-01-08 12:25:55.63	290.33	16.50	
2025-01-08 12:25:56.86	290.60	16.46	
2025-01-08 12:25:58.10	290.87	16.43	
2025-01-08 12:25:59.33	291.13	16.40	
2025-01-08 12:26:00.56	291.40	16.37	
2025-01-08 12:26:01.79	291.66	16.34	
2025-01-08 12:26:03.02	291.93	16.30	
2025-01-08 12:26:04.26	292.19	16.27	
2025-01-08 12:26:05.50	292.46	16.23	
2025-01-08 12:26:06.73	292.72	16.20	
2025-01-08 12:26:07.95	292.98	16.16	
2025-01-08 12:26:09.20	293.25	16.13	
2025-01-08 12:26:10.43	293.51	16.09	
2025-01-08 12:26:11.68	293.77	16.05	
2025-01-08 12:26:12.91	294.03	16.02	
2025-01-08 12:26:14.14	294.29	15.98	
2025-01-08 12:26:15.37	294.55	15.94	
2025-01-08 12:26:16.61	294.81	15.90	
2025-01-08 12:26:17.86	295.07	15.86	
2025-01-08 12:26:19.09	295.33	15.82	
2025-01-08 12:26:20.32	295.58	15.78	
2025-01-08 12:26:21.56	295.84	15.74	
2025-01-08 12:26:22.79	296.09	15.70	
2025-01-08 12:26:24.01	296.34	15.66	
2025-01-08 12:26:25.25	296.60	15.62	
2025-01-08 12:26:26.48	296.85	15.57	
2025-01-08 12:26:27.71	297.10	15.53	
2025-01-08 12:26:28.94	297.35	15.49	
2025-01-08 12:26:30.17	297.60	15.44	
2025-01-08 12:26:31.40	297.85	15.40	
2025-01-08 12:26:32.64	298.10	15.35	
2025-01-08 12:26:33.88	298.35	15.31	
2025-01-08 12:26:35.11	298.60	15.26	
2025-01-08 12:26:36.34	298.85	15.22	
2025-01-08 12:26:37.58	299.09	15.17	
2025-01-08 12:26:38.81	299.34	15.12	
2025-01-08 12:26:40.04	299.58	15.08	
2025-01-08 12:26:41.27	299.83	15.03	
2025-01-08 12:26:42.51	300.07	14.98	
2025-01-08 12:26:43.74	300.31	14.93	
2025-01-08 12:26:44.97	300.55	14.88	
2025-01-08 12:26:46.20	300.79	14.83	
2025-01-08 12:26:47.43	301.03	14.78	
2025-01-08 12:26:48.66	301.27	14.73	
2025-01-08 12:26:49.90	301.51	14.68	
2025-01-08 12:26:51.14	301.75	14.63	
2025-01-08 12:26:52.37	301.99	14.58	
2025-01-08 12:26:53.60	302.22	14.53	
2025-01-08 12:26:54.84	302.46	14.48	
2025-01-08 12:26:56.07	302.69	14.43	
2025-01-08 12:26:57.30	302.93	14.38	
2025-01-08 12:26:58.54	303.16	14.32	
2025-01-08 12:26:59.77	303.39	14.27	
2025-01-08 12:27:01.00	303.62	14.22	
2025-01-08 12:27:02.24	303.85	14.16	
2025-01-08 12:27:03.47	304.08	14.11	
2025-01-08 12:27:04.70	304.31	14.06	
2025-01-08 12:27:05.93	304.54	14.00	
2025-01-08 12:27:07.16	304.76	13.95	
2025-01-08 12:27:08.40	304.99	13.89	
2025-01-08 12:27:09.63	305.22	13.84	
2025-01-08 12:27:10.86	305.44	13.78	
2025-01-08 12:27:12.09	305.66	13.72	
2025-01-08 12:27:13.31	305.89	13.67	
2025-01-08 12:27:14.54	306.11	13.61	
2025-01-08 12:27:15.78	306.33	13.56	
2025-01-08 12:27:17.01	306.55	13.50	
2025-01-08 12:27:18.24	306.77	13.44	
2025-01-08 12:27:19.49	306.99	13.38	
2025-01-08 12:27:20.71	307.21	13.33	
2025-01-08 12:27:21.95	307.42	13.27	
2025-01-08 12:27:23.18	307.64	13.21	
2025-01-08 12:27:24.41	307.86	13.15	
2025-01-08 12:27:25.66	308.07	13.09	
2025-01-08 12:27:26.89	308.29	13.04	
2025-01-08 12:27:28.12	308.50	12.98	
2025-01-08 12:27:29.35	308.71	12.92	
2025-01-08 12:27:30.59	308.92	12.86	
2025-01-08 12:27:31.83	309.14	12.80	
2025-01-08 12:27:33.06	309.34	12.74	
2025-01-08 12:27:34.29	309.55	12.68	
2025-01-08 12:27:35.53	309.76	12.62	
2025-01-08 12:27:36.76	309.97	12.56	
2025-01-08 12:27:37.99	310.17	12.50	
2025-01-08 12:27:39.22	310.38	12.44	
2025-01-08 12:27:40.45	310.58	12.38	
2025-01-08 12:27:41.70	310.79	12.31	
2025-01-08 12:27:42.94	311.00	12.25	
2025-01-08 12:27:44.17	311.20	12.19	
2025-01-08 12:27:45.40	311.40	12.13	
2025-01-08 12:27:46.63	311.60	12.07	
2025-01-08 12:27:47.87	311.80	12.01	
2025-01-08 12:27:49.11	312.00	11.94	
2025-01-08 12:27:50.33	312.20	11.88	
2025-01-08 12:27:51.58	312.40	11.82	
2025-01-08 12:27:52.81	312.59	11.76	
2025-01-08 12:27:54.05	312.79	11.69	
2025-01-08 12:27:55.28	312.98	11.63	
2025-01-08 12:27:56.51	313.18	11.57	
2025-01-08 12:27:57.74	313.37	11.51	
2025-01-08 12:27:58.97	313.56	11.44	
2025-01-08 12:28:00.21	313.75	11.38	
2025-01-08 12:28:01.44	313.94	11.32	
2025-01-08 12:28:02.69	314.14	11.25	
2025-01-08 12:28:03.91	314.33	11.19	
2025-01-08 12:28:05.15	314.51	11.12	
2025-01-08 12:28:06.40	314.70	11.06	
2025-01-08 12:28:07.64	314.89	11.00	
2025-01-08 12:28:08.87	315.08	10.93	
2025-01-08 12:28:10.10	315.26	10.87	
2025-01-08 12:28:11.34	315.45	10.80	
2025-01-08 12:28:12.57	315.63	10.74	
2025-01-08 12:28:13.80	315.82	10.68	
2025-01-08 12:28:15.03	316.00	10.61	
2025-01-08 12:28:16.26	316.18	10.55	
2025-01-08 12:28:17.49	316.36	10.48	
2025-01-08 12:28:18.72	316.54	10.42	
2025-01-08 12:28:19.95	316.72	10.35	
2025-01-08 12:28:21.20	316.90	10.29	
2025-01-08 12:28:22.43	317.07	10.22	
2025-01-08 12:28:23.66	317.25	10.16	
2025-01-08 12:28:24.90	317.43	10.09	
2025-01-08 12:28:26.14	317.60	10.03	
2025-01-08 12:28:27.37	317.78	9.96	
2025-01-08 12:28:28.60	317.95	9.90	
2025-01-08 12:28:29.84	318.13	9.83	
2025-01-08 12:28:31.08	318.30	9.77	
2025-01-08 12:28:32.31	318.47	9.70	
2025-01-08 12:28:33.55	318.64	9.64	
2025-01-08 12:28:34.78	318.81	9.57	
2025-01-08 12:28:36.01	318.98	9.50	
2025-01-08 12:28:37.25	319.15	9.44	
2025-01-08 12:28:38.48	319.32	9.37	
2025-01-08 12:28:39.71	319.48	9.31	
2025-01-08 12:28:40.94	319.65	9.24	
2025-01-08 12:28:42.17	319.82	9.18	
2025-01-08 12:28:43.41	319.98	9.11	
2025-01-08 12:28:44.64	320.15	9.05	
2025-01-08 12:28:45.87	320.31	8.98	
2025-01-08 12:28:47.11	320.47	8.91	
2025-01-08 12:28:48.34	320.63	8.85	
2025-01-08 12:28:49.58	320.80	8.78	
2025-01-08 12:28:50.81	320.96	8.72	
2025-01-08 12:28:52.04	321.12	8.65	
2025-01-08 12:28:53.27	321.28	8.59	
2025-01-08 12:28:54.51	321.44	8.52	
2025-01-08 12:28:55.73	321.59	8.45	
2025-01-08 12:28:56.97	321.75	8.39	
2025-01-08 12:28:58.20	321.91	8.32	
2025-01-08 12:28:59.42	322.06	8.26	
2025-01-08 12:29:00.66	322.22	8.19	
2025-01-08 12:29:01.89	322.37	8.12	
2025-01-08 12:29:03.12	322.52	8.06	
2025-01-08 12:29:04.35	322.68	7.99	
2025-01-08 12:29:05.59	322.83	7.93	
2025-01-08 12:29:06.82	322.98	7.86	
2025-01-08 12:29:08.05	323.13	7.80	
2025-01-08 12:29:09.28	323.28	7.73	
2025-01-08 12:29:10.52	323.43	7.66	
2025-01-08 12:29:11.75	323.58	7.60	
2025-01-08 12:29:12.98	323.73	7.53	
2025-01-08 12:29:14.21	323.88	7.47	
2025-01-08 12:29:15.44	324.03	7.40	
2025-01-08 12:29:16.67	324.17	7.34	
2025-01-08 12:29:17.90	324.32	7.27	
2025-01-08 12:29:19.14	324.46	7.20	
2025-01-08 12:29:20.36	324.61	7.14	
2025-01-08 12:29:21.60	324.75	7.07	
2025-01-08 12:29:22.83	324.90	7.01	
2025-01-08 12:29:24.06	325.04	6.94	
2025-01-08 12:29:25.30	325.18	6.88	
2025-01-08 12:29:26.53	325.32	6.81	
2025-01-08 12:29:27.76	325.46	6.74	
2025-01-08 12:29:28.99	325.60	6.68	
2025-01-08 12:29:30.23	325.74	6.61	
2025-01-08 12:29:31.46	325.88	6.55	
2025-01-08 12:29:32.69	326.02	6.48	
2025-01-08 12:29:33.93	326.16	6.42	
2025-01-08 12:29:35.16	326.30	6.35	
2025-01-08 12:29:36.40	326.44	6.29	
2025-01-08 12:29:37.64	326.57	6.22	
2025-01-08 12:29:38.87	326.71	6.15	
2025-01-08 12:29:40.10	326.84	6.09	
2025-01-08 12:29:41.33	326.98	6.02	
2025-01-08 12:29:42.56	327.11	5.96	
2025-01-08 12:29:43.79	327.24	5.89	
2025-01-08 12:29:45.03	327.38	5.83	
2025-01-08 12:29:46.26	327.51	5.76	
2025-01-08 12:29:47.50	327.64	5.70	
2025-01-08 12:29:48.73	327.77	5.63	
2025-01-08 12:29:49.98	327.91	5.57	
2025-01-08 12:29:51.22	328.04	5.50	
2025-01-08 12:29:52.45	328.17	5.44	
2025-01-08 12:29:53.68	328.29	5.37	
2025-01-08 12:29:54.92	328.42	5.31	
2025-01-08 12:29:56.15	328.55	5.24	
2025-01-08 12:29:57.40	328.68	5.18	
2025-01-08 12:29:58.63	328.81	5.11	
2025-01-08 12:29:59.86	328.93	5.05	
2025-01-08 12:30:01.10	329.06	4.98	
2025-01-08 12:30:02.33	329.18	4.92	
2025-01-08 12:30:03.57	329.31	4.85	
2025-01-08 12:30:04.80	329.43	4.79	
2025-01-08 12:30:06.03	329.56	4.73	
2025-01-08 12:30:07.27	329.68	4.66	
2025-01-08 12:30:08.51	329.80	4.60	
2025-01-08 12:30:09.74	329.93	4.53	
2025-01-08 12:30:10.98	330.05	4.47	
2025-01-08 12:30:12.23	330.17	4.40	
2025-01-08 12:30:13.47	330.29	4.34	
2025-01-08 12:30:14.70	330.41	4.27	
2025-01-08 12:30:15.94	330.53	4.21	
2025-01-08 12:30:17.17	330.65	4.15	
2025-01-08 12:30:18.40	330.77	4.08	
2025-01-08 12:30:19.63	330.89	4.02	

#Closed at: 2025-01-08 12:30:20