passes_logs/2025/01/08/SPB_Silybum_02/SPB_Silybum_02__20250108_113138_TERRA_rec.log

#Pass ID: 20250108_113138_TERRA
#Satellite: TERRA
#Configuration: TERRA
#Start time: 2025-01-08 11:31:39

#Version: 2.0.20230423
#Station: SPB_Silybum_02
#Location: 30.233357 lon 59.946436 lat
#TLE: 1 25994U 99068A   25007.79031535  .00001159  00000+0  24884-3 0  9992
#TLE: 2 25994  98.0229  71.0496 0003578  86.9116 340.1593 14.60381232333028

#Time	Az	El	Level	Level2	SNR	BER	Gain	Gain2
2025-01-08 11:31:41.12	4.72	4.11	
2025-01-08 11:31:41.95	4.61	4.14	
2025-01-08 11:31:42.76	4.50	4.17	
2025-01-08 11:31:43.59	4.39	4.21	
2025-01-08 11:31:44.41	4.27	4.24	
2025-01-08 11:31:45.23	4.16	4.27	
2025-01-08 11:31:46.04	4.05	4.30	
2025-01-08 11:31:46.87	3.93	4.34	
2025-01-08 11:31:47.68	3.82	4.37	
2025-01-08 11:31:48.51	3.71	4.40	
2025-01-08 11:31:49.34	3.59	4.44	
2025-01-08 11:31:50.16	3.48	4.47	
2025-01-08 11:31:50.98	3.36	4.50	
2025-01-08 11:31:51.82	3.25	4.53	
2025-01-08 11:31:52.64	3.13	4.57	
2025-01-08 11:31:53.46	3.02	4.60	
2025-01-08 11:31:54.29	2.90	4.63	
2025-01-08 11:31:55.10	2.78	4.66	
2025-01-08 11:31:55.93	2.67	4.70	
2025-01-08 11:31:56.75	2.55	4.73	
2025-01-08 11:31:57.57	2.43	4.76	
2025-01-08 11:31:58.39	2.31	4.79	
2025-01-08 11:31:59.21	2.20	4.82	
2025-01-08 11:32:00.03	2.08	4.85	
2025-01-08 11:32:00.87	1.96	4.89	
2025-01-08 11:32:01.70	1.84	4.92	
2025-01-08 11:32:02.52	1.72	4.95	
2025-01-08 11:32:03.35	1.60	4.98	
2025-01-08 11:32:04.17	1.48	5.01	
2025-01-08 11:32:04.99	1.36	5.05	
2025-01-08 11:32:05.82	1.24	5.08	
2025-01-08 11:32:06.65	1.12	5.11	
2025-01-08 11:32:07.47	1.00	5.14	
2025-01-08 11:32:08.30	0.88	5.17	
2025-01-08 11:32:09.14	0.75	5.20	
2025-01-08 11:32:09.96	0.63	5.23	
2025-01-08 11:32:10.78	0.51	5.27	
2025-01-08 11:32:11.60	0.39	5.30	
2025-01-08 11:32:12.42	0.27	5.33	
2025-01-08 11:32:13.24	0.14	5.36	
2025-01-08 11:32:14.06	0.02	5.39	
2025-01-08 11:32:14.89	359.90	5.42	
2025-01-08 11:32:15.70	359.77	5.45	
2025-01-08 11:32:16.52	359.65	5.48	
2025-01-08 11:32:17.34	359.53	5.51	
2025-01-08 11:32:18.16	359.40	5.54	
2025-01-08 11:32:19.00	359.28	5.57	
2025-01-08 11:32:19.82	359.15	5.60	
2025-01-08 11:32:20.65	359.02	5.63	
2025-01-08 11:32:21.47	358.90	5.66	
2025-01-08 11:32:22.29	358.77	5.69	
2025-01-08 11:32:23.11	358.65	5.72	
2025-01-08 11:32:23.93	358.52	5.75	
2025-01-08 11:32:24.75	358.40	5.78	
2025-01-08 11:32:25.57	358.27	5.81	
2025-01-08 11:32:26.39	358.14	5.84	
2025-01-08 11:32:27.21	358.01	5.87	
2025-01-08 11:32:28.03	357.89	5.90	
2025-01-08 11:32:28.85	357.76	5.93	
2025-01-08 11:32:29.67	357.63	5.96	
2025-01-08 11:32:30.49	357.50	5.99	
2025-01-08 11:32:31.31	357.37	6.01	
2025-01-08 11:32:32.13	357.25	6.04	
2025-01-08 11:32:32.96	357.11	6.07	
2025-01-08 11:32:33.79	356.98	6.10	
2025-01-08 11:32:34.61	356.85	6.13	
2025-01-08 11:32:35.44	356.72	6.16	
2025-01-08 11:32:36.26	356.59	6.19	
2025-01-08 11:32:37.08	356.46	6.21	
2025-01-08 11:32:37.89	356.33	6.24	
2025-01-08 11:32:38.72	356.20	6.27	
2025-01-08 11:32:39.54	356.07	6.30	
2025-01-08 11:32:40.35	355.94	6.33	
2025-01-08 11:32:41.17	355.81	6.35	
2025-01-08 11:32:42.00	355.67	6.38	
2025-01-08 11:32:42.82	355.54	6.41	
2025-01-08 11:32:43.64	355.41	6.44	
2025-01-08 11:32:44.47	355.27	6.46	
2025-01-08 11:32:45.29	355.14	6.49	
2025-01-08 11:32:46.12	355.00	6.52	
2025-01-08 11:32:46.94	354.87	6.55	
2025-01-08 11:32:47.76	354.73	6.57	
2025-01-08 11:32:48.58	354.60	6.60	
2025-01-08 11:32:49.40	354.46	6.63	
2025-01-08 11:32:50.22	354.33	6.65	
2025-01-08 11:32:51.04	354.19	6.68	
2025-01-08 11:32:51.86	354.06	6.71	
2025-01-08 11:32:52.70	353.92	6.73	
2025-01-08 11:32:53.52	353.78	6.76	
2025-01-08 11:32:54.34	353.65	6.79	
2025-01-08 11:32:55.16	353.51	6.81	
2025-01-08 11:32:55.98	353.37	6.84	
2025-01-08 11:32:56.81	353.23	6.86	
2025-01-08 11:32:57.63	353.10	6.89	
2025-01-08 11:32:58.45	352.96	6.91	
2025-01-08 11:32:59.27	352.82	6.94	
2025-01-08 11:33:00.09	352.68	6.96	
2025-01-08 11:33:00.91	352.54	6.99	
2025-01-08 11:33:01.73	352.40	7.01	
2025-01-08 11:33:02.55	352.27	7.04	
2025-01-08 11:33:03.37	352.13	7.06	
2025-01-08 11:33:04.19	351.99	7.09	
2025-01-08 11:33:05.01	351.85	7.11	
2025-01-08 11:33:05.85	351.70	7.14	
2025-01-08 11:33:06.67	351.56	7.16	
2025-01-08 11:33:07.49	351.42	7.19	
2025-01-08 11:33:08.31	351.28	7.21	
2025-01-08 11:33:09.13	351.14	7.23	
2025-01-08 11:33:09.95	351.00	7.26	
2025-01-08 11:33:10.78	350.85	7.28	
2025-01-08 11:33:11.60	350.71	7.31	
2025-01-08 11:33:12.43	350.57	7.33	
2025-01-08 11:33:13.25	350.43	7.35	
2025-01-08 11:33:14.09	350.28	7.38	
2025-01-08 11:33:14.92	350.14	7.40	
2025-01-08 11:33:15.74	349.99	7.42	
2025-01-08 11:33:16.56	349.85	7.44	
2025-01-08 11:33:17.38	349.71	7.47	
2025-01-08 11:33:18.20	349.56	7.49	
2025-01-08 11:33:19.02	349.42	7.51	
2025-01-08 11:33:19.85	349.27	7.53	
2025-01-08 11:33:20.67	349.13	7.56	
2025-01-08 11:33:21.50	348.98	7.58	
2025-01-08 11:33:22.32	348.83	7.60	
2025-01-08 11:33:23.14	348.69	7.62	
2025-01-08 11:33:23.96	348.54	7.64	
2025-01-08 11:33:24.78	348.40	7.66	
2025-01-08 11:33:25.61	348.25	7.68	
2025-01-08 11:33:26.43	348.10	7.71	
2025-01-08 11:33:27.25	347.96	7.73	
2025-01-08 11:33:28.07	347.81	7.75	
2025-01-08 11:33:28.89	347.66	7.77	
2025-01-08 11:33:29.71	347.51	7.79	
2025-01-08 11:33:30.54	347.37	7.81	
2025-01-08 11:33:31.36	347.22	7.83	
2025-01-08 11:33:32.18	347.07	7.85	
2025-01-08 11:33:33.00	346.92	7.87	
2025-01-08 11:33:33.82	346.77	7.89	
2025-01-08 11:33:34.64	346.62	7.91	
2025-01-08 11:33:35.46	346.48	7.93	
2025-01-08 11:33:36.28	346.33	7.94	
2025-01-08 11:33:37.10	346.18	7.96	
2025-01-08 11:33:37.92	346.03	7.98	
2025-01-08 11:33:38.75	345.88	8.00	
2025-01-08 11:33:39.57	345.73	8.02	
2025-01-08 11:33:40.40	345.57	8.04	
2025-01-08 11:33:41.23	345.42	8.06	
2025-01-08 11:33:42.05	345.27	8.07	
2025-01-08 11:33:42.87	345.12	8.09	
2025-01-08 11:33:43.69	344.97	8.11	
2025-01-08 11:33:44.51	344.82	8.13	
2025-01-08 11:33:45.33	344.67	8.15	
2025-01-08 11:33:46.15	344.52	8.16	
2025-01-08 11:33:46.97	344.36	8.18	
2025-01-08 11:33:47.79	344.21	8.20	
2025-01-08 11:33:48.61	344.06	8.21	
2025-01-08 11:33:49.43	343.91	8.23	
2025-01-08 11:33:50.25	343.75	8.25	
2025-01-08 11:33:51.08	343.60	8.26	
2025-01-08 11:33:51.90	343.45	8.28	
2025-01-08 11:33:52.72	343.29	8.29	
2025-01-08 11:33:53.54	343.14	8.31	
2025-01-08 11:33:54.37	342.99	8.33	
2025-01-08 11:33:55.18	342.83	8.34	
2025-01-08 11:33:56.00	342.68	8.36	
2025-01-08 11:33:56.84	342.52	8.37	
2025-01-08 11:33:57.66	342.37	8.39	
2025-01-08 11:33:58.48	342.21	8.40	
2025-01-08 11:33:59.29	342.06	8.41	
2025-01-08 11:34:00.12	341.90	8.43	
2025-01-08 11:34:00.94	341.75	8.44	
2025-01-08 11:34:01.76	341.59	8.46	
2025-01-08 11:34:02.58	341.44	8.47	
2025-01-08 11:34:03.40	341.28	8.48	
2025-01-08 11:34:04.23	341.13	8.50	
2025-01-08 11:34:05.05	340.97	8.51	
2025-01-08 11:34:05.87	340.82	8.52	
2025-01-08 11:34:06.69	340.66	8.54	
2025-01-08 11:34:07.52	340.50	8.55	
2025-01-08 11:34:08.34	340.34	8.56	
2025-01-08 11:34:09.16	340.19	8.57	
2025-01-08 11:34:09.98	340.03	8.59	
2025-01-08 11:34:10.80	339.88	8.60	
2025-01-08 11:34:11.63	339.72	8.61	
2025-01-08 11:34:12.45	339.56	8.62	
2025-01-08 11:34:13.27	339.40	8.63	
2025-01-08 11:34:14.09	339.24	8.64	
2025-01-08 11:34:14.92	339.09	8.66	
2025-01-08 11:34:15.75	338.93	8.67	
2025-01-08 11:34:16.57	338.77	8.68	
2025-01-08 11:34:17.39	338.61	8.69	
2025-01-08 11:34:18.20	338.45	8.70	
2025-01-08 11:34:19.02	338.30	8.71	
2025-01-08 11:34:19.84	338.14	8.72	
2025-01-08 11:34:20.66	337.98	8.73	
2025-01-08 11:34:21.48	337.82	8.74	
2025-01-08 11:34:22.31	337.66	8.75	
2025-01-08 11:34:23.13	337.50	8.75	
2025-01-08 11:34:23.95	337.34	8.76	
2025-01-08 11:34:24.77	337.19	8.77	
2025-01-08 11:34:25.59	337.03	8.78	
2025-01-08 11:34:26.41	336.87	8.79	
2025-01-08 11:34:27.23	336.71	8.80	
2025-01-08 11:34:28.05	336.55	8.80	
2025-01-08 11:34:28.88	336.39	8.81	
2025-01-08 11:34:29.70	336.23	8.82	
2025-01-08 11:34:30.52	336.07	8.83	
2025-01-08 11:34:31.35	335.91	8.83	
2025-01-08 11:34:32.17	335.75	8.84	
2025-01-08 11:34:33.00	335.59	8.85	
2025-01-08 11:34:33.82	335.43	8.85	
2025-01-08 11:34:34.64	335.27	8.86	
2025-01-08 11:34:35.46	335.11	8.87	
2025-01-08 11:34:36.28	334.95	8.87	
2025-01-08 11:34:37.12	334.78	8.88	
2025-01-08 11:34:37.93	334.62	8.88	
2025-01-08 11:34:38.76	334.46	8.89	
2025-01-08 11:34:39.58	334.30	8.89	
2025-01-08 11:34:40.40	334.14	8.90	
2025-01-08 11:34:41.22	333.98	8.90	
2025-01-08 11:34:42.06	333.82	8.91	
2025-01-08 11:34:42.89	333.65	8.91	
2025-01-08 11:34:43.71	333.49	8.92	
2025-01-08 11:34:44.54	333.33	8.92	
2025-01-08 11:34:45.35	333.17	8.93	
2025-01-08 11:34:46.17	333.01	8.93	
2025-01-08 11:34:46.99	332.85	8.93	
2025-01-08 11:34:47.81	332.69	8.94	
2025-01-08 11:34:48.63	332.53	8.94	
2025-01-08 11:34:49.45	332.37	8.94	
2025-01-08 11:34:50.27	332.21	8.94	
2025-01-08 11:34:51.10	332.04	8.95	
2025-01-08 11:34:51.92	331.88	8.95	
2025-01-08 11:34:52.74	331.72	8.95	
2025-01-08 11:34:53.57	331.56	8.95	
2025-01-08 11:34:54.39	331.40	8.95	
2025-01-08 11:34:55.21	331.24	8.95	
2025-01-08 11:34:56.03	331.08	8.96	
2025-01-08 11:34:56.85	330.91	8.96	
2025-01-08 11:34:57.68	330.75	8.96	
2025-01-08 11:34:58.50	330.59	8.96	
2025-01-08 11:34:59.32	330.43	8.96	
2025-01-08 11:35:00.14	330.27	8.96	
2025-01-08 11:35:00.96	330.11	8.96	
2025-01-08 11:35:01.78	329.95	8.96	
2025-01-08 11:35:02.60	329.78	8.96	
2025-01-08 11:35:03.43	329.62	8.96	
2025-01-08 11:35:04.24	329.46	8.96	
2025-01-08 11:35:05.06	329.30	8.95	
2025-01-08 11:35:05.89	329.14	8.95	
2025-01-08 11:35:06.72	328.97	8.95	
2025-01-08 11:35:07.54	328.81	8.95	
2025-01-08 11:35:08.36	328.65	8.95	
2025-01-08 11:35:09.19	328.49	8.95	
2025-01-08 11:35:10.01	328.33	8.94	
2025-01-08 11:35:10.83	328.17	8.94	
2025-01-08 11:35:11.65	328.01	8.94	
2025-01-08 11:35:12.47	327.85	8.93	
2025-01-08 11:35:13.29	327.68	8.93	
2025-01-08 11:35:14.11	327.52	8.93	
2025-01-08 11:35:14.93	327.36	8.92	
2025-01-08 11:35:15.75	327.20	8.92	
2025-01-08 11:35:16.57	327.04	8.92	
2025-01-08 11:35:17.39	326.88	8.91	
2025-01-08 11:35:18.24	326.71	8.91	
2025-01-08 11:35:19.06	326.55	8.90	
2025-01-08 11:35:19.89	326.39	8.90	
2025-01-08 11:35:20.72	326.23	8.89	
2025-01-08 11:35:21.55	326.07	8.89	
2025-01-08 11:35:22.37	325.91	8.88	
2025-01-08 11:35:23.19	325.75	8.88	
2025-01-08 11:35:24.01	325.59	8.87	
2025-01-08 11:35:24.83	325.43	8.87	
2025-01-08 11:35:25.65	325.27	8.86	
2025-01-08 11:35:26.48	325.10	8.85	
2025-01-08 11:35:27.31	324.94	8.85	
2025-01-08 11:35:28.15	324.78	8.84	
2025-01-08 11:35:28.97	324.62	8.83	
2025-01-08 11:35:29.79	324.46	8.83	
2025-01-08 11:35:30.61	324.30	8.82	
2025-01-08 11:35:31.43	324.14	8.81	
2025-01-08 11:35:32.25	323.98	8.80	
2025-01-08 11:35:33.07	323.82	8.79	
2025-01-08 11:35:33.89	323.66	8.79	
2025-01-08 11:35:34.71	323.50	8.78	
2025-01-08 11:35:35.54	323.34	8.77	
2025-01-08 11:35:36.36	323.18	8.76	
2025-01-08 11:35:37.19	323.02	8.75	
2025-01-08 11:35:38.01	322.86	8.74	
2025-01-08 11:35:38.83	322.70	8.73	
2025-01-08 11:35:39.65	322.55	8.72	
2025-01-08 11:35:40.47	322.39	8.71	
2025-01-08 11:35:41.31	322.23	8.70	
2025-01-08 11:35:42.14	322.07	8.69	
2025-01-08 11:35:42.97	321.91	8.68	
2025-01-08 11:35:43.78	321.75	8.67	
2025-01-08 11:35:44.61	321.59	8.66	
2025-01-08 11:35:45.43	321.43	8.65	
2025-01-08 11:35:46.25	321.27	8.64	
2025-01-08 11:35:47.07	321.12	8.63	
2025-01-08 11:35:47.89	320.96	8.62	
2025-01-08 11:35:48.71	320.80	8.61	
2025-01-08 11:35:49.54	320.64	8.59	
2025-01-08 11:35:50.36	320.49	8.58	
2025-01-08 11:35:51.18	320.33	8.57	
2025-01-08 11:35:52.00	320.17	8.56	
2025-01-08 11:35:52.82	320.02	8.55	
2025-01-08 11:35:53.65	319.86	8.53	
2025-01-08 11:35:54.47	319.70	8.52	
2025-01-08 11:35:55.29	319.55	8.51	
2025-01-08 11:35:56.11	319.39	8.49	
2025-01-08 11:35:56.93	319.24	8.48	
2025-01-08 11:35:57.77	319.08	8.47	
2025-01-08 11:35:58.59	318.92	8.45	
2025-01-08 11:35:59.43	318.76	8.44	
2025-01-08 11:36:00.26	318.61	8.42	
2025-01-08 11:36:01.08	318.45	8.41	
2025-01-08 11:36:01.90	318.30	8.39	
2025-01-08 11:36:02.72	318.14	8.38	
2025-01-08 11:36:03.54	317.99	8.36	
2025-01-08 11:36:04.36	317.83	8.35	
2025-01-08 11:36:05.18	317.68	8.33	
2025-01-08 11:36:06.01	317.52	8.32	
2025-01-08 11:36:06.83	317.37	8.30	
2025-01-08 11:36:07.65	317.22	8.29	
2025-01-08 11:36:08.47	317.06	8.27	
2025-01-08 11:36:09.29	316.91	8.26	
2025-01-08 11:36:10.11	316.76	8.24	
2025-01-08 11:36:10.94	316.60	8.22	
2025-01-08 11:36:11.77	316.45	8.21	
2025-01-08 11:36:12.59	316.30	8.19	
2025-01-08 11:36:13.43	316.14	8.17	
2025-01-08 11:36:14.25	315.99	8.16	
2025-01-08 11:36:15.06	315.84	8.14	
2025-01-08 11:36:15.88	315.69	8.12	
2025-01-08 11:36:16.71	315.53	8.10	
2025-01-08 11:36:17.53	315.38	8.09	
2025-01-08 11:36:18.35	315.23	8.07	
2025-01-08 11:36:19.17	315.08	8.05	
2025-01-08 11:36:19.99	314.93	8.03	
2025-01-08 11:36:20.82	314.78	8.01	
2025-01-08 11:36:21.64	314.63	7.99	
2025-01-08 11:36:22.47	314.48	7.97	
2025-01-08 11:36:23.29	314.33	7.96	
2025-01-08 11:36:24.11	314.18	7.94	
2025-01-08 11:36:24.93	314.03	7.92	
2025-01-08 11:36:25.75	313.88	7.90	
2025-01-08 11:36:26.57	313.73	7.88	
2025-01-08 11:36:27.39	313.58	7.86	
2025-01-08 11:36:28.21	313.43	7.84	
2025-01-08 11:36:29.03	313.28	7.82	
2025-01-08 11:36:29.85	313.14	7.80	
2025-01-08 11:36:30.67	312.99	7.78	
2025-01-08 11:36:31.50	312.84	7.76	
2025-01-08 11:36:32.32	312.69	7.74	
2025-01-08 11:36:33.14	312.55	7.72	
2025-01-08 11:36:33.96	312.40	7.70	
2025-01-08 11:36:34.78	312.25	7.68	
2025-01-08 11:36:35.60	312.11	7.65	
2025-01-08 11:36:36.42	311.96	7.63	
2025-01-08 11:36:37.24	311.81	7.61	
2025-01-08 11:36:38.07	311.67	7.59	
2025-01-08 11:36:38.89	311.52	7.57	
2025-01-08 11:36:39.71	311.38	7.55	
2025-01-08 11:36:40.53	311.23	7.52	
2025-01-08 11:36:41.35	311.09	7.50	
2025-01-08 11:36:42.17	310.94	7.48	
2025-01-08 11:36:42.99	310.80	7.46	
2025-01-08 11:36:43.81	310.65	7.43	
2025-01-08 11:36:44.65	310.51	7.41	
2025-01-08 11:36:45.47	310.36	7.39	
2025-01-08 11:36:46.29	310.22	7.37	
2025-01-08 11:36:47.11	310.08	7.34	
2025-01-08 11:36:47.93	309.93	7.32	
2025-01-08 11:36:48.76	309.79	7.30	
2025-01-08 11:36:49.58	309.65	7.27	
2025-01-08 11:36:50.40	309.50	7.25	
2025-01-08 11:36:51.22	309.36	7.22	
2025-01-08 11:36:52.04	309.22	7.20	
2025-01-08 11:36:52.86	309.08	7.18	
2025-01-08 11:36:53.69	308.94	7.15	
2025-01-08 11:36:54.53	308.79	7.13	
2025-01-08 11:36:55.35	308.65	7.10	
2025-01-08 11:36:56.17	308.51	7.08	
2025-01-08 11:36:56.99	308.37	7.05	
2025-01-08 11:36:57.81	308.23	7.03	
2025-01-08 11:36:58.63	308.09	7.00	
2025-01-08 11:36:59.45	307.95	6.98	
2025-01-08 11:37:00.26	307.82	6.95	
2025-01-08 11:37:01.09	307.68	6.93	
2025-01-08 11:37:01.91	307.54	6.90	
2025-01-08 11:37:02.73	307.40	6.88	
2025-01-08 11:37:03.57	307.26	6.85	
2025-01-08 11:37:04.39	307.12	6.83	
2025-01-08 11:37:05.22	306.98	6.80	
2025-01-08 11:37:06.04	306.85	6.77	
2025-01-08 11:37:06.86	306.71	6.75	
2025-01-08 11:37:07.69	306.57	6.72	
2025-01-08 11:37:08.52	306.43	6.69	
2025-01-08 11:37:09.33	306.30	6.67	
2025-01-08 11:37:10.16	306.16	6.64	
2025-01-08 11:37:10.98	306.03	6.61	
2025-01-08 11:37:11.80	305.89	6.59	
2025-01-08 11:37:12.62	305.76	6.56	
2025-01-08 11:37:13.44	305.62	6.53	
2025-01-08 11:37:14.26	305.49	6.51	
2025-01-08 11:37:15.08	305.35	6.48	
2025-01-08 11:37:15.90	305.22	6.45	
2025-01-08 11:37:16.73	305.09	6.42	
2025-01-08 11:37:17.56	304.95	6.40	
2025-01-08 11:37:18.38	304.82	6.37	
2025-01-08 11:37:19.20	304.68	6.34	
2025-01-08 11:37:20.02	304.55	6.31	
2025-01-08 11:37:20.85	304.42	6.29	
2025-01-08 11:37:21.67	304.29	6.26	
2025-01-08 11:37:22.50	304.15	6.23	
2025-01-08 11:37:23.32	304.02	6.20	
2025-01-08 11:37:24.14	303.89	6.17	
2025-01-08 11:37:24.96	303.76	6.14	
2025-01-08 11:37:25.78	303.63	6.12	
2025-01-08 11:37:26.63	303.50	6.09	
2025-01-08 11:37:27.45	303.37	6.06	
2025-01-08 11:37:28.28	303.24	6.03	
2025-01-08 11:37:29.10	303.11	6.00	
2025-01-08 11:37:29.92	302.98	5.97	
2025-01-08 11:37:30.74	302.85	5.94	
2025-01-08 11:37:31.56	302.72	5.91	
2025-01-08 11:37:32.38	302.59	5.88	
2025-01-08 11:37:33.20	302.46	5.85	
2025-01-08 11:37:34.02	302.34	5.82	
2025-01-08 11:37:34.85	302.21	5.79	
2025-01-08 11:37:35.67	302.08	5.76	
2025-01-08 11:37:36.49	301.95	5.74	
2025-01-08 11:37:37.31	301.83	5.71	
2025-01-08 11:37:38.13	301.70	5.68	
2025-01-08 11:37:38.95	301.58	5.65	
2025-01-08 11:37:39.77	301.45	5.62	
2025-01-08 11:37:40.59	301.32	5.59	
2025-01-08 11:37:41.41	301.20	5.56	
2025-01-08 11:37:42.23	301.08	5.53	
2025-01-08 11:37:43.05	300.95	5.50	
2025-01-08 11:37:43.87	300.83	5.46	
2025-01-08 11:37:44.71	300.70	5.43	
2025-01-08 11:37:45.53	300.58	5.40	
2025-01-08 11:37:46.35	300.45	5.37	
2025-01-08 11:37:47.17	300.33	5.34	
2025-01-08 11:37:48.00	300.21	5.31	
2025-01-08 11:37:48.82	300.08	5.28	
2025-01-08 11:37:49.65	299.96	5.25	
2025-01-08 11:37:50.47	299.84	5.22	
2025-01-08 11:37:51.29	299.72	5.19	
2025-01-08 11:37:52.11	299.60	5.16	
2025-01-08 11:37:52.93	299.47	5.12	
2025-01-08 11:37:53.75	299.35	5.09	
2025-01-08 11:37:54.57	299.23	5.06	
2025-01-08 11:37:55.39	299.11	5.03	
2025-01-08 11:37:56.21	298.99	5.00	
2025-01-08 11:37:57.03	298.87	4.97	
2025-01-08 11:37:57.85	298.75	4.94	
2025-01-08 11:37:58.69	298.63	4.90	
2025-01-08 11:37:59.51	298.51	4.87	
2025-01-08 11:38:00.33	298.40	4.84	
2025-01-08 11:38:01.15	298.28	4.81	
2025-01-08 11:38:01.98	298.16	4.77	
2025-01-08 11:38:02.80	298.04	4.74	
2025-01-08 11:38:03.62	297.92	4.71	
2025-01-08 11:38:04.44	297.81	4.68	
2025-01-08 11:38:05.28	297.69	4.65	
2025-01-08 11:38:06.10	297.57	4.61	
2025-01-08 11:38:06.92	297.45	4.58	
2025-01-08 11:38:07.74	297.34	4.55	
2025-01-08 11:38:08.56	297.22	4.52	
2025-01-08 11:38:09.38	297.11	4.48	
2025-01-08 11:38:10.20	296.99	4.45	
2025-01-08 11:38:11.03	296.88	4.42	
2025-01-08 11:38:11.85	296.76	4.39	
2025-01-08 11:38:12.67	296.65	4.35	
2025-01-08 11:38:13.49	296.53	4.32	
2025-01-08 11:38:14.31	296.42	4.29	
2025-01-08 11:38:15.13	296.31	4.25	
2025-01-08 11:38:15.94	296.20	4.22	
2025-01-08 11:38:16.77	296.08	4.19	
2025-01-08 11:38:17.59	295.97	4.16	
2025-01-08 11:38:18.41	295.86	4.12	
2025-01-08 11:38:19.23	295.75	4.09	
2025-01-08 11:38:20.05	295.63	4.06	
2025-01-08 11:38:20.87	295.52	4.02	

#Closed at: 2025-01-08 11:38:21