passes_logs/2025/01/08/SPB_Silybum_02/SPB_Silybum_02__20250108_072010_SUOMI_NPP_rec.log

#Pass ID: 20250108_072010_SUOMI NPP
#Satellite: SUOMI NPP
#Configuration: NPP
#Start time: 2025-01-08 07:20:09

#Version: 2.0.20230423
#Station: SPB_Silybum_02
#Location: 30.233357 lon 59.946436 lat
#TLE: 1 37849U 11061A   25007.80086614  .00000261  00000+0  14474-3 0  9998
#TLE: 2 37849  98.7439 308.8810 0001922  51.6815 308.4534 14.19534813683891

#Time	Az	El	Level	Level2	SNR	BER	Gain	Gain2
2025-01-08 07:20:11.19	74.93	4.03	
2025-01-08 07:20:12.22	74.82	4.08	
2025-01-08 07:20:13.26	74.72	4.13	
2025-01-08 07:20:14.28	74.61	4.18	
2025-01-08 07:20:15.32	74.50	4.23	
2025-01-08 07:20:16.37	74.39	4.28	
2025-01-08 07:20:17.41	74.27	4.33	
2025-01-08 07:20:18.43	74.16	4.38	
2025-01-08 07:20:19.46	74.05	4.43	
2025-01-08 07:20:20.48	73.94	4.48	
2025-01-08 07:20:21.51	73.83	4.53	
2025-01-08 07:20:22.55	73.72	4.58	
2025-01-08 07:20:23.58	73.61	4.63	
2025-01-08 07:20:24.60	73.49	4.68	
2025-01-08 07:20:25.64	73.38	4.73	
2025-01-08 07:20:26.66	73.27	4.78	
2025-01-08 07:20:27.71	73.15	4.83	
2025-01-08 07:20:28.74	73.04	4.88	
2025-01-08 07:20:29.76	72.92	4.93	
2025-01-08 07:20:30.79	72.81	4.98	
2025-01-08 07:20:31.82	72.69	5.03	
2025-01-08 07:20:32.84	72.58	5.07	
2025-01-08 07:20:33.89	72.46	5.12	
2025-01-08 07:20:34.91	72.34	5.17	
2025-01-08 07:20:35.94	72.23	5.22	
2025-01-08 07:20:36.96	72.11	5.27	
2025-01-08 07:20:37.99	71.99	5.32	
2025-01-08 07:20:39.01	71.87	5.37	
2025-01-08 07:20:40.04	71.76	5.42	
2025-01-08 07:20:41.06	71.64	5.47	
2025-01-08 07:20:42.09	71.52	5.52	
2025-01-08 07:20:43.11	71.40	5.57	
2025-01-08 07:20:44.15	71.28	5.62	
2025-01-08 07:20:45.17	71.16	5.66	
2025-01-08 07:20:46.22	71.03	5.71	
2025-01-08 07:20:47.24	70.91	5.76	
2025-01-08 07:20:48.27	70.79	5.81	
2025-01-08 07:20:49.29	70.67	5.86	
2025-01-08 07:20:50.32	70.55	5.91	
2025-01-08 07:20:51.35	70.42	5.96	
2025-01-08 07:20:52.39	70.30	6.01	
2025-01-08 07:20:53.42	70.18	6.06	
2025-01-08 07:20:54.44	70.05	6.11	
2025-01-08 07:20:55.46	69.93	6.15	
2025-01-08 07:20:56.49	69.80	6.20	
2025-01-08 07:20:57.52	69.68	6.25	
2025-01-08 07:20:58.56	69.55	6.30	
2025-01-08 07:20:59.58	69.42	6.35	
2025-01-08 07:21:00.62	69.29	6.40	
2025-01-08 07:21:01.65	69.17	6.45	
2025-01-08 07:21:02.68	69.04	6.49	
2025-01-08 07:21:03.70	68.91	6.54	
2025-01-08 07:21:04.73	68.78	6.59	
2025-01-08 07:21:05.76	68.65	6.64	
2025-01-08 07:21:06.78	68.52	6.69	
2025-01-08 07:21:07.81	68.39	6.74	
2025-01-08 07:21:08.85	68.26	6.78	
2025-01-08 07:21:09.89	68.13	6.83	
2025-01-08 07:21:10.91	68.00	6.88	
2025-01-08 07:21:11.94	67.87	6.93	
2025-01-08 07:21:12.96	67.74	6.98	
2025-01-08 07:21:13.98	67.60	7.02	
2025-01-08 07:21:15.01	67.47	7.07	
2025-01-08 07:21:16.04	67.34	7.12	
2025-01-08 07:21:17.07	67.20	7.17	
2025-01-08 07:21:18.09	67.07	7.22	
2025-01-08 07:21:19.12	66.93	7.26	
2025-01-08 07:21:20.14	66.80	7.31	
2025-01-08 07:21:21.17	66.66	7.36	
2025-01-08 07:21:22.19	66.53	7.41	
2025-01-08 07:21:23.21	66.39	7.45	
2025-01-08 07:21:24.24	66.26	7.50	
2025-01-08 07:21:25.27	66.12	7.55	
2025-01-08 07:21:26.29	65.98	7.59	
2025-01-08 07:21:27.32	65.84	7.64	
2025-01-08 07:21:28.35	65.70	7.69	
2025-01-08 07:21:29.37	65.56	7.74	
2025-01-08 07:21:30.40	65.42	7.78	
2025-01-08 07:21:31.43	65.28	7.83	
2025-01-08 07:21:32.46	65.14	7.88	
2025-01-08 07:21:33.49	65.00	7.92	
2025-01-08 07:21:34.51	64.86	7.97	
2025-01-08 07:21:35.54	64.72	8.02	
2025-01-08 07:21:36.57	64.58	8.06	
2025-01-08 07:21:37.59	64.43	8.11	
2025-01-08 07:21:38.62	64.29	8.15	
2025-01-08 07:21:39.64	64.15	8.20	
2025-01-08 07:21:40.69	64.00	8.25	
2025-01-08 07:21:41.71	63.86	8.29	
2025-01-08 07:21:42.74	63.71	8.34	
2025-01-08 07:21:43.76	63.56	8.38	
2025-01-08 07:21:44.79	63.42	8.43	
2025-01-08 07:21:45.83	63.27	8.48	
2025-01-08 07:21:46.85	63.12	8.52	
2025-01-08 07:21:47.88	62.98	8.57	
2025-01-08 07:21:48.90	62.83	8.61	
2025-01-08 07:21:49.93	62.68	8.66	
2025-01-08 07:21:50.96	62.53	8.70	
2025-01-08 07:21:51.98	62.38	8.75	
2025-01-08 07:21:53.01	62.23	8.79	
2025-01-08 07:21:54.04	62.08	8.84	
2025-01-08 07:21:55.06	61.93	8.88	
2025-01-08 07:21:56.09	61.78	8.93	
2025-01-08 07:21:57.12	61.63	8.97	
2025-01-08 07:21:58.14	61.47	9.02	
2025-01-08 07:21:59.18	61.32	9.06	
2025-01-08 07:22:00.21	61.17	9.10	
2025-01-08 07:22:01.24	61.01	9.15	
2025-01-08 07:22:02.27	60.86	9.19	
2025-01-08 07:22:03.29	60.70	9.24	
2025-01-08 07:22:04.32	60.55	9.28	
2025-01-08 07:22:05.35	60.39	9.32	
2025-01-08 07:22:06.37	60.24	9.37	
2025-01-08 07:22:07.40	60.08	9.41	
2025-01-08 07:22:08.43	59.92	9.45	
2025-01-08 07:22:09.45	59.77	9.50	
2025-01-08 07:22:10.48	59.61	9.54	
2025-01-08 07:22:11.51	59.45	9.58	
2025-01-08 07:22:12.53	59.29	9.62	
2025-01-08 07:22:13.56	59.13	9.67	
2025-01-08 07:22:14.59	58.97	9.71	
2025-01-08 07:22:15.63	58.81	9.75	
2025-01-08 07:22:16.65	58.65	9.79	
2025-01-08 07:22:17.67	58.49	9.83	
2025-01-08 07:22:18.70	58.33	9.88	
2025-01-08 07:22:19.73	58.16	9.92	
2025-01-08 07:22:20.75	58.00	9.96	
2025-01-08 07:22:21.78	57.84	10.00	
2025-01-08 07:22:22.81	57.67	10.04	
2025-01-08 07:22:23.84	57.51	10.08	
2025-01-08 07:22:24.86	57.35	10.12	
2025-01-08 07:22:25.90	57.18	10.16	
2025-01-08 07:22:26.95	57.01	10.21	
2025-01-08 07:22:27.99	56.84	10.25	
2025-01-08 07:22:29.01	56.68	10.29	
2025-01-08 07:22:30.04	56.51	10.33	
2025-01-08 07:22:31.06	56.34	10.37	
2025-01-08 07:22:32.09	56.18	10.41	
2025-01-08 07:22:33.12	56.01	10.45	
2025-01-08 07:22:34.16	55.84	10.48	
2025-01-08 07:22:35.19	55.67	10.52	
2025-01-08 07:22:36.22	55.50	10.56	
2025-01-08 07:22:37.24	55.33	10.60	
2025-01-08 07:22:38.28	55.16	10.64	
2025-01-08 07:22:39.31	54.98	10.68	
2025-01-08 07:22:40.33	54.81	10.72	
2025-01-08 07:22:41.35	54.64	10.75	
2025-01-08 07:22:42.38	54.47	10.79	
2025-01-08 07:22:43.41	54.30	10.83	
2025-01-08 07:22:44.44	54.12	10.87	
2025-01-08 07:22:45.46	53.95	10.90	
2025-01-08 07:22:46.49	53.78	10.94	
2025-01-08 07:22:47.51	53.60	10.98	
2025-01-08 07:22:48.54	53.43	11.01	
2025-01-08 07:22:49.58	53.25	11.05	
2025-01-08 07:22:50.61	53.07	11.09	
2025-01-08 07:22:51.64	52.90	11.12	
2025-01-08 07:22:52.66	52.72	11.16	
2025-01-08 07:22:53.69	52.54	11.20	
2025-01-08 07:22:54.72	52.36	11.23	
2025-01-08 07:22:55.74	52.19	11.27	
2025-01-08 07:22:56.77	52.01	11.30	
2025-01-08 07:22:57.80	51.83	11.34	
2025-01-08 07:22:58.83	51.65	11.37	
2025-01-08 07:22:59.86	51.47	11.40	
2025-01-08 07:23:00.89	51.29	11.44	
2025-01-08 07:23:01.92	51.11	11.47	
2025-01-08 07:23:02.94	50.93	11.51	
2025-01-08 07:23:03.97	50.75	11.54	
2025-01-08 07:23:05.00	50.56	11.57	
2025-01-08 07:23:06.03	50.38	11.60	
2025-01-08 07:23:07.05	50.20	11.64	
2025-01-08 07:23:08.08	50.02	11.67	
2025-01-08 07:23:09.10	49.83	11.70	
2025-01-08 07:23:10.13	49.65	11.73	
2025-01-08 07:23:11.16	49.46	11.77	
2025-01-08 07:23:12.18	49.28	11.80	
2025-01-08 07:23:13.21	49.10	11.83	
2025-01-08 07:23:14.24	48.91	11.86	
2025-01-08 07:23:15.27	48.72	11.89	
2025-01-08 07:23:16.30	48.54	11.92	
2025-01-08 07:23:17.32	48.35	11.95	
2025-01-08 07:23:18.35	48.16	11.98	
2025-01-08 07:23:19.38	47.98	12.01	
2025-01-08 07:23:20.41	47.79	12.04	
2025-01-08 07:23:21.43	47.60	12.07	
2025-01-08 07:23:22.46	47.41	12.10	
2025-01-08 07:23:23.48	47.22	12.12	
2025-01-08 07:23:24.51	47.03	12.15	
2025-01-08 07:23:25.53	46.85	12.18	
2025-01-08 07:23:26.55	46.66	12.21	
2025-01-08 07:23:27.58	46.47	12.24	
2025-01-08 07:23:28.61	46.27	12.26	
2025-01-08 07:23:29.63	46.08	12.29	
2025-01-08 07:23:30.66	45.89	12.32	
2025-01-08 07:23:31.68	45.70	12.34	
2025-01-08 07:23:32.71	45.51	12.37	
2025-01-08 07:23:33.74	45.32	12.39	
2025-01-08 07:23:34.76	45.13	12.42	
2025-01-08 07:23:35.79	44.93	12.44	
2025-01-08 07:23:36.82	44.74	12.47	
2025-01-08 07:23:37.84	44.55	12.49	
2025-01-08 07:23:38.87	44.35	12.52	
2025-01-08 07:23:39.89	44.16	12.54	
2025-01-08 07:23:40.91	43.96	12.56	
2025-01-08 07:23:41.94	43.77	12.59	
2025-01-08 07:23:42.96	43.57	12.61	
2025-01-08 07:23:43.99	43.38	12.63	
2025-01-08 07:23:45.02	43.18	12.66	
2025-01-08 07:23:46.06	42.98	12.68	
2025-01-08 07:23:47.08	42.79	12.70	
2025-01-08 07:23:48.11	42.59	12.72	
2025-01-08 07:23:49.14	42.39	12.74	
2025-01-08 07:23:50.16	42.20	12.76	
2025-01-08 07:23:51.19	42.00	12.78	
2025-01-08 07:23:52.22	41.80	12.80	
2025-01-08 07:23:53.26	41.60	12.82	
2025-01-08 07:23:54.28	41.40	12.84	
2025-01-08 07:23:55.31	41.20	12.86	
2025-01-08 07:23:56.33	41.01	12.88	
2025-01-08 07:23:57.36	40.81	12.90	
2025-01-08 07:23:58.40	40.60	12.92	
2025-01-08 07:23:59.44	40.40	12.94	
2025-01-08 07:24:00.48	40.20	12.96	
2025-01-08 07:24:01.51	40.00	12.97	
2025-01-08 07:24:02.54	39.80	12.99	
2025-01-08 07:24:03.57	39.60	13.01	
2025-01-08 07:24:04.59	39.40	13.02	
2025-01-08 07:24:05.62	39.20	13.04	
2025-01-08 07:24:06.65	38.99	13.05	
2025-01-08 07:24:07.67	38.79	13.07	
2025-01-08 07:24:08.70	38.59	13.08	
2025-01-08 07:24:09.72	38.39	13.10	
2025-01-08 07:24:10.75	38.19	13.11	
2025-01-08 07:24:11.79	37.98	13.13	
2025-01-08 07:24:12.82	37.78	13.14	
2025-01-08 07:24:13.85	37.58	13.15	
2025-01-08 07:24:14.88	37.37	13.17	
2025-01-08 07:24:15.92	37.17	13.18	
2025-01-08 07:24:16.95	36.96	13.19	
2025-01-08 07:24:17.98	36.76	13.20	
2025-01-08 07:24:19.01	36.56	13.21	
2025-01-08 07:24:20.04	36.35	13.23	
2025-01-08 07:24:21.07	36.15	13.24	
2025-01-08 07:24:22.09	35.94	13.25	
2025-01-08 07:24:23.12	35.74	13.26	
2025-01-08 07:24:24.15	35.53	13.27	
2025-01-08 07:24:25.18	35.33	13.28	
2025-01-08 07:24:26.20	35.13	13.28	
2025-01-08 07:24:27.23	34.92	13.29	
2025-01-08 07:24:28.26	34.72	13.30	
2025-01-08 07:24:29.28	34.51	13.31	
2025-01-08 07:24:30.31	34.31	13.32	
2025-01-08 07:24:31.34	34.10	13.32	
2025-01-08 07:24:32.37	33.89	13.33	
2025-01-08 07:24:33.41	33.69	13.34	
2025-01-08 07:24:34.43	33.48	13.34	
2025-01-08 07:24:35.46	33.28	13.35	
2025-01-08 07:24:36.49	33.07	13.35	
2025-01-08 07:24:37.51	32.87	13.36	
2025-01-08 07:24:38.54	32.66	13.36	
2025-01-08 07:24:39.57	32.45	13.37	
2025-01-08 07:24:40.59	32.25	13.37	
2025-01-08 07:24:41.61	32.05	13.37	
2025-01-08 07:24:42.65	31.84	13.38	
2025-01-08 07:24:43.69	31.63	13.38	
2025-01-08 07:24:44.71	31.42	13.38	
2025-01-08 07:24:45.74	31.22	13.39	
2025-01-08 07:24:46.77	31.01	13.39	
2025-01-08 07:24:47.80	30.80	13.39	
2025-01-08 07:24:48.82	30.60	13.39	
2025-01-08 07:24:49.85	30.39	13.39	
2025-01-08 07:24:50.88	30.19	13.39	
2025-01-08 07:24:51.90	29.98	13.39	
2025-01-08 07:24:52.93	29.78	13.39	
2025-01-08 07:24:53.95	29.57	13.39	
2025-01-08 07:24:55.00	29.36	13.39	
2025-01-08 07:24:56.04	29.15	13.39	
2025-01-08 07:24:57.06	28.95	13.38	
2025-01-08 07:24:58.09	28.74	13.38	
2025-01-08 07:24:59.11	28.54	13.38	
2025-01-08 07:25:00.14	28.33	13.38	
2025-01-08 07:25:01.17	28.12	13.37	
2025-01-08 07:25:02.20	27.92	13.37	
2025-01-08 07:25:03.22	27.71	13.36	
2025-01-08 07:25:04.24	27.51	13.36	
2025-01-08 07:25:05.27	27.30	13.35	
2025-01-08 07:25:06.29	27.10	13.35	
2025-01-08 07:25:07.32	26.89	13.34	
2025-01-08 07:25:08.36	26.68	13.34	
2025-01-08 07:25:09.39	26.48	13.33	
2025-01-08 07:25:10.42	26.27	13.32	
2025-01-08 07:25:11.44	26.07	13.32	
2025-01-08 07:25:12.47	25.86	13.31	
2025-01-08 07:25:13.50	25.66	13.30	
2025-01-08 07:25:14.52	25.46	13.29	
2025-01-08 07:25:15.55	25.25	13.29	
2025-01-08 07:25:16.59	25.04	13.28	
2025-01-08 07:25:17.62	24.84	13.27	
2025-01-08 07:25:18.65	24.63	13.26	
2025-01-08 07:25:19.67	24.43	13.25	
2025-01-08 07:25:20.70	24.23	13.24	
2025-01-08 07:25:21.72	24.02	13.23	
2025-01-08 07:25:22.75	23.82	13.22	
2025-01-08 07:25:23.78	23.62	13.20	
2025-01-08 07:25:24.80	23.41	13.19	
2025-01-08 07:25:25.83	23.21	13.18	
2025-01-08 07:25:26.86	23.01	13.17	
2025-01-08 07:25:27.88	22.81	13.16	
2025-01-08 07:25:28.90	22.60	13.14	
2025-01-08 07:25:29.93	22.40	13.13	
2025-01-08 07:25:30.96	22.20	13.12	
2025-01-08 07:25:31.99	22.00	13.10	
2025-01-08 07:25:33.02	21.79	13.09	
2025-01-08 07:25:34.05	21.59	13.07	
2025-01-08 07:25:35.07	21.39	13.06	
2025-01-08 07:25:36.10	21.19	13.04	
2025-01-08 07:25:37.13	20.99	13.03	
2025-01-08 07:25:38.16	20.79	13.01	
2025-01-08 07:25:39.18	20.59	12.99	
2025-01-08 07:25:40.21	20.39	12.98	
2025-01-08 07:25:41.24	20.19	12.96	
2025-01-08 07:25:42.25	19.99	12.94	
2025-01-08 07:25:43.28	19.79	12.92	
2025-01-08 07:25:44.31	19.59	12.91	
2025-01-08 07:25:45.35	19.39	12.89	
2025-01-08 07:25:46.37	19.19	12.87	
2025-01-08 07:25:47.40	18.99	12.85	
2025-01-08 07:25:48.42	18.80	12.83	
2025-01-08 07:25:49.45	18.60	12.81	
2025-01-08 07:25:50.49	18.40	12.79	
2025-01-08 07:25:51.52	18.20	12.77	
2025-01-08 07:25:52.54	18.00	12.75	
2025-01-08 07:25:53.56	17.81	12.73	
2025-01-08 07:25:54.59	17.61	12.71	
2025-01-08 07:25:55.62	17.41	12.68	
2025-01-08 07:25:56.66	17.22	12.66	
2025-01-08 07:25:57.69	17.02	12.64	
2025-01-08 07:25:58.72	16.82	12.62	
2025-01-08 07:25:59.74	16.63	12.59	
2025-01-08 07:26:00.77	16.43	12.57	
2025-01-08 07:26:01.79	16.24	12.55	
2025-01-08 07:26:02.83	16.04	12.52	
2025-01-08 07:26:03.86	15.85	12.50	
2025-01-08 07:26:04.88	15.66	12.47	
2025-01-08 07:26:05.91	15.46	12.45	
2025-01-08 07:26:06.94	15.27	12.42	
2025-01-08 07:26:07.98	15.08	12.40	
2025-01-08 07:26:09.00	14.89	12.37	
2025-01-08 07:26:10.03	14.69	12.35	
2025-01-08 07:26:11.05	14.50	12.32	
2025-01-08 07:26:12.09	14.31	12.29	
2025-01-08 07:26:13.12	14.12	12.27	
2025-01-08 07:26:14.16	13.93	12.24	
2025-01-08 07:26:15.18	13.74	12.21	
2025-01-08 07:26:16.21	13.55	12.19	
2025-01-08 07:26:17.24	13.36	12.16	
2025-01-08 07:26:18.28	13.17	12.13	
2025-01-08 07:26:19.30	12.98	12.10	
2025-01-08 07:26:20.33	12.79	12.07	
2025-01-08 07:26:21.36	12.60	12.04	
2025-01-08 07:26:22.38	12.42	12.01	
2025-01-08 07:26:23.43	12.22	11.98	
2025-01-08 07:26:24.45	12.04	11.95	
2025-01-08 07:26:25.48	11.85	11.92	
2025-01-08 07:26:26.50	11.67	11.89	
2025-01-08 07:26:27.53	11.48	11.86	
2025-01-08 07:26:28.58	11.29	11.83	
2025-01-08 07:26:29.61	11.11	11.80	
2025-01-08 07:26:30.63	10.92	11.77	
2025-01-08 07:26:31.66	10.74	11.74	
2025-01-08 07:26:32.68	10.56	11.71	
2025-01-08 07:26:33.71	10.37	11.67	
2025-01-08 07:26:34.74	10.19	11.64	
2025-01-08 07:26:35.77	10.01	11.61	
2025-01-08 07:26:36.79	9.83	11.58	
2025-01-08 07:26:37.82	9.65	11.54	
2025-01-08 07:26:38.85	9.46	11.51	
2025-01-08 07:26:39.87	9.28	11.48	
2025-01-08 07:26:40.90	9.10	11.44	
2025-01-08 07:26:41.92	8.93	11.41	
2025-01-08 07:26:42.95	8.75	11.38	
2025-01-08 07:26:43.98	8.57	11.34	
2025-01-08 07:26:45.00	8.39	11.31	
2025-01-08 07:26:46.03	8.21	11.27	
2025-01-08 07:26:47.06	8.03	11.24	
2025-01-08 07:26:48.08	7.86	11.20	
2025-01-08 07:26:49.11	7.68	11.17	
2025-01-08 07:26:50.14	7.50	11.13	
2025-01-08 07:26:51.16	7.33	11.10	
2025-01-08 07:26:52.19	7.15	11.06	
2025-01-08 07:26:53.21	6.98	11.02	
2025-01-08 07:26:54.24	6.80	10.99	
2025-01-08 07:26:55.27	6.63	10.95	
2025-01-08 07:26:56.30	6.45	10.91	
2025-01-08 07:26:57.32	6.28	10.88	
2025-01-08 07:26:58.34	6.11	10.84	
2025-01-08 07:26:59.37	5.94	10.80	
2025-01-08 07:27:00.40	5.77	10.76	
2025-01-08 07:27:01.43	5.59	10.73	
2025-01-08 07:27:02.46	5.42	10.69	
2025-01-08 07:27:03.48	5.25	10.65	
2025-01-08 07:27:04.51	5.08	10.61	
2025-01-08 07:27:05.54	4.91	10.57	
2025-01-08 07:27:06.58	4.74	10.53	
2025-01-08 07:27:07.61	4.57	10.49	
2025-01-08 07:27:08.63	4.41	10.45	
2025-01-08 07:27:09.66	4.24	10.42	
2025-01-08 07:27:10.68	4.07	10.38	
2025-01-08 07:27:11.71	3.90	10.34	
2025-01-08 07:27:12.74	3.74	10.30	
2025-01-08 07:27:13.76	3.57	10.26	
2025-01-08 07:27:14.79	3.41	10.22	
2025-01-08 07:27:15.82	3.24	10.18	
2025-01-08 07:27:16.84	3.08	10.14	
2025-01-08 07:27:17.87	2.91	10.09	
2025-01-08 07:27:18.91	2.75	10.05	
2025-01-08 07:27:19.93	2.59	10.01	
2025-01-08 07:27:20.96	2.42	9.97	
2025-01-08 07:27:21.99	2.26	9.93	
2025-01-08 07:27:23.03	2.10	9.89	
2025-01-08 07:27:24.05	1.94	9.85	
2025-01-08 07:27:25.08	1.77	9.81	
2025-01-08 07:27:26.11	1.61	9.76	
2025-01-08 07:27:27.13	1.46	9.72	
2025-01-08 07:27:28.16	1.30	9.68	
2025-01-08 07:27:29.19	1.14	9.64	
2025-01-08 07:27:30.21	0.98	9.59	
2025-01-08 07:27:31.24	0.82	9.55	
2025-01-08 07:27:32.27	0.66	9.51	
2025-01-08 07:27:33.29	0.51	9.47	
2025-01-08 07:27:34.32	0.35	9.42	
2025-01-08 07:27:35.35	0.19	9.38	
2025-01-08 07:27:36.38	0.04	9.34	
2025-01-08 07:27:37.40	359.88	9.29	
2025-01-08 07:27:38.43	359.73	9.25	
2025-01-08 07:27:39.45	359.58	9.21	
2025-01-08 07:27:40.48	359.42	9.16	
2025-01-08 07:27:41.51	359.27	9.12	
2025-01-08 07:27:42.53	359.12	9.08	
2025-01-08 07:27:43.56	358.96	9.03	
2025-01-08 07:27:44.58	358.81	8.99	
2025-01-08 07:27:45.62	358.66	8.94	
2025-01-08 07:27:46.65	358.51	8.90	
2025-01-08 07:27:47.68	358.36	8.85	
2025-01-08 07:27:48.71	358.21	8.81	
2025-01-08 07:27:49.74	358.06	8.76	
2025-01-08 07:27:50.76	357.91	8.72	
2025-01-08 07:27:51.79	357.76	8.67	
2025-01-08 07:27:52.81	357.61	8.63	
2025-01-08 07:27:53.84	357.46	8.58	
2025-01-08 07:27:54.87	357.32	8.54	
2025-01-08 07:27:55.90	357.17	8.49	
2025-01-08 07:27:56.92	357.03	8.45	
2025-01-08 07:27:57.96	356.88	8.40	
2025-01-08 07:27:58.99	356.73	8.36	
2025-01-08 07:28:00.01	356.59	8.31	
2025-01-08 07:28:01.06	356.44	8.26	
2025-01-08 07:28:02.08	356.30	8.22	
2025-01-08 07:28:03.10	356.16	8.17	
2025-01-08 07:28:04.13	356.01	8.13	
2025-01-08 07:28:05.15	355.87	8.08	
2025-01-08 07:28:06.18	355.73	8.03	
2025-01-08 07:28:07.21	355.59	7.99	
2025-01-08 07:28:08.24	355.45	7.94	
2025-01-08 07:28:09.26	355.31	7.89	
2025-01-08 07:28:10.29	355.17	7.85	
2025-01-08 07:28:11.32	355.02	7.80	
2025-01-08 07:28:12.34	354.89	7.75	
2025-01-08 07:28:13.37	354.75	7.71	
2025-01-08 07:28:14.39	354.61	7.66	
2025-01-08 07:28:15.42	354.47	7.61	
2025-01-08 07:28:16.45	354.33	7.57	
2025-01-08 07:28:17.48	354.20	7.52	
2025-01-08 07:28:18.52	354.06	7.47	
2025-01-08 07:28:19.54	353.92	7.42	
2025-01-08 07:28:20.57	353.79	7.38	
2025-01-08 07:28:21.60	353.65	7.33	
2025-01-08 07:28:22.64	353.52	7.28	
2025-01-08 07:28:23.67	353.38	7.23	
2025-01-08 07:28:24.69	353.25	7.19	
2025-01-08 07:28:25.72	353.11	7.14	
2025-01-08 07:28:26.75	352.98	7.09	
2025-01-08 07:28:27.77	352.85	7.04	
2025-01-08 07:28:28.80	352.72	7.00	
2025-01-08 07:28:29.84	352.58	6.95	
2025-01-08 07:28:30.87	352.45	6.90	
2025-01-08 07:28:31.89	352.32	6.85	
2025-01-08 07:28:32.92	352.19	6.80	
2025-01-08 07:28:33.96	352.06	6.75	
2025-01-08 07:28:34.98	351.93	6.71	
2025-01-08 07:28:36.01	351.80	6.66	
2025-01-08 07:28:37.04	351.68	6.61	
2025-01-08 07:28:38.06	351.55	6.56	
2025-01-08 07:28:39.09	351.42	6.51	
2025-01-08 07:28:40.12	351.29	6.47	
2025-01-08 07:28:41.15	351.17	6.42	
2025-01-08 07:28:42.17	351.04	6.37	
2025-01-08 07:28:43.20	350.91	6.32	
2025-01-08 07:28:44.23	350.79	6.27	
2025-01-08 07:28:45.25	350.66	6.22	
2025-01-08 07:28:46.28	350.54	6.17	
2025-01-08 07:28:47.30	350.42	6.13	
2025-01-08 07:28:48.33	350.29	6.08	
2025-01-08 07:28:49.36	350.17	6.03	
2025-01-08 07:28:50.38	350.05	5.98	
2025-01-08 07:28:51.41	349.92	5.93	
2025-01-08 07:28:52.43	349.80	5.88	
2025-01-08 07:28:53.46	349.68	5.83	
2025-01-08 07:28:54.49	349.56	5.78	
2025-01-08 07:28:55.51	349.44	5.74	
2025-01-08 07:28:56.54	349.32	5.69	
2025-01-08 07:28:57.57	349.20	5.64	
2025-01-08 07:28:58.60	349.08	5.59	
2025-01-08 07:28:59.63	348.96	5.54	
2025-01-08 07:29:00.65	348.84	5.49	
2025-01-08 07:29:01.67	348.72	5.44	
2025-01-08 07:29:02.70	348.61	5.39	
2025-01-08 07:29:03.73	348.49	5.34	
2025-01-08 07:29:04.76	348.37	5.30	
2025-01-08 07:29:05.78	348.25	5.25	
2025-01-08 07:29:06.81	348.14	5.20	
2025-01-08 07:29:07.85	348.02	5.15	
2025-01-08 07:29:08.88	347.91	5.10	
2025-01-08 07:29:09.91	347.79	5.05	
2025-01-08 07:29:10.93	347.68	5.00	
2025-01-08 07:29:11.96	347.56	4.95	
2025-01-08 07:29:12.99	347.45	4.90	
2025-01-08 07:29:14.01	347.33	4.85	
2025-01-08 07:29:15.04	347.22	4.80	
2025-01-08 07:29:16.06	347.11	4.75	
2025-01-08 07:29:17.09	347.00	4.70	
2025-01-08 07:29:18.12	346.88	4.66	
2025-01-08 07:29:19.14	346.77	4.61	
2025-01-08 07:29:20.18	346.66	4.56	
2025-01-08 07:29:21.21	346.55	4.51	
2025-01-08 07:29:22.24	346.44	4.46	
2025-01-08 07:29:23.26	346.33	4.41	
2025-01-08 07:29:24.29	346.22	4.36	
2025-01-08 07:29:25.33	346.11	4.31	
2025-01-08 07:29:26.35	346.00	4.26	
2025-01-08 07:29:27.38	345.89	4.21	
2025-01-08 07:29:28.41	345.79	4.16	
2025-01-08 07:29:29.43	345.68	4.11	
2025-01-08 07:29:30.46	345.57	4.06	
2025-01-08 07:29:31.49	345.46	4.01	

#Closed at: 2025-01-08 07:29:31