passes_logs/2025/01/08/SPB_Silybum_02/SPB_Silybum_02__20250108_021504_AQUA_rec.log

#Pass ID: 20250108_021504_AQUA
#Satellite: AQUA
#Configuration: AQUA
#Start time: 2025-01-08 02:15:04

#Version: 2.0.20230423
#Station: SPB_Silybum_02
#Location: 30.233357 lon 59.946436 lat
#TLE: 1 27424U 02022A   25007.20663841  .00002684  00000+0  56113-3 0  9997
#TLE: 2 27424  98.3577 323.8011 0001408 118.8980 354.1988 14.60651824206481

#Time	Az	El	Level	Level2	SNR	BER	Gain	Gain2
2025-01-08 02:15:06.43	13.12	4.14	
2025-01-08 02:15:07.67	13.06	4.22	
2025-01-08 02:15:08.90	13.01	4.31	
2025-01-08 02:15:10.14	12.95	4.39	
2025-01-08 02:15:11.36	12.89	4.48	
2025-01-08 02:15:12.59	12.83	4.57	
2025-01-08 02:15:13.83	12.78	4.65	
2025-01-08 02:15:15.06	12.72	4.74	
2025-01-08 02:15:16.29	12.66	4.83	
2025-01-08 02:15:17.51	12.60	4.91	
2025-01-08 02:15:18.75	12.54	5.00	
2025-01-08 02:15:19.99	12.48	5.09	
2025-01-08 02:15:21.22	12.42	5.18	
2025-01-08 02:15:22.45	12.36	5.27	
2025-01-08 02:15:23.69	12.29	5.36	
2025-01-08 02:15:24.92	12.23	5.44	
2025-01-08 02:15:26.15	12.17	5.53	
2025-01-08 02:15:27.38	12.10	5.62	
2025-01-08 02:15:28.60	12.04	5.71	
2025-01-08 02:15:29.83	11.98	5.80	
2025-01-08 02:15:31.06	11.91	5.89	
2025-01-08 02:15:32.29	11.85	5.98	
2025-01-08 02:15:33.52	11.78	6.08	
2025-01-08 02:15:34.76	11.72	6.17	
2025-01-08 02:15:36.00	11.65	6.26	
2025-01-08 02:15:37.23	11.58	6.35	
2025-01-08 02:15:38.46	11.52	6.44	
2025-01-08 02:15:39.69	11.45	6.54	
2025-01-08 02:15:40.92	11.38	6.63	
2025-01-08 02:15:42.15	11.31	6.72	
2025-01-08 02:15:43.38	11.24	6.82	
2025-01-08 02:15:44.61	11.17	6.91	
2025-01-08 02:15:45.85	11.10	7.01	
2025-01-08 02:15:47.09	11.03	7.10	
2025-01-08 02:15:48.31	10.96	7.20	
2025-01-08 02:15:49.55	10.88	7.29	
2025-01-08 02:15:50.78	10.81	7.39	
2025-01-08 02:15:52.02	10.74	7.49	
2025-01-08 02:15:53.25	10.66	7.58	
2025-01-08 02:15:54.49	10.59	7.68	
2025-01-08 02:15:55.73	10.51	7.78	
2025-01-08 02:15:56.96	10.44	7.88	
2025-01-08 02:15:58.21	10.36	7.98	
2025-01-08 02:15:59.45	10.28	8.08	
2025-01-08 02:16:00.69	10.21	8.18	
2025-01-08 02:16:01.92	10.13	8.27	
2025-01-08 02:16:03.15	10.05	8.37	
2025-01-08 02:16:04.38	9.97	8.47	
2025-01-08 02:16:05.61	9.89	8.57	
2025-01-08 02:16:06.85	9.81	8.68	
2025-01-08 02:16:08.08	9.73	8.78	
2025-01-08 02:16:09.30	9.65	8.88	
2025-01-08 02:16:10.55	9.56	8.98	
2025-01-08 02:16:11.78	9.48	9.08	
2025-01-08 02:16:13.01	9.40	9.19	
2025-01-08 02:16:14.24	9.31	9.29	
2025-01-08 02:16:15.47	9.23	9.39	
2025-01-08 02:16:16.70	9.14	9.50	
2025-01-08 02:16:17.93	9.05	9.60	
2025-01-08 02:16:19.17	8.97	9.71	
2025-01-08 02:16:20.40	8.88	9.81	
2025-01-08 02:16:21.63	8.79	9.92	
2025-01-08 02:16:22.86	8.70	10.03	
2025-01-08 02:16:24.09	8.61	10.13	
2025-01-08 02:16:25.34	8.52	10.24	
2025-01-08 02:16:26.57	8.43	10.35	
2025-01-08 02:16:27.80	8.33	10.46	
2025-01-08 02:16:29.03	8.24	10.57	
2025-01-08 02:16:30.26	8.15	10.68	
2025-01-08 02:16:31.51	8.05	10.79	
2025-01-08 02:16:32.74	7.95	10.90	
2025-01-08 02:16:33.97	7.86	11.01	
2025-01-08 02:16:35.20	7.76	11.12	
2025-01-08 02:16:36.43	7.66	11.23	
2025-01-08 02:16:37.68	7.56	11.34	
2025-01-08 02:16:38.91	7.46	11.45	
2025-01-08 02:16:40.14	7.36	11.57	
2025-01-08 02:16:41.37	7.26	11.68	
2025-01-08 02:16:42.60	7.16	11.79	
2025-01-08 02:16:43.85	7.05	11.91	
2025-01-08 02:16:45.08	6.95	12.03	
2025-01-08 02:16:46.30	6.84	12.14	
2025-01-08 02:16:47.53	6.74	12.26	
2025-01-08 02:16:48.76	6.63	12.37	
2025-01-08 02:16:49.99	6.52	12.49	
2025-01-08 02:16:51.22	6.42	12.61	
2025-01-08 02:16:52.46	6.30	12.73	
2025-01-08 02:16:53.70	6.19	12.84	
2025-01-08 02:16:54.93	6.08	12.96	
2025-01-08 02:16:56.16	5.97	13.08	
2025-01-08 02:16:57.40	5.85	13.20	
2025-01-08 02:16:58.65	5.74	13.33	
2025-01-08 02:16:59.88	5.62	13.45	
2025-01-08 02:17:01.10	5.50	13.57	
2025-01-08 02:17:02.35	5.38	13.69	
2025-01-08 02:17:03.58	5.26	13.82	
2025-01-08 02:17:04.81	5.14	13.94	
2025-01-08 02:17:06.05	5.02	14.06	
2025-01-08 02:17:07.27	4.90	14.19	
2025-01-08 02:17:08.51	4.78	14.31	
2025-01-08 02:17:09.74	4.65	14.44	
2025-01-08 02:17:10.98	4.52	14.57	
2025-01-08 02:17:12.21	4.40	14.69	
2025-01-08 02:17:13.44	4.27	14.82	
2025-01-08 02:17:14.67	4.14	14.95	
2025-01-08 02:17:15.93	4.00	15.08	
2025-01-08 02:17:17.16	3.87	15.21	
2025-01-08 02:17:18.39	3.74	15.34	
2025-01-08 02:17:19.62	3.60	15.47	
2025-01-08 02:17:20.86	3.47	15.60	
2025-01-08 02:17:22.10	3.33	15.74	
2025-01-08 02:17:23.33	3.19	15.87	
2025-01-08 02:17:24.56	3.05	16.00	
2025-01-08 02:17:25.79	2.91	16.14	
2025-01-08 02:17:27.02	2.76	16.27	
2025-01-08 02:17:28.25	2.62	16.41	
2025-01-08 02:17:29.48	2.47	16.54	
2025-01-08 02:17:30.71	2.33	16.68	
2025-01-08 02:17:31.94	2.18	16.81	
2025-01-08 02:17:33.17	2.03	16.95	
2025-01-08 02:17:34.41	1.87	17.09	
2025-01-08 02:17:35.64	1.72	17.23	
2025-01-08 02:17:36.87	1.57	17.37	
2025-01-08 02:17:38.11	1.41	17.51	
2025-01-08 02:17:39.35	1.25	17.65	
2025-01-08 02:17:40.59	1.09	17.80	
2025-01-08 02:17:41.83	0.93	17.94	
2025-01-08 02:17:43.06	0.76	18.08	
2025-01-08 02:17:44.30	0.60	18.23	
2025-01-08 02:17:45.53	0.43	18.37	
2025-01-08 02:17:46.78	0.26	18.52	
2025-01-08 02:17:48.00	0.09	18.66	
2025-01-08 02:17:49.23	359.92	18.81	
2025-01-08 02:17:50.46	359.75	18.96	
2025-01-08 02:17:51.69	359.57	19.10	
2025-01-08 02:17:52.93	359.39	19.25	
2025-01-08 02:17:54.16	359.21	19.40	
2025-01-08 02:17:55.39	359.03	19.55	
2025-01-08 02:17:56.62	358.85	19.70	
2025-01-08 02:17:57.85	358.67	19.85	
2025-01-08 02:17:59.08	358.48	20.01	
2025-01-08 02:18:00.31	358.29	20.16	
2025-01-08 02:18:01.53	358.10	20.31	
2025-01-08 02:18:02.78	357.90	20.47	
2025-01-08 02:18:04.01	357.71	20.62	
2025-01-08 02:18:05.26	357.51	20.78	
2025-01-08 02:18:06.50	357.31	20.94	
2025-01-08 02:18:07.73	357.11	21.09	
2025-01-08 02:18:08.95	356.91	21.25	
2025-01-08 02:18:10.18	356.70	21.41	
2025-01-08 02:18:11.41	356.49	21.57	
2025-01-08 02:18:12.66	356.28	21.73	
2025-01-08 02:18:13.88	356.07	21.89	
2025-01-08 02:18:15.11	355.85	22.05	
2025-01-08 02:18:16.34	355.63	22.21	
2025-01-08 02:18:17.57	355.41	22.37	
2025-01-08 02:18:18.80	355.19	22.54	
2025-01-08 02:18:20.03	354.97	22.70	
2025-01-08 02:18:21.26	354.74	22.87	
2025-01-08 02:18:22.49	354.51	23.03	
2025-01-08 02:18:23.72	354.28	23.20	
2025-01-08 02:18:24.95	354.04	23.36	
2025-01-08 02:18:26.18	353.80	23.53	
2025-01-08 02:18:27.41	353.56	23.70	
2025-01-08 02:18:28.64	353.32	23.87	
2025-01-08 02:18:29.87	353.07	24.04	
2025-01-08 02:18:31.10	352.82	24.21	
2025-01-08 02:18:32.33	352.57	24.38	
2025-01-08 02:18:33.57	352.31	24.55	
2025-01-08 02:18:34.80	352.06	24.72	
2025-01-08 02:18:36.03	351.80	24.89	
2025-01-08 02:18:37.26	351.53	25.06	
2025-01-08 02:18:38.48	351.27	25.24	
2025-01-08 02:18:39.71	351.00	25.41	
2025-01-08 02:18:40.95	350.72	25.59	
2025-01-08 02:18:42.17	350.45	25.76	
2025-01-08 02:18:43.40	350.17	25.94	
2025-01-08 02:18:44.65	349.88	26.11	
2025-01-08 02:18:45.87	349.60	26.29	
2025-01-08 02:18:47.11	349.30	26.47	
2025-01-08 02:18:48.34	349.01	26.64	
2025-01-08 02:18:49.57	348.71	26.82	
2025-01-08 02:18:50.80	348.41	27.00	
2025-01-08 02:18:52.04	348.11	27.18	
2025-01-08 02:18:53.27	347.80	27.36	
2025-01-08 02:18:54.50	347.49	27.54	
2025-01-08 02:18:55.74	347.17	27.72	
2025-01-08 02:18:56.97	346.85	27.90	
2025-01-08 02:18:58.21	346.53	28.08	
2025-01-08 02:18:59.44	346.20	28.26	
2025-01-08 02:19:00.66	345.87	28.44	
2025-01-08 02:19:01.90	345.54	28.62	
2025-01-08 02:19:03.13	345.20	28.81	
2025-01-08 02:19:04.38	344.85	28.99	
2025-01-08 02:19:05.61	344.51	29.17	
2025-01-08 02:19:06.86	344.15	29.36	
2025-01-08 02:19:08.10	343.79	29.54	
2025-01-08 02:19:09.33	343.43	29.72	
2025-01-08 02:19:10.56	343.07	29.90	
2025-01-08 02:19:11.78	342.71	30.08	
2025-01-08 02:19:13.01	342.34	30.27	
2025-01-08 02:19:14.25	341.96	30.45	
2025-01-08 02:19:15.48	341.58	30.63	
2025-01-08 02:19:16.71	341.19	30.81	
2025-01-08 02:19:17.94	340.80	30.99	
2025-01-08 02:19:19.17	340.41	31.17	
2025-01-08 02:19:20.40	340.01	31.35	
2025-01-08 02:19:21.63	339.61	31.53	
2025-01-08 02:19:22.86	339.20	31.71	
2025-01-08 02:19:24.11	338.78	31.90	
2025-01-08 02:19:25.35	338.36	32.08	
2025-01-08 02:19:26.58	337.94	32.25	
2025-01-08 02:19:27.81	337.51	32.43	
2025-01-08 02:19:29.04	337.08	32.61	
2025-01-08 02:19:30.28	336.64	32.79	
2025-01-08 02:19:31.50	336.20	32.96	
2025-01-08 02:19:32.74	335.75	33.14	
2025-01-08 02:19:33.97	335.30	33.31	
2025-01-08 02:19:35.20	334.84	33.48	
2025-01-08 02:19:36.43	334.38	33.65	
2025-01-08 02:19:37.66	333.91	33.82	
2025-01-08 02:19:38.89	333.44	33.99	
2025-01-08 02:19:40.14	332.96	34.16	
2025-01-08 02:19:41.37	332.47	34.33	
2025-01-08 02:19:42.61	331.98	34.50	
2025-01-08 02:19:43.84	331.49	34.66	
2025-01-08 02:19:45.09	330.99	34.83	
2025-01-08 02:19:46.32	330.48	34.99	
2025-01-08 02:19:47.55	329.97	35.15	
2025-01-08 02:19:48.80	329.45	35.31	
2025-01-08 02:19:50.03	328.93	35.47	
2025-01-08 02:19:51.26	328.41	35.62	
2025-01-08 02:19:52.49	327.88	35.77	
2025-01-08 02:19:53.72	327.35	35.92	
2025-01-08 02:19:54.95	326.81	36.07	
2025-01-08 02:19:56.19	326.26	36.22	
2025-01-08 02:19:57.42	325.71	36.36	
2025-01-08 02:19:58.67	325.15	36.51	
2025-01-08 02:19:59.92	324.58	36.65	
2025-01-08 02:20:01.15	324.02	36.78	
2025-01-08 02:20:02.39	323.45	36.92	
2025-01-08 02:20:03.62	322.87	37.05	
2025-01-08 02:20:04.86	322.29	37.18	
2025-01-08 02:20:06.08	321.71	37.31	
2025-01-08 02:20:07.32	321.12	37.43	
2025-01-08 02:20:08.55	320.53	37.55	
2025-01-08 02:20:09.79	319.93	37.67	
2025-01-08 02:20:11.02	319.32	37.78	
2025-01-08 02:20:12.25	318.72	37.89	
2025-01-08 02:20:13.50	318.10	38.00	
2025-01-08 02:20:14.73	317.49	38.11	
2025-01-08 02:20:15.97	316.86	38.21	
2025-01-08 02:20:17.21	316.24	38.31	
2025-01-08 02:20:18.44	315.61	38.40	
2025-01-08 02:20:19.68	314.98	38.49	
2025-01-08 02:20:20.91	314.35	38.58	
2025-01-08 02:20:22.14	313.71	38.66	
2025-01-08 02:20:23.37	313.07	38.74	
2025-01-08 02:20:24.60	312.43	38.82	
2025-01-08 02:20:25.83	311.78	38.89	
2025-01-08 02:20:27.06	311.13	38.96	
2025-01-08 02:20:28.30	310.48	39.02	
2025-01-08 02:20:29.53	309.82	39.08	
2025-01-08 02:20:30.77	309.16	39.14	
2025-01-08 02:20:32.00	308.50	39.19	
2025-01-08 02:20:33.23	307.84	39.24	
2025-01-08 02:20:34.46	307.18	39.28	
2025-01-08 02:20:35.70	306.51	39.32	
2025-01-08 02:20:36.93	305.85	39.35	
2025-01-08 02:20:38.17	305.17	39.38	
2025-01-08 02:20:39.42	304.49	39.41	
2025-01-08 02:20:40.65	303.83	39.43	
2025-01-08 02:20:41.88	303.16	39.45	
2025-01-08 02:20:43.11	302.48	39.46	
2025-01-08 02:20:44.34	301.81	39.47	
2025-01-08 02:20:45.59	301.13	39.47	
2025-01-08 02:20:46.82	300.46	39.47	
2025-01-08 02:20:48.06	299.78	39.47	
2025-01-08 02:20:49.30	299.11	39.46	
2025-01-08 02:20:50.53	298.43	39.45	
2025-01-08 02:20:51.76	297.76	39.43	
2025-01-08 02:20:52.99	297.10	39.41	
2025-01-08 02:20:54.22	296.43	39.38	
2025-01-08 02:20:55.45	295.76	39.35	
2025-01-08 02:20:56.71	295.08	39.31	
2025-01-08 02:20:57.94	294.41	39.27	
2025-01-08 02:20:59.18	293.75	39.23	
2025-01-08 02:21:00.41	293.09	39.18	
2025-01-08 02:21:01.65	292.42	39.13	
2025-01-08 02:21:02.88	291.77	39.07	
2025-01-08 02:21:04.11	291.11	39.01	
2025-01-08 02:21:05.35	290.46	38.94	
2025-01-08 02:21:06.58	289.81	38.87	
2025-01-08 02:21:07.81	289.16	38.80	
2025-01-08 02:21:09.04	288.52	38.72	
2025-01-08 02:21:10.27	287.88	38.64	
2025-01-08 02:21:11.50	287.24	38.56	
2025-01-08 02:21:12.74	286.60	38.47	
2025-01-08 02:21:13.97	285.98	38.38	
2025-01-08 02:21:15.20	285.35	38.29	
2025-01-08 02:21:16.43	284.73	38.19	
2025-01-08 02:21:17.66	284.11	38.08	
2025-01-08 02:21:18.89	283.50	37.98	
2025-01-08 02:21:20.12	282.89	37.87	
2025-01-08 02:21:21.35	282.28	37.76	
2025-01-08 02:21:22.58	281.68	37.64	
2025-01-08 02:21:23.82	281.08	37.52	
2025-01-08 02:21:25.04	280.49	37.40	
2025-01-08 02:21:26.28	279.90	37.28	
2025-01-08 02:21:27.51	279.31	37.15	
2025-01-08 02:21:28.75	278.73	37.02	
2025-01-08 02:21:29.99	278.15	36.89	
2025-01-08 02:21:31.23	277.58	36.75	
2025-01-08 02:21:32.46	277.01	36.61	
2025-01-08 02:21:33.69	276.45	36.47	
2025-01-08 02:21:34.92	275.90	36.33	
2025-01-08 02:21:36.15	275.35	36.19	
2025-01-08 02:21:37.38	274.81	36.04	
2025-01-08 02:21:38.61	274.27	35.89	
2025-01-08 02:21:39.84	273.73	35.74	
2025-01-08 02:21:41.08	273.20	35.58	
2025-01-08 02:21:42.31	272.68	35.43	
2025-01-08 02:21:43.54	272.16	35.27	
2025-01-08 02:21:44.77	271.64	35.11	
2025-01-08 02:21:46.00	271.13	34.95	
2025-01-08 02:21:47.23	270.63	34.79	
2025-01-08 02:21:48.46	270.13	34.63	
2025-01-08 02:21:49.69	269.64	34.46	
2025-01-08 02:21:50.92	269.15	34.30	
2025-01-08 02:21:52.17	268.66	34.13	
2025-01-08 02:21:53.40	268.18	33.96	
2025-01-08 02:21:54.63	267.71	33.79	
2025-01-08 02:21:55.86	267.24	33.62	
2025-01-08 02:21:57.11	266.77	33.44	
2025-01-08 02:21:58.34	266.31	33.27	
2025-01-08 02:21:59.57	265.86	33.09	
2025-01-08 02:22:00.81	265.41	32.91	
2025-01-08 02:22:02.05	264.96	32.74	
2025-01-08 02:22:03.28	264.53	32.56	
2025-01-08 02:22:04.52	264.09	32.38	
2025-01-08 02:22:05.75	263.66	32.20	
2025-01-08 02:22:06.98	263.24	32.02	
2025-01-08 02:22:08.21	262.82	31.84	
2025-01-08 02:22:09.46	262.40	31.66	
2025-01-08 02:22:10.69	261.99	31.48	
2025-01-08 02:22:11.92	261.59	31.30	
2025-01-08 02:22:13.15	261.19	31.12	
2025-01-08 02:22:14.38	260.80	30.94	
2025-01-08 02:22:15.61	260.41	30.75	
2025-01-08 02:22:16.84	260.02	30.57	
2025-01-08 02:22:18.07	259.64	30.39	
2025-01-08 02:22:19.31	259.26	30.21	
2025-01-08 02:22:20.54	258.89	30.02	
2025-01-08 02:22:21.77	258.52	29.84	
2025-01-08 02:22:23.00	258.16	29.66	
2025-01-08 02:22:24.24	257.79	29.47	
2025-01-08 02:22:25.47	257.44	29.29	
2025-01-08 02:22:26.71	257.08	29.11	
2025-01-08 02:22:27.94	256.74	28.93	
2025-01-08 02:22:29.16	256.40	28.74	
2025-01-08 02:22:30.40	256.06	28.56	
2025-01-08 02:22:31.63	255.72	28.38	
2025-01-08 02:22:32.86	255.39	28.20	
2025-01-08 02:22:34.09	255.06	28.02	
2025-01-08 02:22:35.33	254.74	27.83	
2025-01-08 02:22:36.58	254.41	27.65	
2025-01-08 02:22:37.80	254.10	27.47	
2025-01-08 02:22:39.04	253.79	27.29	
2025-01-08 02:22:40.27	253.48	27.11	
2025-01-08 02:22:41.51	253.17	26.93	
2025-01-08 02:22:42.74	252.87	26.75	
2025-01-08 02:22:43.97	252.57	26.57	
2025-01-08 02:22:45.20	252.28	26.39	
2025-01-08 02:22:46.44	251.99	26.21	
2025-01-08 02:22:47.68	251.70	26.03	
2025-01-08 02:22:48.91	251.41	25.86	
2025-01-08 02:22:50.14	251.13	25.68	
2025-01-08 02:22:51.37	250.86	25.51	
2025-01-08 02:22:52.61	250.58	25.33	
2025-01-08 02:22:53.84	250.31	25.15	
2025-01-08 02:22:55.07	250.04	24.98	
2025-01-08 02:22:56.31	249.77	24.81	
2025-01-08 02:22:57.54	249.51	24.63	
2025-01-08 02:22:58.77	249.25	24.46	
2025-01-08 02:23:00.00	249.00	24.29	
2025-01-08 02:23:01.23	248.75	24.12	
2025-01-08 02:23:02.46	248.50	23.95	
2025-01-08 02:23:03.69	248.25	23.78	
2025-01-08 02:23:04.92	248.00	23.61	
2025-01-08 02:23:06.15	247.76	23.44	
2025-01-08 02:23:07.38	247.52	23.27	
2025-01-08 02:23:08.62	247.29	23.10	
2025-01-08 02:23:09.87	247.05	22.93	
2025-01-08 02:23:11.10	246.82	22.77	
2025-01-08 02:23:12.34	246.59	22.60	
2025-01-08 02:23:13.57	246.36	22.44	
2025-01-08 02:23:14.81	246.14	22.27	
2025-01-08 02:23:16.04	245.92	22.11	
2025-01-08 02:23:17.28	245.70	21.95	
2025-01-08 02:23:18.53	245.48	21.78	
2025-01-08 02:23:19.76	245.26	21.62	
2025-01-08 02:23:20.99	245.05	21.46	
2025-01-08 02:23:22.22	244.84	21.30	
2025-01-08 02:23:23.45	244.64	21.14	
2025-01-08 02:23:24.71	244.43	20.98	
2025-01-08 02:23:25.95	244.23	20.82	
2025-01-08 02:23:27.18	244.03	20.66	
2025-01-08 02:23:28.41	243.83	20.51	
2025-01-08 02:23:29.64	243.63	20.35	
2025-01-08 02:23:30.89	243.44	20.20	
2025-01-08 02:23:32.13	243.24	20.04	
2025-01-08 02:23:33.39	243.05	19.88	
2025-01-08 02:23:34.62	242.86	19.73	
2025-01-08 02:23:35.85	242.68	19.58	
2025-01-08 02:23:37.08	242.49	19.43	
2025-01-08 02:23:38.32	242.31	19.28	
2025-01-08 02:23:39.57	242.13	19.13	
2025-01-08 02:23:40.80	241.95	18.98	
2025-01-08 02:23:42.03	241.78	18.83	
2025-01-08 02:23:43.26	241.60	18.68	
2025-01-08 02:23:44.51	241.43	18.53	
2025-01-08 02:23:45.74	241.26	18.39	
2025-01-08 02:23:46.98	241.09	18.24	
2025-01-08 02:23:48.21	240.92	18.09	
2025-01-08 02:23:49.46	240.75	17.95	
2025-01-08 02:23:50.69	240.59	17.80	
2025-01-08 02:23:51.92	240.43	17.66	
2025-01-08 02:23:53.15	240.27	17.52	
2025-01-08 02:23:54.38	240.11	17.38	
2025-01-08 02:23:55.61	239.95	17.24	
2025-01-08 02:23:56.85	239.79	17.10	
2025-01-08 02:23:58.09	239.64	16.96	
2025-01-08 02:23:59.32	239.49	16.82	
2025-01-08 02:24:00.56	239.34	16.68	
2025-01-08 02:24:01.79	239.19	16.54	
2025-01-08 02:24:03.02	239.04	16.41	
2025-01-08 02:24:04.24	238.89	16.27	
2025-01-08 02:24:05.48	238.75	16.13	
2025-01-08 02:24:06.72	238.60	16.00	
2025-01-08 02:24:07.95	238.46	15.86	
2025-01-08 02:24:09.19	238.32	15.73	
2025-01-08 02:24:10.43	238.18	15.60	
2025-01-08 02:24:11.66	238.04	15.46	
2025-01-08 02:24:12.90	237.90	15.33	
2025-01-08 02:24:14.14	237.77	15.20	
2025-01-08 02:24:15.38	237.63	15.07	
2025-01-08 02:24:16.60	237.50	14.94	
2025-01-08 02:24:17.83	237.37	14.81	
2025-01-08 02:24:19.06	237.24	14.68	
2025-01-08 02:24:20.29	237.11	14.55	
2025-01-08 02:24:21.52	236.98	14.43	
2025-01-08 02:24:22.76	236.85	14.30	
2025-01-08 02:24:24.00	236.72	14.17	
2025-01-08 02:24:25.25	236.60	14.04	
2025-01-08 02:24:26.48	236.47	13.92	
2025-01-08 02:24:27.71	236.35	13.80	
2025-01-08 02:24:28.95	236.23	13.67	
2025-01-08 02:24:30.18	236.11	13.55	
2025-01-08 02:24:31.41	235.99	13.43	
2025-01-08 02:24:32.66	235.87	13.30	
2025-01-08 02:24:33.90	235.75	13.18	
2025-01-08 02:24:35.12	235.64	13.06	
2025-01-08 02:24:36.36	235.52	12.94	
2025-01-08 02:24:37.60	235.41	12.82	
2025-01-08 02:24:38.83	235.30	12.70	
2025-01-08 02:24:40.06	235.19	12.58	
2025-01-08 02:24:41.29	235.08	12.46	
2025-01-08 02:24:42.52	234.97	12.34	
2025-01-08 02:24:43.75	234.86	12.23	
2025-01-08 02:24:44.98	234.75	12.11	
2025-01-08 02:24:46.21	234.64	11.99	
2025-01-08 02:24:47.44	234.54	11.88	
2025-01-08 02:24:48.68	234.43	11.76	
2025-01-08 02:24:49.90	234.33	11.65	
2025-01-08 02:24:51.13	234.22	11.53	
2025-01-08 02:24:52.36	234.12	11.42	
2025-01-08 02:24:53.59	234.02	11.31	
2025-01-08 02:24:54.82	233.92	11.19	
2025-01-08 02:24:56.05	233.82	11.08	
2025-01-08 02:24:57.28	233.72	10.97	
2025-01-08 02:24:58.51	233.62	10.86	
2025-01-08 02:24:59.74	233.53	10.75	
2025-01-08 02:25:00.97	233.43	10.64	
2025-01-08 02:25:02.20	233.33	10.53	
2025-01-08 02:25:03.43	233.24	10.42	
2025-01-08 02:25:04.67	233.15	10.31	
2025-01-08 02:25:05.89	233.05	10.20	
2025-01-08 02:25:07.12	232.96	10.10	
2025-01-08 02:25:08.35	232.87	9.99	
2025-01-08 02:25:09.58	232.78	9.88	
2025-01-08 02:25:10.81	232.69	9.77	
2025-01-08 02:25:12.05	232.60	9.67	
2025-01-08 02:25:13.28	232.51	9.56	
2025-01-08 02:25:14.51	232.42	9.46	
2025-01-08 02:25:15.76	232.33	9.35	
2025-01-08 02:25:17.00	232.24	9.25	
2025-01-08 02:25:18.23	232.16	9.14	
2025-01-08 02:25:19.46	232.07	9.04	
2025-01-08 02:25:20.69	231.99	8.94	
2025-01-08 02:25:21.92	231.90	8.83	
2025-01-08 02:25:23.15	231.82	8.73	
2025-01-08 02:25:24.38	231.74	8.63	
2025-01-08 02:25:25.61	231.66	8.53	
2025-01-08 02:25:26.86	231.57	8.42	
2025-01-08 02:25:28.09	231.49	8.32	
2025-01-08 02:25:29.33	231.41	8.22	
2025-01-08 02:25:30.56	231.33	8.12	
2025-01-08 02:25:31.79	231.25	8.02	
2025-01-08 02:25:33.03	231.18	7.92	
2025-01-08 02:25:34.26	231.10	7.83	
2025-01-08 02:25:35.48	231.02	7.73	
2025-01-08 02:25:36.72	230.94	7.63	
2025-01-08 02:25:37.95	230.87	7.53	
2025-01-08 02:25:39.18	230.79	7.43	
2025-01-08 02:25:40.41	230.72	7.34	
2025-01-08 02:25:41.64	230.64	7.24	
2025-01-08 02:25:42.87	230.57	7.14	
2025-01-08 02:25:44.12	230.50	7.05	
2025-01-08 02:25:45.35	230.42	6.95	
2025-01-08 02:25:46.58	230.35	6.86	
2025-01-08 02:25:47.81	230.28	6.76	
2025-01-08 02:25:49.04	230.21	6.67	
2025-01-08 02:25:50.27	230.14	6.57	
2025-01-08 02:25:51.50	230.07	6.48	
2025-01-08 02:25:52.73	230.00	6.39	
2025-01-08 02:25:53.97	229.93	6.29	
2025-01-08 02:25:55.19	229.86	6.20	
2025-01-08 02:25:56.42	229.79	6.11	
2025-01-08 02:25:57.66	229.73	6.02	
2025-01-08 02:25:58.89	229.66	5.92	
2025-01-08 02:26:00.12	229.59	5.83	
2025-01-08 02:26:01.35	229.53	5.74	
2025-01-08 02:26:02.58	229.46	5.65	
2025-01-08 02:26:03.81	229.40	5.56	
2025-01-08 02:26:05.05	229.33	5.47	
2025-01-08 02:26:06.28	229.27	5.38	
2025-01-08 02:26:07.53	229.20	5.29	
2025-01-08 02:26:08.77	229.14	5.20	
2025-01-08 02:26:10.00	229.08	5.11	
2025-01-08 02:26:11.23	229.01	5.02	
2025-01-08 02:26:12.46	228.95	4.93	
2025-01-08 02:26:13.70	228.89	4.85	
2025-01-08 02:26:14.93	228.83	4.76	
2025-01-08 02:26:16.16	228.77	4.67	
2025-01-08 02:26:17.39	228.71	4.58	
2025-01-08 02:26:18.62	228.65	4.50	
2025-01-08 02:26:19.84	228.59	4.41	
2025-01-08 02:26:21.08	228.53	4.32	
2025-01-08 02:26:22.31	228.47	4.24	
2025-01-08 02:26:23.56	228.41	4.15	
2025-01-08 02:26:24.80	228.35	4.06	

#Closed at: 2025-01-08 02:26:25