passes_logs/2025/01/08/SPB_Silybum_02/SPB_Silybum_02__20250108_193013_TERRA_rec.log

#Pass ID: 20250108_193013_TERRA
#Satellite: TERRA
#Configuration: TERRA
#Start time: 2025-01-08 19:30:12

#Version: 2.0.20230423
#Station: SPB_Silybum_02
#Location: 30.233357 lon 59.946436 lat
#TLE: 1 25994U 99068A   25007.79031535  .00001159  00000+0  24884-3 0  9992
#TLE: 2 25994  98.0229  71.0496 0003578  86.9116 340.1593 14.60381232333028

#Time	Az	El	Level	Level2	SNR	BER	Gain	Gain2
2025-01-08 19:30:14.68	192.15	4.06	
2025-01-08 19:30:15.91	192.22	4.14	
2025-01-08 19:30:17.15	192.29	4.23	
2025-01-08 19:30:18.38	192.37	4.31	
2025-01-08 19:30:19.61	192.44	4.39	
2025-01-08 19:30:20.84	192.52	4.48	
2025-01-08 19:30:22.07	192.59	4.56	
2025-01-08 19:30:23.30	192.67	4.65	
2025-01-08 19:30:24.53	192.74	4.73	
2025-01-08 19:30:25.76	192.82	4.82	
2025-01-08 19:30:26.99	192.90	4.90	
2025-01-08 19:30:28.23	192.98	4.99	
2025-01-08 19:30:29.47	193.05	5.08	
2025-01-08 19:30:30.70	193.13	5.16	
2025-01-08 19:30:31.93	193.21	5.25	
2025-01-08 19:30:33.17	193.29	5.34	
2025-01-08 19:30:34.40	193.37	5.42	
2025-01-08 19:30:35.63	193.45	5.51	
2025-01-08 19:30:36.87	193.53	5.60	
2025-01-08 19:30:38.09	193.61	5.69	
2025-01-08 19:30:39.32	193.70	5.77	
2025-01-08 19:30:40.56	193.78	5.86	
2025-01-08 19:30:41.79	193.86	5.95	
2025-01-08 19:30:43.03	193.95	6.04	
2025-01-08 19:30:44.27	194.03	6.13	
2025-01-08 19:30:45.52	194.12	6.22	
2025-01-08 19:30:46.75	194.20	6.31	
2025-01-08 19:30:47.98	194.29	6.40	
2025-01-08 19:30:49.22	194.37	6.50	
2025-01-08 19:30:50.45	194.46	6.59	
2025-01-08 19:30:51.68	194.55	6.68	
2025-01-08 19:30:52.91	194.64	6.77	
2025-01-08 19:30:54.14	194.72	6.86	
2025-01-08 19:30:55.39	194.81	6.96	
2025-01-08 19:30:56.62	194.90	7.05	
2025-01-08 19:30:57.85	194.99	7.14	
2025-01-08 19:30:59.09	195.09	7.23	
2025-01-08 19:31:00.31	195.18	7.33	
2025-01-08 19:31:01.54	195.27	7.42	
2025-01-08 19:31:02.77	195.36	7.52	
2025-01-08 19:31:04.01	195.45	7.61	
2025-01-08 19:31:05.24	195.55	7.71	
2025-01-08 19:31:06.47	195.64	7.80	
2025-01-08 19:31:07.70	195.74	7.90	
2025-01-08 19:31:08.92	195.83	7.99	
2025-01-08 19:31:10.15	195.93	8.09	
2025-01-08 19:31:11.39	196.03	8.18	
2025-01-08 19:31:12.62	196.13	8.28	
2025-01-08 19:31:13.85	196.22	8.38	
2025-01-08 19:31:15.08	196.32	8.48	
2025-01-08 19:31:16.31	196.42	8.57	
2025-01-08 19:31:17.54	196.52	8.67	
2025-01-08 19:31:18.77	196.62	8.77	
2025-01-08 19:31:20.02	196.73	8.87	
2025-01-08 19:31:21.25	196.83	8.97	
2025-01-08 19:31:22.48	196.93	9.07	
2025-01-08 19:31:23.72	197.04	9.17	
2025-01-08 19:31:24.95	197.14	9.27	
2025-01-08 19:31:26.19	197.25	9.37	
2025-01-08 19:31:27.42	197.36	9.48	
2025-01-08 19:31:28.66	197.47	9.58	
2025-01-08 19:31:29.89	197.57	9.68	
2025-01-08 19:31:31.12	197.68	9.78	
2025-01-08 19:31:32.37	197.79	9.89	
2025-01-08 19:31:33.59	197.90	9.99	
2025-01-08 19:31:34.83	198.01	10.09	
2025-01-08 19:31:36.06	198.13	10.20	
2025-01-08 19:31:37.29	198.24	10.30	
2025-01-08 19:31:38.52	198.35	10.41	
2025-01-08 19:31:39.75	198.47	10.51	
2025-01-08 19:31:40.98	198.58	10.62	
2025-01-08 19:31:42.23	198.70	10.73	
2025-01-08 19:31:43.46	198.82	10.83	
2025-01-08 19:31:44.69	198.94	10.94	
2025-01-08 19:31:45.92	199.06	11.05	
2025-01-08 19:31:47.17	199.18	11.16	
2025-01-08 19:31:48.40	199.30	11.26	
2025-01-08 19:31:49.63	199.42	11.37	
2025-01-08 19:31:50.86	199.54	11.48	
2025-01-08 19:31:52.08	199.66	11.59	
2025-01-08 19:31:53.32	199.79	11.70	
2025-01-08 19:31:54.55	199.92	11.81	
2025-01-08 19:31:55.78	200.04	11.92	
2025-01-08 19:31:57.01	200.17	12.03	
2025-01-08 19:31:58.24	200.30	12.14	
2025-01-08 19:31:59.47	200.43	12.26	
2025-01-08 19:32:00.70	200.56	12.37	
2025-01-08 19:32:01.93	200.69	12.48	
2025-01-08 19:32:03.17	200.82	12.60	
2025-01-08 19:32:04.40	200.96	12.71	
2025-01-08 19:32:05.63	201.09	12.82	
2025-01-08 19:32:06.86	201.23	12.94	
2025-01-08 19:32:08.09	201.36	13.05	
2025-01-08 19:32:09.32	201.50	13.17	
2025-01-08 19:32:10.57	201.64	13.29	
2025-01-08 19:32:11.80	201.78	13.41	
2025-01-08 19:32:13.02	201.92	13.52	
2025-01-08 19:32:14.26	202.07	13.64	
2025-01-08 19:32:15.50	202.21	13.76	
2025-01-08 19:32:16.73	202.36	13.88	
2025-01-08 19:32:17.96	202.50	14.00	
2025-01-08 19:32:19.19	202.65	14.12	
2025-01-08 19:32:20.43	202.80	14.24	
2025-01-08 19:32:21.65	202.95	14.36	
2025-01-08 19:32:22.89	203.10	14.48	
2025-01-08 19:32:24.12	203.25	14.60	
2025-01-08 19:32:25.35	203.41	14.72	
2025-01-08 19:32:26.60	203.56	14.85	
2025-01-08 19:32:27.83	203.72	14.97	
2025-01-08 19:32:29.06	203.88	15.09	
2025-01-08 19:32:30.29	204.04	15.22	
2025-01-08 19:32:31.52	204.20	15.34	
2025-01-08 19:32:32.75	204.36	15.47	
2025-01-08 19:32:33.98	204.52	15.59	
2025-01-08 19:32:35.21	204.69	15.72	
2025-01-08 19:32:36.44	204.85	15.85	
2025-01-08 19:32:37.67	205.02	15.97	
2025-01-08 19:32:38.91	205.19	16.10	
2025-01-08 19:32:40.14	205.36	16.23	
2025-01-08 19:32:41.37	205.53	16.36	
2025-01-08 19:32:42.60	205.71	16.49	
2025-01-08 19:32:43.83	205.88	16.62	
2025-01-08 19:32:45.07	206.06	16.75	
2025-01-08 19:32:46.30	206.24	16.88	
2025-01-08 19:32:47.53	206.42	17.01	
2025-01-08 19:32:48.77	206.60	17.14	
2025-01-08 19:32:50.01	206.79	17.28	
2025-01-08 19:32:51.25	206.97	17.41	
2025-01-08 19:32:52.48	207.16	17.54	
2025-01-08 19:32:53.74	207.35	17.68	
2025-01-08 19:32:54.97	207.54	17.82	
2025-01-08 19:32:56.20	207.73	17.95	
2025-01-08 19:32:57.43	207.93	18.09	
2025-01-08 19:32:58.66	208.12	18.22	
2025-01-08 19:32:59.89	208.32	18.36	
2025-01-08 19:33:01.13	208.52	18.50	
2025-01-08 19:33:02.37	208.72	18.64	
2025-01-08 19:33:03.60	208.93	18.77	
2025-01-08 19:33:04.84	209.13	18.91	
2025-01-08 19:33:06.08	209.34	19.05	
2025-01-08 19:33:07.31	209.55	19.19	
2025-01-08 19:33:08.54	209.76	19.33	
2025-01-08 19:33:09.78	209.97	19.48	
2025-01-08 19:33:11.01	210.19	19.62	
2025-01-08 19:33:12.25	210.41	19.76	
2025-01-08 19:33:13.48	210.62	19.90	
2025-01-08 19:33:14.71	210.84	20.04	
2025-01-08 19:33:15.95	211.07	20.19	
2025-01-08 19:33:17.18	211.29	20.33	
2025-01-08 19:33:18.41	211.52	20.48	
2025-01-08 19:33:19.64	211.75	20.62	
2025-01-08 19:33:20.87	211.98	20.76	
2025-01-08 19:33:22.11	212.22	20.91	
2025-01-08 19:33:23.34	212.45	21.06	
2025-01-08 19:33:24.58	212.69	21.21	
2025-01-08 19:33:25.82	212.94	21.35	
2025-01-08 19:33:27.05	213.18	21.50	
2025-01-08 19:33:28.28	213.43	21.65	
2025-01-08 19:33:29.51	213.67	21.80	
2025-01-08 19:33:30.74	213.92	21.94	
2025-01-08 19:33:31.97	214.18	22.09	
2025-01-08 19:33:33.20	214.43	22.24	
2025-01-08 19:33:34.43	214.69	22.39	
2025-01-08 19:33:35.67	214.95	22.54	
2025-01-08 19:33:36.90	215.21	22.69	
2025-01-08 19:33:38.13	215.48	22.85	
2025-01-08 19:33:39.37	215.75	23.00	
2025-01-08 19:33:40.59	216.02	23.15	
2025-01-08 19:33:41.84	216.30	23.30	
2025-01-08 19:33:43.07	216.57	23.46	
2025-01-08 19:33:44.30	216.85	23.61	
2025-01-08 19:33:45.53	217.13	23.76	
2025-01-08 19:33:46.76	217.42	23.91	
2025-01-08 19:33:48.00	217.71	24.07	
2025-01-08 19:33:49.24	218.00	24.22	
2025-01-08 19:33:50.47	218.30	24.38	
2025-01-08 19:33:51.70	218.59	24.53	
2025-01-08 19:33:52.94	218.89	24.69	
2025-01-08 19:33:54.17	219.20	24.84	
2025-01-08 19:33:55.40	219.50	25.00	
2025-01-08 19:33:56.64	219.81	25.15	
2025-01-08 19:33:57.87	220.12	25.31	
2025-01-08 19:33:59.10	220.44	25.46	
2025-01-08 19:34:00.33	220.76	25.62	
2025-01-08 19:34:01.56	221.08	25.77	
2025-01-08 19:34:02.79	221.40	25.93	
2025-01-08 19:34:04.03	221.73	26.08	
2025-01-08 19:34:05.26	222.06	26.24	
2025-01-08 19:34:06.49	222.40	26.40	
2025-01-08 19:34:07.73	222.74	26.55	
2025-01-08 19:34:08.96	223.08	26.71	
2025-01-08 19:34:10.21	223.43	26.87	
2025-01-08 19:34:11.44	223.78	27.02	
2025-01-08 19:34:12.67	224.13	27.18	
2025-01-08 19:34:13.89	224.48	27.33	
2025-01-08 19:34:15.12	224.84	27.48	
2025-01-08 19:34:16.35	225.20	27.64	
2025-01-08 19:34:17.59	225.57	27.79	
2025-01-08 19:34:18.82	225.94	27.95	
2025-01-08 19:34:20.05	226.31	28.10	
2025-01-08 19:34:21.28	226.69	28.25	
2025-01-08 19:34:22.51	227.07	28.41	
2025-01-08 19:34:23.76	227.46	28.56	
2025-01-08 19:34:24.99	227.84	28.71	
2025-01-08 19:34:26.22	228.23	28.86	
2025-01-08 19:34:27.47	228.64	29.02	
2025-01-08 19:34:28.70	229.03	29.17	
2025-01-08 19:34:29.93	229.44	29.32	
2025-01-08 19:34:31.16	229.84	29.47	
2025-01-08 19:34:32.39	230.25	29.61	
2025-01-08 19:34:33.62	230.67	29.76	
2025-01-08 19:34:34.86	231.09	29.91	
2025-01-08 19:34:36.09	231.51	30.06	
2025-01-08 19:34:37.32	231.94	30.20	
2025-01-08 19:34:38.55	232.36	30.34	
2025-01-08 19:34:39.78	232.80	30.49	
2025-01-08 19:34:41.01	233.24	30.63	
2025-01-08 19:34:42.26	233.68	30.77	
2025-01-08 19:34:43.49	234.13	30.91	
2025-01-08 19:34:44.72	234.58	31.05	
2025-01-08 19:34:45.95	235.03	31.19	
2025-01-08 19:34:47.18	235.49	31.33	
2025-01-08 19:34:48.41	235.95	31.46	
2025-01-08 19:34:49.64	236.41	31.60	
2025-01-08 19:34:50.88	236.88	31.73	
2025-01-08 19:34:52.13	237.36	31.86	
2025-01-08 19:34:53.37	237.84	31.99	
2025-01-08 19:34:54.60	238.32	32.12	
2025-01-08 19:34:55.85	238.82	32.25	
2025-01-08 19:34:57.08	239.30	32.38	
2025-01-08 19:34:58.31	239.80	32.50	
2025-01-08 19:34:59.55	240.30	32.62	
2025-01-08 19:35:00.78	240.79	32.74	
2025-01-08 19:35:02.01	241.30	32.86	
2025-01-08 19:35:03.24	241.80	32.98	
2025-01-08 19:35:04.47	242.31	33.09	
2025-01-08 19:35:05.70	242.83	33.20	
2025-01-08 19:35:06.93	243.35	33.31	
2025-01-08 19:35:08.17	243.87	33.42	
2025-01-08 19:35:09.40	244.39	33.53	
2025-01-08 19:35:10.63	244.92	33.63	
2025-01-08 19:35:11.86	245.45	33.73	
2025-01-08 19:35:13.09	245.99	33.83	
2025-01-08 19:35:14.34	246.53	33.93	
2025-01-08 19:35:15.57	247.07	34.02	
2025-01-08 19:35:16.79	247.61	34.11	
2025-01-08 19:35:18.03	248.17	34.20	
2025-01-08 19:35:19.26	248.72	34.29	
2025-01-08 19:35:20.49	249.27	34.37	
2025-01-08 19:35:21.73	249.83	34.45	
2025-01-08 19:35:22.96	250.39	34.53	
2025-01-08 19:35:24.19	250.95	34.61	
2025-01-08 19:35:25.43	251.52	34.68	
2025-01-08 19:35:26.66	252.08	34.75	
2025-01-08 19:35:27.90	252.66	34.82	
2025-01-08 19:35:29.13	253.23	34.88	
2025-01-08 19:35:30.36	253.80	34.95	
2025-01-08 19:35:31.59	254.37	35.00	
2025-01-08 19:35:32.82	254.95	35.06	
2025-01-08 19:35:34.05	255.53	35.11	
2025-01-08 19:35:35.30	256.12	35.16	
2025-01-08 19:35:36.53	256.70	35.21	
2025-01-08 19:35:37.76	257.29	35.25	
2025-01-08 19:35:38.99	257.87	35.29	
2025-01-08 19:35:40.22	258.46	35.33	
2025-01-08 19:35:41.45	259.05	35.36	
2025-01-08 19:35:42.68	259.64	35.39	
2025-01-08 19:35:43.92	260.23	35.42	
2025-01-08 19:35:45.15	260.83	35.44	
2025-01-08 19:35:46.38	261.42	35.46	
2025-01-08 19:35:47.61	262.01	35.48	
2025-01-08 19:35:48.84	262.60	35.49	
2025-01-08 19:35:50.07	263.20	35.50	
2025-01-08 19:35:51.30	263.79	35.51	
2025-01-08 19:35:52.53	264.39	35.51	
2025-01-08 19:35:53.76	264.98	35.51	
2025-01-08 19:35:54.99	265.58	35.51	
2025-01-08 19:35:56.22	266.17	35.50	
2025-01-08 19:35:57.45	266.76	35.49	
2025-01-08 19:35:58.68	267.36	35.48	
2025-01-08 19:35:59.91	267.95	35.47	
2025-01-08 19:36:01.14	268.54	35.45	
2025-01-08 19:36:02.38	269.14	35.42	
2025-01-08 19:36:03.61	269.73	35.40	
2025-01-08 19:36:04.85	270.32	35.37	
2025-01-08 19:36:06.08	270.91	35.33	
2025-01-08 19:36:07.31	271.50	35.30	
2025-01-08 19:36:08.54	272.08	35.26	
2025-01-08 19:36:09.77	272.67	35.22	
2025-01-08 19:36:11.01	273.25	35.17	
2025-01-08 19:36:12.24	273.83	35.12	
2025-01-08 19:36:13.46	274.41	35.07	
2025-01-08 19:36:14.69	274.98	35.02	
2025-01-08 19:36:15.92	275.56	34.96	
2025-01-08 19:36:17.16	276.14	34.90	
2025-01-08 19:36:18.38	276.70	34.83	
2025-01-08 19:36:19.63	277.28	34.77	
2025-01-08 19:36:20.87	277.85	34.70	
2025-01-08 19:36:22.10	278.41	34.62	
2025-01-08 19:36:23.33	278.97	34.55	
2025-01-08 19:36:24.55	279.53	34.47	
2025-01-08 19:36:25.79	280.09	34.39	
2025-01-08 19:36:27.01	280.64	34.31	
2025-01-08 19:36:28.25	281.19	34.22	
2025-01-08 19:36:29.48	281.74	34.13	
2025-01-08 19:36:30.71	282.28	34.04	
2025-01-08 19:36:31.96	282.83	33.95	
2025-01-08 19:36:33.19	283.36	33.85	
2025-01-08 19:36:34.42	283.90	33.75	
2025-01-08 19:36:35.66	284.43	33.65	
2025-01-08 19:36:36.89	284.96	33.55	
2025-01-08 19:36:38.12	285.48	33.45	
2025-01-08 19:36:39.35	286.00	33.34	
2025-01-08 19:36:40.60	286.53	33.23	
2025-01-08 19:36:41.83	287.04	33.12	
2025-01-08 19:36:43.06	287.55	33.00	
2025-01-08 19:36:44.29	288.06	32.89	
2025-01-08 19:36:45.52	288.56	32.77	
2025-01-08 19:36:46.75	289.06	32.65	
2025-01-08 19:36:47.98	289.55	32.53	
2025-01-08 19:36:49.21	290.04	32.41	
2025-01-08 19:36:50.43	290.53	32.29	
2025-01-08 19:36:51.69	291.02	32.16	
2025-01-08 19:36:52.93	291.51	32.03	
2025-01-08 19:36:54.17	291.98	31.90	
2025-01-08 19:36:55.40	292.46	31.77	
2025-01-08 19:36:56.64	292.93	31.64	
2025-01-08 19:36:57.87	293.39	31.50	
2025-01-08 19:36:59.12	293.86	31.37	
2025-01-08 19:37:00.35	294.32	31.23	
2025-01-08 19:37:01.58	294.77	31.10	
2025-01-08 19:37:02.81	295.22	30.96	
2025-01-08 19:37:04.05	295.66	30.82	
2025-01-08 19:37:05.29	296.11	30.68	
2025-01-08 19:37:06.52	296.54	30.53	
2025-01-08 19:37:07.75	296.98	30.39	
2025-01-08 19:37:08.98	297.41	30.25	
2025-01-08 19:37:10.22	297.83	30.10	
2025-01-08 19:37:11.45	298.26	29.96	
2025-01-08 19:37:12.69	298.68	29.81	
2025-01-08 19:37:13.92	299.09	29.66	
2025-01-08 19:37:15.16	299.50	29.52	
2025-01-08 19:37:16.39	299.91	29.37	
2025-01-08 19:37:17.61	300.31	29.22	
2025-01-08 19:37:18.84	300.70	29.07	
2025-01-08 19:37:20.09	301.10	28.92	
2025-01-08 19:37:21.32	301.50	28.77	
2025-01-08 19:37:22.57	301.89	28.62	
2025-01-08 19:37:23.80	302.27	28.46	
2025-01-08 19:37:25.02	302.65	28.31	
2025-01-08 19:37:26.25	303.02	28.16	
2025-01-08 19:37:27.49	303.40	28.01	
2025-01-08 19:37:28.72	303.77	27.86	
2025-01-08 19:37:29.95	304.13	27.70	
2025-01-08 19:37:31.19	304.50	27.55	
2025-01-08 19:37:32.42	304.85	27.39	
2025-01-08 19:37:33.65	305.21	27.24	
2025-01-08 19:37:34.88	305.56	27.09	
2025-01-08 19:37:36.13	305.91	26.93	
2025-01-08 19:37:37.36	306.26	26.78	
2025-01-08 19:37:38.61	306.60	26.62	
2025-01-08 19:37:39.84	306.94	26.47	
2025-01-08 19:37:41.07	307.27	26.31	
2025-01-08 19:37:42.30	307.60	26.16	
2025-01-08 19:37:43.55	307.94	26.00	
2025-01-08 19:37:44.80	308.26	25.84	
2025-01-08 19:37:46.03	308.58	25.69	
2025-01-08 19:37:47.27	308.90	25.53	
2025-01-08 19:37:48.49	309.22	25.38	
2025-01-08 19:37:49.72	309.53	25.23	
2025-01-08 19:37:50.96	309.84	25.07	
2025-01-08 19:37:52.19	310.14	24.92	
2025-01-08 19:37:53.43	310.45	24.76	
2025-01-08 19:37:54.67	310.75	24.61	
2025-01-08 19:37:55.90	311.05	24.46	
2025-01-08 19:37:57.13	311.34	24.30	
2025-01-08 19:37:58.36	311.63	24.15	
2025-01-08 19:37:59.59	311.92	24.00	
2025-01-08 19:38:00.82	312.20	23.85	
2025-01-08 19:38:02.05	312.48	23.69	
2025-01-08 19:38:03.28	312.76	23.54	
2025-01-08 19:38:04.51	313.04	23.39	
2025-01-08 19:38:05.74	313.31	23.24	
2025-01-08 19:38:06.97	313.58	23.09	
2025-01-08 19:38:08.20	313.85	22.94	
2025-01-08 19:38:09.44	314.12	22.79	
2025-01-08 19:38:10.66	314.38	22.64	
2025-01-08 19:38:11.89	314.64	22.49	
2025-01-08 19:38:13.12	314.89	22.34	
2025-01-08 19:38:14.36	315.15	22.19	
2025-01-08 19:38:15.61	315.41	22.04	
2025-01-08 19:38:16.85	315.66	21.89	
2025-01-08 19:38:18.09	315.91	21.74	
2025-01-08 19:38:19.32	316.16	21.60	
2025-01-08 19:38:20.56	316.40	21.45	
2025-01-08 19:38:21.79	316.64	21.30	
2025-01-08 19:38:23.04	316.88	21.16	
2025-01-08 19:38:24.26	317.12	21.01	
2025-01-08 19:38:25.50	317.35	20.87	
2025-01-08 19:38:26.73	317.58	20.72	
2025-01-08 19:38:27.96	317.81	20.58	
2025-01-08 19:38:29.20	318.04	20.43	
2025-01-08 19:38:30.43	318.27	20.29	
2025-01-08 19:38:31.66	318.49	20.15	
2025-01-08 19:38:32.90	318.71	20.01	
2025-01-08 19:38:34.13	318.93	19.87	
2025-01-08 19:38:35.36	319.15	19.72	
2025-01-08 19:38:36.59	319.36	19.58	
2025-01-08 19:38:37.84	319.58	19.44	
2025-01-08 19:38:39.07	319.79	19.30	
2025-01-08 19:38:40.30	320.00	19.16	
2025-01-08 19:38:41.53	320.20	19.03	
2025-01-08 19:38:42.76	320.41	18.89	
2025-01-08 19:38:44.00	320.61	18.75	
2025-01-08 19:38:45.23	320.81	18.61	
2025-01-08 19:38:46.46	321.01	18.48	
2025-01-08 19:38:47.69	321.21	18.34	
2025-01-08 19:38:48.92	321.40	18.21	
2025-01-08 19:38:50.17	321.60	18.07	
2025-01-08 19:38:51.40	321.79	17.94	
2025-01-08 19:38:52.63	321.98	17.80	
2025-01-08 19:38:53.86	322.17	17.67	
2025-01-08 19:38:55.09	322.36	17.54	
2025-01-08 19:38:56.32	322.54	17.40	
2025-01-08 19:38:57.55	322.73	17.27	
2025-01-08 19:38:58.78	322.91	17.14	
2025-01-08 19:39:00.02	323.09	17.01	
2025-01-08 19:39:01.26	323.27	16.88	
2025-01-08 19:39:02.49	323.45	16.75	
2025-01-08 19:39:03.72	323.62	16.62	
2025-01-08 19:39:04.97	323.80	16.49	
2025-01-08 19:39:06.21	323.97	16.36	
2025-01-08 19:39:07.44	324.14	16.23	
2025-01-08 19:39:08.67	324.31	16.11	
2025-01-08 19:39:09.90	324.48	15.98	
2025-01-08 19:39:11.14	324.65	15.85	
2025-01-08 19:39:12.37	324.81	15.73	
2025-01-08 19:39:13.60	324.98	15.60	
2025-01-08 19:39:14.83	325.14	15.48	
2025-01-08 19:39:16.06	325.30	15.36	
2025-01-08 19:39:17.29	325.46	15.23	
2025-01-08 19:39:18.52	325.62	15.11	
2025-01-08 19:39:19.76	325.78	14.99	
2025-01-08 19:39:20.99	325.93	14.86	
2025-01-08 19:39:22.22	326.08	14.74	
2025-01-08 19:39:23.45	326.24	14.62	
2025-01-08 19:39:24.70	326.39	14.50	
2025-01-08 19:39:25.93	326.54	14.38	
2025-01-08 19:39:27.16	326.69	14.26	
2025-01-08 19:39:28.40	326.84	14.14	
2025-01-08 19:39:29.63	326.99	14.02	
2025-01-08 19:39:30.86	327.13	13.90	
2025-01-08 19:39:32.10	327.28	13.78	
2025-01-08 19:39:33.33	327.42	13.67	
2025-01-08 19:39:34.56	327.56	13.55	
2025-01-08 19:39:35.79	327.70	13.44	
2025-01-08 19:39:37.02	327.84	13.32	
2025-01-08 19:39:38.26	327.98	13.20	
2025-01-08 19:39:39.49	328.12	13.09	
2025-01-08 19:39:40.72	328.26	12.97	
2025-01-08 19:39:41.95	328.39	12.86	
2025-01-08 19:39:43.19	328.53	12.75	
2025-01-08 19:39:44.43	328.66	12.63	
2025-01-08 19:39:45.66	328.79	12.52	
2025-01-08 19:39:46.89	328.92	12.41	
2025-01-08 19:39:48.13	329.05	12.30	
2025-01-08 19:39:49.36	329.18	12.19	
2025-01-08 19:39:50.59	329.31	12.07	
2025-01-08 19:39:51.82	329.44	11.96	
2025-01-08 19:39:53.05	329.56	11.86	
2025-01-08 19:39:54.28	329.69	11.75	
2025-01-08 19:39:55.50	329.81	11.64	
2025-01-08 19:39:56.74	329.94	11.53	
2025-01-08 19:39:57.97	330.06	11.42	
2025-01-08 19:39:59.20	330.18	11.31	
2025-01-08 19:40:00.43	330.30	11.21	
2025-01-08 19:40:01.67	330.42	11.10	
2025-01-08 19:40:02.90	330.54	10.99	
2025-01-08 19:40:04.13	330.66	10.89	
2025-01-08 19:40:05.36	330.78	10.78	
2025-01-08 19:40:06.59	330.89	10.68	
2025-01-08 19:40:07.82	331.01	10.57	
2025-01-08 19:40:09.05	331.12	10.47	
2025-01-08 19:40:10.30	331.24	10.36	
2025-01-08 19:40:11.54	331.35	10.26	
2025-01-08 19:40:12.77	331.46	10.15	
2025-01-08 19:40:14.00	331.57	10.05	
2025-01-08 19:40:15.24	331.68	9.95	
2025-01-08 19:40:16.47	331.79	9.85	
2025-01-08 19:40:17.71	331.90	9.74	
2025-01-08 19:40:18.95	332.01	9.64	
2025-01-08 19:40:20.18	332.12	9.54	
2025-01-08 19:40:21.41	332.23	9.44	
2025-01-08 19:40:22.64	332.33	9.34	
2025-01-08 19:40:23.88	332.44	9.24	
2025-01-08 19:40:25.11	332.54	9.14	
2025-01-08 19:40:26.34	332.64	9.04	
2025-01-08 19:40:27.57	332.75	8.94	
2025-01-08 19:40:28.80	332.85	8.84	
2025-01-08 19:40:30.04	332.95	8.75	
2025-01-08 19:40:31.27	333.05	8.65	
2025-01-08 19:40:32.51	333.15	8.55	
2025-01-08 19:40:33.74	333.25	8.45	
2025-01-08 19:40:34.97	333.35	8.36	
2025-01-08 19:40:36.20	333.45	8.26	
2025-01-08 19:40:37.43	333.55	8.17	
2025-01-08 19:40:38.67	333.64	8.07	
2025-01-08 19:40:39.90	333.74	7.97	
2025-01-08 19:40:41.13	333.83	7.88	
2025-01-08 19:40:42.36	333.93	7.79	
2025-01-08 19:40:43.61	334.03	7.69	
2025-01-08 19:40:44.86	334.12	7.59	
2025-01-08 19:40:46.10	334.21	7.50	
2025-01-08 19:40:47.32	334.31	7.41	
2025-01-08 19:40:48.56	334.40	7.31	
2025-01-08 19:40:49.79	334.49	7.22	
2025-01-08 19:40:51.02	334.58	7.13	
2025-01-08 19:40:52.25	334.67	7.04	
2025-01-08 19:40:53.48	334.76	6.95	
2025-01-08 19:40:54.71	334.85	6.86	
2025-01-08 19:40:55.95	334.94	6.76	
2025-01-08 19:40:57.18	335.02	6.67	
2025-01-08 19:40:58.41	335.11	6.58	
2025-01-08 19:40:59.64	335.20	6.49	
2025-01-08 19:41:00.87	335.28	6.40	
2025-01-08 19:41:02.10	335.37	6.31	
2025-01-08 19:41:03.33	335.45	6.23	
2025-01-08 19:41:04.57	335.54	6.14	
2025-01-08 19:41:05.80	335.62	6.05	
2025-01-08 19:41:07.03	335.71	5.96	
2025-01-08 19:41:08.26	335.79	5.87	
2025-01-08 19:41:09.49	335.87	5.78	
2025-01-08 19:41:10.74	335.96	5.70	
2025-01-08 19:41:11.99	336.04	5.61	
2025-01-08 19:41:13.22	336.12	5.52	
2025-01-08 19:41:14.45	336.20	5.43	
2025-01-08 19:41:15.69	336.28	5.35	
2025-01-08 19:41:16.91	336.36	5.26	
2025-01-08 19:41:18.15	336.44	5.18	
2025-01-08 19:41:19.38	336.52	5.09	
2025-01-08 19:41:20.61	336.59	5.01	
2025-01-08 19:41:21.84	336.67	4.92	
2025-01-08 19:41:23.08	336.75	4.84	
2025-01-08 19:41:24.33	336.83	4.75	
2025-01-08 19:41:25.56	336.90	4.67	
2025-01-08 19:41:26.79	336.98	4.58	
2025-01-08 19:41:28.03	337.06	4.50	
2025-01-08 19:41:29.28	337.13	4.41	
2025-01-08 19:41:30.51	337.21	4.33	
2025-01-08 19:41:31.74	337.28	4.25	
2025-01-08 19:41:32.97	337.35	4.16	
2025-01-08 19:41:34.20	337.43	4.08	

#Closed at: 2025-01-08 19:41:35