passes_logs/2025/01/08/SPB_Silybum_02/SPB_Silybum_02__20250108_115120_AQUA_rec.log

#Pass ID: 20250108_115120_AQUA
#Satellite: AQUA
#Configuration: AQUA
#Start time: 2025-01-08 11:51:21

#Version: 2.0.20230423
#Station: SPB_Silybum_02
#Location: 30.233357 lon 59.946436 lat
#TLE: 1 27424U 02022A   25007.87424311  .00002334  00000+0  48938-3 0  9995
#TLE: 2 27424  98.3576 324.4746 0001447 118.7932 262.7333 14.60655264206582

#Time	Az	El	Level	Level2	SNR	BER	Gain	Gain2
2025-01-08 11:51:23.08	175.47	4.15	
2025-01-08 11:51:24.32	175.51	4.24	
2025-01-08 11:51:25.55	175.54	4.33	
2025-01-08 11:51:26.80	175.58	4.42	
2025-01-08 11:51:28.03	175.62	4.51	
2025-01-08 11:51:29.26	175.66	4.60	
2025-01-08 11:51:30.49	175.70	4.68	
2025-01-08 11:51:31.72	175.74	4.77	
2025-01-08 11:51:32.96	175.78	4.87	
2025-01-08 11:51:34.19	175.82	4.96	
2025-01-08 11:51:35.43	175.86	5.05	
2025-01-08 11:51:36.67	175.90	5.14	
2025-01-08 11:51:37.89	175.94	5.23	
2025-01-08 11:51:39.12	175.98	5.32	
2025-01-08 11:51:40.35	176.02	5.41	
2025-01-08 11:51:41.58	176.07	5.51	
2025-01-08 11:51:42.83	176.11	5.60	
2025-01-08 11:51:44.06	176.15	5.69	
2025-01-08 11:51:45.28	176.19	5.79	
2025-01-08 11:51:46.51	176.23	5.88	
2025-01-08 11:51:47.75	176.28	5.98	
2025-01-08 11:51:48.98	176.32	6.07	
2025-01-08 11:51:50.21	176.36	6.17	
2025-01-08 11:51:51.44	176.41	6.26	
2025-01-08 11:51:52.67	176.45	6.36	
2025-01-08 11:51:53.91	176.50	6.45	
2025-01-08 11:51:55.14	176.54	6.55	
2025-01-08 11:51:56.37	176.59	6.65	
2025-01-08 11:51:57.61	176.63	6.75	
2025-01-08 11:51:58.84	176.68	6.84	
2025-01-08 11:52:00.08	176.72	6.94	
2025-01-08 11:52:01.32	176.77	7.04	
2025-01-08 11:52:02.55	176.82	7.14	
2025-01-08 11:52:03.80	176.86	7.24	
2025-01-08 11:52:05.03	176.91	7.34	
2025-01-08 11:52:06.27	176.96	7.44	
2025-01-08 11:52:07.51	177.01	7.54	
2025-01-08 11:52:08.74	177.06	7.65	
2025-01-08 11:52:09.97	177.10	7.75	
2025-01-08 11:52:11.20	177.15	7.85	
2025-01-08 11:52:12.43	177.20	7.95	
2025-01-08 11:52:13.67	177.25	8.06	
2025-01-08 11:52:14.90	177.30	8.16	
2025-01-08 11:52:16.13	177.35	8.26	
2025-01-08 11:52:17.36	177.40	8.37	
2025-01-08 11:52:18.59	177.45	8.47	
2025-01-08 11:52:19.82	177.50	8.58	
2025-01-08 11:52:21.05	177.56	8.68	
2025-01-08 11:52:22.28	177.61	8.79	
2025-01-08 11:52:23.51	177.66	8.90	
2025-01-08 11:52:24.75	177.71	9.00	
2025-01-08 11:52:25.99	177.77	9.11	
2025-01-08 11:52:27.23	177.82	9.22	
2025-01-08 11:52:28.46	177.87	9.33	
2025-01-08 11:52:29.69	177.93	9.44	
2025-01-08 11:52:30.92	177.98	9.55	
2025-01-08 11:52:32.15	178.04	9.66	
2025-01-08 11:52:33.38	178.09	9.77	
2025-01-08 11:52:34.62	178.15	9.88	
2025-01-08 11:52:35.86	178.21	9.99	
2025-01-08 11:52:37.09	178.26	10.11	
2025-01-08 11:52:38.33	178.32	10.22	
2025-01-08 11:52:39.56	178.38	10.33	
2025-01-08 11:52:40.79	178.44	10.45	
2025-01-08 11:52:42.02	178.50	10.56	
2025-01-08 11:52:43.28	178.56	10.68	
2025-01-08 11:52:44.51	178.62	10.80	
2025-01-08 11:52:45.74	178.68	10.91	
2025-01-08 11:52:46.99	178.74	11.03	
2025-01-08 11:52:48.22	178.80	11.15	
2025-01-08 11:52:49.45	178.86	11.27	
2025-01-08 11:52:50.68	178.92	11.39	
2025-01-08 11:52:51.91	178.99	11.51	
2025-01-08 11:52:53.14	179.05	11.63	
2025-01-08 11:52:54.39	179.11	11.75	
2025-01-08 11:52:55.63	179.18	11.87	
2025-01-08 11:52:56.86	179.24	11.99	
2025-01-08 11:52:58.09	179.31	12.12	
2025-01-08 11:52:59.32	179.37	12.24	
2025-01-08 11:53:00.57	179.44	12.36	
2025-01-08 11:53:01.80	179.51	12.49	
2025-01-08 11:53:03.03	179.58	12.61	
2025-01-08 11:53:04.27	179.64	12.74	
2025-01-08 11:53:05.50	179.71	12.87	
2025-01-08 11:53:06.73	179.78	13.00	
2025-01-08 11:53:07.96	179.85	13.12	
2025-01-08 11:53:09.19	179.92	13.25	
2025-01-08 11:53:10.43	179.99	13.38	
2025-01-08 11:53:11.66	180.07	13.51	
2025-01-08 11:53:12.90	180.14	13.64	
2025-01-08 11:53:14.13	180.21	13.78	
2025-01-08 11:53:15.38	180.29	13.91	
2025-01-08 11:53:16.62	180.36	14.05	
2025-01-08 11:53:17.85	180.44	14.18	
2025-01-08 11:53:19.08	180.51	14.31	
2025-01-08 11:53:20.31	180.59	14.45	
2025-01-08 11:53:21.56	180.67	14.59	
2025-01-08 11:53:22.79	180.74	14.73	
2025-01-08 11:53:24.03	180.82	14.87	
2025-01-08 11:53:25.26	180.90	15.00	
2025-01-08 11:53:26.49	180.98	15.14	
2025-01-08 11:53:27.73	181.06	15.29	
2025-01-08 11:53:28.97	181.15	15.43	
2025-01-08 11:53:30.20	181.23	15.57	
2025-01-08 11:53:31.43	181.31	15.71	
2025-01-08 11:53:32.67	181.40	15.86	
2025-01-08 11:53:33.91	181.48	16.01	
2025-01-08 11:53:35.14	181.57	16.15	
2025-01-08 11:53:36.37	181.66	16.30	
2025-01-08 11:53:37.60	181.74	16.45	
2025-01-08 11:53:38.84	181.83	16.60	
2025-01-08 11:53:40.08	181.92	16.75	
2025-01-08 11:53:41.31	182.01	16.90	
2025-01-08 11:53:42.54	182.10	17.05	
2025-01-08 11:53:43.77	182.19	17.20	
2025-01-08 11:53:45.00	182.29	17.35	
2025-01-08 11:53:46.23	182.38	17.51	
2025-01-08 11:53:47.46	182.48	17.66	
2025-01-08 11:53:48.69	182.57	17.82	
2025-01-08 11:53:49.93	182.67	17.98	
2025-01-08 11:53:51.16	182.77	18.14	
2025-01-08 11:53:52.40	182.87	18.30	
2025-01-08 11:53:53.64	182.97	18.46	
2025-01-08 11:53:54.87	183.07	18.62	
2025-01-08 11:53:56.10	183.17	18.79	
2025-01-08 11:53:57.34	183.27	18.95	
2025-01-08 11:53:58.58	183.38	19.12	
2025-01-08 11:53:59.82	183.49	19.28	
2025-01-08 11:54:01.05	183.59	19.45	
2025-01-08 11:54:02.28	183.70	19.62	
2025-01-08 11:54:03.52	183.81	19.79	
2025-01-08 11:54:04.74	183.92	19.96	
2025-01-08 11:54:05.98	184.03	20.13	
2025-01-08 11:54:07.23	184.15	20.31	
2025-01-08 11:54:08.46	184.26	20.49	
2025-01-08 11:54:09.69	184.38	20.66	
2025-01-08 11:54:10.93	184.49	20.84	
2025-01-08 11:54:12.17	184.61	21.02	
2025-01-08 11:54:13.40	184.73	21.20	
2025-01-08 11:54:14.63	184.85	21.38	
2025-01-08 11:54:15.86	184.98	21.56	
2025-01-08 11:54:17.10	185.10	21.75	
2025-01-08 11:54:18.33	185.23	21.93	
2025-01-08 11:54:19.56	185.35	22.12	
2025-01-08 11:54:20.80	185.48	22.31	
2025-01-08 11:54:22.03	185.61	22.50	
2025-01-08 11:54:23.26	185.74	22.69	
2025-01-08 11:54:24.49	185.88	22.88	
2025-01-08 11:54:25.72	186.01	23.07	
2025-01-08 11:54:26.98	186.15	23.27	
2025-01-08 11:54:28.21	186.29	23.47	
2025-01-08 11:54:29.44	186.43	23.66	
2025-01-08 11:54:30.67	186.57	23.86	
2025-01-08 11:54:31.90	186.72	24.06	
2025-01-08 11:54:33.13	186.86	24.26	
2025-01-08 11:54:34.36	187.01	24.47	
2025-01-08 11:54:35.59	187.16	24.67	
2025-01-08 11:54:36.82	187.31	24.88	
2025-01-08 11:54:38.06	187.47	25.09	
2025-01-08 11:54:39.28	187.62	25.30	
2025-01-08 11:54:40.52	187.78	25.51	
2025-01-08 11:54:41.76	187.94	25.72	
2025-01-08 11:54:43.01	188.10	25.94	
2025-01-08 11:54:44.24	188.27	26.16	
2025-01-08 11:54:45.47	188.44	26.38	
2025-01-08 11:54:46.71	188.61	26.60	
2025-01-08 11:54:47.93	188.78	26.82	
2025-01-08 11:54:49.18	188.95	27.04	
2025-01-08 11:54:50.41	189.13	27.27	
2025-01-08 11:54:51.66	189.31	27.50	
2025-01-08 11:54:52.89	189.49	27.72	
2025-01-08 11:54:54.13	189.68	27.96	
2025-01-08 11:54:55.37	189.86	28.19	
2025-01-08 11:54:56.60	190.05	28.42	
2025-01-08 11:54:57.82	190.24	28.66	
2025-01-08 11:54:59.05	190.44	28.89	
2025-01-08 11:55:00.28	190.64	29.13	
2025-01-08 11:55:01.51	190.84	29.37	
2025-01-08 11:55:02.75	191.04	29.62	
2025-01-08 11:55:03.98	191.25	29.86	
2025-01-08 11:55:05.21	191.46	30.11	
2025-01-08 11:55:06.44	191.68	30.35	
2025-01-08 11:55:07.66	191.89	30.60	
2025-01-08 11:55:08.90	192.11	30.86	
2025-01-08 11:55:10.13	192.34	31.11	
2025-01-08 11:55:11.37	192.57	31.37	
2025-01-08 11:55:12.60	192.80	31.63	
2025-01-08 11:55:13.84	193.03	31.89	
2025-01-08 11:55:15.07	193.27	32.15	
2025-01-08 11:55:16.30	193.52	32.41	
2025-01-08 11:55:17.54	193.76	32.68	
2025-01-08 11:55:18.78	194.02	32.95	
2025-01-08 11:55:20.03	194.28	33.22	
2025-01-08 11:55:21.27	194.54	33.49	
2025-01-08 11:55:22.50	194.80	33.77	
2025-01-08 11:55:23.74	195.07	34.04	
2025-01-08 11:55:24.97	195.34	34.32	
2025-01-08 11:55:26.20	195.62	34.60	
2025-01-08 11:55:27.44	195.91	34.88	
2025-01-08 11:55:28.68	196.20	35.17	
2025-01-08 11:55:29.91	196.49	35.45	
2025-01-08 11:55:31.15	196.79	35.74	
2025-01-08 11:55:32.39	197.10	36.03	
2025-01-08 11:55:33.62	197.40	36.32	
2025-01-08 11:55:34.86	197.72	36.62	
2025-01-08 11:55:36.09	198.04	36.91	
2025-01-08 11:55:37.32	198.37	37.21	
2025-01-08 11:55:38.55	198.70	37.51	
2025-01-08 11:55:39.80	199.04	37.81	
2025-01-08 11:55:41.04	199.39	38.11	
2025-01-08 11:55:42.27	199.74	38.42	
2025-01-08 11:55:43.50	200.10	38.72	
2025-01-08 11:55:44.73	200.46	39.03	
2025-01-08 11:55:45.96	200.83	39.34	
2025-01-08 11:55:47.19	201.21	39.65	
2025-01-08 11:55:48.43	201.60	39.96	
2025-01-08 11:55:49.65	201.99	40.27	
2025-01-08 11:55:50.90	202.40	40.59	
2025-01-08 11:55:52.13	202.81	40.90	
2025-01-08 11:55:53.36	203.22	41.22	
2025-01-08 11:55:54.59	203.65	41.54	
2025-01-08 11:55:55.84	204.09	41.86	
2025-01-08 11:55:57.07	204.53	42.18	
2025-01-08 11:55:58.31	204.99	42.51	
2025-01-08 11:55:59.55	205.45	42.83	
2025-01-08 11:56:00.79	205.93	43.16	
2025-01-08 11:56:02.02	206.41	43.48	
2025-01-08 11:56:03.24	206.89	43.80	
2025-01-08 11:56:04.47	207.39	44.13	
2025-01-08 11:56:05.71	207.91	44.46	
2025-01-08 11:56:06.94	208.43	44.78	
2025-01-08 11:56:08.16	208.95	45.10	
2025-01-08 11:56:09.40	209.50	45.43	
2025-01-08 11:56:10.63	210.06	45.76	
2025-01-08 11:56:11.86	210.62	46.09	
2025-01-08 11:56:13.09	211.20	46.41	
2025-01-08 11:56:14.33	211.79	46.74	
2025-01-08 11:56:15.56	212.39	47.06	
2025-01-08 11:56:16.79	213.01	47.39	
2025-01-08 11:56:18.03	213.64	47.71	
2025-01-08 11:56:19.26	214.28	48.03	
2025-01-08 11:56:20.51	214.95	48.36	
2025-01-08 11:56:21.74	215.62	48.68	
2025-01-08 11:56:22.97	216.30	48.99	
2025-01-08 11:56:24.20	216.99	49.31	
2025-01-08 11:56:25.44	217.71	49.62	
2025-01-08 11:56:26.67	218.44	49.94	
2025-01-08 11:56:27.90	219.18	50.24	
2025-01-08 11:56:29.13	219.93	50.55	
2025-01-08 11:56:30.36	220.70	50.85	
2025-01-08 11:56:31.60	221.50	51.15	
2025-01-08 11:56:32.84	222.30	51.45	
2025-01-08 11:56:34.07	223.12	51.74	
2025-01-08 11:56:35.30	223.96	52.02	
2025-01-08 11:56:36.53	224.81	52.30	
2025-01-08 11:56:37.76	225.67	52.58	
2025-01-08 11:56:38.99	226.56	52.85	
2025-01-08 11:56:40.24	227.47	53.12	
2025-01-08 11:56:41.48	228.39	53.39	
2025-01-08 11:56:42.71	229.33	53.64	
2025-01-08 11:56:43.94	230.27	53.89	
2025-01-08 11:56:45.17	231.24	54.13	
2025-01-08 11:56:46.40	232.22	54.36	
2025-01-08 11:56:47.63	233.22	54.59	
2025-01-08 11:56:48.86	234.23	54.81	
2025-01-08 11:56:50.09	235.26	55.02	
2025-01-08 11:56:51.32	236.30	55.22	
2025-01-08 11:56:52.55	237.36	55.42	
2025-01-08 11:56:53.78	238.43	55.60	
2025-01-08 11:56:55.01	239.52	55.78	
2025-01-08 11:56:56.26	240.63	55.95	
2025-01-08 11:56:57.48	241.74	56.11	
2025-01-08 11:56:58.71	242.86	56.25	
2025-01-08 11:56:59.94	244.00	56.39	
2025-01-08 11:57:01.17	245.14	56.52	
2025-01-08 11:57:02.41	246.31	56.63	
2025-01-08 11:57:03.64	247.48	56.74	
2025-01-08 11:57:04.87	248.65	56.83	
2025-01-08 11:57:06.10	249.83	56.91	
2025-01-08 11:57:07.33	251.02	56.99	
2025-01-08 11:57:08.57	252.23	57.05	
2025-01-08 11:57:09.80	253.42	57.09	
2025-01-08 11:57:11.03	254.63	57.13	
2025-01-08 11:57:12.28	255.85	57.15	
2025-01-08 11:57:13.52	257.07	57.17	
2025-01-08 11:57:14.75	258.28	57.16	
2025-01-08 11:57:15.98	259.48	57.15	
2025-01-08 11:57:17.22	260.70	57.13	
2025-01-08 11:57:18.45	261.90	57.09	
2025-01-08 11:57:19.68	263.10	57.05	
2025-01-08 11:57:20.91	264.29	56.99	
2025-01-08 11:57:22.14	265.48	56.91	
2025-01-08 11:57:23.37	266.66	56.83	
2025-01-08 11:57:24.62	267.86	56.74	
2025-01-08 11:57:25.85	269.02	56.63	
2025-01-08 11:57:27.10	270.20	56.51	
2025-01-08 11:57:28.34	271.35	56.39	
2025-01-08 11:57:29.58	272.49	56.25	
2025-01-08 11:57:30.82	273.63	56.10	
2025-01-08 11:57:32.05	274.74	55.94	
2025-01-08 11:57:33.28	275.83	55.78	
2025-01-08 11:57:34.52	276.93	55.60	
2025-01-08 11:57:35.77	278.02	55.41	
2025-01-08 11:57:37.00	279.07	55.21	
2025-01-08 11:57:38.23	280.11	55.01	
2025-01-08 11:57:39.46	281.14	54.80	
2025-01-08 11:57:40.69	282.15	54.58	
2025-01-08 11:57:41.92	283.14	54.35	
2025-01-08 11:57:43.16	284.13	54.12	
2025-01-08 11:57:44.40	285.10	53.87	
2025-01-08 11:57:45.63	286.04	53.63	
2025-01-08 11:57:46.87	286.98	53.37	
2025-01-08 11:57:48.10	287.89	53.11	
2025-01-08 11:57:49.33	288.79	52.84	
2025-01-08 11:57:50.56	289.67	52.57	
2025-01-08 11:57:51.80	290.54	52.29	
2025-01-08 11:57:53.03	291.39	52.01	
2025-01-08 11:57:54.28	292.23	51.72	
2025-01-08 11:57:55.51	293.05	51.43	
2025-01-08 11:57:56.75	293.85	51.14	
2025-01-08 11:57:57.99	294.64	50.84	
2025-01-08 11:57:59.22	295.41	50.54	
2025-01-08 11:58:00.47	296.18	50.23	
2025-01-08 11:58:01.70	296.91	49.92	
2025-01-08 11:58:02.94	297.64	49.61	
2025-01-08 11:58:04.18	298.36	49.30	
2025-01-08 11:58:05.41	299.05	48.98	
2025-01-08 11:58:06.64	299.73	48.67	
2025-01-08 11:58:07.87	300.39	48.35	
2025-01-08 11:58:09.10	301.05	48.03	
2025-01-08 11:58:10.33	301.68	47.71	
2025-01-08 11:58:11.56	302.31	47.39	
2025-01-08 11:58:12.80	302.93	47.06	
2025-01-08 11:58:14.04	303.53	46.74	
2025-01-08 11:58:15.27	304.12	46.41	
2025-01-08 11:58:16.52	304.70	46.08	
2025-01-08 11:58:17.75	305.27	45.76	
2025-01-08 11:58:19.00	305.83	45.43	
2025-01-08 11:58:20.23	306.37	45.10	
2025-01-08 11:58:21.46	306.90	44.78	
2025-01-08 11:58:22.69	307.42	44.46	
2025-01-08 11:58:23.92	307.92	44.13	
2025-01-08 11:58:25.15	308.42	43.81	
2025-01-08 11:58:26.39	308.91	43.48	
2025-01-08 11:58:27.62	309.39	43.16	
2025-01-08 11:58:28.86	309.86	42.84	
2025-01-08 11:58:30.10	310.33	42.51	
2025-01-08 11:58:31.35	310.78	42.19	
2025-01-08 11:58:32.58	311.22	41.87	
2025-01-08 11:58:33.81	311.66	41.55	
2025-01-08 11:58:35.05	312.08	41.23	
2025-01-08 11:58:36.28	312.50	40.92	
2025-01-08 11:58:37.52	312.91	40.60	
2025-01-08 11:58:38.75	313.31	40.29	
2025-01-08 11:58:39.99	313.70	39.98	
2025-01-08 11:58:41.24	314.09	39.66	
2025-01-08 11:58:42.48	314.47	39.35	
2025-01-08 11:58:43.73	314.85	39.04	
2025-01-08 11:58:44.96	315.21	38.74	
2025-01-08 11:58:46.19	315.57	38.43	
2025-01-08 11:58:47.42	315.92	38.13	
2025-01-08 11:58:48.66	316.26	37.83	
2025-01-08 11:58:49.91	316.61	37.53	
2025-01-08 11:58:51.14	316.94	37.23	
2025-01-08 11:58:52.37	317.26	36.94	
2025-01-08 11:58:53.60	317.58	36.64	
2025-01-08 11:58:54.83	317.89	36.35	
2025-01-08 11:58:56.06	318.20	36.06	
2025-01-08 11:58:57.29	318.50	35.78	
2025-01-08 11:58:58.54	318.80	35.49	
2025-01-08 11:58:59.77	319.10	35.21	
2025-01-08 11:59:01.01	319.38	34.92	
2025-01-08 11:59:02.24	319.67	34.64	
2025-01-08 11:59:03.47	319.94	34.37	
2025-01-08 11:59:04.72	320.22	34.09	
2025-01-08 11:59:05.97	320.49	33.81	
2025-01-08 11:59:07.20	320.75	33.54	
2025-01-08 11:59:08.43	321.01	33.27	
2025-01-08 11:59:09.66	321.27	33.00	
2025-01-08 11:59:10.89	321.52	32.73	
2025-01-08 11:59:12.12	321.76	32.47	
2025-01-08 11:59:13.36	322.01	32.21	
2025-01-08 11:59:14.59	322.24	31.95	
2025-01-08 11:59:15.82	322.48	31.69	
2025-01-08 11:59:17.05	322.71	31.43	
2025-01-08 11:59:18.28	322.94	31.18	
2025-01-08 11:59:19.52	323.16	30.92	
2025-01-08 11:59:20.75	323.38	30.67	
2025-01-08 11:59:22.00	323.60	30.42	
2025-01-08 11:59:23.25	323.82	30.17	
2025-01-08 11:59:24.48	324.03	29.93	
2025-01-08 11:59:25.71	324.24	29.68	
2025-01-08 11:59:26.96	324.44	29.44	
2025-01-08 11:59:28.19	324.64	29.20	
2025-01-08 11:59:29.42	324.84	28.96	
2025-01-08 11:59:30.65	325.04	28.73	
2025-01-08 11:59:31.88	325.23	28.49	
2025-01-08 11:59:33.13	325.42	28.26	
2025-01-08 11:59:34.36	325.61	28.03	
2025-01-08 11:59:35.59	325.79	27.80	
2025-01-08 11:59:36.83	325.97	27.57	
2025-01-08 11:59:38.06	326.15	27.34	
2025-01-08 11:59:39.29	326.33	27.12	
2025-01-08 11:59:40.52	326.50	26.90	
2025-01-08 11:59:41.75	326.67	26.68	
2025-01-08 11:59:42.98	326.84	26.46	
2025-01-08 11:59:44.21	327.01	26.25	
2025-01-08 11:59:45.44	327.17	26.03	
2025-01-08 11:59:46.68	327.33	25.82	
2025-01-08 11:59:47.92	327.50	25.60	
2025-01-08 11:59:49.16	327.65	25.39	
2025-01-08 11:59:50.38	327.81	25.18	
2025-01-08 11:59:51.62	327.96	24.97	
2025-01-08 11:59:52.85	328.11	24.77	
2025-01-08 11:59:54.08	328.26	24.57	
2025-01-08 11:59:55.32	328.41	24.36	
2025-01-08 11:59:56.54	328.56	24.16	
2025-01-08 11:59:57.77	328.70	23.96	
2025-01-08 11:59:59.00	328.84	23.77	
2025-01-08 12:00:00.23	328.98	23.57	
2025-01-08 12:00:01.47	329.12	23.37	
2025-01-08 12:00:02.70	329.26	23.18	
2025-01-08 12:00:03.93	329.40	22.99	
2025-01-08 12:00:05.18	329.53	22.79	
2025-01-08 12:00:06.40	329.66	22.61	
2025-01-08 12:00:07.63	329.79	22.42	
2025-01-08 12:00:08.86	329.92	22.23	
2025-01-08 12:00:10.10	330.05	22.04	
2025-01-08 12:00:11.33	330.17	21.86	
2025-01-08 12:00:12.56	330.30	21.68	
2025-01-08 12:00:13.79	330.42	21.50	
2025-01-08 12:00:15.02	330.54	21.32	
2025-01-08 12:00:16.27	330.66	21.14	
2025-01-08 12:00:17.50	330.78	20.96	
2025-01-08 12:00:18.73	330.90	20.78	
2025-01-08 12:00:19.96	331.02	20.61	
2025-01-08 12:00:21.20	331.13	20.43	
2025-01-08 12:00:22.44	331.25	20.26	
2025-01-08 12:00:23.68	331.36	20.09	
2025-01-08 12:00:24.93	331.47	19.91	
2025-01-08 12:00:26.17	331.58	19.74	
2025-01-08 12:00:27.40	331.69	19.57	
2025-01-08 12:00:28.64	331.80	19.41	
2025-01-08 12:00:29.87	331.90	19.24	
2025-01-08 12:00:31.12	332.01	19.07	
2025-01-08 12:00:32.35	332.11	18.91	
2025-01-08 12:00:33.58	332.22	18.75	
2025-01-08 12:00:34.81	332.32	18.59	
2025-01-08 12:00:36.05	332.42	18.43	
2025-01-08 12:00:37.29	332.52	18.27	
2025-01-08 12:00:38.52	332.62	18.11	
2025-01-08 12:00:39.75	332.71	17.95	
2025-01-08 12:00:41.00	332.81	17.79	
2025-01-08 12:00:42.23	332.91	17.64	
2025-01-08 12:00:43.46	333.00	17.49	
2025-01-08 12:00:44.69	333.09	17.33	
2025-01-08 12:00:45.93	333.19	17.18	
2025-01-08 12:00:47.16	333.28	17.03	
2025-01-08 12:00:48.39	333.37	16.88	
2025-01-08 12:00:49.64	333.46	16.73	
2025-01-08 12:00:50.87	333.55	16.58	
2025-01-08 12:00:52.10	333.64	16.43	
2025-01-08 12:00:53.34	333.72	16.29	
2025-01-08 12:00:54.57	333.81	16.14	
2025-01-08 12:00:55.80	333.90	16.00	
2025-01-08 12:00:57.03	333.98	15.85	
2025-01-08 12:00:58.25	334.06	15.71	
2025-01-08 12:00:59.49	334.15	15.57	
2025-01-08 12:01:00.75	334.23	15.42	
2025-01-08 12:01:01.98	334.31	15.28	
2025-01-08 12:01:03.21	334.39	15.15	
2025-01-08 12:01:04.44	334.47	15.01	
2025-01-08 12:01:05.68	334.55	14.87	
2025-01-08 12:01:06.91	334.63	14.73	
2025-01-08 12:01:08.15	334.71	14.59	
2025-01-08 12:01:09.38	334.79	14.46	
2025-01-08 12:01:10.61	334.86	14.33	
2025-01-08 12:01:11.85	334.94	14.19	
2025-01-08 12:01:13.08	335.02	14.06	
2025-01-08 12:01:14.31	335.09	13.93	
2025-01-08 12:01:15.54	335.16	13.80	
2025-01-08 12:01:16.78	335.24	13.66	
2025-01-08 12:01:18.03	335.31	13.53	
2025-01-08 12:01:19.26	335.38	13.40	
2025-01-08 12:01:20.50	335.45	13.27	
2025-01-08 12:01:21.73	335.52	13.15	
2025-01-08 12:01:22.97	335.60	13.02	
2025-01-08 12:01:24.19	335.66	12.89	
2025-01-08 12:01:25.43	335.73	12.77	
2025-01-08 12:01:26.66	335.80	12.64	
2025-01-08 12:01:27.89	335.87	12.52	
2025-01-08 12:01:29.13	335.94	12.39	
2025-01-08 12:01:30.35	336.00	12.27	
2025-01-08 12:01:31.58	336.07	12.15	
2025-01-08 12:01:32.82	336.13	12.03	
2025-01-08 12:01:34.06	336.20	11.91	
2025-01-08 12:01:35.29	336.26	11.79	
2025-01-08 12:01:36.53	336.33	11.66	
2025-01-08 12:01:37.76	336.39	11.55	
2025-01-08 12:01:38.99	336.46	11.43	
2025-01-08 12:01:40.22	336.52	11.31	
2025-01-08 12:01:41.45	336.58	11.19	
2025-01-08 12:01:42.68	336.64	11.08	
2025-01-08 12:01:43.92	336.70	10.96	
2025-01-08 12:01:45.15	336.76	10.84	
2025-01-08 12:01:46.39	336.82	10.73	
2025-01-08 12:01:47.62	336.88	10.61	
2025-01-08 12:01:48.86	336.94	10.50	
2025-01-08 12:01:50.08	337.00	10.39	
2025-01-08 12:01:51.31	337.06	10.27	
2025-01-08 12:01:52.54	337.12	10.16	
2025-01-08 12:01:53.78	337.17	10.05	
2025-01-08 12:01:55.01	337.23	9.94	
2025-01-08 12:01:56.24	337.29	9.83	
2025-01-08 12:01:57.47	337.34	9.72	
2025-01-08 12:01:58.71	337.40	9.61	
2025-01-08 12:01:59.94	337.46	9.50	
2025-01-08 12:02:01.17	337.51	9.39	
2025-01-08 12:02:02.41	337.57	9.28	
2025-01-08 12:02:03.64	337.62	9.18	
2025-01-08 12:02:04.88	337.67	9.07	
2025-01-08 12:02:06.11	337.73	8.96	
2025-01-08 12:02:07.35	337.78	8.86	
2025-01-08 12:02:08.58	337.83	8.75	
2025-01-08 12:02:09.82	337.89	8.64	
2025-01-08 12:02:11.05	337.94	8.54	
2025-01-08 12:02:12.28	337.99	8.44	
2025-01-08 12:02:13.51	338.04	8.33	
2025-01-08 12:02:14.76	338.09	8.23	
2025-01-08 12:02:15.99	338.14	8.13	
2025-01-08 12:02:17.24	338.19	8.02	
2025-01-08 12:02:18.47	338.24	7.92	
2025-01-08 12:02:19.70	338.29	7.82	
2025-01-08 12:02:20.93	338.34	7.72	
2025-01-08 12:02:22.16	338.39	7.62	
2025-01-08 12:02:23.40	338.44	7.52	
2025-01-08 12:02:24.63	338.49	7.42	
2025-01-08 12:02:25.86	338.53	7.32	
2025-01-08 12:02:27.09	338.58	7.22	
2025-01-08 12:02:28.33	338.63	7.12	
2025-01-08 12:02:29.56	338.68	7.02	
2025-01-08 12:02:30.79	338.72	6.93	
2025-01-08 12:02:32.02	338.77	6.83	
2025-01-08 12:02:33.25	338.82	6.73	
2025-01-08 12:02:34.49	338.86	6.64	
2025-01-08 12:02:35.72	338.91	6.54	
2025-01-08 12:02:36.95	338.95	6.44	
2025-01-08 12:02:38.19	339.00	6.35	
2025-01-08 12:02:39.41	339.04	6.25	
2025-01-08 12:02:40.66	339.09	6.16	
2025-01-08 12:02:41.89	339.13	6.06	
2025-01-08 12:02:43.12	339.17	5.97	
2025-01-08 12:02:44.35	339.22	5.88	
2025-01-08 12:02:45.59	339.26	5.78	
2025-01-08 12:02:46.82	339.30	5.69	
2025-01-08 12:02:48.05	339.35	5.60	
2025-01-08 12:02:49.28	339.39	5.51	
2025-01-08 12:02:50.52	339.43	5.41	
2025-01-08 12:02:51.75	339.47	5.32	
2025-01-08 12:02:52.99	339.52	5.23	
2025-01-08 12:02:54.21	339.56	5.14	
2025-01-08 12:02:55.45	339.60	5.05	
2025-01-08 12:02:56.68	339.64	4.96	
2025-01-08 12:02:57.91	339.68	4.87	
2025-01-08 12:02:59.14	339.72	4.78	
2025-01-08 12:03:00.38	339.76	4.69	
2025-01-08 12:03:01.61	339.80	4.60	
2025-01-08 12:03:02.84	339.84	4.52	
2025-01-08 12:03:04.08	339.88	4.43	
2025-01-08 12:03:05.31	339.92	4.34	
2025-01-08 12:03:06.55	339.96	4.25	
2025-01-08 12:03:07.79	340.00	4.16	
2025-01-08 12:03:09.04	340.04	4.08	

#Closed at: 2025-01-08 12:03:10