passes_logs/2025/01/08/SPB_Silybum_02/SPB_Silybum_02__20250108_035300_AQUA_rec.log

#Pass ID: 20250108_035300_AQUA
#Satellite: AQUA
#Configuration: AQUA
#Start time: 2025-01-08 03:52:59

#Version: 2.0.20230423
#Station: SPB_Silybum_02
#Location: 30.233357 lon 59.946436 lat
#TLE: 1 27424U 02022A   25007.20663841  .00002684  00000+0  56113-3 0  9997
#TLE: 2 27424  98.3577 323.8011 0001408 118.8980 354.1988 14.60651824206481

#Time	Az	El	Level	Level2	SNR	BER	Gain	Gain2
2025-01-08 03:53:01.92	7.80	4.08	
2025-01-08 03:53:02.95	7.69	4.13	
2025-01-08 03:53:03.97	7.57	4.18	
2025-01-08 03:53:05.01	7.44	4.24	
2025-01-08 03:53:06.04	7.32	4.29	
2025-01-08 03:53:07.07	7.20	4.34	
2025-01-08 03:53:08.10	7.08	4.39	
2025-01-08 03:53:09.14	6.96	4.44	
2025-01-08 03:53:10.16	6.83	4.50	
2025-01-08 03:53:11.19	6.71	4.55	
2025-01-08 03:53:12.21	6.59	4.60	
2025-01-08 03:53:13.24	6.46	4.65	
2025-01-08 03:53:14.26	6.34	4.70	
2025-01-08 03:53:15.29	6.21	4.76	
2025-01-08 03:53:16.31	6.09	4.81	
2025-01-08 03:53:17.34	5.96	4.86	
2025-01-08 03:53:18.36	5.84	4.91	
2025-01-08 03:53:19.39	5.71	4.96	
2025-01-08 03:53:20.42	5.58	5.01	
2025-01-08 03:53:21.44	5.45	5.07	
2025-01-08 03:53:22.47	5.32	5.12	
2025-01-08 03:53:23.50	5.19	5.17	
2025-01-08 03:53:24.52	5.06	5.22	
2025-01-08 03:53:25.55	4.93	5.27	
2025-01-08 03:53:26.58	4.80	5.33	
2025-01-08 03:53:27.61	4.67	5.38	
2025-01-08 03:53:28.63	4.54	5.43	
2025-01-08 03:53:29.66	4.41	5.48	
2025-01-08 03:53:30.70	4.27	5.53	
2025-01-08 03:53:31.72	4.14	5.59	
2025-01-08 03:53:32.75	4.01	5.64	
2025-01-08 03:53:33.77	3.87	5.69	
2025-01-08 03:53:34.79	3.74	5.74	
2025-01-08 03:53:35.83	3.60	5.79	
2025-01-08 03:53:36.85	3.47	5.84	
2025-01-08 03:53:37.88	3.33	5.89	
2025-01-08 03:53:38.91	3.19	5.95	
2025-01-08 03:53:39.95	3.05	6.00	
2025-01-08 03:53:40.97	2.91	6.05	
2025-01-08 03:53:42.00	2.77	6.10	
2025-01-08 03:53:43.02	2.64	6.15	
2025-01-08 03:53:44.04	2.50	6.20	
2025-01-08 03:53:45.07	2.36	6.25	
2025-01-08 03:53:46.09	2.22	6.31	
2025-01-08 03:53:47.12	2.07	6.36	
2025-01-08 03:53:48.14	1.93	6.41	
2025-01-08 03:53:49.17	1.79	6.46	
2025-01-08 03:53:50.20	1.65	6.51	
2025-01-08 03:53:51.22	1.50	6.56	
2025-01-08 03:53:52.26	1.36	6.61	
2025-01-08 03:53:53.30	1.21	6.66	
2025-01-08 03:53:54.32	1.07	6.71	
2025-01-08 03:53:55.35	0.92	6.77	
2025-01-08 03:53:56.37	0.77	6.82	
2025-01-08 03:53:57.40	0.63	6.87	
2025-01-08 03:53:58.43	0.48	6.92	
2025-01-08 03:53:59.45	0.33	6.97	
2025-01-08 03:54:00.48	0.18	7.02	
2025-01-08 03:54:01.50	0.03	7.07	
2025-01-08 03:54:02.53	359.88	7.12	
2025-01-08 03:54:03.57	359.73	7.17	
2025-01-08 03:54:04.61	359.58	7.22	
2025-01-08 03:54:05.63	359.43	7.27	
2025-01-08 03:54:06.66	359.27	7.32	
2025-01-08 03:54:07.69	359.12	7.37	
2025-01-08 03:54:08.71	358.97	7.42	
2025-01-08 03:54:09.74	358.81	7.47	
2025-01-08 03:54:10.78	358.65	7.52	
2025-01-08 03:54:11.81	358.50	7.57	
2025-01-08 03:54:12.83	358.34	7.62	
2025-01-08 03:54:13.85	358.19	7.67	
2025-01-08 03:54:14.88	358.03	7.72	
2025-01-08 03:54:15.91	357.87	7.77	
2025-01-08 03:54:16.93	357.72	7.82	
2025-01-08 03:54:17.97	357.55	7.87	
2025-01-08 03:54:19.00	357.39	7.92	
2025-01-08 03:54:20.02	357.24	7.97	
2025-01-08 03:54:21.05	357.07	8.02	
2025-01-08 03:54:22.07	356.91	8.06	
2025-01-08 03:54:23.10	356.75	8.11	
2025-01-08 03:54:24.13	356.59	8.16	
2025-01-08 03:54:25.15	356.43	8.21	
2025-01-08 03:54:26.18	356.26	8.26	
2025-01-08 03:54:27.22	356.10	8.31	
2025-01-08 03:54:28.25	355.93	8.36	
2025-01-08 03:54:29.28	355.76	8.40	
2025-01-08 03:54:30.30	355.60	8.45	
2025-01-08 03:54:31.33	355.43	8.50	
2025-01-08 03:54:32.36	355.26	8.55	
2025-01-08 03:54:33.39	355.10	8.60	
2025-01-08 03:54:34.41	354.93	8.64	
2025-01-08 03:54:35.44	354.76	8.69	
2025-01-08 03:54:36.46	354.59	8.74	
2025-01-08 03:54:37.49	354.42	8.79	
2025-01-08 03:54:38.51	354.25	8.83	
2025-01-08 03:54:39.54	354.08	8.88	
2025-01-08 03:54:40.56	353.91	8.93	
2025-01-08 03:54:41.59	353.73	8.97	
2025-01-08 03:54:42.61	353.56	9.02	
2025-01-08 03:54:43.64	353.39	9.07	
2025-01-08 03:54:44.67	353.21	9.11	
2025-01-08 03:54:45.70	353.03	9.16	
2025-01-08 03:54:46.73	352.86	9.20	
2025-01-08 03:54:47.75	352.68	9.25	
2025-01-08 03:54:48.78	352.51	9.30	
2025-01-08 03:54:49.82	352.33	9.34	
2025-01-08 03:54:50.85	352.15	9.39	
2025-01-08 03:54:51.88	351.97	9.43	
2025-01-08 03:54:52.91	351.79	9.48	
2025-01-08 03:54:53.94	351.61	9.52	
2025-01-08 03:54:54.97	351.42	9.57	
2025-01-08 03:54:55.99	351.24	9.61	
2025-01-08 03:54:57.02	351.06	9.66	
2025-01-08 03:54:58.05	350.88	9.70	
2025-01-08 03:54:59.07	350.70	9.74	
2025-01-08 03:55:00.09	350.51	9.79	
2025-01-08 03:55:01.12	350.33	9.83	
2025-01-08 03:55:02.15	350.14	9.87	
2025-01-08 03:55:03.17	349.96	9.92	
2025-01-08 03:55:04.19	349.77	9.96	
2025-01-08 03:55:05.22	349.59	10.00	
2025-01-08 03:55:06.24	349.40	10.05	
2025-01-08 03:55:07.27	349.21	10.09	
2025-01-08 03:55:08.30	349.02	10.13	
2025-01-08 03:55:09.33	348.83	10.17	
2025-01-08 03:55:10.35	348.64	10.21	
2025-01-08 03:55:11.39	348.45	10.26	
2025-01-08 03:55:12.42	348.26	10.30	
2025-01-08 03:55:13.45	348.07	10.34	
2025-01-08 03:55:14.48	347.88	10.38	
2025-01-08 03:55:15.50	347.68	10.42	
2025-01-08 03:55:16.53	347.49	10.46	
2025-01-08 03:55:17.57	347.29	10.50	
2025-01-08 03:55:18.60	347.10	10.54	
2025-01-08 03:55:19.63	346.90	10.58	
2025-01-08 03:55:20.66	346.71	10.62	
2025-01-08 03:55:21.68	346.51	10.66	
2025-01-08 03:55:22.71	346.31	10.70	
2025-01-08 03:55:23.73	346.12	10.74	
2025-01-08 03:55:24.76	345.92	10.78	
2025-01-08 03:55:25.78	345.72	10.82	
2025-01-08 03:55:26.82	345.52	10.85	
2025-01-08 03:55:27.85	345.32	10.89	
2025-01-08 03:55:28.88	345.12	10.93	
2025-01-08 03:55:29.90	344.92	10.97	
2025-01-08 03:55:30.93	344.72	11.01	
2025-01-08 03:55:31.95	344.52	11.04	
2025-01-08 03:55:32.98	344.31	11.08	
2025-01-08 03:55:34.00	344.11	11.11	
2025-01-08 03:55:35.04	343.90	11.15	
2025-01-08 03:55:36.07	343.70	11.19	
2025-01-08 03:55:37.09	343.50	11.22	
2025-01-08 03:55:38.12	343.29	11.26	
2025-01-08 03:55:39.14	343.09	11.29	
2025-01-08 03:55:40.17	342.88	11.33	
2025-01-08 03:55:41.20	342.67	11.36	
2025-01-08 03:55:42.24	342.46	11.40	
2025-01-08 03:55:43.26	342.25	11.43	
2025-01-08 03:55:44.28	342.05	11.46	
2025-01-08 03:55:45.31	341.84	11.50	
2025-01-08 03:55:46.34	341.63	11.53	
2025-01-08 03:55:47.36	341.42	11.56	
2025-01-08 03:55:48.39	341.21	11.59	
2025-01-08 03:55:49.42	341.00	11.63	
2025-01-08 03:55:50.44	340.79	11.66	
2025-01-08 03:55:51.47	340.57	11.69	
2025-01-08 03:55:52.49	340.36	11.72	
2025-01-08 03:55:53.52	340.15	11.75	
2025-01-08 03:55:54.54	339.94	11.78	
2025-01-08 03:55:55.57	339.72	11.81	
2025-01-08 03:55:56.60	339.51	11.84	
2025-01-08 03:55:57.62	339.29	11.87	
2025-01-08 03:55:58.65	339.08	11.90	
2025-01-08 03:55:59.68	338.86	11.93	
2025-01-08 03:56:00.70	338.65	11.96	
2025-01-08 03:56:01.72	338.43	11.98	
2025-01-08 03:56:02.75	338.21	12.01	
2025-01-08 03:56:03.80	337.99	12.04	
2025-01-08 03:56:04.84	337.77	12.07	
2025-01-08 03:56:05.86	337.55	12.09	
2025-01-08 03:56:06.89	337.33	12.12	
2025-01-08 03:56:07.91	337.11	12.15	
2025-01-08 03:56:08.94	336.89	12.17	
2025-01-08 03:56:09.97	336.67	12.20	
2025-01-08 03:56:11.00	336.45	12.22	
2025-01-08 03:56:12.03	336.23	12.25	
2025-01-08 03:56:13.05	336.01	12.27	
2025-01-08 03:56:14.08	335.79	12.29	
2025-01-08 03:56:15.11	335.56	12.32	
2025-01-08 03:56:16.15	335.34	12.34	
2025-01-08 03:56:17.17	335.12	12.36	
2025-01-08 03:56:18.20	334.89	12.39	
2025-01-08 03:56:19.22	334.67	12.41	
2025-01-08 03:56:20.24	334.45	12.43	
2025-01-08 03:56:21.28	334.22	12.45	
2025-01-08 03:56:22.33	333.99	12.47	
2025-01-08 03:56:23.35	333.77	12.49	
2025-01-08 03:56:24.39	333.54	12.51	
2025-01-08 03:56:25.41	333.31	12.53	
2025-01-08 03:56:26.44	333.09	12.55	
2025-01-08 03:56:27.46	332.86	12.57	
2025-01-08 03:56:28.49	332.63	12.59	
2025-01-08 03:56:29.52	332.41	12.60	
2025-01-08 03:56:30.55	332.18	12.62	
2025-01-08 03:56:31.57	331.95	12.64	
2025-01-08 03:56:32.60	331.72	12.66	
2025-01-08 03:56:33.63	331.49	12.67	
2025-01-08 03:56:34.65	331.27	12.69	
2025-01-08 03:56:35.68	331.04	12.70	
2025-01-08 03:56:36.71	330.81	12.72	
2025-01-08 03:56:37.73	330.58	12.73	
2025-01-08 03:56:38.76	330.35	12.75	
2025-01-08 03:56:39.78	330.12	12.76	
2025-01-08 03:56:40.81	329.89	12.77	
2025-01-08 03:56:41.84	329.66	12.79	
2025-01-08 03:56:42.86	329.43	12.80	
2025-01-08 03:56:43.88	329.20	12.81	
2025-01-08 03:56:44.91	328.97	12.82	
2025-01-08 03:56:45.94	328.74	12.84	
2025-01-08 03:56:46.96	328.51	12.85	
2025-01-08 03:56:47.99	328.28	12.86	
2025-01-08 03:56:49.01	328.05	12.87	
2025-01-08 03:56:50.04	327.81	12.88	
2025-01-08 03:56:51.07	327.58	12.88	
2025-01-08 03:56:52.09	327.35	12.89	
2025-01-08 03:56:53.13	327.11	12.90	
2025-01-08 03:56:54.15	326.88	12.91	
2025-01-08 03:56:55.19	326.65	12.92	
2025-01-08 03:56:56.22	326.41	12.92	
2025-01-08 03:56:57.24	326.18	12.93	
2025-01-08 03:56:58.27	325.95	12.94	
2025-01-08 03:56:59.30	325.72	12.94	
2025-01-08 03:57:00.33	325.48	12.95	
2025-01-08 03:57:01.35	325.25	12.95	
2025-01-08 03:57:02.37	325.02	12.96	
2025-01-08 03:57:03.40	324.78	12.96	
2025-01-08 03:57:04.43	324.55	12.96	
2025-01-08 03:57:05.45	324.32	12.97	
2025-01-08 03:57:06.48	324.08	12.97	
2025-01-08 03:57:07.50	323.85	12.97	
2025-01-08 03:57:08.53	323.62	12.97	
2025-01-08 03:57:09.55	323.39	12.97	
2025-01-08 03:57:10.58	323.15	12.97	
2025-01-08 03:57:11.60	322.92	12.97	
2025-01-08 03:57:12.63	322.68	12.97	
2025-01-08 03:57:13.67	322.45	12.97	
2025-01-08 03:57:14.69	322.22	12.97	
2025-01-08 03:57:15.72	321.98	12.97	
2025-01-08 03:57:16.75	321.75	12.97	
2025-01-08 03:57:17.78	321.51	12.97	
2025-01-08 03:57:18.82	321.28	12.96	
2025-01-08 03:57:19.86	321.04	12.96	
2025-01-08 03:57:20.89	320.81	12.96	
2025-01-08 03:57:21.91	320.57	12.95	
2025-01-08 03:57:22.94	320.34	12.95	
2025-01-08 03:57:23.97	320.11	12.94	
2025-01-08 03:57:25.01	319.87	12.94	
2025-01-08 03:57:26.03	319.64	12.93	
2025-01-08 03:57:27.06	319.40	12.93	
2025-01-08 03:57:28.09	319.17	12.92	
2025-01-08 03:57:29.11	318.94	12.91	
2025-01-08 03:57:30.14	318.71	12.90	
2025-01-08 03:57:31.17	318.47	12.90	
2025-01-08 03:57:32.20	318.24	12.89	
2025-01-08 03:57:33.22	318.01	12.88	
2025-01-08 03:57:34.25	317.78	12.87	
2025-01-08 03:57:35.28	317.54	12.86	
2025-01-08 03:57:36.32	317.31	12.85	
2025-01-08 03:57:37.35	317.08	12.84	
2025-01-08 03:57:38.37	316.85	12.83	
2025-01-08 03:57:39.40	316.61	12.81	
2025-01-08 03:57:40.42	316.38	12.80	
2025-01-08 03:57:41.45	316.15	12.79	
2025-01-08 03:57:42.47	315.92	12.78	
2025-01-08 03:57:43.50	315.69	12.76	
2025-01-08 03:57:44.53	315.46	12.75	
2025-01-08 03:57:45.55	315.23	12.74	
2025-01-08 03:57:46.57	315.01	12.72	
2025-01-08 03:57:47.59	314.78	12.71	
2025-01-08 03:57:48.62	314.55	12.69	
2025-01-08 03:57:49.64	314.32	12.68	
2025-01-08 03:57:50.67	314.09	12.66	
2025-01-08 03:57:51.69	313.86	12.64	
2025-01-08 03:57:52.72	313.64	12.63	
2025-01-08 03:57:53.74	313.41	12.61	
2025-01-08 03:57:54.77	313.18	12.59	
2025-01-08 03:57:55.80	312.95	12.57	
2025-01-08 03:57:56.82	312.73	12.55	
2025-01-08 03:57:57.85	312.50	12.53	
2025-01-08 03:57:58.87	312.28	12.52	
2025-01-08 03:57:59.90	312.05	12.50	
2025-01-08 03:58:00.93	311.82	12.48	
2025-01-08 03:58:01.95	311.60	12.45	
2025-01-08 03:58:02.99	311.37	12.43	
2025-01-08 03:58:04.02	311.15	12.41	
2025-01-08 03:58:05.05	310.92	12.39	
2025-01-08 03:58:06.08	310.70	12.37	
2025-01-08 03:58:07.10	310.47	12.35	
2025-01-08 03:58:08.13	310.25	12.32	
2025-01-08 03:58:09.15	310.03	12.30	
2025-01-08 03:58:10.17	309.81	12.28	
2025-01-08 03:58:11.21	309.58	12.25	
2025-01-08 03:58:12.26	309.36	12.23	
2025-01-08 03:58:13.28	309.14	12.20	
2025-01-08 03:58:14.30	308.92	12.18	
2025-01-08 03:58:15.33	308.70	12.15	
2025-01-08 03:58:16.35	308.48	12.13	
2025-01-08 03:58:17.38	308.26	12.10	
2025-01-08 03:58:18.41	308.04	12.07	
2025-01-08 03:58:19.43	307.82	12.05	
2025-01-08 03:58:20.46	307.60	12.02	
2025-01-08 03:58:21.48	307.38	11.99	
2025-01-08 03:58:22.50	307.17	11.96	
2025-01-08 03:58:23.55	306.95	11.93	
2025-01-08 03:58:24.57	306.73	11.91	
2025-01-08 03:58:25.61	306.51	11.88	
2025-01-08 03:58:26.64	306.30	11.85	
2025-01-08 03:58:27.66	306.08	11.82	
2025-01-08 03:58:28.69	305.87	11.79	
2025-01-08 03:58:29.72	305.65	11.76	
2025-01-08 03:58:30.74	305.44	11.73	
2025-01-08 03:58:31.77	305.23	11.69	
2025-01-08 03:58:32.79	305.01	11.66	
2025-01-08 03:58:33.81	304.80	11.63	
2025-01-08 03:58:34.84	304.59	11.60	
2025-01-08 03:58:35.88	304.38	11.57	
2025-01-08 03:58:36.90	304.17	11.54	
2025-01-08 03:58:37.94	303.96	11.50	
2025-01-08 03:58:38.97	303.74	11.47	
2025-01-08 03:58:40.00	303.53	11.43	
2025-01-08 03:58:41.02	303.33	11.40	
2025-01-08 03:58:42.04	303.12	11.37	
2025-01-08 03:58:43.08	302.91	11.33	
2025-01-08 03:58:44.11	302.70	11.30	
2025-01-08 03:58:45.14	302.50	11.26	
2025-01-08 03:58:46.16	302.29	11.23	
2025-01-08 03:58:47.19	302.08	11.19	
2025-01-08 03:58:48.21	301.88	11.16	
2025-01-08 03:58:49.24	301.68	11.12	
2025-01-08 03:58:50.26	301.47	11.08	
2025-01-08 03:58:51.29	301.27	11.05	
2025-01-08 03:58:52.33	301.06	11.01	
2025-01-08 03:58:53.35	300.86	10.97	
2025-01-08 03:58:54.38	300.66	10.94	
2025-01-08 03:58:55.41	300.46	10.90	
2025-01-08 03:58:56.43	300.26	10.86	
2025-01-08 03:58:57.46	300.06	10.82	
2025-01-08 03:58:58.48	299.86	10.78	
2025-01-08 03:58:59.51	299.66	10.74	
2025-01-08 03:59:00.54	299.46	10.71	
2025-01-08 03:59:01.57	299.26	10.67	
2025-01-08 03:59:02.59	299.07	10.63	
2025-01-08 03:59:03.62	298.87	10.59	
2025-01-08 03:59:04.65	298.67	10.55	
2025-01-08 03:59:05.67	298.48	10.51	
2025-01-08 03:59:06.71	298.28	10.47	
2025-01-08 03:59:07.74	298.09	10.43	
2025-01-08 03:59:08.77	297.89	10.38	
2025-01-08 03:59:09.80	297.70	10.34	
2025-01-08 03:59:10.83	297.51	10.30	
2025-01-08 03:59:11.86	297.31	10.26	
2025-01-08 03:59:12.89	297.12	10.22	
2025-01-08 03:59:13.92	296.93	10.18	
2025-01-08 03:59:14.94	296.74	10.13	
2025-01-08 03:59:15.97	296.55	10.09	
2025-01-08 03:59:17.01	296.36	10.05	
2025-01-08 03:59:18.04	296.17	10.01	
2025-01-08 03:59:19.08	295.98	9.96	
2025-01-08 03:59:20.11	295.79	9.92	
2025-01-08 03:59:21.13	295.61	9.88	
2025-01-08 03:59:22.16	295.42	9.83	
2025-01-08 03:59:23.18	295.24	9.79	
2025-01-08 03:59:24.21	295.05	9.75	
2025-01-08 03:59:25.23	294.87	9.70	
2025-01-08 03:59:26.26	294.69	9.66	
2025-01-08 03:59:27.28	294.51	9.61	
2025-01-08 03:59:28.31	294.32	9.57	
2025-01-08 03:59:29.34	294.14	9.52	
2025-01-08 03:59:30.36	293.96	9.48	
2025-01-08 03:59:31.38	293.78	9.43	
2025-01-08 03:59:32.40	293.60	9.39	
2025-01-08 03:59:33.44	293.42	9.34	
2025-01-08 03:59:34.47	293.24	9.30	
2025-01-08 03:59:35.50	293.06	9.25	
2025-01-08 03:59:36.52	292.89	9.21	
2025-01-08 03:59:37.54	292.71	9.16	
2025-01-08 03:59:38.57	292.53	9.11	
2025-01-08 03:59:39.60	292.36	9.07	
2025-01-08 03:59:40.62	292.18	9.02	
2025-01-08 03:59:41.65	292.01	8.98	
2025-01-08 03:59:42.67	291.84	8.93	
2025-01-08 03:59:43.71	291.66	8.88	
2025-01-08 03:59:44.73	291.49	8.83	
2025-01-08 03:59:45.76	291.32	8.79	
2025-01-08 03:59:46.78	291.15	8.74	
2025-01-08 03:59:47.81	290.98	8.69	
2025-01-08 03:59:48.83	290.81	8.65	
2025-01-08 03:59:49.87	290.64	8.60	
2025-01-08 03:59:50.89	290.47	8.55	
2025-01-08 03:59:51.92	290.30	8.50	
2025-01-08 03:59:52.95	290.13	8.45	
2025-01-08 03:59:53.97	289.96	8.41	
2025-01-08 03:59:55.00	289.80	8.36	
2025-01-08 03:59:56.04	289.63	8.31	
2025-01-08 03:59:57.06	289.47	8.26	
2025-01-08 03:59:58.09	289.30	8.21	
2025-01-08 03:59:59.12	289.14	8.16	
2025-01-08 04:00:00.14	288.97	8.11	
2025-01-08 04:00:01.17	288.81	8.06	
2025-01-08 04:00:02.20	288.65	8.02	
2025-01-08 04:00:03.22	288.49	7.97	
2025-01-08 04:00:04.24	288.33	7.92	
2025-01-08 04:00:05.27	288.17	7.87	
2025-01-08 04:00:06.30	288.01	7.82	
2025-01-08 04:00:07.32	287.85	7.77	
2025-01-08 04:00:08.35	287.69	7.72	
2025-01-08 04:00:09.37	287.53	7.67	
2025-01-08 04:00:10.39	287.37	7.62	
2025-01-08 04:00:11.42	287.22	7.57	
2025-01-08 04:00:12.44	287.06	7.52	
2025-01-08 04:00:13.47	286.91	7.47	
2025-01-08 04:00:14.50	286.75	7.42	
2025-01-08 04:00:15.53	286.59	7.37	
2025-01-08 04:00:16.55	286.44	7.32	
2025-01-08 04:00:17.58	286.29	7.27	
2025-01-08 04:00:18.61	286.13	7.22	
2025-01-08 04:00:19.64	285.98	7.17	
2025-01-08 04:00:20.66	285.83	7.12	
2025-01-08 04:00:21.70	285.68	7.07	
2025-01-08 04:00:22.74	285.53	7.02	
2025-01-08 04:00:23.77	285.38	6.97	
2025-01-08 04:00:24.81	285.22	6.92	
2025-01-08 04:00:25.83	285.08	6.86	
2025-01-08 04:00:26.86	284.93	6.81	
2025-01-08 04:00:27.90	284.78	6.76	
2025-01-08 04:00:28.93	284.63	6.71	
2025-01-08 04:00:29.95	284.48	6.66	
2025-01-08 04:00:30.98	284.34	6.61	
2025-01-08 04:00:32.00	284.19	6.56	
2025-01-08 04:00:33.04	284.05	6.51	
2025-01-08 04:00:34.07	283.90	6.46	
2025-01-08 04:00:35.10	283.76	6.40	
2025-01-08 04:00:36.12	283.62	6.35	
2025-01-08 04:00:37.15	283.47	6.30	
2025-01-08 04:00:38.17	283.33	6.25	
2025-01-08 04:00:39.20	283.19	6.20	
2025-01-08 04:00:40.24	283.05	6.15	
2025-01-08 04:00:41.26	282.91	6.10	
2025-01-08 04:00:42.29	282.77	6.04	
2025-01-08 04:00:43.31	282.63	5.99	
2025-01-08 04:00:44.34	282.49	5.94	
2025-01-08 04:00:45.37	282.35	5.89	
2025-01-08 04:00:46.39	282.22	5.84	
2025-01-08 04:00:47.42	282.08	5.79	
2025-01-08 04:00:48.45	281.94	5.73	
2025-01-08 04:00:49.48	281.80	5.68	
2025-01-08 04:00:50.50	281.67	5.63	
2025-01-08 04:00:51.53	281.53	5.58	
2025-01-08 04:00:52.55	281.40	5.53	
2025-01-08 04:00:53.58	281.27	5.47	
2025-01-08 04:00:54.60	281.13	5.42	
2025-01-08 04:00:55.63	281.00	5.37	
2025-01-08 04:00:56.65	280.87	5.32	
2025-01-08 04:00:57.69	280.74	5.27	
2025-01-08 04:00:58.72	280.60	5.21	
2025-01-08 04:00:59.74	280.47	5.16	
2025-01-08 04:01:00.78	280.34	5.11	
2025-01-08 04:01:01.81	280.21	5.06	
2025-01-08 04:01:02.83	280.08	5.01	
2025-01-08 04:01:03.86	279.95	4.95	
2025-01-08 04:01:04.90	279.82	4.90	
2025-01-08 04:01:05.93	279.70	4.85	
2025-01-08 04:01:06.95	279.57	4.80	
2025-01-08 04:01:07.99	279.44	4.74	
2025-01-08 04:01:09.02	279.32	4.69	
2025-01-08 04:01:10.04	279.19	4.64	
2025-01-08 04:01:11.07	279.06	4.59	
2025-01-08 04:01:12.10	278.94	4.54	
2025-01-08 04:01:13.12	278.82	4.48	
2025-01-08 04:01:14.15	278.69	4.43	
2025-01-08 04:01:15.17	278.57	4.38	
2025-01-08 04:01:16.20	278.45	4.33	
2025-01-08 04:01:17.23	278.32	4.28	
2025-01-08 04:01:18.25	278.20	4.22	
2025-01-08 04:01:19.28	278.08	4.17	
2025-01-08 04:01:20.30	277.96	4.12	
2025-01-08 04:01:21.33	277.84	4.07	
2025-01-08 04:01:22.35	277.72	4.02	

#Closed at: 2025-01-08 04:01:22