passes_logs/2025/01/08/SPB_Silybum_02/SPB_Silybum_02__20250108_101420_AQUA_rec.log

#Pass ID: 20250108_101420_AQUA
#Satellite: AQUA
#Configuration: AQUA
#Start time: 2025-01-08 10:14:19

#Version: 2.0.20230423
#Station: SPB_Silybum_02
#Location: 30.233357 lon 59.946436 lat
#TLE: 1 27424U 02022A   25007.87424311  .00002334  00000+0  48938-3 0  9995
#TLE: 2 27424  98.3576 324.4746 0001447 118.7932 262.7333 14.60655264206582

#Time	Az	El	Level	Level2	SNR	BER	Gain	Gain2
2025-01-08 10:14:21.45	125.59	4.07	
2025-01-08 10:14:22.69	125.52	4.15	
2025-01-08 10:14:23.92	125.45	4.24	
2025-01-08 10:14:25.15	125.38	4.32	
2025-01-08 10:14:26.38	125.31	4.41	
2025-01-08 10:14:27.61	125.24	4.49	
2025-01-08 10:14:28.84	125.16	4.58	
2025-01-08 10:14:30.07	125.09	4.66	
2025-01-08 10:14:31.30	125.02	4.75	
2025-01-08 10:14:32.55	124.94	4.83	
2025-01-08 10:14:33.78	124.87	4.92	
2025-01-08 10:14:35.01	124.79	5.00	
2025-01-08 10:14:36.24	124.72	5.09	
2025-01-08 10:14:37.49	124.64	5.18	
2025-01-08 10:14:38.72	124.57	5.27	
2025-01-08 10:14:39.95	124.49	5.35	
2025-01-08 10:14:41.19	124.41	5.44	
2025-01-08 10:14:42.42	124.33	5.53	
2025-01-08 10:14:43.67	124.25	5.62	
2025-01-08 10:14:44.90	124.17	5.71	
2025-01-08 10:14:46.13	124.09	5.80	
2025-01-08 10:14:47.36	124.01	5.89	
2025-01-08 10:14:48.59	123.93	5.97	
2025-01-08 10:14:49.82	123.85	6.06	
2025-01-08 10:14:51.05	123.77	6.15	
2025-01-08 10:14:52.28	123.69	6.24	
2025-01-08 10:14:53.51	123.60	6.33	
2025-01-08 10:14:54.74	123.52	6.42	
2025-01-08 10:14:55.97	123.44	6.52	
2025-01-08 10:14:57.21	123.35	6.61	
2025-01-08 10:14:58.44	123.27	6.70	
2025-01-08 10:14:59.68	123.18	6.79	
2025-01-08 10:15:00.91	123.09	6.88	
2025-01-08 10:15:02.14	123.01	6.98	
2025-01-08 10:15:03.37	122.92	7.07	
2025-01-08 10:15:04.62	122.83	7.16	
2025-01-08 10:15:05.85	122.74	7.26	
2025-01-08 10:15:07.09	122.65	7.35	
2025-01-08 10:15:08.32	122.56	7.45	
2025-01-08 10:15:09.55	122.47	7.54	
2025-01-08 10:15:10.78	122.38	7.64	
2025-01-08 10:15:12.01	122.28	7.73	
2025-01-08 10:15:13.24	122.19	7.83	
2025-01-08 10:15:14.49	122.09	7.92	
2025-01-08 10:15:15.72	122.00	8.02	
2025-01-08 10:15:16.95	121.90	8.12	
2025-01-08 10:15:18.19	121.81	8.21	
2025-01-08 10:15:19.43	121.71	8.31	
2025-01-08 10:15:20.66	121.61	8.41	
2025-01-08 10:15:21.88	121.52	8.51	
2025-01-08 10:15:23.12	121.42	8.60	
2025-01-08 10:15:24.35	121.32	8.70	
2025-01-08 10:15:25.60	121.21	8.80	
2025-01-08 10:15:26.83	121.11	8.90	
2025-01-08 10:15:28.07	121.01	9.00	
2025-01-08 10:15:29.30	120.91	9.10	
2025-01-08 10:15:30.53	120.81	9.20	
2025-01-08 10:15:31.76	120.70	9.30	
2025-01-08 10:15:33.01	120.59	9.41	
2025-01-08 10:15:34.24	120.49	9.51	
2025-01-08 10:15:35.48	120.38	9.61	
2025-01-08 10:15:36.72	120.27	9.71	
2025-01-08 10:15:37.95	120.16	9.82	
2025-01-08 10:15:39.18	120.05	9.92	
2025-01-08 10:15:40.42	119.94	10.02	
2025-01-08 10:15:41.66	119.83	10.13	
2025-01-08 10:15:42.91	119.72	10.23	
2025-01-08 10:15:44.16	119.60	10.34	
2025-01-08 10:15:45.39	119.49	10.44	
2025-01-08 10:15:46.62	119.38	10.55	
2025-01-08 10:15:47.85	119.26	10.65	
2025-01-08 10:15:49.08	119.14	10.76	
2025-01-08 10:15:50.32	119.03	10.87	
2025-01-08 10:15:51.55	118.91	10.97	
2025-01-08 10:15:52.78	118.79	11.08	
2025-01-08 10:15:54.02	118.67	11.19	
2025-01-08 10:15:55.26	118.54	11.30	
2025-01-08 10:15:56.49	118.42	11.41	
2025-01-08 10:15:57.72	118.30	11.52	
2025-01-08 10:15:58.95	118.18	11.63	
2025-01-08 10:16:00.19	118.05	11.74	
2025-01-08 10:16:01.42	117.92	11.85	
2025-01-08 10:16:02.65	117.80	11.96	
2025-01-08 10:16:03.88	117.67	12.07	
2025-01-08 10:16:05.13	117.54	12.18	
2025-01-08 10:16:06.37	117.40	12.29	
2025-01-08 10:16:07.61	117.27	12.41	
2025-01-08 10:16:08.84	117.14	12.52	
2025-01-08 10:16:10.07	117.01	12.63	
2025-01-08 10:16:11.30	116.87	12.75	
2025-01-08 10:16:12.54	116.73	12.86	
2025-01-08 10:16:13.78	116.59	12.98	
2025-01-08 10:16:15.01	116.46	13.09	
2025-01-08 10:16:16.24	116.32	13.21	
2025-01-08 10:16:17.47	116.18	13.32	
2025-01-08 10:16:18.70	116.03	13.44	
2025-01-08 10:16:19.93	115.89	13.55	
2025-01-08 10:16:21.18	115.74	13.67	
2025-01-08 10:16:22.41	115.60	13.79	
2025-01-08 10:16:23.64	115.45	13.91	
2025-01-08 10:16:24.88	115.30	14.03	
2025-01-08 10:16:26.11	115.15	14.15	
2025-01-08 10:16:27.34	115.00	14.27	
2025-01-08 10:16:28.57	114.85	14.39	
2025-01-08 10:16:29.81	114.69	14.51	
2025-01-08 10:16:31.04	114.54	14.63	
2025-01-08 10:16:32.28	114.38	14.75	
2025-01-08 10:16:33.52	114.22	14.87	
2025-01-08 10:16:34.76	114.06	15.00	
2025-01-08 10:16:35.98	113.90	15.12	
2025-01-08 10:16:37.22	113.74	15.24	
2025-01-08 10:16:38.45	113.58	15.36	
2025-01-08 10:16:39.68	113.41	15.49	
2025-01-08 10:16:40.91	113.24	15.61	
2025-01-08 10:16:42.15	113.07	15.74	
2025-01-08 10:16:43.38	112.91	15.86	
2025-01-08 10:16:44.61	112.73	15.99	
2025-01-08 10:16:45.84	112.56	16.12	
2025-01-08 10:16:47.07	112.39	16.24	
2025-01-08 10:16:48.29	112.21	16.37	
2025-01-08 10:16:49.54	112.03	16.50	
2025-01-08 10:16:50.77	111.85	16.63	
2025-01-08 10:16:52.00	111.67	16.75	
2025-01-08 10:16:53.25	111.49	16.89	
2025-01-08 10:16:54.48	111.30	17.02	
2025-01-08 10:16:55.71	111.12	17.15	
2025-01-08 10:16:56.95	110.93	17.28	
2025-01-08 10:16:58.18	110.74	17.41	
2025-01-08 10:16:59.41	110.55	17.54	
2025-01-08 10:17:00.64	110.36	17.67	
2025-01-08 10:17:01.87	110.16	17.80	
2025-01-08 10:17:03.11	109.96	17.94	
2025-01-08 10:17:04.35	109.76	18.07	
2025-01-08 10:17:05.59	109.56	18.21	
2025-01-08 10:17:06.82	109.36	18.34	
2025-01-08 10:17:08.05	109.15	18.47	
2025-01-08 10:17:09.29	108.95	18.61	
2025-01-08 10:17:10.52	108.74	18.75	
2025-01-08 10:17:11.75	108.53	18.88	
2025-01-08 10:17:12.99	108.32	19.02	
2025-01-08 10:17:14.24	108.10	19.16	
2025-01-08 10:17:15.47	107.88	19.29	
2025-01-08 10:17:16.70	107.66	19.43	
2025-01-08 10:17:17.93	107.44	19.57	
2025-01-08 10:17:19.16	107.22	19.71	
2025-01-08 10:17:20.40	106.99	19.85	
2025-01-08 10:17:21.64	106.77	19.99	
2025-01-08 10:17:22.87	106.54	20.13	
2025-01-08 10:17:24.10	106.31	20.27	
2025-01-08 10:17:25.33	106.07	20.41	
2025-01-08 10:17:26.57	105.83	20.55	
2025-01-08 10:17:27.80	105.60	20.69	
2025-01-08 10:17:29.03	105.36	20.83	
2025-01-08 10:17:30.26	105.11	20.97	
2025-01-08 10:17:31.50	104.87	21.12	
2025-01-08 10:17:32.72	104.62	21.26	
2025-01-08 10:17:33.95	104.37	21.40	
2025-01-08 10:17:35.17	104.12	21.54	
2025-01-08 10:17:36.40	103.87	21.69	
2025-01-08 10:17:37.64	103.61	21.83	
2025-01-08 10:17:38.87	103.35	21.97	
2025-01-08 10:17:40.10	103.08	22.12	
2025-01-08 10:17:41.35	102.81	22.27	
2025-01-08 10:17:42.58	102.55	22.41	
2025-01-08 10:17:43.81	102.28	22.55	
2025-01-08 10:17:45.04	102.00	22.70	
2025-01-08 10:17:46.27	101.73	22.85	
2025-01-08 10:17:47.51	101.45	22.99	
2025-01-08 10:17:48.74	101.17	23.14	
2025-01-08 10:17:49.97	100.88	23.28	
2025-01-08 10:17:51.19	100.60	23.43	
2025-01-08 10:17:52.43	100.30	23.58	
2025-01-08 10:17:53.67	100.01	23.72	
2025-01-08 10:17:54.90	99.71	23.87	
2025-01-08 10:17:56.14	99.41	24.02	
2025-01-08 10:17:57.38	99.11	24.16	
2025-01-08 10:17:58.62	98.80	24.31	
2025-01-08 10:17:59.85	98.50	24.46	
2025-01-08 10:18:01.08	98.19	24.61	
2025-01-08 10:18:02.32	97.87	24.75	
2025-01-08 10:18:03.55	97.55	24.90	
2025-01-08 10:18:04.79	97.23	25.05	
2025-01-08 10:18:06.02	96.91	25.19	
2025-01-08 10:18:07.25	96.58	25.34	
2025-01-08 10:18:08.48	96.25	25.49	
2025-01-08 10:18:09.71	95.92	25.63	
2025-01-08 10:18:10.95	95.58	25.78	
2025-01-08 10:18:12.19	95.24	25.93	
2025-01-08 10:18:13.42	94.90	26.07	
2025-01-08 10:18:14.66	94.55	26.22	
2025-01-08 10:18:15.89	94.20	26.36	
2025-01-08 10:18:17.14	93.85	26.51	
2025-01-08 10:18:18.37	93.49	26.65	
2025-01-08 10:18:19.61	93.13	26.80	
2025-01-08 10:18:20.83	92.77	26.94	
2025-01-08 10:18:22.07	92.40	27.09	
2025-01-08 10:18:23.31	92.03	27.23	
2025-01-08 10:18:24.54	91.66	27.37	
2025-01-08 10:18:25.78	91.28	27.51	
2025-01-08 10:18:27.01	90.90	27.66	
2025-01-08 10:18:28.27	90.51	27.80	
2025-01-08 10:18:29.50	90.12	27.94	
2025-01-08 10:18:30.73	89.73	28.08	
2025-01-08 10:18:31.96	89.34	28.22	
2025-01-08 10:18:33.20	88.94	28.36	
2025-01-08 10:18:34.44	88.53	28.49	
2025-01-08 10:18:35.68	88.13	28.63	
2025-01-08 10:18:36.91	87.72	28.77	
2025-01-08 10:18:38.16	87.30	28.90	
2025-01-08 10:18:39.39	86.89	29.04	
2025-01-08 10:18:40.62	86.47	29.17	
2025-01-08 10:18:41.86	86.04	29.30	
2025-01-08 10:18:43.09	85.62	29.43	
2025-01-08 10:18:44.34	85.18	29.56	
2025-01-08 10:18:45.57	84.75	29.69	
2025-01-08 10:18:46.80	84.31	29.82	
2025-01-08 10:18:48.03	83.87	29.94	
2025-01-08 10:18:49.27	83.42	30.07	
2025-01-08 10:18:50.50	82.98	30.19	
2025-01-08 10:18:51.74	82.52	30.31	
2025-01-08 10:18:52.97	82.07	30.43	
2025-01-08 10:18:54.21	81.61	30.55	
2025-01-08 10:18:55.44	81.15	30.67	
2025-01-08 10:18:56.67	80.68	30.79	
2025-01-08 10:18:57.90	80.21	30.90	
2025-01-08 10:18:59.14	79.74	31.01	
2025-01-08 10:19:00.37	79.26	31.12	
2025-01-08 10:19:01.61	78.78	31.23	
2025-01-08 10:19:02.84	78.30	31.34	
2025-01-08 10:19:04.07	77.82	31.45	
2025-01-08 10:19:05.30	77.33	31.55	
2025-01-08 10:19:06.53	76.84	31.65	
2025-01-08 10:19:07.78	76.34	31.75	
2025-01-08 10:19:09.01	75.84	31.85	
2025-01-08 10:19:10.25	75.33	31.95	
2025-01-08 10:19:11.48	74.83	32.04	
2025-01-08 10:19:12.73	74.32	32.13	
2025-01-08 10:19:13.98	73.80	32.22	
2025-01-08 10:19:15.21	73.29	32.31	
2025-01-08 10:19:16.45	72.77	32.39	
2025-01-08 10:19:17.68	72.25	32.48	
2025-01-08 10:19:18.93	71.72	32.56	
2025-01-08 10:19:20.18	71.19	32.64	
2025-01-08 10:19:21.41	70.66	32.71	
2025-01-08 10:19:22.66	70.13	32.78	
2025-01-08 10:19:23.89	69.60	32.85	
2025-01-08 10:19:25.12	69.06	32.92	
2025-01-08 10:19:26.35	68.53	32.99	
2025-01-08 10:19:27.58	67.99	33.05	
2025-01-08 10:19:28.82	67.45	33.11	
2025-01-08 10:19:30.05	66.91	33.16	
2025-01-08 10:19:31.27	66.37	33.22	
2025-01-08 10:19:32.51	65.82	33.27	
2025-01-08 10:19:33.74	65.27	33.32	
2025-01-08 10:19:34.97	64.73	33.36	
2025-01-08 10:19:36.20	64.18	33.40	
2025-01-08 10:19:37.45	63.62	33.44	
2025-01-08 10:19:38.69	63.06	33.48	
2025-01-08 10:19:39.92	62.51	33.52	
2025-01-08 10:19:41.15	61.95	33.55	
2025-01-08 10:19:42.39	61.39	33.57	
2025-01-08 10:19:43.63	60.83	33.60	
2025-01-08 10:19:44.85	60.28	33.62	
2025-01-08 10:19:46.08	59.72	33.64	
2025-01-08 10:19:47.31	59.16	33.66	
2025-01-08 10:19:48.54	58.60	33.67	
2025-01-08 10:19:49.79	58.03	33.68	
2025-01-08 10:19:51.03	57.47	33.69	
2025-01-08 10:19:52.26	56.91	33.69	
2025-01-08 10:19:53.49	56.35	33.69	
2025-01-08 10:19:54.73	55.78	33.69	
2025-01-08 10:19:55.97	55.22	33.68	
2025-01-08 10:19:57.20	54.66	33.67	
2025-01-08 10:19:58.43	54.10	33.66	
2025-01-08 10:19:59.66	53.54	33.65	
2025-01-08 10:20:00.93	52.97	33.63	
2025-01-08 10:20:02.15	52.41	33.61	
2025-01-08 10:20:03.39	51.85	33.59	
2025-01-08 10:20:04.62	51.30	33.56	
2025-01-08 10:20:05.85	50.74	33.53	
2025-01-08 10:20:07.08	50.19	33.50	
2025-01-08 10:20:08.32	49.63	33.46	
2025-01-08 10:20:09.55	49.08	33.42	
2025-01-08 10:20:10.78	48.53	33.38	
2025-01-08 10:20:12.02	47.98	33.34	
2025-01-08 10:20:13.26	47.43	33.29	
2025-01-08 10:20:14.49	46.88	33.24	
2025-01-08 10:20:15.72	46.34	33.19	
2025-01-08 10:20:16.95	45.80	33.13	
2025-01-08 10:20:18.18	45.26	33.08	
2025-01-08 10:20:19.42	44.72	33.02	
2025-01-08 10:20:20.64	44.19	32.95	
2025-01-08 10:20:21.87	43.65	32.89	
2025-01-08 10:20:23.11	43.12	32.82	
2025-01-08 10:20:24.34	42.59	32.75	
2025-01-08 10:20:25.58	42.06	32.67	
2025-01-08 10:20:26.81	41.54	32.60	
2025-01-08 10:20:28.06	41.01	32.52	
2025-01-08 10:20:29.29	40.49	32.44	
2025-01-08 10:20:30.52	39.97	32.35	
2025-01-08 10:20:31.75	39.46	32.27	
2025-01-08 10:20:33.00	38.94	32.18	
2025-01-08 10:20:34.23	38.44	32.09	
2025-01-08 10:20:35.46	37.93	32.00	
2025-01-08 10:20:36.69	37.43	31.90	
2025-01-08 10:20:37.93	36.93	31.81	
2025-01-08 10:20:39.16	36.44	31.71	
2025-01-08 10:20:40.39	35.94	31.61	
2025-01-08 10:20:41.62	35.46	31.51	
2025-01-08 10:20:42.86	34.97	31.40	
2025-01-08 10:20:44.10	34.48	31.29	
2025-01-08 10:20:45.33	34.00	31.19	
2025-01-08 10:20:46.56	33.53	31.08	
2025-01-08 10:20:47.79	33.06	30.97	
2025-01-08 10:20:49.04	32.58	30.85	
2025-01-08 10:20:50.29	32.11	30.73	
2025-01-08 10:20:51.52	31.65	30.62	
2025-01-08 10:20:52.75	31.19	30.50	
2025-01-08 10:20:53.98	30.73	30.38	
2025-01-08 10:20:55.21	30.28	30.26	
2025-01-08 10:20:56.45	29.83	30.14	
2025-01-08 10:20:57.68	29.39	30.02	
2025-01-08 10:20:58.91	28.95	29.89	
2025-01-08 10:21:00.14	28.51	29.77	
2025-01-08 10:21:01.37	28.08	29.64	
2025-01-08 10:21:02.60	27.65	29.51	
2025-01-08 10:21:03.84	27.22	29.38	
2025-01-08 10:21:05.06	26.80	29.25	
2025-01-08 10:21:06.29	26.38	29.12	
2025-01-08 10:21:07.53	25.96	28.99	
2025-01-08 10:21:08.76	25.55	28.85	
2025-01-08 10:21:09.99	25.14	28.72	
2025-01-08 10:21:11.22	24.73	28.58	
2025-01-08 10:21:12.46	24.33	28.45	
2025-01-08 10:21:13.71	23.93	28.31	
2025-01-08 10:21:14.94	23.53	28.17	
2025-01-08 10:21:16.16	23.14	28.03	
2025-01-08 10:21:17.39	22.76	27.89	
2025-01-08 10:21:18.63	22.37	27.75	
2025-01-08 10:21:19.86	21.99	27.61	
2025-01-08 10:21:21.09	21.61	27.47	
2025-01-08 10:21:22.32	21.24	27.33	
2025-01-08 10:21:23.55	20.87	27.19	
2025-01-08 10:21:24.78	20.51	27.05	
2025-01-08 10:21:26.02	20.14	26.90	
2025-01-08 10:21:27.25	19.78	26.76	
2025-01-08 10:21:28.48	19.42	26.62	
2025-01-08 10:21:29.71	19.07	26.47	
2025-01-08 10:21:30.94	18.72	26.33	
2025-01-08 10:21:32.17	18.38	26.19	
2025-01-08 10:21:33.40	18.03	26.04	
2025-01-08 10:21:34.64	17.69	25.89	
2025-01-08 10:21:35.87	17.36	25.75	
2025-01-08 10:21:37.10	17.02	25.60	
2025-01-08 10:21:38.34	16.69	25.46	
2025-01-08 10:21:39.57	16.36	25.31	
2025-01-08 10:21:40.82	16.04	25.16	
2025-01-08 10:21:42.05	15.72	25.02	
2025-01-08 10:21:43.29	15.40	24.87	
2025-01-08 10:21:44.52	15.08	24.73	
2025-01-08 10:21:45.77	14.77	24.58	
2025-01-08 10:21:47.00	14.46	24.43	
2025-01-08 10:21:48.24	14.15	24.28	
2025-01-08 10:21:49.46	13.85	24.14	
2025-01-08 10:21:50.70	13.55	23.99	
2025-01-08 10:21:51.93	13.26	23.85	
2025-01-08 10:21:53.17	12.96	23.70	
2025-01-08 10:21:54.41	12.67	23.55	
2025-01-08 10:21:55.64	12.38	23.41	
2025-01-08 10:21:56.88	12.09	23.26	
2025-01-08 10:21:58.11	11.81	23.12	
2025-01-08 10:21:59.34	11.53	22.97	
2025-01-08 10:22:00.58	11.25	22.82	
2025-01-08 10:22:01.81	10.98	22.68	
2025-01-08 10:22:03.04	10.71	22.54	
2025-01-08 10:22:04.27	10.44	22.39	
2025-01-08 10:22:05.50	10.18	22.25	
2025-01-08 10:22:06.73	9.91	22.10	
2025-01-08 10:22:07.96	9.65	21.96	
2025-01-08 10:22:09.19	9.40	21.82	
2025-01-08 10:22:10.42	9.14	21.67	
2025-01-08 10:22:11.65	8.89	21.53	
2025-01-08 10:22:12.88	8.64	21.39	
2025-01-08 10:22:14.11	8.39	21.25	
2025-01-08 10:22:15.34	8.14	21.11	
2025-01-08 10:22:16.58	7.90	20.96	
2025-01-08 10:22:17.82	7.66	20.82	
2025-01-08 10:22:19.05	7.42	20.68	
2025-01-08 10:22:20.29	7.18	20.54	
2025-01-08 10:22:21.52	6.95	20.40	
2025-01-08 10:22:22.76	6.71	20.26	
2025-01-08 10:22:24.00	6.48	20.12	
2025-01-08 10:22:25.23	6.26	19.98	
2025-01-08 10:22:26.46	6.03	19.84	
2025-01-08 10:22:27.69	5.81	19.70	
2025-01-08 10:22:28.94	5.58	19.56	
2025-01-08 10:22:30.17	5.37	19.43	
2025-01-08 10:22:31.41	5.15	19.29	
2025-01-08 10:22:32.64	4.93	19.15	
2025-01-08 10:22:33.87	4.72	19.02	
2025-01-08 10:22:35.12	4.51	18.88	
2025-01-08 10:22:36.36	4.30	18.74	
2025-01-08 10:22:37.60	4.09	18.61	
2025-01-08 10:22:38.83	3.89	18.47	
2025-01-08 10:22:40.07	3.68	18.34	
2025-01-08 10:22:41.30	3.48	18.21	
2025-01-08 10:22:42.54	3.28	18.07	
2025-01-08 10:22:43.77	3.09	17.94	
2025-01-08 10:22:45.00	2.89	17.81	
2025-01-08 10:22:46.24	2.70	17.68	
2025-01-08 10:22:47.48	2.51	17.54	
2025-01-08 10:22:48.71	2.32	17.41	
2025-01-08 10:22:49.94	2.13	17.28	
2025-01-08 10:22:51.18	1.94	17.15	
2025-01-08 10:22:52.41	1.76	17.02	
2025-01-08 10:22:53.64	1.58	16.89	
2025-01-08 10:22:54.87	1.40	16.77	
2025-01-08 10:22:56.11	1.21	16.64	
2025-01-08 10:22:57.33	1.04	16.51	
2025-01-08 10:22:58.57	0.86	16.38	
2025-01-08 10:22:59.80	0.69	16.26	
2025-01-08 10:23:01.03	0.52	16.13	
2025-01-08 10:23:02.26	0.34	16.00	
2025-01-08 10:23:03.49	0.18	15.88	
2025-01-08 10:23:04.72	0.01	15.75	
2025-01-08 10:23:05.97	359.84	15.63	
2025-01-08 10:23:07.20	359.67	15.50	
2025-01-08 10:23:08.43	359.51	15.38	
2025-01-08 10:23:09.67	359.35	15.26	
2025-01-08 10:23:10.90	359.19	15.14	
2025-01-08 10:23:12.14	359.03	15.01	
2025-01-08 10:23:13.38	358.87	14.89	
2025-01-08 10:23:14.61	358.71	14.77	
2025-01-08 10:23:15.84	358.56	14.65	
2025-01-08 10:23:17.06	358.41	14.53	
2025-01-08 10:23:18.30	358.25	14.41	
2025-01-08 10:23:19.55	358.10	14.29	
2025-01-08 10:23:20.78	357.95	14.17	
2025-01-08 10:23:22.01	357.80	14.05	
2025-01-08 10:23:23.25	357.65	13.93	
2025-01-08 10:23:24.49	357.51	13.81	
2025-01-08 10:23:25.72	357.36	13.70	
2025-01-08 10:23:26.95	357.22	13.58	
2025-01-08 10:23:28.19	357.08	13.46	
2025-01-08 10:23:29.45	356.93	13.35	
2025-01-08 10:23:30.69	356.79	13.23	
2025-01-08 10:23:31.92	356.65	13.12	
2025-01-08 10:23:33.16	356.52	13.00	
2025-01-08 10:23:34.39	356.38	12.89	
2025-01-08 10:23:35.62	356.25	12.77	
2025-01-08 10:23:36.87	356.11	12.66	
2025-01-08 10:23:38.10	355.98	12.55	
2025-01-08 10:23:39.33	355.85	12.43	
2025-01-08 10:23:40.57	355.72	12.32	
2025-01-08 10:23:41.80	355.59	12.21	
2025-01-08 10:23:43.03	355.46	12.10	
2025-01-08 10:23:44.26	355.33	11.99	
2025-01-08 10:23:45.51	355.21	11.88	
2025-01-08 10:23:46.74	355.08	11.77	
2025-01-08 10:23:47.97	354.96	11.66	
2025-01-08 10:23:49.21	354.83	11.55	
2025-01-08 10:23:50.44	354.71	11.44	
2025-01-08 10:23:51.67	354.59	11.33	
2025-01-08 10:23:52.90	354.47	11.23	
2025-01-08 10:23:54.13	354.35	11.12	
2025-01-08 10:23:55.36	354.23	11.01	
2025-01-08 10:23:56.60	354.12	10.91	
2025-01-08 10:23:57.83	354.00	10.80	
2025-01-08 10:23:59.06	353.89	10.69	
2025-01-08 10:24:00.29	353.77	10.59	
2025-01-08 10:24:01.52	353.66	10.48	
2025-01-08 10:24:02.75	353.55	10.38	
2025-01-08 10:24:03.98	353.44	10.28	
2025-01-08 10:24:05.22	353.32	10.17	
2025-01-08 10:24:06.45	353.21	10.07	
2025-01-08 10:24:07.68	353.11	9.97	
2025-01-08 10:24:08.92	353.00	9.86	
2025-01-08 10:24:10.15	352.89	9.76	
2025-01-08 10:24:11.38	352.78	9.66	
2025-01-08 10:24:12.61	352.68	9.56	
2025-01-08 10:24:13.85	352.57	9.46	
2025-01-08 10:24:15.08	352.47	9.36	
2025-01-08 10:24:16.32	352.37	9.25	
2025-01-08 10:24:17.58	352.26	9.15	
2025-01-08 10:24:18.81	352.16	9.05	
2025-01-08 10:24:20.04	352.06	8.95	
2025-01-08 10:24:21.27	351.96	8.86	
2025-01-08 10:24:22.50	351.86	8.76	
2025-01-08 10:24:23.74	351.76	8.66	
2025-01-08 10:24:24.96	351.67	8.56	
2025-01-08 10:24:26.20	351.57	8.46	
2025-01-08 10:24:27.43	351.47	8.37	
2025-01-08 10:24:28.66	351.38	8.27	
2025-01-08 10:24:29.89	351.28	8.17	
2025-01-08 10:24:31.12	351.19	8.08	
2025-01-08 10:24:32.36	351.10	7.98	
2025-01-08 10:24:33.59	351.00	7.89	
2025-01-08 10:24:34.83	350.91	7.79	
2025-01-08 10:24:36.08	350.82	7.69	
2025-01-08 10:24:37.31	350.73	7.60	
2025-01-08 10:24:38.54	350.64	7.50	
2025-01-08 10:24:39.77	350.55	7.41	
2025-01-08 10:24:41.01	350.46	7.32	
2025-01-08 10:24:42.24	350.37	7.22	
2025-01-08 10:24:43.47	350.28	7.13	
2025-01-08 10:24:44.71	350.20	7.04	
2025-01-08 10:24:45.94	350.11	6.95	
2025-01-08 10:24:47.17	350.03	6.85	
2025-01-08 10:24:48.40	349.94	6.76	
2025-01-08 10:24:49.65	349.86	6.67	
2025-01-08 10:24:50.89	349.77	6.58	
2025-01-08 10:24:52.14	349.69	6.49	
2025-01-08 10:24:53.37	349.61	6.40	
2025-01-08 10:24:54.60	349.52	6.31	
2025-01-08 10:24:55.83	349.44	6.22	
2025-01-08 10:24:57.07	349.36	6.13	
2025-01-08 10:24:58.30	349.28	6.04	
2025-01-08 10:24:59.53	349.20	5.95	
2025-01-08 10:25:00.76	349.12	5.86	
2025-01-08 10:25:01.99	349.05	5.77	
2025-01-08 10:25:03.22	348.97	5.68	
2025-01-08 10:25:04.46	348.89	5.59	
2025-01-08 10:25:05.69	348.81	5.51	
2025-01-08 10:25:06.92	348.74	5.42	
2025-01-08 10:25:08.15	348.66	5.33	
2025-01-08 10:25:09.38	348.59	5.25	
2025-01-08 10:25:10.62	348.51	5.16	
2025-01-08 10:25:11.85	348.44	5.07	
2025-01-08 10:25:13.08	348.36	4.99	
2025-01-08 10:25:14.31	348.29	4.90	
2025-01-08 10:25:15.55	348.22	4.82	
2025-01-08 10:25:16.78	348.15	4.73	
2025-01-08 10:25:18.02	348.07	4.64	
2025-01-08 10:25:19.27	348.00	4.56	
2025-01-08 10:25:20.50	347.93	4.47	
2025-01-08 10:25:21.74	347.86	4.39	
2025-01-08 10:25:22.98	347.79	4.31	
2025-01-08 10:25:24.23	347.72	4.22	
2025-01-08 10:25:25.46	347.65	4.14	
2025-01-08 10:25:26.70	347.58	4.05	

#Closed at: 2025-01-08 10:25:27