passes_logs/2025/01/08/SPB_Silybum_02/SPB_Silybum_02__20250108_085730_SUOMI_NPP_rec.log

#Pass ID: 20250108_085730_SUOMI NPP
#Satellite: SUOMI NPP
#Configuration: NPP
#Start time: 2025-01-08 08:57:31

#Version: 2.0.20230423
#Station: SPB_Silybum_02
#Location: 30.233357 lon 59.946436 lat
#TLE: 1 37849U 11061A   25007.80086614  .00000261  00000+0  14474-3 0  9998
#TLE: 2 37849  98.7439 308.8810 0001922  51.6815 308.4534 14.19534813683891

#Time	Az	El	Level	Level2	SNR	BER	Gain	Gain2
2025-01-08 08:57:33.71	121.31	4.19	
2025-01-08 08:57:34.94	121.24	4.27	
2025-01-08 08:57:36.17	121.18	4.35	
2025-01-08 08:57:37.40	121.11	4.43	
2025-01-08 08:57:38.65	121.04	4.51	
2025-01-08 08:57:39.88	120.97	4.59	
2025-01-08 08:57:41.12	120.91	4.68	
2025-01-08 08:57:42.35	120.84	4.76	
2025-01-08 08:57:43.58	120.77	4.84	
2025-01-08 08:57:44.81	120.70	4.92	
2025-01-08 08:57:46.04	120.63	5.00	
2025-01-08 08:57:47.28	120.56	5.08	
2025-01-08 08:57:48.51	120.49	5.17	
2025-01-08 08:57:49.75	120.42	5.25	
2025-01-08 08:57:50.98	120.35	5.33	
2025-01-08 08:57:52.21	120.28	5.41	
2025-01-08 08:57:53.45	120.20	5.50	
2025-01-08 08:57:54.68	120.13	5.58	
2025-01-08 08:57:55.91	120.06	5.67	
2025-01-08 08:57:57.14	119.99	5.75	
2025-01-08 08:57:58.38	119.91	5.83	
2025-01-08 08:57:59.62	119.84	5.92	
2025-01-08 08:58:00.86	119.76	6.00	
2025-01-08 08:58:02.10	119.69	6.09	
2025-01-08 08:58:03.33	119.61	6.17	
2025-01-08 08:58:04.56	119.54	6.26	
2025-01-08 08:58:05.80	119.46	6.35	
2025-01-08 08:58:07.03	119.38	6.43	
2025-01-08 08:58:08.27	119.30	6.52	
2025-01-08 08:58:09.50	119.23	6.60	
2025-01-08 08:58:10.73	119.15	6.69	
2025-01-08 08:58:11.97	119.07	6.78	
2025-01-08 08:58:13.20	118.99	6.86	
2025-01-08 08:58:14.44	118.91	6.95	
2025-01-08 08:58:15.67	118.83	7.04	
2025-01-08 08:58:16.91	118.75	7.13	
2025-01-08 08:58:18.14	118.67	7.21	
2025-01-08 08:58:19.37	118.59	7.30	
2025-01-08 08:58:20.61	118.50	7.39	
2025-01-08 08:58:21.84	118.42	7.48	
2025-01-08 08:58:23.07	118.34	7.57	
2025-01-08 08:58:24.30	118.25	7.66	
2025-01-08 08:58:25.54	118.17	7.75	
2025-01-08 08:58:26.77	118.08	7.84	
2025-01-08 08:58:28.00	118.00	7.93	
2025-01-08 08:58:29.23	117.91	8.02	
2025-01-08 08:58:30.46	117.82	8.11	
2025-01-08 08:58:31.70	117.74	8.20	
2025-01-08 08:58:32.94	117.65	8.29	
2025-01-08 08:58:34.17	117.56	8.38	
2025-01-08 08:58:35.41	117.47	8.47	
2025-01-08 08:58:36.65	117.38	8.57	
2025-01-08 08:58:37.88	117.29	8.66	
2025-01-08 08:58:39.11	117.20	8.75	
2025-01-08 08:58:40.34	117.11	8.84	
2025-01-08 08:58:41.57	117.02	8.93	
2025-01-08 08:58:42.80	116.93	9.03	
2025-01-08 08:58:44.03	116.83	9.12	
2025-01-08 08:58:45.27	116.74	9.21	
2025-01-08 08:58:46.50	116.64	9.31	
2025-01-08 08:58:47.73	116.55	9.40	
2025-01-08 08:58:48.96	116.45	9.50	
2025-01-08 08:58:50.20	116.36	9.59	
2025-01-08 08:58:51.44	116.26	9.69	
2025-01-08 08:58:52.67	116.16	9.78	
2025-01-08 08:58:53.90	116.06	9.88	
2025-01-08 08:58:55.13	115.97	9.97	
2025-01-08 08:58:56.37	115.87	10.07	
2025-01-08 08:58:57.60	115.77	10.17	
2025-01-08 08:58:58.83	115.66	10.26	
2025-01-08 08:59:00.07	115.56	10.36	
2025-01-08 08:59:01.30	115.46	10.46	
2025-01-08 08:59:02.53	115.36	10.56	
2025-01-08 08:59:03.76	115.25	10.65	
2025-01-08 08:59:04.99	115.15	10.75	
2025-01-08 08:59:06.24	115.04	10.85	
2025-01-08 08:59:07.47	114.94	10.95	
2025-01-08 08:59:08.71	114.83	11.05	
2025-01-08 08:59:09.94	114.72	11.15	
2025-01-08 08:59:11.17	114.61	11.25	
2025-01-08 08:59:12.41	114.50	11.35	
2025-01-08 08:59:13.64	114.40	11.45	
2025-01-08 08:59:14.87	114.29	11.55	
2025-01-08 08:59:16.11	114.17	11.65	
2025-01-08 08:59:17.35	114.06	11.75	
2025-01-08 08:59:18.58	113.95	11.86	
2025-01-08 08:59:19.81	113.83	11.96	
2025-01-08 08:59:21.04	113.72	12.06	
2025-01-08 08:59:22.28	113.60	12.16	
2025-01-08 08:59:23.51	113.49	12.27	
2025-01-08 08:59:24.74	113.37	12.37	
2025-01-08 08:59:25.96	113.25	12.47	
2025-01-08 08:59:27.19	113.14	12.57	
2025-01-08 08:59:28.42	113.02	12.68	
2025-01-08 08:59:29.66	112.90	12.78	
2025-01-08 08:59:30.89	112.78	12.89	
2025-01-08 08:59:32.12	112.65	12.99	
2025-01-08 08:59:33.36	112.53	13.10	
2025-01-08 08:59:34.59	112.41	13.20	
2025-01-08 08:59:35.81	112.28	13.31	
2025-01-08 08:59:37.05	112.16	13.42	
2025-01-08 08:59:38.27	112.03	13.52	
2025-01-08 08:59:39.52	111.90	13.63	
2025-01-08 08:59:40.75	111.77	13.74	
2025-01-08 08:59:41.98	111.64	13.85	
2025-01-08 08:59:43.22	111.51	13.95	
2025-01-08 08:59:44.45	111.38	14.06	
2025-01-08 08:59:45.68	111.25	14.17	
2025-01-08 08:59:46.91	111.12	14.28	
2025-01-08 08:59:48.14	110.98	14.39	
2025-01-08 08:59:49.37	110.85	14.50	
2025-01-08 08:59:50.60	110.71	14.61	
2025-01-08 08:59:51.83	110.57	14.72	
2025-01-08 08:59:53.06	110.43	14.83	
2025-01-08 08:59:54.29	110.29	14.94	
2025-01-08 08:59:55.53	110.15	15.05	
2025-01-08 08:59:56.76	110.01	15.16	
2025-01-08 08:59:57.99	109.87	15.28	
2025-01-08 08:59:59.22	109.73	15.39	
2025-01-08 09:00:00.47	109.58	15.50	
2025-01-08 09:00:01.70	109.43	15.62	
2025-01-08 09:00:02.94	109.28	15.73	
2025-01-08 09:00:04.17	109.14	15.84	
2025-01-08 09:00:05.40	108.99	15.96	
2025-01-08 09:00:06.63	108.84	16.07	
2025-01-08 09:00:07.86	108.68	16.19	
2025-01-08 09:00:09.10	108.53	16.30	
2025-01-08 09:00:10.33	108.38	16.42	
2025-01-08 09:00:11.56	108.22	16.53	
2025-01-08 09:00:12.79	108.06	16.65	
2025-01-08 09:00:14.03	107.90	16.76	
2025-01-08 09:00:15.27	107.74	16.88	
2025-01-08 09:00:16.52	107.58	17.00	
2025-01-08 09:00:17.75	107.42	17.12	
2025-01-08 09:00:18.98	107.26	17.24	
2025-01-08 09:00:20.21	107.09	17.35	
2025-01-08 09:00:21.45	106.93	17.47	
2025-01-08 09:00:22.67	106.76	17.59	
2025-01-08 09:00:23.91	106.59	17.71	
2025-01-08 09:00:25.14	106.42	17.83	
2025-01-08 09:00:26.37	106.25	17.95	
2025-01-08 09:00:27.60	106.08	18.07	
2025-01-08 09:00:28.84	105.90	18.19	
2025-01-08 09:00:30.07	105.73	18.31	
2025-01-08 09:00:31.31	105.55	18.43	
2025-01-08 09:00:32.54	105.37	18.55	
2025-01-08 09:00:33.77	105.19	18.67	
2025-01-08 09:00:35.01	105.01	18.80	
2025-01-08 09:00:36.24	104.83	18.92	
2025-01-08 09:00:37.48	104.64	19.04	
2025-01-08 09:00:38.71	104.46	19.16	
2025-01-08 09:00:39.94	104.27	19.29	
2025-01-08 09:00:41.17	104.08	19.41	
2025-01-08 09:00:42.40	103.89	19.53	
2025-01-08 09:00:43.64	103.70	19.66	
2025-01-08 09:00:44.87	103.51	19.78	
2025-01-08 09:00:46.10	103.31	19.90	
2025-01-08 09:00:47.33	103.12	20.03	
2025-01-08 09:00:48.57	102.92	20.15	
2025-01-08 09:00:49.80	102.72	20.28	
2025-01-08 09:00:51.03	102.52	20.40	
2025-01-08 09:00:52.27	102.31	20.53	
2025-01-08 09:00:53.51	102.11	20.66	
2025-01-08 09:00:54.74	101.90	20.78	
2025-01-08 09:00:55.97	101.69	20.91	
2025-01-08 09:00:57.20	101.48	21.04	
2025-01-08 09:00:58.43	101.27	21.16	
2025-01-08 09:00:59.66	101.06	21.29	
2025-01-08 09:01:00.89	100.84	21.42	
2025-01-08 09:01:02.12	100.63	21.54	
2025-01-08 09:01:03.35	100.41	21.67	
2025-01-08 09:01:04.58	100.19	21.80	
2025-01-08 09:01:05.82	99.96	21.93	
2025-01-08 09:01:07.06	99.74	22.06	
2025-01-08 09:01:08.29	99.51	22.18	
2025-01-08 09:01:09.53	99.28	22.31	
2025-01-08 09:01:10.75	99.06	22.44	
2025-01-08 09:01:11.99	98.82	22.57	
2025-01-08 09:01:13.22	98.59	22.70	
2025-01-08 09:01:14.45	98.35	22.83	
2025-01-08 09:01:15.68	98.11	22.96	
2025-01-08 09:01:16.91	97.88	23.09	
2025-01-08 09:01:18.14	97.63	23.21	
2025-01-08 09:01:19.38	97.39	23.35	
2025-01-08 09:01:20.61	97.14	23.47	
2025-01-08 09:01:21.84	96.90	23.60	
2025-01-08 09:01:23.08	96.64	23.73	
2025-01-08 09:01:24.31	96.39	23.86	
2025-01-08 09:01:25.54	96.14	23.99	
2025-01-08 09:01:26.78	95.88	24.12	
2025-01-08 09:01:28.02	95.62	24.25	
2025-01-08 09:01:29.25	95.36	24.38	
2025-01-08 09:01:30.48	95.10	24.51	
2025-01-08 09:01:31.72	94.83	24.64	
2025-01-08 09:01:32.95	94.56	24.77	
2025-01-08 09:01:34.20	94.29	24.91	
2025-01-08 09:01:35.43	94.02	25.03	
2025-01-08 09:01:36.66	93.74	25.16	
2025-01-08 09:01:37.89	93.47	25.29	
2025-01-08 09:01:39.12	93.19	25.42	
2025-01-08 09:01:40.35	92.91	25.55	
2025-01-08 09:01:41.59	92.62	25.68	
2025-01-08 09:01:42.82	92.34	25.81	
2025-01-08 09:01:44.05	92.05	25.94	
2025-01-08 09:01:45.29	91.76	26.07	
2025-01-08 09:01:46.52	91.47	26.20	
2025-01-08 09:01:47.75	91.17	26.32	
2025-01-08 09:01:48.98	90.87	26.45	
2025-01-08 09:01:50.21	90.58	26.58	
2025-01-08 09:01:51.45	90.27	26.71	
2025-01-08 09:01:52.68	89.97	26.83	
2025-01-08 09:01:53.91	89.66	26.96	
2025-01-08 09:01:55.15	89.35	27.09	
2025-01-08 09:01:56.38	89.04	27.21	
2025-01-08 09:01:57.61	88.72	27.34	
2025-01-08 09:01:58.84	88.41	27.46	
2025-01-08 09:02:00.09	88.08	27.59	
2025-01-08 09:02:01.32	87.76	27.72	
2025-01-08 09:02:02.57	87.43	27.84	
2025-01-08 09:02:03.81	87.10	27.97	
2025-01-08 09:02:05.04	86.77	28.09	
2025-01-08 09:02:06.28	86.44	28.21	
2025-01-08 09:02:07.54	86.09	28.34	
2025-01-08 09:02:08.76	85.76	28.46	
2025-01-08 09:02:10.00	85.42	28.58	
2025-01-08 09:02:11.23	85.07	28.70	
2025-01-08 09:02:12.46	84.73	28.82	
2025-01-08 09:02:13.69	84.38	28.94	
2025-01-08 09:02:14.92	84.03	29.05	
2025-01-08 09:02:16.16	83.68	29.17	
2025-01-08 09:02:17.40	83.32	29.29	
2025-01-08 09:02:18.64	82.96	29.41	
2025-01-08 09:02:19.87	82.60	29.52	
2025-01-08 09:02:21.10	82.24	29.63	
2025-01-08 09:02:22.33	81.87	29.75	
2025-01-08 09:02:23.57	81.50	29.86	
2025-01-08 09:02:24.80	81.13	29.97	
2025-01-08 09:02:26.03	80.76	30.08	
2025-01-08 09:02:27.27	80.38	30.19	
2025-01-08 09:02:28.50	80.00	30.30	
2025-01-08 09:02:29.73	79.62	30.41	
2025-01-08 09:02:30.96	79.23	30.52	
2025-01-08 09:02:32.19	78.85	30.62	
2025-01-08 09:02:33.42	78.46	30.73	
2025-01-08 09:02:34.66	78.06	30.83	
2025-01-08 09:02:35.89	77.67	30.93	
2025-01-08 09:02:37.12	77.28	31.03	
2025-01-08 09:02:38.35	76.88	31.13	
2025-01-08 09:02:39.58	76.48	31.23	
2025-01-08 09:02:40.81	76.07	31.33	
2025-01-08 09:02:42.04	75.67	31.42	
2025-01-08 09:02:43.29	75.25	31.52	
2025-01-08 09:02:44.52	74.84	31.61	
2025-01-08 09:02:45.76	74.43	31.71	
2025-01-08 09:02:47.00	74.01	31.80	
2025-01-08 09:02:48.23	73.59	31.89	
2025-01-08 09:02:49.46	73.17	31.97	
2025-01-08 09:02:50.68	72.75	32.06	
2025-01-08 09:02:51.92	72.32	32.14	
2025-01-08 09:02:53.15	71.90	32.23	
2025-01-08 09:02:54.38	71.47	32.31	
2025-01-08 09:02:55.61	71.04	32.39	
2025-01-08 09:02:56.84	70.60	32.47	
2025-01-08 09:02:58.08	70.17	32.54	
2025-01-08 09:02:59.31	69.73	32.62	
2025-01-08 09:03:00.54	69.29	32.69	
2025-01-08 09:03:01.77	68.85	32.76	
2025-01-08 09:03:03.01	68.40	32.83	
2025-01-08 09:03:04.25	67.95	32.90	
2025-01-08 09:03:05.49	67.50	32.97	
2025-01-08 09:03:06.71	67.06	33.03	
2025-01-08 09:03:07.94	66.61	33.09	
2025-01-08 09:03:09.18	66.15	33.15	
2025-01-08 09:03:10.41	65.70	33.21	
2025-01-08 09:03:11.64	65.24	33.27	
2025-01-08 09:03:12.87	64.79	33.32	
2025-01-08 09:03:14.10	64.33	33.37	
2025-01-08 09:03:15.33	63.87	33.42	
2025-01-08 09:03:16.57	63.40	33.47	
2025-01-08 09:03:17.81	62.94	33.52	
2025-01-08 09:03:19.05	62.47	33.56	
2025-01-08 09:03:20.28	62.01	33.61	
2025-01-08 09:03:21.51	61.54	33.65	
2025-01-08 09:03:22.74	61.07	33.68	
2025-01-08 09:03:23.99	60.60	33.72	
2025-01-08 09:03:25.22	60.13	33.75	
2025-01-08 09:03:26.46	59.65	33.79	
2025-01-08 09:03:27.69	59.18	33.82	
2025-01-08 09:03:28.92	58.71	33.84	
2025-01-08 09:03:30.15	58.24	33.87	
2025-01-08 09:03:31.38	57.77	33.89	
2025-01-08 09:03:32.62	57.29	33.91	
2025-01-08 09:03:33.85	56.81	33.93	
2025-01-08 09:03:35.08	56.34	33.94	
2025-01-08 09:03:36.31	55.86	33.96	
2025-01-08 09:03:37.54	55.39	33.97	
2025-01-08 09:03:38.78	54.91	33.98	
2025-01-08 09:03:40.01	54.43	33.99	
2025-01-08 09:03:41.24	53.96	33.99	
2025-01-08 09:03:42.47	53.48	33.99	
2025-01-08 09:03:43.70	53.00	33.99	
2025-01-08 09:03:44.94	52.52	33.99	
2025-01-08 09:03:46.16	52.05	33.99	
2025-01-08 09:03:47.40	51.57	33.98	
2025-01-08 09:03:48.63	51.09	33.97	
2025-01-08 09:03:49.86	50.62	33.96	
2025-01-08 09:03:51.09	50.14	33.95	
2025-01-08 09:03:52.32	49.67	33.93	
2025-01-08 09:03:53.55	49.19	33.92	
2025-01-08 09:03:54.79	48.72	33.90	
2025-01-08 09:03:56.02	48.24	33.87	
2025-01-08 09:03:57.25	47.77	33.85	
2025-01-08 09:03:58.48	47.30	33.82	
2025-01-08 09:03:59.72	46.82	33.80	
2025-01-08 09:04:00.95	46.35	33.76	
2025-01-08 09:04:02.18	45.88	33.73	
2025-01-08 09:04:03.41	45.42	33.70	
2025-01-08 09:04:04.64	44.95	33.66	
2025-01-08 09:04:05.87	44.48	33.62	
2025-01-08 09:04:07.10	44.02	33.58	
2025-01-08 09:04:08.34	43.55	33.53	
2025-01-08 09:04:09.56	43.09	33.49	
2025-01-08 09:04:10.80	42.63	33.44	
2025-01-08 09:04:12.03	42.17	33.39	
2025-01-08 09:04:13.26	41.71	33.34	
2025-01-08 09:04:14.49	41.25	33.29	
2025-01-08 09:04:15.72	40.80	33.23	
2025-01-08 09:04:16.95	40.35	33.17	
2025-01-08 09:04:18.18	39.89	33.11	
2025-01-08 09:04:19.41	39.44	33.05	
2025-01-08 09:04:20.65	38.99	32.99	
2025-01-08 09:04:21.88	38.55	32.92	
2025-01-08 09:04:23.11	38.10	32.86	
2025-01-08 09:04:24.34	37.66	32.79	
2025-01-08 09:04:25.57	37.22	32.72	
2025-01-08 09:04:26.81	36.78	32.65	
2025-01-08 09:04:28.04	36.34	32.57	
2025-01-08 09:04:29.27	35.90	32.50	
2025-01-08 09:04:30.50	35.47	32.42	
2025-01-08 09:04:31.74	35.04	32.34	
2025-01-08 09:04:32.97	34.61	32.26	
2025-01-08 09:04:34.20	34.18	32.18	
2025-01-08 09:04:35.44	33.75	32.09	
2025-01-08 09:04:36.67	33.33	32.01	
2025-01-08 09:04:37.89	32.92	31.92	
2025-01-08 09:04:39.12	32.50	31.83	
2025-01-08 09:04:40.36	32.08	31.74	
2025-01-08 09:04:41.59	31.67	31.65	
2025-01-08 09:04:42.82	31.26	31.56	
2025-01-08 09:04:44.05	30.85	31.47	
2025-01-08 09:04:45.28	30.44	31.37	
2025-01-08 09:04:46.53	30.03	31.27	
2025-01-08 09:04:47.77	29.63	31.17	
2025-01-08 09:04:49.00	29.23	31.07	
2025-01-08 09:04:50.23	28.84	30.97	
2025-01-08 09:04:51.46	28.44	30.87	
2025-01-08 09:04:52.69	28.05	30.77	
2025-01-08 09:04:53.92	27.66	30.67	
2025-01-08 09:04:55.15	27.28	30.56	
2025-01-08 09:04:56.38	26.89	30.46	
2025-01-08 09:04:57.62	26.51	30.35	
2025-01-08 09:04:58.85	26.13	30.24	
2025-01-08 09:05:00.08	25.76	30.13	
2025-01-08 09:05:01.31	25.38	30.02	
2025-01-08 09:05:02.54	25.01	29.91	
2025-01-08 09:05:03.79	24.64	29.80	
2025-01-08 09:05:05.02	24.28	29.69	
2025-01-08 09:05:06.26	23.91	29.57	
2025-01-08 09:05:07.49	23.55	29.46	
2025-01-08 09:05:08.73	23.19	29.34	
2025-01-08 09:05:09.99	22.83	29.22	
2025-01-08 09:05:11.22	22.47	29.11	
2025-01-08 09:05:12.45	22.12	28.99	
2025-01-08 09:05:13.68	21.78	28.87	
2025-01-08 09:05:14.91	21.43	28.75	
2025-01-08 09:05:16.16	21.08	28.63	
2025-01-08 09:05:17.39	20.75	28.51	
2025-01-08 09:05:18.63	20.41	28.39	
2025-01-08 09:05:19.86	20.07	28.27	
2025-01-08 09:05:21.10	19.74	28.15	
2025-01-08 09:05:22.33	19.41	28.02	
2025-01-08 09:05:23.57	19.08	27.90	
2025-01-08 09:05:24.80	18.76	27.78	
2025-01-08 09:05:26.03	18.43	27.65	
2025-01-08 09:05:27.26	18.12	27.53	
2025-01-08 09:05:28.49	17.80	27.41	
2025-01-08 09:05:29.73	17.48	27.28	
2025-01-08 09:05:30.96	17.17	27.15	
2025-01-08 09:05:32.19	16.86	27.03	
2025-01-08 09:05:33.42	16.56	26.90	
2025-01-08 09:05:34.65	16.25	26.78	
2025-01-08 09:05:35.88	15.95	26.65	
2025-01-08 09:05:37.13	15.65	26.52	
2025-01-08 09:05:38.37	15.35	26.39	
2025-01-08 09:05:39.60	15.05	26.27	
2025-01-08 09:05:40.84	14.76	26.14	
2025-01-08 09:05:42.07	14.47	26.01	
2025-01-08 09:05:43.30	14.18	25.88	
2025-01-08 09:05:44.56	13.89	25.75	
2025-01-08 09:05:45.79	13.61	25.62	
2025-01-08 09:05:47.02	13.33	25.49	
2025-01-08 09:05:48.25	13.05	25.37	
2025-01-08 09:05:49.50	12.77	25.24	
2025-01-08 09:05:50.74	12.49	25.11	
2025-01-08 09:05:51.97	12.22	24.98	
2025-01-08 09:05:53.21	11.95	24.85	
2025-01-08 09:05:54.44	11.69	24.72	
2025-01-08 09:05:55.67	11.42	24.59	
2025-01-08 09:05:56.90	11.16	24.46	
2025-01-08 09:05:58.13	10.90	24.33	
2025-01-08 09:05:59.36	10.64	24.20	
2025-01-08 09:06:00.59	10.39	24.07	
2025-01-08 09:06:01.83	10.13	23.94	
2025-01-08 09:06:03.06	9.88	23.81	
2025-01-08 09:06:04.30	9.63	23.68	
2025-01-08 09:06:05.53	9.38	23.56	
2025-01-08 09:06:06.76	9.14	23.43	
2025-01-08 09:06:07.99	8.89	23.30	
2025-01-08 09:06:09.24	8.65	23.17	
2025-01-08 09:06:10.47	8.41	23.04	
2025-01-08 09:06:11.70	8.17	22.91	
2025-01-08 09:06:12.93	7.94	22.78	
2025-01-08 09:06:14.16	7.70	22.65	
2025-01-08 09:06:15.39	7.47	22.53	
2025-01-08 09:06:16.62	7.24	22.40	
2025-01-08 09:06:17.85	7.02	22.27	
2025-01-08 09:06:19.08	6.79	22.14	
2025-01-08 09:06:20.32	6.57	22.01	
2025-01-08 09:06:21.55	6.34	21.89	
2025-01-08 09:06:22.78	6.12	21.76	
2025-01-08 09:06:24.01	5.91	21.63	
2025-01-08 09:06:25.24	5.69	21.51	
2025-01-08 09:06:26.47	5.48	21.38	
2025-01-08 09:06:27.70	5.26	21.25	
2025-01-08 09:06:28.94	5.05	21.13	
2025-01-08 09:06:30.17	4.84	21.00	
2025-01-08 09:06:31.40	4.63	20.87	
2025-01-08 09:06:32.63	4.43	20.75	
2025-01-08 09:06:33.87	4.22	20.62	
2025-01-08 09:06:35.10	4.02	20.50	
2025-01-08 09:06:36.34	3.82	20.37	
2025-01-08 09:06:37.58	3.62	20.25	
2025-01-08 09:06:38.82	3.42	20.12	
2025-01-08 09:06:40.06	3.22	20.00	
2025-01-08 09:06:41.30	3.03	19.87	
2025-01-08 09:06:42.53	2.83	19.75	
2025-01-08 09:06:43.76	2.64	19.63	
2025-01-08 09:06:45.01	2.45	19.50	
2025-01-08 09:06:46.25	2.26	19.38	
2025-01-08 09:06:47.47	2.08	19.26	
2025-01-08 09:06:48.70	1.89	19.13	
2025-01-08 09:06:49.93	1.71	19.01	
2025-01-08 09:06:51.16	1.53	18.89	
2025-01-08 09:06:52.39	1.35	18.77	
2025-01-08 09:06:53.62	1.17	18.65	
2025-01-08 09:06:54.86	0.99	18.53	
2025-01-08 09:06:56.10	0.81	18.41	
2025-01-08 09:06:57.33	0.64	18.29	
2025-01-08 09:06:58.56	0.47	18.17	
2025-01-08 09:06:59.79	0.29	18.05	
2025-01-08 09:07:01.03	0.12	17.93	
2025-01-08 09:07:02.26	359.95	17.81	
2025-01-08 09:07:03.49	359.79	17.69	
2025-01-08 09:07:04.72	359.62	17.57	
2025-01-08 09:07:05.97	359.45	17.45	
2025-01-08 09:07:07.21	359.29	17.33	
2025-01-08 09:07:08.45	359.12	17.22	
2025-01-08 09:07:09.68	358.96	17.10	
2025-01-08 09:07:10.91	358.80	16.98	
2025-01-08 09:07:12.14	358.65	16.87	
2025-01-08 09:07:13.39	358.49	16.75	
2025-01-08 09:07:14.62	358.33	16.63	
2025-01-08 09:07:15.85	358.18	16.52	
2025-01-08 09:07:17.09	358.02	16.40	
2025-01-08 09:07:18.32	357.87	16.29	
2025-01-08 09:07:19.56	357.72	16.17	
2025-01-08 09:07:20.79	357.57	16.06	
2025-01-08 09:07:22.02	357.42	15.95	
2025-01-08 09:07:23.26	357.27	15.83	
2025-01-08 09:07:24.49	357.12	15.72	
2025-01-08 09:07:25.72	356.98	15.61	
2025-01-08 09:07:26.96	356.83	15.49	
2025-01-08 09:07:28.18	356.69	15.38	
2025-01-08 09:07:29.41	356.55	15.27	
2025-01-08 09:07:30.64	356.41	15.16	
2025-01-08 09:07:31.88	356.27	15.05	
2025-01-08 09:07:33.11	356.13	14.94	
2025-01-08 09:07:34.34	355.99	14.83	
2025-01-08 09:07:35.58	355.85	14.72	
2025-01-08 09:07:36.80	355.72	14.61	
2025-01-08 09:07:38.03	355.58	14.50	
2025-01-08 09:07:39.26	355.45	14.39	
2025-01-08 09:07:40.50	355.32	14.28	
2025-01-08 09:07:41.73	355.19	14.17	
2025-01-08 09:07:42.96	355.05	14.07	
2025-01-08 09:07:44.20	354.92	13.96	
2025-01-08 09:07:45.43	354.80	13.85	
2025-01-08 09:07:46.66	354.67	13.74	
2025-01-08 09:07:47.89	354.54	13.64	
2025-01-08 09:07:49.12	354.42	13.53	
2025-01-08 09:07:50.36	354.29	13.42	
2025-01-08 09:07:51.59	354.17	13.32	
2025-01-08 09:07:52.82	354.04	13.21	
2025-01-08 09:07:54.05	353.92	13.11	
2025-01-08 09:07:55.28	353.80	13.00	
2025-01-08 09:07:56.53	353.68	12.90	
2025-01-08 09:07:57.76	353.56	12.79	
2025-01-08 09:07:58.99	353.44	12.69	
2025-01-08 09:08:00.22	353.32	12.59	
2025-01-08 09:08:01.45	353.21	12.48	
2025-01-08 09:08:02.68	353.09	12.38	
2025-01-08 09:08:03.92	352.97	12.28	
2025-01-08 09:08:05.15	352.86	12.17	
2025-01-08 09:08:06.38	352.75	12.07	
2025-01-08 09:08:07.61	352.63	11.97	
2025-01-08 09:08:08.85	352.52	11.87	
2025-01-08 09:08:10.08	352.41	11.77	
2025-01-08 09:08:11.31	352.30	11.67	
2025-01-08 09:08:12.55	352.19	11.57	
2025-01-08 09:08:13.79	352.08	11.47	
2025-01-08 09:08:15.03	351.97	11.37	
2025-01-08 09:08:16.27	351.86	11.27	
2025-01-08 09:08:17.50	351.76	11.17	
2025-01-08 09:08:18.73	351.65	11.07	
2025-01-08 09:08:19.96	351.55	10.97	
2025-01-08 09:08:21.19	351.44	10.87	
2025-01-08 09:08:22.42	351.34	10.77	
2025-01-08 09:08:23.65	351.24	10.68	
2025-01-08 09:08:24.88	351.13	10.58	
2025-01-08 09:08:26.11	351.03	10.48	
2025-01-08 09:08:27.34	350.93	10.38	
2025-01-08 09:08:28.58	350.83	10.29	
2025-01-08 09:08:29.82	350.73	10.19	
2025-01-08 09:08:31.07	350.63	10.09	
2025-01-08 09:08:32.31	350.53	10.00	
2025-01-08 09:08:33.54	350.44	9.90	
2025-01-08 09:08:34.78	350.34	9.81	
2025-01-08 09:08:36.01	350.24	9.71	
2025-01-08 09:08:37.24	350.15	9.62	
2025-01-08 09:08:38.47	350.05	9.52	
2025-01-08 09:08:39.70	349.96	9.43	
2025-01-08 09:08:40.93	349.87	9.34	
2025-01-08 09:08:42.16	349.77	9.24	
2025-01-08 09:08:43.40	349.68	9.15	
2025-01-08 09:08:44.63	349.59	9.06	
2025-01-08 09:08:45.86	349.50	8.96	
2025-01-08 09:08:47.09	349.41	8.87	
2025-01-08 09:08:48.33	349.32	8.78	
2025-01-08 09:08:49.56	349.23	8.69	
2025-01-08 09:08:50.79	349.14	8.60	
2025-01-08 09:08:52.03	349.05	8.50	
2025-01-08 09:08:53.26	348.96	8.41	
2025-01-08 09:08:54.49	348.88	8.32	
2025-01-08 09:08:55.72	348.79	8.23	
2025-01-08 09:08:56.95	348.71	8.14	
2025-01-08 09:08:58.18	348.62	8.05	
2025-01-08 09:08:59.41	348.54	7.96	
2025-01-08 09:09:00.64	348.45	7.87	
2025-01-08 09:09:01.88	348.37	7.78	
2025-01-08 09:09:03.12	348.29	7.69	
2025-01-08 09:09:04.35	348.20	7.61	
2025-01-08 09:09:05.58	348.12	7.52	
2025-01-08 09:09:06.82	348.04	7.43	
2025-01-08 09:09:08.05	347.96	7.34	
2025-01-08 09:09:09.29	347.88	7.25	
2025-01-08 09:09:10.52	347.80	7.16	
2025-01-08 09:09:11.75	347.72	7.08	
2025-01-08 09:09:12.98	347.64	6.99	
2025-01-08 09:09:14.21	347.56	6.90	
2025-01-08 09:09:15.44	347.48	6.82	
2025-01-08 09:09:16.68	347.41	6.73	
2025-01-08 09:09:17.91	347.33	6.65	
2025-01-08 09:09:19.14	347.25	6.56	
2025-01-08 09:09:20.38	347.18	6.47	
2025-01-08 09:09:21.61	347.10	6.39	
2025-01-08 09:09:22.84	347.03	6.30	
2025-01-08 09:09:24.09	346.95	6.22	
2025-01-08 09:09:25.32	346.88	6.13	
2025-01-08 09:09:26.55	346.80	6.05	
2025-01-08 09:09:27.78	346.73	5.96	
2025-01-08 09:09:29.02	346.66	5.88	
2025-01-08 09:09:30.25	346.59	5.80	
2025-01-08 09:09:31.48	346.51	5.71	
2025-01-08 09:09:32.71	346.44	5.63	
2025-01-08 09:09:33.95	346.37	5.55	
2025-01-08 09:09:35.20	346.30	5.46	
2025-01-08 09:09:36.44	346.23	5.38	
2025-01-08 09:09:37.67	346.16	5.30	
2025-01-08 09:09:38.90	346.09	5.21	
2025-01-08 09:09:40.15	346.02	5.13	
2025-01-08 09:09:41.38	345.95	5.05	
2025-01-08 09:09:42.61	345.89	4.97	
2025-01-08 09:09:43.85	345.82	4.89	
2025-01-08 09:09:45.08	345.75	4.81	
2025-01-08 09:09:46.31	345.68	4.72	
2025-01-08 09:09:47.55	345.62	4.64	
2025-01-08 09:09:48.78	345.55	4.56	
2025-01-08 09:09:50.01	345.49	4.48	
2025-01-08 09:09:51.24	345.42	4.40	
2025-01-08 09:09:52.47	345.36	4.32	
2025-01-08 09:09:53.70	345.29	4.24	
2025-01-08 09:09:54.94	345.23	4.16	
2025-01-08 09:09:56.17	345.16	4.08	
2025-01-08 09:09:57.40	345.10	4.01	

#Closed at: 2025-01-08 09:09:57