passes_logs/2025/01/08/SPB_Silybum_02/SPB_Silybum_02__20250108_081543_TERRA_rec.log

#Pass ID: 20250108_081543_TERRA
#Satellite: TERRA
#Configuration: TERRA
#Start time: 2025-01-08 08:15:43

#Version: 2.0.20230423
#Station: SPB_Silybum_02
#Location: 30.233357 lon 59.946436 lat
#TLE: 1 25994U 99068A   25007.79031535  .00001159  00000+0  24884-3 0  9992
#TLE: 2 25994  98.0229  71.0496 0003578  86.9116 340.1593 14.60381232333028

#Time	Az	El	Level	Level2	SNR	BER	Gain	Gain2
2025-01-08 08:15:45.22	17.25	4.16	
2025-01-08 08:15:46.47	17.26	4.25	
2025-01-08 08:15:47.70	17.27	4.34	
2025-01-08 08:15:48.93	17.29	4.42	
2025-01-08 08:15:50.17	17.30	4.51	
2025-01-08 08:15:51.40	17.31	4.60	
2025-01-08 08:15:52.63	17.33	4.69	
2025-01-08 08:15:53.87	17.34	4.79	
2025-01-08 08:15:55.10	17.36	4.88	
2025-01-08 08:15:56.33	17.37	4.97	
2025-01-08 08:15:57.56	17.38	5.06	
2025-01-08 08:15:58.80	17.40	5.15	
2025-01-08 08:16:00.03	17.41	5.24	
2025-01-08 08:16:01.26	17.43	5.34	
2025-01-08 08:16:02.50	17.44	5.43	
2025-01-08 08:16:03.73	17.45	5.52	
2025-01-08 08:16:04.97	17.47	5.62	
2025-01-08 08:16:06.21	17.48	5.71	
2025-01-08 08:16:07.44	17.50	5.81	
2025-01-08 08:16:08.68	17.51	5.90	
2025-01-08 08:16:09.92	17.53	6.00	
2025-01-08 08:16:11.15	17.54	6.09	
2025-01-08 08:16:12.41	17.56	6.19	
2025-01-08 08:16:13.64	17.57	6.29	
2025-01-08 08:16:14.87	17.58	6.38	
2025-01-08 08:16:16.10	17.60	6.48	
2025-01-08 08:16:17.33	17.61	6.58	
2025-01-08 08:16:18.56	17.63	6.68	
2025-01-08 08:16:19.79	17.64	6.78	
2025-01-08 08:16:21.04	17.66	6.88	
2025-01-08 08:16:22.27	17.68	6.97	
2025-01-08 08:16:23.52	17.69	7.08	
2025-01-08 08:16:24.76	17.71	7.18	
2025-01-08 08:16:26.01	17.72	7.28	
2025-01-08 08:16:27.25	17.74	7.38	
2025-01-08 08:16:28.48	17.75	7.48	
2025-01-08 08:16:29.71	17.77	7.58	
2025-01-08 08:16:30.94	17.78	7.69	
2025-01-08 08:16:32.17	17.80	7.79	
2025-01-08 08:16:33.40	17.82	7.89	
2025-01-08 08:16:34.63	17.83	8.00	
2025-01-08 08:16:35.88	17.85	8.10	
2025-01-08 08:16:37.11	17.86	8.21	
2025-01-08 08:16:38.34	17.88	8.31	
2025-01-08 08:16:39.58	17.90	8.42	
2025-01-08 08:16:40.81	17.91	8.52	
2025-01-08 08:16:42.06	17.93	8.63	
2025-01-08 08:16:43.29	17.95	8.74	
2025-01-08 08:16:44.53	17.96	8.85	
2025-01-08 08:16:45.76	17.98	8.96	
2025-01-08 08:16:46.99	18.00	9.07	
2025-01-08 08:16:48.22	18.01	9.17	
2025-01-08 08:16:49.45	18.03	9.28	
2025-01-08 08:16:50.69	18.05	9.40	
2025-01-08 08:16:51.92	18.07	9.51	
2025-01-08 08:16:53.15	18.08	9.62	
2025-01-08 08:16:54.38	18.10	9.73	
2025-01-08 08:16:55.61	18.12	9.84	
2025-01-08 08:16:56.85	18.14	9.96	
2025-01-08 08:16:58.09	18.15	10.07	
2025-01-08 08:16:59.32	18.17	10.18	
2025-01-08 08:17:00.55	18.19	10.30	
2025-01-08 08:17:01.79	18.21	10.42	
2025-01-08 08:17:03.02	18.23	10.53	
2025-01-08 08:17:04.26	18.24	10.65	
2025-01-08 08:17:05.49	18.26	10.77	
2025-01-08 08:17:06.72	18.28	10.89	
2025-01-08 08:17:07.95	18.30	11.00	
2025-01-08 08:17:09.18	18.32	11.12	
2025-01-08 08:17:10.41	18.34	11.24	
2025-01-08 08:17:11.64	18.36	11.36	
2025-01-08 08:17:12.88	18.37	11.49	
2025-01-08 08:17:14.10	18.39	11.61	
2025-01-08 08:17:15.35	18.41	11.73	
2025-01-08 08:17:16.58	18.43	11.85	
2025-01-08 08:17:17.81	18.45	11.98	
2025-01-08 08:17:19.04	18.47	12.10	
2025-01-08 08:17:20.27	18.49	12.23	
2025-01-08 08:17:21.52	18.51	12.36	
2025-01-08 08:17:22.77	18.53	12.48	
2025-01-08 08:17:24.00	18.55	12.61	
2025-01-08 08:17:25.24	18.57	12.74	
2025-01-08 08:17:26.47	18.59	12.87	
2025-01-08 08:17:27.70	18.61	13.00	
2025-01-08 08:17:28.93	18.64	13.13	
2025-01-08 08:17:30.18	18.66	13.26	
2025-01-08 08:17:31.41	18.68	13.40	
2025-01-08 08:17:32.64	18.70	13.53	
2025-01-08 08:17:33.87	18.72	13.66	
2025-01-08 08:17:35.11	18.74	13.80	
2025-01-08 08:17:36.36	18.76	13.94	
2025-01-08 08:17:37.60	18.79	14.07	
2025-01-08 08:17:38.83	18.81	14.21	
2025-01-08 08:17:40.06	18.83	14.35	
2025-01-08 08:17:41.30	18.85	14.49	
2025-01-08 08:17:42.53	18.88	14.63	
2025-01-08 08:17:43.78	18.90	14.77	
2025-01-08 08:17:45.01	18.92	14.91	
2025-01-08 08:17:46.25	18.95	15.06	
2025-01-08 08:17:47.50	18.97	15.20	
2025-01-08 08:17:48.73	18.99	15.35	
2025-01-08 08:17:49.97	19.02	15.49	
2025-01-08 08:17:51.20	19.04	15.64	
2025-01-08 08:17:52.43	19.07	15.79	
2025-01-08 08:17:53.66	19.09	15.93	
2025-01-08 08:17:54.90	19.11	16.08	
2025-01-08 08:17:56.13	19.14	16.23	
2025-01-08 08:17:57.36	19.16	16.39	
2025-01-08 08:17:58.59	19.19	16.54	
2025-01-08 08:17:59.83	19.21	16.69	
2025-01-08 08:18:01.07	19.24	16.85	
2025-01-08 08:18:02.30	19.27	17.00	
2025-01-08 08:18:03.53	19.29	17.16	
2025-01-08 08:18:04.76	19.32	17.32	
2025-01-08 08:18:05.99	19.35	17.48	
2025-01-08 08:18:07.22	19.37	17.64	
2025-01-08 08:18:08.46	19.40	17.80	
2025-01-08 08:18:09.70	19.43	17.96	
2025-01-08 08:18:10.93	19.45	18.13	
2025-01-08 08:18:12.18	19.48	18.29	
2025-01-08 08:18:13.41	19.51	18.46	
2025-01-08 08:18:14.65	19.54	18.63	
2025-01-08 08:18:15.88	19.57	18.80	
2025-01-08 08:18:17.12	19.60	18.97	
2025-01-08 08:18:18.35	19.63	19.14	
2025-01-08 08:18:19.58	19.66	19.31	
2025-01-08 08:18:20.81	19.68	19.48	
2025-01-08 08:18:22.05	19.72	19.66	
2025-01-08 08:18:23.28	19.75	19.84	
2025-01-08 08:18:24.51	19.78	20.01	
2025-01-08 08:18:25.74	19.81	20.19	
2025-01-08 08:18:26.99	19.84	20.38	
2025-01-08 08:18:28.23	19.87	20.56	
2025-01-08 08:18:29.47	19.90	20.74	
2025-01-08 08:18:30.70	19.94	20.93	
2025-01-08 08:18:31.93	19.97	21.12	
2025-01-08 08:18:33.16	20.00	21.30	
2025-01-08 08:18:34.39	20.03	21.49	
2025-01-08 08:18:35.62	20.07	21.68	
2025-01-08 08:18:36.85	20.10	21.88	
2025-01-08 08:18:38.09	20.14	22.07	
2025-01-08 08:18:39.32	20.17	22.27	
2025-01-08 08:18:40.55	20.21	22.47	
2025-01-08 08:18:41.78	20.24	22.66	
2025-01-08 08:18:43.02	20.28	22.87	
2025-01-08 08:18:44.25	20.32	23.07	
2025-01-08 08:18:45.48	20.35	23.27	
2025-01-08 08:18:46.71	20.39	23.48	
2025-01-08 08:18:47.94	20.43	23.69	
2025-01-08 08:18:49.20	20.47	23.90	
2025-01-08 08:18:50.43	20.51	24.11	
2025-01-08 08:18:51.65	20.54	24.32	
2025-01-08 08:18:52.88	20.58	24.54	
2025-01-08 08:18:54.12	20.62	24.76	
2025-01-08 08:18:55.37	20.67	24.98	
2025-01-08 08:18:56.60	20.71	25.20	
2025-01-08 08:18:57.83	20.75	25.43	
2025-01-08 08:18:59.06	20.79	25.65	
2025-01-08 08:19:00.32	20.84	25.88	
2025-01-08 08:19:01.56	20.88	26.11	
2025-01-08 08:19:02.81	20.92	26.35	
2025-01-08 08:19:04.04	20.97	26.58	
2025-01-08 08:19:05.27	21.01	26.82	
2025-01-08 08:19:06.50	21.06	27.06	
2025-01-08 08:19:07.73	21.11	27.30	
2025-01-08 08:19:08.96	21.15	27.54	
2025-01-08 08:19:10.19	21.20	27.79	
2025-01-08 08:19:11.42	21.25	28.03	
2025-01-08 08:19:12.65	21.30	28.28	
2025-01-08 08:19:13.89	21.35	28.54	
2025-01-08 08:19:15.12	21.40	28.79	
2025-01-08 08:19:16.35	21.45	29.05	
2025-01-08 08:19:17.59	21.51	29.31	
2025-01-08 08:19:18.82	21.56	29.57	
2025-01-08 08:19:20.06	21.61	29.84	
2025-01-08 08:19:21.28	21.67	30.10	
2025-01-08 08:19:22.52	21.72	30.38	
2025-01-08 08:19:23.75	21.78	30.65	
2025-01-08 08:19:24.99	21.84	30.93	
2025-01-08 08:19:26.23	21.90	31.21	
2025-01-08 08:19:27.47	21.96	31.49	
2025-01-08 08:19:28.70	22.02	31.78	
2025-01-08 08:19:29.93	22.08	32.06	
2025-01-08 08:19:31.16	22.14	32.35	
2025-01-08 08:19:32.39	22.20	32.65	
2025-01-08 08:19:33.62	22.27	32.94	
2025-01-08 08:19:34.85	22.34	33.24	
2025-01-08 08:19:36.09	22.40	33.55	
2025-01-08 08:19:37.33	22.47	33.86	
2025-01-08 08:19:38.58	22.54	34.17	
2025-01-08 08:19:39.81	22.61	34.48	
2025-01-08 08:19:41.04	22.68	34.80	
2025-01-08 08:19:42.27	22.76	35.12	
2025-01-08 08:19:43.51	22.83	35.44	
2025-01-08 08:19:44.74	22.91	35.77	
2025-01-08 08:19:45.97	22.99	36.10	
2025-01-08 08:19:47.20	23.07	36.43	
2025-01-08 08:19:48.43	23.15	36.77	
2025-01-08 08:19:49.66	23.23	37.11	
2025-01-08 08:19:50.90	23.31	37.45	
2025-01-08 08:19:52.12	23.40	37.80	
2025-01-08 08:19:53.37	23.49	38.16	
2025-01-08 08:19:54.60	23.58	38.51	
2025-01-08 08:19:55.84	23.67	38.87	
2025-01-08 08:19:57.07	23.76	39.24	
2025-01-08 08:19:58.30	23.86	39.60	
2025-01-08 08:19:59.54	23.96	39.98	
2025-01-08 08:20:00.77	24.06	40.35	
2025-01-08 08:20:02.00	24.16	40.73	
2025-01-08 08:20:03.23	24.26	41.12	
2025-01-08 08:20:04.47	24.37	41.51	
2025-01-08 08:20:05.71	24.48	41.91	
2025-01-08 08:20:06.94	24.59	42.30	
2025-01-08 08:20:08.17	24.71	42.70	
2025-01-08 08:20:09.40	24.83	43.11	
2025-01-08 08:20:10.63	24.95	43.52	
2025-01-08 08:20:11.88	25.07	43.94	
2025-01-08 08:20:13.11	25.20	44.36	
2025-01-08 08:20:14.34	25.33	44.79	
2025-01-08 08:20:15.57	25.46	45.21	
2025-01-08 08:20:16.80	25.60	45.65	
2025-01-08 08:20:18.03	25.74	46.09	
2025-01-08 08:20:19.26	25.89	46.53	
2025-01-08 08:20:20.50	26.04	46.98	
2025-01-08 08:20:21.73	26.19	47.43	
2025-01-08 08:20:22.96	26.35	47.89	
2025-01-08 08:20:24.19	26.51	48.35	
2025-01-08 08:20:25.42	26.68	48.82	
2025-01-08 08:20:26.66	26.85	49.30	
2025-01-08 08:20:27.90	27.03	49.78	
2025-01-08 08:20:29.14	27.22	50.27	
2025-01-08 08:20:30.37	27.41	50.75	
2025-01-08 08:20:31.60	27.60	51.25	
2025-01-08 08:20:32.84	27.81	51.75	
2025-01-08 08:20:34.07	28.02	52.25	
2025-01-08 08:20:35.30	28.23	52.76	
2025-01-08 08:20:36.53	28.46	53.28	
2025-01-08 08:20:37.78	28.69	53.80	
2025-01-08 08:20:39.02	28.94	54.33	
2025-01-08 08:20:40.25	29.19	54.86	
2025-01-08 08:20:41.49	29.45	55.40	
2025-01-08 08:20:42.72	29.71	55.94	
2025-01-08 08:20:43.96	30.00	56.49	
2025-01-08 08:20:45.19	30.29	57.03	
2025-01-08 08:20:46.42	30.59	57.59	
2025-01-08 08:20:47.65	30.90	58.15	
2025-01-08 08:20:48.88	31.23	58.71	
2025-01-08 08:20:50.11	31.58	59.28	
2025-01-08 08:20:51.34	31.93	59.85	
2025-01-08 08:20:52.59	32.31	60.44	
2025-01-08 08:20:53.82	32.70	61.02	
2025-01-08 08:20:55.07	33.12	61.62	
2025-01-08 08:20:56.29	33.55	62.20	
2025-01-08 08:20:57.53	34.00	62.80	
2025-01-08 08:20:58.76	34.48	63.40	
2025-01-08 08:20:59.99	34.98	64.00	
2025-01-08 08:21:01.23	35.51	64.61	
2025-01-08 08:21:02.46	36.06	65.22	
2025-01-08 08:21:03.69	36.65	65.83	
2025-01-08 08:21:04.92	37.27	66.44	
2025-01-08 08:21:06.16	37.93	67.06	
2025-01-08 08:21:07.39	38.62	67.68	
2025-01-08 08:21:08.62	39.36	68.30	
2025-01-08 08:21:09.87	40.16	68.93	
2025-01-08 08:21:11.11	41.00	69.55	
2025-01-08 08:21:12.35	41.90	70.18	
2025-01-08 08:21:13.58	42.86	70.80	
2025-01-08 08:21:14.83	43.90	71.43	
2025-01-08 08:21:16.07	45.01	72.05	
2025-01-08 08:21:17.30	46.19	72.66	
2025-01-08 08:21:18.53	47.47	73.27	
2025-01-08 08:21:19.76	48.84	73.87	
2025-01-08 08:21:21.00	50.34	74.47	
2025-01-08 08:21:22.23	51.95	75.06	
2025-01-08 08:21:23.48	53.72	75.65	
2025-01-08 08:21:24.71	55.62	76.22	
2025-01-08 08:21:25.94	57.68	76.78	
2025-01-08 08:21:27.19	59.97	77.32	
2025-01-08 08:21:28.42	62.43	77.84	
2025-01-08 08:21:29.65	65.10	78.34	
2025-01-08 08:21:30.88	68.01	78.81	
2025-01-08 08:21:32.12	71.20	79.26	
2025-01-08 08:21:33.34	74.61	79.67	
2025-01-08 08:21:34.57	78.31	80.04	
2025-01-08 08:21:35.80	82.29	80.37	
2025-01-08 08:21:37.03	86.53	80.64	
2025-01-08 08:21:38.27	91.05	80.87	
2025-01-08 08:21:39.50	95.74	81.04	
2025-01-08 08:21:40.73	100.57	81.15	
2025-01-08 08:21:41.96	105.49	81.19	
2025-01-08 08:21:43.19	110.42	81.17	
2025-01-08 08:21:44.43	115.33	81.09	
2025-01-08 08:21:45.66	120.08	80.94	
2025-01-08 08:21:46.90	124.68	80.74	
2025-01-08 08:21:48.14	129.05	80.47	
2025-01-08 08:21:49.38	133.16	80.16	
2025-01-08 08:21:50.61	136.97	79.80	
2025-01-08 08:21:51.84	140.50	79.41	
2025-01-08 08:21:53.09	143.81	78.97	
2025-01-08 08:21:54.32	146.81	78.50	
2025-01-08 08:21:55.56	149.58	78.01	
2025-01-08 08:21:56.79	152.11	77.50	
2025-01-08 08:21:58.02	154.43	76.96	
2025-01-08 08:21:59.25	156.56	76.41	
2025-01-08 08:22:00.48	158.51	75.85	
2025-01-08 08:22:01.71	160.31	75.27	
2025-01-08 08:22:02.94	161.97	74.68	
2025-01-08 08:22:04.18	163.51	74.08	
2025-01-08 08:22:05.41	164.93	73.48	
2025-01-08 08:22:06.65	166.24	72.87	
2025-01-08 08:22:07.89	167.47	72.25	
2025-01-08 08:22:09.12	168.60	71.63	
2025-01-08 08:22:10.35	169.65	71.02	
2025-01-08 08:22:11.58	170.63	70.40	
2025-01-08 08:22:12.82	171.55	69.77	
2025-01-08 08:22:14.07	172.43	69.14	
2025-01-08 08:22:15.31	173.24	68.51	
2025-01-08 08:22:16.54	173.99	67.89	
2025-01-08 08:22:17.77	174.70	67.27	
2025-01-08 08:22:19.01	175.38	66.65	
2025-01-08 08:22:20.26	176.02	66.02	
2025-01-08 08:22:21.48	176.61	65.42	
2025-01-08 08:22:22.72	177.18	64.80	
2025-01-08 08:22:23.95	177.72	64.19	
2025-01-08 08:22:25.18	178.23	63.59	
2025-01-08 08:22:26.41	178.71	62.99	
2025-01-08 08:22:27.64	179.17	62.39	
2025-01-08 08:22:28.88	179.61	61.79	
2025-01-08 08:22:30.11	180.03	61.20	
2025-01-08 08:22:31.36	180.43	60.61	
2025-01-08 08:22:32.59	180.81	60.03	
2025-01-08 08:22:33.83	181.18	59.45	
2025-01-08 08:22:35.06	181.53	58.88	
2025-01-08 08:22:36.29	181.86	58.31	
2025-01-08 08:22:37.52	182.18	57.75	
2025-01-08 08:22:38.75	182.49	57.19	
2025-01-08 08:22:39.98	182.78	56.64	
2025-01-08 08:22:41.23	183.07	56.08	
2025-01-08 08:22:42.46	183.34	55.54	
2025-01-08 08:22:43.69	183.60	55.00	
2025-01-08 08:22:44.92	183.86	54.47	
2025-01-08 08:22:46.15	184.10	53.94	
2025-01-08 08:22:47.41	184.34	53.41	
2025-01-08 08:22:48.64	184.57	52.89	
2025-01-08 08:22:49.87	184.79	52.38	
2025-01-08 08:22:51.10	185.00	51.87	
2025-01-08 08:22:52.34	185.20	51.37	
2025-01-08 08:22:53.57	185.40	50.87	
2025-01-08 08:22:54.80	185.59	50.38	
2025-01-08 08:22:56.03	185.78	49.89	
2025-01-08 08:22:57.28	185.96	49.40	
2025-01-08 08:22:58.51	186.14	48.93	
2025-01-08 08:22:59.74	186.31	48.46	
2025-01-08 08:23:00.97	186.47	47.99	
2025-01-08 08:23:02.21	186.63	47.53	
2025-01-08 08:23:03.44	186.78	47.07	
2025-01-08 08:23:04.67	186.94	46.62	
2025-01-08 08:23:05.90	187.08	46.17	
2025-01-08 08:23:07.13	187.22	45.73	
2025-01-08 08:23:08.36	187.36	45.29	
2025-01-08 08:23:09.60	187.50	44.86	
2025-01-08 08:23:10.83	187.63	44.43	
2025-01-08 08:23:12.06	187.76	44.01	
2025-01-08 08:23:13.29	187.88	43.59	
2025-01-08 08:23:14.54	188.01	43.17	
2025-01-08 08:23:15.78	188.13	42.76	
2025-01-08 08:23:17.01	188.24	42.36	
2025-01-08 08:23:18.24	188.35	41.96	
2025-01-08 08:23:19.47	188.46	41.56	
2025-01-08 08:23:20.70	188.57	41.17	
2025-01-08 08:23:21.93	188.68	40.78	
2025-01-08 08:23:23.16	188.78	40.40	
2025-01-08 08:23:24.39	188.88	40.02	
2025-01-08 08:23:25.63	188.98	39.64	
2025-01-08 08:23:26.88	189.08	39.27	
2025-01-08 08:23:28.11	189.17	38.90	
2025-01-08 08:23:29.34	189.26	38.54	
2025-01-08 08:23:30.58	189.35	38.18	
2025-01-08 08:23:31.81	189.44	37.83	
2025-01-08 08:23:33.04	189.53	37.48	
2025-01-08 08:23:34.27	189.61	37.13	
2025-01-08 08:23:35.50	189.69	36.79	
2025-01-08 08:23:36.73	189.77	36.45	
2025-01-08 08:23:37.96	189.85	36.11	
2025-01-08 08:23:39.19	189.93	35.78	
2025-01-08 08:23:40.42	190.01	35.45	
2025-01-08 08:23:41.65	190.08	35.13	
2025-01-08 08:23:42.88	190.16	34.81	
2025-01-08 08:23:44.11	190.23	34.49	
2025-01-08 08:23:45.35	190.30	34.17	
2025-01-08 08:23:46.59	190.37	33.86	
2025-01-08 08:23:47.83	190.44	33.55	
2025-01-08 08:23:49.06	190.50	33.24	
2025-01-08 08:23:50.29	190.57	32.94	
2025-01-08 08:23:51.52	190.64	32.64	
2025-01-08 08:23:52.75	190.70	32.35	
2025-01-08 08:23:53.99	190.76	32.05	
2025-01-08 08:23:55.22	190.82	31.76	
2025-01-08 08:23:56.45	190.88	31.48	
2025-01-08 08:23:57.69	190.94	31.19	
2025-01-08 08:23:58.93	191.00	30.91	
2025-01-08 08:24:00.19	191.06	30.62	
2025-01-08 08:24:01.42	191.12	30.35	
2025-01-08 08:24:02.64	191.17	30.08	
2025-01-08 08:24:03.87	191.23	29.81	
2025-01-08 08:24:05.11	191.28	29.54	
2025-01-08 08:24:06.35	191.33	29.28	
2025-01-08 08:24:07.58	191.39	29.02	
2025-01-08 08:24:08.82	191.44	28.75	
2025-01-08 08:24:10.05	191.49	28.50	
2025-01-08 08:24:11.28	191.54	28.24	
2025-01-08 08:24:12.51	191.59	27.99	
2025-01-08 08:24:13.74	191.64	27.74	
2025-01-08 08:24:14.97	191.68	27.50	
2025-01-08 08:24:16.20	191.73	27.25	
2025-01-08 08:24:17.42	191.78	27.01	
2025-01-08 08:24:18.66	191.82	26.77	
2025-01-08 08:24:19.89	191.87	26.53	
2025-01-08 08:24:21.13	191.91	26.30	
2025-01-08 08:24:22.37	191.96	26.06	
2025-01-08 08:24:23.60	192.00	25.83	
2025-01-08 08:24:24.83	192.04	25.60	
2025-01-08 08:24:26.06	192.08	25.38	
2025-01-08 08:24:27.29	192.13	25.15	
2025-01-08 08:24:28.54	192.17	24.93	
2025-01-08 08:24:29.77	192.21	24.71	
2025-01-08 08:24:31.00	192.25	24.49	
2025-01-08 08:24:32.23	192.29	24.27	
2025-01-08 08:24:33.47	192.33	24.05	
2025-01-08 08:24:34.69	192.36	23.84	
2025-01-08 08:24:35.93	192.40	23.63	
2025-01-08 08:24:37.17	192.44	23.42	
2025-01-08 08:24:38.40	192.48	23.21	
2025-01-08 08:24:39.63	192.51	23.01	
2025-01-08 08:24:40.86	192.55	22.80	
2025-01-08 08:24:42.09	192.59	22.60	
2025-01-08 08:24:43.33	192.62	22.40	
2025-01-08 08:24:44.57	192.66	22.20	
2025-01-08 08:24:45.80	192.69	22.00	
2025-01-08 08:24:47.04	192.72	21.81	
2025-01-08 08:24:48.27	192.76	21.61	
2025-01-08 08:24:49.50	192.79	21.42	
2025-01-08 08:24:50.73	192.82	21.23	
2025-01-08 08:24:51.96	192.86	21.04	
2025-01-08 08:24:53.20	192.89	20.85	
2025-01-08 08:24:54.43	192.92	20.67	
2025-01-08 08:24:55.67	192.95	20.48	
2025-01-08 08:24:56.90	192.98	20.30	
2025-01-08 08:24:58.13	193.01	20.12	
2025-01-08 08:24:59.37	193.04	19.93	
2025-01-08 08:25:00.60	193.07	19.76	
2025-01-08 08:25:01.83	193.10	19.58	
2025-01-08 08:25:03.06	193.13	19.40	
2025-01-08 08:25:04.29	193.16	19.23	
2025-01-08 08:25:05.52	193.19	19.06	
2025-01-08 08:25:06.75	193.22	18.88	
2025-01-08 08:25:07.98	193.25	18.71	
2025-01-08 08:25:09.21	193.28	18.54	
2025-01-08 08:25:10.46	193.30	18.37	
2025-01-08 08:25:11.69	193.33	18.21	
2025-01-08 08:25:12.92	193.36	18.04	
2025-01-08 08:25:14.16	193.39	17.87	
2025-01-08 08:25:15.40	193.41	17.71	
2025-01-08 08:25:16.63	193.44	17.55	
2025-01-08 08:25:17.87	193.47	17.39	
2025-01-08 08:25:19.10	193.49	17.23	
2025-01-08 08:25:20.34	193.52	17.07	
2025-01-08 08:25:21.57	193.54	16.91	
2025-01-08 08:25:22.80	193.57	16.75	
2025-01-08 08:25:24.03	193.59	16.60	
2025-01-08 08:25:25.26	193.62	16.44	
2025-01-08 08:25:26.49	193.64	16.29	
2025-01-08 08:25:27.73	193.67	16.14	
2025-01-08 08:25:28.96	193.69	15.99	
2025-01-08 08:25:30.19	193.71	15.84	
2025-01-08 08:25:31.42	193.74	15.69	
2025-01-08 08:25:32.65	193.76	15.54	
2025-01-08 08:25:33.88	193.78	15.39	
2025-01-08 08:25:35.11	193.81	15.25	
2025-01-08 08:25:36.34	193.83	15.10	
2025-01-08 08:25:37.57	193.85	14.96	
2025-01-08 08:25:38.80	193.88	14.81	
2025-01-08 08:25:40.05	193.90	14.67	
2025-01-08 08:25:41.28	193.92	14.53	
2025-01-08 08:25:42.51	193.94	14.39	
2025-01-08 08:25:43.75	193.96	14.25	
2025-01-08 08:25:44.98	193.99	14.11	
2025-01-08 08:25:46.21	194.01	13.97	
2025-01-08 08:25:47.44	194.03	13.83	
2025-01-08 08:25:48.68	194.05	13.70	
2025-01-08 08:25:49.91	194.07	13.56	
2025-01-08 08:25:51.14	194.09	13.43	
2025-01-08 08:25:52.37	194.11	13.29	
2025-01-08 08:25:53.60	194.13	13.16	
2025-01-08 08:25:54.84	194.15	13.03	
2025-01-08 08:25:56.08	194.17	12.90	
2025-01-08 08:25:57.31	194.19	12.76	
2025-01-08 08:25:58.53	194.21	12.64	
2025-01-08 08:25:59.78	194.23	12.51	
2025-01-08 08:26:01.01	194.25	12.38	
2025-01-08 08:26:02.24	194.27	12.25	
2025-01-08 08:26:03.48	194.29	12.12	
2025-01-08 08:26:04.71	194.31	12.00	
2025-01-08 08:26:05.94	194.33	11.87	
2025-01-08 08:26:07.17	194.35	11.75	
2025-01-08 08:26:08.40	194.36	11.62	
2025-01-08 08:26:09.63	194.38	11.50	
2025-01-08 08:26:10.86	194.40	11.38	
2025-01-08 08:26:12.09	194.42	11.26	
2025-01-08 08:26:13.31	194.44	11.14	
2025-01-08 08:26:14.55	194.46	11.01	
2025-01-08 08:26:15.80	194.47	10.89	
2025-01-08 08:26:17.03	194.49	10.77	
2025-01-08 08:26:18.26	194.51	10.65	
2025-01-08 08:26:19.49	194.53	10.54	
2025-01-08 08:26:20.72	194.54	10.42	
2025-01-08 08:26:21.95	194.56	10.30	
2025-01-08 08:26:23.19	194.58	10.19	
2025-01-08 08:26:24.42	194.59	10.07	
2025-01-08 08:26:25.65	194.61	9.96	
2025-01-08 08:26:26.90	194.63	9.84	
2025-01-08 08:26:28.14	194.65	9.73	
2025-01-08 08:26:29.37	194.66	9.61	
2025-01-08 08:26:30.60	194.68	9.50	
2025-01-08 08:26:31.84	194.70	9.39	
2025-01-08 08:26:33.07	194.71	9.28	
2025-01-08 08:26:34.30	194.73	9.16	
2025-01-08 08:26:35.54	194.74	9.05	
2025-01-08 08:26:36.77	194.76	8.94	
2025-01-08 08:26:38.00	194.78	8.83	
2025-01-08 08:26:39.23	194.79	8.73	
2025-01-08 08:26:40.46	194.81	8.62	
2025-01-08 08:26:41.69	194.82	8.51	
2025-01-08 08:26:42.92	194.84	8.40	
2025-01-08 08:26:44.15	194.85	8.30	
2025-01-08 08:26:45.37	194.87	8.19	
2025-01-08 08:26:46.61	194.88	8.08	
2025-01-08 08:26:47.85	194.90	7.98	
2025-01-08 08:26:49.08	194.91	7.87	
2025-01-08 08:26:50.32	194.93	7.77	
2025-01-08 08:26:51.55	194.94	7.67	
2025-01-08 08:26:52.78	194.96	7.56	
2025-01-08 08:26:54.01	194.97	7.46	
2025-01-08 08:26:55.24	194.99	7.36	
2025-01-08 08:26:56.47	195.00	7.26	
2025-01-08 08:26:57.70	195.02	7.15	
2025-01-08 08:26:58.93	195.03	7.05	
2025-01-08 08:27:00.17	195.04	6.95	
2025-01-08 08:27:01.39	195.06	6.85	
2025-01-08 08:27:02.62	195.07	6.75	
2025-01-08 08:27:03.87	195.09	6.65	
2025-01-08 08:27:05.10	195.10	6.55	
2025-01-08 08:27:06.33	195.12	6.45	
2025-01-08 08:27:07.57	195.13	6.36	
2025-01-08 08:27:08.80	195.14	6.26	
2025-01-08 08:27:10.03	195.16	6.16	
2025-01-08 08:27:11.27	195.17	6.06	
2025-01-08 08:27:12.50	195.18	5.97	
2025-01-08 08:27:13.73	195.20	5.87	
2025-01-08 08:27:14.96	195.21	5.78	
2025-01-08 08:27:16.19	195.22	5.68	
2025-01-08 08:27:17.42	195.24	5.59	
2025-01-08 08:27:18.65	195.25	5.49	
2025-01-08 08:27:19.88	195.26	5.40	
2025-01-08 08:27:21.12	195.28	5.30	
2025-01-08 08:27:22.36	195.29	5.21	
2025-01-08 08:27:23.61	195.30	5.12	
2025-01-08 08:27:24.84	195.31	5.02	
2025-01-08 08:27:26.07	195.33	4.93	
2025-01-08 08:27:27.33	195.34	4.84	
2025-01-08 08:27:28.56	195.35	4.75	
2025-01-08 08:27:29.79	195.37	4.65	
2025-01-08 08:27:31.02	195.38	4.56	
2025-01-08 08:27:32.25	195.39	4.47	
2025-01-08 08:27:33.48	195.40	4.38	
2025-01-08 08:27:34.71	195.42	4.29	
2025-01-08 08:27:35.94	195.43	4.20	
2025-01-08 08:27:37.18	195.44	4.11	
2025-01-08 08:27:38.41	195.45	4.02	

#Closed at: 2025-01-08 08:27:38