passes_logs/2025/01/08/SPB_Silybum_02/SPB_Silybum_02__20250108_003724_AQUA_rec.log

#Pass ID: 20250108_003724_AQUA
#Satellite: AQUA
#Configuration: AQUA
#Start time: 2025-01-08 00:37:25

#Version: 2.0.20230423
#Station: SPB_Silybum_02
#Location: 30.233357 lon 59.946436 lat
#TLE: 1 27424U 02022A   25007.20663841  .00002684  00000+0  56113-3 0  9997
#TLE: 2 27424  98.3577 323.8011 0001408 118.8980 354.1988 14.60651824206481

#Time	Az	El	Level	Level2	SNR	BER	Gain	Gain2
2025-01-08 00:37:27.30	21.26	4.16	
2025-01-08 00:37:28.54	21.31	4.25	
2025-01-08 00:37:29.77	21.36	4.33	
2025-01-08 00:37:31.00	21.42	4.42	
2025-01-08 00:37:32.23	21.47	4.51	
2025-01-08 00:37:33.46	21.52	4.59	
2025-01-08 00:37:34.70	21.58	4.68	
2025-01-08 00:37:35.93	21.63	4.77	
2025-01-08 00:37:37.16	21.69	4.85	
2025-01-08 00:37:38.39	21.74	4.94	
2025-01-08 00:37:39.62	21.80	5.03	
2025-01-08 00:37:40.85	21.86	5.12	
2025-01-08 00:37:42.08	21.91	5.21	
2025-01-08 00:37:43.31	21.97	5.30	
2025-01-08 00:37:44.55	22.03	5.39	
2025-01-08 00:37:45.78	22.08	5.48	
2025-01-08 00:37:47.00	22.14	5.57	
2025-01-08 00:37:48.23	22.20	5.66	
2025-01-08 00:37:49.46	22.26	5.75	
2025-01-08 00:37:50.70	22.32	5.84	
2025-01-08 00:37:51.94	22.38	5.93	
2025-01-08 00:37:53.17	22.44	6.02	
2025-01-08 00:37:54.41	22.50	6.12	
2025-01-08 00:37:55.64	22.56	6.21	
2025-01-08 00:37:56.88	22.62	6.30	
2025-01-08 00:37:58.12	22.68	6.40	
2025-01-08 00:37:59.36	22.74	6.49	
2025-01-08 00:38:00.59	22.81	6.58	
2025-01-08 00:38:01.82	22.87	6.68	
2025-01-08 00:38:03.05	22.93	6.77	
2025-01-08 00:38:04.30	22.99	6.87	
2025-01-08 00:38:05.53	23.06	6.96	
2025-01-08 00:38:06.76	23.12	7.06	
2025-01-08 00:38:07.99	23.19	7.16	
2025-01-08 00:38:09.23	23.25	7.25	
2025-01-08 00:38:10.46	23.32	7.35	
2025-01-08 00:38:11.69	23.38	7.45	
2025-01-08 00:38:12.92	23.45	7.54	
2025-01-08 00:38:14.15	23.52	7.64	
2025-01-08 00:38:15.38	23.58	7.74	
2025-01-08 00:38:16.61	23.65	7.84	
2025-01-08 00:38:17.84	23.72	7.94	
2025-01-08 00:38:19.07	23.79	8.04	
2025-01-08 00:38:20.31	23.86	8.14	
2025-01-08 00:38:21.54	23.93	8.24	
2025-01-08 00:38:22.78	24.00	8.34	
2025-01-08 00:38:24.00	24.07	8.44	
2025-01-08 00:38:25.24	24.14	8.54	
2025-01-08 00:38:26.48	24.21	8.65	
2025-01-08 00:38:27.71	24.28	8.75	
2025-01-08 00:38:28.95	24.35	8.85	
2025-01-08 00:38:30.18	24.43	8.95	
2025-01-08 00:38:31.42	24.50	9.06	
2025-01-08 00:38:32.65	24.57	9.16	
2025-01-08 00:38:33.88	24.65	9.27	
2025-01-08 00:38:35.11	24.72	9.37	
2025-01-08 00:38:36.35	24.80	9.48	
2025-01-08 00:38:37.58	24.88	9.59	
2025-01-08 00:38:38.82	24.95	9.69	
2025-01-08 00:38:40.05	25.03	9.80	
2025-01-08 00:38:41.29	25.11	9.91	
2025-01-08 00:38:42.52	25.19	10.02	
2025-01-08 00:38:43.75	25.27	10.13	
2025-01-08 00:38:44.98	25.34	10.23	
2025-01-08 00:38:46.21	25.42	10.34	
2025-01-08 00:38:47.44	25.51	10.45	
2025-01-08 00:38:48.69	25.59	10.57	
2025-01-08 00:38:49.92	25.67	10.68	
2025-01-08 00:38:51.15	25.75	10.79	
2025-01-08 00:38:52.38	25.84	10.90	
2025-01-08 00:38:53.62	25.92	11.01	
2025-01-08 00:38:54.85	26.00	11.13	
2025-01-08 00:38:56.08	26.09	11.24	
2025-01-08 00:38:57.31	26.18	11.35	
2025-01-08 00:38:58.57	26.26	11.47	
2025-01-08 00:38:59.79	26.35	11.59	
2025-01-08 00:39:01.02	26.44	11.70	
2025-01-08 00:39:02.25	26.53	11.82	
2025-01-08 00:39:03.48	26.62	11.94	
2025-01-08 00:39:04.72	26.71	12.05	
2025-01-08 00:39:05.95	26.80	12.17	
2025-01-08 00:39:07.18	26.89	12.29	
2025-01-08 00:39:08.41	26.98	12.41	
2025-01-08 00:39:09.64	27.07	12.53	
2025-01-08 00:39:10.88	27.17	12.65	
2025-01-08 00:39:12.11	27.26	12.77	
2025-01-08 00:39:13.34	27.36	12.89	
2025-01-08 00:39:14.57	27.46	13.02	
2025-01-08 00:39:15.80	27.55	13.14	
2025-01-08 00:39:17.04	27.65	13.26	
2025-01-08 00:39:18.27	27.75	13.39	
2025-01-08 00:39:19.50	27.85	13.51	
2025-01-08 00:39:20.74	27.95	13.64	
2025-01-08 00:39:21.97	28.05	13.76	
2025-01-08 00:39:23.20	28.15	13.89	
2025-01-08 00:39:24.43	28.26	14.02	
2025-01-08 00:39:25.67	28.36	14.15	
2025-01-08 00:39:26.91	28.47	14.28	
2025-01-08 00:39:28.13	28.57	14.41	
2025-01-08 00:39:29.36	28.68	14.54	
2025-01-08 00:39:30.60	28.79	14.67	
2025-01-08 00:39:31.85	28.90	14.80	
2025-01-08 00:39:33.08	29.01	14.93	
2025-01-08 00:39:34.30	29.12	15.07	
2025-01-08 00:39:35.53	29.23	15.20	
2025-01-08 00:39:36.77	29.34	15.33	
2025-01-08 00:39:38.01	29.46	15.47	
2025-01-08 00:39:39.24	29.57	15.61	
2025-01-08 00:39:40.47	29.69	15.74	
2025-01-08 00:39:41.70	29.80	15.88	
2025-01-08 00:39:42.94	29.92	16.02	
2025-01-08 00:39:44.17	30.04	16.16	
2025-01-08 00:39:45.40	30.16	16.30	
2025-01-08 00:39:46.64	30.28	16.44	
2025-01-08 00:39:47.89	30.41	16.58	
2025-01-08 00:39:49.12	30.53	16.73	
2025-01-08 00:39:50.36	30.66	16.87	
2025-01-08 00:39:51.59	30.78	17.01	
2025-01-08 00:39:52.82	30.91	17.16	
2025-01-08 00:39:54.05	31.04	17.30	
2025-01-08 00:39:55.30	31.17	17.45	
2025-01-08 00:39:56.53	31.30	17.60	
2025-01-08 00:39:57.77	31.43	17.75	
2025-01-08 00:39:59.00	31.57	17.90	
2025-01-08 00:40:00.23	31.70	18.04	
2025-01-08 00:40:01.46	31.84	18.19	
2025-01-08 00:40:02.68	31.98	18.34	
2025-01-08 00:40:03.92	32.12	18.50	
2025-01-08 00:40:05.17	32.26	18.65	
2025-01-08 00:40:06.40	32.40	18.81	
2025-01-08 00:40:07.63	32.55	18.96	
2025-01-08 00:40:08.86	32.69	19.12	
2025-01-08 00:40:10.09	32.84	19.27	
2025-01-08 00:40:11.33	32.99	19.43	
2025-01-08 00:40:12.56	33.14	19.59	
2025-01-08 00:40:13.79	33.29	19.75	
2025-01-08 00:40:15.02	33.44	19.91	
2025-01-08 00:40:16.27	33.60	20.08	
2025-01-08 00:40:17.49	33.75	20.24	
2025-01-08 00:40:18.73	33.91	20.40	
2025-01-08 00:40:19.95	34.07	20.56	
2025-01-08 00:40:21.18	34.23	20.73	
2025-01-08 00:40:22.41	34.39	20.89	
2025-01-08 00:40:23.65	34.56	21.06	
2025-01-08 00:40:24.90	34.73	21.23	
2025-01-08 00:40:26.13	34.90	21.40	
2025-01-08 00:40:27.36	35.07	21.57	
2025-01-08 00:40:28.59	35.24	21.74	
2025-01-08 00:40:29.84	35.42	21.92	
2025-01-08 00:40:31.07	35.60	22.09	
2025-01-08 00:40:32.31	35.78	22.27	
2025-01-08 00:40:33.54	35.96	22.44	
2025-01-08 00:40:34.77	36.14	22.62	
2025-01-08 00:40:36.00	36.32	22.80	
2025-01-08 00:40:37.23	36.51	22.98	
2025-01-08 00:40:38.47	36.70	23.16	
2025-01-08 00:40:39.70	36.89	23.34	
2025-01-08 00:40:40.93	37.09	23.52	
2025-01-08 00:40:42.17	37.28	23.70	
2025-01-08 00:40:43.42	37.48	23.89	
2025-01-08 00:40:44.65	37.69	24.07	
2025-01-08 00:40:45.90	37.89	24.26	
2025-01-08 00:40:47.13	38.10	24.45	
2025-01-08 00:40:48.36	38.31	24.64	
2025-01-08 00:40:49.59	38.52	24.83	
2025-01-08 00:40:50.83	38.73	25.02	
2025-01-08 00:40:52.06	38.95	25.21	
2025-01-08 00:40:53.29	39.17	25.40	
2025-01-08 00:40:54.53	39.39	25.60	
2025-01-08 00:40:55.76	39.61	25.79	
2025-01-08 00:40:57.00	39.84	25.99	
2025-01-08 00:40:58.23	40.07	26.19	
2025-01-08 00:40:59.46	40.30	26.39	
2025-01-08 00:41:00.69	40.54	26.59	
2025-01-08 00:41:01.94	40.78	26.79	
2025-01-08 00:41:03.17	41.03	26.99	
2025-01-08 00:41:04.40	41.27	27.19	
2025-01-08 00:41:05.63	41.52	27.40	
2025-01-08 00:41:06.87	41.77	27.60	
2025-01-08 00:41:08.10	42.03	27.81	
2025-01-08 00:41:09.33	42.28	28.02	
2025-01-08 00:41:10.56	42.55	28.23	
2025-01-08 00:41:11.79	42.81	28.43	
2025-01-08 00:41:13.02	43.08	28.64	
2025-01-08 00:41:14.25	43.35	28.86	
2025-01-08 00:41:15.48	43.63	29.07	
2025-01-08 00:41:16.73	43.91	29.29	
2025-01-08 00:41:17.97	44.20	29.50	
2025-01-08 00:41:19.20	44.49	29.72	
2025-01-08 00:41:20.43	44.78	29.93	
2025-01-08 00:41:21.66	45.07	30.15	
2025-01-08 00:41:22.90	45.37	30.37	
2025-01-08 00:41:24.13	45.68	30.59	
2025-01-08 00:41:25.37	45.99	30.81	
2025-01-08 00:41:26.60	46.30	31.03	
2025-01-08 00:41:27.83	46.62	31.26	
2025-01-08 00:41:29.06	46.94	31.48	
2025-01-08 00:41:30.30	47.26	31.70	
2025-01-08 00:41:31.54	47.60	31.93	
2025-01-08 00:41:32.78	47.93	32.16	
2025-01-08 00:41:34.01	48.27	32.39	
2025-01-08 00:41:35.24	48.62	32.61	
2025-01-08 00:41:36.47	48.97	32.84	
2025-01-08 00:41:37.70	49.32	33.07	
2025-01-08 00:41:38.95	49.69	33.30	
2025-01-08 00:41:40.18	50.05	33.53	
2025-01-08 00:41:41.41	50.42	33.76	
2025-01-08 00:41:42.64	50.80	33.99	
2025-01-08 00:41:43.87	51.18	34.23	
2025-01-08 00:41:45.10	51.56	34.46	
2025-01-08 00:41:46.33	51.96	34.69	
2025-01-08 00:41:47.56	52.35	34.92	
2025-01-08 00:41:48.80	52.76	35.16	
2025-01-08 00:41:50.03	53.17	35.39	
2025-01-08 00:41:51.29	53.59	35.63	
2025-01-08 00:41:52.52	54.02	35.87	
2025-01-08 00:41:53.75	54.44	36.10	
2025-01-08 00:41:54.98	54.88	36.33	
2025-01-08 00:41:56.21	55.32	36.57	
2025-01-08 00:41:57.44	55.76	36.80	
2025-01-08 00:41:58.67	56.22	37.04	
2025-01-08 00:41:59.91	56.68	37.27	
2025-01-08 00:42:01.13	57.14	37.50	
2025-01-08 00:42:02.37	57.62	37.74	
2025-01-08 00:42:03.60	58.10	37.97	
2025-01-08 00:42:04.84	58.59	38.21	
2025-01-08 00:42:06.07	59.09	38.44	
2025-01-08 00:42:07.30	59.59	38.67	
2025-01-08 00:42:08.53	60.10	38.90	
2025-01-08 00:42:09.76	60.61	39.13	
2025-01-08 00:42:10.99	61.14	39.36	
2025-01-08 00:42:12.22	61.67	39.58	
2025-01-08 00:42:13.46	62.21	39.81	
2025-01-08 00:42:14.69	62.76	40.04	
2025-01-08 00:42:15.92	63.31	40.26	
2025-01-08 00:42:17.16	63.88	40.49	
2025-01-08 00:42:18.39	64.45	40.71	
2025-01-08 00:42:19.62	65.02	40.93	
2025-01-08 00:42:20.86	65.61	41.14	
2025-01-08 00:42:22.10	66.21	41.36	
2025-01-08 00:42:23.33	66.81	41.58	
2025-01-08 00:42:24.56	67.42	41.79	
2025-01-08 00:42:25.79	68.04	42.00	
2025-01-08 00:42:27.03	68.67	42.20	
2025-01-08 00:42:28.26	69.30	42.41	
2025-01-08 00:42:29.49	69.94	42.61	
2025-01-08 00:42:30.72	70.59	42.81	
2025-01-08 00:42:31.95	71.25	43.00	
2025-01-08 00:42:33.18	71.92	43.20	
2025-01-08 00:42:34.41	72.59	43.38	
2025-01-08 00:42:35.65	73.28	43.57	
2025-01-08 00:42:36.89	73.98	43.76	
2025-01-08 00:42:38.13	74.68	43.94	
2025-01-08 00:42:39.36	75.39	44.11	
2025-01-08 00:42:40.59	76.10	44.28	
2025-01-08 00:42:41.83	76.83	44.45	
2025-01-08 00:42:43.06	77.56	44.61	
2025-01-08 00:42:44.31	78.31	44.77	
2025-01-08 00:42:45.54	79.05	44.93	
2025-01-08 00:42:46.77	79.80	45.08	
2025-01-08 00:42:48.00	80.56	45.22	
2025-01-08 00:42:49.23	81.32	45.36	
2025-01-08 00:42:50.46	82.10	45.49	
2025-01-08 00:42:51.69	82.87	45.62	
2025-01-08 00:42:52.93	83.67	45.75	
2025-01-08 00:42:54.17	84.46	45.87	
2025-01-08 00:42:55.40	85.26	45.98	
2025-01-08 00:42:56.63	86.06	46.09	
2025-01-08 00:42:57.86	86.87	46.19	
2025-01-08 00:42:59.09	87.68	46.29	
2025-01-08 00:43:00.33	88.51	46.38	
2025-01-08 00:43:01.57	89.34	46.46	
2025-01-08 00:43:02.80	90.17	46.54	
2025-01-08 00:43:04.03	91.00	46.61	
2025-01-08 00:43:05.26	91.83	46.67	
2025-01-08 00:43:06.49	92.67	46.73	
2025-01-08 00:43:07.72	93.51	46.79	
2025-01-08 00:43:08.95	94.35	46.83	
2025-01-08 00:43:10.20	95.21	46.87	
2025-01-08 00:43:11.45	96.08	46.90	
2025-01-08 00:43:12.68	96.93	46.93	
2025-01-08 00:43:13.91	97.78	46.95	
2025-01-08 00:43:15.14	98.63	46.96	
2025-01-08 00:43:16.38	99.49	46.96	
2025-01-08 00:43:17.61	100.34	46.96	
2025-01-08 00:43:18.84	101.19	46.96	
2025-01-08 00:43:20.08	102.05	46.94	
2025-01-08 00:43:21.30	102.89	46.92	
2025-01-08 00:43:22.54	103.75	46.89	
2025-01-08 00:43:23.77	104.60	46.86	
2025-01-08 00:43:25.01	105.45	46.81	
2025-01-08 00:43:26.25	106.30	46.77	
2025-01-08 00:43:27.48	107.14	46.71	
2025-01-08 00:43:28.71	107.98	46.65	
2025-01-08 00:43:29.94	108.81	46.58	
2025-01-08 00:43:31.18	109.65	46.51	
2025-01-08 00:43:32.41	110.48	46.43	
2025-01-08 00:43:33.65	111.30	46.34	
2025-01-08 00:43:34.88	112.12	46.25	
2025-01-08 00:43:36.11	112.93	46.15	
2025-01-08 00:43:37.35	113.75	46.05	
2025-01-08 00:43:38.58	114.55	45.94	
2025-01-08 00:43:39.81	115.34	45.82	
2025-01-08 00:43:41.04	116.13	45.70	
2025-01-08 00:43:42.28	116.92	45.57	
2025-01-08 00:43:43.51	117.70	45.44	
2025-01-08 00:43:44.76	118.49	45.30	
2025-01-08 00:43:45.99	119.25	45.16	
2025-01-08 00:43:47.22	120.01	45.01	
2025-01-08 00:43:48.45	120.76	44.86	
2025-01-08 00:43:49.68	121.50	44.70	
2025-01-08 00:43:50.91	122.23	44.54	
2025-01-08 00:43:52.14	122.96	44.38	
2025-01-08 00:43:53.37	123.68	44.21	
2025-01-08 00:43:54.60	124.39	44.04	
2025-01-08 00:43:55.85	125.11	43.86	
2025-01-08 00:43:57.08	125.81	43.68	
2025-01-08 00:43:58.32	126.50	43.49	
2025-01-08 00:43:59.55	127.18	43.30	
2025-01-08 00:44:00.77	127.85	43.11	
2025-01-08 00:44:02.00	128.51	42.92	
2025-01-08 00:44:03.24	129.17	42.72	
2025-01-08 00:44:04.47	129.82	42.52	
2025-01-08 00:44:05.70	130.46	42.32	
2025-01-08 00:44:06.93	131.10	42.11	
2025-01-08 00:44:08.16	131.72	41.90	
2025-01-08 00:44:09.40	132.34	41.69	
2025-01-08 00:44:10.65	132.96	41.47	
2025-01-08 00:44:11.90	133.57	41.25	
2025-01-08 00:44:13.13	134.16	41.04	
2025-01-08 00:44:14.36	134.74	40.82	
2025-01-08 00:44:15.59	135.32	40.60	
2025-01-08 00:44:16.81	135.88	40.38	
2025-01-08 00:44:18.06	136.45	40.15	
2025-01-08 00:44:19.30	137.01	39.92	
2025-01-08 00:44:20.53	137.55	39.69	
2025-01-08 00:44:21.76	138.09	39.47	
2025-01-08 00:44:23.01	138.63	39.23	
2025-01-08 00:44:24.24	139.15	39.00	
2025-01-08 00:44:25.48	139.67	38.77	
2025-01-08 00:44:26.71	140.17	38.54	
2025-01-08 00:44:27.94	140.67	38.30	
2025-01-08 00:44:29.17	141.17	38.07	
2025-01-08 00:44:30.41	141.65	37.84	
2025-01-08 00:44:31.64	142.13	37.60	
2025-01-08 00:44:32.88	142.61	37.36	
2025-01-08 00:44:34.12	143.08	37.13	
2025-01-08 00:44:35.36	143.54	36.89	
2025-01-08 00:44:36.60	143.99	36.65	
2025-01-08 00:44:37.83	144.44	36.42	
2025-01-08 00:44:39.07	144.88	36.18	
2025-01-08 00:44:40.32	145.32	35.94	
2025-01-08 00:44:41.55	145.75	35.71	
2025-01-08 00:44:42.78	146.17	35.47	
2025-01-08 00:44:44.01	146.58	35.24	
2025-01-08 00:44:45.24	146.99	35.00	
2025-01-08 00:44:46.47	147.39	34.77	
2025-01-08 00:44:47.70	147.78	34.53	
2025-01-08 00:44:48.93	148.17	34.30	
2025-01-08 00:44:50.18	148.56	34.06	
2025-01-08 00:44:51.41	148.94	33.83	
2025-01-08 00:44:52.64	149.32	33.60	
2025-01-08 00:44:53.87	149.69	33.36	
2025-01-08 00:44:55.11	150.05	33.13	
2025-01-08 00:44:56.35	150.41	32.90	
2025-01-08 00:44:57.58	150.76	32.67	
2025-01-08 00:44:58.81	151.11	32.44	
2025-01-08 00:45:00.05	151.46	32.21	
2025-01-08 00:45:01.28	151.80	31.98	
2025-01-08 00:45:02.52	152.13	31.75	
2025-01-08 00:45:03.75	152.46	31.53	
2025-01-08 00:45:04.99	152.79	31.30	
2025-01-08 00:45:06.22	153.11	31.08	
2025-01-08 00:45:07.45	153.42	30.86	
2025-01-08 00:45:08.68	153.73	30.63	
2025-01-08 00:45:09.91	154.04	30.41	
2025-01-08 00:45:11.14	154.34	30.19	
2025-01-08 00:45:12.37	154.64	29.97	
2025-01-08 00:45:13.60	154.93	29.75	
2025-01-08 00:45:14.83	155.22	29.54	
2025-01-08 00:45:16.06	155.51	29.32	
2025-01-08 00:45:17.29	155.79	29.11	
2025-01-08 00:45:18.53	156.07	28.89	
2025-01-08 00:45:19.76	156.35	28.68	
2025-01-08 00:45:20.99	156.62	28.46	
2025-01-08 00:45:22.22	156.88	28.25	
2025-01-08 00:45:23.46	157.15	28.04	
2025-01-08 00:45:24.69	157.41	27.83	
2025-01-08 00:45:25.92	157.67	27.62	
2025-01-08 00:45:27.16	157.92	27.42	
2025-01-08 00:45:28.40	158.17	27.21	
2025-01-08 00:45:29.63	158.42	27.01	
2025-01-08 00:45:30.87	158.67	26.80	
2025-01-08 00:45:32.10	158.91	26.60	
2025-01-08 00:45:33.33	159.15	26.40	
2025-01-08 00:45:34.58	159.38	26.19	
2025-01-08 00:45:35.81	159.62	25.99	
2025-01-08 00:45:37.04	159.84	25.80	
2025-01-08 00:45:38.28	160.07	25.60	
2025-01-08 00:45:39.52	160.30	25.40	
2025-01-08 00:45:40.75	160.52	25.21	
2025-01-08 00:45:41.99	160.74	25.01	
2025-01-08 00:45:43.21	160.95	24.82	
2025-01-08 00:45:44.44	161.16	24.63	
2025-01-08 00:45:45.69	161.37	24.44	
2025-01-08 00:45:46.92	161.58	24.25	
2025-01-08 00:45:48.16	161.79	24.06	
2025-01-08 00:45:49.39	161.99	23.87	
2025-01-08 00:45:50.62	162.19	23.69	
2025-01-08 00:45:51.85	162.39	23.50	
2025-01-08 00:45:53.08	162.58	23.32	
2025-01-08 00:45:54.31	162.77	23.14	
2025-01-08 00:45:55.54	162.96	22.96	
2025-01-08 00:45:56.78	163.15	22.78	
2025-01-08 00:45:58.02	163.34	22.60	
2025-01-08 00:45:59.26	163.53	22.42	
2025-01-08 00:46:00.48	163.71	22.24	
2025-01-08 00:46:01.71	163.89	22.07	
2025-01-08 00:46:02.95	164.06	21.89	
2025-01-08 00:46:04.18	164.24	21.72	
2025-01-08 00:46:05.41	164.41	21.54	
2025-01-08 00:46:06.64	164.58	21.37	
2025-01-08 00:46:07.87	164.75	21.20	
2025-01-08 00:46:09.12	164.92	21.03	
2025-01-08 00:46:10.35	165.09	20.86	
2025-01-08 00:46:11.58	165.25	20.69	
2025-01-08 00:46:12.83	165.42	20.52	
2025-01-08 00:46:14.06	165.58	20.36	
2025-01-08 00:46:15.32	165.74	20.19	
2025-01-08 00:46:16.55	165.90	20.02	
2025-01-08 00:46:17.78	166.05	19.86	
2025-01-08 00:46:19.01	166.21	19.70	
2025-01-08 00:46:20.25	166.36	19.54	
2025-01-08 00:46:21.48	166.51	19.38	
2025-01-08 00:46:22.71	166.66	19.22	
2025-01-08 00:46:23.94	166.81	19.06	
2025-01-08 00:46:25.17	166.95	18.91	
2025-01-08 00:46:26.41	167.10	18.75	
2025-01-08 00:46:27.64	167.24	18.59	
2025-01-08 00:46:28.88	167.38	18.44	
2025-01-08 00:46:30.11	167.52	18.28	
2025-01-08 00:46:31.35	167.66	18.13	
2025-01-08 00:46:32.58	167.80	17.98	
2025-01-08 00:46:33.82	167.93	17.83	
2025-01-08 00:46:35.05	168.07	17.68	
2025-01-08 00:46:36.28	168.20	17.53	
2025-01-08 00:46:37.52	168.33	17.38	
2025-01-08 00:46:38.75	168.46	17.23	
2025-01-08 00:46:39.98	168.59	17.08	
2025-01-08 00:46:41.22	168.72	16.94	
2025-01-08 00:46:42.45	168.85	16.79	
2025-01-08 00:46:43.68	168.97	16.65	
2025-01-08 00:46:44.92	169.10	16.51	
2025-01-08 00:46:46.15	169.22	16.36	
2025-01-08 00:46:47.37	169.34	16.22	
2025-01-08 00:46:48.61	169.46	16.08	
2025-01-08 00:46:49.84	169.58	15.94	
2025-01-08 00:46:51.07	169.70	15.80	
2025-01-08 00:46:52.31	169.82	15.66	
2025-01-08 00:46:53.54	169.93	15.52	
2025-01-08 00:46:54.77	170.05	15.39	
2025-01-08 00:46:56.00	170.16	15.25	
2025-01-08 00:46:57.25	170.27	15.11	
2025-01-08 00:46:58.49	170.39	14.98	
2025-01-08 00:46:59.72	170.50	14.84	
2025-01-08 00:47:00.95	170.61	14.71	
2025-01-08 00:47:02.18	170.72	14.58	
2025-01-08 00:47:03.42	170.82	14.45	
2025-01-08 00:47:04.65	170.93	14.31	
2025-01-08 00:47:05.88	171.04	14.18	
2025-01-08 00:47:07.11	171.14	14.05	
2025-01-08 00:47:08.36	171.25	13.92	
2025-01-08 00:47:09.61	171.35	13.79	
2025-01-08 00:47:10.84	171.45	13.67	
2025-01-08 00:47:12.07	171.55	13.54	
2025-01-08 00:47:13.30	171.65	13.41	
2025-01-08 00:47:14.55	171.75	13.28	
2025-01-08 00:47:15.78	171.85	13.16	
2025-01-08 00:47:17.00	171.95	13.04	
2025-01-08 00:47:18.23	172.05	12.91	
2025-01-08 00:47:19.46	172.14	12.79	
2025-01-08 00:47:20.70	172.24	12.67	
2025-01-08 00:47:21.93	172.33	12.54	
2025-01-08 00:47:23.16	172.43	12.42	
2025-01-08 00:47:24.39	172.52	12.30	
2025-01-08 00:47:25.63	172.61	12.18	
2025-01-08 00:47:26.86	172.70	12.06	
2025-01-08 00:47:28.09	172.79	11.94	
2025-01-08 00:47:29.32	172.88	11.82	
2025-01-08 00:47:30.54	172.97	11.71	
2025-01-08 00:47:31.77	173.06	11.59	
2025-01-08 00:47:33.01	173.15	11.47	
2025-01-08 00:47:34.24	173.23	11.36	
2025-01-08 00:47:35.47	173.32	11.24	
2025-01-08 00:47:36.70	173.40	11.13	
2025-01-08 00:47:37.93	173.49	11.01	
2025-01-08 00:47:39.17	173.57	10.90	
2025-01-08 00:47:40.40	173.66	10.78	
2025-01-08 00:47:41.63	173.74	10.67	
2025-01-08 00:47:42.86	173.82	10.56	
2025-01-08 00:47:44.09	173.90	10.45	
2025-01-08 00:47:45.32	173.98	10.34	
2025-01-08 00:47:46.56	174.07	10.22	
2025-01-08 00:47:47.79	174.15	10.11	
2025-01-08 00:47:49.02	174.22	10.00	
2025-01-08 00:47:50.26	174.30	9.89	
2025-01-08 00:47:51.48	174.38	9.79	
2025-01-08 00:47:52.72	174.46	9.68	
2025-01-08 00:47:53.95	174.53	9.57	
2025-01-08 00:47:55.18	174.61	9.46	
2025-01-08 00:47:56.41	174.69	9.35	
2025-01-08 00:47:57.66	174.76	9.25	
2025-01-08 00:47:58.89	174.84	9.14	
2025-01-08 00:48:00.12	174.91	9.04	
2025-01-08 00:48:01.35	174.98	8.93	
2025-01-08 00:48:02.58	175.06	8.83	
2025-01-08 00:48:03.83	175.13	8.72	
2025-01-08 00:48:05.06	175.20	8.62	
2025-01-08 00:48:06.31	175.27	8.51	
2025-01-08 00:48:07.55	175.34	8.41	
2025-01-08 00:48:08.78	175.41	8.31	
2025-01-08 00:48:10.02	175.49	8.20	
2025-01-08 00:48:11.25	175.55	8.10	
2025-01-08 00:48:12.49	175.62	8.00	
2025-01-08 00:48:13.72	175.69	7.90	
2025-01-08 00:48:14.96	175.76	7.80	
2025-01-08 00:48:16.20	175.83	7.70	
2025-01-08 00:48:17.45	175.90	7.60	
2025-01-08 00:48:18.68	175.96	7.50	
2025-01-08 00:48:19.92	176.03	7.40	
2025-01-08 00:48:21.17	176.09	7.30	
2025-01-08 00:48:22.40	176.16	7.20	
2025-01-08 00:48:23.64	176.22	7.10	
2025-01-08 00:48:24.88	176.29	7.01	
2025-01-08 00:48:26.11	176.35	6.91	
2025-01-08 00:48:27.34	176.42	6.81	
2025-01-08 00:48:28.57	176.48	6.72	
2025-01-08 00:48:29.80	176.54	6.62	
2025-01-08 00:48:31.04	176.60	6.53	
2025-01-08 00:48:32.27	176.66	6.43	
2025-01-08 00:48:33.51	176.73	6.34	
2025-01-08 00:48:34.76	176.79	6.24	
2025-01-08 00:48:35.99	176.85	6.15	
2025-01-08 00:48:37.22	176.91	6.05	
2025-01-08 00:48:38.45	176.97	5.96	
2025-01-08 00:48:39.68	177.03	5.87	
2025-01-08 00:48:40.93	177.09	5.77	
2025-01-08 00:48:42.16	177.14	5.68	
2025-01-08 00:48:43.39	177.20	5.59	
2025-01-08 00:48:44.62	177.26	5.50	
2025-01-08 00:48:45.85	177.32	5.41	
2025-01-08 00:48:47.09	177.37	5.32	
2025-01-08 00:48:48.33	177.43	5.23	
2025-01-08 00:48:49.56	177.49	5.14	
2025-01-08 00:48:50.80	177.54	5.05	
2025-01-08 00:48:52.05	177.60	4.96	
2025-01-08 00:48:53.28	177.66	4.87	
2025-01-08 00:48:54.53	177.71	4.78	
2025-01-08 00:48:55.76	177.77	4.69	
2025-01-08 00:48:56.99	177.82	4.60	
2025-01-08 00:48:58.24	177.87	4.51	
2025-01-08 00:48:59.47	177.93	4.42	
2025-01-08 00:49:00.71	177.98	4.34	
2025-01-08 00:49:01.95	178.03	4.25	
2025-01-08 00:49:03.19	178.09	4.16	
2025-01-08 00:49:04.42	178.14	4.07	

#Closed at: 2025-01-08 00:49:05